country,state,city,station,last_update,latitude,longitude,pollutant_id,pollutant_min,pollutant_max,pollutant_avg
India,Andhra_Pradesh,Amaravati,"Secretariat, Amaravati - APPCB",15-05-2024 21:00:00,16.5150833,80.5181667,NO2,6,18,11
India,Andhra_Pradesh,Anantapur,"Gulzarpet, Anantapur - APPCB",15-05-2024 21:00:00,14.675886,77.593027,PM10,43,82,64
India,Andhra_Pradesh,Anantapur,"Gulzarpet, Anantapur - APPCB",15-05-2024 21:00:00,14.675886,77.593027,CO,16,37,29
India,Andhra_Pradesh,Chittoor,"Gangineni Cheruvu, Chittoor - APPCB",15-05-2024 21:00:00,13.204880,79.097889,NO2,NA,NA,NA
India,Andhra_Pradesh,Rajamahendravaram,"Anand Kala Kshetram, Rajamahendravaram - APPCB",15-05-2024 21:00:00,16.9872867,81.7363176,PM2.5,25,92,53
India,Andhra_Pradesh,Rajamahendravaram,"Anand Kala Kshetram, Rajamahendravaram - APPCB",15-05-2024 21:00:00,16.9872867,81.7363176,NO2,9,60,22
India,Andhra_Pradesh,Rajamahendravaram,"Anand Kala Kshetram, Rajamahendravaram - APPCB",15-05-2024 21:00:00,16.9872867,81.7363176,SO2,12,13,12
India,Andhra_Pradesh,Tirupati,"Tirumala, Tirupati - APPCB",15-05-2024 21:00:00,13.67,79.35,PM10,20,96,41
India,Andhra_Pradesh,Tirupati,"Tirumala, Tirupati - APPCB",15-05-2024 21:00:00,13.67,79.35,NO2,15,25,20
India,Andhra_Pradesh,Tirupati,"Tirumala, Tirupati - APPCB",15-05-2024 21:00:00,13.67,79.35,NH3,1,1,1
India,Andhra_Pradesh,Tirupati,"Tirumala, Tirupati - APPCB",15-05-2024 21:00:00,13.67,79.35,CO,32,55,40
India,Andhra_Pradesh,Vijayawada,"HB Colony, Vijayawada - APPCB",15-05-2024 21:00:00,16.536107,80.594233,PM10,NA,NA,NA
India,Andhra_Pradesh,Vijayawada,"HB Colony, Vijayawada - APPCB",15-05-2024 21:00:00,16.536107,80.594233,NO2,NA,NA,NA
India,Andhra_Pradesh,Vijayawada,"Rajiv Gandhi Park, Vijayawada - APPCB",15-05-2024 21:00:00,16.509717,80.612222,SO2,NA,NA,NA
India,Andhra_Pradesh,Vijayawada,"Rajiv Gandhi Park, Vijayawada - APPCB",15-05-2024 21:00:00,16.509717,80.612222,OZONE,15,71,39
India,Andhra_Pradesh,Vijayawada,"Rajiv Nagar, Vijayawada - APPCB",15-05-2024 21:00:00,16.554731,80.649110,PM10,NA,NA,NA
India,Andhra_Pradesh,Visakhapatnam,"GVM Corporation, Visakhapatnam - APPCB",15-05-2024 21:00:00,17.72,83.3,NO2,2,39,14
India,Assam,Byrnihat,"Central Academy for SFS, Byrnihat - PCBA",15-05-2024 21:00:00,26.071318,91.87488,NO2,28,46,37
India,Assam,Guwahati,"LGBI Airport, Guwahati - PCBA",15-05-2024 21:00:00,26.10887,91.589544,CO,44,57,48
India,Assam,Guwahati,"Railway Colony, Guwahati - PCBA",15-05-2024 21:00:00,26.181742,91.78063,CO,20,66,30
India,Assam,Nagaon,"Christianpatty, Nagaon - PCBA",15-05-2024 21:00:00,26.349082,92.68449,PM2.5,67,110,84
India,Assam,Nagaon,"Christianpatty, Nagaon - PCBA",15-05-2024 21:00:00,26.349082,92.68449,NH3,3,4,3
India,Assam,Nalbari,"Bata Chowk, Nalbari - PCBA",15-05-2024 21:00:00,26.446912,91.439057,SO2,9,19,12
India,Assam,Nalbari,"Bata Chowk, Nalbari - PCBA",15-05-2024 21:00:00,26.446912,91.439057,OZONE,7,16,14
India,Assam,Silchar,"Tarapur, Silchar - PCBA",15-05-2024 21:00:00,24.82827,92.79525,NO2,15,16,16
India,Assam,Silchar,"Tarapur, Silchar - PCBA",15-05-2024 21:00:00,24.82827,92.79525,NH3,1,1,1
India,Assam,Sivasagar,"Girls College, Sivasagar - PCBA",15-05-2024 21:00:00,26.987634,94.636574,NO2,7,26,13
India,Assam,Sivasagar,"Girls College, Sivasagar - PCBA",15-05-2024 21:00:00,26.987634,94.636574,CO,18,30,19
India,Bihar,Araria,"Kharahiya Basti, Araria - BSPCB",15-05-2024 21:00:00,26.146529,87.454184,OZONE,6,10,8
India,Bihar,Arrah,"New DM Office, Arrah - BSPCB",15-05-2024 21:00:00,25.5626095,84.663264,PM10,72,142,99
India,Bihar,Arrah,"New DM Office, Arrah - BSPCB",15-05-2024 21:00:00,25.5626095,84.663264,NO2,9,16,12
India,Bihar,Arrah,"New DM Office, Arrah - BSPCB",15-05-2024 21:00:00,25.5626095,84.663264,SO2,2,50,16
India,Bihar,Arrah,"New DM Office, Arrah - BSPCB",15-05-2024 21:00:00,25.5626095,84.663264,CO,12,23,17
India,Bihar,Aurangabad,"Gurdeo Nagar, Aurangabad - BSPCB",15-05-2024 21:00:00,24.75746,84.366208,PM10,NA,NA,NA
India,Bihar,Bettiah,"Kamalnath Nagar, Bettiah - BSPCB",15-05-2024 21:00:00,26.80365,84.51954,NH3,3,20,9
India,Bihar,Bhagalpur,"DM Office_Kachari Chowk, Bhagalpur - BSPCB",15-05-2024 21:00:00,25.251013,86.989001,PM2.5,65,227,114
India,Bihar,Bhagalpur,"DM Office_Kachari Chowk, Bhagalpur - BSPCB",15-05-2024 21:00:00,25.251013,86.989001,NO2,32,93,70
India,Bihar,Bhagalpur,"DM Office_Kachari Chowk, Bhagalpur - BSPCB",15-05-2024 21:00:00,25.251013,86.989001,NH3,2,6,4
India,Bihar,Bhagalpur,"DM Office_Kachari Chowk, Bhagalpur - BSPCB",15-05-2024 21:00:00,25.251013,86.989001,SO2,22,69,46
India,Bihar,Bhagalpur,"Mayaganj, Bhagalpur - BSPCB",15-05-2024 21:00:00,25.265194,87.012947,PM10,79,149,106
India,Bihar,Bhagalpur,"Mayaganj, Bhagalpur - BSPCB",15-05-2024 21:00:00,25.265194,87.012947,CO,1,40,6
India,Bihar,Bhagalpur,"Mayaganj, Bhagalpur - BSPCB",15-05-2024 21:00:00,25.265194,87.012947,OZONE,9,58,41
India,Bihar,Bihar Sharif,"D M Colony, Bihar Sharif - BSPCB",15-05-2024 21:00:00,25.204762,85.514960,PM10,52,158,79
India,Bihar,Buxar,"Charitra Van, Buxar - BSPCB (Formerly known as Central Jail)",15-05-2024 21:00:00,25.567520,83.966379,CO,25,132,78
India,Bihar,Buxar,"Charitra Van, Buxar - BSPCB (Formerly known as Central Jail)",15-05-2024 21:00:00,25.567520,83.966379,OZONE,22,266,178
India,Bihar,Chhapra,"Darshan Nagar, Chhapra - BSPCB",15-05-2024 21:00:00,25.7808257,84.7446768,PM2.5,207,346,291
India,Bihar,Chhapra,"Darshan Nagar, Chhapra - BSPCB",15-05-2024 21:00:00,25.7808257,84.7446768,SO2,17,31,23
India,Bihar,Gaya,"Collectorate, Gaya - BSPCB",15-05-2024 21:00:00,24.7955,84.9994,PM2.5,62,313,158
India,Bihar,Gaya,"Kareemganj, Gaya - BSPCB",15-05-2024 21:00:00,24.792403,84.992416,CO,8,22,14
India,Bihar,Gaya,"SFTI Kusdihra, Gaya - BSPCB",15-05-2024 21:00:00,24.762518,84.982348,PM10,48,82,67
India,Bihar,Gaya,"SFTI Kusdihra, Gaya - BSPCB",15-05-2024 21:00:00,24.762518,84.982348,SO2,6,12,8
India,Bihar,Gaya,"SFTI Kusdihra, Gaya - BSPCB",15-05-2024 21:00:00,24.762518,84.982348,CO,18,48,23
India,Bihar,Hajipur,"Industrial Area, Hajipur - BSPCB",15-05-2024 21:00:00,25.697189,85.245900,NO2,NA,NA,NA
India,Bihar,Katihar,"Mirchaibari, Katihar - BSPCB",15-05-2024 21:00:00,25.560083,87.553265,OZONE,3,18,12
India,Bihar,Kishanganj,"SDM Office_Khagra, Kishanganj - BSPCB",15-05-2024 21:00:00,26.0881305,87.93840336,SO2,30,34,32
India,Bihar,Manguraha,"Forest Rest House, Manguraha - BSPCB",15-05-2024 21:00:00,27.308328,84.531742,PM2.5,40,68,46
India,Bihar,Manguraha,"Forest Rest House, Manguraha - BSPCB",15-05-2024 21:00:00,27.308328,84.531742,CO,26,36,28
India,Bihar,Munger,"Town Hall, Munger - BSPCB",15-05-2024 21:00:00,25.376776,86.471523,PM10,NA,NA,NA
India,Bihar,Muzaffarpur,"Buddha Colony, Muzaffarpur - BSPCB",15-05-2024 21:00:00,26.11442,85.39813,NO2,18,45,26
India,Bihar,Muzaffarpur,"Buddha Colony, Muzaffarpur - BSPCB",15-05-2024 21:00:00,26.11442,85.39813,OZONE,20,78,62
India,Bihar,Muzaffarpur,"MIT-Daudpur Kothi, Muzaffarpur - BSPCB",15-05-2024 21:00:00,26.1403345,85.3650192,OZONE,6,42,30
India,Bihar,Muzaffarpur,"Muzaffarpur Collectorate, Muzaffarpur - BSPCB",15-05-2024 21:00:00,26.1209,85.3647,OZONE,51,108,80
India,Bihar,Patna,"DRM Office Danapur, Patna - BSPCB",15-05-2024 21:00:00,25.586562,85.043586,PM2.5,152,270,205
India,Bihar,Patna,"DRM Office Danapur, Patna - BSPCB",15-05-2024 21:00:00,25.586562,85.043586,SO2,8,16,13
India,Bihar,Patna,"Govt. High School Shikarpur, Patna - BSPCB",15-05-2024 21:00:00,25.592539,85.227158,CO,38,74,46
India,Bihar,Patna,"Muradpur, Patna - BSPCB",15-05-2024 21:00:00,25.619651,85.147382,NO2,28,105,51
India,Bihar,Patna,"Muradpur, Patna - BSPCB",15-05-2024 21:00:00,25.619651,85.147382,SO2,5,9,6
India,Bihar,Patna,"Rajbansi Nagar, Patna - BSPCB",15-05-2024 21:00:00,25.599486,85.113666,PM2.5,167,302,242
India,Bihar,Patna,"Rajbansi Nagar, Patna - BSPCB",15-05-2024 21:00:00,25.599486,85.113666,PM10,124,200,168
India,Bihar,Patna,"Rajbansi Nagar, Patna - BSPCB",15-05-2024 21:00:00,25.599486,85.113666,NO2,7,74,29
India,Bihar,Patna,"Rajbansi Nagar, Patna - BSPCB",15-05-2024 21:00:00,25.599486,85.113666,SO2,1,14,7
India,Bihar,Purnia,"Mariam Nagar, Purnia - BSPCB",15-05-2024 21:00:00,25.366336,87.117468,PM2.5,70,98,85
India,Bihar,Purnia,"Mariam Nagar, Purnia - BSPCB",15-05-2024 21:00:00,25.366336,87.117468,PM10,101,125,113
India,Bihar,Rajgir,"Dangi Tola, Rajgir - BSPCB",15-05-2024 21:00:00,25.03280,85.41948,SO2,4,5,4
India,Bihar,Siwan,"Chitragupta Nagar, Siwan - BSPCB",15-05-2024 21:00:00,26.2271665,84.3570427,NO2,11,45,20
India,Bihar,Siwan,"Chitragupta Nagar, Siwan - BSPCB",15-05-2024 21:00:00,26.2271665,84.3570427,CO,78,154,120
India,Bihar,Siwan,"Chitragupta Nagar, Siwan - BSPCB",15-05-2024 21:00:00,26.2271665,84.3570427,OZONE,29,109,81
India,Chandigarh,Chandigarh,"Sector 22, Chandigarh - CPCC",15-05-2024 21:00:00,30.735567,76.775714,OZONE,3,301,138
India,Chandigarh,Chandigarh,"Sector-25, Chandigarh - CPCC",15-05-2024 21:00:00,30.751462,76.762879,PM2.5,82,206,150
India,Chandigarh,Chandigarh,"Sector-25, Chandigarh - CPCC",15-05-2024 21:00:00,30.751462,76.762879,NH3,10,45,22
India,Chandigarh,Chandigarh,"Sector-25, Chandigarh - CPCC",15-05-2024 21:00:00,30.751462,76.762879,SO2,7,21,12
India,Chhattisgarh,Bhilai,"32Bungalows, Bhilai - CECB",15-05-2024 21:00:00,21.194815,81.314770,CO,20,33,24
India,Chhattisgarh,Bhilai,"32Bungalows, Bhilai - CECB",15-05-2024 21:00:00,21.194815,81.314770,OZONE,6,83,56
India,Chhattisgarh,Bhilai,"Hathkhoj, Bhilai - CECB",15-05-2024 21:00:00,21.224231,81.408350,PM2.5,44,141,75
India,Chhattisgarh,Bhilai,"Hathkhoj, Bhilai - CECB",15-05-2024 21:00:00,21.224231,81.408350,NO2,11,32,22
India,Chhattisgarh,Bhilai,"Hathkhoj, Bhilai - CECB",15-05-2024 21:00:00,21.224231,81.408350,SO2,22,61,35
India,Chhattisgarh,Chhal,"Nawapara SECL Colony, Chhal - CECB",15-05-2024 21:00:00,22.118125,83.140608,NO2,8,56,23
India,Chhattisgarh,Chhal,"Nawapara SECL Colony, Chhal - CECB",15-05-2024 21:00:00,22.118125,83.140608,CO,12,36,28
India,Chhattisgarh,Korba,"Urja Nagar, Korba - CECB",15-05-2024 21:00:00,22.348441,82.549611,SO2,1,3,2
India,Chhattisgarh,Korba,"Urja Nagar, Korba - CECB",15-05-2024 21:00:00,22.348441,82.549611,OZONE,1,6,4
India,Chhattisgarh,Kunjemura,"OP Jindal School, Kunjemura - CECB",15-05-2024 21:00:00,22.126650,83.483212,CO,24,64,28
India,Chhattisgarh,Kunjemura,"OP Jindal School, Kunjemura - CECB",15-05-2024 21:00:00,22.126650,83.483212,OZONE,5,57,40
India,Chhattisgarh,Milupara,"Govt. Higher Secondary School, Milupara - CECB",15-05-2024 21:00:00,22.1910172,83.5197009,NH3,NA,NA,NA
India,Chhattisgarh,Raipur,"AIIMS, Raipur - CECB",15-05-2024 21:00:00,21.258815,81.578979,NO2,NA,NA,NA
India,Chhattisgarh,Raipur,"AIIMS, Raipur - CECB",15-05-2024 21:00:00,21.258815,81.578979,SO2,NA,NA,NA
India,Chhattisgarh,Raipur,"Bhatagaon New ISBT, Raipur - CECB",15-05-2024 21:00:00,21.219665,81.630094,NO2,5,13,10
India,Chhattisgarh,Raipur,"Bhatagaon New ISBT, Raipur - CECB",15-05-2024 21:00:00,21.219665,81.630094,NH3,2,2,2
India,Chhattisgarh,Raipur,"Bhatagaon New ISBT, Raipur - CECB",15-05-2024 21:00:00,21.219665,81.630094,SO2,1,2,2
India,Chhattisgarh,Raipur,"Bhatagaon New ISBT, Raipur - CECB",15-05-2024 21:00:00,21.219665,81.630094,OZONE,3,8,6
India,Chhattisgarh,Raipur,"Krishak Nagar, Raipur - CECB",15-05-2024 21:00:00,21.237755,81.705301,SO2,10,77,29
India,Chhattisgarh,Raipur,"Siltara Phase-II, Raipur - CECB",15-05-2024 21:00:00,21.371751,81.664929,NH3,NA,NA,NA
India,Chhattisgarh,Raipur,"Siltara Phase-II, Raipur - CECB",15-05-2024 21:00:00,21.371751,81.664929,OZONE,9,32,14
India,Chhattisgarh,Tumidih,"OP Jindal Industrial Park, Tumidih - CECB",15-05-2024 21:00:00,22.06631475,83.33820077,PM2.5,NA,NA,NA
India,Delhi,Delhi,"Alipur, Delhi - DPCC",15-05-2024 21:00:00,28.815329,77.153010,PM10,107,476,291
India,Delhi,Delhi,"Alipur, Delhi - DPCC",15-05-2024 21:00:00,28.815329,77.153010,NH3,6,12,8
India,Delhi,Delhi,"Alipur, Delhi - DPCC",15-05-2024 21:00:00,28.815329,77.153010,CO,30,105,48
India,Delhi,Delhi,"Anand Vihar, Delhi - DPCC",15-05-2024 21:00:00,28.647622,77.3158090,NO2,72,198,126
India,Delhi,Delhi,"Anand Vihar, Delhi - DPCC",15-05-2024 21:00:00,28.647622,77.3158090,OZONE,6,213,142
India,Delhi,Delhi,"Ashok Vihar, Delhi - DPCC",15-05-2024 21:00:00,28.695381,77.181665,PM10,137,388,238
India,Delhi,Delhi,"Aya Nagar, Delhi - IMD",15-05-2024 21:00:00,28.4706914,77.1099364,NO2,8,24,19
India,Delhi,Delhi,"Aya Nagar, Delhi - IMD",15-05-2024 21:00:00,28.4706914,77.1099364,OZONE,3,84,66
India,Delhi,Delhi,"Bawana, Delhi - DPCC",15-05-2024 21:00:00,28.776200,77.051074,OZONE,2,276,218
India,Delhi,Delhi,"Burari Crossing, Delhi - IMD",15-05-2024 21:00:00,28.7256504,77.2011573,PM10,118,442,277
India,Delhi,Delhi,"Burari Crossing, Delhi - IMD",15-05-2024 21:00:00,28.7256504,77.2011573,CO,48,101,53
India,Delhi,Delhi,"Burari Crossing, Delhi - IMD",15-05-2024 21:00:00,28.7256504,77.2011573,OZONE,7,158,109
India,Delhi,Delhi,"Chandni Chowk, Delhi - IITM",15-05-2024 21:00:00,28.656756,77.227234,SO2,NA,NA,NA
India,Delhi,Delhi,"DTU, Delhi - CPCB",15-05-2024 21:00:00,28.7500499,77.1112615,PM2.5,137,412,294
India,Delhi,Delhi,"DTU, Delhi - CPCB",15-05-2024 21:00:00,28.7500499,77.1112615,SO2,35,60,44
India,Delhi,Delhi,"DTU, Delhi - CPCB",15-05-2024 21:00:00,28.7500499,77.1112615,OZONE,24,105,60
India,Delhi,Delhi,"Dr. Karni Singh Shooting Range, Delhi - DPCC",15-05-2024 21:00:00,28.498571,77.264840,SO2,30,59,41
India,Delhi,Delhi,"Dr. Karni Singh Shooting Range, Delhi - DPCC",15-05-2024 21:00:00,28.498571,77.264840,OZONE,3,185,76
India,Delhi,Delhi,"IHBAS, Dilshad Garden, Delhi - CPCB",15-05-2024 21:00:00,28.6811736,77.3025234,PM10,91,374,159
India,Delhi,Delhi,"IHBAS, Dilshad Garden, Delhi - CPCB",15-05-2024 21:00:00,28.6811736,77.3025234,SO2,3,26,10
India,Delhi,Delhi,"IHBAS, Dilshad Garden, Delhi - CPCB",15-05-2024 21:00:00,28.6811736,77.3025234,CO,8,54,25
India,Delhi,Delhi,"ITO, Delhi - CPCB",15-05-2024 21:00:00,28.628624,77.241060,PM2.5,137,362,247
India,Delhi,Delhi,"ITO, Delhi - CPCB",15-05-2024 21:00:00,28.628624,77.241060,NH3,1,8,4
India,Delhi,Delhi,"ITO, Delhi - CPCB",15-05-2024 21:00:00,28.628624,77.241060,OZONE,1,95,66
India,Delhi,Delhi,"Jawaharlal Nehru Stadium, Delhi - DPCC",15-05-2024 21:00:00,28.580280,77.233829,OZONE,2,267,83
India,Delhi,Delhi,"Lodhi Road, Delhi - IITM",15-05-2024 21:00:00,28.588333,77.221667,PM2.5,78,418,173
India,Delhi,Delhi,"Lodhi Road, Delhi - IITM",15-05-2024 21:00:00,28.588333,77.221667,PM10,43,259,88
India,Delhi,Delhi,"Lodhi Road, Delhi - IITM",15-05-2024 21:00:00,28.588333,77.221667,NO2,9,165,75
India,Delhi,Delhi,"Lodhi Road, Delhi - IMD",15-05-2024 21:00:00,28.5918245,77.2273074,PM10,115,212,148
India,Delhi,Delhi,"Major Dhyan Chand National Stadium, Delhi - DPCC",15-05-2024 21:00:00,28.611281,77.237738,PM2.5,88,348,214
India,Delhi,Delhi,"Major Dhyan Chand National Stadium, Delhi - DPCC",15-05-2024 21:00:00,28.611281,77.237738,SO2,14,46,26
India,Delhi,Delhi,"Mandir Marg, Delhi - DPCC",15-05-2024 21:00:00,28.636429,77.201067,PM2.5,87,343,210
India,Delhi,Delhi,"Mandir Marg, Delhi - DPCC",15-05-2024 21:00:00,28.636429,77.201067,SO2,3,17,11
India,Delhi,Delhi,"Mundka, Delhi - DPCC",15-05-2024 21:00:00,28.684678,77.076574,NH3,3,10,6
India,Delhi,Delhi,"Mundka, Delhi - DPCC",15-05-2024 21:00:00,28.684678,77.076574,SO2,15,115,50
India,Delhi,Delhi,"NSIT Dwarka, Delhi - CPCB",15-05-2024 21:00:00,28.60909,77.0325413,NO2,23,58,40
India,Delhi,Delhi,"NSIT Dwarka, Delhi - CPCB",15-05-2024 21:00:00,28.60909,77.0325413,OZONE,11,125,95
India,Delhi,Delhi,"Najafgarh, Delhi - DPCC",15-05-2024 21:00:00,28.570173,76.933762,NH3,6,11,8
India,Delhi,Delhi,"Najafgarh, Delhi - DPCC",15-05-2024 21:00:00,28.570173,76.933762,OZONE,16,196,165
India,Delhi,Delhi,"Narela, Delhi - DPCC",15-05-2024 21:00:00,28.822836,77.101981,NH3,6,10,8
India,Delhi,Delhi,"Nehru Nagar, Delhi - DPCC",15-05-2024 21:00:00,28.567890,77.250515,CO,44,89,57
India,Delhi,Delhi,"North Campus, DU, Delhi - IMD",15-05-2024 21:00:00,28.6573814,77.1585447,OZONE,1,84,52
India,Delhi,Delhi,"Okhla Phase-2, Delhi - DPCC",15-05-2024 21:00:00,28.530785,77.271255,NH3,7,12,8
India,Delhi,Delhi,"Punjabi Bagh, Delhi - DPCC",15-05-2024 21:00:00,28.674045,77.131023,NO2,49,114,74
India,Delhi,Delhi,"Pusa, Delhi - DPCC",15-05-2024 21:00:00,28.639652,77.146275,PM10,133,440,234
India,Delhi,Delhi,"Pusa, Delhi - DPCC",15-05-2024 21:00:00,28.639652,77.146275,NO2,52,157,114
India,Delhi,Delhi,"Pusa, Delhi - DPCC",15-05-2024 21:00:00,28.639652,77.146275,SO2,10,54,24
India,Delhi,Delhi,"Pusa, Delhi - IMD",15-05-2024 21:00:00,28.636110,77.173332,CO,40,103,40
India,Delhi,Delhi,"Pusa, Delhi - IMD",15-05-2024 21:00:00,28.636110,77.173332,OZONE,4,70,68
India,Delhi,Delhi,"R K Puram, Delhi - DPCC",15-05-2024 21:00:00,28.563262,77.186937,PM10,123,456,219
India,Delhi,Delhi,"R K Puram, Delhi - DPCC",15-05-2024 21:00:00,28.563262,77.186937,NO2,8,138,61
India,Delhi,Delhi,"Rohini, Delhi - DPCC",15-05-2024 21:00:00,28.732528,77.119920,NO2,26,226,101
India,Delhi,Delhi,"Rohini, Delhi - DPCC",15-05-2024 21:00:00,28.732528,77.119920,OZONE,5,250,95
India,Delhi,Delhi,"Shadipur, Delhi - CPCB",15-05-2024 21:00:00,28.6514781,77.1473105,PM10,141,500,334
India,Delhi,Delhi,"Shadipur, Delhi - CPCB",15-05-2024 21:00:00,28.6514781,77.1473105,NO2,57,320,169
India,Delhi,Delhi,"Shadipur, Delhi - CPCB",15-05-2024 21:00:00,28.6514781,77.1473105,NH3,7,9,8
India,Delhi,Delhi,"Sirifort, Delhi - CPCB",15-05-2024 21:00:00,28.5504249,77.2159377,PM2.5,91,347,224
India,Delhi,Delhi,"Vivek Vihar, Delhi - DPCC",15-05-2024 21:00:00,28.672342,77.315260,PM2.5,105,392,262
India,Delhi,Delhi,"Vivek Vihar, Delhi - DPCC",15-05-2024 21:00:00,28.672342,77.315260,PM10,143,436,248
India,Delhi,Delhi,"Vivek Vihar, Delhi - DPCC",15-05-2024 21:00:00,28.672342,77.315260,NH3,14,16,15
India,Delhi,Delhi,"Vivek Vihar, Delhi - DPCC",15-05-2024 21:00:00,28.672342,77.315260,SO2,33,74,46
India,Delhi,Delhi,"Wazirpur, Delhi - DPCC",15-05-2024 21:00:00,28.699793,77.165453,NH3,6,14,10
India,Gujarat,Ahmedabad,"Chandkheda, Ahmedabad - IITM",15-05-2024 21:00:00,23.107969,72.574648,SO2,4,57,14
India,Gujarat,Ahmedabad,"Gyaspur, Ahmedabad - IITM",15-05-2024 21:00:00,22.977134,72.553024,SO2,18,50,26
India,Gujarat,Ahmedabad,"Maninagar, Ahmedabad - GPCB",15-05-2024 21:00:00,23.002657,72.591912,OZONE,1,94,53
India,Gujarat,Ahmedabad,"Raikhad, Ahmedabad - IITM",15-05-2024 21:00:00,23.020509,72.579261,PM2.5,113,320,207
India,Gujarat,Ahmedabad,"Raikhad, Ahmedabad - IITM",15-05-2024 21:00:00,23.020509,72.579261,PM10,106,196,141
India,Gujarat,Ahmedabad,"Raikhad, Ahmedabad - IITM",15-05-2024 21:00:00,23.020509,72.579261,SO2,14,54,27
India,Gujarat,Ahmedabad,"Rakhial, Ahmedabad - IITM",15-05-2024 21:00:00,23.016834,72.625775,PM2.5,65,314,136
India,Gujarat,Ahmedabad,"Rakhial, Ahmedabad - IITM",15-05-2024 21:00:00,23.016834,72.625775,NO2,90,293,154
India,Gujarat,Ahmedabad,"Rakhial, Ahmedabad - IITM",15-05-2024 21:00:00,23.016834,72.625775,SO2,3,25,14
India,Gujarat,Ahmedabad,"SVPI Airport Hansol, Ahmedabad - IITM",15-05-2024 21:00:00,23.076793,72.627874,SO2,4,24,9
India,Gujarat,Ahmedabad,"Sardar Vallabhbhai Patel Stadium, Ahmedabad - IITM",15-05-2024 21:00:00,23.043070,72.562968,PM2.5,65,361,163
India,Gujarat,Ahmedabad,"Sardar Vallabhbhai Patel Stadium, Ahmedabad - IITM",15-05-2024 21:00:00,23.043070,72.562968,OZONE,17,80,57
India,Gujarat,Gandhinagar,"Sector-10, Gandhinagar - GPCB",15-05-2024 21:00:00,23.221714,72.654328,PM10,37,126,74
India,Gujarat,Surat,"Science Center, Surat - SMC",15-05-2024 21:00:00,21.170046,72.795405,NO2,30,43,37
India,Gujarat,Vapi,"Phase-1 GIDC, Vapi - GPCB",15-05-2024 21:00:00,20.362421,72.918013,NO2,NA,NA,NA
India,Gujarat,Vapi,"Phase-1 GIDC, Vapi - GPCB",15-05-2024 21:00:00,20.362421,72.918013,SO2,NA,NA,NA
India,Gujarat,Vatva,"Phase-4 GIDC, Vatva - GPCB",15-05-2024 21:00:00,22.969611,72.643500,NH3,5,10,9
India,Gujarat,Vatva,"Phase-4 GIDC, Vatva - GPCB",15-05-2024 21:00:00,22.969611,72.643500,SO2,3,16,9
India,Haryana,Ambala,"Patti Mehar, Ambala - HSPCB",15-05-2024 21:00:00,30.379589,76.778328,PM2.5,72,303,177
India,Haryana,Ballabgarh,"Nathu Colony, Ballabgarh - HSPCB",15-05-2024 21:00:00,28.3419248,77.319699,NO2,18,19,19
India,Haryana,Ballabgarh,"Nathu Colony, Ballabgarh - HSPCB",15-05-2024 21:00:00,28.3419248,77.319699,NH3,2,3,3
India,Haryana,Ballabgarh,"Nathu Colony, Ballabgarh - HSPCB",15-05-2024 21:00:00,28.3419248,77.319699,OZONE,5,74,45
India,Haryana,Faridabad,"New Industrial Town, Faridabad - HSPCB",15-05-2024 21:00:00,28.39072,77.30059,NO2,33,37,35
India,Haryana,Faridabad,"New Industrial Town, Faridabad - HSPCB",15-05-2024 21:00:00,28.39072,77.30059,NH3,10,11,10
India,Haryana,Faridabad,"New Industrial Town, Faridabad - HSPCB",15-05-2024 21:00:00,28.39072,77.30059,OZONE,4,231,101
India,Haryana,Faridabad,"Sector 11, Faridabad - HSPCB",15-05-2024 21:00:00,28.376058,77.315741,NO2,29,33,31
India,Haryana,Faridabad,"Sector 11, Faridabad - HSPCB",15-05-2024 21:00:00,28.376058,77.315741,SO2,1,3,2
India,Haryana,Faridabad,"Sector 11, Faridabad - HSPCB",15-05-2024 21:00:00,28.376058,77.315741,CO,25,72,37
India,Haryana,Faridabad,"Sector 30, Faridabad - HSPCB",15-05-2024 21:00:00,28.4417,77.3217,PM10,196,228,211
India,Haryana,Faridabad,"Sector- 16A, Faridabad - HSPCB",15-05-2024 21:00:00,28.4088421,77.3099081,PM2.5,69,401,214
India,Haryana,Gurugram,"Sector-51, Gurugram - HSPCB",15-05-2024 21:00:00,28.4227,77.0667,SO2,3,5,3
India,Haryana,Gurugram,"Sector-51, Gurugram - HSPCB",15-05-2024 21:00:00,28.4227,77.0667,CO,36,98,46
India,Haryana,Gurugram,"Teri Gram, Gurugram - HSPCB",15-05-2024 21:00:00,28.4275,77.1465,CO,17,37,30
India,Haryana,Gurugram,"Vikas Sadan, Gurugram - HSPCB",15-05-2024 21:00:00,28.4501238,77.0263051,SO2,13,65,33
India,Haryana,Gurugram,"Vikas Sadan, Gurugram - HSPCB",15-05-2024 21:00:00,28.4501238,77.0263051,CO,52,149,110
India,Haryana,Gurugram,"Vikas Sadan, Gurugram - HSPCB",15-05-2024 21:00:00,28.4501238,77.0263051,OZONE,8,69,44
India,Haryana,Hisar,"Urban Estate-II, Hisar - HSPCB",15-05-2024 21:00:00,29.140560,75.744941,PM2.5,67,260,139
India,Haryana,Kaithal,"Rishi Nagar, Kaithal - HSPCB",15-05-2024 21:00:00,29.8006,76.4155,NO2,24,26,25
India,Haryana,Kaithal,"Rishi Nagar, Kaithal - HSPCB",15-05-2024 21:00:00,29.8006,76.4155,NH3,8,8,8
India,Haryana,Kaithal,"Rishi Nagar, Kaithal - HSPCB",15-05-2024 21:00:00,29.8006,76.4155,OZONE,6,16,12
India,Haryana,Karnal,"Sector-12, Karnal - HSPCB",15-05-2024 21:00:00,29.695300,77.002700,PM2.5,92,302,179
India,Haryana,Karnal,"Sector-12, Karnal - HSPCB",15-05-2024 21:00:00,29.695300,77.002700,SO2,12,13,13
India,Haryana,Karnal,"Sector-12, Karnal - HSPCB",15-05-2024 21:00:00,29.695300,77.002700,OZONE,27,34,31
India,Haryana,Manesar,"Sector-2 IMT, Manesar - HSPCB",15-05-2024 21:00:00,28.360699,76.936090,NH3,1,50,14
India,Haryana,Narnaul,"Shastri Nagar, Narnaul - HSPCB",15-05-2024 21:00:00,28.060249,76.113115,NO2,15,85,48
India,Haryana,Narnaul,"Shastri Nagar, Narnaul - HSPCB",15-05-2024 21:00:00,28.060249,76.113115,NH3,5,27,15
India,Haryana,Palwal,"Shyam Nagar, Palwal - HSPCB",15-05-2024 21:00:00,28.1485564,77.3320667,PM2.5,58,103,84
India,Haryana,Palwal,"Shyam Nagar, Palwal - HSPCB",15-05-2024 21:00:00,28.1485564,77.3320667,NO2,23,25,24
India,Haryana,Panipat,"Sector-18, Panipat - HSPCB",15-05-2024 21:00:00,29.432304,76.972765,PM2.5,92,112,102
India,Haryana,Panipat,"Sector-18, Panipat - HSPCB",15-05-2024 21:00:00,29.432304,76.972765,CO,24,26,25
India,Haryana,Panipat,"Sector-18, Panipat - HSPCB",15-05-2024 21:00:00,29.432304,76.972765,OZONE,29,30,30
India,Haryana,Rohtak,"MD University, Rohtak - HSPCB",15-05-2024 21:00:00,28.52123,76.37138,NO2,47,55,51
India,Haryana,Rohtak,"MD University, Rohtak - HSPCB",15-05-2024 21:00:00,28.52123,76.37138,SO2,5,8,7
India,Haryana,Rohtak,"MD University, Rohtak - HSPCB",15-05-2024 21:00:00,28.52123,76.37138,OZONE,46,54,50
India,Haryana,Sirsa,"F-Block, Sirsa - HSPCB",15-05-2024 21:00:00,29.536400,75.015800,PM2.5,63,148,95
India,Haryana,Sirsa,"F-Block, Sirsa - HSPCB",15-05-2024 21:00:00,29.536400,75.015800,OZONE,25,66,57
India,Haryana,Sonipat,"Murthal, Sonipat - HSPCB",15-05-2024 21:00:00,29.027200,77.062100,PM2.5,60,201,126
India,Haryana,Sonipat,"Murthal, Sonipat - HSPCB",15-05-2024 21:00:00,29.027200,77.062100,PM10,77,162,127
India,Haryana,Sonipat,"Murthal, Sonipat - HSPCB",15-05-2024 21:00:00,29.027200,77.062100,OZONE,16,36,31
India,Himachal Pradesh,Baddi,"HIMUDA Complex Phase-1, Baddi - HPPCB",15-05-2024 21:00:00,30.943887,76.801991,PM2.5,33,312,155
India,Jammu_and_Kashmir,Srinagar,"Rajbagh, Srinagar - JKSPCB",15-05-2024 21:00:00,34.066206,74.819820,PM10,50,114,84
India,Jammu_and_Kashmir,Srinagar,"Rajbagh, Srinagar - JKSPCB",15-05-2024 21:00:00,34.066206,74.819820,SO2,11,18,13
India,Jharkhand,Dhanbad,"Kalakusuma, Dhanbad - DMC",15-05-2024 21:00:00,23.811548,86.481238,PM10,12,142,104
India,Jharkhand,Dhanbad,"Kalakusuma, Dhanbad - DMC",15-05-2024 21:00:00,23.811548,86.481238,NO2,13,14,14
India,Jharkhand,Dhanbad,"Sardar Patel Nagar, Dhanbad - JSPCB",15-05-2024 21:00:00,23.80569,86.44268,PM10,66,131,98
India,Karnataka,Bagalkot,"Vidayagiri, Bagalkot - KSPCB",15-05-2024 21:00:00,16.172806,75.659694,PM2.5,25,37,36
India,Karnataka,Bagalkot,"Vidayagiri, Bagalkot - KSPCB",15-05-2024 21:00:00,16.172806,75.659694,NO2,9,10,9
India,Karnataka,Belgaum,"Ramteerth Nagar, Belgaum - KSPCB",15-05-2024 21:00:00,15.888653,74.541751,PM10,NA,NA,NA
India,Karnataka,Belgaum,"Ramteerth Nagar, Belgaum - KSPCB",15-05-2024 21:00:00,15.888653,74.541751,NH3,NA,NA,NA
India,Karnataka,Belgaum,"Ramteerth Nagar, Belgaum - KSPCB",15-05-2024 21:00:00,15.888653,74.541751,OZONE,19,20,20
India,Karnataka,Bengaluru,"Hombegowda Nagar, Bengaluru - KSPCB",15-05-2024 21:00:00,12.938539,77.590100,NO2,10,41,19
India,Karnataka,Bengaluru,"Jayanagar 5th Block, Bengaluru - KSPCB",15-05-2024 21:00:00,12.920984,77.584908,OZONE,27,28,28
India,Karnataka,Bengaluru,"Peenya, Bengaluru - CPCB",15-05-2024 21:00:00,13.0270199,77.494094,NO2,16,30,22
India,Karnataka,Bengaluru,"Peenya, Bengaluru - CPCB",15-05-2024 21:00:00,13.0270199,77.494094,CO,66,98,72
India,Karnataka,Bengaluru,"RVCE-Mailasandra, Bengaluru - KSPCB",15-05-2024 21:00:00,12.921418,77.502466,NO2,16,18,17
India,Karnataka,Bengaluru,"Sanegurava Halli, Bengaluru - KSPCB",15-05-2024 21:00:00,12.990328,77.5431385,NO2,22,40,26
India,Karnataka,Bengaluru,"Sanegurava Halli, Bengaluru - KSPCB",15-05-2024 21:00:00,12.990328,77.5431385,SO2,2,4,3
India,Karnataka,Bengaluru,"Sanegurava Halli, Bengaluru - KSPCB",15-05-2024 21:00:00,12.990328,77.5431385,CO,3,46,17
India,Karnataka,Bengaluru,"Shivapura_Peenya, Bengaluru - KSPCB",15-05-2024 21:00:00,13.0246342,77.5080115,PM2.5,1,7,3
India,Karnataka,Bengaluru,"Shivapura_Peenya, Bengaluru - KSPCB",15-05-2024 21:00:00,13.0246342,77.5080115,CO,22,53,32
India,Karnataka,Bengaluru,"Silk Board, Bengaluru - KSPCB",15-05-2024 21:00:00,12.917348,77.622813,NO2,NA,NA,NA
India,Karnataka,Bengaluru,"Silk Board, Bengaluru - KSPCB",15-05-2024 21:00:00,12.917348,77.622813,SO2,7,11,9
India,Karnataka,Bidar,"Naubad, Bidar - KSPCB",15-05-2024 21:00:00,17.930306,77.482194,NH3,NA,NA,NA
India,Karnataka,Bidar,"Naubad, Bidar - KSPCB",15-05-2024 21:00:00,17.930306,77.482194,CO,60,133,92
India,Karnataka,Chamarajanagar,"Urban, Chamarajanagar - KSPCB",15-05-2024 21:00:00,11.55358,76.55521,PM10,29,58,45
India,Karnataka,Chamarajanagar,"Urban, Chamarajanagar - KSPCB",15-05-2024 21:00:00,11.55358,76.55521,NH3,1,2,2
India,Karnataka,Chamarajanagar,"Urban, Chamarajanagar - KSPCB",15-05-2024 21:00:00,11.55358,76.55521,SO2,1,8,4
India,Karnataka,Chikkaballapur,"Chikkaballapur Rural, Chikkaballapur - KSPCB",15-05-2024 21:00:00,13.428828,77.731418,PM10,34,66,50
India,Karnataka,Chikkaballapur,"Chikkaballapur Rural, Chikkaballapur - KSPCB",15-05-2024 21:00:00,13.428828,77.731418,NH3,1,2,1
India,Karnataka,Chikkamagaluru,"Kalyana Nagara, Chikkamagaluru - KSPCB",15-05-2024 21:00:00,13.328028,75.797056,OZONE,10,63,43
India,Karnataka,Dharwad,"Kalabhavan, Dharwad - KSPCB",15-05-2024 21:00:00,15.459706,75.008381,CO,20,126,72
India,Karnataka,Dharwad,"Kalabhavan, Dharwad - KSPCB",15-05-2024 21:00:00,15.459706,75.008381,OZONE,2,70,14
India,Karnataka,Hassan,"B.Katihalli, Hassan - KSPCB",15-05-2024 21:00:00,13.008556,76.125258,NO2,9,15,12
India,Karnataka,Hassan,"B.Katihalli, Hassan - KSPCB",15-05-2024 21:00:00,13.008556,76.125258,CO,1,1,1
India,Karnataka,Haveri,"Ashwini Nagar, Haveri - KSPCB",15-05-2024 21:00:00,14.791800,75.389600,PM2.5,NA,NA,NA
India,Karnataka,Haveri,"Ashwini Nagar, Haveri - KSPCB",15-05-2024 21:00:00,14.791800,75.389600,OZONE,51,82,65
India,Karnataka,Hubballi,"Deshpande Nagar, Hubballi - KSPCB",15-05-2024 21:00:00,15.351773,75.140726,NO2,NA,NA,NA
India,Karnataka,Kalaburagi,"Mahatma Basaveswar Colony, Kalaburgi - KSPCB",15-05-2024 21:00:00,17.336318,76.847397,NH3,NA,NA,NA
India,Karnataka,Kalaburagi,"Mahatma Basaveswar Colony, Kalaburgi - KSPCB",15-05-2024 21:00:00,17.336318,76.847397,SO2,NA,NA,NA
India,Karnataka,Karwar,"KHB Colony, Karwar - KSPCB",15-05-2024 21:00:00,14.816666,74.141003,SO2,21,23,22
India,Karnataka,Koppal,"Diwator Nagar, Koppal - KSPCB",15-05-2024 21:00:00,15.347630,76.181767,CO,54,56,56
India,Karnataka,Madikeri,"Stuart Hill, Madikeri - KSPCB",15-05-2024 21:00:00,12.415911,75.735050,NH3,1,2,1
India,Karnataka,Mangalore,"Kadri, Mangalore - KSPCB",15-05-2024 21:00:00,12.889250,74.853000,PM2.5,19,43,29
India,Karnataka,Mangalore,"Kadri, Mangalore - KSPCB",15-05-2024 21:00:00,12.889250,74.853000,SO2,9,11,10
India,Karnataka,Mysuru,"Hebbal 1st Stage, Mysuru - KSPCB",15-05-2024 21:00:00,12.21041,76.37376,SO2,NA,NA,NA
India,Karnataka,Shivamogga,"Vinoba Nagara, Shivamogga - KSPCB",15-05-2024 21:00:00,13.940000,75.555917,PM10,49,81,58
India,Karnataka,Shivamogga,"Vinoba Nagara, Shivamogga - KSPCB",15-05-2024 21:00:00,13.940000,75.555917,CO,10,45,24
India,Karnataka,Tumakuru,"Thimmalapura, Tumakuru - KSPCB",15-05-2024 21:00:00,13.377516,77.099072,PM2.5,36,80,54
India,Karnataka,Vijayapura,"Ibrahimpur, Vijayapura - KSPCB",15-05-2024 21:00:00,16.802639,75.722694,PM2.5,26,33,30
India,Karnataka,Vijayapura,"Ibrahimpur, Vijayapura - KSPCB",15-05-2024 21:00:00,16.802639,75.722694,PM10,41,43,43
India,Karnataka,Vijayapura,"Ibrahimpur, Vijayapura - KSPCB",15-05-2024 21:00:00,16.802639,75.722694,NH3,2,2,2
India,Karnataka,Vijayapura,"Ibrahimpur, Vijayapura - KSPCB",15-05-2024 21:00:00,16.802639,75.722694,OZONE,13,17,15
India,Karnataka,Yadgir,"Collector Office, Yadgir - KSPCB",15-05-2024 21:00:00,16.7602,77.1428,PM2.5,NA,NA,NA
India,Kerala,Eloor,"Udyogamandal, Eloor - Kerala PCB",15-05-2024 21:00:00,10.073232,76.302765,PM10,28,38,32
India,Kerala,Eloor,"Udyogamandal, Eloor - Kerala PCB",15-05-2024 21:00:00,10.073232,76.302765,NO2,4,4,4
India,Kerala,Kannur,"Thavakkara, Kannur - Kerala PCB",15-05-2024 21:00:00,11.875000,75.373200,OZONE,31,36,33
India,Kerala,Kollam,"Polayathode, Kollam - Kerala PCB",15-05-2024 21:00:00,8.8787,76.6073,PM10,38,94,57
India,Kerala,Thiruvananthapuram,"Kariavattom, Thiruvananthapuram - Kerala PCB",15-05-2024 21:00:00,8.563700,76.886500,PM2.5,77,92,84
India,Kerala,Thiruvananthapuram,"Plammoodu, Thiruvananthapuram - Kerala PCB",15-05-2024 21:00:00,8.5149093,76.9435879,PM2.5,2,19,10
India,Kerala,Thiruvananthapuram,"Plammoodu, Thiruvananthapuram - Kerala PCB",15-05-2024 21:00:00,8.5149093,76.9435879,CO,7,30,13
India,Kerala,Thrissur,"Corporation Ground, Thrissur - Kerala PCB",15-05-2024 21:00:00,10.532400,76.215900,PM2.5,43,51,47
India,Madhya Pradesh,Bhopal,"Idgah Hills, Bhopal - MPPCB",15-05-2024 21:00:00,23.264759,77.381568,CO,12,73,35
India,Madhya Pradesh,Bhopal,"Idgah Hills, Bhopal - MPPCB",15-05-2024 21:00:00,23.264759,77.381568,OZONE,40,130,94
India,Madhya Pradesh,Bhopal,"Paryavaran Parisar, Bhopal - MPPCB",15-05-2024 21:00:00,23.210494,77.425409,PM10,21,101,46
India,Madhya Pradesh,Bhopal,"Paryavaran Parisar, Bhopal - MPPCB",15-05-2024 21:00:00,23.210494,77.425409,NH3,7,8,7
India,Madhya Pradesh,Bhopal,"Paryavaran Parisar, Bhopal - MPPCB",15-05-2024 21:00:00,23.210494,77.425409,OZONE,47,129,88
India,Madhya Pradesh,Bhopal,"T T Nagar, Bhopal - MPPCB",15-05-2024 21:00:00,23.233584,77.400574,SO2,9,23,17
India,Madhya Pradesh,Dewas,"Bhopal Chauraha, Dewas - MPPCB",15-05-2024 21:00:00,22.9682591,76.064118,PM2.5,20,69,36
India,Madhya Pradesh,Gwalior,"City Center, Gwalior - MPPCB",15-05-2024 21:00:00,26.203442,78.193251,PM2.5,3,52,20
India,Madhya Pradesh,Gwalior,"Deen Dayal Nagar, Gwalior - MPPCB",15-05-2024 21:00:00,26.259242,78.216432,PM10,37,214,82
India,Madhya Pradesh,Gwalior,"Maharaj Bada, Gwalior - MPPCB",15-05-2024 21:00:00,26.200388,78.147714,PM2.5,2,33,14
India,Madhya Pradesh,Indore,"Chhoti Gwaltoli, Indore - MPPCB",15-05-2024 21:00:00,22.4310,75.5213,PM10,37,104,64
India,Madhya Pradesh,Indore,"Maguda Nagar, Indore - IMC",15-05-2024 21:00:00,22.7524,75.8872,CO,17,27,26
India,Madhya Pradesh,Indore,"Regional Park, Indore - IMC",15-05-2024 21:00:00,22.6780,75.8559,CO,25,28,27
India,Madhya Pradesh,Indore,"Residency Area, Indore - IMC",15-05-2024 21:00:00,22.7084,75.8815,NO2,33,46,39
India,Madhya Pradesh,Indore,"Residency Area, Indore - IMC",15-05-2024 21:00:00,22.7084,75.8815,CO,12,14,13
India,Madhya Pradesh,Indore,"Residency Area, Indore - IMC",15-05-2024 21:00:00,22.7084,75.8815,OZONE,13,25,21
India,Madhya Pradesh,Jabalpur,"Gupteshwar, Jabalpur - JMC",15-05-2024 21:00:00,23.142888,79.916147,CO,11,43,26
India,Madhya Pradesh,Katni,"Gole Bazar, Katni - MPPCB",15-05-2024 21:00:00,23.50016,80.23284,PM2.5,22,58,37
India,Madhya Pradesh,Katni,"Gole Bazar, Katni - MPPCB",15-05-2024 21:00:00,23.50016,80.23284,NH3,1,4,3
India,Madhya Pradesh,Mandideep,"Sector-D Industrial Area, Mandideep - MPPCB",15-05-2024 21:00:00,23.108440,77.511428,PM2.5,23,395,98
India,Madhya Pradesh,Pithampur,"Sector-2 Industrial Area, Pithampur - MPPCB",15-05-2024 21:00:00,22.624758,75.675238,NO2,12,32,21
India,Madhya Pradesh,Pithampur,"Sector-2 Industrial Area, Pithampur - MPPCB",15-05-2024 21:00:00,22.624758,75.675238,SO2,9,14,11
India,Madhya Pradesh,Sagar,"Civil Lines, Sagar - MPPCB",15-05-2024 21:00:00,23.838586,78.759431,OZONE,13,244,151
India,Madhya Pradesh,Singrauli,"Suryakiran Bhawan NCL, Singrauli - MPPCB",15-05-2024 21:00:00,24.108970,82.645580,CO,58,144,101
India,Madhya Pradesh,Singrauli,"Suryakiran Bhawan NCL, Singrauli - MPPCB",15-05-2024 21:00:00,24.108970,82.645580,OZONE,9,93,61
India,Madhya Pradesh,Ujjain,"Mahakaleshwar Temple, Ujjain - MPPCB",15-05-2024 21:00:00,23.182719 ,75.768218 ,SO2,5,12,7
India,Madhya Pradesh,Ujjain,"Mahakaleshwar Temple, Ujjain - MPPCB",15-05-2024 21:00:00,23.182719 ,75.768218 ,CO,13,31,19
India,Maharashtra,Ahmednagar,"Tarakpur, Ahmednagar - MPCB",15-05-2024 21:00:00,19.10122,74.73339,PM2.5,39,98,63
India,Maharashtra,Ahmednagar,"Tarakpur, Ahmednagar - MPCB",15-05-2024 21:00:00,19.10122,74.73339,PM10,48,107,70
India,Maharashtra,Ahmednagar,"Tarakpur, Ahmednagar - MPCB",15-05-2024 21:00:00,19.10122,74.73339,NH3,6,11,9
India,Maharashtra,Ahmednagar,"Tarakpur, Ahmednagar - MPCB",15-05-2024 21:00:00,19.10122,74.73339,SO2,1,13,9
India,Maharashtra,Akola,"Ramdaspeth, Akola - MPCB",15-05-2024 21:00:00,20.719516,77.000253,SO2,12,18,14
India,Maharashtra,Amravati,"Shivneri Colony, Amravati - MPCB",15-05-2024 21:00:00,20.9402359,77.7895248,SO2,1,4,1
India,Maharashtra,Aurangabad,"More Chowk Waluj, Aurangabad - MPCB",15-05-2024 21:00:00,19.8389439,75.244448,NO2,38,47,44
India,Maharashtra,Aurangabad,"Rachnakar Colony, Aurangabad - MPCB",15-05-2024 21:00:00,19.863756,75.321188,NO2,10,80,30
India,Maharashtra,Badlapur,"Katrap, Badlapur - MPCB",15-05-2024 21:00:00,19.16485,73.23409,NO2,14,38,24
India,Maharashtra,Belapur,"CBD Belapur, Belapur - MPCB",15-05-2024 21:00:00,19.0243902,73.0406721,NH3,2,3,2
India,Maharashtra,Bhiwandi,"Gokul Nagar, Bhiwandi - MPCB",15-05-2024 21:00:00,19.309073,73.057223,CO,24,122,35
India,Maharashtra,Boisar,"Khaira, Boisar - MPCB",15-05-2024 21:00:00,19.786089,72.757971,PM10,70,137,93
India,Maharashtra,Boisar,"Khaira, Boisar - MPCB",15-05-2024 21:00:00,19.786089,72.757971,SO2,10,37,17
India,Maharashtra,Chandrapur,"Chauhan Colony, Chandrapur - MPCB",15-05-2024 21:00:00,19.962900,79.298714,SO2,4,67,16
India,Maharashtra,Chandrapur,"MIDC Khutala, Chandrapur - MPCB",15-05-2024 21:00:00,19.9775302,79.2337086,PM2.5,NA,NA,NA
India,Maharashtra,Chandrapur,"MIDC Khutala, Chandrapur - MPCB",15-05-2024 21:00:00,19.9775302,79.2337086,SO2,NA,NA,NA
India,Maharashtra,Jalgaon,"Prabhat Colony, Jalgaon - MPCB",15-05-2024 21:00:00,21.001264,75.565602,PM10,70,171,103
India,Maharashtra,Jalgaon,"Prabhat Colony, Jalgaon - MPCB",15-05-2024 21:00:00,21.001264,75.565602,NH3,1,23,14
India,Maharashtra,Jalgaon,"Prabhat Colony, Jalgaon - MPCB",15-05-2024 21:00:00,21.001264,75.565602,OZONE,17,110,77
India,Maharashtra,Kalyan,"Khadakpada, Kalyan - MPCB",15-05-2024 21:00:00,19.25292,73.142019,PM2.5,21,61,42
India,Maharashtra,Kolhapur,"Shivaji University, Kolhapur - MPCB",15-05-2024 21:00:00,16.6870449,74.2505872,NH3,4,6,4
India,Maharashtra,Kolhapur,"Shivaji University, Kolhapur - MPCB",15-05-2024 21:00:00,16.6870449,74.2505872,SO2,3,9,6
India,Maharashtra,Kolhapur,"Shivaji University, Kolhapur - MPCB",15-05-2024 21:00:00,16.6870449,74.2505872,CO,52,94,75
India,Maharashtra,Kolhapur,"Sinchan Bhavan, Kolhapur - MPCB",15-05-2024 21:00:00,16.7143745,74.2426398,OZONE,57,147,105
India,Maharashtra,Latur,"Sawe Wadi, Latur - MPCB",15-05-2024 21:00:00,18.39963,76.57452,SO2,1,5,3
India,Maharashtra,Latur,"Sawe Wadi, Latur - MPCB",15-05-2024 21:00:00,18.39963,76.57452,CO,7,107,39
India,Maharashtra,Malegaon,"Mahesh Nagar, Malegaon - MPCB",15-05-2024 21:00:00,20.555712,74.529236,CO,14,46,20
India,Maharashtra,Mumbai,"Bandra Kurla Complex, Mumbai - MPCB",15-05-2024 21:00:00,19.065931,72.862131,PM10,75,353,151
India,Maharashtra,Mumbai,"Borivali East, Mumbai - IITM",15-05-2024 21:00:00,19.23241,72.86895,CO,5,33,12
India,Maharashtra,Mumbai,"Byculla, Mumbai - BMC",15-05-2024 21:00:00,18.9767,72.8380,PM10,36,82,62
India,Maharashtra,Mumbai,"Byculla, Mumbai - BMC",15-05-2024 21:00:00,18.9767,72.8380,NO2,6,17,10
India,Maharashtra,Mumbai,"Byculla, Mumbai - BMC",15-05-2024 21:00:00,18.9767,72.8380,NH3,1,2,2
India,Maharashtra,Mumbai,"Byculla, Mumbai - BMC",15-05-2024 21:00:00,18.9767,72.8380,OZONE,3,303,217
India,Maharashtra,Mumbai,"Chakala-Andheri East, Mumbai - IITM",15-05-2024 21:00:00,19.11074,72.86084,PM2.5,2,324,146
India,Maharashtra,Mumbai,"Chakala-Andheri East, Mumbai - IITM",15-05-2024 21:00:00,19.11074,72.86084,PM10,NA,NA,NA
India,Maharashtra,Mumbai,"Chakala-Andheri East, Mumbai - IITM",15-05-2024 21:00:00,19.11074,72.86084,NO2,43,110,69
India,Maharashtra,Mumbai,"Chakala-Andheri East, Mumbai - IITM",15-05-2024 21:00:00,19.11074,72.86084,NH3,7,32,16
India,Maharashtra,Mumbai,"Chakala-Andheri East, Mumbai - IITM",15-05-2024 21:00:00,19.11074,72.86084,OZONE,3,155,89
India,Maharashtra,Mumbai,"Chembur, Mumbai - MPCB",15-05-2024 21:00:00,19.0364585,72.8954371,PM2.5,77,156,112
India,Maharashtra,Mumbai,"Chembur, Mumbai - MPCB",15-05-2024 21:00:00,19.0364585,72.8954371,NO2,43,112,74
India,Maharashtra,Mumbai,"Chembur, Mumbai - MPCB",15-05-2024 21:00:00,19.0364585,72.8954371,NH3,1,5,4
India,Maharashtra,Mumbai,"Chembur, Mumbai - MPCB",15-05-2024 21:00:00,19.0364585,72.8954371,SO2,1,3,2
India,Maharashtra,Mumbai,"Chhatrapati Shivaji Intl. Airport (T2), Mumbai - MPCB",15-05-2024 21:00:00,19.10078,72.87462,CO,54,104,58
India,Maharashtra,Mumbai,"Chhatrapati Shivaji Intl. Airport (T2), Mumbai - MPCB",15-05-2024 21:00:00,19.10078,72.87462,OZONE,4,17,12
India,Maharashtra,Mumbai,"Colaba, Mumbai - MPCB",15-05-2024 21:00:00,18.910000,72.820000,NO2,NA,NA,NA
India,Maharashtra,Mumbai,"Colaba, Mumbai - MPCB",15-05-2024 21:00:00,18.910000,72.820000,CO,NA,NA,NA
India,Maharashtra,Mumbai,"Deonar, Mumbai - IITM",15-05-2024 21:00:00,19.04946,72.9230,PM10,79,151,115
India,Maharashtra,Mumbai,"Deonar, Mumbai - IITM",15-05-2024 21:00:00,19.04946,72.9230,NO2,9,29,16
India,Maharashtra,Mumbai,"Ghatkopar, Mumbai - BMC",15-05-2024 21:00:00,19.083694,72.920967,PM2.5,23,86,58
India,Maharashtra,Mumbai,"Kandivali West, Mumbai - BMC",15-05-2024 21:00:00,19.215859,72.831718,SO2,1,4,2
India,Maharashtra,Mumbai,"Kandivali West, Mumbai - BMC",15-05-2024 21:00:00,19.215859,72.831718,OZONE,21,310,204
India,Maharashtra,Mumbai,"Kherwadi_Bandra East, Mumbai - MPCB",15-05-2024 21:00:00,19.0632143,72.8456324,PM2.5,45,149,88
India,Maharashtra,Mumbai,"Kherwadi_Bandra East, Mumbai - MPCB",15-05-2024 21:00:00,19.0632143,72.8456324,SO2,5,23,9
India,Maharashtra,Mumbai,"Khindipada-Bhandup West, Mumbai - IITM",15-05-2024 21:00:00,19.1653323,72.922099,SO2,1,16,5
India,Maharashtra,Mumbai,"Khindipada-Bhandup West, Mumbai - IITM",15-05-2024 21:00:00,19.1653323,72.922099,CO,1,55,23
India,Maharashtra,Mumbai,"Khindipada-Bhandup West, Mumbai - IITM",15-05-2024 21:00:00,19.1653323,72.922099,OZONE,3,38,27
India,Maharashtra,Mumbai,"Kurla, Mumbai - MPCB",15-05-2024 21:00:00,19.0863,72.8888,PM10,50,448,117
India,Maharashtra,Mumbai,"Kurla, Mumbai - MPCB",15-05-2024 21:00:00,19.0863,72.8888,SO2,32,32,32
India,Maharashtra,Mumbai,"Mindspace-Malad West, Mumbai - MPCB",15-05-2024 21:00:00,19.1878657,72.8304069,NO2,6,69,28
India,Maharashtra,Mumbai,"Mindspace-Malad West, Mumbai - MPCB",15-05-2024 21:00:00,19.1878657,72.8304069,NH3,7,9,8
India,Maharashtra,Mumbai,"Mulund West, Mumbai - MPCB",15-05-2024 21:00:00,19.1750,72.9419,PM2.5,44,300,105
India,Maharashtra,Mumbai,"Mulund West, Mumbai - MPCB",15-05-2024 21:00:00,19.1750,72.9419,CO,40,41,41
India,Maharashtra,Mumbai,"Navy Nagar-Colaba, Mumbai - IITM",15-05-2024 21:00:00,18.897756,72.813320,PM10,44,146,93
India,Maharashtra,Mumbai,"Navy Nagar-Colaba, Mumbai - IITM",15-05-2024 21:00:00,18.897756,72.813320,OZONE,41,236,175
India,Maharashtra,Mumbai,"Sewri, Mumbai - BMC",15-05-2024 21:00:00,19.000084,72.856730,PM2.5,6,16,11
India,Maharashtra,Mumbai,"Sewri, Mumbai - BMC",15-05-2024 21:00:00,19.000084,72.856730,NO2,19,81,47
India,Maharashtra,Mumbai,"Sewri, Mumbai - BMC",15-05-2024 21:00:00,19.000084,72.856730,NH3,1,4,2
India,Maharashtra,Mumbai,"Siddharth Nagar-Worli, Mumbai - IITM",15-05-2024 21:00:00,19.000083,72.813993,PM2.5,55,165,104
India,Maharashtra,Mumbai,"Siddharth Nagar-Worli, Mumbai - IITM",15-05-2024 21:00:00,19.000083,72.813993,PM10,50,148,111
India,Maharashtra,Mumbai,"Siddharth Nagar-Worli, Mumbai - IITM",15-05-2024 21:00:00,19.000083,72.813993,NO2,35,419,79
India,Maharashtra,Mumbai,"Sion, Mumbai - MPCB",15-05-2024 21:00:00,19.047000,72.874600,OZONE,86,112,105
India,Maharashtra,Mumbai,"Vile Parle West, Mumbai - MPCB",15-05-2024 21:00:00,19.10861,72.83622,NH3,9,11,10
India,Maharashtra,Nagpur,"Ambazari, Nagpur - MPCB",15-05-2024 21:00:00,21.121801,79.04952,PM10,56,99,73
India,Maharashtra,Nagpur,"Ambazari, Nagpur - MPCB",15-05-2024 21:00:00,21.121801,79.04952,NO2,8,61,20
India,Maharashtra,Nagpur,"Mahal, Nagpur - MPCB",15-05-2024 21:00:00,21.14472,79.107595,PM2.5,37,120,62
India,Maharashtra,Nanded,"Sneh Nagar, Nanded - MPCB",15-05-2024 21:00:00,19.173852,77.296291,OZONE,37,138,99
India,Maharashtra,Nashik,"Gangapur Road, Nashik - MPCB",15-05-2024 21:00:00,20.0073285,73.7762427,SO2,3,10,7
India,Maharashtra,Nashik,"Hirawadi, Nashik - MPCB",15-05-2024 21:00:00,20.021503,73.813844,PM2.5,33,82,52
India,Maharashtra,Nashik,"Hirawadi, Nashik - MPCB",15-05-2024 21:00:00,20.021503,73.813844,PM10,25,73,47
India,Maharashtra,Nashik,"Hirawadi, Nashik - MPCB",15-05-2024 21:00:00,20.021503,73.813844,OZONE,8,87,71
India,Maharashtra,Nashik,"MIDC Ambad, Nashik - MPCB",15-05-2024 21:00:00,19.950220,73.731480,PM10,NA,NA,NA
India,Maharashtra,Nashik,"MIDC Ambad, Nashik - MPCB",15-05-2024 21:00:00,19.950220,73.731480,NO2,NA,NA,NA
India,Maharashtra,Nashik,"MIDC Ambad, Nashik - MPCB",15-05-2024 21:00:00,19.950220,73.731480,NH3,NA,NA,NA
India,Maharashtra,Nashik,"MIDC Ambad, Nashik - MPCB",15-05-2024 21:00:00,19.950220,73.731480,CO,16,29,21
India,Maharashtra,Nashik,"Pandav Nagari, Nashik - MPCB",15-05-2024 21:00:00,19.9591346,73.7788008,PM2.5,7,168,49
India,Maharashtra,Nashik,"Pandav Nagari, Nashik - MPCB",15-05-2024 21:00:00,19.9591346,73.7788008,NO2,9,49,24
India,Maharashtra,Nashik,"Pandav Nagari, Nashik - MPCB",15-05-2024 21:00:00,19.9591346,73.7788008,NH3,1,13,7
India,Maharashtra,Nashik,"Pandav Nagari, Nashik - MPCB",15-05-2024 21:00:00,19.9591346,73.7788008,SO2,10,66,20
India,Maharashtra,Navi Mumbai,"Kopripada-Vashi, Navi Mumbai - MPCB",15-05-2024 21:00:00,19.090337,73.014232,PM10,NA,NA,NA
India,Maharashtra,Navi Mumbai,"Kopripada-Vashi, Navi Mumbai - MPCB",15-05-2024 21:00:00,19.090337,73.014232,NO2,24,113,70
India,Maharashtra,Navi Mumbai,"Mahape, Navi Mumbai - MPCB",15-05-2024 21:00:00,19.1135051,73.008978,PM2.5,35,199,85
India,Maharashtra,Navi Mumbai,"Nerul, Navi Mumbai - MPCB",15-05-2024 21:00:00,19.008751,73.016620,PM2.5,51,189,96
India,Maharashtra,Navi Mumbai,"Nerul, Navi Mumbai - MPCB",15-05-2024 21:00:00,19.008751,73.016620,NO2,50,76,65
India,Maharashtra,Navi Mumbai,"Nerul, Navi Mumbai - MPCB",15-05-2024 21:00:00,19.008751,73.016620,OZONE,47,71,53
India,Maharashtra,Navi Mumbai,"Sanpada, Navi Mumbai - MPCB",15-05-2024 21:00:00,19.0575752,73.0151367,CO,NA,NA,NA
India,Maharashtra,Navi Mumbai,"Sector-19A Nerul, Navi Mumbai - IITM",15-05-2024 21:00:00,19.044,73.0325,OZONE,1,260,173
India,Maharashtra,Navi Mumbai,"Tondare-Taloja, Navi Mumbai - MPCB",15-05-2024 21:00:00,19.0630,73.1209,NH3,4,9,6
India,Maharashtra,Pimpri-Chinchwad,"Park Street Wakad, Pimpri Chinchwad - MPCB",15-05-2024 21:00:00,18.59051,73.77946,PM2.5,65,150,105
India,Maharashtra,Pimpri-Chinchwad,"Park Street Wakad, Pimpri Chinchwad - MPCB",15-05-2024 21:00:00,18.59051,73.77946,NO2,36,105,66
India,Maharashtra,Pimpri-Chinchwad,"Park Street Wakad, Pimpri Chinchwad - MPCB",15-05-2024 21:00:00,18.59051,73.77946,CO,36,82,49
India,Maharashtra,Pimpri-Chinchwad,"Thergaon, Pimpri Chinchwad - MPCB",15-05-2024 21:00:00,18.616318,73.765797,PM2.5,35,72,54
India,Maharashtra,Pune,"Alandi, Pune - IITM",15-05-2024 21:00:00,18.675076,73.892743,OZONE,22,256,256
India,Maharashtra,Pune,"Bhosari, Pune - IITM",15-05-2024 21:00:00,18.640051,73.848956,OZONE,13,218,175
India,Maharashtra,Pune,"Karve Road, Pune - MPCB",15-05-2024 21:00:00,18.5011743,73.8165527,NO2,5,15,9
India,Maharashtra,Pune,"Mhada Colony, Pune - IITM",15-05-2024 21:00:00,18.573040,73.927715,OZONE,12,201,168
India,Maharashtra,Pune,"Transport Nagar-Nigdi, Pune - IITM",15-05-2024 21:00:00,18.664282,73.763966,OZONE,1,80,71
India,Maharashtra,Sangli,"Vijay Nagar, Sangli - MPCB",15-05-2024 21:00:00, 16.5038,74.3623,PM2.5,21,49,30
India,Maharashtra,Sangli,"Vijay Nagar, Sangli - MPCB",15-05-2024 21:00:00, 16.5038,74.3623,NH3,1,4,3
India,Maharashtra,Sangli,"Vijay Nagar, Sangli - MPCB",15-05-2024 21:00:00, 16.5038,74.3623,CO,14,42,21
India,Maharashtra,Solapur,"Dnyaneshwar Nagar, Solapur - MPCB",15-05-2024 21:00:00,17.6336264,75.9132495,NO2,4,44,19
India,Maharashtra,Solapur,"Dnyaneshwar Nagar, Solapur - MPCB",15-05-2024 21:00:00,17.6336264,75.9132495,SO2,1,6,2
India,Maharashtra,Solapur,"Ratandeep Housing Society, Solapur - MPCB",15-05-2024 21:00:00,17.65439,75.90649,PM10,37,74,56
India,Maharashtra,Solapur,"Ratandeep Housing Society, Solapur - MPCB",15-05-2024 21:00:00,17.65439,75.90649,NO2,11,67,33
India,Maharashtra,Solapur,"Solapur, Solapur - MPCB",15-05-2024 21:00:00,17.6599188,75.9063906,SO2,102,106,104
India,Maharashtra,Thane,"Kasarvadavali, Thane - MPCB",15-05-2024 21:00:00,19.26777,72.97182,SO2,1,13,7
India,Maharashtra,Thane,"Pimpleshwar Mandir, Thane - MPCB",15-05-2024 21:00:00,19.192056,72.9585188,PM10,50,128,101
India,Maharashtra,Thane,"Pimpleshwar Mandir, Thane - MPCB",15-05-2024 21:00:00,19.192056,72.9585188,CO,6,80,39
India,Maharashtra,Thane,"Upvan Fort, Thane - MPCB",15-05-2024 21:00:00,19.222279,72.957979,PM2.5,57,211,98
India,Maharashtra,Thane,"Upvan Fort, Thane - MPCB",15-05-2024 21:00:00,19.222279,72.957979,NO2,10,90,32
India,Maharashtra,Thane,"Upvan Fort, Thane - MPCB",15-05-2024 21:00:00,19.222279,72.957979,NH3,3,5,4
India,Maharashtra,Virar,"Bolinj, Virar - MPCB",15-05-2024 21:00:00,19.4458210,72.7988231,NO2,8,57,26
India,Maharashtra,Virar,"Bolinj, Virar - MPCB",15-05-2024 21:00:00,19.4458210,72.7988231,CO,18,74,26
India,Maharashtra,Virar,"Bolinj, Virar - MPCB",15-05-2024 21:00:00,19.4458210,72.7988231,OZONE,28,162,74
India,Manipur,Imphal,"DM College of Science, Imphal - Manipur PCB",15-05-2024 21:00:00,24.8207389,93.9423085,PM2.5,14,64,23
India,Manipur,Imphal,"DM College of Science, Imphal - Manipur PCB",15-05-2024 21:00:00,24.8207389,93.9423085,PM10,15,75,38
India,Manipur,Imphal,"DM College of Science, Imphal - Manipur PCB",15-05-2024 21:00:00,24.8207389,93.9423085,NO2,7,8,7
India,Meghalaya,Shillong,"Lumpyngngad, Shillong - Meghalaya PCB",15-05-2024 21:00:00,25.5586,91.8985,SO2,35,37,36
India,Mizoram,Aizawl,"Sikulpuikawn, Aizawl - Mizoram PCB",15-05-2024 21:00:00,23.7176342,92.7192841,SO2,2,3,2
India,Mizoram,Aizawl,"Sikulpuikawn, Aizawl - Mizoram PCB",15-05-2024 21:00:00,23.7176342,92.7192841,OZONE,1,39,26
India,Nagaland,Kohima,"PWD Juction, Kohima - NPCB",15-05-2024 21:00:00,25.6635413,94.0989878,NO2,3,4,3
India,Nagaland,Kohima,"PWD Juction, Kohima - NPCB",15-05-2024 21:00:00,25.6635413,94.0989878,NH3,1,1,1
India,Nagaland,Kohima,"PWD Juction, Kohima - NPCB",15-05-2024 21:00:00,25.6635413,94.0989878,SO2,34,36,35
India,Odisha,Angul,"Hakimapada, Angul - OSPCB",15-05-2024 21:00:00,20.832874,85.104082,PM2.5,35,410,182
India,Odisha,Angul,"Hakimapada, Angul - OSPCB",15-05-2024 21:00:00,20.832874,85.104082,NH3,NA,NA,NA
India,Odisha,Angul,"Hakimapada, Angul - OSPCB",15-05-2024 21:00:00,20.832874,85.104082,SO2,11,120,65
India,Odisha,Balasore,"Kalidaspur, Balasore - OSPCB",15-05-2024 21:00:00,21.51161,86.89088,SO2,13,24,16
India,Odisha,Balasore,"Kalidaspur, Balasore - OSPCB",15-05-2024 21:00:00,21.51161,86.89088,CO,46,100,67
India,Odisha,Baripada,"Meher Colony, Baripada - OSPCB",15-05-2024 21:00:00,21.941841,86.728318,PM2.5,32,78,53
India,Odisha,Bhubaneswar,"Lingraj Mandir, Bhubaneswar - OSPCB",15-05-2024 21:00:00,20.240790,85.836784,PM2.5,23,120,54
India,Odisha,Bhubaneswar,"Lingraj Mandir, Bhubaneswar - OSPCB",15-05-2024 21:00:00,20.240790,85.836784,PM10,22,99,48
India,Odisha,Bhubaneswar,"Lingraj Mandir, Bhubaneswar - OSPCB",15-05-2024 21:00:00,20.240790,85.836784,SO2,NA,NA,NA
India,Odisha,Bhubaneswar,"Patia, Bhubaneswar - OSPCB",15-05-2024 21:00:00,20.34652,85.81630,PM10,30,72,45
India,Odisha,Bileipada,"Tata Township, Bileipada - OSPCB",15-05-2024 21:00:00,22.06156703,85.47409613,PM10,NA,NA,NA
India,Odisha,Bileipada,"Tata Township, Bileipada - OSPCB",15-05-2024 21:00:00,22.06156703,85.47409613,OZONE,NA,NA,NA
India,Odisha,Brajrajnagar,"GM Office, Brajrajnagar - OSPCB",15-05-2024 21:00:00,21.8004996,83.8396977,NO2,15,23,17
India,Odisha,Brajrajnagar,"GM Office, Brajrajnagar - OSPCB",15-05-2024 21:00:00,21.8004996,83.8396977,CO,58,92,86
India,Odisha,Byasanagar,"Ferro Chrome Colony, Byasanagar - OSPCB",15-05-2024 21:00:00,20.94185,86.11510,NO2,6,30,14
India,Odisha,Cuttack,"CDA Area, Cuttack - OSPCB",15-05-2024 21:00:00,20.48891     ,85.84768     ,NH3,1,3,2
India,Odisha,Keonjhar,"Jagamohanpur, Keonjhar - OSPCB",15-05-2024 21:00:00,21.643900,85.599355,SO2,7,8,8
India,Odisha,Nayagarh,"Dabuna, Nayagarh - OSPCB",15-05-2024 21:00:00,21.847279,85.416905,CO,14,26,19
India,Odisha,Nayagarh,"Dabuna, Nayagarh - OSPCB",15-05-2024 21:00:00,21.847279,85.416905,OZONE,2,40,26
India,Odisha,Rairangpur,"Divisional Forest Office, Rairangpur - OSPCB",15-05-2024 21:00:00,22.265816,86.174829,OZONE,3,28,21
India,Odisha,Rourkela,"Fertilizer Township, Rourkela - OSPCB",15-05-2024 21:00:00,22.18972222,84.86277778,NO2,1,48,17
India,Odisha,Rourkela,"Raghunathpali, Rourkela - OSPCB",15-05-2024 21:00:00,22.220833,84.809444,PM10,49,110,78
India,Odisha,Suakati,"OMC Colony, Suakati - OSPCB",15-05-2024 21:00:00,21.606865,85.510538,PM2.5,41,79,58
India,Odisha,Suakati,"OMC Colony, Suakati - OSPCB",15-05-2024 21:00:00,21.606865,85.510538,PM10,45,98,71
India,Odisha,Suakati,"OMC Colony, Suakati - OSPCB",15-05-2024 21:00:00,21.606865,85.510538,CO,19,28,20
India,Odisha,Talcher,"Talcher Coalfields,Talcher - OSPCB",15-05-2024 21:00:00,20.9360711,85.1707021,PM2.5,52,500,190
India,Odisha,Talcher,"Talcher Coalfields,Talcher - OSPCB",15-05-2024 21:00:00,20.9360711,85.1707021,PM10,40,406,119
India,Odisha,Talcher,"Talcher Coalfields,Talcher - OSPCB",15-05-2024 21:00:00,20.9360711,85.1707021,NH3,3,4,3
India,Odisha,Tensa,"Barsua Iron Ore Mines, Tensa - OSPCB",15-05-2024 21:00:00,21.869985,85.167016,SO2,1,22,6
India,Odisha,Tensa,"Barsua Iron Ore Mines, Tensa - OSPCB",15-05-2024 21:00:00,21.869985,85.167016,OZONE,37,114,83
India,Puducherry,Puducherry,"Jawahar Nagar, Puducherry - PPCC",15-05-2024 21:00:00,11.9309,79.8027,NO2,3,21,10
India,Puducherry,Puducherry,"Jawahar Nagar, Puducherry - PPCC",15-05-2024 21:00:00,11.9309,79.8027,SO2,3,15,8
India,Punjab,Amritsar,"Golden Temple, Amritsar - PPCB",15-05-2024 21:00:00,31.620000,74.876512,PM10,91,117,103
India,Punjab,Amritsar,"Golden Temple, Amritsar - PPCB",15-05-2024 21:00:00,31.620000,74.876512,NO2,7,93,37
India,Punjab,Bathinda,"Hardev Nagar, Bathinda - PPCB",15-05-2024 21:00:00,30.233011,74.907758,PM10,30,195,107
India,Punjab,Jalandhar,"Civil Line, Jalandhar - PPCB",15-05-2024 21:00:00,31.321907,75.578914,PM2.5,40,273,148
India,Punjab,Khanna,"Kalal Majra, Khanna - PPCB",15-05-2024 21:00:00,30.736056 ,76.209694,OZONE,42,48,45
India,Punjab,Ludhiana,"Punjab Agricultural University, Ludhiana - PPCB",15-05-2024 21:00:00,30.9028,75.8086,NH3,4,7,6
India,Punjab,Ludhiana,"Punjab Agricultural University, Ludhiana - PPCB",15-05-2024 21:00:00,30.9028,75.8086,CO,14,107,60
India,Punjab,Mandi Gobindgarh,"RIMT University, Mandi Gobindgarh - PPCB",15-05-2024 21:00:00,30.649961,76.331442,PM10,55,276,148
India,Punjab,Rupnagar,"Ratanpura, Rupnagar - Ambuja Cements",15-05-2024 21:00:00,31.0325454,76.5623046,SO2,4,7,6
India,Rajasthan,Ajmer,"Civil Lines,  Ajmer - RSPCB",15-05-2024 21:00:00,26.470859,74.646594,NO2,11,14,13
India,Rajasthan,Alwar,"Moti Doongri, Alwar - RSPCB",15-05-2024 21:00:00,27.554793,76.611536,NH3,3,7,4
India,Rajasthan,Banswara,"Rati Talai, Banswara - RSPCB",15-05-2024 21:00:00,23.555190,74.440010,NH3,4,10,6
India,Rajasthan,Banswara,"Rati Talai, Banswara - RSPCB",15-05-2024 21:00:00,23.555190,74.440010,OZONE,13,167,152
India,Rajasthan,Baran,"Bamboliya, Baran - RSPCB",15-05-2024 21:00:00,25.106006,76.469948,PM10,29,128,65
India,Rajasthan,Baran,"Bamboliya, Baran - RSPCB",15-05-2024 21:00:00,25.106006,76.469948,SO2,2,24,8
India,Rajasthan,Baran,"Bamboliya, Baran - RSPCB",15-05-2024 21:00:00,25.106006,76.469948,CO,2,66,26
India,Rajasthan,Barmer,"Railway Colony, Barmer - RSPCB",15-05-2024 21:00:00,25.747299,71.393989,SO2,1,4,1
India,Rajasthan,Bharatpur,"Krishna Nagar, Bharatpur - RSPCB",15-05-2024 21:00:00,27.215415,77.50873,NO2,6,135,27
India,Rajasthan,Bhiwadi,"Vasundhara Nagar_UIT, Bhiwadi - RSPCB",15-05-2024 21:00:00,28.207266,76.829265,NO2,10,147,63
India,Rajasthan,Bhiwadi,"Vasundhara Nagar_UIT, Bhiwadi - RSPCB",15-05-2024 21:00:00,28.207266,76.829265,SO2,12,48,22
India,Rajasthan,Bikaner,"MM Ground, Bikaner - RSPCB",15-05-2024 21:00:00,28.018792,73.292658,PM2.5,22,207,60
India,Rajasthan,Bikaner,"MM Ground, Bikaner - RSPCB",15-05-2024 21:00:00,28.018792,73.292658,PM10,86,439,192
India,Rajasthan,Bikaner,"MM Ground, Bikaner - RSPCB",15-05-2024 21:00:00,28.018792,73.292658,NH3,11,16,13
India,Rajasthan,Bundi,"New Colony, Bundi - RSPCB",15-05-2024 21:00:00,25.435774,75.644272,NO2,11,73,24
India,Rajasthan,Bundi,"New Colony, Bundi - RSPCB",15-05-2024 21:00:00,25.435774,75.644272,SO2,5,23,11
India,Rajasthan,Chittorgarh,"Shastri Nagar, Chittorgarh - RSPCB",15-05-2024 21:00:00,24.892047,74.623527,OZONE,5,164,108
India,Rajasthan,Dausa,"Khatikan Mohalla, Dausa - RSPCB",15-05-2024 21:00:00,26.895552,76.334753,SO2,2,11,6
India,Rajasthan,Dholpur,"Raja Ganj, Dholpur - RSPCB",15-05-2024 21:00:00,26.699557,77.898881,OZONE,49,132,103
India,Rajasthan,Dungarpur,"Bhoiwada, Dungarpur - RSPCB",15-05-2024 21:00:00,23.837789,73.714926,NO2,19,38,26
India,Rajasthan,Hanumangarh,"Housing Board, Hanumangarh - RSPCB",15-05-2024 21:00:00,29.610750,74.283608,OZONE,6,72,54
India,Rajasthan,Jaipur,"Mansarovar Sector-12, Jaipur - RSPCB",15-05-2024 21:00:00,26.843698,75.766894,PM10,57,220,109
India,Rajasthan,Jaipur,"Mansarovar Sector-12, Jaipur - RSPCB",15-05-2024 21:00:00,26.843698,75.766894,SO2,5,20,12
India,Rajasthan,Jaipur,"Police Commissionerate, Jaipur - RSPCB",15-05-2024 21:00:00,26.9164092,75.7994901,NO2,13,90,29
India,Rajasthan,Jaipur,"Police Commissionerate, Jaipur - RSPCB",15-05-2024 21:00:00,26.9164092,75.7994901,OZONE,26,180,119
India,Rajasthan,Jaipur,"RIICO Sitapura, Jaipur - RSPCB",15-05-2024 21:00:00,26.786682,75.827928,NH3,1,3,2
India,Rajasthan,Jaipur,"Shastri Nagar, Jaipur - RSPCB",15-05-2024 21:00:00,26.9502929,75.730943,PM2.5,59,146,83
India,Rajasthan,Jalore,"Mudtra Sili, Jalore - RSPCB",15-05-2024 21:00:00,25.344694,72.626208,PM10,69,152,112
India,Rajasthan,Jalore,"Mudtra Sili, Jalore - RSPCB",15-05-2024 21:00:00,25.344694,72.626208,NO2,14,60,29
India,Rajasthan,Jalore,"Mudtra Sili, Jalore - RSPCB",15-05-2024 21:00:00,25.344694,72.626208,NH3,5,10,8
India,Rajasthan,Jhunjhunu,"Indra Nagar, Jhunjhunu - RSPCB",15-05-2024 21:00:00,28.108988,75.386577,NO2,14,55,33
India,Rajasthan,Jhunjhunu,"Indra Nagar, Jhunjhunu - RSPCB",15-05-2024 21:00:00,28.108988,75.386577,SO2,6,14,9
India,Rajasthan,Jhunjhunu,"Indra Nagar, Jhunjhunu - RSPCB",15-05-2024 21:00:00,28.108988,75.386577,OZONE,18,108,78
India,Rajasthan,Jodhpur,"Digari Kalan, Jodhpur - RSPCB",15-05-2024 21:00:00,26.295810,73.082283,SO2,3,5,4
India,Rajasthan,Jodhpur,"Jhalamand, Jodhpur - RSPCB",15-05-2024 21:00:00,26.215415,73.070156,NH3,4,10,6
India,Rajasthan,Jodhpur,"Samrat Ashok Udhyan, Jodhpur - RSPCB",15-05-2024 21:00:00,26.253384,72.976571,NH3,3,8,4
India,Rajasthan,Jodhpur,"Samrat Ashok Udhyan, Jodhpur - RSPCB",15-05-2024 21:00:00,26.253384,72.976571,OZONE,11,108,80
India,Rajasthan,Karauli,"Satyawati Vihar, Karauli - RSPCB",15-05-2024 21:00:00,26.506177,77.025989,PM10,34,232,74
India,Rajasthan,Karauli,"Satyawati Vihar, Karauli - RSPCB",15-05-2024 21:00:00,26.506177,77.025989,NH3,6,57,13
India,Rajasthan,Kota,"Dhanmandi, Kota - RSPCB",15-05-2024 21:00:00,25.164090,75.858137,PM2.5,17,118,41
India,Rajasthan,Kota,"Shrinath Puram, Kota - RSPCB",15-05-2024 21:00:00,25.14389,75.821256,SO2,7,40,12
India,Rajasthan,Nagaur,"Karni Colony, Nagaur - RSPCB",15-05-2024 21:00:00,27.213494,73.734444,SO2,NA,NA,NA
India,Rajasthan,Pali,"Indira Colony Vistar, Pali - RSPCB",15-05-2024 21:00:00,25.771061, 73.340227,PM2.5,55,231,97
India,Rajasthan,Pali,"Indira Colony Vistar, Pali - RSPCB",15-05-2024 21:00:00,25.771061, 73.340227,PM10,92,183,126
India,Rajasthan,Pali,"Indira Colony Vistar, Pali - RSPCB",15-05-2024 21:00:00,25.771061, 73.340227,OZONE,24,94,75
India,Rajasthan,Pratapgarh,"Pragati Nagar, Pratapgarh - RSPCB",15-05-2024 21:00:00,24.041198,74.780702,PM2.5,14,42,25
India,Rajasthan,Rajsamand,"Dhoinda, Rajsamand - RSPCB",15-05-2024 21:00:00,25.036360,73.883502,NO2,1,31,15
India,Rajasthan,Sawai Madhopur,"Sahu Nagar, Sawai Madhopur - RSPCB",15-05-2024 21:00:00,26.031443,76.359327,CO,21,103,66
India,Rajasthan,Sri Ganganagar,"Old City, Sri Ganganagar - RSPCB",15-05-2024 21:00:00,29.931624,73.864511,PM2.5,NA,NA,NA
India,Rajasthan,Sri Ganganagar,"Old City, Sri Ganganagar - RSPCB",15-05-2024 21:00:00,29.931624,73.864511,NH3,7,49,21
India,Sikkim,Gangtok,"Zero Point GICI, Gangtok - SSPCB",15-05-2024 21:00:00,27.338530,88.614099,PM2.5,13,26,20
India,TamilNadu,Chennai,"Arumbakkam, Chennai - TNPCB",15-05-2024 21:00:00,13.0664,80.2112 ,SO2,1,52,11
India,TamilNadu,Chennai,"Kodungaiyur, Chennai - TNPCB",15-05-2024 21:00:00,13.1278,80.2642,NH3,3,5,3
India,TamilNadu,Chennai,"Manali, Chennai - CPCB",15-05-2024 21:00:00,13.164544,80.26285,NO2,8,10,9
India,TamilNadu,Chennai,"Perungudi, Chennai - TNPCB",15-05-2024 21:00:00,12.9533,80.2357,NH3,1,2,2
India,TamilNadu,Chennai,"Royapuram, Chennai - TNPCB",15-05-2024 21:00:00,13.1036,80.2909,NO2,1,16,6
India,TamilNadu,Cuddalore,"Kudikadu, Cuddalore - TNPCB",15-05-2024 21:00:00,11.6829898,79.7532099,NO2,1,11,3
India,TamilNadu,Cuddalore,"Semmandalam, Cuddalore - TNPCB",15-05-2024 21:00:00,11.7637683,79.7499835,PM2.5,5,43,17
India,TamilNadu,Cuddalore,"Semmandalam, Cuddalore - TNPCB",15-05-2024 21:00:00,11.7637683,79.7499835,NO2,3,27,8
India,TamilNadu,Gummidipoondi,"Anthoni Pillai Nagar, Gummidipoondi - TNPCB",15-05-2024 21:00:00,13.4127,80.1081,NO2,8,21,14
India,TamilNadu,Ooty,"Bombay Castel, Ooty - TNPCB",15-05-2024 21:00:00,11.4068288,76.7138973,PM2.5,NA,NA,NA
India,TamilNadu,Ooty,"Bombay Castel, Ooty - TNPCB",15-05-2024 21:00:00,11.4068288,76.7138973,PM10,NA,NA,NA
India,TamilNadu,Ooty,"Bombay Castel, Ooty - TNPCB",15-05-2024 21:00:00,11.4068288,76.7138973,NO2,NA,NA,NA
India,TamilNadu,Ooty,"Bombay Castel, Ooty - TNPCB",15-05-2024 21:00:00,11.4068288,76.7138973,SO2,NA,NA,NA
India,TamilNadu,Palkalaiperur,"Bharathidasan University, Palkalaiperur - TNPCB",15-05-2024 21:00:00,10.681158,78.741746,PM2.5,5,36,18
India,TamilNadu,Palkalaiperur,"Bharathidasan University, Palkalaiperur - TNPCB",15-05-2024 21:00:00,10.681158,78.741746,SO2,27,29,29
India,TamilNadu,Ramanathapuram,"Chalai Bazaar, Ramanathapuram - TNPCB",15-05-2024 21:00:00,9.36399,78.831977,PM2.5,1,37,10
India,TamilNadu,Salem,"Sona College of Technology, Salem - TNPCB",15-05-2024 21:00:00,11.679111,78.125052,CO,42,43,42
India,TamilNadu,Salem,"Sona College of Technology, Salem - TNPCB",15-05-2024 21:00:00,11.679111,78.125052,OZONE,3,3,3
India,TamilNadu,Thoothukudi,"Meelavittan, Thoothukudi - TNPCB",15-05-2024 21:00:00,8.816428 ,78.099039,PM10,16,128,42
India,TamilNadu,Thoothukudi,"Meelavittan, Thoothukudi - TNPCB",15-05-2024 21:00:00,8.816428 ,78.099039,NO2,33,53,39
India,TamilNadu,Thoothukudi,"Meelavittan, Thoothukudi - TNPCB",15-05-2024 21:00:00,8.816428 ,78.099039,SO2,NA,NA,NA
India,TamilNadu,Tirupur,"Kumaran College, Tirupur - TNPCB",15-05-2024 21:00:00,11.0973603,77.3228673,SO2,22,25,24
India,Telangana,Hyderabad,"Bollaram Industrial Area, Hyderabad - TSPCB",15-05-2024 21:00:00,17.540891,78.358528,CO,2,28,8
India,Telangana,Hyderabad,"ECIL Kapra, Hyderabad - TSPCB",15-05-2024 21:00:00,17.470431,78.566959,PM2.5,60,84,69
India,Telangana,Hyderabad,"ICRISAT Patancheru, Hyderabad - TSPCB",15-05-2024 21:00:00,17.518400,78.278777,PM10,17,126,61
India,Telangana,Hyderabad,"ICRISAT Patancheru, Hyderabad - TSPCB",15-05-2024 21:00:00,17.518400,78.278777,SO2,5,31,18
India,Telangana,Hyderabad,"IITH Kandi, Hyderabad - TSPCB",15-05-2024 21:00:00,17.585705,78.126199,NH3,NA,NA,NA
India,Telangana,Hyderabad,"IITH Kandi, Hyderabad - TSPCB",15-05-2024 21:00:00,17.585705,78.126199,OZONE,24,36,36
India,Telangana,Hyderabad,"Kompally Municipal Office, Hyderabad - TSPCB",15-05-2024 21:00:00,17.544899,78.486949,PM10,52,103,65
India,Telangana,Hyderabad,"New Malakpet, Hyderabad - TSPCB",15-05-2024 21:00:00,17.37206,78.50864,SO2,16,20,18
India,Telangana,Hyderabad,"Sanathnagar, Hyderabad - TSPCB",15-05-2024 21:00:00,17.4559458,78.4332152,SO2,5,52,13
India,Telangana,Hyderabad,"Somajiguda, Hyderabad - TSPCB",15-05-2024 21:00:00,17.417094,78.457437,PM2.5,NA,NA,NA
India,Telangana,Hyderabad,"Zoo Park, Hyderabad - TSPCB",15-05-2024 21:00:00,17.349694,78.451437,NH3,1,1,1
India,Telangana,Hyderabad,"Zoo Park, Hyderabad - TSPCB",15-05-2024 21:00:00,17.349694,78.451437,SO2,1,8,3
India,Tripura,Agartala,"Bardowali, Agartala - Tripura SPCB",15-05-2024 21:00:00,23.8175497,91.2726974,NH3,1,2,2
India,Tripura,Agartala,"Bardowali, Agartala - Tripura SPCB",15-05-2024 21:00:00,23.8175497,91.2726974,CO,20,74,37
India,Uttar_Pradesh,Agra,"Manoharpur, Agra - UPPCB",15-05-2024 21:00:00,27.23711,78.01936,NO2,35,35,35
India,Uttar_Pradesh,Agra,"Manoharpur, Agra - UPPCB",15-05-2024 21:00:00,27.23711,78.01936,OZONE,1,74,58
India,Uttar_Pradesh,Agra,"Rohta, Agra - UPPCB",15-05-2024 21:00:00,27.106972,78.000111,CO,5,22,9
India,Uttar_Pradesh,Agra,"Sanjay Palace, Agra - UPPCB",15-05-2024 21:00:00,27.19865833,78.00598056,NO2,10,32,17
India,Uttar_Pradesh,Agra,"Sanjay Palace, Agra - UPPCB",15-05-2024 21:00:00,27.19865833,78.00598056,CO,6,109,60
India,Uttar_Pradesh,Agra,"Sector-3B Avas Vikas Colony, Agra - UPPCB",15-05-2024 21:00:00,27.19412,77.96237,NO2,50,59,56
India,Uttar_Pradesh,Agra,"Sector-3B Avas Vikas Colony, Agra - UPPCB",15-05-2024 21:00:00,27.19412,77.96237,OZONE,9,15,12
India,Uttar_Pradesh,Agra,"Shahjahan Garden, Agra - UPPCB",15-05-2024 21:00:00,27.169338,78.03582,PM10,40,138,78
India,Uttar_Pradesh,Agra,"Shahjahan Garden, Agra - UPPCB",15-05-2024 21:00:00,27.169338,78.03582,NO2,18,33,20
India,Uttar_Pradesh,Agra,"Shahjahan Garden, Agra - UPPCB",15-05-2024 21:00:00,27.169338,78.03582,OZONE,1,191,39
India,Uttar_Pradesh,Agra,"Shastripuram, Agra - UPPCB",15-05-2024 21:00:00,27.19862,77.92066,NH3,4,8,5
India,Uttar_Pradesh,Baghpat,"Sardar Patel Inter College, Baghpat - UPPCB",15-05-2024 21:00:00,28.964949,77.278761,SO2,29,129,71
India,Uttar_Pradesh,Bareilly,"Civil Lines, Bareilly - UPPCB",15-05-2024 21:00:00,28.359581,79.414455,NO2,2,3,2
India,Uttar_Pradesh,Bareilly,"Civil Lines, Bareilly - UPPCB",15-05-2024 21:00:00,28.359581,79.414455,NH3,1,1,1
India,Uttar_Pradesh,Bareilly,"Civil Lines, Bareilly - UPPCB",15-05-2024 21:00:00,28.359581,79.414455,SO2,21,30,25
India,Uttar_Pradesh,Bareilly,"Rajendra Nagar, Bareilly - UPPCB",15-05-2024 21:00:00,28.38910936,79.42963708,PM10,40,108,74
India,Uttar_Pradesh,Bareilly,"Rajendra Nagar, Bareilly - UPPCB",15-05-2024 21:00:00,28.38910936,79.42963708,NO2,2,3,2
India,Uttar_Pradesh,Bulandshahr,"Yamunapuram, Bulandshahr - UPPCB",15-05-2024 21:00:00,28.406963,77.849831,PM2.5,60,349,173
India,Uttar_Pradesh,Bulandshahr,"Yamunapuram, Bulandshahr - UPPCB",15-05-2024 21:00:00,28.406963,77.849831,SO2,10,55,20
India,Uttar_Pradesh,Firozabad,"Nagla Bhau, Firozabad - UPPCB",15-05-2024 21:00:00,27.168897,78.376960,PM2.5,NA,NA,NA
India,Uttar_Pradesh,Firozabad,"Nagla Bhau, Firozabad - UPPCB",15-05-2024 21:00:00,27.168897,78.376960,NO2,17,17,17
India,Uttar_Pradesh,Firozabad,"Nagla Bhau, Firozabad - UPPCB",15-05-2024 21:00:00,27.168897,78.376960,SO2,19,22,20
India,Uttar_Pradesh,Ghaziabad,"Indirapuram, Ghaziabad - UPPCB",15-05-2024 21:00:00,28.646233,77.358075,OZONE,2,91,61
India,Uttar_Pradesh,Ghaziabad,"Loni, Ghaziabad - UPPCB",15-05-2024 21:00:00,28.757294,77.278792,SO2,15,74,33
India,Uttar_Pradesh,Gorakhpur,"Madan Mohan Malaviya University of Technology, Gorakhpur - UPPCB",15-05-2024 21:00:00,26.730136,83.433859,SO2,NA,NA,NA
India,Uttar_Pradesh,Greater Noida,"Knowledge Park - III, Greater Noida - UPPCB",15-05-2024 21:00:00,28.47272,77.482000,PM2.5,76,420,285
India,Uttar_Pradesh,Greater Noida,"Knowledge Park - III, Greater Noida - UPPCB",15-05-2024 21:00:00,28.47272,77.482000,PM10,146,433,315
India,Uttar_Pradesh,Greater Noida,"Knowledge Park - V, Greater Noida - UPPCB",15-05-2024 21:00:00,28.557054,77.453663,NO2,34,73,54
India,Uttar_Pradesh,Greater Noida,"Knowledge Park - V, Greater Noida - UPPCB",15-05-2024 21:00:00,28.557054,77.453663,NH3,3,6,4
India,Uttar_Pradesh,Greater Noida,"Knowledge Park - V, Greater Noida - UPPCB",15-05-2024 21:00:00,28.557054,77.453663,CO,13,105,32
India,Uttar_Pradesh,Jhansi,"Shivaji Nagar, Jhansi - UPPCB",15-05-2024 21:00:00,25.4547,78.6039,PM2.5,1,63,28
India,Uttar_Pradesh,Jhansi,"Shivaji Nagar, Jhansi - UPPCB",15-05-2024 21:00:00,25.4547,78.6039,PM10,1,64,28
India,Uttar_Pradesh,Jhansi,"Shivaji Nagar, Jhansi - UPPCB",15-05-2024 21:00:00,25.4547,78.6039,OZONE,23,93,69
India,Uttar_Pradesh,Kanpur,"FTI Kidwai Nagar, Kanpur - UPPCB",15-05-2024 21:00:00,26.428282,80.327067,PM10,56,397,113
India,Uttar_Pradesh,Kanpur,"NSI Kalyanpur, Kanpur - UPPCB",15-05-2024 21:00:00,26.509954,80.249612,PM2.5,12,208,87
India,Uttar_Pradesh,Kanpur,"Nehru Nagar, Kanpur - UPPCB",15-05-2024 21:00:00,26.4703136,80.3229863,PM2.5,40,314,80
India,Uttar_Pradesh,Khurja,"Kalindi Kunj, Khurja - UPPCB",15-05-2024 21:00:00,28.2348927,77.8683002,NO2,NA,NA,NA
India,Uttar_Pradesh,Lucknow,"B R Ambedkar University, Lucknow - UPPCB",15-05-2024 21:00:00,26.766433,80.927299,PM10,70,184,119
India,Uttar_Pradesh,Lucknow,"B R Ambedkar University, Lucknow - UPPCB",15-05-2024 21:00:00,26.766433,80.927299,NO2,11,12,11
India,Uttar_Pradesh,Lucknow,"B R Ambedkar University, Lucknow - UPPCB",15-05-2024 21:00:00,26.766433,80.927299,CO,22,49,28
India,Uttar_Pradesh,Lucknow,"B R Ambedkar University, Lucknow - UPPCB",15-05-2024 21:00:00,26.766433,80.927299,OZONE,1,84,66
India,Uttar_Pradesh,Lucknow,"Gomti Nagar, Lucknow - UPPCB",15-05-2024 21:00:00,26.868120,81.005119,PM10,56,144,83
India,Uttar_Pradesh,Lucknow,"Gomti Nagar, Lucknow - UPPCB",15-05-2024 21:00:00,26.868120,81.005119,OZONE,34,45,43
India,Uttar_Pradesh,Lucknow,"Kendriya Vidyalaya, Lucknow - CPCB",15-05-2024 21:00:00,26.906111,80.948222,PM10,93,162,122
India,Uttar_Pradesh,Meerut,"Jai Bhim Nagar, Meerut - UPPCB",15-05-2024 21:00:00,28.9535882,77.7622941,SO2,9,17,11
India,Uttar_Pradesh,Meerut,"Jai Bhim Nagar, Meerut - UPPCB",15-05-2024 21:00:00,28.9535882,77.7622941,OZONE,12,193,121
India,Uttar_Pradesh,Meerut,"Pallavpuram Phase 2, Meerut - UPPCB",15-05-2024 21:00:00,29.063510,77.709723,PM10,94,321,176
India,Uttar_Pradesh,Meerut,"Pallavpuram Phase 2, Meerut - UPPCB",15-05-2024 21:00:00,29.063510,77.709723,NO2,37,132,82
India,Uttar_Pradesh,Meerut,"Pallavpuram Phase 2, Meerut - UPPCB",15-05-2024 21:00:00,29.063510,77.709723,OZONE,1,96,77
India,Uttar_Pradesh,Moradabad,"Buddhi Vihar, Moradabad - UPPCB",15-05-2024 21:00:00,28.83526,78.74460,SO2,19,36,25
India,Uttar_Pradesh,Moradabad,"Eco Herbal Park, Moradabad - UPPCB",15-05-2024 21:00:00,28.840739,78.697531,NO2,14,68,39
India,Uttar_Pradesh,Moradabad,"Employment Office, Moradabad - UPPCB",15-05-2024 21:00:00,28.88528,78.73880,OZONE,1,277,118
India,Uttar_Pradesh,Moradabad,"Jigar Colony, Moradabad - UPPCB",15-05-2024 21:00:00,28.856664,78.772638,PM10,97,203,127
India,Uttar_Pradesh,Moradabad,"Kashiram Nagar, Moradabad - UPPCB",15-05-2024 21:00:00,28.849399,78.742362,PM10,74,248,136
India,Uttar_Pradesh,Moradabad,"Kashiram Nagar, Moradabad - UPPCB",15-05-2024 21:00:00,28.849399,78.742362,NH3,4,4,4
India,Uttar_Pradesh,Moradabad,"Kashiram Nagar, Moradabad - UPPCB",15-05-2024 21:00:00,28.849399,78.742362,CO,30,59,37
India,Uttar_Pradesh,Muzaffarnagar,"New Mandi, Muzaffarnagar - UPPCB",15-05-2024 21:00:00,29.4723508,77.7194031,NH3,10,17,12
India,Uttar_Pradesh,Noida,"Sector - 125, Noida - UPPCB",15-05-2024 21:00:00,28.5447608,77.3231257,NO2,15,413,190
India,Uttar_Pradesh,Noida,"Sector - 62, Noida - IMD",15-05-2024 21:00:00,28.6245479,77.3577104,CO,30,74,37
India,Uttar_Pradesh,Noida,"Sector-1, Noida - UPPCB",15-05-2024 21:00:00,28.5898,77.3101,OZONE,2,177,83
India,Uttar_Pradesh,Noida,"Sector-116, Noida - UPPCB",15-05-2024 21:00:00,28.569230,77.393848,NO2,24,186,105
India,Uttar_Pradesh,Noida,"Sector-116, Noida - UPPCB",15-05-2024 21:00:00,28.569230,77.393848,SO2,15,75,29
India,Uttar_Pradesh,Prayagraj,"Jhunsi, Prayagraj - UPPCB",15-05-2024 21:00:00,25.425602,81.917152,OZONE,13,91,71
India,Uttar_Pradesh,Prayagraj,"Motilal Nehru NIT, Prayagraj - UPPCB",15-05-2024 21:00:00,25.494,81.863,CO,10,44,23
India,Uttar_Pradesh,Prayagraj,"Motilal Nehru NIT, Prayagraj - UPPCB",15-05-2024 21:00:00,25.494,81.863,OZONE,11,30,22
India,Uttar_Pradesh,Varanasi,"Ardhali Bazar, Varanasi - UPPCB",15-05-2024 21:00:00,25.3505986,82.9083074,PM10,32,85,54
India,Uttar_Pradesh,Varanasi,"Bhelupur, Varanasi - UPPCB",15-05-2024 21:00:00,25.301778,82.996789,NO2,7,8,8
India,Uttar_Pradesh,Varanasi,"Bhelupur, Varanasi - UPPCB",15-05-2024 21:00:00,25.301778,82.996789,CO,22,77,31
India,Uttar_Pradesh,Varanasi,"IESD Banaras Hindu University, Varanasi - UPPCB",15-05-2024 21:00:00,25.262326,82.995408,PM10,18,49,30
India,Uttar_Pradesh,Varanasi,"IESD Banaras Hindu University, Varanasi - UPPCB",15-05-2024 21:00:00,25.262326,82.995408,NH3,1,2,2
India,Uttar_Pradesh,Varanasi,"Maldahiya, Varanasi - UPPCB",15-05-2024 21:00:00,25.32393,82.99687,PM10,19,46,30
India,Uttarakhand,Dehradun,"Doon University, Dehradun - UKPCB",15-05-2024 21:00:00,30.269444,78.044167,OZONE,52,212,174
India,Uttarakhand,Rishikesh,"Shivaji Nagar, Rishikesh - UKPCB",15-05-2024 21:00:00,30.075911,78.2859547,PM10,59,114,84
India,Uttarakhand,Rishikesh,"Shivaji Nagar, Rishikesh - UKPCB",15-05-2024 21:00:00,30.075911,78.2859547,NH3,1,4,2
India,West_Bengal,Asansol,"Asansol Court Area, Asansol - WBPCB",15-05-2024 21:00:00,23.685297,86.945968,PM10,68,131,104
India,West_Bengal,Asansol,"Asansol Court Area, Asansol - WBPCB",15-05-2024 21:00:00,23.685297,86.945968,SO2,11,15,13
India,West_Bengal,Barrackpore,"SVSPA Campus, Barrackpore - WBPCB",15-05-2024 21:00:00,22.7605581,88.3617589,NO2,6,35,13
India,West_Bengal,Barrackpore,"SVSPA Campus, Barrackpore - WBPCB",15-05-2024 21:00:00,22.7605581,88.3617589,SO2,7,11,9
India,West_Bengal,Haldia,"Priyambada Housing Estate, Haldia - WBPCB",15-05-2024 21:00:00,22.06047,88.109737,PM2.5,8,9,8
India,West_Bengal,Howrah,"Belur Math, Howrah - WBPCB",15-05-2024 21:00:00,22.629801,88.352017,PM2.5,34,52,41
India,West_Bengal,Howrah,"Belur Math, Howrah - WBPCB",15-05-2024 21:00:00,22.629801,88.352017,PM10,55,86,65
India,West_Bengal,Howrah,"Belur Math, Howrah - WBPCB",15-05-2024 21:00:00,22.629801,88.352017,SO2,4,11,9
India,West_Bengal,Howrah,"Ghusuri, Howrah - WBPCB",15-05-2024 21:00:00,22.611968,88.347422,PM10,36,106,69
India,West_Bengal,Howrah,"Ghusuri, Howrah - WBPCB",15-05-2024 21:00:00,22.611968,88.347422,NH3,2,3,3
India,West_Bengal,Howrah,"Ghusuri, Howrah - WBPCB",15-05-2024 21:00:00,22.611968,88.347422,SO2,4,7,5
India,West_Bengal,Kolkata,"Ballygunge, Kolkata - WBPCB",15-05-2024 21:00:00,22.5367507,88.3638022,NO2,14,40,20
India,West_Bengal,Kolkata,"Ballygunge, Kolkata - WBPCB",15-05-2024 21:00:00,22.5367507,88.3638022,NH3,6,7,7
India,West_Bengal,Kolkata,"Ballygunge, Kolkata - WBPCB",15-05-2024 21:00:00,22.5367507,88.3638022,SO2,3,38,11
India,West_Bengal,Kolkata,"Ballygunge, Kolkata - WBPCB",15-05-2024 21:00:00,22.5367507,88.3638022,CO,17,29,23
India,West_Bengal,Kolkata,"Bidhannagar, Kolkata - WBPCB",15-05-2024 21:00:00,22.58157048,88.41002457,SO2,6,26,10
India,West_Bengal,Kolkata,"Fort William, Kolkata - WBPCB",15-05-2024 21:00:00,22.556640,88.342674,PM10,41,67,55
India,West_Bengal,Kolkata,"Jadavpur, Kolkata - WBPCB",15-05-2024 21:00:00,22.49929,88.36917,NO2,45,63,59
India,West_Bengal,Kolkata,"Rabindra Bharati University, Kolkata - WBPCB",15-05-2024 21:00:00,22.627847,88.380669,SO2,9,13,11
India,West_Bengal,Kolkata,"Victoria, Kolkata - WBPCB",15-05-2024 21:00:00,22.5448082,88.3403691,SO2,6,39,11
India,West_Bengal,Kolkata,"Victoria, Kolkata - WBPCB",15-05-2024 21:00:00,22.5448082,88.3403691,CO,10,41,20
India,Andhra_Pradesh,Amaravati,"Secretariat, Amaravati - APPCB",15-05-2024 21:00:00,16.5150833,80.5181667,OZONE,4,55,40
India,Andhra_Pradesh,Chittoor,"Gangineni Cheruvu, Chittoor - APPCB",15-05-2024 21:00:00,13.204880,79.097889,PM2.5,NA,NA,NA
India,Andhra_Pradesh,Kadapa,"Yerramukkapalli, Kadapa - APPCB",15-05-2024 21:00:00,14.465052,78.824187,PM10,NA,NA,NA
India,Andhra_Pradesh,Kadapa,"Yerramukkapalli, Kadapa - APPCB",15-05-2024 21:00:00,14.465052,78.824187,NH3,NA,NA,NA
India,Andhra_Pradesh,Tirupati,"Vaikuntapuram, Tirupati - APPCB",15-05-2024 21:00:00,13.615387,79.409230,PM10,NA,NA,NA
India,Andhra_Pradesh,Vijayawada,"HB Colony, Vijayawada - APPCB",15-05-2024 21:00:00,16.536107,80.594233,SO2,NA,NA,NA
India,Andhra_Pradesh,Vijayawada,"Kanuru, Vijayawada - APPCB",15-05-2024 21:00:00,16.486692,80.699436,NH3,NA,NA,NA
India,Andhra_Pradesh,Vijayawada,"Kanuru, Vijayawada - APPCB",15-05-2024 21:00:00,16.486692,80.699436,SO2,NA,NA,NA
India,Andhra_Pradesh,Vijayawada,"Kanuru, Vijayawada - APPCB",15-05-2024 21:00:00,16.486692,80.699436,CO,39,39,39
India,Andhra_Pradesh,Vijayawada,"Rajiv Nagar, Vijayawada - APPCB",15-05-2024 21:00:00,16.554731,80.649110,CO,36,36,36
India,Andhra_Pradesh,Visakhapatnam,"GVM Corporation, Visakhapatnam - APPCB",15-05-2024 21:00:00,17.72,83.3,CO,2,32,14
India,Arunachal_Pradesh,Naharlagun,"Naharlagun, Naharlagun - APSPCB",15-05-2024 21:00:00,27.103358,93.679645,PM10,19,64,35
India,Arunachal_Pradesh,Naharlagun,"Naharlagun, Naharlagun - APSPCB",15-05-2024 21:00:00,27.103358,93.679645,CO,5,28,15
India,Assam,Byrnihat,"Central Academy for SFS, Byrnihat - PCBA",15-05-2024 21:00:00,26.071318,91.87488,PM10,70,500,250
India,Assam,Byrnihat,"Central Academy for SFS, Byrnihat - PCBA",15-05-2024 21:00:00,26.071318,91.87488,OZONE,22,93,23
India,Assam,Guwahati,"IITG, Guwahati - PCBA",15-05-2024 21:00:00,26.2028636,91.70046436,NO2,1,11,4
India,Assam,Guwahati,"IITG, Guwahati - PCBA",15-05-2024 21:00:00,26.2028636,91.70046436,CO,10,20,10
India,Assam,Guwahati,"Pan Bazaar, Guwahati - PCBA",15-05-2024 21:00:00,26.187500,91.744194,NO2,1,9,4
India,Assam,Guwahati,"Pan Bazaar, Guwahati - PCBA",15-05-2024 21:00:00,26.187500,91.744194,OZONE,16,18,17
India,Assam,Guwahati,"Railway Colony, Guwahati - PCBA",15-05-2024 21:00:00,26.181742,91.78063,NO2,3,4,3
India,Assam,Guwahati,"Railway Colony, Guwahati - PCBA",15-05-2024 21:00:00,26.181742,91.78063,OZONE,3,10,8
India,Assam,Nagaon,"Christianpatty, Nagaon - PCBA",15-05-2024 21:00:00,26.349082,92.68449,NO2,4,24,12
India,Assam,Nagaon,"Christianpatty, Nagaon - PCBA",15-05-2024 21:00:00,26.349082,92.68449,OZONE,8,88,84
India,Assam,Nalbari,"Bata Chowk, Nalbari - PCBA",15-05-2024 21:00:00,26.446912,91.439057,PM2.5,47,110,71
India,Assam,Nalbari,"Bata Chowk, Nalbari - PCBA",15-05-2024 21:00:00,26.446912,91.439057,CO,65,108,98
India,Bihar,Araria,"Kharahiya Basti, Araria - BSPCB",15-05-2024 21:00:00,26.146529,87.454184,PM2.5,50,164,77
India,Bihar,Araria,"Kharahiya Basti, Araria - BSPCB",15-05-2024 21:00:00,26.146529,87.454184,PM10,53,180,101
India,Bihar,Araria,"Kharahiya Basti, Araria - BSPCB",15-05-2024 21:00:00,26.146529,87.454184,NH3,6,7,6
India,Bihar,Arrah,"New DM Office, Arrah - BSPCB",15-05-2024 21:00:00,25.5626095,84.663264,PM2.5,38,97,63
India,Bihar,Aurangabad,"Gurdeo Nagar, Aurangabad - BSPCB",15-05-2024 21:00:00,24.75746,84.366208,PM2.5,NA,NA,NA
India,Bihar,Bettiah,"Kamalnath Nagar, Bettiah - BSPCB",15-05-2024 21:00:00,26.80365,84.51954,PM2.5,55,280,148
India,Bihar,Bhagalpur,"DM Office_Kachari Chowk, Bhagalpur - BSPCB",15-05-2024 21:00:00,25.251013,86.989001,CO,16,66,47
India,Bihar,Bhagalpur,"DM Office_Kachari Chowk, Bhagalpur - BSPCB",15-05-2024 21:00:00,25.251013,86.989001,OZONE,41,60,46
India,Bihar,Bhagalpur,"Mayaganj, Bhagalpur - BSPCB",15-05-2024 21:00:00,25.265194,87.012947,PM2.5,90,297,156
India,Bihar,Bhagalpur,"Mayaganj, Bhagalpur - BSPCB",15-05-2024 21:00:00,25.265194,87.012947,NH3,6,9,8
India,Bihar,Bihar Sharif,"D M Colony, Bihar Sharif - BSPCB",15-05-2024 21:00:00,25.204762,85.514960,PM2.5,35,157,56
India,Bihar,Bihar Sharif,"D M Colony, Bihar Sharif - BSPCB",15-05-2024 21:00:00,25.204762,85.514960,NH3,2,2,2
India,Bihar,Bihar Sharif,"D M Colony, Bihar Sharif - BSPCB",15-05-2024 21:00:00,25.204762,85.514960,OZONE,23,60,24
India,Bihar,Buxar,"Charitra Van, Buxar - BSPCB (Formerly known as Central Jail)",15-05-2024 21:00:00,25.567520,83.966379,PM2.5,137,375,258
India,Bihar,Chhapra,"Darshan Nagar, Chhapra - BSPCB",15-05-2024 21:00:00,25.7808257,84.7446768,CO,38,65,57
India,Bihar,Gaya,"Kareemganj, Gaya - BSPCB",15-05-2024 21:00:00,24.792403,84.992416,NH3,2,7,5
India,Bihar,Gaya,"SFTI Kusdihra, Gaya - BSPCB",15-05-2024 21:00:00,24.762518,84.982348,OZONE,3,47,34
India,Bihar,Katihar,"Mirchaibari, Katihar - BSPCB",15-05-2024 21:00:00,25.560083,87.553265,PM2.5,40,72,54
India,Bihar,Kishanganj,"SDM Office_Khagra, Kishanganj - BSPCB",15-05-2024 21:00:00,26.0881305,87.93840336,OZONE,18,112,70
India,Bihar,Manguraha,"Forest Rest House, Manguraha - BSPCB",15-05-2024 21:00:00,27.308328,84.531742,PM10,NA,NA,NA
India,Bihar,Manguraha,"Forest Rest House, Manguraha - BSPCB",15-05-2024 21:00:00,27.308328,84.531742,NH3,2,4,3
India,Bihar,Motihari,"Gandak Colony, Motihari - BSPCB",15-05-2024 21:00:00,26.63086,84.90051,PM10,81,206,126
India,Bihar,Motihari,"Gandak Colony, Motihari - BSPCB",15-05-2024 21:00:00,26.63086,84.90051,OZONE,11,44,29
India,Bihar,Munger,"Town Hall, Munger - BSPCB",15-05-2024 21:00:00,25.376776,86.471523,PM2.5,NA,NA,NA
India,Bihar,Munger,"Town Hall, Munger - BSPCB",15-05-2024 21:00:00,25.376776,86.471523,NH3,2,3,3
India,Bihar,Munger,"Town Hall, Munger - BSPCB",15-05-2024 21:00:00,25.376776,86.471523,CO,36,149,73
India,Bihar,Muzaffarpur,"MIT-Daudpur Kothi, Muzaffarpur - BSPCB",15-05-2024 21:00:00,26.1403345,85.3650192,NO2,2,4,3
India,Bihar,Muzaffarpur,"MIT-Daudpur Kothi, Muzaffarpur - BSPCB",15-05-2024 21:00:00,26.1403345,85.3650192,SO2,5,8,8
India,Bihar,Muzaffarpur,"MIT-Daudpur Kothi, Muzaffarpur - BSPCB",15-05-2024 21:00:00,26.1403345,85.3650192,CO,14,66,26
India,Bihar,Muzaffarpur,"Muzaffarpur Collectorate, Muzaffarpur - BSPCB",15-05-2024 21:00:00,26.1209,85.3647,PM2.5,86,306,148
India,Bihar,Muzaffarpur,"Muzaffarpur Collectorate, Muzaffarpur - BSPCB",15-05-2024 21:00:00,26.1209,85.3647,NO2,33,34,34
India,Bihar,Patna,"IGSC Planetarium Complex, Patna - BSPCB",15-05-2024 21:00:00,25.610369,85.132568,PM2.5,88,307,239
India,Bihar,Patna,"IGSC Planetarium Complex, Patna - BSPCB",15-05-2024 21:00:00,25.610369,85.132568,NO2,11,11,11
India,Bihar,Patna,"IGSC Planetarium Complex, Patna - BSPCB",15-05-2024 21:00:00,25.610369,85.132568,SO2,3,6,5
India,Bihar,Patna,"IGSC Planetarium Complex, Patna - BSPCB",15-05-2024 21:00:00,25.610369,85.132568,CO,8,14,11
India,Bihar,Patna,"Rajbansi Nagar, Patna - BSPCB",15-05-2024 21:00:00,25.599486,85.113666,OZONE,9,148,85
India,Bihar,Patna,"Samanpura, Patna - BSPCB",15-05-2024 21:00:00,25.596727,85.085624,PM10,139,230,182
India,Bihar,Patna,"Samanpura, Patna - BSPCB",15-05-2024 21:00:00,25.596727,85.085624,NH3,10,13,11
India,Bihar,Purnia,"Mariam Nagar, Purnia - BSPCB",15-05-2024 21:00:00,25.366336,87.117468,CO,48,77,65
India,Bihar,Rajgir,"Dangi Tola, Rajgir - BSPCB",15-05-2024 21:00:00,25.03280,85.41948,NO2,16,19,18
India,Bihar,Saharsa,"Police Line, Saharsa - BSPCB",15-05-2024 21:00:00,25.892357,86.590325,PM2.5,35,230,117
India,Bihar,Saharsa,"Police Line, Saharsa - BSPCB",15-05-2024 21:00:00,25.892357,86.590325,OZONE,10,63,26
India,Bihar,Samastipur,"DM Office_Kasipur, Samastipur - BSPCB",15-05-2024 21:00:00,25.859655,85.77944,PM2.5,NA,NA,NA
India,Bihar,Samastipur,"DM Office_Kasipur, Samastipur - BSPCB",15-05-2024 21:00:00,25.859655,85.77944,NO2,NA,NA,NA
India,Bihar,Samastipur,"DM Office_Kasipur, Samastipur - BSPCB",15-05-2024 21:00:00,25.859655,85.77944,NH3,NA,NA,NA
India,Bihar,Samastipur,"DM Office_Kasipur, Samastipur - BSPCB",15-05-2024 21:00:00,25.859655,85.77944,SO2,NA,NA,NA
India,Bihar,Sasaram,"Dada Peer, Sasaram - BSPCB",15-05-2024 21:00:00,24.952822,84.002396,NO2,4,98,55
India,Bihar,Sasaram,"Dada Peer, Sasaram - BSPCB",15-05-2024 21:00:00,24.952822,84.002396,SO2,22,23,22
India,Bihar,Siwan,"Chitragupta Nagar, Siwan - BSPCB",15-05-2024 21:00:00,26.2271665,84.3570427,NH3,1,4,2
India,Chandigarh,Chandigarh,"Sector-25, Chandigarh - CPCC",15-05-2024 21:00:00,30.751462,76.762879,PM10,101,154,133
India,Chandigarh,Chandigarh,"Sector-25, Chandigarh - CPCC",15-05-2024 21:00:00,30.751462,76.762879,NO2,7,68,29
India,Chandigarh,Chandigarh,"Sector-25, Chandigarh - CPCC",15-05-2024 21:00:00,30.751462,76.762879,OZONE,1,65,41
India,Chandigarh,Chandigarh,"Sector-53, Chandigarh - CPCC",15-05-2024 21:00:00,30.719859,76.738637,PM2.5,75,347,268
India,Chandigarh,Chandigarh,"Sector-53, Chandigarh - CPCC",15-05-2024 21:00:00,30.719859,76.738637,NH3,3,6,4
India,Chandigarh,Chandigarh,"Sector-53, Chandigarh - CPCC",15-05-2024 21:00:00,30.719859,76.738637,SO2,13,42,26
India,Chhattisgarh,Bhilai,"32Bungalows, Bhilai - CECB",15-05-2024 21:00:00,21.194815,81.314770,PM10,65,102,73
India,Chhattisgarh,Bilaspur,"Mangala, Bilaspur - NTPC",15-05-2024 21:00:00,22.08815,82.13737,PM2.5,28,67,50
India,Chhattisgarh,Chhal,"Nawapara SECL Colony, Chhal - CECB",15-05-2024 21:00:00,22.118125,83.140608,PM10,11,85,56
India,Chhattisgarh,Chhal,"Nawapara SECL Colony, Chhal - CECB",15-05-2024 21:00:00,22.118125,83.140608,SO2,6,22,14
India,Chhattisgarh,Chhal,"Nawapara SECL Colony, Chhal - CECB",15-05-2024 21:00:00,22.118125,83.140608,OZONE,6,136,110
India,Chhattisgarh,Korba,"Rampur, Korba - CECB",15-05-2024 21:00:00,22.368195,82.746431,PM2.5,31,68,42
India,Chhattisgarh,Korba,"Urja Nagar, Korba - CECB",15-05-2024 21:00:00,22.348441,82.549611,CO,23,44,28
India,Chhattisgarh,Kunjemura,"OP Jindal School, Kunjemura - CECB",15-05-2024 21:00:00,22.126650,83.483212,PM2.5,2,128,59
India,Chhattisgarh,Kunjemura,"OP Jindal School, Kunjemura - CECB",15-05-2024 21:00:00,22.126650,83.483212,NH3,1,5,2
India,Chhattisgarh,Raipur,"Bhatagaon New ISBT, Raipur - CECB",15-05-2024 21:00:00,21.219665,81.630094,PM2.5,30,64,45
India,Chhattisgarh,Raipur,"Bhatagaon New ISBT, Raipur - CECB",15-05-2024 21:00:00,21.219665,81.630094,PM10,48,176,68
India,Chhattisgarh,Raipur,"Siltara Phase-II, Raipur - CECB",15-05-2024 21:00:00,21.371751,81.664929,PM2.5,NA,NA,NA
India,Chhattisgarh,Tumidih,"OP Jindal Industrial Park, Tumidih - CECB",15-05-2024 21:00:00,22.06631475,83.33820077,NH3,NA,NA,NA
India,Delhi,Delhi,"Anand Vihar, Delhi - DPCC",15-05-2024 21:00:00,28.647622,77.3158090,SO2,20,103,43
India,Delhi,Delhi,"Ashok Vihar, Delhi - DPCC",15-05-2024 21:00:00,28.695381,77.181665,OZONE,5,276,200
India,Delhi,Delhi,"Aya Nagar, Delhi - IMD",15-05-2024 21:00:00,28.4706914,77.1099364,PM10,18,228,147
India,Delhi,Delhi,"Aya Nagar, Delhi - IMD",15-05-2024 21:00:00,28.4706914,77.1099364,CO,38,105,59
India,Delhi,Delhi,"Bawana, Delhi - DPCC",15-05-2024 21:00:00,28.776200,77.051074,PM2.5,148,441,291
India,Delhi,Delhi,"Bawana, Delhi - DPCC",15-05-2024 21:00:00,28.776200,77.051074,PM10,129,451,306
India,Delhi,Delhi,"Bawana, Delhi - DPCC",15-05-2024 21:00:00,28.776200,77.051074,NO2,8,95,42
India,Delhi,Delhi,"Bawana, Delhi - DPCC",15-05-2024 21:00:00,28.776200,77.051074,SO2,18,117,58
India,Delhi,Delhi,"CRRI Mathura Road, Delhi - IMD",15-05-2024 21:00:00,28.5512005,77.2735737,CO,16,112,28
India,Delhi,Delhi,"Chandni Chowk, Delhi - IITM",15-05-2024 21:00:00,28.656756,77.227234,NO2,NA,NA,NA
India,Delhi,Delhi,"DTU, Delhi - CPCB",15-05-2024 21:00:00,28.7500499,77.1112615,NO2,26,37,32
India,Delhi,Delhi,"DTU, Delhi - CPCB",15-05-2024 21:00:00,28.7500499,77.1112615,CO,15,84,27
India,Delhi,Delhi,"Dr. Karni Singh Shooting Range, Delhi - DPCC",15-05-2024 21:00:00,28.498571,77.264840,PM2.5,80,367,189
India,Delhi,Delhi,"Dr. Karni Singh Shooting Range, Delhi - DPCC",15-05-2024 21:00:00,28.498571,77.264840,NO2,29,155,79
India,Delhi,Delhi,"Dr. Karni Singh Shooting Range, Delhi - DPCC",15-05-2024 21:00:00,28.498571,77.264840,NH3,5,7,6
India,Delhi,Delhi,"Dwarka-Sector 8, Delhi - DPCC ",15-05-2024 21:00:00,28.5710274,77.0719006,PM10,127,469,260
India,Delhi,Delhi,"Dwarka-Sector 8, Delhi - DPCC ",15-05-2024 21:00:00,28.5710274,77.0719006,NO2,32,177,88
India,Delhi,Delhi,"IGI Airport (T3), Delhi - IMD",15-05-2024 21:00:00,28.5627763,77.1180053,NO2,26,121,80
India,Delhi,Delhi,"ITO, Delhi - CPCB",15-05-2024 21:00:00,28.628624,77.241060,PM10,96,216,132
India,Delhi,Delhi,"Jahangirpuri, Delhi - DPCC",15-05-2024 21:00:00,28.732820,77.170633,PM2.5,97,486,312
India,Delhi,Delhi,"Jahangirpuri, Delhi - DPCC",15-05-2024 21:00:00,28.732820,77.170633,NH3,1,12,6
India,Delhi,Delhi,"Jawaharlal Nehru Stadium, Delhi - DPCC",15-05-2024 21:00:00,28.580280,77.233829,CO,31,121,57
India,Delhi,Delhi,"Major Dhyan Chand National Stadium, Delhi - DPCC",15-05-2024 21:00:00,28.611281,77.237738,NH3,6,13,8
India,Delhi,Delhi,"Mandir Marg, Delhi - DPCC",15-05-2024 21:00:00,28.636429,77.201067,CO,14,106,28
India,Delhi,Delhi,"Mundka, Delhi - DPCC",15-05-2024 21:00:00,28.684678,77.076574,PM2.5,93,500,293
India,Delhi,Delhi,"NSIT Dwarka, Delhi - CPCB",15-05-2024 21:00:00,28.60909,77.0325413,SO2,1,54,18
India,Delhi,Delhi,"Najafgarh, Delhi - DPCC",15-05-2024 21:00:00,28.570173,76.933762,NO2,15,125,55
India,Delhi,Delhi,"Najafgarh, Delhi - DPCC",15-05-2024 21:00:00,28.570173,76.933762,CO,37,77,43
India,Delhi,Delhi,"Nehru Nagar, Delhi - DPCC",15-05-2024 21:00:00,28.567890,77.250515,PM2.5,127,352,228
India,Delhi,Delhi,"Nehru Nagar, Delhi - DPCC",15-05-2024 21:00:00,28.567890,77.250515,PM10,116,290,178
India,Delhi,Delhi,"Nehru Nagar, Delhi - DPCC",15-05-2024 21:00:00,28.567890,77.250515,OZONE,1,251,106
India,Delhi,Delhi,"New Moti Bagh, Delhi - MHUA",15-05-2024 21:00:00,28.57834,77.18400,NO2,8,49,28
India,Delhi,Delhi,"New Moti Bagh, Delhi - MHUA",15-05-2024 21:00:00,28.57834,77.18400,CO,32,132,52
India,Delhi,Delhi,"North Campus, DU, Delhi - IMD",15-05-2024 21:00:00,28.6573814,77.1585447,PM2.5,118,347,250
India,Delhi,Delhi,"North Campus, DU, Delhi - IMD",15-05-2024 21:00:00,28.6573814,77.1585447,CO,78,127,93
India,Delhi,Delhi,"Okhla Phase-2, Delhi - DPCC",15-05-2024 21:00:00,28.530785,77.271255,PM10,123,410,232
India,Delhi,Delhi,"Okhla Phase-2, Delhi - DPCC",15-05-2024 21:00:00,28.530785,77.271255,NO2,37,156,102
India,Delhi,Delhi,"Okhla Phase-2, Delhi - DPCC",15-05-2024 21:00:00,28.530785,77.271255,OZONE,2,211,151
India,Delhi,Delhi,"Patparganj, Delhi - DPCC",15-05-2024 21:00:00,28.623763,77.287209,CO,28,56,36
India,Delhi,Delhi,"Patparganj, Delhi - DPCC",15-05-2024 21:00:00,28.623763,77.287209,OZONE,1,264,170
India,Delhi,Delhi,"Punjabi Bagh, Delhi - DPCC",15-05-2024 21:00:00,28.674045,77.131023,NH3,3,5,4
India,Delhi,Delhi,"Punjabi Bagh, Delhi - DPCC",15-05-2024 21:00:00,28.674045,77.131023,SO2,2,35,19
India,Delhi,Delhi,"R K Puram, Delhi - DPCC",15-05-2024 21:00:00,28.563262,77.186937,SO2,7,41,26
India,Delhi,Delhi,"Rohini, Delhi - DPCC",15-05-2024 21:00:00,28.732528,77.119920,PM2.5,92,468,281
India,Delhi,Delhi,"Rohini, Delhi - DPCC",15-05-2024 21:00:00,28.732528,77.119920,NH3,9,19,13
India,Delhi,Delhi,"Rohini, Delhi - DPCC",15-05-2024 21:00:00,28.732528,77.119920,CO,26,121,46
India,Delhi,Delhi,"Sirifort, Delhi - CPCB",15-05-2024 21:00:00,28.5504249,77.2159377,NH3,3,11,7
India,Delhi,Delhi,"Sirifort, Delhi - CPCB",15-05-2024 21:00:00,28.5504249,77.2159377,OZONE,4,144,80
India,Delhi,Delhi,"Sonia Vihar, Delhi - DPCC",15-05-2024 21:00:00,28.710508,77.249485,PM2.5,93,453,266
India,Delhi,Delhi,"Wazirpur, Delhi - DPCC",15-05-2024 21:00:00,28.699793,77.165453,PM10,130,422,277
India,Delhi,Delhi,"Wazirpur, Delhi - DPCC",15-05-2024 21:00:00,28.699793,77.165453,NO2,36,95,64
India,Delhi,Delhi,"Wazirpur, Delhi - DPCC",15-05-2024 21:00:00,28.699793,77.165453,OZONE,7,268,152
India,Gujarat,Ahmedabad,"Chandkheda, Ahmedabad - IITM",15-05-2024 21:00:00,23.107969,72.574648,PM2.5,77,319,172
India,Gujarat,Ahmedabad,"Chandkheda, Ahmedabad - IITM",15-05-2024 21:00:00,23.107969,72.574648,OZONE,30,117,81
India,Gujarat,Ahmedabad,"Gyaspur, Ahmedabad - IITM",15-05-2024 21:00:00,22.977134,72.553024,PM10,51,449,131
India,Gujarat,Ahmedabad,"Gyaspur, Ahmedabad - IITM",15-05-2024 21:00:00,22.977134,72.553024,CO,44,101,55
India,Gujarat,Ahmedabad,"Maninagar, Ahmedabad - GPCB",15-05-2024 21:00:00,23.002657,72.591912,PM2.5,32,119,83
India,Gujarat,Ahmedabad,"SVPI Airport Hansol, Ahmedabad - IITM",15-05-2024 21:00:00,23.076793,72.627874,NO2,33,40,37
India,Gujarat,Ahmedabad,"SVPI Airport Hansol, Ahmedabad - IITM",15-05-2024 21:00:00,23.076793,72.627874,CO,44,113,67
India,Gujarat,Ahmedabad,"Sardar Vallabhbhai Patel Stadium, Ahmedabad - IITM",15-05-2024 21:00:00,23.043070,72.562968,SO2,14,59,24
India,Gujarat,Ankleshwar,"GIDC, Ankleshwar - GPCB",15-05-2024 21:00:00,21.613267,73.010555,PM10,NA,NA,NA
India,Gujarat,Ankleshwar,"GIDC, Ankleshwar - GPCB",15-05-2024 21:00:00,21.613267,73.010555,NH3,NA,NA,NA
India,Gujarat,Gandhinagar,"Sector-10, Gandhinagar - GPCB",15-05-2024 21:00:00,23.221714,72.654328,NH3,2,2,2
India,Gujarat,Nandesari,"GIDC, Nandesari - Nandesari Ind. Association",15-05-2024 21:00:00,22.410802,73.097923,PM10,56,337,131
India,Gujarat,Vapi,"Phase-1 GIDC, Vapi - GPCB",15-05-2024 21:00:00,20.362421,72.918013,PM10,NA,NA,NA
India,Gujarat,Vapi,"Phase-1 GIDC, Vapi - GPCB",15-05-2024 21:00:00,20.362421,72.918013,NH3,NA,NA,NA
India,Haryana,Ambala,"Patti Mehar, Ambala - HSPCB",15-05-2024 21:00:00,30.379589,76.778328,NO2,7,21,14
India,Haryana,Bahadurgarh,"Arya Nagar, Bahadurgarh - HSPCB",15-05-2024 21:00:00,28.6701,76.9254,SO2,16,123,57
India,Haryana,Bahadurgarh,"Arya Nagar, Bahadurgarh - HSPCB",15-05-2024 21:00:00,28.6701,76.9254,CO,94,102,99
India,Haryana,Bahadurgarh,"Arya Nagar, Bahadurgarh - HSPCB",15-05-2024 21:00:00,28.6701,76.9254,OZONE,35,41,37
India,Haryana,Ballabgarh,"Nathu Colony, Ballabgarh - HSPCB",15-05-2024 21:00:00,28.3419248,77.319699,CO,4,102,27
India,Haryana,Bhiwani,"H.B. Colony, Bhiwani - HSPCB",15-05-2024 21:00:00,28.806223,76.141105,PM10,82,136,112
India,Haryana,Bhiwani,"H.B. Colony, Bhiwani - HSPCB",15-05-2024 21:00:00,28.806223,76.141105,NH3,6,6,6
India,Haryana,Bhiwani,"H.B. Colony, Bhiwani - HSPCB",15-05-2024 21:00:00,28.806223,76.141105,SO2,3,102,14
India,Haryana,Charkhi Dadri,"Mini Secretariat, Charkhi Dadri - HSPCB",15-05-2024 21:00:00,28.593883,76.270653,CO,34,106,53
India,Haryana,Dharuhera,"Municipal Corporation Office, Dharuhera -  HSPCB",15-05-2024 21:00:00,28.206800,76.799700,PM10,151,209,177
India,Haryana,Dharuhera,"Municipal Corporation Office, Dharuhera -  HSPCB",15-05-2024 21:00:00,28.206800,76.799700,NH3,9,27,19
India,Haryana,Dharuhera,"Municipal Corporation Office, Dharuhera -  HSPCB",15-05-2024 21:00:00,28.206800,76.799700,OZONE,10,77,66
India,Haryana,Faridabad,"Sector 11, Faridabad - HSPCB",15-05-2024 21:00:00,28.376058,77.315741,OZONE,6,34,23
India,Haryana,Faridabad,"Sector 30, Faridabad - HSPCB",15-05-2024 21:00:00,28.4417,77.3217,NO2,30,34,32
India,Haryana,Faridabad,"Sector 30, Faridabad - HSPCB",15-05-2024 21:00:00,28.4417,77.3217,CO,53,57,54
India,Haryana,Faridabad,"Sector- 16A, Faridabad - HSPCB",15-05-2024 21:00:00,28.4088421,77.3099081,CO,20,100,39
India,Haryana,Fatehabad,"Huda Sector, Fatehabad - HSPCB",15-05-2024 21:00:00,29.503664,75.467934,NH3,NA,NA,NA
India,Haryana,Fatehabad,"Huda Sector, Fatehabad - HSPCB",15-05-2024 21:00:00,29.503664,75.467934,SO2,NA,NA,NA
India,Haryana,Gurugram,"NISE Gwal Pahari, Gurugram - IMD",15-05-2024 21:00:00,28.422681,77.148944,PM10,110,309,168
India,Haryana,Gurugram,"NISE Gwal Pahari, Gurugram - IMD",15-05-2024 21:00:00,28.422681,77.148944,CO,NA,NA,NA
India,Haryana,Gurugram,"Teri Gram, Gurugram - HSPCB",15-05-2024 21:00:00,28.4275,77.1465,NH3,24,31,29
India,Haryana,Hisar,"Urban Estate-II, Hisar - HSPCB",15-05-2024 21:00:00,29.140560,75.744941,PM10,97,155,120
India,Haryana,Hisar,"Urban Estate-II, Hisar - HSPCB",15-05-2024 21:00:00,29.140560,75.744941,NO2,21,31,24
India,Haryana,Hisar,"Urban Estate-II, Hisar - HSPCB",15-05-2024 21:00:00,29.140560,75.744941,CO,20,49,24
India,Haryana,Jind,"Police Lines, Jind - HSPCB",15-05-2024 21:00:00,29.307814,76.337619,OZONE,11,48,36
India,Haryana,Kaithal,"Rishi Nagar, Kaithal - HSPCB",15-05-2024 21:00:00,29.8006,76.4155,SO2,26,137,98
India,Haryana,Kurukshetra,"Sector-7, Kurukshetra - HSPCB",15-05-2024 21:00:00,29.966942,76.875879,SO2,2,3,2
India,Haryana,Mandikhera,"General Hospital, Mandikhera - HSPCB",15-05-2024 21:00:00,27.9002,76.9938,NH3,16,19,18
India,Haryana,Mandikhera,"General Hospital, Mandikhera - HSPCB",15-05-2024 21:00:00,27.9002,76.9938,CO,4,34,8
India,Haryana,Manesar,"Sector-2 IMT, Manesar - HSPCB",15-05-2024 21:00:00,28.360699,76.936090,PM2.5,82,312,195
India,Haryana,Manesar,"Sector-2 IMT, Manesar - HSPCB",15-05-2024 21:00:00,28.360699,76.936090,SO2,4,8,5
India,Haryana,Manesar,"Sector-2 IMT, Manesar - HSPCB",15-05-2024 21:00:00,28.360699,76.936090,CO,10,45,17
India,Haryana,Manesar,"Sector-2 IMT, Manesar - HSPCB",15-05-2024 21:00:00,28.360699,76.936090,OZONE,4,166,113
India,Haryana,Narnaul,"Shastri Nagar, Narnaul - HSPCB",15-05-2024 21:00:00,28.060249,76.113115,PM10,98,146,119
India,Haryana,Palwal,"Shyam Nagar, Palwal - HSPCB",15-05-2024 21:00:00,28.1485564,77.3320667,SO2,3,18,10
India,Haryana,Palwal,"Shyam Nagar, Palwal - HSPCB",15-05-2024 21:00:00,28.1485564,77.3320667,CO,18,42,26
India,Haryana,Panchkula,"Sector-6, Panchkula - HSPCB ",15-05-2024 21:00:00,30.7057778,76.8531805555555,CO,6,20,8
India,Haryana,Rohtak,"MD University, Rohtak - HSPCB",15-05-2024 21:00:00,28.52123,76.37138,CO,23,146,95
India,Haryana,Sirsa,"F-Block, Sirsa - HSPCB",15-05-2024 21:00:00,29.536400,75.015800,CO,61,86,67
India,Haryana,Sonipat,"Murthal, Sonipat - HSPCB",15-05-2024 21:00:00,29.027200,77.062100,SO2,13,29,20
India,Jammu_and_Kashmir,Srinagar,"Rajbagh, Srinagar - JKSPCB",15-05-2024 21:00:00,34.066206,74.819820,OZONE,12,26,24
India,Jharkhand,Dhanbad,"Sardar Patel Nagar, Dhanbad - JSPCB",15-05-2024 21:00:00,23.80569,86.44268,NO2,NA,NA,NA
India,Karnataka,Bagalkot,"Vidayagiri, Bagalkot - KSPCB",15-05-2024 21:00:00,16.172806,75.659694,NH3,1,2,1
India,Karnataka,Bagalkot,"Vidayagiri, Bagalkot - KSPCB",15-05-2024 21:00:00,16.172806,75.659694,CO,10,54,33
India,Karnataka,Bengaluru,"Bapuji Nagar, Bengaluru - KSPCB",15-05-2024 21:00:00,12.951913,77.539784,NH3,1,1,1
India,Karnataka,Bengaluru,"Bapuji Nagar, Bengaluru - KSPCB",15-05-2024 21:00:00,12.951913,77.539784,CO,10,102,67
India,Karnataka,Bengaluru,"Hebbal, Bengaluru - KSPCB",15-05-2024 21:00:00,13.029152,77.585901,PM2.5,42,85,58
India,Karnataka,Bengaluru,"Hebbal, Bengaluru - KSPCB",15-05-2024 21:00:00,13.029152,77.585901,NH3,1,1,1
India,Karnataka,Bengaluru,"Hebbal, Bengaluru - KSPCB",15-05-2024 21:00:00,13.029152,77.585901,SO2,16,23,20
India,Karnataka,Bengaluru,"Hebbal, Bengaluru - KSPCB",15-05-2024 21:00:00,13.029152,77.585901,OZONE,8,142,52
India,Karnataka,Bengaluru,"Kasturi Nagar, Bengaluru - KSPCB",15-05-2024 21:00:00,13.003872,77.664217,SO2,9,10,10
India,Karnataka,Bengaluru,"Kasturi Nagar, Bengaluru - KSPCB",15-05-2024 21:00:00,13.003872,77.664217,OZONE,12,71,59
India,Karnataka,Bengaluru,"Peenya, Bengaluru - CPCB",15-05-2024 21:00:00,13.0270199,77.494094,PM10,40,69,47
India,Karnataka,Bengaluru,"Peenya, Bengaluru - CPCB",15-05-2024 21:00:00,13.0270199,77.494094,NH3,3,4,3
India,Karnataka,Bengaluru,"Peenya, Bengaluru - CPCB",15-05-2024 21:00:00,13.0270199,77.494094,OZONE,20,40,32
India,Karnataka,Bengaluru,"RVCE-Mailasandra, Bengaluru - KSPCB",15-05-2024 21:00:00,12.921418,77.502466,PM2.5,17,70,42
India,Karnataka,Bengaluru,"Shivapura_Peenya, Bengaluru - KSPCB",15-05-2024 21:00:00,13.0246342,77.5080115,PM10,23,107,71
India,Karnataka,Bengaluru,"Shivapura_Peenya, Bengaluru - KSPCB",15-05-2024 21:00:00,13.0246342,77.5080115,SO2,3,15,8
India,Karnataka,Bengaluru,"Silk Board, Bengaluru - KSPCB",15-05-2024 21:00:00,12.917348,77.622813,PM2.5,30,68,56
India,Karnataka,Chamarajanagar,"Urban, Chamarajanagar - KSPCB",15-05-2024 21:00:00,11.55358,76.55521,NO2,24,35,29
India,Karnataka,Chamarajanagar,"Urban, Chamarajanagar - KSPCB",15-05-2024 21:00:00,11.55358,76.55521,OZONE,25,38,30
India,Karnataka,Chikkaballapur,"Chikkaballapur Rural, Chikkaballapur - KSPCB",15-05-2024 21:00:00,13.428828,77.731418,SO2,19,30,24
India,Karnataka,Chikkaballapur,"Chikkaballapur Rural, Chikkaballapur - KSPCB",15-05-2024 21:00:00,13.428828,77.731418,OZONE,24,25,25
India,Karnataka,Chikkamagaluru,"Kalyana Nagara, Chikkamagaluru - KSPCB",15-05-2024 21:00:00,13.328028,75.797056,NO2,16,37,22
India,Karnataka,Chikkamagaluru,"Kalyana Nagara, Chikkamagaluru - KSPCB",15-05-2024 21:00:00,13.328028,75.797056,CO,11,109,36
India,Karnataka,Davanagere,"Devaraj Urs Badavane, Davanagere - KSPCB",15-05-2024 21:00:00,14.475800,75.905200,PM2.5,14,69,33
India,Karnataka,Davanagere,"Devaraj Urs Badavane, Davanagere - KSPCB",15-05-2024 21:00:00,14.475800,75.905200,NO2,12,14,13
India,Karnataka,Davanagere,"Devaraj Urs Badavane, Davanagere - KSPCB",15-05-2024 21:00:00,14.475800,75.905200,SO2,1,7,5
India,Karnataka,Dharwad,"Kalabhavan, Dharwad - KSPCB",15-05-2024 21:00:00,15.459706,75.008381,PM2.5,1,79,24
India,Karnataka,Dharwad,"Kalabhavan, Dharwad - KSPCB",15-05-2024 21:00:00,15.459706,75.008381,SO2,3,30,5
India,Karnataka,Gadag,"Panchal Nagar, Gadag - KSPCB",15-05-2024 21:00:00,15.411456,75.638133,NH3,NA,NA,NA
India,Karnataka,Hassan,"B.Katihalli, Hassan - KSPCB",15-05-2024 21:00:00,13.008556,76.125258,PM10,22,121,61
India,Karnataka,Haveri,"Ashwini Nagar, Haveri - KSPCB",15-05-2024 21:00:00,14.791800,75.389600,PM10,NA,NA,NA
India,Karnataka,Haveri,"Ashwini Nagar, Haveri - KSPCB",15-05-2024 21:00:00,14.791800,75.389600,NO2,NA,NA,NA
India,Karnataka,Hubballi,"Deshpande Nagar, Hubballi - KSPCB",15-05-2024 21:00:00,15.351773,75.140726,NH3,NA,NA,NA
India,Karnataka,Hubballi,"Deshpande Nagar, Hubballi - KSPCB",15-05-2024 21:00:00,15.351773,75.140726,CO,1,2,2
India,Karnataka,Kalaburagi,"Lal Bahadur Shastri Nagar, Kalaburagi - KSPCB",15-05-2024 21:00:00,17.321993,76.822628,SO2,6,64,12
