country,state,city,station,last_update,latitude,longitude,pollutant_id,pollutant_min,pollutant_max,pollutant_avg
India,Andhra_Pradesh,Amaravati,"Secretariat, Amaravati - APPCB",15-07-2024 02:00:00,16.5150833,80.5181667,NH3,4,4,4
India,Andhra_Pradesh,Amaravati,"Secretariat, Amaravati - APPCB",15-07-2024 02:00:00,16.5150833,80.5181667,SO2,16,22,20
India,Andhra_Pradesh,Chittoor,"Gangineni Cheruvu, Chittoor - APPCB",15-07-2024 02:00:00,13.204880,79.097889,SO2,5,6,6
India,Andhra_Pradesh,Chittoor,"Gangineni Cheruvu, Chittoor - APPCB",15-07-2024 02:00:00,13.204880,79.097889,CO,23,34,29
India,Andhra_Pradesh,Kadapa,"Yerramukkapalli, Kadapa - APPCB",15-07-2024 02:00:00,14.465052,78.824187,SO2,2,2,2
India,Andhra_Pradesh,Kadapa,"Yerramukkapalli, Kadapa - APPCB",15-07-2024 02:00:00,14.465052,78.824187,CO,27,61,40
India,Andhra_Pradesh,Rajamahendravaram,"Anand Kala Kshetram, Rajamahendravaram - APPCB",15-07-2024 02:00:00,16.9872867,81.7363176,PM2.5,4,27,15
India,Andhra_Pradesh,Rajamahendravaram,"Anand Kala Kshetram, Rajamahendravaram - APPCB",15-07-2024 02:00:00,16.9872867,81.7363176,PM10,10,45,21
India,Andhra_Pradesh,Rajamahendravaram,"Anand Kala Kshetram, Rajamahendravaram - APPCB",15-07-2024 02:00:00,16.9872867,81.7363176,OZONE,3,30,6
India,Andhra_Pradesh,Tirupati,"Tirumala, Tirupati - APPCB",15-07-2024 02:00:00,13.67,79.35,SO2,1,8,4
India,Andhra_Pradesh,Tirupati,"Tirumala, Tirupati - APPCB",15-07-2024 02:00:00,13.67,79.35,CO,12,32,19
India,Andhra_Pradesh,Tirupati,"Vaikuntapuram, Tirupati - APPCB",15-07-2024 02:00:00,13.615387,79.409230,CO,22,88,57
India,Andhra_Pradesh,Vijayawada,"HB Colony, Vijayawada - APPCB",15-07-2024 02:00:00,16.536107,80.594233,OZONE,10,33,25
India,Andhra_Pradesh,Vijayawada,"Kanuru, Vijayawada - APPCB",15-07-2024 02:00:00,16.486692,80.699436,SO2,6,8,7
India,Andhra_Pradesh,Visakhapatnam,"GVM Corporation, Visakhapatnam - APPCB",15-07-2024 02:00:00,17.72,83.3,PM2.5,NA,NA,NA
India,Andhra_Pradesh,Visakhapatnam,"GVM Corporation, Visakhapatnam - APPCB",15-07-2024 02:00:00,17.72,83.3,CO,1,29,12
India,Assam,Byrnihat,"Central Academy for SFS, Byrnihat - PCBA",15-07-2024 02:00:00,26.071318,91.87488,NO2,14,31,22
India,Assam,Byrnihat,"Central Academy for SFS, Byrnihat - PCBA",15-07-2024 02:00:00,26.071318,91.87488,CO,10,23,16
India,Assam,Guwahati,"IITG, Guwahati - PCBA",15-07-2024 02:00:00,26.2028636,91.70046436,PM2.5,1,88,18
India,Assam,Guwahati,"IITG, Guwahati - PCBA",15-07-2024 02:00:00,26.2028636,91.70046436,SO2,13,15,14
India,Assam,Guwahati,"Railway Colony, Guwahati - PCBA",15-07-2024 02:00:00,26.181742,91.78063,PM10,15,113,44
India,Assam,Guwahati,"Railway Colony, Guwahati - PCBA",15-07-2024 02:00:00,26.181742,91.78063,OZONE,3,30,13
India,Assam,Nagaon,"Christianpatty, Nagaon - PCBA",15-07-2024 02:00:00,26.349082,92.68449,PM10,14,73,21
India,Assam,Sivasagar,"Girls College, Sivasagar - PCBA",15-07-2024 02:00:00,26.987634,94.636574,OZONE,1,3,1
India,Bihar,Araria,"Kharahiya Basti, Araria - BSPCB",15-07-2024 02:00:00,26.146529,87.454184,PM10,NA,NA,NA
India,Bihar,Araria,"Kharahiya Basti, Araria - BSPCB",15-07-2024 02:00:00,26.146529,87.454184,SO2,13,18,15
India,Bihar,Araria,"Kharahiya Basti, Araria - BSPCB",15-07-2024 02:00:00,26.146529,87.454184,CO,14,38,35
India,Bihar,Arrah,"New DM Office, Arrah - BSPCB",15-07-2024 02:00:00,25.5626095,84.663264,CO,12,29,19
India,Bihar,Bettiah,"Kamalnath Nagar, Bettiah - BSPCB",15-07-2024 02:00:00,26.80365,84.51954,CO,24,54,46
India,Bihar,Bhagalpur,"DM Office_Kachari Chowk, Bhagalpur - BSPCB",15-07-2024 02:00:00,25.251013,86.989001,SO2,4,94,29
India,Bihar,Bhagalpur,"DM Office_Kachari Chowk, Bhagalpur - BSPCB",15-07-2024 02:00:00,25.251013,86.989001,CO,40,68,60
India,Bihar,Bhagalpur,"Mayaganj, Bhagalpur - BSPCB",15-07-2024 02:00:00,25.265194,87.012947,PM10,44,197,83
India,Bihar,Bihar Sharif,"D M Colony, Bihar Sharif - BSPCB",15-07-2024 02:00:00,25.204762,85.514960,PM10,54,256,126
India,Bihar,Bihar Sharif,"D M Colony, Bihar Sharif - BSPCB",15-07-2024 02:00:00,25.204762,85.514960,NH3,1,1,1
India,Bihar,Bihar Sharif,"D M Colony, Bihar Sharif - BSPCB",15-07-2024 02:00:00,25.204762,85.514960,SO2,3,4,3
India,Bihar,Chhapra,"Darshan Nagar, Chhapra - BSPCB",15-07-2024 02:00:00,25.7808257,84.7446768,PM10,44,85,61
India,Bihar,Chhapra,"Darshan Nagar, Chhapra - BSPCB",15-07-2024 02:00:00,25.7808257,84.7446768,NO2,NA,NA,NA
India,Bihar,Chhapra,"Darshan Nagar, Chhapra - BSPCB",15-07-2024 02:00:00,25.7808257,84.7446768,SO2,15,69,42
India,Bihar,Gaya,"Collectorate, Gaya - BSPCB",15-07-2024 02:00:00,24.7955,84.9994,OZONE,NA,NA,NA
India,Bihar,Hajipur,"Industrial Area, Hajipur - BSPCB",15-07-2024 02:00:00,25.697189,85.245900,SO2,4,8,5
India,Bihar,Katihar,"Mirchaibari, Katihar - BSPCB",15-07-2024 02:00:00,25.560083,87.553265,PM2.5,NA,NA,NA
India,Bihar,Katihar,"Mirchaibari, Katihar - BSPCB",15-07-2024 02:00:00,25.560083,87.553265,NO2,2,2,2
India,Bihar,Kishanganj,"SDM Office_Khagra, Kishanganj - BSPCB",15-07-2024 02:00:00,26.0881305,87.93840336,PM2.5,NA,NA,NA
India,Bihar,Kishanganj,"SDM Office_Khagra, Kishanganj - BSPCB",15-07-2024 02:00:00,26.0881305,87.93840336,PM10,NA,NA,NA
India,Bihar,Kishanganj,"SDM Office_Khagra, Kishanganj - BSPCB",15-07-2024 02:00:00,26.0881305,87.93840336,SO2,NA,NA,NA
India,Bihar,Motihari,"Gandak Colony, Motihari - BSPCB",15-07-2024 02:00:00,26.63086,84.90051,PM2.5,NA,NA,NA
India,Bihar,Motihari,"Gandak Colony, Motihari - BSPCB",15-07-2024 02:00:00,26.63086,84.90051,PM10,NA,NA,NA
India,Bihar,Motihari,"Gandak Colony, Motihari - BSPCB",15-07-2024 02:00:00,26.63086,84.90051,SO2,2,13,6
India,Bihar,Munger,"Town Hall, Munger - BSPCB",15-07-2024 02:00:00,25.376776,86.471523,PM10,40,160,97
India,Bihar,Muzaffarpur,"Buddha Colony, Muzaffarpur - BSPCB",15-07-2024 02:00:00,26.11442,85.39813,PM10,40,81,57
India,Bihar,Muzaffarpur,"Buddha Colony, Muzaffarpur - BSPCB",15-07-2024 02:00:00,26.11442,85.39813,NO2,9,17,12
India,Bihar,Muzaffarpur,"Buddha Colony, Muzaffarpur - BSPCB",15-07-2024 02:00:00,26.11442,85.39813,NH3,4,8,6
India,Bihar,Muzaffarpur,"Buddha Colony, Muzaffarpur - BSPCB",15-07-2024 02:00:00,26.11442,85.39813,CO,20,48,38
India,Bihar,Muzaffarpur,"Buddha Colony, Muzaffarpur - BSPCB",15-07-2024 02:00:00,26.11442,85.39813,OZONE,33,86,58
India,Bihar,Muzaffarpur,"MIT-Daudpur Kothi, Muzaffarpur - BSPCB",15-07-2024 02:00:00,26.1403345,85.3650192,NO2,4,6,5
India,Bihar,Muzaffarpur,"Muzaffarpur Collectorate, Muzaffarpur - BSPCB",15-07-2024 02:00:00,26.1209,85.3647,PM2.5,38,58,49
India,Bihar,Muzaffarpur,"Muzaffarpur Collectorate, Muzaffarpur - BSPCB",15-07-2024 02:00:00,26.1209,85.3647,SO2,8,11,10
India,Bihar,Patna,"DRM Office Danapur, Patna - BSPCB",15-07-2024 02:00:00,25.586562,85.043586,CO,16,38,27
India,Bihar,Patna,"Rajbansi Nagar, Patna - BSPCB",15-07-2024 02:00:00,25.599486,85.113666,PM10,62,104,87
India,Bihar,Patna,"Rajbansi Nagar, Patna - BSPCB",15-07-2024 02:00:00,25.599486,85.113666,NH3,3,5,4
India,Bihar,Patna,"Samanpura, Patna - BSPCB",15-07-2024 02:00:00,25.596727,85.085624,SO2,2,3,3
India,Bihar,Purnia,"Mariam Nagar, Purnia - BSPCB",15-07-2024 02:00:00,25.366336,87.117468,NH3,1,1,1
India,Bihar,Purnia,"Mariam Nagar, Purnia - BSPCB",15-07-2024 02:00:00,25.366336,87.117468,SO2,5,9,7
India,Bihar,Rajgir,"Dangi Tola, Rajgir - BSPCB",15-07-2024 02:00:00,25.03280,85.41948,OZONE,20,37,33
India,Bihar,Saharsa,"Police Line, Saharsa - BSPCB",15-07-2024 02:00:00,25.892357,86.590325,PM2.5,2,85,32
India,Bihar,Samastipur,"DM Office_Kasipur, Samastipur - BSPCB",15-07-2024 02:00:00,25.859655,85.77944,OZONE,1,35,12
India,Bihar,Sasaram,"Dada Peer, Sasaram - BSPCB",15-07-2024 02:00:00,24.952822,84.002396,PM2.5,7,73,24
India,Bihar,Sasaram,"Dada Peer, Sasaram - BSPCB",15-07-2024 02:00:00,24.952822,84.002396,NO2,9,10,9
India,Bihar,Sasaram,"Dada Peer, Sasaram - BSPCB",15-07-2024 02:00:00,24.952822,84.002396,CO,24,40,34
India,Chandigarh,Chandigarh,"Sector-25, Chandigarh - CPCC",15-07-2024 02:00:00,30.751462,76.762879,NH3,17,29,22
India,Chandigarh,Chandigarh,"Sector-25, Chandigarh - CPCC",15-07-2024 02:00:00,30.751462,76.762879,CO,18,32,25
India,Chandigarh,Chandigarh,"Sector-53, Chandigarh - CPCC",15-07-2024 02:00:00,30.719859,76.738637,NH3,8,47,19
India,Chhattisgarh,Bhilai,"32Bungalows, Bhilai - CECB",15-07-2024 02:00:00,21.194815,81.314770,NH3,8,8,8
India,Chhattisgarh,Bhilai,"Civic Center, Bhilai - Bhilai Steel Plant",15-07-2024 02:00:00,21.185571,81.343175,SO2,NA,NA,NA
India,Chhattisgarh,Bhilai,"Hathkhoj, Bhilai - CECB",15-07-2024 02:00:00,21.224231,81.408350,NH3,9,10,9
India,Chhattisgarh,Bilaspur,"Mangala, Bilaspur - NTPC",15-07-2024 02:00:00,22.08815,82.13737,SO2,16,22,18
India,Chhattisgarh,Chhal,"Nawapara SECL Colony, Chhal - CECB",15-07-2024 02:00:00,22.118125,83.140608,NH3,NA,NA,NA
India,Chhattisgarh,Korba,"Rampur, Korba - CECB",15-07-2024 02:00:00,22.368195,82.746431,PM10,14,28,19
India,Chhattisgarh,Korba,"Rampur, Korba - CECB",15-07-2024 02:00:00,22.368195,82.746431,SO2,6,10,7
India,Chhattisgarh,Korba,"Urja Nagar, Korba - CECB",15-07-2024 02:00:00,22.348441,82.549611,PM10,4,172,23
India,Chhattisgarh,Korba,"Urja Nagar, Korba - CECB",15-07-2024 02:00:00,22.348441,82.549611,NO2,22,27,25
India,Chhattisgarh,Raipur,"AIIMS, Raipur - CECB",15-07-2024 02:00:00,21.258815,81.578979,NH3,6,6,6
India,Chhattisgarh,Raipur,"AIIMS, Raipur - CECB",15-07-2024 02:00:00,21.258815,81.578979,SO2,2,5,3
India,Chhattisgarh,Raipur,"Bhatagaon New ISBT, Raipur - CECB",15-07-2024 02:00:00,21.219665,81.630094,PM2.5,4,26,15
India,Chhattisgarh,Raipur,"Krishak Nagar, Raipur - CECB",15-07-2024 02:00:00,21.237755,81.705301,PM2.5,6,27,16
India,Chhattisgarh,Raipur,"Krishak Nagar, Raipur - CECB",15-07-2024 02:00:00,21.237755,81.705301,CO,16,34,30
India,Chhattisgarh,Raipur,"Krishak Nagar, Raipur - CECB",15-07-2024 02:00:00,21.237755,81.705301,OZONE,4,15,7
India,Chhattisgarh,Raipur,"Siltara Phase-II, Raipur - CECB",15-07-2024 02:00:00,21.371751,81.664929,PM10,47,134,93
India,Chhattisgarh,Raipur,"Siltara Phase-II, Raipur - CECB",15-07-2024 02:00:00,21.371751,81.664929,SO2,NA,NA,NA
India,Chhattisgarh,Tumidih,"OP Jindal Industrial Park, Tumidih - CECB",15-07-2024 02:00:00,22.06631475,83.33820077,NH3,NA,NA,NA
India,Chhattisgarh,Tumidih,"OP Jindal Industrial Park, Tumidih - CECB",15-07-2024 02:00:00,22.06631475,83.33820077,SO2,NA,NA,NA
India,Delhi,Delhi,"Alipur, Delhi - DPCC",15-07-2024 02:00:00,28.815329,77.153010,CO,4,34,16
India,Delhi,Delhi,"Anand Vihar, Delhi - DPCC",15-07-2024 02:00:00,28.647622,77.3158090,PM10,63,254,145
India,Delhi,Delhi,"Anand Vihar, Delhi - DPCC",15-07-2024 02:00:00,28.647622,77.3158090,OZONE,21,36,31
India,Delhi,Delhi,"Ashok Vihar, Delhi - DPCC",15-07-2024 02:00:00,28.695381,77.181665,OZONE,10,129,59
India,Delhi,Delhi,"Aya Nagar, Delhi - IMD",15-07-2024 02:00:00,28.4706914,77.1099364,CO,36,66,51
India,Delhi,Delhi,"Bawana, Delhi - DPCC",15-07-2024 02:00:00,28.776200,77.051074,NH3,10,21,13
India,Delhi,Delhi,"Burari Crossing, Delhi - IMD",15-07-2024 02:00:00,28.7256504,77.2011573,PM2.5,54,101,78
India,Delhi,Delhi,"Burari Crossing, Delhi - IMD",15-07-2024 02:00:00,28.7256504,77.2011573,PM10,79,150,116
India,Delhi,Delhi,"Burari Crossing, Delhi - IMD",15-07-2024 02:00:00,28.7256504,77.2011573,NO2,17,19,18
India,Delhi,Delhi,"Burari Crossing, Delhi - IMD",15-07-2024 02:00:00,28.7256504,77.2011573,OZONE,2,91,31
India,Delhi,Delhi,"CRRI Mathura Road, Delhi - IMD",15-07-2024 02:00:00,28.5512005,77.2735737,NO2,NA,NA,NA
India,Delhi,Delhi,"CRRI Mathura Road, Delhi - IMD",15-07-2024 02:00:00,28.5512005,77.2735737,OZONE,15,67,31
India,Delhi,Delhi,"Chandni Chowk, Delhi - IITM",15-07-2024 02:00:00,28.656756,77.227234,NH3,12,22,16
India,Delhi,Delhi,"Chandni Chowk, Delhi - IITM",15-07-2024 02:00:00,28.656756,77.227234,SO2,7,38,21
India,Delhi,Delhi,"Chandni Chowk, Delhi - IITM",15-07-2024 02:00:00,28.656756,77.227234,CO,12,32,25
India,Delhi,Delhi,"Chandni Chowk, Delhi - IITM",15-07-2024 02:00:00,28.656756,77.227234,OZONE,NA,NA,NA
India,Delhi,Delhi,"DTU, Delhi - CPCB",15-07-2024 02:00:00,28.7500499,77.1112615,OZONE,40,41,41
India,Delhi,Delhi,"Dr. Karni Singh Shooting Range, Delhi - DPCC",15-07-2024 02:00:00,28.498571,77.264840,SO2,5,8,6
India,Delhi,Delhi,"IHBAS, Dilshad Garden, Delhi - CPCB",15-07-2024 02:00:00,28.6811736,77.3025234,NO2,13,41,25
India,Delhi,Delhi,"IHBAS, Dilshad Garden, Delhi - CPCB",15-07-2024 02:00:00,28.6811736,77.3025234,SO2,3,35,8
India,Delhi,Delhi,"IHBAS, Dilshad Garden, Delhi - CPCB",15-07-2024 02:00:00,28.6811736,77.3025234,CO,24,90,41
India,Delhi,Delhi,"ITO, Delhi - CPCB",15-07-2024 02:00:00,28.628624,77.241060,PM10,54,116,77
India,Delhi,Delhi,"ITO, Delhi - CPCB",15-07-2024 02:00:00,28.628624,77.241060,SO2,5,21,11
India,Delhi,Delhi,"ITO, Delhi - CPCB",15-07-2024 02:00:00,28.628624,77.241060,OZONE,19,39,27
India,Delhi,Delhi,"Jahangirpuri, Delhi - DPCC",15-07-2024 02:00:00,28.732820,77.170633,NO2,41,110,68
India,Delhi,Delhi,"Jawaharlal Nehru Stadium, Delhi - DPCC",15-07-2024 02:00:00,28.580280,77.233829,NO2,22,89,50
India,Delhi,Delhi,"Jawaharlal Nehru Stadium, Delhi - DPCC",15-07-2024 02:00:00,28.580280,77.233829,SO2,3,16,9
India,Delhi,Delhi,"Lodhi Road, Delhi - IMD",15-07-2024 02:00:00,28.5918245,77.2273074,PM2.5,48,109,71
India,Delhi,Delhi,"Lodhi Road, Delhi - IMD",15-07-2024 02:00:00,28.5918245,77.2273074,OZONE,7,20,12
India,Delhi,Delhi,"Major Dhyan Chand National Stadium, Delhi - DPCC",15-07-2024 02:00:00,28.611281,77.237738,NO2,14,74,43
India,Delhi,Delhi,"Mandir Marg, Delhi - DPCC",15-07-2024 02:00:00,28.636429,77.201067,NO2,59,89,73
India,Delhi,Delhi,"Mandir Marg, Delhi - DPCC",15-07-2024 02:00:00,28.636429,77.201067,NH3,4,9,6
India,Delhi,Delhi,"Mundka, Delhi - DPCC",15-07-2024 02:00:00,28.684678,77.076574,NH3,2,13,5
India,Delhi,Delhi,"Mundka, Delhi - DPCC",15-07-2024 02:00:00,28.684678,77.076574,CO,36,94,68
India,Delhi,Delhi,"NSIT Dwarka, Delhi - CPCB",15-07-2024 02:00:00,28.60909,77.0325413,PM10,54,95,74
India,Delhi,Delhi,"Najafgarh, Delhi - DPCC",15-07-2024 02:00:00,28.570173,76.933762,PM2.5,58,90,70
India,Delhi,Delhi,"Narela, Delhi - DPCC",15-07-2024 02:00:00,28.822836,77.101981,PM2.5,47,131,78
India,Delhi,Delhi,"Narela, Delhi - DPCC",15-07-2024 02:00:00,28.822836,77.101981,NH3,9,12,10
India,Delhi,Delhi,"Nehru Nagar, Delhi - DPCC",15-07-2024 02:00:00,28.567890,77.250515,NH3,5,9,7
India,Delhi,Delhi,"Nehru Nagar, Delhi - DPCC",15-07-2024 02:00:00,28.567890,77.250515,CO,60,90,71
India,Delhi,Delhi,"Okhla Phase-2, Delhi - DPCC",15-07-2024 02:00:00,28.530785,77.271255,PM2.5,NA,NA,NA
India,Delhi,Delhi,"Okhla Phase-2, Delhi - DPCC",15-07-2024 02:00:00,28.530785,77.271255,NH3,NA,NA,NA
India,Delhi,Delhi,"Patparganj, Delhi - DPCC",15-07-2024 02:00:00,28.623763,77.287209,PM10,89,179,120
India,Delhi,Delhi,"Patparganj, Delhi - DPCC",15-07-2024 02:00:00,28.623763,77.287209,OZONE,8,91,48
India,Delhi,Delhi,"Punjabi Bagh, Delhi - DPCC",15-07-2024 02:00:00,28.674045,77.131023,SO2,14,37,25
India,Delhi,Delhi,"Punjabi Bagh, Delhi - DPCC",15-07-2024 02:00:00,28.674045,77.131023,OZONE,4,99,46
India,Delhi,Delhi,"Pusa, Delhi - DPCC",15-07-2024 02:00:00,28.639652,77.146275,NO2,53,119,85
India,Delhi,Delhi,"R K Puram, Delhi - DPCC",15-07-2024 02:00:00,28.563262,77.186937,NO2,22,135,48
India,Delhi,Delhi,"Sirifort, Delhi - CPCB",15-07-2024 02:00:00,28.5504249,77.2159377,NH3,19,22,20
India,Delhi,Delhi,"Sirifort, Delhi - CPCB",15-07-2024 02:00:00,28.5504249,77.2159377,CO,40,107,89
India,Delhi,Delhi,"Sonia Vihar, Delhi - DPCC",15-07-2024 02:00:00,28.710508,77.249485,PM10,109,220,137
India,Delhi,Delhi,"Sonia Vihar, Delhi - DPCC",15-07-2024 02:00:00,28.710508,77.249485,NH3,5,15,11
India,Delhi,Delhi,"Sonia Vihar, Delhi - DPCC",15-07-2024 02:00:00,28.710508,77.249485,CO,12,72,37
India,Delhi,Delhi,"Sri Aurobindo Marg, Delhi - DPCC",15-07-2024 02:00:00,28.531346,77.190156,PM10,85,128,104
India,Delhi,Delhi,"Sri Aurobindo Marg, Delhi - DPCC",15-07-2024 02:00:00,28.531346,77.190156,NH3,6,11,8
India,Delhi,Delhi,"Sri Aurobindo Marg, Delhi - DPCC",15-07-2024 02:00:00,28.531346,77.190156,CO,38,79,67
India,Delhi,Delhi,"Sri Aurobindo Marg, Delhi - DPCC",15-07-2024 02:00:00,28.531346,77.190156,OZONE,28,92,40
India,Delhi,Delhi,"Vivek Vihar, Delhi - DPCC",15-07-2024 02:00:00,28.672342,77.315260,OZONE,10,74,34
India,Delhi,Delhi,"Wazirpur, Delhi - DPCC",15-07-2024 02:00:00,28.699793,77.165453,PM2.5,58,260,146
India,Gujarat,Ahmedabad,"Chandkheda, Ahmedabad - IITM",15-07-2024 02:00:00,23.107969,72.574648,SO2,6,18,14
India,Gujarat,Ahmedabad,"Gyaspur, Ahmedabad - IITM",15-07-2024 02:00:00,22.977134,72.553024,PM2.5,57,110,76
India,Gujarat,Ahmedabad,"Gyaspur, Ahmedabad - IITM",15-07-2024 02:00:00,22.977134,72.553024,SO2,14,17,16
India,Gujarat,Ahmedabad,"Maninagar, Ahmedabad - GPCB",15-07-2024 02:00:00,23.002657,72.591912,PM2.5,29,67,46
India,Gujarat,Ahmedabad,"Maninagar, Ahmedabad - GPCB",15-07-2024 02:00:00,23.002657,72.591912,PM10,61,113,86
India,Gujarat,Ahmedabad,"Raikhad, Ahmedabad - IITM",15-07-2024 02:00:00,23.020509,72.579261,NO2,21,54,37
India,Gujarat,Ahmedabad,"Raikhad, Ahmedabad - IITM",15-07-2024 02:00:00,23.020509,72.579261,CO,4,26,15
India,Gujarat,Ahmedabad,"Rakhial, Ahmedabad - IITM",15-07-2024 02:00:00,23.016834,72.625775,NH3,15,32,20
India,Gujarat,Ahmedabad,"SVPI Airport Hansol, Ahmedabad - IITM",15-07-2024 02:00:00,23.076793,72.627874,CO,5,15,11
India,Gujarat,Ahmedabad,"SVPI Airport Hansol, Ahmedabad - IITM",15-07-2024 02:00:00,23.076793,72.627874,OZONE,11,47,32
India,Gujarat,Ahmedabad,"Sardar Vallabhbhai Patel Stadium, Ahmedabad - IITM",15-07-2024 02:00:00,23.043070,72.562968,PM2.5,55,99,77
India,Gujarat,Ahmedabad,"Sardar Vallabhbhai Patel Stadium, Ahmedabad - IITM",15-07-2024 02:00:00,23.043070,72.562968,CO,14,30,25
India,Gujarat,Ahmedabad,"Sardar Vallabhbhai Patel Stadium, Ahmedabad - IITM",15-07-2024 02:00:00,23.043070,72.562968,OZONE,9,46,35
India,Gujarat,Ankleshwar,"GIDC, Ankleshwar - GPCB",15-07-2024 02:00:00,21.613267,73.010555,NO2,16,34,20
India,Gujarat,Ankleshwar,"GIDC, Ankleshwar - GPCB",15-07-2024 02:00:00,21.613267,73.010555,OZONE,20,29,25
India,Gujarat,Gandhinagar,"GIFT City, Gandhinagar - IITM",15-07-2024 02:00:00,23.163798,72.677768,PM10,77,120,99
India,Gujarat,Gandhinagar,"GIFT City, Gandhinagar - IITM",15-07-2024 02:00:00,23.163798,72.677768,OZONE,8,47,26
India,Gujarat,Gandhinagar,"Sector-10, Gandhinagar - GPCB",15-07-2024 02:00:00,23.221714,72.654328,NO2,17,18,18
India,Gujarat,Gandhinagar,"Sector-10, Gandhinagar - GPCB",15-07-2024 02:00:00,23.221714,72.654328,OZONE,22,23,22
India,Gujarat,Surat,"Science Center, Surat - SMC",15-07-2024 02:00:00,21.170046,72.795405,NO2,13,36,28
India,Gujarat,Surat,"Science Center, Surat - SMC",15-07-2024 02:00:00,21.170046,72.795405,SO2,11,14,12
India,Gujarat,Vatva,"Phase-4 GIDC, Vatva - GPCB",15-07-2024 02:00:00,22.969611,72.643500,PM2.5,25,88,50
India,Gujarat,Vatva,"Phase-4 GIDC, Vatva - GPCB",15-07-2024 02:00:00,22.969611,72.643500,NO2,1,7,4
India,Haryana,Ambala,"Patti Mehar, Ambala - HSPCB",15-07-2024 02:00:00,30.379589,76.778328,SO2,NA,NA,NA
India,Haryana,Bahadurgarh,"Arya Nagar, Bahadurgarh - HSPCB",15-07-2024 02:00:00,28.6701,76.9254,NO2,20,26,23
India,Haryana,Ballabgarh,"Nathu Colony, Ballabgarh - HSPCB",15-07-2024 02:00:00,28.3419248,77.319699,PM2.5,27,78,51
India,Haryana,Ballabgarh,"Nathu Colony, Ballabgarh - HSPCB",15-07-2024 02:00:00,28.3419248,77.319699,SO2,3,4,4
India,Haryana,Bhiwani,"H.B. Colony, Bhiwani - HSPCB",15-07-2024 02:00:00,28.806223,76.141105,PM10,33,72,47
India,Haryana,Charkhi Dadri,"Mini Secretariat, Charkhi Dadri - HSPCB",15-07-2024 02:00:00,28.593883,76.270653,PM10,48,87,66
India,Haryana,Charkhi Dadri,"Mini Secretariat, Charkhi Dadri - HSPCB",15-07-2024 02:00:00,28.593883,76.270653,NO2,15,23,18
India,Haryana,Dharuhera,"Municipal Corporation Office, Dharuhera -  HSPCB",15-07-2024 02:00:00,28.206800,76.799700,PM10,72,162,126
India,Haryana,Dharuhera,"Municipal Corporation Office, Dharuhera -  HSPCB",15-07-2024 02:00:00,28.206800,76.799700,OZONE,9,88,28
India,Haryana,Faridabad,"New Industrial Town, Faridabad - HSPCB",15-07-2024 02:00:00,28.39072,77.30059,PM10,67,130,98
India,Haryana,Faridabad,"Sector 11, Faridabad - HSPCB",15-07-2024 02:00:00,28.376058,77.315741,PM2.5,82,96,90
India,Haryana,Faridabad,"Sector 11, Faridabad - HSPCB",15-07-2024 02:00:00,28.376058,77.315741,SO2,2,2,2
India,Haryana,Faridabad,"Sector 30, Faridabad - HSPCB",15-07-2024 02:00:00,28.4417,77.3217,PM10,74,134,102
India,Haryana,Faridabad,"Sector- 16A, Faridabad - HSPCB",15-07-2024 02:00:00,28.4088421,77.3099081,OZONE,14,14,14
India,Haryana,Fatehabad,"Huda Sector, Fatehabad - HSPCB",15-07-2024 02:00:00,29.503664,75.467934,PM2.5,18,60,27
India,Haryana,Fatehabad,"Huda Sector, Fatehabad - HSPCB",15-07-2024 02:00:00,29.503664,75.467934,PM10,41,67,56
India,Haryana,Gurugram,"Sector-51, Gurugram - HSPCB",15-07-2024 02:00:00,28.4227,77.0667,PM10,104,141,120
India,Haryana,Gurugram,"Sector-51, Gurugram - HSPCB",15-07-2024 02:00:00,28.4227,77.0667,NO2,13,29,23
India,Haryana,Gurugram,"Sector-51, Gurugram - HSPCB",15-07-2024 02:00:00,28.4227,77.0667,SO2,1,5,4
India,Haryana,Gurugram,"Teri Gram, Gurugram - HSPCB",15-07-2024 02:00:00,28.4275,77.1465,PM2.5,NA,NA,NA
India,Haryana,Gurugram,"Teri Gram, Gurugram - HSPCB",15-07-2024 02:00:00,28.4275,77.1465,PM10,NA,NA,NA
India,Haryana,Gurugram,"Teri Gram, Gurugram - HSPCB",15-07-2024 02:00:00,28.4275,77.1465,OZONE,11,18,16
India,Haryana,Gurugram,"Vikas Sadan, Gurugram - HSPCB",15-07-2024 02:00:00,28.4501238,77.0263051,SO2,9,78,36
India,Haryana,Hisar,"Urban Estate-II, Hisar - HSPCB",15-07-2024 02:00:00,29.140560,75.744941,NO2,11,11,11
India,Haryana,Jind,"Police Lines, Jind - HSPCB",15-07-2024 02:00:00,29.307814,76.337619,PM2.5,14,40,27
India,Haryana,Jind,"Police Lines, Jind - HSPCB",15-07-2024 02:00:00,29.307814,76.337619,PM10,47,87,59
India,Haryana,Jind,"Police Lines, Jind - HSPCB",15-07-2024 02:00:00,29.307814,76.337619,NH3,2,5,3
India,Haryana,Kaithal,"Rishi Nagar, Kaithal - HSPCB",15-07-2024 02:00:00,29.8006,76.4155,NO2,24,26,25
India,Haryana,Kaithal,"Rishi Nagar, Kaithal - HSPCB",15-07-2024 02:00:00,29.8006,76.4155,SO2,8,15,11
India,Haryana,Karnal,"Sector-12, Karnal - HSPCB",15-07-2024 02:00:00,29.695300,77.002700,PM10,28,78,54
India,Haryana,Karnal,"Sector-12, Karnal - HSPCB",15-07-2024 02:00:00,29.695300,77.002700,SO2,12,13,12
India,Haryana,Kurukshetra,"Sector-7, Kurukshetra - HSPCB",15-07-2024 02:00:00,29.966942,76.875879,NH3,6,6,6
India,Haryana,Mandikhera,"General Hospital, Mandikhera - HSPCB",15-07-2024 02:00:00,27.9002,76.9938,PM2.5,NA,NA,NA
India,Haryana,Manesar,"Sector-2 IMT, Manesar - HSPCB",15-07-2024 02:00:00,28.360699,76.936090,OZONE,18,47,33
India,Haryana,Narnaul,"Shastri Nagar, Narnaul - HSPCB",15-07-2024 02:00:00,28.060249,76.113115,PM10,42,82,59
India,Haryana,Palwal,"Shyam Nagar, Palwal - HSPCB",15-07-2024 02:00:00,28.1485564,77.3320667,PM10,46,110,70
India,Haryana,Panipat,"Sector-18, Panipat - HSPCB",15-07-2024 02:00:00,29.432304,76.972765,PM10,55,56,56
India,Haryana,Rohtak,"MD University, Rohtak - HSPCB",15-07-2024 02:00:00,28.52123,76.37138,PM2.5,39,216,107
India,Haryana,Sirsa,"F-Block, Sirsa - HSPCB",15-07-2024 02:00:00,29.536400,75.015800,SO2,3,8,6
India,Haryana,Sirsa,"F-Block, Sirsa - HSPCB",15-07-2024 02:00:00,29.536400,75.015800,OZONE,13,78,39
India,Haryana,Yamuna Nagar,"Gobind Pura, Yamuna Nagar - HSPCB",15-07-2024 02:00:00,30.1480566,77.2893471,PM2.5,NA,NA,NA
India,Jammu_and_Kashmir,Srinagar,"Rajbagh, Srinagar - JKSPCB",15-07-2024 02:00:00,34.066206,74.819820,CO,11,14,13
India,Jammu_and_Kashmir,Srinagar,"Rajbagh, Srinagar - JKSPCB",15-07-2024 02:00:00,34.066206,74.819820,OZONE,12,22,16
India,Jharkhand,Dhanbad,"Kalakusuma, Dhanbad - DMC",15-07-2024 02:00:00,23.811548,86.481238,PM10,68,74,71
India,Jharkhand,Dhanbad,"Kalakusuma, Dhanbad - DMC",15-07-2024 02:00:00,23.811548,86.481238,NO2,33,34,33
India,Karnataka,Bagalkot,"Vidayagiri, Bagalkot - KSPCB",15-07-2024 02:00:00,16.172806,75.659694,PM2.5,28,41,40
India,Karnataka,Bagalkot,"Vidayagiri, Bagalkot - KSPCB",15-07-2024 02:00:00,16.172806,75.659694,SO2,4,4,4
India,Karnataka,Belgaum,"Ramteerth Nagar, Belgaum - KSPCB",15-07-2024 02:00:00,15.888653,74.541751,PM10,7,21,15
India,Karnataka,Belgaum,"Ramteerth Nagar, Belgaum - KSPCB",15-07-2024 02:00:00,15.888653,74.541751,OZONE,19,20,19
India,Karnataka,Bengaluru,"Bapuji Nagar, Bengaluru - KSPCB",15-07-2024 02:00:00,12.951913,77.539784,OZONE,26,32,27
India,Karnataka,Bengaluru,"Hebbal, Bengaluru - KSPCB",15-07-2024 02:00:00,13.029152,77.585901,PM2.5,11,39,26
India,Karnataka,Bengaluru,"Hebbal, Bengaluru - KSPCB",15-07-2024 02:00:00,13.029152,77.585901,NO2,5,6,5
India,Karnataka,Bengaluru,"Hombegowda Nagar, Bengaluru - KSPCB",15-07-2024 02:00:00,12.938539,77.590100,SO2,4,5,5
India,Karnataka,Bengaluru,"Hombegowda Nagar, Bengaluru - KSPCB",15-07-2024 02:00:00,12.938539,77.590100,OZONE,7,16,10
India,Karnataka,Bengaluru,"Jayanagar 5th Block, Bengaluru - KSPCB",15-07-2024 02:00:00,12.920984,77.584908,NO2,8,9,8
India,Karnataka,Bengaluru,"Jayanagar 5th Block, Bengaluru - KSPCB",15-07-2024 02:00:00,12.920984,77.584908,OZONE,27,28,27
India,Karnataka,Bengaluru,"RVCE-Mailasandra, Bengaluru - KSPCB",15-07-2024 02:00:00,12.921418,77.502466,PM2.5,34,78,58
India,Karnataka,Bengaluru,"Shivapura_Peenya, Bengaluru - KSPCB",15-07-2024 02:00:00,13.0246342,77.5080115,PM10,17,58,32
India,Karnataka,Bengaluru,"Shivapura_Peenya, Bengaluru - KSPCB",15-07-2024 02:00:00,13.0246342,77.5080115,CO,18,30,19
India,Karnataka,Bengaluru,"Shivapura_Peenya, Bengaluru - KSPCB",15-07-2024 02:00:00,13.0246342,77.5080115,OZONE,53,56,54
India,Karnataka,Bengaluru,"Silk Board, Bengaluru - KSPCB",15-07-2024 02:00:00,12.917348,77.622813,PM10,19,110,65
India,Karnataka,Bengaluru,"Silk Board, Bengaluru - KSPCB",15-07-2024 02:00:00,12.917348,77.622813,NO2,9,21,16
India,Karnataka,Bidar,"Naubad, Bidar - KSPCB",15-07-2024 02:00:00,17.930306,77.482194,OZONE,7,13,9
India,Karnataka,Chamarajanagar,"Urban, Chamarajanagar - KSPCB",15-07-2024 02:00:00,11.55358,76.55521,CO,19,28,23
India,Karnataka,Chikkaballapur,"Chikkaballapur Rural, Chikkaballapur - KSPCB",15-07-2024 02:00:00,13.428828,77.731418,NH3,1,1,1
India,Karnataka,Chikkamagaluru,"Kalyana Nagara, Chikkamagaluru - KSPCB",15-07-2024 02:00:00,13.328028,75.797056,CO,11,107,28
India,Karnataka,Gadag,"Panchal Nagar, Gadag - KSPCB",15-07-2024 02:00:00,15.411456,75.638133,OZONE,12,16,13
India,Karnataka,Haveri,"Ashwini Nagar, Haveri - KSPCB",15-07-2024 02:00:00,14.791800,75.389600,PM10,NA,NA,NA
India,Karnataka,Hubballi,"Lingaraj Nagar, Hubballi - KSPCB",15-07-2024 02:00:00,15.3714823,75.1160168,CO,2,22,19
India,Karnataka,Hubballi,"Lingaraj Nagar, Hubballi - KSPCB",15-07-2024 02:00:00,15.3714823,75.1160168,OZONE,12,22,15
India,Karnataka,Kalaburagi,"Lal Bahadur Shastri Nagar, Kalaburagi - KSPCB",15-07-2024 02:00:00,17.321993,76.822628,CO,48,49,48
India,Karnataka,Kalaburagi,"Lal Bahadur Shastri Nagar, Kalaburagi - KSPCB",15-07-2024 02:00:00,17.321993,76.822628,OZONE,4,9,6
India,Karnataka,Kalaburagi,"Mahatma Basaveswar Colony, Kalaburgi - KSPCB",15-07-2024 02:00:00,17.336318,76.847397,NO2,8,14,12
India,Karnataka,Kalaburagi,"Mahatma Basaveswar Colony, Kalaburgi - KSPCB",15-07-2024 02:00:00,17.336318,76.847397,NH3,2,3,2
India,Karnataka,Karwar,"KHB Colony, Karwar - KSPCB",15-07-2024 02:00:00,14.816666,74.141003,NO2,NA,NA,NA
India,Karnataka,Karwar,"KHB Colony, Karwar - KSPCB",15-07-2024 02:00:00,14.816666,74.141003,NH3,1,13,2
India,Karnataka,Kolar,"Tamaka Ind. Area, Kolar - KSPCB",15-07-2024 02:00:00,13.1276288,78.1570122,NO2,NA,NA,NA
India,Karnataka,Kolar,"Tamaka Ind. Area, Kolar - KSPCB",15-07-2024 02:00:00,13.1276288,78.1570122,SO2,NA,NA,NA
India,Karnataka,Mangalore,"Kadri, Mangalore - KSPCB",15-07-2024 02:00:00,12.889250,74.853000,PM10,32,50,40
India,Karnataka,Mysuru,"Hebbal 1st Stage, Mysuru - KSPCB",15-07-2024 02:00:00,12.21041,76.37376,CO,2,22,17
India,Karnataka,Mysuru,"Hebbal 1st Stage, Mysuru - KSPCB",15-07-2024 02:00:00,12.21041,76.37376,OZONE,8,47,26
India,Karnataka,Raichur,"Haji Colony, Raichur - KSPCB",15-07-2024 02:00:00,16.208139,77.348417,NH3,2,4,3
India,Karnataka,Raichur,"Haji Colony, Raichur - KSPCB",15-07-2024 02:00:00,16.208139,77.348417,SO2,66,74,69
India,Karnataka,Ramanagara,"Vijay Nagar, Ramanagara - KSPCB",15-07-2024 02:00:00,12.733409,77.298051,PM2.5,11,18,13
India,Karnataka,Udupi,"Brahmagiri, Udupi - KSPCB",15-07-2024 02:00:00,13.34194444,74.74694444,CO,50,57,53
India,Karnataka,Vijayapura,"Ibrahimpur, Vijayapura - KSPCB",15-07-2024 02:00:00,16.802639,75.722694,NO2,17,19,19
India,Kerala,Eloor,"Udyogamandal, Eloor - Kerala PCB",15-07-2024 02:00:00,10.073232,76.302765,NO2,5,6,5
India,Kerala,Eloor,"Udyogamandal, Eloor - Kerala PCB",15-07-2024 02:00:00,10.073232,76.302765,NH3,1,1,1
India,Kerala,Kannur,"Thavakkara, Kannur - Kerala PCB",15-07-2024 02:00:00,11.875000,75.373200,PM2.5,40,50,45
India,Kerala,Thiruvananthapuram,"Kariavattom, Thiruvananthapuram - Kerala PCB",15-07-2024 02:00:00,8.563700,76.886500,PM2.5,26,28,27
India,Kerala,Thiruvananthapuram,"Plammoodu, Thiruvananthapuram - Kerala PCB",15-07-2024 02:00:00,8.5149093,76.9435879,NO2,8,10,9
India,Madhya Pradesh,Bhopal,"Idgah Hills, Bhopal - MPPCB",15-07-2024 02:00:00,23.264759,77.381568,SO2,8,10,9
India,Madhya Pradesh,Bhopal,"Paryavaran Parisar, Bhopal - MPPCB",15-07-2024 02:00:00,23.210494,77.425409,PM10,10,87,43
India,Madhya Pradesh,Bhopal,"T T Nagar, Bhopal - MPPCB",15-07-2024 02:00:00,23.233584,77.400574,SO2,7,45,22
India,Madhya Pradesh,Bhopal,"T T Nagar, Bhopal - MPPCB",15-07-2024 02:00:00,23.233584,77.400574,OZONE,18,41,29
India,Madhya Pradesh,Gwalior,"Deen Dayal Nagar, Gwalior - MPPCB",15-07-2024 02:00:00,26.259242,78.216432,CO,46,50,47
India,Madhya Pradesh,Gwalior,"Phool Bagh, Gwalior - Mondelez Ind. Food",15-07-2024 02:00:00,26.210536,78.171,SO2,20,24,21
India,Madhya Pradesh,Indore,"Residency Area, Indore - IMC",15-07-2024 02:00:00,22.7084,75.8815,PM10,11,52,34
India,Madhya Pradesh,Jabalpur,"Marhatal, Jabalpur - MPPCB",15-07-2024 02:00:00,23.168606,79.932247,CO,8,40,27
India,Madhya Pradesh,Jabalpur,"Suhagi, Jabalpur - JMC",15-07-2024 02:00:00,23.218135,79.957770,PM2.5,22,37,27
India,Madhya Pradesh,Katni,"Gole Bazar, Katni - MPPCB",15-07-2024 02:00:00,23.50016,80.23284,PM10,33,90,52
India,Madhya Pradesh,Mandideep,"Sector-D Industrial Area, Mandideep - MPPCB",15-07-2024 02:00:00,23.108440,77.511428,PM2.5,15,98,44
India,Madhya Pradesh,Pithampur,"Sector-2 Industrial Area, Pithampur - MPPCB",15-07-2024 02:00:00,22.624758,75.675238,PM2.5,16,77,36
India,Madhya Pradesh,Pithampur,"Sector-2 Industrial Area, Pithampur - MPPCB",15-07-2024 02:00:00,22.624758,75.675238,OZONE,27,64,42
India,Madhya Pradesh,Sagar,"Civil Lines, Sagar - MPPCB",15-07-2024 02:00:00,23.838586,78.759431,NH3,4,8,7
India,Madhya Pradesh,Sagar,"Deen Dayal Nagar, Sagar - MPPCB",15-07-2024 02:00:00,23.8640158,78.80289321,SO2,9,13,11
India,Madhya Pradesh,Satna,"Bandhavgar Colony, Satna - Birla Cement",15-07-2024 02:00:00,24.58434363,80.8549414,NO2,23,44,31
India,Madhya Pradesh,Singrauli,"Suryakiran Bhawan NCL, Singrauli - MPPCB",15-07-2024 02:00:00,24.108970,82.645580,PM2.5,40,200,62
India,Madhya Pradesh,Singrauli,"Suryakiran Bhawan NCL, Singrauli - MPPCB",15-07-2024 02:00:00,24.108970,82.645580,CO,20,105,92
India,Madhya Pradesh,Singrauli,"Suryakiran Bhawan NCL, Singrauli - MPPCB",15-07-2024 02:00:00,24.108970,82.645580,OZONE,59,81,65
India,Madhya Pradesh,Ujjain,"Mahakaleshwar Temple, Ujjain - MPPCB",15-07-2024 02:00:00,23.182719 ,75.768218 ,PM2.5,21,62,38
India,Madhya Pradesh,Ujjain,"Mahakaleshwar Temple, Ujjain - MPPCB",15-07-2024 02:00:00,23.182719 ,75.768218 ,SO2,4,9,6
India,Maharashtra,Ahmednagar,"Tarakpur, Ahmednagar - MPCB",15-07-2024 02:00:00,19.10122,74.73339,NH3,1,9,3
India,Maharashtra,Akola,"Ramdaspeth, Akola - MPCB",15-07-2024 02:00:00,20.719516,77.000253,NO2,5,17,10
India,Maharashtra,Akola,"Ramdaspeth, Akola - MPCB",15-07-2024 02:00:00,20.719516,77.000253,OZONE,4,21,10
India,Maharashtra,Amravati,"Shivneri Colony, Amravati - MPCB",15-07-2024 02:00:00,20.9402359,77.7895248,SO2,3,4,4
India,Maharashtra,Amravati,"Shri Shivaji Science College, Amaravati - MPCB",15-07-2024 02:00:00,20.939198,77.765701,PM10,13,37,24
India,Maharashtra,Aurangabad,"More Chowk Waluj, Aurangabad - MPCB",15-07-2024 02:00:00,19.8389439,75.244448,NO2,30,39,35
India,Maharashtra,Badlapur,"Katrap, Badlapur - MPCB",15-07-2024 02:00:00,19.16485,73.23409,OZONE,9,18,15
India,Maharashtra,Belapur,"CBD Belapur, Belapur - MPCB",15-07-2024 02:00:00,19.0243902,73.0406721,NH3,1,2,1
India,Maharashtra,Boisar,"Khaira, Boisar - MPCB",15-07-2024 02:00:00,19.786089,72.757971,PM10,50,124,93
India,Maharashtra,Boisar,"Khaira, Boisar - MPCB",15-07-2024 02:00:00,19.786089,72.757971,NO2,4,9,7
India,Maharashtra,Boisar,"Khaira, Boisar - MPCB",15-07-2024 02:00:00,19.786089,72.757971,NH3,3,16,9
India,Maharashtra,Boisar,"Khaira, Boisar - MPCB",15-07-2024 02:00:00,19.786089,72.757971,CO,14,77,41
India,Maharashtra,Chandrapur,"Chauhan Colony, Chandrapur - MPCB",15-07-2024 02:00:00,19.962900,79.298714,PM10,10,52,37
India,Maharashtra,Chandrapur,"Chauhan Colony, Chandrapur - MPCB",15-07-2024 02:00:00,19.962900,79.298714,NH3,2,8,3
India,Maharashtra,Chandrapur,"Chauhan Colony, Chandrapur - MPCB",15-07-2024 02:00:00,19.962900,79.298714,OZONE,31,36,33
India,Maharashtra,Chandrapur,"MIDC Khutala, Chandrapur - MPCB",15-07-2024 02:00:00,19.9775302,79.2337086,NH3,6,12,9
India,Maharashtra,Chandrapur,"MIDC Khutala, Chandrapur - MPCB",15-07-2024 02:00:00,19.9775302,79.2337086,CO,13,30,20
India,Maharashtra,Jalgaon,"Prabhat Colony, Jalgaon - MPCB",15-07-2024 02:00:00,21.001264,75.565602,SO2,2,8,6
India,Maharashtra,Jalgaon,"Prabhat Colony, Jalgaon - MPCB",15-07-2024 02:00:00,21.001264,75.565602,OZONE,20,308,68
India,Maharashtra,Jalna,"Old MIDC, Jalna - MPCB",15-07-2024 02:00:00,19.854616,75.905894,CO,6,12,8
India,Maharashtra,Kalyan,"Khadakpada, Kalyan - MPCB",15-07-2024 02:00:00,19.25292,73.142019,PM2.5,5,40,17
India,Maharashtra,Kolhapur,"Shivaji University, Kolhapur - MPCB",15-07-2024 02:00:00,16.6870449,74.2505872,NH3,2,3,3
India,Maharashtra,Malegaon,"Mahesh Nagar, Malegaon - MPCB",15-07-2024 02:00:00,20.555712,74.529236,PM10,55,96,77
India,Maharashtra,Mumbai,"Bandra Kurla Complex, Mumbai - MPCB",15-07-2024 02:00:00,19.065931,72.862131,PM2.5,15,30,22
India,Maharashtra,Mumbai,"Bandra Kurla Complex, Mumbai - MPCB",15-07-2024 02:00:00,19.065931,72.862131,NH3,5,6,6
India,Maharashtra,Mumbai,"Bandra Kurla Complex, Mumbai - MPCB",15-07-2024 02:00:00,19.065931,72.862131,SO2,2,4,3
India,Maharashtra,Mumbai,"Chhatrapati Shivaji Intl. Airport (T2), Mumbai - MPCB",15-07-2024 02:00:00,19.10078,72.87462,SO2,15,18,17
India,Maharashtra,Mumbai,"Chhatrapati Shivaji Intl. Airport (T2), Mumbai - MPCB",15-07-2024 02:00:00,19.10078,72.87462,OZONE,1,8,5
India,Maharashtra,Mumbai,"Ghatkopar, Mumbai - BMC",15-07-2024 02:00:00,19.083694,72.920967,NO2,3,11,8
India,Maharashtra,Mumbai,"Ghatkopar, Mumbai - BMC",15-07-2024 02:00:00,19.083694,72.920967,SO2,1,2,1
India,Maharashtra,Mumbai,"Kandivali East, Mumbai - MPCB",15-07-2024 02:00:00,19.205800,72.868200,NH3,1,15,3
India,Maharashtra,Mumbai,"Kandivali West, Mumbai - BMC",15-07-2024 02:00:00,19.215859,72.831718,SO2,1,2,1
India,Maharashtra,Mumbai,"Kandivali West, Mumbai - BMC",15-07-2024 02:00:00,19.215859,72.831718,CO,6,24,17
India,Maharashtra,Mumbai,"Kandivali West, Mumbai - BMC",15-07-2024 02:00:00,19.215859,72.831718,OZONE,2,9,3
India,Maharashtra,Mumbai,"Kherwadi_Bandra East, Mumbai - MPCB",15-07-2024 02:00:00,19.0632143,72.8456324,NO2,3,18,9
India,Maharashtra,Mumbai,"Kherwadi_Bandra East, Mumbai - MPCB",15-07-2024 02:00:00,19.0632143,72.8456324,CO,8,36,24
India,Maharashtra,Mumbai,"Mindspace-Malad West, Mumbai - MPCB",15-07-2024 02:00:00,19.1878657,72.8304069,PM2.5,16,51,34
India,Maharashtra,Mumbai,"Mulund West, Mumbai - MPCB",15-07-2024 02:00:00,19.1750,72.9419,CO,32,32,32
India,Maharashtra,Mumbai,"Navy Nagar-Colaba, Mumbai - IITM",15-07-2024 02:00:00,18.897756,72.813320,OZONE,8,37,15
India,Maharashtra,Mumbai,"Shivaji Nagar, Mumbai - BMC",15-07-2024 02:00:00,19.060498,72.923356,PM2.5,14,87,43
India,Maharashtra,Mumbai,"Shivaji Nagar, Mumbai - BMC",15-07-2024 02:00:00,19.060498,72.923356,PM10,22,71,50
India,Maharashtra,Mumbai,"Sion, Mumbai - MPCB",15-07-2024 02:00:00,19.047000,72.874600,NO2,13,27,19
India,Maharashtra,Mumbai,"Sion, Mumbai - MPCB",15-07-2024 02:00:00,19.047000,72.874600,SO2,27,28,27
India,Maharashtra,Mumbai,"Worli, Mumbai - MPCB",15-07-2024 02:00:00,18.9936162,72.8128113,PM2.5,5,14,8
India,Maharashtra,Nagpur,"Ambazari, Nagpur - MPCB",15-07-2024 02:00:00,21.121801,79.04952,PM10,30,86,54
India,Maharashtra,Nagpur,"Mahal, Nagpur - MPCB",15-07-2024 02:00:00,21.14472,79.107595,NH3,14,19,16
India,Maharashtra,Nagpur,"Opp GPO Civil Lines, Nagpur - MPCB",15-07-2024 02:00:00,21.152875,79.0517531,OZONE,3,6,4
India,Maharashtra,Nagpur,"Ram Nagar, Nagpur - MPCB",15-07-2024 02:00:00,21.143383,79.048912,NO2,3,27,10
India,Maharashtra,Nashik,"Gangapur Road, Nashik - MPCB",15-07-2024 02:00:00,20.0073285,73.7762427,PM10,10,45,27
India,Maharashtra,Nashik,"Gangapur Road, Nashik - MPCB",15-07-2024 02:00:00,20.0073285,73.7762427,CO,28,79,53
India,Maharashtra,Nashik,"Hirawadi, Nashik - MPCB",15-07-2024 02:00:00,20.021503,73.813844,PM10,15,37,23
India,Maharashtra,Nashik,"Hirawadi, Nashik - MPCB",15-07-2024 02:00:00,20.021503,73.813844,CO,4,36,18
India,Maharashtra,Nashik,"MIDC Ambad, Nashik - MPCB",15-07-2024 02:00:00,19.950220,73.731480,PM10,21,86,41
India,Maharashtra,Nashik,"MIDC Ambad, Nashik - MPCB",15-07-2024 02:00:00,19.950220,73.731480,SO2,7,14,10
India,Maharashtra,Nashik,"Pandav Nagari, Nashik - MPCB",15-07-2024 02:00:00,19.9591346,73.7788008,NH3,3,4,4
India,Maharashtra,Navi Mumbai,"Nerul, Navi Mumbai - MPCB",15-07-2024 02:00:00,19.008751,73.016620,PM10,13,62,33
India,Maharashtra,Navi Mumbai,"Sanpada, Navi Mumbai - MPCB",15-07-2024 02:00:00,19.0575752,73.0151367,NH3,5,12,8
India,Maharashtra,Navi Mumbai,"Sanpada, Navi Mumbai - MPCB",15-07-2024 02:00:00,19.0575752,73.0151367,SO2,1,5,3
India,Maharashtra,Navi Mumbai,"Sector-2E Kalamboli, Navi Mumbai - MPCB",15-07-2024 02:00:00,19.02579,73.10297,CO,1,28,15
India,Maharashtra,Pimpri-Chinchwad,"Gavalinagar, Pimpri Chinchwad - MPCB",15-07-2024 02:00:00,18.63673,73.82487,NO2,NA,NA,NA
India,Maharashtra,Pimpri-Chinchwad,"Gavalinagar, Pimpri Chinchwad - MPCB",15-07-2024 02:00:00,18.63673,73.82487,SO2,NA,NA,NA
India,Maharashtra,Pimpri-Chinchwad,"Gavalinagar, Pimpri Chinchwad - MPCB",15-07-2024 02:00:00,18.63673,73.82487,CO,NA,NA,NA
India,Maharashtra,Pimpri-Chinchwad,"Park Street Wakad, Pimpri Chinchwad - MPCB",15-07-2024 02:00:00,18.59051,73.77946,PM2.5,NA,NA,NA
India,Maharashtra,Pimpri-Chinchwad,"Park Street Wakad, Pimpri Chinchwad - MPCB",15-07-2024 02:00:00,18.59051,73.77946,PM10,40,75,48
India,Maharashtra,Pimpri-Chinchwad,"Park Street Wakad, Pimpri Chinchwad - MPCB",15-07-2024 02:00:00,18.59051,73.77946,NO2,11,23,17
India,Maharashtra,Pimpri-Chinchwad,"Park Street Wakad, Pimpri Chinchwad - MPCB",15-07-2024 02:00:00,18.59051,73.77946,SO2,NA,NA,NA
India,Maharashtra,Pimpri-Chinchwad,"Thergaon, Pimpri Chinchwad - MPCB",15-07-2024 02:00:00,18.616318,73.765797,NO2,13,48,29
India,Maharashtra,Pimpri-Chinchwad,"Thergaon, Pimpri Chinchwad - MPCB",15-07-2024 02:00:00,18.616318,73.765797,NH3,1,9,4
India,Maharashtra,Pune,"Alandi, Pune - IITM",15-07-2024 02:00:00,18.675076,73.892743,PM2.5,8,27,13
India,Maharashtra,Pune,"Alandi, Pune - IITM",15-07-2024 02:00:00,18.675076,73.892743,NO2,8,37,18
India,Maharashtra,Pune,"Hadapsar, Pune - IITM",15-07-2024 02:00:00,18.501793,73.927532,CO,15,70,34
India,Maharashtra,Pune,"Karve Road, Pune - MPCB",15-07-2024 02:00:00,18.5011743,73.8165527,PM10,NA,NA,NA
India,Maharashtra,Pune,"Katraj Dairy, Pune - MPCB",15-07-2024 02:00:00,18.454450,73.854155,PM10,5,500,43
India,Maharashtra,Pune,"Katraj Dairy, Pune - MPCB",15-07-2024 02:00:00,18.454450,73.854155,CO,NA,NA,NA
India,Maharashtra,Pune,"Mhada Colony, Pune - IITM",15-07-2024 02:00:00,18.573040,73.927715,PM10,25,41,35
India,Maharashtra,Pune,"Revenue Colony-Shivajinagar, Pune - IITM",15-07-2024 02:00:00,18.530085,73.849598,CO,22,46,38
India,Maharashtra,Pune,"Transport Nagar-Nigdi, Pune - IITM",15-07-2024 02:00:00,18.664282,73.763966,PM2.5,17,34,24
India,Maharashtra,Sangli,"Vijay Nagar, Sangli - MPCB",15-07-2024 02:00:00, 16.5038,74.3623,CO,NA,NA,NA
India,Maharashtra,Solapur,"Dnyaneshwar Nagar, Solapur - MPCB",15-07-2024 02:00:00,17.6336264,75.9132495,OZONE,15,35,21
India,Maharashtra,Solapur,"Ratandeep Housing Society, Solapur - MPCB",15-07-2024 02:00:00,17.65439,75.90649,PM10,10,32,22
India,Maharashtra,Solapur,"Ratandeep Housing Society, Solapur - MPCB",15-07-2024 02:00:00,17.65439,75.90649,NO2,2,6,3
India,Maharashtra,Thane,"Kasarvadavali, Thane - MPCB",15-07-2024 02:00:00,19.26777,72.97182,PM2.5,16,55,30
India,Maharashtra,Thane,"Pimpleshwar Mandir, Thane - MPCB",15-07-2024 02:00:00,19.192056,72.9585188,PM10,3,310,52
India,Maharashtra,Thane,"Pimpleshwar Mandir, Thane - MPCB",15-07-2024 02:00:00,19.192056,72.9585188,CO,4,93,17
India,Maharashtra,Ulhasnagar,"Sidhi Vinayak Nagar, Ulhasnagar - MPCB",15-07-2024 02:00:00,19.235581,73.159121,SO2,6,37,12
India,Maharashtra,Virar,"Bolinj, Virar - MPCB",15-07-2024 02:00:00,19.4458210,72.7988231,PM10,48,71,59
India,Maharashtra,Virar,"Bolinj, Virar - MPCB",15-07-2024 02:00:00,19.4458210,72.7988231,SO2,1,4,3
India,Odisha,Angul,"Hakimapada, Angul - OSPCB",15-07-2024 02:00:00,20.832874,85.104082,PM10,NA,NA,NA
India,Odisha,Angul,"Hakimapada, Angul - OSPCB",15-07-2024 02:00:00,20.832874,85.104082,OZONE,12,20,15
India,Odisha,Balasore,"Kalidaspur, Balasore - OSPCB",15-07-2024 02:00:00,21.51161,86.89088,NO2,5,26,13
India,Odisha,Balasore,"Kalidaspur, Balasore - OSPCB",15-07-2024 02:00:00,21.51161,86.89088,SO2,12,14,13
India,Odisha,Barbil,"Forest Office, Barbil - OSPCB",15-07-2024 02:00:00,22.1166054,85.3945546,PM2.5,18,70,44
India,Odisha,Barbil,"Forest Office, Barbil - OSPCB",15-07-2024 02:00:00,22.1166054,85.3945546,PM10,36,131,66
India,Odisha,Barbil,"Forest Office, Barbil - OSPCB",15-07-2024 02:00:00,22.1166054,85.3945546,OZONE,1,76,23
India,Odisha,Baripada,"Meher Colony, Baripada - OSPCB",15-07-2024 02:00:00,21.941841,86.728318,PM2.5,26,84,55
India,Odisha,Baripada,"Meher Colony, Baripada - OSPCB",15-07-2024 02:00:00,21.941841,86.728318,SO2,6,10,9
India,Odisha,Bhubaneswar,"Lingraj Mandir, Bhubaneswar - OSPCB",15-07-2024 02:00:00,20.240790,85.836784,CO,4,78,44
India,Odisha,Bhubaneswar,"Lingraj Mandir, Bhubaneswar - OSPCB",15-07-2024 02:00:00,20.240790,85.836784,OZONE,7,66,29
India,Odisha,Bileipada,"Tata Township, Bileipada - OSPCB",15-07-2024 02:00:00,22.06156703,85.47409613,NH3,12,12,12
India,Odisha,Bileipada,"Tata Township, Bileipada - OSPCB",15-07-2024 02:00:00,22.06156703,85.47409613,CO,10,22,14
India,Odisha,Brajrajnagar,"GM Office, Brajrajnagar - OSPCB",15-07-2024 02:00:00,21.8004996,83.8396977,PM10,1,98,30
India,Odisha,Brajrajnagar,"GM Office, Brajrajnagar - OSPCB",15-07-2024 02:00:00,21.8004996,83.8396977,NO2,21,31,24
India,Odisha,Byasanagar,"Ferro Chrome Colony, Byasanagar - OSPCB",15-07-2024 02:00:00,20.94185,86.11510,PM10,16,122,52
India,Odisha,Byasanagar,"Ferro Chrome Colony, Byasanagar - OSPCB",15-07-2024 02:00:00,20.94185,86.11510,CO,24,185,146
India,Odisha,Cuttack,"CDA Area, Cuttack - OSPCB",15-07-2024 02:00:00,20.48891     ,85.84768     ,PM10,1,120,56
India,Odisha,Keonjhar,"Jagamohanpur, Keonjhar - OSPCB",15-07-2024 02:00:00,21.643900,85.599355,PM10,31,63,45
India,Odisha,Keonjhar,"Jagamohanpur, Keonjhar - OSPCB",15-07-2024 02:00:00,21.643900,85.599355,SO2,8,9,9
India,Odisha,Keonjhar,"Jagamohanpur, Keonjhar - OSPCB",15-07-2024 02:00:00,21.643900,85.599355,CO,2,22,14
India,Odisha,Nayagarh,"Dabuna, Nayagarh - OSPCB",15-07-2024 02:00:00,21.847279,85.416905,NO2,9,21,13
India,Odisha,Rairangpur,"Divisional Forest Office, Rairangpur - OSPCB",15-07-2024 02:00:00,22.265816,86.174829,PM2.5,49,74,61
India,Odisha,Rairangpur,"Divisional Forest Office, Rairangpur - OSPCB",15-07-2024 02:00:00,22.265816,86.174829,CO,28,42,40
India,Odisha,Rourkela,"Raghunathpali, Rourkela - OSPCB",15-07-2024 02:00:00,22.220833,84.809444,SO2,NA,NA,NA
India,Odisha,Rourkela,"Sector-2, Rourkela - OSPCB",15-07-2024 02:00:00,22.24500000,84.88111111,PM2.5,22,83,55
India,Odisha,Suakati,"OMC Colony, Suakati - OSPCB",15-07-2024 02:00:00,21.606865,85.510538,NH3,5,5,5
India,Odisha,Suakati,"OMC Colony, Suakati - OSPCB",15-07-2024 02:00:00,21.606865,85.510538,OZONE,50,136,81
India,Odisha,Talcher,"Talcher Coalfields,Talcher - OSPCB",15-07-2024 02:00:00,20.9360711,85.1707021,NO2,23,32,25
India,Odisha,Tensa,"Barsua Iron Ore Mines, Tensa - OSPCB",15-07-2024 02:00:00,21.869985,85.167016,PM2.5,23,61,36
India,Odisha,Tensa,"Barsua Iron Ore Mines, Tensa - OSPCB",15-07-2024 02:00:00,21.869985,85.167016,NO2,22,44,28
India,Odisha,Tensa,"Barsua Iron Ore Mines, Tensa - OSPCB",15-07-2024 02:00:00,21.869985,85.167016,OZONE,19,28,23
India,Puducherry,Puducherry,"Jawahar Nagar, Puducherry - PPCC",15-07-2024 02:00:00,11.9309,79.8027,PM2.5,7,40,26
India,Puducherry,Puducherry,"Jawahar Nagar, Puducherry - PPCC",15-07-2024 02:00:00,11.9309,79.8027,NH3,3,5,3
India,Puducherry,Puducherry,"Jawahar Nagar, Puducherry - PPCC",15-07-2024 02:00:00,11.9309,79.8027,SO2,8,16,12
India,Punjab,Amritsar,"Golden Temple, Amritsar - PPCB",15-07-2024 02:00:00,31.620000,74.876512,NH3,7,13,9
India,Punjab,Mandi Gobindgarh,"RIMT University, Mandi Gobindgarh - PPCB",15-07-2024 02:00:00,30.649961,76.331442,NH3,7,7,7
India,Punjab,Mandi Gobindgarh,"RIMT University, Mandi Gobindgarh - PPCB",15-07-2024 02:00:00,30.649961,76.331442,SO2,6,12,9
India,Punjab,Mandi Gobindgarh,"RIMT University, Mandi Gobindgarh - PPCB",15-07-2024 02:00:00,30.649961,76.331442,OZONE,49,52,50
India,Punjab,Patiala,"Model Town, Patiala - PPCB",15-07-2024 02:00:00,30.349388,76.366642,OZONE,48,90,77
India,Punjab,Rupnagar,"Ratanpura, Rupnagar - Ambuja Cements",15-07-2024 02:00:00,31.0325454,76.5623046,PM2.5,33,95,62
India,Punjab,Rupnagar,"Ratanpura, Rupnagar - Ambuja Cements",15-07-2024 02:00:00,31.0325454,76.5623046,PM10,77,181,121
India,Punjab,Rupnagar,"Ratanpura, Rupnagar - Ambuja Cements",15-07-2024 02:00:00,31.0325454,76.5623046,SO2,4,5,4
India,Rajasthan,Ajmer,"Civil Lines,  Ajmer - RSPCB",15-07-2024 02:00:00,26.470859,74.646594,SO2,3,18,10
India,Rajasthan,Banswara,"Rati Talai, Banswara - RSPCB",15-07-2024 02:00:00,23.555190,74.440010,PM10,18,112,72
India,Rajasthan,Banswara,"Rati Talai, Banswara - RSPCB",15-07-2024 02:00:00,23.555190,74.440010,CO,18,42,34
India,Rajasthan,Baran,"Bamboliya, Baran - RSPCB",15-07-2024 02:00:00,25.106006,76.469948,NO2,4,16,9
India,Rajasthan,Baran,"Bamboliya, Baran - RSPCB",15-07-2024 02:00:00,25.106006,76.469948,SO2,4,5,5
India,Rajasthan,Bharatpur,"Krishna Nagar, Bharatpur - RSPCB",15-07-2024 02:00:00,27.215415,77.50873,NO2,6,37,13
India,Rajasthan,Bharatpur,"Krishna Nagar, Bharatpur - RSPCB",15-07-2024 02:00:00,27.215415,77.50873,CO,28,62,45
India,Rajasthan,Bhilwara,"Pratap Nagar, Bhilwara - RSPCB",15-07-2024 02:00:00,25.339605,74.618883,NO2,6,35,15
India,Rajasthan,Bhiwadi,"RIICO Ind. Area III, Bhiwadi - RSPCB",15-07-2024 02:00:00,28.194909,76.862296,NO2,NA,NA,NA
India,Rajasthan,Bhiwadi,"RIICO Ind. Area III, Bhiwadi - RSPCB",15-07-2024 02:00:00,28.194909,76.862296,NH3,NA,NA,NA
India,Rajasthan,Bhiwadi,"Vasundhara Nagar_UIT, Bhiwadi - RSPCB",15-07-2024 02:00:00,28.207266,76.829265,PM10,94,297,159
India,Rajasthan,Bhiwadi,"Vasundhara Nagar_UIT, Bhiwadi - RSPCB",15-07-2024 02:00:00,28.207266,76.829265,SO2,1,4,1
India,Rajasthan,Bikaner,"MM Ground, Bikaner - RSPCB",15-07-2024 02:00:00,28.018792,73.292658,PM10,56,486,128
India,Rajasthan,Bikaner,"MM Ground, Bikaner - RSPCB",15-07-2024 02:00:00,28.018792,73.292658,SO2,2,5,4
India,Rajasthan,Bundi,"New Colony, Bundi - RSPCB",15-07-2024 02:00:00,25.435774,75.644272,PM2.5,19,64,41
India,Rajasthan,Chittorgarh,"Shastri Nagar, Chittorgarh - RSPCB",15-07-2024 02:00:00,24.892047,74.623527,PM10,89,152,124
India,Rajasthan,Chittorgarh,"Shastri Nagar, Chittorgarh - RSPCB",15-07-2024 02:00:00,24.892047,74.623527,NO2,9,53,20
India,Rajasthan,Chittorgarh,"Shastri Nagar, Chittorgarh - RSPCB",15-07-2024 02:00:00,24.892047,74.623527,NH3,4,11,7
India,Rajasthan,Churu,"Subash Chowk, Churu - RSPCB",15-07-2024 02:00:00,28.296139,74.961696,PM2.5,23,48,36
India,Rajasthan,Churu,"Subash Chowk, Churu - RSPCB",15-07-2024 02:00:00,28.296139,74.961696,CO,12,18,14
India,Rajasthan,Dausa,"Khatikan Mohalla, Dausa - RSPCB",15-07-2024 02:00:00,26.895552,76.334753,PM2.5,19,79,39
India,Rajasthan,Dausa,"Khatikan Mohalla, Dausa - RSPCB",15-07-2024 02:00:00,26.895552,76.334753,NH3,2,6,4
India,Rajasthan,Dausa,"Khatikan Mohalla, Dausa - RSPCB",15-07-2024 02:00:00,26.895552,76.334753,CO,26,71,44
India,Rajasthan,Dausa,"Khatikan Mohalla, Dausa - RSPCB",15-07-2024 02:00:00,26.895552,76.334753,OZONE,18,66,41
India,Rajasthan,Dholpur,"Raja Ganj, Dholpur - RSPCB",15-07-2024 02:00:00,26.699557,77.898881,PM2.5,13,500,209
India,Rajasthan,Dungarpur,"Bhoiwada, Dungarpur - RSPCB",15-07-2024 02:00:00,23.837789,73.714926,NO2,5,9,7
India,Rajasthan,Jaipur,"Adarsh Nagar, Jaipur - RSPCB",15-07-2024 02:00:00,26.902909,75.836858,NO2,15,92,39
India,Rajasthan,Jaipur,"Mansarovar Sector-12, Jaipur - RSPCB",15-07-2024 02:00:00,26.843698,75.766894,SO2,1,5,2
India,Rajasthan,Jaipur,"Mansarovar Sector-12, Jaipur - RSPCB",15-07-2024 02:00:00,26.843698,75.766894,CO,12,46,33
India,Rajasthan,Jaipur,"RIICO Sitapura, Jaipur - RSPCB",15-07-2024 02:00:00,26.786682,75.827928,NO2,12,76,29
India,Rajasthan,Jaipur,"RIICO Sitapura, Jaipur - RSPCB",15-07-2024 02:00:00,26.786682,75.827928,CO,16,64,44
India,Rajasthan,Jaipur,"Sector-2 Murlipura, Jaipur - RSPCB",15-07-2024 02:00:00,26.960669,75.771817,NH3,1,9,5
India,Rajasthan,Jaipur,"Shastri Nagar, Jaipur - RSPCB",15-07-2024 02:00:00,26.9502929,75.730943,SO2,5,54,18
India,Rajasthan,Jaisalmer,"Sadar Bazar, Jaisalmer - RSPCB",15-07-2024 02:00:00,26.912329,70.909168,NH3,4,7,5
India,Rajasthan,Jalore,"Mudtra Sili, Jalore - RSPCB",15-07-2024 02:00:00,25.344694,72.626208,PM2.5,21,65,46
India,Rajasthan,Jhalawar,"Rajlaxmi Nagar, Jhalawar - RSPCB",15-07-2024 02:00:00,24.588397,76.172782,NH3,1,2,1
India,Rajasthan,Jhalawar,"Rajlaxmi Nagar, Jhalawar - RSPCB",15-07-2024 02:00:00,24.588397,76.172782,CO,2,27,11
India,Rajasthan,Jhunjhunu,"Indra Nagar, Jhunjhunu - RSPCB",15-07-2024 02:00:00,28.108988,75.386577,NH3,13,19,16
India,Rajasthan,Jhunjhunu,"Indra Nagar, Jhunjhunu - RSPCB",15-07-2024 02:00:00,28.108988,75.386577,OZONE,15,88,66
India,Rajasthan,Jodhpur,"Collectorate, Jodhpur - RSPCB",15-07-2024 02:00:00,26.268249,73.0193853,PM2.5,15,133,70
India,Rajasthan,Jodhpur,"Collectorate, Jodhpur - RSPCB",15-07-2024 02:00:00,26.268249,73.0193853,NO2,1,25,15
India,Rajasthan,Jodhpur,"Collectorate, Jodhpur - RSPCB",15-07-2024 02:00:00,26.268249,73.0193853,CO,2,152,91
India,Rajasthan,Jodhpur,"Jhalamand, Jodhpur - RSPCB",15-07-2024 02:00:00,26.215415,73.070156,NO2,5,36,12
India,Rajasthan,Jodhpur,"Mandor, Jodhpur - RSPCB",15-07-2024 02:00:00,26.358805,73.047444,NH3,2,4,3
India,Rajasthan,Jodhpur,"Mandor, Jodhpur - RSPCB",15-07-2024 02:00:00,26.358805,73.047444,OZONE,25,52,42
India,Rajasthan,Jodhpur,"Samrat Ashok Udhyan, Jodhpur - RSPCB",15-07-2024 02:00:00,26.253384,72.976571,NH3,3,3,3
India,Rajasthan,Jodhpur,"Samrat Ashok Udhyan, Jodhpur - RSPCB",15-07-2024 02:00:00,26.253384,72.976571,CO,11,37,25
India,Rajasthan,Kota,"Dhanmandi, Kota - RSPCB",15-07-2024 02:00:00,25.164090,75.858137,NH3,3,6,4
India,Rajasthan,Kota,"Dhanmandi, Kota - RSPCB",15-07-2024 02:00:00,25.164090,75.858137,CO,8,43,36
India,Rajasthan,Kota,"Nayapura, Kota - RSPCB",15-07-2024 02:00:00,25.196024,75.855668,NH3,5,6,6
India,Rajasthan,Kota,"Nayapura, Kota - RSPCB",15-07-2024 02:00:00,25.196024,75.855668,SO2,1,5,4
India,Rajasthan,Kota,"Shrinath Puram, Kota - RSPCB",15-07-2024 02:00:00,25.14389,75.821256,PM2.5,29,95,53
India,Rajasthan,Kota,"Shrinath Puram, Kota - RSPCB",15-07-2024 02:00:00,25.14389,75.821256,CO,30,69,47
India,Rajasthan,Nagaur,"Karni Colony, Nagaur - RSPCB",15-07-2024 02:00:00,27.213494,73.734444,CO,15,112,91
India,Rajasthan,Nagaur,"Karni Colony, Nagaur - RSPCB",15-07-2024 02:00:00,27.213494,73.734444,OZONE,12,87,61
India,Rajasthan,Pali,"Indira Colony Vistar, Pali - RSPCB",15-07-2024 02:00:00,25.771061, 73.340227,SO2,10,13,12
India,Rajasthan,Rajsamand,"Dhoinda, Rajsamand - RSPCB",15-07-2024 02:00:00,25.036360,73.883502,NO2,8,18,11
India,Rajasthan,Rajsamand,"Dhoinda, Rajsamand - RSPCB",15-07-2024 02:00:00,25.036360,73.883502,SO2,4,6,5
India,Rajasthan,Sawai Madhopur,"Sahu Nagar, Sawai Madhopur - RSPCB",15-07-2024 02:00:00,26.031443,76.359327,NH3,2,2,2
India,Rajasthan,Sikar,"Radhakishan Pura, Sikar - RSPCB",15-07-2024 02:00:00,27.608912,75.153302,PM2.5,37,58,47
India,Rajasthan,Sikar,"Radhakishan Pura, Sikar - RSPCB",15-07-2024 02:00:00,27.608912,75.153302,NO2,7,37,15
India,Rajasthan,Sikar,"Radhakishan Pura, Sikar - RSPCB",15-07-2024 02:00:00,27.608912,75.153302,CO,26,57,41
India,Rajasthan,Sirohi,"Vedhaynath Colony, Sirohi - RSPCB",15-07-2024 02:00:00,24.885261,72.857549,PM2.5,8,40,25
India,Rajasthan,Sirohi,"Vedhaynath Colony, Sirohi - RSPCB",15-07-2024 02:00:00,24.885261,72.857549,NO2,2,11,5
India,Rajasthan,Sirohi,"Vedhaynath Colony, Sirohi - RSPCB",15-07-2024 02:00:00,24.885261,72.857549,NH3,2,4,3
India,Rajasthan,Sirohi,"Vedhaynath Colony, Sirohi - RSPCB",15-07-2024 02:00:00,24.885261,72.857549,OZONE,15,49,30
India,Rajasthan,Sri Ganganagar,"Old City, Sri Ganganagar - RSPCB",15-07-2024 02:00:00,29.931624,73.864511,NH3,9,31,20
India,Rajasthan,Tonk,"Shastri Nagar, Tonk - RSPCB",15-07-2024 02:00:00,26.159933,75.780517,NO2,1,24,12
India,Rajasthan,Tonk,"Shastri Nagar, Tonk - RSPCB",15-07-2024 02:00:00,26.159933,75.780517,SO2,1,15,8
India,Rajasthan,Tonk,"Shastri Nagar, Tonk - RSPCB",15-07-2024 02:00:00,26.159933,75.780517,OZONE,7,103,53
India,Rajasthan,Udaipur,"Ashok Nagar, Udaipur - RSPCB",15-07-2024 02:00:00,24.5886166,73.6321397,OZONE,13,41,24
India,Sikkim,Gangtok,"Zero Point GICI, Gangtok - SSPCB",15-07-2024 02:00:00,27.338530,88.614099,SO2,12,13,12
India,TamilNadu,Ariyalur,"Keelapalur, Ariyalur - TNPCB",15-07-2024 02:00:00,11.06825,79.07033,NO2,7,10,9
India,TamilNadu,Ariyalur,"Keelapalur, Ariyalur - TNPCB",15-07-2024 02:00:00,11.06825,79.07033,SO2,26,82,37
India,TamilNadu,Chennai,"Alandur Bus Depot, Chennai - CPCB",15-07-2024 02:00:00,12.9099161,80.1076538,PM2.5,23,421,100
India,TamilNadu,Chennai,"Alandur Bus Depot, Chennai - CPCB",15-07-2024 02:00:00,12.9099161,80.1076538,OZONE,3,10,5
India,TamilNadu,Chennai,"Arumbakkam, Chennai - TNPCB",15-07-2024 02:00:00,13.0664,80.2112 ,SO2,NA,NA,NA
India,TamilNadu,Chennai,"Kodungaiyur, Chennai - TNPCB",15-07-2024 02:00:00,13.1278,80.2642,PM2.5,3,37,20
India,TamilNadu,Chennai,"Perungudi, Chennai - TNPCB",15-07-2024 02:00:00,12.9533,80.2357,PM2.5,8,112,34
India,TamilNadu,Chennai,"Perungudi, Chennai - TNPCB",15-07-2024 02:00:00,12.9533,80.2357,PM10,9,90,49
India,TamilNadu,Chennai,"Perungudi, Chennai - TNPCB",15-07-2024 02:00:00,12.9533,80.2357,NO2,2,14,7
India,TamilNadu,Chennai,"Royapuram, Chennai - TNPCB",15-07-2024 02:00:00,13.1036,80.2909,OZONE,4,9,7
India,TamilNadu,Cuddalore,"Kudikadu, Cuddalore - TNPCB",15-07-2024 02:00:00,11.6829898,79.7532099,PM2.5,12,34,20
India,TamilNadu,Cuddalore,"Semmandalam, Cuddalore - TNPCB",15-07-2024 02:00:00,11.7637683,79.7499835,NH3,NA,NA,NA
India,TamilNadu,Ooty,"Bombay Castel, Ooty - TNPCB",15-07-2024 02:00:00,11.4068288,76.7138973,OZONE,5,5,5
India,TamilNadu,Palkalaiperur,"Bharathidasan University, Palkalaiperur - TNPCB",15-07-2024 02:00:00,10.681158,78.741746,PM2.5,6,29,15
India,TamilNadu,Palkalaiperur,"Bharathidasan University, Palkalaiperur - TNPCB",15-07-2024 02:00:00,10.681158,78.741746,OZONE,1,2,1
India,TamilNadu,Ramanathapuram,"Chalai Bazaar, Ramanathapuram - TNPCB",15-07-2024 02:00:00,9.36399,78.831977,CO,NA,NA,NA
India,TamilNadu,Thoothukudi,"Meelavittan, Thoothukudi - TNPCB",15-07-2024 02:00:00,8.816428 ,78.099039,OZONE,1,53,14
India,Telangana,Hyderabad,"Central University, Hyderabad - TSPCB",15-07-2024 02:00:00,17.460103,78.334361,NH3,2,5,3
India,Telangana,Hyderabad,"ICRISAT Patancheru, Hyderabad - TSPCB",15-07-2024 02:00:00,17.518400,78.278777,OZONE,7,24,17
India,Telangana,Hyderabad,"IDA Pashamylaram, Hyderabad - TSPCB",15-07-2024 02:00:00,17.5316895,78.218939,PM10,5,34,20
India,Telangana,Hyderabad,"IDA Pashamylaram, Hyderabad - TSPCB",15-07-2024 02:00:00,17.5316895,78.218939,CO,23,77,46
India,Telangana,Hyderabad,"IITH Kandi, Hyderabad - TSPCB",15-07-2024 02:00:00,17.585705,78.126199,PM10,NA,NA,NA
India,Telangana,Hyderabad,"IITH Kandi, Hyderabad - TSPCB",15-07-2024 02:00:00,17.585705,78.126199,CO,18,18,18
India,Telangana,Hyderabad,"Kompally Municipal Office, Hyderabad - TSPCB",15-07-2024 02:00:00,17.544899,78.486949,PM2.5,37,41,38
India,Telangana,Hyderabad,"New Malakpet, Hyderabad - TSPCB",15-07-2024 02:00:00,17.37206,78.50864,OZONE,23,44,33
India,Telangana,Hyderabad,"Sanathnagar, Hyderabad - TSPCB",15-07-2024 02:00:00,17.4559458,78.4332152,PM2.5,14,40,24
India,Telangana,Hyderabad,"Sanathnagar, Hyderabad - TSPCB",15-07-2024 02:00:00,17.4559458,78.4332152,NO2,28,32,30
India,Telangana,Hyderabad,"Sanathnagar, Hyderabad - TSPCB",15-07-2024 02:00:00,17.4559458,78.4332152,OZONE,15,18,17
India,Telangana,Hyderabad,"Zoo Park, Hyderabad - TSPCB",15-07-2024 02:00:00,17.349694,78.451437,OZONE,16,19,17
India,Tripura,Agartala,"Bardowali, Agartala - Tripura SPCB",15-07-2024 02:00:00,23.8175497,91.2726974,NH3,7,8,7
India,Tripura,Agartala,"Bardowali, Agartala - Tripura SPCB",15-07-2024 02:00:00,23.8175497,91.2726974,CO,8,47,31
India,Uttar_Pradesh,Agra,"Rohta, Agra - UPPCB",15-07-2024 02:00:00,27.106972,78.000111,PM10,NA,NA,NA
India,Uttar_Pradesh,Agra,"Sector-3B Avas Vikas Colony, Agra - UPPCB",15-07-2024 02:00:00,27.19412,77.96237,PM10,13,42,30
India,Uttar_Pradesh,Agra,"Shahjahan Garden, Agra - UPPCB",15-07-2024 02:00:00,27.169338,78.03582,CO,NA,NA,NA
India,Uttar_Pradesh,Agra,"Shastripuram, Agra - UPPCB",15-07-2024 02:00:00,27.19862,77.92066,PM10,3,71,43
India,Uttar_Pradesh,Agra,"Shastripuram, Agra - UPPCB",15-07-2024 02:00:00,27.19862,77.92066,NH3,3,11,4
India,Uttar_Pradesh,Baghpat,"Sardar Patel Inter College, Baghpat - UPPCB",15-07-2024 02:00:00,28.964949,77.278761,PM10,101,160,123
India,Uttar_Pradesh,Bareilly,"Rajendra Nagar, Bareilly - UPPCB",15-07-2024 02:00:00,28.38910936,79.42963708,NH3,1,3,1
India,Uttar_Pradesh,Bulandshahr,"Yamunapuram, Bulandshahr - UPPCB",15-07-2024 02:00:00,28.406963,77.849831,NO2,9,40,21
India,Uttar_Pradesh,Bulandshahr,"Yamunapuram, Bulandshahr - UPPCB",15-07-2024 02:00:00,28.406963,77.849831,SO2,5,18,12
India,Uttar_Pradesh,Firozabad,"Nagla Bhau, Firozabad - UPPCB",15-07-2024 02:00:00,27.168897,78.376960,NH3,2,2,2
India,Uttar_Pradesh,Firozabad,"Nagla Bhau, Firozabad - UPPCB",15-07-2024 02:00:00,27.168897,78.376960,SO2,16,58,38
India,Uttar_Pradesh,Firozabad,"Vibhab Nagar, Firozabad - UPPCB",15-07-2024 02:00:00,27.1594,78.3953,PM10,NA,NA,NA
India,Uttar_Pradesh,Firozabad,"Vibhab Nagar, Firozabad - UPPCB",15-07-2024 02:00:00,27.1594,78.3953,NO2,9,15,14
India,Uttar_Pradesh,Firozabad,"Vibhab Nagar, Firozabad - UPPCB",15-07-2024 02:00:00,27.1594,78.3953,SO2,6,12,7
India,Uttar_Pradesh,Ghaziabad,"Indirapuram, Ghaziabad - UPPCB",15-07-2024 02:00:00,28.646233,77.358075,PM2.5,49,142,83
India,Uttar_Pradesh,Ghaziabad,"Indirapuram, Ghaziabad - UPPCB",15-07-2024 02:00:00,28.646233,77.358075,OZONE,1,79,51
India,Uttar_Pradesh,Ghaziabad,"Loni, Ghaziabad - UPPCB",15-07-2024 02:00:00,28.757294,77.278792,NO2,14,61,32
India,Uttar_Pradesh,Ghaziabad,"Sanjay Nagar, Ghaziabad - UPPCB",15-07-2024 02:00:00,28.685382,77.453839,PM10,82,158,110
India,Uttar_Pradesh,Ghaziabad,"Sanjay Nagar, Ghaziabad - UPPCB",15-07-2024 02:00:00,28.685382,77.453839,NO2,23,75,44
India,Uttar_Pradesh,Ghaziabad,"Vasundhara, Ghaziabad - UPPCB",15-07-2024 02:00:00,28.6603346,77.3572563,PM2.5,42,150,81
India,Uttar_Pradesh,Ghaziabad,"Vasundhara, Ghaziabad - UPPCB",15-07-2024 02:00:00,28.6603346,77.3572563,SO2,2,10,5
India,Uttar_Pradesh,Ghaziabad,"Vasundhara, Ghaziabad - UPPCB",15-07-2024 02:00:00,28.6603346,77.3572563,OZONE,16,28,26
India,Uttar_Pradesh,Gorakhpur,"Madan Mohan Malaviya University of Technology, Gorakhpur - UPPCB",15-07-2024 02:00:00,26.730136,83.433859,NH3,1,1,1
India,Uttar_Pradesh,Gorakhpur,"Madan Mohan Malaviya University of Technology, Gorakhpur - UPPCB",15-07-2024 02:00:00,26.730136,83.433859,CO,6,23,7
India,Uttar_Pradesh,Greater Noida,"Knowledge Park - V, Greater Noida - UPPCB",15-07-2024 02:00:00,28.557054,77.453663,NH3,3,6,4
India,Uttar_Pradesh,Hapur,"Anand Vihar, Hapur - UPPCB",15-07-2024 02:00:00,28.725645,77.749675,SO2,10,31,22
India,Uttar_Pradesh,Jhansi,"Shivaji Nagar, Jhansi - UPPCB",15-07-2024 02:00:00,25.4547,78.6039,SO2,19,26,21
India,Uttar_Pradesh,Jhansi,"Shivaji Nagar, Jhansi - UPPCB",15-07-2024 02:00:00,25.4547,78.6039,OZONE,1,19,8
India,Uttar_Pradesh,Kanpur,"NSI Kalyanpur, Kanpur - UPPCB",15-07-2024 02:00:00,26.509954,80.249612,SO2,18,20,19
India,Uttar_Pradesh,Kanpur,"Nehru Nagar, Kanpur - UPPCB",15-07-2024 02:00:00,26.4703136,80.3229863,CO,34,64,54
India,Uttar_Pradesh,Khurja,"Kalindi Kunj, Khurja - UPPCB",15-07-2024 02:00:00,28.2348927,77.8683002,PM2.5,39,163,74
India,Uttar_Pradesh,Lucknow,"Gomti Nagar, Lucknow - UPPCB",15-07-2024 02:00:00,26.868120,81.005119,NO2,9,10,10
India,Uttar_Pradesh,Lucknow,"Kukrail Picnic Spot-1, Lucknow - UPPCB",15-07-2024 02:00:00,26.90723,80.98579,PM10,30,59,38
India,Uttar_Pradesh,Lucknow,"Lalbagh, Lucknow - CPCB",15-07-2024 02:00:00,26.8458805,80.9365541,PM10,52,85,65
India,Uttar_Pradesh,Lucknow,"Lalbagh, Lucknow - CPCB",15-07-2024 02:00:00,26.8458805,80.9365541,SO2,1,13,4
India,Uttar_Pradesh,Lucknow,"Lalbagh, Lucknow - CPCB",15-07-2024 02:00:00,26.8458805,80.9365541,OZONE,17,58,39
India,Uttar_Pradesh,Meerut,"Ganga Nagar, Meerut - UPPCB",15-07-2024 02:00:00,28.999264,77.7590354,PM2.5,32,55,42
India,Uttar_Pradesh,Meerut,"Pallavpuram Phase 2, Meerut - UPPCB",15-07-2024 02:00:00,29.063510,77.709723,NO2,21,70,44
India,Uttar_Pradesh,Meerut,"Pallavpuram Phase 2, Meerut - UPPCB",15-07-2024 02:00:00,29.063510,77.709723,NH3,9,20,13
India,Uttar_Pradesh,Meerut,"Pallavpuram Phase 2, Meerut - UPPCB",15-07-2024 02:00:00,29.063510,77.709723,CO,28,65,49
India,Uttar_Pradesh,Moradabad,"Buddhi Vihar, Moradabad - UPPCB",15-07-2024 02:00:00,28.83526,78.74460,PM2.5,37,81,57
India,Uttar_Pradesh,Moradabad,"Buddhi Vihar, Moradabad - UPPCB",15-07-2024 02:00:00,28.83526,78.74460,PM10,NA,NA,NA
India,Uttar_Pradesh,Moradabad,"Buddhi Vihar, Moradabad - UPPCB",15-07-2024 02:00:00,28.83526,78.74460,NO2,23,23,23
India,Uttar_Pradesh,Moradabad,"Buddhi Vihar, Moradabad - UPPCB",15-07-2024 02:00:00,28.83526,78.74460,NH3,3,3,3
India,Uttar_Pradesh,Moradabad,"Buddhi Vihar, Moradabad - UPPCB",15-07-2024 02:00:00,28.83526,78.74460,SO2,23,30,26
India,Uttar_Pradesh,Moradabad,"Eco Herbal Park, Moradabad - UPPCB",15-07-2024 02:00:00,28.840739,78.697531,OZONE,20,129,60
India,Uttar_Pradesh,Moradabad,"Jigar Colony, Moradabad - UPPCB",15-07-2024 02:00:00,28.856664,78.772638,PM2.5,25,72,45
India,Uttar_Pradesh,Moradabad,"Jigar Colony, Moradabad - UPPCB",15-07-2024 02:00:00,28.856664,78.772638,OZONE,1,21,18
India,Uttar_Pradesh,Moradabad,"Transport Nagar, Moradabad - UPPCB",15-07-2024 02:00:00,28.802625,78.753728,PM10,30,84,50
India,Uttar_Pradesh,Moradabad,"Transport Nagar, Moradabad - UPPCB",15-07-2024 02:00:00,28.802625,78.753728,NO2,4,5,4
India,Uttar_Pradesh,Moradabad,"Transport Nagar, Moradabad - UPPCB",15-07-2024 02:00:00,28.802625,78.753728,NH3,5,5,5
India,Uttar_Pradesh,Muzaffarnagar,"New Mandi, Muzaffarnagar - UPPCB",15-07-2024 02:00:00,29.4723508,77.7194031,PM10,67,404,167
India,Uttar_Pradesh,Muzaffarnagar,"New Mandi, Muzaffarnagar - UPPCB",15-07-2024 02:00:00,29.4723508,77.7194031,NO2,1,51,16
India,Uttar_Pradesh,Muzaffarnagar,"New Mandi, Muzaffarnagar - UPPCB",15-07-2024 02:00:00,29.4723508,77.7194031,NH3,14,18,16
India,Uttar_Pradesh,Muzaffarnagar,"New Mandi, Muzaffarnagar - UPPCB",15-07-2024 02:00:00,29.4723508,77.7194031,SO2,6,68,21
India,Uttar_Pradesh,Noida,"Sector - 125, Noida - UPPCB",15-07-2024 02:00:00,28.5447608,77.3231257,PM2.5,23,215,43
India,Uttar_Pradesh,Noida,"Sector - 125, Noida - UPPCB",15-07-2024 02:00:00,28.5447608,77.3231257,NO2,5,61,21
India,Uttar_Pradesh,Noida,"Sector - 62, Noida - IMD",15-07-2024 02:00:00,28.6245479,77.3577104,PM10,53,158,102
India,Uttar_Pradesh,Noida,"Sector - 62, Noida - IMD",15-07-2024 02:00:00,28.6245479,77.3577104,CO,50,64,54
India,Uttar_Pradesh,Noida,"Sector-1, Noida - UPPCB",15-07-2024 02:00:00,28.5898,77.3101,NO2,14,61,34
India,Uttar_Pradesh,Noida,"Sector-116, Noida - UPPCB",15-07-2024 02:00:00,28.569230,77.393848,PM10,63,164,105
India,Uttar_Pradesh,Prayagraj,"Jhunsi, Prayagraj - UPPCB",15-07-2024 02:00:00,25.425602,81.917152,NO2,6,6,6
India,Uttar_Pradesh,Prayagraj,"Nagar Nigam, Prayagraj - UPPCB",15-07-2024 02:00:00,25.44919916 ,81.82735986 ,NH3,3,4,3
India,Uttar_Pradesh,Varanasi,"Ardhali Bazar, Varanasi - UPPCB",15-07-2024 02:00:00,25.3505986,82.9083074,PM2.5,12,60,31
India,Uttar_Pradesh,Varanasi,"Ardhali Bazar, Varanasi - UPPCB",15-07-2024 02:00:00,25.3505986,82.9083074,SO2,6,40,21
India,Uttar_Pradesh,Varanasi,"Ardhali Bazar, Varanasi - UPPCB",15-07-2024 02:00:00,25.3505986,82.9083074,CO,21,38,30
India,Uttar_Pradesh,Varanasi,"Bhelupur, Varanasi - UPPCB",15-07-2024 02:00:00,25.301778,82.996789,SO2,34,34,34
India,Uttar_Pradesh,Varanasi,"Bhelupur, Varanasi - UPPCB",15-07-2024 02:00:00,25.301778,82.996789,CO,8,26,18
India,Uttar_Pradesh,Varanasi,"Bhelupur, Varanasi - UPPCB",15-07-2024 02:00:00,25.301778,82.996789,OZONE,2,13,9
India,Uttar_Pradesh,Varanasi,"IESD Banaras Hindu University, Varanasi - UPPCB",15-07-2024 02:00:00,25.262326,82.995408,CO,1,6,4
India,Uttar_Pradesh,Varanasi,"Maldahiya, Varanasi - UPPCB",15-07-2024 02:00:00,25.32393,82.99687,PM10,6,78,41
India,Uttar_Pradesh,Varanasi,"Maldahiya, Varanasi - UPPCB",15-07-2024 02:00:00,25.32393,82.99687,NO2,1,2,2
India,Uttar_Pradesh,Varanasi,"Maldahiya, Varanasi - UPPCB",15-07-2024 02:00:00,25.32393,82.99687,OZONE,1,8,5
India,Uttar_Pradesh,Vrindavan,"Omex Eternity, Vrindavan - UPPCB",15-07-2024 02:00:00,27.5714090,77.6557570,PM10,18,217,76
India,Uttarakhand,Rishikesh,"Shivaji Nagar, Rishikesh - UKPCB",15-07-2024 02:00:00,30.075911,78.2859547,NO2,5,10,7
India,West_Bengal,Asansol,"Asansol Court Area, Asansol - WBPCB",15-07-2024 02:00:00,23.685297,86.945968,PM10,42,114,85
India,West_Bengal,Asansol,"Asansol Court Area, Asansol - WBPCB",15-07-2024 02:00:00,23.685297,86.945968,NH3,8,10,9
India,West_Bengal,Asansol,"Asansol Court Area, Asansol - WBPCB",15-07-2024 02:00:00,23.685297,86.945968,CO,14,33,19
India,West_Bengal,Asansol,"Evelyn Lodge, Asansol - WBPCB",15-07-2024 02:00:00,23.6979360,86.9443950,PM2.5,38,151,72
India,West_Bengal,Asansol,"Evelyn Lodge, Asansol - WBPCB",15-07-2024 02:00:00,23.6979360,86.9443950,NH3,1,2,2
India,West_Bengal,Asansol,"Evelyn Lodge, Asansol - WBPCB",15-07-2024 02:00:00,23.6979360,86.9443950,CO,10,26,15
India,West_Bengal,Asansol,"Mahabir Colliery, Asansol - WBPCB",15-07-2024 02:00:00,23.6181830,87.1057180,SO2,48,53,49
India,West_Bengal,Durgapur,"Sidhu Kanhu Indoor Stadium, Durgapur - WBPCB",15-07-2024 02:00:00,23.5404352,87.2892225,OZONE,3,38,18
India,West_Bengal,Howrah,"Botanical Garden, Howrah - WBPCB",15-07-2024 02:00:00,22.554954,88.292568,PM10,26,105,50
India,West_Bengal,Howrah,"Botanical Garden, Howrah - WBPCB",15-07-2024 02:00:00,22.554954,88.292568,OZONE,5,34,11
India,West_Bengal,Howrah,"Ghusuri, Howrah - WBPCB",15-07-2024 02:00:00,22.611968,88.347422,PM2.5,20,37,29
India,West_Bengal,Howrah,"Ghusuri, Howrah - WBPCB",15-07-2024 02:00:00,22.611968,88.347422,SO2,5,6,5
India,West_Bengal,Howrah,"Padmapukur, Howrah - WBPCB",15-07-2024 02:00:00,22.5687319,88.2797276,OZONE,15,22,16
India,West_Bengal,Kolkata,"Bidhannagar, Kolkata - WBPCB",15-07-2024 02:00:00,22.58157048,88.41002457,SO2,4,9,7
India,West_Bengal,Kolkata,"Bidhannagar, Kolkata - WBPCB",15-07-2024 02:00:00,22.58157048,88.41002457,CO,40,49,44
India,West_Bengal,Kolkata,"Fort William, Kolkata - WBPCB",15-07-2024 02:00:00,22.556640,88.342674,PM10,23,52,36
India,West_Bengal,Kolkata,"Fort William, Kolkata - WBPCB",15-07-2024 02:00:00,22.556640,88.342674,NH3,6,6,6
India,West_Bengal,Kolkata,"Fort William, Kolkata - WBPCB",15-07-2024 02:00:00,22.556640,88.342674,OZONE,8,17,13
India,West_Bengal,Kolkata,"Jadavpur, Kolkata - WBPCB",15-07-2024 02:00:00,22.49929,88.36917,PM2.5,19,39,30
India,West_Bengal,Kolkata,"Jadavpur, Kolkata - WBPCB",15-07-2024 02:00:00,22.49929,88.36917,NH3,4,5,5
India,West_Bengal,Kolkata,"Rabindra Bharati University, Kolkata - WBPCB",15-07-2024 02:00:00,22.627847,88.380669,SO2,12,16,14
India,West_Bengal,Kolkata,"Rabindra Sarobar, Kolkata - WBPCB",15-07-2024 02:00:00,22.51106,88.35142,PM10,34,44,38
India,West_Bengal,Kolkata,"Victoria, Kolkata - WBPCB",15-07-2024 02:00:00,22.5448082,88.3403691,NO2,19,21,20
India,West_Bengal,Kolkata,"Victoria, Kolkata - WBPCB",15-07-2024 02:00:00,22.5448082,88.3403691,NH3,5,5,5
India,West_Bengal,Kolkata,"Victoria, Kolkata - WBPCB",15-07-2024 02:00:00,22.5448082,88.3403691,SO2,6,6,6
India,West_Bengal,Siliguri,"Ward-32 Bapupara, Siliguri - WBPCB",15-07-2024 02:00:00,26.6879226,88.4152495,NH3,9,10,10
India,Andhra_Pradesh,Amaravati,"Secretariat, Amaravati - APPCB",15-07-2024 02:00:00,16.5150833,80.5181667,PM2.5,5,22,15
India,Andhra_Pradesh,Anantapur,"Gulzarpet, Anantapur - APPCB",15-07-2024 02:00:00,14.675886,77.593027,OZONE,2,15,8
India,Andhra_Pradesh,Chittoor,"Gangineni Cheruvu, Chittoor - APPCB",15-07-2024 02:00:00,13.204880,79.097889,PM2.5,24,82,47
India,Andhra_Pradesh,Kadapa,"Yerramukkapalli, Kadapa - APPCB",15-07-2024 02:00:00,14.465052,78.824187,PM2.5,37,60,48
India,Andhra_Pradesh,Kadapa,"Yerramukkapalli, Kadapa - APPCB",15-07-2024 02:00:00,14.465052,78.824187,NO2,5,6,5
India,Andhra_Pradesh,Tirupati,"Tirumala, Tirupati - APPCB",15-07-2024 02:00:00,13.67,79.35,NH3,1,2,1
India,Andhra_Pradesh,Tirupati,"Vaikuntapuram, Tirupati - APPCB",15-07-2024 02:00:00,13.615387,79.409230,PM10,NA,NA,NA
India,Andhra_Pradesh,Vijayawada,"Kanuru, Vijayawada - APPCB",15-07-2024 02:00:00,16.486692,80.699436,PM10,45,55,51
India,Andhra_Pradesh,Vijayawada,"Rajiv Gandhi Park, Vijayawada - APPCB",15-07-2024 02:00:00,16.509717,80.612222,OZONE,19,19,19
India,Andhra_Pradesh,Vijayawada,"Rajiv Nagar, Vijayawada - APPCB",15-07-2024 02:00:00,16.554731,80.649110,NO2,10,10,10
India,Andhra_Pradesh,Vijayawada,"Rajiv Nagar, Vijayawada - APPCB",15-07-2024 02:00:00,16.554731,80.649110,NH3,1,2,2
India,Andhra_Pradesh,Visakhapatnam,"GVM Corporation, Visakhapatnam - APPCB",15-07-2024 02:00:00,17.72,83.3,PM10,50,80,66
India,Andhra_Pradesh,Visakhapatnam,"GVM Corporation, Visakhapatnam - APPCB",15-07-2024 02:00:00,17.72,83.3,NO2,43,54,48
India,Andhra_Pradesh,Visakhapatnam,"GVM Corporation, Visakhapatnam - APPCB",15-07-2024 02:00:00,17.72,83.3,NH3,3,5,3
India,Assam,Byrnihat,"Central Academy for SFS, Byrnihat - PCBA",15-07-2024 02:00:00,26.071318,91.87488,PM10,62,485,234
India,Assam,Byrnihat,"Central Academy for SFS, Byrnihat - PCBA",15-07-2024 02:00:00,26.071318,91.87488,OZONE,22,133,23
India,Assam,Guwahati,"LGBI Airport, Guwahati - PCBA",15-07-2024 02:00:00,26.10887,91.589544,PM2.5,8,497,121
India,Assam,Guwahati,"LGBI Airport, Guwahati - PCBA",15-07-2024 02:00:00,26.10887,91.589544,PM10,20,396,83
India,Assam,Guwahati,"LGBI Airport, Guwahati - PCBA",15-07-2024 02:00:00,26.10887,91.589544,OZONE,18,27,25
India,Assam,Guwahati,"Railway Colony, Guwahati - PCBA",15-07-2024 02:00:00,26.181742,91.78063,PM2.5,13,132,44
India,Assam,Nagaon,"Christianpatty, Nagaon - PCBA",15-07-2024 02:00:00,26.349082,92.68449,SO2,10,10,10
India,Assam,Nagaon,"Christianpatty, Nagaon - PCBA",15-07-2024 02:00:00,26.349082,92.68449,CO,38,66,54
India,Assam,Nalbari,"Bata Chowk, Nalbari - PCBA",15-07-2024 02:00:00,26.446912,91.439057,SO2,5,55,10
India,Assam,Nalbari,"Bata Chowk, Nalbari - PCBA",15-07-2024 02:00:00,26.446912,91.439057,OZONE,18,66,43
India,Assam,Silchar,"Tarapur, Silchar - PCBA",15-07-2024 02:00:00,24.82827,92.79525,NH3,1,1,1
India,Assam,Silchar,"Tarapur, Silchar - PCBA",15-07-2024 02:00:00,24.82827,92.79525,SO2,4,12,6
India,Assam,Sivasagar,"Girls College, Sivasagar - PCBA",15-07-2024 02:00:00,26.987634,94.636574,NH3,1,3,2
India,Assam,Sivasagar,"Girls College, Sivasagar - PCBA",15-07-2024 02:00:00,26.987634,94.636574,SO2,2,34,7
India,Assam,Sivasagar,"Girls College, Sivasagar - PCBA",15-07-2024 02:00:00,26.987634,94.636574,CO,12,18,14
India,Bihar,Araria,"Kharahiya Basti, Araria - BSPCB",15-07-2024 02:00:00,26.146529,87.454184,PM2.5,NA,NA,NA
India,Bihar,Araria,"Kharahiya Basti, Araria - BSPCB",15-07-2024 02:00:00,26.146529,87.454184,NH3,5,6,5
India,Bihar,Aurangabad,"Gurdeo Nagar, Aurangabad - BSPCB",15-07-2024 02:00:00,24.75746,84.366208,PM2.5,NA,NA,NA
India,Bihar,Bettiah,"Kamalnath Nagar, Bettiah - BSPCB",15-07-2024 02:00:00,26.80365,84.51954,PM2.5,NA,NA,NA
India,Bihar,Bettiah,"Kamalnath Nagar, Bettiah - BSPCB",15-07-2024 02:00:00,26.80365,84.51954,OZONE,1,15,9
India,Bihar,Bhagalpur,"DM Office_Kachari Chowk, Bhagalpur - BSPCB",15-07-2024 02:00:00,25.251013,86.989001,PM10,26,81,58
India,Bihar,Bhagalpur,"Mayaganj, Bhagalpur - BSPCB",15-07-2024 02:00:00,25.265194,87.012947,PM2.5,47,318,95
India,Bihar,Bhagalpur,"Mayaganj, Bhagalpur - BSPCB",15-07-2024 02:00:00,25.265194,87.012947,NO2,6,7,7
India,Bihar,Bhagalpur,"Mayaganj, Bhagalpur - BSPCB",15-07-2024 02:00:00,25.265194,87.012947,SO2,32,34,32
India,Bihar,Gaya,"Kareemganj, Gaya - BSPCB",15-07-2024 02:00:00,24.792403,84.992416,PM2.5,NA,NA,NA
India,Bihar,Gaya,"Kareemganj, Gaya - BSPCB",15-07-2024 02:00:00,24.792403,84.992416,CO,30,54,44
India,Bihar,Hajipur,"Industrial Area, Hajipur - BSPCB",15-07-2024 02:00:00,25.697189,85.245900,PM2.5,79,162,110
India,Bihar,Hajipur,"Industrial Area, Hajipur - BSPCB",15-07-2024 02:00:00,25.697189,85.245900,CO,20,30,22
India,Bihar,Hajipur,"Industrial Area, Hajipur - BSPCB",15-07-2024 02:00:00,25.697189,85.245900,OZONE,9,24,13
India,Bihar,Katihar,"Mirchaibari, Katihar - BSPCB",15-07-2024 02:00:00,25.560083,87.553265,SO2,8,13,11
India,Bihar,Kishanganj,"SDM Office_Khagra, Kishanganj - BSPCB",15-07-2024 02:00:00,26.0881305,87.93840336,NH3,NA,NA,NA
India,Bihar,Kishanganj,"SDM Office_Khagra, Kishanganj - BSPCB",15-07-2024 02:00:00,26.0881305,87.93840336,OZONE,NA,NA,NA
India,Bihar,Munger,"Town Hall, Munger - BSPCB",15-07-2024 02:00:00,25.376776,86.471523,SO2,16,36,21
India,Bihar,Munger,"Town Hall, Munger - BSPCB",15-07-2024 02:00:00,25.376776,86.471523,CO,24,39,30
India,Bihar,Munger,"Town Hall, Munger - BSPCB",15-07-2024 02:00:00,25.376776,86.471523,OZONE,1,20,4
India,Bihar,Muzaffarpur,"Buddha Colony, Muzaffarpur - BSPCB",15-07-2024 02:00:00,26.11442,85.39813,SO2,7,11,9
India,Bihar,Muzaffarpur,"MIT-Daudpur Kothi, Muzaffarpur - BSPCB",15-07-2024 02:00:00,26.1403345,85.3650192,PM2.5,2,133,38
India,Bihar,Patna,"DRM Office Danapur, Patna - BSPCB",15-07-2024 02:00:00,25.586562,85.043586,NH3,2,3,3
India,Bihar,Patna,"DRM Office Danapur, Patna - BSPCB",15-07-2024 02:00:00,25.586562,85.043586,OZONE,3,28,15
India,Bihar,Patna,"Muradpur, Patna - BSPCB",15-07-2024 02:00:00,25.619651,85.147382,PM10,66,500,130
India,Bihar,Patna,"Rajbansi Nagar, Patna - BSPCB",15-07-2024 02:00:00,25.599486,85.113666,NO2,4,13,8
India,Bihar,Patna,"Samanpura, Patna - BSPCB",15-07-2024 02:00:00,25.596727,85.085624,PM2.5,78,160,113
India,Bihar,Purnia,"Mariam Nagar, Purnia - BSPCB",15-07-2024 02:00:00,25.366336,87.117468,PM2.5,7,70,33
India,Bihar,Purnia,"Mariam Nagar, Purnia - BSPCB",15-07-2024 02:00:00,25.366336,87.117468,CO,8,76,54
India,Bihar,Rajgir,"Dangi Tola, Rajgir - BSPCB",15-07-2024 02:00:00,25.03280,85.41948,NH3,1,2,2
India,Bihar,Rajgir,"Dangi Tola, Rajgir - BSPCB",15-07-2024 02:00:00,25.03280,85.41948,SO2,4,4,4
India,Bihar,Saharsa,"Police Line, Saharsa - BSPCB",15-07-2024 02:00:00,25.892357,86.590325,NO2,5,9,7
India,Bihar,Samastipur,"DM Office_Kasipur, Samastipur - BSPCB",15-07-2024 02:00:00,25.859655,85.77944,NH3,2,2,2
India,Bihar,Sasaram,"Dada Peer, Sasaram - BSPCB",15-07-2024 02:00:00,24.952822,84.002396,PM10,8,89,30
India,Bihar,Sasaram,"Dada Peer, Sasaram - BSPCB",15-07-2024 02:00:00,24.952822,84.002396,NH3,2,3,2
India,Chandigarh,Chandigarh,"Sector-25, Chandigarh - CPCC",15-07-2024 02:00:00,30.751462,76.762879,NO2,11,33,18
India,Chandigarh,Chandigarh,"Sector-53, Chandigarh - CPCC",15-07-2024 02:00:00,30.719859,76.738637,PM10,50,117,85
India,Chandigarh,Chandigarh,"Sector-53, Chandigarh - CPCC",15-07-2024 02:00:00,30.719859,76.738637,NO2,11,105,31
India,Chhattisgarh,Bhilai,"32Bungalows, Bhilai - CECB",15-07-2024 02:00:00,21.194815,81.314770,PM10,9,29,19
India,Chhattisgarh,Bhilai,"Civic Center, Bhilai - Bhilai Steel Plant",15-07-2024 02:00:00,21.185571,81.343175,NO2,7,8,8
India,Chhattisgarh,Bhilai,"Civic Center, Bhilai - Bhilai Steel Plant",15-07-2024 02:00:00,21.185571,81.343175,NH3,3,4,4
India,Chhattisgarh,Bhilai,"Civic Center, Bhilai - Bhilai Steel Plant",15-07-2024 02:00:00,21.185571,81.343175,CO,26,56,43
India,Chhattisgarh,Bhilai,"Civic Center, Bhilai - Bhilai Steel Plant",15-07-2024 02:00:00,21.185571,81.343175,OZONE,8,24,11
India,Chhattisgarh,Bhilai,"Hathkhoj, Bhilai - CECB",15-07-2024 02:00:00,21.224231,81.408350,PM10,13,68,36
India,Chhattisgarh,Bhilai,"Hathkhoj, Bhilai - CECB",15-07-2024 02:00:00,21.224231,81.408350,NO2,7,39,18
India,Chhattisgarh,Chhal,"Nawapara SECL Colony, Chhal - CECB",15-07-2024 02:00:00,22.118125,83.140608,PM2.5,12,29,18
India,Chhattisgarh,Kunjemura,"OP Jindal School, Kunjemura - CECB",15-07-2024 02:00:00,22.126650,83.483212,NO2,6,41,18
India,Chhattisgarh,Kunjemura,"OP Jindal School, Kunjemura - CECB",15-07-2024 02:00:00,22.126650,83.483212,OZONE,8,22,12
India,Chhattisgarh,Raipur,"AIIMS, Raipur - CECB",15-07-2024 02:00:00,21.258815,81.578979,CO,18,34,26
India,Chhattisgarh,Raipur,"Siltara Phase-II, Raipur - CECB",15-07-2024 02:00:00,21.371751,81.664929,NO2,9,23,12
India,Chhattisgarh,Raipur,"Siltara Phase-II, Raipur - CECB",15-07-2024 02:00:00,21.371751,81.664929,CO,10,35,10
India,Chhattisgarh,Tumidih,"OP Jindal Industrial Park, Tumidih - CECB",15-07-2024 02:00:00,22.06631475,83.33820077,NO2,NA,NA,NA
India,Chhattisgarh,Tumidih,"OP Jindal Industrial Park, Tumidih - CECB",15-07-2024 02:00:00,22.06631475,83.33820077,CO,NA,NA,NA
India,Delhi,Delhi,"Alipur, Delhi - DPCC",15-07-2024 02:00:00,28.815329,77.153010,PM10,89,155,114
India,Delhi,Delhi,"Alipur, Delhi - DPCC",15-07-2024 02:00:00,28.815329,77.153010,OZONE,2,67,38
India,Delhi,Delhi,"Anand Vihar, Delhi - DPCC",15-07-2024 02:00:00,28.647622,77.3158090,PM2.5,35,260,112
India,Delhi,Delhi,"Anand Vihar, Delhi - DPCC",15-07-2024 02:00:00,28.647622,77.3158090,SO2,21,22,21
India,Delhi,Delhi,"Anand Vihar, Delhi - DPCC",15-07-2024 02:00:00,28.647622,77.3158090,CO,22,49,32
India,Delhi,Delhi,"Aya Nagar, Delhi - IMD",15-07-2024 02:00:00,28.4706914,77.1099364,NO2,1,31,13
India,Delhi,Delhi,"CRRI Mathura Road, Delhi - IMD",15-07-2024 02:00:00,28.5512005,77.2735737,PM2.5,NA,NA,NA
India,Delhi,Delhi,"DTU, Delhi - CPCB",15-07-2024 02:00:00,28.7500499,77.1112615,NH3,16,21,18
India,Delhi,Delhi,"Dwarka-Sector 8, Delhi - DPCC ",15-07-2024 02:00:00,28.5710274,77.0719006,PM2.5,65,123,88
India,Delhi,Delhi,"Dwarka-Sector 8, Delhi - DPCC ",15-07-2024 02:00:00,28.5710274,77.0719006,NH3,8,10,9
India,Delhi,Delhi,"Dwarka-Sector 8, Delhi - DPCC ",15-07-2024 02:00:00,28.5710274,77.0719006,CO,50,102,72
India,Delhi,Delhi,"IGI Airport (T3), Delhi - IMD",15-07-2024 02:00:00,28.5627763,77.1180053,PM2.5,46,128,80
India,Delhi,Delhi,"IGI Airport (T3), Delhi - IMD",15-07-2024 02:00:00,28.5627763,77.1180053,PM10,78,130,100
India,Delhi,Delhi,"IGI Airport (T3), Delhi - IMD",15-07-2024 02:00:00,28.5627763,77.1180053,OZONE,2,38,14
India,Delhi,Delhi,"ITO, Delhi - CPCB",15-07-2024 02:00:00,28.628624,77.241060,PM2.5,52,173,79
India,Delhi,Delhi,"ITO, Delhi - CPCB",15-07-2024 02:00:00,28.628624,77.241060,CO,22,62,47
India,Delhi,Delhi,"Jawaharlal Nehru Stadium, Delhi - DPCC",15-07-2024 02:00:00,28.580280,77.233829,CO,38,72,57
India,Delhi,Delhi,"Lodhi Road, Delhi - IMD",15-07-2024 02:00:00,28.5918245,77.2273074,NO2,4,9,6
India,Delhi,Delhi,"Major Dhyan Chand National Stadium, Delhi - DPCC",15-07-2024 02:00:00,28.611281,77.237738,PM2.5,60,127,80
India,Delhi,Delhi,"Mandir Marg, Delhi - DPCC",15-07-2024 02:00:00,28.636429,77.201067,SO2,4,21,11
India,Delhi,Delhi,"Mandir Marg, Delhi - DPCC",15-07-2024 02:00:00,28.636429,77.201067,OZONE,10,64,35
India,Delhi,Delhi,"Mundka, Delhi - DPCC",15-07-2024 02:00:00,28.684678,77.076574,SO2,10,15,13
India,Delhi,Delhi,"Mundka, Delhi - DPCC",15-07-2024 02:00:00,28.684678,77.076574,OZONE,62,92,76
India,Delhi,Delhi,"NSIT Dwarka, Delhi - CPCB",15-07-2024 02:00:00,28.60909,77.0325413,NH3,10,10,10
India,Delhi,Delhi,"NSIT Dwarka, Delhi - CPCB",15-07-2024 02:00:00,28.60909,77.0325413,SO2,12,23,15
India,Delhi,Delhi,"NSIT Dwarka, Delhi - CPCB",15-07-2024 02:00:00,28.60909,77.0325413,OZONE,7,150,79
India,Delhi,Delhi,"Najafgarh, Delhi - DPCC",15-07-2024 02:00:00,28.570173,76.933762,NH3,6,10,8
India,Delhi,Delhi,"Najafgarh, Delhi - DPCC",15-07-2024 02:00:00,28.570173,76.933762,SO2,7,22,14
India,Delhi,Delhi,"North Campus, DU, Delhi - IMD",15-07-2024 02:00:00,28.6573814,77.1585447,PM2.5,50,226,102
India,Delhi,Delhi,"North Campus, DU, Delhi - IMD",15-07-2024 02:00:00,28.6573814,77.1585447,OZONE,8,52,23
India,Delhi,Delhi,"Okhla Phase-2, Delhi - DPCC",15-07-2024 02:00:00,28.530785,77.271255,NO2,NA,NA,NA
India,Delhi,Delhi,"Okhla Phase-2, Delhi - DPCC",15-07-2024 02:00:00,28.530785,77.271255,OZONE,23,71,42
India,Delhi,Delhi,"Patparganj, Delhi - DPCC",15-07-2024 02:00:00,28.623763,77.287209,PM2.5,58,233,83
India,Delhi,Delhi,"Patparganj, Delhi - DPCC",15-07-2024 02:00:00,28.623763,77.287209,NO2,12,89,41
India,Delhi,Delhi,"Patparganj, Delhi - DPCC",15-07-2024 02:00:00,28.623763,77.287209,CO,12,34,25
India,Delhi,Delhi,"Punjabi Bagh, Delhi - DPCC",15-07-2024 02:00:00,28.674045,77.131023,PM2.5,50,273,126
India,Delhi,Delhi,"Punjabi Bagh, Delhi - DPCC",15-07-2024 02:00:00,28.674045,77.131023,PM10,84,152,126
India,Delhi,Delhi,"Pusa, Delhi - DPCC",15-07-2024 02:00:00,28.639652,77.146275,PM2.5,52,170,83
India,Delhi,Delhi,"Pusa, Delhi - DPCC",15-07-2024 02:00:00,28.639652,77.146275,PM10,85,184,131
India,Delhi,Delhi,"Pusa, Delhi - DPCC",15-07-2024 02:00:00,28.639652,77.146275,SO2,1,4,2
India,Delhi,Delhi,"Pusa, Delhi - IMD",15-07-2024 02:00:00,28.636110,77.173332,PM2.5,22,172,80
India,Delhi,Delhi,"R K Puram, Delhi - DPCC",15-07-2024 02:00:00,28.563262,77.186937,PM2.5,57,302,128
India,Delhi,Delhi,"Rohini, Delhi - DPCC",15-07-2024 02:00:00,28.732528,77.119920,PM2.5,45,133,95
India,Delhi,Delhi,"Rohini, Delhi - DPCC",15-07-2024 02:00:00,28.732528,77.119920,PM10,97,194,144
India,Delhi,Delhi,"Shadipur, Delhi - CPCB",15-07-2024 02:00:00,28.6514781,77.1473105,PM10,69,425,118
India,Delhi,Delhi,"Shadipur, Delhi - CPCB",15-07-2024 02:00:00,28.6514781,77.1473105,NH3,8,8,8
India,Delhi,Delhi,"Shadipur, Delhi - CPCB",15-07-2024 02:00:00,28.6514781,77.1473105,SO2,5,28,17
India,Delhi,Delhi,"Sirifort, Delhi - CPCB",15-07-2024 02:00:00,28.5504249,77.2159377,PM2.5,48,316,82
India,Delhi,Delhi,"Sirifort, Delhi - CPCB",15-07-2024 02:00:00,28.5504249,77.2159377,OZONE,7,48,17
India,Delhi,Delhi,"Sonia Vihar, Delhi - DPCC",15-07-2024 02:00:00,28.710508,77.249485,PM2.5,87,388,156
India,Delhi,Delhi,"Vivek Vihar, Delhi - DPCC",15-07-2024 02:00:00,28.672342,77.315260,PM10,76,175,121
India,Delhi,Delhi,"Vivek Vihar, Delhi - DPCC",15-07-2024 02:00:00,28.672342,77.315260,CO,45,76,62
India,Delhi,Delhi,"Wazirpur, Delhi - DPCC",15-07-2024 02:00:00,28.699793,77.165453,NO2,41,102,70
India,Gujarat,Ahmedabad,"Chandkheda, Ahmedabad - IITM",15-07-2024 02:00:00,23.107969,72.574648,NH3,5,9,8
India,Gujarat,Ahmedabad,"Maninagar, Ahmedabad - GPCB",15-07-2024 02:00:00,23.002657,72.591912,NO2,18,53,25
India,Gujarat,Ahmedabad,"Maninagar, Ahmedabad - GPCB",15-07-2024 02:00:00,23.002657,72.591912,SO2,19,23,22
India,Gujarat,Ahmedabad,"Raikhad, Ahmedabad - IITM",15-07-2024 02:00:00,23.020509,72.579261,PM10,70,126,95
India,Gujarat,Ahmedabad,"Rakhial, Ahmedabad - IITM",15-07-2024 02:00:00,23.016834,72.625775,PM10,53,107,76
India,Gujarat,Ahmedabad,"SVPI Airport Hansol, Ahmedabad - IITM",15-07-2024 02:00:00,23.076793,72.627874,NO2,49,75,60
India,Gujarat,Ahmedabad,"SVPI Airport Hansol, Ahmedabad - IITM",15-07-2024 02:00:00,23.076793,72.627874,SO2,8,15,11
India,Gujarat,Ankleshwar,"GIDC, Ankleshwar - GPCB",15-07-2024 02:00:00,21.613267,73.010555,PM2.5,19,60,40
India,Gujarat,Ankleshwar,"GIDC, Ankleshwar - GPCB",15-07-2024 02:00:00,21.613267,73.010555,CO,62,81,72
India,Gujarat,Gandhinagar,"GIFT City, Gandhinagar - IITM",15-07-2024 02:00:00,23.163798,72.677768,NH3,2,4,3
India,Gujarat,Gandhinagar,"Sector-10, Gandhinagar - GPCB",15-07-2024 02:00:00,23.221714,72.654328,CO,26,38,33
India,Gujarat,Vapi,"Phase-1 GIDC, Vapi - GPCB",15-07-2024 02:00:00,20.362421,72.918013,NH3,10,10,10
India,Gujarat,Vapi,"Phase-1 GIDC, Vapi - GPCB",15-07-2024 02:00:00,20.362421,72.918013,SO2,48,50,49
India,Haryana,Bahadurgarh,"Arya Nagar, Bahadurgarh - HSPCB",15-07-2024 02:00:00,28.6701,76.9254,OZONE,32,41,37
India,Haryana,Ballabgarh,"Nathu Colony, Ballabgarh - HSPCB",15-07-2024 02:00:00,28.3419248,77.319699,NH3,1,2,2
India,Haryana,Bhiwani,"H.B. Colony, Bhiwani - HSPCB",15-07-2024 02:00:00,28.806223,76.141105,PM2.5,45,81,59
India,Haryana,Charkhi Dadri,"Mini Secretariat, Charkhi Dadri - HSPCB",15-07-2024 02:00:00,28.593883,76.270653,NH3,6,8,7
India,Haryana,Charkhi Dadri,"Mini Secretariat, Charkhi Dadri - HSPCB",15-07-2024 02:00:00,28.593883,76.270653,SO2,16,35,19
India,Haryana,Dharuhera,"Municipal Corporation Office, Dharuhera -  HSPCB",15-07-2024 02:00:00,28.206800,76.799700,NO2,15,53,40
India,Haryana,Dharuhera,"Municipal Corporation Office, Dharuhera -  HSPCB",15-07-2024 02:00:00,28.206800,76.799700,CO,24,122,31
India,Haryana,Faridabad,"New Industrial Town, Faridabad - HSPCB",15-07-2024 02:00:00,28.39072,77.30059,CO,10,30,20
India,Haryana,Faridabad,"Sector 11, Faridabad - HSPCB",15-07-2024 02:00:00,28.376058,77.315741,PM10,101,110,106
India,Haryana,Faridabad,"Sector 11, Faridabad - HSPCB",15-07-2024 02:00:00,28.376058,77.315741,CO,48,52,50
India,Haryana,Faridabad,"Sector 30, Faridabad - HSPCB",15-07-2024 02:00:00,28.4417,77.3217,NO2,16,16,16
India,Haryana,Faridabad,"Sector 30, Faridabad - HSPCB",15-07-2024 02:00:00,28.4417,77.3217,NH3,3,3,3
India,Haryana,Faridabad,"Sector 30, Faridabad - HSPCB",15-07-2024 02:00:00,28.4417,77.3217,SO2,3,3,3
India,Haryana,Faridabad,"Sector- 16A, Faridabad - HSPCB",15-07-2024 02:00:00,28.4088421,77.3099081,SO2,21,27,26
India,Haryana,Gurugram,"Sector-51, Gurugram - HSPCB",15-07-2024 02:00:00,28.4227,77.0667,NH3,6,14,9
India,Haryana,Gurugram,"Sector-51, Gurugram - HSPCB",15-07-2024 02:00:00,28.4227,77.0667,CO,33,47,40
India,Haryana,Gurugram,"Teri Gram, Gurugram - HSPCB",15-07-2024 02:00:00,28.4275,77.1465,CO,58,90,76
India,Haryana,Gurugram,"Vikas Sadan, Gurugram - HSPCB",15-07-2024 02:00:00,28.4501238,77.0263051,NO2,5,25,14
India,Haryana,Hisar,"Urban Estate-II, Hisar - HSPCB",15-07-2024 02:00:00,29.140560,75.744941,NH3,4,4,4
India,Haryana,Hisar,"Urban Estate-II, Hisar - HSPCB",15-07-2024 02:00:00,29.140560,75.744941,CO,26,42,32
India,Haryana,Jind,"Police Lines, Jind - HSPCB",15-07-2024 02:00:00,29.307814,76.337619,SO2,1,5,2
India,Haryana,Jind,"Police Lines, Jind - HSPCB",15-07-2024 02:00:00,29.307814,76.337619,OZONE,63,112,90
India,Haryana,Karnal,"Sector-12, Karnal - HSPCB",15-07-2024 02:00:00,29.695300,77.002700,OZONE,22,119,44
India,Haryana,Mandikhera,"General Hospital, Mandikhera - HSPCB",15-07-2024 02:00:00,27.9002,76.9938,PM10,NA,NA,NA
India,Haryana,Manesar,"Sector-2 IMT, Manesar - HSPCB",15-07-2024 02:00:00,28.360699,76.936090,PM2.5,32,113,66
India,Haryana,Narnaul,"Shastri Nagar, Narnaul - HSPCB",15-07-2024 02:00:00,28.060249,76.113115,NH3,5,10,8
India,Haryana,Narnaul,"Shastri Nagar, Narnaul - HSPCB",15-07-2024 02:00:00,28.060249,76.113115,CO,8,24,13
India,Haryana,Narnaul,"Shastri Nagar, Narnaul - HSPCB",15-07-2024 02:00:00,28.060249,76.113115,OZONE,46,67,57
India,Haryana,Palwal,"Shyam Nagar, Palwal - HSPCB",15-07-2024 02:00:00,28.1485564,77.3320667,NO2,23,24,24
India,Haryana,Palwal,"Shyam Nagar, Palwal - HSPCB",15-07-2024 02:00:00,28.1485564,77.3320667,NH3,8,9,9
India,Haryana,Rohtak,"MD University, Rohtak - HSPCB",15-07-2024 02:00:00,28.52123,76.37138,OZONE,45,55,49
India,Haryana,Yamuna Nagar,"Gobind Pura, Yamuna Nagar - HSPCB",15-07-2024 02:00:00,30.1480566,77.2893471,NO2,NA,NA,NA
India,Haryana,Yamuna Nagar,"Gobind Pura, Yamuna Nagar - HSPCB",15-07-2024 02:00:00,30.1480566,77.2893471,SO2,NA,NA,NA
India,Haryana,Yamuna Nagar,"Gobind Pura, Yamuna Nagar - HSPCB",15-07-2024 02:00:00,30.1480566,77.2893471,CO,10,32,18
India,Haryana,Yamuna Nagar,"Gobind Pura, Yamuna Nagar - HSPCB",15-07-2024 02:00:00,30.1480566,77.2893471,OZONE,31,71,31
India,Jammu_and_Kashmir,Srinagar,"Rajbagh, Srinagar - JKSPCB",15-07-2024 02:00:00,34.066206,74.819820,NO2,5,6,6
India,Jammu_and_Kashmir,Srinagar,"Rajbagh, Srinagar - JKSPCB",15-07-2024 02:00:00,34.066206,74.819820,NH3,1,1,1
India,Karnataka,Bengaluru,"BTM Layout, Bengaluru - CPCB",15-07-2024 02:00:00,12.9135218,77.5950804,PM2.5,17,21,18
India,Karnataka,Bengaluru,"BTM Layout, Bengaluru - CPCB",15-07-2024 02:00:00,12.9135218,77.5950804,NO2,NA,NA,NA
India,Karnataka,Bengaluru,"BTM Layout, Bengaluru - CPCB",15-07-2024 02:00:00,12.9135218,77.5950804,CO,20,20,20
India,Karnataka,Bengaluru,"Bapuji Nagar, Bengaluru - KSPCB",15-07-2024 02:00:00,12.951913,77.539784,PM10,8,54,30
India,Karnataka,Bengaluru,"Bapuji Nagar, Bengaluru - KSPCB",15-07-2024 02:00:00,12.951913,77.539784,NH3,1,1,1
India,Karnataka,Bengaluru,"City Railway Station, Bengaluru - KSPCB",15-07-2024 02:00:00,12.9756843,77.5660749,SO2,21,21,21
India,Karnataka,Bengaluru,"Hebbal, Bengaluru - KSPCB",15-07-2024 02:00:00,13.029152,77.585901,NH3,1,1,1
India,Karnataka,Bengaluru,"Hebbal, Bengaluru - KSPCB",15-07-2024 02:00:00,13.029152,77.585901,CO,14,22,19
India,Karnataka,Bengaluru,"Hombegowda Nagar, Bengaluru - KSPCB",15-07-2024 02:00:00,12.938539,77.590100,NO2,7,12,10
India,Karnataka,Bengaluru,"Hombegowda Nagar, Bengaluru - KSPCB",15-07-2024 02:00:00,12.938539,77.590100,NH3,1,1,1
India,Karnataka,Bengaluru,"Jayanagar 5th Block, Bengaluru - KSPCB",15-07-2024 02:00:00,12.920984,77.584908,SO2,13,18,16
India,Karnataka,Bengaluru,"Jigani, Bengaluru - KSPCB",15-07-2024 02:00:00,12.7816279,77.6299145,PM2.5,36,39,37
India,Karnataka,Bengaluru,"Jigani, Bengaluru - KSPCB",15-07-2024 02:00:00,12.7816279,77.6299145,PM10,26,44,35
India,Karnataka,Bengaluru,"Jigani, Bengaluru - KSPCB",15-07-2024 02:00:00,12.7816279,77.6299145,CO,25,40,28
India,Karnataka,Bengaluru,"Jigani, Bengaluru - KSPCB",15-07-2024 02:00:00,12.7816279,77.6299145,OZONE,28,30,28
India,Karnataka,Bengaluru,"Kasturi Nagar, Bengaluru - KSPCB",15-07-2024 02:00:00,13.003872,77.664217,PM10,35,42,37
India,Karnataka,Bengaluru,"Kasturi Nagar, Bengaluru - KSPCB",15-07-2024 02:00:00,13.003872,77.664217,SO2,10,10,10
India,Karnataka,Bengaluru,"Kasturi Nagar, Bengaluru - KSPCB",15-07-2024 02:00:00,13.003872,77.664217,CO,24,26,26
India,Karnataka,Bengaluru,"Peenya, Bengaluru - CPCB",15-07-2024 02:00:00,13.0270199,77.494094,CO,NA,NA,NA
India,Karnataka,Bengaluru,"RVCE-Mailasandra, Bengaluru - KSPCB",15-07-2024 02:00:00,12.921418,77.502466,SO2,8,9,8
India,Karnataka,Bengaluru,"RVCE-Mailasandra, Bengaluru - KSPCB",15-07-2024 02:00:00,12.921418,77.502466,OZONE,39,39,39
India,Karnataka,Bengaluru,"Silk Board, Bengaluru - KSPCB",15-07-2024 02:00:00,12.917348,77.622813,NH3,1,1,1
India,Karnataka,Bengaluru,"Silk Board, Bengaluru - KSPCB",15-07-2024 02:00:00,12.917348,77.622813,SO2,9,12,10
India,Karnataka,Bidar,"Naubad, Bidar - KSPCB",15-07-2024 02:00:00,17.930306,77.482194,PM2.5,NA,NA,NA
India,Karnataka,Chamarajanagar,"Urban, Chamarajanagar - KSPCB",15-07-2024 02:00:00,11.55358,76.55521,PM2.5,20,43,34
India,Karnataka,Chamarajanagar,"Urban, Chamarajanagar - KSPCB",15-07-2024 02:00:00,11.55358,76.55521,OZONE,14,36,24
India,Karnataka,Chikkaballapur,"Chikkaballapur Rural, Chikkaballapur - KSPCB",15-07-2024 02:00:00,13.428828,77.731418,NO2,4,7,6
India,Karnataka,Chikkaballapur,"Chikkaballapur Rural, Chikkaballapur - KSPCB",15-07-2024 02:00:00,13.428828,77.731418,SO2,12,16,14
India,Karnataka,Chikkaballapur,"Chikkaballapur Rural, Chikkaballapur - KSPCB",15-07-2024 02:00:00,13.428828,77.731418,CO,10,18,16
India,Karnataka,Chikkaballapur,"Chikkaballapur Rural, Chikkaballapur - KSPCB",15-07-2024 02:00:00,13.428828,77.731418,OZONE,18,22,20
India,Karnataka,Chikkamagaluru,"Kalyana Nagara, Chikkamagaluru - KSPCB",15-07-2024 02:00:00,13.328028,75.797056,PM2.5,11,88,32
India,Karnataka,Chikkamagaluru,"Kalyana Nagara, Chikkamagaluru - KSPCB",15-07-2024 02:00:00,13.328028,75.797056,PM10,20,118,46
India,Karnataka,Chikkamagaluru,"Kalyana Nagara, Chikkamagaluru - KSPCB",15-07-2024 02:00:00,13.328028,75.797056,SO2,1,2,2
India,Karnataka,Davanagere,"Devaraj Urs Badavane, Davanagere - KSPCB",15-07-2024 02:00:00,14.475800,75.905200,PM2.5,4,27,13
India,Karnataka,Davanagere,"Devaraj Urs Badavane, Davanagere - KSPCB",15-07-2024 02:00:00,14.475800,75.905200,NH3,1,1,1
India,Karnataka,Dharwad,"Kalabhavan, Dharwad - KSPCB",15-07-2024 02:00:00,15.459706,75.008381,PM2.5,3,301,45
India,Karnataka,Dharwad,"Kalabhavan, Dharwad - KSPCB",15-07-2024 02:00:00,15.459706,75.008381,NO2,7,16,11
India,Karnataka,Dharwad,"Kalabhavan, Dharwad - KSPCB",15-07-2024 02:00:00,15.459706,75.008381,OZONE,13,26,18
India,Karnataka,Gadag,"Panchal Nagar, Gadag - KSPCB",15-07-2024 02:00:00,15.411456,75.638133,PM2.5,2,13,6
India,Karnataka,Gadag,"Panchal Nagar, Gadag - KSPCB",15-07-2024 02:00:00,15.411456,75.638133,SO2,12,22,15
India,Karnataka,Haveri,"Ashwini Nagar, Haveri - KSPCB",15-07-2024 02:00:00,14.791800,75.389600,NH3,NA,NA,NA
India,Karnataka,Haveri,"Ashwini Nagar, Haveri - KSPCB",15-07-2024 02:00:00,14.791800,75.389600,CO,1,38,31
India,Karnataka,Hubballi,"Lingaraj Nagar, Hubballi - KSPCB",15-07-2024 02:00:00,15.3714823,75.1160168,NO2,7,14,11
India,Karnataka,Kalaburagi,"Lal Bahadur Shastri Nagar, Kalaburagi - KSPCB",15-07-2024 02:00:00,17.321993,76.822628,PM2.5,23,70,36
India,Karnataka,Kalaburagi,"Lal Bahadur Shastri Nagar, Kalaburagi - KSPCB",15-07-2024 02:00:00,17.321993,76.822628,NO2,10,12,11
India,Karnataka,Kalaburagi,"Lal Bahadur Shastri Nagar, Kalaburagi - KSPCB",15-07-2024 02:00:00,17.321993,76.822628,NH3,2,3,2
India,Karnataka,Kolar,"Tamaka Ind. Area, Kolar - KSPCB",15-07-2024 02:00:00,13.1276288,78.1570122,NH3,NA,NA,NA
India,Karnataka,Kolar,"Tamaka Ind. Area, Kolar - KSPCB",15-07-2024 02:00:00,13.1276288,78.1570122,OZONE,21,32,24
India,Karnataka,Koppal,"Diwator Nagar, Koppal - KSPCB",15-07-2024 02:00:00,15.347630,76.181767,PM2.5,NA,NA,NA
India,Karnataka,Koppal,"Diwator Nagar, Koppal - KSPCB",15-07-2024 02:00:00,15.347630,76.181767,PM10,2,9,5
India,Karnataka,Koppal,"Diwator Nagar, Koppal - KSPCB",15-07-2024 02:00:00,15.347630,76.181767,NH3,5,9,7
India,Karnataka,Koppal,"Diwator Nagar, Koppal - KSPCB",15-07-2024 02:00:00,15.347630,76.181767,SO2,30,39,31
India,Karnataka,Koppal,"Diwator Nagar, Koppal - KSPCB",15-07-2024 02:00:00,15.347630,76.181767,CO,3,4,4
India,Karnataka,Madikeri,"Stuart Hill, Madikeri - KSPCB",15-07-2024 02:00:00,12.415911,75.735050,NH3,NA,NA,NA
India,Karnataka,Mysuru,"Hebbal 1st Stage, Mysuru - KSPCB",15-07-2024 02:00:00,12.21041,76.37376,PM2.5,12,30,19
India,Karnataka,Raichur,"Haji Colony, Raichur - KSPCB",15-07-2024 02:00:00,16.208139,77.348417,PM10,12,40,25
India,Karnataka,Ramanagara,"Vijay Nagar, Ramanagara - KSPCB",15-07-2024 02:00:00,12.733409,77.298051,NH3,2,3,3
India,Karnataka,Ramanagara,"Vijay Nagar, Ramanagara - KSPCB",15-07-2024 02:00:00,12.733409,77.298051,OZONE,27,30,29
India,Karnataka,Shivamogga,"Vinoba Nagara, Shivamogga - KSPCB",15-07-2024 02:00:00,13.940000,75.555917,PM2.5,17,42,29
India,Karnataka,Shivamogga,"Vinoba Nagara, Shivamogga - KSPCB",15-07-2024 02:00:00,13.940000,75.555917,PM10,27,57,41
India,Karnataka,Shivamogga,"Vinoba Nagara, Shivamogga - KSPCB",15-07-2024 02:00:00,13.940000,75.555917,SO2,3,7,5
India,Karnataka,Udupi,"Brahmagiri, Udupi - KSPCB",15-07-2024 02:00:00,13.34194444,74.74694444,PM10,5,61,20
India,Karnataka,Udupi,"Brahmagiri, Udupi - KSPCB",15-07-2024 02:00:00,13.34194444,74.74694444,NH3,2,4,2
India,Karnataka,Vijayapura,"Ibrahimpur, Vijayapura - KSPCB",15-07-2024 02:00:00,16.802639,75.722694,PM2.5,26,31,30
India,Karnataka,Vijayapura,"Ibrahimpur, Vijayapura - KSPCB",15-07-2024 02:00:00,16.802639,75.722694,OZONE,13,16,15
India,Kerala,Eloor,"Udyogamandal, Eloor - Kerala PCB",15-07-2024 02:00:00,10.073232,76.302765,PM2.5,40,48,45
India,Kerala,Eloor,"Udyogamandal, Eloor - Kerala PCB",15-07-2024 02:00:00,10.073232,76.302765,SO2,1,2,1
India,Kerala,Eloor,"Udyogamandal, Eloor - Kerala PCB",15-07-2024 02:00:00,10.073232,76.302765,OZONE,10,11,10
India,Kerala,Kannur,"Thavakkara, Kannur - Kerala PCB",15-07-2024 02:00:00,11.875000,75.373200,CO,62,74,66
India,Kerala,Thiruvananthapuram,"Plammoodu, Thiruvananthapuram - Kerala PCB",15-07-2024 02:00:00,8.5149093,76.9435879,PM2.5,NA,NA,NA
India,Kerala,Thiruvananthapuram,"Plammoodu, Thiruvananthapuram - Kerala PCB",15-07-2024 02:00:00,8.5149093,76.9435879,PM10,1,27,15
India,Kerala,Thiruvananthapuram,"Plammoodu, Thiruvananthapuram - Kerala PCB",15-07-2024 02:00:00,8.5149093,76.9435879,OZONE,3,41,11
India,Madhya Pradesh,Bhopal,"Idgah Hills, Bhopal - MPPCB",15-07-2024 02:00:00,23.264759,77.381568,NH3,2,4,3
India,Madhya Pradesh,Bhopal,"Paryavaran Parisar, Bhopal - MPPCB",15-07-2024 02:00:00,23.210494,77.425409,PM2.5,8,52,29
India,Madhya Pradesh,Dewas,"Bhopal Chauraha, Dewas - MPPCB",15-07-2024 02:00:00,22.9682591,76.064118,PM2.5,12,46,32
India,Madhya Pradesh,Dewas,"Bhopal Chauraha, Dewas - MPPCB",15-07-2024 02:00:00,22.9682591,76.064118,PM10,22,64,46
India,Madhya Pradesh,Gwalior,"City Center, Gwalior - MPPCB",15-07-2024 02:00:00,26.203442,78.193251,NO2,19,30,23
India,Madhya Pradesh,Gwalior,"City Center, Gwalior - MPPCB",15-07-2024 02:00:00,26.203442,78.193251,OZONE,22,39,36
India,Madhya Pradesh,Gwalior,"Deen Dayal Nagar, Gwalior - MPPCB",15-07-2024 02:00:00,26.259242,78.216432,SO2,16,17,16
India,Madhya Pradesh,Gwalior,"Maharaj Bada, Gwalior - MPPCB",15-07-2024 02:00:00,26.200388,78.147714,NO2,9,27,16
India,Madhya Pradesh,Gwalior,"Maharaj Bada, Gwalior - MPPCB",15-07-2024 02:00:00,26.200388,78.147714,NH3,5,11,8
India,Madhya Pradesh,Gwalior,"Maharaj Bada, Gwalior - MPPCB",15-07-2024 02:00:00,26.200388,78.147714,CO,NA,NA,NA
India,Madhya Pradesh,Gwalior,"Phool Bagh, Gwalior - Mondelez Ind. Food",15-07-2024 02:00:00,26.210536,78.171,PM2.5,16,107,50
India,Madhya Pradesh,Indore,"Chhoti Gwaltoli, Indore - MPPCB",15-07-2024 02:00:00,22.4310,75.5213,NO2,37,84,51
India,Madhya Pradesh,Indore,"Chhoti Gwaltoli, Indore - MPPCB",15-07-2024 02:00:00,22.4310,75.5213,NH3,1,2,2
India,Madhya Pradesh,Indore,"Chhoti Gwaltoli, Indore - MPPCB",15-07-2024 02:00:00,22.4310,75.5213,CO,45,101,82
India,Madhya Pradesh,Indore,"Regional Park, Indore - IMC",15-07-2024 02:00:00,22.6780,75.8559,PM2.5,11,42,27
India,Madhya Pradesh,Indore,"Regional Park, Indore - IMC",15-07-2024 02:00:00,22.6780,75.8559,CO,18,24,20
India,Madhya Pradesh,Indore,"Regional Park, Indore - IMC",15-07-2024 02:00:00,22.6780,75.8559,OZONE,5,10,7
India,Madhya Pradesh,Indore,"Residency Area, Indore - IMC",15-07-2024 02:00:00,22.7084,75.8815,PM2.5,9,40,25
India,Madhya Pradesh,Jabalpur,"Gupteshwar, Jabalpur - JMC",15-07-2024 02:00:00,23.142888,79.916147,PM2.5,35,48,42
India,Madhya Pradesh,Jabalpur,"Marhatal, Jabalpur - MPPCB",15-07-2024 02:00:00,23.168606,79.932247,PM10,22,52,36
India,Madhya Pradesh,Jabalpur,"Marhatal, Jabalpur - MPPCB",15-07-2024 02:00:00,23.168606,79.932247,SO2,16,21,18
India,Madhya Pradesh,Jabalpur,"Marhatal, Jabalpur - MPPCB",15-07-2024 02:00:00,23.168606,79.932247,OZONE,7,41,26
India,Madhya Pradesh,Jabalpur,"Suhagi, Jabalpur - JMC",15-07-2024 02:00:00,23.218135,79.957770,CO,34,66,47
India,Madhya Pradesh,Katni,"Gole Bazar, Katni - MPPCB",15-07-2024 02:00:00,23.50016,80.23284,PM2.5,20,109,39
India,Madhya Pradesh,Katni,"Gole Bazar, Katni - MPPCB",15-07-2024 02:00:00,23.50016,80.23284,CO,18,28,24
India,Madhya Pradesh,Katni,"Gole Bazar, Katni - MPPCB",15-07-2024 02:00:00,23.50016,80.23284,OZONE,6,30,15
India,Madhya Pradesh,Maihar,"Sahilara, Maihar - KJS Cements",15-07-2024 02:00:00,24.2613009,80.7231783,CO,48,51,50
India,Madhya Pradesh,Ratlam,"Shasthri Nagar, Ratlam - IPCA Lab",15-07-2024 02:00:00,23.331731,75.045981,PM10,18,94,68
