country,state,city,station,last_update,latitude,longitude,pollutant_id,pollutant_min,pollutant_max,pollutant_avg
India,Andhra_Pradesh,Anantapur,"Gulzarpet, Anantapur - APPCB",26-01-2024 14:00:00,14.675886,77.593027,NH3,2,3,3
India,Andhra_Pradesh,Tirupati,"Tirumala, Tirupati - APPCB",26-01-2024 14:00:00,13.67,79.35,SO2,1,10,6
India,Andhra_Pradesh,Tirupati,"Vaikuntapuram, Tirupati - APPCB",26-01-2024 14:00:00,13.615387,79.409230,NH3,2,4,3
India,Andhra_Pradesh,Visakhapatnam,"GVM Corporation, Visakhapatnam - APPCB",26-01-2024 14:00:00,17.72,83.3,PM10,62,103,82
India,Andhra_Pradesh,Visakhapatnam,"GVM Corporation, Visakhapatnam - APPCB",26-01-2024 14:00:00,17.72,83.3,OZONE,13,51,24
India,Assam,Guwahati,"IITG, Guwahati - PCBA",26-01-2024 14:00:00,26.2028636,91.70046436,CO,NA,NA,NA
India,Assam,Guwahati,"LGBI Airport, Guwahati - PCBA",26-01-2024 14:00:00,26.10887,91.589544,PM2.5,130,346,286
India,Assam,Guwahati,"LGBI Airport, Guwahati - PCBA",26-01-2024 14:00:00,26.10887,91.589544,NO2,11,90,41
India,Assam,Guwahati,"LGBI Airport, Guwahati - PCBA",26-01-2024 14:00:00,26.10887,91.589544,SO2,9,20,14
India,Assam,Guwahati,"Pan Bazaar, Guwahati - PCBA",26-01-2024 14:00:00,26.187500,91.744194,OZONE,17,18,17
India,Assam,Guwahati,"Railway Colony, Guwahati - PCBA",26-01-2024 14:00:00,26.181742,91.78063,NO2,3,3,3
India,Assam,Guwahati,"Railway Colony, Guwahati - PCBA",26-01-2024 14:00:00,26.181742,91.78063,SO2,19,30,23
India,Assam,Silchar,"Tarapur, Silchar - PCBA",26-01-2024 14:00:00,24.82827,92.79525,SO2,NA,NA,NA
India,Assam,Silchar,"Tarapur, Silchar - PCBA",26-01-2024 14:00:00,24.82827,92.79525,OZONE,1,6,1
India,Bihar,Araria,"Kharahiya Basti, Araria - BSPCB",26-01-2024 14:00:00,26.146529,87.454184,SO2,11,17,14
India,Bihar,Araria,"Kharahiya Basti, Araria - BSPCB",26-01-2024 14:00:00,26.146529,87.454184,CO,12,30,23
India,Bihar,Arrah,"New DM Office, Arrah - BSPCB",26-01-2024 14:00:00,25.5626095,84.663264,OZONE,12,29,18
India,Bihar,Bhagalpur,"Mayaganj, Bhagalpur - BSPCB",26-01-2024 14:00:00,25.265194,87.012947,PM2.5,267,453,352
India,Bihar,Bhagalpur,"Mayaganj, Bhagalpur - BSPCB",26-01-2024 14:00:00,25.265194,87.012947,OZONE,11,52,26
India,Bihar,Bihar Sharif,"D M Colony, Bihar Sharif - BSPCB",26-01-2024 14:00:00,25.204762,85.514960,PM2.5,2,83,33
India,Bihar,Bihar Sharif,"D M Colony, Bihar Sharif - BSPCB",26-01-2024 14:00:00,25.204762,85.514960,CO,12,48,27
India,Bihar,Chhapra,"Darshan Nagar, Chhapra - BSPCB",26-01-2024 14:00:00,25.7808257,84.7446768,OZONE,1,2,1
India,Bihar,Gaya,"Collectorate, Gaya - BSPCB",26-01-2024 14:00:00,24.7955,84.9994,PM2.5,233,500,357
India,Bihar,Gaya,"Kareemganj, Gaya - BSPCB",26-01-2024 14:00:00,24.792403,84.992416,PM2.5,23,190,81
India,Bihar,Gaya,"SFTI Kusdihra, Gaya - BSPCB",26-01-2024 14:00:00,24.762518,84.982348,NO2,23,40,34
India,Bihar,Gaya,"SFTI Kusdihra, Gaya - BSPCB",26-01-2024 14:00:00,24.762518,84.982348,SO2,3,11,8
India,Bihar,Gaya,"SFTI Kusdihra, Gaya - BSPCB",26-01-2024 14:00:00,24.762518,84.982348,OZONE,9,56,24
India,Bihar,Hajipur,"Industrial Area, Hajipur - BSPCB",26-01-2024 14:00:00,25.697189,85.245900,SO2,5,8,6
India,Bihar,Katihar,"Mirchaibari, Katihar - BSPCB",26-01-2024 14:00:00,25.560083,87.553265,PM2.5,68,277,138
India,Bihar,Kishanganj,"SDM Office_Khagra, Kishanganj - BSPCB",26-01-2024 14:00:00,26.0881305,87.93840336,PM10,115,500,235
India,Bihar,Manguraha,"Forest Rest House, Manguraha - BSPCB",26-01-2024 14:00:00,27.308328,84.531742,NH3,NA,NA,NA
India,Bihar,Manguraha,"Forest Rest House, Manguraha - BSPCB",26-01-2024 14:00:00,27.308328,84.531742,OZONE,2,65,38
India,Bihar,Motihari,"Gandak Colony, Motihari - BSPCB",26-01-2024 14:00:00,26.63086,84.90051,NO2,60,98,77
India,Bihar,Motihari,"Gandak Colony, Motihari - BSPCB",26-01-2024 14:00:00,26.63086,84.90051,CO,70,102,86
India,Bihar,Muzaffarpur,"Buddha Colony, Muzaffarpur - BSPCB",26-01-2024 14:00:00,26.11442,85.39813,PM2.5,235,453,337
India,Bihar,Muzaffarpur,"MIT-Daudpur Kothi, Muzaffarpur - BSPCB",26-01-2024 14:00:00,26.1403345,85.3650192,PM2.5,NA,NA,NA
India,Bihar,Muzaffarpur,"Muzaffarpur Collectorate, Muzaffarpur - BSPCB",26-01-2024 14:00:00,26.1209,85.3647,NO2,5,11,9
India,Bihar,Patna,"IGSC Planetarium Complex, Patna - BSPCB",26-01-2024 14:00:00,25.610369,85.132568,CO,12,15,13
India,Bihar,Patna,"Muradpur, Patna - BSPCB",26-01-2024 14:00:00,25.619651,85.147382,NO2,1,12,6
India,Bihar,Patna,"Muradpur, Patna - BSPCB",26-01-2024 14:00:00,25.619651,85.147382,NH3,2,4,3
India,Bihar,Patna,"Rajbansi Nagar, Patna - BSPCB",26-01-2024 14:00:00,25.599486,85.113666,PM2.5,268,361,330
India,Bihar,Patna,"Rajbansi Nagar, Patna - BSPCB",26-01-2024 14:00:00,25.599486,85.113666,SO2,9,14,12
India,Bihar,Patna,"Rajbansi Nagar, Patna - BSPCB",26-01-2024 14:00:00,25.599486,85.113666,CO,42,109,69
India,Bihar,Patna,"Samanpura, Patna - BSPCB",26-01-2024 14:00:00,25.596727,85.085624,PM2.5,313,421,361
India,Bihar,Patna,"Samanpura, Patna - BSPCB",26-01-2024 14:00:00,25.596727,85.085624,SO2,3,6,5
India,Bihar,Purnia,"Mariam Nagar, Purnia - BSPCB",26-01-2024 14:00:00,25.366336,87.117468,NO2,12,13,13
India,Bihar,Rajgir,"Dangi Tola, Rajgir - BSPCB",26-01-2024 14:00:00,25.03280,85.41948,PM2.5,187,440,295
India,Bihar,Saharsa,"Police Line, Saharsa - BSPCB",26-01-2024 14:00:00,25.892357,86.590325,NH3,9,10,9
India,Bihar,Samastipur,"DM Office_Kasipur, Samastipur - BSPCB",26-01-2024 14:00:00,25.859655,85.77944,NH3,3,5,4
India,Bihar,Samastipur,"DM Office_Kasipur, Samastipur - BSPCB",26-01-2024 14:00:00,25.859655,85.77944,SO2,3,13,8
India,Bihar,Samastipur,"DM Office_Kasipur, Samastipur - BSPCB",26-01-2024 14:00:00,25.859655,85.77944,OZONE,9,11,10
India,Bihar,Sasaram,"Dada Peer, Sasaram - BSPCB",26-01-2024 14:00:00,24.952822,84.002396,PM2.5,146,349,230
India,Bihar,Siwan,"Chitragupta Nagar, Siwan - BSPCB",26-01-2024 14:00:00,26.2271665,84.3570427,PM10,112,197,137
India,Bihar,Siwan,"Chitragupta Nagar, Siwan - BSPCB",26-01-2024 14:00:00,26.2271665,84.3570427,OZONE,3,64,8
India,Chandigarh,Chandigarh,"Sector 22, Chandigarh - CPCC",26-01-2024 14:00:00,30.735567,76.775714,NH3,5,12,8
India,Chandigarh,Chandigarh,"Sector 22, Chandigarh - CPCC",26-01-2024 14:00:00,30.735567,76.775714,OZONE,2,108,48
India,Chandigarh,Chandigarh,"Sector-25, Chandigarh - CPCC",26-01-2024 14:00:00,30.751462,76.762879,CO,46,72,49
India,Chandigarh,Chandigarh,"Sector-25, Chandigarh - CPCC",26-01-2024 14:00:00,30.751462,76.762879,OZONE,1,21,1
India,Chandigarh,Chandigarh,"Sector-53, Chandigarh - CPCC",26-01-2024 14:00:00,30.719859,76.738637,NO2,NA,NA,NA
India,Chandigarh,Chandigarh,"Sector-53, Chandigarh - CPCC",26-01-2024 14:00:00,30.719859,76.738637,SO2,NA,NA,NA
India,Chhattisgarh,Bhilai,"Civic Center, Bhilai - Bhilai Steel Plant",26-01-2024 14:00:00,21.185571,81.343175,PM10,NA,NA,NA
India,Chhattisgarh,Bhilai,"Civic Center, Bhilai - Bhilai Steel Plant",26-01-2024 14:00:00,21.185571,81.343175,OZONE,7,33,14
India,Chhattisgarh,Chhal,"Nawapara SECL Colony, Chhal - CECB",26-01-2024 14:00:00,22.118125,83.140608,CO,36,95,62
India,Chhattisgarh,Korba,"Rampur, Korba - CECB",26-01-2024 14:00:00,22.368195,82.746431,PM10,NA,NA,NA
India,Chhattisgarh,Korba,"Rampur, Korba - CECB",26-01-2024 14:00:00,22.368195,82.746431,NH3,1,4,3
India,Chhattisgarh,Korba,"Urja Nagar, Korba - CECB",26-01-2024 14:00:00,22.348441,82.549611,SO2,3,12,6
India,Chhattisgarh,Kunjemura,"OP Jindal School, Kunjemura - CECB",26-01-2024 14:00:00,22.126650,83.483212,OZONE,3,54,23
India,Chhattisgarh,Milupara,"Govt. Higher Secondary School, Milupara - CECB",26-01-2024 14:00:00,22.1910172,83.5197009,NO2,12,37,20
India,Chhattisgarh,Milupara,"Govt. Higher Secondary School, Milupara - CECB",26-01-2024 14:00:00,22.1910172,83.5197009,SO2,9,17,10
India,Chhattisgarh,Milupara,"Govt. Higher Secondary School, Milupara - CECB",26-01-2024 14:00:00,22.1910172,83.5197009,CO,12,32,24
India,Chhattisgarh,Raipur,"AIIMS, Raipur - CECB",26-01-2024 14:00:00,21.258815,81.578979,CO,28,64,42
India,Chhattisgarh,Raipur,"Bhatagaon New ISBT, Raipur - CECB",26-01-2024 14:00:00,21.219665,81.630094,SO2,NA,NA,NA
India,Chhattisgarh,Raipur,"Krishak Nagar, Raipur - CECB",26-01-2024 14:00:00,21.237755,81.705301,NO2,23,42,36
India,Chhattisgarh,Raipur,"Krishak Nagar, Raipur - CECB",26-01-2024 14:00:00,21.237755,81.705301,NH3,1,1,1
India,Chhattisgarh,Tumidih,"OP Jindal Industrial Park, Tumidih - CECB",26-01-2024 14:00:00,22.06631475,83.33820077,SO2,NA,NA,NA
India,Chhattisgarh,Tumidih,"OP Jindal Industrial Park, Tumidih - CECB",26-01-2024 14:00:00,22.06631475,83.33820077,CO,NA,NA,NA
India,Delhi,Delhi,"Alipur, Delhi - DPCC",26-01-2024 14:00:00,28.815329,77.153010,PM2.5,192,369,317
India,Delhi,Delhi,"Alipur, Delhi - DPCC",26-01-2024 14:00:00,28.815329,77.153010,PM10,127,247,186
India,Delhi,Delhi,"Alipur, Delhi - DPCC",26-01-2024 14:00:00,28.815329,77.153010,CO,48,101,78
India,Delhi,Delhi,"Aya Nagar, Delhi - IMD",26-01-2024 14:00:00,28.4706914,77.1099364,NO2,28,74,41
India,Delhi,Delhi,"Bawana, Delhi - DPCC",26-01-2024 14:00:00,28.776200,77.051074,PM2.5,319,450,382
India,Delhi,Delhi,"Burari Crossing, Delhi - IMD",26-01-2024 14:00:00,28.7256504,77.2011573,PM10,168,407,290
India,Delhi,Delhi,"Burari Crossing, Delhi - IMD",26-01-2024 14:00:00,28.7256504,77.2011573,NO2,5,13,10
India,Delhi,Delhi,"Burari Crossing, Delhi - IMD",26-01-2024 14:00:00,28.7256504,77.2011573,CO,91,103,97
India,Delhi,Delhi,"DTU, Delhi - CPCB",26-01-2024 14:00:00,28.7500499,77.1112615,PM10,259,460,356
India,Delhi,Delhi,"Dwarka-Sector 8, Delhi - DPCC ",26-01-2024 14:00:00,28.5710274,77.0719006,NH3,8,12,10
India,Delhi,Delhi,"Dwarka-Sector 8, Delhi - DPCC ",26-01-2024 14:00:00,28.5710274,77.0719006,SO2,3,9,6
India,Delhi,Delhi,"IGI Airport (T3), Delhi - IMD",26-01-2024 14:00:00,28.5627763,77.1180053,PM10,246,447,365
India,Delhi,Delhi,"IGI Airport (T3), Delhi - IMD",26-01-2024 14:00:00,28.5627763,77.1180053,NO2,1,47,28
India,Delhi,Delhi,"IGI Airport (T3), Delhi - IMD",26-01-2024 14:00:00,28.5627763,77.1180053,OZONE,11,56,18
India,Delhi,Delhi,"IHBAS, Dilshad Garden, Delhi - CPCB",26-01-2024 14:00:00,28.6811736,77.3025234,NH3,1,6,3
India,Delhi,Delhi,"ITO, Delhi - CPCB",26-01-2024 14:00:00,28.628624,77.241060,PM2.5,339,500,394
India,Delhi,Delhi,"ITO, Delhi - CPCB",26-01-2024 14:00:00,28.628624,77.241060,SO2,14,34,22
India,Delhi,Delhi,"Jahangirpuri, Delhi - DPCC",26-01-2024 14:00:00,28.732820,77.170633,NH3,12,20,16
India,Delhi,Delhi,"Jawaharlal Nehru Stadium, Delhi - DPCC",26-01-2024 14:00:00,28.580280,77.233829,PM10,243,485,403
India,Delhi,Delhi,"Lodhi Road, Delhi - IITM",26-01-2024 14:00:00,28.588333,77.221667,NO2,55,131,93
India,Delhi,Delhi,"Lodhi Road, Delhi - IITM",26-01-2024 14:00:00,28.588333,77.221667,CO,65,70,68
India,Delhi,Delhi,"Major Dhyan Chand National Stadium, Delhi - DPCC",26-01-2024 14:00:00,28.611281,77.237738,PM2.5,408,500,441
India,Delhi,Delhi,"Major Dhyan Chand National Stadium, Delhi - DPCC",26-01-2024 14:00:00,28.611281,77.237738,NO2,61,197,119
India,Delhi,Delhi,"Major Dhyan Chand National Stadium, Delhi - DPCC",26-01-2024 14:00:00,28.611281,77.237738,CO,67,130,102
India,Delhi,Delhi,"Mandir Marg, Delhi - DPCC",26-01-2024 14:00:00,28.636429,77.201067,PM2.5,382,499,416
India,Delhi,Delhi,"Mandir Marg, Delhi - DPCC",26-01-2024 14:00:00,28.636429,77.201067,SO2,4,15,9
India,Delhi,Delhi,"Mundka, Delhi - DPCC",26-01-2024 14:00:00,28.684678,77.076574,PM2.5,339,500,434
India,Delhi,Delhi,"NSIT Dwarka, Delhi - CPCB",26-01-2024 14:00:00,28.60909,77.0325413,SO2,6,30,16
India,Delhi,Delhi,"NSIT Dwarka, Delhi - CPCB",26-01-2024 14:00:00,28.60909,77.0325413,OZONE,18,90,26
India,Delhi,Delhi,"Najafgarh, Delhi - DPCC",26-01-2024 14:00:00,28.570173,76.933762,PM10,113,251,162
India,Delhi,Delhi,"Najafgarh, Delhi - DPCC",26-01-2024 14:00:00,28.570173,76.933762,NO2,9,31,19
India,Delhi,Delhi,"Narela, Delhi - DPCC",26-01-2024 14:00:00,28.822836,77.101981,CO,54,118,97
India,Delhi,Delhi,"Nehru Nagar, Delhi - DPCC",26-01-2024 14:00:00,28.567890,77.250515,PM10,292,500,449
India,Delhi,Delhi,"Nehru Nagar, Delhi - DPCC",26-01-2024 14:00:00,28.567890,77.250515,NH3,11,20,14
India,Delhi,Delhi,"New Moti Bagh, Delhi - MHUA",26-01-2024 14:00:00,28.57834,77.18400,NO2,1,17,6
India,Delhi,Delhi,"Punjabi Bagh, Delhi - DPCC",26-01-2024 14:00:00,28.674045,77.131023,SO2,7,14,10
India,Delhi,Delhi,"Punjabi Bagh, Delhi - DPCC",26-01-2024 14:00:00,28.674045,77.131023,CO,38,66,52
India,Delhi,Delhi,"Pusa, Delhi - IMD",26-01-2024 14:00:00,28.636110,77.173332,NO2,62,80,70
India,Delhi,Delhi,"Pusa, Delhi - IMD",26-01-2024 14:00:00,28.636110,77.173332,OZONE,13,35,15
India,Delhi,Delhi,"R K Puram, Delhi - DPCC",26-01-2024 14:00:00,28.563262,77.186937,PM2.5,364,500,465
India,Delhi,Delhi,"R K Puram, Delhi - DPCC",26-01-2024 14:00:00,28.563262,77.186937,NH3,6,11,8
India,Delhi,Delhi,"R K Puram, Delhi - DPCC",26-01-2024 14:00:00,28.563262,77.186937,OZONE,10,118,37
India,Delhi,Delhi,"Rohini, Delhi - DPCC",26-01-2024 14:00:00,28.732528,77.119920,PM2.5,367,500,430
India,Delhi,Delhi,"Shadipur, Delhi - CPCB",26-01-2024 14:00:00,28.6514781,77.1473105,PM2.5,390,500,432
India,Delhi,Delhi,"Shadipur, Delhi - CPCB",26-01-2024 14:00:00,28.6514781,77.1473105,SO2,9,17,13
India,Delhi,Delhi,"Shadipur, Delhi - CPCB",26-01-2024 14:00:00,28.6514781,77.1473105,OZONE,4,55,18
India,Delhi,Delhi,"Sirifort, Delhi - CPCB",26-01-2024 14:00:00,28.5504249,77.2159377,SO2,29,41,34
India,Delhi,Delhi,"Sirifort, Delhi - CPCB",26-01-2024 14:00:00,28.5504249,77.2159377,OZONE,20,197,78
India,Delhi,Delhi,"Sonia Vihar, Delhi - DPCC",26-01-2024 14:00:00,28.710508,77.249485,NH3,6,9,7
India,Delhi,Delhi,"Sonia Vihar, Delhi - DPCC",26-01-2024 14:00:00,28.710508,77.249485,CO,62,112,80
India,Delhi,Delhi,"Sri Aurobindo Marg, Delhi - DPCC",26-01-2024 14:00:00,28.531346,77.190156,NO2,15,187,75
India,Delhi,Delhi,"Sri Aurobindo Marg, Delhi - DPCC",26-01-2024 14:00:00,28.531346,77.190156,OZONE,5,37,8
India,Delhi,Delhi,"Vivek Vihar, Delhi - DPCC",26-01-2024 14:00:00,28.672342,77.315260,NH3,5,10,7
India,Delhi,Delhi,"Wazirpur, Delhi - DPCC",26-01-2024 14:00:00,28.699793,77.165453,OZONE,3,120,22
India,Gujarat,Ahmedabad,"Chandkheda, Ahmedabad - IITM",26-01-2024 14:00:00,23.107969,72.574648,NH3,4,4,4
India,Gujarat,Ahmedabad,"Chandkheda, Ahmedabad - IITM",26-01-2024 14:00:00,23.107969,72.574648,SO2,5,13,7
India,Gujarat,Ahmedabad,"Gyaspur, Ahmedabad - IITM",26-01-2024 14:00:00,22.977134,72.553024,PM2.5,59,269,118
India,Gujarat,Ahmedabad,"Gyaspur, Ahmedabad - IITM",26-01-2024 14:00:00,22.977134,72.553024,SO2,12,14,12
India,Gujarat,Ahmedabad,"Gyaspur, Ahmedabad - IITM",26-01-2024 14:00:00,22.977134,72.553024,OZONE,6,13,7
India,Gujarat,Ahmedabad,"Raikhad, Ahmedabad - IITM",26-01-2024 14:00:00,23.020509,72.579261,NO2,NA,NA,NA
India,Gujarat,Ahmedabad,"Raikhad, Ahmedabad - IITM",26-01-2024 14:00:00,23.020509,72.579261,NH3,NA,NA,NA
India,Gujarat,Ahmedabad,"Rakhial, Ahmedabad - IITM",26-01-2024 14:00:00,23.016834,72.625775,PM2.5,44,209,90
India,Gujarat,Ahmedabad,"Rakhial, Ahmedabad - IITM",26-01-2024 14:00:00,23.016834,72.625775,PM10,56,154,97
India,Gujarat,Ahmedabad,"Sardar Vallabhbhai Patel Stadium, Ahmedabad - IITM",26-01-2024 14:00:00,23.043070,72.562968,PM10,82,160,122
India,Gujarat,Ankleshwar,"GIDC, Ankleshwar - GPCB",26-01-2024 14:00:00,21.613267,73.010555,SO2,37,138,97
India,Gujarat,Ankleshwar,"GIDC, Ankleshwar - GPCB",26-01-2024 14:00:00,21.613267,73.010555,OZONE,21,29,24
India,Gujarat,Gandhinagar,"GIFT City, Gandhinagar - IITM",26-01-2024 14:00:00,23.163798,72.677768,SO2,5,8,6
India,Gujarat,Gandhinagar,"GIFT City, Gandhinagar - IITM",26-01-2024 14:00:00,23.163798,72.677768,CO,37,46,42
India,Gujarat,Gandhinagar,"GIFT City, Gandhinagar - IITM",26-01-2024 14:00:00,23.163798,72.677768,OZONE,5,29,15
India,Gujarat,Gandhinagar,"Sector-10, Gandhinagar - GPCB",26-01-2024 14:00:00,23.221714,72.654328,NO2,3,11,6
India,Gujarat,Surat,"Science Center, Surat - SMC",26-01-2024 14:00:00,21.170046,72.795405,CO,36,95,53
India,Gujarat,Vapi,"Phase-1 GIDC, Vapi - GPCB",26-01-2024 14:00:00,20.362421,72.918013,PM10,74,416,184
India,Gujarat,Vapi,"Phase-1 GIDC, Vapi - GPCB",26-01-2024 14:00:00,20.362421,72.918013,NO2,NA,NA,NA
India,Gujarat,Vatva,"Phase-4 GIDC, Vatva - GPCB",26-01-2024 14:00:00,22.969611,72.643500,NO2,28,221,86
India,Gujarat,Vatva,"Phase-4 GIDC, Vatva - GPCB",26-01-2024 14:00:00,22.969611,72.643500,SO2,3,8,4
India,Gujarat,Vatva,"Phase-4 GIDC, Vatva - GPCB",26-01-2024 14:00:00,22.969611,72.643500,CO,38,40,39
India,Haryana,Ambala,"Patti Mehar, Ambala - HSPCB",26-01-2024 14:00:00,30.379589,76.778328,OZONE,26,39,33
India,Haryana,Bahadurgarh,"Arya Nagar, Bahadurgarh - HSPCB",26-01-2024 14:00:00,28.6701,76.9254,PM10,127,262,183
India,Haryana,Dharuhera,"Municipal Corporation Office, Dharuhera -  HSPCB",26-01-2024 14:00:00,28.206800,76.799700,NO2,44,113,67
India,Haryana,Dharuhera,"Municipal Corporation Office, Dharuhera -  HSPCB",26-01-2024 14:00:00,28.206800,76.799700,NH3,9,26,18
India,Haryana,Dharuhera,"Municipal Corporation Office, Dharuhera -  HSPCB",26-01-2024 14:00:00,28.206800,76.799700,OZONE,1,49,12
India,Haryana,Faridabad,"Sector 11, Faridabad - HSPCB",26-01-2024 14:00:00,28.376058,77.315741,PM10,127,500,267
India,Haryana,Faridabad,"Sector 30, Faridabad - HSPCB",26-01-2024 14:00:00,28.4417,77.3217,PM10,134,156,147
India,Haryana,Faridabad,"Sector 30, Faridabad - HSPCB",26-01-2024 14:00:00,28.4417,77.3217,NH3,9,9,9
India,Haryana,Faridabad,"Sector 30, Faridabad - HSPCB",26-01-2024 14:00:00,28.4417,77.3217,CO,100,134,109
India,Haryana,Fatehabad,"Huda Sector, Fatehabad - HSPCB",26-01-2024 14:00:00,29.503664,75.467934,PM10,39,117,79
India,Haryana,Fatehabad,"Huda Sector, Fatehabad - HSPCB",26-01-2024 14:00:00,29.503664,75.467934,SO2,4,13,8
India,Haryana,Fatehabad,"Huda Sector, Fatehabad - HSPCB",26-01-2024 14:00:00,29.503664,75.467934,CO,5,15,7
India,Haryana,Gurugram,"NISE Gwal Pahari, Gurugram - IMD",26-01-2024 14:00:00,28.422681,77.148944,NO2,40,44,43
India,Haryana,Gurugram,"NISE Gwal Pahari, Gurugram - IMD",26-01-2024 14:00:00,28.422681,77.148944,CO,34,86,45
India,Haryana,Gurugram,"Teri Gram, Gurugram - HSPCB",26-01-2024 14:00:00,28.4275,77.1465,NO2,NA,NA,NA
India,Haryana,Gurugram,"Teri Gram, Gurugram - HSPCB",26-01-2024 14:00:00,28.4275,77.1465,CO,51,74,66
India,Haryana,Gurugram,"Teri Gram, Gurugram - HSPCB",26-01-2024 14:00:00,28.4275,77.1465,OZONE,18,36,35
India,Haryana,Gurugram,"Vikas Sadan, Gurugram - HSPCB",26-01-2024 14:00:00,28.4501238,77.0263051,NO2,5,23,14
India,Haryana,Gurugram,"Vikas Sadan, Gurugram - HSPCB",26-01-2024 14:00:00,28.4501238,77.0263051,CO,54,140,103
India,Haryana,Hisar,"Urban Estate-II, Hisar - HSPCB",26-01-2024 14:00:00,29.140560,75.744941,NH3,NA,NA,NA
India,Haryana,Jind,"Police Lines, Jind - HSPCB",26-01-2024 14:00:00,29.307814,76.337619,PM2.5,87,238,155
India,Haryana,Jind,"Police Lines, Jind - HSPCB",26-01-2024 14:00:00,29.307814,76.337619,CO,5,144,40
India,Haryana,Kaithal,"Rishi Nagar, Kaithal - HSPCB",26-01-2024 14:00:00,29.8006,76.4155,NH3,8,8,8
India,Haryana,Kaithal,"Rishi Nagar, Kaithal - HSPCB",26-01-2024 14:00:00,29.8006,76.4155,OZONE,1,20,2
India,Haryana,Karnal,"Sector-12, Karnal - HSPCB",26-01-2024 14:00:00,29.695300,77.002700,NH3,10,13,11
India,Haryana,Kurukshetra,"Sector-7, Kurukshetra - HSPCB",26-01-2024 14:00:00,29.966942,76.875879,PM10,63,174,126
India,Haryana,Kurukshetra,"Sector-7, Kurukshetra - HSPCB",26-01-2024 14:00:00,29.966942,76.875879,CO,40,98,52
India,Haryana,Mandikhera,"General Hospital, Mandikhera - HSPCB",26-01-2024 14:00:00,27.9002,76.9938,NO2,NA,NA,NA
India,Haryana,Manesar,"Sector-2 IMT, Manesar - HSPCB",26-01-2024 14:00:00,28.360699,76.936090,PM2.5,132,412,313
India,Haryana,Manesar,"Sector-2 IMT, Manesar - HSPCB",26-01-2024 14:00:00,28.360699,76.936090,NH3,8,16,11
India,Haryana,Manesar,"Sector-2 IMT, Manesar - HSPCB",26-01-2024 14:00:00,28.360699,76.936090,SO2,NA,NA,NA
India,Haryana,Narnaul,"Shastri Nagar, Narnaul - HSPCB",26-01-2024 14:00:00,28.060249,76.113115,PM2.5,65,117,87
India,Haryana,Narnaul,"Shastri Nagar, Narnaul - HSPCB",26-01-2024 14:00:00,28.060249,76.113115,OZONE,44,82,80
India,Haryana,Panchkula,"Sector-6, Panchkula - HSPCB ",26-01-2024 14:00:00,30.7057778,76.8531805555555,PM2.5,93,301,161
India,Haryana,Panchkula,"Sector-6, Panchkula - HSPCB ",26-01-2024 14:00:00,30.7057778,76.8531805555555,SO2,11,12,12
India,Haryana,Panchkula,"Sector-6, Panchkula - HSPCB ",26-01-2024 14:00:00,30.7057778,76.8531805555555,OZONE,36,68,46
India,Haryana,Panipat,"Sector-18, Panipat - HSPCB",26-01-2024 14:00:00,29.497973,76.993331,SO2,NA,NA,NA
India,Haryana,Rohtak,"MD University, Rohtak - HSPCB",26-01-2024 14:00:00,28.52123,76.37138,SO2,2,56,10
India,Haryana,Sirsa,"F-Block, Sirsa - HSPCB",26-01-2024 14:00:00,29.536400,75.015800,PM2.5,16,100,58
India,Haryana,Sirsa,"F-Block, Sirsa - HSPCB",26-01-2024 14:00:00,29.536400,75.015800,CO,48,66,59
India,Haryana,Sonipat,"Murthal, Sonipat - HSPCB",26-01-2024 14:00:00,29.027200,77.062100,OZONE,17,36,27
India,Haryana,Yamuna Nagar,"Gobind Pura, Yamuna Nagar - HSPCB",26-01-2024 14:00:00,30.1480566,77.2893471,SO2,2,82,13
India,Himachal Pradesh,Baddi,"HIMUDA Complex Phase-1, Baddi - HPPCB",26-01-2024 14:00:00,30.943887,76.801991,PM10,111,332,192
India,Himachal Pradesh,Baddi,"HIMUDA Complex Phase-1, Baddi - HPPCB",26-01-2024 14:00:00,30.943887,76.801991,NO2,31,68,51
India,Himachal Pradesh,Baddi,"HIMUDA Complex Phase-1, Baddi - HPPCB",26-01-2024 14:00:00,30.943887,76.801991,NH3,5,9,7
India,Jharkhand,Dhanbad,"Kalakusuma, Dhanbad - DMC",26-01-2024 14:00:00,23.811548,86.481238,NO2,33,37,34
India,Jharkhand,Dhanbad,"Kalakusuma, Dhanbad - DMC",26-01-2024 14:00:00,23.811548,86.481238,CO,78,104,97
India,Jharkhand,Pathardih,"Mohalbani Ghat, Pathardih - DMC",26-01-2024 14:00:00,23.669880,86.411725,PM2.5,2,267,110
India,Karnataka,Bagalkot,"Vidayagiri, Bagalkot - KSPCB",26-01-2024 14:00:00,16.172806,75.659694,PM2.5,15,30,29
India,Karnataka,Bagalkot,"Vidayagiri, Bagalkot - KSPCB",26-01-2024 14:00:00,16.172806,75.659694,SO2,NA,NA,NA
India,Karnataka,Belgaum,"Ramteerth Nagar, Belgaum - KSPCB",26-01-2024 14:00:00,15.888653,74.541751,PM2.5,40,123,75
India,Karnataka,Belgaum,"Ramteerth Nagar, Belgaum - KSPCB",26-01-2024 14:00:00,15.888653,74.541751,OZONE,19,20,20
India,Karnataka,Bengaluru,"City Railway Station, Bengaluru - KSPCB",26-01-2024 14:00:00,12.9756843,77.5660749,CO,51,108,70
India,Karnataka,Bengaluru,"Hebbal, Bengaluru - KSPCB",26-01-2024 14:00:00,13.029152,77.585901,NH3,NA,NA,NA
India,Karnataka,Bengaluru,"Hebbal, Bengaluru - KSPCB",26-01-2024 14:00:00,13.029152,77.585901,OZONE,7,17,8
India,Karnataka,Bengaluru,"Jayanagar 5th Block, Bengaluru - KSPCB",26-01-2024 14:00:00,12.920984,77.584908,PM10,NA,NA,NA
India,Karnataka,Bengaluru,"Jayanagar 5th Block, Bengaluru - KSPCB",26-01-2024 14:00:00,12.920984,77.584908,NO2,NA,NA,NA
India,Karnataka,Bengaluru,"Jigani, Bengaluru - KSPCB",26-01-2024 14:00:00,12.7816279,77.6299145,PM2.5,10,98,63
India,Karnataka,Bengaluru,"Kasturi Nagar, Bengaluru - KSPCB",26-01-2024 14:00:00,13.003872,77.664217,PM10,65,158,121
India,Karnataka,Bengaluru,"Kasturi Nagar, Bengaluru - KSPCB",26-01-2024 14:00:00,13.003872,77.664217,OZONE,42,111,62
India,Karnataka,Bengaluru,"Peenya, Bengaluru - CPCB",26-01-2024 14:00:00,13.0270199,77.494094,PM10,24,122,73
India,Karnataka,Bengaluru,"RVCE-Mailasandra, Bengaluru - KSPCB",26-01-2024 14:00:00,12.921418,77.502466,NH3,4,4,4
India,Karnataka,Bengaluru,"RVCE-Mailasandra, Bengaluru - KSPCB",26-01-2024 14:00:00,12.921418,77.502466,SO2,4,5,4
India,Karnataka,Bengaluru,"RVCE-Mailasandra, Bengaluru - KSPCB",26-01-2024 14:00:00,12.921418,77.502466,OZONE,40,41,40
India,Karnataka,Bengaluru,"Sanegurava Halli, Bengaluru - KSPCB",26-01-2024 14:00:00,12.990328,77.5431385,NO2,22,61,30
India,Karnataka,Bidar,"Naubad, Bidar - KSPCB",26-01-2024 14:00:00,17.930306,77.482194,SO2,17,28,20
India,Karnataka,Chamarajanagar,"Urban, Chamarajanagar - KSPCB",26-01-2024 14:00:00,11.55358,76.55521,PM10,44,55,46
India,Karnataka,Chamarajanagar,"Urban, Chamarajanagar - KSPCB",26-01-2024 14:00:00,11.55358,76.55521,OZONE,25,35,26
India,Karnataka,Chikkaballapur,"Chikkaballapur Rural, Chikkaballapur - KSPCB",26-01-2024 14:00:00,13.428828,77.731418,PM10,44,160,78
India,Karnataka,Chikkaballapur,"Chikkaballapur Rural, Chikkaballapur - KSPCB",26-01-2024 14:00:00,13.428828,77.731418,OZONE,24,26,25
India,Karnataka,Chikkamagaluru,"Kalyana Nagara, Chikkamagaluru - KSPCB",26-01-2024 14:00:00,13.328028,75.797056,OZONE,16,74,24
India,Karnataka,Davanagere,"Devaraj Urs Badavane, Davanagere - KSPCB",26-01-2024 14:00:00,14.475800,75.905200,PM10,31,122,69
India,Karnataka,Davanagere,"Devaraj Urs Badavane, Davanagere - KSPCB",26-01-2024 14:00:00,14.475800,75.905200,NH3,1,1,1
India,Karnataka,Davanagere,"Devaraj Urs Badavane, Davanagere - KSPCB",26-01-2024 14:00:00,14.475800,75.905200,OZONE,23,30,23
India,Karnataka,Dharwad,"Kalabhavan, Dharwad - KSPCB",26-01-2024 14:00:00,15.459706,75.008381,PM10,65,166,115
India,Karnataka,Dharwad,"Kalabhavan, Dharwad - KSPCB",26-01-2024 14:00:00,15.459706,75.008381,NH3,2,3,3
India,Karnataka,Dharwad,"Kalabhavan, Dharwad - KSPCB",26-01-2024 14:00:00,15.459706,75.008381,CO,40,164,63
India,Karnataka,Gadag,"Panchal Nagar, Gadag - KSPCB",26-01-2024 14:00:00,15.411456,75.638133,PM10,36,54,46
India,Karnataka,Gadag,"Panchal Nagar, Gadag - KSPCB",26-01-2024 14:00:00,15.411456,75.638133,SO2,8,12,10
India,Karnataka,Gadag,"Panchal Nagar, Gadag - KSPCB",26-01-2024 14:00:00,15.411456,75.638133,CO,48,54,52
India,Karnataka,Hassan,"B.Katihalli, Hassan - KSPCB",26-01-2024 14:00:00,13.008556,76.125258,SO2,NA,NA,NA
India,Karnataka,Hubballi,"Lingaraj Nagar, Hubballi - KSPCB",26-01-2024 14:00:00,15.3714823,75.1160168,PM10,NA,NA,NA
India,Karnataka,Hubballi,"Lingaraj Nagar, Hubballi - KSPCB",26-01-2024 14:00:00,15.3714823,75.1160168,NO2,NA,NA,NA
India,Karnataka,Hubballi,"Lingaraj Nagar, Hubballi - KSPCB",26-01-2024 14:00:00,15.3714823,75.1160168,SO2,NA,NA,NA
India,Karnataka,Kalaburagi,"Lal Bahadur Shastri Nagar, Kalaburagi - KSPCB",26-01-2024 14:00:00,17.321993,76.822628,SO2,16,29,18
India,Karnataka,Kalaburagi,"Lal Bahadur Shastri Nagar, Kalaburagi - KSPCB",26-01-2024 14:00:00,17.321993,76.822628,CO,36,78,39
India,Karnataka,Kalaburagi,"Mahatma Basaveswar Colony, Kalaburgi - KSPCB",26-01-2024 14:00:00,17.336318,76.847397,PM2.5,20,34,29
India,Karnataka,Kalaburagi,"Mahatma Basaveswar Colony, Kalaburgi - KSPCB",26-01-2024 14:00:00,17.336318,76.847397,PM10,38,57,48
India,Karnataka,Kalaburagi,"Mahatma Basaveswar Colony, Kalaburgi - KSPCB",26-01-2024 14:00:00,17.336318,76.847397,NO2,22,24,24
India,Karnataka,Kalaburagi,"Mahatma Basaveswar Colony, Kalaburgi - KSPCB",26-01-2024 14:00:00,17.336318,76.847397,SO2,7,47,13
India,Karnataka,Karwar,"KHB Colony, Karwar - KSPCB",26-01-2024 14:00:00,14.816666,74.141003,PM2.5,43,227,88
India,Karnataka,Karwar,"KHB Colony, Karwar - KSPCB",26-01-2024 14:00:00,14.816666,74.141003,SO2,18,18,18
India,Karnataka,Kolar,"Tamaka Ind. Area, Kolar - KSPCB",26-01-2024 14:00:00,13.1276288,78.1570122,NO2,2,11,5
India,Karnataka,Koppal,"Diwator Nagar, Koppal - KSPCB",26-01-2024 14:00:00,15.347630,76.181767,NH3,4,7,5
India,Karnataka,Madikeri,"Stuart Hill, Madikeri - KSPCB",26-01-2024 14:00:00,12.415911,75.735050,OZONE,16,46,34
India,Karnataka,Mangalore,"Kadri, Mangalore - KSPCB",26-01-2024 14:00:00,12.889250,74.853000,SO2,16,20,19
India,Karnataka,Mysuru,"Hebbal 1st Stage, Mysuru - KSPCB",26-01-2024 14:00:00,12.21041,76.37376,NH3,1,4,2
India,Karnataka,Mysuru,"Hebbal 1st Stage, Mysuru - KSPCB",26-01-2024 14:00:00,12.21041,76.37376,SO2,2,8,3
India,Karnataka,Ramanagara,"Vijay Nagar, Ramanagara - KSPCB",26-01-2024 14:00:00,12.733409,77.298051,PM2.5,26,99,59
India,Karnataka,Ramanagara,"Vijay Nagar, Ramanagara - KSPCB",26-01-2024 14:00:00,12.733409,77.298051,NH3,1,1,1
India,Karnataka,Tumakuru,"Thimmalapura, Tumakuru - KSPCB",26-01-2024 14:00:00,13.377516,77.099072,PM2.5,45,125,68
India,Karnataka,Yadgir,"Collector Office, Yadgir - KSPCB",26-01-2024 14:00:00,16.7602,77.1428,SO2,8,35,16
India,Kerala,Eloor,"Udyogamandal, Eloor - Kerala PCB",26-01-2024 14:00:00,10.073232,76.302765,PM2.5,27,54,38
India,Kerala,Eloor,"Udyogamandal, Eloor - Kerala PCB",26-01-2024 14:00:00,10.073232,76.302765,NO2,4,4,4
India,Kerala,Kannur,"Thavakkara, Kannur - Kerala PCB",26-01-2024 14:00:00,11.875000,75.373200,NH3,1,1,1
India,Kerala,Kannur,"Thavakkara, Kannur - Kerala PCB",26-01-2024 14:00:00,11.875000,75.373200,SO2,4,6,5
India,Kerala,Kollam,"Polayathode, Kollam - Kerala PCB",26-01-2024 14:00:00,8.8787,76.6073,PM2.5,49,266,110
India,Kerala,Kollam,"Polayathode, Kollam - Kerala PCB",26-01-2024 14:00:00,8.8787,76.6073,CO,6,46,11
India,Kerala,Thiruvananthapuram,"Kariavattom, Thiruvananthapuram - Kerala PCB",26-01-2024 14:00:00,8.563700,76.886500,PM2.5,70,84,77
India,Kerala,Thiruvananthapuram,"Kariavattom, Thiruvananthapuram - Kerala PCB",26-01-2024 14:00:00,8.563700,76.886500,NO2,7,9,9
India,Kerala,Thiruvananthapuram,"Kariavattom, Thiruvananthapuram - Kerala PCB",26-01-2024 14:00:00,8.563700,76.886500,NH3,1,1,1
India,Kerala,Thiruvananthapuram,"Plammoodu, Thiruvananthapuram - Kerala PCB",26-01-2024 14:00:00,8.5149093,76.9435879,SO2,2,14,8
India,Kerala,Thrissur,"Corporation Ground, Thrissur - Kerala PCB",26-01-2024 14:00:00,10.532400,76.215900,PM10,53,62,58
India,Kerala,Thrissur,"Corporation Ground, Thrissur - Kerala PCB",26-01-2024 14:00:00,10.532400,76.215900,NH3,1,1,1
India,Madhya Pradesh,Bhopal,"Idgah Hills, Bhopal - MPPCB",26-01-2024 14:00:00,23.264759,77.381568,SO2,6,23,12
India,Madhya Pradesh,Bhopal,"Idgah Hills, Bhopal - MPPCB",26-01-2024 14:00:00,23.264759,77.381568,CO,23,79,32
India,Madhya Pradesh,Bhopal,"T T Nagar, Bhopal - MPPCB",26-01-2024 14:00:00,23.233584,77.400574,OZONE,4,131,68
India,Madhya Pradesh,Dewas,"Bhopal Chauraha, Dewas - MPPCB",26-01-2024 14:00:00,22.9682591,76.064118,PM10,50,166,94
India,Madhya Pradesh,Dewas,"Bhopal Chauraha, Dewas - MPPCB",26-01-2024 14:00:00,22.9682591,76.064118,SO2,24,52,36
India,Madhya Pradesh,Gwalior,"City Center, Gwalior - MPPCB",26-01-2024 14:00:00,26.203442,78.193251,CO,28,86,61
India,Madhya Pradesh,Gwalior,"Deen Dayal Nagar, Gwalior - MPPCB",26-01-2024 14:00:00,26.259242,78.216432,NO2,30,99,59
India,Madhya Pradesh,Gwalior,"Maharaj Bada, Gwalior - MPPCB",26-01-2024 14:00:00,26.200388,78.147714,CO,4,76,20
India,Madhya Pradesh,Gwalior,"Phool Bagh, Gwalior - Mondelez Ind. Food",26-01-2024 14:00:00,26.210536,78.171,PM2.5,9,192,110
India,Madhya Pradesh,Gwalior,"Phool Bagh, Gwalior - Mondelez Ind. Food",26-01-2024 14:00:00,26.210536,78.171,CO,33,40,34
India,Madhya Pradesh,Indore,"Chhoti Gwaltoli, Indore - MPPCB",26-01-2024 14:00:00,22.4310,75.5213,NO2,54,185,105
India,Madhya Pradesh,Indore,"Maguda Nagar, Indore - IMC",26-01-2024 14:00:00,22.7524,75.8872,PM10,31,257,95
India,Madhya Pradesh,Indore,"Regional Park, Indore - IMC",26-01-2024 14:00:00,22.6780,75.8559,NO2,7,13,10
India,Madhya Pradesh,Indore,"Residency Area, Indore - IMC",26-01-2024 14:00:00,22.7084,75.8815,PM2.5,24,304,85
India,Madhya Pradesh,Indore,"Residency Area, Indore - IMC",26-01-2024 14:00:00,22.7084,75.8815,OZONE,11,18,14
India,Madhya Pradesh,Jabalpur,"Govindh Bhavan Colony, Jabalpur - JMC",26-01-2024 14:00:00,23.163174,79.973061,SO2,10,32,14
India,Madhya Pradesh,Jabalpur,"Gupteshwar, Jabalpur - JMC",26-01-2024 14:00:00,23.142888,79.916147,PM2.5,38,332,94
India,Madhya Pradesh,Jabalpur,"Marhatal, Jabalpur - MPPCB",26-01-2024 14:00:00,23.168606,79.932247,CO,40,139,47
India,Madhya Pradesh,Jabalpur,"Marhatal, Jabalpur - MPPCB",26-01-2024 14:00:00,23.168606,79.932247,OZONE,4,37,17
India,Madhya Pradesh,Jabalpur,"Suhagi, Jabalpur - JMC",26-01-2024 14:00:00,23.218135,79.957770,NO2,36,42,40
India,Madhya Pradesh,Katni,"Gole Bazar, Katni - MPPCB",26-01-2024 14:00:00,23.50016,80.23284,PM10,38,305,123
India,Madhya Pradesh,Katni,"Gole Bazar, Katni - MPPCB",26-01-2024 14:00:00,23.50016,80.23284,SO2,11,61,22
India,Madhya Pradesh,Maihar,"Sahilara, Maihar - KJS Cements",26-01-2024 14:00:00,24.2613009,80.7231783,CO,28,72,44
India,Madhya Pradesh,Mandideep,"Sector-D Industrial Area, Mandideep - MPPCB",26-01-2024 14:00:00,23.108440,77.511428,PM2.5,NA,NA,NA
India,Madhya Pradesh,Pithampur,"Sector-2 Industrial Area, Pithampur - MPPCB",26-01-2024 14:00:00,22.624758,75.675238,PM2.5,31,212,90
India,Madhya Pradesh,Sagar,"Civil Lines, Sagar - MPPCB",26-01-2024 14:00:00,23.838586,78.759431,CO,18,45,33
India,Madhya Pradesh,Ujjain,"Mahakaleshwar Temple, Ujjain - MPPCB",26-01-2024 14:00:00,23.182719 ,75.768218 ,NO2,6,89,35
India,Maharashtra,Ahmednagar,"Tarakpur, Ahmednagar - MPCB",26-01-2024 14:00:00,19.10122,74.73339,PM2.5,35,135,79
India,Maharashtra,Ahmednagar,"Tarakpur, Ahmednagar - MPCB",26-01-2024 14:00:00,19.10122,74.73339,PM10,44,181,121
India,Maharashtra,Ahmednagar,"Tarakpur, Ahmednagar - MPCB",26-01-2024 14:00:00,19.10122,74.73339,NO2,29,137,72
India,Maharashtra,Akola,"Ramdaspeth, Akola - MPCB",26-01-2024 14:00:00,20.719516,77.000253,PM2.5,11,281,85
India,Maharashtra,Akola,"Ramdaspeth, Akola - MPCB",26-01-2024 14:00:00,20.719516,77.000253,OZONE,6,79,39
India,Maharashtra,Amravati,"Shivneri Colony, Amravati - MPCB",26-01-2024 14:00:00,20.9402359,77.7895248,NO2,18,108,53
India,Maharashtra,Amravati,"Shri Shivaji Science College, Amaravati - MPCB",26-01-2024 14:00:00,20.939198,77.765701,NH3,1,7,2
India,Maharashtra,Aurangabad,"MIDC Chilkalthana, Aurangabad - MPCB",26-01-2024 14:00:00,19.875620,75.387310,PM2.5,58,301,142
India,Maharashtra,Aurangabad,"MIDC Chilkalthana, Aurangabad - MPCB",26-01-2024 14:00:00,19.875620,75.387310,NH3,4,4,4
India,Maharashtra,Aurangabad,"Rachnakar Colony, Aurangabad - MPCB",26-01-2024 14:00:00,19.863756,75.321188,PM2.5,110,246,189
India,Maharashtra,Aurangabad,"Rachnakar Colony, Aurangabad - MPCB",26-01-2024 14:00:00,19.863756,75.321188,NO2,18,130,56
India,Maharashtra,Badlapur,"Katrap, Badlapur - MPCB",26-01-2024 14:00:00,19.16485,73.23409,NH3,2,4,3
India,Maharashtra,Belapur,"CBD Belapur, Belapur - MPCB",26-01-2024 14:00:00,19.0243902,73.0406721,NO2,29,83,59
India,Maharashtra,Bhiwandi,"Gokul Nagar, Bhiwandi - MPCB",26-01-2024 14:00:00,19.309073,73.057223,PM2.5,51,320,192
India,Maharashtra,Bhiwandi,"Gokul Nagar, Bhiwandi - MPCB",26-01-2024 14:00:00,19.309073,73.057223,CO,22,115,73
India,Maharashtra,Dhule,"Deopur, Dhule - MPCB",26-01-2024 14:00:00,20.918946,74.776388,PM10,54,255,112
India,Maharashtra,Dhule,"Deopur, Dhule - MPCB",26-01-2024 14:00:00,20.918946,74.776388,NO2,16,37,22
India,Maharashtra,Jalgaon,"Prabhat Colony, Jalgaon - MPCB",26-01-2024 14:00:00,21.001264,75.565602,SO2,3,53,17
India,Maharashtra,Jalgaon,"Prabhat Colony, Jalgaon - MPCB",26-01-2024 14:00:00,21.001264,75.565602,OZONE,5,90,57
India,Maharashtra,Jalna,"Old MIDC, Jalna - MPCB",26-01-2024 14:00:00,19.854616,75.905894,NO2,31,60,48
India,Maharashtra,Jalna,"Old MIDC, Jalna - MPCB",26-01-2024 14:00:00,19.854616,75.905894,SO2,13,17,15
India,Maharashtra,Jalna,"Old MIDC, Jalna - MPCB",26-01-2024 14:00:00,19.854616,75.905894,OZONE,19,95,50
India,Maharashtra,Kalyan,"Khadakpada, Kalyan - MPCB",26-01-2024 14:00:00,19.25292,73.142019,NO2,16,227,65
India,Maharashtra,Kolhapur,"Shivaji University, Kolhapur - MPCB",26-01-2024 14:00:00,16.6870449,74.2505872,PM2.5,88,162,127
India,Maharashtra,Kolhapur,"Shivaji University, Kolhapur - MPCB",26-01-2024 14:00:00,16.6870449,74.2505872,CO,64,112,90
India,Maharashtra,Kolhapur,"Sinchan Bhavan, Kolhapur - MPCB",26-01-2024 14:00:00,16.7143745,74.2426398,SO2,NA,NA,NA
India,Maharashtra,Kolhapur,"Sinchan Bhavan, Kolhapur - MPCB",26-01-2024 14:00:00,16.7143745,74.2426398,CO,19,116,46
India,Maharashtra,Latur,"Sawe Wadi, Latur - MPCB",26-01-2024 14:00:00,18.39963,76.57452,NH3,8,8,8
India,Maharashtra,Latur,"Sawe Wadi, Latur - MPCB",26-01-2024 14:00:00,18.39963,76.57452,OZONE,47,101,62
India,Maharashtra,Mahad,"Kamble Tarf Birwadi, Mahad - MPCB",26-01-2024 14:00:00,18.1023399,73.4783687,PM10,71,124,99
India,Maharashtra,Mahad,"Kamble Tarf Birwadi, Mahad - MPCB",26-01-2024 14:00:00,18.1023399,73.4783687,SO2,11,14,13
India,Maharashtra,Mira-Bhayandar,"Bhayandar West, Mira-Bhayandar - MPCB",26-01-2024 14:00:00,19.296481,72.840923,NO2,15,57,41
India,Maharashtra,Mira-Bhayandar,"Bhayandar West, Mira-Bhayandar - MPCB",26-01-2024 14:00:00,19.296481,72.840923,OZONE,1,70,25
India,Maharashtra,Mumbai,"Borivali East, Mumbai - IITM",26-01-2024 14:00:00,19.23241,72.86895,NO2,37,112,64
India,Maharashtra,Mumbai,"Borivali East, Mumbai - IITM",26-01-2024 14:00:00,19.23241,72.86895,OZONE,6,83,37
India,Maharashtra,Mumbai,"Borivali East, Mumbai - MPCB",26-01-2024 14:00:00,19.2243333,72.8658113,SO2,5,8,6
India,Maharashtra,Mumbai,"Borivali East, Mumbai - MPCB",26-01-2024 14:00:00,19.2243333,72.8658113,CO,2,168,19
India,Maharashtra,Mumbai,"Byculla, Mumbai - BMC",26-01-2024 14:00:00,18.9767,72.8380,PM2.5,47,284,115
India,Maharashtra,Mumbai,"Byculla, Mumbai - BMC",26-01-2024 14:00:00,18.9767,72.8380,SO2,2,12,4
India,Maharashtra,Mumbai,"Chakala-Andheri East, Mumbai - IITM",26-01-2024 14:00:00,19.11074,72.86084,NO2,18,51,33
India,Maharashtra,Mumbai,"Chakala-Andheri East, Mumbai - IITM",26-01-2024 14:00:00,19.11074,72.86084,NH3,NA,NA,NA
India,Maharashtra,Mumbai,"Chembur, Mumbai - MPCB",26-01-2024 14:00:00,19.0364585,72.8954371,NH3,2,4,3
India,Maharashtra,Mumbai,"Colaba, Mumbai - MPCB",26-01-2024 14:00:00,18.910000,72.820000,NO2,16,35,25
India,Maharashtra,Mumbai,"Colaba, Mumbai - MPCB",26-01-2024 14:00:00,18.910000,72.820000,SO2,5,8,7
India,Maharashtra,Mumbai,"Colaba, Mumbai - MPCB",26-01-2024 14:00:00,18.910000,72.820000,OZONE,10,15,11
India,Maharashtra,Mumbai,"Deonar, Mumbai - IITM",26-01-2024 14:00:00,19.04946,72.9230,PM10,146,396,252
India,Maharashtra,Mumbai,"Deonar, Mumbai - IITM",26-01-2024 14:00:00,19.04946,72.9230,OZONE,24,73,56
India,Maharashtra,Mumbai,"Ghatkopar, Mumbai - BMC",26-01-2024 14:00:00,19.083694,72.920967,NH3,1,1,1
India,Maharashtra,Mumbai,"Ghatkopar, Mumbai - BMC",26-01-2024 14:00:00,19.083694,72.920967,SO2,1,4,2
India,Maharashtra,Mumbai,"Kandivali East, Mumbai - MPCB",26-01-2024 14:00:00,19.205800,72.868200,NO2,50,174,98
India,Maharashtra,Mumbai,"Kandivali East, Mumbai - MPCB",26-01-2024 14:00:00,19.205800,72.868200,NH3,5,11,8
India,Maharashtra,Mumbai,"Khindipada-Bhandup West, Mumbai - IITM",26-01-2024 14:00:00,19.1653323,72.922099,OZONE,12,77,45
India,Maharashtra,Mumbai,"Kurla, Mumbai - MPCB",26-01-2024 14:00:00,19.0863,72.8888,SO2,32,32,32
India,Maharashtra,Mumbai,"Kurla, Mumbai - MPCB",26-01-2024 14:00:00,19.0863,72.8888,CO,NA,NA,NA
India,Maharashtra,Mumbai,"Malad West, Mumbai - IITM",26-01-2024 14:00:00,19.19709,72.82204,NO2,NA,NA,NA
India,Maharashtra,Mumbai,"Malad West, Mumbai - IITM",26-01-2024 14:00:00,19.19709,72.82204,CO,NA,NA,NA
India,Maharashtra,Mumbai,"Mindspace-Malad West, Mumbai - MPCB",26-01-2024 14:00:00,19.1878657,72.8304069,NH3,8,9,9
India,Maharashtra,Mumbai,"Mindspace-Malad West, Mumbai - MPCB",26-01-2024 14:00:00,19.1878657,72.8304069,CO,24,138,88
India,Maharashtra,Mumbai,"Mulund West, Mumbai - MPCB",26-01-2024 14:00:00,19.1750,72.9419,PM2.5,29,80,52
India,Maharashtra,Mumbai,"Navy Nagar-Colaba, Mumbai - IITM",26-01-2024 14:00:00,18.897756,72.813320,PM2.5,55,200,109
India,Maharashtra,Mumbai,"Navy Nagar-Colaba, Mumbai - IITM",26-01-2024 14:00:00,18.897756,72.813320,PM10,93,197,140
India,Maharashtra,Mumbai,"Navy Nagar-Colaba, Mumbai - IITM",26-01-2024 14:00:00,18.897756,72.813320,NH3,13,19,15
India,Maharashtra,Mumbai,"Powai, Mumbai - MPCB",26-01-2024 14:00:00,19.137500,72.915056,NO2,25,46,33
India,Maharashtra,Mumbai,"Powai, Mumbai - MPCB",26-01-2024 14:00:00,19.137500,72.915056,NH3,1,1,1
India,Maharashtra,Mumbai,"Powai, Mumbai - MPCB",26-01-2024 14:00:00,19.137500,72.915056,SO2,18,20,19
India,Maharashtra,Mumbai,"Powai, Mumbai - MPCB",26-01-2024 14:00:00,19.137500,72.915056,CO,34,50,45
India,Maharashtra,Mumbai,"Sewri, Mumbai - BMC",26-01-2024 14:00:00,19.000084,72.856730,NO2,38,135,92
India,Maharashtra,Mumbai,"Sewri, Mumbai - BMC",26-01-2024 14:00:00,19.000084,72.856730,OZONE,1,214,193
India,Maharashtra,Mumbai,"Shivaji Nagar, Mumbai - BMC",26-01-2024 14:00:00,19.060498,72.923356,CO,2,122,8
India,Maharashtra,Mumbai,"Siddharth Nagar-Worli, Mumbai - IITM",26-01-2024 14:00:00,19.000083,72.813993,CO,2,58,24
India,Maharashtra,Mumbai,"Sion, Mumbai - MPCB",26-01-2024 14:00:00,19.047000,72.874600,NH3,1,3,2
India,Maharashtra,Mumbai,"Vasai West, Mumbai - MPCB",26-01-2024 14:00:00,19.383200,72.820400,PM2.5,19,93,48
India,Maharashtra,Mumbai,"Vasai West, Mumbai - MPCB",26-01-2024 14:00:00,19.383200,72.820400,PM10,38,158,90
India,Maharashtra,Mumbai,"Vasai West, Mumbai - MPCB",26-01-2024 14:00:00,19.383200,72.820400,NH3,4,4,4
India,Maharashtra,Mumbai,"Vasai West, Mumbai - MPCB",26-01-2024 14:00:00,19.383200,72.820400,SO2,21,25,22
India,Maharashtra,Mumbai,"Vasai West, Mumbai - MPCB",26-01-2024 14:00:00,19.383200,72.820400,OZONE,6,72,30
India,Maharashtra,Mumbai,"Vile Parle West, Mumbai - MPCB",26-01-2024 14:00:00,19.10861,72.83622,NO2,1,45,19
India,Maharashtra,Mumbai,"Worli, Mumbai - MPCB",26-01-2024 14:00:00,18.9936162,72.8128113,PM2.5,32,84,57
India,Maharashtra,Mumbai,"Worli, Mumbai - MPCB",26-01-2024 14:00:00,18.9936162,72.8128113,NH3,1,1,1
India,Maharashtra,Mumbai,"Worli, Mumbai - MPCB",26-01-2024 14:00:00,18.9936162,72.8128113,OZONE,6,12,9
India,Maharashtra,Nagpur,"Ambazari, Nagpur - MPCB",26-01-2024 14:00:00,21.121801,79.04952,NH3,1,17,5
India,Maharashtra,Nagpur,"Mahal, Nagpur - MPCB",26-01-2024 14:00:00,21.14472,79.107595,NH3,1,4,2
India,Maharashtra,Nagpur,"Opp GPO Civil Lines, Nagpur - MPCB",26-01-2024 14:00:00,21.152875,79.0517531,PM10,87,197,142
India,Maharashtra,Nagpur,"Opp GPO Civil Lines, Nagpur - MPCB",26-01-2024 14:00:00,21.152875,79.0517531,NH3,1,10,3
India,Maharashtra,Nagpur,"Ram Nagar, Nagpur - MPCB",26-01-2024 14:00:00,21.143383,79.048912,PM2.5,76,298,160
India,Maharashtra,Nagpur,"Ram Nagar, Nagpur - MPCB",26-01-2024 14:00:00,21.143383,79.048912,NH3,5,6,6
India,Maharashtra,Nagpur,"Ram Nagar, Nagpur - MPCB",26-01-2024 14:00:00,21.143383,79.048912,CO,16,100,28
India,Maharashtra,Nanded,"Sneh Nagar, Nanded - MPCB",26-01-2024 14:00:00,19.173852,77.296291,SO2,6,25,11
India,Maharashtra,Nashik,"Gangapur Road, Nashik - MPCB",26-01-2024 14:00:00,20.0073285,73.7762427,SO2,1,44,10
India,Maharashtra,Nashik,"MIDC Ambad, Nashik - MPCB",26-01-2024 14:00:00,19.950220,73.731480,OZONE,7,88,44
India,Maharashtra,Nashik,"Pandav Nagari, Nashik - MPCB",26-01-2024 14:00:00,19.9591346,73.7788008,CO,29,102,45
India,Maharashtra,Navi Mumbai,"Kopripada-Vashi, Navi Mumbai - MPCB",26-01-2024 14:00:00,19.090337,73.014232,PM10,66,165,103
India,Maharashtra,Navi Mumbai,"Kopripada-Vashi, Navi Mumbai - MPCB",26-01-2024 14:00:00,19.090337,73.014232,SO2,22,57,37
India,Maharashtra,Navi Mumbai,"Mahape, Navi Mumbai - MPCB",26-01-2024 14:00:00,19.1135051,73.008978,PM10,59,176,115
India,Maharashtra,Navi Mumbai,"Mahape, Navi Mumbai - MPCB",26-01-2024 14:00:00,19.1135051,73.008978,NO2,37,38,38
India,Maharashtra,Navi Mumbai,"Nerul, Navi Mumbai - MPCB",26-01-2024 14:00:00,19.008751,73.016620,PM2.5,40,217,98
India,Maharashtra,Navi Mumbai,"Sanpada, Navi Mumbai - MPCB",26-01-2024 14:00:00,19.0575752,73.0151367,CO,12,124,54
India,Maharashtra,Navi Mumbai,"Sector-19A Nerul, Navi Mumbai - IITM",26-01-2024 14:00:00,19.044,73.0325,PM10,121,290,192
India,Maharashtra,Navi Mumbai,"Sector-19A Nerul, Navi Mumbai - IITM",26-01-2024 14:00:00,19.044,73.0325,NO2,23,154,75
India,Maharashtra,Navi Mumbai,"Sector-19A Nerul, Navi Mumbai - IITM",26-01-2024 14:00:00,19.044,73.0325,SO2,11,89,29
India,Maharashtra,Navi Mumbai,"Sector-19A Nerul, Navi Mumbai - IITM",26-01-2024 14:00:00,19.044,73.0325,CO,12,108,52
India,Maharashtra,Navi Mumbai,"Sector-2E Kalamboli, Navi Mumbai - MPCB",26-01-2024 14:00:00,19.02579,73.10297,NH3,7,23,15
India,Maharashtra,Navi Mumbai,"Sector-2E Kalamboli, Navi Mumbai - MPCB",26-01-2024 14:00:00,19.02579,73.10297,CO,8,104,59
India,Maharashtra,Navi Mumbai,"Sector-2E Kalamboli, Navi Mumbai - MPCB",26-01-2024 14:00:00,19.02579,73.10297,OZONE,1,85,32
India,Maharashtra,Navi Mumbai,"Tondare-Taloja, Navi Mumbai - MPCB",26-01-2024 14:00:00,19.0630,73.1209,PM2.5,48,304,177
India,Maharashtra,Navi Mumbai,"Tondare-Taloja, Navi Mumbai - MPCB",26-01-2024 14:00:00,19.0630,73.1209,NH3,3,10,6
India,Maharashtra,Navi Mumbai,"Tondare-Taloja, Navi Mumbai - MPCB",26-01-2024 14:00:00,19.0630,73.1209,CO,8,62,44
India,Maharashtra,Parbhani,"Masoom Colony, Parbhani - MPCB",26-01-2024 14:00:00,19.265594,76.761463,PM10,78,500,131
India,Maharashtra,Parbhani,"Masoom Colony, Parbhani - MPCB",26-01-2024 14:00:00,19.265594,76.761463,NO2,15,87,37
India,Maharashtra,Pimpri-Chinchwad,"Park Street Wakad, Pimpri Chinchwad - MPCB",26-01-2024 14:00:00,18.59051,73.77946,PM10,97,372,217
India,Maharashtra,Pimpri-Chinchwad,"Park Street Wakad, Pimpri Chinchwad - MPCB",26-01-2024 14:00:00,18.59051,73.77946,NH3,11,28,18
India,Maharashtra,Pimpri-Chinchwad,"Thergaon, Pimpri Chinchwad - MPCB",26-01-2024 14:00:00,18.616318,73.765797,NO2,45,150,90
India,Maharashtra,Pimpri-Chinchwad,"Thergaon, Pimpri Chinchwad - MPCB",26-01-2024 14:00:00,18.616318,73.765797,NH3,5,38,18
India,Maharashtra,Pimpri-Chinchwad,"Thergaon, Pimpri Chinchwad - MPCB",26-01-2024 14:00:00,18.616318,73.765797,CO,20,110,61
India,Maharashtra,Pune,"Bhosari, Pune - IITM",26-01-2024 14:00:00,18.640051,73.848956,PM2.5,28,317,180
India,Maharashtra,Pune,"Bhosari, Pune - IITM",26-01-2024 14:00:00,18.640051,73.848956,CO,38,56,41
India,Maharashtra,Pune,"Bhosari, Pune - IITM",26-01-2024 14:00:00,18.640051,73.848956,OZONE,1,23,12
India,Maharashtra,Pune,"Katraj Dairy, Pune - MPCB",26-01-2024 14:00:00,18.454450,73.854155,OZONE,1,41,15
India,Maharashtra,Pune,"Mhada Colony, Pune - IITM",26-01-2024 14:00:00,18.573040,73.927715,PM10,55,149,107
India,Maharashtra,Pune,"Mhada Colony, Pune - IITM",26-01-2024 14:00:00,18.573040,73.927715,NO2,10,70,44
India,Maharashtra,Pune,"Savitribai Phule Pune University, Pune - MPCB",26-01-2024 14:00:00,18.547056,73.826908,OZONE,1,191,159
India,Maharashtra,Sangli,"Vijay Nagar, Sangli - MPCB",26-01-2024 14:00:00, 16.5038,74.3623,SO2,8,27,14
India,Maharashtra,Solapur,"Dnyaneshwar Nagar, Solapur - MPCB",26-01-2024 14:00:00,17.6336264,75.9132495,PM10,73,214,129
India,Maharashtra,Solapur,"Ratandeep Housing Society, Solapur - MPCB",26-01-2024 14:00:00,17.65439,75.90649,PM10,93,179,116
India,Maharashtra,Solapur,"Ratandeep Housing Society, Solapur - MPCB",26-01-2024 14:00:00,17.65439,75.90649,NH3,8,15,10
India,Maharashtra,Solapur,"Solapur, Solapur - MPCB",26-01-2024 14:00:00,17.6599188,75.9063906,SO2,NA,NA,NA
India,Maharashtra,Solapur,"Solapur, Solapur - MPCB",26-01-2024 14:00:00,17.6599188,75.9063906,OZONE,33,76,46
India,Maharashtra,Thane,"Kasarvadavali, Thane - MPCB",26-01-2024 14:00:00,19.26777,72.97182,OZONE,3,129,51
India,Maharashtra,Thane,"Upvan Fort, Thane - MPCB",26-01-2024 14:00:00,19.222279,72.957979,PM10,104,170,135
India,Maharashtra,Thane,"Upvan Fort, Thane - MPCB",26-01-2024 14:00:00,19.222279,72.957979,NO2,18,79,43
India,Maharashtra,Thane,"Upvan Fort, Thane - MPCB",26-01-2024 14:00:00,19.222279,72.957979,CO,4,52,29
India,Maharashtra,Thane,"Upvan Fort, Thane - MPCB",26-01-2024 14:00:00,19.222279,72.957979,OZONE,19,128,64
India,Maharashtra,Ulhasnagar,"Sidhi Vinayak Nagar, Ulhasnagar - MPCB",26-01-2024 14:00:00,19.235581,73.159121,PM10,83,427,175
India,Maharashtra,Virar,"Bolinj, Virar - MPCB",26-01-2024 14:00:00,19.4458210,72.7988231,PM10,111,440,174
India,Maharashtra,Virar,"Bolinj, Virar - MPCB",26-01-2024 14:00:00,19.4458210,72.7988231,NH3,5,12,7
India,Manipur,Imphal,"DM College of Science, Imphal - Manipur PCB",26-01-2024 14:00:00,24.8207389,93.9423085,CO,6,6,6
India,Manipur,Imphal,"Manipur University, Imphal - Manipur PCB",26-01-2024 14:00:00,24.7524239,93.9286218,NH3,NA,NA,NA
India,Meghalaya,Shillong,"JN Stadium, Shillong - Meghalaya PCB",26-01-2024 14:00:00,25.5803419,91.8942571,PM10,18,87,41
India,Meghalaya,Shillong,"JN Stadium, Shillong - Meghalaya PCB",26-01-2024 14:00:00,25.5803419,91.8942571,SO2,27,31,29
India,Meghalaya,Shillong,"Lumpyngngad, Shillong - Meghalaya PCB",26-01-2024 14:00:00,25.5586,91.8985,PM10,75,129,97
India,Meghalaya,Shillong,"Lumpyngngad, Shillong - Meghalaya PCB",26-01-2024 14:00:00,25.5586,91.8985,NO2,6,6,6
India,Meghalaya,Shillong,"Lumpyngngad, Shillong - Meghalaya PCB",26-01-2024 14:00:00,25.5586,91.8985,OZONE,63,110,99
India,Mizoram,Aizawl,"Sikulpuikawn, Aizawl - Mizoram PCB",26-01-2024 14:00:00,23.7176342,92.7192841,NO2,1,3,1
India,Mizoram,Aizawl,"Sikulpuikawn, Aizawl - Mizoram PCB",26-01-2024 14:00:00,23.7176342,92.7192841,SO2,2,2,2
India,Nagaland,Kohima,"PWD Juction, Kohima - NPCB",26-01-2024 14:00:00,25.6635413,94.0989878,PM2.5,67,282,132
India,Nagaland,Kohima,"PWD Juction, Kohima - NPCB",26-01-2024 14:00:00,25.6635413,94.0989878,NH3,NA,NA,NA
India,Nagaland,Kohima,"PWD Juction, Kohima - NPCB",26-01-2024 14:00:00,25.6635413,94.0989878,OZONE,11,18,15
India,Odisha,Angul,"Hakimapada, Angul - OSPCB",26-01-2024 14:00:00,20.832874,85.104082,NH3,2,6,4
India,Odisha,Balasore,"Kalidaspur, Balasore - OSPCB",26-01-2024 14:00:00,21.51161,86.89088,OZONE,3,108,45
India,Odisha,Barbil,"Forest Office, Barbil - OSPCB",26-01-2024 14:00:00,22.1166054,85.3945546,CO,40,98,67
India,Odisha,Bhubaneswar,"Lingraj Mandir, Bhubaneswar - OSPCB",26-01-2024 14:00:00,20.240790,85.836784,PM2.5,88,417,246
India,Odisha,Bhubaneswar,"Lingraj Mandir, Bhubaneswar - OSPCB",26-01-2024 14:00:00,20.240790,85.836784,NO2,29,59,41
India,Odisha,Bileipada,"Tata Township, Bileipada - OSPCB",26-01-2024 14:00:00,22.06156703,85.47409613,OZONE,18,25,22
India,Odisha,Brajrajnagar,"GM Office, Brajrajnagar - OSPCB",26-01-2024 14:00:00,21.8004996,83.8396977,PM10,23,149,68
India,Odisha,Byasanagar,"Ferro Chrome Colony, Byasanagar - OSPCB",26-01-2024 14:00:00,20.94185,86.11510,PM2.5,70,306,153
India,Odisha,Cuttack,"CDA Area, Cuttack - OSPCB",26-01-2024 14:00:00,20.48891     ,85.84768     ,PM2.5,80,337,245
India,Odisha,Cuttack,"CDA Area, Cuttack - OSPCB",26-01-2024 14:00:00,20.48891     ,85.84768     ,NH3,2,3,2
India,Odisha,Keonjhar,"Jagamohanpur, Keonjhar - OSPCB",26-01-2024 14:00:00,21.643900,85.599355,PM2.5,NA,NA,NA
India,Odisha,Keonjhar,"Jagamohanpur, Keonjhar - OSPCB",26-01-2024 14:00:00,21.643900,85.599355,OZONE,NA,NA,NA
India,Odisha,Nayagarh,"Dabuna, Nayagarh - OSPCB",26-01-2024 14:00:00,21.847279,85.416905,PM2.5,67,116,88
India,Odisha,Rairangpur,"Divisional Forest Office, Rairangpur - OSPCB",26-01-2024 14:00:00,22.265816,86.174829,PM2.5,NA,NA,NA
India,Odisha,Rairangpur,"Divisional Forest Office, Rairangpur - OSPCB",26-01-2024 14:00:00,22.265816,86.174829,SO2,NA,NA,NA
India,Odisha,Rairangpur,"Divisional Forest Office, Rairangpur - OSPCB",26-01-2024 14:00:00,22.265816,86.174829,OZONE,10,74,34
India,Odisha,Rourkela,"Fertilizer Township, Rourkela - OSPCB",26-01-2024 14:00:00,22.18972222,84.86277778,CO,NA,NA,NA
India,Odisha,Rourkela,"Raghunathpali, Rourkela - OSPCB",26-01-2024 14:00:00,22.220833,84.809444,PM10,77,162,120
India,Odisha,Rourkela,"Raghunathpali, Rourkela - OSPCB",26-01-2024 14:00:00,22.220833,84.809444,NO2,25,138,59
India,Odisha,Rourkela,"Raghunathpali, Rourkela - OSPCB",26-01-2024 14:00:00,22.220833,84.809444,NH3,1,2,1
India,Odisha,Rourkela,"Sector-2, Rourkela - OSPCB",26-01-2024 14:00:00,22.24500000,84.88111111,PM2.5,23,87,55
India,Odisha,Rourkela,"Sector-2, Rourkela - OSPCB",26-01-2024 14:00:00,22.24500000,84.88111111,CO,12,46,26
India,Odisha,Suakati,"OMC Colony, Suakati - OSPCB",26-01-2024 14:00:00,21.606865,85.510538,PM2.5,83,174,121
India,Odisha,Suakati,"OMC Colony, Suakati - OSPCB",26-01-2024 14:00:00,21.606865,85.510538,CO,16,25,20
India,Odisha,Suakati,"OMC Colony, Suakati - OSPCB",26-01-2024 14:00:00,21.606865,85.510538,OZONE,22,171,83
India,Odisha,Talcher,"Talcher Coalfields,Talcher - OSPCB",26-01-2024 14:00:00,20.9360711,85.1707021,NO2,42,50,46
India,Odisha,Talcher,"Talcher Coalfields,Talcher - OSPCB",26-01-2024 14:00:00,20.9360711,85.1707021,NH3,7,7,7
India,Odisha,Tensa,"Barsua Iron Ore Mines, Tensa - OSPCB",26-01-2024 14:00:00,21.869985,85.167016,PM10,61,115,85
India,Odisha,Tensa,"Barsua Iron Ore Mines, Tensa - OSPCB",26-01-2024 14:00:00,21.869985,85.167016,CO,18,36,24
India,Puducherry,Puducherry,"Jawahar Nagar, Puducherry - PPCC",26-01-2024 14:00:00,11.9309,79.8027,PM10,34,75,47
India,Puducherry,Puducherry,"Jawahar Nagar, Puducherry - PPCC",26-01-2024 14:00:00,11.9309,79.8027,CO,36,66,54
India,Punjab,Amritsar,"Golden Temple, Amritsar - PPCB",26-01-2024 14:00:00,31.620000,74.876512,NO2,41,129,99
India,Punjab,Jalandhar,"Civil Line, Jalandhar - PPCB",26-01-2024 14:00:00,31.321907,75.578914,NH3,5,5,5
India,Punjab,Jalandhar,"Civil Line, Jalandhar - PPCB",26-01-2024 14:00:00,31.321907,75.578914,CO,43,107,72
India,Punjab,Ludhiana,"Punjab Agricultural University, Ludhiana - PPCB",26-01-2024 14:00:00,30.9028,75.8086,NH3,6,11,8
India,Punjab,Ludhiana,"Punjab Agricultural University, Ludhiana - PPCB",26-01-2024 14:00:00,30.9028,75.8086,CO,23,102,47
India,Punjab,Mandi Gobindgarh,"RIMT University, Mandi Gobindgarh - PPCB",26-01-2024 14:00:00,30.649961,76.331442,NO2,30,32,31
India,Punjab,Patiala,"Model Town, Patiala - PPCB",26-01-2024 14:00:00,30.349388,76.366642,PM10,63,124,100
India,Rajasthan,Ajmer,"Civil Lines,  Ajmer - RSPCB",26-01-2024 14:00:00,26.470859,74.646594,NO2,21,97,43
India,Rajasthan,Alwar,"Moti Doongri, Alwar - RSPCB",26-01-2024 14:00:00,27.554793,76.611536,PM2.5,64,304,183
India,Rajasthan,Alwar,"Moti Doongri, Alwar - RSPCB",26-01-2024 14:00:00,27.554793,76.611536,CO,64,132,95
India,Rajasthan,Baran,"Bamboliya, Baran - RSPCB",26-01-2024 14:00:00,25.106006,76.469948,PM10,50,156,101
India,Rajasthan,Baran,"Bamboliya, Baran - RSPCB",26-01-2024 14:00:00,25.106006,76.469948,CO,26,66,41
India,Rajasthan,Barmer,"Railway Colony, Barmer - RSPCB",26-01-2024 14:00:00,25.747299,71.393989,NO2,12,103,29
India,Rajasthan,Barmer,"Railway Colony, Barmer - RSPCB",26-01-2024 14:00:00,25.747299,71.393989,CO,2,104,26
India,Rajasthan,Bhilwara,"Pratap Nagar, Bhilwara - RSPCB",26-01-2024 14:00:00,25.339605,74.618883,PM2.5,27,333,172
India,Rajasthan,Bhilwara,"Pratap Nagar, Bhilwara - RSPCB",26-01-2024 14:00:00,25.339605,74.618883,PM10,28,251,140
India,Rajasthan,Bhilwara,"Pratap Nagar, Bhilwara - RSPCB",26-01-2024 14:00:00,25.339605,74.618883,CO,17,101,55
India,Rajasthan,Bhiwadi,"RIICO Ind. Area III, Bhiwadi - RSPCB",26-01-2024 14:00:00,28.194909,76.862296,PM2.5,147,383,310
India,Rajasthan,Bhiwadi,"RIICO Ind. Area III, Bhiwadi - RSPCB",26-01-2024 14:00:00,28.194909,76.862296,NH3,8,19,14
India,Rajasthan,Bikaner,"MM Ground, Bikaner - RSPCB",26-01-2024 14:00:00,28.018792,73.292658,NH3,12,17,15
India,Rajasthan,Bikaner,"MM Ground, Bikaner - RSPCB",26-01-2024 14:00:00,28.018792,73.292658,SO2,3,10,5
India,Rajasthan,Bikaner,"MM Ground, Bikaner - RSPCB",26-01-2024 14:00:00,28.018792,73.292658,CO,64,105,88
India,Rajasthan,Bundi,"New Colony, Bundi - RSPCB",26-01-2024 14:00:00,25.435774,75.644272,CO,30,120,52
India,Rajasthan,Chittorgarh,"Shastri Nagar, Chittorgarh - RSPCB",26-01-2024 14:00:00,24.892047,74.623527,PM2.5,13,316,140
India,Rajasthan,Chittorgarh,"Shastri Nagar, Chittorgarh - RSPCB",26-01-2024 14:00:00,24.892047,74.623527,OZONE,2,95,23
India,Rajasthan,Dausa,"Khatikan Mohalla, Dausa - RSPCB",26-01-2024 14:00:00,26.895552,76.334753,PM10,125,342,219
India,Rajasthan,Dausa,"Khatikan Mohalla, Dausa - RSPCB",26-01-2024 14:00:00,26.895552,76.334753,NH3,9,17,13
India,Rajasthan,Dholpur,"Raja Ganj, Dholpur - RSPCB",26-01-2024 14:00:00,26.699557,77.898881,PM10,86,268,146
India,Rajasthan,Dholpur,"Raja Ganj, Dholpur - RSPCB",26-01-2024 14:00:00,26.699557,77.898881,NH3,9,12,10
India,Rajasthan,Dholpur,"Raja Ganj, Dholpur - RSPCB",26-01-2024 14:00:00,26.699557,77.898881,SO2,6,20,17
India,Rajasthan,Hanumangarh,"Housing Board, Hanumangarh - RSPCB",26-01-2024 14:00:00,29.610750,74.283608,OZONE,1,28,6
India,Rajasthan,Jaipur,"Police Commissionerate, Jaipur - RSPCB",26-01-2024 14:00:00,26.9164092,75.7994901,PM2.5,89,315,205
India,Rajasthan,Jaipur,"Police Commissionerate, Jaipur - RSPCB",26-01-2024 14:00:00,26.9164092,75.7994901,NO2,20,79,45
India,Rajasthan,Jaipur,"Police Commissionerate, Jaipur - RSPCB",26-01-2024 14:00:00,26.9164092,75.7994901,CO,33,74,43
India,Rajasthan,Jaipur,"RIICO Sitapura, Jaipur - RSPCB",26-01-2024 14:00:00,26.786682,75.827928,PM2.5,77,340,262
India,Rajasthan,Jaipur,"Sector-2 Murlipura, Jaipur - RSPCB",26-01-2024 14:00:00,26.960669,75.771817,PM2.5,85,345,254
India,Rajasthan,Jaipur,"Sector-2 Murlipura, Jaipur - RSPCB",26-01-2024 14:00:00,26.960669,75.771817,PM10,118,315,177
India,Rajasthan,Jaipur,"Shastri Nagar, Jaipur - RSPCB",26-01-2024 14:00:00,26.9502929,75.730943,PM2.5,73,234,166
India,Rajasthan,Jaipur,"Shastri Nagar, Jaipur - RSPCB",26-01-2024 14:00:00,26.9502929,75.730943,PM10,108,154,127
India,Rajasthan,Jaisalmer,"Sadar Bazar, Jaisalmer - RSPCB",26-01-2024 14:00:00,26.912329,70.909168,PM2.5,49,334,242
India,Rajasthan,Jaisalmer,"Sadar Bazar, Jaisalmer - RSPCB",26-01-2024 14:00:00,26.912329,70.909168,NH3,6,12,9
India,Rajasthan,Jaisalmer,"Sadar Bazar, Jaisalmer - RSPCB",26-01-2024 14:00:00,26.912329,70.909168,SO2,4,11,6
India,Rajasthan,Jaisalmer,"Sadar Bazar, Jaisalmer - RSPCB",26-01-2024 14:00:00,26.912329,70.909168,CO,26,72,50
India,Rajasthan,Jalore,"Mudtra Sili, Jalore - RSPCB",26-01-2024 14:00:00,25.344694,72.626208,SO2,7,13,10
India,Rajasthan,Jalore,"Mudtra Sili, Jalore - RSPCB",26-01-2024 14:00:00,25.344694,72.626208,CO,28,125,58
India,Rajasthan,Jhunjhunu,"Indra Nagar, Jhunjhunu - RSPCB",26-01-2024 14:00:00,28.108988,75.386577,NH3,10,18,13
India,Rajasthan,Jodhpur,"Collectorate, Jodhpur - RSPCB",26-01-2024 14:00:00,26.268249,73.0193853,PM2.5,NA,NA,NA
India,Rajasthan,Jodhpur,"Collectorate, Jodhpur - RSPCB",26-01-2024 14:00:00,26.268249,73.0193853,NO2,NA,NA,NA
India,Rajasthan,Jodhpur,"Digari Kalan, Jodhpur - RSPCB",26-01-2024 14:00:00,26.295810,73.082283,PM2.5,21,274,106
India,Rajasthan,Jodhpur,"Samrat Ashok Udhyan, Jodhpur - RSPCB",26-01-2024 14:00:00,26.253384,72.976571,PM10,59,500,179
India,Rajasthan,Jodhpur,"Samrat Ashok Udhyan, Jodhpur - RSPCB",26-01-2024 14:00:00,26.253384,72.976571,NO2,13,160,67
India,Rajasthan,Jodhpur,"Samrat Ashok Udhyan, Jodhpur - RSPCB",26-01-2024 14:00:00,26.253384,72.976571,SO2,8,30,14
India,Rajasthan,Karauli,"Satyawati Vihar, Karauli - RSPCB",26-01-2024 14:00:00,26.506177,77.025989,CO,22,92,39
India,Rajasthan,Kota,"Dhanmandi, Kota - RSPCB",26-01-2024 14:00:00,25.164090,75.858137,NH3,NA,NA,NA
India,Rajasthan,Kota,"Dhanmandi, Kota - RSPCB",26-01-2024 14:00:00,25.164090,75.858137,SO2,NA,NA,NA
India,Rajasthan,Kota,"Nayapura, Kota - RSPCB",26-01-2024 14:00:00,25.196024,75.855668,NO2,24,88,49
India,Rajasthan,Kota,"Shrinath Puram, Kota - RSPCB",26-01-2024 14:00:00,25.14389,75.821256,OZONE,30,111,65
India,Rajasthan,Nagaur,"Karni Colony, Nagaur - RSPCB",26-01-2024 14:00:00,27.213494,73.734444,SO2,1,15,4
India,Rajasthan,Pali,"Indira Colony Vistar, Pali - RSPCB",26-01-2024 14:00:00,25.771061, 73.340227,NO2,19,70,40
India,Rajasthan,Pali,"Indira Colony Vistar, Pali - RSPCB",26-01-2024 14:00:00,25.771061, 73.340227,CO,12,113,41
India,Rajasthan,Pratapgarh,"Pragati Nagar, Pratapgarh - RSPCB",26-01-2024 14:00:00,24.041198,74.780702,PM2.5,24,143,72
India,Rajasthan,Pratapgarh,"Pragati Nagar, Pratapgarh - RSPCB",26-01-2024 14:00:00,24.041198,74.780702,SO2,2,8,4
India,Rajasthan,Pratapgarh,"Pragati Nagar, Pratapgarh - RSPCB",26-01-2024 14:00:00,24.041198,74.780702,OZONE,45,112,71
India,Rajasthan,Rajsamand,"Dhoinda, Rajsamand - RSPCB",26-01-2024 14:00:00,25.036360,73.883502,PM2.5,43,325,148
India,Rajasthan,Rajsamand,"Dhoinda, Rajsamand - RSPCB",26-01-2024 14:00:00,25.036360,73.883502,CO,28,70,44
India,Rajasthan,Rajsamand,"Dhoinda, Rajsamand - RSPCB",26-01-2024 14:00:00,25.036360,73.883502,OZONE,1,57,23
India,Rajasthan,Sawai Madhopur,"Sahu Nagar, Sawai Madhopur - RSPCB",26-01-2024 14:00:00,26.031443,76.359327,CO,26,86,58
India,Rajasthan,Sikar,"Radhakishan Pura, Sikar - RSPCB",26-01-2024 14:00:00,27.608912,75.153302,PM10,66,248,145
India,Rajasthan,Sikar,"Radhakishan Pura, Sikar - RSPCB",26-01-2024 14:00:00,27.608912,75.153302,NH3,2,5,4
India,Rajasthan,Sirohi,"Vedhaynath Colony, Sirohi - RSPCB",26-01-2024 14:00:00,24.885261,72.857549,PM2.5,22,203,67
India,Rajasthan,Sirohi,"Vedhaynath Colony, Sirohi - RSPCB",26-01-2024 14:00:00,24.885261,72.857549,NH3,3,8,5
India,Rajasthan,Sirohi,"Vedhaynath Colony, Sirohi - RSPCB",26-01-2024 14:00:00,24.885261,72.857549,SO2,3,13,6
India,Rajasthan,Sri Ganganagar,"Old City, Sri Ganganagar - RSPCB",26-01-2024 14:00:00,29.931624,73.864511,NH3,5,22,10
India,Rajasthan,Tonk,"Shastri Nagar, Tonk - RSPCB",26-01-2024 14:00:00,26.159933,75.780517,PM2.5,80,310,171
India,Rajasthan,Tonk,"Shastri Nagar, Tonk - RSPCB",26-01-2024 14:00:00,26.159933,75.780517,NO2,20,213,41
India,Rajasthan,Tonk,"Shastri Nagar, Tonk - RSPCB",26-01-2024 14:00:00,26.159933,75.780517,NH3,3,23,10
India,Rajasthan,Tonk,"Shastri Nagar, Tonk - RSPCB",26-01-2024 14:00:00,26.159933,75.780517,OZONE,2,70,19
India,Rajasthan,Udaipur,"Ashok Nagar, Udaipur - RSPCB",26-01-2024 14:00:00,24.5886166,73.6321397,SO2,11,25,18
India,TamilNadu,Ariyalur,"Keelapalur, Ariyalur - TNPCB",26-01-2024 14:00:00,11.06825,79.07033,PM2.5,18,122,48
India,TamilNadu,Ariyalur,"Keelapalur, Ariyalur - TNPCB",26-01-2024 14:00:00,11.06825,79.07033,NO2,8,33,16
India,TamilNadu,Chennai,"Alandur Bus Depot, Chennai - CPCB",26-01-2024 14:00:00,12.9099161,80.1076538,PM2.5,277,385,332
India,TamilNadu,Chennai,"Alandur Bus Depot, Chennai - CPCB",26-01-2024 14:00:00,12.9099161,80.1076538,PM10,167,358,241
India,TamilNadu,Chennai,"Alandur Bus Depot, Chennai - CPCB",26-01-2024 14:00:00,12.9099161,80.1076538,NO2,12,72,33
India,TamilNadu,Chennai,"Gandhi Nagar_Ennore, Chennai - TNPCB",26-01-2024 14:00:00,13.218341,80.32027,PM10,35,153,66
India,TamilNadu,Chennai,"Gandhi Nagar_Ennore, Chennai - TNPCB",26-01-2024 14:00:00,13.218341,80.32027,NO2,16,40,24
India,TamilNadu,Chennai,"Kodungaiyur, Chennai - TNPCB",26-01-2024 14:00:00,13.1278,80.2642,SO2,4,13,7
India,TamilNadu,Chennai,"Manali, Chennai - CPCB",26-01-2024 14:00:00,13.164544,80.26285,NH3,3,11,5
India,TamilNadu,Chennai,"Manali, Chennai - CPCB",26-01-2024 14:00:00,13.164544,80.26285,SO2,1,14,5
India,TamilNadu,Chennai,"Royapuram, Chennai - TNPCB",26-01-2024 14:00:00,13.1036,80.2909,OZONE,9,10,9
India,TamilNadu,Chennai,"Velachery Res. Area, Chennai - CPCB",26-01-2024 14:00:00,13.0052189,80.2398125,CO,15,100,59
India,TamilNadu,Coimbatore,"PSG College of Arts and Science, Coimbatore - TNPCB",26-01-2024 14:00:00,11.0328,77.0349,NO2,1,7,3
India,TamilNadu,Coimbatore,"PSG College of Arts and Science, Coimbatore - TNPCB",26-01-2024 14:00:00,11.0328,77.0349,SO2,16,19,18
India,TamilNadu,Coimbatore,"PSG College of Arts and Science, Coimbatore - TNPCB",26-01-2024 14:00:00,11.0328,77.0349,CO,5,28,11
India,TamilNadu,Cuddalore,"Kudikadu, Cuddalore - TNPCB",26-01-2024 14:00:00,11.6829898,79.7532099,PM2.5,33,288,66
India,TamilNadu,Cuddalore,"Semmandalam, Cuddalore - TNPCB",26-01-2024 14:00:00,11.7637683,79.7499835,PM2.5,32,97,56
India,TamilNadu,Gummidipoondi,"Anthoni Pillai Nagar, Gummidipoondi - TNPCB",26-01-2024 14:00:00,13.4127,80.1081,NO2,10,17,12
India,TamilNadu,Ooty,"Bombay Castel, Ooty - TNPCB",26-01-2024 14:00:00,11.4068288,76.7138973,PM2.5,55,181,87
India,TamilNadu,Ooty,"Bombay Castel, Ooty - TNPCB",26-01-2024 14:00:00,11.4068288,76.7138973,PM10,48,126,74
India,TamilNadu,Ooty,"Bombay Castel, Ooty - TNPCB",26-01-2024 14:00:00,11.4068288,76.7138973,NO2,NA,NA,NA
India,TamilNadu,Ramanathapuram,"Chalai Bazaar, Ramanathapuram - TNPCB",26-01-2024 14:00:00,9.36399,78.831977,CO,7,20,14
India,TamilNadu,Salem,"Sona College of Technology, Salem - TNPCB",26-01-2024 14:00:00,11.679111,78.125052,NO2,7,11,9
India,TamilNadu,Thoothukudi,"Meelavittan, Thoothukudi - TNPCB",26-01-2024 14:00:00,8.816428 ,78.099039,SO2,8,20,13
India,TamilNadu,Tirupur,"Kumaran College, Tirupur - TNPCB",26-01-2024 14:00:00,11.0973603,77.3228673,CO,25,98,37
India,TamilNadu,Vellore,"Vasanthapuram, Vellore - TNPCB",26-01-2024 14:00:00,12.909494,79.131861,OZONE,1,1,1
India,TamilNadu,Virudhunagar,"Collectorate Office, Virudhunagar - TNPCB",26-01-2024 14:00:00,9.559382,77.948828,PM2.5,30,67,43
India,Telangana,Hyderabad,"Bollaram Industrial Area, Hyderabad - TSPCB",26-01-2024 14:00:00,17.540891,78.358528,NH3,2,3,3
India,Telangana,Hyderabad,"Bollaram Industrial Area, Hyderabad - TSPCB",26-01-2024 14:00:00,17.540891,78.358528,SO2,14,43,25
India,Telangana,Hyderabad,"Bollaram Industrial Area, Hyderabad - TSPCB",26-01-2024 14:00:00,17.540891,78.358528,CO,23,44,34
India,Telangana,Hyderabad,"Bollaram Industrial Area, Hyderabad - TSPCB",26-01-2024 14:00:00,17.540891,78.358528,OZONE,36,38,37
India,Telangana,Hyderabad,"ECIL Kapra, Hyderabad - TSPCB",26-01-2024 14:00:00,17.470431,78.566959,PM2.5,46,56,52
India,Telangana,Hyderabad,"ECIL Kapra, Hyderabad - TSPCB",26-01-2024 14:00:00,17.470431,78.566959,PM10,70,113,85
India,Telangana,Hyderabad,"ECIL Kapra, Hyderabad - TSPCB",26-01-2024 14:00:00,17.470431,78.566959,SO2,NA,NA,NA
India,Telangana,Hyderabad,"ECIL Kapra, Hyderabad - TSPCB",26-01-2024 14:00:00,17.470431,78.566959,CO,1,24,13
India,Telangana,Hyderabad,"ICRISAT Patancheru, Hyderabad - TSPCB",26-01-2024 14:00:00,17.518400,78.278777,PM2.5,69,181,127
India,Telangana,Hyderabad,"ICRISAT Patancheru, Hyderabad - TSPCB",26-01-2024 14:00:00,17.518400,78.278777,PM10,80,136,105
India,Telangana,Hyderabad,"IITH Kandi, Hyderabad - TSPCB",26-01-2024 14:00:00,17.585705,78.126199,SO2,12,16,13
India,Telangana,Hyderabad,"Kokapet, Hyderabad - TSPCB",26-01-2024 14:00:00,17.393559,78.339194,PM2.5,45,72,58
India,Telangana,Hyderabad,"Kokapet, Hyderabad - TSPCB",26-01-2024 14:00:00,17.393559,78.339194,CO,14,22,14
India,Telangana,Hyderabad,"Kompally Municipal Office, Hyderabad - TSPCB",26-01-2024 14:00:00,17.544899,78.486949,NO2,NA,NA,NA
India,Telangana,Hyderabad,"Kompally Municipal Office, Hyderabad - TSPCB",26-01-2024 14:00:00,17.544899,78.486949,CO,9,32,15
India,Telangana,Hyderabad,"Kompally Municipal Office, Hyderabad - TSPCB",26-01-2024 14:00:00,17.544899,78.486949,OZONE,21,63,35
India,Telangana,Hyderabad,"New Malakpet, Hyderabad - TSPCB",26-01-2024 14:00:00,17.37206,78.50864,NH3,2,2,2
India,Telangana,Hyderabad,"Sanathnagar, Hyderabad - TSPCB",26-01-2024 14:00:00,17.4559458,78.4332152,PM2.5,81,192,145
India,Telangana,Hyderabad,"Sanathnagar, Hyderabad - TSPCB",26-01-2024 14:00:00,17.4559458,78.4332152,SO2,1,10,6
India,Telangana,Hyderabad,"Somajiguda, Hyderabad - TSPCB",26-01-2024 14:00:00,17.417094,78.457437,PM10,71,93,76
India,Telangana,Hyderabad,"Somajiguda, Hyderabad - TSPCB",26-01-2024 14:00:00,17.417094,78.457437,CO,9,27,15
India,Telangana,Hyderabad,"Zoo Park, Hyderabad - TSPCB",26-01-2024 14:00:00,17.349694,78.451437,SO2,1,5,3
India,Telangana,Hyderabad,"Zoo Park, Hyderabad - TSPCB",26-01-2024 14:00:00,17.349694,78.451437,CO,32,92,46
India,Tripura,Agartala,"Bardowali, Agartala - Tripura SPCB",26-01-2024 14:00:00,23.8175497,91.2726974,NH3,2,4,3
India,Tripura,Agartala,"Bardowali, Agartala - Tripura SPCB",26-01-2024 14:00:00,23.8175497,91.2726974,OZONE,1,11,3
India,Uttar_Pradesh,Agra,"Manoharpur, Agra - UPPCB",26-01-2024 14:00:00,27.23711,78.01936,NO2,19,21,19
India,Uttar_Pradesh,Agra,"Manoharpur, Agra - UPPCB",26-01-2024 14:00:00,27.23711,78.01936,NH3,1,1,1
India,Uttar_Pradesh,Agra,"Rohta, Agra - UPPCB",26-01-2024 14:00:00,27.106972,78.000111,PM10,44,152,93
India,Uttar_Pradesh,Agra,"Sanjay Palace, Agra - UPPCB",26-01-2024 14:00:00,27.19865833,78.00598056,SO2,2,11,7
India,Uttar_Pradesh,Agra,"Shahjahan Garden, Agra - UPPCB",26-01-2024 14:00:00,27.169338,78.03582,PM10,56,143,91
India,Uttar_Pradesh,Agra,"Shahjahan Garden, Agra - UPPCB",26-01-2024 14:00:00,27.169338,78.03582,NO2,24,34,26
India,Uttar_Pradesh,Agra,"Shastripuram, Agra - UPPCB",26-01-2024 14:00:00,27.19862,77.92066,NH3,2,3,3
India,Uttar_Pradesh,Agra,"Shastripuram, Agra - UPPCB",26-01-2024 14:00:00,27.19862,77.92066,OZONE,2,14,4
India,Uttar_Pradesh,Baghpat,"Sardar Patel Inter College, Baghpat - UPPCB",26-01-2024 14:00:00,28.964949,77.278761,NO2,36,65,50
India,Uttar_Pradesh,Baghpat,"Sardar Patel Inter College, Baghpat - UPPCB",26-01-2024 14:00:00,28.964949,77.278761,CO,36,92,77
India,Uttar_Pradesh,Bareilly,"Civil Lines, Bareilly - UPPCB",26-01-2024 14:00:00,28.359581,79.414455,OZONE,1,18,3
India,Uttar_Pradesh,Bareilly,"Rajendra Nagar, Bareilly - UPPCB",26-01-2024 14:00:00,28.38910936,79.42963708,CO,72,106,81
India,Uttar_Pradesh,Firozabad,"Nagla Bhau, Firozabad - UPPCB",26-01-2024 14:00:00,27.168897,78.376960,PM2.5,44,254,103
India,Uttar_Pradesh,Firozabad,"Nagla Bhau, Firozabad - UPPCB",26-01-2024 14:00:00,27.168897,78.376960,PM10,36,115,69
India,Uttar_Pradesh,Firozabad,"Nagla Bhau, Firozabad - UPPCB",26-01-2024 14:00:00,27.168897,78.376960,NO2,17,17,17
India,Uttar_Pradesh,Firozabad,"Nagla Bhau, Firozabad - UPPCB",26-01-2024 14:00:00,27.168897,78.376960,SO2,9,18,12
India,Uttar_Pradesh,Firozabad,"Vibhab Nagar, Firozabad - UPPCB",26-01-2024 14:00:00,27.1594,78.3953,PM2.5,43,222,102
India,Uttar_Pradesh,Firozabad,"Vibhab Nagar, Firozabad - UPPCB",26-01-2024 14:00:00,27.1594,78.3953,NO2,11,14,14
India,Uttar_Pradesh,Firozabad,"Vibhab Nagar, Firozabad - UPPCB",26-01-2024 14:00:00,27.1594,78.3953,CO,30,64,51
India,Uttar_Pradesh,Ghaziabad,"Indirapuram, Ghaziabad - UPPCB",26-01-2024 14:00:00,28.646233,77.358075,CO,18,74,36
India,Uttar_Pradesh,Ghaziabad,"Loni, Ghaziabad - UPPCB",26-01-2024 14:00:00,28.757294,77.278792,PM10,181,335,270
India,Uttar_Pradesh,Ghaziabad,"Loni, Ghaziabad - UPPCB",26-01-2024 14:00:00,28.757294,77.278792,NH3,3,9,6
India,Uttar_Pradesh,Ghaziabad,"Loni, Ghaziabad - UPPCB",26-01-2024 14:00:00,28.757294,77.278792,SO2,7,15,11
India,Uttar_Pradesh,Ghaziabad,"Loni, Ghaziabad - UPPCB",26-01-2024 14:00:00,28.757294,77.278792,CO,28,124,78
India,Uttar_Pradesh,Ghaziabad,"Sanjay Nagar, Ghaziabad - UPPCB",26-01-2024 14:00:00,28.685382,77.453839,PM2.5,326,500,381
India,Uttar_Pradesh,Ghaziabad,"Sanjay Nagar, Ghaziabad - UPPCB",26-01-2024 14:00:00,28.685382,77.453839,CO,10,111,63
India,Uttar_Pradesh,Ghaziabad,"Vasundhara, Ghaziabad - UPPCB",26-01-2024 14:00:00,28.6603346,77.3572563,NH3,12,20,15
India,Uttar_Pradesh,Gorakhpur,"Madan Mohan Malaviya University of Technology, Gorakhpur - UPPCB",26-01-2024 14:00:00,26.730136,83.433859,NH3,2,3,2
India,Uttar_Pradesh,Gorakhpur,"Madan Mohan Malaviya University of Technology, Gorakhpur - UPPCB",26-01-2024 14:00:00,26.730136,83.433859,SO2,32,36,34
India,Uttar_Pradesh,Greater Noida,"Knowledge Park - III, Greater Noida - UPPCB",26-01-2024 14:00:00,28.47272,77.482000,PM2.5,NA,NA,NA
India,Uttar_Pradesh,Greater Noida,"Knowledge Park - III, Greater Noida - UPPCB",26-01-2024 14:00:00,28.47272,77.482000,PM10,NA,NA,NA
India,Uttar_Pradesh,Greater Noida,"Knowledge Park - V, Greater Noida - UPPCB",26-01-2024 14:00:00,28.557054,77.453663,NO2,14,69,35
India,Uttar_Pradesh,Greater Noida,"Knowledge Park - V, Greater Noida - UPPCB",26-01-2024 14:00:00,28.557054,77.453663,NH3,6,9,7
India,Uttar_Pradesh,Jhansi,"Shivaji Nagar, Jhansi - UPPCB",26-01-2024 14:00:00,25.4547,78.6039,PM2.5,53,118,80
India,Uttar_Pradesh,Jhansi,"Shivaji Nagar, Jhansi - UPPCB",26-01-2024 14:00:00,25.4547,78.6039,NO2,16,23,19
India,Uttar_Pradesh,Kanpur,"FTI Kidwai Nagar, Kanpur - UPPCB",26-01-2024 14:00:00,26.428282,80.327067,NO2,14,15,14
India,Uttar_Pradesh,Kanpur,"NSI Kalyanpur, Kanpur - UPPCB",26-01-2024 14:00:00,26.509954,80.249612,SO2,22,23,23
India,Uttar_Pradesh,Kanpur,"NSI Kalyanpur, Kanpur - UPPCB",26-01-2024 14:00:00,26.509954,80.249612,OZONE,18,28,20
India,Uttar_Pradesh,Kanpur,"Nehru Nagar, Kanpur - UPPCB",26-01-2024 14:00:00,26.4703136,80.3229863,PM10,70,232,127
India,Uttar_Pradesh,Kanpur,"Nehru Nagar, Kanpur - UPPCB",26-01-2024 14:00:00,26.4703136,80.3229863,CO,2,105,62
India,Uttar_Pradesh,Khurja,"Kalindi Kunj, Khurja - UPPCB",26-01-2024 14:00:00,28.2348927,77.8683002,PM2.5,10,309,115
India,Uttar_Pradesh,Lucknow,"B R Ambedkar University, Lucknow - UPPCB",26-01-2024 14:00:00,26.766433,80.927299,PM2.5,89,308,192
India,Uttar_Pradesh,Lucknow,"B R Ambedkar University, Lucknow - UPPCB",26-01-2024 14:00:00,26.766433,80.927299,PM10,85,167,122
India,Uttar_Pradesh,Lucknow,"Kendriya Vidyalaya, Lucknow - CPCB",26-01-2024 14:00:00,26.906111,80.948222,PM2.5,82,342,185
India,Uttar_Pradesh,Lucknow,"Kendriya Vidyalaya, Lucknow - CPCB",26-01-2024 14:00:00,26.906111,80.948222,PM10,95,198,151
India,Uttar_Pradesh,Lucknow,"Kendriya Vidyalaya, Lucknow - CPCB",26-01-2024 14:00:00,26.906111,80.948222,CO,9,65,58
India,Uttar_Pradesh,Lucknow,"Kendriya Vidyalaya, Lucknow - CPCB",26-01-2024 14:00:00,26.906111,80.948222,OZONE,6,43,16
India,Uttar_Pradesh,Lucknow,"Kukrail Picnic Spot-1, Lucknow - UPPCB",26-01-2024 14:00:00,26.90723,80.98579,PM2.5,75,296,183
India,Uttar_Pradesh,Lucknow,"Kukrail Picnic Spot-1, Lucknow - UPPCB",26-01-2024 14:00:00,26.90723,80.98579,NH3,2,2,2
India,Uttar_Pradesh,Lucknow,"Lalbagh, Lucknow - CPCB",26-01-2024 14:00:00,26.8458805,80.9365541,NO2,29,86,52
India,Uttar_Pradesh,Lucknow,"Lalbagh, Lucknow - CPCB",26-01-2024 14:00:00,26.8458805,80.9365541,CO,94,120,106
India,Uttar_Pradesh,Meerut,"Ganga Nagar, Meerut - UPPCB",26-01-2024 14:00:00,28.999264,77.7590354,NH3,8,15,11
India,Uttar_Pradesh,Meerut,"Jai Bhim Nagar, Meerut - UPPCB",26-01-2024 14:00:00,28.9535882,77.7622941,NO2,40,99,64
India,Uttar_Pradesh,Meerut,"Pallavpuram Phase 2, Meerut - UPPCB",26-01-2024 14:00:00,29.063510,77.709723,SO2,3,4,4
India,Uttar_Pradesh,Moradabad,"Eco Herbal Park, Moradabad - UPPCB",26-01-2024 14:00:00,28.840739,78.697531,PM2.5,NA,NA,NA
India,Uttar_Pradesh,Moradabad,"Eco Herbal Park, Moradabad - UPPCB",26-01-2024 14:00:00,28.840739,78.697531,PM10,81,168,122
India,Uttar_Pradesh,Moradabad,"Employment Office, Moradabad - UPPCB",26-01-2024 14:00:00,28.88528,78.73880,PM10,NA,NA,NA
India,Uttar_Pradesh,Moradabad,"Kashiram Nagar, Moradabad - UPPCB",26-01-2024 14:00:00,28.849399,78.742362,SO2,27,31,30
India,Uttar_Pradesh,Muzaffarnagar,"New Mandi, Muzaffarnagar - UPPCB",26-01-2024 14:00:00,29.4723508,77.7194031,NO2,25,82,43
India,Uttar_Pradesh,Noida,"Sector - 125, Noida - UPPCB",26-01-2024 14:00:00,28.5447608,77.3231257,PM10,NA,NA,NA
India,Uttar_Pradesh,Noida,"Sector - 62, Noida - IMD",26-01-2024 14:00:00,28.6245479,77.3577104,OZONE,35,82,55
India,Uttar_Pradesh,Noida,"Sector-1, Noida - UPPCB",26-01-2024 14:00:00,28.5898,77.3101,NO2,45,177,96
India,Uttar_Pradesh,Noida,"Sector-1, Noida - UPPCB",26-01-2024 14:00:00,28.5898,77.3101,NH3,8,16,12
India,Uttar_Pradesh,Noida,"Sector-116, Noida - UPPCB",26-01-2024 14:00:00,28.569230,77.393848,NO2,26,135,72
India,Uttar_Pradesh,Prayagraj,"Jhunsi, Prayagraj - UPPCB",26-01-2024 14:00:00,25.425602,81.917152,NH3,5,5,5
India,Uttar_Pradesh,Prayagraj,"Jhunsi, Prayagraj - UPPCB",26-01-2024 14:00:00,25.425602,81.917152,OZONE,1,7,2
India,Uttar_Pradesh,Prayagraj,"Motilal Nehru NIT, Prayagraj - UPPCB",26-01-2024 14:00:00,25.494,81.863,NH3,6,7,6
India,Uttar_Pradesh,Prayagraj,"Nagar Nigam, Prayagraj - UPPCB",26-01-2024 14:00:00,25.44919916 ,81.82735986 ,SO2,26,51,38
India,Uttar_Pradesh,Prayagraj,"Nagar Nigam, Prayagraj - UPPCB",26-01-2024 14:00:00,25.44919916 ,81.82735986 ,CO,28,102,40
India,Uttar_Pradesh,Varanasi,"Ardhali Bazar, Varanasi - UPPCB",26-01-2024 14:00:00,25.3505986,82.9083074,SO2,13,27,17
India,Uttar_Pradesh,Varanasi,"IESD Banaras Hindu University, Varanasi - UPPCB",26-01-2024 14:00:00,25.262326,82.995408,OZONE,1,2,1
India,Uttar_Pradesh,Varanasi,"Maldahiya, Varanasi - UPPCB",26-01-2024 14:00:00,25.32393,82.99687,PM10,NA,NA,NA
India,Uttar_Pradesh,Varanasi,"Maldahiya, Varanasi - UPPCB",26-01-2024 14:00:00,25.32393,82.99687,SO2,34,35,35
India,Uttar_Pradesh,Varanasi,"Maldahiya, Varanasi - UPPCB",26-01-2024 14:00:00,25.32393,82.99687,OZONE,4,7,4
India,Uttar_Pradesh,Vrindavan,"Omex Eternity, Vrindavan - UPPCB",26-01-2024 14:00:00,27.5714090,77.6557570,CO,72,100,95
India,Uttarakhand,Dehradun,"Doon University, Dehradun - UKPCB",26-01-2024 14:00:00,30.269444,78.044167,PM2.5,33,251,134
India,Uttarakhand,Dehradun,"Doon University, Dehradun - UKPCB",26-01-2024 14:00:00,30.269444,78.044167,OZONE,4,13,7
India,Uttarakhand,Kashipur,"Govt. Girls Inter College, Kashipur - UKPCB",26-01-2024 14:00:00,29.2124114,78.9611753,PM10,95,219,139
India,West_Bengal,Asansol,"Asansol Court Area, Asansol - WBPCB",26-01-2024 14:00:00,23.685297,86.945968,NH3,6,15,9
India,West_Bengal,Asansol,"Asansol Court Area, Asansol - WBPCB",26-01-2024 14:00:00,23.685297,86.945968,OZONE,7,52,28
India,West_Bengal,Barrackpore,"SVSPA Campus, Barrackpore - WBPCB",26-01-2024 14:00:00,22.7605581,88.3617589,PM2.5,141,327,253
India,West_Bengal,Durgapur,"Sidhu Kanhu Indoor Stadium, Durgapur - WBPCB",26-01-2024 14:00:00,23.5404352,87.2892225,OZONE,2,46,11
India,West_Bengal,Haldia,"Priyambada Housing Estate, Haldia - WBPCB",26-01-2024 14:00:00,22.06047,88.109737,NH3,4,6,5
India,West_Bengal,Haldia,"Priyambada Housing Estate, Haldia - WBPCB",26-01-2024 14:00:00,22.06047,88.109737,SO2,6,24,14
India,West_Bengal,Howrah,"Belur Math, Howrah - WBPCB",26-01-2024 14:00:00,22.629801,88.352017,OZONE,13,84,35
India,West_Bengal,Howrah,"Padmapukur, Howrah - WBPCB",26-01-2024 14:00:00,22.5687319,88.2797276,SO2,7,25,12
India,West_Bengal,Kolkata,"Ballygunge, Kolkata - WBPCB",26-01-2024 14:00:00,22.5367507,88.3638022,NO2,35,160,78
India,West_Bengal,Kolkata,"Fort William, Kolkata - WBPCB",26-01-2024 14:00:00,22.556640,88.342674,NH3,7,14,8
India,West_Bengal,Kolkata,"Jadavpur, Kolkata - WBPCB",26-01-2024 14:00:00,22.49929,88.36917,PM10,146,328,205
India,West_Bengal,Kolkata,"Rabindra Bharati University, Kolkata - WBPCB",26-01-2024 14:00:00,22.627847,88.380669,NH3,7,8,7
India,West_Bengal,Kolkata,"Victoria, Kolkata - WBPCB",26-01-2024 14:00:00,22.5448082,88.3403691,OZONE,5,116,57
India,West_Bengal,Siliguri,"Ward-32 Bapupara, Siliguri - WBPCB",26-01-2024 14:00:00,26.6879226,88.4152495,OZONE,7,68,27
India,Andhra_Pradesh,Anantapur,"Gulzarpet, Anantapur - APPCB",26-01-2024 14:00:00,14.675886,77.593027,PM10,51,102,73
India,Andhra_Pradesh,Anantapur,"Gulzarpet, Anantapur - APPCB",26-01-2024 14:00:00,14.675886,77.593027,NO2,17,43,26
India,Andhra_Pradesh,Anantapur,"Gulzarpet, Anantapur - APPCB",26-01-2024 14:00:00,14.675886,77.593027,SO2,4,12,7
India,Andhra_Pradesh,Anantapur,"Gulzarpet, Anantapur - APPCB",26-01-2024 14:00:00,14.675886,77.593027,OZONE,6,56,30
India,Andhra_Pradesh,Tirupati,"Tirumala, Tirupati - APPCB",26-01-2024 14:00:00,13.67,79.35,PM10,47,96,64
India,Andhra_Pradesh,Vijayawada,"HB Colony, Vijayawada - APPCB",26-01-2024 14:00:00,16.536107,80.594233,PM10,NA,NA,NA
India,Andhra_Pradesh,Vijayawada,"HB Colony, Vijayawada - APPCB",26-01-2024 14:00:00,16.536107,80.594233,NO2,NA,NA,NA
India,Andhra_Pradesh,Vijayawada,"HB Colony, Vijayawada - APPCB",26-01-2024 14:00:00,16.536107,80.594233,CO,24,24,24
India,Andhra_Pradesh,Visakhapatnam,"GVM Corporation, Visakhapatnam - APPCB",26-01-2024 14:00:00,17.72,83.3,PM2.5,42,98,69
India,Arunachal_Pradesh,Naharlagun,"Naharlagun, Naharlagun - APSPCB",26-01-2024 14:00:00,27.103358,93.679645,PM2.5,19,180,84
India,Arunachal_Pradesh,Naharlagun,"Naharlagun, Naharlagun - APSPCB",26-01-2024 14:00:00,27.103358,93.679645,CO,12,64,17
India,Assam,Byrnihat,"Central Academy for SFS, Byrnihat - PCBA",26-01-2024 14:00:00,26.071318,91.87488,CO,16,178,174
India,Assam,Guwahati,"IITG, Guwahati - PCBA",26-01-2024 14:00:00,26.2028636,91.70046436,NO2,NA,NA,NA
India,Assam,Guwahati,"Pan Bazaar, Guwahati - PCBA",26-01-2024 14:00:00,26.187500,91.744194,CO,41,119,50
India,Assam,Guwahati,"Railway Colony, Guwahati - PCBA",26-01-2024 14:00:00,26.181742,91.78063,CO,35,118,57
India,Assam,Nagaon,"Christianpatty, Nagaon - PCBA",26-01-2024 14:00:00,26.349082,92.68449,PM2.5,82,375,248
India,Assam,Nagaon,"Christianpatty, Nagaon - PCBA",26-01-2024 14:00:00,26.349082,92.68449,PM10,94,384,183
India,Assam,Nagaon,"Christianpatty, Nagaon - PCBA",26-01-2024 14:00:00,26.349082,92.68449,CO,16,28,19
India,Assam,Nalbari,"Bata Chowk, Nalbari - PCBA",26-01-2024 14:00:00,26.446912,91.439057,PM10,107,453,201
India,Assam,Nalbari,"Bata Chowk, Nalbari - PCBA",26-01-2024 14:00:00,26.446912,91.439057,CO,8,127,8
India,Bihar,Araria,"Kharahiya Basti, Araria - BSPCB",26-01-2024 14:00:00,26.146529,87.454184,PM10,132,381,213
India,Bihar,Arrah,"New DM Office, Arrah - BSPCB",26-01-2024 14:00:00,25.5626095,84.663264,SO2,15,24,19
India,Bihar,Aurangabad,"Gurdeo Nagar, Aurangabad - BSPCB",26-01-2024 14:00:00,24.75746,84.366208,NH3,5,25,9
India,Bihar,Bhagalpur,"Mayaganj, Bhagalpur - BSPCB",26-01-2024 14:00:00,25.265194,87.012947,NH3,9,10,10
India,Bihar,Bhagalpur,"Mayaganj, Bhagalpur - BSPCB",26-01-2024 14:00:00,25.265194,87.012947,SO2,3,13,11
India,Bihar,Bihar Sharif,"D M Colony, Bihar Sharif - BSPCB",26-01-2024 14:00:00,25.204762,85.514960,PM10,20,117,54
India,Bihar,Bihar Sharif,"D M Colony, Bihar Sharif - BSPCB",26-01-2024 14:00:00,25.204762,85.514960,NO2,9,10,9
India,Bihar,Chhapra,"Darshan Nagar, Chhapra - BSPCB",26-01-2024 14:00:00,25.7808257,84.7446768,PM10,152,407,236
India,Bihar,Chhapra,"Darshan Nagar, Chhapra - BSPCB",26-01-2024 14:00:00,25.7808257,84.7446768,NH3,9,15,12
India,Bihar,Gaya,"Kareemganj, Gaya - BSPCB",26-01-2024 14:00:00,24.792403,84.992416,OZONE,4,39,22
India,Bihar,Gaya,"SFTI Kusdihra, Gaya - BSPCB",26-01-2024 14:00:00,24.762518,84.982348,NH3,4,6,5
India,Bihar,Hajipur,"Industrial Area, Hajipur - BSPCB",26-01-2024 14:00:00,25.697189,85.245900,PM10,175,317,225
India,Bihar,Hajipur,"Industrial Area, Hajipur - BSPCB",26-01-2024 14:00:00,25.697189,85.245900,OZONE,1,47,5
India,Bihar,Katihar,"Mirchaibari, Katihar - BSPCB",26-01-2024 14:00:00,25.560083,87.553265,NO2,16,32,22
India,Bihar,Katihar,"Mirchaibari, Katihar - BSPCB",26-01-2024 14:00:00,25.560083,87.553265,OZONE,21,28,25
India,Bihar,Munger,"Town Hall, Munger - BSPCB",26-01-2024 14:00:00,25.376776,86.471523,PM2.5,40,315,144
India,Bihar,Muzaffarpur,"Buddha Colony, Muzaffarpur - BSPCB",26-01-2024 14:00:00,26.11442,85.39813,SO2,8,26,12
India,Bihar,Muzaffarpur,"Buddha Colony, Muzaffarpur - BSPCB",26-01-2024 14:00:00,26.11442,85.39813,CO,84,145,112
India,Bihar,Muzaffarpur,"MIT-Daudpur Kothi, Muzaffarpur - BSPCB",26-01-2024 14:00:00,26.1403345,85.3650192,PM10,89,500,205
India,Bihar,Muzaffarpur,"MIT-Daudpur Kothi, Muzaffarpur - BSPCB",26-01-2024 14:00:00,26.1403345,85.3650192,NO2,5,18,7
India,Bihar,Patna,"Govt. High School Shikarpur, Patna - BSPCB",26-01-2024 14:00:00,25.592539,85.227158,PM2.5,110,327,285
India,Bihar,Patna,"Govt. High School Shikarpur, Patna - BSPCB",26-01-2024 14:00:00,25.592539,85.227158,PM10,16,278,195
India,Bihar,Patna,"Govt. High School Shikarpur, Patna - BSPCB",26-01-2024 14:00:00,25.592539,85.227158,SO2,3,7,5
India,Bihar,Patna,"Govt. High School Shikarpur, Patna - BSPCB",26-01-2024 14:00:00,25.592539,85.227158,CO,66,105,87
India,Bihar,Patna,"IGSC Planetarium Complex, Patna - BSPCB",26-01-2024 14:00:00,25.610369,85.132568,NO2,14,15,15
India,Bihar,Patna,"Muradpur, Patna - BSPCB",26-01-2024 14:00:00,25.619651,85.147382,OZONE,10,65,22
India,Bihar,Patna,"Samanpura, Patna - BSPCB",26-01-2024 14:00:00,25.596727,85.085624,NH3,3,3,3
India,Bihar,Patna,"Samanpura, Patna - BSPCB",26-01-2024 14:00:00,25.596727,85.085624,CO,104,154,133
India,Bihar,Purnia,"Mariam Nagar, Purnia - BSPCB",26-01-2024 14:00:00,25.366336,87.117468,PM2.5,83,314,184
India,Bihar,Purnia,"Mariam Nagar, Purnia - BSPCB",26-01-2024 14:00:00,25.366336,87.117468,NH3,1,1,1
India,Bihar,Purnia,"Mariam Nagar, Purnia - BSPCB",26-01-2024 14:00:00,25.366336,87.117468,SO2,17,22,19
India,Bihar,Rajgir,"Dangi Tola, Rajgir - BSPCB",26-01-2024 14:00:00,25.03280,85.41948,OZONE,22,24,23
India,Bihar,Samastipur,"DM Office_Kasipur, Samastipur - BSPCB",26-01-2024 14:00:00,25.859655,85.77944,PM10,112,434,225
India,Bihar,Sasaram,"Dada Peer, Sasaram - BSPCB",26-01-2024 14:00:00,24.952822,84.002396,SO2,21,23,22
India,Chandigarh,Chandigarh,"Sector-25, Chandigarh - CPCC",26-01-2024 14:00:00,30.751462,76.762879,NO2,5,40,24
India,Chandigarh,Chandigarh,"Sector-53, Chandigarh - CPCC",26-01-2024 14:00:00,30.719859,76.738637,PM10,NA,NA,NA
India,Chandigarh,Chandigarh,"Sector-53, Chandigarh - CPCC",26-01-2024 14:00:00,30.719859,76.738637,CO,NA,NA,NA
India,Chhattisgarh,Bhilai,"32Bungalows, Bhilai - CECB",26-01-2024 14:00:00,21.194815,81.314770,PM10,64,103,83
India,Chhattisgarh,Bhilai,"32Bungalows, Bhilai - CECB",26-01-2024 14:00:00,21.194815,81.314770,SO2,8,13,10
India,Chhattisgarh,Bhilai,"Hathkhoj, Bhilai - CECB",26-01-2024 14:00:00,21.224231,81.408350,NH3,7,9,8
India,Chhattisgarh,Bhilai,"Hathkhoj, Bhilai - CECB",26-01-2024 14:00:00,21.224231,81.408350,SO2,16,137,54
India,Chhattisgarh,Bhilai,"Hathkhoj, Bhilai - CECB",26-01-2024 14:00:00,21.224231,81.408350,CO,13,46,34
India,Chhattisgarh,Bilaspur,"Mangala, Bilaspur - NTPC",26-01-2024 14:00:00,22.08815,82.13737,PM2.5,35,214,84
India,Chhattisgarh,Chhal,"Nawapara SECL Colony, Chhal - CECB",26-01-2024 14:00:00,22.118125,83.140608,PM10,19,161,55
India,Chhattisgarh,Chhal,"Nawapara SECL Colony, Chhal - CECB",26-01-2024 14:00:00,22.118125,83.140608,NO2,12,97,28
India,Chhattisgarh,Korba,"Rampur, Korba - CECB",26-01-2024 14:00:00,22.368195,82.746431,SO2,15,36,20
India,Chhattisgarh,Korba,"Rampur, Korba - CECB",26-01-2024 14:00:00,22.368195,82.746431,CO,11,36,19
India,Chhattisgarh,Korba,"Urja Nagar, Korba - CECB",26-01-2024 14:00:00,22.348441,82.549611,PM2.5,9,243,45
India,Chhattisgarh,Korba,"Urja Nagar, Korba - CECB",26-01-2024 14:00:00,22.348441,82.549611,PM10,23,500,91
India,Chhattisgarh,Korba,"Urja Nagar, Korba - CECB",26-01-2024 14:00:00,22.348441,82.549611,CO,23,57,27
India,Chhattisgarh,Korba,"Urja Nagar, Korba - CECB",26-01-2024 14:00:00,22.348441,82.549611,OZONE,47,48,47
India,Chhattisgarh,Raipur,"AIIMS, Raipur - CECB",26-01-2024 14:00:00,21.258815,81.578979,PM10,42,189,108
India,Chhattisgarh,Raipur,"AIIMS, Raipur - CECB",26-01-2024 14:00:00,21.258815,81.578979,OZONE,1,3,1
India,Chhattisgarh,Raipur,"Bhatagaon New ISBT, Raipur - CECB",26-01-2024 14:00:00,21.219665,81.630094,PM2.5,34,93,64
India,Chhattisgarh,Raipur,"Bhatagaon New ISBT, Raipur - CECB",26-01-2024 14:00:00,21.219665,81.630094,NH3,2,4,3
India,Chhattisgarh,Raipur,"Bhatagaon New ISBT, Raipur - CECB",26-01-2024 14:00:00,21.219665,81.630094,CO,25,90,42
India,Chhattisgarh,Raipur,"Bhatagaon New ISBT, Raipur - CECB",26-01-2024 14:00:00,21.219665,81.630094,OZONE,3,4,3
India,Chhattisgarh,Raipur,"Siltara Phase-II, Raipur - CECB",26-01-2024 14:00:00,21.371751,81.664929,PM10,NA,NA,NA
India,Chhattisgarh,Raipur,"Siltara Phase-II, Raipur - CECB",26-01-2024 14:00:00,21.371751,81.664929,NO2,13,48,27
India,Chhattisgarh,Raipur,"Siltara Phase-II, Raipur - CECB",26-01-2024 14:00:00,21.371751,81.664929,CO,16,62,38
India,Chhattisgarh,Tumidih,"OP Jindal Industrial Park, Tumidih - CECB",26-01-2024 14:00:00,22.06631475,83.33820077,NH3,NA,NA,NA
India,Delhi,Delhi,"Anand Vihar, Delhi - DPCC",26-01-2024 14:00:00,28.647622,77.3158090,SO2,2,38,17
India,Delhi,Delhi,"Ashok Vihar, Delhi - DPCC",26-01-2024 14:00:00,28.695381,77.181665,PM10,307,458,395
India,Delhi,Delhi,"Ashok Vihar, Delhi - DPCC",26-01-2024 14:00:00,28.695381,77.181665,CO,36,114,73
India,Delhi,Delhi,"Ashok Vihar, Delhi - DPCC",26-01-2024 14:00:00,28.695381,77.181665,OZONE,4,19,6
India,Delhi,Delhi,"Aya Nagar, Delhi - IMD",26-01-2024 14:00:00,28.4706914,77.1099364,PM2.5,324,461,375
India,Delhi,Delhi,"Bawana, Delhi - DPCC",26-01-2024 14:00:00,28.776200,77.051074,SO2,5,11,7
India,Delhi,Delhi,"DTU, Delhi - CPCB",26-01-2024 14:00:00,28.7500499,77.1112615,PM2.5,161,334,250
India,Delhi,Delhi,"Dr. Karni Singh Shooting Range, Delhi - DPCC",26-01-2024 14:00:00,28.498571,77.264840,NH3,9,16,12
India,Delhi,Delhi,"Dwarka-Sector 8, Delhi - DPCC ",26-01-2024 14:00:00,28.5710274,77.0719006,OZONE,5,63,12
India,Delhi,Delhi,"IGI Airport (T3), Delhi - IMD",26-01-2024 14:00:00,28.5627763,77.1180053,CO,46,113,112
India,Delhi,Delhi,"IHBAS, Dilshad Garden, Delhi - CPCB",26-01-2024 14:00:00,28.6811736,77.3025234,NO2,22,51,35
India,Delhi,Delhi,"Jahangirpuri, Delhi - DPCC",26-01-2024 14:00:00,28.732820,77.170633,PM2.5,365,474,413
India,Delhi,Delhi,"Jawaharlal Nehru Stadium, Delhi - DPCC",26-01-2024 14:00:00,28.580280,77.233829,PM2.5,347,500,432
India,Delhi,Delhi,"Lodhi Road, Delhi - IITM",26-01-2024 14:00:00,28.588333,77.221667,PM10,114,378,169
India,Delhi,Delhi,"Lodhi Road, Delhi - IMD",26-01-2024 14:00:00,28.5918245,77.2273074,PM10,203,500,340
India,Delhi,Delhi,"Mandir Marg, Delhi - DPCC",26-01-2024 14:00:00,28.636429,77.201067,CO,11,104,52
India,Delhi,Delhi,"Mundka, Delhi - DPCC",26-01-2024 14:00:00,28.684678,77.076574,NH3,6,15,10
India,Delhi,Delhi,"Mundka, Delhi - DPCC",26-01-2024 14:00:00,28.684678,77.076574,SO2,2,10,7
India,Delhi,Delhi,"Mundka, Delhi - DPCC",26-01-2024 14:00:00,28.684678,77.076574,CO,52,126,93
India,Delhi,Delhi,"NSIT Dwarka, Delhi - CPCB",26-01-2024 14:00:00,28.60909,77.0325413,PM2.5,321,496,379
India,Delhi,Delhi,"NSIT Dwarka, Delhi - CPCB",26-01-2024 14:00:00,28.60909,77.0325413,PM10,305,439,379
India,Delhi,Delhi,"NSIT Dwarka, Delhi - CPCB",26-01-2024 14:00:00,28.60909,77.0325413,NH3,4,19,10
India,Delhi,Delhi,"Najafgarh, Delhi - DPCC",26-01-2024 14:00:00,28.570173,76.933762,SO2,5,12,8
India,Delhi,Delhi,"Narela, Delhi - DPCC",26-01-2024 14:00:00,28.822836,77.101981,SO2,4,13,7
India,Delhi,Delhi,"Narela, Delhi - DPCC",26-01-2024 14:00:00,28.822836,77.101981,OZONE,1,175,29
India,Delhi,Delhi,"North Campus, DU, Delhi - IMD",26-01-2024 14:00:00,28.6573814,77.1585447,NO2,NA,NA,NA
India,Delhi,Delhi,"North Campus, DU, Delhi - IMD",26-01-2024 14:00:00,28.6573814,77.1585447,CO,49,55,52
India,Delhi,Delhi,"Okhla Phase-2, Delhi - DPCC",26-01-2024 14:00:00,28.530785,77.271255,NO2,63,216,134
India,Delhi,Delhi,"Patparganj, Delhi - DPCC",26-01-2024 14:00:00,28.623763,77.287209,PM2.5,420,500,473
India,Delhi,Delhi,"Patparganj, Delhi - DPCC",26-01-2024 14:00:00,28.623763,77.287209,SO2,7,13,10
India,Delhi,Delhi,"Patparganj, Delhi - DPCC",26-01-2024 14:00:00,28.623763,77.287209,OZONE,7,36,14
India,Delhi,Delhi,"Punjabi Bagh, Delhi - DPCC",26-01-2024 14:00:00,28.674045,77.131023,PM2.5,388,500,439
India,Delhi,Delhi,"Punjabi Bagh, Delhi - DPCC",26-01-2024 14:00:00,28.674045,77.131023,PM10,301,453,392
India,Delhi,Delhi,"Punjabi Bagh, Delhi - DPCC",26-01-2024 14:00:00,28.674045,77.131023,OZONE,9,12,10
India,Delhi,Delhi,"Pusa, Delhi - DPCC",26-01-2024 14:00:00,28.639652,77.146275,PM10,282,480,398
India,Delhi,Delhi,"R K Puram, Delhi - DPCC",26-01-2024 14:00:00,28.563262,77.186937,PM10,255,500,420
India,Delhi,Delhi,"R K Puram, Delhi - DPCC",26-01-2024 14:00:00,28.563262,77.186937,NO2,15,156,73
India,Delhi,Delhi,"R K Puram, Delhi - DPCC",26-01-2024 14:00:00,28.563262,77.186937,SO2,7,43,24
India,Delhi,Delhi,"Rohini, Delhi - DPCC",26-01-2024 14:00:00,28.732528,77.119920,CO,60,128,107
India,Delhi,Delhi,"Sirifort, Delhi - CPCB",26-01-2024 14:00:00,28.5504249,77.2159377,NH3,7,12,8
India,Delhi,Delhi,"Sirifort, Delhi - CPCB",26-01-2024 14:00:00,28.5504249,77.2159377,CO,59,129,113
India,Delhi,Delhi,"Sonia Vihar, Delhi - DPCC",26-01-2024 14:00:00,28.710508,77.249485,PM10,138,433,323
India,Delhi,Delhi,"Sri Aurobindo Marg, Delhi - DPCC",26-01-2024 14:00:00,28.531346,77.190156,PM2.5,371,500,428
India,Delhi,Delhi,"Sri Aurobindo Marg, Delhi - DPCC",26-01-2024 14:00:00,28.531346,77.190156,NH3,8,12,11
India,Delhi,Delhi,"Vivek Vihar, Delhi - DPCC",26-01-2024 14:00:00,28.672342,77.315260,PM10,393,500,439
India,Delhi,Delhi,"Wazirpur, Delhi - DPCC",26-01-2024 14:00:00,28.699793,77.165453,PM10,342,453,414
India,Gujarat,Ahmedabad,"Chandkheda, Ahmedabad - IITM",26-01-2024 14:00:00,23.107969,72.574648,PM2.5,50,162,89
India,Gujarat,Ahmedabad,"SAC ISRO Bopal, Ahmedabad - IITM",26-01-2024 14:00:00,23.041137,72.456691,SO2,10,14,11
India,Gujarat,Ahmedabad,"SAC ISRO Bopal, Ahmedabad - IITM",26-01-2024 14:00:00,23.041137,72.456691,OZONE,7,14,7
India,Gujarat,Ahmedabad,"SAC ISRO Satellite, Ahmedabad - IITM",26-01-2024 14:00:00,23.023389,72.515201,PM2.5,75,156,86
India,Gujarat,Ahmedabad,"SAC ISRO Satellite, Ahmedabad - IITM",26-01-2024 14:00:00,23.023389,72.515201,PM10,68,108,80
India,Gujarat,Ahmedabad,"SAC ISRO Satellite, Ahmedabad - IITM",26-01-2024 14:00:00,23.023389,72.515201,NO2,14,17,15
India,Gujarat,Ahmedabad,"SAC ISRO Satellite, Ahmedabad - IITM",26-01-2024 14:00:00,23.023389,72.515201,CO,22,40,30
India,Gujarat,Ankleshwar,"GIDC, Ankleshwar - GPCB",26-01-2024 14:00:00,21.613267,73.010555,PM10,60,168,107
India,Gujarat,Gandhinagar,"GIFT City, Gandhinagar - IITM",26-01-2024 14:00:00,23.163798,72.677768,PM2.5,45,254,142
India,Gujarat,Gandhinagar,"GIFT City, Gandhinagar - IITM",26-01-2024 14:00:00,23.163798,72.677768,NO2,9,11,10
India,Gujarat,Gandhinagar,"IIPHG Lekawada, Gandhinagar - IITM",26-01-2024 14:00:00,23.243639,72.68994,PM2.5,90,269,159
India,Gujarat,Gandhinagar,"IIPHG Lekawada, Gandhinagar - IITM",26-01-2024 14:00:00,23.243639,72.68994,SO2,9,12,12
India,Gujarat,Gandhinagar,"Sector-10, Gandhinagar - GPCB",26-01-2024 14:00:00,23.221714,72.654328,CO,19,20,20
India,Gujarat,Surat,"Science Center, Surat - SMC",26-01-2024 14:00:00,21.170046,72.795405,PM2.5,1,73,38
India,Gujarat,Surat,"Science Center, Surat - SMC",26-01-2024 14:00:00,21.170046,72.795405,PM10,7,105,53
India,Haryana,Ambala,"Patti Mehar, Ambala - HSPCB",26-01-2024 14:00:00,30.379589,76.778328,NO2,7,21,14
India,Haryana,Ambala,"Patti Mehar, Ambala - HSPCB",26-01-2024 14:00:00,30.379589,76.778328,CO,35,60,47
India,Haryana,Bahadurgarh,"Arya Nagar, Bahadurgarh - HSPCB",26-01-2024 14:00:00,28.6701,76.9254,PM2.5,233,334,303
India,Haryana,Ballabgarh,"Nathu Colony, Ballabgarh - HSPCB",26-01-2024 14:00:00,28.3419248,77.319699,NH3,1,2,1
India,Haryana,Ballabgarh,"Nathu Colony, Ballabgarh - HSPCB",26-01-2024 14:00:00,28.3419248,77.319699,SO2,2,110,19
India,Haryana,Bhiwani,"H.B. Colony, Bhiwani - HSPCB",26-01-2024 14:00:00,28.806223,76.141105,SO2,4,15,8
India,Haryana,Charkhi Dadri,"Mini Secretariat, Charkhi Dadri - HSPCB",26-01-2024 14:00:00,28.593883,76.270653,PM2.5,47,275,111
India,Haryana,Charkhi Dadri,"Mini Secretariat, Charkhi Dadri - HSPCB",26-01-2024 14:00:00,28.593883,76.270653,NO2,10,14,12
India,Haryana,Charkhi Dadri,"Mini Secretariat, Charkhi Dadri - HSPCB",26-01-2024 14:00:00,28.593883,76.270653,OZONE,13,19,16
India,Haryana,Dharuhera,"Municipal Corporation Office, Dharuhera -  HSPCB",26-01-2024 14:00:00,28.206800,76.799700,PM10,136,339,219
India,Haryana,Faridabad,"Sector 11, Faridabad - HSPCB",26-01-2024 14:00:00,28.376058,77.315741,PM2.5,119,356,279
India,Haryana,Faridabad,"Sector 30, Faridabad - HSPCB",26-01-2024 14:00:00,28.4417,77.3217,SO2,4,6,5
India,Haryana,Faridabad,"Sector- 16A, Faridabad - HSPCB",26-01-2024 14:00:00,28.4088421,77.3099081,SO2,7,25,18
India,Haryana,Faridabad,"Sector- 16A, Faridabad - HSPCB",26-01-2024 14:00:00,28.4088421,77.3099081,CO,40,132,81
India,Haryana,Faridabad,"Sector- 16A, Faridabad - HSPCB",26-01-2024 14:00:00,28.4088421,77.3099081,OZONE,14,14,14
India,Haryana,Fatehabad,"Huda Sector, Fatehabad - HSPCB",26-01-2024 14:00:00,29.503664,75.467934,OZONE,20,28,23
India,Haryana,Gurugram,"NISE Gwal Pahari, Gurugram - IMD",26-01-2024 14:00:00,28.422681,77.148944,PM10,146,427,289
India,Haryana,Gurugram,"Sector-51, Gurugram - HSPCB",26-01-2024 14:00:00,28.4227,77.0667,PM2.5,254,435,359
India,Haryana,Gurugram,"Sector-51, Gurugram - HSPCB",26-01-2024 14:00:00,28.4227,77.0667,PM10,148,455,289
India,Haryana,Gurugram,"Sector-51, Gurugram - HSPCB",26-01-2024 14:00:00,28.4227,77.0667,SO2,3,4,4
India,Haryana,Gurugram,"Sector-51, Gurugram - HSPCB",26-01-2024 14:00:00,28.4227,77.0667,CO,82,116,105
India,Haryana,Gurugram,"Sector-51, Gurugram - HSPCB",26-01-2024 14:00:00,28.4227,77.0667,OZONE,27,67,50
India,Haryana,Gurugram,"Teri Gram, Gurugram - HSPCB",26-01-2024 14:00:00,28.4275,77.1465,PM2.5,NA,NA,NA
India,Haryana,Hisar,"Urban Estate-II, Hisar - HSPCB",26-01-2024 14:00:00,29.140560,75.744941,NO2,NA,NA,NA
India,Haryana,Hisar,"Urban Estate-II, Hisar - HSPCB",26-01-2024 14:00:00,29.140560,75.744941,SO2,NA,NA,NA
India,Haryana,Hisar,"Urban Estate-II, Hisar - HSPCB",26-01-2024 14:00:00,29.140560,75.744941,CO,44,90,75
India,Haryana,Jind,"Police Lines, Jind - HSPCB",26-01-2024 14:00:00,29.307814,76.337619,NO2,6,19,12
India,Haryana,Jind,"Police Lines, Jind - HSPCB",26-01-2024 14:00:00,29.307814,76.337619,NH3,2,6,4
India,Haryana,Jind,"Police Lines, Jind - HSPCB",26-01-2024 14:00:00,29.307814,76.337619,OZONE,1,22,7
India,Haryana,Kaithal,"Rishi Nagar, Kaithal - HSPCB",26-01-2024 14:00:00,29.8006,76.4155,CO,28,126,67
India,Haryana,Karnal,"Sector-12, Karnal - HSPCB",26-01-2024 14:00:00,29.695300,77.002700,PM2.5,98,98,98
India,Haryana,Karnal,"Sector-12, Karnal - HSPCB",26-01-2024 14:00:00,29.695300,77.002700,SO2,12,13,13
India,Haryana,Kurukshetra,"Sector-7, Kurukshetra - HSPCB",26-01-2024 14:00:00,29.966942,76.875879,NH3,1,5,5
India,Haryana,Kurukshetra,"Sector-7, Kurukshetra - HSPCB",26-01-2024 14:00:00,29.966942,76.875879,OZONE,1,52,12
India,Haryana,Mandikhera,"General Hospital, Mandikhera - HSPCB",26-01-2024 14:00:00,27.9002,76.9938,OZONE,25,29,27
India,Haryana,Manesar,"Sector-2 IMT, Manesar - HSPCB",26-01-2024 14:00:00,28.360699,76.936090,PM10,150,448,273
India,Haryana,Manesar,"Sector-2 IMT, Manesar - HSPCB",26-01-2024 14:00:00,28.360699,76.936090,NO2,17,27,22
India,Haryana,Manesar,"Sector-2 IMT, Manesar - HSPCB",26-01-2024 14:00:00,28.360699,76.936090,CO,8,165,56
India,Haryana,Narnaul,"Shastri Nagar, Narnaul - HSPCB",26-01-2024 14:00:00,28.060249,76.113115,PM10,78,120,101
India,Haryana,Narnaul,"Shastri Nagar, Narnaul - HSPCB",26-01-2024 14:00:00,28.060249,76.113115,NO2,17,48,33
India,Haryana,Palwal,"Shyam Nagar, Palwal - HSPCB",26-01-2024 14:00:00,28.1485564,77.3320667,SO2,6,20,13
India,Haryana,Palwal,"Shyam Nagar, Palwal - HSPCB",26-01-2024 14:00:00,28.1485564,77.3320667,OZONE,1,21,12
India,Haryana,Panipat,"Sector-18, Panipat - HSPCB",26-01-2024 14:00:00,29.497973,76.993331,NO2,NA,NA,NA
India,Haryana,Sirsa,"F-Block, Sirsa - HSPCB",26-01-2024 14:00:00,29.536400,75.015800,NO2,10,10,10
India,Haryana,Sirsa,"F-Block, Sirsa - HSPCB",26-01-2024 14:00:00,29.536400,75.015800,SO2,18,30,26
India,Haryana,Sonipat,"Murthal, Sonipat - HSPCB",26-01-2024 14:00:00,29.027200,77.062100,PM2.5,146,313,225
India,Haryana,Sonipat,"Murthal, Sonipat - HSPCB",26-01-2024 14:00:00,29.027200,77.062100,PM10,164,164,164
India,Haryana,Yamuna Nagar,"Gobind Pura, Yamuna Nagar - HSPCB",26-01-2024 14:00:00,30.1480566,77.2893471,PM10,76,302,97
India,Himachal Pradesh,Baddi,"HIMUDA Complex Phase-1, Baddi - HPPCB",26-01-2024 14:00:00,30.943887,76.801991,PM2.5,93,362,256
India,Himachal Pradesh,Baddi,"HIMUDA Complex Phase-1, Baddi - HPPCB",26-01-2024 14:00:00,30.943887,76.801991,SO2,48,124,90
India,Jharkhand,Dhanbad,"Kalakusuma, Dhanbad - DMC",26-01-2024 14:00:00,23.811548,86.481238,PM10,50,218,133
India,Jharkhand,Dhanbad,"Kalakusuma, Dhanbad - DMC",26-01-2024 14:00:00,23.811548,86.481238,OZONE,21,39,31
India,Jharkhand,Dhanbad,"Sardar Patel Nagar, Dhanbad - JSPCB",26-01-2024 14:00:00,23.80569,86.44268,PM10,82,246,159
India,Jharkhand,Dhanbad,"Sardar Patel Nagar, Dhanbad - JSPCB",26-01-2024 14:00:00,23.80569,86.44268,CO,105,165,37
India,Karnataka,Bagalkot,"Vidayagiri, Bagalkot - KSPCB",26-01-2024 14:00:00,16.172806,75.659694,PM10,46,47,46
India,Karnataka,Bagalkot,"Vidayagiri, Bagalkot - KSPCB",26-01-2024 14:00:00,16.172806,75.659694,CO,10,56,40
India,Karnataka,Belgaum,"Ramteerth Nagar, Belgaum - KSPCB",26-01-2024 14:00:00,15.888653,74.541751,SO2,8,9,8
India,Karnataka,Bengaluru,"Bapuji Nagar, Bengaluru - KSPCB",26-01-2024 14:00:00,12.951913,77.539784,OZONE,9,11,11
India,Karnataka,Bengaluru,"Hombegowda Nagar, Bengaluru - KSPCB",26-01-2024 14:00:00,12.938539,77.590100,PM10,41,148,77
India,Karnataka,Bengaluru,"Jayanagar 5th Block, Bengaluru - KSPCB",26-01-2024 14:00:00,12.920984,77.584908,PM2.5,NA,NA,NA
India,Karnataka,Bengaluru,"Jayanagar 5th Block, Bengaluru - KSPCB",26-01-2024 14:00:00,12.920984,77.584908,OZONE,NA,NA,NA
India,Karnataka,Bengaluru,"Jigani, Bengaluru - KSPCB",26-01-2024 14:00:00,12.7816279,77.6299145,SO2,11,15,14
India,Karnataka,Bengaluru,"Jigani, Bengaluru - KSPCB",26-01-2024 14:00:00,12.7816279,77.6299145,CO,26,73,43
India,Karnataka,Bengaluru,"Kasturi Nagar, Bengaluru - KSPCB",26-01-2024 14:00:00,13.003872,77.664217,SO2,10,10,10
India,Karnataka,Bengaluru,"RVCE-Mailasandra, Bengaluru - KSPCB",26-01-2024 14:00:00,12.921418,77.502466,NO2,31,31,31
India,Karnataka,Bengaluru,"RVCE-Mailasandra, Bengaluru - KSPCB",26-01-2024 14:00:00,12.921418,77.502466,CO,37,70,45
India,Karnataka,Bengaluru,"Sanegurava Halli, Bengaluru - KSPCB",26-01-2024 14:00:00,12.990328,77.5431385,PM10,29,63,37
