country,state,city,station,last_update,latitude,longitude,pollutant_id,pollutant_min,pollutant_max,pollutant_avg
India,Andhra_Pradesh,Amaravati,"Secretariat, Amaravati - APPCB",27-03-2024 02:00:00,16.5150833,80.5181667,NO2,5,11,8
India,Andhra_Pradesh,Anantapur,"Gulzarpet, Anantapur - APPCB",27-03-2024 02:00:00,14.675886,77.593027,PM2.5,28,59,41
India,Andhra_Pradesh,Anantapur,"Gulzarpet, Anantapur - APPCB",27-03-2024 02:00:00,14.675886,77.593027,PM10,65,98,83
India,Andhra_Pradesh,Anantapur,"Gulzarpet, Anantapur - APPCB",27-03-2024 02:00:00,14.675886,77.593027,NO2,NA,NA,NA
India,Andhra_Pradesh,Kadapa,"Yerramukkapalli, Kadapa - APPCB",27-03-2024 02:00:00,14.465052,78.824187,CO,11,18,14
India,Andhra_Pradesh,Kadapa,"Yerramukkapalli, Kadapa - APPCB",27-03-2024 02:00:00,14.465052,78.824187,OZONE,26,94,46
India,Andhra_Pradesh,Rajamahendravaram,"Anand Kala Kshetram, Rajamahendravaram - APPCB",27-03-2024 02:00:00,16.9872867,81.7363176,NO2,7,24,14
India,Andhra_Pradesh,Rajamahendravaram,"Anand Kala Kshetram, Rajamahendravaram - APPCB",27-03-2024 02:00:00,16.9872867,81.7363176,OZONE,15,30,17
India,Andhra_Pradesh,Tirupati,"Tirumala, Tirupati - APPCB",27-03-2024 02:00:00,13.67,79.35,NO2,24,44,31
India,Andhra_Pradesh,Tirupati,"Vaikuntapuram, Tirupati - APPCB",27-03-2024 02:00:00,13.615387,79.409230,PM10,13,143,38
India,Andhra_Pradesh,Tirupati,"Vaikuntapuram, Tirupati - APPCB",27-03-2024 02:00:00,13.615387,79.409230,SO2,4,5,5
India,Andhra_Pradesh,Vijayawada,"HB Colony, Vijayawada - APPCB",27-03-2024 02:00:00,16.536107,80.594233,NO2,5,15,9
India,Andhra_Pradesh,Vijayawada,"Rajiv Gandhi Park, Vijayawada - APPCB",27-03-2024 02:00:00,16.509717,80.612222,NO2,2,54,29
India,Andhra_Pradesh,Vijayawada,"Rajiv Gandhi Park, Vijayawada - APPCB",27-03-2024 02:00:00,16.509717,80.612222,SO2,4,7,5
India,Andhra_Pradesh,Vijayawada,"Rajiv Nagar, Vijayawada - APPCB",27-03-2024 02:00:00,16.554731,80.649110,NH3,NA,NA,NA
India,Assam,Byrnihat,"Central Academy for SFS, Byrnihat - PCBA",27-03-2024 02:00:00,26.071318,91.87488,NH3,4,9,6
India,Assam,Byrnihat,"Central Academy for SFS, Byrnihat - PCBA",27-03-2024 02:00:00,26.071318,91.87488,OZONE,5,31,15
India,Assam,Guwahati,"IITG, Guwahati - PCBA",27-03-2024 02:00:00,26.2028636,91.70046436,CO,8,10,9
India,Assam,Guwahati,"LGBI Airport, Guwahati - PCBA",27-03-2024 02:00:00,26.10887,91.589544,NO2,12,38,21
India,Assam,Guwahati,"LGBI Airport, Guwahati - PCBA",27-03-2024 02:00:00,26.10887,91.589544,OZONE,2,51,8
India,Assam,Guwahati,"Pan Bazaar, Guwahati - PCBA",27-03-2024 02:00:00,26.187500,91.744194,SO2,NA,NA,NA
India,Assam,Guwahati,"Pan Bazaar, Guwahati - PCBA",27-03-2024 02:00:00,26.187500,91.744194,CO,28,35,32
India,Assam,Guwahati,"Railway Colony, Guwahati - PCBA",27-03-2024 02:00:00,26.181742,91.78063,SO2,36,50,43
India,Assam,Guwahati,"Railway Colony, Guwahati - PCBA",27-03-2024 02:00:00,26.181742,91.78063,CO,8,44,21
India,Assam,Nagaon,"Christianpatty, Nagaon - PCBA",27-03-2024 02:00:00,26.349082,92.68449,OZONE,17,65,23
India,Assam,Silchar,"Tarapur, Silchar - PCBA",27-03-2024 02:00:00,24.82827,92.79525,PM2.5,16,29,19
India,Assam,Sivasagar,"Girls College, Sivasagar - PCBA",27-03-2024 02:00:00,26.987634,94.636574,OZONE,1,13,1
India,Bihar,Araria,"Kharahiya Basti, Araria - BSPCB",27-03-2024 02:00:00,26.146529,87.454184,PM10,11,73,36
India,Bihar,Araria,"Kharahiya Basti, Araria - BSPCB",27-03-2024 02:00:00,26.146529,87.454184,NH3,7,7,7
India,Bihar,Araria,"Kharahiya Basti, Araria - BSPCB",27-03-2024 02:00:00,26.146529,87.454184,OZONE,1,10,8
India,Bihar,Arrah,"New DM Office, Arrah - BSPCB",27-03-2024 02:00:00,25.5626095,84.663264,PM10,37,315,118
India,Bihar,Arrah,"New DM Office, Arrah - BSPCB",27-03-2024 02:00:00,25.5626095,84.663264,NH3,4,9,7
India,Bihar,Aurangabad,"Gurdeo Nagar, Aurangabad - BSPCB",27-03-2024 02:00:00,24.75746,84.366208,NO2,4,5,5
India,Bihar,Aurangabad,"Gurdeo Nagar, Aurangabad - BSPCB",27-03-2024 02:00:00,24.75746,84.366208,OZONE,10,68,28
India,Bihar,Bettiah,"Kamalnath Nagar, Bettiah - BSPCB",27-03-2024 02:00:00,26.80365,84.51954,OZONE,2,7,4
India,Bihar,Bhagalpur,"DM Office_Kachari Chowk, Bhagalpur - BSPCB",27-03-2024 02:00:00,25.251013,86.989001,PM10,NA,NA,NA
India,Bihar,Bhagalpur,"DM Office_Kachari Chowk, Bhagalpur - BSPCB",27-03-2024 02:00:00,25.251013,86.989001,CO,30,48,41
India,Bihar,Bhagalpur,"Mayaganj, Bhagalpur - BSPCB",27-03-2024 02:00:00,25.265194,87.012947,PM10,28,161,103
India,Bihar,Bihar Sharif,"D M Colony, Bihar Sharif - BSPCB",27-03-2024 02:00:00,25.204762,85.514960,NO2,8,10,9
India,Bihar,Gaya,"Collectorate, Gaya - BSPCB",27-03-2024 02:00:00,24.7955,84.9994,NO2,2,4,3
India,Bihar,Gaya,"Kareemganj, Gaya - BSPCB",27-03-2024 02:00:00,24.792403,84.992416,NH3,1,5,3
India,Bihar,Gaya,"SFTI Kusdihra, Gaya - BSPCB",27-03-2024 02:00:00,24.762518,84.982348,PM10,56,103,75
India,Bihar,Gaya,"SFTI Kusdihra, Gaya - BSPCB",27-03-2024 02:00:00,24.762518,84.982348,OZONE,14,80,32
India,Bihar,Hajipur,"Industrial Area, Hajipur - BSPCB",27-03-2024 02:00:00,25.697189,85.245900,PM10,77,141,102
India,Bihar,Kishanganj,"SDM Office_Khagra, Kishanganj - BSPCB",27-03-2024 02:00:00,26.0881305,87.93840336,PM2.5,NA,NA,NA
India,Bihar,Kishanganj,"SDM Office_Khagra, Kishanganj - BSPCB",27-03-2024 02:00:00,26.0881305,87.93840336,CO,3,8,5
India,Bihar,Manguraha,"Forest Rest House, Manguraha - BSPCB",27-03-2024 02:00:00,27.308328,84.531742,SO2,NA,NA,NA
India,Bihar,Motihari,"Gandak Colony, Motihari - BSPCB",27-03-2024 02:00:00,26.63086,84.90051,NH3,7,10,8
India,Bihar,Munger,"Town Hall, Munger - BSPCB",27-03-2024 02:00:00,25.376776,86.471523,PM2.5,58,117,77
India,Bihar,Muzaffarpur,"Buddha Colony, Muzaffarpur - BSPCB",27-03-2024 02:00:00,26.11442,85.39813,CO,12,38,23
India,Bihar,Muzaffarpur,"Buddha Colony, Muzaffarpur - BSPCB",27-03-2024 02:00:00,26.11442,85.39813,OZONE,33,67,44
India,Bihar,Muzaffarpur,"MIT-Daudpur Kothi, Muzaffarpur - BSPCB",27-03-2024 02:00:00,26.1403345,85.3650192,PM2.5,55,326,118
India,Bihar,Muzaffarpur,"MIT-Daudpur Kothi, Muzaffarpur - BSPCB",27-03-2024 02:00:00,26.1403345,85.3650192,SO2,8,14,10
India,Bihar,Muzaffarpur,"Muzaffarpur Collectorate, Muzaffarpur - BSPCB",27-03-2024 02:00:00,26.1209,85.3647,SO2,4,10,6
India,Bihar,Patna,"IGSC Planetarium Complex, Patna - BSPCB",27-03-2024 02:00:00,25.610369,85.132568,PM2.5,56,230,133
India,Bihar,Patna,"Muradpur, Patna - BSPCB",27-03-2024 02:00:00,25.619651,85.147382,NO2,6,17,12
India,Bihar,Patna,"Muradpur, Patna - BSPCB",27-03-2024 02:00:00,25.619651,85.147382,CO,1,75,26
India,Bihar,Patna,"Samanpura, Patna - BSPCB",27-03-2024 02:00:00,25.596727,85.085624,PM2.5,92,341,220
India,Bihar,Patna,"Samanpura, Patna - BSPCB",27-03-2024 02:00:00,25.596727,85.085624,PM10,112,430,176
India,Bihar,Patna,"Samanpura, Patna - BSPCB",27-03-2024 02:00:00,25.596727,85.085624,NO2,25,56,33
India,Bihar,Rajgir,"Dangi Tola, Rajgir - BSPCB",27-03-2024 02:00:00,25.03280,85.41948,CO,8,11,10
India,Bihar,Saharsa,"Police Line, Saharsa - BSPCB",27-03-2024 02:00:00,25.892357,86.590325,NH3,9,9,9
India,Bihar,Samastipur,"DM Office_Kasipur, Samastipur - BSPCB",27-03-2024 02:00:00,25.859655,85.77944,PM2.5,42,85,61
India,Bihar,Samastipur,"DM Office_Kasipur, Samastipur - BSPCB",27-03-2024 02:00:00,25.859655,85.77944,NO2,26,67,40
India,Bihar,Samastipur,"DM Office_Kasipur, Samastipur - BSPCB",27-03-2024 02:00:00,25.859655,85.77944,CO,4,32,12
India,Bihar,Sasaram,"Dada Peer, Sasaram - BSPCB",27-03-2024 02:00:00,24.952822,84.002396,PM2.5,18,83,43
India,Bihar,Sasaram,"Dada Peer, Sasaram - BSPCB",27-03-2024 02:00:00,24.952822,84.002396,NO2,8,25,15
India,Bihar,Sasaram,"Dada Peer, Sasaram - BSPCB",27-03-2024 02:00:00,24.952822,84.002396,NH3,7,11,9
India,Bihar,Sasaram,"Dada Peer, Sasaram - BSPCB",27-03-2024 02:00:00,24.952822,84.002396,CO,100,132,120
India,Bihar,Sasaram,"Dada Peer, Sasaram - BSPCB",27-03-2024 02:00:00,24.952822,84.002396,OZONE,7,80,30
India,Bihar,Siwan,"Chitragupta Nagar, Siwan - BSPCB",27-03-2024 02:00:00,26.2271665,84.3570427,PM10,NA,NA,NA
India,Chandigarh,Chandigarh,"Sector-25, Chandigarh - CPCC",27-03-2024 02:00:00,30.751462,76.762879,PM10,104,142,119
India,Chandigarh,Chandigarh,"Sector-25, Chandigarh - CPCC",27-03-2024 02:00:00,30.751462,76.762879,NH3,12,16,15
India,Chandigarh,Chandigarh,"Sector-25, Chandigarh - CPCC",27-03-2024 02:00:00,30.751462,76.762879,SO2,7,35,12
India,Chandigarh,Chandigarh,"Sector-53, Chandigarh - CPCC",27-03-2024 02:00:00,30.719859,76.738637,NH3,4,8,6
India,Chandigarh,Chandigarh,"Sector-53, Chandigarh - CPCC",27-03-2024 02:00:00,30.719859,76.738637,SO2,8,18,13
India,Chandigarh,Chandigarh,"Sector-53, Chandigarh - CPCC",27-03-2024 02:00:00,30.719859,76.738637,OZONE,26,52,32
India,Chhattisgarh,Bhilai,"32Bungalows, Bhilai - CECB",27-03-2024 02:00:00,21.194815,81.314770,SO2,5,15,7
India,Chhattisgarh,Bhilai,"Civic Center, Bhilai - Bhilai Steel Plant",27-03-2024 02:00:00,21.185571,81.343175,PM2.5,35,85,49
India,Chhattisgarh,Bhilai,"Civic Center, Bhilai - Bhilai Steel Plant",27-03-2024 02:00:00,21.185571,81.343175,PM10,35,112,56
India,Chhattisgarh,Bhilai,"Hathkhoj, Bhilai - CECB",27-03-2024 02:00:00,21.224231,81.408350,PM2.5,28,130,69
India,Chhattisgarh,Chhal,"Nawapara SECL Colony, Chhal - CECB",27-03-2024 02:00:00,22.118125,83.140608,NH3,2,2,2
India,Chhattisgarh,Chhal,"Nawapara SECL Colony, Chhal - CECB",27-03-2024 02:00:00,22.118125,83.140608,CO,10,60,40
India,Chhattisgarh,Korba,"Rampur, Korba - CECB",27-03-2024 02:00:00,22.368195,82.746431,OZONE,3,39,6
India,Chhattisgarh,Kunjemura,"OP Jindal School, Kunjemura - CECB",27-03-2024 02:00:00,22.126650,83.483212,NH3,1,3,2
India,Chhattisgarh,Kunjemura,"OP Jindal School, Kunjemura - CECB",27-03-2024 02:00:00,22.126650,83.483212,OZONE,4,100,23
India,Chhattisgarh,Milupara,"Govt. Higher Secondary School, Milupara - CECB",27-03-2024 02:00:00,22.1910172,83.5197009,NH3,NA,NA,NA
India,Chhattisgarh,Raipur,"Bhatagaon New ISBT, Raipur - CECB",27-03-2024 02:00:00,21.219665,81.630094,NO2,55,81,65
India,Chhattisgarh,Raipur,"Krishak Nagar, Raipur - CECB",27-03-2024 02:00:00,21.237755,81.705301,NH3,NA,NA,NA
India,Chhattisgarh,Tumidih,"OP Jindal Industrial Park, Tumidih - CECB",27-03-2024 02:00:00,22.06631475,83.33820077,NO2,NA,NA,NA
India,Delhi,Delhi,"Alipur, Delhi - DPCC",27-03-2024 02:00:00,28.815329,77.153010,NO2,4,51,20
India,Delhi,Delhi,"Anand Vihar, Delhi - DPCC",27-03-2024 02:00:00,28.647622,77.3158090,PM10,NA,NA,NA
India,Delhi,Delhi,"Anand Vihar, Delhi - DPCC",27-03-2024 02:00:00,28.647622,77.3158090,CO,NA,NA,NA
India,Delhi,Delhi,"Ashok Vihar, Delhi - DPCC",27-03-2024 02:00:00,28.695381,77.181665,PM10,74,275,158
India,Delhi,Delhi,"Ashok Vihar, Delhi - DPCC",27-03-2024 02:00:00,28.695381,77.181665,SO2,24,53,31
India,Delhi,Delhi,"Bawana, Delhi - DPCC",27-03-2024 02:00:00,28.776200,77.051074,SO2,9,36,17
India,Delhi,Delhi,"Bawana, Delhi - DPCC",27-03-2024 02:00:00,28.776200,77.051074,OZONE,5,91,28
India,Delhi,Delhi,"Burari Crossing, Delhi - IMD",27-03-2024 02:00:00,28.7256504,77.2011573,CO,3,54,45
India,Delhi,Delhi,"Burari Crossing, Delhi - IMD",27-03-2024 02:00:00,28.7256504,77.2011573,OZONE,24,68,33
India,Delhi,Delhi,"Chandni Chowk, Delhi - IITM",27-03-2024 02:00:00,28.656756,77.227234,PM2.5,NA,NA,NA
India,Delhi,Delhi,"Chandni Chowk, Delhi - IITM",27-03-2024 02:00:00,28.656756,77.227234,SO2,NA,NA,NA
India,Delhi,Delhi,"DTU, Delhi - CPCB",27-03-2024 02:00:00,28.7500499,77.1112615,PM2.5,56,302,146
India,Delhi,Delhi,"DTU, Delhi - CPCB",27-03-2024 02:00:00,28.7500499,77.1112615,NO2,14,42,27
India,Delhi,Delhi,"DTU, Delhi - CPCB",27-03-2024 02:00:00,28.7500499,77.1112615,CO,16,55,39
India,Delhi,Delhi,"Dr. Karni Singh Shooting Range, Delhi - DPCC",27-03-2024 02:00:00,28.498571,77.264840,NH3,6,10,8
India,Delhi,Delhi,"Dr. Karni Singh Shooting Range, Delhi - DPCC",27-03-2024 02:00:00,28.498571,77.264840,CO,25,101,84
India,Delhi,Delhi,"Dr. Karni Singh Shooting Range, Delhi - DPCC",27-03-2024 02:00:00,28.498571,77.264840,OZONE,1,209,22
India,Delhi,Delhi,"IGI Airport (T3), Delhi - IMD",27-03-2024 02:00:00,28.5627763,77.1180053,CO,10,108,65
India,Delhi,Delhi,"IHBAS, Dilshad Garden, Delhi - CPCB",27-03-2024 02:00:00,28.6811736,77.3025234,PM2.5,58,304,109
India,Delhi,Delhi,"IHBAS, Dilshad Garden, Delhi - CPCB",27-03-2024 02:00:00,28.6811736,77.3025234,PM10,59,162,96
India,Delhi,Delhi,"IHBAS, Dilshad Garden, Delhi - CPCB",27-03-2024 02:00:00,28.6811736,77.3025234,NH3,4,7,6
India,Delhi,Delhi,"ITO, Delhi - CPCB",27-03-2024 02:00:00,28.628624,77.241060,SO2,3,24,14
India,Delhi,Delhi,"ITO, Delhi - CPCB",27-03-2024 02:00:00,28.628624,77.241060,CO,28,110,78
India,Delhi,Delhi,"Jahangirpuri, Delhi - DPCC",27-03-2024 02:00:00,28.732820,77.170633,OZONE,1,53,10
India,Delhi,Delhi,"Jawaharlal Nehru Stadium, Delhi - DPCC",27-03-2024 02:00:00,28.580280,77.233829,PM2.5,23,207,81
India,Delhi,Delhi,"Jawaharlal Nehru Stadium, Delhi - DPCC",27-03-2024 02:00:00,28.580280,77.233829,PM10,62,168,110
India,Delhi,Delhi,"Jawaharlal Nehru Stadium, Delhi - DPCC",27-03-2024 02:00:00,28.580280,77.233829,NO2,25,147,70
India,Delhi,Delhi,"Lodhi Road, Delhi - IMD",27-03-2024 02:00:00,28.5918245,77.2273074,CO,11,27,17
India,Delhi,Delhi,"Major Dhyan Chand National Stadium, Delhi - DPCC",27-03-2024 02:00:00,28.611281,77.237738,CO,28,109,84
India,Delhi,Delhi,"Mandir Marg, Delhi - DPCC",27-03-2024 02:00:00,28.636429,77.201067,PM10,52,151,95
India,Delhi,Delhi,"Mundka, Delhi - DPCC",27-03-2024 02:00:00,28.684678,77.076574,NO2,16,93,45
India,Delhi,Delhi,"Mundka, Delhi - DPCC",27-03-2024 02:00:00,28.684678,77.076574,CO,22,82,62
India,Delhi,Delhi,"NSIT Dwarka, Delhi - CPCB",27-03-2024 02:00:00,28.60909,77.0325413,PM10,90,350,146
India,Delhi,Delhi,"NSIT Dwarka, Delhi - CPCB",27-03-2024 02:00:00,28.60909,77.0325413,OZONE,2,55,12
India,Delhi,Delhi,"Nehru Nagar, Delhi - DPCC",27-03-2024 02:00:00,28.567890,77.250515,NO2,8,32,17
India,Delhi,Delhi,"North Campus, DU, Delhi - IMD",27-03-2024 02:00:00,28.6573814,77.1585447,OZONE,1,34,6
India,Delhi,Delhi,"Okhla Phase-2, Delhi - DPCC",27-03-2024 02:00:00,28.530785,77.271255,PM2.5,25,302,95
India,Delhi,Delhi,"Okhla Phase-2, Delhi - DPCC",27-03-2024 02:00:00,28.530785,77.271255,PM10,90,271,140
India,Delhi,Delhi,"Okhla Phase-2, Delhi - DPCC",27-03-2024 02:00:00,28.530785,77.271255,NO2,43,329,106
India,Delhi,Delhi,"Okhla Phase-2, Delhi - DPCC",27-03-2024 02:00:00,28.530785,77.271255,OZONE,9,123,20
India,Delhi,Delhi,"Patparganj, Delhi - DPCC",27-03-2024 02:00:00,28.623763,77.287209,NO2,17,66,38
India,Delhi,Delhi,"Patparganj, Delhi - DPCC",27-03-2024 02:00:00,28.623763,77.287209,SO2,16,19,18
India,Delhi,Delhi,"Punjabi Bagh, Delhi - DPCC",27-03-2024 02:00:00,28.674045,77.131023,PM2.5,30,343,170
India,Delhi,Delhi,"Pusa, Delhi - DPCC",27-03-2024 02:00:00,28.639652,77.146275,NO2,43,164,104
India,Delhi,Delhi,"Pusa, Delhi - IMD",27-03-2024 02:00:00,28.636110,77.173332,CO,64,102,84
India,Delhi,Delhi,"Rohini, Delhi - DPCC",27-03-2024 02:00:00,28.732528,77.119920,PM2.5,29,328,169
India,Delhi,Delhi,"Rohini, Delhi - DPCC",27-03-2024 02:00:00,28.732528,77.119920,OZONE,3,88,24
India,Delhi,Delhi,"Sirifort, Delhi - CPCB",27-03-2024 02:00:00,28.5504249,77.2159377,NH3,6,8,7
India,Delhi,Delhi,"Sonia Vihar, Delhi - DPCC",27-03-2024 02:00:00,28.710508,77.249485,SO2,11,34,20
India,Delhi,Delhi,"Wazirpur, Delhi - DPCC",27-03-2024 02:00:00,28.699793,77.165453,PM2.5,28,337,159
India,Gujarat,Ahmedabad,"Chandkheda, Ahmedabad - IITM",27-03-2024 02:00:00,23.107969,72.574648,NO2,141,203,174
India,Gujarat,Ahmedabad,"Gyaspur, Ahmedabad - IITM",27-03-2024 02:00:00,22.977134,72.553024,NO2,23,47,34
India,Gujarat,Ahmedabad,"Gyaspur, Ahmedabad - IITM",27-03-2024 02:00:00,22.977134,72.553024,NH3,10,11,10
India,Gujarat,Ahmedabad,"Maninagar, Ahmedabad - GPCB",27-03-2024 02:00:00,23.002657,72.591912,OZONE,9,163,29
India,Gujarat,Ahmedabad,"Raikhad, Ahmedabad - IITM",27-03-2024 02:00:00,23.020509,72.579261,PM2.5,62,328,144
India,Gujarat,Ahmedabad,"Raikhad, Ahmedabad - IITM",27-03-2024 02:00:00,23.020509,72.579261,PM10,64,198,109
India,Gujarat,Ahmedabad,"Raikhad, Ahmedabad - IITM",27-03-2024 02:00:00,23.020509,72.579261,NH3,1,6,4
India,Gujarat,Ahmedabad,"SAC ISRO Satellite, Ahmedabad - IITM",27-03-2024 02:00:00,23.023389,72.515201,PM10,106,107,107
India,Gujarat,Ahmedabad,"SAC ISRO Satellite, Ahmedabad - IITM",27-03-2024 02:00:00,23.023389,72.515201,CO,26,28,28
India,Gujarat,Ahmedabad,"SVPI Airport Hansol, Ahmedabad - IITM",27-03-2024 02:00:00,23.076793,72.627874,NO2,14,19,17
India,Gujarat,Ahmedabad,"SVPI Airport Hansol, Ahmedabad - IITM",27-03-2024 02:00:00,23.076793,72.627874,NH3,4,5,4
India,Gujarat,Ahmedabad,"Sardar Vallabhbhai Patel Stadium, Ahmedabad - IITM",27-03-2024 02:00:00,23.043070,72.562968,PM10,71,166,107
India,Gujarat,Ahmedabad,"Sardar Vallabhbhai Patel Stadium, Ahmedabad - IITM",27-03-2024 02:00:00,23.043070,72.562968,NH3,2,6,5
India,Gujarat,Ahmedabad,"Sardar Vallabhbhai Patel Stadium, Ahmedabad - IITM",27-03-2024 02:00:00,23.043070,72.562968,CO,29,108,77
India,Gujarat,Ankleshwar,"GIDC, Ankleshwar - GPCB",27-03-2024 02:00:00,21.613267,73.010555,PM10,54,97,69
India,Gujarat,Ankleshwar,"GIDC, Ankleshwar - GPCB",27-03-2024 02:00:00,21.613267,73.010555,OZONE,21,45,30
India,Gujarat,Gandhinagar,"GIFT City, Gandhinagar - IITM",27-03-2024 02:00:00,23.163798,72.677768,NO2,NA,NA,NA
India,Gujarat,Gandhinagar,"IIPHG Lekawada, Gandhinagar - IITM",27-03-2024 02:00:00,23.243639,72.68994,NO2,37,50,41
India,Gujarat,Gandhinagar,"IIPHG Lekawada, Gandhinagar - IITM",27-03-2024 02:00:00,23.243639,72.68994,CO,22,24,23
India,Gujarat,Gandhinagar,"Sector-10, Gandhinagar - GPCB",27-03-2024 02:00:00,23.221714,72.654328,NO2,17,18,18
India,Gujarat,Vatva,"Phase-4 GIDC, Vatva - GPCB",27-03-2024 02:00:00,22.969611,72.643500,PM10,50,133,84
India,Haryana,Ambala,"Patti Mehar, Ambala - HSPCB",27-03-2024 02:00:00,30.379589,76.778328,PM10,27,64,40
India,Haryana,Ambala,"Patti Mehar, Ambala - HSPCB",27-03-2024 02:00:00,30.379589,76.778328,NO2,8,21,14
India,Haryana,Ambala,"Patti Mehar, Ambala - HSPCB",27-03-2024 02:00:00,30.379589,76.778328,NH3,5,12,8
India,Haryana,Bahadurgarh,"Arya Nagar, Bahadurgarh - HSPCB",27-03-2024 02:00:00,28.6701,76.9254,PM10,53,196,115
India,Haryana,Bahadurgarh,"Arya Nagar, Bahadurgarh - HSPCB",27-03-2024 02:00:00,28.6701,76.9254,NH3,10,13,12
India,Haryana,Ballabgarh,"Nathu Colony, Ballabgarh - HSPCB",27-03-2024 02:00:00,28.3419248,77.319699,NH3,1,3,2
India,Haryana,Ballabgarh,"Nathu Colony, Ballabgarh - HSPCB",27-03-2024 02:00:00,28.3419248,77.319699,SO2,1,27,13
India,Haryana,Bhiwani,"H.B. Colony, Bhiwani - HSPCB",27-03-2024 02:00:00,28.806223,76.141105,OZONE,15,25,20
India,Haryana,Charkhi Dadri,"Mini Secretariat, Charkhi Dadri - HSPCB",27-03-2024 02:00:00,28.593883,76.270653,NO2,14,22,18
India,Haryana,Charkhi Dadri,"Mini Secretariat, Charkhi Dadri - HSPCB",27-03-2024 02:00:00,28.593883,76.270653,NH3,6,8,7
India,Haryana,Dharuhera,"Municipal Corporation Office, Dharuhera -  HSPCB",27-03-2024 02:00:00,28.206800,76.799700,NH3,9,26,19
India,Haryana,Dharuhera,"Municipal Corporation Office, Dharuhera -  HSPCB",27-03-2024 02:00:00,28.206800,76.799700,CO,80,109,101
India,Haryana,Faridabad,"Sector 30, Faridabad - HSPCB",27-03-2024 02:00:00,28.4417,77.3217,CO,12,110,87
India,Haryana,Fatehabad,"Huda Sector, Fatehabad - HSPCB",27-03-2024 02:00:00,29.503664,75.467934,PM2.5,38,92,63
India,Haryana,Fatehabad,"Huda Sector, Fatehabad - HSPCB",27-03-2024 02:00:00,29.503664,75.467934,NH3,12,16,13
India,Haryana,Gurugram,"Sector-51, Gurugram - HSPCB",27-03-2024 02:00:00,28.4227,77.0667,NO2,13,29,23
India,Haryana,Gurugram,"Teri Gram, Gurugram - HSPCB",27-03-2024 02:00:00,28.4275,77.1465,PM2.5,40,331,132
India,Haryana,Gurugram,"Vikas Sadan, Gurugram - HSPCB",27-03-2024 02:00:00,28.4501238,77.0263051,CO,54,148,108
India,Haryana,Hisar,"Urban Estate-II, Hisar - HSPCB",27-03-2024 02:00:00,29.140560,75.744941,NH3,9,13,10
India,Haryana,Hisar,"Urban Estate-II, Hisar - HSPCB",27-03-2024 02:00:00,29.140560,75.744941,OZONE,41,175,76
India,Haryana,Kaithal,"Rishi Nagar, Kaithal - HSPCB",27-03-2024 02:00:00,29.8006,76.4155,NO2,24,26,25
India,Haryana,Kaithal,"Rishi Nagar, Kaithal - HSPCB",27-03-2024 02:00:00,29.8006,76.4155,NH3,7,8,8
India,Haryana,Kurukshetra,"Sector-7, Kurukshetra - HSPCB",27-03-2024 02:00:00,29.966942,76.875879,NO2,10,10,10
India,Haryana,Mandikhera,"General Hospital, Mandikhera - HSPCB",27-03-2024 02:00:00,27.9002,76.9938,PM2.5,10,49,31
India,Haryana,Manesar,"Sector-2 IMT, Manesar - HSPCB",27-03-2024 02:00:00,28.360699,76.936090,NH3,1,3,2
India,Haryana,Narnaul,"Shastri Nagar, Narnaul - HSPCB",27-03-2024 02:00:00,28.060249,76.113115,PM10,33,57,39
India,Haryana,Narnaul,"Shastri Nagar, Narnaul - HSPCB",27-03-2024 02:00:00,28.060249,76.113115,NH3,4,20,10
India,Haryana,Palwal,"Shyam Nagar, Palwal - HSPCB",27-03-2024 02:00:00,28.1485564,77.3320667,PM10,55,120,89
India,Haryana,Panchkula,"Sector-6, Panchkula - HSPCB ",27-03-2024 02:00:00,30.7057778,76.8531805555555,SO2,NA,NA,NA
India,Haryana,Panipat,"Sector-18, Panipat - HSPCB",27-03-2024 02:00:00,29.497973,76.993331,CO,24,26,25
India,Haryana,Rohtak,"MD University, Rohtak - HSPCB",27-03-2024 02:00:00,28.52123,76.37138,OZONE,43,57,50
India,Haryana,Sirsa,"F-Block, Sirsa - HSPCB",27-03-2024 02:00:00,29.536400,75.015800,PM2.5,3,136,68
India,Haryana,Sirsa,"F-Block, Sirsa - HSPCB",27-03-2024 02:00:00,29.536400,75.015800,NO2,10,10,10
India,Haryana,Sirsa,"F-Block, Sirsa - HSPCB",27-03-2024 02:00:00,29.536400,75.015800,OZONE,22,109,68
India,Haryana,Sonipat,"Murthal, Sonipat - HSPCB",27-03-2024 02:00:00,29.027200,77.062100,CO,12,40,18
India,Haryana,Yamuna Nagar,"Gobind Pura, Yamuna Nagar - HSPCB",27-03-2024 02:00:00,30.1480566,77.2893471,PM10,NA,NA,NA
India,Haryana,Yamuna Nagar,"Gobind Pura, Yamuna Nagar - HSPCB",27-03-2024 02:00:00,30.1480566,77.2893471,NH3,NA,NA,NA
India,Haryana,Yamuna Nagar,"Gobind Pura, Yamuna Nagar - HSPCB",27-03-2024 02:00:00,30.1480566,77.2893471,SO2,NA,NA,NA
India,Jharkhand,Dhanbad,"Kalakusuma, Dhanbad - DMC",27-03-2024 02:00:00,23.811548,86.481238,SO2,17,18,17
India,Karnataka,Bengaluru,"BTM Layout, Bengaluru - CPCB",27-03-2024 02:00:00,12.9135218,77.5950804,PM10,NA,NA,NA
India,Karnataka,Bengaluru,"BTM Layout, Bengaluru - CPCB",27-03-2024 02:00:00,12.9135218,77.5950804,CO,43,44,44
India,Karnataka,Bengaluru,"Bapuji Nagar, Bengaluru - KSPCB",27-03-2024 02:00:00,12.951913,77.539784,PM2.5,64,164,112
India,Karnataka,Bengaluru,"Bapuji Nagar, Bengaluru - KSPCB",27-03-2024 02:00:00,12.951913,77.539784,SO2,5,8,6
India,Karnataka,Bengaluru,"Hebbal, Bengaluru - KSPCB",27-03-2024 02:00:00,13.029152,77.585901,OZONE,NA,NA,NA
India,Karnataka,Bengaluru,"Hombegowda Nagar, Bengaluru - KSPCB",27-03-2024 02:00:00,12.938539,77.590100,PM10,54,104,78
India,Karnataka,Bengaluru,"Hombegowda Nagar, Bengaluru - KSPCB",27-03-2024 02:00:00,12.938539,77.590100,CO,11,14,13
India,Karnataka,Bengaluru,"Jayanagar 5th Block, Bengaluru - KSPCB",27-03-2024 02:00:00,12.920984,77.584908,NH3,3,5,4
India,Karnataka,Bengaluru,"Jigani, Bengaluru - KSPCB",27-03-2024 02:00:00,12.7816279,77.6299145,SO2,16,16,16
India,Karnataka,Bengaluru,"Kasturi Nagar, Bengaluru - KSPCB",27-03-2024 02:00:00,13.003872,77.664217,PM2.5,72,134,103
India,Karnataka,Bengaluru,"Kasturi Nagar, Bengaluru - KSPCB",27-03-2024 02:00:00,13.003872,77.664217,NO2,16,17,17
India,Karnataka,Bengaluru,"Kasturi Nagar, Bengaluru - KSPCB",27-03-2024 02:00:00,13.003872,77.664217,CO,22,24,23
India,Karnataka,Bengaluru,"Peenya, Bengaluru - CPCB",27-03-2024 02:00:00,13.0270199,77.494094,NH3,2,4,3
India,Karnataka,Bengaluru,"RVCE-Mailasandra, Bengaluru - KSPCB",27-03-2024 02:00:00,12.921418,77.502466,OZONE,10,10,10
India,Karnataka,Bengaluru,"Sanegurava Halli, Bengaluru - KSPCB",27-03-2024 02:00:00,12.990328,77.5431385,NO2,23,39,28
India,Karnataka,Bengaluru,"Silk Board, Bengaluru - KSPCB",27-03-2024 02:00:00,12.917348,77.622813,SO2,4,14,10
India,Karnataka,Bidar,"Naubad, Bidar - KSPCB",27-03-2024 02:00:00,17.930306,77.482194,NO2,7,9,8
India,Karnataka,Bidar,"Naubad, Bidar - KSPCB",27-03-2024 02:00:00,17.930306,77.482194,OZONE,23,57,38
India,Karnataka,Chamarajanagar,"Urban, Chamarajanagar - KSPCB",27-03-2024 02:00:00,11.55358,76.55521,SO2,2,7,4
India,Karnataka,Chikkaballapur,"Chikkaballapur Rural, Chikkaballapur - KSPCB",27-03-2024 02:00:00,13.428828,77.731418,NO2,8,16,10
India,Karnataka,Chikkaballapur,"Chikkaballapur Rural, Chikkaballapur - KSPCB",27-03-2024 02:00:00,13.428828,77.731418,OZONE,25,27,26
India,Karnataka,Chikkamagaluru,"Kalyana Nagara, Chikkamagaluru - KSPCB",27-03-2024 02:00:00,13.328028,75.797056,CO,11,113,43
India,Karnataka,Davanagere,"Devaraj Urs Badavane, Davanagere - KSPCB",27-03-2024 02:00:00,14.475800,75.905200,PM10,54,177,87
India,Karnataka,Dharwad,"Kalabhavan, Dharwad - KSPCB",27-03-2024 02:00:00,15.459706,75.008381,NO2,10,22,16
India,Karnataka,Dharwad,"Kalabhavan, Dharwad - KSPCB",27-03-2024 02:00:00,15.459706,75.008381,SO2,2,7,3
India,Karnataka,Gadag,"Panchal Nagar, Gadag - KSPCB",27-03-2024 02:00:00,15.411456,75.638133,PM2.5,29,79,46
India,Karnataka,Haveri,"Ashwini Nagar, Haveri - KSPCB",27-03-2024 02:00:00,14.791800,75.389600,PM10,NA,NA,NA
India,Karnataka,Hubballi,"Deshpande Nagar, Hubballi - KSPCB",27-03-2024 02:00:00,15.351773,75.140726,PM2.5,NA,NA,NA
India,Karnataka,Hubballi,"Deshpande Nagar, Hubballi - KSPCB",27-03-2024 02:00:00,15.351773,75.140726,OZONE,4,39,14
India,Karnataka,Kalaburagi,"Lal Bahadur Shastri Nagar, Kalaburagi - KSPCB",27-03-2024 02:00:00,17.321993,76.822628,SO2,11,12,11
India,Karnataka,Kalaburagi,"Lal Bahadur Shastri Nagar, Kalaburagi - KSPCB",27-03-2024 02:00:00,17.321993,76.822628,CO,42,47,45
India,Karnataka,Kalaburagi,"Lal Bahadur Shastri Nagar, Kalaburagi - KSPCB",27-03-2024 02:00:00,17.321993,76.822628,OZONE,38,89,65
India,Karnataka,Karwar,"KHB Colony, Karwar - KSPCB",27-03-2024 02:00:00,14.816666,74.141003,PM10,33,90,52
India,Karnataka,Karwar,"KHB Colony, Karwar - KSPCB",27-03-2024 02:00:00,14.816666,74.141003,NH3,1,12,5
India,Karnataka,Karwar,"KHB Colony, Karwar - KSPCB",27-03-2024 02:00:00,14.816666,74.141003,SO2,18,19,18
India,Karnataka,Karwar,"KHB Colony, Karwar - KSPCB",27-03-2024 02:00:00,14.816666,74.141003,CO,7,8,7
India,Karnataka,Madikeri,"Stuart Hill, Madikeri - KSPCB",27-03-2024 02:00:00,12.415911,75.735050,SO2,4,4,4
India,Karnataka,Mangalore,"Kadri, Mangalore - KSPCB",27-03-2024 02:00:00,12.889250,74.853000,SO2,21,23,22
India,Karnataka,Mysuru,"Hebbal 1st Stage, Mysuru - KSPCB",27-03-2024 02:00:00,12.21041,76.37376,NO2,2,46,25
India,Karnataka,Mysuru,"Hebbal 1st Stage, Mysuru - KSPCB",27-03-2024 02:00:00,12.21041,76.37376,CO,4,43,20
India,Karnataka,Mysuru,"Hebbal 1st Stage, Mysuru - KSPCB",27-03-2024 02:00:00,12.21041,76.37376,OZONE,14,84,35
India,Karnataka,Raichur,"Haji Colony, Raichur - KSPCB",27-03-2024 02:00:00,16.208139,77.348417,PM2.5,7,192,38
India,Karnataka,Raichur,"Haji Colony, Raichur - KSPCB",27-03-2024 02:00:00,16.208139,77.348417,NH3,1,3,2
India,Karnataka,Tumakuru,"Thimmalapura, Tumakuru - KSPCB",27-03-2024 02:00:00,13.377516,77.099072,PM10,NA,NA,NA
India,Karnataka,Udupi,"Brahmagiri, Udupi - KSPCB",27-03-2024 02:00:00,13.34194444,74.74694444,PM10,NA,NA,NA
India,Karnataka,Vijayapura,"Ibrahimpur, Vijayapura - KSPCB",27-03-2024 02:00:00,16.802639,75.722694,PM10,38,40,39
India,Karnataka,Yadgir,"Collector Office, Yadgir - KSPCB",27-03-2024 02:00:00,16.7602,77.1428,NO2,5,6,5
India,Karnataka,Yadgir,"Collector Office, Yadgir - KSPCB",27-03-2024 02:00:00,16.7602,77.1428,SO2,4,25,17
India,Kerala,Eloor,"Udyogamandal, Eloor - Kerala PCB",27-03-2024 02:00:00,10.073232,76.302765,PM2.5,29,65,46
India,Kerala,Eloor,"Udyogamandal, Eloor - Kerala PCB",27-03-2024 02:00:00,10.073232,76.302765,NO2,4,4,4
India,Kerala,Eloor,"Udyogamandal, Eloor - Kerala PCB",27-03-2024 02:00:00,10.073232,76.302765,CO,10,150,43
India,Kerala,Eloor,"Udyogamandal, Eloor - Kerala PCB",27-03-2024 02:00:00,10.073232,76.302765,OZONE,10,16,13
India,Kerala,Kannur,"Thavakkara, Kannur - Kerala PCB",27-03-2024 02:00:00,11.875000,75.373200,PM10,66,75,71
India,Kerala,Kollam,"Polayathode, Kollam - Kerala PCB",27-03-2024 02:00:00,8.8787,76.6073,NH3,1,1,1
India,Kerala,Thiruvananthapuram,"Kariavattom, Thiruvananthapuram - Kerala PCB",27-03-2024 02:00:00,8.563700,76.886500,OZONE,28,32,30
India,Kerala,Thiruvananthapuram,"Plammoodu, Thiruvananthapuram - Kerala PCB",27-03-2024 02:00:00,8.5149093,76.9435879,CO,11,22,17
India,Kerala,Thrissur,"Corporation Ground, Thrissur - Kerala PCB",27-03-2024 02:00:00,10.532400,76.215900,OZONE,27,31,30
India,Madhya Pradesh,Bhopal,"Idgah Hills, Bhopal - MPPCB",27-03-2024 02:00:00,23.264759,77.381568,CO,27,60,47
India,Madhya Pradesh,Bhopal,"Paryavaran Parisar, Bhopal - MPPCB",27-03-2024 02:00:00,23.210494,77.425409,PM10,71,255,122
India,Madhya Pradesh,Bhopal,"Paryavaran Parisar, Bhopal - MPPCB",27-03-2024 02:00:00,23.210494,77.425409,SO2,1,23,10
India,Madhya Pradesh,Dewas,"Bhopal Chauraha, Dewas - MPPCB",27-03-2024 02:00:00,22.9682591,76.064118,PM2.5,27,154,58
India,Madhya Pradesh,Gwalior,"City Center, Gwalior - MPPCB",27-03-2024 02:00:00,26.203442,78.193251,SO2,6,32,22
India,Madhya Pradesh,Gwalior,"Maharaj Bada, Gwalior - MPPCB",27-03-2024 02:00:00,26.200388,78.147714,PM10,NA,NA,NA
India,Madhya Pradesh,Gwalior,"Maharaj Bada, Gwalior - MPPCB",27-03-2024 02:00:00,26.200388,78.147714,SO2,NA,NA,NA
India,Madhya Pradesh,Gwalior,"Maharaj Bada, Gwalior - MPPCB",27-03-2024 02:00:00,26.200388,78.147714,CO,NA,NA,NA
India,Madhya Pradesh,Indore,"Residency Area, Indore - IMC",27-03-2024 02:00:00,22.7084,75.8815,PM2.5,40,109,57
India,Madhya Pradesh,Indore,"Residency Area, Indore - IMC",27-03-2024 02:00:00,22.7084,75.8815,PM10,47,128,69
India,Madhya Pradesh,Indore,"Residency Area, Indore - IMC",27-03-2024 02:00:00,22.7084,75.8815,NO2,13,15,14
India,Madhya Pradesh,Indore,"Residency Area, Indore - IMC",27-03-2024 02:00:00,22.7084,75.8815,CO,14,20,14
India,Madhya Pradesh,Indore,"Residency Area, Indore - IMC",27-03-2024 02:00:00,22.7084,75.8815,OZONE,10,19,14
India,Madhya Pradesh,Jabalpur,"Govindh Bhavan Colony, Jabalpur - JMC",27-03-2024 02:00:00,23.163174,79.973061,SO2,11,18,15
India,Madhya Pradesh,Jabalpur,"Govindh Bhavan Colony, Jabalpur - JMC",27-03-2024 02:00:00,23.163174,79.973061,OZONE,14,87,42
India,Madhya Pradesh,Jabalpur,"Marhatal, Jabalpur - MPPCB",27-03-2024 02:00:00,23.168606,79.932247,PM2.5,22,209,58
India,Madhya Pradesh,Mandideep,"Sector-D Industrial Area, Mandideep - MPPCB",27-03-2024 02:00:00,23.108440,77.511428,PM10,89,371,160
India,Madhya Pradesh,Pithampur,"Sector-2 Industrial Area, Pithampur - MPPCB",27-03-2024 02:00:00,22.624758,75.675238,OZONE,22,58,26
India,Madhya Pradesh,Sagar,"Civil Lines, Sagar - MPPCB",27-03-2024 02:00:00,23.838586,78.759431,PM2.5,27,56,42
India,Madhya Pradesh,Sagar,"Deen Dayal Nagar, Sagar - MPPCB",27-03-2024 02:00:00,23.8640158,78.80289321,PM10,23,58,38
India,Madhya Pradesh,Sagar,"Deen Dayal Nagar, Sagar - MPPCB",27-03-2024 02:00:00,23.8640158,78.80289321,NO2,23,24,24
India,Madhya Pradesh,Sagar,"Deen Dayal Nagar, Sagar - MPPCB",27-03-2024 02:00:00,23.8640158,78.80289321,SO2,5,19,11
India,Madhya Pradesh,Satna,"Bandhavgar Colony, Satna - Birla Cement",27-03-2024 02:00:00,24.58434363,80.8549414,NO2,26,66,39
India,Madhya Pradesh,Satna,"Bandhavgar Colony, Satna - Birla Cement",27-03-2024 02:00:00,24.58434363,80.8549414,SO2,1,3,2
India,Madhya Pradesh,Satna,"Bandhavgar Colony, Satna - Birla Cement",27-03-2024 02:00:00,24.58434363,80.8549414,OZONE,57,90,62
India,Madhya Pradesh,Singrauli,"Suryakiran Bhawan NCL, Singrauli - MPPCB",27-03-2024 02:00:00,24.108970,82.645580,SO2,33,73,42
India,Madhya Pradesh,Ujjain,"Mahakaleshwar Temple, Ujjain - MPPCB",27-03-2024 02:00:00,23.182719 ,75.768218 ,PM10,68,186,124
India,Maharashtra,Ahmednagar,"Tarakpur, Ahmednagar - MPCB",27-03-2024 02:00:00,19.10122,74.73339,NH3,1,6,3
India,Maharashtra,Akola,"Ramdaspeth, Akola - MPCB",27-03-2024 02:00:00,20.719516,77.000253,PM10,68,176,102
India,Maharashtra,Akola,"Ramdaspeth, Akola - MPCB",27-03-2024 02:00:00,20.719516,77.000253,NO2,11,101,34
India,Maharashtra,Akola,"Ramdaspeth, Akola - MPCB",27-03-2024 02:00:00,20.719516,77.000253,CO,24,134,85
India,Maharashtra,Akola,"Ramdaspeth, Akola - MPCB",27-03-2024 02:00:00,20.719516,77.000253,OZONE,1,112,21
India,Maharashtra,Amravati,"Shivneri Colony, Amravati - MPCB",27-03-2024 02:00:00,20.9402359,77.7895248,PM2.5,64,140,89
India,Maharashtra,Amravati,"Shri Shivaji Science College, Amaravati - MPCB",27-03-2024 02:00:00,20.939198,77.765701,NO2,4,98,22
India,Maharashtra,Amravati,"Shri Shivaji Science College, Amaravati - MPCB",27-03-2024 02:00:00,20.939198,77.765701,CO,28,123,71
India,Maharashtra,Aurangabad,"More Chowk Waluj, Aurangabad - MPCB",27-03-2024 02:00:00,19.8389439,75.244448,NO2,41,73,55
India,Maharashtra,Aurangabad,"More Chowk Waluj, Aurangabad - MPCB",27-03-2024 02:00:00,19.8389439,75.244448,CO,4,48,24
India,Maharashtra,Aurangabad,"Rachnakar Colony, Aurangabad - MPCB",27-03-2024 02:00:00,19.863756,75.321188,PM2.5,33,196,106
India,Maharashtra,Aurangabad,"Rachnakar Colony, Aurangabad - MPCB",27-03-2024 02:00:00,19.863756,75.321188,CO,11,118,59
India,Maharashtra,Badlapur,"Katrap, Badlapur - MPCB",27-03-2024 02:00:00,19.16485,73.23409,NO2,3,39,17
India,Maharashtra,Badlapur,"Katrap, Badlapur - MPCB",27-03-2024 02:00:00,19.16485,73.23409,OZONE,5,179,47
India,Maharashtra,Belapur,"CBD Belapur, Belapur - MPCB",27-03-2024 02:00:00,19.0243902,73.0406721,PM10,51,121,82
India,Maharashtra,Belapur,"CBD Belapur, Belapur - MPCB",27-03-2024 02:00:00,19.0243902,73.0406721,CO,12,38,27
India,Maharashtra,Bhiwandi,"Gokul Nagar, Bhiwandi - MPCB",27-03-2024 02:00:00,19.309073,73.057223,NO2,9,55,24
India,Maharashtra,Bhiwandi,"Gokul Nagar, Bhiwandi - MPCB",27-03-2024 02:00:00,19.309073,73.057223,CO,12,66,18
India,Maharashtra,Chandrapur,"Chauhan Colony, Chandrapur - MPCB",27-03-2024 02:00:00,19.962900,79.298714,OZONE,9,9,9
India,Maharashtra,Chandrapur,"MIDC Khutala, Chandrapur - MPCB",27-03-2024 02:00:00,19.9775302,79.2337086,CO,22,61,38
India,Maharashtra,Jalgaon,"Prabhat Colony, Jalgaon - MPCB",27-03-2024 02:00:00,21.001264,75.565602,PM10,74,174,117
India,Maharashtra,Jalgaon,"Prabhat Colony, Jalgaon - MPCB",27-03-2024 02:00:00,21.001264,75.565602,CO,10,53,28
India,Maharashtra,Jalgaon,"Prabhat Colony, Jalgaon - MPCB",27-03-2024 02:00:00,21.001264,75.565602,OZONE,9,109,34
India,Maharashtra,Jalna,"Old MIDC, Jalna - MPCB",27-03-2024 02:00:00,19.854616,75.905894,NO2,NA,NA,NA
India,Maharashtra,Jalna,"Old MIDC, Jalna - MPCB",27-03-2024 02:00:00,19.854616,75.905894,NH3,NA,NA,NA
India,Maharashtra,Jalna,"Old MIDC, Jalna - MPCB",27-03-2024 02:00:00,19.854616,75.905894,SO2,NA,NA,NA
India,Maharashtra,Kolhapur,"Shivaji University, Kolhapur - MPCB",27-03-2024 02:00:00,16.6870449,74.2505872,PM10,32,161,101
India,Maharashtra,Kolhapur,"Shivaji University, Kolhapur - MPCB",27-03-2024 02:00:00,16.6870449,74.2505872,NO2,10,39,21
India,Maharashtra,Kolhapur,"Sinchan Bhavan, Kolhapur - MPCB",27-03-2024 02:00:00,16.7143745,74.2426398,NO2,12,58,27
India,Maharashtra,Latur,"Sawe Wadi, Latur - MPCB",27-03-2024 02:00:00,18.39963,76.57452,PM2.5,91,302,167
India,Maharashtra,Latur,"Sawe Wadi, Latur - MPCB",27-03-2024 02:00:00,18.39963,76.57452,NH3,10,17,13
India,Maharashtra,Latur,"Sawe Wadi, Latur - MPCB",27-03-2024 02:00:00,18.39963,76.57452,OZONE,1,74,27
India,Maharashtra,Mahad,"Kamble Tarf Birwadi, Mahad - MPCB",27-03-2024 02:00:00,18.1023399,73.4783687,PM10,58,111,87
India,Maharashtra,Mahad,"Kamble Tarf Birwadi, Mahad - MPCB",27-03-2024 02:00:00,18.1023399,73.4783687,NH3,10,14,10
India,Maharashtra,Mahad,"Kamble Tarf Birwadi, Mahad - MPCB",27-03-2024 02:00:00,18.1023399,73.4783687,OZONE,4,75,27
India,Maharashtra,Malegaon,"Mahesh Nagar, Malegaon - MPCB",27-03-2024 02:00:00,20.555712,74.529236,OZONE,23,94,39
India,Maharashtra,Mira-Bhayandar,"Bhayandar West, Mira-Bhayandar - MPCB",27-03-2024 02:00:00,19.296481,72.840923,PM10,38,99,69
India,Maharashtra,Mira-Bhayandar,"Bhayandar West, Mira-Bhayandar - MPCB",27-03-2024 02:00:00,19.296481,72.840923,NO2,5,31,14
India,Maharashtra,Mumbai,"Bandra Kurla Complex, Mumbai - MPCB",27-03-2024 02:00:00,19.065931,72.862131,PM2.5,27,70,52
India,Maharashtra,Mumbai,"Borivali East, Mumbai - IITM",27-03-2024 02:00:00,19.23241,72.86895,NH3,2,3,2
India,Maharashtra,Mumbai,"Borivali East, Mumbai - IITM",27-03-2024 02:00:00,19.23241,72.86895,CO,18,44,34
India,Maharashtra,Mumbai,"Borivali East, Mumbai - MPCB",27-03-2024 02:00:00,19.2243333,72.8658113,NO2,3,39,12
India,Maharashtra,Mumbai,"Borivali East, Mumbai - MPCB",27-03-2024 02:00:00,19.2243333,72.8658113,CO,2,67,24
India,Maharashtra,Mumbai,"Borivali East, Mumbai - MPCB",27-03-2024 02:00:00,19.2243333,72.8658113,OZONE,14,15,15
India,Maharashtra,Mumbai,"Byculla, Mumbai - BMC",27-03-2024 02:00:00,18.9767,72.8380,OZONE,1,52,33
India,Maharashtra,Mumbai,"Chakala-Andheri East, Mumbai - IITM",27-03-2024 02:00:00,19.11074,72.86084,PM10,32,113,75
India,Maharashtra,Mumbai,"Chakala-Andheri East, Mumbai - IITM",27-03-2024 02:00:00,19.11074,72.86084,NO2,NA,NA,NA
India,Maharashtra,Mumbai,"Chakala-Andheri East, Mumbai - IITM",27-03-2024 02:00:00,19.11074,72.86084,SO2,14,52,34
India,Maharashtra,Mumbai,"Chembur, Mumbai - MPCB",27-03-2024 02:00:00,19.0364585,72.8954371,PM10,34,98,71
India,Maharashtra,Mumbai,"Chembur, Mumbai - MPCB",27-03-2024 02:00:00,19.0364585,72.8954371,NO2,20,72,37
India,Maharashtra,Mumbai,"Chembur, Mumbai - MPCB",27-03-2024 02:00:00,19.0364585,72.8954371,NH3,2,3,3
India,Maharashtra,Mumbai,"Chhatrapati Shivaji Intl. Airport (T2), Mumbai - MPCB",27-03-2024 02:00:00,19.10078,72.87462,PM10,34,82,58
India,Maharashtra,Mumbai,"Chhatrapati Shivaji Intl. Airport (T2), Mumbai - MPCB",27-03-2024 02:00:00,19.10078,72.87462,NO2,1,41,22
India,Maharashtra,Mumbai,"Colaba, Mumbai - MPCB",27-03-2024 02:00:00,18.910000,72.820000,NH3,1,1,1
India,Maharashtra,Mumbai,"Colaba, Mumbai - MPCB",27-03-2024 02:00:00,18.910000,72.820000,OZONE,6,11,10
India,Maharashtra,Mumbai,"Ghatkopar, Mumbai - BMC",27-03-2024 02:00:00,19.083694,72.920967,NH3,NA,NA,NA
India,Maharashtra,Mumbai,"Ghatkopar, Mumbai - BMC",27-03-2024 02:00:00,19.083694,72.920967,CO,2,26,18
India,Maharashtra,Mumbai,"Kandivali East, Mumbai - MPCB",27-03-2024 02:00:00,19.205800,72.868200,CO,101,110,106
India,Maharashtra,Mumbai,"Kandivali West, Mumbai - BMC",27-03-2024 02:00:00,19.215859,72.831718,NH3,1,3,2
India,Maharashtra,Mumbai,"Kherwadi_Bandra East, Mumbai - MPCB",27-03-2024 02:00:00,19.0632143,72.8456324,PM2.5,25,68,45
India,Maharashtra,Mumbai,"Kherwadi_Bandra East, Mumbai - MPCB",27-03-2024 02:00:00,19.0632143,72.8456324,NH3,3,29,8
India,Maharashtra,Mumbai,"Kherwadi_Bandra East, Mumbai - MPCB",27-03-2024 02:00:00,19.0632143,72.8456324,CO,8,56,21
India,Maharashtra,Mumbai,"Khindipada-Bhandup West, Mumbai - IITM",27-03-2024 02:00:00,19.1653323,72.922099,OZONE,5,36,15
India,Maharashtra,Mumbai,"Kurla, Mumbai - MPCB",27-03-2024 02:00:00,19.0863,72.8888,PM10,20,134,70
India,Maharashtra,Mumbai,"Mazgaon, Mumbai - IITM",27-03-2024 02:00:00,18.96702,72.84214,PM10,39,101,74
India,Maharashtra,Mumbai,"Mindspace-Malad West, Mumbai - MPCB",27-03-2024 02:00:00,19.1878657,72.8304069,NH3,3,7,5
India,Maharashtra,Mumbai,"Mindspace-Malad West, Mumbai - MPCB",27-03-2024 02:00:00,19.1878657,72.8304069,SO2,1,4,2
India,Maharashtra,Mumbai,"Mindspace-Malad West, Mumbai - MPCB",27-03-2024 02:00:00,19.1878657,72.8304069,CO,13,45,29
India,Maharashtra,Mumbai,"Mulund West, Mumbai - MPCB",27-03-2024 02:00:00,19.1750,72.9419,OZONE,7,7,7
India,Maharashtra,Mumbai,"Navy Nagar-Colaba, Mumbai - IITM",27-03-2024 02:00:00,18.897756,72.813320,NH3,NA,NA,NA
India,Maharashtra,Mumbai,"Powai, Mumbai - MPCB",27-03-2024 02:00:00,19.137500,72.915056,CO,28,36,33
India,Maharashtra,Mumbai,"Powai, Mumbai - MPCB",27-03-2024 02:00:00,19.137500,72.915056,OZONE,25,88,43
India,Maharashtra,Mumbai,"Sewri, Mumbai - BMC",27-03-2024 02:00:00,19.000084,72.856730,NO2,20,80,47
India,Maharashtra,Mumbai,"Shivaji Nagar, Mumbai - BMC",27-03-2024 02:00:00,19.060498,72.923356,OZONE,1,52,7
India,Maharashtra,Mumbai,"Sion, Mumbai - MPCB",27-03-2024 02:00:00,19.047000,72.874600,SO2,35,38,36
India,Maharashtra,Mumbai,"Vasai West, Mumbai - MPCB",27-03-2024 02:00:00,19.383200,72.820400,CO,36,60,49
India,Maharashtra,Mumbai,"Vile Parle West, Mumbai - MPCB",27-03-2024 02:00:00,19.10861,72.83622,PM2.5,NA,NA,NA
India,Maharashtra,Mumbai,"Vile Parle West, Mumbai - MPCB",27-03-2024 02:00:00,19.10861,72.83622,OZONE,3,23,13
India,Maharashtra,Nagpur,"Mahal, Nagpur - MPCB",27-03-2024 02:00:00,21.14472,79.107595,PM2.5,NA,NA,NA
India,Maharashtra,Nagpur,"Opp GPO Civil Lines, Nagpur - MPCB",27-03-2024 02:00:00,21.152875,79.0517531,NH3,4,17,7
India,Maharashtra,Nanded,"Sneh Nagar, Nanded - MPCB",27-03-2024 02:00:00,19.173852,77.296291,PM10,97,263,134
India,Maharashtra,Nashik,"Gangapur Road, Nashik - MPCB",27-03-2024 02:00:00,20.0073285,73.7762427,PM2.5,63,93,77
India,Maharashtra,Nashik,"Gangapur Road, Nashik - MPCB",27-03-2024 02:00:00,20.0073285,73.7762427,NO2,9,15,12
India,Maharashtra,Nashik,"Gangapur Road, Nashik - MPCB",27-03-2024 02:00:00,20.0073285,73.7762427,CO,22,23,22
India,Maharashtra,Nashik,"Hirawadi, Nashik - MPCB",27-03-2024 02:00:00,20.021503,73.813844,PM10,71,102,83
India,Maharashtra,Nashik,"Hirawadi, Nashik - MPCB",27-03-2024 02:00:00,20.021503,73.813844,SO2,4,26,10
India,Maharashtra,Nashik,"MIDC Ambad, Nashik - MPCB",27-03-2024 02:00:00,19.950220,73.731480,PM2.5,38,64,53
India,Maharashtra,Nashik,"MIDC Ambad, Nashik - MPCB",27-03-2024 02:00:00,19.950220,73.731480,CO,14,43,24
India,Maharashtra,Nashik,"Pandav Nagari, Nashik - MPCB",27-03-2024 02:00:00,19.9591346,73.7788008,CO,15,31,26
India,Maharashtra,Navi Mumbai,"Mahape, Navi Mumbai - MPCB",27-03-2024 02:00:00,19.1135051,73.008978,PM10,50,143,94
India,Maharashtra,Navi Mumbai,"Mahape, Navi Mumbai - MPCB",27-03-2024 02:00:00,19.1135051,73.008978,NO2,37,40,38
India,Maharashtra,Navi Mumbai,"Sanpada, Navi Mumbai - MPCB",27-03-2024 02:00:00,19.0575752,73.0151367,CO,2,26,18
India,Maharashtra,Navi Mumbai,"Sector-19A Nerul, Navi Mumbai - IITM",27-03-2024 02:00:00,19.044,73.0325,SO2,8,21,16
India,Maharashtra,Navi Mumbai,"Sector-19A Nerul, Navi Mumbai - IITM",27-03-2024 02:00:00,19.044,73.0325,OZONE,1,97,7
India,Maharashtra,Navi Mumbai,"Tondare-Taloja, Navi Mumbai - MPCB",27-03-2024 02:00:00,19.0630,73.1209,PM10,NA,NA,NA
India,Maharashtra,Pimpri-Chinchwad,"Gavalinagar, Pimpri Chinchwad - MPCB",27-03-2024 02:00:00,18.63673,73.82487,PM2.5,58,87,72
India,Maharashtra,Pimpri-Chinchwad,"Gavalinagar, Pimpri Chinchwad - MPCB",27-03-2024 02:00:00,18.63673,73.82487,PM10,66,110,88
India,Maharashtra,Pimpri-Chinchwad,"Park Street Wakad, Pimpri Chinchwad - MPCB",27-03-2024 02:00:00,18.59051,73.77946,NO2,48,107,75
India,Maharashtra,Pimpri-Chinchwad,"Park Street Wakad, Pimpri Chinchwad - MPCB",27-03-2024 02:00:00,18.59051,73.77946,CO,23,68,30
India,Maharashtra,Pimpri-Chinchwad,"Thergaon, Pimpri Chinchwad - MPCB",27-03-2024 02:00:00,18.616318,73.765797,NH3,3,10,6
India,Maharashtra,Pimpri-Chinchwad,"Thergaon, Pimpri Chinchwad - MPCB",27-03-2024 02:00:00,18.616318,73.765797,OZONE,16,191,97
India,Maharashtra,Pune,"Bhosari, Pune - IITM",27-03-2024 02:00:00,18.640051,73.848956,NO2,13,14,14
India,Maharashtra,Pune,"Karve Road, Pune - MPCB",27-03-2024 02:00:00,18.5011743,73.8165527,PM10,111,152,136
India,Maharashtra,Pune,"Karve Road, Pune - MPCB",27-03-2024 02:00:00,18.5011743,73.8165527,OZONE,5,8,5
India,Maharashtra,Pune,"Katraj Dairy, Pune - MPCB",27-03-2024 02:00:00,18.454450,73.854155,NO2,NA,NA,NA
India,Maharashtra,Pune,"Katraj Dairy, Pune - MPCB",27-03-2024 02:00:00,18.454450,73.854155,OZONE,34,67,42
India,Maharashtra,Pune,"Mhada Colony, Pune - IITM",27-03-2024 02:00:00,18.573040,73.927715,CO,16,76,49
India,Maharashtra,Pune,"Revenue Colony-Shivajinagar, Pune - IITM",27-03-2024 02:00:00,18.530085,73.849598,NO2,68,164,123
India,Maharashtra,Pune,"Revenue Colony-Shivajinagar, Pune - IITM",27-03-2024 02:00:00,18.530085,73.849598,NH3,10,21,15
India,Maharashtra,Sangli,"Vijay Nagar, Sangli - MPCB",27-03-2024 02:00:00, 16.5038,74.3623,NO2,10,68,28
India,Maharashtra,Solapur,"Dnyaneshwar Nagar, Solapur - MPCB",27-03-2024 02:00:00,17.6336264,75.9132495,SO2,NA,NA,NA
India,Maharashtra,Solapur,"Dnyaneshwar Nagar, Solapur - MPCB",27-03-2024 02:00:00,17.6336264,75.9132495,OZONE,63,105,76
India,Maharashtra,Solapur,"Solapur, Solapur - MPCB",27-03-2024 02:00:00,17.6599188,75.9063906,SO2,57,102,85
India,Maharashtra,Thane,"Kasarvadavali, Thane - MPCB",27-03-2024 02:00:00,19.26777,72.97182,NO2,16,100,38
India,Maharashtra,Thane,"Upvan Fort, Thane - MPCB",27-03-2024 02:00:00,19.222279,72.957979,PM2.5,37,79,60
India,Maharashtra,Thane,"Upvan Fort, Thane - MPCB",27-03-2024 02:00:00,19.222279,72.957979,PM10,45,88,73
India,Maharashtra,Ulhasnagar,"Sidhi Vinayak Nagar, Ulhasnagar - MPCB",27-03-2024 02:00:00,19.235581,73.159121,SO2,1,18,5
India,Maharashtra,Virar,"Bolinj, Virar - MPCB",27-03-2024 02:00:00,19.4458210,72.7988231,NH3,5,6,5
India,Manipur,Imphal,"Manipur University, Imphal - Manipur PCB",27-03-2024 02:00:00,24.7524239,93.9286218,PM2.5,14,75,40
India,Meghalaya,Shillong,"Lumpyngngad, Shillong - Meghalaya PCB",27-03-2024 02:00:00,25.5586,91.8985,SO2,36,40,38
India,Meghalaya,Shillong,"Lumpyngngad, Shillong - Meghalaya PCB",27-03-2024 02:00:00,25.5586,91.8985,CO,4,18,11
India,Nagaland,Kohima,"PWD Juction, Kohima - NPCB",27-03-2024 02:00:00,25.6635413,94.0989878,PM2.5,26,90,56
India,Nagaland,Kohima,"PWD Juction, Kohima - NPCB",27-03-2024 02:00:00,25.6635413,94.0989878,PM10,25,85,55
India,Nagaland,Kohima,"PWD Juction, Kohima - NPCB",27-03-2024 02:00:00,25.6635413,94.0989878,NO2,3,4,3
India,Nagaland,Kohima,"PWD Juction, Kohima - NPCB",27-03-2024 02:00:00,25.6635413,94.0989878,NH3,1,1,1
India,Odisha,Angul,"Hakimapada, Angul - OSPCB",27-03-2024 02:00:00,20.832874,85.104082,NH3,1,1,1
India,Odisha,Angul,"Hakimapada, Angul - OSPCB",27-03-2024 02:00:00,20.832874,85.104082,SO2,11,93,33
India,Odisha,Barbil,"Forest Office, Barbil - OSPCB",27-03-2024 02:00:00,22.1166054,85.3945546,PM10,72,417,125
India,Odisha,Barbil,"Forest Office, Barbil - OSPCB",27-03-2024 02:00:00,22.1166054,85.3945546,SO2,1,21,8
India,Odisha,Baripada,"Meher Colony, Baripada - OSPCB",27-03-2024 02:00:00,21.941841,86.728318,SO2,4,7,6
India,Odisha,Bhubaneswar,"Lingraj Mandir, Bhubaneswar - OSPCB",27-03-2024 02:00:00,20.240790,85.836784,PM2.5,20,257,74
India,Odisha,Bhubaneswar,"Lingraj Mandir, Bhubaneswar - OSPCB",27-03-2024 02:00:00,20.240790,85.836784,NO2,4,26,12
India,Odisha,Bhubaneswar,"Lingraj Mandir, Bhubaneswar - OSPCB",27-03-2024 02:00:00,20.240790,85.836784,OZONE,10,94,32
India,Odisha,Brajrajnagar,"GM Office, Brajrajnagar - OSPCB",27-03-2024 02:00:00,21.8004996,83.8396977,PM10,37,131,86
India,Odisha,Brajrajnagar,"GM Office, Brajrajnagar - OSPCB",27-03-2024 02:00:00,21.8004996,83.8396977,NH3,1,2,1
India,Odisha,Brajrajnagar,"GM Office, Brajrajnagar - OSPCB",27-03-2024 02:00:00,21.8004996,83.8396977,CO,76,97,89
India,Odisha,Byasanagar,"Ferro Chrome Colony, Byasanagar - OSPCB",27-03-2024 02:00:00,20.94185,86.11510,NH3,2,2,2
India,Odisha,Byasanagar,"Ferro Chrome Colony, Byasanagar - OSPCB",27-03-2024 02:00:00,20.94185,86.11510,OZONE,25,132,53
India,Odisha,Cuttack,"CDA Area, Cuttack - OSPCB",27-03-2024 02:00:00,20.48891     ,85.84768     ,PM10,40,78,57
India,Odisha,Cuttack,"CDA Area, Cuttack - OSPCB",27-03-2024 02:00:00,20.48891     ,85.84768     ,OZONE,28,87,40
India,Odisha,Keonjhar,"Jagamohanpur, Keonjhar - OSPCB",27-03-2024 02:00:00,21.643900,85.599355,PM2.5,54,130,79
India,Odisha,Keonjhar,"Jagamohanpur, Keonjhar - OSPCB",27-03-2024 02:00:00,21.643900,85.599355,NH3,6,13,7
India,Odisha,Keonjhar,"Jagamohanpur, Keonjhar - OSPCB",27-03-2024 02:00:00,21.643900,85.599355,SO2,4,5,4
India,Odisha,Keonjhar,"Jagamohanpur, Keonjhar - OSPCB",27-03-2024 02:00:00,21.643900,85.599355,OZONE,1,16,2
India,Odisha,Rairangpur,"Divisional Forest Office, Rairangpur - OSPCB",27-03-2024 02:00:00,22.265816,86.174829,SO2,2,9,5
India,Odisha,Rourkela,"Raghunathpali, Rourkela - OSPCB",27-03-2024 02:00:00,22.220833,84.809444,PM10,62,127,97
India,Odisha,Rourkela,"Raghunathpali, Rourkela - OSPCB",27-03-2024 02:00:00,22.220833,84.809444,OZONE,17,124,37
India,Odisha,Suakati,"OMC Colony, Suakati - OSPCB",27-03-2024 02:00:00,21.606865,85.510538,PM10,67,114,94
India,Odisha,Talcher,"Talcher Coalfields,Talcher - OSPCB",27-03-2024 02:00:00,20.9360711,85.1707021,PM2.5,7,166,86
India,Odisha,Talcher,"Talcher Coalfields,Talcher - OSPCB",27-03-2024 02:00:00,20.9360711,85.1707021,NO2,13,17,15
India,Odisha,Talcher,"Talcher Coalfields,Talcher - OSPCB",27-03-2024 02:00:00,20.9360711,85.1707021,SO2,11,49,22
India,Odisha,Talcher,"Talcher Coalfields,Talcher - OSPCB",27-03-2024 02:00:00,20.9360711,85.1707021,CO,8,52,28
India,Punjab,Amritsar,"Golden Temple, Amritsar - PPCB",27-03-2024 02:00:00,31.620000,74.876512,NH3,4,5,5
India,Punjab,Amritsar,"Golden Temple, Amritsar - PPCB",27-03-2024 02:00:00,31.620000,74.876512,SO2,6,44,21
India,Punjab,Amritsar,"Golden Temple, Amritsar - PPCB",27-03-2024 02:00:00,31.620000,74.876512,OZONE,47,68,57
India,Punjab,Ludhiana,"Punjab Agricultural University, Ludhiana - PPCB",27-03-2024 02:00:00,30.9028,75.8086,NO2,18,24,20
India,Punjab,Ludhiana,"Punjab Agricultural University, Ludhiana - PPCB",27-03-2024 02:00:00,30.9028,75.8086,NH3,4,5,4
India,Punjab,Mandi Gobindgarh,"RIMT University, Mandi Gobindgarh - PPCB",27-03-2024 02:00:00,30.649961,76.331442,NO2,15,24,23
India,Punjab,Patiala,"Model Town, Patiala - PPCB",27-03-2024 02:00:00,30.349388,76.366642,NO2,26,29,28
India,Punjab,Patiala,"Model Town, Patiala - PPCB",27-03-2024 02:00:00,30.349388,76.366642,SO2,4,31,10
India,Punjab,Patiala,"Model Town, Patiala - PPCB",27-03-2024 02:00:00,30.349388,76.366642,OZONE,23,87,47
India,Rajasthan,Ajmer,"Civil Lines,  Ajmer - RSPCB",27-03-2024 02:00:00,26.470859,74.646594,PM2.5,39,144,71
India,Rajasthan,Ajmer,"Civil Lines,  Ajmer - RSPCB",27-03-2024 02:00:00,26.470859,74.646594,CO,16,105,69
India,Rajasthan,Baran,"Bamboliya, Baran - RSPCB",27-03-2024 02:00:00,25.106006,76.469948,CO,15,92,44
India,Rajasthan,Barmer,"Railway Colony, Barmer - RSPCB",27-03-2024 02:00:00,25.747299,71.393989,OZONE,44,87,58
India,Rajasthan,Bharatpur,"Krishna Nagar, Bharatpur - RSPCB",27-03-2024 02:00:00,27.215415,77.50873,PM2.5,59,230,103
India,Rajasthan,Bharatpur,"Krishna Nagar, Bharatpur - RSPCB",27-03-2024 02:00:00,27.215415,77.50873,PM10,77,181,116
India,Rajasthan,Bharatpur,"Krishna Nagar, Bharatpur - RSPCB",27-03-2024 02:00:00,27.215415,77.50873,NO2,13,84,36
India,Rajasthan,Bhilwara,"Pratap Nagar, Bhilwara - RSPCB",27-03-2024 02:00:00,25.339605,74.618883,CO,NA,NA,NA
India,Rajasthan,Bhiwadi,"RIICO Ind. Area III, Bhiwadi - RSPCB",27-03-2024 02:00:00,28.194909,76.862296,SO2,NA,NA,NA
India,Rajasthan,Bhiwadi,"Vasundhara Nagar_UIT, Bhiwadi - RSPCB",27-03-2024 02:00:00,28.207266,76.829265,CO,12,85,56
India,Rajasthan,Churu,"Subash Chowk, Churu - RSPCB",27-03-2024 02:00:00,28.296139,74.961696,PM2.5,30,91,47
India,Rajasthan,Churu,"Subash Chowk, Churu - RSPCB",27-03-2024 02:00:00,28.296139,74.961696,NO2,1,46,20
India,Rajasthan,Churu,"Subash Chowk, Churu - RSPCB",27-03-2024 02:00:00,28.296139,74.961696,CO,10,62,26
India,Rajasthan,Dausa,"Khatikan Mohalla, Dausa - RSPCB",27-03-2024 02:00:00,26.895552,76.334753,PM10,92,295,139
India,Rajasthan,Dausa,"Khatikan Mohalla, Dausa - RSPCB",27-03-2024 02:00:00,26.895552,76.334753,SO2,9,15,11
India,Rajasthan,Dholpur,"Raja Ganj, Dholpur - RSPCB",27-03-2024 02:00:00,26.699557,77.898881,OZONE,31,136,66
India,Rajasthan,Dungarpur,"Bhoiwada, Dungarpur - RSPCB",27-03-2024 02:00:00,23.837789,73.714926,PM2.5,33,73,56
India,Rajasthan,Dungarpur,"Bhoiwada, Dungarpur - RSPCB",27-03-2024 02:00:00,23.837789,73.714926,SO2,7,9,8
India,Rajasthan,Jaipur,"Adarsh Nagar, Jaipur - RSPCB",27-03-2024 02:00:00,26.902909,75.836858,PM2.5,37,149,70
India,Rajasthan,Jaipur,"Adarsh Nagar, Jaipur - RSPCB",27-03-2024 02:00:00,26.902909,75.836858,PM10,54,139,95
India,Rajasthan,Jaipur,"Adarsh Nagar, Jaipur - RSPCB",27-03-2024 02:00:00,26.902909,75.836858,OZONE,7,42,25
India,Rajasthan,Jaipur,"Mansarovar Sector-12, Jaipur - RSPCB",27-03-2024 02:00:00,26.843698,75.766894,NH3,3,29,10
India,Rajasthan,Jaipur,"Police Commissionerate, Jaipur - RSPCB",27-03-2024 02:00:00,26.9164092,75.7994901,CO,24,102,53
India,Rajasthan,Jaipur,"RIICO Sitapura, Jaipur - RSPCB",27-03-2024 02:00:00,26.786682,75.827928,NO2,11,137,54
India,Rajasthan,Jaipur,"Sector-2 Murlipura, Jaipur - RSPCB",27-03-2024 02:00:00,26.960669,75.771817,NH3,5,25,8
India,Rajasthan,Jaipur,"Shastri Nagar, Jaipur - RSPCB",27-03-2024 02:00:00,26.9502929,75.730943,PM2.5,49,256,96
India,Rajasthan,Jaipur,"Shastri Nagar, Jaipur - RSPCB",27-03-2024 02:00:00,26.9502929,75.730943,NH3,2,43,9
India,Rajasthan,Jhalawar,"Rajlaxmi Nagar, Jhalawar - RSPCB",27-03-2024 02:00:00,24.588397,76.172782,NO2,14,58,30
India,Rajasthan,Jodhpur,"Collectorate, Jodhpur - RSPCB",27-03-2024 02:00:00,26.268249,73.0193853,PM2.5,NA,NA,NA
India,Rajasthan,Jodhpur,"Collectorate, Jodhpur - RSPCB",27-03-2024 02:00:00,26.268249,73.0193853,CO,24,94,57
India,Rajasthan,Jodhpur,"Digari Kalan, Jodhpur - RSPCB",27-03-2024 02:00:00,26.295810,73.082283,NH3,4,8,6
India,Rajasthan,Jodhpur,"Jhalamand, Jodhpur - RSPCB",27-03-2024 02:00:00,26.215415,73.070156,NH3,4,10,7
India,Rajasthan,Jodhpur,"Mandor, Jodhpur - RSPCB",27-03-2024 02:00:00,26.358805,73.047444,NO2,24,109,53
India,Rajasthan,Jodhpur,"Samrat Ashok Udhyan, Jodhpur - RSPCB",27-03-2024 02:00:00,26.253384,72.976571,PM10,77,301,146
India,Rajasthan,Karauli,"Satyawati Vihar, Karauli - RSPCB",27-03-2024 02:00:00,26.506177,77.025989,SO2,NA,NA,NA
India,Rajasthan,Kota,"Nayapura, Kota - RSPCB",27-03-2024 02:00:00,25.196024,75.855668,SO2,5,38,12
India,Rajasthan,Kota,"Nayapura, Kota - RSPCB",27-03-2024 02:00:00,25.196024,75.855668,CO,18,100,73
India,Rajasthan,Nagaur,"Karni Colony, Nagaur - RSPCB",27-03-2024 02:00:00,27.213494,73.734444,PM2.5,NA,NA,NA
India,Rajasthan,Nagaur,"Karni Colony, Nagaur - RSPCB",27-03-2024 02:00:00,27.213494,73.734444,PM10,NA,NA,NA
India,Rajasthan,Nagaur,"Karni Colony, Nagaur - RSPCB",27-03-2024 02:00:00,27.213494,73.734444,NH3,NA,NA,NA
India,Rajasthan,Pali,"Indira Colony Vistar, Pali - RSPCB",27-03-2024 02:00:00,25.771061, 73.340227,PM2.5,78,288,140
India,Rajasthan,Pratapgarh,"Pragati Nagar, Pratapgarh - RSPCB",27-03-2024 02:00:00,24.041198,74.780702,SO2,6,17,9
India,Rajasthan,Pratapgarh,"Pragati Nagar, Pratapgarh - RSPCB",27-03-2024 02:00:00,24.041198,74.780702,OZONE,23,109,67
India,Rajasthan,Rajsamand,"Dhoinda, Rajsamand - RSPCB",27-03-2024 02:00:00,25.036360,73.883502,SO2,8,17,10
India,Rajasthan,Sawai Madhopur,"Sahu Nagar, Sawai Madhopur - RSPCB",27-03-2024 02:00:00,26.031443,76.359327,OZONE,12,96,46
India,Rajasthan,Sikar,"Radhakishan Pura, Sikar - RSPCB",27-03-2024 02:00:00,27.608912,75.153302,PM10,59,262,118
India,Rajasthan,Sikar,"Radhakishan Pura, Sikar - RSPCB",27-03-2024 02:00:00,27.608912,75.153302,SO2,2,9,4
India,Rajasthan,Sikar,"Radhakishan Pura, Sikar - RSPCB",27-03-2024 02:00:00,27.608912,75.153302,OZONE,12,94,46
India,Rajasthan,Sirohi,"Vedhaynath Colony, Sirohi - RSPCB",27-03-2024 02:00:00,24.885261,72.857549,PM2.5,33,129,57
India,Rajasthan,Sirohi,"Vedhaynath Colony, Sirohi - RSPCB",27-03-2024 02:00:00,24.885261,72.857549,OZONE,19,89,53
India,Rajasthan,Sri Ganganagar,"Old City, Sri Ganganagar - RSPCB",27-03-2024 02:00:00,29.931624,73.864511,NH3,5,22,12
India,Rajasthan,Tonk,"Shastri Nagar, Tonk - RSPCB",27-03-2024 02:00:00,26.159933,75.780517,SO2,2,9,5
India,Rajasthan,Tonk,"Shastri Nagar, Tonk - RSPCB",27-03-2024 02:00:00,26.159933,75.780517,CO,6,59,31
India,Rajasthan,Tonk,"Shastri Nagar, Tonk - RSPCB",27-03-2024 02:00:00,26.159933,75.780517,OZONE,6,69,36
India,TamilNadu,Chengalpattu,"Crescent University, Chengalpattu - TNPCB",27-03-2024 02:00:00,12.8777316,80.0834807,PM2.5,NA,NA,NA
India,TamilNadu,Chennai,"Kodungaiyur, Chennai - TNPCB",27-03-2024 02:00:00,13.1278,80.2642,NO2,7,18,9
India,TamilNadu,Chennai,"Manali, Chennai - CPCB",27-03-2024 02:00:00,13.164544,80.26285,NO2,6,11,8
India,TamilNadu,Chennai,"Perungudi, Chennai - TNPCB",27-03-2024 02:00:00,12.9533,80.2357,SO2,2,8,4
India,TamilNadu,Chennai,"Royapuram, Chennai - TNPCB",27-03-2024 02:00:00,13.1036,80.2909,PM10,18,30,23
India,TamilNadu,Chennai,"Velachery Res. Area, Chennai - CPCB",27-03-2024 02:00:00,13.0052189,80.2398125,NO2,7,22,10
India,TamilNadu,Chennai,"Velachery Res. Area, Chennai - CPCB",27-03-2024 02:00:00,13.0052189,80.2398125,CO,6,149,54
India,TamilNadu,Chennai,"Velachery Res. Area, Chennai - CPCB",27-03-2024 02:00:00,13.0052189,80.2398125,OZONE,2,11,5
India,TamilNadu,Kanchipuram,"Kilambi, Kanchipuram - TNPCB",27-03-2024 02:00:00,12.864618,79.659968,NH3,NA,NA,NA
India,TamilNadu,Ooty,"Bombay Castel, Ooty - TNPCB",27-03-2024 02:00:00,11.4068288,76.7138973,SO2,NA,NA,NA
India,TamilNadu,Palkalaiperur,"Bharathidasan University, Palkalaiperur - TNPCB",27-03-2024 02:00:00,10.681158,78.741746,PM2.5,13,106,30
India,TamilNadu,Palkalaiperur,"Bharathidasan University, Palkalaiperur - TNPCB",27-03-2024 02:00:00,10.681158,78.741746,PM10,15,121,36
India,TamilNadu,Palkalaiperur,"Bharathidasan University, Palkalaiperur - TNPCB",27-03-2024 02:00:00,10.681158,78.741746,OZONE,1,1,1
India,TamilNadu,Ramanathapuram,"Chalai Bazaar, Ramanathapuram - TNPCB",27-03-2024 02:00:00,9.36399,78.831977,SO2,6,10,8
India,TamilNadu,Vellore,"Vasanthapuram, Vellore - TNPCB",27-03-2024 02:00:00,12.909494,79.131861,PM2.5,18,65,30
India,TamilNadu,Virudhunagar,"Collectorate Office, Virudhunagar - TNPCB",27-03-2024 02:00:00,9.559382,77.948828,NH3,NA,NA,NA
India,TamilNadu,Virudhunagar,"Collectorate Office, Virudhunagar - TNPCB",27-03-2024 02:00:00,9.559382,77.948828,SO2,NA,NA,NA
India,TamilNadu,Virudhunagar,"Collectorate Office, Virudhunagar - TNPCB",27-03-2024 02:00:00,9.559382,77.948828,OZONE,NA,NA,NA
India,Telangana,Hyderabad,"Bollaram Industrial Area, Hyderabad - TSPCB",27-03-2024 02:00:00,17.540891,78.358528,NH3,2,2,2
India,Telangana,Hyderabad,"Central University, Hyderabad - TSPCB",27-03-2024 02:00:00,17.460103,78.334361,PM2.5,20,49,37
India,Telangana,Hyderabad,"ECIL Kapra, Hyderabad - TSPCB",27-03-2024 02:00:00,17.470431,78.566959,PM2.5,39,60,55
India,Telangana,Hyderabad,"ECIL Kapra, Hyderabad - TSPCB",27-03-2024 02:00:00,17.470431,78.566959,NO2,8,11,10
India,Telangana,Hyderabad,"ECIL Kapra, Hyderabad - TSPCB",27-03-2024 02:00:00,17.470431,78.566959,SO2,3,36,17
India,Telangana,Hyderabad,"ECIL Kapra, Hyderabad - TSPCB",27-03-2024 02:00:00,17.470431,78.566959,CO,23,43,27
India,Telangana,Hyderabad,"ICRISAT Patancheru, Hyderabad - TSPCB",27-03-2024 02:00:00,17.518400,78.278777,PM2.5,25,72,46
India,Telangana,Hyderabad,"IITH Kandi, Hyderabad - TSPCB",27-03-2024 02:00:00,17.585705,78.126199,PM10,51,82,64
India,Telangana,Hyderabad,"Kokapet, Hyderabad - TSPCB",27-03-2024 02:00:00,17.393559,78.339194,PM2.5,51,138,76
India,Telangana,Hyderabad,"Kokapet, Hyderabad - TSPCB",27-03-2024 02:00:00,17.393559,78.339194,NO2,8,10,9
India,Telangana,Hyderabad,"Nacharam_TSIIC IALA, Hyderabad - TSPCB",27-03-2024 02:00:00,17.429398,78.569354,PM10,NA,NA,NA
India,Telangana,Hyderabad,"Nacharam_TSIIC IALA, Hyderabad - TSPCB",27-03-2024 02:00:00,17.429398,78.569354,NO2,NA,NA,NA
India,Telangana,Hyderabad,"New Malakpet, Hyderabad - TSPCB",27-03-2024 02:00:00,17.37206,78.50864,OZONE,5,80,24
India,Telangana,Hyderabad,"Sanathnagar, Hyderabad - TSPCB",27-03-2024 02:00:00,17.4559458,78.4332152,SO2,4,21,8
India,Telangana,Hyderabad,"Zoo Park, Hyderabad - TSPCB",27-03-2024 02:00:00,17.349694,78.451437,PM2.5,35,96,64
India,Telangana,Hyderabad,"Zoo Park, Hyderabad - TSPCB",27-03-2024 02:00:00,17.349694,78.451437,SO2,1,6,3
India,Telangana,Hyderabad,"Zoo Park, Hyderabad - TSPCB",27-03-2024 02:00:00,17.349694,78.451437,CO,28,74,59
India,Tripura,Agartala,"Bardowali, Agartala - Tripura SPCB",27-03-2024 02:00:00,23.8175497,91.2726974,NO2,4,12,8
India,Tripura,Agartala,"Bardowali, Agartala - Tripura SPCB",27-03-2024 02:00:00,23.8175497,91.2726974,CO,12,40,31
India,Uttar_Pradesh,Agra,"Manoharpur, Agra - UPPCB",27-03-2024 02:00:00,27.23711,78.01936,SO2,18,26,21
India,Uttar_Pradesh,Agra,"Rohta, Agra - UPPCB",27-03-2024 02:00:00,27.106972,78.000111,PM10,14,70,33
India,Uttar_Pradesh,Agra,"Sanjay Palace, Agra - UPPCB",27-03-2024 02:00:00,27.19865833,78.00598056,PM2.5,6,40,22
India,Uttar_Pradesh,Agra,"Sanjay Palace, Agra - UPPCB",27-03-2024 02:00:00,27.19865833,78.00598056,PM10,14,75,42
India,Uttar_Pradesh,Agra,"Sanjay Palace, Agra - UPPCB",27-03-2024 02:00:00,27.19865833,78.00598056,CO,12,90,50
India,Uttar_Pradesh,Agra,"Sector-3B Avas Vikas Colony, Agra - UPPCB",27-03-2024 02:00:00,27.19412,77.96237,PM2.5,8,50,27
India,Uttar_Pradesh,Agra,"Sector-3B Avas Vikas Colony, Agra - UPPCB",27-03-2024 02:00:00,27.19412,77.96237,PM10,32,112,59
India,Uttar_Pradesh,Agra,"Sector-3B Avas Vikas Colony, Agra - UPPCB",27-03-2024 02:00:00,27.19412,77.96237,SO2,22,26,23
India,Uttar_Pradesh,Agra,"Shahjahan Garden, Agra - UPPCB",27-03-2024 02:00:00,27.169338,78.03582,PM10,29,88,56
India,Uttar_Pradesh,Agra,"Shahjahan Garden, Agra - UPPCB",27-03-2024 02:00:00,27.169338,78.03582,OZONE,7,19,11
India,Uttar_Pradesh,Agra,"Shastripuram, Agra - UPPCB",27-03-2024 02:00:00,27.19862,77.92066,OZONE,1,11,3
India,Uttar_Pradesh,Baghpat,"Sardar Patel Inter College, Baghpat - UPPCB",27-03-2024 02:00:00,28.964949,77.278761,SO2,25,98,50
India,Uttar_Pradesh,Baghpat,"Sardar Patel Inter College, Baghpat - UPPCB",27-03-2024 02:00:00,28.964949,77.278761,OZONE,9,75,26
India,Uttar_Pradesh,Bareilly,"Civil Lines, Bareilly - UPPCB",27-03-2024 02:00:00,28.359581,79.414455,SO2,NA,NA,NA
India,Uttar_Pradesh,Bareilly,"Civil Lines, Bareilly - UPPCB",27-03-2024 02:00:00,28.359581,79.414455,OZONE,NA,NA,NA
India,Uttar_Pradesh,Bareilly,"Rajendra Nagar, Bareilly - UPPCB",27-03-2024 02:00:00,28.38910936,79.42963708,PM10,36,89,54
India,Uttar_Pradesh,Bareilly,"Rajendra Nagar, Bareilly - UPPCB",27-03-2024 02:00:00,28.38910936,79.42963708,NO2,12,51,23
India,Uttar_Pradesh,Bulandshahr,"Yamunapuram, Bulandshahr - UPPCB",27-03-2024 02:00:00,28.406963,77.849831,NO2,19,92,39
India,Uttar_Pradesh,Bulandshahr,"Yamunapuram, Bulandshahr - UPPCB",27-03-2024 02:00:00,28.406963,77.849831,NH3,11,17,13
India,Uttar_Pradesh,Firozabad,"Nagla Bhau, Firozabad - UPPCB",27-03-2024 02:00:00,27.168897,78.376960,NH3,2,2,2
India,Uttar_Pradesh,Firozabad,"Vibhab Nagar, Firozabad - UPPCB",27-03-2024 02:00:00,27.1594,78.3953,OZONE,20,84,46
India,Uttar_Pradesh,Ghaziabad,"Indirapuram, Ghaziabad - UPPCB",27-03-2024 02:00:00,28.646233,77.358075,PM10,68,194,122
India,Uttar_Pradesh,Ghaziabad,"Indirapuram, Ghaziabad - UPPCB",27-03-2024 02:00:00,28.646233,77.358075,NH3,8,11,10
India,Uttar_Pradesh,Ghaziabad,"Indirapuram, Ghaziabad - UPPCB",27-03-2024 02:00:00,28.646233,77.358075,SO2,3,10,7
India,Uttar_Pradesh,Ghaziabad,"Indirapuram, Ghaziabad - UPPCB",27-03-2024 02:00:00,28.646233,77.358075,OZONE,1,28,6
India,Uttar_Pradesh,Ghaziabad,"Loni, Ghaziabad - UPPCB",27-03-2024 02:00:00,28.757294,77.278792,NH3,1,5,2
India,Uttar_Pradesh,Ghaziabad,"Loni, Ghaziabad - UPPCB",27-03-2024 02:00:00,28.757294,77.278792,SO2,11,43,18
India,Uttar_Pradesh,Ghaziabad,"Loni, Ghaziabad - UPPCB",27-03-2024 02:00:00,28.757294,77.278792,OZONE,3,78,30
India,Uttar_Pradesh,Ghaziabad,"Sanjay Nagar, Ghaziabad - UPPCB",27-03-2024 02:00:00,28.685382,77.453839,OZONE,3,81,18
India,Uttar_Pradesh,Ghaziabad,"Vasundhara, Ghaziabad - UPPCB",27-03-2024 02:00:00,28.6603346,77.3572563,SO2,7,51,28
India,Uttar_Pradesh,Ghaziabad,"Vasundhara, Ghaziabad - UPPCB",27-03-2024 02:00:00,28.6603346,77.3572563,CO,2,92,62
India,Uttar_Pradesh,Greater Noida,"Knowledge Park - III, Greater Noida - UPPCB",27-03-2024 02:00:00,28.47272,77.482000,NH3,9,12,10
India,Uttar_Pradesh,Greater Noida,"Knowledge Park - III, Greater Noida - UPPCB",27-03-2024 02:00:00,28.47272,77.482000,CO,40,113,94
India,Uttar_Pradesh,Greater Noida,"Knowledge Park - III, Greater Noida - UPPCB",27-03-2024 02:00:00,28.47272,77.482000,OZONE,5,106,22
India,Uttar_Pradesh,Greater Noida,"Knowledge Park - V, Greater Noida - UPPCB",27-03-2024 02:00:00,28.557054,77.453663,NO2,40,60,48
India,Uttar_Pradesh,Hapur,"Anand Vihar, Hapur - UPPCB",27-03-2024 02:00:00,28.725645,77.749675,PM10,46,107,76
India,Uttar_Pradesh,Jhansi,"Shivaji Nagar, Jhansi - UPPCB",27-03-2024 02:00:00,25.4547,78.6039,NH3,6,6,6
India,Uttar_Pradesh,Jhansi,"Shivaji Nagar, Jhansi - UPPCB",27-03-2024 02:00:00,25.4547,78.6039,OZONE,1,17,6
India,Uttar_Pradesh,Kanpur,"FTI Kidwai Nagar, Kanpur - UPPCB",27-03-2024 02:00:00,26.428282,80.327067,NO2,11,21,16
India,Uttar_Pradesh,Kanpur,"NSI Kalyanpur, Kanpur - UPPCB",27-03-2024 02:00:00,26.509954,80.249612,PM10,51,111,79
India,Uttar_Pradesh,Khurja,"Kalindi Kunj, Khurja - UPPCB",27-03-2024 02:00:00,28.2348927,77.8683002,CO,32,50,39
India,Uttar_Pradesh,Khurja,"Kalindi Kunj, Khurja - UPPCB",27-03-2024 02:00:00,28.2348927,77.8683002,OZONE,25,32,28
India,Uttar_Pradesh,Lucknow,"B R Ambedkar University, Lucknow - UPPCB",27-03-2024 02:00:00,26.766433,80.927299,CO,22,38,32
India,Uttar_Pradesh,Lucknow,"Gomti Nagar, Lucknow - UPPCB",27-03-2024 02:00:00,26.868120,81.005119,PM10,52,130,80
India,Uttar_Pradesh,Lucknow,"Gomti Nagar, Lucknow - UPPCB",27-03-2024 02:00:00,26.868120,81.005119,NO2,16,27,21
India,Uttar_Pradesh,Lucknow,"Kendriya Vidyalaya, Lucknow - CPCB",27-03-2024 02:00:00,26.906111,80.948222,SO2,3,7,5
India,Uttar_Pradesh,Lucknow,"Kendriya Vidyalaya, Lucknow - CPCB",27-03-2024 02:00:00,26.906111,80.948222,CO,26,81,48
India,Uttar_Pradesh,Lucknow,"Kendriya Vidyalaya, Lucknow - CPCB",27-03-2024 02:00:00,26.906111,80.948222,OZONE,5,49,19
India,Uttar_Pradesh,Lucknow,"Lalbagh, Lucknow - CPCB",27-03-2024 02:00:00,26.8458805,80.9365541,PM10,91,141,109
India,Uttar_Pradesh,Meerut,"Ganga Nagar, Meerut - UPPCB",27-03-2024 02:00:00,28.999264,77.7590354,PM10,44,122,89
India,Uttar_Pradesh,Meerut,"Pallavpuram Phase 2, Meerut - UPPCB",27-03-2024 02:00:00,29.063510,77.709723,CO,33,66,55
India,Uttar_Pradesh,Moradabad,"Buddhi Vihar, Moradabad - UPPCB",27-03-2024 02:00:00,28.83526,78.74460,PM2.5,25,105,60
India,Uttar_Pradesh,Moradabad,"Buddhi Vihar, Moradabad - UPPCB",27-03-2024 02:00:00,28.83526,78.74460,CO,20,34,29
India,Uttar_Pradesh,Moradabad,"Eco Herbal Park, Moradabad - UPPCB",27-03-2024 02:00:00,28.840739,78.697531,NO2,8,31,18
India,Uttar_Pradesh,Moradabad,"Jigar Colony, Moradabad - UPPCB",27-03-2024 02:00:00,28.856664,78.772638,PM2.5,31,69,48
India,Uttar_Pradesh,Moradabad,"Jigar Colony, Moradabad - UPPCB",27-03-2024 02:00:00,28.856664,78.772638,NO2,22,22,22
India,Uttar_Pradesh,Moradabad,"Jigar Colony, Moradabad - UPPCB",27-03-2024 02:00:00,28.856664,78.772638,CO,23,36,29
India,Uttar_Pradesh,Moradabad,"Kashiram Nagar, Moradabad - UPPCB",27-03-2024 02:00:00,28.849399,78.742362,PM2.5,33,109,67
India,Uttar_Pradesh,Moradabad,"Kashiram Nagar, Moradabad - UPPCB",27-03-2024 02:00:00,28.849399,78.742362,SO2,29,42,35
India,Uttar_Pradesh,Moradabad,"Transport Nagar, Moradabad - UPPCB",27-03-2024 02:00:00,28.802625,78.753728,OZONE,15,32,19
India,Uttar_Pradesh,Muzaffarnagar,"New Mandi, Muzaffarnagar - UPPCB",27-03-2024 02:00:00,29.4723508,77.7194031,SO2,4,22,13
India,Uttar_Pradesh,Muzaffarnagar,"New Mandi, Muzaffarnagar - UPPCB",27-03-2024 02:00:00,29.4723508,77.7194031,CO,31,72,54
India,Uttar_Pradesh,Muzaffarnagar,"New Mandi, Muzaffarnagar - UPPCB",27-03-2024 02:00:00,29.4723508,77.7194031,OZONE,32,87,58
India,Uttar_Pradesh,Noida,"Sector-1, Noida - UPPCB",27-03-2024 02:00:00,28.5898,77.3101,PM2.5,26,309,128
India,Uttar_Pradesh,Noida,"Sector-1, Noida - UPPCB",27-03-2024 02:00:00,28.5898,77.3101,NO2,26,103,56
India,Uttar_Pradesh,Noida,"Sector-1, Noida - UPPCB",27-03-2024 02:00:00,28.5898,77.3101,SO2,8,29,15
India,Uttar_Pradesh,Prayagraj,"Jhunsi, Prayagraj - UPPCB",27-03-2024 02:00:00,25.425602,81.917152,SO2,30,32,31
India,Uttar_Pradesh,Prayagraj,"Jhunsi, Prayagraj - UPPCB",27-03-2024 02:00:00,25.425602,81.917152,CO,6,56,33
India,Uttar_Pradesh,Prayagraj,"Motilal Nehru NIT, Prayagraj - UPPCB",27-03-2024 02:00:00,25.494,81.863,NH3,5,7,7
India,Uttar_Pradesh,Varanasi,"Bhelupur, Varanasi - UPPCB",27-03-2024 02:00:00,25.301778,82.996789,CO,13,121,73
India,Uttar_Pradesh,Varanasi,"IESD Banaras Hindu University, Varanasi - UPPCB",27-03-2024 02:00:00,25.262326,82.995408,PM10,15,44,29
India,Uttar_Pradesh,Varanasi,"IESD Banaras Hindu University, Varanasi - UPPCB",27-03-2024 02:00:00,25.262326,82.995408,NH3,1,3,2
India,Uttar_Pradesh,Varanasi,"Maldahiya, Varanasi - UPPCB",27-03-2024 02:00:00,25.32393,82.99687,SO2,25,26,25
India,Uttar_Pradesh,Vrindavan,"Omex Eternity, Vrindavan - UPPCB",27-03-2024 02:00:00,27.5714090,77.6557570,NH3,2,5,2
India,Uttar_Pradesh,Vrindavan,"Omex Eternity, Vrindavan - UPPCB",27-03-2024 02:00:00,27.5714090,77.6557570,SO2,39,45,40
India,Uttarakhand,Dehradun,"Doon University, Dehradun - UKPCB",27-03-2024 02:00:00,30.269444,78.044167,PM2.5,34,91,56
India,Uttarakhand,Dehradun,"Doon University, Dehradun - UKPCB",27-03-2024 02:00:00,30.269444,78.044167,SO2,1,3,2
India,Uttarakhand,Dehradun,"Doon University, Dehradun - UKPCB",27-03-2024 02:00:00,30.269444,78.044167,CO,38,57,46
India,Uttarakhand,Kashipur,"Govt. Girls Inter College, Kashipur - UKPCB",27-03-2024 02:00:00,29.2124114,78.9611753,NH3,NA,NA,NA
India,Uttarakhand,Kashipur,"Govt. Girls Inter College, Kashipur - UKPCB",27-03-2024 02:00:00,29.2124114,78.9611753,CO,22,64,48
India,Uttarakhand,Rishikesh,"Shivaji Nagar, Rishikesh - UKPCB",27-03-2024 02:00:00,30.075911,78.2859547,NH3,2,4,3
India,Uttarakhand,Rishikesh,"Shivaji Nagar, Rishikesh - UKPCB",27-03-2024 02:00:00,30.075911,78.2859547,OZONE,14,79,41
India,West_Bengal,Asansol,"Asansol Court Area, Asansol - WBPCB",27-03-2024 02:00:00,23.685297,86.945968,PM10,55,148,107
India,West_Bengal,Barrackpore,"SVSPA Campus, Barrackpore - WBPCB",27-03-2024 02:00:00,22.7605581,88.3617589,PM2.5,23,87,51
India,West_Bengal,Durgapur,"Sidhu Kanhu Indoor Stadium, Durgapur - WBPCB",27-03-2024 02:00:00,23.5404352,87.2892225,PM2.5,36,146,92
India,West_Bengal,Haldia,"Priyambada Housing Estate, Haldia - WBPCB",27-03-2024 02:00:00,22.06047,88.109737,PM2.5,9,27,16
India,West_Bengal,Haldia,"Priyambada Housing Estate, Haldia - WBPCB",27-03-2024 02:00:00,22.06047,88.109737,NO2,11,81,28
India,West_Bengal,Haldia,"Priyambada Housing Estate, Haldia - WBPCB",27-03-2024 02:00:00,22.06047,88.109737,OZONE,22,29,25
India,West_Bengal,Howrah,"Ghusuri, Howrah - WBPCB",27-03-2024 02:00:00,22.611968,88.347422,PM10,22,82,56
India,West_Bengal,Howrah,"Ghusuri, Howrah - WBPCB",27-03-2024 02:00:00,22.611968,88.347422,NH3,3,3,3
India,West_Bengal,Howrah,"Padmapukur, Howrah - WBPCB",27-03-2024 02:00:00,22.5687319,88.2797276,NO2,6,8,7
India,West_Bengal,Howrah,"Padmapukur, Howrah - WBPCB",27-03-2024 02:00:00,22.5687319,88.2797276,NH3,1,2,1
India,West_Bengal,Kolkata,"Ballygunge, Kolkata - WBPCB",27-03-2024 02:00:00,22.5367507,88.3638022,NO2,18,68,38
India,West_Bengal,Kolkata,"Ballygunge, Kolkata - WBPCB",27-03-2024 02:00:00,22.5367507,88.3638022,OZONE,13,39,17
India,West_Bengal,Kolkata,"Fort William, Kolkata - WBPCB",27-03-2024 02:00:00,22.556640,88.342674,CO,15,22,19
India,West_Bengal,Kolkata,"Rabindra Bharati University, Kolkata - WBPCB",27-03-2024 02:00:00,22.627847,88.380669,NO2,22,23,23
India,West_Bengal,Kolkata,"Rabindra Bharati University, Kolkata - WBPCB",27-03-2024 02:00:00,22.627847,88.380669,SO2,6,42,12
India,West_Bengal,Kolkata,"Rabindra Sarobar, Kolkata - WBPCB",27-03-2024 02:00:00,22.51106,88.35142,PM10,53,84,69
India,West_Bengal,Kolkata,"Rabindra Sarobar, Kolkata - WBPCB",27-03-2024 02:00:00,22.51106,88.35142,SO2,7,24,14
India,West_Bengal,Siliguri,"Ward-32 Bapupara, Siliguri - WBPCB",27-03-2024 02:00:00,26.6879226,88.4152495,SO2,11,13,11
India,Andhra_Pradesh,Amaravati,"Secretariat, Amaravati - APPCB",27-03-2024 02:00:00,16.5150833,80.5181667,SO2,16,21,18
India,Andhra_Pradesh,Anantapur,"Gulzarpet, Anantapur - APPCB",27-03-2024 02:00:00,14.675886,77.593027,NH3,NA,NA,NA
India,Andhra_Pradesh,Rajamahendravaram,"Anand Kala Kshetram, Rajamahendravaram - APPCB",27-03-2024 02:00:00,16.9872867,81.7363176,PM2.5,19,70,35
India,Andhra_Pradesh,Tirupati,"Tirumala, Tirupati - APPCB",27-03-2024 02:00:00,13.67,79.35,PM2.5,28,69,48
India,Andhra_Pradesh,Tirupati,"Tirumala, Tirupati - APPCB",27-03-2024 02:00:00,13.67,79.35,PM10,37,102,62
India,Andhra_Pradesh,Tirupati,"Tirumala, Tirupati - APPCB",27-03-2024 02:00:00,13.67,79.35,SO2,3,15,8
India,Andhra_Pradesh,Tirupati,"Vaikuntapuram, Tirupati - APPCB",27-03-2024 02:00:00,13.615387,79.409230,NO2,16,28,21
India,Andhra_Pradesh,Tirupati,"Vaikuntapuram, Tirupati - APPCB",27-03-2024 02:00:00,13.615387,79.409230,NH3,2,4,3
India,Andhra_Pradesh,Vijayawada,"HB Colony, Vijayawada - APPCB",27-03-2024 02:00:00,16.536107,80.594233,NH3,4,4,4
India,Andhra_Pradesh,Vijayawada,"Kanuru, Vijayawada - APPCB",27-03-2024 02:00:00,16.486692,80.699436,PM10,57,77,66
India,Andhra_Pradesh,Vijayawada,"Kanuru, Vijayawada - APPCB",27-03-2024 02:00:00,16.486692,80.699436,OZONE,28,28,28
India,Andhra_Pradesh,Vijayawada,"Rajiv Gandhi Park, Vijayawada - APPCB",27-03-2024 02:00:00,16.509717,80.612222,CO,36,51,42
India,Andhra_Pradesh,Vijayawada,"Rajiv Gandhi Park, Vijayawada - APPCB",27-03-2024 02:00:00,16.509717,80.612222,OZONE,3,53,14
India,Andhra_Pradesh,Vijayawada,"Rajiv Nagar, Vijayawada - APPCB",27-03-2024 02:00:00,16.554731,80.649110,PM2.5,44,47,45
India,Andhra_Pradesh,Vijayawada,"Rajiv Nagar, Vijayawada - APPCB",27-03-2024 02:00:00,16.554731,80.649110,NO2,NA,NA,NA
India,Andhra_Pradesh,Visakhapatnam,"GVM Corporation, Visakhapatnam - APPCB",27-03-2024 02:00:00,17.72,83.3,PM2.5,38,163,71
India,Andhra_Pradesh,Visakhapatnam,"GVM Corporation, Visakhapatnam - APPCB",27-03-2024 02:00:00,17.72,83.3,CO,8,85,38
India,Andhra_Pradesh,Visakhapatnam,"GVM Corporation, Visakhapatnam - APPCB",27-03-2024 02:00:00,17.72,83.3,OZONE,3,57,23
India,Assam,Byrnihat,"Central Academy for SFS, Byrnihat - PCBA",27-03-2024 02:00:00,26.071318,91.87488,PM2.5,32,305,97
India,Assam,Guwahati,"IITG, Guwahati - PCBA",27-03-2024 02:00:00,26.2028636,91.70046436,PM10,15,52,33
India,Assam,Guwahati,"IITG, Guwahati - PCBA",27-03-2024 02:00:00,26.2028636,91.70046436,SO2,12,12,12
India,Assam,Guwahati,"LGBI Airport, Guwahati - PCBA",27-03-2024 02:00:00,26.10887,91.589544,PM10,NA,NA,NA
India,Assam,Guwahati,"LGBI Airport, Guwahati - PCBA",27-03-2024 02:00:00,26.10887,91.589544,SO2,NA,NA,NA
India,Assam,Guwahati,"LGBI Airport, Guwahati - PCBA",27-03-2024 02:00:00,26.10887,91.589544,CO,10,54,35
India,Assam,Guwahati,"Pan Bazaar, Guwahati - PCBA",27-03-2024 02:00:00,26.187500,91.744194,PM2.5,NA,NA,NA
India,Assam,Guwahati,"Pan Bazaar, Guwahati - PCBA",27-03-2024 02:00:00,26.187500,91.744194,NO2,NA,NA,NA
India,Assam,Guwahati,"Railway Colony, Guwahati - PCBA",27-03-2024 02:00:00,26.181742,91.78063,PM2.5,NA,NA,NA
India,Assam,Guwahati,"Railway Colony, Guwahati - PCBA",27-03-2024 02:00:00,26.181742,91.78063,PM10,NA,NA,NA
India,Assam,Nagaon,"Christianpatty, Nagaon - PCBA",27-03-2024 02:00:00,26.349082,92.68449,PM2.5,5,70,45
India,Assam,Nagaon,"Christianpatty, Nagaon - PCBA",27-03-2024 02:00:00,26.349082,92.68449,SO2,3,12,9
India,Assam,Silchar,"Tarapur, Silchar - PCBA",27-03-2024 02:00:00,24.82827,92.79525,NO2,17,18,18
India,Bihar,Arrah,"New DM Office, Arrah - BSPCB",27-03-2024 02:00:00,25.5626095,84.663264,PM2.5,25,367,99
India,Bihar,Arrah,"New DM Office, Arrah - BSPCB",27-03-2024 02:00:00,25.5626095,84.663264,SO2,14,22,19
India,Bihar,Arrah,"New DM Office, Arrah - BSPCB",27-03-2024 02:00:00,25.5626095,84.663264,OZONE,13,47,14
India,Bihar,Aurangabad,"Gurdeo Nagar, Aurangabad - BSPCB",27-03-2024 02:00:00,24.75746,84.366208,CO,49,82,63
India,Bihar,Bettiah,"Kamalnath Nagar, Bettiah - BSPCB",27-03-2024 02:00:00,26.80365,84.51954,PM10,NA,NA,NA
India,Bihar,Bettiah,"Kamalnath Nagar, Bettiah - BSPCB",27-03-2024 02:00:00,26.80365,84.51954,NO2,8,8,8
India,Bihar,Bhagalpur,"Mayaganj, Bhagalpur - BSPCB",27-03-2024 02:00:00,25.265194,87.012947,NO2,3,11,8
India,Bihar,Buxar,"Charitra Van, Buxar - BSPCB (Formerly known as Central Jail)",27-03-2024 02:00:00,25.567520,83.966379,PM10,53,161,105
India,Bihar,Buxar,"Charitra Van, Buxar - BSPCB (Formerly known as Central Jail)",27-03-2024 02:00:00,25.567520,83.966379,NH3,1,2,1
India,Bihar,Gaya,"Collectorate, Gaya - BSPCB",27-03-2024 02:00:00,24.7955,84.9994,SO2,2,13,10
India,Bihar,Gaya,"Kareemganj, Gaya - BSPCB",27-03-2024 02:00:00,24.792403,84.992416,NO2,30,31,30
India,Bihar,Gaya,"Kareemganj, Gaya - BSPCB",27-03-2024 02:00:00,24.792403,84.992416,SO2,7,10,8
India,Bihar,Gaya,"Kareemganj, Gaya - BSPCB",27-03-2024 02:00:00,24.792403,84.992416,OZONE,5,43,20
India,Bihar,Gaya,"SFTI Kusdihra, Gaya - BSPCB",27-03-2024 02:00:00,24.762518,84.982348,NH3,3,7,4
India,Bihar,Gaya,"SFTI Kusdihra, Gaya - BSPCB",27-03-2024 02:00:00,24.762518,84.982348,CO,10,45,25
India,Bihar,Kishanganj,"SDM Office_Khagra, Kishanganj - BSPCB",27-03-2024 02:00:00,26.0881305,87.93840336,NH3,12,15,13
India,Bihar,Kishanganj,"SDM Office_Khagra, Kishanganj - BSPCB",27-03-2024 02:00:00,26.0881305,87.93840336,OZONE,27,45,41
India,Bihar,Manguraha,"Forest Rest House, Manguraha - BSPCB",27-03-2024 02:00:00,27.308328,84.531742,CO,64,70,68
India,Bihar,Motihari,"Gandak Colony, Motihari - BSPCB",27-03-2024 02:00:00,26.63086,84.90051,CO,7,54,30
India,Bihar,Motihari,"Gandak Colony, Motihari - BSPCB",27-03-2024 02:00:00,26.63086,84.90051,OZONE,21,55,27
India,Bihar,Munger,"Town Hall, Munger - BSPCB",27-03-2024 02:00:00,25.376776,86.471523,CO,1,8,6
India,Bihar,Munger,"Town Hall, Munger - BSPCB",27-03-2024 02:00:00,25.376776,86.471523,OZONE,27,32,30
India,Bihar,Muzaffarpur,"Buddha Colony, Muzaffarpur - BSPCB",27-03-2024 02:00:00,26.11442,85.39813,PM2.5,58,201,109
India,Bihar,Muzaffarpur,"MIT-Daudpur Kothi, Muzaffarpur - BSPCB",27-03-2024 02:00:00,26.1403345,85.3650192,NO2,6,10,7
India,Bihar,Muzaffarpur,"MIT-Daudpur Kothi, Muzaffarpur - BSPCB",27-03-2024 02:00:00,26.1403345,85.3650192,CO,25,123,98
India,Bihar,Muzaffarpur,"Muzaffarpur Collectorate, Muzaffarpur - BSPCB",27-03-2024 02:00:00,26.1209,85.3647,NO2,7,20,11
India,Bihar,Patna,"Govt. High School Shikarpur, Patna - BSPCB",27-03-2024 02:00:00,25.592539,85.227158,PM2.5,50,234,128
India,Bihar,Patna,"Govt. High School Shikarpur, Patna - BSPCB",27-03-2024 02:00:00,25.592539,85.227158,OZONE,1,59,8
India,Bihar,Patna,"IGSC Planetarium Complex, Patna - BSPCB",27-03-2024 02:00:00,25.610369,85.132568,SO2,5,5,5
India,Bihar,Patna,"Rajbansi Nagar, Patna - BSPCB",27-03-2024 02:00:00,25.599486,85.113666,PM10,105,180,133
India,Bihar,Patna,"Rajbansi Nagar, Patna - BSPCB",27-03-2024 02:00:00,25.599486,85.113666,SO2,1,11,4
India,Bihar,Patna,"Rajbansi Nagar, Patna - BSPCB",27-03-2024 02:00:00,25.599486,85.113666,OZONE,5,75,36
India,Bihar,Patna,"Samanpura, Patna - BSPCB",27-03-2024 02:00:00,25.596727,85.085624,NH3,7,15,9
India,Bihar,Purnia,"Mariam Nagar, Purnia - BSPCB",27-03-2024 02:00:00,25.366336,87.117468,PM2.5,2,90,34
India,Bihar,Purnia,"Mariam Nagar, Purnia - BSPCB",27-03-2024 02:00:00,25.366336,87.117468,CO,20,48,33
India,Bihar,Samastipur,"DM Office_Kasipur, Samastipur - BSPCB",27-03-2024 02:00:00,25.859655,85.77944,SO2,2,14,9
India,Bihar,Siwan,"Chitragupta Nagar, Siwan - BSPCB",27-03-2024 02:00:00,26.2271665,84.3570427,OZONE,3,83,26
India,Chandigarh,Chandigarh,"Sector 22, Chandigarh - CPCC",27-03-2024 02:00:00,30.735567,76.775714,NH3,6,12,8
India,Chandigarh,Chandigarh,"Sector 22, Chandigarh - CPCC",27-03-2024 02:00:00,30.735567,76.775714,SO2,8,49,17
India,Chandigarh,Chandigarh,"Sector-53, Chandigarh - CPCC",27-03-2024 02:00:00,30.719859,76.738637,CO,36,68,55
India,Chhattisgarh,Bhilai,"32Bungalows, Bhilai - CECB",27-03-2024 02:00:00,21.194815,81.314770,PM10,29,104,58
India,Chhattisgarh,Bhilai,"32Bungalows, Bhilai - CECB",27-03-2024 02:00:00,21.194815,81.314770,NH3,6,6,6
India,Chhattisgarh,Bhilai,"32Bungalows, Bhilai - CECB",27-03-2024 02:00:00,21.194815,81.314770,CO,20,46,35
India,Chhattisgarh,Bhilai,"32Bungalows, Bhilai - CECB",27-03-2024 02:00:00,21.194815,81.314770,OZONE,4,45,12
India,Chhattisgarh,Chhal,"Nawapara SECL Colony, Chhal - CECB",27-03-2024 02:00:00,22.118125,83.140608,PM2.5,NA,NA,NA
India,Chhattisgarh,Chhal,"Nawapara SECL Colony, Chhal - CECB",27-03-2024 02:00:00,22.118125,83.140608,PM10,23,116,68
India,Chhattisgarh,Korba,"Rampur, Korba - CECB",27-03-2024 02:00:00,22.368195,82.746431,NH3,1,4,3
India,Chhattisgarh,Korba,"Urja Nagar, Korba - CECB",27-03-2024 02:00:00,22.348441,82.549611,PM10,17,423,83
India,Chhattisgarh,Korba,"Urja Nagar, Korba - CECB",27-03-2024 02:00:00,22.348441,82.549611,NH3,4,9,7
India,Chhattisgarh,Kunjemura,"OP Jindal School, Kunjemura - CECB",27-03-2024 02:00:00,22.126650,83.483212,NO2,18,99,42
India,Chhattisgarh,Milupara,"Govt. Higher Secondary School, Milupara - CECB",27-03-2024 02:00:00,22.1910172,83.5197009,PM2.5,NA,NA,NA
India,Chhattisgarh,Milupara,"Govt. Higher Secondary School, Milupara - CECB",27-03-2024 02:00:00,22.1910172,83.5197009,PM10,NA,NA,NA
India,Chhattisgarh,Raipur,"AIIMS, Raipur - CECB",27-03-2024 02:00:00,21.258815,81.578979,PM2.5,NA,NA,NA
India,Chhattisgarh,Raipur,"AIIMS, Raipur - CECB",27-03-2024 02:00:00,21.258815,81.578979,OZONE,1,44,12
India,Chhattisgarh,Raipur,"Bhatagaon New ISBT, Raipur - CECB",27-03-2024 02:00:00,21.219665,81.630094,SO2,1,4,2
India,Chhattisgarh,Raipur,"Krishak Nagar, Raipur - CECB",27-03-2024 02:00:00,21.237755,81.705301,PM10,NA,NA,NA
India,Chhattisgarh,Raipur,"Krishak Nagar, Raipur - CECB",27-03-2024 02:00:00,21.237755,81.705301,OZONE,4,15,6
India,Chhattisgarh,Raipur,"Siltara Phase-II, Raipur - CECB",27-03-2024 02:00:00,21.371751,81.664929,PM10,35,155,91
India,Chhattisgarh,Raipur,"Siltara Phase-II, Raipur - CECB",27-03-2024 02:00:00,21.371751,81.664929,OZONE,3,50,13
India,Chhattisgarh,Tumidih,"OP Jindal Industrial Park, Tumidih - CECB",27-03-2024 02:00:00,22.06631475,83.33820077,CO,20,50,39
India,Chhattisgarh,Tumidih,"OP Jindal Industrial Park, Tumidih - CECB",27-03-2024 02:00:00,22.06631475,83.33820077,OZONE,6,92,17
India,Delhi,Delhi,"Alipur, Delhi - DPCC",27-03-2024 02:00:00,28.815329,77.153010,PM2.5,42,316,124
India,Delhi,Delhi,"Alipur, Delhi - DPCC",27-03-2024 02:00:00,28.815329,77.153010,PM10,61,179,118
India,Delhi,Delhi,"Aya Nagar, Delhi - IMD",27-03-2024 02:00:00,28.4706914,77.1099364,OZONE,3,28,10
India,Delhi,Delhi,"Bawana, Delhi - DPCC",27-03-2024 02:00:00,28.776200,77.051074,NH3,5,9,7
India,Delhi,Delhi,"Burari Crossing, Delhi - IMD",27-03-2024 02:00:00,28.7256504,77.2011573,NO2,7,12,9
India,Delhi,Delhi,"CRRI Mathura Road, Delhi - IMD",27-03-2024 02:00:00,28.5512005,77.2735737,CO,30,103,70
India,Delhi,Delhi,"DTU, Delhi - CPCB",27-03-2024 02:00:00,28.7500499,77.1112615,PM10,NA,NA,NA
India,Delhi,Delhi,"DTU, Delhi - CPCB",27-03-2024 02:00:00,28.7500499,77.1112615,NH3,8,12,10
India,Delhi,Delhi,"Dwarka-Sector 8, Delhi - DPCC ",27-03-2024 02:00:00,28.5710274,77.0719006,NO2,10,91,38
India,Delhi,Delhi,"Dwarka-Sector 8, Delhi - DPCC ",27-03-2024 02:00:00,28.5710274,77.0719006,NH3,5,9,7
India,Delhi,Delhi,"Dwarka-Sector 8, Delhi - DPCC ",27-03-2024 02:00:00,28.5710274,77.0719006,SO2,6,14,10
India,Delhi,Delhi,"Dwarka-Sector 8, Delhi - DPCC ",27-03-2024 02:00:00,28.5710274,77.0719006,CO,42,131,111
India,Delhi,Delhi,"IGI Airport (T3), Delhi - IMD",27-03-2024 02:00:00,28.5627763,77.1180053,NO2,15,67,37
India,Delhi,Delhi,"IGI Airport (T3), Delhi - IMD",27-03-2024 02:00:00,28.5627763,77.1180053,OZONE,1,37,5
India,Delhi,Delhi,"Jahangirpuri, Delhi - DPCC",27-03-2024 02:00:00,28.732820,77.170633,NH3,2,13,10
India,Delhi,Delhi,"Jahangirpuri, Delhi - DPCC",27-03-2024 02:00:00,28.732820,77.170633,SO2,7,39,21
India,Delhi,Delhi,"Jawaharlal Nehru Stadium, Delhi - DPCC",27-03-2024 02:00:00,28.580280,77.233829,CO,20,115,87
India,Delhi,Delhi,"Lodhi Road, Delhi - IITM",27-03-2024 02:00:00,28.588333,77.221667,NO2,65,116,93
India,Delhi,Delhi,"Major Dhyan Chand National Stadium, Delhi - DPCC",27-03-2024 02:00:00,28.611281,77.237738,NO2,20,150,67
India,Delhi,Delhi,"Major Dhyan Chand National Stadium, Delhi - DPCC",27-03-2024 02:00:00,28.611281,77.237738,NH3,5,10,7
India,Delhi,Delhi,"Mandir Marg, Delhi - DPCC",27-03-2024 02:00:00,28.636429,77.201067,NH3,7,8,7
India,Delhi,Delhi,"Mandir Marg, Delhi - DPCC",27-03-2024 02:00:00,28.636429,77.201067,CO,52,100,82
India,Delhi,Delhi,"Mundka, Delhi - DPCC",27-03-2024 02:00:00,28.684678,77.076574,SO2,9,101,35
India,Delhi,Delhi,"Mundka, Delhi - DPCC",27-03-2024 02:00:00,28.684678,77.076574,OZONE,6,63,29
India,Delhi,Delhi,"NSIT Dwarka, Delhi - CPCB",27-03-2024 02:00:00,28.60909,77.0325413,NO2,15,84,46
India,Delhi,Delhi,"Najafgarh, Delhi - DPCC",27-03-2024 02:00:00,28.570173,76.933762,NO2,4,21,9
India,Delhi,Delhi,"Najafgarh, Delhi - DPCC",27-03-2024 02:00:00,28.570173,76.933762,NH3,12,13,13
India,Delhi,Delhi,"Najafgarh, Delhi - DPCC",27-03-2024 02:00:00,28.570173,76.933762,SO2,10,18,14
India,Delhi,Delhi,"Narela, Delhi - DPCC",27-03-2024 02:00:00,28.822836,77.101981,SO2,13,34,25
India,Delhi,Delhi,"Nehru Nagar, Delhi - DPCC",27-03-2024 02:00:00,28.567890,77.250515,SO2,8,18,13
India,Delhi,Delhi,"Okhla Phase-2, Delhi - DPCC",27-03-2024 02:00:00,28.530785,77.271255,NH3,5,16,10
India,Delhi,Delhi,"Patparganj, Delhi - DPCC",27-03-2024 02:00:00,28.623763,77.287209,NH3,5,11,8
India,Delhi,Delhi,"Punjabi Bagh, Delhi - DPCC",27-03-2024 02:00:00,28.674045,77.131023,NO2,28,75,46
India,Delhi,Delhi,"Punjabi Bagh, Delhi - DPCC",27-03-2024 02:00:00,28.674045,77.131023,OZONE,9,52,20
India,Delhi,Delhi,"Pusa, Delhi - DPCC",27-03-2024 02:00:00,28.639652,77.146275,OZONE,10,62,16
India,Delhi,Delhi,"Pusa, Delhi - IMD",27-03-2024 02:00:00,28.636110,77.173332,PM10,NA,NA,NA
India,Delhi,Delhi,"R K Puram, Delhi - DPCC",27-03-2024 02:00:00,28.563262,77.186937,NO2,8,40,23
India,Delhi,Delhi,"R K Puram, Delhi - DPCC",27-03-2024 02:00:00,28.563262,77.186937,SO2,13,30,20
India,Delhi,Delhi,"Rohini, Delhi - DPCC",27-03-2024 02:00:00,28.732528,77.119920,PM10,57,202,142
India,Delhi,Delhi,"Rohini, Delhi - DPCC",27-03-2024 02:00:00,28.732528,77.119920,NH3,7,11,9
India,Delhi,Delhi,"Shadipur, Delhi - CPCB",27-03-2024 02:00:00,28.6514781,77.1473105,NH3,5,14,12
India,Delhi,Delhi,"Shadipur, Delhi - CPCB",27-03-2024 02:00:00,28.6514781,77.1473105,SO2,11,29,17
India,Delhi,Delhi,"Shadipur, Delhi - CPCB",27-03-2024 02:00:00,28.6514781,77.1473105,OZONE,12,54,16
India,Delhi,Delhi,"Sirifort, Delhi - CPCB",27-03-2024 02:00:00,28.5504249,77.2159377,CO,5,102,69
India,Delhi,Delhi,"Sonia Vihar, Delhi - DPCC",27-03-2024 02:00:00,28.710508,77.249485,PM10,64,191,126
India,Delhi,Delhi,"Sri Aurobindo Marg, Delhi - DPCC",27-03-2024 02:00:00,28.531346,77.190156,NH3,6,9,7
India,Delhi,Delhi,"Sri Aurobindo Marg, Delhi - DPCC",27-03-2024 02:00:00,28.531346,77.190156,CO,10,84,50
India,Delhi,Delhi,"Wazirpur, Delhi - DPCC",27-03-2024 02:00:00,28.699793,77.165453,PM10,79,244,153
India,Delhi,Delhi,"Wazirpur, Delhi - DPCC",27-03-2024 02:00:00,28.699793,77.165453,SO2,21,71,37
India,Delhi,Delhi,"Wazirpur, Delhi - DPCC",27-03-2024 02:00:00,28.699793,77.165453,OZONE,4,89,18
India,Gujarat,Ahmedabad,"Chandkheda, Ahmedabad - IITM",27-03-2024 02:00:00,23.107969,72.574648,NH3,1,5,2
India,Gujarat,Ahmedabad,"Gyaspur, Ahmedabad - IITM",27-03-2024 02:00:00,22.977134,72.553024,OZONE,7,27,12
India,Gujarat,Ahmedabad,"Maninagar, Ahmedabad - GPCB",27-03-2024 02:00:00,23.002657,72.591912,NO2,24,104,47
India,Gujarat,Ahmedabad,"Maninagar, Ahmedabad - GPCB",27-03-2024 02:00:00,23.002657,72.591912,CO,14,103,76
India,Gujarat,Ahmedabad,"Raikhad, Ahmedabad - IITM",27-03-2024 02:00:00,23.020509,72.579261,CO,20,113,86
India,Gujarat,Ahmedabad,"Rakhial, Ahmedabad - IITM",27-03-2024 02:00:00,23.016834,72.625775,SO2,4,32,10
India,Gujarat,Ahmedabad,"SAC ISRO Satellite, Ahmedabad - IITM",27-03-2024 02:00:00,23.023389,72.515201,PM2.5,138,142,140
India,Gujarat,Ahmedabad,"SVPI Airport Hansol, Ahmedabad - IITM",27-03-2024 02:00:00,23.076793,72.627874,PM2.5,46,134,77
India,Gujarat,Ahmedabad,"Sardar Vallabhbhai Patel Stadium, Ahmedabad - IITM",27-03-2024 02:00:00,23.043070,72.562968,OZONE,17,26,19
India,Gujarat,Ankleshwar,"GIDC, Ankleshwar - GPCB",27-03-2024 02:00:00,21.613267,73.010555,CO,72,138,81
India,Gujarat,Gandhinagar,"IIPHG Lekawada, Gandhinagar - IITM",27-03-2024 02:00:00,23.243639,72.68994,PM2.5,57,227,113
India,Gujarat,Gandhinagar,"IIPHG Lekawada, Gandhinagar - IITM",27-03-2024 02:00:00,23.243639,72.68994,PM10,44,112,76
India,Gujarat,Gandhinagar,"IIPHG Lekawada, Gandhinagar - IITM",27-03-2024 02:00:00,23.243639,72.68994,NH3,6,7,7
India,Gujarat,Gandhinagar,"IIPHG Lekawada, Gandhinagar - IITM",27-03-2024 02:00:00,23.243639,72.68994,SO2,2,14,10
India,Gujarat,Gandhinagar,"Sector-10, Gandhinagar - GPCB",27-03-2024 02:00:00,23.221714,72.654328,PM2.5,25,61,41
India,Gujarat,Gandhinagar,"Sector-10, Gandhinagar - GPCB",27-03-2024 02:00:00,23.221714,72.654328,PM10,47,106,70
India,Gujarat,Gandhinagar,"Sector-10, Gandhinagar - GPCB",27-03-2024 02:00:00,23.221714,72.654328,OZONE,2,12,3
India,Gujarat,Nandesari,"GIDC, Nandesari - Nandesari Ind. Association",27-03-2024 02:00:00,22.410802,73.097923,SO2,3,16,11
India,Gujarat,Surat,"Science Center, Surat - SMC",27-03-2024 02:00:00,21.170046,72.795405,CO,43,65,53
India,Gujarat,Vapi,"Phase-1 GIDC, Vapi - GPCB",27-03-2024 02:00:00,20.362421,72.918013,PM10,46,110,75
India,Gujarat,Vapi,"Phase-1 GIDC, Vapi - GPCB",27-03-2024 02:00:00,20.362421,72.918013,NH3,2,2,2
India,Gujarat,Vapi,"Phase-1 GIDC, Vapi - GPCB",27-03-2024 02:00:00,20.362421,72.918013,OZONE,45,92,88
India,Gujarat,Vatva,"Phase-4 GIDC, Vatva - GPCB",27-03-2024 02:00:00,22.969611,72.643500,CO,2,105,63
India,Haryana,Ambala,"Patti Mehar, Ambala - HSPCB",27-03-2024 02:00:00,30.379589,76.778328,CO,30,60,40
India,Haryana,Bahadurgarh,"Arya Nagar, Bahadurgarh - HSPCB",27-03-2024 02:00:00,28.6701,76.9254,OZONE,38,50,44
India,Haryana,Ballabgarh,"Nathu Colony, Ballabgarh - HSPCB",27-03-2024 02:00:00,28.3419248,77.319699,CO,2,100,54
India,Haryana,Bhiwani,"H.B. Colony, Bhiwani - HSPCB",27-03-2024 02:00:00,28.806223,76.141105,PM2.5,50,182,83
India,Haryana,Bhiwani,"H.B. Colony, Bhiwani - HSPCB",27-03-2024 02:00:00,28.806223,76.141105,NH3,6,6,6
India,Haryana,Bhiwani,"H.B. Colony, Bhiwani - HSPCB",27-03-2024 02:00:00,28.806223,76.141105,CO,22,42,34
India,Haryana,Dharuhera,"Municipal Corporation Office, Dharuhera -  HSPCB",27-03-2024 02:00:00,28.206800,76.799700,SO2,2,5,3
India,Haryana,Dharuhera,"Municipal Corporation Office, Dharuhera -  HSPCB",27-03-2024 02:00:00,28.206800,76.799700,OZONE,41,66,51
India,Haryana,Faridabad,"New Industrial Town, Faridabad - HSPCB",27-03-2024 02:00:00,28.39072,77.30059,PM2.5,82,351,187
India,Haryana,Faridabad,"New Industrial Town, Faridabad - HSPCB",27-03-2024 02:00:00,28.39072,77.30059,PM10,82,261,137
India,Haryana,Faridabad,"New Industrial Town, Faridabad - HSPCB",27-03-2024 02:00:00,28.39072,77.30059,CO,8,46,31
India,Haryana,Faridabad,"Sector 11, Faridabad - HSPCB",27-03-2024 02:00:00,28.376058,77.315741,PM10,101,500,218
India,Haryana,Faridabad,"Sector 11, Faridabad - HSPCB",27-03-2024 02:00:00,28.376058,77.315741,CO,25,64,51
India,Haryana,Faridabad,"Sector 30, Faridabad - HSPCB",27-03-2024 02:00:00,28.4417,77.3217,PM2.5,86,103,95
India,Haryana,Faridabad,"Sector 30, Faridabad - HSPCB",27-03-2024 02:00:00,28.4417,77.3217,PM10,133,150,143
India,Haryana,Faridabad,"Sector 30, Faridabad - HSPCB",27-03-2024 02:00:00,28.4417,77.3217,NO2,30,32,31
India,Haryana,Faridabad,"Sector 30, Faridabad - HSPCB",27-03-2024 02:00:00,28.4417,77.3217,OZONE,5,75,10
India,Haryana,Faridabad,"Sector- 16A, Faridabad - HSPCB",27-03-2024 02:00:00,28.4088421,77.3099081,PM2.5,32,232,90
India,Haryana,Faridabad,"Sector- 16A, Faridabad - HSPCB",27-03-2024 02:00:00,28.4088421,77.3099081,CO,2,61,39
India,Haryana,Gurugram,"Sector-51, Gurugram - HSPCB",27-03-2024 02:00:00,28.4227,77.0667,NH3,7,14,9
India,Haryana,Gurugram,"Sector-51, Gurugram - HSPCB",27-03-2024 02:00:00,28.4227,77.0667,OZONE,27,67,51
India,Haryana,Gurugram,"Teri Gram, Gurugram - HSPCB",27-03-2024 02:00:00,28.4275,77.1465,PM10,108,244,170
India,Haryana,Gurugram,"Teri Gram, Gurugram - HSPCB",27-03-2024 02:00:00,28.4275,77.1465,CO,12,28,21
India,Haryana,Gurugram,"Teri Gram, Gurugram - HSPCB",27-03-2024 02:00:00,28.4275,77.1465,OZONE,13,18,15
India,Haryana,Gurugram,"Vikas Sadan, Gurugram - HSPCB",27-03-2024 02:00:00,28.4501238,77.0263051,PM2.5,72,175,99
India,Haryana,Gurugram,"Vikas Sadan, Gurugram - HSPCB",27-03-2024 02:00:00,28.4501238,77.0263051,SO2,34,53,41
India,Haryana,Gurugram,"Vikas Sadan, Gurugram - HSPCB",27-03-2024 02:00:00,28.4501238,77.0263051,OZONE,7,69,19
India,Haryana,Hisar,"Urban Estate-II, Hisar - HSPCB",27-03-2024 02:00:00,29.140560,75.744941,PM10,65,131,93
India,Haryana,Jind,"Police Lines, Jind - HSPCB",27-03-2024 02:00:00,29.307814,76.337619,PM10,36,92,69
India,Haryana,Jind,"Police Lines, Jind - HSPCB",27-03-2024 02:00:00,29.307814,76.337619,NO2,5,15,11
India,Haryana,Jind,"Police Lines, Jind - HSPCB",27-03-2024 02:00:00,29.307814,76.337619,NH3,2,6,4
India,Haryana,Jind,"Police Lines, Jind - HSPCB",27-03-2024 02:00:00,29.307814,76.337619,CO,1,38,11
India,Haryana,Karnal,"Sector-12, Karnal - HSPCB",27-03-2024 02:00:00,29.695300,77.002700,NH3,10,13,11
India,Haryana,Karnal,"Sector-12, Karnal - HSPCB",27-03-2024 02:00:00,29.695300,77.002700,OZONE,19,21,21
India,Haryana,Kurukshetra,"Sector-7, Kurukshetra - HSPCB",27-03-2024 02:00:00,29.966942,76.875879,OZONE,28,63,35
India,Haryana,Mandikhera,"General Hospital, Mandikhera - HSPCB",27-03-2024 02:00:00,27.9002,76.9938,NH3,16,19,18
India,Haryana,Mandikhera,"General Hospital, Mandikhera - HSPCB",27-03-2024 02:00:00,27.9002,76.9938,OZONE,24,32,27
India,Haryana,Manesar,"Sector-2 IMT, Manesar - HSPCB",27-03-2024 02:00:00,28.360699,76.936090,PM2.5,40,130,72
India,Haryana,Narnaul,"Shastri Nagar, Narnaul - HSPCB",27-03-2024 02:00:00,28.060249,76.113115,OZONE,38,50,42
India,Haryana,Palwal,"Shyam Nagar, Palwal - HSPCB",27-03-2024 02:00:00,28.1485564,77.3320667,PM2.5,51,177,76
India,Haryana,Palwal,"Shyam Nagar, Palwal - HSPCB",27-03-2024 02:00:00,28.1485564,77.3320667,CO,22,34,31
India,Haryana,Panipat,"Sector-18, Panipat - HSPCB",27-03-2024 02:00:00,29.497973,76.993331,PM10,64,76,70
India,Haryana,Panipat,"Sector-18, Panipat - HSPCB",27-03-2024 02:00:00,29.497973,76.993331,OZONE,30,30,30
India,Haryana,Rohtak,"MD University, Rohtak - HSPCB",27-03-2024 02:00:00,28.52123,76.37138,PM2.5,2,63,15
India,Haryana,Sirsa,"F-Block, Sirsa - HSPCB",27-03-2024 02:00:00,29.536400,75.015800,CO,38,58,42
India,Haryana,Sonipat,"Murthal, Sonipat - HSPCB",27-03-2024 02:00:00,29.027200,77.062100,NO2,37,44,40
India,Haryana,Sonipat,"Murthal, Sonipat - HSPCB",27-03-2024 02:00:00,29.027200,77.062100,NH3,5,10,9
India,Haryana,Sonipat,"Murthal, Sonipat - HSPCB",27-03-2024 02:00:00,29.027200,77.062100,OZONE,17,36,22
India,Haryana,Yamuna Nagar,"Gobind Pura, Yamuna Nagar - HSPCB",27-03-2024 02:00:00,30.1480566,77.2893471,PM2.5,NA,NA,NA
India,Himachal Pradesh,Baddi,"HIMUDA Complex Phase-1, Baddi - HPPCB",27-03-2024 02:00:00,30.943887,76.801991,PM2.5,17,220,89
India,Himachal Pradesh,Baddi,"HIMUDA Complex Phase-1, Baddi - HPPCB",27-03-2024 02:00:00,30.943887,76.801991,PM10,60,176,115
India,Himachal Pradesh,Baddi,"HIMUDA Complex Phase-1, Baddi - HPPCB",27-03-2024 02:00:00,30.943887,76.801991,SO2,11,40,22
India,Jharkhand,Dhanbad,"Kalakusuma, Dhanbad - DMC",27-03-2024 02:00:00,23.811548,86.481238,PM10,99,176,169
India,Karnataka,Bagalkot,"Vidayagiri, Bagalkot - KSPCB",27-03-2024 02:00:00,16.172806,75.659694,NH3,1,2,1
India,Karnataka,Bagalkot,"Vidayagiri, Bagalkot - KSPCB",27-03-2024 02:00:00,16.172806,75.659694,CO,22,47,34
India,Karnataka,Bengaluru,"BTM Layout, Bengaluru - CPCB",27-03-2024 02:00:00,12.9135218,77.5950804,PM2.5,NA,NA,NA
India,Karnataka,Bengaluru,"BTM Layout, Bengaluru - CPCB",27-03-2024 02:00:00,12.9135218,77.5950804,SO2,NA,NA,NA
India,Karnataka,Bengaluru,"Bapuji Nagar, Bengaluru - KSPCB",27-03-2024 02:00:00,12.951913,77.539784,OZONE,27,28,27
India,Karnataka,Bengaluru,"Hebbal, Bengaluru - KSPCB",27-03-2024 02:00:00,13.029152,77.585901,PM10,NA,NA,NA
India,Karnataka,Bengaluru,"Hebbal, Bengaluru - KSPCB",27-03-2024 02:00:00,13.029152,77.585901,CO,NA,NA,NA
India,Karnataka,Bengaluru,"Hombegowda Nagar, Bengaluru - KSPCB",27-03-2024 02:00:00,12.938539,77.590100,SO2,4,4,4
India,Karnataka,Bengaluru,"Hombegowda Nagar, Bengaluru - KSPCB",27-03-2024 02:00:00,12.938539,77.590100,OZONE,4,5,5
India,Karnataka,Bengaluru,"Jayanagar 5th Block, Bengaluru - KSPCB",27-03-2024 02:00:00,12.920984,77.584908,SO2,15,25,20
India,Karnataka,Bengaluru,"Jigani, Bengaluru - KSPCB",27-03-2024 02:00:00,12.7816279,77.6299145,NO2,31,32,32
India,Karnataka,Bengaluru,"Kasturi Nagar, Bengaluru - KSPCB",27-03-2024 02:00:00,13.003872,77.664217,PM10,101,154,131
India,Karnataka,Bengaluru,"Kasturi Nagar, Bengaluru - KSPCB",27-03-2024 02:00:00,13.003872,77.664217,SO2,10,10,10
India,Karnataka,Bengaluru,"Peenya, Bengaluru - CPCB",27-03-2024 02:00:00,13.0270199,77.494094,PM2.5,32,62,48
India,Karnataka,Bengaluru,"Peenya, Bengaluru - CPCB",27-03-2024 02:00:00,13.0270199,77.494094,PM10,40,77,60
India,Karnataka,Bengaluru,"Peenya, Bengaluru - CPCB",27-03-2024 02:00:00,13.0270199,77.494094,NO2,8,24,14
India,Karnataka,Bengaluru,"RVCE-Mailasandra, Bengaluru - KSPCB",27-03-2024 02:00:00,12.921418,77.502466,PM2.5,58,500,110
India,Karnataka,Bengaluru,"RVCE-Mailasandra, Bengaluru - KSPCB",27-03-2024 02:00:00,12.921418,77.502466,NO2,16,17,17
India,Karnataka,Bengaluru,"Shivapura_Peenya, Bengaluru - KSPCB",27-03-2024 02:00:00,13.0246342,77.5080115,PM10,55,130,81
India,Karnataka,Bengaluru,"Shivapura_Peenya, Bengaluru - KSPCB",27-03-2024 02:00:00,13.0246342,77.5080115,CO,20,42,34
India,Karnataka,Bengaluru,"Silk Board, Bengaluru - KSPCB",27-03-2024 02:00:00,12.917348,77.622813,PM2.5,37,66,53
India,Karnataka,Bengaluru,"Silk Board, Bengaluru - KSPCB",27-03-2024 02:00:00,12.917348,77.622813,PM10,48,87,70
India,Karnataka,Bengaluru,"Silk Board, Bengaluru - KSPCB",27-03-2024 02:00:00,12.917348,77.622813,NH3,6,8,7
India,Karnataka,Bengaluru,"Silk Board, Bengaluru - KSPCB",27-03-2024 02:00:00,12.917348,77.622813,CO,7,23,15
India,Karnataka,Bidar,"Naubad, Bidar - KSPCB",27-03-2024 02:00:00,17.930306,77.482194,PM2.5,52,99,72
India,Karnataka,Bidar,"Naubad, Bidar - KSPCB",27-03-2024 02:00:00,17.930306,77.482194,CO,58,102,76
India,Karnataka,Chikkaballapur,"Chikkaballapur Rural, Chikkaballapur - KSPCB",27-03-2024 02:00:00,13.428828,77.731418,NH3,1,1,1
India,Karnataka,Chikkaballapur,"Chikkaballapur Rural, Chikkaballapur - KSPCB",27-03-2024 02:00:00,13.428828,77.731418,SO2,10,27,16
India,Karnataka,Chikkamagaluru,"Kalyana Nagara, Chikkamagaluru - KSPCB",27-03-2024 02:00:00,13.328028,75.797056,OZONE,16,66,31
India,Karnataka,Davanagere,"Devaraj Urs Badavane, Davanagere - KSPCB",27-03-2024 02:00:00,14.475800,75.905200,PM2.5,52,192,78
India,Karnataka,Dharwad,"Kalabhavan, Dharwad - KSPCB",27-03-2024 02:00:00,15.459706,75.008381,PM2.5,33,53,38
India,Karnataka,Dharwad,"Kalabhavan, Dharwad - KSPCB",27-03-2024 02:00:00,15.459706,75.008381,NH3,2,3,3
India,Karnataka,Hassan,"B.Katihalli, Hassan - KSPCB",27-03-2024 02:00:00,13.008556,76.125258,PM10,61,101,73
India,Karnataka,Hassan,"B.Katihalli, Hassan - KSPCB",27-03-2024 02:00:00,13.008556,76.125258,NH3,4,7,6
India,Karnataka,Hassan,"B.Katihalli, Hassan - KSPCB",27-03-2024 02:00:00,13.008556,76.125258,OZONE,5,33,16
India,Karnataka,Haveri,"Ashwini Nagar, Haveri - KSPCB",27-03-2024 02:00:00,14.791800,75.389600,PM2.5,32,83,63
India,Karnataka,Haveri,"Ashwini Nagar, Haveri - KSPCB",27-03-2024 02:00:00,14.791800,75.389600,NH3,3,4,3
India,Karnataka,Hubballi,"Deshpande Nagar, Hubballi - KSPCB",27-03-2024 02:00:00,15.351773,75.140726,CO,10,96,34
India,Karnataka,Kalaburagi,"Lal Bahadur Shastri Nagar, Kalaburagi - KSPCB",27-03-2024 02:00:00,17.321993,76.822628,PM2.5,26,90,51
India,Karnataka,Kalaburagi,"Lal Bahadur Shastri Nagar, Kalaburagi - KSPCB",27-03-2024 02:00:00,17.321993,76.822628,PM10,36,100,61
India,Karnataka,Kalaburagi,"Mahatma Basaveswar Colony, Kalaburgi - KSPCB",27-03-2024 02:00:00,17.336318,76.847397,NO2,11,18,13
India,Karnataka,Kalaburagi,"Mahatma Basaveswar Colony, Kalaburgi - KSPCB",27-03-2024 02:00:00,17.336318,76.847397,NH3,2,4,3
India,Karnataka,Kalaburagi,"Mahatma Basaveswar Colony, Kalaburgi - KSPCB",27-03-2024 02:00:00,17.336318,76.847397,CO,37,56,46
India,Karnataka,Karwar,"KHB Colony, Karwar - KSPCB",27-03-2024 02:00:00,14.816666,74.141003,PM2.5,27,78,44
India,Karnataka,Karwar,"KHB Colony, Karwar - KSPCB",27-03-2024 02:00:00,14.816666,74.141003,OZONE,21,22,21
India,Karnataka,Kolar,"Tamaka Ind. Area, Kolar - KSPCB",27-03-2024 02:00:00,13.1276288,78.1570122,PM10,17,81,53
