country,state,city,station,last_update,latitude,longitude,pollutant_id,pollutant_min,pollutant_max,pollutant_avg
India,Andhra_Pradesh,Amaravati,"Secretariat, Amaravati - APPCB",02-05-2024 22:00:00,16.5150833,80.5181667,NH3,3,4,4
India,Andhra_Pradesh,Amaravati,"Secretariat, Amaravati - APPCB",02-05-2024 22:00:00,16.5150833,80.5181667,CO,2,34,19
India,Andhra_Pradesh,Chittoor,"Gangineni Cheruvu, Chittoor - APPCB",02-05-2024 22:00:00,13.204880,79.097889,CO,18,48,32
India,Andhra_Pradesh,Tirupati,"Tirumala, Tirupati - APPCB",02-05-2024 22:00:00,13.67,79.35,PM10,26,79,59
India,Andhra_Pradesh,Tirupati,"Vaikuntapuram, Tirupati - APPCB",02-05-2024 22:00:00,13.615387,79.409230,NO2,NA,NA,NA
India,Andhra_Pradesh,Tirupati,"Vaikuntapuram, Tirupati - APPCB",02-05-2024 22:00:00,13.615387,79.409230,CO,NA,NA,NA
India,Andhra_Pradesh,Vijayawada,"HB Colony, Vijayawada - APPCB",02-05-2024 22:00:00,16.536107,80.594233,NH3,4,4,4
India,Andhra_Pradesh,Vijayawada,"Kanuru, Vijayawada - APPCB",02-05-2024 22:00:00,16.486692,80.699436,CO,38,38,38
India,Andhra_Pradesh,Vijayawada,"Rajiv Gandhi Park, Vijayawada - APPCB",02-05-2024 22:00:00,16.509717,80.612222,CO,36,40,37
India,Andhra_Pradesh,Vijayawada,"Rajiv Nagar, Vijayawada - APPCB",02-05-2024 22:00:00,16.554731,80.649110,SO2,15,23,20
India,Andhra_Pradesh,Visakhapatnam,"GVM Corporation, Visakhapatnam - APPCB",02-05-2024 22:00:00,17.72,83.3,NH3,3,4,3
India,Arunachal_Pradesh,Naharlagun,"Naharlagun, Naharlagun - APSPCB",02-05-2024 22:00:00,27.103358,93.679645,OZONE,2,3,3
India,Assam,Byrnihat,"Central Academy for SFS, Byrnihat - PCBA",02-05-2024 22:00:00,26.071318,91.87488,CO,31,69,56
India,Assam,Guwahati,"IITG, Guwahati - PCBA",02-05-2024 22:00:00,26.2028636,91.70046436,CO,8,24,10
India,Assam,Guwahati,"LGBI Airport, Guwahati - PCBA",02-05-2024 22:00:00,26.10887,91.589544,NH3,2,15,6
India,Assam,Guwahati,"Pan Bazaar, Guwahati - PCBA",02-05-2024 22:00:00,26.187500,91.744194,PM10,113,301,166
India,Assam,Guwahati,"Pan Bazaar, Guwahati - PCBA",02-05-2024 22:00:00,26.187500,91.744194,OZONE,17,18,17
India,Assam,Guwahati,"Railway Colony, Guwahati - PCBA",02-05-2024 22:00:00,26.181742,91.78063,PM10,112,342,177
India,Assam,Guwahati,"Railway Colony, Guwahati - PCBA",02-05-2024 22:00:00,26.181742,91.78063,SO2,11,16,14
India,Assam,Guwahati,"Railway Colony, Guwahati - PCBA",02-05-2024 22:00:00,26.181742,91.78063,OZONE,2,25,15
India,Assam,Nalbari,"Bata Chowk, Nalbari - PCBA",02-05-2024 22:00:00,26.446912,91.439057,NO2,12,30,18
India,Assam,Nalbari,"Bata Chowk, Nalbari - PCBA",02-05-2024 22:00:00,26.446912,91.439057,SO2,8,17,13
India,Assam,Silchar,"Tarapur, Silchar - PCBA",02-05-2024 22:00:00,24.82827,92.79525,PM2.5,18,35,22
India,Assam,Sivasagar,"Girls College, Sivasagar - PCBA",02-05-2024 22:00:00,26.987634,94.636574,NO2,9,19,13
India,Assam,Sivasagar,"Girls College, Sivasagar - PCBA",02-05-2024 22:00:00,26.987634,94.636574,OZONE,1,20,8
India,Bihar,Araria,"Kharahiya Basti, Araria - BSPCB",02-05-2024 22:00:00,26.146529,87.454184,SO2,7,18,14
India,Bihar,Arrah,"New DM Office, Arrah - BSPCB",02-05-2024 22:00:00,25.5626095,84.663264,NH3,NA,NA,NA
India,Bihar,Arrah,"New DM Office, Arrah - BSPCB",02-05-2024 22:00:00,25.5626095,84.663264,OZONE,NA,NA,NA
India,Bihar,Bettiah,"Kamalnath Nagar, Bettiah - BSPCB",02-05-2024 22:00:00,26.80365,84.51954,PM2.5,82,321,172
India,Bihar,Bettiah,"Kamalnath Nagar, Bettiah - BSPCB",02-05-2024 22:00:00,26.80365,84.51954,PM10,91,225,137
India,Bihar,Bhagalpur,"DM Office_Kachari Chowk, Bhagalpur - BSPCB",02-05-2024 22:00:00,25.251013,86.989001,PM10,124,273,180
India,Bihar,Bhagalpur,"DM Office_Kachari Chowk, Bhagalpur - BSPCB",02-05-2024 22:00:00,25.251013,86.989001,NO2,43,111,79
India,Bihar,Bhagalpur,"DM Office_Kachari Chowk, Bhagalpur - BSPCB",02-05-2024 22:00:00,25.251013,86.989001,OZONE,45,49,47
India,Bihar,Bhagalpur,"Mayaganj, Bhagalpur - BSPCB",02-05-2024 22:00:00,25.265194,87.012947,PM2.5,47,153,80
India,Bihar,Bhagalpur,"Mayaganj, Bhagalpur - BSPCB",02-05-2024 22:00:00,25.265194,87.012947,PM10,41,107,68
India,Bihar,Bhagalpur,"Mayaganj, Bhagalpur - BSPCB",02-05-2024 22:00:00,25.265194,87.012947,NH3,9,10,10
India,Bihar,Bhagalpur,"Mayaganj, Bhagalpur - BSPCB",02-05-2024 22:00:00,25.265194,87.012947,OZONE,40,145,102
India,Bihar,Bihar Sharif,"D M Colony, Bihar Sharif - BSPCB",02-05-2024 22:00:00,25.204762,85.514960,NO2,9,10,10
India,Bihar,Bihar Sharif,"D M Colony, Bihar Sharif - BSPCB",02-05-2024 22:00:00,25.204762,85.514960,CO,36,66,56
India,Bihar,Bihar Sharif,"D M Colony, Bihar Sharif - BSPCB",02-05-2024 22:00:00,25.204762,85.514960,OZONE,15,49,27
India,Bihar,Buxar,"Charitra Van, Buxar - BSPCB (Formerly known as Central Jail)",02-05-2024 22:00:00,25.567520,83.966379,PM10,NA,NA,NA
India,Bihar,Buxar,"Charitra Van, Buxar - BSPCB (Formerly known as Central Jail)",02-05-2024 22:00:00,25.567520,83.966379,NO2,1,2,1
India,Bihar,Buxar,"Charitra Van, Buxar - BSPCB (Formerly known as Central Jail)",02-05-2024 22:00:00,25.567520,83.966379,NH3,3,4,3
India,Bihar,Buxar,"Charitra Van, Buxar - BSPCB (Formerly known as Central Jail)",02-05-2024 22:00:00,25.567520,83.966379,CO,20,122,86
India,Bihar,Chhapra,"Darshan Nagar, Chhapra - BSPCB",02-05-2024 22:00:00,25.7808257,84.7446768,NO2,22,35,28
India,Bihar,Chhapra,"Darshan Nagar, Chhapra - BSPCB",02-05-2024 22:00:00,25.7808257,84.7446768,SO2,4,113,33
India,Bihar,Gaya,"Collectorate, Gaya - BSPCB",02-05-2024 22:00:00,24.7955,84.9994,SO2,4,25,16
India,Bihar,Gaya,"Kareemganj, Gaya - BSPCB",02-05-2024 22:00:00,24.792403,84.992416,PM10,64,120,90
India,Bihar,Gaya,"Kareemganj, Gaya - BSPCB",02-05-2024 22:00:00,24.792403,84.992416,NO2,22,31,30
India,Bihar,Gaya,"SFTI Kusdihra, Gaya - BSPCB",02-05-2024 22:00:00,24.762518,84.982348,NH3,NA,NA,NA
India,Bihar,Hajipur,"Industrial Area, Hajipur - BSPCB",02-05-2024 22:00:00,25.697189,85.245900,PM10,172,354,234
India,Bihar,Katihar,"Mirchaibari, Katihar - BSPCB",02-05-2024 22:00:00,25.560083,87.553265,CO,44,62,56
India,Bihar,Kishanganj,"SDM Office_Khagra, Kishanganj - BSPCB",02-05-2024 22:00:00,26.0881305,87.93840336,NO2,27,34,30
India,Bihar,Munger,"Town Hall, Munger - BSPCB",02-05-2024 22:00:00,25.376776,86.471523,PM10,88,155,128
India,Bihar,Munger,"Town Hall, Munger - BSPCB",02-05-2024 22:00:00,25.376776,86.471523,NO2,4,6,5
India,Bihar,Munger,"Town Hall, Munger - BSPCB",02-05-2024 22:00:00,25.376776,86.471523,SO2,21,37,32
India,Bihar,Munger,"Town Hall, Munger - BSPCB",02-05-2024 22:00:00,25.376776,86.471523,OZONE,28,159,89
India,Bihar,Muzaffarpur,"Buddha Colony, Muzaffarpur - BSPCB",02-05-2024 22:00:00,26.11442,85.39813,NO2,21,51,30
India,Bihar,Muzaffarpur,"Buddha Colony, Muzaffarpur - BSPCB",02-05-2024 22:00:00,26.11442,85.39813,NH3,17,22,19
India,Bihar,Muzaffarpur,"MIT-Daudpur Kothi, Muzaffarpur - BSPCB",02-05-2024 22:00:00,26.1403345,85.3650192,SO2,4,5,4
India,Bihar,Patna,"DRM Office Danapur, Patna - BSPCB",02-05-2024 22:00:00,25.586562,85.043586,SO2,6,41,21
India,Bihar,Patna,"DRM Office Danapur, Patna - BSPCB",02-05-2024 22:00:00,25.586562,85.043586,CO,15,84,46
India,Bihar,Patna,"Govt. High School Shikarpur, Patna - BSPCB",02-05-2024 22:00:00,25.592539,85.227158,NO2,12,16,14
India,Bihar,Patna,"IGSC Planetarium Complex, Patna - BSPCB",02-05-2024 22:00:00,25.610369,85.132568,PM2.5,80,304,141
India,Bihar,Patna,"Rajbansi Nagar, Patna - BSPCB",02-05-2024 22:00:00,25.599486,85.113666,NO2,26,73,41
India,Bihar,Patna,"Rajbansi Nagar, Patna - BSPCB",02-05-2024 22:00:00,25.599486,85.113666,SO2,3,30,12
India,Bihar,Patna,"Rajbansi Nagar, Patna - BSPCB",02-05-2024 22:00:00,25.599486,85.113666,OZONE,16,144,88
India,Bihar,Purnia,"Mariam Nagar, Purnia - BSPCB",02-05-2024 22:00:00,25.366336,87.117468,PM2.5,55,67,58
India,Bihar,Rajgir,"Dangi Tola, Rajgir - BSPCB",02-05-2024 22:00:00,25.03280,85.41948,PM10,37,136,84
India,Bihar,Rajgir,"Dangi Tola, Rajgir - BSPCB",02-05-2024 22:00:00,25.03280,85.41948,OZONE,31,37,33
India,Bihar,Sasaram,"Dada Peer, Sasaram - BSPCB",02-05-2024 22:00:00,24.952822,84.002396,PM2.5,37,65,46
India,Bihar,Sasaram,"Dada Peer, Sasaram - BSPCB",02-05-2024 22:00:00,24.952822,84.002396,NH3,7,28,14
India,Bihar,Siwan,"Chitragupta Nagar, Siwan - BSPCB",02-05-2024 22:00:00,26.2271665,84.3570427,SO2,NA,NA,NA
India,Chandigarh,Chandigarh,"Sector 22, Chandigarh - CPCC",02-05-2024 22:00:00,30.735567,76.775714,PM2.5,33,147,59
India,Chandigarh,Chandigarh,"Sector 22, Chandigarh - CPCC",02-05-2024 22:00:00,30.735567,76.775714,SO2,7,35,16
India,Chandigarh,Chandigarh,"Sector-25, Chandigarh - CPCC",02-05-2024 22:00:00,30.751462,76.762879,PM10,56,131,90
India,Chandigarh,Chandigarh,"Sector-53, Chandigarh - CPCC",02-05-2024 22:00:00,30.719859,76.738637,SO2,12,45,19
India,Chandigarh,Chandigarh,"Sector-53, Chandigarh - CPCC",02-05-2024 22:00:00,30.719859,76.738637,OZONE,28,72,63
India,Chhattisgarh,Bhilai,"Civic Center, Bhilai - Bhilai Steel Plant",02-05-2024 22:00:00,21.185571,81.343175,PM2.5,23,50,35
India,Chhattisgarh,Bhilai,"Civic Center, Bhilai - Bhilai Steel Plant",02-05-2024 22:00:00,21.185571,81.343175,NO2,9,16,13
India,Chhattisgarh,Bhilai,"Hathkhoj, Bhilai - CECB",02-05-2024 22:00:00,21.224231,81.408350,OZONE,21,31,26
India,Chhattisgarh,Bilaspur,"Mangala, Bilaspur - NTPC",02-05-2024 22:00:00,22.08815,82.13737,NO2,10,13,11
India,Chhattisgarh,Chhal,"Nawapara SECL Colony, Chhal - CECB",02-05-2024 22:00:00,22.118125,83.140608,NH3,2,2,2
India,Chhattisgarh,Chhal,"Nawapara SECL Colony, Chhal - CECB",02-05-2024 22:00:00,22.118125,83.140608,CO,16,62,31
India,Chhattisgarh,Korba,"Rampur, Korba - CECB",02-05-2024 22:00:00,22.368195,82.746431,PM2.5,16,54,32
India,Chhattisgarh,Korba,"Rampur, Korba - CECB",02-05-2024 22:00:00,22.368195,82.746431,CO,13,40,18
India,Chhattisgarh,Korba,"Urja Nagar, Korba - CECB",02-05-2024 22:00:00,22.348441,82.549611,PM2.5,6,72,24
India,Chhattisgarh,Korba,"Urja Nagar, Korba - CECB",02-05-2024 22:00:00,22.348441,82.549611,NH3,3,7,5
India,Chhattisgarh,Kunjemura,"OP Jindal School, Kunjemura - CECB",02-05-2024 22:00:00,22.126650,83.483212,PM2.5,50,109,67
India,Chhattisgarh,Milupara,"Govt. Higher Secondary School, Milupara - CECB",02-05-2024 22:00:00,22.1910172,83.5197009,PM10,49,95,70
India,Chhattisgarh,Milupara,"Govt. Higher Secondary School, Milupara - CECB",02-05-2024 22:00:00,22.1910172,83.5197009,NO2,14,57,31
India,Chhattisgarh,Milupara,"Govt. Higher Secondary School, Milupara - CECB",02-05-2024 22:00:00,22.1910172,83.5197009,SO2,2,26,12
India,Chhattisgarh,Raipur,"AIIMS, Raipur - CECB",02-05-2024 22:00:00,21.258815,81.578979,NH3,6,6,6
India,Chhattisgarh,Raipur,"Bhatagaon New ISBT, Raipur - CECB",02-05-2024 22:00:00,21.219665,81.630094,PM10,44,88,63
India,Chhattisgarh,Raipur,"Bhatagaon New ISBT, Raipur - CECB",02-05-2024 22:00:00,21.219665,81.630094,CO,18,40,29
India,Chhattisgarh,Raipur,"Bhatagaon New ISBT, Raipur - CECB",02-05-2024 22:00:00,21.219665,81.630094,OZONE,3,15,7
India,Chhattisgarh,Raipur,"Krishak Nagar, Raipur - CECB",02-05-2024 22:00:00,21.237755,81.705301,SO2,18,80,34
India,Chhattisgarh,Raipur,"Siltara Phase-II, Raipur - CECB",02-05-2024 22:00:00,21.371751,81.664929,PM10,83,177,127
India,Chhattisgarh,Raipur,"Siltara Phase-II, Raipur - CECB",02-05-2024 22:00:00,21.371751,81.664929,OZONE,4,62,34
India,Chhattisgarh,Tumidih,"OP Jindal Industrial Park, Tumidih - CECB",02-05-2024 22:00:00,22.06631475,83.33820077,NO2,13,95,26
India,Delhi,Delhi,"Aya Nagar, Delhi - IMD",02-05-2024 22:00:00,28.4706914,77.1099364,PM10,NA,NA,NA
India,Delhi,Delhi,"Aya Nagar, Delhi - IMD",02-05-2024 22:00:00,28.4706914,77.1099364,NO2,NA,NA,NA
India,Delhi,Delhi,"Bawana, Delhi - DPCC",02-05-2024 22:00:00,28.776200,77.051074,SO2,7,98,34
India,Delhi,Delhi,"Burari Crossing, Delhi - IMD",02-05-2024 22:00:00,28.7256504,77.2011573,PM10,130,288,191
India,Delhi,Delhi,"Burari Crossing, Delhi - IMD",02-05-2024 22:00:00,28.7256504,77.2011573,CO,17,34,21
India,Delhi,Delhi,"Chandni Chowk, Delhi - IITM",02-05-2024 22:00:00,28.656756,77.227234,NH3,NA,NA,NA
India,Delhi,Delhi,"DTU, Delhi - CPCB",02-05-2024 22:00:00,28.7500499,77.1112615,PM2.5,90,345,191
India,Delhi,Delhi,"DTU, Delhi - CPCB",02-05-2024 22:00:00,28.7500499,77.1112615,PM10,114,401,191
India,Delhi,Delhi,"DTU, Delhi - CPCB",02-05-2024 22:00:00,28.7500499,77.1112615,NO2,5,125,24
India,Delhi,Delhi,"DTU, Delhi - CPCB",02-05-2024 22:00:00,28.7500499,77.1112615,NH3,4,93,19
India,Delhi,Delhi,"DTU, Delhi - CPCB",02-05-2024 22:00:00,28.7500499,77.1112615,OZONE,25,256,155
India,Delhi,Delhi,"Dr. Karni Singh Shooting Range, Delhi - DPCC",02-05-2024 22:00:00,28.498571,77.264840,NH3,5,6,5
India,Delhi,Delhi,"Dwarka-Sector 8, Delhi - DPCC ",02-05-2024 22:00:00,28.5710274,77.0719006,NO2,1,17,5
India,Delhi,Delhi,"Dwarka-Sector 8, Delhi - DPCC ",02-05-2024 22:00:00,28.5710274,77.0719006,NH3,2,3,2
India,Delhi,Delhi,"Dwarka-Sector 8, Delhi - DPCC ",02-05-2024 22:00:00,28.5710274,77.0719006,OZONE,3,82,54
India,Delhi,Delhi,"IGI Airport (T3), Delhi - IMD",02-05-2024 22:00:00,28.5627763,77.1180053,PM10,NA,NA,NA
India,Delhi,Delhi,"IHBAS, Dilshad Garden, Delhi - CPCB",02-05-2024 22:00:00,28.6811736,77.3025234,PM2.5,83,187,124
India,Delhi,Delhi,"IHBAS, Dilshad Garden, Delhi - CPCB",02-05-2024 22:00:00,28.6811736,77.3025234,OZONE,13,28,20
India,Delhi,Delhi,"ITO, Delhi - CPCB",02-05-2024 22:00:00,28.628624,77.241060,PM2.5,53,227,102
India,Delhi,Delhi,"ITO, Delhi - CPCB",02-05-2024 22:00:00,28.628624,77.241060,CO,35,76,47
India,Delhi,Delhi,"Jahangirpuri, Delhi - DPCC",02-05-2024 22:00:00,28.732820,77.170633,PM10,149,454,277
India,Delhi,Delhi,"Jahangirpuri, Delhi - DPCC",02-05-2024 22:00:00,28.732820,77.170633,NH3,8,48,17
India,Delhi,Delhi,"Jawaharlal Nehru Stadium, Delhi - DPCC",02-05-2024 22:00:00,28.580280,77.233829,NH3,6,10,7
India,Delhi,Delhi,"Lodhi Road, Delhi - IITM",02-05-2024 22:00:00,28.588333,77.221667,NO2,68,139,90
India,Delhi,Delhi,"Lodhi Road, Delhi - IITM",02-05-2024 22:00:00,28.588333,77.221667,OZONE,15,20,18
India,Delhi,Delhi,"Lodhi Road, Delhi - IMD",02-05-2024 22:00:00,28.5918245,77.2273074,CO,9,14,11
India,Delhi,Delhi,"Major Dhyan Chand National Stadium, Delhi - DPCC",02-05-2024 22:00:00,28.611281,77.237738,PM10,107,207,136
India,Delhi,Delhi,"Major Dhyan Chand National Stadium, Delhi - DPCC",02-05-2024 22:00:00,28.611281,77.237738,CO,90,114,102
India,Delhi,Delhi,"Mandir Marg, Delhi - DPCC",02-05-2024 22:00:00,28.636429,77.201067,PM2.5,28,256,109
India,Delhi,Delhi,"Mandir Marg, Delhi - DPCC",02-05-2024 22:00:00,28.636429,77.201067,PM10,130,224,161
India,Delhi,Delhi,"Mandir Marg, Delhi - DPCC",02-05-2024 22:00:00,28.636429,77.201067,SO2,4,14,10
India,Delhi,Delhi,"Mundka, Delhi - DPCC",02-05-2024 22:00:00,28.684678,77.076574,PM10,143,394,267
India,Delhi,Delhi,"Mundka, Delhi - DPCC",02-05-2024 22:00:00,28.684678,77.076574,NH3,3,4,3
India,Delhi,Delhi,"Mundka, Delhi - DPCC",02-05-2024 22:00:00,28.684678,77.076574,OZONE,31,160,119
India,Delhi,Delhi,"NSIT Dwarka, Delhi - CPCB",02-05-2024 22:00:00,28.60909,77.0325413,OZONE,14,105,74
India,Delhi,Delhi,"Najafgarh, Delhi - DPCC",02-05-2024 22:00:00,28.570173,76.933762,NO2,17,80,48
India,Delhi,Delhi,"Narela, Delhi - DPCC",02-05-2024 22:00:00,28.822836,77.101981,NO2,10,92,30
India,Delhi,Delhi,"Nehru Nagar, Delhi - DPCC",02-05-2024 22:00:00,28.567890,77.250515,PM10,126,197,153
India,Delhi,Delhi,"Nehru Nagar, Delhi - DPCC",02-05-2024 22:00:00,28.567890,77.250515,SO2,4,9,6
India,Delhi,Delhi,"Nehru Nagar, Delhi - DPCC",02-05-2024 22:00:00,28.567890,77.250515,CO,47,74,61
India,Delhi,Delhi,"Nehru Nagar, Delhi - DPCC",02-05-2024 22:00:00,28.567890,77.250515,OZONE,3,172,112
India,Delhi,Delhi,"Okhla Phase-2, Delhi - DPCC",02-05-2024 22:00:00,28.530785,77.271255,PM2.5,49,291,98
India,Delhi,Delhi,"Patparganj, Delhi - DPCC",02-05-2024 22:00:00,28.623763,77.287209,CO,51,109,73
India,Delhi,Delhi,"Punjabi Bagh, Delhi - DPCC",02-05-2024 22:00:00,28.674045,77.131023,NH3,4,5,4
India,Delhi,Delhi,"Punjabi Bagh, Delhi - DPCC",02-05-2024 22:00:00,28.674045,77.131023,CO,34,100,55
India,Delhi,Delhi,"Pusa, Delhi - DPCC",02-05-2024 22:00:00,28.639652,77.146275,NH3,2,7,5
India,Delhi,Delhi,"Pusa, Delhi - IMD",02-05-2024 22:00:00,28.636110,77.173332,CO,32,50,36
India,Delhi,Delhi,"R K Puram, Delhi - DPCC",02-05-2024 22:00:00,28.563262,77.186937,PM2.5,68,350,172
India,Delhi,Delhi,"R K Puram, Delhi - DPCC",02-05-2024 22:00:00,28.563262,77.186937,NO2,6,48,22
India,Delhi,Delhi,"Rohini, Delhi - DPCC",02-05-2024 22:00:00,28.732528,77.119920,PM2.5,38,373,167
India,Delhi,Delhi,"Rohini, Delhi - DPCC",02-05-2024 22:00:00,28.732528,77.119920,OZONE,9,217,152
India,Delhi,Delhi,"Shadipur, Delhi - CPCB",02-05-2024 22:00:00,28.6514781,77.1473105,NH3,10,12,11
India,Delhi,Delhi,"Shadipur, Delhi - CPCB",02-05-2024 22:00:00,28.6514781,77.1473105,CO,28,88,62
India,Delhi,Delhi,"Shadipur, Delhi - CPCB",02-05-2024 22:00:00,28.6514781,77.1473105,OZONE,14,136,35
India,Delhi,Delhi,"Sirifort, Delhi - CPCB",02-05-2024 22:00:00,28.5504249,77.2159377,OZONE,7,74,41
India,Delhi,Delhi,"Sonia Vihar, Delhi - DPCC",02-05-2024 22:00:00,28.710508,77.249485,PM10,116,228,162
India,Delhi,Delhi,"Sonia Vihar, Delhi - DPCC",02-05-2024 22:00:00,28.710508,77.249485,NH3,4,5,4
India,Delhi,Delhi,"Sonia Vihar, Delhi - DPCC",02-05-2024 22:00:00,28.710508,77.249485,SO2,6,46,17
India,Delhi,Delhi,"Sri Aurobindo Marg, Delhi - DPCC",02-05-2024 22:00:00,28.531346,77.190156,CO,11,38,20
India,Delhi,Delhi,"Vivek Vihar, Delhi - DPCC",02-05-2024 22:00:00,28.672342,77.315260,NH3,16,16,16
India,Delhi,Delhi,"Vivek Vihar, Delhi - DPCC",02-05-2024 22:00:00,28.672342,77.315260,OZONE,20,105,80
India,Delhi,Delhi,"Wazirpur, Delhi - DPCC",02-05-2024 22:00:00,28.699793,77.165453,SO2,4,46,19
India,Gujarat,Ahmedabad,"Chandkheda, Ahmedabad - IITM",02-05-2024 22:00:00,23.107969,72.574648,PM2.5,133,367,237
India,Gujarat,Ahmedabad,"Chandkheda, Ahmedabad - IITM",02-05-2024 22:00:00,23.107969,72.574648,SO2,3,26,11
India,Gujarat,Ahmedabad,"Maninagar, Ahmedabad - GPCB",02-05-2024 22:00:00,23.002657,72.591912,PM2.5,54,158,81
India,Gujarat,Ahmedabad,"Maninagar, Ahmedabad - GPCB",02-05-2024 22:00:00,23.002657,72.591912,SO2,NA,NA,NA
India,Gujarat,Ahmedabad,"Raikhad, Ahmedabad - IITM",02-05-2024 22:00:00,23.020509,72.579261,PM10,114,277,187
India,Gujarat,Ahmedabad,"Raikhad, Ahmedabad - IITM",02-05-2024 22:00:00,23.020509,72.579261,NH3,NA,NA,NA
India,Gujarat,Ahmedabad,"Raikhad, Ahmedabad - IITM",02-05-2024 22:00:00,23.020509,72.579261,OZONE,5,75,43
India,Gujarat,Ahmedabad,"SAC ISRO Satellite, Ahmedabad - IITM",02-05-2024 22:00:00,23.023389,72.515201,SO2,2,20,7
India,Gujarat,Ahmedabad,"SAC ISRO Satellite, Ahmedabad - IITM",02-05-2024 22:00:00,23.023389,72.515201,CO,40,50,50
India,Gujarat,Ahmedabad,"Sardar Vallabhbhai Patel Stadium, Ahmedabad - IITM",02-05-2024 22:00:00,23.043070,72.562968,PM2.5,136,363,210
India,Gujarat,Ankleshwar,"GIDC, Ankleshwar - GPCB",02-05-2024 22:00:00,21.613267,73.010555,PM2.5,46,95,72
India,Gujarat,Ankleshwar,"GIDC, Ankleshwar - GPCB",02-05-2024 22:00:00,21.613267,73.010555,PM10,73,114,97
India,Gujarat,Ankleshwar,"GIDC, Ankleshwar - GPCB",02-05-2024 22:00:00,21.613267,73.010555,CO,28,88,42
India,Gujarat,Gandhinagar,"Sector-10, Gandhinagar - GPCB",02-05-2024 22:00:00,23.221714,72.654328,PM2.5,38,94,62
India,Gujarat,Gandhinagar,"Sector-10, Gandhinagar - GPCB",02-05-2024 22:00:00,23.221714,72.654328,PM10,57,127,94
India,Gujarat,Gandhinagar,"Sector-10, Gandhinagar - GPCB",02-05-2024 22:00:00,23.221714,72.654328,NO2,18,22,20
India,Gujarat,Gandhinagar,"Sector-10, Gandhinagar - GPCB",02-05-2024 22:00:00,23.221714,72.654328,CO,38,90,54
India,Gujarat,Gandhinagar,"Sector-10, Gandhinagar - GPCB",02-05-2024 22:00:00,23.221714,72.654328,OZONE,2,70,47
India,Gujarat,Vapi,"Phase-1 GIDC, Vapi - GPCB",02-05-2024 22:00:00,20.362421,72.918013,PM2.5,26,84,50
India,Haryana,Bahadurgarh,"Arya Nagar, Bahadurgarh - HSPCB",02-05-2024 22:00:00,28.6701,76.9254,PM2.5,36,315,126
India,Haryana,Bahadurgarh,"Arya Nagar, Bahadurgarh - HSPCB",02-05-2024 22:00:00,28.6701,76.9254,PM10,117,199,156
India,Haryana,Bahadurgarh,"Arya Nagar, Bahadurgarh - HSPCB",02-05-2024 22:00:00,28.6701,76.9254,OZONE,32,41,37
India,Haryana,Ballabgarh,"Nathu Colony, Ballabgarh - HSPCB",02-05-2024 22:00:00,28.3419248,77.319699,PM10,145,235,181
India,Haryana,Ballabgarh,"Nathu Colony, Ballabgarh - HSPCB",02-05-2024 22:00:00,28.3419248,77.319699,SO2,1,93,26
India,Haryana,Charkhi Dadri,"Mini Secretariat, Charkhi Dadri - HSPCB",02-05-2024 22:00:00,28.593883,76.270653,PM2.5,2,413,207
India,Haryana,Charkhi Dadri,"Mini Secretariat, Charkhi Dadri - HSPCB",02-05-2024 22:00:00,28.593883,76.270653,NH3,6,8,7
India,Haryana,Dharuhera,"Municipal Corporation Office, Dharuhera -  HSPCB",02-05-2024 22:00:00,28.206800,76.799700,NO2,45,115,71
India,Haryana,Faridabad,"New Industrial Town, Faridabad - HSPCB",02-05-2024 22:00:00,28.39072,77.30059,PM2.5,113,271,172
India,Haryana,Faridabad,"New Industrial Town, Faridabad - HSPCB",02-05-2024 22:00:00,28.39072,77.30059,PM10,140,228,170
India,Haryana,Faridabad,"Sector 11, Faridabad - HSPCB",02-05-2024 22:00:00,28.376058,77.315741,PM2.5,153,277,220
India,Haryana,Faridabad,"Sector 11, Faridabad - HSPCB",02-05-2024 22:00:00,28.376058,77.315741,SO2,1,2,2
India,Haryana,Faridabad,"Sector- 16A, Faridabad - HSPCB",02-05-2024 22:00:00,28.4088421,77.3099081,SO2,NA,NA,NA
India,Haryana,Faridabad,"Sector- 16A, Faridabad - HSPCB",02-05-2024 22:00:00,28.4088421,77.3099081,CO,2,20,16
India,Haryana,Fatehabad,"Huda Sector, Fatehabad - HSPCB",02-05-2024 22:00:00,29.503664,75.467934,OZONE,39,67,55
India,Haryana,Gurugram,"Sector-51, Gurugram - HSPCB",02-05-2024 22:00:00,28.4227,77.0667,NH3,7,14,9
India,Haryana,Gurugram,"Vikas Sadan, Gurugram - HSPCB",02-05-2024 22:00:00,28.4501238,77.0263051,CO,54,150,114
India,Haryana,Hisar,"Urban Estate-II, Hisar - HSPCB",02-05-2024 22:00:00,29.140560,75.744941,NO2,23,30,25
India,Haryana,Hisar,"Urban Estate-II, Hisar - HSPCB",02-05-2024 22:00:00,29.140560,75.744941,SO2,22,70,48
India,Haryana,Jind,"Police Lines, Jind - HSPCB",02-05-2024 22:00:00,29.307814,76.337619,PM2.5,54,190,93
India,Haryana,Jind,"Police Lines, Jind - HSPCB",02-05-2024 22:00:00,29.307814,76.337619,CO,4,86,32
India,Haryana,Kaithal,"Rishi Nagar, Kaithal - HSPCB",02-05-2024 22:00:00,29.8006,76.4155,PM2.5,48,90,69
India,Haryana,Kaithal,"Rishi Nagar, Kaithal - HSPCB",02-05-2024 22:00:00,29.8006,76.4155,NH3,8,8,8
India,Haryana,Kaithal,"Rishi Nagar, Kaithal - HSPCB",02-05-2024 22:00:00,29.8006,76.4155,OZONE,6,11,10
India,Haryana,Karnal,"Sector-12, Karnal - HSPCB",02-05-2024 22:00:00,29.695300,77.002700,PM10,95,142,113
India,Haryana,Karnal,"Sector-12, Karnal - HSPCB",02-05-2024 22:00:00,29.695300,77.002700,OZONE,29,36,33
India,Haryana,Kurukshetra,"Sector-7, Kurukshetra - HSPCB",02-05-2024 22:00:00,29.966942,76.875879,PM2.5,48,120,84
India,Haryana,Kurukshetra,"Sector-7, Kurukshetra - HSPCB",02-05-2024 22:00:00,29.966942,76.875879,PM10,61,131,111
India,Haryana,Kurukshetra,"Sector-7, Kurukshetra - HSPCB",02-05-2024 22:00:00,29.966942,76.875879,NH3,3,5,5
India,Haryana,Kurukshetra,"Sector-7, Kurukshetra - HSPCB",02-05-2024 22:00:00,29.966942,76.875879,SO2,2,107,10
India,Haryana,Manesar,"Sector-2 IMT, Manesar - HSPCB",02-05-2024 22:00:00,28.360699,76.936090,CO,20,42,26
India,Haryana,Narnaul,"Shastri Nagar, Narnaul - HSPCB",02-05-2024 22:00:00,28.060249,76.113115,NO2,15,84,47
India,Haryana,Panchkula,"Sector-6, Panchkula - HSPCB ",02-05-2024 22:00:00,30.7057778,76.8531805555555,NO2,9,11,10
India,Haryana,Panipat,"Sector-18, Panipat - HSPCB",02-05-2024 22:00:00,29.497973,76.993331,OZONE,30,30,30
India,Haryana,Sirsa,"F-Block, Sirsa - HSPCB",02-05-2024 22:00:00,29.536400,75.015800,PM2.5,47,153,88
India,Haryana,Sirsa,"F-Block, Sirsa - HSPCB",02-05-2024 22:00:00,29.536400,75.015800,SO2,1,6,2
India,Haryana,Sirsa,"F-Block, Sirsa - HSPCB",02-05-2024 22:00:00,29.536400,75.015800,OZONE,20,137,43
India,Haryana,Sonipat,"Murthal, Sonipat - HSPCB",02-05-2024 22:00:00,29.027200,77.062100,PM2.5,25,34,30
India,Haryana,Yamuna Nagar,"Gobind Pura, Yamuna Nagar - HSPCB",02-05-2024 22:00:00,30.1480566,77.2893471,NO2,11,29,18
India,Himachal Pradesh,Baddi,"HIMUDA Complex Phase-1, Baddi - HPPCB",02-05-2024 22:00:00,30.943887,76.801991,CO,19,56,33
India,Himachal Pradesh,Baddi,"HIMUDA Complex Phase-1, Baddi - HPPCB",02-05-2024 22:00:00,30.943887,76.801991,OZONE,48,165,136
India,Jharkhand,Dhanbad,"Kalakusuma, Dhanbad - DMC",02-05-2024 22:00:00,23.811548,86.481238,PM10,12,112,49
India,Jharkhand,Dhanbad,"Sardar Patel Nagar, Dhanbad - JSPCB",02-05-2024 22:00:00,23.80569,86.44268,NO2,NA,NA,NA
India,Jharkhand,Dhanbad,"Sardar Patel Nagar, Dhanbad - JSPCB",02-05-2024 22:00:00,23.80569,86.44268,CO,3,68,32
India,Karnataka,Bagalkot,"Vidayagiri, Bagalkot - KSPCB",02-05-2024 22:00:00,16.172806,75.659694,PM2.5,25,37,36
India,Karnataka,Bagalkot,"Vidayagiri, Bagalkot - KSPCB",02-05-2024 22:00:00,16.172806,75.659694,NO2,9,10,9
India,Karnataka,Bagalkot,"Vidayagiri, Bagalkot - KSPCB",02-05-2024 22:00:00,16.172806,75.659694,SO2,NA,NA,NA
India,Karnataka,Bengaluru,"BTM Layout, Bengaluru - CPCB",02-05-2024 22:00:00,12.9135218,77.5950804,OZONE,3,30,17
India,Karnataka,Bengaluru,"Bapuji Nagar, Bengaluru - KSPCB",02-05-2024 22:00:00,12.951913,77.539784,PM2.5,61,230,110
India,Karnataka,Bengaluru,"Bapuji Nagar, Bengaluru - KSPCB",02-05-2024 22:00:00,12.951913,77.539784,NO2,10,11,11
India,Karnataka,Bengaluru,"Hombegowda Nagar, Bengaluru - KSPCB",02-05-2024 22:00:00,12.938539,77.590100,PM2.5,40,168,62
India,Karnataka,Bengaluru,"Jayanagar 5th Block, Bengaluru - KSPCB",02-05-2024 22:00:00,12.920984,77.584908,SO2,3,62,21
India,Karnataka,Bengaluru,"Kasturi Nagar, Bengaluru - KSPCB",02-05-2024 22:00:00,13.003872,77.664217,PM2.5,25,500,132
India,Karnataka,Bengaluru,"Kasturi Nagar, Bengaluru - KSPCB",02-05-2024 22:00:00,13.003872,77.664217,NO2,16,17,17
India,Karnataka,Bengaluru,"RVCE-Mailasandra, Bengaluru - KSPCB",02-05-2024 22:00:00,12.921418,77.502466,PM2.5,27,194,89
India,Karnataka,Bengaluru,"RVCE-Mailasandra, Bengaluru - KSPCB",02-05-2024 22:00:00,12.921418,77.502466,NO2,16,17,17
India,Karnataka,Bengaluru,"Silk Board, Bengaluru - KSPCB",02-05-2024 22:00:00,12.917348,77.622813,PM10,87,214,122
India,Karnataka,Bengaluru,"Silk Board, Bengaluru - KSPCB",02-05-2024 22:00:00,12.917348,77.622813,SO2,6,18,9
India,Karnataka,Bidar,"Naubad, Bidar - KSPCB",02-05-2024 22:00:00,17.930306,77.482194,PM2.5,39,180,72
India,Karnataka,Bidar,"Naubad, Bidar - KSPCB",02-05-2024 22:00:00,17.930306,77.482194,SO2,13,22,18
India,Karnataka,Bidar,"Naubad, Bidar - KSPCB",02-05-2024 22:00:00,17.930306,77.482194,OZONE,4,49,35
India,Karnataka,Chamarajanagar,"Urban, Chamarajanagar - KSPCB",02-05-2024 22:00:00,11.55358,76.55521,CO,22,120,28
India,Karnataka,Chikkaballapur,"Chikkaballapur Rural, Chikkaballapur - KSPCB",02-05-2024 22:00:00,13.428828,77.731418,PM10,62,129,93
India,Karnataka,Chikkaballapur,"Chikkaballapur Rural, Chikkaballapur - KSPCB",02-05-2024 22:00:00,13.428828,77.731418,NO2,7,21,8
India,Karnataka,Chikkaballapur,"Chikkaballapur Rural, Chikkaballapur - KSPCB",02-05-2024 22:00:00,13.428828,77.731418,SO2,20,32,26
India,Karnataka,Chikkaballapur,"Chikkaballapur Rural, Chikkaballapur - KSPCB",02-05-2024 22:00:00,13.428828,77.731418,CO,10,34,14
India,Karnataka,Dharwad,"Kalabhavan, Dharwad - KSPCB",02-05-2024 22:00:00,15.459706,75.008381,PM10,72,136,101
India,Karnataka,Dharwad,"Kalabhavan, Dharwad - KSPCB",02-05-2024 22:00:00,15.459706,75.008381,SO2,2,4,3
India,Karnataka,Gadag,"Panchal Nagar, Gadag - KSPCB",02-05-2024 22:00:00,15.411456,75.638133,PM10,34,55,44
India,Karnataka,Gadag,"Panchal Nagar, Gadag - KSPCB",02-05-2024 22:00:00,15.411456,75.638133,NH3,2,3,2
India,Karnataka,Hassan,"B.Katihalli, Hassan - KSPCB",02-05-2024 22:00:00,13.008556,76.125258,CO,2,2,2
India,Karnataka,Haveri,"Ashwini Nagar, Haveri - KSPCB",02-05-2024 22:00:00,14.791800,75.389600,CO,32,38,38
India,Karnataka,Haveri,"Ashwini Nagar, Haveri - KSPCB",02-05-2024 22:00:00,14.791800,75.389600,OZONE,18,20,19
India,Karnataka,Hubballi,"Deshpande Nagar, Hubballi - KSPCB",02-05-2024 22:00:00,15.351773,75.140726,PM10,63,125,84
India,Karnataka,Hubballi,"Deshpande Nagar, Hubballi - KSPCB",02-05-2024 22:00:00,15.351773,75.140726,OZONE,2,15,10
India,Karnataka,Kalaburagi,"Lal Bahadur Shastri Nagar, Kalaburagi - KSPCB",02-05-2024 22:00:00,17.321993,76.822628,NO2,10,12,12
India,Karnataka,Kalaburagi,"Lal Bahadur Shastri Nagar, Kalaburagi - KSPCB",02-05-2024 22:00:00,17.321993,76.822628,SO2,20,32,23
India,Karnataka,Kalaburagi,"Mahatma Basaveswar Colony, Kalaburgi - KSPCB",02-05-2024 22:00:00,17.336318,76.847397,PM2.5,24,71,43
India,Karnataka,Karwar,"KHB Colony, Karwar - KSPCB",02-05-2024 22:00:00,14.816666,74.141003,PM2.5,NA,NA,NA
India,Karnataka,Karwar,"KHB Colony, Karwar - KSPCB",02-05-2024 22:00:00,14.816666,74.141003,SO2,NA,NA,NA
India,Karnataka,Kolar,"Tamaka Ind. Area, Kolar - KSPCB",02-05-2024 22:00:00,13.1276288,78.1570122,OZONE,13,16,14
India,Karnataka,Koppal,"Diwator Nagar, Koppal - KSPCB",02-05-2024 22:00:00,15.347630,76.181767,PM2.5,17,41,28
India,Karnataka,Koppal,"Diwator Nagar, Koppal - KSPCB",02-05-2024 22:00:00,15.347630,76.181767,PM10,24,49,30
India,Karnataka,Koppal,"Diwator Nagar, Koppal - KSPCB",02-05-2024 22:00:00,15.347630,76.181767,NO2,29,59,46
India,Karnataka,Madikeri,"Stuart Hill, Madikeri - KSPCB",02-05-2024 22:00:00,12.415911,75.735050,PM2.5,34,49,40
India,Karnataka,Mangalore,"Kadri, Mangalore - KSPCB",02-05-2024 22:00:00,12.889250,74.853000,PM10,60,86,74
India,Karnataka,Mysuru,"Hebbal 1st Stage, Mysuru - KSPCB",02-05-2024 22:00:00,12.21041,76.37376,NO2,7,34,20
India,Karnataka,Mysuru,"Hebbal 1st Stage, Mysuru - KSPCB",02-05-2024 22:00:00,12.21041,76.37376,SO2,1,5,2
India,Karnataka,Shivamogga,"Vinoba Nagara, Shivamogga - KSPCB",02-05-2024 22:00:00,13.940000,75.555917,SO2,2,11,5
India,Karnataka,Shivamogga,"Vinoba Nagara, Shivamogga - KSPCB",02-05-2024 22:00:00,13.940000,75.555917,CO,6,34,22
India,Karnataka,Tumakuru,"Thimmalapura, Tumakuru - KSPCB",02-05-2024 22:00:00,13.377516,77.099072,PM2.5,44,500,97
India,Karnataka,Tumakuru,"Thimmalapura, Tumakuru - KSPCB",02-05-2024 22:00:00,13.377516,77.099072,SO2,7,12,9
India,Karnataka,Vijayapura,"Ibrahimpur, Vijayapura - KSPCB",02-05-2024 22:00:00,16.802639,75.722694,NH3,2,2,2
India,Karnataka,Yadgir,"Collector Office, Yadgir - KSPCB",02-05-2024 22:00:00,16.7602,77.1428,PM2.5,34,167,64
India,Kerala,Eloor,"Udyogamandal, Eloor - Kerala PCB",02-05-2024 22:00:00,10.073232,76.302765,OZONE,12,17,14
India,Kerala,Kannur,"Thavakkara, Kannur - Kerala PCB",02-05-2024 22:00:00,11.875000,75.373200,PM2.5,64,78,72
India,Kerala,Kannur,"Thavakkara, Kannur - Kerala PCB",02-05-2024 22:00:00,11.875000,75.373200,PM10,61,96,69
India,Kerala,Kannur,"Thavakkara, Kannur - Kerala PCB",02-05-2024 22:00:00,11.875000,75.373200,CO,28,35,32
India,Kerala,Kannur,"Thavakkara, Kannur - Kerala PCB",02-05-2024 22:00:00,11.875000,75.373200,OZONE,31,36,33
India,Kerala,Kollam,"Polayathode, Kollam - Kerala PCB",02-05-2024 22:00:00,8.8787,76.6073,PM10,79,119,97
India,Kerala,Kollam,"Polayathode, Kollam - Kerala PCB",02-05-2024 22:00:00,8.8787,76.6073,CO,14,17,16
India,Kerala,Thiruvananthapuram,"Kariavattom, Thiruvananthapuram - Kerala PCB",02-05-2024 22:00:00,8.563700,76.886500,SO2,1,10,5
India,Kerala,Thiruvananthapuram,"Plammoodu, Thiruvananthapuram - Kerala PCB",02-05-2024 22:00:00,8.5149093,76.9435879,OZONE,6,72,16
India,Kerala,Thrissur,"Corporation Ground, Thrissur - Kerala PCB",02-05-2024 22:00:00,10.532400,76.215900,PM10,59,69,64
India,Kerala,Thrissur,"Corporation Ground, Thrissur - Kerala PCB",02-05-2024 22:00:00,10.532400,76.215900,NH3,NA,NA,NA
India,Kerala,Thrissur,"Corporation Ground, Thrissur - Kerala PCB",02-05-2024 22:00:00,10.532400,76.215900,SO2,NA,NA,NA
India,Kerala,Thrissur,"Corporation Ground, Thrissur - Kerala PCB",02-05-2024 22:00:00,10.532400,76.215900,CO,14,140,23
India,Madhya Pradesh,Bhopal,"Idgah Hills, Bhopal - MPPCB",02-05-2024 22:00:00,23.264759,77.381568,PM10,103,143,117
India,Madhya Pradesh,Bhopal,"Idgah Hills, Bhopal - MPPCB",02-05-2024 22:00:00,23.264759,77.381568,CO,26,67,42
India,Madhya Pradesh,Bhopal,"Paryavaran Parisar, Bhopal - MPPCB",02-05-2024 22:00:00,23.210494,77.425409,PM2.5,27,120,63
India,Madhya Pradesh,Bhopal,"Paryavaran Parisar, Bhopal - MPPCB",02-05-2024 22:00:00,23.210494,77.425409,PM10,95,176,126
India,Madhya Pradesh,Bhopal,"Paryavaran Parisar, Bhopal - MPPCB",02-05-2024 22:00:00,23.210494,77.425409,NH3,6,10,7
India,Madhya Pradesh,Bhopal,"Paryavaran Parisar, Bhopal - MPPCB",02-05-2024 22:00:00,23.210494,77.425409,CO,26,145,60
India,Madhya Pradesh,Bhopal,"T T Nagar, Bhopal - MPPCB",02-05-2024 22:00:00,23.233584,77.400574,PM2.5,33,84,58
India,Madhya Pradesh,Dewas,"Bhopal Chauraha, Dewas - MPPCB",02-05-2024 22:00:00,22.9682591,76.064118,NO2,12,14,13
India,Madhya Pradesh,Gwalior,"Phool Bagh, Gwalior - Mondelez Ind. Food",02-05-2024 22:00:00,26.210536,78.171,PM2.5,8,269,134
India,Madhya Pradesh,Indore,"Chhoti Gwaltoli, Indore - MPPCB",02-05-2024 22:00:00,22.4310,75.5213,PM2.5,27,331,71
India,Madhya Pradesh,Indore,"Maguda Nagar, Indore - IMC",02-05-2024 22:00:00,22.7524,75.8872,PM2.5,48,230,84
India,Madhya Pradesh,Indore,"Maguda Nagar, Indore - IMC",02-05-2024 22:00:00,22.7524,75.8872,OZONE,36,45,41
India,Madhya Pradesh,Indore,"Regional Park, Indore - IMC",02-05-2024 22:00:00,22.6780,75.8559,CO,26,32,27
India,Madhya Pradesh,Jabalpur,"Govindh Bhavan Colony, Jabalpur - JMC",02-05-2024 22:00:00,23.163174,79.973061,PM10,52,97,65
India,Madhya Pradesh,Jabalpur,"Govindh Bhavan Colony, Jabalpur - JMC",02-05-2024 22:00:00,23.163174,79.973061,CO,20,37,22
India,Madhya Pradesh,Jabalpur,"Gupteshwar, Jabalpur - JMC",02-05-2024 22:00:00,23.142888,79.916147,OZONE,17,127,81
India,Madhya Pradesh,Jabalpur,"Marhatal, Jabalpur - MPPCB",02-05-2024 22:00:00,23.168606,79.932247,CO,15,172,171
India,Madhya Pradesh,Jabalpur,"Suhagi, Jabalpur - JMC",02-05-2024 22:00:00,23.218135,79.957770,OZONE,3,254,128
India,Madhya Pradesh,Katni,"Gole Bazar, Katni - MPPCB",02-05-2024 22:00:00,23.50016,80.23284,CO,18,30,19
India,Madhya Pradesh,Katni,"Gole Bazar, Katni - MPPCB",02-05-2024 22:00:00,23.50016,80.23284,OZONE,34,174,91
India,Madhya Pradesh,Pithampur,"Sector-2 Industrial Area, Pithampur - MPPCB",02-05-2024 22:00:00,22.624758,75.675238,NO2,7,20,12
India,Madhya Pradesh,Pithampur,"Sector-2 Industrial Area, Pithampur - MPPCB",02-05-2024 22:00:00,22.624758,75.675238,SO2,10,13,11
India,Madhya Pradesh,Pithampur,"Sector-2 Industrial Area, Pithampur - MPPCB",02-05-2024 22:00:00,22.624758,75.675238,OZONE,29,64,49
India,Madhya Pradesh,Sagar,"Civil Lines, Sagar - MPPCB",02-05-2024 22:00:00,23.838586,78.759431,CO,9,68,32
India,Madhya Pradesh,Sagar,"Deen Dayal Nagar, Sagar - MPPCB",02-05-2024 22:00:00,23.8640158,78.80289321,SO2,NA,NA,NA
India,Madhya Pradesh,Ujjain,"Mahakaleshwar Temple, Ujjain - MPPCB",02-05-2024 22:00:00,23.182719 ,75.768218 ,NO2,NA,NA,NA
India,Maharashtra,Ahmednagar,"Tarakpur, Ahmednagar - MPCB",02-05-2024 22:00:00,19.10122,74.73339,NH3,3,6,4
India,Maharashtra,Ahmednagar,"Tarakpur, Ahmednagar - MPCB",02-05-2024 22:00:00,19.10122,74.73339,OZONE,6,119,82
India,Maharashtra,Akola,"Ramdaspeth, Akola - MPCB",02-05-2024 22:00:00,20.719516,77.000253,OZONE,5,81,55
India,Maharashtra,Amravati,"Shivneri Colony, Amravati - MPCB",02-05-2024 22:00:00,20.9402359,77.7895248,NH3,2,4,3
India,Maharashtra,Amravati,"Shri Shivaji Science College, Amaravati - MPCB",02-05-2024 22:00:00,20.939198,77.765701,PM10,89,132,112
India,Maharashtra,Amravati,"Shri Shivaji Science College, Amaravati - MPCB",02-05-2024 22:00:00,20.939198,77.765701,NO2,6,121,27
India,Maharashtra,Aurangabad,"More Chowk Waluj, Aurangabad - MPCB",02-05-2024 22:00:00,19.8389439,75.244448,SO2,5,16,11
India,Maharashtra,Aurangabad,"Rachnakar Colony, Aurangabad - MPCB",02-05-2024 22:00:00,19.863756,75.321188,NO2,12,116,35
India,Maharashtra,Aurangabad,"Rachnakar Colony, Aurangabad - MPCB",02-05-2024 22:00:00,19.863756,75.321188,OZONE,30,102,70
India,Maharashtra,Badlapur,"Katrap, Badlapur - MPCB",02-05-2024 22:00:00,19.16485,73.23409,PM10,81,144,111
India,Maharashtra,Badlapur,"Katrap, Badlapur - MPCB",02-05-2024 22:00:00,19.16485,73.23409,NH3,1,2,1
India,Maharashtra,Belapur,"CBD Belapur, Belapur - MPCB",02-05-2024 22:00:00,19.0243902,73.0406721,PM2.5,63,199,108
India,Maharashtra,Belapur,"CBD Belapur, Belapur - MPCB",02-05-2024 22:00:00,19.0243902,73.0406721,SO2,2,16,5
India,Maharashtra,Bhiwandi,"Gokul Nagar, Bhiwandi - MPCB",02-05-2024 22:00:00,19.309073,73.057223,PM2.5,30,70,47
India,Maharashtra,Bhiwandi,"Gokul Nagar, Bhiwandi - MPCB",02-05-2024 22:00:00,19.309073,73.057223,PM10,80,125,99
India,Maharashtra,Bhiwandi,"Gokul Nagar, Bhiwandi - MPCB",02-05-2024 22:00:00,19.309073,73.057223,NO2,12,40,23
India,Maharashtra,Boisar,"Khaira, Boisar - MPCB",02-05-2024 22:00:00,19.786089,72.757971,NO2,3,109,25
India,Maharashtra,Boisar,"Khaira, Boisar - MPCB",02-05-2024 22:00:00,19.786089,72.757971,SO2,2,52,29
India,Maharashtra,Dhule,"Deopur, Dhule - MPCB",02-05-2024 22:00:00,20.918946,74.776388,NH3,7,12,9
India,Maharashtra,Dhule,"Deopur, Dhule - MPCB",02-05-2024 22:00:00,20.918946,74.776388,CO,12,24,15
India,Maharashtra,Jalgaon,"Prabhat Colony, Jalgaon - MPCB",02-05-2024 22:00:00,21.001264,75.565602,PM2.5,59,136,81
India,Maharashtra,Jalgaon,"Prabhat Colony, Jalgaon - MPCB",02-05-2024 22:00:00,21.001264,75.565602,PM10,83,172,114
India,Maharashtra,Jalgaon,"Prabhat Colony, Jalgaon - MPCB",02-05-2024 22:00:00,21.001264,75.565602,NO2,11,164,39
India,Maharashtra,Jalgaon,"Prabhat Colony, Jalgaon - MPCB",02-05-2024 22:00:00,21.001264,75.565602,NH3,1,14,9
India,Maharashtra,Jalgaon,"Prabhat Colony, Jalgaon - MPCB",02-05-2024 22:00:00,21.001264,75.565602,CO,13,57,29
India,Maharashtra,Jalna,"Old MIDC, Jalna - MPCB",02-05-2024 22:00:00,19.854616,75.905894,PM10,84,141,106
India,Maharashtra,Jalna,"Old MIDC, Jalna - MPCB",02-05-2024 22:00:00,19.854616,75.905894,NH3,6,8,7
India,Maharashtra,Jalna,"Old MIDC, Jalna - MPCB",02-05-2024 22:00:00,19.854616,75.905894,CO,21,42,29
India,Maharashtra,Kalyan,"Khadakpada, Kalyan - MPCB",02-05-2024 22:00:00,19.25292,73.142019,PM2.5,19,63,40
India,Maharashtra,Kalyan,"Khadakpada, Kalyan - MPCB",02-05-2024 22:00:00,19.25292,73.142019,PM10,76,177,130
India,Maharashtra,Kolhapur,"Sinchan Bhavan, Kolhapur - MPCB",02-05-2024 22:00:00,16.7143745,74.2426398,PM2.5,26,64,43
India,Maharashtra,Kolhapur,"Sinchan Bhavan, Kolhapur - MPCB",02-05-2024 22:00:00,16.7143745,74.2426398,NO2,7,29,15
India,Maharashtra,Kolhapur,"Sinchan Bhavan, Kolhapur - MPCB",02-05-2024 22:00:00,16.7143745,74.2426398,CO,14,24,22
India,Maharashtra,Latur,"Sawe Wadi, Latur - MPCB",02-05-2024 22:00:00,18.39963,76.57452,SO2,4,14,10
India,Maharashtra,Mahad,"Kamble Tarf Birwadi, Mahad - MPCB",02-05-2024 22:00:00,18.1023399,73.4783687,PM2.5,44,163,69
India,Maharashtra,Malegaon,"Mahesh Nagar, Malegaon - MPCB",02-05-2024 22:00:00,20.555712,74.529236,NO2,10,69,28
India,Maharashtra,Mira-Bhayandar,"Bhayandar West, Mira-Bhayandar - MPCB",02-05-2024 22:00:00,19.296481,72.840923,PM10,61,188,107
India,Maharashtra,Mumbai,"Bandra Kurla Complex, Mumbai - MPCB",02-05-2024 22:00:00,19.065931,72.862131,CO,34,61,38
India,Maharashtra,Mumbai,"Borivali East, Mumbai - IITM",02-05-2024 22:00:00,19.23241,72.86895,CO,7,83,44
India,Maharashtra,Mumbai,"Borivali East, Mumbai - MPCB",02-05-2024 22:00:00,19.2243333,72.8658113,NO2,6,22,11
India,Maharashtra,Mumbai,"Borivali East, Mumbai - MPCB",02-05-2024 22:00:00,19.2243333,72.8658113,OZONE,14,15,14
India,Maharashtra,Mumbai,"Chakala-Andheri East, Mumbai - IITM",02-05-2024 22:00:00,19.11074,72.86084,PM10,NA,NA,NA
India,Maharashtra,Mumbai,"Chakala-Andheri East, Mumbai - IITM",02-05-2024 22:00:00,19.11074,72.86084,NO2,33,85,52
India,Maharashtra,Mumbai,"Chakala-Andheri East, Mumbai - IITM",02-05-2024 22:00:00,19.11074,72.86084,NH3,5,16,8
India,Maharashtra,Mumbai,"Chembur, Mumbai - MPCB",02-05-2024 22:00:00,19.0364585,72.8954371,SO2,1,1,1
India,Maharashtra,Mumbai,"Chembur, Mumbai - MPCB",02-05-2024 22:00:00,19.0364585,72.8954371,OZONE,9,72,51
India,Maharashtra,Mumbai,"Chhatrapati Shivaji Intl. Airport (T2), Mumbai - MPCB",02-05-2024 22:00:00,19.10078,72.87462,PM10,71,161,111
India,Maharashtra,Mumbai,"Chhatrapati Shivaji Intl. Airport (T2), Mumbai - MPCB",02-05-2024 22:00:00,19.10078,72.87462,NO2,NA,NA,NA
India,Maharashtra,Mumbai,"Chhatrapati Shivaji Intl. Airport (T2), Mumbai - MPCB",02-05-2024 22:00:00,19.10078,72.87462,CO,24,50,41
India,Maharashtra,Mumbai,"Deonar, Mumbai - IITM",02-05-2024 22:00:00,19.04946,72.9230,PM10,87,169,124
India,Maharashtra,Mumbai,"Kandivali East, Mumbai - MPCB",02-05-2024 22:00:00,19.205800,72.868200,SO2,7,8,8
India,Maharashtra,Mumbai,"Kandivali West, Mumbai - BMC",02-05-2024 22:00:00,19.215859,72.831718,NH3,2,3,2
India,Maharashtra,Mumbai,"Kandivali West, Mumbai - BMC",02-05-2024 22:00:00,19.215859,72.831718,SO2,1,5,2
India,Maharashtra,Mumbai,"Kandivali West, Mumbai - BMC",02-05-2024 22:00:00,19.215859,72.831718,CO,6,16,13
India,Maharashtra,Mumbai,"Kherwadi_Bandra East, Mumbai - MPCB",02-05-2024 22:00:00,19.0632143,72.8456324,PM2.5,20,86,43
India,Maharashtra,Mumbai,"Kherwadi_Bandra East, Mumbai - MPCB",02-05-2024 22:00:00,19.0632143,72.8456324,PM10,68,140,102
India,Maharashtra,Mumbai,"Kherwadi_Bandra East, Mumbai - MPCB",02-05-2024 22:00:00,19.0632143,72.8456324,SO2,14,16,15
India,Maharashtra,Mumbai,"Kherwadi_Bandra East, Mumbai - MPCB",02-05-2024 22:00:00,19.0632143,72.8456324,CO,6,19,10
India,Maharashtra,Mumbai,"Khindipada-Bhandup West, Mumbai - IITM",02-05-2024 22:00:00,19.1653323,72.922099,NH3,1,5,2
India,Maharashtra,Mumbai,"Khindipada-Bhandup West, Mumbai - IITM",02-05-2024 22:00:00,19.1653323,72.922099,OZONE,2,27,18
India,Maharashtra,Mumbai,"Kurla, Mumbai - MPCB",02-05-2024 22:00:00,19.0863,72.8888,PM2.5,21,123,57
India,Maharashtra,Mumbai,"Kurla, Mumbai - MPCB",02-05-2024 22:00:00,19.0863,72.8888,PM10,52,218,120
India,Maharashtra,Mumbai,"Kurla, Mumbai - MPCB",02-05-2024 22:00:00,19.0863,72.8888,CO,1,20,6
India,Maharashtra,Mumbai,"Kurla, Mumbai - MPCB",02-05-2024 22:00:00,19.0863,72.8888,OZONE,27,31,29
India,Maharashtra,Mumbai,"Mazgaon, Mumbai - IITM",02-05-2024 22:00:00,18.96702,72.84214,PM2.5,32,94,47
India,Maharashtra,Mumbai,"Mazgaon, Mumbai - IITM",02-05-2024 22:00:00,18.96702,72.84214,OZONE,44,106,73
India,Maharashtra,Mumbai,"Mulund West, Mumbai - MPCB",02-05-2024 22:00:00,19.1750,72.9419,SO2,12,13,13
India,Maharashtra,Mumbai,"Navy Nagar-Colaba, Mumbai - IITM",02-05-2024 22:00:00,18.897756,72.813320,CO,17,53,22
India,Maharashtra,Mumbai,"Navy Nagar-Colaba, Mumbai - IITM",02-05-2024 22:00:00,18.897756,72.813320,OZONE,49,121,94
India,Maharashtra,Mumbai,"Powai, Mumbai - MPCB",02-05-2024 22:00:00,19.137500,72.915056,NH3,1,2,1
India,Maharashtra,Mumbai,"Siddharth Nagar-Worli, Mumbai - IITM",02-05-2024 22:00:00,19.000083,72.813993,NO2,18,29,23
India,Maharashtra,Mumbai,"Sion, Mumbai - MPCB",02-05-2024 22:00:00,19.047000,72.874600,OZONE,59,70,63
India,Maharashtra,Mumbai,"Vasai West, Mumbai - MPCB",02-05-2024 22:00:00,19.383200,72.820400,NH3,4,4,4
India,Maharashtra,Mumbai,"Vile Parle West, Mumbai - MPCB",02-05-2024 22:00:00,19.10861,72.83622,PM2.5,NA,NA,NA
India,Maharashtra,Mumbai,"Worli, Mumbai - MPCB",02-05-2024 22:00:00,18.9936162,72.8128113,NO2,15,16,15
India,Maharashtra,Nagpur,"Ambazari, Nagpur - MPCB",02-05-2024 22:00:00,21.121801,79.04952,NH3,2,13,4
India,Maharashtra,Nagpur,"Mahal, Nagpur - MPCB",02-05-2024 22:00:00,21.14472,79.107595,NO2,13,128,57
India,Maharashtra,Nanded,"Sneh Nagar, Nanded - MPCB",02-05-2024 22:00:00,19.173852,77.296291,PM2.5,38,137,70
India,Maharashtra,Nanded,"Sneh Nagar, Nanded - MPCB",02-05-2024 22:00:00,19.173852,77.296291,NH3,1,2,1
India,Maharashtra,Nanded,"Sneh Nagar, Nanded - MPCB",02-05-2024 22:00:00,19.173852,77.296291,SO2,11,18,16
India,Maharashtra,Nashik,"Hirawadi, Nashik - MPCB",02-05-2024 22:00:00,20.021503,73.813844,NO2,6,66,15
India,Maharashtra,Nashik,"Hirawadi, Nashik - MPCB",02-05-2024 22:00:00,20.021503,73.813844,CO,12,34,18
India,Maharashtra,Nashik,"MIDC Ambad, Nashik - MPCB",02-05-2024 22:00:00,19.950220,73.731480,NH3,2,11,5
India,Maharashtra,Nashik,"Pandav Nagari, Nashik - MPCB",02-05-2024 22:00:00,19.9591346,73.7788008,NO2,8,81,18
India,Maharashtra,Nashik,"Pandav Nagari, Nashik - MPCB",02-05-2024 22:00:00,19.9591346,73.7788008,SO2,10,28,18
India,Maharashtra,Navi Mumbai,"Mahape, Navi Mumbai - MPCB",02-05-2024 22:00:00,19.1135051,73.008978,SO2,22,23,23
India,Maharashtra,Navi Mumbai,"Mahape, Navi Mumbai - MPCB",02-05-2024 22:00:00,19.1135051,73.008978,CO,107,111,108
India,Maharashtra,Navi Mumbai,"Nerul, Navi Mumbai - MPCB",02-05-2024 22:00:00,19.008751,73.016620,PM2.5,36,100,63
India,Maharashtra,Navi Mumbai,"Sanpada, Navi Mumbai - MPCB",02-05-2024 22:00:00,19.0575752,73.0151367,NH3,1,7,3
India,Maharashtra,Navi Mumbai,"Sector-19A Nerul, Navi Mumbai - IITM",02-05-2024 22:00:00,19.044,73.0325,NO2,17,37,23
India,Maharashtra,Parbhani,"Masoom Colony, Parbhani - MPCB",02-05-2024 22:00:00,19.265594,76.761463,PM2.5,15,115,65
India,Maharashtra,Parbhani,"Masoom Colony, Parbhani - MPCB",02-05-2024 22:00:00,19.265594,76.761463,SO2,1,9,5
India,Maharashtra,Parbhani,"Masoom Colony, Parbhani - MPCB",02-05-2024 22:00:00,19.265594,76.761463,CO,12,66,27
India,Maharashtra,Pimpri-Chinchwad,"Gavalinagar, Pimpri Chinchwad - MPCB",02-05-2024 22:00:00,18.63673,73.82487,PM10,59,106,81
India,Maharashtra,Pimpri-Chinchwad,"Park Street Wakad, Pimpri Chinchwad - MPCB",02-05-2024 22:00:00,18.59051,73.77946,SO2,2,13,6
India,Maharashtra,Pimpri-Chinchwad,"Park Street Wakad, Pimpri Chinchwad - MPCB",02-05-2024 22:00:00,18.59051,73.77946,OZONE,4,103,80
India,Maharashtra,Pimpri-Chinchwad,"Thergaon, Pimpri Chinchwad - MPCB",02-05-2024 22:00:00,18.616318,73.765797,PM10,NA,NA,NA
India,Maharashtra,Pimpri-Chinchwad,"Thergaon, Pimpri Chinchwad - MPCB",02-05-2024 22:00:00,18.616318,73.765797,OZONE,25,190,131
India,Maharashtra,Pune,"Alandi, Pune - IITM",02-05-2024 22:00:00,18.675076,73.892743,PM10,40,116,89
India,Maharashtra,Pune,"Bhosari, Pune - IITM",02-05-2024 22:00:00,18.640051,73.848956,PM2.5,25,48,37
India,Maharashtra,Pune,"Karve Road, Pune - MPCB",02-05-2024 22:00:00,18.5011743,73.8165527,PM10,42,179,91
India,Maharashtra,Pune,"Katraj Dairy, Pune - MPCB",02-05-2024 22:00:00,18.454450,73.854155,OZONE,34,58,50
India,Maharashtra,Pune,"Mhada Colony, Pune - IITM",02-05-2024 22:00:00,18.573040,73.927715,PM2.5,31,62,47
India,Maharashtra,Pune,"Revenue Colony-Shivajinagar, Pune - IITM",02-05-2024 22:00:00,18.530085,73.849598,NO2,61,125,94
India,Maharashtra,Pune,"Transport Nagar-Nigdi, Pune - IITM",02-05-2024 22:00:00,18.664282,73.763966,PM10,88,88,88
India,Maharashtra,Pune,"Transport Nagar-Nigdi, Pune - IITM",02-05-2024 22:00:00,18.664282,73.763966,CO,22,43,36
India,Maharashtra,Sangli,"Vijay Nagar, Sangli - MPCB",02-05-2024 22:00:00, 16.5038,74.3623,NH3,1,3,2
India,Maharashtra,Solapur,"Dnyaneshwar Nagar, Solapur - MPCB",02-05-2024 22:00:00,17.6336264,75.9132495,PM10,83,137,106
India,Maharashtra,Solapur,"Ratandeep Housing Society, Solapur - MPCB",02-05-2024 22:00:00,17.65439,75.90649,NO2,25,152,56
India,Maharashtra,Solapur,"Ratandeep Housing Society, Solapur - MPCB",02-05-2024 22:00:00,17.65439,75.90649,CO,12,125,60
India,Maharashtra,Solapur,"Ratandeep Housing Society, Solapur - MPCB",02-05-2024 22:00:00,17.65439,75.90649,OZONE,3,113,63
India,Maharashtra,Solapur,"Solapur, Solapur - MPCB",02-05-2024 22:00:00,17.6599188,75.9063906,NO2,54,55,55
India,Maharashtra,Solapur,"Solapur, Solapur - MPCB",02-05-2024 22:00:00,17.6599188,75.9063906,SO2,103,106,104
India,Maharashtra,Thane,"Kasarvadavali, Thane - MPCB",02-05-2024 22:00:00,19.26777,72.97182,NO2,18,46,31
India,Maharashtra,Thane,"Kasarvadavali, Thane - MPCB",02-05-2024 22:00:00,19.26777,72.97182,OZONE,9,106,72
India,Maharashtra,Thane,"Pimpleshwar Mandir, Thane - MPCB",02-05-2024 22:00:00,19.192056,72.9585188,SO2,2,35,9
India,Maharashtra,Thane,"Pimpleshwar Mandir, Thane - MPCB",02-05-2024 22:00:00,19.192056,72.9585188,CO,6,72,43
India,Maharashtra,Thane,"Pimpleshwar Mandir, Thane - MPCB",02-05-2024 22:00:00,19.192056,72.9585188,OZONE,8,89,51
India,Maharashtra,Thane,"Upvan Fort, Thane - MPCB",02-05-2024 22:00:00,19.222279,72.957979,PM2.5,18,96,51
India,Maharashtra,Thane,"Upvan Fort, Thane - MPCB",02-05-2024 22:00:00,19.222279,72.957979,PM10,56,115,88
India,Maharashtra,Ulhasnagar,"Sidhi Vinayak Nagar, Ulhasnagar - MPCB",02-05-2024 22:00:00,19.235581,73.159121,NH3,1,2,2
India,Maharashtra,Ulhasnagar,"Sidhi Vinayak Nagar, Ulhasnagar - MPCB",02-05-2024 22:00:00,19.235581,73.159121,OZONE,21,297,136
India,Maharashtra,Virar,"Bolinj, Virar - MPCB",02-05-2024 22:00:00,19.4458210,72.7988231,NH3,9,9,9
India,Maharashtra,Virar,"Bolinj, Virar - MPCB",02-05-2024 22:00:00,19.4458210,72.7988231,SO2,4,9,6
India,Maharashtra,Virar,"Bolinj, Virar - MPCB",02-05-2024 22:00:00,19.4458210,72.7988231,CO,7,102,28
India,Maharashtra,Virar,"Bolinj, Virar - MPCB",02-05-2024 22:00:00,19.4458210,72.7988231,OZONE,18,111,80
India,Manipur,Imphal,"DM College of Science, Imphal - Manipur PCB",02-05-2024 22:00:00,24.8207389,93.9423085,PM10,11,57,23
India,Manipur,Imphal,"Manipur University, Imphal - Manipur PCB",02-05-2024 22:00:00,24.7524239,93.9286218,NO2,NA,NA,NA
India,Manipur,Imphal,"Manipur University, Imphal - Manipur PCB",02-05-2024 22:00:00,24.7524239,93.9286218,CO,NA,NA,NA
India,Nagaland,Kohima,"PWD Juction, Kohima - NPCB",02-05-2024 22:00:00,25.6635413,94.0989878,PM10,43,111,83
India,Nagaland,Kohima,"PWD Juction, Kohima - NPCB",02-05-2024 22:00:00,25.6635413,94.0989878,NO2,3,5,3
India,Nagaland,Kohima,"PWD Juction, Kohima - NPCB",02-05-2024 22:00:00,25.6635413,94.0989878,SO2,33,35,34
India,Odisha,Barbil,"Forest Office, Barbil - OSPCB",02-05-2024 22:00:00,22.1166054,85.3945546,PM2.5,43,190,97
India,Odisha,Barbil,"Forest Office, Barbil - OSPCB",02-05-2024 22:00:00,22.1166054,85.3945546,SO2,10,23,15
India,Odisha,Baripada,"Meher Colony, Baripada - OSPCB",02-05-2024 22:00:00,21.941841,86.728318,PM2.5,NA,NA,NA
India,Odisha,Baripada,"Meher Colony, Baripada - OSPCB",02-05-2024 22:00:00,21.941841,86.728318,PM10,NA,NA,NA
India,Odisha,Baripada,"Meher Colony, Baripada - OSPCB",02-05-2024 22:00:00,21.941841,86.728318,NH3,NA,NA,NA
India,Odisha,Bileipada,"Tata Township, Bileipada - OSPCB",02-05-2024 22:00:00,22.06156703,85.47409613,PM2.5,90,192,137
India,Odisha,Bileipada,"Tata Township, Bileipada - OSPCB",02-05-2024 22:00:00,22.06156703,85.47409613,SO2,23,66,40
India,Odisha,Bileipada,"Tata Township, Bileipada - OSPCB",02-05-2024 22:00:00,22.06156703,85.47409613,OZONE,30,42,38
India,Odisha,Brajrajnagar,"GM Office, Brajrajnagar - OSPCB",02-05-2024 22:00:00,21.8004996,83.8396977,PM10,45,164,76
India,Odisha,Brajrajnagar,"GM Office, Brajrajnagar - OSPCB",02-05-2024 22:00:00,21.8004996,83.8396977,NO2,14,18,16
India,Odisha,Brajrajnagar,"GM Office, Brajrajnagar - OSPCB",02-05-2024 22:00:00,21.8004996,83.8396977,SO2,23,31,28
India,Odisha,Brajrajnagar,"GM Office, Brajrajnagar - OSPCB",02-05-2024 22:00:00,21.8004996,83.8396977,OZONE,1,120,55
India,Odisha,Byasanagar,"Ferro Chrome Colony, Byasanagar - OSPCB",02-05-2024 22:00:00,20.94185,86.11510,NH3,2,3,2
India,Odisha,Cuttack,"CDA Area, Cuttack - OSPCB",02-05-2024 22:00:00,20.48891     ,85.84768     ,NO2,11,24,16
India,Odisha,Cuttack,"CDA Area, Cuttack - OSPCB",02-05-2024 22:00:00,20.48891     ,85.84768     ,NH3,1,2,1
India,Odisha,Keonjhar,"Jagamohanpur, Keonjhar - OSPCB",02-05-2024 22:00:00,21.643900,85.599355,OZONE,12,46,26
India,Odisha,Nayagarh,"Dabuna, Nayagarh - OSPCB",02-05-2024 22:00:00,21.847279,85.416905,NO2,3,3,3
India,Odisha,Rairangpur,"Divisional Forest Office, Rairangpur - OSPCB",02-05-2024 22:00:00,22.265816,86.174829,NO2,1,2,1
India,Odisha,Rourkela,"Raghunathpali, Rourkela - OSPCB",02-05-2024 22:00:00,22.220833,84.809444,PM2.5,144,360,259
India,Odisha,Rourkela,"Raghunathpali, Rourkela - OSPCB",02-05-2024 22:00:00,22.220833,84.809444,SO2,7,8,7
India,Odisha,Tensa,"Barsua Iron Ore Mines, Tensa - OSPCB",02-05-2024 22:00:00,21.869985,85.167016,NH3,1,2,2
India,Odisha,Tensa,"Barsua Iron Ore Mines, Tensa - OSPCB",02-05-2024 22:00:00,21.869985,85.167016,CO,12,54,24
India,Puducherry,Puducherry,"Jawahar Nagar, Puducherry - PPCC",02-05-2024 22:00:00,11.9309,79.8027,NH3,2,5,3
India,Puducherry,Puducherry,"Jawahar Nagar, Puducherry - PPCC",02-05-2024 22:00:00,11.9309,79.8027,SO2,2,13,8
India,Punjab,Bathinda,"Hardev Nagar, Bathinda - PPCB",02-05-2024 22:00:00,30.233011,74.907758,PM2.5,16,162,74
India,Punjab,Bathinda,"Hardev Nagar, Bathinda - PPCB",02-05-2024 22:00:00,30.233011,74.907758,NO2,30,33,32
India,Punjab,Jalandhar,"Civil Line, Jalandhar - PPCB",02-05-2024 22:00:00,31.321907,75.578914,NH3,2,5,4
India,Punjab,Khanna,"Kalal Majra, Khanna - PPCB",02-05-2024 22:00:00,30.736056 ,76.209694,NO2,34,41,39
India,Punjab,Ludhiana,"Punjab Agricultural University, Ludhiana - PPCB",02-05-2024 22:00:00,30.9028,75.8086,SO2,7,20,11
India,Punjab,Ludhiana,"Punjab Agricultural University, Ludhiana - PPCB",02-05-2024 22:00:00,30.9028,75.8086,OZONE,14,68,49
India,Punjab,Mandi Gobindgarh,"RIMT University, Mandi Gobindgarh - PPCB",02-05-2024 22:00:00,30.649961,76.331442,PM2.5,42,359,116
India,Punjab,Mandi Gobindgarh,"RIMT University, Mandi Gobindgarh - PPCB",02-05-2024 22:00:00,30.649961,76.331442,CO,11,41,24
India,Punjab,Patiala,"Model Town, Patiala - PPCB",02-05-2024 22:00:00,30.349388,76.366642,PM2.5,62,122,79
India,Punjab,Patiala,"Model Town, Patiala - PPCB",02-05-2024 22:00:00,30.349388,76.366642,OZONE,17,77,56
India,Punjab,Rupnagar,"Ratanpura, Rupnagar - Ambuja Cements",02-05-2024 22:00:00,31.0325454,76.5623046,SO2,8,10,9
India,Rajasthan,Ajmer,"Civil Lines,  Ajmer - RSPCB",02-05-2024 22:00:00,26.470859,74.646594,NO2,7,11,9
India,Rajasthan,Banswara,"Rati Talai, Banswara - RSPCB",02-05-2024 22:00:00,23.555190,74.440010,OZONE,9,155,84
India,Rajasthan,Baran,"Bamboliya, Baran - RSPCB",02-05-2024 22:00:00,25.106006,76.469948,PM10,114,262,154
India,Rajasthan,Barmer,"Railway Colony, Barmer - RSPCB",02-05-2024 22:00:00,25.747299,71.393989,SO2,4,13,6
India,Rajasthan,Barmer,"Railway Colony, Barmer - RSPCB",02-05-2024 22:00:00,25.747299,71.393989,OZONE,21,122,88
India,Rajasthan,Bharatpur,"Krishna Nagar, Bharatpur - RSPCB",02-05-2024 22:00:00,27.215415,77.50873,NH3,2,7,4
India,Rajasthan,Bhilwara,"Pratap Nagar, Bhilwara - RSPCB",02-05-2024 22:00:00,25.339605,74.618883,PM2.5,37,184,62
India,Rajasthan,Bhilwara,"Pratap Nagar, Bhilwara - RSPCB",02-05-2024 22:00:00,25.339605,74.618883,SO2,12,51,19
India,Rajasthan,Bhiwadi,"RIICO Ind. Area III, Bhiwadi - RSPCB",02-05-2024 22:00:00,28.194909,76.862296,PM10,137,304,209
India,Rajasthan,Bhiwadi,"Vasundhara Nagar_UIT, Bhiwadi - RSPCB",02-05-2024 22:00:00,28.207266,76.829265,OZONE,35,150,102
India,Rajasthan,Bikaner,"MM Ground, Bikaner - RSPCB",02-05-2024 22:00:00,28.018792,73.292658,NO2,24,137,55
India,Rajasthan,Bikaner,"MM Ground, Bikaner - RSPCB",02-05-2024 22:00:00,28.018792,73.292658,SO2,1,11,4
India,Rajasthan,Bikaner,"MM Ground, Bikaner - RSPCB",02-05-2024 22:00:00,28.018792,73.292658,CO,16,132,56
India,Rajasthan,Bundi,"New Colony, Bundi - RSPCB",02-05-2024 22:00:00,25.435774,75.644272,NO2,5,68,16
India,Rajasthan,Dausa,"Khatikan Mohalla, Dausa - RSPCB",02-05-2024 22:00:00,26.895552,76.334753,NO2,23,88,54
India,Rajasthan,Dausa,"Khatikan Mohalla, Dausa - RSPCB",02-05-2024 22:00:00,26.895552,76.334753,NH3,3,10,5
India,Rajasthan,Dausa,"Khatikan Mohalla, Dausa - RSPCB",02-05-2024 22:00:00,26.895552,76.334753,CO,34,107,79
India,Rajasthan,Dholpur,"Raja Ganj, Dholpur - RSPCB",02-05-2024 22:00:00,26.699557,77.898881,PM10,109,210,157
India,Rajasthan,Dholpur,"Raja Ganj, Dholpur - RSPCB",02-05-2024 22:00:00,26.699557,77.898881,NO2,29,73,44
India,Rajasthan,Dholpur,"Raja Ganj, Dholpur - RSPCB",02-05-2024 22:00:00,26.699557,77.898881,SO2,6,7,7
India,Rajasthan,Dholpur,"Raja Ganj, Dholpur - RSPCB",02-05-2024 22:00:00,26.699557,77.898881,CO,13,50,27
India,Rajasthan,Dungarpur,"Bhoiwada, Dungarpur - RSPCB",02-05-2024 22:00:00,23.837789,73.714926,NH3,6,7,6
India,Rajasthan,Dungarpur,"Bhoiwada, Dungarpur - RSPCB",02-05-2024 22:00:00,23.837789,73.714926,OZONE,17,96,80
India,Rajasthan,Hanumangarh,"Housing Board, Hanumangarh - RSPCB",02-05-2024 22:00:00,29.610750,74.283608,SO2,2,35,12
India,Rajasthan,Jaipur,"Adarsh Nagar, Jaipur - RSPCB",02-05-2024 22:00:00,26.902909,75.836858,CO,14,61,49
India,Rajasthan,Jaipur,"Mansarovar Sector-12, Jaipur - RSPCB",02-05-2024 22:00:00,26.843698,75.766894,PM2.5,20,71,40
India,Rajasthan,Jaipur,"Mansarovar Sector-12, Jaipur - RSPCB",02-05-2024 22:00:00,26.843698,75.766894,NH3,4,7,5
India,Rajasthan,Jaipur,"RIICO Sitapura, Jaipur - RSPCB",02-05-2024 22:00:00,26.786682,75.827928,NH3,1,60,18
India,Rajasthan,Jaipur,"Shastri Nagar, Jaipur - RSPCB",02-05-2024 22:00:00,26.9502929,75.730943,NH3,5,23,8
India,Rajasthan,Jaisalmer,"Sadar Bazar, Jaisalmer - RSPCB",02-05-2024 22:00:00,26.912329,70.909168,PM10,66,144,96
India,Rajasthan,Jaisalmer,"Sadar Bazar, Jaisalmer - RSPCB",02-05-2024 22:00:00,26.912329,70.909168,NH3,3,9,5
India,Rajasthan,Jaisalmer,"Sadar Bazar, Jaisalmer - RSPCB",02-05-2024 22:00:00,26.912329,70.909168,OZONE,70,125,101
India,Rajasthan,Jalore,"Mudtra Sili, Jalore - RSPCB",02-05-2024 22:00:00,25.344694,72.626208,CO,11,112,45
India,Rajasthan,Jhalawar,"Rajlaxmi Nagar, Jhalawar - RSPCB",02-05-2024 22:00:00,24.588397,76.172782,PM2.5,41,142,79
India,Rajasthan,Jhalawar,"Rajlaxmi Nagar, Jhalawar - RSPCB",02-05-2024 22:00:00,24.588397,76.172782,PM10,125,241,152
India,Rajasthan,Jhalawar,"Rajlaxmi Nagar, Jhalawar - RSPCB",02-05-2024 22:00:00,24.588397,76.172782,NH3,1,2,2
India,Rajasthan,Jhalawar,"Rajlaxmi Nagar, Jhalawar - RSPCB",02-05-2024 22:00:00,24.588397,76.172782,SO2,6,20,10
India,Rajasthan,Jodhpur,"Collectorate, Jodhpur - RSPCB",02-05-2024 22:00:00,26.268249,73.0193853,NO2,24,26,25
India,Rajasthan,Jodhpur,"Digari Kalan, Jodhpur - RSPCB",02-05-2024 22:00:00,26.295810,73.082283,NH3,2,9,3
India,Rajasthan,Jodhpur,"Digari Kalan, Jodhpur - RSPCB",02-05-2024 22:00:00,26.295810,73.082283,SO2,2,8,5
India,Rajasthan,Jodhpur,"Jhalamand, Jodhpur - RSPCB",02-05-2024 22:00:00,26.215415,73.070156,PM2.5,20,191,60
India,Rajasthan,Jodhpur,"Jhalamand, Jodhpur - RSPCB",02-05-2024 22:00:00,26.215415,73.070156,NH3,3,12,6
India,Rajasthan,Jodhpur,"Mandor, Jodhpur - RSPCB",02-05-2024 22:00:00,26.358805,73.047444,NO2,23,62,36
India,Rajasthan,Jodhpur,"Samrat Ashok Udhyan, Jodhpur - RSPCB",02-05-2024 22:00:00,26.253384,72.976571,PM2.5,11,73,32
India,Rajasthan,Jodhpur,"Samrat Ashok Udhyan, Jodhpur - RSPCB",02-05-2024 22:00:00,26.253384,72.976571,NH3,2,4,3
India,Rajasthan,Jodhpur,"Samrat Ashok Udhyan, Jodhpur - RSPCB",02-05-2024 22:00:00,26.253384,72.976571,SO2,4,13,6
India,Rajasthan,Karauli,"Satyawati Vihar, Karauli - RSPCB",02-05-2024 22:00:00,26.506177,77.025989,NO2,10,67,21
India,Rajasthan,Karauli,"Satyawati Vihar, Karauli - RSPCB",02-05-2024 22:00:00,26.506177,77.025989,SO2,18,30,23
India,Rajasthan,Kota,"Dhanmandi, Kota - RSPCB",02-05-2024 22:00:00,25.164090,75.858137,NO2,14,93,39
India,Rajasthan,Kota,"Dhanmandi, Kota - RSPCB",02-05-2024 22:00:00,25.164090,75.858137,SO2,6,97,13
India,Rajasthan,Kota,"Nayapura, Kota - RSPCB",02-05-2024 22:00:00,25.196024,75.855668,CO,1,110,46
India,Rajasthan,Nagaur,"Karni Colony, Nagaur - RSPCB",02-05-2024 22:00:00,27.213494,73.734444,NH3,5,11,8
India,Rajasthan,Nagaur,"Karni Colony, Nagaur - RSPCB",02-05-2024 22:00:00,27.213494,73.734444,OZONE,51,98,76
India,Rajasthan,Pali,"Indira Colony Vistar, Pali - RSPCB",02-05-2024 22:00:00,25.771061, 73.340227,NO2,18,60,29
India,Rajasthan,Pali,"Indira Colony Vistar, Pali - RSPCB",02-05-2024 22:00:00,25.771061, 73.340227,SO2,7,9,8
India,Rajasthan,Pratapgarh,"Pragati Nagar, Pratapgarh - RSPCB",02-05-2024 22:00:00,24.041198,74.780702,PM10,82,129,104
India,Rajasthan,Pratapgarh,"Pragati Nagar, Pratapgarh - RSPCB",02-05-2024 22:00:00,24.041198,74.780702,NO2,4,22,12
India,Rajasthan,Pratapgarh,"Pragati Nagar, Pratapgarh - RSPCB",02-05-2024 22:00:00,24.041198,74.780702,NH3,2,4,3
India,Rajasthan,Pratapgarh,"Pragati Nagar, Pratapgarh - RSPCB",02-05-2024 22:00:00,24.041198,74.780702,CO,5,24,10
India,Rajasthan,Pratapgarh,"Pragati Nagar, Pratapgarh - RSPCB",02-05-2024 22:00:00,24.041198,74.780702,OZONE,65,148,138
India,Rajasthan,Rajsamand,"Dhoinda, Rajsamand - RSPCB",02-05-2024 22:00:00,25.036360,73.883502,NO2,2,32,11
India,Rajasthan,Rajsamand,"Dhoinda, Rajsamand - RSPCB",02-05-2024 22:00:00,25.036360,73.883502,NH3,1,4,2
India,Rajasthan,Sawai Madhopur,"Sahu Nagar, Sawai Madhopur - RSPCB",02-05-2024 22:00:00,26.031443,76.359327,CO,2,54,20
India,Rajasthan,Sawai Madhopur,"Sahu Nagar, Sawai Madhopur - RSPCB",02-05-2024 22:00:00,26.031443,76.359327,OZONE,11,130,97
India,Rajasthan,Sikar,"Radhakishan Pura, Sikar - RSPCB",02-05-2024 22:00:00,27.608912,75.153302,PM2.5,22,99,42
India,Rajasthan,Sikar,"Radhakishan Pura, Sikar - RSPCB",02-05-2024 22:00:00,27.608912,75.153302,NH3,1,1,1
India,Rajasthan,Sikar,"Radhakishan Pura, Sikar - RSPCB",02-05-2024 22:00:00,27.608912,75.153302,SO2,1,6,3
India,Rajasthan,Sikar,"Radhakishan Pura, Sikar - RSPCB",02-05-2024 22:00:00,27.608912,75.153302,CO,7,114,43
India,Rajasthan,Sirohi,"Vedhaynath Colony, Sirohi - RSPCB",02-05-2024 22:00:00,24.885261,72.857549,OZONE,6,131,104
India,Rajasthan,Sri Ganganagar,"Old City, Sri Ganganagar - RSPCB",02-05-2024 22:00:00,29.931624,73.864511,NO2,28,151,56
India,Rajasthan,Sri Ganganagar,"Old City, Sri Ganganagar - RSPCB",02-05-2024 22:00:00,29.931624,73.864511,NH3,13,36,21
India,TamilNadu,Ariyalur,"Keelapalur, Ariyalur - TNPCB",02-05-2024 22:00:00,11.06825,79.07033,PM10,12,64,33
India,TamilNadu,Ariyalur,"Keelapalur, Ariyalur - TNPCB",02-05-2024 22:00:00,11.06825,79.07033,NO2,5,7,6
India,TamilNadu,Ariyalur,"Keelapalur, Ariyalur - TNPCB",02-05-2024 22:00:00,11.06825,79.07033,SO2,26,57,31
India,TamilNadu,Chennai,"Alandur Bus Depot, Chennai - CPCB",02-05-2024 22:00:00,12.9099161,80.1076538,PM10,NA,NA,NA
India,TamilNadu,Chennai,"Alandur Bus Depot, Chennai - CPCB",02-05-2024 22:00:00,12.9099161,80.1076538,NO2,NA,NA,NA
India,TamilNadu,Chennai,"Alandur Bus Depot, Chennai - CPCB",02-05-2024 22:00:00,12.9099161,80.1076538,SO2,NA,NA,NA
India,TamilNadu,Chennai,"Alandur Bus Depot, Chennai - CPCB",02-05-2024 22:00:00,12.9099161,80.1076538,OZONE,4,30,6
India,TamilNadu,Chennai,"Arumbakkam, Chennai - TNPCB",02-05-2024 22:00:00,13.0664,80.2112 ,PM10,8,92,44
India,TamilNadu,Chennai,"Kodungaiyur, Chennai - TNPCB",02-05-2024 22:00:00,13.1278,80.2642,PM2.5,NA,NA,NA
India,TamilNadu,Chennai,"Kodungaiyur, Chennai - TNPCB",02-05-2024 22:00:00,13.1278,80.2642,PM10,NA,NA,NA
India,TamilNadu,Chennai,"Kodungaiyur, Chennai - TNPCB",02-05-2024 22:00:00,13.1278,80.2642,NO2,NA,NA,NA
India,TamilNadu,Chennai,"Manali, Chennai - CPCB",02-05-2024 22:00:00,13.164544,80.26285,NO2,6,10,9
India,TamilNadu,Chennai,"Manali, Chennai - CPCB",02-05-2024 22:00:00,13.164544,80.26285,SO2,2,109,13
India,TamilNadu,Chennai,"Perungudi, Chennai - TNPCB",02-05-2024 22:00:00,12.9533,80.2357,PM2.5,2,28,14
India,TamilNadu,Chennai,"Royapuram, Chennai - TNPCB",02-05-2024 22:00:00,13.1036,80.2909,PM10,7,118,40
India,TamilNadu,Chennai,"Royapuram, Chennai - TNPCB",02-05-2024 22:00:00,13.1036,80.2909,NH3,NA,NA,NA
India,TamilNadu,Chennai,"Velachery Res. Area, Chennai - CPCB",02-05-2024 22:00:00,13.0052189,80.2398125,PM2.5,14,35,22
India,TamilNadu,Chennai,"Velachery Res. Area, Chennai - CPCB",02-05-2024 22:00:00,13.0052189,80.2398125,NO2,11,21,17
India,TamilNadu,Chennai,"Velachery Res. Area, Chennai - CPCB",02-05-2024 22:00:00,13.0052189,80.2398125,NH3,11,15,13
India,TamilNadu,Cuddalore,"Semmandalam, Cuddalore - TNPCB",02-05-2024 22:00:00,11.7637683,79.7499835,NH3,1,3,3
India,TamilNadu,Cuddalore,"Semmandalam, Cuddalore - TNPCB",02-05-2024 22:00:00,11.7637683,79.7499835,OZONE,1,2,1
India,TamilNadu,Ooty,"Bombay Castel, Ooty - TNPCB",02-05-2024 22:00:00,11.4068288,76.7138973,NO2,NA,NA,NA
India,TamilNadu,Palkalaiperur,"Bharathidasan University, Palkalaiperur - TNPCB",02-05-2024 22:00:00,10.681158,78.741746,PM10,NA,NA,NA
India,TamilNadu,Palkalaiperur,"Bharathidasan University, Palkalaiperur - TNPCB",02-05-2024 22:00:00,10.681158,78.741746,CO,2,14,4
India,TamilNadu,Salem,"Sona College of Technology, Salem - TNPCB",02-05-2024 22:00:00,11.679111,78.125052,PM2.5,NA,NA,NA
India,TamilNadu,Salem,"Sona College of Technology, Salem - TNPCB",02-05-2024 22:00:00,11.679111,78.125052,NO2,NA,NA,NA
India,TamilNadu,Salem,"Sona College of Technology, Salem - TNPCB",02-05-2024 22:00:00,11.679111,78.125052,CO,53,62,56
India,TamilNadu,Salem,"Sona College of Technology, Salem - TNPCB",02-05-2024 22:00:00,11.679111,78.125052,OZONE,3,4,3
India,TamilNadu,Thoothukudi,"Meelavittan, Thoothukudi - TNPCB",02-05-2024 22:00:00,8.816428 ,78.099039,CO,4,104,32
India,TamilNadu,Thoothukudi,"Meelavittan, Thoothukudi - TNPCB",02-05-2024 22:00:00,8.816428 ,78.099039,OZONE,22,103,56
India,TamilNadu,Tirupur,"Kumaran College, Tirupur - TNPCB",02-05-2024 22:00:00,11.0973603,77.3228673,PM10,NA,NA,NA
India,TamilNadu,Tirupur,"Kumaran College, Tirupur - TNPCB",02-05-2024 22:00:00,11.0973603,77.3228673,NO2,NA,NA,NA
India,TamilNadu,Tirupur,"Kumaran College, Tirupur - TNPCB",02-05-2024 22:00:00,11.0973603,77.3228673,CO,NA,NA,NA
India,TamilNadu,Virudhunagar,"Collectorate Office, Virudhunagar - TNPCB",02-05-2024 22:00:00,9.559382,77.948828,NO2,NA,NA,NA
India,TamilNadu,Virudhunagar,"Collectorate Office, Virudhunagar - TNPCB",02-05-2024 22:00:00,9.559382,77.948828,NH3,NA,NA,NA
India,Telangana,Hyderabad,"Bollaram Industrial Area, Hyderabad - TSPCB",02-05-2024 22:00:00,17.540891,78.358528,PM2.5,50,167,93
India,Telangana,Hyderabad,"Bollaram Industrial Area, Hyderabad - TSPCB",02-05-2024 22:00:00,17.540891,78.358528,PM10,100,152,128
India,Telangana,Hyderabad,"ECIL Kapra, Hyderabad - TSPCB",02-05-2024 22:00:00,17.470431,78.566959,PM10,62,438,98
India,Telangana,Hyderabad,"ECIL Kapra, Hyderabad - TSPCB",02-05-2024 22:00:00,17.470431,78.566959,OZONE,15,66,43
India,Telangana,Hyderabad,"ICRISAT Patancheru, Hyderabad - TSPCB",02-05-2024 22:00:00,17.518400,78.278777,NH3,2,2,2
India,Telangana,Hyderabad,"ICRISAT Patancheru, Hyderabad - TSPCB",02-05-2024 22:00:00,17.518400,78.278777,OZONE,9,41,30
India,Telangana,Hyderabad,"IITH Kandi, Hyderabad - TSPCB",02-05-2024 22:00:00,17.585705,78.126199,PM10,48,95,68
India,Telangana,Hyderabad,"IITH Kandi, Hyderabad - TSPCB",02-05-2024 22:00:00,17.585705,78.126199,OZONE,25,36,32
India,Telangana,Hyderabad,"Kompally Municipal Office, Hyderabad - TSPCB",02-05-2024 22:00:00,17.544899,78.486949,NO2,11,12,12
India,Telangana,Hyderabad,"Kompally Municipal Office, Hyderabad - TSPCB",02-05-2024 22:00:00,17.544899,78.486949,OZONE,2,66,48
India,Telangana,Hyderabad,"Nacharam_TSIIC IALA, Hyderabad - TSPCB",02-05-2024 22:00:00,17.429398,78.569354,PM2.5,39,56,53
India,Telangana,Hyderabad,"Nacharam_TSIIC IALA, Hyderabad - TSPCB",02-05-2024 22:00:00,17.429398,78.569354,SO2,20,23,21
India,Telangana,Hyderabad,"Nacharam_TSIIC IALA, Hyderabad - TSPCB",02-05-2024 22:00:00,17.429398,78.569354,OZONE,32,42,42
India,Telangana,Hyderabad,"New Malakpet, Hyderabad - TSPCB",02-05-2024 22:00:00,17.37206,78.50864,PM2.5,NA,NA,NA
India,Telangana,Hyderabad,"New Malakpet, Hyderabad - TSPCB",02-05-2024 22:00:00,17.37206,78.50864,PM10,NA,NA,NA
India,Telangana,Hyderabad,"New Malakpet, Hyderabad - TSPCB",02-05-2024 22:00:00,17.37206,78.50864,NH3,NA,NA,NA
India,Telangana,Hyderabad,"New Malakpet, Hyderabad - TSPCB",02-05-2024 22:00:00,17.37206,78.50864,CO,17,101,58
India,Telangana,Hyderabad,"Ramachandrapuram, Hyderabad - TSPCB",02-05-2024 22:00:00,17.528544,78.286195,NH3,3,3,3
India,Telangana,Hyderabad,"Sanathnagar, Hyderabad - TSPCB",02-05-2024 22:00:00,17.4559458,78.4332152,PM2.5,45,220,88
India,Telangana,Hyderabad,"Somajiguda, Hyderabad - TSPCB",02-05-2024 22:00:00,17.417094,78.457437,OZONE,10,27,18
India,Uttar_Pradesh,Agra,"Manoharpur, Agra - UPPCB",02-05-2024 22:00:00,27.23711,78.01936,NO2,26,26,26
India,Uttar_Pradesh,Agra,"Manoharpur, Agra - UPPCB",02-05-2024 22:00:00,27.23711,78.01936,NH3,2,2,2
India,Uttar_Pradesh,Agra,"Manoharpur, Agra - UPPCB",02-05-2024 22:00:00,27.23711,78.01936,OZONE,1,73,58
India,Uttar_Pradesh,Agra,"Rohta, Agra - UPPCB",02-05-2024 22:00:00,27.106972,78.000111,NH3,1,2,1
India,Uttar_Pradesh,Agra,"Rohta, Agra - UPPCB",02-05-2024 22:00:00,27.106972,78.000111,CO,6,37,14
India,Uttar_Pradesh,Agra,"Sanjay Palace, Agra - UPPCB",02-05-2024 22:00:00,27.19865833,78.00598056,PM10,24,103,48
India,Uttar_Pradesh,Agra,"Sanjay Palace, Agra - UPPCB",02-05-2024 22:00:00,27.19865833,78.00598056,CO,8,65,30
India,Uttar_Pradesh,Agra,"Sector-3B Avas Vikas Colony, Agra - UPPCB",02-05-2024 22:00:00,27.19412,77.96237,NH3,5,9,6
India,Uttar_Pradesh,Agra,"Shahjahan Garden, Agra - UPPCB",02-05-2024 22:00:00,27.169338,78.03582,NO2,22,23,22
India,Uttar_Pradesh,Baghpat,"Sardar Patel Inter College, Baghpat - UPPCB",02-05-2024 22:00:00,28.964949,77.278761,PM10,109,282,179
India,Uttar_Pradesh,Bareilly,"Rajendra Nagar, Bareilly - UPPCB",02-05-2024 22:00:00,28.38910936,79.42963708,PM10,48,101,68
India,Uttar_Pradesh,Bulandshahr,"Yamunapuram, Bulandshahr - UPPCB",02-05-2024 22:00:00,28.406963,77.849831,SO2,19,61,38
India,Uttar_Pradesh,Ghaziabad,"Indirapuram, Ghaziabad - UPPCB",02-05-2024 22:00:00,28.646233,77.358075,CO,28,60,39
India,Uttar_Pradesh,Ghaziabad,"Loni, Ghaziabad - UPPCB",02-05-2024 22:00:00,28.757294,77.278792,PM2.5,49,208,99
India,Uttar_Pradesh,Ghaziabad,"Sanjay Nagar, Ghaziabad - UPPCB",02-05-2024 22:00:00,28.685382,77.453839,NO2,21,115,43
India,Uttar_Pradesh,Ghaziabad,"Sanjay Nagar, Ghaziabad - UPPCB",02-05-2024 22:00:00,28.685382,77.453839,SO2,19,77,46
India,Uttar_Pradesh,Gorakhpur,"Madan Mohan Malaviya University of Technology, Gorakhpur - UPPCB",02-05-2024 22:00:00,26.730136,83.433859,NO2,11,11,11
India,Uttar_Pradesh,Gorakhpur,"Madan Mohan Malaviya University of Technology, Gorakhpur - UPPCB",02-05-2024 22:00:00,26.730136,83.433859,SO2,34,40,37
India,Uttar_Pradesh,Greater Noida,"Knowledge Park - III, Greater Noida - UPPCB",02-05-2024 22:00:00,28.47272,77.482000,PM2.5,56,292,112
India,Uttar_Pradesh,Greater Noida,"Knowledge Park - III, Greater Noida - UPPCB",02-05-2024 22:00:00,28.47272,77.482000,CO,57,104,73
India,Uttar_Pradesh,Greater Noida,"Knowledge Park - V, Greater Noida - UPPCB",02-05-2024 22:00:00,28.557054,77.453663,SO2,2,50,24
India,Uttar_Pradesh,Greater Noida,"Knowledge Park - V, Greater Noida - UPPCB",02-05-2024 22:00:00,28.557054,77.453663,OZONE,38,139,103
India,Uttar_Pradesh,Hapur,"Anand Vihar, Hapur - UPPCB",02-05-2024 22:00:00,28.725645,77.749675,NO2,5,64,16
India,Uttar_Pradesh,Jhansi,"Shivaji Nagar, Jhansi - UPPCB",02-05-2024 22:00:00,25.4547,78.6039,PM10,24,103,59
India,Uttar_Pradesh,Khurja,"Kalindi Kunj, Khurja - UPPCB",02-05-2024 22:00:00,28.2348927,77.8683002,PM10,48,132,89
India,Uttar_Pradesh,Khurja,"Kalindi Kunj, Khurja - UPPCB",02-05-2024 22:00:00,28.2348927,77.8683002,NO2,3,4,3
India,Uttar_Pradesh,Khurja,"Kalindi Kunj, Khurja - UPPCB",02-05-2024 22:00:00,28.2348927,77.8683002,CO,30,50,35
India,Uttar_Pradesh,Lucknow,"Kendriya Vidyalaya, Lucknow - CPCB",02-05-2024 22:00:00,26.906111,80.948222,CO,16,48,34
India,Uttar_Pradesh,Lucknow,"Kendriya Vidyalaya, Lucknow - CPCB",02-05-2024 22:00:00,26.906111,80.948222,OZONE,56,167,140
India,Uttar_Pradesh,Lucknow,"Talkatora District Industries Center, Lucknow - CPCB",02-05-2024 22:00:00,26.83399722,80.8917361,NH3,8,14,11
India,Uttar_Pradesh,Meerut,"Ganga Nagar, Meerut - UPPCB",02-05-2024 22:00:00,28.999264,77.7590354,CO,20,45,30
India,Uttar_Pradesh,Meerut,"Jai Bhim Nagar, Meerut - UPPCB",02-05-2024 22:00:00,28.9535882,77.7622941,PM2.5,18,86,51
India,Uttar_Pradesh,Meerut,"Pallavpuram Phase 2, Meerut - UPPCB",02-05-2024 22:00:00,29.063510,77.709723,PM2.5,71,304,197
India,Uttar_Pradesh,Meerut,"Pallavpuram Phase 2, Meerut - UPPCB",02-05-2024 22:00:00,29.063510,77.709723,CO,10,61,24
India,Uttar_Pradesh,Moradabad,"Buddhi Vihar, Moradabad - UPPCB",02-05-2024 22:00:00,28.83526,78.74460,PM2.5,39,116,61
India,Uttar_Pradesh,Moradabad,"Buddhi Vihar, Moradabad - UPPCB",02-05-2024 22:00:00,28.83526,78.74460,PM10,94,166,119
India,Uttar_Pradesh,Moradabad,"Buddhi Vihar, Moradabad - UPPCB",02-05-2024 22:00:00,28.83526,78.74460,SO2,16,18,17
India,Uttar_Pradesh,Moradabad,"Eco Herbal Park, Moradabad - UPPCB",02-05-2024 22:00:00,28.840739,78.697531,PM2.5,40,92,61
India,Uttar_Pradesh,Moradabad,"Eco Herbal Park, Moradabad - UPPCB",02-05-2024 22:00:00,28.840739,78.697531,NO2,15,35,23
India,Uttar_Pradesh,Moradabad,"Employment Office, Moradabad - UPPCB",02-05-2024 22:00:00,28.88528,78.73880,NH3,3,4,4
India,Uttar_Pradesh,Moradabad,"Kashiram Nagar, Moradabad - UPPCB",02-05-2024 22:00:00,28.849399,78.742362,PM10,95,153,121
India,Uttar_Pradesh,Moradabad,"Kashiram Nagar, Moradabad - UPPCB",02-05-2024 22:00:00,28.849399,78.742362,NH3,4,4,4
India,Uttar_Pradesh,Moradabad,"Kashiram Nagar, Moradabad - UPPCB",02-05-2024 22:00:00,28.849399,78.742362,SO2,34,51,41
India,Uttar_Pradesh,Muzaffarnagar,"New Mandi, Muzaffarnagar - UPPCB",02-05-2024 22:00:00,29.4723508,77.7194031,PM10,132,247,183
India,Uttar_Pradesh,Muzaffarnagar,"New Mandi, Muzaffarnagar - UPPCB",02-05-2024 22:00:00,29.4723508,77.7194031,CO,24,66,41
India,Uttar_Pradesh,Noida,"Sector - 125, Noida - UPPCB",02-05-2024 22:00:00,28.5447608,77.3231257,PM2.5,30,158,67
India,Uttar_Pradesh,Noida,"Sector - 125, Noida - UPPCB",02-05-2024 22:00:00,28.5447608,77.3231257,PM10,97,166,129
India,Uttar_Pradesh,Noida,"Sector - 125, Noida - UPPCB",02-05-2024 22:00:00,28.5447608,77.3231257,NO2,12,111,52
India,Uttar_Pradesh,Noida,"Sector - 125, Noida - UPPCB",02-05-2024 22:00:00,28.5447608,77.3231257,NH3,7,11,10
India,Uttar_Pradesh,Noida,"Sector - 62, Noida - IMD",02-05-2024 22:00:00,28.6245479,77.3577104,PM2.5,45,254,112
India,Uttar_Pradesh,Noida,"Sector - 62, Noida - IMD",02-05-2024 22:00:00,28.6245479,77.3577104,OZONE,12,44,33
India,Uttar_Pradesh,Noida,"Sector-1, Noida - UPPCB",02-05-2024 22:00:00,28.5898,77.3101,PM2.5,40,262,91
India,Uttar_Pradesh,Noida,"Sector-1, Noida - UPPCB",02-05-2024 22:00:00,28.5898,77.3101,NH3,1,4,3
India,Uttar_Pradesh,Noida,"Sector-1, Noida - UPPCB",02-05-2024 22:00:00,28.5898,77.3101,SO2,6,36,14
India,Uttar_Pradesh,Prayagraj,"Jhunsi, Prayagraj - UPPCB",02-05-2024 22:00:00,25.425602,81.917152,NH3,5,5,5
India,Uttar_Pradesh,Prayagraj,"Jhunsi, Prayagraj - UPPCB",02-05-2024 22:00:00,25.425602,81.917152,OZONE,2,67,52
India,Uttar_Pradesh,Prayagraj,"Motilal Nehru NIT, Prayagraj - UPPCB",02-05-2024 22:00:00,25.494,81.863,NO2,11,12,11
India,Uttar_Pradesh,Prayagraj,"Motilal Nehru NIT, Prayagraj - UPPCB",02-05-2024 22:00:00,25.494,81.863,CO,6,53,13
India,Uttar_Pradesh,Prayagraj,"Motilal Nehru NIT, Prayagraj - UPPCB",02-05-2024 22:00:00,25.494,81.863,OZONE,1,18,9
India,Uttar_Pradesh,Prayagraj,"Nagar Nigam, Prayagraj - UPPCB",02-05-2024 22:00:00,25.44919916 ,81.82735986 ,SO2,7,85,32
India,Uttar_Pradesh,Prayagraj,"Nagar Nigam, Prayagraj - UPPCB",02-05-2024 22:00:00,25.44919916 ,81.82735986 ,OZONE,11,12,11
India,Uttar_Pradesh,Varanasi,"Ardhali Bazar, Varanasi - UPPCB",02-05-2024 22:00:00,25.3505986,82.9083074,PM10,16,85,42
India,Uttar_Pradesh,Varanasi,"Bhelupur, Varanasi - UPPCB",02-05-2024 22:00:00,25.301778,82.996789,NH3,1,2,1
India,Uttar_Pradesh,Varanasi,"IESD Banaras Hindu University, Varanasi - UPPCB",02-05-2024 22:00:00,25.262326,82.995408,NH3,1,3,2
India,Uttar_Pradesh,Varanasi,"IESD Banaras Hindu University, Varanasi - UPPCB",02-05-2024 22:00:00,25.262326,82.995408,CO,2,24,5
India,Uttar_Pradesh,Varanasi,"Maldahiya, Varanasi - UPPCB",02-05-2024 22:00:00,25.32393,82.99687,NH3,1,2,1
India,Uttar_Pradesh,Varanasi,"Maldahiya, Varanasi - UPPCB",02-05-2024 22:00:00,25.32393,82.99687,OZONE,2,27,20
India,Uttar_Pradesh,Vrindavan,"Omex Eternity, Vrindavan - UPPCB",02-05-2024 22:00:00,27.5714090,77.6557570,NH3,1,2,1
India,Uttar_Pradesh,Vrindavan,"Omex Eternity, Vrindavan - UPPCB",02-05-2024 22:00:00,27.5714090,77.6557570,CO,28,59,31
India,Uttarakhand,Kashipur,"Govt. Girls Inter College, Kashipur - UKPCB",02-05-2024 22:00:00,29.2124114,78.9611753,PM2.5,45,147,82
India,Uttarakhand,Rishikesh,"Shivaji Nagar, Rishikesh - UKPCB",02-05-2024 22:00:00,30.075911,78.2859547,PM2.5,26,146,71
India,Uttarakhand,Rishikesh,"Shivaji Nagar, Rishikesh - UKPCB",02-05-2024 22:00:00,30.075911,78.2859547,SO2,4,5,4
India,Uttarakhand,Rishikesh,"Shivaji Nagar, Rishikesh - UKPCB",02-05-2024 22:00:00,30.075911,78.2859547,OZONE,25,140,105
India,West_Bengal,Asansol,"Asansol Court Area, Asansol - WBPCB",02-05-2024 22:00:00,23.685297,86.945968,PM2.5,78,394,243
India,West_Bengal,Asansol,"Asansol Court Area, Asansol - WBPCB",02-05-2024 22:00:00,23.685297,86.945968,PM10,107,245,158
India,West_Bengal,Asansol,"Asansol Court Area, Asansol - WBPCB",02-05-2024 22:00:00,23.685297,86.945968,SO2,5,16,8
India,West_Bengal,Asansol,"Asansol Court Area, Asansol - WBPCB",02-05-2024 22:00:00,23.685297,86.945968,OZONE,42,176,123
India,West_Bengal,Barrackpore,"SVSPA Campus, Barrackpore - WBPCB",02-05-2024 22:00:00,22.7605581,88.3617589,CO,14,30,22
India,West_Bengal,Durgapur,"PCBL Residential Complex, Durgapur - WBPCB",02-05-2024 22:00:00,23.5087640,87.3544400,NH3,1,4,2
India,West_Bengal,Durgapur,"Sidhu Kanhu Indoor Stadium, Durgapur - WBPCB",02-05-2024 22:00:00,23.5404352,87.2892225,SO2,14,68,29
India,West_Bengal,Durgapur,"Sidhu Kanhu Indoor Stadium, Durgapur - WBPCB",02-05-2024 22:00:00,23.5404352,87.2892225,OZONE,3,113,65
India,West_Bengal,Haldia,"Priyambada Housing Estate, Haldia - WBPCB",02-05-2024 22:00:00,22.06047,88.109737,SO2,8,21,13
India,West_Bengal,Howrah,"Ghusuri, Howrah - WBPCB",02-05-2024 22:00:00,22.611968,88.347422,PM2.5,57,237,112
India,West_Bengal,Howrah,"Ghusuri, Howrah - WBPCB",02-05-2024 22:00:00,22.611968,88.347422,PM10,59,186,111
India,West_Bengal,Howrah,"Ghusuri, Howrah - WBPCB",02-05-2024 22:00:00,22.611968,88.347422,OZONE,13,30,22
India,West_Bengal,Howrah,"Padmapukur, Howrah - WBPCB",02-05-2024 22:00:00,22.5687319,88.2797276,NO2,16,39,24
India,West_Bengal,Howrah,"Padmapukur, Howrah - WBPCB",02-05-2024 22:00:00,22.5687319,88.2797276,NH3,6,10,8
India,West_Bengal,Kolkata,"Ballygunge, Kolkata - WBPCB",02-05-2024 22:00:00,22.5367507,88.3638022,PM2.5,32,123,64
India,West_Bengal,Kolkata,"Ballygunge, Kolkata - WBPCB",02-05-2024 22:00:00,22.5367507,88.3638022,OZONE,24,163,92
India,West_Bengal,Kolkata,"Bidhannagar, Kolkata - WBPCB",02-05-2024 22:00:00,22.58157048,88.41002457,NO2,18,30,23
India,West_Bengal,Kolkata,"Bidhannagar, Kolkata - WBPCB",02-05-2024 22:00:00,22.58157048,88.41002457,NH3,9,10,10
India,West_Bengal,Kolkata,"Bidhannagar, Kolkata - WBPCB",02-05-2024 22:00:00,22.58157048,88.41002457,CO,22,34,31
India,West_Bengal,Kolkata,"Fort William, Kolkata - WBPCB",02-05-2024 22:00:00,22.556640,88.342674,PM2.5,40,96,66
India,West_Bengal,Kolkata,"Fort William, Kolkata - WBPCB",02-05-2024 22:00:00,22.556640,88.342674,NO2,17,40,27
India,West_Bengal,Kolkata,"Jadavpur, Kolkata - WBPCB",02-05-2024 22:00:00,22.49929,88.36917,PM10,38,99,68
India,West_Bengal,Kolkata,"Jadavpur, Kolkata - WBPCB",02-05-2024 22:00:00,22.49929,88.36917,NO2,18,30,23
India,West_Bengal,Kolkata,"Jadavpur, Kolkata - WBPCB",02-05-2024 22:00:00,22.49929,88.36917,NH3,6,7,7
India,West_Bengal,Kolkata,"Rabindra Bharati University, Kolkata - WBPCB",02-05-2024 22:00:00,22.627847,88.380669,NO2,23,39,32
India,West_Bengal,Kolkata,"Rabindra Bharati University, Kolkata - WBPCB",02-05-2024 22:00:00,22.627847,88.380669,OZONE,15,137,76
India,West_Bengal,Kolkata,"Rabindra Sarobar, Kolkata - WBPCB",02-05-2024 22:00:00,22.51106,88.35142,NH3,7,12,10
India,West_Bengal,Kolkata,"Victoria, Kolkata - WBPCB",02-05-2024 22:00:00,22.5448082,88.3403691,PM10,38,122,83
India,West_Bengal,Kolkata,"Victoria, Kolkata - WBPCB",02-05-2024 22:00:00,22.5448082,88.3403691,NO2,11,16,15
India,West_Bengal,Kolkata,"Victoria, Kolkata - WBPCB",02-05-2024 22:00:00,22.5448082,88.3403691,SO2,8,21,13
India,West_Bengal,Siliguri,"Ward-32 Bapupara, Siliguri - WBPCB",02-05-2024 22:00:00,26.6879226,88.4152495,NO2,25,75,43
India,Andhra_Pradesh,Anantapur,"Gulzarpet, Anantapur - APPCB",02-05-2024 22:00:00,14.675886,77.593027,PM2.5,68,78,74
India,Andhra_Pradesh,Anantapur,"Gulzarpet, Anantapur - APPCB",02-05-2024 22:00:00,14.675886,77.593027,CO,19,123,54
India,Andhra_Pradesh,Chittoor,"Gangineni Cheruvu, Chittoor - APPCB",02-05-2024 22:00:00,13.204880,79.097889,PM10,29,84,62
India,Andhra_Pradesh,Chittoor,"Gangineni Cheruvu, Chittoor - APPCB",02-05-2024 22:00:00,13.204880,79.097889,NH3,1,3,1
India,Andhra_Pradesh,Chittoor,"Gangineni Cheruvu, Chittoor - APPCB",02-05-2024 22:00:00,13.204880,79.097889,OZONE,NA,NA,NA
India,Andhra_Pradesh,Kadapa,"Yerramukkapalli, Kadapa - APPCB",02-05-2024 22:00:00,14.465052,78.824187,PM2.5,18,80,48
India,Andhra_Pradesh,Kadapa,"Yerramukkapalli, Kadapa - APPCB",02-05-2024 22:00:00,14.465052,78.824187,SO2,2,3,2
India,Andhra_Pradesh,Kadapa,"Yerramukkapalli, Kadapa - APPCB",02-05-2024 22:00:00,14.465052,78.824187,OZONE,28,115,83
India,Andhra_Pradesh,Tirupati,"Tirumala, Tirupati - APPCB",02-05-2024 22:00:00,13.67,79.35,OZONE,21,64,44
India,Andhra_Pradesh,Tirupati,"Vaikuntapuram, Tirupati - APPCB",02-05-2024 22:00:00,13.615387,79.409230,PM10,NA,NA,NA
India,Andhra_Pradesh,Tirupati,"Vaikuntapuram, Tirupati - APPCB",02-05-2024 22:00:00,13.615387,79.409230,NH3,NA,NA,NA
India,Andhra_Pradesh,Vijayawada,"HB Colony, Vijayawada - APPCB",02-05-2024 22:00:00,16.536107,80.594233,NO2,3,13,9
India,Andhra_Pradesh,Vijayawada,"Kanuru, Vijayawada - APPCB",02-05-2024 22:00:00,16.486692,80.699436,PM10,51,83,64
India,Andhra_Pradesh,Vijayawada,"Kanuru, Vijayawada - APPCB",02-05-2024 22:00:00,16.486692,80.699436,NO2,14,73,28
India,Andhra_Pradesh,Vijayawada,"Kanuru, Vijayawada - APPCB",02-05-2024 22:00:00,16.486692,80.699436,OZONE,28,28,28
India,Andhra_Pradesh,Vijayawada,"Rajiv Gandhi Park, Vijayawada - APPCB",02-05-2024 22:00:00,16.509717,80.612222,PM2.5,35,147,79
India,Andhra_Pradesh,Vijayawada,"Rajiv Nagar, Vijayawada - APPCB",02-05-2024 22:00:00,16.554731,80.649110,NO2,12,13,13
India,Assam,Byrnihat,"Central Academy for SFS, Byrnihat - PCBA",02-05-2024 22:00:00,26.071318,91.87488,PM10,113,500,205
India,Assam,Byrnihat,"Central Academy for SFS, Byrnihat - PCBA",02-05-2024 22:00:00,26.071318,91.87488,SO2,5,14,7
India,Assam,Guwahati,"IITG, Guwahati - PCBA",02-05-2024 22:00:00,26.2028636,91.70046436,PM2.5,58,255,134
India,Assam,Guwahati,"LGBI Airport, Guwahati - PCBA",02-05-2024 22:00:00,26.10887,91.589544,CO,35,78,50
India,Assam,Guwahati,"Pan Bazaar, Guwahati - PCBA",02-05-2024 22:00:00,26.187500,91.744194,NH3,2,4,3
India,Assam,Guwahati,"Pan Bazaar, Guwahati - PCBA",02-05-2024 22:00:00,26.187500,91.744194,CO,18,70,30
India,Assam,Nagaon,"Christianpatty, Nagaon - PCBA",02-05-2024 22:00:00,26.349082,92.68449,OZONE,16,136,89
India,Assam,Nalbari,"Bata Chowk, Nalbari - PCBA",02-05-2024 22:00:00,26.446912,91.439057,PM10,125,450,223
India,Assam,Silchar,"Tarapur, Silchar - PCBA",02-05-2024 22:00:00,24.82827,92.79525,PM10,39,80,49
India,Assam,Silchar,"Tarapur, Silchar - PCBA",02-05-2024 22:00:00,24.82827,92.79525,NO2,13,13,13
India,Assam,Silchar,"Tarapur, Silchar - PCBA",02-05-2024 22:00:00,24.82827,92.79525,CO,24,32,28
India,Assam,Sivasagar,"Girls College, Sivasagar - PCBA",02-05-2024 22:00:00,26.987634,94.636574,PM2.5,28,40,35
India,Bihar,Arrah,"New DM Office, Arrah - BSPCB",02-05-2024 22:00:00,25.5626095,84.663264,CO,NA,NA,NA
India,Bihar,Aurangabad,"Gurdeo Nagar, Aurangabad - BSPCB",02-05-2024 22:00:00,24.75746,84.366208,NO2,2,18,6
India,Bihar,Aurangabad,"Gurdeo Nagar, Aurangabad - BSPCB",02-05-2024 22:00:00,24.75746,84.366208,CO,4,22,10
India,Bihar,Bettiah,"Kamalnath Nagar, Bettiah - BSPCB",02-05-2024 22:00:00,26.80365,84.51954,NO2,28,30,28
India,Bihar,Bhagalpur,"Mayaganj, Bhagalpur - BSPCB",02-05-2024 22:00:00,25.265194,87.012947,CO,8,10,9
India,Bihar,Bihar Sharif,"D M Colony, Bihar Sharif - BSPCB",02-05-2024 22:00:00,25.204762,85.514960,PM2.5,38,82,57
India,Bihar,Bihar Sharif,"D M Colony, Bihar Sharif - BSPCB",02-05-2024 22:00:00,25.204762,85.514960,NH3,2,2,2
India,Bihar,Chhapra,"Darshan Nagar, Chhapra - BSPCB",02-05-2024 22:00:00,25.7808257,84.7446768,PM2.5,93,197,121
India,Bihar,Chhapra,"Darshan Nagar, Chhapra - BSPCB",02-05-2024 22:00:00,25.7808257,84.7446768,CO,32,66,58
India,Bihar,Chhapra,"Darshan Nagar, Chhapra - BSPCB",02-05-2024 22:00:00,25.7808257,84.7446768,OZONE,1,26,3
India,Bihar,Gaya,"SFTI Kusdihra, Gaya - BSPCB",02-05-2024 22:00:00,24.762518,84.982348,NO2,NA,NA,NA
India,Bihar,Hajipur,"Industrial Area, Hajipur - BSPCB",02-05-2024 22:00:00,25.697189,85.245900,OZONE,3,56,38
India,Bihar,Kishanganj,"SDM Office_Khagra, Kishanganj - BSPCB",02-05-2024 22:00:00,26.0881305,87.93840336,PM2.5,67,213,139
India,Bihar,Motihari,"Gandak Colony, Motihari - BSPCB",02-05-2024 22:00:00,26.63086,84.90051,PM2.5,NA,NA,NA
India,Bihar,Motihari,"Gandak Colony, Motihari - BSPCB",02-05-2024 22:00:00,26.63086,84.90051,CO,7,42,30
India,Bihar,Munger,"Town Hall, Munger - BSPCB",02-05-2024 22:00:00,25.376776,86.471523,PM2.5,73,207,140
India,Bihar,Munger,"Town Hall, Munger - BSPCB",02-05-2024 22:00:00,25.376776,86.471523,CO,42,68,57
India,Bihar,Muzaffarpur,"Buddha Colony, Muzaffarpur - BSPCB",02-05-2024 22:00:00,26.11442,85.39813,PM2.5,169,341,282
India,Bihar,Muzaffarpur,"Buddha Colony, Muzaffarpur - BSPCB",02-05-2024 22:00:00,26.11442,85.39813,PM10,141,310,212
India,Bihar,Muzaffarpur,"Muzaffarpur Collectorate, Muzaffarpur - BSPCB",02-05-2024 22:00:00,26.1209,85.3647,NO2,18,88,35
India,Bihar,Patna,"DRM Office Danapur, Patna - BSPCB",02-05-2024 22:00:00,25.586562,85.043586,NO2,8,80,35
India,Bihar,Patna,"Govt. High School Shikarpur, Patna - BSPCB",02-05-2024 22:00:00,25.592539,85.227158,CO,26,66,40
India,Bihar,Patna,"Muradpur, Patna - BSPCB",02-05-2024 22:00:00,25.619651,85.147382,OZONE,15,84,63
India,Bihar,Patna,"Rajbansi Nagar, Patna - BSPCB",02-05-2024 22:00:00,25.599486,85.113666,NH3,7,18,10
India,Bihar,Patna,"Samanpura, Patna - BSPCB",02-05-2024 22:00:00,25.596727,85.085624,NH3,9,22,13
India,Bihar,Purnia,"Mariam Nagar, Purnia - BSPCB",02-05-2024 22:00:00,25.366336,87.117468,NO2,NA,NA,NA
India,Bihar,Purnia,"Mariam Nagar, Purnia - BSPCB",02-05-2024 22:00:00,25.366336,87.117468,NH3,6,8,7
India,Bihar,Purnia,"Mariam Nagar, Purnia - BSPCB",02-05-2024 22:00:00,25.366336,87.117468,OZONE,9,35,22
India,Bihar,Samastipur,"DM Office_Kasipur, Samastipur - BSPCB",02-05-2024 22:00:00,25.859655,85.77944,PM2.5,47,193,94
India,Bihar,Samastipur,"DM Office_Kasipur, Samastipur - BSPCB",02-05-2024 22:00:00,25.859655,85.77944,NO2,3,26,7
India,Bihar,Samastipur,"DM Office_Kasipur, Samastipur - BSPCB",02-05-2024 22:00:00,25.859655,85.77944,SO2,10,10,10
India,Bihar,Samastipur,"DM Office_Kasipur, Samastipur - BSPCB",02-05-2024 22:00:00,25.859655,85.77944,OZONE,10,63,41
India,Bihar,Sasaram,"Dada Peer, Sasaram - BSPCB",02-05-2024 22:00:00,24.952822,84.002396,PM10,102,154,118
India,Bihar,Sasaram,"Dada Peer, Sasaram - BSPCB",02-05-2024 22:00:00,24.952822,84.002396,CO,77,88,88
India,Bihar,Siwan,"Chitragupta Nagar, Siwan - BSPCB",02-05-2024 22:00:00,26.2271665,84.3570427,OZONE,76,144,117
India,Chandigarh,Chandigarh,"Sector-25, Chandigarh - CPCC",02-05-2024 22:00:00,30.751462,76.762879,PM2.5,41,90,61
India,Chandigarh,Chandigarh,"Sector-25, Chandigarh - CPCC",02-05-2024 22:00:00,30.751462,76.762879,NH3,8,23,12
India,Chandigarh,Chandigarh,"Sector-25, Chandigarh - CPCC",02-05-2024 22:00:00,30.751462,76.762879,CO,9,26,15
India,Chandigarh,Chandigarh,"Sector-25, Chandigarh - CPCC",02-05-2024 22:00:00,30.751462,76.762879,OZONE,6,137,47
India,Chandigarh,Chandigarh,"Sector-53, Chandigarh - CPCC",02-05-2024 22:00:00,30.719859,76.738637,CO,36,62,43
India,Chhattisgarh,Bhilai,"32Bungalows, Bhilai - CECB",02-05-2024 22:00:00,21.194815,81.314770,NH3,6,6,6
India,Chhattisgarh,Bhilai,"Civic Center, Bhilai - Bhilai Steel Plant",02-05-2024 22:00:00,21.185571,81.343175,OZONE,8,74,49
India,Chhattisgarh,Bhilai,"Hathkhoj, Bhilai - CECB",02-05-2024 22:00:00,21.224231,81.408350,PM2.5,30,121,74
India,Chhattisgarh,Bhilai,"Hathkhoj, Bhilai - CECB",02-05-2024 22:00:00,21.224231,81.408350,PM10,93,144,117
India,Chhattisgarh,Bhilai,"Hathkhoj, Bhilai - CECB",02-05-2024 22:00:00,21.224231,81.408350,NO2,13,42,23
India,Chhattisgarh,Bhilai,"Hathkhoj, Bhilai - CECB",02-05-2024 22:00:00,21.224231,81.408350,CO,8,35,20
India,Chhattisgarh,Chhal,"Nawapara SECL Colony, Chhal - CECB",02-05-2024 22:00:00,22.118125,83.140608,NO2,18,43,24
India,Chhattisgarh,Korba,"Urja Nagar, Korba - CECB",02-05-2024 22:00:00,22.348441,82.549611,PM10,37,115,73
India,Chhattisgarh,Kunjemura,"OP Jindal School, Kunjemura - CECB",02-05-2024 22:00:00,22.126650,83.483212,CO,14,48,22
India,Chhattisgarh,Milupara,"Govt. Higher Secondary School, Milupara - CECB",02-05-2024 22:00:00,22.1910172,83.5197009,PM2.5,20,71,38
India,Chhattisgarh,Milupara,"Govt. Higher Secondary School, Milupara - CECB",02-05-2024 22:00:00,22.1910172,83.5197009,NH3,NA,NA,NA
India,Chhattisgarh,Raipur,"Bhatagaon New ISBT, Raipur - CECB",02-05-2024 22:00:00,21.219665,81.630094,PM2.5,NA,NA,NA
India,Chhattisgarh,Raipur,"Bhatagaon New ISBT, Raipur - CECB",02-05-2024 22:00:00,21.219665,81.630094,NO2,37,73,50
India,Chhattisgarh,Raipur,"Krishak Nagar, Raipur - CECB",02-05-2024 22:00:00,21.237755,81.705301,OZONE,1,53,29
India,Chhattisgarh,Raipur,"Siltara Phase-II, Raipur - CECB",02-05-2024 22:00:00,21.371751,81.664929,NO2,33,70,49
India,Chhattisgarh,Raipur,"Siltara Phase-II, Raipur - CECB",02-05-2024 22:00:00,21.371751,81.664929,NH3,3,3,3
India,Chhattisgarh,Raipur,"Siltara Phase-II, Raipur - CECB",02-05-2024 22:00:00,21.371751,81.664929,CO,8,61,32
India,Chhattisgarh,Tumidih,"OP Jindal Industrial Park, Tumidih - CECB",02-05-2024 22:00:00,22.06631475,83.33820077,SO2,6,8,6
India,Delhi,Delhi,"Alipur, Delhi - DPCC",02-05-2024 22:00:00,28.815329,77.153010,SO2,8,62,19
India,Delhi,Delhi,"Anand Vihar, Delhi - DPCC",02-05-2024 22:00:00,28.647622,77.3158090,PM2.5,51,301,139
India,Delhi,Delhi,"Anand Vihar, Delhi - DPCC",02-05-2024 22:00:00,28.647622,77.3158090,NH3,3,8,5
India,Delhi,Delhi,"Anand Vihar, Delhi - DPCC",02-05-2024 22:00:00,28.647622,77.3158090,OZONE,10,118,78
India,Delhi,Delhi,"Ashok Vihar, Delhi - DPCC",02-05-2024 22:00:00,28.695381,77.181665,NO2,10,127,40
India,Delhi,Delhi,"Ashok Vihar, Delhi - DPCC",02-05-2024 22:00:00,28.695381,77.181665,NH3,8,20,16
India,Delhi,Delhi,"Ashok Vihar, Delhi - DPCC",02-05-2024 22:00:00,28.695381,77.181665,SO2,22,76,39
India,Delhi,Delhi,"Aya Nagar, Delhi - IMD",02-05-2024 22:00:00,28.4706914,77.1099364,OZONE,25,67,54
India,Delhi,Delhi,"Burari Crossing, Delhi - IMD",02-05-2024 22:00:00,28.7256504,77.2011573,PM2.5,73,336,179
India,Delhi,Delhi,"Burari Crossing, Delhi - IMD",02-05-2024 22:00:00,28.7256504,77.2011573,OZONE,9,78,61
India,Delhi,Delhi,"Chandni Chowk, Delhi - IITM",02-05-2024 22:00:00,28.656756,77.227234,PM10,NA,NA,NA
India,Delhi,Delhi,"Chandni Chowk, Delhi - IITM",02-05-2024 22:00:00,28.656756,77.227234,NO2,NA,NA,NA
India,Delhi,Delhi,"Chandni Chowk, Delhi - IITM",02-05-2024 22:00:00,28.656756,77.227234,SO2,NA,NA,NA
India,Delhi,Delhi,"Chandni Chowk, Delhi - IITM",02-05-2024 22:00:00,28.656756,77.227234,OZONE,9,66,21
India,Delhi,Delhi,"DTU, Delhi - CPCB",02-05-2024 22:00:00,28.7500499,77.1112615,SO2,36,42,38
India,Delhi,Delhi,"Dr. Karni Singh Shooting Range, Delhi - DPCC",02-05-2024 22:00:00,28.498571,77.264840,PM2.5,58,312,127
India,Delhi,Delhi,"Dr. Karni Singh Shooting Range, Delhi - DPCC",02-05-2024 22:00:00,28.498571,77.264840,NO2,25,176,71
India,Delhi,Delhi,"Dwarka-Sector 8, Delhi - DPCC ",02-05-2024 22:00:00,28.5710274,77.0719006,PM2.5,50,393,162
India,Delhi,Delhi,"Dwarka-Sector 8, Delhi - DPCC ",02-05-2024 22:00:00,28.5710274,77.0719006,SO2,8,90,23
India,Delhi,Delhi,"IGI Airport (T3), Delhi - IMD",02-05-2024 22:00:00,28.5627763,77.1180053,PM2.5,NA,NA,NA
India,Delhi,Delhi,"IHBAS, Dilshad Garden, Delhi - CPCB",02-05-2024 22:00:00,28.6811736,77.3025234,NH3,9,11,10
India,Delhi,Delhi,"ITO, Delhi - CPCB",02-05-2024 22:00:00,28.628624,77.241060,NH3,1,4,2
India,Delhi,Delhi,"Jahangirpuri, Delhi - DPCC",02-05-2024 22:00:00,28.732820,77.170633,NO2,40,179,90
India,Delhi,Delhi,"Jawaharlal Nehru Stadium, Delhi - DPCC",02-05-2024 22:00:00,28.580280,77.233829,CO,30,103,52
India,Delhi,Delhi,"Lodhi Road, Delhi - IMD",02-05-2024 22:00:00,28.5918245,77.2273074,PM10,104,259,134
India,Delhi,Delhi,"Major Dhyan Chand National Stadium, Delhi - DPCC",02-05-2024 22:00:00,28.611281,77.237738,NH3,5,8,6
India,Delhi,Delhi,"Major Dhyan Chand National Stadium, Delhi - DPCC",02-05-2024 22:00:00,28.611281,77.237738,OZONE,7,198,122
India,Delhi,Delhi,"Mundka, Delhi - DPCC",02-05-2024 22:00:00,28.684678,77.076574,CO,36,73,48
India,Delhi,Delhi,"NSIT Dwarka, Delhi - CPCB",02-05-2024 22:00:00,28.60909,77.0325413,PM2.5,98,423,297
India,Delhi,Delhi,"NSIT Dwarka, Delhi - CPCB",02-05-2024 22:00:00,28.60909,77.0325413,NO2,24,53,36
India,Delhi,Delhi,"NSIT Dwarka, Delhi - CPCB",02-05-2024 22:00:00,28.60909,77.0325413,CO,25,50,37
India,Delhi,Delhi,"Najafgarh, Delhi - DPCC",02-05-2024 22:00:00,28.570173,76.933762,CO,23,70,31
India,Delhi,Delhi,"Narela, Delhi - DPCC",02-05-2024 22:00:00,28.822836,77.101981,SO2,8,106,30
India,Delhi,Delhi,"Narela, Delhi - DPCC",02-05-2024 22:00:00,28.822836,77.101981,CO,26,62,41
India,Delhi,Delhi,"Nehru Nagar, Delhi - DPCC",02-05-2024 22:00:00,28.567890,77.250515,NO2,6,29,12
India,Delhi,Delhi,"North Campus, DU, Delhi - IMD",02-05-2024 22:00:00,28.6573814,77.1585447,PM10,111,237,166
India,Delhi,Delhi,"North Campus, DU, Delhi - IMD",02-05-2024 22:00:00,28.6573814,77.1585447,OZONE,8,60,41
India,Delhi,Delhi,"Okhla Phase-2, Delhi - DPCC",02-05-2024 22:00:00,28.530785,77.271255,NH3,5,7,6
India,Delhi,Delhi,"Punjabi Bagh, Delhi - DPCC",02-05-2024 22:00:00,28.674045,77.131023,OZONE,2,60,37
India,Delhi,Delhi,"Pusa, Delhi - DPCC",02-05-2024 22:00:00,28.639652,77.146275,PM10,149,500,225
India,Delhi,Delhi,"R K Puram, Delhi - DPCC",02-05-2024 22:00:00,28.563262,77.186937,PM10,146,381,205
India,Delhi,Delhi,"Rohini, Delhi - DPCC",02-05-2024 22:00:00,28.732528,77.119920,CO,16,82,32
India,Delhi,Delhi,"Sirifort, Delhi - CPCB",02-05-2024 22:00:00,28.5504249,77.2159377,NO2,55,82,69
India,Delhi,Delhi,"Vivek Vihar, Delhi - DPCC",02-05-2024 22:00:00,28.672342,77.315260,NO2,28,109,48
India,Gujarat,Ahmedabad,"Chandkheda, Ahmedabad - IITM",02-05-2024 22:00:00,23.107969,72.574648,PM10,118,296,158
India,Gujarat,Ahmedabad,"Chandkheda, Ahmedabad - IITM",02-05-2024 22:00:00,23.107969,72.574648,CO,13,108,57
India,Gujarat,Ahmedabad,"Gyaspur, Ahmedabad - IITM",02-05-2024 22:00:00,22.977134,72.553024,OZONE,6,139,69
India,Gujarat,Ahmedabad,"Raikhad, Ahmedabad - IITM",02-05-2024 22:00:00,23.020509,72.579261,PM2.5,146,379,276
India,Gujarat,Ahmedabad,"Raikhad, Ahmedabad - IITM",02-05-2024 22:00:00,23.020509,72.579261,CO,4,102,51
India,Gujarat,Ahmedabad,"Rakhial, Ahmedabad - IITM",02-05-2024 22:00:00,23.016834,72.625775,SO2,3,66,15
India,Gujarat,Ahmedabad,"SVPI Airport Hansol, Ahmedabad - IITM",02-05-2024 22:00:00,23.076793,72.627874,CO,36,118,84
India,Gujarat,Ahmedabad,"Sardar Vallabhbhai Patel Stadium, Ahmedabad - IITM",02-05-2024 22:00:00,23.043070,72.562968,SO2,6,22,11
India,Gujarat,Ahmedabad,"Sardar Vallabhbhai Patel Stadium, Ahmedabad - IITM",02-05-2024 22:00:00,23.043070,72.562968,CO,26,111,49
India,Gujarat,Ahmedabad,"Sardar Vallabhbhai Patel Stadium, Ahmedabad - IITM",02-05-2024 22:00:00,23.043070,72.562968,OZONE,4,43,28
India,Gujarat,Ankleshwar,"GIDC, Ankleshwar - GPCB",02-05-2024 22:00:00,21.613267,73.010555,NH3,6,7,7
India,Gujarat,Ankleshwar,"GIDC, Ankleshwar - GPCB",02-05-2024 22:00:00,21.613267,73.010555,SO2,3,55,22
India,Gujarat,Ankleshwar,"GIDC, Ankleshwar - GPCB",02-05-2024 22:00:00,21.613267,73.010555,OZONE,22,35,29
India,Gujarat,Nandesari,"GIDC, Nandesari - Nandesari Ind. Association",02-05-2024 22:00:00,22.410802,73.097923,PM2.5,56,338,198
India,Gujarat,Surat,"Science Center, Surat - SMC",02-05-2024 22:00:00,21.170046,72.795405,PM2.5,2,31,11
India,Gujarat,Surat,"Science Center, Surat - SMC",02-05-2024 22:00:00,21.170046,72.795405,NO2,29,59,41
India,Gujarat,Vapi,"Phase-1 GIDC, Vapi - GPCB",02-05-2024 22:00:00,20.362421,72.918013,NO2,6,7,6
India,Haryana,Ambala,"Patti Mehar, Ambala - HSPCB",02-05-2024 22:00:00,30.379589,76.778328,PM2.5,18,62,39
India,Haryana,Bhiwani,"H.B. Colony, Bhiwani - HSPCB",02-05-2024 22:00:00,28.806223,76.141105,PM10,74,145,117
India,Haryana,Charkhi Dadri,"Mini Secretariat, Charkhi Dadri - HSPCB",02-05-2024 22:00:00,28.593883,76.270653,OZONE,13,17,15
India,Haryana,Dharuhera,"Municipal Corporation Office, Dharuhera -  HSPCB",02-05-2024 22:00:00,28.206800,76.799700,PM10,133,500,213
India,Haryana,Dharuhera,"Municipal Corporation Office, Dharuhera -  HSPCB",02-05-2024 22:00:00,28.206800,76.799700,NH3,9,26,19
India,Haryana,Dharuhera,"Municipal Corporation Office, Dharuhera -  HSPCB",02-05-2024 22:00:00,28.206800,76.799700,CO,12,46,22
India,Haryana,Faridabad,"New Industrial Town, Faridabad - HSPCB",02-05-2024 22:00:00,28.39072,77.30059,SO2,3,7,5
India,Haryana,Faridabad,"New Industrial Town, Faridabad - HSPCB",02-05-2024 22:00:00,28.39072,77.30059,CO,14,39,23
India,Haryana,Faridabad,"New Industrial Town, Faridabad - HSPCB",02-05-2024 22:00:00,28.39072,77.30059,OZONE,30,261,170
India,Haryana,Faridabad,"Sector 11, Faridabad - HSPCB",02-05-2024 22:00:00,28.376058,77.315741,PM10,182,274,200
India,Haryana,Faridabad,"Sector- 16A, Faridabad - HSPCB",02-05-2024 22:00:00,28.4088421,77.3099081,OZONE,14,14,14
India,Haryana,Fatehabad,"Huda Sector, Fatehabad - HSPCB",02-05-2024 22:00:00,29.503664,75.467934,NO2,29,31,30
India,Haryana,Fatehabad,"Huda Sector, Fatehabad - HSPCB",02-05-2024 22:00:00,29.503664,75.467934,CO,5,24,12
India,Haryana,Gurugram,"Sector-51, Gurugram - HSPCB",02-05-2024 22:00:00,28.4227,77.0667,CO,27,58,36
India,Haryana,Gurugram,"Teri Gram, Gurugram - HSPCB",02-05-2024 22:00:00,28.4275,77.1465,NO2,18,85,39
India,Haryana,Hisar,"Urban Estate-II, Hisar - HSPCB",02-05-2024 22:00:00,29.140560,75.744941,NH3,9,12,10
India,Haryana,Hisar,"Urban Estate-II, Hisar - HSPCB",02-05-2024 22:00:00,29.140560,75.744941,OZONE,62,254,228
India,Haryana,Jind,"Police Lines, Jind - HSPCB",02-05-2024 22:00:00,29.307814,76.337619,NO2,7,22,12
India,Haryana,Kaithal,"Rishi Nagar, Kaithal - HSPCB",02-05-2024 22:00:00,29.8006,76.4155,NO2,24,26,25
India,Haryana,Karnal,"Sector-12, Karnal - HSPCB",02-05-2024 22:00:00,29.695300,77.002700,PM2.5,134,231,189
India,Haryana,Manesar,"Sector-2 IMT, Manesar - HSPCB",02-05-2024 22:00:00,28.360699,76.936090,NO2,26,84,48
India,Haryana,Manesar,"Sector-2 IMT, Manesar - HSPCB",02-05-2024 22:00:00,28.360699,76.936090,NH3,11,50,28
India,Haryana,Palwal,"Shyam Nagar, Palwal - HSPCB",02-05-2024 22:00:00,28.1485564,77.3320667,SO2,7,19,12
India,Haryana,Panipat,"Sector-18, Panipat - HSPCB",02-05-2024 22:00:00,29.497973,76.993331,PM2.5,128,191,158
India,Haryana,Panipat,"Sector-18, Panipat - HSPCB",02-05-2024 22:00:00,29.497973,76.993331,NH3,2,3,3
India,Haryana,Rohtak,"MD University, Rohtak - HSPCB",02-05-2024 22:00:00,28.52123,76.37138,PM2.5,4,346,113
India,Haryana,Rohtak,"MD University, Rohtak - HSPCB",02-05-2024 22:00:00,28.52123,76.37138,NO2,47,57,51
India,Haryana,Rohtak,"MD University, Rohtak - HSPCB",02-05-2024 22:00:00,28.52123,76.37138,SO2,5,9,7
India,Haryana,Sirsa,"F-Block, Sirsa - HSPCB",02-05-2024 22:00:00,29.536400,75.015800,NO2,10,11,10
India,Haryana,Sirsa,"F-Block, Sirsa - HSPCB",02-05-2024 22:00:00,29.536400,75.015800,CO,58,76,62
India,Haryana,Sonipat,"Murthal, Sonipat - HSPCB",02-05-2024 22:00:00,29.027200,77.062100,OZONE,16,36,29
India,Haryana,Yamuna Nagar,"Gobind Pura, Yamuna Nagar - HSPCB",02-05-2024 22:00:00,30.1480566,77.2893471,PM2.5,64,111,84
India,Haryana,Yamuna Nagar,"Gobind Pura, Yamuna Nagar - HSPCB",02-05-2024 22:00:00,30.1480566,77.2893471,PM10,85,127,107
India,Haryana,Yamuna Nagar,"Gobind Pura, Yamuna Nagar - HSPCB",02-05-2024 22:00:00,30.1480566,77.2893471,CO,38,66,47
India,Haryana,Yamuna Nagar,"Gobind Pura, Yamuna Nagar - HSPCB",02-05-2024 22:00:00,30.1480566,77.2893471,OZONE,17,35,29
India,Himachal Pradesh,Baddi,"HIMUDA Complex Phase-1, Baddi - HPPCB",02-05-2024 22:00:00,30.943887,76.801991,PM10,69,201,122
India,Himachal Pradesh,Baddi,"HIMUDA Complex Phase-1, Baddi - HPPCB",02-05-2024 22:00:00,30.943887,76.801991,NO2,8,36,21
India,Himachal Pradesh,Baddi,"HIMUDA Complex Phase-1, Baddi - HPPCB",02-05-2024 22:00:00,30.943887,76.801991,SO2,10,86,31
India,Jharkhand,Dhanbad,"Kalakusuma, Dhanbad - DMC",02-05-2024 22:00:00,23.811548,86.481238,CO,128,136,131
India,Jharkhand,Dhanbad,"Sardar Patel Nagar, Dhanbad - JSPCB",02-05-2024 22:00:00,23.80569,86.44268,PM10,NA,NA,NA
