country,state,city,station,last_update,latitude,longitude,pollutant_id,pollutant_min,pollutant_max,pollutant_avg
India,Andhra_Pradesh,Anantapur,"Gulzarpet, Anantapur - APPCB",23-02-2024 19:00:00,14.675886,77.593027,NH3,NA,NA,NA
India,Andhra_Pradesh,Anantapur,"Gulzarpet, Anantapur - APPCB",23-02-2024 19:00:00,14.675886,77.593027,OZONE,1,78,68
India,Andhra_Pradesh,Kadapa,"Yerramukkapalli, Kadapa - APPCB",23-02-2024 19:00:00,14.465052,78.824187,NO2,8,8,8
India,Andhra_Pradesh,Rajamahendravaram,"Anand Kala Kshetram, Rajamahendravaram - APPCB",23-02-2024 19:00:00,16.9872867,81.7363176,PM10,51,151,74
India,Andhra_Pradesh,Rajamahendravaram,"Anand Kala Kshetram, Rajamahendravaram - APPCB",23-02-2024 19:00:00,16.9872867,81.7363176,NO2,10,41,20
India,Andhra_Pradesh,Tirupati,"Vaikuntapuram, Tirupati - APPCB",23-02-2024 19:00:00,13.615387,79.409230,PM2.5,19,332,83
India,Andhra_Pradesh,Tirupati,"Vaikuntapuram, Tirupati - APPCB",23-02-2024 19:00:00,13.615387,79.409230,PM10,19,214,62
India,Andhra_Pradesh,Vijayawada,"HB Colony, Vijayawada - APPCB",23-02-2024 19:00:00,16.536107,80.594233,PM10,47,74,60
India,Andhra_Pradesh,Vijayawada,"HB Colony, Vijayawada - APPCB",23-02-2024 19:00:00,16.536107,80.594233,NO2,5,19,9
India,Andhra_Pradesh,Vijayawada,"Kanuru, Vijayawada - APPCB",23-02-2024 19:00:00,16.486692,80.699436,OZONE,25,25,25
India,Andhra_Pradesh,Vijayawada,"Rajiv Gandhi Park, Vijayawada - APPCB",23-02-2024 19:00:00,16.509717,80.612222,NH3,6,7,7
India,Andhra_Pradesh,Vijayawada,"Rajiv Gandhi Park, Vijayawada - APPCB",23-02-2024 19:00:00,16.509717,80.612222,SO2,6,9,7
India,Andhra_Pradesh,Vijayawada,"Rajiv Nagar, Vijayawada - APPCB",23-02-2024 19:00:00,16.554731,80.649110,PM2.5,27,190,57
India,Andhra_Pradesh,Visakhapatnam,"GVM Corporation, Visakhapatnam - APPCB",23-02-2024 19:00:00,17.72,83.3,PM10,68,152,104
India,Arunachal_Pradesh,Naharlagun,"Naharlagun, Naharlagun - APSPCB",23-02-2024 19:00:00,27.103358,93.679645,SO2,3,4,3
India,Assam,Byrnihat,"Central Academy for SFS, Byrnihat - PCBA",23-02-2024 19:00:00,26.071318,91.87488,NO2,37,102,58
India,Assam,Guwahati,"LGBI Airport, Guwahati - PCBA",23-02-2024 19:00:00,26.10887,91.589544,PM2.5,80,340,212
India,Assam,Guwahati,"LGBI Airport, Guwahati - PCBA",23-02-2024 19:00:00,26.10887,91.589544,PM10,89,339,190
India,Assam,Guwahati,"LGBI Airport, Guwahati - PCBA",23-02-2024 19:00:00,26.10887,91.589544,NH3,1,4,2
India,Assam,Guwahati,"Railway Colony, Guwahati - PCBA",23-02-2024 19:00:00,26.181742,91.78063,PM2.5,50,337,198
India,Assam,Nagaon,"Christianpatty, Nagaon - PCBA",23-02-2024 19:00:00,26.349082,92.68449,NO2,14,86,22
India,Assam,Nalbari,"Bata Chowk, Nalbari - PCBA",23-02-2024 19:00:00,26.446912,91.439057,PM2.5,87,283,148
India,Assam,Nalbari,"Bata Chowk, Nalbari - PCBA",23-02-2024 19:00:00,26.446912,91.439057,SO2,6,8,7
India,Assam,Silchar,"Tarapur, Silchar - PCBA",23-02-2024 19:00:00,24.82827,92.79525,PM2.5,41,60,50
India,Assam,Silchar,"Tarapur, Silchar - PCBA",23-02-2024 19:00:00,24.82827,92.79525,CO,29,49,42
India,Assam,Sivasagar,"Girls College, Sivasagar - PCBA",23-02-2024 19:00:00,26.987634,94.636574,PM2.5,14,51,26
India,Assam,Sivasagar,"Girls College, Sivasagar - PCBA",23-02-2024 19:00:00,26.987634,94.636574,NH3,3,3,3
India,Bihar,Aurangabad,"Gurdeo Nagar, Aurangabad - BSPCB",23-02-2024 19:00:00,24.75746,84.366208,SO2,2,9,6
India,Bihar,Aurangabad,"Gurdeo Nagar, Aurangabad - BSPCB",23-02-2024 19:00:00,24.75746,84.366208,CO,48,72,58
India,Bihar,Bhagalpur,"DM Office_Kachari Chowk, Bhagalpur - BSPCB",23-02-2024 19:00:00,25.251013,86.989001,NH3,3,14,7
India,Bihar,Bhagalpur,"DM Office_Kachari Chowk, Bhagalpur - BSPCB",23-02-2024 19:00:00,25.251013,86.989001,OZONE,21,34,25
India,Bihar,Bhagalpur,"Mayaganj, Bhagalpur - BSPCB",23-02-2024 19:00:00,25.265194,87.012947,PM2.5,75,207,134
India,Bihar,Bhagalpur,"Mayaganj, Bhagalpur - BSPCB",23-02-2024 19:00:00,25.265194,87.012947,NH3,6,9,8
India,Bihar,Bhagalpur,"Mayaganj, Bhagalpur - BSPCB",23-02-2024 19:00:00,25.265194,87.012947,SO2,3,13,12
India,Bihar,Bihar Sharif,"D M Colony, Bihar Sharif - BSPCB",23-02-2024 19:00:00,25.204762,85.514960,CO,8,52,27
India,Bihar,Chhapra,"Darshan Nagar, Chhapra - BSPCB",23-02-2024 19:00:00,25.7808257,84.7446768,NH3,8,16,11
India,Bihar,Gaya,"Collectorate, Gaya - BSPCB",23-02-2024 19:00:00,24.7955,84.9994,NO2,1,4,3
India,Bihar,Gaya,"Collectorate, Gaya - BSPCB",23-02-2024 19:00:00,24.7955,84.9994,CO,20,69,39
India,Bihar,Gaya,"Kareemganj, Gaya - BSPCB",23-02-2024 19:00:00,24.792403,84.992416,PM10,19,93,51
India,Bihar,Gaya,"Kareemganj, Gaya - BSPCB",23-02-2024 19:00:00,24.792403,84.992416,NO2,29,31,30
India,Bihar,Gaya,"Kareemganj, Gaya - BSPCB",23-02-2024 19:00:00,24.792403,84.992416,NH3,1,6,3
India,Bihar,Gaya,"Kareemganj, Gaya - BSPCB",23-02-2024 19:00:00,24.792403,84.992416,CO,12,107,38
India,Bihar,Gaya,"SFTI Kusdihra, Gaya - BSPCB",23-02-2024 19:00:00,24.762518,84.982348,PM2.5,29,89,65
India,Bihar,Gaya,"SFTI Kusdihra, Gaya - BSPCB",23-02-2024 19:00:00,24.762518,84.982348,NH3,1,3,2
India,Bihar,Gaya,"SFTI Kusdihra, Gaya - BSPCB",23-02-2024 19:00:00,24.762518,84.982348,SO2,7,9,8
India,Bihar,Hajipur,"Industrial Area, Hajipur - BSPCB",23-02-2024 19:00:00,25.697189,85.245900,PM10,126,356,163
India,Bihar,Katihar,"Mirchaibari, Katihar - BSPCB",23-02-2024 19:00:00,25.560083,87.553265,NH3,3,4,3
India,Bihar,Katihar,"Mirchaibari, Katihar - BSPCB",23-02-2024 19:00:00,25.560083,87.553265,SO2,17,22,19
India,Bihar,Katihar,"Mirchaibari, Katihar - BSPCB",23-02-2024 19:00:00,25.560083,87.553265,OZONE,19,24,22
India,Bihar,Motihari,"Gandak Colony, Motihari - BSPCB",23-02-2024 19:00:00,26.63086,84.90051,SO2,1,14,6
India,Bihar,Munger,"Town Hall, Munger - BSPCB",23-02-2024 19:00:00,25.376776,86.471523,CO,6,111,8
India,Bihar,Muzaffarpur,"Buddha Colony, Muzaffarpur - BSPCB",23-02-2024 19:00:00,26.11442,85.39813,SO2,2,8,4
India,Bihar,Muzaffarpur,"Buddha Colony, Muzaffarpur - BSPCB",23-02-2024 19:00:00,26.11442,85.39813,CO,10,91,18
India,Bihar,Muzaffarpur,"Muzaffarpur Collectorate, Muzaffarpur - BSPCB",23-02-2024 19:00:00,26.1209,85.3647,PM2.5,52,211,107
India,Bihar,Muzaffarpur,"Muzaffarpur Collectorate, Muzaffarpur - BSPCB",23-02-2024 19:00:00,26.1209,85.3647,NO2,4,12,8
India,Bihar,Patna,"DRM Office Danapur, Patna - BSPCB",23-02-2024 19:00:00,25.586562,85.043586,PM2.5,68,163,116
India,Bihar,Patna,"DRM Office Danapur, Patna - BSPCB",23-02-2024 19:00:00,25.586562,85.043586,SO2,6,7,7
India,Bihar,Patna,"DRM Office Danapur, Patna - BSPCB",23-02-2024 19:00:00,25.586562,85.043586,OZONE,1,67,48
India,Bihar,Patna,"Govt. High School Shikarpur, Patna - BSPCB",23-02-2024 19:00:00,25.592539,85.227158,SO2,2,4,3
India,Bihar,Patna,"IGSC Planetarium Complex, Patna - BSPCB",23-02-2024 19:00:00,25.610369,85.132568,PM2.5,42,83,64
India,Bihar,Patna,"IGSC Planetarium Complex, Patna - BSPCB",23-02-2024 19:00:00,25.610369,85.132568,NO2,12,12,12
India,Bihar,Patna,"Muradpur, Patna - BSPCB",23-02-2024 19:00:00,25.619651,85.147382,PM2.5,62,250,131
India,Bihar,Patna,"Muradpur, Patna - BSPCB",23-02-2024 19:00:00,25.619651,85.147382,PM10,149,400,198
India,Bihar,Patna,"Muradpur, Patna - BSPCB",23-02-2024 19:00:00,25.619651,85.147382,CO,23,106,46
India,Bihar,Patna,"Rajbansi Nagar, Patna - BSPCB",23-02-2024 19:00:00,25.599486,85.113666,NO2,32,62,41
India,Bihar,Patna,"Rajbansi Nagar, Patna - BSPCB",23-02-2024 19:00:00,25.599486,85.113666,OZONE,1,55,35
India,Bihar,Patna,"Samanpura, Patna - BSPCB",23-02-2024 19:00:00,25.596727,85.085624,PM2.5,110,500,251
India,Bihar,Patna,"Samanpura, Patna - BSPCB",23-02-2024 19:00:00,25.596727,85.085624,PM10,130,500,209
India,Bihar,Patna,"Samanpura, Patna - BSPCB",23-02-2024 19:00:00,25.596727,85.085624,NO2,50,68,60
India,Bihar,Patna,"Samanpura, Patna - BSPCB",23-02-2024 19:00:00,25.596727,85.085624,OZONE,8,36,27
India,Bihar,Purnia,"Mariam Nagar, Purnia - BSPCB",23-02-2024 19:00:00,25.366336,87.117468,CO,30,102,54
India,Bihar,Rajgir,"Dangi Tola, Rajgir - BSPCB",23-02-2024 19:00:00,25.03280,85.41948,PM10,24,101,58
India,Bihar,Rajgir,"Dangi Tola, Rajgir - BSPCB",23-02-2024 19:00:00,25.03280,85.41948,SO2,NA,NA,NA
India,Bihar,Saharsa,"Police Line, Saharsa - BSPCB",23-02-2024 19:00:00,25.892357,86.590325,NO2,6,9,7
India,Bihar,Samastipur,"DM Office_Kasipur, Samastipur - BSPCB",23-02-2024 19:00:00,25.859655,85.77944,NO2,3,28,13
India,Bihar,Samastipur,"DM Office_Kasipur, Samastipur - BSPCB",23-02-2024 19:00:00,25.859655,85.77944,SO2,3,14,8
India,Bihar,Sasaram,"Dada Peer, Sasaram - BSPCB",23-02-2024 19:00:00,24.952822,84.002396,PM10,32,134,78
India,Bihar,Sasaram,"Dada Peer, Sasaram - BSPCB",23-02-2024 19:00:00,24.952822,84.002396,NH3,8,15,10
India,Chandigarh,Chandigarh,"Sector 22, Chandigarh - CPCC",23-02-2024 19:00:00,30.735567,76.775714,NO2,15,90,38
India,Chandigarh,Chandigarh,"Sector-53, Chandigarh - CPCC",23-02-2024 19:00:00,30.719859,76.738637,NO2,29,81,48
India,Chhattisgarh,Bhilai,"32Bungalows, Bhilai - CECB",23-02-2024 19:00:00,21.194815,81.314770,PM2.5,23,39,30
India,Chhattisgarh,Bhilai,"Civic Center, Bhilai - Bhilai Steel Plant",23-02-2024 19:00:00,21.185571,81.343175,OZONE,21,48,38
India,Chhattisgarh,Bhilai,"Hathkhoj, Bhilai - CECB",23-02-2024 19:00:00,21.224231,81.408350,PM2.5,19,84,40
India,Chhattisgarh,Bhilai,"Hathkhoj, Bhilai - CECB",23-02-2024 19:00:00,21.224231,81.408350,CO,16,41,20
India,Chhattisgarh,Chhal,"Nawapara SECL Colony, Chhal - CECB",23-02-2024 19:00:00,22.118125,83.140608,NH3,2,2,2
India,Chhattisgarh,Chhal,"Nawapara SECL Colony, Chhal - CECB",23-02-2024 19:00:00,22.118125,83.140608,CO,20,65,24
India,Chhattisgarh,Korba,"Urja Nagar, Korba - CECB",23-02-2024 19:00:00,22.348441,82.549611,PM2.5,10,61,26
India,Chhattisgarh,Korba,"Urja Nagar, Korba - CECB",23-02-2024 19:00:00,22.348441,82.549611,CO,16,32,20
India,Chhattisgarh,Kunjemura,"OP Jindal School, Kunjemura - CECB",23-02-2024 19:00:00,22.126650,83.483212,SO2,1,11,5
India,Chhattisgarh,Milupara,"Govt. Higher Secondary School, Milupara - CECB",23-02-2024 19:00:00,22.1910172,83.5197009,PM2.5,17,41,27
India,Chhattisgarh,Milupara,"Govt. Higher Secondary School, Milupara - CECB",23-02-2024 19:00:00,22.1910172,83.5197009,PM10,26,85,51
India,Chhattisgarh,Raipur,"AIIMS, Raipur - CECB",23-02-2024 19:00:00,21.258815,81.578979,PM2.5,NA,NA,NA
India,Chhattisgarh,Raipur,"AIIMS, Raipur - CECB",23-02-2024 19:00:00,21.258815,81.578979,NH3,NA,NA,NA
India,Chhattisgarh,Raipur,"Siltara Phase-II, Raipur - CECB",23-02-2024 19:00:00,21.371751,81.664929,NO2,45,72,52
India,Chhattisgarh,Raipur,"Siltara Phase-II, Raipur - CECB",23-02-2024 19:00:00,21.371751,81.664929,NH3,2,3,2
India,Chhattisgarh,Tumidih,"OP Jindal Industrial Park, Tumidih - CECB",23-02-2024 19:00:00,22.06631475,83.33820077,NO2,5,30,12
India,Chhattisgarh,Tumidih,"OP Jindal Industrial Park, Tumidih - CECB",23-02-2024 19:00:00,22.06631475,83.33820077,NH3,1,3,2
India,Delhi,Delhi,"Anand Vihar, Delhi - DPCC",23-02-2024 19:00:00,28.647622,77.3158090,PM10,81,299,154
India,Delhi,Delhi,"Anand Vihar, Delhi - DPCC",23-02-2024 19:00:00,28.647622,77.3158090,NH3,2,12,6
India,Delhi,Delhi,"Anand Vihar, Delhi - DPCC",23-02-2024 19:00:00,28.647622,77.3158090,CO,56,106,67
India,Delhi,Delhi,"Ashok Vihar, Delhi - DPCC",23-02-2024 19:00:00,28.695381,77.181665,NO2,15,83,52
India,Delhi,Delhi,"Aya Nagar, Delhi - IMD",23-02-2024 19:00:00,28.4706914,77.1099364,PM2.5,NA,NA,NA
India,Delhi,Delhi,"Aya Nagar, Delhi - IMD",23-02-2024 19:00:00,28.4706914,77.1099364,NO2,NA,NA,NA
India,Delhi,Delhi,"Burari Crossing, Delhi - IMD",23-02-2024 19:00:00,28.7256504,77.2011573,CO,28,56,43
India,Delhi,Delhi,"DTU, Delhi - CPCB",23-02-2024 19:00:00,28.7500499,77.1112615,NH3,11,15,12
India,Delhi,Delhi,"Dwarka-Sector 8, Delhi - DPCC ",23-02-2024 19:00:00,28.5710274,77.0719006,OZONE,1,77,67
India,Delhi,Delhi,"IGI Airport (T3), Delhi - IMD",23-02-2024 19:00:00,28.5627763,77.1180053,PM10,74,156,120
India,Delhi,Delhi,"IGI Airport (T3), Delhi - IMD",23-02-2024 19:00:00,28.5627763,77.1180053,CO,2,24,5
India,Delhi,Delhi,"Jahangirpuri, Delhi - DPCC",23-02-2024 19:00:00,28.732820,77.170633,PM10,104,297,184
India,Delhi,Delhi,"Jahangirpuri, Delhi - DPCC",23-02-2024 19:00:00,28.732820,77.170633,NH3,15,23,18
India,Delhi,Delhi,"Jawaharlal Nehru Stadium, Delhi - DPCC",23-02-2024 19:00:00,28.580280,77.233829,OZONE,1,132,111
India,Delhi,Delhi,"Lodhi Road, Delhi - IITM",23-02-2024 19:00:00,28.588333,77.221667,PM10,5,184,56
India,Delhi,Delhi,"Lodhi Road, Delhi - IMD",23-02-2024 19:00:00,28.5918245,77.2273074,PM2.5,39,96,66
India,Delhi,Delhi,"Lodhi Road, Delhi - IMD",23-02-2024 19:00:00,28.5918245,77.2273074,PM10,71,121,95
India,Delhi,Delhi,"Mandir Marg, Delhi - DPCC",23-02-2024 19:00:00,28.636429,77.201067,NO2,103,124,114
India,Delhi,Delhi,"Mundka, Delhi - DPCC",23-02-2024 19:00:00,28.684678,77.076574,PM2.5,40,375,184
India,Delhi,Delhi,"Mundka, Delhi - DPCC",23-02-2024 19:00:00,28.684678,77.076574,PM10,116,417,199
India,Delhi,Delhi,"Najafgarh, Delhi - DPCC",23-02-2024 19:00:00,28.570173,76.933762,NH3,1,1,1
India,Delhi,Delhi,"Nehru Nagar, Delhi - DPCC",23-02-2024 19:00:00,28.567890,77.250515,OZONE,2,174,146
India,Delhi,Delhi,"Patparganj, Delhi - DPCC",23-02-2024 19:00:00,28.623763,77.287209,NO2,33,63,49
India,Delhi,Delhi,"Punjabi Bagh, Delhi - DPCC",23-02-2024 19:00:00,28.674045,77.131023,CO,28,59,33
India,Delhi,Delhi,"Punjabi Bagh, Delhi - DPCC",23-02-2024 19:00:00,28.674045,77.131023,OZONE,7,56,33
India,Delhi,Delhi,"Shadipur, Delhi - CPCB",23-02-2024 19:00:00,28.6514781,77.1473105,PM2.5,86,344,208
India,Delhi,Delhi,"Sonia Vihar, Delhi - DPCC",23-02-2024 19:00:00,28.710508,77.249485,PM10,68,256,138
India,Delhi,Delhi,"Sri Aurobindo Marg, Delhi - DPCC",23-02-2024 19:00:00,28.531346,77.190156,PM10,78,149,110
India,Delhi,Delhi,"Vivek Vihar, Delhi - DPCC",23-02-2024 19:00:00,28.672342,77.315260,PM2.5,38,222,110
India,Delhi,Delhi,"Wazirpur, Delhi - DPCC",23-02-2024 19:00:00,28.699793,77.165453,SO2,10,48,27
India,Gujarat,Ahmedabad,"Maninagar, Ahmedabad - GPCB",23-02-2024 19:00:00,23.002657,72.591912,PM2.5,NA,NA,NA
India,Gujarat,Ahmedabad,"Maninagar, Ahmedabad - GPCB",23-02-2024 19:00:00,23.002657,72.591912,PM10,NA,NA,NA
India,Gujarat,Ahmedabad,"Maninagar, Ahmedabad - GPCB",23-02-2024 19:00:00,23.002657,72.591912,NO2,NA,NA,NA
India,Gujarat,Ahmedabad,"Raikhad, Ahmedabad - IITM",23-02-2024 19:00:00,23.020509,72.579261,NO2,19,80,36
India,Gujarat,Ahmedabad,"Raikhad, Ahmedabad - IITM",23-02-2024 19:00:00,23.020509,72.579261,SO2,4,14,7
India,Gujarat,Ahmedabad,"Rakhial, Ahmedabad - IITM",23-02-2024 19:00:00,23.016834,72.625775,SO2,2,43,10
India,Gujarat,Ahmedabad,"SAC ISRO Bopal, Ahmedabad - IITM",23-02-2024 19:00:00,23.041137,72.456691,PM10,78,139,102
India,Gujarat,Ahmedabad,"SAC ISRO Bopal, Ahmedabad - IITM",23-02-2024 19:00:00,23.041137,72.456691,NO2,12,13,12
India,Gujarat,Ahmedabad,"SAC ISRO Bopal, Ahmedabad - IITM",23-02-2024 19:00:00,23.041137,72.456691,NH3,3,4,4
India,Gujarat,Ahmedabad,"SAC ISRO Bopal, Ahmedabad - IITM",23-02-2024 19:00:00,23.041137,72.456691,SO2,6,13,9
India,Gujarat,Ahmedabad,"SAC ISRO Bopal, Ahmedabad - IITM",23-02-2024 19:00:00,23.041137,72.456691,CO,18,34,34
India,Gujarat,Ahmedabad,"SAC ISRO Satellite, Ahmedabad - IITM",23-02-2024 19:00:00,23.023389,72.515201,PM2.5,127,170,151
India,Gujarat,Ahmedabad,"SVPI Airport Hansol, Ahmedabad - IITM",23-02-2024 19:00:00,23.076793,72.627874,SO2,3,4,3
India,Gujarat,Ahmedabad,"SVPI Airport Hansol, Ahmedabad - IITM",23-02-2024 19:00:00,23.076793,72.627874,OZONE,1,30,24
India,Gujarat,Ahmedabad,"Sardar Vallabhbhai Patel Stadium, Ahmedabad - IITM",23-02-2024 19:00:00,23.043070,72.562968,PM2.5,56,287,116
India,Gujarat,Ankleshwar,"GIDC, Ankleshwar - GPCB",23-02-2024 19:00:00,21.613267,73.010555,PM2.5,39,85,56
India,Gujarat,Gandhinagar,"Sector-10, Gandhinagar - GPCB",23-02-2024 19:00:00,23.221714,72.654328,PM2.5,20,54,29
India,Gujarat,Surat,"Science Center, Surat - SMC",23-02-2024 19:00:00,21.170046,72.795405,CO,13,62,25
India,Gujarat,Vapi,"Phase-1 GIDC, Vapi - GPCB",23-02-2024 19:00:00,20.362421,72.918013,CO,128,192,161
India,Gujarat,Vatva,"Phase-4 GIDC, Vatva - GPCB",23-02-2024 19:00:00,22.969611,72.643500,NH3,1,2,1
India,Haryana,Ambala,"Patti Mehar, Ambala - HSPCB",23-02-2024 19:00:00,30.379589,76.778328,PM10,37,55,46
India,Haryana,Ambala,"Patti Mehar, Ambala - HSPCB",23-02-2024 19:00:00,30.379589,76.778328,NH3,7,8,7
India,Haryana,Ballabgarh,"Nathu Colony, Ballabgarh - HSPCB",23-02-2024 19:00:00,28.3419248,77.319699,NH3,1,4,2
India,Haryana,Bhiwani,"H.B. Colony, Bhiwani - HSPCB",23-02-2024 19:00:00,28.806223,76.141105,NO2,7,11,9
India,Haryana,Bhiwani,"H.B. Colony, Bhiwani - HSPCB",23-02-2024 19:00:00,28.806223,76.141105,NH3,6,6,6
India,Haryana,Bhiwani,"H.B. Colony, Bhiwani - HSPCB",23-02-2024 19:00:00,28.806223,76.141105,SO2,8,95,23
India,Haryana,Charkhi Dadri,"Mini Secretariat, Charkhi Dadri - HSPCB",23-02-2024 19:00:00,28.593883,76.270653,SO2,45,54,51
India,Haryana,Dharuhera,"Municipal Corporation Office, Dharuhera -  HSPCB",23-02-2024 19:00:00,28.206800,76.799700,SO2,NA,NA,NA
India,Haryana,Faridabad,"New Industrial Town, Faridabad - HSPCB",23-02-2024 19:00:00,28.39072,77.30059,PM10,NA,NA,NA
India,Haryana,Faridabad,"New Industrial Town, Faridabad - HSPCB",23-02-2024 19:00:00,28.39072,77.30059,NO2,NA,NA,NA
India,Haryana,Faridabad,"New Industrial Town, Faridabad - HSPCB",23-02-2024 19:00:00,28.39072,77.30059,CO,12,21,15
India,Haryana,Faridabad,"Sector 11, Faridabad - HSPCB",23-02-2024 19:00:00,28.376058,77.315741,PM10,13,173,142
India,Haryana,Faridabad,"Sector 30, Faridabad - HSPCB",23-02-2024 19:00:00,28.4417,77.3217,PM10,108,120,112
India,Haryana,Faridabad,"Sector- 16A, Faridabad - HSPCB",23-02-2024 19:00:00,28.4088421,77.3099081,SO2,NA,NA,NA
India,Haryana,Gurugram,"Vikas Sadan, Gurugram - HSPCB",23-02-2024 19:00:00,28.4501238,77.0263051,PM2.5,18,85,44
India,Haryana,Gurugram,"Vikas Sadan, Gurugram - HSPCB",23-02-2024 19:00:00,28.4501238,77.0263051,SO2,7,49,26
India,Haryana,Hisar,"Urban Estate-II, Hisar - HSPCB",23-02-2024 19:00:00,29.140560,75.744941,NO2,6,13,8
India,Haryana,Hisar,"Urban Estate-II, Hisar - HSPCB",23-02-2024 19:00:00,29.140560,75.744941,CO,40,112,64
India,Haryana,Jind,"Police Lines, Jind - HSPCB",23-02-2024 19:00:00,29.307814,76.337619,SO2,3,47,10
India,Haryana,Jind,"Police Lines, Jind - HSPCB",23-02-2024 19:00:00,29.307814,76.337619,OZONE,6,16,14
India,Haryana,Kaithal,"Rishi Nagar, Kaithal - HSPCB",23-02-2024 19:00:00,29.8006,76.4155,PM2.5,35,99,53
India,Haryana,Karnal,"Sector-12, Karnal - HSPCB",23-02-2024 19:00:00,29.695300,77.002700,PM2.5,21,56,34
India,Haryana,Mandikhera,"General Hospital, Mandikhera - HSPCB",23-02-2024 19:00:00,27.9002,76.9938,NO2,16,22,19
India,Haryana,Manesar,"Sector-2 IMT, Manesar - HSPCB",23-02-2024 19:00:00,28.360699,76.936090,PM2.5,39,86,57
India,Haryana,Manesar,"Sector-2 IMT, Manesar - HSPCB",23-02-2024 19:00:00,28.360699,76.936090,NH3,7,17,11
India,Haryana,Narnaul,"Shastri Nagar, Narnaul - HSPCB",23-02-2024 19:00:00,28.060249,76.113115,PM2.5,6,87,37
India,Haryana,Narnaul,"Shastri Nagar, Narnaul - HSPCB",23-02-2024 19:00:00,28.060249,76.113115,PM10,7,103,45
India,Haryana,Panchkula,"Sector-6, Panchkula - HSPCB ",23-02-2024 19:00:00,30.7057778,76.8531805555555,PM2.5,6,59,23
India,Haryana,Panchkula,"Sector-6, Panchkula - HSPCB ",23-02-2024 19:00:00,30.7057778,76.8531805555555,SO2,12,12,12
India,Haryana,Rohtak,"MD University, Rohtak - HSPCB",23-02-2024 19:00:00,28.52123,76.37138,NO2,46,58,51
India,Haryana,Rohtak,"MD University, Rohtak - HSPCB",23-02-2024 19:00:00,28.52123,76.37138,SO2,6,8,7
India,Haryana,Rohtak,"MD University, Rohtak - HSPCB",23-02-2024 19:00:00,28.52123,76.37138,OZONE,42,53,48
India,Haryana,Sirsa,"F-Block, Sirsa - HSPCB",23-02-2024 19:00:00,29.536400,75.015800,SO2,1,11,6
India,Himachal Pradesh,Baddi,"HIMUDA Complex Phase-1, Baddi - HPPCB",23-02-2024 19:00:00,30.943887,76.801991,CO,13,42,19
India,Himachal Pradesh,Baddi,"HIMUDA Complex Phase-1, Baddi - HPPCB",23-02-2024 19:00:00,30.943887,76.801991,OZONE,22,112,98
India,Jammu_and_Kashmir,Srinagar,"Rajbagh, Srinagar - JKSPCB",23-02-2024 19:00:00,34.066206,74.819820,SO2,NA,NA,NA
India,Jharkhand,Dhanbad,"Kalakusuma, Dhanbad - DMC",23-02-2024 19:00:00,23.811548,86.481238,NO2,14,197,96
India,Jharkhand,Dhanbad,"Sardar Patel Nagar, Dhanbad - JSPCB",23-02-2024 19:00:00,23.80569,86.44268,PM2.5,13,65,35
India,Jharkhand,Dhanbad,"Sardar Patel Nagar, Dhanbad - JSPCB",23-02-2024 19:00:00,23.80569,86.44268,CO,134,197,194
India,Karnataka,Bagalkot,"Vidayagiri, Bagalkot - KSPCB",23-02-2024 19:00:00,16.172806,75.659694,PM2.5,20,37,36
India,Karnataka,Belgaum,"Ramteerth Nagar, Belgaum - KSPCB",23-02-2024 19:00:00,15.888653,74.541751,NO2,24,30,27
India,Karnataka,Bengaluru,"BTM Layout, Bengaluru - CPCB",23-02-2024 19:00:00,12.9135218,77.5950804,CO,30,34,32
India,Karnataka,Bengaluru,"Bapuji Nagar, Bengaluru - KSPCB",23-02-2024 19:00:00,12.951913,77.539784,PM2.5,47,164,83
India,Karnataka,Bengaluru,"Bapuji Nagar, Bengaluru - KSPCB",23-02-2024 19:00:00,12.951913,77.539784,SO2,4,6,5
India,Karnataka,Bengaluru,"Hebbal, Bengaluru - KSPCB",23-02-2024 19:00:00,13.029152,77.585901,PM10,28,162,81
India,Karnataka,Bengaluru,"Hebbal, Bengaluru - KSPCB",23-02-2024 19:00:00,13.029152,77.585901,SO2,9,27,16
India,Karnataka,Bengaluru,"Jayanagar 5th Block, Bengaluru - KSPCB",23-02-2024 19:00:00,12.920984,77.584908,NO2,10,20,13
India,Karnataka,Bengaluru,"Jigani, Bengaluru - KSPCB",23-02-2024 19:00:00,12.7816279,77.6299145,NH3,4,4,4
India,Karnataka,Bengaluru,"Kasturi Nagar, Bengaluru - KSPCB",23-02-2024 19:00:00,13.003872,77.664217,PM10,106,222,142
India,Karnataka,Bengaluru,"Kasturi Nagar, Bengaluru - KSPCB",23-02-2024 19:00:00,13.003872,77.664217,CO,20,28,22
India,Karnataka,Bengaluru,"Kasturi Nagar, Bengaluru - KSPCB",23-02-2024 19:00:00,13.003872,77.664217,OZONE,6,226,160
India,Karnataka,Bengaluru,"Peenya, Bengaluru - CPCB",23-02-2024 19:00:00,13.0270199,77.494094,PM2.5,NA,NA,NA
India,Karnataka,Bengaluru,"Sanegurava Halli, Bengaluru - KSPCB",23-02-2024 19:00:00,12.990328,77.5431385,SO2,2,3,3
India,Karnataka,Bengaluru,"Silk Board, Bengaluru - KSPCB",23-02-2024 19:00:00,12.917348,77.622813,NH3,NA,NA,NA
India,Karnataka,Bidar,"Naubad, Bidar - KSPCB",23-02-2024 19:00:00,17.930306,77.482194,PM2.5,38,80,58
India,Karnataka,Bidar,"Naubad, Bidar - KSPCB",23-02-2024 19:00:00,17.930306,77.482194,PM10,77,221,111
India,Karnataka,Chamarajanagar,"Urban, Chamarajanagar - KSPCB",23-02-2024 19:00:00,11.55358,76.55521,PM10,34,62,43
India,Karnataka,Chamarajanagar,"Urban, Chamarajanagar - KSPCB",23-02-2024 19:00:00,11.55358,76.55521,NH3,1,2,2
India,Karnataka,Chikkaballapur,"Chikkaballapur Rural, Chikkaballapur - KSPCB",23-02-2024 19:00:00,13.428828,77.731418,SO2,12,24,16
India,Karnataka,Chikkaballapur,"Chikkaballapur Rural, Chikkaballapur - KSPCB",23-02-2024 19:00:00,13.428828,77.731418,CO,4,36,4
India,Karnataka,Chikkamagaluru,"Kalyana Nagara, Chikkamagaluru - KSPCB",23-02-2024 19:00:00,13.328028,75.797056,PM2.5,14,61,35
India,Karnataka,Chikkamagaluru,"Kalyana Nagara, Chikkamagaluru - KSPCB",23-02-2024 19:00:00,13.328028,75.797056,SO2,3,5,3
India,Karnataka,Dharwad,"Kalabhavan, Dharwad - KSPCB",23-02-2024 19:00:00,15.459706,75.008381,NH3,3,3,3
India,Karnataka,Dharwad,"Kalabhavan, Dharwad - KSPCB",23-02-2024 19:00:00,15.459706,75.008381,CO,32,102,69
India,Karnataka,Gadag,"Panchal Nagar, Gadag - KSPCB",23-02-2024 19:00:00,15.411456,75.638133,PM2.5,22,58,42
India,Karnataka,Hassan,"B.Katihalli, Hassan - KSPCB",23-02-2024 19:00:00,13.008556,76.125258,NO2,11,16,12
India,Karnataka,Haveri,"Ashwini Nagar, Haveri - KSPCB",23-02-2024 19:00:00,14.791800,75.389600,PM2.5,12,60,31
India,Karnataka,Haveri,"Ashwini Nagar, Haveri - KSPCB",23-02-2024 19:00:00,14.791800,75.389600,SO2,14,14,14
India,Karnataka,Hubballi,"Deshpande Nagar, Hubballi - KSPCB",23-02-2024 19:00:00,15.351773,75.140726,NO2,22,27,25
India,Karnataka,Kalaburagi,"Lal Bahadur Shastri Nagar, Kalaburagi - KSPCB",23-02-2024 19:00:00,17.321993,76.822628,NH3,2,2,2
India,Karnataka,Kolar,"Tamaka Ind. Area, Kolar - KSPCB",23-02-2024 19:00:00,13.1276288,78.1570122,OZONE,8,12,10
India,Karnataka,Koppal,"Diwator Nagar, Koppal - KSPCB",23-02-2024 19:00:00,15.347630,76.181767,PM10,19,55,33
India,Karnataka,Madikeri,"Stuart Hill, Madikeri - KSPCB",23-02-2024 19:00:00,12.415911,75.735050,SO2,4,4,4
India,Karnataka,Madikeri,"Stuart Hill, Madikeri - KSPCB",23-02-2024 19:00:00,12.415911,75.735050,OZONE,18,31,25
India,Karnataka,Mangalore,"Kadri, Mangalore - KSPCB",23-02-2024 19:00:00,12.889250,74.853000,PM2.5,23,51,37
India,Karnataka,Mangalore,"Kadri, Mangalore - KSPCB",23-02-2024 19:00:00,12.889250,74.853000,CO,30,37,34
India,Karnataka,Mangalore,"Kadri, Mangalore - KSPCB",23-02-2024 19:00:00,12.889250,74.853000,OZONE,30,32,31
India,Karnataka,Mysuru,"Hebbal 1st Stage, Mysuru - KSPCB",23-02-2024 19:00:00,12.21041,76.37376,PM2.5,29,63,44
India,Karnataka,Mysuru,"Hebbal 1st Stage, Mysuru - KSPCB",23-02-2024 19:00:00,12.21041,76.37376,OZONE,5,95,76
India,Karnataka,Raichur,"Haji Colony, Raichur - KSPCB",23-02-2024 19:00:00,16.208139,77.348417,PM10,53,291,129
India,Karnataka,Raichur,"Haji Colony, Raichur - KSPCB",23-02-2024 19:00:00,16.208139,77.348417,CO,92,144,94
India,Karnataka,Ramanagara,"Vijay Nagar, Ramanagara - KSPCB",23-02-2024 19:00:00,12.733409,77.298051,OZONE,28,30,29
India,Karnataka,Shivamogga,"Vinoba Nagara, Shivamogga - KSPCB",23-02-2024 19:00:00,13.940000,75.555917,PM2.5,33,67,50
India,Karnataka,Shivamogga,"Vinoba Nagara, Shivamogga - KSPCB",23-02-2024 19:00:00,13.940000,75.555917,CO,9,47,43
India,Karnataka,Shivamogga,"Vinoba Nagara, Shivamogga - KSPCB",23-02-2024 19:00:00,13.940000,75.555917,OZONE,8,78,68
India,Karnataka,Udupi,"Brahmagiri, Udupi - KSPCB",23-02-2024 19:00:00,13.34194444,74.74694444,NO2,NA,NA,NA
India,Karnataka,Vijayapura,"Ibrahimpur, Vijayapura - KSPCB",23-02-2024 19:00:00,16.802639,75.722694,NH3,2,2,2
India,Karnataka,Yadgir,"Collector Office, Yadgir - KSPCB",23-02-2024 19:00:00,16.7602,77.1428,NO2,5,11,7
India,Karnataka,Yadgir,"Collector Office, Yadgir - KSPCB",23-02-2024 19:00:00,16.7602,77.1428,OZONE,18,20,19
India,Kerala,Eloor,"Udyogamandal, Eloor - Kerala PCB",23-02-2024 19:00:00,10.073232,76.302765,PM2.5,34,68,43
India,Kerala,Eloor,"Udyogamandal, Eloor - Kerala PCB",23-02-2024 19:00:00,10.073232,76.302765,OZONE,10,14,13
India,Kerala,Kochi,"Vyttila, Kochi - Kerala PCB",23-02-2024 19:00:00,9.969447,76.321186,NH3,3,3,3
India,Kerala,Kollam,"Polayathode, Kollam - Kerala PCB",23-02-2024 19:00:00,8.8787,76.6073,NO2,NA,NA,NA
India,Kerala,Kollam,"Polayathode, Kollam - Kerala PCB",23-02-2024 19:00:00,8.8787,76.6073,NH3,NA,NA,NA
India,Kerala,Kollam,"Polayathode, Kollam - Kerala PCB",23-02-2024 19:00:00,8.8787,76.6073,OZONE,34,36,35
India,Kerala,Thiruvananthapuram,"Kariavattom, Thiruvananthapuram - Kerala PCB",23-02-2024 19:00:00,8.563700,76.886500,NO2,8,9,9
India,Kerala,Thiruvananthapuram,"Kariavattom, Thiruvananthapuram - Kerala PCB",23-02-2024 19:00:00,8.563700,76.886500,NH3,1,1,1
India,Kerala,Thiruvananthapuram,"Kariavattom, Thiruvananthapuram - Kerala PCB",23-02-2024 19:00:00,8.563700,76.886500,CO,18,37,25
India,Kerala,Thiruvananthapuram,"Plammoodu, Thiruvananthapuram - Kerala PCB",23-02-2024 19:00:00,8.5149093,76.9435879,PM10,36,60,49
India,Kerala,Thiruvananthapuram,"Plammoodu, Thiruvananthapuram - Kerala PCB",23-02-2024 19:00:00,8.5149093,76.9435879,NO2,9,11,10
India,Kerala,Thiruvananthapuram,"Plammoodu, Thiruvananthapuram - Kerala PCB",23-02-2024 19:00:00,8.5149093,76.9435879,SO2,6,13,9
India,Kerala,Thiruvananthapuram,"Plammoodu, Thiruvananthapuram - Kerala PCB",23-02-2024 19:00:00,8.5149093,76.9435879,OZONE,6,51,14
India,Madhya Pradesh,Bhopal,"Idgah Hills, Bhopal - MPPCB",23-02-2024 19:00:00,23.264759,77.381568,PM10,94,150,119
India,Madhya Pradesh,Bhopal,"Idgah Hills, Bhopal - MPPCB",23-02-2024 19:00:00,23.264759,77.381568,SO2,1,21,10
India,Madhya Pradesh,Bhopal,"Idgah Hills, Bhopal - MPPCB",23-02-2024 19:00:00,23.264759,77.381568,OZONE,39,91,83
India,Madhya Pradesh,Bhopal,"T T Nagar, Bhopal - MPPCB",23-02-2024 19:00:00,23.233584,77.400574,PM10,101,178,132
India,Madhya Pradesh,Bhopal,"T T Nagar, Bhopal - MPPCB",23-02-2024 19:00:00,23.233584,77.400574,NO2,25,67,40
India,Madhya Pradesh,Bhopal,"T T Nagar, Bhopal - MPPCB",23-02-2024 19:00:00,23.233584,77.400574,SO2,19,58,40
India,Madhya Pradesh,Dewas,"Bhopal Chauraha, Dewas - MPPCB",23-02-2024 19:00:00,22.9682591,76.064118,PM10,96,185,128
India,Madhya Pradesh,Dewas,"Bhopal Chauraha, Dewas - MPPCB",23-02-2024 19:00:00,22.9682591,76.064118,SO2,3,50,41
India,Madhya Pradesh,Gwalior,"City Center, Gwalior - MPPCB",23-02-2024 19:00:00,26.203442,78.193251,PM10,52,141,86
India,Madhya Pradesh,Gwalior,"Deen Dayal Nagar, Gwalior - MPPCB",23-02-2024 19:00:00,26.259242,78.216432,PM2.5,3,127,53
India,Madhya Pradesh,Gwalior,"Deen Dayal Nagar, Gwalior - MPPCB",23-02-2024 19:00:00,26.259242,78.216432,PM10,39,145,89
India,Madhya Pradesh,Gwalior,"Deen Dayal Nagar, Gwalior - MPPCB",23-02-2024 19:00:00,26.259242,78.216432,NO2,24,104,49
India,Madhya Pradesh,Gwalior,"Maharaj Bada, Gwalior - MPPCB",23-02-2024 19:00:00,26.200388,78.147714,OZONE,13,133,110
India,Madhya Pradesh,Indore,"Maguda Nagar, Indore - IMC",23-02-2024 19:00:00,22.7524,75.8872,SO2,NA,NA,NA
India,Madhya Pradesh,Indore,"Residency Area, Indore - IMC",23-02-2024 19:00:00,22.7084,75.8815,OZONE,10,18,16
India,Madhya Pradesh,Jabalpur,"Govindh Bhavan Colony, Jabalpur - JMC",23-02-2024 19:00:00,23.163174,79.973061,PM10,40,66,50
India,Madhya Pradesh,Jabalpur,"Gupteshwar, Jabalpur - JMC",23-02-2024 19:00:00,23.142888,79.916147,CO,4,47,26
India,Madhya Pradesh,Jabalpur,"Gupteshwar, Jabalpur - JMC",23-02-2024 19:00:00,23.142888,79.916147,OZONE,32,106,92
India,Madhya Pradesh,Jabalpur,"Marhatal, Jabalpur - MPPCB",23-02-2024 19:00:00,23.168606,79.932247,PM2.5,35,85,63
India,Madhya Pradesh,Jabalpur,"Marhatal, Jabalpur - MPPCB",23-02-2024 19:00:00,23.168606,79.932247,CO,32,66,39
India,Madhya Pradesh,Jabalpur,"Suhagi, Jabalpur - JMC",23-02-2024 19:00:00,23.218135,79.957770,PM10,17,101,48
India,Madhya Pradesh,Jabalpur,"Suhagi, Jabalpur - JMC",23-02-2024 19:00:00,23.218135,79.957770,CO,28,104,48
India,Madhya Pradesh,Katni,"Gole Bazar, Katni - MPPCB",23-02-2024 19:00:00,23.50016,80.23284,PM2.5,29,107,65
India,Madhya Pradesh,Katni,"Gole Bazar, Katni - MPPCB",23-02-2024 19:00:00,23.50016,80.23284,CO,12,28,19
India,Madhya Pradesh,Katni,"Gole Bazar, Katni - MPPCB",23-02-2024 19:00:00,23.50016,80.23284,OZONE,17,98,86
India,Madhya Pradesh,Maihar,"Sahilara, Maihar - KJS Cements",23-02-2024 19:00:00,24.2613009,80.7231783,NO2,14,14,14
India,Madhya Pradesh,Maihar,"Sahilara, Maihar - KJS Cements",23-02-2024 19:00:00,24.2613009,80.7231783,SO2,13,15,14
India,Madhya Pradesh,Mandideep,"Sector-D Industrial Area, Mandideep - MPPCB",23-02-2024 19:00:00,23.108440,77.511428,PM2.5,68,412,191
India,Madhya Pradesh,Mandideep,"Sector-D Industrial Area, Mandideep - MPPCB",23-02-2024 19:00:00,23.108440,77.511428,PM10,62,370,130
India,Madhya Pradesh,Mandideep,"Sector-D Industrial Area, Mandideep - MPPCB",23-02-2024 19:00:00,23.108440,77.511428,OZONE,25,37,35
India,Madhya Pradesh,Pithampur,"Sector-2 Industrial Area, Pithampur - MPPCB",23-02-2024 19:00:00,22.624758,75.675238,PM10,110,272,154
India,Madhya Pradesh,Sagar,"Civil Lines, Sagar - MPPCB",23-02-2024 19:00:00,23.838586,78.759431,PM10,61,130,88
India,Madhya Pradesh,Sagar,"Civil Lines, Sagar - MPPCB",23-02-2024 19:00:00,23.838586,78.759431,CO,11,24,15
India,Madhya Pradesh,Sagar,"Deen Dayal Nagar, Sagar - MPPCB",23-02-2024 19:00:00,23.8640158,78.80289321,PM2.5,8,33,20
India,Madhya Pradesh,Sagar,"Deen Dayal Nagar, Sagar - MPPCB",23-02-2024 19:00:00,23.8640158,78.80289321,PM10,26,111,55
India,Madhya Pradesh,Satna,"Bandhavgar Colony, Satna - Birla Cement",23-02-2024 19:00:00,24.58434363,80.8549414,NO2,5,21,11
India,Madhya Pradesh,Singrauli,"Suryakiran Bhawan NCL, Singrauli - MPPCB",23-02-2024 19:00:00,24.108970,82.645580,PM10,73,141,102
India,Madhya Pradesh,Singrauli,"Suryakiran Bhawan NCL, Singrauli - MPPCB",23-02-2024 19:00:00,24.108970,82.645580,NO2,17,80,37
India,Madhya Pradesh,Singrauli,"Suryakiran Bhawan NCL, Singrauli - MPPCB",23-02-2024 19:00:00,24.108970,82.645580,SO2,38,93,50
India,Madhya Pradesh,Ujjain,"Mahakaleshwar Temple, Ujjain - MPPCB",23-02-2024 19:00:00,23.182719 ,75.768218 ,NH3,3,6,5
India,Maharashtra,Ahmednagar,"Tarakpur, Ahmednagar - MPCB",23-02-2024 19:00:00,19.10122,74.73339,CO,6,51,21
India,Maharashtra,Akola,"Ramdaspeth, Akola - MPCB",23-02-2024 19:00:00,20.719516,77.000253,NO2,10,54,23
India,Maharashtra,Akola,"Ramdaspeth, Akola - MPCB",23-02-2024 19:00:00,20.719516,77.000253,CO,10,68,13
India,Maharashtra,Amravati,"Shivneri Colony, Amravati - MPCB",23-02-2024 19:00:00,20.9402359,77.7895248,PM10,102,142,120
India,Maharashtra,Amravati,"Shri Shivaji Science College, Amaravati - MPCB",23-02-2024 19:00:00,20.939198,77.765701,PM10,104,123,115
India,Maharashtra,Aurangabad,"Rachnakar Colony, Aurangabad - MPCB",23-02-2024 19:00:00,19.863756,75.321188,NO2,10,59,29
India,Maharashtra,Badlapur,"Katrap, Badlapur - MPCB",23-02-2024 19:00:00,19.16485,73.23409,NH3,3,5,4
India,Maharashtra,Badlapur,"Katrap, Badlapur - MPCB",23-02-2024 19:00:00,19.16485,73.23409,SO2,8,50,22
India,Maharashtra,Bhiwandi,"Gokul Nagar, Bhiwandi - MPCB",23-02-2024 19:00:00,19.309073,73.057223,NO2,NA,NA,NA
India,Maharashtra,Chandrapur,"Chauhan Colony, Chandrapur - MPCB",23-02-2024 19:00:00,19.962900,79.298714,NH3,1,3,1
India,Maharashtra,Dhule,"Deopur, Dhule - MPCB",23-02-2024 19:00:00,20.918946,74.776388,NH3,1,10,2
India,Maharashtra,Dhule,"Deopur, Dhule - MPCB",23-02-2024 19:00:00,20.918946,74.776388,OZONE,16,55,46
India,Maharashtra,Jalgaon,"Prabhat Colony, Jalgaon - MPCB",23-02-2024 19:00:00,21.001264,75.565602,NH3,1,2,1
India,Maharashtra,Kolhapur,"Shivaji University, Kolhapur - MPCB",23-02-2024 19:00:00,16.6870449,74.2505872,NH3,3,8,5
India,Maharashtra,Kolhapur,"Shivaji University, Kolhapur - MPCB",23-02-2024 19:00:00,16.6870449,74.2505872,OZONE,3,94,67
India,Maharashtra,Kolhapur,"Sinchan Bhavan, Kolhapur - MPCB",23-02-2024 19:00:00,16.7143745,74.2426398,PM10,64,136,91
India,Maharashtra,Latur,"Sawe Wadi, Latur - MPCB",23-02-2024 19:00:00,18.39963,76.57452,PM2.5,55,89,73
India,Maharashtra,Latur,"Sawe Wadi, Latur - MPCB",23-02-2024 19:00:00,18.39963,76.57452,PM10,74,117,89
India,Maharashtra,Mahad,"Kamble Tarf Birwadi, Mahad - MPCB",23-02-2024 19:00:00,18.1023399,73.4783687,PM10,51,93,68
India,Maharashtra,Mahad,"Kamble Tarf Birwadi, Mahad - MPCB",23-02-2024 19:00:00,18.1023399,73.4783687,NH3,10,10,10
India,Maharashtra,Mira-Bhayandar,"Bhayandar West, Mira-Bhayandar - MPCB",23-02-2024 19:00:00,19.296481,72.840923,PM2.5,NA,NA,NA
India,Maharashtra,Mira-Bhayandar,"Bhayandar West, Mira-Bhayandar - MPCB",23-02-2024 19:00:00,19.296481,72.840923,NH3,NA,NA,NA
India,Maharashtra,Mira-Bhayandar,"Bhayandar West, Mira-Bhayandar - MPCB",23-02-2024 19:00:00,19.296481,72.840923,SO2,NA,NA,NA
India,Maharashtra,Mira-Bhayandar,"Bhayandar West, Mira-Bhayandar - MPCB",23-02-2024 19:00:00,19.296481,72.840923,CO,NA,NA,NA
India,Maharashtra,Mira-Bhayandar,"Bhayandar West, Mira-Bhayandar - MPCB",23-02-2024 19:00:00,19.296481,72.840923,OZONE,NA,NA,NA
India,Maharashtra,Mumbai,"Bandra Kurla Complex, Mumbai - MPCB",23-02-2024 19:00:00,19.065931,72.862131,NH3,9,15,13
India,Maharashtra,Mumbai,"Borivali East, Mumbai - IITM",23-02-2024 19:00:00,19.23241,72.86895,PM2.5,24,132,48
India,Maharashtra,Mumbai,"Borivali East, Mumbai - IITM",23-02-2024 19:00:00,19.23241,72.86895,OZONE,10,70,57
India,Maharashtra,Mumbai,"Byculla, Mumbai - BMC",23-02-2024 19:00:00,18.9767,72.8380,SO2,1,7,2
India,Maharashtra,Mumbai,"Chakala-Andheri East, Mumbai - IITM",23-02-2024 19:00:00,19.11074,72.86084,NO2,68,130,104
India,Maharashtra,Mumbai,"Chakala-Andheri East, Mumbai - IITM",23-02-2024 19:00:00,19.11074,72.86084,SO2,5,31,14
India,Maharashtra,Mumbai,"Chembur, Mumbai - MPCB",23-02-2024 19:00:00,19.0364585,72.8954371,CO,14,40,15
India,Maharashtra,Mumbai,"Chhatrapati Shivaji Intl. Airport (T2), Mumbai - MPCB",23-02-2024 19:00:00,19.10078,72.87462,PM2.5,13,31,23
India,Maharashtra,Mumbai,"Chhatrapati Shivaji Intl. Airport (T2), Mumbai - MPCB",23-02-2024 19:00:00,19.10078,72.87462,PM10,47,117,74
India,Maharashtra,Mumbai,"Ghatkopar, Mumbai - BMC",23-02-2024 19:00:00,19.083694,72.920967,PM2.5,23,87,47
India,Maharashtra,Mumbai,"Ghatkopar, Mumbai - BMC",23-02-2024 19:00:00,19.083694,72.920967,NO2,NA,NA,NA
India,Maharashtra,Mumbai,"Kandivali East, Mumbai - MPCB",23-02-2024 19:00:00,19.205800,72.868200,NO2,21,224,46
India,Maharashtra,Mumbai,"Kandivali West, Mumbai - BMC",23-02-2024 19:00:00,19.215859,72.831718,PM10,37,66,51
India,Maharashtra,Mumbai,"Kandivali West, Mumbai - BMC",23-02-2024 19:00:00,19.215859,72.831718,NH3,1,4,3
India,Maharashtra,Mumbai,"Kandivali West, Mumbai - BMC",23-02-2024 19:00:00,19.215859,72.831718,CO,6,30,10
India,Maharashtra,Mumbai,"Kherwadi_Bandra East, Mumbai - MPCB",23-02-2024 19:00:00,19.0632143,72.8456324,PM2.5,24,96,50
India,Maharashtra,Mumbai,"Khindipada-Bhandup West, Mumbai - IITM",23-02-2024 19:00:00,19.1653323,72.922099,PM2.5,37,161,74
India,Maharashtra,Mumbai,"Khindipada-Bhandup West, Mumbai - IITM",23-02-2024 19:00:00,19.1653323,72.922099,NH3,5,12,8
India,Maharashtra,Mumbai,"Khindipada-Bhandup West, Mumbai - IITM",23-02-2024 19:00:00,19.1653323,72.922099,SO2,1,7,3
India,Maharashtra,Mumbai,"Mazgaon, Mumbai - IITM",23-02-2024 19:00:00,18.96702,72.84214,SO2,NA,NA,NA
India,Maharashtra,Mumbai,"Mindspace-Malad West, Mumbai - MPCB",23-02-2024 19:00:00,19.1878657,72.8304069,NO2,10,19,15
India,Maharashtra,Mumbai,"Mindspace-Malad West, Mumbai - MPCB",23-02-2024 19:00:00,19.1878657,72.8304069,NH3,2,3,2
India,Maharashtra,Mumbai,"Mindspace-Malad West, Mumbai - MPCB",23-02-2024 19:00:00,19.1878657,72.8304069,CO,18,35,19
India,Maharashtra,Mumbai,"Mulund West, Mumbai - MPCB",23-02-2024 19:00:00,19.1750,72.9419,PM2.5,12,48,24
India,Maharashtra,Mumbai,"Mulund West, Mumbai - MPCB",23-02-2024 19:00:00,19.1750,72.9419,PM10,42,100,63
India,Maharashtra,Mumbai,"Mulund West, Mumbai - MPCB",23-02-2024 19:00:00,19.1750,72.9419,NH3,9,11,10
India,Maharashtra,Mumbai,"Navy Nagar-Colaba, Mumbai - IITM",23-02-2024 19:00:00,18.897756,72.813320,PM2.5,18,67,38
India,Maharashtra,Mumbai,"Navy Nagar-Colaba, Mumbai - IITM",23-02-2024 19:00:00,18.897756,72.813320,SO2,2,13,7
India,Maharashtra,Mumbai,"Navy Nagar-Colaba, Mumbai - IITM",23-02-2024 19:00:00,18.897756,72.813320,CO,18,38,27
India,Maharashtra,Mumbai,"Navy Nagar-Colaba, Mumbai - IITM",23-02-2024 19:00:00,18.897756,72.813320,OZONE,2,73,56
India,Maharashtra,Mumbai,"Powai, Mumbai - MPCB",23-02-2024 19:00:00,19.137500,72.915056,PM2.5,NA,NA,NA
India,Maharashtra,Mumbai,"Powai, Mumbai - MPCB",23-02-2024 19:00:00,19.137500,72.915056,PM10,49,117,78
India,Maharashtra,Mumbai,"Powai, Mumbai - MPCB",23-02-2024 19:00:00,19.137500,72.915056,OZONE,21,85,67
India,Maharashtra,Mumbai,"Sewri, Mumbai - BMC",23-02-2024 19:00:00,19.000084,72.856730,PM2.5,12,85,38
India,Maharashtra,Mumbai,"Sewri, Mumbai - BMC",23-02-2024 19:00:00,19.000084,72.856730,SO2,3,14,7
India,Maharashtra,Mumbai,"Shivaji Nagar, Mumbai - BMC",23-02-2024 19:00:00,19.060498,72.923356,PM2.5,24,69,49
India,Maharashtra,Mumbai,"Shivaji Nagar, Mumbai - BMC",23-02-2024 19:00:00,19.060498,72.923356,PM10,82,106,94
India,Maharashtra,Mumbai,"Siddharth Nagar-Worli, Mumbai - IITM",23-02-2024 19:00:00,19.000083,72.813993,PM10,64,163,112
India,Maharashtra,Mumbai,"Siddharth Nagar-Worli, Mumbai - IITM",23-02-2024 19:00:00,19.000083,72.813993,NO2,19,89,44
India,Maharashtra,Mumbai,"Siddharth Nagar-Worli, Mumbai - IITM",23-02-2024 19:00:00,19.000083,72.813993,CO,10,62,30
India,Maharashtra,Mumbai,"Siddharth Nagar-Worli, Mumbai - IITM",23-02-2024 19:00:00,19.000083,72.813993,OZONE,4,88,65
India,Maharashtra,Mumbai,"Sion, Mumbai - MPCB",23-02-2024 19:00:00,19.047000,72.874600,PM2.5,24,57,37
India,Maharashtra,Mumbai,"Sion, Mumbai - MPCB",23-02-2024 19:00:00,19.047000,72.874600,OZONE,12,19,14
India,Maharashtra,Mumbai,"Vasai West, Mumbai - MPCB",23-02-2024 19:00:00,19.383200,72.820400,NO2,26,29,27
India,Maharashtra,Mumbai,"Vile Parle West, Mumbai - MPCB",23-02-2024 19:00:00,19.10861,72.83622,PM2.5,15,39,24
India,Maharashtra,Mumbai,"Vile Parle West, Mumbai - MPCB",23-02-2024 19:00:00,19.10861,72.83622,NO2,1,8,4
India,Maharashtra,Mumbai,"Worli, Mumbai - MPCB",23-02-2024 19:00:00,18.9936162,72.8128113,PM10,44,92,62
India,Maharashtra,Mumbai,"Worli, Mumbai - MPCB",23-02-2024 19:00:00,18.9936162,72.8128113,SO2,10,10,10
India,Maharashtra,Nagpur,"Ambazari, Nagpur - MPCB",23-02-2024 19:00:00,21.121801,79.04952,NH3,1,6,4
India,Maharashtra,Nagpur,"Mahal, Nagpur - MPCB",23-02-2024 19:00:00,21.14472,79.107595,PM2.5,48,135,66
India,Maharashtra,Nagpur,"Mahal, Nagpur - MPCB",23-02-2024 19:00:00,21.14472,79.107595,NH3,3,9,6
India,Maharashtra,Nagpur,"Ram Nagar, Nagpur - MPCB",23-02-2024 19:00:00,21.143383,79.048912,PM10,92,136,111
India,Maharashtra,Nashik,"Gangapur Road, Nashik - MPCB",23-02-2024 19:00:00,20.0073285,73.7762427,SO2,NA,NA,NA
India,Maharashtra,Nashik,"Gangapur Road, Nashik - MPCB",23-02-2024 19:00:00,20.0073285,73.7762427,OZONE,27,50,43
India,Maharashtra,Nashik,"MIDC Ambad, Nashik - MPCB",23-02-2024 19:00:00,19.950220,73.731480,SO2,7,13,10
India,Maharashtra,Nashik,"MIDC Ambad, Nashik - MPCB",23-02-2024 19:00:00,19.950220,73.731480,CO,14,54,18
India,Maharashtra,Nashik,"MIDC Ambad, Nashik - MPCB",23-02-2024 19:00:00,19.950220,73.731480,OZONE,8,69,43
India,Maharashtra,Nashik,"Pandav Nagari, Nashik - MPCB",23-02-2024 19:00:00,19.9591346,73.7788008,NH3,4,6,5
India,Maharashtra,Nashik,"Pandav Nagari, Nashik - MPCB",23-02-2024 19:00:00,19.9591346,73.7788008,SO2,1,10,5
India,Maharashtra,Nashik,"Pandav Nagari, Nashik - MPCB",23-02-2024 19:00:00,19.9591346,73.7788008,OZONE,46,79,74
India,Maharashtra,Navi Mumbai,"Kopripada-Vashi, Navi Mumbai - MPCB",23-02-2024 19:00:00,19.090337,73.014232,PM2.5,18,434,121
India,Maharashtra,Navi Mumbai,"Kopripada-Vashi, Navi Mumbai - MPCB",23-02-2024 19:00:00,19.090337,73.014232,NH3,2,26,9
India,Maharashtra,Navi Mumbai,"Nerul, Navi Mumbai - MPCB",23-02-2024 19:00:00,19.008751,73.016620,PM10,80,345,145
India,Maharashtra,Navi Mumbai,"Sanpada, Navi Mumbai - MPCB",23-02-2024 19:00:00,19.0575752,73.0151367,CO,1,34,3
India,Maharashtra,Navi Mumbai,"Sanpada, Navi Mumbai - MPCB",23-02-2024 19:00:00,19.0575752,73.0151367,OZONE,1,93,65
India,Maharashtra,Navi Mumbai,"Sector-19A Nerul, Navi Mumbai - IITM",23-02-2024 19:00:00,19.044,73.0325,PM10,73,121,103
India,Maharashtra,Navi Mumbai,"Sector-2E Kalamboli, Navi Mumbai - MPCB",23-02-2024 19:00:00,19.02579,73.10297,CO,8,37,12
India,Maharashtra,Navi Mumbai,"Tondare-Taloja, Navi Mumbai - MPCB",23-02-2024 19:00:00,19.0630,73.1209,SO2,NA,NA,NA
India,Maharashtra,Parbhani,"Masoom Colony, Parbhani - MPCB",23-02-2024 19:00:00,19.265594,76.761463,PM10,94,108,101
India,Maharashtra,Parbhani,"Masoom Colony, Parbhani - MPCB",23-02-2024 19:00:00,19.265594,76.761463,SO2,4,106,21
India,Maharashtra,Pimpri-Chinchwad,"Gavalinagar, Pimpri Chinchwad - MPCB",23-02-2024 19:00:00,18.63673,73.82487,SO2,3,14,7
India,Maharashtra,Pimpri-Chinchwad,"Thergaon, Pimpri Chinchwad - MPCB",23-02-2024 19:00:00,18.616318,73.765797,PM2.5,NA,NA,NA
India,Maharashtra,Pimpri-Chinchwad,"Thergaon, Pimpri Chinchwad - MPCB",23-02-2024 19:00:00,18.616318,73.765797,PM10,NA,NA,NA
India,Maharashtra,Pune,"Karve Road, Pune - MPCB",23-02-2024 19:00:00,18.5011743,73.8165527,PM10,12,371,108
India,Maharashtra,Pune,"Katraj Dairy, Pune - MPCB",23-02-2024 19:00:00,18.454450,73.854155,CO,24,70,37
India,Maharashtra,Pune,"Revenue Colony-Shivajinagar, Pune - IITM",23-02-2024 19:00:00,18.530085,73.849598,CO,92,113,111
India,Maharashtra,Pune,"Savitribai Phule Pune University, Pune - MPCB",23-02-2024 19:00:00,18.547056,73.826908,SO2,5,17,9
India,Maharashtra,Sangli,"Vijay Nagar, Sangli - MPCB",23-02-2024 19:00:00, 16.5038,74.3623,OZONE,2,52,43
India,Maharashtra,Solapur,"Ratandeep Housing Society, Solapur - MPCB",23-02-2024 19:00:00,17.65439,75.90649,PM2.5,79,309,138
India,Maharashtra,Solapur,"Ratandeep Housing Society, Solapur - MPCB",23-02-2024 19:00:00,17.65439,75.90649,NO2,24,130,59
India,Maharashtra,Solapur,"Ratandeep Housing Society, Solapur - MPCB",23-02-2024 19:00:00,17.65439,75.90649,NH3,2,19,6
India,Maharashtra,Solapur,"Ratandeep Housing Society, Solapur - MPCB",23-02-2024 19:00:00,17.65439,75.90649,OZONE,3,142,115
India,Maharashtra,Thane,"Kasarvadavali, Thane - MPCB",23-02-2024 19:00:00,19.26777,72.97182,PM10,61,117,83
India,Maharashtra,Thane,"Kasarvadavali, Thane - MPCB",23-02-2024 19:00:00,19.26777,72.97182,SO2,1,13,7
India,Maharashtra,Thane,"Kasarvadavali, Thane - MPCB",23-02-2024 19:00:00,19.26777,72.97182,OZONE,1,93,62
India,Maharashtra,Thane,"Pimpleshwar Mandir, Thane - MPCB",23-02-2024 19:00:00,19.192056,72.9585188,PM10,73,237,119
India,Maharashtra,Ulhasnagar,"Sidhi Vinayak Nagar, Ulhasnagar - MPCB",23-02-2024 19:00:00,19.235581,73.159121,SO2,3,20,11
India,Manipur,Imphal,"Manipur University, Imphal - Manipur PCB",23-02-2024 19:00:00,24.7524239,93.9286218,CO,12,21,15
India,Meghalaya,Shillong,"Lumpyngngad, Shillong - Meghalaya PCB",23-02-2024 19:00:00,25.5586,91.8985,NO2,5,6,6
India,Mizoram,Aizawl,"Sikulpuikawn, Aizawl - Mizoram PCB",23-02-2024 19:00:00,23.7176342,92.7192841,CO,8,16,13
India,Odisha,Angul,"Hakimapada, Angul - OSPCB",23-02-2024 19:00:00,20.832874,85.104082,NH3,1,3,1
India,Odisha,Balasore,"Kalidaspur, Balasore - OSPCB",23-02-2024 19:00:00,21.51161,86.89088,OZONE,35,78,75
India,Odisha,Barbil,"Forest Office, Barbil - OSPCB",23-02-2024 19:00:00,22.1166054,85.3945546,OZONE,20,133,108
India,Odisha,Baripada,"Meher Colony, Baripada - OSPCB",23-02-2024 19:00:00,21.941841,86.728318,PM2.5,98,348,204
India,Odisha,Baripada,"Meher Colony, Baripada - OSPCB",23-02-2024 19:00:00,21.941841,86.728318,NO2,1,5,1
India,Odisha,Baripada,"Meher Colony, Baripada - OSPCB",23-02-2024 19:00:00,21.941841,86.728318,SO2,5,6,6
India,Odisha,Baripada,"Meher Colony, Baripada - OSPCB",23-02-2024 19:00:00,21.941841,86.728318,CO,27,57,30
India,Odisha,Bhubaneswar,"Lingraj Mandir, Bhubaneswar - OSPCB",23-02-2024 19:00:00,20.240790,85.836784,PM2.5,47,253,129
India,Odisha,Bhubaneswar,"Lingraj Mandir, Bhubaneswar - OSPCB",23-02-2024 19:00:00,20.240790,85.836784,SO2,2,11,6
India,Odisha,Bhubaneswar,"Lingraj Mandir, Bhubaneswar - OSPCB",23-02-2024 19:00:00,20.240790,85.836784,CO,10,69,58
India,Odisha,Brajrajnagar,"GM Office, Brajrajnagar - OSPCB",23-02-2024 19:00:00,21.8004996,83.8396977,PM2.5,10,63,32
India,Odisha,Brajrajnagar,"GM Office, Brajrajnagar - OSPCB",23-02-2024 19:00:00,21.8004996,83.8396977,NH3,2,2,2
India,Odisha,Brajrajnagar,"GM Office, Brajrajnagar - OSPCB",23-02-2024 19:00:00,21.8004996,83.8396977,OZONE,19,22,21
India,Odisha,Byasanagar,"Ferro Chrome Colony, Byasanagar - OSPCB",23-02-2024 19:00:00,20.94185,86.11510,NH3,3,4,3
India,Odisha,Cuttack,"CDA Area, Cuttack - OSPCB",23-02-2024 19:00:00,20.48891     ,85.84768     ,CO,20,50,38
India,Odisha,Keonjhar,"Jagamohanpur, Keonjhar - OSPCB",23-02-2024 19:00:00,21.643900,85.599355,CO,12,56,41
India,Odisha,Nayagarh,"Dabuna, Nayagarh - OSPCB",23-02-2024 19:00:00,21.847279,85.416905,NO2,NA,NA,NA
India,Odisha,Nayagarh,"Dabuna, Nayagarh - OSPCB",23-02-2024 19:00:00,21.847279,85.416905,NH3,NA,NA,NA
India,Odisha,Rourkela,"Fertilizer Township, Rourkela - OSPCB",23-02-2024 19:00:00,22.18972222,84.86277778,PM2.5,41,146,78
India,Odisha,Rourkela,"Fertilizer Township, Rourkela - OSPCB",23-02-2024 19:00:00,22.18972222,84.86277778,PM10,89,167,125
India,Odisha,Rourkela,"Raghunathpali, Rourkela - OSPCB",23-02-2024 19:00:00,22.220833,84.809444,CO,19,48,27
India,Odisha,Rourkela,"Sector-2, Rourkela - OSPCB",23-02-2024 19:00:00,22.24500000,84.88111111,PM2.5,NA,NA,NA
India,Odisha,Rourkela,"Sector-2, Rourkela - OSPCB",23-02-2024 19:00:00,22.24500000,84.88111111,NO2,NA,NA,NA
India,Odisha,Suakati,"OMC Colony, Suakati - OSPCB",23-02-2024 19:00:00,21.606865,85.510538,PM2.5,75,163,104
India,Odisha,Tensa,"Barsua Iron Ore Mines, Tensa - OSPCB",23-02-2024 19:00:00,21.869985,85.167016,PM10,77,130,100
India,Odisha,Tensa,"Barsua Iron Ore Mines, Tensa - OSPCB",23-02-2024 19:00:00,21.869985,85.167016,OZONE,4,33,22
India,Puducherry,Puducherry,"Jawahar Nagar, Puducherry - PPCC",23-02-2024 19:00:00,11.9309,79.8027,SO2,4,10,6
India,Puducherry,Puducherry,"Jawahar Nagar, Puducherry - PPCC",23-02-2024 19:00:00,11.9309,79.8027,CO,22,37,27
India,Punjab,Bathinda,"Hardev Nagar, Bathinda - PPCB",23-02-2024 19:00:00,30.233011,74.907758,NO2,30,32,31
India,Punjab,Jalandhar,"Civil Line, Jalandhar - PPCB",23-02-2024 19:00:00,31.321907,75.578914,NH3,2,5,4
India,Punjab,Khanna,"Kalal Majra, Khanna - PPCB",23-02-2024 19:00:00,30.736056 ,76.209694,SO2,13,59,29
India,Punjab,Ludhiana,"Punjab Agricultural University, Ludhiana - PPCB",23-02-2024 19:00:00,30.9028,75.8086,CO,8,102,35
India,Punjab,Mandi Gobindgarh,"RIMT University, Mandi Gobindgarh - PPCB",23-02-2024 19:00:00,30.649961,76.331442,CO,14,30,19
India,Punjab,Patiala,"Model Town, Patiala - PPCB",23-02-2024 19:00:00,30.349388,76.366642,NH3,3,3,3
India,Punjab,Patiala,"Model Town, Patiala - PPCB",23-02-2024 19:00:00,30.349388,76.366642,OZONE,9,95,68
India,Rajasthan,Alwar,"Moti Doongri, Alwar - RSPCB",23-02-2024 19:00:00,27.554793,76.611536,OZONE,8,29,21
India,Rajasthan,Baran,"Bamboliya, Baran - RSPCB",23-02-2024 19:00:00,25.106006,76.469948,NH3,3,5,4
India,Rajasthan,Barmer,"Railway Colony, Barmer - RSPCB",23-02-2024 19:00:00,25.747299,71.393989,NO2,9,22,14
India,Rajasthan,Bharatpur,"Krishna Nagar, Bharatpur - RSPCB",23-02-2024 19:00:00,27.215415,77.50873,PM10,44,200,122
India,Rajasthan,Churu,"Subash Chowk, Churu - RSPCB",23-02-2024 19:00:00,28.296139,74.961696,OZONE,27,116,110
India,Rajasthan,Dungarpur,"Bhoiwada, Dungarpur - RSPCB",23-02-2024 19:00:00,23.837789,73.714926,CO,18,103,68
India,Rajasthan,Hanumangarh,"Housing Board, Hanumangarh - RSPCB",23-02-2024 19:00:00,29.610750,74.283608,SO2,1,16,5
India,Rajasthan,Jaipur,"Adarsh Nagar, Jaipur - RSPCB",23-02-2024 19:00:00,26.902909,75.836858,PM2.5,25,86,52
India,Rajasthan,Jaipur,"Adarsh Nagar, Jaipur - RSPCB",23-02-2024 19:00:00,26.902909,75.836858,NO2,31,85,50
India,Rajasthan,Jaipur,"Adarsh Nagar, Jaipur - RSPCB",23-02-2024 19:00:00,26.902909,75.836858,OZONE,29,65,56
India,Rajasthan,Jaipur,"Mansarovar Sector-12, Jaipur - RSPCB",23-02-2024 19:00:00,26.843698,75.766894,NH3,11,18,14
India,Rajasthan,Jaipur,"RIICO Sitapura, Jaipur - RSPCB",23-02-2024 19:00:00,26.786682,75.827928,PM2.5,22,243,72
India,Rajasthan,Jaipur,"RIICO Sitapura, Jaipur - RSPCB",23-02-2024 19:00:00,26.786682,75.827928,NO2,27,167,50
India,Rajasthan,Jaipur,"Sector-2 Murlipura, Jaipur - RSPCB",23-02-2024 19:00:00,26.960669,75.771817,CO,4,42,25
India,Rajasthan,Jaipur,"Shastri Nagar, Jaipur - RSPCB",23-02-2024 19:00:00,26.9502929,75.730943,NO2,1,28,16
India,Rajasthan,Jaipur,"Shastri Nagar, Jaipur - RSPCB",23-02-2024 19:00:00,26.9502929,75.730943,SO2,2,39,20
India,Rajasthan,Jaipur,"Shastri Nagar, Jaipur - RSPCB",23-02-2024 19:00:00,26.9502929,75.730943,CO,2,76,45
India,Rajasthan,Jaisalmer,"Sadar Bazar, Jaisalmer - RSPCB",23-02-2024 19:00:00,26.912329,70.909168,NH3,NA,NA,NA
India,Rajasthan,Jaisalmer,"Sadar Bazar, Jaisalmer - RSPCB",23-02-2024 19:00:00,26.912329,70.909168,CO,18,29,21
India,Rajasthan,Jalore,"Mudtra Sili, Jalore - RSPCB",23-02-2024 19:00:00,25.344694,72.626208,NH3,4,7,5
India,Rajasthan,Jhalawar,"Rajlaxmi Nagar, Jhalawar - RSPCB",23-02-2024 19:00:00,24.588397,76.172782,SO2,1,21,6
India,Rajasthan,Jhunjhunu,"Indra Nagar, Jhunjhunu - RSPCB",23-02-2024 19:00:00,28.108988,75.386577,PM10,36,248,113
India,Rajasthan,Jhunjhunu,"Indra Nagar, Jhunjhunu - RSPCB",23-02-2024 19:00:00,28.108988,75.386577,SO2,2,9,4
India,Rajasthan,Jodhpur,"Collectorate, Jodhpur - RSPCB",23-02-2024 19:00:00,26.268249,73.0193853,PM10,NA,NA,NA
India,Rajasthan,Jodhpur,"Collectorate, Jodhpur - RSPCB",23-02-2024 19:00:00,26.268249,73.0193853,CO,24,92,61
India,Rajasthan,Jodhpur,"Digari Kalan, Jodhpur - RSPCB",23-02-2024 19:00:00,26.295810,73.082283,OZONE,10,127,108
India,Rajasthan,Jodhpur,"Jhalamand, Jodhpur - RSPCB",23-02-2024 19:00:00,26.215415,73.070156,NO2,25,44,32
India,Rajasthan,Jodhpur,"Jhalamand, Jodhpur - RSPCB",23-02-2024 19:00:00,26.215415,73.070156,CO,8,44,11
India,Rajasthan,Jodhpur,"Mandor, Jodhpur - RSPCB",23-02-2024 19:00:00,26.358805,73.047444,NO2,18,39,28
India,Rajasthan,Jodhpur,"Samrat Ashok Udhyan, Jodhpur - RSPCB",23-02-2024 19:00:00,26.253384,72.976571,PM10,49,150,90
India,Rajasthan,Jodhpur,"Samrat Ashok Udhyan, Jodhpur - RSPCB",23-02-2024 19:00:00,26.253384,72.976571,NO2,7,67,28
India,Rajasthan,Karauli,"Satyawati Vihar, Karauli - RSPCB",23-02-2024 19:00:00,26.506177,77.025989,PM2.5,52,256,92
India,Rajasthan,Karauli,"Satyawati Vihar, Karauli - RSPCB",23-02-2024 19:00:00,26.506177,77.025989,PM10,47,124,70
India,Rajasthan,Kota,"Dhanmandi, Kota - RSPCB",23-02-2024 19:00:00,25.164090,75.858137,NO2,NA,NA,NA
India,Rajasthan,Kota,"Dhanmandi, Kota - RSPCB",23-02-2024 19:00:00,25.164090,75.858137,SO2,NA,NA,NA
India,Rajasthan,Kota,"Dhanmandi, Kota - RSPCB",23-02-2024 19:00:00,25.164090,75.858137,CO,57,66,62
India,Rajasthan,Kota,"Nayapura, Kota - RSPCB",23-02-2024 19:00:00,25.196024,75.855668,PM10,47,191,104
India,Rajasthan,Kota,"Nayapura, Kota - RSPCB",23-02-2024 19:00:00,25.196024,75.855668,CO,15,102,21
India,Rajasthan,Nagaur,"Karni Colony, Nagaur - RSPCB",23-02-2024 19:00:00,27.213494,73.734444,NH3,7,13,9
India,Rajasthan,Nagaur,"Karni Colony, Nagaur - RSPCB",23-02-2024 19:00:00,27.213494,73.734444,SO2,2,7,3
India,Rajasthan,Pratapgarh,"Pragati Nagar, Pratapgarh - RSPCB",23-02-2024 19:00:00,24.041198,74.780702,PM2.5,23,61,41
India,Rajasthan,Pratapgarh,"Pragati Nagar, Pratapgarh - RSPCB",23-02-2024 19:00:00,24.041198,74.780702,NH3,3,5,4
India,Rajasthan,Rajsamand,"Dhoinda, Rajsamand - RSPCB",23-02-2024 19:00:00,25.036360,73.883502,SO2,NA,NA,NA
India,Rajasthan,Rajsamand,"Dhoinda, Rajsamand - RSPCB",23-02-2024 19:00:00,25.036360,73.883502,CO,47,78,60
India,Rajasthan,Sawai Madhopur,"Sahu Nagar, Sawai Madhopur - RSPCB",23-02-2024 19:00:00,26.031443,76.359327,SO2,1,9,5
India,Rajasthan,Sirohi,"Vedhaynath Colony, Sirohi - RSPCB",23-02-2024 19:00:00,24.885261,72.857549,OZONE,15,143,124
India,Rajasthan,Sri Ganganagar,"Old City, Sri Ganganagar - RSPCB",23-02-2024 19:00:00,29.931624,73.864511,PM2.5,48,500,207
India,Rajasthan,Udaipur,"Ashok Nagar, Udaipur - RSPCB",23-02-2024 19:00:00,24.5886166,73.6321397,NH3,1,5,2
India,Sikkim,Gangtok,"Zero Point GICI, Gangtok - SSPCB",23-02-2024 19:00:00,27.338530,88.614099,NO2,1,7,2
India,Sikkim,Gangtok,"Zero Point GICI, Gangtok - SSPCB",23-02-2024 19:00:00,27.338530,88.614099,CO,12,24,15
India,TamilNadu,Chengalpattu,"Crescent University, Chengalpattu - TNPCB",23-02-2024 19:00:00,12.8777316,80.0834807,PM2.5,22,62,38
India,TamilNadu,Chengalpattu,"Crescent University, Chengalpattu - TNPCB",23-02-2024 19:00:00,12.8777316,80.0834807,PM10,19,330,48
India,TamilNadu,Chennai,"Alandur Bus Depot, Chennai - CPCB",23-02-2024 19:00:00,12.9099161,80.1076538,PM2.5,75,124,98
India,TamilNadu,Chennai,"Alandur Bus Depot, Chennai - CPCB",23-02-2024 19:00:00,12.9099161,80.1076538,NO2,12,51,19
India,TamilNadu,Chennai,"Gandhi Nagar_Ennore, Chennai - TNPCB",23-02-2024 19:00:00,13.218341,80.32027,PM10,NA,NA,NA
India,TamilNadu,Chennai,"Gandhi Nagar_Ennore, Chennai - TNPCB",23-02-2024 19:00:00,13.218341,80.32027,SO2,NA,NA,NA
India,TamilNadu,Chennai,"Kodungaiyur, Chennai - TNPCB",23-02-2024 19:00:00,13.1278,80.2642,PM10,NA,NA,NA
India,TamilNadu,Chennai,"Kodungaiyur, Chennai - TNPCB",23-02-2024 19:00:00,13.1278,80.2642,NO2,NA,NA,NA
India,TamilNadu,Chennai,"Manali, Chennai - CPCB",23-02-2024 19:00:00,13.164544,80.26285,NO2,10,14,11
India,TamilNadu,Chennai,"Manali, Chennai - CPCB",23-02-2024 19:00:00,13.164544,80.26285,SO2,5,13,8
India,TamilNadu,Chennai,"Perungudi, Chennai - TNPCB",23-02-2024 19:00:00,12.9533,80.2357,PM2.5,37,85,56
India,TamilNadu,Coimbatore,"PSG College of Arts and Science, Coimbatore - TNPCB",23-02-2024 19:00:00,11.0328,77.0349,NH3,1,1,1
India,TamilNadu,Coimbatore,"PSG College of Arts and Science, Coimbatore - TNPCB",23-02-2024 19:00:00,11.0328,77.0349,SO2,12,21,17
India,TamilNadu,Coimbatore,"PSG College of Arts and Science, Coimbatore - TNPCB",23-02-2024 19:00:00,11.0328,77.0349,CO,5,6,5
India,TamilNadu,Cuddalore,"Kudikadu, Cuddalore - TNPCB",23-02-2024 19:00:00,11.6829898,79.7532099,PM2.5,58,166,85
India,TamilNadu,Cuddalore,"Kudikadu, Cuddalore - TNPCB",23-02-2024 19:00:00,11.6829898,79.7532099,PM10,70,140,94
India,TamilNadu,Cuddalore,"Semmandalam, Cuddalore - TNPCB",23-02-2024 19:00:00,11.7637683,79.7499835,NO2,2,12,6
India,TamilNadu,Gummidipoondi,"Anthoni Pillai Nagar, Gummidipoondi - TNPCB",23-02-2024 19:00:00,13.4127,80.1081,PM10,77,127,105
India,TamilNadu,Kanchipuram,"Kilambi, Kanchipuram - TNPCB",23-02-2024 19:00:00,12.864618,79.659968,PM2.5,NA,NA,NA
India,TamilNadu,Ooty,"Bombay Castel, Ooty - TNPCB",23-02-2024 19:00:00,11.4068288,76.7138973,SO2,NA,NA,NA
India,TamilNadu,Salem,"Sona College of Technology, Salem - TNPCB",23-02-2024 19:00:00,11.679111,78.125052,PM2.5,48,154,75
India,TamilNadu,Salem,"Sona College of Technology, Salem - TNPCB",23-02-2024 19:00:00,11.679111,78.125052,PM10,NA,NA,NA
India,TamilNadu,Thoothukudi,"Meelavittan, Thoothukudi - TNPCB",23-02-2024 19:00:00,8.816428 ,78.099039,PM10,40,117,72
India,TamilNadu,Thoothukudi,"Meelavittan, Thoothukudi - TNPCB",23-02-2024 19:00:00,8.816428 ,78.099039,SO2,11,23,16
India,TamilNadu,Thoothukudi,"Meelavittan, Thoothukudi - TNPCB",23-02-2024 19:00:00,8.816428 ,78.099039,OZONE,3,15,8
India,TamilNadu,Tirupur,"Kumaran College, Tirupur - TNPCB",23-02-2024 19:00:00,11.0973603,77.3228673,PM2.5,11,47,26
India,TamilNadu,Tirupur,"Kumaran College, Tirupur - TNPCB",23-02-2024 19:00:00,11.0973603,77.3228673,NO2,5,72,17
India,TamilNadu,Vellore,"Vasanthapuram, Vellore - TNPCB",23-02-2024 19:00:00,12.909494,79.131861,NO2,7,23,16
India,TamilNadu,Vellore,"Vasanthapuram, Vellore - TNPCB",23-02-2024 19:00:00,12.909494,79.131861,OZONE,1,2,1
India,TamilNadu,Virudhunagar,"Collectorate Office, Virudhunagar - TNPCB",23-02-2024 19:00:00,9.559382,77.948828,PM10,57,95,73
India,TamilNadu,Virudhunagar,"Collectorate Office, Virudhunagar - TNPCB",23-02-2024 19:00:00,9.559382,77.948828,SO2,15,16,16
India,TamilNadu,Virudhunagar,"Collectorate Office, Virudhunagar - TNPCB",23-02-2024 19:00:00,9.559382,77.948828,OZONE,3,3,3
India,Telangana,Hyderabad,"Central University, Hyderabad - TSPCB",23-02-2024 19:00:00,17.460103,78.334361,NO2,22,60,39
India,Telangana,Hyderabad,"ICRISAT Patancheru, Hyderabad - TSPCB",23-02-2024 19:00:00,17.518400,78.278777,CO,26,103,30
India,Telangana,Hyderabad,"ICRISAT Patancheru, Hyderabad - TSPCB",23-02-2024 19:00:00,17.518400,78.278777,OZONE,2,152,124
India,Telangana,Hyderabad,"IITH Kandi, Hyderabad - TSPCB",23-02-2024 19:00:00,17.585705,78.126199,SO2,NA,NA,NA
India,Telangana,Hyderabad,"Kokapet, Hyderabad - TSPCB",23-02-2024 19:00:00,17.393559,78.339194,CO,16,22,17
India,Telangana,Hyderabad,"Kompally Municipal Office, Hyderabad - TSPCB",23-02-2024 19:00:00,17.544899,78.486949,NO2,8,12,9
India,Telangana,Hyderabad,"Nacharam_TSIIC IALA, Hyderabad - TSPCB",23-02-2024 19:00:00,17.429398,78.569354,OZONE,17,49,39
India,Telangana,Hyderabad,"New Malakpet, Hyderabad - TSPCB",23-02-2024 19:00:00,17.37206,78.50864,NH3,2,2,2
India,Telangana,Hyderabad,"New Malakpet, Hyderabad - TSPCB",23-02-2024 19:00:00,17.37206,78.50864,OZONE,4,29,22
India,Telangana,Hyderabad,"Ramachandrapuram, Hyderabad - TSPCB",23-02-2024 19:00:00,17.528544,78.286195,PM10,80,84,82
India,Telangana,Hyderabad,"Ramachandrapuram, Hyderabad - TSPCB",23-02-2024 19:00:00,17.528544,78.286195,NH3,4,4,4
India,Telangana,Hyderabad,"Somajiguda, Hyderabad - TSPCB",23-02-2024 19:00:00,17.417094,78.457437,PM2.5,34,59,45
India,Telangana,Hyderabad,"Zoo Park, Hyderabad - TSPCB",23-02-2024 19:00:00,17.349694,78.451437,PM10,53,156,111
India,Telangana,Hyderabad,"Zoo Park, Hyderabad - TSPCB",23-02-2024 19:00:00,17.349694,78.451437,NO2,14,46,32
India,Telangana,Hyderabad,"Zoo Park, Hyderabad - TSPCB",23-02-2024 19:00:00,17.349694,78.451437,SO2,1,11,4
India,Tripura,Agartala,"Bardowali, Agartala - Tripura SPCB",23-02-2024 19:00:00,23.8175497,91.2726974,NH3,3,4,3
India,Tripura,Agartala,"Bardowali, Agartala - Tripura SPCB",23-02-2024 19:00:00,23.8175497,91.2726974,CO,12,62,36
India,Uttar_Pradesh,Agra,"Manoharpur, Agra - UPPCB",23-02-2024 19:00:00,27.23711,78.01936,SO2,13,20,17
India,Uttar_Pradesh,Agra,"Manoharpur, Agra - UPPCB",23-02-2024 19:00:00,27.23711,78.01936,CO,4,10,6
India,Uttar_Pradesh,Agra,"Rohta, Agra - UPPCB",23-02-2024 19:00:00,27.106972,78.000111,NH3,2,2,2
India,Uttar_Pradesh,Agra,"Rohta, Agra - UPPCB",23-02-2024 19:00:00,27.106972,78.000111,OZONE,21,22,22
India,Uttar_Pradesh,Agra,"Sanjay Palace, Agra - UPPCB",23-02-2024 19:00:00,27.19865833,78.00598056,PM10,23,55,35
India,Uttar_Pradesh,Agra,"Sector-3B Avas Vikas Colony, Agra - UPPCB",23-02-2024 19:00:00,27.19412,77.96237,SO2,12,14,13
India,Uttar_Pradesh,Baghpat,"Sardar Patel Inter College, Baghpat - UPPCB",23-02-2024 19:00:00,28.964949,77.278761,NH3,2,6,4
India,Uttar_Pradesh,Baghpat,"Sardar Patel Inter College, Baghpat - UPPCB",23-02-2024 19:00:00,28.964949,77.278761,OZONE,2,32,29
India,Uttar_Pradesh,Bareilly,"Civil Lines, Bareilly - UPPCB",23-02-2024 19:00:00,28.359581,79.414455,NO2,16,46,24
India,Uttar_Pradesh,Bareilly,"Civil Lines, Bareilly - UPPCB",23-02-2024 19:00:00,28.359581,79.414455,CO,14,36,25
India,Uttar_Pradesh,Bareilly,"Rajendra Nagar, Bareilly - UPPCB",23-02-2024 19:00:00,28.38910936,79.42963708,SO2,41,42,41
India,Uttar_Pradesh,Bareilly,"Rajendra Nagar, Bareilly - UPPCB",23-02-2024 19:00:00,28.38910936,79.42963708,CO,4,31,15
India,Uttar_Pradesh,Bulandshahr,"Yamunapuram, Bulandshahr - UPPCB",23-02-2024 19:00:00,28.406963,77.849831,CO,4,112,59
India,Uttar_Pradesh,Firozabad,"Vibhab Nagar, Firozabad - UPPCB",23-02-2024 19:00:00,27.1594,78.3953,SO2,12,20,15
India,Uttar_Pradesh,Ghaziabad,"Indirapuram, Ghaziabad - UPPCB",23-02-2024 19:00:00,28.646233,77.358075,OZONE,6,49,42
India,Uttar_Pradesh,Ghaziabad,"Loni, Ghaziabad - UPPCB",23-02-2024 19:00:00,28.757294,77.278792,PM2.5,27,211,84
India,Uttar_Pradesh,Ghaziabad,"Vasundhara, Ghaziabad - UPPCB",23-02-2024 19:00:00,28.6603346,77.3572563,PM2.5,20,212,91
India,Uttar_Pradesh,Ghaziabad,"Vasundhara, Ghaziabad - UPPCB",23-02-2024 19:00:00,28.6603346,77.3572563,NH3,5,11,8
India,Uttar_Pradesh,Greater Noida,"Knowledge Park - III, Greater Noida - UPPCB",23-02-2024 19:00:00,28.47272,77.482000,NH3,1,3,2
India,Uttar_Pradesh,Greater Noida,"Knowledge Park - III, Greater Noida - UPPCB",23-02-2024 19:00:00,28.47272,77.482000,OZONE,6,132,103
India,Uttar_Pradesh,Greater Noida,"Knowledge Park - V, Greater Noida - UPPCB",23-02-2024 19:00:00,28.557054,77.453663,SO2,4,38,17
India,Uttar_Pradesh,Greater Noida,"Knowledge Park - V, Greater Noida - UPPCB",23-02-2024 19:00:00,28.557054,77.453663,CO,16,89,43
India,Uttar_Pradesh,Hapur,"Anand Vihar, Hapur - UPPCB",23-02-2024 19:00:00,28.725645,77.749675,PM10,50,133,95
India,Uttar_Pradesh,Hapur,"Anand Vihar, Hapur - UPPCB",23-02-2024 19:00:00,28.725645,77.749675,SO2,14,51,33
India,Uttar_Pradesh,Jhansi,"Shivaji Nagar, Jhansi - UPPCB",23-02-2024 19:00:00,25.4547,78.6039,SO2,10,13,10
India,Uttar_Pradesh,Kanpur,"FTI Kidwai Nagar, Kanpur - UPPCB",23-02-2024 19:00:00,26.428282,80.327067,PM2.5,33,136,60
India,Uttar_Pradesh,Kanpur,"FTI Kidwai Nagar, Kanpur - UPPCB",23-02-2024 19:00:00,26.428282,80.327067,SO2,22,23,23
India,Uttar_Pradesh,Kanpur,"Nehru Nagar, Kanpur - UPPCB",23-02-2024 19:00:00,26.4703136,80.3229863,PM10,18,96,48
India,Uttar_Pradesh,Kanpur,"Nehru Nagar, Kanpur - UPPCB",23-02-2024 19:00:00,26.4703136,80.3229863,NO2,3,77,35
India,Uttar_Pradesh,Khurja,"Kalindi Kunj, Khurja - UPPCB",23-02-2024 19:00:00,28.2348927,77.8683002,PM2.5,1,69,29
India,Uttar_Pradesh,Khurja,"Kalindi Kunj, Khurja - UPPCB",23-02-2024 19:00:00,28.2348927,77.8683002,NH3,1,2,1
India,Uttar_Pradesh,Khurja,"Kalindi Kunj, Khurja - UPPCB",23-02-2024 19:00:00,28.2348927,77.8683002,SO2,26,64,33
India,Uttar_Pradesh,Lucknow,"B R Ambedkar University, Lucknow - UPPCB",23-02-2024 19:00:00,26.766433,80.927299,PM10,49,128,80
India,Uttar_Pradesh,Lucknow,"B R Ambedkar University, Lucknow - UPPCB",23-02-2024 19:00:00,26.766433,80.927299,NH3,4,7,5
India,Uttar_Pradesh,Lucknow,"B R Ambedkar University, Lucknow - UPPCB",23-02-2024 19:00:00,26.766433,80.927299,CO,22,36,26
India,Uttar_Pradesh,Lucknow,"Gomti Nagar, Lucknow - UPPCB",23-02-2024 19:00:00,26.868120,81.005119,PM10,12,92,44
India,Uttar_Pradesh,Lucknow,"Gomti Nagar, Lucknow - UPPCB",23-02-2024 19:00:00,26.868120,81.005119,OZONE,49,70,68
India,Uttar_Pradesh,Lucknow,"Kendriya Vidyalaya, Lucknow - CPCB",23-02-2024 19:00:00,26.906111,80.948222,PM10,72,130,100
India,Uttar_Pradesh,Lucknow,"Kendriya Vidyalaya, Lucknow - CPCB",23-02-2024 19:00:00,26.906111,80.948222,NO2,10,56,25
India,Uttar_Pradesh,Lucknow,"Kendriya Vidyalaya, Lucknow - CPCB",23-02-2024 19:00:00,26.906111,80.948222,NH3,3,20,14
India,Uttar_Pradesh,Lucknow,"Kendriya Vidyalaya, Lucknow - CPCB",23-02-2024 19:00:00,26.906111,80.948222,SO2,3,9,6
India,Uttar_Pradesh,Lucknow,"Kukrail Picnic Spot-1, Lucknow - UPPCB",23-02-2024 19:00:00,26.90723,80.98579,OZONE,18,80,57
India,Uttar_Pradesh,Lucknow,"Lalbagh, Lucknow - CPCB",23-02-2024 19:00:00,26.8458805,80.9365541,PM10,76,145,117
India,Uttar_Pradesh,Lucknow,"Talkatora District Industries Center, Lucknow - CPCB",23-02-2024 19:00:00,26.83399722,80.8917361,CO,4,40,19
India,Uttar_Pradesh,Meerut,"Jai Bhim Nagar, Meerut - UPPCB",23-02-2024 19:00:00,28.9535882,77.7622941,PM10,39,92,64
India,Uttar_Pradesh,Meerut,"Jai Bhim Nagar, Meerut - UPPCB",23-02-2024 19:00:00,28.9535882,77.7622941,NO2,1,34,20
India,Uttar_Pradesh,Meerut,"Jai Bhim Nagar, Meerut - UPPCB",23-02-2024 19:00:00,28.9535882,77.7622941,SO2,1,15,6
India,Uttar_Pradesh,Meerut,"Jai Bhim Nagar, Meerut - UPPCB",23-02-2024 19:00:00,28.9535882,77.7622941,CO,44,74,50
India,Uttar_Pradesh,Meerut,"Pallavpuram Phase 2, Meerut - UPPCB",23-02-2024 19:00:00,29.063510,77.709723,NO2,22,89,44
India,Uttar_Pradesh,Moradabad,"Buddhi Vihar, Moradabad - UPPCB",23-02-2024 19:00:00,28.83526,78.74460,NO2,23,23,23
India,Uttar_Pradesh,Moradabad,"Buddhi Vihar, Moradabad - UPPCB",23-02-2024 19:00:00,28.83526,78.74460,SO2,24,25,24
India,Uttar_Pradesh,Moradabad,"Employment Office, Moradabad - UPPCB",23-02-2024 19:00:00,28.88528,78.73880,NO2,18,18,18
India,Uttar_Pradesh,Moradabad,"Jigar Colony, Moradabad - UPPCB",23-02-2024 19:00:00,28.856664,78.772638,OZONE,16,28,25
India,Uttar_Pradesh,Moradabad,"Transport Nagar, Moradabad - UPPCB",23-02-2024 19:00:00,28.802625,78.753728,NH3,6,6,6
India,Uttar_Pradesh,Moradabad,"Transport Nagar, Moradabad - UPPCB",23-02-2024 19:00:00,28.802625,78.753728,SO2,40,48,44
India,Uttar_Pradesh,Moradabad,"Transport Nagar, Moradabad - UPPCB",23-02-2024 19:00:00,28.802625,78.753728,OZONE,15,38,28
India,Uttar_Pradesh,Noida,"Sector - 125, Noida - UPPCB",23-02-2024 19:00:00,28.5447608,77.3231257,PM10,53,151,91
India,Uttar_Pradesh,Noida,"Sector - 62, Noida - IMD",23-02-2024 19:00:00,28.6245479,77.3577104,PM2.5,36,179,92
India,Uttar_Pradesh,Noida,"Sector-1, Noida - UPPCB",23-02-2024 19:00:00,28.5898,77.3101,SO2,3,19,7
India,Uttar_Pradesh,Noida,"Sector-116, Noida - UPPCB",23-02-2024 19:00:00,28.569230,77.393848,NO2,19,87,47
India,Uttar_Pradesh,Prayagraj,"Jhunsi, Prayagraj - UPPCB",23-02-2024 19:00:00,25.425602,81.917152,PM2.5,18,70,33
India,Uttar_Pradesh,Prayagraj,"Jhunsi, Prayagraj - UPPCB",23-02-2024 19:00:00,25.425602,81.917152,NO2,6,6,6
India,Uttar_Pradesh,Prayagraj,"Jhunsi, Prayagraj - UPPCB",23-02-2024 19:00:00,25.425602,81.917152,NH3,5,5,5
India,Uttar_Pradesh,Prayagraj,"Jhunsi, Prayagraj - UPPCB",23-02-2024 19:00:00,25.425602,81.917152,CO,6,52,10
India,Uttar_Pradesh,Prayagraj,"Nagar Nigam, Prayagraj - UPPCB",23-02-2024 19:00:00,25.44919916 ,81.82735986 ,PM10,45,143,74
India,Uttar_Pradesh,Varanasi,"Ardhali Bazar, Varanasi - UPPCB",23-02-2024 19:00:00,25.3505986,82.9083074,SO2,10,22,14
India,Uttar_Pradesh,Varanasi,"Ardhali Bazar, Varanasi - UPPCB",23-02-2024 19:00:00,25.3505986,82.9083074,CO,2,14,8
India,Uttar_Pradesh,Varanasi,"IESD Banaras Hindu University, Varanasi - UPPCB",23-02-2024 19:00:00,25.262326,82.995408,NO2,2,3,2
India,Uttar_Pradesh,Varanasi,"Maldahiya, Varanasi - UPPCB",23-02-2024 19:00:00,25.32393,82.99687,NO2,1,3,2
India,Uttar_Pradesh,Varanasi,"Maldahiya, Varanasi - UPPCB",23-02-2024 19:00:00,25.32393,82.99687,SO2,18,24,23
India,Uttar_Pradesh,Vrindavan,"Omex Eternity, Vrindavan - UPPCB",23-02-2024 19:00:00,27.5714090,77.6557570,CO,27,60,34
India,Uttarakhand,Kashipur,"Govt. Girls Inter College, Kashipur - UKPCB",23-02-2024 19:00:00,29.2124114,78.9611753,SO2,7,8,8
India,Uttarakhand,Rishikesh,"Shivaji Nagar, Rishikesh - UKPCB",23-02-2024 19:00:00,30.075911,78.2859547,PM2.5,13,33,20
India,Uttarakhand,Rishikesh,"Shivaji Nagar, Rishikesh - UKPCB",23-02-2024 19:00:00,30.075911,78.2859547,SO2,3,5,4
India,Uttarakhand,Rishikesh,"Shivaji Nagar, Rishikesh - UKPCB",23-02-2024 19:00:00,30.075911,78.2859547,CO,6,30,16
India,West_Bengal,Barrackpore,"SVSPA Campus, Barrackpore - WBPCB",23-02-2024 19:00:00,22.7605581,88.3617589,CO,35,79,38
India,West_Bengal,Durgapur,"Sidhu Kanhu Indoor Stadium, Durgapur - WBPCB",23-02-2024 19:00:00,23.5404352,87.2892225,NO2,28,178,41
India,West_Bengal,Durgapur,"Sidhu Kanhu Indoor Stadium, Durgapur - WBPCB",23-02-2024 19:00:00,23.5404352,87.2892225,OZONE,6,43,31
India,West_Bengal,Haldia,"Priyambada Housing Estate, Haldia - WBPCB",23-02-2024 19:00:00,22.06047,88.109737,OZONE,11,117,58
India,West_Bengal,Howrah,"Belur Math, Howrah - WBPCB",23-02-2024 19:00:00,22.629801,88.352017,NH3,3,5,4
India,West_Bengal,Howrah,"Ghusuri, Howrah - WBPCB",23-02-2024 19:00:00,22.611968,88.347422,SO2,3,7,5
India,West_Bengal,Howrah,"Padmapukur, Howrah - WBPCB",23-02-2024 19:00:00,22.5687319,88.2797276,PM10,88,152,112
India,West_Bengal,Howrah,"Padmapukur, Howrah - WBPCB",23-02-2024 19:00:00,22.5687319,88.2797276,NH3,8,15,11
India,West_Bengal,Howrah,"Padmapukur, Howrah - WBPCB",23-02-2024 19:00:00,22.5687319,88.2797276,CO,36,112,67
India,West_Bengal,Kolkata,"Bidhannagar, Kolkata - WBPCB",23-02-2024 19:00:00,22.58157048,88.41002457,NO2,10,22,13
India,West_Bengal,Kolkata,"Bidhannagar, Kolkata - WBPCB",23-02-2024 19:00:00,22.58157048,88.41002457,NH3,9,10,10
India,West_Bengal,Kolkata,"Fort William, Kolkata - WBPCB",23-02-2024 19:00:00,22.556640,88.342674,NO2,22,91,38
India,West_Bengal,Kolkata,"Fort William, Kolkata - WBPCB",23-02-2024 19:00:00,22.556640,88.342674,SO2,7,18,11
India,West_Bengal,Kolkata,"Fort William, Kolkata - WBPCB",23-02-2024 19:00:00,22.556640,88.342674,OZONE,12,85,65
India,West_Bengal,Kolkata,"Rabindra Sarobar, Kolkata - WBPCB",23-02-2024 19:00:00,22.51106,88.35142,OZONE,3,91,63
India,West_Bengal,Kolkata,"Victoria, Kolkata - WBPCB",23-02-2024 19:00:00,22.5448082,88.3403691,NO2,2,16,6
India,West_Bengal,Siliguri,"Ward-32 Bapupara, Siliguri - WBPCB",23-02-2024 19:00:00,26.6879226,88.4152495,NO2,28,92,52
India,Andhra_Pradesh,Amaravati,"Secretariat, Amaravati - APPCB",23-02-2024 19:00:00,16.5150833,80.5181667,PM2.5,38,77,51
India,Andhra_Pradesh,Amaravati,"Secretariat, Amaravati - APPCB",23-02-2024 19:00:00,16.5150833,80.5181667,NO2,8,15,9
India,Andhra_Pradesh,Amaravati,"Secretariat, Amaravati - APPCB",23-02-2024 19:00:00,16.5150833,80.5181667,SO2,11,16,13
India,Andhra_Pradesh,Amaravati,"Secretariat, Amaravati - APPCB",23-02-2024 19:00:00,16.5150833,80.5181667,CO,16,55,29
India,Andhra_Pradesh,Anantapur,"Gulzarpet, Anantapur - APPCB",23-02-2024 19:00:00,14.675886,77.593027,PM10,35,282,100
India,Andhra_Pradesh,Anantapur,"Gulzarpet, Anantapur - APPCB",23-02-2024 19:00:00,14.675886,77.593027,CO,18,115,46
India,Andhra_Pradesh,Chittoor,"Gangineni Cheruvu, Chittoor - APPCB",23-02-2024 19:00:00,13.204880,79.097889,CO,53,64,58
India,Andhra_Pradesh,Chittoor,"Gangineni Cheruvu, Chittoor - APPCB",23-02-2024 19:00:00,13.204880,79.097889,OZONE,21,146,110
India,Andhra_Pradesh,Kadapa,"Yerramukkapalli, Kadapa - APPCB",23-02-2024 19:00:00,14.465052,78.824187,CO,15,110,26
India,Andhra_Pradesh,Kadapa,"Yerramukkapalli, Kadapa - APPCB",23-02-2024 19:00:00,14.465052,78.824187,OZONE,6,102,83
India,Andhra_Pradesh,Rajamahendravaram,"Anand Kala Kshetram, Rajamahendravaram - APPCB",23-02-2024 19:00:00,16.9872867,81.7363176,SO2,11,12,12
India,Andhra_Pradesh,Rajamahendravaram,"Anand Kala Kshetram, Rajamahendravaram - APPCB",23-02-2024 19:00:00,16.9872867,81.7363176,CO,22,39,26
India,Andhra_Pradesh,Tirupati,"Tirumala, Tirupati - APPCB",23-02-2024 19:00:00,13.67,79.35,SO2,4,12,7
India,Andhra_Pradesh,Tirupati,"Tirumala, Tirupati - APPCB",23-02-2024 19:00:00,13.67,79.35,CO,38,61,53
India,Andhra_Pradesh,Tirupati,"Vaikuntapuram, Tirupati - APPCB",23-02-2024 19:00:00,13.615387,79.409230,NO2,16,25,19
India,Andhra_Pradesh,Vijayawada,"HB Colony, Vijayawada - APPCB",23-02-2024 19:00:00,16.536107,80.594233,CO,18,18,18
India,Andhra_Pradesh,Vijayawada,"Rajiv Gandhi Park, Vijayawada - APPCB",23-02-2024 19:00:00,16.509717,80.612222,OZONE,5,63,47
India,Andhra_Pradesh,Visakhapatnam,"GVM Corporation, Visakhapatnam - APPCB",23-02-2024 19:00:00,17.72,83.3,NH3,3,5,4
India,Andhra_Pradesh,Visakhapatnam,"GVM Corporation, Visakhapatnam - APPCB",23-02-2024 19:00:00,17.72,83.3,CO,8,76,22
India,Assam,Byrnihat,"Central Academy for SFS, Byrnihat - PCBA",23-02-2024 19:00:00,26.071318,91.87488,PM10,54,443,191
India,Assam,Guwahati,"IITG, Guwahati - PCBA",23-02-2024 19:00:00,26.2028636,91.70046436,NO2,1,9,4
India,Assam,Guwahati,"IITG, Guwahati - PCBA",23-02-2024 19:00:00,26.2028636,91.70046436,OZONE,2,28,19
India,Assam,Guwahati,"LGBI Airport, Guwahati - PCBA",23-02-2024 19:00:00,26.10887,91.589544,NO2,7,44,19
India,Assam,Guwahati,"LGBI Airport, Guwahati - PCBA",23-02-2024 19:00:00,26.10887,91.589544,SO2,12,13,13
India,Assam,Guwahati,"Railway Colony, Guwahati - PCBA",23-02-2024 19:00:00,26.181742,91.78063,CO,18,106,36
India,Assam,Nagaon,"Christianpatty, Nagaon - PCBA",23-02-2024 19:00:00,26.349082,92.68449,NH3,2,19,3
India,Assam,Nalbari,"Bata Chowk, Nalbari - PCBA",23-02-2024 19:00:00,26.446912,91.439057,NO2,15,31,26
India,Assam,Nalbari,"Bata Chowk, Nalbari - PCBA",23-02-2024 19:00:00,26.446912,91.439057,CO,101,159,159
India,Bihar,Araria,"Kharahiya Basti, Araria - BSPCB",23-02-2024 19:00:00,26.146529,87.454184,CO,20,30,25
India,Bihar,Arrah,"New DM Office, Arrah - BSPCB",23-02-2024 19:00:00,25.5626095,84.663264,CO,6,17,11
India,Bihar,Aurangabad,"Gurdeo Nagar, Aurangabad - BSPCB",23-02-2024 19:00:00,24.75746,84.366208,NO2,NA,NA,NA
India,Bihar,Bettiah,"Kamalnath Nagar, Bettiah - BSPCB",23-02-2024 19:00:00,26.80365,84.51954,PM2.5,NA,NA,NA
India,Bihar,Bettiah,"Kamalnath Nagar, Bettiah - BSPCB",23-02-2024 19:00:00,26.80365,84.51954,NH3,3,5,3
India,Bihar,Bettiah,"Kamalnath Nagar, Bettiah - BSPCB",23-02-2024 19:00:00,26.80365,84.51954,OZONE,1,7,5
India,Bihar,Bhagalpur,"DM Office_Kachari Chowk, Bhagalpur - BSPCB",23-02-2024 19:00:00,25.251013,86.989001,CO,22,80,50
India,Bihar,Bhagalpur,"Mayaganj, Bhagalpur - BSPCB",23-02-2024 19:00:00,25.265194,87.012947,OZONE,9,52,39
India,Bihar,Bihar Sharif,"D M Colony, Bihar Sharif - BSPCB",23-02-2024 19:00:00,25.204762,85.514960,PM2.5,23,98,59
India,Bihar,Buxar,"Charitra Van, Buxar - BSPCB (Formerly known as Central Jail)",23-02-2024 19:00:00,25.567520,83.966379,SO2,16,18,16
India,Bihar,Gaya,"Kareemganj, Gaya - BSPCB",23-02-2024 19:00:00,24.792403,84.992416,PM2.5,3,68,27
India,Bihar,Gaya,"Kareemganj, Gaya - BSPCB",23-02-2024 19:00:00,24.792403,84.992416,SO2,2,10,6
India,Bihar,Gaya,"SFTI Kusdihra, Gaya - BSPCB",23-02-2024 19:00:00,24.762518,84.982348,NO2,24,63,41
India,Bihar,Gaya,"SFTI Kusdihra, Gaya - BSPCB",23-02-2024 19:00:00,24.762518,84.982348,CO,18,44,22
India,Bihar,Hajipur,"Industrial Area, Hajipur - BSPCB",23-02-2024 19:00:00,25.697189,85.245900,NH3,9,13,11
India,Bihar,Hajipur,"Industrial Area, Hajipur - BSPCB",23-02-2024 19:00:00,25.697189,85.245900,OZONE,2,49,14
India,Bihar,Katihar,"Mirchaibari, Katihar - BSPCB",23-02-2024 19:00:00,25.560083,87.553265,CO,24,91,50
India,Bihar,Kishanganj,"SDM Office_Khagra, Kishanganj - BSPCB",23-02-2024 19:00:00,26.0881305,87.93840336,NO2,36,42,38
India,Bihar,Kishanganj,"SDM Office_Khagra, Kishanganj - BSPCB",23-02-2024 19:00:00,26.0881305,87.93840336,OZONE,17,53,46
India,Bihar,Manguraha,"Forest Rest House, Manguraha - BSPCB",23-02-2024 19:00:00,27.308328,84.531742,PM10,NA,NA,NA
India,Bihar,Manguraha,"Forest Rest House, Manguraha - BSPCB",23-02-2024 19:00:00,27.308328,84.531742,CO,24,54,41
India,Bihar,Manguraha,"Forest Rest House, Manguraha - BSPCB",23-02-2024 19:00:00,27.308328,84.531742,OZONE,3,92,52
India,Bihar,Motihari,"Gandak Colony, Motihari - BSPCB",23-02-2024 19:00:00,26.63086,84.90051,PM2.5,42,177,67
India,Bihar,Motihari,"Gandak Colony, Motihari - BSPCB",23-02-2024 19:00:00,26.63086,84.90051,OZONE,21,163,100
India,Bihar,Munger,"Town Hall, Munger - BSPCB",23-02-2024 19:00:00,25.376776,86.471523,PM10,27,88,53
India,Bihar,Munger,"Town Hall, Munger - BSPCB",23-02-2024 19:00:00,25.376776,86.471523,SO2,29,57,46
India,Bihar,Munger,"Town Hall, Munger - BSPCB",23-02-2024 19:00:00,25.376776,86.471523,OZONE,8,17,11
India,Bihar,Muzaffarpur,"MIT-Daudpur Kothi, Muzaffarpur - BSPCB",23-02-2024 19:00:00,26.1403345,85.3650192,PM2.5,43,280,80
India,Bihar,Muzaffarpur,"Muzaffarpur Collectorate, Muzaffarpur - BSPCB",23-02-2024 19:00:00,26.1209,85.3647,OZONE,19,100,49
India,Bihar,Patna,"Govt. High School Shikarpur, Patna - BSPCB",23-02-2024 19:00:00,25.592539,85.227158,NH3,4,4,4
India,Bihar,Patna,"IGSC Planetarium Complex, Patna - BSPCB",23-02-2024 19:00:00,25.610369,85.132568,SO2,6,8,6
India,Bihar,Patna,"Rajbansi Nagar, Patna - BSPCB",23-02-2024 19:00:00,25.599486,85.113666,PM10,106,143,123
India,Bihar,Patna,"Rajbansi Nagar, Patna - BSPCB",23-02-2024 19:00:00,25.599486,85.113666,CO,14,57,25
India,Bihar,Patna,"Samanpura, Patna - BSPCB",23-02-2024 19:00:00,25.596727,85.085624,NH3,1,6,2
India,Bihar,Purnia,"Mariam Nagar, Purnia - BSPCB",23-02-2024 19:00:00,25.366336,87.117468,NO2,10,13,12
India,Bihar,Rajgir,"Dangi Tola, Rajgir - BSPCB",23-02-2024 19:00:00,25.03280,85.41948,NH3,1,2,1
India,Bihar,Rajgir,"Dangi Tola, Rajgir - BSPCB",23-02-2024 19:00:00,25.03280,85.41948,CO,10,11,10
India,Bihar,Saharsa,"Police Line, Saharsa - BSPCB",23-02-2024 19:00:00,25.892357,86.590325,OZONE,17,98,62
India,Bihar,Sasaram,"Dada Peer, Sasaram - BSPCB",23-02-2024 19:00:00,24.952822,84.002396,PM2.5,29,133,67
India,Bihar,Sasaram,"Dada Peer, Sasaram - BSPCB",23-02-2024 19:00:00,24.952822,84.002396,NO2,11,27,18
India,Bihar,Sasaram,"Dada Peer, Sasaram - BSPCB",23-02-2024 19:00:00,24.952822,84.002396,SO2,17,23,22
India,Bihar,Sasaram,"Dada Peer, Sasaram - BSPCB",23-02-2024 19:00:00,24.952822,84.002396,CO,44,128,93
India,Bihar,Sasaram,"Dada Peer, Sasaram - BSPCB",23-02-2024 19:00:00,24.952822,84.002396,OZONE,4,67,41
India,Bihar,Siwan,"Chitragupta Nagar, Siwan - BSPCB",23-02-2024 19:00:00,26.2271665,84.3570427,PM2.5,45,306,200
India,Bihar,Siwan,"Chitragupta Nagar, Siwan - BSPCB",23-02-2024 19:00:00,26.2271665,84.3570427,NH3,1,8,2
India,Chandigarh,Chandigarh,"Sector 22, Chandigarh - CPCC",23-02-2024 19:00:00,30.735567,76.775714,PM2.5,18,308,73
India,Chandigarh,Chandigarh,"Sector 22, Chandigarh - CPCC",23-02-2024 19:00:00,30.735567,76.775714,SO2,4,21,12
India,Chandigarh,Chandigarh,"Sector-53, Chandigarh - CPCC",23-02-2024 19:00:00,30.719859,76.738637,SO2,11,25,17
India,Chandigarh,Chandigarh,"Sector-53, Chandigarh - CPCC",23-02-2024 19:00:00,30.719859,76.738637,OZONE,9,71,62
India,Chhattisgarh,Bhilai,"32Bungalows, Bhilai - CECB",23-02-2024 19:00:00,21.194815,81.314770,OZONE,4,8,6
India,Chhattisgarh,Bhilai,"Civic Center, Bhilai - Bhilai Steel Plant",23-02-2024 19:00:00,21.185571,81.343175,NO2,NA,NA,NA
India,Chhattisgarh,Bhilai,"Civic Center, Bhilai - Bhilai Steel Plant",23-02-2024 19:00:00,21.185571,81.343175,NH3,NA,NA,NA
India,Chhattisgarh,Bhilai,"Civic Center, Bhilai - Bhilai Steel Plant",23-02-2024 19:00:00,21.185571,81.343175,SO2,NA,NA,NA
India,Chhattisgarh,Bhilai,"Civic Center, Bhilai - Bhilai Steel Plant",23-02-2024 19:00:00,21.185571,81.343175,CO,24,47,36
India,Chhattisgarh,Bhilai,"Hathkhoj, Bhilai - CECB",23-02-2024 19:00:00,21.224231,81.408350,SO2,11,42,19
India,Chhattisgarh,Bilaspur,"Mangala, Bilaspur - NTPC",23-02-2024 19:00:00,22.08815,82.13737,NO2,13,17,15
India,Chhattisgarh,Bilaspur,"Mangala, Bilaspur - NTPC",23-02-2024 19:00:00,22.08815,82.13737,CO,36,42,38
India,Chhattisgarh,Chhal,"Nawapara SECL Colony, Chhal - CECB",23-02-2024 19:00:00,22.118125,83.140608,PM2.5,31,73,45
India,Chhattisgarh,Chhal,"Nawapara SECL Colony, Chhal - CECB",23-02-2024 19:00:00,22.118125,83.140608,PM10,38,107,58
India,Chhattisgarh,Chhal,"Nawapara SECL Colony, Chhal - CECB",23-02-2024 19:00:00,22.118125,83.140608,NO2,11,33,18
India,Chhattisgarh,Korba,"Rampur, Korba - CECB",23-02-2024 19:00:00,22.368195,82.746431,PM2.5,15,36,23
India,Chhattisgarh,Kunjemura,"OP Jindal School, Kunjemura - CECB",23-02-2024 19:00:00,22.126650,83.483212,PM2.5,18,50,29
India,Chhattisgarh,Kunjemura,"OP Jindal School, Kunjemura - CECB",23-02-2024 19:00:00,22.126650,83.483212,PM10,26,204,76
India,Chhattisgarh,Milupara,"Govt. Higher Secondary School, Milupara - CECB",23-02-2024 19:00:00,22.1910172,83.5197009,NH3,1,2,2
India,Chhattisgarh,Milupara,"Govt. Higher Secondary School, Milupara - CECB",23-02-2024 19:00:00,22.1910172,83.5197009,SO2,4,20,11
India,Chhattisgarh,Raipur,"AIIMS, Raipur - CECB",23-02-2024 19:00:00,21.258815,81.578979,CO,16,30,20
India,Chhattisgarh,Raipur,"AIIMS, Raipur - CECB",23-02-2024 19:00:00,21.258815,81.578979,OZONE,4,37,14
India,Chhattisgarh,Raipur,"Bhatagaon New ISBT, Raipur - CECB",23-02-2024 19:00:00,21.219665,81.630094,PM10,45,76,57
India,Chhattisgarh,Raipur,"Bhatagaon New ISBT, Raipur - CECB",23-02-2024 19:00:00,21.219665,81.630094,NH3,1,1,1
India,Chhattisgarh,Raipur,"Bhatagaon New ISBT, Raipur - CECB",23-02-2024 19:00:00,21.219665,81.630094,CO,18,38,26
India,Chhattisgarh,Raipur,"Bhatagaon New ISBT, Raipur - CECB",23-02-2024 19:00:00,21.219665,81.630094,OZONE,3,4,4
India,Chhattisgarh,Tumidih,"OP Jindal Industrial Park, Tumidih - CECB",23-02-2024 19:00:00,22.06631475,83.33820077,PM2.5,13,64,27
India,Chhattisgarh,Tumidih,"OP Jindal Industrial Park, Tumidih - CECB",23-02-2024 19:00:00,22.06631475,83.33820077,SO2,5,13,6
India,Chhattisgarh,Tumidih,"OP Jindal Industrial Park, Tumidih - CECB",23-02-2024 19:00:00,22.06631475,83.33820077,CO,12,25,14
India,Delhi,Delhi,"Ashok Vihar, Delhi - DPCC",23-02-2024 19:00:00,28.695381,77.181665,PM10,91,199,132
India,Delhi,Delhi,"Ashok Vihar, Delhi - DPCC",23-02-2024 19:00:00,28.695381,77.181665,OZONE,4,56,24
India,Delhi,Delhi,"Bawana, Delhi - DPCC",23-02-2024 19:00:00,28.776200,77.051074,NH3,5,8,6
India,Delhi,Delhi,"Burari Crossing, Delhi - IMD",23-02-2024 19:00:00,28.7256504,77.2011573,PM2.5,25,356,148
India,Delhi,Delhi,"Burari Crossing, Delhi - IMD",23-02-2024 19:00:00,28.7256504,77.2011573,PM10,81,413,172
India,Delhi,Delhi,"Chandni Chowk, Delhi - IITM",23-02-2024 19:00:00,28.656756,77.227234,PM10,9,500,153
India,Delhi,Delhi,"Dr. Karni Singh Shooting Range, Delhi - DPCC",23-02-2024 19:00:00,28.498571,77.264840,CO,20,81,30
India,Delhi,Delhi,"Dwarka-Sector 8, Delhi - DPCC ",23-02-2024 19:00:00,28.5710274,77.0719006,PM2.5,49,229,107
India,Delhi,Delhi,"Dwarka-Sector 8, Delhi - DPCC ",23-02-2024 19:00:00,28.5710274,77.0719006,NO2,7,63,26
India,Delhi,Delhi,"IGI Airport (T3), Delhi - IMD",23-02-2024 19:00:00,28.5627763,77.1180053,OZONE,2,49,41
India,Delhi,Delhi,"IHBAS, Dilshad Garden, Delhi - CPCB",23-02-2024 19:00:00,28.6811736,77.3025234,PM10,70,143,110
India,Delhi,Delhi,"IHBAS, Dilshad Garden, Delhi - CPCB",23-02-2024 19:00:00,28.6811736,77.3025234,NH3,9,15,13
India,Delhi,Delhi,"IHBAS, Dilshad Garden, Delhi - CPCB",23-02-2024 19:00:00,28.6811736,77.3025234,SO2,3,52,15
India,Delhi,Delhi,"Jahangirpuri, Delhi - DPCC",23-02-2024 19:00:00,28.732820,77.170633,CO,46,101,59
India,Delhi,Delhi,"Jawaharlal Nehru Stadium, Delhi - DPCC",23-02-2024 19:00:00,28.580280,77.233829,PM10,69,163,110
India,Delhi,Delhi,"Jawaharlal Nehru Stadium, Delhi - DPCC",23-02-2024 19:00:00,28.580280,77.233829,NH3,4,9,7
India,Delhi,Delhi,"Lodhi Road, Delhi - IITM",23-02-2024 19:00:00,28.588333,77.221667,PM2.5,6,350,64
India,Delhi,Delhi,"Lodhi Road, Delhi - IITM",23-02-2024 19:00:00,28.588333,77.221667,SO2,18,37,26
India,Delhi,Delhi,"Major Dhyan Chand National Stadium, Delhi - DPCC",23-02-2024 19:00:00,28.611281,77.237738,PM10,60,155,108
India,Delhi,Delhi,"Major Dhyan Chand National Stadium, Delhi - DPCC",23-02-2024 19:00:00,28.611281,77.237738,SO2,7,17,12
India,Delhi,Delhi,"Mandir Marg, Delhi - DPCC",23-02-2024 19:00:00,28.636429,77.201067,PM2.5,37,185,92
India,Delhi,Delhi,"Mandir Marg, Delhi - DPCC",23-02-2024 19:00:00,28.636429,77.201067,PM10,57,124,87
India,Delhi,Delhi,"Mandir Marg, Delhi - DPCC",23-02-2024 19:00:00,28.636429,77.201067,SO2,7,12,9
India,Delhi,Delhi,"Mandir Marg, Delhi - DPCC",23-02-2024 19:00:00,28.636429,77.201067,CO,52,80,59
India,Delhi,Delhi,"Mundka, Delhi - DPCC",23-02-2024 19:00:00,28.684678,77.076574,NH3,5,7,6
India,Delhi,Delhi,"Mundka, Delhi - DPCC",23-02-2024 19:00:00,28.684678,77.076574,SO2,8,105,24
India,Delhi,Delhi,"Mundka, Delhi - DPCC",23-02-2024 19:00:00,28.684678,77.076574,CO,28,59,34
India,Delhi,Delhi,"NSIT Dwarka, Delhi - CPCB",23-02-2024 19:00:00,28.60909,77.0325413,PM2.5,31,176,111
India,Delhi,Delhi,"Najafgarh, Delhi - DPCC",23-02-2024 19:00:00,28.570173,76.933762,SO2,8,16,12
India,Delhi,Delhi,"Narela, Delhi - DPCC",23-02-2024 19:00:00,28.822836,77.101981,CO,37,55,40
India,Delhi,Delhi,"Nehru Nagar, Delhi - DPCC",23-02-2024 19:00:00,28.567890,77.250515,PM10,75,188,120
India,Delhi,Delhi,"Nehru Nagar, Delhi - DPCC",23-02-2024 19:00:00,28.567890,77.250515,NO2,15,25,20
India,Delhi,Delhi,"Nehru Nagar, Delhi - DPCC",23-02-2024 19:00:00,28.567890,77.250515,CO,16,105,66
India,Delhi,Delhi,"North Campus, DU, Delhi - IMD",23-02-2024 19:00:00,28.6573814,77.1585447,PM10,100,165,137
India,Delhi,Delhi,"Okhla Phase-2, Delhi - DPCC",23-02-2024 19:00:00,28.530785,77.271255,PM10,90,178,124
India,Delhi,Delhi,"Patparganj, Delhi - DPCC",23-02-2024 19:00:00,28.623763,77.287209,PM10,94,185,142
India,Delhi,Delhi,"Patparganj, Delhi - DPCC",23-02-2024 19:00:00,28.623763,77.287209,NH3,7,13,10
India,Delhi,Delhi,"Patparganj, Delhi - DPCC",23-02-2024 19:00:00,28.623763,77.287209,SO2,6,11,8
India,Delhi,Delhi,"Pusa, Delhi - DPCC",23-02-2024 19:00:00,28.639652,77.146275,PM10,116,277,177
India,Delhi,Delhi,"Pusa, Delhi - DPCC",23-02-2024 19:00:00,28.639652,77.146275,SO2,13,26,17
India,Delhi,Delhi,"R K Puram, Delhi - DPCC",23-02-2024 19:00:00,28.563262,77.186937,CO,20,75,28
India,Delhi,Delhi,"Rohini, Delhi - DPCC",23-02-2024 19:00:00,28.732528,77.119920,NH3,6,10,7
India,Delhi,Delhi,"Rohini, Delhi - DPCC",23-02-2024 19:00:00,28.732528,77.119920,OZONE,3,123,102
India,Delhi,Delhi,"Shadipur, Delhi - CPCB",23-02-2024 19:00:00,28.6514781,77.1473105,NO2,38,64,55
India,Delhi,Delhi,"Sonia Vihar, Delhi - DPCC",23-02-2024 19:00:00,28.710508,77.249485,SO2,5,21,11
India,Delhi,Delhi,"Sonia Vihar, Delhi - DPCC",23-02-2024 19:00:00,28.710508,77.249485,OZONE,88,127,112
India,Delhi,Delhi,"Sri Aurobindo Marg, Delhi - DPCC",23-02-2024 19:00:00,28.531346,77.190156,PM2.5,41,167,83
India,Delhi,Delhi,"Sri Aurobindo Marg, Delhi - DPCC",23-02-2024 19:00:00,28.531346,77.190156,NO2,18,62,41
India,Delhi,Delhi,"Sri Aurobindo Marg, Delhi - DPCC",23-02-2024 19:00:00,28.531346,77.190156,NH3,5,7,6
India,Delhi,Delhi,"Sri Aurobindo Marg, Delhi - DPCC",23-02-2024 19:00:00,28.531346,77.190156,CO,12,32,16
India,Delhi,Delhi,"Sri Aurobindo Marg, Delhi - DPCC",23-02-2024 19:00:00,28.531346,77.190156,OZONE,1,36,30
India,Delhi,Delhi,"Vivek Vihar, Delhi - DPCC",23-02-2024 19:00:00,28.672342,77.315260,PM10,83,178,128
India,Delhi,Delhi,"Wazirpur, Delhi - DPCC",23-02-2024 19:00:00,28.699793,77.165453,PM10,114,248,156
India,Delhi,Delhi,"Wazirpur, Delhi - DPCC",23-02-2024 19:00:00,28.699793,77.165453,NO2,52,133,101
India,Delhi,Delhi,"Wazirpur, Delhi - DPCC",23-02-2024 19:00:00,28.699793,77.165453,CO,36,92,62
India,Gujarat,Ahmedabad,"Chandkheda, Ahmedabad - IITM",23-02-2024 19:00:00,23.107969,72.574648,CO,78,107,83
India,Gujarat,Ahmedabad,"Gyaspur, Ahmedabad - IITM",23-02-2024 19:00:00,22.977134,72.553024,PM2.5,39,57,50
India,Gujarat,Ahmedabad,"Gyaspur, Ahmedabad - IITM",23-02-2024 19:00:00,22.977134,72.553024,NO2,18,22,19
India,Gujarat,Ahmedabad,"Gyaspur, Ahmedabad - IITM",23-02-2024 19:00:00,22.977134,72.553024,SO2,4,6,4
India,Gujarat,Ahmedabad,"Gyaspur, Ahmedabad - IITM",23-02-2024 19:00:00,22.977134,72.553024,OZONE,3,49,34
India,Gujarat,Ahmedabad,"Raikhad, Ahmedabad - IITM",23-02-2024 19:00:00,23.020509,72.579261,CO,2,49,15
India,Gujarat,Ahmedabad,"Rakhial, Ahmedabad - IITM",23-02-2024 19:00:00,23.016834,72.625775,CO,28,64,37
India,Gujarat,Ahmedabad,"SAC ISRO Bopal, Ahmedabad - IITM",23-02-2024 19:00:00,23.041137,72.456691,PM2.5,81,233,129
India,Gujarat,Ahmedabad,"SAC ISRO Satellite, Ahmedabad - IITM",23-02-2024 19:00:00,23.023389,72.515201,NH3,3,3,3
India,Gujarat,Ahmedabad,"SVPI Airport Hansol, Ahmedabad - IITM",23-02-2024 19:00:00,23.076793,72.627874,CO,10,59,15
India,Gujarat,Ahmedabad,"Sardar Vallabhbhai Patel Stadium, Ahmedabad - IITM",23-02-2024 19:00:00,23.043070,72.562968,NH3,1,2,1
India,Gujarat,Ankleshwar,"GIDC, Ankleshwar - GPCB",23-02-2024 19:00:00,21.613267,73.010555,PM10,51,91,72
India,Gujarat,Ankleshwar,"GIDC, Ankleshwar - GPCB",23-02-2024 19:00:00,21.613267,73.010555,NH3,7,7,7
India,Gujarat,Ankleshwar,"GIDC, Ankleshwar - GPCB",23-02-2024 19:00:00,21.613267,73.010555,CO,13,97,27
India,Gujarat,Ankleshwar,"GIDC, Ankleshwar - GPCB",23-02-2024 19:00:00,21.613267,73.010555,OZONE,21,33,29
India,Gujarat,Gandhinagar,"IIPHG Lekawada, Gandhinagar - IITM",23-02-2024 19:00:00,23.243639,72.68994,NO2,32,33,32
India,Gujarat,Gandhinagar,"IIPHG Lekawada, Gandhinagar - IITM",23-02-2024 19:00:00,23.243639,72.68994,NH3,3,3,3
India,Gujarat,Gandhinagar,"Sector-10, Gandhinagar - GPCB",23-02-2024 19:00:00,23.221714,72.654328,PM10,35,98,68
India,Gujarat,Gandhinagar,"Sector-10, Gandhinagar - GPCB",23-02-2024 19:00:00,23.221714,72.654328,NO2,5,18,10
India,Gujarat,Gandhinagar,"Sector-10, Gandhinagar - GPCB",23-02-2024 19:00:00,23.221714,72.654328,SO2,4,14,6
India,Gujarat,Surat,"Science Center, Surat - SMC",23-02-2024 19:00:00,21.170046,72.795405,PM2.5,9,71,26
India,Gujarat,Vapi,"Phase-1 GIDC, Vapi - GPCB",23-02-2024 19:00:00,20.362421,72.918013,SO2,46,47,46
India,Gujarat,Vatva,"Phase-4 GIDC, Vatva - GPCB",23-02-2024 19:00:00,22.969611,72.643500,SO2,17,17,17
India,Gujarat,Vatva,"Phase-4 GIDC, Vatva - GPCB",23-02-2024 19:00:00,22.969611,72.643500,CO,48,50,49
India,Gujarat,Vatva,"Phase-4 GIDC, Vatva - GPCB",23-02-2024 19:00:00,22.969611,72.643500,OZONE,6,6,6
India,Haryana,Ambala,"Patti Mehar, Ambala - HSPCB",23-02-2024 19:00:00,30.379589,76.778328,CO,30,60,44
India,Haryana,Ambala,"Patti Mehar, Ambala - HSPCB",23-02-2024 19:00:00,30.379589,76.778328,OZONE,9,22,14
India,Haryana,Bahadurgarh,"Arya Nagar, Bahadurgarh - HSPCB",23-02-2024 19:00:00,28.6701,76.9254,NH3,NA,NA,NA
India,Haryana,Ballabgarh,"Nathu Colony, Ballabgarh - HSPCB",23-02-2024 19:00:00,28.3419248,77.319699,CO,14,76,25
India,Haryana,Bhiwani,"H.B. Colony, Bhiwani - HSPCB",23-02-2024 19:00:00,28.806223,76.141105,PM10,19,91,41
India,Haryana,Dharuhera,"Municipal Corporation Office, Dharuhera -  HSPCB",23-02-2024 19:00:00,28.206800,76.799700,NO2,NA,NA,NA
India,Haryana,Faridabad,"New Industrial Town, Faridabad - HSPCB",23-02-2024 19:00:00,28.39072,77.30059,SO2,NA,NA,NA
India,Haryana,Faridabad,"New Industrial Town, Faridabad - HSPCB",23-02-2024 19:00:00,28.39072,77.30059,OZONE,142,246,189
India,Haryana,Faridabad,"Sector 30, Faridabad - HSPCB",23-02-2024 19:00:00,28.4417,77.3217,PM2.5,118,151,128
India,Haryana,Faridabad,"Sector 30, Faridabad - HSPCB",23-02-2024 19:00:00,28.4417,77.3217,NO2,30,33,31
India,Haryana,Faridabad,"Sector 30, Faridabad - HSPCB",23-02-2024 19:00:00,28.4417,77.3217,SO2,12,13,13
India,Haryana,Faridabad,"Sector 30, Faridabad - HSPCB",23-02-2024 19:00:00,28.4417,77.3217,CO,26,87,33
India,Haryana,Gurugram,"Sector-51, Gurugram - HSPCB",23-02-2024 19:00:00,28.4227,77.0667,NH3,6,14,9
India,Haryana,Gurugram,"Sector-51, Gurugram - HSPCB",23-02-2024 19:00:00,28.4227,77.0667,OZONE,27,67,56
India,Haryana,Gurugram,"Teri Gram, Gurugram - HSPCB",23-02-2024 19:00:00,28.4275,77.1465,PM2.5,65,148,95
India,Haryana,Hisar,"Urban Estate-II, Hisar - HSPCB",23-02-2024 19:00:00,29.140560,75.744941,NH3,2,5,3
India,Haryana,Hisar,"Urban Estate-II, Hisar - HSPCB",23-02-2024 19:00:00,29.140560,75.744941,OZONE,32,144,132
India,Haryana,Jind,"Police Lines, Jind - HSPCB",23-02-2024 19:00:00,29.307814,76.337619,NH3,2,5,4
India,Haryana,Kaithal,"Rishi Nagar, Kaithal - HSPCB",23-02-2024 19:00:00,29.8006,76.4155,CO,1,32,4
India,Haryana,Kaithal,"Rishi Nagar, Kaithal - HSPCB",23-02-2024 19:00:00,29.8006,76.4155,OZONE,6,14,13
India,Haryana,Karnal,"Sector-12, Karnal - HSPCB",23-02-2024 19:00:00,29.695300,77.002700,OZONE,28,34,31
India,Haryana,Kurukshetra,"Sector-7, Kurukshetra - HSPCB",23-02-2024 19:00:00,29.966942,76.875879,OZONE,24,82,69
India,Haryana,Mandikhera,"General Hospital, Mandikhera - HSPCB",23-02-2024 19:00:00,27.9002,76.9938,PM2.5,8,42,28
India,Haryana,Mandikhera,"General Hospital, Mandikhera - HSPCB",23-02-2024 19:00:00,27.9002,76.9938,NH3,18,21,19
India,Haryana,Mandikhera,"General Hospital, Mandikhera - HSPCB",23-02-2024 19:00:00,27.9002,76.9938,SO2,30,36,33
India,Haryana,Manesar,"Sector-2 IMT, Manesar - HSPCB",23-02-2024 19:00:00,28.360699,76.936090,NO2,11,29,21
India,Haryana,Manesar,"Sector-2 IMT, Manesar - HSPCB",23-02-2024 19:00:00,28.360699,76.936090,OZONE,5,48,43
India,Haryana,Palwal,"Shyam Nagar, Palwal - HSPCB",23-02-2024 19:00:00,28.1485564,77.3320667,PM10,NA,NA,NA
India,Haryana,Panchkula,"Sector-6, Panchkula - HSPCB ",23-02-2024 19:00:00,30.7057778,76.8531805555555,CO,39,172,75
India,Haryana,Rohtak,"MD University, Rohtak - HSPCB",23-02-2024 19:00:00,28.52123,76.37138,PM2.5,4,357,61
India,Haryana,Sirsa,"F-Block, Sirsa - HSPCB",23-02-2024 19:00:00,29.536400,75.015800,NH3,13,13,13
India,Haryana,Sonipat,"Murthal, Sonipat - HSPCB",23-02-2024 19:00:00,29.027200,77.062100,PM2.5,24,57,42
India,Haryana,Sonipat,"Murthal, Sonipat - HSPCB",23-02-2024 19:00:00,29.027200,77.062100,PM10,45,95,77
India,Haryana,Sonipat,"Murthal, Sonipat - HSPCB",23-02-2024 19:00:00,29.027200,77.062100,CO,9,16,12
India,Haryana,Yamuna Nagar,"Gobind Pura, Yamuna Nagar - HSPCB",23-02-2024 19:00:00,30.1480566,77.2893471,PM2.5,43,83,57
India,Haryana,Yamuna Nagar,"Gobind Pura, Yamuna Nagar - HSPCB",23-02-2024 19:00:00,30.1480566,77.2893471,PM10,57,107,76
India,Haryana,Yamuna Nagar,"Gobind Pura, Yamuna Nagar - HSPCB",23-02-2024 19:00:00,30.1480566,77.2893471,NO2,11,30,18
India,Haryana,Yamuna Nagar,"Gobind Pura, Yamuna Nagar - HSPCB",23-02-2024 19:00:00,30.1480566,77.2893471,SO2,2,11,7
India,Himachal Pradesh,Baddi,"HIMUDA Complex Phase-1, Baddi - HPPCB",23-02-2024 19:00:00,30.943887,76.801991,SO2,10,105,46
India,Jammu_and_Kashmir,Srinagar,"Rajbagh, Srinagar - JKSPCB",23-02-2024 19:00:00,34.066206,74.819820,PM10,NA,NA,NA
India,Jharkhand,Dhanbad,"Kalakusuma, Dhanbad - DMC",23-02-2024 19:00:00,23.811548,86.481238,PM2.5,1,73,23
India,Jharkhand,Dhanbad,"Kalakusuma, Dhanbad - DMC",23-02-2024 19:00:00,23.811548,86.481238,CO,128,134,132
India,Jharkhand,Dhanbad,"Sardar Patel Nagar, Dhanbad - JSPCB",23-02-2024 19:00:00,23.80569,86.44268,OZONE,6,24,16
India,Karnataka,Bagalkot,"Vidayagiri, Bagalkot - KSPCB",23-02-2024 19:00:00,16.172806,75.659694,PM10,42,42,42
India,Karnataka,Bagalkot,"Vidayagiri, Bagalkot - KSPCB",23-02-2024 19:00:00,16.172806,75.659694,NO2,9,11,9
India,Karnataka,Bengaluru,"BTM Layout, Bengaluru - CPCB",23-02-2024 19:00:00,12.9135218,77.5950804,OZONE,20,38,30
India,Karnataka,Bengaluru,"Bapuji Nagar, Bengaluru - KSPCB",23-02-2024 19:00:00,12.951913,77.539784,OZONE,7,25,12
India,Karnataka,Bengaluru,"Hebbal, Bengaluru - KSPCB",23-02-2024 19:00:00,13.029152,77.585901,NO2,5,5,5
India,Karnataka,Bengaluru,"Hebbal, Bengaluru - KSPCB",23-02-2024 19:00:00,13.029152,77.585901,CO,5,51,18
India,Karnataka,Bengaluru,"Hebbal, Bengaluru - KSPCB",23-02-2024 19:00:00,13.029152,77.585901,OZONE,9,127,52
India,Karnataka,Bengaluru,"Hombegowda Nagar, Bengaluru - KSPCB",23-02-2024 19:00:00,12.938539,77.590100,PM2.5,25,117,54
India,Karnataka,Bengaluru,"Hombegowda Nagar, Bengaluru - KSPCB",23-02-2024 19:00:00,12.938539,77.590100,SO2,3,4,3
India,Karnataka,Bengaluru,"Hombegowda Nagar, Bengaluru - KSPCB",23-02-2024 19:00:00,12.938539,77.590100,OZONE,4,4,4
India,Karnataka,Bengaluru,"Jayanagar 5th Block, Bengaluru - KSPCB",23-02-2024 19:00:00,12.920984,77.584908,PM2.5,42,163,81
India,Karnataka,Bengaluru,"Jayanagar 5th Block, Bengaluru - KSPCB",23-02-2024 19:00:00,12.920984,77.584908,NH3,2,5,3
India,Karnataka,Bengaluru,"Jayanagar 5th Block, Bengaluru - KSPCB",23-02-2024 19:00:00,12.920984,77.584908,OZONE,27,29,28
India,Karnataka,Bengaluru,"Jigani, Bengaluru - KSPCB",23-02-2024 19:00:00,12.7816279,77.6299145,NO2,31,32,32
India,Karnataka,Bengaluru,"Kasturi Nagar, Bengaluru - KSPCB",23-02-2024 19:00:00,13.003872,77.664217,NO2,16,17,17
India,Karnataka,Bengaluru,"Peenya, Bengaluru - CPCB",23-02-2024 19:00:00,13.0270199,77.494094,NH3,3,4,3
India,Karnataka,Bengaluru,"RVCE-Mailasandra, Bengaluru - KSPCB",23-02-2024 19:00:00,12.921418,77.502466,SO2,7,12,9
India,Karnataka,Bengaluru,"Sanegurava Halli, Bengaluru - KSPCB",23-02-2024 19:00:00,12.990328,77.5431385,PM10,36,81,48
India,Karnataka,Bengaluru,"Sanegurava Halli, Bengaluru - KSPCB",23-02-2024 19:00:00,12.990328,77.5431385,NO2,20,33,24
India,Karnataka,Bengaluru,"Shivapura_Peenya, Bengaluru - KSPCB",23-02-2024 19:00:00,13.0246342,77.5080115,NH3,4,4,4
India,Karnataka,Bengaluru,"Silk Board, Bengaluru - KSPCB",23-02-2024 19:00:00,12.917348,77.622813,CO,19,104,40
India,Karnataka,Bidar,"Naubad, Bidar - KSPCB",23-02-2024 19:00:00,17.930306,77.482194,NH3,2,3,3
India,Karnataka,Bidar,"Naubad, Bidar - KSPCB",23-02-2024 19:00:00,17.930306,77.482194,OZONE,13,40,37
India,Karnataka,Chamarajanagar,"Urban, Chamarajanagar - KSPCB",23-02-2024 19:00:00,11.55358,76.55521,OZONE,14,54,40
India,Karnataka,Chikkamagaluru,"Kalyana Nagara, Chikkamagaluru - KSPCB",23-02-2024 19:00:00,13.328028,75.797056,NH3,3,4,4
India,Karnataka,Chikkamagaluru,"Kalyana Nagara, Chikkamagaluru - KSPCB",23-02-2024 19:00:00,13.328028,75.797056,CO,11,12,11
India,Karnataka,Gadag,"Panchal Nagar, Gadag - KSPCB",23-02-2024 19:00:00,15.411456,75.638133,NO2,8,24,13
India,Karnataka,Haveri,"Ashwini Nagar, Haveri - KSPCB",23-02-2024 19:00:00,14.791800,75.389600,NO2,26,46,32
India,Karnataka,Hubballi,"Deshpande Nagar, Hubballi - KSPCB",23-02-2024 19:00:00,15.351773,75.140726,PM10,57,115,88
India,Karnataka,Hubballi,"Deshpande Nagar, Hubballi - KSPCB",23-02-2024 19:00:00,15.351773,75.140726,CO,74,91,77
India,Karnataka,Hubballi,"Lingaraj Nagar, Hubballi - KSPCB",23-02-2024 19:00:00,15.3714823,75.1160168,OZONE,9,50,44
India,Karnataka,Kalaburagi,"Mahatma Basaveswar Colony, Kalaburgi - KSPCB",23-02-2024 19:00:00,17.336318,76.847397,PM2.5,24,52,36
India,Karnataka,Kalaburagi,"Mahatma Basaveswar Colony, Kalaburgi - KSPCB",23-02-2024 19:00:00,17.336318,76.847397,SO2,6,11,8
India,Karnataka,Kolar,"Tamaka Ind. Area, Kolar - KSPCB",23-02-2024 19:00:00,13.1276288,78.1570122,SO2,8,17,11
India,Karnataka,Koppal,"Diwator Nagar, Koppal - KSPCB",23-02-2024 19:00:00,15.347630,76.181767,NO2,2,29,13
India,Karnataka,Mangalore,"Kadri, Mangalore - KSPCB",23-02-2024 19:00:00,12.889250,74.853000,SO2,18,24,20
India,Karnataka,Mysuru,"Hebbal 1st Stage, Mysuru - KSPCB",23-02-2024 19:00:00,12.21041,76.37376,SO2,1,17,6
India,Karnataka,Mysuru,"Hebbal 1st Stage, Mysuru - KSPCB",23-02-2024 19:00:00,12.21041,76.37376,CO,4,76,21
India,Karnataka,Shivamogga,"Vinoba Nagara, Shivamogga - KSPCB",23-02-2024 19:00:00,13.940000,75.555917,PM10,48,88,67
India,Karnataka,Tumakuru,"Thimmalapura, Tumakuru - KSPCB",23-02-2024 19:00:00,13.377516,77.099072,OZONE,5,41,31
India,Karnataka,Udupi,"Brahmagiri, Udupi - KSPCB",23-02-2024 19:00:00,13.34194444,74.74694444,PM10,20,53,35
India,Karnataka,Udupi,"Brahmagiri, Udupi - KSPCB",23-02-2024 19:00:00,13.34194444,74.74694444,CO,43,48,44
India,Karnataka,Vijayapura,"Ibrahimpur, Vijayapura - KSPCB",23-02-2024 19:00:00,16.802639,75.722694,NO2,17,19,19
India,Karnataka,Vijayapura,"Ibrahimpur, Vijayapura - KSPCB",23-02-2024 19:00:00,16.802639,75.722694,OZONE,14,16,15
