country,state,city,station,last_update,latitude,longitude,pollutant_id,pollutant_min,pollutant_max,pollutant_avg
India,Andhra_Pradesh,Anantapur,"Gulzarpet, Anantapur - APPCB",12-02-2024 03:00:00,14.675886,77.593027,NH3,NA,NA,NA
India,Andhra_Pradesh,Chittoor,"Gangineni Cheruvu, Chittoor - APPCB",12-02-2024 03:00:00,13.204880,79.097889,CO,23,48,32
India,Andhra_Pradesh,Rajamahendravaram,"Anand Kala Kshetram, Rajamahendravaram - APPCB",12-02-2024 03:00:00,16.9872867,81.7363176,NO2,12,38,23
India,Andhra_Pradesh,Tirupati,"Tirumala, Tirupati - APPCB",12-02-2024 03:00:00,13.67,79.35,PM10,50,88,77
India,Andhra_Pradesh,Tirupati,"Tirumala, Tirupati - APPCB",12-02-2024 03:00:00,13.67,79.35,CO,32,57,47
India,Andhra_Pradesh,Tirupati,"Tirumala, Tirupati - APPCB",12-02-2024 03:00:00,13.67,79.35,OZONE,18,55,38
India,Andhra_Pradesh,Tirupati,"Vaikuntapuram, Tirupati - APPCB",12-02-2024 03:00:00,13.615387,79.409230,NO2,6,27,18
India,Andhra_Pradesh,Tirupati,"Vaikuntapuram, Tirupati - APPCB",12-02-2024 03:00:00,13.615387,79.409230,SO2,NA,NA,NA
India,Andhra_Pradesh,Tirupati,"Vaikuntapuram, Tirupati - APPCB",12-02-2024 03:00:00,13.615387,79.409230,OZONE,3,40,24
India,Andhra_Pradesh,Vijayawada,"Kanuru, Vijayawada - APPCB",12-02-2024 03:00:00,16.486692,80.699436,CO,32,48,32
India,Andhra_Pradesh,Vijayawada,"Rajiv Gandhi Park, Vijayawada - APPCB",12-02-2024 03:00:00,16.509717,80.612222,SO2,5,8,7
India,Andhra_Pradesh,Vijayawada,"Rajiv Nagar, Vijayawada - APPCB",12-02-2024 03:00:00,16.554731,80.649110,PM10,43,208,125
India,Andhra_Pradesh,Vijayawada,"Rajiv Nagar, Vijayawada - APPCB",12-02-2024 03:00:00,16.554731,80.649110,OZONE,11,54,28
India,Arunachal_Pradesh,Naharlagun,"Naharlagun, Naharlagun - APSPCB",12-02-2024 03:00:00,27.103358,93.679645,CO,8,52,35
India,Assam,Byrnihat,"Central Academy for SFS, Byrnihat - PCBA",12-02-2024 03:00:00,26.071318,91.87488,PM2.5,70,450,298
India,Assam,Byrnihat,"Central Academy for SFS, Byrnihat - PCBA",12-02-2024 03:00:00,26.071318,91.87488,CO,34,119,46
India,Assam,Guwahati,"LGBI Airport, Guwahati - PCBA",12-02-2024 03:00:00,26.10887,91.589544,PM10,116,230,142
India,Assam,Guwahati,"Pan Bazaar, Guwahati - PCBA",12-02-2024 03:00:00,26.187500,91.744194,SO2,55,84,68
India,Assam,Guwahati,"Railway Colony, Guwahati - PCBA",12-02-2024 03:00:00,26.181742,91.78063,NO2,3,4,3
India,Assam,Guwahati,"Railway Colony, Guwahati - PCBA",12-02-2024 03:00:00,26.181742,91.78063,OZONE,5,43,24
India,Assam,Nagaon,"Christianpatty, Nagaon - PCBA",12-02-2024 03:00:00,26.349082,92.68449,NO2,12,22,16
India,Assam,Nagaon,"Christianpatty, Nagaon - PCBA",12-02-2024 03:00:00,26.349082,92.68449,SO2,2,24,15
India,Assam,Nalbari,"Bata Chowk, Nalbari - PCBA",12-02-2024 03:00:00,26.446912,91.439057,PM10,56,500,196
India,Assam,Silchar,"Tarapur, Silchar - PCBA",12-02-2024 03:00:00,24.82827,92.79525,PM2.5,NA,NA,NA
India,Assam,Sivasagar,"Girls College, Sivasagar - PCBA",12-02-2024 03:00:00,26.987634,94.636574,PM2.5,22,43,29
India,Bihar,Araria,"Kharahiya Basti, Araria - BSPCB",12-02-2024 03:00:00,26.146529,87.454184,NO2,6,8,7
India,Bihar,Araria,"Kharahiya Basti, Araria - BSPCB",12-02-2024 03:00:00,26.146529,87.454184,OZONE,10,10,10
India,Bihar,Aurangabad,"Gurdeo Nagar, Aurangabad - BSPCB",12-02-2024 03:00:00,24.75746,84.366208,PM2.5,110,363,224
India,Bihar,Aurangabad,"Gurdeo Nagar, Aurangabad - BSPCB",12-02-2024 03:00:00,24.75746,84.366208,NH3,5,11,7
India,Bihar,Aurangabad,"Gurdeo Nagar, Aurangabad - BSPCB",12-02-2024 03:00:00,24.75746,84.366208,CO,24,101,88
India,Bihar,Bettiah,"Kamalnath Nagar, Bettiah - BSPCB",12-02-2024 03:00:00,26.80365,84.51954,PM10,NA,NA,NA
India,Bihar,Bettiah,"Kamalnath Nagar, Bettiah - BSPCB",12-02-2024 03:00:00,26.80365,84.51954,NO2,NA,NA,NA
India,Bihar,Bettiah,"Kamalnath Nagar, Bettiah - BSPCB",12-02-2024 03:00:00,26.80365,84.51954,OZONE,1,5,1
India,Bihar,Bhagalpur,"DM Office_Kachari Chowk, Bhagalpur - BSPCB",12-02-2024 03:00:00,25.251013,86.989001,CO,26,82,58
India,Bihar,Bhagalpur,"DM Office_Kachari Chowk, Bhagalpur - BSPCB",12-02-2024 03:00:00,25.251013,86.989001,OZONE,37,87,48
India,Bihar,Bhagalpur,"Mayaganj, Bhagalpur - BSPCB",12-02-2024 03:00:00,25.265194,87.012947,SO2,10,13,12
India,Bihar,Bhagalpur,"Mayaganj, Bhagalpur - BSPCB",12-02-2024 03:00:00,25.265194,87.012947,OZONE,16,78,40
India,Bihar,Buxar,"Charitra Van, Buxar - BSPCB (Formerly known as Central Jail)",12-02-2024 03:00:00,25.567520,83.966379,NO2,10,156,45
India,Bihar,Buxar,"Charitra Van, Buxar - BSPCB (Formerly known as Central Jail)",12-02-2024 03:00:00,25.567520,83.966379,OZONE,1,82,13
India,Bihar,Chhapra,"Darshan Nagar, Chhapra - BSPCB",12-02-2024 03:00:00,25.7808257,84.7446768,SO2,NA,NA,NA
India,Bihar,Chhapra,"Darshan Nagar, Chhapra - BSPCB",12-02-2024 03:00:00,25.7808257,84.7446768,OZONE,1,24,2
India,Bihar,Gaya,"Collectorate, Gaya - BSPCB",12-02-2024 03:00:00,24.7955,84.9994,PM2.5,108,368,268
India,Bihar,Gaya,"Kareemganj, Gaya - BSPCB",12-02-2024 03:00:00,24.792403,84.992416,PM2.5,23,220,102
India,Bihar,Gaya,"Kareemganj, Gaya - BSPCB",12-02-2024 03:00:00,24.792403,84.992416,CO,10,94,49
India,Bihar,Gaya,"Kareemganj, Gaya - BSPCB",12-02-2024 03:00:00,24.792403,84.992416,OZONE,1,24,18
India,Bihar,Gaya,"SFTI Kusdihra, Gaya - BSPCB",12-02-2024 03:00:00,24.762518,84.982348,NH3,4,6,5
India,Bihar,Gaya,"SFTI Kusdihra, Gaya - BSPCB",12-02-2024 03:00:00,24.762518,84.982348,OZONE,2,63,7
India,Bihar,Hajipur,"Industrial Area, Hajipur - BSPCB",12-02-2024 03:00:00,25.697189,85.245900,OZONE,1,173,1
India,Bihar,Katihar,"Mirchaibari, Katihar - BSPCB",12-02-2024 03:00:00,25.560083,87.553265,OZONE,17,21,19
India,Bihar,Kishanganj,"SDM Office_Khagra, Kishanganj - BSPCB",12-02-2024 03:00:00,26.0881305,87.93840336,CO,5,12,10
India,Bihar,Kishanganj,"SDM Office_Khagra, Kishanganj - BSPCB",12-02-2024 03:00:00,26.0881305,87.93840336,OZONE,29,38,30
India,Bihar,Manguraha,"Forest Rest House, Manguraha - BSPCB",12-02-2024 03:00:00,27.308328,84.531742,NO2,11,18,14
India,Bihar,Manguraha,"Forest Rest House, Manguraha - BSPCB",12-02-2024 03:00:00,27.308328,84.531742,SO2,NA,NA,NA
India,Bihar,Motihari,"Gandak Colony, Motihari - BSPCB",12-02-2024 03:00:00,26.63086,84.90051,PM2.5,52,314,164
India,Bihar,Muzaffarpur,"Buddha Colony, Muzaffarpur - BSPCB",12-02-2024 03:00:00,26.11442,85.39813,NO2,14,96,42
India,Bihar,Muzaffarpur,"Buddha Colony, Muzaffarpur - BSPCB",12-02-2024 03:00:00,26.11442,85.39813,NH3,2,13,9
India,Bihar,Muzaffarpur,"MIT-Daudpur Kothi, Muzaffarpur - BSPCB",12-02-2024 03:00:00,26.1403345,85.3650192,PM2.5,63,362,204
India,Bihar,Muzaffarpur,"MIT-Daudpur Kothi, Muzaffarpur - BSPCB",12-02-2024 03:00:00,26.1403345,85.3650192,PM10,101,436,211
India,Bihar,Muzaffarpur,"Muzaffarpur Collectorate, Muzaffarpur - BSPCB",12-02-2024 03:00:00,26.1209,85.3647,CO,22,37,34
India,Bihar,Patna,"DRM Office Danapur, Patna - BSPCB",12-02-2024 03:00:00,25.586562,85.043586,NO2,8,96,45
India,Bihar,Patna,"DRM Office Danapur, Patna - BSPCB",12-02-2024 03:00:00,25.586562,85.043586,OZONE,1,77,1
India,Bihar,Patna,"Govt. High School Shikarpur, Patna - BSPCB",12-02-2024 03:00:00,25.592539,85.227158,SO2,2,6,4
India,Bihar,Patna,"Govt. High School Shikarpur, Patna - BSPCB",12-02-2024 03:00:00,25.592539,85.227158,OZONE,4,45,9
India,Bihar,Patna,"IGSC Planetarium Complex, Patna - BSPCB",12-02-2024 03:00:00,25.610369,85.132568,OZONE,3,21,12
India,Bihar,Patna,"Muradpur, Patna - BSPCB",12-02-2024 03:00:00,25.619651,85.147382,SO2,8,27,14
India,Bihar,Patna,"Rajbansi Nagar, Patna - BSPCB",12-02-2024 03:00:00,25.599486,85.113666,NO2,35,60,49
India,Bihar,Patna,"Samanpura, Patna - BSPCB",12-02-2024 03:00:00,25.596727,85.085624,PM2.5,91,499,301
India,Bihar,Patna,"Samanpura, Patna - BSPCB",12-02-2024 03:00:00,25.596727,85.085624,NO2,25,74,48
India,Bihar,Rajgir,"Dangi Tola, Rajgir - BSPCB",12-02-2024 03:00:00,25.03280,85.41948,PM2.5,48,328,164
India,Bihar,Samastipur,"DM Office_Kasipur, Samastipur - BSPCB",12-02-2024 03:00:00,25.859655,85.77944,PM2.5,57,361,207
India,Bihar,Sasaram,"Dada Peer, Sasaram - BSPCB",12-02-2024 03:00:00,24.952822,84.002396,NO2,NA,NA,NA
India,Bihar,Sasaram,"Dada Peer, Sasaram - BSPCB",12-02-2024 03:00:00,24.952822,84.002396,NH3,NA,NA,NA
India,Bihar,Siwan,"Chitragupta Nagar, Siwan - BSPCB",12-02-2024 03:00:00,26.2271665,84.3570427,PM10,54,133,96
India,Bihar,Siwan,"Chitragupta Nagar, Siwan - BSPCB",12-02-2024 03:00:00,26.2271665,84.3570427,SO2,23,35,28
India,Chandigarh,Chandigarh,"Sector 22, Chandigarh - CPCC",12-02-2024 03:00:00,30.735567,76.775714,NH3,5,9,7
India,Chandigarh,Chandigarh,"Sector 22, Chandigarh - CPCC",12-02-2024 03:00:00,30.735567,76.775714,CO,34,101,77
India,Chandigarh,Chandigarh,"Sector-25, Chandigarh - CPCC",12-02-2024 03:00:00,30.751462,76.762879,PM2.5,168,284,230
India,Chandigarh,Chandigarh,"Sector-25, Chandigarh - CPCC",12-02-2024 03:00:00,30.751462,76.762879,SO2,4,20,10
India,Chandigarh,Chandigarh,"Sector-25, Chandigarh - CPCC",12-02-2024 03:00:00,30.751462,76.762879,CO,18,90,71
India,Chandigarh,Chandigarh,"Sector-53, Chandigarh - CPCC",12-02-2024 03:00:00,30.719859,76.738637,NH3,NA,NA,NA
India,Chhattisgarh,Bhilai,"32Bungalows, Bhilai - CECB",12-02-2024 03:00:00,21.194815,81.314770,PM2.5,58,91,70
India,Chhattisgarh,Bhilai,"32Bungalows, Bhilai - CECB",12-02-2024 03:00:00,21.194815,81.314770,OZONE,4,11,6
India,Chhattisgarh,Bhilai,"Civic Center, Bhilai - Bhilai Steel Plant",12-02-2024 03:00:00,21.185571,81.343175,CO,22,52,47
India,Chhattisgarh,Bhilai,"Hathkhoj, Bhilai - CECB",12-02-2024 03:00:00,21.224231,81.408350,NO2,33,48,38
India,Chhattisgarh,Bilaspur,"Mangala, Bilaspur - NTPC",12-02-2024 03:00:00,22.08815,82.13737,NO2,NA,NA,NA
India,Chhattisgarh,Chhal,"Nawapara SECL Colony, Chhal - CECB",12-02-2024 03:00:00,22.118125,83.140608,PM10,42,98,70
India,Chhattisgarh,Korba,"Urja Nagar, Korba - CECB",12-02-2024 03:00:00,22.348441,82.549611,PM10,7,167,54
India,Chhattisgarh,Korba,"Urja Nagar, Korba - CECB",12-02-2024 03:00:00,22.348441,82.549611,NO2,76,84,81
India,Chhattisgarh,Kunjemura,"OP Jindal School, Kunjemura - CECB",12-02-2024 03:00:00,22.126650,83.483212,NH3,1,4,2
India,Chhattisgarh,Milupara,"Govt. Higher Secondary School, Milupara - CECB",12-02-2024 03:00:00,22.1910172,83.5197009,PM10,32,80,58
India,Chhattisgarh,Milupara,"Govt. Higher Secondary School, Milupara - CECB",12-02-2024 03:00:00,22.1910172,83.5197009,NH3,1,2,2
India,Chhattisgarh,Raipur,"AIIMS, Raipur - CECB",12-02-2024 03:00:00,21.258815,81.578979,NO2,40,66,53
India,Chhattisgarh,Raipur,"Bhatagaon New ISBT, Raipur - CECB",12-02-2024 03:00:00,21.219665,81.630094,PM10,51,99,73
India,Chhattisgarh,Raipur,"Krishak Nagar, Raipur - CECB",12-02-2024 03:00:00,21.237755,81.705301,PM2.5,43,90,61
India,Chhattisgarh,Raipur,"Siltara Phase-II, Raipur - CECB",12-02-2024 03:00:00,21.371751,81.664929,NH3,2,3,3
India,Chhattisgarh,Raipur,"Siltara Phase-II, Raipur - CECB",12-02-2024 03:00:00,21.371751,81.664929,SO2,2,31,8
India,Chhattisgarh,Tumidih,"OP Jindal Industrial Park, Tumidih - CECB",12-02-2024 03:00:00,22.06631475,83.33820077,SO2,NA,NA,NA
India,Delhi,Delhi,"Alipur, Delhi - DPCC",12-02-2024 03:00:00,28.815329,77.153010,PM10,NA,NA,NA
India,Delhi,Delhi,"Alipur, Delhi - DPCC",12-02-2024 03:00:00,28.815329,77.153010,OZONE,2,151,15
India,Delhi,Delhi,"Anand Vihar, Delhi - DPCC",12-02-2024 03:00:00,28.647622,77.3158090,NO2,93,181,138
India,Delhi,Delhi,"Ashok Vihar, Delhi - DPCC",12-02-2024 03:00:00,28.695381,77.181665,PM2.5,208,365,304
India,Delhi,Delhi,"Ashok Vihar, Delhi - DPCC",12-02-2024 03:00:00,28.695381,77.181665,PM10,156,318,224
India,Delhi,Delhi,"Ashok Vihar, Delhi - DPCC",12-02-2024 03:00:00,28.695381,77.181665,NH3,8,10,9
India,Delhi,Delhi,"Ashok Vihar, Delhi - DPCC",12-02-2024 03:00:00,28.695381,77.181665,OZONE,4,25,6
India,Delhi,Delhi,"Bawana, Delhi - DPCC",12-02-2024 03:00:00,28.776200,77.051074,SO2,4,25,10
India,Delhi,Delhi,"Bawana, Delhi - DPCC",12-02-2024 03:00:00,28.776200,77.051074,OZONE,4,102,14
India,Delhi,Delhi,"CRRI Mathura Road, Delhi - IMD",12-02-2024 03:00:00,28.5512005,77.2735737,NO2,29,55,47
India,Delhi,Delhi,"CRRI Mathura Road, Delhi - IMD",12-02-2024 03:00:00,28.5512005,77.2735737,CO,108,144,116
India,Delhi,Delhi,"DTU, Delhi - CPCB",12-02-2024 03:00:00,28.7500499,77.1112615,NO2,36,55,45
India,Delhi,Delhi,"IHBAS, Dilshad Garden, Delhi - CPCB",12-02-2024 03:00:00,28.6811736,77.3025234,PM2.5,84,253,152
India,Delhi,Delhi,"IHBAS, Dilshad Garden, Delhi - CPCB",12-02-2024 03:00:00,28.6811736,77.3025234,NH3,13,17,15
India,Delhi,Delhi,"IHBAS, Dilshad Garden, Delhi - CPCB",12-02-2024 03:00:00,28.6811736,77.3025234,SO2,2,9,3
India,Delhi,Delhi,"ITO, Delhi - CPCB",12-02-2024 03:00:00,28.628624,77.241060,SO2,12,50,26
India,Delhi,Delhi,"ITO, Delhi - CPCB",12-02-2024 03:00:00,28.628624,77.241060,CO,29,126,102
India,Delhi,Delhi,"Jahangirpuri, Delhi - DPCC",12-02-2024 03:00:00,28.732820,77.170633,NH3,11,85,22
India,Delhi,Delhi,"Jahangirpuri, Delhi - DPCC",12-02-2024 03:00:00,28.732820,77.170633,CO,36,110,93
India,Delhi,Delhi,"Jawaharlal Nehru Stadium, Delhi - DPCC",12-02-2024 03:00:00,28.580280,77.233829,NO2,47,153,98
India,Delhi,Delhi,"Jawaharlal Nehru Stadium, Delhi - DPCC",12-02-2024 03:00:00,28.580280,77.233829,OZONE,1,226,7
India,Delhi,Delhi,"Lodhi Road, Delhi - IITM",12-02-2024 03:00:00,28.588333,77.221667,NO2,77,136,91
India,Delhi,Delhi,"Lodhi Road, Delhi - IITM",12-02-2024 03:00:00,28.588333,77.221667,CO,64,68,67
India,Delhi,Delhi,"Lodhi Road, Delhi - IMD",12-02-2024 03:00:00,28.5918245,77.2273074,PM2.5,44,306,209
India,Delhi,Delhi,"Lodhi Road, Delhi - IMD",12-02-2024 03:00:00,28.5918245,77.2273074,CO,48,102,82
India,Delhi,Delhi,"Mandir Marg, Delhi - DPCC",12-02-2024 03:00:00,28.636429,77.201067,PM2.5,233,380,321
India,Delhi,Delhi,"Mandir Marg, Delhi - DPCC",12-02-2024 03:00:00,28.636429,77.201067,NH3,17,19,18
India,Delhi,Delhi,"Mundka, Delhi - DPCC",12-02-2024 03:00:00,28.684678,77.076574,PM10,128,435,261
India,Delhi,Delhi,"NSIT Dwarka, Delhi - CPCB",12-02-2024 03:00:00,28.60909,77.0325413,SO2,11,17,13
India,Delhi,Delhi,"Najafgarh, Delhi - DPCC",12-02-2024 03:00:00,28.570173,76.933762,CO,2,40,19
India,Delhi,Delhi,"Narela, Delhi - DPCC",12-02-2024 03:00:00,28.822836,77.101981,NO2,19,105,48
India,Delhi,Delhi,"Narela, Delhi - DPCC",12-02-2024 03:00:00,28.822836,77.101981,NH3,6,13,9
India,Delhi,Delhi,"Narela, Delhi - DPCC",12-02-2024 03:00:00,28.822836,77.101981,SO2,3,44,13
India,Delhi,Delhi,"Nehru Nagar, Delhi - DPCC",12-02-2024 03:00:00,28.567890,77.250515,NO2,14,42,28
India,Delhi,Delhi,"Nehru Nagar, Delhi - DPCC",12-02-2024 03:00:00,28.567890,77.250515,CO,12,114,102
India,Delhi,Delhi,"Nehru Nagar, Delhi - DPCC",12-02-2024 03:00:00,28.567890,77.250515,OZONE,1,247,5
India,Delhi,Delhi,"New Moti Bagh, Delhi - MHUA",12-02-2024 03:00:00,28.57834,77.18400,NO2,1,10,5
India,Delhi,Delhi,"Okhla Phase-2, Delhi - DPCC",12-02-2024 03:00:00,28.530785,77.271255,SO2,3,13,8
India,Delhi,Delhi,"Patparganj, Delhi - DPCC",12-02-2024 03:00:00,28.623763,77.287209,PM10,171,409,288
India,Delhi,Delhi,"Punjabi Bagh, Delhi - DPCC",12-02-2024 03:00:00,28.674045,77.131023,CO,18,118,85
India,Delhi,Delhi,"Punjabi Bagh, Delhi - DPCC",12-02-2024 03:00:00,28.674045,77.131023,OZONE,6,53,8
India,Delhi,Delhi,"Pusa, Delhi - DPCC",12-02-2024 03:00:00,28.639652,77.146275,PM2.5,238,378,329
India,Delhi,Delhi,"Pusa, Delhi - DPCC",12-02-2024 03:00:00,28.639652,77.146275,NH3,23,34,27
India,Delhi,Delhi,"Pusa, Delhi - DPCC",12-02-2024 03:00:00,28.639652,77.146275,SO2,4,32,15
India,Delhi,Delhi,"R K Puram, Delhi - DPCC",12-02-2024 03:00:00,28.563262,77.186937,NO2,50,136,83
India,Delhi,Delhi,"R K Puram, Delhi - DPCC",12-02-2024 03:00:00,28.563262,77.186937,NH3,NA,NA,NA
India,Delhi,Delhi,"R K Puram, Delhi - DPCC",12-02-2024 03:00:00,28.563262,77.186937,SO2,6,56,30
India,Delhi,Delhi,"R K Puram, Delhi - DPCC",12-02-2024 03:00:00,28.563262,77.186937,CO,31,126,105
India,Delhi,Delhi,"Shadipur, Delhi - CPCB",12-02-2024 03:00:00,28.6514781,77.1473105,NO2,35,48,42
India,Delhi,Delhi,"Shadipur, Delhi - CPCB",12-02-2024 03:00:00,28.6514781,77.1473105,NH3,22,37,30
India,Delhi,Delhi,"Sirifort, Delhi - CPCB",12-02-2024 03:00:00,28.5504249,77.2159377,PM10,58,107,85
India,Delhi,Delhi,"Sonia Vihar, Delhi - DPCC",12-02-2024 03:00:00,28.710508,77.249485,NO2,30,122,64
India,Delhi,Delhi,"Sri Aurobindo Marg, Delhi - DPCC",12-02-2024 03:00:00,28.531346,77.190156,PM2.5,223,363,320
India,Delhi,Delhi,"Sri Aurobindo Marg, Delhi - DPCC",12-02-2024 03:00:00,28.531346,77.190156,NH3,7,9,8
India,Delhi,Delhi,"Sri Aurobindo Marg, Delhi - DPCC",12-02-2024 03:00:00,28.531346,77.190156,CO,26,90,57
India,Delhi,Delhi,"Vivek Vihar, Delhi - DPCC",12-02-2024 03:00:00,28.672342,77.315260,SO2,31,34,33
India,Delhi,Delhi,"Vivek Vihar, Delhi - DPCC",12-02-2024 03:00:00,28.672342,77.315260,CO,14,101,87
India,Delhi,Delhi,"Vivek Vihar, Delhi - DPCC",12-02-2024 03:00:00,28.672342,77.315260,OZONE,3,47,9
India,Delhi,Delhi,"Wazirpur, Delhi - DPCC",12-02-2024 03:00:00,28.699793,77.165453,PM2.5,241,426,344
India,Delhi,Delhi,"Wazirpur, Delhi - DPCC",12-02-2024 03:00:00,28.699793,77.165453,NO2,88,254,189
India,Gujarat,Ahmedabad,"Chandkheda, Ahmedabad - IITM",12-02-2024 03:00:00,23.107969,72.574648,PM10,60,180,100
India,Gujarat,Ahmedabad,"Maninagar, Ahmedabad - GPCB",12-02-2024 03:00:00,23.002657,72.591912,PM10,31,103,61
India,Gujarat,Ahmedabad,"Raikhad, Ahmedabad - IITM",12-02-2024 03:00:00,23.020509,72.579261,NO2,14,44,24
India,Gujarat,Ahmedabad,"Rakhial, Ahmedabad - IITM",12-02-2024 03:00:00,23.016834,72.625775,PM2.5,60,133,82
India,Gujarat,Ahmedabad,"Rakhial, Ahmedabad - IITM",12-02-2024 03:00:00,23.016834,72.625775,SO2,2,5,4
India,Gujarat,Ahmedabad,"Rakhial, Ahmedabad - IITM",12-02-2024 03:00:00,23.016834,72.625775,CO,35,39,38
India,Gujarat,Ahmedabad,"SAC ISRO Bopal, Ahmedabad - IITM",12-02-2024 03:00:00,23.041137,72.456691,PM2.5,50,114,74
India,Gujarat,Ahmedabad,"SAC ISRO Bopal, Ahmedabad - IITM",12-02-2024 03:00:00,23.041137,72.456691,SO2,6,11,9
India,Gujarat,Ahmedabad,"SAC ISRO Bopal, Ahmedabad - IITM",12-02-2024 03:00:00,23.041137,72.456691,CO,27,50,32
India,Gujarat,Ahmedabad,"SAC ISRO Bopal, Ahmedabad - IITM",12-02-2024 03:00:00,23.041137,72.456691,OZONE,7,13,9
India,Gujarat,Ahmedabad,"SAC ISRO Satellite, Ahmedabad - IITM",12-02-2024 03:00:00,23.023389,72.515201,CO,26,44,34
India,Gujarat,Ahmedabad,"SVPI Airport Hansol, Ahmedabad - IITM",12-02-2024 03:00:00,23.076793,72.627874,PM2.5,30,61,41
India,Gujarat,Ahmedabad,"SVPI Airport Hansol, Ahmedabad - IITM",12-02-2024 03:00:00,23.076793,72.627874,CO,1,40,17
India,Gujarat,Gandhinagar,"GIFT City, Gandhinagar - IITM",12-02-2024 03:00:00,23.163798,72.677768,PM2.5,43,89,62
India,Gujarat,Gandhinagar,"IIPHG Lekawada, Gandhinagar - IITM",12-02-2024 03:00:00,23.243639,72.68994,OZONE,23,95,40
India,Gujarat,Gandhinagar,"Sector-10, Gandhinagar - GPCB",12-02-2024 03:00:00,23.221714,72.654328,PM10,21,73,38
India,Gujarat,Gandhinagar,"Sector-10, Gandhinagar - GPCB",12-02-2024 03:00:00,23.221714,72.654328,NO2,3,17,8
India,Gujarat,Gandhinagar,"Sector-10, Gandhinagar - GPCB",12-02-2024 03:00:00,23.221714,72.654328,NH3,1,2,2
India,Gujarat,Gandhinagar,"Sector-10, Gandhinagar - GPCB",12-02-2024 03:00:00,23.221714,72.654328,SO2,10,12,10
India,Gujarat,Surat,"Science Center, Surat - SMC",12-02-2024 03:00:00,21.170046,72.795405,CO,44,80,57
India,Gujarat,Vapi,"Phase-1 GIDC, Vapi - GPCB",12-02-2024 03:00:00,20.362421,72.918013,PM10,118,416,174
India,Gujarat,Vatva,"Phase-4 GIDC, Vatva - GPCB",12-02-2024 03:00:00,22.969611,72.643500,PM10,42,102,67
India,Gujarat,Vatva,"Phase-4 GIDC, Vatva - GPCB",12-02-2024 03:00:00,22.969611,72.643500,SO2,17,17,17
India,Haryana,Ambala,"Patti Mehar, Ambala - HSPCB",12-02-2024 03:00:00,30.379589,76.778328,PM2.5,63,103,81
India,Haryana,Ambala,"Patti Mehar, Ambala - HSPCB",12-02-2024 03:00:00,30.379589,76.778328,PM10,45,76,59
India,Haryana,Bahadurgarh,"Arya Nagar, Bahadurgarh - HSPCB",12-02-2024 03:00:00,28.6701,76.9254,CO,41,56,48
India,Haryana,Ballabgarh,"Nathu Colony, Ballabgarh - HSPCB",12-02-2024 03:00:00,28.3419248,77.319699,NH3,1,2,1
India,Haryana,Bhiwani,"H.B. Colony, Bhiwani - HSPCB",12-02-2024 03:00:00,28.806223,76.141105,NO2,7,11,9
India,Haryana,Bhiwani,"H.B. Colony, Bhiwani - HSPCB",12-02-2024 03:00:00,28.806223,76.141105,NH3,6,6,6
India,Haryana,Bhiwani,"H.B. Colony, Bhiwani - HSPCB",12-02-2024 03:00:00,28.806223,76.141105,SO2,5,15,10
India,Haryana,Dharuhera,"Municipal Corporation Office, Dharuhera -  HSPCB",12-02-2024 03:00:00,28.206800,76.799700,PM2.5,103,315,214
India,Haryana,Dharuhera,"Municipal Corporation Office, Dharuhera -  HSPCB",12-02-2024 03:00:00,28.206800,76.799700,SO2,5,28,11
India,Haryana,Faridabad,"New Industrial Town, Faridabad - HSPCB",12-02-2024 03:00:00,28.39072,77.30059,PM10,142,423,254
India,Haryana,Faridabad,"Sector 11, Faridabad - HSPCB",12-02-2024 03:00:00,28.376058,77.315741,NO2,30,32,31
India,Haryana,Faridabad,"Sector 11, Faridabad - HSPCB",12-02-2024 03:00:00,28.376058,77.315741,SO2,11,16,13
India,Haryana,Faridabad,"Sector 11, Faridabad - HSPCB",12-02-2024 03:00:00,28.376058,77.315741,OZONE,3,15,7
India,Haryana,Faridabad,"Sector 30, Faridabad - HSPCB",12-02-2024 03:00:00,28.4417,77.3217,CO,62,122,110
India,Haryana,Faridabad,"Sector 30, Faridabad - HSPCB",12-02-2024 03:00:00,28.4417,77.3217,OZONE,8,54,9
India,Haryana,Faridabad,"Sector- 16A, Faridabad - HSPCB",12-02-2024 03:00:00,28.4088421,77.3099081,PM2.5,279,397,339
India,Haryana,Faridabad,"Sector- 16A, Faridabad - HSPCB",12-02-2024 03:00:00,28.4088421,77.3099081,NO2,NA,NA,NA
India,Haryana,Faridabad,"Sector- 16A, Faridabad - HSPCB",12-02-2024 03:00:00,28.4088421,77.3099081,CO,3,77,47
India,Haryana,Gurugram,"Teri Gram, Gurugram - HSPCB",12-02-2024 03:00:00,28.4275,77.1465,SO2,3,5,4
India,Haryana,Hisar,"Urban Estate-II, Hisar - HSPCB",12-02-2024 03:00:00,29.140560,75.744941,PM2.5,83,270,177
India,Haryana,Jind,"Police Lines, Jind - HSPCB",12-02-2024 03:00:00,29.307814,76.337619,PM10,77,136,107
India,Haryana,Jind,"Police Lines, Jind - HSPCB",12-02-2024 03:00:00,29.307814,76.337619,NO2,7,16,12
India,Haryana,Kaithal,"Rishi Nagar, Kaithal - HSPCB",12-02-2024 03:00:00,29.8006,76.4155,PM10,75,127,107
India,Haryana,Kaithal,"Rishi Nagar, Kaithal - HSPCB",12-02-2024 03:00:00,29.8006,76.4155,OZONE,3,14,8
India,Haryana,Karnal,"Sector-12, Karnal - HSPCB",12-02-2024 03:00:00,29.695300,77.002700,NO2,7,12,10
India,Haryana,Karnal,"Sector-12, Karnal - HSPCB",12-02-2024 03:00:00,29.695300,77.002700,NH3,10,13,11
India,Haryana,Karnal,"Sector-12, Karnal - HSPCB",12-02-2024 03:00:00,29.695300,77.002700,SO2,12,13,12
India,Haryana,Karnal,"Sector-12, Karnal - HSPCB",12-02-2024 03:00:00,29.695300,77.002700,OZONE,29,33,31
India,Haryana,Kurukshetra,"Sector-7, Kurukshetra - HSPCB",12-02-2024 03:00:00,29.966942,76.875879,SO2,1,66,19
India,Haryana,Kurukshetra,"Sector-7, Kurukshetra - HSPCB",12-02-2024 03:00:00,29.966942,76.875879,CO,16,58,44
India,Haryana,Kurukshetra,"Sector-7, Kurukshetra - HSPCB",12-02-2024 03:00:00,29.966942,76.875879,OZONE,4,80,22
India,Haryana,Mandikhera,"General Hospital, Mandikhera - HSPCB",12-02-2024 03:00:00,27.9002,76.9938,CO,32,54,46
India,Haryana,Manesar,"Sector-2 IMT, Manesar - HSPCB",12-02-2024 03:00:00,28.360699,76.936090,OZONE,5,53,17
India,Haryana,Narnaul,"Shastri Nagar, Narnaul - HSPCB",12-02-2024 03:00:00,28.060249,76.113115,PM10,64,131,92
India,Haryana,Narnaul,"Shastri Nagar, Narnaul - HSPCB",12-02-2024 03:00:00,28.060249,76.113115,NO2,16,43,32
India,Haryana,Rohtak,"MD University, Rohtak - HSPCB",12-02-2024 03:00:00,28.52123,76.37138,SO2,5,8,7
India,Haryana,Rohtak,"MD University, Rohtak - HSPCB",12-02-2024 03:00:00,28.52123,76.37138,CO,5,101,44
India,Haryana,Sirsa,"F-Block, Sirsa - HSPCB",12-02-2024 03:00:00,29.536400,75.015800,NH3,12,13,13
India,Haryana,Sonipat,"Murthal, Sonipat - HSPCB",12-02-2024 03:00:00,29.027200,77.062100,CO,22,32,24
India,Haryana,Sonipat,"Murthal, Sonipat - HSPCB",12-02-2024 03:00:00,29.027200,77.062100,OZONE,17,36,20
India,Haryana,Yamuna Nagar,"Gobind Pura, Yamuna Nagar - HSPCB",12-02-2024 03:00:00,30.1480566,77.2893471,PM2.5,NA,NA,NA
India,Haryana,Yamuna Nagar,"Gobind Pura, Yamuna Nagar - HSPCB",12-02-2024 03:00:00,30.1480566,77.2893471,CO,NA,NA,NA
India,Himachal Pradesh,Baddi,"HIMUDA Complex Phase-1, Baddi - HPPCB",12-02-2024 03:00:00,30.943887,76.801991,SO2,18,106,42
India,Jharkhand,Dhanbad,"Kalakusuma, Dhanbad - DMC",12-02-2024 03:00:00,23.811548,86.481238,NO2,34,36,35
India,Jharkhand,Dhanbad,"Kalakusuma, Dhanbad - DMC",12-02-2024 03:00:00,23.811548,86.481238,CO,88,102,97
India,Jharkhand,Dhanbad,"Sardar Patel Nagar, Dhanbad - JSPCB",12-02-2024 03:00:00,23.80569,86.44268,PM10,56,401,148
India,Jharkhand,Dhanbad,"Sardar Patel Nagar, Dhanbad - JSPCB",12-02-2024 03:00:00,23.80569,86.44268,SO2,8,11,10
India,Karnataka,Bagalkot,"Vidayagiri, Bagalkot - KSPCB",12-02-2024 03:00:00,16.172806,75.659694,NO2,10,11,10
India,Karnataka,Bagalkot,"Vidayagiri, Bagalkot - KSPCB",12-02-2024 03:00:00,16.172806,75.659694,NH3,1,2,1
India,Karnataka,Belgaum,"Ramteerth Nagar, Belgaum - KSPCB",12-02-2024 03:00:00,15.888653,74.541751,SO2,8,12,8
India,Karnataka,Bengaluru,"BTM Layout, Bengaluru - CPCB",12-02-2024 03:00:00,12.9135218,77.5950804,PM2.5,NA,NA,NA
India,Karnataka,Bengaluru,"Bapuji Nagar, Bengaluru - KSPCB",12-02-2024 03:00:00,12.951913,77.539784,NH3,1,1,1
India,Karnataka,Bengaluru,"City Railway Station, Bengaluru - KSPCB",12-02-2024 03:00:00,12.9756843,77.5660749,PM10,60,83,74
India,Karnataka,Bengaluru,"City Railway Station, Bengaluru - KSPCB",12-02-2024 03:00:00,12.9756843,77.5660749,SO2,13,13,13
India,Karnataka,Bengaluru,"Hombegowda Nagar, Bengaluru - KSPCB",12-02-2024 03:00:00,12.938539,77.590100,NO2,30,41,35
India,Karnataka,Bengaluru,"Hombegowda Nagar, Bengaluru - KSPCB",12-02-2024 03:00:00,12.938539,77.590100,NH3,2,2,2
India,Karnataka,Bengaluru,"Hombegowda Nagar, Bengaluru - KSPCB",12-02-2024 03:00:00,12.938539,77.590100,CO,16,22,20
India,Karnataka,Bengaluru,"Jayanagar 5th Block, Bengaluru - KSPCB",12-02-2024 03:00:00,12.920984,77.584908,PM10,78,111,98
India,Karnataka,Bengaluru,"Jayanagar 5th Block, Bengaluru - KSPCB",12-02-2024 03:00:00,12.920984,77.584908,NO2,10,23,16
India,Karnataka,Bengaluru,"Jayanagar 5th Block, Bengaluru - KSPCB",12-02-2024 03:00:00,12.920984,77.584908,SO2,10,16,13
India,Karnataka,Bengaluru,"Jigani, Bengaluru - KSPCB",12-02-2024 03:00:00,12.7816279,77.6299145,PM2.5,NA,NA,NA
India,Karnataka,Bengaluru,"Kasturi Nagar, Bengaluru - KSPCB",12-02-2024 03:00:00,13.003872,77.664217,CO,21,25,24
India,Karnataka,Bengaluru,"Kasturi Nagar, Bengaluru - KSPCB",12-02-2024 03:00:00,13.003872,77.664217,OZONE,44,92,77
India,Karnataka,Bengaluru,"Peenya, Bengaluru - CPCB",12-02-2024 03:00:00,13.0270199,77.494094,NH3,3,3,3
India,Karnataka,Bengaluru,"Sanegurava Halli, Bengaluru - KSPCB",12-02-2024 03:00:00,12.990328,77.5431385,NO2,22,46,29
India,Karnataka,Bengaluru,"Shivapura_Peenya, Bengaluru - KSPCB",12-02-2024 03:00:00,13.0246342,77.5080115,PM2.5,3,139,46
India,Karnataka,Bengaluru,"Shivapura_Peenya, Bengaluru - KSPCB",12-02-2024 03:00:00,13.0246342,77.5080115,OZONE,53,55,54
India,Karnataka,Bengaluru,"Silk Board, Bengaluru - KSPCB",12-02-2024 03:00:00,12.917348,77.622813,SO2,2,10,7
India,Karnataka,Bidar,"Naubad, Bidar - KSPCB",12-02-2024 03:00:00,17.930306,77.482194,SO2,15,22,17
India,Karnataka,Bidar,"Naubad, Bidar - KSPCB",12-02-2024 03:00:00,17.930306,77.482194,CO,54,80,61
India,Karnataka,Chamarajanagar,"Urban, Chamarajanagar - KSPCB",12-02-2024 03:00:00,11.55358,76.55521,PM2.5,20,47,34
India,Karnataka,Chamarajanagar,"Urban, Chamarajanagar - KSPCB",12-02-2024 03:00:00,11.55358,76.55521,NH3,2,3,2
India,Karnataka,Chikkaballapur,"Chikkaballapur Rural, Chikkaballapur - KSPCB",12-02-2024 03:00:00,13.428828,77.731418,NO2,2,5,3
India,Karnataka,Chikkamagaluru,"Kalyana Nagara, Chikkamagaluru - KSPCB",12-02-2024 03:00:00,13.328028,75.797056,SO2,3,9,5
India,Karnataka,Davanagere,"Devaraj Urs Badavane, Davanagere - KSPCB",12-02-2024 03:00:00,14.475800,75.905200,PM2.5,10,196,80
India,Karnataka,Davanagere,"Devaraj Urs Badavane, Davanagere - KSPCB",12-02-2024 03:00:00,14.475800,75.905200,CO,16,19,17
India,Karnataka,Dharwad,"Kalabhavan, Dharwad - KSPCB",12-02-2024 03:00:00,15.459706,75.008381,NO2,12,34,19
India,Karnataka,Gadag,"Panchal Nagar, Gadag - KSPCB",12-02-2024 03:00:00,15.411456,75.638133,NO2,7,25,13
India,Karnataka,Gadag,"Panchal Nagar, Gadag - KSPCB",12-02-2024 03:00:00,15.411456,75.638133,SO2,14,18,16
India,Karnataka,Gadag,"Panchal Nagar, Gadag - KSPCB",12-02-2024 03:00:00,15.411456,75.638133,CO,42,56,46
India,Karnataka,Gadag,"Panchal Nagar, Gadag - KSPCB",12-02-2024 03:00:00,15.411456,75.638133,OZONE,37,73,50
India,Karnataka,Hubballi,"Lingaraj Nagar, Hubballi - KSPCB",12-02-2024 03:00:00,15.3714823,75.1160168,PM2.5,9,79,41
India,Karnataka,Hubballi,"Lingaraj Nagar, Hubballi - KSPCB",12-02-2024 03:00:00,15.3714823,75.1160168,SO2,NA,NA,NA
India,Karnataka,Kalaburagi,"Mahatma Basaveswar Colony, Kalaburgi - KSPCB",12-02-2024 03:00:00,17.336318,76.847397,PM2.5,20,48,31
India,Karnataka,Kalaburagi,"Mahatma Basaveswar Colony, Kalaburgi - KSPCB",12-02-2024 03:00:00,17.336318,76.847397,OZONE,7,25,17
India,Karnataka,Kolar,"Tamaka Ind. Area, Kolar - KSPCB",12-02-2024 03:00:00,13.1276288,78.1570122,PM10,75,123,97
India,Karnataka,Koppal,"Diwator Nagar, Koppal - KSPCB",12-02-2024 03:00:00,15.347630,76.181767,PM2.5,27,47,36
India,Karnataka,Koppal,"Diwator Nagar, Koppal - KSPCB",12-02-2024 03:00:00,15.347630,76.181767,NH3,2,6,5
India,Karnataka,Madikeri,"Stuart Hill, Madikeri - KSPCB",12-02-2024 03:00:00,12.415911,75.735050,NO2,6,14,8
India,Karnataka,Mangalore,"Kadri, Mangalore - KSPCB",12-02-2024 03:00:00,12.889250,74.853000,CO,30,48,47
India,Karnataka,Mysuru,"Hebbal 1st Stage, Mysuru - KSPCB",12-02-2024 03:00:00,12.21041,76.37376,PM2.5,34,46,40
India,Karnataka,Mysuru,"Hebbal 1st Stage, Mysuru - KSPCB",12-02-2024 03:00:00,12.21041,76.37376,SO2,1,7,4
India,Karnataka,Raichur,"Haji Colony, Raichur - KSPCB",12-02-2024 03:00:00,16.208139,77.348417,PM10,62,129,90
India,Karnataka,Raichur,"Haji Colony, Raichur - KSPCB",12-02-2024 03:00:00,16.208139,77.348417,SO2,61,71,65
India,Karnataka,Ramanagara,"Vijay Nagar, Ramanagara - KSPCB",12-02-2024 03:00:00,12.733409,77.298051,PM10,32,63,46
India,Karnataka,Ramanagara,"Vijay Nagar, Ramanagara - KSPCB",12-02-2024 03:00:00,12.733409,77.298051,NO2,2,11,4
India,Karnataka,Ramanagara,"Vijay Nagar, Ramanagara - KSPCB",12-02-2024 03:00:00,12.733409,77.298051,CO,1,18,7
India,Karnataka,Shivamogga,"Vinoba Nagara, Shivamogga - KSPCB",12-02-2024 03:00:00,13.940000,75.555917,OZONE,7,70,44
India,Karnataka,Tumakuru,"Thimmalapura, Tumakuru - KSPCB",12-02-2024 03:00:00,13.377516,77.099072,PM10,14,36,22
India,Karnataka,Tumakuru,"Thimmalapura, Tumakuru - KSPCB",12-02-2024 03:00:00,13.377516,77.099072,SO2,7,10,9
India,Karnataka,Udupi,"Brahmagiri, Udupi - KSPCB",12-02-2024 03:00:00,13.34194444,74.74694444,NO2,13,14,14
India,Karnataka,Udupi,"Brahmagiri, Udupi - KSPCB",12-02-2024 03:00:00,13.34194444,74.74694444,SO2,21,23,22
India,Karnataka,Vijayapura,"Ibrahimpur, Vijayapura - KSPCB",12-02-2024 03:00:00,16.802639,75.722694,PM10,38,40,39
India,Kerala,Kannur,"Thavakkara, Kannur - Kerala PCB",12-02-2024 03:00:00,11.875000,75.373200,SO2,5,6,5
India,Kerala,Kochi,"Vyttila, Kochi - Kerala PCB",12-02-2024 03:00:00,9.969447,76.321186,NO2,2,4,3
India,Kerala,Thiruvananthapuram,"Kariavattom, Thiruvananthapuram - Kerala PCB",12-02-2024 03:00:00,8.563700,76.886500,PM2.5,74,86,80
India,Kerala,Thiruvananthapuram,"Kariavattom, Thiruvananthapuram - Kerala PCB",12-02-2024 03:00:00,8.563700,76.886500,PM10,79,90,84
India,Kerala,Thiruvananthapuram,"Plammoodu, Thiruvananthapuram - Kerala PCB",12-02-2024 03:00:00,8.5149093,76.9435879,PM10,37,70,53
India,Kerala,Thiruvananthapuram,"Plammoodu, Thiruvananthapuram - Kerala PCB",12-02-2024 03:00:00,8.5149093,76.9435879,SO2,5,16,10
India,Madhya Pradesh,Bhopal,"Idgah Hills, Bhopal - MPPCB",12-02-2024 03:00:00,23.264759,77.381568,PM10,77,161,104
India,Madhya Pradesh,Bhopal,"Idgah Hills, Bhopal - MPPCB",12-02-2024 03:00:00,23.264759,77.381568,SO2,7,22,13
India,Madhya Pradesh,Bhopal,"Paryavaran Parisar, Bhopal - MPPCB",12-02-2024 03:00:00,23.210494,77.425409,CO,27,53,37
India,Madhya Pradesh,Bhopal,"T T Nagar, Bhopal - MPPCB",12-02-2024 03:00:00,23.233584,77.400574,NO2,31,72,48
India,Madhya Pradesh,Bhopal,"T T Nagar, Bhopal - MPPCB",12-02-2024 03:00:00,23.233584,77.400574,OZONE,26,108,53
India,Madhya Pradesh,Dewas,"Bhopal Chauraha, Dewas - MPPCB",12-02-2024 03:00:00,22.9682591,76.064118,SO2,13,67,32
India,Madhya Pradesh,Gwalior,"City Center, Gwalior - MPPCB",12-02-2024 03:00:00,26.203442,78.193251,PM2.5,94,383,259
India,Madhya Pradesh,Gwalior,"Deen Dayal Nagar, Gwalior - MPPCB",12-02-2024 03:00:00,26.259242,78.216432,PM10,101,395,196
India,Madhya Pradesh,Gwalior,"Deen Dayal Nagar, Gwalior - MPPCB",12-02-2024 03:00:00,26.259242,78.216432,OZONE,8,190,26
India,Madhya Pradesh,Gwalior,"Maharaj Bada, Gwalior - MPPCB",12-02-2024 03:00:00,26.200388,78.147714,PM2.5,95,354,229
India,Madhya Pradesh,Indore,"Chhoti Gwaltoli, Indore - MPPCB",12-02-2024 03:00:00,22.4310,75.5213,NO2,55,113,72
India,Madhya Pradesh,Indore,"Regional Park, Indore - IMC",12-02-2024 03:00:00,22.6780,75.8559,PM2.5,8,87,60
India,Madhya Pradesh,Indore,"Regional Park, Indore - IMC",12-02-2024 03:00:00,22.6780,75.8559,PM10,26,64,44
India,Madhya Pradesh,Jabalpur,"Govindh Bhavan Colony, Jabalpur - JMC",12-02-2024 03:00:00,23.163174,79.973061,PM2.5,50,113,72
India,Madhya Pradesh,Jabalpur,"Govindh Bhavan Colony, Jabalpur - JMC",12-02-2024 03:00:00,23.163174,79.973061,NH3,5,6,6
India,Madhya Pradesh,Jabalpur,"Govindh Bhavan Colony, Jabalpur - JMC",12-02-2024 03:00:00,23.163174,79.973061,OZONE,12,86,32
India,Madhya Pradesh,Jabalpur,"Gupteshwar, Jabalpur - JMC",12-02-2024 03:00:00,23.142888,79.916147,PM10,50,147,105
India,Madhya Pradesh,Jabalpur,"Gupteshwar, Jabalpur - JMC",12-02-2024 03:00:00,23.142888,79.916147,CO,26,111,97
India,Madhya Pradesh,Jabalpur,"Marhatal, Jabalpur - MPPCB",12-02-2024 03:00:00,23.168606,79.932247,PM2.5,82,282,176
India,Madhya Pradesh,Jabalpur,"Suhagi, Jabalpur - JMC",12-02-2024 03:00:00,23.218135,79.957770,NH3,5,5,5
India,Madhya Pradesh,Jabalpur,"Suhagi, Jabalpur - JMC",12-02-2024 03:00:00,23.218135,79.957770,CO,29,101,78
India,Madhya Pradesh,Katni,"Gole Bazar, Katni - MPPCB",12-02-2024 03:00:00,23.50016,80.23284,PM2.5,NA,NA,NA
India,Madhya Pradesh,Katni,"Gole Bazar, Katni - MPPCB",12-02-2024 03:00:00,23.50016,80.23284,PM10,NA,NA,NA
India,Madhya Pradesh,Mandideep,"Sector-D Industrial Area, Mandideep - MPPCB",12-02-2024 03:00:00,23.108440,77.511428,PM2.5,80,194,122
India,Madhya Pradesh,Pithampur,"Sector-2 Industrial Area, Pithampur - MPPCB",12-02-2024 03:00:00,22.624758,75.675238,PM2.5,70,222,122
India,Madhya Pradesh,Pithampur,"Sector-2 Industrial Area, Pithampur - MPPCB",12-02-2024 03:00:00,22.624758,75.675238,PM10,98,187,134
India,Madhya Pradesh,Pithampur,"Sector-2 Industrial Area, Pithampur - MPPCB",12-02-2024 03:00:00,22.624758,75.675238,SO2,10,16,13
India,Madhya Pradesh,Pithampur,"Sector-2 Industrial Area, Pithampur - MPPCB",12-02-2024 03:00:00,22.624758,75.675238,CO,40,58,51
India,Madhya Pradesh,Ratlam,"Shasthri Nagar, Ratlam - IPCA Lab",12-02-2024 03:00:00,23.331731,75.045981,PM2.5,19,93,55
India,Madhya Pradesh,Sagar,"Civil Lines, Sagar - MPPCB",12-02-2024 03:00:00,23.838586,78.759431,PM10,NA,NA,NA
India,Madhya Pradesh,Sagar,"Deen Dayal Nagar, Sagar - MPPCB",12-02-2024 03:00:00,23.8640158,78.80289321,NO2,23,24,24
India,Madhya Pradesh,Sagar,"Deen Dayal Nagar, Sagar - MPPCB",12-02-2024 03:00:00,23.8640158,78.80289321,CO,52,64,61
India,Madhya Pradesh,Satna,"Bandhavgar Colony, Satna - Birla Cement",12-02-2024 03:00:00,24.58434363,80.8549414,NO2,9,18,12
India,Madhya Pradesh,Ujjain,"Mahakaleshwar Temple, Ujjain - MPPCB",12-02-2024 03:00:00,23.182719 ,75.768218 ,PM2.5,33,88,58
India,Maharashtra,Amravati,"Shivneri Colony, Amravati - MPCB",12-02-2024 03:00:00,20.9402359,77.7895248,NO2,13,42,23
India,Maharashtra,Amravati,"Shri Shivaji Science College, Amaravati - MPCB",12-02-2024 03:00:00,20.939198,77.765701,NO2,9,90,22
India,Maharashtra,Aurangabad,"MIDC Chilkalthana, Aurangabad - MPCB",12-02-2024 03:00:00,19.875620,75.387310,PM10,73,187,127
India,Maharashtra,Aurangabad,"More Chowk Waluj, Aurangabad - MPCB",12-02-2024 03:00:00,19.8389439,75.244448,NH3,1,1,1
India,Maharashtra,Aurangabad,"More Chowk Waluj, Aurangabad - MPCB",12-02-2024 03:00:00,19.8389439,75.244448,SO2,10,12,11
India,Maharashtra,Aurangabad,"Rachnakar Colony, Aurangabad - MPCB",12-02-2024 03:00:00,19.863756,75.321188,PM10,73,386,137
India,Maharashtra,Aurangabad,"Rachnakar Colony, Aurangabad - MPCB",12-02-2024 03:00:00,19.863756,75.321188,NH3,1,1,1
India,Maharashtra,Badlapur,"Katrap, Badlapur - MPCB",12-02-2024 03:00:00,19.16485,73.23409,PM2.5,1,12,2
India,Maharashtra,Badlapur,"Katrap, Badlapur - MPCB",12-02-2024 03:00:00,19.16485,73.23409,CO,17,76,46
India,Maharashtra,Belapur,"CBD Belapur, Belapur - MPCB",12-02-2024 03:00:00,19.0243902,73.0406721,NH3,16,43,25
India,Maharashtra,Belapur,"CBD Belapur, Belapur - MPCB",12-02-2024 03:00:00,19.0243902,73.0406721,CO,22,57,34
India,Maharashtra,Bhiwandi,"Gokul Nagar, Bhiwandi - MPCB",12-02-2024 03:00:00,19.309073,73.057223,PM2.5,48,295,123
India,Maharashtra,Chandrapur,"Chauhan Colony, Chandrapur - MPCB",12-02-2024 03:00:00,19.962900,79.298714,PM10,NA,NA,NA
India,Maharashtra,Dhule,"Deopur, Dhule - MPCB",12-02-2024 03:00:00,20.918946,74.776388,PM2.5,NA,NA,NA
India,Maharashtra,Dhule,"Deopur, Dhule - MPCB",12-02-2024 03:00:00,20.918946,74.776388,OZONE,16,59,34
India,Maharashtra,Jalgaon,"Prabhat Colony, Jalgaon - MPCB",12-02-2024 03:00:00,21.001264,75.565602,PM10,100,185,134
India,Maharashtra,Jalgaon,"Prabhat Colony, Jalgaon - MPCB",12-02-2024 03:00:00,21.001264,75.565602,SO2,26,50,33
India,Maharashtra,Jalna,"Old MIDC, Jalna - MPCB",12-02-2024 03:00:00,19.854616,75.905894,SO2,8,10,9
India,Maharashtra,Kalyan,"Khadakpada, Kalyan - MPCB",12-02-2024 03:00:00,19.25292,73.142019,OZONE,8,46,16
India,Maharashtra,Malegaon,"Mahesh Nagar, Malegaon - MPCB",12-02-2024 03:00:00,20.555712,74.529236,PM2.5,45,427,161
India,Maharashtra,Malegaon,"Mahesh Nagar, Malegaon - MPCB",12-02-2024 03:00:00,20.555712,74.529236,NO2,5,28,12
India,Maharashtra,Malegaon,"Mahesh Nagar, Malegaon - MPCB",12-02-2024 03:00:00,20.555712,74.529236,CO,30,66,50
India,Maharashtra,Mumbai,"Bandra Kurla Complex, Mumbai - MPCB",12-02-2024 03:00:00,19.065931,72.862131,PM10,80,296,157
India,Maharashtra,Mumbai,"Bandra Kurla Complex, Mumbai - MPCB",12-02-2024 03:00:00,19.065931,72.862131,NO2,15,67,43
India,Maharashtra,Mumbai,"Borivali East, Mumbai - IITM",12-02-2024 03:00:00,19.23241,72.86895,PM10,64,142,113
India,Maharashtra,Mumbai,"Byculla, Mumbai - BMC",12-02-2024 03:00:00,18.9767,72.8380,PM2.5,43,142,79
India,Maharashtra,Mumbai,"Byculla, Mumbai - BMC",12-02-2024 03:00:00,18.9767,72.8380,PM10,54,120,87
India,Maharashtra,Mumbai,"Chakala-Andheri East, Mumbai - IITM",12-02-2024 03:00:00,19.11074,72.86084,PM10,65,181,112
India,Maharashtra,Mumbai,"Chembur, Mumbai - MPCB",12-02-2024 03:00:00,19.0364585,72.8954371,NH3,3,8,5
India,Maharashtra,Mumbai,"Chembur, Mumbai - MPCB",12-02-2024 03:00:00,19.0364585,72.8954371,CO,14,42,23
India,Maharashtra,Mumbai,"Chhatrapati Shivaji Intl. Airport (T2), Mumbai - MPCB",12-02-2024 03:00:00,19.10078,72.87462,PM2.5,23,55,37
India,Maharashtra,Mumbai,"Chhatrapati Shivaji Intl. Airport (T2), Mumbai - MPCB",12-02-2024 03:00:00,19.10078,72.87462,NO2,NA,NA,NA
India,Maharashtra,Mumbai,"Chhatrapati Shivaji Intl. Airport (T2), Mumbai - MPCB",12-02-2024 03:00:00,19.10078,72.87462,SO2,20,26,23
India,Maharashtra,Mumbai,"Colaba, Mumbai - MPCB",12-02-2024 03:00:00,18.910000,72.820000,NO2,18,33,22
India,Maharashtra,Mumbai,"Ghatkopar, Mumbai - BMC",12-02-2024 03:00:00,19.083694,72.920967,SO2,1,4,2
India,Maharashtra,Mumbai,"Kandivali East, Mumbai - MPCB",12-02-2024 03:00:00,19.205800,72.868200,OZONE,30,31,30
India,Maharashtra,Mumbai,"Kandivali West, Mumbai - BMC",12-02-2024 03:00:00,19.215859,72.831718,PM10,70,107,90
India,Maharashtra,Mumbai,"Kandivali West, Mumbai - BMC",12-02-2024 03:00:00,19.215859,72.831718,SO2,5,20,11
India,Maharashtra,Mumbai,"Kherwadi_Bandra East, Mumbai - MPCB",12-02-2024 03:00:00,19.0632143,72.8456324,NO2,13,109,63
India,Maharashtra,Mumbai,"Khindipada-Bhandup West, Mumbai - IITM",12-02-2024 03:00:00,19.1653323,72.922099,PM10,44,123,85
India,Maharashtra,Mumbai,"Malad West, Mumbai - IITM",12-02-2024 03:00:00,19.19709,72.82204,NH3,NA,NA,NA
India,Maharashtra,Mumbai,"Malad West, Mumbai - IITM",12-02-2024 03:00:00,19.19709,72.82204,SO2,1,11,5
India,Maharashtra,Mumbai,"Mazgaon, Mumbai - IITM",12-02-2024 03:00:00,18.96702,72.84214,PM10,88,195,127
India,Maharashtra,Mumbai,"Mazgaon, Mumbai - IITM",12-02-2024 03:00:00,18.96702,72.84214,SO2,13,83,34
India,Maharashtra,Mumbai,"Mindspace-Malad West, Mumbai - MPCB",12-02-2024 03:00:00,19.1878657,72.8304069,CO,36,106,75
India,Maharashtra,Mumbai,"Mindspace-Malad West, Mumbai - MPCB",12-02-2024 03:00:00,19.1878657,72.8304069,OZONE,2,92,16
India,Maharashtra,Mumbai,"Navy Nagar-Colaba, Mumbai - IITM",12-02-2024 03:00:00,18.897756,72.813320,PM2.5,58,110,76
India,Maharashtra,Mumbai,"Navy Nagar-Colaba, Mumbai - IITM",12-02-2024 03:00:00,18.897756,72.813320,NO2,NA,NA,NA
India,Maharashtra,Mumbai,"Navy Nagar-Colaba, Mumbai - IITM",12-02-2024 03:00:00,18.897756,72.813320,OZONE,5,135,80
India,Maharashtra,Mumbai,"Powai, Mumbai - MPCB",12-02-2024 03:00:00,19.137500,72.915056,NO2,22,40,30
India,Maharashtra,Mumbai,"Siddharth Nagar-Worli, Mumbai - IITM",12-02-2024 03:00:00,19.000083,72.813993,CO,25,44,33
India,Maharashtra,Mumbai,"Siddharth Nagar-Worli, Mumbai - IITM",12-02-2024 03:00:00,19.000083,72.813993,OZONE,6,154,78
India,Maharashtra,Mumbai,"Sion, Mumbai - MPCB",12-02-2024 03:00:00,19.047000,72.874600,CO,12,66,34
India,Maharashtra,Mumbai,"Vasai West, Mumbai - MPCB",12-02-2024 03:00:00,19.383200,72.820400,PM2.5,21,79,46
India,Maharashtra,Nagpur,"Mahal, Nagpur - MPCB",12-02-2024 03:00:00,21.14472,79.107595,SO2,34,50,41
India,Maharashtra,Nagpur,"Opp GPO Civil Lines, Nagpur - MPCB",12-02-2024 03:00:00,21.152875,79.0517531,PM2.5,93,265,166
India,Maharashtra,Nagpur,"Opp GPO Civil Lines, Nagpur - MPCB",12-02-2024 03:00:00,21.152875,79.0517531,OZONE,2,59,19
India,Maharashtra,Nanded,"Sneh Nagar, Nanded - MPCB",12-02-2024 03:00:00,19.173852,77.296291,PM2.5,66,199,107
India,Maharashtra,Nanded,"Sneh Nagar, Nanded - MPCB",12-02-2024 03:00:00,19.173852,77.296291,NO2,16,40,24
India,Maharashtra,Nanded,"Sneh Nagar, Nanded - MPCB",12-02-2024 03:00:00,19.173852,77.296291,OZONE,22,111,62
India,Maharashtra,Nashik,"Gangapur Road, Nashik - MPCB",12-02-2024 03:00:00,20.0073285,73.7762427,PM10,37,93,65
India,Maharashtra,Nashik,"MIDC Ambad, Nashik - MPCB",12-02-2024 03:00:00,19.950220,73.731480,CO,25,108,49
India,Maharashtra,Nashik,"MIDC Ambad, Nashik - MPCB",12-02-2024 03:00:00,19.950220,73.731480,OZONE,7,56,34
India,Maharashtra,Nashik,"Pandav Nagari, Nashik - MPCB",12-02-2024 03:00:00,19.9591346,73.7788008,OZONE,29,112,75
India,Maharashtra,Navi Mumbai,"Nerul, Navi Mumbai - MPCB",12-02-2024 03:00:00,19.008751,73.016620,NO2,22,35,28
India,Maharashtra,Navi Mumbai,"Sanpada, Navi Mumbai - MPCB",12-02-2024 03:00:00,19.0575752,73.0151367,PM10,91,151,114
India,Maharashtra,Navi Mumbai,"Sector-2E Kalamboli, Navi Mumbai - MPCB",12-02-2024 03:00:00,19.02579,73.10297,SO2,16,95,35
India,Maharashtra,Navi Mumbai,"Tondare-Taloja, Navi Mumbai - MPCB",12-02-2024 03:00:00,19.0630,73.1209,PM10,86,152,126
India,Maharashtra,Parbhani,"Masoom Colony, Parbhani - MPCB",12-02-2024 03:00:00,19.265594,76.761463,PM2.5,72,123,94
India,Maharashtra,Parbhani,"Masoom Colony, Parbhani - MPCB",12-02-2024 03:00:00,19.265594,76.761463,SO2,11,43,23
India,Maharashtra,Pimpri-Chinchwad,"Gavalinagar, Pimpri Chinchwad - MPCB",12-02-2024 03:00:00,18.63673,73.82487,PM2.5,55,263,154
India,Maharashtra,Pimpri-Chinchwad,"Gavalinagar, Pimpri Chinchwad - MPCB",12-02-2024 03:00:00,18.63673,73.82487,PM10,46,177,122
India,Maharashtra,Pimpri-Chinchwad,"Gavalinagar, Pimpri Chinchwad - MPCB",12-02-2024 03:00:00,18.63673,73.82487,SO2,6,37,18
India,Maharashtra,Pimpri-Chinchwad,"Thergaon, Pimpri Chinchwad - MPCB",12-02-2024 03:00:00,18.616318,73.765797,PM2.5,92,313,224
India,Maharashtra,Pimpri-Chinchwad,"Thergaon, Pimpri Chinchwad - MPCB",12-02-2024 03:00:00,18.616318,73.765797,PM10,87,178,137
India,Maharashtra,Pune,"Karve Road, Pune - MPCB",12-02-2024 03:00:00,18.5011743,73.8165527,CO,4,130,71
India,Maharashtra,Pune,"Katraj Dairy, Pune - MPCB",12-02-2024 03:00:00,18.454450,73.854155,CO,38,91,75
India,Maharashtra,Pune,"Katraj Dairy, Pune - MPCB",12-02-2024 03:00:00,18.454450,73.854155,OZONE,6,58,21
India,Maharashtra,Pune,"Mhada Colony, Pune - IITM",12-02-2024 03:00:00,18.573040,73.927715,NO2,1,18,11
India,Maharashtra,Pune,"Savitribai Phule Pune University, Pune - MPCB",12-02-2024 03:00:00,18.547056,73.826908,PM2.5,NA,NA,NA
India,Maharashtra,Pune,"Savitribai Phule Pune University, Pune - MPCB",12-02-2024 03:00:00,18.547056,73.826908,PM10,NA,NA,NA
India,Maharashtra,Pune,"Savitribai Phule Pune University, Pune - MPCB",12-02-2024 03:00:00,18.547056,73.826908,OZONE,NA,NA,NA
India,Maharashtra,Solapur,"Dnyaneshwar Nagar, Solapur - MPCB",12-02-2024 03:00:00,17.6336264,75.9132495,PM2.5,108,192,144
India,Maharashtra,Solapur,"Dnyaneshwar Nagar, Solapur - MPCB",12-02-2024 03:00:00,17.6336264,75.9132495,NO2,14,72,26
India,Maharashtra,Solapur,"Dnyaneshwar Nagar, Solapur - MPCB",12-02-2024 03:00:00,17.6336264,75.9132495,OZONE,41,133,60
India,Maharashtra,Solapur,"Ratandeep Housing Society, Solapur - MPCB",12-02-2024 03:00:00,17.65439,75.90649,PM2.5,78,144,99
India,Maharashtra,Solapur,"Ratandeep Housing Society, Solapur - MPCB",12-02-2024 03:00:00,17.65439,75.90649,PM10,94,128,106
India,Maharashtra,Solapur,"Ratandeep Housing Society, Solapur - MPCB",12-02-2024 03:00:00,17.65439,75.90649,NO2,15,127,36
India,Maharashtra,Solapur,"Solapur, Solapur - MPCB",12-02-2024 03:00:00,17.6599188,75.9063906,PM10,101,141,114
India,Maharashtra,Thane,"Kasarvadavali, Thane - MPCB",12-02-2024 03:00:00,19.26777,72.97182,PM10,95,104,100
India,Maharashtra,Thane,"Kasarvadavali, Thane - MPCB",12-02-2024 03:00:00,19.26777,72.97182,CO,22,62,39
India,Maharashtra,Thane,"Pimpleshwar Mandir, Thane - MPCB",12-02-2024 03:00:00,19.192056,72.9585188,OZONE,1,75,18
India,Maharashtra,Virar,"Bolinj, Virar - MPCB",12-02-2024 03:00:00,19.4458210,72.7988231,NO2,12,64,31
India,Maharashtra,Virar,"Bolinj, Virar - MPCB",12-02-2024 03:00:00,19.4458210,72.7988231,NH3,5,6,6
India,Manipur,Imphal,"DM College of Science, Imphal - Manipur PCB",12-02-2024 03:00:00,24.8207389,93.9423085,CO,6,6,6
India,Manipur,Imphal,"Manipur University, Imphal - Manipur PCB",12-02-2024 03:00:00,24.7524239,93.9286218,PM2.5,25,273,100
India,Manipur,Imphal,"Manipur University, Imphal - Manipur PCB",12-02-2024 03:00:00,24.7524239,93.9286218,NO2,8,29,14
India,Meghalaya,Shillong,"Lumpyngngad, Shillong - Meghalaya PCB",12-02-2024 03:00:00,25.5586,91.8985,NO2,6,6,6
India,Meghalaya,Shillong,"Lumpyngngad, Shillong - Meghalaya PCB",12-02-2024 03:00:00,25.5586,91.8985,SO2,43,46,44
India,Mizoram,Aizawl,"Sikulpuikawn, Aizawl - Mizoram PCB",12-02-2024 03:00:00,23.7176342,92.7192841,SO2,2,2,2
India,Nagaland,Kohima,"PWD Juction, Kohima - NPCB",12-02-2024 03:00:00,25.6635413,94.0989878,NH3,NA,NA,NA
India,Odisha,Angul,"Hakimapada, Angul - OSPCB",12-02-2024 03:00:00,20.832874,85.104082,PM10,121,371,190
India,Odisha,Barbil,"Forest Office, Barbil - OSPCB",12-02-2024 03:00:00,22.1166054,85.3945546,SO2,5,69,23
India,Odisha,Barbil,"Forest Office, Barbil - OSPCB",12-02-2024 03:00:00,22.1166054,85.3945546,OZONE,5,191,56
India,Odisha,Baripada,"Meher Colony, Baripada - OSPCB",12-02-2024 03:00:00,21.941841,86.728318,OZONE,NA,NA,NA
India,Odisha,Bhubaneswar,"Patia, Bhubaneswar - OSPCB",12-02-2024 03:00:00,20.34652,85.81630,PM10,109,179,137
India,Odisha,Bileipada,"Tata Township, Bileipada - OSPCB",12-02-2024 03:00:00,22.06156703,85.47409613,PM2.5,99,207,156
India,Odisha,Bileipada,"Tata Township, Bileipada - OSPCB",12-02-2024 03:00:00,22.06156703,85.47409613,SO2,NA,NA,NA
India,Odisha,Brajrajnagar,"GM Office, Brajrajnagar - OSPCB",12-02-2024 03:00:00,21.8004996,83.8396977,PM10,20,131,82
India,Odisha,Byasanagar,"Ferro Chrome Colony, Byasanagar - OSPCB",12-02-2024 03:00:00,20.94185,86.11510,OZONE,37,219,71
India,Odisha,Nayagarh,"Dabuna, Nayagarh - OSPCB",12-02-2024 03:00:00,21.847279,85.416905,NO2,27,34,32
India,Odisha,Nayagarh,"Dabuna, Nayagarh - OSPCB",12-02-2024 03:00:00,21.847279,85.416905,OZONE,2,16,4
India,Odisha,Rairangpur,"Divisional Forest Office, Rairangpur - OSPCB",12-02-2024 03:00:00,22.265816,86.174829,PM2.5,38,64,53
India,Odisha,Rairangpur,"Divisional Forest Office, Rairangpur - OSPCB",12-02-2024 03:00:00,22.265816,86.174829,SO2,NA,NA,NA
India,Odisha,Rairangpur,"Divisional Forest Office, Rairangpur - OSPCB",12-02-2024 03:00:00,22.265816,86.174829,CO,19,40,29
India,Odisha,Rourkela,"Raghunathpali, Rourkela - OSPCB",12-02-2024 03:00:00,22.220833,84.809444,PM10,102,187,138
India,Odisha,Rourkela,"Raghunathpali, Rourkela - OSPCB",12-02-2024 03:00:00,22.220833,84.809444,NO2,16,136,51
India,Odisha,Rourkela,"Raghunathpali, Rourkela - OSPCB",12-02-2024 03:00:00,22.220833,84.809444,OZONE,14,128,43
India,Odisha,Rourkela,"Sector-2, Rourkela - OSPCB",12-02-2024 03:00:00,22.24500000,84.88111111,PM10,75,154,114
India,Odisha,Rourkela,"Sector-2, Rourkela - OSPCB",12-02-2024 03:00:00,22.24500000,84.88111111,NO2,NA,NA,NA
India,Odisha,Talcher,"Talcher Coalfields,Talcher - OSPCB",12-02-2024 03:00:00,20.9360711,85.1707021,PM2.5,32,332,159
India,Odisha,Tensa,"Barsua Iron Ore Mines, Tensa - OSPCB",12-02-2024 03:00:00,21.869985,85.167016,PM10,58,160,107
India,Odisha,Tensa,"Barsua Iron Ore Mines, Tensa - OSPCB",12-02-2024 03:00:00,21.869985,85.167016,OZONE,4,40,20
India,Puducherry,Puducherry,"Jawahar Nagar, Puducherry - PPCC",12-02-2024 03:00:00,11.9309,79.8027,PM2.5,55,86,71
India,Puducherry,Puducherry,"Jawahar Nagar, Puducherry - PPCC",12-02-2024 03:00:00,11.9309,79.8027,PM10,57,91,73
India,Punjab,Amritsar,"Golden Temple, Amritsar - PPCB",12-02-2024 03:00:00,31.620000,74.876512,NH3,5,7,5
India,Punjab,Amritsar,"Golden Temple, Amritsar - PPCB",12-02-2024 03:00:00,31.620000,74.876512,OZONE,25,31,28
India,Punjab,Bathinda,"Hardev Nagar, Bathinda - PPCB",12-02-2024 03:00:00,30.233011,74.907758,SO2,1,107,53
India,Punjab,Jalandhar,"Civil Line, Jalandhar - PPCB",12-02-2024 03:00:00,31.321907,75.578914,NO2,44,46,45
India,Punjab,Khanna,"Kalal Majra, Khanna - PPCB",12-02-2024 03:00:00,30.736056 ,76.209694,CO,20,30,25
India,Punjab,Ludhiana,"Punjab Agricultural University, Ludhiana - PPCB",12-02-2024 03:00:00,30.9028,75.8086,PM10,95,151,116
India,Punjab,Ludhiana,"Punjab Agricultural University, Ludhiana - PPCB",12-02-2024 03:00:00,30.9028,75.8086,NO2,27,40,31
India,Punjab,Ludhiana,"Punjab Agricultural University, Ludhiana - PPCB",12-02-2024 03:00:00,30.9028,75.8086,SO2,2,12,9
India,Punjab,Mandi Gobindgarh,"RIMT University, Mandi Gobindgarh - PPCB",12-02-2024 03:00:00,30.649961,76.331442,PM2.5,26,86,54
India,Punjab,Mandi Gobindgarh,"RIMT University, Mandi Gobindgarh - PPCB",12-02-2024 03:00:00,30.649961,76.331442,CO,10,84,28
India,Punjab,Patiala,"Model Town, Patiala - PPCB",12-02-2024 03:00:00,30.349388,76.366642,NO2,20,27,23
India,Rajasthan,Ajmer,"Civil Lines,  Ajmer - RSPCB",12-02-2024 03:00:00,26.470859,74.646594,NO2,20,59,33
India,Rajasthan,Ajmer,"Civil Lines,  Ajmer - RSPCB",12-02-2024 03:00:00,26.470859,74.646594,SO2,6,19,13
India,Rajasthan,Banswara,"Rati Talai, Banswara - RSPCB",12-02-2024 03:00:00,23.555190,74.440010,NO2,6,110,31
India,Rajasthan,Baran,"Bamboliya, Baran - RSPCB",12-02-2024 03:00:00,25.106006,76.469948,NO2,15,88,26
India,Rajasthan,Baran,"Bamboliya, Baran - RSPCB",12-02-2024 03:00:00,25.106006,76.469948,SO2,6,14,9
India,Rajasthan,Barmer,"Railway Colony, Barmer - RSPCB",12-02-2024 03:00:00,25.747299,71.393989,NO2,12,50,18
India,Rajasthan,Barmer,"Railway Colony, Barmer - RSPCB",12-02-2024 03:00:00,25.747299,71.393989,SO2,7,13,10
India,Rajasthan,Barmer,"Railway Colony, Barmer - RSPCB",12-02-2024 03:00:00,25.747299,71.393989,OZONE,43,118,67
India,Rajasthan,Bharatpur,"Krishna Nagar, Bharatpur - RSPCB",12-02-2024 03:00:00,27.215415,77.50873,PM10,147,323,209
India,Rajasthan,Bharatpur,"Krishna Nagar, Bharatpur - RSPCB",12-02-2024 03:00:00,27.215415,77.50873,NH3,1,13,5
India,Rajasthan,Bharatpur,"Krishna Nagar, Bharatpur - RSPCB",12-02-2024 03:00:00,27.215415,77.50873,SO2,1,27,8
India,Rajasthan,Bhilwara,"Pratap Nagar, Bhilwara - RSPCB",12-02-2024 03:00:00,25.339605,74.618883,PM10,45,157,96
India,Rajasthan,Bhilwara,"Pratap Nagar, Bhilwara - RSPCB",12-02-2024 03:00:00,25.339605,74.618883,NO2,17,105,38
India,Rajasthan,Bikaner,"MM Ground, Bikaner - RSPCB",12-02-2024 03:00:00,28.018792,73.292658,PM2.5,57,239,122
India,Rajasthan,Bikaner,"MM Ground, Bikaner - RSPCB",12-02-2024 03:00:00,28.018792,73.292658,PM10,91,412,170
India,Rajasthan,Bikaner,"MM Ground, Bikaner - RSPCB",12-02-2024 03:00:00,28.018792,73.292658,NO2,10,74,33
India,Rajasthan,Bikaner,"MM Ground, Bikaner - RSPCB",12-02-2024 03:00:00,28.018792,73.292658,CO,48,123,86
India,Rajasthan,Chittorgarh,"Shastri Nagar, Chittorgarh - RSPCB",12-02-2024 03:00:00,24.892047,74.623527,NO2,15,108,51
India,Rajasthan,Chittorgarh,"Shastri Nagar, Chittorgarh - RSPCB",12-02-2024 03:00:00,24.892047,74.623527,NH3,7,12,9
India,Rajasthan,Churu,"Subash Chowk, Churu - RSPCB",12-02-2024 03:00:00,28.296139,74.961696,PM2.5,53,420,168
India,Rajasthan,Churu,"Subash Chowk, Churu - RSPCB",12-02-2024 03:00:00,28.296139,74.961696,OZONE,8,150,66
India,Rajasthan,Dausa,"Khatikan Mohalla, Dausa - RSPCB",12-02-2024 03:00:00,26.895552,76.334753,PM2.5,83,350,235
India,Rajasthan,Dausa,"Khatikan Mohalla, Dausa - RSPCB",12-02-2024 03:00:00,26.895552,76.334753,CO,2,98,39
India,Rajasthan,Dholpur,"Raja Ganj, Dholpur - RSPCB",12-02-2024 03:00:00,26.699557,77.898881,PM10,94,233,161
India,Rajasthan,Dholpur,"Raja Ganj, Dholpur - RSPCB",12-02-2024 03:00:00,26.699557,77.898881,NO2,19,86,41
India,Rajasthan,Dungarpur,"Bhoiwada, Dungarpur - RSPCB",12-02-2024 03:00:00,23.837789,73.714926,PM10,44,112,76
India,Rajasthan,Dungarpur,"Bhoiwada, Dungarpur - RSPCB",12-02-2024 03:00:00,23.837789,73.714926,NH3,7,8,8
India,Rajasthan,Dungarpur,"Bhoiwada, Dungarpur - RSPCB",12-02-2024 03:00:00,23.837789,73.714926,OZONE,27,75,42
India,Rajasthan,Hanumangarh,"Housing Board, Hanumangarh - RSPCB",12-02-2024 03:00:00,29.610750,74.283608,NO2,21,115,56
India,Rajasthan,Jaipur,"Adarsh Nagar, Jaipur - RSPCB",12-02-2024 03:00:00,26.902909,75.836858,CO,11,76,39
India,Rajasthan,Jaipur,"RIICO Sitapura, Jaipur - RSPCB",12-02-2024 03:00:00,26.786682,75.827928,PM2.5,94,390,224
India,Rajasthan,Jaipur,"RIICO Sitapura, Jaipur - RSPCB",12-02-2024 03:00:00,26.786682,75.827928,PM10,98,271,146
India,Rajasthan,Jaipur,"RIICO Sitapura, Jaipur - RSPCB",12-02-2024 03:00:00,26.786682,75.827928,NH3,2,4,3
India,Rajasthan,Jaipur,"RIICO Sitapura, Jaipur - RSPCB",12-02-2024 03:00:00,26.786682,75.827928,CO,26,68,52
India,Rajasthan,Jaipur,"Sector-2 Murlipura, Jaipur - RSPCB",12-02-2024 03:00:00,26.960669,75.771817,NH3,3,10,6
India,Rajasthan,Jaisalmer,"Sadar Bazar, Jaisalmer - RSPCB",12-02-2024 03:00:00,26.912329,70.909168,SO2,6,15,9
India,Rajasthan,Jalore,"Mudtra Sili, Jalore - RSPCB",12-02-2024 03:00:00,25.344694,72.626208,NH3,2,5,3
India,Rajasthan,Jhalawar,"Rajlaxmi Nagar, Jhalawar - RSPCB",12-02-2024 03:00:00,24.588397,76.172782,SO2,4,12,7
India,Rajasthan,Jodhpur,"Collectorate, Jodhpur - RSPCB",12-02-2024 03:00:00,26.268249,73.0193853,PM10,100,330,150
India,Rajasthan,Jodhpur,"Digari Kalan, Jodhpur - RSPCB",12-02-2024 03:00:00,26.295810,73.082283,PM2.5,10,96,47
India,Rajasthan,Jodhpur,"Digari Kalan, Jodhpur - RSPCB",12-02-2024 03:00:00,26.295810,73.082283,PM10,33,218,74
India,Rajasthan,Jodhpur,"Jhalamand, Jodhpur - RSPCB",12-02-2024 03:00:00,26.215415,73.070156,PM10,41,285,103
India,Rajasthan,Jodhpur,"Jhalamand, Jodhpur - RSPCB",12-02-2024 03:00:00,26.215415,73.070156,NH3,4,9,7
India,Rajasthan,Jodhpur,"Samrat Ashok Udhyan, Jodhpur - RSPCB",12-02-2024 03:00:00,26.253384,72.976571,PM2.5,11,127,44
India,Rajasthan,Karauli,"Satyawati Vihar, Karauli - RSPCB",12-02-2024 03:00:00,26.506177,77.025989,SO2,17,25,21
India,Rajasthan,Karauli,"Satyawati Vihar, Karauli - RSPCB",12-02-2024 03:00:00,26.506177,77.025989,OZONE,9,65,30
India,Rajasthan,Kota,"Dhanmandi, Kota - RSPCB",12-02-2024 03:00:00,25.164090,75.858137,PM10,61,180,108
India,Rajasthan,Kota,"Dhanmandi, Kota - RSPCB",12-02-2024 03:00:00,25.164090,75.858137,OZONE,5,79,30
India,Rajasthan,Kota,"Nayapura, Kota - RSPCB",12-02-2024 03:00:00,25.196024,75.855668,PM2.5,56,349,135
India,Rajasthan,Kota,"Shrinath Puram, Kota - RSPCB",12-02-2024 03:00:00,25.14389,75.821256,PM2.5,68,179,103
India,Rajasthan,Kota,"Shrinath Puram, Kota - RSPCB",12-02-2024 03:00:00,25.14389,75.821256,SO2,2,40,10
India,Rajasthan,Nagaur,"Karni Colony, Nagaur - RSPCB",12-02-2024 03:00:00,27.213494,73.734444,PM10,NA,NA,NA
India,Rajasthan,Nagaur,"Karni Colony, Nagaur - RSPCB",12-02-2024 03:00:00,27.213494,73.734444,SO2,NA,NA,NA
India,Rajasthan,Pali,"Indira Colony Vistar, Pali - RSPCB",12-02-2024 03:00:00,25.771061, 73.340227,SO2,17,19,18
India,Rajasthan,Pali,"Indira Colony Vistar, Pali - RSPCB",12-02-2024 03:00:00,25.771061, 73.340227,OZONE,12,71,45
India,Rajasthan,Pratapgarh,"Pragati Nagar, Pratapgarh - RSPCB",12-02-2024 03:00:00,24.041198,74.780702,NH3,4,8,6
India,Rajasthan,Pratapgarh,"Pragati Nagar, Pratapgarh - RSPCB",12-02-2024 03:00:00,24.041198,74.780702,CO,14,38,25
India,Rajasthan,Pratapgarh,"Pragati Nagar, Pratapgarh - RSPCB",12-02-2024 03:00:00,24.041198,74.780702,OZONE,53,112,70
India,Rajasthan,Rajsamand,"Dhoinda, Rajsamand - RSPCB",12-02-2024 03:00:00,25.036360,73.883502,PM2.5,NA,NA,NA
India,Rajasthan,Rajsamand,"Dhoinda, Rajsamand - RSPCB",12-02-2024 03:00:00,25.036360,73.883502,PM10,NA,NA,NA
India,Rajasthan,Rajsamand,"Dhoinda, Rajsamand - RSPCB",12-02-2024 03:00:00,25.036360,73.883502,CO,10,62,48
India,Rajasthan,Sawai Madhopur,"Sahu Nagar, Sawai Madhopur - RSPCB",12-02-2024 03:00:00,26.031443,76.359327,NH3,1,41,17
India,Rajasthan,Tonk,"Shastri Nagar, Tonk - RSPCB",12-02-2024 03:00:00,26.159933,75.780517,SO2,1,10,5
India,Rajasthan,Udaipur,"Ashok Nagar, Udaipur - RSPCB",12-02-2024 03:00:00,24.5886166,73.6321397,NO2,25,125,66
India,Sikkim,Gangtok,"Zero Point GICI, Gangtok - SSPCB",12-02-2024 03:00:00,27.338530,88.614099,OZONE,17,70,25
India,TamilNadu,Chengalpattu,"Crescent University, Chengalpattu - TNPCB",12-02-2024 03:00:00,12.8777316,80.0834807,PM2.5,36,155,72
India,TamilNadu,Chengalpattu,"Crescent University, Chengalpattu - TNPCB",12-02-2024 03:00:00,12.8777316,80.0834807,SO2,23,26,25
India,TamilNadu,Chengalpattu,"Crescent University, Chengalpattu - TNPCB",12-02-2024 03:00:00,12.8777316,80.0834807,CO,26,33,29
India,TamilNadu,Chennai,"Alandur Bus Depot, Chennai - CPCB",12-02-2024 03:00:00,12.9099161,80.1076538,NH3,6,19,8
India,TamilNadu,Chennai,"Alandur Bus Depot, Chennai - CPCB",12-02-2024 03:00:00,12.9099161,80.1076538,SO2,1,6,3
India,TamilNadu,Chennai,"Gandhi Nagar_Ennore, Chennai - TNPCB",12-02-2024 03:00:00,13.218341,80.32027,NH3,NA,NA,NA
India,TamilNadu,Chennai,"Kodungaiyur, Chennai - TNPCB",12-02-2024 03:00:00,13.1278,80.2642,PM10,71,102,86
India,TamilNadu,Chennai,"Kodungaiyur, Chennai - TNPCB",12-02-2024 03:00:00,13.1278,80.2642,NH3,3,5,4
India,TamilNadu,Chennai,"Manali, Chennai - CPCB",12-02-2024 03:00:00,13.164544,80.26285,PM10,NA,NA,NA
India,TamilNadu,Chennai,"Velachery Res. Area, Chennai - CPCB",12-02-2024 03:00:00,13.0052189,80.2398125,CO,18,125,86
India,TamilNadu,Gummidipoondi,"Anthoni Pillai Nagar, Gummidipoondi - TNPCB",12-02-2024 03:00:00,13.4127,80.1081,PM10,64,165,99
India,TamilNadu,Ooty,"Bombay Castel, Ooty - TNPCB",12-02-2024 03:00:00,11.4068288,76.7138973,SO2,13,13,13
India,TamilNadu,Ooty,"Bombay Castel, Ooty - TNPCB",12-02-2024 03:00:00,11.4068288,76.7138973,CO,20,20,20
India,TamilNadu,Thoothukudi,"Meelavittan, Thoothukudi - TNPCB",12-02-2024 03:00:00,8.816428 ,78.099039,SO2,8,20,14
India,TamilNadu,Thoothukudi,"Meelavittan, Thoothukudi - TNPCB",12-02-2024 03:00:00,8.816428 ,78.099039,OZONE,4,18,7
India,TamilNadu,Tirupur,"Kumaran College, Tirupur - TNPCB",12-02-2024 03:00:00,11.0973603,77.3228673,CO,24,88,43
India,TamilNadu,Virudhunagar,"Collectorate Office, Virudhunagar - TNPCB",12-02-2024 03:00:00,9.559382,77.948828,NO2,NA,NA,NA
India,Telangana,Hyderabad,"Bollaram Industrial Area, Hyderabad - TSPCB",12-02-2024 03:00:00,17.540891,78.358528,NH3,2,3,3
India,Telangana,Hyderabad,"Central University, Hyderabad - TSPCB",12-02-2024 03:00:00,17.460103,78.334361,NH3,3,5,4
India,Telangana,Hyderabad,"ECIL Kapra, Hyderabad - TSPCB",12-02-2024 03:00:00,17.470431,78.566959,PM2.5,43,44,44
India,Telangana,Hyderabad,"ICRISAT Patancheru, Hyderabad - TSPCB",12-02-2024 03:00:00,17.518400,78.278777,SO2,8,18,14
India,Telangana,Hyderabad,"Kompally Municipal Office, Hyderabad - TSPCB",12-02-2024 03:00:00,17.544899,78.486949,PM10,44,53,49
India,Telangana,Hyderabad,"Kompally Municipal Office, Hyderabad - TSPCB",12-02-2024 03:00:00,17.544899,78.486949,NO2,5,7,6
India,Telangana,Hyderabad,"Kompally Municipal Office, Hyderabad - TSPCB",12-02-2024 03:00:00,17.544899,78.486949,SO2,7,19,12
India,Telangana,Hyderabad,"Nacharam_TSIIC IALA, Hyderabad - TSPCB",12-02-2024 03:00:00,17.429398,78.569354,CO,12,32,20
India,Telangana,Hyderabad,"New Malakpet, Hyderabad - TSPCB",12-02-2024 03:00:00,17.37206,78.50864,NO2,17,26,20
India,Telangana,Hyderabad,"New Malakpet, Hyderabad - TSPCB",12-02-2024 03:00:00,17.37206,78.50864,SO2,16,25,21
India,Telangana,Hyderabad,"Somajiguda, Hyderabad - TSPCB",12-02-2024 03:00:00,17.417094,78.457437,SO2,NA,NA,NA
India,Telangana,Hyderabad,"Somajiguda, Hyderabad - TSPCB",12-02-2024 03:00:00,17.417094,78.457437,OZONE,NA,NA,NA
India,Telangana,Hyderabad,"Zoo Park, Hyderabad - TSPCB",12-02-2024 03:00:00,17.349694,78.451437,PM10,89,156,114
India,Uttar_Pradesh,Agra,"Manoharpur, Agra - UPPCB",12-02-2024 03:00:00,27.23711,78.01936,NH3,NA,NA,NA
India,Uttar_Pradesh,Agra,"Manoharpur, Agra - UPPCB",12-02-2024 03:00:00,27.23711,78.01936,CO,11,20,16
India,Uttar_Pradesh,Agra,"Rohta, Agra - UPPCB",12-02-2024 03:00:00,27.106972,78.000111,CO,8,39,30
India,Uttar_Pradesh,Agra,"Sanjay Palace, Agra - UPPCB",12-02-2024 03:00:00,27.19865833,78.00598056,PM10,30,418,98
India,Uttar_Pradesh,Agra,"Sanjay Palace, Agra - UPPCB",12-02-2024 03:00:00,27.19865833,78.00598056,NO2,52,112,80
India,Uttar_Pradesh,Agra,"Sanjay Palace, Agra - UPPCB",12-02-2024 03:00:00,27.19865833,78.00598056,SO2,4,9,7
India,Uttar_Pradesh,Agra,"Sector-3B Avas Vikas Colony, Agra - UPPCB",12-02-2024 03:00:00,27.19412,77.96237,NO2,23,78,42
India,Uttar_Pradesh,Agra,"Sector-3B Avas Vikas Colony, Agra - UPPCB",12-02-2024 03:00:00,27.19412,77.96237,OZONE,13,18,14
India,Uttar_Pradesh,Agra,"Shahjahan Garden, Agra - UPPCB",12-02-2024 03:00:00,27.169338,78.03582,PM10,43,136,90
India,Uttar_Pradesh,Agra,"Shahjahan Garden, Agra - UPPCB",12-02-2024 03:00:00,27.169338,78.03582,CO,6,86,37
India,Uttar_Pradesh,Agra,"Shastripuram, Agra - UPPCB",12-02-2024 03:00:00,27.19862,77.92066,PM10,78,161,116
India,Uttar_Pradesh,Baghpat,"Sardar Patel Inter College, Baghpat - UPPCB",12-02-2024 03:00:00,28.964949,77.278761,PM2.5,82,285,166
India,Uttar_Pradesh,Baghpat,"Sardar Patel Inter College, Baghpat - UPPCB",12-02-2024 03:00:00,28.964949,77.278761,NH3,2,7,4
India,Uttar_Pradesh,Bareilly,"Rajendra Nagar, Bareilly - UPPCB",12-02-2024 03:00:00,28.38910936,79.42963708,NH3,1,1,1
India,Uttar_Pradesh,Bulandshahr,"Yamunapuram, Bulandshahr - UPPCB",12-02-2024 03:00:00,28.406963,77.849831,PM2.5,65,270,180
India,Uttar_Pradesh,Firozabad,"Nagla Bhau, Firozabad - UPPCB",12-02-2024 03:00:00,27.168897,78.376960,NO2,16,18,17
India,Uttar_Pradesh,Firozabad,"Nagla Bhau, Firozabad - UPPCB",12-02-2024 03:00:00,27.168897,78.376960,NH3,2,2,2
India,Uttar_Pradesh,Firozabad,"Nagla Bhau, Firozabad - UPPCB",12-02-2024 03:00:00,27.168897,78.376960,OZONE,19,54,26
India,Uttar_Pradesh,Firozabad,"Vibhab Nagar, Firozabad - UPPCB",12-02-2024 03:00:00,27.1594,78.3953,NO2,14,14,14
India,Uttar_Pradesh,Firozabad,"Vibhab Nagar, Firozabad - UPPCB",12-02-2024 03:00:00,27.1594,78.3953,OZONE,20,27,20
India,Uttar_Pradesh,Ghaziabad,"Indirapuram, Ghaziabad - UPPCB",12-02-2024 03:00:00,28.646233,77.358075,CO,NA,NA,NA
India,Uttar_Pradesh,Ghaziabad,"Indirapuram, Ghaziabad - UPPCB",12-02-2024 03:00:00,28.646233,77.358075,OZONE,NA,NA,NA
India,Uttar_Pradesh,Ghaziabad,"Loni, Ghaziabad - UPPCB",12-02-2024 03:00:00,28.757294,77.278792,NO2,25,70,46
India,Uttar_Pradesh,Ghaziabad,"Sanjay Nagar, Ghaziabad - UPPCB",12-02-2024 03:00:00,28.685382,77.453839,PM2.5,73,321,245
India,Uttar_Pradesh,Ghaziabad,"Sanjay Nagar, Ghaziabad - UPPCB",12-02-2024 03:00:00,28.685382,77.453839,PM10,95,240,160
India,Uttar_Pradesh,Ghaziabad,"Sanjay Nagar, Ghaziabad - UPPCB",12-02-2024 03:00:00,28.685382,77.453839,NO2,51,150,94
India,Uttar_Pradesh,Ghaziabad,"Sanjay Nagar, Ghaziabad - UPPCB",12-02-2024 03:00:00,28.685382,77.453839,SO2,16,36,23
India,Uttar_Pradesh,Ghaziabad,"Sanjay Nagar, Ghaziabad - UPPCB",12-02-2024 03:00:00,28.685382,77.453839,OZONE,19,150,23
India,Uttar_Pradesh,Ghaziabad,"Vasundhara, Ghaziabad - UPPCB",12-02-2024 03:00:00,28.6603346,77.3572563,PM10,104,223,165
India,Uttar_Pradesh,Ghaziabad,"Vasundhara, Ghaziabad - UPPCB",12-02-2024 03:00:00,28.6603346,77.3572563,NO2,NA,NA,NA
India,Uttar_Pradesh,Ghaziabad,"Vasundhara, Ghaziabad - UPPCB",12-02-2024 03:00:00,28.6603346,77.3572563,NH3,1,16,5
India,Uttar_Pradesh,Gorakhpur,"Madan Mohan Malaviya University of Technology, Gorakhpur - UPPCB",12-02-2024 03:00:00,26.730136,83.433859,PM2.5,70,282,152
India,Uttar_Pradesh,Gorakhpur,"Madan Mohan Malaviya University of Technology, Gorakhpur - UPPCB",12-02-2024 03:00:00,26.730136,83.433859,PM10,76,165,113
India,Uttar_Pradesh,Gorakhpur,"Madan Mohan Malaviya University of Technology, Gorakhpur - UPPCB",12-02-2024 03:00:00,26.730136,83.433859,OZONE,2,47,6
India,Uttar_Pradesh,Greater Noida,"Knowledge Park - III, Greater Noida - UPPCB",12-02-2024 03:00:00,28.47272,77.482000,NH3,3,5,4
India,Uttar_Pradesh,Greater Noida,"Knowledge Park - V, Greater Noida - UPPCB",12-02-2024 03:00:00,28.557054,77.453663,PM10,146,500,284
India,Uttar_Pradesh,Greater Noida,"Knowledge Park - V, Greater Noida - UPPCB",12-02-2024 03:00:00,28.557054,77.453663,NH3,3,7,4
India,Uttar_Pradesh,Greater Noida,"Knowledge Park - V, Greater Noida - UPPCB",12-02-2024 03:00:00,28.557054,77.453663,CO,13,186,154
India,Uttar_Pradesh,Hapur,"Anand Vihar, Hapur - UPPCB",12-02-2024 03:00:00,28.725645,77.749675,PM2.5,183,388,327
India,Uttar_Pradesh,Hapur,"Anand Vihar, Hapur - UPPCB",12-02-2024 03:00:00,28.725645,77.749675,SO2,18,70,40
India,Uttar_Pradesh,Hapur,"Anand Vihar, Hapur - UPPCB",12-02-2024 03:00:00,28.725645,77.749675,CO,16,84,63
India,Uttar_Pradesh,Hapur,"Anand Vihar, Hapur - UPPCB",12-02-2024 03:00:00,28.725645,77.749675,OZONE,8,223,40
India,Uttar_Pradesh,Kanpur,"FTI Kidwai Nagar, Kanpur - UPPCB",12-02-2024 03:00:00,26.428282,80.327067,NH3,3,4,3
India,Uttar_Pradesh,Kanpur,"FTI Kidwai Nagar, Kanpur - UPPCB",12-02-2024 03:00:00,26.428282,80.327067,SO2,22,26,23
India,Uttar_Pradesh,Kanpur,"NSI Kalyanpur, Kanpur - UPPCB",12-02-2024 03:00:00,26.509954,80.249612,SO2,23,23,23
India,Uttar_Pradesh,Kanpur,"Nehru Nagar, Kanpur - UPPCB",12-02-2024 03:00:00,26.4703136,80.3229863,SO2,1,29,10
India,Uttar_Pradesh,Kanpur,"Nehru Nagar, Kanpur - UPPCB",12-02-2024 03:00:00,26.4703136,80.3229863,CO,7,116,73
India,Uttar_Pradesh,Khurja,"Kalindi Kunj, Khurja - UPPCB",12-02-2024 03:00:00,28.2348927,77.8683002,PM2.5,22,214,117
India,Uttar_Pradesh,Khurja,"Kalindi Kunj, Khurja - UPPCB",12-02-2024 03:00:00,28.2348927,77.8683002,PM10,21,134,91
India,Uttar_Pradesh,Khurja,"Kalindi Kunj, Khurja - UPPCB",12-02-2024 03:00:00,28.2348927,77.8683002,CO,22,57,44
India,Uttar_Pradesh,Lucknow,"B R Ambedkar University, Lucknow - UPPCB",12-02-2024 03:00:00,26.766433,80.927299,NO2,11,12,11
India,Uttar_Pradesh,Lucknow,"Kendriya Vidyalaya, Lucknow - CPCB",12-02-2024 03:00:00,26.906111,80.948222,PM2.5,56,228,123
India,Uttar_Pradesh,Lucknow,"Kendriya Vidyalaya, Lucknow - CPCB",12-02-2024 03:00:00,26.906111,80.948222,SO2,2,9,6
India,Uttar_Pradesh,Lucknow,"Kukrail Picnic Spot-1, Lucknow - UPPCB",12-02-2024 03:00:00,26.90723,80.98579,NH3,2,2,2
India,Uttar_Pradesh,Lucknow,"Kukrail Picnic Spot-1, Lucknow - UPPCB",12-02-2024 03:00:00,26.90723,80.98579,OZONE,1,63,5
India,Uttar_Pradesh,Lucknow,"Lalbagh, Lucknow - CPCB",12-02-2024 03:00:00,26.8458805,80.9365541,PM10,120,302,174
India,Uttar_Pradesh,Lucknow,"Lalbagh, Lucknow - CPCB",12-02-2024 03:00:00,26.8458805,80.9365541,NO2,25,152,68
India,Uttar_Pradesh,Lucknow,"Lalbagh, Lucknow - CPCB",12-02-2024 03:00:00,26.8458805,80.9365541,SO2,1,27,8
India,Uttar_Pradesh,Meerut,"Ganga Nagar, Meerut - UPPCB",12-02-2024 03:00:00,28.999264,77.7590354,NH3,12,19,15
India,Uttar_Pradesh,Meerut,"Jai Bhim Nagar, Meerut - UPPCB",12-02-2024 03:00:00,28.9535882,77.7622941,PM10,55,150,104
India,Uttar_Pradesh,Meerut,"Pallavpuram Phase 2, Meerut - UPPCB",12-02-2024 03:00:00,29.063510,77.709723,PM10,82,178,131
India,Uttar_Pradesh,Meerut,"Pallavpuram Phase 2, Meerut - UPPCB",12-02-2024 03:00:00,29.063510,77.709723,OZONE,7,10,8
India,Uttar_Pradesh,Moradabad,"Buddhi Vihar, Moradabad - UPPCB",12-02-2024 03:00:00,28.83526,78.74460,PM2.5,33,144,79
India,Uttar_Pradesh,Moradabad,"Buddhi Vihar, Moradabad - UPPCB",12-02-2024 03:00:00,28.83526,78.74460,SO2,14,21,17
India,Uttar_Pradesh,Moradabad,"Buddhi Vihar, Moradabad - UPPCB",12-02-2024 03:00:00,28.83526,78.74460,OZONE,12,26,14
India,Uttar_Pradesh,Moradabad,"Eco Herbal Park, Moradabad - UPPCB",12-02-2024 03:00:00,28.840739,78.697531,PM2.5,62,227,140
India,Uttar_Pradesh,Moradabad,"Employment Office, Moradabad - UPPCB",12-02-2024 03:00:00,28.88528,78.73880,PM10,75,183,131
India,Uttar_Pradesh,Moradabad,"Employment Office, Moradabad - UPPCB",12-02-2024 03:00:00,28.88528,78.73880,NO2,20,21,20
India,Uttar_Pradesh,Moradabad,"Employment Office, Moradabad - UPPCB",12-02-2024 03:00:00,28.88528,78.73880,CO,30,68,56
India,Uttar_Pradesh,Moradabad,"Jigar Colony, Moradabad - UPPCB",12-02-2024 03:00:00,28.856664,78.772638,NH3,5,5,5
India,Uttar_Pradesh,Moradabad,"Kashiram Nagar, Moradabad - UPPCB",12-02-2024 03:00:00,28.849399,78.742362,PM2.5,45,179,96
India,Uttar_Pradesh,Moradabad,"Transport Nagar, Moradabad - UPPCB",12-02-2024 03:00:00,28.802625,78.753728,NH3,6,6,6
India,Uttar_Pradesh,Noida,"Sector-1, Noida - UPPCB",12-02-2024 03:00:00,28.5898,77.3101,PM2.5,248,395,341
India,Uttar_Pradesh,Noida,"Sector-1, Noida - UPPCB",12-02-2024 03:00:00,28.5898,77.3101,OZONE,1,231,9
India,Uttar_Pradesh,Noida,"Sector-116, Noida - UPPCB",12-02-2024 03:00:00,28.569230,77.393848,CO,21,114,86
India,Uttar_Pradesh,Noida,"Sector-116, Noida - UPPCB",12-02-2024 03:00:00,28.569230,77.393848,OZONE,1,97,2
India,Uttar_Pradesh,Prayagraj,"Jhunsi, Prayagraj - UPPCB",12-02-2024 03:00:00,25.425602,81.917152,NH3,5,5,5
India,Uttar_Pradesh,Prayagraj,"Jhunsi, Prayagraj - UPPCB",12-02-2024 03:00:00,25.425602,81.917152,SO2,30,33,31
India,Uttar_Pradesh,Prayagraj,"Motilal Nehru NIT, Prayagraj - UPPCB",12-02-2024 03:00:00,25.494,81.863,SO2,20,25,22
India,Uttar_Pradesh,Varanasi,"Ardhali Bazar, Varanasi - UPPCB",12-02-2024 03:00:00,25.3505986,82.9083074,NO2,23,52,32
India,Uttar_Pradesh,Varanasi,"Bhelupur, Varanasi - UPPCB",12-02-2024 03:00:00,25.301778,82.996789,SO2,22,26,23
India,Uttar_Pradesh,Varanasi,"IESD Banaras Hindu University, Varanasi - UPPCB",12-02-2024 03:00:00,25.262326,82.995408,PM2.5,NA,NA,NA
India,Uttar_Pradesh,Varanasi,"IESD Banaras Hindu University, Varanasi - UPPCB",12-02-2024 03:00:00,25.262326,82.995408,NH3,1,3,2
India,Uttar_Pradesh,Varanasi,"Maldahiya, Varanasi - UPPCB",12-02-2024 03:00:00,25.32393,82.99687,PM2.5,46,242,134
India,Uttar_Pradesh,Varanasi,"Maldahiya, Varanasi - UPPCB",12-02-2024 03:00:00,25.32393,82.99687,NO2,NA,NA,NA
India,Uttar_Pradesh,Vrindavan,"Omex Eternity, Vrindavan - UPPCB",12-02-2024 03:00:00,27.5714090,77.6557570,OZONE,28,31,30
India,Uttarakhand,Dehradun,"Doon University, Dehradun - UKPCB",12-02-2024 03:00:00,30.269444,78.044167,PM10,46,149,91
India,Uttarakhand,Dehradun,"Doon University, Dehradun - UKPCB",12-02-2024 03:00:00,30.269444,78.044167,OZONE,3,5,3
India,Uttarakhand,Kashipur,"Govt. Girls Inter College, Kashipur - UKPCB",12-02-2024 03:00:00,29.2124114,78.9611753,CO,20,124,74
India,Uttarakhand,Rishikesh,"Shivaji Nagar, Rishikesh - UKPCB",12-02-2024 03:00:00,30.075911,78.2859547,NO2,5,23,9
India,West_Bengal,Asansol,"Asansol Court Area, Asansol - WBPCB",12-02-2024 03:00:00,23.685297,86.945968,NH3,6,15,8
India,West_Bengal,Asansol,"Asansol Court Area, Asansol - WBPCB",12-02-2024 03:00:00,23.685297,86.945968,SO2,12,59,22
India,West_Bengal,Barrackpore,"SVSPA Campus, Barrackpore - WBPCB",12-02-2024 03:00:00,22.7605581,88.3617589,PM2.5,64,309,186
India,West_Bengal,Barrackpore,"SVSPA Campus, Barrackpore - WBPCB",12-02-2024 03:00:00,22.7605581,88.3617589,PM10,69,188,141
India,West_Bengal,Barrackpore,"SVSPA Campus, Barrackpore - WBPCB",12-02-2024 03:00:00,22.7605581,88.3617589,NO2,13,66,43
India,West_Bengal,Durgapur,"Sidhu Kanhu Indoor Stadium, Durgapur - WBPCB",12-02-2024 03:00:00,23.5404352,87.2892225,CO,20,84,63
India,West_Bengal,Haldia,"Priyambada Housing Estate, Haldia - WBPCB",12-02-2024 03:00:00,22.06047,88.109737,NH3,4,7,5
India,West_Bengal,Howrah,"Belur Math, Howrah - WBPCB",12-02-2024 03:00:00,22.629801,88.352017,PM2.5,67,328,207
India,West_Bengal,Howrah,"Belur Math, Howrah - WBPCB",12-02-2024 03:00:00,22.629801,88.352017,NH3,2,10,5
India,West_Bengal,Howrah,"Belur Math, Howrah - WBPCB",12-02-2024 03:00:00,22.629801,88.352017,CO,2,102,67
India,West_Bengal,Howrah,"Ghusuri, Howrah - WBPCB",12-02-2024 03:00:00,22.611968,88.347422,PM2.5,159,341,262
India,West_Bengal,Howrah,"Ghusuri, Howrah - WBPCB",12-02-2024 03:00:00,22.611968,88.347422,OZONE,10,30,18
India,West_Bengal,Howrah,"Padmapukur, Howrah - WBPCB",12-02-2024 03:00:00,22.5687319,88.2797276,PM10,100,195,145
India,West_Bengal,Howrah,"Padmapukur, Howrah - WBPCB",12-02-2024 03:00:00,22.5687319,88.2797276,NH3,8,77,28
India,West_Bengal,Kolkata,"Fort William, Kolkata - WBPCB",12-02-2024 03:00:00,22.556640,88.342674,NH3,7,17,11
India,West_Bengal,Kolkata,"Fort William, Kolkata - WBPCB",12-02-2024 03:00:00,22.556640,88.342674,CO,5,110,80
India,West_Bengal,Kolkata,"Jadavpur, Kolkata - WBPCB",12-02-2024 03:00:00,22.49929,88.36917,PM10,89,281,167
India,West_Bengal,Kolkata,"Jadavpur, Kolkata - WBPCB",12-02-2024 03:00:00,22.49929,88.36917,OZONE,6,43,11
India,West_Bengal,Kolkata,"Rabindra Bharati University, Kolkata - WBPCB",12-02-2024 03:00:00,22.627847,88.380669,NO2,22,24,23
India,West_Bengal,Kolkata,"Rabindra Sarobar, Kolkata - WBPCB",12-02-2024 03:00:00,22.51106,88.35142,PM10,93,153,126
India,West_Bengal,Kolkata,"Rabindra Sarobar, Kolkata - WBPCB",12-02-2024 03:00:00,22.51106,88.35142,NO2,31,149,97
India,West_Bengal,Kolkata,"Victoria, Kolkata - WBPCB",12-02-2024 03:00:00,22.5448082,88.3403691,PM2.5,95,316,217
India,West_Bengal,Siliguri,"Ward-32 Bapupara, Siliguri - WBPCB",12-02-2024 03:00:00,26.6879226,88.4152495,NH3,2,24,15
India,Andhra_Pradesh,Amaravati,"Secretariat, Amaravati - APPCB",12-02-2024 03:00:00,16.5150833,80.5181667,NH3,3,5,4
India,Andhra_Pradesh,Anantapur,"Gulzarpet, Anantapur - APPCB",12-02-2024 03:00:00,14.675886,77.593027,CO,20,34,26
India,Andhra_Pradesh,Chittoor,"Gangineni Cheruvu, Chittoor - APPCB",12-02-2024 03:00:00,13.204880,79.097889,NH3,NA,NA,NA
India,Andhra_Pradesh,Chittoor,"Gangineni Cheruvu, Chittoor - APPCB",12-02-2024 03:00:00,13.204880,79.097889,OZONE,21,133,72
India,Andhra_Pradesh,Rajamahendravaram,"Anand Kala Kshetram, Rajamahendravaram - APPCB",12-02-2024 03:00:00,16.9872867,81.7363176,PM2.5,85,167,118
India,Andhra_Pradesh,Rajamahendravaram,"Anand Kala Kshetram, Rajamahendravaram - APPCB",12-02-2024 03:00:00,16.9872867,81.7363176,NH3,4,7,5
India,Andhra_Pradesh,Tirupati,"Vaikuntapuram, Tirupati - APPCB",12-02-2024 03:00:00,13.615387,79.409230,CO,8,15,11
India,Andhra_Pradesh,Vijayawada,"HB Colony, Vijayawada - APPCB",12-02-2024 03:00:00,16.536107,80.594233,PM2.5,43,82,63
India,Andhra_Pradesh,Vijayawada,"Kanuru, Vijayawada - APPCB",12-02-2024 03:00:00,16.486692,80.699436,PM2.5,63,82,74
India,Andhra_Pradesh,Vijayawada,"Kanuru, Vijayawada - APPCB",12-02-2024 03:00:00,16.486692,80.699436,NO2,14,19,15
India,Andhra_Pradesh,Vijayawada,"Rajiv Gandhi Park, Vijayawada - APPCB",12-02-2024 03:00:00,16.509717,80.612222,NH3,3,7,6
India,Andhra_Pradesh,Vijayawada,"Rajiv Nagar, Vijayawada - APPCB",12-02-2024 03:00:00,16.554731,80.649110,SO2,11,30,18
India,Arunachal_Pradesh,Naharlagun,"Naharlagun, Naharlagun - APSPCB",12-02-2024 03:00:00,27.103358,93.679645,PM2.5,4,319,87
India,Arunachal_Pradesh,Naharlagun,"Naharlagun, Naharlagun - APSPCB",12-02-2024 03:00:00,27.103358,93.679645,SO2,3,3,3
India,Assam,Byrnihat,"Central Academy for SFS, Byrnihat - PCBA",12-02-2024 03:00:00,26.071318,91.87488,NO2,43,145,82
India,Assam,Byrnihat,"Central Academy for SFS, Byrnihat - PCBA",12-02-2024 03:00:00,26.071318,91.87488,NH3,2,8,6
India,Assam,Guwahati,"IITG, Guwahati - PCBA",12-02-2024 03:00:00,26.2028636,91.70046436,NH3,5,6,5
India,Assam,Guwahati,"IITG, Guwahati - PCBA",12-02-2024 03:00:00,26.2028636,91.70046436,SO2,12,13,12
India,Assam,Guwahati,"Pan Bazaar, Guwahati - PCBA",12-02-2024 03:00:00,26.187500,91.744194,NH3,3,5,4
India,Assam,Nalbari,"Bata Chowk, Nalbari - PCBA",12-02-2024 03:00:00,26.446912,91.439057,PM2.5,60,484,262
India,Assam,Nalbari,"Bata Chowk, Nalbari - PCBA",12-02-2024 03:00:00,26.446912,91.439057,SO2,4,6,5
India,Assam,Silchar,"Tarapur, Silchar - PCBA",12-02-2024 03:00:00,24.82827,92.79525,NH3,NA,NA,NA
India,Assam,Sivasagar,"Girls College, Sivasagar - PCBA",12-02-2024 03:00:00,26.987634,94.636574,CO,12,58,44
India,Bihar,Araria,"Kharahiya Basti, Araria - BSPCB",12-02-2024 03:00:00,26.146529,87.454184,CO,28,30,29
India,Bihar,Aurangabad,"Gurdeo Nagar, Aurangabad - BSPCB",12-02-2024 03:00:00,24.75746,84.366208,PM10,104,287,152
India,Bihar,Aurangabad,"Gurdeo Nagar, Aurangabad - BSPCB",12-02-2024 03:00:00,24.75746,84.366208,NO2,7,15,10
India,Bihar,Bettiah,"Kamalnath Nagar, Bettiah - BSPCB",12-02-2024 03:00:00,26.80365,84.51954,NH3,NA,NA,NA
India,Bihar,Bettiah,"Kamalnath Nagar, Bettiah - BSPCB",12-02-2024 03:00:00,26.80365,84.51954,CO,76,78,77
India,Bihar,Bhagalpur,"DM Office_Kachari Chowk, Bhagalpur - BSPCB",12-02-2024 03:00:00,25.251013,86.989001,PM2.5,97,366,279
India,Bihar,Bhagalpur,"DM Office_Kachari Chowk, Bhagalpur - BSPCB",12-02-2024 03:00:00,25.251013,86.989001,SO2,1,26,11
India,Bihar,Bhagalpur,"Mayaganj, Bhagalpur - BSPCB",12-02-2024 03:00:00,25.265194,87.012947,PM10,76,225,152
India,Bihar,Bihar Sharif,"D M Colony, Bihar Sharif - BSPCB",12-02-2024 03:00:00,25.204762,85.514960,PM10,31,128,80
India,Bihar,Bihar Sharif,"D M Colony, Bihar Sharif - BSPCB",12-02-2024 03:00:00,25.204762,85.514960,NH3,2,2,2
India,Bihar,Buxar,"Charitra Van, Buxar - BSPCB (Formerly known as Central Jail)",12-02-2024 03:00:00,25.567520,83.966379,PM2.5,280,450,409
India,Bihar,Chhapra,"Darshan Nagar, Chhapra - BSPCB",12-02-2024 03:00:00,25.7808257,84.7446768,NH3,10,15,12
India,Bihar,Gaya,"Collectorate, Gaya - BSPCB",12-02-2024 03:00:00,24.7955,84.9994,NO2,15,19,17
India,Bihar,Gaya,"Collectorate, Gaya - BSPCB",12-02-2024 03:00:00,24.7955,84.9994,CO,26,47,37
India,Bihar,Gaya,"SFTI Kusdihra, Gaya - BSPCB",12-02-2024 03:00:00,24.762518,84.982348,CO,68,106,92
India,Bihar,Hajipur,"Industrial Area, Hajipur - BSPCB",12-02-2024 03:00:00,25.697189,85.245900,PM2.5,73,302,177
India,Bihar,Hajipur,"Industrial Area, Hajipur - BSPCB",12-02-2024 03:00:00,25.697189,85.245900,NO2,NA,NA,NA
India,Bihar,Katihar,"Mirchaibari, Katihar - BSPCB",12-02-2024 03:00:00,25.560083,87.553265,NO2,11,35,20
India,Bihar,Katihar,"Mirchaibari, Katihar - BSPCB",12-02-2024 03:00:00,25.560083,87.553265,SO2,15,19,17
India,Bihar,Kishanganj,"SDM Office_Khagra, Kishanganj - BSPCB",12-02-2024 03:00:00,26.0881305,87.93840336,PM2.5,38,410,92
India,Bihar,Kishanganj,"SDM Office_Khagra, Kishanganj - BSPCB",12-02-2024 03:00:00,26.0881305,87.93840336,PM10,117,296,214
India,Bihar,Kishanganj,"SDM Office_Khagra, Kishanganj - BSPCB",12-02-2024 03:00:00,26.0881305,87.93840336,SO2,2,6,4
India,Bihar,Manguraha,"Forest Rest House, Manguraha - BSPCB",12-02-2024 03:00:00,27.308328,84.531742,CO,1,10,6
India,Bihar,Motihari,"Gandak Colony, Motihari - BSPCB",12-02-2024 03:00:00,26.63086,84.90051,OZONE,49,106,63
India,Bihar,Munger,"Town Hall, Munger - BSPCB",12-02-2024 03:00:00,25.376776,86.471523,NH3,1,2,2
India,Bihar,Munger,"Town Hall, Munger - BSPCB",12-02-2024 03:00:00,25.376776,86.471523,OZONE,10,81,11
India,Bihar,Muzaffarpur,"Buddha Colony, Muzaffarpur - BSPCB",12-02-2024 03:00:00,26.11442,85.39813,CO,21,108,79
India,Bihar,Muzaffarpur,"MIT-Daudpur Kothi, Muzaffarpur - BSPCB",12-02-2024 03:00:00,26.1403345,85.3650192,CO,12,12,12
India,Bihar,Muzaffarpur,"Muzaffarpur Collectorate, Muzaffarpur - BSPCB",12-02-2024 03:00:00,26.1209,85.3647,PM2.5,61,276,161
India,Bihar,Muzaffarpur,"Muzaffarpur Collectorate, Muzaffarpur - BSPCB",12-02-2024 03:00:00,26.1209,85.3647,SO2,6,8,6
India,Bihar,Patna,"DRM Office Danapur, Patna - BSPCB",12-02-2024 03:00:00,25.586562,85.043586,CO,16,121,101
India,Bihar,Patna,"IGSC Planetarium Complex, Patna - BSPCB",12-02-2024 03:00:00,25.610369,85.132568,PM2.5,50,372,216
India,Bihar,Patna,"IGSC Planetarium Complex, Patna - BSPCB",12-02-2024 03:00:00,25.610369,85.132568,NO2,12,12,12
India,Bihar,Patna,"Muradpur, Patna - BSPCB",12-02-2024 03:00:00,25.619651,85.147382,NO2,10,24,15
India,Bihar,Patna,"Muradpur, Patna - BSPCB",12-02-2024 03:00:00,25.619651,85.147382,NH3,2,5,3
India,Bihar,Patna,"Rajbansi Nagar, Patna - BSPCB",12-02-2024 03:00:00,25.599486,85.113666,CO,85,120,114
India,Bihar,Patna,"Rajbansi Nagar, Patna - BSPCB",12-02-2024 03:00:00,25.599486,85.113666,OZONE,2,86,4
India,Bihar,Patna,"Samanpura, Patna - BSPCB",12-02-2024 03:00:00,25.596727,85.085624,PM10,134,500,326
India,Bihar,Patna,"Samanpura, Patna - BSPCB",12-02-2024 03:00:00,25.596727,85.085624,SO2,15,17,16
India,Bihar,Purnia,"Mariam Nagar, Purnia - BSPCB",12-02-2024 03:00:00,25.366336,87.117468,PM2.5,45,318,215
India,Bihar,Rajgir,"Dangi Tola, Rajgir - BSPCB",12-02-2024 03:00:00,25.03280,85.41948,NH3,1,2,1
India,Bihar,Rajgir,"Dangi Tola, Rajgir - BSPCB",12-02-2024 03:00:00,25.03280,85.41948,CO,10,11,10
India,Bihar,Rajgir,"Dangi Tola, Rajgir - BSPCB",12-02-2024 03:00:00,25.03280,85.41948,OZONE,20,24,22
India,Bihar,Saharsa,"Police Line, Saharsa - BSPCB",12-02-2024 03:00:00,25.892357,86.590325,PM10,69,192,127
India,Bihar,Samastipur,"DM Office_Kasipur, Samastipur - BSPCB",12-02-2024 03:00:00,25.859655,85.77944,NO2,3,7,5
India,Bihar,Samastipur,"DM Office_Kasipur, Samastipur - BSPCB",12-02-2024 03:00:00,25.859655,85.77944,SO2,5,14,10
India,Bihar,Samastipur,"DM Office_Kasipur, Samastipur - BSPCB",12-02-2024 03:00:00,25.859655,85.77944,OZONE,9,61,10
India,Bihar,Sasaram,"Dada Peer, Sasaram - BSPCB",12-02-2024 03:00:00,24.952822,84.002396,OZONE,4,5,4
India,Bihar,Siwan,"Chitragupta Nagar, Siwan - BSPCB",12-02-2024 03:00:00,26.2271665,84.3570427,NO2,12,94,27
India,Bihar,Siwan,"Chitragupta Nagar, Siwan - BSPCB",12-02-2024 03:00:00,26.2271665,84.3570427,CO,8,196,133
India,Bihar,Siwan,"Chitragupta Nagar, Siwan - BSPCB",12-02-2024 03:00:00,26.2271665,84.3570427,OZONE,9,117,28
India,Chandigarh,Chandigarh,"Sector 22, Chandigarh - CPCC",12-02-2024 03:00:00,30.735567,76.775714,PM10,105,406,182
India,Chandigarh,Chandigarh,"Sector-53, Chandigarh - CPCC",12-02-2024 03:00:00,30.719859,76.738637,NO2,NA,NA,NA
India,Chandigarh,Chandigarh,"Sector-53, Chandigarh - CPCC",12-02-2024 03:00:00,30.719859,76.738637,CO,NA,NA,NA
India,Chhattisgarh,Bhilai,"32Bungalows, Bhilai - CECB",12-02-2024 03:00:00,21.194815,81.314770,PM10,66,121,89
India,Chhattisgarh,Bhilai,"Civic Center, Bhilai - Bhilai Steel Plant",12-02-2024 03:00:00,21.185571,81.343175,SO2,3,13,9
India,Chhattisgarh,Bilaspur,"Mangala, Bilaspur - NTPC",12-02-2024 03:00:00,22.08815,82.13737,PM2.5,26,79,57
India,Chhattisgarh,Chhal,"Nawapara SECL Colony, Chhal - CECB",12-02-2024 03:00:00,22.118125,83.140608,NO2,10,54,25
India,Chhattisgarh,Kunjemura,"OP Jindal School, Kunjemura - CECB",12-02-2024 03:00:00,22.126650,83.483212,NO2,15,112,53
India,Chhattisgarh,Kunjemura,"OP Jindal School, Kunjemura - CECB",12-02-2024 03:00:00,22.126650,83.483212,SO2,7,20,13
India,Chhattisgarh,Milupara,"Govt. Higher Secondary School, Milupara - CECB",12-02-2024 03:00:00,22.1910172,83.5197009,PM2.5,28,65,47
India,Chhattisgarh,Milupara,"Govt. Higher Secondary School, Milupara - CECB",12-02-2024 03:00:00,22.1910172,83.5197009,OZONE,11,59,24
India,Chhattisgarh,Raipur,"Krishak Nagar, Raipur - CECB",12-02-2024 03:00:00,21.237755,81.705301,SO2,8,30,12
India,Chhattisgarh,Raipur,"Siltara Phase-II, Raipur - CECB",12-02-2024 03:00:00,21.371751,81.664929,NO2,55,66,60
India,Chhattisgarh,Tumidih,"OP Jindal Industrial Park, Tumidih - CECB",12-02-2024 03:00:00,22.06631475,83.33820077,NH3,NA,NA,NA
India,Delhi,Delhi,"Alipur, Delhi - DPCC",12-02-2024 03:00:00,28.815329,77.153010,NO2,19,93,49
India,Delhi,Delhi,"Alipur, Delhi - DPCC",12-02-2024 03:00:00,28.815329,77.153010,SO2,6,43,13
India,Delhi,Delhi,"Anand Vihar, Delhi - DPCC",12-02-2024 03:00:00,28.647622,77.3158090,PM2.5,224,401,337
India,Delhi,Delhi,"Ashok Vihar, Delhi - DPCC",12-02-2024 03:00:00,28.695381,77.181665,NO2,29,126,77
India,Delhi,Delhi,"Ashok Vihar, Delhi - DPCC",12-02-2024 03:00:00,28.695381,77.181665,CO,54,81,76
India,Delhi,Delhi,"Aya Nagar, Delhi - IMD",12-02-2024 03:00:00,28.4706914,77.1099364,NO2,33,60,46
India,Delhi,Delhi,"Bawana, Delhi - DPCC",12-02-2024 03:00:00,28.776200,77.051074,PM2.5,154,376,311
India,Delhi,Delhi,"Bawana, Delhi - DPCC",12-02-2024 03:00:00,28.776200,77.051074,CO,34,71,62
India,Delhi,Delhi,"CRRI Mathura Road, Delhi - IMD",12-02-2024 03:00:00,28.5512005,77.2735737,PM2.5,135,350,289
India,Delhi,Delhi,"CRRI Mathura Road, Delhi - IMD",12-02-2024 03:00:00,28.5512005,77.2735737,PM10,108,255,183
India,Delhi,Delhi,"CRRI Mathura Road, Delhi - IMD",12-02-2024 03:00:00,28.5512005,77.2735737,OZONE,2,130,4
India,Delhi,Delhi,"DTU, Delhi - CPCB",12-02-2024 03:00:00,28.7500499,77.1112615,PM10,NA,NA,NA
India,Delhi,Delhi,"Dr. Karni Singh Shooting Range, Delhi - DPCC",12-02-2024 03:00:00,28.498571,77.264840,NH3,8,11,9
India,Delhi,Delhi,"Dwarka-Sector 8, Delhi - DPCC ",12-02-2024 03:00:00,28.5710274,77.0719006,CO,20,124,104
India,Delhi,Delhi,"Dwarka-Sector 8, Delhi - DPCC ",12-02-2024 03:00:00,28.5710274,77.0719006,OZONE,2,66,3
India,Delhi,Delhi,"IGI Airport (T3), Delhi - IMD",12-02-2024 03:00:00,28.5627763,77.1180053,OZONE,11,80,13
India,Delhi,Delhi,"IHBAS, Dilshad Garden, Delhi - CPCB",12-02-2024 03:00:00,28.6811736,77.3025234,PM10,133,179,157
India,Delhi,Delhi,"IHBAS, Dilshad Garden, Delhi - CPCB",12-02-2024 03:00:00,28.6811736,77.3025234,NO2,13,29,21
India,Delhi,Delhi,"Jahangirpuri, Delhi - DPCC",12-02-2024 03:00:00,28.732820,77.170633,OZONE,5,244,11
India,Delhi,Delhi,"Jawaharlal Nehru Stadium, Delhi - DPCC",12-02-2024 03:00:00,28.580280,77.233829,PM2.5,237,363,316
India,Delhi,Delhi,"Major Dhyan Chand National Stadium, Delhi - DPCC",12-02-2024 03:00:00,28.611281,77.237738,NH3,9,15,12
India,Delhi,Delhi,"Major Dhyan Chand National Stadium, Delhi - DPCC",12-02-2024 03:00:00,28.611281,77.237738,OZONE,1,248,1
India,Delhi,Delhi,"Mandir Marg, Delhi - DPCC",12-02-2024 03:00:00,28.636429,77.201067,CO,28,103,86
India,Delhi,Delhi,"Mundka, Delhi - DPCC",12-02-2024 03:00:00,28.684678,77.076574,PM2.5,167,416,336
India,Delhi,Delhi,"Mundka, Delhi - DPCC",12-02-2024 03:00:00,28.684678,77.076574,NO2,32,123,73
India,Delhi,Delhi,"Mundka, Delhi - DPCC",12-02-2024 03:00:00,28.684678,77.076574,NH3,8,12,10
India,Delhi,Delhi,"Mundka, Delhi - DPCC",12-02-2024 03:00:00,28.684678,77.076574,SO2,3,25,11
India,Delhi,Delhi,"Mundka, Delhi - DPCC",12-02-2024 03:00:00,28.684678,77.076574,OZONE,1,6,1
India,Delhi,Delhi,"Narela, Delhi - DPCC",12-02-2024 03:00:00,28.822836,77.101981,CO,64,106,87
India,Delhi,Delhi,"Nehru Nagar, Delhi - DPCC",12-02-2024 03:00:00,28.567890,77.250515,PM2.5,306,485,370
India,Delhi,Delhi,"North Campus, DU, Delhi - IMD",12-02-2024 03:00:00,28.6573814,77.1585447,PM10,149,300,208
India,Delhi,Delhi,"North Campus, DU, Delhi - IMD",12-02-2024 03:00:00,28.6573814,77.1585447,NO2,28,89,53
India,Delhi,Delhi,"North Campus, DU, Delhi - IMD",12-02-2024 03:00:00,28.6573814,77.1585447,CO,12,40,34
India,Delhi,Delhi,"Patparganj, Delhi - DPCC",12-02-2024 03:00:00,28.623763,77.287209,NH3,7,14,10
India,Delhi,Delhi,"Patparganj, Delhi - DPCC",12-02-2024 03:00:00,28.623763,77.287209,SO2,7,16,10
India,Delhi,Delhi,"Patparganj, Delhi - DPCC",12-02-2024 03:00:00,28.623763,77.287209,OZONE,1,147,6
India,Delhi,Delhi,"Pusa, Delhi - IMD",12-02-2024 03:00:00,28.636110,77.173332,CO,NA,NA,NA
India,Delhi,Delhi,"R K Puram, Delhi - DPCC",12-02-2024 03:00:00,28.563262,77.186937,PM10,120,400,237
India,Delhi,Delhi,"Rohini, Delhi - DPCC",12-02-2024 03:00:00,28.732528,77.119920,NH3,10,14,12
India,Delhi,Delhi,"Rohini, Delhi - DPCC",12-02-2024 03:00:00,28.732528,77.119920,CO,24,115,84
India,Delhi,Delhi,"Sirifort, Delhi - CPCB",12-02-2024 03:00:00,28.5504249,77.2159377,OZONE,6,24,15
India,Delhi,Delhi,"Sonia Vihar, Delhi - DPCC",12-02-2024 03:00:00,28.710508,77.249485,CO,46,109,89
India,Delhi,Delhi,"Wazirpur, Delhi - DPCC",12-02-2024 03:00:00,28.699793,77.165453,PM10,183,416,301
India,Gujarat,Ahmedabad,"Chandkheda, Ahmedabad - IITM",12-02-2024 03:00:00,23.107969,72.574648,PM2.5,57,301,108
India,Gujarat,Ahmedabad,"Chandkheda, Ahmedabad - IITM",12-02-2024 03:00:00,23.107969,72.574648,NO2,40,87,69
India,Gujarat,Ahmedabad,"Gyaspur, Ahmedabad - IITM",12-02-2024 03:00:00,22.977134,72.553024,PM10,82,164,121
India,Gujarat,Ahmedabad,"Gyaspur, Ahmedabad - IITM",12-02-2024 03:00:00,22.977134,72.553024,CO,15,22,19
India,Gujarat,Ahmedabad,"Maninagar, Ahmedabad - GPCB",12-02-2024 03:00:00,23.002657,72.591912,CO,18,43,28
India,Gujarat,Ahmedabad,"Raikhad, Ahmedabad - IITM",12-02-2024 03:00:00,23.020509,72.579261,CO,60,108,98
India,Gujarat,Ahmedabad,"Rakhial, Ahmedabad - IITM",12-02-2024 03:00:00,23.016834,72.625775,NH3,4,14,9
India,Gujarat,Ahmedabad,"SAC ISRO Satellite, Ahmedabad - IITM",12-02-2024 03:00:00,23.023389,72.515201,PM2.5,123,229,163
India,Gujarat,Ahmedabad,"SVPI Airport Hansol, Ahmedabad - IITM",12-02-2024 03:00:00,23.076793,72.627874,PM10,87,173,115
India,Gujarat,Ahmedabad,"SVPI Airport Hansol, Ahmedabad - IITM",12-02-2024 03:00:00,23.076793,72.627874,SO2,3,8,4
India,Gujarat,Ahmedabad,"SVPI Airport Hansol, Ahmedabad - IITM",12-02-2024 03:00:00,23.076793,72.627874,OZONE,3,27,12
India,Gujarat,Ahmedabad,"Sardar Vallabhbhai Patel Stadium, Ahmedabad - IITM",12-02-2024 03:00:00,23.043070,72.562968,PM2.5,48,96,68
India,Gujarat,Ahmedabad,"Sardar Vallabhbhai Patel Stadium, Ahmedabad - IITM",12-02-2024 03:00:00,23.043070,72.562968,SO2,3,7,6
India,Gujarat,Gandhinagar,"GIFT City, Gandhinagar - IITM",12-02-2024 03:00:00,23.163798,72.677768,NO2,19,21,20
India,Gujarat,Gandhinagar,"GIFT City, Gandhinagar - IITM",12-02-2024 03:00:00,23.163798,72.677768,CO,8,20,17
India,Gujarat,Gandhinagar,"GIFT City, Gandhinagar - IITM",12-02-2024 03:00:00,23.163798,72.677768,OZONE,15,22,17
India,Gujarat,Gandhinagar,"IIPHG Lekawada, Gandhinagar - IITM",12-02-2024 03:00:00,23.243639,72.68994,NH3,4,5,5
India,Gujarat,Surat,"Science Center, Surat - SMC",12-02-2024 03:00:00,21.170046,72.795405,PM2.5,25,183,67
India,Gujarat,Vapi,"Phase-1 GIDC, Vapi - GPCB",12-02-2024 03:00:00,20.362421,72.918013,CO,1,180,23
India,Haryana,Ballabgarh,"Nathu Colony, Ballabgarh - HSPCB",12-02-2024 03:00:00,28.3419248,77.319699,SO2,10,131,26
India,Haryana,Charkhi Dadri,"Mini Secretariat, Charkhi Dadri - HSPCB",12-02-2024 03:00:00,28.593883,76.270653,NH3,5,8,6
India,Haryana,Dharuhera,"Municipal Corporation Office, Dharuhera -  HSPCB",12-02-2024 03:00:00,28.206800,76.799700,NH3,9,26,19
India,Haryana,Faridabad,"New Industrial Town, Faridabad - HSPCB",12-02-2024 03:00:00,28.39072,77.30059,PM2.5,172,399,306
India,Haryana,Faridabad,"New Industrial Town, Faridabad - HSPCB",12-02-2024 03:00:00,28.39072,77.30059,SO2,16,25,21
India,Haryana,Faridabad,"Sector 11, Faridabad - HSPCB",12-02-2024 03:00:00,28.376058,77.315741,PM10,86,172,132
India,Haryana,Faridabad,"Sector 11, Faridabad - HSPCB",12-02-2024 03:00:00,28.376058,77.315741,NH3,6,6,6
India,Haryana,Faridabad,"Sector 11, Faridabad - HSPCB",12-02-2024 03:00:00,28.376058,77.315741,CO,38,76,61
India,Haryana,Faridabad,"Sector 30, Faridabad - HSPCB",12-02-2024 03:00:00,28.4417,77.3217,PM2.5,125,173,151
India,Haryana,Faridabad,"Sector 30, Faridabad - HSPCB",12-02-2024 03:00:00,28.4417,77.3217,SO2,2,7,4
India,Haryana,Fatehabad,"Huda Sector, Fatehabad - HSPCB",12-02-2024 03:00:00,29.503664,75.467934,SO2,4,11,8
India,Haryana,Gurugram,"Sector-51, Gurugram - HSPCB",12-02-2024 03:00:00,28.4227,77.0667,PM10,148,408,277
India,Haryana,Gurugram,"Teri Gram, Gurugram - HSPCB",12-02-2024 03:00:00,28.4275,77.1465,NH3,29,48,38
India,Haryana,Gurugram,"Vikas Sadan, Gurugram - HSPCB",12-02-2024 03:00:00,28.4501238,77.0263051,PM2.5,127,312,249
India,Haryana,Gurugram,"Vikas Sadan, Gurugram - HSPCB",12-02-2024 03:00:00,28.4501238,77.0263051,SO2,22,31,26
India,Haryana,Gurugram,"Vikas Sadan, Gurugram - HSPCB",12-02-2024 03:00:00,28.4501238,77.0263051,OZONE,8,69,16
India,Haryana,Hisar,"Urban Estate-II, Hisar - HSPCB",12-02-2024 03:00:00,29.140560,75.744941,NO2,7,10,9
India,Haryana,Kaithal,"Rishi Nagar, Kaithal - HSPCB",12-02-2024 03:00:00,29.8006,76.4155,NO2,24,26,25
India,Haryana,Karnal,"Sector-12, Karnal - HSPCB",12-02-2024 03:00:00,29.695300,77.002700,CO,32,56,46
India,Haryana,Kurukshetra,"Sector-7, Kurukshetra - HSPCB",12-02-2024 03:00:00,29.966942,76.875879,PM10,111,163,141
India,Haryana,Mandikhera,"General Hospital, Mandikhera - HSPCB",12-02-2024 03:00:00,27.9002,76.9938,PM10,100,153,121
India,Haryana,Mandikhera,"General Hospital, Mandikhera - HSPCB",12-02-2024 03:00:00,27.9002,76.9938,NH3,18,21,19
India,Haryana,Manesar,"Sector-2 IMT, Manesar - HSPCB",12-02-2024 03:00:00,28.360699,76.936090,PM10,124,172,143
India,Haryana,Manesar,"Sector-2 IMT, Manesar - HSPCB",12-02-2024 03:00:00,28.360699,76.936090,CO,20,55,37
India,Haryana,Rohtak,"MD University, Rohtak - HSPCB",12-02-2024 03:00:00,28.52123,76.37138,PM2.5,11,267,142
India,Haryana,Sirsa,"F-Block, Sirsa - HSPCB",12-02-2024 03:00:00,29.536400,75.015800,PM2.5,48,157,91
India,Haryana,Sirsa,"F-Block, Sirsa - HSPCB",12-02-2024 03:00:00,29.536400,75.015800,PM10,54,119,88
India,Haryana,Sonipat,"Murthal, Sonipat - HSPCB",12-02-2024 03:00:00,29.027200,77.062100,PM2.5,100,246,174
India,Haryana,Sonipat,"Murthal, Sonipat - HSPCB",12-02-2024 03:00:00,29.027200,77.062100,NH3,7,10,9
India,Haryana,Yamuna Nagar,"Gobind Pura, Yamuna Nagar - HSPCB",12-02-2024 03:00:00,30.1480566,77.2893471,PM10,NA,NA,NA
India,Himachal Pradesh,Baddi,"HIMUDA Complex Phase-1, Baddi - HPPCB",12-02-2024 03:00:00,30.943887,76.801991,NO2,10,51,22
India,Himachal Pradesh,Baddi,"HIMUDA Complex Phase-1, Baddi - HPPCB",12-02-2024 03:00:00,30.943887,76.801991,NH3,4,7,5
India,Himachal Pradesh,Baddi,"HIMUDA Complex Phase-1, Baddi - HPPCB",12-02-2024 03:00:00,30.943887,76.801991,OZONE,27,130,55
India,Jharkhand,Dhanbad,"Kalakusuma, Dhanbad - DMC",12-02-2024 03:00:00,23.811548,86.481238,PM2.5,36,50,43
India,Jharkhand,Dhanbad,"Sardar Patel Nagar, Dhanbad - JSPCB",12-02-2024 03:00:00,23.80569,86.44268,PM2.5,11,348,128
India,Jharkhand,Pathardih,"Mohalbani Ghat, Pathardih - DMC",12-02-2024 03:00:00,23.669880,86.411725,SO2,18,22,20
India,Karnataka,Belgaum,"Ramteerth Nagar, Belgaum - KSPCB",12-02-2024 03:00:00,15.888653,74.541751,PM10,NA,NA,NA
India,Karnataka,Belgaum,"Ramteerth Nagar, Belgaum - KSPCB",12-02-2024 03:00:00,15.888653,74.541751,NH3,33,34,33
India,Karnataka,Bengaluru,"BTM Layout, Bengaluru - CPCB",12-02-2024 03:00:00,12.9135218,77.5950804,PM10,NA,NA,NA
India,Karnataka,Bengaluru,"BTM Layout, Bengaluru - CPCB",12-02-2024 03:00:00,12.9135218,77.5950804,NO2,NA,NA,NA
India,Karnataka,Bengaluru,"Bapuji Nagar, Bengaluru - KSPCB",12-02-2024 03:00:00,12.951913,77.539784,PM2.5,88,157,108
India,Karnataka,Bengaluru,"Bapuji Nagar, Bengaluru - KSPCB",12-02-2024 03:00:00,12.951913,77.539784,PM10,63,106,95
India,Karnataka,Bengaluru,"Bapuji Nagar, Bengaluru - KSPCB",12-02-2024 03:00:00,12.951913,77.539784,SO2,5,7,6
India,Karnataka,Bengaluru,"Bapuji Nagar, Bengaluru - KSPCB",12-02-2024 03:00:00,12.951913,77.539784,OZONE,10,11,11
India,Karnataka,Bengaluru,"City Railway Station, Bengaluru - KSPCB",12-02-2024 03:00:00,12.9756843,77.5660749,NO2,24,32,29
India,Karnataka,Bengaluru,"Hebbal, Bengaluru - KSPCB",12-02-2024 03:00:00,13.029152,77.585901,PM10,66,106,92
India,Karnataka,Bengaluru,"Hebbal, Bengaluru - KSPCB",12-02-2024 03:00:00,13.029152,77.585901,NO2,5,5,5
India,Karnataka,Bengaluru,"Hebbal, Bengaluru - KSPCB",12-02-2024 03:00:00,13.029152,77.585901,NH3,1,1,1
India,Karnataka,Bengaluru,"Hebbal, Bengaluru - KSPCB",12-02-2024 03:00:00,13.029152,77.585901,CO,14,32,21
India,Karnataka,Bengaluru,"Jayanagar 5th Block, Bengaluru - KSPCB",12-02-2024 03:00:00,12.920984,77.584908,CO,12,32,22
India,Karnataka,Bengaluru,"Jigani, Bengaluru - KSPCB",12-02-2024 03:00:00,12.7816279,77.6299145,CO,38,71,43
India,Karnataka,Bengaluru,"Kasturi Nagar, Bengaluru - KSPCB",12-02-2024 03:00:00,13.003872,77.664217,PM10,96,154,127
India,Karnataka,Bengaluru,"Peenya, Bengaluru - CPCB",12-02-2024 03:00:00,13.0270199,77.494094,PM2.5,40,183,95
India,Karnataka,Bengaluru,"Peenya, Bengaluru - CPCB",12-02-2024 03:00:00,13.0270199,77.494094,CO,29,42,31
India,Karnataka,Bengaluru,"Silk Board, Bengaluru - KSPCB",12-02-2024 03:00:00,12.917348,77.622813,NH3,1,1,1
India,Karnataka,Bidar,"Naubad, Bidar - KSPCB",12-02-2024 03:00:00,17.930306,77.482194,NH3,3,3,3
India,Karnataka,Chikkaballapur,"Chikkaballapur Rural, Chikkaballapur - KSPCB",12-02-2024 03:00:00,13.428828,77.731418,PM10,49,97,78
India,Karnataka,Chikkaballapur,"Chikkaballapur Rural, Chikkaballapur - KSPCB",12-02-2024 03:00:00,13.428828,77.731418,SO2,18,26,22
India,Karnataka,Chikkamagaluru,"Kalyana Nagara, Chikkamagaluru - KSPCB",12-02-2024 03:00:00,13.328028,75.797056,PM2.5,16,94,49
India,Karnataka,Chikkamagaluru,"Kalyana Nagara, Chikkamagaluru - KSPCB",12-02-2024 03:00:00,13.328028,75.797056,PM10,11,107,55
India,Karnataka,Chikkamagaluru,"Kalyana Nagara, Chikkamagaluru - KSPCB",12-02-2024 03:00:00,13.328028,75.797056,NH3,3,5,4
India,Karnataka,Davanagere,"Devaraj Urs Badavane, Davanagere - KSPCB",12-02-2024 03:00:00,14.475800,75.905200,NO2,10,15,12
India,Karnataka,Davanagere,"Devaraj Urs Badavane, Davanagere - KSPCB",12-02-2024 03:00:00,14.475800,75.905200,OZONE,23,27,24
India,Karnataka,Gadag,"Panchal Nagar, Gadag - KSPCB",12-02-2024 03:00:00,15.411456,75.638133,PM2.5,29,53,39
India,Karnataka,Haveri,"Ashwini Nagar, Haveri - KSPCB",12-02-2024 03:00:00,14.791800,75.389600,PM10,NA,NA,NA
India,Karnataka,Hubballi,"Lingaraj Nagar, Hubballi - KSPCB",12-02-2024 03:00:00,15.3714823,75.1160168,CO,16,108,64
India,Karnataka,Kalaburagi,"Lal Bahadur Shastri Nagar, Kalaburagi - KSPCB",12-02-2024 03:00:00,17.321993,76.822628,NH3,2,2,2
India,Karnataka,Kalaburagi,"Mahatma Basaveswar Colony, Kalaburgi - KSPCB",12-02-2024 03:00:00,17.336318,76.847397,CO,34,51,40
India,Karnataka,Karwar,"KHB Colony, Karwar - KSPCB",12-02-2024 03:00:00,14.816666,74.141003,OZONE,21,22,21
India,Karnataka,Kolar,"Tamaka Ind. Area, Kolar - KSPCB",12-02-2024 03:00:00,13.1276288,78.1570122,NH3,7,11,8
India,Karnataka,Kolar,"Tamaka Ind. Area, Kolar - KSPCB",12-02-2024 03:00:00,13.1276288,78.1570122,CO,10,13,12
India,Karnataka,Kolar,"Tamaka Ind. Area, Kolar - KSPCB",12-02-2024 03:00:00,13.1276288,78.1570122,OZONE,12,15,13
India,Karnataka,Koppal,"Diwator Nagar, Koppal - KSPCB",12-02-2024 03:00:00,15.347630,76.181767,CO,24,54,32
India,Karnataka,Koppal,"Diwator Nagar, Koppal - KSPCB",12-02-2024 03:00:00,15.347630,76.181767,OZONE,2,47,15
India,Karnataka,Mangalore,"Kadri, Mangalore - KSPCB",12-02-2024 03:00:00,12.889250,74.853000,NO2,3,9,6
India,Karnataka,Raichur,"Haji Colony, Raichur - KSPCB",12-02-2024 03:00:00,16.208139,77.348417,CO,78,109,100
India,Karnataka,Raichur,"Haji Colony, Raichur - KSPCB",12-02-2024 03:00:00,16.208139,77.348417,OZONE,2,29,4
India,Karnataka,Ramanagara,"Vijay Nagar, Ramanagara - KSPCB",12-02-2024 03:00:00,12.733409,77.298051,NH3,1,1,1
