country,state,city,station,last_update,latitude,longitude,pollutant_id,pollutant_min,pollutant_max,pollutant_avg
India,Andhra_Pradesh,Amaravati,"Secretariat, Amaravati - APPCB",08-06-2024 21:00:00,16.5150833,80.5181667,SO2,10,54,25
India,Andhra_Pradesh,Anantapur,"Gulzarpet, Anantapur - APPCB",08-06-2024 21:00:00,14.675886,77.593027,PM2.5,21,51,29
India,Andhra_Pradesh,Anantapur,"Gulzarpet, Anantapur - APPCB",08-06-2024 21:00:00,14.675886,77.593027,PM10,33,51,39
India,Andhra_Pradesh,Anantapur,"Gulzarpet, Anantapur - APPCB",08-06-2024 21:00:00,14.675886,77.593027,OZONE,1,22,13
India,Andhra_Pradesh,Rajamahendravaram,"Anand Kala Kshetram, Rajamahendravaram - APPCB",08-06-2024 21:00:00,16.9872867,81.7363176,SO2,11,12,12
India,Andhra_Pradesh,Rajamahendravaram,"Anand Kala Kshetram, Rajamahendravaram - APPCB",08-06-2024 21:00:00,16.9872867,81.7363176,CO,15,35,29
India,Andhra_Pradesh,Vijayawada,"HB Colony, Vijayawada - APPCB",08-06-2024 21:00:00,16.536107,80.594233,NH3,4,5,4
India,Andhra_Pradesh,Vijayawada,"Kanuru, Vijayawada - APPCB",08-06-2024 21:00:00,16.486692,80.699436,PM2.5,37,49,42
India,Andhra_Pradesh,Vijayawada,"Kanuru, Vijayawada - APPCB",08-06-2024 21:00:00,16.486692,80.699436,NO2,14,17,15
India,Andhra_Pradesh,Vijayawada,"Kanuru, Vijayawada - APPCB",08-06-2024 21:00:00,16.486692,80.699436,NH3,2,3,2
India,Andhra_Pradesh,Vijayawada,"Kanuru, Vijayawada - APPCB",08-06-2024 21:00:00,16.486692,80.699436,SO2,6,8,7
India,Andhra_Pradesh,Vijayawada,"Kanuru, Vijayawada - APPCB",08-06-2024 21:00:00,16.486692,80.699436,OZONE,40,40,40
India,Andhra_Pradesh,Vijayawada,"Rajiv Gandhi Park, Vijayawada - APPCB",08-06-2024 21:00:00,16.509717,80.612222,NH3,3,5,5
India,Andhra_Pradesh,Vijayawada,"Rajiv Gandhi Park, Vijayawada - APPCB",08-06-2024 21:00:00,16.509717,80.612222,SO2,7,9,8
India,Andhra_Pradesh,Vijayawada,"Rajiv Gandhi Park, Vijayawada - APPCB",08-06-2024 21:00:00,16.509717,80.612222,OZONE,17,55,44
India,Andhra_Pradesh,Vijayawada,"Rajiv Nagar, Vijayawada - APPCB",08-06-2024 21:00:00,16.554731,80.649110,PM2.5,47,68,49
India,Andhra_Pradesh,Vijayawada,"Rajiv Nagar, Vijayawada - APPCB",08-06-2024 21:00:00,16.554731,80.649110,SO2,4,30,12
India,Andhra_Pradesh,Vijayawada,"Rajiv Nagar, Vijayawada - APPCB",08-06-2024 21:00:00,16.554731,80.649110,OZONE,23,48,41
India,Andhra_Pradesh,Visakhapatnam,"GVM Corporation, Visakhapatnam - APPCB",08-06-2024 21:00:00,17.72,83.3,PM2.5,33,60,42
India,Andhra_Pradesh,Visakhapatnam,"GVM Corporation, Visakhapatnam - APPCB",08-06-2024 21:00:00,17.72,83.3,PM10,72,122,92
India,Andhra_Pradesh,Visakhapatnam,"GVM Corporation, Visakhapatnam - APPCB",08-06-2024 21:00:00,17.72,83.3,NO2,1,56,17
India,Arunachal_Pradesh,Naharlagun,"Naharlagun, Naharlagun - APSPCB",08-06-2024 21:00:00,27.103358,93.679645,NO2,3,3,3
India,Assam,Guwahati,"IITG, Guwahati - PCBA",08-06-2024 21:00:00,26.2028636,91.70046436,CO,10,13,10
India,Assam,Guwahati,"LGBI Airport, Guwahati - PCBA",08-06-2024 21:00:00,26.10887,91.589544,NO2,9,62,24
India,Assam,Guwahati,"Pan Bazaar, Guwahati - PCBA",08-06-2024 21:00:00,26.187500,91.744194,PM2.5,21,47,33
India,Assam,Nalbari,"Bata Chowk, Nalbari - PCBA",08-06-2024 21:00:00,26.446912,91.439057,OZONE,23,45,35
India,Assam,Sivasagar,"Girls College, Sivasagar - PCBA",08-06-2024 21:00:00,26.987634,94.636574,CO,6,13,9
India,Bihar,Arrah,"New DM Office, Arrah - BSPCB",08-06-2024 21:00:00,25.5626095,84.663264,OZONE,1,45,16
India,Bihar,Aurangabad,"Gurdeo Nagar, Aurangabad - BSPCB",08-06-2024 21:00:00,24.75746,84.366208,NH3,4,27,13
India,Bihar,Bhagalpur,"DM Office_Kachari Chowk, Bhagalpur - BSPCB",08-06-2024 21:00:00,25.251013,86.989001,NH3,5,7,5
India,Bihar,Bhagalpur,"Mayaganj, Bhagalpur - BSPCB",08-06-2024 21:00:00,25.265194,87.012947,PM10,NA,NA,NA
India,Bihar,Bhagalpur,"Mayaganj, Bhagalpur - BSPCB",08-06-2024 21:00:00,25.265194,87.012947,SO2,NA,NA,NA
India,Bihar,Bhagalpur,"Mayaganj, Bhagalpur - BSPCB",08-06-2024 21:00:00,25.265194,87.012947,OZONE,NA,NA,NA
India,Bihar,Bihar Sharif,"D M Colony, Bihar Sharif - BSPCB",08-06-2024 21:00:00,25.204762,85.514960,NO2,NA,NA,NA
India,Bihar,Bihar Sharif,"D M Colony, Bihar Sharif - BSPCB",08-06-2024 21:00:00,25.204762,85.514960,CO,13,29,23
India,Bihar,Buxar,"Charitra Van, Buxar - BSPCB (Formerly known as Central Jail)",08-06-2024 21:00:00,25.567520,83.966379,PM10,181,443,267
India,Bihar,Buxar,"Charitra Van, Buxar - BSPCB (Formerly known as Central Jail)",08-06-2024 21:00:00,25.567520,83.966379,OZONE,13,185,108
India,Bihar,Gaya,"Collectorate, Gaya - BSPCB",08-06-2024 21:00:00,24.7955,84.9994,NO2,2,5,4
India,Bihar,Gaya,"Collectorate, Gaya - BSPCB",08-06-2024 21:00:00,24.7955,84.9994,SO2,2,30,12
India,Bihar,Gaya,"Collectorate, Gaya - BSPCB",08-06-2024 21:00:00,24.7955,84.9994,OZONE,57,86,72
India,Bihar,Gaya,"Kareemganj, Gaya - BSPCB",08-06-2024 21:00:00,24.792403,84.992416,PM2.5,48,157,95
India,Bihar,Gaya,"Kareemganj, Gaya - BSPCB",08-06-2024 21:00:00,24.792403,84.992416,PM10,61,139,107
India,Bihar,Gaya,"Kareemganj, Gaya - BSPCB",08-06-2024 21:00:00,24.792403,84.992416,NO2,21,22,21
India,Bihar,Hajipur,"Industrial Area, Hajipur - BSPCB",08-06-2024 21:00:00,25.697189,85.245900,PM2.5,154,245,189
India,Bihar,Hajipur,"Industrial Area, Hajipur - BSPCB",08-06-2024 21:00:00,25.697189,85.245900,NO2,14,45,26
India,Bihar,Hajipur,"Industrial Area, Hajipur - BSPCB",08-06-2024 21:00:00,25.697189,85.245900,NH3,10,15,13
India,Bihar,Hajipur,"Industrial Area, Hajipur - BSPCB",08-06-2024 21:00:00,25.697189,85.245900,CO,25,41,28
India,Bihar,Katihar,"Mirchaibari, Katihar - BSPCB",08-06-2024 21:00:00,25.560083,87.553265,OZONE,3,8,6
India,Bihar,Motihari,"Gandak Colony, Motihari - BSPCB",08-06-2024 21:00:00,26.63086,84.90051,NO2,11,34,21
India,Bihar,Munger,"Town Hall, Munger - BSPCB",08-06-2024 21:00:00,25.376776,86.471523,NH3,2,3,3
India,Bihar,Muzaffarpur,"Buddha Colony, Muzaffarpur - BSPCB",08-06-2024 21:00:00,26.11442,85.39813,PM10,103,150,128
India,Bihar,Muzaffarpur,"Buddha Colony, Muzaffarpur - BSPCB",08-06-2024 21:00:00,26.11442,85.39813,CO,22,44,26
India,Bihar,Muzaffarpur,"Muzaffarpur Collectorate, Muzaffarpur - BSPCB",08-06-2024 21:00:00,26.1209,85.3647,SO2,6,10,7
India,Bihar,Muzaffarpur,"Muzaffarpur Collectorate, Muzaffarpur - BSPCB",08-06-2024 21:00:00,26.1209,85.3647,OZONE,50,156,123
India,Bihar,Patna,"DRM Office Danapur, Patna - BSPCB",08-06-2024 21:00:00,25.586562,85.043586,CO,18,74,33
India,Bihar,Patna,"Govt. High School Shikarpur, Patna - BSPCB",08-06-2024 21:00:00,25.592539,85.227158,SO2,10,13,11
India,Bihar,Patna,"Govt. High School Shikarpur, Patna - BSPCB",08-06-2024 21:00:00,25.592539,85.227158,CO,26,52,34
India,Bihar,Patna,"Muradpur, Patna - BSPCB",08-06-2024 21:00:00,25.619651,85.147382,PM10,154,438,263
India,Bihar,Patna,"Muradpur, Patna - BSPCB",08-06-2024 21:00:00,25.619651,85.147382,SO2,6,16,9
India,Bihar,Patna,"Muradpur, Patna - BSPCB",08-06-2024 21:00:00,25.619651,85.147382,OZONE,5,62,45
India,Bihar,Patna,"Rajbansi Nagar, Patna - BSPCB",08-06-2024 21:00:00,25.599486,85.113666,PM2.5,89,279,169
India,Bihar,Patna,"Rajbansi Nagar, Patna - BSPCB",08-06-2024 21:00:00,25.599486,85.113666,SO2,5,17,9
India,Bihar,Patna,"Rajbansi Nagar, Patna - BSPCB",08-06-2024 21:00:00,25.599486,85.113666,OZONE,25,111,83
India,Bihar,Patna,"Samanpura, Patna - BSPCB",08-06-2024 21:00:00,25.596727,85.085624,CO,34,86,50
India,Bihar,Rajgir,"Dangi Tola, Rajgir - BSPCB",08-06-2024 21:00:00,25.03280,85.41948,NO2,14,15,15
India,Bihar,Rajgir,"Dangi Tola, Rajgir - BSPCB",08-06-2024 21:00:00,25.03280,85.41948,SO2,3,6,4
India,Bihar,Rajgir,"Dangi Tola, Rajgir - BSPCB",08-06-2024 21:00:00,25.03280,85.41948,CO,30,50,40
India,Bihar,Saharsa,"Police Line, Saharsa - BSPCB",08-06-2024 21:00:00,25.892357,86.590325,CO,54,56,55
India,Bihar,Samastipur,"DM Office_Kasipur, Samastipur - BSPCB",08-06-2024 21:00:00,25.859655,85.77944,NO2,4,5,4
India,Bihar,Samastipur,"DM Office_Kasipur, Samastipur - BSPCB",08-06-2024 21:00:00,25.859655,85.77944,OZONE,1,33,1
India,Bihar,Sasaram,"Dada Peer, Sasaram - BSPCB",08-06-2024 21:00:00,24.952822,84.002396,NO2,2,45,20
India,Bihar,Sasaram,"Dada Peer, Sasaram - BSPCB",08-06-2024 21:00:00,24.952822,84.002396,CO,40,94,62
India,Chandigarh,Chandigarh,"Sector 22, Chandigarh - CPCC",08-06-2024 21:00:00,30.735567,76.775714,NO2,17,51,27
India,Chandigarh,Chandigarh,"Sector-25, Chandigarh - CPCC",08-06-2024 21:00:00,30.751462,76.762879,OZONE,19,57,50
India,Chandigarh,Chandigarh,"Sector-53, Chandigarh - CPCC",08-06-2024 21:00:00,30.719859,76.738637,PM2.5,30,127,73
India,Chhattisgarh,Bhilai,"32Bungalows, Bhilai - CECB",08-06-2024 21:00:00,21.194815,81.314770,PM2.5,25,53,38
India,Chhattisgarh,Bhilai,"32Bungalows, Bhilai - CECB",08-06-2024 21:00:00,21.194815,81.314770,PM10,37,63,48
India,Chhattisgarh,Bilaspur,"Mangala, Bilaspur - NTPC",08-06-2024 21:00:00,22.08815,82.13737,CO,24,57,45
India,Chhattisgarh,Chhal,"Nawapara SECL Colony, Chhal - CECB",08-06-2024 21:00:00,22.118125,83.140608,PM2.5,52,94,65
India,Chhattisgarh,Chhal,"Nawapara SECL Colony, Chhal - CECB",08-06-2024 21:00:00,22.118125,83.140608,CO,25,46,30
India,Chhattisgarh,Korba,"Urja Nagar, Korba - CECB",08-06-2024 21:00:00,22.348441,82.549611,SO2,6,9,7
India,Chhattisgarh,Milupara,"Govt. Higher Secondary School, Milupara - CECB",08-06-2024 21:00:00,22.1910172,83.5197009,NO2,NA,NA,NA
India,Chhattisgarh,Milupara,"Govt. Higher Secondary School, Milupara - CECB",08-06-2024 21:00:00,22.1910172,83.5197009,SO2,NA,NA,NA
India,Chhattisgarh,Raipur,"AIIMS, Raipur - CECB",08-06-2024 21:00:00,21.258815,81.578979,SO2,3,13,6
India,Chhattisgarh,Raipur,"Bhatagaon New ISBT, Raipur - CECB",08-06-2024 21:00:00,21.219665,81.630094,PM2.5,10,30,20
India,Chhattisgarh,Raipur,"Bhatagaon New ISBT, Raipur - CECB",08-06-2024 21:00:00,21.219665,81.630094,NH3,2,2,2
India,Chhattisgarh,Raipur,"Krishak Nagar, Raipur - CECB",08-06-2024 21:00:00,21.237755,81.705301,CO,6,23,15
India,Chhattisgarh,Raipur,"Siltara Phase-II, Raipur - CECB",08-06-2024 21:00:00,21.371751,81.664929,NH3,3,3,3
India,Chhattisgarh,Raipur,"Siltara Phase-II, Raipur - CECB",08-06-2024 21:00:00,21.371751,81.664929,SO2,10,54,20
India,Delhi,Delhi,"Alipur, Delhi - DPCC",08-06-2024 21:00:00,28.815329,77.153010,PM2.5,27,230,84
India,Delhi,Delhi,"Alipur, Delhi - DPCC",08-06-2024 21:00:00,28.815329,77.153010,SO2,7,36,20
India,Delhi,Delhi,"Ashok Vihar, Delhi - DPCC",08-06-2024 21:00:00,28.695381,77.181665,PM2.5,20,203,90
India,Delhi,Delhi,"Ashok Vihar, Delhi - DPCC",08-06-2024 21:00:00,28.695381,77.181665,NH3,11,18,15
India,Delhi,Delhi,"Ashok Vihar, Delhi - DPCC",08-06-2024 21:00:00,28.695381,77.181665,SO2,17,46,28
India,Delhi,Delhi,"Ashok Vihar, Delhi - DPCC",08-06-2024 21:00:00,28.695381,77.181665,OZONE,31,136,110
India,Delhi,Delhi,"Aya Nagar, Delhi - IMD",08-06-2024 21:00:00,28.4706914,77.1099364,OZONE,16,49,37
India,Delhi,Delhi,"Bawana, Delhi - DPCC",08-06-2024 21:00:00,28.776200,77.051074,NO2,9,40,22
India,Delhi,Delhi,"Bawana, Delhi - DPCC",08-06-2024 21:00:00,28.776200,77.051074,NH3,2,5,4
India,Delhi,Delhi,"CRRI Mathura Road, Delhi - IMD",08-06-2024 21:00:00,28.5512005,77.2735737,OZONE,NA,NA,NA
India,Delhi,Delhi,"Chandni Chowk, Delhi - IITM",08-06-2024 21:00:00,28.656756,77.227234,PM10,150,440,246
India,Delhi,Delhi,"Chandni Chowk, Delhi - IITM",08-06-2024 21:00:00,28.656756,77.227234,CO,52,78,59
India,Delhi,Delhi,"DTU, Delhi - CPCB",08-06-2024 21:00:00,28.7500499,77.1112615,CO,27,48,33
India,Delhi,Delhi,"Dr. Karni Singh Shooting Range, Delhi - DPCC",08-06-2024 21:00:00,28.498571,77.264840,PM10,127,455,249
India,Delhi,Delhi,"Dwarka-Sector 8, Delhi - DPCC ",08-06-2024 21:00:00,28.5710274,77.0719006,NH3,4,9,7
India,Delhi,Delhi,"Jahangirpuri, Delhi - DPCC",08-06-2024 21:00:00,28.732820,77.170633,PM10,135,432,257
India,Delhi,Delhi,"Jawaharlal Nehru Stadium, Delhi - DPCC",08-06-2024 21:00:00,28.580280,77.233829,CO,1,195,108
India,Delhi,Delhi,"Major Dhyan Chand National Stadium, Delhi - DPCC",08-06-2024 21:00:00,28.611281,77.237738,PM2.5,52,253,134
India,Delhi,Delhi,"Major Dhyan Chand National Stadium, Delhi - DPCC",08-06-2024 21:00:00,28.611281,77.237738,NH3,6,10,8
India,Delhi,Delhi,"Mandir Marg, Delhi - DPCC",08-06-2024 21:00:00,28.636429,77.201067,PM10,75,321,175
India,Delhi,Delhi,"Mandir Marg, Delhi - DPCC",08-06-2024 21:00:00,28.636429,77.201067,NH3,3,5,4
India,Delhi,Delhi,"Mandir Marg, Delhi - DPCC",08-06-2024 21:00:00,28.636429,77.201067,OZONE,36,105,84
India,Delhi,Delhi,"Mundka, Delhi - DPCC",08-06-2024 21:00:00,28.684678,77.076574,PM10,140,487,273
India,Delhi,Delhi,"Mundka, Delhi - DPCC",08-06-2024 21:00:00,28.684678,77.076574,NH3,7,13,9
India,Delhi,Delhi,"Narela, Delhi - DPCC",08-06-2024 21:00:00,28.822836,77.101981,SO2,7,37,21
India,Delhi,Delhi,"Narela, Delhi - DPCC",08-06-2024 21:00:00,28.822836,77.101981,OZONE,27,106,93
India,Delhi,Delhi,"New Moti Bagh, Delhi - MHUA",08-06-2024 21:00:00,28.57834,77.18400,PM2.5,34,368,126
India,Delhi,Delhi,"North Campus, DU, Delhi - IMD",08-06-2024 21:00:00,28.6573814,77.1585447,CO,31,94,57
India,Delhi,Delhi,"North Campus, DU, Delhi - IMD",08-06-2024 21:00:00,28.6573814,77.1585447,OZONE,22,57,45
India,Delhi,Delhi,"Okhla Phase-2, Delhi - DPCC",08-06-2024 21:00:00,28.530785,77.271255,OZONE,10,126,83
India,Delhi,Delhi,"Patparganj, Delhi - DPCC",08-06-2024 21:00:00,28.623763,77.287209,PM10,145,449,271
India,Delhi,Delhi,"Patparganj, Delhi - DPCC",08-06-2024 21:00:00,28.623763,77.287209,SO2,3,18,11
India,Delhi,Delhi,"Punjabi Bagh, Delhi - DPCC",08-06-2024 21:00:00,28.674045,77.131023,NO2,11,71,26
India,Delhi,Delhi,"Pusa, Delhi - DPCC",08-06-2024 21:00:00,28.639652,77.146275,PM2.5,37,140,73
India,Delhi,Delhi,"R K Puram, Delhi - DPCC",08-06-2024 21:00:00,28.563262,77.186937,NO2,16,103,41
India,Delhi,Delhi,"R K Puram, Delhi - DPCC",08-06-2024 21:00:00,28.563262,77.186937,CO,5,54,23
India,Delhi,Delhi,"R K Puram, Delhi - DPCC",08-06-2024 21:00:00,28.563262,77.186937,OZONE,38,175,136
India,Delhi,Delhi,"Rohini, Delhi - DPCC",08-06-2024 21:00:00,28.732528,77.119920,PM10,117,468,243
India,Delhi,Delhi,"Rohini, Delhi - DPCC",08-06-2024 21:00:00,28.732528,77.119920,OZONE,15,159,132
India,Delhi,Delhi,"Shadipur, Delhi - CPCB",08-06-2024 21:00:00,28.6514781,77.1473105,CO,34,66,45
India,Delhi,Delhi,"Sirifort, Delhi - CPCB",08-06-2024 21:00:00,28.5504249,77.2159377,SO2,43,45,44
India,Delhi,Delhi,"Sirifort, Delhi - CPCB",08-06-2024 21:00:00,28.5504249,77.2159377,OZONE,10,58,40
India,Delhi,Delhi,"Sri Aurobindo Marg, Delhi - DPCC",08-06-2024 21:00:00,28.531346,77.190156,PM2.5,43,174,91
India,Delhi,Delhi,"Sri Aurobindo Marg, Delhi - DPCC",08-06-2024 21:00:00,28.531346,77.190156,NH3,1,12,6
India,Delhi,Delhi,"Vivek Vihar, Delhi - DPCC",08-06-2024 21:00:00,28.672342,77.315260,PM2.5,43,138,81
India,Delhi,Delhi,"Wazirpur, Delhi - DPCC",08-06-2024 21:00:00,28.699793,77.165453,PM2.5,42,280,104
India,Delhi,Delhi,"Wazirpur, Delhi - DPCC",08-06-2024 21:00:00,28.699793,77.165453,NO2,26,60,37
India,Delhi,Delhi,"Wazirpur, Delhi - DPCC",08-06-2024 21:00:00,28.699793,77.165453,CO,84,118,94
India,Gujarat,Ahmedabad,"Chandkheda, Ahmedabad - IITM",08-06-2024 21:00:00,23.107969,72.574648,NH3,2,3,3
India,Gujarat,Ahmedabad,"Chandkheda, Ahmedabad - IITM",08-06-2024 21:00:00,23.107969,72.574648,CO,26,28,27
India,Gujarat,Ahmedabad,"Gyaspur, Ahmedabad - IITM",08-06-2024 21:00:00,22.977134,72.553024,SO2,14,21,20
India,Gujarat,Ahmedabad,"Rakhial, Ahmedabad - IITM",08-06-2024 21:00:00,23.016834,72.625775,SO2,12,80,36
India,Gujarat,Ahmedabad,"SVPI Airport Hansol, Ahmedabad - IITM",08-06-2024 21:00:00,23.076793,72.627874,PM2.5,43,107,72
India,Gujarat,Ahmedabad,"SVPI Airport Hansol, Ahmedabad - IITM",08-06-2024 21:00:00,23.076793,72.627874,NO2,32,42,37
India,Gujarat,Ahmedabad,"Sardar Vallabhbhai Patel Stadium, Ahmedabad - IITM",08-06-2024 21:00:00,23.043070,72.562968,NH3,6,6,6
India,Gujarat,Ahmedabad,"Sardar Vallabhbhai Patel Stadium, Ahmedabad - IITM",08-06-2024 21:00:00,23.043070,72.562968,SO2,24,47,34
India,Gujarat,Ahmedabad,"Sardar Vallabhbhai Patel Stadium, Ahmedabad - IITM",08-06-2024 21:00:00,23.043070,72.562968,CO,48,51,49
India,Gujarat,Ankleshwar,"GIDC, Ankleshwar - GPCB",08-06-2024 21:00:00,21.613267,73.010555,NO2,22,43,33
India,Gujarat,Ankleshwar,"GIDC, Ankleshwar - GPCB",08-06-2024 21:00:00,21.613267,73.010555,CO,46,81,59
India,Gujarat,Nandesari,"GIDC, Nandesari - Nandesari Ind. Association",08-06-2024 21:00:00,22.410802,73.097923,PM2.5,51,199,111
India,Gujarat,Surat,"Science Center, Surat - SMC",08-06-2024 21:00:00,21.170046,72.795405,PM2.5,3,70,23
India,Gujarat,Surat,"Science Center, Surat - SMC",08-06-2024 21:00:00,21.170046,72.795405,NO2,17,34,25
India,Gujarat,Vapi,"Phase-1 GIDC, Vapi - GPCB",08-06-2024 21:00:00,20.362421,72.918013,SO2,40,116,49
India,Gujarat,Vatva,"Phase-4 GIDC, Vatva - GPCB",08-06-2024 21:00:00,22.969611,72.643500,PM2.5,31,57,44
India,Gujarat,Vatva,"Phase-4 GIDC, Vatva - GPCB",08-06-2024 21:00:00,22.969611,72.643500,OZONE,29,30,30
India,Haryana,Ambala,"Patti Mehar, Ambala - HSPCB",08-06-2024 21:00:00,30.379589,76.778328,NH3,5,12,8
India,Haryana,Bahadurgarh,"Arya Nagar, Bahadurgarh - HSPCB",08-06-2024 21:00:00,28.6701,76.9254,NH3,NA,NA,NA
India,Haryana,Bhiwani,"H.B. Colony, Bhiwani - HSPCB",08-06-2024 21:00:00,28.806223,76.141105,PM10,76,495,172
India,Haryana,Charkhi Dadri,"Mini Secretariat, Charkhi Dadri - HSPCB",08-06-2024 21:00:00,28.593883,76.270653,PM10,NA,NA,NA
India,Haryana,Charkhi Dadri,"Mini Secretariat, Charkhi Dadri - HSPCB",08-06-2024 21:00:00,28.593883,76.270653,NO2,NA,NA,NA
India,Haryana,Dharuhera,"Municipal Corporation Office, Dharuhera -  HSPCB",08-06-2024 21:00:00,28.206800,76.799700,SO2,6,15,10
India,Haryana,Faridabad,"Sector 11, Faridabad - HSPCB",08-06-2024 21:00:00,28.376058,77.315741,PM2.5,119,328,270
India,Haryana,Faridabad,"Sector 30, Faridabad - HSPCB",08-06-2024 21:00:00,28.4417,77.3217,NH3,3,3,3
India,Haryana,Faridabad,"Sector 30, Faridabad - HSPCB",08-06-2024 21:00:00,28.4417,77.3217,OZONE,13,49,36
India,Haryana,Faridabad,"Sector- 16A, Faridabad - HSPCB",08-06-2024 21:00:00,28.4088421,77.3099081,OZONE,14,14,14
India,Haryana,Fatehabad,"Huda Sector, Fatehabad - HSPCB",08-06-2024 21:00:00,29.503664,75.467934,NO2,29,31,30
India,Haryana,Fatehabad,"Huda Sector, Fatehabad - HSPCB",08-06-2024 21:00:00,29.503664,75.467934,CO,44,46,45
India,Haryana,Gurugram,"Sector-51, Gurugram - HSPCB",08-06-2024 21:00:00,28.4227,77.0667,SO2,2,3,3
India,Haryana,Gurugram,"Teri Gram, Gurugram - HSPCB",08-06-2024 21:00:00,28.4275,77.1465,NH3,NA,NA,NA
India,Haryana,Gurugram,"Teri Gram, Gurugram - HSPCB",08-06-2024 21:00:00,28.4275,77.1465,SO2,NA,NA,NA
India,Haryana,Gurugram,"Teri Gram, Gurugram - HSPCB",08-06-2024 21:00:00,28.4275,77.1465,CO,7,26,25
India,Haryana,Gurugram,"Vikas Sadan, Gurugram - HSPCB",08-06-2024 21:00:00,28.4501238,77.0263051,SO2,NA,NA,NA
India,Haryana,Hisar,"Urban Estate-II, Hisar - HSPCB",08-06-2024 21:00:00,29.140560,75.744941,NH3,4,4,4
India,Haryana,Hisar,"Urban Estate-II, Hisar - HSPCB",08-06-2024 21:00:00,29.140560,75.744941,SO2,55,72,63
India,Haryana,Jind,"Police Lines, Jind - HSPCB",08-06-2024 21:00:00,29.307814,76.337619,CO,4,62,23
India,Haryana,Jind,"Police Lines, Jind - HSPCB",08-06-2024 21:00:00,29.307814,76.337619,OZONE,27,74,42
India,Haryana,Kaithal,"Rishi Nagar, Kaithal - HSPCB",08-06-2024 21:00:00,29.8006,76.4155,NH3,8,9,8
India,Haryana,Karnal,"Sector-12, Karnal - HSPCB",08-06-2024 21:00:00,29.695300,77.002700,CO,20,52,33
India,Haryana,Kurukshetra,"Sector-7, Kurukshetra - HSPCB",08-06-2024 21:00:00,29.966942,76.875879,NH3,3,5,5
India,Haryana,Mandikhera,"General Hospital, Mandikhera - HSPCB",08-06-2024 21:00:00,27.9002,76.9938,SO2,NA,NA,NA
India,Haryana,Manesar,"Sector-2 IMT, Manesar - HSPCB",08-06-2024 21:00:00,28.360699,76.936090,NO2,19,25,22
India,Haryana,Manesar,"Sector-2 IMT, Manesar - HSPCB",08-06-2024 21:00:00,28.360699,76.936090,NH3,2,4,3
India,Haryana,Manesar,"Sector-2 IMT, Manesar - HSPCB",08-06-2024 21:00:00,28.360699,76.936090,OZONE,10,74,65
India,Haryana,Narnaul,"Shastri Nagar, Narnaul - HSPCB",08-06-2024 21:00:00,28.060249,76.113115,PM2.5,52,500,185
India,Haryana,Narnaul,"Shastri Nagar, Narnaul - HSPCB",08-06-2024 21:00:00,28.060249,76.113115,NH3,3,17,10
India,Haryana,Panchkula,"Sector-6, Panchkula - HSPCB ",08-06-2024 21:00:00,30.7057778,76.8531805555555,SO2,2,2,2
India,Haryana,Panchkula,"Sector-6, Panchkula - HSPCB ",08-06-2024 21:00:00,30.7057778,76.8531805555555,OZONE,31,51,35
India,Haryana,Panipat,"Sector-18, Panipat - HSPCB",08-06-2024 21:00:00,29.432304,76.972765,PM10,103,104,104
India,Haryana,Panipat,"Sector-18, Panipat - HSPCB",08-06-2024 21:00:00,29.432304,76.972765,NO2,31,32,31
India,Haryana,Panipat,"Sector-18, Panipat - HSPCB",08-06-2024 21:00:00,29.432304,76.972765,OZONE,30,30,30
India,Haryana,Sirsa,"F-Block, Sirsa - HSPCB",08-06-2024 21:00:00,29.536400,75.015800,SO2,2,4,3
India,Haryana,Sirsa,"F-Block, Sirsa - HSPCB",08-06-2024 21:00:00,29.536400,75.015800,CO,112,119,116
India,Haryana,Sonipat,"Murthal, Sonipat - HSPCB",08-06-2024 21:00:00,29.027200,77.062100,PM10,84,144,121
India,Haryana,Sonipat,"Murthal, Sonipat - HSPCB",08-06-2024 21:00:00,29.027200,77.062100,SO2,12,29,20
India,Haryana,Sonipat,"Murthal, Sonipat - HSPCB",08-06-2024 21:00:00,29.027200,77.062100,CO,24,26,25
India,Haryana,Yamuna Nagar,"Gobind Pura, Yamuna Nagar - HSPCB",08-06-2024 21:00:00,30.1480566,77.2893471,PM2.5,77,122,95
India,Jharkhand,Dhanbad,"Kalakusuma, Dhanbad - DMC",08-06-2024 21:00:00,23.811548,86.481238,PM10,12,187,97
India,Jharkhand,Dhanbad,"Kalakusuma, Dhanbad - DMC",08-06-2024 21:00:00,23.811548,86.481238,CO,122,134,131
India,Jharkhand,Dhanbad,"Sardar Patel Nagar, Dhanbad - JSPCB",08-06-2024 21:00:00,23.80569,86.44268,PM10,102,143,119
India,Karnataka,Bagalkot,"Vidayagiri, Bagalkot - KSPCB",08-06-2024 21:00:00,16.172806,75.659694,SO2,9,9,9
India,Karnataka,Belgaum,"Ramteerth Nagar, Belgaum - KSPCB",08-06-2024 21:00:00,15.888653,74.541751,PM2.5,11,17,14
India,Karnataka,Bengaluru,"Bapuji Nagar, Bengaluru - KSPCB",08-06-2024 21:00:00,12.951913,77.539784,NO2,14,16,15
India,Karnataka,Bengaluru,"Bapuji Nagar, Bengaluru - KSPCB",08-06-2024 21:00:00,12.951913,77.539784,CO,8,30,17
India,Karnataka,Bengaluru,"Hombegowda Nagar, Bengaluru - KSPCB",08-06-2024 21:00:00,12.938539,77.590100,PM2.5,5,13,9
India,Karnataka,Bengaluru,"Hombegowda Nagar, Bengaluru - KSPCB",08-06-2024 21:00:00,12.938539,77.590100,PM10,8,20,14
India,Karnataka,Bengaluru,"Hombegowda Nagar, Bengaluru - KSPCB",08-06-2024 21:00:00,12.938539,77.590100,NO2,8,18,13
India,Karnataka,Bengaluru,"Hombegowda Nagar, Bengaluru - KSPCB",08-06-2024 21:00:00,12.938539,77.590100,NH3,1,2,1
India,Karnataka,Bengaluru,"Jayanagar 5th Block, Bengaluru - KSPCB",08-06-2024 21:00:00,12.920984,77.584908,NO2,8,10,9
India,Karnataka,Bengaluru,"Jigani, Bengaluru - KSPCB",08-06-2024 21:00:00,12.7816279,77.6299145,CO,24,40,32
India,Karnataka,Bengaluru,"Kasturi Nagar, Bengaluru - KSPCB",08-06-2024 21:00:00,13.003872,77.664217,NO2,16,17,16
India,Karnataka,Bengaluru,"Kasturi Nagar, Bengaluru - KSPCB",08-06-2024 21:00:00,13.003872,77.664217,NH3,3,4,4
India,Karnataka,Bengaluru,"Peenya, Bengaluru - CPCB",08-06-2024 21:00:00,13.0270199,77.494094,NO2,18,26,21
India,Karnataka,Bengaluru,"Sanegurava Halli, Bengaluru - KSPCB",08-06-2024 21:00:00,12.990328,77.5431385,PM10,34,47,36
India,Karnataka,Bidar,"Naubad, Bidar - KSPCB",08-06-2024 21:00:00,17.930306,77.482194,SO2,17,19,18
India,Karnataka,Chamarajanagar,"Urban, Chamarajanagar - KSPCB",08-06-2024 21:00:00,11.55358,76.55521,PM10,47,49,48
India,Karnataka,Chamarajanagar,"Urban, Chamarajanagar - KSPCB",08-06-2024 21:00:00,11.55358,76.55521,NH3,2,2,2
India,Karnataka,Chamarajanagar,"Urban, Chamarajanagar - KSPCB",08-06-2024 21:00:00,11.55358,76.55521,SO2,6,8,6
India,Karnataka,Chamarajanagar,"Urban, Chamarajanagar - KSPCB",08-06-2024 21:00:00,11.55358,76.55521,CO,30,122,30
India,Karnataka,Chikkamagaluru,"Kalyana Nagara, Chikkamagaluru - KSPCB",08-06-2024 21:00:00,13.328028,75.797056,SO2,3,17,8
India,Karnataka,Davanagere,"Devaraj Urs Badavane, Davanagere - KSPCB",08-06-2024 21:00:00,14.475800,75.905200,PM10,6,17,13
India,Karnataka,Dharwad,"Kalabhavan, Dharwad - KSPCB",08-06-2024 21:00:00,15.459706,75.008381,PM2.5,14,38,24
India,Karnataka,Dharwad,"Kalabhavan, Dharwad - KSPCB",08-06-2024 21:00:00,15.459706,75.008381,NO2,16,16,16
India,Karnataka,Hassan,"B.Katihalli, Hassan - KSPCB",08-06-2024 21:00:00,13.008556,76.125258,PM10,29,48,41
India,Karnataka,Hassan,"B.Katihalli, Hassan - KSPCB",08-06-2024 21:00:00,13.008556,76.125258,CO,13,21,17
India,Karnataka,Haveri,"Ashwini Nagar, Haveri - KSPCB",08-06-2024 21:00:00,14.791800,75.389600,SO2,NA,NA,NA
India,Karnataka,Kalaburagi,"Lal Bahadur Shastri Nagar, Kalaburagi - KSPCB",08-06-2024 21:00:00,17.321993,76.822628,NO2,10,12,11
India,Karnataka,Kalaburagi,"Lal Bahadur Shastri Nagar, Kalaburagi - KSPCB",08-06-2024 21:00:00,17.321993,76.822628,SO2,9,23,15
India,Karnataka,Kalaburagi,"Mahatma Basaveswar Colony, Kalaburgi - KSPCB",08-06-2024 21:00:00,17.336318,76.847397,PM2.5,NA,NA,NA
India,Karnataka,Kalaburagi,"Mahatma Basaveswar Colony, Kalaburgi - KSPCB",08-06-2024 21:00:00,17.336318,76.847397,SO2,NA,NA,NA
India,Karnataka,Karwar,"KHB Colony, Karwar - KSPCB",08-06-2024 21:00:00,14.816666,74.141003,PM10,NA,NA,NA
India,Karnataka,Karwar,"KHB Colony, Karwar - KSPCB",08-06-2024 21:00:00,14.816666,74.141003,NH3,NA,NA,NA
India,Karnataka,Koppal,"Diwator Nagar, Koppal - KSPCB",08-06-2024 21:00:00,15.347630,76.181767,PM10,1,8,4
India,Karnataka,Madikeri,"Stuart Hill, Madikeri - KSPCB",08-06-2024 21:00:00,12.415911,75.735050,PM2.5,6,23,15
India,Karnataka,Madikeri,"Stuart Hill, Madikeri - KSPCB",08-06-2024 21:00:00,12.415911,75.735050,SO2,4,4,4
India,Karnataka,Mangalore,"Kadri, Mangalore - KSPCB",08-06-2024 21:00:00,12.889250,74.853000,PM2.5,13,44,23
India,Karnataka,Mangalore,"Kadri, Mangalore - KSPCB",08-06-2024 21:00:00,12.889250,74.853000,PM10,32,66,44
India,Karnataka,Mangalore,"Kadri, Mangalore - KSPCB",08-06-2024 21:00:00,12.889250,74.853000,NH3,1,2,2
India,Karnataka,Mangalore,"Kadri, Mangalore - KSPCB",08-06-2024 21:00:00,12.889250,74.853000,CO,37,43,41
India,Karnataka,Raichur,"Haji Colony, Raichur - KSPCB",08-06-2024 21:00:00,16.208139,77.348417,PM2.5,NA,NA,NA
India,Karnataka,Shivamogga,"Vinoba Nagara, Shivamogga - KSPCB",08-06-2024 21:00:00,13.940000,75.555917,PM10,30,56,48
India,Karnataka,Udupi,"Brahmagiri, Udupi - KSPCB",08-06-2024 21:00:00,13.34194444,74.74694444,SO2,17,21,19
India,Karnataka,Yadgir,"Collector Office, Yadgir - KSPCB",08-06-2024 21:00:00,16.7602,77.1428,NH3,NA,NA,NA
India,Kerala,Kannur,"Thavakkara, Kannur - Kerala PCB",08-06-2024 21:00:00,11.875000,75.373200,SO2,NA,NA,NA
India,Kerala,Kollam,"Polayathode, Kollam - Kerala PCB",08-06-2024 21:00:00,8.8787,76.6073,OZONE,32,35,33
India,Kerala,Thiruvananthapuram,"Plammoodu, Thiruvananthapuram - Kerala PCB",08-06-2024 21:00:00,8.5149093,76.9435879,PM10,1,37,16
India,Kerala,Thiruvananthapuram,"Plammoodu, Thiruvananthapuram - Kerala PCB",08-06-2024 21:00:00,8.5149093,76.9435879,NO2,8,11,9
India,Kerala,Thiruvananthapuram,"Plammoodu, Thiruvananthapuram - Kerala PCB",08-06-2024 21:00:00,8.5149093,76.9435879,CO,18,30,23
India,Kerala,Thrissur,"Corporation Ground, Thrissur - Kerala PCB",08-06-2024 21:00:00,10.532400,76.215900,PM2.5,44,50,47
India,Madhya Pradesh,Bhopal,"Idgah Hills, Bhopal - MPPCB",08-06-2024 21:00:00,23.264759,77.381568,PM2.5,52,305,88
India,Madhya Pradesh,Bhopal,"Idgah Hills, Bhopal - MPPCB",08-06-2024 21:00:00,23.264759,77.381568,PM10,83,232,118
India,Madhya Pradesh,Bhopal,"Paryavaran Parisar, Bhopal - MPPCB",08-06-2024 21:00:00,23.210494,77.425409,CO,3,106,45
India,Madhya Pradesh,Bhopal,"Paryavaran Parisar, Bhopal - MPPCB",08-06-2024 21:00:00,23.210494,77.425409,OZONE,9,79,52
India,Madhya Pradesh,Bhopal,"T T Nagar, Bhopal - MPPCB",08-06-2024 21:00:00,23.233584,77.400574,SO2,5,18,13
India,Madhya Pradesh,Bhopal,"T T Nagar, Bhopal - MPPCB",08-06-2024 21:00:00,23.233584,77.400574,CO,28,102,51
India,Madhya Pradesh,Dewas,"Bhopal Chauraha, Dewas - MPPCB",08-06-2024 21:00:00,22.9682591,76.064118,CO,24,60,44
India,Madhya Pradesh,Gwalior,"City Center, Gwalior - MPPCB",08-06-2024 21:00:00,26.203442,78.193251,SO2,10,56,29
India,Madhya Pradesh,Gwalior,"City Center, Gwalior - MPPCB",08-06-2024 21:00:00,26.203442,78.193251,OZONE,17,153,107
India,Madhya Pradesh,Gwalior,"Deen Dayal Nagar, Gwalior - MPPCB",08-06-2024 21:00:00,26.259242,78.216432,NH3,3,6,5
India,Madhya Pradesh,Gwalior,"Deen Dayal Nagar, Gwalior - MPPCB",08-06-2024 21:00:00,26.259242,78.216432,OZONE,62,150,123
India,Madhya Pradesh,Gwalior,"Maharaj Bada, Gwalior - MPPCB",08-06-2024 21:00:00,26.200388,78.147714,CO,44,62,57
India,Madhya Pradesh,Gwalior,"Phool Bagh, Gwalior - Mondelez Ind. Food",08-06-2024 21:00:00,26.210536,78.171,PM2.5,57,243,151
India,Madhya Pradesh,Gwalior,"Phool Bagh, Gwalior - Mondelez Ind. Food",08-06-2024 21:00:00,26.210536,78.171,PM10,43,121,91
India,Madhya Pradesh,Indore,"Chhoti Gwaltoli, Indore - MPPCB",08-06-2024 21:00:00,22.4310,75.5213,PM2.5,NA,NA,NA
India,Madhya Pradesh,Indore,"Chhoti Gwaltoli, Indore - MPPCB",08-06-2024 21:00:00,22.4310,75.5213,PM10,NA,NA,NA
India,Madhya Pradesh,Indore,"Chhoti Gwaltoli, Indore - MPPCB",08-06-2024 21:00:00,22.4310,75.5213,SO2,NA,NA,NA
India,Madhya Pradesh,Indore,"Maguda Nagar, Indore - IMC",08-06-2024 21:00:00,22.7524,75.8872,NO2,3,5,4
India,Madhya Pradesh,Jabalpur,"Govindh Bhavan Colony, Jabalpur - JMC",08-06-2024 21:00:00,23.163174,79.973061,PM10,42,155,82
India,Madhya Pradesh,Jabalpur,"Gupteshwar, Jabalpur - JMC",08-06-2024 21:00:00,23.142888,79.916147,CO,18,36,25
India,Madhya Pradesh,Jabalpur,"Marhatal, Jabalpur - MPPCB",08-06-2024 21:00:00,23.168606,79.932247,PM2.5,36,74,54
India,Madhya Pradesh,Jabalpur,"Marhatal, Jabalpur - MPPCB",08-06-2024 21:00:00,23.168606,79.932247,OZONE,37,73,62
India,Madhya Pradesh,Jabalpur,"Suhagi, Jabalpur - JMC",08-06-2024 21:00:00,23.218135,79.957770,NO2,39,42,40
India,Madhya Pradesh,Jabalpur,"Suhagi, Jabalpur - JMC",08-06-2024 21:00:00,23.218135,79.957770,NH3,2,2,2
India,Madhya Pradesh,Katni,"Gole Bazar, Katni - MPPCB",08-06-2024 21:00:00,23.50016,80.23284,PM10,52,142,88
India,Madhya Pradesh,Mandideep,"Sector-D Industrial Area, Mandideep - MPPCB",08-06-2024 21:00:00,23.108440,77.511428,PM2.5,79,324,168
India,Madhya Pradesh,Mandideep,"Sector-D Industrial Area, Mandideep - MPPCB",08-06-2024 21:00:00,23.108440,77.511428,PM10,80,432,139
India,Madhya Pradesh,Mandideep,"Sector-D Industrial Area, Mandideep - MPPCB",08-06-2024 21:00:00,23.108440,77.511428,OZONE,17,37,27
India,Madhya Pradesh,Pithampur,"Sector-2 Industrial Area, Pithampur - MPPCB",08-06-2024 21:00:00,22.624758,75.675238,NH3,1,2,1
India,Madhya Pradesh,Ratlam,"Shasthri Nagar, Ratlam - IPCA Lab",08-06-2024 21:00:00,23.331731,75.045981,PM10,48,140,89
India,Madhya Pradesh,Singrauli,"Suryakiran Bhawan NCL, Singrauli - MPPCB",08-06-2024 21:00:00,24.108970,82.645580,NO2,2,73,19
India,Maharashtra,Ahmednagar,"Tarakpur, Ahmednagar - MPCB",08-06-2024 21:00:00,19.10122,74.73339,NH3,1,16,7
India,Maharashtra,Akola,"Ramdaspeth, Akola - MPCB",08-06-2024 21:00:00,20.719516,77.000253,NH3,2,19,9
India,Maharashtra,Amravati,"Shivneri Colony, Amravati - MPCB",08-06-2024 21:00:00,20.9402359,77.7895248,NH3,3,5,4
India,Maharashtra,Amravati,"Shri Shivaji Science College, Amaravati - MPCB",08-06-2024 21:00:00,20.939198,77.765701,PM10,39,215,65
India,Maharashtra,Amravati,"Shri Shivaji Science College, Amaravati - MPCB",08-06-2024 21:00:00,20.939198,77.765701,OZONE,32,76,65
India,Maharashtra,Aurangabad,"MIDC Chilkalthana, Aurangabad - MPCB",08-06-2024 21:00:00,19.875620,75.387310,NO2,NA,NA,NA
India,Maharashtra,Aurangabad,"MIDC Chilkalthana, Aurangabad - MPCB",08-06-2024 21:00:00,19.875620,75.387310,NH3,NA,NA,NA
India,Maharashtra,Aurangabad,"More Chowk Waluj, Aurangabad - MPCB",08-06-2024 21:00:00,19.8389439,75.244448,CO,4,66,42
India,Maharashtra,Aurangabad,"Rachnakar Colony, Aurangabad - MPCB",08-06-2024 21:00:00,19.863756,75.321188,CO,10,64,23
India,Maharashtra,Badlapur,"Katrap, Badlapur - MPCB",08-06-2024 21:00:00,19.16485,73.23409,NH3,2,4,3
India,Maharashtra,Badlapur,"Katrap, Badlapur - MPCB",08-06-2024 21:00:00,19.16485,73.23409,CO,22,62,31
India,Maharashtra,Badlapur,"Katrap, Badlapur - MPCB",08-06-2024 21:00:00,19.16485,73.23409,OZONE,14,81,61
India,Maharashtra,Belapur,"CBD Belapur, Belapur - MPCB",08-06-2024 21:00:00,19.0243902,73.0406721,PM10,36,77,59
India,Maharashtra,Belapur,"CBD Belapur, Belapur - MPCB",08-06-2024 21:00:00,19.0243902,73.0406721,NO2,12,39,22
India,Maharashtra,Bhiwandi,"Gokul Nagar, Bhiwandi - MPCB",08-06-2024 21:00:00,19.309073,73.057223,SO2,NA,NA,NA
India,Maharashtra,Chandrapur,"MIDC Khutala, Chandrapur - MPCB",08-06-2024 21:00:00,19.9775302,79.2337086,NO2,8,39,17
India,Maharashtra,Dhule,"Deopur, Dhule - MPCB",08-06-2024 21:00:00,20.918946,74.776388,PM2.5,NA,NA,NA
India,Maharashtra,Jalgaon,"Prabhat Colony, Jalgaon - MPCB",08-06-2024 21:00:00,21.001264,75.565602,PM10,50,143,86
India,Maharashtra,Jalgaon,"Prabhat Colony, Jalgaon - MPCB",08-06-2024 21:00:00,21.001264,75.565602,NH3,6,10,8
India,Maharashtra,Jalgaon,"Prabhat Colony, Jalgaon - MPCB",08-06-2024 21:00:00,21.001264,75.565602,SO2,8,10,9
India,Maharashtra,Jalna,"Old MIDC, Jalna - MPCB",08-06-2024 21:00:00,19.854616,75.905894,OZONE,3,113,85
India,Maharashtra,Kalyan,"Khadakpada, Kalyan - MPCB",08-06-2024 21:00:00,19.25292,73.142019,CO,10,16,14
India,Maharashtra,Kolhapur,"Shivaji University, Kolhapur - MPCB",08-06-2024 21:00:00,16.6870449,74.2505872,NO2,11,26,18
India,Maharashtra,Kolhapur,"Shivaji University, Kolhapur - MPCB",08-06-2024 21:00:00,16.6870449,74.2505872,NH3,2,4,3
India,Maharashtra,Kolhapur,"Sinchan Bhavan, Kolhapur - MPCB",08-06-2024 21:00:00,16.7143745,74.2426398,NO2,3,19,8
India,Maharashtra,Kolhapur,"Sinchan Bhavan, Kolhapur - MPCB",08-06-2024 21:00:00,16.7143745,74.2426398,NH3,7,8,8
India,Maharashtra,Latur,"Sawe Wadi, Latur - MPCB",08-06-2024 21:00:00,18.39963,76.57452,PM10,13,56,44
India,Maharashtra,Latur,"Sawe Wadi, Latur - MPCB",08-06-2024 21:00:00,18.39963,76.57452,CO,12,62,50
India,Maharashtra,Mira-Bhayandar,"Bhayandar West, Mira-Bhayandar - MPCB",08-06-2024 21:00:00,19.296481,72.840923,PM2.5,19,50,30
India,Maharashtra,Mira-Bhayandar,"Bhayandar West, Mira-Bhayandar - MPCB",08-06-2024 21:00:00,19.296481,72.840923,PM10,27,76,47
India,Maharashtra,Mumbai,"Bandra Kurla Complex, Mumbai - MPCB",08-06-2024 21:00:00,19.065931,72.862131,PM10,70,101,87
India,Maharashtra,Mumbai,"Borivali East, Mumbai - IITM",08-06-2024 21:00:00,19.23241,72.86895,PM10,31,68,48
India,Maharashtra,Mumbai,"Borivali East, Mumbai - IITM",08-06-2024 21:00:00,19.23241,72.86895,OZONE,37,73,59
India,Maharashtra,Mumbai,"Borivali East, Mumbai - MPCB",08-06-2024 21:00:00,19.2243333,72.8658113,CO,34,40,37
India,Maharashtra,Mumbai,"Chakala-Andheri East, Mumbai - IITM",08-06-2024 21:00:00,19.11074,72.86084,NO2,28,41,34
India,Maharashtra,Mumbai,"Chembur, Mumbai - MPCB",08-06-2024 21:00:00,19.0364585,72.8954371,NO2,16,49,28
India,Maharashtra,Mumbai,"Chembur, Mumbai - MPCB",08-06-2024 21:00:00,19.0364585,72.8954371,CO,10,18,17
India,Maharashtra,Mumbai,"Colaba, Mumbai - MPCB",08-06-2024 21:00:00,18.910000,72.820000,PM10,32,66,54
India,Maharashtra,Mumbai,"Ghatkopar, Mumbai - BMC",08-06-2024 21:00:00,19.083694,72.920967,NO2,21,111,41
India,Maharashtra,Mumbai,"Ghatkopar, Mumbai - BMC",08-06-2024 21:00:00,19.083694,72.920967,NH3,4,21,10
India,Maharashtra,Mumbai,"Kandivali East, Mumbai - MPCB",08-06-2024 21:00:00,19.205800,72.868200,PM2.5,7,41,16
India,Maharashtra,Mumbai,"Kandivali East, Mumbai - MPCB",08-06-2024 21:00:00,19.205800,72.868200,NO2,12,46,26
India,Maharashtra,Mumbai,"Kandivali East, Mumbai - MPCB",08-06-2024 21:00:00,19.205800,72.868200,SO2,7,9,8
India,Maharashtra,Mumbai,"Kherwadi_Bandra East, Mumbai - MPCB",08-06-2024 21:00:00,19.0632143,72.8456324,NH3,7,12,9
India,Maharashtra,Mumbai,"Kurla, Mumbai - MPCB",08-06-2024 21:00:00,19.0863,72.8888,PM2.5,5,35,16
India,Maharashtra,Mumbai,"Kurla, Mumbai - MPCB",08-06-2024 21:00:00,19.0863,72.8888,SO2,32,32,32
India,Maharashtra,Mumbai,"Mazgaon, Mumbai - IITM",08-06-2024 21:00:00,18.96702,72.84214,NH3,5,24,12
India,Maharashtra,Mumbai,"Mindspace-Malad West, Mumbai - MPCB",08-06-2024 21:00:00,19.1878657,72.8304069,SO2,6,13,9
India,Maharashtra,Mumbai,"Navy Nagar-Colaba, Mumbai - IITM",08-06-2024 21:00:00,18.897756,72.813320,PM2.5,12,40,25
India,Maharashtra,Mumbai,"Powai, Mumbai - MPCB",08-06-2024 21:00:00,19.137500,72.915056,PM2.5,13,34,22
India,Maharashtra,Mumbai,"Powai, Mumbai - MPCB",08-06-2024 21:00:00,19.137500,72.915056,NO2,13,24,18
India,Maharashtra,Mumbai,"Powai, Mumbai - MPCB",08-06-2024 21:00:00,19.137500,72.915056,OZONE,1,13,8
India,Maharashtra,Mumbai,"Sewri, Mumbai - BMC",08-06-2024 21:00:00,19.000084,72.856730,NO2,5,12,8
India,Maharashtra,Mumbai,"Sewri, Mumbai - BMC",08-06-2024 21:00:00,19.000084,72.856730,OZONE,20,50,36
India,Maharashtra,Mumbai,"Siddharth Nagar-Worli, Mumbai - IITM",08-06-2024 21:00:00,19.000083,72.813993,NO2,31,64,49
India,Maharashtra,Mumbai,"Siddharth Nagar-Worli, Mumbai - IITM",08-06-2024 21:00:00,19.000083,72.813993,NH3,2,3,2
India,Maharashtra,Mumbai,"Sion, Mumbai - MPCB",08-06-2024 21:00:00,19.047000,72.874600,PM2.5,27,48,36
India,Maharashtra,Mumbai,"Sion, Mumbai - MPCB",08-06-2024 21:00:00,19.047000,72.874600,PM10,41,78,63
India,Maharashtra,Mumbai,"Sion, Mumbai - MPCB",08-06-2024 21:00:00,19.047000,72.874600,NO2,22,50,43
India,Maharashtra,Mumbai,"Sion, Mumbai - MPCB",08-06-2024 21:00:00,19.047000,72.874600,NH3,6,9,8
India,Maharashtra,Mumbai,"Vasai West, Mumbai - MPCB",08-06-2024 21:00:00,19.383200,72.820400,PM10,57,87,70
India,Maharashtra,Mumbai,"Vasai West, Mumbai - MPCB",08-06-2024 21:00:00,19.383200,72.820400,CO,11,30,19
India,Maharashtra,Mumbai,"Vile Parle West, Mumbai - MPCB",08-06-2024 21:00:00,19.10861,72.83622,NH3,10,11,11
India,Maharashtra,Nagpur,"Ambazari, Nagpur - MPCB",08-06-2024 21:00:00,21.121801,79.04952,SO2,1,66,20
India,Maharashtra,Nagpur,"Ambazari, Nagpur - MPCB",08-06-2024 21:00:00,21.121801,79.04952,CO,13,76,21
India,Maharashtra,Nagpur,"Ambazari, Nagpur - MPCB",08-06-2024 21:00:00,21.121801,79.04952,OZONE,26,117,95
India,Maharashtra,Nagpur,"Opp GPO Civil Lines, Nagpur - MPCB",08-06-2024 21:00:00,21.152875,79.0517531,PM10,38,110,73
India,Maharashtra,Nagpur,"Opp GPO Civil Lines, Nagpur - MPCB",08-06-2024 21:00:00,21.152875,79.0517531,SO2,2,51,18
India,Maharashtra,Nanded,"Sneh Nagar, Nanded - MPCB",08-06-2024 21:00:00,19.173852,77.296291,PM2.5,1,313,38
India,Maharashtra,Nanded,"Sneh Nagar, Nanded - MPCB",08-06-2024 21:00:00,19.173852,77.296291,NH3,1,2,2
India,Maharashtra,Nashik,"Hirawadi, Nashik - MPCB",08-06-2024 21:00:00,20.021503,73.813844,PM2.5,21,50,33
India,Maharashtra,Nashik,"Hirawadi, Nashik - MPCB",08-06-2024 21:00:00,20.021503,73.813844,SO2,5,24,18
India,Maharashtra,Nashik,"MIDC Ambad, Nashik - MPCB",08-06-2024 21:00:00,19.950220,73.731480,NH3,1,5,3
India,Maharashtra,Nashik,"MIDC Ambad, Nashik - MPCB",08-06-2024 21:00:00,19.950220,73.731480,SO2,9,13,10
India,Maharashtra,Navi Mumbai,"Mahape, Navi Mumbai - MPCB",08-06-2024 21:00:00,19.1135051,73.008978,PM10,25,149,82
India,Maharashtra,Navi Mumbai,"Mahape, Navi Mumbai - MPCB",08-06-2024 21:00:00,19.1135051,73.008978,CO,22,40,27
India,Maharashtra,Navi Mumbai,"Nerul, Navi Mumbai - MPCB",08-06-2024 21:00:00,19.008751,73.016620,PM2.5,14,36,24
India,Maharashtra,Navi Mumbai,"Sanpada, Navi Mumbai - MPCB",08-06-2024 21:00:00,19.0575752,73.0151367,NH3,2,3,3
India,Maharashtra,Navi Mumbai,"Sector-19A Nerul, Navi Mumbai - IITM",08-06-2024 21:00:00,19.044,73.0325,PM10,17,69,40
India,Maharashtra,Navi Mumbai,"Sector-19A Nerul, Navi Mumbai - IITM",08-06-2024 21:00:00,19.044,73.0325,NH3,25,53,35
India,Maharashtra,Navi Mumbai,"Sector-19A Nerul, Navi Mumbai - IITM",08-06-2024 21:00:00,19.044,73.0325,CO,2,111,84
India,Maharashtra,Navi Mumbai,"Sector-2E Kalamboli, Navi Mumbai - MPCB",08-06-2024 21:00:00,19.02579,73.10297,PM2.5,18,84,52
India,Maharashtra,Navi Mumbai,"Sector-2E Kalamboli, Navi Mumbai - MPCB",08-06-2024 21:00:00,19.02579,73.10297,PM10,40,131,86
India,Maharashtra,Navi Mumbai,"Sector-2E Kalamboli, Navi Mumbai - MPCB",08-06-2024 21:00:00,19.02579,73.10297,CO,10,27,15
India,Maharashtra,Navi Mumbai,"Tondare-Taloja, Navi Mumbai - MPCB",08-06-2024 21:00:00,19.0630,73.1209,PM2.5,17,59,30
India,Maharashtra,Parbhani,"Masoom Colony, Parbhani - MPCB",08-06-2024 21:00:00,19.265594,76.761463,OZONE,32,83,65
India,Maharashtra,Pimpri-Chinchwad,"Gavalinagar, Pimpri Chinchwad - MPCB",08-06-2024 21:00:00,18.63673,73.82487,PM2.5,26,58,42
India,Maharashtra,Pimpri-Chinchwad,"Gavalinagar, Pimpri Chinchwad - MPCB",08-06-2024 21:00:00,18.63673,73.82487,NH3,1,3,1
India,Maharashtra,Pimpri-Chinchwad,"Gavalinagar, Pimpri Chinchwad - MPCB",08-06-2024 21:00:00,18.63673,73.82487,SO2,1,3,1
India,Maharashtra,Pune,"Alandi, Pune - IITM",08-06-2024 21:00:00,18.675076,73.892743,PM10,28,65,45
India,Maharashtra,Pune,"Alandi, Pune - IITM",08-06-2024 21:00:00,18.675076,73.892743,CO,35,56,44
India,Maharashtra,Pune,"Bhosari, Pune - IITM",08-06-2024 21:00:00,18.640051,73.848956,PM10,34,57,46
India,Maharashtra,Pune,"Bhosari, Pune - IITM",08-06-2024 21:00:00,18.640051,73.848956,OZONE,19,116,75
India,Maharashtra,Pune,"Karve Road, Pune - MPCB",08-06-2024 21:00:00,18.5011743,73.8165527,CO,1,52,18
India,Maharashtra,Pune,"Mhada Colony, Pune - IITM",08-06-2024 21:00:00,18.573040,73.927715,PM10,33,132,79
India,Maharashtra,Pune,"Mhada Colony, Pune - IITM",08-06-2024 21:00:00,18.573040,73.927715,OZONE,2,91,67
India,Maharashtra,Pune,"Savitribai Phule Pune University, Pune - MPCB",08-06-2024 21:00:00,18.547056,73.826908,PM10,40,94,68
India,Maharashtra,Pune,"Savitribai Phule Pune University, Pune - MPCB",08-06-2024 21:00:00,18.547056,73.826908,OZONE,6,99,67
India,Maharashtra,Pune,"Transport Nagar-Nigdi, Pune - IITM",08-06-2024 21:00:00,18.664282,73.763966,PM2.5,NA,NA,NA
India,Maharashtra,Sangli,"Vijay Nagar, Sangli - MPCB",08-06-2024 21:00:00, 16.5038,74.3623,PM10,19,62,35
India,Maharashtra,Sangli,"Vijay Nagar, Sangli - MPCB",08-06-2024 21:00:00, 16.5038,74.3623,SO2,2,10,5
India,Maharashtra,Solapur,"Ratandeep Housing Society, Solapur - MPCB",08-06-2024 21:00:00,17.65439,75.90649,NH3,13,14,14
India,Maharashtra,Solapur,"Solapur, Solapur - MPCB",08-06-2024 21:00:00,17.6599188,75.9063906,NO2,54,55,55
India,Maharashtra,Thane,"Kasarvadavali, Thane - MPCB",08-06-2024 21:00:00,19.26777,72.97182,NO2,2,24,14
India,Maharashtra,Thane,"Upvan Fort, Thane - MPCB",08-06-2024 21:00:00,19.222279,72.957979,SO2,3,7,5
India,Maharashtra,Ulhasnagar,"Sidhi Vinayak Nagar, Ulhasnagar - MPCB",08-06-2024 21:00:00,19.235581,73.159121,CO,18,41,25
India,Mizoram,Aizawl,"Sikulpuikawn, Aizawl - Mizoram PCB",08-06-2024 21:00:00,23.7176342,92.7192841,NH3,1,2,1
India,Nagaland,Kohima,"PWD Juction, Kohima - NPCB",08-06-2024 21:00:00,25.6635413,94.0989878,NH3,1,1,1
India,Odisha,Balasore,"Kalidaspur, Balasore - OSPCB",08-06-2024 21:00:00,21.51161,86.89088,NH3,NA,NA,NA
India,Odisha,Barbil,"Forest Office, Barbil - OSPCB",08-06-2024 21:00:00,22.1166054,85.3945546,PM2.5,32,123,69
India,Odisha,Baripada,"Meher Colony, Baripada - OSPCB",08-06-2024 21:00:00,21.941841,86.728318,PM2.5,NA,NA,NA
India,Odisha,Baripada,"Meher Colony, Baripada - OSPCB",08-06-2024 21:00:00,21.941841,86.728318,PM10,NA,NA,NA
India,Odisha,Baripada,"Meher Colony, Baripada - OSPCB",08-06-2024 21:00:00,21.941841,86.728318,OZONE,NA,NA,NA
India,Odisha,Bhubaneswar,"Lingraj Mandir, Bhubaneswar - OSPCB",08-06-2024 21:00:00,20.240790,85.836784,PM2.5,7,40,26
India,Odisha,Bhubaneswar,"Lingraj Mandir, Bhubaneswar - OSPCB",08-06-2024 21:00:00,20.240790,85.836784,SO2,2,11,7
India,Odisha,Bileipada,"Tata Township, Bileipada - OSPCB",08-06-2024 21:00:00,22.06156703,85.47409613,PM10,109,181,132
India,Odisha,Bileipada,"Tata Township, Bileipada - OSPCB",08-06-2024 21:00:00,22.06156703,85.47409613,SO2,36,101,51
India,Odisha,Bileipada,"Tata Township, Bileipada - OSPCB",08-06-2024 21:00:00,22.06156703,85.47409613,CO,14,40,20
India,Odisha,Byasanagar,"Ferro Chrome Colony, Byasanagar - OSPCB",08-06-2024 21:00:00,20.94185,86.11510,PM10,NA,NA,NA
India,Odisha,Byasanagar,"Ferro Chrome Colony, Byasanagar - OSPCB",08-06-2024 21:00:00,20.94185,86.11510,NO2,NA,NA,NA
India,Odisha,Cuttack,"CDA Area, Cuttack - OSPCB",08-06-2024 21:00:00,20.48891     ,85.84768     ,OZONE,21,94,68
India,Odisha,Keonjhar,"Jagamohanpur, Keonjhar - OSPCB",08-06-2024 21:00:00,21.643900,85.599355,SO2,8,34,18
India,Odisha,Keonjhar,"Jagamohanpur, Keonjhar - OSPCB",08-06-2024 21:00:00,21.643900,85.599355,OZONE,1,49,30
India,Odisha,Nayagarh,"Dabuna, Nayagarh - OSPCB",08-06-2024 21:00:00,21.847279,85.416905,PM10,NA,NA,NA
India,Odisha,Nayagarh,"Dabuna, Nayagarh - OSPCB",08-06-2024 21:00:00,21.847279,85.416905,NO2,NA,NA,NA
India,Odisha,Nayagarh,"Dabuna, Nayagarh - OSPCB",08-06-2024 21:00:00,21.847279,85.416905,SO2,NA,NA,NA
India,Odisha,Nayagarh,"Dabuna, Nayagarh - OSPCB",08-06-2024 21:00:00,21.847279,85.416905,OZONE,NA,NA,NA
India,Odisha,Rairangpur,"Divisional Forest Office, Rairangpur - OSPCB",08-06-2024 21:00:00,22.265816,86.174829,NO2,2,3,2
India,Odisha,Rairangpur,"Divisional Forest Office, Rairangpur - OSPCB",08-06-2024 21:00:00,22.265816,86.174829,SO2,14,19,16
India,Odisha,Rourkela,"Raghunathpali, Rourkela - OSPCB",08-06-2024 21:00:00,22.220833,84.809444,NO2,NA,NA,NA
India,Odisha,Rourkela,"Sector-2, Rourkela - OSPCB",08-06-2024 21:00:00,22.24500000,84.88111111,PM2.5,1,179,64
India,Odisha,Suakati,"OMC Colony, Suakati - OSPCB",08-06-2024 21:00:00,21.606865,85.510538,PM10,47,90,71
India,Odisha,Talcher,"Talcher Coalfields,Talcher - OSPCB",08-06-2024 21:00:00,20.9360711,85.1707021,NH3,3,4,3
India,Odisha,Talcher,"Talcher Coalfields,Talcher - OSPCB",08-06-2024 21:00:00,20.9360711,85.1707021,OZONE,23,28,25
India,Odisha,Tensa,"Barsua Iron Ore Mines, Tensa - OSPCB",08-06-2024 21:00:00,21.869985,85.167016,NO2,7,47,22
India,Odisha,Tensa,"Barsua Iron Ore Mines, Tensa - OSPCB",08-06-2024 21:00:00,21.869985,85.167016,SO2,NA,NA,NA
India,Punjab,Amritsar,"Golden Temple, Amritsar - PPCB",08-06-2024 21:00:00,31.620000,74.876512,PM10,84,123,105
India,Punjab,Amritsar,"Golden Temple, Amritsar - PPCB",08-06-2024 21:00:00,31.620000,74.876512,NH3,5,7,6
India,Punjab,Amritsar,"Golden Temple, Amritsar - PPCB",08-06-2024 21:00:00,31.620000,74.876512,OZONE,47,66,55
India,Punjab,Bathinda,"Hardev Nagar, Bathinda - PPCB",08-06-2024 21:00:00,30.233011,74.907758,CO,5,121,56
India,Punjab,Khanna,"Kalal Majra, Khanna - PPCB",08-06-2024 21:00:00,30.736056 ,76.209694,NH3,12,12,12
India,Punjab,Ludhiana,"Punjab Agricultural University, Ludhiana - PPCB",08-06-2024 21:00:00,30.9028,75.8086,NO2,17,18,18
India,Punjab,Ludhiana,"Punjab Agricultural University, Ludhiana - PPCB",08-06-2024 21:00:00,30.9028,75.8086,NH3,3,4,3
India,Punjab,Ludhiana,"Punjab Agricultural University, Ludhiana - PPCB",08-06-2024 21:00:00,30.9028,75.8086,CO,12,67,42
India,Punjab,Mandi Gobindgarh,"RIMT University, Mandi Gobindgarh - PPCB",08-06-2024 21:00:00,30.649961,76.331442,PM2.5,84,407,287
India,Punjab,Mandi Gobindgarh,"RIMT University, Mandi Gobindgarh - PPCB",08-06-2024 21:00:00,30.649961,76.331442,OZONE,25,27,26
India,Punjab,Patiala,"Model Town, Patiala - PPCB",08-06-2024 21:00:00,30.349388,76.366642,PM2.5,76,122,103
India,Punjab,Patiala,"Model Town, Patiala - PPCB",08-06-2024 21:00:00,30.349388,76.366642,NO2,21,27,24
India,Punjab,Patiala,"Model Town, Patiala - PPCB",08-06-2024 21:00:00,30.349388,76.366642,OZONE,33,115,87
India,Punjab,Rupnagar,"Ratanpura, Rupnagar - Ambuja Cements",08-06-2024 21:00:00,31.0325454,76.5623046,SO2,7,7,7
India,Rajasthan,Banswara,"Rati Talai, Banswara - RSPCB",08-06-2024 21:00:00,23.555190,74.440010,NH3,2,9,4
India,Rajasthan,Barmer,"Railway Colony, Barmer - RSPCB",08-06-2024 21:00:00,25.747299,71.393989,PM2.5,29,81,51
India,Rajasthan,Barmer,"Railway Colony, Barmer - RSPCB",08-06-2024 21:00:00,25.747299,71.393989,SO2,3,10,6
India,Rajasthan,Barmer,"Railway Colony, Barmer - RSPCB",08-06-2024 21:00:00,25.747299,71.393989,OZONE,16,84,80
India,Rajasthan,Bharatpur,"Krishna Nagar, Bharatpur - RSPCB",08-06-2024 21:00:00,27.215415,77.50873,NH3,1,2,1
India,Rajasthan,Bharatpur,"Krishna Nagar, Bharatpur - RSPCB",08-06-2024 21:00:00,27.215415,77.50873,CO,5,65,19
India,Rajasthan,Bhilwara,"Pratap Nagar, Bhilwara - RSPCB",08-06-2024 21:00:00,25.339605,74.618883,SO2,NA,NA,NA
India,Rajasthan,Bhilwara,"Pratap Nagar, Bhilwara - RSPCB",08-06-2024 21:00:00,25.339605,74.618883,OZONE,34,102,80
India,Rajasthan,Bhiwadi,"Vasundhara Nagar_UIT, Bhiwadi - RSPCB",08-06-2024 21:00:00,28.207266,76.829265,NH3,7,13,11
India,Rajasthan,Bhiwadi,"Vasundhara Nagar_UIT, Bhiwadi - RSPCB",08-06-2024 21:00:00,28.207266,76.829265,OZONE,21,87,80
India,Rajasthan,Bundi,"New Colony, Bundi - RSPCB",08-06-2024 21:00:00,25.435774,75.644272,PM2.5,8,322,57
India,Rajasthan,Bundi,"New Colony, Bundi - RSPCB",08-06-2024 21:00:00,25.435774,75.644272,NO2,6,20,11
India,Rajasthan,Dausa,"Khatikan Mohalla, Dausa - RSPCB",08-06-2024 21:00:00,26.895552,76.334753,PM2.5,47,346,135
India,Rajasthan,Dausa,"Khatikan Mohalla, Dausa - RSPCB",08-06-2024 21:00:00,26.895552,76.334753,NH3,6,14,8
India,Rajasthan,Dholpur,"Raja Ganj, Dholpur - RSPCB",08-06-2024 21:00:00,26.699557,77.898881,SO2,2,34,9
India,Rajasthan,Jaipur,"RIICO Sitapura, Jaipur - RSPCB",08-06-2024 21:00:00,26.786682,75.827928,PM10,77,500,279
India,Rajasthan,Jaipur,"Sector-2 Murlipura, Jaipur - RSPCB",08-06-2024 21:00:00,26.960669,75.771817,PM10,74,427,164
India,Rajasthan,Jaipur,"Sector-2 Murlipura, Jaipur - RSPCB",08-06-2024 21:00:00,26.960669,75.771817,SO2,5,38,9
India,Rajasthan,Jaipur,"Sector-2 Murlipura, Jaipur - RSPCB",08-06-2024 21:00:00,26.960669,75.771817,CO,20,77,36
India,Rajasthan,Jaipur,"Shastri Nagar, Jaipur - RSPCB",08-06-2024 21:00:00,26.9502929,75.730943,NO2,11,66,31
India,Rajasthan,Jaisalmer,"Sadar Bazar, Jaisalmer - RSPCB",08-06-2024 21:00:00,26.912329,70.909168,PM2.5,9,382,52
India,Rajasthan,Jalore,"Mudtra Sili, Jalore - RSPCB",08-06-2024 21:00:00,25.344694,72.626208,NO2,3,28,10
India,Rajasthan,Jalore,"Mudtra Sili, Jalore - RSPCB",08-06-2024 21:00:00,25.344694,72.626208,NH3,3,7,5
India,Rajasthan,Jalore,"Mudtra Sili, Jalore - RSPCB",08-06-2024 21:00:00,25.344694,72.626208,OZONE,38,93,76
India,Rajasthan,Jhalawar,"Rajlaxmi Nagar, Jhalawar - RSPCB",08-06-2024 21:00:00,24.588397,76.172782,PM2.5,20,59,35
India,Rajasthan,Jhalawar,"Rajlaxmi Nagar, Jhalawar - RSPCB",08-06-2024 21:00:00,24.588397,76.172782,NH3,2,6,2
India,Rajasthan,Jhalawar,"Rajlaxmi Nagar, Jhalawar - RSPCB",08-06-2024 21:00:00,24.588397,76.172782,CO,12,28,18
India,Rajasthan,Jhunjhunu,"Indra Nagar, Jhunjhunu - RSPCB",08-06-2024 21:00:00,28.108988,75.386577,PM2.5,59,500,190
India,Rajasthan,Jhunjhunu,"Indra Nagar, Jhunjhunu - RSPCB",08-06-2024 21:00:00,28.108988,75.386577,NH3,20,32,27
India,Rajasthan,Jodhpur,"Collectorate, Jodhpur - RSPCB",08-06-2024 21:00:00,26.268249,73.0193853,PM10,86,500,196
India,Rajasthan,Jodhpur,"Mandor, Jodhpur - RSPCB",08-06-2024 21:00:00,26.358805,73.047444,SO2,2,5,4
India,Rajasthan,Jodhpur,"Samrat Ashok Udhyan, Jodhpur - RSPCB",08-06-2024 21:00:00,26.253384,72.976571,NO2,1,14,6
India,Rajasthan,Jodhpur,"Samrat Ashok Udhyan, Jodhpur - RSPCB",08-06-2024 21:00:00,26.253384,72.976571,OZONE,62,92,81
India,Rajasthan,Karauli,"Satyawati Vihar, Karauli - RSPCB",08-06-2024 21:00:00,26.506177,77.025989,NO2,5,20,9
India,Rajasthan,Karauli,"Satyawati Vihar, Karauli - RSPCB",08-06-2024 21:00:00,26.506177,77.025989,OZONE,38,145,117
India,Rajasthan,Kota,"Dhanmandi, Kota - RSPCB",08-06-2024 21:00:00,25.164090,75.858137,NH3,4,12,8
India,Rajasthan,Kota,"Dhanmandi, Kota - RSPCB",08-06-2024 21:00:00,25.164090,75.858137,OZONE,39,128,64
India,Rajasthan,Kota,"Nayapura, Kota - RSPCB",08-06-2024 21:00:00,25.196024,75.855668,PM2.5,19,141,43
India,Rajasthan,Kota,"Nayapura, Kota - RSPCB",08-06-2024 21:00:00,25.196024,75.855668,SO2,5,15,9
India,Rajasthan,Kota,"Nayapura, Kota - RSPCB",08-06-2024 21:00:00,25.196024,75.855668,CO,10,69,21
India,Rajasthan,Kota,"Nayapura, Kota - RSPCB",08-06-2024 21:00:00,25.196024,75.855668,OZONE,31,103,87
India,Rajasthan,Kota,"Shrinath Puram, Kota - RSPCB",08-06-2024 21:00:00,25.14389,75.821256,PM2.5,55,171,91
India,Rajasthan,Kota,"Shrinath Puram, Kota - RSPCB",08-06-2024 21:00:00,25.14389,75.821256,NH3,4,7,5
India,Rajasthan,Nagaur,"Karni Colony, Nagaur - RSPCB",08-06-2024 21:00:00,27.213494,73.734444,PM2.5,NA,NA,NA
India,Rajasthan,Nagaur,"Karni Colony, Nagaur - RSPCB",08-06-2024 21:00:00,27.213494,73.734444,CO,32,61,49
India,Rajasthan,Nagaur,"Karni Colony, Nagaur - RSPCB",08-06-2024 21:00:00,27.213494,73.734444,OZONE,52,71,62
India,Rajasthan,Pali,"Indira Colony Vistar, Pali - RSPCB",08-06-2024 21:00:00,25.771061, 73.340227,PM2.5,84,394,210
India,Rajasthan,Pali,"Indira Colony Vistar, Pali - RSPCB",08-06-2024 21:00:00,25.771061, 73.340227,NO2,22,41,32
India,Rajasthan,Pratapgarh,"Pragati Nagar, Pratapgarh - RSPCB",08-06-2024 21:00:00,24.041198,74.780702,SO2,1,4,2
India,Rajasthan,Rajsamand,"Dhoinda, Rajsamand - RSPCB",08-06-2024 21:00:00,25.036360,73.883502,SO2,1,6,3
India,Rajasthan,Sikar,"Radhakishan Pura, Sikar - RSPCB",08-06-2024 21:00:00,27.608912,75.153302,PM2.5,42,389,131
India,Rajasthan,Sirohi,"Vedhaynath Colony, Sirohi - RSPCB",08-06-2024 21:00:00,24.885261,72.857549,PM10,50,469,185
India,Rajasthan,Sirohi,"Vedhaynath Colony, Sirohi - RSPCB",08-06-2024 21:00:00,24.885261,72.857549,SO2,2,17,9
India,Rajasthan,Sri Ganganagar,"Old City, Sri Ganganagar - RSPCB",08-06-2024 21:00:00,29.931624,73.864511,CO,2,72,29
India,Rajasthan,Tonk,"Shastri Nagar, Tonk - RSPCB",08-06-2024 21:00:00,26.159933,75.780517,OZONE,4,150,71
India,Rajasthan,Udaipur,"Ashok Nagar, Udaipur - RSPCB",08-06-2024 21:00:00,24.5886166,73.6321397,PM2.5,28,190,89
India,TamilNadu,Chennai,"Alandur Bus Depot, Chennai - CPCB",08-06-2024 21:00:00,12.9099161,80.1076538,PM2.5,23,23,23
India,TamilNadu,Chennai,"Alandur Bus Depot, Chennai - CPCB",08-06-2024 21:00:00,12.9099161,80.1076538,NH3,5,12,7
India,TamilNadu,Chennai,"Arumbakkam, Chennai - TNPCB",08-06-2024 21:00:00,13.0664,80.2112 ,SO2,4,24,12
India,TamilNadu,Chennai,"Kodungaiyur, Chennai - TNPCB",08-06-2024 21:00:00,13.1278,80.2642,PM2.5,8,33,18
India,TamilNadu,Chennai,"Kodungaiyur, Chennai - TNPCB",08-06-2024 21:00:00,13.1278,80.2642,PM10,12,66,38
India,TamilNadu,Chennai,"Manali, Chennai - CPCB",08-06-2024 21:00:00,13.164544,80.26285,NO2,6,8,8
India,TamilNadu,Chennai,"Manali, Chennai - CPCB",08-06-2024 21:00:00,13.164544,80.26285,CO,96,113,107
India,TamilNadu,Chennai,"Royapuram, Chennai - TNPCB",08-06-2024 21:00:00,13.1036,80.2909,PM2.5,NA,NA,NA
India,TamilNadu,Chennai,"Royapuram, Chennai - TNPCB",08-06-2024 21:00:00,13.1036,80.2909,OZONE,5,12,9
India,TamilNadu,Chennai,"Velachery Res. Area, Chennai - CPCB",08-06-2024 21:00:00,13.0052189,80.2398125,SO2,9,53,23
India,TamilNadu,Ooty,"Bombay Castel, Ooty - TNPCB",08-06-2024 21:00:00,11.4068288,76.7138973,PM2.5,NA,NA,NA
India,TamilNadu,Ooty,"Bombay Castel, Ooty - TNPCB",08-06-2024 21:00:00,11.4068288,76.7138973,OZONE,NA,NA,NA
India,TamilNadu,Ramanathapuram,"Chalai Bazaar, Ramanathapuram - TNPCB",08-06-2024 21:00:00,9.36399,78.831977,PM2.5,2,22,6
India,TamilNadu,Ramanathapuram,"Chalai Bazaar, Ramanathapuram - TNPCB",08-06-2024 21:00:00,9.36399,78.831977,OZONE,13,14,14
India,TamilNadu,Salem,"Sona College of Technology, Salem - TNPCB",08-06-2024 21:00:00,11.679111,78.125052,PM2.5,3,16,9
India,TamilNadu,Thoothukudi,"Meelavittan, Thoothukudi - TNPCB",08-06-2024 21:00:00,8.816428 ,78.099039,CO,10,144,40
India,TamilNadu,Tirupur,"Kumaran College, Tirupur - TNPCB",08-06-2024 21:00:00,11.0973603,77.3228673,SO2,17,18,18
India,Telangana,Hyderabad,"ICRISAT Patancheru, Hyderabad - TSPCB",08-06-2024 21:00:00,17.518400,78.278777,NO2,5,16,9
India,Telangana,Hyderabad,"ICRISAT Patancheru, Hyderabad - TSPCB",08-06-2024 21:00:00,17.518400,78.278777,CO,14,56,26
India,Telangana,Hyderabad,"IITH Kandi, Hyderabad - TSPCB",08-06-2024 21:00:00,17.585705,78.126199,PM2.5,16,32,20
India,Telangana,Hyderabad,"Kokapet, Hyderabad - TSPCB",08-06-2024 21:00:00,17.393559,78.339194,PM10,73,88,80
India,Telangana,Hyderabad,"Kokapet, Hyderabad - TSPCB",08-06-2024 21:00:00,17.393559,78.339194,NH3,1,4,3
India,Telangana,Hyderabad,"Kokapet, Hyderabad - TSPCB",08-06-2024 21:00:00,17.393559,78.339194,OZONE,1,2,1
India,Telangana,Hyderabad,"Nacharam_TSIIC IALA, Hyderabad - TSPCB",08-06-2024 21:00:00,17.429398,78.569354,CO,25,43,36
India,Telangana,Hyderabad,"Somajiguda, Hyderabad - TSPCB",08-06-2024 21:00:00,17.417094,78.457437,PM10,62,74,65
India,Tripura,Agartala,"Bardowali, Agartala - Tripura SPCB",08-06-2024 21:00:00,23.8175497,91.2726974,NH3,1,1,1
India,Uttar_Pradesh,Agra,"Manoharpur, Agra - UPPCB",08-06-2024 21:00:00,27.23711,78.01936,PM2.5,29,102,54
India,Uttar_Pradesh,Agra,"Manoharpur, Agra - UPPCB",08-06-2024 21:00:00,27.23711,78.01936,NO2,38,38,38
India,Uttar_Pradesh,Agra,"Rohta, Agra - UPPCB",08-06-2024 21:00:00,27.106972,78.000111,NO2,5,7,7
India,Uttar_Pradesh,Agra,"Rohta, Agra - UPPCB",08-06-2024 21:00:00,27.106972,78.000111,NH3,2,3,3
India,Uttar_Pradesh,Agra,"Rohta, Agra - UPPCB",08-06-2024 21:00:00,27.106972,78.000111,OZONE,16,18,17
India,Uttar_Pradesh,Agra,"Sanjay Palace, Agra - UPPCB",08-06-2024 21:00:00,27.19865833,78.00598056,PM10,29,66,46
India,Uttar_Pradesh,Agra,"Sanjay Palace, Agra - UPPCB",08-06-2024 21:00:00,27.19865833,78.00598056,OZONE,19,45,27
India,Uttar_Pradesh,Agra,"Sector-3B Avas Vikas Colony, Agra - UPPCB",08-06-2024 21:00:00,27.19412,77.96237,OZONE,11,16,14
India,Uttar_Pradesh,Agra,"Shahjahan Garden, Agra - UPPCB",08-06-2024 21:00:00,27.169338,78.03582,PM2.5,35,104,58
India,Uttar_Pradesh,Agra,"Shastripuram, Agra - UPPCB",08-06-2024 21:00:00,27.19862,77.92066,OZONE,1,14,12
India,Uttar_Pradesh,Baghpat,"Sardar Patel Inter College, Baghpat - UPPCB",08-06-2024 21:00:00,28.964949,77.278761,CO,44,84,58
India,Uttar_Pradesh,Baghpat,"Sardar Patel Inter College, Baghpat - UPPCB",08-06-2024 21:00:00,28.964949,77.278761,OZONE,13,57,44
India,Uttar_Pradesh,Bareilly,"Civil Lines, Bareilly - UPPCB",08-06-2024 21:00:00,28.359581,79.414455,PM10,20,38,27
India,Uttar_Pradesh,Bareilly,"Civil Lines, Bareilly - UPPCB",08-06-2024 21:00:00,28.359581,79.414455,SO2,15,18,16
India,Uttar_Pradesh,Bareilly,"Civil Lines, Bareilly - UPPCB",08-06-2024 21:00:00,28.359581,79.414455,CO,3,32,11
India,Uttar_Pradesh,Bareilly,"Rajendra Nagar, Bareilly - UPPCB",08-06-2024 21:00:00,28.38910936,79.42963708,PM10,58,104,86
India,Uttar_Pradesh,Bulandshahr,"Yamunapuram, Bulandshahr - UPPCB",08-06-2024 21:00:00,28.406963,77.849831,PM2.5,33,90,60
India,Uttar_Pradesh,Bulandshahr,"Yamunapuram, Bulandshahr - UPPCB",08-06-2024 21:00:00,28.406963,77.849831,CO,21,46,32
India,Uttar_Pradesh,Firozabad,"Nagla Bhau, Firozabad - UPPCB",08-06-2024 21:00:00,27.168897,78.376960,NH3,2,2,2
India,Uttar_Pradesh,Firozabad,"Nagla Bhau, Firozabad - UPPCB",08-06-2024 21:00:00,27.168897,78.376960,SO2,18,57,32
India,Uttar_Pradesh,Ghaziabad,"Indirapuram, Ghaziabad - UPPCB",08-06-2024 21:00:00,28.646233,77.358075,SO2,11,23,16
India,Uttar_Pradesh,Ghaziabad,"Sanjay Nagar, Ghaziabad - UPPCB",08-06-2024 21:00:00,28.685382,77.453839,NH3,8,14,11
India,Uttar_Pradesh,Ghaziabad,"Sanjay Nagar, Ghaziabad - UPPCB",08-06-2024 21:00:00,28.685382,77.453839,OZONE,3,156,109
India,Uttar_Pradesh,Ghaziabad,"Vasundhara, Ghaziabad - UPPCB",08-06-2024 21:00:00,28.6603346,77.3572563,PM10,108,234,152
India,Uttar_Pradesh,Ghaziabad,"Vasundhara, Ghaziabad - UPPCB",08-06-2024 21:00:00,28.6603346,77.3572563,NO2,30,79,43
India,Uttar_Pradesh,Ghaziabad,"Vasundhara, Ghaziabad - UPPCB",08-06-2024 21:00:00,28.6603346,77.3572563,SO2,1,31,13
India,Uttar_Pradesh,Gorakhpur,"Madan Mohan Malaviya University of Technology, Gorakhpur - UPPCB",08-06-2024 21:00:00,26.730136,83.433859,OZONE,10,11,10
India,Uttar_Pradesh,Greater Noida,"Knowledge Park - V, Greater Noida - UPPCB",08-06-2024 21:00:00,28.557054,77.453663,SO2,8,17,13
India,Uttar_Pradesh,Hapur,"Anand Vihar, Hapur - UPPCB",08-06-2024 21:00:00,28.725645,77.749675,SO2,7,39,21
India,Uttar_Pradesh,Jhansi,"Shivaji Nagar, Jhansi - UPPCB",08-06-2024 21:00:00,25.4547,78.6039,PM10,NA,NA,NA
India,Uttar_Pradesh,Jhansi,"Shivaji Nagar, Jhansi - UPPCB",08-06-2024 21:00:00,25.4547,78.6039,NO2,11,46,20
India,Uttar_Pradesh,Jhansi,"Shivaji Nagar, Jhansi - UPPCB",08-06-2024 21:00:00,25.4547,78.6039,SO2,16,24,18
India,Uttar_Pradesh,Jhansi,"Shivaji Nagar, Jhansi - UPPCB",08-06-2024 21:00:00,25.4547,78.6039,CO,7,44,12
India,Uttar_Pradesh,Kanpur,"FTI Kidwai Nagar, Kanpur - UPPCB",08-06-2024 21:00:00,26.428282,80.327067,NH3,2,4,3
India,Uttar_Pradesh,Kanpur,"Nehru Nagar, Kanpur - UPPCB",08-06-2024 21:00:00,26.4703136,80.3229863,SO2,3,13,9
India,Uttar_Pradesh,Lucknow,"Kendriya Vidyalaya, Lucknow - CPCB",08-06-2024 21:00:00,26.906111,80.948222,NO2,12,30,18
India,Uttar_Pradesh,Lucknow,"Kendriya Vidyalaya, Lucknow - CPCB",08-06-2024 21:00:00,26.906111,80.948222,SO2,6,10,8
India,Uttar_Pradesh,Lucknow,"Kukrail Picnic Spot-1, Lucknow - UPPCB",08-06-2024 21:00:00,26.90723,80.98579,PM10,104,139,116
India,Uttar_Pradesh,Lucknow,"Kukrail Picnic Spot-1, Lucknow - UPPCB",08-06-2024 21:00:00,26.90723,80.98579,CO,13,24,15
India,Uttar_Pradesh,Lucknow,"Lalbagh, Lucknow - CPCB",08-06-2024 21:00:00,26.8458805,80.9365541,NH3,16,17,17
India,Uttar_Pradesh,Lucknow,"Talkatora District Industries Center, Lucknow - CPCB",08-06-2024 21:00:00,26.83399722,80.8917361,PM2.5,153,263,209
India,Uttar_Pradesh,Meerut,"Ganga Nagar, Meerut - UPPCB",08-06-2024 21:00:00,28.999264,77.7590354,OZONE,28,84,69
India,Uttar_Pradesh,Moradabad,"Buddhi Vihar, Moradabad - UPPCB",08-06-2024 21:00:00,28.83526,78.74460,PM10,43,165,125
India,Uttar_Pradesh,Moradabad,"Buddhi Vihar, Moradabad - UPPCB",08-06-2024 21:00:00,28.83526,78.74460,NO2,23,23,23
India,Uttar_Pradesh,Moradabad,"Eco Herbal Park, Moradabad - UPPCB",08-06-2024 21:00:00,28.840739,78.697531,NO2,10,39,22
India,Uttar_Pradesh,Moradabad,"Employment Office, Moradabad - UPPCB",08-06-2024 21:00:00,28.88528,78.73880,NH3,3,4,4
India,Uttar_Pradesh,Moradabad,"Jigar Colony, Moradabad - UPPCB",08-06-2024 21:00:00,28.856664,78.772638,OZONE,12,27,19
India,Uttar_Pradesh,Moradabad,"Kashiram Nagar, Moradabad - UPPCB",08-06-2024 21:00:00,28.849399,78.742362,NH3,4,4,4
India,Uttar_Pradesh,Moradabad,"Transport Nagar, Moradabad - UPPCB",08-06-2024 21:00:00,28.802625,78.753728,SO2,65,91,80
India,Uttar_Pradesh,Muzaffarnagar,"New Mandi, Muzaffarnagar - UPPCB",08-06-2024 21:00:00,29.4723508,77.7194031,PM10,178,237,199
India,Uttar_Pradesh,Noida,"Sector - 125, Noida - UPPCB",08-06-2024 21:00:00,28.5447608,77.3231257,NO2,9,79,38
India,Uttar_Pradesh,Noida,"Sector - 125, Noida - UPPCB",08-06-2024 21:00:00,28.5447608,77.3231257,NH3,1,7,5
India,Uttar_Pradesh,Noida,"Sector - 62, Noida - IMD",08-06-2024 21:00:00,28.6245479,77.3577104,NO2,7,20,10
India,Uttar_Pradesh,Noida,"Sector - 62, Noida - IMD",08-06-2024 21:00:00,28.6245479,77.3577104,OZONE,8,53,42
India,Uttar_Pradesh,Noida,"Sector-1, Noida - UPPCB",08-06-2024 21:00:00,28.5898,77.3101,NO2,17,106,49
India,Uttar_Pradesh,Prayagraj,"Jhunsi, Prayagraj - UPPCB",08-06-2024 21:00:00,25.425602,81.917152,PM2.5,44,119,63
India,Uttar_Pradesh,Prayagraj,"Motilal Nehru NIT, Prayagraj - UPPCB",08-06-2024 21:00:00,25.494,81.863,NO2,11,12,12
India,Uttar_Pradesh,Prayagraj,"Nagar Nigam, Prayagraj - UPPCB",08-06-2024 21:00:00,25.44919916 ,81.82735986 ,NO2,5,5,5
India,Uttar_Pradesh,Prayagraj,"Nagar Nigam, Prayagraj - UPPCB",08-06-2024 21:00:00,25.44919916 ,81.82735986 ,SO2,1,106,28
India,Uttar_Pradesh,Varanasi,"Ardhali Bazar, Varanasi - UPPCB",08-06-2024 21:00:00,25.3505986,82.9083074,PM2.5,21,65,44
India,Uttar_Pradesh,Varanasi,"Ardhali Bazar, Varanasi - UPPCB",08-06-2024 21:00:00,25.3505986,82.9083074,SO2,44,62,53
India,Uttar_Pradesh,Varanasi,"Bhelupur, Varanasi - UPPCB",08-06-2024 21:00:00,25.301778,82.996789,NO2,8,8,8
India,Uttar_Pradesh,Varanasi,"Bhelupur, Varanasi - UPPCB",08-06-2024 21:00:00,25.301778,82.996789,SO2,31,32,32
India,Uttar_Pradesh,Vrindavan,"Omex Eternity, Vrindavan - UPPCB",08-06-2024 21:00:00,27.5714090,77.6557570,NO2,12,12,12
India,Uttar_Pradesh,Vrindavan,"Omex Eternity, Vrindavan - UPPCB",08-06-2024 21:00:00,27.5714090,77.6557570,NH3,1,3,2
India,Uttar_Pradesh,Vrindavan,"Omex Eternity, Vrindavan - UPPCB",08-06-2024 21:00:00,27.5714090,77.6557570,OZONE,20,25,21
India,Uttarakhand,Dehradun,"Doon University, Dehradun - UKPCB",08-06-2024 21:00:00,30.269444,78.044167,NO2,1,10,3
India,Uttarakhand,Kashipur,"Govt. Girls Inter College, Kashipur - UKPCB",08-06-2024 21:00:00,29.2124114,78.9611753,OZONE,22,132,92
India,Uttarakhand,Rishikesh,"Shivaji Nagar, Rishikesh - UKPCB",08-06-2024 21:00:00,30.075911,78.2859547,PM10,68,109,90
India,Uttarakhand,Rishikesh,"Shivaji Nagar, Rishikesh - UKPCB",08-06-2024 21:00:00,30.075911,78.2859547,SO2,3,5,4
India,West_Bengal,Asansol,"Asansol Court Area, Asansol - WBPCB",08-06-2024 21:00:00,23.685297,86.945968,PM2.5,144,318,230
India,West_Bengal,Asansol,"Asansol Court Area, Asansol - WBPCB",08-06-2024 21:00:00,23.685297,86.945968,NH3,11,15,12
India,West_Bengal,Asansol,"Asansol Court Area, Asansol - WBPCB",08-06-2024 21:00:00,23.685297,86.945968,SO2,11,23,13
India,West_Bengal,Asansol,"Asansol Court Area, Asansol - WBPCB",08-06-2024 21:00:00,23.685297,86.945968,CO,10,64,42
India,West_Bengal,Asansol,"Asansol Court Area, Asansol - WBPCB",08-06-2024 21:00:00,23.685297,86.945968,OZONE,32,91,60
India,West_Bengal,Asansol,"Evelyn Lodge, Asansol - WBPCB",08-06-2024 21:00:00,23.6979360,86.9443950,PM10,103,177,132
India,West_Bengal,Barrackpore,"SVSPA Campus, Barrackpore - WBPCB",08-06-2024 21:00:00,22.7605581,88.3617589,PM10,64,111,78
India,West_Bengal,Durgapur,"PCBL Residential Complex, Durgapur - WBPCB",08-06-2024 21:00:00,23.5087640,87.3544400,PM2.5,NA,NA,NA
India,West_Bengal,Durgapur,"PCBL Residential Complex, Durgapur - WBPCB",08-06-2024 21:00:00,23.5087640,87.3544400,PM10,NA,NA,NA
India,West_Bengal,Durgapur,"Sidhu Kanhu Indoor Stadium, Durgapur - WBPCB",08-06-2024 21:00:00,23.5404352,87.2892225,PM10,124,199,155
India,West_Bengal,Howrah,"Belur Math, Howrah - WBPCB",08-06-2024 21:00:00,22.629801,88.352017,NO2,7,29,13
India,West_Bengal,Howrah,"Ghusuri, Howrah - WBPCB",08-06-2024 21:00:00,22.611968,88.347422,NH3,3,11,9
India,West_Bengal,Howrah,"Ghusuri, Howrah - WBPCB",08-06-2024 21:00:00,22.611968,88.347422,OZONE,19,45,29
India,West_Bengal,Howrah,"Padmapukur, Howrah - WBPCB",08-06-2024 21:00:00,22.5687319,88.2797276,PM2.5,44,95,69
India,West_Bengal,Kolkata,"Ballygunge, Kolkata - WBPCB",08-06-2024 21:00:00,22.5367507,88.3638022,NO2,12,20,16
India,West_Bengal,Kolkata,"Fort William, Kolkata - WBPCB",08-06-2024 21:00:00,22.556640,88.342674,PM2.5,55,81,71
India,West_Bengal,Kolkata,"Rabindra Bharati University, Kolkata - WBPCB",08-06-2024 21:00:00,22.627847,88.380669,OZONE,12,71,32
India,West_Bengal,Kolkata,"Victoria, Kolkata - WBPCB",08-06-2024 21:00:00,22.5448082,88.3403691,SO2,6,8,7
India,West_Bengal,Siliguri,"Ward-32 Bapupara, Siliguri - WBPCB",08-06-2024 21:00:00,26.6879226,88.4152495,PM10,44,70,56
India,Andhra_Pradesh,Amaravati,"Secretariat, Amaravati - APPCB",08-06-2024 21:00:00,16.5150833,80.5181667,PM2.5,8,25,14
India,Andhra_Pradesh,Amaravati,"Secretariat, Amaravati - APPCB",08-06-2024 21:00:00,16.5150833,80.5181667,NH3,3,4,4
India,Andhra_Pradesh,Anantapur,"Gulzarpet, Anantapur - APPCB",08-06-2024 21:00:00,14.675886,77.593027,NO2,12,13,12
India,Andhra_Pradesh,Anantapur,"Gulzarpet, Anantapur - APPCB",08-06-2024 21:00:00,14.675886,77.593027,NH3,4,4,4
India,Andhra_Pradesh,Anantapur,"Gulzarpet, Anantapur - APPCB",08-06-2024 21:00:00,14.675886,77.593027,SO2,2,5,4
India,Andhra_Pradesh,Anantapur,"Gulzarpet, Anantapur - APPCB",08-06-2024 21:00:00,14.675886,77.593027,CO,10,30,19
India,Andhra_Pradesh,Kadapa,"Yerramukkapalli, Kadapa - APPCB",08-06-2024 21:00:00,14.465052,78.824187,PM2.5,32,32,32
India,Andhra_Pradesh,Rajamahendravaram,"Anand Kala Kshetram, Rajamahendravaram - APPCB",08-06-2024 21:00:00,16.9872867,81.7363176,OZONE,35,50,42
India,Andhra_Pradesh,Tirupati,"Tirumala, Tirupati - APPCB",08-06-2024 21:00:00,13.67,79.35,PM10,11,56,27
India,Andhra_Pradesh,Tirupati,"Vaikuntapuram, Tirupati - APPCB",08-06-2024 21:00:00,13.615387,79.409230,CO,10,16,12
India,Andhra_Pradesh,Vijayawada,"HB Colony, Vijayawada - APPCB",08-06-2024 21:00:00,16.536107,80.594233,PM2.5,36,86,48
India,Andhra_Pradesh,Vijayawada,"HB Colony, Vijayawada - APPCB",08-06-2024 21:00:00,16.536107,80.594233,NO2,12,19,14
India,Andhra_Pradesh,Vijayawada,"Kanuru, Vijayawada - APPCB",08-06-2024 21:00:00,16.486692,80.699436,CO,36,36,36
India,Andhra_Pradesh,Vijayawada,"Rajiv Gandhi Park, Vijayawada - APPCB",08-06-2024 21:00:00,16.509717,80.612222,PM10,39,57,46
India,Andhra_Pradesh,Vijayawada,"Rajiv Gandhi Park, Vijayawada - APPCB",08-06-2024 21:00:00,16.509717,80.612222,CO,36,40,36
India,Andhra_Pradesh,Vijayawada,"Rajiv Nagar, Vijayawada - APPCB",08-06-2024 21:00:00,16.554731,80.649110,PM10,53,78,56
India,Andhra_Pradesh,Vijayawada,"Rajiv Nagar, Vijayawada - APPCB",08-06-2024 21:00:00,16.554731,80.649110,CO,38,38,38
India,Andhra_Pradesh,Visakhapatnam,"GVM Corporation, Visakhapatnam - APPCB",08-06-2024 21:00:00,17.72,83.3,NH3,2,3,2
India,Arunachal_Pradesh,Naharlagun,"Naharlagun, Naharlagun - APSPCB",08-06-2024 21:00:00,27.103358,93.679645,PM10,29,81,45
India,Arunachal_Pradesh,Naharlagun,"Naharlagun, Naharlagun - APSPCB",08-06-2024 21:00:00,27.103358,93.679645,SO2,4,4,4
India,Assam,Byrnihat,"Central Academy for SFS, Byrnihat - PCBA",08-06-2024 21:00:00,26.071318,91.87488,SO2,8,62,29
India,Assam,Guwahati,"IITG, Guwahati - PCBA",08-06-2024 21:00:00,26.2028636,91.70046436,SO2,13,14,13
India,Assam,Guwahati,"LGBI Airport, Guwahati - PCBA",08-06-2024 21:00:00,26.10887,91.589544,PM10,NA,NA,NA
India,Assam,Guwahati,"Pan Bazaar, Guwahati - PCBA",08-06-2024 21:00:00,26.187500,91.744194,OZONE,16,17,17
India,Assam,Guwahati,"Railway Colony, Guwahati - PCBA",08-06-2024 21:00:00,26.181742,91.78063,PM2.5,36,206,69
India,Assam,Guwahati,"Railway Colony, Guwahati - PCBA",08-06-2024 21:00:00,26.181742,91.78063,NO2,3,3,3
India,Assam,Guwahati,"Railway Colony, Guwahati - PCBA",08-06-2024 21:00:00,26.181742,91.78063,CO,23,43,30
India,Assam,Nalbari,"Bata Chowk, Nalbari - PCBA",08-06-2024 21:00:00,26.446912,91.439057,NH3,1,1,1
India,Assam,Silchar,"Tarapur, Silchar - PCBA",08-06-2024 21:00:00,24.82827,92.79525,PM2.5,33,43,37
India,Assam,Silchar,"Tarapur, Silchar - PCBA",08-06-2024 21:00:00,24.82827,92.79525,PM10,51,73,59
India,Assam,Silchar,"Tarapur, Silchar - PCBA",08-06-2024 21:00:00,24.82827,92.79525,OZONE,1,2,1
India,Bihar,Arrah,"New DM Office, Arrah - BSPCB",08-06-2024 21:00:00,25.5626095,84.663264,PM2.5,40,82,58
India,Bihar,Arrah,"New DM Office, Arrah - BSPCB",08-06-2024 21:00:00,25.5626095,84.663264,PM10,51,141,102
India,Bihar,Arrah,"New DM Office, Arrah - BSPCB",08-06-2024 21:00:00,25.5626095,84.663264,CO,12,28,18
India,Bihar,Aurangabad,"Gurdeo Nagar, Aurangabad - BSPCB",08-06-2024 21:00:00,24.75746,84.366208,CO,12,20,17
India,Bihar,Bhagalpur,"Mayaganj, Bhagalpur - BSPCB",08-06-2024 21:00:00,25.265194,87.012947,PM2.5,NA,NA,NA
India,Bihar,Bhagalpur,"Mayaganj, Bhagalpur - BSPCB",08-06-2024 21:00:00,25.265194,87.012947,NO2,NA,NA,NA
India,Bihar,Bhagalpur,"Mayaganj, Bhagalpur - BSPCB",08-06-2024 21:00:00,25.265194,87.012947,CO,NA,NA,NA
India,Bihar,Bihar Sharif,"D M Colony, Bihar Sharif - BSPCB",08-06-2024 21:00:00,25.204762,85.514960,OZONE,24,151,151
India,Bihar,Buxar,"Charitra Van, Buxar - BSPCB (Formerly known as Central Jail)",08-06-2024 21:00:00,25.567520,83.966379,NO2,1,2,1
India,Bihar,Buxar,"Charitra Van, Buxar - BSPCB (Formerly known as Central Jail)",08-06-2024 21:00:00,25.567520,83.966379,SO2,2,5,4
India,Bihar,Chhapra,"Darshan Nagar, Chhapra - BSPCB",08-06-2024 21:00:00,25.7808257,84.7446768,OZONE,1,10,5
India,Bihar,Gaya,"Collectorate, Gaya - BSPCB",08-06-2024 21:00:00,24.7955,84.9994,PM2.5,40,140,81
India,Bihar,Gaya,"Kareemganj, Gaya - BSPCB",08-06-2024 21:00:00,24.792403,84.992416,NH3,4,23,8
India,Bihar,Gaya,"Kareemganj, Gaya - BSPCB",08-06-2024 21:00:00,24.792403,84.992416,OZONE,6,33,21
India,Bihar,Gaya,"SFTI Kusdihra, Gaya - BSPCB",08-06-2024 21:00:00,24.762518,84.982348,NO2,11,53,27
India,Bihar,Katihar,"Mirchaibari, Katihar - BSPCB",08-06-2024 21:00:00,25.560083,87.553265,PM2.5,22,83,52
India,Bihar,Kishanganj,"SDM Office_Khagra, Kishanganj - BSPCB",08-06-2024 21:00:00,26.0881305,87.93840336,PM10,NA,NA,NA
India,Bihar,Kishanganj,"SDM Office_Khagra, Kishanganj - BSPCB",08-06-2024 21:00:00,26.0881305,87.93840336,CO,6,10,7
India,Bihar,Manguraha,"Forest Rest House, Manguraha - BSPCB",08-06-2024 21:00:00,27.308328,84.531742,PM10,NA,NA,NA
India,Bihar,Manguraha,"Forest Rest House, Manguraha - BSPCB",08-06-2024 21:00:00,27.308328,84.531742,SO2,3,5,4
India,Bihar,Muzaffarpur,"MIT-Daudpur Kothi, Muzaffarpur - BSPCB",08-06-2024 21:00:00,26.1403345,85.3650192,PM2.5,157,404,270
India,Bihar,Patna,"DRM Office Danapur, Patna - BSPCB",08-06-2024 21:00:00,25.586562,85.043586,NH3,2,3,3
India,Bihar,Patna,"Govt. High School Shikarpur, Patna - BSPCB",08-06-2024 21:00:00,25.592539,85.227158,PM2.5,47,286,127
India,Bihar,Patna,"IGSC Planetarium Complex, Patna - BSPCB",08-06-2024 21:00:00,25.610369,85.132568,SO2,3,6,5
India,Bihar,Patna,"Muradpur, Patna - BSPCB",08-06-2024 21:00:00,25.619651,85.147382,NO2,13,59,29
India,Bihar,Patna,"Samanpura, Patna - BSPCB",08-06-2024 21:00:00,25.596727,85.085624,PM10,151,309,204
India,Bihar,Patna,"Samanpura, Patna - BSPCB",08-06-2024 21:00:00,25.596727,85.085624,NO2,8,40,16
India,Bihar,Patna,"Samanpura, Patna - BSPCB",08-06-2024 21:00:00,25.596727,85.085624,OZONE,42,189,155
India,Bihar,Rajgir,"Dangi Tola, Rajgir - BSPCB",08-06-2024 21:00:00,25.03280,85.41948,OZONE,31,36,34
India,Bihar,Saharsa,"Police Line, Saharsa - BSPCB",08-06-2024 21:00:00,25.892357,86.590325,NH3,9,9,9
India,Bihar,Saharsa,"Police Line, Saharsa - BSPCB",08-06-2024 21:00:00,25.892357,86.590325,SO2,16,17,16
India,Bihar,Samastipur,"DM Office_Kasipur, Samastipur - BSPCB",08-06-2024 21:00:00,25.859655,85.77944,SO2,52,71,61
India,Bihar,Sasaram,"Dada Peer, Sasaram - BSPCB",08-06-2024 21:00:00,24.952822,84.002396,NH3,2,15,8
India,Bihar,Siwan,"Chitragupta Nagar, Siwan - BSPCB",08-06-2024 21:00:00,26.2271665,84.3570427,CO,82,156,156
India,Chandigarh,Chandigarh,"Sector 22, Chandigarh - CPCC",08-06-2024 21:00:00,30.735567,76.775714,CO,32,48,37
India,Chandigarh,Chandigarh,"Sector-53, Chandigarh - CPCC",08-06-2024 21:00:00,30.719859,76.738637,PM10,95,305,125
India,Chandigarh,Chandigarh,"Sector-53, Chandigarh - CPCC",08-06-2024 21:00:00,30.719859,76.738637,NO2,14,67,26
India,Chandigarh,Chandigarh,"Sector-53, Chandigarh - CPCC",08-06-2024 21:00:00,30.719859,76.738637,OZONE,28,76,63
India,Chhattisgarh,Bhilai,"32Bungalows, Bhilai - CECB",08-06-2024 21:00:00,21.194815,81.314770,SO2,8,14,10
India,Chhattisgarh,Bhilai,"32Bungalows, Bhilai - CECB",08-06-2024 21:00:00,21.194815,81.314770,CO,12,23,19
India,Chhattisgarh,Bilaspur,"Mangala, Bilaspur - NTPC",08-06-2024 21:00:00,22.08815,82.13737,PM10,25,75,51
India,Chhattisgarh,Kunjemura,"OP Jindal School, Kunjemura - CECB",08-06-2024 21:00:00,22.126650,83.483212,PM2.5,16,63,44
India,Chhattisgarh,Kunjemura,"OP Jindal School, Kunjemura - CECB",08-06-2024 21:00:00,22.126650,83.483212,PM10,49,103,70
India,Chhattisgarh,Kunjemura,"OP Jindal School, Kunjemura - CECB",08-06-2024 21:00:00,22.126650,83.483212,OZONE,8,55,43
India,Chhattisgarh,Milupara,"Govt. Higher Secondary School, Milupara - CECB",08-06-2024 21:00:00,22.1910172,83.5197009,PM10,NA,NA,NA
India,Chhattisgarh,Milupara,"Govt. Higher Secondary School, Milupara - CECB",08-06-2024 21:00:00,22.1910172,83.5197009,CO,NA,NA,NA
India,Chhattisgarh,Raipur,"AIIMS, Raipur - CECB",08-06-2024 21:00:00,21.258815,81.578979,PM2.5,16,55,31
India,Chhattisgarh,Raipur,"AIIMS, Raipur - CECB",08-06-2024 21:00:00,21.258815,81.578979,PM10,24,80,44
India,Chhattisgarh,Raipur,"AIIMS, Raipur - CECB",08-06-2024 21:00:00,21.258815,81.578979,CO,16,28,24
India,Chhattisgarh,Raipur,"Bhatagaon New ISBT, Raipur - CECB",08-06-2024 21:00:00,21.219665,81.630094,NO2,1,1,1
India,Chhattisgarh,Raipur,"Bhatagaon New ISBT, Raipur - CECB",08-06-2024 21:00:00,21.219665,81.630094,CO,12,30,25
India,Chhattisgarh,Raipur,"Krishak Nagar, Raipur - CECB",08-06-2024 21:00:00,21.237755,81.705301,PM2.5,11,30,20
India,Chhattisgarh,Raipur,"Krishak Nagar, Raipur - CECB",08-06-2024 21:00:00,21.237755,81.705301,NO2,5,8,7
India,Chhattisgarh,Raipur,"Krishak Nagar, Raipur - CECB",08-06-2024 21:00:00,21.237755,81.705301,NH3,1,7,1
India,Chhattisgarh,Raipur,"Siltara Phase-II, Raipur - CECB",08-06-2024 21:00:00,21.371751,81.664929,PM2.5,21,108,46
India,Chhattisgarh,Tumidih,"OP Jindal Industrial Park, Tumidih - CECB",08-06-2024 21:00:00,22.06631475,83.33820077,PM2.5,NA,NA,NA
India,Chhattisgarh,Tumidih,"OP Jindal Industrial Park, Tumidih - CECB",08-06-2024 21:00:00,22.06631475,83.33820077,CO,20,39,28
India,Delhi,Delhi,"Anand Vihar, Delhi - DPCC",08-06-2024 21:00:00,28.647622,77.3158090,NO2,60,115,80
India,Delhi,Delhi,"Ashok Vihar, Delhi - DPCC",08-06-2024 21:00:00,28.695381,77.181665,CO,26,58,39
India,Delhi,Delhi,"CRRI Mathura Road, Delhi - IMD",08-06-2024 21:00:00,28.5512005,77.2735737,PM2.5,NA,NA,NA
India,Delhi,Delhi,"CRRI Mathura Road, Delhi - IMD",08-06-2024 21:00:00,28.5512005,77.2735737,PM10,NA,NA,NA
India,Delhi,Delhi,"CRRI Mathura Road, Delhi - IMD",08-06-2024 21:00:00,28.5512005,77.2735737,NO2,NA,NA,NA
India,Delhi,Delhi,"CRRI Mathura Road, Delhi - IMD",08-06-2024 21:00:00,28.5512005,77.2735737,CO,NA,NA,NA
India,Delhi,Delhi,"Chandni Chowk, Delhi - IITM",08-06-2024 21:00:00,28.656756,77.227234,PM2.5,302,409,351
India,Delhi,Delhi,"DTU, Delhi - CPCB",08-06-2024 21:00:00,28.7500499,77.1112615,NO2,32,35,34
India,Delhi,Delhi,"Dr. Karni Singh Shooting Range, Delhi - DPCC",08-06-2024 21:00:00,28.498571,77.264840,CO,20,64,35
India,Delhi,Delhi,"Dwarka-Sector 8, Delhi - DPCC ",08-06-2024 21:00:00,28.5710274,77.0719006,CO,8,74,42
India,Delhi,Delhi,"Dwarka-Sector 8, Delhi - DPCC ",08-06-2024 21:00:00,28.5710274,77.0719006,OZONE,17,136,103
India,Delhi,Delhi,"IGI Airport (T3), Delhi - IMD",08-06-2024 21:00:00,28.5627763,77.1180053,PM2.5,25,147,79
India,Delhi,Delhi,"IGI Airport (T3), Delhi - IMD",08-06-2024 21:00:00,28.5627763,77.1180053,CO,36,58,41
India,Delhi,Delhi,"IHBAS, Dilshad Garden, Delhi - CPCB",08-06-2024 21:00:00,28.6811736,77.3025234,PM2.5,77,319,209
India,Delhi,Delhi,"IHBAS, Dilshad Garden, Delhi - CPCB",08-06-2024 21:00:00,28.6811736,77.3025234,NO2,10,34,25
India,Delhi,Delhi,"IHBAS, Dilshad Garden, Delhi - CPCB",08-06-2024 21:00:00,28.6811736,77.3025234,SO2,3,85,33
India,Delhi,Delhi,"ITO, Delhi - CPCB",08-06-2024 21:00:00,28.628624,77.241060,PM2.5,94,306,185
India,Delhi,Delhi,"ITO, Delhi - CPCB",08-06-2024 21:00:00,28.628624,77.241060,NO2,50,76,61
India,Delhi,Delhi,"ITO, Delhi - CPCB",08-06-2024 21:00:00,28.628624,77.241060,NH3,6,7,7
India,Delhi,Delhi,"Jahangirpuri, Delhi - DPCC",08-06-2024 21:00:00,28.732820,77.170633,NH3,5,68,16
India,Delhi,Delhi,"Jawaharlal Nehru Stadium, Delhi - DPCC",08-06-2024 21:00:00,28.580280,77.233829,PM2.5,20,88,56
India,Delhi,Delhi,"Jawaharlal Nehru Stadium, Delhi - DPCC",08-06-2024 21:00:00,28.580280,77.233829,PM10,122,432,216
India,Delhi,Delhi,"Lodhi Road, Delhi - IITM",08-06-2024 21:00:00,28.588333,77.221667,PM2.5,47,285,122
India,Delhi,Delhi,"Lodhi Road, Delhi - IITM",08-06-2024 21:00:00,28.588333,77.221667,PM10,48,490,121
India,Delhi,Delhi,"Lodhi Road, Delhi - IITM",08-06-2024 21:00:00,28.588333,77.221667,SO2,15,34,23
India,Delhi,Delhi,"Lodhi Road, Delhi - IMD",08-06-2024 21:00:00,28.5918245,77.2273074,PM2.5,NA,NA,NA
India,Delhi,Delhi,"Lodhi Road, Delhi - IMD",08-06-2024 21:00:00,28.5918245,77.2273074,PM10,NA,NA,NA
India,Delhi,Delhi,"Lodhi Road, Delhi - IMD",08-06-2024 21:00:00,28.5918245,77.2273074,NO2,NA,NA,NA
India,Delhi,Delhi,"Lodhi Road, Delhi - IMD",08-06-2024 21:00:00,28.5918245,77.2273074,OZONE,NA,NA,NA
India,Delhi,Delhi,"Major Dhyan Chand National Stadium, Delhi - DPCC",08-06-2024 21:00:00,28.611281,77.237738,SO2,10,31,17
India,Delhi,Delhi,"Mundka, Delhi - DPCC",08-06-2024 21:00:00,28.684678,77.076574,PM2.5,40,315,134
India,Delhi,Delhi,"NSIT Dwarka, Delhi - CPCB",08-06-2024 21:00:00,28.60909,77.0325413,NH3,6,7,6
India,Delhi,Delhi,"Najafgarh, Delhi - DPCC",08-06-2024 21:00:00,28.570173,76.933762,NO2,NA,NA,NA
India,Delhi,Delhi,"Najafgarh, Delhi - DPCC",08-06-2024 21:00:00,28.570173,76.933762,NH3,NA,NA,NA
India,Delhi,Delhi,"Narela, Delhi - DPCC",08-06-2024 21:00:00,28.822836,77.101981,CO,32,52,38
India,Delhi,Delhi,"Nehru Nagar, Delhi - DPCC",08-06-2024 21:00:00,28.567890,77.250515,PM2.5,37,160,84
India,Delhi,Delhi,"Nehru Nagar, Delhi - DPCC",08-06-2024 21:00:00,28.567890,77.250515,SO2,5,11,7
India,Delhi,Delhi,"North Campus, DU, Delhi - IMD",08-06-2024 21:00:00,28.6573814,77.1585447,PM2.5,13,208,109
India,Delhi,Delhi,"North Campus, DU, Delhi - IMD",08-06-2024 21:00:00,28.6573814,77.1585447,PM10,78,421,213
India,Delhi,Delhi,"Okhla Phase-2, Delhi - DPCC",08-06-2024 21:00:00,28.530785,77.271255,PM10,129,479,246
India,Delhi,Delhi,"Okhla Phase-2, Delhi - DPCC",08-06-2024 21:00:00,28.530785,77.271255,NO2,25,111,53
India,Delhi,Delhi,"Patparganj, Delhi - DPCC",08-06-2024 21:00:00,28.623763,77.287209,PM2.5,55,309,147
India,Delhi,Delhi,"Patparganj, Delhi - DPCC",08-06-2024 21:00:00,28.623763,77.287209,NH3,6,9,7
India,Delhi,Delhi,"Punjabi Bagh, Delhi - DPCC",08-06-2024 21:00:00,28.674045,77.131023,OZONE,7,172,56
India,Delhi,Delhi,"Pusa, Delhi - DPCC",08-06-2024 21:00:00,28.639652,77.146275,NO2,44,124,68
India,Delhi,Delhi,"Pusa, Delhi - DPCC",08-06-2024 21:00:00,28.639652,77.146275,NH3,6,8,6
India,Delhi,Delhi,"Pusa, Delhi - IMD",08-06-2024 21:00:00,28.636110,77.173332,PM2.5,2,276,122
India,Delhi,Delhi,"Pusa, Delhi - IMD",08-06-2024 21:00:00,28.636110,77.173332,CO,38,52,41
India,Delhi,Delhi,"R K Puram, Delhi - DPCC",08-06-2024 21:00:00,28.563262,77.186937,PM10,134,451,239
India,Delhi,Delhi,"Rohini, Delhi - DPCC",08-06-2024 21:00:00,28.732528,77.119920,SO2,7,48,27
India,Delhi,Delhi,"Shadipur, Delhi - CPCB",08-06-2024 21:00:00,28.6514781,77.1473105,PM2.5,177,500,328
India,Delhi,Delhi,"Shadipur, Delhi - CPCB",08-06-2024 21:00:00,28.6514781,77.1473105,SO2,12,25,19
India,Delhi,Delhi,"Sirifort, Delhi - CPCB",08-06-2024 21:00:00,28.5504249,77.2159377,PM10,129,426,220
India,Delhi,Delhi,"Sonia Vihar, Delhi - DPCC",08-06-2024 21:00:00,28.710508,77.249485,PM10,117,429,215
India,Delhi,Delhi,"Sonia Vihar, Delhi - DPCC",08-06-2024 21:00:00,28.710508,77.249485,NO2,16,98,39
India,Delhi,Delhi,"Sonia Vihar, Delhi - DPCC",08-06-2024 21:00:00,28.710508,77.249485,CO,6,48,10
India,Gujarat,Ahmedabad,"Chandkheda, Ahmedabad - IITM",08-06-2024 21:00:00,23.107969,72.574648,SO2,14,21,18
India,Gujarat,Ahmedabad,"Chandkheda, Ahmedabad - IITM",08-06-2024 21:00:00,23.107969,72.574648,OZONE,7,52,33
India,Gujarat,Ahmedabad,"Gyaspur, Ahmedabad - IITM",08-06-2024 21:00:00,22.977134,72.553024,NH3,5,7,7
India,Gujarat,Ahmedabad,"Gyaspur, Ahmedabad - IITM",08-06-2024 21:00:00,22.977134,72.553024,CO,74,83,78
India,Gujarat,Ahmedabad,"Maninagar, Ahmedabad - GPCB",08-06-2024 21:00:00,23.002657,72.591912,OZONE,18,113,85
India,Gujarat,Ahmedabad,"SVPI Airport Hansol, Ahmedabad - IITM",08-06-2024 21:00:00,23.076793,72.627874,SO2,4,21,8
India,Gujarat,Ahmedabad,"SVPI Airport Hansol, Ahmedabad - IITM",08-06-2024 21:00:00,23.076793,72.627874,OZONE,3,81,63
India,Gujarat,Ahmedabad,"Sardar Vallabhbhai Patel Stadium, Ahmedabad - IITM",08-06-2024 21:00:00,23.043070,72.562968,PM10,63,119,99
India,Gujarat,Ahmedabad,"Sardar Vallabhbhai Patel Stadium, Ahmedabad - IITM",08-06-2024 21:00:00,23.043070,72.562968,NO2,35,38,37
India,Gujarat,Ahmedabad,"Sardar Vallabhbhai Patel Stadium, Ahmedabad - IITM",08-06-2024 21:00:00,23.043070,72.562968,OZONE,14,56,44
India,Gujarat,Ankleshwar,"GIDC, Ankleshwar - GPCB",08-06-2024 21:00:00,21.613267,73.010555,SO2,7,50,24
India,Gujarat,Gandhinagar,"Sector-10, Gandhinagar - GPCB",08-06-2024 21:00:00,23.221714,72.654328,NO2,17,19,18
India,Gujarat,Gandhinagar,"Sector-10, Gandhinagar - GPCB",08-06-2024 21:00:00,23.221714,72.654328,SO2,2,4,3
India,Gujarat,Nandesari,"GIDC, Nandesari - Nandesari Ind. Association",08-06-2024 21:00:00,22.410802,73.097923,SO2,3,25,12
India,Gujarat,Surat,"Science Center, Surat - SMC",08-06-2024 21:00:00,21.170046,72.795405,SO2,10,13,12
India,Gujarat,Vapi,"Phase-1 GIDC, Vapi - GPCB",08-06-2024 21:00:00,20.362421,72.918013,NO2,6,7,6
India,Haryana,Ambala,"Patti Mehar, Ambala - HSPCB",08-06-2024 21:00:00,30.379589,76.778328,NO2,7,21,14
India,Haryana,Ambala,"Patti Mehar, Ambala - HSPCB",08-06-2024 21:00:00,30.379589,76.778328,CO,30,62,40
India,Haryana,Ambala,"Patti Mehar, Ambala - HSPCB",08-06-2024 21:00:00,30.379589,76.778328,OZONE,38,53,45
India,Haryana,Ballabgarh,"Nathu Colony, Ballabgarh - HSPCB",08-06-2024 21:00:00,28.3419248,77.319699,NH3,1,2,2
India,Haryana,Charkhi Dadri,"Mini Secretariat, Charkhi Dadri - HSPCB",08-06-2024 21:00:00,28.593883,76.270653,PM2.5,NA,NA,NA
India,Haryana,Charkhi Dadri,"Mini Secretariat, Charkhi Dadri - HSPCB",08-06-2024 21:00:00,28.593883,76.270653,CO,33,34,34
India,Haryana,Dharuhera,"Municipal Corporation Office, Dharuhera -  HSPCB",08-06-2024 21:00:00,28.206800,76.799700,OZONE,8,43,37
India,Haryana,Faridabad,"New Industrial Town, Faridabad - HSPCB",08-06-2024 21:00:00,28.39072,77.30059,SO2,NA,NA,NA
India,Haryana,Fatehabad,"Huda Sector, Fatehabad - HSPCB",08-06-2024 21:00:00,29.503664,75.467934,PM2.5,11,134,63
India,Haryana,Fatehabad,"Huda Sector, Fatehabad - HSPCB",08-06-2024 21:00:00,29.503664,75.467934,PM10,81,359,145
India,Haryana,Fatehabad,"Huda Sector, Fatehabad - HSPCB",08-06-2024 21:00:00,29.503664,75.467934,NH3,9,10,10
India,Haryana,Fatehabad,"Huda Sector, Fatehabad - HSPCB",08-06-2024 21:00:00,29.503664,75.467934,OZONE,18,42,28
India,Haryana,Gurugram,"Sector-51, Gurugram - HSPCB",08-06-2024 21:00:00,28.4227,77.0667,PM10,153,500,356
India,Haryana,Gurugram,"Sector-51, Gurugram - HSPCB",08-06-2024 21:00:00,28.4227,77.0667,NO2,13,29,23
India,Haryana,Gurugram,"Sector-51, Gurugram - HSPCB",08-06-2024 21:00:00,28.4227,77.0667,NH3,6,14,9
India,Haryana,Gurugram,"Teri Gram, Gurugram - HSPCB",08-06-2024 21:00:00,28.4275,77.1465,PM2.5,34,235,78
India,Haryana,Gurugram,"Vikas Sadan, Gurugram - HSPCB",08-06-2024 21:00:00,28.4501238,77.0263051,CO,50,130,105
India,Haryana,Hisar,"Urban Estate-II, Hisar - HSPCB",08-06-2024 21:00:00,29.140560,75.744941,NO2,9,11,10
India,Haryana,Jind,"Police Lines, Jind - HSPCB",08-06-2024 21:00:00,29.307814,76.337619,SO2,NA,NA,NA
India,Haryana,Karnal,"Sector-12, Karnal - HSPCB",08-06-2024 21:00:00,29.695300,77.002700,NH3,10,13,11
India,Haryana,Karnal,"Sector-12, Karnal - HSPCB",08-06-2024 21:00:00,29.695300,77.002700,SO2,12,13,13
India,Haryana,Karnal,"Sector-12, Karnal - HSPCB",08-06-2024 21:00:00,29.695300,77.002700,OZONE,28,36,30
India,Haryana,Kurukshetra,"Sector-7, Kurukshetra - HSPCB",08-06-2024 21:00:00,29.966942,76.875879,PM10,126,155,140
India,Haryana,Mandikhera,"General Hospital, Mandikhera - HSPCB",08-06-2024 21:00:00,27.9002,76.9938,PM10,NA,NA,NA
India,Haryana,Mandikhera,"General Hospital, Mandikhera - HSPCB",08-06-2024 21:00:00,27.9002,76.9938,NO2,NA,NA,NA
India,Haryana,Manesar,"Sector-2 IMT, Manesar - HSPCB",08-06-2024 21:00:00,28.360699,76.936090,PM2.5,56,329,168
India,Haryana,Manesar,"Sector-2 IMT, Manesar - HSPCB",08-06-2024 21:00:00,28.360699,76.936090,PM10,55,210,122
India,Haryana,Manesar,"Sector-2 IMT, Manesar - HSPCB",08-06-2024 21:00:00,28.360699,76.936090,SO2,6,16,11
India,Haryana,Narnaul,"Shastri Nagar, Narnaul - HSPCB",08-06-2024 21:00:00,28.060249,76.113115,CO,18,48,27
India,Haryana,Palwal,"Shyam Nagar, Palwal - HSPCB",08-06-2024 21:00:00,28.1485564,77.3320667,PM2.5,52,93,65
India,Haryana,Panchkula,"Sector-6, Panchkula - HSPCB ",08-06-2024 21:00:00,30.7057778,76.8531805555555,NO2,9,11,10
India,Haryana,Panchkula,"Sector-6, Panchkula - HSPCB ",08-06-2024 21:00:00,30.7057778,76.8531805555555,CO,9,12,9
India,Haryana,Panipat,"Sector-18, Panipat - HSPCB",08-06-2024 21:00:00,29.432304,76.972765,NH3,2,3,2
India,Haryana,Rohtak,"MD University, Rohtak - HSPCB",08-06-2024 21:00:00,28.52123,76.37138,PM2.5,30,401,268
India,Haryana,Rohtak,"MD University, Rohtak - HSPCB",08-06-2024 21:00:00,28.52123,76.37138,NO2,47,55,51
India,Haryana,Rohtak,"MD University, Rohtak - HSPCB",08-06-2024 21:00:00,28.52123,76.37138,SO2,6,8,7
India,Haryana,Yamuna Nagar,"Gobind Pura, Yamuna Nagar - HSPCB",08-06-2024 21:00:00,30.1480566,77.2893471,PM10,101,131,117
India,Haryana,Yamuna Nagar,"Gobind Pura, Yamuna Nagar - HSPCB",08-06-2024 21:00:00,30.1480566,77.2893471,NH3,1,6,4
India,Haryana,Yamuna Nagar,"Gobind Pura, Yamuna Nagar - HSPCB",08-06-2024 21:00:00,30.1480566,77.2893471,SO2,2,100,17
India,Haryana,Yamuna Nagar,"Gobind Pura, Yamuna Nagar - HSPCB",08-06-2024 21:00:00,30.1480566,77.2893471,CO,14,101,30
India,Himachal Pradesh,Baddi,"HIMUDA Complex Phase-1, Baddi - HPPCB",08-06-2024 21:00:00,30.943887,76.801991,PM10,102,191,143
India,Himachal Pradesh,Baddi,"HIMUDA Complex Phase-1, Baddi - HPPCB",08-06-2024 21:00:00,30.943887,76.801991,SO2,11,100,41
India,Himachal Pradesh,Baddi,"HIMUDA Complex Phase-1, Baddi - HPPCB",08-06-2024 21:00:00,30.943887,76.801991,CO,9,56,15
India,Jammu_and_Kashmir,Srinagar,"Rajbagh, Srinagar - JKSPCB",08-06-2024 21:00:00,34.066206,74.819820,SO2,NA,NA,NA
India,Jammu_and_Kashmir,Srinagar,"Rajbagh, Srinagar - JKSPCB",08-06-2024 21:00:00,34.066206,74.819820,CO,NA,NA,NA
India,Karnataka,Bagalkot,"Vidayagiri, Bagalkot - KSPCB",08-06-2024 21:00:00,16.172806,75.659694,NO2,9,10,9
India,Karnataka,Bagalkot,"Vidayagiri, Bagalkot - KSPCB",08-06-2024 21:00:00,16.172806,75.659694,CO,24,57,40
India,Karnataka,Belgaum,"Ramteerth Nagar, Belgaum - KSPCB",08-06-2024 21:00:00,15.888653,74.541751,PM10,22,34,28
India,Karnataka,Belgaum,"Ramteerth Nagar, Belgaum - KSPCB",08-06-2024 21:00:00,15.888653,74.541751,NO2,7,51,27
India,Karnataka,Belgaum,"Ramteerth Nagar, Belgaum - KSPCB",08-06-2024 21:00:00,15.888653,74.541751,OZONE,19,24,20
India,Karnataka,Bengaluru,"Bapuji Nagar, Bengaluru - KSPCB",08-06-2024 21:00:00,12.951913,77.539784,PM10,12,38,26
India,Karnataka,Bengaluru,"Hebbal, Bengaluru - KSPCB",08-06-2024 21:00:00,13.029152,77.585901,PM2.5,NA,NA,NA
India,Karnataka,Bengaluru,"Hebbal, Bengaluru - KSPCB",08-06-2024 21:00:00,13.029152,77.585901,NH3,1,1,1
India,Karnataka,Bengaluru,"Hebbal, Bengaluru - KSPCB",08-06-2024 21:00:00,13.029152,77.585901,SO2,15,30,22
India,Karnataka,Bengaluru,"Hombegowda Nagar, Bengaluru - KSPCB",08-06-2024 21:00:00,12.938539,77.590100,SO2,2,4,3
India,Karnataka,Bengaluru,"Jayanagar 5th Block, Bengaluru - KSPCB",08-06-2024 21:00:00,12.920984,77.584908,PM2.5,5,23,14
India,Karnataka,Bengaluru,"Jayanagar 5th Block, Bengaluru - KSPCB",08-06-2024 21:00:00,12.920984,77.584908,NH3,2,2,2
India,Karnataka,Bengaluru,"Jayanagar 5th Block, Bengaluru - KSPCB",08-06-2024 21:00:00,12.920984,77.584908,CO,20,22,21
India,Karnataka,Bengaluru,"Jigani, Bengaluru - KSPCB",08-06-2024 21:00:00,12.7816279,77.6299145,PM2.5,39,41,40
India,Karnataka,Bengaluru,"Jigani, Bengaluru - KSPCB",08-06-2024 21:00:00,12.7816279,77.6299145,OZONE,21,49,45
India,Karnataka,Bengaluru,"Kasturi Nagar, Bengaluru - KSPCB",08-06-2024 21:00:00,13.003872,77.664217,SO2,10,10,10
India,Karnataka,Bengaluru,"Peenya, Bengaluru - CPCB",08-06-2024 21:00:00,13.0270199,77.494094,OZONE,14,30,23
India,Karnataka,Bengaluru,"Sanegurava Halli, Bengaluru - KSPCB",08-06-2024 21:00:00,12.990328,77.5431385,SO2,1,3,2
India,Karnataka,Bengaluru,"Shivapura_Peenya, Bengaluru - KSPCB",08-06-2024 21:00:00,13.0246342,77.5080115,PM10,25,55,35
India,Karnataka,Bengaluru,"Shivapura_Peenya, Bengaluru - KSPCB",08-06-2024 21:00:00,13.0246342,77.5080115,CO,20,28,23
India,Karnataka,Bengaluru,"Silk Board, Bengaluru - KSPCB",08-06-2024 21:00:00,12.917348,77.622813,NH3,1,1,1
India,Karnataka,Chamarajanagar,"Urban, Chamarajanagar - KSPCB",08-06-2024 21:00:00,11.55358,76.55521,PM2.5,29,36,35
India,Karnataka,Chamarajanagar,"Urban, Chamarajanagar - KSPCB",08-06-2024 21:00:00,11.55358,76.55521,NO2,16,19,19
India,Karnataka,Chikkamagaluru,"Kalyana Nagara, Chikkamagaluru - KSPCB",08-06-2024 21:00:00,13.328028,75.797056,OZONE,21,39,25
India,Karnataka,Davanagere,"Devaraj Urs Badavane, Davanagere - KSPCB",08-06-2024 21:00:00,14.475800,75.905200,NH3,1,1,1
India,Karnataka,Davanagere,"Devaraj Urs Badavane, Davanagere - KSPCB",08-06-2024 21:00:00,14.475800,75.905200,OZONE,20,22,21
India,Karnataka,Dharwad,"Kalabhavan, Dharwad - KSPCB",08-06-2024 21:00:00,15.459706,75.008381,NH3,2,2,2
India,Karnataka,Dharwad,"Kalabhavan, Dharwad - KSPCB",08-06-2024 21:00:00,15.459706,75.008381,CO,18,104,71
India,Karnataka,Gadag,"Panchal Nagar, Gadag - KSPCB",08-06-2024 21:00:00,15.411456,75.638133,PM2.5,NA,NA,NA
India,Karnataka,Gadag,"Panchal Nagar, Gadag - KSPCB",08-06-2024 21:00:00,15.411456,75.638133,NH3,NA,NA,NA
India,Karnataka,Hassan,"B.Katihalli, Hassan - KSPCB",08-06-2024 21:00:00,13.008556,76.125258,NO2,7,18,14
India,Karnataka,Hassan,"B.Katihalli, Hassan - KSPCB",08-06-2024 21:00:00,13.008556,76.125258,OZONE,14,26,18
India,Karnataka,Haveri,"Ashwini Nagar, Haveri - KSPCB",08-06-2024 21:00:00,14.791800,75.389600,PM2.5,NA,NA,NA
India,Karnataka,Hubballi,"Lingaraj Nagar, Hubballi - KSPCB",08-06-2024 21:00:00,15.3714823,75.1160168,NH3,2,4,3
India,Karnataka,Hubballi,"Lingaraj Nagar, Hubballi - KSPCB",08-06-2024 21:00:00,15.3714823,75.1160168,CO,2,21,17
India,Karnataka,Kalaburagi,"Lal Bahadur Shastri Nagar, Kalaburagi - KSPCB",08-06-2024 21:00:00,17.321993,76.822628,PM2.5,NA,NA,NA
India,Karnataka,Kalaburagi,"Lal Bahadur Shastri Nagar, Kalaburagi - KSPCB",08-06-2024 21:00:00,17.321993,76.822628,PM10,NA,NA,NA
India,Karnataka,Kalaburagi,"Lal Bahadur Shastri Nagar, Kalaburagi - KSPCB",08-06-2024 21:00:00,17.321993,76.822628,NH3,2,3,2
India,Karnataka,Kalaburagi,"Mahatma Basaveswar Colony, Kalaburgi - KSPCB",08-06-2024 21:00:00,17.336318,76.847397,OZONE,9,29,17
India,Karnataka,Karwar,"KHB Colony, Karwar - KSPCB",08-06-2024 21:00:00,14.816666,74.141003,OZONE,NA,NA,NA
India,Karnataka,Kolar,"Tamaka Ind. Area, Kolar - KSPCB",08-06-2024 21:00:00,13.1276288,78.1570122,NO2,16,38,25
India,Karnataka,Kolar,"Tamaka Ind. Area, Kolar - KSPCB",08-06-2024 21:00:00,13.1276288,78.1570122,OZONE,15,42,34
India,Karnataka,Koppal,"Diwator Nagar, Koppal - KSPCB",08-06-2024 21:00:00,15.347630,76.181767,SO2,24,28,24
India,Karnataka,Koppal,"Diwator Nagar, Koppal - KSPCB",08-06-2024 21:00:00,15.347630,76.181767,CO,6,6,6
India,Karnataka,Mangalore,"Kadri, Mangalore - KSPCB",08-06-2024 21:00:00,12.889250,74.853000,NO2,5,6,6
India,Karnataka,Mysuru,"Hebbal 1st Stage, Mysuru - KSPCB",08-06-2024 21:00:00,12.21041,76.37376,PM10,17,35,28
India,Karnataka,Mysuru,"Hebbal 1st Stage, Mysuru - KSPCB",08-06-2024 21:00:00,12.21041,76.37376,CO,4,24,16
India,Karnataka,Raichur,"Haji Colony, Raichur - KSPCB",08-06-2024 21:00:00,16.208139,77.348417,PM10,NA,NA,NA
India,Karnataka,Ramanagara,"Vijay Nagar, Ramanagara - KSPCB",08-06-2024 21:00:00,12.733409,77.298051,NH3,1,2,2
India,Karnataka,Ramanagara,"Vijay Nagar, Ramanagara - KSPCB",08-06-2024 21:00:00,12.733409,77.298051,CO,5,28,13
India,Karnataka,Tumakuru,"Thimmalapura, Tumakuru - KSPCB",08-06-2024 21:00:00,13.377516,77.099072,SO2,7,16,8
India,Karnataka,Udupi,"Brahmagiri, Udupi - KSPCB",08-06-2024 21:00:00,13.34194444,74.74694444,NO2,27,29,28
India,Karnataka,Udupi,"Brahmagiri, Udupi - KSPCB",08-06-2024 21:00:00,13.34194444,74.74694444,CO,50,56,50
India,Karnataka,Vijayapura,"Ibrahimpur, Vijayapura - KSPCB",08-06-2024 21:00:00,16.802639,75.722694,PM10,41,43,42
India,Karnataka,Vijayapura,"Ibrahimpur, Vijayapura - KSPCB",08-06-2024 21:00:00,16.802639,75.722694,NO2,17,19,19
India,Kerala,Kannur,"Thavakkara, Kannur - Kerala PCB",08-06-2024 21:00:00,11.875000,75.373200,PM10,50,60,56
India,Kerala,Kannur,"Thavakkara, Kannur - Kerala PCB",08-06-2024 21:00:00,11.875000,75.373200,CO,60,72,67
India,Kerala,Kannur,"Thavakkara, Kannur - Kerala PCB",08-06-2024 21:00:00,11.875000,75.373200,OZONE,28,33,29
India,Kerala,Thiruvananthapuram,"Kariavattom, Thiruvananthapuram - Kerala PCB",08-06-2024 21:00:00,8.563700,76.886500,PM10,53,63,57
India,Kerala,Thiruvananthapuram,"Kariavattom, Thiruvananthapuram - Kerala PCB",08-06-2024 21:00:00,8.563700,76.886500,CO,18,54,34
India,Kerala,Thiruvananthapuram,"Plammoodu, Thiruvananthapuram - Kerala PCB",08-06-2024 21:00:00,8.5149093,76.9435879,NH3,1,1,1
India,Kerala,Thiruvananthapuram,"Plammoodu, Thiruvananthapuram - Kerala PCB",08-06-2024 21:00:00,8.5149093,76.9435879,SO2,9,14,11
India,Kerala,Thrissur,"Corporation Ground, Thrissur - Kerala PCB",08-06-2024 21:00:00,10.532400,76.215900,NO2,7,8,7
India,Madhya Pradesh,Bhopal,"Idgah Hills, Bhopal - MPPCB",08-06-2024 21:00:00,23.264759,77.381568,OZONE,2,87,55
India,Madhya Pradesh,Bhopal,"Paryavaran Parisar, Bhopal - MPPCB",08-06-2024 21:00:00,23.210494,77.425409,PM2.5,40,143,63
India,Madhya Pradesh,Bhopal,"Paryavaran Parisar, Bhopal - MPPCB",08-06-2024 21:00:00,23.210494,77.425409,NO2,10,134,35
India,Madhya Pradesh,Bhopal,"Paryavaran Parisar, Bhopal - MPPCB",08-06-2024 21:00:00,23.210494,77.425409,NH3,4,8,5
India,Madhya Pradesh,Bhopal,"T T Nagar, Bhopal - MPPCB",08-06-2024 21:00:00,23.233584,77.400574,NO2,20,56,31
India,Madhya Pradesh,Bhopal,"T T Nagar, Bhopal - MPPCB",08-06-2024 21:00:00,23.233584,77.400574,OZONE,5,82,48
India,Madhya Pradesh,Dewas,"Bhopal Chauraha, Dewas - MPPCB",08-06-2024 21:00:00,22.9682591,76.064118,SO2,8,42,27
India,Madhya Pradesh,Dewas,"Bhopal Chauraha, Dewas - MPPCB",08-06-2024 21:00:00,22.9682591,76.064118,OZONE,10,30,19
India,Madhya Pradesh,Gwalior,"City Center, Gwalior - MPPCB",08-06-2024 21:00:00,26.203442,78.193251,NO2,5,47,10
India,Madhya Pradesh,Gwalior,"Deen Dayal Nagar, Gwalior - MPPCB",08-06-2024 21:00:00,26.259242,78.216432,NO2,6,86,17
India,Madhya Pradesh,Gwalior,"Deen Dayal Nagar, Gwalior - MPPCB",08-06-2024 21:00:00,26.259242,78.216432,CO,36,78,45
India,Madhya Pradesh,Gwalior,"Maharaj Bada, Gwalior - MPPCB",08-06-2024 21:00:00,26.200388,78.147714,SO2,8,84,33
India,Madhya Pradesh,Gwalior,"Phool Bagh, Gwalior - Mondelez Ind. Food",08-06-2024 21:00:00,26.210536,78.171,CO,77,102,88
India,Madhya Pradesh,Indore,"Chhoti Gwaltoli, Indore - MPPCB",08-06-2024 21:00:00,22.4310,75.5213,NH3,NA,NA,NA
India,Madhya Pradesh,Indore,"Chhoti Gwaltoli, Indore - MPPCB",08-06-2024 21:00:00,22.4310,75.5213,OZONE,5,74,48
India,Madhya Pradesh,Indore,"Maguda Nagar, Indore - IMC",08-06-2024 21:00:00,22.7524,75.8872,PM10,26,74,38
India,Madhya Pradesh,Indore,"Maguda Nagar, Indore - IMC",08-06-2024 21:00:00,22.7524,75.8872,NH3,1,2,2
India,Madhya Pradesh,Indore,"Maguda Nagar, Indore - IMC",08-06-2024 21:00:00,22.7524,75.8872,CO,24,34,28
India,Madhya Pradesh,Indore,"Regional Park, Indore - IMC",08-06-2024 21:00:00,22.6780,75.8559,NH3,1,3,2
India,Madhya Pradesh,Indore,"Regional Park, Indore - IMC",08-06-2024 21:00:00,22.6780,75.8559,SO2,50,51,50
India,Madhya Pradesh,Jabalpur,"Govindh Bhavan Colony, Jabalpur - JMC",08-06-2024 21:00:00,23.163174,79.973061,PM2.5,42,87,62
India,Madhya Pradesh,Jabalpur,"Govindh Bhavan Colony, Jabalpur - JMC",08-06-2024 21:00:00,23.163174,79.973061,CO,14,21,16
India,Madhya Pradesh,Jabalpur,"Govindh Bhavan Colony, Jabalpur - JMC",08-06-2024 21:00:00,23.163174,79.973061,OZONE,48,100,92
India,Madhya Pradesh,Jabalpur,"Gupteshwar, Jabalpur - JMC",08-06-2024 21:00:00,23.142888,79.916147,NH3,5,5,5
India,Madhya Pradesh,Jabalpur,"Gupteshwar, Jabalpur - JMC",08-06-2024 21:00:00,23.142888,79.916147,SO2,3,8,6
India,Madhya Pradesh,Jabalpur,"Marhatal, Jabalpur - MPPCB",08-06-2024 21:00:00,23.168606,79.932247,NH3,3,5,3
India,Madhya Pradesh,Jabalpur,"Marhatal, Jabalpur - MPPCB",08-06-2024 21:00:00,23.168606,79.932247,SO2,12,23,19
India,Madhya Pradesh,Jabalpur,"Suhagi, Jabalpur - JMC",08-06-2024 21:00:00,23.218135,79.957770,PM2.5,37,87,63
India,Madhya Pradesh,Jabalpur,"Suhagi, Jabalpur - JMC",08-06-2024 21:00:00,23.218135,79.957770,SO2,17,20,18
India,Madhya Pradesh,Jabalpur,"Suhagi, Jabalpur - JMC",08-06-2024 21:00:00,23.218135,79.957770,OZONE,67,173,126
India,Madhya Pradesh,Katni,"Gole Bazar, Katni - MPPCB",08-06-2024 21:00:00,23.50016,80.23284,SO2,24,45,30
India,Madhya Pradesh,Maihar,"Sahilara, Maihar - KJS Cements",08-06-2024 21:00:00,24.2613009,80.7231783,PM2.5,11,146,70
India,Madhya Pradesh,Mandideep,"Sector-D Industrial Area, Mandideep - MPPCB",08-06-2024 21:00:00,23.108440,77.511428,SO2,8,71,19
India,Madhya Pradesh,Pithampur,"Sector-2 Industrial Area, Pithampur - MPPCB",08-06-2024 21:00:00,22.624758,75.675238,PM10,40,137,83
