country,state,city,station,last_update,latitude,longitude,pollutant_id,pollutant_min,pollutant_max,pollutant_avg
India,Andhra_Pradesh,Anantapur,"Gulzarpet, Anantapur - APPCB",07-02-2024 18:00:00,14.675886,77.593027,PM2.5,43,99,60
India,Andhra_Pradesh,Anantapur,"Gulzarpet, Anantapur - APPCB",07-02-2024 18:00:00,14.675886,77.593027,PM10,51,92,69
India,Andhra_Pradesh,Anantapur,"Gulzarpet, Anantapur - APPCB",07-02-2024 18:00:00,14.675886,77.593027,CO,16,54,26
India,Andhra_Pradesh,Anantapur,"Gulzarpet, Anantapur - APPCB",07-02-2024 18:00:00,14.675886,77.593027,OZONE,2,51,44
India,Andhra_Pradesh,Kadapa,"Yerramukkapalli, Kadapa - APPCB",07-02-2024 18:00:00,14.465052,78.824187,OZONE,4,51,43
India,Andhra_Pradesh,Rajamahendravaram,"Anand Kala Kshetram, Rajamahendravaram - APPCB",07-02-2024 18:00:00,16.9872867,81.7363176,NO2,12,33,19
India,Andhra_Pradesh,Rajamahendravaram,"Anand Kala Kshetram, Rajamahendravaram - APPCB",07-02-2024 18:00:00,16.9872867,81.7363176,NH3,4,9,6
India,Andhra_Pradesh,Rajamahendravaram,"Anand Kala Kshetram, Rajamahendravaram - APPCB",07-02-2024 18:00:00,16.9872867,81.7363176,SO2,4,12,9
India,Andhra_Pradesh,Tirupati,"Tirumala, Tirupati - APPCB",07-02-2024 18:00:00,13.67,79.35,PM2.5,10,100,52
India,Andhra_Pradesh,Tirupati,"Vaikuntapuram, Tirupati - APPCB",07-02-2024 18:00:00,13.615387,79.409230,CO,10,16,12
India,Andhra_Pradesh,Vijayawada,"HB Colony, Vijayawada - APPCB",07-02-2024 18:00:00,16.536107,80.594233,SO2,4,7,5
India,Andhra_Pradesh,Vijayawada,"Kanuru, Vijayawada - APPCB",07-02-2024 18:00:00,16.486692,80.699436,NO2,14,20,17
India,Andhra_Pradesh,Vijayawada,"Kanuru, Vijayawada - APPCB",07-02-2024 18:00:00,16.486692,80.699436,CO,26,52,32
India,Andhra_Pradesh,Vijayawada,"Kanuru, Vijayawada - APPCB",07-02-2024 18:00:00,16.486692,80.699436,OZONE,25,25,25
India,Andhra_Pradesh,Vijayawada,"Rajiv Gandhi Park, Vijayawada - APPCB",07-02-2024 18:00:00,16.509717,80.612222,CO,33,37,36
India,Andhra_Pradesh,Vijayawada,"Rajiv Nagar, Vijayawada - APPCB",07-02-2024 18:00:00,16.554731,80.649110,NH3,1,2,2
India,Andhra_Pradesh,Vijayawada,"Rajiv Nagar, Vijayawada - APPCB",07-02-2024 18:00:00,16.554731,80.649110,SO2,9,24,17
India,Arunachal_Pradesh,Naharlagun,"Naharlagun, Naharlagun - APSPCB",07-02-2024 18:00:00,27.103358,93.679645,PM10,14,89,42
India,Assam,Byrnihat,"Central Academy for SFS, Byrnihat - PCBA",07-02-2024 18:00:00,26.071318,91.87488,PM2.5,190,500,360
India,Assam,Guwahati,"LGBI Airport, Guwahati - PCBA",07-02-2024 18:00:00,26.10887,91.589544,SO2,NA,NA,NA
India,Assam,Guwahati,"Pan Bazaar, Guwahati - PCBA",07-02-2024 18:00:00,26.187500,91.744194,SO2,50,96,65
India,Assam,Nagaon,"Christianpatty, Nagaon - PCBA",07-02-2024 18:00:00,26.349082,92.68449,SO2,NA,NA,NA
India,Assam,Nalbari,"Bata Chowk, Nalbari - PCBA",07-02-2024 18:00:00,26.446912,91.439057,NO2,37,203,64
India,Assam,Silchar,"Tarapur, Silchar - PCBA",07-02-2024 18:00:00,24.82827,92.79525,PM10,57,75,66
India,Assam,Silchar,"Tarapur, Silchar - PCBA",07-02-2024 18:00:00,24.82827,92.79525,OZONE,1,8,3
India,Assam,Sivasagar,"Girls College, Sivasagar - PCBA",07-02-2024 18:00:00,26.987634,94.636574,NO2,16,28,20
India,Assam,Sivasagar,"Girls College, Sivasagar - PCBA",07-02-2024 18:00:00,26.987634,94.636574,CO,12,46,15
India,Bihar,Araria,"Kharahiya Basti, Araria - BSPCB",07-02-2024 18:00:00,26.146529,87.454184,NH3,6,7,6
India,Bihar,Arrah,"New DM Office, Arrah - BSPCB",07-02-2024 18:00:00,25.5626095,84.663264,PM2.5,50,147,80
India,Bihar,Bettiah,"Kamalnath Nagar, Bettiah - BSPCB",07-02-2024 18:00:00,26.80365,84.51954,PM2.5,13,50,29
India,Bihar,Bettiah,"Kamalnath Nagar, Bettiah - BSPCB",07-02-2024 18:00:00,26.80365,84.51954,OZONE,1,5,3
India,Bihar,Bhagalpur,"DM Office_Kachari Chowk, Bhagalpur - BSPCB",07-02-2024 18:00:00,25.251013,86.989001,NO2,37,72,51
India,Bihar,Bhagalpur,"DM Office_Kachari Chowk, Bhagalpur - BSPCB",07-02-2024 18:00:00,25.251013,86.989001,NH3,4,7,5
India,Bihar,Bhagalpur,"DM Office_Kachari Chowk, Bhagalpur - BSPCB",07-02-2024 18:00:00,25.251013,86.989001,SO2,6,25,15
India,Bihar,Bhagalpur,"DM Office_Kachari Chowk, Bhagalpur - BSPCB",07-02-2024 18:00:00,25.251013,86.989001,CO,40,47,42
India,Bihar,Bihar Sharif,"D M Colony, Bihar Sharif - BSPCB",07-02-2024 18:00:00,25.204762,85.514960,NO2,8,10,9
India,Bihar,Bihar Sharif,"D M Colony, Bihar Sharif - BSPCB",07-02-2024 18:00:00,25.204762,85.514960,CO,2,54,32
India,Bihar,Buxar,"Charitra Van, Buxar - BSPCB (Formerly known as Central Jail)",07-02-2024 18:00:00,25.567520,83.966379,PM10,183,417,251
India,Bihar,Gaya,"Collectorate, Gaya - BSPCB",07-02-2024 18:00:00,24.7955,84.9994,CO,36,86,47
India,Bihar,Gaya,"Kareemganj, Gaya - BSPCB",07-02-2024 18:00:00,24.792403,84.992416,NO2,30,31,30
India,Bihar,Gaya,"Kareemganj, Gaya - BSPCB",07-02-2024 18:00:00,24.792403,84.992416,SO2,7,11,9
India,Bihar,Gaya,"SFTI Kusdihra, Gaya - BSPCB",07-02-2024 18:00:00,24.762518,84.982348,CO,52,72,59
India,Bihar,Katihar,"Mirchaibari, Katihar - BSPCB",07-02-2024 18:00:00,25.560083,87.553265,NO2,6,28,12
India,Bihar,Katihar,"Mirchaibari, Katihar - BSPCB",07-02-2024 18:00:00,25.560083,87.553265,NH3,1,4,3
India,Bihar,Manguraha,"Forest Rest House, Manguraha - BSPCB",07-02-2024 18:00:00,27.308328,84.531742,OZONE,7,68,46
India,Bihar,Motihari,"Gandak Colony, Motihari - BSPCB",07-02-2024 18:00:00,26.63086,84.90051,PM10,46,104,66
India,Bihar,Muzaffarpur,"Buddha Colony, Muzaffarpur - BSPCB",07-02-2024 18:00:00,26.11442,85.39813,PM10,94,167,128
India,Bihar,Muzaffarpur,"Buddha Colony, Muzaffarpur - BSPCB",07-02-2024 18:00:00,26.11442,85.39813,SO2,5,11,7
India,Bihar,Muzaffarpur,"Buddha Colony, Muzaffarpur - BSPCB",07-02-2024 18:00:00,26.11442,85.39813,OZONE,44,103,88
India,Bihar,Muzaffarpur,"MIT-Daudpur Kothi, Muzaffarpur - BSPCB",07-02-2024 18:00:00,26.1403345,85.3650192,SO2,10,12,10
India,Bihar,Muzaffarpur,"Muzaffarpur Collectorate, Muzaffarpur - BSPCB",07-02-2024 18:00:00,26.1209,85.3647,PM2.5,49,95,76
India,Bihar,Muzaffarpur,"Muzaffarpur Collectorate, Muzaffarpur - BSPCB",07-02-2024 18:00:00,26.1209,85.3647,OZONE,34,118,70
India,Bihar,Patna,"DRM Office Danapur, Patna - BSPCB",07-02-2024 18:00:00,25.586562,85.043586,NO2,14,32,21
India,Bihar,Patna,"DRM Office Danapur, Patna - BSPCB",07-02-2024 18:00:00,25.586562,85.043586,CO,16,56,34
India,Bihar,Patna,"Govt. High School Shikarpur, Patna - BSPCB",07-02-2024 18:00:00,25.592539,85.227158,PM2.5,73,104,87
India,Bihar,Patna,"Rajbansi Nagar, Patna - BSPCB",07-02-2024 18:00:00,25.599486,85.113666,OZONE,2,74,53
India,Bihar,Patna,"Samanpura, Patna - BSPCB",07-02-2024 18:00:00,25.596727,85.085624,PM2.5,77,278,138
India,Bihar,Patna,"Samanpura, Patna - BSPCB",07-02-2024 18:00:00,25.596727,85.085624,NO2,24,38,30
India,Bihar,Purnia,"Mariam Nagar, Purnia - BSPCB",07-02-2024 18:00:00,25.366336,87.117468,PM2.5,27,137,73
India,Bihar,Saharsa,"Police Line, Saharsa - BSPCB",07-02-2024 18:00:00,25.892357,86.590325,PM10,53,102,72
India,Bihar,Samastipur,"DM Office_Kasipur, Samastipur - BSPCB",07-02-2024 18:00:00,25.859655,85.77944,PM10,36,109,71
India,Bihar,Samastipur,"DM Office_Kasipur, Samastipur - BSPCB",07-02-2024 18:00:00,25.859655,85.77944,SO2,3,13,9
India,Bihar,Sasaram,"Dada Peer, Sasaram - BSPCB",07-02-2024 18:00:00,24.952822,84.002396,NO2,1,12,5
India,Bihar,Siwan,"Chitragupta Nagar, Siwan - BSPCB",07-02-2024 18:00:00,26.2271665,84.3570427,PM2.5,20,75,46
India,Bihar,Siwan,"Chitragupta Nagar, Siwan - BSPCB",07-02-2024 18:00:00,26.2271665,84.3570427,OZONE,15,81,67
India,Chandigarh,Chandigarh,"Sector 22, Chandigarh - CPCC",07-02-2024 18:00:00,30.735567,76.775714,NH3,NA,NA,NA
India,Chandigarh,Chandigarh,"Sector-53, Chandigarh - CPCC",07-02-2024 18:00:00,30.719859,76.738637,PM2.5,65,243,120
India,Chandigarh,Chandigarh,"Sector-53, Chandigarh - CPCC",07-02-2024 18:00:00,30.719859,76.738637,PM10,74,151,110
India,Chhattisgarh,Bhilai,"32Bungalows, Bhilai - CECB",07-02-2024 18:00:00,21.194815,81.314770,NO2,16,26,20
India,Chhattisgarh,Bhilai,"32Bungalows, Bhilai - CECB",07-02-2024 18:00:00,21.194815,81.314770,CO,18,44,21
India,Chhattisgarh,Bhilai,"Hathkhoj, Bhilai - CECB",07-02-2024 18:00:00,21.224231,81.408350,PM2.5,34,127,63
India,Chhattisgarh,Bhilai,"Hathkhoj, Bhilai - CECB",07-02-2024 18:00:00,21.224231,81.408350,PM10,63,176,94
India,Chhattisgarh,Bhilai,"Hathkhoj, Bhilai - CECB",07-02-2024 18:00:00,21.224231,81.408350,OZONE,9,21,19
India,Chhattisgarh,Bilaspur,"Mangala, Bilaspur - NTPC",07-02-2024 18:00:00,22.08815,82.13737,NO2,16,17,16
India,Chhattisgarh,Chhal,"Nawapara SECL Colony, Chhal - CECB",07-02-2024 18:00:00,22.118125,83.140608,NO2,10,46,22
India,Chhattisgarh,Korba,"Rampur, Korba - CECB",07-02-2024 18:00:00,22.368195,82.746431,SO2,9,30,14
India,Chhattisgarh,Korba,"Rampur, Korba - CECB",07-02-2024 18:00:00,22.368195,82.746431,CO,16,34,21
India,Chhattisgarh,Korba,"Rampur, Korba - CECB",07-02-2024 18:00:00,22.368195,82.746431,OZONE,2,26,16
India,Chhattisgarh,Raipur,"Bhatagaon New ISBT, Raipur - CECB",07-02-2024 18:00:00,21.219665,81.630094,PM10,49,112,67
India,Chhattisgarh,Raipur,"Krishak Nagar, Raipur - CECB",07-02-2024 18:00:00,21.237755,81.705301,PM10,50,106,72
India,Chhattisgarh,Raipur,"Siltara Phase-II, Raipur - CECB",07-02-2024 18:00:00,21.371751,81.664929,CO,22,41,31
India,Chhattisgarh,Tumidih,"OP Jindal Industrial Park, Tumidih - CECB",07-02-2024 18:00:00,22.06631475,83.33820077,PM10,40,91,56
India,Delhi,Delhi,"Alipur, Delhi - DPCC",07-02-2024 18:00:00,28.815329,77.153010,PM2.5,38,245,107
India,Delhi,Delhi,"Alipur, Delhi - DPCC",07-02-2024 18:00:00,28.815329,77.153010,OZONE,4,96,88
India,Delhi,Delhi,"Anand Vihar, Delhi - DPCC",07-02-2024 18:00:00,28.647622,77.3158090,PM2.5,67,320,172
India,Delhi,Delhi,"Anand Vihar, Delhi - DPCC",07-02-2024 18:00:00,28.647622,77.3158090,NH3,2,9,5
India,Delhi,Delhi,"Anand Vihar, Delhi - DPCC",07-02-2024 18:00:00,28.647622,77.3158090,SO2,18,31,24
India,Delhi,Delhi,"Aya Nagar, Delhi - IMD",07-02-2024 18:00:00,28.4706914,77.1099364,PM2.5,7,302,109
India,Delhi,Delhi,"Aya Nagar, Delhi - IMD",07-02-2024 18:00:00,28.4706914,77.1099364,NO2,7,43,29
India,Delhi,Delhi,"Bawana, Delhi - DPCC",07-02-2024 18:00:00,28.776200,77.051074,PM10,118,309,173
India,Delhi,Delhi,"Bawana, Delhi - DPCC",07-02-2024 18:00:00,28.776200,77.051074,NO2,13,73,38
India,Delhi,Delhi,"Bawana, Delhi - DPCC",07-02-2024 18:00:00,28.776200,77.051074,NH3,4,7,6
India,Delhi,Delhi,"Burari Crossing, Delhi - IMD",07-02-2024 18:00:00,28.7256504,77.2011573,PM2.5,51,365,184
India,Delhi,Delhi,"Burari Crossing, Delhi - IMD",07-02-2024 18:00:00,28.7256504,77.2011573,PM10,127,441,225
India,Delhi,Delhi,"Burari Crossing, Delhi - IMD",07-02-2024 18:00:00,28.7256504,77.2011573,NO2,3,8,6
India,Delhi,Delhi,"Burari Crossing, Delhi - IMD",07-02-2024 18:00:00,28.7256504,77.2011573,CO,104,108,107
India,Delhi,Delhi,"CRRI Mathura Road, Delhi - IMD",07-02-2024 18:00:00,28.5512005,77.2735737,PM2.5,48,307,138
India,Delhi,Delhi,"Dr. Karni Singh Shooting Range, Delhi - DPCC",07-02-2024 18:00:00,28.498571,77.264840,PM2.5,58,274,172
India,Delhi,Delhi,"Dr. Karni Singh Shooting Range, Delhi - DPCC",07-02-2024 18:00:00,28.498571,77.264840,SO2,5,12,7
India,Delhi,Delhi,"Dwarka-Sector 8, Delhi - DPCC ",07-02-2024 18:00:00,28.5710274,77.0719006,PM10,127,470,265
India,Delhi,Delhi,"Dwarka-Sector 8, Delhi - DPCC ",07-02-2024 18:00:00,28.5710274,77.0719006,NO2,28,102,61
India,Delhi,Delhi,"IHBAS, Dilshad Garden, Delhi - CPCB",07-02-2024 18:00:00,28.6811736,77.3025234,PM2.5,55,230,119
India,Delhi,Delhi,"IHBAS, Dilshad Garden, Delhi - CPCB",07-02-2024 18:00:00,28.6811736,77.3025234,NH3,13,20,16
India,Delhi,Delhi,"IHBAS, Dilshad Garden, Delhi - CPCB",07-02-2024 18:00:00,28.6811736,77.3025234,SO2,8,25,12
India,Delhi,Delhi,"IHBAS, Dilshad Garden, Delhi - CPCB",07-02-2024 18:00:00,28.6811736,77.3025234,CO,20,72,36
India,Delhi,Delhi,"Lodhi Road, Delhi - IITM",07-02-2024 18:00:00,28.588333,77.221667,SO2,NA,NA,NA
India,Delhi,Delhi,"Lodhi Road, Delhi - IITM",07-02-2024 18:00:00,28.588333,77.221667,CO,NA,NA,NA
India,Delhi,Delhi,"Lodhi Road, Delhi - IITM",07-02-2024 18:00:00,28.588333,77.221667,OZONE,NA,NA,NA
India,Delhi,Delhi,"Lodhi Road, Delhi - IMD",07-02-2024 18:00:00,28.5918245,77.2273074,PM2.5,35,151,72
India,Delhi,Delhi,"Major Dhyan Chand National Stadium, Delhi - DPCC",07-02-2024 18:00:00,28.611281,77.237738,PM10,80,190,130
India,Delhi,Delhi,"Major Dhyan Chand National Stadium, Delhi - DPCC",07-02-2024 18:00:00,28.611281,77.237738,OZONE,1,122,100
India,Delhi,Delhi,"Mandir Marg, Delhi - DPCC",07-02-2024 18:00:00,28.636429,77.201067,PM10,87,152,124
India,Delhi,Delhi,"Mandir Marg, Delhi - DPCC",07-02-2024 18:00:00,28.636429,77.201067,NH3,17,19,18
India,Delhi,Delhi,"Mundka, Delhi - DPCC",07-02-2024 18:00:00,28.684678,77.076574,SO2,3,17,7
India,Delhi,Delhi,"Mundka, Delhi - DPCC",07-02-2024 18:00:00,28.684678,77.076574,CO,28,72,35
India,Delhi,Delhi,"NSIT Dwarka, Delhi - CPCB",07-02-2024 18:00:00,28.60909,77.0325413,CO,26,107,36
India,Delhi,Delhi,"Narela, Delhi - DPCC",07-02-2024 18:00:00,28.822836,77.101981,OZONE,10,125,108
India,Delhi,Delhi,"Nehru Nagar, Delhi - DPCC",07-02-2024 18:00:00,28.567890,77.250515,OZONE,1,113,92
India,Delhi,Delhi,"North Campus, DU, Delhi - IMD",07-02-2024 18:00:00,28.6573814,77.1585447,PM2.5,85,309,175
India,Delhi,Delhi,"North Campus, DU, Delhi - IMD",07-02-2024 18:00:00,28.6573814,77.1585447,PM10,114,246,148
India,Delhi,Delhi,"Okhla Phase-2, Delhi - DPCC",07-02-2024 18:00:00,28.530785,77.271255,OZONE,10,74,61
India,Delhi,Delhi,"Punjabi Bagh, Delhi - DPCC",07-02-2024 18:00:00,28.674045,77.131023,CO,4,71,30
India,Delhi,Delhi,"Punjabi Bagh, Delhi - DPCC",07-02-2024 18:00:00,28.674045,77.131023,OZONE,7,27,23
India,Delhi,Delhi,"Pusa, Delhi - DPCC",07-02-2024 18:00:00,28.639652,77.146275,NH3,19,27,22
India,Delhi,Delhi,"Pusa, Delhi - IMD",07-02-2024 18:00:00,28.636110,77.173332,PM2.5,NA,NA,NA
India,Delhi,Delhi,"Pusa, Delhi - IMD",07-02-2024 18:00:00,28.636110,77.173332,NO2,NA,NA,NA
India,Delhi,Delhi,"R K Puram, Delhi - DPCC",07-02-2024 18:00:00,28.563262,77.186937,PM10,104,266,170
India,Delhi,Delhi,"R K Puram, Delhi - DPCC",07-02-2024 18:00:00,28.563262,77.186937,OZONE,9,107,87
India,Delhi,Delhi,"Rohini, Delhi - DPCC",07-02-2024 18:00:00,28.732528,77.119920,PM10,100,388,166
India,Delhi,Delhi,"Rohini, Delhi - DPCC",07-02-2024 18:00:00,28.732528,77.119920,NH3,6,8,7
India,Delhi,Delhi,"Rohini, Delhi - DPCC",07-02-2024 18:00:00,28.732528,77.119920,SO2,8,16,11
India,Delhi,Delhi,"Rohini, Delhi - DPCC",07-02-2024 18:00:00,28.732528,77.119920,OZONE,2,89,72
India,Delhi,Delhi,"Shadipur, Delhi - CPCB",07-02-2024 18:00:00,28.6514781,77.1473105,PM10,109,280,179
India,Delhi,Delhi,"Shadipur, Delhi - CPCB",07-02-2024 18:00:00,28.6514781,77.1473105,OZONE,60,260,102
India,Delhi,Delhi,"Sirifort, Delhi - CPCB",07-02-2024 18:00:00,28.5504249,77.2159377,NO2,56,169,132
India,Delhi,Delhi,"Sonia Vihar, Delhi - DPCC",07-02-2024 18:00:00,28.710508,77.249485,PM10,88,450,181
India,Delhi,Delhi,"Sonia Vihar, Delhi - DPCC",07-02-2024 18:00:00,28.710508,77.249485,CO,41,106,49
India,Delhi,Delhi,"Sonia Vihar, Delhi - DPCC",07-02-2024 18:00:00,28.710508,77.249485,OZONE,4,74,68
India,Delhi,Delhi,"Sri Aurobindo Marg, Delhi - DPCC",07-02-2024 18:00:00,28.531346,77.190156,SO2,5,14,10
India,Delhi,Delhi,"Vivek Vihar, Delhi - DPCC",07-02-2024 18:00:00,28.672342,77.315260,NO2,36,103,63
India,Delhi,Delhi,"Vivek Vihar, Delhi - DPCC",07-02-2024 18:00:00,28.672342,77.315260,OZONE,3,47,24
India,Delhi,Delhi,"Wazirpur, Delhi - DPCC",07-02-2024 18:00:00,28.699793,77.165453,PM2.5,66,318,203
India,Delhi,Delhi,"Wazirpur, Delhi - DPCC",07-02-2024 18:00:00,28.699793,77.165453,NO2,68,223,139
India,Gujarat,Ahmedabad,"Chandkheda, Ahmedabad - IITM",07-02-2024 18:00:00,23.107969,72.574648,NO2,25,34,29
India,Gujarat,Ahmedabad,"Chandkheda, Ahmedabad - IITM",07-02-2024 18:00:00,23.107969,72.574648,OZONE,14,15,15
India,Gujarat,Ahmedabad,"Gyaspur, Ahmedabad - IITM",07-02-2024 18:00:00,22.977134,72.553024,PM2.5,69,377,123
India,Gujarat,Ahmedabad,"Gyaspur, Ahmedabad - IITM",07-02-2024 18:00:00,22.977134,72.553024,NO2,22,23,22
India,Gujarat,Ahmedabad,"Raikhad, Ahmedabad - IITM",07-02-2024 18:00:00,23.020509,72.579261,PM2.5,69,224,162
India,Gujarat,Ahmedabad,"Raikhad, Ahmedabad - IITM",07-02-2024 18:00:00,23.020509,72.579261,SO2,5,15,8
India,Gujarat,Ahmedabad,"Rakhial, Ahmedabad - IITM",07-02-2024 18:00:00,23.016834,72.625775,PM10,61,107,82
India,Gujarat,Ahmedabad,"SAC ISRO Bopal, Ahmedabad - IITM",07-02-2024 18:00:00,23.041137,72.456691,CO,30,34,33
India,Gujarat,Ahmedabad,"SAC ISRO Satellite, Ahmedabad - IITM",07-02-2024 18:00:00,23.023389,72.515201,NO2,17,17,17
India,Gujarat,Ahmedabad,"SAC ISRO Satellite, Ahmedabad - IITM",07-02-2024 18:00:00,23.023389,72.515201,NH3,3,3,3
India,Gujarat,Ahmedabad,"SVPI Airport Hansol, Ahmedabad - IITM",07-02-2024 18:00:00,23.076793,72.627874,NO2,16,16,16
India,Gujarat,Ahmedabad,"Sardar Vallabhbhai Patel Stadium, Ahmedabad - IITM",07-02-2024 18:00:00,23.043070,72.562968,SO2,7,17,11
India,Gujarat,Ahmedabad,"Sardar Vallabhbhai Patel Stadium, Ahmedabad - IITM",07-02-2024 18:00:00,23.043070,72.562968,OZONE,11,21,20
India,Gujarat,Ankleshwar,"GIDC, Ankleshwar - GPCB",07-02-2024 18:00:00,21.613267,73.010555,PM2.5,64,201,131
India,Gujarat,Ankleshwar,"GIDC, Ankleshwar - GPCB",07-02-2024 18:00:00,21.613267,73.010555,CO,54,111,73
India,Gujarat,Gandhinagar,"GIFT City, Gandhinagar - IITM",07-02-2024 18:00:00,23.163798,72.677768,PM2.5,65,178,86
India,Gujarat,Gandhinagar,"IIPHG Lekawada, Gandhinagar - IITM",07-02-2024 18:00:00,23.243639,72.68994,NO2,10,11,11
India,Gujarat,Gandhinagar,"Sector-10, Gandhinagar - GPCB",07-02-2024 18:00:00,23.221714,72.654328,CO,18,20,20
India,Gujarat,Surat,"Science Center, Surat - SMC",07-02-2024 18:00:00,21.170046,72.795405,NO2,7,24,14
India,Gujarat,Surat,"Science Center, Surat - SMC",07-02-2024 18:00:00,21.170046,72.795405,SO2,15,22,18
India,Gujarat,Vapi,"Phase-1 GIDC, Vapi - GPCB",07-02-2024 18:00:00,20.362421,72.918013,SO2,44,45,44
India,Gujarat,Vatva,"Phase-4 GIDC, Vatva - GPCB",07-02-2024 18:00:00,22.969611,72.643500,NH3,1,2,2
India,Haryana,Ambala,"Patti Mehar, Ambala - HSPCB",07-02-2024 18:00:00,30.379589,76.778328,PM10,33,69,49
India,Haryana,Bahadurgarh,"Arya Nagar, Bahadurgarh - HSPCB",07-02-2024 18:00:00,28.6701,76.9254,PM10,71,177,118
India,Haryana,Bhiwani,"H.B. Colony, Bhiwani - HSPCB",07-02-2024 18:00:00,28.806223,76.141105,PM10,64,120,100
India,Haryana,Charkhi Dadri,"Mini Secretariat, Charkhi Dadri - HSPCB",07-02-2024 18:00:00,28.593883,76.270653,NH3,5,6,5
India,Haryana,Charkhi Dadri,"Mini Secretariat, Charkhi Dadri - HSPCB",07-02-2024 18:00:00,28.593883,76.270653,OZONE,12,18,15
India,Haryana,Dharuhera,"Municipal Corporation Office, Dharuhera -  HSPCB",07-02-2024 18:00:00,28.206800,76.799700,PM2.5,23,184,88
India,Haryana,Dharuhera,"Municipal Corporation Office, Dharuhera -  HSPCB",07-02-2024 18:00:00,28.206800,76.799700,SO2,NA,NA,NA
India,Haryana,Dharuhera,"Municipal Corporation Office, Dharuhera -  HSPCB",07-02-2024 18:00:00,28.206800,76.799700,CO,10,102,53
India,Haryana,Faridabad,"New Industrial Town, Faridabad - HSPCB",07-02-2024 18:00:00,28.39072,77.30059,NH3,3,7,4
India,Haryana,Faridabad,"Sector 11, Faridabad - HSPCB",07-02-2024 18:00:00,28.376058,77.315741,NH3,6,7,6
India,Haryana,Fatehabad,"Huda Sector, Fatehabad - HSPCB",07-02-2024 18:00:00,29.503664,75.467934,SO2,3,15,8
India,Haryana,Gurugram,"Teri Gram, Gurugram - HSPCB",07-02-2024 18:00:00,28.4275,77.1465,NH3,27,41,33
India,Haryana,Gurugram,"Vikas Sadan, Gurugram - HSPCB",07-02-2024 18:00:00,28.4501238,77.0263051,SO2,22,30,26
India,Haryana,Hisar,"Urban Estate-II, Hisar - HSPCB",07-02-2024 18:00:00,29.140560,75.744941,NO2,7,35,10
India,Haryana,Jind,"Police Lines, Jind - HSPCB",07-02-2024 18:00:00,29.307814,76.337619,PM2.5,50,101,83
India,Haryana,Kaithal,"Rishi Nagar, Kaithal - HSPCB",07-02-2024 18:00:00,29.8006,76.4155,PM2.5,45,106,71
India,Haryana,Karnal,"Sector-12, Karnal - HSPCB",07-02-2024 18:00:00,29.695300,77.002700,PM10,62,101,75
India,Haryana,Karnal,"Sector-12, Karnal - HSPCB",07-02-2024 18:00:00,29.695300,77.002700,NH3,10,13,12
India,Haryana,Karnal,"Sector-12, Karnal - HSPCB",07-02-2024 18:00:00,29.695300,77.002700,SO2,12,13,12
India,Haryana,Karnal,"Sector-12, Karnal - HSPCB",07-02-2024 18:00:00,29.695300,77.002700,CO,26,37,31
India,Haryana,Mandikhera,"General Hospital, Mandikhera - HSPCB",07-02-2024 18:00:00,27.9002,76.9938,NO2,17,22,18
India,Haryana,Mandikhera,"General Hospital, Mandikhera - HSPCB",07-02-2024 18:00:00,27.9002,76.9938,OZONE,24,33,27
India,Haryana,Manesar,"Sector-2 IMT, Manesar - HSPCB",07-02-2024 18:00:00,28.360699,76.936090,SO2,7,44,31
India,Haryana,Manesar,"Sector-2 IMT, Manesar - HSPCB",07-02-2024 18:00:00,28.360699,76.936090,OZONE,5,49,42
India,Haryana,Narnaul,"Shastri Nagar, Narnaul - HSPCB",07-02-2024 18:00:00,28.060249,76.113115,PM10,28,153,71
India,Haryana,Palwal,"Shyam Nagar, Palwal - HSPCB",07-02-2024 18:00:00,28.1485564,77.3320667,PM2.5,55,77,66
India,Haryana,Panchkula,"Sector-6, Panchkula - HSPCB ",07-02-2024 18:00:00,30.7057778,76.8531805555555,NO2,28,30,29
India,Haryana,Panipat,"Sector-18, Panipat - HSPCB",07-02-2024 18:00:00,29.497973,76.993331,PM10,49,95,64
India,Haryana,Sirsa,"F-Block, Sirsa - HSPCB",07-02-2024 18:00:00,29.536400,75.015800,SO2,NA,NA,NA
India,Haryana,Sirsa,"F-Block, Sirsa - HSPCB",07-02-2024 18:00:00,29.536400,75.015800,CO,66,102,83
India,Haryana,Sonipat,"Murthal, Sonipat - HSPCB",07-02-2024 18:00:00,29.027200,77.062100,CO,10,18,15
India,Jharkhand,Dhanbad,"Kalakusuma, Dhanbad - DMC",07-02-2024 18:00:00,23.811548,86.481238,NO2,NA,NA,NA
India,Jharkhand,Dhanbad,"Sardar Patel Nagar, Dhanbad - JSPCB",07-02-2024 18:00:00,23.80569,86.44268,PM10,NA,NA,NA
India,Jharkhand,Dhanbad,"Sardar Patel Nagar, Dhanbad - JSPCB",07-02-2024 18:00:00,23.80569,86.44268,NO2,NA,NA,NA
India,Jharkhand,Pathardih,"Mohalbani Ghat, Pathardih - DMC",07-02-2024 18:00:00,23.669880,86.411725,PM2.5,NA,NA,NA
India,Karnataka,Bagalkot,"Vidayagiri, Bagalkot - KSPCB",07-02-2024 18:00:00,16.172806,75.659694,PM10,46,51,48
India,Karnataka,Bengaluru,"BTM Layout, Bengaluru - CPCB",07-02-2024 18:00:00,12.9135218,77.5950804,PM2.5,22,39,29
India,Karnataka,Bengaluru,"BTM Layout, Bengaluru - CPCB",07-02-2024 18:00:00,12.9135218,77.5950804,PM10,39,106,70
India,Karnataka,Bengaluru,"Bapuji Nagar, Bengaluru - KSPCB",07-02-2024 18:00:00,12.951913,77.539784,PM2.5,53,178,81
India,Karnataka,Bengaluru,"Hebbal, Bengaluru - KSPCB",07-02-2024 18:00:00,13.029152,77.585901,NO2,NA,NA,NA
India,Karnataka,Bengaluru,"Hebbal, Bengaluru - KSPCB",07-02-2024 18:00:00,13.029152,77.585901,SO2,NA,NA,NA
India,Karnataka,Bengaluru,"Hebbal, Bengaluru - KSPCB",07-02-2024 18:00:00,13.029152,77.585901,OZONE,NA,NA,NA
India,Karnataka,Bengaluru,"Hombegowda Nagar, Bengaluru - KSPCB",07-02-2024 18:00:00,12.938539,77.590100,OZONE,4,5,4
India,Karnataka,Bengaluru,"Jayanagar 5th Block, Bengaluru - KSPCB",07-02-2024 18:00:00,12.920984,77.584908,PM2.5,58,98,86
India,Karnataka,Bengaluru,"Jayanagar 5th Block, Bengaluru - KSPCB",07-02-2024 18:00:00,12.920984,77.584908,NH3,2,5,3
India,Karnataka,Bengaluru,"Kasturi Nagar, Bengaluru - KSPCB",07-02-2024 18:00:00,13.003872,77.664217,PM2.5,15,312,125
India,Karnataka,Bengaluru,"Kasturi Nagar, Bengaluru - KSPCB",07-02-2024 18:00:00,13.003872,77.664217,NO2,16,17,16
India,Karnataka,Bengaluru,"Kasturi Nagar, Bengaluru - KSPCB",07-02-2024 18:00:00,13.003872,77.664217,CO,24,25,24
India,Karnataka,Bengaluru,"Kasturi Nagar, Bengaluru - KSPCB",07-02-2024 18:00:00,13.003872,77.664217,OZONE,27,78,71
India,Karnataka,Bengaluru,"Peenya, Bengaluru - CPCB",07-02-2024 18:00:00,13.0270199,77.494094,PM2.5,NA,NA,NA
India,Karnataka,Bengaluru,"Peenya, Bengaluru - CPCB",07-02-2024 18:00:00,13.0270199,77.494094,SO2,13,24,17
India,Karnataka,Bengaluru,"Peenya, Bengaluru - CPCB",07-02-2024 18:00:00,13.0270199,77.494094,CO,26,54,33
India,Karnataka,Bengaluru,"Shivapura_Peenya, Bengaluru - KSPCB",07-02-2024 18:00:00,13.0246342,77.5080115,NO2,15,16,15
India,Karnataka,Bengaluru,"Silk Board, Bengaluru - KSPCB",07-02-2024 18:00:00,12.917348,77.622813,NH3,4,7,5
India,Karnataka,Chamarajanagar,"Urban, Chamarajanagar - KSPCB",07-02-2024 18:00:00,11.55358,76.55521,NH3,2,3,2
India,Karnataka,Chikkaballapur,"Chikkaballapur Rural, Chikkaballapur - KSPCB",07-02-2024 18:00:00,13.428828,77.731418,NO2,7,21,10
India,Karnataka,Chikkamagaluru,"Kalyana Nagara, Chikkamagaluru - KSPCB",07-02-2024 18:00:00,13.328028,75.797056,OZONE,18,68,53
India,Karnataka,Davanagere,"Devaraj Urs Badavane, Davanagere - KSPCB",07-02-2024 18:00:00,14.475800,75.905200,NH3,1,1,1
India,Karnataka,Davanagere,"Devaraj Urs Badavane, Davanagere - KSPCB",07-02-2024 18:00:00,14.475800,75.905200,CO,16,21,17
India,Karnataka,Dharwad,"Kalabhavan, Dharwad - KSPCB",07-02-2024 18:00:00,15.459706,75.008381,NH3,2,3,3
India,Karnataka,Dharwad,"Kalabhavan, Dharwad - KSPCB",07-02-2024 18:00:00,15.459706,75.008381,SO2,4,11,7
India,Karnataka,Gadag,"Panchal Nagar, Gadag - KSPCB",07-02-2024 18:00:00,15.411456,75.638133,PM2.5,28,78,45
India,Karnataka,Haveri,"Ashwini Nagar, Haveri - KSPCB",07-02-2024 18:00:00,14.791800,75.389600,PM2.5,NA,NA,NA
India,Karnataka,Haveri,"Ashwini Nagar, Haveri - KSPCB",07-02-2024 18:00:00,14.791800,75.389600,CO,26,35,34
India,Karnataka,Hubballi,"Lingaraj Nagar, Hubballi - KSPCB",07-02-2024 18:00:00,15.3714823,75.1160168,CO,NA,NA,NA
India,Karnataka,Hubballi,"Lingaraj Nagar, Hubballi - KSPCB",07-02-2024 18:00:00,15.3714823,75.1160168,OZONE,NA,NA,NA
India,Karnataka,Kalaburagi,"Mahatma Basaveswar Colony, Kalaburgi - KSPCB",07-02-2024 18:00:00,17.336318,76.847397,CO,35,110,39
India,Karnataka,Kolar,"Tamaka Ind. Area, Kolar - KSPCB",07-02-2024 18:00:00,13.1276288,78.1570122,OZONE,15,41,32
India,Karnataka,Koppal,"Diwator Nagar, Koppal - KSPCB",07-02-2024 18:00:00,15.347630,76.181767,OZONE,1,36,22
India,Karnataka,Madikeri,"Stuart Hill, Madikeri - KSPCB",07-02-2024 18:00:00,12.415911,75.735050,PM10,24,73,39
India,Karnataka,Madikeri,"Stuart Hill, Madikeri - KSPCB",07-02-2024 18:00:00,12.415911,75.735050,SO2,4,4,4
India,Karnataka,Mangalore,"Kadri, Mangalore - KSPCB",07-02-2024 18:00:00,12.889250,74.853000,CO,46,55,48
India,Karnataka,Mangalore,"Kadri, Mangalore - KSPCB",07-02-2024 18:00:00,12.889250,74.853000,OZONE,30,32,31
India,Karnataka,Mysuru,"Hebbal 1st Stage, Mysuru - KSPCB",07-02-2024 18:00:00,12.21041,76.37376,PM10,50,77,59
India,Karnataka,Mysuru,"Hebbal 1st Stage, Mysuru - KSPCB",07-02-2024 18:00:00,12.21041,76.37376,OZONE,8,90,71
India,Karnataka,Raichur,"Haji Colony, Raichur - KSPCB",07-02-2024 18:00:00,16.208139,77.348417,PM10,79,240,123
India,Karnataka,Raichur,"Haji Colony, Raichur - KSPCB",07-02-2024 18:00:00,16.208139,77.348417,SO2,61,73,66
India,Karnataka,Shivamogga,"Vinoba Nagara, Shivamogga - KSPCB",07-02-2024 18:00:00,13.940000,75.555917,PM10,59,87,71
India,Karnataka,Shivamogga,"Vinoba Nagara, Shivamogga - KSPCB",07-02-2024 18:00:00,13.940000,75.555917,SO2,2,14,6
India,Karnataka,Tumakuru,"Thimmalapura, Tumakuru - KSPCB",07-02-2024 18:00:00,13.377516,77.099072,PM2.5,18,127,64
India,Karnataka,Tumakuru,"Thimmalapura, Tumakuru - KSPCB",07-02-2024 18:00:00,13.377516,77.099072,NH3,NA,NA,NA
India,Karnataka,Udupi,"Brahmagiri, Udupi - KSPCB",07-02-2024 18:00:00,13.34194444,74.74694444,PM10,41,98,60
India,Karnataka,Udupi,"Brahmagiri, Udupi - KSPCB",07-02-2024 18:00:00,13.34194444,74.74694444,NO2,13,14,14
India,Karnataka,Vijayapura,"Ibrahimpur, Vijayapura - KSPCB",07-02-2024 18:00:00,16.802639,75.722694,SO2,11,63,28
India,Karnataka,Vijayapura,"Ibrahimpur, Vijayapura - KSPCB",07-02-2024 18:00:00,16.802639,75.722694,CO,31,65,45
India,Kerala,Eloor,"Udyogamandal, Eloor - Kerala PCB",07-02-2024 18:00:00,10.073232,76.302765,NH3,1,1,1
India,Kerala,Eloor,"Udyogamandal, Eloor - Kerala PCB",07-02-2024 18:00:00,10.073232,76.302765,OZONE,11,19,16
India,Kerala,Kannur,"Thavakkara, Kannur - Kerala PCB",07-02-2024 18:00:00,11.875000,75.373200,SO2,5,6,5
India,Kerala,Kochi,"Vyttila, Kochi - Kerala PCB",07-02-2024 18:00:00,9.969447,76.321186,NO2,2,14,6
India,Kerala,Kollam,"Polayathode, Kollam - Kerala PCB",07-02-2024 18:00:00,8.8787,76.6073,CO,8,43,20
India,Kerala,Thiruvananthapuram,"Kariavattom, Thiruvananthapuram - Kerala PCB",07-02-2024 18:00:00,8.563700,76.886500,PM2.5,75,84,79
India,Kerala,Thiruvananthapuram,"Kariavattom, Thiruvananthapuram - Kerala PCB",07-02-2024 18:00:00,8.563700,76.886500,OZONE,28,31,29
India,Kerala,Thiruvananthapuram,"Plammoodu, Thiruvananthapuram - Kerala PCB",07-02-2024 18:00:00,8.5149093,76.9435879,PM2.5,27,56,38
India,Kerala,Thiruvananthapuram,"Plammoodu, Thiruvananthapuram - Kerala PCB",07-02-2024 18:00:00,8.5149093,76.9435879,PM10,31,60,42
India,Kerala,Thiruvananthapuram,"Plammoodu, Thiruvananthapuram - Kerala PCB",07-02-2024 18:00:00,8.5149093,76.9435879,NO2,12,13,12
India,Kerala,Thiruvananthapuram,"Plammoodu, Thiruvananthapuram - Kerala PCB",07-02-2024 18:00:00,8.5149093,76.9435879,NH3,2,2,2
India,Kerala,Thrissur,"Corporation Ground, Thrissur - Kerala PCB",07-02-2024 18:00:00,10.532400,76.215900,CO,14,48,28
India,Madhya Pradesh,Bhopal,"Idgah Hills, Bhopal - MPPCB",07-02-2024 18:00:00,23.264759,77.381568,PM2.5,38,123,79
India,Madhya Pradesh,Bhopal,"Idgah Hills, Bhopal - MPPCB",07-02-2024 18:00:00,23.264759,77.381568,NO2,14,30,22
India,Madhya Pradesh,Bhopal,"T T Nagar, Bhopal - MPPCB",07-02-2024 18:00:00,23.233584,77.400574,NH3,3,8,7
India,Madhya Pradesh,Bhopal,"T T Nagar, Bhopal - MPPCB",07-02-2024 18:00:00,23.233584,77.400574,SO2,15,50,32
India,Madhya Pradesh,Dewas,"Bhopal Chauraha, Dewas - MPPCB",07-02-2024 18:00:00,22.9682591,76.064118,PM2.5,40,92,74
India,Madhya Pradesh,Dewas,"Bhopal Chauraha, Dewas - MPPCB",07-02-2024 18:00:00,22.9682591,76.064118,NH3,3,3,3
India,Madhya Pradesh,Gwalior,"City Center, Gwalior - MPPCB",07-02-2024 18:00:00,26.203442,78.193251,NH3,4,7,5
India,Madhya Pradesh,Gwalior,"Deen Dayal Nagar, Gwalior - MPPCB",07-02-2024 18:00:00,26.259242,78.216432,SO2,14,20,18
India,Madhya Pradesh,Gwalior,"Maharaj Bada, Gwalior - MPPCB",07-02-2024 18:00:00,26.200388,78.147714,CO,10,131,28
India,Madhya Pradesh,Gwalior,"Maharaj Bada, Gwalior - MPPCB",07-02-2024 18:00:00,26.200388,78.147714,OZONE,4,94,86
India,Madhya Pradesh,Gwalior,"Phool Bagh, Gwalior - Mondelez Ind. Food",07-02-2024 18:00:00,26.210536,78.171,PM2.5,5,311,141
India,Madhya Pradesh,Indore,"Residency Area, Indore - IMC",07-02-2024 18:00:00,22.7084,75.8815,CO,7,14,9
India,Madhya Pradesh,Jabalpur,"Govindh Bhavan Colony, Jabalpur - JMC",07-02-2024 18:00:00,23.163174,79.973061,PM10,36,74,52
India,Madhya Pradesh,Jabalpur,"Govindh Bhavan Colony, Jabalpur - JMC",07-02-2024 18:00:00,23.163174,79.973061,OZONE,11,97,82
India,Madhya Pradesh,Jabalpur,"Gupteshwar, Jabalpur - JMC",07-02-2024 18:00:00,23.142888,79.916147,NO2,10,27,15
India,Madhya Pradesh,Jabalpur,"Gupteshwar, Jabalpur - JMC",07-02-2024 18:00:00,23.142888,79.916147,NH3,2,3,2
India,Madhya Pradesh,Jabalpur,"Marhatal, Jabalpur - MPPCB",07-02-2024 18:00:00,23.168606,79.932247,PM2.5,46,141,88
India,Madhya Pradesh,Jabalpur,"Marhatal, Jabalpur - MPPCB",07-02-2024 18:00:00,23.168606,79.932247,CO,38,62,46
India,Madhya Pradesh,Jabalpur,"Marhatal, Jabalpur - MPPCB",07-02-2024 18:00:00,23.168606,79.932247,OZONE,8,49,25
India,Madhya Pradesh,Katni,"Gole Bazar, Katni - MPPCB",07-02-2024 18:00:00,23.50016,80.23284,NH3,6,12,7
India,Madhya Pradesh,Maihar,"Sahilara, Maihar - KJS Cements",07-02-2024 18:00:00,24.2613009,80.7231783,NO2,14,14,14
India,Madhya Pradesh,Maihar,"Sahilara, Maihar - KJS Cements",07-02-2024 18:00:00,24.2613009,80.7231783,CO,22,32,24
India,Madhya Pradesh,Mandideep,"Sector-D Industrial Area, Mandideep - MPPCB",07-02-2024 18:00:00,23.108440,77.511428,SO2,36,125,90
India,Madhya Pradesh,Pithampur,"Sector-2 Industrial Area, Pithampur - MPPCB",07-02-2024 18:00:00,22.624758,75.675238,PM2.5,45,199,95
India,Madhya Pradesh,Pithampur,"Sector-2 Industrial Area, Pithampur - MPPCB",07-02-2024 18:00:00,22.624758,75.675238,CO,36,76,46
India,Madhya Pradesh,Pithampur,"Sector-2 Industrial Area, Pithampur - MPPCB",07-02-2024 18:00:00,22.624758,75.675238,OZONE,9,66,47
India,Madhya Pradesh,Ratlam,"Shasthri Nagar, Ratlam - IPCA Lab",07-02-2024 18:00:00,23.331731,75.045981,PM10,80,159,116
India,Madhya Pradesh,Sagar,"Civil Lines, Sagar - MPPCB",07-02-2024 18:00:00,23.838586,78.759431,CO,14,36,18
India,Madhya Pradesh,Sagar,"Civil Lines, Sagar - MPPCB",07-02-2024 18:00:00,23.838586,78.759431,OZONE,41,52,49
India,Madhya Pradesh,Sagar,"Deen Dayal Nagar, Sagar - MPPCB",07-02-2024 18:00:00,23.8640158,78.80289321,SO2,3,14,8
India,Madhya Pradesh,Satna,"Bandhavgar Colony, Satna - Birla Cement",07-02-2024 18:00:00,24.58434363,80.8549414,PM2.5,13,28,17
India,Madhya Pradesh,Satna,"Bandhavgar Colony, Satna - Birla Cement",07-02-2024 18:00:00,24.58434363,80.8549414,SO2,3,6,4
India,Madhya Pradesh,Ujjain,"Mahakaleshwar Temple, Ujjain - MPPCB",07-02-2024 18:00:00,23.182719 ,75.768218 ,PM10,66,113,79
India,Madhya Pradesh,Ujjain,"Mahakaleshwar Temple, Ujjain - MPPCB",07-02-2024 18:00:00,23.182719 ,75.768218 ,SO2,4,9,7
India,Madhya Pradesh,Ujjain,"Mahakaleshwar Temple, Ujjain - MPPCB",07-02-2024 18:00:00,23.182719 ,75.768218 ,CO,20,70,34
India,Maharashtra,Ahmednagar,"Tarakpur, Ahmednagar - MPCB",07-02-2024 18:00:00,19.10122,74.73339,PM2.5,37,118,70
India,Maharashtra,Ahmednagar,"Tarakpur, Ahmednagar - MPCB",07-02-2024 18:00:00,19.10122,74.73339,NH3,2,6,4
India,Maharashtra,Akola,"Ramdaspeth, Akola - MPCB",07-02-2024 18:00:00,20.719516,77.000253,NH3,5,13,8
India,Maharashtra,Akola,"Ramdaspeth, Akola - MPCB",07-02-2024 18:00:00,20.719516,77.000253,CO,24,117,29
India,Maharashtra,Amravati,"Shivneri Colony, Amravati - MPCB",07-02-2024 18:00:00,20.9402359,77.7895248,SO2,2,14,6
India,Maharashtra,Amravati,"Shri Shivaji Science College, Amaravati - MPCB",07-02-2024 18:00:00,20.939198,77.765701,NO2,11,96,28
India,Maharashtra,Amravati,"Shri Shivaji Science College, Amaravati - MPCB",07-02-2024 18:00:00,20.939198,77.765701,SO2,3,18,14
India,Maharashtra,Aurangabad,"MIDC Chilkalthana, Aurangabad - MPCB",07-02-2024 18:00:00,19.875620,75.387310,NO2,9,121,46
India,Maharashtra,Badlapur,"Katrap, Badlapur - MPCB",07-02-2024 18:00:00,19.16485,73.23409,PM2.5,57,210,110
India,Maharashtra,Badlapur,"Katrap, Badlapur - MPCB",07-02-2024 18:00:00,19.16485,73.23409,NH3,2,5,3
India,Maharashtra,Badlapur,"Katrap, Badlapur - MPCB",07-02-2024 18:00:00,19.16485,73.23409,CO,16,95,29
India,Maharashtra,Belapur,"CBD Belapur, Belapur - MPCB",07-02-2024 18:00:00,19.0243902,73.0406721,NO2,13,68,44
India,Maharashtra,Belapur,"CBD Belapur, Belapur - MPCB",07-02-2024 18:00:00,19.0243902,73.0406721,CO,16,50,30
India,Maharashtra,Belapur,"CBD Belapur, Belapur - MPCB",07-02-2024 18:00:00,19.0243902,73.0406721,OZONE,1,76,54
India,Maharashtra,Boisar,"Khaira, Boisar - MPCB",07-02-2024 18:00:00,19.786089,72.757971,NO2,12,33,18
India,Maharashtra,Chandrapur,"Chauhan Colony, Chandrapur - MPCB",07-02-2024 18:00:00,19.962900,79.298714,NH3,2,2,2
India,Maharashtra,Dhule,"Deopur, Dhule - MPCB",07-02-2024 18:00:00,20.918946,74.776388,SO2,1,20,9
India,Maharashtra,Jalna,"Old MIDC, Jalna - MPCB",07-02-2024 18:00:00,19.854616,75.905894,PM10,79,416,146
India,Maharashtra,Kalyan,"Khadakpada, Kalyan - MPCB",07-02-2024 18:00:00,19.25292,73.142019,PM2.5,35,121,63
India,Maharashtra,Kalyan,"Khadakpada, Kalyan - MPCB",07-02-2024 18:00:00,19.25292,73.142019,NO2,18,146,43
India,Maharashtra,Kalyan,"Khadakpada, Kalyan - MPCB",07-02-2024 18:00:00,19.25292,73.142019,NH3,1,4,1
India,Maharashtra,Kolhapur,"Sinchan Bhavan, Kolhapur - MPCB",07-02-2024 18:00:00,16.7143745,74.2426398,SO2,NA,NA,NA
India,Maharashtra,Latur,"Sawe Wadi, Latur - MPCB",07-02-2024 18:00:00,18.39963,76.57452,NO2,9,179,37
India,Maharashtra,Latur,"Sawe Wadi, Latur - MPCB",07-02-2024 18:00:00,18.39963,76.57452,CO,18,110,20
India,Maharashtra,Mahad,"Kamble Tarf Birwadi, Mahad - MPCB",07-02-2024 18:00:00,18.1023399,73.4783687,CO,24,28,25
India,Maharashtra,Mahad,"Kamble Tarf Birwadi, Mahad - MPCB",07-02-2024 18:00:00,18.1023399,73.4783687,OZONE,14,72,43
India,Maharashtra,Mira-Bhayandar,"Bhayandar West, Mira-Bhayandar - MPCB",07-02-2024 18:00:00,19.296481,72.840923,OZONE,1,66,50
India,Maharashtra,Mumbai,"Bandra Kurla Complex, Mumbai - MPCB",07-02-2024 18:00:00,19.065931,72.862131,PM2.5,83,183,117
India,Maharashtra,Mumbai,"Borivali East, Mumbai - IITM",07-02-2024 18:00:00,19.23241,72.86895,PM10,97,173,133
India,Maharashtra,Mumbai,"Byculla, Mumbai - BMC",07-02-2024 18:00:00,18.9767,72.8380,PM10,60,115,83
India,Maharashtra,Mumbai,"Byculla, Mumbai - BMC",07-02-2024 18:00:00,18.9767,72.8380,CO,12,37,27
India,Maharashtra,Mumbai,"Byculla, Mumbai - BMC",07-02-2024 18:00:00,18.9767,72.8380,OZONE,5,100,79
India,Maharashtra,Mumbai,"Chakala-Andheri East, Mumbai - IITM",07-02-2024 18:00:00,19.11074,72.86084,PM10,NA,NA,NA
India,Maharashtra,Mumbai,"Chakala-Andheri East, Mumbai - IITM",07-02-2024 18:00:00,19.11074,72.86084,CO,46,112,77
India,Maharashtra,Mumbai,"Chembur, Mumbai - MPCB",07-02-2024 18:00:00,19.0364585,72.8954371,NO2,34,110,68
India,Maharashtra,Mumbai,"Ghatkopar, Mumbai - BMC",07-02-2024 18:00:00,19.083694,72.920967,PM10,79,128,99
India,Maharashtra,Mumbai,"Ghatkopar, Mumbai - BMC",07-02-2024 18:00:00,19.083694,72.920967,NH3,1,1,1
India,Maharashtra,Mumbai,"Kherwadi_Bandra East, Mumbai - MPCB",07-02-2024 18:00:00,19.0632143,72.8456324,PM10,68,153,111
India,Maharashtra,Mumbai,"Khindipada-Bhandup West, Mumbai - IITM",07-02-2024 18:00:00,19.1653323,72.922099,OZONE,2,20,13
India,Maharashtra,Mumbai,"Malad West, Mumbai - IITM",07-02-2024 18:00:00,19.19709,72.82204,PM2.5,78,243,141
India,Maharashtra,Mumbai,"Malad West, Mumbai - IITM",07-02-2024 18:00:00,19.19709,72.82204,NO2,13,17,15
India,Maharashtra,Mumbai,"Malad West, Mumbai - IITM",07-02-2024 18:00:00,19.19709,72.82204,SO2,4,13,8
India,Maharashtra,Mumbai,"Mazgaon, Mumbai - IITM",07-02-2024 18:00:00,18.96702,72.84214,PM2.5,74,328,149
India,Maharashtra,Mumbai,"Mazgaon, Mumbai - IITM",07-02-2024 18:00:00,18.96702,72.84214,PM10,94,422,157
India,Maharashtra,Mumbai,"Mindspace-Malad West, Mumbai - MPCB",07-02-2024 18:00:00,19.1878657,72.8304069,PM10,115,115,115
India,Maharashtra,Mumbai,"Mulund West, Mumbai - MPCB",07-02-2024 18:00:00,19.1750,72.9419,PM10,59,135,89
India,Maharashtra,Mumbai,"Mulund West, Mumbai - MPCB",07-02-2024 18:00:00,19.1750,72.9419,NH3,9,11,9
India,Maharashtra,Mumbai,"Mulund West, Mumbai - MPCB",07-02-2024 18:00:00,19.1750,72.9419,CO,32,32,32
India,Maharashtra,Mumbai,"Powai, Mumbai - MPCB",07-02-2024 18:00:00,19.137500,72.915056,CO,34,44,40
India,Maharashtra,Mumbai,"Siddharth Nagar-Worli, Mumbai - IITM",07-02-2024 18:00:00,19.000083,72.813993,PM10,NA,NA,NA
India,Maharashtra,Mumbai,"Sion, Mumbai - MPCB",07-02-2024 18:00:00,19.047000,72.874600,NO2,14,56,33
India,Maharashtra,Mumbai,"Sion, Mumbai - MPCB",07-02-2024 18:00:00,19.047000,72.874600,OZONE,12,35,19
India,Maharashtra,Mumbai,"Vasai West, Mumbai - MPCB",07-02-2024 18:00:00,19.383200,72.820400,CO,20,109,29
India,Maharashtra,Mumbai,"Vile Parle West, Mumbai - MPCB",07-02-2024 18:00:00,19.10861,72.83622,PM2.5,32,71,54
India,Maharashtra,Mumbai,"Worli, Mumbai - MPCB",07-02-2024 18:00:00,18.9936162,72.8128113,PM2.5,NA,NA,NA
India,Maharashtra,Mumbai,"Worli, Mumbai - MPCB",07-02-2024 18:00:00,18.9936162,72.8128113,PM10,66,118,94
India,Maharashtra,Nagpur,"Ambazari, Nagpur - MPCB",07-02-2024 18:00:00,21.121801,79.04952,PM2.5,74,140,119
India,Maharashtra,Nagpur,"Ambazari, Nagpur - MPCB",07-02-2024 18:00:00,21.121801,79.04952,OZONE,14,120,92
India,Maharashtra,Nagpur,"Opp GPO Civil Lines, Nagpur - MPCB",07-02-2024 18:00:00,21.152875,79.0517531,NO2,12,125,38
India,Maharashtra,Nagpur,"Opp GPO Civil Lines, Nagpur - MPCB",07-02-2024 18:00:00,21.152875,79.0517531,NH3,3,15,4
India,Maharashtra,Nagpur,"Opp GPO Civil Lines, Nagpur - MPCB",07-02-2024 18:00:00,21.152875,79.0517531,SO2,11,127,35
India,Maharashtra,Nagpur,"Opp GPO Civil Lines, Nagpur - MPCB",07-02-2024 18:00:00,21.152875,79.0517531,CO,10,122,31
India,Maharashtra,Nanded,"Sneh Nagar, Nanded - MPCB",07-02-2024 18:00:00,19.173852,77.296291,PM2.5,NA,NA,NA
India,Maharashtra,Nanded,"Sneh Nagar, Nanded - MPCB",07-02-2024 18:00:00,19.173852,77.296291,NO2,NA,NA,NA
India,Maharashtra,Nanded,"Sneh Nagar, Nanded - MPCB",07-02-2024 18:00:00,19.173852,77.296291,NH3,1,3,2
India,Maharashtra,Nashik,"Gangapur Road, Nashik - MPCB",07-02-2024 18:00:00,20.0073285,73.7762427,NO2,1,3,2
India,Maharashtra,Nashik,"Hirawadi, Nashik - MPCB",07-02-2024 18:00:00,20.021503,73.813844,NO2,1,69,26
India,Maharashtra,Nashik,"Hirawadi, Nashik - MPCB",07-02-2024 18:00:00,20.021503,73.813844,NH3,1,2,2
India,Maharashtra,Nashik,"MIDC Ambad, Nashik - MPCB",07-02-2024 18:00:00,19.950220,73.731480,SO2,8,19,12
India,Maharashtra,Nashik,"Pandav Nagari, Nashik - MPCB",07-02-2024 18:00:00,19.9591346,73.7788008,SO2,19,29,23
India,Maharashtra,Nashik,"Pandav Nagari, Nashik - MPCB",07-02-2024 18:00:00,19.9591346,73.7788008,OZONE,5,35,24
India,Maharashtra,Navi Mumbai,"Kopripada-Vashi, Navi Mumbai - MPCB",07-02-2024 18:00:00,19.090337,73.014232,PM10,51,428,146
India,Maharashtra,Navi Mumbai,"Kopripada-Vashi, Navi Mumbai - MPCB",07-02-2024 18:00:00,19.090337,73.014232,NH3,4,52,16
India,Maharashtra,Navi Mumbai,"Mahape, Navi Mumbai - MPCB",07-02-2024 18:00:00,19.1135051,73.008978,PM2.5,25,199,80
India,Maharashtra,Navi Mumbai,"Mahape, Navi Mumbai - MPCB",07-02-2024 18:00:00,19.1135051,73.008978,NO2,37,39,38
India,Maharashtra,Navi Mumbai,"Mahape, Navi Mumbai - MPCB",07-02-2024 18:00:00,19.1135051,73.008978,SO2,26,26,26
India,Maharashtra,Navi Mumbai,"Mahape, Navi Mumbai - MPCB",07-02-2024 18:00:00,19.1135051,73.008978,CO,26,72,35
India,Maharashtra,Navi Mumbai,"Nerul, Navi Mumbai - MPCB",07-02-2024 18:00:00,19.008751,73.016620,PM10,114,279,171
India,Maharashtra,Navi Mumbai,"Nerul, Navi Mumbai - MPCB",07-02-2024 18:00:00,19.008751,73.016620,NO2,20,164,42
India,Maharashtra,Navi Mumbai,"Sector-19A Nerul, Navi Mumbai - IITM",07-02-2024 18:00:00,19.044,73.0325,PM2.5,96,345,253
India,Maharashtra,Navi Mumbai,"Tondare-Taloja, Navi Mumbai - MPCB",07-02-2024 18:00:00,19.0630,73.1209,NO2,15,100,60
India,Maharashtra,Parbhani,"Masoom Colony, Parbhani - MPCB",07-02-2024 18:00:00,19.265594,76.761463,CO,20,95,28
India,Maharashtra,Pimpri-Chinchwad,"Gavalinagar, Pimpri Chinchwad - MPCB",07-02-2024 18:00:00,18.63673,73.82487,CO,14,98,31
India,Maharashtra,Pune,"Alandi, Pune - IITM",07-02-2024 18:00:00,18.675076,73.892743,NO2,13,29,19
India,Maharashtra,Pune,"Bhosari, Pune - IITM",07-02-2024 18:00:00,18.640051,73.848956,PM2.5,2,150,68
India,Maharashtra,Pune,"Bhosari, Pune - IITM",07-02-2024 18:00:00,18.640051,73.848956,NO2,13,119,27
India,Maharashtra,Pune,"Karve Road, Pune - MPCB",07-02-2024 18:00:00,18.5011743,73.8165527,PM10,53,176,116
India,Maharashtra,Pune,"Karve Road, Pune - MPCB",07-02-2024 18:00:00,18.5011743,73.8165527,NO2,2,2,2
India,Maharashtra,Pune,"Katraj Dairy, Pune - MPCB",07-02-2024 18:00:00,18.454450,73.854155,SO2,3,15,8
India,Maharashtra,Pune,"Mhada Colony, Pune - IITM",07-02-2024 18:00:00,18.573040,73.927715,PM2.5,37,153,91
India,Maharashtra,Pune,"Revenue Colony-Shivajinagar, Pune - IITM",07-02-2024 18:00:00,18.530085,73.849598,OZONE,2,51,33
India,Maharashtra,Sangli,"Vijay Nagar, Sangli - MPCB",07-02-2024 18:00:00, 16.5038,74.3623,PM10,86,271,138
India,Maharashtra,Sangli,"Vijay Nagar, Sangli - MPCB",07-02-2024 18:00:00, 16.5038,74.3623,SO2,3,30,12
India,Maharashtra,Solapur,"Dnyaneshwar Nagar, Solapur - MPCB",07-02-2024 18:00:00,17.6336264,75.9132495,NH3,21,70,32
India,Maharashtra,Solapur,"Ratandeep Housing Society, Solapur - MPCB",07-02-2024 18:00:00,17.65439,75.90649,NH3,7,12,8
India,Maharashtra,Solapur,"Solapur, Solapur - MPCB",07-02-2024 18:00:00,17.6599188,75.9063906,SO2,30,35,32
India,Maharashtra,Solapur,"Solapur, Solapur - MPCB",07-02-2024 18:00:00,17.6599188,75.9063906,OZONE,33,50,41
India,Maharashtra,Thane,"Kasarvadavali, Thane - MPCB",07-02-2024 18:00:00,19.26777,72.97182,NH3,4,7,5
India,Maharashtra,Thane,"Pimpleshwar Mandir, Thane - MPCB",07-02-2024 18:00:00,19.192056,72.9585188,SO2,9,109,43
India,Maharashtra,Thane,"Upvan Fort, Thane - MPCB",07-02-2024 18:00:00,19.222279,72.957979,PM2.5,60,141,84
India,Maharashtra,Ulhasnagar,"Sidhi Vinayak Nagar, Ulhasnagar - MPCB",07-02-2024 18:00:00,19.235581,73.159121,SO2,8,86,28
India,Maharashtra,Virar,"Bolinj, Virar - MPCB",07-02-2024 18:00:00,19.4458210,72.7988231,OZONE,22,121,87
India,Manipur,Imphal,"DM College of Science, Imphal - Manipur PCB",07-02-2024 18:00:00,24.8207389,93.9423085,NH3,2,2,2
India,Meghalaya,Shillong,"Lumpyngngad, Shillong - Meghalaya PCB",07-02-2024 18:00:00,25.5586,91.8985,SO2,43,44,43
India,Meghalaya,Shillong,"Lumpyngngad, Shillong - Meghalaya PCB",07-02-2024 18:00:00,25.5586,91.8985,CO,12,24,18
India,Mizoram,Aizawl,"Sikulpuikawn, Aizawl - Mizoram PCB",07-02-2024 18:00:00,23.7176342,92.7192841,PM2.5,72,109,89
India,Mizoram,Aizawl,"Sikulpuikawn, Aizawl - Mizoram PCB",07-02-2024 18:00:00,23.7176342,92.7192841,CO,12,18,15
India,Nagaland,Kohima,"PWD Juction, Kohima - NPCB",07-02-2024 18:00:00,25.6635413,94.0989878,SO2,90,107,99
India,Odisha,Angul,"Hakimapada, Angul - OSPCB",07-02-2024 18:00:00,20.832874,85.104082,PM2.5,110,364,251
India,Odisha,Balasore,"Kalidaspur, Balasore - OSPCB",07-02-2024 18:00:00,21.51161,86.89088,NH3,3,7,4
India,Odisha,Baripada,"Meher Colony, Baripada - OSPCB",07-02-2024 18:00:00,21.941841,86.728318,CO,33,53,38
India,Odisha,Bhubaneswar,"Patia, Bhubaneswar - OSPCB",07-02-2024 18:00:00,20.34652,85.81630,PM2.5,85,304,176
India,Odisha,Bileipada,"Tata Township, Bileipada - OSPCB",07-02-2024 18:00:00,22.06156703,85.47409613,PM2.5,99,235,152
India,Odisha,Byasanagar,"Ferro Chrome Colony, Byasanagar - OSPCB",07-02-2024 18:00:00,20.94185,86.11510,NO2,13,29,18
India,Odisha,Cuttack,"CDA Area, Cuttack - OSPCB",07-02-2024 18:00:00,20.48891     ,85.84768     ,PM10,89,180,138
India,Odisha,Cuttack,"CDA Area, Cuttack - OSPCB",07-02-2024 18:00:00,20.48891     ,85.84768     ,NO2,16,46,26
India,Odisha,Nayagarh,"Dabuna, Nayagarh - OSPCB",07-02-2024 18:00:00,21.847279,85.416905,CO,20,28,26
India,Odisha,Rourkela,"Fertilizer Township, Rourkela - OSPCB",07-02-2024 18:00:00,22.18972222,84.86277778,NO2,3,40,19
India,Odisha,Rourkela,"Raghunathpali, Rourkela - OSPCB",07-02-2024 18:00:00,22.220833,84.809444,CO,26,74,31
India,Odisha,Suakati,"OMC Colony, Suakati - OSPCB",07-02-2024 18:00:00,21.606865,85.510538,SO2,5,80,25
India,Odisha,Talcher,"Talcher Coalfields,Talcher - OSPCB",07-02-2024 18:00:00,20.9360711,85.1707021,PM10,61,269,155
India,Odisha,Talcher,"Talcher Coalfields,Talcher - OSPCB",07-02-2024 18:00:00,20.9360711,85.1707021,NO2,42,53,47
India,Odisha,Talcher,"Talcher Coalfields,Talcher - OSPCB",07-02-2024 18:00:00,20.9360711,85.1707021,NH3,7,8,7
India,Odisha,Tensa,"Barsua Iron Ore Mines, Tensa - OSPCB",07-02-2024 18:00:00,21.869985,85.167016,CO,24,37,28
India,Puducherry,Puducherry,"Jawahar Nagar, Puducherry - PPCC",07-02-2024 18:00:00,11.9309,79.8027,PM10,52,103,69
India,Punjab,Amritsar,"Golden Temple, Amritsar - PPCB",07-02-2024 18:00:00,31.620000,74.876512,NH3,5,6,5
India,Punjab,Bathinda,"Hardev Nagar, Bathinda - PPCB",07-02-2024 18:00:00,30.233011,74.907758,PM2.5,NA,NA,NA
India,Punjab,Bathinda,"Hardev Nagar, Bathinda - PPCB",07-02-2024 18:00:00,30.233011,74.907758,PM10,NA,NA,NA
India,Punjab,Bathinda,"Hardev Nagar, Bathinda - PPCB",07-02-2024 18:00:00,30.233011,74.907758,CO,1,108,26
India,Punjab,Jalandhar,"Civil Line, Jalandhar - PPCB",07-02-2024 18:00:00,31.321907,75.578914,NH3,4,4,4
India,Punjab,Jalandhar,"Civil Line, Jalandhar - PPCB",07-02-2024 18:00:00,31.321907,75.578914,CO,8,102,45
India,Punjab,Khanna,"Kalal Majra, Khanna - PPCB",07-02-2024 18:00:00,30.736056 ,76.209694,OZONE,13,63,49
India,Punjab,Ludhiana,"Punjab Agricultural University, Ludhiana - PPCB",07-02-2024 18:00:00,30.9028,75.8086,CO,4,113,39
India,Punjab,Mandi Gobindgarh,"RIMT University, Mandi Gobindgarh - PPCB",07-02-2024 18:00:00,30.649961,76.331442,CO,13,40,26
India,Punjab,Patiala,"Model Town, Patiala - PPCB",07-02-2024 18:00:00,30.349388,76.366642,SO2,1,66,16
India,Punjab,Patiala,"Model Town, Patiala - PPCB",07-02-2024 18:00:00,30.349388,76.366642,CO,22,37,28
India,Rajasthan,Alwar,"Moti Doongri, Alwar - RSPCB",07-02-2024 18:00:00,27.554793,76.611536,SO2,5,88,33
India,Rajasthan,Banswara,"Rati Talai, Banswara - RSPCB",07-02-2024 18:00:00,23.555190,74.440010,OZONE,2,93,69
India,Rajasthan,Bharatpur,"Krishna Nagar, Bharatpur - RSPCB",07-02-2024 18:00:00,27.215415,77.50873,OZONE,6,128,95
India,Rajasthan,Bhilwara,"Pratap Nagar, Bhilwara - RSPCB",07-02-2024 18:00:00,25.339605,74.618883,NO2,19,50,29
India,Rajasthan,Bhilwara,"Pratap Nagar, Bhilwara - RSPCB",07-02-2024 18:00:00,25.339605,74.618883,OZONE,37,79,63
India,Rajasthan,Bikaner,"MM Ground, Bikaner - RSPCB",07-02-2024 18:00:00,28.018792,73.292658,PM10,82,294,149
India,Rajasthan,Bikaner,"MM Ground, Bikaner - RSPCB",07-02-2024 18:00:00,28.018792,73.292658,NO2,9,67,27
India,Rajasthan,Bundi,"New Colony, Bundi - RSPCB",07-02-2024 18:00:00,25.435774,75.644272,PM2.5,31,92,61
India,Rajasthan,Chittorgarh,"Shastri Nagar, Chittorgarh - RSPCB",07-02-2024 18:00:00,24.892047,74.623527,NO2,16,66,33
India,Rajasthan,Chittorgarh,"Shastri Nagar, Chittorgarh - RSPCB",07-02-2024 18:00:00,24.892047,74.623527,OZONE,23,97,73
India,Rajasthan,Churu,"Subash Chowk, Churu - RSPCB",07-02-2024 18:00:00,28.296139,74.961696,NO2,1,54,26
India,Rajasthan,Dausa,"Khatikan Mohalla, Dausa - RSPCB",07-02-2024 18:00:00,26.895552,76.334753,CO,36,107,50
India,Rajasthan,Dholpur,"Raja Ganj, Dholpur - RSPCB",07-02-2024 18:00:00,26.699557,77.898881,NH3,2,11,9
India,Rajasthan,Dungarpur,"Bhoiwada, Dungarpur - RSPCB",07-02-2024 18:00:00,23.837789,73.714926,OZONE,16,51,45
India,Rajasthan,Hanumangarh,"Housing Board, Hanumangarh - RSPCB",07-02-2024 18:00:00,29.610750,74.283608,PM2.5,47,390,235
India,Rajasthan,Hanumangarh,"Housing Board, Hanumangarh - RSPCB",07-02-2024 18:00:00,29.610750,74.283608,NO2,23,100,56
India,Rajasthan,Hanumangarh,"Housing Board, Hanumangarh - RSPCB",07-02-2024 18:00:00,29.610750,74.283608,CO,15,102,27
India,Rajasthan,Jaipur,"Adarsh Nagar, Jaipur - RSPCB",07-02-2024 18:00:00,26.902909,75.836858,PM2.5,27,133,63
India,Rajasthan,Jaipur,"Adarsh Nagar, Jaipur - RSPCB",07-02-2024 18:00:00,26.902909,75.836858,NH3,5,6,6
India,Rajasthan,Jaipur,"Mansarovar Sector-12, Jaipur - RSPCB",07-02-2024 18:00:00,26.843698,75.766894,NO2,18,123,42
India,Rajasthan,Jaipur,"Mansarovar Sector-12, Jaipur - RSPCB",07-02-2024 18:00:00,26.843698,75.766894,NH3,1,4,1
India,Rajasthan,Jaipur,"Police Commissionerate, Jaipur - RSPCB",07-02-2024 18:00:00,26.9164092,75.7994901,NO2,24,98,48
India,Rajasthan,Jaipur,"Police Commissionerate, Jaipur - RSPCB",07-02-2024 18:00:00,26.9164092,75.7994901,NH3,9,12,11
India,Rajasthan,Jaipur,"RIICO Sitapura, Jaipur - RSPCB",07-02-2024 18:00:00,26.786682,75.827928,PM2.5,51,312,140
India,Rajasthan,Jaipur,"RIICO Sitapura, Jaipur - RSPCB",07-02-2024 18:00:00,26.786682,75.827928,NH3,2,9,3
India,Rajasthan,Jaipur,"Sector-2 Murlipura, Jaipur - RSPCB",07-02-2024 18:00:00,26.960669,75.771817,NH3,6,6,6
India,Rajasthan,Jaipur,"Shastri Nagar, Jaipur - RSPCB",07-02-2024 18:00:00,26.9502929,75.730943,NO2,18,131,49
India,Rajasthan,Jaipur,"Shastri Nagar, Jaipur - RSPCB",07-02-2024 18:00:00,26.9502929,75.730943,NH3,6,22,11
India,Rajasthan,Jaipur,"Shastri Nagar, Jaipur - RSPCB",07-02-2024 18:00:00,26.9502929,75.730943,SO2,7,36,22
India,Rajasthan,Jalore,"Mudtra Sili, Jalore - RSPCB",07-02-2024 18:00:00,25.344694,72.626208,OZONE,18,94,84
India,Rajasthan,Jhalawar,"Rajlaxmi Nagar, Jhalawar - RSPCB",07-02-2024 18:00:00,24.588397,76.172782,PM2.5,27,139,71
India,Rajasthan,Jhunjhunu,"Indra Nagar, Jhunjhunu - RSPCB",07-02-2024 18:00:00,28.108988,75.386577,NO2,24,84,44
India,Rajasthan,Jodhpur,"Collectorate, Jodhpur - RSPCB",07-02-2024 18:00:00,26.268249,73.0193853,PM10,48,131,99
India,Rajasthan,Jodhpur,"Jhalamand, Jodhpur - RSPCB",07-02-2024 18:00:00,26.215415,73.070156,CO,14,30,22
India,Rajasthan,Jodhpur,"Mandor, Jodhpur - RSPCB",07-02-2024 18:00:00,26.358805,73.047444,PM10,71,103,85
India,Rajasthan,Jodhpur,"Mandor, Jodhpur - RSPCB",07-02-2024 18:00:00,26.358805,73.047444,CO,10,24,13
India,Rajasthan,Jodhpur,"Mandor, Jodhpur - RSPCB",07-02-2024 18:00:00,26.358805,73.047444,OZONE,25,87,73
India,Rajasthan,Jodhpur,"Samrat Ashok Udhyan, Jodhpur - RSPCB",07-02-2024 18:00:00,26.253384,72.976571,PM10,70,157,98
India,Rajasthan,Kota,"Dhanmandi, Kota - RSPCB",07-02-2024 18:00:00,25.164090,75.858137,NH3,3,5,4
India,Rajasthan,Kota,"Dhanmandi, Kota - RSPCB",07-02-2024 18:00:00,25.164090,75.858137,OZONE,13,93,73
India,Rajasthan,Kota,"Shrinath Puram, Kota - RSPCB",07-02-2024 18:00:00,25.14389,75.821256,OZONE,36,93,76
India,Rajasthan,Pali,"Indira Colony Vistar, Pali - RSPCB",07-02-2024 18:00:00,25.771061, 73.340227,PM2.5,26,90,55
India,Rajasthan,Rajsamand,"Dhoinda, Rajsamand - RSPCB",07-02-2024 18:00:00,25.036360,73.883502,PM2.5,33,113,57
India,Rajasthan,Rajsamand,"Dhoinda, Rajsamand - RSPCB",07-02-2024 18:00:00,25.036360,73.883502,NO2,8,20,12
India,Rajasthan,Sirohi,"Vedhaynath Colony, Sirohi - RSPCB",07-02-2024 18:00:00,24.885261,72.857549,CO,14,54,22
India,Rajasthan,Sri Ganganagar,"Old City, Sri Ganganagar - RSPCB",07-02-2024 18:00:00,29.931624,73.864511,SO2,4,11,6
India,Rajasthan,Sri Ganganagar,"Old City, Sri Ganganagar - RSPCB",07-02-2024 18:00:00,29.931624,73.864511,CO,28,138,40
India,Rajasthan,Udaipur,"Ashok Nagar, Udaipur - RSPCB",07-02-2024 18:00:00,24.5886166,73.6321397,NO2,35,87,51
India,Sikkim,Gangtok,"Zero Point GICI, Gangtok - SSPCB",07-02-2024 18:00:00,27.338530,88.614099,NO2,1,10,4
India,TamilNadu,Ariyalur,"Keelapalur, Ariyalur - TNPCB",07-02-2024 18:00:00,11.06825,79.07033,PM10,41,71,60
India,TamilNadu,Chennai,"Gandhi Nagar_Ennore, Chennai - TNPCB",07-02-2024 18:00:00,13.218341,80.32027,PM10,64,105,83
India,TamilNadu,Chennai,"Gandhi Nagar_Ennore, Chennai - TNPCB",07-02-2024 18:00:00,13.218341,80.32027,SO2,13,14,13
India,TamilNadu,Chennai,"Manali, Chennai - CPCB",07-02-2024 18:00:00,13.164544,80.26285,PM2.5,53,115,78
India,TamilNadu,Chennai,"Manali, Chennai - CPCB",07-02-2024 18:00:00,13.164544,80.26285,PM10,52,120,81
India,TamilNadu,Chennai,"Manali, Chennai - CPCB",07-02-2024 18:00:00,13.164544,80.26285,NH3,2,7,5
India,TamilNadu,Chennai,"Royapuram, Chennai - TNPCB",07-02-2024 18:00:00,13.1036,80.2909,SO2,1,7,3
India,TamilNadu,Cuddalore,"Kudikadu, Cuddalore - TNPCB",07-02-2024 18:00:00,11.6829898,79.7532099,PM2.5,64,144,94
India,TamilNadu,Cuddalore,"Kudikadu, Cuddalore - TNPCB",07-02-2024 18:00:00,11.6829898,79.7532099,PM10,77,131,102
India,TamilNadu,Cuddalore,"Kudikadu, Cuddalore - TNPCB",07-02-2024 18:00:00,11.6829898,79.7532099,NH3,5,7,5
India,TamilNadu,Kanchipuram,"Kilambi, Kanchipuram - TNPCB",07-02-2024 18:00:00,12.864618,79.659968,PM2.5,NA,NA,NA
India,TamilNadu,Ramanathapuram,"Chalai Bazaar, Ramanathapuram - TNPCB",07-02-2024 18:00:00,9.36399,78.831977,CO,6,16,11
India,TamilNadu,Salem,"Sona College of Technology, Salem - TNPCB",07-02-2024 18:00:00,11.679111,78.125052,SO2,21,22,21
India,TamilNadu,Thoothukudi,"Meelavittan, Thoothukudi - TNPCB",07-02-2024 18:00:00,8.816428 ,78.099039,PM10,49,72,58
India,TamilNadu,Thoothukudi,"Meelavittan, Thoothukudi - TNPCB",07-02-2024 18:00:00,8.816428 ,78.099039,CO,2,89,32
India,TamilNadu,Thoothukudi,"Meelavittan, Thoothukudi - TNPCB",07-02-2024 18:00:00,8.816428 ,78.099039,OZONE,4,12,8
India,TamilNadu,Tirupur,"Kumaran College, Tirupur - TNPCB",07-02-2024 18:00:00,11.0973603,77.3228673,OZONE,NA,NA,NA
India,TamilNadu,Vellore,"Vasanthapuram, Vellore - TNPCB",07-02-2024 18:00:00,12.909494,79.131861,SO2,15,16,15
India,TamilNadu,Virudhunagar,"Collectorate Office, Virudhunagar - TNPCB",07-02-2024 18:00:00,9.559382,77.948828,OZONE,3,3,3
India,Telangana,Hyderabad,"Bollaram Industrial Area, Hyderabad - TSPCB",07-02-2024 18:00:00,17.540891,78.358528,NH3,3,4,3
India,Telangana,Hyderabad,"Bollaram Industrial Area, Hyderabad - TSPCB",07-02-2024 18:00:00,17.540891,78.358528,CO,19,51,24
India,Telangana,Hyderabad,"ICRISAT Patancheru, Hyderabad - TSPCB",07-02-2024 18:00:00,17.518400,78.278777,CO,20,81,34
India,Telangana,Hyderabad,"IITH Kandi, Hyderabad - TSPCB",07-02-2024 18:00:00,17.585705,78.126199,OZONE,10,42,18
India,Telangana,Hyderabad,"Kokapet, Hyderabad - TSPCB",07-02-2024 18:00:00,17.393559,78.339194,OZONE,4,11,7
India,Telangana,Hyderabad,"Nacharam_TSIIC IALA, Hyderabad - TSPCB",07-02-2024 18:00:00,17.429398,78.569354,NO2,13,14,13
India,Telangana,Hyderabad,"Ramachandrapuram, Hyderabad - TSPCB",07-02-2024 18:00:00,17.528544,78.286195,OZONE,1,42,36
India,Telangana,Hyderabad,"Sanathnagar, Hyderabad - TSPCB",07-02-2024 18:00:00,17.4559458,78.4332152,SO2,3,35,9
India,Telangana,Hyderabad,"Somajiguda, Hyderabad - TSPCB",07-02-2024 18:00:00,17.417094,78.457437,PM2.5,41,72,56
India,Telangana,Hyderabad,"Zoo Park, Hyderabad - TSPCB",07-02-2024 18:00:00,17.349694,78.451437,CO,28,100,41
India,Uttar_Pradesh,Agra,"Rohta, Agra - UPPCB",07-02-2024 18:00:00,27.106972,78.000111,NO2,6,10,8
India,Uttar_Pradesh,Agra,"Rohta, Agra - UPPCB",07-02-2024 18:00:00,27.106972,78.000111,NH3,1,1,1
India,Uttar_Pradesh,Agra,"Sanjay Palace, Agra - UPPCB",07-02-2024 18:00:00,27.19865833,78.00598056,CO,18,123,38
India,Uttar_Pradesh,Agra,"Sector-3B Avas Vikas Colony, Agra - UPPCB",07-02-2024 18:00:00,27.19412,77.96237,PM10,38,192,75
India,Uttar_Pradesh,Agra,"Sector-3B Avas Vikas Colony, Agra - UPPCB",07-02-2024 18:00:00,27.19412,77.96237,NH3,3,5,4
India,Uttar_Pradesh,Agra,"Shahjahan Garden, Agra - UPPCB",07-02-2024 18:00:00,27.169338,78.03582,PM10,29,170,70
India,Uttar_Pradesh,Agra,"Shahjahan Garden, Agra - UPPCB",07-02-2024 18:00:00,27.169338,78.03582,CO,2,94,4
India,Uttar_Pradesh,Agra,"Shastripuram, Agra - UPPCB",07-02-2024 18:00:00,27.19862,77.92066,NO2,33,90,36
India,Uttar_Pradesh,Bulandshahr,"Yamunapuram, Bulandshahr - UPPCB",07-02-2024 18:00:00,28.406963,77.849831,PM2.5,35,250,117
India,Uttar_Pradesh,Bulandshahr,"Yamunapuram, Bulandshahr - UPPCB",07-02-2024 18:00:00,28.406963,77.849831,PM10,103,238,151
India,Uttar_Pradesh,Bulandshahr,"Yamunapuram, Bulandshahr - UPPCB",07-02-2024 18:00:00,28.406963,77.849831,NH3,4,7,6
India,Uttar_Pradesh,Bulandshahr,"Yamunapuram, Bulandshahr - UPPCB",07-02-2024 18:00:00,28.406963,77.849831,SO2,17,51,32
India,Uttar_Pradesh,Firozabad,"Vibhab Nagar, Firozabad - UPPCB",07-02-2024 18:00:00,27.1594,78.3953,PM2.5,39,82,57
India,Uttar_Pradesh,Firozabad,"Vibhab Nagar, Firozabad - UPPCB",07-02-2024 18:00:00,27.1594,78.3953,NO2,14,14,14
India,Uttar_Pradesh,Ghaziabad,"Indirapuram, Ghaziabad - UPPCB",07-02-2024 18:00:00,28.646233,77.358075,NO2,40,91,64
India,Uttar_Pradesh,Ghaziabad,"Indirapuram, Ghaziabad - UPPCB",07-02-2024 18:00:00,28.646233,77.358075,OZONE,5,37,32
India,Uttar_Pradesh,Ghaziabad,"Loni, Ghaziabad - UPPCB",07-02-2024 18:00:00,28.757294,77.278792,PM2.5,27,167,88
India,Uttar_Pradesh,Ghaziabad,"Sanjay Nagar, Ghaziabad - UPPCB",07-02-2024 18:00:00,28.685382,77.453839,PM10,76,148,115
India,Uttar_Pradesh,Ghaziabad,"Sanjay Nagar, Ghaziabad - UPPCB",07-02-2024 18:00:00,28.685382,77.453839,OZONE,31,93,81
India,Uttar_Pradesh,Ghaziabad,"Vasundhara, Ghaziabad - UPPCB",07-02-2024 18:00:00,28.6603346,77.3572563,NH3,6,10,8
India,Uttar_Pradesh,Gorakhpur,"Madan Mohan Malaviya University of Technology, Gorakhpur - UPPCB",07-02-2024 18:00:00,26.730136,83.433859,NO2,2,2,2
India,Uttar_Pradesh,Greater Noida,"Knowledge Park - III, Greater Noida - UPPCB",07-02-2024 18:00:00,28.47272,77.482000,PM2.5,NA,NA,NA
India,Uttar_Pradesh,Greater Noida,"Knowledge Park - III, Greater Noida - UPPCB",07-02-2024 18:00:00,28.47272,77.482000,CO,39,58,44
India,Uttar_Pradesh,Greater Noida,"Knowledge Park - V, Greater Noida - UPPCB",07-02-2024 18:00:00,28.557054,77.453663,OZONE,4,97,81
India,Uttar_Pradesh,Hapur,"Anand Vihar, Hapur - UPPCB",07-02-2024 18:00:00,28.725645,77.749675,NO2,23,91,46
India,Uttar_Pradesh,Hapur,"Anand Vihar, Hapur - UPPCB",07-02-2024 18:00:00,28.725645,77.749675,NH3,3,6,4
India,Uttar_Pradesh,Jhansi,"Shivaji Nagar, Jhansi - UPPCB",07-02-2024 18:00:00,25.4547,78.6039,PM10,31,131,78
India,Uttar_Pradesh,Kanpur,"FTI Kidwai Nagar, Kanpur - UPPCB",07-02-2024 18:00:00,26.428282,80.327067,PM2.5,25,79,46
India,Uttar_Pradesh,Kanpur,"FTI Kidwai Nagar, Kanpur - UPPCB",07-02-2024 18:00:00,26.428282,80.327067,NH3,3,6,4
India,Uttar_Pradesh,Kanpur,"FTI Kidwai Nagar, Kanpur - UPPCB",07-02-2024 18:00:00,26.428282,80.327067,CO,26,50,29
India,Uttar_Pradesh,Kanpur,"NSI Kalyanpur, Kanpur - UPPCB",07-02-2024 18:00:00,26.509954,80.249612,CO,16,41,19
India,Uttar_Pradesh,Kanpur,"NSI Kalyanpur, Kanpur - UPPCB",07-02-2024 18:00:00,26.509954,80.249612,OZONE,4,21,11
India,Uttar_Pradesh,Kanpur,"Nehru Nagar, Kanpur - UPPCB",07-02-2024 18:00:00,26.4703136,80.3229863,PM2.5,31,247,71
India,Uttar_Pradesh,Khurja,"Kalindi Kunj, Khurja - UPPCB",07-02-2024 18:00:00,28.2348927,77.8683002,SO2,31,38,34
India,Uttar_Pradesh,Lucknow,"B R Ambedkar University, Lucknow - UPPCB",07-02-2024 18:00:00,26.766433,80.927299,PM10,59,130,83
India,Uttar_Pradesh,Lucknow,"B R Ambedkar University, Lucknow - UPPCB",07-02-2024 18:00:00,26.766433,80.927299,NH3,6,7,6
India,Uttar_Pradesh,Lucknow,"B R Ambedkar University, Lucknow - UPPCB",07-02-2024 18:00:00,26.766433,80.927299,CO,20,38,23
India,Uttar_Pradesh,Lucknow,"Kendriya Vidyalaya, Lucknow - CPCB",07-02-2024 18:00:00,26.906111,80.948222,NO2,20,124,44
India,Uttar_Pradesh,Lucknow,"Kendriya Vidyalaya, Lucknow - CPCB",07-02-2024 18:00:00,26.906111,80.948222,NH3,3,20,14
India,Uttar_Pradesh,Lucknow,"Lalbagh, Lucknow - CPCB",07-02-2024 18:00:00,26.8458805,80.9365541,NO2,15,82,40
India,Uttar_Pradesh,Lucknow,"Talkatora District Industries Center, Lucknow - CPCB",07-02-2024 18:00:00,26.83399722,80.8917361,NH3,11,25,19
India,Uttar_Pradesh,Lucknow,"Talkatora District Industries Center, Lucknow - CPCB",07-02-2024 18:00:00,26.83399722,80.8917361,CO,18,52,40
India,Uttar_Pradesh,Meerut,"Ganga Nagar, Meerut - UPPCB",07-02-2024 18:00:00,28.999264,77.7590354,NH3,6,11,9
India,Uttar_Pradesh,Meerut,"Ganga Nagar, Meerut - UPPCB",07-02-2024 18:00:00,28.999264,77.7590354,SO2,9,29,22
India,Uttar_Pradesh,Meerut,"Jai Bhim Nagar, Meerut - UPPCB",07-02-2024 18:00:00,28.9535882,77.7622941,NO2,15,66,30
India,Uttar_Pradesh,Meerut,"Jai Bhim Nagar, Meerut - UPPCB",07-02-2024 18:00:00,28.9535882,77.7622941,CO,24,68,36
India,Uttar_Pradesh,Meerut,"Pallavpuram Phase 2, Meerut - UPPCB",07-02-2024 18:00:00,29.063510,77.709723,OZONE,11,14,13
India,Uttar_Pradesh,Moradabad,"Buddhi Vihar, Moradabad - UPPCB",07-02-2024 18:00:00,28.83526,78.74460,NH3,2,2,2
India,Uttar_Pradesh,Moradabad,"Eco Herbal Park, Moradabad - UPPCB",07-02-2024 18:00:00,28.840739,78.697531,PM10,45,68,55
India,Uttar_Pradesh,Moradabad,"Eco Herbal Park, Moradabad - UPPCB",07-02-2024 18:00:00,28.840739,78.697531,NH3,5,35,8
India,Uttar_Pradesh,Moradabad,"Employment Office, Moradabad - UPPCB",07-02-2024 18:00:00,28.88528,78.73880,NO2,17,20,20
India,Uttar_Pradesh,Moradabad,"Jigar Colony, Moradabad - UPPCB",07-02-2024 18:00:00,28.856664,78.772638,PM2.5,33,66,46
India,Uttar_Pradesh,Moradabad,"Jigar Colony, Moradabad - UPPCB",07-02-2024 18:00:00,28.856664,78.772638,NH3,5,5,5
India,Uttar_Pradesh,Moradabad,"Kashiram Nagar, Moradabad - UPPCB",07-02-2024 18:00:00,28.849399,78.742362,NH3,4,4,4
India,Uttar_Pradesh,Moradabad,"Kashiram Nagar, Moradabad - UPPCB",07-02-2024 18:00:00,28.849399,78.742362,CO,3,35,26
India,Uttar_Pradesh,Moradabad,"Transport Nagar, Moradabad - UPPCB",07-02-2024 18:00:00,28.802625,78.753728,NH3,6,6,6
India,Uttar_Pradesh,Muzaffarnagar,"New Mandi, Muzaffarnagar - UPPCB",07-02-2024 18:00:00,29.4723508,77.7194031,NH3,1,3,3
India,Uttar_Pradesh,Muzaffarnagar,"New Mandi, Muzaffarnagar - UPPCB",07-02-2024 18:00:00,29.4723508,77.7194031,SO2,13,26,17
India,Uttar_Pradesh,Muzaffarnagar,"New Mandi, Muzaffarnagar - UPPCB",07-02-2024 18:00:00,29.4723508,77.7194031,OZONE,32,84,74
India,Uttar_Pradesh,Noida,"Sector - 125, Noida - UPPCB",07-02-2024 18:00:00,28.5447608,77.3231257,PM10,74,148,109
India,Uttar_Pradesh,Noida,"Sector - 125, Noida - UPPCB",07-02-2024 18:00:00,28.5447608,77.3231257,SO2,18,29,23
India,Uttar_Pradesh,Noida,"Sector-1, Noida - UPPCB",07-02-2024 18:00:00,28.5898,77.3101,NH3,5,9,7
India,Uttar_Pradesh,Noida,"Sector-1, Noida - UPPCB",07-02-2024 18:00:00,28.5898,77.3101,SO2,1,9,4
India,Uttar_Pradesh,Prayagraj,"Motilal Nehru NIT, Prayagraj - UPPCB",07-02-2024 18:00:00,25.494,81.863,OZONE,6,25,18
India,Uttar_Pradesh,Varanasi,"Bhelupur, Varanasi - UPPCB",07-02-2024 18:00:00,25.301778,82.996789,NO2,7,8,8
India,Uttar_Pradesh,Varanasi,"Bhelupur, Varanasi - UPPCB",07-02-2024 18:00:00,25.301778,82.996789,OZONE,2,42,34
India,Uttar_Pradesh,Varanasi,"IESD Banaras Hindu University, Varanasi - UPPCB",07-02-2024 18:00:00,25.262326,82.995408,NO2,2,2,2
India,Uttar_Pradesh,Varanasi,"IESD Banaras Hindu University, Varanasi - UPPCB",07-02-2024 18:00:00,25.262326,82.995408,SO2,14,14,14
India,Uttar_Pradesh,Vrindavan,"Omex Eternity, Vrindavan - UPPCB",07-02-2024 18:00:00,27.5714090,77.6557570,NO2,2,3,3
India,Uttarakhand,Kashipur,"Govt. Girls Inter College, Kashipur - UKPCB",07-02-2024 18:00:00,29.2124114,78.9611753,NO2,7,30,13
India,Uttarakhand,Rishikesh,"Shivaji Nagar, Rishikesh - UKPCB",07-02-2024 18:00:00,30.075911,78.2859547,OZONE,3,43,28
India,West_Bengal,Asansol,"Asansol Court Area, Asansol - WBPCB",07-02-2024 18:00:00,23.685297,86.945968,SO2,9,48,15
India,West_Bengal,Barrackpore,"SVSPA Campus, Barrackpore - WBPCB",07-02-2024 18:00:00,22.7605581,88.3617589,PM10,75,191,129
India,West_Bengal,Barrackpore,"SVSPA Campus, Barrackpore - WBPCB",07-02-2024 18:00:00,22.7605581,88.3617589,NO2,13,39,23
India,West_Bengal,Howrah,"Belur Math, Howrah - WBPCB",07-02-2024 18:00:00,22.629801,88.352017,PM2.5,64,189,116
India,West_Bengal,Howrah,"Ghusuri, Howrah - WBPCB",07-02-2024 18:00:00,22.611968,88.347422,NO2,24,100,44
India,West_Bengal,Howrah,"Ghusuri, Howrah - WBPCB",07-02-2024 18:00:00,22.611968,88.347422,CO,4,88,10
India,West_Bengal,Howrah,"Padmapukur, Howrah - WBPCB",07-02-2024 18:00:00,22.5687319,88.2797276,PM2.5,68,195,129
India,West_Bengal,Howrah,"Padmapukur, Howrah - WBPCB",07-02-2024 18:00:00,22.5687319,88.2797276,SO2,8,18,12
India,West_Bengal,Kolkata,"Ballygunge, Kolkata - WBPCB",07-02-2024 18:00:00,22.5367507,88.3638022,NH3,6,9,8
India,West_Bengal,Kolkata,"Bidhannagar, Kolkata - WBPCB",07-02-2024 18:00:00,22.58157048,88.41002457,PM2.5,85,234,158
India,West_Bengal,Kolkata,"Bidhannagar, Kolkata - WBPCB",07-02-2024 18:00:00,22.58157048,88.41002457,CO,15,42,19
India,West_Bengal,Kolkata,"Fort William, Kolkata - WBPCB",07-02-2024 18:00:00,22.556640,88.342674,PM10,91,145,121
India,West_Bengal,Kolkata,"Jadavpur, Kolkata - WBPCB",07-02-2024 18:00:00,22.49929,88.36917,NO2,1,13,4
India,West_Bengal,Kolkata,"Jadavpur, Kolkata - WBPCB",07-02-2024 18:00:00,22.49929,88.36917,OZONE,9,29,19
India,West_Bengal,Kolkata,"Rabindra Bharati University, Kolkata - WBPCB",07-02-2024 18:00:00,22.627847,88.380669,PM2.5,NA,NA,NA
India,West_Bengal,Kolkata,"Victoria, Kolkata - WBPCB",07-02-2024 18:00:00,22.5448082,88.3403691,NO2,6,17,11
India,Andhra_Pradesh,Amaravati,"Secretariat, Amaravati - APPCB",07-02-2024 18:00:00,16.5150833,80.5181667,NH3,1,4,4
India,Andhra_Pradesh,Amaravati,"Secretariat, Amaravati - APPCB",07-02-2024 18:00:00,16.5150833,80.5181667,CO,21,60,35
India,Andhra_Pradesh,Anantapur,"Gulzarpet, Anantapur - APPCB",07-02-2024 18:00:00,14.675886,77.593027,NH3,2,3,3
India,Andhra_Pradesh,Anantapur,"Gulzarpet, Anantapur - APPCB",07-02-2024 18:00:00,14.675886,77.593027,SO2,4,14,7
India,Andhra_Pradesh,Chittoor,"Gangineni Cheruvu, Chittoor - APPCB",07-02-2024 18:00:00,13.204880,79.097889,PM10,11,279,94
India,Andhra_Pradesh,Chittoor,"Gangineni Cheruvu, Chittoor - APPCB",07-02-2024 18:00:00,13.204880,79.097889,NH3,1,2,1
India,Andhra_Pradesh,Kadapa,"Yerramukkapalli, Kadapa - APPCB",07-02-2024 18:00:00,14.465052,78.824187,PM10,28,47,38
India,Andhra_Pradesh,Rajamahendravaram,"Anand Kala Kshetram, Rajamahendravaram - APPCB",07-02-2024 18:00:00,16.9872867,81.7363176,OZONE,5,6,6
India,Andhra_Pradesh,Tirupati,"Tirumala, Tirupati - APPCB",07-02-2024 18:00:00,13.67,79.35,PM10,29,94,56
India,Andhra_Pradesh,Tirupati,"Tirumala, Tirupati - APPCB",07-02-2024 18:00:00,13.67,79.35,NO2,22,46,35
India,Andhra_Pradesh,Tirupati,"Tirumala, Tirupati - APPCB",07-02-2024 18:00:00,13.67,79.35,NH3,1,4,1
India,Andhra_Pradesh,Tirupati,"Vaikuntapuram, Tirupati - APPCB",07-02-2024 18:00:00,13.615387,79.409230,PM10,17,54,27
India,Andhra_Pradesh,Tirupati,"Vaikuntapuram, Tirupati - APPCB",07-02-2024 18:00:00,13.615387,79.409230,NO2,15,32,21
India,Andhra_Pradesh,Vijayawada,"HB Colony, Vijayawada - APPCB",07-02-2024 18:00:00,16.536107,80.594233,OZONE,2,73,50
India,Andhra_Pradesh,Vijayawada,"Kanuru, Vijayawada - APPCB",07-02-2024 18:00:00,16.486692,80.699436,PM10,76,95,87
India,Andhra_Pradesh,Vijayawada,"Kanuru, Vijayawada - APPCB",07-02-2024 18:00:00,16.486692,80.699436,SO2,5,12,7
India,Andhra_Pradesh,Vijayawada,"Rajiv Gandhi Park, Vijayawada - APPCB",07-02-2024 18:00:00,16.509717,80.612222,PM10,54,103,81
India,Andhra_Pradesh,Vijayawada,"Rajiv Gandhi Park, Vijayawada - APPCB",07-02-2024 18:00:00,16.509717,80.612222,SO2,2,8,5
India,Andhra_Pradesh,Vijayawada,"Rajiv Nagar, Vijayawada - APPCB",07-02-2024 18:00:00,16.554731,80.649110,PM10,17,222,115
India,Andhra_Pradesh,Visakhapatnam,"GVM Corporation, Visakhapatnam - APPCB",07-02-2024 18:00:00,17.72,83.3,NO2,29,57,47
India,Arunachal_Pradesh,Naharlagun,"Naharlagun, Naharlagun - APSPCB",07-02-2024 18:00:00,27.103358,93.679645,SO2,3,3,3
India,Assam,Byrnihat,"Central Academy for SFS, Byrnihat - PCBA",07-02-2024 18:00:00,26.071318,91.87488,SO2,9,15,11
India,Assam,Guwahati,"IITG, Guwahati - PCBA",07-02-2024 18:00:00,26.2028636,91.70046436,PM2.5,140,363,282
India,Assam,Guwahati,"IITG, Guwahati - PCBA",07-02-2024 18:00:00,26.2028636,91.70046436,NH3,5,6,5
India,Assam,Guwahati,"IITG, Guwahati - PCBA",07-02-2024 18:00:00,26.2028636,91.70046436,CO,12,38,14
India,Assam,Guwahati,"LGBI Airport, Guwahati - PCBA",07-02-2024 18:00:00,26.10887,91.589544,PM2.5,52,325,203
India,Assam,Guwahati,"Pan Bazaar, Guwahati - PCBA",07-02-2024 18:00:00,26.187500,91.744194,PM2.5,101,362,238
India,Assam,Guwahati,"Pan Bazaar, Guwahati - PCBA",07-02-2024 18:00:00,26.187500,91.744194,CO,26,111,34
India,Assam,Guwahati,"Railway Colony, Guwahati - PCBA",07-02-2024 18:00:00,26.181742,91.78063,OZONE,7,46,24
India,Assam,Nagaon,"Christianpatty, Nagaon - PCBA",07-02-2024 18:00:00,26.349082,92.68449,PM2.5,NA,NA,NA
India,Assam,Nagaon,"Christianpatty, Nagaon - PCBA",07-02-2024 18:00:00,26.349082,92.68449,OZONE,4,86,65
India,Assam,Nalbari,"Bata Chowk, Nalbari - PCBA",07-02-2024 18:00:00,26.446912,91.439057,PM2.5,77,434,222
India,Assam,Nalbari,"Bata Chowk, Nalbari - PCBA",07-02-2024 18:00:00,26.446912,91.439057,PM10,64,389,161
India,Assam,Silchar,"Tarapur, Silchar - PCBA",07-02-2024 18:00:00,24.82827,92.79525,PM2.5,33,44,37
India,Assam,Silchar,"Tarapur, Silchar - PCBA",07-02-2024 18:00:00,24.82827,92.79525,NH3,1,1,1
India,Assam,Sivasagar,"Girls College, Sivasagar - PCBA",07-02-2024 18:00:00,26.987634,94.636574,SO2,4,4,4
India,Bihar,Arrah,"New DM Office, Arrah - BSPCB",07-02-2024 18:00:00,25.5626095,84.663264,NH3,4,7,5
India,Bihar,Arrah,"New DM Office, Arrah - BSPCB",07-02-2024 18:00:00,25.5626095,84.663264,SO2,13,21,18
India,Bihar,Arrah,"New DM Office, Arrah - BSPCB",07-02-2024 18:00:00,25.5626095,84.663264,OZONE,12,38,19
India,Bihar,Aurangabad,"Gurdeo Nagar, Aurangabad - BSPCB",07-02-2024 18:00:00,24.75746,84.366208,NH3,NA,NA,NA
India,Bihar,Aurangabad,"Gurdeo Nagar, Aurangabad - BSPCB",07-02-2024 18:00:00,24.75746,84.366208,SO2,NA,NA,NA
India,Bihar,Bettiah,"Kamalnath Nagar, Bettiah - BSPCB",07-02-2024 18:00:00,26.80365,84.51954,CO,76,80,78
India,Bihar,Bhagalpur,"DM Office_Kachari Chowk, Bhagalpur - BSPCB",07-02-2024 18:00:00,25.251013,86.989001,PM10,93,441,137
India,Bihar,Bhagalpur,"Mayaganj, Bhagalpur - BSPCB",07-02-2024 18:00:00,25.265194,87.012947,OZONE,30,103,87
India,Bihar,Bihar Sharif,"D M Colony, Bihar Sharif - BSPCB",07-02-2024 18:00:00,25.204762,85.514960,SO2,1,12,7
India,Bihar,Bihar Sharif,"D M Colony, Bihar Sharif - BSPCB",07-02-2024 18:00:00,25.204762,85.514960,OZONE,5,44,36
India,Bihar,Buxar,"Charitra Van, Buxar - BSPCB (Formerly known as Central Jail)",07-02-2024 18:00:00,25.567520,83.966379,CO,44,75,60
India,Bihar,Chhapra,"Darshan Nagar, Chhapra - BSPCB",07-02-2024 18:00:00,25.7808257,84.7446768,NO2,13,27,18
India,Bihar,Chhapra,"Darshan Nagar, Chhapra - BSPCB",07-02-2024 18:00:00,25.7808257,84.7446768,NH3,9,16,12
India,Bihar,Chhapra,"Darshan Nagar, Chhapra - BSPCB",07-02-2024 18:00:00,25.7808257,84.7446768,SO2,16,82,48
India,Bihar,Gaya,"Collectorate, Gaya - BSPCB",07-02-2024 18:00:00,24.7955,84.9994,PM2.5,39,294,124
India,Bihar,Gaya,"Collectorate, Gaya - BSPCB",07-02-2024 18:00:00,24.7955,84.9994,OZONE,52,75,65
India,Bihar,Gaya,"SFTI Kusdihra, Gaya - BSPCB",07-02-2024 18:00:00,24.762518,84.982348,PM2.5,57,95,77
India,Bihar,Gaya,"SFTI Kusdihra, Gaya - BSPCB",07-02-2024 18:00:00,24.762518,84.982348,SO2,8,10,9
India,Bihar,Hajipur,"Industrial Area, Hajipur - BSPCB",07-02-2024 18:00:00,25.697189,85.245900,PM2.5,36,74,53
India,Bihar,Hajipur,"Industrial Area, Hajipur - BSPCB",07-02-2024 18:00:00,25.697189,85.245900,SO2,7,13,11
India,Bihar,Hajipur,"Industrial Area, Hajipur - BSPCB",07-02-2024 18:00:00,25.697189,85.245900,CO,23,45,32
India,Bihar,Katihar,"Mirchaibari, Katihar - BSPCB",07-02-2024 18:00:00,25.560083,87.553265,PM10,47,173,96
India,Bihar,Kishanganj,"SDM Office_Khagra, Kishanganj - BSPCB",07-02-2024 18:00:00,26.0881305,87.93840336,PM10,99,194,126
India,Bihar,Manguraha,"Forest Rest House, Manguraha - BSPCB",07-02-2024 18:00:00,27.308328,84.531742,PM2.5,NA,NA,NA
India,Bihar,Manguraha,"Forest Rest House, Manguraha - BSPCB",07-02-2024 18:00:00,27.308328,84.531742,NO2,NA,NA,NA
India,Bihar,Motihari,"Gandak Colony, Motihari - BSPCB",07-02-2024 18:00:00,26.63086,84.90051,PM2.5,48,120,68
India,Bihar,Motihari,"Gandak Colony, Motihari - BSPCB",07-02-2024 18:00:00,26.63086,84.90051,NH3,5,11,8
India,Bihar,Munger,"Town Hall, Munger - BSPCB",07-02-2024 18:00:00,25.376776,86.471523,PM2.5,37,90,54
India,Bihar,Munger,"Town Hall, Munger - BSPCB",07-02-2024 18:00:00,25.376776,86.471523,NO2,8,9,9
India,Bihar,Munger,"Town Hall, Munger - BSPCB",07-02-2024 18:00:00,25.376776,86.471523,SO2,20,45,35
India,Bihar,Munger,"Town Hall, Munger - BSPCB",07-02-2024 18:00:00,25.376776,86.471523,OZONE,10,168,110
India,Bihar,Muzaffarpur,"Buddha Colony, Muzaffarpur - BSPCB",07-02-2024 18:00:00,26.11442,85.39813,PM2.5,80,229,142
India,Bihar,Muzaffarpur,"Buddha Colony, Muzaffarpur - BSPCB",07-02-2024 18:00:00,26.11442,85.39813,NO2,19,34,23
India,Bihar,Muzaffarpur,"MIT-Daudpur Kothi, Muzaffarpur - BSPCB",07-02-2024 18:00:00,26.1403345,85.3650192,PM2.5,83,223,124
India,Bihar,Muzaffarpur,"MIT-Daudpur Kothi, Muzaffarpur - BSPCB",07-02-2024 18:00:00,26.1403345,85.3650192,PM10,88,146,116
India,Bihar,Muzaffarpur,"MIT-Daudpur Kothi, Muzaffarpur - BSPCB",07-02-2024 18:00:00,26.1403345,85.3650192,OZONE,10,75,58
India,Bihar,Muzaffarpur,"Muzaffarpur Collectorate, Muzaffarpur - BSPCB",07-02-2024 18:00:00,26.1209,85.3647,CO,35,70,52
India,Bihar,Patna,"DRM Office Danapur, Patna - BSPCB",07-02-2024 18:00:00,25.586562,85.043586,PM10,92,117,106
India,Bihar,Patna,"Govt. High School Shikarpur, Patna - BSPCB",07-02-2024 18:00:00,25.592539,85.227158,NO2,5,42,21
India,Bihar,Patna,"Govt. High School Shikarpur, Patna - BSPCB",07-02-2024 18:00:00,25.592539,85.227158,CO,44,72,49
India,Bihar,Patna,"IGSC Planetarium Complex, Patna - BSPCB",07-02-2024 18:00:00,25.610369,85.132568,PM2.5,82,385,169
India,Bihar,Patna,"Muradpur, Patna - BSPCB",07-02-2024 18:00:00,25.619651,85.147382,PM2.5,31,87,69
India,Bihar,Patna,"Muradpur, Patna - BSPCB",07-02-2024 18:00:00,25.619651,85.147382,CO,42,72,56
India,Bihar,Patna,"Rajbansi Nagar, Patna - BSPCB",07-02-2024 18:00:00,25.599486,85.113666,PM10,90,135,112
India,Bihar,Patna,"Rajbansi Nagar, Patna - BSPCB",07-02-2024 18:00:00,25.599486,85.113666,NH3,6,8,6
India,Bihar,Patna,"Samanpura, Patna - BSPCB",07-02-2024 18:00:00,25.596727,85.085624,CO,40,107,49
India,Bihar,Purnia,"Mariam Nagar, Purnia - BSPCB",07-02-2024 18:00:00,25.366336,87.117468,NH3,1,1,1
India,Bihar,Purnia,"Mariam Nagar, Purnia - BSPCB",07-02-2024 18:00:00,25.366336,87.117468,OZONE,10,26,22
India,Bihar,Rajgir,"Dangi Tola, Rajgir - BSPCB",07-02-2024 18:00:00,25.03280,85.41948,PM10,69,111,88
India,Bihar,Rajgir,"Dangi Tola, Rajgir - BSPCB",07-02-2024 18:00:00,25.03280,85.41948,SO2,4,4,4
India,Bihar,Saharsa,"Police Line, Saharsa - BSPCB",07-02-2024 18:00:00,25.892357,86.590325,NO2,6,9,7
India,Bihar,Saharsa,"Police Line, Saharsa - BSPCB",07-02-2024 18:00:00,25.892357,86.590325,NH3,9,10,9
India,Bihar,Samastipur,"DM Office_Kasipur, Samastipur - BSPCB",07-02-2024 18:00:00,25.859655,85.77944,CO,7,28,21
India,Bihar,Sasaram,"Dada Peer, Sasaram - BSPCB",07-02-2024 18:00:00,24.952822,84.002396,PM2.5,27,106,60
India,Bihar,Sasaram,"Dada Peer, Sasaram - BSPCB",07-02-2024 18:00:00,24.952822,84.002396,NH3,4,7,5
India,Bihar,Siwan,"Chitragupta Nagar, Siwan - BSPCB",07-02-2024 18:00:00,26.2271665,84.3570427,NO2,10,46,18
India,Chandigarh,Chandigarh,"Sector-53, Chandigarh - CPCC",07-02-2024 18:00:00,30.719859,76.738637,NO2,18,46,29
India,Chandigarh,Chandigarh,"Sector-53, Chandigarh - CPCC",07-02-2024 18:00:00,30.719859,76.738637,CO,40,80,47
India,Chhattisgarh,Bhilai,"32Bungalows, Bhilai - CECB",07-02-2024 18:00:00,21.194815,81.314770,PM2.5,37,52,45
India,Chhattisgarh,Bhilai,"32Bungalows, Bhilai - CECB",07-02-2024 18:00:00,21.194815,81.314770,PM10,49,85,60
India,Chhattisgarh,Bhilai,"32Bungalows, Bhilai - CECB",07-02-2024 18:00:00,21.194815,81.314770,SO2,3,7,4
India,Chhattisgarh,Bhilai,"32Bungalows, Bhilai - CECB",07-02-2024 18:00:00,21.194815,81.314770,OZONE,4,10,7
India,Chhattisgarh,Bhilai,"Civic Center, Bhilai - Bhilai Steel Plant",07-02-2024 18:00:00,21.185571,81.343175,PM2.5,39,55,45
India,Chhattisgarh,Bhilai,"Civic Center, Bhilai - Bhilai Steel Plant",07-02-2024 18:00:00,21.185571,81.343175,CO,28,55,38
India,Chhattisgarh,Bilaspur,"Mangala, Bilaspur - NTPC",07-02-2024 18:00:00,22.08815,82.13737,PM2.5,17,78,43
India,Chhattisgarh,Bilaspur,"Mangala, Bilaspur - NTPC",07-02-2024 18:00:00,22.08815,82.13737,PM10,35,93,52
India,Chhattisgarh,Chhal,"Nawapara SECL Colony, Chhal - CECB",07-02-2024 18:00:00,22.118125,83.140608,SO2,11,84,25
India,Chhattisgarh,Korba,"Rampur, Korba - CECB",07-02-2024 18:00:00,22.368195,82.746431,NH3,2,5,4
India,Chhattisgarh,Korba,"Urja Nagar, Korba - CECB",07-02-2024 18:00:00,22.348441,82.549611,PM2.5,5,53,28
India,Chhattisgarh,Korba,"Urja Nagar, Korba - CECB",07-02-2024 18:00:00,22.348441,82.549611,SO2,3,7,5
India,Chhattisgarh,Milupara,"Govt. Higher Secondary School, Milupara - CECB",07-02-2024 18:00:00,22.1910172,83.5197009,CO,5,57,15
India,Chhattisgarh,Raipur,"AIIMS, Raipur - CECB",07-02-2024 18:00:00,21.258815,81.578979,PM2.5,36,79,58
India,Chhattisgarh,Raipur,"AIIMS, Raipur - CECB",07-02-2024 18:00:00,21.258815,81.578979,OZONE,1,12,3
India,Chhattisgarh,Raipur,"Bhatagaon New ISBT, Raipur - CECB",07-02-2024 18:00:00,21.219665,81.630094,NH3,2,3,2
India,Chhattisgarh,Raipur,"Siltara Phase-II, Raipur - CECB",07-02-2024 18:00:00,21.371751,81.664929,NO2,32,63,42
India,Delhi,Delhi,"Alipur, Delhi - DPCC",07-02-2024 18:00:00,28.815329,77.153010,PM10,59,219,120
India,Delhi,Delhi,"Anand Vihar, Delhi - DPCC",07-02-2024 18:00:00,28.647622,77.3158090,PM10,137,427,241
India,Delhi,Delhi,"Anand Vihar, Delhi - DPCC",07-02-2024 18:00:00,28.647622,77.3158090,CO,48,113,56
India,Delhi,Delhi,"Ashok Vihar, Delhi - DPCC",07-02-2024 18:00:00,28.695381,77.181665,PM2.5,58,323,178
India,Delhi,Delhi,"Ashok Vihar, Delhi - DPCC",07-02-2024 18:00:00,28.695381,77.181665,PM10,115,280,154
India,Delhi,Delhi,"Aya Nagar, Delhi - IMD",07-02-2024 18:00:00,28.4706914,77.1099364,PM10,70,203,131
India,Delhi,Delhi,"CRRI Mathura Road, Delhi - IMD",07-02-2024 18:00:00,28.5512005,77.2735737,PM10,100,243,150
India,Delhi,Delhi,"CRRI Mathura Road, Delhi - IMD",07-02-2024 18:00:00,28.5512005,77.2735737,NO2,34,47,42
India,Delhi,Delhi,"CRRI Mathura Road, Delhi - IMD",07-02-2024 18:00:00,28.5512005,77.2735737,OZONE,3,31,21
India,Delhi,Delhi,"DTU, Delhi - CPCB",07-02-2024 18:00:00,28.7500499,77.1112615,SO2,26,27,27
India,Delhi,Delhi,"Dr. Karni Singh Shooting Range, Delhi - DPCC",07-02-2024 18:00:00,28.498571,77.264840,PM10,112,232,161
India,Delhi,Delhi,"Dr. Karni Singh Shooting Range, Delhi - DPCC",07-02-2024 18:00:00,28.498571,77.264840,NH3,5,8,6
India,Delhi,Delhi,"Dwarka-Sector 8, Delhi - DPCC ",07-02-2024 18:00:00,28.5710274,77.0719006,PM2.5,70,348,208
India,Delhi,Delhi,"Dwarka-Sector 8, Delhi - DPCC ",07-02-2024 18:00:00,28.5710274,77.0719006,SO2,2,10,6
India,Delhi,Delhi,"Dwarka-Sector 8, Delhi - DPCC ",07-02-2024 18:00:00,28.5710274,77.0719006,CO,24,114,27
India,Delhi,Delhi,"IGI Airport (T3), Delhi - IMD",07-02-2024 18:00:00,28.5627763,77.1180053,PM2.5,47,290,140
India,Delhi,Delhi,"IGI Airport (T3), Delhi - IMD",07-02-2024 18:00:00,28.5627763,77.1180053,CO,76,107,85
India,Delhi,Delhi,"ITO, Delhi - CPCB",07-02-2024 18:00:00,28.628624,77.241060,NH3,1,5,3
India,Delhi,Delhi,"Jahangirpuri, Delhi - DPCC",07-02-2024 18:00:00,28.732820,77.170633,NO2,38,110,71
India,Delhi,Delhi,"Jahangirpuri, Delhi - DPCC",07-02-2024 18:00:00,28.732820,77.170633,NH3,13,28,20
India,Delhi,Delhi,"Jawaharlal Nehru Stadium, Delhi - DPCC",07-02-2024 18:00:00,28.580280,77.233829,PM10,86,200,139
India,Delhi,Delhi,"Jawaharlal Nehru Stadium, Delhi - DPCC",07-02-2024 18:00:00,28.580280,77.233829,CO,26,104,30
India,Delhi,Delhi,"Lodhi Road, Delhi - IITM",07-02-2024 18:00:00,28.588333,77.221667,NH3,NA,NA,NA
India,Delhi,Delhi,"Lodhi Road, Delhi - IMD",07-02-2024 18:00:00,28.5918245,77.2273074,NO2,5,6,6
India,Delhi,Delhi,"Major Dhyan Chand National Stadium, Delhi - DPCC",07-02-2024 18:00:00,28.611281,77.237738,PM2.5,52,305,158
India,Delhi,Delhi,"Major Dhyan Chand National Stadium, Delhi - DPCC",07-02-2024 18:00:00,28.611281,77.237738,CO,3,105,32
India,Delhi,Delhi,"Mandir Marg, Delhi - DPCC",07-02-2024 18:00:00,28.636429,77.201067,SO2,7,11,9
India,Delhi,Delhi,"Mandir Marg, Delhi - DPCC",07-02-2024 18:00:00,28.636429,77.201067,CO,28,104,33
India,Delhi,Delhi,"Mundka, Delhi - DPCC",07-02-2024 18:00:00,28.684678,77.076574,PM2.5,44,355,220
India,Delhi,Delhi,"Mundka, Delhi - DPCC",07-02-2024 18:00:00,28.684678,77.076574,PM10,110,392,178
India,Delhi,Delhi,"Mundka, Delhi - DPCC",07-02-2024 18:00:00,28.684678,77.076574,NH3,5,16,8
India,Delhi,Delhi,"NSIT Dwarka, Delhi - CPCB",07-02-2024 18:00:00,28.60909,77.0325413,PM2.5,61,314,188
India,Delhi,Delhi,"Najafgarh, Delhi - DPCC",07-02-2024 18:00:00,28.570173,76.933762,PM2.5,42,197,113
India,Delhi,Delhi,"Najafgarh, Delhi - DPCC",07-02-2024 18:00:00,28.570173,76.933762,CO,4,40,13
India,Delhi,Delhi,"Narela, Delhi - DPCC",07-02-2024 18:00:00,28.822836,77.101981,NO2,14,72,39
India,Delhi,Delhi,"Narela, Delhi - DPCC",07-02-2024 18:00:00,28.822836,77.101981,SO2,3,10,6
India,Delhi,Delhi,"New Moti Bagh, Delhi - MHUA",07-02-2024 18:00:00,28.57834,77.18400,NO2,1,5,3
India,Delhi,Delhi,"North Campus, DU, Delhi - IMD",07-02-2024 18:00:00,28.6573814,77.1585447,CO,11,38,13
India,Delhi,Delhi,"Okhla Phase-2, Delhi - DPCC",07-02-2024 18:00:00,28.530785,77.271255,NH3,8,11,9
India,Delhi,Delhi,"Patparganj, Delhi - DPCC",07-02-2024 18:00:00,28.623763,77.287209,OZONE,1,98,81
India,Delhi,Delhi,"Pusa, Delhi - DPCC",07-02-2024 18:00:00,28.639652,77.146275,PM2.5,80,348,228
India,Delhi,Delhi,"Pusa, Delhi - DPCC",07-02-2024 18:00:00,28.639652,77.146275,SO2,6,18,12
India,Delhi,Delhi,"Pusa, Delhi - DPCC",07-02-2024 18:00:00,28.639652,77.146275,CO,4,116,50
India,Delhi,Delhi,"R K Puram, Delhi - DPCC",07-02-2024 18:00:00,28.563262,77.186937,CO,18,119,23
India,Delhi,Delhi,"Shadipur, Delhi - CPCB",07-02-2024 18:00:00,28.6514781,77.1473105,PM2.5,48,202,128
India,Delhi,Delhi,"Sirifort, Delhi - CPCB",07-02-2024 18:00:00,28.5504249,77.2159377,NH3,4,8,6
India,Delhi,Delhi,"Sirifort, Delhi - CPCB",07-02-2024 18:00:00,28.5504249,77.2159377,SO2,30,67,37
India,Delhi,Delhi,"Sirifort, Delhi - CPCB",07-02-2024 18:00:00,28.5504249,77.2159377,CO,10,78,18
India,Delhi,Delhi,"Sri Aurobindo Marg, Delhi - DPCC",07-02-2024 18:00:00,28.531346,77.190156,PM10,84,176,130
India,Delhi,Delhi,"Vivek Vihar, Delhi - DPCC",07-02-2024 18:00:00,28.672342,77.315260,CO,12,92,16
India,Delhi,Delhi,"Wazirpur, Delhi - DPCC",07-02-2024 18:00:00,28.699793,77.165453,NH3,2,6,4
India,Delhi,Delhi,"Wazirpur, Delhi - DPCC",07-02-2024 18:00:00,28.699793,77.165453,CO,26,110,35
India,Gujarat,Ahmedabad,"Gyaspur, Ahmedabad - IITM",07-02-2024 18:00:00,22.977134,72.553024,NH3,2,3,2
India,Gujarat,Ahmedabad,"Maninagar, Ahmedabad - GPCB",07-02-2024 18:00:00,23.002657,72.591912,PM2.5,32,88,57
India,Gujarat,Ahmedabad,"Maninagar, Ahmedabad - GPCB",07-02-2024 18:00:00,23.002657,72.591912,CO,19,45,28
India,Gujarat,Ahmedabad,"Raikhad, Ahmedabad - IITM",07-02-2024 18:00:00,23.020509,72.579261,NO2,35,100,60
India,Gujarat,Ahmedabad,"Raikhad, Ahmedabad - IITM",07-02-2024 18:00:00,23.020509,72.579261,CO,38,107,76
India,Gujarat,Ahmedabad,"Rakhial, Ahmedabad - IITM",07-02-2024 18:00:00,23.016834,72.625775,NO2,5,20,12
India,Gujarat,Ahmedabad,"SVPI Airport Hansol, Ahmedabad - IITM",07-02-2024 18:00:00,23.076793,72.627874,NH3,3,4,4
India,Gujarat,Ahmedabad,"SVPI Airport Hansol, Ahmedabad - IITM",07-02-2024 18:00:00,23.076793,72.627874,SO2,13,25,23
India,Gujarat,Ahmedabad,"SVPI Airport Hansol, Ahmedabad - IITM",07-02-2024 18:00:00,23.076793,72.627874,CO,38,74,44
India,Gujarat,Ahmedabad,"Sardar Vallabhbhai Patel Stadium, Ahmedabad - IITM",07-02-2024 18:00:00,23.043070,72.562968,PM2.5,76,148,96
India,Gujarat,Gandhinagar,"GIFT City, Gandhinagar - IITM",07-02-2024 18:00:00,23.163798,72.677768,PM10,77,139,95
India,Gujarat,Gandhinagar,"GIFT City, Gandhinagar - IITM",07-02-2024 18:00:00,23.163798,72.677768,NO2,9,24,12
India,Gujarat,Gandhinagar,"GIFT City, Gandhinagar - IITM",07-02-2024 18:00:00,23.163798,72.677768,OZONE,13,34,19
India,Gujarat,Gandhinagar,"IIPHG Lekawada, Gandhinagar - IITM",07-02-2024 18:00:00,23.243639,72.68994,NH3,4,4,4
India,Gujarat,Gandhinagar,"Sector-10, Gandhinagar - GPCB",07-02-2024 18:00:00,23.221714,72.654328,OZONE,2,41,32
India,Gujarat,Vapi,"Phase-1 GIDC, Vapi - GPCB",07-02-2024 18:00:00,20.362421,72.918013,PM2.5,114,361,226
India,Gujarat,Vatva,"Phase-4 GIDC, Vatva - GPCB",07-02-2024 18:00:00,22.969611,72.643500,PM2.5,54,91,72
India,Gujarat,Vatva,"Phase-4 GIDC, Vatva - GPCB",07-02-2024 18:00:00,22.969611,72.643500,SO2,3,10,5
India,Haryana,Ambala,"Patti Mehar, Ambala - HSPCB",07-02-2024 18:00:00,30.379589,76.778328,NO2,2,3,3
India,Haryana,Ambala,"Patti Mehar, Ambala - HSPCB",07-02-2024 18:00:00,30.379589,76.778328,SO2,3,9,6
India,Haryana,Ambala,"Patti Mehar, Ambala - HSPCB",07-02-2024 18:00:00,30.379589,76.778328,OZONE,24,43,33
India,Haryana,Bahadurgarh,"Arya Nagar, Bahadurgarh - HSPCB",07-02-2024 18:00:00,28.6701,76.9254,PM2.5,39,165,110
India,Haryana,Ballabgarh,"Nathu Colony, Ballabgarh - HSPCB",07-02-2024 18:00:00,28.3419248,77.319699,NO2,12,13,12
India,Haryana,Bhiwani,"H.B. Colony, Bhiwani - HSPCB",07-02-2024 18:00:00,28.806223,76.141105,NH3,4,6,6
India,Haryana,Bhiwani,"H.B. Colony, Bhiwani - HSPCB",07-02-2024 18:00:00,28.806223,76.141105,SO2,1,13,9
India,Haryana,Bhiwani,"H.B. Colony, Bhiwani - HSPCB",07-02-2024 18:00:00,28.806223,76.141105,CO,5,46,31
India,Haryana,Charkhi Dadri,"Mini Secretariat, Charkhi Dadri - HSPCB",07-02-2024 18:00:00,28.593883,76.270653,PM10,81,151,112
India,Haryana,Charkhi Dadri,"Mini Secretariat, Charkhi Dadri - HSPCB",07-02-2024 18:00:00,28.593883,76.270653,NO2,9,14,11
India,Haryana,Charkhi Dadri,"Mini Secretariat, Charkhi Dadri - HSPCB",07-02-2024 18:00:00,28.593883,76.270653,CO,22,62,28
India,Haryana,Dharuhera,"Municipal Corporation Office, Dharuhera -  HSPCB",07-02-2024 18:00:00,28.206800,76.799700,OZONE,8,86,57
India,Haryana,Faridabad,"New Industrial Town, Faridabad - HSPCB",07-02-2024 18:00:00,28.39072,77.30059,NO2,6,10,8
India,Haryana,Faridabad,"New Industrial Town, Faridabad - HSPCB",07-02-2024 18:00:00,28.39072,77.30059,OZONE,35,223,150
India,Haryana,Faridabad,"Sector 11, Faridabad - HSPCB",07-02-2024 18:00:00,28.376058,77.315741,PM2.5,40,94,67
India,Haryana,Faridabad,"Sector 30, Faridabad - HSPCB",07-02-2024 18:00:00,28.4417,77.3217,SO2,NA,NA,NA
India,Haryana,Faridabad,"Sector 30, Faridabad - HSPCB",07-02-2024 18:00:00,28.4417,77.3217,CO,52,56,54
India,Haryana,Faridabad,"Sector- 16A, Faridabad - HSPCB",07-02-2024 18:00:00,28.4088421,77.3099081,PM2.5,NA,NA,NA
India,Haryana,Fatehabad,"Huda Sector, Fatehabad - HSPCB",07-02-2024 18:00:00,29.503664,75.467934,PM2.5,48,244,156
India,Haryana,Fatehabad,"Huda Sector, Fatehabad - HSPCB",07-02-2024 18:00:00,29.503664,75.467934,PM10,65,127,109
India,Haryana,Gurugram,"NISE Gwal Pahari, Gurugram - IMD",07-02-2024 18:00:00,28.422681,77.148944,PM2.5,NA,NA,NA
India,Haryana,Gurugram,"NISE Gwal Pahari, Gurugram - IMD",07-02-2024 18:00:00,28.422681,77.148944,PM10,NA,NA,NA
India,Haryana,Gurugram,"NISE Gwal Pahari, Gurugram - IMD",07-02-2024 18:00:00,28.422681,77.148944,CO,41,71,41
India,Haryana,Gurugram,"Sector-51, Gurugram - HSPCB",07-02-2024 18:00:00,28.4227,77.0667,PM10,95,319,160
India,Haryana,Gurugram,"Sector-51, Gurugram - HSPCB",07-02-2024 18:00:00,28.4227,77.0667,CO,16,88,26
India,Haryana,Hisar,"Urban Estate-II, Hisar - HSPCB",07-02-2024 18:00:00,29.140560,75.744941,PM2.5,41,308,164
India,Haryana,Hisar,"Urban Estate-II, Hisar - HSPCB",07-02-2024 18:00:00,29.140560,75.744941,SO2,5,64,37
India,Haryana,Kaithal,"Rishi Nagar, Kaithal - HSPCB",07-02-2024 18:00:00,29.8006,76.4155,NO2,24,25,25
India,Haryana,Kaithal,"Rishi Nagar, Kaithal - HSPCB",07-02-2024 18:00:00,29.8006,76.4155,CO,8,26,12
India,Haryana,Karnal,"Sector-12, Karnal - HSPCB",07-02-2024 18:00:00,29.695300,77.002700,PM2.5,29,66,50
India,Haryana,Karnal,"Sector-12, Karnal - HSPCB",07-02-2024 18:00:00,29.695300,77.002700,OZONE,33,37,35
India,Haryana,Kurukshetra,"Sector-7, Kurukshetra - HSPCB",07-02-2024 18:00:00,29.966942,76.875879,NO2,10,10,10
India,Haryana,Mandikhera,"General Hospital, Mandikhera - HSPCB",07-02-2024 18:00:00,27.9002,76.9938,PM10,53,103,83
India,Haryana,Manesar,"Sector-2 IMT, Manesar - HSPCB",07-02-2024 18:00:00,28.360699,76.936090,CO,19,48,26
India,Haryana,Narnaul,"Shastri Nagar, Narnaul - HSPCB",07-02-2024 18:00:00,28.060249,76.113115,NO2,16,58,34
India,Haryana,Narnaul,"Shastri Nagar, Narnaul - HSPCB",07-02-2024 18:00:00,28.060249,76.113115,OZONE,27,83,65
India,Haryana,Palwal,"Shyam Nagar, Palwal - HSPCB",07-02-2024 18:00:00,28.1485564,77.3320667,PM10,76,136,105
India,Haryana,Palwal,"Shyam Nagar, Palwal - HSPCB",07-02-2024 18:00:00,28.1485564,77.3320667,SO2,1,11,5
India,Haryana,Panipat,"Sector-18, Panipat - HSPCB",07-02-2024 18:00:00,29.497973,76.993331,NO2,15,30,20
India,Haryana,Panipat,"Sector-18, Panipat - HSPCB",07-02-2024 18:00:00,29.497973,76.993331,NH3,2,3,2
India,Haryana,Rohtak,"MD University, Rohtak - HSPCB",07-02-2024 18:00:00,28.52123,76.37138,PM2.5,44,93,64
India,Haryana,Sirsa,"F-Block, Sirsa - HSPCB",07-02-2024 18:00:00,29.536400,75.015800,PM2.5,22,172,103
India,Haryana,Sirsa,"F-Block, Sirsa - HSPCB",07-02-2024 18:00:00,29.536400,75.015800,NO2,9,12,10
India,Haryana,Sirsa,"F-Block, Sirsa - HSPCB",07-02-2024 18:00:00,29.536400,75.015800,OZONE,17,88,66
India,Haryana,Yamuna Nagar,"Gobind Pura, Yamuna Nagar - HSPCB",07-02-2024 18:00:00,30.1480566,77.2893471,PM2.5,33,73,60
India,Haryana,Yamuna Nagar,"Gobind Pura, Yamuna Nagar - HSPCB",07-02-2024 18:00:00,30.1480566,77.2893471,CO,29,44,35
India,Jharkhand,Dhanbad,"Kalakusuma, Dhanbad - DMC",07-02-2024 18:00:00,23.811548,86.481238,PM10,NA,NA,NA
India,Jharkhand,Dhanbad,"Sardar Patel Nagar, Dhanbad - JSPCB",07-02-2024 18:00:00,23.80569,86.44268,PM2.5,NA,NA,NA
India,Jharkhand,Dhanbad,"Sardar Patel Nagar, Dhanbad - JSPCB",07-02-2024 18:00:00,23.80569,86.44268,CO,158,160,160
India,Jharkhand,Pathardih,"Mohalbani Ghat, Pathardih - DMC",07-02-2024 18:00:00,23.669880,86.411725,PM10,NA,NA,NA
India,Jharkhand,Pathardih,"Mohalbani Ghat, Pathardih - DMC",07-02-2024 18:00:00,23.669880,86.411725,NO2,NA,NA,NA
India,Karnataka,Bengaluru,"BTM Layout, Bengaluru - CPCB",07-02-2024 18:00:00,12.9135218,77.5950804,NH3,13,51,20
India,Karnataka,Bengaluru,"Bapuji Nagar, Bengaluru - KSPCB",07-02-2024 18:00:00,12.951913,77.539784,NH3,1,1,1
India,Karnataka,Bengaluru,"City Railway Station, Bengaluru - KSPCB",07-02-2024 18:00:00,12.9756843,77.5660749,PM10,59,81,69
India,Karnataka,Bengaluru,"City Railway Station, Bengaluru - KSPCB",07-02-2024 18:00:00,12.9756843,77.5660749,SO2,13,13,13
India,Karnataka,Bengaluru,"City Railway Station, Bengaluru - KSPCB",07-02-2024 18:00:00,12.9756843,77.5660749,CO,52,108,69
India,Karnataka,Bengaluru,"Hebbal, Bengaluru - KSPCB",07-02-2024 18:00:00,13.029152,77.585901,PM10,NA,NA,NA
India,Karnataka,Bengaluru,"Hombegowda Nagar, Bengaluru - KSPCB",07-02-2024 18:00:00,12.938539,77.590100,SO2,3,5,4
India,Karnataka,Bengaluru,"Jigani, Bengaluru - KSPCB",07-02-2024 18:00:00,12.7816279,77.6299145,SO2,10,11,10
India,Karnataka,Bengaluru,"Jigani, Bengaluru - KSPCB",07-02-2024 18:00:00,12.7816279,77.6299145,OZONE,6,79,49
India,Karnataka,Bengaluru,"Peenya, Bengaluru - CPCB",07-02-2024 18:00:00,13.0270199,77.494094,PM10,56,104,77
India,Karnataka,Bengaluru,"Sanegurava Halli, Bengaluru - KSPCB",07-02-2024 18:00:00,12.990328,77.5431385,NO2,24,48,32
India,Karnataka,Bengaluru,"Shivapura_Peenya, Bengaluru - KSPCB",07-02-2024 18:00:00,13.0246342,77.5080115,PM2.5,8,297,97
India,Karnataka,Bengaluru,"Shivapura_Peenya, Bengaluru - KSPCB",07-02-2024 18:00:00,13.0246342,77.5080115,PM10,16,156,87
India,Karnataka,Bengaluru,"Shivapura_Peenya, Bengaluru - KSPCB",07-02-2024 18:00:00,13.0246342,77.5080115,NH3,4,4,4
India,Karnataka,Bengaluru,"Shivapura_Peenya, Bengaluru - KSPCB",07-02-2024 18:00:00,13.0246342,77.5080115,SO2,5,17,9
India,Karnataka,Bengaluru,"Silk Board, Bengaluru - KSPCB",07-02-2024 18:00:00,12.917348,77.622813,PM2.5,31,198,95
India,Karnataka,Bengaluru,"Silk Board, Bengaluru - KSPCB",07-02-2024 18:00:00,12.917348,77.622813,SO2,4,17,8
India,Karnataka,Bidar,"Naubad, Bidar - KSPCB",07-02-2024 18:00:00,17.930306,77.482194,PM10,NA,NA,NA
India,Karnataka,Bidar,"Naubad, Bidar - KSPCB",07-02-2024 18:00:00,17.930306,77.482194,NH3,NA,NA,NA
India,Karnataka,Chamarajanagar,"Urban, Chamarajanagar - KSPCB",07-02-2024 18:00:00,11.55358,76.55521,SO2,2,9,5
India,Karnataka,Chikkaballapur,"Chikkaballapur Rural, Chikkaballapur - KSPCB",07-02-2024 18:00:00,13.428828,77.731418,SO2,17,28,22
India,Karnataka,Chikkaballapur,"Chikkaballapur Rural, Chikkaballapur - KSPCB",07-02-2024 18:00:00,13.428828,77.731418,CO,12,16,13
India,Karnataka,Chikkaballapur,"Chikkaballapur Rural, Chikkaballapur - KSPCB",07-02-2024 18:00:00,13.428828,77.731418,OZONE,24,25,24
India,Karnataka,Chikkamagaluru,"Kalyana Nagara, Chikkamagaluru - KSPCB",07-02-2024 18:00:00,13.328028,75.797056,SO2,1,2,1
India,Karnataka,Chikkamagaluru,"Kalyana Nagara, Chikkamagaluru - KSPCB",07-02-2024 18:00:00,13.328028,75.797056,CO,11,102,27
India,Karnataka,Davanagere,"Devaraj Urs Badavane, Davanagere - KSPCB",07-02-2024 18:00:00,14.475800,75.905200,PM10,34,109,61
India,Karnataka,Dharwad,"Kalabhavan, Dharwad - KSPCB",07-02-2024 18:00:00,15.459706,75.008381,OZONE,2,49,39
India,Karnataka,Gadag,"Panchal Nagar, Gadag - KSPCB",07-02-2024 18:00:00,15.411456,75.638133,PM10,31,70,40
India,Karnataka,Gadag,"Panchal Nagar, Gadag - KSPCB",07-02-2024 18:00:00,15.411456,75.638133,SO2,11,20,16
India,Karnataka,Gadag,"Panchal Nagar, Gadag - KSPCB",07-02-2024 18:00:00,15.411456,75.638133,CO,40,56,44
India,Karnataka,Haveri,"Ashwini Nagar, Haveri - KSPCB",07-02-2024 18:00:00,14.791800,75.389600,SO2,14,27,18
India,Karnataka,Haveri,"Ashwini Nagar, Haveri - KSPCB",07-02-2024 18:00:00,14.791800,75.389600,OZONE,18,41,19
India,Karnataka,Hubballi,"Lingaraj Nagar, Hubballi - KSPCB",07-02-2024 18:00:00,15.3714823,75.1160168,PM2.5,NA,NA,NA
India,Karnataka,Kalaburagi,"Lal Bahadur Shastri Nagar, Kalaburagi - KSPCB",07-02-2024 18:00:00,17.321993,76.822628,NO2,11,12,11
India,Karnataka,Kalaburagi,"Lal Bahadur Shastri Nagar, Kalaburagi - KSPCB",07-02-2024 18:00:00,17.321993,76.822628,SO2,19,21,20
India,Karnataka,Kalaburagi,"Lal Bahadur Shastri Nagar, Kalaburagi - KSPCB",07-02-2024 18:00:00,17.321993,76.822628,CO,36,84,38
India,Karnataka,Kalaburagi,"Mahatma Basaveswar Colony, Kalaburgi - KSPCB",07-02-2024 18:00:00,17.336318,76.847397,PM10,39,86,52
India,Karnataka,Kalaburagi,"Mahatma Basaveswar Colony, Kalaburgi - KSPCB",07-02-2024 18:00:00,17.336318,76.847397,NH3,2,4,3
India,Karnataka,Kalaburagi,"Mahatma Basaveswar Colony, Kalaburgi - KSPCB",07-02-2024 18:00:00,17.336318,76.847397,OZONE,1,28,24
India,Karnataka,Karwar,"KHB Colony, Karwar - KSPCB",07-02-2024 18:00:00,14.816666,74.141003,PM10,73,144,100
India,Karnataka,Karwar,"KHB Colony, Karwar - KSPCB",07-02-2024 18:00:00,14.816666,74.141003,CO,7,8,7
India,Karnataka,Kolar,"Tamaka Ind. Area, Kolar - KSPCB",07-02-2024 18:00:00,13.1276288,78.1570122,PM10,74,243,122
India,Karnataka,Kolar,"Tamaka Ind. Area, Kolar - KSPCB",07-02-2024 18:00:00,13.1276288,78.1570122,CO,7,24,15
India,Karnataka,Koppal,"Diwator Nagar, Koppal - KSPCB",07-02-2024 18:00:00,15.347630,76.181767,PM2.5,25,72,38
India,Karnataka,Koppal,"Diwator Nagar, Koppal - KSPCB",07-02-2024 18:00:00,15.347630,76.181767,NH3,4,6,5
India,Karnataka,Madikeri,"Stuart Hill, Madikeri - KSPCB",07-02-2024 18:00:00,12.415911,75.735050,NO2,6,30,11
India,Karnataka,Mysuru,"Hebbal 1st Stage, Mysuru - KSPCB",07-02-2024 18:00:00,12.21041,76.37376,SO2,1,16,5
India,Karnataka,Raichur,"Haji Colony, Raichur - KSPCB",07-02-2024 18:00:00,16.208139,77.348417,CO,94,129,99
India,Karnataka,Shivamogga,"Vinoba Nagara, Shivamogga - KSPCB",07-02-2024 18:00:00,13.940000,75.555917,OZONE,46,83,73
India,Karnataka,Udupi,"Brahmagiri, Udupi - KSPCB",07-02-2024 18:00:00,13.34194444,74.74694444,SO2,22,25,23
India,Karnataka,Udupi,"Brahmagiri, Udupi - KSPCB",07-02-2024 18:00:00,13.34194444,74.74694444,OZONE,23,24,23
India,Karnataka,Vijayapura,"Ibrahimpur, Vijayapura - KSPCB",07-02-2024 18:00:00,16.802639,75.722694,OZONE,14,16,15
India,Karnataka,Yadgir,"Collector Office, Yadgir - KSPCB",07-02-2024 18:00:00,16.7602,77.1428,PM2.5,56,125,76
India,Kerala,Eloor,"Udyogamandal, Eloor - Kerala PCB",07-02-2024 18:00:00,10.073232,76.302765,PM2.5,40,69,55
India,Kerala,Eloor,"Udyogamandal, Eloor - Kerala PCB",07-02-2024 18:00:00,10.073232,76.302765,PM10,39,57,48
India,Kerala,Eloor,"Udyogamandal, Eloor - Kerala PCB",07-02-2024 18:00:00,10.073232,76.302765,NO2,4,5,4
India,Kerala,Eloor,"Udyogamandal, Eloor - Kerala PCB",07-02-2024 18:00:00,10.073232,76.302765,SO2,1,5,3
India,Kerala,Kannur,"Thavakkara, Kannur - Kerala PCB",07-02-2024 18:00:00,11.875000,75.373200,CO,30,34,33
India,Kerala,Kochi,"Vyttila, Kochi - Kerala PCB",07-02-2024 18:00:00,9.969447,76.321186,PM2.5,48,48,48
India,Kerala,Kollam,"Polayathode, Kollam - Kerala PCB",07-02-2024 18:00:00,8.8787,76.6073,NO2,8,9,8
India,Kerala,Kollam,"Polayathode, Kollam - Kerala PCB",07-02-2024 18:00:00,8.8787,76.6073,NH3,1,1,1
India,Kerala,Thiruvananthapuram,"Kariavattom, Thiruvananthapuram - Kerala PCB",07-02-2024 18:00:00,8.563700,76.886500,NH3,1,1,1
India,Kerala,Thiruvananthapuram,"Kariavattom, Thiruvananthapuram - Kerala PCB",07-02-2024 18:00:00,8.563700,76.886500,CO,18,108,35
India,Kerala,Thiruvananthapuram,"Plammoodu, Thiruvananthapuram - Kerala PCB",07-02-2024 18:00:00,8.5149093,76.9435879,SO2,6,12,9
India,Kerala,Thiruvananthapuram,"Plammoodu, Thiruvananthapuram - Kerala PCB",07-02-2024 18:00:00,8.5149093,76.9435879,OZONE,10,74,17
India,Kerala,Thrissur,"Corporation Ground, Thrissur - Kerala PCB",07-02-2024 18:00:00,10.532400,76.215900,SO2,1,41,13
India,Madhya Pradesh,Bhopal,"Paryavaran Parisar, Bhopal - MPPCB",07-02-2024 18:00:00,23.210494,77.425409,SO2,20,25,22
India,Madhya Pradesh,Bhopal,"T T Nagar, Bhopal - MPPCB",07-02-2024 18:00:00,23.233584,77.400574,CO,36,57,50
India,Madhya Pradesh,Dewas,"Bhopal Chauraha, Dewas - MPPCB",07-02-2024 18:00:00,22.9682591,76.064118,PM10,86,142,105
India,Madhya Pradesh,Dewas,"Bhopal Chauraha, Dewas - MPPCB",07-02-2024 18:00:00,22.9682591,76.064118,NO2,11,13,12
India,Madhya Pradesh,Gwalior,"City Center, Gwalior - MPPCB",07-02-2024 18:00:00,26.203442,78.193251,PM2.5,52,352,184
India,Madhya Pradesh,Gwalior,"City Center, Gwalior - MPPCB",07-02-2024 18:00:00,26.203442,78.193251,PM10,98,361,164
India,Madhya Pradesh,Gwalior,"City Center, Gwalior - MPPCB",07-02-2024 18:00:00,26.203442,78.193251,CO,26,124,39
