country,state,city,station,last_update,latitude,longitude,pollutant_id,pollutant_min,pollutant_max,pollutant_avg
India,Andhra_Pradesh,Amaravati,"Secretariat, Amaravati - APPCB",23-03-2024 01:00:00,16.5150833,80.5181667,CO,12,100,62
India,Andhra_Pradesh,Anantapur,"Gulzarpet, Anantapur - APPCB",23-03-2024 01:00:00,14.675886,77.593027,PM10,NA,NA,NA
India,Andhra_Pradesh,Anantapur,"Gulzarpet, Anantapur - APPCB",23-03-2024 01:00:00,14.675886,77.593027,NO2,NA,NA,NA
India,Andhra_Pradesh,Chittoor,"Gangineni Cheruvu, Chittoor - APPCB",23-03-2024 01:00:00,13.204880,79.097889,PM2.5,NA,NA,NA
India,Andhra_Pradesh,Chittoor,"Gangineni Cheruvu, Chittoor - APPCB",23-03-2024 01:00:00,13.204880,79.097889,NO2,NA,NA,NA
India,Andhra_Pradesh,Tirupati,"Tirumala, Tirupati - APPCB",23-03-2024 01:00:00,13.67,79.35,SO2,4,11,7
India,Andhra_Pradesh,Tirupati,"Tirumala, Tirupati - APPCB",23-03-2024 01:00:00,13.67,79.35,CO,21,44,33
India,Andhra_Pradesh,Tirupati,"Tirumala, Tirupati - APPCB",23-03-2024 01:00:00,13.67,79.35,OZONE,12,70,37
India,Andhra_Pradesh,Tirupati,"Vaikuntapuram, Tirupati - APPCB",23-03-2024 01:00:00,13.615387,79.409230,OZONE,1,51,20
India,Andhra_Pradesh,Vijayawada,"HB Colony, Vijayawada - APPCB",23-03-2024 01:00:00,16.536107,80.594233,NO2,6,15,9
India,Andhra_Pradesh,Vijayawada,"HB Colony, Vijayawada - APPCB",23-03-2024 01:00:00,16.536107,80.594233,CO,34,48,34
India,Andhra_Pradesh,Vijayawada,"HB Colony, Vijayawada - APPCB",23-03-2024 01:00:00,16.536107,80.594233,OZONE,7,56,19
India,Andhra_Pradesh,Vijayawada,"Kanuru, Vijayawada - APPCB",23-03-2024 01:00:00,16.486692,80.699436,PM10,58,77,68
India,Andhra_Pradesh,Vijayawada,"Rajiv Gandhi Park, Vijayawada - APPCB",23-03-2024 01:00:00,16.509717,80.612222,PM2.5,42,66,52
India,Andhra_Pradesh,Vijayawada,"Rajiv Nagar, Vijayawada - APPCB",23-03-2024 01:00:00,16.554731,80.649110,NH3,NA,NA,NA
India,Andhra_Pradesh,Vijayawada,"Rajiv Nagar, Vijayawada - APPCB",23-03-2024 01:00:00,16.554731,80.649110,SO2,13,26,19
India,Andhra_Pradesh,Visakhapatnam,"GVM Corporation, Visakhapatnam - APPCB",23-03-2024 01:00:00,17.72,83.3,NO2,31,65,47
India,Andhra_Pradesh,Visakhapatnam,"GVM Corporation, Visakhapatnam - APPCB",23-03-2024 01:00:00,17.72,83.3,SO2,10,19,13
India,Arunachal_Pradesh,Naharlagun,"Naharlagun, Naharlagun - APSPCB",23-03-2024 01:00:00,27.103358,93.679645,OZONE,2,2,2
India,Assam,Byrnihat,"Central Academy for SFS, Byrnihat - PCBA",23-03-2024 01:00:00,26.071318,91.87488,OZONE,8,22,13
India,Assam,Guwahati,"IITG, Guwahati - PCBA",23-03-2024 01:00:00,26.2028636,91.70046436,NH3,5,5,5
India,Assam,Guwahati,"IITG, Guwahati - PCBA",23-03-2024 01:00:00,26.2028636,91.70046436,CO,10,17,14
India,Assam,Guwahati,"IITG, Guwahati - PCBA",23-03-2024 01:00:00,26.2028636,91.70046436,OZONE,2,30,9
India,Assam,Guwahati,"LGBI Airport, Guwahati - PCBA",23-03-2024 01:00:00,26.10887,91.589544,NH3,1,10,3
India,Assam,Guwahati,"LGBI Airport, Guwahati - PCBA",23-03-2024 01:00:00,26.10887,91.589544,CO,32,148,111
India,Assam,Guwahati,"Pan Bazaar, Guwahati - PCBA",23-03-2024 01:00:00,26.187500,91.744194,PM10,37,146,88
India,Assam,Guwahati,"Pan Bazaar, Guwahati - PCBA",23-03-2024 01:00:00,26.187500,91.744194,NO2,1,8,3
India,Assam,Guwahati,"Pan Bazaar, Guwahati - PCBA",23-03-2024 01:00:00,26.187500,91.744194,OZONE,18,19,18
India,Assam,Guwahati,"Railway Colony, Guwahati - PCBA",23-03-2024 01:00:00,26.181742,91.78063,PM2.5,1,325,113
India,Assam,Nagaon,"Christianpatty, Nagaon - PCBA",23-03-2024 01:00:00,26.349082,92.68449,PM2.5,2,45,15
India,Assam,Nagaon,"Christianpatty, Nagaon - PCBA",23-03-2024 01:00:00,26.349082,92.68449,OZONE,27,81,43
India,Assam,Nalbari,"Bata Chowk, Nalbari - PCBA",23-03-2024 01:00:00,26.446912,91.439057,PM2.5,35,143,80
India,Assam,Nalbari,"Bata Chowk, Nalbari - PCBA",23-03-2024 01:00:00,26.446912,91.439057,PM10,40,384,103
India,Assam,Nalbari,"Bata Chowk, Nalbari - PCBA",23-03-2024 01:00:00,26.446912,91.439057,NH3,1,2,1
India,Assam,Silchar,"Tarapur, Silchar - PCBA",23-03-2024 01:00:00,24.82827,92.79525,PM10,30,62,46
India,Assam,Sivasagar,"Girls College, Sivasagar - PCBA",23-03-2024 01:00:00,26.987634,94.636574,OZONE,1,6,3
India,Bihar,Araria,"Kharahiya Basti, Araria - BSPCB",23-03-2024 01:00:00,26.146529,87.454184,PM10,22,244,85
India,Bihar,Araria,"Kharahiya Basti, Araria - BSPCB",23-03-2024 01:00:00,26.146529,87.454184,NO2,5,8,7
India,Bihar,Araria,"Kharahiya Basti, Araria - BSPCB",23-03-2024 01:00:00,26.146529,87.454184,CO,16,30,20
India,Bihar,Arrah,"New DM Office, Arrah - BSPCB",23-03-2024 01:00:00,25.5626095,84.663264,NH3,4,7,5
India,Bihar,Aurangabad,"Gurdeo Nagar, Aurangabad - BSPCB",23-03-2024 01:00:00,24.75746,84.366208,OZONE,4,46,19
India,Bihar,Bettiah,"Kamalnath Nagar, Bettiah - BSPCB",23-03-2024 01:00:00,26.80365,84.51954,PM10,75,204,124
India,Bihar,Bettiah,"Kamalnath Nagar, Bettiah - BSPCB",23-03-2024 01:00:00,26.80365,84.51954,NO2,8,8,8
India,Bihar,Bettiah,"Kamalnath Nagar, Bettiah - BSPCB",23-03-2024 01:00:00,26.80365,84.51954,NH3,3,6,3
India,Bihar,Bettiah,"Kamalnath Nagar, Bettiah - BSPCB",23-03-2024 01:00:00,26.80365,84.51954,OZONE,1,8,3
India,Bihar,Bihar Sharif,"D M Colony, Bihar Sharif - BSPCB",23-03-2024 01:00:00,25.204762,85.514960,SO2,1,20,7
India,Bihar,Buxar,"Charitra Van, Buxar - BSPCB (Formerly known as Central Jail)",23-03-2024 01:00:00,25.567520,83.966379,SO2,1,18,10
India,Bihar,Chhapra,"Darshan Nagar, Chhapra - BSPCB",23-03-2024 01:00:00,25.7808257,84.7446768,SO2,2,35,15
India,Bihar,Gaya,"Collectorate, Gaya - BSPCB",23-03-2024 01:00:00,24.7955,84.9994,SO2,5,25,14
India,Bihar,Gaya,"Collectorate, Gaya - BSPCB",23-03-2024 01:00:00,24.7955,84.9994,OZONE,42,81,68
India,Bihar,Gaya,"Kareemganj, Gaya - BSPCB",23-03-2024 01:00:00,24.792403,84.992416,CO,9,103,38
India,Bihar,Gaya,"SFTI Kusdihra, Gaya - BSPCB",23-03-2024 01:00:00,24.762518,84.982348,PM10,50,82,62
India,Bihar,Gaya,"SFTI Kusdihra, Gaya - BSPCB",23-03-2024 01:00:00,24.762518,84.982348,OZONE,1,98,22
India,Bihar,Katihar,"Mirchaibari, Katihar - BSPCB",23-03-2024 01:00:00,25.560083,87.553265,OZONE,10,18,11
India,Bihar,Manguraha,"Forest Rest House, Manguraha - BSPCB",23-03-2024 01:00:00,27.308328,84.531742,PM2.5,NA,NA,NA
India,Bihar,Manguraha,"Forest Rest House, Manguraha - BSPCB",23-03-2024 01:00:00,27.308328,84.531742,PM10,NA,NA,NA
India,Bihar,Motihari,"Gandak Colony, Motihari - BSPCB",23-03-2024 01:00:00,26.63086,84.90051,SO2,NA,NA,NA
India,Bihar,Munger,"Town Hall, Munger - BSPCB",23-03-2024 01:00:00,25.376776,86.471523,NO2,7,10,9
India,Bihar,Muzaffarpur,"Buddha Colony, Muzaffarpur - BSPCB",23-03-2024 01:00:00,26.11442,85.39813,PM10,70,185,126
India,Bihar,Muzaffarpur,"Buddha Colony, Muzaffarpur - BSPCB",23-03-2024 01:00:00,26.11442,85.39813,CO,19,76,55
India,Bihar,Muzaffarpur,"Buddha Colony, Muzaffarpur - BSPCB",23-03-2024 01:00:00,26.11442,85.39813,OZONE,35,97,46
India,Bihar,Muzaffarpur,"MIT-Daudpur Kothi, Muzaffarpur - BSPCB",23-03-2024 01:00:00,26.1403345,85.3650192,CO,29,128,91
India,Bihar,Muzaffarpur,"MIT-Daudpur Kothi, Muzaffarpur - BSPCB",23-03-2024 01:00:00,26.1403345,85.3650192,OZONE,4,37,13
India,Bihar,Muzaffarpur,"Muzaffarpur Collectorate, Muzaffarpur - BSPCB",23-03-2024 01:00:00,26.1209,85.3647,PM2.5,53,278,120
India,Bihar,Muzaffarpur,"Muzaffarpur Collectorate, Muzaffarpur - BSPCB",23-03-2024 01:00:00,26.1209,85.3647,SO2,5,8,7
India,Bihar,Patna,"DRM Office Danapur, Patna - BSPCB",23-03-2024 01:00:00,25.586562,85.043586,CO,18,116,75
India,Bihar,Patna,"DRM Office Danapur, Patna - BSPCB",23-03-2024 01:00:00,25.586562,85.043586,OZONE,1,44,11
India,Bihar,Patna,"Govt. High School Shikarpur, Patna - BSPCB",23-03-2024 01:00:00,25.592539,85.227158,NO2,19,27,22
India,Bihar,Patna,"Rajbansi Nagar, Patna - BSPCB",23-03-2024 01:00:00,25.599486,85.113666,PM10,81,189,142
India,Bihar,Patna,"Rajbansi Nagar, Patna - BSPCB",23-03-2024 01:00:00,25.599486,85.113666,SO2,5,14,9
India,Bihar,Patna,"Rajbansi Nagar, Patna - BSPCB",23-03-2024 01:00:00,25.599486,85.113666,OZONE,1,65,15
India,Bihar,Rajgir,"Dangi Tola, Rajgir - BSPCB",23-03-2024 01:00:00,25.03280,85.41948,NO2,1,1,1
India,Bihar,Rajgir,"Dangi Tola, Rajgir - BSPCB",23-03-2024 01:00:00,25.03280,85.41948,CO,10,11,10
India,Bihar,Saharsa,"Police Line, Saharsa - BSPCB",23-03-2024 01:00:00,25.892357,86.590325,CO,NA,NA,NA
India,Bihar,Samastipur,"DM Office_Kasipur, Samastipur - BSPCB",23-03-2024 01:00:00,25.859655,85.77944,PM2.5,NA,NA,NA
India,Bihar,Samastipur,"DM Office_Kasipur, Samastipur - BSPCB",23-03-2024 01:00:00,25.859655,85.77944,SO2,11,14,12
India,Bihar,Sasaram,"Dada Peer, Sasaram - BSPCB",23-03-2024 01:00:00,24.952822,84.002396,PM2.5,NA,NA,NA
India,Bihar,Sasaram,"Dada Peer, Sasaram - BSPCB",23-03-2024 01:00:00,24.952822,84.002396,NO2,11,28,19
India,Bihar,Sasaram,"Dada Peer, Sasaram - BSPCB",23-03-2024 01:00:00,24.952822,84.002396,SO2,20,23,22
India,Bihar,Sasaram,"Dada Peer, Sasaram - BSPCB",23-03-2024 01:00:00,24.952822,84.002396,CO,101,128,120
India,Bihar,Siwan,"Chitragupta Nagar, Siwan - BSPCB",23-03-2024 01:00:00,26.2271665,84.3570427,PM2.5,45,344,206
India,Chandigarh,Chandigarh,"Sector 22, Chandigarh - CPCC",23-03-2024 01:00:00,30.735567,76.775714,NO2,19,72,36
India,Chandigarh,Chandigarh,"Sector 22, Chandigarh - CPCC",23-03-2024 01:00:00,30.735567,76.775714,SO2,10,54,22
India,Chandigarh,Chandigarh,"Sector 22, Chandigarh - CPCC",23-03-2024 01:00:00,30.735567,76.775714,OZONE,44,162,96
India,Chandigarh,Chandigarh,"Sector-25, Chandigarh - CPCC",23-03-2024 01:00:00,30.751462,76.762879,PM10,124,149,138
India,Chandigarh,Chandigarh,"Sector-25, Chandigarh - CPCC",23-03-2024 01:00:00,30.751462,76.762879,NH3,15,25,20
India,Chandigarh,Chandigarh,"Sector-53, Chandigarh - CPCC",23-03-2024 01:00:00,30.719859,76.738637,CO,42,74,57
India,Chhattisgarh,Bhilai,"Civic Center, Bhilai - Bhilai Steel Plant",23-03-2024 01:00:00,21.185571,81.343175,SO2,7,16,11
India,Chhattisgarh,Bhilai,"Civic Center, Bhilai - Bhilai Steel Plant",23-03-2024 01:00:00,21.185571,81.343175,OZONE,16,74,31
India,Chhattisgarh,Bhilai,"Hathkhoj, Bhilai - CECB",23-03-2024 01:00:00,21.224231,81.408350,NH3,7,8,8
India,Chhattisgarh,Bhilai,"Hathkhoj, Bhilai - CECB",23-03-2024 01:00:00,21.224231,81.408350,CO,19,105,36
India,Chhattisgarh,Bhilai,"Hathkhoj, Bhilai - CECB",23-03-2024 01:00:00,21.224231,81.408350,OZONE,3,19,11
India,Chhattisgarh,Bilaspur,"Mangala, Bilaspur - NTPC",23-03-2024 01:00:00,22.08815,82.13737,SO2,4,17,12
India,Chhattisgarh,Chhal,"Nawapara SECL Colony, Chhal - CECB",23-03-2024 01:00:00,22.118125,83.140608,SO2,13,80,39
India,Chhattisgarh,Korba,"Rampur, Korba - CECB",23-03-2024 01:00:00,22.368195,82.746431,NO2,35,50,40
India,Chhattisgarh,Korba,"Rampur, Korba - CECB",23-03-2024 01:00:00,22.368195,82.746431,NH3,3,5,4
India,Chhattisgarh,Korba,"Urja Nagar, Korba - CECB",23-03-2024 01:00:00,22.348441,82.549611,PM2.5,4,12,8
India,Chhattisgarh,Milupara,"Govt. Higher Secondary School, Milupara - CECB",23-03-2024 01:00:00,22.1910172,83.5197009,NH3,NA,NA,NA
India,Chhattisgarh,Raipur,"Bhatagaon New ISBT, Raipur - CECB",23-03-2024 01:00:00,21.219665,81.630094,SO2,1,4,2
India,Chhattisgarh,Raipur,"Krishak Nagar, Raipur - CECB",23-03-2024 01:00:00,21.237755,81.705301,NH3,1,1,1
India,Chhattisgarh,Raipur,"Krishak Nagar, Raipur - CECB",23-03-2024 01:00:00,21.237755,81.705301,OZONE,3,12,5
India,Chhattisgarh,Raipur,"Siltara Phase-II, Raipur - CECB",23-03-2024 01:00:00,21.371751,81.664929,NO2,NA,NA,NA
India,Chhattisgarh,Raipur,"Siltara Phase-II, Raipur - CECB",23-03-2024 01:00:00,21.371751,81.664929,NH3,NA,NA,NA
India,Chhattisgarh,Raipur,"Siltara Phase-II, Raipur - CECB",23-03-2024 01:00:00,21.371751,81.664929,SO2,NA,NA,NA
India,Chhattisgarh,Raipur,"Siltara Phase-II, Raipur - CECB",23-03-2024 01:00:00,21.371751,81.664929,OZONE,3,56,6
India,Chhattisgarh,Tumidih,"OP Jindal Industrial Park, Tumidih - CECB",23-03-2024 01:00:00,22.06631475,83.33820077,PM2.5,30,313,61
India,Chhattisgarh,Tumidih,"OP Jindal Industrial Park, Tumidih - CECB",23-03-2024 01:00:00,22.06631475,83.33820077,CO,22,47,32
India,Delhi,Delhi,"Alipur, Delhi - DPCC",23-03-2024 01:00:00,28.815329,77.153010,CO,36,90,67
India,Delhi,Delhi,"Anand Vihar, Delhi - DPCC",23-03-2024 01:00:00,28.647622,77.3158090,PM2.5,21,500,231
India,Delhi,Delhi,"Ashok Vihar, Delhi - DPCC",23-03-2024 01:00:00,28.695381,77.181665,NO2,26,138,62
India,Delhi,Delhi,"Ashok Vihar, Delhi - DPCC",23-03-2024 01:00:00,28.695381,77.181665,SO2,21,31,25
India,Delhi,Delhi,"Aya Nagar, Delhi - IMD",23-03-2024 01:00:00,28.4706914,77.1099364,OZONE,2,75,13
India,Delhi,Delhi,"CRRI Mathura Road, Delhi - IMD",23-03-2024 01:00:00,28.5512005,77.2735737,NO2,4,20,10
India,Delhi,Delhi,"Chandni Chowk, Delhi - IITM",23-03-2024 01:00:00,28.656756,77.227234,SO2,12,69,37
India,Delhi,Delhi,"Dr. Karni Singh Shooting Range, Delhi - DPCC",23-03-2024 01:00:00,28.498571,77.264840,OZONE,1,217,69
India,Delhi,Delhi,"Dwarka-Sector 8, Delhi - DPCC ",23-03-2024 01:00:00,28.5710274,77.0719006,SO2,6,13,9
India,Delhi,Delhi,"Dwarka-Sector 8, Delhi - DPCC ",23-03-2024 01:00:00,28.5710274,77.0719006,CO,50,170,125
India,Delhi,Delhi,"IGI Airport (T3), Delhi - IMD",23-03-2024 01:00:00,28.5627763,77.1180053,NO2,16,77,40
India,Delhi,Delhi,"IGI Airport (T3), Delhi - IMD",23-03-2024 01:00:00,28.5627763,77.1180053,OZONE,1,56,14
India,Delhi,Delhi,"IHBAS, Dilshad Garden, Delhi - CPCB",23-03-2024 01:00:00,28.6811736,77.3025234,OZONE,22,54,41
India,Delhi,Delhi,"Jahangirpuri, Delhi - DPCC",23-03-2024 01:00:00,28.732820,77.170633,PM2.5,82,412,178
India,Delhi,Delhi,"Jahangirpuri, Delhi - DPCC",23-03-2024 01:00:00,28.732820,77.170633,NO2,36,163,74
India,Delhi,Delhi,"Jahangirpuri, Delhi - DPCC",23-03-2024 01:00:00,28.732820,77.170633,CO,50,144,102
India,Delhi,Delhi,"Jahangirpuri, Delhi - DPCC",23-03-2024 01:00:00,28.732820,77.170633,OZONE,2,89,34
India,Delhi,Delhi,"Lodhi Road, Delhi - IITM",23-03-2024 01:00:00,28.588333,77.221667,OZONE,15,19,17
India,Delhi,Delhi,"Lodhi Road, Delhi - IMD",23-03-2024 01:00:00,28.5918245,77.2273074,PM2.5,86,194,118
India,Delhi,Delhi,"Major Dhyan Chand National Stadium, Delhi - DPCC",23-03-2024 01:00:00,28.611281,77.237738,PM2.5,95,290,179
India,Delhi,Delhi,"Major Dhyan Chand National Stadium, Delhi - DPCC",23-03-2024 01:00:00,28.611281,77.237738,NH3,10,11,10
India,Delhi,Delhi,"Mandir Marg, Delhi - DPCC",23-03-2024 01:00:00,28.636429,77.201067,PM10,100,194,123
India,Delhi,Delhi,"Mundka, Delhi - DPCC",23-03-2024 01:00:00,28.684678,77.076574,PM10,127,500,228
India,Delhi,Delhi,"Mundka, Delhi - DPCC",23-03-2024 01:00:00,28.684678,77.076574,SO2,8,18,13
India,Delhi,Delhi,"NSIT Dwarka, Delhi - CPCB",23-03-2024 01:00:00,28.60909,77.0325413,NO2,21,49,27
India,Delhi,Delhi,"NSIT Dwarka, Delhi - CPCB",23-03-2024 01:00:00,28.60909,77.0325413,OZONE,2,51,21
India,Delhi,Delhi,"Najafgarh, Delhi - DPCC",23-03-2024 01:00:00,28.570173,76.933762,NO2,4,26,12
India,Delhi,Delhi,"Najafgarh, Delhi - DPCC",23-03-2024 01:00:00,28.570173,76.933762,CO,32,100,69
India,Delhi,Delhi,"Najafgarh, Delhi - DPCC",23-03-2024 01:00:00,28.570173,76.933762,OZONE,22,222,104
India,Delhi,Delhi,"Narela, Delhi - DPCC",23-03-2024 01:00:00,28.822836,77.101981,CO,49,106,87
India,Delhi,Delhi,"Narela, Delhi - DPCC",23-03-2024 01:00:00,28.822836,77.101981,OZONE,7,276,79
India,Delhi,Delhi,"New Moti Bagh, Delhi - MHUA",23-03-2024 01:00:00,28.57834,77.18400,PM2.5,88,328,168
India,Delhi,Delhi,"North Campus, DU, Delhi - IMD",23-03-2024 01:00:00,28.6573814,77.1585447,PM2.5,NA,NA,NA
India,Delhi,Delhi,"Okhla Phase-2, Delhi - DPCC",23-03-2024 01:00:00,28.530785,77.271255,PM10,124,473,203
India,Delhi,Delhi,"Okhla Phase-2, Delhi - DPCC",23-03-2024 01:00:00,28.530785,77.271255,SO2,4,19,8
India,Delhi,Delhi,"Okhla Phase-2, Delhi - DPCC",23-03-2024 01:00:00,28.530785,77.271255,CO,56,128,96
India,Delhi,Delhi,"Punjabi Bagh, Delhi - DPCC",23-03-2024 01:00:00,28.674045,77.131023,PM2.5,79,337,185
India,Delhi,Delhi,"Pusa, Delhi - IMD",23-03-2024 01:00:00,28.636110,77.173332,PM2.5,NA,NA,NA
India,Delhi,Delhi,"R K Puram, Delhi - DPCC",23-03-2024 01:00:00,28.563262,77.186937,PM2.5,81,402,189
India,Delhi,Delhi,"R K Puram, Delhi - DPCC",23-03-2024 01:00:00,28.563262,77.186937,NH3,2,6,2
India,Delhi,Delhi,"Rohini, Delhi - DPCC",23-03-2024 01:00:00,28.732528,77.119920,CO,30,154,95
India,Delhi,Delhi,"Sirifort, Delhi - CPCB",23-03-2024 01:00:00,28.5504249,77.2159377,PM10,105,367,142
India,Delhi,Delhi,"Sirifort, Delhi - CPCB",23-03-2024 01:00:00,28.5504249,77.2159377,NH3,1,8,4
India,Delhi,Delhi,"Sirifort, Delhi - CPCB",23-03-2024 01:00:00,28.5504249,77.2159377,SO2,39,42,40
India,Delhi,Delhi,"Sonia Vihar, Delhi - DPCC",23-03-2024 01:00:00,28.710508,77.249485,PM2.5,93,338,181
India,Delhi,Delhi,"Sonia Vihar, Delhi - DPCC",23-03-2024 01:00:00,28.710508,77.249485,PM10,126,411,191
India,Delhi,Delhi,"Sonia Vihar, Delhi - DPCC",23-03-2024 01:00:00,28.710508,77.249485,CO,48,123,93
India,Delhi,Delhi,"Sri Aurobindo Marg, Delhi - DPCC",23-03-2024 01:00:00,28.531346,77.190156,NH3,7,13,9
India,Delhi,Delhi,"Sri Aurobindo Marg, Delhi - DPCC",23-03-2024 01:00:00,28.531346,77.190156,SO2,8,22,15
India,Delhi,Delhi,"Sri Aurobindo Marg, Delhi - DPCC",23-03-2024 01:00:00,28.531346,77.190156,CO,27,111,65
India,Delhi,Delhi,"Sri Aurobindo Marg, Delhi - DPCC",23-03-2024 01:00:00,28.531346,77.190156,OZONE,1,37,12
India,Delhi,Delhi,"Vivek Vihar, Delhi - DPCC",23-03-2024 01:00:00,28.672342,77.315260,PM10,NA,NA,NA
India,Delhi,Delhi,"Vivek Vihar, Delhi - DPCC",23-03-2024 01:00:00,28.672342,77.315260,OZONE,5,69,69
India,Delhi,Delhi,"Wazirpur, Delhi - DPCC",23-03-2024 01:00:00,28.699793,77.165453,SO2,8,50,25
India,Delhi,Delhi,"Wazirpur, Delhi - DPCC",23-03-2024 01:00:00,28.699793,77.165453,OZONE,4,78,28
India,Gujarat,Ahmedabad,"Chandkheda, Ahmedabad - IITM",23-03-2024 01:00:00,23.107969,72.574648,PM2.5,64,230,133
India,Gujarat,Ahmedabad,"Chandkheda, Ahmedabad - IITM",23-03-2024 01:00:00,23.107969,72.574648,NO2,74,167,105
India,Gujarat,Ahmedabad,"Chandkheda, Ahmedabad - IITM",23-03-2024 01:00:00,23.107969,72.574648,OZONE,7,51,21
India,Gujarat,Ahmedabad,"Gyaspur, Ahmedabad - IITM",23-03-2024 01:00:00,22.977134,72.553024,PM2.5,53,356,156
India,Gujarat,Ahmedabad,"Gyaspur, Ahmedabad - IITM",23-03-2024 01:00:00,22.977134,72.553024,CO,18,76,41
India,Gujarat,Ahmedabad,"Maninagar, Ahmedabad - GPCB",23-03-2024 01:00:00,23.002657,72.591912,PM2.5,34,211,90
India,Gujarat,Ahmedabad,"Raikhad, Ahmedabad - IITM",23-03-2024 01:00:00,23.020509,72.579261,CO,26,132,79
India,Gujarat,Ahmedabad,"Rakhial, Ahmedabad - IITM",23-03-2024 01:00:00,23.016834,72.625775,OZONE,3,60,17
India,Gujarat,Ankleshwar,"GIDC, Ankleshwar - GPCB",23-03-2024 01:00:00,21.613267,73.010555,PM10,61,121,96
India,Gujarat,Ankleshwar,"GIDC, Ankleshwar - GPCB",23-03-2024 01:00:00,21.613267,73.010555,NH3,7,7,7
India,Gujarat,Gandhinagar,"GIFT City, Gandhinagar - IITM",23-03-2024 01:00:00,23.163798,72.677768,PM10,57,225,130
India,Gujarat,Gandhinagar,"IIPHG Lekawada, Gandhinagar - IITM",23-03-2024 01:00:00,23.243639,72.68994,OZONE,10,51,24
India,Gujarat,Gandhinagar,"Sector-10, Gandhinagar - GPCB",23-03-2024 01:00:00,23.221714,72.654328,PM2.5,26,82,51
India,Gujarat,Gandhinagar,"Sector-10, Gandhinagar - GPCB",23-03-2024 01:00:00,23.221714,72.654328,CO,34,107,66
India,Gujarat,Surat,"Science Center, Surat - SMC",23-03-2024 01:00:00,21.170046,72.795405,PM10,19,162,65
India,Gujarat,Vapi,"Phase-1 GIDC, Vapi - GPCB",23-03-2024 01:00:00,20.362421,72.918013,NH3,2,2,2
India,Haryana,Ambala,"Patti Mehar, Ambala - HSPCB",23-03-2024 01:00:00,30.379589,76.778328,NH3,NA,NA,NA
India,Haryana,Bahadurgarh,"Arya Nagar, Bahadurgarh - HSPCB",23-03-2024 01:00:00,28.6701,76.9254,PM2.5,42,253,94
India,Haryana,Bahadurgarh,"Arya Nagar, Bahadurgarh - HSPCB",23-03-2024 01:00:00,28.6701,76.9254,NO2,31,38,36
India,Haryana,Ballabgarh,"Nathu Colony, Ballabgarh - HSPCB",23-03-2024 01:00:00,28.3419248,77.319699,PM10,47,215,114
India,Haryana,Ballabgarh,"Nathu Colony, Ballabgarh - HSPCB",23-03-2024 01:00:00,28.3419248,77.319699,CO,66,119,101
India,Haryana,Charkhi Dadri,"Mini Secretariat, Charkhi Dadri - HSPCB",23-03-2024 01:00:00,28.593883,76.270653,PM2.5,95,310,162
India,Haryana,Charkhi Dadri,"Mini Secretariat, Charkhi Dadri - HSPCB",23-03-2024 01:00:00,28.593883,76.270653,SO2,13,66,32
India,Haryana,Charkhi Dadri,"Mini Secretariat, Charkhi Dadri - HSPCB",23-03-2024 01:00:00,28.593883,76.270653,CO,20,88,69
India,Haryana,Dharuhera,"Municipal Corporation Office, Dharuhera -  HSPCB",23-03-2024 01:00:00,28.206800,76.799700,NH3,9,26,19
India,Haryana,Faridabad,"New Industrial Town, Faridabad - HSPCB",23-03-2024 01:00:00,28.39072,77.30059,NH3,3,13,5
India,Haryana,Faridabad,"Sector 11, Faridabad - HSPCB",23-03-2024 01:00:00,28.376058,77.315741,NO2,30,33,31
India,Haryana,Faridabad,"Sector 11, Faridabad - HSPCB",23-03-2024 01:00:00,28.376058,77.315741,CO,41,73,61
India,Haryana,Faridabad,"Sector 30, Faridabad - HSPCB",23-03-2024 01:00:00,28.4417,77.3217,SO2,2,6,4
India,Haryana,Gurugram,"Sector-51, Gurugram - HSPCB",23-03-2024 01:00:00,28.4227,77.0667,PM2.5,138,348,196
India,Haryana,Gurugram,"Teri Gram, Gurugram - HSPCB",23-03-2024 01:00:00,28.4275,77.1465,NO2,34,50,42
India,Haryana,Gurugram,"Teri Gram, Gurugram - HSPCB",23-03-2024 01:00:00,28.4275,77.1465,OZONE,13,18,15
India,Haryana,Gurugram,"Vikas Sadan, Gurugram - HSPCB",23-03-2024 01:00:00,28.4501238,77.0263051,NO2,5,25,14
India,Haryana,Gurugram,"Vikas Sadan, Gurugram - HSPCB",23-03-2024 01:00:00,28.4501238,77.0263051,CO,55,150,110
India,Haryana,Gurugram,"Vikas Sadan, Gurugram - HSPCB",23-03-2024 01:00:00,28.4501238,77.0263051,OZONE,8,68,22
India,Haryana,Hisar,"Urban Estate-II, Hisar - HSPCB",23-03-2024 01:00:00,29.140560,75.744941,CO,40,66,56
India,Haryana,Jind,"Police Lines, Jind - HSPCB",23-03-2024 01:00:00,29.307814,76.337619,NO2,7,16,11
India,Haryana,Jind,"Police Lines, Jind - HSPCB",23-03-2024 01:00:00,29.307814,76.337619,CO,2,97,31
India,Haryana,Kaithal,"Rishi Nagar, Kaithal - HSPCB",23-03-2024 01:00:00,29.8006,76.4155,OZONE,20,34,26
India,Haryana,Karnal,"Sector-12, Karnal - HSPCB",23-03-2024 01:00:00,29.695300,77.002700,PM2.5,81,127,98
India,Haryana,Karnal,"Sector-12, Karnal - HSPCB",23-03-2024 01:00:00,29.695300,77.002700,PM10,64,105,84
India,Haryana,Manesar,"Sector-2 IMT, Manesar - HSPCB",23-03-2024 01:00:00,28.360699,76.936090,NO2,15,23,19
India,Haryana,Narnaul,"Shastri Nagar, Narnaul - HSPCB",23-03-2024 01:00:00,28.060249,76.113115,PM2.5,39,132,77
India,Haryana,Narnaul,"Shastri Nagar, Narnaul - HSPCB",23-03-2024 01:00:00,28.060249,76.113115,PM10,39,111,75
India,Haryana,Narnaul,"Shastri Nagar, Narnaul - HSPCB",23-03-2024 01:00:00,28.060249,76.113115,NO2,12,75,35
India,Haryana,Narnaul,"Shastri Nagar, Narnaul - HSPCB",23-03-2024 01:00:00,28.060249,76.113115,NH3,4,24,11
India,Haryana,Narnaul,"Shastri Nagar, Narnaul - HSPCB",23-03-2024 01:00:00,28.060249,76.113115,CO,8,40,12
India,Haryana,Palwal,"Shyam Nagar, Palwal - HSPCB",23-03-2024 01:00:00,28.1485564,77.3320667,PM10,60,123,91
India,Haryana,Palwal,"Shyam Nagar, Palwal - HSPCB",23-03-2024 01:00:00,28.1485564,77.3320667,SO2,5,125,20
India,Haryana,Panipat,"Sector-18, Panipat - HSPCB",23-03-2024 01:00:00,29.497973,76.993331,NO2,31,32,31
India,Haryana,Sonipat,"Murthal, Sonipat - HSPCB",23-03-2024 01:00:00,29.027200,77.062100,CO,16,37,29
India,Haryana,Yamuna Nagar,"Gobind Pura, Yamuna Nagar - HSPCB",23-03-2024 01:00:00,30.1480566,77.2893471,NH3,NA,NA,NA
India,Jharkhand,Dhanbad,"Sardar Patel Nagar, Dhanbad - JSPCB",23-03-2024 01:00:00,23.80569,86.44268,PM2.5,10,300,86
India,Jharkhand,Pathardih,"Mohalbani Ghat, Pathardih - DMC",23-03-2024 01:00:00,23.669880,86.411725,SO2,NA,NA,NA
India,Jharkhand,Pathardih,"Mohalbani Ghat, Pathardih - DMC",23-03-2024 01:00:00,23.669880,86.411725,CO,NA,NA,NA
India,Karnataka,Bagalkot,"Vidayagiri, Bagalkot - KSPCB",23-03-2024 01:00:00,16.172806,75.659694,CO,22,53,36
India,Karnataka,Bengaluru,"BTM Layout, Bengaluru - CPCB",23-03-2024 01:00:00,12.9135218,77.5950804,NO2,NA,NA,NA
India,Karnataka,Bengaluru,"BTM Layout, Bengaluru - CPCB",23-03-2024 01:00:00,12.9135218,77.5950804,OZONE,14,124,86
India,Karnataka,Bengaluru,"Hebbal, Bengaluru - KSPCB",23-03-2024 01:00:00,13.029152,77.585901,SO2,NA,NA,NA
India,Karnataka,Bengaluru,"Hebbal, Bengaluru - KSPCB",23-03-2024 01:00:00,13.029152,77.585901,CO,12,28,23
India,Karnataka,Bengaluru,"Hombegowda Nagar, Bengaluru - KSPCB",23-03-2024 01:00:00,12.938539,77.590100,NO2,9,31,15
India,Karnataka,Bengaluru,"Jigani, Bengaluru - KSPCB",23-03-2024 01:00:00,12.7816279,77.6299145,PM2.5,14,163,70
India,Karnataka,Bengaluru,"Jigani, Bengaluru - KSPCB",23-03-2024 01:00:00,12.7816279,77.6299145,NH3,4,4,4
India,Karnataka,Bengaluru,"Kasturi Nagar, Bengaluru - KSPCB",23-03-2024 01:00:00,13.003872,77.664217,PM2.5,62,111,86
India,Karnataka,Bengaluru,"Kasturi Nagar, Bengaluru - KSPCB",23-03-2024 01:00:00,13.003872,77.664217,CO,23,26,25
India,Karnataka,Bengaluru,"Peenya, Bengaluru - CPCB",23-03-2024 01:00:00,13.0270199,77.494094,NO2,NA,NA,NA
India,Karnataka,Bengaluru,"Peenya, Bengaluru - CPCB",23-03-2024 01:00:00,13.0270199,77.494094,SO2,NA,NA,NA
India,Karnataka,Bengaluru,"Silk Board, Bengaluru - KSPCB",23-03-2024 01:00:00,12.917348,77.622813,CO,12,40,25
India,Karnataka,Bidar,"Naubad, Bidar - KSPCB",23-03-2024 01:00:00,17.930306,77.482194,PM2.5,25,76,55
India,Karnataka,Bidar,"Naubad, Bidar - KSPCB",23-03-2024 01:00:00,17.930306,77.482194,PM10,80,104,88
India,Karnataka,Bidar,"Naubad, Bidar - KSPCB",23-03-2024 01:00:00,17.930306,77.482194,SO2,15,19,17
India,Karnataka,Bidar,"Naubad, Bidar - KSPCB",23-03-2024 01:00:00,17.930306,77.482194,CO,51,78,66
India,Karnataka,Chamarajanagar,"Urban, Chamarajanagar - KSPCB",23-03-2024 01:00:00,11.55358,76.55521,NO2,23,29,29
India,Karnataka,Davanagere,"Devaraj Urs Badavane, Davanagere - KSPCB",23-03-2024 01:00:00,14.475800,75.905200,PM2.5,50,116,75
India,Karnataka,Davanagere,"Devaraj Urs Badavane, Davanagere - KSPCB",23-03-2024 01:00:00,14.475800,75.905200,NO2,12,17,14
India,Karnataka,Davanagere,"Devaraj Urs Badavane, Davanagere - KSPCB",23-03-2024 01:00:00,14.475800,75.905200,OZONE,22,26,24
India,Karnataka,Dharwad,"Kalabhavan, Dharwad - KSPCB",23-03-2024 01:00:00,15.459706,75.008381,NH3,3,3,3
India,Karnataka,Gadag,"Panchal Nagar, Gadag - KSPCB",23-03-2024 01:00:00,15.411456,75.638133,SO2,12,20,16
India,Karnataka,Hassan,"B.Katihalli, Hassan - KSPCB",23-03-2024 01:00:00,13.008556,76.125258,PM10,61,103,80
India,Karnataka,Hassan,"B.Katihalli, Hassan - KSPCB",23-03-2024 01:00:00,13.008556,76.125258,NH3,3,6,5
India,Karnataka,Haveri,"Ashwini Nagar, Haveri - KSPCB",23-03-2024 01:00:00,14.791800,75.389600,SO2,14,14,14
India,Karnataka,Hubballi,"Deshpande Nagar, Hubballi - KSPCB",23-03-2024 01:00:00,15.351773,75.140726,SO2,NA,NA,NA
India,Karnataka,Hubballi,"Lingaraj Nagar, Hubballi - KSPCB",23-03-2024 01:00:00,15.3714823,75.1160168,OZONE,18,39,29
India,Karnataka,Kalaburagi,"Lal Bahadur Shastri Nagar, Kalaburagi - KSPCB",23-03-2024 01:00:00,17.321993,76.822628,PM10,39,154,73
India,Karnataka,Kalaburagi,"Lal Bahadur Shastri Nagar, Kalaburagi - KSPCB",23-03-2024 01:00:00,17.321993,76.822628,SO2,12,105,18
India,Karnataka,Karwar,"KHB Colony, Karwar - KSPCB",23-03-2024 01:00:00,14.816666,74.141003,OZONE,21,22,21
India,Karnataka,Kolar,"Tamaka Ind. Area, Kolar - KSPCB",23-03-2024 01:00:00,13.1276288,78.1570122,SO2,10,15,13
India,Karnataka,Madikeri,"Stuart Hill, Madikeri - KSPCB",23-03-2024 01:00:00,12.415911,75.735050,PM2.5,41,90,55
India,Karnataka,Madikeri,"Stuart Hill, Madikeri - KSPCB",23-03-2024 01:00:00,12.415911,75.735050,PM10,39,67,48
India,Karnataka,Madikeri,"Stuart Hill, Madikeri - KSPCB",23-03-2024 01:00:00,12.415911,75.735050,NH3,1,1,1
India,Karnataka,Madikeri,"Stuart Hill, Madikeri - KSPCB",23-03-2024 01:00:00,12.415911,75.735050,CO,10,62,36
India,Karnataka,Mangalore,"Kadri, Mangalore - KSPCB",23-03-2024 01:00:00,12.889250,74.853000,NH3,2,2,2
India,Karnataka,Ramanagara,"Vijay Nagar, Ramanagara - KSPCB",23-03-2024 01:00:00,12.733409,77.298051,NO2,2,11,4
India,Karnataka,Ramanagara,"Vijay Nagar, Ramanagara - KSPCB",23-03-2024 01:00:00,12.733409,77.298051,CO,2,30,13
India,Karnataka,Shivamogga,"Vinoba Nagara, Shivamogga - KSPCB",23-03-2024 01:00:00,13.940000,75.555917,NH3,2,4,3
India,Karnataka,Tumakuru,"Thimmalapura, Tumakuru - KSPCB",23-03-2024 01:00:00,13.377516,77.099072,PM10,11,45,23
India,Karnataka,Tumakuru,"Thimmalapura, Tumakuru - KSPCB",23-03-2024 01:00:00,13.377516,77.099072,NO2,21,56,34
India,Karnataka,Udupi,"Brahmagiri, Udupi - KSPCB",23-03-2024 01:00:00,13.34194444,74.74694444,OZONE,23,24,23
India,Karnataka,Vijayapura,"Ibrahimpur, Vijayapura - KSPCB",23-03-2024 01:00:00,16.802639,75.722694,PM2.5,25,31,30
India,Karnataka,Vijayapura,"Ibrahimpur, Vijayapura - KSPCB",23-03-2024 01:00:00,16.802639,75.722694,NO2,17,19,19
India,Karnataka,Yadgir,"Collector Office, Yadgir - KSPCB",23-03-2024 01:00:00,16.7602,77.1428,SO2,6,34,19
India,Kerala,Kannur,"Thavakkara, Kannur - Kerala PCB",23-03-2024 01:00:00,11.875000,75.373200,NO2,6,7,6
India,Kerala,Kollam,"Polayathode, Kollam - Kerala PCB",23-03-2024 01:00:00,8.8787,76.6073,PM10,10,100,41
India,Kerala,Thiruvananthapuram,"Plammoodu, Thiruvananthapuram - Kerala PCB",23-03-2024 01:00:00,8.5149093,76.9435879,PM10,22,76,45
India,Kerala,Thiruvananthapuram,"Plammoodu, Thiruvananthapuram - Kerala PCB",23-03-2024 01:00:00,8.5149093,76.9435879,CO,9,28,14
India,Madhya Pradesh,Bhopal,"Paryavaran Parisar, Bhopal - MPPCB",23-03-2024 01:00:00,23.210494,77.425409,PM2.5,28,233,89
India,Madhya Pradesh,Bhopal,"Paryavaran Parisar, Bhopal - MPPCB",23-03-2024 01:00:00,23.210494,77.425409,PM10,68,234,122
India,Madhya Pradesh,Gwalior,"City Center, Gwalior - MPPCB",23-03-2024 01:00:00,26.203442,78.193251,PM2.5,7,98,56
India,Madhya Pradesh,Gwalior,"City Center, Gwalior - MPPCB",23-03-2024 01:00:00,26.203442,78.193251,CO,49,104,68
India,Madhya Pradesh,Gwalior,"Deen Dayal Nagar, Gwalior - MPPCB",23-03-2024 01:00:00,26.259242,78.216432,NO2,21,107,47
India,Madhya Pradesh,Gwalior,"Deen Dayal Nagar, Gwalior - MPPCB",23-03-2024 01:00:00,26.259242,78.216432,SO2,14,18,16
India,Madhya Pradesh,Indore,"Chhoti Gwaltoli, Indore - MPPCB",23-03-2024 01:00:00,22.4310,75.5213,NH3,1,11,6
India,Madhya Pradesh,Indore,"Maguda Nagar, Indore - IMC",23-03-2024 01:00:00,22.7524,75.8872,NH3,1,1,1
India,Madhya Pradesh,Indore,"Regional Park, Indore - IMC",23-03-2024 01:00:00,22.6780,75.8559,PM2.5,39,262,95
India,Madhya Pradesh,Indore,"Regional Park, Indore - IMC",23-03-2024 01:00:00,22.6780,75.8559,NH3,NA,NA,NA
India,Madhya Pradesh,Indore,"Residency Area, Indore - IMC",23-03-2024 01:00:00,22.7084,75.8815,PM2.5,52,264,94
India,Madhya Pradesh,Indore,"Residency Area, Indore - IMC",23-03-2024 01:00:00,22.7084,75.8815,SO2,27,31,29
India,Madhya Pradesh,Jabalpur,"Govindh Bhavan Colony, Jabalpur - JMC",23-03-2024 01:00:00,23.163174,79.973061,PM10,43,92,65
India,Madhya Pradesh,Jabalpur,"Govindh Bhavan Colony, Jabalpur - JMC",23-03-2024 01:00:00,23.163174,79.973061,CO,9,28,17
India,Madhya Pradesh,Jabalpur,"Gupteshwar, Jabalpur - JMC",23-03-2024 01:00:00,23.142888,79.916147,OZONE,16,95,40
India,Madhya Pradesh,Jabalpur,"Marhatal, Jabalpur - MPPCB",23-03-2024 01:00:00,23.168606,79.932247,NO2,13,143,47
India,Madhya Pradesh,Jabalpur,"Suhagi, Jabalpur - JMC",23-03-2024 01:00:00,23.218135,79.957770,PM2.5,45,293,120
India,Madhya Pradesh,Jabalpur,"Suhagi, Jabalpur - JMC",23-03-2024 01:00:00,23.218135,79.957770,CO,42,128,100
India,Madhya Pradesh,Maihar,"Sahilara, Maihar - KJS Cements",23-03-2024 01:00:00,24.2613009,80.7231783,SO2,17,25,19
India,Madhya Pradesh,Mandideep,"Sector-D Industrial Area, Mandideep - MPPCB",23-03-2024 01:00:00,23.108440,77.511428,NH3,3,4,4
India,Madhya Pradesh,Ratlam,"Shasthri Nagar, Ratlam - IPCA Lab",23-03-2024 01:00:00,23.331731,75.045981,PM2.5,5,200,63
India,Madhya Pradesh,Ratlam,"Shasthri Nagar, Ratlam - IPCA Lab",23-03-2024 01:00:00,23.331731,75.045981,NO2,18,98,42
India,Madhya Pradesh,Sagar,"Civil Lines, Sagar - MPPCB",23-03-2024 01:00:00,23.838586,78.759431,PM10,60,153,76
India,Madhya Pradesh,Sagar,"Civil Lines, Sagar - MPPCB",23-03-2024 01:00:00,23.838586,78.759431,SO2,7,13,9
India,Madhya Pradesh,Sagar,"Civil Lines, Sagar - MPPCB",23-03-2024 01:00:00,23.838586,78.759431,OZONE,21,132,72
India,Madhya Pradesh,Sagar,"Deen Dayal Nagar, Sagar - MPPCB",23-03-2024 01:00:00,23.8640158,78.80289321,PM10,30,77,41
India,Madhya Pradesh,Satna,"Bandhavgar Colony, Satna - Birla Cement",23-03-2024 01:00:00,24.58434363,80.8549414,CO,29,90,55
India,Madhya Pradesh,Singrauli,"Suryakiran Bhawan NCL, Singrauli - MPPCB",23-03-2024 01:00:00,24.108970,82.645580,PM2.5,54,192,102
India,Madhya Pradesh,Singrauli,"Suryakiran Bhawan NCL, Singrauli - MPPCB",23-03-2024 01:00:00,24.108970,82.645580,NH3,3,4,4
India,Madhya Pradesh,Singrauli,"Suryakiran Bhawan NCL, Singrauli - MPPCB",23-03-2024 01:00:00,24.108970,82.645580,OZONE,11,79,76
India,Madhya Pradesh,Ujjain,"Mahakaleshwar Temple, Ujjain - MPPCB",23-03-2024 01:00:00,23.182719 ,75.768218 ,NO2,12,52,32
India,Madhya Pradesh,Ujjain,"Mahakaleshwar Temple, Ujjain - MPPCB",23-03-2024 01:00:00,23.182719 ,75.768218 ,OZONE,128,167,157
India,Maharashtra,Ahmednagar,"Tarakpur, Ahmednagar - MPCB",23-03-2024 01:00:00,19.10122,74.73339,PM2.5,48,192,108
India,Maharashtra,Ahmednagar,"Tarakpur, Ahmednagar - MPCB",23-03-2024 01:00:00,19.10122,74.73339,PM10,51,263,136
India,Maharashtra,Ahmednagar,"Tarakpur, Ahmednagar - MPCB",23-03-2024 01:00:00,19.10122,74.73339,OZONE,10,247,73
India,Maharashtra,Akola,"Ramdaspeth, Akola - MPCB",23-03-2024 01:00:00,20.719516,77.000253,OZONE,2,117,18
India,Maharashtra,Amravati,"Shivneri Colony, Amravati - MPCB",23-03-2024 01:00:00,20.9402359,77.7895248,PM2.5,58,162,84
India,Maharashtra,Amravati,"Shivneri Colony, Amravati - MPCB",23-03-2024 01:00:00,20.9402359,77.7895248,SO2,22,23,22
India,Maharashtra,Amravati,"Shivneri Colony, Amravati - MPCB",23-03-2024 01:00:00,20.9402359,77.7895248,CO,16,63,37
India,Maharashtra,Amravati,"Shri Shivaji Science College, Amaravati - MPCB",23-03-2024 01:00:00,20.939198,77.765701,OZONE,1,163,44
India,Maharashtra,Aurangabad,"MIDC Chilkalthana, Aurangabad - MPCB",23-03-2024 01:00:00,19.875620,75.387310,PM2.5,72,226,128
India,Maharashtra,Aurangabad,"MIDC Chilkalthana, Aurangabad - MPCB",23-03-2024 01:00:00,19.875620,75.387310,NO2,6,97,31
India,Maharashtra,Aurangabad,"Rachnakar Colony, Aurangabad - MPCB",23-03-2024 01:00:00,19.863756,75.321188,CO,4,101,55
India,Maharashtra,Aurangabad,"Rachnakar Colony, Aurangabad - MPCB",23-03-2024 01:00:00,19.863756,75.321188,OZONE,19,121,56
India,Maharashtra,Badlapur,"Katrap, Badlapur - MPCB",23-03-2024 01:00:00,19.16485,73.23409,PM10,75,267,136
India,Maharashtra,Badlapur,"Katrap, Badlapur - MPCB",23-03-2024 01:00:00,19.16485,73.23409,SO2,3,33,13
India,Maharashtra,Belapur,"CBD Belapur, Belapur - MPCB",23-03-2024 01:00:00,19.0243902,73.0406721,NH3,11,36,20
India,Maharashtra,Belapur,"CBD Belapur, Belapur - MPCB",23-03-2024 01:00:00,19.0243902,73.0406721,CO,22,86,31
India,Maharashtra,Belapur,"CBD Belapur, Belapur - MPCB",23-03-2024 01:00:00,19.0243902,73.0406721,OZONE,8,91,41
India,Maharashtra,Bhiwandi,"Gokul Nagar, Bhiwandi - MPCB",23-03-2024 01:00:00,19.309073,73.057223,PM10,NA,NA,NA
India,Maharashtra,Bhiwandi,"Gokul Nagar, Bhiwandi - MPCB",23-03-2024 01:00:00,19.309073,73.057223,SO2,NA,NA,NA
India,Maharashtra,Boisar,"Khaira, Boisar - MPCB",23-03-2024 01:00:00,19.786089,72.757971,CO,18,101,28
India,Maharashtra,Boisar,"Khaira, Boisar - MPCB",23-03-2024 01:00:00,19.786089,72.757971,OZONE,13,13,13
India,Maharashtra,Chandrapur,"Chauhan Colony, Chandrapur - MPCB",23-03-2024 01:00:00,19.962900,79.298714,PM2.5,63,228,106
India,Maharashtra,Chandrapur,"Chauhan Colony, Chandrapur - MPCB",23-03-2024 01:00:00,19.962900,79.298714,NO2,14,57,26
India,Maharashtra,Chandrapur,"Chauhan Colony, Chandrapur - MPCB",23-03-2024 01:00:00,19.962900,79.298714,SO2,4,58,13
India,Maharashtra,Chandrapur,"MIDC Khutala, Chandrapur - MPCB",23-03-2024 01:00:00,19.9775302,79.2337086,SO2,20,24,21
India,Maharashtra,Dhule,"Deopur, Dhule - MPCB",23-03-2024 01:00:00,20.918946,74.776388,OZONE,14,83,51
India,Maharashtra,Jalna,"Old MIDC, Jalna - MPCB",23-03-2024 01:00:00,19.854616,75.905894,PM2.5,235,352,304
India,Maharashtra,Kalyan,"Khadakpada, Kalyan - MPCB",23-03-2024 01:00:00,19.25292,73.142019,PM2.5,51,250,106
India,Maharashtra,Kalyan,"Khadakpada, Kalyan - MPCB",23-03-2024 01:00:00,19.25292,73.142019,OZONE,7,45,14
India,Maharashtra,Kolhapur,"Shivaji University, Kolhapur - MPCB",23-03-2024 01:00:00,16.6870449,74.2505872,NH3,2,4,3
India,Maharashtra,Kolhapur,"Sinchan Bhavan, Kolhapur - MPCB",23-03-2024 01:00:00,16.7143745,74.2426398,PM10,70,131,91
India,Maharashtra,Kolhapur,"Sinchan Bhavan, Kolhapur - MPCB",23-03-2024 01:00:00,16.7143745,74.2426398,OZONE,2,39,6
India,Maharashtra,Latur,"Sawe Wadi, Latur - MPCB",23-03-2024 01:00:00,18.39963,76.57452,PM10,60,202,103
India,Maharashtra,Mahad,"Kamble Tarf Birwadi, Mahad - MPCB",23-03-2024 01:00:00,18.1023399,73.4783687,OZONE,5,98,36
India,Maharashtra,Mira-Bhayandar,"Bhayandar West, Mira-Bhayandar - MPCB",23-03-2024 01:00:00,19.296481,72.840923,PM2.5,10,323,215
India,Maharashtra,Mira-Bhayandar,"Bhayandar West, Mira-Bhayandar - MPCB",23-03-2024 01:00:00,19.296481,72.840923,NH3,5,8,6
India,Maharashtra,Mumbai,"Bandra Kurla Complex, Mumbai - MPCB",23-03-2024 01:00:00,19.065931,72.862131,PM10,97,393,164
India,Maharashtra,Mumbai,"Borivali East, Mumbai - IITM",23-03-2024 01:00:00,19.23241,72.86895,PM2.5,76,337,165
India,Maharashtra,Mumbai,"Borivali East, Mumbai - MPCB",23-03-2024 01:00:00,19.2243333,72.8658113,PM10,53,134,94
India,Maharashtra,Mumbai,"Borivali East, Mumbai - MPCB",23-03-2024 01:00:00,19.2243333,72.8658113,SO2,5,10,8
India,Maharashtra,Mumbai,"Byculla, Mumbai - BMC",23-03-2024 01:00:00,18.9767,72.8380,PM2.5,32,77,53
India,Maharashtra,Mumbai,"Byculla, Mumbai - BMC",23-03-2024 01:00:00,18.9767,72.8380,PM10,56,116,84
India,Maharashtra,Mumbai,"Byculla, Mumbai - BMC",23-03-2024 01:00:00,18.9767,72.8380,NH3,5,6,6
India,Maharashtra,Mumbai,"Byculla, Mumbai - BMC",23-03-2024 01:00:00,18.9767,72.8380,OZONE,1,94,62
India,Maharashtra,Mumbai,"Chakala-Andheri East, Mumbai - IITM",23-03-2024 01:00:00,19.11074,72.86084,PM2.5,65,242,130
India,Maharashtra,Mumbai,"Chakala-Andheri East, Mumbai - IITM",23-03-2024 01:00:00,19.11074,72.86084,NO2,74,209,134
India,Maharashtra,Mumbai,"Chakala-Andheri East, Mumbai - IITM",23-03-2024 01:00:00,19.11074,72.86084,SO2,15,90,44
India,Maharashtra,Mumbai,"Chakala-Andheri East, Mumbai - IITM",23-03-2024 01:00:00,19.11074,72.86084,OZONE,9,99,50
India,Maharashtra,Mumbai,"Chhatrapati Shivaji Intl. Airport (T2), Mumbai - MPCB",23-03-2024 01:00:00,19.10078,72.87462,PM2.5,26,80,41
India,Maharashtra,Mumbai,"Chhatrapati Shivaji Intl. Airport (T2), Mumbai - MPCB",23-03-2024 01:00:00,19.10078,72.87462,CO,50,112,58
India,Maharashtra,Mumbai,"Kandivali East, Mumbai - MPCB",23-03-2024 01:00:00,19.205800,72.868200,OZONE,30,31,30
India,Maharashtra,Mumbai,"Khindipada-Bhandup West, Mumbai - IITM",23-03-2024 01:00:00,19.1653323,72.922099,NO2,NA,NA,NA
India,Maharashtra,Mumbai,"Khindipada-Bhandup West, Mumbai - IITM",23-03-2024 01:00:00,19.1653323,72.922099,SO2,NA,NA,NA
India,Maharashtra,Mumbai,"Kurla, Mumbai - MPCB",23-03-2024 01:00:00,19.0863,72.8888,PM2.5,52,171,97
India,Maharashtra,Mumbai,"Kurla, Mumbai - MPCB",23-03-2024 01:00:00,19.0863,72.8888,SO2,32,32,32
India,Maharashtra,Mumbai,"Mazgaon, Mumbai - IITM",23-03-2024 01:00:00,18.96702,72.84214,PM2.5,76,211,120
India,Maharashtra,Mumbai,"Mazgaon, Mumbai - IITM",23-03-2024 01:00:00,18.96702,72.84214,NH3,22,103,39
India,Maharashtra,Mumbai,"Mindspace-Malad West, Mumbai - MPCB",23-03-2024 01:00:00,19.1878657,72.8304069,PM10,63,142,99
India,Maharashtra,Mumbai,"Mindspace-Malad West, Mumbai - MPCB",23-03-2024 01:00:00,19.1878657,72.8304069,OZONE,3,53,31
India,Maharashtra,Mumbai,"Navy Nagar-Colaba, Mumbai - IITM",23-03-2024 01:00:00,18.897756,72.813320,OZONE,40,135,99
India,Maharashtra,Mumbai,"Powai, Mumbai - MPCB",23-03-2024 01:00:00,19.137500,72.915056,NO2,21,57,36
India,Maharashtra,Mumbai,"Powai, Mumbai - MPCB",23-03-2024 01:00:00,19.137500,72.915056,SO2,34,46,39
India,Maharashtra,Mumbai,"Sewri, Mumbai - BMC",23-03-2024 01:00:00,19.000084,72.856730,PM10,65,128,95
India,Maharashtra,Mumbai,"Shivaji Nagar, Mumbai - BMC",23-03-2024 01:00:00,19.060498,72.923356,NO2,67,139,101
India,Maharashtra,Mumbai,"Shivaji Nagar, Mumbai - BMC",23-03-2024 01:00:00,19.060498,72.923356,OZONE,1,61,22
India,Maharashtra,Mumbai,"Siddharth Nagar-Worli, Mumbai - IITM",23-03-2024 01:00:00,19.000083,72.813993,PM2.5,123,351,249
India,Maharashtra,Mumbai,"Siddharth Nagar-Worli, Mumbai - IITM",23-03-2024 01:00:00,19.000083,72.813993,NH3,2,6,4
India,Maharashtra,Mumbai,"Sion, Mumbai - MPCB",23-03-2024 01:00:00,19.047000,72.874600,PM2.5,44,141,80
India,Maharashtra,Mumbai,"Sion, Mumbai - MPCB",23-03-2024 01:00:00,19.047000,72.874600,PM10,77,360,144
India,Maharashtra,Mumbai,"Sion, Mumbai - MPCB",23-03-2024 01:00:00,19.047000,72.874600,NH3,1,2,1
India,Maharashtra,Mumbai,"Sion, Mumbai - MPCB",23-03-2024 01:00:00,19.047000,72.874600,SO2,34,40,37
India,Maharashtra,Mumbai,"Sion, Mumbai - MPCB",23-03-2024 01:00:00,19.047000,72.874600,CO,15,64,22
India,Maharashtra,Mumbai,"Vile Parle West, Mumbai - MPCB",23-03-2024 01:00:00,19.10861,72.83622,PM2.5,NA,NA,NA
India,Maharashtra,Nagpur,"Ambazari, Nagpur - MPCB",23-03-2024 01:00:00,21.121801,79.04952,PM2.5,71,203,123
India,Maharashtra,Nagpur,"Ambazari, Nagpur - MPCB",23-03-2024 01:00:00,21.121801,79.04952,SO2,8,87,29
India,Maharashtra,Nagpur,"Mahal, Nagpur - MPCB",23-03-2024 01:00:00,21.14472,79.107595,NH3,1,21,9
India,Maharashtra,Nagpur,"Mahal, Nagpur - MPCB",23-03-2024 01:00:00,21.14472,79.107595,CO,36,150,108
India,Maharashtra,Nagpur,"Ram Nagar, Nagpur - MPCB",23-03-2024 01:00:00,21.143383,79.048912,PM2.5,64,164,92
India,Maharashtra,Nanded,"Sneh Nagar, Nanded - MPCB",23-03-2024 01:00:00,19.173852,77.296291,PM2.5,70,293,177
India,Maharashtra,Nanded,"Sneh Nagar, Nanded - MPCB",23-03-2024 01:00:00,19.173852,77.296291,NH3,1,2,1
India,Maharashtra,Nanded,"Sneh Nagar, Nanded - MPCB",23-03-2024 01:00:00,19.173852,77.296291,CO,30,42,37
India,Maharashtra,Nashik,"Gangapur Road, Nashik - MPCB",23-03-2024 01:00:00,20.0073285,73.7762427,PM2.5,62,96,80
India,Maharashtra,Nashik,"Gangapur Road, Nashik - MPCB",23-03-2024 01:00:00,20.0073285,73.7762427,PM10,61,500,113
India,Maharashtra,Nashik,"Gangapur Road, Nashik - MPCB",23-03-2024 01:00:00,20.0073285,73.7762427,NO2,11,20,16
India,Maharashtra,Nashik,"Gangapur Road, Nashik - MPCB",23-03-2024 01:00:00,20.0073285,73.7762427,NH3,1,2,1
India,Maharashtra,Nashik,"Hirawadi, Nashik - MPCB",23-03-2024 01:00:00,20.021503,73.813844,NO2,18,114,52
India,Maharashtra,Nashik,"Hirawadi, Nashik - MPCB",23-03-2024 01:00:00,20.021503,73.813844,NH3,NA,NA,NA
India,Maharashtra,Nashik,"Hirawadi, Nashik - MPCB",23-03-2024 01:00:00,20.021503,73.813844,SO2,4,27,10
India,Maharashtra,Nashik,"MIDC Ambad, Nashik - MPCB",23-03-2024 01:00:00,19.950220,73.731480,PM10,53,194,95
India,Maharashtra,Nashik,"Pandav Nagari, Nashik - MPCB",23-03-2024 01:00:00,19.9591346,73.7788008,NH3,4,5,5
India,Maharashtra,Navi Mumbai,"Kopripada-Vashi, Navi Mumbai - MPCB",23-03-2024 01:00:00,19.090337,73.014232,SO2,4,26,12
India,Maharashtra,Navi Mumbai,"Kopripada-Vashi, Navi Mumbai - MPCB",23-03-2024 01:00:00,19.090337,73.014232,CO,8,103,20
India,Maharashtra,Navi Mumbai,"Mahape, Navi Mumbai - MPCB",23-03-2024 01:00:00,19.1135051,73.008978,SO2,26,27,27
India,Maharashtra,Navi Mumbai,"Nerul, Navi Mumbai - MPCB",23-03-2024 01:00:00,19.008751,73.016620,PM10,119,488,208
India,Maharashtra,Navi Mumbai,"Sanpada, Navi Mumbai - MPCB",23-03-2024 01:00:00,19.0575752,73.0151367,PM2.5,3,401,154
India,Maharashtra,Navi Mumbai,"Sanpada, Navi Mumbai - MPCB",23-03-2024 01:00:00,19.0575752,73.0151367,CO,2,82,5
India,Maharashtra,Navi Mumbai,"Sector-2E Kalamboli, Navi Mumbai - MPCB",23-03-2024 01:00:00,19.02579,73.10297,CO,9,92,27
India,Maharashtra,Navi Mumbai,"Tondare-Taloja, Navi Mumbai - MPCB",23-03-2024 01:00:00,19.0630,73.1209,PM2.5,87,319,202
India,Maharashtra,Pimpri-Chinchwad,"Gavalinagar, Pimpri Chinchwad - MPCB",23-03-2024 01:00:00,18.63673,73.82487,NH3,NA,NA,NA
India,Maharashtra,Pimpri-Chinchwad,"Park Street Wakad, Pimpri Chinchwad - MPCB",23-03-2024 01:00:00,18.59051,73.77946,NH3,5,15,9
India,Maharashtra,Pimpri-Chinchwad,"Thergaon, Pimpri Chinchwad - MPCB",23-03-2024 01:00:00,18.616318,73.765797,PM2.5,117,327,226
India,Maharashtra,Pune,"Bhosari, Pune - IITM",23-03-2024 01:00:00,18.640051,73.848956,OZONE,7,150,66
India,Maharashtra,Pune,"Katraj Dairy, Pune - MPCB",23-03-2024 01:00:00,18.454450,73.854155,NO2,14,41,26
India,Maharashtra,Pune,"Mhada Colony, Pune - IITM",23-03-2024 01:00:00,18.573040,73.927715,NO2,4,21,15
India,Maharashtra,Pune,"Revenue Colony-Shivajinagar, Pune - IITM",23-03-2024 01:00:00,18.530085,73.849598,SO2,50,119,99
India,Maharashtra,Pune,"Revenue Colony-Shivajinagar, Pune - IITM",23-03-2024 01:00:00,18.530085,73.849598,CO,104,116,111
India,Maharashtra,Pune,"Savitribai Phule Pune University, Pune - MPCB",23-03-2024 01:00:00,18.547056,73.826908,NH3,1,2,2
India,Maharashtra,Sangli,"Vijay Nagar, Sangli - MPCB",23-03-2024 01:00:00, 16.5038,74.3623,PM2.5,60,119,84
India,Maharashtra,Sangli,"Vijay Nagar, Sangli - MPCB",23-03-2024 01:00:00, 16.5038,74.3623,OZONE,23,75,48
India,Maharashtra,Solapur,"Dnyaneshwar Nagar, Solapur - MPCB",23-03-2024 01:00:00,17.6336264,75.9132495,NO2,9,66,28
India,Maharashtra,Solapur,"Dnyaneshwar Nagar, Solapur - MPCB",23-03-2024 01:00:00,17.6336264,75.9132495,CO,13,60,38
India,Maharashtra,Solapur,"Ratandeep Housing Society, Solapur - MPCB",23-03-2024 01:00:00,17.65439,75.90649,NO2,NA,NA,NA
India,Maharashtra,Solapur,"Ratandeep Housing Society, Solapur - MPCB",23-03-2024 01:00:00,17.65439,75.90649,CO,NA,NA,NA
India,Maharashtra,Thane,"Kasarvadavali, Thane - MPCB",23-03-2024 01:00:00,19.26777,72.97182,SO2,2,29,13
India,Maharashtra,Thane,"Pimpleshwar Mandir, Thane - MPCB",23-03-2024 01:00:00,19.192056,72.9585188,NO2,2,23,10
India,Maharashtra,Thane,"Pimpleshwar Mandir, Thane - MPCB",23-03-2024 01:00:00,19.192056,72.9585188,NH3,3,3,3
India,Maharashtra,Thane,"Upvan Fort, Thane - MPCB",23-03-2024 01:00:00,19.222279,72.957979,NO2,16,131,54
India,Maharashtra,Thane,"Upvan Fort, Thane - MPCB",23-03-2024 01:00:00,19.222279,72.957979,NH3,2,14,7
India,Maharashtra,Ulhasnagar,"Sidhi Vinayak Nagar, Ulhasnagar - MPCB",23-03-2024 01:00:00,19.235581,73.159121,PM2.5,77,367,179
India,Maharashtra,Ulhasnagar,"Sidhi Vinayak Nagar, Ulhasnagar - MPCB",23-03-2024 01:00:00,19.235581,73.159121,PM10,94,252,130
India,Maharashtra,Virar,"Bolinj, Virar - MPCB",23-03-2024 01:00:00,19.4458210,72.7988231,NO2,9,104,44
India,Manipur,Imphal,"Manipur University, Imphal - Manipur PCB",23-03-2024 01:00:00,24.7524239,93.9286218,CO,8,23,17
India,Manipur,Imphal,"Manipur University, Imphal - Manipur PCB",23-03-2024 01:00:00,24.7524239,93.9286218,OZONE,1,30,12
India,Meghalaya,Shillong,"Lumpyngngad, Shillong - Meghalaya PCB",23-03-2024 01:00:00,25.5586,91.8985,PM2.5,29,76,55
India,Mizoram,Aizawl,"Sikulpuikawn, Aizawl - Mizoram PCB",23-03-2024 01:00:00,23.7176342,92.7192841,CO,7,16,15
India,Nagaland,Kohima,"PWD Juction, Kohima - NPCB",23-03-2024 01:00:00,25.6635413,94.0989878,NO2,3,4,3
India,Nagaland,Kohima,"PWD Juction, Kohima - NPCB",23-03-2024 01:00:00,25.6635413,94.0989878,SO2,30,30,30
India,Odisha,Angul,"Hakimapada, Angul - OSPCB",23-03-2024 01:00:00,20.832874,85.104082,PM10,37,470,148
India,Odisha,Angul,"Hakimapada, Angul - OSPCB",23-03-2024 01:00:00,20.832874,85.104082,NH3,NA,NA,NA
India,Odisha,Angul,"Hakimapada, Angul - OSPCB",23-03-2024 01:00:00,20.832874,85.104082,SO2,8,104,36
India,Odisha,Barbil,"Forest Office, Barbil - OSPCB",23-03-2024 01:00:00,22.1166054,85.3945546,PM10,81,252,136
India,Odisha,Barbil,"Forest Office, Barbil - OSPCB",23-03-2024 01:00:00,22.1166054,85.3945546,NO2,4,10,7
India,Odisha,Barbil,"Forest Office, Barbil - OSPCB",23-03-2024 01:00:00,22.1166054,85.3945546,NH3,4,5,4
India,Odisha,Baripada,"Meher Colony, Baripada - OSPCB",23-03-2024 01:00:00,21.941841,86.728318,PM10,64,115,86
India,Odisha,Baripada,"Meher Colony, Baripada - OSPCB",23-03-2024 01:00:00,21.941841,86.728318,SO2,5,6,6
India,Odisha,Bhubaneswar,"Lingraj Mandir, Bhubaneswar - OSPCB",23-03-2024 01:00:00,20.240790,85.836784,NH3,2,3,2
India,Odisha,Bhubaneswar,"Patia, Bhubaneswar - OSPCB",23-03-2024 01:00:00,20.34652,85.81630,CO,68,96,77
India,Odisha,Bileipada,"Tata Township, Bileipada - OSPCB",23-03-2024 01:00:00,22.06156703,85.47409613,PM10,97,279,169
India,Odisha,Brajrajnagar,"GM Office, Brajrajnagar - OSPCB",23-03-2024 01:00:00,21.8004996,83.8396977,CO,67,128,78
India,Odisha,Byasanagar,"Ferro Chrome Colony, Byasanagar - OSPCB",23-03-2024 01:00:00,20.94185,86.11510,NH3,2,3,2
India,Odisha,Byasanagar,"Ferro Chrome Colony, Byasanagar - OSPCB",23-03-2024 01:00:00,20.94185,86.11510,CO,71,95,88
India,Odisha,Keonjhar,"Jagamohanpur, Keonjhar - OSPCB",23-03-2024 01:00:00,21.643900,85.599355,PM2.5,8,170,80
India,Odisha,Keonjhar,"Jagamohanpur, Keonjhar - OSPCB",23-03-2024 01:00:00,21.643900,85.599355,PM10,20,140,87
India,Odisha,Keonjhar,"Jagamohanpur, Keonjhar - OSPCB",23-03-2024 01:00:00,21.643900,85.599355,NO2,16,107,50
India,Odisha,Nayagarh,"Dabuna, Nayagarh - OSPCB",23-03-2024 01:00:00,21.847279,85.416905,OZONE,2,11,3
India,Odisha,Rairangpur,"Divisional Forest Office, Rairangpur - OSPCB",23-03-2024 01:00:00,22.265816,86.174829,NH3,5,5,5
India,Odisha,Rourkela,"Raghunathpali, Rourkela - OSPCB",23-03-2024 01:00:00,22.220833,84.809444,NO2,28,161,66
India,Odisha,Rourkela,"Sector-2, Rourkela - OSPCB",23-03-2024 01:00:00,22.24500000,84.88111111,PM10,67,131,93
India,Odisha,Suakati,"OMC Colony, Suakati - OSPCB",23-03-2024 01:00:00,21.606865,85.510538,NH3,9,81,27
India,Odisha,Suakati,"OMC Colony, Suakati - OSPCB",23-03-2024 01:00:00,21.606865,85.510538,CO,21,46,37
India,Odisha,Talcher,"Talcher Coalfields,Talcher - OSPCB",23-03-2024 01:00:00,20.9360711,85.1707021,NO2,17,25,21
India,Puducherry,Puducherry,"Jawahar Nagar, Puducherry - PPCC",23-03-2024 01:00:00,11.9309,79.8027,NH3,2,4,3
India,Puducherry,Puducherry,"Jawahar Nagar, Puducherry - PPCC",23-03-2024 01:00:00,11.9309,79.8027,SO2,2,10,6
India,Punjab,Amritsar,"Golden Temple, Amritsar - PPCB",23-03-2024 01:00:00,31.620000,74.876512,PM2.5,11,178,62
India,Punjab,Bathinda,"Hardev Nagar, Bathinda - PPCB",23-03-2024 01:00:00,30.233011,74.907758,PM10,61,293,123
India,Punjab,Jalandhar,"Civil Line, Jalandhar - PPCB",23-03-2024 01:00:00,31.321907,75.578914,NH3,2,5,3
India,Punjab,Khanna,"Kalal Majra, Khanna - PPCB",23-03-2024 01:00:00,30.736056 ,76.209694,NO2,31,36,34
India,Punjab,Ludhiana,"Punjab Agricultural University, Ludhiana - PPCB",23-03-2024 01:00:00,30.9028,75.8086,PM2.5,49,210,130
India,Punjab,Ludhiana,"Punjab Agricultural University, Ludhiana - PPCB",23-03-2024 01:00:00,30.9028,75.8086,SO2,11,21,15
India,Punjab,Mandi Gobindgarh,"RIMT University, Mandi Gobindgarh - PPCB",23-03-2024 01:00:00,30.649961,76.331442,NO2,13,24,23
India,Punjab,Patiala,"Model Town, Patiala - PPCB",23-03-2024 01:00:00,30.349388,76.366642,PM10,79,121,106
India,Punjab,Rupnagar,"Ratanpura, Rupnagar - Ambuja Cements",23-03-2024 01:00:00,31.0325454,76.5623046,CO,28,62,43
India,Rajasthan,Ajmer,"Civil Lines,  Ajmer - RSPCB",23-03-2024 01:00:00,26.470859,74.646594,NO2,11,13,12
India,Rajasthan,Ajmer,"Civil Lines,  Ajmer - RSPCB",23-03-2024 01:00:00,26.470859,74.646594,CO,12,105,55
India,Rajasthan,Alwar,"Moti Doongri, Alwar - RSPCB",23-03-2024 01:00:00,27.554793,76.611536,PM10,74,115,98
India,Rajasthan,Banswara,"Rati Talai, Banswara - RSPCB",23-03-2024 01:00:00,23.555190,74.440010,PM2.5,24,109,65
India,Rajasthan,Banswara,"Rati Talai, Banswara - RSPCB",23-03-2024 01:00:00,23.555190,74.440010,PM10,72,251,135
India,Rajasthan,Baran,"Bamboliya, Baran - RSPCB",23-03-2024 01:00:00,25.106006,76.469948,SO2,6,27,13
India,Rajasthan,Barmer,"Railway Colony, Barmer - RSPCB",23-03-2024 01:00:00,25.747299,71.393989,PM2.5,13,99,37
India,Rajasthan,Barmer,"Railway Colony, Barmer - RSPCB",23-03-2024 01:00:00,25.747299,71.393989,SO2,8,14,11
India,Rajasthan,Barmer,"Railway Colony, Barmer - RSPCB",23-03-2024 01:00:00,25.747299,71.393989,CO,8,38,24
India,Rajasthan,Bharatpur,"Krishna Nagar, Bharatpur - RSPCB",23-03-2024 01:00:00,27.215415,77.50873,NO2,10,66,30
India,Rajasthan,Bhilwara,"Pratap Nagar, Bhilwara - RSPCB",23-03-2024 01:00:00,25.339605,74.618883,CO,20,58,27
India,Rajasthan,Bhilwara,"Pratap Nagar, Bhilwara - RSPCB",23-03-2024 01:00:00,25.339605,74.618883,OZONE,7,83,73
India,Rajasthan,Bhiwadi,"RIICO Ind. Area III, Bhiwadi - RSPCB",23-03-2024 01:00:00,28.194909,76.862296,OZONE,3,54,9
India,Rajasthan,Bikaner,"MM Ground, Bikaner - RSPCB",23-03-2024 01:00:00,28.018792,73.292658,PM10,94,299,143
India,Rajasthan,Bundi,"New Colony, Bundi - RSPCB",23-03-2024 01:00:00,25.435774,75.644272,NO2,9,123,54
India,Rajasthan,Bundi,"New Colony, Bundi - RSPCB",23-03-2024 01:00:00,25.435774,75.644272,OZONE,4,179,42
India,Rajasthan,Chittorgarh,"Shastri Nagar, Chittorgarh - RSPCB",23-03-2024 01:00:00,24.892047,74.623527,NO2,7,127,64
India,Rajasthan,Churu,"Subash Chowk, Churu - RSPCB",23-03-2024 01:00:00,28.296139,74.961696,NO2,4,33,17
India,Rajasthan,Churu,"Subash Chowk, Churu - RSPCB",23-03-2024 01:00:00,28.296139,74.961696,OZONE,53,159,127
India,Rajasthan,Dungarpur,"Bhoiwada, Dungarpur - RSPCB",23-03-2024 01:00:00,23.837789,73.714926,SO2,7,9,8
India,Rajasthan,Hanumangarh,"Housing Board, Hanumangarh - RSPCB",23-03-2024 01:00:00,29.610750,74.283608,PM10,127,263,163
India,Rajasthan,Hanumangarh,"Housing Board, Hanumangarh - RSPCB",23-03-2024 01:00:00,29.610750,74.283608,NO2,14,41,24
India,Rajasthan,Hanumangarh,"Housing Board, Hanumangarh - RSPCB",23-03-2024 01:00:00,29.610750,74.283608,NH3,7,17,12
India,Rajasthan,Jaipur,"Adarsh Nagar, Jaipur - RSPCB",23-03-2024 01:00:00,26.902909,75.836858,NO2,22,130,54
India,Rajasthan,Jaipur,"Adarsh Nagar, Jaipur - RSPCB",23-03-2024 01:00:00,26.902909,75.836858,NH3,4,24,8
India,Rajasthan,Jaipur,"Adarsh Nagar, Jaipur - RSPCB",23-03-2024 01:00:00,26.902909,75.836858,OZONE,7,55,18
India,Rajasthan,Jaipur,"Mansarovar Sector-12, Jaipur - RSPCB",23-03-2024 01:00:00,26.843698,75.766894,NO2,32,128,58
India,Rajasthan,Jaipur,"Mansarovar Sector-12, Jaipur - RSPCB",23-03-2024 01:00:00,26.843698,75.766894,SO2,4,10,6
India,Rajasthan,Jaipur,"Police Commissionerate, Jaipur - RSPCB",23-03-2024 01:00:00,26.9164092,75.7994901,CO,24,90,53
India,Rajasthan,Jaipur,"RIICO Sitapura, Jaipur - RSPCB",23-03-2024 01:00:00,26.786682,75.827928,PM10,99,407,168
India,Rajasthan,Jaipur,"RIICO Sitapura, Jaipur - RSPCB",23-03-2024 01:00:00,26.786682,75.827928,OZONE,1,105,23
India,Rajasthan,Jaipur,"Sector-2 Murlipura, Jaipur - RSPCB",23-03-2024 01:00:00,26.960669,75.771817,OZONE,1,120,26
India,Rajasthan,Jaipur,"Shastri Nagar, Jaipur - RSPCB",23-03-2024 01:00:00,26.9502929,75.730943,NH3,2,59,12
India,Rajasthan,Jaipur,"Shastri Nagar, Jaipur - RSPCB",23-03-2024 01:00:00,26.9502929,75.730943,OZONE,11,75,32
India,Rajasthan,Jaisalmer,"Sadar Bazar, Jaisalmer - RSPCB",23-03-2024 01:00:00,26.912329,70.909168,PM10,68,237,112
India,Rajasthan,Jalore,"Mudtra Sili, Jalore - RSPCB",23-03-2024 01:00:00,25.344694,72.626208,NH3,4,7,5
India,Rajasthan,Jalore,"Mudtra Sili, Jalore - RSPCB",23-03-2024 01:00:00,25.344694,72.626208,SO2,2,10,5
India,Rajasthan,Jhalawar,"Rajlaxmi Nagar, Jhalawar - RSPCB",23-03-2024 01:00:00,24.588397,76.172782,PM10,64,195,113
India,Rajasthan,Jhalawar,"Rajlaxmi Nagar, Jhalawar - RSPCB",23-03-2024 01:00:00,24.588397,76.172782,SO2,3,59,10
India,Rajasthan,Jhunjhunu,"Indra Nagar, Jhunjhunu - RSPCB",23-03-2024 01:00:00,28.108988,75.386577,NO2,18,61,37
India,Rajasthan,Jodhpur,"Collectorate, Jodhpur - RSPCB",23-03-2024 01:00:00,26.268249,73.0193853,NO2,34,39,37
India,Rajasthan,Jodhpur,"Collectorate, Jodhpur - RSPCB",23-03-2024 01:00:00,26.268249,73.0193853,SO2,1,52,19
India,Rajasthan,Jodhpur,"Collectorate, Jodhpur - RSPCB",23-03-2024 01:00:00,26.268249,73.0193853,OZONE,28,110,47
India,Rajasthan,Jodhpur,"Jhalamand, Jodhpur - RSPCB",23-03-2024 01:00:00,26.215415,73.070156,PM2.5,8,282,71
India,Rajasthan,Jodhpur,"Jhalamand, Jodhpur - RSPCB",23-03-2024 01:00:00,26.215415,73.070156,PM10,58,368,146
India,Rajasthan,Jodhpur,"Jhalamand, Jodhpur - RSPCB",23-03-2024 01:00:00,26.215415,73.070156,SO2,2,23,6
India,Rajasthan,Jodhpur,"Mandor, Jodhpur - RSPCB",23-03-2024 01:00:00,26.358805,73.047444,PM10,90,295,142
India,Rajasthan,Jodhpur,"Mandor, Jodhpur - RSPCB",23-03-2024 01:00:00,26.358805,73.047444,CO,9,53,15
India,Rajasthan,Jodhpur,"Samrat Ashok Udhyan, Jodhpur - RSPCB",23-03-2024 01:00:00,26.253384,72.976571,NO2,4,110,43
India,Rajasthan,Jodhpur,"Samrat Ashok Udhyan, Jodhpur - RSPCB",23-03-2024 01:00:00,26.253384,72.976571,NH3,5,52,8
India,Rajasthan,Jodhpur,"Samrat Ashok Udhyan, Jodhpur - RSPCB",23-03-2024 01:00:00,26.253384,72.976571,SO2,1,74,9
India,Rajasthan,Karauli,"Satyawati Vihar, Karauli - RSPCB",23-03-2024 01:00:00,26.506177,77.025989,NH3,2,9,3
India,Rajasthan,Kota,"Dhanmandi, Kota - RSPCB",23-03-2024 01:00:00,25.164090,75.858137,SO2,9,101,29
India,Rajasthan,Kota,"Dhanmandi, Kota - RSPCB",23-03-2024 01:00:00,25.164090,75.858137,CO,26,110,70
India,Rajasthan,Kota,"Nayapura, Kota - RSPCB",23-03-2024 01:00:00,25.196024,75.855668,PM10,87,229,144
India,Rajasthan,Kota,"Nayapura, Kota - RSPCB",23-03-2024 01:00:00,25.196024,75.855668,CO,22,110,74
India,Rajasthan,Nagaur,"Karni Colony, Nagaur - RSPCB",23-03-2024 01:00:00,27.213494,73.734444,PM2.5,17,204,50
India,Rajasthan,Pali,"Indira Colony Vistar, Pali - RSPCB",23-03-2024 01:00:00,25.771061, 73.340227,OZONE,30,46,35
India,Rajasthan,Rajsamand,"Dhoinda, Rajsamand - RSPCB",23-03-2024 01:00:00,25.036360,73.883502,PM2.5,18,190,70
India,Rajasthan,Rajsamand,"Dhoinda, Rajsamand - RSPCB",23-03-2024 01:00:00,25.036360,73.883502,NH3,6,8,7
India,Rajasthan,Rajsamand,"Dhoinda, Rajsamand - RSPCB",23-03-2024 01:00:00,25.036360,73.883502,CO,54,83,68
India,Rajasthan,Sawai Madhopur,"Sahu Nagar, Sawai Madhopur - RSPCB",23-03-2024 01:00:00,26.031443,76.359327,PM2.5,62,375,118
India,Rajasthan,Sikar,"Radhakishan Pura, Sikar - RSPCB",23-03-2024 01:00:00,27.608912,75.153302,PM2.5,21,120,65
India,Rajasthan,Sikar,"Radhakishan Pura, Sikar - RSPCB",23-03-2024 01:00:00,27.608912,75.153302,CO,16,94,40
India,Rajasthan,Sri Ganganagar,"Old City, Sri Ganganagar - RSPCB",23-03-2024 01:00:00,29.931624,73.864511,PM2.5,92,287,158
India,Rajasthan,Sri Ganganagar,"Old City, Sri Ganganagar - RSPCB",23-03-2024 01:00:00,29.931624,73.864511,CO,36,103,79
India,Rajasthan,Udaipur,"Ashok Nagar, Udaipur - RSPCB",23-03-2024 01:00:00,24.5886166,73.6321397,PM2.5,55,234,118
India,Rajasthan,Udaipur,"Ashok Nagar, Udaipur - RSPCB",23-03-2024 01:00:00,24.5886166,73.6321397,NH3,8,9,9
India,Rajasthan,Udaipur,"Ashok Nagar, Udaipur - RSPCB",23-03-2024 01:00:00,24.5886166,73.6321397,OZONE,3,48,10
India,TamilNadu,Ariyalur,"Keelapalur, Ariyalur - TNPCB",23-03-2024 01:00:00,11.06825,79.07033,NH3,NA,NA,NA
India,TamilNadu,Chengalpattu,"Crescent University, Chengalpattu - TNPCB",23-03-2024 01:00:00,12.8777316,80.0834807,PM10,14,97,46
India,TamilNadu,Chengalpattu,"Crescent University, Chengalpattu - TNPCB",23-03-2024 01:00:00,12.8777316,80.0834807,OZONE,6,7,6
India,TamilNadu,Chennai,"Alandur Bus Depot, Chennai - CPCB",23-03-2024 01:00:00,12.9099161,80.1076538,NO2,3,19,8
India,TamilNadu,Chennai,"Royapuram, Chennai - TNPCB",23-03-2024 01:00:00,13.1036,80.2909,NH3,1,1,1
India,TamilNadu,Chennai,"Velachery Res. Area, Chennai - CPCB",23-03-2024 01:00:00,13.0052189,80.2398125,OZONE,4,11,7
India,TamilNadu,Coimbatore,"PSG College of Arts and Science, Coimbatore - TNPCB",23-03-2024 01:00:00,11.0328,77.0349,NO2,3,10,4
India,TamilNadu,Coimbatore,"PSG College of Arts and Science, Coimbatore - TNPCB",23-03-2024 01:00:00,11.0328,77.0349,OZONE,2,5,4
India,TamilNadu,Cuddalore,"Semmandalam, Cuddalore - TNPCB",23-03-2024 01:00:00,11.7637683,79.7499835,OZONE,1,2,1
India,TamilNadu,Kanchipuram,"Kilambi, Kanchipuram - TNPCB",23-03-2024 01:00:00,12.864618,79.659968,PM2.5,37,123,55
India,TamilNadu,Kanchipuram,"Kilambi, Kanchipuram - TNPCB",23-03-2024 01:00:00,12.864618,79.659968,CO,20,27,21
India,TamilNadu,Ooty,"Bombay Castel, Ooty - TNPCB",23-03-2024 01:00:00,11.4068288,76.7138973,NO2,7,43,21
India,TamilNadu,Ooty,"Bombay Castel, Ooty - TNPCB",23-03-2024 01:00:00,11.4068288,76.7138973,SO2,13,13,13
India,TamilNadu,Palkalaiperur,"Bharathidasan University, Palkalaiperur - TNPCB",23-03-2024 01:00:00,10.681158,78.741746,PM10,28,53,38
India,TamilNadu,Palkalaiperur,"Bharathidasan University, Palkalaiperur - TNPCB",23-03-2024 01:00:00,10.681158,78.741746,SO2,27,29,28
India,TamilNadu,Ramanathapuram,"Chalai Bazaar, Ramanathapuram - TNPCB",23-03-2024 01:00:00,9.36399,78.831977,PM10,29,85,54
India,TamilNadu,Ramanathapuram,"Chalai Bazaar, Ramanathapuram - TNPCB",23-03-2024 01:00:00,9.36399,78.831977,CO,2,8,4
India,TamilNadu,Thoothukudi,"Meelavittan, Thoothukudi - TNPCB",23-03-2024 01:00:00,8.816428 ,78.099039,PM10,20,47,35
India,TamilNadu,Thoothukudi,"Meelavittan, Thoothukudi - TNPCB",23-03-2024 01:00:00,8.816428 ,78.099039,OZONE,5,192,25
India,TamilNadu,Vellore,"Vasanthapuram, Vellore - TNPCB",23-03-2024 01:00:00,12.909494,79.131861,PM2.5,NA,NA,NA
India,TamilNadu,Vellore,"Vasanthapuram, Vellore - TNPCB",23-03-2024 01:00:00,12.909494,79.131861,PM10,32,99,62
India,TamilNadu,Virudhunagar,"Collectorate Office, Virudhunagar - TNPCB",23-03-2024 01:00:00,9.559382,77.948828,SO2,4,9,6
India,Telangana,Hyderabad,"Bollaram Industrial Area, Hyderabad - TSPCB",23-03-2024 01:00:00,17.540891,78.358528,NO2,16,48,35
India,Telangana,Hyderabad,"Bollaram Industrial Area, Hyderabad - TSPCB",23-03-2024 01:00:00,17.540891,78.358528,CO,19,54,34
India,Telangana,Hyderabad,"Central University, Hyderabad - TSPCB",23-03-2024 01:00:00,17.460103,78.334361,SO2,5,10,8
India,Telangana,Hyderabad,"ECIL Kapra, Hyderabad - TSPCB",23-03-2024 01:00:00,17.470431,78.566959,PM10,57,81,68
India,Telangana,Hyderabad,"ICRISAT Patancheru, Hyderabad - TSPCB",23-03-2024 01:00:00,17.518400,78.278777,SO2,5,35,18
India,Telangana,Hyderabad,"IITH Kandi, Hyderabad - TSPCB",23-03-2024 01:00:00,17.585705,78.126199,CO,NA,NA,NA
India,Telangana,Hyderabad,"IITH Kandi, Hyderabad - TSPCB",23-03-2024 01:00:00,17.585705,78.126199,OZONE,NA,NA,NA
India,Telangana,Hyderabad,"Kokapet, Hyderabad - TSPCB",23-03-2024 01:00:00,17.393559,78.339194,PM2.5,NA,NA,NA
India,Telangana,Hyderabad,"Kokapet, Hyderabad - TSPCB",23-03-2024 01:00:00,17.393559,78.339194,SO2,NA,NA,NA
India,Telangana,Hyderabad,"Kompally Municipal Office, Hyderabad - TSPCB",23-03-2024 01:00:00,17.544899,78.486949,PM10,42,105,56
India,Telangana,Hyderabad,"Kompally Municipal Office, Hyderabad - TSPCB",23-03-2024 01:00:00,17.544899,78.486949,NO2,9,12,10
India,Telangana,Hyderabad,"Ramachandrapuram, Hyderabad - TSPCB",23-03-2024 01:00:00,17.528544,78.286195,PM2.5,31,42,38
India,Telangana,Hyderabad,"Ramachandrapuram, Hyderabad - TSPCB",23-03-2024 01:00:00,17.528544,78.286195,NO2,10,12,11
India,Telangana,Hyderabad,"Ramachandrapuram, Hyderabad - TSPCB",23-03-2024 01:00:00,17.528544,78.286195,CO,10,42,22
India,Telangana,Hyderabad,"Ramachandrapuram, Hyderabad - TSPCB",23-03-2024 01:00:00,17.528544,78.286195,OZONE,4,56,33
India,Telangana,Hyderabad,"Sanathnagar, Hyderabad - TSPCB",23-03-2024 01:00:00,17.4559458,78.4332152,PM2.5,46,84,62
India,Telangana,Hyderabad,"Somajiguda, Hyderabad - TSPCB",23-03-2024 01:00:00,17.417094,78.457437,NO2,NA,NA,NA
India,Telangana,Hyderabad,"Zoo Park, Hyderabad - TSPCB",23-03-2024 01:00:00,17.349694,78.451437,NH3,1,1,1
India,Uttar_Pradesh,Agra,"Manoharpur, Agra - UPPCB",23-03-2024 01:00:00,27.23711,78.01936,SO2,9,14,11
India,Uttar_Pradesh,Agra,"Rohta, Agra - UPPCB",23-03-2024 01:00:00,27.106972,78.000111,PM2.5,22,87,47
India,Uttar_Pradesh,Agra,"Sector-3B Avas Vikas Colony, Agra - UPPCB",23-03-2024 01:00:00,27.19412,77.96237,NH3,3,7,5
India,Uttar_Pradesh,Agra,"Shahjahan Garden, Agra - UPPCB",23-03-2024 01:00:00,27.169338,78.03582,PM2.5,25,81,44
India,Uttar_Pradesh,Agra,"Shahjahan Garden, Agra - UPPCB",23-03-2024 01:00:00,27.169338,78.03582,NH3,9,14,11
India,Uttar_Pradesh,Agra,"Shastripuram, Agra - UPPCB",23-03-2024 01:00:00,27.19862,77.92066,CO,10,20,15
India,Uttar_Pradesh,Baghpat,"Sardar Patel Inter College, Baghpat - UPPCB",23-03-2024 01:00:00,28.964949,77.278761,OZONE,5,121,57
India,Uttar_Pradesh,Bareilly,"Civil Lines, Bareilly - UPPCB",23-03-2024 01:00:00,28.359581,79.414455,SO2,43,46,44
India,Uttar_Pradesh,Bulandshahr,"Yamunapuram, Bulandshahr - UPPCB",23-03-2024 01:00:00,28.406963,77.849831,PM2.5,31,149,78
India,Uttar_Pradesh,Bulandshahr,"Yamunapuram, Bulandshahr - UPPCB",23-03-2024 01:00:00,28.406963,77.849831,CO,24,88,64
India,Uttar_Pradesh,Bulandshahr,"Yamunapuram, Bulandshahr - UPPCB",23-03-2024 01:00:00,28.406963,77.849831,OZONE,3,62,26
India,Uttar_Pradesh,Firozabad,"Vibhab Nagar, Firozabad - UPPCB",23-03-2024 01:00:00,27.1594,78.3953,NH3,2,2,2
India,Uttar_Pradesh,Firozabad,"Vibhab Nagar, Firozabad - UPPCB",23-03-2024 01:00:00,27.1594,78.3953,OZONE,20,40,28
India,Uttar_Pradesh,Ghaziabad,"Indirapuram, Ghaziabad - UPPCB",23-03-2024 01:00:00,28.646233,77.358075,PM10,93,404,161
India,Uttar_Pradesh,Ghaziabad,"Loni, Ghaziabad - UPPCB",23-03-2024 01:00:00,28.757294,77.278792,CO,42,129,87
India,Uttar_Pradesh,Ghaziabad,"Sanjay Nagar, Ghaziabad - UPPCB",23-03-2024 01:00:00,28.685382,77.453839,PM2.5,57,297,168
India,Uttar_Pradesh,Ghaziabad,"Sanjay Nagar, Ghaziabad - UPPCB",23-03-2024 01:00:00,28.685382,77.453839,PM10,101,241,140
India,Uttar_Pradesh,Ghaziabad,"Sanjay Nagar, Ghaziabad - UPPCB",23-03-2024 01:00:00,28.685382,77.453839,OZONE,3,106,25
India,Uttar_Pradesh,Ghaziabad,"Vasundhara, Ghaziabad - UPPCB",23-03-2024 01:00:00,28.6603346,77.3572563,NH3,10,22,14
India,Uttar_Pradesh,Gorakhpur,"Madan Mohan Malaviya University of Technology, Gorakhpur - UPPCB",23-03-2024 01:00:00,26.730136,83.433859,PM10,53,167,96
India,Uttar_Pradesh,Gorakhpur,"Madan Mohan Malaviya University of Technology, Gorakhpur - UPPCB",23-03-2024 01:00:00,26.730136,83.433859,CO,16,32,23
India,Uttar_Pradesh,Hapur,"Anand Vihar, Hapur - UPPCB",23-03-2024 01:00:00,28.725645,77.749675,SO2,23,71,38
India,Uttar_Pradesh,Jhansi,"Shivaji Nagar, Jhansi - UPPCB",23-03-2024 01:00:00,25.4547,78.6039,OZONE,7,19,10
India,Uttar_Pradesh,Kanpur,"FTI Kidwai Nagar, Kanpur - UPPCB",23-03-2024 01:00:00,26.428282,80.327067,PM2.5,46,186,83
India,Uttar_Pradesh,Kanpur,"Nehru Nagar, Kanpur - UPPCB",23-03-2024 01:00:00,26.4703136,80.3229863,PM10,25,137,65
India,Uttar_Pradesh,Khurja,"Kalindi Kunj, Khurja - UPPCB",23-03-2024 01:00:00,28.2348927,77.8683002,PM2.5,47,125,77
India,Uttar_Pradesh,Khurja,"Kalindi Kunj, Khurja - UPPCB",23-03-2024 01:00:00,28.2348927,77.8683002,OZONE,21,38,24
India,Uttar_Pradesh,Lucknow,"B R Ambedkar University, Lucknow - UPPCB",23-03-2024 01:00:00,26.766433,80.927299,NO2,11,12,11
India,Uttar_Pradesh,Lucknow,"B R Ambedkar University, Lucknow - UPPCB",23-03-2024 01:00:00,26.766433,80.927299,SO2,28,38,33
India,Uttar_Pradesh,Lucknow,"Lalbagh, Lucknow - CPCB",23-03-2024 01:00:00,26.8458805,80.9365541,CO,18,114,94
India,Uttar_Pradesh,Lucknow,"Talkatora District Industries Center, Lucknow - CPCB",23-03-2024 01:00:00,26.83399722,80.8917361,OZONE,2,81,19
India,Uttar_Pradesh,Meerut,"Ganga Nagar, Meerut - UPPCB",23-03-2024 01:00:00,28.999264,77.7590354,PM10,87,307,134
India,Uttar_Pradesh,Meerut,"Ganga Nagar, Meerut - UPPCB",23-03-2024 01:00:00,28.999264,77.7590354,SO2,9,31,16
India,Uttar_Pradesh,Meerut,"Pallavpuram Phase 2, Meerut - UPPCB",23-03-2024 01:00:00,29.063510,77.709723,PM2.5,36,221,116
India,Uttar_Pradesh,Meerut,"Pallavpuram Phase 2, Meerut - UPPCB",23-03-2024 01:00:00,29.063510,77.709723,NO2,15,122,48
India,Uttar_Pradesh,Meerut,"Pallavpuram Phase 2, Meerut - UPPCB",23-03-2024 01:00:00,29.063510,77.709723,NH3,10,15,11
India,Uttar_Pradesh,Meerut,"Pallavpuram Phase 2, Meerut - UPPCB",23-03-2024 01:00:00,29.063510,77.709723,SO2,9,47,26
India,Uttar_Pradesh,Meerut,"Pallavpuram Phase 2, Meerut - UPPCB",23-03-2024 01:00:00,29.063510,77.709723,CO,44,102,80
India,Uttar_Pradesh,Moradabad,"Buddhi Vihar, Moradabad - UPPCB",23-03-2024 01:00:00,28.83526,78.74460,PM10,67,170,113
India,Uttar_Pradesh,Moradabad,"Eco Herbal Park, Moradabad - UPPCB",23-03-2024 01:00:00,28.840739,78.697531,PM10,56,122,85
India,Uttar_Pradesh,Moradabad,"Jigar Colony, Moradabad - UPPCB",23-03-2024 01:00:00,28.856664,78.772638,OZONE,19,32,24
India,Uttar_Pradesh,Muzaffarnagar,"New Mandi, Muzaffarnagar - UPPCB",23-03-2024 01:00:00,29.4723508,77.7194031,NH3,9,11,10
India,Uttar_Pradesh,Muzaffarnagar,"New Mandi, Muzaffarnagar - UPPCB",23-03-2024 01:00:00,29.4723508,77.7194031,SO2,21,46,31
India,Uttar_Pradesh,Noida,"Sector - 125, Noida - UPPCB",23-03-2024 01:00:00,28.5447608,77.3231257,PM2.5,42,282,98
India,Uttar_Pradesh,Noida,"Sector - 125, Noida - UPPCB",23-03-2024 01:00:00,28.5447608,77.3231257,NO2,21,305,89
India,Uttar_Pradesh,Noida,"Sector - 125, Noida - UPPCB",23-03-2024 01:00:00,28.5447608,77.3231257,NH3,5,15,12
India,Uttar_Pradesh,Noida,"Sector - 125, Noida - UPPCB",23-03-2024 01:00:00,28.5447608,77.3231257,SO2,8,20,14
India,Uttar_Pradesh,Noida,"Sector - 62, Noida - IMD",23-03-2024 01:00:00,28.6245479,77.3577104,NO2,6,29,21
India,Uttar_Pradesh,Noida,"Sector-1, Noida - UPPCB",23-03-2024 01:00:00,28.5898,77.3101,NO2,30,118,55
India,Uttar_Pradesh,Prayagraj,"Motilal Nehru NIT, Prayagraj - UPPCB",23-03-2024 01:00:00,25.494,81.863,PM10,37,330,126
India,Uttar_Pradesh,Varanasi,"Bhelupur, Varanasi - UPPCB",23-03-2024 01:00:00,25.301778,82.996789,NH3,1,2,1
India,Uttar_Pradesh,Varanasi,"Maldahiya, Varanasi - UPPCB",23-03-2024 01:00:00,25.32393,82.99687,PM2.5,NA,NA,NA
India,Uttar_Pradesh,Vrindavan,"Omex Eternity, Vrindavan - UPPCB",23-03-2024 01:00:00,27.5714090,77.6557570,PM2.5,NA,NA,NA
India,Uttarakhand,Dehradun,"Doon University, Dehradun - UKPCB",23-03-2024 01:00:00,30.269444,78.044167,SO2,1,2,1
India,Uttarakhand,Kashipur,"Govt. Girls Inter College, Kashipur - UKPCB",23-03-2024 01:00:00,29.2124114,78.9611753,SO2,7,9,8
India,Uttarakhand,Rishikesh,"Shivaji Nagar, Rishikesh - UKPCB",23-03-2024 01:00:00,30.075911,78.2859547,OZONE,12,103,52
India,West_Bengal,Asansol,"Asansol Court Area, Asansol - WBPCB",23-03-2024 01:00:00,23.685297,86.945968,PM10,69,366,141
India,West_Bengal,Asansol,"Asansol Court Area, Asansol - WBPCB",23-03-2024 01:00:00,23.685297,86.945968,NO2,19,37,29
India,West_Bengal,Asansol,"Asansol Court Area, Asansol - WBPCB",23-03-2024 01:00:00,23.685297,86.945968,NH3,3,13,6
India,West_Bengal,Barrackpore,"SVSPA Campus, Barrackpore - WBPCB",23-03-2024 01:00:00,22.7605581,88.3617589,CO,9,56,35
India,West_Bengal,Durgapur,"Sidhu Kanhu Indoor Stadium, Durgapur - WBPCB",23-03-2024 01:00:00,23.5404352,87.2892225,SO2,17,43,26
India,West_Bengal,Haldia,"Priyambada Housing Estate, Haldia - WBPCB",23-03-2024 01:00:00,22.06047,88.109737,PM10,39,157,87
India,West_Bengal,Haldia,"Priyambada Housing Estate, Haldia - WBPCB",23-03-2024 01:00:00,22.06047,88.109737,NO2,16,79,30
India,West_Bengal,Haldia,"Priyambada Housing Estate, Haldia - WBPCB",23-03-2024 01:00:00,22.06047,88.109737,OZONE,21,98,24
India,West_Bengal,Howrah,"Ghusuri, Howrah - WBPCB",23-03-2024 01:00:00,22.611968,88.347422,PM2.5,86,249,152
India,West_Bengal,Howrah,"Ghusuri, Howrah - WBPCB",23-03-2024 01:00:00,22.611968,88.347422,PM10,65,187,122
India,West_Bengal,Howrah,"Padmapukur, Howrah - WBPCB",23-03-2024 01:00:00,22.5687319,88.2797276,NO2,6,8,7
India,West_Bengal,Kolkata,"Ballygunge, Kolkata - WBPCB",23-03-2024 01:00:00,22.5367507,88.3638022,CO,23,67,49
India,West_Bengal,Kolkata,"Bidhannagar, Kolkata - WBPCB",23-03-2024 01:00:00,22.58157048,88.41002457,PM2.5,38,126,65
India,West_Bengal,Kolkata,"Bidhannagar, Kolkata - WBPCB",23-03-2024 01:00:00,22.58157048,88.41002457,NH3,9,12,10
India,West_Bengal,Kolkata,"Bidhannagar, Kolkata - WBPCB",23-03-2024 01:00:00,22.58157048,88.41002457,SO2,14,22,18
India,West_Bengal,Kolkata,"Fort William, Kolkata - WBPCB",23-03-2024 01:00:00,22.556640,88.342674,PM2.5,48,156,84
India,West_Bengal,Kolkata,"Fort William, Kolkata - WBPCB",23-03-2024 01:00:00,22.556640,88.342674,SO2,10,31,18
India,West_Bengal,Kolkata,"Jadavpur, Kolkata - WBPCB",23-03-2024 01:00:00,22.49929,88.36917,PM2.5,62,142,88
India,West_Bengal,Kolkata,"Jadavpur, Kolkata - WBPCB",23-03-2024 01:00:00,22.49929,88.36917,SO2,6,11,8
India,West_Bengal,Kolkata,"Jadavpur, Kolkata - WBPCB",23-03-2024 01:00:00,22.49929,88.36917,OZONE,10,88,34
India,West_Bengal,Kolkata,"Rabindra Bharati University, Kolkata - WBPCB",23-03-2024 01:00:00,22.627847,88.380669,CO,28,67,52
India,West_Bengal,Kolkata,"Rabindra Bharati University, Kolkata - WBPCB",23-03-2024 01:00:00,22.627847,88.380669,OZONE,5,60,23
India,West_Bengal,Kolkata,"Rabindra Sarobar, Kolkata - WBPCB",23-03-2024 01:00:00,22.51106,88.35142,PM10,66,104,81
India,West_Bengal,Kolkata,"Victoria, Kolkata - WBPCB",23-03-2024 01:00:00,22.5448082,88.3403691,SO2,8,18,12
India,West_Bengal,Kolkata,"Victoria, Kolkata - WBPCB",23-03-2024 01:00:00,22.5448082,88.3403691,OZONE,10,94,30
India,West_Bengal,Siliguri,"Ward-32 Bapupara, Siliguri - WBPCB",23-03-2024 01:00:00,26.6879226,88.4152495,CO,20,84,46
India,Andhra_Pradesh,Amaravati,"Secretariat, Amaravati - APPCB",23-03-2024 01:00:00,16.5150833,80.5181667,SO2,13,18,15
India,Andhra_Pradesh,Chittoor,"Gangineni Cheruvu, Chittoor - APPCB",23-03-2024 01:00:00,13.204880,79.097889,OZONE,NA,NA,NA
India,Andhra_Pradesh,Kadapa,"Yerramukkapalli, Kadapa - APPCB",23-03-2024 01:00:00,14.465052,78.824187,SO2,2,3,2
India,Andhra_Pradesh,Rajamahendravaram,"Anand Kala Kshetram, Rajamahendravaram - APPCB",23-03-2024 01:00:00,16.9872867,81.7363176,SO2,9,12,11
India,Andhra_Pradesh,Tirupati,"Vaikuntapuram, Tirupati - APPCB",23-03-2024 01:00:00,13.615387,79.409230,NH3,2,5,3
India,Andhra_Pradesh,Vijayawada,"Rajiv Gandhi Park, Vijayawada - APPCB",23-03-2024 01:00:00,16.509717,80.612222,NO2,2,50,25
India,Andhra_Pradesh,Vijayawada,"Rajiv Gandhi Park, Vijayawada - APPCB",23-03-2024 01:00:00,16.509717,80.612222,CO,38,52,42
India,Andhra_Pradesh,Vijayawada,"Rajiv Nagar, Vijayawada - APPCB",23-03-2024 01:00:00,16.554731,80.649110,OZONE,8,43,19
India,Andhra_Pradesh,Visakhapatnam,"GVM Corporation, Visakhapatnam - APPCB",23-03-2024 01:00:00,17.72,83.3,PM10,52,163,94
India,Andhra_Pradesh,Visakhapatnam,"GVM Corporation, Visakhapatnam - APPCB",23-03-2024 01:00:00,17.72,83.3,NH3,3,7,4
India,Arunachal_Pradesh,Naharlagun,"Naharlagun, Naharlagun - APSPCB",23-03-2024 01:00:00,27.103358,93.679645,SO2,4,4,4
India,Arunachal_Pradesh,Naharlagun,"Naharlagun, Naharlagun - APSPCB",23-03-2024 01:00:00,27.103358,93.679645,CO,11,22,18
India,Assam,Byrnihat,"Central Academy for SFS, Byrnihat - PCBA",23-03-2024 01:00:00,26.071318,91.87488,NO2,40,102,68
India,Assam,Byrnihat,"Central Academy for SFS, Byrnihat - PCBA",23-03-2024 01:00:00,26.071318,91.87488,CO,30,76,37
India,Assam,Guwahati,"IITG, Guwahati - PCBA",23-03-2024 01:00:00,26.2028636,91.70046436,NO2,1,9,3
India,Assam,Guwahati,"IITG, Guwahati - PCBA",23-03-2024 01:00:00,26.2028636,91.70046436,SO2,12,13,12
India,Assam,Guwahati,"LGBI Airport, Guwahati - PCBA",23-03-2024 01:00:00,26.10887,91.589544,PM10,48,285,79
India,Assam,Guwahati,"LGBI Airport, Guwahati - PCBA",23-03-2024 01:00:00,26.10887,91.589544,OZONE,2,42,18
India,Assam,Guwahati,"Pan Bazaar, Guwahati - PCBA",23-03-2024 01:00:00,26.187500,91.744194,CO,22,71,55
India,Assam,Nagaon,"Christianpatty, Nagaon - PCBA",23-03-2024 01:00:00,26.349082,92.68449,NH3,6,12,9
India,Assam,Nagaon,"Christianpatty, Nagaon - PCBA",23-03-2024 01:00:00,26.349082,92.68449,CO,17,72,53
India,Assam,Nalbari,"Bata Chowk, Nalbari - PCBA",23-03-2024 01:00:00,26.446912,91.439057,SO2,10,15,12
India,Assam,Silchar,"Tarapur, Silchar - PCBA",23-03-2024 01:00:00,24.82827,92.79525,PM2.5,17,33,26
India,Assam,Silchar,"Tarapur, Silchar - PCBA",23-03-2024 01:00:00,24.82827,92.79525,OZONE,1,3,3
India,Assam,Sivasagar,"Girls College, Sivasagar - PCBA",23-03-2024 01:00:00,26.987634,94.636574,NH3,2,2,2
India,Assam,Sivasagar,"Girls College, Sivasagar - PCBA",23-03-2024 01:00:00,26.987634,94.636574,CO,2,8,5
India,Bihar,Aurangabad,"Gurdeo Nagar, Aurangabad - BSPCB",23-03-2024 01:00:00,24.75746,84.366208,PM2.5,NA,NA,NA
India,Bihar,Aurangabad,"Gurdeo Nagar, Aurangabad - BSPCB",23-03-2024 01:00:00,24.75746,84.366208,CO,51,66,63
India,Bihar,Bhagalpur,"DM Office_Kachari Chowk, Bhagalpur - BSPCB",23-03-2024 01:00:00,25.251013,86.989001,NO2,51,98,75
India,Bihar,Bhagalpur,"DM Office_Kachari Chowk, Bhagalpur - BSPCB",23-03-2024 01:00:00,25.251013,86.989001,NH3,7,13,10
India,Bihar,Bhagalpur,"Mayaganj, Bhagalpur - BSPCB",23-03-2024 01:00:00,25.265194,87.012947,NO2,6,14,10
India,Bihar,Bihar Sharif,"D M Colony, Bihar Sharif - BSPCB",23-03-2024 01:00:00,25.204762,85.514960,NO2,8,10,10
India,Bihar,Bihar Sharif,"D M Colony, Bihar Sharif - BSPCB",23-03-2024 01:00:00,25.204762,85.514960,NH3,2,2,2
India,Bihar,Buxar,"Charitra Van, Buxar - BSPCB (Formerly known as Central Jail)",23-03-2024 01:00:00,25.567520,83.966379,PM10,41,284,114
India,Bihar,Buxar,"Charitra Van, Buxar - BSPCB (Formerly known as Central Jail)",23-03-2024 01:00:00,25.567520,83.966379,NO2,33,160,61
India,Bihar,Buxar,"Charitra Van, Buxar - BSPCB (Formerly known as Central Jail)",23-03-2024 01:00:00,25.567520,83.966379,CO,12,93,72
India,Bihar,Gaya,"Kareemganj, Gaya - BSPCB",23-03-2024 01:00:00,24.792403,84.992416,NO2,30,31,30
India,Bihar,Gaya,"SFTI Kusdihra, Gaya - BSPCB",23-03-2024 01:00:00,24.762518,84.982348,PM2.5,33,91,66
India,Bihar,Gaya,"SFTI Kusdihra, Gaya - BSPCB",23-03-2024 01:00:00,24.762518,84.982348,CO,17,52,35
India,Bihar,Hajipur,"Industrial Area, Hajipur - BSPCB",23-03-2024 01:00:00,25.697189,85.245900,PM10,76,367,158
India,Bihar,Katihar,"Mirchaibari, Katihar - BSPCB",23-03-2024 01:00:00,25.560083,87.553265,PM10,30,268,122
India,Bihar,Katihar,"Mirchaibari, Katihar - BSPCB",23-03-2024 01:00:00,25.560083,87.553265,NH3,5,10,7
India,Bihar,Katihar,"Mirchaibari, Katihar - BSPCB",23-03-2024 01:00:00,25.560083,87.553265,SO2,15,26,20
India,Bihar,Kishanganj,"SDM Office_Khagra, Kishanganj - BSPCB",23-03-2024 01:00:00,26.0881305,87.93840336,NO2,NA,NA,NA
India,Bihar,Kishanganj,"SDM Office_Khagra, Kishanganj - BSPCB",23-03-2024 01:00:00,26.0881305,87.93840336,SO2,NA,NA,NA
India,Bihar,Manguraha,"Forest Rest House, Manguraha - BSPCB",23-03-2024 01:00:00,27.308328,84.531742,NO2,12,21,18
India,Bihar,Munger,"Town Hall, Munger - BSPCB",23-03-2024 01:00:00,25.376776,86.471523,PM2.5,32,317,93
India,Bihar,Munger,"Town Hall, Munger - BSPCB",23-03-2024 01:00:00,25.376776,86.471523,PM10,38,234,90
India,Bihar,Muzaffarpur,"MIT-Daudpur Kothi, Muzaffarpur - BSPCB",23-03-2024 01:00:00,26.1403345,85.3650192,NO2,5,8,7
India,Bihar,Muzaffarpur,"Muzaffarpur Collectorate, Muzaffarpur - BSPCB",23-03-2024 01:00:00,26.1209,85.3647,NO2,9,15,11
India,Bihar,Patna,"DRM Office Danapur, Patna - BSPCB",23-03-2024 01:00:00,25.586562,85.043586,PM2.5,59,311,126
India,Bihar,Patna,"DRM Office Danapur, Patna - BSPCB",23-03-2024 01:00:00,25.586562,85.043586,PM10,84,404,181
India,Bihar,Patna,"DRM Office Danapur, Patna - BSPCB",23-03-2024 01:00:00,25.586562,85.043586,SO2,6,9,7
India,Bihar,Patna,"Muradpur, Patna - BSPCB",23-03-2024 01:00:00,25.619651,85.147382,PM2.5,54,453,244
India,Bihar,Patna,"Muradpur, Patna - BSPCB",23-03-2024 01:00:00,25.619651,85.147382,SO2,6,12,9
India,Bihar,Patna,"Muradpur, Patna - BSPCB",23-03-2024 01:00:00,25.619651,85.147382,CO,13,124,80
India,Bihar,Patna,"Samanpura, Patna - BSPCB",23-03-2024 01:00:00,25.596727,85.085624,PM10,114,500,254
India,Bihar,Rajgir,"Dangi Tola, Rajgir - BSPCB",23-03-2024 01:00:00,25.03280,85.41948,PM10,18,156,82
India,Bihar,Rajgir,"Dangi Tola, Rajgir - BSPCB",23-03-2024 01:00:00,25.03280,85.41948,NH3,1,1,1
India,Bihar,Sasaram,"Dada Peer, Sasaram - BSPCB",23-03-2024 01:00:00,24.952822,84.002396,PM10,14,176,66
India,Bihar,Siwan,"Chitragupta Nagar, Siwan - BSPCB",23-03-2024 01:00:00,26.2271665,84.3570427,SO2,24,35,31
India,Chandigarh,Chandigarh,"Sector 22, Chandigarh - CPCC",23-03-2024 01:00:00,30.735567,76.775714,PM10,91,230,125
India,Chandigarh,Chandigarh,"Sector-25, Chandigarh - CPCC",23-03-2024 01:00:00,30.751462,76.762879,CO,24,44,32
India,Chandigarh,Chandigarh,"Sector-53, Chandigarh - CPCC",23-03-2024 01:00:00,30.719859,76.738637,NH3,4,7,5
India,Chandigarh,Chandigarh,"Sector-53, Chandigarh - CPCC",23-03-2024 01:00:00,30.719859,76.738637,SO2,10,22,15
India,Chhattisgarh,Bhilai,"32Bungalows, Bhilai - CECB",23-03-2024 01:00:00,21.194815,81.314770,NH3,6,6,6
India,Chhattisgarh,Bhilai,"Civic Center, Bhilai - Bhilai Steel Plant",23-03-2024 01:00:00,21.185571,81.343175,PM2.5,17,57,41
India,Chhattisgarh,Bilaspur,"Mangala, Bilaspur - NTPC",23-03-2024 01:00:00,22.08815,82.13737,PM10,25,124,59
India,Chhattisgarh,Chhal,"Nawapara SECL Colony, Chhal - CECB",23-03-2024 01:00:00,22.118125,83.140608,PM10,51,102,74
India,Chhattisgarh,Chhal,"Nawapara SECL Colony, Chhal - CECB",23-03-2024 01:00:00,22.118125,83.140608,NO2,17,57,30
India,Chhattisgarh,Chhal,"Nawapara SECL Colony, Chhal - CECB",23-03-2024 01:00:00,22.118125,83.140608,NH3,NA,NA,NA
India,Chhattisgarh,Chhal,"Nawapara SECL Colony, Chhal - CECB",23-03-2024 01:00:00,22.118125,83.140608,OZONE,6,145,66
India,Chhattisgarh,Korba,"Rampur, Korba - CECB",23-03-2024 01:00:00,22.368195,82.746431,PM2.5,14,59,30
India,Chhattisgarh,Korba,"Rampur, Korba - CECB",23-03-2024 01:00:00,22.368195,82.746431,PM10,25,106,64
India,Chhattisgarh,Korba,"Rampur, Korba - CECB",23-03-2024 01:00:00,22.368195,82.746431,SO2,7,17,10
India,Chhattisgarh,Korba,"Urja Nagar, Korba - CECB",23-03-2024 01:00:00,22.348441,82.549611,OZONE,1,2,1
India,Chhattisgarh,Milupara,"Govt. Higher Secondary School, Milupara - CECB",23-03-2024 01:00:00,22.1910172,83.5197009,PM2.5,9,83,39
India,Chhattisgarh,Raipur,"AIIMS, Raipur - CECB",23-03-2024 01:00:00,21.258815,81.578979,OZONE,1,10,5
India,Chhattisgarh,Raipur,"Bhatagaon New ISBT, Raipur - CECB",23-03-2024 01:00:00,21.219665,81.630094,NO2,61,92,76
India,Chhattisgarh,Raipur,"Bhatagaon New ISBT, Raipur - CECB",23-03-2024 01:00:00,21.219665,81.630094,NH3,3,3,3
India,Chhattisgarh,Raipur,"Bhatagaon New ISBT, Raipur - CECB",23-03-2024 01:00:00,21.219665,81.630094,CO,36,100,68
India,Chhattisgarh,Raipur,"Krishak Nagar, Raipur - CECB",23-03-2024 01:00:00,21.237755,81.705301,PM2.5,41,70,52
India,Chhattisgarh,Raipur,"Krishak Nagar, Raipur - CECB",23-03-2024 01:00:00,21.237755,81.705301,CO,38,51,40
India,Delhi,Delhi,"Alipur, Delhi - DPCC",23-03-2024 01:00:00,28.815329,77.153010,PM2.5,85,341,214
India,Delhi,Delhi,"Alipur, Delhi - DPCC",23-03-2024 01:00:00,28.815329,77.153010,NO2,11,110,36
India,Delhi,Delhi,"Alipur, Delhi - DPCC",23-03-2024 01:00:00,28.815329,77.153010,NH3,7,11,8
India,Delhi,Delhi,"Ashok Vihar, Delhi - DPCC",23-03-2024 01:00:00,28.695381,77.181665,PM2.5,82,335,150
India,Delhi,Delhi,"Bawana, Delhi - DPCC",23-03-2024 01:00:00,28.776200,77.051074,PM2.5,93,355,224
India,Delhi,Delhi,"Bawana, Delhi - DPCC",23-03-2024 01:00:00,28.776200,77.051074,PM10,136,449,229
India,Delhi,Delhi,"Bawana, Delhi - DPCC",23-03-2024 01:00:00,28.776200,77.051074,NH3,7,12,8
India,Delhi,Delhi,"Bawana, Delhi - DPCC",23-03-2024 01:00:00,28.776200,77.051074,OZONE,3,233,64
India,Delhi,Delhi,"CRRI Mathura Road, Delhi - IMD",23-03-2024 01:00:00,28.5512005,77.2735737,PM2.5,69,310,134
India,Delhi,Delhi,"Chandni Chowk, Delhi - IITM",23-03-2024 01:00:00,28.656756,77.227234,PM2.5,226,369,277
India,Delhi,Delhi,"Chandni Chowk, Delhi - IITM",23-03-2024 01:00:00,28.656756,77.227234,NH3,4,29,16
India,Delhi,Delhi,"Chandni Chowk, Delhi - IITM",23-03-2024 01:00:00,28.656756,77.227234,OZONE,18,24,20
India,Delhi,Delhi,"DTU, Delhi - CPCB",23-03-2024 01:00:00,28.7500499,77.1112615,PM2.5,91,342,180
India,Delhi,Delhi,"DTU, Delhi - CPCB",23-03-2024 01:00:00,28.7500499,77.1112615,NO2,29,63,43
India,Delhi,Delhi,"DTU, Delhi - CPCB",23-03-2024 01:00:00,28.7500499,77.1112615,SO2,28,29,29
India,Delhi,Delhi,"Dr. Karni Singh Shooting Range, Delhi - DPCC",23-03-2024 01:00:00,28.498571,77.264840,PM2.5,87,278,138
India,Delhi,Delhi,"Dr. Karni Singh Shooting Range, Delhi - DPCC",23-03-2024 01:00:00,28.498571,77.264840,SO2,16,24,20
India,Delhi,Delhi,"Dwarka-Sector 8, Delhi - DPCC ",23-03-2024 01:00:00,28.5710274,77.0719006,PM2.5,79,322,154
India,Delhi,Delhi,"Dwarka-Sector 8, Delhi - DPCC ",23-03-2024 01:00:00,28.5710274,77.0719006,OZONE,2,93,27
India,Delhi,Delhi,"IGI Airport (T3), Delhi - IMD",23-03-2024 01:00:00,28.5627763,77.1180053,PM10,86,220,129
India,Delhi,Delhi,"IHBAS, Dilshad Garden, Delhi - CPCB",23-03-2024 01:00:00,28.6811736,77.3025234,NH3,1,5,3
India,Delhi,Delhi,"IHBAS, Dilshad Garden, Delhi - CPCB",23-03-2024 01:00:00,28.6811736,77.3025234,SO2,NA,NA,NA
India,Delhi,Delhi,"IHBAS, Dilshad Garden, Delhi - CPCB",23-03-2024 01:00:00,28.6811736,77.3025234,CO,54,72,66
India,Delhi,Delhi,"ITO, Delhi - CPCB",23-03-2024 01:00:00,28.628624,77.241060,NH3,1,13,6
India,Delhi,Delhi,"Jahangirpuri, Delhi - DPCC",23-03-2024 01:00:00,28.732820,77.170633,SO2,5,70,21
India,Delhi,Delhi,"Lodhi Road, Delhi - IITM",23-03-2024 01:00:00,28.588333,77.221667,CO,61,69,63
India,Delhi,Delhi,"Lodhi Road, Delhi - IMD",23-03-2024 01:00:00,28.5918245,77.2273074,PM10,100,149,122
India,Delhi,Delhi,"Lodhi Road, Delhi - IMD",23-03-2024 01:00:00,28.5918245,77.2273074,NO2,2,12,5
India,Delhi,Delhi,"Lodhi Road, Delhi - IMD",23-03-2024 01:00:00,28.5918245,77.2273074,CO,16,41,25
India,Delhi,Delhi,"Major Dhyan Chand National Stadium, Delhi - DPCC",23-03-2024 01:00:00,28.611281,77.237738,PM10,109,260,146
India,Delhi,Delhi,"Mandir Marg, Delhi - DPCC",23-03-2024 01:00:00,28.636429,77.201067,PM2.5,90,317,149
India,Delhi,Delhi,"Mandir Marg, Delhi - DPCC",23-03-2024 01:00:00,28.636429,77.201067,CO,66,120,96
India,Delhi,Delhi,"Mundka, Delhi - DPCC",23-03-2024 01:00:00,28.684678,77.076574,CO,36,104,74
India,Delhi,Delhi,"Mundka, Delhi - DPCC",23-03-2024 01:00:00,28.684678,77.076574,OZONE,NA,NA,NA
India,Delhi,Delhi,"NSIT Dwarka, Delhi - CPCB",23-03-2024 01:00:00,28.60909,77.0325413,PM10,110,481,168
India,Delhi,Delhi,"Narela, Delhi - DPCC",23-03-2024 01:00:00,28.822836,77.101981,SO2,16,33,22
India,Delhi,Delhi,"Nehru Nagar, Delhi - DPCC",23-03-2024 01:00:00,28.567890,77.250515,CO,18,117,98
India,Delhi,Delhi,"New Moti Bagh, Delhi - MHUA",23-03-2024 01:00:00,28.57834,77.18400,CO,31,121,74
India,Delhi,Delhi,"North Campus, DU, Delhi - IMD",23-03-2024 01:00:00,28.6573814,77.1585447,PM10,NA,NA,NA
India,Delhi,Delhi,"North Campus, DU, Delhi - IMD",23-03-2024 01:00:00,28.6573814,77.1585447,NO2,NA,NA,NA
India,Delhi,Delhi,"North Campus, DU, Delhi - IMD",23-03-2024 01:00:00,28.6573814,77.1585447,OZONE,2,51,13
India,Delhi,Delhi,"Okhla Phase-2, Delhi - DPCC",23-03-2024 01:00:00,28.530785,77.271255,PM2.5,84,321,147
India,Delhi,Delhi,"Okhla Phase-2, Delhi - DPCC",23-03-2024 01:00:00,28.530785,77.271255,OZONE,10,95,35
India,Delhi,Delhi,"Patparganj, Delhi - DPCC",23-03-2024 01:00:00,28.623763,77.287209,PM10,119,407,185
India,Delhi,Delhi,"Patparganj, Delhi - DPCC",23-03-2024 01:00:00,28.623763,77.287209,NO2,22,87,47
India,Delhi,Delhi,"Patparganj, Delhi - DPCC",23-03-2024 01:00:00,28.623763,77.287209,NH3,8,12,10
India,Delhi,Delhi,"Patparganj, Delhi - DPCC",23-03-2024 01:00:00,28.623763,77.287209,OZONE,4,105,30
India,Delhi,Delhi,"Punjabi Bagh, Delhi - DPCC",23-03-2024 01:00:00,28.674045,77.131023,OZONE,2,132,38
India,Delhi,Delhi,"Pusa, Delhi - DPCC",23-03-2024 01:00:00,28.639652,77.146275,PM10,117,257,162
India,Delhi,Delhi,"Pusa, Delhi - IMD",23-03-2024 01:00:00,28.636110,77.173332,CO,78,116,98
India,Delhi,Delhi,"R K Puram, Delhi - DPCC",23-03-2024 01:00:00,28.563262,77.186937,CO,32,160,110
India,Delhi,Delhi,"Rohini, Delhi - DPCC",23-03-2024 01:00:00,28.732528,77.119920,PM2.5,90,353,176
India,Delhi,Delhi,"Shadipur, Delhi - CPCB",23-03-2024 01:00:00,28.6514781,77.1473105,PM2.5,85,427,224
India,Delhi,Delhi,"Sirifort, Delhi - CPCB",23-03-2024 01:00:00,28.5504249,77.2159377,OZONE,7,87,54
India,Delhi,Delhi,"Sonia Vihar, Delhi - DPCC",23-03-2024 01:00:00,28.710508,77.249485,SO2,13,25,17
India,Delhi,Delhi,"Sonia Vihar, Delhi - DPCC",23-03-2024 01:00:00,28.710508,77.249485,OZONE,17,105,47
India,Gujarat,Ahmedabad,"Chandkheda, Ahmedabad - IITM",23-03-2024 01:00:00,23.107969,72.574648,SO2,4,26,10
India,Gujarat,Ahmedabad,"Maninagar, Ahmedabad - GPCB",23-03-2024 01:00:00,23.002657,72.591912,NO2,25,98,51
India,Gujarat,Ahmedabad,"Maninagar, Ahmedabad - GPCB",23-03-2024 01:00:00,23.002657,72.591912,SO2,4,16,8
India,Gujarat,Ahmedabad,"Raikhad, Ahmedabad - IITM",23-03-2024 01:00:00,23.020509,72.579261,NH3,NA,NA,NA
India,Gujarat,Ahmedabad,"SVPI Airport Hansol, Ahmedabad - IITM",23-03-2024 01:00:00,23.076793,72.627874,PM10,58,169,108
India,Gujarat,Ahmedabad,"SVPI Airport Hansol, Ahmedabad - IITM",23-03-2024 01:00:00,23.076793,72.627874,CO,22,95,55
India,Gujarat,Ahmedabad,"SVPI Airport Hansol, Ahmedabad - IITM",23-03-2024 01:00:00,23.076793,72.627874,OZONE,3,33,12
India,Gujarat,Ahmedabad,"Sardar Vallabhbhai Patel Stadium, Ahmedabad - IITM",23-03-2024 01:00:00,23.043070,72.562968,NO2,3,17,14
India,Gujarat,Ankleshwar,"GIDC, Ankleshwar - GPCB",23-03-2024 01:00:00,21.613267,73.010555,PM2.5,55,151,102
India,Gujarat,Gandhinagar,"IIPHG Lekawada, Gandhinagar - IITM",23-03-2024 01:00:00,23.243639,72.68994,PM2.5,42,282,125
India,Gujarat,Gandhinagar,"IIPHG Lekawada, Gandhinagar - IITM",23-03-2024 01:00:00,23.243639,72.68994,PM10,56,152,106
India,Gujarat,Gandhinagar,"Sector-10, Gandhinagar - GPCB",23-03-2024 01:00:00,23.221714,72.654328,NH3,1,2,1
India,Gujarat,Nandesari,"GIDC, Nandesari - Nandesari Ind. Association",23-03-2024 01:00:00,22.410802,73.097923,PM10,106,500,253
India,Gujarat,Vapi,"Phase-1 GIDC, Vapi - GPCB",23-03-2024 01:00:00,20.362421,72.918013,PM2.5,43,314,127
India,Gujarat,Vatva,"Phase-4 GIDC, Vatva - GPCB",23-03-2024 01:00:00,22.969611,72.643500,PM2.5,61,318,157
India,Haryana,Ambala,"Patti Mehar, Ambala - HSPCB",23-03-2024 01:00:00,30.379589,76.778328,NO2,NA,NA,NA
India,Haryana,Ambala,"Patti Mehar, Ambala - HSPCB",23-03-2024 01:00:00,30.379589,76.778328,SO2,NA,NA,NA
India,Haryana,Ambala,"Patti Mehar, Ambala - HSPCB",23-03-2024 01:00:00,30.379589,76.778328,CO,26,60,36
India,Haryana,Bahadurgarh,"Arya Nagar, Bahadurgarh - HSPCB",23-03-2024 01:00:00,28.6701,76.9254,OZONE,40,51,45
India,Haryana,Ballabgarh,"Nathu Colony, Ballabgarh - HSPCB",23-03-2024 01:00:00,28.3419248,77.319699,PM2.5,5,322,103
India,Haryana,Ballabgarh,"Nathu Colony, Ballabgarh - HSPCB",23-03-2024 01:00:00,28.3419248,77.319699,OZONE,4,32,15
India,Haryana,Bhiwani,"H.B. Colony, Bhiwani - HSPCB",23-03-2024 01:00:00,28.806223,76.141105,PM10,83,136,103
India,Haryana,Charkhi Dadri,"Mini Secretariat, Charkhi Dadri - HSPCB",23-03-2024 01:00:00,28.593883,76.270653,PM10,95,181,121
India,Haryana,Charkhi Dadri,"Mini Secretariat, Charkhi Dadri - HSPCB",23-03-2024 01:00:00,28.593883,76.270653,OZONE,13,18,16
India,Haryana,Dharuhera,"Municipal Corporation Office, Dharuhera -  HSPCB",23-03-2024 01:00:00,28.206800,76.799700,SO2,15,36,20
India,Haryana,Faridabad,"Sector 11, Faridabad - HSPCB",23-03-2024 01:00:00,28.376058,77.315741,SO2,5,122,11
India,Haryana,Faridabad,"Sector 30, Faridabad - HSPCB",23-03-2024 01:00:00,28.4417,77.3217,PM2.5,92,104,96
India,Haryana,Faridabad,"Sector- 16A, Faridabad - HSPCB",23-03-2024 01:00:00,28.4088421,77.3099081,SO2,22,26,24
India,Haryana,Gurugram,"Sector-51, Gurugram - HSPCB",23-03-2024 01:00:00,28.4227,77.0667,OZONE,27,67,54
India,Haryana,Gurugram,"Teri Gram, Gurugram - HSPCB",23-03-2024 01:00:00,28.4275,77.1465,PM10,146,316,196
India,Haryana,Gurugram,"Teri Gram, Gurugram - HSPCB",23-03-2024 01:00:00,28.4275,77.1465,SO2,3,5,4
India,Haryana,Gurugram,"Teri Gram, Gurugram - HSPCB",23-03-2024 01:00:00,28.4275,77.1465,CO,20,37,27
India,Haryana,Hisar,"Urban Estate-II, Hisar - HSPCB",23-03-2024 01:00:00,29.140560,75.744941,NO2,20,22,21
India,Haryana,Hisar,"Urban Estate-II, Hisar - HSPCB",23-03-2024 01:00:00,29.140560,75.744941,OZONE,21,182,91
India,Haryana,Jind,"Police Lines, Jind - HSPCB",23-03-2024 01:00:00,29.307814,76.337619,SO2,9,29,17
India,Haryana,Kurukshetra,"Sector-7, Kurukshetra - HSPCB",23-03-2024 01:00:00,29.966942,76.875879,PM10,83,112,99
India,Haryana,Kurukshetra,"Sector-7, Kurukshetra - HSPCB",23-03-2024 01:00:00,29.966942,76.875879,NO2,10,10,10
India,Haryana,Kurukshetra,"Sector-7, Kurukshetra - HSPCB",23-03-2024 01:00:00,29.966942,76.875879,OZONE,18,62,45
India,Haryana,Mandikhera,"General Hospital, Mandikhera - HSPCB",23-03-2024 01:00:00,27.9002,76.9938,PM10,84,158,116
India,Haryana,Mandikhera,"General Hospital, Mandikhera - HSPCB",23-03-2024 01:00:00,27.9002,76.9938,NH3,16,19,18
India,Haryana,Manesar,"Sector-2 IMT, Manesar - HSPCB",23-03-2024 01:00:00,28.360699,76.936090,NH3,2,4,3
India,Haryana,Manesar,"Sector-2 IMT, Manesar - HSPCB",23-03-2024 01:00:00,28.360699,76.936090,CO,12,40,26
India,Haryana,Palwal,"Shyam Nagar, Palwal - HSPCB",23-03-2024 01:00:00,28.1485564,77.3320667,PM2.5,49,108,73
India,Haryana,Panchkula,"Sector-6, Panchkula - HSPCB ",23-03-2024 01:00:00,30.7057778,76.8531805555555,NO2,28,31,29
India,Haryana,Rohtak,"MD University, Rohtak - HSPCB",23-03-2024 01:00:00,28.52123,76.37138,NO2,47,54,51
India,Haryana,Sirsa,"F-Block, Sirsa - HSPCB",23-03-2024 01:00:00,29.536400,75.015800,NH3,12,13,13
India,Haryana,Sirsa,"F-Block, Sirsa - HSPCB",23-03-2024 01:00:00,29.536400,75.015800,CO,46,56,49
India,Haryana,Sirsa,"F-Block, Sirsa - HSPCB",23-03-2024 01:00:00,29.536400,75.015800,OZONE,49,159,75
India,Haryana,Sonipat,"Murthal, Sonipat - HSPCB",23-03-2024 01:00:00,29.027200,77.062100,NO2,37,44,40
India,Haryana,Sonipat,"Murthal, Sonipat - HSPCB",23-03-2024 01:00:00,29.027200,77.062100,SO2,12,29,20
India,Haryana,Sonipat,"Murthal, Sonipat - HSPCB",23-03-2024 01:00:00,29.027200,77.062100,OZONE,17,36,24
India,Haryana,Yamuna Nagar,"Gobind Pura, Yamuna Nagar - HSPCB",23-03-2024 01:00:00,30.1480566,77.2893471,NO2,NA,NA,NA
India,Himachal Pradesh,Baddi,"HIMUDA Complex Phase-1, Baddi - HPPCB",23-03-2024 01:00:00,30.943887,76.801991,NH3,5,7,6
India,Himachal Pradesh,Baddi,"HIMUDA Complex Phase-1, Baddi - HPPCB",23-03-2024 01:00:00,30.943887,76.801991,SO2,12,101,45
India,Jharkhand,Dhanbad,"Kalakusuma, Dhanbad - DMC",23-03-2024 01:00:00,23.811548,86.481238,PM2.5,3,17,10
India,Jharkhand,Dhanbad,"Kalakusuma, Dhanbad - DMC",23-03-2024 01:00:00,23.811548,86.481238,CO,130,135,131
India,Jharkhand,Dhanbad,"Kalakusuma, Dhanbad - DMC",23-03-2024 01:00:00,23.811548,86.481238,OZONE,10,11,10
India,Jharkhand,Dhanbad,"Sardar Patel Nagar, Dhanbad - JSPCB",23-03-2024 01:00:00,23.80569,86.44268,SO2,5,140,49
India,Jharkhand,Dhanbad,"Sardar Patel Nagar, Dhanbad - JSPCB",23-03-2024 01:00:00,23.80569,86.44268,CO,141,161,157
India,Jharkhand,Pathardih,"Mohalbani Ghat, Pathardih - DMC",23-03-2024 01:00:00,23.669880,86.411725,NO2,NA,NA,NA
India,Karnataka,Bagalkot,"Vidayagiri, Bagalkot - KSPCB",23-03-2024 01:00:00,16.172806,75.659694,NH3,1,2,1
India,Karnataka,Bengaluru,"Hombegowda Nagar, Bengaluru - KSPCB",23-03-2024 01:00:00,12.938539,77.590100,PM10,45,104,72
India,Karnataka,Bengaluru,"Hombegowda Nagar, Bengaluru - KSPCB",23-03-2024 01:00:00,12.938539,77.590100,CO,10,25,13
India,Karnataka,Bengaluru,"Jayanagar 5th Block, Bengaluru - KSPCB",23-03-2024 01:00:00,12.920984,77.584908,PM2.5,56,92,68
India,Karnataka,Bengaluru,"Jigani, Bengaluru - KSPCB",23-03-2024 01:00:00,12.7816279,77.6299145,NO2,31,32,32
India,Karnataka,Bengaluru,"Jigani, Bengaluru - KSPCB",23-03-2024 01:00:00,12.7816279,77.6299145,CO,NA,NA,NA
India,Karnataka,Bengaluru,"Kasturi Nagar, Bengaluru - KSPCB",23-03-2024 01:00:00,13.003872,77.664217,OZONE,23,91,61
India,Karnataka,Bengaluru,"Sanegurava Halli, Bengaluru - KSPCB",23-03-2024 01:00:00,12.990328,77.5431385,CO,4,46,13
India,Karnataka,Bengaluru,"Shivapura_Peenya, Bengaluru - KSPCB",23-03-2024 01:00:00,13.0246342,77.5080115,NO2,15,16,15
India,Karnataka,Bengaluru,"Silk Board, Bengaluru - KSPCB",23-03-2024 01:00:00,12.917348,77.622813,PM2.5,33,191,60
India,Karnataka,Bengaluru,"Silk Board, Bengaluru - KSPCB",23-03-2024 01:00:00,12.917348,77.622813,PM10,44,161,76
India,Karnataka,Chamarajanagar,"Urban, Chamarajanagar - KSPCB",23-03-2024 01:00:00,11.55358,76.55521,PM2.5,20,52,32
India,Karnataka,Chamarajanagar,"Urban, Chamarajanagar - KSPCB",23-03-2024 01:00:00,11.55358,76.55521,NH3,1,2,2
India,Karnataka,Chikkaballapur,"Chikkaballapur Rural, Chikkaballapur - KSPCB",23-03-2024 01:00:00,13.428828,77.731418,PM2.5,41,97,59
India,Karnataka,Chikkaballapur,"Chikkaballapur Rural, Chikkaballapur - KSPCB",23-03-2024 01:00:00,13.428828,77.731418,NO2,7,14,9
India,Karnataka,Chikkaballapur,"Chikkaballapur Rural, Chikkaballapur - KSPCB",23-03-2024 01:00:00,13.428828,77.731418,SO2,15,24,19
India,Karnataka,Chikkaballapur,"Chikkaballapur Rural, Chikkaballapur - KSPCB",23-03-2024 01:00:00,13.428828,77.731418,CO,10,19,15
India,Karnataka,Chikkaballapur,"Chikkaballapur Rural, Chikkaballapur - KSPCB",23-03-2024 01:00:00,13.428828,77.731418,OZONE,25,26,26
India,Karnataka,Chikkamagaluru,"Kalyana Nagara, Chikkamagaluru - KSPCB",23-03-2024 01:00:00,13.328028,75.797056,PM10,29,379,71
India,Karnataka,Chikkamagaluru,"Kalyana Nagara, Chikkamagaluru - KSPCB",23-03-2024 01:00:00,13.328028,75.797056,NH3,3,4,4
India,Karnataka,Davanagere,"Devaraj Urs Badavane, Davanagere - KSPCB",23-03-2024 01:00:00,14.475800,75.905200,NH3,1,1,1
India,Karnataka,Davanagere,"Devaraj Urs Badavane, Davanagere - KSPCB",23-03-2024 01:00:00,14.475800,75.905200,CO,18,21,19
India,Karnataka,Dharwad,"Kalabhavan, Dharwad - KSPCB",23-03-2024 01:00:00,15.459706,75.008381,PM2.5,18,33,24
India,Karnataka,Dharwad,"Kalabhavan, Dharwad - KSPCB",23-03-2024 01:00:00,15.459706,75.008381,SO2,3,4,3
India,Karnataka,Gadag,"Panchal Nagar, Gadag - KSPCB",23-03-2024 01:00:00,15.411456,75.638133,PM2.5,14,72,34
India,Karnataka,Hassan,"B.Katihalli, Hassan - KSPCB",23-03-2024 01:00:00,13.008556,76.125258,NO2,8,36,18
India,Karnataka,Haveri,"Ashwini Nagar, Haveri - KSPCB",23-03-2024 01:00:00,14.791800,75.389600,CO,36,36,36
India,Karnataka,Hubballi,"Deshpande Nagar, Hubballi - KSPCB",23-03-2024 01:00:00,15.351773,75.140726,PM10,NA,NA,NA
India,Karnataka,Hubballi,"Deshpande Nagar, Hubballi - KSPCB",23-03-2024 01:00:00,15.351773,75.140726,CO,82,111,94
India,Karnataka,Kalaburagi,"Lal Bahadur Shastri Nagar, Kalaburagi - KSPCB",23-03-2024 01:00:00,17.321993,76.822628,OZONE,2,75,38
India,Karnataka,Kalaburagi,"Mahatma Basaveswar Colony, Kalaburgi - KSPCB",23-03-2024 01:00:00,17.336318,76.847397,PM2.5,26,93,47
India,Karnataka,Kalaburagi,"Mahatma Basaveswar Colony, Kalaburgi - KSPCB",23-03-2024 01:00:00,17.336318,76.847397,NO2,9,16,14
India,Karnataka,Karwar,"KHB Colony, Karwar - KSPCB",23-03-2024 01:00:00,14.816666,74.141003,NO2,1,14,6
India,Karnataka,Karwar,"KHB Colony, Karwar - KSPCB",23-03-2024 01:00:00,14.816666,74.141003,SO2,18,21,19
India,Karnataka,Karwar,"KHB Colony, Karwar - KSPCB",23-03-2024 01:00:00,14.816666,74.141003,CO,8,8,8
India,Karnataka,Kolar,"Tamaka Ind. Area, Kolar - KSPCB",23-03-2024 01:00:00,13.1276288,78.1570122,PM10,36,114,75
India,Karnataka,Koppal,"Diwator Nagar, Koppal - KSPCB",23-03-2024 01:00:00,15.347630,76.181767,PM10,30,74,45
India,Karnataka,Koppal,"Diwator Nagar, Koppal - KSPCB",23-03-2024 01:00:00,15.347630,76.181767,NO2,2,34,9
India,Karnataka,Koppal,"Diwator Nagar, Koppal - KSPCB",23-03-2024 01:00:00,15.347630,76.181767,CO,73,91,81
India,Karnataka,Mangalore,"Kadri, Mangalore - KSPCB",23-03-2024 01:00:00,12.889250,74.853000,CO,38,50,48
India,Karnataka,Raichur,"Haji Colony, Raichur - KSPCB",23-03-2024 01:00:00,16.208139,77.348417,PM2.5,11,53,24
India,Karnataka,Raichur,"Haji Colony, Raichur - KSPCB",23-03-2024 01:00:00,16.208139,77.348417,PM10,46,134,93
India,Karnataka,Raichur,"Haji Colony, Raichur - KSPCB",23-03-2024 01:00:00,16.208139,77.348417,CO,92,107,105
India,Karnataka,Ramanagara,"Vijay Nagar, Ramanagara - KSPCB",23-03-2024 01:00:00,12.733409,77.298051,SO2,23,30,26
India,Karnataka,Shivamogga,"Vinoba Nagara, Shivamogga - KSPCB",23-03-2024 01:00:00,13.940000,75.555917,PM10,39,80,56
India,Karnataka,Shivamogga,"Vinoba Nagara, Shivamogga - KSPCB",23-03-2024 01:00:00,13.940000,75.555917,SO2,2,12,8
India,Karnataka,Tumakuru,"Thimmalapura, Tumakuru - KSPCB",23-03-2024 01:00:00,13.377516,77.099072,PM2.5,NA,NA,NA
India,Karnataka,Tumakuru,"Thimmalapura, Tumakuru - KSPCB",23-03-2024 01:00:00,13.377516,77.099072,SO2,8,18,11
India,Karnataka,Udupi,"Brahmagiri, Udupi - KSPCB",23-03-2024 01:00:00,13.34194444,74.74694444,PM2.5,34,88,54
India,Karnataka,Udupi,"Brahmagiri, Udupi - KSPCB",23-03-2024 01:00:00,13.34194444,74.74694444,NO2,27,31,29
