country,state,city,station,last_update,latitude,longitude,pollutant_id,pollutant_min,pollutant_max,pollutant_avg
India,Andhra_Pradesh,Amaravati,"Secretariat, Amaravati - APPCB",17-04-2024 09:00:00,16.5150833,80.5181667,NO2,4,13,7
India,Andhra_Pradesh,Amaravati,"Secretariat, Amaravati - APPCB",17-04-2024 09:00:00,16.5150833,80.5181667,NH3,3,4,4
India,Andhra_Pradesh,Amaravati,"Secretariat, Amaravati - APPCB",17-04-2024 09:00:00,16.5150833,80.5181667,OZONE,4,70,15
India,Andhra_Pradesh,Anantapur,"Gulzarpet, Anantapur - APPCB",17-04-2024 09:00:00,14.675886,77.593027,PM10,19,106,78
India,Andhra_Pradesh,Anantapur,"Gulzarpet, Anantapur - APPCB",17-04-2024 09:00:00,14.675886,77.593027,NH3,3,3,3
India,Andhra_Pradesh,Chittoor,"Gangineni Cheruvu, Chittoor - APPCB",17-04-2024 09:00:00,13.204880,79.097889,NH3,1,3,1
India,Andhra_Pradesh,Rajamahendravaram,"Anand Kala Kshetram, Rajamahendravaram - APPCB",17-04-2024 09:00:00,16.9872867,81.7363176,SO2,11,12,12
India,Andhra_Pradesh,Tirupati,"Vaikuntapuram, Tirupati - APPCB",17-04-2024 09:00:00,13.615387,79.409230,PM10,NA,NA,NA
India,Andhra_Pradesh,Tirupati,"Vaikuntapuram, Tirupati - APPCB",17-04-2024 09:00:00,13.615387,79.409230,OZONE,NA,NA,NA
India,Andhra_Pradesh,Vijayawada,"HB Colony, Vijayawada - APPCB",17-04-2024 09:00:00,16.536107,80.594233,PM10,NA,NA,NA
India,Andhra_Pradesh,Vijayawada,"HB Colony, Vijayawada - APPCB",17-04-2024 09:00:00,16.536107,80.594233,OZONE,NA,NA,NA
India,Andhra_Pradesh,Vijayawada,"Rajiv Gandhi Park, Vijayawada - APPCB",17-04-2024 09:00:00,16.509717,80.612222,PM2.5,NA,NA,NA
India,Andhra_Pradesh,Vijayawada,"Rajiv Gandhi Park, Vijayawada - APPCB",17-04-2024 09:00:00,16.509717,80.612222,NH3,NA,NA,NA
India,Andhra_Pradesh,Visakhapatnam,"GVM Corporation, Visakhapatnam - APPCB",17-04-2024 09:00:00,17.72,83.3,PM10,92,145,113
India,Andhra_Pradesh,Visakhapatnam,"GVM Corporation, Visakhapatnam - APPCB",17-04-2024 09:00:00,17.72,83.3,NH3,3,5,4
India,Andhra_Pradesh,Visakhapatnam,"GVM Corporation, Visakhapatnam - APPCB",17-04-2024 09:00:00,17.72,83.3,CO,15,56,31
India,Arunachal_Pradesh,Naharlagun,"Naharlagun, Naharlagun - APSPCB",17-04-2024 09:00:00,27.103358,93.679645,PM10,61,126,95
India,Assam,Byrnihat,"Central Academy for SFS, Byrnihat - PCBA",17-04-2024 09:00:00,26.071318,91.87488,PM10,57,147,100
India,Assam,Guwahati,"IITG, Guwahati - PCBA",17-04-2024 09:00:00,26.2028636,91.70046436,NO2,1,3,1
India,Assam,Guwahati,"IITG, Guwahati - PCBA",17-04-2024 09:00:00,26.2028636,91.70046436,NH3,5,6,5
India,Assam,Guwahati,"IITG, Guwahati - PCBA",17-04-2024 09:00:00,26.2028636,91.70046436,CO,14,17,15
India,Assam,Guwahati,"LGBI Airport, Guwahati - PCBA",17-04-2024 09:00:00,26.10887,91.589544,PM2.5,43,250,143
India,Assam,Guwahati,"LGBI Airport, Guwahati - PCBA",17-04-2024 09:00:00,26.10887,91.589544,SO2,3,15,9
India,Assam,Guwahati,"Pan Bazaar, Guwahati - PCBA",17-04-2024 09:00:00,26.187500,91.744194,PM2.5,62,100,84
India,Assam,Guwahati,"Railway Colony, Guwahati - PCBA",17-04-2024 09:00:00,26.181742,91.78063,SO2,11,17,14
India,Assam,Nagaon,"Christianpatty, Nagaon - PCBA",17-04-2024 09:00:00,26.349082,92.68449,PM2.5,58,127,87
India,Assam,Nagaon,"Christianpatty, Nagaon - PCBA",17-04-2024 09:00:00,26.349082,92.68449,CO,35,90,46
India,Assam,Nalbari,"Bata Chowk, Nalbari - PCBA",17-04-2024 09:00:00,26.446912,91.439057,CO,55,80,65
India,Assam,Silchar,"Tarapur, Silchar - PCBA",17-04-2024 09:00:00,24.82827,92.79525,PM2.5,17,58,51
India,Assam,Sivasagar,"Girls College, Sivasagar - PCBA",17-04-2024 09:00:00,26.987634,94.636574,PM2.5,35,62,48
India,Assam,Sivasagar,"Girls College, Sivasagar - PCBA",17-04-2024 09:00:00,26.987634,94.636574,SO2,4,4,4
India,Assam,Sivasagar,"Girls College, Sivasagar - PCBA",17-04-2024 09:00:00,26.987634,94.636574,CO,2,16,7
India,Bihar,Araria,"Kharahiya Basti, Araria - BSPCB",17-04-2024 09:00:00,26.146529,87.454184,NH3,5,8,6
India,Bihar,Araria,"Kharahiya Basti, Araria - BSPCB",17-04-2024 09:00:00,26.146529,87.454184,CO,2,34,27
India,Bihar,Arrah,"New DM Office, Arrah - BSPCB",17-04-2024 09:00:00,25.5626095,84.663264,PM10,72,296,127
India,Bihar,Arrah,"New DM Office, Arrah - BSPCB",17-04-2024 09:00:00,25.5626095,84.663264,NO2,3,25,14
India,Bihar,Aurangabad,"Gurdeo Nagar, Aurangabad - BSPCB",17-04-2024 09:00:00,24.75746,84.366208,SO2,1,8,5
India,Bihar,Aurangabad,"Gurdeo Nagar, Aurangabad - BSPCB",17-04-2024 09:00:00,24.75746,84.366208,OZONE,16,79,29
India,Bihar,Bettiah,"Kamalnath Nagar, Bettiah - BSPCB",17-04-2024 09:00:00,26.80365,84.51954,PM2.5,47,407,142
India,Bihar,Bhagalpur,"DM Office_Kachari Chowk, Bhagalpur - BSPCB",17-04-2024 09:00:00,25.251013,86.989001,CO,6,68,43
India,Bihar,Bhagalpur,"DM Office_Kachari Chowk, Bhagalpur - BSPCB",17-04-2024 09:00:00,25.251013,86.989001,OZONE,41,48,47
India,Bihar,Bhagalpur,"Mayaganj, Bhagalpur - BSPCB",17-04-2024 09:00:00,25.265194,87.012947,PM2.5,52,290,114
India,Bihar,Bhagalpur,"Mayaganj, Bhagalpur - BSPCB",17-04-2024 09:00:00,25.265194,87.012947,OZONE,13,78,21
India,Bihar,Gaya,"Collectorate, Gaya - BSPCB",17-04-2024 09:00:00,24.7955,84.9994,PM2.5,55,278,124
India,Bihar,Gaya,"Collectorate, Gaya - BSPCB",17-04-2024 09:00:00,24.7955,84.9994,OZONE,52,74,64
India,Bihar,Gaya,"Kareemganj, Gaya - BSPCB",17-04-2024 09:00:00,24.792403,84.992416,SO2,4,12,9
India,Bihar,Gaya,"SFTI Kusdihra, Gaya - BSPCB",17-04-2024 09:00:00,24.762518,84.982348,NO2,NA,NA,NA
India,Bihar,Katihar,"Mirchaibari, Katihar - BSPCB",17-04-2024 09:00:00,25.560083,87.553265,PM10,78,255,125
India,Bihar,Katihar,"Mirchaibari, Katihar - BSPCB",17-04-2024 09:00:00,25.560083,87.553265,NH3,5,10,7
India,Bihar,Kishanganj,"SDM Office_Khagra, Kishanganj - BSPCB",17-04-2024 09:00:00,26.0881305,87.93840336,NO2,26,31,29
India,Bihar,Kishanganj,"SDM Office_Khagra, Kishanganj - BSPCB",17-04-2024 09:00:00,26.0881305,87.93840336,SO2,1,3,2
India,Bihar,Kishanganj,"SDM Office_Khagra, Kishanganj - BSPCB",17-04-2024 09:00:00,26.0881305,87.93840336,CO,3,9,4
India,Bihar,Motihari,"Gandak Colony, Motihari - BSPCB",17-04-2024 09:00:00,26.63086,84.90051,PM10,23,116,64
India,Bihar,Muzaffarpur,"Buddha Colony, Muzaffarpur - BSPCB",17-04-2024 09:00:00,26.11442,85.39813,PM10,280,414,351
India,Bihar,Muzaffarpur,"Buddha Colony, Muzaffarpur - BSPCB",17-04-2024 09:00:00,26.11442,85.39813,SO2,4,13,8
India,Bihar,Patna,"DRM Office Danapur, Patna - BSPCB",17-04-2024 09:00:00,25.586562,85.043586,NH3,3,3,3
India,Bihar,Patna,"DRM Office Danapur, Patna - BSPCB",17-04-2024 09:00:00,25.586562,85.043586,SO2,6,9,7
India,Bihar,Patna,"DRM Office Danapur, Patna - BSPCB",17-04-2024 09:00:00,25.586562,85.043586,CO,7,95,27
India,Bihar,Patna,"Govt. High School Shikarpur, Patna - BSPCB",17-04-2024 09:00:00,25.592539,85.227158,CO,24,57,39
India,Bihar,Patna,"IGSC Planetarium Complex, Patna - BSPCB",17-04-2024 09:00:00,25.610369,85.132568,PM2.5,41,220,100
India,Bihar,Patna,"Muradpur, Patna - BSPCB",17-04-2024 09:00:00,25.619651,85.147382,NH3,2,4,3
India,Bihar,Patna,"Muradpur, Patna - BSPCB",17-04-2024 09:00:00,25.619651,85.147382,SO2,5,9,7
India,Bihar,Patna,"Rajbansi Nagar, Patna - BSPCB",17-04-2024 09:00:00,25.599486,85.113666,NO2,14,34,22
India,Bihar,Patna,"Rajbansi Nagar, Patna - BSPCB",17-04-2024 09:00:00,25.599486,85.113666,NH3,5,9,6
India,Bihar,Patna,"Rajbansi Nagar, Patna - BSPCB",17-04-2024 09:00:00,25.599486,85.113666,SO2,2,16,9
India,Bihar,Patna,"Samanpura, Patna - BSPCB",17-04-2024 09:00:00,25.596727,85.085624,PM2.5,30,318,194
India,Bihar,Rajgir,"Dangi Tola, Rajgir - BSPCB",17-04-2024 09:00:00,25.03280,85.41948,PM2.5,25,75,47
India,Bihar,Rajgir,"Dangi Tola, Rajgir - BSPCB",17-04-2024 09:00:00,25.03280,85.41948,NO2,18,23,20
India,Bihar,Rajgir,"Dangi Tola, Rajgir - BSPCB",17-04-2024 09:00:00,25.03280,85.41948,NH3,2,2,2
India,Bihar,Rajgir,"Dangi Tola, Rajgir - BSPCB",17-04-2024 09:00:00,25.03280,85.41948,SO2,3,5,4
India,Bihar,Samastipur,"DM Office_Kasipur, Samastipur - BSPCB",17-04-2024 09:00:00,25.859655,85.77944,SO2,1,46,14
India,Bihar,Sasaram,"Dada Peer, Sasaram - BSPCB",17-04-2024 09:00:00,24.952822,84.002396,PM2.5,19,72,42
India,Bihar,Sasaram,"Dada Peer, Sasaram - BSPCB",17-04-2024 09:00:00,24.952822,84.002396,SO2,22,23,22
India,Bihar,Siwan,"Chitragupta Nagar, Siwan - BSPCB",17-04-2024 09:00:00,26.2271665,84.3570427,SO2,18,35,29
India,Bihar,Siwan,"Chitragupta Nagar, Siwan - BSPCB",17-04-2024 09:00:00,26.2271665,84.3570427,OZONE,NA,NA,NA
India,Chandigarh,Chandigarh,"Sector 22, Chandigarh - CPCC",17-04-2024 09:00:00,30.735567,76.775714,NO2,15,44,24
India,Chandigarh,Chandigarh,"Sector 22, Chandigarh - CPCC",17-04-2024 09:00:00,30.735567,76.775714,NH3,7,14,9
India,Chandigarh,Chandigarh,"Sector-25, Chandigarh - CPCC",17-04-2024 09:00:00,30.751462,76.762879,SO2,7,40,12
India,Chandigarh,Chandigarh,"Sector-53, Chandigarh - CPCC",17-04-2024 09:00:00,30.719859,76.738637,PM10,62,173,89
India,Chandigarh,Chandigarh,"Sector-53, Chandigarh - CPCC",17-04-2024 09:00:00,30.719859,76.738637,NH3,5,7,6
India,Chandigarh,Chandigarh,"Sector-53, Chandigarh - CPCC",17-04-2024 09:00:00,30.719859,76.738637,SO2,5,25,16
India,Chandigarh,Chandigarh,"Sector-53, Chandigarh - CPCC",17-04-2024 09:00:00,30.719859,76.738637,OZONE,30,54,35
India,Chhattisgarh,Bhilai,"32Bungalows, Bhilai - CECB",17-04-2024 09:00:00,21.194815,81.314770,SO2,4,8,6
India,Chhattisgarh,Bhilai,"32Bungalows, Bhilai - CECB",17-04-2024 09:00:00,21.194815,81.314770,OZONE,4,36,6
India,Chhattisgarh,Bhilai,"Civic Center, Bhilai - Bhilai Steel Plant",17-04-2024 09:00:00,21.185571,81.343175,PM2.5,24,53,40
India,Chhattisgarh,Chhal,"Nawapara SECL Colony, Chhal - CECB",17-04-2024 09:00:00,22.118125,83.140608,NO2,13,49,25
India,Chhattisgarh,Korba,"Urja Nagar, Korba - CECB",17-04-2024 09:00:00,22.348441,82.549611,PM2.5,1,8,3
India,Chhattisgarh,Raipur,"AIIMS, Raipur - CECB",17-04-2024 09:00:00,21.258815,81.578979,PM2.5,35,126,57
India,Chhattisgarh,Raipur,"AIIMS, Raipur - CECB",17-04-2024 09:00:00,21.258815,81.578979,OZONE,1,43,3
India,Chhattisgarh,Raipur,"Krishak Nagar, Raipur - CECB",17-04-2024 09:00:00,21.237755,81.705301,PM2.5,29,54,40
India,Chhattisgarh,Raipur,"Krishak Nagar, Raipur - CECB",17-04-2024 09:00:00,21.237755,81.705301,NH3,1,1,1
India,Chhattisgarh,Raipur,"Krishak Nagar, Raipur - CECB",17-04-2024 09:00:00,21.237755,81.705301,SO2,10,57,18
India,Chhattisgarh,Raipur,"Siltara Phase-II, Raipur - CECB",17-04-2024 09:00:00,21.371751,81.664929,PM10,57,197,133
India,Chhattisgarh,Tumidih,"OP Jindal Industrial Park, Tumidih - CECB",17-04-2024 09:00:00,22.06631475,83.33820077,NH3,NA,NA,NA
India,Chhattisgarh,Tumidih,"OP Jindal Industrial Park, Tumidih - CECB",17-04-2024 09:00:00,22.06631475,83.33820077,OZONE,22,69,22
India,Delhi,Delhi,"Bawana, Delhi - DPCC",17-04-2024 09:00:00,28.776200,77.051074,NH3,6,12,8
India,Delhi,Delhi,"Bawana, Delhi - DPCC",17-04-2024 09:00:00,28.776200,77.051074,SO2,6,47,20
India,Delhi,Delhi,"Bawana, Delhi - DPCC",17-04-2024 09:00:00,28.776200,77.051074,OZONE,11,97,37
India,Delhi,Delhi,"Chandni Chowk, Delhi - IITM",17-04-2024 09:00:00,28.656756,77.227234,SO2,6,43,27
India,Delhi,Delhi,"Chandni Chowk, Delhi - IITM",17-04-2024 09:00:00,28.656756,77.227234,CO,46,50,49
India,Delhi,Delhi,"Chandni Chowk, Delhi - IITM",17-04-2024 09:00:00,28.656756,77.227234,OZONE,5,6,6
India,Delhi,Delhi,"DTU, Delhi - CPCB",17-04-2024 09:00:00,28.7500499,77.1112615,PM2.5,53,301,98
India,Delhi,Delhi,"DTU, Delhi - CPCB",17-04-2024 09:00:00,28.7500499,77.1112615,PM10,92,500,305
India,Delhi,Delhi,"Dr. Karni Singh Shooting Range, Delhi - DPCC",17-04-2024 09:00:00,28.498571,77.264840,CO,22,66,30
India,Delhi,Delhi,"Dwarka-Sector 8, Delhi - DPCC ",17-04-2024 09:00:00,28.5710274,77.0719006,PM10,116,430,180
India,Delhi,Delhi,"Dwarka-Sector 8, Delhi - DPCC ",17-04-2024 09:00:00,28.5710274,77.0719006,CO,35,66,47
India,Delhi,Delhi,"ITO, Delhi - CPCB",17-04-2024 09:00:00,28.628624,77.241060,PM2.5,27,283,69
India,Delhi,Delhi,"ITO, Delhi - CPCB",17-04-2024 09:00:00,28.628624,77.241060,PM10,29,194,78
India,Delhi,Delhi,"ITO, Delhi - CPCB",17-04-2024 09:00:00,28.628624,77.241060,SO2,2,19,8
India,Delhi,Delhi,"Jahangirpuri, Delhi - DPCC",17-04-2024 09:00:00,28.732820,77.170633,CO,35,102,65
India,Delhi,Delhi,"Jawaharlal Nehru Stadium, Delhi - DPCC",17-04-2024 09:00:00,28.580280,77.233829,PM2.5,12,290,55
India,Delhi,Delhi,"Jawaharlal Nehru Stadium, Delhi - DPCC",17-04-2024 09:00:00,28.580280,77.233829,PM10,67,194,104
India,Delhi,Delhi,"Major Dhyan Chand National Stadium, Delhi - DPCC",17-04-2024 09:00:00,28.611281,77.237738,NO2,22,94,46
India,Delhi,Delhi,"Major Dhyan Chand National Stadium, Delhi - DPCC",17-04-2024 09:00:00,28.611281,77.237738,SO2,5,13,8
India,Delhi,Delhi,"Major Dhyan Chand National Stadium, Delhi - DPCC",17-04-2024 09:00:00,28.611281,77.237738,CO,22,50,32
India,Delhi,Delhi,"Mandir Marg, Delhi - DPCC",17-04-2024 09:00:00,28.636429,77.201067,SO2,4,12,8
India,Delhi,Delhi,"Mundka, Delhi - DPCC",17-04-2024 09:00:00,28.684678,77.076574,NH3,5,20,9
India,Delhi,Delhi,"NSIT Dwarka, Delhi - CPCB",17-04-2024 09:00:00,28.60909,77.0325413,OZONE,11,59,27
India,Delhi,Delhi,"New Moti Bagh, Delhi - MHUA",17-04-2024 09:00:00,28.57834,77.18400,NO2,5,30,9
India,Delhi,Delhi,"Okhla Phase-2, Delhi - DPCC",17-04-2024 09:00:00,28.530785,77.271255,NO2,38,124,66
India,Delhi,Delhi,"Okhla Phase-2, Delhi - DPCC",17-04-2024 09:00:00,28.530785,77.271255,SO2,2,18,14
India,Delhi,Delhi,"Okhla Phase-2, Delhi - DPCC",17-04-2024 09:00:00,28.530785,77.271255,OZONE,17,73,41
India,Delhi,Delhi,"Pusa, Delhi - DPCC",17-04-2024 09:00:00,28.639652,77.146275,NO2,55,137,85
India,Delhi,Delhi,"Pusa, Delhi - DPCC",17-04-2024 09:00:00,28.639652,77.146275,OZONE,13,45,32
India,Delhi,Delhi,"R K Puram, Delhi - DPCC",17-04-2024 09:00:00,28.563262,77.186937,PM10,94,406,145
India,Delhi,Delhi,"R K Puram, Delhi - DPCC",17-04-2024 09:00:00,28.563262,77.186937,NO2,22,106,49
India,Delhi,Delhi,"Rohini, Delhi - DPCC",17-04-2024 09:00:00,28.732528,77.119920,OZONE,8,73,43
India,Delhi,Delhi,"Shadipur, Delhi - CPCB",17-04-2024 09:00:00,28.6514781,77.1473105,CO,18,36,24
India,Delhi,Delhi,"Sirifort, Delhi - CPCB",17-04-2024 09:00:00,28.5504249,77.2159377,NH3,13,17,15
India,Delhi,Delhi,"Sri Aurobindo Marg, Delhi - DPCC",17-04-2024 09:00:00,28.531346,77.190156,PM2.5,27,324,89
India,Delhi,Delhi,"Sri Aurobindo Marg, Delhi - DPCC",17-04-2024 09:00:00,28.531346,77.190156,SO2,12,44,19
India,Delhi,Delhi,"Vivek Vihar, Delhi - DPCC",17-04-2024 09:00:00,28.672342,77.315260,PM10,78,250,133
India,Gujarat,Ahmedabad,"Chandkheda, Ahmedabad - IITM",17-04-2024 09:00:00,23.107969,72.574648,NH3,4,5,4
India,Gujarat,Ahmedabad,"Chandkheda, Ahmedabad - IITM",17-04-2024 09:00:00,23.107969,72.574648,CO,26,110,97
India,Gujarat,Ahmedabad,"Raikhad, Ahmedabad - IITM",17-04-2024 09:00:00,23.020509,72.579261,NO2,NA,NA,NA
India,Gujarat,Ahmedabad,"Rakhial, Ahmedabad - IITM",17-04-2024 09:00:00,23.016834,72.625775,CO,12,70,34
India,Gujarat,Ahmedabad,"SAC ISRO Satellite, Ahmedabad - IITM",17-04-2024 09:00:00,23.023389,72.515201,PM10,81,100,93
India,Gujarat,Ahmedabad,"SAC ISRO Satellite, Ahmedabad - IITM",17-04-2024 09:00:00,23.023389,72.515201,SO2,2,18,6
India,Gujarat,Ahmedabad,"SVPI Airport Hansol, Ahmedabad - IITM",17-04-2024 09:00:00,23.076793,72.627874,SO2,3,7,5
India,Gujarat,Ahmedabad,"Sardar Vallabhbhai Patel Stadium, Ahmedabad - IITM",17-04-2024 09:00:00,23.043070,72.562968,PM10,64,128,78
India,Gujarat,Ahmedabad,"Sardar Vallabhbhai Patel Stadium, Ahmedabad - IITM",17-04-2024 09:00:00,23.043070,72.562968,OZONE,9,20,12
India,Gujarat,Ankleshwar,"GIDC, Ankleshwar - GPCB",17-04-2024 09:00:00,21.613267,73.010555,NO2,32,33,32
India,Gujarat,Ankleshwar,"GIDC, Ankleshwar - GPCB",17-04-2024 09:00:00,21.613267,73.010555,SO2,1,121,50
India,Gujarat,Ankleshwar,"GIDC, Ankleshwar - GPCB",17-04-2024 09:00:00,21.613267,73.010555,CO,51,112,103
India,Gujarat,Gandhinagar,"IIPHG Lekawada, Gandhinagar - IITM",17-04-2024 09:00:00,23.243639,72.68994,PM10,38,108,70
India,Gujarat,Gandhinagar,"Sector-10, Gandhinagar - GPCB",17-04-2024 09:00:00,23.221714,72.654328,PM2.5,1,49,30
India,Gujarat,Gandhinagar,"Sector-10, Gandhinagar - GPCB",17-04-2024 09:00:00,23.221714,72.654328,SO2,3,4,4
India,Gujarat,Gandhinagar,"Sector-10, Gandhinagar - GPCB",17-04-2024 09:00:00,23.221714,72.654328,CO,17,47,30
India,Gujarat,Surat,"Science Center, Surat - SMC",17-04-2024 09:00:00,21.170046,72.795405,SO2,1,8,4
India,Gujarat,Vapi,"Phase-1 GIDC, Vapi - GPCB",17-04-2024 09:00:00,20.362421,72.918013,SO2,50,53,52
India,Gujarat,Vapi,"Phase-1 GIDC, Vapi - GPCB",17-04-2024 09:00:00,20.362421,72.918013,OZONE,2,7,3
India,Haryana,Ambala,"Patti Mehar, Ambala - HSPCB",17-04-2024 09:00:00,30.379589,76.778328,PM10,52,98,73
India,Haryana,Ambala,"Patti Mehar, Ambala - HSPCB",17-04-2024 09:00:00,30.379589,76.778328,SO2,1,101,14
India,Haryana,Bahadurgarh,"Arya Nagar, Bahadurgarh - HSPCB",17-04-2024 09:00:00,28.6701,76.9254,PM2.5,34,182,75
India,Haryana,Bahadurgarh,"Arya Nagar, Bahadurgarh - HSPCB",17-04-2024 09:00:00,28.6701,76.9254,PM10,68,148,101
India,Haryana,Bahadurgarh,"Arya Nagar, Bahadurgarh - HSPCB",17-04-2024 09:00:00,28.6701,76.9254,SO2,1,40,8
India,Haryana,Ballabgarh,"Nathu Colony, Ballabgarh - HSPCB",17-04-2024 09:00:00,28.3419248,77.319699,PM10,122,225,156
India,Haryana,Ballabgarh,"Nathu Colony, Ballabgarh - HSPCB",17-04-2024 09:00:00,28.3419248,77.319699,CO,6,70,22
India,Haryana,Bhiwani,"H.B. Colony, Bhiwani - HSPCB",17-04-2024 09:00:00,28.806223,76.141105,PM10,56,125,96
India,Haryana,Bhiwani,"H.B. Colony, Bhiwani - HSPCB",17-04-2024 09:00:00,28.806223,76.141105,OZONE,6,34,32
India,Haryana,Charkhi Dadri,"Mini Secretariat, Charkhi Dadri - HSPCB",17-04-2024 09:00:00,28.593883,76.270653,PM2.5,51,128,81
India,Haryana,Faridabad,"New Industrial Town, Faridabad - HSPCB",17-04-2024 09:00:00,28.39072,77.30059,NO2,2,18,10
India,Haryana,Faridabad,"Sector 30, Faridabad - HSPCB",17-04-2024 09:00:00,28.4417,77.3217,SO2,5,12,6
India,Haryana,Faridabad,"Sector- 16A, Faridabad - HSPCB",17-04-2024 09:00:00,28.4088421,77.3099081,NO2,12,43,24
India,Haryana,Faridabad,"Sector- 16A, Faridabad - HSPCB",17-04-2024 09:00:00,28.4088421,77.3099081,SO2,3,26,18
India,Haryana,Fatehabad,"Huda Sector, Fatehabad - HSPCB",17-04-2024 09:00:00,29.503664,75.467934,PM2.5,18,59,33
India,Haryana,Fatehabad,"Huda Sector, Fatehabad - HSPCB",17-04-2024 09:00:00,29.503664,75.467934,SO2,10,11,11
India,Haryana,Fatehabad,"Huda Sector, Fatehabad - HSPCB",17-04-2024 09:00:00,29.503664,75.467934,CO,5,18,8
India,Haryana,Gurugram,"Sector-51, Gurugram - HSPCB",17-04-2024 09:00:00,28.4227,77.0667,NO2,13,29,23
India,Haryana,Gurugram,"Teri Gram, Gurugram - HSPCB",17-04-2024 09:00:00,28.4275,77.1465,PM2.5,59,384,205
India,Haryana,Gurugram,"Teri Gram, Gurugram - HSPCB",17-04-2024 09:00:00,28.4275,77.1465,NH3,42,67,48
India,Haryana,Gurugram,"Teri Gram, Gurugram - HSPCB",17-04-2024 09:00:00,28.4275,77.1465,SO2,3,5,4
India,Haryana,Gurugram,"Vikas Sadan, Gurugram - HSPCB",17-04-2024 09:00:00,28.4501238,77.0263051,PM2.5,32,428,209
India,Haryana,Hisar,"Urban Estate-II, Hisar - HSPCB",17-04-2024 09:00:00,29.140560,75.744941,NH3,9,10,10
India,Haryana,Kaithal,"Rishi Nagar, Kaithal - HSPCB",17-04-2024 09:00:00,29.8006,76.4155,SO2,3,21,10
India,Haryana,Kaithal,"Rishi Nagar, Kaithal - HSPCB",17-04-2024 09:00:00,29.8006,76.4155,OZONE,11,22,12
India,Haryana,Kurukshetra,"Sector-7, Kurukshetra - HSPCB",17-04-2024 09:00:00,29.966942,76.875879,PM10,56,95,74
India,Haryana,Mandikhera,"General Hospital, Mandikhera - HSPCB",17-04-2024 09:00:00,27.9002,76.9938,PM10,47,80,69
India,Haryana,Mandikhera,"General Hospital, Mandikhera - HSPCB",17-04-2024 09:00:00,27.9002,76.9938,SO2,32,37,34
India,Haryana,Manesar,"Sector-2 IMT, Manesar - HSPCB",17-04-2024 09:00:00,28.360699,76.936090,PM10,26,77,53
India,Haryana,Narnaul,"Shastri Nagar, Narnaul - HSPCB",17-04-2024 09:00:00,28.060249,76.113115,NH3,4,22,10
India,Haryana,Palwal,"Shyam Nagar, Palwal - HSPCB",17-04-2024 09:00:00,28.1485564,77.3320667,PM2.5,NA,NA,NA
India,Haryana,Palwal,"Shyam Nagar, Palwal - HSPCB",17-04-2024 09:00:00,28.1485564,77.3320667,NH3,NA,NA,NA
India,Haryana,Palwal,"Shyam Nagar, Palwal - HSPCB",17-04-2024 09:00:00,28.1485564,77.3320667,SO2,NA,NA,NA
India,Haryana,Sonipat,"Murthal, Sonipat - HSPCB",17-04-2024 09:00:00,29.027200,77.062100,CO,5,29,17
India,Haryana,Yamuna Nagar,"Gobind Pura, Yamuna Nagar - HSPCB",17-04-2024 09:00:00,30.1480566,77.2893471,PM10,43,131,72
India,Haryana,Yamuna Nagar,"Gobind Pura, Yamuna Nagar - HSPCB",17-04-2024 09:00:00,30.1480566,77.2893471,CO,30,54,50
India,Jharkhand,Dhanbad,"Kalakusuma, Dhanbad - DMC",17-04-2024 09:00:00,23.811548,86.481238,SO2,9,33,20
India,Jharkhand,Dhanbad,"Sardar Patel Nagar, Dhanbad - JSPCB",17-04-2024 09:00:00,23.80569,86.44268,PM2.5,7,174,63
India,Karnataka,Belgaum,"Ramteerth Nagar, Belgaum - KSPCB",17-04-2024 09:00:00,15.888653,74.541751,OZONE,19,19,19
India,Karnataka,Bengaluru,"BTM Layout, Bengaluru - CPCB",17-04-2024 09:00:00,12.9135218,77.5950804,PM10,27,98,56
India,Karnataka,Bengaluru,"BTM Layout, Bengaluru - CPCB",17-04-2024 09:00:00,12.9135218,77.5950804,OZONE,7,74,17
India,Karnataka,Bengaluru,"Bapuji Nagar, Bengaluru - KSPCB",17-04-2024 09:00:00,12.951913,77.539784,OZONE,27,34,29
India,Karnataka,Bengaluru,"Hebbal, Bengaluru - KSPCB",17-04-2024 09:00:00,13.029152,77.585901,SO2,14,21,18
India,Karnataka,Bengaluru,"Jayanagar 5th Block, Bengaluru - KSPCB",17-04-2024 09:00:00,12.920984,77.584908,NH3,3,4,3
India,Karnataka,Bengaluru,"Peenya, Bengaluru - CPCB",17-04-2024 09:00:00,13.0270199,77.494094,PM10,37,105,78
India,Karnataka,Bengaluru,"Peenya, Bengaluru - CPCB",17-04-2024 09:00:00,13.0270199,77.494094,NO2,NA,NA,NA
India,Karnataka,Bengaluru,"RVCE-Mailasandra, Bengaluru - KSPCB",17-04-2024 09:00:00,12.921418,77.502466,CO,28,60,33
India,Karnataka,Bengaluru,"Sanegurava Halli, Bengaluru - KSPCB",17-04-2024 09:00:00,12.990328,77.5431385,PM10,36,65,47
India,Karnataka,Bengaluru,"Sanegurava Halli, Bengaluru - KSPCB",17-04-2024 09:00:00,12.990328,77.5431385,CO,4,29,11
India,Karnataka,Bengaluru,"Shivapura_Peenya, Bengaluru - KSPCB",17-04-2024 09:00:00,13.0246342,77.5080115,CO,22,46,34
India,Karnataka,Bengaluru,"Silk Board, Bengaluru - KSPCB",17-04-2024 09:00:00,12.917348,77.622813,NH3,NA,NA,NA
India,Karnataka,Chamarajanagar,"Urban, Chamarajanagar - KSPCB",17-04-2024 09:00:00,11.55358,76.55521,PM2.5,20,45,30
India,Karnataka,Chamarajanagar,"Urban, Chamarajanagar - KSPCB",17-04-2024 09:00:00,11.55358,76.55521,NH3,1,2,2
India,Karnataka,Chamarajanagar,"Urban, Chamarajanagar - KSPCB",17-04-2024 09:00:00,11.55358,76.55521,SO2,2,8,4
India,Karnataka,Chikkaballapur,"Chikkaballapur Rural, Chikkaballapur - KSPCB",17-04-2024 09:00:00,13.428828,77.731418,PM10,35,122,82
India,Karnataka,Chikkamagaluru,"Kalyana Nagara, Chikkamagaluru - KSPCB",17-04-2024 09:00:00,13.328028,75.797056,OZONE,12,34,15
India,Karnataka,Dharwad,"Kalabhavan, Dharwad - KSPCB",17-04-2024 09:00:00,15.459706,75.008381,NH3,3,3,3
India,Karnataka,Dharwad,"Kalabhavan, Dharwad - KSPCB",17-04-2024 09:00:00,15.459706,75.008381,CO,19,110,29
India,Karnataka,Haveri,"Ashwini Nagar, Haveri - KSPCB",17-04-2024 09:00:00,14.791800,75.389600,SO2,NA,NA,NA
India,Karnataka,Haveri,"Ashwini Nagar, Haveri - KSPCB",17-04-2024 09:00:00,14.791800,75.389600,OZONE,18,20,19
India,Karnataka,Hubballi,"Deshpande Nagar, Hubballi - KSPCB",17-04-2024 09:00:00,15.351773,75.140726,PM2.5,26,56,42
India,Karnataka,Hubballi,"Deshpande Nagar, Hubballi - KSPCB",17-04-2024 09:00:00,15.351773,75.140726,NO2,25,27,26
India,Karnataka,Kalaburagi,"Lal Bahadur Shastri Nagar, Kalaburagi - KSPCB",17-04-2024 09:00:00,17.321993,76.822628,CO,44,84,46
India,Karnataka,Karwar,"KHB Colony, Karwar - KSPCB",17-04-2024 09:00:00,14.816666,74.141003,NO2,1,12,3
India,Karnataka,Kolar,"Tamaka Ind. Area, Kolar - KSPCB",17-04-2024 09:00:00,13.1276288,78.1570122,PM2.5,NA,NA,NA
India,Karnataka,Kolar,"Tamaka Ind. Area, Kolar - KSPCB",17-04-2024 09:00:00,13.1276288,78.1570122,SO2,NA,NA,NA
India,Karnataka,Kolar,"Tamaka Ind. Area, Kolar - KSPCB",17-04-2024 09:00:00,13.1276288,78.1570122,OZONE,13,15,14
India,Karnataka,Koppal,"Diwator Nagar, Koppal - KSPCB",17-04-2024 09:00:00,15.347630,76.181767,PM10,17,78,37
India,Karnataka,Koppal,"Diwator Nagar, Koppal - KSPCB",17-04-2024 09:00:00,15.347630,76.181767,SO2,28,28,28
India,Karnataka,Koppal,"Diwator Nagar, Koppal - KSPCB",17-04-2024 09:00:00,15.347630,76.181767,CO,122,124,124
India,Karnataka,Madikeri,"Stuart Hill, Madikeri - KSPCB",17-04-2024 09:00:00,12.415911,75.735050,NO2,2,9,5
India,Karnataka,Madikeri,"Stuart Hill, Madikeri - KSPCB",17-04-2024 09:00:00,12.415911,75.735050,NH3,1,2,1
India,Karnataka,Mangalore,"Kadri, Mangalore - KSPCB",17-04-2024 09:00:00,12.889250,74.853000,PM10,50,95,64
India,Karnataka,Mangalore,"Kadri, Mangalore - KSPCB",17-04-2024 09:00:00,12.889250,74.853000,CO,46,52,50
India,Karnataka,Mysuru,"Hebbal 1st Stage, Mysuru - KSPCB",17-04-2024 09:00:00,12.21041,76.37376,PM2.5,9,57,27
India,Karnataka,Mysuru,"Hebbal 1st Stage, Mysuru - KSPCB",17-04-2024 09:00:00,12.21041,76.37376,SO2,1,7,3
India,Karnataka,Ramanagara,"Vijay Nagar, Ramanagara - KSPCB",17-04-2024 09:00:00,12.733409,77.298051,NO2,2,14,6
India,Karnataka,Ramanagara,"Vijay Nagar, Ramanagara - KSPCB",17-04-2024 09:00:00,12.733409,77.298051,NH3,1,2,1
India,Karnataka,Shivamogga,"Vinoba Nagara, Shivamogga - KSPCB",17-04-2024 09:00:00,13.940000,75.555917,SO2,3,10,6
India,Karnataka,Tumakuru,"Thimmalapura, Tumakuru - KSPCB",17-04-2024 09:00:00,13.377516,77.099072,CO,29,34,32
India,Karnataka,Yadgir,"Collector Office, Yadgir - KSPCB",17-04-2024 09:00:00,16.7602,77.1428,NO2,5,9,6
India,Kerala,Eloor,"Udyogamandal, Eloor - Kerala PCB",17-04-2024 09:00:00,10.073232,76.302765,NH3,1,1,1
India,Kerala,Eloor,"Udyogamandal, Eloor - Kerala PCB",17-04-2024 09:00:00,10.073232,76.302765,SO2,1,5,2
India,Kerala,Kollam,"Polayathode, Kollam - Kerala PCB",17-04-2024 09:00:00,8.8787,76.6073,PM2.5,11,94,50
India,Kerala,Thiruvananthapuram,"Plammoodu, Thiruvananthapuram - Kerala PCB",17-04-2024 09:00:00,8.5149093,76.9435879,PM2.5,2,42,11
India,Kerala,Thiruvananthapuram,"Plammoodu, Thiruvananthapuram - Kerala PCB",17-04-2024 09:00:00,8.5149093,76.9435879,SO2,3,12,8
India,Kerala,Thrissur,"Corporation Ground, Thrissur - Kerala PCB",17-04-2024 09:00:00,10.532400,76.215900,NO2,7,8,7
India,Madhya Pradesh,Bhopal,"Idgah Hills, Bhopal - MPPCB",17-04-2024 09:00:00,23.264759,77.381568,SO2,15,25,18
India,Madhya Pradesh,Bhopal,"Paryavaran Parisar, Bhopal - MPPCB",17-04-2024 09:00:00,23.210494,77.425409,NO2,9,55,30
India,Madhya Pradesh,Dewas,"Bhopal Chauraha, Dewas - MPPCB",17-04-2024 09:00:00,22.9682591,76.064118,PM2.5,17,76,39
India,Madhya Pradesh,Dewas,"Bhopal Chauraha, Dewas - MPPCB",17-04-2024 09:00:00,22.9682591,76.064118,CO,14,36,19
India,Madhya Pradesh,Gwalior,"Deen Dayal Nagar, Gwalior - MPPCB",17-04-2024 09:00:00,26.259242,78.216432,PM2.5,22,132,70
India,Madhya Pradesh,Gwalior,"Deen Dayal Nagar, Gwalior - MPPCB",17-04-2024 09:00:00,26.259242,78.216432,NO2,9,34,22
India,Madhya Pradesh,Gwalior,"Deen Dayal Nagar, Gwalior - MPPCB",17-04-2024 09:00:00,26.259242,78.216432,CO,26,40,29
India,Madhya Pradesh,Gwalior,"Maharaj Bada, Gwalior - MPPCB",17-04-2024 09:00:00,26.200388,78.147714,NO2,NA,NA,NA
India,Madhya Pradesh,Gwalior,"Maharaj Bada, Gwalior - MPPCB",17-04-2024 09:00:00,26.200388,78.147714,OZONE,59,141,76
India,Madhya Pradesh,Indore,"Chhoti Gwaltoli, Indore - MPPCB",17-04-2024 09:00:00,22.4310,75.5213,PM2.5,14,302,103
India,Madhya Pradesh,Indore,"Chhoti Gwaltoli, Indore - MPPCB",17-04-2024 09:00:00,22.4310,75.5213,NH3,4,8,5
India,Madhya Pradesh,Indore,"Maguda Nagar, Indore - IMC",17-04-2024 09:00:00,22.7524,75.8872,NH3,1,2,2
India,Madhya Pradesh,Indore,"Maguda Nagar, Indore - IMC",17-04-2024 09:00:00,22.7524,75.8872,SO2,28,37,31
India,Madhya Pradesh,Indore,"Regional Park, Indore - IMC",17-04-2024 09:00:00,22.6780,75.8559,PM2.5,24,122,66
India,Madhya Pradesh,Indore,"Regional Park, Indore - IMC",17-04-2024 09:00:00,22.6780,75.8559,CO,24,50,43
India,Madhya Pradesh,Indore,"Residency Area, Indore - IMC",17-04-2024 09:00:00,22.7084,75.8815,PM2.5,17,93,54
India,Madhya Pradesh,Indore,"Residency Area, Indore - IMC",17-04-2024 09:00:00,22.7084,75.8815,SO2,NA,NA,NA
India,Madhya Pradesh,Jabalpur,"Govindh Bhavan Colony, Jabalpur - JMC",17-04-2024 09:00:00,23.163174,79.973061,PM2.5,30,68,46
India,Madhya Pradesh,Jabalpur,"Marhatal, Jabalpur - MPPCB",17-04-2024 09:00:00,23.168606,79.932247,NO2,15,57,25
India,Madhya Pradesh,Jabalpur,"Marhatal, Jabalpur - MPPCB",17-04-2024 09:00:00,23.168606,79.932247,CO,28,105,37
India,Madhya Pradesh,Maihar,"Sahilara, Maihar - KJS Cements",17-04-2024 09:00:00,24.2613009,80.7231783,PM10,24,109,53
India,Madhya Pradesh,Pithampur,"Sector-2 Industrial Area, Pithampur - MPPCB",17-04-2024 09:00:00,22.624758,75.675238,PM10,60,212,135
India,Madhya Pradesh,Pithampur,"Sector-2 Industrial Area, Pithampur - MPPCB",17-04-2024 09:00:00,22.624758,75.675238,NH3,2,4,3
India,Madhya Pradesh,Sagar,"Civil Lines, Sagar - MPPCB",17-04-2024 09:00:00,23.838586,78.759431,PM10,35,139,60
India,Madhya Pradesh,Sagar,"Deen Dayal Nagar, Sagar - MPPCB",17-04-2024 09:00:00,23.8640158,78.80289321,PM10,17,65,32
India,Madhya Pradesh,Singrauli,"Suryakiran Bhawan NCL, Singrauli - MPPCB",17-04-2024 09:00:00,24.108970,82.645580,PM10,70,381,150
India,Madhya Pradesh,Singrauli,"Suryakiran Bhawan NCL, Singrauli - MPPCB",17-04-2024 09:00:00,24.108970,82.645580,SO2,37,77,48
India,Madhya Pradesh,Ujjain,"Mahakaleshwar Temple, Ujjain - MPPCB",17-04-2024 09:00:00,23.182719 ,75.768218 ,SO2,7,29,15
India,Maharashtra,Ahmednagar,"Tarakpur, Ahmednagar - MPCB",17-04-2024 09:00:00,19.10122,74.73339,SO2,5,16,10
India,Maharashtra,Aurangabad,"MIDC Chilkalthana, Aurangabad - MPCB",17-04-2024 09:00:00,19.875620,75.387310,CO,22,48,32
India,Maharashtra,Aurangabad,"MIDC Chilkalthana, Aurangabad - MPCB",17-04-2024 09:00:00,19.875620,75.387310,OZONE,3,146,23
India,Maharashtra,Aurangabad,"More Chowk Waluj, Aurangabad - MPCB",17-04-2024 09:00:00,19.8389439,75.244448,SO2,1,6,2
India,Maharashtra,Aurangabad,"Rachnakar Colony, Aurangabad - MPCB",17-04-2024 09:00:00,19.863756,75.321188,PM10,46,299,104
India,Maharashtra,Aurangabad,"Rachnakar Colony, Aurangabad - MPCB",17-04-2024 09:00:00,19.863756,75.321188,NO2,12,49,26
India,Maharashtra,Aurangabad,"Rachnakar Colony, Aurangabad - MPCB",17-04-2024 09:00:00,19.863756,75.321188,SO2,4,12,7
India,Maharashtra,Belapur,"CBD Belapur, Belapur - MPCB",17-04-2024 09:00:00,19.0243902,73.0406721,PM2.5,62,194,106
India,Maharashtra,Belapur,"CBD Belapur, Belapur - MPCB",17-04-2024 09:00:00,19.0243902,73.0406721,PM10,61,130,103
India,Maharashtra,Belapur,"CBD Belapur, Belapur - MPCB",17-04-2024 09:00:00,19.0243902,73.0406721,NO2,2,48,18
India,Maharashtra,Belapur,"CBD Belapur, Belapur - MPCB",17-04-2024 09:00:00,19.0243902,73.0406721,CO,22,58,25
India,Maharashtra,Belapur,"CBD Belapur, Belapur - MPCB",17-04-2024 09:00:00,19.0243902,73.0406721,OZONE,NA,NA,NA
India,Maharashtra,Bhiwandi,"Gokul Nagar, Bhiwandi - MPCB",17-04-2024 09:00:00,19.309073,73.057223,PM2.5,42,213,87
India,Maharashtra,Bhiwandi,"Gokul Nagar, Bhiwandi - MPCB",17-04-2024 09:00:00,19.309073,73.057223,NO2,19,88,38
India,Maharashtra,Bhiwandi,"Gokul Nagar, Bhiwandi - MPCB",17-04-2024 09:00:00,19.309073,73.057223,SO2,17,36,24
India,Maharashtra,Bhiwandi,"Gokul Nagar, Bhiwandi - MPCB",17-04-2024 09:00:00,19.309073,73.057223,OZONE,30,208,64
India,Maharashtra,Boisar,"Khaira, Boisar - MPCB",17-04-2024 09:00:00,19.786089,72.757971,NH3,6,12,9
India,Maharashtra,Boisar,"Khaira, Boisar - MPCB",17-04-2024 09:00:00,19.786089,72.757971,CO,8,68,22
India,Maharashtra,Chandrapur,"Chauhan Colony, Chandrapur - MPCB",17-04-2024 09:00:00,19.962900,79.298714,PM10,62,108,84
India,Maharashtra,Chandrapur,"MIDC Khutala, Chandrapur - MPCB",17-04-2024 09:00:00,19.9775302,79.2337086,SO2,20,23,21
India,Maharashtra,Chandrapur,"MIDC Khutala, Chandrapur - MPCB",17-04-2024 09:00:00,19.9775302,79.2337086,OZONE,3,85,14
India,Maharashtra,Jalgaon,"Prabhat Colony, Jalgaon - MPCB",17-04-2024 09:00:00,21.001264,75.565602,PM10,82,223,139
India,Maharashtra,Jalgaon,"Prabhat Colony, Jalgaon - MPCB",17-04-2024 09:00:00,21.001264,75.565602,SO2,4,18,9
India,Maharashtra,Jalna,"Old MIDC, Jalna - MPCB",17-04-2024 09:00:00,19.854616,75.905894,NH3,6,7,7
India,Maharashtra,Jalna,"Old MIDC, Jalna - MPCB",17-04-2024 09:00:00,19.854616,75.905894,OZONE,11,187,15
India,Maharashtra,Kalyan,"Khadakpada, Kalyan - MPCB",17-04-2024 09:00:00,19.25292,73.142019,NH3,1,1,1
India,Maharashtra,Kolhapur,"Shivaji University, Kolhapur - MPCB",17-04-2024 09:00:00,16.6870449,74.2505872,PM10,101,154,126
India,Maharashtra,Kolhapur,"Shivaji University, Kolhapur - MPCB",17-04-2024 09:00:00,16.6870449,74.2505872,NH3,3,4,3
India,Maharashtra,Kolhapur,"Shivaji University, Kolhapur - MPCB",17-04-2024 09:00:00,16.6870449,74.2505872,OZONE,10,145,15
India,Maharashtra,Kolhapur,"Sinchan Bhavan, Kolhapur - MPCB",17-04-2024 09:00:00,16.7143745,74.2426398,SO2,1,8,3
India,Maharashtra,Malegaon,"Mahesh Nagar, Malegaon - MPCB",17-04-2024 09:00:00,20.555712,74.529236,PM10,77,150,110
India,Maharashtra,Mumbai,"Borivali East, Mumbai - IITM",17-04-2024 09:00:00,19.23241,72.86895,NH3,1,3,1
India,Maharashtra,Mumbai,"Borivali East, Mumbai - MPCB",17-04-2024 09:00:00,19.2243333,72.8658113,NO2,12,52,26
India,Maharashtra,Mumbai,"Byculla, Mumbai - BMC",17-04-2024 09:00:00,18.9767,72.8380,CO,6,36,13
India,Maharashtra,Mumbai,"Chakala-Andheri East, Mumbai - IITM",17-04-2024 09:00:00,19.11074,72.86084,PM10,89,153,115
India,Maharashtra,Mumbai,"Chhatrapati Shivaji Intl. Airport (T2), Mumbai - MPCB",17-04-2024 09:00:00,19.10078,72.87462,SO2,22,33,26
India,Maharashtra,Mumbai,"Chhatrapati Shivaji Intl. Airport (T2), Mumbai - MPCB",17-04-2024 09:00:00,19.10078,72.87462,CO,40,101,53
India,Maharashtra,Mumbai,"Chhatrapati Shivaji Intl. Airport (T2), Mumbai - MPCB",17-04-2024 09:00:00,19.10078,72.87462,OZONE,4,13,7
India,Maharashtra,Mumbai,"Ghatkopar, Mumbai - BMC",17-04-2024 09:00:00,19.083694,72.920967,PM2.5,NA,NA,NA
India,Maharashtra,Mumbai,"Ghatkopar, Mumbai - BMC",17-04-2024 09:00:00,19.083694,72.920967,CO,4,30,7
India,Maharashtra,Mumbai,"Kandivali East, Mumbai - MPCB",17-04-2024 09:00:00,19.205800,72.868200,PM10,48,415,141
India,Maharashtra,Mumbai,"Kandivali East, Mumbai - MPCB",17-04-2024 09:00:00,19.205800,72.868200,OZONE,30,31,30
India,Maharashtra,Mumbai,"Kherwadi_Bandra East, Mumbai - MPCB",17-04-2024 09:00:00,19.0632143,72.8456324,SO2,5,18,9
India,Maharashtra,Mumbai,"Kherwadi_Bandra East, Mumbai - MPCB",17-04-2024 09:00:00,19.0632143,72.8456324,OZONE,30,195,65
India,Maharashtra,Mumbai,"Kurla, Mumbai - MPCB",17-04-2024 09:00:00,19.0863,72.8888,CO,12,55,20
India,Maharashtra,Mumbai,"Mindspace-Malad West, Mumbai - MPCB",17-04-2024 09:00:00,19.1878657,72.8304069,PM2.5,35,114,75
India,Maharashtra,Mumbai,"Mindspace-Malad West, Mumbai - MPCB",17-04-2024 09:00:00,19.1878657,72.8304069,NH3,8,9,9
India,Maharashtra,Mumbai,"Mulund West, Mumbai - MPCB",17-04-2024 09:00:00,19.1750,72.9419,NH3,10,11,10
India,Maharashtra,Mumbai,"Navy Nagar-Colaba, Mumbai - IITM",17-04-2024 09:00:00,18.897756,72.813320,PM2.5,20,76,48
India,Maharashtra,Mumbai,"Powai, Mumbai - MPCB",17-04-2024 09:00:00,19.137500,72.915056,NO2,22,53,38
India,Maharashtra,Mumbai,"Powai, Mumbai - MPCB",17-04-2024 09:00:00,19.137500,72.915056,OZONE,23,122,40
India,Maharashtra,Mumbai,"Sewri, Mumbai - BMC",17-04-2024 09:00:00,19.000084,72.856730,PM2.5,NA,NA,NA
India,Maharashtra,Mumbai,"Shivaji Nagar, Mumbai - BMC",17-04-2024 09:00:00,19.060498,72.923356,PM2.5,NA,NA,NA
India,Maharashtra,Mumbai,"Shivaji Nagar, Mumbai - BMC",17-04-2024 09:00:00,19.060498,72.923356,OZONE,NA,NA,NA
India,Maharashtra,Mumbai,"Sion, Mumbai - MPCB",17-04-2024 09:00:00,19.047000,72.874600,PM2.5,38,128,77
India,Maharashtra,Mumbai,"Sion, Mumbai - MPCB",17-04-2024 09:00:00,19.047000,72.874600,SO2,34,36,35
India,Maharashtra,Mumbai,"Vasai West, Mumbai - MPCB",17-04-2024 09:00:00,19.383200,72.820400,PM10,55,145,115
India,Maharashtra,Mumbai,"Vasai West, Mumbai - MPCB",17-04-2024 09:00:00,19.383200,72.820400,NH3,4,7,4
India,Maharashtra,Mumbai,"Vasai West, Mumbai - MPCB",17-04-2024 09:00:00,19.383200,72.820400,CO,48,92,73
India,Maharashtra,Mumbai,"Vile Parle West, Mumbai - MPCB",17-04-2024 09:00:00,19.10861,72.83622,SO2,14,15,14
India,Maharashtra,Nagpur,"Mahal, Nagpur - MPCB",17-04-2024 09:00:00,21.14472,79.107595,PM2.5,58,95,71
India,Maharashtra,Nagpur,"Mahal, Nagpur - MPCB",17-04-2024 09:00:00,21.14472,79.107595,PM10,61,129,93
India,Maharashtra,Nagpur,"Opp GPO Civil Lines, Nagpur - MPCB",17-04-2024 09:00:00,21.152875,79.0517531,PM10,46,119,82
India,Maharashtra,Nanded,"Sneh Nagar, Nanded - MPCB",17-04-2024 09:00:00,19.173852,77.296291,PM2.5,43,95,74
India,Maharashtra,Nanded,"Sneh Nagar, Nanded - MPCB",17-04-2024 09:00:00,19.173852,77.296291,PM10,79,156,107
India,Maharashtra,Nanded,"Sneh Nagar, Nanded - MPCB",17-04-2024 09:00:00,19.173852,77.296291,CO,30,42,36
India,Maharashtra,Nanded,"Sneh Nagar, Nanded - MPCB",17-04-2024 09:00:00,19.173852,77.296291,OZONE,17,120,32
India,Maharashtra,Nashik,"Gangapur Road, Nashik - MPCB",17-04-2024 09:00:00,20.0073285,73.7762427,PM2.5,37,74,54
India,Maharashtra,Nashik,"Gangapur Road, Nashik - MPCB",17-04-2024 09:00:00,20.0073285,73.7762427,CO,24,143,115
India,Maharashtra,Nashik,"Hirawadi, Nashik - MPCB",17-04-2024 09:00:00,20.021503,73.813844,PM10,48,219,90
India,Maharashtra,Nashik,"Hirawadi, Nashik - MPCB",17-04-2024 09:00:00,20.021503,73.813844,NO2,1,91,24
India,Maharashtra,Nashik,"MIDC Ambad, Nashik - MPCB",17-04-2024 09:00:00,19.950220,73.731480,NO2,11,50,25
India,Maharashtra,Nashik,"MIDC Ambad, Nashik - MPCB",17-04-2024 09:00:00,19.950220,73.731480,CO,37,113,83
India,Maharashtra,Navi Mumbai,"Kopripada-Vashi, Navi Mumbai - MPCB",17-04-2024 09:00:00,19.090337,73.014232,NH3,6,14,8
India,Maharashtra,Navi Mumbai,"Mahape, Navi Mumbai - MPCB",17-04-2024 09:00:00,19.1135051,73.008978,PM10,65,435,154
India,Maharashtra,Navi Mumbai,"Sanpada, Navi Mumbai - MPCB",17-04-2024 09:00:00,19.0575752,73.0151367,NH3,1,9,4
India,Maharashtra,Navi Mumbai,"Sanpada, Navi Mumbai - MPCB",17-04-2024 09:00:00,19.0575752,73.0151367,OZONE,15,113,32
India,Maharashtra,Navi Mumbai,"Sector-19A Nerul, Navi Mumbai - IITM",17-04-2024 09:00:00,19.044,73.0325,NH3,7,11,8
India,Maharashtra,Navi Mumbai,"Sector-19A Nerul, Navi Mumbai - IITM",17-04-2024 09:00:00,19.044,73.0325,OZONE,38,183,63
India,Maharashtra,Navi Mumbai,"Sector-2E Kalamboli, Navi Mumbai - MPCB",17-04-2024 09:00:00,19.02579,73.10297,PM2.5,35,112,75
India,Maharashtra,Navi Mumbai,"Sector-2E Kalamboli, Navi Mumbai - MPCB",17-04-2024 09:00:00,19.02579,73.10297,PM10,47,180,114
India,Maharashtra,Navi Mumbai,"Sector-2E Kalamboli, Navi Mumbai - MPCB",17-04-2024 09:00:00,19.02579,73.10297,NO2,9,71,34
India,Maharashtra,Navi Mumbai,"Sector-2E Kalamboli, Navi Mumbai - MPCB",17-04-2024 09:00:00,19.02579,73.10297,NH3,1,4,1
India,Maharashtra,Navi Mumbai,"Sector-2E Kalamboli, Navi Mumbai - MPCB",17-04-2024 09:00:00,19.02579,73.10297,SO2,1,27,9
India,Maharashtra,Navi Mumbai,"Sector-2E Kalamboli, Navi Mumbai - MPCB",17-04-2024 09:00:00,19.02579,73.10297,CO,2,47,7
India,Maharashtra,Navi Mumbai,"Tondare-Taloja, Navi Mumbai - MPCB",17-04-2024 09:00:00,19.0630,73.1209,PM10,97,186,138
India,Maharashtra,Parbhani,"Masoom Colony, Parbhani - MPCB",17-04-2024 09:00:00,19.265594,76.761463,NO2,17,39,26
India,Maharashtra,Pimpri-Chinchwad,"Gavalinagar, Pimpri Chinchwad - MPCB",17-04-2024 09:00:00,18.63673,73.82487,PM2.5,56,104,78
India,Maharashtra,Pimpri-Chinchwad,"Gavalinagar, Pimpri Chinchwad - MPCB",17-04-2024 09:00:00,18.63673,73.82487,CO,18,62,44
India,Maharashtra,Pimpri-Chinchwad,"Gavalinagar, Pimpri Chinchwad - MPCB",17-04-2024 09:00:00,18.63673,73.82487,OZONE,7,175,28
India,Maharashtra,Pimpri-Chinchwad,"Park Street Wakad, Pimpri Chinchwad - MPCB",17-04-2024 09:00:00,18.59051,73.77946,PM2.5,9,232,87
India,Maharashtra,Pimpri-Chinchwad,"Park Street Wakad, Pimpri Chinchwad - MPCB",17-04-2024 09:00:00,18.59051,73.77946,PM10,40,194,102
India,Maharashtra,Pimpri-Chinchwad,"Thergaon, Pimpri Chinchwad - MPCB",17-04-2024 09:00:00,18.616318,73.765797,PM10,NA,NA,NA
India,Maharashtra,Pimpri-Chinchwad,"Thergaon, Pimpri Chinchwad - MPCB",17-04-2024 09:00:00,18.616318,73.765797,NO2,NA,NA,NA
India,Maharashtra,Pimpri-Chinchwad,"Thergaon, Pimpri Chinchwad - MPCB",17-04-2024 09:00:00,18.616318,73.765797,NH3,NA,NA,NA
India,Maharashtra,Pimpri-Chinchwad,"Thergaon, Pimpri Chinchwad - MPCB",17-04-2024 09:00:00,18.616318,73.765797,CO,NA,NA,NA
India,Maharashtra,Pune,"Katraj Dairy, Pune - MPCB",17-04-2024 09:00:00,18.454450,73.854155,OZONE,NA,NA,NA
India,Maharashtra,Pune,"Revenue Colony-Shivajinagar, Pune - IITM",17-04-2024 09:00:00,18.530085,73.849598,PM10,68,113,90
India,Maharashtra,Pune,"Revenue Colony-Shivajinagar, Pune - IITM",17-04-2024 09:00:00,18.530085,73.849598,SO2,86,133,109
India,Maharashtra,Sangli,"Vijay Nagar, Sangli - MPCB",17-04-2024 09:00:00, 16.5038,74.3623,CO,15,38,26
India,Maharashtra,Solapur,"Dnyaneshwar Nagar, Solapur - MPCB",17-04-2024 09:00:00,17.6336264,75.9132495,NH3,21,33,24
India,Maharashtra,Solapur,"Dnyaneshwar Nagar, Solapur - MPCB",17-04-2024 09:00:00,17.6336264,75.9132495,SO2,3,9,5
India,Maharashtra,Solapur,"Dnyaneshwar Nagar, Solapur - MPCB",17-04-2024 09:00:00,17.6336264,75.9132495,CO,14,42,23
India,Maharashtra,Solapur,"Ratandeep Housing Society, Solapur - MPCB",17-04-2024 09:00:00,17.65439,75.90649,PM2.5,31,216,80
India,Maharashtra,Solapur,"Ratandeep Housing Society, Solapur - MPCB",17-04-2024 09:00:00,17.65439,75.90649,SO2,2,20,9
India,Maharashtra,Solapur,"Solapur, Solapur - MPCB",17-04-2024 09:00:00,17.6599188,75.9063906,PM10,132,155,151
India,Maharashtra,Thane,"Pimpleshwar Mandir, Thane - MPCB",17-04-2024 09:00:00,19.192056,72.9585188,SO2,1,106,18
India,Maharashtra,Virar,"Bolinj, Virar - MPCB",17-04-2024 09:00:00,19.4458210,72.7988231,PM10,66,117,98
India,Maharashtra,Virar,"Bolinj, Virar - MPCB",17-04-2024 09:00:00,19.4458210,72.7988231,NH3,7,13,9
India,Manipur,Imphal,"Manipur University, Imphal - Manipur PCB",17-04-2024 09:00:00,24.7524239,93.9286218,NO2,9,20,13
India,Meghalaya,Shillong,"Lumpyngngad, Shillong - Meghalaya PCB",17-04-2024 09:00:00,25.5586,91.8985,SO2,39,44,41
India,Odisha,Angul,"Hakimapada, Angul - OSPCB",17-04-2024 09:00:00,20.832874,85.104082,OZONE,13,179,29
India,Odisha,Balasore,"Kalidaspur, Balasore - OSPCB",17-04-2024 09:00:00,21.51161,86.89088,CO,22,98,62
India,Odisha,Balasore,"Kalidaspur, Balasore - OSPCB",17-04-2024 09:00:00,21.51161,86.89088,OZONE,16,154,46
India,Odisha,Barbil,"Forest Office, Barbil - OSPCB",17-04-2024 09:00:00,22.1166054,85.3945546,PM10,101,241,159
India,Odisha,Bhubaneswar,"Lingraj Mandir, Bhubaneswar - OSPCB",17-04-2024 09:00:00,20.240790,85.836784,SO2,2,17,6
India,Odisha,Bhubaneswar,"Patia, Bhubaneswar - OSPCB",17-04-2024 09:00:00,20.34652,85.81630,OZONE,18,220,41
India,Odisha,Bileipada,"Tata Township, Bileipada - OSPCB",17-04-2024 09:00:00,22.06156703,85.47409613,OZONE,14,28,19
India,Odisha,Brajrajnagar,"GM Office, Brajrajnagar - OSPCB",17-04-2024 09:00:00,21.8004996,83.8396977,PM10,58,163,105
India,Odisha,Keonjhar,"Jagamohanpur, Keonjhar - OSPCB",17-04-2024 09:00:00,21.643900,85.599355,SO2,1,2,1
India,Odisha,Nayagarh,"Dabuna, Nayagarh - OSPCB",17-04-2024 09:00:00,21.847279,85.416905,CO,17,38,32
India,Odisha,Rairangpur,"Divisional Forest Office, Rairangpur - OSPCB",17-04-2024 09:00:00,22.265816,86.174829,CO,7,28,23
India,Odisha,Rourkela,"Fertilizer Township, Rourkela - OSPCB",17-04-2024 09:00:00,22.18972222,84.86277778,SO2,11,13,12
India,Odisha,Rourkela,"Raghunathpali, Rourkela - OSPCB",17-04-2024 09:00:00,22.220833,84.809444,PM2.5,90,263,173
India,Odisha,Rourkela,"Raghunathpali, Rourkela - OSPCB",17-04-2024 09:00:00,22.220833,84.809444,PM10,90,175,131
India,Odisha,Rourkela,"Sector-2, Rourkela - OSPCB",17-04-2024 09:00:00,22.24500000,84.88111111,CO,12,64,31
India,Odisha,Suakati,"OMC Colony, Suakati - OSPCB",17-04-2024 09:00:00,21.606865,85.510538,PM10,98,132,105
India,Odisha,Suakati,"OMC Colony, Suakati - OSPCB",17-04-2024 09:00:00,21.606865,85.510538,OZONE,54,185,75
India,Odisha,Talcher,"Talcher Coalfields,Talcher - OSPCB",17-04-2024 09:00:00,20.9360711,85.1707021,NO2,18,24,20
India,Odisha,Tensa,"Barsua Iron Ore Mines, Tensa - OSPCB",17-04-2024 09:00:00,21.869985,85.167016,NO2,19,88,31
India,Puducherry,Puducherry,"Jawahar Nagar, Puducherry - PPCC",17-04-2024 09:00:00,11.9309,79.8027,PM10,13,53,31
India,Puducherry,Puducherry,"Jawahar Nagar, Puducherry - PPCC",17-04-2024 09:00:00,11.9309,79.8027,CO,21,40,31
India,Punjab,Amritsar,"Golden Temple, Amritsar - PPCB",17-04-2024 09:00:00,31.620000,74.876512,SO2,8,62,25
India,Punjab,Bathinda,"Hardev Nagar, Bathinda - PPCB",17-04-2024 09:00:00,30.233011,74.907758,PM2.5,14,78,36
India,Punjab,Bathinda,"Hardev Nagar, Bathinda - PPCB",17-04-2024 09:00:00,30.233011,74.907758,NO2,26,32,29
India,Punjab,Khanna,"Kalal Majra, Khanna - PPCB",17-04-2024 09:00:00,30.736056 ,76.209694,NH3,15,15,15
India,Punjab,Mandi Gobindgarh,"RIMT University, Mandi Gobindgarh - PPCB",17-04-2024 09:00:00,30.649961,76.331442,PM2.5,201,372,286
India,Punjab,Patiala,"Model Town, Patiala - PPCB",17-04-2024 09:00:00,30.349388,76.366642,NH3,6,7,6
India,Punjab,Patiala,"Model Town, Patiala - PPCB",17-04-2024 09:00:00,30.349388,76.366642,CO,18,34,25
India,Rajasthan,Alwar,"Moti Doongri, Alwar - RSPCB",17-04-2024 09:00:00,27.554793,76.611536,OZONE,14,38,15
India,Rajasthan,Banswara,"Rati Talai, Banswara - RSPCB",17-04-2024 09:00:00,23.555190,74.440010,PM10,NA,NA,NA
India,Rajasthan,Baran,"Bamboliya, Baran - RSPCB",17-04-2024 09:00:00,25.106006,76.469948,PM2.5,NA,NA,NA
India,Rajasthan,Bharatpur,"Krishna Nagar, Bharatpur - RSPCB",17-04-2024 09:00:00,27.215415,77.50873,PM10,116,220,143
India,Rajasthan,Bhiwadi,"RIICO Ind. Area III, Bhiwadi - RSPCB",17-04-2024 09:00:00,28.194909,76.862296,PM2.5,49,210,116
India,Rajasthan,Bhiwadi,"RIICO Ind. Area III, Bhiwadi - RSPCB",17-04-2024 09:00:00,28.194909,76.862296,PM10,116,190,147
India,Rajasthan,Bhiwadi,"RIICO Ind. Area III, Bhiwadi - RSPCB",17-04-2024 09:00:00,28.194909,76.862296,NO2,13,60,29
India,Rajasthan,Bhiwadi,"Vasundhara Nagar_UIT, Bhiwadi - RSPCB",17-04-2024 09:00:00,28.207266,76.829265,SO2,6,14,9
India,Rajasthan,Bhiwadi,"Vasundhara Nagar_UIT, Bhiwadi - RSPCB",17-04-2024 09:00:00,28.207266,76.829265,OZONE,23,86,33
India,Rajasthan,Bikaner,"MM Ground, Bikaner - RSPCB",17-04-2024 09:00:00,28.018792,73.292658,NO2,34,60,44
India,Rajasthan,Bikaner,"MM Ground, Bikaner - RSPCB",17-04-2024 09:00:00,28.018792,73.292658,NH3,14,32,17
India,Rajasthan,Bundi,"New Colony, Bundi - RSPCB",17-04-2024 09:00:00,25.435774,75.644272,NO2,9,24,14
India,Rajasthan,Dausa,"Khatikan Mohalla, Dausa - RSPCB",17-04-2024 09:00:00,26.895552,76.334753,NO2,24,89,54
India,Rajasthan,Dholpur,"Raja Ganj, Dholpur - RSPCB",17-04-2024 09:00:00,26.699557,77.898881,CO,6,28,17
India,Rajasthan,Dungarpur,"Bhoiwada, Dungarpur - RSPCB",17-04-2024 09:00:00,23.837789,73.714926,PM10,45,132,62
India,Rajasthan,Dungarpur,"Bhoiwada, Dungarpur - RSPCB",17-04-2024 09:00:00,23.837789,73.714926,NO2,10,39,21
India,Rajasthan,Dungarpur,"Bhoiwada, Dungarpur - RSPCB",17-04-2024 09:00:00,23.837789,73.714926,SO2,1,3,2
India,Rajasthan,Hanumangarh,"Housing Board, Hanumangarh - RSPCB",17-04-2024 09:00:00,29.610750,74.283608,SO2,1,20,7
India,Rajasthan,Jaipur,"Adarsh Nagar, Jaipur - RSPCB",17-04-2024 09:00:00,26.902909,75.836858,PM10,56,93,73
India,Rajasthan,Jaipur,"Adarsh Nagar, Jaipur - RSPCB",17-04-2024 09:00:00,26.902909,75.836858,NH3,4,8,5
India,Rajasthan,Jaipur,"RIICO Sitapura, Jaipur - RSPCB",17-04-2024 09:00:00,26.786682,75.827928,NH3,13,21,16
India,Rajasthan,Jaipur,"RIICO Sitapura, Jaipur - RSPCB",17-04-2024 09:00:00,26.786682,75.827928,SO2,10,21,13
India,Rajasthan,Jaipur,"RIICO Sitapura, Jaipur - RSPCB",17-04-2024 09:00:00,26.786682,75.827928,CO,20,44,27
India,Rajasthan,Jaipur,"Shastri Nagar, Jaipur - RSPCB",17-04-2024 09:00:00,26.9502929,75.730943,NO2,21,84,36
India,Rajasthan,Jaipur,"Shastri Nagar, Jaipur - RSPCB",17-04-2024 09:00:00,26.9502929,75.730943,CO,21,40,31
India,Rajasthan,Jaisalmer,"Sadar Bazar, Jaisalmer - RSPCB",17-04-2024 09:00:00,26.912329,70.909168,SO2,3,6,4
India,Rajasthan,Jalore,"Mudtra Sili, Jalore - RSPCB",17-04-2024 09:00:00,25.344694,72.626208,PM10,60,345,127
India,Rajasthan,Jalore,"Mudtra Sili, Jalore - RSPCB",17-04-2024 09:00:00,25.344694,72.626208,NH3,5,11,7
India,Rajasthan,Jhunjhunu,"Indra Nagar, Jhunjhunu - RSPCB",17-04-2024 09:00:00,28.108988,75.386577,PM10,63,140,80
India,Rajasthan,Jodhpur,"Collectorate, Jodhpur - RSPCB",17-04-2024 09:00:00,26.268249,73.0193853,NO2,9,56,24
India,Rajasthan,Jodhpur,"Collectorate, Jodhpur - RSPCB",17-04-2024 09:00:00,26.268249,73.0193853,OZONE,34,122,64
India,Rajasthan,Jodhpur,"Digari Kalan, Jodhpur - RSPCB",17-04-2024 09:00:00,26.295810,73.082283,PM10,43,148,97
India,Rajasthan,Jodhpur,"Digari Kalan, Jodhpur - RSPCB",17-04-2024 09:00:00,26.295810,73.082283,NH3,5,12,7
India,Rajasthan,Jodhpur,"Jhalamand, Jodhpur - RSPCB",17-04-2024 09:00:00,26.215415,73.070156,NH3,6,22,11
India,Rajasthan,Jodhpur,"Jhalamand, Jodhpur - RSPCB",17-04-2024 09:00:00,26.215415,73.070156,CO,8,52,16
India,Rajasthan,Jodhpur,"Mandor, Jodhpur - RSPCB",17-04-2024 09:00:00,26.358805,73.047444,PM2.5,6,41,27
India,Rajasthan,Jodhpur,"Samrat Ashok Udhyan, Jodhpur - RSPCB",17-04-2024 09:00:00,26.253384,72.976571,NH3,4,7,6
India,Rajasthan,Karauli,"Satyawati Vihar, Karauli - RSPCB",17-04-2024 09:00:00,26.506177,77.025989,NH3,8,12,10
India,Rajasthan,Karauli,"Satyawati Vihar, Karauli - RSPCB",17-04-2024 09:00:00,26.506177,77.025989,CO,8,20,13
India,Rajasthan,Kota,"Dhanmandi, Kota - RSPCB",17-04-2024 09:00:00,25.164090,75.858137,PM2.5,2,128,42
India,Rajasthan,Kota,"Dhanmandi, Kota - RSPCB",17-04-2024 09:00:00,25.164090,75.858137,NO2,12,117,46
India,Rajasthan,Kota,"Nayapura, Kota - RSPCB",17-04-2024 09:00:00,25.196024,75.855668,CO,12,114,34
India,Rajasthan,Kota,"Shrinath Puram, Kota - RSPCB",17-04-2024 09:00:00,25.14389,75.821256,PM2.5,36,175,77
India,Rajasthan,Kota,"Shrinath Puram, Kota - RSPCB",17-04-2024 09:00:00,25.14389,75.821256,PM10,64,156,92
India,Rajasthan,Kota,"Shrinath Puram, Kota - RSPCB",17-04-2024 09:00:00,25.14389,75.821256,NH3,7,12,9
India,Rajasthan,Kota,"Shrinath Puram, Kota - RSPCB",17-04-2024 09:00:00,25.14389,75.821256,SO2,4,61,16
India,Rajasthan,Nagaur,"Karni Colony, Nagaur - RSPCB",17-04-2024 09:00:00,27.213494,73.734444,NO2,14,29,21
India,Rajasthan,Nagaur,"Karni Colony, Nagaur - RSPCB",17-04-2024 09:00:00,27.213494,73.734444,NH3,6,14,9
India,Rajasthan,Nagaur,"Karni Colony, Nagaur - RSPCB",17-04-2024 09:00:00,27.213494,73.734444,SO2,3,7,4
India,Rajasthan,Pali,"Indira Colony Vistar, Pali - RSPCB",17-04-2024 09:00:00,25.771061, 73.340227,NH3,1,5,2
India,Rajasthan,Pali,"Indira Colony Vistar, Pali - RSPCB",17-04-2024 09:00:00,25.771061, 73.340227,CO,20,78,48
India,Rajasthan,Pratapgarh,"Pragati Nagar, Pratapgarh - RSPCB",17-04-2024 09:00:00,24.041198,74.780702,PM10,36,98,57
India,Rajasthan,Pratapgarh,"Pragati Nagar, Pratapgarh - RSPCB",17-04-2024 09:00:00,24.041198,74.780702,CO,10,24,16
India,Rajasthan,Sawai Madhopur,"Sahu Nagar, Sawai Madhopur - RSPCB",17-04-2024 09:00:00,26.031443,76.359327,CO,13,70,42
India,Rajasthan,Sawai Madhopur,"Sahu Nagar, Sawai Madhopur - RSPCB",17-04-2024 09:00:00,26.031443,76.359327,OZONE,11,94,35
India,Rajasthan,Sri Ganganagar,"Old City, Sri Ganganagar - RSPCB",17-04-2024 09:00:00,29.931624,73.864511,PM2.5,52,306,157
India,Rajasthan,Sri Ganganagar,"Old City, Sri Ganganagar - RSPCB",17-04-2024 09:00:00,29.931624,73.864511,NO2,22,84,49
India,Rajasthan,Sri Ganganagar,"Old City, Sri Ganganagar - RSPCB",17-04-2024 09:00:00,29.931624,73.864511,CO,28,62,32
India,Rajasthan,Udaipur,"Ashok Nagar, Udaipur - RSPCB",17-04-2024 09:00:00,24.5886166,73.6321397,NH3,5,14,8
India,Rajasthan,Udaipur,"Ashok Nagar, Udaipur - RSPCB",17-04-2024 09:00:00,24.5886166,73.6321397,OZONE,6,42,19
India,Sikkim,Gangtok,"Zero Point GICI, Gangtok - SSPCB",17-04-2024 09:00:00,27.338530,88.614099,PM10,13,73,42
India,Sikkim,Gangtok,"Zero Point GICI, Gangtok - SSPCB",17-04-2024 09:00:00,27.338530,88.614099,NO2,1,10,3
India,Sikkim,Gangtok,"Zero Point GICI, Gangtok - SSPCB",17-04-2024 09:00:00,27.338530,88.614099,OZONE,32,83,44
India,TamilNadu,Ariyalur,"Keelapalur, Ariyalur - TNPCB",17-04-2024 09:00:00,11.06825,79.07033,PM2.5,28,53,42
India,TamilNadu,Chengalpattu,"Crescent University, Chengalpattu - TNPCB",17-04-2024 09:00:00,12.8777316,80.0834807,PM2.5,18,40,28
India,TamilNadu,Chengalpattu,"Crescent University, Chengalpattu - TNPCB",17-04-2024 09:00:00,12.8777316,80.0834807,NH3,23,24,23
India,TamilNadu,Chennai,"Alandur Bus Depot, Chennai - CPCB",17-04-2024 09:00:00,12.9099161,80.1076538,PM10,28,50,36
India,TamilNadu,Chennai,"Kodungaiyur, Chennai - TNPCB",17-04-2024 09:00:00,13.1278,80.2642,PM10,16,135,55
India,TamilNadu,Chennai,"Manali, Chennai - CPCB",17-04-2024 09:00:00,13.164544,80.26285,PM2.5,36,98,72
India,TamilNadu,Chennai,"Manali, Chennai - CPCB",17-04-2024 09:00:00,13.164544,80.26285,PM10,37,100,73
India,TamilNadu,Chennai,"Perungudi, Chennai - TNPCB",17-04-2024 09:00:00,12.9533,80.2357,PM2.5,14,52,29
India,TamilNadu,Chennai,"Perungudi, Chennai - TNPCB",17-04-2024 09:00:00,12.9533,80.2357,NH3,2,3,2
India,TamilNadu,Chennai,"Royapuram, Chennai - TNPCB",17-04-2024 09:00:00,13.1036,80.2909,PM10,25,95,51
India,TamilNadu,Chennai,"Velachery Res. Area, Chennai - CPCB",17-04-2024 09:00:00,13.0052189,80.2398125,PM10,27,41,35
India,TamilNadu,Coimbatore,"PSG College of Arts and Science, Coimbatore - TNPCB",17-04-2024 09:00:00,11.0328,77.0349,PM2.5,11,67,44
India,TamilNadu,Gummidipoondi,"Anthoni Pillai Nagar, Gummidipoondi - TNPCB",17-04-2024 09:00:00,13.4127,80.1081,PM10,76,122,96
India,TamilNadu,Palkalaiperur,"Bharathidasan University, Palkalaiperur - TNPCB",17-04-2024 09:00:00,10.681158,78.741746,PM10,NA,NA,NA
India,TamilNadu,Ramanathapuram,"Chalai Bazaar, Ramanathapuram - TNPCB",17-04-2024 09:00:00,9.36399,78.831977,PM10,8,73,43
India,TamilNadu,Salem,"Sona College of Technology, Salem - TNPCB",17-04-2024 09:00:00,11.679111,78.125052,NO2,NA,NA,NA
India,TamilNadu,Salem,"Sona College of Technology, Salem - TNPCB",17-04-2024 09:00:00,11.679111,78.125052,NH3,NA,NA,NA
India,TamilNadu,Thoothukudi,"Meelavittan, Thoothukudi - TNPCB",17-04-2024 09:00:00,8.816428 ,78.099039,NO2,23,43,32
India,TamilNadu,Thoothukudi,"Meelavittan, Thoothukudi - TNPCB",17-04-2024 09:00:00,8.816428 ,78.099039,SO2,NA,NA,NA
India,TamilNadu,Thoothukudi,"Meelavittan, Thoothukudi - TNPCB",17-04-2024 09:00:00,8.816428 ,78.099039,CO,3,53,19
India,TamilNadu,Tirupur,"Kumaran College, Tirupur - TNPCB",17-04-2024 09:00:00,11.0973603,77.3228673,PM2.5,NA,NA,NA
India,TamilNadu,Vellore,"Vasanthapuram, Vellore - TNPCB",17-04-2024 09:00:00,12.909494,79.131861,NO2,NA,NA,NA
India,TamilNadu,Virudhunagar,"Collectorate Office, Virudhunagar - TNPCB",17-04-2024 09:00:00,9.559382,77.948828,SO2,6,71,11
India,Telangana,Hyderabad,"Bollaram Industrial Area, Hyderabad - TSPCB",17-04-2024 09:00:00,17.540891,78.358528,PM2.5,53,88,69
India,Telangana,Hyderabad,"Central University, Hyderabad - TSPCB",17-04-2024 09:00:00,17.460103,78.334361,PM2.5,28,59,42
India,Telangana,Hyderabad,"Central University, Hyderabad - TSPCB",17-04-2024 09:00:00,17.460103,78.334361,OZONE,3,4,3
India,Telangana,Hyderabad,"ECIL Kapra, Hyderabad - TSPCB",17-04-2024 09:00:00,17.470431,78.566959,PM10,80,103,88
India,Telangana,Hyderabad,"Kompally Municipal Office, Hyderabad - TSPCB",17-04-2024 09:00:00,17.544899,78.486949,NO2,NA,NA,NA
India,Telangana,Hyderabad,"Kompally Municipal Office, Hyderabad - TSPCB",17-04-2024 09:00:00,17.544899,78.486949,SO2,NA,NA,NA
India,Telangana,Hyderabad,"Kompally Municipal Office, Hyderabad - TSPCB",17-04-2024 09:00:00,17.544899,78.486949,CO,NA,NA,NA
India,Telangana,Hyderabad,"Nacharam_TSIIC IALA, Hyderabad - TSPCB",17-04-2024 09:00:00,17.429398,78.569354,NO2,NA,NA,NA
India,Telangana,Hyderabad,"Nacharam_TSIIC IALA, Hyderabad - TSPCB",17-04-2024 09:00:00,17.429398,78.569354,SO2,NA,NA,NA
India,Telangana,Hyderabad,"Ramachandrapuram, Hyderabad - TSPCB",17-04-2024 09:00:00,17.528544,78.286195,CO,26,28,27
India,Telangana,Hyderabad,"Somajiguda, Hyderabad - TSPCB",17-04-2024 09:00:00,17.417094,78.457437,PM2.5,30,67,51
India,Uttar_Pradesh,Agra,"Rohta, Agra - UPPCB",17-04-2024 09:00:00,27.106972,78.000111,NO2,2,2,2
India,Uttar_Pradesh,Agra,"Rohta, Agra - UPPCB",17-04-2024 09:00:00,27.106972,78.000111,OZONE,13,15,15
India,Uttar_Pradesh,Agra,"Sanjay Palace, Agra - UPPCB",17-04-2024 09:00:00,27.19865833,78.00598056,PM2.5,5,30,18
India,Uttar_Pradesh,Agra,"Sanjay Palace, Agra - UPPCB",17-04-2024 09:00:00,27.19865833,78.00598056,CO,4,47,35
India,Uttar_Pradesh,Agra,"Sector-3B Avas Vikas Colony, Agra - UPPCB",17-04-2024 09:00:00,27.19412,77.96237,NO2,19,23,22
India,Uttar_Pradesh,Agra,"Sector-3B Avas Vikas Colony, Agra - UPPCB",17-04-2024 09:00:00,27.19412,77.96237,CO,6,15,11
India,Uttar_Pradesh,Agra,"Shahjahan Garden, Agra - UPPCB",17-04-2024 09:00:00,27.169338,78.03582,PM10,35,130,82
India,Uttar_Pradesh,Agra,"Shastripuram, Agra - UPPCB",17-04-2024 09:00:00,27.19862,77.92066,CO,6,14,12
India,Uttar_Pradesh,Baghpat,"Sardar Patel Inter College, Baghpat - UPPCB",17-04-2024 09:00:00,28.964949,77.278761,NO2,1,48,29
India,Uttar_Pradesh,Baghpat,"Sardar Patel Inter College, Baghpat - UPPCB",17-04-2024 09:00:00,28.964949,77.278761,NH3,1,4,2
India,Uttar_Pradesh,Bareilly,"Rajendra Nagar, Bareilly - UPPCB",17-04-2024 09:00:00,28.38910936,79.42963708,NO2,2,3,2
India,Uttar_Pradesh,Bulandshahr,"Yamunapuram, Bulandshahr - UPPCB",17-04-2024 09:00:00,28.406963,77.849831,PM10,84,196,115
India,Uttar_Pradesh,Bulandshahr,"Yamunapuram, Bulandshahr - UPPCB",17-04-2024 09:00:00,28.406963,77.849831,SO2,1,40,15
India,Uttar_Pradesh,Bulandshahr,"Yamunapuram, Bulandshahr - UPPCB",17-04-2024 09:00:00,28.406963,77.849831,CO,22,62,33
India,Uttar_Pradesh,Bulandshahr,"Yamunapuram, Bulandshahr - UPPCB",17-04-2024 09:00:00,28.406963,77.849831,OZONE,17,77,26
India,Uttar_Pradesh,Firozabad,"Nagla Bhau, Firozabad - UPPCB",17-04-2024 09:00:00,27.168897,78.376960,NH3,2,2,2
India,Uttar_Pradesh,Firozabad,"Nagla Bhau, Firozabad - UPPCB",17-04-2024 09:00:00,27.168897,78.376960,CO,20,28,24
India,Uttar_Pradesh,Firozabad,"Nagla Bhau, Firozabad - UPPCB",17-04-2024 09:00:00,27.168897,78.376960,OZONE,16,21,17
India,Uttar_Pradesh,Firozabad,"Vibhab Nagar, Firozabad - UPPCB",17-04-2024 09:00:00,27.1594,78.3953,CO,13,24,19
India,Uttar_Pradesh,Ghaziabad,"Loni, Ghaziabad - UPPCB",17-04-2024 09:00:00,28.757294,77.278792,PM10,58,184,120
India,Uttar_Pradesh,Ghaziabad,"Loni, Ghaziabad - UPPCB",17-04-2024 09:00:00,28.757294,77.278792,SO2,6,53,17
India,Uttar_Pradesh,Ghaziabad,"Loni, Ghaziabad - UPPCB",17-04-2024 09:00:00,28.757294,77.278792,CO,12,65,45
India,Uttar_Pradesh,Ghaziabad,"Sanjay Nagar, Ghaziabad - UPPCB",17-04-2024 09:00:00,28.685382,77.453839,PM2.5,12,302,82
India,Uttar_Pradesh,Ghaziabad,"Sanjay Nagar, Ghaziabad - UPPCB",17-04-2024 09:00:00,28.685382,77.453839,PM10,105,228,130
India,Uttar_Pradesh,Ghaziabad,"Sanjay Nagar, Ghaziabad - UPPCB",17-04-2024 09:00:00,28.685382,77.453839,NO2,24,52,35
India,Uttar_Pradesh,Ghaziabad,"Sanjay Nagar, Ghaziabad - UPPCB",17-04-2024 09:00:00,28.685382,77.453839,SO2,11,67,41
India,Uttar_Pradesh,Ghaziabad,"Sanjay Nagar, Ghaziabad - UPPCB",17-04-2024 09:00:00,28.685382,77.453839,CO,6,36,30
India,Uttar_Pradesh,Ghaziabad,"Vasundhara, Ghaziabad - UPPCB",17-04-2024 09:00:00,28.6603346,77.3572563,PM2.5,15,163,56
India,Uttar_Pradesh,Ghaziabad,"Vasundhara, Ghaziabad - UPPCB",17-04-2024 09:00:00,28.6603346,77.3572563,NH3,7,13,10
India,Uttar_Pradesh,Ghaziabad,"Vasundhara, Ghaziabad - UPPCB",17-04-2024 09:00:00,28.6603346,77.3572563,SO2,6,124,51
India,Uttar_Pradesh,Gorakhpur,"Madan Mohan Malaviya University of Technology, Gorakhpur - UPPCB",17-04-2024 09:00:00,26.730136,83.433859,NH3,NA,NA,NA
India,Uttar_Pradesh,Gorakhpur,"Madan Mohan Malaviya University of Technology, Gorakhpur - UPPCB",17-04-2024 09:00:00,26.730136,83.433859,CO,NA,NA,NA
India,Uttar_Pradesh,Greater Noida,"Knowledge Park - III, Greater Noida - UPPCB",17-04-2024 09:00:00,28.47272,77.482000,NO2,15,224,47
India,Uttar_Pradesh,Greater Noida,"Knowledge Park - V, Greater Noida - UPPCB",17-04-2024 09:00:00,28.557054,77.453663,OZONE,62,127,76
India,Uttar_Pradesh,Hapur,"Anand Vihar, Hapur - UPPCB",17-04-2024 09:00:00,28.725645,77.749675,PM2.5,12,350,57
India,Uttar_Pradesh,Hapur,"Anand Vihar, Hapur - UPPCB",17-04-2024 09:00:00,28.725645,77.749675,NO2,4,36,10
India,Uttar_Pradesh,Jhansi,"Shivaji Nagar, Jhansi - UPPCB",17-04-2024 09:00:00,25.4547,78.6039,OZONE,9,50,29
India,Uttar_Pradesh,Kanpur,"FTI Kidwai Nagar, Kanpur - UPPCB",17-04-2024 09:00:00,26.428282,80.327067,NO2,12,12,12
India,Uttar_Pradesh,Kanpur,"NSI Kalyanpur, Kanpur - UPPCB",17-04-2024 09:00:00,26.509954,80.249612,PM2.5,9,95,62
India,Uttar_Pradesh,Kanpur,"NSI Kalyanpur, Kanpur - UPPCB",17-04-2024 09:00:00,26.509954,80.249612,NO2,11,14,11
India,Uttar_Pradesh,Khurja,"Kalindi Kunj, Khurja - UPPCB",17-04-2024 09:00:00,28.2348927,77.8683002,NO2,3,4,3
India,Uttar_Pradesh,Lucknow,"B R Ambedkar University, Lucknow - UPPCB",17-04-2024 09:00:00,26.766433,80.927299,CO,19,27,24
India,Uttar_Pradesh,Lucknow,"Gomti Nagar, Lucknow - UPPCB",17-04-2024 09:00:00,26.868120,81.005119,CO,38,44,39
India,Uttar_Pradesh,Lucknow,"Kendriya Vidyalaya, Lucknow - CPCB",17-04-2024 09:00:00,26.906111,80.948222,OZONE,8,73,52
India,Uttar_Pradesh,Lucknow,"Kukrail Picnic Spot-1, Lucknow - UPPCB",17-04-2024 09:00:00,26.90723,80.98579,CO,13,21,16
India,Uttar_Pradesh,Lucknow,"Lalbagh, Lucknow - CPCB",17-04-2024 09:00:00,26.8458805,80.9365541,PM2.5,66,182,84
India,Uttar_Pradesh,Lucknow,"Lalbagh, Lucknow - CPCB",17-04-2024 09:00:00,26.8458805,80.9365541,SO2,4,18,11
India,Uttar_Pradesh,Lucknow,"Talkatora District Industries Center, Lucknow - CPCB",17-04-2024 09:00:00,26.83399722,80.8917361,OZONE,2,81,7
India,Uttar_Pradesh,Meerut,"Ganga Nagar, Meerut - UPPCB",17-04-2024 09:00:00,28.999264,77.7590354,SO2,5,32,13
India,Uttar_Pradesh,Meerut,"Ganga Nagar, Meerut - UPPCB",17-04-2024 09:00:00,28.999264,77.7590354,CO,17,32,26
India,Uttar_Pradesh,Meerut,"Pallavpuram Phase 2, Meerut - UPPCB",17-04-2024 09:00:00,29.063510,77.709723,NH3,10,14,11
India,Uttar_Pradesh,Moradabad,"Buddhi Vihar, Moradabad - UPPCB",17-04-2024 09:00:00,28.83526,78.74460,CO,18,34,20
India,Uttar_Pradesh,Moradabad,"Eco Herbal Park, Moradabad - UPPCB",17-04-2024 09:00:00,28.840739,78.697531,PM2.5,12,84,28
India,Uttar_Pradesh,Moradabad,"Eco Herbal Park, Moradabad - UPPCB",17-04-2024 09:00:00,28.840739,78.697531,PM10,29,88,53
India,Uttar_Pradesh,Moradabad,"Eco Herbal Park, Moradabad - UPPCB",17-04-2024 09:00:00,28.840739,78.697531,NO2,5,44,16
India,Uttar_Pradesh,Moradabad,"Jigar Colony, Moradabad - UPPCB",17-04-2024 09:00:00,28.856664,78.772638,PM2.5,15,68,32
India,Uttar_Pradesh,Moradabad,"Jigar Colony, Moradabad - UPPCB",17-04-2024 09:00:00,28.856664,78.772638,NH3,4,6,4
India,Uttar_Pradesh,Moradabad,"Transport Nagar, Moradabad - UPPCB",17-04-2024 09:00:00,28.802625,78.753728,PM2.5,17,83,36
India,Uttar_Pradesh,Moradabad,"Transport Nagar, Moradabad - UPPCB",17-04-2024 09:00:00,28.802625,78.753728,PM10,31,114,67
India,Uttar_Pradesh,Moradabad,"Transport Nagar, Moradabad - UPPCB",17-04-2024 09:00:00,28.802625,78.753728,NO2,1,14,5
India,Uttar_Pradesh,Moradabad,"Transport Nagar, Moradabad - UPPCB",17-04-2024 09:00:00,28.802625,78.753728,SO2,42,52,45
India,Uttar_Pradesh,Moradabad,"Transport Nagar, Moradabad - UPPCB",17-04-2024 09:00:00,28.802625,78.753728,OZONE,21,44,27
India,Uttar_Pradesh,Muzaffarnagar,"New Mandi, Muzaffarnagar - UPPCB",17-04-2024 09:00:00,29.4723508,77.7194031,NO2,23,32,26
India,Uttar_Pradesh,Muzaffarnagar,"New Mandi, Muzaffarnagar - UPPCB",17-04-2024 09:00:00,29.4723508,77.7194031,CO,18,54,38
India,Uttar_Pradesh,Noida,"Sector - 125, Noida - UPPCB",17-04-2024 09:00:00,28.5447608,77.3231257,OZONE,4,45,24
India,Uttar_Pradesh,Noida,"Sector-1, Noida - UPPCB",17-04-2024 09:00:00,28.5898,77.3101,OZONE,29,111,50
India,Uttar_Pradesh,Noida,"Sector-116, Noida - UPPCB",17-04-2024 09:00:00,28.569230,77.393848,PM2.5,30,325,68
India,Uttar_Pradesh,Noida,"Sector-116, Noida - UPPCB",17-04-2024 09:00:00,28.569230,77.393848,SO2,13,72,29
India,Uttar_Pradesh,Noida,"Sector-116, Noida - UPPCB",17-04-2024 09:00:00,28.569230,77.393848,CO,20,50,32
India,Uttar_Pradesh,Noida,"Sector-116, Noida - UPPCB",17-04-2024 09:00:00,28.569230,77.393848,OZONE,62,142,76
India,Uttar_Pradesh,Prayagraj,"Jhunsi, Prayagraj - UPPCB",17-04-2024 09:00:00,25.425602,81.917152,PM2.5,27,52,38
India,Uttar_Pradesh,Prayagraj,"Jhunsi, Prayagraj - UPPCB",17-04-2024 09:00:00,25.425602,81.917152,SO2,30,32,31
India,Uttar_Pradesh,Prayagraj,"Jhunsi, Prayagraj - UPPCB",17-04-2024 09:00:00,25.425602,81.917152,OZONE,11,47,15
India,Uttar_Pradesh,Prayagraj,"Motilal Nehru NIT, Prayagraj - UPPCB",17-04-2024 09:00:00,25.494,81.863,OZONE,7,69,10
India,Uttar_Pradesh,Prayagraj,"Nagar Nigam, Prayagraj - UPPCB",17-04-2024 09:00:00,25.44919916 ,81.82735986 ,NO2,5,5,5
India,Uttar_Pradesh,Prayagraj,"Nagar Nigam, Prayagraj - UPPCB",17-04-2024 09:00:00,25.44919916 ,81.82735986 ,CO,12,32,18
India,Uttar_Pradesh,Varanasi,"Ardhali Bazar, Varanasi - UPPCB",17-04-2024 09:00:00,25.3505986,82.9083074,CO,13,28,21
India,Uttar_Pradesh,Varanasi,"Ardhali Bazar, Varanasi - UPPCB",17-04-2024 09:00:00,25.3505986,82.9083074,OZONE,13,15,14
India,Uttar_Pradesh,Varanasi,"Bhelupur, Varanasi - UPPCB",17-04-2024 09:00:00,25.301778,82.996789,OZONE,1,42,6
India,Uttar_Pradesh,Varanasi,"Maldahiya, Varanasi - UPPCB",17-04-2024 09:00:00,25.32393,82.99687,SO2,26,27,26
India,Uttar_Pradesh,Vrindavan,"Omex Eternity, Vrindavan - UPPCB",17-04-2024 09:00:00,27.5714090,77.6557570,CO,22,44,40
India,Uttarakhand,Rishikesh,"Shivaji Nagar, Rishikesh - UKPCB",17-04-2024 09:00:00,30.075911,78.2859547,NH3,2,4,3
India,West_Bengal,Asansol,"Asansol Court Area, Asansol - WBPCB",17-04-2024 09:00:00,23.685297,86.945968,OZONE,12,29,17
India,West_Bengal,Barrackpore,"SVSPA Campus, Barrackpore - WBPCB",17-04-2024 09:00:00,22.7605581,88.3617589,NH3,2,4,3
India,West_Bengal,Haldia,"Priyambada Housing Estate, Haldia - WBPCB",17-04-2024 09:00:00,22.06047,88.109737,PM2.5,27,61,41
India,West_Bengal,Haldia,"Priyambada Housing Estate, Haldia - WBPCB",17-04-2024 09:00:00,22.06047,88.109737,NH3,3,3,3
India,West_Bengal,Howrah,"Belur Math, Howrah - WBPCB",17-04-2024 09:00:00,22.629801,88.352017,CO,2,32,10
India,West_Bengal,Kolkata,"Fort William, Kolkata - WBPCB",17-04-2024 09:00:00,22.556640,88.342674,NO2,11,72,30
India,West_Bengal,Kolkata,"Jadavpur, Kolkata - WBPCB",17-04-2024 09:00:00,22.49929,88.36917,PM2.5,40,121,64
India,West_Bengal,Kolkata,"Rabindra Bharati University, Kolkata - WBPCB",17-04-2024 09:00:00,22.627847,88.380669,NH3,17,18,17
India,West_Bengal,Siliguri,"Ward-32 Bapupara, Siliguri - WBPCB",17-04-2024 09:00:00,26.6879226,88.4152495,PM10,65,96,82
India,Andhra_Pradesh,Amaravati,"Secretariat, Amaravati - APPCB",17-04-2024 09:00:00,16.5150833,80.5181667,PM10,33,87,57
India,Andhra_Pradesh,Anantapur,"Gulzarpet, Anantapur - APPCB",17-04-2024 09:00:00,14.675886,77.593027,NO2,21,39,28
India,Andhra_Pradesh,Anantapur,"Gulzarpet, Anantapur - APPCB",17-04-2024 09:00:00,14.675886,77.593027,CO,28,54,32
India,Andhra_Pradesh,Chittoor,"Gangineni Cheruvu, Chittoor - APPCB",17-04-2024 09:00:00,13.204880,79.097889,NO2,3,23,9
India,Andhra_Pradesh,Chittoor,"Gangineni Cheruvu, Chittoor - APPCB",17-04-2024 09:00:00,13.204880,79.097889,CO,18,31,25
India,Andhra_Pradesh,Chittoor,"Gangineni Cheruvu, Chittoor - APPCB",17-04-2024 09:00:00,13.204880,79.097889,OZONE,11,148,16
India,Andhra_Pradesh,Rajamahendravaram,"Anand Kala Kshetram, Rajamahendravaram - APPCB",17-04-2024 09:00:00,16.9872867,81.7363176,NO2,9,30,17
India,Andhra_Pradesh,Tirupati,"Tirumala, Tirupati - APPCB",17-04-2024 09:00:00,13.67,79.35,PM10,37,121,55
India,Andhra_Pradesh,Tirupati,"Vaikuntapuram, Tirupati - APPCB",17-04-2024 09:00:00,13.615387,79.409230,NH3,NA,NA,NA
India,Andhra_Pradesh,Vijayawada,"HB Colony, Vijayawada - APPCB",17-04-2024 09:00:00,16.536107,80.594233,PM2.5,NA,NA,NA
India,Andhra_Pradesh,Visakhapatnam,"GVM Corporation, Visakhapatnam - APPCB",17-04-2024 09:00:00,17.72,83.3,NO2,35,65,43
India,Assam,Guwahati,"IITG, Guwahati - PCBA",17-04-2024 09:00:00,26.2028636,91.70046436,PM10,57,98,84
India,Assam,Guwahati,"LGBI Airport, Guwahati - PCBA",17-04-2024 09:00:00,26.10887,91.589544,NH3,2,9,5
India,Assam,Guwahati,"LGBI Airport, Guwahati - PCBA",17-04-2024 09:00:00,26.10887,91.589544,OZONE,5,35,17
India,Assam,Guwahati,"Pan Bazaar, Guwahati - PCBA",17-04-2024 09:00:00,26.187500,91.744194,PM10,68,127,86
India,Assam,Guwahati,"Pan Bazaar, Guwahati - PCBA",17-04-2024 09:00:00,26.187500,91.744194,CO,27,44,37
India,Assam,Guwahati,"Railway Colony, Guwahati - PCBA",17-04-2024 09:00:00,26.181742,91.78063,NO2,3,4,3
India,Assam,Nagaon,"Christianpatty, Nagaon - PCBA",17-04-2024 09:00:00,26.349082,92.68449,NO2,1,47,11
India,Assam,Nalbari,"Bata Chowk, Nalbari - PCBA",17-04-2024 09:00:00,26.446912,91.439057,SO2,8,11,9
India,Assam,Silchar,"Tarapur, Silchar - PCBA",17-04-2024 09:00:00,24.82827,92.79525,NO2,13,13,13
India,Assam,Silchar,"Tarapur, Silchar - PCBA",17-04-2024 09:00:00,24.82827,92.79525,CO,28,30,29
India,Assam,Sivasagar,"Girls College, Sivasagar - PCBA",17-04-2024 09:00:00,26.987634,94.636574,PM10,24,68,47
India,Assam,Sivasagar,"Girls College, Sivasagar - PCBA",17-04-2024 09:00:00,26.987634,94.636574,NO2,11,19,15
India,Assam,Sivasagar,"Girls College, Sivasagar - PCBA",17-04-2024 09:00:00,26.987634,94.636574,OZONE,1,15,2
India,Bihar,Araria,"Kharahiya Basti, Araria - BSPCB",17-04-2024 09:00:00,26.146529,87.454184,SO2,1,20,14
India,Bihar,Araria,"Kharahiya Basti, Araria - BSPCB",17-04-2024 09:00:00,26.146529,87.454184,OZONE,2,12,9
India,Bihar,Arrah,"New DM Office, Arrah - BSPCB",17-04-2024 09:00:00,25.5626095,84.663264,SO2,17,25,19
India,Bihar,Bettiah,"Kamalnath Nagar, Bettiah - BSPCB",17-04-2024 09:00:00,26.80365,84.51954,NO2,NA,NA,NA
India,Bihar,Bettiah,"Kamalnath Nagar, Bettiah - BSPCB",17-04-2024 09:00:00,26.80365,84.51954,CO,63,74,67
India,Bihar,Bhagalpur,"DM Office_Kachari Chowk, Bhagalpur - BSPCB",17-04-2024 09:00:00,25.251013,86.989001,PM2.5,60,120,80
India,Bihar,Bhagalpur,"Mayaganj, Bhagalpur - BSPCB",17-04-2024 09:00:00,25.265194,87.012947,PM10,45,147,83
India,Bihar,Bhagalpur,"Mayaganj, Bhagalpur - BSPCB",17-04-2024 09:00:00,25.265194,87.012947,NO2,3,10,7
India,Bihar,Bhagalpur,"Mayaganj, Bhagalpur - BSPCB",17-04-2024 09:00:00,25.265194,87.012947,NH3,7,10,8
India,Bihar,Bihar Sharif,"D M Colony, Bihar Sharif - BSPCB",17-04-2024 09:00:00,25.204762,85.514960,PM10,53,141,83
India,Bihar,Bihar Sharif,"D M Colony, Bihar Sharif - BSPCB",17-04-2024 09:00:00,25.204762,85.514960,NO2,9,11,10
India,Bihar,Bihar Sharif,"D M Colony, Bihar Sharif - BSPCB",17-04-2024 09:00:00,25.204762,85.514960,SO2,1,16,10
India,Bihar,Bihar Sharif,"D M Colony, Bihar Sharif - BSPCB",17-04-2024 09:00:00,25.204762,85.514960,CO,48,66,62
India,Bihar,Chhapra,"Darshan Nagar, Chhapra - BSPCB",17-04-2024 09:00:00,25.7808257,84.7446768,SO2,6,103,23
India,Bihar,Gaya,"Collectorate, Gaya - BSPCB",17-04-2024 09:00:00,24.7955,84.9994,NO2,1,3,2
India,Bihar,Gaya,"Collectorate, Gaya - BSPCB",17-04-2024 09:00:00,24.7955,84.9994,SO2,6,22,13
India,Bihar,Hajipur,"Industrial Area, Hajipur - BSPCB",17-04-2024 09:00:00,25.697189,85.245900,NO2,44,68,55
India,Bihar,Hajipur,"Industrial Area, Hajipur - BSPCB",17-04-2024 09:00:00,25.697189,85.245900,NH3,7,9,8
India,Bihar,Hajipur,"Industrial Area, Hajipur - BSPCB",17-04-2024 09:00:00,25.697189,85.245900,OZONE,13,76,30
India,Bihar,Manguraha,"Forest Rest House, Manguraha - BSPCB",17-04-2024 09:00:00,27.308328,84.531742,PM2.5,NA,NA,NA
India,Bihar,Manguraha,"Forest Rest House, Manguraha - BSPCB",17-04-2024 09:00:00,27.308328,84.531742,CO,12,41,27
India,Bihar,Motihari,"Gandak Colony, Motihari - BSPCB",17-04-2024 09:00:00,26.63086,84.90051,NH3,8,19,13
India,Bihar,Muzaffarpur,"Buddha Colony, Muzaffarpur - BSPCB",17-04-2024 09:00:00,26.11442,85.39813,NH3,17,25,22
India,Bihar,Muzaffarpur,"MIT-Daudpur Kothi, Muzaffarpur - BSPCB",17-04-2024 09:00:00,26.1403345,85.3650192,NO2,6,10,7
India,Bihar,Muzaffarpur,"MIT-Daudpur Kothi, Muzaffarpur - BSPCB",17-04-2024 09:00:00,26.1403345,85.3650192,CO,15,66,41
India,Bihar,Muzaffarpur,"Muzaffarpur Collectorate, Muzaffarpur - BSPCB",17-04-2024 09:00:00,26.1209,85.3647,NO2,7,136,22
India,Bihar,Patna,"DRM Office Danapur, Patna - BSPCB",17-04-2024 09:00:00,25.586562,85.043586,OZONE,1,37,11
India,Bihar,Patna,"Govt. High School Shikarpur, Patna - BSPCB",17-04-2024 09:00:00,25.592539,85.227158,OZONE,1,59,5
India,Bihar,Patna,"IGSC Planetarium Complex, Patna - BSPCB",17-04-2024 09:00:00,25.610369,85.132568,OZONE,12,54,33
India,Bihar,Patna,"Rajbansi Nagar, Patna - BSPCB",17-04-2024 09:00:00,25.599486,85.113666,PM2.5,105,282,177
India,Bihar,Patna,"Rajbansi Nagar, Patna - BSPCB",17-04-2024 09:00:00,25.599486,85.113666,PM10,137,244,170
India,Bihar,Patna,"Rajbansi Nagar, Patna - BSPCB",17-04-2024 09:00:00,25.599486,85.113666,OZONE,9,91,35
India,Bihar,Patna,"Samanpura, Patna - BSPCB",17-04-2024 09:00:00,25.596727,85.085624,NO2,11,77,34
India,Bihar,Patna,"Samanpura, Patna - BSPCB",17-04-2024 09:00:00,25.596727,85.085624,SO2,7,16,10
India,Bihar,Purnia,"Mariam Nagar, Purnia - BSPCB",17-04-2024 09:00:00,25.366336,87.117468,PM10,NA,NA,NA
India,Bihar,Rajgir,"Dangi Tola, Rajgir - BSPCB",17-04-2024 09:00:00,25.03280,85.41948,PM10,26,83,53
India,Bihar,Saharsa,"Police Line, Saharsa - BSPCB",17-04-2024 09:00:00,25.892357,86.590325,NO2,NA,NA,NA
India,Bihar,Saharsa,"Police Line, Saharsa - BSPCB",17-04-2024 09:00:00,25.892357,86.590325,CO,NA,NA,NA
India,Bihar,Samastipur,"DM Office_Kasipur, Samastipur - BSPCB",17-04-2024 09:00:00,25.859655,85.77944,PM2.5,NA,NA,NA
India,Bihar,Samastipur,"DM Office_Kasipur, Samastipur - BSPCB",17-04-2024 09:00:00,25.859655,85.77944,OZONE,9,13,9
India,Bihar,Sasaram,"Dada Peer, Sasaram - BSPCB",17-04-2024 09:00:00,24.952822,84.002396,NH3,7,11,9
India,Bihar,Sasaram,"Dada Peer, Sasaram - BSPCB",17-04-2024 09:00:00,24.952822,84.002396,OZONE,22,78,40
India,Bihar,Siwan,"Chitragupta Nagar, Siwan - BSPCB",17-04-2024 09:00:00,26.2271665,84.3570427,PM2.5,22,60,43
India,Chandigarh,Chandigarh,"Sector-25, Chandigarh - CPCC",17-04-2024 09:00:00,30.751462,76.762879,NH3,8,14,11
India,Chhattisgarh,Bhilai,"32Bungalows, Bhilai - CECB",17-04-2024 09:00:00,21.194815,81.314770,PM2.5,25,58,42
India,Chhattisgarh,Bhilai,"32Bungalows, Bhilai - CECB",17-04-2024 09:00:00,21.194815,81.314770,NO2,17,29,24
India,Chhattisgarh,Bhilai,"Civic Center, Bhilai - Bhilai Steel Plant",17-04-2024 09:00:00,21.185571,81.343175,NO2,16,16,16
India,Chhattisgarh,Bhilai,"Civic Center, Bhilai - Bhilai Steel Plant",17-04-2024 09:00:00,21.185571,81.343175,NH3,5,5,5
India,Chhattisgarh,Bhilai,"Civic Center, Bhilai - Bhilai Steel Plant",17-04-2024 09:00:00,21.185571,81.343175,SO2,8,13,10
India,Chhattisgarh,Bhilai,"Hathkhoj, Bhilai - CECB",17-04-2024 09:00:00,21.224231,81.408350,NH3,6,8,7
India,Chhattisgarh,Bhilai,"Hathkhoj, Bhilai - CECB",17-04-2024 09:00:00,21.224231,81.408350,OZONE,2,30,5
India,Chhattisgarh,Chhal,"Nawapara SECL Colony, Chhal - CECB",17-04-2024 09:00:00,22.118125,83.140608,PM10,52,110,65
India,Chhattisgarh,Korba,"Urja Nagar, Korba - CECB",17-04-2024 09:00:00,22.348441,82.549611,PM10,11,103,46
India,Chhattisgarh,Korba,"Urja Nagar, Korba - CECB",17-04-2024 09:00:00,22.348441,82.549611,NO2,50,65,58
India,Chhattisgarh,Kunjemura,"OP Jindal School, Kunjemura - CECB",17-04-2024 09:00:00,22.126650,83.483212,CO,23,57,51
India,Chhattisgarh,Kunjemura,"OP Jindal School, Kunjemura - CECB",17-04-2024 09:00:00,22.126650,83.483212,OZONE,3,78,6
India,Chhattisgarh,Raipur,"AIIMS, Raipur - CECB",17-04-2024 09:00:00,21.258815,81.578979,PM10,40,162,79
India,Chhattisgarh,Raipur,"AIIMS, Raipur - CECB",17-04-2024 09:00:00,21.258815,81.578979,NH3,6,6,6
India,Chhattisgarh,Raipur,"Bhatagaon New ISBT, Raipur - CECB",17-04-2024 09:00:00,21.219665,81.630094,NO2,26,44,33
India,Chhattisgarh,Raipur,"Bhatagaon New ISBT, Raipur - CECB",17-04-2024 09:00:00,21.219665,81.630094,SO2,1,4,2
India,Chhattisgarh,Raipur,"Krishak Nagar, Raipur - CECB",17-04-2024 09:00:00,21.237755,81.705301,NO2,1,2,1
India,Chhattisgarh,Raipur,"Siltara Phase-II, Raipur - CECB",17-04-2024 09:00:00,21.371751,81.664929,NO2,24,66,48
India,Chhattisgarh,Raipur,"Siltara Phase-II, Raipur - CECB",17-04-2024 09:00:00,21.371751,81.664929,CO,2,72,53
India,Chhattisgarh,Tumidih,"OP Jindal Industrial Park, Tumidih - CECB",17-04-2024 09:00:00,22.06631475,83.33820077,SO2,NA,NA,NA
India,Chhattisgarh,Tumidih,"OP Jindal Industrial Park, Tumidih - CECB",17-04-2024 09:00:00,22.06631475,83.33820077,CO,20,36,25
India,Delhi,Delhi,"Alipur, Delhi - DPCC",17-04-2024 09:00:00,28.815329,77.153010,OZONE,27,101,52
India,Delhi,Delhi,"Anand Vihar, Delhi - DPCC",17-04-2024 09:00:00,28.647622,77.3158090,PM10,NA,NA,NA
India,Delhi,Delhi,"Anand Vihar, Delhi - DPCC",17-04-2024 09:00:00,28.647622,77.3158090,CO,2,56,32
India,Delhi,Delhi,"Anand Vihar, Delhi - DPCC",17-04-2024 09:00:00,28.647622,77.3158090,OZONE,26,60,43
India,Delhi,Delhi,"Ashok Vihar, Delhi - DPCC",17-04-2024 09:00:00,28.695381,77.181665,CO,4,32,22
India,Delhi,Delhi,"Bawana, Delhi - DPCC",17-04-2024 09:00:00,28.776200,77.051074,PM10,120,271,169
India,Delhi,Delhi,"Bawana, Delhi - DPCC",17-04-2024 09:00:00,28.776200,77.051074,NO2,11,44,25
India,Delhi,Delhi,"Chandni Chowk, Delhi - IITM",17-04-2024 09:00:00,28.656756,77.227234,PM2.5,94,353,163
India,Delhi,Delhi,"Chandni Chowk, Delhi - IITM",17-04-2024 09:00:00,28.656756,77.227234,NH3,5,26,15
India,Delhi,Delhi,"DTU, Delhi - CPCB",17-04-2024 09:00:00,28.7500499,77.1112615,NH3,13,16,14
India,Delhi,Delhi,"Dr. Karni Singh Shooting Range, Delhi - DPCC",17-04-2024 09:00:00,28.498571,77.264840,OZONE,28,168,74
India,Delhi,Delhi,"Dwarka-Sector 8, Delhi - DPCC ",17-04-2024 09:00:00,28.5710274,77.0719006,PM2.5,22,340,116
India,Delhi,Delhi,"IHBAS, Dilshad Garden, Delhi - CPCB",17-04-2024 09:00:00,28.6811736,77.3025234,PM2.5,33,146,72
India,Delhi,Delhi,"IHBAS, Dilshad Garden, Delhi - CPCB",17-04-2024 09:00:00,28.6811736,77.3025234,NO2,21,80,50
India,Delhi,Delhi,"IHBAS, Dilshad Garden, Delhi - CPCB",17-04-2024 09:00:00,28.6811736,77.3025234,CO,10,53,35
India,Delhi,Delhi,"ITO, Delhi - CPCB",17-04-2024 09:00:00,28.628624,77.241060,NO2,15,116,59
India,Delhi,Delhi,"ITO, Delhi - CPCB",17-04-2024 09:00:00,28.628624,77.241060,NH3,2,5,4
India,Delhi,Delhi,"Jahangirpuri, Delhi - DPCC",17-04-2024 09:00:00,28.732820,77.170633,PM2.5,31,353,104
India,Delhi,Delhi,"Jahangirpuri, Delhi - DPCC",17-04-2024 09:00:00,28.732820,77.170633,OZONE,15,54,25
India,Delhi,Delhi,"Jawaharlal Nehru Stadium, Delhi - DPCC",17-04-2024 09:00:00,28.580280,77.233829,OZONE,42,128,69
India,Delhi,Delhi,"Major Dhyan Chand National Stadium, Delhi - DPCC",17-04-2024 09:00:00,28.611281,77.237738,PM2.5,33,303,71
India,Delhi,Delhi,"Mundka, Delhi - DPCC",17-04-2024 09:00:00,28.684678,77.076574,PM2.5,23,342,153
India,Delhi,Delhi,"NSIT Dwarka, Delhi - CPCB",17-04-2024 09:00:00,28.60909,77.0325413,NO2,10,57,40
India,Delhi,Delhi,"NSIT Dwarka, Delhi - CPCB",17-04-2024 09:00:00,28.60909,77.0325413,SO2,2,34,20
India,Delhi,Delhi,"NSIT Dwarka, Delhi - CPCB",17-04-2024 09:00:00,28.60909,77.0325413,CO,25,50,30
India,Delhi,Delhi,"Najafgarh, Delhi - DPCC",17-04-2024 09:00:00,28.570173,76.933762,PM10,61,272,127
India,Delhi,Delhi,"Najafgarh, Delhi - DPCC",17-04-2024 09:00:00,28.570173,76.933762,NH3,9,10,10
India,Delhi,Delhi,"Najafgarh, Delhi - DPCC",17-04-2024 09:00:00,28.570173,76.933762,SO2,4,14,10
India,Delhi,Delhi,"Najafgarh, Delhi - DPCC",17-04-2024 09:00:00,28.570173,76.933762,OZONE,9,168,43
India,Delhi,Delhi,"Narela, Delhi - DPCC",17-04-2024 09:00:00,28.822836,77.101981,PM2.5,23,318,78
India,Delhi,Delhi,"Narela, Delhi - DPCC",17-04-2024 09:00:00,28.822836,77.101981,NH3,6,11,8
India,Delhi,Delhi,"Narela, Delhi - DPCC",17-04-2024 09:00:00,28.822836,77.101981,CO,16,45,37
India,Delhi,Delhi,"Nehru Nagar, Delhi - DPCC",17-04-2024 09:00:00,28.567890,77.250515,CO,50,64,54
India,Delhi,Delhi,"Patparganj, Delhi - DPCC",17-04-2024 09:00:00,28.623763,77.287209,PM2.5,16,233,64
India,Delhi,Delhi,"Patparganj, Delhi - DPCC",17-04-2024 09:00:00,28.623763,77.287209,SO2,4,9,6
India,Delhi,Delhi,"Patparganj, Delhi - DPCC",17-04-2024 09:00:00,28.623763,77.287209,CO,50,86,57
India,Delhi,Delhi,"Punjabi Bagh, Delhi - DPCC",17-04-2024 09:00:00,28.674045,77.131023,PM2.5,10,314,118
India,Delhi,Delhi,"Punjabi Bagh, Delhi - DPCC",17-04-2024 09:00:00,28.674045,77.131023,SO2,14,28,20
India,Delhi,Delhi,"Punjabi Bagh, Delhi - DPCC",17-04-2024 09:00:00,28.674045,77.131023,OZONE,5,17,9
India,Delhi,Delhi,"Pusa, Delhi - DPCC",17-04-2024 09:00:00,28.639652,77.146275,PM10,115,245,162
India,Delhi,Delhi,"Pusa, Delhi - DPCC",17-04-2024 09:00:00,28.639652,77.146275,NH3,4,12,9
India,Delhi,Delhi,"Pusa, Delhi - DPCC",17-04-2024 09:00:00,28.639652,77.146275,SO2,7,43,18
India,Delhi,Delhi,"R K Puram, Delhi - DPCC",17-04-2024 09:00:00,28.563262,77.186937,SO2,8,49,26
India,Delhi,Delhi,"Rohini, Delhi - DPCC",17-04-2024 09:00:00,28.732528,77.119920,PM10,82,234,122
India,Delhi,Delhi,"Shadipur, Delhi - CPCB",17-04-2024 09:00:00,28.6514781,77.1473105,NO2,41,79,54
India,Delhi,Delhi,"Shadipur, Delhi - CPCB",17-04-2024 09:00:00,28.6514781,77.1473105,SO2,3,22,16
India,Delhi,Delhi,"Sirifort, Delhi - CPCB",17-04-2024 09:00:00,28.5504249,77.2159377,PM10,89,274,123
India,Delhi,Delhi,"Sirifort, Delhi - CPCB",17-04-2024 09:00:00,28.5504249,77.2159377,SO2,23,31,26
India,Delhi,Delhi,"Sirifort, Delhi - CPCB",17-04-2024 09:00:00,28.5504249,77.2159377,OZONE,10,36,12
India,Delhi,Delhi,"Sonia Vihar, Delhi - DPCC",17-04-2024 09:00:00,28.710508,77.249485,NH3,6,9,7
India,Delhi,Delhi,"Sonia Vihar, Delhi - DPCC",17-04-2024 09:00:00,28.710508,77.249485,CO,38,66,57
India,Delhi,Delhi,"Sonia Vihar, Delhi - DPCC",17-04-2024 09:00:00,28.710508,77.249485,OZONE,21,72,41
India,Delhi,Delhi,"Sri Aurobindo Marg, Delhi - DPCC",17-04-2024 09:00:00,28.531346,77.190156,OZONE,18,60,27
India,Delhi,Delhi,"Vivek Vihar, Delhi - DPCC",17-04-2024 09:00:00,28.672342,77.315260,PM2.5,10,318,77
India,Delhi,Delhi,"Vivek Vihar, Delhi - DPCC",17-04-2024 09:00:00,28.672342,77.315260,OZONE,27,75,40
India,Delhi,Delhi,"Wazirpur, Delhi - DPCC",17-04-2024 09:00:00,28.699793,77.165453,PM2.5,37,338,99
India,Delhi,Delhi,"Wazirpur, Delhi - DPCC",17-04-2024 09:00:00,28.699793,77.165453,NH3,12,13,12
India,Gujarat,Ahmedabad,"Gyaspur, Ahmedabad - IITM",17-04-2024 09:00:00,22.977134,72.553024,PM2.5,47,126,69
India,Gujarat,Ahmedabad,"Gyaspur, Ahmedabad - IITM",17-04-2024 09:00:00,22.977134,72.553024,NO2,33,39,36
India,Gujarat,Ahmedabad,"Gyaspur, Ahmedabad - IITM",17-04-2024 09:00:00,22.977134,72.553024,SO2,3,6,4
India,Gujarat,Ahmedabad,"Gyaspur, Ahmedabad - IITM",17-04-2024 09:00:00,22.977134,72.553024,CO,1,18,5
India,Gujarat,Ahmedabad,"Maninagar, Ahmedabad - GPCB",17-04-2024 09:00:00,23.002657,72.591912,PM2.5,24,66,42
India,Gujarat,Ahmedabad,"Maninagar, Ahmedabad - GPCB",17-04-2024 09:00:00,23.002657,72.591912,SO2,27,120,64
India,Gujarat,Ahmedabad,"Raikhad, Ahmedabad - IITM",17-04-2024 09:00:00,23.020509,72.579261,PM2.5,NA,NA,NA
India,Gujarat,Ahmedabad,"Raikhad, Ahmedabad - IITM",17-04-2024 09:00:00,23.020509,72.579261,PM10,NA,NA,NA
India,Gujarat,Ahmedabad,"Rakhial, Ahmedabad - IITM",17-04-2024 09:00:00,23.016834,72.625775,PM2.5,50,84,62
India,Gujarat,Ahmedabad,"Rakhial, Ahmedabad - IITM",17-04-2024 09:00:00,23.016834,72.625775,NO2,5,24,12
India,Gujarat,Ahmedabad,"Rakhial, Ahmedabad - IITM",17-04-2024 09:00:00,23.016834,72.625775,NH3,2,3,2
India,Gujarat,Ahmedabad,"SAC ISRO Satellite, Ahmedabad - IITM",17-04-2024 09:00:00,23.023389,72.515201,OZONE,12,22,14
India,Gujarat,Ahmedabad,"SVPI Airport Hansol, Ahmedabad - IITM",17-04-2024 09:00:00,23.076793,72.627874,NH3,1,2,2
India,Gujarat,Ahmedabad,"SVPI Airport Hansol, Ahmedabad - IITM",17-04-2024 09:00:00,23.076793,72.627874,OZONE,11,32,15
India,Gujarat,Ahmedabad,"Sardar Vallabhbhai Patel Stadium, Ahmedabad - IITM",17-04-2024 09:00:00,23.043070,72.562968,SO2,5,37,13
India,Gujarat,Ankleshwar,"GIDC, Ankleshwar - GPCB",17-04-2024 09:00:00,21.613267,73.010555,PM10,38,103,69
India,Gujarat,Ankleshwar,"GIDC, Ankleshwar - GPCB",17-04-2024 09:00:00,21.613267,73.010555,NH3,7,7,7
India,Gujarat,Gandhinagar,"IIPHG Lekawada, Gandhinagar - IITM",17-04-2024 09:00:00,23.243639,72.68994,PM2.5,31,94,56
India,Gujarat,Gandhinagar,"IIPHG Lekawada, Gandhinagar - IITM",17-04-2024 09:00:00,23.243639,72.68994,SO2,10,10,10
India,Gujarat,Gandhinagar,"Sector-10, Gandhinagar - GPCB",17-04-2024 09:00:00,23.221714,72.654328,NH3,1,1,1
India,Gujarat,Surat,"Science Center, Surat - SMC",17-04-2024 09:00:00,21.170046,72.795405,NO2,36,55,45
India,Gujarat,Vatva,"Phase-4 GIDC, Vatva - GPCB",17-04-2024 09:00:00,22.969611,72.643500,NO2,22,77,47
India,Haryana,Ambala,"Patti Mehar, Ambala - HSPCB",17-04-2024 09:00:00,30.379589,76.778328,PM2.5,28,88,42
India,Haryana,Ambala,"Patti Mehar, Ambala - HSPCB",17-04-2024 09:00:00,30.379589,76.778328,NO2,3,4,4
India,Haryana,Bahadurgarh,"Arya Nagar, Bahadurgarh - HSPCB",17-04-2024 09:00:00,28.6701,76.9254,OZONE,39,50,43
India,Haryana,Ballabgarh,"Nathu Colony, Ballabgarh - HSPCB",17-04-2024 09:00:00,28.3419248,77.319699,NO2,12,13,13
India,Haryana,Ballabgarh,"Nathu Colony, Ballabgarh - HSPCB",17-04-2024 09:00:00,28.3419248,77.319699,SO2,1,33,14
India,Haryana,Bhiwani,"H.B. Colony, Bhiwani - HSPCB",17-04-2024 09:00:00,28.806223,76.141105,PM2.5,49,92,67
India,Haryana,Bhiwani,"H.B. Colony, Bhiwani - HSPCB",17-04-2024 09:00:00,28.806223,76.141105,CO,22,102,25
India,Haryana,Charkhi Dadri,"Mini Secretariat, Charkhi Dadri - HSPCB",17-04-2024 09:00:00,28.593883,76.270653,NH3,6,8,7
India,Haryana,Charkhi Dadri,"Mini Secretariat, Charkhi Dadri - HSPCB",17-04-2024 09:00:00,28.593883,76.270653,SO2,3,22,13
India,Haryana,Dharuhera,"Municipal Corporation Office, Dharuhera -  HSPCB",17-04-2024 09:00:00,28.206800,76.799700,SO2,10,59,21
India,Haryana,Dharuhera,"Municipal Corporation Office, Dharuhera -  HSPCB",17-04-2024 09:00:00,28.206800,76.799700,OZONE,26,51,30
India,Haryana,Faridabad,"New Industrial Town, Faridabad - HSPCB",17-04-2024 09:00:00,28.39072,77.30059,PM2.5,81,405,238
India,Haryana,Faridabad,"New Industrial Town, Faridabad - HSPCB",17-04-2024 09:00:00,28.39072,77.30059,OZONE,30,72,47
India,Haryana,Faridabad,"Sector 11, Faridabad - HSPCB",17-04-2024 09:00:00,28.376058,77.315741,PM2.5,82,305,161
India,Haryana,Faridabad,"Sector 30, Faridabad - HSPCB",17-04-2024 09:00:00,28.4417,77.3217,PM10,138,149,143
India,Haryana,Faridabad,"Sector 30, Faridabad - HSPCB",17-04-2024 09:00:00,28.4417,77.3217,OZONE,22,67,32
India,Haryana,Faridabad,"Sector- 16A, Faridabad - HSPCB",17-04-2024 09:00:00,28.4088421,77.3099081,PM2.5,32,129,59
India,Haryana,Fatehabad,"Huda Sector, Fatehabad - HSPCB",17-04-2024 09:00:00,29.503664,75.467934,OZONE,33,71,55
India,Haryana,Gurugram,"Sector-51, Gurugram - HSPCB",17-04-2024 09:00:00,28.4227,77.0667,NH3,7,14,9
India,Haryana,Gurugram,"Sector-51, Gurugram - HSPCB",17-04-2024 09:00:00,28.4227,77.0667,CO,32,53,37
India,Haryana,Jind,"Police Lines, Jind - HSPCB",17-04-2024 09:00:00,29.307814,76.337619,PM2.5,29,71,41
India,Haryana,Jind,"Police Lines, Jind - HSPCB",17-04-2024 09:00:00,29.307814,76.337619,CO,2,104,36
India,Haryana,Jind,"Police Lines, Jind - HSPCB",17-04-2024 09:00:00,29.307814,76.337619,OZONE,16,29,18
India,Haryana,Kaithal,"Rishi Nagar, Kaithal - HSPCB",17-04-2024 09:00:00,29.8006,76.4155,PM10,66,97,79
India,Haryana,Karnal,"Sector-12, Karnal - HSPCB",17-04-2024 09:00:00,29.695300,77.002700,NH3,10,13,11
India,Haryana,Kurukshetra,"Sector-7, Kurukshetra - HSPCB",17-04-2024 09:00:00,29.966942,76.875879,NO2,9,12,10
India,Haryana,Kurukshetra,"Sector-7, Kurukshetra - HSPCB",17-04-2024 09:00:00,29.966942,76.875879,CO,1,28,15
India,Haryana,Mandikhera,"General Hospital, Mandikhera - HSPCB",17-04-2024 09:00:00,27.9002,76.9938,NO2,19,23,22
India,Haryana,Manesar,"Sector-2 IMT, Manesar - HSPCB",17-04-2024 09:00:00,28.360699,76.936090,PM2.5,27,78,53
India,Haryana,Manesar,"Sector-2 IMT, Manesar - HSPCB",17-04-2024 09:00:00,28.360699,76.936090,NH3,15,50,29
India,Haryana,Narnaul,"Shastri Nagar, Narnaul - HSPCB",17-04-2024 09:00:00,28.060249,76.113115,NO2,12,69,30
India,Haryana,Palwal,"Shyam Nagar, Palwal - HSPCB",17-04-2024 09:00:00,28.1485564,77.3320667,CO,NA,NA,NA
India,Haryana,Panchkula,"Sector-6, Panchkula - HSPCB ",17-04-2024 09:00:00,30.7057778,76.8531805555555,SO2,2,13,4
India,Haryana,Panipat,"Sector-18, Panipat - HSPCB",17-04-2024 09:00:00,29.497973,76.993331,PM10,87,89,89
India,Haryana,Panipat,"Sector-18, Panipat - HSPCB",17-04-2024 09:00:00,29.497973,76.993331,SO2,18,19,19
India,Haryana,Panipat,"Sector-18, Panipat - HSPCB",17-04-2024 09:00:00,29.497973,76.993331,OZONE,30,30,30
India,Haryana,Rohtak,"MD University, Rohtak - HSPCB",17-04-2024 09:00:00,28.52123,76.37138,NO2,44,54,50
India,Haryana,Rohtak,"MD University, Rohtak - HSPCB",17-04-2024 09:00:00,28.52123,76.37138,SO2,5,8,7
India,Haryana,Sirsa,"F-Block, Sirsa - HSPCB",17-04-2024 09:00:00,29.536400,75.015800,PM2.5,3,62,38
India,Haryana,Sirsa,"F-Block, Sirsa - HSPCB",17-04-2024 09:00:00,29.536400,75.015800,NO2,9,39,12
India,Haryana,Sonipat,"Murthal, Sonipat - HSPCB",17-04-2024 09:00:00,29.027200,77.062100,PM2.5,48,51,48
India,Haryana,Sonipat,"Murthal, Sonipat - HSPCB",17-04-2024 09:00:00,29.027200,77.062100,SO2,12,29,20
India,Haryana,Sonipat,"Murthal, Sonipat - HSPCB",17-04-2024 09:00:00,29.027200,77.062100,OZONE,17,36,20
India,Haryana,Yamuna Nagar,"Gobind Pura, Yamuna Nagar - HSPCB",17-04-2024 09:00:00,30.1480566,77.2893471,NH3,1,6,4
India,Himachal Pradesh,Baddi,"HIMUDA Complex Phase-1, Baddi - HPPCB",17-04-2024 09:00:00,30.943887,76.801991,SO2,13,92,38
India,Himachal Pradesh,Baddi,"HIMUDA Complex Phase-1, Baddi - HPPCB",17-04-2024 09:00:00,30.943887,76.801991,OZONE,24,129,44
India,Jharkhand,Dhanbad,"Kalakusuma, Dhanbad - DMC",17-04-2024 09:00:00,23.811548,86.481238,PM10,88,200,144
India,Jharkhand,Dhanbad,"Sardar Patel Nagar, Dhanbad - JSPCB",17-04-2024 09:00:00,23.80569,86.44268,CO,31,196,171
India,Jharkhand,Dhanbad,"Sardar Patel Nagar, Dhanbad - JSPCB",17-04-2024 09:00:00,23.80569,86.44268,OZONE,11,18,14
India,Karnataka,Bagalkot,"Vidayagiri, Bagalkot - KSPCB",17-04-2024 09:00:00,16.172806,75.659694,PM2.5,19,37,36
India,Karnataka,Belgaum,"Ramteerth Nagar, Belgaum - KSPCB",17-04-2024 09:00:00,15.888653,74.541751,PM2.5,11,29,21
India,Karnataka,Bengaluru,"BTM Layout, Bengaluru - CPCB",17-04-2024 09:00:00,12.9135218,77.5950804,CO,8,21,17
India,Karnataka,Bengaluru,"Bapuji Nagar, Bengaluru - KSPCB",17-04-2024 09:00:00,12.951913,77.539784,PM2.5,58,121,76
India,Karnataka,Bengaluru,"Bapuji Nagar, Bengaluru - KSPCB",17-04-2024 09:00:00,12.951913,77.539784,PM10,53,99,72
India,Karnataka,Bengaluru,"Hebbal, Bengaluru - KSPCB",17-04-2024 09:00:00,13.029152,77.585901,CO,5,38,19
India,Karnataka,Bengaluru,"Hombegowda Nagar, Bengaluru - KSPCB",17-04-2024 09:00:00,12.938539,77.590100,NH3,1,2,1
India,Karnataka,Bengaluru,"Kasturi Nagar, Bengaluru - KSPCB",17-04-2024 09:00:00,13.003872,77.664217,PM10,75,500,150
India,Karnataka,Bengaluru,"Peenya, Bengaluru - CPCB",17-04-2024 09:00:00,13.0270199,77.494094,PM2.5,30,85,62
India,Karnataka,Bengaluru,"Peenya, Bengaluru - CPCB",17-04-2024 09:00:00,13.0270199,77.494094,NH3,NA,NA,NA
India,Karnataka,Bengaluru,"Peenya, Bengaluru - CPCB",17-04-2024 09:00:00,13.0270199,77.494094,SO2,NA,NA,NA
India,Karnataka,Bengaluru,"RVCE-Mailasandra, Bengaluru - KSPCB",17-04-2024 09:00:00,12.921418,77.502466,PM2.5,37,388,129
India,Karnataka,Bengaluru,"Sanegurava Halli, Bengaluru - KSPCB",17-04-2024 09:00:00,12.990328,77.5431385,NO2,22,48,29
India,Karnataka,Bengaluru,"Shivapura_Peenya, Bengaluru - KSPCB",17-04-2024 09:00:00,13.0246342,77.5080115,OZONE,54,55,55
India,Karnataka,Bengaluru,"Silk Board, Bengaluru - KSPCB",17-04-2024 09:00:00,12.917348,77.622813,PM2.5,23,83,46
India,Karnataka,Bidar,"Naubad, Bidar - KSPCB",17-04-2024 09:00:00,17.930306,77.482194,PM2.5,53,95,70
India,Karnataka,Chikkaballapur,"Chikkaballapur Rural, Chikkaballapur - KSPCB",17-04-2024 09:00:00,13.428828,77.731418,NO2,6,14,9
India,Karnataka,Chikkamagaluru,"Kalyana Nagara, Chikkamagaluru - KSPCB",17-04-2024 09:00:00,13.328028,75.797056,PM2.5,2,32,14
India,Karnataka,Davanagere,"Devaraj Urs Badavane, Davanagere - KSPCB",17-04-2024 09:00:00,14.475800,75.905200,OZONE,18,28,20
India,Karnataka,Gadag,"Panchal Nagar, Gadag - KSPCB",17-04-2024 09:00:00,15.411456,75.638133,NO2,NA,NA,NA
India,Karnataka,Gadag,"Panchal Nagar, Gadag - KSPCB",17-04-2024 09:00:00,15.411456,75.638133,SO2,NA,NA,NA
India,Karnataka,Hassan,"B.Katihalli, Hassan - KSPCB",17-04-2024 09:00:00,13.008556,76.125258,PM2.5,38,66,51
India,Karnataka,Hassan,"B.Katihalli, Hassan - KSPCB",17-04-2024 09:00:00,13.008556,76.125258,NO2,4,34,15
India,Karnataka,Haveri,"Ashwini Nagar, Haveri - KSPCB",17-04-2024 09:00:00,14.791800,75.389600,NO2,NA,NA,NA
India,Karnataka,Haveri,"Ashwini Nagar, Haveri - KSPCB",17-04-2024 09:00:00,14.791800,75.389600,CO,36,37,36
India,Karnataka,Kalaburagi,"Lal Bahadur Shastri Nagar, Kalaburagi - KSPCB",17-04-2024 09:00:00,17.321993,76.822628,NO2,12,12,12
India,Karnataka,Kalaburagi,"Mahatma Basaveswar Colony, Kalaburgi - KSPCB",17-04-2024 09:00:00,17.336318,76.847397,PM10,38,90,52
India,Karnataka,Karwar,"KHB Colony, Karwar - KSPCB",17-04-2024 09:00:00,14.816666,74.141003,OZONE,21,22,21
India,Karnataka,Kolar,"Tamaka Ind. Area, Kolar - KSPCB",17-04-2024 09:00:00,13.1276288,78.1570122,NO2,NA,NA,NA
India,Karnataka,Koppal,"Diwator Nagar, Koppal - KSPCB",17-04-2024 09:00:00,15.347630,76.181767,PM2.5,16,68,37
India,Karnataka,Koppal,"Diwator Nagar, Koppal - KSPCB",17-04-2024 09:00:00,15.347630,76.181767,NH3,5,9,7
India,Karnataka,Madikeri,"Stuart Hill, Madikeri - KSPCB",17-04-2024 09:00:00,12.415911,75.735050,CO,2,81,26
India,Karnataka,Mangalore,"Kadri, Mangalore - KSPCB",17-04-2024 09:00:00,12.889250,74.853000,NH3,1,2,2
India,Karnataka,Mysuru,"Hebbal 1st Stage, Mysuru - KSPCB",17-04-2024 09:00:00,12.21041,76.37376,NO2,13,26,19
India,Karnataka,Mysuru,"Hebbal 1st Stage, Mysuru - KSPCB",17-04-2024 09:00:00,12.21041,76.37376,NH3,1,2,2
India,Karnataka,Mysuru,"Hebbal 1st Stage, Mysuru - KSPCB",17-04-2024 09:00:00,12.21041,76.37376,OZONE,20,74,23
India,Karnataka,Ramanagara,"Vijay Nagar, Ramanagara - KSPCB",17-04-2024 09:00:00,12.733409,77.298051,SO2,16,34,25
India,Karnataka,Ramanagara,"Vijay Nagar, Ramanagara - KSPCB",17-04-2024 09:00:00,12.733409,77.298051,CO,1,32,18
India,Karnataka,Shivamogga,"Vinoba Nagara, Shivamogga - KSPCB",17-04-2024 09:00:00,13.940000,75.555917,PM10,39,80,58
India,Karnataka,Shivamogga,"Vinoba Nagara, Shivamogga - KSPCB",17-04-2024 09:00:00,13.940000,75.555917,NH3,1,11,3
India,Karnataka,Tumakuru,"Thimmalapura, Tumakuru - KSPCB",17-04-2024 09:00:00,13.377516,77.099072,PM2.5,24,56,40
India,Karnataka,Tumakuru,"Thimmalapura, Tumakuru - KSPCB",17-04-2024 09:00:00,13.377516,77.099072,NO2,18,54,29
India,Karnataka,Vijayapura,"Ibrahimpur, Vijayapura - KSPCB",17-04-2024 09:00:00,16.802639,75.722694,PM2.5,26,31,30
India,Karnataka,Yadgir,"Collector Office, Yadgir - KSPCB",17-04-2024 09:00:00,16.7602,77.1428,OZONE,19,20,19
India,Kerala,Eloor,"Udyogamandal, Eloor - Kerala PCB",17-04-2024 09:00:00,10.073232,76.302765,PM10,31,44,36
India,Kerala,Kollam,"Polayathode, Kollam - Kerala PCB",17-04-2024 09:00:00,8.8787,76.6073,OZONE,32,37,33
India,Kerala,Thiruvananthapuram,"Kariavattom, Thiruvananthapuram - Kerala PCB",17-04-2024 09:00:00,8.563700,76.886500,PM2.5,75,90,82
India,Kerala,Thiruvananthapuram,"Kariavattom, Thiruvananthapuram - Kerala PCB",17-04-2024 09:00:00,8.563700,76.886500,PM10,78,95,86
India,Kerala,Thiruvananthapuram,"Kariavattom, Thiruvananthapuram - Kerala PCB",17-04-2024 09:00:00,8.563700,76.886500,NH3,1,1,1
India,Kerala,Thiruvananthapuram,"Kariavattom, Thiruvananthapuram - Kerala PCB",17-04-2024 09:00:00,8.563700,76.886500,SO2,2,11,6
India,Kerala,Thiruvananthapuram,"Kariavattom, Thiruvananthapuram - Kerala PCB",17-04-2024 09:00:00,8.563700,76.886500,CO,18,52,20
India,Kerala,Thiruvananthapuram,"Kariavattom, Thiruvananthapuram - Kerala PCB",17-04-2024 09:00:00,8.563700,76.886500,OZONE,27,33,30
India,Kerala,Thiruvananthapuram,"Plammoodu, Thiruvananthapuram - Kerala PCB",17-04-2024 09:00:00,8.5149093,76.9435879,NH3,1,1,1
India,Kerala,Thrissur,"Corporation Ground, Thrissur - Kerala PCB",17-04-2024 09:00:00,10.532400,76.215900,PM2.5,45,50,47
India,Madhya Pradesh,Bhopal,"Paryavaran Parisar, Bhopal - MPPCB",17-04-2024 09:00:00,23.210494,77.425409,PM2.5,10,90,46
India,Madhya Pradesh,Bhopal,"Paryavaran Parisar, Bhopal - MPPCB",17-04-2024 09:00:00,23.210494,77.425409,OZONE,5,97,24
India,Madhya Pradesh,Bhopal,"T T Nagar, Bhopal - MPPCB",17-04-2024 09:00:00,23.233584,77.400574,SO2,11,31,20
India,Madhya Pradesh,Gwalior,"Deen Dayal Nagar, Gwalior - MPPCB",17-04-2024 09:00:00,26.259242,78.216432,SO2,10,14,11
India,Madhya Pradesh,Gwalior,"Deen Dayal Nagar, Gwalior - MPPCB",17-04-2024 09:00:00,26.259242,78.216432,OZONE,61,130,81
India,Madhya Pradesh,Gwalior,"Maharaj Bada, Gwalior - MPPCB",17-04-2024 09:00:00,26.200388,78.147714,PM10,NA,NA,NA
India,Madhya Pradesh,Gwalior,"Maharaj Bada, Gwalior - MPPCB",17-04-2024 09:00:00,26.200388,78.147714,NH3,NA,NA,NA
India,Madhya Pradesh,Gwalior,"Maharaj Bada, Gwalior - MPPCB",17-04-2024 09:00:00,26.200388,78.147714,CO,16,42,31
India,Madhya Pradesh,Gwalior,"Phool Bagh, Gwalior - Mondelez Ind. Food",17-04-2024 09:00:00,26.210536,78.171,PM2.5,NA,NA,NA
India,Madhya Pradesh,Gwalior,"Phool Bagh, Gwalior - Mondelez Ind. Food",17-04-2024 09:00:00,26.210536,78.171,NO2,4,5,4
India,Madhya Pradesh,Indore,"Chhoti Gwaltoli, Indore - MPPCB",17-04-2024 09:00:00,22.4310,75.5213,SO2,10,114,44
India,Madhya Pradesh,Indore,"Residency Area, Indore - IMC",17-04-2024 09:00:00,22.7084,75.8815,PM10,27,111,70
India,Madhya Pradesh,Indore,"Residency Area, Indore - IMC",17-04-2024 09:00:00,22.7084,75.8815,OZONE,10,16,11
India,Madhya Pradesh,Jabalpur,"Govindh Bhavan Colony, Jabalpur - JMC",17-04-2024 09:00:00,23.163174,79.973061,PM10,34,86,54
India,Madhya Pradesh,Jabalpur,"Govindh Bhavan Colony, Jabalpur - JMC",17-04-2024 09:00:00,23.163174,79.973061,SO2,7,51,34
India,Madhya Pradesh,Jabalpur,"Suhagi, Jabalpur - JMC",17-04-2024 09:00:00,23.218135,79.957770,NH3,2,4,4
India,Madhya Pradesh,Jabalpur,"Suhagi, Jabalpur - JMC",17-04-2024 09:00:00,23.218135,79.957770,SO2,7,12,11
India,Madhya Pradesh,Jabalpur,"Suhagi, Jabalpur - JMC",17-04-2024 09:00:00,23.218135,79.957770,OZONE,1,98,13
India,Madhya Pradesh,Katni,"Gole Bazar, Katni - MPPCB",17-04-2024 09:00:00,23.50016,80.23284,NO2,14,121,52
India,Madhya Pradesh,Katni,"Gole Bazar, Katni - MPPCB",17-04-2024 09:00:00,23.50016,80.23284,OZONE,11,94,34
India,Madhya Pradesh,Ratlam,"Shasthri Nagar, Ratlam - IPCA Lab",17-04-2024 09:00:00,23.331731,75.045981,PM2.5,2,159,64
India,Madhya Pradesh,Sagar,"Civil Lines, Sagar - MPPCB",17-04-2024 09:00:00,23.838586,78.759431,NO2,8,47,16
India,Madhya Pradesh,Sagar,"Civil Lines, Sagar - MPPCB",17-04-2024 09:00:00,23.838586,78.759431,CO,12,39,14
India,Madhya Pradesh,Sagar,"Deen Dayal Nagar, Sagar - MPPCB",17-04-2024 09:00:00,23.8640158,78.80289321,NO2,23,24,24
India,Madhya Pradesh,Satna,"Bandhavgar Colony, Satna - Birla Cement",17-04-2024 09:00:00,24.58434363,80.8549414,NO2,27,77,41
India,Madhya Pradesh,Satna,"Bandhavgar Colony, Satna - Birla Cement",17-04-2024 09:00:00,24.58434363,80.8549414,OZONE,7,9,8
India,Madhya Pradesh,Singrauli,"Suryakiran Bhawan NCL, Singrauli - MPPCB",17-04-2024 09:00:00,24.108970,82.645580,PM2.5,62,378,190
India,Maharashtra,Ahmednagar,"Tarakpur, Ahmednagar - MPCB",17-04-2024 09:00:00,19.10122,74.73339,PM2.5,44,127,72
India,Maharashtra,Ahmednagar,"Tarakpur, Ahmednagar - MPCB",17-04-2024 09:00:00,19.10122,74.73339,CO,24,120,32
India,Maharashtra,Ahmednagar,"Tarakpur, Ahmednagar - MPCB",17-04-2024 09:00:00,19.10122,74.73339,OZONE,7,137,52
India,Maharashtra,Akola,"Ramdaspeth, Akola - MPCB",17-04-2024 09:00:00,20.719516,77.000253,OZONE,4,82,30
India,Maharashtra,Amravati,"Shivneri Colony, Amravati - MPCB",17-04-2024 09:00:00,20.9402359,77.7895248,PM10,58,107,79
India,Maharashtra,Amravati,"Shivneri Colony, Amravati - MPCB",17-04-2024 09:00:00,20.9402359,77.7895248,NO2,8,53,25
India,Maharashtra,Amravati,"Shivneri Colony, Amravati - MPCB",17-04-2024 09:00:00,20.9402359,77.7895248,OZONE,3,83,13
India,Maharashtra,Amravati,"Shri Shivaji Science College, Amaravati - MPCB",17-04-2024 09:00:00,20.939198,77.765701,NH3,1,30,9
