country,state,city,station,last_update,latitude,longitude,pollutant_id,pollutant_min,pollutant_max,pollutant_avg
India,Andhra_Pradesh,Amaravati,"Secretariat, Amaravati - APPCB",04-02-2024 07:00:00,16.5150833,80.5181667,NH3,3,4,4
India,Andhra_Pradesh,Anantapur,"Gulzarpet, Anantapur - APPCB",04-02-2024 07:00:00,14.675886,77.593027,SO2,5,33,10
India,Andhra_Pradesh,Chittoor,"Gangineni Cheruvu, Chittoor - APPCB",04-02-2024 07:00:00,13.204880,79.097889,PM10,NA,NA,NA
India,Andhra_Pradesh,Kadapa,"Yerramukkapalli, Kadapa - APPCB",04-02-2024 07:00:00,14.465052,78.824187,CO,12,20,15
India,Andhra_Pradesh,Kadapa,"Yerramukkapalli, Kadapa - APPCB",04-02-2024 07:00:00,14.465052,78.824187,OZONE,12,74,20
India,Andhra_Pradesh,Rajamahendravaram,"Anand Kala Kshetram, Rajamahendravaram - APPCB",04-02-2024 07:00:00,16.9872867,81.7363176,OZONE,4,6,5
India,Andhra_Pradesh,Tirupati,"Tirumala, Tirupati - APPCB",04-02-2024 07:00:00,13.67,79.35,PM10,46,86,62
India,Andhra_Pradesh,Tirupati,"Tirumala, Tirupati - APPCB",04-02-2024 07:00:00,13.67,79.35,NO2,30,55,40
India,Andhra_Pradesh,Vijayawada,"HB Colony, Vijayawada - APPCB",04-02-2024 07:00:00,16.536107,80.594233,CO,23,32,31
India,Andhra_Pradesh,Vijayawada,"Kanuru, Vijayawada - APPCB",04-02-2024 07:00:00,16.486692,80.699436,SO2,5,10,7
India,Andhra_Pradesh,Vijayawada,"Rajiv Gandhi Park, Vijayawada - APPCB",04-02-2024 07:00:00,16.509717,80.612222,PM10,48,74,58
India,Andhra_Pradesh,Vijayawada,"Rajiv Gandhi Park, Vijayawada - APPCB",04-02-2024 07:00:00,16.509717,80.612222,NO2,5,77,41
India,Andhra_Pradesh,Vijayawada,"Rajiv Gandhi Park, Vijayawada - APPCB",04-02-2024 07:00:00,16.509717,80.612222,SO2,4,7,6
India,Andhra_Pradesh,Vijayawada,"Rajiv Nagar, Vijayawada - APPCB",04-02-2024 07:00:00,16.554731,80.649110,NH3,1,2,2
India,Andhra_Pradesh,Vijayawada,"Rajiv Nagar, Vijayawada - APPCB",04-02-2024 07:00:00,16.554731,80.649110,CO,18,68,41
India,Andhra_Pradesh,Visakhapatnam,"GVM Corporation, Visakhapatnam - APPCB",04-02-2024 07:00:00,17.72,83.3,NH3,2,7,4
India,Andhra_Pradesh,Visakhapatnam,"GVM Corporation, Visakhapatnam - APPCB",04-02-2024 07:00:00,17.72,83.3,CO,10,60,29
India,Assam,Byrnihat,"Central Academy for SFS, Byrnihat - PCBA",04-02-2024 07:00:00,26.071318,91.87488,PM10,82,500,335
India,Assam,Guwahati,"IITG, Guwahati - PCBA",04-02-2024 07:00:00,26.2028636,91.70046436,PM2.5,83,323,190
India,Assam,Guwahati,"IITG, Guwahati - PCBA",04-02-2024 07:00:00,26.2028636,91.70046436,PM10,79,169,117
India,Assam,Guwahati,"IITG, Guwahati - PCBA",04-02-2024 07:00:00,26.2028636,91.70046436,OZONE,3,28,7
India,Assam,Guwahati,"LGBI Airport, Guwahati - PCBA",04-02-2024 07:00:00,26.10887,91.589544,NO2,2,57,18
India,Assam,Guwahati,"LGBI Airport, Guwahati - PCBA",04-02-2024 07:00:00,26.10887,91.589544,NH3,NA,NA,NA
India,Assam,Guwahati,"LGBI Airport, Guwahati - PCBA",04-02-2024 07:00:00,26.10887,91.589544,OZONE,1,75,11
India,Assam,Guwahati,"Pan Bazaar, Guwahati - PCBA",04-02-2024 07:00:00,26.187500,91.744194,CO,23,70,32
India,Assam,Guwahati,"Railway Colony, Guwahati - PCBA",04-02-2024 07:00:00,26.181742,91.78063,PM2.5,17,332,158
India,Assam,Nagaon,"Christianpatty, Nagaon - PCBA",04-02-2024 07:00:00,26.349082,92.68449,CO,10,92,23
India,Assam,Nagaon,"Christianpatty, Nagaon - PCBA",04-02-2024 07:00:00,26.349082,92.68449,OZONE,8,91,15
India,Assam,Nalbari,"Bata Chowk, Nalbari - PCBA",04-02-2024 07:00:00,26.446912,91.439057,NO2,NA,NA,NA
India,Assam,Silchar,"Tarapur, Silchar - PCBA",04-02-2024 07:00:00,24.82827,92.79525,PM2.5,28,39,33
India,Assam,Sivasagar,"Girls College, Sivasagar - PCBA",04-02-2024 07:00:00,26.987634,94.636574,PM10,25,97,60
India,Assam,Sivasagar,"Girls College, Sivasagar - PCBA",04-02-2024 07:00:00,26.987634,94.636574,SO2,5,5,5
India,Assam,Sivasagar,"Girls College, Sivasagar - PCBA",04-02-2024 07:00:00,26.987634,94.636574,OZONE,1,4,1
India,Bihar,Araria,"Kharahiya Basti, Araria - BSPCB",04-02-2024 07:00:00,26.146529,87.454184,NH3,6,8,7
India,Bihar,Araria,"Kharahiya Basti, Araria - BSPCB",04-02-2024 07:00:00,26.146529,87.454184,CO,15,31,29
India,Bihar,Arrah,"New DM Office, Arrah - BSPCB",04-02-2024 07:00:00,25.5626095,84.663264,NH3,NA,NA,NA
India,Bihar,Aurangabad,"Gurdeo Nagar, Aurangabad - BSPCB",04-02-2024 07:00:00,24.75746,84.366208,SO2,2,16,10
India,Bihar,Bhagalpur,"DM Office_Kachari Chowk, Bhagalpur - BSPCB",04-02-2024 07:00:00,25.251013,86.989001,SO2,1,30,14
India,Bihar,Bihar Sharif,"D M Colony, Bihar Sharif - BSPCB",04-02-2024 07:00:00,25.204762,85.514960,SO2,1,16,7
India,Bihar,Buxar,"Charitra Van, Buxar - BSPCB (Formerly known as Central Jail)",04-02-2024 07:00:00,25.567520,83.966379,CO,10,68,49
India,Bihar,Chhapra,"Darshan Nagar, Chhapra - BSPCB",04-02-2024 07:00:00,25.7808257,84.7446768,NO2,16,30,22
India,Bihar,Chhapra,"Darshan Nagar, Chhapra - BSPCB",04-02-2024 07:00:00,25.7808257,84.7446768,NH3,9,15,12
India,Bihar,Chhapra,"Darshan Nagar, Chhapra - BSPCB",04-02-2024 07:00:00,25.7808257,84.7446768,OZONE,1,17,3
India,Bihar,Gaya,"Collectorate, Gaya - BSPCB",04-02-2024 07:00:00,24.7955,84.9994,OZONE,54,78,69
India,Bihar,Gaya,"Kareemganj, Gaya - BSPCB",04-02-2024 07:00:00,24.792403,84.992416,PM2.5,15,55,28
India,Bihar,Gaya,"Kareemganj, Gaya - BSPCB",04-02-2024 07:00:00,24.792403,84.992416,NH3,1,6,3
India,Bihar,Gaya,"Kareemganj, Gaya - BSPCB",04-02-2024 07:00:00,24.792403,84.992416,SO2,8,12,10
India,Bihar,Gaya,"SFTI Kusdihra, Gaya - BSPCB",04-02-2024 07:00:00,24.762518,84.982348,SO2,7,9,8
India,Bihar,Hajipur,"Industrial Area, Hajipur - BSPCB",04-02-2024 07:00:00,25.697189,85.245900,PM10,159,372,246
India,Bihar,Hajipur,"Industrial Area, Hajipur - BSPCB",04-02-2024 07:00:00,25.697189,85.245900,SO2,6,8,7
India,Bihar,Hajipur,"Industrial Area, Hajipur - BSPCB",04-02-2024 07:00:00,25.697189,85.245900,CO,36,78,61
India,Bihar,Katihar,"Mirchaibari, Katihar - BSPCB",04-02-2024 07:00:00,25.560083,87.553265,NO2,9,43,17
India,Bihar,Katihar,"Mirchaibari, Katihar - BSPCB",04-02-2024 07:00:00,25.560083,87.553265,NH3,2,4,3
India,Bihar,Kishanganj,"SDM Office_Khagra, Kishanganj - BSPCB",04-02-2024 07:00:00,26.0881305,87.93840336,NH3,12,17,14
India,Bihar,Kishanganj,"SDM Office_Khagra, Kishanganj - BSPCB",04-02-2024 07:00:00,26.0881305,87.93840336,SO2,6,18,11
India,Bihar,Kishanganj,"SDM Office_Khagra, Kishanganj - BSPCB",04-02-2024 07:00:00,26.0881305,87.93840336,OZONE,16,37,35
India,Bihar,Manguraha,"Forest Rest House, Manguraha - BSPCB",04-02-2024 07:00:00,27.308328,84.531742,PM2.5,57,150,91
India,Bihar,Motihari,"Gandak Colony, Motihari - BSPCB",04-02-2024 07:00:00,26.63086,84.90051,PM2.5,63,303,154
India,Bihar,Munger,"Town Hall, Munger - BSPCB",04-02-2024 07:00:00,25.376776,86.471523,PM2.5,57,343,193
India,Bihar,Munger,"Town Hall, Munger - BSPCB",04-02-2024 07:00:00,25.376776,86.471523,NH3,1,2,2
India,Bihar,Muzaffarpur,"MIT-Daudpur Kothi, Muzaffarpur - BSPCB",04-02-2024 07:00:00,26.1403345,85.3650192,NO2,4,25,8
India,Bihar,Muzaffarpur,"Muzaffarpur Collectorate, Muzaffarpur - BSPCB",04-02-2024 07:00:00,26.1209,85.3647,PM2.5,71,351,222
India,Bihar,Muzaffarpur,"Muzaffarpur Collectorate, Muzaffarpur - BSPCB",04-02-2024 07:00:00,26.1209,85.3647,CO,22,102,22
India,Bihar,Patna,"Govt. High School Shikarpur, Patna - BSPCB",04-02-2024 07:00:00,25.592539,85.227158,PM2.5,89,230,165
India,Bihar,Patna,"Samanpura, Patna - BSPCB",04-02-2024 07:00:00,25.596727,85.085624,PM10,168,415,249
India,Bihar,Purnia,"Mariam Nagar, Purnia - BSPCB",04-02-2024 07:00:00,25.366336,87.117468,PM2.5,43,328,170
India,Bihar,Purnia,"Mariam Nagar, Purnia - BSPCB",04-02-2024 07:00:00,25.366336,87.117468,SO2,15,21,18
India,Bihar,Purnia,"Mariam Nagar, Purnia - BSPCB",04-02-2024 07:00:00,25.366336,87.117468,OZONE,9,27,10
India,Bihar,Rajgir,"Dangi Tola, Rajgir - BSPCB",04-02-2024 07:00:00,25.03280,85.41948,OZONE,22,26,23
India,Bihar,Saharsa,"Police Line, Saharsa - BSPCB",04-02-2024 07:00:00,25.892357,86.590325,OZONE,10,70,11
India,Bihar,Siwan,"Chitragupta Nagar, Siwan - BSPCB",04-02-2024 07:00:00,26.2271665,84.3570427,PM2.5,35,85,63
India,Bihar,Siwan,"Chitragupta Nagar, Siwan - BSPCB",04-02-2024 07:00:00,26.2271665,84.3570427,OZONE,6,82,19
India,Chandigarh,Chandigarh,"Sector 22, Chandigarh - CPCC",04-02-2024 07:00:00,30.735567,76.775714,PM10,45,226,129
India,Chandigarh,Chandigarh,"Sector 22, Chandigarh - CPCC",04-02-2024 07:00:00,30.735567,76.775714,NH3,3,7,5
India,Chandigarh,Chandigarh,"Sector 22, Chandigarh - CPCC",04-02-2024 07:00:00,30.735567,76.775714,OZONE,2,78,3
India,Chandigarh,Chandigarh,"Sector-53, Chandigarh - CPCC",04-02-2024 07:00:00,30.719859,76.738637,PM2.5,30,303,167
India,Chandigarh,Chandigarh,"Sector-53, Chandigarh - CPCC",04-02-2024 07:00:00,30.719859,76.738637,CO,34,104,81
India,Chandigarh,Chandigarh,"Sector-53, Chandigarh - CPCC",04-02-2024 07:00:00,30.719859,76.738637,OZONE,3,33,4
India,Chhattisgarh,Bhilai,"32Bungalows, Bhilai - CECB",04-02-2024 07:00:00,21.194815,81.314770,PM10,36,85,59
India,Chhattisgarh,Bhilai,"Civic Center, Bhilai - Bhilai Steel Plant",04-02-2024 07:00:00,21.185571,81.343175,PM2.5,21,60,42
India,Chhattisgarh,Bhilai,"Hathkhoj, Bhilai - CECB",04-02-2024 07:00:00,21.224231,81.408350,OZONE,6,18,8
India,Chhattisgarh,Chhal,"Nawapara SECL Colony, Chhal - CECB",04-02-2024 07:00:00,22.118125,83.140608,SO2,10,70,25
India,Chhattisgarh,Kunjemura,"OP Jindal School, Kunjemura - CECB",04-02-2024 07:00:00,22.126650,83.483212,CO,16,106,40
India,Chhattisgarh,Raipur,"Bhatagaon New ISBT, Raipur - CECB",04-02-2024 07:00:00,21.219665,81.630094,SO2,NA,NA,NA
India,Chhattisgarh,Raipur,"Bhatagaon New ISBT, Raipur - CECB",04-02-2024 07:00:00,21.219665,81.630094,CO,22,111,100
India,Delhi,Delhi,"Alipur, Delhi - DPCC",04-02-2024 07:00:00,28.815329,77.153010,NO2,25,89,50
India,Delhi,Delhi,"Alipur, Delhi - DPCC",04-02-2024 07:00:00,28.815329,77.153010,CO,38,88,61
India,Delhi,Delhi,"Anand Vihar, Delhi - DPCC",04-02-2024 07:00:00,28.647622,77.3158090,PM2.5,145,426,302
India,Delhi,Delhi,"Ashok Vihar, Delhi - DPCC",04-02-2024 07:00:00,28.695381,77.181665,PM10,133,405,237
India,Delhi,Delhi,"Ashok Vihar, Delhi - DPCC",04-02-2024 07:00:00,28.695381,77.181665,NH3,7,9,8
India,Delhi,Delhi,"Bawana, Delhi - DPCC",04-02-2024 07:00:00,28.776200,77.051074,SO2,3,8,5
India,Delhi,Delhi,"Bawana, Delhi - DPCC",04-02-2024 07:00:00,28.776200,77.051074,CO,39,104,64
India,Delhi,Delhi,"CRRI Mathura Road, Delhi - IMD",04-02-2024 07:00:00,28.5512005,77.2735737,NO2,38,48,43
India,Delhi,Delhi,"DTU, Delhi - CPCB",04-02-2024 07:00:00,28.7500499,77.1112615,NO2,1,60,31
India,Delhi,Delhi,"DTU, Delhi - CPCB",04-02-2024 07:00:00,28.7500499,77.1112615,SO2,26,28,27
India,Delhi,Delhi,"Dr. Karni Singh Shooting Range, Delhi - DPCC",04-02-2024 07:00:00,28.498571,77.264840,CO,34,143,106
India,Delhi,Delhi,"Dwarka-Sector 8, Delhi - DPCC ",04-02-2024 07:00:00,28.5710274,77.0719006,PM10,87,469,262
India,Delhi,Delhi,"Dwarka-Sector 8, Delhi - DPCC ",04-02-2024 07:00:00,28.5710274,77.0719006,OZONE,2,27,3
India,Delhi,Delhi,"IGI Airport (T3), Delhi - IMD",04-02-2024 07:00:00,28.5627763,77.1180053,CO,78,136,116
India,Delhi,Delhi,"IHBAS, Dilshad Garden, Delhi - CPCB",04-02-2024 07:00:00,28.6811736,77.3025234,SO2,5,52,19
India,Delhi,Delhi,"IHBAS, Dilshad Garden, Delhi - CPCB",04-02-2024 07:00:00,28.6811736,77.3025234,CO,8,114,73
India,Delhi,Delhi,"ITO, Delhi - CPCB",04-02-2024 07:00:00,28.628624,77.241060,PM10,74,228,132
India,Delhi,Delhi,"ITO, Delhi - CPCB",04-02-2024 07:00:00,28.628624,77.241060,NO2,14,175,80
India,Delhi,Delhi,"Jawaharlal Nehru Stadium, Delhi - DPCC",04-02-2024 07:00:00,28.580280,77.233829,NH3,7,13,9
India,Delhi,Delhi,"Lodhi Road, Delhi - IITM",04-02-2024 07:00:00,28.588333,77.221667,OZONE,16,16,16
India,Delhi,Delhi,"Lodhi Road, Delhi - IMD",04-02-2024 07:00:00,28.5918245,77.2273074,NO2,5,5,5
India,Delhi,Delhi,"Lodhi Road, Delhi - IMD",04-02-2024 07:00:00,28.5918245,77.2273074,OZONE,14,60,15
India,Delhi,Delhi,"NSIT Dwarka, Delhi - CPCB",04-02-2024 07:00:00,28.60909,77.0325413,PM2.5,70,392,222
India,Delhi,Delhi,"Najafgarh, Delhi - DPCC",04-02-2024 07:00:00,28.570173,76.933762,NH3,5,7,6
India,Delhi,Delhi,"Najafgarh, Delhi - DPCC",04-02-2024 07:00:00,28.570173,76.933762,SO2,6,14,10
India,Delhi,Delhi,"Nehru Nagar, Delhi - DPCC",04-02-2024 07:00:00,28.567890,77.250515,NH3,10,31,19
India,Delhi,Delhi,"New Moti Bagh, Delhi - MHUA",04-02-2024 07:00:00,28.57834,77.18400,PM2.5,71,375,256
India,Delhi,Delhi,"North Campus, DU, Delhi - IMD",04-02-2024 07:00:00,28.6573814,77.1585447,PM2.5,NA,NA,NA
India,Delhi,Delhi,"North Campus, DU, Delhi - IMD",04-02-2024 07:00:00,28.6573814,77.1585447,PM10,NA,NA,NA
India,Delhi,Delhi,"Okhla Phase-2, Delhi - DPCC",04-02-2024 07:00:00,28.530785,77.271255,PM10,83,431,218
India,Delhi,Delhi,"Okhla Phase-2, Delhi - DPCC",04-02-2024 07:00:00,28.530785,77.271255,OZONE,9,38,11
India,Delhi,Delhi,"Punjabi Bagh, Delhi - DPCC",04-02-2024 07:00:00,28.674045,77.131023,NO2,38,66,55
India,Delhi,Delhi,"Punjabi Bagh, Delhi - DPCC",04-02-2024 07:00:00,28.674045,77.131023,CO,24,176,82
India,Delhi,Delhi,"Pusa, Delhi - DPCC",04-02-2024 07:00:00,28.639652,77.146275,SO2,5,42,18
India,Delhi,Delhi,"R K Puram, Delhi - DPCC",04-02-2024 07:00:00,28.563262,77.186937,PM10,53,476,202
India,Delhi,Delhi,"R K Puram, Delhi - DPCC",04-02-2024 07:00:00,28.563262,77.186937,NH3,4,9,6
India,Delhi,Delhi,"Rohini, Delhi - DPCC",04-02-2024 07:00:00,28.732528,77.119920,OZONE,2,74,3
India,Delhi,Delhi,"Shadipur, Delhi - CPCB",04-02-2024 07:00:00,28.6514781,77.1473105,PM10,147,500,305
India,Delhi,Delhi,"Shadipur, Delhi - CPCB",04-02-2024 07:00:00,28.6514781,77.1473105,NO2,35,429,110
India,Delhi,Delhi,"Shadipur, Delhi - CPCB",04-02-2024 07:00:00,28.6514781,77.1473105,SO2,15,28,20
India,Delhi,Delhi,"Sirifort, Delhi - CPCB",04-02-2024 07:00:00,28.5504249,77.2159377,PM10,22,114,61
India,Delhi,Delhi,"Sirifort, Delhi - CPCB",04-02-2024 07:00:00,28.5504249,77.2159377,NH3,10,16,13
India,Delhi,Delhi,"Sirifort, Delhi - CPCB",04-02-2024 07:00:00,28.5504249,77.2159377,OZONE,2,27,18
India,Delhi,Delhi,"Sonia Vihar, Delhi - DPCC",04-02-2024 07:00:00,28.710508,77.249485,PM10,120,496,274
India,Delhi,Delhi,"Sri Aurobindo Marg, Delhi - DPCC",04-02-2024 07:00:00,28.531346,77.190156,OZONE,1,15,2
India,Delhi,Delhi,"Vivek Vihar, Delhi - DPCC",04-02-2024 07:00:00,28.672342,77.315260,PM2.5,168,406,311
India,Delhi,Delhi,"Vivek Vihar, Delhi - DPCC",04-02-2024 07:00:00,28.672342,77.315260,NH3,4,9,6
India,Delhi,Delhi,"Vivek Vihar, Delhi - DPCC",04-02-2024 07:00:00,28.672342,77.315260,SO2,6,23,11
India,Delhi,Delhi,"Vivek Vihar, Delhi - DPCC",04-02-2024 07:00:00,28.672342,77.315260,OZONE,3,36,11
India,Delhi,Delhi,"Wazirpur, Delhi - DPCC",04-02-2024 07:00:00,28.699793,77.165453,NH3,2,7,5
India,Gujarat,Ahmedabad,"Chandkheda, Ahmedabad - IITM",04-02-2024 07:00:00,23.107969,72.574648,SO2,10,15,12
India,Gujarat,Ahmedabad,"Maninagar, Ahmedabad - GPCB",04-02-2024 07:00:00,23.002657,72.591912,OZONE,5,88,14
India,Gujarat,Ahmedabad,"Raikhad, Ahmedabad - IITM",04-02-2024 07:00:00,23.020509,72.579261,OZONE,8,14,13
India,Gujarat,Ahmedabad,"Rakhial, Ahmedabad - IITM",04-02-2024 07:00:00,23.016834,72.625775,PM10,73,253,136
India,Gujarat,Ahmedabad,"Rakhial, Ahmedabad - IITM",04-02-2024 07:00:00,23.016834,72.625775,NO2,8,140,43
India,Gujarat,Ahmedabad,"SAC ISRO Bopal, Ahmedabad - IITM",04-02-2024 07:00:00,23.041137,72.456691,PM2.5,71,402,169
India,Gujarat,Ahmedabad,"SAC ISRO Bopal, Ahmedabad - IITM",04-02-2024 07:00:00,23.041137,72.456691,PM10,66,340,117
India,Gujarat,Ahmedabad,"SAC ISRO Bopal, Ahmedabad - IITM",04-02-2024 07:00:00,23.041137,72.456691,NO2,11,17,12
India,Gujarat,Ahmedabad,"SVPI Airport Hansol, Ahmedabad - IITM",04-02-2024 07:00:00,23.076793,72.627874,PM10,57,272,115
India,Gujarat,Ahmedabad,"SVPI Airport Hansol, Ahmedabad - IITM",04-02-2024 07:00:00,23.076793,72.627874,CO,36,133,102
India,Gujarat,Ahmedabad,"Sardar Vallabhbhai Patel Stadium, Ahmedabad - IITM",04-02-2024 07:00:00,23.043070,72.562968,PM2.5,68,321,182
India,Gujarat,Ahmedabad,"Sardar Vallabhbhai Patel Stadium, Ahmedabad - IITM",04-02-2024 07:00:00,23.043070,72.562968,PM10,84,211,143
India,Gujarat,Ankleshwar,"GIDC, Ankleshwar - GPCB",04-02-2024 07:00:00,21.613267,73.010555,OZONE,15,30,18
India,Gujarat,Gandhinagar,"Sector-10, Gandhinagar - GPCB",04-02-2024 07:00:00,23.221714,72.654328,CO,19,20,20
India,Gujarat,Surat,"Science Center, Surat - SMC",04-02-2024 07:00:00,21.170046,72.795405,NO2,7,22,13
India,Gujarat,Surat,"Science Center, Surat - SMC",04-02-2024 07:00:00,21.170046,72.795405,SO2,17,28,20
India,Gujarat,Vapi,"Phase-1 GIDC, Vapi - GPCB",04-02-2024 07:00:00,20.362421,72.918013,OZONE,5,9,8
India,Gujarat,Vatva,"Phase-4 GIDC, Vatva - GPCB",04-02-2024 07:00:00,22.969611,72.643500,SO2,4,7,5
India,Haryana,Bahadurgarh,"Arya Nagar, Bahadurgarh - HSPCB",04-02-2024 07:00:00,28.6701,76.9254,PM2.5,59,276,150
India,Haryana,Bahadurgarh,"Arya Nagar, Bahadurgarh - HSPCB",04-02-2024 07:00:00,28.6701,76.9254,NO2,34,39,36
India,Haryana,Ballabgarh,"Nathu Colony, Ballabgarh - HSPCB",04-02-2024 07:00:00,28.3419248,77.319699,PM2.5,64,497,250
India,Haryana,Ballabgarh,"Nathu Colony, Ballabgarh - HSPCB",04-02-2024 07:00:00,28.3419248,77.319699,NO2,12,14,13
India,Haryana,Ballabgarh,"Nathu Colony, Ballabgarh - HSPCB",04-02-2024 07:00:00,28.3419248,77.319699,SO2,6,33,16
India,Haryana,Ballabgarh,"Nathu Colony, Ballabgarh - HSPCB",04-02-2024 07:00:00,28.3419248,77.319699,CO,2,161,34
India,Haryana,Dharuhera,"Municipal Corporation Office, Dharuhera -  HSPCB",04-02-2024 07:00:00,28.206800,76.799700,PM10,88,426,195
India,Haryana,Faridabad,"New Industrial Town, Faridabad - HSPCB",04-02-2024 07:00:00,28.39072,77.30059,PM10,108,500,274
India,Haryana,Faridabad,"Sector 11, Faridabad - HSPCB",04-02-2024 07:00:00,28.376058,77.315741,PM2.5,59,309,151
India,Haryana,Faridabad,"Sector- 16A, Faridabad - HSPCB",04-02-2024 07:00:00,28.4088421,77.3099081,SO2,2,26,20
India,Haryana,Gurugram,"NISE Gwal Pahari, Gurugram - IMD",04-02-2024 07:00:00,28.422681,77.148944,PM10,2,160,115
India,Haryana,Gurugram,"Sector-51, Gurugram - HSPCB",04-02-2024 07:00:00,28.4227,77.0667,CO,28,128,118
India,Haryana,Gurugram,"Teri Gram, Gurugram - HSPCB",04-02-2024 07:00:00,28.4275,77.1465,NO2,27,47,38
India,Haryana,Gurugram,"Teri Gram, Gurugram - HSPCB",04-02-2024 07:00:00,28.4275,77.1465,NH3,32,56,47
India,Haryana,Gurugram,"Vikas Sadan, Gurugram - HSPCB",04-02-2024 07:00:00,28.4501238,77.0263051,NO2,5,24,14
India,Haryana,Gurugram,"Vikas Sadan, Gurugram - HSPCB",04-02-2024 07:00:00,28.4501238,77.0263051,CO,54,140,109
India,Haryana,Hisar,"Urban Estate-II, Hisar - HSPCB",04-02-2024 07:00:00,29.140560,75.744941,SO2,4,71,27
India,Haryana,Jind,"Police Lines, Jind - HSPCB",04-02-2024 07:00:00,29.307814,76.337619,NO2,8,16,12
India,Haryana,Kaithal,"Rishi Nagar, Kaithal - HSPCB",04-02-2024 07:00:00,29.8006,76.4155,PM10,61,229,101
India,Haryana,Kaithal,"Rishi Nagar, Kaithal - HSPCB",04-02-2024 07:00:00,29.8006,76.4155,NH3,8,8,8
India,Haryana,Kaithal,"Rishi Nagar, Kaithal - HSPCB",04-02-2024 07:00:00,29.8006,76.4155,CO,6,64,21
India,Haryana,Karnal,"Sector-12, Karnal - HSPCB",04-02-2024 07:00:00,29.695300,77.002700,CO,28,56,39
India,Haryana,Karnal,"Sector-12, Karnal - HSPCB",04-02-2024 07:00:00,29.695300,77.002700,OZONE,30,33,31
India,Haryana,Kurukshetra,"Sector-7, Kurukshetra - HSPCB",04-02-2024 07:00:00,29.966942,76.875879,PM2.5,56,234,99
India,Haryana,Kurukshetra,"Sector-7, Kurukshetra - HSPCB",04-02-2024 07:00:00,29.966942,76.875879,PM10,47,202,80
India,Haryana,Kurukshetra,"Sector-7, Kurukshetra - HSPCB",04-02-2024 07:00:00,29.966942,76.875879,NO2,10,10,10
India,Haryana,Kurukshetra,"Sector-7, Kurukshetra - HSPCB",04-02-2024 07:00:00,29.966942,76.875879,NH3,5,5,5
India,Haryana,Kurukshetra,"Sector-7, Kurukshetra - HSPCB",04-02-2024 07:00:00,29.966942,76.875879,CO,15,100,22
India,Haryana,Mandikhera,"General Hospital, Mandikhera - HSPCB",04-02-2024 07:00:00,27.9002,76.9938,PM2.5,2,19,8
India,Haryana,Mandikhera,"General Hospital, Mandikhera - HSPCB",04-02-2024 07:00:00,27.9002,76.9938,NH3,18,21,20
India,Haryana,Mandikhera,"General Hospital, Mandikhera - HSPCB",04-02-2024 07:00:00,27.9002,76.9938,CO,14,54,41
India,Haryana,Manesar,"Sector-2 IMT, Manesar - HSPCB",04-02-2024 07:00:00,28.360699,76.936090,PM10,63,247,132
India,Haryana,Narnaul,"Shastri Nagar, Narnaul - HSPCB",04-02-2024 07:00:00,28.060249,76.113115,PM10,41,120,71
India,Haryana,Narnaul,"Shastri Nagar, Narnaul - HSPCB",04-02-2024 07:00:00,28.060249,76.113115,NH3,5,18,12
India,Haryana,Palwal,"Shyam Nagar, Palwal - HSPCB",04-02-2024 07:00:00,28.1485564,77.3320667,OZONE,1,30,6
India,Haryana,Panchkula,"Sector-6, Panchkula - HSPCB ",04-02-2024 07:00:00,30.7057778,76.8531805555555,OZONE,28,31,30
India,Haryana,Panipat,"Sector-18, Panipat - HSPCB",04-02-2024 07:00:00,29.497973,76.993331,NO2,29,33,30
India,Haryana,Panipat,"Sector-18, Panipat - HSPCB",04-02-2024 07:00:00,29.497973,76.993331,SO2,12,13,12
India,Haryana,Panipat,"Sector-18, Panipat - HSPCB",04-02-2024 07:00:00,29.497973,76.993331,CO,22,28,24
India,Haryana,Sirsa,"F-Block, Sirsa - HSPCB",04-02-2024 07:00:00,29.536400,75.015800,PM2.5,4,90,53
India,Haryana,Sirsa,"F-Block, Sirsa - HSPCB",04-02-2024 07:00:00,29.536400,75.015800,SO2,NA,NA,NA
India,Haryana,Sirsa,"F-Block, Sirsa - HSPCB",04-02-2024 07:00:00,29.536400,75.015800,CO,6,82,77
India,Haryana,Sonipat,"Murthal, Sonipat - HSPCB",04-02-2024 07:00:00,29.027200,77.062100,NO2,37,44,40
India,Haryana,Sonipat,"Murthal, Sonipat - HSPCB",04-02-2024 07:00:00,29.027200,77.062100,OZONE,16,36,19
India,Jharkhand,Dhanbad,"Kalakusuma, Dhanbad - DMC",04-02-2024 07:00:00,23.811548,86.481238,PM2.5,NA,NA,NA
India,Jharkhand,Dhanbad,"Kalakusuma, Dhanbad - DMC",04-02-2024 07:00:00,23.811548,86.481238,CO,1,76,2
India,Jharkhand,Pathardih,"Mohalbani Ghat, Pathardih - DMC",04-02-2024 07:00:00,23.669880,86.411725,PM10,NA,NA,NA
India,Karnataka,Bagalkot,"Vidayagiri, Bagalkot - KSPCB",04-02-2024 07:00:00,16.172806,75.659694,PM2.5,20,30,29
India,Karnataka,Bagalkot,"Vidayagiri, Bagalkot - KSPCB",04-02-2024 07:00:00,16.172806,75.659694,SO2,9,10,9
India,Karnataka,Belgaum,"Ramteerth Nagar, Belgaum - KSPCB",04-02-2024 07:00:00,15.888653,74.541751,PM2.5,32,120,71
India,Karnataka,Bengaluru,"BTM Layout, Bengaluru - CPCB",04-02-2024 07:00:00,12.9135218,77.5950804,NH3,13,17,14
India,Karnataka,Bengaluru,"Hebbal, Bengaluru - KSPCB",04-02-2024 07:00:00,13.029152,77.585901,OZONE,7,47,9
India,Karnataka,Bengaluru,"Hombegowda Nagar, Bengaluru - KSPCB",04-02-2024 07:00:00,12.938539,77.590100,CO,16,20,18
India,Karnataka,Bengaluru,"Kasturi Nagar, Bengaluru - KSPCB",04-02-2024 07:00:00,13.003872,77.664217,SO2,9,10,10
India,Karnataka,Bengaluru,"RVCE-Mailasandra, Bengaluru - KSPCB",04-02-2024 07:00:00,12.921418,77.502466,NO2,31,31,31
India,Karnataka,Bengaluru,"Sanegurava Halli, Bengaluru - KSPCB",04-02-2024 07:00:00,12.990328,77.5431385,PM10,10,125,56
India,Karnataka,Bengaluru,"Shivapura_Peenya, Bengaluru - KSPCB",04-02-2024 07:00:00,13.0246342,77.5080115,NH3,4,4,4
India,Karnataka,Bengaluru,"Shivapura_Peenya, Bengaluru - KSPCB",04-02-2024 07:00:00,13.0246342,77.5080115,OZONE,16,140,81
India,Karnataka,Bengaluru,"Silk Board, Bengaluru - KSPCB",04-02-2024 07:00:00,12.917348,77.622813,NH3,5,6,5
India,Karnataka,Bengaluru,"Silk Board, Bengaluru - KSPCB",04-02-2024 07:00:00,12.917348,77.622813,SO2,8,11,10
India,Karnataka,Bengaluru,"Silk Board, Bengaluru - KSPCB",04-02-2024 07:00:00,12.917348,77.622813,CO,29,39,32
India,Karnataka,Bidar,"Naubad, Bidar - KSPCB",04-02-2024 07:00:00,17.930306,77.482194,SO2,15,18,16
India,Karnataka,Chamarajanagar,"Urban, Chamarajanagar - KSPCB",04-02-2024 07:00:00,11.55358,76.55521,PM2.5,26,49,34
India,Karnataka,Chamarajanagar,"Urban, Chamarajanagar - KSPCB",04-02-2024 07:00:00,11.55358,76.55521,PM10,44,59,48
India,Karnataka,Chamarajanagar,"Urban, Chamarajanagar - KSPCB",04-02-2024 07:00:00,11.55358,76.55521,CO,19,38,20
India,Karnataka,Chikkaballapur,"Chikkaballapur Rural, Chikkaballapur - KSPCB",04-02-2024 07:00:00,13.428828,77.731418,PM2.5,49,125,72
India,Karnataka,Chikkamagaluru,"Kalyana Nagara, Chikkamagaluru - KSPCB",04-02-2024 07:00:00,13.328028,75.797056,PM2.5,NA,NA,NA
India,Karnataka,Chikkamagaluru,"Kalyana Nagara, Chikkamagaluru - KSPCB",04-02-2024 07:00:00,13.328028,75.797056,NH3,NA,NA,NA
India,Karnataka,Davanagere,"Devaraj Urs Badavane, Davanagere - KSPCB",04-02-2024 07:00:00,14.475800,75.905200,NO2,7,16,12
India,Karnataka,Dharwad,"Kalabhavan, Dharwad - KSPCB",04-02-2024 07:00:00,15.459706,75.008381,CO,45,163,73
India,Karnataka,Gadag,"Panchal Nagar, Gadag - KSPCB",04-02-2024 07:00:00,15.411456,75.638133,PM2.5,42,80,57
India,Karnataka,Hassan,"B.Katihalli, Hassan - KSPCB",04-02-2024 07:00:00,13.008556,76.125258,NO2,NA,NA,NA
India,Karnataka,Haveri,"Ashwini Nagar, Haveri - KSPCB",04-02-2024 07:00:00,14.791800,75.389600,PM2.5,NA,NA,NA
India,Karnataka,Haveri,"Ashwini Nagar, Haveri - KSPCB",04-02-2024 07:00:00,14.791800,75.389600,SO2,14,14,14
India,Karnataka,Hubballi,"Lingaraj Nagar, Hubballi - KSPCB",04-02-2024 07:00:00,15.3714823,75.1160168,PM10,46,70,55
India,Karnataka,Kalaburagi,"Lal Bahadur Shastri Nagar, Kalaburagi - KSPCB",04-02-2024 07:00:00,17.321993,76.822628,PM10,NA,NA,NA
India,Karnataka,Kalaburagi,"Lal Bahadur Shastri Nagar, Kalaburagi - KSPCB",04-02-2024 07:00:00,17.321993,76.822628,NO2,NA,NA,NA
India,Karnataka,Kalaburagi,"Mahatma Basaveswar Colony, Kalaburgi - KSPCB",04-02-2024 07:00:00,17.336318,76.847397,OZONE,8,27,15
India,Karnataka,Karwar,"KHB Colony, Karwar - KSPCB",04-02-2024 07:00:00,14.816666,74.141003,NH3,2,3,2
India,Karnataka,Koppal,"Diwator Nagar, Koppal - KSPCB",04-02-2024 07:00:00,15.347630,76.181767,NH3,4,7,5
India,Karnataka,Koppal,"Diwator Nagar, Koppal - KSPCB",04-02-2024 07:00:00,15.347630,76.181767,SO2,77,105,82
India,Karnataka,Koppal,"Diwator Nagar, Koppal - KSPCB",04-02-2024 07:00:00,15.347630,76.181767,CO,102,127,110
India,Karnataka,Madikeri,"Stuart Hill, Madikeri - KSPCB",04-02-2024 07:00:00,12.415911,75.735050,SO2,4,4,4
India,Karnataka,Madikeri,"Stuart Hill, Madikeri - KSPCB",04-02-2024 07:00:00,12.415911,75.735050,CO,1,42,21
India,Karnataka,Mysuru,"Hebbal 1st Stage, Mysuru - KSPCB",04-02-2024 07:00:00,12.21041,76.37376,PM10,55,82,70
India,Karnataka,Mysuru,"Hebbal 1st Stage, Mysuru - KSPCB",04-02-2024 07:00:00,12.21041,76.37376,NH3,1,4,2
India,Karnataka,Mysuru,"Hebbal 1st Stage, Mysuru - KSPCB",04-02-2024 07:00:00,12.21041,76.37376,CO,10,62,19
India,Karnataka,Shivamogga,"Vinoba Nagara, Shivamogga - KSPCB",04-02-2024 07:00:00,13.940000,75.555917,NH3,2,4,3
India,Karnataka,Tumakuru,"Thimmalapura, Tumakuru - KSPCB",04-02-2024 07:00:00,13.377516,77.099072,PM2.5,55,296,107
India,Karnataka,Tumakuru,"Thimmalapura, Tumakuru - KSPCB",04-02-2024 07:00:00,13.377516,77.099072,PM10,94,338,152
India,Karnataka,Tumakuru,"Thimmalapura, Tumakuru - KSPCB",04-02-2024 07:00:00,13.377516,77.099072,OZONE,7,55,40
India,Karnataka,Udupi,"Brahmagiri, Udupi - KSPCB",04-02-2024 07:00:00,13.34194444,74.74694444,NO2,13,14,14
India,Karnataka,Vijayapura,"Ibrahimpur, Vijayapura - KSPCB",04-02-2024 07:00:00,16.802639,75.722694,PM2.5,26,31,30
India,Karnataka,Yadgir,"Collector Office, Yadgir - KSPCB",04-02-2024 07:00:00,16.7602,77.1428,PM10,58,143,92
India,Karnataka,Yadgir,"Collector Office, Yadgir - KSPCB",04-02-2024 07:00:00,16.7602,77.1428,NH3,1,1,1
India,Kerala,Eloor,"Udyogamandal, Eloor - Kerala PCB",04-02-2024 07:00:00,10.073232,76.302765,PM10,35,48,40
India,Kerala,Eloor,"Udyogamandal, Eloor - Kerala PCB",04-02-2024 07:00:00,10.073232,76.302765,NH3,1,1,1
India,Kerala,Kannur,"Thavakkara, Kannur - Kerala PCB",04-02-2024 07:00:00,11.875000,75.373200,NH3,1,1,1
India,Kerala,Kollam,"Polayathode, Kollam - Kerala PCB",04-02-2024 07:00:00,8.8787,76.6073,CO,10,59,18
India,Kerala,Thiruvananthapuram,"Kariavattom, Thiruvananthapuram - Kerala PCB",04-02-2024 07:00:00,8.563700,76.886500,PM10,72,85,79
India,Kerala,Thiruvananthapuram,"Kariavattom, Thiruvananthapuram - Kerala PCB",04-02-2024 07:00:00,8.563700,76.886500,SO2,1,11,7
India,Madhya Pradesh,Bhopal,"Idgah Hills, Bhopal - MPPCB",04-02-2024 07:00:00,23.264759,77.381568,SO2,10,35,17
India,Madhya Pradesh,Bhopal,"Idgah Hills, Bhopal - MPPCB",04-02-2024 07:00:00,23.264759,77.381568,CO,28,109,50
India,Madhya Pradesh,Bhopal,"Paryavaran Parisar, Bhopal - MPPCB",04-02-2024 07:00:00,23.210494,77.425409,CO,2,116,34
India,Madhya Pradesh,Dewas,"Bhopal Chauraha, Dewas - MPPCB",04-02-2024 07:00:00,22.9682591,76.064118,PM10,NA,NA,NA
India,Madhya Pradesh,Dewas,"Bhopal Chauraha, Dewas - MPPCB",04-02-2024 07:00:00,22.9682591,76.064118,NO2,NA,NA,NA
India,Madhya Pradesh,Dewas,"Bhopal Chauraha, Dewas - MPPCB",04-02-2024 07:00:00,22.9682591,76.064118,CO,NA,NA,NA
India,Madhya Pradesh,Gwalior,"City Center, Gwalior - MPPCB",04-02-2024 07:00:00,26.203442,78.193251,PM2.5,7,269,137
India,Madhya Pradesh,Gwalior,"City Center, Gwalior - MPPCB",04-02-2024 07:00:00,26.203442,78.193251,PM10,36,260,144
India,Madhya Pradesh,Gwalior,"Maharaj Bada, Gwalior - MPPCB",04-02-2024 07:00:00,26.200388,78.147714,SO2,16,116,32
India,Madhya Pradesh,Gwalior,"Phool Bagh, Gwalior - Mondelez Ind. Food",04-02-2024 07:00:00,26.210536,78.171,SO2,11,18,13
India,Madhya Pradesh,Indore,"Maguda Nagar, Indore - IMC",04-02-2024 07:00:00,22.7524,75.8872,NH3,1,2,1
India,Madhya Pradesh,Indore,"Maguda Nagar, Indore - IMC",04-02-2024 07:00:00,22.7524,75.8872,SO2,18,24,21
India,Madhya Pradesh,Indore,"Regional Park, Indore - IMC",04-02-2024 07:00:00,22.6780,75.8559,PM10,22,78,44
India,Madhya Pradesh,Indore,"Regional Park, Indore - IMC",04-02-2024 07:00:00,22.6780,75.8559,NO2,6,11,8
India,Madhya Pradesh,Indore,"Residency Area, Indore - IMC",04-02-2024 07:00:00,22.7084,75.8815,NH3,NA,NA,NA
India,Madhya Pradesh,Jabalpur,"Gupteshwar, Jabalpur - JMC",04-02-2024 07:00:00,23.142888,79.916147,PM10,32,158,80
India,Madhya Pradesh,Mandideep,"Sector-D Industrial Area, Mandideep - MPPCB",04-02-2024 07:00:00,23.108440,77.511428,NO2,18,210,123
India,Madhya Pradesh,Mandideep,"Sector-D Industrial Area, Mandideep - MPPCB",04-02-2024 07:00:00,23.108440,77.511428,SO2,24,102,63
India,Madhya Pradesh,Ratlam,"Shasthri Nagar, Ratlam - IPCA Lab",04-02-2024 07:00:00,23.331731,75.045981,PM10,81,308,143
India,Madhya Pradesh,Ratlam,"Shasthri Nagar, Ratlam - IPCA Lab",04-02-2024 07:00:00,23.331731,75.045981,SO2,13,14,14
India,Madhya Pradesh,Satna,"Bandhavgar Colony, Satna - Birla Cement",04-02-2024 07:00:00,24.58434363,80.8549414,PM2.5,12,24,17
India,Madhya Pradesh,Satna,"Bandhavgar Colony, Satna - Birla Cement",04-02-2024 07:00:00,24.58434363,80.8549414,NO2,7,25,13
India,Madhya Pradesh,Satna,"Bandhavgar Colony, Satna - Birla Cement",04-02-2024 07:00:00,24.58434363,80.8549414,SO2,4,7,5
India,Madhya Pradesh,Singrauli,"Suryakiran Bhawan NCL, Singrauli - MPPCB",04-02-2024 07:00:00,24.108970,82.645580,PM10,55,178,104
India,Madhya Pradesh,Singrauli,"Suryakiran Bhawan NCL, Singrauli - MPPCB",04-02-2024 07:00:00,24.108970,82.645580,OZONE,20,76,29
India,Madhya Pradesh,Ujjain,"Mahakaleshwar Temple, Ujjain - MPPCB",04-02-2024 07:00:00,23.182719 ,75.768218 ,PM2.5,43,208,102
India,Madhya Pradesh,Ujjain,"Mahakaleshwar Temple, Ujjain - MPPCB",04-02-2024 07:00:00,23.182719 ,75.768218 ,PM10,54,145,91
India,Madhya Pradesh,Ujjain,"Mahakaleshwar Temple, Ujjain - MPPCB",04-02-2024 07:00:00,23.182719 ,75.768218 ,OZONE,119,136,131
India,Maharashtra,Ahmednagar,"Tarakpur, Ahmednagar - MPCB",04-02-2024 07:00:00,19.10122,74.73339,PM10,NA,NA,NA
India,Maharashtra,Ahmednagar,"Tarakpur, Ahmednagar - MPCB",04-02-2024 07:00:00,19.10122,74.73339,NH3,NA,NA,NA
India,Maharashtra,Ahmednagar,"Tarakpur, Ahmednagar - MPCB",04-02-2024 07:00:00,19.10122,74.73339,OZONE,18,141,24
India,Maharashtra,Akola,"Ramdaspeth, Akola - MPCB",04-02-2024 07:00:00,20.719516,77.000253,PM10,87,419,175
India,Maharashtra,Akola,"Ramdaspeth, Akola - MPCB",04-02-2024 07:00:00,20.719516,77.000253,NO2,12,106,46
India,Maharashtra,Akola,"Ramdaspeth, Akola - MPCB",04-02-2024 07:00:00,20.719516,77.000253,NH3,4,17,9
India,Maharashtra,Amravati,"Shri Shivaji Science College, Amaravati - MPCB",04-02-2024 07:00:00,20.939198,77.765701,SO2,14,71,26
India,Maharashtra,Aurangabad,"MIDC Chilkalthana, Aurangabad - MPCB",04-02-2024 07:00:00,19.875620,75.387310,OZONE,9,45,11
India,Maharashtra,Aurangabad,"More Chowk Waluj, Aurangabad - MPCB",04-02-2024 07:00:00,19.8389439,75.244448,PM10,36,110,67
India,Maharashtra,Aurangabad,"More Chowk Waluj, Aurangabad - MPCB",04-02-2024 07:00:00,19.8389439,75.244448,SO2,6,12,10
India,Maharashtra,Aurangabad,"Rachnakar Colony, Aurangabad - MPCB",04-02-2024 07:00:00,19.863756,75.321188,NO2,19,128,57
India,Maharashtra,Aurangabad,"Rachnakar Colony, Aurangabad - MPCB",04-02-2024 07:00:00,19.863756,75.321188,NH3,1,1,1
India,Maharashtra,Bhiwandi,"Gokul Nagar, Bhiwandi - MPCB",04-02-2024 07:00:00,19.309073,73.057223,PM10,NA,NA,NA
India,Maharashtra,Bhiwandi,"Gokul Nagar, Bhiwandi - MPCB",04-02-2024 07:00:00,19.309073,73.057223,SO2,NA,NA,NA
India,Maharashtra,Jalna,"Old MIDC, Jalna - MPCB",04-02-2024 07:00:00,19.854616,75.905894,SO2,11,15,14
India,Maharashtra,Kalyan,"Khadakpada, Kalyan - MPCB",04-02-2024 07:00:00,19.25292,73.142019,CO,10,58,25
India,Maharashtra,Kolhapur,"Shivaji University, Kolhapur - MPCB",04-02-2024 07:00:00,16.6870449,74.2505872,PM2.5,97,177,130
India,Maharashtra,Kolhapur,"Shivaji University, Kolhapur - MPCB",04-02-2024 07:00:00,16.6870449,74.2505872,PM10,97,237,142
India,Maharashtra,Kolhapur,"Shivaji University, Kolhapur - MPCB",04-02-2024 07:00:00,16.6870449,74.2505872,NO2,14,98,36
India,Maharashtra,Kolhapur,"Shivaji University, Kolhapur - MPCB",04-02-2024 07:00:00,16.6870449,74.2505872,SO2,2,14,6
India,Maharashtra,Kolhapur,"Sinchan Bhavan, Kolhapur - MPCB",04-02-2024 07:00:00,16.7143745,74.2426398,PM2.5,129,309,199
India,Maharashtra,Latur,"Sawe Wadi, Latur - MPCB",04-02-2024 07:00:00,18.39963,76.57452,PM10,78,106,94
India,Maharashtra,Mahad,"Kamble Tarf Birwadi, Mahad - MPCB",04-02-2024 07:00:00,18.1023399,73.4783687,PM2.5,15,135,41
India,Maharashtra,Mahad,"Kamble Tarf Birwadi, Mahad - MPCB",04-02-2024 07:00:00,18.1023399,73.4783687,CO,23,27,25
India,Maharashtra,Mira-Bhayandar,"Bhayandar West, Mira-Bhayandar - MPCB",04-02-2024 07:00:00,19.296481,72.840923,NH3,NA,NA,NA
India,Maharashtra,Mira-Bhayandar,"Bhayandar West, Mira-Bhayandar - MPCB",04-02-2024 07:00:00,19.296481,72.840923,SO2,NA,NA,NA
India,Maharashtra,Mumbai,"Bandra Kurla Complex, Mumbai - MPCB",04-02-2024 07:00:00,19.065931,72.862131,NH3,18,49,30
India,Maharashtra,Mumbai,"Byculla, Mumbai - BMC",04-02-2024 07:00:00,18.9767,72.8380,PM2.5,68,146,104
India,Maharashtra,Mumbai,"Byculla, Mumbai - BMC",04-02-2024 07:00:00,18.9767,72.8380,PM10,76,125,110
India,Maharashtra,Mumbai,"Colaba, Mumbai - MPCB",04-02-2024 07:00:00,18.910000,72.820000,PM2.5,42,85,65
India,Maharashtra,Mumbai,"Colaba, Mumbai - MPCB",04-02-2024 07:00:00,18.910000,72.820000,NO2,17,35,24
India,Maharashtra,Mumbai,"Ghatkopar, Mumbai - BMC",04-02-2024 07:00:00,19.083694,72.920967,CO,8,60,45
India,Maharashtra,Mumbai,"Kandivali East, Mumbai - MPCB",04-02-2024 07:00:00,19.205800,72.868200,NH3,NA,NA,NA
India,Maharashtra,Mumbai,"Kandivali East, Mumbai - MPCB",04-02-2024 07:00:00,19.205800,72.868200,OZONE,NA,NA,NA
India,Maharashtra,Mumbai,"Kandivali West, Mumbai - BMC",04-02-2024 07:00:00,19.215859,72.831718,PM10,85,122,103
India,Maharashtra,Mumbai,"Kherwadi_Bandra East, Mumbai - MPCB",04-02-2024 07:00:00,19.0632143,72.8456324,NH3,3,12,6
India,Maharashtra,Mumbai,"Kherwadi_Bandra East, Mumbai - MPCB",04-02-2024 07:00:00,19.0632143,72.8456324,OZONE,NA,NA,NA
India,Maharashtra,Mumbai,"Khindipada-Bhandup West, Mumbai - IITM",04-02-2024 07:00:00,19.1653323,72.922099,PM10,97,160,126
India,Maharashtra,Mumbai,"Kurla, Mumbai - MPCB",04-02-2024 07:00:00,19.0863,72.8888,PM2.5,54,186,107
India,Maharashtra,Mumbai,"Malad West, Mumbai - IITM",04-02-2024 07:00:00,19.19709,72.82204,NO2,6,18,15
India,Maharashtra,Mumbai,"Mazgaon, Mumbai - IITM",04-02-2024 07:00:00,18.96702,72.84214,PM10,121,158,136
India,Maharashtra,Mumbai,"Mulund West, Mumbai - MPCB",04-02-2024 07:00:00,19.1750,72.9419,PM10,69,127,100
India,Maharashtra,Mumbai,"Mulund West, Mumbai - MPCB",04-02-2024 07:00:00,19.1750,72.9419,NO2,23,27,24
India,Maharashtra,Mumbai,"Mulund West, Mumbai - MPCB",04-02-2024 07:00:00,19.1750,72.9419,NH3,9,11,10
India,Maharashtra,Mumbai,"Mulund West, Mumbai - MPCB",04-02-2024 07:00:00,19.1750,72.9419,CO,30,31,31
India,Maharashtra,Mumbai,"Mulund West, Mumbai - MPCB",04-02-2024 07:00:00,19.1750,72.9419,OZONE,7,7,7
India,Maharashtra,Mumbai,"Navy Nagar-Colaba, Mumbai - IITM",04-02-2024 07:00:00,18.897756,72.813320,CO,9,75,48
India,Maharashtra,Mumbai,"Powai, Mumbai - MPCB",04-02-2024 07:00:00,19.137500,72.915056,PM2.5,43,76,59
India,Maharashtra,Mumbai,"Sewri, Mumbai - BMC",04-02-2024 07:00:00,19.000084,72.856730,SO2,6,28,16
India,Maharashtra,Mumbai,"Siddharth Nagar-Worli, Mumbai - IITM",04-02-2024 07:00:00,19.000083,72.813993,NO2,31,200,79
India,Maharashtra,Mumbai,"Sion, Mumbai - MPCB",04-02-2024 07:00:00,19.047000,72.874600,PM2.5,42,159,77
India,Maharashtra,Mumbai,"Sion, Mumbai - MPCB",04-02-2024 07:00:00,19.047000,72.874600,PM10,65,195,112
India,Maharashtra,Mumbai,"Sion, Mumbai - MPCB",04-02-2024 07:00:00,19.047000,72.874600,OZONE,11,29,13
India,Maharashtra,Mumbai,"Vile Parle West, Mumbai - MPCB",04-02-2024 07:00:00,19.10861,72.83622,PM10,64,104,84
India,Maharashtra,Mumbai,"Worli, Mumbai - MPCB",04-02-2024 07:00:00,18.9936162,72.8128113,SO2,10,12,10
India,Maharashtra,Nagpur,"Ambazari, Nagpur - MPCB",04-02-2024 07:00:00,21.121801,79.04952,NO2,22,142,61
India,Maharashtra,Nagpur,"Ambazari, Nagpur - MPCB",04-02-2024 07:00:00,21.121801,79.04952,NH3,1,14,5
India,Maharashtra,Nagpur,"Ambazari, Nagpur - MPCB",04-02-2024 07:00:00,21.121801,79.04952,CO,14,108,52
India,Maharashtra,Nagpur,"Mahal, Nagpur - MPCB",04-02-2024 07:00:00,21.14472,79.107595,NO2,13,53,27
India,Maharashtra,Nagpur,"Opp GPO Civil Lines, Nagpur - MPCB",04-02-2024 07:00:00,21.152875,79.0517531,PM2.5,46,224,114
India,Maharashtra,Nagpur,"Opp GPO Civil Lines, Nagpur - MPCB",04-02-2024 07:00:00,21.152875,79.0517531,OZONE,2,86,5
India,Maharashtra,Nagpur,"Ram Nagar, Nagpur - MPCB",04-02-2024 07:00:00,21.143383,79.048912,OZONE,2,74,13
India,Maharashtra,Nashik,"Gangapur Road, Nashik - MPCB",04-02-2024 07:00:00,20.0073285,73.7762427,NO2,2,5,3
India,Maharashtra,Nashik,"Gangapur Road, Nashik - MPCB",04-02-2024 07:00:00,20.0073285,73.7762427,SO2,1,21,6
India,Maharashtra,Nashik,"Hirawadi, Nashik - MPCB",04-02-2024 07:00:00,20.021503,73.813844,PM10,67,141,95
India,Maharashtra,Nashik,"Hirawadi, Nashik - MPCB",04-02-2024 07:00:00,20.021503,73.813844,OZONE,5,235,26
India,Maharashtra,Nashik,"MIDC Ambad, Nashik - MPCB",04-02-2024 07:00:00,19.950220,73.731480,PM2.5,46,112,70
India,Maharashtra,Nashik,"MIDC Ambad, Nashik - MPCB",04-02-2024 07:00:00,19.950220,73.731480,PM10,70,148,108
India,Maharashtra,Nashik,"Pandav Nagari, Nashik - MPCB",04-02-2024 07:00:00,19.9591346,73.7788008,PM2.5,45,154,85
India,Maharashtra,Nashik,"Pandav Nagari, Nashik - MPCB",04-02-2024 07:00:00,19.9591346,73.7788008,CO,25,96,54
India,Maharashtra,Nashik,"Pandav Nagari, Nashik - MPCB",04-02-2024 07:00:00,19.9591346,73.7788008,OZONE,1,70,7
India,Maharashtra,Navi Mumbai,"Mahape, Navi Mumbai - MPCB",04-02-2024 07:00:00,19.1135051,73.008978,SO2,26,26,26
India,Maharashtra,Navi Mumbai,"Nerul, Navi Mumbai - MPCB",04-02-2024 07:00:00,19.008751,73.016620,NO2,21,43,31
India,Maharashtra,Navi Mumbai,"Nerul, Navi Mumbai - MPCB",04-02-2024 07:00:00,19.008751,73.016620,CO,40,81,71
India,Maharashtra,Navi Mumbai,"Sector-19A Nerul, Navi Mumbai - IITM",04-02-2024 07:00:00,19.044,73.0325,PM10,111,285,197
India,Maharashtra,Navi Mumbai,"Sector-19A Nerul, Navi Mumbai - IITM",04-02-2024 07:00:00,19.044,73.0325,CO,41,113,106
India,Maharashtra,Navi Mumbai,"Sector-2E Kalamboli, Navi Mumbai - MPCB",04-02-2024 07:00:00,19.02579,73.10297,PM2.5,NA,NA,NA
India,Maharashtra,Navi Mumbai,"Tondare-Taloja, Navi Mumbai - MPCB",04-02-2024 07:00:00,19.0630,73.1209,PM2.5,40,207,130
India,Maharashtra,Navi Mumbai,"Tondare-Taloja, Navi Mumbai - MPCB",04-02-2024 07:00:00,19.0630,73.1209,NO2,16,134,75
India,Maharashtra,Parbhani,"Masoom Colony, Parbhani - MPCB",04-02-2024 07:00:00,19.265594,76.761463,PM10,77,198,134
India,Maharashtra,Parbhani,"Masoom Colony, Parbhani - MPCB",04-02-2024 07:00:00,19.265594,76.761463,CO,26,111,46
India,Maharashtra,Pimpri-Chinchwad,"Park Street Wakad, Pimpri Chinchwad - MPCB",04-02-2024 07:00:00,18.59051,73.77946,NO2,61,146,105
India,Maharashtra,Pimpri-Chinchwad,"Park Street Wakad, Pimpri Chinchwad - MPCB",04-02-2024 07:00:00,18.59051,73.77946,NH3,9,22,15
India,Maharashtra,Pimpri-Chinchwad,"Park Street Wakad, Pimpri Chinchwad - MPCB",04-02-2024 07:00:00,18.59051,73.77946,CO,17,130,70
India,Maharashtra,Pimpri-Chinchwad,"Thergaon, Pimpri Chinchwad - MPCB",04-02-2024 07:00:00,18.616318,73.765797,SO2,4,14,8
India,Maharashtra,Pimpri-Chinchwad,"Thergaon, Pimpri Chinchwad - MPCB",04-02-2024 07:00:00,18.616318,73.765797,OZONE,NA,NA,NA
India,Maharashtra,Pune,"Bhosari, Pune - IITM",04-02-2024 07:00:00,18.640051,73.848956,CO,38,64,42
India,Maharashtra,Pune,"Bhosari, Pune - IITM",04-02-2024 07:00:00,18.640051,73.848956,OZONE,1,18,1
India,Maharashtra,Pune,"Karve Road, Pune - MPCB",04-02-2024 07:00:00,18.5011743,73.8165527,PM2.5,74,74,74
India,Maharashtra,Pune,"Karve Road, Pune - MPCB",04-02-2024 07:00:00,18.5011743,73.8165527,NO2,2,2,2
India,Maharashtra,Pune,"Karve Road, Pune - MPCB",04-02-2024 07:00:00,18.5011743,73.8165527,SO2,21,21,21
India,Maharashtra,Pune,"Karve Road, Pune - MPCB",04-02-2024 07:00:00,18.5011743,73.8165527,CO,63,63,63
India,Maharashtra,Pune,"Katraj Dairy, Pune - MPCB",04-02-2024 07:00:00,18.454450,73.854155,NO2,30,55,44
India,Maharashtra,Pune,"Katraj Dairy, Pune - MPCB",04-02-2024 07:00:00,18.454450,73.854155,CO,40,105,102
India,Maharashtra,Pune,"Revenue Colony-Shivajinagar, Pune - IITM",04-02-2024 07:00:00,18.530085,73.849598,PM10,89,197,133
India,Maharashtra,Pune,"Revenue Colony-Shivajinagar, Pune - IITM",04-02-2024 07:00:00,18.530085,73.849598,SO2,97,133,112
India,Maharashtra,Pune,"Transport Nagar-Nigdi, Pune - IITM",04-02-2024 07:00:00,18.664282,73.763966,PM2.5,17,133,75
India,Maharashtra,Sangli,"Vijay Nagar, Sangli - MPCB",04-02-2024 07:00:00, 16.5038,74.3623,NO2,25,98,46
India,Maharashtra,Sangli,"Vijay Nagar, Sangli - MPCB",04-02-2024 07:00:00, 16.5038,74.3623,SO2,3,21,13
India,Maharashtra,Sangli,"Vijay Nagar, Sangli - MPCB",04-02-2024 07:00:00, 16.5038,74.3623,CO,21,119,51
India,Maharashtra,Sangli,"Vijay Nagar, Sangli - MPCB",04-02-2024 07:00:00, 16.5038,74.3623,OZONE,1,60,14
India,Maharashtra,Solapur,"Dnyaneshwar Nagar, Solapur - MPCB",04-02-2024 07:00:00,17.6336264,75.9132495,PM10,72,425,148
India,Maharashtra,Solapur,"Dnyaneshwar Nagar, Solapur - MPCB",04-02-2024 07:00:00,17.6336264,75.9132495,CO,16,110,25
India,Maharashtra,Solapur,"Ratandeep Housing Society, Solapur - MPCB",04-02-2024 07:00:00,17.65439,75.90649,NO2,14,141,44
India,Maharashtra,Solapur,"Ratandeep Housing Society, Solapur - MPCB",04-02-2024 07:00:00,17.65439,75.90649,NH3,8,12,10
India,Maharashtra,Solapur,"Ratandeep Housing Society, Solapur - MPCB",04-02-2024 07:00:00,17.65439,75.90649,CO,16,129,23
India,Maharashtra,Thane,"Kasarvadavali, Thane - MPCB",04-02-2024 07:00:00,19.26777,72.97182,SO2,8,32,17
India,Maharashtra,Thane,"Pimpleshwar Mandir, Thane - MPCB",04-02-2024 07:00:00,19.192056,72.9585188,SO2,NA,NA,NA
India,Maharashtra,Thane,"Pimpleshwar Mandir, Thane - MPCB",04-02-2024 07:00:00,19.192056,72.9585188,OZONE,NA,NA,NA
India,Maharashtra,Thane,"Upvan Fort, Thane - MPCB",04-02-2024 07:00:00,19.222279,72.957979,PM10,108,155,129
India,Maharashtra,Thane,"Upvan Fort, Thane - MPCB",04-02-2024 07:00:00,19.222279,72.957979,NH3,11,15,13
India,Maharashtra,Ulhasnagar,"Sidhi Vinayak Nagar, Ulhasnagar - MPCB",04-02-2024 07:00:00,19.235581,73.159121,OZONE,1,106,24
India,Maharashtra,Virar,"Bolinj, Virar - MPCB",04-02-2024 07:00:00,19.4458210,72.7988231,SO2,10,26,15
India,Maharashtra,Virar,"Bolinj, Virar - MPCB",04-02-2024 07:00:00,19.4458210,72.7988231,OZONE,1,108,42
India,Manipur,Imphal,"DM College of Science, Imphal - Manipur PCB",04-02-2024 07:00:00,24.8207389,93.9423085,PM2.5,13,72,33
India,Manipur,Imphal,"DM College of Science, Imphal - Manipur PCB",04-02-2024 07:00:00,24.8207389,93.9423085,OZONE,NA,NA,NA
India,Mizoram,Aizawl,"Sikulpuikawn, Aizawl - Mizoram PCB",04-02-2024 07:00:00,23.7176342,92.7192841,PM10,67,109,85
India,Nagaland,Kohima,"PWD Juction, Kohima - NPCB",04-02-2024 07:00:00,25.6635413,94.0989878,CO,12,44,17
India,Odisha,Angul,"Hakimapada, Angul - OSPCB",04-02-2024 07:00:00,20.832874,85.104082,NH3,2,4,2
India,Odisha,Angul,"Hakimapada, Angul - OSPCB",04-02-2024 07:00:00,20.832874,85.104082,SO2,12,120,55
India,Odisha,Balasore,"Kalidaspur, Balasore - OSPCB",04-02-2024 07:00:00,21.51161,86.89088,PM2.5,55,312,155
India,Odisha,Balasore,"Kalidaspur, Balasore - OSPCB",04-02-2024 07:00:00,21.51161,86.89088,NH3,3,8,5
India,Odisha,Balasore,"Kalidaspur, Balasore - OSPCB",04-02-2024 07:00:00,21.51161,86.89088,SO2,11,27,18
India,Odisha,Balasore,"Kalidaspur, Balasore - OSPCB",04-02-2024 07:00:00,21.51161,86.89088,OZONE,9,82,24
India,Odisha,Barbil,"Forest Office, Barbil - OSPCB",04-02-2024 07:00:00,22.1166054,85.3945546,PM2.5,52,312,139
India,Odisha,Bhubaneswar,"Lingraj Mandir, Bhubaneswar - OSPCB",04-02-2024 07:00:00,20.240790,85.836784,SO2,NA,NA,NA
India,Odisha,Bhubaneswar,"Patia, Bhubaneswar - OSPCB",04-02-2024 07:00:00,20.34652,85.81630,PM2.5,80,227,141
India,Odisha,Bhubaneswar,"Patia, Bhubaneswar - OSPCB",04-02-2024 07:00:00,20.34652,85.81630,NO2,13,53,21
India,Odisha,Bhubaneswar,"Patia, Bhubaneswar - OSPCB",04-02-2024 07:00:00,20.34652,85.81630,CO,24,60,37
India,Odisha,Bileipada,"Tata Township, Bileipada - OSPCB",04-02-2024 07:00:00,22.06156703,85.47409613,NO2,5,15,9
India,Odisha,Bileipada,"Tata Township, Bileipada - OSPCB",04-02-2024 07:00:00,22.06156703,85.47409613,OZONE,18,30,18
India,Odisha,Brajrajnagar,"GM Office, Brajrajnagar - OSPCB",04-02-2024 07:00:00,21.8004996,83.8396977,NO2,17,246,105
India,Odisha,Brajrajnagar,"GM Office, Brajrajnagar - OSPCB",04-02-2024 07:00:00,21.8004996,83.8396977,CO,46,131,88
India,Odisha,Byasanagar,"Ferro Chrome Colony, Byasanagar - OSPCB",04-02-2024 07:00:00,20.94185,86.11510,NO2,11,32,20
India,Odisha,Byasanagar,"Ferro Chrome Colony, Byasanagar - OSPCB",04-02-2024 07:00:00,20.94185,86.11510,NH3,2,3,3
India,Odisha,Byasanagar,"Ferro Chrome Colony, Byasanagar - OSPCB",04-02-2024 07:00:00,20.94185,86.11510,OZONE,9,143,18
India,Odisha,Cuttack,"CDA Area, Cuttack - OSPCB",04-02-2024 07:00:00,20.48891     ,85.84768     ,PM10,103,245,126
India,Odisha,Cuttack,"CDA Area, Cuttack - OSPCB",04-02-2024 07:00:00,20.48891     ,85.84768     ,NH3,3,4,3
India,Odisha,Nayagarh,"Dabuna, Nayagarh - OSPCB",04-02-2024 07:00:00,21.847279,85.416905,PM10,67,164,115
India,Odisha,Nayagarh,"Dabuna, Nayagarh - OSPCB",04-02-2024 07:00:00,21.847279,85.416905,NH3,4,5,5
India,Odisha,Nayagarh,"Dabuna, Nayagarh - OSPCB",04-02-2024 07:00:00,21.847279,85.416905,SO2,3,5,3
India,Odisha,Rairangpur,"Divisional Forest Office, Rairangpur - OSPCB",04-02-2024 07:00:00,22.265816,86.174829,PM2.5,62,107,79
India,Odisha,Rourkela,"Fertilizer Township, Rourkela - OSPCB",04-02-2024 07:00:00,22.18972222,84.86277778,PM10,NA,NA,NA
India,Odisha,Rourkela,"Fertilizer Township, Rourkela - OSPCB",04-02-2024 07:00:00,22.18972222,84.86277778,NO2,NA,NA,NA
India,Odisha,Rourkela,"Fertilizer Township, Rourkela - OSPCB",04-02-2024 07:00:00,22.18972222,84.86277778,SO2,NA,NA,NA
India,Odisha,Rourkela,"Raghunathpali, Rourkela - OSPCB",04-02-2024 07:00:00,22.220833,84.809444,PM2.5,90,244,169
India,Odisha,Talcher,"Talcher Coalfields,Talcher - OSPCB",04-02-2024 07:00:00,20.9360711,85.1707021,PM2.5,NA,NA,NA
India,Puducherry,Puducherry,"Jawahar Nagar, Puducherry - PPCC",04-02-2024 07:00:00,11.9309,79.8027,CO,14,50,22
India,Punjab,Amritsar,"Golden Temple, Amritsar - PPCB",04-02-2024 07:00:00,31.620000,74.876512,NH3,5,6,5
India,Punjab,Bathinda,"Hardev Nagar, Bathinda - PPCB",04-02-2024 07:00:00,30.233011,74.907758,PM2.5,6,74,39
India,Punjab,Ludhiana,"Punjab Agricultural University, Ludhiana - PPCB",04-02-2024 07:00:00,30.9028,75.8086,NH3,6,7,7
India,Punjab,Ludhiana,"Punjab Agricultural University, Ludhiana - PPCB",04-02-2024 07:00:00,30.9028,75.8086,SO2,6,21,11
India,Punjab,Mandi Gobindgarh,"RIMT University, Mandi Gobindgarh - PPCB",04-02-2024 07:00:00,30.649961,76.331442,NO2,24,32,31
India,Punjab,Mandi Gobindgarh,"RIMT University, Mandi Gobindgarh - PPCB",04-02-2024 07:00:00,30.649961,76.331442,SO2,2,2,2
India,Punjab,Mandi Gobindgarh,"RIMT University, Mandi Gobindgarh - PPCB",04-02-2024 07:00:00,30.649961,76.331442,CO,11,53,33
India,Punjab,Patiala,"Model Town, Patiala - PPCB",04-02-2024 07:00:00,30.349388,76.366642,PM10,46,87,66
India,Punjab,Patiala,"Model Town, Patiala - PPCB",04-02-2024 07:00:00,30.349388,76.366642,NO2,18,26,22
India,Rajasthan,Ajmer,"Civil Lines,  Ajmer - RSPCB",04-02-2024 07:00:00,26.470859,74.646594,PM2.5,25,103,64
India,Rajasthan,Alwar,"Moti Doongri, Alwar - RSPCB",04-02-2024 07:00:00,27.554793,76.611536,OZONE,7,22,8
India,Rajasthan,Banswara,"Rati Talai, Banswara - RSPCB",04-02-2024 07:00:00,23.555190,74.440010,PM10,88,252,137
India,Rajasthan,Baran,"Bamboliya, Baran - RSPCB",04-02-2024 07:00:00,25.106006,76.469948,CO,27,49,36
India,Rajasthan,Bharatpur,"Krishna Nagar, Bharatpur - RSPCB",04-02-2024 07:00:00,27.215415,77.50873,PM2.5,14,87,46
India,Rajasthan,Bharatpur,"Krishna Nagar, Bharatpur - RSPCB",04-02-2024 07:00:00,27.215415,77.50873,NO2,42,79,58
India,Rajasthan,Bharatpur,"Krishna Nagar, Bharatpur - RSPCB",04-02-2024 07:00:00,27.215415,77.50873,SO2,2,18,8
India,Rajasthan,Bhilwara,"Pratap Nagar, Bhilwara - RSPCB",04-02-2024 07:00:00,25.339605,74.618883,PM10,48,308,123
India,Rajasthan,Bhilwara,"Pratap Nagar, Bhilwara - RSPCB",04-02-2024 07:00:00,25.339605,74.618883,NO2,18,90,47
India,Rajasthan,Bhilwara,"Pratap Nagar, Bhilwara - RSPCB",04-02-2024 07:00:00,25.339605,74.618883,NH3,1,3,2
India,Rajasthan,Bhilwara,"Pratap Nagar, Bhilwara - RSPCB",04-02-2024 07:00:00,25.339605,74.618883,OZONE,3,72,12
India,Rajasthan,Bhiwadi,"RIICO Ind. Area III, Bhiwadi - RSPCB",04-02-2024 07:00:00,28.194909,76.862296,NO2,13,29,20
India,Rajasthan,Bhiwadi,"RIICO Ind. Area III, Bhiwadi - RSPCB",04-02-2024 07:00:00,28.194909,76.862296,CO,22,127,87
India,Rajasthan,Bikaner,"MM Ground, Bikaner - RSPCB",04-02-2024 07:00:00,28.018792,73.292658,NO2,20,65,36
India,Rajasthan,Bikaner,"MM Ground, Bikaner - RSPCB",04-02-2024 07:00:00,28.018792,73.292658,NH3,16,66,32
India,Rajasthan,Bundi,"New Colony, Bundi - RSPCB",04-02-2024 07:00:00,25.435774,75.644272,PM2.5,132,362,241
India,Rajasthan,Bundi,"New Colony, Bundi - RSPCB",04-02-2024 07:00:00,25.435774,75.644272,SO2,3,16,7
India,Rajasthan,Bundi,"New Colony, Bundi - RSPCB",04-02-2024 07:00:00,25.435774,75.644272,CO,35,100,53
India,Rajasthan,Churu,"Subash Chowk, Churu - RSPCB",04-02-2024 07:00:00,28.296139,74.961696,SO2,13,17,15
India,Rajasthan,Dausa,"Khatikan Mohalla, Dausa - RSPCB",04-02-2024 07:00:00,26.895552,76.334753,PM2.5,17,147,54
India,Rajasthan,Dausa,"Khatikan Mohalla, Dausa - RSPCB",04-02-2024 07:00:00,26.895552,76.334753,NH3,6,15,10
India,Rajasthan,Dausa,"Khatikan Mohalla, Dausa - RSPCB",04-02-2024 07:00:00,26.895552,76.334753,CO,103,132,112
India,Rajasthan,Dausa,"Khatikan Mohalla, Dausa - RSPCB",04-02-2024 07:00:00,26.895552,76.334753,OZONE,5,99,10
India,Rajasthan,Dholpur,"Raja Ganj, Dholpur - RSPCB",04-02-2024 07:00:00,26.699557,77.898881,SO2,2,31,5
India,Rajasthan,Dungarpur,"Bhoiwada, Dungarpur - RSPCB",04-02-2024 07:00:00,23.837789,73.714926,PM2.5,58,323,143
India,Rajasthan,Jaipur,"Adarsh Nagar, Jaipur - RSPCB",04-02-2024 07:00:00,26.902909,75.836858,PM2.5,52,197,113
India,Rajasthan,Jaipur,"Adarsh Nagar, Jaipur - RSPCB",04-02-2024 07:00:00,26.902909,75.836858,NO2,12,42,25
India,Rajasthan,Jaipur,"Adarsh Nagar, Jaipur - RSPCB",04-02-2024 07:00:00,26.902909,75.836858,CO,12,66,40
India,Rajasthan,Jaipur,"Mansarovar Sector-12, Jaipur - RSPCB",04-02-2024 07:00:00,26.843698,75.766894,NH3,1,6,2
India,Rajasthan,Jaipur,"Mansarovar Sector-12, Jaipur - RSPCB",04-02-2024 07:00:00,26.843698,75.766894,OZONE,3,83,6
India,Rajasthan,Jaipur,"RIICO Sitapura, Jaipur - RSPCB",04-02-2024 07:00:00,26.786682,75.827928,NH3,3,8,4
India,Rajasthan,Jaipur,"Sector-2 Murlipura, Jaipur - RSPCB",04-02-2024 07:00:00,26.960669,75.771817,PM10,83,287,171
India,Rajasthan,Jaipur,"Sector-2 Murlipura, Jaipur - RSPCB",04-02-2024 07:00:00,26.960669,75.771817,OZONE,6,105,11
India,Rajasthan,Jaipur,"Shastri Nagar, Jaipur - RSPCB",04-02-2024 07:00:00,26.9502929,75.730943,NH3,10,39,20
India,Rajasthan,Jaipur,"Shastri Nagar, Jaipur - RSPCB",04-02-2024 07:00:00,26.9502929,75.730943,SO2,11,29,20
India,Rajasthan,Jalore,"Mudtra Sili, Jalore - RSPCB",04-02-2024 07:00:00,25.344694,72.626208,PM2.5,42,271,92
India,Rajasthan,Jalore,"Mudtra Sili, Jalore - RSPCB",04-02-2024 07:00:00,25.344694,72.626208,NH3,4,8,6
India,Rajasthan,Jhalawar,"Rajlaxmi Nagar, Jhalawar - RSPCB",04-02-2024 07:00:00,24.588397,76.172782,PM10,78,201,139
India,Rajasthan,Jhalawar,"Rajlaxmi Nagar, Jhalawar - RSPCB",04-02-2024 07:00:00,24.588397,76.172782,NH3,5,8,6
India,Rajasthan,Jhunjhunu,"Indra Nagar, Jhunjhunu - RSPCB",04-02-2024 07:00:00,28.108988,75.386577,PM2.5,28,227,79
India,Rajasthan,Jhunjhunu,"Indra Nagar, Jhunjhunu - RSPCB",04-02-2024 07:00:00,28.108988,75.386577,NH3,14,29,20
India,Rajasthan,Jodhpur,"Collectorate, Jodhpur - RSPCB",04-02-2024 07:00:00,26.268249,73.0193853,OZONE,29,96,38
India,Rajasthan,Jodhpur,"Digari Kalan, Jodhpur - RSPCB",04-02-2024 07:00:00,26.295810,73.082283,PM2.5,22,247,113
India,Rajasthan,Jodhpur,"Mandor, Jodhpur - RSPCB",04-02-2024 07:00:00,26.358805,73.047444,NO2,32,88,56
India,Rajasthan,Jodhpur,"Mandor, Jodhpur - RSPCB",04-02-2024 07:00:00,26.358805,73.047444,CO,8,46,34
India,Rajasthan,Jodhpur,"Samrat Ashok Udhyan, Jodhpur - RSPCB",04-02-2024 07:00:00,26.253384,72.976571,NO2,11,107,47
India,Rajasthan,Jodhpur,"Samrat Ashok Udhyan, Jodhpur - RSPCB",04-02-2024 07:00:00,26.253384,72.976571,NH3,6,13,9
India,Rajasthan,Jodhpur,"Samrat Ashok Udhyan, Jodhpur - RSPCB",04-02-2024 07:00:00,26.253384,72.976571,SO2,6,18,11
India,Rajasthan,Karauli,"Satyawati Vihar, Karauli - RSPCB",04-02-2024 07:00:00,26.506177,77.025989,NH3,5,11,7
India,Rajasthan,Karauli,"Satyawati Vihar, Karauli - RSPCB",04-02-2024 07:00:00,26.506177,77.025989,OZONE,12,42,26
India,Rajasthan,Kota,"Nayapura, Kota - RSPCB",04-02-2024 07:00:00,25.196024,75.855668,NH3,7,13,10
India,Rajasthan,Kota,"Nayapura, Kota - RSPCB",04-02-2024 07:00:00,25.196024,75.855668,CO,12,33,13
India,Rajasthan,Nagaur,"Karni Colony, Nagaur - RSPCB",04-02-2024 07:00:00,27.213494,73.734444,PM2.5,26,132,70
India,Rajasthan,Nagaur,"Karni Colony, Nagaur - RSPCB",04-02-2024 07:00:00,27.213494,73.734444,PM10,47,202,97
India,Rajasthan,Nagaur,"Karni Colony, Nagaur - RSPCB",04-02-2024 07:00:00,27.213494,73.734444,NH3,8,19,14
India,Rajasthan,Nagaur,"Karni Colony, Nagaur - RSPCB",04-02-2024 07:00:00,27.213494,73.734444,SO2,2,8,4
India,Rajasthan,Nagaur,"Karni Colony, Nagaur - RSPCB",04-02-2024 07:00:00,27.213494,73.734444,CO,16,53,25
India,Rajasthan,Pali,"Indira Colony Vistar, Pali - RSPCB",04-02-2024 07:00:00,25.771061, 73.340227,PM2.5,33,301,108
India,Rajasthan,Pali,"Indira Colony Vistar, Pali - RSPCB",04-02-2024 07:00:00,25.771061, 73.340227,NO2,18,71,40
India,Rajasthan,Pratapgarh,"Pragati Nagar, Pratapgarh - RSPCB",04-02-2024 07:00:00,24.041198,74.780702,PM10,78,289,143
India,Rajasthan,Sikar,"Radhakishan Pura, Sikar - RSPCB",04-02-2024 07:00:00,27.608912,75.153302,PM2.5,46,305,130
India,Rajasthan,Sikar,"Radhakishan Pura, Sikar - RSPCB",04-02-2024 07:00:00,27.608912,75.153302,NO2,7,68,25
India,Rajasthan,Sikar,"Radhakishan Pura, Sikar - RSPCB",04-02-2024 07:00:00,27.608912,75.153302,NH3,6,12,9
India,Rajasthan,Sirohi,"Vedhaynath Colony, Sirohi - RSPCB",04-02-2024 07:00:00,24.885261,72.857549,PM2.5,20,160,57
India,Rajasthan,Sirohi,"Vedhaynath Colony, Sirohi - RSPCB",04-02-2024 07:00:00,24.885261,72.857549,OZONE,3,88,25
India,Rajasthan,Sri Ganganagar,"Old City, Sri Ganganagar - RSPCB",04-02-2024 07:00:00,29.931624,73.864511,SO2,5,9,7
India,Rajasthan,Tonk,"Shastri Nagar, Tonk - RSPCB",04-02-2024 07:00:00,26.159933,75.780517,PM10,93,243,134
India,Rajasthan,Tonk,"Shastri Nagar, Tonk - RSPCB",04-02-2024 07:00:00,26.159933,75.780517,NH3,4,23,9
India,Rajasthan,Udaipur,"Ashok Nagar, Udaipur - RSPCB",04-02-2024 07:00:00,24.5886166,73.6321397,NO2,51,121,81
India,Rajasthan,Udaipur,"Ashok Nagar, Udaipur - RSPCB",04-02-2024 07:00:00,24.5886166,73.6321397,CO,30,140,60
India,Sikkim,Gangtok,"Zero Point GICI, Gangtok - SSPCB",04-02-2024 07:00:00,27.338530,88.614099,CO,22,34,26
India,Sikkim,Gangtok,"Zero Point GICI, Gangtok - SSPCB",04-02-2024 07:00:00,27.338530,88.614099,OZONE,15,67,30
India,TamilNadu,Chennai,"Alandur Bus Depot, Chennai - CPCB",04-02-2024 07:00:00,12.9099161,80.1076538,PM10,129,212,152
India,TamilNadu,Chennai,"Gandhi Nagar_Ennore, Chennai - TNPCB",04-02-2024 07:00:00,13.218341,80.32027,PM10,20,47,31
India,TamilNadu,Chennai,"Gandhi Nagar_Ennore, Chennai - TNPCB",04-02-2024 07:00:00,13.218341,80.32027,NH3,2,5,4
India,TamilNadu,Chennai,"Kodungaiyur, Chennai - TNPCB",04-02-2024 07:00:00,13.1278,80.2642,PM2.5,11,43,22
India,TamilNadu,Chennai,"Kodungaiyur, Chennai - TNPCB",04-02-2024 07:00:00,13.1278,80.2642,NO2,5,22,10
India,TamilNadu,Chennai,"Perungudi, Chennai - TNPCB",04-02-2024 07:00:00,12.9533,80.2357,NO2,26,40,32
India,TamilNadu,Chennai,"Royapuram, Chennai - TNPCB",04-02-2024 07:00:00,13.1036,80.2909,CO,18,44,24
India,TamilNadu,Chennai,"Velachery Res. Area, Chennai - CPCB",04-02-2024 07:00:00,13.0052189,80.2398125,PM2.5,23,394,79
India,TamilNadu,Chennai,"Velachery Res. Area, Chennai - CPCB",04-02-2024 07:00:00,13.0052189,80.2398125,PM10,28,419,77
India,TamilNadu,Chennai,"Velachery Res. Area, Chennai - CPCB",04-02-2024 07:00:00,13.0052189,80.2398125,NO2,12,33,21
India,TamilNadu,Chennai,"Velachery Res. Area, Chennai - CPCB",04-02-2024 07:00:00,13.0052189,80.2398125,NH3,4,10,7
India,TamilNadu,Chennai,"Velachery Res. Area, Chennai - CPCB",04-02-2024 07:00:00,13.0052189,80.2398125,CO,2,101,32
India,TamilNadu,Chennai,"Velachery Res. Area, Chennai - CPCB",04-02-2024 07:00:00,13.0052189,80.2398125,OZONE,7,25,11
India,TamilNadu,Coimbatore,"PSG College of Arts and Science, Coimbatore - TNPCB",04-02-2024 07:00:00,11.0328,77.0349,NO2,1,17,4
India,TamilNadu,Cuddalore,"Semmandalam, Cuddalore - TNPCB",04-02-2024 07:00:00,11.7637683,79.7499835,NO2,6,27,16
India,TamilNadu,Gummidipoondi,"Anthoni Pillai Nagar, Gummidipoondi - TNPCB",04-02-2024 07:00:00,13.4127,80.1081,PM2.5,21,370,80
India,TamilNadu,Gummidipoondi,"Anthoni Pillai Nagar, Gummidipoondi - TNPCB",04-02-2024 07:00:00,13.4127,80.1081,NO2,10,14,12
India,TamilNadu,Ooty,"Bombay Castel, Ooty - TNPCB",04-02-2024 07:00:00,11.4068288,76.7138973,SO2,NA,NA,NA
India,TamilNadu,Ooty,"Bombay Castel, Ooty - TNPCB",04-02-2024 07:00:00,11.4068288,76.7138973,CO,17,18,18
India,TamilNadu,Palkalaiperur,"Bharathidasan University, Palkalaiperur - TNPCB",04-02-2024 07:00:00,10.681158,78.741746,PM2.5,20,41,29
India,TamilNadu,Palkalaiperur,"Bharathidasan University, Palkalaiperur - TNPCB",04-02-2024 07:00:00,10.681158,78.741746,CO,9,35,22
India,TamilNadu,Ramanathapuram,"Chalai Bazaar, Ramanathapuram - TNPCB",04-02-2024 07:00:00,9.36399,78.831977,NH3,NA,NA,NA
India,TamilNadu,Salem,"Sona College of Technology, Salem - TNPCB",04-02-2024 07:00:00,11.679111,78.125052,NH3,1,1,1
India,TamilNadu,Salem,"Sona College of Technology, Salem - TNPCB",04-02-2024 07:00:00,11.679111,78.125052,SO2,19,22,22
India,TamilNadu,Salem,"Sona College of Technology, Salem - TNPCB",04-02-2024 07:00:00,11.679111,78.125052,CO,39,41,40
India,TamilNadu,Thoothukudi,"Meelavittan, Thoothukudi - TNPCB",04-02-2024 07:00:00,8.816428 ,78.099039,SO2,6,18,11
India,TamilNadu,Thoothukudi,"Meelavittan, Thoothukudi - TNPCB",04-02-2024 07:00:00,8.816428 ,78.099039,OZONE,8,122,49
India,TamilNadu,Tirupur,"Kumaran College, Tirupur - TNPCB",04-02-2024 07:00:00,11.0973603,77.3228673,PM2.5,15,70,28
India,TamilNadu,Tirupur,"Kumaran College, Tirupur - TNPCB",04-02-2024 07:00:00,11.0973603,77.3228673,NO2,6,77,19
India,TamilNadu,Vellore,"Vasanthapuram, Vellore - TNPCB",04-02-2024 07:00:00,12.909494,79.131861,SO2,NA,NA,NA
India,TamilNadu,Virudhunagar,"Collectorate Office, Virudhunagar - TNPCB",04-02-2024 07:00:00,9.559382,77.948828,OZONE,3,3,3
India,Telangana,Hyderabad,"Central University, Hyderabad - TSPCB",04-02-2024 07:00:00,17.460103,78.334361,NH3,1,6,3
India,Telangana,Hyderabad,"Central University, Hyderabad - TSPCB",04-02-2024 07:00:00,17.460103,78.334361,SO2,2,9,5
India,Telangana,Hyderabad,"ECIL Kapra, Hyderabad - TSPCB",04-02-2024 07:00:00,17.470431,78.566959,NH3,3,6,3
India,Telangana,Hyderabad,"ECIL Kapra, Hyderabad - TSPCB",04-02-2024 07:00:00,17.470431,78.566959,CO,8,23,18
India,Telangana,Hyderabad,"IITH Kandi, Hyderabad - TSPCB",04-02-2024 07:00:00,17.585705,78.126199,PM10,NA,NA,NA
India,Telangana,Hyderabad,"IITH Kandi, Hyderabad - TSPCB",04-02-2024 07:00:00,17.585705,78.126199,NH3,NA,NA,NA
India,Telangana,Hyderabad,"IITH Kandi, Hyderabad - TSPCB",04-02-2024 07:00:00,17.585705,78.126199,CO,10,35,23
India,Telangana,Hyderabad,"IITH Kandi, Hyderabad - TSPCB",04-02-2024 07:00:00,17.585705,78.126199,OZONE,44,44,44
India,Telangana,Hyderabad,"Kokapet, Hyderabad - TSPCB",04-02-2024 07:00:00,17.393559,78.339194,SO2,6,10,7
India,Telangana,Hyderabad,"Kompally Municipal Office, Hyderabad - TSPCB",04-02-2024 07:00:00,17.544899,78.486949,NH3,7,8,8
India,Telangana,Hyderabad,"New Malakpet, Hyderabad - TSPCB",04-02-2024 07:00:00,17.37206,78.50864,OZONE,2,22,4
India,Telangana,Hyderabad,"Ramachandrapuram, Hyderabad - TSPCB",04-02-2024 07:00:00,17.528544,78.286195,PM2.5,30,43,32
India,Telangana,Hyderabad,"Ramachandrapuram, Hyderabad - TSPCB",04-02-2024 07:00:00,17.528544,78.286195,NO2,11,12,12
India,Telangana,Hyderabad,"Sanathnagar, Hyderabad - TSPCB",04-02-2024 07:00:00,17.4559458,78.4332152,NO2,27,126,44
India,Telangana,Hyderabad,"Sanathnagar, Hyderabad - TSPCB",04-02-2024 07:00:00,17.4559458,78.4332152,CO,32,44,41
India,Telangana,Hyderabad,"Somajiguda, Hyderabad - TSPCB",04-02-2024 07:00:00,17.417094,78.457437,NH3,5,5,5
India,Telangana,Hyderabad,"Somajiguda, Hyderabad - TSPCB",04-02-2024 07:00:00,17.417094,78.457437,SO2,8,15,11
India,Telangana,Hyderabad,"Somajiguda, Hyderabad - TSPCB",04-02-2024 07:00:00,17.417094,78.457437,CO,4,30,17
India,Telangana,Hyderabad,"Somajiguda, Hyderabad - TSPCB",04-02-2024 07:00:00,17.417094,78.457437,OZONE,3,18,5
India,Telangana,Hyderabad,"Zoo Park, Hyderabad - TSPCB",04-02-2024 07:00:00,17.349694,78.451437,OZONE,16,45,17
India,Tripura,Agartala,"Bardowali, Agartala - Tripura SPCB",04-02-2024 07:00:00,23.8175497,91.2726974,PM10,133,326,191
India,Tripura,Agartala,"Bardowali, Agartala - Tripura SPCB",04-02-2024 07:00:00,23.8175497,91.2726974,NO2,8,38,18
India,Uttar_Pradesh,Agra,"Rohta, Agra - UPPCB",04-02-2024 07:00:00,27.106972,78.000111,SO2,2,19,9
India,Uttar_Pradesh,Agra,"Sanjay Palace, Agra - UPPCB",04-02-2024 07:00:00,27.19865833,78.00598056,PM2.5,13,100,53
India,Uttar_Pradesh,Agra,"Sanjay Palace, Agra - UPPCB",04-02-2024 07:00:00,27.19865833,78.00598056,SO2,4,27,14
India,Uttar_Pradesh,Agra,"Sector-3B Avas Vikas Colony, Agra - UPPCB",04-02-2024 07:00:00,27.19412,77.96237,NO2,12,56,30
India,Uttar_Pradesh,Agra,"Shahjahan Garden, Agra - UPPCB",04-02-2024 07:00:00,27.169338,78.03582,PM10,36,123,75
India,Uttar_Pradesh,Agra,"Shahjahan Garden, Agra - UPPCB",04-02-2024 07:00:00,27.169338,78.03582,NH3,10,12,11
India,Uttar_Pradesh,Agra,"Shahjahan Garden, Agra - UPPCB",04-02-2024 07:00:00,27.169338,78.03582,SO2,35,42,39
India,Uttar_Pradesh,Agra,"Shastripuram, Agra - UPPCB",04-02-2024 07:00:00,27.19862,77.92066,NO2,30,32,32
India,Uttar_Pradesh,Agra,"Shastripuram, Agra - UPPCB",04-02-2024 07:00:00,27.19862,77.92066,SO2,16,19,18
India,Uttar_Pradesh,Baghpat,"Sardar Patel Inter College, Baghpat - UPPCB",04-02-2024 07:00:00,28.964949,77.278761,PM10,56,112,89
India,Uttar_Pradesh,Baghpat,"Sardar Patel Inter College, Baghpat - UPPCB",04-02-2024 07:00:00,28.964949,77.278761,NH3,3,6,4
India,Uttar_Pradesh,Baghpat,"Sardar Patel Inter College, Baghpat - UPPCB",04-02-2024 07:00:00,28.964949,77.278761,SO2,11,73,28
India,Uttar_Pradesh,Baghpat,"Sardar Patel Inter College, Baghpat - UPPCB",04-02-2024 07:00:00,28.964949,77.278761,OZONE,1,25,2
India,Uttar_Pradesh,Bareilly,"Civil Lines, Bareilly - UPPCB",04-02-2024 07:00:00,28.359581,79.414455,PM2.5,27,53,42
India,Uttar_Pradesh,Bareilly,"Rajendra Nagar, Bareilly - UPPCB",04-02-2024 07:00:00,28.38910936,79.42963708,PM2.5,24,47,36
India,Uttar_Pradesh,Bareilly,"Rajendra Nagar, Bareilly - UPPCB",04-02-2024 07:00:00,28.38910936,79.42963708,OZONE,9,17,10
India,Uttar_Pradesh,Bulandshahr,"Yamunapuram, Bulandshahr - UPPCB",04-02-2024 07:00:00,28.406963,77.849831,SO2,28,51,36
India,Uttar_Pradesh,Firozabad,"Nagla Bhau, Firozabad - UPPCB",04-02-2024 07:00:00,27.168897,78.376960,PM2.5,45,107,61
India,Uttar_Pradesh,Firozabad,"Nagla Bhau, Firozabad - UPPCB",04-02-2024 07:00:00,27.168897,78.376960,OZONE,18,37,18
India,Uttar_Pradesh,Firozabad,"Vibhab Nagar, Firozabad - UPPCB",04-02-2024 07:00:00,27.1594,78.3953,PM2.5,NA,NA,NA
India,Uttar_Pradesh,Firozabad,"Vibhab Nagar, Firozabad - UPPCB",04-02-2024 07:00:00,27.1594,78.3953,PM10,NA,NA,NA
India,Uttar_Pradesh,Firozabad,"Vibhab Nagar, Firozabad - UPPCB",04-02-2024 07:00:00,27.1594,78.3953,NO2,13,16,14
India,Uttar_Pradesh,Firozabad,"Vibhab Nagar, Firozabad - UPPCB",04-02-2024 07:00:00,27.1594,78.3953,NH3,2,2,2
India,Uttar_Pradesh,Firozabad,"Vibhab Nagar, Firozabad - UPPCB",04-02-2024 07:00:00,27.1594,78.3953,SO2,12,16,13
India,Uttar_Pradesh,Firozabad,"Vibhab Nagar, Firozabad - UPPCB",04-02-2024 07:00:00,27.1594,78.3953,CO,20,37,29
India,Uttar_Pradesh,Ghaziabad,"Indirapuram, Ghaziabad - UPPCB",04-02-2024 07:00:00,28.646233,77.358075,NO2,55,133,91
India,Uttar_Pradesh,Ghaziabad,"Indirapuram, Ghaziabad - UPPCB",04-02-2024 07:00:00,28.646233,77.358075,OZONE,6,38,8
India,Uttar_Pradesh,Ghaziabad,"Sanjay Nagar, Ghaziabad - UPPCB",04-02-2024 07:00:00,28.685382,77.453839,NH3,8,19,14
India,Uttar_Pradesh,Gorakhpur,"Madan Mohan Malaviya University of Technology, Gorakhpur - UPPCB",04-02-2024 07:00:00,26.730136,83.433859,PM2.5,24,79,54
India,Uttar_Pradesh,Gorakhpur,"Madan Mohan Malaviya University of Technology, Gorakhpur - UPPCB",04-02-2024 07:00:00,26.730136,83.433859,SO2,37,42,38
India,Uttar_Pradesh,Gorakhpur,"Madan Mohan Malaviya University of Technology, Gorakhpur - UPPCB",04-02-2024 07:00:00,26.730136,83.433859,CO,19,29,26
India,Uttar_Pradesh,Greater Noida,"Knowledge Park - III, Greater Noida - UPPCB",04-02-2024 07:00:00,28.47272,77.482000,PM2.5,62,387,254
India,Uttar_Pradesh,Greater Noida,"Knowledge Park - III, Greater Noida - UPPCB",04-02-2024 07:00:00,28.47272,77.482000,NH3,8,17,11
India,Uttar_Pradesh,Greater Noida,"Knowledge Park - III, Greater Noida - UPPCB",04-02-2024 07:00:00,28.47272,77.482000,SO2,15,33,22
India,Uttar_Pradesh,Greater Noida,"Knowledge Park - III, Greater Noida - UPPCB",04-02-2024 07:00:00,28.47272,77.482000,OZONE,6,80,7
India,Uttar_Pradesh,Greater Noida,"Knowledge Park - V, Greater Noida - UPPCB",04-02-2024 07:00:00,28.557054,77.453663,PM10,87,474,260
India,Uttar_Pradesh,Greater Noida,"Knowledge Park - V, Greater Noida - UPPCB",04-02-2024 07:00:00,28.557054,77.453663,NH3,3,9,4
India,Uttar_Pradesh,Hapur,"Anand Vihar, Hapur - UPPCB",04-02-2024 07:00:00,28.725645,77.749675,NO2,31,132,68
India,Uttar_Pradesh,Hapur,"Anand Vihar, Hapur - UPPCB",04-02-2024 07:00:00,28.725645,77.749675,CO,22,102,54
India,Uttar_Pradesh,Jhansi,"Shivaji Nagar, Jhansi - UPPCB",04-02-2024 07:00:00,25.4547,78.6039,NO2,15,60,34
India,Uttar_Pradesh,Jhansi,"Shivaji Nagar, Jhansi - UPPCB",04-02-2024 07:00:00,25.4547,78.6039,NH3,6,6,6
India,Uttar_Pradesh,Jhansi,"Shivaji Nagar, Jhansi - UPPCB",04-02-2024 07:00:00,25.4547,78.6039,CO,19,48,40
India,Uttar_Pradesh,Kanpur,"FTI Kidwai Nagar, Kanpur - UPPCB",04-02-2024 07:00:00,26.428282,80.327067,PM2.5,21,101,57
India,Uttar_Pradesh,Kanpur,"FTI Kidwai Nagar, Kanpur - UPPCB",04-02-2024 07:00:00,26.428282,80.327067,PM10,66,168,107
India,Uttar_Pradesh,Kanpur,"FTI Kidwai Nagar, Kanpur - UPPCB",04-02-2024 07:00:00,26.428282,80.327067,NO2,14,15,14
India,Uttar_Pradesh,Kanpur,"FTI Kidwai Nagar, Kanpur - UPPCB",04-02-2024 07:00:00,26.428282,80.327067,CO,28,52,45
India,Uttar_Pradesh,Kanpur,"FTI Kidwai Nagar, Kanpur - UPPCB",04-02-2024 07:00:00,26.428282,80.327067,OZONE,3,7,3
India,Uttar_Pradesh,Kanpur,"NSI Kalyanpur, Kanpur - UPPCB",04-02-2024 07:00:00,26.509954,80.249612,SO2,NA,NA,NA
India,Uttar_Pradesh,Kanpur,"NSI Kalyanpur, Kanpur - UPPCB",04-02-2024 07:00:00,26.509954,80.249612,CO,NA,NA,NA
India,Uttar_Pradesh,Kanpur,"Nehru Nagar, Kanpur - UPPCB",04-02-2024 07:00:00,26.4703136,80.3229863,NO2,16,92,36
India,Uttar_Pradesh,Lucknow,"B R Ambedkar University, Lucknow - UPPCB",04-02-2024 07:00:00,26.766433,80.927299,NO2,NA,NA,NA
India,Uttar_Pradesh,Lucknow,"B R Ambedkar University, Lucknow - UPPCB",04-02-2024 07:00:00,26.766433,80.927299,NH3,NA,NA,NA
India,Uttar_Pradesh,Lucknow,"B R Ambedkar University, Lucknow - UPPCB",04-02-2024 07:00:00,26.766433,80.927299,CO,NA,NA,NA
India,Uttar_Pradesh,Lucknow,"B R Ambedkar University, Lucknow - UPPCB",04-02-2024 07:00:00,26.766433,80.927299,OZONE,NA,NA,NA
India,Uttar_Pradesh,Lucknow,"Gomti Nagar, Lucknow - UPPCB",04-02-2024 07:00:00,26.868120,81.005119,SO2,2,16,9
India,Uttar_Pradesh,Lucknow,"Gomti Nagar, Lucknow - UPPCB",04-02-2024 07:00:00,26.868120,81.005119,OZONE,44,67,54
India,Uttar_Pradesh,Lucknow,"Kendriya Vidyalaya, Lucknow - CPCB",04-02-2024 07:00:00,26.906111,80.948222,NH3,3,20,14
India,Uttar_Pradesh,Lucknow,"Kendriya Vidyalaya, Lucknow - CPCB",04-02-2024 07:00:00,26.906111,80.948222,CO,24,38,27
India,Uttar_Pradesh,Lucknow,"Lalbagh, Lucknow - CPCB",04-02-2024 07:00:00,26.8458805,80.9365541,PM10,106,166,134
India,Uttar_Pradesh,Lucknow,"Lalbagh, Lucknow - CPCB",04-02-2024 07:00:00,26.8458805,80.9365541,SO2,1,22,9
India,Uttar_Pradesh,Lucknow,"Talkatora District Industries Center, Lucknow - CPCB",04-02-2024 07:00:00,26.83399722,80.8917361,SO2,1,29,10
India,Uttar_Pradesh,Meerut,"Jai Bhim Nagar, Meerut - UPPCB",04-02-2024 07:00:00,28.9535882,77.7622941,PM10,43,173,89
India,Uttar_Pradesh,Meerut,"Jai Bhim Nagar, Meerut - UPPCB",04-02-2024 07:00:00,28.9535882,77.7622941,NO2,19,102,42
India,Uttar_Pradesh,Meerut,"Jai Bhim Nagar, Meerut - UPPCB",04-02-2024 07:00:00,28.9535882,77.7622941,NH3,5,9,7
India,Uttar_Pradesh,Meerut,"Pallavpuram Phase 2, Meerut - UPPCB",04-02-2024 07:00:00,29.063510,77.709723,SO2,4,21,13
India,Uttar_Pradesh,Moradabad,"Eco Herbal Park, Moradabad - UPPCB",04-02-2024 07:00:00,28.840739,78.697531,PM10,34,114,68
India,Uttar_Pradesh,Moradabad,"Employment Office, Moradabad - UPPCB",04-02-2024 07:00:00,28.88528,78.73880,NH3,NA,NA,NA
India,Uttar_Pradesh,Moradabad,"Jigar Colony, Moradabad - UPPCB",04-02-2024 07:00:00,28.856664,78.772638,NO2,23,28,25
India,Uttar_Pradesh,Moradabad,"Transport Nagar, Moradabad - UPPCB",04-02-2024 07:00:00,28.802625,78.753728,PM2.5,29,114,61
India,Uttar_Pradesh,Moradabad,"Transport Nagar, Moradabad - UPPCB",04-02-2024 07:00:00,28.802625,78.753728,OZONE,15,33,18
India,Uttar_Pradesh,Muzaffarnagar,"New Mandi, Muzaffarnagar - UPPCB",04-02-2024 07:00:00,29.4723508,77.7194031,SO2,2,16,8
India,Uttar_Pradesh,Noida,"Sector - 125, Noida - UPPCB",04-02-2024 07:00:00,28.5447608,77.3231257,NH3,5,33,15
India,Uttar_Pradesh,Noida,"Sector - 62, Noida - IMD",04-02-2024 07:00:00,28.6245479,77.3577104,OZONE,26,58,33
India,Uttar_Pradesh,Noida,"Sector-116, Noida - UPPCB",04-02-2024 07:00:00,28.569230,77.393848,NO2,43,138,84
India,Uttar_Pradesh,Prayagraj,"Jhunsi, Prayagraj - UPPCB",04-02-2024 07:00:00,25.425602,81.917152,PM10,26,99,62
India,Uttar_Pradesh,Prayagraj,"Jhunsi, Prayagraj - UPPCB",04-02-2024 07:00:00,25.425602,81.917152,CO,3,25,16
India,Uttar_Pradesh,Prayagraj,"Nagar Nigam, Prayagraj - UPPCB",04-02-2024 07:00:00,25.44919916 ,81.82735986 ,NH3,1,10,5
India,Uttar_Pradesh,Prayagraj,"Nagar Nigam, Prayagraj - UPPCB",04-02-2024 07:00:00,25.44919916 ,81.82735986 ,SO2,3,67,35
India,Uttar_Pradesh,Varanasi,"Ardhali Bazar, Varanasi - UPPCB",04-02-2024 07:00:00,25.3505986,82.9083074,NO2,20,36,26
India,Uttar_Pradesh,Varanasi,"Ardhali Bazar, Varanasi - UPPCB",04-02-2024 07:00:00,25.3505986,82.9083074,SO2,13,23,17
India,Uttar_Pradesh,Varanasi,"Bhelupur, Varanasi - UPPCB",04-02-2024 07:00:00,25.301778,82.996789,NO2,7,8,8
India,Uttar_Pradesh,Varanasi,"Bhelupur, Varanasi - UPPCB",04-02-2024 07:00:00,25.301778,82.996789,NH3,1,2,1
India,Uttar_Pradesh,Varanasi,"IESD Banaras Hindu University, Varanasi - UPPCB",04-02-2024 07:00:00,25.262326,82.995408,CO,5,18,10
India,Uttar_Pradesh,Varanasi,"Maldahiya, Varanasi - UPPCB",04-02-2024 07:00:00,25.32393,82.99687,CO,2,20,8
India,Uttar_Pradesh,Vrindavan,"Omex Eternity, Vrindavan - UPPCB",04-02-2024 07:00:00,27.5714090,77.6557570,PM10,28,224,130
India,Uttar_Pradesh,Vrindavan,"Omex Eternity, Vrindavan - UPPCB",04-02-2024 07:00:00,27.5714090,77.6557570,NO2,2,3,3
India,Uttar_Pradesh,Vrindavan,"Omex Eternity, Vrindavan - UPPCB",04-02-2024 07:00:00,27.5714090,77.6557570,CO,2,88,60
India,Uttarakhand,Dehradun,"Doon University, Dehradun - UKPCB",04-02-2024 07:00:00,30.269444,78.044167,PM2.5,27,103,59
India,Uttarakhand,Kashipur,"Govt. Girls Inter College, Kashipur - UKPCB",04-02-2024 07:00:00,29.2124114,78.9611753,SO2,8,9,8
India,Uttarakhand,Kashipur,"Govt. Girls Inter College, Kashipur - UKPCB",04-02-2024 07:00:00,29.2124114,78.9611753,OZONE,2,13,5
India,Uttarakhand,Rishikesh,"Shivaji Nagar, Rishikesh - UKPCB",04-02-2024 07:00:00,30.075911,78.2859547,NH3,3,4,4
India,West_Bengal,Barrackpore,"SVSPA Campus, Barrackpore - WBPCB",04-02-2024 07:00:00,22.7605581,88.3617589,NH3,3,5,4
India,West_Bengal,Barrackpore,"SVSPA Campus, Barrackpore - WBPCB",04-02-2024 07:00:00,22.7605581,88.3617589,OZONE,8,104,9
India,West_Bengal,Durgapur,"Sidhu Kanhu Indoor Stadium, Durgapur - WBPCB",04-02-2024 07:00:00,23.5404352,87.2892225,PM2.5,67,244,149
India,West_Bengal,Durgapur,"Sidhu Kanhu Indoor Stadium, Durgapur - WBPCB",04-02-2024 07:00:00,23.5404352,87.2892225,OZONE,2,52,2
India,West_Bengal,Haldia,"Priyambada Housing Estate, Haldia - WBPCB",04-02-2024 07:00:00,22.06047,88.109737,CO,33,61,43
India,West_Bengal,Howrah,"Belur Math, Howrah - WBPCB",04-02-2024 07:00:00,22.629801,88.352017,PM2.5,68,309,205
India,West_Bengal,Howrah,"Belur Math, Howrah - WBPCB",04-02-2024 07:00:00,22.629801,88.352017,SO2,7,14,10
India,West_Bengal,Howrah,"Padmapukur, Howrah - WBPCB",04-02-2024 07:00:00,22.5687319,88.2797276,NO2,25,59,38
India,West_Bengal,Howrah,"Padmapukur, Howrah - WBPCB",04-02-2024 07:00:00,22.5687319,88.2797276,NH3,9,15,11
India,West_Bengal,Howrah,"Padmapukur, Howrah - WBPCB",04-02-2024 07:00:00,22.5687319,88.2797276,OZONE,2,81,9
India,West_Bengal,Kolkata,"Ballygunge, Kolkata - WBPCB",04-02-2024 07:00:00,22.5367507,88.3638022,PM2.5,84,279,173
India,West_Bengal,Kolkata,"Bidhannagar, Kolkata - WBPCB",04-02-2024 07:00:00,22.58157048,88.41002457,CO,24,58,44
India,West_Bengal,Kolkata,"Fort William, Kolkata - WBPCB",04-02-2024 07:00:00,22.556640,88.342674,PM10,102,166,138
India,West_Bengal,Kolkata,"Fort William, Kolkata - WBPCB",04-02-2024 07:00:00,22.556640,88.342674,SO2,5,51,18
India,West_Bengal,Kolkata,"Fort William, Kolkata - WBPCB",04-02-2024 07:00:00,22.556640,88.342674,CO,6,70,32
India,West_Bengal,Kolkata,"Jadavpur, Kolkata - WBPCB",04-02-2024 07:00:00,22.49929,88.36917,OZONE,3,46,8
India,West_Bengal,Kolkata,"Rabindra Bharati University, Kolkata - WBPCB",04-02-2024 07:00:00,22.627847,88.380669,PM2.5,57,198,112
India,West_Bengal,Kolkata,"Rabindra Bharati University, Kolkata - WBPCB",04-02-2024 07:00:00,22.627847,88.380669,NH3,7,9,8
India,West_Bengal,Kolkata,"Rabindra Bharati University, Kolkata - WBPCB",04-02-2024 07:00:00,22.627847,88.380669,OZONE,1,73,4
India,West_Bengal,Kolkata,"Rabindra Sarobar, Kolkata - WBPCB",04-02-2024 07:00:00,22.51106,88.35142,NH3,3,7,4
India,West_Bengal,Kolkata,"Rabindra Sarobar, Kolkata - WBPCB",04-02-2024 07:00:00,22.51106,88.35142,SO2,5,49,24
India,West_Bengal,Kolkata,"Rabindra Sarobar, Kolkata - WBPCB",04-02-2024 07:00:00,22.51106,88.35142,OZONE,3,91,9
India,West_Bengal,Kolkata,"Victoria, Kolkata - WBPCB",04-02-2024 07:00:00,22.5448082,88.3403691,PM2.5,77,258,171
India,West_Bengal,Kolkata,"Victoria, Kolkata - WBPCB",04-02-2024 07:00:00,22.5448082,88.3403691,PM10,105,155,132
India,West_Bengal,Kolkata,"Victoria, Kolkata - WBPCB",04-02-2024 07:00:00,22.5448082,88.3403691,SO2,7,35,15
India,West_Bengal,Kolkata,"Victoria, Kolkata - WBPCB",04-02-2024 07:00:00,22.5448082,88.3403691,CO,38,101,61
India,West_Bengal,Siliguri,"Ward-32 Bapupara, Siliguri - WBPCB",04-02-2024 07:00:00,26.6879226,88.4152495,PM2.5,92,258,147
India,West_Bengal,Siliguri,"Ward-32 Bapupara, Siliguri - WBPCB",04-02-2024 07:00:00,26.6879226,88.4152495,CO,24,96,33
India,Andhra_Pradesh,Amaravati,"Secretariat, Amaravati - APPCB",04-02-2024 07:00:00,16.5150833,80.5181667,PM10,34,64,50
India,Andhra_Pradesh,Amaravati,"Secretariat, Amaravati - APPCB",04-02-2024 07:00:00,16.5150833,80.5181667,NO2,8,24,16
India,Andhra_Pradesh,Amaravati,"Secretariat, Amaravati - APPCB",04-02-2024 07:00:00,16.5150833,80.5181667,CO,8,81,36
India,Andhra_Pradesh,Amaravati,"Secretariat, Amaravati - APPCB",04-02-2024 07:00:00,16.5150833,80.5181667,OZONE,1,46,4
India,Andhra_Pradesh,Chittoor,"Gangineni Cheruvu, Chittoor - APPCB",04-02-2024 07:00:00,13.204880,79.097889,NO2,NA,NA,NA
India,Andhra_Pradesh,Tirupati,"Tirumala, Tirupati - APPCB",04-02-2024 07:00:00,13.67,79.35,NH3,1,2,1
India,Andhra_Pradesh,Tirupati,"Vaikuntapuram, Tirupati - APPCB",04-02-2024 07:00:00,13.615387,79.409230,PM10,17,63,28
India,Andhra_Pradesh,Tirupati,"Vaikuntapuram, Tirupati - APPCB",04-02-2024 07:00:00,13.615387,79.409230,CO,10,16,14
India,Andhra_Pradesh,Vijayawada,"HB Colony, Vijayawada - APPCB",04-02-2024 07:00:00,16.536107,80.594233,SO2,4,6,4
India,Andhra_Pradesh,Vijayawada,"Rajiv Gandhi Park, Vijayawada - APPCB",04-02-2024 07:00:00,16.509717,80.612222,CO,32,40,40
India,Andhra_Pradesh,Vijayawada,"Rajiv Nagar, Vijayawada - APPCB",04-02-2024 07:00:00,16.554731,80.649110,PM10,37,109,80
India,Andhra_Pradesh,Visakhapatnam,"GVM Corporation, Visakhapatnam - APPCB",04-02-2024 07:00:00,17.72,83.3,NO2,13,57,41
India,Andhra_Pradesh,Visakhapatnam,"GVM Corporation, Visakhapatnam - APPCB",04-02-2024 07:00:00,17.72,83.3,OZONE,7,46,11
India,Arunachal_Pradesh,Naharlagun,"Naharlagun, Naharlagun - APSPCB",04-02-2024 07:00:00,27.103358,93.679645,PM10,16,145,69
India,Arunachal_Pradesh,Naharlagun,"Naharlagun, Naharlagun - APSPCB",04-02-2024 07:00:00,27.103358,93.679645,SO2,3,3,3
India,Arunachal_Pradesh,Naharlagun,"Naharlagun, Naharlagun - APSPCB",04-02-2024 07:00:00,27.103358,93.679645,OZONE,2,2,2
India,Assam,Byrnihat,"Central Academy for SFS, Byrnihat - PCBA",04-02-2024 07:00:00,26.071318,91.87488,NO2,33,125,69
India,Assam,Byrnihat,"Central Academy for SFS, Byrnihat - PCBA",04-02-2024 07:00:00,26.071318,91.87488,CO,19,188,166
India,Assam,Byrnihat,"Central Academy for SFS, Byrnihat - PCBA",04-02-2024 07:00:00,26.071318,91.87488,OZONE,11,15,13
India,Assam,Guwahati,"IITG, Guwahati - PCBA",04-02-2024 07:00:00,26.2028636,91.70046436,NO2,1,6,3
India,Assam,Guwahati,"IITG, Guwahati - PCBA",04-02-2024 07:00:00,26.2028636,91.70046436,SO2,11,13,12
India,Assam,Guwahati,"LGBI Airport, Guwahati - PCBA",04-02-2024 07:00:00,26.10887,91.589544,PM2.5,42,335,145
India,Assam,Guwahati,"LGBI Airport, Guwahati - PCBA",04-02-2024 07:00:00,26.10887,91.589544,PM10,66,212,135
India,Assam,Guwahati,"Pan Bazaar, Guwahati - PCBA",04-02-2024 07:00:00,26.187500,91.744194,PM10,67,173,113
India,Assam,Guwahati,"Pan Bazaar, Guwahati - PCBA",04-02-2024 07:00:00,26.187500,91.744194,OZONE,17,17,17
India,Assam,Guwahati,"Railway Colony, Guwahati - PCBA",04-02-2024 07:00:00,26.181742,91.78063,NO2,3,3,3
India,Assam,Nagaon,"Christianpatty, Nagaon - PCBA",04-02-2024 07:00:00,26.349082,92.68449,PM2.5,12,67,33
India,Assam,Nagaon,"Christianpatty, Nagaon - PCBA",04-02-2024 07:00:00,26.349082,92.68449,PM10,NA,NA,NA
India,Assam,Nagaon,"Christianpatty, Nagaon - PCBA",04-02-2024 07:00:00,26.349082,92.68449,NO2,9,23,16
India,Assam,Nagaon,"Christianpatty, Nagaon - PCBA",04-02-2024 07:00:00,26.349082,92.68449,NH3,1,3,2
India,Assam,Silchar,"Tarapur, Silchar - PCBA",04-02-2024 07:00:00,24.82827,92.79525,PM10,50,50,50
India,Assam,Sivasagar,"Girls College, Sivasagar - PCBA",04-02-2024 07:00:00,26.987634,94.636574,PM2.5,15,33,24
India,Bihar,Arrah,"New DM Office, Arrah - BSPCB",04-02-2024 07:00:00,25.5626095,84.663264,PM2.5,NA,NA,NA
India,Bihar,Arrah,"New DM Office, Arrah - BSPCB",04-02-2024 07:00:00,25.5626095,84.663264,SO2,NA,NA,NA
India,Bihar,Arrah,"New DM Office, Arrah - BSPCB",04-02-2024 07:00:00,25.5626095,84.663264,OZONE,13,19,16
India,Bihar,Bettiah,"Kamalnath Nagar, Bettiah - BSPCB",04-02-2024 07:00:00,26.80365,84.51954,PM10,41,193,108
India,Bihar,Bettiah,"Kamalnath Nagar, Bettiah - BSPCB",04-02-2024 07:00:00,26.80365,84.51954,CO,76,78,78
India,Bihar,Bhagalpur,"Mayaganj, Bhagalpur - BSPCB",04-02-2024 07:00:00,25.265194,87.012947,NH3,8,10,9
India,Bihar,Bihar Sharif,"D M Colony, Bihar Sharif - BSPCB",04-02-2024 07:00:00,25.204762,85.514960,PM2.5,68,306,182
India,Bihar,Bihar Sharif,"D M Colony, Bihar Sharif - BSPCB",04-02-2024 07:00:00,25.204762,85.514960,CO,4,67,31
India,Bihar,Buxar,"Charitra Van, Buxar - BSPCB (Formerly known as Central Jail)",04-02-2024 07:00:00,25.567520,83.966379,PM2.5,90,380,237
India,Bihar,Buxar,"Charitra Van, Buxar - BSPCB (Formerly known as Central Jail)",04-02-2024 07:00:00,25.567520,83.966379,OZONE,19,145,43
India,Bihar,Chhapra,"Darshan Nagar, Chhapra - BSPCB",04-02-2024 07:00:00,25.7808257,84.7446768,PM10,101,240,137
India,Bihar,Gaya,"SFTI Kusdihra, Gaya - BSPCB",04-02-2024 07:00:00,24.762518,84.982348,PM10,30,92,57
India,Bihar,Gaya,"SFTI Kusdihra, Gaya - BSPCB",04-02-2024 07:00:00,24.762518,84.982348,OZONE,6,47,10
India,Bihar,Hajipur,"Industrial Area, Hajipur - BSPCB",04-02-2024 07:00:00,25.697189,85.245900,OZONE,NA,NA,NA
India,Bihar,Kishanganj,"SDM Office_Khagra, Kishanganj - BSPCB",04-02-2024 07:00:00,26.0881305,87.93840336,PM2.5,5,312,76
India,Bihar,Kishanganj,"SDM Office_Khagra, Kishanganj - BSPCB",04-02-2024 07:00:00,26.0881305,87.93840336,PM10,106,497,211
India,Bihar,Manguraha,"Forest Rest House, Manguraha - BSPCB",04-02-2024 07:00:00,27.308328,84.531742,PM10,68,157,105
India,Bihar,Manguraha,"Forest Rest House, Manguraha - BSPCB",04-02-2024 07:00:00,27.308328,84.531742,SO2,1,9,2
India,Bihar,Manguraha,"Forest Rest House, Manguraha - BSPCB",04-02-2024 07:00:00,27.308328,84.531742,CO,1,108,5
India,Bihar,Manguraha,"Forest Rest House, Manguraha - BSPCB",04-02-2024 07:00:00,27.308328,84.531742,OZONE,48,112,50
India,Bihar,Motihari,"Gandak Colony, Motihari - BSPCB",04-02-2024 07:00:00,26.63086,84.90051,PM10,61,166,108
India,Bihar,Motihari,"Gandak Colony, Motihari - BSPCB",04-02-2024 07:00:00,26.63086,84.90051,NO2,36,69,48
India,Bihar,Munger,"Town Hall, Munger - BSPCB",04-02-2024 07:00:00,25.376776,86.471523,PM10,67,302,155
India,Bihar,Muzaffarpur,"Buddha Colony, Muzaffarpur - BSPCB",04-02-2024 07:00:00,26.11442,85.39813,PM10,137,400,240
India,Bihar,Muzaffarpur,"Buddha Colony, Muzaffarpur - BSPCB",04-02-2024 07:00:00,26.11442,85.39813,NO2,27,106,54
India,Bihar,Muzaffarpur,"MIT-Daudpur Kothi, Muzaffarpur - BSPCB",04-02-2024 07:00:00,26.1403345,85.3650192,SO2,11,12,11
India,Bihar,Patna,"DRM Office Danapur, Patna - BSPCB",04-02-2024 07:00:00,25.586562,85.043586,PM2.5,67,190,130
India,Bihar,Patna,"Govt. High School Shikarpur, Patna - BSPCB",04-02-2024 07:00:00,25.592539,85.227158,NH3,3,5,4
India,Bihar,Patna,"IGSC Planetarium Complex, Patna - BSPCB",04-02-2024 07:00:00,25.610369,85.132568,PM2.5,21,47,33
India,Bihar,Patna,"IGSC Planetarium Complex, Patna - BSPCB",04-02-2024 07:00:00,25.610369,85.132568,NO2,14,15,15
India,Bihar,Patna,"Muradpur, Patna - BSPCB",04-02-2024 07:00:00,25.619651,85.147382,PM10,173,397,237
India,Bihar,Patna,"Rajbansi Nagar, Patna - BSPCB",04-02-2024 07:00:00,25.599486,85.113666,NO2,NA,NA,NA
India,Bihar,Patna,"Rajbansi Nagar, Patna - BSPCB",04-02-2024 07:00:00,25.599486,85.113666,NH3,NA,NA,NA
India,Bihar,Patna,"Samanpura, Patna - BSPCB",04-02-2024 07:00:00,25.596727,85.085624,NO2,33,59,43
India,Bihar,Patna,"Samanpura, Patna - BSPCB",04-02-2024 07:00:00,25.596727,85.085624,SO2,15,17,16
India,Bihar,Purnia,"Mariam Nagar, Purnia - BSPCB",04-02-2024 07:00:00,25.366336,87.117468,PM10,105,291,144
India,Bihar,Rajgir,"Dangi Tola, Rajgir - BSPCB",04-02-2024 07:00:00,25.03280,85.41948,PM10,58,158,102
India,Bihar,Saharsa,"Police Line, Saharsa - BSPCB",04-02-2024 07:00:00,25.892357,86.590325,NO2,5,8,7
India,Bihar,Saharsa,"Police Line, Saharsa - BSPCB",04-02-2024 07:00:00,25.892357,86.590325,NH3,9,10,9
India,Bihar,Samastipur,"DM Office_Kasipur, Samastipur - BSPCB",04-02-2024 07:00:00,25.859655,85.77944,PM10,86,403,185
India,Bihar,Samastipur,"DM Office_Kasipur, Samastipur - BSPCB",04-02-2024 07:00:00,25.859655,85.77944,NO2,2,6,4
India,Bihar,Samastipur,"DM Office_Kasipur, Samastipur - BSPCB",04-02-2024 07:00:00,25.859655,85.77944,SO2,1,14,9
India,Bihar,Samastipur,"DM Office_Kasipur, Samastipur - BSPCB",04-02-2024 07:00:00,25.859655,85.77944,CO,3,30,22
India,Bihar,Sasaram,"Dada Peer, Sasaram - BSPCB",04-02-2024 07:00:00,24.952822,84.002396,NO2,1,13,5
India,Bihar,Sasaram,"Dada Peer, Sasaram - BSPCB",04-02-2024 07:00:00,24.952822,84.002396,NH3,4,12,6
India,Bihar,Siwan,"Chitragupta Nagar, Siwan - BSPCB",04-02-2024 07:00:00,26.2271665,84.3570427,NO2,15,103,30
India,Bihar,Siwan,"Chitragupta Nagar, Siwan - BSPCB",04-02-2024 07:00:00,26.2271665,84.3570427,CO,16,157,64
India,Chandigarh,Chandigarh,"Sector 22, Chandigarh - CPCC",04-02-2024 07:00:00,30.735567,76.775714,NO2,29,111,62
India,Chandigarh,Chandigarh,"Sector 22, Chandigarh - CPCC",04-02-2024 07:00:00,30.735567,76.775714,SO2,8,18,11
India,Chandigarh,Chandigarh,"Sector-25, Chandigarh - CPCC",04-02-2024 07:00:00,30.751462,76.762879,SO2,6,16,10
India,Chandigarh,Chandigarh,"Sector-25, Chandigarh - CPCC",04-02-2024 07:00:00,30.751462,76.762879,OZONE,1,24,1
India,Chandigarh,Chandigarh,"Sector-53, Chandigarh - CPCC",04-02-2024 07:00:00,30.719859,76.738637,SO2,NA,NA,NA
India,Chhattisgarh,Bhilai,"32Bungalows, Bhilai - CECB",04-02-2024 07:00:00,21.194815,81.314770,NO2,18,29,23
India,Chhattisgarh,Bhilai,"32Bungalows, Bhilai - CECB",04-02-2024 07:00:00,21.194815,81.314770,SO2,4,7,5
India,Chhattisgarh,Bhilai,"32Bungalows, Bhilai - CECB",04-02-2024 07:00:00,21.194815,81.314770,CO,22,72,56
India,Chhattisgarh,Bhilai,"32Bungalows, Bhilai - CECB",04-02-2024 07:00:00,21.194815,81.314770,OZONE,4,7,4
India,Chhattisgarh,Bhilai,"Civic Center, Bhilai - Bhilai Steel Plant",04-02-2024 07:00:00,21.185571,81.343175,SO2,5,12,9
India,Chhattisgarh,Bhilai,"Hathkhoj, Bhilai - CECB",04-02-2024 07:00:00,21.224231,81.408350,PM10,24,168,88
India,Chhattisgarh,Bhilai,"Hathkhoj, Bhilai - CECB",04-02-2024 07:00:00,21.224231,81.408350,SO2,5,104,29
India,Chhattisgarh,Chhal,"Nawapara SECL Colony, Chhal - CECB",04-02-2024 07:00:00,22.118125,83.140608,PM2.5,27,78,46
India,Chhattisgarh,Chhal,"Nawapara SECL Colony, Chhal - CECB",04-02-2024 07:00:00,22.118125,83.140608,NO2,12,58,24
India,Chhattisgarh,Chhal,"Nawapara SECL Colony, Chhal - CECB",04-02-2024 07:00:00,22.118125,83.140608,OZONE,1,63,5
India,Chhattisgarh,Kunjemura,"OP Jindal School, Kunjemura - CECB",04-02-2024 07:00:00,22.126650,83.483212,PM10,61,266,118
India,Chhattisgarh,Milupara,"Govt. Higher Secondary School, Milupara - CECB",04-02-2024 07:00:00,22.1910172,83.5197009,PM2.5,16,62,36
India,Chhattisgarh,Milupara,"Govt. Higher Secondary School, Milupara - CECB",04-02-2024 07:00:00,22.1910172,83.5197009,SO2,8,16,10
India,Chhattisgarh,Milupara,"Govt. Higher Secondary School, Milupara - CECB",04-02-2024 07:00:00,22.1910172,83.5197009,CO,16,62,22
India,Chhattisgarh,Raipur,"Krishak Nagar, Raipur - CECB",04-02-2024 07:00:00,21.237755,81.705301,CO,28,52,50
India,Chhattisgarh,Raipur,"Siltara Phase-II, Raipur - CECB",04-02-2024 07:00:00,21.371751,81.664929,PM2.5,28,82,48
India,Chhattisgarh,Raipur,"Siltara Phase-II, Raipur - CECB",04-02-2024 07:00:00,21.371751,81.664929,NO2,1,36,22
India,Chhattisgarh,Raipur,"Siltara Phase-II, Raipur - CECB",04-02-2024 07:00:00,21.371751,81.664929,NH3,3,3,3
India,Delhi,Delhi,"Anand Vihar, Delhi - DPCC",04-02-2024 07:00:00,28.647622,77.3158090,PM10,140,500,351
India,Delhi,Delhi,"Anand Vihar, Delhi - DPCC",04-02-2024 07:00:00,28.647622,77.3158090,OZONE,15,24,21
India,Delhi,Delhi,"Ashok Vihar, Delhi - DPCC",04-02-2024 07:00:00,28.695381,77.181665,PM2.5,138,390,276
India,Delhi,Delhi,"Bawana, Delhi - DPCC",04-02-2024 07:00:00,28.776200,77.051074,OZONE,3,59,4
India,Delhi,Delhi,"Burari Crossing, Delhi - IMD",04-02-2024 07:00:00,28.7256504,77.2011573,PM2.5,NA,NA,NA
India,Delhi,Delhi,"CRRI Mathura Road, Delhi - IMD",04-02-2024 07:00:00,28.5512005,77.2735737,OZONE,3,10,5
India,Delhi,Delhi,"DTU, Delhi - CPCB",04-02-2024 07:00:00,28.7500499,77.1112615,PM10,103,444,204
India,Delhi,Delhi,"Dr. Karni Singh Shooting Range, Delhi - DPCC",04-02-2024 07:00:00,28.498571,77.264840,OZONE,1,70,2
India,Delhi,Delhi,"Dwarka-Sector 8, Delhi - DPCC ",04-02-2024 07:00:00,28.5710274,77.0719006,SO2,1,17,9
India,Delhi,Delhi,"IGI Airport (T3), Delhi - IMD",04-02-2024 07:00:00,28.5627763,77.1180053,PM2.5,64,360,209
India,Delhi,Delhi,"IGI Airport (T3), Delhi - IMD",04-02-2024 07:00:00,28.5627763,77.1180053,PM10,112,500,261
India,Delhi,Delhi,"IHBAS, Dilshad Garden, Delhi - CPCB",04-02-2024 07:00:00,28.6811736,77.3025234,PM2.5,59,294,153
India,Delhi,Delhi,"IHBAS, Dilshad Garden, Delhi - CPCB",04-02-2024 07:00:00,28.6811736,77.3025234,NO2,8,30,22
India,Delhi,Delhi,"IHBAS, Dilshad Garden, Delhi - CPCB",04-02-2024 07:00:00,28.6811736,77.3025234,OZONE,5,29,8
India,Delhi,Delhi,"ITO, Delhi - CPCB",04-02-2024 07:00:00,28.628624,77.241060,PM2.5,88,367,208
India,Delhi,Delhi,"ITO, Delhi - CPCB",04-02-2024 07:00:00,28.628624,77.241060,OZONE,21,66,21
India,Delhi,Delhi,"Jahangirpuri, Delhi - DPCC",04-02-2024 07:00:00,28.732820,77.170633,NH3,2,37,11
India,Delhi,Delhi,"Jawaharlal Nehru Stadium, Delhi - DPCC",04-02-2024 07:00:00,28.580280,77.233829,PM10,95,369,195
India,Delhi,Delhi,"Jawaharlal Nehru Stadium, Delhi - DPCC",04-02-2024 07:00:00,28.580280,77.233829,SO2,2,48,14
India,Delhi,Delhi,"Lodhi Road, Delhi - IITM",04-02-2024 07:00:00,28.588333,77.221667,PM10,NA,NA,NA
India,Delhi,Delhi,"Lodhi Road, Delhi - IITM",04-02-2024 07:00:00,28.588333,77.221667,NO2,NA,NA,NA
India,Delhi,Delhi,"Major Dhyan Chand National Stadium, Delhi - DPCC",04-02-2024 07:00:00,28.611281,77.237738,NO2,59,125,92
India,Delhi,Delhi,"Major Dhyan Chand National Stadium, Delhi - DPCC",04-02-2024 07:00:00,28.611281,77.237738,SO2,1,31,15
India,Delhi,Delhi,"NSIT Dwarka, Delhi - CPCB",04-02-2024 07:00:00,28.60909,77.0325413,CO,28,107,50
India,Delhi,Delhi,"Najafgarh, Delhi - DPCC",04-02-2024 07:00:00,28.570173,76.933762,PM10,38,119,80
India,Delhi,Delhi,"Najafgarh, Delhi - DPCC",04-02-2024 07:00:00,28.570173,76.933762,OZONE,2,93,11
India,Delhi,Delhi,"Nehru Nagar, Delhi - DPCC",04-02-2024 07:00:00,28.567890,77.250515,NO2,12,54,28
India,Delhi,Delhi,"North Campus, DU, Delhi - IMD",04-02-2024 07:00:00,28.6573814,77.1585447,OZONE,NA,NA,NA
India,Delhi,Delhi,"Okhla Phase-2, Delhi - DPCC",04-02-2024 07:00:00,28.530785,77.271255,NO2,63,124,95
India,Delhi,Delhi,"Okhla Phase-2, Delhi - DPCC",04-02-2024 07:00:00,28.530785,77.271255,NH3,8,14,11
India,Delhi,Delhi,"Punjabi Bagh, Delhi - DPCC",04-02-2024 07:00:00,28.674045,77.131023,PM10,136,500,271
India,Delhi,Delhi,"Punjabi Bagh, Delhi - DPCC",04-02-2024 07:00:00,28.674045,77.131023,SO2,12,26,18
India,Delhi,Delhi,"Pusa, Delhi - DPCC",04-02-2024 07:00:00,28.639652,77.146275,CO,42,135,124
India,Delhi,Delhi,"Shadipur, Delhi - CPCB",04-02-2024 07:00:00,28.6514781,77.1473105,PM2.5,116,500,319
India,Delhi,Delhi,"Shadipur, Delhi - CPCB",04-02-2024 07:00:00,28.6514781,77.1473105,NH3,8,16,11
India,Delhi,Delhi,"Sirifort, Delhi - CPCB",04-02-2024 07:00:00,28.5504249,77.2159377,CO,20,115,110
India,Delhi,Delhi,"Sonia Vihar, Delhi - DPCC",04-02-2024 07:00:00,28.710508,77.249485,SO2,6,38,15
India,Delhi,Delhi,"Sonia Vihar, Delhi - DPCC",04-02-2024 07:00:00,28.710508,77.249485,CO,42,133,91
India,Delhi,Delhi,"Sri Aurobindo Marg, Delhi - DPCC",04-02-2024 07:00:00,28.531346,77.190156,PM10,67,242,136
India,Delhi,Delhi,"Sri Aurobindo Marg, Delhi - DPCC",04-02-2024 07:00:00,28.531346,77.190156,CO,14,101,81
India,Delhi,Delhi,"Vivek Vihar, Delhi - DPCC",04-02-2024 07:00:00,28.672342,77.315260,PM10,126,430,265
India,Delhi,Delhi,"Vivek Vihar, Delhi - DPCC",04-02-2024 07:00:00,28.672342,77.315260,CO,32,153,99
India,Delhi,Delhi,"Wazirpur, Delhi - DPCC",04-02-2024 07:00:00,28.699793,77.165453,OZONE,2,46,12
India,Gujarat,Ahmedabad,"Chandkheda, Ahmedabad - IITM",04-02-2024 07:00:00,23.107969,72.574648,NO2,26,38,33
India,Gujarat,Ahmedabad,"Gyaspur, Ahmedabad - IITM",04-02-2024 07:00:00,22.977134,72.553024,PM10,88,322,160
India,Gujarat,Ahmedabad,"Gyaspur, Ahmedabad - IITM",04-02-2024 07:00:00,22.977134,72.553024,CO,32,94,75
India,Gujarat,Ahmedabad,"Maninagar, Ahmedabad - GPCB",04-02-2024 07:00:00,23.002657,72.591912,NO2,20,147,74
India,Gujarat,Ahmedabad,"Maninagar, Ahmedabad - GPCB",04-02-2024 07:00:00,23.002657,72.591912,SO2,2,121,49
India,Gujarat,Ahmedabad,"Raikhad, Ahmedabad - IITM",04-02-2024 07:00:00,23.020509,72.579261,SO2,17,20,17
India,Gujarat,Ahmedabad,"Rakhial, Ahmedabad - IITM",04-02-2024 07:00:00,23.016834,72.625775,PM2.5,60,328,159
India,Gujarat,Ahmedabad,"Rakhial, Ahmedabad - IITM",04-02-2024 07:00:00,23.016834,72.625775,NH3,1,8,5
India,Gujarat,Ahmedabad,"Rakhial, Ahmedabad - IITM",04-02-2024 07:00:00,23.016834,72.625775,CO,8,110,67
India,Gujarat,Ahmedabad,"SAC ISRO Bopal, Ahmedabad - IITM",04-02-2024 07:00:00,23.041137,72.456691,NH3,4,5,4
India,Gujarat,Ahmedabad,"SAC ISRO Bopal, Ahmedabad - IITM",04-02-2024 07:00:00,23.041137,72.456691,SO2,13,18,16
India,Gujarat,Ahmedabad,"SAC ISRO Bopal, Ahmedabad - IITM",04-02-2024 07:00:00,23.041137,72.456691,CO,20,45,21
India,Gujarat,Ahmedabad,"SAC ISRO Bopal, Ahmedabad - IITM",04-02-2024 07:00:00,23.041137,72.456691,OZONE,11,14,12
India,Gujarat,Ahmedabad,"SAC ISRO Satellite, Ahmedabad - IITM",04-02-2024 07:00:00,23.023389,72.515201,PM10,92,107,94
India,Gujarat,Ahmedabad,"SAC ISRO Satellite, Ahmedabad - IITM",04-02-2024 07:00:00,23.023389,72.515201,NO2,17,18,17
India,Gujarat,Ahmedabad,"SAC ISRO Satellite, Ahmedabad - IITM",04-02-2024 07:00:00,23.023389,72.515201,OZONE,2,20,2
India,Gujarat,Ahmedabad,"Sardar Vallabhbhai Patel Stadium, Ahmedabad - IITM",04-02-2024 07:00:00,23.043070,72.562968,SO2,15,17,16
India,Gujarat,Ankleshwar,"GIDC, Ankleshwar - GPCB",04-02-2024 07:00:00,21.613267,73.010555,PM2.5,50,201,93
India,Gujarat,Ankleshwar,"GIDC, Ankleshwar - GPCB",04-02-2024 07:00:00,21.613267,73.010555,NO2,33,34,34
India,Gujarat,Ankleshwar,"GIDC, Ankleshwar - GPCB",04-02-2024 07:00:00,21.613267,73.010555,SO2,5,117,53
India,Gujarat,Gandhinagar,"GIFT City, Gandhinagar - IITM",04-02-2024 07:00:00,23.163798,72.677768,NO2,9,13,10
India,Gujarat,Gandhinagar,"GIFT City, Gandhinagar - IITM",04-02-2024 07:00:00,23.163798,72.677768,CO,16,33,31
India,Gujarat,Gandhinagar,"IIPHG Lekawada, Gandhinagar - IITM",04-02-2024 07:00:00,23.243639,72.68994,SO2,14,19,14
India,Gujarat,Gandhinagar,"Sector-10, Gandhinagar - GPCB",04-02-2024 07:00:00,23.221714,72.654328,PM2.5,22,76,44
India,Gujarat,Gandhinagar,"Sector-10, Gandhinagar - GPCB",04-02-2024 07:00:00,23.221714,72.654328,NH3,1,2,2
India,Gujarat,Surat,"Science Center, Surat - SMC",04-02-2024 07:00:00,21.170046,72.795405,PM2.5,14,83,32
India,Gujarat,Surat,"Science Center, Surat - SMC",04-02-2024 07:00:00,21.170046,72.795405,PM10,22,131,57
India,Gujarat,Vapi,"Phase-1 GIDC, Vapi - GPCB",04-02-2024 07:00:00,20.362421,72.918013,PM10,67,366,170
India,Gujarat,Vatva,"Phase-4 GIDC, Vatva - GPCB",04-02-2024 07:00:00,22.969611,72.643500,NH3,1,2,1
India,Haryana,Ambala,"Patti Mehar, Ambala - HSPCB",04-02-2024 07:00:00,30.379589,76.778328,SO2,1,47,10
India,Haryana,Bahadurgarh,"Arya Nagar, Bahadurgarh - HSPCB",04-02-2024 07:00:00,28.6701,76.9254,SO2,12,28,17
India,Haryana,Ballabgarh,"Nathu Colony, Ballabgarh - HSPCB",04-02-2024 07:00:00,28.3419248,77.319699,PM10,111,500,221
India,Haryana,Bhiwani,"H.B. Colony, Bhiwani - HSPCB",04-02-2024 07:00:00,28.806223,76.141105,SO2,5,14,9
India,Haryana,Charkhi Dadri,"Mini Secretariat, Charkhi Dadri - HSPCB",04-02-2024 07:00:00,28.593883,76.270653,PM10,10,147,81
India,Haryana,Charkhi Dadri,"Mini Secretariat, Charkhi Dadri - HSPCB",04-02-2024 07:00:00,28.593883,76.270653,OZONE,13,18,15
India,Haryana,Faridabad,"Sector 11, Faridabad - HSPCB",04-02-2024 07:00:00,28.376058,77.315741,PM10,55,497,186
India,Haryana,Faridabad,"Sector 30, Faridabad - HSPCB",04-02-2024 07:00:00,28.4417,77.3217,NH3,9,9,9
India,Haryana,Faridabad,"Sector- 16A, Faridabad - HSPCB",04-02-2024 07:00:00,28.4088421,77.3099081,CO,6,102,74
India,Haryana,Fatehabad,"Huda Sector, Fatehabad - HSPCB",04-02-2024 07:00:00,29.503664,75.467934,NO2,29,32,30
India,Haryana,Gurugram,"Sector-51, Gurugram - HSPCB",04-02-2024 07:00:00,28.4227,77.0667,OZONE,27,67,40
India,Haryana,Gurugram,"Vikas Sadan, Gurugram - HSPCB",04-02-2024 07:00:00,28.4501238,77.0263051,SO2,24,31,28
India,Haryana,Hisar,"Urban Estate-II, Hisar - HSPCB",04-02-2024 07:00:00,29.140560,75.744941,NO2,5,10,8
India,Haryana,Jind,"Police Lines, Jind - HSPCB",04-02-2024 07:00:00,29.307814,76.337619,PM10,52,132,88
India,Haryana,Kaithal,"Rishi Nagar, Kaithal - HSPCB",04-02-2024 07:00:00,29.8006,76.4155,SO2,7,104,24
India,Haryana,Karnal,"Sector-12, Karnal - HSPCB",04-02-2024 07:00:00,29.695300,77.002700,NO2,7,12,10
India,Haryana,Kurukshetra,"Sector-7, Kurukshetra - HSPCB",04-02-2024 07:00:00,29.966942,76.875879,SO2,1,57,18
India,Haryana,Kurukshetra,"Sector-7, Kurukshetra - HSPCB",04-02-2024 07:00:00,29.966942,76.875879,OZONE,3,41,9
India,Haryana,Mandikhera,"General Hospital, Mandikhera - HSPCB",04-02-2024 07:00:00,27.9002,76.9938,PM10,50,128,81
India,Haryana,Manesar,"Sector-2 IMT, Manesar - HSPCB",04-02-2024 07:00:00,28.360699,76.936090,PM2.5,72,363,205
India,Haryana,Manesar,"Sector-2 IMT, Manesar - HSPCB",04-02-2024 07:00:00,28.360699,76.936090,CO,5,102,49
India,Haryana,Manesar,"Sector-2 IMT, Manesar - HSPCB",04-02-2024 07:00:00,28.360699,76.936090,OZONE,5,30,5
India,Haryana,Narnaul,"Shastri Nagar, Narnaul - HSPCB",04-02-2024 07:00:00,28.060249,76.113115,SO2,10,33,14
India,Haryana,Palwal,"Shyam Nagar, Palwal - HSPCB",04-02-2024 07:00:00,28.1485564,77.3320667,PM10,NA,NA,NA
India,Haryana,Palwal,"Shyam Nagar, Palwal - HSPCB",04-02-2024 07:00:00,28.1485564,77.3320667,SO2,7,23,15
India,Haryana,Palwal,"Shyam Nagar, Palwal - HSPCB",04-02-2024 07:00:00,28.1485564,77.3320667,CO,8,18,16
India,Haryana,Panchkula,"Sector-6, Panchkula - HSPCB ",04-02-2024 07:00:00,30.7057778,76.8531805555555,NO2,28,30,29
India,Haryana,Panipat,"Sector-18, Panipat - HSPCB",04-02-2024 07:00:00,29.497973,76.993331,PM2.5,126,140,133
India,Haryana,Sirsa,"F-Block, Sirsa - HSPCB",04-02-2024 07:00:00,29.536400,75.015800,OZONE,17,49,22
India,Himachal Pradesh,Baddi,"HIMUDA Complex Phase-1, Baddi - HPPCB",04-02-2024 07:00:00,30.943887,76.801991,NH3,1,4,2
India,Jharkhand,Dhanbad,"Kalakusuma, Dhanbad - DMC",04-02-2024 07:00:00,23.811548,86.481238,OZONE,27,65,42
India,Jharkhand,Pathardih,"Mohalbani Ghat, Pathardih - DMC",04-02-2024 07:00:00,23.669880,86.411725,NO2,NA,NA,NA
India,Jharkhand,Pathardih,"Mohalbani Ghat, Pathardih - DMC",04-02-2024 07:00:00,23.669880,86.411725,CO,NA,NA,NA
India,Jharkhand,Pathardih,"Mohalbani Ghat, Pathardih - DMC",04-02-2024 07:00:00,23.669880,86.411725,OZONE,NA,NA,NA
India,Karnataka,Bagalkot,"Vidayagiri, Bagalkot - KSPCB",04-02-2024 07:00:00,16.172806,75.659694,NO2,10,11,10
India,Karnataka,Bagalkot,"Vidayagiri, Bagalkot - KSPCB",04-02-2024 07:00:00,16.172806,75.659694,CO,26,64,43
India,Karnataka,Bengaluru,"BTM Layout, Bengaluru - CPCB",04-02-2024 07:00:00,12.9135218,77.5950804,PM2.5,26,95,45
India,Karnataka,Bengaluru,"BTM Layout, Bengaluru - CPCB",04-02-2024 07:00:00,12.9135218,77.5950804,PM10,58,94,70
India,Karnataka,Bengaluru,"BTM Layout, Bengaluru - CPCB",04-02-2024 07:00:00,12.9135218,77.5950804,CO,35,36,35
India,Karnataka,Bengaluru,"Bapuji Nagar, Bengaluru - KSPCB",04-02-2024 07:00:00,12.951913,77.539784,PM10,87,110,96
