country,state,city,station,last_update,latitude,longitude,pollutant_id,pollutant_min,pollutant_max,pollutant_avg
India,Andhra_Pradesh,Anantapur,"Gulzarpet, Anantapur - APPCB",25-06-2024 07:00:00,14.675886,77.593027,NO2,NA,NA,NA
India,Andhra_Pradesh,Chittoor,"Gangineni Cheruvu, Chittoor - APPCB",25-06-2024 07:00:00,13.204880,79.097889,PM10,35,59,46
India,Andhra_Pradesh,Kadapa,"Yerramukkapalli, Kadapa - APPCB",25-06-2024 07:00:00,14.465052,78.824187,PM10,NA,NA,NA
India,Andhra_Pradesh,Kadapa,"Yerramukkapalli, Kadapa - APPCB",25-06-2024 07:00:00,14.465052,78.824187,CO,NA,NA,NA
India,Andhra_Pradesh,Tirupati,"Tirumala, Tirupati - APPCB",25-06-2024 07:00:00,13.67,79.35,PM2.5,7,30,17
India,Andhra_Pradesh,Tirupati,"Tirumala, Tirupati - APPCB",25-06-2024 07:00:00,13.67,79.35,SO2,1,7,3
India,Andhra_Pradesh,Tirupati,"Tirumala, Tirupati - APPCB",25-06-2024 07:00:00,13.67,79.35,OZONE,17,29,21
India,Andhra_Pradesh,Tirupati,"Vaikuntapuram, Tirupati - APPCB",25-06-2024 07:00:00,13.615387,79.409230,OZONE,5,23,9
India,Andhra_Pradesh,Vijayawada,"HB Colony, Vijayawada - APPCB",25-06-2024 07:00:00,16.536107,80.594233,PM10,36,89,53
India,Andhra_Pradesh,Vijayawada,"Kanuru, Vijayawada - APPCB",25-06-2024 07:00:00,16.486692,80.699436,PM2.5,40,65,50
India,Andhra_Pradesh,Vijayawada,"Kanuru, Vijayawada - APPCB",25-06-2024 07:00:00,16.486692,80.699436,PM10,47,76,58
India,Andhra_Pradesh,Vijayawada,"Kanuru, Vijayawada - APPCB",25-06-2024 07:00:00,16.486692,80.699436,OZONE,40,40,40
India,Andhra_Pradesh,Vijayawada,"Rajiv Gandhi Park, Vijayawada - APPCB",25-06-2024 07:00:00,16.509717,80.612222,CO,38,40,40
India,Andhra_Pradesh,Vijayawada,"Rajiv Gandhi Park, Vijayawada - APPCB",25-06-2024 07:00:00,16.509717,80.612222,OZONE,33,33,33
India,Andhra_Pradesh,Vijayawada,"Rajiv Nagar, Vijayawada - APPCB",25-06-2024 07:00:00,16.554731,80.649110,PM10,53,110,59
India,Andhra_Pradesh,Vijayawada,"Rajiv Nagar, Vijayawada - APPCB",25-06-2024 07:00:00,16.554731,80.649110,SO2,26,26,26
India,Andhra_Pradesh,Visakhapatnam,"GVM Corporation, Visakhapatnam - APPCB",25-06-2024 07:00:00,17.72,83.3,PM2.5,28,48,37
India,Andhra_Pradesh,Visakhapatnam,"GVM Corporation, Visakhapatnam - APPCB",25-06-2024 07:00:00,17.72,83.3,NO2,54,135,76
India,Andhra_Pradesh,Visakhapatnam,"GVM Corporation, Visakhapatnam - APPCB",25-06-2024 07:00:00,17.72,83.3,OZONE,7,15,11
India,Assam,Byrnihat,"Central Academy for SFS, Byrnihat - PCBA",25-06-2024 07:00:00,26.071318,91.87488,OZONE,23,26,23
India,Assam,Guwahati,"LGBI Airport, Guwahati - PCBA",25-06-2024 07:00:00,26.10887,91.589544,NO2,6,36,16
India,Assam,Guwahati,"LGBI Airport, Guwahati - PCBA",25-06-2024 07:00:00,26.10887,91.589544,CO,44,54,51
India,Assam,Guwahati,"Pan Bazaar, Guwahati - PCBA",25-06-2024 07:00:00,26.187500,91.744194,OZONE,17,18,17
India,Assam,Guwahati,"Railway Colony, Guwahati - PCBA",25-06-2024 07:00:00,26.181742,91.78063,OZONE,1,20,8
India,Assam,Nagaon,"Christianpatty, Nagaon - PCBA",25-06-2024 07:00:00,26.349082,92.68449,PM10,15,54,18
India,Assam,Nagaon,"Christianpatty, Nagaon - PCBA",25-06-2024 07:00:00,26.349082,92.68449,CO,42,57,44
India,Assam,Nagaon,"Christianpatty, Nagaon - PCBA",25-06-2024 07:00:00,26.349082,92.68449,OZONE,9,78,14
India,Assam,Nalbari,"Bata Chowk, Nalbari - PCBA",25-06-2024 07:00:00,26.446912,91.439057,PM10,NA,NA,NA
India,Assam,Nalbari,"Bata Chowk, Nalbari - PCBA",25-06-2024 07:00:00,26.446912,91.439057,NO2,8,23,16
India,Assam,Sivasagar,"Girls College, Sivasagar - PCBA",25-06-2024 07:00:00,26.987634,94.636574,PM2.5,31,37,36
India,Assam,Sivasagar,"Girls College, Sivasagar - PCBA",25-06-2024 07:00:00,26.987634,94.636574,PM10,51,63,57
India,Bihar,Araria,"Kharahiya Basti, Araria - BSPCB",25-06-2024 07:00:00,26.146529,87.454184,OZONE,29,33,30
India,Bihar,Arrah,"New DM Office, Arrah - BSPCB",25-06-2024 07:00:00,25.5626095,84.663264,PM2.5,18,38,30
India,Bihar,Aurangabad,"Gurdeo Nagar, Aurangabad - BSPCB",25-06-2024 07:00:00,24.75746,84.366208,PM2.5,NA,NA,NA
India,Bihar,Aurangabad,"Gurdeo Nagar, Aurangabad - BSPCB",25-06-2024 07:00:00,24.75746,84.366208,PM10,NA,NA,NA
India,Bihar,Aurangabad,"Gurdeo Nagar, Aurangabad - BSPCB",25-06-2024 07:00:00,24.75746,84.366208,SO2,8,24,17
India,Bihar,Bettiah,"Kamalnath Nagar, Bettiah - BSPCB",25-06-2024 07:00:00,26.80365,84.51954,PM2.5,NA,NA,NA
India,Bihar,Bettiah,"Kamalnath Nagar, Bettiah - BSPCB",25-06-2024 07:00:00,26.80365,84.51954,OZONE,NA,NA,NA
India,Bihar,Bihar Sharif,"D M Colony, Bihar Sharif - BSPCB",25-06-2024 07:00:00,25.204762,85.514960,OZONE,14,89,37
India,Bihar,Buxar,"Charitra Van, Buxar - BSPCB (Formerly known as Central Jail)",25-06-2024 07:00:00,25.567520,83.966379,PM10,NA,NA,NA
India,Bihar,Buxar,"Charitra Van, Buxar - BSPCB (Formerly known as Central Jail)",25-06-2024 07:00:00,25.567520,83.966379,NH3,1,2,1
India,Bihar,Chhapra,"Darshan Nagar, Chhapra - BSPCB",25-06-2024 07:00:00,25.7808257,84.7446768,SO2,NA,NA,NA
India,Bihar,Gaya,"Collectorate, Gaya - BSPCB",25-06-2024 07:00:00,24.7955,84.9994,PM2.5,37,307,112
India,Bihar,Gaya,"Collectorate, Gaya - BSPCB",25-06-2024 07:00:00,24.7955,84.9994,NO2,3,5,4
India,Bihar,Gaya,"Collectorate, Gaya - BSPCB",25-06-2024 07:00:00,24.7955,84.9994,CO,20,44,26
India,Bihar,Gaya,"Kareemganj, Gaya - BSPCB",25-06-2024 07:00:00,24.792403,84.992416,NO2,29,32,30
India,Bihar,Gaya,"SFTI Kusdihra, Gaya - BSPCB",25-06-2024 07:00:00,24.762518,84.982348,OZONE,40,94,44
India,Bihar,Hajipur,"Industrial Area, Hajipur - BSPCB",25-06-2024 07:00:00,25.697189,85.245900,SO2,8,9,8
India,Bihar,Manguraha,"Forest Rest House, Manguraha - BSPCB",25-06-2024 07:00:00,27.308328,84.531742,NO2,NA,NA,NA
India,Bihar,Manguraha,"Forest Rest House, Manguraha - BSPCB",25-06-2024 07:00:00,27.308328,84.531742,CO,20,73,42
India,Bihar,Motihari,"Gandak Colony, Motihari - BSPCB",25-06-2024 07:00:00,26.63086,84.90051,PM2.5,23,67,46
India,Bihar,Munger,"Town Hall, Munger - BSPCB",25-06-2024 07:00:00,25.376776,86.471523,PM2.5,28,80,50
India,Bihar,Muzaffarpur,"Buddha Colony, Muzaffarpur - BSPCB",25-06-2024 07:00:00,26.11442,85.39813,PM2.5,52,80,65
India,Bihar,Muzaffarpur,"MIT-Daudpur Kothi, Muzaffarpur - BSPCB",25-06-2024 07:00:00,26.1403345,85.3650192,CO,8,108,20
India,Bihar,Muzaffarpur,"Muzaffarpur Collectorate, Muzaffarpur - BSPCB",25-06-2024 07:00:00,26.1209,85.3647,NO2,31,41,34
India,Bihar,Muzaffarpur,"Muzaffarpur Collectorate, Muzaffarpur - BSPCB",25-06-2024 07:00:00,26.1209,85.3647,OZONE,25,46,29
India,Bihar,Patna,"DRM Office Danapur, Patna - BSPCB",25-06-2024 07:00:00,25.586562,85.043586,PM2.5,60,88,74
India,Bihar,Patna,"DRM Office Danapur, Patna - BSPCB",25-06-2024 07:00:00,25.586562,85.043586,CO,19,42,30
India,Bihar,Patna,"Muradpur, Patna - BSPCB",25-06-2024 07:00:00,25.619651,85.147382,OZONE,5,62,6
India,Bihar,Patna,"Samanpura, Patna - BSPCB",25-06-2024 07:00:00,25.596727,85.085624,NO2,1,63,13
India,Bihar,Purnia,"Mariam Nagar, Purnia - BSPCB",25-06-2024 07:00:00,25.366336,87.117468,PM2.5,NA,NA,NA
India,Bihar,Purnia,"Mariam Nagar, Purnia - BSPCB",25-06-2024 07:00:00,25.366336,87.117468,CO,16,65,48
India,Bihar,Rajgir,"Dangi Tola, Rajgir - BSPCB",25-06-2024 07:00:00,25.03280,85.41948,CO,38,38,38
India,Bihar,Saharsa,"Police Line, Saharsa - BSPCB",25-06-2024 07:00:00,25.892357,86.590325,NO2,5,8,7
India,Bihar,Saharsa,"Police Line, Saharsa - BSPCB",25-06-2024 07:00:00,25.892357,86.590325,SO2,16,16,16
India,Bihar,Saharsa,"Police Line, Saharsa - BSPCB",25-06-2024 07:00:00,25.892357,86.590325,CO,54,54,54
India,Bihar,Samastipur,"DM Office_Kasipur, Samastipur - BSPCB",25-06-2024 07:00:00,25.859655,85.77944,PM2.5,7,53,17
India,Bihar,Samastipur,"DM Office_Kasipur, Samastipur - BSPCB",25-06-2024 07:00:00,25.859655,85.77944,SO2,47,53,50
India,Bihar,Samastipur,"DM Office_Kasipur, Samastipur - BSPCB",25-06-2024 07:00:00,25.859655,85.77944,OZONE,2,12,3
India,Bihar,Siwan,"Chitragupta Nagar, Siwan - BSPCB",25-06-2024 07:00:00,26.2271665,84.3570427,NO2,18,104,46
India,Bihar,Siwan,"Chitragupta Nagar, Siwan - BSPCB",25-06-2024 07:00:00,26.2271665,84.3570427,SO2,NA,NA,NA
India,Bihar,Siwan,"Chitragupta Nagar, Siwan - BSPCB",25-06-2024 07:00:00,26.2271665,84.3570427,CO,58,108,74
India,Chandigarh,Chandigarh,"Sector 22, Chandigarh - CPCC",25-06-2024 07:00:00,30.735567,76.775714,NH3,6,17,10
India,Chandigarh,Chandigarh,"Sector-25, Chandigarh - CPCC",25-06-2024 07:00:00,30.751462,76.762879,SO2,2,6,4
India,Chandigarh,Chandigarh,"Sector-53, Chandigarh - CPCC",25-06-2024 07:00:00,30.719859,76.738637,PM10,78,133,99
India,Chhattisgarh,Bhilai,"Civic Center, Bhilai - Bhilai Steel Plant",25-06-2024 07:00:00,21.185571,81.343175,PM2.5,14,30,21
India,Chhattisgarh,Bilaspur,"Mangala, Bilaspur - NTPC",25-06-2024 07:00:00,22.08815,82.13737,PM10,NA,NA,NA
India,Chhattisgarh,Bilaspur,"Mangala, Bilaspur - NTPC",25-06-2024 07:00:00,22.08815,82.13737,SO2,3,23,17
India,Chhattisgarh,Bilaspur,"Mangala, Bilaspur - NTPC",25-06-2024 07:00:00,22.08815,82.13737,CO,34,48,44
India,Chhattisgarh,Korba,"Rampur, Korba - CECB",25-06-2024 07:00:00,22.368195,82.746431,NH3,1,1,1
India,Chhattisgarh,Korba,"Rampur, Korba - CECB",25-06-2024 07:00:00,22.368195,82.746431,OZONE,NA,NA,NA
India,Chhattisgarh,Korba,"Urja Nagar, Korba - CECB",25-06-2024 07:00:00,22.348441,82.549611,PM2.5,NA,NA,NA
India,Chhattisgarh,Kunjemura,"OP Jindal School, Kunjemura - CECB",25-06-2024 07:00:00,22.126650,83.483212,PM2.5,16,318,82
India,Chhattisgarh,Kunjemura,"OP Jindal School, Kunjemura - CECB",25-06-2024 07:00:00,22.126650,83.483212,NO2,13,102,46
India,Chhattisgarh,Milupara,"Govt. Higher Secondary School, Milupara - CECB",25-06-2024 07:00:00,22.1910172,83.5197009,NO2,NA,NA,NA
India,Chhattisgarh,Raipur,"Bhatagaon New ISBT, Raipur - CECB",25-06-2024 07:00:00,21.219665,81.630094,PM10,13,59,32
India,Chhattisgarh,Raipur,"Krishak Nagar, Raipur - CECB",25-06-2024 07:00:00,21.237755,81.705301,PM10,NA,NA,NA
India,Chhattisgarh,Raipur,"Siltara Phase-II, Raipur - CECB",25-06-2024 07:00:00,21.371751,81.664929,PM10,33,136,82
India,Chhattisgarh,Raipur,"Siltara Phase-II, Raipur - CECB",25-06-2024 07:00:00,21.371751,81.664929,NO2,12,43,25
India,Chhattisgarh,Raipur,"Siltara Phase-II, Raipur - CECB",25-06-2024 07:00:00,21.371751,81.664929,SO2,NA,NA,NA
India,Chhattisgarh,Tumidih,"OP Jindal Industrial Park, Tumidih - CECB",25-06-2024 07:00:00,22.06631475,83.33820077,PM2.5,NA,NA,NA
India,Chhattisgarh,Tumidih,"OP Jindal Industrial Park, Tumidih - CECB",25-06-2024 07:00:00,22.06631475,83.33820077,NH3,NA,NA,NA
India,Chhattisgarh,Tumidih,"OP Jindal Industrial Park, Tumidih - CECB",25-06-2024 07:00:00,22.06631475,83.33820077,SO2,NA,NA,NA
India,Chhattisgarh,Tumidih,"OP Jindal Industrial Park, Tumidih - CECB",25-06-2024 07:00:00,22.06631475,83.33820077,OZONE,NA,NA,NA
India,Delhi,Delhi,"Anand Vihar, Delhi - DPCC",25-06-2024 07:00:00,28.647622,77.3158090,NO2,39,99,62
India,Delhi,Delhi,"Anand Vihar, Delhi - DPCC",25-06-2024 07:00:00,28.647622,77.3158090,SO2,NA,NA,NA
India,Delhi,Delhi,"Ashok Vihar, Delhi - DPCC",25-06-2024 07:00:00,28.695381,77.181665,SO2,8,17,12
India,Delhi,Delhi,"Ashok Vihar, Delhi - DPCC",25-06-2024 07:00:00,28.695381,77.181665,CO,30,69,44
India,Delhi,Delhi,"Aya Nagar, Delhi - IMD",25-06-2024 07:00:00,28.4706914,77.1099364,NO2,34,40,37
India,Delhi,Delhi,"Dr. Karni Singh Shooting Range, Delhi - DPCC",25-06-2024 07:00:00,28.498571,77.264840,PM10,72,172,110
India,Delhi,Delhi,"Dr. Karni Singh Shooting Range, Delhi - DPCC",25-06-2024 07:00:00,28.498571,77.264840,OZONE,7,157,16
India,Delhi,Delhi,"Dwarka-Sector 8, Delhi - DPCC ",25-06-2024 07:00:00,28.5710274,77.0719006,NH3,5,50,16
India,Delhi,Delhi,"Dwarka-Sector 8, Delhi - DPCC ",25-06-2024 07:00:00,28.5710274,77.0719006,CO,32,76,45
India,Delhi,Delhi,"Dwarka-Sector 8, Delhi - DPCC ",25-06-2024 07:00:00,28.5710274,77.0719006,OZONE,1,51,9
India,Delhi,Delhi,"IGI Airport (T3), Delhi - IMD",25-06-2024 07:00:00,28.5627763,77.1180053,PM10,73,132,94
India,Delhi,Delhi,"IGI Airport (T3), Delhi - IMD",25-06-2024 07:00:00,28.5627763,77.1180053,CO,34,57,42
India,Delhi,Delhi,"IHBAS, Dilshad Garden, Delhi - CPCB",25-06-2024 07:00:00,28.6811736,77.3025234,PM2.5,50,91,64
India,Delhi,Delhi,"ITO, Delhi - CPCB",25-06-2024 07:00:00,28.628624,77.241060,PM2.5,13,238,94
India,Delhi,Delhi,"ITO, Delhi - CPCB",25-06-2024 07:00:00,28.628624,77.241060,CO,58,109,75
India,Delhi,Delhi,"Jahangirpuri, Delhi - DPCC",25-06-2024 07:00:00,28.732820,77.170633,NO2,14,65,37
India,Delhi,Delhi,"Jahangirpuri, Delhi - DPCC",25-06-2024 07:00:00,28.732820,77.170633,SO2,24,52,29
India,Delhi,Delhi,"Jawaharlal Nehru Stadium, Delhi - DPCC",25-06-2024 07:00:00,28.580280,77.233829,NH3,9,13,11
India,Delhi,Delhi,"Jawaharlal Nehru Stadium, Delhi - DPCC",25-06-2024 07:00:00,28.580280,77.233829,SO2,10,18,14
India,Delhi,Delhi,"Lodhi Road, Delhi - IMD",25-06-2024 07:00:00,28.5918245,77.2273074,NO2,1,5,2
India,Delhi,Delhi,"Major Dhyan Chand National Stadium, Delhi - DPCC",25-06-2024 07:00:00,28.611281,77.237738,SO2,6,18,10
India,Delhi,Delhi,"Mandir Marg, Delhi - DPCC",25-06-2024 07:00:00,28.636429,77.201067,PM10,41,149,97
India,Delhi,Delhi,"Mandir Marg, Delhi - DPCC",25-06-2024 07:00:00,28.636429,77.201067,NH3,4,8,6
India,Delhi,Delhi,"Mundka, Delhi - DPCC",25-06-2024 07:00:00,28.684678,77.076574,NO2,45,113,72
India,Delhi,Delhi,"Mundka, Delhi - DPCC",25-06-2024 07:00:00,28.684678,77.076574,SO2,3,5,5
India,Delhi,Delhi,"NSIT Dwarka, Delhi - CPCB",25-06-2024 07:00:00,28.60909,77.0325413,NO2,16,51,31
India,Delhi,Delhi,"Najafgarh, Delhi - DPCC",25-06-2024 07:00:00,28.570173,76.933762,CO,44,80,57
India,Delhi,Delhi,"Narela, Delhi - DPCC",25-06-2024 07:00:00,28.822836,77.101981,NH3,5,6,5
India,Delhi,Delhi,"Narela, Delhi - DPCC",25-06-2024 07:00:00,28.822836,77.101981,OZONE,46,123,61
India,Delhi,Delhi,"Nehru Nagar, Delhi - DPCC",25-06-2024 07:00:00,28.567890,77.250515,PM2.5,30,230,93
India,Delhi,Delhi,"Nehru Nagar, Delhi - DPCC",25-06-2024 07:00:00,28.567890,77.250515,OZONE,7,96,20
India,Delhi,Delhi,"New Moti Bagh, Delhi - MHUA",25-06-2024 07:00:00,28.57834,77.18400,NO2,6,12,8
India,Delhi,Delhi,"North Campus, DU, Delhi - IMD",25-06-2024 07:00:00,28.6573814,77.1585447,PM2.5,20,392,122
India,Delhi,Delhi,"Okhla Phase-2, Delhi - DPCC",25-06-2024 07:00:00,28.530785,77.271255,PM2.5,37,207,76
India,Delhi,Delhi,"Okhla Phase-2, Delhi - DPCC",25-06-2024 07:00:00,28.530785,77.271255,CO,58,102,72
India,Delhi,Delhi,"Patparganj, Delhi - DPCC",25-06-2024 07:00:00,28.623763,77.287209,CO,32,108,85
India,Delhi,Delhi,"Punjabi Bagh, Delhi - DPCC",25-06-2024 07:00:00,28.674045,77.131023,PM2.5,58,197,105
India,Delhi,Delhi,"Pusa, Delhi - DPCC",25-06-2024 07:00:00,28.639652,77.146275,NO2,36,97,60
India,Delhi,Delhi,"Pusa, Delhi - IMD",25-06-2024 07:00:00,28.636110,77.173332,CO,51,68,64
India,Delhi,Delhi,"R K Puram, Delhi - DPCC",25-06-2024 07:00:00,28.563262,77.186937,NO2,8,52,26
India,Delhi,Delhi,"R K Puram, Delhi - DPCC",25-06-2024 07:00:00,28.563262,77.186937,CO,2,100,62
India,Delhi,Delhi,"Rohini, Delhi - DPCC",25-06-2024 07:00:00,28.732528,77.119920,SO2,7,16,9
India,Delhi,Delhi,"Rohini, Delhi - DPCC",25-06-2024 07:00:00,28.732528,77.119920,OZONE,4,36,8
India,Delhi,Delhi,"Sonia Vihar, Delhi - DPCC",25-06-2024 07:00:00,28.710508,77.249485,PM10,91,319,129
India,Delhi,Delhi,"Sri Aurobindo Marg, Delhi - DPCC",25-06-2024 07:00:00,28.531346,77.190156,CO,46,94,56
India,Delhi,Delhi,"Vivek Vihar, Delhi - DPCC",25-06-2024 07:00:00,28.672342,77.315260,OZONE,3,61,5
India,Delhi,Delhi,"Wazirpur, Delhi - DPCC",25-06-2024 07:00:00,28.699793,77.165453,PM2.5,65,200,110
India,Delhi,Delhi,"Wazirpur, Delhi - DPCC",25-06-2024 07:00:00,28.699793,77.165453,PM10,77,410,144
India,Gujarat,Ahmedabad,"Chandkheda, Ahmedabad - IITM",25-06-2024 07:00:00,23.107969,72.574648,PM2.5,22,122,64
India,Gujarat,Ahmedabad,"Gyaspur, Ahmedabad - IITM",25-06-2024 07:00:00,22.977134,72.553024,CO,16,28,20
India,Gujarat,Ahmedabad,"Raikhad, Ahmedabad - IITM",25-06-2024 07:00:00,23.020509,72.579261,OZONE,NA,NA,NA
India,Gujarat,Ahmedabad,"Rakhial, Ahmedabad - IITM",25-06-2024 07:00:00,23.016834,72.625775,NO2,13,59,29
India,Gujarat,Ahmedabad,"Rakhial, Ahmedabad - IITM",25-06-2024 07:00:00,23.016834,72.625775,CO,14,38,16
India,Gujarat,Ahmedabad,"Rakhial, Ahmedabad - IITM",25-06-2024 07:00:00,23.016834,72.625775,OZONE,18,88,29
India,Gujarat,Ahmedabad,"Sardar Vallabhbhai Patel Stadium, Ahmedabad - IITM",25-06-2024 07:00:00,23.043070,72.562968,NO2,16,50,29
India,Gujarat,Gandhinagar,"GIFT City, Gandhinagar - IITM",25-06-2024 07:00:00,23.163798,72.677768,PM2.5,22,131,69
India,Gujarat,Gandhinagar,"GIFT City, Gandhinagar - IITM",25-06-2024 07:00:00,23.163798,72.677768,PM10,33,146,92
India,Gujarat,Gandhinagar,"Sector-10, Gandhinagar - GPCB",25-06-2024 07:00:00,23.221714,72.654328,PM10,NA,NA,NA
India,Gujarat,Nandesari,"GIDC, Nandesari - Nandesari Ind. Association",25-06-2024 07:00:00,22.410802,73.097923,NO2,1,14,6
India,Gujarat,Surat,"Science Center, Surat - SMC",25-06-2024 07:00:00,21.170046,72.795405,PM10,NA,NA,NA
India,Gujarat,Surat,"Science Center, Surat - SMC",25-06-2024 07:00:00,21.170046,72.795405,CO,68,92,71
India,Gujarat,Vapi,"Phase-1 GIDC, Vapi - GPCB",25-06-2024 07:00:00,20.362421,72.918013,OZONE,NA,NA,NA
India,Gujarat,Vatva,"Phase-4 GIDC, Vatva - GPCB",25-06-2024 07:00:00,22.969611,72.643500,PM2.5,23,46,38
India,Haryana,Ambala,"Patti Mehar, Ambala - HSPCB",25-06-2024 07:00:00,30.379589,76.778328,NO2,8,20,14
India,Haryana,Bahadurgarh,"Arya Nagar, Bahadurgarh - HSPCB",25-06-2024 07:00:00,28.6701,76.9254,NO2,16,24,22
India,Haryana,Bhiwani,"H.B. Colony, Bhiwani - HSPCB",25-06-2024 07:00:00,28.806223,76.141105,NO2,6,12,8
India,Haryana,Charkhi Dadri,"Mini Secretariat, Charkhi Dadri - HSPCB",25-06-2024 07:00:00,28.593883,76.270653,PM10,4,412,105
India,Haryana,Dharuhera,"Municipal Corporation Office, Dharuhera -  HSPCB",25-06-2024 07:00:00,28.206800,76.799700,PM10,NA,NA,NA
India,Haryana,Dharuhera,"Municipal Corporation Office, Dharuhera -  HSPCB",25-06-2024 07:00:00,28.206800,76.799700,NH3,NA,NA,NA
India,Haryana,Dharuhera,"Municipal Corporation Office, Dharuhera -  HSPCB",25-06-2024 07:00:00,28.206800,76.799700,OZONE,NA,NA,NA
India,Haryana,Faridabad,"New Industrial Town, Faridabad - HSPCB",25-06-2024 07:00:00,28.39072,77.30059,NH3,10,11,10
India,Haryana,Faridabad,"Sector 11, Faridabad - HSPCB",25-06-2024 07:00:00,28.376058,77.315741,NO2,30,32,31
India,Haryana,Faridabad,"Sector 11, Faridabad - HSPCB",25-06-2024 07:00:00,28.376058,77.315741,NH3,6,6,6
India,Haryana,Faridabad,"Sector 11, Faridabad - HSPCB",25-06-2024 07:00:00,28.376058,77.315741,SO2,8,29,25
India,Haryana,Faridabad,"Sector 11, Faridabad - HSPCB",25-06-2024 07:00:00,28.376058,77.315741,OZONE,7,31,12
India,Haryana,Faridabad,"Sector 30, Faridabad - HSPCB",25-06-2024 07:00:00,28.4417,77.3217,NO2,30,33,31
India,Haryana,Faridabad,"Sector- 16A, Faridabad - HSPCB",25-06-2024 07:00:00,28.4088421,77.3099081,PM2.5,22,240,83
India,Haryana,Faridabad,"Sector- 16A, Faridabad - HSPCB",25-06-2024 07:00:00,28.4088421,77.3099081,SO2,16,64,33
India,Haryana,Gurugram,"Sector-51, Gurugram - HSPCB",25-06-2024 07:00:00,28.4227,77.0667,NO2,13,29,23
India,Haryana,Gurugram,"Vikas Sadan, Gurugram - HSPCB",25-06-2024 07:00:00,28.4501238,77.0263051,NO2,5,24,14
India,Haryana,Hisar,"Urban Estate-II, Hisar - HSPCB",25-06-2024 07:00:00,29.140560,75.744941,NH3,3,4,4
India,Haryana,Jind,"Police Lines, Jind - HSPCB",25-06-2024 07:00:00,29.307814,76.337619,PM10,84,238,105
India,Haryana,Karnal,"Sector-12, Karnal - HSPCB",25-06-2024 07:00:00,29.695300,77.002700,PM2.5,60,125,80
India,Haryana,Karnal,"Sector-12, Karnal - HSPCB",25-06-2024 07:00:00,29.695300,77.002700,SO2,12,13,13
India,Haryana,Mandikhera,"General Hospital, Mandikhera - HSPCB",25-06-2024 07:00:00,27.9002,76.9938,OZONE,22,31,26
India,Haryana,Manesar,"Sector-2 IMT, Manesar - HSPCB",25-06-2024 07:00:00,28.360699,76.936090,NO2,17,32,23
India,Haryana,Narnaul,"Shastri Nagar, Narnaul - HSPCB",25-06-2024 07:00:00,28.060249,76.113115,OZONE,15,66,42
India,Haryana,Palwal,"Shyam Nagar, Palwal - HSPCB",25-06-2024 07:00:00,28.1485564,77.3320667,NH3,8,9,9
India,Haryana,Palwal,"Shyam Nagar, Palwal - HSPCB",25-06-2024 07:00:00,28.1485564,77.3320667,SO2,2,19,10
India,Haryana,Panchkula,"Sector-6, Panchkula - HSPCB ",25-06-2024 07:00:00,30.7057778,76.8531805555555,PM2.5,68,226,119
India,Haryana,Panipat,"Sector-18, Panipat - HSPCB",25-06-2024 07:00:00,29.432304,76.972765,NO2,31,32,31
India,Haryana,Panipat,"Sector-18, Panipat - HSPCB",25-06-2024 07:00:00,29.432304,76.972765,OZONE,30,30,30
India,Haryana,Sonipat,"Murthal, Sonipat - HSPCB",25-06-2024 07:00:00,29.027200,77.062100,CO,24,26,25
India,Haryana,Yamuna Nagar,"Gobind Pura, Yamuna Nagar - HSPCB",25-06-2024 07:00:00,30.1480566,77.2893471,NO2,11,20,16
India,Haryana,Yamuna Nagar,"Gobind Pura, Yamuna Nagar - HSPCB",25-06-2024 07:00:00,30.1480566,77.2893471,NH3,1,6,3
India,Himachal Pradesh,Baddi,"HIMUDA Complex Phase-1, Baddi - HPPCB",25-06-2024 07:00:00,30.943887,76.801991,PM2.5,32,223,107
India,Jammu_and_Kashmir,Srinagar,"Rajbagh, Srinagar - JKSPCB",25-06-2024 07:00:00,34.066206,74.819820,PM10,NA,NA,NA
India,Jammu_and_Kashmir,Srinagar,"Rajbagh, Srinagar - JKSPCB",25-06-2024 07:00:00,34.066206,74.819820,NO2,NA,NA,NA
India,Jharkhand,Dhanbad,"Kalakusuma, Dhanbad - DMC",25-06-2024 07:00:00,23.811548,86.481238,PM2.5,NA,NA,NA
India,Jharkhand,Dhanbad,"Kalakusuma, Dhanbad - DMC",25-06-2024 07:00:00,23.811548,86.481238,OZONE,28,40,28
India,Jharkhand,Pathardih,"Mohalbani Ghat, Pathardih - DMC",25-06-2024 07:00:00,23.669880,86.411725,PM10,10,90,65
India,Karnataka,Bagalkot,"Vidayagiri, Bagalkot - KSPCB",25-06-2024 07:00:00,16.172806,75.659694,NH3,1,2,1
India,Karnataka,Bagalkot,"Vidayagiri, Bagalkot - KSPCB",25-06-2024 07:00:00,16.172806,75.659694,SO2,NA,NA,NA
India,Karnataka,Bagalkot,"Vidayagiri, Bagalkot - KSPCB",25-06-2024 07:00:00,16.172806,75.659694,CO,18,53,38
India,Karnataka,Bagalkot,"Vidayagiri, Bagalkot - KSPCB",25-06-2024 07:00:00,16.172806,75.659694,OZONE,NA,NA,NA
India,Karnataka,Belgaum,"Ramteerth Nagar, Belgaum - KSPCB",25-06-2024 07:00:00,15.888653,74.541751,PM2.5,7,25,12
India,Karnataka,Bengaluru,"Bapuji Nagar, Bengaluru - KSPCB",25-06-2024 07:00:00,12.951913,77.539784,SO2,6,8,7
India,Karnataka,Bengaluru,"Hebbal, Bengaluru - KSPCB",25-06-2024 07:00:00,13.029152,77.585901,PM2.5,5,24,13
India,Karnataka,Bengaluru,"Hebbal, Bengaluru - KSPCB",25-06-2024 07:00:00,13.029152,77.585901,NH3,1,1,1
India,Karnataka,Bengaluru,"Hebbal, Bengaluru - KSPCB",25-06-2024 07:00:00,13.029152,77.585901,SO2,21,26,24
India,Karnataka,Bengaluru,"Hebbal, Bengaluru - KSPCB",25-06-2024 07:00:00,13.029152,77.585901,CO,8,26,17
India,Karnataka,Bengaluru,"Hombegowda Nagar, Bengaluru - KSPCB",25-06-2024 07:00:00,12.938539,77.590100,NH3,1,1,1
India,Karnataka,Bengaluru,"Jayanagar 5th Block, Bengaluru - KSPCB",25-06-2024 07:00:00,12.920984,77.584908,NO2,7,9,8
India,Karnataka,Bengaluru,"Jayanagar 5th Block, Bengaluru - KSPCB",25-06-2024 07:00:00,12.920984,77.584908,SO2,16,27,21
India,Karnataka,Bengaluru,"Jigani, Bengaluru - KSPCB",25-06-2024 07:00:00,12.7816279,77.6299145,CO,NA,NA,NA
India,Karnataka,Bengaluru,"Kasturi Nagar, Bengaluru - KSPCB",25-06-2024 07:00:00,13.003872,77.664217,NH3,3,4,4
India,Karnataka,Bengaluru,"Peenya, Bengaluru - CPCB",25-06-2024 07:00:00,13.0270199,77.494094,NH3,3,4,3
India,Karnataka,Bengaluru,"Shivapura_Peenya, Bengaluru - KSPCB",25-06-2024 07:00:00,13.0246342,77.5080115,PM2.5,28,63,39
India,Karnataka,Chikkaballapur,"Chikkaballapur Rural, Chikkaballapur - KSPCB",25-06-2024 07:00:00,13.428828,77.731418,NH3,1,1,1
India,Karnataka,Chikkamagaluru,"Kalyana Nagara, Chikkamagaluru - KSPCB",25-06-2024 07:00:00,13.328028,75.797056,PM2.5,16,32,24
India,Karnataka,Chikkamagaluru,"Kalyana Nagara, Chikkamagaluru - KSPCB",25-06-2024 07:00:00,13.328028,75.797056,PM10,31,50,39
India,Karnataka,Chikkamagaluru,"Kalyana Nagara, Chikkamagaluru - KSPCB",25-06-2024 07:00:00,13.328028,75.797056,SO2,1,6,3
India,Karnataka,Chikkamagaluru,"Kalyana Nagara, Chikkamagaluru - KSPCB",25-06-2024 07:00:00,13.328028,75.797056,CO,11,92,21
India,Karnataka,Dharwad,"Kalabhavan, Dharwad - KSPCB",25-06-2024 07:00:00,15.459706,75.008381,NO2,1,16,10
India,Karnataka,Gadag,"Panchal Nagar, Gadag - KSPCB",25-06-2024 07:00:00,15.411456,75.638133,OZONE,6,7,6
India,Karnataka,Hassan,"B.Katihalli, Hassan - KSPCB",25-06-2024 07:00:00,13.008556,76.125258,PM10,14,58,39
India,Karnataka,Hassan,"B.Katihalli, Hassan - KSPCB",25-06-2024 07:00:00,13.008556,76.125258,SO2,9,28,19
India,Karnataka,Haveri,"Ashwini Nagar, Haveri - KSPCB",25-06-2024 07:00:00,14.791800,75.389600,OZONE,30,42,32
India,Karnataka,Hubballi,"Lingaraj Nagar, Hubballi - KSPCB",25-06-2024 07:00:00,15.3714823,75.1160168,PM10,37,46,41
India,Karnataka,Kalaburagi,"Mahatma Basaveswar Colony, Kalaburgi - KSPCB",25-06-2024 07:00:00,17.336318,76.847397,PM2.5,6,23,12
India,Karnataka,Kalaburagi,"Mahatma Basaveswar Colony, Kalaburgi - KSPCB",25-06-2024 07:00:00,17.336318,76.847397,NH3,2,3,2
India,Karnataka,Kalaburagi,"Mahatma Basaveswar Colony, Kalaburgi - KSPCB",25-06-2024 07:00:00,17.336318,76.847397,OZONE,9,21,11
India,Karnataka,Karwar,"KHB Colony, Karwar - KSPCB",25-06-2024 07:00:00,14.816666,74.141003,CO,8,8,8
India,Karnataka,Koppal,"Diwator Nagar, Koppal - KSPCB",25-06-2024 07:00:00,15.347630,76.181767,PM2.5,NA,NA,NA
India,Karnataka,Koppal,"Diwator Nagar, Koppal - KSPCB",25-06-2024 07:00:00,15.347630,76.181767,NO2,22,58,44
India,Karnataka,Koppal,"Diwator Nagar, Koppal - KSPCB",25-06-2024 07:00:00,15.347630,76.181767,SO2,29,43,31
India,Karnataka,Koppal,"Diwator Nagar, Koppal - KSPCB",25-06-2024 07:00:00,15.347630,76.181767,OZONE,10,20,13
India,Karnataka,Madikeri,"Stuart Hill, Madikeri - KSPCB",25-06-2024 07:00:00,12.415911,75.735050,SO2,4,4,4
India,Karnataka,Mangalore,"Kadri, Mangalore - KSPCB",25-06-2024 07:00:00,12.889250,74.853000,CO,28,82,36
India,Karnataka,Mysuru,"Hebbal 1st Stage, Mysuru - KSPCB",25-06-2024 07:00:00,12.21041,76.37376,NO2,9,32,21
India,Karnataka,Raichur,"Haji Colony, Raichur - KSPCB",25-06-2024 07:00:00,16.208139,77.348417,PM2.5,2,12,8
India,Karnataka,Raichur,"Haji Colony, Raichur - KSPCB",25-06-2024 07:00:00,16.208139,77.348417,PM10,23,73,42
India,Karnataka,Raichur,"Haji Colony, Raichur - KSPCB",25-06-2024 07:00:00,16.208139,77.348417,NH3,2,7,3
India,Karnataka,Ramanagara,"Vijay Nagar, Ramanagara - KSPCB",25-06-2024 07:00:00,12.733409,77.298051,PM10,6,37,19
India,Karnataka,Ramanagara,"Vijay Nagar, Ramanagara - KSPCB",25-06-2024 07:00:00,12.733409,77.298051,NO2,5,20,9
India,Karnataka,Shivamogga,"Vinoba Nagara, Shivamogga - KSPCB",25-06-2024 07:00:00,13.940000,75.555917,PM2.5,23,48,32
India,Karnataka,Shivamogga,"Vinoba Nagara, Shivamogga - KSPCB",25-06-2024 07:00:00,13.940000,75.555917,PM10,35,74,44
India,Karnataka,Shivamogga,"Vinoba Nagara, Shivamogga - KSPCB",25-06-2024 07:00:00,13.940000,75.555917,NO2,7,35,14
India,Karnataka,Udupi,"Brahmagiri, Udupi - KSPCB",25-06-2024 07:00:00,13.34194444,74.74694444,NO2,NA,NA,NA
India,Karnataka,Vijayapura,"Ibrahimpur, Vijayapura - KSPCB",25-06-2024 07:00:00,16.802639,75.722694,NH3,2,2,2
India,Karnataka,Yadgir,"Collector Office, Yadgir - KSPCB",25-06-2024 07:00:00,16.7602,77.1428,NO2,6,17,10
India,Karnataka,Yadgir,"Collector Office, Yadgir - KSPCB",25-06-2024 07:00:00,16.7602,77.1428,SO2,10,39,17
India,Kerala,Eloor,"Udyogamandal, Eloor - Kerala PCB",25-06-2024 07:00:00,10.073232,76.302765,PM2.5,16,25,20
India,Kerala,Eloor,"Udyogamandal, Eloor - Kerala PCB",25-06-2024 07:00:00,10.073232,76.302765,NH3,1,1,1
India,Kerala,Kannur,"Thavakkara, Kannur - Kerala PCB",25-06-2024 07:00:00,11.875000,75.373200,NO2,5,5,5
India,Kerala,Kannur,"Thavakkara, Kannur - Kerala PCB",25-06-2024 07:00:00,11.875000,75.373200,SO2,NA,NA,NA
India,Kerala,Kollam,"Polayathode, Kollam - Kerala PCB",25-06-2024 07:00:00,8.8787,76.6073,NO2,8,9,9
India,Kerala,Kollam,"Polayathode, Kollam - Kerala PCB",25-06-2024 07:00:00,8.8787,76.6073,SO2,1,14,3
India,Kerala,Kollam,"Polayathode, Kollam - Kerala PCB",25-06-2024 07:00:00,8.8787,76.6073,CO,14,18,16
India,Kerala,Kollam,"Polayathode, Kollam - Kerala PCB",25-06-2024 07:00:00,8.8787,76.6073,OZONE,29,34,29
India,Kerala,Thiruvananthapuram,"Kariavattom, Thiruvananthapuram - Kerala PCB",25-06-2024 07:00:00,8.563700,76.886500,SO2,2,14,7
India,Kerala,Thiruvananthapuram,"Plammoodu, Thiruvananthapuram - Kerala PCB",25-06-2024 07:00:00,8.5149093,76.9435879,CO,7,34,29
India,Kerala,Thrissur,"Corporation Ground, Thrissur - Kerala PCB",25-06-2024 07:00:00,10.532400,76.215900,SO2,NA,NA,NA
India,Kerala,Thrissur,"Corporation Ground, Thrissur - Kerala PCB",25-06-2024 07:00:00,10.532400,76.215900,CO,60,117,97
India,Madhya Pradesh,Bhopal,"Idgah Hills, Bhopal - MPPCB",25-06-2024 07:00:00,23.264759,77.381568,PM10,22,500,90
India,Madhya Pradesh,Bhopal,"Idgah Hills, Bhopal - MPPCB",25-06-2024 07:00:00,23.264759,77.381568,SO2,6,10,8
India,Madhya Pradesh,Bhopal,"Idgah Hills, Bhopal - MPPCB",25-06-2024 07:00:00,23.264759,77.381568,CO,12,48,17
India,Madhya Pradesh,Bhopal,"Paryavaran Parisar, Bhopal - MPPCB",25-06-2024 07:00:00,23.210494,77.425409,PM2.5,12,60,30
India,Madhya Pradesh,Bhopal,"Paryavaran Parisar, Bhopal - MPPCB",25-06-2024 07:00:00,23.210494,77.425409,NO2,9,43,22
India,Madhya Pradesh,Damoh,"Shrivastav Colony, Damoh - MPPCB",25-06-2024 07:00:00,23.81748678,79.446246,PM2.5,33,82,53
India,Madhya Pradesh,Damoh,"Shrivastav Colony, Damoh - MPPCB",25-06-2024 07:00:00,23.81748678,79.446246,SO2,32,35,33
India,Madhya Pradesh,Gwalior,"City Center, Gwalior - MPPCB",25-06-2024 07:00:00,26.203442,78.193251,NO2,7,13,9
India,Madhya Pradesh,Gwalior,"Maharaj Bada, Gwalior - MPPCB",25-06-2024 07:00:00,26.200388,78.147714,PM2.5,32,58,46
India,Madhya Pradesh,Gwalior,"Maharaj Bada, Gwalior - MPPCB",25-06-2024 07:00:00,26.200388,78.147714,CO,1,69,10
India,Madhya Pradesh,Gwalior,"Phool Bagh, Gwalior - Mondelez Ind. Food",25-06-2024 07:00:00,26.210536,78.171,NO2,4,5,4
India,Madhya Pradesh,Gwalior,"Phool Bagh, Gwalior - Mondelez Ind. Food",25-06-2024 07:00:00,26.210536,78.171,CO,63,88,66
India,Madhya Pradesh,Indore,"Chhoti Gwaltoli, Indore - MPPCB",25-06-2024 07:00:00,22.4310,75.5213,SO2,6,17,11
India,Madhya Pradesh,Indore,"Chhoti Gwaltoli, Indore - MPPCB",25-06-2024 07:00:00,22.4310,75.5213,OZONE,16,94,23
India,Madhya Pradesh,Indore,"Regional Park, Indore - IMC",25-06-2024 07:00:00,22.6780,75.8559,PM2.5,11,50,27
India,Madhya Pradesh,Indore,"Regional Park, Indore - IMC",25-06-2024 07:00:00,22.6780,75.8559,PM10,9,40,22
India,Madhya Pradesh,Indore,"Regional Park, Indore - IMC",25-06-2024 07:00:00,22.6780,75.8559,CO,22,27,24
India,Madhya Pradesh,Indore,"Residency Area, Indore - IMC",25-06-2024 07:00:00,22.7084,75.8815,PM2.5,11,34,22
India,Madhya Pradesh,Jabalpur,"Govindh Bhavan Colony, Jabalpur - JMC",25-06-2024 07:00:00,23.163174,79.973061,PM2.5,NA,NA,NA
India,Madhya Pradesh,Jabalpur,"Govindh Bhavan Colony, Jabalpur - JMC",25-06-2024 07:00:00,23.163174,79.973061,CO,9,14,13
India,Madhya Pradesh,Jabalpur,"Govindh Bhavan Colony, Jabalpur - JMC",25-06-2024 07:00:00,23.163174,79.973061,OZONE,50,92,63
India,Madhya Pradesh,Jabalpur,"Marhatal, Jabalpur - MPPCB",25-06-2024 07:00:00,23.168606,79.932247,PM10,35,58,49
India,Madhya Pradesh,Jabalpur,"Marhatal, Jabalpur - MPPCB",25-06-2024 07:00:00,23.168606,79.932247,NH3,4,10,6
India,Madhya Pradesh,Jabalpur,"Marhatal, Jabalpur - MPPCB",25-06-2024 07:00:00,23.168606,79.932247,CO,38,58,51
India,Madhya Pradesh,Jabalpur,"Marhatal, Jabalpur - MPPCB",25-06-2024 07:00:00,23.168606,79.932247,OZONE,12,53,31
India,Madhya Pradesh,Katni,"Gole Bazar, Katni - MPPCB",25-06-2024 07:00:00,23.50016,80.23284,PM10,44,100,61
India,Madhya Pradesh,Pithampur,"Sector-2 Industrial Area, Pithampur - MPPCB",25-06-2024 07:00:00,22.624758,75.675238,OZONE,27,133,55
India,Madhya Pradesh,Ratlam,"Shasthri Nagar, Ratlam - IPCA Lab",25-06-2024 07:00:00,23.331731,75.045981,NO2,13,14,13
India,Madhya Pradesh,Ratlam,"Shasthri Nagar, Ratlam - IPCA Lab",25-06-2024 07:00:00,23.331731,75.045981,SO2,29,35,32
India,Madhya Pradesh,Sagar,"Deen Dayal Nagar, Sagar - MPPCB",25-06-2024 07:00:00,23.8640158,78.80289321,PM10,16,132,64
India,Madhya Pradesh,Singrauli,"Suryakiran Bhawan NCL, Singrauli - MPPCB",25-06-2024 07:00:00,24.108970,82.645580,PM10,NA,NA,NA
India,Madhya Pradesh,Singrauli,"Suryakiran Bhawan NCL, Singrauli - MPPCB",25-06-2024 07:00:00,24.108970,82.645580,OZONE,22,87,43
India,Madhya Pradesh,Ujjain,"Mahakaleshwar Temple, Ujjain - MPPCB",25-06-2024 07:00:00,23.182719 ,75.768218 ,NH3,4,7,6
India,Maharashtra,Ahmednagar,"Tarakpur, Ahmednagar - MPCB",25-06-2024 07:00:00,19.10122,74.73339,PM2.5,46,87,67
India,Maharashtra,Ahmednagar,"Tarakpur, Ahmednagar - MPCB",25-06-2024 07:00:00,19.10122,74.73339,SO2,5,43,24
India,Maharashtra,Amravati,"Shivneri Colony, Amravati - MPCB",25-06-2024 07:00:00,20.9402359,77.7895248,OZONE,4,35,13
India,Maharashtra,Amravati,"Shri Shivaji Science College, Amaravati - MPCB",25-06-2024 07:00:00,20.939198,77.765701,NO2,5,51,15
India,Maharashtra,Aurangabad,"MIDC Chilkalthana, Aurangabad - MPCB",25-06-2024 07:00:00,19.875620,75.387310,PM10,19,85,49
India,Maharashtra,Aurangabad,"More Chowk Waluj, Aurangabad - MPCB",25-06-2024 07:00:00,19.8389439,75.244448,NH3,2,2,2
India,Maharashtra,Aurangabad,"More Chowk Waluj, Aurangabad - MPCB",25-06-2024 07:00:00,19.8389439,75.244448,CO,2,106,17
India,Maharashtra,Belapur,"CBD Belapur, Belapur - MPCB",25-06-2024 07:00:00,19.0243902,73.0406721,PM10,30,63,50
India,Maharashtra,Belapur,"CBD Belapur, Belapur - MPCB",25-06-2024 07:00:00,19.0243902,73.0406721,SO2,6,7,7
India,Maharashtra,Bhiwandi,"Gokul Nagar, Bhiwandi - MPCB",25-06-2024 07:00:00,19.309073,73.057223,PM10,48,79,65
India,Maharashtra,Boisar,"Khaira, Boisar - MPCB",25-06-2024 07:00:00,19.786089,72.757971,PM2.5,NA,NA,NA
India,Maharashtra,Boisar,"Khaira, Boisar - MPCB",25-06-2024 07:00:00,19.786089,72.757971,NH3,1,6,2
India,Maharashtra,Chandrapur,"Chauhan Colony, Chandrapur - MPCB",25-06-2024 07:00:00,19.962900,79.298714,NH3,NA,NA,NA
India,Maharashtra,Chandrapur,"Chauhan Colony, Chandrapur - MPCB",25-06-2024 07:00:00,19.962900,79.298714,CO,NA,NA,NA
India,Maharashtra,Chandrapur,"MIDC Khutala, Chandrapur - MPCB",25-06-2024 07:00:00,19.9775302,79.2337086,PM2.5,NA,NA,NA
India,Maharashtra,Chandrapur,"MIDC Khutala, Chandrapur - MPCB",25-06-2024 07:00:00,19.9775302,79.2337086,NH3,NA,NA,NA
India,Maharashtra,Chandrapur,"MIDC Khutala, Chandrapur - MPCB",25-06-2024 07:00:00,19.9775302,79.2337086,SO2,NA,NA,NA
India,Maharashtra,Dhule,"Deopur, Dhule - MPCB",25-06-2024 07:00:00,20.918946,74.776388,NH3,1,9,6
India,Maharashtra,Jalna,"Old MIDC, Jalna - MPCB",25-06-2024 07:00:00,19.854616,75.905894,PM10,19,26,22
India,Maharashtra,Kalyan,"Khadakpada, Kalyan - MPCB",25-06-2024 07:00:00,19.25292,73.142019,NH3,1,1,1
India,Maharashtra,Kolhapur,"Shivaji University, Kolhapur - MPCB",25-06-2024 07:00:00,16.6870449,74.2505872,PM2.5,15,46,28
India,Maharashtra,Latur,"Sawe Wadi, Latur - MPCB",25-06-2024 07:00:00,18.39963,76.57452,PM2.5,12,38,22
India,Maharashtra,Latur,"Sawe Wadi, Latur - MPCB",25-06-2024 07:00:00,18.39963,76.57452,NO2,3,83,22
India,Maharashtra,Mahad,"Kamble Tarf Birwadi, Mahad - MPCB",25-06-2024 07:00:00,18.1023399,73.4783687,PM10,19,63,45
India,Maharashtra,Malegaon,"Mahesh Nagar, Malegaon - MPCB",25-06-2024 07:00:00,20.555712,74.529236,PM10,41,133,71
India,Maharashtra,Malegaon,"Mahesh Nagar, Malegaon - MPCB",25-06-2024 07:00:00,20.555712,74.529236,NH3,2,7,4
India,Maharashtra,Mira-Bhayandar,"Bhayandar West, Mira-Bhayandar - MPCB",25-06-2024 07:00:00,19.296481,72.840923,PM10,31,66,47
India,Maharashtra,Mira-Bhayandar,"Bhayandar West, Mira-Bhayandar - MPCB",25-06-2024 07:00:00,19.296481,72.840923,NO2,14,35,23
India,Maharashtra,Mira-Bhayandar,"Bhayandar West, Mira-Bhayandar - MPCB",25-06-2024 07:00:00,19.296481,72.840923,SO2,3,5,4
India,Maharashtra,Mumbai,"Bandra Kurla Complex, Mumbai - MPCB",25-06-2024 07:00:00,19.065931,72.862131,NO2,12,31,20
India,Maharashtra,Mumbai,"Borivali East, Mumbai - IITM",25-06-2024 07:00:00,19.23241,72.86895,PM10,26,55,37
India,Maharashtra,Mumbai,"Borivali East, Mumbai - IITM",25-06-2024 07:00:00,19.23241,72.86895,NO2,6,18,14
India,Maharashtra,Mumbai,"Borivali East, Mumbai - IITM",25-06-2024 07:00:00,19.23241,72.86895,CO,52,101,85
India,Maharashtra,Mumbai,"Borivali East, Mumbai - MPCB",25-06-2024 07:00:00,19.2243333,72.8658113,NO2,NA,NA,NA
India,Maharashtra,Mumbai,"Byculla, Mumbai - BMC",25-06-2024 07:00:00,18.9767,72.8380,NH3,9,9,9
India,Maharashtra,Mumbai,"Chakala-Andheri East, Mumbai - IITM",25-06-2024 07:00:00,19.11074,72.86084,PM2.5,22,47,29
India,Maharashtra,Mumbai,"Chembur, Mumbai - MPCB",25-06-2024 07:00:00,19.0364585,72.8954371,OZONE,4,73,9
India,Maharashtra,Mumbai,"Ghatkopar, Mumbai - BMC",25-06-2024 07:00:00,19.083694,72.920967,OZONE,13,36,16
India,Maharashtra,Mumbai,"Kandivali East, Mumbai - MPCB",25-06-2024 07:00:00,19.205800,72.868200,PM10,14,416,83
India,Maharashtra,Mumbai,"Kandivali East, Mumbai - MPCB",25-06-2024 07:00:00,19.205800,72.868200,NH3,1,38,5
India,Maharashtra,Mumbai,"Kandivali West, Mumbai - BMC",25-06-2024 07:00:00,19.215859,72.831718,NH3,1,3,2
India,Maharashtra,Mumbai,"Kandivali West, Mumbai - BMC",25-06-2024 07:00:00,19.215859,72.831718,CO,10,43,22
India,Maharashtra,Mumbai,"Kherwadi_Bandra East, Mumbai - MPCB",25-06-2024 07:00:00,19.0632143,72.8456324,PM2.5,17,44,29
India,Maharashtra,Mumbai,"Kherwadi_Bandra East, Mumbai - MPCB",25-06-2024 07:00:00,19.0632143,72.8456324,PM10,35,70,51
India,Maharashtra,Mumbai,"Kherwadi_Bandra East, Mumbai - MPCB",25-06-2024 07:00:00,19.0632143,72.8456324,CO,9,43,33
India,Maharashtra,Mumbai,"Khindipada-Bhandup West, Mumbai - IITM",25-06-2024 07:00:00,19.1653323,72.922099,NH3,3,5,4
India,Maharashtra,Mumbai,"Khindipada-Bhandup West, Mumbai - IITM",25-06-2024 07:00:00,19.1653323,72.922099,SO2,1,5,2
India,Maharashtra,Mumbai,"Kurla, Mumbai - MPCB",25-06-2024 07:00:00,19.0863,72.8888,PM10,81,100,89
India,Maharashtra,Mumbai,"Kurla, Mumbai - MPCB",25-06-2024 07:00:00,19.0863,72.8888,NO2,10,12,11
India,Maharashtra,Mumbai,"Malad West, Mumbai - IITM",25-06-2024 07:00:00,19.19709,72.82204,NH3,1,4,2
India,Maharashtra,Mumbai,"Malad West, Mumbai - IITM",25-06-2024 07:00:00,19.19709,72.82204,CO,2,2,2
India,Maharashtra,Mumbai,"Mazgaon, Mumbai - IITM",25-06-2024 07:00:00,18.96702,72.84214,PM10,4,39,22
India,Maharashtra,Mumbai,"Mazgaon, Mumbai - IITM",25-06-2024 07:00:00,18.96702,72.84214,NO2,35,59,43
India,Maharashtra,Mumbai,"Mazgaon, Mumbai - IITM",25-06-2024 07:00:00,18.96702,72.84214,CO,8,88,47
India,Maharashtra,Mumbai,"Mazgaon, Mumbai - IITM",25-06-2024 07:00:00,18.96702,72.84214,OZONE,5,39,12
India,Maharashtra,Mumbai,"Mulund West, Mumbai - MPCB",25-06-2024 07:00:00,19.1750,72.9419,NO2,NA,NA,NA
India,Maharashtra,Mumbai,"Mulund West, Mumbai - MPCB",25-06-2024 07:00:00,19.1750,72.9419,OZONE,NA,NA,NA
India,Maharashtra,Mumbai,"Powai, Mumbai - MPCB",25-06-2024 07:00:00,19.137500,72.915056,SO2,14,15,14
India,Maharashtra,Mumbai,"Sewri, Mumbai - BMC",25-06-2024 07:00:00,19.000084,72.856730,CO,12,102,58
India,Maharashtra,Mumbai,"Sewri, Mumbai - BMC",25-06-2024 07:00:00,19.000084,72.856730,OZONE,6,47,15
India,Maharashtra,Mumbai,"Sion, Mumbai - MPCB",25-06-2024 07:00:00,19.047000,72.874600,CO,NA,NA,NA
India,Maharashtra,Mumbai,"Vasai West, Mumbai - MPCB",25-06-2024 07:00:00,19.383200,72.820400,PM10,35,124,62
India,Maharashtra,Mumbai,"Vasai West, Mumbai - MPCB",25-06-2024 07:00:00,19.383200,72.820400,NH3,4,4,4
India,Maharashtra,Mumbai,"Vile Parle West, Mumbai - MPCB",25-06-2024 07:00:00,19.10861,72.83622,CO,6,32,6
India,Maharashtra,Nagpur,"Ambazari, Nagpur - MPCB",25-06-2024 07:00:00,21.121801,79.04952,NO2,9,35,21
India,Maharashtra,Nagpur,"Opp GPO Civil Lines, Nagpur - MPCB",25-06-2024 07:00:00,21.152875,79.0517531,PM2.5,23,74,43
India,Maharashtra,Nagpur,"Ram Nagar, Nagpur - MPCB",25-06-2024 07:00:00,21.143383,79.048912,PM2.5,27,60,41
India,Maharashtra,Nagpur,"Ram Nagar, Nagpur - MPCB",25-06-2024 07:00:00,21.143383,79.048912,CO,8,22,15
India,Maharashtra,Nanded,"Sneh Nagar, Nanded - MPCB",25-06-2024 07:00:00,19.173852,77.296291,PM10,21,63,37
India,Maharashtra,Nanded,"Sneh Nagar, Nanded - MPCB",25-06-2024 07:00:00,19.173852,77.296291,SO2,14,19,16
India,Maharashtra,Nashik,"Gangapur Road, Nashik - MPCB",25-06-2024 07:00:00,20.0073285,73.7762427,OZONE,NA,NA,NA
India,Maharashtra,Nashik,"Hirawadi, Nashik - MPCB",25-06-2024 07:00:00,20.021503,73.813844,PM2.5,23,46,34
India,Maharashtra,Nashik,"Pandav Nagari, Nashik - MPCB",25-06-2024 07:00:00,19.9591346,73.7788008,OZONE,22,69,35
India,Maharashtra,Navi Mumbai,"Kopripada-Vashi, Navi Mumbai - MPCB",25-06-2024 07:00:00,19.090337,73.014232,PM10,28,58,47
India,Maharashtra,Navi Mumbai,"Kopripada-Vashi, Navi Mumbai - MPCB",25-06-2024 07:00:00,19.090337,73.014232,NO2,13,32,22
India,Maharashtra,Navi Mumbai,"Nerul, Navi Mumbai - MPCB",25-06-2024 07:00:00,19.008751,73.016620,PM10,33,117,56
India,Maharashtra,Navi Mumbai,"Sanpada, Navi Mumbai - MPCB",25-06-2024 07:00:00,19.0575752,73.0151367,PM2.5,6,47,18
India,Maharashtra,Navi Mumbai,"Sanpada, Navi Mumbai - MPCB",25-06-2024 07:00:00,19.0575752,73.0151367,CO,7,13,8
India,Maharashtra,Navi Mumbai,"Sector-19A Nerul, Navi Mumbai - IITM",25-06-2024 07:00:00,19.044,73.0325,PM10,NA,NA,NA
India,Maharashtra,Navi Mumbai,"Sector-19A Nerul, Navi Mumbai - IITM",25-06-2024 07:00:00,19.044,73.0325,NO2,1,2,1
India,Maharashtra,Navi Mumbai,"Sector-2E Kalamboli, Navi Mumbai - MPCB",25-06-2024 07:00:00,19.02579,73.10297,PM2.5,11,201,43
India,Maharashtra,Navi Mumbai,"Sector-2E Kalamboli, Navi Mumbai - MPCB",25-06-2024 07:00:00,19.02579,73.10297,NO2,9,32,19
India,Maharashtra,Navi Mumbai,"Tondare-Taloja, Navi Mumbai - MPCB",25-06-2024 07:00:00,19.0630,73.1209,PM2.5,NA,NA,NA
India,Maharashtra,Navi Mumbai,"Tondare-Taloja, Navi Mumbai - MPCB",25-06-2024 07:00:00,19.0630,73.1209,NO2,NA,NA,NA
India,Maharashtra,Pimpri-Chinchwad,"Gavalinagar, Pimpri Chinchwad - MPCB",25-06-2024 07:00:00,18.63673,73.82487,PM10,22,52,35
India,Maharashtra,Pimpri-Chinchwad,"Gavalinagar, Pimpri Chinchwad - MPCB",25-06-2024 07:00:00,18.63673,73.82487,NH3,4,4,4
India,Maharashtra,Pune,"Alandi, Pune - IITM",25-06-2024 07:00:00,18.675076,73.892743,OZONE,8,88,22
India,Maharashtra,Pune,"Bhosari, Pune - IITM",25-06-2024 07:00:00,18.640051,73.848956,PM10,11,108,30
India,Maharashtra,Pune,"Bhosari, Pune - IITM",25-06-2024 07:00:00,18.640051,73.848956,NO2,8,12,9
India,Maharashtra,Pune,"Hadapsar, Pune - IITM",25-06-2024 07:00:00,18.501793,73.927532,PM2.5,18,58,40
India,Maharashtra,Pune,"Hadapsar, Pune - IITM",25-06-2024 07:00:00,18.501793,73.927532,NO2,19,35,27
India,Maharashtra,Pune,"Karve Road, Pune - MPCB",25-06-2024 07:00:00,18.5011743,73.8165527,PM2.5,NA,NA,NA
India,Maharashtra,Pune,"Karve Road, Pune - MPCB",25-06-2024 07:00:00,18.5011743,73.8165527,PM10,NA,NA,NA
India,Maharashtra,Pune,"Revenue Colony-Shivajinagar, Pune - IITM",25-06-2024 07:00:00,18.530085,73.849598,CO,13,34,17
India,Maharashtra,Pune,"Savitribai Phule Pune University, Pune - MPCB",25-06-2024 07:00:00,18.547056,73.826908,PM10,15,50,31
India,Maharashtra,Sangli,"Vijay Nagar, Sangli - MPCB",25-06-2024 07:00:00, 16.5038,74.3623,PM10,11,29,20
India,Maharashtra,Sangli,"Vijay Nagar, Sangli - MPCB",25-06-2024 07:00:00, 16.5038,74.3623,SO2,1,14,4
India,Maharashtra,Solapur,"Dnyaneshwar Nagar, Solapur - MPCB",25-06-2024 07:00:00,17.6336264,75.9132495,SO2,1,3,2
India,Maharashtra,Solapur,"Ratandeep Housing Society, Solapur - MPCB",25-06-2024 07:00:00,17.65439,75.90649,SO2,2,3,3
India,Maharashtra,Solapur,"Solapur, Solapur - MPCB",25-06-2024 07:00:00,17.6599188,75.9063906,NO2,55,55,55
India,Maharashtra,Thane,"Kasarvadavali, Thane - MPCB",25-06-2024 07:00:00,19.26777,72.97182,PM10,40,65,51
India,Maharashtra,Thane,"Kasarvadavali, Thane - MPCB",25-06-2024 07:00:00,19.26777,72.97182,NH3,3,5,4
India,Maharashtra,Thane,"Upvan Fort, Thane - MPCB",25-06-2024 07:00:00,19.222279,72.957979,PM10,22,42,32
India,Maharashtra,Thane,"Upvan Fort, Thane - MPCB",25-06-2024 07:00:00,19.222279,72.957979,NO2,9,40,20
India,Maharashtra,Thane,"Upvan Fort, Thane - MPCB",25-06-2024 07:00:00,19.222279,72.957979,NH3,1,3,2
India,Maharashtra,Ulhasnagar,"Sidhi Vinayak Nagar, Ulhasnagar - MPCB",25-06-2024 07:00:00,19.235581,73.159121,PM10,54,88,71
India,Maharashtra,Ulhasnagar,"Sidhi Vinayak Nagar, Ulhasnagar - MPCB",25-06-2024 07:00:00,19.235581,73.159121,NH3,2,3,2
India,Maharashtra,Ulhasnagar,"Sidhi Vinayak Nagar, Ulhasnagar - MPCB",25-06-2024 07:00:00,19.235581,73.159121,SO2,4,9,8
India,Maharashtra,Virar,"Bolinj, Virar - MPCB",25-06-2024 07:00:00,19.4458210,72.7988231,PM10,1,110,72
India,Maharashtra,Virar,"Bolinj, Virar - MPCB",25-06-2024 07:00:00,19.4458210,72.7988231,NO2,17,37,26
India,Manipur,Imphal,"Manipur University, Imphal - Manipur PCB",25-06-2024 07:00:00,24.7524239,93.9286218,CO,6,14,10
India,Meghalaya,Shillong,"Lumpyngngad, Shillong - Meghalaya PCB",25-06-2024 07:00:00,25.5586,91.8985,PM10,NA,NA,NA
India,Meghalaya,Shillong,"Lumpyngngad, Shillong - Meghalaya PCB",25-06-2024 07:00:00,25.5586,91.8985,CO,NA,NA,NA
India,Nagaland,Kohima,"PWD Juction, Kohima - NPCB",25-06-2024 07:00:00,25.6635413,94.0989878,OZONE,3,8,4
India,Odisha,Angul,"Hakimapada, Angul - OSPCB",25-06-2024 07:00:00,20.832874,85.104082,PM2.5,10,140,47
India,Odisha,Angul,"Hakimapada, Angul - OSPCB",25-06-2024 07:00:00,20.832874,85.104082,NO2,5,20,13
India,Odisha,Angul,"Hakimapada, Angul - OSPCB",25-06-2024 07:00:00,20.832874,85.104082,NH3,1,1,1
India,Odisha,Balasore,"Kalidaspur, Balasore - OSPCB",25-06-2024 07:00:00,21.51161,86.89088,PM2.5,10,42,24
India,Odisha,Balasore,"Kalidaspur, Balasore - OSPCB",25-06-2024 07:00:00,21.51161,86.89088,NO2,8,28,16
India,Odisha,Barbil,"Forest Office, Barbil - OSPCB",25-06-2024 07:00:00,22.1166054,85.3945546,CO,20,78,48
India,Odisha,Barbil,"Forest Office, Barbil - OSPCB",25-06-2024 07:00:00,22.1166054,85.3945546,OZONE,18,61,25
India,Odisha,Baripada,"Meher Colony, Baripada - OSPCB",25-06-2024 07:00:00,21.941841,86.728318,NO2,1,19,10
India,Odisha,Bhubaneswar,"Lingraj Mandir, Bhubaneswar - OSPCB",25-06-2024 07:00:00,20.240790,85.836784,CO,74,118,99
India,Odisha,Bhubaneswar,"Lingraj Mandir, Bhubaneswar - OSPCB",25-06-2024 07:00:00,20.240790,85.836784,OZONE,24,56,29
India,Odisha,Bhubaneswar,"Patia, Bhubaneswar - OSPCB",25-06-2024 07:00:00,20.34652,85.81630,PM2.5,7,37,20
India,Odisha,Brajrajnagar,"GM Office, Brajrajnagar - OSPCB",25-06-2024 07:00:00,21.8004996,83.8396977,NH3,15,17,16
India,Odisha,Brajrajnagar,"GM Office, Brajrajnagar - OSPCB",25-06-2024 07:00:00,21.8004996,83.8396977,CO,27,54,46
India,Odisha,Byasanagar,"Ferro Chrome Colony, Byasanagar - OSPCB",25-06-2024 07:00:00,20.94185,86.11510,PM2.5,20,62,39
India,Odisha,Byasanagar,"Ferro Chrome Colony, Byasanagar - OSPCB",25-06-2024 07:00:00,20.94185,86.11510,SO2,3,23,9
India,Odisha,Cuttack,"CDA Area, Cuttack - OSPCB",25-06-2024 07:00:00,20.48891     ,85.84768     ,PM10,24,67,48
India,Odisha,Cuttack,"CDA Area, Cuttack - OSPCB",25-06-2024 07:00:00,20.48891     ,85.84768     ,NO2,6,23,10
India,Odisha,Keonjhar,"Jagamohanpur, Keonjhar - OSPCB",25-06-2024 07:00:00,21.643900,85.599355,PM2.5,NA,NA,NA
India,Odisha,Keonjhar,"Jagamohanpur, Keonjhar - OSPCB",25-06-2024 07:00:00,21.643900,85.599355,NO2,NA,NA,NA
India,Odisha,Nayagarh,"Dabuna, Nayagarh - OSPCB",25-06-2024 07:00:00,21.847279,85.416905,CO,9,14,11
India,Odisha,Rourkela,"Fertilizer Township, Rourkela - OSPCB",25-06-2024 07:00:00,22.18972222,84.86277778,PM10,NA,NA,NA
India,Odisha,Rourkela,"Raghunathpali, Rourkela - OSPCB",25-06-2024 07:00:00,22.220833,84.809444,PM2.5,18,79,46
India,Odisha,Suakati,"OMC Colony, Suakati - OSPCB",25-06-2024 07:00:00,21.606865,85.510538,NH3,5,5,5
India,Odisha,Tensa,"Barsua Iron Ore Mines, Tensa - OSPCB",25-06-2024 07:00:00,21.869985,85.167016,NO2,23,53,33
India,Odisha,Tensa,"Barsua Iron Ore Mines, Tensa - OSPCB",25-06-2024 07:00:00,21.869985,85.167016,NH3,3,3,3
India,Puducherry,Puducherry,"Jawahar Nagar, Puducherry - PPCC",25-06-2024 07:00:00,11.9309,79.8027,CO,14,54,21
India,Punjab,Amritsar,"Golden Temple, Amritsar - PPCB",25-06-2024 07:00:00,31.620000,74.876512,PM10,NA,NA,NA
India,Punjab,Bathinda,"Hardev Nagar, Bathinda - PPCB",25-06-2024 07:00:00,30.233011,74.907758,SO2,13,84,31
India,Punjab,Khanna,"Kalal Majra, Khanna - PPCB",25-06-2024 07:00:00,30.736056 ,76.209694,NO2,29,31,30
India,Punjab,Khanna,"Kalal Majra, Khanna - PPCB",25-06-2024 07:00:00,30.736056 ,76.209694,CO,36,48,39
India,Punjab,Ludhiana,"Punjab Agricultural University, Ludhiana - PPCB",25-06-2024 07:00:00,30.9028,75.8086,PM2.5,48,302,157
India,Punjab,Ludhiana,"Punjab Agricultural University, Ludhiana - PPCB",25-06-2024 07:00:00,30.9028,75.8086,PM10,52,180,116
India,Punjab,Ludhiana,"Punjab Agricultural University, Ludhiana - PPCB",25-06-2024 07:00:00,30.9028,75.8086,OZONE,16,54,22
India,Punjab,Patiala,"Model Town, Patiala - PPCB",25-06-2024 07:00:00,30.349388,76.366642,PM2.5,54,90,73
India,Punjab,Patiala,"Model Town, Patiala - PPCB",25-06-2024 07:00:00,30.349388,76.366642,PM10,74,141,100
India,Punjab,Rupnagar,"Ratanpura, Rupnagar - Ambuja Cements",25-06-2024 07:00:00,31.0325454,76.5623046,SO2,6,7,7
India,Rajasthan,Alwar,"Moti Doongri, Alwar - RSPCB",25-06-2024 07:00:00,27.554793,76.611536,SO2,19,40,32
India,Rajasthan,Baran,"Bamboliya, Baran - RSPCB",25-06-2024 07:00:00,25.106006,76.469948,NH3,3,4,3
India,Rajasthan,Baran,"Bamboliya, Baran - RSPCB",25-06-2024 07:00:00,25.106006,76.469948,SO2,4,12,6
India,Rajasthan,Barmer,"Railway Colony, Barmer - RSPCB",25-06-2024 07:00:00,25.747299,71.393989,OZONE,15,78,35
India,Rajasthan,Bharatpur,"Krishna Nagar, Bharatpur - RSPCB",25-06-2024 07:00:00,27.215415,77.50873,PM10,28,152,68
India,Rajasthan,Bharatpur,"Krishna Nagar, Bharatpur - RSPCB",25-06-2024 07:00:00,27.215415,77.50873,SO2,1,2,1
India,Rajasthan,Bharatpur,"Krishna Nagar, Bharatpur - RSPCB",25-06-2024 07:00:00,27.215415,77.50873,CO,4,180,73
India,Rajasthan,Bhilwara,"Pratap Nagar, Bhilwara - RSPCB",25-06-2024 07:00:00,25.339605,74.618883,OZONE,21,95,44
India,Rajasthan,Bhiwadi,"RIICO Ind. Area III, Bhiwadi - RSPCB",25-06-2024 07:00:00,28.194909,76.862296,NH3,2,17,7
India,Rajasthan,Bhiwadi,"RIICO Ind. Area III, Bhiwadi - RSPCB",25-06-2024 07:00:00,28.194909,76.862296,SO2,2,30,12
India,Rajasthan,Bhiwadi,"Vasundhara Nagar_UIT, Bhiwadi - RSPCB",25-06-2024 07:00:00,28.207266,76.829265,PM10,55,458,131
India,Rajasthan,Bikaner,"MM Ground, Bikaner - RSPCB",25-06-2024 07:00:00,28.018792,73.292658,SO2,1,6,4
India,Rajasthan,Bundi,"New Colony, Bundi - RSPCB",25-06-2024 07:00:00,25.435774,75.644272,SO2,4,12,9
India,Rajasthan,Bundi,"New Colony, Bundi - RSPCB",25-06-2024 07:00:00,25.435774,75.644272,CO,3,28,14
India,Rajasthan,Churu,"Subash Chowk, Churu - RSPCB",25-06-2024 07:00:00,28.296139,74.961696,NO2,15,60,29
India,Rajasthan,Dausa,"Khatikan Mohalla, Dausa - RSPCB",25-06-2024 07:00:00,26.895552,76.334753,NO2,4,76,17
India,Rajasthan,Dausa,"Khatikan Mohalla, Dausa - RSPCB",25-06-2024 07:00:00,26.895552,76.334753,OZONE,16,90,42
India,Rajasthan,Dholpur,"Raja Ganj, Dholpur - RSPCB",25-06-2024 07:00:00,26.699557,77.898881,PM2.5,NA,NA,NA
India,Rajasthan,Jaipur,"Mansarovar Sector-12, Jaipur - RSPCB",25-06-2024 07:00:00,26.843698,75.766894,SO2,4,9,5
India,Rajasthan,Jaipur,"Mansarovar Sector-12, Jaipur - RSPCB",25-06-2024 07:00:00,26.843698,75.766894,OZONE,54,175,89
India,Rajasthan,Jaipur,"Police Commissionerate, Jaipur - RSPCB",25-06-2024 07:00:00,26.9164092,75.7994901,PM2.5,45,290,112
India,Rajasthan,Jaipur,"Police Commissionerate, Jaipur - RSPCB",25-06-2024 07:00:00,26.9164092,75.7994901,NO2,11,32,18
India,Rajasthan,Jaipur,"Police Commissionerate, Jaipur - RSPCB",25-06-2024 07:00:00,26.9164092,75.7994901,SO2,18,25,21
India,Rajasthan,Jaipur,"RIICO Sitapura, Jaipur - RSPCB",25-06-2024 07:00:00,26.786682,75.827928,PM2.5,27,148,59
India,Rajasthan,Jaipur,"RIICO Sitapura, Jaipur - RSPCB",25-06-2024 07:00:00,26.786682,75.827928,PM10,22,134,65
India,Rajasthan,Jaipur,"RIICO Sitapura, Jaipur - RSPCB",25-06-2024 07:00:00,26.786682,75.827928,NO2,3,67,15
India,Rajasthan,Jaipur,"RIICO Sitapura, Jaipur - RSPCB",25-06-2024 07:00:00,26.786682,75.827928,SO2,7,9,8
India,Rajasthan,Jaipur,"Sector-2 Murlipura, Jaipur - RSPCB",25-06-2024 07:00:00,26.960669,75.771817,NO2,16,59,35
India,Rajasthan,Jaipur,"Sector-2 Murlipura, Jaipur - RSPCB",25-06-2024 07:00:00,26.960669,75.771817,CO,14,94,26
India,Rajasthan,Jaipur,"Sector-2 Murlipura, Jaipur - RSPCB",25-06-2024 07:00:00,26.960669,75.771817,OZONE,26,96,45
India,Rajasthan,Jaisalmer,"Sadar Bazar, Jaisalmer - RSPCB",25-06-2024 07:00:00,26.912329,70.909168,NH3,5,12,8
India,Rajasthan,Jalore,"Mudtra Sili, Jalore - RSPCB",25-06-2024 07:00:00,25.344694,72.626208,OZONE,23,101,70
India,Rajasthan,Jhalawar,"Rajlaxmi Nagar, Jhalawar - RSPCB",25-06-2024 07:00:00,24.588397,76.172782,PM2.5,15,69,42
India,Rajasthan,Jhalawar,"Rajlaxmi Nagar, Jhalawar - RSPCB",25-06-2024 07:00:00,24.588397,76.172782,PM10,27,91,51
India,Rajasthan,Jodhpur,"Collectorate, Jodhpur - RSPCB",25-06-2024 07:00:00,26.268249,73.0193853,PM10,37,212,111
India,Rajasthan,Jodhpur,"Collectorate, Jodhpur - RSPCB",25-06-2024 07:00:00,26.268249,73.0193853,NO2,2,20,9
India,Rajasthan,Jodhpur,"Jhalamand, Jodhpur - RSPCB",25-06-2024 07:00:00,26.215415,73.070156,PM10,13,166,81
India,Rajasthan,Jodhpur,"Jhalamand, Jodhpur - RSPCB",25-06-2024 07:00:00,26.215415,73.070156,OZONE,58,165,94
India,Rajasthan,Jodhpur,"Mandor, Jodhpur - RSPCB",25-06-2024 07:00:00,26.358805,73.047444,OZONE,22,98,73
India,Rajasthan,Jodhpur,"Samrat Ashok Udhyan, Jodhpur - RSPCB",25-06-2024 07:00:00,26.253384,72.976571,SO2,NA,NA,NA
India,Rajasthan,Karauli,"Satyawati Vihar, Karauli - RSPCB",25-06-2024 07:00:00,26.506177,77.025989,SO2,3,43,25
India,Rajasthan,Kota,"Dhanmandi, Kota - RSPCB",25-06-2024 07:00:00,25.164090,75.858137,PM2.5,33,94,61
India,Rajasthan,Kota,"Dhanmandi, Kota - RSPCB",25-06-2024 07:00:00,25.164090,75.858137,NO2,11,35,23
India,Rajasthan,Kota,"Dhanmandi, Kota - RSPCB",25-06-2024 07:00:00,25.164090,75.858137,NH3,4,9,6
India,Rajasthan,Kota,"Dhanmandi, Kota - RSPCB",25-06-2024 07:00:00,25.164090,75.858137,SO2,2,11,5
India,Rajasthan,Kota,"Nayapura, Kota - RSPCB",25-06-2024 07:00:00,25.196024,75.855668,PM2.5,7,77,39
India,Rajasthan,Kota,"Nayapura, Kota - RSPCB",25-06-2024 07:00:00,25.196024,75.855668,NO2,8,61,23
India,Rajasthan,Kota,"Shrinath Puram, Kota - RSPCB",25-06-2024 07:00:00,25.14389,75.821256,NH3,4,6,5
India,Rajasthan,Nagaur,"Karni Colony, Nagaur - RSPCB",25-06-2024 07:00:00,27.213494,73.734444,PM2.5,37,87,56
India,Rajasthan,Nagaur,"Karni Colony, Nagaur - RSPCB",25-06-2024 07:00:00,27.213494,73.734444,CO,14,42,16
India,Rajasthan,Nagaur,"Karni Colony, Nagaur - RSPCB",25-06-2024 07:00:00,27.213494,73.734444,OZONE,32,116,57
India,Rajasthan,Pratapgarh,"Pragati Nagar, Pratapgarh - RSPCB",25-06-2024 07:00:00,24.041198,74.780702,PM10,12,45,29
India,Rajasthan,Pratapgarh,"Pragati Nagar, Pratapgarh - RSPCB",25-06-2024 07:00:00,24.041198,74.780702,NO2,3,21,9
India,Rajasthan,Pratapgarh,"Pragati Nagar, Pratapgarh - RSPCB",25-06-2024 07:00:00,24.041198,74.780702,SO2,1,4,2
India,Rajasthan,Rajsamand,"Dhoinda, Rajsamand - RSPCB",25-06-2024 07:00:00,25.036360,73.883502,SO2,2,7,5
India,Rajasthan,Sawai Madhopur,"Sahu Nagar, Sawai Madhopur - RSPCB",25-06-2024 07:00:00,26.031443,76.359327,PM2.5,8,35,22
India,Rajasthan,Sawai Madhopur,"Sahu Nagar, Sawai Madhopur - RSPCB",25-06-2024 07:00:00,26.031443,76.359327,PM10,6,72,41
India,Rajasthan,Sawai Madhopur,"Sahu Nagar, Sawai Madhopur - RSPCB",25-06-2024 07:00:00,26.031443,76.359327,OZONE,47,141,66
India,Rajasthan,Sikar,"Radhakishan Pura, Sikar - RSPCB",25-06-2024 07:00:00,27.608912,75.153302,PM10,40,185,99
India,Rajasthan,Sikar,"Radhakishan Pura, Sikar - RSPCB",25-06-2024 07:00:00,27.608912,75.153302,NH3,6,8,7
India,Rajasthan,Sri Ganganagar,"Old City, Sri Ganganagar - RSPCB",25-06-2024 07:00:00,29.931624,73.864511,NH3,21,39,26
India,Rajasthan,Sri Ganganagar,"Old City, Sri Ganganagar - RSPCB",25-06-2024 07:00:00,29.931624,73.864511,SO2,NA,NA,NA
India,Rajasthan,Sri Ganganagar,"Old City, Sri Ganganagar - RSPCB",25-06-2024 07:00:00,29.931624,73.864511,OZONE,21,64,37
India,Rajasthan,Tonk,"Shastri Nagar, Tonk - RSPCB",25-06-2024 07:00:00,26.159933,75.780517,PM10,9,97,64
India,Rajasthan,Tonk,"Shastri Nagar, Tonk - RSPCB",25-06-2024 07:00:00,26.159933,75.780517,OZONE,7,105,37
India,Rajasthan,Udaipur,"Ashok Nagar, Udaipur - RSPCB",25-06-2024 07:00:00,24.5886166,73.6321397,SO2,2,13,7
India,Sikkim,Gangtok,"Zero Point GICI, Gangtok - SSPCB",25-06-2024 07:00:00,27.338530,88.614099,NO2,NA,NA,NA
India,Sikkim,Gangtok,"Zero Point GICI, Gangtok - SSPCB",25-06-2024 07:00:00,27.338530,88.614099,NH3,1,1,1
India,Sikkim,Gangtok,"Zero Point GICI, Gangtok - SSPCB",25-06-2024 07:00:00,27.338530,88.614099,CO,4,10,4
India,TamilNadu,Chennai,"Alandur Bus Depot, Chennai - CPCB",25-06-2024 07:00:00,12.9099161,80.1076538,NH3,2,6,4
India,TamilNadu,Chennai,"Alandur Bus Depot, Chennai - CPCB",25-06-2024 07:00:00,12.9099161,80.1076538,SO2,1,6,4
India,TamilNadu,Chennai,"Arumbakkam, Chennai - TNPCB",25-06-2024 07:00:00,13.0664,80.2112 ,PM10,33,62,47
India,TamilNadu,Chennai,"Perungudi, Chennai - TNPCB",25-06-2024 07:00:00,12.9533,80.2357,SO2,3,9,5
India,TamilNadu,Chennai,"Perungudi, Chennai - TNPCB",25-06-2024 07:00:00,12.9533,80.2357,CO,28,36,32
India,TamilNadu,Chennai,"Perungudi, Chennai - TNPCB",25-06-2024 07:00:00,12.9533,80.2357,OZONE,5,16,13
India,TamilNadu,Chennai,"Velachery Res. Area, Chennai - CPCB",25-06-2024 07:00:00,13.0052189,80.2398125,PM2.5,21,59,34
India,TamilNadu,Chennai,"Velachery Res. Area, Chennai - CPCB",25-06-2024 07:00:00,13.0052189,80.2398125,PM10,21,59,34
India,TamilNadu,Chennai,"Velachery Res. Area, Chennai - CPCB",25-06-2024 07:00:00,13.0052189,80.2398125,NO2,17,25,20
India,TamilNadu,Gummidipoondi,"Anthoni Pillai Nagar, Gummidipoondi - TNPCB",25-06-2024 07:00:00,13.4127,80.1081,PM2.5,2,216,68
India,TamilNadu,Gummidipoondi,"Anthoni Pillai Nagar, Gummidipoondi - TNPCB",25-06-2024 07:00:00,13.4127,80.1081,PM10,32,146,80
India,TamilNadu,Thoothukudi,"Meelavittan, Thoothukudi - TNPCB",25-06-2024 07:00:00,8.816428 ,78.099039,CO,6,26,16
India,TamilNadu,Tirupur,"Kumaran College, Tirupur - TNPCB",25-06-2024 07:00:00,11.0973603,77.3228673,PM10,7,164,40
India,TamilNadu,Vellore,"Vasanthapuram, Vellore - TNPCB",25-06-2024 07:00:00,12.909494,79.131861,OZONE,NA,NA,NA
India,Telangana,Hyderabad,"Bollaram Industrial Area, Hyderabad - TSPCB",25-06-2024 07:00:00,17.540891,78.358528,PM10,NA,NA,NA
India,Telangana,Hyderabad,"Bollaram Industrial Area, Hyderabad - TSPCB",25-06-2024 07:00:00,17.540891,78.358528,NO2,NA,NA,NA
India,Telangana,Hyderabad,"Bollaram Industrial Area, Hyderabad - TSPCB",25-06-2024 07:00:00,17.540891,78.358528,OZONE,16,36,24
India,Telangana,Hyderabad,"Central University, Hyderabad - TSPCB",25-06-2024 07:00:00,17.460103,78.334361,NO2,15,35,24
India,Telangana,Hyderabad,"ICRISAT Patancheru, Hyderabad - TSPCB",25-06-2024 07:00:00,17.518400,78.278777,PM10,3,17,9
India,Telangana,Hyderabad,"ICRISAT Patancheru, Hyderabad - TSPCB",25-06-2024 07:00:00,17.518400,78.278777,NO2,1,11,7
India,Telangana,Hyderabad,"ICRISAT Patancheru, Hyderabad - TSPCB",25-06-2024 07:00:00,17.518400,78.278777,CO,2,50,22
India,Telangana,Hyderabad,"IDA Pashamylaram, Hyderabad - TSPCB",25-06-2024 07:00:00,17.5316895,78.218939,SO2,1,13,6
India,Telangana,Hyderabad,"Kompally Municipal Office, Hyderabad - TSPCB",25-06-2024 07:00:00,17.544899,78.486949,NH3,3,8,5
India,Telangana,Hyderabad,"Nacharam_TSIIC IALA, Hyderabad - TSPCB",25-06-2024 07:00:00,17.429398,78.569354,CO,27,28,28
India,Telangana,Hyderabad,"Nacharam_TSIIC IALA, Hyderabad - TSPCB",25-06-2024 07:00:00,17.429398,78.569354,OZONE,34,35,35
India,Telangana,Hyderabad,"New Malakpet, Hyderabad - TSPCB",25-06-2024 07:00:00,17.37206,78.50864,NO2,10,14,10
India,Telangana,Hyderabad,"Somajiguda, Hyderabad - TSPCB",25-06-2024 07:00:00,17.417094,78.457437,PM10,61,80,73
India,Telangana,Hyderabad,"Somajiguda, Hyderabad - TSPCB",25-06-2024 07:00:00,17.417094,78.457437,SO2,NA,NA,NA
India,Telangana,Hyderabad,"Somajiguda, Hyderabad - TSPCB",25-06-2024 07:00:00,17.417094,78.457437,CO,16,49,27
India,Tripura,Agartala,"Bardowali, Agartala - Tripura SPCB",25-06-2024 07:00:00,23.8175497,91.2726974,CO,8,29,10
India,Tripura,Agartala,"Bardowali, Agartala - Tripura SPCB",25-06-2024 07:00:00,23.8175497,91.2726974,OZONE,4,14,5
India,Uttar_Pradesh,Agra,"Manoharpur, Agra - UPPCB",25-06-2024 07:00:00,27.23711,78.01936,NH3,2,3,2
India,Uttar_Pradesh,Agra,"Manoharpur, Agra - UPPCB",25-06-2024 07:00:00,27.23711,78.01936,SO2,17,18,18
India,Uttar_Pradesh,Agra,"Manoharpur, Agra - UPPCB",25-06-2024 07:00:00,27.23711,78.01936,OZONE,14,43,18
India,Uttar_Pradesh,Agra,"Rohta, Agra - UPPCB",25-06-2024 07:00:00,27.106972,78.000111,PM2.5,NA,NA,NA
India,Uttar_Pradesh,Agra,"Rohta, Agra - UPPCB",25-06-2024 07:00:00,27.106972,78.000111,NH3,2,2,2
India,Uttar_Pradesh,Agra,"Shahjahan Garden, Agra - UPPCB",25-06-2024 07:00:00,27.169338,78.03582,SO2,40,45,43
India,Uttar_Pradesh,Agra,"Shastripuram, Agra - UPPCB",25-06-2024 07:00:00,27.19862,77.92066,NH3,4,6,4
India,Uttar_Pradesh,Agra,"Shastripuram, Agra - UPPCB",25-06-2024 07:00:00,27.19862,77.92066,CO,8,12,10
India,Uttar_Pradesh,Baghpat,"Sardar Patel Inter College, Baghpat - UPPCB",25-06-2024 07:00:00,28.964949,77.278761,PM2.5,13,60,29
India,Uttar_Pradesh,Bareilly,"Civil Lines, Bareilly - UPPCB",25-06-2024 07:00:00,28.359581,79.414455,NO2,2,3,2
India,Uttar_Pradesh,Bareilly,"Civil Lines, Bareilly - UPPCB",25-06-2024 07:00:00,28.359581,79.414455,NH3,NA,NA,NA
India,Uttar_Pradesh,Bareilly,"Civil Lines, Bareilly - UPPCB",25-06-2024 07:00:00,28.359581,79.414455,OZONE,2,18,2
India,Uttar_Pradesh,Bareilly,"Rajendra Nagar, Bareilly - UPPCB",25-06-2024 07:00:00,28.38910936,79.42963708,NO2,2,3,2
India,Uttar_Pradesh,Bulandshahr,"Yamunapuram, Bulandshahr - UPPCB",25-06-2024 07:00:00,28.406963,77.849831,PM10,41,156,88
India,Uttar_Pradesh,Bulandshahr,"Yamunapuram, Bulandshahr - UPPCB",25-06-2024 07:00:00,28.406963,77.849831,NO2,2,27,11
India,Uttar_Pradesh,Bulandshahr,"Yamunapuram, Bulandshahr - UPPCB",25-06-2024 07:00:00,28.406963,77.849831,CO,40,71,45
India,Uttar_Pradesh,Firozabad,"Nagla Bhau, Firozabad - UPPCB",25-06-2024 07:00:00,27.168897,78.376960,SO2,17,41,25
India,Uttar_Pradesh,Ghaziabad,"Indirapuram, Ghaziabad - UPPCB",25-06-2024 07:00:00,28.646233,77.358075,PM2.5,60,303,162
India,Uttar_Pradesh,Ghaziabad,"Sanjay Nagar, Ghaziabad - UPPCB",25-06-2024 07:00:00,28.685382,77.453839,PM2.5,25,140,66
India,Uttar_Pradesh,Ghaziabad,"Sanjay Nagar, Ghaziabad - UPPCB",25-06-2024 07:00:00,28.685382,77.453839,PM10,58,162,108
India,Uttar_Pradesh,Ghaziabad,"Sanjay Nagar, Ghaziabad - UPPCB",25-06-2024 07:00:00,28.685382,77.453839,NO2,18,58,34
India,Uttar_Pradesh,Ghaziabad,"Vasundhara, Ghaziabad - UPPCB",25-06-2024 07:00:00,28.6603346,77.3572563,CO,2,104,52
India,Uttar_Pradesh,Greater Noida,"Knowledge Park - III, Greater Noida - UPPCB",25-06-2024 07:00:00,28.47272,77.482000,NO2,19,45,30
India,Uttar_Pradesh,Greater Noida,"Knowledge Park - III, Greater Noida - UPPCB",25-06-2024 07:00:00,28.47272,77.482000,NH3,10,22,15
India,Uttar_Pradesh,Greater Noida,"Knowledge Park - V, Greater Noida - UPPCB",25-06-2024 07:00:00,28.557054,77.453663,CO,30,68,44
India,Uttar_Pradesh,Jhansi,"Shivaji Nagar, Jhansi - UPPCB",25-06-2024 07:00:00,25.4547,78.6039,PM2.5,65,175,92
India,Uttar_Pradesh,Jhansi,"Shivaji Nagar, Jhansi - UPPCB",25-06-2024 07:00:00,25.4547,78.6039,PM10,59,115,79
India,Uttar_Pradesh,Jhansi,"Shivaji Nagar, Jhansi - UPPCB",25-06-2024 07:00:00,25.4547,78.6039,NH3,6,6,6
India,Uttar_Pradesh,Jhansi,"Shivaji Nagar, Jhansi - UPPCB",25-06-2024 07:00:00,25.4547,78.6039,OZONE,14,72,63
India,Uttar_Pradesh,Kanpur,"FTI Kidwai Nagar, Kanpur - UPPCB",25-06-2024 07:00:00,26.428282,80.327067,OZONE,2,10,7
India,Uttar_Pradesh,Kanpur,"NSI Kalyanpur, Kanpur - UPPCB",25-06-2024 07:00:00,26.509954,80.249612,CO,37,52,38
India,Uttar_Pradesh,Kanpur,"Nehru Nagar, Kanpur - UPPCB",25-06-2024 07:00:00,26.4703136,80.3229863,NO2,27,49,41
India,Uttar_Pradesh,Kanpur,"Nehru Nagar, Kanpur - UPPCB",25-06-2024 07:00:00,26.4703136,80.3229863,SO2,7,12,10
India,Uttar_Pradesh,Kanpur,"Nehru Nagar, Kanpur - UPPCB",25-06-2024 07:00:00,26.4703136,80.3229863,CO,46,83,73
India,Uttar_Pradesh,Khurja,"Kalindi Kunj, Khurja - UPPCB",25-06-2024 07:00:00,28.2348927,77.8683002,SO2,NA,NA,NA
India,Uttar_Pradesh,Khurja,"Kalindi Kunj, Khurja - UPPCB",25-06-2024 07:00:00,28.2348927,77.8683002,OZONE,NA,NA,NA
India,Uttar_Pradesh,Lucknow,"B R Ambedkar University, Lucknow - UPPCB",25-06-2024 07:00:00,26.766433,80.927299,SO2,13,15,14
India,Uttar_Pradesh,Lucknow,"Gomti Nagar, Lucknow - UPPCB",25-06-2024 07:00:00,26.868120,81.005119,NO2,10,11,10
India,Uttar_Pradesh,Lucknow,"Kendriya Vidyalaya, Lucknow - CPCB",25-06-2024 07:00:00,26.906111,80.948222,NH3,3,17,12
India,Uttar_Pradesh,Lucknow,"Talkatora District Industries Center, Lucknow - CPCB",25-06-2024 07:00:00,26.83399722,80.8917361,NO2,11,13,12
India,Uttar_Pradesh,Meerut,"Ganga Nagar, Meerut - UPPCB",25-06-2024 07:00:00,28.999264,77.7590354,PM10,27,256,76
India,Uttar_Pradesh,Meerut,"Ganga Nagar, Meerut - UPPCB",25-06-2024 07:00:00,28.999264,77.7590354,NO2,12,36,20
India,Uttar_Pradesh,Meerut,"Jai Bhim Nagar, Meerut - UPPCB",25-06-2024 07:00:00,28.9535882,77.7622941,OZONE,12,272,245
India,Uttar_Pradesh,Meerut,"Pallavpuram Phase 2, Meerut - UPPCB",25-06-2024 07:00:00,29.063510,77.709723,PM2.5,10,167,52
India,Uttar_Pradesh,Meerut,"Pallavpuram Phase 2, Meerut - UPPCB",25-06-2024 07:00:00,29.063510,77.709723,NO2,11,59,26
India,Uttar_Pradesh,Moradabad,"Buddhi Vihar, Moradabad - UPPCB",25-06-2024 07:00:00,28.83526,78.74460,CO,23,36,31
India,Uttar_Pradesh,Moradabad,"Buddhi Vihar, Moradabad - UPPCB",25-06-2024 07:00:00,28.83526,78.74460,OZONE,4,19,5
India,Uttar_Pradesh,Moradabad,"Eco Herbal Park, Moradabad - UPPCB",25-06-2024 07:00:00,28.840739,78.697531,OZONE,1,82,2
India,Uttar_Pradesh,Moradabad,"Employment Office, Moradabad - UPPCB",25-06-2024 07:00:00,28.88528,78.73880,PM10,38,224,68
India,Uttar_Pradesh,Moradabad,"Employment Office, Moradabad - UPPCB",25-06-2024 07:00:00,28.88528,78.73880,CO,23,47,32
India,Uttar_Pradesh,Moradabad,"Kashiram Nagar, Moradabad - UPPCB",25-06-2024 07:00:00,28.849399,78.742362,NO2,11,16,12
India,Uttar_Pradesh,Moradabad,"Transport Nagar, Moradabad - UPPCB",25-06-2024 07:00:00,28.802625,78.753728,PM2.5,25,95,47
India,Uttar_Pradesh,Moradabad,"Transport Nagar, Moradabad - UPPCB",25-06-2024 07:00:00,28.802625,78.753728,PM10,37,116,64
India,Uttar_Pradesh,Moradabad,"Transport Nagar, Moradabad - UPPCB",25-06-2024 07:00:00,28.802625,78.753728,CO,26,42,42
India,Uttar_Pradesh,Muzaffarnagar,"New Mandi, Muzaffarnagar - UPPCB",25-06-2024 07:00:00,29.4723508,77.7194031,NH3,10,14,11
India,Uttar_Pradesh,Muzaffarnagar,"New Mandi, Muzaffarnagar - UPPCB",25-06-2024 07:00:00,29.4723508,77.7194031,CO,32,64,39
India,Uttar_Pradesh,Noida,"Sector - 125, Noida - UPPCB",25-06-2024 07:00:00,28.5447608,77.3231257,PM10,93,266,146
India,Uttar_Pradesh,Noida,"Sector - 125, Noida - UPPCB",25-06-2024 07:00:00,28.5447608,77.3231257,NH3,3,8,6
India,Uttar_Pradesh,Noida,"Sector - 125, Noida - UPPCB",25-06-2024 07:00:00,28.5447608,77.3231257,CO,6,38,31
India,Uttar_Pradesh,Noida,"Sector - 62, Noida - IMD",25-06-2024 07:00:00,28.6245479,77.3577104,CO,28,37,33
India,Uttar_Pradesh,Noida,"Sector-1, Noida - UPPCB",25-06-2024 07:00:00,28.5898,77.3101,PM2.5,47,191,96
India,Uttar_Pradesh,Noida,"Sector-1, Noida - UPPCB",25-06-2024 07:00:00,28.5898,77.3101,SO2,10,23,13
India,Uttar_Pradesh,Noida,"Sector-1, Noida - UPPCB",25-06-2024 07:00:00,28.5898,77.3101,CO,6,58,16
India,Uttar_Pradesh,Noida,"Sector-116, Noida - UPPCB",25-06-2024 07:00:00,28.569230,77.393848,NH3,11,22,15
India,Uttar_Pradesh,Noida,"Sector-116, Noida - UPPCB",25-06-2024 07:00:00,28.569230,77.393848,CO,36,78,57
India,Uttar_Pradesh,Prayagraj,"Jhunsi, Prayagraj - UPPCB",25-06-2024 07:00:00,25.425602,81.917152,NO2,5,6,6
India,Uttar_Pradesh,Prayagraj,"Motilal Nehru NIT, Prayagraj - UPPCB",25-06-2024 07:00:00,25.494,81.863,NH3,6,7,7
India,Uttar_Pradesh,Prayagraj,"Motilal Nehru NIT, Prayagraj - UPPCB",25-06-2024 07:00:00,25.494,81.863,OZONE,19,69,31
India,Uttar_Pradesh,Prayagraj,"Nagar Nigam, Prayagraj - UPPCB",25-06-2024 07:00:00,25.44919916 ,81.82735986 ,PM10,27,136,64
India,Uttar_Pradesh,Prayagraj,"Nagar Nigam, Prayagraj - UPPCB",25-06-2024 07:00:00,25.44919916 ,81.82735986 ,SO2,25,137,59
India,Uttar_Pradesh,Varanasi,"Ardhali Bazar, Varanasi - UPPCB",25-06-2024 07:00:00,25.3505986,82.9083074,OZONE,20,22,22
India,Uttar_Pradesh,Varanasi,"Bhelupur, Varanasi - UPPCB",25-06-2024 07:00:00,25.301778,82.996789,PM10,16,28,23
India,Uttar_Pradesh,Varanasi,"IESD Banaras Hindu University, Varanasi - UPPCB",25-06-2024 07:00:00,25.262326,82.995408,PM2.5,3,13,9
India,Uttar_Pradesh,Varanasi,"IESD Banaras Hindu University, Varanasi - UPPCB",25-06-2024 07:00:00,25.262326,82.995408,PM10,6,26,19
India,Uttar_Pradesh,Varanasi,"IESD Banaras Hindu University, Varanasi - UPPCB",25-06-2024 07:00:00,25.262326,82.995408,NO2,2,2,2
India,Uttar_Pradesh,Varanasi,"IESD Banaras Hindu University, Varanasi - UPPCB",25-06-2024 07:00:00,25.262326,82.995408,OZONE,10,16,11
India,Uttar_Pradesh,Varanasi,"Maldahiya, Varanasi - UPPCB",25-06-2024 07:00:00,25.32393,82.99687,NH3,1,1,1
India,Uttar_Pradesh,Vrindavan,"Omex Eternity, Vrindavan - UPPCB",25-06-2024 07:00:00,27.5714090,77.6557570,NO2,12,12,12
India,Uttar_Pradesh,Vrindavan,"Omex Eternity, Vrindavan - UPPCB",25-06-2024 07:00:00,27.5714090,77.6557570,NH3,1,2,1
India,Uttarakhand,Dehradun,"Doon University, Dehradun - UKPCB",25-06-2024 07:00:00,30.269444,78.044167,PM2.5,16,124,52
India,Uttarakhand,Dehradun,"Doon University, Dehradun - UKPCB",25-06-2024 07:00:00,30.269444,78.044167,CO,28,38,31
India,Uttarakhand,Dehradun,"Doon University, Dehradun - UKPCB",25-06-2024 07:00:00,30.269444,78.044167,OZONE,10,53,18
India,Uttarakhand,Kashipur,"Govt. Girls Inter College, Kashipur - UKPCB",25-06-2024 07:00:00,29.2124114,78.9611753,NH3,3,4,4
India,Uttarakhand,Kashipur,"Govt. Girls Inter College, Kashipur - UKPCB",25-06-2024 07:00:00,29.2124114,78.9611753,OZONE,2,38,4
India,Uttarakhand,Rishikesh,"Shivaji Nagar, Rishikesh - UKPCB",25-06-2024 07:00:00,30.075911,78.2859547,PM10,22,72,46
India,Uttarakhand,Rishikesh,"Shivaji Nagar, Rishikesh - UKPCB",25-06-2024 07:00:00,30.075911,78.2859547,NO2,6,15,9
India,West_Bengal,Asansol,"Asansol Court Area, Asansol - WBPCB",25-06-2024 07:00:00,23.685297,86.945968,NO2,21,49,35
India,West_Bengal,Asansol,"Evelyn Lodge, Asansol - WBPCB",25-06-2024 07:00:00,23.6979360,86.9443950,SO2,12,15,13
India,West_Bengal,Asansol,"Mahabir Colliery, Asansol - WBPCB",25-06-2024 07:00:00,23.6181830,87.1057180,CO,NA,NA,NA
India,West_Bengal,Asansol,"Mahabir Colliery, Asansol - WBPCB",25-06-2024 07:00:00,23.6181830,87.1057180,OZONE,8,40,10
India,West_Bengal,Durgapur,"PCBL Residential Complex, Durgapur - WBPCB",25-06-2024 07:00:00,23.5087640,87.3544400,PM10,60,164,117
India,West_Bengal,Durgapur,"PCBL Residential Complex, Durgapur - WBPCB",25-06-2024 07:00:00,23.5087640,87.3544400,NO2,9,51,23
India,West_Bengal,Durgapur,"Sidhu Kanhu Indoor Stadium, Durgapur - WBPCB",25-06-2024 07:00:00,23.5404352,87.2892225,SO2,16,66,34
India,West_Bengal,Durgapur,"Sidhu Kanhu Indoor Stadium, Durgapur - WBPCB",25-06-2024 07:00:00,23.5404352,87.2892225,CO,16,32,19
India,West_Bengal,Haldia,"Priyambada Housing Estate, Haldia - WBPCB",25-06-2024 07:00:00,22.06047,88.109737,SO2,8,19,13
India,West_Bengal,Howrah,"Belur Math, Howrah - WBPCB",25-06-2024 07:00:00,22.629801,88.352017,PM10,31,78,48
India,West_Bengal,Howrah,"Belur Math, Howrah - WBPCB",25-06-2024 07:00:00,22.629801,88.352017,NO2,2,16,8
India,West_Bengal,Howrah,"Belur Math, Howrah - WBPCB",25-06-2024 07:00:00,22.629801,88.352017,NH3,1,1,1
India,West_Bengal,Howrah,"Botanical Garden, Howrah - WBPCB",25-06-2024 07:00:00,22.554954,88.292568,PM2.5,NA,NA,NA
India,West_Bengal,Howrah,"Botanical Garden, Howrah - WBPCB",25-06-2024 07:00:00,22.554954,88.292568,NH3,NA,NA,NA
India,West_Bengal,Howrah,"Botanical Garden, Howrah - WBPCB",25-06-2024 07:00:00,22.554954,88.292568,OZONE,16,49,20
India,West_Bengal,Howrah,"Ghusuri, Howrah - WBPCB",25-06-2024 07:00:00,22.611968,88.347422,PM10,37,74,54
India,West_Bengal,Howrah,"Ghusuri, Howrah - WBPCB",25-06-2024 07:00:00,22.611968,88.347422,OZONE,13,18,15
India,West_Bengal,Howrah,"Padmapukur, Howrah - WBPCB",25-06-2024 07:00:00,22.5687319,88.2797276,PM10,52,114,72
India,West_Bengal,Kolkata,"Fort William, Kolkata - WBPCB",25-06-2024 07:00:00,22.556640,88.342674,NO2,11,26,16
India,West_Bengal,Kolkata,"Jadavpur, Kolkata - WBPCB",25-06-2024 07:00:00,22.49929,88.36917,OZONE,2,37,16
India,West_Bengal,Kolkata,"Rabindra Sarobar, Kolkata - WBPCB",25-06-2024 07:00:00,22.51106,88.35142,NO2,23,87,32
India,West_Bengal,Kolkata,"Victoria, Kolkata - WBPCB",25-06-2024 07:00:00,22.5448082,88.3403691,NO2,25,35,28
India,West_Bengal,Siliguri,"Ward-32 Bapupara, Siliguri - WBPCB",25-06-2024 07:00:00,26.6879226,88.4152495,NO2,22,30,24
India,West_Bengal,Siliguri,"Ward-32 Bapupara, Siliguri - WBPCB",25-06-2024 07:00:00,26.6879226,88.4152495,NH3,9,10,10
India,Andhra_Pradesh,Amaravati,"Secretariat, Amaravati - APPCB",25-06-2024 07:00:00,16.5150833,80.5181667,PM10,18,47,32
India,Andhra_Pradesh,Anantapur,"Gulzarpet, Anantapur - APPCB",25-06-2024 07:00:00,14.675886,77.593027,NH3,NA,NA,NA
India,Andhra_Pradesh,Anantapur,"Gulzarpet, Anantapur - APPCB",25-06-2024 07:00:00,14.675886,77.593027,SO2,NA,NA,NA
India,Andhra_Pradesh,Anantapur,"Gulzarpet, Anantapur - APPCB",25-06-2024 07:00:00,14.675886,77.593027,CO,NA,NA,NA
India,Andhra_Pradesh,Chittoor,"Gangineni Cheruvu, Chittoor - APPCB",25-06-2024 07:00:00,13.204880,79.097889,NH3,3,4,3
India,Andhra_Pradesh,Kadapa,"Yerramukkapalli, Kadapa - APPCB",25-06-2024 07:00:00,14.465052,78.824187,PM2.5,NA,NA,NA
India,Andhra_Pradesh,Tirupati,"Tirumala, Tirupati - APPCB",25-06-2024 07:00:00,13.67,79.35,PM10,13,155,34
India,Andhra_Pradesh,Tirupati,"Tirumala, Tirupati - APPCB",25-06-2024 07:00:00,13.67,79.35,NO2,17,36,27
India,Andhra_Pradesh,Tirupati,"Vaikuntapuram, Tirupati - APPCB",25-06-2024 07:00:00,13.615387,79.409230,PM2.5,NA,NA,NA
India,Andhra_Pradesh,Tirupati,"Vaikuntapuram, Tirupati - APPCB",25-06-2024 07:00:00,13.615387,79.409230,SO2,NA,NA,NA
India,Andhra_Pradesh,Vijayawada,"HB Colony, Vijayawada - APPCB",25-06-2024 07:00:00,16.536107,80.594233,CO,33,36,36
India,Andhra_Pradesh,Vijayawada,"Rajiv Gandhi Park, Vijayawada - APPCB",25-06-2024 07:00:00,16.509717,80.612222,NH3,5,6,5
India,Andhra_Pradesh,Visakhapatnam,"GVM Corporation, Visakhapatnam - APPCB",25-06-2024 07:00:00,17.72,83.3,NH3,2,5,3
India,Assam,Byrnihat,"Central Academy for SFS, Byrnihat - PCBA",25-06-2024 07:00:00,26.071318,91.87488,PM2.5,25,500,292
India,Assam,Byrnihat,"Central Academy for SFS, Byrnihat - PCBA",25-06-2024 07:00:00,26.071318,91.87488,NH3,14,18,16
India,Assam,Byrnihat,"Central Academy for SFS, Byrnihat - PCBA",25-06-2024 07:00:00,26.071318,91.87488,CO,11,15,12
India,Assam,Guwahati,"IITG, Guwahati - PCBA",25-06-2024 07:00:00,26.2028636,91.70046436,PM10,NA,NA,NA
India,Assam,Guwahati,"IITG, Guwahati - PCBA",25-06-2024 07:00:00,26.2028636,91.70046436,NO2,NA,NA,NA
India,Assam,Guwahati,"IITG, Guwahati - PCBA",25-06-2024 07:00:00,26.2028636,91.70046436,NH3,NA,NA,NA
India,Assam,Guwahati,"Pan Bazaar, Guwahati - PCBA",25-06-2024 07:00:00,26.187500,91.744194,CO,6,48,38
India,Assam,Guwahati,"Railway Colony, Guwahati - PCBA",25-06-2024 07:00:00,26.181742,91.78063,PM10,23,92,60
India,Assam,Silchar,"Tarapur, Silchar - PCBA",25-06-2024 07:00:00,24.82827,92.79525,PM2.5,27,38,31
India,Assam,Silchar,"Tarapur, Silchar - PCBA",25-06-2024 07:00:00,24.82827,92.79525,NO2,9,9,9
India,Assam,Silchar,"Tarapur, Silchar - PCBA",25-06-2024 07:00:00,24.82827,92.79525,NH3,1,1,1
India,Assam,Silchar,"Tarapur, Silchar - PCBA",25-06-2024 07:00:00,24.82827,92.79525,OZONE,NA,NA,NA
India,Assam,Sivasagar,"Girls College, Sivasagar - PCBA",25-06-2024 07:00:00,26.987634,94.636574,SO2,7,12,9
India,Bihar,Arrah,"New DM Office, Arrah - BSPCB",25-06-2024 07:00:00,25.5626095,84.663264,CO,13,32,21
India,Bihar,Aurangabad,"Gurdeo Nagar, Aurangabad - BSPCB",25-06-2024 07:00:00,24.75746,84.366208,NH3,5,33,14
India,Bihar,Aurangabad,"Gurdeo Nagar, Aurangabad - BSPCB",25-06-2024 07:00:00,24.75746,84.366208,OZONE,12,89,20
India,Bihar,Bettiah,"Kamalnath Nagar, Bettiah - BSPCB",25-06-2024 07:00:00,26.80365,84.51954,CO,NA,NA,NA
India,Bihar,Bhagalpur,"DM Office_Kachari Chowk, Bhagalpur - BSPCB",25-06-2024 07:00:00,25.251013,86.989001,PM10,52,119,88
India,Bihar,Bhagalpur,"DM Office_Kachari Chowk, Bhagalpur - BSPCB",25-06-2024 07:00:00,25.251013,86.989001,CO,36,88,46
India,Bihar,Bhagalpur,"Mayaganj, Bhagalpur - BSPCB",25-06-2024 07:00:00,25.265194,87.012947,PM2.5,45,300,95
India,Bihar,Bihar Sharif,"D M Colony, Bihar Sharif - BSPCB",25-06-2024 07:00:00,25.204762,85.514960,PM2.5,NA,NA,NA
India,Bihar,Bihar Sharif,"D M Colony, Bihar Sharif - BSPCB",25-06-2024 07:00:00,25.204762,85.514960,SO2,3,4,3
India,Bihar,Buxar,"Charitra Van, Buxar - BSPCB (Formerly known as Central Jail)",25-06-2024 07:00:00,25.567520,83.966379,PM2.5,NA,NA,NA
India,Bihar,Buxar,"Charitra Van, Buxar - BSPCB (Formerly known as Central Jail)",25-06-2024 07:00:00,25.567520,83.966379,SO2,3,4,3
India,Bihar,Chhapra,"Darshan Nagar, Chhapra - BSPCB",25-06-2024 07:00:00,25.7808257,84.7446768,PM10,NA,NA,NA
India,Bihar,Chhapra,"Darshan Nagar, Chhapra - BSPCB",25-06-2024 07:00:00,25.7808257,84.7446768,NO2,NA,NA,NA
India,Bihar,Gaya,"SFTI Kusdihra, Gaya - BSPCB",25-06-2024 07:00:00,24.762518,84.982348,PM10,32,51,40
India,Bihar,Gaya,"SFTI Kusdihra, Gaya - BSPCB",25-06-2024 07:00:00,24.762518,84.982348,SO2,7,12,8
India,Bihar,Hajipur,"Industrial Area, Hajipur - BSPCB",25-06-2024 07:00:00,25.697189,85.245900,PM2.5,76,129,93
India,Bihar,Hajipur,"Industrial Area, Hajipur - BSPCB",25-06-2024 07:00:00,25.697189,85.245900,NO2,9,41,20
India,Bihar,Hajipur,"Industrial Area, Hajipur - BSPCB",25-06-2024 07:00:00,25.697189,85.245900,NH3,10,16,13
India,Bihar,Hajipur,"Industrial Area, Hajipur - BSPCB",25-06-2024 07:00:00,25.697189,85.245900,CO,13,26,22
India,Bihar,Hajipur,"Industrial Area, Hajipur - BSPCB",25-06-2024 07:00:00,25.697189,85.245900,OZONE,29,186,50
India,Bihar,Katihar,"Mirchaibari, Katihar - BSPCB",25-06-2024 07:00:00,25.560083,87.553265,CO,23,38,26
India,Bihar,Kishanganj,"SDM Office_Khagra, Kishanganj - BSPCB",25-06-2024 07:00:00,26.0881305,87.93840336,PM2.5,NA,NA,NA
India,Bihar,Kishanganj,"SDM Office_Khagra, Kishanganj - BSPCB",25-06-2024 07:00:00,26.0881305,87.93840336,NO2,28,56,34
India,Bihar,Kishanganj,"SDM Office_Khagra, Kishanganj - BSPCB",25-06-2024 07:00:00,26.0881305,87.93840336,SO2,1,21,9
India,Bihar,Motihari,"Gandak Colony, Motihari - BSPCB",25-06-2024 07:00:00,26.63086,84.90051,PM10,32,88,61
India,Bihar,Motihari,"Gandak Colony, Motihari - BSPCB",25-06-2024 07:00:00,26.63086,84.90051,NH3,1,5,4
India,Bihar,Munger,"Town Hall, Munger - BSPCB",25-06-2024 07:00:00,25.376776,86.471523,PM10,43,114,75
India,Bihar,Munger,"Town Hall, Munger - BSPCB",25-06-2024 07:00:00,25.376776,86.471523,NH3,2,3,3
India,Bihar,Muzaffarpur,"Buddha Colony, Muzaffarpur - BSPCB",25-06-2024 07:00:00,26.11442,85.39813,PM10,59,93,74
India,Bihar,Muzaffarpur,"MIT-Daudpur Kothi, Muzaffarpur - BSPCB",25-06-2024 07:00:00,26.1403345,85.3650192,PM10,46,249,78
India,Bihar,Muzaffarpur,"Muzaffarpur Collectorate, Muzaffarpur - BSPCB",25-06-2024 07:00:00,26.1209,85.3647,PM2.5,42,431,76
India,Bihar,Patna,"DRM Office Danapur, Patna - BSPCB",25-06-2024 07:00:00,25.586562,85.043586,NO2,17,26,20
India,Bihar,Patna,"Govt. High School Shikarpur, Patna - BSPCB",25-06-2024 07:00:00,25.592539,85.227158,PM2.5,88,150,111
India,Bihar,Patna,"Govt. High School Shikarpur, Patna - BSPCB",25-06-2024 07:00:00,25.592539,85.227158,PM10,69,95,86
India,Bihar,Patna,"Muradpur, Patna - BSPCB",25-06-2024 07:00:00,25.619651,85.147382,SO2,2,8,5
India,Bihar,Patna,"Rajbansi Nagar, Patna - BSPCB",25-06-2024 07:00:00,25.599486,85.113666,SO2,2,13,8
India,Bihar,Patna,"Rajbansi Nagar, Patna - BSPCB",25-06-2024 07:00:00,25.599486,85.113666,CO,14,92,23
India,Bihar,Patna,"Samanpura, Patna - BSPCB",25-06-2024 07:00:00,25.596727,85.085624,PM2.5,56,96,78
India,Bihar,Purnia,"Mariam Nagar, Purnia - BSPCB",25-06-2024 07:00:00,25.366336,87.117468,SO2,8,12,11
India,Bihar,Rajgir,"Dangi Tola, Rajgir - BSPCB",25-06-2024 07:00:00,25.03280,85.41948,NO2,14,15,15
India,Bihar,Rajgir,"Dangi Tola, Rajgir - BSPCB",25-06-2024 07:00:00,25.03280,85.41948,NH3,2,2,2
India,Bihar,Rajgir,"Dangi Tola, Rajgir - BSPCB",25-06-2024 07:00:00,25.03280,85.41948,SO2,4,4,4
India,Bihar,Rajgir,"Dangi Tola, Rajgir - BSPCB",25-06-2024 07:00:00,25.03280,85.41948,OZONE,31,48,37
India,Bihar,Saharsa,"Police Line, Saharsa - BSPCB",25-06-2024 07:00:00,25.892357,86.590325,PM10,36,125,73
India,Bihar,Samastipur,"DM Office_Kasipur, Samastipur - BSPCB",25-06-2024 07:00:00,25.859655,85.77944,CO,96,118,105
India,Bihar,Sasaram,"Dada Peer, Sasaram - BSPCB",25-06-2024 07:00:00,24.952822,84.002396,PM2.5,97,334,251
India,Bihar,Sasaram,"Dada Peer, Sasaram - BSPCB",25-06-2024 07:00:00,24.952822,84.002396,PM10,87,235,146
India,Bihar,Siwan,"Chitragupta Nagar, Siwan - BSPCB",25-06-2024 07:00:00,26.2271665,84.3570427,PM2.5,NA,NA,NA
India,Bihar,Siwan,"Chitragupta Nagar, Siwan - BSPCB",25-06-2024 07:00:00,26.2271665,84.3570427,OZONE,5,160,160
India,Chandigarh,Chandigarh,"Sector 22, Chandigarh - CPCC",25-06-2024 07:00:00,30.735567,76.775714,PM2.5,47,113,80
India,Chandigarh,Chandigarh,"Sector-25, Chandigarh - CPCC",25-06-2024 07:00:00,30.751462,76.762879,PM10,103,129,113
India,Chandigarh,Chandigarh,"Sector-25, Chandigarh - CPCC",25-06-2024 07:00:00,30.751462,76.762879,NH3,13,26,17
India,Chandigarh,Chandigarh,"Sector-53, Chandigarh - CPCC",25-06-2024 07:00:00,30.719859,76.738637,OZONE,9,62,18
India,Chhattisgarh,Bhilai,"32Bungalows, Bhilai - CECB",25-06-2024 07:00:00,21.194815,81.314770,PM2.5,14,31,23
India,Chhattisgarh,Bhilai,"32Bungalows, Bhilai - CECB",25-06-2024 07:00:00,21.194815,81.314770,NO2,5,8,6
India,Chhattisgarh,Bhilai,"32Bungalows, Bhilai - CECB",25-06-2024 07:00:00,21.194815,81.314770,CO,8,13,12
India,Chhattisgarh,Bhilai,"Civic Center, Bhilai - Bhilai Steel Plant",25-06-2024 07:00:00,21.185571,81.343175,PM10,13,28,20
India,Chhattisgarh,Chhal,"Nawapara SECL Colony, Chhal - CECB",25-06-2024 07:00:00,22.118125,83.140608,CO,20,38,28
India,Chhattisgarh,Korba,"Rampur, Korba - CECB",25-06-2024 07:00:00,22.368195,82.746431,SO2,4,8,7
India,Chhattisgarh,Korba,"Urja Nagar, Korba - CECB",25-06-2024 07:00:00,22.348441,82.549611,PM10,NA,NA,NA
India,Chhattisgarh,Korba,"Urja Nagar, Korba - CECB",25-06-2024 07:00:00,22.348441,82.549611,SO2,6,9,8
India,Chhattisgarh,Kunjemura,"OP Jindal School, Kunjemura - CECB",25-06-2024 07:00:00,22.126650,83.483212,PM10,36,357,120
India,Chhattisgarh,Kunjemura,"OP Jindal School, Kunjemura - CECB",25-06-2024 07:00:00,22.126650,83.483212,SO2,1,5,3
India,Chhattisgarh,Kunjemura,"OP Jindal School, Kunjemura - CECB",25-06-2024 07:00:00,22.126650,83.483212,OZONE,4,12,4
India,Chhattisgarh,Milupara,"Govt. Higher Secondary School, Milupara - CECB",25-06-2024 07:00:00,22.1910172,83.5197009,PM2.5,NA,NA,NA
India,Chhattisgarh,Milupara,"Govt. Higher Secondary School, Milupara - CECB",25-06-2024 07:00:00,22.1910172,83.5197009,SO2,NA,NA,NA
India,Chhattisgarh,Milupara,"Govt. Higher Secondary School, Milupara - CECB",25-06-2024 07:00:00,22.1910172,83.5197009,OZONE,NA,NA,NA
India,Chhattisgarh,Raipur,"AIIMS, Raipur - CECB",25-06-2024 07:00:00,21.258815,81.578979,SO2,3,6,4
India,Chhattisgarh,Raipur,"AIIMS, Raipur - CECB",25-06-2024 07:00:00,21.258815,81.578979,CO,16,28,18
India,Chhattisgarh,Raipur,"Bhatagaon New ISBT, Raipur - CECB",25-06-2024 07:00:00,21.219665,81.630094,NO2,4,4,4
India,Chhattisgarh,Raipur,"Siltara Phase-II, Raipur - CECB",25-06-2024 07:00:00,21.371751,81.664929,NH3,3,3,3
India,Chhattisgarh,Tumidih,"OP Jindal Industrial Park, Tumidih - CECB",25-06-2024 07:00:00,22.06631475,83.33820077,PM10,NA,NA,NA
India,Delhi,Delhi,"Anand Vihar, Delhi - DPCC",25-06-2024 07:00:00,28.647622,77.3158090,PM10,39,476,145
India,Delhi,Delhi,"Anand Vihar, Delhi - DPCC",25-06-2024 07:00:00,28.647622,77.3158090,CO,5,46,11
India,Delhi,Delhi,"Bawana, Delhi - DPCC",25-06-2024 07:00:00,28.776200,77.051074,NH3,4,73,22
India,Delhi,Delhi,"Burari Crossing, Delhi - IMD",25-06-2024 07:00:00,28.7256504,77.2011573,PM2.5,NA,NA,NA
India,Delhi,Delhi,"Burari Crossing, Delhi - IMD",25-06-2024 07:00:00,28.7256504,77.2011573,CO,35,69,47
India,Delhi,Delhi,"Chandni Chowk, Delhi - IITM",25-06-2024 07:00:00,28.656756,77.227234,NH3,2,2,2
India,Delhi,Delhi,"Chandni Chowk, Delhi - IITM",25-06-2024 07:00:00,28.656756,77.227234,CO,53,93,58
India,Delhi,Delhi,"DTU, Delhi - CPCB",25-06-2024 07:00:00,28.7500499,77.1112615,PM10,74,412,122
India,Delhi,Delhi,"DTU, Delhi - CPCB",25-06-2024 07:00:00,28.7500499,77.1112615,NO2,61,71,66
India,Delhi,Delhi,"DTU, Delhi - CPCB",25-06-2024 07:00:00,28.7500499,77.1112615,NH3,16,19,18
India,Delhi,Delhi,"DTU, Delhi - CPCB",25-06-2024 07:00:00,28.7500499,77.1112615,CO,41,90,70
India,Delhi,Delhi,"DTU, Delhi - CPCB",25-06-2024 07:00:00,28.7500499,77.1112615,OZONE,29,128,29
India,Delhi,Delhi,"Dr. Karni Singh Shooting Range, Delhi - DPCC",25-06-2024 07:00:00,28.498571,77.264840,PM2.5,60,319,139
India,Delhi,Delhi,"Dr. Karni Singh Shooting Range, Delhi - DPCC",25-06-2024 07:00:00,28.498571,77.264840,NH3,8,19,11
India,Delhi,Delhi,"Dwarka-Sector 8, Delhi - DPCC ",25-06-2024 07:00:00,28.5710274,77.0719006,PM2.5,55,200,108
India,Delhi,Delhi,"Dwarka-Sector 8, Delhi - DPCC ",25-06-2024 07:00:00,28.5710274,77.0719006,SO2,9,13,10
India,Delhi,Delhi,"IHBAS, Dilshad Garden, Delhi - CPCB",25-06-2024 07:00:00,28.6811736,77.3025234,SO2,16,29,22
India,Delhi,Delhi,"IHBAS, Dilshad Garden, Delhi - CPCB",25-06-2024 07:00:00,28.6811736,77.3025234,OZONE,28,45,34
India,Delhi,Delhi,"ITO, Delhi - CPCB",25-06-2024 07:00:00,28.628624,77.241060,NO2,2,72,23
India,Delhi,Delhi,"Jahangirpuri, Delhi - DPCC",25-06-2024 07:00:00,28.732820,77.170633,PM10,105,469,187
India,Delhi,Delhi,"Jahangirpuri, Delhi - DPCC",25-06-2024 07:00:00,28.732820,77.170633,CO,52,102,75
India,Delhi,Delhi,"Lodhi Road, Delhi - IMD",25-06-2024 07:00:00,28.5918245,77.2273074,CO,30,38,37
India,Delhi,Delhi,"Major Dhyan Chand National Stadium, Delhi - DPCC",25-06-2024 07:00:00,28.611281,77.237738,PM10,66,197,122
India,Delhi,Delhi,"Major Dhyan Chand National Stadium, Delhi - DPCC",25-06-2024 07:00:00,28.611281,77.237738,NO2,14,78,42
India,Delhi,Delhi,"Mandir Marg, Delhi - DPCC",25-06-2024 07:00:00,28.636429,77.201067,SO2,3,19,11
India,Delhi,Delhi,"Mundka, Delhi - DPCC",25-06-2024 07:00:00,28.684678,77.076574,CO,44,73,58
India,Delhi,Delhi,"NSIT Dwarka, Delhi - CPCB",25-06-2024 07:00:00,28.60909,77.0325413,PM2.5,8,291,67
India,Delhi,Delhi,"NSIT Dwarka, Delhi - CPCB",25-06-2024 07:00:00,28.60909,77.0325413,PM10,69,151,112
India,Delhi,Delhi,"NSIT Dwarka, Delhi - CPCB",25-06-2024 07:00:00,28.60909,77.0325413,SO2,2,23,15
India,Delhi,Delhi,"NSIT Dwarka, Delhi - CPCB",25-06-2024 07:00:00,28.60909,77.0325413,OZONE,2,29,6
India,Delhi,Delhi,"Najafgarh, Delhi - DPCC",25-06-2024 07:00:00,28.570173,76.933762,OZONE,5,32,19
India,Delhi,Delhi,"Narela, Delhi - DPCC",25-06-2024 07:00:00,28.822836,77.101981,SO2,1,6,3
India,Delhi,Delhi,"Nehru Nagar, Delhi - DPCC",25-06-2024 07:00:00,28.567890,77.250515,PM10,67,168,111
India,Delhi,Delhi,"New Moti Bagh, Delhi - MHUA",25-06-2024 07:00:00,28.57834,77.18400,CO,32,81,48
India,Delhi,Delhi,"Okhla Phase-2, Delhi - DPCC",25-06-2024 07:00:00,28.530785,77.271255,NO2,19,92,49
India,Delhi,Delhi,"Okhla Phase-2, Delhi - DPCC",25-06-2024 07:00:00,28.530785,77.271255,OZONE,7,84,16
India,Delhi,Delhi,"Punjabi Bagh, Delhi - DPCC",25-06-2024 07:00:00,28.674045,77.131023,PM10,62,196,105
India,Delhi,Delhi,"Punjabi Bagh, Delhi - DPCC",25-06-2024 07:00:00,28.674045,77.131023,SO2,15,37,25
India,Delhi,Delhi,"Punjabi Bagh, Delhi - DPCC",25-06-2024 07:00:00,28.674045,77.131023,CO,28,82,50
India,Delhi,Delhi,"Pusa, Delhi - DPCC",25-06-2024 07:00:00,28.639652,77.146275,NH3,4,8,7
India,Delhi,Delhi,"Pusa, Delhi - DPCC",25-06-2024 07:00:00,28.639652,77.146275,OZONE,1,14,3
India,Delhi,Delhi,"Pusa, Delhi - IMD",25-06-2024 07:00:00,28.636110,77.173332,PM2.5,18,298,85
India,Delhi,Delhi,"Pusa, Delhi - IMD",25-06-2024 07:00:00,28.636110,77.173332,PM10,41,180,93
India,Delhi,Delhi,"Pusa, Delhi - IMD",25-06-2024 07:00:00,28.636110,77.173332,NO2,18,32,23
India,Delhi,Delhi,"R K Puram, Delhi - DPCC",25-06-2024 07:00:00,28.563262,77.186937,SO2,NA,NA,NA
India,Delhi,Delhi,"Rohini, Delhi - DPCC",25-06-2024 07:00:00,28.732528,77.119920,PM2.5,42,200,91
India,Delhi,Delhi,"Rohini, Delhi - DPCC",25-06-2024 07:00:00,28.732528,77.119920,PM10,105,500,156
India,Delhi,Delhi,"Rohini, Delhi - DPCC",25-06-2024 07:00:00,28.732528,77.119920,NO2,13,75,35
India,Delhi,Delhi,"Shadipur, Delhi - CPCB",25-06-2024 07:00:00,28.6514781,77.1473105,PM2.5,48,186,95
India,Delhi,Delhi,"Shadipur, Delhi - CPCB",25-06-2024 07:00:00,28.6514781,77.1473105,NO2,49,157,63
India,Delhi,Delhi,"Shadipur, Delhi - CPCB",25-06-2024 07:00:00,28.6514781,77.1473105,SO2,7,28,17
India,Delhi,Delhi,"Sirifort, Delhi - CPCB",25-06-2024 07:00:00,28.5504249,77.2159377,NH3,18,21,20
India,Delhi,Delhi,"Sirifort, Delhi - CPCB",25-06-2024 07:00:00,28.5504249,77.2159377,CO,16,64,42
India,Delhi,Delhi,"Sri Aurobindo Marg, Delhi - DPCC",25-06-2024 07:00:00,28.531346,77.190156,PM10,NA,NA,NA
India,Delhi,Delhi,"Sri Aurobindo Marg, Delhi - DPCC",25-06-2024 07:00:00,28.531346,77.190156,NH3,13,62,33
India,Delhi,Delhi,"Sri Aurobindo Marg, Delhi - DPCC",25-06-2024 07:00:00,28.531346,77.190156,OZONE,1,66,12
India,Delhi,Delhi,"Vivek Vihar, Delhi - DPCC",25-06-2024 07:00:00,28.672342,77.315260,PM2.5,35,162,92
India,Delhi,Delhi,"Vivek Vihar, Delhi - DPCC",25-06-2024 07:00:00,28.672342,77.315260,CO,66,89,72
India,Delhi,Delhi,"Wazirpur, Delhi - DPCC",25-06-2024 07:00:00,28.699793,77.165453,NH3,7,10,9
India,Delhi,Delhi,"Wazirpur, Delhi - DPCC",25-06-2024 07:00:00,28.699793,77.165453,SO2,10,30,19
India,Delhi,Delhi,"Wazirpur, Delhi - DPCC",25-06-2024 07:00:00,28.699793,77.165453,OZONE,2,19,4
India,Gujarat,Ahmedabad,"Chandkheda, Ahmedabad - IITM",25-06-2024 07:00:00,23.107969,72.574648,CO,18,109,83
India,Gujarat,Ahmedabad,"Gyaspur, Ahmedabad - IITM",25-06-2024 07:00:00,22.977134,72.553024,PM2.5,NA,NA,NA
India,Gujarat,Ahmedabad,"Gyaspur, Ahmedabad - IITM",25-06-2024 07:00:00,22.977134,72.553024,OZONE,14,62,45
India,Gujarat,Ahmedabad,"Maninagar, Ahmedabad - GPCB",25-06-2024 07:00:00,23.002657,72.591912,OZONE,55,198,94
India,Gujarat,Ahmedabad,"Raikhad, Ahmedabad - IITM",25-06-2024 07:00:00,23.020509,72.579261,PM10,13,60,29
India,Gujarat,Ahmedabad,"SVPI Airport Hansol, Ahmedabad - IITM",25-06-2024 07:00:00,23.076793,72.627874,PM2.5,32,55,46
India,Gujarat,Ahmedabad,"SVPI Airport Hansol, Ahmedabad - IITM",25-06-2024 07:00:00,23.076793,72.627874,NO2,19,38,28
India,Gujarat,Ahmedabad,"SVPI Airport Hansol, Ahmedabad - IITM",25-06-2024 07:00:00,23.076793,72.627874,SO2,10,31,25
India,Gujarat,Ankleshwar,"GIDC, Ankleshwar - GPCB",25-06-2024 07:00:00,21.613267,73.010555,NO2,31,60,46
India,Gujarat,Gandhinagar,"GIFT City, Gandhinagar - IITM",25-06-2024 07:00:00,23.163798,72.677768,SO2,5,23,8
India,Gujarat,Gandhinagar,"Sector-10, Gandhinagar - GPCB",25-06-2024 07:00:00,23.221714,72.654328,OZONE,19,20,19
India,Gujarat,Nandesari,"GIDC, Nandesari - Nandesari Ind. Association",25-06-2024 07:00:00,22.410802,73.097923,SO2,2,21,9
India,Gujarat,Surat,"Science Center, Surat - SMC",25-06-2024 07:00:00,21.170046,72.795405,PM2.5,NA,NA,NA
India,Gujarat,Surat,"Science Center, Surat - SMC",25-06-2024 07:00:00,21.170046,72.795405,SO2,11,14,12
India,Gujarat,Vapi,"Phase-1 GIDC, Vapi - GPCB",25-06-2024 07:00:00,20.362421,72.918013,PM10,32,90,51
India,Gujarat,Vapi,"Phase-1 GIDC, Vapi - GPCB",25-06-2024 07:00:00,20.362421,72.918013,NH3,2,2,2
India,Gujarat,Vatva,"Phase-4 GIDC, Vatva - GPCB",25-06-2024 07:00:00,22.969611,72.643500,SO2,NA,NA,NA
India,Gujarat,Vatva,"Phase-4 GIDC, Vatva - GPCB",25-06-2024 07:00:00,22.969611,72.643500,CO,NA,NA,NA
India,Haryana,Ambala,"Patti Mehar, Ambala - HSPCB",25-06-2024 07:00:00,30.379589,76.778328,PM2.5,5,23,13
India,Haryana,Bahadurgarh,"Arya Nagar, Bahadurgarh - HSPCB",25-06-2024 07:00:00,28.6701,76.9254,OZONE,32,42,36
India,Haryana,Ballabgarh,"Nathu Colony, Ballabgarh - HSPCB",25-06-2024 07:00:00,28.3419248,77.319699,PM10,79,405,136
India,Haryana,Ballabgarh,"Nathu Colony, Ballabgarh - HSPCB",25-06-2024 07:00:00,28.3419248,77.319699,NO2,6,13,12
India,Haryana,Ballabgarh,"Nathu Colony, Ballabgarh - HSPCB",25-06-2024 07:00:00,28.3419248,77.319699,NH3,1,2,2
India,Haryana,Bhiwani,"H.B. Colony, Bhiwani - HSPCB",25-06-2024 07:00:00,28.806223,76.141105,PM10,61,115,87
India,Haryana,Charkhi Dadri,"Mini Secretariat, Charkhi Dadri - HSPCB",25-06-2024 07:00:00,28.593883,76.270653,NO2,14,24,18
India,Haryana,Faridabad,"New Industrial Town, Faridabad - HSPCB",25-06-2024 07:00:00,28.39072,77.30059,PM2.5,60,152,73
India,Haryana,Faridabad,"Sector 11, Faridabad - HSPCB",25-06-2024 07:00:00,28.376058,77.315741,CO,25,51,38
India,Haryana,Faridabad,"Sector 30, Faridabad - HSPCB",25-06-2024 07:00:00,28.4417,77.3217,PM2.5,76,94,83
India,Haryana,Faridabad,"Sector 30, Faridabad - HSPCB",25-06-2024 07:00:00,28.4417,77.3217,SO2,5,16,6
India,Haryana,Faridabad,"Sector- 16A, Faridabad - HSPCB",25-06-2024 07:00:00,28.4088421,77.3099081,CO,27,62,51
India,Haryana,Fatehabad,"Huda Sector, Fatehabad - HSPCB",25-06-2024 07:00:00,29.503664,75.467934,OZONE,13,43,33
India,Haryana,Gurugram,"NISE Gwal Pahari, Gurugram - IMD",25-06-2024 07:00:00,28.422681,77.148944,PM2.5,18,251,56
India,Haryana,Gurugram,"Teri Gram, Gurugram - HSPCB",25-06-2024 07:00:00,28.4275,77.1465,NH3,19,44,27
India,Haryana,Gurugram,"Teri Gram, Gurugram - HSPCB",25-06-2024 07:00:00,28.4275,77.1465,CO,4,91,83
India,Haryana,Gurugram,"Teri Gram, Gurugram - HSPCB",25-06-2024 07:00:00,28.4275,77.1465,OZONE,13,89,15
India,Haryana,Gurugram,"Vikas Sadan, Gurugram - HSPCB",25-06-2024 07:00:00,28.4501238,77.0263051,SO2,6,47,26
India,Haryana,Jind,"Police Lines, Jind - HSPCB",25-06-2024 07:00:00,29.307814,76.337619,PM2.5,44,81,59
India,Haryana,Jind,"Police Lines, Jind - HSPCB",25-06-2024 07:00:00,29.307814,76.337619,SO2,1,22,6
India,Haryana,Kaithal,"Rishi Nagar, Kaithal - HSPCB",25-06-2024 07:00:00,29.8006,76.4155,OZONE,22,83,31
India,Haryana,Karnal,"Sector-12, Karnal - HSPCB",25-06-2024 07:00:00,29.695300,77.002700,PM10,52,112,80
India,Haryana,Karnal,"Sector-12, Karnal - HSPCB",25-06-2024 07:00:00,29.695300,77.002700,NH3,10,13,11
India,Haryana,Kurukshetra,"Sector-7, Kurukshetra - HSPCB",25-06-2024 07:00:00,29.966942,76.875879,PM2.5,74,162,120
India,Haryana,Mandikhera,"General Hospital, Mandikhera - HSPCB",25-06-2024 07:00:00,27.9002,76.9938,NO2,NA,NA,NA
India,Haryana,Narnaul,"Shastri Nagar, Narnaul - HSPCB",25-06-2024 07:00:00,28.060249,76.113115,PM2.5,34,500,64
India,Haryana,Narnaul,"Shastri Nagar, Narnaul - HSPCB",25-06-2024 07:00:00,28.060249,76.113115,NO2,15,86,48
India,Haryana,Narnaul,"Shastri Nagar, Narnaul - HSPCB",25-06-2024 07:00:00,28.060249,76.113115,SO2,47,70,48
India,Haryana,Narnaul,"Shastri Nagar, Narnaul - HSPCB",25-06-2024 07:00:00,28.060249,76.113115,CO,16,50,23
India,Haryana,Palwal,"Shyam Nagar, Palwal - HSPCB",25-06-2024 07:00:00,28.1485564,77.3320667,PM2.5,46,77,62
India,Haryana,Palwal,"Shyam Nagar, Palwal - HSPCB",25-06-2024 07:00:00,28.1485564,77.3320667,NO2,23,24,24
India,Haryana,Panchkula,"Sector-6, Panchkula - HSPCB ",25-06-2024 07:00:00,30.7057778,76.8531805555555,CO,1,14,2
India,Haryana,Panipat,"Sector-18, Panipat - HSPCB",25-06-2024 07:00:00,29.432304,76.972765,PM2.5,119,149,139
India,Haryana,Rohtak,"MD University, Rohtak - HSPCB",25-06-2024 07:00:00,28.52123,76.37138,OZONE,45,55,48
India,Haryana,Sirsa,"F-Block, Sirsa - HSPCB",25-06-2024 07:00:00,29.536400,75.015800,NH3,12,13,13
India,Haryana,Sirsa,"F-Block, Sirsa - HSPCB",25-06-2024 07:00:00,29.536400,75.015800,OZONE,10,134,75
India,Haryana,Sonipat,"Murthal, Sonipat - HSPCB",25-06-2024 07:00:00,29.027200,77.062100,PM2.5,29,500,76
India,Haryana,Sonipat,"Murthal, Sonipat - HSPCB",25-06-2024 07:00:00,29.027200,77.062100,PM10,NA,NA,NA
India,Haryana,Sonipat,"Murthal, Sonipat - HSPCB",25-06-2024 07:00:00,29.027200,77.062100,NO2,37,44,40
India,Haryana,Sonipat,"Murthal, Sonipat - HSPCB",25-06-2024 07:00:00,29.027200,77.062100,OZONE,16,35,19
India,Haryana,Yamuna Nagar,"Gobind Pura, Yamuna Nagar - HSPCB",25-06-2024 07:00:00,30.1480566,77.2893471,OZONE,25,44,29
India,Jammu_and_Kashmir,Srinagar,"Rajbagh, Srinagar - JKSPCB",25-06-2024 07:00:00,34.066206,74.819820,OZONE,12,12,12
India,Jharkhand,Dhanbad,"Kalakusuma, Dhanbad - DMC",25-06-2024 07:00:00,23.811548,86.481238,PM10,12,147,60
India,Jharkhand,Dhanbad,"Kalakusuma, Dhanbad - DMC",25-06-2024 07:00:00,23.811548,86.481238,CO,129,133,131
India,Jharkhand,Dhanbad,"Sardar Patel Nagar, Dhanbad - JSPCB",25-06-2024 07:00:00,23.80569,86.44268,NO2,108,421,149
India,Jharkhand,Pathardih,"Mohalbani Ghat, Pathardih - DMC",25-06-2024 07:00:00,23.669880,86.411725,PM2.5,5,131,14
India,Jharkhand,Pathardih,"Mohalbani Ghat, Pathardih - DMC",25-06-2024 07:00:00,23.669880,86.411725,SO2,NA,NA,NA
India,Karnataka,Bagalkot,"Vidayagiri, Bagalkot - KSPCB",25-06-2024 07:00:00,16.172806,75.659694,PM2.5,25,37,36
India,Karnataka,Belgaum,"Ramteerth Nagar, Belgaum - KSPCB",25-06-2024 07:00:00,15.888653,74.541751,PM10,14,50,24
India,Karnataka,Belgaum,"Ramteerth Nagar, Belgaum - KSPCB",25-06-2024 07:00:00,15.888653,74.541751,OZONE,19,20,19
India,Karnataka,Bengaluru,"Bapuji Nagar, Bengaluru - KSPCB",25-06-2024 07:00:00,12.951913,77.539784,CO,20,26,22
India,Karnataka,Bengaluru,"City Railway Station, Bengaluru - KSPCB",25-06-2024 07:00:00,12.9756843,77.5660749,NO2,25,29,27
India,Karnataka,Bengaluru,"Jigani, Bengaluru - KSPCB",25-06-2024 07:00:00,12.7816279,77.6299145,PM10,NA,NA,NA
India,Karnataka,Bengaluru,"Jigani, Bengaluru - KSPCB",25-06-2024 07:00:00,12.7816279,77.6299145,NO2,NA,NA,NA
India,Karnataka,Bengaluru,"Jigani, Bengaluru - KSPCB",25-06-2024 07:00:00,12.7816279,77.6299145,OZONE,NA,NA,NA
India,Karnataka,Bengaluru,"Kasturi Nagar, Bengaluru - KSPCB",25-06-2024 07:00:00,13.003872,77.664217,PM10,39,53,46
India,Karnataka,Bengaluru,"Peenya, Bengaluru - CPCB",25-06-2024 07:00:00,13.0270199,77.494094,PM2.5,36,46,42
India,Karnataka,Bengaluru,"Peenya, Bengaluru - CPCB",25-06-2024 07:00:00,13.0270199,77.494094,PM10,46,59,54
India,Karnataka,Bengaluru,"RVCE-Mailasandra, Bengaluru - KSPCB",25-06-2024 07:00:00,12.921418,77.502466,NO2,17,17,17
India,Karnataka,Bengaluru,"RVCE-Mailasandra, Bengaluru - KSPCB",25-06-2024 07:00:00,12.921418,77.502466,CO,36,56,46
India,Karnataka,Bengaluru,"Shivapura_Peenya, Bengaluru - KSPCB",25-06-2024 07:00:00,13.0246342,77.5080115,NO2,15,16,15
India,Karnataka,Bengaluru,"Silk Board, Bengaluru - KSPCB",25-06-2024 07:00:00,12.917348,77.622813,NO2,10,29,19
India,Karnataka,Chamarajanagar,"Urban, Chamarajanagar - KSPCB",25-06-2024 07:00:00,11.55358,76.55521,PM2.5,25,40,32
India,Karnataka,Chikkaballapur,"Chikkaballapur Rural, Chikkaballapur - KSPCB",25-06-2024 07:00:00,13.428828,77.731418,NO2,5,8,6
India,Karnataka,Chikkamagaluru,"Kalyana Nagara, Chikkamagaluru - KSPCB",25-06-2024 07:00:00,13.328028,75.797056,OZONE,11,25,15
India,Karnataka,Davanagere,"Devaraj Urs Badavane, Davanagere - KSPCB",25-06-2024 07:00:00,14.475800,75.905200,PM2.5,4,40,19
India,Karnataka,Davanagere,"Devaraj Urs Badavane, Davanagere - KSPCB",25-06-2024 07:00:00,14.475800,75.905200,NH3,1,2,1
India,Karnataka,Dharwad,"Kalabhavan, Dharwad - KSPCB",25-06-2024 07:00:00,15.459706,75.008381,PM2.5,18,65,44
India,Karnataka,Dharwad,"Kalabhavan, Dharwad - KSPCB",25-06-2024 07:00:00,15.459706,75.008381,PM10,26,93,63
India,Karnataka,Gadag,"Panchal Nagar, Gadag - KSPCB",25-06-2024 07:00:00,15.411456,75.638133,PM2.5,2,37,12
India,Karnataka,Hassan,"B.Katihalli, Hassan - KSPCB",25-06-2024 07:00:00,13.008556,76.125258,NH3,1,3,2
India,Karnataka,Hassan,"B.Katihalli, Hassan - KSPCB",25-06-2024 07:00:00,13.008556,76.125258,CO,8,21,12
India,Karnataka,Hassan,"B.Katihalli, Hassan - KSPCB",25-06-2024 07:00:00,13.008556,76.125258,OZONE,9,28,13
India,Karnataka,Haveri,"Ashwini Nagar, Haveri - KSPCB",25-06-2024 07:00:00,14.791800,75.389600,CO,36,38,37
India,Karnataka,Hubballi,"Lingaraj Nagar, Hubballi - KSPCB",25-06-2024 07:00:00,15.3714823,75.1160168,NO2,11,19,14
India,Karnataka,Kalaburagi,"Mahatma Basaveswar Colony, Kalaburgi - KSPCB",25-06-2024 07:00:00,17.336318,76.847397,NO2,8,13,9
India,Karnataka,Karwar,"KHB Colony, Karwar - KSPCB",25-06-2024 07:00:00,14.816666,74.141003,PM10,18,47,30
