country,state,city,station,last_update,latitude,longitude,pollutant_id,pollutant_min,pollutant_max,pollutant_avg
India,Andhra_Pradesh,Amaravati,"Secretariat, Amaravati - APPCB",22-03-2024 08:00:00,16.5150833,80.5181667,PM10,39,114,58
India,Andhra_Pradesh,Chittoor,"Gangineni Cheruvu, Chittoor - APPCB",22-03-2024 08:00:00,13.204880,79.097889,PM10,39,79,54
India,Andhra_Pradesh,Rajamahendravaram,"Anand Kala Kshetram, Rajamahendravaram - APPCB",22-03-2024 08:00:00,16.9872867,81.7363176,NO2,12,49,24
India,Andhra_Pradesh,Rajamahendravaram,"Anand Kala Kshetram, Rajamahendravaram - APPCB",22-03-2024 08:00:00,16.9872867,81.7363176,CO,16,44,32
India,Andhra_Pradesh,Rajamahendravaram,"Anand Kala Kshetram, Rajamahendravaram - APPCB",22-03-2024 08:00:00,16.9872867,81.7363176,OZONE,14,30,17
India,Andhra_Pradesh,Tirupati,"Tirumala, Tirupati - APPCB",22-03-2024 08:00:00,13.67,79.35,OZONE,12,42,16
India,Andhra_Pradesh,Tirupati,"Vaikuntapuram, Tirupati - APPCB",22-03-2024 08:00:00,13.615387,79.409230,SO2,4,5,5
India,Andhra_Pradesh,Tirupati,"Vaikuntapuram, Tirupati - APPCB",22-03-2024 08:00:00,13.615387,79.409230,CO,8,15,13
India,Andhra_Pradesh,Tirupati,"Vaikuntapuram, Tirupati - APPCB",22-03-2024 08:00:00,13.615387,79.409230,OZONE,1,25,4
India,Andhra_Pradesh,Vijayawada,"HB Colony, Vijayawada - APPCB",22-03-2024 08:00:00,16.536107,80.594233,NO2,6,16,10
India,Andhra_Pradesh,Vijayawada,"HB Colony, Vijayawada - APPCB",22-03-2024 08:00:00,16.536107,80.594233,SO2,3,6,4
India,Andhra_Pradesh,Vijayawada,"Kanuru, Vijayawada - APPCB",22-03-2024 08:00:00,16.486692,80.699436,OZONE,28,28,28
India,Andhra_Pradesh,Vijayawada,"Rajiv Gandhi Park, Vijayawada - APPCB",22-03-2024 08:00:00,16.509717,80.612222,PM2.5,44,67,57
India,Andhra_Pradesh,Vijayawada,"Rajiv Gandhi Park, Vijayawada - APPCB",22-03-2024 08:00:00,16.509717,80.612222,SO2,5,12,8
India,Andhra_Pradesh,Visakhapatnam,"GVM Corporation, Visakhapatnam - APPCB",22-03-2024 08:00:00,17.72,83.3,OZONE,1,75,29
India,Arunachal_Pradesh,Naharlagun,"Naharlagun, Naharlagun - APSPCB",22-03-2024 08:00:00,27.103358,93.679645,NO2,3,3,3
India,Arunachal_Pradesh,Naharlagun,"Naharlagun, Naharlagun - APSPCB",22-03-2024 08:00:00,27.103358,93.679645,SO2,4,4,4
India,Arunachal_Pradesh,Naharlagun,"Naharlagun, Naharlagun - APSPCB",22-03-2024 08:00:00,27.103358,93.679645,OZONE,2,2,2
India,Assam,Byrnihat,"Central Academy for SFS, Byrnihat - PCBA",22-03-2024 08:00:00,26.071318,91.87488,PM2.5,52,401,180
India,Assam,Guwahati,"IITG, Guwahati - PCBA",22-03-2024 08:00:00,26.2028636,91.70046436,NH3,5,5,5
India,Assam,Guwahati,"LGBI Airport, Guwahati - PCBA",22-03-2024 08:00:00,26.10887,91.589544,OZONE,2,23,5
India,Assam,Guwahati,"Pan Bazaar, Guwahati - PCBA",22-03-2024 08:00:00,26.187500,91.744194,OZONE,18,18,18
India,Assam,Guwahati,"Railway Colony, Guwahati - PCBA",22-03-2024 08:00:00,26.181742,91.78063,OZONE,1,40,20
India,Assam,Nagaon,"Christianpatty, Nagaon - PCBA",22-03-2024 08:00:00,26.349082,92.68449,NO2,6,32,19
India,Assam,Nalbari,"Bata Chowk, Nalbari - PCBA",22-03-2024 08:00:00,26.446912,91.439057,PM10,21,85,53
India,Assam,Silchar,"Tarapur, Silchar - PCBA",22-03-2024 08:00:00,24.82827,92.79525,SO2,1,8,5
India,Assam,Silchar,"Tarapur, Silchar - PCBA",22-03-2024 08:00:00,24.82827,92.79525,CO,34,46,42
India,Assam,Sivasagar,"Girls College, Sivasagar - PCBA",22-03-2024 08:00:00,26.987634,94.636574,PM2.5,13,40,25
India,Assam,Sivasagar,"Girls College, Sivasagar - PCBA",22-03-2024 08:00:00,26.987634,94.636574,NO2,12,18,15
India,Bihar,Araria,"Kharahiya Basti, Araria - BSPCB",22-03-2024 08:00:00,26.146529,87.454184,PM10,NA,NA,NA
India,Bihar,Arrah,"New DM Office, Arrah - BSPCB",22-03-2024 08:00:00,25.5626095,84.663264,SO2,16,20,18
India,Bihar,Arrah,"New DM Office, Arrah - BSPCB",22-03-2024 08:00:00,25.5626095,84.663264,OZONE,12,46,15
India,Bihar,Bettiah,"Kamalnath Nagar, Bettiah - BSPCB",22-03-2024 08:00:00,26.80365,84.51954,NH3,3,7,3
India,Bihar,Bhagalpur,"DM Office_Kachari Chowk, Bhagalpur - BSPCB",22-03-2024 08:00:00,25.251013,86.989001,PM10,41,123,73
India,Bihar,Bhagalpur,"DM Office_Kachari Chowk, Bhagalpur - BSPCB",22-03-2024 08:00:00,25.251013,86.989001,NH3,7,12,9
India,Bihar,Bhagalpur,"DM Office_Kachari Chowk, Bhagalpur - BSPCB",22-03-2024 08:00:00,25.251013,86.989001,CO,34,69,41
India,Bihar,Bhagalpur,"DM Office_Kachari Chowk, Bhagalpur - BSPCB",22-03-2024 08:00:00,25.251013,86.989001,OZONE,39,60,47
India,Bihar,Bihar Sharif,"D M Colony, Bihar Sharif - BSPCB",22-03-2024 08:00:00,25.204762,85.514960,NO2,8,10,9
India,Bihar,Bihar Sharif,"D M Colony, Bihar Sharif - BSPCB",22-03-2024 08:00:00,25.204762,85.514960,CO,14,54,31
India,Bihar,Chhapra,"Darshan Nagar, Chhapra - BSPCB",22-03-2024 08:00:00,25.7808257,84.7446768,NH3,7,16,11
India,Bihar,Gaya,"Collectorate, Gaya - BSPCB",22-03-2024 08:00:00,24.7955,84.9994,PM2.5,32,212,120
India,Bihar,Hajipur,"Industrial Area, Hajipur - BSPCB",22-03-2024 08:00:00,25.697189,85.245900,NO2,47,122,67
India,Bihar,Hajipur,"Industrial Area, Hajipur - BSPCB",22-03-2024 08:00:00,25.697189,85.245900,OZONE,47,151,76
India,Bihar,Katihar,"Mirchaibari, Katihar - BSPCB",22-03-2024 08:00:00,25.560083,87.553265,PM2.5,NA,NA,NA
India,Bihar,Katihar,"Mirchaibari, Katihar - BSPCB",22-03-2024 08:00:00,25.560083,87.553265,CO,13,13,13
India,Bihar,Katihar,"Mirchaibari, Katihar - BSPCB",22-03-2024 08:00:00,25.560083,87.553265,OZONE,13,29,18
India,Bihar,Manguraha,"Forest Rest House, Manguraha - BSPCB",22-03-2024 08:00:00,27.308328,84.531742,PM2.5,NA,NA,NA
India,Bihar,Manguraha,"Forest Rest House, Manguraha - BSPCB",22-03-2024 08:00:00,27.308328,84.531742,PM10,NA,NA,NA
India,Bihar,Manguraha,"Forest Rest House, Manguraha - BSPCB",22-03-2024 08:00:00,27.308328,84.531742,CO,24,26,26
India,Bihar,Motihari,"Gandak Colony, Motihari - BSPCB",22-03-2024 08:00:00,26.63086,84.90051,PM2.5,20,57,33
India,Bihar,Motihari,"Gandak Colony, Motihari - BSPCB",22-03-2024 08:00:00,26.63086,84.90051,SO2,12,22,16
India,Bihar,Motihari,"Gandak Colony, Motihari - BSPCB",22-03-2024 08:00:00,26.63086,84.90051,CO,110,139,130
India,Bihar,Munger,"Town Hall, Munger - BSPCB",22-03-2024 08:00:00,25.376776,86.471523,PM10,NA,NA,NA
India,Bihar,Muzaffarpur,"MIT-Daudpur Kothi, Muzaffarpur - BSPCB",22-03-2024 08:00:00,26.1403345,85.3650192,NH3,1,2,1
India,Bihar,Muzaffarpur,"MIT-Daudpur Kothi, Muzaffarpur - BSPCB",22-03-2024 08:00:00,26.1403345,85.3650192,SO2,7,13,10
India,Bihar,Muzaffarpur,"Muzaffarpur Collectorate, Muzaffarpur - BSPCB",22-03-2024 08:00:00,26.1209,85.3647,SO2,3,7,6
India,Bihar,Patna,"DRM Office Danapur, Patna - BSPCB",22-03-2024 08:00:00,25.586562,85.043586,OZONE,1,41,3
India,Bihar,Patna,"Govt. High School Shikarpur, Patna - BSPCB",22-03-2024 08:00:00,25.592539,85.227158,NO2,19,28,22
India,Bihar,Patna,"Govt. High School Shikarpur, Patna - BSPCB",22-03-2024 08:00:00,25.592539,85.227158,NH3,3,5,5
India,Bihar,Patna,"Govt. High School Shikarpur, Patna - BSPCB",22-03-2024 08:00:00,25.592539,85.227158,CO,16,100,46
India,Bihar,Patna,"Muradpur, Patna - BSPCB",22-03-2024 08:00:00,25.619651,85.147382,CO,23,110,48
India,Bihar,Purnia,"Mariam Nagar, Purnia - BSPCB",22-03-2024 08:00:00,25.366336,87.117468,OZONE,5,17,9
India,Bihar,Rajgir,"Dangi Tola, Rajgir - BSPCB",22-03-2024 08:00:00,25.03280,85.41948,PM2.5,3,88,43
India,Bihar,Rajgir,"Dangi Tola, Rajgir - BSPCB",22-03-2024 08:00:00,25.03280,85.41948,CO,8,11,10
India,Bihar,Saharsa,"Police Line, Saharsa - BSPCB",22-03-2024 08:00:00,25.892357,86.590325,PM2.5,30,200,67
India,Bihar,Saharsa,"Police Line, Saharsa - BSPCB",22-03-2024 08:00:00,25.892357,86.590325,NH3,9,9,9
India,Bihar,Samastipur,"DM Office_Kasipur, Samastipur - BSPCB",22-03-2024 08:00:00,25.859655,85.77944,PM2.5,NA,NA,NA
India,Bihar,Samastipur,"DM Office_Kasipur, Samastipur - BSPCB",22-03-2024 08:00:00,25.859655,85.77944,PM10,20,165,71
India,Bihar,Samastipur,"DM Office_Kasipur, Samastipur - BSPCB",22-03-2024 08:00:00,25.859655,85.77944,CO,2,30,27
India,Bihar,Sasaram,"Dada Peer, Sasaram - BSPCB",22-03-2024 08:00:00,24.952822,84.002396,PM2.5,19,98,42
India,Chandigarh,Chandigarh,"Sector 22, Chandigarh - CPCC",22-03-2024 08:00:00,30.735567,76.775714,NO2,19,85,38
India,Chhattisgarh,Bhilai,"32Bungalows, Bhilai - CECB",22-03-2024 08:00:00,21.194815,81.314770,PM2.5,19,73,38
India,Chhattisgarh,Bhilai,"32Bungalows, Bhilai - CECB",22-03-2024 08:00:00,21.194815,81.314770,PM10,29,81,47
India,Chhattisgarh,Bhilai,"Hathkhoj, Bhilai - CECB",22-03-2024 08:00:00,21.224231,81.408350,PM10,59,194,92
India,Chhattisgarh,Bhilai,"Hathkhoj, Bhilai - CECB",22-03-2024 08:00:00,21.224231,81.408350,NH3,7,8,8
India,Chhattisgarh,Korba,"Urja Nagar, Korba - CECB",22-03-2024 08:00:00,22.348441,82.549611,NO2,64,75,68
India,Chhattisgarh,Korba,"Urja Nagar, Korba - CECB",22-03-2024 08:00:00,22.348441,82.549611,NH3,4,8,6
India,Chhattisgarh,Kunjemura,"OP Jindal School, Kunjemura - CECB",22-03-2024 08:00:00,22.126650,83.483212,NO2,13,85,43
India,Chhattisgarh,Kunjemura,"OP Jindal School, Kunjemura - CECB",22-03-2024 08:00:00,22.126650,83.483212,NH3,1,4,2
India,Chhattisgarh,Kunjemura,"OP Jindal School, Kunjemura - CECB",22-03-2024 08:00:00,22.126650,83.483212,OZONE,4,79,10
India,Chhattisgarh,Milupara,"Govt. Higher Secondary School, Milupara - CECB",22-03-2024 08:00:00,22.1910172,83.5197009,OZONE,2,41,11
India,Chhattisgarh,Raipur,"AIIMS, Raipur - CECB",22-03-2024 08:00:00,21.258815,81.578979,PM2.5,21,76,44
India,Chhattisgarh,Raipur,"AIIMS, Raipur - CECB",22-03-2024 08:00:00,21.258815,81.578979,NH3,5,6,5
India,Chhattisgarh,Raipur,"Bhatagaon New ISBT, Raipur - CECB",22-03-2024 08:00:00,21.219665,81.630094,CO,20,98,65
India,Chhattisgarh,Raipur,"Krishak Nagar, Raipur - CECB",22-03-2024 08:00:00,21.237755,81.705301,SO2,5,28,14
India,Chhattisgarh,Raipur,"Siltara Phase-II, Raipur - CECB",22-03-2024 08:00:00,21.371751,81.664929,PM2.5,NA,NA,NA
India,Chhattisgarh,Tumidih,"OP Jindal Industrial Park, Tumidih - CECB",22-03-2024 08:00:00,22.06631475,83.33820077,PM10,9,202,66
India,Delhi,Delhi,"Alipur, Delhi - DPCC",22-03-2024 08:00:00,28.815329,77.153010,NH3,7,10,8
India,Delhi,Delhi,"Ashok Vihar, Delhi - DPCC",22-03-2024 08:00:00,28.695381,77.181665,NH3,14,17,15
India,Delhi,Delhi,"Ashok Vihar, Delhi - DPCC",22-03-2024 08:00:00,28.695381,77.181665,OZONE,3,15,4
India,Delhi,Delhi,"Burari Crossing, Delhi - IMD",22-03-2024 08:00:00,28.7256504,77.2011573,NO2,NA,NA,NA
India,Delhi,Delhi,"Burari Crossing, Delhi - IMD",22-03-2024 08:00:00,28.7256504,77.2011573,CO,NA,NA,NA
India,Delhi,Delhi,"CRRI Mathura Road, Delhi - IMD",22-03-2024 08:00:00,28.5512005,77.2735737,PM2.5,70,215,108
India,Delhi,Delhi,"CRRI Mathura Road, Delhi - IMD",22-03-2024 08:00:00,28.5512005,77.2735737,NO2,4,20,9
India,Delhi,Delhi,"Chandni Chowk, Delhi - IITM",22-03-2024 08:00:00,28.656756,77.227234,SO2,12,49,33
India,Delhi,Delhi,"Dr. Karni Singh Shooting Range, Delhi - DPCC",22-03-2024 08:00:00,28.498571,77.264840,CO,30,58,45
India,Delhi,Delhi,"Dwarka-Sector 8, Delhi - DPCC ",22-03-2024 08:00:00,28.5710274,77.0719006,NH3,4,9,5
India,Delhi,Delhi,"IHBAS, Dilshad Garden, Delhi - CPCB",22-03-2024 08:00:00,28.6811736,77.3025234,NH3,1,9,4
India,Delhi,Delhi,"IHBAS, Dilshad Garden, Delhi - CPCB",22-03-2024 08:00:00,28.6811736,77.3025234,CO,34,72,56
India,Delhi,Delhi,"Jahangirpuri, Delhi - DPCC",22-03-2024 08:00:00,28.732820,77.170633,NO2,32,87,56
India,Delhi,Delhi,"Jahangirpuri, Delhi - DPCC",22-03-2024 08:00:00,28.732820,77.170633,SO2,3,18,12
India,Delhi,Delhi,"Jahangirpuri, Delhi - DPCC",22-03-2024 08:00:00,28.732820,77.170633,CO,57,96,67
India,Delhi,Delhi,"Jawaharlal Nehru Stadium, Delhi - DPCC",22-03-2024 08:00:00,28.580280,77.233829,OZONE,10,145,19
India,Delhi,Delhi,"Lodhi Road, Delhi - IITM",22-03-2024 08:00:00,28.588333,77.221667,PM10,14,184,36
India,Delhi,Delhi,"Lodhi Road, Delhi - IITM",22-03-2024 08:00:00,28.588333,77.221667,NH3,8,9,9
India,Delhi,Delhi,"Lodhi Road, Delhi - IMD",22-03-2024 08:00:00,28.5918245,77.2273074,CO,18,26,22
India,Delhi,Delhi,"Major Dhyan Chand National Stadium, Delhi - DPCC",22-03-2024 08:00:00,28.611281,77.237738,PM10,91,140,124
India,Delhi,Delhi,"Major Dhyan Chand National Stadium, Delhi - DPCC",22-03-2024 08:00:00,28.611281,77.237738,NO2,32,100,60
India,Delhi,Delhi,"Mandir Marg, Delhi - DPCC",22-03-2024 08:00:00,28.636429,77.201067,NH3,6,7,7
India,Delhi,Delhi,"Mundka, Delhi - DPCC",22-03-2024 08:00:00,28.684678,77.076574,CO,27,73,46
India,Delhi,Delhi,"NSIT Dwarka, Delhi - CPCB",22-03-2024 08:00:00,28.60909,77.0325413,NO2,21,38,26
India,Delhi,Delhi,"NSIT Dwarka, Delhi - CPCB",22-03-2024 08:00:00,28.60909,77.0325413,CO,34,96,56
India,Delhi,Delhi,"NSIT Dwarka, Delhi - CPCB",22-03-2024 08:00:00,28.60909,77.0325413,OZONE,9,48,19
India,Delhi,Delhi,"Najafgarh, Delhi - DPCC",22-03-2024 08:00:00,28.570173,76.933762,CO,38,66,51
India,Delhi,Delhi,"Najafgarh, Delhi - DPCC",22-03-2024 08:00:00,28.570173,76.933762,OZONE,42,182,50
India,Delhi,Delhi,"Nehru Nagar, Delhi - DPCC",22-03-2024 08:00:00,28.567890,77.250515,PM2.5,81,232,136
India,Delhi,Delhi,"Nehru Nagar, Delhi - DPCC",22-03-2024 08:00:00,28.567890,77.250515,NH3,7,12,9
India,Delhi,Delhi,"New Moti Bagh, Delhi - MHUA",22-03-2024 08:00:00,28.57834,77.18400,PM2.5,99,303,156
India,Delhi,Delhi,"North Campus, DU, Delhi - IMD",22-03-2024 08:00:00,28.6573814,77.1585447,PM2.5,NA,NA,NA
India,Delhi,Delhi,"North Campus, DU, Delhi - IMD",22-03-2024 08:00:00,28.6573814,77.1585447,CO,NA,NA,NA
India,Delhi,Delhi,"Okhla Phase-2, Delhi - DPCC",22-03-2024 08:00:00,28.530785,77.271255,PM2.5,83,232,114
India,Delhi,Delhi,"Patparganj, Delhi - DPCC",22-03-2024 08:00:00,28.623763,77.287209,PM10,124,200,153
India,Delhi,Delhi,"Patparganj, Delhi - DPCC",22-03-2024 08:00:00,28.623763,77.287209,OZONE,20,91,27
India,Delhi,Delhi,"Punjabi Bagh, Delhi - DPCC",22-03-2024 08:00:00,28.674045,77.131023,NO2,44,70,53
India,Delhi,Delhi,"Pusa, Delhi - DPCC",22-03-2024 08:00:00,28.639652,77.146275,NO2,34,118,59
India,Delhi,Delhi,"Pusa, Delhi - DPCC",22-03-2024 08:00:00,28.639652,77.146275,OZONE,14,106,25
India,Delhi,Delhi,"Shadipur, Delhi - CPCB",22-03-2024 08:00:00,28.6514781,77.1473105,OZONE,13,274,39
India,Delhi,Delhi,"Sirifort, Delhi - CPCB",22-03-2024 08:00:00,28.5504249,77.2159377,NH3,1,5,2
India,Delhi,Delhi,"Sirifort, Delhi - CPCB",22-03-2024 08:00:00,28.5504249,77.2159377,OZONE,6,77,8
India,Delhi,Delhi,"Sonia Vihar, Delhi - DPCC",22-03-2024 08:00:00,28.710508,77.249485,PM10,128,192,164
India,Delhi,Delhi,"Sonia Vihar, Delhi - DPCC",22-03-2024 08:00:00,28.710508,77.249485,CO,52,86,57
India,Delhi,Delhi,"Sri Aurobindo Marg, Delhi - DPCC",22-03-2024 08:00:00,28.531346,77.190156,NO2,26,86,42
India,Delhi,Delhi,"Sri Aurobindo Marg, Delhi - DPCC",22-03-2024 08:00:00,28.531346,77.190156,NH3,7,9,8
India,Delhi,Delhi,"Vivek Vihar, Delhi - DPCC",22-03-2024 08:00:00,28.672342,77.315260,SO2,NA,NA,NA
India,Delhi,Delhi,"Vivek Vihar, Delhi - DPCC",22-03-2024 08:00:00,28.672342,77.315260,CO,NA,NA,NA
India,Delhi,Delhi,"Wazirpur, Delhi - DPCC",22-03-2024 08:00:00,28.699793,77.165453,PM10,131,268,177
India,Gujarat,Ahmedabad,"Chandkheda, Ahmedabad - IITM",22-03-2024 08:00:00,23.107969,72.574648,SO2,5,41,13
India,Gujarat,Ahmedabad,"Rakhial, Ahmedabad - IITM",22-03-2024 08:00:00,23.016834,72.625775,PM2.5,86,320,186
India,Gujarat,Ahmedabad,"Rakhial, Ahmedabad - IITM",22-03-2024 08:00:00,23.016834,72.625775,SO2,5,16,8
India,Gujarat,Ahmedabad,"Rakhial, Ahmedabad - IITM",22-03-2024 08:00:00,23.016834,72.625775,CO,10,84,37
India,Gujarat,Ahmedabad,"SAC ISRO Satellite, Ahmedabad - IITM",22-03-2024 08:00:00,23.023389,72.515201,OZONE,10,28,13
India,Gujarat,Ahmedabad,"SVPI Airport Hansol, Ahmedabad - IITM",22-03-2024 08:00:00,23.076793,72.627874,PM2.5,58,275,122
India,Gujarat,Ahmedabad,"SVPI Airport Hansol, Ahmedabad - IITM",22-03-2024 08:00:00,23.076793,72.627874,PM10,90,237,136
India,Gujarat,Ahmedabad,"SVPI Airport Hansol, Ahmedabad - IITM",22-03-2024 08:00:00,23.076793,72.627874,NH3,4,5,4
India,Gujarat,Ahmedabad,"SVPI Airport Hansol, Ahmedabad - IITM",22-03-2024 08:00:00,23.076793,72.627874,OZONE,NA,NA,NA
India,Gujarat,Ahmedabad,"Sardar Vallabhbhai Patel Stadium, Ahmedabad - IITM",22-03-2024 08:00:00,23.043070,72.562968,SO2,1,12,7
India,Gujarat,Ankleshwar,"GIDC, Ankleshwar - GPCB",22-03-2024 08:00:00,21.613267,73.010555,CO,2,105,100
India,Gujarat,Ankleshwar,"GIDC, Ankleshwar - GPCB",22-03-2024 08:00:00,21.613267,73.010555,OZONE,17,50,22
India,Gujarat,Gandhinagar,"GIFT City, Gandhinagar - IITM",22-03-2024 08:00:00,23.163798,72.677768,PM10,91,192,138
India,Gujarat,Gandhinagar,"IIPHG Lekawada, Gandhinagar - IITM",22-03-2024 08:00:00,23.243639,72.68994,PM2.5,49,192,100
India,Gujarat,Gandhinagar,"IIPHG Lekawada, Gandhinagar - IITM",22-03-2024 08:00:00,23.243639,72.68994,NO2,38,59,46
India,Gujarat,Gandhinagar,"IIPHG Lekawada, Gandhinagar - IITM",22-03-2024 08:00:00,23.243639,72.68994,NH3,6,7,7
India,Gujarat,Gandhinagar,"IIPHG Lekawada, Gandhinagar - IITM",22-03-2024 08:00:00,23.243639,72.68994,CO,22,24,23
India,Gujarat,Gandhinagar,"IIPHG Lekawada, Gandhinagar - IITM",22-03-2024 08:00:00,23.243639,72.68994,OZONE,10,67,10
India,Gujarat,Nandesari,"GIDC, Nandesari - Nandesari Ind. Association",22-03-2024 08:00:00,22.410802,73.097923,SO2,2,15,9
India,Gujarat,Vapi,"Phase-1 GIDC, Vapi - GPCB",22-03-2024 08:00:00,20.362421,72.918013,PM10,65,246,142
India,Gujarat,Vapi,"Phase-1 GIDC, Vapi - GPCB",22-03-2024 08:00:00,20.362421,72.918013,NH3,2,2,2
India,Gujarat,Vatva,"Phase-4 GIDC, Vatva - GPCB",22-03-2024 08:00:00,22.969611,72.643500,NO2,54,231,124
India,Gujarat,Vatva,"Phase-4 GIDC, Vatva - GPCB",22-03-2024 08:00:00,22.969611,72.643500,NH3,1,13,5
India,Haryana,Ambala,"Patti Mehar, Ambala - HSPCB",22-03-2024 08:00:00,30.379589,76.778328,NO2,NA,NA,NA
India,Haryana,Ballabgarh,"Nathu Colony, Ballabgarh - HSPCB",22-03-2024 08:00:00,28.3419248,77.319699,SO2,1,25,9
India,Haryana,Bhiwani,"H.B. Colony, Bhiwani - HSPCB",22-03-2024 08:00:00,28.806223,76.141105,NO2,5,11,8
India,Haryana,Charkhi Dadri,"Mini Secretariat, Charkhi Dadri - HSPCB",22-03-2024 08:00:00,28.593883,76.270653,PM10,105,154,123
India,Haryana,Charkhi Dadri,"Mini Secretariat, Charkhi Dadri - HSPCB",22-03-2024 08:00:00,28.593883,76.270653,NO2,15,23,18
India,Haryana,Charkhi Dadri,"Mini Secretariat, Charkhi Dadri - HSPCB",22-03-2024 08:00:00,28.593883,76.270653,CO,28,60,45
India,Haryana,Faridabad,"New Industrial Town, Faridabad - HSPCB",22-03-2024 08:00:00,28.39072,77.30059,NO2,10,25,16
India,Haryana,Faridabad,"New Industrial Town, Faridabad - HSPCB",22-03-2024 08:00:00,28.39072,77.30059,CO,8,36,24
India,Haryana,Faridabad,"New Industrial Town, Faridabad - HSPCB",22-03-2024 08:00:00,28.39072,77.30059,OZONE,10,118,29
India,Haryana,Faridabad,"Sector 11, Faridabad - HSPCB",22-03-2024 08:00:00,28.376058,77.315741,PM2.5,69,265,144
India,Haryana,Faridabad,"Sector 11, Faridabad - HSPCB",22-03-2024 08:00:00,28.376058,77.315741,NO2,30,32,31
India,Haryana,Faridabad,"Sector 30, Faridabad - HSPCB",22-03-2024 08:00:00,28.4417,77.3217,PM10,138,150,144
India,Haryana,Faridabad,"Sector 30, Faridabad - HSPCB",22-03-2024 08:00:00,28.4417,77.3217,NH3,9,9,9
India,Haryana,Faridabad,"Sector- 16A, Faridabad - HSPCB",22-03-2024 08:00:00,28.4088421,77.3099081,PM2.5,109,279,175
India,Haryana,Faridabad,"Sector- 16A, Faridabad - HSPCB",22-03-2024 08:00:00,28.4088421,77.3099081,NO2,3,18,11
India,Haryana,Fatehabad,"Huda Sector, Fatehabad - HSPCB",22-03-2024 08:00:00,29.503664,75.467934,PM10,94,143,114
India,Haryana,Fatehabad,"Huda Sector, Fatehabad - HSPCB",22-03-2024 08:00:00,29.503664,75.467934,NH3,13,13,13
India,Haryana,Fatehabad,"Huda Sector, Fatehabad - HSPCB",22-03-2024 08:00:00,29.503664,75.467934,CO,5,14,7
India,Haryana,Gurugram,"Teri Gram, Gurugram - HSPCB",22-03-2024 08:00:00,28.4275,77.1465,CO,19,23,21
India,Haryana,Gurugram,"Vikas Sadan, Gurugram - HSPCB",22-03-2024 08:00:00,28.4501238,77.0263051,SO2,32,51,41
India,Haryana,Jind,"Police Lines, Jind - HSPCB",22-03-2024 08:00:00,29.307814,76.337619,SO2,9,23,17
India,Haryana,Jind,"Police Lines, Jind - HSPCB",22-03-2024 08:00:00,29.307814,76.337619,CO,2,103,15
India,Haryana,Jind,"Police Lines, Jind - HSPCB",22-03-2024 08:00:00,29.307814,76.337619,OZONE,13,43,18
India,Haryana,Kaithal,"Rishi Nagar, Kaithal - HSPCB",22-03-2024 08:00:00,29.8006,76.4155,SO2,4,103,27
India,Haryana,Karnal,"Sector-12, Karnal - HSPCB",22-03-2024 08:00:00,29.695300,77.002700,PM10,NA,NA,NA
India,Haryana,Kurukshetra,"Sector-7, Kurukshetra - HSPCB",22-03-2024 08:00:00,29.966942,76.875879,PM2.5,48,91,65
India,Haryana,Mandikhera,"General Hospital, Mandikhera - HSPCB",22-03-2024 08:00:00,27.9002,76.9938,PM2.5,30,62,47
India,Haryana,Mandikhera,"General Hospital, Mandikhera - HSPCB",22-03-2024 08:00:00,27.9002,76.9938,NO2,20,24,22
India,Haryana,Manesar,"Sector-2 IMT, Manesar - HSPCB",22-03-2024 08:00:00,28.360699,76.936090,PM2.5,54,80,66
India,Haryana,Manesar,"Sector-2 IMT, Manesar - HSPCB",22-03-2024 08:00:00,28.360699,76.936090,CO,17,27,24
India,Haryana,Narnaul,"Shastri Nagar, Narnaul - HSPCB",22-03-2024 08:00:00,28.060249,76.113115,PM2.5,13,127,80
India,Haryana,Narnaul,"Shastri Nagar, Narnaul - HSPCB",22-03-2024 08:00:00,28.060249,76.113115,NO2,12,75,34
India,Haryana,Narnaul,"Shastri Nagar, Narnaul - HSPCB",22-03-2024 08:00:00,28.060249,76.113115,OZONE,23,62,39
India,Haryana,Palwal,"Shyam Nagar, Palwal - HSPCB",22-03-2024 08:00:00,28.1485564,77.3320667,NO2,23,24,24
India,Haryana,Palwal,"Shyam Nagar, Palwal - HSPCB",22-03-2024 08:00:00,28.1485564,77.3320667,OZONE,8,38,11
India,Haryana,Panchkula,"Sector-6, Panchkula - HSPCB ",22-03-2024 08:00:00,30.7057778,76.8531805555555,CO,2,11,9
India,Haryana,Panipat,"Sector-18, Panipat - HSPCB",22-03-2024 08:00:00,29.497973,76.993331,SO2,18,19,19
India,Haryana,Panipat,"Sector-18, Panipat - HSPCB",22-03-2024 08:00:00,29.497973,76.993331,CO,24,26,25
India,Haryana,Sirsa,"F-Block, Sirsa - HSPCB",22-03-2024 08:00:00,29.536400,75.015800,PM10,88,157,114
India,Haryana,Sirsa,"F-Block, Sirsa - HSPCB",22-03-2024 08:00:00,29.536400,75.015800,SO2,1,62,36
India,Haryana,Sirsa,"F-Block, Sirsa - HSPCB",22-03-2024 08:00:00,29.536400,75.015800,CO,38,56,52
India,Haryana,Sonipat,"Murthal, Sonipat - HSPCB",22-03-2024 08:00:00,29.027200,77.062100,SO2,13,29,18
India,Jharkhand,Dhanbad,"Kalakusuma, Dhanbad - DMC",22-03-2024 08:00:00,23.811548,86.481238,PM2.5,3,17,10
India,Jharkhand,Dhanbad,"Kalakusuma, Dhanbad - DMC",22-03-2024 08:00:00,23.811548,86.481238,CO,129,134,132
India,Karnataka,Bagalkot,"Vidayagiri, Bagalkot - KSPCB",22-03-2024 08:00:00,16.172806,75.659694,PM2.5,25,37,36
India,Karnataka,Bagalkot,"Vidayagiri, Bagalkot - KSPCB",22-03-2024 08:00:00,16.172806,75.659694,NO2,9,10,9
India,Karnataka,Bengaluru,"BTM Layout, Bengaluru - CPCB",22-03-2024 08:00:00,12.9135218,77.5950804,PM2.5,NA,NA,NA
India,Karnataka,Bengaluru,"BTM Layout, Bengaluru - CPCB",22-03-2024 08:00:00,12.9135218,77.5950804,PM10,NA,NA,NA
India,Karnataka,Bengaluru,"BTM Layout, Bengaluru - CPCB",22-03-2024 08:00:00,12.9135218,77.5950804,NH3,NA,NA,NA
India,Karnataka,Bengaluru,"Bapuji Nagar, Bengaluru - KSPCB",22-03-2024 08:00:00,12.951913,77.539784,SO2,NA,NA,NA
India,Karnataka,Bengaluru,"Hebbal, Bengaluru - KSPCB",22-03-2024 08:00:00,13.029152,77.585901,PM2.5,NA,NA,NA
India,Karnataka,Bengaluru,"Hebbal, Bengaluru - KSPCB",22-03-2024 08:00:00,13.029152,77.585901,SO2,NA,NA,NA
India,Karnataka,Bengaluru,"Hombegowda Nagar, Bengaluru - KSPCB",22-03-2024 08:00:00,12.938539,77.590100,PM10,43,96,60
India,Karnataka,Bengaluru,"Jigani, Bengaluru - KSPCB",22-03-2024 08:00:00,12.7816279,77.6299145,PM2.5,13,163,68
India,Karnataka,Bengaluru,"Jigani, Bengaluru - KSPCB",22-03-2024 08:00:00,12.7816279,77.6299145,PM10,33,117,78
India,Karnataka,Bengaluru,"Jigani, Bengaluru - KSPCB",22-03-2024 08:00:00,12.7816279,77.6299145,NO2,31,32,32
India,Karnataka,Bengaluru,"Peenya, Bengaluru - CPCB",22-03-2024 08:00:00,13.0270199,77.494094,NO2,8,22,14
India,Karnataka,Bengaluru,"RVCE-Mailasandra, Bengaluru - KSPCB",22-03-2024 08:00:00,12.921418,77.502466,SO2,8,11,9
India,Karnataka,Bengaluru,"Shivapura_Peenya, Bengaluru - KSPCB",22-03-2024 08:00:00,13.0246342,77.5080115,OZONE,53,56,54
India,Karnataka,Bengaluru,"Silk Board, Bengaluru - KSPCB",22-03-2024 08:00:00,12.917348,77.622813,OZONE,28,31,30
India,Karnataka,Bidar,"Naubad, Bidar - KSPCB",22-03-2024 08:00:00,17.930306,77.482194,NH3,2,3,3
India,Karnataka,Chikkaballapur,"Chikkaballapur Rural, Chikkaballapur - KSPCB",22-03-2024 08:00:00,13.428828,77.731418,NO2,7,14,9
India,Karnataka,Chikkaballapur,"Chikkaballapur Rural, Chikkaballapur - KSPCB",22-03-2024 08:00:00,13.428828,77.731418,NH3,1,1,1
India,Karnataka,Chikkamagaluru,"Kalyana Nagara, Chikkamagaluru - KSPCB",22-03-2024 08:00:00,13.328028,75.797056,PM2.5,8,79,36
India,Karnataka,Chikkamagaluru,"Kalyana Nagara, Chikkamagaluru - KSPCB",22-03-2024 08:00:00,13.328028,75.797056,CO,11,150,42
India,Karnataka,Davanagere,"Devaraj Urs Badavane, Davanagere - KSPCB",22-03-2024 08:00:00,14.475800,75.905200,PM2.5,41,103,73
India,Karnataka,Davanagere,"Devaraj Urs Badavane, Davanagere - KSPCB",22-03-2024 08:00:00,14.475800,75.905200,NO2,11,15,13
India,Karnataka,Dharwad,"Kalabhavan, Dharwad - KSPCB",22-03-2024 08:00:00,15.459706,75.008381,NO2,2,33,19
India,Karnataka,Hassan,"B.Katihalli, Hassan - KSPCB",22-03-2024 08:00:00,13.008556,76.125258,PM2.5,45,87,67
India,Karnataka,Hassan,"B.Katihalli, Hassan - KSPCB",22-03-2024 08:00:00,13.008556,76.125258,NH3,2,6,4
India,Karnataka,Hassan,"B.Katihalli, Hassan - KSPCB",22-03-2024 08:00:00,13.008556,76.125258,CO,6,30,15
India,Karnataka,Kalaburagi,"Lal Bahadur Shastri Nagar, Kalaburagi - KSPCB",22-03-2024 08:00:00,17.321993,76.822628,NH3,2,3,2
India,Karnataka,Kalaburagi,"Lal Bahadur Shastri Nagar, Kalaburagi - KSPCB",22-03-2024 08:00:00,17.321993,76.822628,OZONE,2,69,23
India,Karnataka,Kalaburagi,"Mahatma Basaveswar Colony, Kalaburgi - KSPCB",22-03-2024 08:00:00,17.336318,76.847397,PM2.5,20,66,38
India,Karnataka,Karwar,"KHB Colony, Karwar - KSPCB",22-03-2024 08:00:00,14.816666,74.141003,PM2.5,52,287,90
India,Karnataka,Karwar,"KHB Colony, Karwar - KSPCB",22-03-2024 08:00:00,14.816666,74.141003,NO2,1,12,5
India,Karnataka,Karwar,"KHB Colony, Karwar - KSPCB",22-03-2024 08:00:00,14.816666,74.141003,NH3,1,4,2
India,Karnataka,Karwar,"KHB Colony, Karwar - KSPCB",22-03-2024 08:00:00,14.816666,74.141003,SO2,18,21,19
India,Karnataka,Kolar,"Tamaka Ind. Area, Kolar - KSPCB",22-03-2024 08:00:00,13.1276288,78.1570122,PM10,41,128,77
India,Karnataka,Kolar,"Tamaka Ind. Area, Kolar - KSPCB",22-03-2024 08:00:00,13.1276288,78.1570122,NH3,5,26,16
India,Karnataka,Kolar,"Tamaka Ind. Area, Kolar - KSPCB",22-03-2024 08:00:00,13.1276288,78.1570122,SO2,8,17,13
India,Karnataka,Kolar,"Tamaka Ind. Area, Kolar - KSPCB",22-03-2024 08:00:00,13.1276288,78.1570122,OZONE,13,14,13
India,Karnataka,Koppal,"Diwator Nagar, Koppal - KSPCB",22-03-2024 08:00:00,15.347630,76.181767,SO2,69,72,70
India,Karnataka,Madikeri,"Stuart Hill, Madikeri - KSPCB",22-03-2024 08:00:00,12.415911,75.735050,PM10,39,61,50
India,Karnataka,Madikeri,"Stuart Hill, Madikeri - KSPCB",22-03-2024 08:00:00,12.415911,75.735050,NO2,2,17,5
India,Karnataka,Mysuru,"Hebbal 1st Stage, Mysuru - KSPCB",22-03-2024 08:00:00,12.21041,76.37376,SO2,2,9,5
India,Karnataka,Ramanagara,"Vijay Nagar, Ramanagara - KSPCB",22-03-2024 08:00:00,12.733409,77.298051,NO2,1,6,3
India,Karnataka,Shivamogga,"Vinoba Nagara, Shivamogga - KSPCB",22-03-2024 08:00:00,13.940000,75.555917,NH3,2,4,3
India,Karnataka,Udupi,"Brahmagiri, Udupi - KSPCB",22-03-2024 08:00:00,13.34194444,74.74694444,PM2.5,34,87,56
India,Karnataka,Vijayapura,"Ibrahimpur, Vijayapura - KSPCB",22-03-2024 08:00:00,16.802639,75.722694,PM2.5,26,31,30
India,Karnataka,Vijayapura,"Ibrahimpur, Vijayapura - KSPCB",22-03-2024 08:00:00,16.802639,75.722694,SO2,2,76,22
India,Karnataka,Yadgir,"Collector Office, Yadgir - KSPCB",22-03-2024 08:00:00,16.7602,77.1428,PM2.5,40,62,46
India,Kerala,Kannur,"Thavakkara, Kannur - Kerala PCB",22-03-2024 08:00:00,11.875000,75.373200,NO2,6,7,6
India,Kerala,Thiruvananthapuram,"Plammoodu, Thiruvananthapuram - Kerala PCB",22-03-2024 08:00:00,8.5149093,76.9435879,NH3,2,2,2
India,Kerala,Thiruvananthapuram,"Plammoodu, Thiruvananthapuram - Kerala PCB",22-03-2024 08:00:00,8.5149093,76.9435879,SO2,3,16,8
India,Kerala,Thrissur,"Corporation Ground, Thrissur - Kerala PCB",22-03-2024 08:00:00,10.532400,76.215900,PM2.5,44,52,47
India,Madhya Pradesh,Bhopal,"Idgah Hills, Bhopal - MPPCB",22-03-2024 08:00:00,23.264759,77.381568,PM2.5,23,90,49
India,Madhya Pradesh,Dewas,"Bhopal Chauraha, Dewas - MPPCB",22-03-2024 08:00:00,22.9682591,76.064118,CO,14,52,24
India,Madhya Pradesh,Gwalior,"City Center, Gwalior - MPPCB",22-03-2024 08:00:00,26.203442,78.193251,PM2.5,45,108,74
India,Madhya Pradesh,Gwalior,"City Center, Gwalior - MPPCB",22-03-2024 08:00:00,26.203442,78.193251,CO,46,76,54
India,Madhya Pradesh,Gwalior,"Maharaj Bada, Gwalior - MPPCB",22-03-2024 08:00:00,26.200388,78.147714,PM2.5,45,98,63
India,Madhya Pradesh,Gwalior,"Maharaj Bada, Gwalior - MPPCB",22-03-2024 08:00:00,26.200388,78.147714,CO,22,103,45
India,Madhya Pradesh,Indore,"Chhoti Gwaltoli, Indore - MPPCB",22-03-2024 08:00:00,22.4310,75.5213,NO2,52,196,118
India,Madhya Pradesh,Indore,"Chhoti Gwaltoli, Indore - MPPCB",22-03-2024 08:00:00,22.4310,75.5213,NH3,3,11,6
India,Madhya Pradesh,Indore,"Maguda Nagar, Indore - IMC",22-03-2024 08:00:00,22.7524,75.8872,SO2,10,16,13
India,Madhya Pradesh,Indore,"Residency Area, Indore - IMC",22-03-2024 08:00:00,22.7084,75.8815,PM2.5,40,264,107
India,Madhya Pradesh,Jabalpur,"Govindh Bhavan Colony, Jabalpur - JMC",22-03-2024 08:00:00,23.163174,79.973061,PM2.5,30,62,45
India,Madhya Pradesh,Jabalpur,"Govindh Bhavan Colony, Jabalpur - JMC",22-03-2024 08:00:00,23.163174,79.973061,NO2,10,28,14
India,Madhya Pradesh,Jabalpur,"Gupteshwar, Jabalpur - JMC",22-03-2024 08:00:00,23.142888,79.916147,PM2.5,48,322,88
India,Madhya Pradesh,Jabalpur,"Gupteshwar, Jabalpur - JMC",22-03-2024 08:00:00,23.142888,79.916147,SO2,4,31,11
India,Madhya Pradesh,Jabalpur,"Suhagi, Jabalpur - JMC",22-03-2024 08:00:00,23.218135,79.957770,NO2,38,45,42
India,Madhya Pradesh,Maihar,"Sahilara, Maihar - KJS Cements",22-03-2024 08:00:00,24.2613009,80.7231783,SO2,17,29,21
India,Madhya Pradesh,Mandideep,"Sector-D Industrial Area, Mandideep - MPPCB",22-03-2024 08:00:00,23.108440,77.511428,NO2,18,185,74
India,Madhya Pradesh,Mandideep,"Sector-D Industrial Area, Mandideep - MPPCB",22-03-2024 08:00:00,23.108440,77.511428,NH3,1,8,4
India,Madhya Pradesh,Pithampur,"Sector-2 Industrial Area, Pithampur - MPPCB",22-03-2024 08:00:00,22.624758,75.675238,OZONE,34,79,46
India,Madhya Pradesh,Sagar,"Deen Dayal Nagar, Sagar - MPPCB",22-03-2024 08:00:00,23.8640158,78.80289321,CO,54,73,59
India,Madhya Pradesh,Satna,"Bandhavgar Colony, Satna - Birla Cement",22-03-2024 08:00:00,24.58434363,80.8549414,NO2,26,35,32
India,Madhya Pradesh,Satna,"Bandhavgar Colony, Satna - Birla Cement",22-03-2024 08:00:00,24.58434363,80.8549414,OZONE,60,84,65
India,Madhya Pradesh,Singrauli,"Suryakiran Bhawan NCL, Singrauli - MPPCB",22-03-2024 08:00:00,24.108970,82.645580,PM2.5,42,192,94
India,Madhya Pradesh,Ujjain,"Mahakaleshwar Temple, Ujjain - MPPCB",22-03-2024 08:00:00,23.182719 ,75.768218 ,NO2,12,110,44
India,Maharashtra,Ahmednagar,"Tarakpur, Ahmednagar - MPCB",22-03-2024 08:00:00,19.10122,74.73339,NO2,NA,NA,NA
India,Maharashtra,Ahmednagar,"Tarakpur, Ahmednagar - MPCB",22-03-2024 08:00:00,19.10122,74.73339,NH3,NA,NA,NA
India,Maharashtra,Amravati,"Shri Shivaji Science College, Amaravati - MPCB",22-03-2024 08:00:00,20.939198,77.765701,PM2.5,52,99,73
India,Maharashtra,Amravati,"Shri Shivaji Science College, Amaravati - MPCB",22-03-2024 08:00:00,20.939198,77.765701,NH3,1,16,5
India,Maharashtra,Aurangabad,"MIDC Chilkalthana, Aurangabad - MPCB",22-03-2024 08:00:00,19.875620,75.387310,PM2.5,52,226,138
India,Maharashtra,Aurangabad,"MIDC Chilkalthana, Aurangabad - MPCB",22-03-2024 08:00:00,19.875620,75.387310,NO2,6,163,44
India,Maharashtra,Aurangabad,"MIDC Chilkalthana, Aurangabad - MPCB",22-03-2024 08:00:00,19.875620,75.387310,CO,22,101,64
India,Maharashtra,Aurangabad,"Rachnakar Colony, Aurangabad - MPCB",22-03-2024 08:00:00,19.863756,75.321188,PM2.5,39,169,115
India,Maharashtra,Aurangabad,"Rachnakar Colony, Aurangabad - MPCB",22-03-2024 08:00:00,19.863756,75.321188,NH3,1,2,1
India,Maharashtra,Badlapur,"Katrap, Badlapur - MPCB",22-03-2024 08:00:00,19.16485,73.23409,SO2,10,38,20
India,Maharashtra,Belapur,"CBD Belapur, Belapur - MPCB",22-03-2024 08:00:00,19.0243902,73.0406721,NH3,13,66,24
India,Maharashtra,Bhiwandi,"Gokul Nagar, Bhiwandi - MPCB",22-03-2024 08:00:00,19.309073,73.057223,OZONE,NA,NA,NA
India,Maharashtra,Boisar,"Khaira, Boisar - MPCB",22-03-2024 08:00:00,19.786089,72.757971,PM2.5,70,194,128
India,Maharashtra,Boisar,"Khaira, Boisar - MPCB",22-03-2024 08:00:00,19.786089,72.757971,PM10,107,168,139
India,Maharashtra,Boisar,"Khaira, Boisar - MPCB",22-03-2024 08:00:00,19.786089,72.757971,NO2,35,150,74
India,Maharashtra,Chandrapur,"Chauhan Colony, Chandrapur - MPCB",22-03-2024 08:00:00,19.962900,79.298714,NH3,1,4,3
India,Maharashtra,Chandrapur,"Chauhan Colony, Chandrapur - MPCB",22-03-2024 08:00:00,19.962900,79.298714,SO2,3,76,18
India,Maharashtra,Chandrapur,"MIDC Khutala, Chandrapur - MPCB",22-03-2024 08:00:00,19.9775302,79.2337086,NO2,10,97,56
India,Maharashtra,Chandrapur,"MIDC Khutala, Chandrapur - MPCB",22-03-2024 08:00:00,19.9775302,79.2337086,CO,18,78,47
India,Maharashtra,Dhule,"Deopur, Dhule - MPCB",22-03-2024 08:00:00,20.918946,74.776388,NO2,2,22,8
India,Maharashtra,Dhule,"Deopur, Dhule - MPCB",22-03-2024 08:00:00,20.918946,74.776388,NH3,3,6,4
India,Maharashtra,Jalgaon,"Prabhat Colony, Jalgaon - MPCB",22-03-2024 08:00:00,21.001264,75.565602,PM2.5,45,196,87
India,Maharashtra,Jalgaon,"Prabhat Colony, Jalgaon - MPCB",22-03-2024 08:00:00,21.001264,75.565602,NO2,12,124,56
India,Maharashtra,Jalgaon,"Prabhat Colony, Jalgaon - MPCB",22-03-2024 08:00:00,21.001264,75.565602,CO,10,66,17
India,Maharashtra,Jalna,"Old MIDC, Jalna - MPCB",22-03-2024 08:00:00,19.854616,75.905894,PM10,127,438,186
India,Maharashtra,Jalna,"Old MIDC, Jalna - MPCB",22-03-2024 08:00:00,19.854616,75.905894,CO,25,44,37
India,Maharashtra,Kalyan,"Khadakpada, Kalyan - MPCB",22-03-2024 08:00:00,19.25292,73.142019,CO,20,66,50
India,Maharashtra,Kolhapur,"Shivaji University, Kolhapur - MPCB",22-03-2024 08:00:00,16.6870449,74.2505872,PM2.5,189,243,217
India,Maharashtra,Kolhapur,"Shivaji University, Kolhapur - MPCB",22-03-2024 08:00:00,16.6870449,74.2505872,NO2,11,54,27
India,Maharashtra,Kolhapur,"Shivaji University, Kolhapur - MPCB",22-03-2024 08:00:00,16.6870449,74.2505872,CO,23,74,44
India,Maharashtra,Kolhapur,"Sinchan Bhavan, Kolhapur - MPCB",22-03-2024 08:00:00,16.7143745,74.2426398,PM10,70,183,102
India,Maharashtra,Kolhapur,"Sinchan Bhavan, Kolhapur - MPCB",22-03-2024 08:00:00,16.7143745,74.2426398,NO2,13,66,29
India,Maharashtra,Kolhapur,"Sinchan Bhavan, Kolhapur - MPCB",22-03-2024 08:00:00,16.7143745,74.2426398,NH3,7,8,8
India,Maharashtra,Latur,"Sawe Wadi, Latur - MPCB",22-03-2024 08:00:00,18.39963,76.57452,NO2,13,175,53
India,Maharashtra,Malegaon,"Mahesh Nagar, Malegaon - MPCB",22-03-2024 08:00:00,20.555712,74.529236,PM2.5,10,254,135
India,Maharashtra,Mumbai,"Bandra Kurla Complex, Mumbai - MPCB",22-03-2024 08:00:00,19.065931,72.862131,NH3,1,5,3
India,Maharashtra,Mumbai,"Byculla, Mumbai - BMC",22-03-2024 08:00:00,18.9767,72.8380,PM2.5,51,124,73
India,Maharashtra,Mumbai,"Byculla, Mumbai - BMC",22-03-2024 08:00:00,18.9767,72.8380,SO2,3,63,16
India,Maharashtra,Mumbai,"Chakala-Andheri East, Mumbai - IITM",22-03-2024 08:00:00,19.11074,72.86084,OZONE,9,153,12
India,Maharashtra,Mumbai,"Chembur, Mumbai - MPCB",22-03-2024 08:00:00,19.0364585,72.8954371,PM2.5,108,303,196
India,Maharashtra,Mumbai,"Chembur, Mumbai - MPCB",22-03-2024 08:00:00,19.0364585,72.8954371,NH3,3,5,4
India,Maharashtra,Mumbai,"Chhatrapati Shivaji Intl. Airport (T2), Mumbai - MPCB",22-03-2024 08:00:00,19.10078,72.87462,NO2,NA,NA,NA
India,Maharashtra,Mumbai,"Chhatrapati Shivaji Intl. Airport (T2), Mumbai - MPCB",22-03-2024 08:00:00,19.10078,72.87462,NH3,1,15,3
India,Maharashtra,Mumbai,"Chhatrapati Shivaji Intl. Airport (T2), Mumbai - MPCB",22-03-2024 08:00:00,19.10078,72.87462,OZONE,4,38,4
India,Maharashtra,Mumbai,"Colaba, Mumbai - MPCB",22-03-2024 08:00:00,18.910000,72.820000,PM10,NA,NA,NA
India,Maharashtra,Mumbai,"Colaba, Mumbai - MPCB",22-03-2024 08:00:00,18.910000,72.820000,OZONE,NA,NA,NA
India,Maharashtra,Mumbai,"Kandivali East, Mumbai - MPCB",22-03-2024 08:00:00,19.205800,72.868200,PM10,76,271,154
India,Maharashtra,Mumbai,"Kandivali East, Mumbai - MPCB",22-03-2024 08:00:00,19.205800,72.868200,NH3,6,13,9
India,Maharashtra,Mumbai,"Kherwadi_Bandra East, Mumbai - MPCB",22-03-2024 08:00:00,19.0632143,72.8456324,NO2,24,141,82
India,Maharashtra,Mumbai,"Kherwadi_Bandra East, Mumbai - MPCB",22-03-2024 08:00:00,19.0632143,72.8456324,SO2,10,39,23
India,Maharashtra,Mumbai,"Kherwadi_Bandra East, Mumbai - MPCB",22-03-2024 08:00:00,19.0632143,72.8456324,CO,12,116,48
India,Maharashtra,Mumbai,"Kurla, Mumbai - MPCB",22-03-2024 08:00:00,19.0863,72.8888,PM2.5,57,230,118
India,Maharashtra,Mumbai,"Kurla, Mumbai - MPCB",22-03-2024 08:00:00,19.0863,72.8888,NH3,2,8,5
India,Maharashtra,Mumbai,"Mazgaon, Mumbai - IITM",22-03-2024 08:00:00,18.96702,72.84214,PM2.5,88,264,137
India,Maharashtra,Mumbai,"Mazgaon, Mumbai - IITM",22-03-2024 08:00:00,18.96702,72.84214,NH3,25,55,40
India,Maharashtra,Mumbai,"Mulund West, Mumbai - MPCB",22-03-2024 08:00:00,19.1750,72.9419,PM2.5,27,84,55
India,Maharashtra,Mumbai,"Mulund West, Mumbai - MPCB",22-03-2024 08:00:00,19.1750,72.9419,CO,33,34,34
India,Maharashtra,Mumbai,"Mulund West, Mumbai - MPCB",22-03-2024 08:00:00,19.1750,72.9419,OZONE,7,7,7
India,Maharashtra,Mumbai,"Navy Nagar-Colaba, Mumbai - IITM",22-03-2024 08:00:00,18.897756,72.813320,SO2,4,96,21
India,Maharashtra,Mumbai,"Powai, Mumbai - MPCB",22-03-2024 08:00:00,19.137500,72.915056,SO2,34,44,38
India,Maharashtra,Mumbai,"Powai, Mumbai - MPCB",22-03-2024 08:00:00,19.137500,72.915056,CO,38,60,55
India,Maharashtra,Mumbai,"Shivaji Nagar, Mumbai - BMC",22-03-2024 08:00:00,19.060498,72.923356,SO2,9,39,18
India,Maharashtra,Mumbai,"Siddharth Nagar-Worli, Mumbai - IITM",22-03-2024 08:00:00,19.000083,72.813993,NH3,4,6,5
India,Maharashtra,Mumbai,"Vasai West, Mumbai - MPCB",22-03-2024 08:00:00,19.383200,72.820400,OZONE,15,132,23
India,Maharashtra,Nagpur,"Ambazari, Nagpur - MPCB",22-03-2024 08:00:00,21.121801,79.04952,SO2,6,60,17
India,Maharashtra,Nagpur,"Mahal, Nagpur - MPCB",22-03-2024 08:00:00,21.14472,79.107595,PM10,98,178,131
India,Maharashtra,Nagpur,"Mahal, Nagpur - MPCB",22-03-2024 08:00:00,21.14472,79.107595,NO2,16,56,30
India,Maharashtra,Nagpur,"Mahal, Nagpur - MPCB",22-03-2024 08:00:00,21.14472,79.107595,NH3,1,21,9
India,Maharashtra,Nagpur,"Opp GPO Civil Lines, Nagpur - MPCB",22-03-2024 08:00:00,21.152875,79.0517531,NO2,39,162,86
India,Maharashtra,Nagpur,"Opp GPO Civil Lines, Nagpur - MPCB",22-03-2024 08:00:00,21.152875,79.0517531,CO,25,148,70
India,Maharashtra,Nagpur,"Ram Nagar, Nagpur - MPCB",22-03-2024 08:00:00,21.143383,79.048912,PM10,76,174,114
India,Maharashtra,Nanded,"Sneh Nagar, Nanded - MPCB",22-03-2024 08:00:00,19.173852,77.296291,NO2,29,110,58
India,Maharashtra,Nashik,"Gangapur Road, Nashik - MPCB",22-03-2024 08:00:00,20.0073285,73.7762427,SO2,1,9,4
India,Maharashtra,Nashik,"Hirawadi, Nashik - MPCB",22-03-2024 08:00:00,20.021503,73.813844,PM2.5,47,102,73
India,Maharashtra,Nashik,"Hirawadi, Nashik - MPCB",22-03-2024 08:00:00,20.021503,73.813844,PM10,56,120,99
India,Maharashtra,Nashik,"Hirawadi, Nashik - MPCB",22-03-2024 08:00:00,20.021503,73.813844,SO2,2,27,11
India,Maharashtra,Nashik,"Hirawadi, Nashik - MPCB",22-03-2024 08:00:00,20.021503,73.813844,CO,9,100,30
India,Maharashtra,Nashik,"MIDC Ambad, Nashik - MPCB",22-03-2024 08:00:00,19.950220,73.731480,PM10,48,150,86
India,Maharashtra,Nashik,"MIDC Ambad, Nashik - MPCB",22-03-2024 08:00:00,19.950220,73.731480,SO2,5,34,16
India,Maharashtra,Nashik,"MIDC Ambad, Nashik - MPCB",22-03-2024 08:00:00,19.950220,73.731480,OZONE,8,90,12
India,Maharashtra,Nashik,"Pandav Nagari, Nashik - MPCB",22-03-2024 08:00:00,19.9591346,73.7788008,SO2,5,34,17
India,Maharashtra,Nashik,"Pandav Nagari, Nashik - MPCB",22-03-2024 08:00:00,19.9591346,73.7788008,OZONE,23,87,32
India,Maharashtra,Navi Mumbai,"Kopripada-Vashi, Navi Mumbai - MPCB",22-03-2024 08:00:00,19.090337,73.014232,PM10,73,458,224
India,Maharashtra,Navi Mumbai,"Kopripada-Vashi, Navi Mumbai - MPCB",22-03-2024 08:00:00,19.090337,73.014232,NO2,43,177,104
India,Maharashtra,Navi Mumbai,"Kopripada-Vashi, Navi Mumbai - MPCB",22-03-2024 08:00:00,19.090337,73.014232,CO,13,108,100
India,Maharashtra,Navi Mumbai,"Mahape, Navi Mumbai - MPCB",22-03-2024 08:00:00,19.1135051,73.008978,NO2,37,39,38
India,Maharashtra,Navi Mumbai,"Nerul, Navi Mumbai - MPCB",22-03-2024 08:00:00,19.008751,73.016620,SO2,12,13,13
India,Maharashtra,Navi Mumbai,"Sanpada, Navi Mumbai - MPCB",22-03-2024 08:00:00,19.0575752,73.0151367,PM10,85,427,199
India,Maharashtra,Navi Mumbai,"Sector-19A Nerul, Navi Mumbai - IITM",22-03-2024 08:00:00,19.044,73.0325,PM2.5,82,336,199
India,Maharashtra,Navi Mumbai,"Sector-2E Kalamboli, Navi Mumbai - MPCB",22-03-2024 08:00:00,19.02579,73.10297,CO,14,92,57
India,Maharashtra,Navi Mumbai,"Tondare-Taloja, Navi Mumbai - MPCB",22-03-2024 08:00:00,19.0630,73.1209,NH3,1,13,7
India,Maharashtra,Parbhani,"Masoom Colony, Parbhani - MPCB",22-03-2024 08:00:00,19.265594,76.761463,SO2,5,108,27
India,Maharashtra,Pimpri-Chinchwad,"Gavalinagar, Pimpri Chinchwad - MPCB",22-03-2024 08:00:00,18.63673,73.82487,SO2,2,23,13
India,Maharashtra,Pimpri-Chinchwad,"Gavalinagar, Pimpri Chinchwad - MPCB",22-03-2024 08:00:00,18.63673,73.82487,CO,23,96,50
India,Maharashtra,Pimpri-Chinchwad,"Park Street Wakad, Pimpri Chinchwad - MPCB",22-03-2024 08:00:00,18.59051,73.77946,NH3,6,16,9
India,Maharashtra,Pimpri-Chinchwad,"Park Street Wakad, Pimpri Chinchwad - MPCB",22-03-2024 08:00:00,18.59051,73.77946,CO,18,87,52
India,Maharashtra,Pimpri-Chinchwad,"Thergaon, Pimpri Chinchwad - MPCB",22-03-2024 08:00:00,18.616318,73.765797,SO2,3,9,6
India,Maharashtra,Pimpri-Chinchwad,"Thergaon, Pimpri Chinchwad - MPCB",22-03-2024 08:00:00,18.616318,73.765797,OZONE,4,201,37
India,Maharashtra,Pune,"Katraj Dairy, Pune - MPCB",22-03-2024 08:00:00,18.454450,73.854155,NO2,14,56,28
India,Maharashtra,Pune,"Katraj Dairy, Pune - MPCB",22-03-2024 08:00:00,18.454450,73.854155,OZONE,24,53,41
India,Maharashtra,Pune,"Mhada Colony, Pune - IITM",22-03-2024 08:00:00,18.573040,73.927715,PM10,58,153,90
India,Maharashtra,Pune,"Revenue Colony-Shivajinagar, Pune - IITM",22-03-2024 08:00:00,18.530085,73.849598,NH3,10,23,15
India,Maharashtra,Pune,"Revenue Colony-Shivajinagar, Pune - IITM",22-03-2024 08:00:00,18.530085,73.849598,CO,100,116,108
India,Maharashtra,Pune,"Revenue Colony-Shivajinagar, Pune - IITM",22-03-2024 08:00:00,18.530085,73.849598,OZONE,4,47,19
India,Maharashtra,Pune,"Savitribai Phule Pune University, Pune - MPCB",22-03-2024 08:00:00,18.547056,73.826908,NO2,1,37,22
India,Maharashtra,Pune,"Savitribai Phule Pune University, Pune - MPCB",22-03-2024 08:00:00,18.547056,73.826908,CO,16,98,52
India,Maharashtra,Pune,"Transport Nagar-Nigdi, Pune - IITM",22-03-2024 08:00:00,18.664282,73.763966,PM2.5,24,157,81
India,Maharashtra,Solapur,"Ratandeep Housing Society, Solapur - MPCB",22-03-2024 08:00:00,17.65439,75.90649,NH3,9,13,10
India,Maharashtra,Solapur,"Solapur, Solapur - MPCB",22-03-2024 08:00:00,17.6599188,75.9063906,PM10,123,150,144
India,Maharashtra,Thane,"Kasarvadavali, Thane - MPCB",22-03-2024 08:00:00,19.26777,72.97182,OZONE,2,302,5
India,Maharashtra,Thane,"Upvan Fort, Thane - MPCB",22-03-2024 08:00:00,19.222279,72.957979,CO,11,66,40
India,Maharashtra,Ulhasnagar,"Sidhi Vinayak Nagar, Ulhasnagar - MPCB",22-03-2024 08:00:00,19.235581,73.159121,PM10,90,261,162
India,Maharashtra,Ulhasnagar,"Sidhi Vinayak Nagar, Ulhasnagar - MPCB",22-03-2024 08:00:00,19.235581,73.159121,NO2,23,53,40
India,Maharashtra,Ulhasnagar,"Sidhi Vinayak Nagar, Ulhasnagar - MPCB",22-03-2024 08:00:00,19.235581,73.159121,NH3,2,4,3
India,Maharashtra,Virar,"Bolinj, Virar - MPCB",22-03-2024 08:00:00,19.4458210,72.7988231,NO2,11,104,50
India,Maharashtra,Virar,"Bolinj, Virar - MPCB",22-03-2024 08:00:00,19.4458210,72.7988231,OZONE,1,302,4
India,Mizoram,Aizawl,"Sikulpuikawn, Aizawl - Mizoram PCB",22-03-2024 08:00:00,23.7176342,92.7192841,SO2,2,2,2
India,Nagaland,Kohima,"PWD Juction, Kohima - NPCB",22-03-2024 08:00:00,25.6635413,94.0989878,SO2,30,30,30
India,Odisha,Angul,"Hakimapada, Angul - OSPCB",22-03-2024 08:00:00,20.832874,85.104082,SO2,8,134,63
India,Odisha,Barbil,"Forest Office, Barbil - OSPCB",22-03-2024 08:00:00,22.1166054,85.3945546,NH3,4,5,4
India,Odisha,Barbil,"Forest Office, Barbil - OSPCB",22-03-2024 08:00:00,22.1166054,85.3945546,SO2,2,33,10
India,Odisha,Barbil,"Forest Office, Barbil - OSPCB",22-03-2024 08:00:00,22.1166054,85.3945546,CO,3,108,65
India,Odisha,Baripada,"Meher Colony, Baripada - OSPCB",22-03-2024 08:00:00,21.941841,86.728318,NO2,1,2,1
India,Odisha,Baripada,"Meher Colony, Baripada - OSPCB",22-03-2024 08:00:00,21.941841,86.728318,NH3,4,4,4
India,Odisha,Baripada,"Meher Colony, Baripada - OSPCB",22-03-2024 08:00:00,21.941841,86.728318,CO,22,60,38
India,Odisha,Bhubaneswar,"Lingraj Mandir, Bhubaneswar - OSPCB",22-03-2024 08:00:00,20.240790,85.836784,PM10,54,137,80
India,Odisha,Bhubaneswar,"Patia, Bhubaneswar - OSPCB",22-03-2024 08:00:00,20.34652,85.81630,NH3,2,3,2
India,Odisha,Brajrajnagar,"GM Office, Brajrajnagar - OSPCB",22-03-2024 08:00:00,21.8004996,83.8396977,CO,35,128,93
India,Odisha,Byasanagar,"Ferro Chrome Colony, Byasanagar - OSPCB",22-03-2024 08:00:00,20.94185,86.11510,PM10,33,113,55
India,Odisha,Byasanagar,"Ferro Chrome Colony, Byasanagar - OSPCB",22-03-2024 08:00:00,20.94185,86.11510,NH3,2,3,2
India,Odisha,Byasanagar,"Ferro Chrome Colony, Byasanagar - OSPCB",22-03-2024 08:00:00,20.94185,86.11510,SO2,5,111,21
India,Odisha,Byasanagar,"Ferro Chrome Colony, Byasanagar - OSPCB",22-03-2024 08:00:00,20.94185,86.11510,CO,67,102,83
India,Odisha,Byasanagar,"Ferro Chrome Colony, Byasanagar - OSPCB",22-03-2024 08:00:00,20.94185,86.11510,OZONE,26,116,43
India,Odisha,Cuttack,"CDA Area, Cuttack - OSPCB",22-03-2024 08:00:00,20.48891     ,85.84768     ,PM2.5,22,180,59
India,Odisha,Cuttack,"CDA Area, Cuttack - OSPCB",22-03-2024 08:00:00,20.48891     ,85.84768     ,SO2,1,20,6
India,Odisha,Keonjhar,"Jagamohanpur, Keonjhar - OSPCB",22-03-2024 08:00:00,21.643900,85.599355,NH3,6,13,9
India,Odisha,Keonjhar,"Jagamohanpur, Keonjhar - OSPCB",22-03-2024 08:00:00,21.643900,85.599355,CO,12,38,14
India,Odisha,Nayagarh,"Dabuna, Nayagarh - OSPCB",22-03-2024 08:00:00,21.847279,85.416905,PM10,42,102,63
India,Odisha,Nayagarh,"Dabuna, Nayagarh - OSPCB",22-03-2024 08:00:00,21.847279,85.416905,SO2,3,5,3
India,Odisha,Rairangpur,"Divisional Forest Office, Rairangpur - OSPCB",22-03-2024 08:00:00,22.265816,86.174829,PM2.5,19,67,43
India,Odisha,Rairangpur,"Divisional Forest Office, Rairangpur - OSPCB",22-03-2024 08:00:00,22.265816,86.174829,CO,10,24,16
India,Odisha,Rourkela,"Raghunathpali, Rourkela - OSPCB",22-03-2024 08:00:00,22.220833,84.809444,PM2.5,34,69,52
India,Odisha,Rourkela,"Raghunathpali, Rourkela - OSPCB",22-03-2024 08:00:00,22.220833,84.809444,NH3,1,3,1
India,Odisha,Rourkela,"Raghunathpali, Rourkela - OSPCB",22-03-2024 08:00:00,22.220833,84.809444,CO,28,51,39
India,Odisha,Rourkela,"Raghunathpali, Rourkela - OSPCB",22-03-2024 08:00:00,22.220833,84.809444,OZONE,14,86,29
India,Odisha,Rourkela,"Sector-2, Rourkela - OSPCB",22-03-2024 08:00:00,22.24500000,84.88111111,PM10,67,141,91
India,Odisha,Talcher,"Talcher Coalfields,Talcher - OSPCB",22-03-2024 08:00:00,20.9360711,85.1707021,PM2.5,15,412,125
India,Odisha,Talcher,"Talcher Coalfields,Talcher - OSPCB",22-03-2024 08:00:00,20.9360711,85.1707021,CO,12,105,32
India,Puducherry,Puducherry,"Jawahar Nagar, Puducherry - PPCC",22-03-2024 08:00:00,11.9309,79.8027,PM10,28,60,37
India,Puducherry,Puducherry,"Jawahar Nagar, Puducherry - PPCC",22-03-2024 08:00:00,11.9309,79.8027,NH3,2,4,3
India,Puducherry,Puducherry,"Jawahar Nagar, Puducherry - PPCC",22-03-2024 08:00:00,11.9309,79.8027,OZONE,2,30,17
India,Punjab,Amritsar,"Golden Temple, Amritsar - PPCB",22-03-2024 08:00:00,31.620000,74.876512,PM2.5,44,102,62
India,Punjab,Amritsar,"Golden Temple, Amritsar - PPCB",22-03-2024 08:00:00,31.620000,74.876512,NO2,9,20,14
India,Punjab,Amritsar,"Golden Temple, Amritsar - PPCB",22-03-2024 08:00:00,31.620000,74.876512,OZONE,45,62,54
India,Punjab,Bathinda,"Hardev Nagar, Bathinda - PPCB",22-03-2024 08:00:00,30.233011,74.907758,CO,1,33,18
India,Punjab,Jalandhar,"Civil Line, Jalandhar - PPCB",22-03-2024 08:00:00,31.321907,75.578914,PM2.5,54,87,66
India,Punjab,Jalandhar,"Civil Line, Jalandhar - PPCB",22-03-2024 08:00:00,31.321907,75.578914,NO2,31,37,33
India,Punjab,Khanna,"Kalal Majra, Khanna - PPCB",22-03-2024 08:00:00,30.736056 ,76.209694,NO2,32,36,35
India,Punjab,Ludhiana,"Punjab Agricultural University, Ludhiana - PPCB",22-03-2024 08:00:00,30.9028,75.8086,PM2.5,76,205,128
India,Punjab,Mandi Gobindgarh,"RIMT University, Mandi Gobindgarh - PPCB",22-03-2024 08:00:00,30.649961,76.331442,PM10,79,136,98
India,Punjab,Patiala,"Model Town, Patiala - PPCB",22-03-2024 08:00:00,30.349388,76.366642,SO2,8,33,20
India,Rajasthan,Baran,"Bamboliya, Baran - RSPCB",22-03-2024 08:00:00,25.106006,76.469948,NO2,7,80,22
India,Rajasthan,Bharatpur,"Krishna Nagar, Bharatpur - RSPCB",22-03-2024 08:00:00,27.215415,77.50873,CO,33,155,59
India,Rajasthan,Bhiwadi,"RIICO Ind. Area III, Bhiwadi - RSPCB",22-03-2024 08:00:00,28.194909,76.862296,PM2.5,56,205,135
India,Rajasthan,Bhiwadi,"RIICO Ind. Area III, Bhiwadi - RSPCB",22-03-2024 08:00:00,28.194909,76.862296,NO2,5,17,10
India,Rajasthan,Bhiwadi,"Vasundhara Nagar_UIT, Bhiwadi - RSPCB",22-03-2024 08:00:00,28.207266,76.829265,PM10,150,256,175
India,Rajasthan,Bhiwadi,"Vasundhara Nagar_UIT, Bhiwadi - RSPCB",22-03-2024 08:00:00,28.207266,76.829265,NO2,25,70,46
India,Rajasthan,Bikaner,"MM Ground, Bikaner - RSPCB",22-03-2024 08:00:00,28.018792,73.292658,PM2.5,27,116,58
India,Rajasthan,Bikaner,"MM Ground, Bikaner - RSPCB",22-03-2024 08:00:00,28.018792,73.292658,OZONE,10,98,64
India,Rajasthan,Chittorgarh,"Shastri Nagar, Chittorgarh - RSPCB",22-03-2024 08:00:00,24.892047,74.623527,OZONE,4,175,35
India,Rajasthan,Churu,"Subash Chowk, Churu - RSPCB",22-03-2024 08:00:00,28.296139,74.961696,PM10,62,173,123
India,Rajasthan,Churu,"Subash Chowk, Churu - RSPCB",22-03-2024 08:00:00,28.296139,74.961696,NH3,12,18,15
India,Rajasthan,Dausa,"Khatikan Mohalla, Dausa - RSPCB",22-03-2024 08:00:00,26.895552,76.334753,OZONE,62,145,83
India,Rajasthan,Dholpur,"Raja Ganj, Dholpur - RSPCB",22-03-2024 08:00:00,26.699557,77.898881,PM2.5,64,120,89
India,Rajasthan,Dholpur,"Raja Ganj, Dholpur - RSPCB",22-03-2024 08:00:00,26.699557,77.898881,SO2,4,7,5
India,Rajasthan,Hanumangarh,"Housing Board, Hanumangarh - RSPCB",22-03-2024 08:00:00,29.610750,74.283608,NO2,14,37,22
India,Rajasthan,Hanumangarh,"Housing Board, Hanumangarh - RSPCB",22-03-2024 08:00:00,29.610750,74.283608,SO2,1,18,10
India,Rajasthan,Jaipur,"Adarsh Nagar, Jaipur - RSPCB",22-03-2024 08:00:00,26.902909,75.836858,OZONE,38,57,41
India,Rajasthan,Jaipur,"Mansarovar Sector-12, Jaipur - RSPCB",22-03-2024 08:00:00,26.843698,75.766894,CO,78,157,98
India,Rajasthan,Jaipur,"Police Commissionerate, Jaipur - RSPCB",22-03-2024 08:00:00,26.9164092,75.7994901,PM2.5,48,112,76
India,Rajasthan,Jaipur,"Police Commissionerate, Jaipur - RSPCB",22-03-2024 08:00:00,26.9164092,75.7994901,PM10,80,173,119
India,Rajasthan,Jaipur,"RIICO Sitapura, Jaipur - RSPCB",22-03-2024 08:00:00,26.786682,75.827928,PM10,76,247,138
India,Rajasthan,Jaipur,"Shastri Nagar, Jaipur - RSPCB",22-03-2024 08:00:00,26.9502929,75.730943,NH3,2,20,8
India,Rajasthan,Jaisalmer,"Sadar Bazar, Jaisalmer - RSPCB",22-03-2024 08:00:00,26.912329,70.909168,SO2,6,15,7
India,Rajasthan,Jaisalmer,"Sadar Bazar, Jaisalmer - RSPCB",22-03-2024 08:00:00,26.912329,70.909168,OZONE,45,116,66
India,Rajasthan,Jalore,"Mudtra Sili, Jalore - RSPCB",22-03-2024 08:00:00,25.344694,72.626208,NH3,4,7,5
India,Rajasthan,Jhalawar,"Rajlaxmi Nagar, Jhalawar - RSPCB",22-03-2024 08:00:00,24.588397,76.172782,OZONE,19,111,38
India,Rajasthan,Jhunjhunu,"Indra Nagar, Jhunjhunu - RSPCB",22-03-2024 08:00:00,28.108988,75.386577,NH3,27,49,39
India,Rajasthan,Jhunjhunu,"Indra Nagar, Jhunjhunu - RSPCB",22-03-2024 08:00:00,28.108988,75.386577,CO,12,56,36
India,Rajasthan,Jhunjhunu,"Indra Nagar, Jhunjhunu - RSPCB",22-03-2024 08:00:00,28.108988,75.386577,OZONE,22,116,42
India,Rajasthan,Jodhpur,"Collectorate, Jodhpur - RSPCB",22-03-2024 08:00:00,26.268249,73.0193853,PM2.5,29,221,98
India,Rajasthan,Jodhpur,"Digari Kalan, Jodhpur - RSPCB",22-03-2024 08:00:00,26.295810,73.082283,OZONE,2,149,12
India,Rajasthan,Jodhpur,"Jhalamand, Jodhpur - RSPCB",22-03-2024 08:00:00,26.215415,73.070156,CO,12,121,53
India,Rajasthan,Jodhpur,"Mandor, Jodhpur - RSPCB",22-03-2024 08:00:00,26.358805,73.047444,NH3,5,14,9
India,Rajasthan,Jodhpur,"Mandor, Jodhpur - RSPCB",22-03-2024 08:00:00,26.358805,73.047444,CO,16,63,42
India,Rajasthan,Jodhpur,"Mandor, Jodhpur - RSPCB",22-03-2024 08:00:00,26.358805,73.047444,OZONE,4,146,18
India,Rajasthan,Jodhpur,"Samrat Ashok Udhyan, Jodhpur - RSPCB",22-03-2024 08:00:00,26.253384,72.976571,PM10,50,441,163
India,Rajasthan,Jodhpur,"Samrat Ashok Udhyan, Jodhpur - RSPCB",22-03-2024 08:00:00,26.253384,72.976571,SO2,2,40,13
India,Rajasthan,Kota,"Dhanmandi, Kota - RSPCB",22-03-2024 08:00:00,25.164090,75.858137,PM10,77,287,152
India,Rajasthan,Kota,"Dhanmandi, Kota - RSPCB",22-03-2024 08:00:00,25.164090,75.858137,SO2,9,109,29
India,Rajasthan,Kota,"Nayapura, Kota - RSPCB",22-03-2024 08:00:00,25.196024,75.855668,CO,18,106,67
India,Rajasthan,Kota,"Shrinath Puram, Kota - RSPCB",22-03-2024 08:00:00,25.14389,75.821256,NH3,2,5,5
India,Rajasthan,Nagaur,"Karni Colony, Nagaur - RSPCB",22-03-2024 08:00:00,27.213494,73.734444,NH3,10,29,17
India,Rajasthan,Nagaur,"Karni Colony, Nagaur - RSPCB",22-03-2024 08:00:00,27.213494,73.734444,SO2,3,18,8
India,Rajasthan,Pali,"Indira Colony Vistar, Pali - RSPCB",22-03-2024 08:00:00,25.771061, 73.340227,PM2.5,NA,NA,NA
India,Rajasthan,Pratapgarh,"Pragati Nagar, Pratapgarh - RSPCB",22-03-2024 08:00:00,24.041198,74.780702,NO2,8,88,22
India,Rajasthan,Pratapgarh,"Pragati Nagar, Pratapgarh - RSPCB",22-03-2024 08:00:00,24.041198,74.780702,NH3,4,9,5
India,Rajasthan,Pratapgarh,"Pragati Nagar, Pratapgarh - RSPCB",22-03-2024 08:00:00,24.041198,74.780702,CO,8,75,19
India,Rajasthan,Rajsamand,"Dhoinda, Rajsamand - RSPCB",22-03-2024 08:00:00,25.036360,73.883502,SO2,8,17,12
India,Rajasthan,Rajsamand,"Dhoinda, Rajsamand - RSPCB",22-03-2024 08:00:00,25.036360,73.883502,CO,48,85,79
India,Rajasthan,Sawai Madhopur,"Sahu Nagar, Sawai Madhopur - RSPCB",22-03-2024 08:00:00,26.031443,76.359327,PM2.5,55,329,126
India,Rajasthan,Sawai Madhopur,"Sahu Nagar, Sawai Madhopur - RSPCB",22-03-2024 08:00:00,26.031443,76.359327,NO2,1,48,12
India,Rajasthan,Tonk,"Shastri Nagar, Tonk - RSPCB",22-03-2024 08:00:00,26.159933,75.780517,NO2,12,83,30
India,Rajasthan,Tonk,"Shastri Nagar, Tonk - RSPCB",22-03-2024 08:00:00,26.159933,75.780517,CO,12,62,21
India,Rajasthan,Udaipur,"Ashok Nagar, Udaipur - RSPCB",22-03-2024 08:00:00,24.5886166,73.6321397,SO2,8,23,15
India,TamilNadu,Chennai,"Alandur Bus Depot, Chennai - CPCB",22-03-2024 08:00:00,12.9099161,80.1076538,NO2,3,19,7
India,TamilNadu,Chennai,"Alandur Bus Depot, Chennai - CPCB",22-03-2024 08:00:00,12.9099161,80.1076538,SO2,1,4,2
India,TamilNadu,Chennai,"Alandur Bus Depot, Chennai - CPCB",22-03-2024 08:00:00,12.9099161,80.1076538,CO,53,112,95
India,TamilNadu,Chennai,"Arumbakkam, Chennai - TNPCB",22-03-2024 08:00:00,13.0664,80.2112 ,NH3,2,5,4
India,TamilNadu,Chennai,"Arumbakkam, Chennai - TNPCB",22-03-2024 08:00:00,13.0664,80.2112 ,SO2,1,8,3
India,TamilNadu,Chennai,"Kodungaiyur, Chennai - TNPCB",22-03-2024 08:00:00,13.1278,80.2642,SO2,2,16,7
India,TamilNadu,Chennai,"Manali, Chennai - CPCB",22-03-2024 08:00:00,13.164544,80.26285,PM10,28,52,35
India,TamilNadu,Chennai,"Royapuram, Chennai - TNPCB",22-03-2024 08:00:00,13.1036,80.2909,PM10,27,65,38
India,TamilNadu,Chennai,"Royapuram, Chennai - TNPCB",22-03-2024 08:00:00,13.1036,80.2909,NH3,1,1,1
India,TamilNadu,Chennai,"Velachery Res. Area, Chennai - CPCB",22-03-2024 08:00:00,13.0052189,80.2398125,PM10,41,72,55
India,TamilNadu,Chennai,"Velachery Res. Area, Chennai - CPCB",22-03-2024 08:00:00,13.0052189,80.2398125,NH3,7,10,8
India,TamilNadu,Coimbatore,"PSG College of Arts and Science, Coimbatore - TNPCB",22-03-2024 08:00:00,11.0328,77.0349,NH3,1,1,1
India,TamilNadu,Coimbatore,"PSG College of Arts and Science, Coimbatore - TNPCB",22-03-2024 08:00:00,11.0328,77.0349,OZONE,3,5,4
India,TamilNadu,Cuddalore,"Kudikadu, Cuddalore - TNPCB",22-03-2024 08:00:00,11.6829898,79.7532099,PM10,4,67,48
India,TamilNadu,Cuddalore,"Kudikadu, Cuddalore - TNPCB",22-03-2024 08:00:00,11.6829898,79.7532099,SO2,12,15,14
India,TamilNadu,Cuddalore,"Semmandalam, Cuddalore - TNPCB",22-03-2024 08:00:00,11.7637683,79.7499835,PM10,12,60,26
India,TamilNadu,Kanchipuram,"Kilambi, Kanchipuram - TNPCB",22-03-2024 08:00:00,12.864618,79.659968,CO,20,27,24
India,TamilNadu,Ooty,"Bombay Castel, Ooty - TNPCB",22-03-2024 08:00:00,11.4068288,76.7138973,NH3,NA,NA,NA
India,TamilNadu,Ooty,"Bombay Castel, Ooty - TNPCB",22-03-2024 08:00:00,11.4068288,76.7138973,OZONE,5,6,5
India,TamilNadu,Palkalaiperur,"Bharathidasan University, Palkalaiperur - TNPCB",22-03-2024 08:00:00,10.681158,78.741746,PM10,31,49,36
India,TamilNadu,Palkalaiperur,"Bharathidasan University, Palkalaiperur - TNPCB",22-03-2024 08:00:00,10.681158,78.741746,SO2,27,29,28
India,TamilNadu,Thoothukudi,"Meelavittan, Thoothukudi - TNPCB",22-03-2024 08:00:00,8.816428 ,78.099039,PM10,20,74,42
India,TamilNadu,Thoothukudi,"Meelavittan, Thoothukudi - TNPCB",22-03-2024 08:00:00,8.816428 ,78.099039,CO,8,58,34
India,Telangana,Hyderabad,"Bollaram Industrial Area, Hyderabad - TSPCB",22-03-2024 08:00:00,17.540891,78.358528,SO2,5,53,19
India,Telangana,Hyderabad,"Bollaram Industrial Area, Hyderabad - TSPCB",22-03-2024 08:00:00,17.540891,78.358528,OZONE,35,37,36
India,Telangana,Hyderabad,"Central University, Hyderabad - TSPCB",22-03-2024 08:00:00,17.460103,78.334361,SO2,6,12,9
India,Telangana,Hyderabad,"ICRISAT Patancheru, Hyderabad - TSPCB",22-03-2024 08:00:00,17.518400,78.278777,PM10,51,146,79
India,Telangana,Hyderabad,"ICRISAT Patancheru, Hyderabad - TSPCB",22-03-2024 08:00:00,17.518400,78.278777,CO,20,86,45
India,Telangana,Hyderabad,"ICRISAT Patancheru, Hyderabad - TSPCB",22-03-2024 08:00:00,17.518400,78.278777,OZONE,22,131,38
India,Telangana,Hyderabad,"Kokapet, Hyderabad - TSPCB",22-03-2024 08:00:00,17.393559,78.339194,PM2.5,NA,NA,NA
India,Telangana,Hyderabad,"Kompally Municipal Office, Hyderabad - TSPCB",22-03-2024 08:00:00,17.544899,78.486949,PM10,NA,NA,NA
India,Telangana,Hyderabad,"Nacharam_TSIIC IALA, Hyderabad - TSPCB",22-03-2024 08:00:00,17.429398,78.569354,PM2.5,33,67,49
India,Telangana,Hyderabad,"New Malakpet, Hyderabad - TSPCB",22-03-2024 08:00:00,17.37206,78.50864,PM2.5,24,79,44
India,Telangana,Hyderabad,"New Malakpet, Hyderabad - TSPCB",22-03-2024 08:00:00,17.37206,78.50864,OZONE,4,64,14
India,Telangana,Hyderabad,"Somajiguda, Hyderabad - TSPCB",22-03-2024 08:00:00,17.417094,78.457437,NO2,20,30,24
India,Telangana,Hyderabad,"Somajiguda, Hyderabad - TSPCB",22-03-2024 08:00:00,17.417094,78.457437,CO,11,34,21
India,Telangana,Hyderabad,"Somajiguda, Hyderabad - TSPCB",22-03-2024 08:00:00,17.417094,78.457437,OZONE,8,35,11
India,Telangana,Hyderabad,"Zoo Park, Hyderabad - TSPCB",22-03-2024 08:00:00,17.349694,78.451437,PM2.5,25,94,56
India,Telangana,Hyderabad,"Zoo Park, Hyderabad - TSPCB",22-03-2024 08:00:00,17.349694,78.451437,PM10,62,156,133
India,Telangana,Hyderabad,"Zoo Park, Hyderabad - TSPCB",22-03-2024 08:00:00,17.349694,78.451437,OZONE,17,48,19
India,Tripura,Agartala,"Bardowali, Agartala - Tripura SPCB",22-03-2024 08:00:00,23.8175497,91.2726974,PM10,58,135,95
India,Uttar_Pradesh,Agra,"Manoharpur, Agra - UPPCB",22-03-2024 08:00:00,27.23711,78.01936,NO2,27,27,27
India,Uttar_Pradesh,Agra,"Rohta, Agra - UPPCB",22-03-2024 08:00:00,27.106972,78.000111,PM2.5,31,74,49
India,Uttar_Pradesh,Agra,"Rohta, Agra - UPPCB",22-03-2024 08:00:00,27.106972,78.000111,NH3,NA,NA,NA
India,Uttar_Pradesh,Agra,"Rohta, Agra - UPPCB",22-03-2024 08:00:00,27.106972,78.000111,OZONE,15,17,17
India,Uttar_Pradesh,Agra,"Sector-3B Avas Vikas Colony, Agra - UPPCB",22-03-2024 08:00:00,27.19412,77.96237,OZONE,3,8,4
India,Uttar_Pradesh,Agra,"Shahjahan Garden, Agra - UPPCB",22-03-2024 08:00:00,27.169338,78.03582,PM2.5,34,63,46
India,Uttar_Pradesh,Agra,"Shahjahan Garden, Agra - UPPCB",22-03-2024 08:00:00,27.169338,78.03582,PM10,51,79,64
India,Uttar_Pradesh,Agra,"Shahjahan Garden, Agra - UPPCB",22-03-2024 08:00:00,27.169338,78.03582,SO2,44,55,50
India,Uttar_Pradesh,Agra,"Shastripuram, Agra - UPPCB",22-03-2024 08:00:00,27.19862,77.92066,NH3,1,3,2
India,Uttar_Pradesh,Baghpat,"Sardar Patel Inter College, Baghpat - UPPCB",22-03-2024 08:00:00,28.964949,77.278761,OZONE,18,84,25
India,Uttar_Pradesh,Bareilly,"Civil Lines, Bareilly - UPPCB",22-03-2024 08:00:00,28.359581,79.414455,NO2,14,29,17
India,Uttar_Pradesh,Bareilly,"Civil Lines, Bareilly - UPPCB",22-03-2024 08:00:00,28.359581,79.414455,NH3,1,5,2
India,Uttar_Pradesh,Bareilly,"Rajendra Nagar, Bareilly - UPPCB",22-03-2024 08:00:00,28.38910936,79.42963708,CO,10,36,29
India,Uttar_Pradesh,Bulandshahr,"Yamunapuram, Bulandshahr - UPPCB",22-03-2024 08:00:00,28.406963,77.849831,PM10,68,110,82
India,Uttar_Pradesh,Bulandshahr,"Yamunapuram, Bulandshahr - UPPCB",22-03-2024 08:00:00,28.406963,77.849831,NO2,2,27,13
India,Uttar_Pradesh,Bulandshahr,"Yamunapuram, Bulandshahr - UPPCB",22-03-2024 08:00:00,28.406963,77.849831,CO,20,54,39
India,Uttar_Pradesh,Firozabad,"Nagla Bhau, Firozabad - UPPCB",22-03-2024 08:00:00,27.168897,78.376960,PM10,26,42,32
India,Uttar_Pradesh,Firozabad,"Nagla Bhau, Firozabad - UPPCB",22-03-2024 08:00:00,27.168897,78.376960,CO,14,24,22
India,Uttar_Pradesh,Firozabad,"Nagla Bhau, Firozabad - UPPCB",22-03-2024 08:00:00,27.168897,78.376960,OZONE,17,22,18
India,Uttar_Pradesh,Firozabad,"Vibhab Nagar, Firozabad - UPPCB",22-03-2024 08:00:00,27.1594,78.3953,PM10,34,59,45
India,Uttar_Pradesh,Firozabad,"Vibhab Nagar, Firozabad - UPPCB",22-03-2024 08:00:00,27.1594,78.3953,CO,14,28,24
India,Uttar_Pradesh,Ghaziabad,"Indirapuram, Ghaziabad - UPPCB",22-03-2024 08:00:00,28.646233,77.358075,PM2.5,38,82,56
India,Uttar_Pradesh,Ghaziabad,"Indirapuram, Ghaziabad - UPPCB",22-03-2024 08:00:00,28.646233,77.358075,SO2,6,9,7
India,Uttar_Pradesh,Ghaziabad,"Loni, Ghaziabad - UPPCB",22-03-2024 08:00:00,28.757294,77.278792,CO,33,114,61
India,Uttar_Pradesh,Ghaziabad,"Vasundhara, Ghaziabad - UPPCB",22-03-2024 08:00:00,28.6603346,77.3572563,PM2.5,48,97,61
India,Uttar_Pradesh,Ghaziabad,"Vasundhara, Ghaziabad - UPPCB",22-03-2024 08:00:00,28.6603346,77.3572563,OZONE,10,53,19
India,Uttar_Pradesh,Gorakhpur,"Madan Mohan Malaviya University of Technology, Gorakhpur - UPPCB",22-03-2024 08:00:00,26.730136,83.433859,PM2.5,41,201,93
India,Uttar_Pradesh,Gorakhpur,"Madan Mohan Malaviya University of Technology, Gorakhpur - UPPCB",22-03-2024 08:00:00,26.730136,83.433859,NH3,1,2,2
India,Uttar_Pradesh,Gorakhpur,"Madan Mohan Malaviya University of Technology, Gorakhpur - UPPCB",22-03-2024 08:00:00,26.730136,83.433859,OZONE,1,35,2
India,Uttar_Pradesh,Greater Noida,"Knowledge Park - III, Greater Noida - UPPCB",22-03-2024 08:00:00,28.47272,77.482000,NH3,5,8,6
India,Uttar_Pradesh,Hapur,"Anand Vihar, Hapur - UPPCB",22-03-2024 08:00:00,28.725645,77.749675,PM2.5,42,152,74
India,Uttar_Pradesh,Hapur,"Anand Vihar, Hapur - UPPCB",22-03-2024 08:00:00,28.725645,77.749675,PM10,56,103,78
India,Uttar_Pradesh,Hapur,"Anand Vihar, Hapur - UPPCB",22-03-2024 08:00:00,28.725645,77.749675,NO2,8,434,53
India,Uttar_Pradesh,Jhansi,"Shivaji Nagar, Jhansi - UPPCB",22-03-2024 08:00:00,25.4547,78.6039,OZONE,5,16,10
India,Uttar_Pradesh,Kanpur,"FTI Kidwai Nagar, Kanpur - UPPCB",22-03-2024 08:00:00,26.428282,80.327067,SO2,21,24,22
India,Uttar_Pradesh,Kanpur,"NSI Kalyanpur, Kanpur - UPPCB",22-03-2024 08:00:00,26.509954,80.249612,PM10,56,120,84
India,Uttar_Pradesh,Kanpur,"NSI Kalyanpur, Kanpur - UPPCB",22-03-2024 08:00:00,26.509954,80.249612,NH3,1,2,1
India,Uttar_Pradesh,Kanpur,"Nehru Nagar, Kanpur - UPPCB",22-03-2024 08:00:00,26.4703136,80.3229863,PM10,22,79,53
India,Uttar_Pradesh,Khurja,"Kalindi Kunj, Khurja - UPPCB",22-03-2024 08:00:00,28.2348927,77.8683002,PM10,21,141,73
India,Uttar_Pradesh,Khurja,"Kalindi Kunj, Khurja - UPPCB",22-03-2024 08:00:00,28.2348927,77.8683002,NH3,1,1,1
India,Uttar_Pradesh,Lucknow,"B R Ambedkar University, Lucknow - UPPCB",22-03-2024 08:00:00,26.766433,80.927299,PM2.5,56,240,124
India,Uttar_Pradesh,Lucknow,"Gomti Nagar, Lucknow - UPPCB",22-03-2024 08:00:00,26.868120,81.005119,CO,60,71,69
India,Uttar_Pradesh,Lucknow,"Gomti Nagar, Lucknow - UPPCB",22-03-2024 08:00:00,26.868120,81.005119,OZONE,62,79,76
India,Uttar_Pradesh,Lucknow,"Kendriya Vidyalaya, Lucknow - CPCB",22-03-2024 08:00:00,26.906111,80.948222,SO2,3,8,5
India,Uttar_Pradesh,Lucknow,"Kukrail Picnic Spot-1, Lucknow - UPPCB",22-03-2024 08:00:00,26.90723,80.98579,SO2,24,36,34
India,Uttar_Pradesh,Lucknow,"Lalbagh, Lucknow - CPCB",22-03-2024 08:00:00,26.8458805,80.9365541,PM2.5,45,143,86
India,Uttar_Pradesh,Meerut,"Ganga Nagar, Meerut - UPPCB",22-03-2024 08:00:00,28.999264,77.7590354,SO2,1,19,11
India,Uttar_Pradesh,Meerut,"Jai Bhim Nagar, Meerut - UPPCB",22-03-2024 08:00:00,28.9535882,77.7622941,PM10,42,101,73
India,Uttar_Pradesh,Meerut,"Jai Bhim Nagar, Meerut - UPPCB",22-03-2024 08:00:00,28.9535882,77.7622941,NO2,11,26,17
India,Uttar_Pradesh,Meerut,"Pallavpuram Phase 2, Meerut - UPPCB",22-03-2024 08:00:00,29.063510,77.709723,PM2.5,37,182,80
India,Uttar_Pradesh,Meerut,"Pallavpuram Phase 2, Meerut - UPPCB",22-03-2024 08:00:00,29.063510,77.709723,OZONE,18,114,32
India,Uttar_Pradesh,Moradabad,"Eco Herbal Park, Moradabad - UPPCB",22-03-2024 08:00:00,28.840739,78.697531,SO2,5,20,12
India,Uttar_Pradesh,Moradabad,"Eco Herbal Park, Moradabad - UPPCB",22-03-2024 08:00:00,28.840739,78.697531,CO,9,39,17
India,Uttar_Pradesh,Moradabad,"Employment Office, Moradabad - UPPCB",22-03-2024 08:00:00,28.88528,78.73880,PM2.5,32,79,49
India,Uttar_Pradesh,Moradabad,"Employment Office, Moradabad - UPPCB",22-03-2024 08:00:00,28.88528,78.73880,CO,14,30,30
India,Uttar_Pradesh,Moradabad,"Jigar Colony, Moradabad - UPPCB",22-03-2024 08:00:00,28.856664,78.772638,NO2,19,23,22
India,Uttar_Pradesh,Moradabad,"Kashiram Nagar, Moradabad - UPPCB",22-03-2024 08:00:00,28.849399,78.742362,NO2,12,40,21
India,Uttar_Pradesh,Moradabad,"Kashiram Nagar, Moradabad - UPPCB",22-03-2024 08:00:00,28.849399,78.742362,NH3,4,4,4
India,Uttar_Pradesh,Muzaffarnagar,"New Mandi, Muzaffarnagar - UPPCB",22-03-2024 08:00:00,29.4723508,77.7194031,PM10,76,207,142
India,Uttar_Pradesh,Muzaffarnagar,"New Mandi, Muzaffarnagar - UPPCB",22-03-2024 08:00:00,29.4723508,77.7194031,NO2,1,48,34
India,Uttar_Pradesh,Noida,"Sector - 125, Noida - UPPCB",22-03-2024 08:00:00,28.5447608,77.3231257,CO,25,63,58
India,Uttar_Pradesh,Noida,"Sector-116, Noida - UPPCB",22-03-2024 08:00:00,28.569230,77.393848,NO2,14,50,29
India,Uttar_Pradesh,Prayagraj,"Jhunsi, Prayagraj - UPPCB",22-03-2024 08:00:00,25.425602,81.917152,SO2,30,32,31
India,Uttar_Pradesh,Prayagraj,"Nagar Nigam, Prayagraj - UPPCB",22-03-2024 08:00:00,25.44919916 ,81.82735986 ,NH3,4,9,7
India,Uttar_Pradesh,Varanasi,"Ardhali Bazar, Varanasi - UPPCB",22-03-2024 08:00:00,25.3505986,82.9083074,PM10,7,72,30
India,Uttar_Pradesh,Varanasi,"IESD Banaras Hindu University, Varanasi - UPPCB",22-03-2024 08:00:00,25.262326,82.995408,PM10,6,41,20
India,Uttar_Pradesh,Varanasi,"IESD Banaras Hindu University, Varanasi - UPPCB",22-03-2024 08:00:00,25.262326,82.995408,NO2,2,3,2
India,Uttar_Pradesh,Varanasi,"IESD Banaras Hindu University, Varanasi - UPPCB",22-03-2024 08:00:00,25.262326,82.995408,NH3,1,5,3
India,Uttar_Pradesh,Varanasi,"Maldahiya, Varanasi - UPPCB",22-03-2024 08:00:00,25.32393,82.99687,SO2,20,21,20
India,Uttar_Pradesh,Varanasi,"Maldahiya, Varanasi - UPPCB",22-03-2024 08:00:00,25.32393,82.99687,OZONE,NA,NA,NA
India,Uttar_Pradesh,Vrindavan,"Omex Eternity, Vrindavan - UPPCB",22-03-2024 08:00:00,27.5714090,77.6557570,CO,NA,NA,NA
India,Uttarakhand,Dehradun,"Doon University, Dehradun - UKPCB",22-03-2024 08:00:00,30.269444,78.044167,CO,38,52,44
India,Uttarakhand,Kashipur,"Govt. Girls Inter College, Kashipur - UKPCB",22-03-2024 08:00:00,29.2124114,78.9611753,PM10,28,115,76
India,Uttarakhand,Kashipur,"Govt. Girls Inter College, Kashipur - UKPCB",22-03-2024 08:00:00,29.2124114,78.9611753,NH3,5,10,7
India,Uttarakhand,Rishikesh,"Shivaji Nagar, Rishikesh - UKPCB",22-03-2024 08:00:00,30.075911,78.2859547,SO2,2,5,4
India,West_Bengal,Barrackpore,"SVSPA Campus, Barrackpore - WBPCB",22-03-2024 08:00:00,22.7605581,88.3617589,OZONE,1,82,4
India,West_Bengal,Haldia,"Priyambada Housing Estate, Haldia - WBPCB",22-03-2024 08:00:00,22.06047,88.109737,PM10,30,97,57
India,West_Bengal,Haldia,"Priyambada Housing Estate, Haldia - WBPCB",22-03-2024 08:00:00,22.06047,88.109737,NO2,13,67,25
India,West_Bengal,Howrah,"Belur Math, Howrah - WBPCB",22-03-2024 08:00:00,22.629801,88.352017,PM2.5,41,127,74
India,West_Bengal,Howrah,"Belur Math, Howrah - WBPCB",22-03-2024 08:00:00,22.629801,88.352017,PM10,56,150,88
India,West_Bengal,Howrah,"Belur Math, Howrah - WBPCB",22-03-2024 08:00:00,22.629801,88.352017,NO2,13,28,22
India,West_Bengal,Howrah,"Belur Math, Howrah - WBPCB",22-03-2024 08:00:00,22.629801,88.352017,CO,7,51,14
India,West_Bengal,Howrah,"Ghusuri, Howrah - WBPCB",22-03-2024 08:00:00,22.611968,88.347422,OZONE,12,27,14
India,West_Bengal,Howrah,"Padmapukur, Howrah - WBPCB",22-03-2024 08:00:00,22.5687319,88.2797276,CO,16,103,32
India,West_Bengal,Howrah,"Padmapukur, Howrah - WBPCB",22-03-2024 08:00:00,22.5687319,88.2797276,OZONE,2,73,4
India,West_Bengal,Kolkata,"Ballygunge, Kolkata - WBPCB",22-03-2024 08:00:00,22.5367507,88.3638022,PM10,10,120,74
India,West_Bengal,Kolkata,"Ballygunge, Kolkata - WBPCB",22-03-2024 08:00:00,22.5367507,88.3638022,OZONE,3,78,6
India,West_Bengal,Kolkata,"Bidhannagar, Kolkata - WBPCB",22-03-2024 08:00:00,22.58157048,88.41002457,PM2.5,23,72,44
India,West_Bengal,Kolkata,"Jadavpur, Kolkata - WBPCB",22-03-2024 08:00:00,22.49929,88.36917,OZONE,10,47,12
India,West_Bengal,Kolkata,"Victoria, Kolkata - WBPCB",22-03-2024 08:00:00,22.5448082,88.3403691,NH3,1,3,2
India,West_Bengal,Kolkata,"Victoria, Kolkata - WBPCB",22-03-2024 08:00:00,22.5448082,88.3403691,OZONE,10,112,11
India,West_Bengal,Siliguri,"Ward-32 Bapupara, Siliguri - WBPCB",22-03-2024 08:00:00,26.6879226,88.4152495,NH3,11,18,14
India,West_Bengal,Siliguri,"Ward-32 Bapupara, Siliguri - WBPCB",22-03-2024 08:00:00,26.6879226,88.4152495,CO,20,38,27
India,Andhra_Pradesh,Amaravati,"Secretariat, Amaravati - APPCB",22-03-2024 08:00:00,16.5150833,80.5181667,SO2,14,19,17
India,Andhra_Pradesh,Anantapur,"Gulzarpet, Anantapur - APPCB",22-03-2024 08:00:00,14.675886,77.593027,PM2.5,20,56,36
India,Andhra_Pradesh,Anantapur,"Gulzarpet, Anantapur - APPCB",22-03-2024 08:00:00,14.675886,77.593027,SO2,4,7,5
India,Andhra_Pradesh,Anantapur,"Gulzarpet, Anantapur - APPCB",22-03-2024 08:00:00,14.675886,77.593027,OZONE,1,42,8
India,Andhra_Pradesh,Chittoor,"Gangineni Cheruvu, Chittoor - APPCB",22-03-2024 08:00:00,13.204880,79.097889,OZONE,8,83,14
India,Andhra_Pradesh,Kadapa,"Yerramukkapalli, Kadapa - APPCB",22-03-2024 08:00:00,14.465052,78.824187,NO2,7,8,8
India,Andhra_Pradesh,Kadapa,"Yerramukkapalli, Kadapa - APPCB",22-03-2024 08:00:00,14.465052,78.824187,SO2,2,3,2
India,Andhra_Pradesh,Rajamahendravaram,"Anand Kala Kshetram, Rajamahendravaram - APPCB",22-03-2024 08:00:00,16.9872867,81.7363176,NH3,3,4,3
India,Andhra_Pradesh,Tirupati,"Tirumala, Tirupati - APPCB",22-03-2024 08:00:00,13.67,79.35,PM10,35,60,48
India,Andhra_Pradesh,Tirupati,"Vaikuntapuram, Tirupati - APPCB",22-03-2024 08:00:00,13.615387,79.409230,PM10,14,114,52
India,Andhra_Pradesh,Vijayawada,"HB Colony, Vijayawada - APPCB",22-03-2024 08:00:00,16.536107,80.594233,PM10,59,87,73
India,Andhra_Pradesh,Vijayawada,"Kanuru, Vijayawada - APPCB",22-03-2024 08:00:00,16.486692,80.699436,PM10,62,77,69
India,Andhra_Pradesh,Vijayawada,"Kanuru, Vijayawada - APPCB",22-03-2024 08:00:00,16.486692,80.699436,NO2,14,19,15
India,Andhra_Pradesh,Vijayawada,"Kanuru, Vijayawada - APPCB",22-03-2024 08:00:00,16.486692,80.699436,NH3,1,1,1
India,Andhra_Pradesh,Vijayawada,"Kanuru, Vijayawada - APPCB",22-03-2024 08:00:00,16.486692,80.699436,SO2,9,12,11
India,Andhra_Pradesh,Vijayawada,"Rajiv Gandhi Park, Vijayawada - APPCB",22-03-2024 08:00:00,16.509717,80.612222,PM10,44,70,59
India,Andhra_Pradesh,Vijayawada,"Rajiv Gandhi Park, Vijayawada - APPCB",22-03-2024 08:00:00,16.509717,80.612222,NO2,3,64,30
India,Andhra_Pradesh,Vijayawada,"Rajiv Gandhi Park, Vijayawada - APPCB",22-03-2024 08:00:00,16.509717,80.612222,CO,38,50,39
India,Andhra_Pradesh,Vijayawada,"Rajiv Nagar, Vijayawada - APPCB",22-03-2024 08:00:00,16.554731,80.649110,OZONE,8,43,9
India,Andhra_Pradesh,Visakhapatnam,"GVM Corporation, Visakhapatnam - APPCB",22-03-2024 08:00:00,17.72,83.3,NH3,3,7,4
India,Andhra_Pradesh,Visakhapatnam,"GVM Corporation, Visakhapatnam - APPCB",22-03-2024 08:00:00,17.72,83.3,CO,10,94,29
India,Assam,Byrnihat,"Central Academy for SFS, Byrnihat - PCBA",22-03-2024 08:00:00,26.071318,91.87488,SO2,6,22,14
India,Assam,Byrnihat,"Central Academy for SFS, Byrnihat - PCBA",22-03-2024 08:00:00,26.071318,91.87488,CO,26,68,47
India,Assam,Guwahati,"IITG, Guwahati - PCBA",22-03-2024 08:00:00,26.2028636,91.70046436,NO2,1,4,2
India,Assam,Guwahati,"IITG, Guwahati - PCBA",22-03-2024 08:00:00,26.2028636,91.70046436,CO,10,18,13
India,Assam,Guwahati,"LGBI Airport, Guwahati - PCBA",22-03-2024 08:00:00,26.10887,91.589544,CO,24,48,40
India,Assam,Guwahati,"Pan Bazaar, Guwahati - PCBA",22-03-2024 08:00:00,26.187500,91.744194,SO2,56,62,59
India,Assam,Guwahati,"Railway Colony, Guwahati - PCBA",22-03-2024 08:00:00,26.181742,91.78063,PM2.5,1,108,62
India,Assam,Nagaon,"Christianpatty, Nagaon - PCBA",22-03-2024 08:00:00,26.349082,92.68449,PM2.5,2,43,20
India,Assam,Nalbari,"Bata Chowk, Nalbari - PCBA",22-03-2024 08:00:00,26.446912,91.439057,NO2,8,19,11
India,Assam,Nalbari,"Bata Chowk, Nalbari - PCBA",22-03-2024 08:00:00,26.446912,91.439057,NH3,1,2,1
India,Assam,Sivasagar,"Girls College, Sivasagar - PCBA",22-03-2024 08:00:00,26.987634,94.636574,NH3,2,2,2
India,Bihar,Araria,"Kharahiya Basti, Araria - BSPCB",22-03-2024 08:00:00,26.146529,87.454184,OZONE,1,10,8
India,Bihar,Arrah,"New DM Office, Arrah - BSPCB",22-03-2024 08:00:00,25.5626095,84.663264,PM10,28,153,75
India,Bihar,Aurangabad,"Gurdeo Nagar, Aurangabad - BSPCB",22-03-2024 08:00:00,24.75746,84.366208,PM2.5,NA,NA,NA
India,Bihar,Aurangabad,"Gurdeo Nagar, Aurangabad - BSPCB",22-03-2024 08:00:00,24.75746,84.366208,NO2,5,5,5
India,Bihar,Aurangabad,"Gurdeo Nagar, Aurangabad - BSPCB",22-03-2024 08:00:00,24.75746,84.366208,SO2,6,9,7
India,Bihar,Aurangabad,"Gurdeo Nagar, Aurangabad - BSPCB",22-03-2024 08:00:00,24.75746,84.366208,OZONE,6,38,9
India,Bihar,Bettiah,"Kamalnath Nagar, Bettiah - BSPCB",22-03-2024 08:00:00,26.80365,84.51954,PM2.5,NA,NA,NA
India,Bihar,Bettiah,"Kamalnath Nagar, Bettiah - BSPCB",22-03-2024 08:00:00,26.80365,84.51954,PM10,NA,NA,NA
India,Bihar,Bettiah,"Kamalnath Nagar, Bettiah - BSPCB",22-03-2024 08:00:00,26.80365,84.51954,CO,62,78,63
India,Bihar,Bhagalpur,"Mayaganj, Bhagalpur - BSPCB",22-03-2024 08:00:00,25.265194,87.012947,PM10,28,122,67
India,Bihar,Bhagalpur,"Mayaganj, Bhagalpur - BSPCB",22-03-2024 08:00:00,25.265194,87.012947,NO2,6,17,11
India,Bihar,Bhagalpur,"Mayaganj, Bhagalpur - BSPCB",22-03-2024 08:00:00,25.265194,87.012947,CO,8,10,9
India,Bihar,Bihar Sharif,"D M Colony, Bihar Sharif - BSPCB",22-03-2024 08:00:00,25.204762,85.514960,PM2.5,NA,NA,NA
India,Bihar,Bihar Sharif,"D M Colony, Bihar Sharif - BSPCB",22-03-2024 08:00:00,25.204762,85.514960,NH3,2,2,2
India,Bihar,Buxar,"Charitra Van, Buxar - BSPCB (Formerly known as Central Jail)",22-03-2024 08:00:00,25.567520,83.966379,SO2,14,17,17
India,Bihar,Chhapra,"Darshan Nagar, Chhapra - BSPCB",22-03-2024 08:00:00,25.7808257,84.7446768,OZONE,1,21,1
India,Bihar,Gaya,"SFTI Kusdihra, Gaya - BSPCB",22-03-2024 08:00:00,24.762518,84.982348,PM2.5,14,74,49
India,Bihar,Gaya,"SFTI Kusdihra, Gaya - BSPCB",22-03-2024 08:00:00,24.762518,84.982348,PM10,36,74,54
India,Bihar,Katihar,"Mirchaibari, Katihar - BSPCB",22-03-2024 08:00:00,25.560083,87.553265,NO2,NA,NA,NA
India,Bihar,Manguraha,"Forest Rest House, Manguraha - BSPCB",22-03-2024 08:00:00,27.308328,84.531742,NH3,NA,NA,NA
India,Bihar,Manguraha,"Forest Rest House, Manguraha - BSPCB",22-03-2024 08:00:00,27.308328,84.531742,OZONE,6,60,17
India,Bihar,Motihari,"Gandak Colony, Motihari - BSPCB",22-03-2024 08:00:00,26.63086,84.90051,PM10,19,55,32
India,Bihar,Motihari,"Gandak Colony, Motihari - BSPCB",22-03-2024 08:00:00,26.63086,84.90051,OZONE,12,24,16
India,Bihar,Munger,"Town Hall, Munger - BSPCB",22-03-2024 08:00:00,25.376776,86.471523,PM2.5,NA,NA,NA
India,Bihar,Munger,"Town Hall, Munger - BSPCB",22-03-2024 08:00:00,25.376776,86.471523,CO,2,17,5
India,Bihar,Muzaffarpur,"Buddha Colony, Muzaffarpur - BSPCB",22-03-2024 08:00:00,26.11442,85.39813,PM2.5,28,273,120
India,Bihar,Muzaffarpur,"Buddha Colony, Muzaffarpur - BSPCB",22-03-2024 08:00:00,26.11442,85.39813,PM10,28,185,103
India,Bihar,Muzaffarpur,"MIT-Daudpur Kothi, Muzaffarpur - BSPCB",22-03-2024 08:00:00,26.1403345,85.3650192,PM2.5,NA,NA,NA
India,Bihar,Muzaffarpur,"Muzaffarpur Collectorate, Muzaffarpur - BSPCB",22-03-2024 08:00:00,26.1209,85.3647,CO,9,43,12
India,Bihar,Patna,"DRM Office Danapur, Patna - BSPCB",22-03-2024 08:00:00,25.586562,85.043586,PM10,29,222,116
India,Bihar,Patna,"DRM Office Danapur, Patna - BSPCB",22-03-2024 08:00:00,25.586562,85.043586,NH3,3,3,3
India,Bihar,Patna,"IGSC Planetarium Complex, Patna - BSPCB",22-03-2024 08:00:00,25.610369,85.132568,OZONE,19,68,40
India,Bihar,Patna,"Muradpur, Patna - BSPCB",22-03-2024 08:00:00,25.619651,85.147382,PM2.5,46,310,171
India,Bihar,Patna,"Muradpur, Patna - BSPCB",22-03-2024 08:00:00,25.619651,85.147382,NO2,9,19,14
India,Bihar,Patna,"Muradpur, Patna - BSPCB",22-03-2024 08:00:00,25.619651,85.147382,NH3,2,5,3
India,Bihar,Patna,"Rajbansi Nagar, Patna - BSPCB",22-03-2024 08:00:00,25.599486,85.113666,SO2,6,31,13
India,Bihar,Patna,"Rajbansi Nagar, Patna - BSPCB",22-03-2024 08:00:00,25.599486,85.113666,OZONE,2,72,3
India,Bihar,Patna,"Samanpura, Patna - BSPCB",22-03-2024 08:00:00,25.596727,85.085624,PM10,62,487,239
India,Bihar,Patna,"Samanpura, Patna - BSPCB",22-03-2024 08:00:00,25.596727,85.085624,NH3,6,15,12
India,Bihar,Purnia,"Mariam Nagar, Purnia - BSPCB",22-03-2024 08:00:00,25.366336,87.117468,NO2,5,6,5
India,Bihar,Rajgir,"Dangi Tola, Rajgir - BSPCB",22-03-2024 08:00:00,25.03280,85.41948,PM10,4,99,48
India,Bihar,Rajgir,"Dangi Tola, Rajgir - BSPCB",22-03-2024 08:00:00,25.03280,85.41948,SO2,3,4,4
India,Bihar,Rajgir,"Dangi Tola, Rajgir - BSPCB",22-03-2024 08:00:00,25.03280,85.41948,OZONE,6,23,21
India,Bihar,Saharsa,"Police Line, Saharsa - BSPCB",22-03-2024 08:00:00,25.892357,86.590325,SO2,16,16,16
India,Bihar,Saharsa,"Police Line, Saharsa - BSPCB",22-03-2024 08:00:00,25.892357,86.590325,OZONE,7,45,15
India,Bihar,Siwan,"Chitragupta Nagar, Siwan - BSPCB",22-03-2024 08:00:00,26.2271665,84.3570427,NO2,10,108,34
India,Bihar,Siwan,"Chitragupta Nagar, Siwan - BSPCB",22-03-2024 08:00:00,26.2271665,84.3570427,NH3,1,20,5
India,Chandigarh,Chandigarh,"Sector 22, Chandigarh - CPCC",22-03-2024 08:00:00,30.735567,76.775714,PM2.5,48,130,86
India,Chandigarh,Chandigarh,"Sector 22, Chandigarh - CPCC",22-03-2024 08:00:00,30.735567,76.775714,PM10,91,149,123
India,Chandigarh,Chandigarh,"Sector 22, Chandigarh - CPCC",22-03-2024 08:00:00,30.735567,76.775714,CO,33,60,48
India,Chandigarh,Chandigarh,"Sector-25, Chandigarh - CPCC",22-03-2024 08:00:00,30.751462,76.762879,CO,20,52,37
India,Chandigarh,Chandigarh,"Sector-53, Chandigarh - CPCC",22-03-2024 08:00:00,30.719859,76.738637,PM10,105,177,132
India,Chhattisgarh,Bhilai,"Hathkhoj, Bhilai - CECB",22-03-2024 08:00:00,21.224231,81.408350,SO2,12,21,15
India,Chhattisgarh,Bhilai,"Hathkhoj, Bhilai - CECB",22-03-2024 08:00:00,21.224231,81.408350,CO,17,105,44
India,Chhattisgarh,Bhilai,"Hathkhoj, Bhilai - CECB",22-03-2024 08:00:00,21.224231,81.408350,OZONE,3,17,6
India,Chhattisgarh,Bilaspur,"Mangala, Bilaspur - NTPC",22-03-2024 08:00:00,22.08815,82.13737,NO2,16,18,16
India,Chhattisgarh,Chhal,"Nawapara SECL Colony, Chhal - CECB",22-03-2024 08:00:00,22.118125,83.140608,PM2.5,21,87,55
India,Chhattisgarh,Chhal,"Nawapara SECL Colony, Chhal - CECB",22-03-2024 08:00:00,22.118125,83.140608,PM10,27,124,66
India,Chhattisgarh,Korba,"Rampur, Korba - CECB",22-03-2024 08:00:00,22.368195,82.746431,PM10,25,165,68
India,Chhattisgarh,Korba,"Rampur, Korba - CECB",22-03-2024 08:00:00,22.368195,82.746431,SO2,7,43,14
India,Chhattisgarh,Korba,"Urja Nagar, Korba - CECB",22-03-2024 08:00:00,22.348441,82.549611,SO2,1,7,4
India,Chhattisgarh,Korba,"Urja Nagar, Korba - CECB",22-03-2024 08:00:00,22.348441,82.549611,CO,26,46,32
India,Chhattisgarh,Korba,"Urja Nagar, Korba - CECB",22-03-2024 08:00:00,22.348441,82.549611,OZONE,1,2,1
India,Chhattisgarh,Kunjemura,"OP Jindal School, Kunjemura - CECB",22-03-2024 08:00:00,22.126650,83.483212,CO,22,66,39
India,Chhattisgarh,Milupara,"Govt. Higher Secondary School, Milupara - CECB",22-03-2024 08:00:00,22.1910172,83.5197009,PM10,12,200,41
India,Chhattisgarh,Milupara,"Govt. Higher Secondary School, Milupara - CECB",22-03-2024 08:00:00,22.1910172,83.5197009,NO2,11,72,30
India,Chhattisgarh,Milupara,"Govt. Higher Secondary School, Milupara - CECB",22-03-2024 08:00:00,22.1910172,83.5197009,NH3,1,2,1
India,Chhattisgarh,Raipur,"AIIMS, Raipur - CECB",22-03-2024 08:00:00,21.258815,81.578979,OZONE,1,55,1
India,Chhattisgarh,Raipur,"Bhatagaon New ISBT, Raipur - CECB",22-03-2024 08:00:00,21.219665,81.630094,PM10,35,124,68
India,Chhattisgarh,Raipur,"Krishak Nagar, Raipur - CECB",22-03-2024 08:00:00,21.237755,81.705301,NO2,22,41,31
India,Chhattisgarh,Raipur,"Siltara Phase-II, Raipur - CECB",22-03-2024 08:00:00,21.371751,81.664929,PM10,NA,NA,NA
India,Chhattisgarh,Raipur,"Siltara Phase-II, Raipur - CECB",22-03-2024 08:00:00,21.371751,81.664929,OZONE,NA,NA,NA
India,Chhattisgarh,Tumidih,"OP Jindal Industrial Park, Tumidih - CECB",22-03-2024 08:00:00,22.06631475,83.33820077,OZONE,4,75,13
India,Delhi,Delhi,"Alipur, Delhi - DPCC",22-03-2024 08:00:00,28.815329,77.153010,PM2.5,97,324,205
India,Delhi,Delhi,"Alipur, Delhi - DPCC",22-03-2024 08:00:00,28.815329,77.153010,NO2,16,35,25
India,Delhi,Delhi,"Alipur, Delhi - DPCC",22-03-2024 08:00:00,28.815329,77.153010,CO,45,78,63
India,Delhi,Delhi,"Alipur, Delhi - DPCC",22-03-2024 08:00:00,28.815329,77.153010,OZONE,8,148,16
India,Delhi,Delhi,"Anand Vihar, Delhi - DPCC",22-03-2024 08:00:00,28.647622,77.3158090,CO,23,61,31
India,Delhi,Delhi,"Ashok Vihar, Delhi - DPCC",22-03-2024 08:00:00,28.695381,77.181665,SO2,21,32,26
India,Delhi,Delhi,"Aya Nagar, Delhi - IMD",22-03-2024 08:00:00,28.4706914,77.1099364,CO,57,73,67
India,Delhi,Delhi,"Aya Nagar, Delhi - IMD",22-03-2024 08:00:00,28.4706914,77.1099364,OZONE,9,32,12
India,Delhi,Delhi,"Bawana, Delhi - DPCC",22-03-2024 08:00:00,28.776200,77.051074,PM2.5,98,310,209
India,Delhi,Delhi,"Bawana, Delhi - DPCC",22-03-2024 08:00:00,28.776200,77.051074,PM10,128,252,189
India,Delhi,Delhi,"Bawana, Delhi - DPCC",22-03-2024 08:00:00,28.776200,77.051074,CO,49,76,67
India,Delhi,Delhi,"Burari Crossing, Delhi - IMD",22-03-2024 08:00:00,28.7256504,77.2011573,PM10,NA,NA,NA
India,Delhi,Delhi,"Chandni Chowk, Delhi - IITM",22-03-2024 08:00:00,28.656756,77.227234,NO2,10,118,44
India,Delhi,Delhi,"DTU, Delhi - CPCB",22-03-2024 08:00:00,28.7500499,77.1112615,PM10,119,174,146
India,Delhi,Delhi,"DTU, Delhi - CPCB",22-03-2024 08:00:00,28.7500499,77.1112615,CO,30,50,42
India,Delhi,Delhi,"DTU, Delhi - CPCB",22-03-2024 08:00:00,28.7500499,77.1112615,OZONE,27,124,28
India,Delhi,Delhi,"Dr. Karni Singh Shooting Range, Delhi - DPCC",22-03-2024 08:00:00,28.498571,77.264840,PM2.5,80,228,121
India,Delhi,Delhi,"Dr. Karni Singh Shooting Range, Delhi - DPCC",22-03-2024 08:00:00,28.498571,77.264840,PM10,105,179,131
India,Delhi,Delhi,"Dr. Karni Singh Shooting Range, Delhi - DPCC",22-03-2024 08:00:00,28.498571,77.264840,NO2,20,51,29
India,Delhi,Delhi,"Dwarka-Sector 8, Delhi - DPCC ",22-03-2024 08:00:00,28.5710274,77.0719006,PM2.5,97,179,131
India,Delhi,Delhi,"Dwarka-Sector 8, Delhi - DPCC ",22-03-2024 08:00:00,28.5710274,77.0719006,SO2,5,14,8
India,Delhi,Delhi,"IGI Airport (T3), Delhi - IMD",22-03-2024 08:00:00,28.5627763,77.1180053,PM10,90,149,125
India,Delhi,Delhi,"IGI Airport (T3), Delhi - IMD",22-03-2024 08:00:00,28.5627763,77.1180053,CO,8,50,32
India,Delhi,Delhi,"IGI Airport (T3), Delhi - IMD",22-03-2024 08:00:00,28.5627763,77.1180053,OZONE,3,59,8
India,Delhi,Delhi,"ITO, Delhi - CPCB",22-03-2024 08:00:00,28.628624,77.241060,NH3,1,7,5
India,Delhi,Delhi,"Jawaharlal Nehru Stadium, Delhi - DPCC",22-03-2024 08:00:00,28.580280,77.233829,NO2,39,118,77
India,Delhi,Delhi,"Lodhi Road, Delhi - IITM",22-03-2024 08:00:00,28.588333,77.221667,SO2,15,25,21
India,Delhi,Delhi,"Lodhi Road, Delhi - IMD",22-03-2024 08:00:00,28.5918245,77.2273074,NO2,2,7,4
India,Delhi,Delhi,"Lodhi Road, Delhi - IMD",22-03-2024 08:00:00,28.5918245,77.2273074,OZONE,10,44,11
India,Delhi,Delhi,"Major Dhyan Chand National Stadium, Delhi - DPCC",22-03-2024 08:00:00,28.611281,77.237738,PM2.5,87,236,153
India,Delhi,Delhi,"Major Dhyan Chand National Stadium, Delhi - DPCC",22-03-2024 08:00:00,28.611281,77.237738,NH3,9,11,10
India,Delhi,Delhi,"Mandir Marg, Delhi - DPCC",22-03-2024 08:00:00,28.636429,77.201067,NO2,115,137,125
India,Delhi,Delhi,"Mundka, Delhi - DPCC",22-03-2024 08:00:00,28.684678,77.076574,PM2.5,89,198,141
India,Delhi,Delhi,"Mundka, Delhi - DPCC",22-03-2024 08:00:00,28.684678,77.076574,PM10,126,214,163
India,Delhi,Delhi,"Mundka, Delhi - DPCC",22-03-2024 08:00:00,28.684678,77.076574,OZONE,14,14,14
India,Delhi,Delhi,"NSIT Dwarka, Delhi - CPCB",22-03-2024 08:00:00,28.60909,77.0325413,SO2,6,17,13
India,Delhi,Delhi,"Narela, Delhi - DPCC",22-03-2024 08:00:00,28.822836,77.101981,NH3,6,10,8
India,Delhi,Delhi,"Narela, Delhi - DPCC",22-03-2024 08:00:00,28.822836,77.101981,OZONE,7,178,17
India,Delhi,Delhi,"Nehru Nagar, Delhi - DPCC",22-03-2024 08:00:00,28.567890,77.250515,CO,8,110,58
India,Delhi,Delhi,"Okhla Phase-2, Delhi - DPCC",22-03-2024 08:00:00,28.530785,77.271255,OZONE,19,89,30
India,Delhi,Delhi,"Patparganj, Delhi - DPCC",22-03-2024 08:00:00,28.623763,77.287209,PM2.5,40,72,56
India,Delhi,Delhi,"Patparganj, Delhi - DPCC",22-03-2024 08:00:00,28.623763,77.287209,NO2,33,45,39
India,Delhi,Delhi,"Patparganj, Delhi - DPCC",22-03-2024 08:00:00,28.623763,77.287209,NH3,8,14,11
India,Delhi,Delhi,"Patparganj, Delhi - DPCC",22-03-2024 08:00:00,28.623763,77.287209,SO2,16,20,18
India,Delhi,Delhi,"Pusa, Delhi - DPCC",22-03-2024 08:00:00,28.639652,77.146275,PM2.5,68,203,116
India,Delhi,Delhi,"Pusa, Delhi - DPCC",22-03-2024 08:00:00,28.639652,77.146275,CO,2,40,28
India,Delhi,Delhi,"Pusa, Delhi - IMD",22-03-2024 08:00:00,28.636110,77.173332,CO,78,84,81
India,Delhi,Delhi,"R K Puram, Delhi - DPCC",22-03-2024 08:00:00,28.563262,77.186937,SO2,1,36,24
India,Delhi,Delhi,"Rohini, Delhi - DPCC",22-03-2024 08:00:00,28.732528,77.119920,PM2.5,90,158,128
India,Delhi,Delhi,"Rohini, Delhi - DPCC",22-03-2024 08:00:00,28.732528,77.119920,NO2,33,64,46
India,Delhi,Delhi,"Shadipur, Delhi - CPCB",22-03-2024 08:00:00,28.6514781,77.1473105,PM10,102,236,145
India,Delhi,Delhi,"Sirifort, Delhi - CPCB",22-03-2024 08:00:00,28.5504249,77.2159377,NO2,11,88,28
India,Delhi,Delhi,"Sonia Vihar, Delhi - DPCC",22-03-2024 08:00:00,28.710508,77.249485,PM2.5,98,202,149
India,Delhi,Delhi,"Sonia Vihar, Delhi - DPCC",22-03-2024 08:00:00,28.710508,77.249485,NH3,6,8,7
India,Delhi,Delhi,"Sri Aurobindo Marg, Delhi - DPCC",22-03-2024 08:00:00,28.531346,77.190156,OZONE,3,30,8
India,Delhi,Delhi,"Vivek Vihar, Delhi - DPCC",22-03-2024 08:00:00,28.672342,77.315260,PM10,NA,NA,NA
India,Delhi,Delhi,"Wazirpur, Delhi - DPCC",22-03-2024 08:00:00,28.699793,77.165453,SO2,8,32,21
India,Gujarat,Ahmedabad,"Chandkheda, Ahmedabad - IITM",22-03-2024 08:00:00,23.107969,72.574648,CO,4,106,80
India,Gujarat,Ahmedabad,"Gyaspur, Ahmedabad - IITM",22-03-2024 08:00:00,22.977134,72.553024,PM10,103,378,178
India,Gujarat,Ahmedabad,"Gyaspur, Ahmedabad - IITM",22-03-2024 08:00:00,22.977134,72.553024,NH3,9,11,10
India,Gujarat,Ahmedabad,"Gyaspur, Ahmedabad - IITM",22-03-2024 08:00:00,22.977134,72.553024,CO,20,82,51
India,Gujarat,Ahmedabad,"Maninagar, Ahmedabad - GPCB",22-03-2024 08:00:00,23.002657,72.591912,NO2,30,138,71
India,Gujarat,Ahmedabad,"Maninagar, Ahmedabad - GPCB",22-03-2024 08:00:00,23.002657,72.591912,CO,8,109,39
India,Gujarat,Ahmedabad,"Raikhad, Ahmedabad - IITM",22-03-2024 08:00:00,23.020509,72.579261,PM10,50,404,212
India,Gujarat,Ahmedabad,"Rakhial, Ahmedabad - IITM",22-03-2024 08:00:00,23.016834,72.625775,NO2,23,103,56
India,Gujarat,Ahmedabad,"Rakhial, Ahmedabad - IITM",22-03-2024 08:00:00,23.016834,72.625775,OZONE,3,103,3
India,Gujarat,Ahmedabad,"SAC ISRO Satellite, Ahmedabad - IITM",22-03-2024 08:00:00,23.023389,72.515201,PM10,101,124,114
India,Gujarat,Ahmedabad,"SAC ISRO Satellite, Ahmedabad - IITM",22-03-2024 08:00:00,23.023389,72.515201,NO2,17,17,17
India,Gujarat,Ahmedabad,"SAC ISRO Satellite, Ahmedabad - IITM",22-03-2024 08:00:00,23.023389,72.515201,SO2,3,35,9
India,Gujarat,Ahmedabad,"SVPI Airport Hansol, Ahmedabad - IITM",22-03-2024 08:00:00,23.076793,72.627874,SO2,3,11,8
India,Gujarat,Ahmedabad,"Sardar Vallabhbhai Patel Stadium, Ahmedabad - IITM",22-03-2024 08:00:00,23.043070,72.562968,PM10,96,187,137
India,Gujarat,Ahmedabad,"Sardar Vallabhbhai Patel Stadium, Ahmedabad - IITM",22-03-2024 08:00:00,23.043070,72.562968,CO,32,109,50
India,Gujarat,Ahmedabad,"Sardar Vallabhbhai Patel Stadium, Ahmedabad - IITM",22-03-2024 08:00:00,23.043070,72.562968,OZONE,15,27,16
India,Gujarat,Ankleshwar,"GIDC, Ankleshwar - GPCB",22-03-2024 08:00:00,21.613267,73.010555,SO2,1,97,43
India,Gujarat,Gandhinagar,"IIPHG Lekawada, Gandhinagar - IITM",22-03-2024 08:00:00,23.243639,72.68994,SO2,3,12,8
India,Gujarat,Gandhinagar,"Sector-10, Gandhinagar - GPCB",22-03-2024 08:00:00,23.221714,72.654328,NH3,1,1,1
India,Gujarat,Gandhinagar,"Sector-10, Gandhinagar - GPCB",22-03-2024 08:00:00,23.221714,72.654328,OZONE,2,40,2
India,Gujarat,Nandesari,"GIDC, Nandesari - Nandesari Ind. Association",22-03-2024 08:00:00,22.410802,73.097923,PM2.5,68,394,240
India,Gujarat,Surat,"Science Center, Surat - SMC",22-03-2024 08:00:00,21.170046,72.795405,NO2,35,61,48
India,Gujarat,Vapi,"Phase-1 GIDC, Vapi - GPCB",22-03-2024 08:00:00,20.362421,72.918013,CO,44,104,70
India,Gujarat,Vapi,"Phase-1 GIDC, Vapi - GPCB",22-03-2024 08:00:00,20.362421,72.918013,OZONE,1,4,3
India,Gujarat,Vatva,"Phase-4 GIDC, Vatva - GPCB",22-03-2024 08:00:00,22.969611,72.643500,CO,22,185,99
India,Haryana,Ambala,"Patti Mehar, Ambala - HSPCB",22-03-2024 08:00:00,30.379589,76.778328,SO2,NA,NA,NA
India,Haryana,Bahadurgarh,"Arya Nagar, Bahadurgarh - HSPCB",22-03-2024 08:00:00,28.6701,76.9254,PM10,110,150,135
India,Haryana,Bahadurgarh,"Arya Nagar, Bahadurgarh - HSPCB",22-03-2024 08:00:00,28.6701,76.9254,NH3,10,12,11
India,Haryana,Bahadurgarh,"Arya Nagar, Bahadurgarh - HSPCB",22-03-2024 08:00:00,28.6701,76.9254,SO2,12,21,15
India,Haryana,Bahadurgarh,"Arya Nagar, Bahadurgarh - HSPCB",22-03-2024 08:00:00,28.6701,76.9254,CO,36,58,48
India,Haryana,Bhiwani,"H.B. Colony, Bhiwani - HSPCB",22-03-2024 08:00:00,28.806223,76.141105,PM2.5,101,235,173
India,Haryana,Bhiwani,"H.B. Colony, Bhiwani - HSPCB",22-03-2024 08:00:00,28.806223,76.141105,PM10,92,136,117
India,Haryana,Bhiwani,"H.B. Colony, Bhiwani - HSPCB",22-03-2024 08:00:00,28.806223,76.141105,NH3,6,6,6
India,Haryana,Charkhi Dadri,"Mini Secretariat, Charkhi Dadri - HSPCB",22-03-2024 08:00:00,28.593883,76.270653,PM2.5,116,263,170
India,Haryana,Charkhi Dadri,"Mini Secretariat, Charkhi Dadri - HSPCB",22-03-2024 08:00:00,28.593883,76.270653,NH3,6,8,7
India,Haryana,Dharuhera,"Municipal Corporation Office, Dharuhera -  HSPCB",22-03-2024 08:00:00,28.206800,76.799700,SO2,NA,NA,NA
India,Haryana,Faridabad,"Sector 11, Faridabad - HSPCB",22-03-2024 08:00:00,28.376058,77.315741,PM10,97,172,132
India,Haryana,Faridabad,"Sector 30, Faridabad - HSPCB",22-03-2024 08:00:00,28.4417,77.3217,NO2,30,32,31
India,Haryana,Gurugram,"Sector-51, Gurugram - HSPCB",22-03-2024 08:00:00,28.4227,77.0667,PM10,132,178,151
India,Haryana,Gurugram,"Teri Gram, Gurugram - HSPCB",22-03-2024 08:00:00,28.4275,77.1465,SO2,3,5,4
India,Haryana,Gurugram,"Vikas Sadan, Gurugram - HSPCB",22-03-2024 08:00:00,28.4501238,77.0263051,NO2,5,26,14
India,Haryana,Hisar,"Urban Estate-II, Hisar - HSPCB",22-03-2024 08:00:00,29.140560,75.744941,PM10,108,162,129
India,Haryana,Kaithal,"Rishi Nagar, Kaithal - HSPCB",22-03-2024 08:00:00,29.8006,76.4155,NO2,24,27,25
India,Haryana,Kaithal,"Rishi Nagar, Kaithal - HSPCB",22-03-2024 08:00:00,29.8006,76.4155,NH3,8,8,8
India,Haryana,Karnal,"Sector-12, Karnal - HSPCB",22-03-2024 08:00:00,29.695300,77.002700,NO2,NA,NA,NA
India,Haryana,Karnal,"Sector-12, Karnal - HSPCB",22-03-2024 08:00:00,29.695300,77.002700,NH3,NA,NA,NA
India,Haryana,Kurukshetra,"Sector-7, Kurukshetra - HSPCB",22-03-2024 08:00:00,29.966942,76.875879,CO,18,42,38
India,Haryana,Palwal,"Shyam Nagar, Palwal - HSPCB",22-03-2024 08:00:00,28.1485564,77.3320667,PM2.5,49,73,58
India,Haryana,Palwal,"Shyam Nagar, Palwal - HSPCB",22-03-2024 08:00:00,28.1485564,77.3320667,NH3,8,9,9
India,Haryana,Palwal,"Shyam Nagar, Palwal - HSPCB",22-03-2024 08:00:00,28.1485564,77.3320667,CO,22,34,29
India,Haryana,Panchkula,"Sector-6, Panchkula - HSPCB ",22-03-2024 08:00:00,30.7057778,76.8531805555555,PM2.5,11,96,41
India,Haryana,Panipat,"Sector-18, Panipat - HSPCB",22-03-2024 08:00:00,29.497973,76.993331,PM10,74,77,75
India,Haryana,Sirsa,"F-Block, Sirsa - HSPCB",22-03-2024 08:00:00,29.536400,75.015800,PM2.5,39,149,92
India,Haryana,Yamuna Nagar,"Gobind Pura, Yamuna Nagar - HSPCB",22-03-2024 08:00:00,30.1480566,77.2893471,PM10,76,135,102
India,Haryana,Yamuna Nagar,"Gobind Pura, Yamuna Nagar - HSPCB",22-03-2024 08:00:00,30.1480566,77.2893471,CO,5,102,45
India,Himachal Pradesh,Baddi,"HIMUDA Complex Phase-1, Baddi - HPPCB",22-03-2024 08:00:00,30.943887,76.801991,SO2,10,101,49
India,Himachal Pradesh,Baddi,"HIMUDA Complex Phase-1, Baddi - HPPCB",22-03-2024 08:00:00,30.943887,76.801991,CO,33,62,39
India,Himachal Pradesh,Baddi,"HIMUDA Complex Phase-1, Baddi - HPPCB",22-03-2024 08:00:00,30.943887,76.801991,OZONE,43,155,54
India,Jharkhand,Dhanbad,"Sardar Patel Nagar, Dhanbad - JSPCB",22-03-2024 08:00:00,23.80569,86.44268,NO2,NA,NA,NA
India,Jharkhand,Pathardih,"Mohalbani Ghat, Pathardih - DMC",22-03-2024 08:00:00,23.669880,86.411725,PM2.5,31,109,61
India,Jharkhand,Pathardih,"Mohalbani Ghat, Pathardih - DMC",22-03-2024 08:00:00,23.669880,86.411725,SO2,NA,NA,NA
India,Karnataka,Bengaluru,"BTM Layout, Bengaluru - CPCB",22-03-2024 08:00:00,12.9135218,77.5950804,SO2,NA,NA,NA
India,Karnataka,Bengaluru,"Bapuji Nagar, Bengaluru - KSPCB",22-03-2024 08:00:00,12.951913,77.539784,PM2.5,55,94,70
India,Karnataka,Bengaluru,"Bapuji Nagar, Bengaluru - KSPCB",22-03-2024 08:00:00,12.951913,77.539784,NH3,NA,NA,NA
India,Karnataka,Bengaluru,"Bapuji Nagar, Bengaluru - KSPCB",22-03-2024 08:00:00,12.951913,77.539784,CO,NA,NA,NA
India,Karnataka,Bengaluru,"Hebbal, Bengaluru - KSPCB",22-03-2024 08:00:00,13.029152,77.585901,PM10,NA,NA,NA
India,Karnataka,Bengaluru,"Hombegowda Nagar, Bengaluru - KSPCB",22-03-2024 08:00:00,12.938539,77.590100,PM2.5,25,84,50
India,Karnataka,Bengaluru,"Jayanagar 5th Block, Bengaluru - KSPCB",22-03-2024 08:00:00,12.920984,77.584908,NO2,8,22,11
India,Karnataka,Bengaluru,"Jigani, Bengaluru - KSPCB",22-03-2024 08:00:00,12.7816279,77.6299145,OZONE,5,56,22
India,Karnataka,Bengaluru,"Kasturi Nagar, Bengaluru - KSPCB",22-03-2024 08:00:00,13.003872,77.664217,CO,24,26,25
India,Karnataka,Bengaluru,"Peenya, Bengaluru - CPCB",22-03-2024 08:00:00,13.0270199,77.494094,OZONE,22,60,38
India,Karnataka,Bengaluru,"Sanegurava Halli, Bengaluru - KSPCB",22-03-2024 08:00:00,12.990328,77.5431385,SO2,2,3,3
India,Karnataka,Bengaluru,"Shivapura_Peenya, Bengaluru - KSPCB",22-03-2024 08:00:00,13.0246342,77.5080115,PM2.5,22,111,52
India,Karnataka,Bengaluru,"Silk Board, Bengaluru - KSPCB",22-03-2024 08:00:00,12.917348,77.622813,NO2,16,25,20
India,Karnataka,Bidar,"Naubad, Bidar - KSPCB",22-03-2024 08:00:00,17.930306,77.482194,CO,44,82,66
India,Karnataka,Chamarajanagar,"Urban, Chamarajanagar - KSPCB",22-03-2024 08:00:00,11.55358,76.55521,NH3,1,2,1
India,Karnataka,Chikkaballapur,"Chikkaballapur Rural, Chikkaballapur - KSPCB",22-03-2024 08:00:00,13.428828,77.731418,CO,8,24,17
India,Karnataka,Chikkamagaluru,"Kalyana Nagara, Chikkamagaluru - KSPCB",22-03-2024 08:00:00,13.328028,75.797056,PM10,21,98,48
India,Karnataka,Chikkamagaluru,"Kalyana Nagara, Chikkamagaluru - KSPCB",22-03-2024 08:00:00,13.328028,75.797056,NO2,16,27,25
India,Karnataka,Chikkamagaluru,"Kalyana Nagara, Chikkamagaluru - KSPCB",22-03-2024 08:00:00,13.328028,75.797056,SO2,1,11,6
India,Karnataka,Davanagere,"Devaraj Urs Badavane, Davanagere - KSPCB",22-03-2024 08:00:00,14.475800,75.905200,SO2,4,6,5
India,Karnataka,Dharwad,"Kalabhavan, Dharwad - KSPCB",22-03-2024 08:00:00,15.459706,75.008381,OZONE,2,26,2
India,Karnataka,Gadag,"Panchal Nagar, Gadag - KSPCB",22-03-2024 08:00:00,15.411456,75.638133,PM10,48,67,58
India,Karnataka,Gadag,"Panchal Nagar, Gadag - KSPCB",22-03-2024 08:00:00,15.411456,75.638133,OZONE,42,87,47
India,Karnataka,Haveri,"Ashwini Nagar, Haveri - KSPCB",22-03-2024 08:00:00,14.791800,75.389600,PM10,NA,NA,NA
India,Karnataka,Hubballi,"Deshpande Nagar, Hubballi - KSPCB",22-03-2024 08:00:00,15.351773,75.140726,NO2,NA,NA,NA
India,Karnataka,Hubballi,"Deshpande Nagar, Hubballi - KSPCB",22-03-2024 08:00:00,15.351773,75.140726,NH3,NA,NA,NA
India,Karnataka,Hubballi,"Lingaraj Nagar, Hubballi - KSPCB",22-03-2024 08:00:00,15.3714823,75.1160168,NH3,2,2,2
India,Karnataka,Hubballi,"Lingaraj Nagar, Hubballi - KSPCB",22-03-2024 08:00:00,15.3714823,75.1160168,CO,41,190,126
India,Karnataka,Kalaburagi,"Lal Bahadur Shastri Nagar, Kalaburagi - KSPCB",22-03-2024 08:00:00,17.321993,76.822628,NO2,11,12,11
India,Karnataka,Kalaburagi,"Mahatma Basaveswar Colony, Kalaburgi - KSPCB",22-03-2024 08:00:00,17.336318,76.847397,OZONE,5,28,10
India,Karnataka,Koppal,"Diwator Nagar, Koppal - KSPCB",22-03-2024 08:00:00,15.347630,76.181767,PM2.5,29,66,49
India,Karnataka,Koppal,"Diwator Nagar, Koppal - KSPCB",22-03-2024 08:00:00,15.347630,76.181767,PM10,30,67,50
India,Karnataka,Koppal,"Diwator Nagar, Koppal - KSPCB",22-03-2024 08:00:00,15.347630,76.181767,OZONE,22,67,30
India,Karnataka,Madikeri,"Stuart Hill, Madikeri - KSPCB",22-03-2024 08:00:00,12.415911,75.735050,PM2.5,41,66,52
India,Karnataka,Madikeri,"Stuart Hill, Madikeri - KSPCB",22-03-2024 08:00:00,12.415911,75.735050,SO2,4,4,4
India,Karnataka,Madikeri,"Stuart Hill, Madikeri - KSPCB",22-03-2024 08:00:00,12.415911,75.735050,OZONE,20,56,29
India,Karnataka,Mangalore,"Kadri, Mangalore - KSPCB",22-03-2024 08:00:00,12.889250,74.853000,PM2.5,55,96,69
India,Karnataka,Mangalore,"Kadri, Mangalore - KSPCB",22-03-2024 08:00:00,12.889250,74.853000,PM10,45,75,56
India,Karnataka,Mangalore,"Kadri, Mangalore - KSPCB",22-03-2024 08:00:00,12.889250,74.853000,OZONE,30,32,31
India,Karnataka,Mysuru,"Hebbal 1st Stage, Mysuru - KSPCB",22-03-2024 08:00:00,12.21041,76.37376,PM10,39,89,55
India,Karnataka,Mysuru,"Hebbal 1st Stage, Mysuru - KSPCB",22-03-2024 08:00:00,12.21041,76.37376,NO2,10,37,23
India,Karnataka,Mysuru,"Hebbal 1st Stage, Mysuru - KSPCB",22-03-2024 08:00:00,12.21041,76.37376,NH3,1,2,2
India,Karnataka,Mysuru,"Hebbal 1st Stage, Mysuru - KSPCB",22-03-2024 08:00:00,12.21041,76.37376,CO,2,56,17
India,Karnataka,Raichur,"Haji Colony, Raichur - KSPCB",22-03-2024 08:00:00,16.208139,77.348417,PM2.5,11,72,33
India,Karnataka,Raichur,"Haji Colony, Raichur - KSPCB",22-03-2024 08:00:00,16.208139,77.348417,PM10,46,247,115
India,Karnataka,Raichur,"Haji Colony, Raichur - KSPCB",22-03-2024 08:00:00,16.208139,77.348417,NO2,14,52,28
India,Karnataka,Raichur,"Haji Colony, Raichur - KSPCB",22-03-2024 08:00:00,16.208139,77.348417,CO,92,121,102
India,Karnataka,Ramanagara,"Vijay Nagar, Ramanagara - KSPCB",22-03-2024 08:00:00,12.733409,77.298051,PM10,28,40,35
