country,state,city,station,last_update,latitude,longitude,pollutant_id,pollutant_min,pollutant_max,pollutant_avg
India,Andhra_Pradesh,Anantapur,"Gulzarpet, Anantapur - APPCB",29-01-2024 08:00:00,14.675886,77.593027,CO,22,60,36
India,Andhra_Pradesh,Chittoor,"Gangineni Cheruvu, Chittoor - APPCB",29-01-2024 08:00:00,13.204880,79.097889,NO2,1,34,10
India,Andhra_Pradesh,Kadapa,"Yerramukkapalli, Kadapa - APPCB",29-01-2024 08:00:00,14.465052,78.824187,SO2,1,2,2
India,Andhra_Pradesh,Tirupati,"Vaikuntapuram, Tirupati - APPCB",29-01-2024 08:00:00,13.615387,79.409230,OZONE,5,36,14
India,Andhra_Pradesh,Vijayawada,"HB Colony, Vijayawada - APPCB",29-01-2024 08:00:00,16.536107,80.594233,PM10,NA,NA,NA
India,Andhra_Pradesh,Vijayawada,"HB Colony, Vijayawada - APPCB",29-01-2024 08:00:00,16.536107,80.594233,SO2,NA,NA,NA
India,Andhra_Pradesh,Vijayawada,"Rajiv Gandhi Park, Vijayawada - APPCB",29-01-2024 08:00:00,16.509717,80.612222,PM2.5,NA,NA,NA
India,Andhra_Pradesh,Vijayawada,"Rajiv Gandhi Park, Vijayawada - APPCB",29-01-2024 08:00:00,16.509717,80.612222,NO2,NA,NA,NA
India,Andhra_Pradesh,Visakhapatnam,"GVM Corporation, Visakhapatnam - APPCB",29-01-2024 08:00:00,17.72,83.3,PM2.5,NA,NA,NA
India,Arunachal_Pradesh,Naharlagun,"Naharlagun, Naharlagun - APSPCB",29-01-2024 08:00:00,27.103358,93.679645,CO,11,58,23
India,Assam,Byrnihat,"Central Academy for SFS, Byrnihat - PCBA",29-01-2024 08:00:00,26.071318,91.87488,PM10,94,500,299
India,Assam,Byrnihat,"Central Academy for SFS, Byrnihat - PCBA",29-01-2024 08:00:00,26.071318,91.87488,CO,1,196,52
India,Assam,Guwahati,"Pan Bazaar, Guwahati - PCBA",29-01-2024 08:00:00,26.187500,91.744194,NH3,3,5,4
India,Assam,Guwahati,"Railway Colony, Guwahati - PCBA",29-01-2024 08:00:00,26.181742,91.78063,PM10,68,500,197
India,Assam,Nagaon,"Christianpatty, Nagaon - PCBA",29-01-2024 08:00:00,26.349082,92.68449,PM10,95,497,216
India,Assam,Nagaon,"Christianpatty, Nagaon - PCBA",29-01-2024 08:00:00,26.349082,92.68449,SO2,1,17,6
India,Assam,Silchar,"Tarapur, Silchar - PCBA",29-01-2024 08:00:00,24.82827,92.79525,NH3,NA,NA,NA
India,Assam,Sivasagar,"Girls College, Sivasagar - PCBA",29-01-2024 08:00:00,26.987634,94.636574,NH3,3,3,3
India,Bihar,Araria,"Kharahiya Basti, Araria - BSPCB",29-01-2024 08:00:00,26.146529,87.454184,CO,22,30,27
India,Bihar,Araria,"Kharahiya Basti, Araria - BSPCB",29-01-2024 08:00:00,26.146529,87.454184,OZONE,10,63,11
India,Bihar,Arrah,"New DM Office, Arrah - BSPCB",29-01-2024 08:00:00,25.5626095,84.663264,PM2.5,290,410,349
India,Bihar,Arrah,"New DM Office, Arrah - BSPCB",29-01-2024 08:00:00,25.5626095,84.663264,OZONE,13,33,13
India,Bihar,Aurangabad,"Gurdeo Nagar, Aurangabad - BSPCB",29-01-2024 08:00:00,24.75746,84.366208,NO2,6,16,9
India,Bihar,Aurangabad,"Gurdeo Nagar, Aurangabad - BSPCB",29-01-2024 08:00:00,24.75746,84.366208,CO,10,112,81
India,Bihar,Bettiah,"Kamalnath Nagar, Bettiah - BSPCB",29-01-2024 08:00:00,26.80365,84.51954,PM2.5,NA,NA,NA
India,Bihar,Bhagalpur,"DM Office_Kachari Chowk, Bhagalpur - BSPCB",29-01-2024 08:00:00,25.251013,86.989001,SO2,6,46,27
India,Bihar,Bhagalpur,"Mayaganj, Bhagalpur - BSPCB",29-01-2024 08:00:00,25.265194,87.012947,NO2,5,16,10
India,Bihar,Bhagalpur,"Mayaganj, Bhagalpur - BSPCB",29-01-2024 08:00:00,25.265194,87.012947,NH3,8,9,9
India,Bihar,Chhapra,"Darshan Nagar, Chhapra - BSPCB",29-01-2024 08:00:00,25.7808257,84.7446768,NH3,11,18,14
India,Bihar,Gaya,"Collectorate, Gaya - BSPCB",29-01-2024 08:00:00,24.7955,84.9994,NO2,16,25,19
India,Bihar,Gaya,"Kareemganj, Gaya - BSPCB",29-01-2024 08:00:00,24.792403,84.992416,PM10,61,272,164
India,Bihar,Katihar,"Mirchaibari, Katihar - BSPCB",29-01-2024 08:00:00,25.560083,87.553265,NO2,14,40,25
India,Bihar,Katihar,"Mirchaibari, Katihar - BSPCB",29-01-2024 08:00:00,25.560083,87.553265,CO,NA,NA,NA
India,Bihar,Katihar,"Mirchaibari, Katihar - BSPCB",29-01-2024 08:00:00,25.560083,87.553265,OZONE,19,25,22
India,Bihar,Manguraha,"Forest Rest House, Manguraha - BSPCB",29-01-2024 08:00:00,27.308328,84.531742,PM2.5,NA,NA,NA
India,Bihar,Manguraha,"Forest Rest House, Manguraha - BSPCB",29-01-2024 08:00:00,27.308328,84.531742,NO2,6,12,8
India,Bihar,Manguraha,"Forest Rest House, Manguraha - BSPCB",29-01-2024 08:00:00,27.308328,84.531742,OZONE,29,83,51
India,Bihar,Motihari,"Gandak Colony, Motihari - BSPCB",29-01-2024 08:00:00,26.63086,84.90051,SO2,NA,NA,NA
India,Bihar,Muzaffarpur,"MIT-Daudpur Kothi, Muzaffarpur - BSPCB",29-01-2024 08:00:00,26.1403345,85.3650192,PM2.5,85,352,210
India,Bihar,Muzaffarpur,"MIT-Daudpur Kothi, Muzaffarpur - BSPCB",29-01-2024 08:00:00,26.1403345,85.3650192,NO2,6,8,6
India,Bihar,Muzaffarpur,"MIT-Daudpur Kothi, Muzaffarpur - BSPCB",29-01-2024 08:00:00,26.1403345,85.3650192,NH3,3,4,4
India,Bihar,Muzaffarpur,"MIT-Daudpur Kothi, Muzaffarpur - BSPCB",29-01-2024 08:00:00,26.1403345,85.3650192,SO2,9,10,9
India,Bihar,Muzaffarpur,"MIT-Daudpur Kothi, Muzaffarpur - BSPCB",29-01-2024 08:00:00,26.1403345,85.3650192,CO,22,124,41
India,Bihar,Muzaffarpur,"Muzaffarpur Collectorate, Muzaffarpur - BSPCB",29-01-2024 08:00:00,26.1209,85.3647,NO2,6,16,9
India,Bihar,Muzaffarpur,"Muzaffarpur Collectorate, Muzaffarpur - BSPCB",29-01-2024 08:00:00,26.1209,85.3647,OZONE,8,71,32
India,Bihar,Patna,"DRM Office Danapur, Patna - BSPCB",29-01-2024 08:00:00,25.586562,85.043586,PM10,198,324,238
India,Bihar,Patna,"DRM Office Danapur, Patna - BSPCB",29-01-2024 08:00:00,25.586562,85.043586,SO2,6,9,8
India,Bihar,Patna,"DRM Office Danapur, Patna - BSPCB",29-01-2024 08:00:00,25.586562,85.043586,OZONE,1,51,1
India,Bihar,Patna,"Govt. High School Shikarpur, Patna - BSPCB",29-01-2024 08:00:00,25.592539,85.227158,NH3,3,6,4
India,Bihar,Patna,"Govt. High School Shikarpur, Patna - BSPCB",29-01-2024 08:00:00,25.592539,85.227158,CO,14,121,108
India,Bihar,Patna,"IGSC Planetarium Complex, Patna - BSPCB",29-01-2024 08:00:00,25.610369,85.132568,NO2,15,15,15
India,Bihar,Patna,"IGSC Planetarium Complex, Patna - BSPCB",29-01-2024 08:00:00,25.610369,85.132568,SO2,7,8,7
India,Bihar,Patna,"IGSC Planetarium Complex, Patna - BSPCB",29-01-2024 08:00:00,25.610369,85.132568,OZONE,8,14,12
India,Bihar,Patna,"Rajbansi Nagar, Patna - BSPCB",29-01-2024 08:00:00,25.599486,85.113666,PM2.5,303,373,340
India,Bihar,Patna,"Rajbansi Nagar, Patna - BSPCB",29-01-2024 08:00:00,25.599486,85.113666,SO2,10,19,15
India,Bihar,Patna,"Samanpura, Patna - BSPCB",29-01-2024 08:00:00,25.596727,85.085624,PM10,NA,NA,NA
India,Bihar,Patna,"Samanpura, Patna - BSPCB",29-01-2024 08:00:00,25.596727,85.085624,CO,101,134,129
India,Bihar,Rajgir,"Dangi Tola, Rajgir - BSPCB",29-01-2024 08:00:00,25.03280,85.41948,SO2,4,4,4
India,Bihar,Saharsa,"Police Line, Saharsa - BSPCB",29-01-2024 08:00:00,25.892357,86.590325,PM2.5,323,475,367
India,Bihar,Saharsa,"Police Line, Saharsa - BSPCB",29-01-2024 08:00:00,25.892357,86.590325,NO2,6,8,7
India,Bihar,Samastipur,"DM Office_Kasipur, Samastipur - BSPCB",29-01-2024 08:00:00,25.859655,85.77944,PM2.5,NA,NA,NA
India,Bihar,Samastipur,"DM Office_Kasipur, Samastipur - BSPCB",29-01-2024 08:00:00,25.859655,85.77944,NO2,NA,NA,NA
India,Bihar,Siwan,"Chitragupta Nagar, Siwan - BSPCB",29-01-2024 08:00:00,26.2271665,84.3570427,PM2.5,78,317,149
India,Bihar,Siwan,"Chitragupta Nagar, Siwan - BSPCB",29-01-2024 08:00:00,26.2271665,84.3570427,SO2,15,37,31
India,Chandigarh,Chandigarh,"Sector 22, Chandigarh - CPCC",29-01-2024 08:00:00,30.735567,76.775714,PM2.5,240,413,348
India,Chandigarh,Chandigarh,"Sector-25, Chandigarh - CPCC",29-01-2024 08:00:00,30.751462,76.762879,PM2.5,183,325,285
India,Chhattisgarh,Bhilai,"Hathkhoj, Bhilai - CECB",29-01-2024 08:00:00,21.224231,81.408350,PM2.5,56,306,122
India,Chhattisgarh,Bhilai,"Hathkhoj, Bhilai - CECB",29-01-2024 08:00:00,21.224231,81.408350,NO2,25,86,46
India,Chhattisgarh,Bhilai,"Hathkhoj, Bhilai - CECB",29-01-2024 08:00:00,21.224231,81.408350,CO,27,80,36
India,Chhattisgarh,Bhilai,"Hathkhoj, Bhilai - CECB",29-01-2024 08:00:00,21.224231,81.408350,OZONE,7,19,9
India,Chhattisgarh,Bilaspur,"Mangala, Bilaspur - NTPC",29-01-2024 08:00:00,22.08815,82.13737,CO,28,41,34
India,Chhattisgarh,Korba,"Rampur, Korba - CECB",29-01-2024 08:00:00,22.368195,82.746431,NO2,46,84,61
India,Chhattisgarh,Korba,"Rampur, Korba - CECB",29-01-2024 08:00:00,22.368195,82.746431,OZONE,NA,NA,NA
India,Chhattisgarh,Korba,"Urja Nagar, Korba - CECB",29-01-2024 08:00:00,22.348441,82.549611,PM2.5,29,83,53
India,Chhattisgarh,Kunjemura,"OP Jindal School, Kunjemura - CECB",29-01-2024 08:00:00,22.126650,83.483212,OZONE,3,59,4
India,Chhattisgarh,Milupara,"Govt. Higher Secondary School, Milupara - CECB",29-01-2024 08:00:00,22.1910172,83.5197009,PM10,26,176,68
India,Chhattisgarh,Milupara,"Govt. Higher Secondary School, Milupara - CECB",29-01-2024 08:00:00,22.1910172,83.5197009,NO2,18,84,39
India,Chhattisgarh,Raipur,"Bhatagaon New ISBT, Raipur - CECB",29-01-2024 08:00:00,21.219665,81.630094,PM10,46,159,97
India,Chhattisgarh,Raipur,"Bhatagaon New ISBT, Raipur - CECB",29-01-2024 08:00:00,21.219665,81.630094,NO2,58,102,79
India,Chhattisgarh,Raipur,"Bhatagaon New ISBT, Raipur - CECB",29-01-2024 08:00:00,21.219665,81.630094,CO,32,85,55
India,Chhattisgarh,Raipur,"Krishak Nagar, Raipur - CECB",29-01-2024 08:00:00,21.237755,81.705301,CO,39,102,54
India,Chhattisgarh,Raipur,"Siltara Phase-II, Raipur - CECB",29-01-2024 08:00:00,21.371751,81.664929,PM2.5,29,95,56
India,Chhattisgarh,Raipur,"Siltara Phase-II, Raipur - CECB",29-01-2024 08:00:00,21.371751,81.664929,OZONE,3,30,3
India,Chhattisgarh,Tumidih,"OP Jindal Industrial Park, Tumidih - CECB",29-01-2024 08:00:00,22.06631475,83.33820077,PM10,NA,NA,NA
India,Chhattisgarh,Tumidih,"OP Jindal Industrial Park, Tumidih - CECB",29-01-2024 08:00:00,22.06631475,83.33820077,NO2,NA,NA,NA
India,Delhi,Delhi,"Alipur, Delhi - DPCC",29-01-2024 08:00:00,28.815329,77.153010,PM2.5,327,406,356
India,Delhi,Delhi,"Anand Vihar, Delhi - DPCC",29-01-2024 08:00:00,28.647622,77.3158090,NO2,58,249,104
India,Delhi,Delhi,"Ashok Vihar, Delhi - DPCC",29-01-2024 08:00:00,28.695381,77.181665,PM10,211,500,369
India,Delhi,Delhi,"Ashok Vihar, Delhi - DPCC",29-01-2024 08:00:00,28.695381,77.181665,NO2,44,208,96
India,Delhi,Delhi,"Aya Nagar, Delhi - IMD",29-01-2024 08:00:00,28.4706914,77.1099364,CO,101,110,103
India,Delhi,Delhi,"Aya Nagar, Delhi - IMD",29-01-2024 08:00:00,28.4706914,77.1099364,OZONE,6,28,7
India,Delhi,Delhi,"Bawana, Delhi - DPCC",29-01-2024 08:00:00,28.776200,77.051074,CO,74,105,78
India,Delhi,Delhi,"Bawana, Delhi - DPCC",29-01-2024 08:00:00,28.776200,77.051074,OZONE,3,24,4
India,Delhi,Delhi,"Burari Crossing, Delhi - IMD",29-01-2024 08:00:00,28.7256504,77.2011573,PM2.5,243,500,374
India,Delhi,Delhi,"Burari Crossing, Delhi - IMD",29-01-2024 08:00:00,28.7256504,77.2011573,NO2,8,24,13
India,Delhi,Delhi,"Burari Crossing, Delhi - IMD",29-01-2024 08:00:00,28.7256504,77.2011573,CO,69,102,100
India,Delhi,Delhi,"Burari Crossing, Delhi - IMD",29-01-2024 08:00:00,28.7256504,77.2011573,OZONE,21,45,26
India,Delhi,Delhi,"Dr. Karni Singh Shooting Range, Delhi - DPCC",29-01-2024 08:00:00,28.498571,77.264840,PM2.5,314,473,385
India,Delhi,Delhi,"Dr. Karni Singh Shooting Range, Delhi - DPCC",29-01-2024 08:00:00,28.498571,77.264840,NH3,10,16,13
India,Delhi,Delhi,"Dwarka-Sector 8, Delhi - DPCC ",29-01-2024 08:00:00,28.5710274,77.0719006,OZONE,2,29,3
India,Delhi,Delhi,"IHBAS, Dilshad Garden, Delhi - CPCB",29-01-2024 08:00:00,28.6811736,77.3025234,NO2,18,39,30
India,Delhi,Delhi,"Jahangirpuri, Delhi - DPCC",29-01-2024 08:00:00,28.732820,77.170633,PM2.5,355,500,424
India,Delhi,Delhi,"Jahangirpuri, Delhi - DPCC",29-01-2024 08:00:00,28.732820,77.170633,SO2,16,23,20
India,Delhi,Delhi,"Jawaharlal Nehru Stadium, Delhi - DPCC",29-01-2024 08:00:00,28.580280,77.233829,PM2.5,310,487,380
India,Delhi,Delhi,"Jawaharlal Nehru Stadium, Delhi - DPCC",29-01-2024 08:00:00,28.580280,77.233829,NO2,51,276,109
India,Delhi,Delhi,"Lodhi Road, Delhi - IITM",29-01-2024 08:00:00,28.588333,77.221667,SO2,12,32,22
India,Delhi,Delhi,"Lodhi Road, Delhi - IMD",29-01-2024 08:00:00,28.5918245,77.2273074,PM10,182,459,276
India,Delhi,Delhi,"Major Dhyan Chand National Stadium, Delhi - DPCC",29-01-2024 08:00:00,28.611281,77.237738,PM2.5,323,472,383
India,Delhi,Delhi,"Major Dhyan Chand National Stadium, Delhi - DPCC",29-01-2024 08:00:00,28.611281,77.237738,NO2,48,299,96
India,Delhi,Delhi,"Mandir Marg, Delhi - DPCC",29-01-2024 08:00:00,28.636429,77.201067,SO2,4,12,8
India,Delhi,Delhi,"Mandir Marg, Delhi - DPCC",29-01-2024 08:00:00,28.636429,77.201067,OZONE,NA,NA,NA
India,Delhi,Delhi,"Mundka, Delhi - DPCC",29-01-2024 08:00:00,28.684678,77.076574,NH3,8,18,13
India,Delhi,Delhi,"Mundka, Delhi - DPCC",29-01-2024 08:00:00,28.684678,77.076574,CO,66,114,76
India,Delhi,Delhi,"NSIT Dwarka, Delhi - CPCB",29-01-2024 08:00:00,28.60909,77.0325413,NO2,21,90,40
India,Delhi,Delhi,"NSIT Dwarka, Delhi - CPCB",29-01-2024 08:00:00,28.60909,77.0325413,NH3,6,13,10
India,Delhi,Delhi,"NSIT Dwarka, Delhi - CPCB",29-01-2024 08:00:00,28.60909,77.0325413,SO2,5,18,13
India,Delhi,Delhi,"Najafgarh, Delhi - DPCC",29-01-2024 08:00:00,28.570173,76.933762,PM2.5,302,437,360
India,Delhi,Delhi,"Najafgarh, Delhi - DPCC",29-01-2024 08:00:00,28.570173,76.933762,CO,19,110,36
India,Delhi,Delhi,"Narela, Delhi - DPCC",29-01-2024 08:00:00,28.822836,77.101981,PM2.5,345,455,388
India,Delhi,Delhi,"Narela, Delhi - DPCC",29-01-2024 08:00:00,28.822836,77.101981,NO2,29,107,50
India,Delhi,Delhi,"Nehru Nagar, Delhi - DPCC",29-01-2024 08:00:00,28.567890,77.250515,PM10,214,496,333
India,Delhi,Delhi,"Okhla Phase-2, Delhi - DPCC",29-01-2024 08:00:00,28.530785,77.271255,OZONE,9,57,15
India,Delhi,Delhi,"Patparganj, Delhi - DPCC",29-01-2024 08:00:00,28.623763,77.287209,NO2,41,117,62
India,Delhi,Delhi,"Pusa, Delhi - DPCC",29-01-2024 08:00:00,28.639652,77.146275,CO,37,100,50
India,Delhi,Delhi,"Pusa, Delhi - IMD",29-01-2024 08:00:00,28.636110,77.173332,PM10,127,402,229
India,Delhi,Delhi,"Shadipur, Delhi - CPCB",29-01-2024 08:00:00,28.6514781,77.1473105,PM2.5,299,500,398
India,Delhi,Delhi,"Sirifort, Delhi - CPCB",29-01-2024 08:00:00,28.5504249,77.2159377,PM2.5,NA,NA,NA
India,Delhi,Delhi,"Sonia Vihar, Delhi - DPCC",29-01-2024 08:00:00,28.710508,77.249485,CO,61,109,68
India,Delhi,Delhi,"Sonia Vihar, Delhi - DPCC",29-01-2024 08:00:00,28.710508,77.249485,OZONE,4,31,6
India,Delhi,Delhi,"Sri Aurobindo Marg, Delhi - DPCC",29-01-2024 08:00:00,28.531346,77.190156,NO2,26,193,71
India,Gujarat,Ahmedabad,"Chandkheda, Ahmedabad - IITM",29-01-2024 08:00:00,23.107969,72.574648,NO2,25,35,30
India,Gujarat,Ahmedabad,"Maninagar, Ahmedabad - GPCB",29-01-2024 08:00:00,23.002657,72.591912,PM10,103,301,172
India,Gujarat,Ahmedabad,"Maninagar, Ahmedabad - GPCB",29-01-2024 08:00:00,23.002657,72.591912,CO,8,102,31
India,Gujarat,Ahmedabad,"Raikhad, Ahmedabad - IITM",29-01-2024 08:00:00,23.020509,72.579261,NO2,14,15,15
India,Gujarat,Ahmedabad,"Raikhad, Ahmedabad - IITM",29-01-2024 08:00:00,23.020509,72.579261,SO2,13,17,14
India,Gujarat,Ahmedabad,"Rakhial, Ahmedabad - IITM",29-01-2024 08:00:00,23.016834,72.625775,PM10,70,307,141
India,Gujarat,Ahmedabad,"SAC ISRO Bopal, Ahmedabad - IITM",29-01-2024 08:00:00,23.041137,72.456691,NO2,12,16,14
India,Gujarat,Ahmedabad,"SAC ISRO Bopal, Ahmedabad - IITM",29-01-2024 08:00:00,23.041137,72.456691,OZONE,9,13,9
India,Gujarat,Ahmedabad,"SAC ISRO Satellite, Ahmedabad - IITM",29-01-2024 08:00:00,23.023389,72.515201,PM2.5,73,176,106
India,Gujarat,Ahmedabad,"SAC ISRO Satellite, Ahmedabad - IITM",29-01-2024 08:00:00,23.023389,72.515201,SO2,16,29,19
India,Gujarat,Ahmedabad,"SVPI Airport Hansol, Ahmedabad - IITM",29-01-2024 08:00:00,23.076793,72.627874,PM10,68,190,110
India,Gujarat,Ahmedabad,"Sardar Vallabhbhai Patel Stadium, Ahmedabad - IITM",29-01-2024 08:00:00,23.043070,72.562968,PM2.5,84,249,143
India,Gujarat,Ahmedabad,"Sardar Vallabhbhai Patel Stadium, Ahmedabad - IITM",29-01-2024 08:00:00,23.043070,72.562968,CO,16,117,54
India,Gujarat,Ankleshwar,"GIDC, Ankleshwar - GPCB",29-01-2024 08:00:00,21.613267,73.010555,NO2,34,34,34
India,Gujarat,Ankleshwar,"GIDC, Ankleshwar - GPCB",29-01-2024 08:00:00,21.613267,73.010555,SO2,27,124,56
India,Gujarat,Ankleshwar,"GIDC, Ankleshwar - GPCB",29-01-2024 08:00:00,21.613267,73.010555,OZONE,20,34,21
India,Gujarat,Gandhinagar,"GIFT City, Gandhinagar - IITM",29-01-2024 08:00:00,23.163798,72.677768,PM2.5,99,331,239
India,Gujarat,Gandhinagar,"GIFT City, Gandhinagar - IITM",29-01-2024 08:00:00,23.163798,72.677768,CO,30,53,50
India,Gujarat,Gandhinagar,"Sector-10, Gandhinagar - GPCB",29-01-2024 08:00:00,23.221714,72.654328,PM2.5,25,86,54
India,Gujarat,Gandhinagar,"Sector-10, Gandhinagar - GPCB",29-01-2024 08:00:00,23.221714,72.654328,NO2,3,12,7
India,Gujarat,Surat,"Science Center, Surat - SMC",29-01-2024 08:00:00,21.170046,72.795405,PM10,22,121,84
India,Gujarat,Surat,"Science Center, Surat - SMC",29-01-2024 08:00:00,21.170046,72.795405,NO2,7,66,28
India,Gujarat,Vatva,"Phase-4 GIDC, Vatva - GPCB",29-01-2024 08:00:00,22.969611,72.643500,PM2.5,54,346,165
India,Gujarat,Vatva,"Phase-4 GIDC, Vatva - GPCB",29-01-2024 08:00:00,22.969611,72.643500,PM10,85,193,119
India,Haryana,Ambala,"Patti Mehar, Ambala - HSPCB",29-01-2024 08:00:00,30.379589,76.778328,NO2,7,21,14
India,Haryana,Ambala,"Patti Mehar, Ambala - HSPCB",29-01-2024 08:00:00,30.379589,76.778328,NH3,5,12,8
India,Haryana,Bahadurgarh,"Arya Nagar, Bahadurgarh - HSPCB",29-01-2024 08:00:00,28.6701,76.9254,PM10,151,330,226
India,Haryana,Bahadurgarh,"Arya Nagar, Bahadurgarh - HSPCB",29-01-2024 08:00:00,28.6701,76.9254,OZONE,41,48,45
India,Haryana,Ballabgarh,"Nathu Colony, Ballabgarh - HSPCB",29-01-2024 08:00:00,28.3419248,77.319699,PM2.5,14,286,88
India,Haryana,Ballabgarh,"Nathu Colony, Ballabgarh - HSPCB",29-01-2024 08:00:00,28.3419248,77.319699,OZONE,2,25,7
India,Haryana,Bhiwani,"H.B. Colony, Bhiwani - HSPCB",29-01-2024 08:00:00,28.806223,76.141105,PM2.5,194,359,292
India,Haryana,Bhiwani,"H.B. Colony, Bhiwani - HSPCB",29-01-2024 08:00:00,28.806223,76.141105,SO2,7,11,9
India,Haryana,Charkhi Dadri,"Mini Secretariat, Charkhi Dadri - HSPCB",29-01-2024 08:00:00,28.593883,76.270653,OZONE,13,18,15
India,Haryana,Dharuhera,"Municipal Corporation Office, Dharuhera -  HSPCB",29-01-2024 08:00:00,28.206800,76.799700,NO2,46,116,72
India,Haryana,Dharuhera,"Municipal Corporation Office, Dharuhera -  HSPCB",29-01-2024 08:00:00,28.206800,76.799700,CO,22,102,63
India,Haryana,Dharuhera,"Municipal Corporation Office, Dharuhera -  HSPCB",29-01-2024 08:00:00,28.206800,76.799700,OZONE,2,76,13
India,Haryana,Faridabad,"Sector 11, Faridabad - HSPCB",29-01-2024 08:00:00,28.376058,77.315741,SO2,8,9,8
India,Haryana,Faridabad,"Sector 30, Faridabad - HSPCB",29-01-2024 08:00:00,28.4417,77.3217,PM2.5,170,251,200
India,Haryana,Faridabad,"Sector 30, Faridabad - HSPCB",29-01-2024 08:00:00,28.4417,77.3217,NO2,30,33,32
India,Haryana,Faridabad,"Sector 30, Faridabad - HSPCB",29-01-2024 08:00:00,28.4417,77.3217,CO,58,102,60
India,Haryana,Faridabad,"Sector 30, Faridabad - HSPCB",29-01-2024 08:00:00,28.4417,77.3217,OZONE,4,12,4
India,Haryana,Fatehabad,"Huda Sector, Fatehabad - HSPCB",29-01-2024 08:00:00,29.503664,75.467934,PM2.5,194,350,292
India,Haryana,Gurugram,"NISE Gwal Pahari, Gurugram - IMD",29-01-2024 08:00:00,28.422681,77.148944,PM10,143,456,232
India,Haryana,Gurugram,"NISE Gwal Pahari, Gurugram - IMD",29-01-2024 08:00:00,28.422681,77.148944,CO,67,102,86
India,Haryana,Gurugram,"Sector-51, Gurugram - HSPCB",29-01-2024 08:00:00,28.4227,77.0667,NO2,13,29,23
India,Haryana,Gurugram,"Teri Gram, Gurugram - HSPCB",29-01-2024 08:00:00,28.4275,77.1465,CO,40,64,47
India,Haryana,Gurugram,"Vikas Sadan, Gurugram - HSPCB",29-01-2024 08:00:00,28.4501238,77.0263051,PM2.5,112,306,230
India,Haryana,Gurugram,"Vikas Sadan, Gurugram - HSPCB",29-01-2024 08:00:00,28.4501238,77.0263051,SO2,16,37,25
India,Haryana,Gurugram,"Vikas Sadan, Gurugram - HSPCB",29-01-2024 08:00:00,28.4501238,77.0263051,OZONE,8,68,10
India,Haryana,Kaithal,"Rishi Nagar, Kaithal - HSPCB",29-01-2024 08:00:00,29.8006,76.4155,PM2.5,194,345,270
India,Haryana,Karnal,"Sector-12, Karnal - HSPCB",29-01-2024 08:00:00,29.695300,77.002700,SO2,12,13,12
India,Haryana,Kurukshetra,"Sector-7, Kurukshetra - HSPCB",29-01-2024 08:00:00,29.966942,76.875879,PM2.5,96,288,198
India,Haryana,Kurukshetra,"Sector-7, Kurukshetra - HSPCB",29-01-2024 08:00:00,29.966942,76.875879,OZONE,3,27,18
India,Haryana,Mandikhera,"General Hospital, Mandikhera - HSPCB",29-01-2024 08:00:00,27.9002,76.9938,NO2,16,21,19
India,Haryana,Manesar,"Sector-2 IMT, Manesar - HSPCB",29-01-2024 08:00:00,28.360699,76.936090,PM2.5,159,349,271
India,Haryana,Manesar,"Sector-2 IMT, Manesar - HSPCB",29-01-2024 08:00:00,28.360699,76.936090,NH3,4,16,7
India,Haryana,Narnaul,"Shastri Nagar, Narnaul - HSPCB",29-01-2024 08:00:00,28.060249,76.113115,PM2.5,58,201,122
India,Haryana,Panchkula,"Sector-6, Panchkula - HSPCB ",29-01-2024 08:00:00,30.7057778,76.8531805555555,SO2,11,12,12
India,Haryana,Panchkula,"Sector-6, Panchkula - HSPCB ",29-01-2024 08:00:00,30.7057778,76.8531805555555,OZONE,40,70,48
India,Haryana,Panipat,"Sector-18, Panipat - HSPCB",29-01-2024 08:00:00,29.497973,76.993331,CO,23,52,38
India,Haryana,Panipat,"Sector-18, Panipat - HSPCB",29-01-2024 08:00:00,29.497973,76.993331,OZONE,30,62,47
India,Haryana,Rohtak,"MD University, Rohtak - HSPCB",29-01-2024 08:00:00,28.52123,76.37138,PM2.5,82,344,275
India,Haryana,Rohtak,"MD University, Rohtak - HSPCB",29-01-2024 08:00:00,28.52123,76.37138,NO2,47,58,51
India,Haryana,Rohtak,"MD University, Rohtak - HSPCB",29-01-2024 08:00:00,28.52123,76.37138,CO,12,62,26
India,Haryana,Sirsa,"F-Block, Sirsa - HSPCB",29-01-2024 08:00:00,29.536400,75.015800,OZONE,18,62,19
India,Haryana,Sonipat,"Murthal, Sonipat - HSPCB",29-01-2024 08:00:00,29.027200,77.062100,SO2,13,29,19
India,Haryana,Yamuna Nagar,"Gobind Pura, Yamuna Nagar - HSPCB",29-01-2024 08:00:00,30.1480566,77.2893471,OZONE,5,11,7
India,Himachal Pradesh,Baddi,"HIMUDA Complex Phase-1, Baddi - HPPCB",29-01-2024 08:00:00,30.943887,76.801991,NO2,19,69,36
India,Jharkhand,Dhanbad,"Sardar Patel Nagar, Dhanbad - JSPCB",29-01-2024 08:00:00,23.80569,86.44268,NO2,6,154,56
India,Jharkhand,Dhanbad,"Sardar Patel Nagar, Dhanbad - JSPCB",29-01-2024 08:00:00,23.80569,86.44268,OZONE,10,24,13
India,Karnataka,Bagalkot,"Vidayagiri, Bagalkot - KSPCB",29-01-2024 08:00:00,16.172806,75.659694,PM10,46,47,46
India,Karnataka,Bagalkot,"Vidayagiri, Bagalkot - KSPCB",29-01-2024 08:00:00,16.172806,75.659694,NO2,10,11,10
India,Karnataka,Bagalkot,"Vidayagiri, Bagalkot - KSPCB",29-01-2024 08:00:00,16.172806,75.659694,NH3,1,2,1
India,Karnataka,Bagalkot,"Vidayagiri, Bagalkot - KSPCB",29-01-2024 08:00:00,16.172806,75.659694,SO2,9,10,9
India,Karnataka,Bagalkot,"Vidayagiri, Bagalkot - KSPCB",29-01-2024 08:00:00,16.172806,75.659694,CO,26,64,48
India,Karnataka,Bagalkot,"Vidayagiri, Bagalkot - KSPCB",29-01-2024 08:00:00,16.172806,75.659694,OZONE,16,45,26
India,Karnataka,Belgaum,"Ramteerth Nagar, Belgaum - KSPCB",29-01-2024 08:00:00,15.888653,74.541751,PM2.5,31,80,53
India,Karnataka,Belgaum,"Ramteerth Nagar, Belgaum - KSPCB",29-01-2024 08:00:00,15.888653,74.541751,CO,44,64,49
India,Karnataka,Bengaluru,"BTM Layout, Bengaluru - CPCB",29-01-2024 08:00:00,12.9135218,77.5950804,PM2.5,7,18,11
India,Karnataka,Bengaluru,"BTM Layout, Bengaluru - CPCB",29-01-2024 08:00:00,12.9135218,77.5950804,NH3,5,5,5
India,Karnataka,Bengaluru,"BTM Layout, Bengaluru - CPCB",29-01-2024 08:00:00,12.9135218,77.5950804,OZONE,22,38,25
India,Karnataka,Bengaluru,"Bapuji Nagar, Bengaluru - KSPCB",29-01-2024 08:00:00,12.951913,77.539784,NH3,1,1,1
India,Karnataka,Bengaluru,"Bapuji Nagar, Bengaluru - KSPCB",29-01-2024 08:00:00,12.951913,77.539784,SO2,6,7,7
India,Karnataka,Bengaluru,"Hebbal, Bengaluru - KSPCB",29-01-2024 08:00:00,13.029152,77.585901,OZONE,NA,NA,NA
India,Karnataka,Bengaluru,"Hombegowda Nagar, Bengaluru - KSPCB",29-01-2024 08:00:00,12.938539,77.590100,PM2.5,27,58,40
India,Karnataka,Bengaluru,"Hombegowda Nagar, Bengaluru - KSPCB",29-01-2024 08:00:00,12.938539,77.590100,NH3,NA,NA,NA
India,Karnataka,Bengaluru,"Hombegowda Nagar, Bengaluru - KSPCB",29-01-2024 08:00:00,12.938539,77.590100,OZONE,4,9,4
India,Karnataka,Bengaluru,"Jayanagar 5th Block, Bengaluru - KSPCB",29-01-2024 08:00:00,12.920984,77.584908,NH3,2,3,2
India,Karnataka,Bengaluru,"Jayanagar 5th Block, Bengaluru - KSPCB",29-01-2024 08:00:00,12.920984,77.584908,SO2,9,21,15
India,Karnataka,Bengaluru,"Jayanagar 5th Block, Bengaluru - KSPCB",29-01-2024 08:00:00,12.920984,77.584908,OZONE,18,20,18
India,Karnataka,Bengaluru,"Jigani, Bengaluru - KSPCB",29-01-2024 08:00:00,12.7816279,77.6299145,SO2,14,15,15
India,Karnataka,Bengaluru,"Kasturi Nagar, Bengaluru - KSPCB",29-01-2024 08:00:00,13.003872,77.664217,PM2.5,34,84,65
India,Karnataka,Bengaluru,"Kasturi Nagar, Bengaluru - KSPCB",29-01-2024 08:00:00,13.003872,77.664217,NH3,3,4,4
India,Karnataka,Bengaluru,"Kasturi Nagar, Bengaluru - KSPCB",29-01-2024 08:00:00,13.003872,77.664217,OZONE,41,79,60
India,Karnataka,Bengaluru,"Peenya, Bengaluru - CPCB",29-01-2024 08:00:00,13.0270199,77.494094,PM10,42,66,53
India,Karnataka,Bengaluru,"Peenya, Bengaluru - CPCB",29-01-2024 08:00:00,13.0270199,77.494094,NH3,4,5,5
India,Karnataka,Bengaluru,"RVCE-Mailasandra, Bengaluru - KSPCB",29-01-2024 08:00:00,12.921418,77.502466,PM2.5,52,78,65
India,Karnataka,Bengaluru,"RVCE-Mailasandra, Bengaluru - KSPCB",29-01-2024 08:00:00,12.921418,77.502466,NO2,31,31,31
India,Karnataka,Bengaluru,"RVCE-Mailasandra, Bengaluru - KSPCB",29-01-2024 08:00:00,12.921418,77.502466,SO2,4,5,4
India,Karnataka,Bengaluru,"Silk Board, Bengaluru - KSPCB",29-01-2024 08:00:00,12.917348,77.622813,SO2,5,9,6
India,Karnataka,Bengaluru,"Silk Board, Bengaluru - KSPCB",29-01-2024 08:00:00,12.917348,77.622813,OZONE,29,30,30
India,Karnataka,Bidar,"Naubad, Bidar - KSPCB",29-01-2024 08:00:00,17.930306,77.482194,NH3,2,3,3
India,Karnataka,Bidar,"Naubad, Bidar - KSPCB",29-01-2024 08:00:00,17.930306,77.482194,SO2,15,20,17
India,Karnataka,Chamarajanagar,"Urban, Chamarajanagar - KSPCB",29-01-2024 08:00:00,11.55358,76.55521,PM2.5,20,43,26
India,Karnataka,Chamarajanagar,"Urban, Chamarajanagar - KSPCB",29-01-2024 08:00:00,11.55358,76.55521,PM10,33,51,40
India,Karnataka,Chamarajanagar,"Urban, Chamarajanagar - KSPCB",29-01-2024 08:00:00,11.55358,76.55521,OZONE,13,33,24
India,Karnataka,Chikkamagaluru,"Kalyana Nagara, Chikkamagaluru - KSPCB",29-01-2024 08:00:00,13.328028,75.797056,NO2,17,28,21
India,Karnataka,Chikkamagaluru,"Kalyana Nagara, Chikkamagaluru - KSPCB",29-01-2024 08:00:00,13.328028,75.797056,OZONE,18,77,18
India,Karnataka,Dharwad,"Kalabhavan, Dharwad - KSPCB",29-01-2024 08:00:00,15.459706,75.008381,PM10,66,144,104
India,Karnataka,Haveri,"Ashwini Nagar, Haveri - KSPCB",29-01-2024 08:00:00,14.791800,75.389600,PM2.5,50,136,91
India,Karnataka,Haveri,"Ashwini Nagar, Haveri - KSPCB",29-01-2024 08:00:00,14.791800,75.389600,CO,32,34,34
India,Karnataka,Hubballi,"Deshpande Nagar, Hubballi - KSPCB",29-01-2024 08:00:00,15.351773,75.140726,NH3,6,7,7
India,Karnataka,Hubballi,"Deshpande Nagar, Hubballi - KSPCB",29-01-2024 08:00:00,15.351773,75.140726,SO2,16,16,16
India,Karnataka,Hubballi,"Deshpande Nagar, Hubballi - KSPCB",29-01-2024 08:00:00,15.351773,75.140726,CO,70,86,78
India,Karnataka,Hubballi,"Lingaraj Nagar, Hubballi - KSPCB",29-01-2024 08:00:00,15.3714823,75.1160168,PM2.5,20,51,34
India,Karnataka,Hubballi,"Lingaraj Nagar, Hubballi - KSPCB",29-01-2024 08:00:00,15.3714823,75.1160168,NH3,2,2,2
India,Karnataka,Kalaburagi,"Lal Bahadur Shastri Nagar, Kalaburagi - KSPCB",29-01-2024 08:00:00,17.321993,76.822628,NH3,2,2,2
India,Karnataka,Kalaburagi,"Mahatma Basaveswar Colony, Kalaburgi - KSPCB",29-01-2024 08:00:00,17.336318,76.847397,PM2.5,22,41,30
India,Karnataka,Karwar,"KHB Colony, Karwar - KSPCB",29-01-2024 08:00:00,14.816666,74.141003,SO2,18,18,18
India,Karnataka,Kolar,"Tamaka Ind. Area, Kolar - KSPCB",29-01-2024 08:00:00,13.1276288,78.1570122,PM10,46,105,64
India,Karnataka,Kolar,"Tamaka Ind. Area, Kolar - KSPCB",29-01-2024 08:00:00,13.1276288,78.1570122,NO2,2,9,6
India,Karnataka,Koppal,"Diwator Nagar, Koppal - KSPCB",29-01-2024 08:00:00,15.347630,76.181767,PM2.5,26,49,38
India,Karnataka,Koppal,"Diwator Nagar, Koppal - KSPCB",29-01-2024 08:00:00,15.347630,76.181767,PM10,55,102,78
India,Karnataka,Mangalore,"Kadri, Mangalore - KSPCB",29-01-2024 08:00:00,12.889250,74.853000,PM2.5,33,114,67
India,Karnataka,Mangalore,"Kadri, Mangalore - KSPCB",29-01-2024 08:00:00,12.889250,74.853000,NH3,3,3,3
India,Karnataka,Mysuru,"Hebbal 1st Stage, Mysuru - KSPCB",29-01-2024 08:00:00,12.21041,76.37376,SO2,1,8,3
India,Karnataka,Mysuru,"Hebbal 1st Stage, Mysuru - KSPCB",29-01-2024 08:00:00,12.21041,76.37376,OZONE,3,65,13
India,Karnataka,Shivamogga,"Vinoba Nagara, Shivamogga - KSPCB",29-01-2024 08:00:00,13.940000,75.555917,PM10,54,80,62
India,Karnataka,Tumakuru,"Thimmalapura, Tumakuru - KSPCB",29-01-2024 08:00:00,13.377516,77.099072,PM10,NA,NA,NA
India,Karnataka,Tumakuru,"Thimmalapura, Tumakuru - KSPCB",29-01-2024 08:00:00,13.377516,77.099072,SO2,NA,NA,NA
India,Karnataka,Tumakuru,"Thimmalapura, Tumakuru - KSPCB",29-01-2024 08:00:00,13.377516,77.099072,OZONE,NA,NA,NA
India,Karnataka,Udupi,"Brahmagiri, Udupi - KSPCB",29-01-2024 08:00:00,13.34194444,74.74694444,SO2,NA,NA,NA
India,Karnataka,Vijayapura,"Ibrahimpur, Vijayapura - KSPCB",29-01-2024 08:00:00,16.802639,75.722694,CO,32,32,32
India,Kerala,Eloor,"Udyogamandal, Eloor - Kerala PCB",29-01-2024 08:00:00,10.073232,76.302765,OZONE,4,13,4
India,Kerala,Kollam,"Polayathode, Kollam - Kerala PCB",29-01-2024 08:00:00,8.8787,76.6073,PM10,56,148,91
India,Kerala,Kollam,"Polayathode, Kollam - Kerala PCB",29-01-2024 08:00:00,8.8787,76.6073,NO2,8,9,8
India,Kerala,Kollam,"Polayathode, Kollam - Kerala PCB",29-01-2024 08:00:00,8.8787,76.6073,NH3,1,1,1
India,Kerala,Thiruvananthapuram,"Kariavattom, Thiruvananthapuram - Kerala PCB",29-01-2024 08:00:00,8.563700,76.886500,NH3,1,1,1
India,Kerala,Thiruvananthapuram,"Plammoodu, Thiruvananthapuram - Kerala PCB",29-01-2024 08:00:00,8.5149093,76.9435879,NO2,12,14,13
India,Kerala,Thiruvananthapuram,"Plammoodu, Thiruvananthapuram - Kerala PCB",29-01-2024 08:00:00,8.5149093,76.9435879,NH3,2,2,2
India,Kerala,Thrissur,"Corporation Ground, Thrissur - Kerala PCB",29-01-2024 08:00:00,10.532400,76.215900,PM2.5,48,55,51
India,Madhya Pradesh,Bhopal,"Paryavaran Parisar, Bhopal - MPPCB",29-01-2024 08:00:00,23.210494,77.425409,NH3,8,14,10
India,Madhya Pradesh,Bhopal,"Paryavaran Parisar, Bhopal - MPPCB",29-01-2024 08:00:00,23.210494,77.425409,SO2,21,32,25
India,Madhya Pradesh,Bhopal,"T T Nagar, Bhopal - MPPCB",29-01-2024 08:00:00,23.233584,77.400574,NO2,42,115,65
India,Madhya Pradesh,Dewas,"Bhopal Chauraha, Dewas - MPPCB",29-01-2024 08:00:00,22.9682591,76.064118,SO2,29,78,47
India,Madhya Pradesh,Gwalior,"Deen Dayal Nagar, Gwalior - MPPCB",29-01-2024 08:00:00,26.259242,78.216432,PM2.5,48,370,239
India,Madhya Pradesh,Gwalior,"Deen Dayal Nagar, Gwalior - MPPCB",29-01-2024 08:00:00,26.259242,78.216432,PM10,108,259,178
India,Madhya Pradesh,Gwalior,"Deen Dayal Nagar, Gwalior - MPPCB",29-01-2024 08:00:00,26.259242,78.216432,NO2,61,118,79
India,Madhya Pradesh,Gwalior,"Deen Dayal Nagar, Gwalior - MPPCB",29-01-2024 08:00:00,26.259242,78.216432,CO,40,57,45
India,Madhya Pradesh,Gwalior,"Deen Dayal Nagar, Gwalior - MPPCB",29-01-2024 08:00:00,26.259242,78.216432,OZONE,18,139,32
India,Madhya Pradesh,Gwalior,"Maharaj Bada, Gwalior - MPPCB",29-01-2024 08:00:00,26.200388,78.147714,NH3,5,14,9
India,Madhya Pradesh,Gwalior,"Maharaj Bada, Gwalior - MPPCB",29-01-2024 08:00:00,26.200388,78.147714,OZONE,35,142,42
India,Madhya Pradesh,Gwalior,"Phool Bagh, Gwalior - Mondelez Ind. Food",29-01-2024 08:00:00,26.210536,78.171,PM2.5,6,200,116
India,Madhya Pradesh,Indore,"Maguda Nagar, Indore - IMC",29-01-2024 08:00:00,22.7524,75.8872,NO2,5,7,6
India,Madhya Pradesh,Indore,"Maguda Nagar, Indore - IMC",29-01-2024 08:00:00,22.7524,75.8872,NH3,1,1,1
India,Madhya Pradesh,Indore,"Maguda Nagar, Indore - IMC",29-01-2024 08:00:00,22.7524,75.8872,OZONE,36,42,39
India,Madhya Pradesh,Indore,"Regional Park, Indore - IMC",29-01-2024 08:00:00,22.6780,75.8559,SO2,41,43,42
India,Madhya Pradesh,Indore,"Regional Park, Indore - IMC",29-01-2024 08:00:00,22.6780,75.8559,OZONE,4,15,4
India,Madhya Pradesh,Indore,"Residency Area, Indore - IMC",29-01-2024 08:00:00,22.7084,75.8815,OZONE,11,15,12
India,Madhya Pradesh,Jabalpur,"Marhatal, Jabalpur - MPPCB",29-01-2024 08:00:00,23.168606,79.932247,NO2,31,124,58
India,Madhya Pradesh,Jabalpur,"Marhatal, Jabalpur - MPPCB",29-01-2024 08:00:00,23.168606,79.932247,OZONE,4,32,10
India,Madhya Pradesh,Jabalpur,"Suhagi, Jabalpur - JMC",29-01-2024 08:00:00,23.218135,79.957770,SO2,NA,NA,NA
India,Madhya Pradesh,Katni,"Gole Bazar, Katni - MPPCB",29-01-2024 08:00:00,23.50016,80.23284,NH3,6,9,7
India,Madhya Pradesh,Maihar,"Sahilara, Maihar - KJS Cements",29-01-2024 08:00:00,24.2613009,80.7231783,PM10,31,59,42
India,Madhya Pradesh,Maihar,"Sahilara, Maihar - KJS Cements",29-01-2024 08:00:00,24.2613009,80.7231783,CO,25,42,35
India,Madhya Pradesh,Pithampur,"Sector-2 Industrial Area, Pithampur - MPPCB",29-01-2024 08:00:00,22.624758,75.675238,NH3,6,7,6
India,Madhya Pradesh,Ratlam,"Shasthri Nagar, Ratlam - IPCA Lab",29-01-2024 08:00:00,23.331731,75.045981,NO2,1,83,35
India,Madhya Pradesh,Sagar,"Civil Lines, Sagar - MPPCB",29-01-2024 08:00:00,23.838586,78.759431,PM10,50,132,78
India,Madhya Pradesh,Sagar,"Civil Lines, Sagar - MPPCB",29-01-2024 08:00:00,23.838586,78.759431,NO2,10,19,12
India,Madhya Pradesh,Sagar,"Civil Lines, Sagar - MPPCB",29-01-2024 08:00:00,23.838586,78.759431,SO2,3,7,6
India,Madhya Pradesh,Sagar,"Deen Dayal Nagar, Sagar - MPPCB",29-01-2024 08:00:00,23.8640158,78.80289321,PM10,32,116,65
India,Madhya Pradesh,Satna,"Bandhavgar Colony, Satna - Birla Cement",29-01-2024 08:00:00,24.58434363,80.8549414,NO2,7,19,11
India,Madhya Pradesh,Ujjain,"Mahakaleshwar Temple, Ujjain - MPPCB",29-01-2024 08:00:00,23.182719 ,75.768218 ,PM2.5,49,323,140
India,Maharashtra,Ahmednagar,"Tarakpur, Ahmednagar - MPCB",29-01-2024 08:00:00,19.10122,74.73339,NH3,3,5,4
India,Maharashtra,Ahmednagar,"Tarakpur, Ahmednagar - MPCB",29-01-2024 08:00:00,19.10122,74.73339,SO2,11,19,14
India,Maharashtra,Akola,"Ramdaspeth, Akola - MPCB",29-01-2024 08:00:00,20.719516,77.000253,PM10,55,210,98
India,Maharashtra,Akola,"Ramdaspeth, Akola - MPCB",29-01-2024 08:00:00,20.719516,77.000253,NO2,13,111,43
India,Maharashtra,Akola,"Ramdaspeth, Akola - MPCB",29-01-2024 08:00:00,20.719516,77.000253,SO2,6,33,17
India,Maharashtra,Amravati,"Shivneri Colony, Amravati - MPCB",29-01-2024 08:00:00,20.9402359,77.7895248,PM2.5,77,130,100
India,Maharashtra,Aurangabad,"Rachnakar Colony, Aurangabad - MPCB",29-01-2024 08:00:00,19.863756,75.321188,NH3,1,1,1
India,Maharashtra,Aurangabad,"Rachnakar Colony, Aurangabad - MPCB",29-01-2024 08:00:00,19.863756,75.321188,SO2,3,70,33
India,Maharashtra,Badlapur,"Katrap, Badlapur - MPCB",29-01-2024 08:00:00,19.16485,73.23409,PM2.5,86,307,179
India,Maharashtra,Boisar,"Khaira, Boisar - MPCB",29-01-2024 08:00:00,19.786089,72.757971,PM2.5,65,329,206
India,Maharashtra,Chandrapur,"Chauhan Colony, Chandrapur - MPCB",29-01-2024 08:00:00,19.962900,79.298714,NO2,12,48,24
India,Maharashtra,Chandrapur,"Chauhan Colony, Chandrapur - MPCB",29-01-2024 08:00:00,19.962900,79.298714,CO,24,30,25
India,Maharashtra,Jalgaon,"Prabhat Colony, Jalgaon - MPCB",29-01-2024 08:00:00,21.001264,75.565602,PM10,69,175,121
India,Maharashtra,Jalgaon,"Prabhat Colony, Jalgaon - MPCB",29-01-2024 08:00:00,21.001264,75.565602,OZONE,2,84,18
India,Maharashtra,Jalna,"Old MIDC, Jalna - MPCB",29-01-2024 08:00:00,19.854616,75.905894,SO2,16,20,18
India,Maharashtra,Kalyan,"Khadakpada, Kalyan - MPCB",29-01-2024 08:00:00,19.25292,73.142019,SO2,16,117,38
India,Maharashtra,Kolhapur,"Shivaji University, Kolhapur - MPCB",29-01-2024 08:00:00,16.6870449,74.2505872,OZONE,4,90,10
India,Maharashtra,Kolhapur,"Sinchan Bhavan, Kolhapur - MPCB",29-01-2024 08:00:00,16.7143745,74.2426398,NH3,7,8,8
India,Maharashtra,Malegaon,"Mahesh Nagar, Malegaon - MPCB",29-01-2024 08:00:00,20.555712,74.529236,PM10,64,170,109
India,Maharashtra,Malegaon,"Mahesh Nagar, Malegaon - MPCB",29-01-2024 08:00:00,20.555712,74.529236,NO2,5,72,26
India,Maharashtra,Malegaon,"Mahesh Nagar, Malegaon - MPCB",29-01-2024 08:00:00,20.555712,74.529236,NH3,6,19,8
India,Maharashtra,Malegaon,"Mahesh Nagar, Malegaon - MPCB",29-01-2024 08:00:00,20.555712,74.529236,SO2,5,19,11
India,Maharashtra,Mira-Bhayandar,"Bhayandar West, Mira-Bhayandar - MPCB",29-01-2024 08:00:00,19.296481,72.840923,SO2,5,18,10
India,Maharashtra,Mira-Bhayandar,"Bhayandar West, Mira-Bhayandar - MPCB",29-01-2024 08:00:00,19.296481,72.840923,OZONE,1,63,1
India,Maharashtra,Mumbai,"Bandra Kurla Complex, Mumbai - MPCB",29-01-2024 08:00:00,19.065931,72.862131,PM2.5,47,258,126
India,Maharashtra,Mumbai,"Bandra Kurla Complex, Mumbai - MPCB",29-01-2024 08:00:00,19.065931,72.862131,NO2,18,60,37
India,Maharashtra,Mumbai,"Borivali East, Mumbai - MPCB",29-01-2024 08:00:00,19.2243333,72.8658113,PM10,26,106,56
India,Maharashtra,Mumbai,"Chhatrapati Shivaji Intl. Airport (T2), Mumbai - MPCB",29-01-2024 08:00:00,19.10078,72.87462,PM2.5,19,54,35
India,Maharashtra,Mumbai,"Chhatrapati Shivaji Intl. Airport (T2), Mumbai - MPCB",29-01-2024 08:00:00,19.10078,72.87462,OZONE,1,23,1
India,Maharashtra,Mumbai,"Colaba, Mumbai - MPCB",29-01-2024 08:00:00,18.910000,72.820000,PM2.5,34,141,67
India,Maharashtra,Mumbai,"Deonar, Mumbai - IITM",29-01-2024 08:00:00,19.04946,72.9230,PM2.5,97,331,229
India,Maharashtra,Mumbai,"Deonar, Mumbai - IITM",29-01-2024 08:00:00,19.04946,72.9230,PM10,145,252,193
India,Maharashtra,Mumbai,"Ghatkopar, Mumbai - BMC",29-01-2024 08:00:00,19.083694,72.920967,PM2.5,40,155,77
India,Maharashtra,Mumbai,"Ghatkopar, Mumbai - BMC",29-01-2024 08:00:00,19.083694,72.920967,NO2,11,77,42
India,Maharashtra,Mumbai,"Ghatkopar, Mumbai - BMC",29-01-2024 08:00:00,19.083694,72.920967,NH3,NA,NA,NA
India,Maharashtra,Mumbai,"Ghatkopar, Mumbai - BMC",29-01-2024 08:00:00,19.083694,72.920967,SO2,1,2,2
India,Maharashtra,Mumbai,"Kandivali East, Mumbai - MPCB",29-01-2024 08:00:00,19.205800,72.868200,OZONE,27,31,29
India,Maharashtra,Mumbai,"Kandivali West, Mumbai - BMC",29-01-2024 08:00:00,19.215859,72.831718,SO2,NA,NA,NA
India,Maharashtra,Mumbai,"Kherwadi_Bandra East, Mumbai - MPCB",29-01-2024 08:00:00,19.0632143,72.8456324,PM2.5,50,169,84
India,Maharashtra,Mumbai,"Kherwadi_Bandra East, Mumbai - MPCB",29-01-2024 08:00:00,19.0632143,72.8456324,CO,2,104,86
India,Maharashtra,Mumbai,"Kurla, Mumbai - MPCB",29-01-2024 08:00:00,19.0863,72.8888,PM10,51,134,90
India,Maharashtra,Mumbai,"Mulund West, Mumbai - MPCB",29-01-2024 08:00:00,19.1750,72.9419,NO2,24,29,26
India,Maharashtra,Mumbai,"Powai, Mumbai - MPCB",29-01-2024 08:00:00,19.137500,72.915056,PM2.5,29,69,46
India,Maharashtra,Mumbai,"Powai, Mumbai - MPCB",29-01-2024 08:00:00,19.137500,72.915056,NO2,25,38,29
India,Maharashtra,Mumbai,"Powai, Mumbai - MPCB",29-01-2024 08:00:00,19.137500,72.915056,NH3,1,1,1
India,Maharashtra,Mumbai,"Powai, Mumbai - MPCB",29-01-2024 08:00:00,19.137500,72.915056,CO,35,43,38
India,Maharashtra,Mumbai,"Powai, Mumbai - MPCB",29-01-2024 08:00:00,19.137500,72.915056,OZONE,20,36,22
India,Maharashtra,Mumbai,"Sewri, Mumbai - BMC",29-01-2024 08:00:00,19.000084,72.856730,PM2.5,66,255,127
India,Maharashtra,Mumbai,"Sewri, Mumbai - BMC",29-01-2024 08:00:00,19.000084,72.856730,NO2,41,132,87
India,Maharashtra,Mumbai,"Shivaji Nagar, Mumbai - BMC",29-01-2024 08:00:00,19.060498,72.923356,CO,7,84,55
India,Maharashtra,Mumbai,"Shivaji Nagar, Mumbai - BMC",29-01-2024 08:00:00,19.060498,72.923356,OZONE,1,109,5
India,Maharashtra,Mumbai,"Vasai West, Mumbai - MPCB",29-01-2024 08:00:00,19.383200,72.820400,PM10,33,139,88
India,Maharashtra,Mumbai,"Vile Parle West, Mumbai - MPCB",29-01-2024 08:00:00,19.10861,72.83622,NO2,4,42,14
India,Maharashtra,Mumbai,"Vile Parle West, Mumbai - MPCB",29-01-2024 08:00:00,19.10861,72.83622,CO,NA,NA,NA
India,Maharashtra,Mumbai,"Worli, Mumbai - MPCB",29-01-2024 08:00:00,18.9936162,72.8128113,NH3,1,1,1
India,Maharashtra,Mumbai,"Worli, Mumbai - MPCB",29-01-2024 08:00:00,18.9936162,72.8128113,CO,38,41,38
India,Maharashtra,Nagpur,"Opp GPO Civil Lines, Nagpur - MPCB",29-01-2024 08:00:00,21.152875,79.0517531,NO2,9,74,34
India,Maharashtra,Nagpur,"Opp GPO Civil Lines, Nagpur - MPCB",29-01-2024 08:00:00,21.152875,79.0517531,SO2,10,57,29
India,Maharashtra,Nagpur,"Ram Nagar, Nagpur - MPCB",29-01-2024 08:00:00,21.143383,79.048912,SO2,14,104,51
India,Maharashtra,Nagpur,"Ram Nagar, Nagpur - MPCB",29-01-2024 08:00:00,21.143383,79.048912,CO,17,104,51
India,Maharashtra,Nashik,"Gangapur Road, Nashik - MPCB",29-01-2024 08:00:00,20.0073285,73.7762427,NO2,3,5,3
India,Maharashtra,Nashik,"Gangapur Road, Nashik - MPCB",29-01-2024 08:00:00,20.0073285,73.7762427,SO2,1,5,3
India,Maharashtra,Nashik,"Gangapur Road, Nashik - MPCB",29-01-2024 08:00:00,20.0073285,73.7762427,OZONE,1,81,3
India,Maharashtra,Nashik,"Hirawadi, Nashik - MPCB",29-01-2024 08:00:00,20.021503,73.813844,NO2,6,83,41
India,Maharashtra,Nashik,"MIDC Ambad, Nashik - MPCB",29-01-2024 08:00:00,19.950220,73.731480,PM2.5,85,299,145
India,Maharashtra,Nashik,"MIDC Ambad, Nashik - MPCB",29-01-2024 08:00:00,19.950220,73.731480,SO2,9,19,13
India,Maharashtra,Nashik,"Pandav Nagari, Nashik - MPCB",29-01-2024 08:00:00,19.9591346,73.7788008,PM2.5,80,257,127
India,Maharashtra,Nashik,"Pandav Nagari, Nashik - MPCB",29-01-2024 08:00:00,19.9591346,73.7788008,OZONE,1,90,5
India,Maharashtra,Navi Mumbai,"Kopripada-Vashi, Navi Mumbai - MPCB",29-01-2024 08:00:00,19.090337,73.014232,CO,9,104,52
India,Maharashtra,Navi Mumbai,"Mahape, Navi Mumbai - MPCB",29-01-2024 08:00:00,19.1135051,73.008978,NO2,37,39,38
India,Maharashtra,Navi Mumbai,"Nerul, Navi Mumbai - MPCB",29-01-2024 08:00:00,19.008751,73.016620,NH3,3,8,5
India,Maharashtra,Navi Mumbai,"Nerul, Navi Mumbai - MPCB",29-01-2024 08:00:00,19.008751,73.016620,SO2,12,13,13
India,Maharashtra,Navi Mumbai,"Nerul, Navi Mumbai - MPCB",29-01-2024 08:00:00,19.008751,73.016620,OZONE,36,59,47
India,Maharashtra,Navi Mumbai,"Sanpada, Navi Mumbai - MPCB",29-01-2024 08:00:00,19.0575752,73.0151367,PM10,44,195,121
India,Maharashtra,Navi Mumbai,"Sector-19A Nerul, Navi Mumbai - IITM",29-01-2024 08:00:00,19.044,73.0325,PM10,112,500,215
India,Maharashtra,Navi Mumbai,"Sector-19A Nerul, Navi Mumbai - IITM",29-01-2024 08:00:00,19.044,73.0325,NH3,5,26,15
India,Maharashtra,Navi Mumbai,"Tondare-Taloja, Navi Mumbai - MPCB",29-01-2024 08:00:00,19.0630,73.1209,PM2.5,65,306,148
India,Maharashtra,Navi Mumbai,"Tondare-Taloja, Navi Mumbai - MPCB",29-01-2024 08:00:00,19.0630,73.1209,PM10,101,188,137
India,Maharashtra,Parbhani,"Masoom Colony, Parbhani - MPCB",29-01-2024 08:00:00,19.265594,76.761463,OZONE,15,131,42
India,Maharashtra,Pune,"Bhosari, Pune - IITM",29-01-2024 08:00:00,18.640051,73.848956,PM10,86,201,129
India,Maharashtra,Pune,"Karve Road, Pune - MPCB",29-01-2024 08:00:00,18.5011743,73.8165527,PM2.5,73,73,73
India,Maharashtra,Pune,"Karve Road, Pune - MPCB",29-01-2024 08:00:00,18.5011743,73.8165527,OZONE,6,6,6
India,Maharashtra,Pune,"Katraj Dairy, Pune - MPCB",29-01-2024 08:00:00,18.454450,73.854155,NO2,33,59,47
India,Maharashtra,Pune,"Katraj Dairy, Pune - MPCB",29-01-2024 08:00:00,18.454450,73.854155,NH3,3,7,4
India,Maharashtra,Pune,"Mhada Colony, Pune - IITM",29-01-2024 08:00:00,18.573040,73.927715,OZONE,2,31,2
India,Maharashtra,Pune,"Revenue Colony-Shivajinagar, Pune - IITM",29-01-2024 08:00:00,18.530085,73.849598,SO2,99,133,114
India,Maharashtra,Pune,"Savitribai Phule Pune University, Pune - MPCB",29-01-2024 08:00:00,18.547056,73.826908,PM2.5,91,232,138
India,Maharashtra,Pune,"Savitribai Phule Pune University, Pune - MPCB",29-01-2024 08:00:00,18.547056,73.826908,CO,14,54,38
India,Maharashtra,Pune,"Transport Nagar-Nigdi, Pune - IITM",29-01-2024 08:00:00,18.664282,73.763966,PM10,106,500,189
India,Maharashtra,Sangli,"Vijay Nagar, Sangli - MPCB",29-01-2024 08:00:00, 16.5038,74.3623,PM2.5,71,246,139
India,Maharashtra,Sangli,"Vijay Nagar, Sangli - MPCB",29-01-2024 08:00:00, 16.5038,74.3623,OZONE,5,65,19
India,Maharashtra,Solapur,"Ratandeep Housing Society, Solapur - MPCB",29-01-2024 08:00:00,17.65439,75.90649,NH3,8,13,10
India,Maharashtra,Solapur,"Ratandeep Housing Society, Solapur - MPCB",29-01-2024 08:00:00,17.65439,75.90649,SO2,8,32,12
India,Maharashtra,Solapur,"Solapur, Solapur - MPCB",29-01-2024 08:00:00,17.6599188,75.9063906,PM2.5,45,73,59
India,Maharashtra,Solapur,"Solapur, Solapur - MPCB",29-01-2024 08:00:00,17.6599188,75.9063906,OZONE,34,67,47
India,Maharashtra,Thane,"Kasarvadavali, Thane - MPCB",29-01-2024 08:00:00,19.26777,72.97182,PM2.5,64,333,184
India,Maharashtra,Thane,"Upvan Fort, Thane - MPCB",29-01-2024 08:00:00,19.222279,72.957979,NO2,15,118,43
India,Maharashtra,Thane,"Upvan Fort, Thane - MPCB",29-01-2024 08:00:00,19.222279,72.957979,CO,5,42,26
India,Maharashtra,Ulhasnagar,"Sidhi Vinayak Nagar, Ulhasnagar - MPCB",29-01-2024 08:00:00,19.235581,73.159121,CO,10,130,60
India,Manipur,Imphal,"DM College of Science, Imphal - Manipur PCB",29-01-2024 08:00:00,24.8207389,93.9423085,PM10,16,89,39
India,Manipur,Imphal,"DM College of Science, Imphal - Manipur PCB",29-01-2024 08:00:00,24.8207389,93.9423085,NO2,7,8,8
India,Manipur,Imphal,"Manipur University, Imphal - Manipur PCB",29-01-2024 08:00:00,24.7524239,93.9286218,PM2.5,35,371,141
India,Manipur,Imphal,"Manipur University, Imphal - Manipur PCB",29-01-2024 08:00:00,24.7524239,93.9286218,SO2,60,65,63
India,Meghalaya,Shillong,"JN Stadium, Shillong - Meghalaya PCB",29-01-2024 08:00:00,25.5803419,91.8942571,PM10,18,89,36
India,Meghalaya,Shillong,"JN Stadium, Shillong - Meghalaya PCB",29-01-2024 08:00:00,25.5803419,91.8942571,NO2,13,39,31
India,Meghalaya,Shillong,"Lumpyngngad, Shillong - Meghalaya PCB",29-01-2024 08:00:00,25.5586,91.8985,PM2.5,56,198,109
India,Mizoram,Aizawl,"Sikulpuikawn, Aizawl - Mizoram PCB",29-01-2024 08:00:00,23.7176342,92.7192841,PM2.5,29,81,55
India,Nagaland,Kohima,"PWD Juction, Kohima - NPCB",29-01-2024 08:00:00,25.6635413,94.0989878,PM10,46,208,88
India,Odisha,Angul,"Hakimapada, Angul - OSPCB",29-01-2024 08:00:00,20.832874,85.104082,NO2,18,115,50
India,Odisha,Angul,"Hakimapada, Angul - OSPCB",29-01-2024 08:00:00,20.832874,85.104082,CO,14,109,49
India,Odisha,Balasore,"Kalidaspur, Balasore - OSPCB",29-01-2024 08:00:00,21.51161,86.89088,PM10,123,402,192
India,Odisha,Barbil,"Forest Office, Barbil - OSPCB",29-01-2024 08:00:00,22.1166054,85.3945546,OZONE,5,163,11
India,Odisha,Baripada,"Meher Colony, Baripada - OSPCB",29-01-2024 08:00:00,21.941841,86.728318,PM2.5,249,451,310
India,Odisha,Baripada,"Meher Colony, Baripada - OSPCB",29-01-2024 08:00:00,21.941841,86.728318,PM10,117,414,180
India,Odisha,Baripada,"Meher Colony, Baripada - OSPCB",29-01-2024 08:00:00,21.941841,86.728318,OZONE,10,67,10
India,Odisha,Bhubaneswar,"Lingraj Mandir, Bhubaneswar - OSPCB",29-01-2024 08:00:00,20.240790,85.836784,PM2.5,223,330,289
India,Odisha,Bhubaneswar,"Patia, Bhubaneswar - OSPCB",29-01-2024 08:00:00,20.34652,85.81630,NO2,26,86,43
India,Odisha,Bhubaneswar,"Patia, Bhubaneswar - OSPCB",29-01-2024 08:00:00,20.34652,85.81630,NH3,4,5,5
India,Odisha,Bhubaneswar,"Patia, Bhubaneswar - OSPCB",29-01-2024 08:00:00,20.34652,85.81630,SO2,5,67,25
India,Odisha,Bileipada,"Tata Township, Bileipada - OSPCB",29-01-2024 08:00:00,22.06156703,85.47409613,NH3,NA,NA,NA
India,Odisha,Brajrajnagar,"GM Office, Brajrajnagar - OSPCB",29-01-2024 08:00:00,21.8004996,83.8396977,PM10,65,211,132
India,Odisha,Brajrajnagar,"GM Office, Brajrajnagar - OSPCB",29-01-2024 08:00:00,21.8004996,83.8396977,NH3,2,5,3
India,Odisha,Brajrajnagar,"GM Office, Brajrajnagar - OSPCB",29-01-2024 08:00:00,21.8004996,83.8396977,OZONE,19,20,19
India,Odisha,Byasanagar,"Ferro Chrome Colony, Byasanagar - OSPCB",29-01-2024 08:00:00,20.94185,86.11510,PM10,111,201,146
India,Odisha,Cuttack,"CDA Area, Cuttack - OSPCB",29-01-2024 08:00:00,20.48891     ,85.84768     ,NO2,24,69,41
India,Odisha,Rairangpur,"Divisional Forest Office, Rairangpur - OSPCB",29-01-2024 08:00:00,22.265816,86.174829,PM10,106,137,119
India,Odisha,Rairangpur,"Divisional Forest Office, Rairangpur - OSPCB",29-01-2024 08:00:00,22.265816,86.174829,CO,22,46,32
India,Odisha,Rourkela,"Raghunathpali, Rourkela - OSPCB",29-01-2024 08:00:00,22.220833,84.809444,PM10,113,212,151
India,Odisha,Rourkela,"Raghunathpali, Rourkela - OSPCB",29-01-2024 08:00:00,22.220833,84.809444,NH3,1,2,1
India,Odisha,Rourkela,"Sector-2, Rourkela - OSPCB",29-01-2024 08:00:00,22.24500000,84.88111111,PM2.5,49,295,129
India,Odisha,Rourkela,"Sector-2, Rourkela - OSPCB",29-01-2024 08:00:00,22.24500000,84.88111111,CO,26,105,45
India,Odisha,Talcher,"Talcher Coalfields,Talcher - OSPCB",29-01-2024 08:00:00,20.9360711,85.1707021,SO2,25,114,69
India,Odisha,Talcher,"Talcher Coalfields,Talcher - OSPCB",29-01-2024 08:00:00,20.9360711,85.1707021,CO,27,154,64
India,Odisha,Tensa,"Barsua Iron Ore Mines, Tensa - OSPCB",29-01-2024 08:00:00,21.869985,85.167016,PM2.5,82,144,113
India,Odisha,Tensa,"Barsua Iron Ore Mines, Tensa - OSPCB",29-01-2024 08:00:00,21.869985,85.167016,CO,20,31,24
India,Odisha,Tensa,"Barsua Iron Ore Mines, Tensa - OSPCB",29-01-2024 08:00:00,21.869985,85.167016,OZONE,3,31,8
India,Puducherry,Puducherry,"Jawahar Nagar, Puducherry - PPCC",29-01-2024 08:00:00,11.9309,79.8027,NO2,6,21,12
India,Puducherry,Puducherry,"Jawahar Nagar, Puducherry - PPCC",29-01-2024 08:00:00,11.9309,79.8027,SO2,4,9,6
India,Punjab,Amritsar,"Golden Temple, Amritsar - PPCB",29-01-2024 08:00:00,31.620000,74.876512,SO2,15,37,24
India,Punjab,Bathinda,"Hardev Nagar, Bathinda - PPCB",29-01-2024 08:00:00,30.233011,74.907758,PM2.5,6,233,55
India,Punjab,Jalandhar,"Civil Line, Jalandhar - PPCB",29-01-2024 08:00:00,31.321907,75.578914,PM10,94,150,113
India,Punjab,Khanna,"Kalal Majra, Khanna - PPCB",29-01-2024 08:00:00,30.736056 ,76.209694,NO2,31,33,32
India,Punjab,Ludhiana,"Punjab Agricultural University, Ludhiana - PPCB",29-01-2024 08:00:00,30.9028,75.8086,PM10,115,229,151
India,Punjab,Ludhiana,"Punjab Agricultural University, Ludhiana - PPCB",29-01-2024 08:00:00,30.9028,75.8086,NO2,25,27,26
India,Punjab,Ludhiana,"Punjab Agricultural University, Ludhiana - PPCB",29-01-2024 08:00:00,30.9028,75.8086,NH3,5,6,5
India,Punjab,Mandi Gobindgarh,"RIMT University, Mandi Gobindgarh - PPCB",29-01-2024 08:00:00,30.649961,76.331442,CO,24,51,42
India,Punjab,Mandi Gobindgarh,"RIMT University, Mandi Gobindgarh - PPCB",29-01-2024 08:00:00,30.649961,76.331442,OZONE,30,33,32
India,Punjab,Rupnagar,"Ratanpura, Rupnagar - Ambuja Cements",29-01-2024 08:00:00,31.0325454,76.5623046,PM10,93,451,202
India,Rajasthan,Alwar,"Moti Doongri, Alwar - RSPCB",29-01-2024 08:00:00,27.554793,76.611536,PM2.5,53,213,124
India,Rajasthan,Alwar,"Moti Doongri, Alwar - RSPCB",29-01-2024 08:00:00,27.554793,76.611536,NO2,37,57,45
India,Rajasthan,Banswara,"Rati Talai, Banswara - RSPCB",29-01-2024 08:00:00,23.555190,74.440010,NO2,11,137,40
India,Rajasthan,Banswara,"Rati Talai, Banswara - RSPCB",29-01-2024 08:00:00,23.555190,74.440010,OZONE,7,128,58
India,Rajasthan,Baran,"Bamboliya, Baran - RSPCB",29-01-2024 08:00:00,25.106006,76.469948,NO2,19,65,32
India,Rajasthan,Baran,"Bamboliya, Baran - RSPCB",29-01-2024 08:00:00,25.106006,76.469948,OZONE,15,133,34
India,Rajasthan,Barmer,"Railway Colony, Barmer - RSPCB",29-01-2024 08:00:00,25.747299,71.393989,NH3,6,10,8
India,Rajasthan,Barmer,"Railway Colony, Barmer - RSPCB",29-01-2024 08:00:00,25.747299,71.393989,OZONE,54,113,85
India,Rajasthan,Bhilwara,"Pratap Nagar, Bhilwara - RSPCB",29-01-2024 08:00:00,25.339605,74.618883,PM10,4,329,125
India,Rajasthan,Bhilwara,"Pratap Nagar, Bhilwara - RSPCB",29-01-2024 08:00:00,25.339605,74.618883,SO2,NA,NA,NA
India,Rajasthan,Bhiwadi,"RIICO Ind. Area III, Bhiwadi - RSPCB",29-01-2024 08:00:00,28.194909,76.862296,NO2,15,23,18
India,Rajasthan,Bikaner,"MM Ground, Bikaner - RSPCB",29-01-2024 08:00:00,28.018792,73.292658,PM10,117,500,262
India,Rajasthan,Bikaner,"MM Ground, Bikaner - RSPCB",29-01-2024 08:00:00,28.018792,73.292658,NH3,15,32,20
India,Rajasthan,Bikaner,"MM Ground, Bikaner - RSPCB",29-01-2024 08:00:00,28.018792,73.292658,SO2,3,14,7
India,Rajasthan,Bikaner,"MM Ground, Bikaner - RSPCB",29-01-2024 08:00:00,28.018792,73.292658,OZONE,1,78,3
India,Rajasthan,Bundi,"New Colony, Bundi - RSPCB",29-01-2024 08:00:00,25.435774,75.644272,OZONE,20,49,49
India,Rajasthan,Chittorgarh,"Shastri Nagar, Chittorgarh - RSPCB",29-01-2024 08:00:00,24.892047,74.623527,NO2,15,91,49
India,Rajasthan,Churu,"Subash Chowk, Churu - RSPCB",29-01-2024 08:00:00,28.296139,74.961696,CO,32,139,59
India,Rajasthan,Dholpur,"Raja Ganj, Dholpur - RSPCB",29-01-2024 08:00:00,26.699557,77.898881,PM10,62,199,137
India,Rajasthan,Dungarpur,"Bhoiwada, Dungarpur - RSPCB",29-01-2024 08:00:00,23.837789,73.714926,CO,29,79,46
India,Rajasthan,Dungarpur,"Bhoiwada, Dungarpur - RSPCB",29-01-2024 08:00:00,23.837789,73.714926,OZONE,7,54,17
India,Rajasthan,Jaipur,"Adarsh Nagar, Jaipur - RSPCB",29-01-2024 08:00:00,26.902909,75.836858,NH3,2,14,7
India,Rajasthan,Jaipur,"Mansarovar Sector-12, Jaipur - RSPCB",29-01-2024 08:00:00,26.843698,75.766894,OZONE,1,154,14
India,Rajasthan,Jaipur,"Police Commissionerate, Jaipur - RSPCB",29-01-2024 08:00:00,26.9164092,75.7994901,SO2,8,23,17
India,Rajasthan,Jaipur,"Police Commissionerate, Jaipur - RSPCB",29-01-2024 08:00:00,26.9164092,75.7994901,OZONE,9,94,39
India,Rajasthan,Jaipur,"RIICO Sitapura, Jaipur - RSPCB",29-01-2024 08:00:00,26.786682,75.827928,PM10,97,254,142
India,Rajasthan,Jaipur,"Sector-2 Murlipura, Jaipur - RSPCB",29-01-2024 08:00:00,26.960669,75.771817,SO2,10,26,17
India,Rajasthan,Jaipur,"Shastri Nagar, Jaipur - RSPCB",29-01-2024 08:00:00,26.9502929,75.730943,NO2,33,99,60
India,Rajasthan,Jhalawar,"Rajlaxmi Nagar, Jhalawar - RSPCB",29-01-2024 08:00:00,24.588397,76.172782,PM2.5,NA,NA,NA
India,Rajasthan,Jhalawar,"Rajlaxmi Nagar, Jhalawar - RSPCB",29-01-2024 08:00:00,24.588397,76.172782,SO2,NA,NA,NA
India,Rajasthan,Jhalawar,"Rajlaxmi Nagar, Jhalawar - RSPCB",29-01-2024 08:00:00,24.588397,76.172782,CO,NA,NA,NA
India,Rajasthan,Jodhpur,"Collectorate, Jodhpur - RSPCB",29-01-2024 08:00:00,26.268249,73.0193853,PM2.5,72,407,269
India,Rajasthan,Jodhpur,"Collectorate, Jodhpur - RSPCB",29-01-2024 08:00:00,26.268249,73.0193853,NO2,26,66,55
India,Rajasthan,Jodhpur,"Digari Kalan, Jodhpur - RSPCB",29-01-2024 08:00:00,26.295810,73.082283,PM10,81,332,137
India,Rajasthan,Jodhpur,"Digari Kalan, Jodhpur - RSPCB",29-01-2024 08:00:00,26.295810,73.082283,CO,20,68,38
India,Rajasthan,Jodhpur,"Digari Kalan, Jodhpur - RSPCB",29-01-2024 08:00:00,26.295810,73.082283,OZONE,3,140,14
India,Rajasthan,Jodhpur,"Jhalamand, Jodhpur - RSPCB",29-01-2024 08:00:00,26.215415,73.070156,PM2.5,35,266,92
India,Rajasthan,Jodhpur,"Jhalamand, Jodhpur - RSPCB",29-01-2024 08:00:00,26.215415,73.070156,NH3,7,25,16
India,Rajasthan,Jodhpur,"Samrat Ashok Udhyan, Jodhpur - RSPCB",29-01-2024 08:00:00,26.253384,72.976571,PM2.5,37,269,71
India,Rajasthan,Karauli,"Satyawati Vihar, Karauli - RSPCB",29-01-2024 08:00:00,26.506177,77.025989,PM10,98,402,242
India,Rajasthan,Karauli,"Satyawati Vihar, Karauli - RSPCB",29-01-2024 08:00:00,26.506177,77.025989,CO,14,68,55
India,Rajasthan,Karauli,"Satyawati Vihar, Karauli - RSPCB",29-01-2024 08:00:00,26.506177,77.025989,OZONE,14,62,23
India,Rajasthan,Kota,"Nayapura, Kota - RSPCB",29-01-2024 08:00:00,25.196024,75.855668,PM2.5,58,366,195
India,Rajasthan,Kota,"Shrinath Puram, Kota - RSPCB",29-01-2024 08:00:00,25.14389,75.821256,CO,7,32,19
India,Rajasthan,Pali,"Indira Colony Vistar, Pali - RSPCB",29-01-2024 08:00:00,25.771061, 73.340227,PM10,NA,NA,NA
India,Rajasthan,Pali,"Indira Colony Vistar, Pali - RSPCB",29-01-2024 08:00:00,25.771061, 73.340227,SO2,NA,NA,NA
India,Rajasthan,Pali,"Indira Colony Vistar, Pali - RSPCB",29-01-2024 08:00:00,25.771061, 73.340227,OZONE,19,21,20
India,Rajasthan,Pratapgarh,"Pragati Nagar, Pratapgarh - RSPCB",29-01-2024 08:00:00,24.041198,74.780702,PM10,71,179,120
India,Rajasthan,Rajsamand,"Dhoinda, Rajsamand - RSPCB",29-01-2024 08:00:00,25.036360,73.883502,SO2,4,14,7
India,Rajasthan,Rajsamand,"Dhoinda, Rajsamand - RSPCB",29-01-2024 08:00:00,25.036360,73.883502,CO,26,66,55
India,Rajasthan,Sawai Madhopur,"Sahu Nagar, Sawai Madhopur - RSPCB",29-01-2024 08:00:00,26.031443,76.359327,NH3,5,40,19
India,Rajasthan,Sawai Madhopur,"Sahu Nagar, Sawai Madhopur - RSPCB",29-01-2024 08:00:00,26.031443,76.359327,CO,23,98,44
India,Rajasthan,Sikar,"Radhakishan Pura, Sikar - RSPCB",29-01-2024 08:00:00,27.608912,75.153302,PM2.5,52,297,158
India,Rajasthan,Sikar,"Radhakishan Pura, Sikar - RSPCB",29-01-2024 08:00:00,27.608912,75.153302,SO2,3,24,9
India,Rajasthan,Sirohi,"Vedhaynath Colony, Sirohi - RSPCB",29-01-2024 08:00:00,24.885261,72.857549,PM10,38,165,72
India,Rajasthan,Sirohi,"Vedhaynath Colony, Sirohi - RSPCB",29-01-2024 08:00:00,24.885261,72.857549,NO2,8,77,27
India,Rajasthan,Sirohi,"Vedhaynath Colony, Sirohi - RSPCB",29-01-2024 08:00:00,24.885261,72.857549,OZONE,8,134,48
India,Rajasthan,Sri Ganganagar,"Old City, Sri Ganganagar - RSPCB",29-01-2024 08:00:00,29.931624,73.864511,OZONE,2,54,6
India,Rajasthan,Tonk,"Shastri Nagar, Tonk - RSPCB",29-01-2024 08:00:00,26.159933,75.780517,CO,13,48,33
India,Rajasthan,Tonk,"Shastri Nagar, Tonk - RSPCB",29-01-2024 08:00:00,26.159933,75.780517,OZONE,2,64,6
India,Rajasthan,Udaipur,"Ashok Nagar, Udaipur - RSPCB",29-01-2024 08:00:00,24.5886166,73.6321397,NH3,6,15,8
India,Rajasthan,Udaipur,"Ashok Nagar, Udaipur - RSPCB",29-01-2024 08:00:00,24.5886166,73.6321397,SO2,13,27,19
India,Sikkim,Gangtok,"Zero Point GICI, Gangtok - SSPCB",29-01-2024 08:00:00,27.338530,88.614099,SO2,9,10,10
India,TamilNadu,Ariyalur,"Keelapalur, Ariyalur - TNPCB",29-01-2024 08:00:00,11.06825,79.07033,PM2.5,24,51,38
India,TamilNadu,Chengalpattu,"Crescent University, Chengalpattu - TNPCB",29-01-2024 08:00:00,12.8777316,80.0834807,PM2.5,34,173,71
India,TamilNadu,Chengalpattu,"Crescent University, Chengalpattu - TNPCB",29-01-2024 08:00:00,12.8777316,80.0834807,PM10,29,108,56
India,TamilNadu,Chengalpattu,"Crescent University, Chengalpattu - TNPCB",29-01-2024 08:00:00,12.8777316,80.0834807,CO,26,32,28
India,TamilNadu,Chengalpattu,"Crescent University, Chengalpattu - TNPCB",29-01-2024 08:00:00,12.8777316,80.0834807,OZONE,6,6,6
India,TamilNadu,Chennai,"Alandur Bus Depot, Chennai - CPCB",29-01-2024 08:00:00,12.9099161,80.1076538,CO,61,64,63
India,TamilNadu,Chennai,"Arumbakkam, Chennai - TNPCB",29-01-2024 08:00:00,13.0664,80.2112 ,SO2,1,7,3
India,TamilNadu,Chennai,"Manali, Chennai - CPCB",29-01-2024 08:00:00,13.164544,80.26285,NO2,4,17,12
India,TamilNadu,Chennai,"Manali, Chennai - CPCB",29-01-2024 08:00:00,13.164544,80.26285,CO,22,105,48
India,TamilNadu,Chennai,"Royapuram, Chennai - TNPCB",29-01-2024 08:00:00,13.1036,80.2909,NO2,15,32,21
India,TamilNadu,Chennai,"Royapuram, Chennai - TNPCB",29-01-2024 08:00:00,13.1036,80.2909,NH3,1,1,1
India,TamilNadu,Chennai,"Velachery Res. Area, Chennai - CPCB",29-01-2024 08:00:00,13.0052189,80.2398125,PM2.5,30,65,46
India,TamilNadu,Chennai,"Velachery Res. Area, Chennai - CPCB",29-01-2024 08:00:00,13.0052189,80.2398125,NO2,13,32,16
India,TamilNadu,Coimbatore,"PSG College of Arts and Science, Coimbatore - TNPCB",29-01-2024 08:00:00,11.0328,77.0349,SO2,15,21,18
India,TamilNadu,Cuddalore,"Kudikadu, Cuddalore - TNPCB",29-01-2024 08:00:00,11.6829898,79.7532099,PM2.5,44,173,75
India,TamilNadu,Gummidipoondi,"Anthoni Pillai Nagar, Gummidipoondi - TNPCB",29-01-2024 08:00:00,13.4127,80.1081,NH3,2,2,2
India,TamilNadu,Ooty,"Bombay Castel, Ooty - TNPCB",29-01-2024 08:00:00,11.4068288,76.7138973,OZONE,5,5,5
India,TamilNadu,Palkalaiperur,"Bharathidasan University, Palkalaiperur - TNPCB",29-01-2024 08:00:00,10.681158,78.741746,PM10,26,64,45
India,TamilNadu,Palkalaiperur,"Bharathidasan University, Palkalaiperur - TNPCB",29-01-2024 08:00:00,10.681158,78.741746,CO,3,40,18
India,TamilNadu,Thoothukudi,"Meelavittan, Thoothukudi - TNPCB",29-01-2024 08:00:00,8.816428 ,78.099039,CO,4,28,17
India,TamilNadu,Tirupur,"Kumaran College, Tirupur - TNPCB",29-01-2024 08:00:00,11.0973603,77.3228673,NO2,6,33,14
India,TamilNadu,Tirupur,"Kumaran College, Tirupur - TNPCB",29-01-2024 08:00:00,11.0973603,77.3228673,CO,19,59,28
India,TamilNadu,Vellore,"Vasanthapuram, Vellore - TNPCB",29-01-2024 08:00:00,12.909494,79.131861,OZONE,NA,NA,NA
India,TamilNadu,Virudhunagar,"Collectorate Office, Virudhunagar - TNPCB",29-01-2024 08:00:00,9.559382,77.948828,NO2,20,50,27
India,Telangana,Hyderabad,"Bollaram Industrial Area, Hyderabad - TSPCB",29-01-2024 08:00:00,17.540891,78.358528,PM10,77,148,101
India,Telangana,Hyderabad,"Bollaram Industrial Area, Hyderabad - TSPCB",29-01-2024 08:00:00,17.540891,78.358528,NO2,14,45,27
India,Telangana,Hyderabad,"Central University, Hyderabad - TSPCB",29-01-2024 08:00:00,17.460103,78.334361,PM10,58,95,74
India,Telangana,Hyderabad,"Central University, Hyderabad - TSPCB",29-01-2024 08:00:00,17.460103,78.334361,NO2,18,37,29
India,Telangana,Hyderabad,"Central University, Hyderabad - TSPCB",29-01-2024 08:00:00,17.460103,78.334361,OZONE,3,4,4
India,Telangana,Hyderabad,"ECIL Kapra, Hyderabad - TSPCB",29-01-2024 08:00:00,17.470431,78.566959,NH3,7,7,7
India,Telangana,Hyderabad,"ECIL Kapra, Hyderabad - TSPCB",29-01-2024 08:00:00,17.470431,78.566959,CO,6,25,21
India,Telangana,Hyderabad,"New Malakpet, Hyderabad - TSPCB",29-01-2024 08:00:00,17.37206,78.50864,PM10,57,68,62
India,Telangana,Hyderabad,"Sanathnagar, Hyderabad - TSPCB",29-01-2024 08:00:00,17.4559458,78.4332152,PM2.5,59,500,140
India,Tripura,Agartala,"Bardowali, Agartala - Tripura SPCB",29-01-2024 08:00:00,23.8175497,91.2726974,PM2.5,128,402,293
India,Tripura,Agartala,"Bardowali, Agartala - Tripura SPCB",29-01-2024 08:00:00,23.8175497,91.2726974,SO2,23,28,25
India,Uttar_Pradesh,Agra,"Manoharpur, Agra - UPPCB",29-01-2024 08:00:00,27.23711,78.01936,NO2,20,21,20
India,Uttar_Pradesh,Agra,"Manoharpur, Agra - UPPCB",29-01-2024 08:00:00,27.23711,78.01936,CO,28,60,31
India,Uttar_Pradesh,Agra,"Sanjay Palace, Agra - UPPCB",29-01-2024 08:00:00,27.19865833,78.00598056,PM10,NA,NA,NA
India,Uttar_Pradesh,Agra,"Sanjay Palace, Agra - UPPCB",29-01-2024 08:00:00,27.19865833,78.00598056,CO,46,102,76
India,Uttar_Pradesh,Agra,"Shahjahan Garden, Agra - UPPCB",29-01-2024 08:00:00,27.169338,78.03582,PM2.5,50,218,107
India,Uttar_Pradesh,Agra,"Shastripuram, Agra - UPPCB",29-01-2024 08:00:00,27.19862,77.92066,PM10,109,189,128
India,Uttar_Pradesh,Baghpat,"Sardar Patel Inter College, Baghpat - UPPCB",29-01-2024 08:00:00,28.964949,77.278761,NO2,36,68,50
India,Uttar_Pradesh,Baghpat,"Sardar Patel Inter College, Baghpat - UPPCB",29-01-2024 08:00:00,28.964949,77.278761,CO,72,105,81
India,Uttar_Pradesh,Firozabad,"Vibhab Nagar, Firozabad - UPPCB",29-01-2024 08:00:00,27.1594,78.3953,PM2.5,84,202,107
India,Uttar_Pradesh,Firozabad,"Vibhab Nagar, Firozabad - UPPCB",29-01-2024 08:00:00,27.1594,78.3953,NH3,2,2,2
India,Uttar_Pradesh,Firozabad,"Vibhab Nagar, Firozabad - UPPCB",29-01-2024 08:00:00,27.1594,78.3953,CO,42,54,46
India,Uttar_Pradesh,Ghaziabad,"Indirapuram, Ghaziabad - UPPCB",29-01-2024 08:00:00,28.646233,77.358075,PM2.5,190,407,302
India,Uttar_Pradesh,Ghaziabad,"Indirapuram, Ghaziabad - UPPCB",29-01-2024 08:00:00,28.646233,77.358075,NH3,6,10,8
India,Uttar_Pradesh,Ghaziabad,"Indirapuram, Ghaziabad - UPPCB",29-01-2024 08:00:00,28.646233,77.358075,SO2,14,18,15
India,Uttar_Pradesh,Ghaziabad,"Sanjay Nagar, Ghaziabad - UPPCB",29-01-2024 08:00:00,28.685382,77.453839,PM10,140,261,180
India,Uttar_Pradesh,Ghaziabad,"Sanjay Nagar, Ghaziabad - UPPCB",29-01-2024 08:00:00,28.685382,77.453839,NO2,41,67,54
India,Uttar_Pradesh,Ghaziabad,"Sanjay Nagar, Ghaziabad - UPPCB",29-01-2024 08:00:00,28.685382,77.453839,SO2,NA,NA,NA
India,Uttar_Pradesh,Gorakhpur,"Madan Mohan Malaviya University of Technology, Gorakhpur - UPPCB",29-01-2024 08:00:00,26.730136,83.433859,PM2.5,NA,NA,NA
India,Uttar_Pradesh,Greater Noida,"Knowledge Park - III, Greater Noida - UPPCB",29-01-2024 08:00:00,28.47272,77.482000,NO2,8,88,34
India,Uttar_Pradesh,Greater Noida,"Knowledge Park - III, Greater Noida - UPPCB",29-01-2024 08:00:00,28.47272,77.482000,NH3,16,22,19
India,Uttar_Pradesh,Hapur,"Anand Vihar, Hapur - UPPCB",29-01-2024 08:00:00,28.725645,77.749675,PM10,119,199,164
India,Uttar_Pradesh,Hapur,"Anand Vihar, Hapur - UPPCB",29-01-2024 08:00:00,28.725645,77.749675,NO2,4,60,22
India,Uttar_Pradesh,Hapur,"Anand Vihar, Hapur - UPPCB",29-01-2024 08:00:00,28.725645,77.749675,SO2,36,87,58
India,Uttar_Pradesh,Hapur,"Anand Vihar, Hapur - UPPCB",29-01-2024 08:00:00,28.725645,77.749675,CO,57,110,69
India,Uttar_Pradesh,Jhansi,"Shivaji Nagar, Jhansi - UPPCB",29-01-2024 08:00:00,25.4547,78.6039,NO2,17,29,21
India,Uttar_Pradesh,Jhansi,"Shivaji Nagar, Jhansi - UPPCB",29-01-2024 08:00:00,25.4547,78.6039,SO2,10,15,12
India,Uttar_Pradesh,Jhansi,"Shivaji Nagar, Jhansi - UPPCB",29-01-2024 08:00:00,25.4547,78.6039,CO,23,34,26
India,Uttar_Pradesh,Kanpur,"FTI Kidwai Nagar, Kanpur - UPPCB",29-01-2024 08:00:00,26.428282,80.327067,PM2.5,52,97,81
India,Uttar_Pradesh,Kanpur,"FTI Kidwai Nagar, Kanpur - UPPCB",29-01-2024 08:00:00,26.428282,80.327067,OZONE,3,5,3
India,Uttar_Pradesh,Kanpur,"NSI Kalyanpur, Kanpur - UPPCB",29-01-2024 08:00:00,26.509954,80.249612,NO2,11,12,11
India,Uttar_Pradesh,Kanpur,"NSI Kalyanpur, Kanpur - UPPCB",29-01-2024 08:00:00,26.509954,80.249612,NH3,3,4,4
India,Uttar_Pradesh,Khurja,"Kalindi Kunj, Khurja - UPPCB",29-01-2024 08:00:00,28.2348927,77.8683002,PM2.5,34,148,86
India,Uttar_Pradesh,Khurja,"Kalindi Kunj, Khurja - UPPCB",29-01-2024 08:00:00,28.2348927,77.8683002,PM10,33,113,78
India,Uttar_Pradesh,Lucknow,"B R Ambedkar University, Lucknow - UPPCB",29-01-2024 08:00:00,26.766433,80.927299,NO2,11,12,12
India,Uttar_Pradesh,Lucknow,"B R Ambedkar University, Lucknow - UPPCB",29-01-2024 08:00:00,26.766433,80.927299,OZONE,2,30,4
India,Uttar_Pradesh,Lucknow,"Kendriya Vidyalaya, Lucknow - CPCB",29-01-2024 08:00:00,26.906111,80.948222,NH3,3,20,14
India,Uttar_Pradesh,Lucknow,"Kendriya Vidyalaya, Lucknow - CPCB",29-01-2024 08:00:00,26.906111,80.948222,CO,47,63,51
India,Uttar_Pradesh,Lucknow,"Kendriya Vidyalaya, Lucknow - CPCB",29-01-2024 08:00:00,26.906111,80.948222,OZONE,8,53,12
India,Uttar_Pradesh,Lucknow,"Kukrail Picnic Spot-1, Lucknow - UPPCB",29-01-2024 08:00:00,26.90723,80.98579,PM2.5,88,245,159
India,Uttar_Pradesh,Lucknow,"Kukrail Picnic Spot-1, Lucknow - UPPCB",29-01-2024 08:00:00,26.90723,80.98579,PM10,83,128,110
India,Uttar_Pradesh,Lucknow,"Kukrail Picnic Spot-1, Lucknow - UPPCB",29-01-2024 08:00:00,26.90723,80.98579,NH3,2,2,2
India,Uttar_Pradesh,Lucknow,"Kukrail Picnic Spot-1, Lucknow - UPPCB",29-01-2024 08:00:00,26.90723,80.98579,OZONE,3,30,5
India,Uttar_Pradesh,Lucknow,"Lalbagh, Lucknow - CPCB",29-01-2024 08:00:00,26.8458805,80.9365541,SO2,2,15,8
India,Uttar_Pradesh,Lucknow,"Talkatora District Industries Center, Lucknow - CPCB",29-01-2024 08:00:00,26.83399722,80.8917361,NH3,26,39,31
India,Uttar_Pradesh,Meerut,"Ganga Nagar, Meerut - UPPCB",29-01-2024 08:00:00,28.999264,77.7590354,PM10,114,188,152
India,Uttar_Pradesh,Meerut,"Ganga Nagar, Meerut - UPPCB",29-01-2024 08:00:00,28.999264,77.7590354,SO2,9,16,13
India,Uttar_Pradesh,Meerut,"Ganga Nagar, Meerut - UPPCB",29-01-2024 08:00:00,28.999264,77.7590354,CO,44,80,49
India,Uttar_Pradesh,Meerut,"Jai Bhim Nagar, Meerut - UPPCB",29-01-2024 08:00:00,28.9535882,77.7622941,NH3,8,11,9
India,Uttar_Pradesh,Meerut,"Jai Bhim Nagar, Meerut - UPPCB",29-01-2024 08:00:00,28.9535882,77.7622941,SO2,5,9,7
India,Uttar_Pradesh,Meerut,"Pallavpuram Phase 2, Meerut - UPPCB",29-01-2024 08:00:00,29.063510,77.709723,SO2,2,4,3
India,Uttar_Pradesh,Moradabad,"Eco Herbal Park, Moradabad - UPPCB",29-01-2024 08:00:00,28.840739,78.697531,NH3,3,42,7
India,Uttar_Pradesh,Moradabad,"Employment Office, Moradabad - UPPCB",29-01-2024 08:00:00,28.88528,78.73880,PM10,83,189,125
India,Uttar_Pradesh,Moradabad,"Employment Office, Moradabad - UPPCB",29-01-2024 08:00:00,28.88528,78.73880,NH3,4,4,4
India,Uttar_Pradesh,Moradabad,"Jigar Colony, Moradabad - UPPCB",29-01-2024 08:00:00,28.856664,78.772638,CO,40,55,45
India,Uttar_Pradesh,Moradabad,"Transport Nagar, Moradabad - UPPCB",29-01-2024 08:00:00,28.802625,78.753728,NH3,6,6,6
India,Uttar_Pradesh,Muzaffarnagar,"New Mandi, Muzaffarnagar - UPPCB",29-01-2024 08:00:00,29.4723508,77.7194031,PM2.5,209,329,282
India,Uttar_Pradesh,Muzaffarnagar,"New Mandi, Muzaffarnagar - UPPCB",29-01-2024 08:00:00,29.4723508,77.7194031,NO2,12,46,22
India,Uttar_Pradesh,Muzaffarnagar,"New Mandi, Muzaffarnagar - UPPCB",29-01-2024 08:00:00,29.4723508,77.7194031,NH3,9,10,10
India,Uttar_Pradesh,Noida,"Sector - 125, Noida - UPPCB",29-01-2024 08:00:00,28.5447608,77.3231257,PM2.5,240,408,321
India,Uttar_Pradesh,Noida,"Sector-1, Noida - UPPCB",29-01-2024 08:00:00,28.5898,77.3101,NO2,34,161,62
India,Uttar_Pradesh,Noida,"Sector-1, Noida - UPPCB",29-01-2024 08:00:00,28.5898,77.3101,NH3,5,15,12
India,Uttar_Pradesh,Noida,"Sector-116, Noida - UPPCB",29-01-2024 08:00:00,28.569230,77.393848,OZONE,1,13,6
India,Uttar_Pradesh,Prayagraj,"Motilal Nehru NIT, Prayagraj - UPPCB",29-01-2024 08:00:00,25.494,81.863,SO2,22,31,26
India,Uttar_Pradesh,Prayagraj,"Nagar Nigam, Prayagraj - UPPCB",29-01-2024 08:00:00,25.44919916 ,81.82735986 ,PM10,72,147,126
India,Uttar_Pradesh,Prayagraj,"Nagar Nigam, Prayagraj - UPPCB",29-01-2024 08:00:00,25.44919916 ,81.82735986 ,CO,2,38,25
India,Uttar_Pradesh,Prayagraj,"Nagar Nigam, Prayagraj - UPPCB",29-01-2024 08:00:00,25.44919916 ,81.82735986 ,OZONE,4,149,6
India,Uttar_Pradesh,Varanasi,"IESD Banaras Hindu University, Varanasi - UPPCB",29-01-2024 08:00:00,25.262326,82.995408,PM2.5,16,45,30
India,Uttar_Pradesh,Varanasi,"IESD Banaras Hindu University, Varanasi - UPPCB",29-01-2024 08:00:00,25.262326,82.995408,NO2,2,3,2
India,Uttar_Pradesh,Varanasi,"IESD Banaras Hindu University, Varanasi - UPPCB",29-01-2024 08:00:00,25.262326,82.995408,SO2,13,13,13
India,Uttarakhand,Dehradun,"Doon University, Dehradun - UKPCB",29-01-2024 08:00:00,30.269444,78.044167,PM2.5,121,352,263
India,Uttarakhand,Dehradun,"Doon University, Dehradun - UKPCB",29-01-2024 08:00:00,30.269444,78.044167,OZONE,3,10,4
India,Uttarakhand,Rishikesh,"Shivaji Nagar, Rishikesh - UKPCB",29-01-2024 08:00:00,30.075911,78.2859547,CO,44,70,46
India,Uttarakhand,Rishikesh,"Shivaji Nagar, Rishikesh - UKPCB",29-01-2024 08:00:00,30.075911,78.2859547,OZONE,2,30,3
India,West_Bengal,Asansol,"Asansol Court Area, Asansol - WBPCB",29-01-2024 08:00:00,23.685297,86.945968,PM2.5,195,372,311
India,West_Bengal,Barrackpore,"SVSPA Campus, Barrackpore - WBPCB",29-01-2024 08:00:00,22.7605581,88.3617589,OZONE,8,80,12
India,West_Bengal,Durgapur,"Sidhu Kanhu Indoor Stadium, Durgapur - WBPCB",29-01-2024 08:00:00,23.5404352,87.2892225,PM2.5,201,325,283
India,West_Bengal,Durgapur,"Sidhu Kanhu Indoor Stadium, Durgapur - WBPCB",29-01-2024 08:00:00,23.5404352,87.2892225,CO,40,87,56
India,West_Bengal,Haldia,"Priyambada Housing Estate, Haldia - WBPCB",29-01-2024 08:00:00,22.06047,88.109737,SO2,7,27,15
India,West_Bengal,Howrah,"Ghusuri, Howrah - WBPCB",29-01-2024 08:00:00,22.611968,88.347422,PM2.5,NA,NA,NA
India,West_Bengal,Howrah,"Ghusuri, Howrah - WBPCB",29-01-2024 08:00:00,22.611968,88.347422,PM10,NA,NA,NA
India,West_Bengal,Howrah,"Padmapukur, Howrah - WBPCB",29-01-2024 08:00:00,22.5687319,88.2797276,SO2,7,34,14
India,West_Bengal,Howrah,"Padmapukur, Howrah - WBPCB",29-01-2024 08:00:00,22.5687319,88.2797276,CO,30,112,75
India,West_Bengal,Kolkata,"Ballygunge, Kolkata - WBPCB",29-01-2024 08:00:00,22.5367507,88.3638022,NO2,50,172,97
India,West_Bengal,Kolkata,"Ballygunge, Kolkata - WBPCB",29-01-2024 08:00:00,22.5367507,88.3638022,CO,25,101,45
India,West_Bengal,Kolkata,"Ballygunge, Kolkata - WBPCB",29-01-2024 08:00:00,22.5367507,88.3638022,OZONE,5,95,10
India,West_Bengal,Kolkata,"Fort William, Kolkata - WBPCB",29-01-2024 08:00:00,22.556640,88.342674,CO,12,66,44
India,West_Bengal,Kolkata,"Jadavpur, Kolkata - WBPCB",29-01-2024 08:00:00,22.49929,88.36917,CO,22,52,35
India,West_Bengal,Kolkata,"Rabindra Sarobar, Kolkata - WBPCB",29-01-2024 08:00:00,22.51106,88.35142,SO2,8,42,21
India,West_Bengal,Kolkata,"Rabindra Sarobar, Kolkata - WBPCB",29-01-2024 08:00:00,22.51106,88.35142,CO,11,86,41
India,West_Bengal,Kolkata,"Victoria, Kolkata - WBPCB",29-01-2024 08:00:00,22.5448082,88.3403691,CO,50,102,93
India,West_Bengal,Siliguri,"Ward-32 Bapupara, Siliguri - WBPCB",29-01-2024 08:00:00,26.6879226,88.4152495,PM2.5,62,366,153
India,West_Bengal,Siliguri,"Ward-32 Bapupara, Siliguri - WBPCB",29-01-2024 08:00:00,26.6879226,88.4152495,CO,18,114,39
India,Andhra_Pradesh,Amaravati,"Secretariat, Amaravati - APPCB",29-01-2024 08:00:00,16.5150833,80.5181667,PM2.5,85,125,98
India,Andhra_Pradesh,Amaravati,"Secretariat, Amaravati - APPCB",29-01-2024 08:00:00,16.5150833,80.5181667,PM10,80,110,94
India,Andhra_Pradesh,Amaravati,"Secretariat, Amaravati - APPCB",29-01-2024 08:00:00,16.5150833,80.5181667,SO2,11,15,13
India,Andhra_Pradesh,Anantapur,"Gulzarpet, Anantapur - APPCB",29-01-2024 08:00:00,14.675886,77.593027,PM2.5,29,63,41
India,Andhra_Pradesh,Anantapur,"Gulzarpet, Anantapur - APPCB",29-01-2024 08:00:00,14.675886,77.593027,NH3,NA,NA,NA
India,Andhra_Pradesh,Chittoor,"Gangineni Cheruvu, Chittoor - APPCB",29-01-2024 08:00:00,13.204880,79.097889,NH3,1,4,1
India,Andhra_Pradesh,Chittoor,"Gangineni Cheruvu, Chittoor - APPCB",29-01-2024 08:00:00,13.204880,79.097889,CO,24,66,43
India,Andhra_Pradesh,Rajamahendravaram,"Anand Kala Kshetram, Rajamahendravaram - APPCB",29-01-2024 08:00:00,16.9872867,81.7363176,PM2.5,NA,NA,NA
India,Andhra_Pradesh,Rajamahendravaram,"Anand Kala Kshetram, Rajamahendravaram - APPCB",29-01-2024 08:00:00,16.9872867,81.7363176,NO2,NA,NA,NA
India,Andhra_Pradesh,Tirupati,"Tirumala, Tirupati - APPCB",29-01-2024 08:00:00,13.67,79.35,NH3,1,2,2
India,Andhra_Pradesh,Tirupati,"Tirumala, Tirupati - APPCB",29-01-2024 08:00:00,13.67,79.35,OZONE,25,83,54
India,Andhra_Pradesh,Tirupati,"Vaikuntapuram, Tirupati - APPCB",29-01-2024 08:00:00,13.615387,79.409230,PM2.5,19,79,37
India,Andhra_Pradesh,Tirupati,"Vaikuntapuram, Tirupati - APPCB",29-01-2024 08:00:00,13.615387,79.409230,CO,10,16,13
India,Andhra_Pradesh,Vijayawada,"HB Colony, Vijayawada - APPCB",29-01-2024 08:00:00,16.536107,80.594233,PM2.5,NA,NA,NA
India,Andhra_Pradesh,Visakhapatnam,"GVM Corporation, Visakhapatnam - APPCB",29-01-2024 08:00:00,17.72,83.3,NO2,NA,NA,NA
India,Arunachal_Pradesh,Naharlagun,"Naharlagun, Naharlagun - APSPCB",29-01-2024 08:00:00,27.103358,93.679645,PM2.5,2,2,2
India,Arunachal_Pradesh,Naharlagun,"Naharlagun, Naharlagun - APSPCB",29-01-2024 08:00:00,27.103358,93.679645,OZONE,2,2,2
India,Assam,Byrnihat,"Central Academy for SFS, Byrnihat - PCBA",29-01-2024 08:00:00,26.071318,91.87488,PM2.5,140,500,344
India,Assam,Byrnihat,"Central Academy for SFS, Byrnihat - PCBA",29-01-2024 08:00:00,26.071318,91.87488,SO2,10,13,12
India,Assam,Guwahati,"LGBI Airport, Guwahati - PCBA",29-01-2024 08:00:00,26.10887,91.589544,SO2,11,15,13
India,Assam,Guwahati,"Pan Bazaar, Guwahati - PCBA",29-01-2024 08:00:00,26.187500,91.744194,PM2.5,88,384,266
India,Assam,Guwahati,"Railway Colony, Guwahati - PCBA",29-01-2024 08:00:00,26.181742,91.78063,NO2,3,3,3
India,Assam,Nagaon,"Christianpatty, Nagaon - PCBA",29-01-2024 08:00:00,26.349082,92.68449,NH3,2,9,4
India,Assam,Nalbari,"Bata Chowk, Nalbari - PCBA",29-01-2024 08:00:00,26.446912,91.439057,SO2,3,21,8
India,Assam,Nalbari,"Bata Chowk, Nalbari - PCBA",29-01-2024 08:00:00,26.446912,91.439057,CO,8,147,29
India,Assam,Nalbari,"Bata Chowk, Nalbari - PCBA",29-01-2024 08:00:00,26.446912,91.439057,OZONE,7,86,10
India,Assam,Silchar,"Tarapur, Silchar - PCBA",29-01-2024 08:00:00,24.82827,92.79525,NO2,NA,NA,NA
India,Assam,Silchar,"Tarapur, Silchar - PCBA",29-01-2024 08:00:00,24.82827,92.79525,OZONE,NA,NA,NA
India,Bihar,Arrah,"New DM Office, Arrah - BSPCB",29-01-2024 08:00:00,25.5626095,84.663264,PM10,139,270,194
India,Bihar,Arrah,"New DM Office, Arrah - BSPCB",29-01-2024 08:00:00,25.5626095,84.663264,CO,2,28,8
India,Bihar,Aurangabad,"Gurdeo Nagar, Aurangabad - BSPCB",29-01-2024 08:00:00,24.75746,84.366208,PM10,86,268,178
India,Bihar,Bettiah,"Kamalnath Nagar, Bettiah - BSPCB",29-01-2024 08:00:00,26.80365,84.51954,NH3,NA,NA,NA
India,Bihar,Bhagalpur,"DM Office_Kachari Chowk, Bhagalpur - BSPCB",29-01-2024 08:00:00,25.251013,86.989001,NO2,44,106,58
India,Bihar,Bhagalpur,"Mayaganj, Bhagalpur - BSPCB",29-01-2024 08:00:00,25.265194,87.012947,PM2.5,302,493,405
India,Bihar,Bihar Sharif,"D M Colony, Bihar Sharif - BSPCB",29-01-2024 08:00:00,25.204762,85.514960,PM2.5,17,315,120
India,Bihar,Bihar Sharif,"D M Colony, Bihar Sharif - BSPCB",29-01-2024 08:00:00,25.204762,85.514960,PM10,26,192,96
India,Bihar,Bihar Sharif,"D M Colony, Bihar Sharif - BSPCB",29-01-2024 08:00:00,25.204762,85.514960,SO2,2,18,6
India,Bihar,Gaya,"Kareemganj, Gaya - BSPCB",29-01-2024 08:00:00,24.792403,84.992416,NH3,1,7,3
India,Bihar,Gaya,"Kareemganj, Gaya - BSPCB",29-01-2024 08:00:00,24.792403,84.992416,CO,20,102,48
India,Bihar,Gaya,"SFTI Kusdihra, Gaya - BSPCB",29-01-2024 08:00:00,24.762518,84.982348,PM10,81,115,107
India,Bihar,Gaya,"SFTI Kusdihra, Gaya - BSPCB",29-01-2024 08:00:00,24.762518,84.982348,NO2,22,39,27
India,Bihar,Gaya,"SFTI Kusdihra, Gaya - BSPCB",29-01-2024 08:00:00,24.762518,84.982348,CO,14,97,85
India,Bihar,Hajipur,"Industrial Area, Hajipur - BSPCB",29-01-2024 08:00:00,25.697189,85.245900,NH3,7,10,9
India,Bihar,Kishanganj,"SDM Office_Khagra, Kishanganj - BSPCB",29-01-2024 08:00:00,26.0881305,87.93840336,NO2,NA,NA,NA
India,Bihar,Kishanganj,"SDM Office_Khagra, Kishanganj - BSPCB",29-01-2024 08:00:00,26.0881305,87.93840336,CO,NA,NA,NA
India,Bihar,Manguraha,"Forest Rest House, Manguraha - BSPCB",29-01-2024 08:00:00,27.308328,84.531742,SO2,7,8,8
India,Bihar,Motihari,"Gandak Colony, Motihari - BSPCB",29-01-2024 08:00:00,26.63086,84.90051,CO,28,100,65
India,Bihar,Munger,"Town Hall, Munger - BSPCB",29-01-2024 08:00:00,25.376776,86.471523,PM2.5,72,325,229
India,Bihar,Munger,"Town Hall, Munger - BSPCB",29-01-2024 08:00:00,25.376776,86.471523,NO2,8,9,9
India,Bihar,Munger,"Town Hall, Munger - BSPCB",29-01-2024 08:00:00,25.376776,86.471523,SO2,32,60,45
India,Bihar,Munger,"Town Hall, Munger - BSPCB",29-01-2024 08:00:00,25.376776,86.471523,CO,29,126,88
India,Bihar,Munger,"Town Hall, Munger - BSPCB",29-01-2024 08:00:00,25.376776,86.471523,OZONE,9,14,11
India,Bihar,Muzaffarpur,"MIT-Daudpur Kothi, Muzaffarpur - BSPCB",29-01-2024 08:00:00,26.1403345,85.3650192,PM10,101,332,175
India,Bihar,Muzaffarpur,"Muzaffarpur Collectorate, Muzaffarpur - BSPCB",29-01-2024 08:00:00,26.1209,85.3647,PM2.5,141,351,249
India,Bihar,Muzaffarpur,"Muzaffarpur Collectorate, Muzaffarpur - BSPCB",29-01-2024 08:00:00,26.1209,85.3647,SO2,5,8,6
India,Bihar,Patna,"DRM Office Danapur, Patna - BSPCB",29-01-2024 08:00:00,25.586562,85.043586,NH3,4,5,4
India,Bihar,Patna,"Muradpur, Patna - BSPCB",29-01-2024 08:00:00,25.619651,85.147382,NO2,8,17,12
India,Bihar,Patna,"Rajbansi Nagar, Patna - BSPCB",29-01-2024 08:00:00,25.599486,85.113666,NH3,6,7,6
India,Bihar,Patna,"Rajbansi Nagar, Patna - BSPCB",29-01-2024 08:00:00,25.599486,85.113666,OZONE,1,57,2
India,Bihar,Patna,"Samanpura, Patna - BSPCB",29-01-2024 08:00:00,25.596727,85.085624,NO2,NA,NA,NA
India,Bihar,Patna,"Samanpura, Patna - BSPCB",29-01-2024 08:00:00,25.596727,85.085624,OZONE,22,32,26
India,Bihar,Saharsa,"Police Line, Saharsa - BSPCB",29-01-2024 08:00:00,25.892357,86.590325,OZONE,10,75,12
India,Bihar,Sasaram,"Dada Peer, Sasaram - BSPCB",29-01-2024 08:00:00,24.952822,84.002396,SO2,20,23,22
India,Chandigarh,Chandigarh,"Sector 22, Chandigarh - CPCC",29-01-2024 08:00:00,30.735567,76.775714,OZONE,2,124,4
India,Chandigarh,Chandigarh,"Sector-53, Chandigarh - CPCC",29-01-2024 08:00:00,30.719859,76.738637,PM2.5,300,428,369
India,Chandigarh,Chandigarh,"Sector-53, Chandigarh - CPCC",29-01-2024 08:00:00,30.719859,76.738637,CO,54,112,83
India,Chhattisgarh,Bhilai,"Civic Center, Bhilai - Bhilai Steel Plant",29-01-2024 08:00:00,21.185571,81.343175,SO2,NA,NA,NA
India,Chhattisgarh,Bhilai,"Hathkhoj, Bhilai - CECB",29-01-2024 08:00:00,21.224231,81.408350,PM10,73,170,118
India,Chhattisgarh,Chhal,"Nawapara SECL Colony, Chhal - CECB",29-01-2024 08:00:00,22.118125,83.140608,PM2.5,NA,NA,NA
India,Chhattisgarh,Chhal,"Nawapara SECL Colony, Chhal - CECB",29-01-2024 08:00:00,22.118125,83.140608,NO2,15,58,26
India,Chhattisgarh,Chhal,"Nawapara SECL Colony, Chhal - CECB",29-01-2024 08:00:00,22.118125,83.140608,CO,60,103,78
India,Chhattisgarh,Chhal,"Nawapara SECL Colony, Chhal - CECB",29-01-2024 08:00:00,22.118125,83.140608,OZONE,5,84,8
India,Chhattisgarh,Korba,"Rampur, Korba - CECB",29-01-2024 08:00:00,22.368195,82.746431,CO,20,36,30
India,Chhattisgarh,Kunjemura,"OP Jindal School, Kunjemura - CECB",29-01-2024 08:00:00,22.126650,83.483212,PM2.5,48,375,115
India,Chhattisgarh,Kunjemura,"OP Jindal School, Kunjemura - CECB",29-01-2024 08:00:00,22.126650,83.483212,SO2,10,96,36
India,Chhattisgarh,Milupara,"Govt. Higher Secondary School, Milupara - CECB",29-01-2024 08:00:00,22.1910172,83.5197009,OZONE,6,84,9
India,Chhattisgarh,Raipur,"Bhatagaon New ISBT, Raipur - CECB",29-01-2024 08:00:00,21.219665,81.630094,PM2.5,36,131,72
India,Chhattisgarh,Raipur,"Krishak Nagar, Raipur - CECB",29-01-2024 08:00:00,21.237755,81.705301,PM2.5,39,201,81
India,Chhattisgarh,Raipur,"Siltara Phase-II, Raipur - CECB",29-01-2024 08:00:00,21.371751,81.664929,SO2,3,32,6
India,Chhattisgarh,Tumidih,"OP Jindal Industrial Park, Tumidih - CECB",29-01-2024 08:00:00,22.06631475,83.33820077,NH3,NA,NA,NA
India,Chhattisgarh,Tumidih,"OP Jindal Industrial Park, Tumidih - CECB",29-01-2024 08:00:00,22.06631475,83.33820077,OZONE,5,13,7
India,Delhi,Delhi,"Alipur, Delhi - DPCC",29-01-2024 08:00:00,28.815329,77.153010,NH3,11,14,12
India,Delhi,Delhi,"Anand Vihar, Delhi - DPCC",29-01-2024 08:00:00,28.647622,77.3158090,PM10,210,500,334
India,Delhi,Delhi,"Anand Vihar, Delhi - DPCC",29-01-2024 08:00:00,28.647622,77.3158090,NH3,6,22,14
India,Delhi,Delhi,"Ashok Vihar, Delhi - DPCC",29-01-2024 08:00:00,28.695381,77.181665,PM2.5,306,500,381
India,Delhi,Delhi,"Ashok Vihar, Delhi - DPCC",29-01-2024 08:00:00,28.695381,77.181665,NH3,10,12,11
India,Delhi,Delhi,"Ashok Vihar, Delhi - DPCC",29-01-2024 08:00:00,28.695381,77.181665,SO2,19,29,23
India,Delhi,Delhi,"Aya Nagar, Delhi - IMD",29-01-2024 08:00:00,28.4706914,77.1099364,NO2,26,43,32
India,Delhi,Delhi,"Bawana, Delhi - DPCC",29-01-2024 08:00:00,28.776200,77.051074,PM2.5,345,479,413
India,Delhi,Delhi,"CRRI Mathura Road, Delhi - IMD",29-01-2024 08:00:00,28.5512005,77.2735737,PM10,133,424,225
India,Delhi,Delhi,"CRRI Mathura Road, Delhi - IMD",29-01-2024 08:00:00,28.5512005,77.2735737,OZONE,3,14,3
India,Delhi,Delhi,"DTU, Delhi - CPCB",29-01-2024 08:00:00,28.7500499,77.1112615,PM2.5,154,360,285
India,Delhi,Delhi,"DTU, Delhi - CPCB",29-01-2024 08:00:00,28.7500499,77.1112615,PM10,245,500,395
India,Delhi,Delhi,"DTU, Delhi - CPCB",29-01-2024 08:00:00,28.7500499,77.1112615,NO2,29,112,61
India,Delhi,Delhi,"Dr. Karni Singh Shooting Range, Delhi - DPCC",29-01-2024 08:00:00,28.498571,77.264840,SO2,4,15,8
India,Delhi,Delhi,"Dr. Karni Singh Shooting Range, Delhi - DPCC",29-01-2024 08:00:00,28.498571,77.264840,OZONE,2,97,15
India,Delhi,Delhi,"Dwarka-Sector 8, Delhi - DPCC ",29-01-2024 08:00:00,28.5710274,77.0719006,PM10,204,442,326
India,Delhi,Delhi,"Dwarka-Sector 8, Delhi - DPCC ",29-01-2024 08:00:00,28.5710274,77.0719006,CO,64,122,70
India,Delhi,Delhi,"IHBAS, Dilshad Garden, Delhi - CPCB",29-01-2024 08:00:00,28.6811736,77.3025234,OZONE,7,25,10
India,Delhi,Delhi,"Jahangirpuri, Delhi - DPCC",29-01-2024 08:00:00,28.732820,77.170633,PM10,321,497,419
India,Delhi,Delhi,"Jahangirpuri, Delhi - DPCC",29-01-2024 08:00:00,28.732820,77.170633,NH3,7,22,13
India,Delhi,Delhi,"Jawaharlal Nehru Stadium, Delhi - DPCC",29-01-2024 08:00:00,28.580280,77.233829,PM10,198,454,299
India,Delhi,Delhi,"Lodhi Road, Delhi - IITM",29-01-2024 08:00:00,28.588333,77.221667,PM10,84,384,155
India,Delhi,Delhi,"Lodhi Road, Delhi - IITM",29-01-2024 08:00:00,28.588333,77.221667,NO2,78,108,89
India,Delhi,Delhi,"Lodhi Road, Delhi - IITM",29-01-2024 08:00:00,28.588333,77.221667,NH3,10,15,11
India,Delhi,Delhi,"Lodhi Road, Delhi - IMD",29-01-2024 08:00:00,28.5918245,77.2273074,NO2,7,12,8
India,Delhi,Delhi,"Major Dhyan Chand National Stadium, Delhi - DPCC",29-01-2024 08:00:00,28.611281,77.237738,NH3,12,20,16
India,Delhi,Delhi,"Major Dhyan Chand National Stadium, Delhi - DPCC",29-01-2024 08:00:00,28.611281,77.237738,SO2,1,12,6
India,Delhi,Delhi,"Mandir Marg, Delhi - DPCC",29-01-2024 08:00:00,28.636429,77.201067,PM2.5,312,478,383
India,Delhi,Delhi,"Mandir Marg, Delhi - DPCC",29-01-2024 08:00:00,28.636429,77.201067,CO,16,115,31
India,Delhi,Delhi,"Mundka, Delhi - DPCC",29-01-2024 08:00:00,28.684678,77.076574,PM10,228,500,377
India,Delhi,Delhi,"Mundka, Delhi - DPCC",29-01-2024 08:00:00,28.684678,77.076574,SO2,2,28,11
India,Delhi,Delhi,"NSIT Dwarka, Delhi - CPCB",29-01-2024 08:00:00,28.60909,77.0325413,PM10,173,412,306
India,Delhi,Delhi,"Najafgarh, Delhi - DPCC",29-01-2024 08:00:00,28.570173,76.933762,PM10,155,402,228
India,Delhi,Delhi,"Najafgarh, Delhi - DPCC",29-01-2024 08:00:00,28.570173,76.933762,NO2,9,63,23
India,Delhi,Delhi,"Najafgarh, Delhi - DPCC",29-01-2024 08:00:00,28.570173,76.933762,NH3,3,32,6
India,Delhi,Delhi,"Narela, Delhi - DPCC",29-01-2024 08:00:00,28.822836,77.101981,PM10,231,463,327
India,Delhi,Delhi,"Nehru Nagar, Delhi - DPCC",29-01-2024 08:00:00,28.567890,77.250515,OZONE,1,50,5
India,Delhi,Delhi,"Okhla Phase-2, Delhi - DPCC",29-01-2024 08:00:00,28.530785,77.271255,PM2.5,323,496,397
India,Delhi,Delhi,"Okhla Phase-2, Delhi - DPCC",29-01-2024 08:00:00,28.530785,77.271255,NH3,19,25,22
India,Delhi,Delhi,"Patparganj, Delhi - DPCC",29-01-2024 08:00:00,28.623763,77.287209,SO2,6,11,10
India,Delhi,Delhi,"Punjabi Bagh, Delhi - DPCC",29-01-2024 08:00:00,28.674045,77.131023,PM2.5,342,488,415
India,Delhi,Delhi,"Punjabi Bagh, Delhi - DPCC",29-01-2024 08:00:00,28.674045,77.131023,CO,53,63,59
India,Delhi,Delhi,"Pusa, Delhi - DPCC",29-01-2024 08:00:00,28.639652,77.146275,PM2.5,309,466,380
India,Delhi,Delhi,"Pusa, Delhi - DPCC",29-01-2024 08:00:00,28.639652,77.146275,NO2,103,426,205
India,Delhi,Delhi,"Pusa, Delhi - DPCC",29-01-2024 08:00:00,28.639652,77.146275,OZONE,16,57,17
India,Delhi,Delhi,"Pusa, Delhi - IMD",29-01-2024 08:00:00,28.636110,77.173332,PM2.5,208,421,320
India,Delhi,Delhi,"Pusa, Delhi - IMD",29-01-2024 08:00:00,28.636110,77.173332,OZONE,12,20,12
India,Delhi,Delhi,"R K Puram, Delhi - DPCC",29-01-2024 08:00:00,28.563262,77.186937,NO2,27,161,65
India,Delhi,Delhi,"R K Puram, Delhi - DPCC",29-01-2024 08:00:00,28.563262,77.186937,NH3,6,11,9
India,Delhi,Delhi,"Rohini, Delhi - DPCC",29-01-2024 08:00:00,28.732528,77.119920,PM2.5,345,500,433
India,Delhi,Delhi,"Rohini, Delhi - DPCC",29-01-2024 08:00:00,28.732528,77.119920,PM10,226,500,385
India,Delhi,Delhi,"Rohini, Delhi - DPCC",29-01-2024 08:00:00,28.732528,77.119920,NH3,10,22,16
India,Delhi,Delhi,"Shadipur, Delhi - CPCB",29-01-2024 08:00:00,28.6514781,77.1473105,SO2,8,21,13
India,Delhi,Delhi,"Sirifort, Delhi - CPCB",29-01-2024 08:00:00,28.5504249,77.2159377,NO2,84,173,146
India,Delhi,Delhi,"Sonia Vihar, Delhi - DPCC",29-01-2024 08:00:00,28.710508,77.249485,PM10,246,500,392
India,Delhi,Delhi,"Sonia Vihar, Delhi - DPCC",29-01-2024 08:00:00,28.710508,77.249485,NO2,51,180,84
India,Delhi,Delhi,"Sonia Vihar, Delhi - DPCC",29-01-2024 08:00:00,28.710508,77.249485,NH3,7,12,9
India,Delhi,Delhi,"Sri Aurobindo Marg, Delhi - DPCC",29-01-2024 08:00:00,28.531346,77.190156,PM10,188,446,304
India,Delhi,Delhi,"Vivek Vihar, Delhi - DPCC",29-01-2024 08:00:00,28.672342,77.315260,PM10,190,490,328
India,Delhi,Delhi,"Wazirpur, Delhi - DPCC",29-01-2024 08:00:00,28.699793,77.165453,PM2.5,334,500,429
India,Gujarat,Ahmedabad,"Chandkheda, Ahmedabad - IITM",29-01-2024 08:00:00,23.107969,72.574648,PM2.5,59,364,152
India,Gujarat,Ahmedabad,"Chandkheda, Ahmedabad - IITM",29-01-2024 08:00:00,23.107969,72.574648,NH3,4,6,5
India,Gujarat,Ahmedabad,"Gyaspur, Ahmedabad - IITM",29-01-2024 08:00:00,22.977134,72.553024,PM10,68,183,113
India,Gujarat,Ahmedabad,"Gyaspur, Ahmedabad - IITM",29-01-2024 08:00:00,22.977134,72.553024,NO2,15,21,19
India,Gujarat,Ahmedabad,"Gyaspur, Ahmedabad - IITM",29-01-2024 08:00:00,22.977134,72.553024,SO2,12,25,19
India,Gujarat,Ahmedabad,"Raikhad, Ahmedabad - IITM",29-01-2024 08:00:00,23.020509,72.579261,OZONE,13,18,18
India,Gujarat,Ahmedabad,"SVPI Airport Hansol, Ahmedabad - IITM",29-01-2024 08:00:00,23.076793,72.627874,NH3,3,3,3
India,Gujarat,Ahmedabad,"SVPI Airport Hansol, Ahmedabad - IITM",29-01-2024 08:00:00,23.076793,72.627874,SO2,22,33,25
India,Gujarat,Ahmedabad,"SVPI Airport Hansol, Ahmedabad - IITM",29-01-2024 08:00:00,23.076793,72.627874,CO,18,136,81
India,Gujarat,Ahmedabad,"Sardar Vallabhbhai Patel Stadium, Ahmedabad - IITM",29-01-2024 08:00:00,23.043070,72.562968,PM10,101,164,126
India,Gujarat,Ankleshwar,"GIDC, Ankleshwar - GPCB",29-01-2024 08:00:00,21.613267,73.010555,PM2.5,78,306,156
India,Gujarat,Ankleshwar,"GIDC, Ankleshwar - GPCB",29-01-2024 08:00:00,21.613267,73.010555,CO,22,119,100
India,Gujarat,Gandhinagar,"IIPHG Lekawada, Gandhinagar - IITM",29-01-2024 08:00:00,23.243639,72.68994,NH3,3,3,3
India,Gujarat,Gandhinagar,"Sector-10, Gandhinagar - GPCB",29-01-2024 08:00:00,23.221714,72.654328,SO2,13,18,15
India,Gujarat,Gandhinagar,"Sector-10, Gandhinagar - GPCB",29-01-2024 08:00:00,23.221714,72.654328,OZONE,NA,NA,NA
India,Gujarat,Surat,"Science Center, Surat - SMC",29-01-2024 08:00:00,21.170046,72.795405,SO2,17,27,22
India,Gujarat,Surat,"Science Center, Surat - SMC",29-01-2024 08:00:00,21.170046,72.795405,CO,56,118,108
India,Gujarat,Vatva,"Phase-4 GIDC, Vatva - GPCB",29-01-2024 08:00:00,22.969611,72.643500,NH3,1,2,2
India,Gujarat,Vatva,"Phase-4 GIDC, Vatva - GPCB",29-01-2024 08:00:00,22.969611,72.643500,CO,38,40,39
India,Haryana,Ambala,"Patti Mehar, Ambala - HSPCB",29-01-2024 08:00:00,30.379589,76.778328,SO2,NA,NA,NA
India,Haryana,Ambala,"Patti Mehar, Ambala - HSPCB",29-01-2024 08:00:00,30.379589,76.778328,CO,37,60,50
India,Haryana,Ambala,"Patti Mehar, Ambala - HSPCB",29-01-2024 08:00:00,30.379589,76.778328,OZONE,27,43,37
India,Haryana,Bahadurgarh,"Arya Nagar, Bahadurgarh - HSPCB",29-01-2024 08:00:00,28.6701,76.9254,NH3,10,12,11
India,Haryana,Bahadurgarh,"Arya Nagar, Bahadurgarh - HSPCB",29-01-2024 08:00:00,28.6701,76.9254,SO2,9,21,12
India,Haryana,Bhiwani,"H.B. Colony, Bhiwani - HSPCB",29-01-2024 08:00:00,28.806223,76.141105,NH3,7,9,8
India,Haryana,Bhiwani,"H.B. Colony, Bhiwani - HSPCB",29-01-2024 08:00:00,28.806223,76.141105,CO,46,92,82
India,Haryana,Charkhi Dadri,"Mini Secretariat, Charkhi Dadri - HSPCB",29-01-2024 08:00:00,28.593883,76.270653,SO2,7,14,10
India,Haryana,Charkhi Dadri,"Mini Secretariat, Charkhi Dadri - HSPCB",29-01-2024 08:00:00,28.593883,76.270653,CO,14,102,48
India,Haryana,Dharuhera,"Municipal Corporation Office, Dharuhera -  HSPCB",29-01-2024 08:00:00,28.206800,76.799700,NH3,9,27,19
India,Haryana,Faridabad,"Sector 11, Faridabad - HSPCB",29-01-2024 08:00:00,28.376058,77.315741,PM10,80,411,167
India,Haryana,Faridabad,"Sector 30, Faridabad - HSPCB",29-01-2024 08:00:00,28.4417,77.3217,PM10,137,168,149
India,Haryana,Fatehabad,"Huda Sector, Fatehabad - HSPCB",29-01-2024 08:00:00,29.503664,75.467934,PM10,118,177,149
India,Haryana,Fatehabad,"Huda Sector, Fatehabad - HSPCB",29-01-2024 08:00:00,29.503664,75.467934,CO,5,16,7
India,Haryana,Fatehabad,"Huda Sector, Fatehabad - HSPCB",29-01-2024 08:00:00,29.503664,75.467934,OZONE,20,29,23
India,Haryana,Gurugram,"NISE Gwal Pahari, Gurugram - IMD",29-01-2024 08:00:00,28.422681,77.148944,NO2,10,41,19
India,Haryana,Gurugram,"Teri Gram, Gurugram - HSPCB",29-01-2024 08:00:00,28.4275,77.1465,SO2,3,4,3
India,Haryana,Hisar,"Urban Estate-II, Hisar - HSPCB",29-01-2024 08:00:00,29.140560,75.744941,NO2,8,10,9
India,Haryana,Kaithal,"Rishi Nagar, Kaithal - HSPCB",29-01-2024 08:00:00,29.8006,76.4155,PM10,117,196,146
India,Haryana,Karnal,"Sector-12, Karnal - HSPCB",29-01-2024 08:00:00,29.695300,77.002700,PM2.5,98,98,98
India,Haryana,Kurukshetra,"Sector-7, Kurukshetra - HSPCB",29-01-2024 08:00:00,29.966942,76.875879,NO2,10,10,10
India,Haryana,Mandikhera,"General Hospital, Mandikhera - HSPCB",29-01-2024 08:00:00,27.9002,76.9938,OZONE,23,32,28
India,Haryana,Manesar,"Sector-2 IMT, Manesar - HSPCB",29-01-2024 08:00:00,28.360699,76.936090,PM10,142,345,213
India,Haryana,Narnaul,"Shastri Nagar, Narnaul - HSPCB",29-01-2024 08:00:00,28.060249,76.113115,PM10,70,154,116
India,Haryana,Narnaul,"Shastri Nagar, Narnaul - HSPCB",29-01-2024 08:00:00,28.060249,76.113115,NO2,17,46,33
India,Haryana,Narnaul,"Shastri Nagar, Narnaul - HSPCB",29-01-2024 08:00:00,28.060249,76.113115,SO2,13,55,24
India,Haryana,Palwal,"Shyam Nagar, Palwal - HSPCB",29-01-2024 08:00:00,28.1485564,77.3320667,PM2.5,67,87,77
India,Haryana,Palwal,"Shyam Nagar, Palwal - HSPCB",29-01-2024 08:00:00,28.1485564,77.3320667,PM10,104,157,129
India,Haryana,Palwal,"Shyam Nagar, Palwal - HSPCB",29-01-2024 08:00:00,28.1485564,77.3320667,CO,13,26,18
India,Haryana,Panchkula,"Sector-6, Panchkula - HSPCB ",29-01-2024 08:00:00,30.7057778,76.8531805555555,NO2,28,30,29
India,Haryana,Rohtak,"MD University, Rohtak - HSPCB",29-01-2024 08:00:00,28.52123,76.37138,SO2,1,32,10
India,Haryana,Sirsa,"F-Block, Sirsa - HSPCB",29-01-2024 08:00:00,29.536400,75.015800,PM2.5,66,161,108
India,Haryana,Sirsa,"F-Block, Sirsa - HSPCB",29-01-2024 08:00:00,29.536400,75.015800,CO,54,82,75
India,Haryana,Sonipat,"Murthal, Sonipat - HSPCB",29-01-2024 08:00:00,29.027200,77.062100,CO,14,133,33
India,Haryana,Yamuna Nagar,"Gobind Pura, Yamuna Nagar - HSPCB",29-01-2024 08:00:00,30.1480566,77.2893471,NO2,11,29,18
India,Himachal Pradesh,Baddi,"HIMUDA Complex Phase-1, Baddi - HPPCB",29-01-2024 08:00:00,30.943887,76.801991,NH3,5,9,6
India,Himachal Pradesh,Baddi,"HIMUDA Complex Phase-1, Baddi - HPPCB",29-01-2024 08:00:00,30.943887,76.801991,SO2,31,110,61
India,Karnataka,Belgaum,"Ramteerth Nagar, Belgaum - KSPCB",29-01-2024 08:00:00,15.888653,74.541751,NH3,33,34,33
India,Karnataka,Bengaluru,"BTM Layout, Bengaluru - CPCB",29-01-2024 08:00:00,12.9135218,77.5950804,NO2,41,42,41
India,Karnataka,Bengaluru,"Hombegowda Nagar, Bengaluru - KSPCB",29-01-2024 08:00:00,12.938539,77.590100,PM10,41,86,61
India,Karnataka,Bengaluru,"Jigani, Bengaluru - KSPCB",29-01-2024 08:00:00,12.7816279,77.6299145,PM2.5,5,92,43
India,Karnataka,Bengaluru,"Jigani, Bengaluru - KSPCB",29-01-2024 08:00:00,12.7816279,77.6299145,NH3,4,4,4
India,Karnataka,Bengaluru,"Jigani, Bengaluru - KSPCB",29-01-2024 08:00:00,12.7816279,77.6299145,OZONE,15,63,45
India,Karnataka,Bengaluru,"Peenya, Bengaluru - CPCB",29-01-2024 08:00:00,13.0270199,77.494094,NO2,15,31,24
India,Karnataka,Bengaluru,"Peenya, Bengaluru - CPCB",29-01-2024 08:00:00,13.0270199,77.494094,OZONE,41,43,41
India,Karnataka,Bengaluru,"Silk Board, Bengaluru - KSPCB",29-01-2024 08:00:00,12.917348,77.622813,PM10,51,104,65
India,Karnataka,Bidar,"Naubad, Bidar - KSPCB",29-01-2024 08:00:00,17.930306,77.482194,PM2.5,NA,NA,NA
India,Karnataka,Chikkaballapur,"Chikkaballapur Rural, Chikkaballapur - KSPCB",29-01-2024 08:00:00,13.428828,77.731418,PM2.5,40,80,57
India,Karnataka,Chikkaballapur,"Chikkaballapur Rural, Chikkaballapur - KSPCB",29-01-2024 08:00:00,13.428828,77.731418,NH3,1,1,1
India,Karnataka,Chikkaballapur,"Chikkaballapur Rural, Chikkaballapur - KSPCB",29-01-2024 08:00:00,13.428828,77.731418,SO2,11,21,17
India,Karnataka,Chikkamagaluru,"Kalyana Nagara, Chikkamagaluru - KSPCB",29-01-2024 08:00:00,13.328028,75.797056,PM2.5,32,61,44
India,Karnataka,Chikkamagaluru,"Kalyana Nagara, Chikkamagaluru - KSPCB",29-01-2024 08:00:00,13.328028,75.797056,NH3,3,4,3
India,Karnataka,Davanagere,"Devaraj Urs Badavane, Davanagere - KSPCB",29-01-2024 08:00:00,14.475800,75.905200,CO,15,21,18
India,Karnataka,Davanagere,"Devaraj Urs Badavane, Davanagere - KSPCB",29-01-2024 08:00:00,14.475800,75.905200,OZONE,18,24,20
India,Karnataka,Dharwad,"Kalabhavan, Dharwad - KSPCB",29-01-2024 08:00:00,15.459706,75.008381,PM2.5,41,76,54
India,Karnataka,Dharwad,"Kalabhavan, Dharwad - KSPCB",29-01-2024 08:00:00,15.459706,75.008381,NO2,1,37,19
India,Karnataka,Haveri,"Ashwini Nagar, Haveri - KSPCB",29-01-2024 08:00:00,14.791800,75.389600,PM10,48,122,87
India,Karnataka,Haveri,"Ashwini Nagar, Haveri - KSPCB",29-01-2024 08:00:00,14.791800,75.389600,SO2,13,14,14
India,Karnataka,Hubballi,"Lingaraj Nagar, Hubballi - KSPCB",29-01-2024 08:00:00,15.3714823,75.1160168,SO2,3,11,6
India,Karnataka,Hubballi,"Lingaraj Nagar, Hubballi - KSPCB",29-01-2024 08:00:00,15.3714823,75.1160168,OZONE,8,41,30
India,Karnataka,Kalaburagi,"Lal Bahadur Shastri Nagar, Kalaburagi - KSPCB",29-01-2024 08:00:00,17.321993,76.822628,PM10,13,79,31
India,Karnataka,Kalaburagi,"Lal Bahadur Shastri Nagar, Kalaburagi - KSPCB",29-01-2024 08:00:00,17.321993,76.822628,OZONE,13,94,33
India,Karnataka,Kolar,"Tamaka Ind. Area, Kolar - KSPCB",29-01-2024 08:00:00,13.1276288,78.1570122,CO,10,14,12
India,Karnataka,Kolar,"Tamaka Ind. Area, Kolar - KSPCB",29-01-2024 08:00:00,13.1276288,78.1570122,OZONE,13,14,13
India,Karnataka,Koppal,"Diwator Nagar, Koppal - KSPCB",29-01-2024 08:00:00,15.347630,76.181767,NO2,2,59,14
India,Karnataka,Koppal,"Diwator Nagar, Koppal - KSPCB",29-01-2024 08:00:00,15.347630,76.181767,SO2,72,82,75
India,Karnataka,Koppal,"Diwator Nagar, Koppal - KSPCB",29-01-2024 08:00:00,15.347630,76.181767,OZONE,23,67,35
India,Karnataka,Mangalore,"Kadri, Mangalore - KSPCB",29-01-2024 08:00:00,12.889250,74.853000,NO2,9,11,10
India,Karnataka,Mangalore,"Kadri, Mangalore - KSPCB",29-01-2024 08:00:00,12.889250,74.853000,CO,37,49,44
India,Karnataka,Mysuru,"Hebbal 1st Stage, Mysuru - KSPCB",29-01-2024 08:00:00,12.21041,76.37376,PM2.5,23,45,38
India,Karnataka,Mysuru,"Hebbal 1st Stage, Mysuru - KSPCB",29-01-2024 08:00:00,12.21041,76.37376,PM10,35,60,53
India,Karnataka,Mysuru,"Hebbal 1st Stage, Mysuru - KSPCB",29-01-2024 08:00:00,12.21041,76.37376,CO,2,32,22
India,Karnataka,Shivamogga,"Vinoba Nagara, Shivamogga - KSPCB",29-01-2024 08:00:00,13.940000,75.555917,OZONE,7,53,11
India,Karnataka,Tumakuru,"Thimmalapura, Tumakuru - KSPCB",29-01-2024 08:00:00,13.377516,77.099072,NO2,NA,NA,NA
India,Karnataka,Udupi,"Brahmagiri, Udupi - KSPCB",29-01-2024 08:00:00,13.34194444,74.74694444,PM10,NA,NA,NA
India,Karnataka,Udupi,"Brahmagiri, Udupi - KSPCB",29-01-2024 08:00:00,13.34194444,74.74694444,OZONE,NA,NA,NA
India,Karnataka,Vijayapura,"Ibrahimpur, Vijayapura - KSPCB",29-01-2024 08:00:00,16.802639,75.722694,PM10,38,39,39
India,Karnataka,Vijayapura,"Ibrahimpur, Vijayapura - KSPCB",29-01-2024 08:00:00,16.802639,75.722694,OZONE,13,16,15
India,Karnataka,Yadgir,"Collector Office, Yadgir - KSPCB",29-01-2024 08:00:00,16.7602,77.1428,NH3,1,1,1
India,Karnataka,Yadgir,"Collector Office, Yadgir - KSPCB",29-01-2024 08:00:00,16.7602,77.1428,OZONE,18,19,18
India,Kerala,Eloor,"Udyogamandal, Eloor - Kerala PCB",29-01-2024 08:00:00,10.073232,76.302765,SO2,1,3,2
India,Kerala,Eloor,"Udyogamandal, Eloor - Kerala PCB",29-01-2024 08:00:00,10.073232,76.302765,CO,9,84,24
India,Kerala,Kannur,"Thavakkara, Kannur - Kerala PCB",29-01-2024 08:00:00,11.875000,75.373200,OZONE,31,36,31
India,Kerala,Kollam,"Polayathode, Kollam - Kerala PCB",29-01-2024 08:00:00,8.8787,76.6073,OZONE,30,38,30
India,Kerala,Thiruvananthapuram,"Kariavattom, Thiruvananthapuram - Kerala PCB",29-01-2024 08:00:00,8.563700,76.886500,CO,6,44,19
India,Kerala,Thiruvananthapuram,"Kariavattom, Thiruvananthapuram - Kerala PCB",29-01-2024 08:00:00,8.563700,76.886500,OZONE,27,30,28
India,Kerala,Thiruvananthapuram,"Plammoodu, Thiruvananthapuram - Kerala PCB",29-01-2024 08:00:00,8.5149093,76.9435879,PM2.5,7,91,38
India,Kerala,Thiruvananthapuram,"Plammoodu, Thiruvananthapuram - Kerala PCB",29-01-2024 08:00:00,8.5149093,76.9435879,CO,16,34,27
India,Kerala,Thiruvananthapuram,"Plammoodu, Thiruvananthapuram - Kerala PCB",29-01-2024 08:00:00,8.5149093,76.9435879,OZONE,12,58,20
India,Kerala,Thrissur,"Corporation Ground, Thrissur - Kerala PCB",29-01-2024 08:00:00,10.532400,76.215900,NH3,1,1,1
India,Madhya Pradesh,Bhopal,"Idgah Hills, Bhopal - MPPCB",29-01-2024 08:00:00,23.264759,77.381568,NO2,NA,NA,NA
India,Madhya Pradesh,Bhopal,"Idgah Hills, Bhopal - MPPCB",29-01-2024 08:00:00,23.264759,77.381568,SO2,NA,NA,NA
India,Madhya Pradesh,Bhopal,"Paryavaran Parisar, Bhopal - MPPCB",29-01-2024 08:00:00,23.210494,77.425409,PM2.5,73,422,237
India,Madhya Pradesh,Bhopal,"T T Nagar, Bhopal - MPPCB",29-01-2024 08:00:00,23.233584,77.400574,PM2.5,77,342,159
India,Madhya Pradesh,Bhopal,"T T Nagar, Bhopal - MPPCB",29-01-2024 08:00:00,23.233584,77.400574,NH3,4,10,8
India,Madhya Pradesh,Bhopal,"T T Nagar, Bhopal - MPPCB",29-01-2024 08:00:00,23.233584,77.400574,SO2,27,68,47
