country,state,city,station,last_update,latitude,longitude,pollutant_id,pollutant_min,pollutant_max,pollutant_avg
India,Andhra_Pradesh,Chittoor,"Gangineni Cheruvu, Chittoor - APPCB",21-05-2024 02:00:00,13.204880,79.097889,PM2.5,NA,NA,NA
India,Andhra_Pradesh,Chittoor,"Gangineni Cheruvu, Chittoor - APPCB",21-05-2024 02:00:00,13.204880,79.097889,NO2,NA,NA,NA
India,Andhra_Pradesh,Chittoor,"Gangineni Cheruvu, Chittoor - APPCB",21-05-2024 02:00:00,13.204880,79.097889,NH3,NA,NA,NA
India,Andhra_Pradesh,Chittoor,"Gangineni Cheruvu, Chittoor - APPCB",21-05-2024 02:00:00,13.204880,79.097889,CO,NA,NA,NA
India,Andhra_Pradesh,Kadapa,"Yerramukkapalli, Kadapa - APPCB",21-05-2024 02:00:00,14.465052,78.824187,PM10,NA,NA,NA
India,Andhra_Pradesh,Kadapa,"Yerramukkapalli, Kadapa - APPCB",21-05-2024 02:00:00,14.465052,78.824187,NH3,NA,NA,NA
India,Andhra_Pradesh,Kadapa,"Yerramukkapalli, Kadapa - APPCB",21-05-2024 02:00:00,14.465052,78.824187,SO2,NA,NA,NA
India,Andhra_Pradesh,Kadapa,"Yerramukkapalli, Kadapa - APPCB",21-05-2024 02:00:00,14.465052,78.824187,CO,12,16,13
India,Andhra_Pradesh,Rajamahendravaram,"Anand Kala Kshetram, Rajamahendravaram - APPCB",21-05-2024 02:00:00,16.9872867,81.7363176,CO,5,69,33
India,Andhra_Pradesh,Tirupati,"Tirumala, Tirupati - APPCB",21-05-2024 02:00:00,13.67,79.35,PM2.5,6,64,28
India,Andhra_Pradesh,Tirupati,"Tirumala, Tirupati - APPCB",21-05-2024 02:00:00,13.67,79.35,SO2,1,13,5
India,Andhra_Pradesh,Tirupati,"Vaikuntapuram, Tirupati - APPCB",21-05-2024 02:00:00,13.615387,79.409230,PM2.5,NA,NA,NA
India,Andhra_Pradesh,Tirupati,"Vaikuntapuram, Tirupati - APPCB",21-05-2024 02:00:00,13.615387,79.409230,SO2,NA,NA,NA
India,Andhra_Pradesh,Vijayawada,"Kanuru, Vijayawada - APPCB",21-05-2024 02:00:00,16.486692,80.699436,PM10,48,60,53
India,Andhra_Pradesh,Vijayawada,"Rajiv Gandhi Park, Vijayawada - APPCB",21-05-2024 02:00:00,16.509717,80.612222,PM10,34,77,49
India,Andhra_Pradesh,Vijayawada,"Rajiv Gandhi Park, Vijayawada - APPCB",21-05-2024 02:00:00,16.509717,80.612222,SO2,5,7,6
India,Andhra_Pradesh,Vijayawada,"Rajiv Nagar, Vijayawada - APPCB",21-05-2024 02:00:00,16.554731,80.649110,PM2.5,42,125,48
India,Andhra_Pradesh,Vijayawada,"Rajiv Nagar, Vijayawada - APPCB",21-05-2024 02:00:00,16.554731,80.649110,NH3,2,3,2
India,Andhra_Pradesh,Visakhapatnam,"GVM Corporation, Visakhapatnam - APPCB",21-05-2024 02:00:00,17.72,83.3,CO,1,34,22
India,Arunachal_Pradesh,Naharlagun,"Naharlagun, Naharlagun - APSPCB",21-05-2024 02:00:00,27.103358,93.679645,PM10,NA,NA,NA
India,Assam,Byrnihat,"Central Academy for SFS, Byrnihat - PCBA",21-05-2024 02:00:00,26.071318,91.87488,PM2.5,45,317,127
India,Assam,Byrnihat,"Central Academy for SFS, Byrnihat - PCBA",21-05-2024 02:00:00,26.071318,91.87488,SO2,3,41,22
India,Assam,Byrnihat,"Central Academy for SFS, Byrnihat - PCBA",21-05-2024 02:00:00,26.071318,91.87488,CO,14,29,20
India,Assam,Guwahati,"IITG, Guwahati - PCBA",21-05-2024 02:00:00,26.2028636,91.70046436,SO2,13,13,13
India,Assam,Guwahati,"IITG, Guwahati - PCBA",21-05-2024 02:00:00,26.2028636,91.70046436,CO,8,14,12
India,Assam,Guwahati,"LGBI Airport, Guwahati - PCBA",21-05-2024 02:00:00,26.10887,91.589544,SO2,6,13,11
India,Assam,Guwahati,"LGBI Airport, Guwahati - PCBA",21-05-2024 02:00:00,26.10887,91.589544,OZONE,1,49,31
India,Assam,Nagaon,"Christianpatty, Nagaon - PCBA",21-05-2024 02:00:00,26.349082,92.68449,SO2,2,54,29
India,Assam,Nagaon,"Christianpatty, Nagaon - PCBA",21-05-2024 02:00:00,26.349082,92.68449,OZONE,7,98,46
India,Assam,Nalbari,"Bata Chowk, Nalbari - PCBA",21-05-2024 02:00:00,26.446912,91.439057,PM2.5,NA,NA,NA
India,Assam,Nalbari,"Bata Chowk, Nalbari - PCBA",21-05-2024 02:00:00,26.446912,91.439057,PM10,NA,NA,NA
India,Assam,Silchar,"Tarapur, Silchar - PCBA",21-05-2024 02:00:00,24.82827,92.79525,PM2.5,26,47,36
India,Assam,Sivasagar,"Girls College, Sivasagar - PCBA",21-05-2024 02:00:00,26.987634,94.636574,PM10,43,84,64
India,Assam,Sivasagar,"Girls College, Sivasagar - PCBA",21-05-2024 02:00:00,26.987634,94.636574,SO2,6,11,9
India,Assam,Sivasagar,"Girls College, Sivasagar - PCBA",21-05-2024 02:00:00,26.987634,94.636574,CO,6,26,8
India,Bihar,Bhagalpur,"DM Office_Kachari Chowk, Bhagalpur - BSPCB",21-05-2024 02:00:00,25.251013,86.989001,PM2.5,27,93,47
India,Bihar,Bhagalpur,"DM Office_Kachari Chowk, Bhagalpur - BSPCB",21-05-2024 02:00:00,25.251013,86.989001,SO2,35,58,50
India,Bihar,Bhagalpur,"Mayaganj, Bhagalpur - BSPCB",21-05-2024 02:00:00,25.265194,87.012947,PM2.5,33,237,86
India,Bihar,Bhagalpur,"Mayaganj, Bhagalpur - BSPCB",21-05-2024 02:00:00,25.265194,87.012947,OZONE,14,51,20
India,Bihar,Bihar Sharif,"D M Colony, Bihar Sharif - BSPCB",21-05-2024 02:00:00,25.204762,85.514960,NH3,2,2,2
India,Bihar,Buxar,"Charitra Van, Buxar - BSPCB (Formerly known as Central Jail)",21-05-2024 02:00:00,25.567520,83.966379,PM2.5,NA,NA,NA
India,Bihar,Buxar,"Charitra Van, Buxar - BSPCB (Formerly known as Central Jail)",21-05-2024 02:00:00,25.567520,83.966379,NH3,3,3,3
India,Bihar,Buxar,"Charitra Van, Buxar - BSPCB (Formerly known as Central Jail)",21-05-2024 02:00:00,25.567520,83.966379,OZONE,5,226,126
India,Bihar,Gaya,"Collectorate, Gaya - BSPCB",21-05-2024 02:00:00,24.7955,84.9994,PM2.5,NA,NA,NA
India,Bihar,Gaya,"Kareemganj, Gaya - BSPCB",21-05-2024 02:00:00,24.792403,84.992416,PM10,7,86,40
India,Bihar,Gaya,"SFTI Kusdihra, Gaya - BSPCB",21-05-2024 02:00:00,24.762518,84.982348,NH3,3,6,4
India,Bihar,Hajipur,"Industrial Area, Hajipur - BSPCB",21-05-2024 02:00:00,25.697189,85.245900,PM10,54,410,121
India,Bihar,Hajipur,"Industrial Area, Hajipur - BSPCB",21-05-2024 02:00:00,25.697189,85.245900,NO2,24,42,32
India,Bihar,Hajipur,"Industrial Area, Hajipur - BSPCB",21-05-2024 02:00:00,25.697189,85.245900,NH3,16,23,19
India,Bihar,Hajipur,"Industrial Area, Hajipur - BSPCB",21-05-2024 02:00:00,25.697189,85.245900,OZONE,3,17,12
India,Bihar,Katihar,"Mirchaibari, Katihar - BSPCB",21-05-2024 02:00:00,25.560083,87.553265,PM2.5,10,42,20
India,Bihar,Katihar,"Mirchaibari, Katihar - BSPCB",21-05-2024 02:00:00,25.560083,87.553265,PM10,16,97,43
India,Bihar,Katihar,"Mirchaibari, Katihar - BSPCB",21-05-2024 02:00:00,25.560083,87.553265,NO2,NA,NA,NA
India,Bihar,Katihar,"Mirchaibari, Katihar - BSPCB",21-05-2024 02:00:00,25.560083,87.553265,OZONE,4,16,6
India,Bihar,Kishanganj,"SDM Office_Khagra, Kishanganj - BSPCB",21-05-2024 02:00:00,26.0881305,87.93840336,PM2.5,NA,NA,NA
India,Bihar,Kishanganj,"SDM Office_Khagra, Kishanganj - BSPCB",21-05-2024 02:00:00,26.0881305,87.93840336,NO2,NA,NA,NA
India,Bihar,Manguraha,"Forest Rest House, Manguraha - BSPCB",21-05-2024 02:00:00,27.308328,84.531742,PM10,NA,NA,NA
India,Bihar,Manguraha,"Forest Rest House, Manguraha - BSPCB",21-05-2024 02:00:00,27.308328,84.531742,SO2,NA,NA,NA
India,Bihar,Motihari,"Gandak Colony, Motihari - BSPCB",21-05-2024 02:00:00,26.63086,84.90051,PM2.5,27,68,43
India,Bihar,Motihari,"Gandak Colony, Motihari - BSPCB",21-05-2024 02:00:00,26.63086,84.90051,CO,3,64,32
India,Bihar,Munger,"Town Hall, Munger - BSPCB",21-05-2024 02:00:00,25.376776,86.471523,PM10,NA,NA,NA
India,Bihar,Munger,"Town Hall, Munger - BSPCB",21-05-2024 02:00:00,25.376776,86.471523,NH3,NA,NA,NA
India,Bihar,Munger,"Town Hall, Munger - BSPCB",21-05-2024 02:00:00,25.376776,86.471523,OZONE,24,41,28
India,Bihar,Muzaffarpur,"Buddha Colony, Muzaffarpur - BSPCB",21-05-2024 02:00:00,26.11442,85.39813,NO2,13,26,17
India,Bihar,Muzaffarpur,"Buddha Colony, Muzaffarpur - BSPCB",21-05-2024 02:00:00,26.11442,85.39813,NH3,8,12,10
India,Bihar,Muzaffarpur,"Buddha Colony, Muzaffarpur - BSPCB",21-05-2024 02:00:00,26.11442,85.39813,OZONE,29,69,35
India,Bihar,Muzaffarpur,"MIT-Daudpur Kothi, Muzaffarpur - BSPCB",21-05-2024 02:00:00,26.1403345,85.3650192,PM2.5,40,110,69
India,Bihar,Muzaffarpur,"Muzaffarpur Collectorate, Muzaffarpur - BSPCB",21-05-2024 02:00:00,26.1209,85.3647,OZONE,51,106,56
India,Bihar,Patna,"DRM Office Danapur, Patna - BSPCB",21-05-2024 02:00:00,25.586562,85.043586,NO2,10,19,13
India,Bihar,Patna,"DRM Office Danapur, Patna - BSPCB",21-05-2024 02:00:00,25.586562,85.043586,SO2,5,12,8
India,Bihar,Patna,"DRM Office Danapur, Patna - BSPCB",21-05-2024 02:00:00,25.586562,85.043586,OZONE,16,68,42
India,Bihar,Patna,"Govt. High School Shikarpur, Patna - BSPCB",21-05-2024 02:00:00,25.592539,85.227158,OZONE,1,59,8
India,Bihar,Patna,"Muradpur, Patna - BSPCB",21-05-2024 02:00:00,25.619651,85.147382,PM10,153,467,236
India,Bihar,Patna,"Muradpur, Patna - BSPCB",21-05-2024 02:00:00,25.619651,85.147382,NO2,12,57,29
India,Bihar,Patna,"Muradpur, Patna - BSPCB",21-05-2024 02:00:00,25.619651,85.147382,SO2,5,10,7
India,Bihar,Patna,"Rajbansi Nagar, Patna - BSPCB",21-05-2024 02:00:00,25.599486,85.113666,PM2.5,85,223,147
India,Bihar,Patna,"Rajbansi Nagar, Patna - BSPCB",21-05-2024 02:00:00,25.599486,85.113666,NO2,5,21,12
India,Bihar,Patna,"Samanpura, Patna - BSPCB",21-05-2024 02:00:00,25.596727,85.085624,PM10,106,456,186
India,Bihar,Patna,"Samanpura, Patna - BSPCB",21-05-2024 02:00:00,25.596727,85.085624,NH3,6,15,10
India,Bihar,Patna,"Samanpura, Patna - BSPCB",21-05-2024 02:00:00,25.596727,85.085624,SO2,2,4,3
India,Bihar,Purnia,"Mariam Nagar, Purnia - BSPCB",21-05-2024 02:00:00,25.366336,87.117468,PM10,24,108,56
India,Bihar,Rajgir,"Dangi Tola, Rajgir - BSPCB",21-05-2024 02:00:00,25.03280,85.41948,PM2.5,12,45,28
India,Bihar,Samastipur,"DM Office_Kasipur, Samastipur - BSPCB",21-05-2024 02:00:00,25.859655,85.77944,NH3,NA,NA,NA
India,Bihar,Sasaram,"Dada Peer, Sasaram - BSPCB",21-05-2024 02:00:00,24.952822,84.002396,PM10,2,41,19
India,Bihar,Sasaram,"Dada Peer, Sasaram - BSPCB",21-05-2024 02:00:00,24.952822,84.002396,OZONE,37,93,60
India,Bihar,Siwan,"Chitragupta Nagar, Siwan - BSPCB",21-05-2024 02:00:00,26.2271665,84.3570427,PM10,NA,NA,NA
India,Bihar,Siwan,"Chitragupta Nagar, Siwan - BSPCB",21-05-2024 02:00:00,26.2271665,84.3570427,OZONE,20,80,35
India,Chhattisgarh,Bhilai,"32Bungalows, Bhilai - CECB",21-05-2024 02:00:00,21.194815,81.314770,PM2.5,2,60,31
India,Chhattisgarh,Bhilai,"32Bungalows, Bhilai - CECB",21-05-2024 02:00:00,21.194815,81.314770,PM10,25,97,49
India,Chhattisgarh,Bhilai,"32Bungalows, Bhilai - CECB",21-05-2024 02:00:00,21.194815,81.314770,NO2,10,23,17
India,Chhattisgarh,Bhilai,"32Bungalows, Bhilai - CECB",21-05-2024 02:00:00,21.194815,81.314770,NH3,6,6,6
India,Chhattisgarh,Bhilai,"Civic Center, Bhilai - Bhilai Steel Plant",21-05-2024 02:00:00,21.185571,81.343175,PM2.5,16,42,26
India,Chhattisgarh,Bhilai,"Civic Center, Bhilai - Bhilai Steel Plant",21-05-2024 02:00:00,21.185571,81.343175,SO2,8,12,10
India,Chhattisgarh,Bhilai,"Civic Center, Bhilai - Bhilai Steel Plant",21-05-2024 02:00:00,21.185571,81.343175,OZONE,14,54,30
India,Chhattisgarh,Bilaspur,"Mangala, Bilaspur - NTPC",21-05-2024 02:00:00,22.08815,82.13737,PM2.5,20,70,37
India,Chhattisgarh,Korba,"Urja Nagar, Korba - CECB",21-05-2024 02:00:00,22.348441,82.549611,NH3,1,8,5
India,Chhattisgarh,Kunjemura,"OP Jindal School, Kunjemura - CECB",21-05-2024 02:00:00,22.126650,83.483212,NO2,17,111,45
India,Chhattisgarh,Raipur,"AIIMS, Raipur - CECB",21-05-2024 02:00:00,21.258815,81.578979,CO,NA,NA,NA
India,Chhattisgarh,Raipur,"Bhatagaon New ISBT, Raipur - CECB",21-05-2024 02:00:00,21.219665,81.630094,CO,14,60,37
India,Chhattisgarh,Raipur,"Siltara Phase-II, Raipur - CECB",21-05-2024 02:00:00,21.371751,81.664929,PM2.5,47,158,93
India,Chhattisgarh,Tumidih,"OP Jindal Industrial Park, Tumidih - CECB",21-05-2024 02:00:00,22.06631475,83.33820077,PM2.5,NA,NA,NA
India,Delhi,Delhi,"Alipur, Delhi - DPCC",21-05-2024 02:00:00,28.815329,77.153010,NH3,6,10,7
India,Delhi,Delhi,"Alipur, Delhi - DPCC",21-05-2024 02:00:00,28.815329,77.153010,SO2,11,39,23
India,Delhi,Delhi,"Alipur, Delhi - DPCC",21-05-2024 02:00:00,28.815329,77.153010,CO,38,72,59
India,Delhi,Delhi,"Anand Vihar, Delhi - DPCC",21-05-2024 02:00:00,28.647622,77.3158090,NO2,56,123,91
India,Delhi,Delhi,"Anand Vihar, Delhi - DPCC",21-05-2024 02:00:00,28.647622,77.3158090,NH3,4,13,8
India,Delhi,Delhi,"Anand Vihar, Delhi - DPCC",21-05-2024 02:00:00,28.647622,77.3158090,CO,112,131,120
India,Delhi,Delhi,"Ashok Vihar, Delhi - DPCC",21-05-2024 02:00:00,28.695381,77.181665,PM10,142,432,246
India,Delhi,Delhi,"Ashok Vihar, Delhi - DPCC",21-05-2024 02:00:00,28.695381,77.181665,NH3,7,20,15
India,Delhi,Delhi,"Ashok Vihar, Delhi - DPCC",21-05-2024 02:00:00,28.695381,77.181665,CO,6,104,72
India,Delhi,Delhi,"Aya Nagar, Delhi - IMD",21-05-2024 02:00:00,28.4706914,77.1099364,OZONE,8,62,31
India,Delhi,Delhi,"Bawana, Delhi - DPCC",21-05-2024 02:00:00,28.776200,77.051074,NH3,4,8,6
India,Delhi,Delhi,"Bawana, Delhi - DPCC",21-05-2024 02:00:00,28.776200,77.051074,CO,34,84,58
India,Delhi,Delhi,"Bawana, Delhi - DPCC",21-05-2024 02:00:00,28.776200,77.051074,OZONE,13,144,71
India,Delhi,Delhi,"CRRI Mathura Road, Delhi - IMD",21-05-2024 02:00:00,28.5512005,77.2735737,PM10,142,407,251
India,Delhi,Delhi,"CRRI Mathura Road, Delhi - IMD",21-05-2024 02:00:00,28.5512005,77.2735737,NO2,8,22,16
India,Delhi,Delhi,"CRRI Mathura Road, Delhi - IMD",21-05-2024 02:00:00,28.5512005,77.2735737,CO,16,104,60
India,Delhi,Delhi,"Chandni Chowk, Delhi - IITM",21-05-2024 02:00:00,28.656756,77.227234,PM10,155,419,235
India,Delhi,Delhi,"Chandni Chowk, Delhi - IITM",21-05-2024 02:00:00,28.656756,77.227234,CO,50,88,61
India,Delhi,Delhi,"DTU, Delhi - CPCB",21-05-2024 02:00:00,28.7500499,77.1112615,NO2,35,43,38
India,Delhi,Delhi,"Dr. Karni Singh Shooting Range, Delhi - DPCC",21-05-2024 02:00:00,28.498571,77.264840,OZONE,2,259,63
India,Delhi,Delhi,"IGI Airport (T3), Delhi - IMD",21-05-2024 02:00:00,28.5627763,77.1180053,PM10,101,401,167
India,Delhi,Delhi,"IGI Airport (T3), Delhi - IMD",21-05-2024 02:00:00,28.5627763,77.1180053,NO2,20,69,41
India,Delhi,Delhi,"IGI Airport (T3), Delhi - IMD",21-05-2024 02:00:00,28.5627763,77.1180053,CO,20,80,55
India,Delhi,Delhi,"IHBAS, Dilshad Garden, Delhi - CPCB",21-05-2024 02:00:00,28.6811736,77.3025234,PM2.5,88,301,163
India,Delhi,Delhi,"IHBAS, Dilshad Garden, Delhi - CPCB",21-05-2024 02:00:00,28.6811736,77.3025234,NO2,7,30,20
India,Delhi,Delhi,"ITO, Delhi - CPCB",21-05-2024 02:00:00,28.628624,77.241060,SO2,1,40,15
India,Delhi,Delhi,"Jahangirpuri, Delhi - DPCC",21-05-2024 02:00:00,28.732820,77.170633,PM2.5,52,401,225
India,Delhi,Delhi,"Jahangirpuri, Delhi - DPCC",21-05-2024 02:00:00,28.732820,77.170633,OZONE,5,108,36
India,Delhi,Delhi,"Jawaharlal Nehru Stadium, Delhi - DPCC",21-05-2024 02:00:00,28.580280,77.233829,CO,34,103,75
India,Delhi,Delhi,"Lodhi Road, Delhi - IITM",21-05-2024 02:00:00,28.588333,77.221667,PM2.5,61,214,119
India,Delhi,Delhi,"Major Dhyan Chand National Stadium, Delhi - DPCC",21-05-2024 02:00:00,28.611281,77.237738,PM10,105,406,185
India,Delhi,Delhi,"Major Dhyan Chand National Stadium, Delhi - DPCC",21-05-2024 02:00:00,28.611281,77.237738,CO,28,159,88
India,Delhi,Delhi,"Mandir Marg, Delhi - DPCC",21-05-2024 02:00:00,28.636429,77.201067,NH3,NA,NA,NA
India,Delhi,Delhi,"Mandir Marg, Delhi - DPCC",21-05-2024 02:00:00,28.636429,77.201067,OZONE,NA,NA,NA
India,Delhi,Delhi,"Mundka, Delhi - DPCC",21-05-2024 02:00:00,28.684678,77.076574,PM2.5,55,358,189
India,Delhi,Delhi,"Mundka, Delhi - DPCC",21-05-2024 02:00:00,28.684678,77.076574,SO2,14,77,33
India,Delhi,Delhi,"Mundka, Delhi - DPCC",21-05-2024 02:00:00,28.684678,77.076574,CO,31,82,61
India,Delhi,Delhi,"Mundka, Delhi - DPCC",21-05-2024 02:00:00,28.684678,77.076574,OZONE,7,133,57
India,Delhi,Delhi,"NSIT Dwarka, Delhi - CPCB",21-05-2024 02:00:00,28.60909,77.0325413,OZONE,13,93,25
India,Delhi,Delhi,"Narela, Delhi - DPCC",21-05-2024 02:00:00,28.822836,77.101981,PM2.5,57,342,221
India,Delhi,Delhi,"Narela, Delhi - DPCC",21-05-2024 02:00:00,28.822836,77.101981,PM10,171,431,293
India,Delhi,Delhi,"Nehru Nagar, Delhi - DPCC",21-05-2024 02:00:00,28.567890,77.250515,PM2.5,48,351,162
India,Delhi,Delhi,"Nehru Nagar, Delhi - DPCC",21-05-2024 02:00:00,28.567890,77.250515,PM10,124,403,200
India,Delhi,Delhi,"North Campus, DU, Delhi - IMD",21-05-2024 02:00:00,28.6573814,77.1585447,PM2.5,53,341,158
India,Delhi,Delhi,"North Campus, DU, Delhi - IMD",21-05-2024 02:00:00,28.6573814,77.1585447,PM10,135,403,202
India,Delhi,Delhi,"North Campus, DU, Delhi - IMD",21-05-2024 02:00:00,28.6573814,77.1585447,OZONE,3,57,19
India,Delhi,Delhi,"Okhla Phase-2, Delhi - DPCC",21-05-2024 02:00:00,28.530785,77.271255,CO,36,121,87
India,Delhi,Delhi,"Punjabi Bagh, Delhi - DPCC",21-05-2024 02:00:00,28.674045,77.131023,NH3,5,6,5
India,Delhi,Delhi,"Punjabi Bagh, Delhi - DPCC",21-05-2024 02:00:00,28.674045,77.131023,CO,33,86,55
India,Delhi,Delhi,"Rohini, Delhi - DPCC",21-05-2024 02:00:00,28.732528,77.119920,SO2,18,82,43
India,Delhi,Delhi,"Sirifort, Delhi - CPCB",21-05-2024 02:00:00,28.5504249,77.2159377,SO2,26,45,34
India,Delhi,Delhi,"Sirifort, Delhi - CPCB",21-05-2024 02:00:00,28.5504249,77.2159377,CO,9,111,78
India,Delhi,Delhi,"Sonia Vihar, Delhi - DPCC",21-05-2024 02:00:00,28.710508,77.249485,PM10,123,398,214
India,Delhi,Delhi,"Sonia Vihar, Delhi - DPCC",21-05-2024 02:00:00,28.710508,77.249485,OZONE,6,139,55
India,Delhi,Delhi,"Wazirpur, Delhi - DPCC",21-05-2024 02:00:00,28.699793,77.165453,PM10,140,415,238
India,Gujarat,Ahmedabad,"Gyaspur, Ahmedabad - IITM",21-05-2024 02:00:00,22.977134,72.553024,PM10,75,156,116
India,Gujarat,Ahmedabad,"Gyaspur, Ahmedabad - IITM",21-05-2024 02:00:00,22.977134,72.553024,NH3,4,8,6
India,Gujarat,Ahmedabad,"Maninagar, Ahmedabad - GPCB",21-05-2024 02:00:00,23.002657,72.591912,PM2.5,19,77,35
India,Gujarat,Ahmedabad,"Maninagar, Ahmedabad - GPCB",21-05-2024 02:00:00,23.002657,72.591912,SO2,11,54,29
India,Gujarat,Ahmedabad,"Raikhad, Ahmedabad - IITM",21-05-2024 02:00:00,23.020509,72.579261,CO,2,38,26
India,Gujarat,Ahmedabad,"Rakhial, Ahmedabad - IITM",21-05-2024 02:00:00,23.016834,72.625775,NO2,NA,NA,NA
India,Gujarat,Ahmedabad,"SVPI Airport Hansol, Ahmedabad - IITM",21-05-2024 02:00:00,23.076793,72.627874,NO2,31,43,37
India,Gujarat,Ahmedabad,"SVPI Airport Hansol, Ahmedabad - IITM",21-05-2024 02:00:00,23.076793,72.627874,NH3,5,6,5
India,Gujarat,Ahmedabad,"Sardar Vallabhbhai Patel Stadium, Ahmedabad - IITM",21-05-2024 02:00:00,23.043070,72.562968,PM10,46,118,81
India,Gujarat,Ahmedabad,"Sardar Vallabhbhai Patel Stadium, Ahmedabad - IITM",21-05-2024 02:00:00,23.043070,72.562968,NO2,27,174,39
India,Gujarat,Ahmedabad,"Sardar Vallabhbhai Patel Stadium, Ahmedabad - IITM",21-05-2024 02:00:00,23.043070,72.562968,SO2,11,27,18
India,Gujarat,Ankleshwar,"GIDC, Ankleshwar - GPCB",21-05-2024 02:00:00,21.613267,73.010555,PM10,62,104,80
India,Gujarat,Gandhinagar,"Sector-10, Gandhinagar - GPCB",21-05-2024 02:00:00,23.221714,72.654328,CO,21,36,32
India,Gujarat,Surat,"Science Center, Surat - SMC",21-05-2024 02:00:00,21.170046,72.795405,SO2,12,14,13
India,Gujarat,Vapi,"Phase-1 GIDC, Vapi - GPCB",21-05-2024 02:00:00,20.362421,72.918013,NH3,2,2,2
India,Gujarat,Vatva,"Phase-4 GIDC, Vatva - GPCB",21-05-2024 02:00:00,22.969611,72.643500,NO2,18,50,31
India,Gujarat,Vatva,"Phase-4 GIDC, Vatva - GPCB",21-05-2024 02:00:00,22.969611,72.643500,NH3,3,12,9
India,Haryana,Bahadurgarh,"Arya Nagar, Bahadurgarh - HSPCB",21-05-2024 02:00:00,28.6701,76.9254,CO,82,102,92
India,Haryana,Bahadurgarh,"Arya Nagar, Bahadurgarh - HSPCB",21-05-2024 02:00:00,28.6701,76.9254,OZONE,29,41,34
India,Haryana,Ballabgarh,"Nathu Colony, Ballabgarh - HSPCB",21-05-2024 02:00:00,28.3419248,77.319699,PM10,138,357,207
India,Haryana,Bhiwani,"H.B. Colony, Bhiwani - HSPCB",21-05-2024 02:00:00,28.806223,76.141105,PM10,69,179,122
India,Haryana,Charkhi Dadri,"Mini Secretariat, Charkhi Dadri - HSPCB",21-05-2024 02:00:00,28.593883,76.270653,SO2,6,25,16
India,Haryana,Dharuhera,"Municipal Corporation Office, Dharuhera -  HSPCB",21-05-2024 02:00:00,28.206800,76.799700,PM2.5,NA,NA,NA
India,Haryana,Dharuhera,"Municipal Corporation Office, Dharuhera -  HSPCB",21-05-2024 02:00:00,28.206800,76.799700,PM10,NA,NA,NA
India,Haryana,Faridabad,"New Industrial Town, Faridabad - HSPCB",21-05-2024 02:00:00,28.39072,77.30059,CO,6,112,54
India,Haryana,Faridabad,"New Industrial Town, Faridabad - HSPCB",21-05-2024 02:00:00,28.39072,77.30059,OZONE,2,119,21
India,Haryana,Faridabad,"Sector 30, Faridabad - HSPCB",21-05-2024 02:00:00,28.4417,77.3217,NO2,NA,NA,NA
India,Haryana,Faridabad,"Sector- 16A, Faridabad - HSPCB",21-05-2024 02:00:00,28.4088421,77.3099081,NO2,4,27,13
India,Haryana,Gurugram,"NISE Gwal Pahari, Gurugram - IMD",21-05-2024 02:00:00,28.422681,77.148944,PM2.5,NA,NA,NA
India,Haryana,Gurugram,"NISE Gwal Pahari, Gurugram - IMD",21-05-2024 02:00:00,28.422681,77.148944,CO,64,76,69
India,Haryana,Gurugram,"NISE Gwal Pahari, Gurugram - IMD",21-05-2024 02:00:00,28.422681,77.148944,OZONE,41,80,61
India,Haryana,Gurugram,"Sector-51, Gurugram - HSPCB",21-05-2024 02:00:00,28.4227,77.0667,NO2,2,29,17
India,Haryana,Gurugram,"Vikas Sadan, Gurugram - HSPCB",21-05-2024 02:00:00,28.4501238,77.0263051,PM2.5,53,310,190
India,Haryana,Jind,"Police Lines, Jind - HSPCB",21-05-2024 02:00:00,29.307814,76.337619,PM2.5,22,115,72
India,Haryana,Jind,"Police Lines, Jind - HSPCB",21-05-2024 02:00:00,29.307814,76.337619,NH3,NA,NA,NA
India,Haryana,Kaithal,"Rishi Nagar, Kaithal - HSPCB",21-05-2024 02:00:00,29.8006,76.4155,PM2.5,45,175,107
India,Haryana,Kaithal,"Rishi Nagar, Kaithal - HSPCB",21-05-2024 02:00:00,29.8006,76.4155,CO,2,53,24
India,Haryana,Karnal,"Sector-12, Karnal - HSPCB",21-05-2024 02:00:00,29.695300,77.002700,PM2.5,46,103,68
India,Haryana,Karnal,"Sector-12, Karnal - HSPCB",21-05-2024 02:00:00,29.695300,77.002700,PM10,86,139,112
India,Haryana,Kurukshetra,"Sector-7, Kurukshetra - HSPCB",21-05-2024 02:00:00,29.966942,76.875879,PM2.5,81,209,123
India,Haryana,Kurukshetra,"Sector-7, Kurukshetra - HSPCB",21-05-2024 02:00:00,29.966942,76.875879,PM10,114,182,138
India,Haryana,Kurukshetra,"Sector-7, Kurukshetra - HSPCB",21-05-2024 02:00:00,29.966942,76.875879,NH3,6,6,6
India,Haryana,Mandikhera,"General Hospital, Mandikhera - HSPCB",21-05-2024 02:00:00,27.9002,76.9938,PM10,82,143,103
India,Haryana,Manesar,"Sector-2 IMT, Manesar - HSPCB",21-05-2024 02:00:00,28.360699,76.936090,CO,6,61,32
India,Haryana,Narnaul,"Shastri Nagar, Narnaul - HSPCB",21-05-2024 02:00:00,28.060249,76.113115,PM2.5,96,417,163
India,Haryana,Narnaul,"Shastri Nagar, Narnaul - HSPCB",21-05-2024 02:00:00,28.060249,76.113115,NH3,5,27,15
India,Haryana,Palwal,"Shyam Nagar, Palwal - HSPCB",21-05-2024 02:00:00,28.1485564,77.3320667,NH3,8,9,9
India,Haryana,Panchkula,"Sector-6, Panchkula - HSPCB ",21-05-2024 02:00:00,30.7057778,76.8531805555555,CO,2,14,11
India,Haryana,Panipat,"Sector-18, Panipat - HSPCB",21-05-2024 02:00:00,29.432304,76.972765,PM2.5,84,107,95
India,Haryana,Panipat,"Sector-18, Panipat - HSPCB",21-05-2024 02:00:00,29.432304,76.972765,PM10,90,97,94
India,Haryana,Panipat,"Sector-18, Panipat - HSPCB",21-05-2024 02:00:00,29.432304,76.972765,NH3,2,3,3
India,Haryana,Panipat,"Sector-18, Panipat - HSPCB",21-05-2024 02:00:00,29.432304,76.972765,CO,24,26,25
India,Haryana,Sirsa,"F-Block, Sirsa - HSPCB",21-05-2024 02:00:00,29.536400,75.015800,NH3,NA,NA,NA
India,Haryana,Sonipat,"Murthal, Sonipat - HSPCB",21-05-2024 02:00:00,29.027200,77.062100,PM2.5,NA,NA,NA
India,Himachal Pradesh,Baddi,"HIMUDA Complex Phase-1, Baddi - HPPCB",21-05-2024 02:00:00,30.943887,76.801991,PM10,60,422,161
India,Himachal Pradesh,Baddi,"HIMUDA Complex Phase-1, Baddi - HPPCB",21-05-2024 02:00:00,30.943887,76.801991,NH3,4,6,6
India,Jammu_and_Kashmir,Srinagar,"Rajbagh, Srinagar - JKSPCB",21-05-2024 02:00:00,34.066206,74.819820,PM10,NA,NA,NA
India,Jharkhand,Dhanbad,"Kalakusuma, Dhanbad - DMC",21-05-2024 02:00:00,23.811548,86.481238,PM10,NA,NA,NA
India,Jharkhand,Dhanbad,"Kalakusuma, Dhanbad - DMC",21-05-2024 02:00:00,23.811548,86.481238,SO2,NA,NA,NA
India,Jharkhand,Dhanbad,"Sardar Patel Nagar, Dhanbad - JSPCB",21-05-2024 02:00:00,23.80569,86.44268,CO,NA,NA,NA
India,Jharkhand,Jorapokhar,"Tata Stadium, Jorapokhar - JSPCB",21-05-2024 02:00:00,23.707909,86.414670,PM10,NA,NA,NA
India,Jharkhand,Jorapokhar,"Tata Stadium, Jorapokhar - JSPCB",21-05-2024 02:00:00,23.707909,86.414670,NH3,NA,NA,NA
India,Jharkhand,Jorapokhar,"Tata Stadium, Jorapokhar - JSPCB",21-05-2024 02:00:00,23.707909,86.414670,SO2,NA,NA,NA
India,Karnataka,Bagalkot,"Vidayagiri, Bagalkot - KSPCB",21-05-2024 02:00:00,16.172806,75.659694,CO,14,50,32
India,Karnataka,Bengaluru,"Bapuji Nagar, Bengaluru - KSPCB",21-05-2024 02:00:00,12.951913,77.539784,OZONE,24,34,25
India,Karnataka,Bengaluru,"Hebbal, Bengaluru - KSPCB",21-05-2024 02:00:00,13.029152,77.585901,NO2,4,5,5
India,Karnataka,Bengaluru,"Hombegowda Nagar, Bengaluru - KSPCB",21-05-2024 02:00:00,12.938539,77.590100,SO2,2,4,3
India,Karnataka,Bengaluru,"Hombegowda Nagar, Bengaluru - KSPCB",21-05-2024 02:00:00,12.938539,77.590100,OZONE,1,30,19
India,Karnataka,Bengaluru,"Jayanagar 5th Block, Bengaluru - KSPCB",21-05-2024 02:00:00,12.920984,77.584908,SO2,5,12,9
India,Karnataka,Bengaluru,"Kasturi Nagar, Bengaluru - KSPCB",21-05-2024 02:00:00,13.003872,77.664217,PM2.5,23,23,23
India,Karnataka,Bengaluru,"Kasturi Nagar, Bengaluru - KSPCB",21-05-2024 02:00:00,13.003872,77.664217,NO2,16,17,17
India,Karnataka,Bengaluru,"Kasturi Nagar, Bengaluru - KSPCB",21-05-2024 02:00:00,13.003872,77.664217,NH3,3,4,4
India,Karnataka,Bengaluru,"RVCE-Mailasandra, Bengaluru - KSPCB",21-05-2024 02:00:00,12.921418,77.502466,CO,30,46,37
India,Karnataka,Bengaluru,"RVCE-Mailasandra, Bengaluru - KSPCB",21-05-2024 02:00:00,12.921418,77.502466,OZONE,39,39,39
India,Karnataka,Bengaluru,"Silk Board, Bengaluru - KSPCB",21-05-2024 02:00:00,12.917348,77.622813,SO2,5,9,7
India,Karnataka,Bidar,"Naubad, Bidar - KSPCB",21-05-2024 02:00:00,17.930306,77.482194,SO2,17,20,18
India,Karnataka,Bidar,"Naubad, Bidar - KSPCB",21-05-2024 02:00:00,17.930306,77.482194,CO,74,94,86
India,Karnataka,Chamarajanagar,"Urban, Chamarajanagar - KSPCB",21-05-2024 02:00:00,11.55358,76.55521,PM10,35,52,44
India,Karnataka,Chamarajanagar,"Urban, Chamarajanagar - KSPCB",21-05-2024 02:00:00,11.55358,76.55521,NO2,22,36,27
India,Karnataka,Chikkamagaluru,"Kalyana Nagara, Chikkamagaluru - KSPCB",21-05-2024 02:00:00,13.328028,75.797056,PM2.5,9,58,25
India,Karnataka,Chikkamagaluru,"Kalyana Nagara, Chikkamagaluru - KSPCB",21-05-2024 02:00:00,13.328028,75.797056,NO2,13,39,24
India,Karnataka,Chikkamagaluru,"Kalyana Nagara, Chikkamagaluru - KSPCB",21-05-2024 02:00:00,13.328028,75.797056,NH3,2,5,3
India,Karnataka,Davanagere,"Devaraj Urs Badavane, Davanagere - KSPCB",21-05-2024 02:00:00,14.475800,75.905200,PM10,10,46,28
India,Karnataka,Davanagere,"Devaraj Urs Badavane, Davanagere - KSPCB",21-05-2024 02:00:00,14.475800,75.905200,NO2,5,16,12
India,Karnataka,Davanagere,"Devaraj Urs Badavane, Davanagere - KSPCB",21-05-2024 02:00:00,14.475800,75.905200,CO,14,26,24
India,Karnataka,Dharwad,"Kalabhavan, Dharwad - KSPCB",21-05-2024 02:00:00,15.459706,75.008381,NO2,6,16,11
India,Karnataka,Gadag,"Panchal Nagar, Gadag - KSPCB",21-05-2024 02:00:00,15.411456,75.638133,NO2,8,30,16
India,Karnataka,Hassan,"B.Katihalli, Hassan - KSPCB",21-05-2024 02:00:00,13.008556,76.125258,NO2,9,13,12
India,Karnataka,Hassan,"B.Katihalli, Hassan - KSPCB",21-05-2024 02:00:00,13.008556,76.125258,CO,2,4,3
India,Karnataka,Haveri,"Ashwini Nagar, Haveri - KSPCB",21-05-2024 02:00:00,14.791800,75.389600,PM2.5,17,38,25
India,Karnataka,Haveri,"Ashwini Nagar, Haveri - KSPCB",21-05-2024 02:00:00,14.791800,75.389600,PM10,NA,NA,NA
India,Karnataka,Haveri,"Ashwini Nagar, Haveri - KSPCB",21-05-2024 02:00:00,14.791800,75.389600,NH3,3,4,3
India,Karnataka,Haveri,"Ashwini Nagar, Haveri - KSPCB",21-05-2024 02:00:00,14.791800,75.389600,CO,38,39,38
India,Karnataka,Hubballi,"Deshpande Nagar, Hubballi - KSPCB",21-05-2024 02:00:00,15.351773,75.140726,NH3,4,5,5
India,Karnataka,Kalaburagi,"Lal Bahadur Shastri Nagar, Kalaburagi - KSPCB",21-05-2024 02:00:00,17.321993,76.822628,OZONE,3,81,52
India,Karnataka,Kalaburagi,"Mahatma Basaveswar Colony, Kalaburgi - KSPCB",21-05-2024 02:00:00,17.336318,76.847397,PM2.5,14,29,23
India,Karnataka,Karwar,"KHB Colony, Karwar - KSPCB",21-05-2024 02:00:00,14.816666,74.141003,NO2,NA,NA,NA
India,Karnataka,Kolar,"Tamaka Ind. Area, Kolar - KSPCB",21-05-2024 02:00:00,13.1276288,78.1570122,SO2,NA,NA,NA
India,Karnataka,Koppal,"Diwator Nagar, Koppal - KSPCB",21-05-2024 02:00:00,15.347630,76.181767,PM2.5,1,37,16
India,Karnataka,Madikeri,"Stuart Hill, Madikeri - KSPCB",21-05-2024 02:00:00,12.415911,75.735050,PM10,2,23,13
India,Karnataka,Madikeri,"Stuart Hill, Madikeri - KSPCB",21-05-2024 02:00:00,12.415911,75.735050,NH3,NA,NA,NA
India,Karnataka,Madikeri,"Stuart Hill, Madikeri - KSPCB",21-05-2024 02:00:00,12.415911,75.735050,CO,4,86,55
India,Karnataka,Mangalore,"Kadri, Mangalore - KSPCB",21-05-2024 02:00:00,12.889250,74.853000,PM10,42,54,47
India,Karnataka,Mangalore,"Kadri, Mangalore - KSPCB",21-05-2024 02:00:00,12.889250,74.853000,NH3,2,2,2
India,Karnataka,Mangalore,"Kadri, Mangalore - KSPCB",21-05-2024 02:00:00,12.889250,74.853000,SO2,8,10,9
India,Karnataka,Mysuru,"Hebbal 1st Stage, Mysuru - KSPCB",21-05-2024 02:00:00,12.21041,76.37376,PM2.5,7,43,20
India,Karnataka,Mysuru,"Hebbal 1st Stage, Mysuru - KSPCB",21-05-2024 02:00:00,12.21041,76.37376,NO2,11,35,21
India,Karnataka,Ramanagara,"Vijay Nagar, Ramanagara - KSPCB",21-05-2024 02:00:00,12.733409,77.298051,PM10,9,32,24
India,Karnataka,Ramanagara,"Vijay Nagar, Ramanagara - KSPCB",21-05-2024 02:00:00,12.733409,77.298051,CO,4,28,12
India,Karnataka,Tumakuru,"Thimmalapura, Tumakuru - KSPCB",21-05-2024 02:00:00,13.377516,77.099072,PM2.5,NA,NA,NA
India,Karnataka,Udupi,"Brahmagiri, Udupi - KSPCB",21-05-2024 02:00:00,13.34194444,74.74694444,PM10,NA,NA,NA
India,Karnataka,Vijayapura,"Ibrahimpur, Vijayapura - KSPCB",21-05-2024 02:00:00,16.802639,75.722694,PM10,41,44,42
India,Karnataka,Vijayapura,"Ibrahimpur, Vijayapura - KSPCB",21-05-2024 02:00:00,16.802639,75.722694,NH3,2,2,2
India,Karnataka,Vijayapura,"Ibrahimpur, Vijayapura - KSPCB",21-05-2024 02:00:00,16.802639,75.722694,OZONE,14,16,15
India,Karnataka,Yadgir,"Collector Office, Yadgir - KSPCB",21-05-2024 02:00:00,16.7602,77.1428,PM2.5,9,40,22
India,Karnataka,Yadgir,"Collector Office, Yadgir - KSPCB",21-05-2024 02:00:00,16.7602,77.1428,PM10,19,45,33
India,Kerala,Kannur,"Thavakkara, Kannur - Kerala PCB",21-05-2024 02:00:00,11.875000,75.373200,OZONE,NA,NA,NA
India,Kerala,Kollam,"Polayathode, Kollam - Kerala PCB",21-05-2024 02:00:00,8.8787,76.6073,NO2,NA,NA,NA
India,Kerala,Thiruvananthapuram,"Plammoodu, Thiruvananthapuram - Kerala PCB",21-05-2024 02:00:00,8.5149093,76.9435879,PM2.5,3,33,13
India,Kerala,Thiruvananthapuram,"Plammoodu, Thiruvananthapuram - Kerala PCB",21-05-2024 02:00:00,8.5149093,76.9435879,OZONE,3,56,15
India,Madhya Pradesh,Bhopal,"Paryavaran Parisar, Bhopal - MPPCB",21-05-2024 02:00:00,23.210494,77.425409,NH3,4,8,4
India,Madhya Pradesh,Bhopal,"T T Nagar, Bhopal - MPPCB",21-05-2024 02:00:00,23.233584,77.400574,NO2,26,67,40
India,Madhya Pradesh,Dewas,"Bhopal Chauraha, Dewas - MPPCB",21-05-2024 02:00:00,22.9682591,76.064118,PM2.5,35,111,58
India,Madhya Pradesh,Gwalior,"City Center, Gwalior - MPPCB",21-05-2024 02:00:00,26.203442,78.193251,NO2,6,67,21
India,Madhya Pradesh,Gwalior,"City Center, Gwalior - MPPCB",21-05-2024 02:00:00,26.203442,78.193251,NH3,2,6,4
India,Madhya Pradesh,Gwalior,"City Center, Gwalior - MPPCB",21-05-2024 02:00:00,26.203442,78.193251,SO2,2,79,32
India,Madhya Pradesh,Gwalior,"Maharaj Bada, Gwalior - MPPCB",21-05-2024 02:00:00,26.200388,78.147714,PM2.5,10,95,32
India,Madhya Pradesh,Gwalior,"Maharaj Bada, Gwalior - MPPCB",21-05-2024 02:00:00,26.200388,78.147714,CO,18,103,62
India,Madhya Pradesh,Gwalior,"Maharaj Bada, Gwalior - MPPCB",21-05-2024 02:00:00,26.200388,78.147714,OZONE,45,178,88
India,Madhya Pradesh,Gwalior,"Phool Bagh, Gwalior - Mondelez Ind. Food",21-05-2024 02:00:00,26.210536,78.171,PM2.5,75,295,162
India,Madhya Pradesh,Gwalior,"Phool Bagh, Gwalior - Mondelez Ind. Food",21-05-2024 02:00:00,26.210536,78.171,CO,76,102,93
India,Madhya Pradesh,Indore,"Chhoti Gwaltoli, Indore - MPPCB",21-05-2024 02:00:00,22.4310,75.5213,NH3,4,5,5
India,Madhya Pradesh,Indore,"Maguda Nagar, Indore - IMC",21-05-2024 02:00:00,22.7524,75.8872,PM10,38,109,59
India,Madhya Pradesh,Indore,"Maguda Nagar, Indore - IMC",21-05-2024 02:00:00,22.7524,75.8872,SO2,37,40,39
India,Madhya Pradesh,Indore,"Maguda Nagar, Indore - IMC",21-05-2024 02:00:00,22.7524,75.8872,CO,24,40,34
India,Madhya Pradesh,Indore,"Residency Area, Indore - IMC",21-05-2024 02:00:00,22.7084,75.8815,PM2.5,41,89,56
India,Madhya Pradesh,Indore,"Residency Area, Indore - IMC",21-05-2024 02:00:00,22.7084,75.8815,PM10,46,103,65
India,Madhya Pradesh,Indore,"Residency Area, Indore - IMC",21-05-2024 02:00:00,22.7084,75.8815,NO2,36,60,43
India,Madhya Pradesh,Indore,"Residency Area, Indore - IMC",21-05-2024 02:00:00,22.7084,75.8815,SO2,26,33,30
India,Madhya Pradesh,Indore,"Residency Area, Indore - IMC",21-05-2024 02:00:00,22.7084,75.8815,CO,13,16,15
India,Madhya Pradesh,Jabalpur,"Govindh Bhavan Colony, Jabalpur - JMC",21-05-2024 02:00:00,23.163174,79.973061,OZONE,87,199,136
India,Madhya Pradesh,Jabalpur,"Gupteshwar, Jabalpur - JMC",21-05-2024 02:00:00,23.142888,79.916147,PM10,42,96,55
India,Madhya Pradesh,Jabalpur,"Gupteshwar, Jabalpur - JMC",21-05-2024 02:00:00,23.142888,79.916147,OZONE,68,170,100
India,Madhya Pradesh,Jabalpur,"Marhatal, Jabalpur - MPPCB",21-05-2024 02:00:00,23.168606,79.932247,PM10,45,118,81
India,Madhya Pradesh,Katni,"Gole Bazar, Katni - MPPCB",21-05-2024 02:00:00,23.50016,80.23284,NH3,2,6,5
India,Madhya Pradesh,Maihar,"Sahilara, Maihar - KJS Cements",21-05-2024 02:00:00,24.2613009,80.7231783,SO2,12,13,13
India,Madhya Pradesh,Sagar,"Civil Lines, Sagar - MPPCB",21-05-2024 02:00:00,23.838586,78.759431,PM10,21,63,45
India,Madhya Pradesh,Sagar,"Civil Lines, Sagar - MPPCB",21-05-2024 02:00:00,23.838586,78.759431,NO2,6,20,13
India,Madhya Pradesh,Ujjain,"Mahakaleshwar Temple, Ujjain - MPPCB",21-05-2024 02:00:00,23.182719 ,75.768218 ,PM10,104,135,117
India,Madhya Pradesh,Ujjain,"Mahakaleshwar Temple, Ujjain - MPPCB",21-05-2024 02:00:00,23.182719 ,75.768218 ,NH3,6,8,7
India,Maharashtra,Ahmednagar,"Tarakpur, Ahmednagar - MPCB",21-05-2024 02:00:00,19.10122,74.73339,SO2,4,21,9
India,Maharashtra,Akola,"Ramdaspeth, Akola - MPCB",21-05-2024 02:00:00,20.719516,77.000253,OZONE,17,95,45
India,Maharashtra,Amravati,"Shivneri Colony, Amravati - MPCB",21-05-2024 02:00:00,20.9402359,77.7895248,NH3,2,5,3
India,Maharashtra,Amravati,"Shri Shivaji Science College, Amaravati - MPCB",21-05-2024 02:00:00,20.939198,77.765701,PM2.5,30,58,47
India,Maharashtra,Amravati,"Shri Shivaji Science College, Amaravati - MPCB",21-05-2024 02:00:00,20.939198,77.765701,NO2,8,81,21
India,Maharashtra,Aurangabad,"More Chowk Waluj, Aurangabad - MPCB",21-05-2024 02:00:00,19.8389439,75.244448,CO,17,90,56
India,Maharashtra,Aurangabad,"Rachnakar Colony, Aurangabad - MPCB",21-05-2024 02:00:00,19.863756,75.321188,NH3,1,2,1
India,Maharashtra,Badlapur,"Katrap, Badlapur - MPCB",21-05-2024 02:00:00,19.16485,73.23409,NO2,3,16,6
India,Maharashtra,Badlapur,"Katrap, Badlapur - MPCB",21-05-2024 02:00:00,19.16485,73.23409,NH3,3,8,5
India,Maharashtra,Belapur,"CBD Belapur, Belapur - MPCB",21-05-2024 02:00:00,19.0243902,73.0406721,NO2,23,51,33
India,Maharashtra,Bhiwandi,"Gokul Nagar, Bhiwandi - MPCB",21-05-2024 02:00:00,19.309073,73.057223,PM2.5,51,104,72
India,Maharashtra,Boisar,"Khaira, Boisar - MPCB",21-05-2024 02:00:00,19.786089,72.757971,NH3,NA,NA,NA
India,Maharashtra,Chandrapur,"Chauhan Colony, Chandrapur - MPCB",21-05-2024 02:00:00,19.962900,79.298714,SO2,2,10,6
India,Maharashtra,Chandrapur,"MIDC Khutala, Chandrapur - MPCB",21-05-2024 02:00:00,19.9775302,79.2337086,NO2,8,68,20
India,Maharashtra,Jalgaon,"Prabhat Colony, Jalgaon - MPCB",21-05-2024 02:00:00,21.001264,75.565602,OZONE,24,125,48
India,Maharashtra,Jalna,"Old MIDC, Jalna - MPCB",21-05-2024 02:00:00,19.854616,75.905894,PM2.5,20,68,36
India,Maharashtra,Kalyan,"Khadakpada, Kalyan - MPCB",21-05-2024 02:00:00,19.25292,73.142019,OZONE,6,14,7
India,Maharashtra,Kolhapur,"Sinchan Bhavan, Kolhapur - MPCB",21-05-2024 02:00:00,16.7143745,74.2426398,OZONE,23,125,58
India,Maharashtra,Latur,"Sawe Wadi, Latur - MPCB",21-05-2024 02:00:00,18.39963,76.57452,PM10,15,121,68
India,Maharashtra,Latur,"Sawe Wadi, Latur - MPCB",21-05-2024 02:00:00,18.39963,76.57452,NO2,12,36,14
India,Maharashtra,Latur,"Sawe Wadi, Latur - MPCB",21-05-2024 02:00:00,18.39963,76.57452,NH3,NA,NA,NA
India,Maharashtra,Mahad,"Kamble Tarf Birwadi, Mahad - MPCB",21-05-2024 02:00:00,18.1023399,73.4783687,PM2.5,NA,NA,NA
India,Maharashtra,Mahad,"Kamble Tarf Birwadi, Mahad - MPCB",21-05-2024 02:00:00,18.1023399,73.4783687,NO2,NA,NA,NA
India,Maharashtra,Mahad,"Kamble Tarf Birwadi, Mahad - MPCB",21-05-2024 02:00:00,18.1023399,73.4783687,SO2,NA,NA,NA
India,Maharashtra,Malegaon,"Mahesh Nagar, Malegaon - MPCB",21-05-2024 02:00:00,20.555712,74.529236,PM10,94,252,129
India,Maharashtra,Malegaon,"Mahesh Nagar, Malegaon - MPCB",21-05-2024 02:00:00,20.555712,74.529236,NH3,5,10,7
India,Maharashtra,Malegaon,"Mahesh Nagar, Malegaon - MPCB",21-05-2024 02:00:00,20.555712,74.529236,OZONE,8,138,67
India,Maharashtra,Mira-Bhayandar,"Bhayandar West, Mira-Bhayandar - MPCB",21-05-2024 02:00:00,19.296481,72.840923,NH3,3,4,3
India,Maharashtra,Mumbai,"Bandra Kurla Complex, Mumbai - MPCB",21-05-2024 02:00:00,19.065931,72.862131,OZONE,11,51,25
India,Maharashtra,Mumbai,"Borivali East, Mumbai - MPCB",21-05-2024 02:00:00,19.2243333,72.8658113,PM2.5,3,20,12
India,Maharashtra,Mumbai,"Chembur, Mumbai - MPCB",21-05-2024 02:00:00,19.0364585,72.8954371,PM10,34,66,47
India,Maharashtra,Mumbai,"Chembur, Mumbai - MPCB",21-05-2024 02:00:00,19.0364585,72.8954371,NH3,3,4,4
India,Maharashtra,Mumbai,"Chhatrapati Shivaji Intl. Airport (T2), Mumbai - MPCB",21-05-2024 02:00:00,19.10078,72.87462,SO2,17,21,19
India,Maharashtra,Mumbai,"Chhatrapati Shivaji Intl. Airport (T2), Mumbai - MPCB",21-05-2024 02:00:00,19.10078,72.87462,OZONE,4,5,5
India,Maharashtra,Mumbai,"Colaba, Mumbai - MPCB",21-05-2024 02:00:00,18.910000,72.820000,SO2,10,11,11
India,Maharashtra,Mumbai,"Colaba, Mumbai - MPCB",21-05-2024 02:00:00,18.910000,72.820000,OZONE,10,11,11
India,Maharashtra,Mumbai,"Deonar, Mumbai - IITM",21-05-2024 02:00:00,19.04946,72.9230,NH3,8,14,12
India,Maharashtra,Mumbai,"Kandivali East, Mumbai - MPCB",21-05-2024 02:00:00,19.205800,72.868200,NH3,6,58,13
India,Maharashtra,Mumbai,"Kandivali West, Mumbai - BMC",21-05-2024 02:00:00,19.215859,72.831718,PM2.5,10,25,16
India,Maharashtra,Mumbai,"Kandivali West, Mumbai - BMC",21-05-2024 02:00:00,19.215859,72.831718,PM10,15,28,21
India,Maharashtra,Mumbai,"Kandivali West, Mumbai - BMC",21-05-2024 02:00:00,19.215859,72.831718,SO2,1,1,1
India,Maharashtra,Mumbai,"Kandivali West, Mumbai - BMC",21-05-2024 02:00:00,19.215859,72.831718,OZONE,10,31,17
India,Maharashtra,Mumbai,"Kherwadi_Bandra East, Mumbai - MPCB",21-05-2024 02:00:00,19.0632143,72.8456324,NH3,4,8,6
India,Maharashtra,Mumbai,"Kherwadi_Bandra East, Mumbai - MPCB",21-05-2024 02:00:00,19.0632143,72.8456324,SO2,1,7,4
India,Maharashtra,Mumbai,"Khindipada-Bhandup West, Mumbai - IITM",21-05-2024 02:00:00,19.1653323,72.922099,PM2.5,22,60,41
India,Maharashtra,Mumbai,"Khindipada-Bhandup West, Mumbai - IITM",21-05-2024 02:00:00,19.1653323,72.922099,SO2,2,9,6
India,Maharashtra,Mumbai,"Mindspace-Malad West, Mumbai - MPCB",21-05-2024 02:00:00,19.1878657,72.8304069,PM10,21,64,46
India,Maharashtra,Mumbai,"Mindspace-Malad West, Mumbai - MPCB",21-05-2024 02:00:00,19.1878657,72.8304069,NO2,2,48,10
India,Maharashtra,Mumbai,"Mindspace-Malad West, Mumbai - MPCB",21-05-2024 02:00:00,19.1878657,72.8304069,OZONE,5,12,8
India,Maharashtra,Mumbai,"Mulund West, Mumbai - MPCB",21-05-2024 02:00:00,19.1750,72.9419,SO2,12,13,13
India,Maharashtra,Mumbai,"Powai, Mumbai - MPCB",21-05-2024 02:00:00,19.137500,72.915056,NO2,13,26,20
India,Maharashtra,Mumbai,"Powai, Mumbai - MPCB",21-05-2024 02:00:00,19.137500,72.915056,SO2,35,41,39
India,Maharashtra,Mumbai,"Sewri, Mumbai - BMC",21-05-2024 02:00:00,19.000084,72.856730,PM2.5,NA,NA,NA
India,Maharashtra,Mumbai,"Sewri, Mumbai - BMC",21-05-2024 02:00:00,19.000084,72.856730,SO2,1,3,2
India,Maharashtra,Mumbai,"Siddharth Nagar-Worli, Mumbai - IITM",21-05-2024 02:00:00,19.000083,72.813993,NO2,32,38,35
India,Maharashtra,Mumbai,"Sion, Mumbai - MPCB",21-05-2024 02:00:00,19.047000,72.874600,PM2.5,NA,NA,NA
India,Maharashtra,Mumbai,"Sion, Mumbai - MPCB",21-05-2024 02:00:00,19.047000,72.874600,NH3,NA,NA,NA
India,Maharashtra,Mumbai,"Sion, Mumbai - MPCB",21-05-2024 02:00:00,19.047000,72.874600,SO2,NA,NA,NA
India,Maharashtra,Mumbai,"Sion, Mumbai - MPCB",21-05-2024 02:00:00,19.047000,72.874600,CO,13,13,13
India,Maharashtra,Mumbai,"Vasai West, Mumbai - MPCB",21-05-2024 02:00:00,19.383200,72.820400,PM10,51,122,81
India,Maharashtra,Mumbai,"Worli, Mumbai - MPCB",21-05-2024 02:00:00,18.9936162,72.8128113,NO2,14,15,14
India,Maharashtra,Mumbai,"Worli, Mumbai - MPCB",21-05-2024 02:00:00,18.9936162,72.8128113,SO2,12,12,12
India,Maharashtra,Nagpur,"Ambazari, Nagpur - MPCB",21-05-2024 02:00:00,21.121801,79.04952,NH3,1,10,4
India,Maharashtra,Nagpur,"Mahal, Nagpur - MPCB",21-05-2024 02:00:00,21.14472,79.107595,CO,14,119,65
India,Maharashtra,Nanded,"Sneh Nagar, Nanded - MPCB",21-05-2024 02:00:00,19.173852,77.296291,PM10,54,108,71
India,Maharashtra,Nashik,"Gangapur Road, Nashik - MPCB",21-05-2024 02:00:00,20.0073285,73.7762427,CO,13,50,32
India,Maharashtra,Nashik,"Hirawadi, Nashik - MPCB",21-05-2024 02:00:00,20.021503,73.813844,OZONE,12,85,47
India,Maharashtra,Nashik,"MIDC Ambad, Nashik - MPCB",21-05-2024 02:00:00,19.950220,73.731480,NH3,NA,NA,NA
India,Maharashtra,Nashik,"MIDC Ambad, Nashik - MPCB",21-05-2024 02:00:00,19.950220,73.731480,SO2,NA,NA,NA
India,Maharashtra,Nashik,"Pandav Nagari, Nashik - MPCB",21-05-2024 02:00:00,19.9591346,73.7788008,OZONE,29,97,54
India,Maharashtra,Navi Mumbai,"Kopripada-Vashi, Navi Mumbai - MPCB",21-05-2024 02:00:00,19.090337,73.014232,NO2,11,57,25
India,Maharashtra,Navi Mumbai,"Mahape, Navi Mumbai - MPCB",21-05-2024 02:00:00,19.1135051,73.008978,OZONE,27,55,34
India,Maharashtra,Navi Mumbai,"Nerul, Navi Mumbai - MPCB",21-05-2024 02:00:00,19.008751,73.016620,NH3,2,2,2
India,Maharashtra,Navi Mumbai,"Sanpada, Navi Mumbai - MPCB",21-05-2024 02:00:00,19.0575752,73.0151367,PM10,48,96,65
India,Maharashtra,Navi Mumbai,"Sector-19A Nerul, Navi Mumbai - IITM",21-05-2024 02:00:00,19.044,73.0325,PM2.5,NA,NA,NA
India,Maharashtra,Navi Mumbai,"Sector-19A Nerul, Navi Mumbai - IITM",21-05-2024 02:00:00,19.044,73.0325,NH3,9,17,11
India,Maharashtra,Navi Mumbai,"Sector-2E Kalamboli, Navi Mumbai - MPCB",21-05-2024 02:00:00,19.02579,73.10297,SO2,1,12,3
India,Maharashtra,Navi Mumbai,"Tondare-Taloja, Navi Mumbai - MPCB",21-05-2024 02:00:00,19.0630,73.1209,NO2,24,63,35
India,Maharashtra,Navi Mumbai,"Tondare-Taloja, Navi Mumbai - MPCB",21-05-2024 02:00:00,19.0630,73.1209,SO2,NA,NA,NA
India,Maharashtra,Parbhani,"Masoom Colony, Parbhani - MPCB",21-05-2024 02:00:00,19.265594,76.761463,PM10,61,155,88
India,Maharashtra,Pimpri-Chinchwad,"Gavalinagar, Pimpri Chinchwad - MPCB",21-05-2024 02:00:00,18.63673,73.82487,PM2.5,41,75,61
India,Maharashtra,Pimpri-Chinchwad,"Park Street Wakad, Pimpri Chinchwad - MPCB",21-05-2024 02:00:00,18.59051,73.77946,PM2.5,72,158,103
India,Maharashtra,Pimpri-Chinchwad,"Park Street Wakad, Pimpri Chinchwad - MPCB",21-05-2024 02:00:00,18.59051,73.77946,CO,25,68,26
India,Maharashtra,Pune,"Hadapsar, Pune - IITM",21-05-2024 02:00:00,18.501793,73.927532,PM2.5,NA,NA,NA
India,Maharashtra,Pune,"Mhada Colony, Pune - IITM",21-05-2024 02:00:00,18.573040,73.927715,PM2.5,36,60,47
India,Maharashtra,Pune,"Mhada Colony, Pune - IITM",21-05-2024 02:00:00,18.573040,73.927715,OZONE,8,211,62
India,Maharashtra,Pune,"Revenue Colony-Shivajinagar, Pune - IITM",21-05-2024 02:00:00,18.530085,73.849598,NO2,14,162,84
India,Maharashtra,Pune,"Transport Nagar-Nigdi, Pune - IITM",21-05-2024 02:00:00,18.664282,73.763966,PM10,47,107,81
India,Maharashtra,Sangli,"Vijay Nagar, Sangli - MPCB",21-05-2024 02:00:00, 16.5038,74.3623,PM10,38,58,47
India,Maharashtra,Sangli,"Vijay Nagar, Sangli - MPCB",21-05-2024 02:00:00, 16.5038,74.3623,SO2,4,8,6
India,Maharashtra,Solapur,"Dnyaneshwar Nagar, Solapur - MPCB",21-05-2024 02:00:00,17.6336264,75.9132495,NO2,8,26,14
India,Maharashtra,Solapur,"Dnyaneshwar Nagar, Solapur - MPCB",21-05-2024 02:00:00,17.6336264,75.9132495,OZONE,16,84,69
India,Maharashtra,Solapur,"Ratandeep Housing Society, Solapur - MPCB",21-05-2024 02:00:00,17.65439,75.90649,NO2,14,18,15
India,Maharashtra,Solapur,"Ratandeep Housing Society, Solapur - MPCB",21-05-2024 02:00:00,17.65439,75.90649,NH3,5,7,6
India,Maharashtra,Solapur,"Ratandeep Housing Society, Solapur - MPCB",21-05-2024 02:00:00,17.65439,75.90649,CO,12,42,28
India,Maharashtra,Thane,"Kasarvadavali, Thane - MPCB",21-05-2024 02:00:00,19.26777,72.97182,SO2,1,8,3
India,Maharashtra,Thane,"Pimpleshwar Mandir, Thane - MPCB",21-05-2024 02:00:00,19.192056,72.9585188,NH3,1,4,2
India,Maharashtra,Ulhasnagar,"Sidhi Vinayak Nagar, Ulhasnagar - MPCB",21-05-2024 02:00:00,19.235581,73.159121,NH3,2,3,2
India,Maharashtra,Ulhasnagar,"Sidhi Vinayak Nagar, Ulhasnagar - MPCB",21-05-2024 02:00:00,19.235581,73.159121,CO,18,38,31
India,Maharashtra,Virar,"Bolinj, Virar - MPCB",21-05-2024 02:00:00,19.4458210,72.7988231,PM10,58,94,71
India,Maharashtra,Virar,"Bolinj, Virar - MPCB",21-05-2024 02:00:00,19.4458210,72.7988231,NO2,6,21,14
India,Manipur,Imphal,"DM College of Science, Imphal - Manipur PCB",21-05-2024 02:00:00,24.8207389,93.9423085,PM2.5,16,48,25
India,Manipur,Imphal,"DM College of Science, Imphal - Manipur PCB",21-05-2024 02:00:00,24.8207389,93.9423085,PM10,18,64,33
India,Meghalaya,Shillong,"Lumpyngngad, Shillong - Meghalaya PCB",21-05-2024 02:00:00,25.5586,91.8985,CO,6,19,12
India,Mizoram,Aizawl,"Sikulpuikawn, Aizawl - Mizoram PCB",21-05-2024 02:00:00,23.7176342,92.7192841,NH3,1,3,1
India,Nagaland,Kohima,"PWD Juction, Kohima - NPCB",21-05-2024 02:00:00,25.6635413,94.0989878,PM2.5,38,122,68
India,Nagaland,Kohima,"PWD Juction, Kohima - NPCB",21-05-2024 02:00:00,25.6635413,94.0989878,NO2,3,12,4
India,Odisha,Angul,"Hakimapada, Angul - OSPCB",21-05-2024 02:00:00,20.832874,85.104082,PM10,19,500,115
India,Odisha,Balasore,"Kalidaspur, Balasore - OSPCB",21-05-2024 02:00:00,21.51161,86.89088,NH3,NA,NA,NA
India,Odisha,Balasore,"Kalidaspur, Balasore - OSPCB",21-05-2024 02:00:00,21.51161,86.89088,OZONE,5,65,43
India,Odisha,Barbil,"Forest Office, Barbil - OSPCB",21-05-2024 02:00:00,22.1166054,85.3945546,SO2,4,18,7
India,Odisha,Baripada,"Meher Colony, Baripada - OSPCB",21-05-2024 02:00:00,21.941841,86.728318,PM10,37,79,56
India,Odisha,Baripada,"Meher Colony, Baripada - OSPCB",21-05-2024 02:00:00,21.941841,86.728318,NH3,1,3,2
India,Odisha,Bhubaneswar,"Lingraj Mandir, Bhubaneswar - OSPCB",21-05-2024 02:00:00,20.240790,85.836784,PM10,7,34,18
India,Odisha,Bhubaneswar,"Patia, Bhubaneswar - OSPCB",21-05-2024 02:00:00,20.34652,85.81630,PM2.5,NA,NA,NA
India,Odisha,Bileipada,"Tata Township, Bileipada - OSPCB",21-05-2024 02:00:00,22.06156703,85.47409613,NO2,NA,NA,NA
India,Odisha,Bileipada,"Tata Township, Bileipada - OSPCB",21-05-2024 02:00:00,22.06156703,85.47409613,OZONE,26,127,35
India,Odisha,Byasanagar,"Ferro Chrome Colony, Byasanagar - OSPCB",21-05-2024 02:00:00,20.94185,86.11510,PM2.5,7,55,21
India,Odisha,Byasanagar,"Ferro Chrome Colony, Byasanagar - OSPCB",21-05-2024 02:00:00,20.94185,86.11510,OZONE,2,112,81
India,Odisha,Cuttack,"CDA Area, Cuttack - OSPCB",21-05-2024 02:00:00,20.48891     ,85.84768     ,NH3,1,1,1
India,Odisha,Keonjhar,"Jagamohanpur, Keonjhar - OSPCB",21-05-2024 02:00:00,21.643900,85.599355,PM10,NA,NA,NA
India,Odisha,Keonjhar,"Jagamohanpur, Keonjhar - OSPCB",21-05-2024 02:00:00,21.643900,85.599355,SO2,NA,NA,NA
India,Odisha,Nayagarh,"Dabuna, Nayagarh - OSPCB",21-05-2024 02:00:00,21.847279,85.416905,PM10,37,103,64
India,Odisha,Nayagarh,"Dabuna, Nayagarh - OSPCB",21-05-2024 02:00:00,21.847279,85.416905,NO2,7,8,7
India,Odisha,Nayagarh,"Dabuna, Nayagarh - OSPCB",21-05-2024 02:00:00,21.847279,85.416905,NH3,5,5,5
India,Odisha,Nayagarh,"Dabuna, Nayagarh - OSPCB",21-05-2024 02:00:00,21.847279,85.416905,OZONE,5,31,21
India,Odisha,Rairangpur,"Divisional Forest Office, Rairangpur - OSPCB",21-05-2024 02:00:00,22.265816,86.174829,PM10,39,71,52
India,Odisha,Rairangpur,"Divisional Forest Office, Rairangpur - OSPCB",21-05-2024 02:00:00,22.265816,86.174829,SO2,13,15,14
India,Odisha,Rairangpur,"Divisional Forest Office, Rairangpur - OSPCB",21-05-2024 02:00:00,22.265816,86.174829,OZONE,3,25,10
India,Odisha,Rourkela,"Fertilizer Township, Rourkela - OSPCB",21-05-2024 02:00:00,22.18972222,84.86277778,SO2,12,14,13
India,Odisha,Rourkela,"Raghunathpali, Rourkela - OSPCB",21-05-2024 02:00:00,22.220833,84.809444,PM2.5,45,131,76
India,Odisha,Rourkela,"Raghunathpali, Rourkela - OSPCB",21-05-2024 02:00:00,22.220833,84.809444,OZONE,12,133,83
India,Odisha,Rourkela,"Sector-2, Rourkela - OSPCB",21-05-2024 02:00:00,22.24500000,84.88111111,PM2.5,NA,NA,NA
India,Odisha,Suakati,"OMC Colony, Suakati - OSPCB",21-05-2024 02:00:00,21.606865,85.510538,SO2,3,35,8
India,Odisha,Tensa,"Barsua Iron Ore Mines, Tensa - OSPCB",21-05-2024 02:00:00,21.869985,85.167016,NH3,1,2,2
India,Odisha,Tensa,"Barsua Iron Ore Mines, Tensa - OSPCB",21-05-2024 02:00:00,21.869985,85.167016,OZONE,62,114,82
India,Puducherry,Puducherry,"Jawahar Nagar, Puducherry - PPCC",21-05-2024 02:00:00,11.9309,79.8027,PM2.5,NA,NA,NA
India,Puducherry,Puducherry,"Jawahar Nagar, Puducherry - PPCC",21-05-2024 02:00:00,11.9309,79.8027,NO2,5,23,13
India,Puducherry,Puducherry,"Jawahar Nagar, Puducherry - PPCC",21-05-2024 02:00:00,11.9309,79.8027,OZONE,14,85,39
India,Punjab,Amritsar,"Golden Temple, Amritsar - PPCB",21-05-2024 02:00:00,31.620000,74.876512,NO2,3,37,14
India,Punjab,Bathinda,"Hardev Nagar, Bathinda - PPCB",21-05-2024 02:00:00,30.233011,74.907758,PM2.5,40,86,65
India,Punjab,Bathinda,"Hardev Nagar, Bathinda - PPCB",21-05-2024 02:00:00,30.233011,74.907758,PM10,52,141,92
India,Punjab,Bathinda,"Hardev Nagar, Bathinda - PPCB",21-05-2024 02:00:00,30.233011,74.907758,NO2,32,33,32
India,Punjab,Jalandhar,"Civil Line, Jalandhar - PPCB",21-05-2024 02:00:00,31.321907,75.578914,NO2,38,47,44
India,Punjab,Jalandhar,"Civil Line, Jalandhar - PPCB",21-05-2024 02:00:00,31.321907,75.578914,CO,8,64,55
India,Punjab,Ludhiana,"Punjab Agricultural University, Ludhiana - PPCB",21-05-2024 02:00:00,30.9028,75.8086,CO,21,102,60
India,Punjab,Mandi Gobindgarh,"RIMT University, Mandi Gobindgarh - PPCB",21-05-2024 02:00:00,30.649961,76.331442,NH3,6,6,6
India,Punjab,Mandi Gobindgarh,"RIMT University, Mandi Gobindgarh - PPCB",21-05-2024 02:00:00,30.649961,76.331442,SO2,18,55,26
India,Punjab,Mandi Gobindgarh,"RIMT University, Mandi Gobindgarh - PPCB",21-05-2024 02:00:00,30.649961,76.331442,OZONE,31,34,33
India,Punjab,Patiala,"Model Town, Patiala - PPCB",21-05-2024 02:00:00,30.349388,76.366642,PM10,116,149,133
India,Rajasthan,Ajmer,"Civil Lines,  Ajmer - RSPCB",21-05-2024 02:00:00,26.470859,74.646594,PM2.5,44,137,80
India,Rajasthan,Ajmer,"Civil Lines,  Ajmer - RSPCB",21-05-2024 02:00:00,26.470859,74.646594,NH3,6,6,6
India,Rajasthan,Alwar,"Moti Doongri, Alwar - RSPCB",21-05-2024 02:00:00,27.554793,76.611536,PM2.5,56,418,155
India,Rajasthan,Baran,"Bamboliya, Baran - RSPCB",21-05-2024 02:00:00,25.106006,76.469948,NO2,8,57,19
India,Rajasthan,Barmer,"Railway Colony, Barmer - RSPCB",21-05-2024 02:00:00,25.747299,71.393989,NO2,5,17,9
India,Rajasthan,Bharatpur,"Krishna Nagar, Bharatpur - RSPCB",21-05-2024 02:00:00,27.215415,77.50873,CO,4,57,41
India,Rajasthan,Bhilwara,"Pratap Nagar, Bhilwara - RSPCB",21-05-2024 02:00:00,25.339605,74.618883,CO,5,62,31
India,Rajasthan,Bhilwara,"Pratap Nagar, Bhilwara - RSPCB",21-05-2024 02:00:00,25.339605,74.618883,OZONE,16,93,44
India,Rajasthan,Bhiwadi,"RIICO Ind. Area III, Bhiwadi - RSPCB",21-05-2024 02:00:00,28.194909,76.862296,NH3,4,25,11
India,Rajasthan,Bhiwadi,"Vasundhara Nagar_UIT, Bhiwadi - RSPCB",21-05-2024 02:00:00,28.207266,76.829265,SO2,1,29,9
India,Rajasthan,Bikaner,"MM Ground, Bikaner - RSPCB",21-05-2024 02:00:00,28.018792,73.292658,NO2,15,74,36
India,Rajasthan,Bikaner,"MM Ground, Bikaner - RSPCB",21-05-2024 02:00:00,28.018792,73.292658,NH3,8,10,9
India,Rajasthan,Bundi,"New Colony, Bundi - RSPCB",21-05-2024 02:00:00,25.435774,75.644272,PM10,106,200,141
India,Rajasthan,Bundi,"New Colony, Bundi - RSPCB",21-05-2024 02:00:00,25.435774,75.644272,NH3,NA,NA,NA
India,Rajasthan,Chittorgarh,"Shastri Nagar, Chittorgarh - RSPCB",21-05-2024 02:00:00,24.892047,74.623527,PM10,117,212,145
India,Rajasthan,Dausa,"Khatikan Mohalla, Dausa - RSPCB",21-05-2024 02:00:00,26.895552,76.334753,PM2.5,30,84,51
India,Rajasthan,Dausa,"Khatikan Mohalla, Dausa - RSPCB",21-05-2024 02:00:00,26.895552,76.334753,PM10,112,320,158
India,Rajasthan,Dausa,"Khatikan Mohalla, Dausa - RSPCB",21-05-2024 02:00:00,26.895552,76.334753,NO2,14,89,35
India,Rajasthan,Dholpur,"Raja Ganj, Dholpur - RSPCB",21-05-2024 02:00:00,26.699557,77.898881,PM10,104,284,158
India,Rajasthan,Hanumangarh,"Housing Board, Hanumangarh - RSPCB",21-05-2024 02:00:00,29.610750,74.283608,SO2,4,29,12
India,Rajasthan,Jaipur,"Adarsh Nagar, Jaipur - RSPCB",21-05-2024 02:00:00,26.902909,75.836858,OZONE,12,80,32
India,Rajasthan,Jaipur,"Mansarovar Sector-12, Jaipur - RSPCB",21-05-2024 02:00:00,26.843698,75.766894,NO2,12,140,44
India,Rajasthan,Jaipur,"Sector-2 Murlipura, Jaipur - RSPCB",21-05-2024 02:00:00,26.960669,75.771817,PM10,98,291,150
India,Rajasthan,Jaipur,"Sector-2 Murlipura, Jaipur - RSPCB",21-05-2024 02:00:00,26.960669,75.771817,NO2,14,48,23
India,Rajasthan,Jaipur,"Sector-2 Murlipura, Jaipur - RSPCB",21-05-2024 02:00:00,26.960669,75.771817,NH3,2,8,3
India,Rajasthan,Jaipur,"Sector-2 Murlipura, Jaipur - RSPCB",21-05-2024 02:00:00,26.960669,75.771817,SO2,5,56,18
India,Rajasthan,Jaipur,"Shastri Nagar, Jaipur - RSPCB",21-05-2024 02:00:00,26.9502929,75.730943,CO,11,61,44
India,Rajasthan,Jaisalmer,"Sadar Bazar, Jaisalmer - RSPCB",21-05-2024 02:00:00,26.912329,70.909168,NO2,5,26,18
India,Rajasthan,Jaisalmer,"Sadar Bazar, Jaisalmer - RSPCB",21-05-2024 02:00:00,26.912329,70.909168,OZONE,2,90,77
India,Rajasthan,Jalore,"Mudtra Sili, Jalore - RSPCB",21-05-2024 02:00:00,25.344694,72.626208,NH3,6,9,7
India,Rajasthan,Jalore,"Mudtra Sili, Jalore - RSPCB",21-05-2024 02:00:00,25.344694,72.626208,OZONE,26,116,78
India,Rajasthan,Jhalawar,"Rajlaxmi Nagar, Jhalawar - RSPCB",21-05-2024 02:00:00,24.588397,76.172782,PM10,71,231,128
India,Rajasthan,Jhalawar,"Rajlaxmi Nagar, Jhalawar - RSPCB",21-05-2024 02:00:00,24.588397,76.172782,SO2,3,32,9
India,Rajasthan,Jodhpur,"Collectorate, Jodhpur - RSPCB",21-05-2024 02:00:00,26.268249,73.0193853,PM10,48,159,93
India,Rajasthan,Jodhpur,"Collectorate, Jodhpur - RSPCB",21-05-2024 02:00:00,26.268249,73.0193853,CO,4,88,42
India,Rajasthan,Jodhpur,"Digari Kalan, Jodhpur - RSPCB",21-05-2024 02:00:00,26.295810,73.082283,PM2.5,22,63,36
India,Rajasthan,Jodhpur,"Digari Kalan, Jodhpur - RSPCB",21-05-2024 02:00:00,26.295810,73.082283,NO2,6,43,23
India,Rajasthan,Jodhpur,"Jhalamand, Jodhpur - RSPCB",21-05-2024 02:00:00,26.215415,73.070156,PM2.5,17,78,44
India,Rajasthan,Jodhpur,"Jhalamand, Jodhpur - RSPCB",21-05-2024 02:00:00,26.215415,73.070156,SO2,5,78,10
India,Rajasthan,Jodhpur,"Samrat Ashok Udhyan, Jodhpur - RSPCB",21-05-2024 02:00:00,26.253384,72.976571,OZONE,35,88,71
India,Rajasthan,Karauli,"Satyawati Vihar, Karauli - RSPCB",21-05-2024 02:00:00,26.506177,77.025989,NH3,5,24,10
India,Rajasthan,Kota,"Dhanmandi, Kota - RSPCB",21-05-2024 02:00:00,25.164090,75.858137,PM2.5,19,167,65
India,Rajasthan,Kota,"Dhanmandi, Kota - RSPCB",21-05-2024 02:00:00,25.164090,75.858137,NH3,2,6,4
India,Rajasthan,Kota,"Nayapura, Kota - RSPCB",21-05-2024 02:00:00,25.196024,75.855668,OZONE,4,144,40
India,Rajasthan,Kota,"Shrinath Puram, Kota - RSPCB",21-05-2024 02:00:00,25.14389,75.821256,NO2,9,102,36
India,Rajasthan,Kota,"Shrinath Puram, Kota - RSPCB",21-05-2024 02:00:00,25.14389,75.821256,NH3,3,11,6
India,Rajasthan,Nagaur,"Karni Colony, Nagaur - RSPCB",21-05-2024 02:00:00,27.213494,73.734444,PM2.5,13,74,38
India,Rajasthan,Nagaur,"Karni Colony, Nagaur - RSPCB",21-05-2024 02:00:00,27.213494,73.734444,SO2,2,8,5
India,Rajasthan,Pali,"Indira Colony Vistar, Pali - RSPCB",21-05-2024 02:00:00,25.771061, 73.340227,PM2.5,1,181,104
India,Rajasthan,Pali,"Indira Colony Vistar, Pali - RSPCB",21-05-2024 02:00:00,25.771061, 73.340227,CO,16,76,43
India,Rajasthan,Pratapgarh,"Pragati Nagar, Pratapgarh - RSPCB",21-05-2024 02:00:00,24.041198,74.780702,NO2,6,50,18
India,Rajasthan,Rajsamand,"Dhoinda, Rajsamand - RSPCB",21-05-2024 02:00:00,25.036360,73.883502,NH3,NA,NA,NA
India,Rajasthan,Rajsamand,"Dhoinda, Rajsamand - RSPCB",21-05-2024 02:00:00,25.036360,73.883502,SO2,1,53,12
India,Rajasthan,Sawai Madhopur,"Sahu Nagar, Sawai Madhopur - RSPCB",21-05-2024 02:00:00,26.031443,76.359327,PM2.5,43,190,76
India,Rajasthan,Sirohi,"Vedhaynath Colony, Sirohi - RSPCB",21-05-2024 02:00:00,24.885261,72.857549,PM2.5,17,55,31
India,Rajasthan,Sirohi,"Vedhaynath Colony, Sirohi - RSPCB",21-05-2024 02:00:00,24.885261,72.857549,NH3,3,6,4
India,Rajasthan,Sirohi,"Vedhaynath Colony, Sirohi - RSPCB",21-05-2024 02:00:00,24.885261,72.857549,OZONE,35,114,72
India,Rajasthan,Sri Ganganagar,"Old City, Sri Ganganagar - RSPCB",21-05-2024 02:00:00,29.931624,73.864511,NO2,12,108,37
India,Rajasthan,Sri Ganganagar,"Old City, Sri Ganganagar - RSPCB",21-05-2024 02:00:00,29.931624,73.864511,OZONE,23,88,40
India,Rajasthan,Tonk,"Shastri Nagar, Tonk - RSPCB",21-05-2024 02:00:00,26.159933,75.780517,PM2.5,28,120,57
India,Rajasthan,Tonk,"Shastri Nagar, Tonk - RSPCB",21-05-2024 02:00:00,26.159933,75.780517,PM10,86,420,171
India,Rajasthan,Udaipur,"Ashok Nagar, Udaipur - RSPCB",21-05-2024 02:00:00,24.5886166,73.6321397,PM10,87,115,103
India,Rajasthan,Udaipur,"Ashok Nagar, Udaipur - RSPCB",21-05-2024 02:00:00,24.5886166,73.6321397,OZONE,39,74,56
India,Sikkim,Gangtok,"Zero Point GICI, Gangtok - SSPCB",21-05-2024 02:00:00,27.338530,88.614099,PM10,13,77,27
India,Sikkim,Gangtok,"Zero Point GICI, Gangtok - SSPCB",21-05-2024 02:00:00,27.338530,88.614099,CO,10,20,14
India,Sikkim,Gangtok,"Zero Point GICI, Gangtok - SSPCB",21-05-2024 02:00:00,27.338530,88.614099,OZONE,24,75,37
India,TamilNadu,Chennai,"Manali, Chennai - CPCB",21-05-2024 02:00:00,13.164544,80.26285,NO2,6,10,9
India,TamilNadu,Chennai,"Manali, Chennai - CPCB",21-05-2024 02:00:00,13.164544,80.26285,CO,64,113,99
India,TamilNadu,Chennai,"Perungudi, Chennai - TNPCB",21-05-2024 02:00:00,12.9533,80.2357,NO2,2,11,6
India,TamilNadu,Chennai,"Royapuram, Chennai - TNPCB",21-05-2024 02:00:00,13.1036,80.2909,CO,16,58,22
India,TamilNadu,Coimbatore,"PSG College of Arts and Science, Coimbatore - TNPCB",21-05-2024 02:00:00,11.0328,77.0349,NH3,1,1,1
India,TamilNadu,Coimbatore,"PSG College of Arts and Science, Coimbatore - TNPCB",21-05-2024 02:00:00,11.0328,77.0349,CO,26,34,33
India,TamilNadu,Cuddalore,"Kudikadu, Cuddalore - TNPCB",21-05-2024 02:00:00,11.6829898,79.7532099,PM10,6,62,22
India,TamilNadu,Cuddalore,"Kudikadu, Cuddalore - TNPCB",21-05-2024 02:00:00,11.6829898,79.7532099,NH3,3,4,4
India,TamilNadu,Gummidipoondi,"Anthoni Pillai Nagar, Gummidipoondi - TNPCB",21-05-2024 02:00:00,13.4127,80.1081,PM2.5,NA,NA,NA
India,TamilNadu,Palkalaiperur,"Bharathidasan University, Palkalaiperur - TNPCB",21-05-2024 02:00:00,10.681158,78.741746,OZONE,1,1,1
India,TamilNadu,Thoothukudi,"Meelavittan, Thoothukudi - TNPCB",21-05-2024 02:00:00,8.816428 ,78.099039,PM10,17,85,46
India,TamilNadu,Thoothukudi,"Meelavittan, Thoothukudi - TNPCB",21-05-2024 02:00:00,8.816428 ,78.099039,NO2,16,24,21
India,TamilNadu,Thoothukudi,"Meelavittan, Thoothukudi - TNPCB",21-05-2024 02:00:00,8.816428 ,78.099039,SO2,2,15,8
India,TamilNadu,Vellore,"Vasanthapuram, Vellore - TNPCB",21-05-2024 02:00:00,12.909494,79.131861,NO2,6,19,13
India,Telangana,Hyderabad,"Bollaram Industrial Area, Hyderabad - TSPCB",21-05-2024 02:00:00,17.540891,78.358528,PM10,10,100,52
India,Telangana,Hyderabad,"Central University, Hyderabad - TSPCB",21-05-2024 02:00:00,17.460103,78.334361,OZONE,3,4,4
India,Telangana,Hyderabad,"ECIL Kapra, Hyderabad - TSPCB",21-05-2024 02:00:00,17.470431,78.566959,PM10,NA,NA,NA
India,Telangana,Hyderabad,"ECIL Kapra, Hyderabad - TSPCB",21-05-2024 02:00:00,17.470431,78.566959,SO2,NA,NA,NA
India,Telangana,Hyderabad,"ECIL Kapra, Hyderabad - TSPCB",21-05-2024 02:00:00,17.470431,78.566959,CO,12,43,36
India,Telangana,Hyderabad,"ICRISAT Patancheru, Hyderabad - TSPCB",21-05-2024 02:00:00,17.518400,78.278777,NO2,16,18,16
India,Telangana,Hyderabad,"IITH Kandi, Hyderabad - TSPCB",21-05-2024 02:00:00,17.585705,78.126199,NH3,NA,NA,NA
India,Telangana,Hyderabad,"IITH Kandi, Hyderabad - TSPCB",21-05-2024 02:00:00,17.585705,78.126199,CO,NA,NA,NA
India,Telangana,Hyderabad,"Kokapet, Hyderabad - TSPCB",21-05-2024 02:00:00,17.393559,78.339194,PM10,NA,NA,NA
India,Telangana,Hyderabad,"Kokapet, Hyderabad - TSPCB",21-05-2024 02:00:00,17.393559,78.339194,NH3,NA,NA,NA
India,Telangana,Hyderabad,"Kokapet, Hyderabad - TSPCB",21-05-2024 02:00:00,17.393559,78.339194,OZONE,3,6,4
India,Telangana,Hyderabad,"Kompally Municipal Office, Hyderabad - TSPCB",21-05-2024 02:00:00,17.544899,78.486949,PM2.5,36,70,44
India,Telangana,Hyderabad,"Kompally Municipal Office, Hyderabad - TSPCB",21-05-2024 02:00:00,17.544899,78.486949,PM10,51,71,57
India,Telangana,Hyderabad,"Nacharam_TSIIC IALA, Hyderabad - TSPCB",21-05-2024 02:00:00,17.429398,78.569354,PM2.5,NA,NA,NA
India,Telangana,Hyderabad,"Nacharam_TSIIC IALA, Hyderabad - TSPCB",21-05-2024 02:00:00,17.429398,78.569354,PM10,NA,NA,NA
India,Telangana,Hyderabad,"Nacharam_TSIIC IALA, Hyderabad - TSPCB",21-05-2024 02:00:00,17.429398,78.569354,OZONE,31,61,39
India,Telangana,Hyderabad,"Ramachandrapuram, Hyderabad - TSPCB",21-05-2024 02:00:00,17.528544,78.286195,PM10,NA,NA,NA
India,Telangana,Hyderabad,"Ramachandrapuram, Hyderabad - TSPCB",21-05-2024 02:00:00,17.528544,78.286195,NO2,NA,NA,NA
India,Telangana,Hyderabad,"Sanathnagar, Hyderabad - TSPCB",21-05-2024 02:00:00,17.4559458,78.4332152,NO2,30,30,30
India,Telangana,Hyderabad,"Sanathnagar, Hyderabad - TSPCB",21-05-2024 02:00:00,17.4559458,78.4332152,CO,30,68,61
India,Telangana,Hyderabad,"Sanathnagar, Hyderabad - TSPCB",21-05-2024 02:00:00,17.4559458,78.4332152,OZONE,16,16,16
India,Telangana,Hyderabad,"Somajiguda, Hyderabad - TSPCB",21-05-2024 02:00:00,17.417094,78.457437,PM2.5,25,57,43
India,Telangana,Hyderabad,"Zoo Park, Hyderabad - TSPCB",21-05-2024 02:00:00,17.349694,78.451437,PM10,NA,NA,NA
India,Tripura,Agartala,"Bardowali, Agartala - Tripura SPCB",21-05-2024 02:00:00,23.8175497,91.2726974,PM2.5,NA,NA,NA
India,Uttar_Pradesh,Agra,"Manoharpur, Agra - UPPCB",21-05-2024 02:00:00,27.23711,78.01936,PM10,21,55,33
India,Uttar_Pradesh,Agra,"Manoharpur, Agra - UPPCB",21-05-2024 02:00:00,27.23711,78.01936,CO,6,12,9
India,Uttar_Pradesh,Agra,"Rohta, Agra - UPPCB",21-05-2024 02:00:00,27.106972,78.000111,PM10,24,84,45
India,Uttar_Pradesh,Agra,"Rohta, Agra - UPPCB",21-05-2024 02:00:00,27.106972,78.000111,NO2,11,11,11
India,Uttar_Pradesh,Agra,"Sanjay Palace, Agra - UPPCB",21-05-2024 02:00:00,27.19865833,78.00598056,PM10,NA,NA,NA
India,Uttar_Pradesh,Agra,"Sanjay Palace, Agra - UPPCB",21-05-2024 02:00:00,27.19865833,78.00598056,CO,14,40,30
India,Uttar_Pradesh,Agra,"Sector-3B Avas Vikas Colony, Agra - UPPCB",21-05-2024 02:00:00,27.19412,77.96237,CO,10,28,20
India,Uttar_Pradesh,Agra,"Shahjahan Garden, Agra - UPPCB",21-05-2024 02:00:00,27.169338,78.03582,PM2.5,23,61,39
India,Uttar_Pradesh,Agra,"Shastripuram, Agra - UPPCB",21-05-2024 02:00:00,27.19862,77.92066,NH3,1,6,4
India,Uttar_Pradesh,Bareilly,"Civil Lines, Bareilly - UPPCB",21-05-2024 02:00:00,28.359581,79.414455,NO2,2,3,2
India,Uttar_Pradesh,Bareilly,"Civil Lines, Bareilly - UPPCB",21-05-2024 02:00:00,28.359581,79.414455,SO2,22,35,25
India,Uttar_Pradesh,Bareilly,"Civil Lines, Bareilly - UPPCB",21-05-2024 02:00:00,28.359581,79.414455,CO,19,46,28
India,Uttar_Pradesh,Bareilly,"Rajendra Nagar, Bareilly - UPPCB",21-05-2024 02:00:00,28.38910936,79.42963708,PM2.5,14,35,26
India,Uttar_Pradesh,Bareilly,"Rajendra Nagar, Bareilly - UPPCB",21-05-2024 02:00:00,28.38910936,79.42963708,NO2,2,2,2
India,Uttar_Pradesh,Bulandshahr,"Yamunapuram, Bulandshahr - UPPCB",21-05-2024 02:00:00,28.406963,77.849831,SO2,6,104,35
India,Uttar_Pradesh,Ghaziabad,"Indirapuram, Ghaziabad - UPPCB",21-05-2024 02:00:00,28.646233,77.358075,OZONE,2,35,9
India,Uttar_Pradesh,Ghaziabad,"Loni, Ghaziabad - UPPCB",21-05-2024 02:00:00,28.757294,77.278792,NH3,1,11,4
India,Uttar_Pradesh,Ghaziabad,"Loni, Ghaziabad - UPPCB",21-05-2024 02:00:00,28.757294,77.278792,SO2,6,79,33
India,Uttar_Pradesh,Ghaziabad,"Sanjay Nagar, Ghaziabad - UPPCB",21-05-2024 02:00:00,28.685382,77.453839,PM2.5,55,173,115
India,Uttar_Pradesh,Ghaziabad,"Sanjay Nagar, Ghaziabad - UPPCB",21-05-2024 02:00:00,28.685382,77.453839,PM10,NA,NA,NA
India,Uttar_Pradesh,Ghaziabad,"Sanjay Nagar, Ghaziabad - UPPCB",21-05-2024 02:00:00,28.685382,77.453839,NO2,19,141,64
India,Uttar_Pradesh,Ghaziabad,"Vasundhara, Ghaziabad - UPPCB",21-05-2024 02:00:00,28.6603346,77.3572563,PM2.5,37,217,102
India,Uttar_Pradesh,Gorakhpur,"Madan Mohan Malaviya University of Technology, Gorakhpur - UPPCB",21-05-2024 02:00:00,26.730136,83.433859,PM2.5,32,74,55
India,Uttar_Pradesh,Gorakhpur,"Madan Mohan Malaviya University of Technology, Gorakhpur - UPPCB",21-05-2024 02:00:00,26.730136,83.433859,NO2,11,11,11
India,Uttar_Pradesh,Greater Noida,"Knowledge Park - III, Greater Noida - UPPCB",21-05-2024 02:00:00,28.47272,77.482000,NO2,31,185,80
India,Uttar_Pradesh,Greater Noida,"Knowledge Park - V, Greater Noida - UPPCB",21-05-2024 02:00:00,28.557054,77.453663,PM10,185,454,318
India,Uttar_Pradesh,Hapur,"Anand Vihar, Hapur - UPPCB",21-05-2024 02:00:00,28.725645,77.749675,SO2,5,35,16
India,Uttar_Pradesh,Jhansi,"Shivaji Nagar, Jhansi - UPPCB",21-05-2024 02:00:00,25.4547,78.6039,PM10,NA,NA,NA
India,Uttar_Pradesh,Kanpur,"NSI Kalyanpur, Kanpur - UPPCB",21-05-2024 02:00:00,26.509954,80.249612,PM10,69,246,148
India,Uttar_Pradesh,Kanpur,"NSI Kalyanpur, Kanpur - UPPCB",21-05-2024 02:00:00,26.509954,80.249612,NH3,2,4,3
India,Uttar_Pradesh,Kanpur,"NSI Kalyanpur, Kanpur - UPPCB",21-05-2024 02:00:00,26.509954,80.249612,CO,37,70,49
India,Uttar_Pradesh,Kanpur,"Nehru Nagar, Kanpur - UPPCB",21-05-2024 02:00:00,26.4703136,80.3229863,NO2,1,59,21
India,Uttar_Pradesh,Khurja,"Kalindi Kunj, Khurja - UPPCB",21-05-2024 02:00:00,28.2348927,77.8683002,SO2,53,67,57
India,Uttar_Pradesh,Lucknow,"Gomti Nagar, Lucknow - UPPCB",21-05-2024 02:00:00,26.868120,81.005119,OZONE,33,43,37
India,Uttar_Pradesh,Lucknow,"Kendriya Vidyalaya, Lucknow - CPCB",21-05-2024 02:00:00,26.906111,80.948222,NO2,4,10,7
India,Uttar_Pradesh,Lucknow,"Kukrail Picnic Spot-1, Lucknow - UPPCB",21-05-2024 02:00:00,26.90723,80.98579,SO2,31,37,34
India,Uttar_Pradesh,Lucknow,"Kukrail Picnic Spot-1, Lucknow - UPPCB",21-05-2024 02:00:00,26.90723,80.98579,CO,17,26,21
India,Uttar_Pradesh,Lucknow,"Kukrail Picnic Spot-1, Lucknow - UPPCB",21-05-2024 02:00:00,26.90723,80.98579,OZONE,29,80,56
India,Uttar_Pradesh,Lucknow,"Talkatora District Industries Center, Lucknow - CPCB",21-05-2024 02:00:00,26.83399722,80.8917361,PM10,124,432,165
India,Uttar_Pradesh,Lucknow,"Talkatora District Industries Center, Lucknow - CPCB",21-05-2024 02:00:00,26.83399722,80.8917361,SO2,2,10,6
India,Uttar_Pradesh,Lucknow,"Talkatora District Industries Center, Lucknow - CPCB",21-05-2024 02:00:00,26.83399722,80.8917361,CO,10,37,23
India,Uttar_Pradesh,Meerut,"Ganga Nagar, Meerut - UPPCB",21-05-2024 02:00:00,28.999264,77.7590354,SO2,7,28,17
India,Uttar_Pradesh,Meerut,"Ganga Nagar, Meerut - UPPCB",21-05-2024 02:00:00,28.999264,77.7590354,OZONE,4,75,37
India,Uttar_Pradesh,Meerut,"Jai Bhim Nagar, Meerut - UPPCB",21-05-2024 02:00:00,28.9535882,77.7622941,PM2.5,48,195,117
India,Uttar_Pradesh,Meerut,"Pallavpuram Phase 2, Meerut - UPPCB",21-05-2024 02:00:00,29.063510,77.709723,NH3,8,26,13
India,Uttar_Pradesh,Meerut,"Pallavpuram Phase 2, Meerut - UPPCB",21-05-2024 02:00:00,29.063510,77.709723,SO2,23,45,35
India,Uttar_Pradesh,Meerut,"Pallavpuram Phase 2, Meerut - UPPCB",21-05-2024 02:00:00,29.063510,77.709723,OZONE,18,186,68
India,Uttar_Pradesh,Moradabad,"Buddhi Vihar, Moradabad - UPPCB",21-05-2024 02:00:00,28.83526,78.74460,PM10,64,163,102
India,Uttar_Pradesh,Moradabad,"Eco Herbal Park, Moradabad - UPPCB",21-05-2024 02:00:00,28.840739,78.697531,CO,14,124,57
India,Uttar_Pradesh,Moradabad,"Eco Herbal Park, Moradabad - UPPCB",21-05-2024 02:00:00,28.840739,78.697531,OZONE,25,122,59
India,Uttar_Pradesh,Moradabad,"Employment Office, Moradabad - UPPCB",21-05-2024 02:00:00,28.88528,78.73880,PM10,61,179,113
India,Uttar_Pradesh,Moradabad,"Employment Office, Moradabad - UPPCB",21-05-2024 02:00:00,28.88528,78.73880,SO2,17,37,25
India,Uttar_Pradesh,Moradabad,"Jigar Colony, Moradabad - UPPCB",21-05-2024 02:00:00,28.856664,78.772638,PM2.5,30,75,54
India,Uttar_Pradesh,Moradabad,"Kashiram Nagar, Moradabad - UPPCB",21-05-2024 02:00:00,28.849399,78.742362,NO2,12,13,12
India,Uttar_Pradesh,Moradabad,"Transport Nagar, Moradabad - UPPCB",21-05-2024 02:00:00,28.802625,78.753728,SO2,48,56,53
India,Uttar_Pradesh,Moradabad,"Transport Nagar, Moradabad - UPPCB",21-05-2024 02:00:00,28.802625,78.753728,OZONE,17,52,31
India,Uttar_Pradesh,Muzaffarnagar,"New Mandi, Muzaffarnagar - UPPCB",21-05-2024 02:00:00,29.4723508,77.7194031,PM2.5,86,336,193
India,Uttar_Pradesh,Muzaffarnagar,"New Mandi, Muzaffarnagar - UPPCB",21-05-2024 02:00:00,29.4723508,77.7194031,NH3,10,13,12
India,Uttar_Pradesh,Muzaffarnagar,"New Mandi, Muzaffarnagar - UPPCB",21-05-2024 02:00:00,29.4723508,77.7194031,SO2,14,108,32
India,Uttar_Pradesh,Noida,"Sector - 125, Noida - UPPCB",21-05-2024 02:00:00,28.5447608,77.3231257,PM10,148,500,338
India,Uttar_Pradesh,Noida,"Sector - 125, Noida - UPPCB",21-05-2024 02:00:00,28.5447608,77.3231257,NO2,29,188,79
India,Uttar_Pradesh,Noida,"Sector - 125, Noida - UPPCB",21-05-2024 02:00:00,28.5447608,77.3231257,NH3,1,6,4
India,Uttar_Pradesh,Noida,"Sector - 62, Noida - IMD",21-05-2024 02:00:00,28.6245479,77.3577104,PM2.5,NA,NA,NA
India,Uttar_Pradesh,Noida,"Sector - 62, Noida - IMD",21-05-2024 02:00:00,28.6245479,77.3577104,CO,20,34,29
India,Uttar_Pradesh,Noida,"Sector-116, Noida - UPPCB",21-05-2024 02:00:00,28.569230,77.393848,SO2,6,38,23
India,Uttar_Pradesh,Prayagraj,"Jhunsi, Prayagraj - UPPCB",21-05-2024 02:00:00,25.425602,81.917152,OZONE,11,159,54
India,Uttar_Pradesh,Prayagraj,"Motilal Nehru NIT, Prayagraj - UPPCB",21-05-2024 02:00:00,25.494,81.863,PM2.5,20,98,37
India,Uttar_Pradesh,Prayagraj,"Motilal Nehru NIT, Prayagraj - UPPCB",21-05-2024 02:00:00,25.494,81.863,OZONE,11,42,28
India,Uttar_Pradesh,Varanasi,"Bhelupur, Varanasi - UPPCB",21-05-2024 02:00:00,25.301778,82.996789,OZONE,3,31,9
India,Uttar_Pradesh,Varanasi,"IESD Banaras Hindu University, Varanasi - UPPCB",21-05-2024 02:00:00,25.262326,82.995408,PM2.5,5,11,8
India,Uttar_Pradesh,Varanasi,"IESD Banaras Hindu University, Varanasi - UPPCB",21-05-2024 02:00:00,25.262326,82.995408,NH3,1,3,2
India,Uttar_Pradesh,Varanasi,"IESD Banaras Hindu University, Varanasi - UPPCB",21-05-2024 02:00:00,25.262326,82.995408,OZONE,1,19,3
India,Uttar_Pradesh,Vrindavan,"Omex Eternity, Vrindavan - UPPCB",21-05-2024 02:00:00,27.5714090,77.6557570,OZONE,23,38,32
India,Uttarakhand,Rishikesh,"Shivaji Nagar, Rishikesh - UKPCB",21-05-2024 02:00:00,30.075911,78.2859547,CO,14,30,20
India,West_Bengal,Asansol,"Asansol Court Area, Asansol - WBPCB",21-05-2024 02:00:00,23.685297,86.945968,SO2,12,17,13
India,West_Bengal,Asansol,"Asansol Court Area, Asansol - WBPCB",21-05-2024 02:00:00,23.685297,86.945968,OZONE,74,216,138
India,West_Bengal,Durgapur,"PCBL Residential Complex, Durgapur - WBPCB",21-05-2024 02:00:00,23.5087640,87.3544400,NO2,12,70,27
India,West_Bengal,Durgapur,"Sidhu Kanhu Indoor Stadium, Durgapur - WBPCB",21-05-2024 02:00:00,23.5404352,87.2892225,SO2,17,39,26
India,West_Bengal,Haldia,"Priyambada Housing Estate, Haldia - WBPCB",21-05-2024 02:00:00,22.06047,88.109737,NO2,11,22,15
India,West_Bengal,Howrah,"Belur Math, Howrah - WBPCB",21-05-2024 02:00:00,22.629801,88.352017,OZONE,11,42,18
India,West_Bengal,Howrah,"Padmapukur, Howrah - WBPCB",21-05-2024 02:00:00,22.5687319,88.2797276,PM2.5,24,72,35
India,West_Bengal,Kolkata,"Ballygunge, Kolkata - WBPCB",21-05-2024 02:00:00,22.5367507,88.3638022,NH3,3,7,5
India,West_Bengal,Kolkata,"Bidhannagar, Kolkata - WBPCB",21-05-2024 02:00:00,22.58157048,88.41002457,PM10,12,34,21
India,West_Bengal,Kolkata,"Bidhannagar, Kolkata - WBPCB",21-05-2024 02:00:00,22.58157048,88.41002457,NO2,16,38,21
India,West_Bengal,Kolkata,"Fort William, Kolkata - WBPCB",21-05-2024 02:00:00,22.556640,88.342674,NO2,12,59,28
India,West_Bengal,Kolkata,"Fort William, Kolkata - WBPCB",21-05-2024 02:00:00,22.556640,88.342674,CO,11,26,22
India,West_Bengal,Kolkata,"Rabindra Bharati University, Kolkata - WBPCB",21-05-2024 02:00:00,22.627847,88.380669,CO,20,36,27
India,West_Bengal,Siliguri,"Ward-32 Bapupara, Siliguri - WBPCB",21-05-2024 02:00:00,26.6879226,88.4152495,SO2,6,8,7
India,West_Bengal,Siliguri,"Ward-32 Bapupara, Siliguri - WBPCB",21-05-2024 02:00:00,26.6879226,88.4152495,OZONE,16,52,25
India,Andhra_Pradesh,Anantapur,"Gulzarpet, Anantapur - APPCB",21-05-2024 02:00:00,14.675886,77.593027,OZONE,1,24,15
India,Andhra_Pradesh,Kadapa,"Yerramukkapalli, Kadapa - APPCB",21-05-2024 02:00:00,14.465052,78.824187,NO2,NA,NA,NA
India,Andhra_Pradesh,Kadapa,"Yerramukkapalli, Kadapa - APPCB",21-05-2024 02:00:00,14.465052,78.824187,OZONE,10,10,10
India,Andhra_Pradesh,Rajamahendravaram,"Anand Kala Kshetram, Rajamahendravaram - APPCB",21-05-2024 02:00:00,16.9872867,81.7363176,NO2,9,35,22
India,Andhra_Pradesh,Tirupati,"Tirumala, Tirupati - APPCB",21-05-2024 02:00:00,13.67,79.35,NH3,1,1,1
India,Andhra_Pradesh,Tirupati,"Tirumala, Tirupati - APPCB",21-05-2024 02:00:00,13.67,79.35,OZONE,7,30,15
India,Andhra_Pradesh,Tirupati,"Vaikuntapuram, Tirupati - APPCB",21-05-2024 02:00:00,13.615387,79.409230,PM10,NA,NA,NA
India,Andhra_Pradesh,Tirupati,"Vaikuntapuram, Tirupati - APPCB",21-05-2024 02:00:00,13.615387,79.409230,NH3,NA,NA,NA
India,Andhra_Pradesh,Vijayawada,"HB Colony, Vijayawada - APPCB",21-05-2024 02:00:00,16.536107,80.594233,SO2,5,11,7
India,Andhra_Pradesh,Vijayawada,"Kanuru, Vijayawada - APPCB",21-05-2024 02:00:00,16.486692,80.699436,NO2,20,22,21
India,Andhra_Pradesh,Vijayawada,"Kanuru, Vijayawada - APPCB",21-05-2024 02:00:00,16.486692,80.699436,OZONE,29,29,29
India,Andhra_Pradesh,Vijayawada,"Rajiv Gandhi Park, Vijayawada - APPCB",21-05-2024 02:00:00,16.509717,80.612222,PM2.5,32,73,47
India,Andhra_Pradesh,Vijayawada,"Rajiv Gandhi Park, Vijayawada - APPCB",21-05-2024 02:00:00,16.509717,80.612222,NO2,26,37,32
India,Andhra_Pradesh,Vijayawada,"Rajiv Gandhi Park, Vijayawada - APPCB",21-05-2024 02:00:00,16.509717,80.612222,CO,36,44,41
India,Andhra_Pradesh,Visakhapatnam,"GVM Corporation, Visakhapatnam - APPCB",21-05-2024 02:00:00,17.72,83.3,NO2,14,40,29
India,Andhra_Pradesh,Visakhapatnam,"GVM Corporation, Visakhapatnam - APPCB",21-05-2024 02:00:00,17.72,83.3,OZONE,8,93,41
India,Assam,Guwahati,"IITG, Guwahati - PCBA",21-05-2024 02:00:00,26.2028636,91.70046436,PM10,17,116,47
India,Assam,Guwahati,"IITG, Guwahati - PCBA",21-05-2024 02:00:00,26.2028636,91.70046436,OZONE,9,35,15
India,Assam,Guwahati,"Pan Bazaar, Guwahati - PCBA",21-05-2024 02:00:00,26.187500,91.744194,SO2,NA,NA,NA
India,Assam,Nagaon,"Christianpatty, Nagaon - PCBA",21-05-2024 02:00:00,26.349082,92.68449,PM10,62,112,77
India,Assam,Nagaon,"Christianpatty, Nagaon - PCBA",21-05-2024 02:00:00,26.349082,92.68449,NH3,1,2,2
India,Assam,Nalbari,"Bata Chowk, Nalbari - PCBA",21-05-2024 02:00:00,26.446912,91.439057,SO2,5,19,12
India,Assam,Nalbari,"Bata Chowk, Nalbari - PCBA",21-05-2024 02:00:00,26.446912,91.439057,OZONE,4,12,8
India,Assam,Silchar,"Tarapur, Silchar - PCBA",21-05-2024 02:00:00,24.82827,92.79525,SO2,5,13,8
India,Assam,Sivasagar,"Girls College, Sivasagar - PCBA",21-05-2024 02:00:00,26.987634,94.636574,NO2,8,14,10
India,Assam,Sivasagar,"Girls College, Sivasagar - PCBA",21-05-2024 02:00:00,26.987634,94.636574,OZONE,1,20,4
India,Bihar,Arrah,"New DM Office, Arrah - BSPCB",21-05-2024 02:00:00,25.5626095,84.663264,SO2,1,32,14
India,Bihar,Aurangabad,"Gurdeo Nagar, Aurangabad - BSPCB",21-05-2024 02:00:00,24.75746,84.366208,PM2.5,NA,NA,NA
India,Bihar,Aurangabad,"Gurdeo Nagar, Aurangabad - BSPCB",21-05-2024 02:00:00,24.75746,84.366208,NH3,7,27,12
India,Bihar,Aurangabad,"Gurdeo Nagar, Aurangabad - BSPCB",21-05-2024 02:00:00,24.75746,84.366208,SO2,10,23,17
India,Bihar,Bettiah,"Kamalnath Nagar, Bettiah - BSPCB",21-05-2024 02:00:00,26.80365,84.51954,PM10,NA,NA,NA
India,Bihar,Bettiah,"Kamalnath Nagar, Bettiah - BSPCB",21-05-2024 02:00:00,26.80365,84.51954,NO2,26,40,30
India,Bihar,Bettiah,"Kamalnath Nagar, Bettiah - BSPCB",21-05-2024 02:00:00,26.80365,84.51954,NH3,6,51,26
India,Bihar,Bettiah,"Kamalnath Nagar, Bettiah - BSPCB",21-05-2024 02:00:00,26.80365,84.51954,OZONE,2,14,4
India,Bihar,Bhagalpur,"DM Office_Kachari Chowk, Bhagalpur - BSPCB",21-05-2024 02:00:00,25.251013,86.989001,PM10,48,111,79
India,Bihar,Bhagalpur,"DM Office_Kachari Chowk, Bhagalpur - BSPCB",21-05-2024 02:00:00,25.251013,86.989001,NH3,3,9,6
India,Bihar,Bhagalpur,"DM Office_Kachari Chowk, Bhagalpur - BSPCB",21-05-2024 02:00:00,25.251013,86.989001,OZONE,40,58,47
India,Bihar,Bhagalpur,"Mayaganj, Bhagalpur - BSPCB",21-05-2024 02:00:00,25.265194,87.012947,NH3,7,9,8
India,Bihar,Bhagalpur,"Mayaganj, Bhagalpur - BSPCB",21-05-2024 02:00:00,25.265194,87.012947,SO2,11,12,12
India,Bihar,Bihar Sharif,"D M Colony, Bihar Sharif - BSPCB",21-05-2024 02:00:00,25.204762,85.514960,PM10,37,181,96
India,Bihar,Buxar,"Charitra Van, Buxar - BSPCB (Formerly known as Central Jail)",21-05-2024 02:00:00,25.567520,83.966379,CO,48,73,64
India,Bihar,Gaya,"Collectorate, Gaya - BSPCB",21-05-2024 02:00:00,24.7955,84.9994,OZONE,56,99,64
India,Bihar,Gaya,"Kareemganj, Gaya - BSPCB",21-05-2024 02:00:00,24.792403,84.992416,SO2,4,10,7
India,Bihar,Gaya,"SFTI Kusdihra, Gaya - BSPCB",21-05-2024 02:00:00,24.762518,84.982348,NO2,16,48,25
India,Bihar,Gaya,"SFTI Kusdihra, Gaya - BSPCB",21-05-2024 02:00:00,24.762518,84.982348,SO2,8,10,9
India,Bihar,Kishanganj,"SDM Office_Khagra, Kishanganj - BSPCB",21-05-2024 02:00:00,26.0881305,87.93840336,PM10,NA,NA,NA
India,Bihar,Kishanganj,"SDM Office_Khagra, Kishanganj - BSPCB",21-05-2024 02:00:00,26.0881305,87.93840336,OZONE,18,49,18
India,Bihar,Motihari,"Gandak Colony, Motihari - BSPCB",21-05-2024 02:00:00,26.63086,84.90051,PM10,36,92,57
India,Bihar,Motihari,"Gandak Colony, Motihari - BSPCB",21-05-2024 02:00:00,26.63086,84.90051,SO2,10,13,11
India,Bihar,Munger,"Town Hall, Munger - BSPCB",21-05-2024 02:00:00,25.376776,86.471523,SO2,9,26,20
India,Bihar,Munger,"Town Hall, Munger - BSPCB",21-05-2024 02:00:00,25.376776,86.471523,CO,38,103,89
India,Bihar,Muzaffarpur,"Buddha Colony, Muzaffarpur - BSPCB",21-05-2024 02:00:00,26.11442,85.39813,SO2,4,8,6
India,Bihar,Muzaffarpur,"Buddha Colony, Muzaffarpur - BSPCB",21-05-2024 02:00:00,26.11442,85.39813,CO,16,38,26
India,Bihar,Muzaffarpur,"MIT-Daudpur Kothi, Muzaffarpur - BSPCB",21-05-2024 02:00:00,26.1403345,85.3650192,PM10,36,95,61
India,Bihar,Patna,"DRM Office Danapur, Patna - BSPCB",21-05-2024 02:00:00,25.586562,85.043586,PM2.5,39,249,131
India,Bihar,Patna,"DRM Office Danapur, Patna - BSPCB",21-05-2024 02:00:00,25.586562,85.043586,PM10,87,402,140
India,Bihar,Patna,"DRM Office Danapur, Patna - BSPCB",21-05-2024 02:00:00,25.586562,85.043586,CO,21,40,31
India,Bihar,Patna,"Govt. High School Shikarpur, Patna - BSPCB",21-05-2024 02:00:00,25.592539,85.227158,PM10,106,444,182
India,Bihar,Patna,"Govt. High School Shikarpur, Patna - BSPCB",21-05-2024 02:00:00,25.592539,85.227158,NO2,21,24,22
India,Bihar,Patna,"IGSC Planetarium Complex, Patna - BSPCB",21-05-2024 02:00:00,25.610369,85.132568,CO,8,14,10
India,Bihar,Patna,"Rajbansi Nagar, Patna - BSPCB",21-05-2024 02:00:00,25.599486,85.113666,PM10,74,415,158
India,Bihar,Patna,"Rajbansi Nagar, Patna - BSPCB",21-05-2024 02:00:00,25.599486,85.113666,CO,10,40,32
India,Bihar,Patna,"Rajbansi Nagar, Patna - BSPCB",21-05-2024 02:00:00,25.599486,85.113666,OZONE,2,87,47
India,Bihar,Patna,"Samanpura, Patna - BSPCB",21-05-2024 02:00:00,25.596727,85.085624,CO,46,65,58
India,Bihar,Patna,"Samanpura, Patna - BSPCB",21-05-2024 02:00:00,25.596727,85.085624,OZONE,3,122,91
India,Bihar,Purnia,"Mariam Nagar, Purnia - BSPCB",21-05-2024 02:00:00,25.366336,87.117468,CO,36,101,90
India,Bihar,Rajgir,"Dangi Tola, Rajgir - BSPCB",21-05-2024 02:00:00,25.03280,85.41948,NO2,16,18,17
India,Bihar,Rajgir,"Dangi Tola, Rajgir - BSPCB",21-05-2024 02:00:00,25.03280,85.41948,OZONE,32,39,34
India,Bihar,Saharsa,"Police Line, Saharsa - BSPCB",21-05-2024 02:00:00,25.892357,86.590325,NH3,9,9,9
India,Bihar,Samastipur,"DM Office_Kasipur, Samastipur - BSPCB",21-05-2024 02:00:00,25.859655,85.77944,NO2,NA,NA,NA
India,Bihar,Samastipur,"DM Office_Kasipur, Samastipur - BSPCB",21-05-2024 02:00:00,25.859655,85.77944,SO2,NA,NA,NA
India,Bihar,Sasaram,"Dada Peer, Sasaram - BSPCB",21-05-2024 02:00:00,24.952822,84.002396,NO2,12,102,50
India,Bihar,Siwan,"Chitragupta Nagar, Siwan - BSPCB",21-05-2024 02:00:00,26.2271665,84.3570427,SO2,NA,NA,NA
India,Chandigarh,Chandigarh,"Sector 22, Chandigarh - CPCC",21-05-2024 02:00:00,30.735567,76.775714,PM10,59,203,120
India,Chandigarh,Chandigarh,"Sector 22, Chandigarh - CPCC",21-05-2024 02:00:00,30.735567,76.775714,OZONE,5,242,78
India,Chandigarh,Chandigarh,"Sector-25, Chandigarh - CPCC",21-05-2024 02:00:00,30.751462,76.762879,NH3,9,31,17
India,Chandigarh,Chandigarh,"Sector-25, Chandigarh - CPCC",21-05-2024 02:00:00,30.751462,76.762879,SO2,7,17,11
India,Chandigarh,Chandigarh,"Sector-53, Chandigarh - CPCC",21-05-2024 02:00:00,30.719859,76.738637,NO2,12,123,49
India,Chandigarh,Chandigarh,"Sector-53, Chandigarh - CPCC",21-05-2024 02:00:00,30.719859,76.738637,NH3,4,7,5
India,Chhattisgarh,Bhilai,"32Bungalows, Bhilai - CECB",21-05-2024 02:00:00,21.194815,81.314770,CO,10,30,24
India,Chhattisgarh,Bhilai,"Hathkhoj, Bhilai - CECB",21-05-2024 02:00:00,21.224231,81.408350,PM2.5,2,84,32
India,Chhattisgarh,Bhilai,"Hathkhoj, Bhilai - CECB",21-05-2024 02:00:00,21.224231,81.408350,CO,8,116,24
India,Chhattisgarh,Bilaspur,"Mangala, Bilaspur - NTPC",21-05-2024 02:00:00,22.08815,82.13737,NO2,13,18,16
India,Chhattisgarh,Korba,"Rampur, Korba - CECB",21-05-2024 02:00:00,22.368195,82.746431,NO2,26,41,37
India,Chhattisgarh,Korba,"Rampur, Korba - CECB",21-05-2024 02:00:00,22.368195,82.746431,NH3,1,1,1
India,Chhattisgarh,Korba,"Rampur, Korba - CECB",21-05-2024 02:00:00,22.368195,82.746431,SO2,3,51,14
India,Chhattisgarh,Korba,"Urja Nagar, Korba - CECB",21-05-2024 02:00:00,22.348441,82.549611,NO2,55,69,63
India,Chhattisgarh,Korba,"Urja Nagar, Korba - CECB",21-05-2024 02:00:00,22.348441,82.549611,SO2,1,4,3
India,Chhattisgarh,Milupara,"Govt. Higher Secondary School, Milupara - CECB",21-05-2024 02:00:00,22.1910172,83.5197009,NH3,NA,NA,NA
India,Chhattisgarh,Raipur,"AIIMS, Raipur - CECB",21-05-2024 02:00:00,21.258815,81.578979,PM10,NA,NA,NA
India,Chhattisgarh,Raipur,"AIIMS, Raipur - CECB",21-05-2024 02:00:00,21.258815,81.578979,NH3,NA,NA,NA
India,Chhattisgarh,Raipur,"AIIMS, Raipur - CECB",21-05-2024 02:00:00,21.258815,81.578979,SO2,NA,NA,NA
India,Chhattisgarh,Raipur,"Bhatagaon New ISBT, Raipur - CECB",21-05-2024 02:00:00,21.219665,81.630094,SO2,1,3,2
India,Chhattisgarh,Raipur,"Krishak Nagar, Raipur - CECB",21-05-2024 02:00:00,21.237755,81.705301,PM10,26,82,38
India,Chhattisgarh,Raipur,"Krishak Nagar, Raipur - CECB",21-05-2024 02:00:00,21.237755,81.705301,NO2,16,16,16
India,Chhattisgarh,Raipur,"Krishak Nagar, Raipur - CECB",21-05-2024 02:00:00,21.237755,81.705301,CO,20,44,29
India,Chhattisgarh,Raipur,"Siltara Phase-II, Raipur - CECB",21-05-2024 02:00:00,21.371751,81.664929,CO,16,73,35
India,Chhattisgarh,Raipur,"Siltara Phase-II, Raipur - CECB",21-05-2024 02:00:00,21.371751,81.664929,OZONE,4,42,20
India,Chhattisgarh,Tumidih,"OP Jindal Industrial Park, Tumidih - CECB",21-05-2024 02:00:00,22.06631475,83.33820077,NO2,NA,NA,NA
India,Chhattisgarh,Tumidih,"OP Jindal Industrial Park, Tumidih - CECB",21-05-2024 02:00:00,22.06631475,83.33820077,SO2,NA,NA,NA
India,Chhattisgarh,Tumidih,"OP Jindal Industrial Park, Tumidih - CECB",21-05-2024 02:00:00,22.06631475,83.33820077,CO,18,38,26
India,Delhi,Delhi,"Anand Vihar, Delhi - DPCC",21-05-2024 02:00:00,28.647622,77.3158090,OZONE,8,90,31
India,Delhi,Delhi,"Ashok Vihar, Delhi - DPCC",21-05-2024 02:00:00,28.695381,77.181665,SO2,18,53,35
India,Delhi,Delhi,"Bawana, Delhi - DPCC",21-05-2024 02:00:00,28.776200,77.051074,NO2,4,44,21
India,Delhi,Delhi,"Bawana, Delhi - DPCC",21-05-2024 02:00:00,28.776200,77.051074,SO2,14,103,42
India,Delhi,Delhi,"Burari Crossing, Delhi - IMD",21-05-2024 02:00:00,28.7256504,77.2011573,PM2.5,NA,NA,NA
India,Delhi,Delhi,"Burari Crossing, Delhi - IMD",21-05-2024 02:00:00,28.7256504,77.2011573,CO,2,286,26
India,Delhi,Delhi,"CRRI Mathura Road, Delhi - IMD",21-05-2024 02:00:00,28.5512005,77.2735737,PM2.5,52,334,201
India,Delhi,Delhi,"CRRI Mathura Road, Delhi - IMD",21-05-2024 02:00:00,28.5512005,77.2735737,OZONE,3,96,18
India,Delhi,Delhi,"Chandni Chowk, Delhi - IITM",21-05-2024 02:00:00,28.656756,77.227234,NO2,10,52,18
India,Delhi,Delhi,"Chandni Chowk, Delhi - IITM",21-05-2024 02:00:00,28.656756,77.227234,OZONE,10,14,11
India,Delhi,Delhi,"DTU, Delhi - CPCB",21-05-2024 02:00:00,28.7500499,77.1112615,PM10,141,500,278
India,Delhi,Delhi,"DTU, Delhi - CPCB",21-05-2024 02:00:00,28.7500499,77.1112615,NH3,28,78,48
India,Delhi,Delhi,"DTU, Delhi - CPCB",21-05-2024 02:00:00,28.7500499,77.1112615,CO,6,68,30
India,Delhi,Delhi,"DTU, Delhi - CPCB",21-05-2024 02:00:00,28.7500499,77.1112615,OZONE,28,58,32
India,Delhi,Delhi,"Dr. Karni Singh Shooting Range, Delhi - DPCC",21-05-2024 02:00:00,28.498571,77.264840,NH3,5,12,7
India,Delhi,Delhi,"Dr. Karni Singh Shooting Range, Delhi - DPCC",21-05-2024 02:00:00,28.498571,77.264840,SO2,20,59,38
India,Delhi,Delhi,"Dr. Karni Singh Shooting Range, Delhi - DPCC",21-05-2024 02:00:00,28.498571,77.264840,CO,27,108,84
India,Delhi,Delhi,"Dwarka-Sector 8, Delhi - DPCC ",21-05-2024 02:00:00,28.5710274,77.0719006,PM10,157,499,271
India,Delhi,Delhi,"Dwarka-Sector 8, Delhi - DPCC ",21-05-2024 02:00:00,28.5710274,77.0719006,SO2,1,34,17
India,Delhi,Delhi,"ITO, Delhi - CPCB",21-05-2024 02:00:00,28.628624,77.241060,NO2,7,112,55
India,Delhi,Delhi,"Jahangirpuri, Delhi - DPCC",21-05-2024 02:00:00,28.732820,77.170633,NO2,6,77,35
India,Delhi,Delhi,"Jawaharlal Nehru Stadium, Delhi - DPCC",21-05-2024 02:00:00,28.580280,77.233829,PM2.5,23,280,93
India,Delhi,Delhi,"Jawaharlal Nehru Stadium, Delhi - DPCC",21-05-2024 02:00:00,28.580280,77.233829,SO2,12,68,33
India,Delhi,Delhi,"Lodhi Road, Delhi - IITM",21-05-2024 02:00:00,28.588333,77.221667,SO2,18,50,26
India,Delhi,Delhi,"Lodhi Road, Delhi - IMD",21-05-2024 02:00:00,28.5918245,77.2273074,NO2,8,37,21
India,Delhi,Delhi,"Major Dhyan Chand National Stadium, Delhi - DPCC",21-05-2024 02:00:00,28.611281,77.237738,NO2,18,147,80
India,Delhi,Delhi,"Mandir Marg, Delhi - DPCC",21-05-2024 02:00:00,28.636429,77.201067,PM2.5,NA,NA,NA
India,Delhi,Delhi,"NSIT Dwarka, Delhi - CPCB",21-05-2024 02:00:00,28.60909,77.0325413,NH3,11,12,11
India,Delhi,Delhi,"NSIT Dwarka, Delhi - CPCB",21-05-2024 02:00:00,28.60909,77.0325413,SO2,1,60,16
India,Delhi,Delhi,"NSIT Dwarka, Delhi - CPCB",21-05-2024 02:00:00,28.60909,77.0325413,CO,26,69,48
India,Delhi,Delhi,"Najafgarh, Delhi - DPCC",21-05-2024 02:00:00,28.570173,76.933762,PM10,101,421,182
India,Delhi,Delhi,"Najafgarh, Delhi - DPCC",21-05-2024 02:00:00,28.570173,76.933762,OZONE,19,102,49
India,Delhi,Delhi,"Narela, Delhi - DPCC",21-05-2024 02:00:00,28.822836,77.101981,OZONE,6,163,67
India,Delhi,Delhi,"New Moti Bagh, Delhi - MHUA",21-05-2024 02:00:00,28.57834,77.18400,PM2.5,46,348,162
India,Delhi,Delhi,"Okhla Phase-2, Delhi - DPCC",21-05-2024 02:00:00,28.530785,77.271255,SO2,5,16,11
India,Delhi,Delhi,"Okhla Phase-2, Delhi - DPCC",21-05-2024 02:00:00,28.530785,77.271255,OZONE,4,196,28
India,Delhi,Delhi,"Punjabi Bagh, Delhi - DPCC",21-05-2024 02:00:00,28.674045,77.131023,NO2,47,120,75
India,Delhi,Delhi,"Pusa, Delhi - DPCC",21-05-2024 02:00:00,28.639652,77.146275,PM10,151,428,239
India,Delhi,Delhi,"Pusa, Delhi - DPCC",21-05-2024 02:00:00,28.639652,77.146275,NH3,6,9,7
India,Delhi,Delhi,"R K Puram, Delhi - DPCC",21-05-2024 02:00:00,28.563262,77.186937,NO2,31,217,111
India,Delhi,Delhi,"Rohini, Delhi - DPCC",21-05-2024 02:00:00,28.732528,77.119920,CO,16,108,55
India,Delhi,Delhi,"Shadipur, Delhi - CPCB",21-05-2024 02:00:00,28.6514781,77.1473105,PM2.5,213,491,346
India,Delhi,Delhi,"Shadipur, Delhi - CPCB",21-05-2024 02:00:00,28.6514781,77.1473105,CO,42,101,77
India,Delhi,Delhi,"Sirifort, Delhi - CPCB",21-05-2024 02:00:00,28.5504249,77.2159377,PM2.5,60,342,171
India,Delhi,Delhi,"Sirifort, Delhi - CPCB",21-05-2024 02:00:00,28.5504249,77.2159377,PM10,130,419,226
India,Delhi,Delhi,"Sonia Vihar, Delhi - DPCC",21-05-2024 02:00:00,28.710508,77.249485,PM2.5,50,393,176
India,Delhi,Delhi,"Sonia Vihar, Delhi - DPCC",21-05-2024 02:00:00,28.710508,77.249485,SO2,10,36,21
India,Delhi,Delhi,"Sri Aurobindo Marg, Delhi - DPCC",21-05-2024 02:00:00,28.531346,77.190156,PM2.5,49,260,103
India,Delhi,Delhi,"Sri Aurobindo Marg, Delhi - DPCC",21-05-2024 02:00:00,28.531346,77.190156,NH3,6,11,8
India,Delhi,Delhi,"Sri Aurobindo Marg, Delhi - DPCC",21-05-2024 02:00:00,28.531346,77.190156,OZONE,1,99,23
India,Delhi,Delhi,"Vivek Vihar, Delhi - DPCC",21-05-2024 02:00:00,28.672342,77.315260,PM2.5,56,339,190
India,Delhi,Delhi,"Vivek Vihar, Delhi - DPCC",21-05-2024 02:00:00,28.672342,77.315260,SO2,27,72,50
India,Delhi,Delhi,"Vivek Vihar, Delhi - DPCC",21-05-2024 02:00:00,28.672342,77.315260,OZONE,1,182,35
India,Delhi,Delhi,"Wazirpur, Delhi - DPCC",21-05-2024 02:00:00,28.699793,77.165453,SO2,12,54,31
India,Delhi,Delhi,"Wazirpur, Delhi - DPCC",21-05-2024 02:00:00,28.699793,77.165453,OZONE,1,152,39
India,Gujarat,Ahmedabad,"Chandkheda, Ahmedabad - IITM",21-05-2024 02:00:00,23.107969,72.574648,NH3,11,18,15
India,Gujarat,Ahmedabad,"Gyaspur, Ahmedabad - IITM",21-05-2024 02:00:00,22.977134,72.553024,SO2,20,27,24
India,Gujarat,Ahmedabad,"Maninagar, Ahmedabad - GPCB",21-05-2024 02:00:00,23.002657,72.591912,NO2,31,89,45
India,Gujarat,Ahmedabad,"Rakhial, Ahmedabad - IITM",21-05-2024 02:00:00,23.016834,72.625775,PM10,NA,NA,NA
India,Gujarat,Ahmedabad,"Rakhial, Ahmedabad - IITM",21-05-2024 02:00:00,23.016834,72.625775,OZONE,6,86,27
India,Gujarat,Ahmedabad,"SVPI Airport Hansol, Ahmedabad - IITM",21-05-2024 02:00:00,23.076793,72.627874,PM2.5,24,209,79
India,Gujarat,Ahmedabad,"SVPI Airport Hansol, Ahmedabad - IITM",21-05-2024 02:00:00,23.076793,72.627874,SO2,4,12,7
India,Gujarat,Ahmedabad,"Sardar Vallabhbhai Patel Stadium, Ahmedabad - IITM",21-05-2024 02:00:00,23.043070,72.562968,CO,15,47,33
India,Gujarat,Ankleshwar,"GIDC, Ankleshwar - GPCB",21-05-2024 02:00:00,21.613267,73.010555,SO2,3,39,19
India,Gujarat,Vapi,"Phase-1 GIDC, Vapi - GPCB",21-05-2024 02:00:00,20.362421,72.918013,SO2,44,46,45
India,Haryana,Ambala,"Patti Mehar, Ambala - HSPCB",21-05-2024 02:00:00,30.379589,76.778328,NO2,7,20,14
India,Haryana,Ambala,"Patti Mehar, Ambala - HSPCB",21-05-2024 02:00:00,30.379589,76.778328,NH3,5,12,9
India,Haryana,Bahadurgarh,"Arya Nagar, Bahadurgarh - HSPCB",21-05-2024 02:00:00,28.6701,76.9254,NO2,NA,NA,NA
India,Haryana,Bhiwani,"H.B. Colony, Bhiwani - HSPCB",21-05-2024 02:00:00,28.806223,76.141105,NH3,3,6,6
India,Haryana,Bhiwani,"H.B. Colony, Bhiwani - HSPCB",21-05-2024 02:00:00,28.806223,76.141105,CO,1,119,45
India,Haryana,Bhiwani,"H.B. Colony, Bhiwani - HSPCB",21-05-2024 02:00:00,28.806223,76.141105,OZONE,8,47,11
India,Haryana,Charkhi Dadri,"Mini Secretariat, Charkhi Dadri - HSPCB",21-05-2024 02:00:00,28.593883,76.270653,PM2.5,57,184,100
India,Haryana,Dharuhera,"Municipal Corporation Office, Dharuhera -  HSPCB",21-05-2024 02:00:00,28.206800,76.799700,OZONE,6,38,21
India,Haryana,Faridabad,"Sector 11, Faridabad - HSPCB",21-05-2024 02:00:00,28.376058,77.315741,NO2,30,33,31
India,Haryana,Faridabad,"Sector 11, Faridabad - HSPCB",21-05-2024 02:00:00,28.376058,77.315741,CO,32,110,81
India,Haryana,Faridabad,"Sector 30, Faridabad - HSPCB",21-05-2024 02:00:00,28.4417,77.3217,PM2.5,NA,NA,NA
India,Haryana,Faridabad,"Sector 30, Faridabad - HSPCB",21-05-2024 02:00:00,28.4417,77.3217,OZONE,57,61,59
India,Haryana,Faridabad,"Sector- 16A, Faridabad - HSPCB",21-05-2024 02:00:00,28.4088421,77.3099081,PM2.5,33,296,112
India,Haryana,Faridabad,"Sector- 16A, Faridabad - HSPCB",21-05-2024 02:00:00,28.4088421,77.3099081,SO2,3,26,17
India,Haryana,Fatehabad,"Huda Sector, Fatehabad - HSPCB",21-05-2024 02:00:00,29.503664,75.467934,PM2.5,NA,NA,NA
India,Haryana,Fatehabad,"Huda Sector, Fatehabad - HSPCB",21-05-2024 02:00:00,29.503664,75.467934,PM10,NA,NA,NA
India,Haryana,Fatehabad,"Huda Sector, Fatehabad - HSPCB",21-05-2024 02:00:00,29.503664,75.467934,SO2,NA,NA,NA
India,Haryana,Gurugram,"Sector-51, Gurugram - HSPCB",21-05-2024 02:00:00,28.4227,77.0667,PM2.5,3,438,228
India,Haryana,Gurugram,"Sector-51, Gurugram - HSPCB",21-05-2024 02:00:00,28.4227,77.0667,PM10,3,406,141
India,Haryana,Gurugram,"Sector-51, Gurugram - HSPCB",21-05-2024 02:00:00,28.4227,77.0667,CO,18,108,72
India,Haryana,Gurugram,"Teri Gram, Gurugram - HSPCB",21-05-2024 02:00:00,28.4275,77.1465,PM2.5,150,346,290
India,Haryana,Gurugram,"Teri Gram, Gurugram - HSPCB",21-05-2024 02:00:00,28.4275,77.1465,CO,6,37,24
India,Haryana,Gurugram,"Teri Gram, Gurugram - HSPCB",21-05-2024 02:00:00,28.4275,77.1465,OZONE,30,75,48
India,Haryana,Hisar,"Urban Estate-II, Hisar - HSPCB",21-05-2024 02:00:00,29.140560,75.744941,PM10,105,222,156
India,Haryana,Hisar,"Urban Estate-II, Hisar - HSPCB",21-05-2024 02:00:00,29.140560,75.744941,CO,25,50,34
India,Haryana,Kaithal,"Rishi Nagar, Kaithal - HSPCB",21-05-2024 02:00:00,29.8006,76.4155,PM10,143,198,169
India,Haryana,Karnal,"Sector-12, Karnal - HSPCB",21-05-2024 02:00:00,29.695300,77.002700,NH3,10,13,11
India,Haryana,Karnal,"Sector-12, Karnal - HSPCB",21-05-2024 02:00:00,29.695300,77.002700,OZONE,28,45,31
India,Haryana,Kurukshetra,"Sector-7, Kurukshetra - HSPCB",21-05-2024 02:00:00,29.966942,76.875879,CO,16,47,24
India,Haryana,Mandikhera,"General Hospital, Mandikhera - HSPCB",21-05-2024 02:00:00,27.9002,76.9938,NH3,16,19,18
India,Haryana,Mandikhera,"General Hospital, Mandikhera - HSPCB",21-05-2024 02:00:00,27.9002,76.9938,OZONE,25,31,27
India,Haryana,Narnaul,"Shastri Nagar, Narnaul - HSPCB",21-05-2024 02:00:00,28.060249,76.113115,OZONE,45,75,72
India,Haryana,Palwal,"Shyam Nagar, Palwal - HSPCB",21-05-2024 02:00:00,28.1485564,77.3320667,CO,20,38,32
India,Haryana,Panchkula,"Sector-6, Panchkula - HSPCB ",21-05-2024 02:00:00,30.7057778,76.8531805555555,OZONE,35,57,52
India,Haryana,Panipat,"Sector-18, Panipat - HSPCB",21-05-2024 02:00:00,29.432304,76.972765,OZONE,30,30,30
India,Haryana,Rohtak,"MD University, Rohtak - HSPCB",21-05-2024 02:00:00,28.52123,76.37138,CO,27,121,71
India,Haryana,Sirsa,"F-Block, Sirsa - HSPCB",21-05-2024 02:00:00,29.536400,75.015800,PM10,NA,NA,NA
India,Haryana,Sonipat,"Murthal, Sonipat - HSPCB",21-05-2024 02:00:00,29.027200,77.062100,NO2,NA,NA,NA
India,Haryana,Sonipat,"Murthal, Sonipat - HSPCB",21-05-2024 02:00:00,29.027200,77.062100,NH3,NA,NA,NA
India,Haryana,Yamuna Nagar,"Gobind Pura, Yamuna Nagar - HSPCB",21-05-2024 02:00:00,30.1480566,77.2893471,NO2,11,21,16
India,Himachal Pradesh,Baddi,"HIMUDA Complex Phase-1, Baddi - HPPCB",21-05-2024 02:00:00,30.943887,76.801991,PM2.5,37,390,116
India,Jammu_and_Kashmir,Srinagar,"Rajbagh, Srinagar - JKSPCB",21-05-2024 02:00:00,34.066206,74.819820,PM2.5,NA,NA,NA
India,Jharkhand,Dhanbad,"Kalakusuma, Dhanbad - DMC",21-05-2024 02:00:00,23.811548,86.481238,PM2.5,NA,NA,NA
India,Jharkhand,Dhanbad,"Sardar Patel Nagar, Dhanbad - JSPCB",21-05-2024 02:00:00,23.80569,86.44268,PM2.5,NA,NA,NA
India,Jharkhand,Jorapokhar,"Tata Stadium, Jorapokhar - JSPCB",21-05-2024 02:00:00,23.707909,86.414670,NO2,NA,NA,NA
India,Karnataka,Bagalkot,"Vidayagiri, Bagalkot - KSPCB",21-05-2024 02:00:00,16.172806,75.659694,PM2.5,25,37,36
India,Karnataka,Belgaum,"Ramteerth Nagar, Belgaum - KSPCB",21-05-2024 02:00:00,15.888653,74.541751,SO2,9,9,9
India,Karnataka,Belgaum,"Ramteerth Nagar, Belgaum - KSPCB",21-05-2024 02:00:00,15.888653,74.541751,OZONE,19,20,20
India,Karnataka,Bengaluru,"Bapuji Nagar, Bengaluru - KSPCB",21-05-2024 02:00:00,12.951913,77.539784,PM2.5,3,82,33
India,Karnataka,Bengaluru,"Hebbal, Bengaluru - KSPCB",21-05-2024 02:00:00,13.029152,77.585901,SO2,16,22,19
India,Karnataka,Bengaluru,"Hombegowda Nagar, Bengaluru - KSPCB",21-05-2024 02:00:00,12.938539,77.590100,NO2,9,25,19
India,Karnataka,Bengaluru,"Jayanagar 5th Block, Bengaluru - KSPCB",21-05-2024 02:00:00,12.920984,77.584908,NO2,17,24,20
India,Karnataka,Bengaluru,"Jayanagar 5th Block, Bengaluru - KSPCB",21-05-2024 02:00:00,12.920984,77.584908,NH3,2,3,2
India,Karnataka,Bengaluru,"Kasturi Nagar, Bengaluru - KSPCB",21-05-2024 02:00:00,13.003872,77.664217,OZONE,3,37,14
India,Karnataka,Bengaluru,"Peenya, Bengaluru - CPCB",21-05-2024 02:00:00,13.0270199,77.494094,PM2.5,NA,NA,NA
India,Karnataka,Bengaluru,"Sanegurava Halli, Bengaluru - KSPCB",21-05-2024 02:00:00,12.990328,77.5431385,CO,4,34,13
India,Karnataka,Bengaluru,"Shivapura_Peenya, Bengaluru - KSPCB",21-05-2024 02:00:00,13.0246342,77.5080115,NO2,15,16,16
India,Karnataka,Bengaluru,"Shivapura_Peenya, Bengaluru - KSPCB",21-05-2024 02:00:00,13.0246342,77.5080115,SO2,1,6,2
India,Karnataka,Bengaluru,"Shivapura_Peenya, Bengaluru - KSPCB",21-05-2024 02:00:00,13.0246342,77.5080115,CO,18,50,24
India,Karnataka,Bengaluru,"Silk Board, Bengaluru - KSPCB",21-05-2024 02:00:00,12.917348,77.622813,CO,10,15,11
India,Karnataka,Bidar,"Naubad, Bidar - KSPCB",21-05-2024 02:00:00,17.930306,77.482194,NH3,2,3,3
India,Karnataka,Bidar,"Naubad, Bidar - KSPCB",21-05-2024 02:00:00,17.930306,77.482194,OZONE,10,36,26
India,Karnataka,Chamarajanagar,"Urban, Chamarajanagar - KSPCB",21-05-2024 02:00:00,11.55358,76.55521,PM2.5,16,42,29
India,Karnataka,Chamarajanagar,"Urban, Chamarajanagar - KSPCB",21-05-2024 02:00:00,11.55358,76.55521,NH3,1,3,2
India,Karnataka,Chikkaballapur,"Chikkaballapur Rural, Chikkaballapur - KSPCB",21-05-2024 02:00:00,13.428828,77.731418,PM10,9,50,25
India,Karnataka,Chikkaballapur,"Chikkaballapur Rural, Chikkaballapur - KSPCB",21-05-2024 02:00:00,13.428828,77.731418,SO2,12,22,18
India,Karnataka,Chikkaballapur,"Chikkaballapur Rural, Chikkaballapur - KSPCB",21-05-2024 02:00:00,13.428828,77.731418,CO,12,38,23
India,Karnataka,Chikkamagaluru,"Kalyana Nagara, Chikkamagaluru - KSPCB",21-05-2024 02:00:00,13.328028,75.797056,PM10,25,353,58
India,Karnataka,Davanagere,"Devaraj Urs Badavane, Davanagere - KSPCB",21-05-2024 02:00:00,14.475800,75.905200,NH3,1,2,1
India,Karnataka,Gadag,"Panchal Nagar, Gadag - KSPCB",21-05-2024 02:00:00,15.411456,75.638133,PM2.5,2,30,12
India,Karnataka,Hassan,"B.Katihalli, Hassan - KSPCB",21-05-2024 02:00:00,13.008556,76.125258,PM10,NA,NA,NA
India,Karnataka,Hassan,"B.Katihalli, Hassan - KSPCB",21-05-2024 02:00:00,13.008556,76.125258,NH3,4,15,6
India,Karnataka,Haveri,"Ashwini Nagar, Haveri - KSPCB",21-05-2024 02:00:00,14.791800,75.389600,NO2,21,55,33
India,Karnataka,Haveri,"Ashwini Nagar, Haveri - KSPCB",21-05-2024 02:00:00,14.791800,75.389600,SO2,14,15,14
India,Karnataka,Hubballi,"Deshpande Nagar, Hubballi - KSPCB",21-05-2024 02:00:00,15.351773,75.140726,PM10,NA,NA,NA
India,Karnataka,Hubballi,"Deshpande Nagar, Hubballi - KSPCB",21-05-2024 02:00:00,15.351773,75.140726,OZONE,NA,NA,NA
India,Karnataka,Hubballi,"Lingaraj Nagar, Hubballi - KSPCB",21-05-2024 02:00:00,15.3714823,75.1160168,PM10,39,66,54
India,Karnataka,Kalaburagi,"Lal Bahadur Shastri Nagar, Kalaburagi - KSPCB",21-05-2024 02:00:00,17.321993,76.822628,NH3,2,2,2
India,Karnataka,Kalaburagi,"Lal Bahadur Shastri Nagar, Kalaburagi - KSPCB",21-05-2024 02:00:00,17.321993,76.822628,SO2,9,19,15
India,Karnataka,Karwar,"KHB Colony, Karwar - KSPCB",21-05-2024 02:00:00,14.816666,74.141003,SO2,NA,NA,NA
India,Karnataka,Kolar,"Tamaka Ind. Area, Kolar - KSPCB",21-05-2024 02:00:00,13.1276288,78.1570122,OZONE,18,34,22
India,Karnataka,Koppal,"Diwator Nagar, Koppal - KSPCB",21-05-2024 02:00:00,15.347630,76.181767,CO,57,58,58
India,Karnataka,Madikeri,"Stuart Hill, Madikeri - KSPCB",21-05-2024 02:00:00,12.415911,75.735050,OZONE,18,28,24
India,Karnataka,Mangalore,"Kadri, Mangalore - KSPCB",21-05-2024 02:00:00,12.889250,74.853000,NO2,5,6,6
India,Karnataka,Mangalore,"Kadri, Mangalore - KSPCB",21-05-2024 02:00:00,12.889250,74.853000,OZONE,30,33,32
India,Karnataka,Mysuru,"Hebbal 1st Stage, Mysuru - KSPCB",21-05-2024 02:00:00,12.21041,76.37376,SO2,1,4,2
