country,state,city,station,last_update,latitude,longitude,pollutant_id,pollutant_min,pollutant_max,pollutant_avg
India,Andhra_Pradesh,Amaravati,"Secretariat, Amaravati - APPCB",13-01-2024 07:00:00,16.5150833,80.5181667,SO2,12,27,17
India,Andhra_Pradesh,Anantapur,"Gulzarpet, Anantapur - APPCB",13-01-2024 07:00:00,14.675886,77.593027,PM2.5,NA,NA,NA
India,Andhra_Pradesh,Chittoor,"Gangineni Cheruvu, Chittoor - APPCB",13-01-2024 07:00:00,13.204880,79.097889,NH3,1,4,2
India,Andhra_Pradesh,Chittoor,"Gangineni Cheruvu, Chittoor - APPCB",13-01-2024 07:00:00,13.204880,79.097889,OZONE,7,131,16
India,Andhra_Pradesh,Kadapa,"Yerramukkapalli, Kadapa - APPCB",13-01-2024 07:00:00,14.465052,78.824187,PM2.5,16,95,55
India,Andhra_Pradesh,Kadapa,"Yerramukkapalli, Kadapa - APPCB",13-01-2024 07:00:00,14.465052,78.824187,PM10,16,77,46
India,Andhra_Pradesh,Kadapa,"Yerramukkapalli, Kadapa - APPCB",13-01-2024 07:00:00,14.465052,78.824187,NO2,9,15,12
India,Andhra_Pradesh,Rajamahendravaram,"Anand Kala Kshetram, Rajamahendravaram - APPCB",13-01-2024 07:00:00,16.9872867,81.7363176,PM2.5,255,328,298
India,Andhra_Pradesh,Rajamahendravaram,"Anand Kala Kshetram, Rajamahendravaram - APPCB",13-01-2024 07:00:00,16.9872867,81.7363176,NO2,13,70,32
India,Andhra_Pradesh,Rajamahendravaram,"Anand Kala Kshetram, Rajamahendravaram - APPCB",13-01-2024 07:00:00,16.9872867,81.7363176,CO,2,117,34
India,Andhra_Pradesh,Tirupati,"Vaikuntapuram, Tirupati - APPCB",13-01-2024 07:00:00,13.615387,79.409230,CO,8,16,13
India,Andhra_Pradesh,Vijayawada,"HB Colony, Vijayawada - APPCB",13-01-2024 07:00:00,16.536107,80.594233,CO,24,26,25
India,Andhra_Pradesh,Vijayawada,"Kanuru, Vijayawada - APPCB",13-01-2024 07:00:00,16.486692,80.699436,CO,36,36,36
India,Andhra_Pradesh,Vijayawada,"Rajiv Gandhi Park, Vijayawada - APPCB",13-01-2024 07:00:00,16.509717,80.612222,PM2.5,64,88,76
India,Andhra_Pradesh,Visakhapatnam,"GVM Corporation, Visakhapatnam - APPCB",13-01-2024 07:00:00,17.72,83.3,SO2,9,23,13
India,Andhra_Pradesh,Visakhapatnam,"GVM Corporation, Visakhapatnam - APPCB",13-01-2024 07:00:00,17.72,83.3,CO,32,77,46
India,Arunachal_Pradesh,Naharlagun,"Naharlagun, Naharlagun - APSPCB",13-01-2024 07:00:00,27.103358,93.679645,PM2.5,52,304,139
India,Arunachal_Pradesh,Naharlagun,"Naharlagun, Naharlagun - APSPCB",13-01-2024 07:00:00,27.103358,93.679645,NO2,2,2,2
India,Assam,Byrnihat,"Central Academy for SFS, Byrnihat - PCBA",13-01-2024 07:00:00,26.071318,91.87488,PM10,115,470,186
India,Assam,Byrnihat,"Central Academy for SFS, Byrnihat - PCBA",13-01-2024 07:00:00,26.071318,91.87488,NO2,49,107,77
India,Assam,Byrnihat,"Central Academy for SFS, Byrnihat - PCBA",13-01-2024 07:00:00,26.071318,91.87488,CO,10,148,55
India,Assam,Guwahati,"Pan Bazaar, Guwahati - PCBA",13-01-2024 07:00:00,26.187500,91.744194,NO2,2,12,5
India,Assam,Guwahati,"Railway Colony, Guwahati - PCBA",13-01-2024 07:00:00,26.181742,91.78063,PM2.5,NA,NA,NA
India,Assam,Nagaon,"Christianpatty, Nagaon - PCBA",13-01-2024 07:00:00,26.349082,92.68449,PM2.5,140,364,245
India,Assam,Nalbari,"Bata Chowk, Nalbari - PCBA",13-01-2024 07:00:00,26.446912,91.439057,PM10,115,416,206
India,Assam,Nalbari,"Bata Chowk, Nalbari - PCBA",13-01-2024 07:00:00,26.446912,91.439057,OZONE,18,21,18
India,Assam,Silchar,"Tarapur, Silchar - PCBA",13-01-2024 07:00:00,24.82827,92.79525,NO2,22,35,31
India,Assam,Sivasagar,"Girls College, Sivasagar - PCBA",13-01-2024 07:00:00,26.987634,94.636574,NH3,2,3,2
India,Bihar,Arrah,"New DM Office, Arrah - BSPCB",13-01-2024 07:00:00,25.5626095,84.663264,SO2,14,21,18
India,Bihar,Arrah,"New DM Office, Arrah - BSPCB",13-01-2024 07:00:00,25.5626095,84.663264,CO,5,16,10
India,Bihar,Aurangabad,"Gurdeo Nagar, Aurangabad - BSPCB",13-01-2024 07:00:00,24.75746,84.366208,PM2.5,23,90,54
India,Bihar,Aurangabad,"Gurdeo Nagar, Aurangabad - BSPCB",13-01-2024 07:00:00,24.75746,84.366208,NO2,7,12,9
India,Bihar,Bettiah,"Kamalnath Nagar, Bettiah - BSPCB",13-01-2024 07:00:00,26.80365,84.51954,PM2.5,NA,NA,NA
India,Bihar,Bhagalpur,"DM Office_Kachari Chowk, Bhagalpur - BSPCB",13-01-2024 07:00:00,25.251013,86.989001,PM2.5,333,398,362
India,Bihar,Bhagalpur,"DM Office_Kachari Chowk, Bhagalpur - BSPCB",13-01-2024 07:00:00,25.251013,86.989001,PM10,167,287,218
India,Bihar,Bhagalpur,"DM Office_Kachari Chowk, Bhagalpur - BSPCB",13-01-2024 07:00:00,25.251013,86.989001,NH3,3,6,4
India,Bihar,Bhagalpur,"DM Office_Kachari Chowk, Bhagalpur - BSPCB",13-01-2024 07:00:00,25.251013,86.989001,CO,40,53,48
India,Bihar,Bhagalpur,"Mayaganj, Bhagalpur - BSPCB",13-01-2024 07:00:00,25.265194,87.012947,CO,7,12,9
India,Bihar,Bihar Sharif,"D M Colony, Bihar Sharif - BSPCB",13-01-2024 07:00:00,25.204762,85.514960,SO2,2,14,7
India,Bihar,Bihar Sharif,"D M Colony, Bihar Sharif - BSPCB",13-01-2024 07:00:00,25.204762,85.514960,CO,9,62,30
India,Bihar,Chhapra,"Darshan Nagar, Chhapra - BSPCB",13-01-2024 07:00:00,25.7808257,84.7446768,OZONE,1,2,1
India,Bihar,Gaya,"Collectorate, Gaya - BSPCB",13-01-2024 07:00:00,24.7955,84.9994,CO,36,54,51
India,Bihar,Hajipur,"Industrial Area, Hajipur - BSPCB",13-01-2024 07:00:00,25.697189,85.245900,NO2,9,24,18
India,Bihar,Hajipur,"Industrial Area, Hajipur - BSPCB",13-01-2024 07:00:00,25.697189,85.245900,CO,60,102,89
India,Bihar,Kishanganj,"SDM Office_Khagra, Kishanganj - BSPCB",13-01-2024 07:00:00,26.0881305,87.93840336,PM10,170,500,273
India,Bihar,Kishanganj,"SDM Office_Khagra, Kishanganj - BSPCB",13-01-2024 07:00:00,26.0881305,87.93840336,OZONE,15,47,29
India,Bihar,Manguraha,"Forest Rest House, Manguraha - BSPCB",13-01-2024 07:00:00,27.308328,84.531742,PM10,81,297,160
India,Bihar,Muzaffarpur,"MIT-Daudpur Kothi, Muzaffarpur - BSPCB",13-01-2024 07:00:00,26.1403345,85.3650192,NH3,7,16,8
India,Bihar,Muzaffarpur,"MIT-Daudpur Kothi, Muzaffarpur - BSPCB",13-01-2024 07:00:00,26.1403345,85.3650192,SO2,11,23,18
India,Bihar,Muzaffarpur,"MIT-Daudpur Kothi, Muzaffarpur - BSPCB",13-01-2024 07:00:00,26.1403345,85.3650192,OZONE,3,22,4
India,Bihar,Muzaffarpur,"Muzaffarpur Collectorate, Muzaffarpur - BSPCB",13-01-2024 07:00:00,26.1209,85.3647,OZONE,11,65,20
India,Bihar,Patna,"Govt. High School Shikarpur, Patna - BSPCB",13-01-2024 07:00:00,25.592539,85.227158,PM10,NA,NA,NA
India,Bihar,Patna,"Govt. High School Shikarpur, Patna - BSPCB",13-01-2024 07:00:00,25.592539,85.227158,NO2,7,63,19
India,Bihar,Patna,"Govt. High School Shikarpur, Patna - BSPCB",13-01-2024 07:00:00,25.592539,85.227158,SO2,1,89,9
India,Bihar,Patna,"IGSC Planetarium Complex, Patna - BSPCB",13-01-2024 07:00:00,25.610369,85.132568,PM2.5,112,363,214
India,Bihar,Patna,"Rajbansi Nagar, Patna - BSPCB",13-01-2024 07:00:00,25.599486,85.113666,PM2.5,197,321,272
India,Bihar,Patna,"Rajbansi Nagar, Patna - BSPCB",13-01-2024 07:00:00,25.599486,85.113666,SO2,10,23,17
India,Bihar,Patna,"Samanpura, Patna - BSPCB",13-01-2024 07:00:00,25.596727,85.085624,PM10,222,500,365
India,Bihar,Purnia,"Mariam Nagar, Purnia - BSPCB",13-01-2024 07:00:00,25.366336,87.117468,NO2,12,14,13
India,Bihar,Rajgir,"Dangi Tola, Rajgir - BSPCB",13-01-2024 07:00:00,25.03280,85.41948,PM10,129,202,164
India,Bihar,Rajgir,"Dangi Tola, Rajgir - BSPCB",13-01-2024 07:00:00,25.03280,85.41948,SO2,4,7,5
India,Bihar,Saharsa,"Police Line, Saharsa - BSPCB",13-01-2024 07:00:00,25.892357,86.590325,PM2.5,270,396,339
India,Bihar,Saharsa,"Police Line, Saharsa - BSPCB",13-01-2024 07:00:00,25.892357,86.590325,CO,2,10,2
India,Bihar,Saharsa,"Police Line, Saharsa - BSPCB",13-01-2024 07:00:00,25.892357,86.590325,OZONE,2,8,4
India,Bihar,Siwan,"Chitragupta Nagar, Siwan - BSPCB",13-01-2024 07:00:00,26.2271665,84.3570427,SO2,12,35,31
India,Bihar,Siwan,"Chitragupta Nagar, Siwan - BSPCB",13-01-2024 07:00:00,26.2271665,84.3570427,CO,104,177,128
India,Bihar,Siwan,"Chitragupta Nagar, Siwan - BSPCB",13-01-2024 07:00:00,26.2271665,84.3570427,OZONE,4,55,9
India,Chandigarh,Chandigarh,"Sector 22, Chandigarh - CPCC",13-01-2024 07:00:00,30.735567,76.775714,PM10,131,408,284
India,Chandigarh,Chandigarh,"Sector 22, Chandigarh - CPCC",13-01-2024 07:00:00,30.735567,76.775714,NO2,NA,NA,NA
India,Chandigarh,Chandigarh,"Sector 22, Chandigarh - CPCC",13-01-2024 07:00:00,30.735567,76.775714,SO2,3,57,12
India,Chandigarh,Chandigarh,"Sector-25, Chandigarh - CPCC",13-01-2024 07:00:00,30.751462,76.762879,PM10,134,234,181
India,Chandigarh,Chandigarh,"Sector-25, Chandigarh - CPCC",13-01-2024 07:00:00,30.751462,76.762879,SO2,5,30,10
India,Chandigarh,Chandigarh,"Sector-53, Chandigarh - CPCC",13-01-2024 07:00:00,30.719859,76.738637,PM10,127,352,261
India,Chhattisgarh,Bhilai,"32Bungalows, Bhilai - CECB",13-01-2024 07:00:00,21.194815,81.314770,CO,33,70,47
India,Chhattisgarh,Bhilai,"Civic Center, Bhilai - Bhilai Steel Plant",13-01-2024 07:00:00,21.185571,81.343175,PM10,64,120,86
India,Chhattisgarh,Bhilai,"Civic Center, Bhilai - Bhilai Steel Plant",13-01-2024 07:00:00,21.185571,81.343175,SO2,8,11,10
India,Chhattisgarh,Bhilai,"Civic Center, Bhilai - Bhilai Steel Plant",13-01-2024 07:00:00,21.185571,81.343175,OZONE,7,45,8
India,Chhattisgarh,Bhilai,"Hathkhoj, Bhilai - CECB",13-01-2024 07:00:00,21.224231,81.408350,PM2.5,6,285,108
India,Chhattisgarh,Bhilai,"Hathkhoj, Bhilai - CECB",13-01-2024 07:00:00,21.224231,81.408350,PM10,73,175,107
India,Chhattisgarh,Bilaspur,"Mangala, Bilaspur - NTPC",13-01-2024 07:00:00,22.08815,82.13737,PM2.5,25,191,68
India,Chhattisgarh,Chhal,"Nawapara SECL Colony, Chhal - CECB",13-01-2024 07:00:00,22.118125,83.140608,PM2.5,14,57,34
India,Chhattisgarh,Chhal,"Nawapara SECL Colony, Chhal - CECB",13-01-2024 07:00:00,22.118125,83.140608,OZONE,6,58,10
India,Chhattisgarh,Korba,"Rampur, Korba - CECB",13-01-2024 07:00:00,22.368195,82.746431,PM2.5,18,99,47
India,Chhattisgarh,Korba,"Rampur, Korba - CECB",13-01-2024 07:00:00,22.368195,82.746431,CO,17,34,24
India,Chhattisgarh,Kunjemura,"OP Jindal School, Kunjemura - CECB",13-01-2024 07:00:00,22.126650,83.483212,OZONE,3,45,4
India,Chhattisgarh,Milupara,"Govt. Higher Secondary School, Milupara - CECB",13-01-2024 07:00:00,22.1910172,83.5197009,NO2,9,45,19
India,Chhattisgarh,Raipur,"AIIMS, Raipur - CECB",13-01-2024 07:00:00,21.258815,81.578979,SO2,6,60,14
India,Chhattisgarh,Raipur,"Bhatagaon New ISBT, Raipur - CECB",13-01-2024 07:00:00,21.219665,81.630094,OZONE,3,5,3
India,Chhattisgarh,Raipur,"Krishak Nagar, Raipur - CECB",13-01-2024 07:00:00,21.237755,81.705301,PM10,47,124,83
India,Chhattisgarh,Raipur,"Krishak Nagar, Raipur - CECB",13-01-2024 07:00:00,21.237755,81.705301,SO2,10,14,11
India,Chhattisgarh,Tumidih,"OP Jindal Industrial Park, Tumidih - CECB",13-01-2024 07:00:00,22.06631475,83.33820077,PM10,30,135,64
India,Chhattisgarh,Tumidih,"OP Jindal Industrial Park, Tumidih - CECB",13-01-2024 07:00:00,22.06631475,83.33820077,NO2,7,25,15
India,Chhattisgarh,Tumidih,"OP Jindal Industrial Park, Tumidih - CECB",13-01-2024 07:00:00,22.06631475,83.33820077,CO,14,52,26
India,Delhi,Delhi,"Alipur, Delhi - DPCC",13-01-2024 07:00:00,28.815329,77.153010,OZONE,3,68,4
India,Delhi,Delhi,"Ashok Vihar, Delhi - DPCC",13-01-2024 07:00:00,28.695381,77.181665,PM2.5,195,423,345
India,Delhi,Delhi,"Aya Nagar, Delhi - IMD",13-01-2024 07:00:00,28.4706914,77.1099364,PM10,122,409,266
India,Delhi,Delhi,"Bawana, Delhi - DPCC",13-01-2024 07:00:00,28.776200,77.051074,PM10,126,477,277
India,Delhi,Delhi,"Bawana, Delhi - DPCC",13-01-2024 07:00:00,28.776200,77.051074,OZONE,3,59,4
India,Delhi,Delhi,"CRRI Mathura Road, Delhi - IMD",13-01-2024 07:00:00,28.5512005,77.2735737,NO2,NA,NA,NA
India,Delhi,Delhi,"Dr. Karni Singh Shooting Range, Delhi - DPCC",13-01-2024 07:00:00,28.498571,77.264840,NH3,9,21,12
India,Delhi,Delhi,"Dr. Karni Singh Shooting Range, Delhi - DPCC",13-01-2024 07:00:00,28.498571,77.264840,OZONE,1,117,1
India,Delhi,Delhi,"IGI Airport (T3), Delhi - IMD",13-01-2024 07:00:00,28.5627763,77.1180053,CO,17,110,102
India,Delhi,Delhi,"IHBAS, Dilshad Garden, Delhi - CPCB",13-01-2024 07:00:00,28.6811736,77.3025234,NO2,12,38,23
India,Delhi,Delhi,"ITO, Delhi - CPCB",13-01-2024 07:00:00,28.628624,77.241060,PM10,128,316,204
India,Delhi,Delhi,"ITO, Delhi - CPCB",13-01-2024 07:00:00,28.628624,77.241060,SO2,9,20,15
India,Delhi,Delhi,"Jahangirpuri, Delhi - DPCC",13-01-2024 07:00:00,28.732820,77.170633,PM10,203,493,371
India,Delhi,Delhi,"Jahangirpuri, Delhi - DPCC",13-01-2024 07:00:00,28.732820,77.170633,OZONE,6,35,8
India,Delhi,Delhi,"Jawaharlal Nehru Stadium, Delhi - DPCC",13-01-2024 07:00:00,28.580280,77.233829,NO2,54,126,86
India,Delhi,Delhi,"Jawaharlal Nehru Stadium, Delhi - DPCC",13-01-2024 07:00:00,28.580280,77.233829,NH3,10,14,12
India,Delhi,Delhi,"Lodhi Road, Delhi - IITM",13-01-2024 07:00:00,28.588333,77.221667,PM10,35,357,116
India,Delhi,Delhi,"Lodhi Road, Delhi - IITM",13-01-2024 07:00:00,28.588333,77.221667,NH3,9,14,11
India,Delhi,Delhi,"Major Dhyan Chand National Stadium, Delhi - DPCC",13-01-2024 07:00:00,28.611281,77.237738,NH3,11,15,12
India,Delhi,Delhi,"Mandir Marg, Delhi - DPCC",13-01-2024 07:00:00,28.636429,77.201067,PM10,157,420,304
India,Delhi,Delhi,"Mandir Marg, Delhi - DPCC",13-01-2024 07:00:00,28.636429,77.201067,NH3,9,18,15
India,Delhi,Delhi,"Mandir Marg, Delhi - DPCC",13-01-2024 07:00:00,28.636429,77.201067,OZONE,1,39,6
India,Delhi,Delhi,"Mundka, Delhi - DPCC",13-01-2024 07:00:00,28.684678,77.076574,SO2,11,16,13
India,Delhi,Delhi,"Mundka, Delhi - DPCC",13-01-2024 07:00:00,28.684678,77.076574,OZONE,1,33,8
India,Delhi,Delhi,"NSIT Dwarka, Delhi - CPCB",13-01-2024 07:00:00,28.60909,77.0325413,CO,22,61,37
India,Delhi,Delhi,"Najafgarh, Delhi - DPCC",13-01-2024 07:00:00,28.570173,76.933762,SO2,4,11,8
India,Delhi,Delhi,"Najafgarh, Delhi - DPCC",13-01-2024 07:00:00,28.570173,76.933762,OZONE,2,102,9
India,Delhi,Delhi,"Nehru Nagar, Delhi - DPCC",13-01-2024 07:00:00,28.567890,77.250515,PM10,173,500,343
India,Delhi,Delhi,"Nehru Nagar, Delhi - DPCC",13-01-2024 07:00:00,28.567890,77.250515,NH3,6,47,18
India,Delhi,Delhi,"Nehru Nagar, Delhi - DPCC",13-01-2024 07:00:00,28.567890,77.250515,CO,1,133,70
India,Delhi,Delhi,"North Campus, DU, Delhi - IMD",13-01-2024 07:00:00,28.6573814,77.1585447,PM10,173,411,290
India,Delhi,Delhi,"Okhla Phase-2, Delhi - DPCC",13-01-2024 07:00:00,28.530785,77.271255,NO2,NA,NA,NA
India,Delhi,Delhi,"Okhla Phase-2, Delhi - DPCC",13-01-2024 07:00:00,28.530785,77.271255,NH3,NA,NA,NA
India,Delhi,Delhi,"Patparganj, Delhi - DPCC",13-01-2024 07:00:00,28.623763,77.287209,CO,40,108,60
India,Delhi,Delhi,"Patparganj, Delhi - DPCC",13-01-2024 07:00:00,28.623763,77.287209,OZONE,9,43,24
India,Delhi,Delhi,"Punjabi Bagh, Delhi - DPCC",13-01-2024 07:00:00,28.674045,77.131023,NO2,76,103,91
India,Delhi,Delhi,"Punjabi Bagh, Delhi - DPCC",13-01-2024 07:00:00,28.674045,77.131023,OZONE,7,10,9
India,Delhi,Delhi,"Pusa, Delhi - DPCC",13-01-2024 07:00:00,28.639652,77.146275,PM10,186,447,352
India,Delhi,Delhi,"Pusa, Delhi - IMD",13-01-2024 07:00:00,28.636110,77.173332,NO2,NA,NA,NA
India,Delhi,Delhi,"Pusa, Delhi - IMD",13-01-2024 07:00:00,28.636110,77.173332,CO,108,125,116
India,Delhi,Delhi,"R K Puram, Delhi - DPCC",13-01-2024 07:00:00,28.563262,77.186937,SO2,11,46,25
India,Delhi,Delhi,"Rohini, Delhi - DPCC",13-01-2024 07:00:00,28.732528,77.119920,PM10,142,437,278
India,Delhi,Delhi,"Rohini, Delhi - DPCC",13-01-2024 07:00:00,28.732528,77.119920,SO2,8,14,11
India,Delhi,Delhi,"Rohini, Delhi - DPCC",13-01-2024 07:00:00,28.732528,77.119920,CO,40,107,96
India,Delhi,Delhi,"Sirifort, Delhi - CPCB",13-01-2024 07:00:00,28.5504249,77.2159377,PM2.5,305,474,369
India,Delhi,Delhi,"Sonia Vihar, Delhi - DPCC",13-01-2024 07:00:00,28.710508,77.249485,NO2,38,102,57
India,Delhi,Delhi,"Sri Aurobindo Marg, Delhi - DPCC",13-01-2024 07:00:00,28.531346,77.190156,PM2.5,223,428,342
India,Delhi,Delhi,"Sri Aurobindo Marg, Delhi - DPCC",13-01-2024 07:00:00,28.531346,77.190156,SO2,6,18,11
India,Delhi,Delhi,"Vivek Vihar, Delhi - DPCC",13-01-2024 07:00:00,28.672342,77.315260,NH3,6,14,10
India,Delhi,Delhi,"Wazirpur, Delhi - DPCC",13-01-2024 07:00:00,28.699793,77.165453,NO2,128,280,188
India,Delhi,Delhi,"Wazirpur, Delhi - DPCC",13-01-2024 07:00:00,28.699793,77.165453,OZONE,3,63,5
India,Gujarat,Ahmedabad,"Gyaspur, Ahmedabad - IITM",13-01-2024 07:00:00,22.977134,72.553024,NO2,11,12,12
India,Gujarat,Ahmedabad,"Maninagar, Ahmedabad - GPCB",13-01-2024 07:00:00,23.002657,72.591912,PM10,71,140,114
India,Gujarat,Ahmedabad,"Raikhad, Ahmedabad - IITM",13-01-2024 07:00:00,23.020509,72.579261,PM2.5,93,106,100
India,Gujarat,Ahmedabad,"Raikhad, Ahmedabad - IITM",13-01-2024 07:00:00,23.020509,72.579261,PM10,89,94,91
India,Gujarat,Ahmedabad,"Raikhad, Ahmedabad - IITM",13-01-2024 07:00:00,23.020509,72.579261,NH3,4,5,4
India,Gujarat,Ahmedabad,"SAC ISRO Satellite, Ahmedabad - IITM",13-01-2024 07:00:00,23.023389,72.515201,OZONE,2,21,2
India,Gujarat,Ahmedabad,"SVPI Airport Hansol, Ahmedabad - IITM",13-01-2024 07:00:00,23.076793,72.627874,PM10,66,125,89
India,Gujarat,Ahmedabad,"Sardar Vallabhbhai Patel Stadium, Ahmedabad - IITM",13-01-2024 07:00:00,23.043070,72.562968,PM2.5,67,304,132
India,Gujarat,Ahmedabad,"Sardar Vallabhbhai Patel Stadium, Ahmedabad - IITM",13-01-2024 07:00:00,23.043070,72.562968,SO2,5,6,5
India,Gujarat,Gandhinagar,"GIFT City, Gandhinagar - IITM",13-01-2024 07:00:00,23.163798,72.677768,OZONE,1,25,4
India,Gujarat,Gandhinagar,"IIPHG Lekawada, Gandhinagar - IITM",13-01-2024 07:00:00,23.243639,72.68994,PM10,47,106,79
India,Gujarat,Gandhinagar,"IIPHG Lekawada, Gandhinagar - IITM",13-01-2024 07:00:00,23.243639,72.68994,CO,38,60,49
India,Gujarat,Gandhinagar,"IIPHG Lekawada, Gandhinagar - IITM",13-01-2024 07:00:00,23.243639,72.68994,OZONE,24,27,25
India,Gujarat,Gandhinagar,"Sector-10, Gandhinagar - GPCB",13-01-2024 07:00:00,23.221714,72.654328,PM2.5,28,70,43
India,Gujarat,Gandhinagar,"Sector-10, Gandhinagar - GPCB",13-01-2024 07:00:00,23.221714,72.654328,CO,19,20,20
India,Gujarat,Surat,"Science Center, Surat - SMC",13-01-2024 07:00:00,21.170046,72.795405,PM10,46,98,68
India,Gujarat,Vapi,"Phase-1 GIDC, Vapi - GPCB",13-01-2024 07:00:00,20.362421,72.918013,CO,NA,NA,NA
India,Gujarat,Vatva,"Phase-4 GIDC, Vatva - GPCB",13-01-2024 07:00:00,22.969611,72.643500,SO2,3,6,4
India,Haryana,Bahadurgarh,"Arya Nagar, Bahadurgarh - HSPCB",13-01-2024 07:00:00,28.6701,76.9254,PM2.5,89,360,279
India,Haryana,Bahadurgarh,"Arya Nagar, Bahadurgarh - HSPCB",13-01-2024 07:00:00,28.6701,76.9254,NO2,33,39,36
India,Haryana,Bahadurgarh,"Arya Nagar, Bahadurgarh - HSPCB",13-01-2024 07:00:00,28.6701,76.9254,CO,41,61,48
India,Haryana,Ballabgarh,"Nathu Colony, Ballabgarh - HSPCB",13-01-2024 07:00:00,28.3419248,77.319699,SO2,1,40,14
India,Haryana,Bhiwani,"H.B. Colony, Bhiwani - HSPCB",13-01-2024 07:00:00,28.806223,76.141105,PM10,80,145,108
India,Haryana,Bhiwani,"H.B. Colony, Bhiwani - HSPCB",13-01-2024 07:00:00,28.806223,76.141105,CO,46,88,70
India,Haryana,Charkhi Dadri,"Mini Secretariat, Charkhi Dadri - HSPCB",13-01-2024 07:00:00,28.593883,76.270653,PM2.5,84,202,144
India,Haryana,Charkhi Dadri,"Mini Secretariat, Charkhi Dadri - HSPCB",13-01-2024 07:00:00,28.593883,76.270653,PM10,84,134,114
India,Haryana,Dharuhera,"Municipal Corporation Office, Dharuhera -  HSPCB",13-01-2024 07:00:00,28.206800,76.799700,PM10,109,271,173
India,Haryana,Dharuhera,"Municipal Corporation Office, Dharuhera -  HSPCB",13-01-2024 07:00:00,28.206800,76.799700,SO2,3,21,10
India,Haryana,Dharuhera,"Municipal Corporation Office, Dharuhera -  HSPCB",13-01-2024 07:00:00,28.206800,76.799700,CO,23,92,84
India,Haryana,Dharuhera,"Municipal Corporation Office, Dharuhera -  HSPCB",13-01-2024 07:00:00,28.206800,76.799700,OZONE,1,69,1
India,Haryana,Faridabad,"Sector 11, Faridabad - HSPCB",13-01-2024 07:00:00,28.376058,77.315741,NO2,30,32,31
India,Haryana,Faridabad,"Sector 30, Faridabad - HSPCB",13-01-2024 07:00:00,28.4417,77.3217,NH3,14,14,14
India,Haryana,Faridabad,"Sector- 16A, Faridabad - HSPCB",13-01-2024 07:00:00,28.4088421,77.3099081,PM2.5,166,478,348
India,Haryana,Faridabad,"Sector- 16A, Faridabad - HSPCB",13-01-2024 07:00:00,28.4088421,77.3099081,CO,10,125,59
India,Haryana,Fatehabad,"Huda Sector, Fatehabad - HSPCB",13-01-2024 07:00:00,29.503664,75.467934,PM10,57,122,91
India,Haryana,Gurugram,"Teri Gram, Gurugram - HSPCB",13-01-2024 07:00:00,28.4275,77.1465,PM10,121,414,233
India,Haryana,Gurugram,"Vikas Sadan, Gurugram - HSPCB",13-01-2024 07:00:00,28.4501238,77.0263051,CO,54,139,109
India,Haryana,Hisar,"Urban Estate-II, Hisar - HSPCB",13-01-2024 07:00:00,29.140560,75.744941,PM2.5,87,303,186
India,Haryana,Hisar,"Urban Estate-II, Hisar - HSPCB",13-01-2024 07:00:00,29.140560,75.744941,NH3,3,5,4
India,Haryana,Hisar,"Urban Estate-II, Hisar - HSPCB",13-01-2024 07:00:00,29.140560,75.744941,OZONE,11,78,13
India,Haryana,Kaithal,"Rishi Nagar, Kaithal - HSPCB",13-01-2024 07:00:00,29.8006,76.4155,PM2.5,134,343,278
India,Haryana,Kaithal,"Rishi Nagar, Kaithal - HSPCB",13-01-2024 07:00:00,29.8006,76.4155,NO2,24,26,25
India,Haryana,Karnal,"Sector-12, Karnal - HSPCB",13-01-2024 07:00:00,29.695300,77.002700,CO,54,72,66
India,Haryana,Kurukshetra,"Sector-7, Kurukshetra - HSPCB",13-01-2024 07:00:00,29.966942,76.875879,PM2.5,123,244,175
India,Haryana,Kurukshetra,"Sector-7, Kurukshetra - HSPCB",13-01-2024 07:00:00,29.966942,76.875879,SO2,2,44,14
India,Haryana,Kurukshetra,"Sector-7, Kurukshetra - HSPCB",13-01-2024 07:00:00,29.966942,76.875879,CO,28,100,47
India,Haryana,Mandikhera,"General Hospital, Mandikhera - HSPCB",13-01-2024 07:00:00,27.9002,76.9938,PM2.5,8,43,18
India,Haryana,Mandikhera,"General Hospital, Mandikhera - HSPCB",13-01-2024 07:00:00,27.9002,76.9938,NO2,16,22,19
India,Haryana,Mandikhera,"General Hospital, Mandikhera - HSPCB",13-01-2024 07:00:00,27.9002,76.9938,NH3,18,21,19
India,Haryana,Mandikhera,"General Hospital, Mandikhera - HSPCB",13-01-2024 07:00:00,27.9002,76.9938,SO2,31,37,34
India,Haryana,Narnaul,"Shastri Nagar, Narnaul - HSPCB",13-01-2024 07:00:00,28.060249,76.113115,PM10,6,145,97
India,Haryana,Narnaul,"Shastri Nagar, Narnaul - HSPCB",13-01-2024 07:00:00,28.060249,76.113115,OZONE,27,75,70
India,Haryana,Palwal,"Shyam Nagar, Palwal - HSPCB",13-01-2024 07:00:00,28.1485564,77.3320667,CO,14,28,21
India,Haryana,Panipat,"Sector-18, Panipat - HSPCB",13-01-2024 07:00:00,29.497973,76.993331,OZONE,30,34,32
India,Haryana,Rohtak,"MD University, Rohtak - HSPCB",13-01-2024 07:00:00,28.52123,76.37138,NO2,46,55,51
India,Haryana,Rohtak,"MD University, Rohtak - HSPCB",13-01-2024 07:00:00,28.52123,76.37138,SO2,1,41,11
India,Haryana,Rohtak,"MD University, Rohtak - HSPCB",13-01-2024 07:00:00,28.52123,76.37138,CO,29,34,31
India,Haryana,Sirsa,"F-Block, Sirsa - HSPCB",13-01-2024 07:00:00,29.536400,75.015800,NO2,10,10,10
India,Haryana,Sirsa,"F-Block, Sirsa - HSPCB",13-01-2024 07:00:00,29.536400,75.015800,NH3,12,13,13
India,Haryana,Sirsa,"F-Block, Sirsa - HSPCB",13-01-2024 07:00:00,29.536400,75.015800,SO2,4,8,6
India,Haryana,Yamuna Nagar,"Gobind Pura, Yamuna Nagar - HSPCB",13-01-2024 07:00:00,30.1480566,77.2893471,PM2.5,72,262,169
India,Haryana,Yamuna Nagar,"Gobind Pura, Yamuna Nagar - HSPCB",13-01-2024 07:00:00,30.1480566,77.2893471,NH3,1,6,4
India,Haryana,Yamuna Nagar,"Gobind Pura, Yamuna Nagar - HSPCB",13-01-2024 07:00:00,30.1480566,77.2893471,SO2,2,104,12
India,Himachal Pradesh,Baddi,"HIMUDA Complex Phase-1, Baddi - HPPCB",13-01-2024 07:00:00,30.943887,76.801991,CO,50,84,80
India,Jharkhand,Dhanbad,"Kalakusuma, Dhanbad - DMC",13-01-2024 07:00:00,23.811548,86.481238,PM2.5,1,54,32
India,Jharkhand,Dhanbad,"Kalakusuma, Dhanbad - DMC",13-01-2024 07:00:00,23.811548,86.481238,NO2,32,34,33
India,Jharkhand,Dhanbad,"Kalakusuma, Dhanbad - DMC",13-01-2024 07:00:00,23.811548,86.481238,OZONE,24,37,25
India,Jharkhand,Pathardih,"Mohalbani Ghat, Pathardih - DMC",13-01-2024 07:00:00,23.669880,86.411725,NO2,110,180,143
India,Jharkhand,Pathardih,"Mohalbani Ghat, Pathardih - DMC",13-01-2024 07:00:00,23.669880,86.411725,CO,6,171,6
India,Karnataka,Bagalkot,"Vidayagiri, Bagalkot - KSPCB",13-01-2024 07:00:00,16.172806,75.659694,PM2.5,24,36,35
India,Karnataka,Bagalkot,"Vidayagiri, Bagalkot - KSPCB",13-01-2024 07:00:00,16.172806,75.659694,NO2,10,11,10
India,Karnataka,Belgaum,"Ramteerth Nagar, Belgaum - KSPCB",13-01-2024 07:00:00,15.888653,74.541751,PM10,53,128,76
India,Karnataka,Belgaum,"Ramteerth Nagar, Belgaum - KSPCB",13-01-2024 07:00:00,15.888653,74.541751,NO2,28,37,30
India,Karnataka,Belgaum,"Ramteerth Nagar, Belgaum - KSPCB",13-01-2024 07:00:00,15.888653,74.541751,NH3,33,34,33
India,Karnataka,Belgaum,"Ramteerth Nagar, Belgaum - KSPCB",13-01-2024 07:00:00,15.888653,74.541751,OZONE,19,20,20
India,Karnataka,Bengaluru,"BTM Layout, Bengaluru - CPCB",13-01-2024 07:00:00,12.9135218,77.5950804,NH3,2,3,3
India,Karnataka,Bengaluru,"BTM Layout, Bengaluru - CPCB",13-01-2024 07:00:00,12.9135218,77.5950804,CO,9,29,23
India,Karnataka,Bengaluru,"Bapuji Nagar, Bengaluru - KSPCB",13-01-2024 07:00:00,12.951913,77.539784,SO2,6,8,7
India,Karnataka,Bengaluru,"Hebbal, Bengaluru - KSPCB",13-01-2024 07:00:00,13.029152,77.585901,PM2.5,NA,NA,NA
India,Karnataka,Bengaluru,"Hebbal, Bengaluru - KSPCB",13-01-2024 07:00:00,13.029152,77.585901,SO2,NA,NA,NA
India,Karnataka,Bengaluru,"Jayanagar 5th Block, Bengaluru - KSPCB",13-01-2024 07:00:00,12.920984,77.584908,SO2,16,20,18
India,Karnataka,Bengaluru,"Jigani, Bengaluru - KSPCB",13-01-2024 07:00:00,12.7816279,77.6299145,SO2,9,16,13
India,Karnataka,Bengaluru,"Kasturi Nagar, Bengaluru - KSPCB",13-01-2024 07:00:00,13.003872,77.664217,PM2.5,79,183,119
India,Karnataka,Bengaluru,"Peenya, Bengaluru - CPCB",13-01-2024 07:00:00,13.0270199,77.494094,NO2,21,29,24
India,Karnataka,Bengaluru,"Peenya, Bengaluru - CPCB",13-01-2024 07:00:00,13.0270199,77.494094,NH3,1,5,4
India,Karnataka,Bengaluru,"RVCE-Mailasandra, Bengaluru - KSPCB",13-01-2024 07:00:00,12.921418,77.502466,PM10,106,172,138
India,Karnataka,Bengaluru,"RVCE-Mailasandra, Bengaluru - KSPCB",13-01-2024 07:00:00,12.921418,77.502466,NO2,31,31,31
India,Karnataka,Bengaluru,"Shivapura_Peenya, Bengaluru - KSPCB",13-01-2024 07:00:00,13.0246342,77.5080115,SO2,5,20,10
India,Karnataka,Bengaluru,"Shivapura_Peenya, Bengaluru - KSPCB",13-01-2024 07:00:00,13.0246342,77.5080115,CO,29,52,34
India,Karnataka,Bengaluru,"Silk Board, Bengaluru - KSPCB",13-01-2024 07:00:00,12.917348,77.622813,PM10,87,122,106
India,Karnataka,Bidar,"Naubad, Bidar - KSPCB",13-01-2024 07:00:00,17.930306,77.482194,NH3,2,3,3
India,Karnataka,Chamarajanagar,"Urban, Chamarajanagar - KSPCB",13-01-2024 07:00:00,11.55358,76.55521,NO2,23,29,28
India,Karnataka,Chamarajanagar,"Urban, Chamarajanagar - KSPCB",13-01-2024 07:00:00,11.55358,76.55521,NH3,1,2,2
India,Karnataka,Chikkaballapur,"Chikkaballapur Rural, Chikkaballapur - KSPCB",13-01-2024 07:00:00,13.428828,77.731418,PM2.5,62,153,104
India,Karnataka,Chikkaballapur,"Chikkaballapur Rural, Chikkaballapur - KSPCB",13-01-2024 07:00:00,13.428828,77.731418,SO2,17,21,19
India,Karnataka,Chikkaballapur,"Chikkaballapur Rural, Chikkaballapur - KSPCB",13-01-2024 07:00:00,13.428828,77.731418,CO,20,62,30
India,Karnataka,Dharwad,"Kalabhavan, Dharwad - KSPCB",13-01-2024 07:00:00,15.459706,75.008381,NH3,3,3,3
India,Karnataka,Dharwad,"Kalabhavan, Dharwad - KSPCB",13-01-2024 07:00:00,15.459706,75.008381,CO,41,140,73
India,Karnataka,Gadag,"Panchal Nagar, Gadag - KSPCB",13-01-2024 07:00:00,15.411456,75.638133,NH3,2,3,2
India,Karnataka,Gadag,"Panchal Nagar, Gadag - KSPCB",13-01-2024 07:00:00,15.411456,75.638133,SO2,7,11,9
India,Karnataka,Haveri,"Ashwini Nagar, Haveri - KSPCB",13-01-2024 07:00:00,14.791800,75.389600,OZONE,18,22,19
India,Karnataka,Hubballi,"Deshpande Nagar, Hubballi - KSPCB",13-01-2024 07:00:00,15.351773,75.140726,NH3,6,10,7
India,Karnataka,Hubballi,"Deshpande Nagar, Hubballi - KSPCB",13-01-2024 07:00:00,15.351773,75.140726,CO,70,90,80
India,Karnataka,Hubballi,"Lingaraj Nagar, Hubballi - KSPCB",13-01-2024 07:00:00,15.3714823,75.1160168,PM2.5,20,59,42
India,Karnataka,Hubballi,"Lingaraj Nagar, Hubballi - KSPCB",13-01-2024 07:00:00,15.3714823,75.1160168,NO2,16,16,16
India,Karnataka,Hubballi,"Lingaraj Nagar, Hubballi - KSPCB",13-01-2024 07:00:00,15.3714823,75.1160168,SO2,6,34,14
India,Karnataka,Kalaburagi,"Mahatma Basaveswar Colony, Kalaburgi - KSPCB",13-01-2024 07:00:00,17.336318,76.847397,PM2.5,16,79,36
India,Karnataka,Karwar,"KHB Colony, Karwar - KSPCB",13-01-2024 07:00:00,14.816666,74.141003,NO2,5,14,8
India,Karnataka,Karwar,"KHB Colony, Karwar - KSPCB",13-01-2024 07:00:00,14.816666,74.141003,OZONE,21,22,21
India,Karnataka,Mangalore,"Kadri, Mangalore - KSPCB",13-01-2024 07:00:00,12.889250,74.853000,PM2.5,38,98,70
India,Karnataka,Mangalore,"Kadri, Mangalore - KSPCB",13-01-2024 07:00:00,12.889250,74.853000,PM10,44,94,76
India,Karnataka,Mangalore,"Kadri, Mangalore - KSPCB",13-01-2024 07:00:00,12.889250,74.853000,NO2,8,11,9
India,Karnataka,Mysuru,"Hebbal 1st Stage, Mysuru - KSPCB",13-01-2024 07:00:00,12.21041,76.37376,NO2,12,54,31
India,Karnataka,Raichur,"Haji Colony, Raichur - KSPCB",13-01-2024 07:00:00,16.208139,77.348417,CO,92,113,100
India,Karnataka,Shivamogga,"Vinoba Nagara, Shivamogga - KSPCB",13-01-2024 07:00:00,13.940000,75.555917,PM2.5,40,59,48
India,Karnataka,Shivamogga,"Vinoba Nagara, Shivamogga - KSPCB",13-01-2024 07:00:00,13.940000,75.555917,NO2,10,101,35
India,Karnataka,Shivamogga,"Vinoba Nagara, Shivamogga - KSPCB",13-01-2024 07:00:00,13.940000,75.555917,SO2,4,11,8
India,Karnataka,Tumakuru,"Thimmalapura, Tumakuru - KSPCB",13-01-2024 07:00:00,13.377516,77.099072,OZONE,7,59,40
India,Karnataka,Udupi,"Brahmagiri, Udupi - KSPCB",13-01-2024 07:00:00,13.34194444,74.74694444,SO2,17,22,19
India,Karnataka,Vijayapura,"Ibrahimpur, Vijayapura - KSPCB",13-01-2024 07:00:00,16.802639,75.722694,SO2,1,5,2
India,Karnataka,Vijayapura,"Ibrahimpur, Vijayapura - KSPCB",13-01-2024 07:00:00,16.802639,75.722694,OZONE,13,16,15
India,Karnataka,Yadgir,"Collector Office, Yadgir - KSPCB",13-01-2024 07:00:00,16.7602,77.1428,OZONE,18,20,19
India,Kerala,Eloor,"Udyogamandal, Eloor - Kerala PCB",13-01-2024 07:00:00,10.073232,76.302765,PM2.5,30,68,48
India,Kerala,Eloor,"Udyogamandal, Eloor - Kerala PCB",13-01-2024 07:00:00,10.073232,76.302765,CO,6,52,26
India,Kerala,Kannur,"Thavakkara, Kannur - Kerala PCB",13-01-2024 07:00:00,11.875000,75.373200,PM2.5,46,50,48
India,Kerala,Kannur,"Thavakkara, Kannur - Kerala PCB",13-01-2024 07:00:00,11.875000,75.373200,NO2,6,7,6
India,Kerala,Kannur,"Thavakkara, Kannur - Kerala PCB",13-01-2024 07:00:00,11.875000,75.373200,SO2,2,16,6
India,Kerala,Kochi,"Vyttila, Kochi - Kerala PCB",13-01-2024 07:00:00,9.969447,76.321186,CO,52,57,55
India,Kerala,Kollam,"Polayathode, Kollam - Kerala PCB",13-01-2024 07:00:00,8.8787,76.6073,SO2,2,4,3
India,Kerala,Kollam,"Polayathode, Kollam - Kerala PCB",13-01-2024 07:00:00,8.8787,76.6073,OZONE,30,35,31
India,Kerala,Thiruvananthapuram,"Plammoodu, Thiruvananthapuram - Kerala PCB",13-01-2024 07:00:00,8.5149093,76.9435879,PM10,21,82,50
India,Kerala,Thiruvananthapuram,"Plammoodu, Thiruvananthapuram - Kerala PCB",13-01-2024 07:00:00,8.5149093,76.9435879,OZONE,12,60,19
India,Kerala,Thrissur,"Corporation Ground, Thrissur - Kerala PCB",13-01-2024 07:00:00,10.532400,76.215900,OZONE,20,29,21
India,Madhya Pradesh,Bhopal,"T T Nagar, Bhopal - MPPCB",13-01-2024 07:00:00,23.233584,77.400574,CO,29,109,58
India,Madhya Pradesh,Damoh,"Shrivastav Colony, Damoh - MPPCB",13-01-2024 07:00:00,23.81748678,79.446246,PM2.5,NA,NA,NA
India,Madhya Pradesh,Dewas,"Bhopal Chauraha, Dewas - MPPCB",13-01-2024 07:00:00,22.9682591,76.064118,NH3,3,3,3
India,Madhya Pradesh,Dewas,"Bhopal Chauraha, Dewas - MPPCB",13-01-2024 07:00:00,22.9682591,76.064118,OZONE,11,37,23
India,Madhya Pradesh,Gwalior,"City Center, Gwalior - MPPCB",13-01-2024 07:00:00,26.203442,78.193251,NO2,24,93,44
India,Madhya Pradesh,Gwalior,"City Center, Gwalior - MPPCB",13-01-2024 07:00:00,26.203442,78.193251,NH3,5,9,7
India,Madhya Pradesh,Gwalior,"Deen Dayal Nagar, Gwalior - MPPCB",13-01-2024 07:00:00,26.259242,78.216432,NO2,36,129,78
India,Madhya Pradesh,Gwalior,"Phool Bagh, Gwalior - Mondelez Ind. Food",13-01-2024 07:00:00,26.210536,78.171,SO2,9,19,12
India,Madhya Pradesh,Gwalior,"Phool Bagh, Gwalior - Mondelez Ind. Food",13-01-2024 07:00:00,26.210536,78.171,CO,29,57,36
India,Madhya Pradesh,Indore,"Regional Park, Indore - IMC",13-01-2024 07:00:00,22.6780,75.8559,CO,15,32,22
India,Madhya Pradesh,Jabalpur,"Gupteshwar, Jabalpur - JMC",13-01-2024 07:00:00,23.142888,79.916147,NO2,16,118,44
India,Madhya Pradesh,Jabalpur,"Marhatal, Jabalpur - MPPCB",13-01-2024 07:00:00,23.168606,79.932247,PM2.5,38,257,102
India,Madhya Pradesh,Jabalpur,"Suhagi, Jabalpur - JMC",13-01-2024 07:00:00,23.218135,79.957770,NH3,3,4,4
India,Madhya Pradesh,Katni,"Gole Bazar, Katni - MPPCB",13-01-2024 07:00:00,23.50016,80.23284,OZONE,NA,NA,NA
India,Madhya Pradesh,Maihar,"Sahilara, Maihar - KJS Cements",13-01-2024 07:00:00,24.2613009,80.7231783,NO2,14,14,14
India,Madhya Pradesh,Maihar,"Sahilara, Maihar - KJS Cements",13-01-2024 07:00:00,24.2613009,80.7231783,SO2,12,17,13
India,Madhya Pradesh,Mandideep,"Sector-D Industrial Area, Mandideep - MPPCB",13-01-2024 07:00:00,23.108440,77.511428,PM10,84,280,158
India,Madhya Pradesh,Mandideep,"Sector-D Industrial Area, Mandideep - MPPCB",13-01-2024 07:00:00,23.108440,77.511428,NH3,4,9,7
India,Madhya Pradesh,Ratlam,"Shasthri Nagar, Ratlam - IPCA Lab",13-01-2024 07:00:00,23.331731,75.045981,PM2.5,38,108,65
India,Madhya Pradesh,Ratlam,"Shasthri Nagar, Ratlam - IPCA Lab",13-01-2024 07:00:00,23.331731,75.045981,PM10,62,155,101
India,Madhya Pradesh,Sagar,"Civil Lines, Sagar - MPPCB",13-01-2024 07:00:00,23.838586,78.759431,PM2.5,57,212,93
India,Madhya Pradesh,Sagar,"Civil Lines, Sagar - MPPCB",13-01-2024 07:00:00,23.838586,78.759431,NH3,8,15,11
India,Madhya Pradesh,Sagar,"Deen Dayal Nagar, Sagar - MPPCB",13-01-2024 07:00:00,23.8640158,78.80289321,PM10,25,173,92
India,Madhya Pradesh,Sagar,"Deen Dayal Nagar, Sagar - MPPCB",13-01-2024 07:00:00,23.8640158,78.80289321,CO,16,120,55
India,Madhya Pradesh,Satna,"Bandhavgar Colony, Satna - Birla Cement",13-01-2024 07:00:00,24.58434363,80.8549414,SO2,2,7,4
India,Madhya Pradesh,Satna,"Bandhavgar Colony, Satna - Birla Cement",13-01-2024 07:00:00,24.58434363,80.8549414,CO,19,58,37
India,Madhya Pradesh,Satna,"Bandhavgar Colony, Satna - Birla Cement",13-01-2024 07:00:00,24.58434363,80.8549414,OZONE,59,86,61
India,Madhya Pradesh,Singrauli,"Suryakiran Bhawan NCL, Singrauli - MPPCB",13-01-2024 07:00:00,24.108970,82.645580,SO2,51,101,66
India,Madhya Pradesh,Ujjain,"Mahakaleshwar Temple, Ujjain - MPPCB",13-01-2024 07:00:00,23.182719 ,75.768218 ,OZONE,14,94,32
India,Maharashtra,Ahmednagar,"Tarakpur, Ahmednagar - MPCB",13-01-2024 07:00:00,19.10122,74.73339,PM2.5,65,227,128
India,Maharashtra,Ahmednagar,"Tarakpur, Ahmednagar - MPCB",13-01-2024 07:00:00,19.10122,74.73339,OZONE,4,100,13
India,Maharashtra,Akola,"Ramdaspeth, Akola - MPCB",13-01-2024 07:00:00,20.719516,77.000253,SO2,5,21,12
India,Maharashtra,Akola,"Ramdaspeth, Akola - MPCB",13-01-2024 07:00:00,20.719516,77.000253,CO,24,103,53
India,Maharashtra,Amravati,"Shivneri Colony, Amravati - MPCB",13-01-2024 07:00:00,20.9402359,77.7895248,PM2.5,80,165,118
India,Maharashtra,Amravati,"Shivneri Colony, Amravati - MPCB",13-01-2024 07:00:00,20.9402359,77.7895248,SO2,1,37,13
India,Maharashtra,Amravati,"Shri Shivaji Science College, Amaravati - MPCB",13-01-2024 07:00:00,20.939198,77.765701,PM2.5,76,222,132
India,Maharashtra,Aurangabad,"MIDC Chilkalthana, Aurangabad - MPCB",13-01-2024 07:00:00,19.875620,75.387310,PM2.5,106,293,186
India,Maharashtra,Aurangabad,"MIDC Chilkalthana, Aurangabad - MPCB",13-01-2024 07:00:00,19.875620,75.387310,NO2,10,121,41
India,Maharashtra,Aurangabad,"MIDC Chilkalthana, Aurangabad - MPCB",13-01-2024 07:00:00,19.875620,75.387310,OZONE,9,37,10
India,Maharashtra,Aurangabad,"More Chowk Waluj, Aurangabad - MPCB",13-01-2024 07:00:00,19.8389439,75.244448,OZONE,4,10,7
India,Maharashtra,Aurangabad,"Rachnakar Colony, Aurangabad - MPCB",13-01-2024 07:00:00,19.863756,75.321188,NO2,14,107,62
India,Maharashtra,Aurangabad,"Rachnakar Colony, Aurangabad - MPCB",13-01-2024 07:00:00,19.863756,75.321188,NH3,5,16,11
India,Maharashtra,Badlapur,"Katrap, Badlapur - MPCB",13-01-2024 07:00:00,19.16485,73.23409,PM2.5,70,233,134
India,Maharashtra,Bhiwandi,"Gokul Nagar, Bhiwandi - MPCB",13-01-2024 07:00:00,19.309073,73.057223,OZONE,7,42,14
India,Maharashtra,Boisar,"Khaira, Boisar - MPCB",13-01-2024 07:00:00,19.786089,72.757971,SO2,13,110,38
India,Maharashtra,Boisar,"Khaira, Boisar - MPCB",13-01-2024 07:00:00,19.786089,72.757971,CO,22,54,42
India,Maharashtra,Chandrapur,"Chauhan Colony, Chandrapur - MPCB",13-01-2024 07:00:00,19.962900,79.298714,PM10,76,182,108
India,Maharashtra,Chandrapur,"MIDC Khutala, Chandrapur - MPCB",13-01-2024 07:00:00,19.9775302,79.2337086,CO,16,65,51
India,Maharashtra,Dhule,"Deopur, Dhule - MPCB",13-01-2024 07:00:00,20.918946,74.776388,NH3,1,2,2
India,Maharashtra,Dhule,"Deopur, Dhule - MPCB",13-01-2024 07:00:00,20.918946,74.776388,SO2,9,18,13
India,Maharashtra,Jalgaon,"Prabhat Colony, Jalgaon - MPCB",13-01-2024 07:00:00,21.001264,75.565602,OZONE,22,97,38
India,Maharashtra,Jalna,"Old MIDC, Jalna - MPCB",13-01-2024 07:00:00,19.854616,75.905894,NH3,6,8,7
India,Maharashtra,Kalyan,"Khadakpada, Kalyan - MPCB",13-01-2024 07:00:00,19.25292,73.142019,PM10,67,177,111
India,Maharashtra,Kalyan,"Khadakpada, Kalyan - MPCB",13-01-2024 07:00:00,19.25292,73.142019,NO2,17,106,40
India,Maharashtra,Kalyan,"Khadakpada, Kalyan - MPCB",13-01-2024 07:00:00,19.25292,73.142019,SO2,14,94,35
India,Maharashtra,Kalyan,"Khadakpada, Kalyan - MPCB",13-01-2024 07:00:00,19.25292,73.142019,CO,10,61,23
India,Maharashtra,Kolhapur,"Shivaji University, Kolhapur - MPCB",13-01-2024 07:00:00,16.6870449,74.2505872,NH3,1,8,3
India,Maharashtra,Kolhapur,"Sinchan Bhavan, Kolhapur - MPCB",13-01-2024 07:00:00,16.7143745,74.2426398,CO,33,108,92
India,Maharashtra,Mahad,"Kamble Tarf Birwadi, Mahad - MPCB",13-01-2024 07:00:00,18.1023399,73.4783687,NH3,4,5,5
India,Maharashtra,Mahad,"Kamble Tarf Birwadi, Mahad - MPCB",13-01-2024 07:00:00,18.1023399,73.4783687,SO2,11,110,39
India,Maharashtra,Malegaon,"Mahesh Nagar, Malegaon - MPCB",13-01-2024 07:00:00,20.555712,74.529236,PM2.5,72,148,95
India,Maharashtra,Malegaon,"Mahesh Nagar, Malegaon - MPCB",13-01-2024 07:00:00,20.555712,74.529236,OZONE,8,86,18
India,Maharashtra,Mira-Bhayandar,"Bhayandar West, Mira-Bhayandar - MPCB",13-01-2024 07:00:00,19.296481,72.840923,PM10,103,146,128
India,Maharashtra,Mumbai,"Bandra Kurla Complex, Mumbai - MPCB",13-01-2024 07:00:00,19.065931,72.862131,PM2.5,91,237,142
India,Maharashtra,Mumbai,"Bandra Kurla Complex, Mumbai - MPCB",13-01-2024 07:00:00,19.065931,72.862131,CO,36,114,93
India,Maharashtra,Mumbai,"Borivali East, Mumbai - IITM",13-01-2024 07:00:00,19.23241,72.86895,CO,1,110,12
India,Maharashtra,Mumbai,"Borivali East, Mumbai - MPCB",13-01-2024 07:00:00,19.2243333,72.8658113,PM2.5,38,93,67
India,Maharashtra,Mumbai,"Byculla, Mumbai - BMC",13-01-2024 07:00:00,18.9767,72.8380,PM2.5,87,187,128
India,Maharashtra,Mumbai,"Byculla, Mumbai - BMC",13-01-2024 07:00:00,18.9767,72.8380,SO2,1,8,3
India,Maharashtra,Mumbai,"Chakala-Andheri East, Mumbai - IITM",13-01-2024 07:00:00,19.11074,72.86084,NO2,55,182,113
India,Maharashtra,Mumbai,"Chakala-Andheri East, Mumbai - IITM",13-01-2024 07:00:00,19.11074,72.86084,CO,19,105,85
India,Maharashtra,Mumbai,"Chembur, Mumbai - MPCB",13-01-2024 07:00:00,19.0364585,72.8954371,PM2.5,97,192,139
India,Maharashtra,Mumbai,"Chembur, Mumbai - MPCB",13-01-2024 07:00:00,19.0364585,72.8954371,CO,36,105,88
India,Maharashtra,Mumbai,"Chhatrapati Shivaji Intl. Airport (T2), Mumbai - MPCB",13-01-2024 07:00:00,19.10078,72.87462,PM10,79,134,106
India,Maharashtra,Mumbai,"Chhatrapati Shivaji Intl. Airport (T2), Mumbai - MPCB",13-01-2024 07:00:00,19.10078,72.87462,SO2,22,37,30
India,Maharashtra,Mumbai,"Colaba, Mumbai - MPCB",13-01-2024 07:00:00,18.910000,72.820000,SO2,18,20,19
India,Maharashtra,Mumbai,"Ghatkopar, Mumbai - BMC",13-01-2024 07:00:00,19.083694,72.920967,PM2.5,80,185,117
India,Maharashtra,Mumbai,"Ghatkopar, Mumbai - BMC",13-01-2024 07:00:00,19.083694,72.920967,NO2,13,57,45
India,Maharashtra,Mumbai,"Kandivali East, Mumbai - MPCB",13-01-2024 07:00:00,19.205800,72.868200,PM2.5,30,311,80
India,Maharashtra,Mumbai,"Kandivali East, Mumbai - MPCB",13-01-2024 07:00:00,19.205800,72.868200,NO2,32,121,78
India,Maharashtra,Mumbai,"Kherwadi_Bandra East, Mumbai - MPCB",13-01-2024 07:00:00,19.0632143,72.8456324,NO2,20,96,57
India,Maharashtra,Mumbai,"Khindipada-Bhandup West, Mumbai - IITM",13-01-2024 07:00:00,19.1653323,72.922099,PM2.5,76,153,107
India,Maharashtra,Mumbai,"Malad West, Mumbai - IITM",13-01-2024 07:00:00,19.19709,72.82204,NO2,11,21,15
India,Maharashtra,Mumbai,"Mazgaon, Mumbai - IITM",13-01-2024 07:00:00,18.96702,72.84214,CO,1,92,32
India,Maharashtra,Mumbai,"Mindspace-Malad West, Mumbai - MPCB",13-01-2024 07:00:00,19.1878657,72.8304069,SO2,5,14,8
India,Maharashtra,Mumbai,"Mulund West, Mumbai - MPCB",13-01-2024 07:00:00,19.1750,72.9419,PM2.5,30,417,79
India,Maharashtra,Mumbai,"Mulund West, Mumbai - MPCB",13-01-2024 07:00:00,19.1750,72.9419,SO2,14,15,15
India,Maharashtra,Mumbai,"Navy Nagar-Colaba, Mumbai - IITM",13-01-2024 07:00:00,18.897756,72.813320,PM2.5,69,285,92
India,Maharashtra,Mumbai,"Navy Nagar-Colaba, Mumbai - IITM",13-01-2024 07:00:00,18.897756,72.813320,PM10,71,153,105
India,Maharashtra,Mumbai,"Navy Nagar-Colaba, Mumbai - IITM",13-01-2024 07:00:00,18.897756,72.813320,NO2,18,47,27
India,Maharashtra,Mumbai,"Navy Nagar-Colaba, Mumbai - IITM",13-01-2024 07:00:00,18.897756,72.813320,NH3,10,13,11
India,Maharashtra,Mumbai,"Navy Nagar-Colaba, Mumbai - IITM",13-01-2024 07:00:00,18.897756,72.813320,SO2,1,26,6
India,Maharashtra,Mumbai,"Powai, Mumbai - MPCB",13-01-2024 07:00:00,19.137500,72.915056,PM10,89,145,117
India,Maharashtra,Mumbai,"Sewri, Mumbai - BMC",13-01-2024 07:00:00,19.000084,72.856730,PM2.5,87,194,132
India,Maharashtra,Mumbai,"Sewri, Mumbai - BMC",13-01-2024 07:00:00,19.000084,72.856730,PM10,85,145,121
India,Maharashtra,Mumbai,"Siddharth Nagar-Worli, Mumbai - IITM",13-01-2024 07:00:00,19.000083,72.813993,NO2,NA,NA,NA
India,Maharashtra,Mumbai,"Siddharth Nagar-Worli, Mumbai - IITM",13-01-2024 07:00:00,19.000083,72.813993,NH3,NA,NA,NA
India,Maharashtra,Mumbai,"Sion, Mumbai - MPCB",13-01-2024 07:00:00,19.047000,72.874600,CO,NA,NA,NA
India,Maharashtra,Mumbai,"Vasai West, Mumbai - MPCB",13-01-2024 07:00:00,19.383200,72.820400,PM10,47,126,97
India,Maharashtra,Mumbai,"Worli, Mumbai - MPCB",13-01-2024 07:00:00,18.9936162,72.8128113,PM10,84,153,114
India,Maharashtra,Nagpur,"Ambazari, Nagpur - MPCB",13-01-2024 07:00:00,21.121801,79.04952,PM2.5,53,282,136
India,Maharashtra,Nagpur,"Ambazari, Nagpur - MPCB",13-01-2024 07:00:00,21.121801,79.04952,PM10,57,171,117
India,Maharashtra,Nagpur,"Ambazari, Nagpur - MPCB",13-01-2024 07:00:00,21.121801,79.04952,NO2,18,133,52
India,Maharashtra,Nagpur,"Ambazari, Nagpur - MPCB",13-01-2024 07:00:00,21.121801,79.04952,SO2,7,135,40
India,Maharashtra,Nagpur,"Mahal, Nagpur - MPCB",13-01-2024 07:00:00,21.14472,79.107595,PM2.5,84,314,156
India,Maharashtra,Nagpur,"Mahal, Nagpur - MPCB",13-01-2024 07:00:00,21.14472,79.107595,CO,24,160,54
India,Maharashtra,Nagpur,"Ram Nagar, Nagpur - MPCB",13-01-2024 07:00:00,21.143383,79.048912,NO2,21,145,55
India,Maharashtra,Nagpur,"Ram Nagar, Nagpur - MPCB",13-01-2024 07:00:00,21.143383,79.048912,OZONE,2,86,11
India,Maharashtra,Nanded,"Sneh Nagar, Nanded - MPCB",13-01-2024 07:00:00,19.173852,77.296291,PM10,109,176,143
India,Maharashtra,Nashik,"Gangapur Road, Nashik - MPCB",13-01-2024 07:00:00,20.0073285,73.7762427,NO2,3,8,4
India,Maharashtra,Nashik,"Hirawadi, Nashik - MPCB",13-01-2024 07:00:00,20.021503,73.813844,PM2.5,10,93,67
India,Maharashtra,Nashik,"Pandav Nagari, Nashik - MPCB",13-01-2024 07:00:00,19.9591346,73.7788008,NO2,25,126,63
India,Maharashtra,Navi Mumbai,"Kopripada-Vashi, Navi Mumbai - MPCB",13-01-2024 07:00:00,19.090337,73.014232,PM10,64,256,119
India,Maharashtra,Navi Mumbai,"Mahape, Navi Mumbai - MPCB",13-01-2024 07:00:00,19.1135051,73.008978,NH3,3,3,3
India,Maharashtra,Navi Mumbai,"Mahape, Navi Mumbai - MPCB",13-01-2024 07:00:00,19.1135051,73.008978,OZONE,15,49,35
India,Maharashtra,Navi Mumbai,"Nerul, Navi Mumbai - MPCB",13-01-2024 07:00:00,19.008751,73.016620,PM2.5,42,159,91
India,Maharashtra,Navi Mumbai,"Nerul, Navi Mumbai - MPCB",13-01-2024 07:00:00,19.008751,73.016620,OZONE,22,97,34
India,Maharashtra,Navi Mumbai,"Sanpada, Navi Mumbai - MPCB",13-01-2024 07:00:00,19.0575752,73.0151367,NH3,11,45,24
India,Maharashtra,Navi Mumbai,"Sanpada, Navi Mumbai - MPCB",13-01-2024 07:00:00,19.0575752,73.0151367,SO2,17,70,34
India,Maharashtra,Navi Mumbai,"Sanpada, Navi Mumbai - MPCB",13-01-2024 07:00:00,19.0575752,73.0151367,OZONE,NA,NA,NA
India,Maharashtra,Navi Mumbai,"Sector-19A Nerul, Navi Mumbai - IITM",13-01-2024 07:00:00,19.044,73.0325,PM10,118,251,184
India,Maharashtra,Navi Mumbai,"Sector-2E Kalamboli, Navi Mumbai - MPCB",13-01-2024 07:00:00,19.02579,73.10297,CO,6,111,56
India,Maharashtra,Navi Mumbai,"Tondare-Taloja, Navi Mumbai - MPCB",13-01-2024 07:00:00,19.0630,73.1209,PM2.5,64,246,161
India,Maharashtra,Navi Mumbai,"Tondare-Taloja, Navi Mumbai - MPCB",13-01-2024 07:00:00,19.0630,73.1209,NO2,26,144,84
India,Maharashtra,Parbhani,"Masoom Colony, Parbhani - MPCB",13-01-2024 07:00:00,19.265594,76.761463,SO2,16,73,36
India,Maharashtra,Parbhani,"Masoom Colony, Parbhani - MPCB",13-01-2024 07:00:00,19.265594,76.761463,CO,30,109,65
India,Maharashtra,Pimpri-Chinchwad,"Park Street Wakad, Pimpri Chinchwad - MPCB",13-01-2024 07:00:00,18.59051,73.77946,PM2.5,83,314,206
India,Maharashtra,Pimpri-Chinchwad,"Park Street Wakad, Pimpri Chinchwad - MPCB",13-01-2024 07:00:00,18.59051,73.77946,PM10,92,239,159
India,Maharashtra,Pimpri-Chinchwad,"Thergaon, Pimpri Chinchwad - MPCB",13-01-2024 07:00:00,18.616318,73.765797,NH3,7,21,14
India,Maharashtra,Pimpri-Chinchwad,"Thergaon, Pimpri Chinchwad - MPCB",13-01-2024 07:00:00,18.616318,73.765797,CO,16,101,74
India,Maharashtra,Pune,"Alandi, Pune - IITM",13-01-2024 07:00:00,18.675076,73.892743,NO2,17,34,22
India,Maharashtra,Pune,"Alandi, Pune - IITM",13-01-2024 07:00:00,18.675076,73.892743,CO,35,84,46
India,Maharashtra,Pune,"Karve Road, Pune - MPCB",13-01-2024 07:00:00,18.5011743,73.8165527,NO2,2,2,2
India,Maharashtra,Pune,"Karve Road, Pune - MPCB",13-01-2024 07:00:00,18.5011743,73.8165527,SO2,16,30,21
India,Maharashtra,Pune,"Karve Road, Pune - MPCB",13-01-2024 07:00:00,18.5011743,73.8165527,CO,48,90,63
India,Maharashtra,Pune,"Katraj Dairy, Pune - MPCB",13-01-2024 07:00:00,18.454450,73.854155,PM10,64,175,114
India,Maharashtra,Pune,"Katraj Dairy, Pune - MPCB",13-01-2024 07:00:00,18.454450,73.854155,NH3,2,9,4
India,Maharashtra,Pune,"Katraj Dairy, Pune - MPCB",13-01-2024 07:00:00,18.454450,73.854155,OZONE,1,36,1
India,Maharashtra,Pune,"Mhada Colony, Pune - IITM",13-01-2024 07:00:00,18.573040,73.927715,PM10,59,152,105
India,Maharashtra,Pune,"Revenue Colony-Shivajinagar, Pune - IITM",13-01-2024 07:00:00,18.530085,73.849598,OZONE,6,53,7
India,Maharashtra,Pune,"Savitribai Phule Pune University, Pune - MPCB",13-01-2024 07:00:00,18.547056,73.826908,PM2.5,62,291,152
India,Maharashtra,Solapur,"Dnyaneshwar Nagar, Solapur - MPCB",13-01-2024 07:00:00,17.6336264,75.9132495,NO2,15,59,35
India,Maharashtra,Thane,"Kasarvadavali, Thane - MPCB",13-01-2024 07:00:00,19.26777,72.97182,NH3,NA,NA,NA
India,Maharashtra,Thane,"Kasarvadavali, Thane - MPCB",13-01-2024 07:00:00,19.26777,72.97182,CO,16,54,49
India,Maharashtra,Thane,"Upvan Fort, Thane - MPCB",13-01-2024 07:00:00,19.222279,72.957979,PM2.5,71,209,111
India,Maharashtra,Thane,"Upvan Fort, Thane - MPCB",13-01-2024 07:00:00,19.222279,72.957979,PM10,109,156,130
India,Maharashtra,Thane,"Upvan Fort, Thane - MPCB",13-01-2024 07:00:00,19.222279,72.957979,NH3,8,12,10
India,Maharashtra,Thane,"Upvan Fort, Thane - MPCB",13-01-2024 07:00:00,19.222279,72.957979,OZONE,15,154,45
India,Maharashtra,Ulhasnagar,"Sidhi Vinayak Nagar, Ulhasnagar - MPCB",13-01-2024 07:00:00,19.235581,73.159121,PM10,75,202,143
India,Maharashtra,Ulhasnagar,"Sidhi Vinayak Nagar, Ulhasnagar - MPCB",13-01-2024 07:00:00,19.235581,73.159121,SO2,7,25,13
India,Maharashtra,Virar,"Bolinj, Virar - MPCB",13-01-2024 07:00:00,19.4458210,72.7988231,CO,26,108,65
India,Manipur,Imphal,"DM College of Science, Imphal - Manipur PCB",13-01-2024 07:00:00,24.8207389,93.9423085,OZONE,NA,NA,NA
India,Manipur,Imphal,"Manipur University, Imphal - Manipur PCB",13-01-2024 07:00:00,24.7524239,93.9286218,NO2,NA,NA,NA
India,Meghalaya,Shillong,"Lumpyngngad, Shillong - Meghalaya PCB",13-01-2024 07:00:00,25.5586,91.8985,NH3,1,1,1
India,Meghalaya,Shillong,"Lumpyngngad, Shillong - Meghalaya PCB",13-01-2024 07:00:00,25.5586,91.8985,CO,6,31,9
India,Mizoram,Aizawl,"Sikulpuikawn, Aizawl - Mizoram PCB",13-01-2024 07:00:00,23.7176342,92.7192841,NO2,1,4,1
India,Nagaland,Kohima,"PWD Juction, Kohima - NPCB",13-01-2024 07:00:00,25.6635413,94.0989878,PM2.5,31,216,87
India,Nagaland,Kohima,"PWD Juction, Kohima - NPCB",13-01-2024 07:00:00,25.6635413,94.0989878,CO,8,44,14
India,Odisha,Angul,"Hakimapada, Angul - OSPCB",13-01-2024 07:00:00,20.832874,85.104082,PM2.5,110,434,294
India,Odisha,Angul,"Hakimapada, Angul - OSPCB",13-01-2024 07:00:00,20.832874,85.104082,NH3,1,6,3
India,Odisha,Barbil,"Forest Office, Barbil - OSPCB",13-01-2024 07:00:00,22.1166054,85.3945546,PM2.5,28,332,119
India,Odisha,Barbil,"Forest Office, Barbil - OSPCB",13-01-2024 07:00:00,22.1166054,85.3945546,OZONE,4,107,8
India,Odisha,Baripada,"Meher Colony, Baripada - OSPCB",13-01-2024 07:00:00,21.941841,86.728318,SO2,4,6,5
India,Odisha,Baripada,"Meher Colony, Baripada - OSPCB",13-01-2024 07:00:00,21.941841,86.728318,CO,30,68,47
India,Odisha,Baripada,"Meher Colony, Baripada - OSPCB",13-01-2024 07:00:00,21.941841,86.728318,OZONE,10,27,11
India,Odisha,Bhubaneswar,"Lingraj Mandir, Bhubaneswar - OSPCB",13-01-2024 07:00:00,20.240790,85.836784,NO2,26,79,41
India,Odisha,Bhubaneswar,"Lingraj Mandir, Bhubaneswar - OSPCB",13-01-2024 07:00:00,20.240790,85.836784,CO,43,82,59
India,Odisha,Bhubaneswar,"Lingraj Mandir, Bhubaneswar - OSPCB",13-01-2024 07:00:00,20.240790,85.836784,OZONE,63,216,105
India,Odisha,Bhubaneswar,"Patia, Bhubaneswar - OSPCB",13-01-2024 07:00:00,20.34652,85.81630,PM2.5,97,321,201
India,Odisha,Bhubaneswar,"Patia, Bhubaneswar - OSPCB",13-01-2024 07:00:00,20.34652,85.81630,CO,34,104,38
India,Odisha,Bileipada,"Tata Township, Bileipada - OSPCB",13-01-2024 07:00:00,22.06156703,85.47409613,SO2,3,43,11
India,Odisha,Bileipada,"Tata Township, Bileipada - OSPCB",13-01-2024 07:00:00,22.06156703,85.47409613,OZONE,11,24,14
India,Odisha,Brajrajnagar,"GM Office, Brajrajnagar - OSPCB",13-01-2024 07:00:00,21.8004996,83.8396977,PM10,27,106,63
India,Odisha,Brajrajnagar,"GM Office, Brajrajnagar - OSPCB",13-01-2024 07:00:00,21.8004996,83.8396977,OZONE,19,25,19
India,Odisha,Byasanagar,"Ferro Chrome Colony, Byasanagar - OSPCB",13-01-2024 07:00:00,20.94185,86.11510,OZONE,8,148,31
India,Odisha,Cuttack,"CDA Area, Cuttack - OSPCB",13-01-2024 07:00:00,20.48891     ,85.84768     ,NO2,27,90,38
India,Odisha,Cuttack,"CDA Area, Cuttack - OSPCB",13-01-2024 07:00:00,20.48891     ,85.84768     ,SO2,7,26,13
India,Odisha,Keonjhar,"Jagamohanpur, Keonjhar - OSPCB",13-01-2024 07:00:00,21.643900,85.599355,PM2.5,56,226,136
India,Odisha,Keonjhar,"Jagamohanpur, Keonjhar - OSPCB",13-01-2024 07:00:00,21.643900,85.599355,NH3,10,15,12
India,Odisha,Nayagarh,"Dabuna, Nayagarh - OSPCB",13-01-2024 07:00:00,21.847279,85.416905,PM2.5,NA,NA,NA
India,Odisha,Rairangpur,"Divisional Forest Office, Rairangpur - OSPCB",13-01-2024 07:00:00,22.265816,86.174829,PM10,72,136,104
India,Odisha,Rairangpur,"Divisional Forest Office, Rairangpur - OSPCB",13-01-2024 07:00:00,22.265816,86.174829,NH3,3,3,3
India,Odisha,Rairangpur,"Divisional Forest Office, Rairangpur - OSPCB",13-01-2024 07:00:00,22.265816,86.174829,SO2,1,25,9
India,Odisha,Rourkela,"Raghunathpali, Rourkela - OSPCB",13-01-2024 07:00:00,22.220833,84.809444,PM2.5,45,132,88
India,Odisha,Rourkela,"Raghunathpali, Rourkela - OSPCB",13-01-2024 07:00:00,22.220833,84.809444,NO2,19,124,55
India,Odisha,Rourkela,"Raghunathpali, Rourkela - OSPCB",13-01-2024 07:00:00,22.220833,84.809444,NH3,1,5,4
India,Odisha,Rourkela,"Sector-2, Rourkela - OSPCB",13-01-2024 07:00:00,22.24500000,84.88111111,PM2.5,18,75,44
India,Odisha,Suakati,"OMC Colony, Suakati - OSPCB",13-01-2024 07:00:00,21.606865,85.510538,PM2.5,22,244,119
India,Puducherry,Puducherry,"Jawahar Nagar, Puducherry - PPCC",13-01-2024 07:00:00,11.9309,79.8027,CO,42,72,49
India,Punjab,Amritsar,"Golden Temple, Amritsar - PPCB",13-01-2024 07:00:00,31.620000,74.876512,NH3,3,5,4
India,Punjab,Amritsar,"Golden Temple, Amritsar - PPCB",13-01-2024 07:00:00,31.620000,74.876512,OZONE,10,30,28
India,Punjab,Bathinda,"Hardev Nagar, Bathinda - PPCB",13-01-2024 07:00:00,30.233011,74.907758,NO2,32,36,33
India,Punjab,Bathinda,"Hardev Nagar, Bathinda - PPCB",13-01-2024 07:00:00,30.233011,74.907758,SO2,1,47,14
India,Punjab,Jalandhar,"Civil Line, Jalandhar - PPCB",13-01-2024 07:00:00,31.321907,75.578914,PM2.5,52,149,106
India,Punjab,Jalandhar,"Civil Line, Jalandhar - PPCB",13-01-2024 07:00:00,31.321907,75.578914,SO2,23,34,29
India,Punjab,Khanna,"Kalal Majra, Khanna - PPCB",13-01-2024 07:00:00,30.736056 ,76.209694,PM2.5,42,223,149
India,Punjab,Mandi Gobindgarh,"RIMT University, Mandi Gobindgarh - PPCB",13-01-2024 07:00:00,30.649961,76.331442,SO2,NA,NA,NA
India,Punjab,Patiala,"Model Town, Patiala - PPCB",13-01-2024 07:00:00,30.349388,76.366642,PM10,109,175,134
India,Rajasthan,Alwar,"Moti Doongri, Alwar - RSPCB",13-01-2024 07:00:00,27.554793,76.611536,PM10,48,347,123
India,Rajasthan,Alwar,"Moti Doongri, Alwar - RSPCB",13-01-2024 07:00:00,27.554793,76.611536,NO2,39,60,45
India,Rajasthan,Alwar,"Moti Doongri, Alwar - RSPCB",13-01-2024 07:00:00,27.554793,76.611536,NH3,5,9,6
India,Rajasthan,Alwar,"Moti Doongri, Alwar - RSPCB",13-01-2024 07:00:00,27.554793,76.611536,OZONE,7,32,9
India,Rajasthan,Banswara,"Rati Talai, Banswara - RSPCB",13-01-2024 07:00:00,23.555190,74.440010,NO2,1,22,8
India,Rajasthan,Banswara,"Rati Talai, Banswara - RSPCB",13-01-2024 07:00:00,23.555190,74.440010,OZONE,4,128,35
India,Rajasthan,Baran,"Bamboliya, Baran - RSPCB",13-01-2024 07:00:00,25.106006,76.469948,PM2.5,30,303,120
India,Rajasthan,Baran,"Bamboliya, Baran - RSPCB",13-01-2024 07:00:00,25.106006,76.469948,NO2,22,96,42
India,Rajasthan,Baran,"Bamboliya, Baran - RSPCB",13-01-2024 07:00:00,25.106006,76.469948,SO2,1,8,3
India,Rajasthan,Barmer,"Railway Colony, Barmer - RSPCB",13-01-2024 07:00:00,25.747299,71.393989,NH3,4,33,10
India,Rajasthan,Barmer,"Railway Colony, Barmer - RSPCB",13-01-2024 07:00:00,25.747299,71.393989,CO,10,142,33
India,Rajasthan,Bharatpur,"Krishna Nagar, Bharatpur - RSPCB",13-01-2024 07:00:00,27.215415,77.50873,OZONE,6,140,16
India,Rajasthan,Bhiwadi,"RIICO Ind. Area III, Bhiwadi - RSPCB",13-01-2024 07:00:00,28.194909,76.862296,NO2,21,34,29
India,Rajasthan,Bhiwadi,"RIICO Ind. Area III, Bhiwadi - RSPCB",13-01-2024 07:00:00,28.194909,76.862296,OZONE,6,8,7
India,Rajasthan,Chittorgarh,"Shastri Nagar, Chittorgarh - RSPCB",13-01-2024 07:00:00,24.892047,74.623527,PM10,NA,NA,NA
India,Rajasthan,Chittorgarh,"Shastri Nagar, Chittorgarh - RSPCB",13-01-2024 07:00:00,24.892047,74.623527,NH3,NA,NA,NA
India,Rajasthan,Churu,"Subash Chowk, Churu - RSPCB",13-01-2024 07:00:00,28.296139,74.961696,NO2,26,122,54
India,Rajasthan,Churu,"Subash Chowk, Churu - RSPCB",13-01-2024 07:00:00,28.296139,74.961696,SO2,3,14,6
India,Rajasthan,Churu,"Subash Chowk, Churu - RSPCB",13-01-2024 07:00:00,28.296139,74.961696,CO,30,114,62
India,Rajasthan,Dausa,"Khatikan Mohalla, Dausa - RSPCB",13-01-2024 07:00:00,26.895552,76.334753,CO,36,157,86
India,Rajasthan,Hanumangarh,"Housing Board, Hanumangarh - RSPCB",13-01-2024 07:00:00,29.610750,74.283608,NH3,15,22,18
India,Rajasthan,Jaipur,"Adarsh Nagar, Jaipur - RSPCB",13-01-2024 07:00:00,26.902909,75.836858,PM2.5,74,334,186
India,Rajasthan,Jaipur,"Adarsh Nagar, Jaipur - RSPCB",13-01-2024 07:00:00,26.902909,75.836858,NH3,4,26,11
India,Rajasthan,Jaipur,"Adarsh Nagar, Jaipur - RSPCB",13-01-2024 07:00:00,26.902909,75.836858,SO2,3,39,12
India,Rajasthan,Jaipur,"Mansarovar Sector-12, Jaipur - RSPCB",13-01-2024 07:00:00,26.843698,75.766894,NO2,16,186,88
India,Rajasthan,Jaipur,"Mansarovar Sector-12, Jaipur - RSPCB",13-01-2024 07:00:00,26.843698,75.766894,NH3,10,17,13
India,Rajasthan,Jaipur,"Police Commissionerate, Jaipur - RSPCB",13-01-2024 07:00:00,26.9164092,75.7994901,PM2.5,126,340,245
India,Rajasthan,Jaipur,"Police Commissionerate, Jaipur - RSPCB",13-01-2024 07:00:00,26.9164092,75.7994901,PM10,108,381,189
India,Rajasthan,Jaipur,"RIICO Sitapura, Jaipur - RSPCB",13-01-2024 07:00:00,26.786682,75.827928,NO2,26,212,87
India,Rajasthan,Jaipur,"Sector-2 Murlipura, Jaipur - RSPCB",13-01-2024 07:00:00,26.960669,75.771817,NH3,6,8,7
India,Rajasthan,Jaipur,"Shastri Nagar, Jaipur - RSPCB",13-01-2024 07:00:00,26.9502929,75.730943,PM2.5,78,382,202
India,Rajasthan,Jaipur,"Shastri Nagar, Jaipur - RSPCB",13-01-2024 07:00:00,26.9502929,75.730943,NH3,12,116,38
India,Rajasthan,Jaisalmer,"Sadar Bazar, Jaisalmer - RSPCB",13-01-2024 07:00:00,26.912329,70.909168,SO2,3,16,6
India,Rajasthan,Jalore,"Mudtra Sili, Jalore - RSPCB",13-01-2024 07:00:00,25.344694,72.626208,CO,1,170,73
India,Rajasthan,Jhalawar,"Rajlaxmi Nagar, Jhalawar - RSPCB",13-01-2024 07:00:00,24.588397,76.172782,SO2,4,13,8
India,Rajasthan,Jhunjhunu,"Indra Nagar, Jhunjhunu - RSPCB",13-01-2024 07:00:00,28.108988,75.386577,PM10,41,361,142
India,Rajasthan,Jodhpur,"Collectorate, Jodhpur - RSPCB",13-01-2024 07:00:00,26.268249,73.0193853,PM2.5,NA,NA,NA
India,Rajasthan,Jodhpur,"Collectorate, Jodhpur - RSPCB",13-01-2024 07:00:00,26.268249,73.0193853,OZONE,27,138,31
India,Rajasthan,Jodhpur,"Digari Kalan, Jodhpur - RSPCB",13-01-2024 07:00:00,26.295810,73.082283,SO2,1,13,4
India,Rajasthan,Jodhpur,"Digari Kalan, Jodhpur - RSPCB",13-01-2024 07:00:00,26.295810,73.082283,OZONE,2,138,3
India,Rajasthan,Jodhpur,"Jhalamand, Jodhpur - RSPCB",13-01-2024 07:00:00,26.215415,73.070156,NH3,5,12,8
India,Rajasthan,Jodhpur,"Jhalamand, Jodhpur - RSPCB",13-01-2024 07:00:00,26.215415,73.070156,CO,8,111,85
India,Rajasthan,Jodhpur,"Mandor, Jodhpur - RSPCB",13-01-2024 07:00:00,26.358805,73.047444,SO2,1,16,5
India,Rajasthan,Jodhpur,"Mandor, Jodhpur - RSPCB",13-01-2024 07:00:00,26.358805,73.047444,OZONE,2,133,4
India,Rajasthan,Jodhpur,"Samrat Ashok Udhyan, Jodhpur - RSPCB",13-01-2024 07:00:00,26.253384,72.976571,SO2,3,34,13
India,Rajasthan,Jodhpur,"Samrat Ashok Udhyan, Jodhpur - RSPCB",13-01-2024 07:00:00,26.253384,72.976571,OZONE,5,137,6
India,Rajasthan,Karauli,"Satyawati Vihar, Karauli - RSPCB",13-01-2024 07:00:00,26.506177,77.025989,NH3,6,8,8
India,Rajasthan,Karauli,"Satyawati Vihar, Karauli - RSPCB",13-01-2024 07:00:00,26.506177,77.025989,SO2,11,19,16
India,Rajasthan,Kota,"Dhanmandi, Kota - RSPCB",13-01-2024 07:00:00,25.164090,75.858137,NO2,32,286,79
India,Rajasthan,Kota,"Shrinath Puram, Kota - RSPCB",13-01-2024 07:00:00,25.14389,75.821256,PM10,79,189,128
India,Rajasthan,Kota,"Shrinath Puram, Kota - RSPCB",13-01-2024 07:00:00,25.14389,75.821256,SO2,9,110,26
India,Rajasthan,Pali,"Indira Colony Vistar, Pali - RSPCB",13-01-2024 07:00:00,25.771061, 73.340227,PM2.5,62,354,165
India,Rajasthan,Pali,"Indira Colony Vistar, Pali - RSPCB",13-01-2024 07:00:00,25.771061, 73.340227,PM10,122,187,141
India,Rajasthan,Pali,"Indira Colony Vistar, Pali - RSPCB",13-01-2024 07:00:00,25.771061, 73.340227,SO2,7,15,12
India,Rajasthan,Pali,"Indira Colony Vistar, Pali - RSPCB",13-01-2024 07:00:00,25.771061, 73.340227,OZONE,11,17,12
India,Rajasthan,Pratapgarh,"Pragati Nagar, Pratapgarh - RSPCB",13-01-2024 07:00:00,24.041198,74.780702,OZONE,2,79,38
India,Rajasthan,Rajsamand,"Dhoinda, Rajsamand - RSPCB",13-01-2024 07:00:00,25.036360,73.883502,NO2,17,81,33
India,Rajasthan,Rajsamand,"Dhoinda, Rajsamand - RSPCB",13-01-2024 07:00:00,25.036360,73.883502,SO2,2,24,6
India,Rajasthan,Rajsamand,"Dhoinda, Rajsamand - RSPCB",13-01-2024 07:00:00,25.036360,73.883502,CO,24,76,56
India,Rajasthan,Sawai Madhopur,"Sahu Nagar, Sawai Madhopur - RSPCB",13-01-2024 07:00:00,26.031443,76.359327,SO2,20,42,30
India,Rajasthan,Sikar,"Radhakishan Pura, Sikar - RSPCB",13-01-2024 07:00:00,27.608912,75.153302,PM2.5,52,391,188
India,Rajasthan,Sirohi,"Vedhaynath Colony, Sirohi - RSPCB",13-01-2024 07:00:00,24.885261,72.857549,NO2,10,101,40
India,Rajasthan,Sirohi,"Vedhaynath Colony, Sirohi - RSPCB",13-01-2024 07:00:00,24.885261,72.857549,NH3,4,12,6
India,Rajasthan,Tonk,"Shastri Nagar, Tonk - RSPCB",13-01-2024 07:00:00,26.159933,75.780517,OZONE,1,83,23
India,Rajasthan,Udaipur,"Ashok Nagar, Udaipur - RSPCB",13-01-2024 07:00:00,24.5886166,73.6321397,PM10,81,238,142
India,Sikkim,Gangtok,"Zero Point GICI, Gangtok - SSPCB",13-01-2024 07:00:00,27.338530,88.614099,PM2.5,11,24,18
India,TamilNadu,Ariyalur,"Keelapalur, Ariyalur - TNPCB",13-01-2024 07:00:00,11.06825,79.07033,NO2,2,67,23
India,TamilNadu,Chengalpattu,"Crescent University, Chengalpattu - TNPCB",13-01-2024 07:00:00,12.8777316,80.0834807,OZONE,NA,NA,NA
India,TamilNadu,Chennai,"Alandur Bus Depot, Chennai - CPCB",13-01-2024 07:00:00,12.9099161,80.1076538,CO,99,164,109
India,TamilNadu,Chennai,"Alandur Bus Depot, Chennai - CPCB",13-01-2024 07:00:00,12.9099161,80.1076538,OZONE,16,33,17
India,TamilNadu,Chennai,"Kodungaiyur, Chennai - TNPCB",13-01-2024 07:00:00,13.1278,80.2642,NH3,3,5,4
India,TamilNadu,Chennai,"Kodungaiyur, Chennai - TNPCB",13-01-2024 07:00:00,13.1278,80.2642,OZONE,5,7,6
India,TamilNadu,Chennai,"Manali, Chennai - CPCB",13-01-2024 07:00:00,13.164544,80.26285,NO2,3,18,12
India,TamilNadu,Chennai,"Manali, Chennai - CPCB",13-01-2024 07:00:00,13.164544,80.26285,SO2,5,12,8
India,TamilNadu,Chennai,"Perungudi, Chennai - TNPCB",13-01-2024 07:00:00,12.9533,80.2357,NO2,3,16,8
India,TamilNadu,Chennai,"Perungudi, Chennai - TNPCB",13-01-2024 07:00:00,12.9533,80.2357,OZONE,29,56,47
India,TamilNadu,Chennai,"Royapuram, Chennai - TNPCB",13-01-2024 07:00:00,13.1036,80.2909,PM2.5,64,295,117
India,TamilNadu,Chennai,"Royapuram, Chennai - TNPCB",13-01-2024 07:00:00,13.1036,80.2909,SO2,1,5,2
India,TamilNadu,Chennai,"Royapuram, Chennai - TNPCB",13-01-2024 07:00:00,13.1036,80.2909,OZONE,9,10,9
India,TamilNadu,Coimbatore,"PSG College of Arts and Science, Coimbatore - TNPCB",13-01-2024 07:00:00,11.0328,77.0349,NH3,1,1,1
India,TamilNadu,Coimbatore,"PSG College of Arts and Science, Coimbatore - TNPCB",13-01-2024 07:00:00,11.0328,77.0349,CO,2,32,16
India,TamilNadu,Cuddalore,"Kudikadu, Cuddalore - TNPCB",13-01-2024 07:00:00,11.6829898,79.7532099,SO2,16,18,17
India,TamilNadu,Cuddalore,"Semmandalam, Cuddalore - TNPCB",13-01-2024 07:00:00,11.7637683,79.7499835,PM2.5,49,153,85
India,TamilNadu,Cuddalore,"Semmandalam, Cuddalore - TNPCB",13-01-2024 07:00:00,11.7637683,79.7499835,OZONE,1,2,2
India,TamilNadu,Kanchipuram,"Kilambi, Kanchipuram - TNPCB",13-01-2024 07:00:00,12.864618,79.659968,PM10,65,158,88
India,TamilNadu,Kanchipuram,"Kilambi, Kanchipuram - TNPCB",13-01-2024 07:00:00,12.864618,79.659968,OZONE,2,4,3
India,TamilNadu,Ooty,"Bombay Castel, Ooty - TNPCB",13-01-2024 07:00:00,11.4068288,76.7138973,PM2.5,NA,NA,NA
India,TamilNadu,Ooty,"Bombay Castel, Ooty - TNPCB",13-01-2024 07:00:00,11.4068288,76.7138973,NO2,NA,NA,NA
India,TamilNadu,Salem,"Sona College of Technology, Salem - TNPCB",13-01-2024 07:00:00,11.679111,78.125052,SO2,18,102,78
India,TamilNadu,Thoothukudi,"Meelavittan, Thoothukudi - TNPCB",13-01-2024 07:00:00,8.816428 ,78.099039,SO2,9,24,13
India,TamilNadu,Tiruchirappalli,"St Joseph College, Tiruchirappalli - TNPCB",13-01-2024 07:00:00,10.830158,78.691849,PM2.5,44,75,59
India,TamilNadu,Tirupur,"Kumaran College, Tirupur - TNPCB",13-01-2024 07:00:00,11.0973603,77.3228673,NO2,12,62,29
India,TamilNadu,Tirupur,"Kumaran College, Tirupur - TNPCB",13-01-2024 07:00:00,11.0973603,77.3228673,CO,30,106,44
India,TamilNadu,Vellore,"Vasanthapuram, Vellore - TNPCB",13-01-2024 07:00:00,12.909494,79.131861,SO2,13,31,16
India,TamilNadu,Vellore,"Vasanthapuram, Vellore - TNPCB",13-01-2024 07:00:00,12.909494,79.131861,CO,NA,NA,NA
India,TamilNadu,Virudhunagar,"Collectorate Office, Virudhunagar - TNPCB",13-01-2024 07:00:00,9.559382,77.948828,NH3,2,3,3
India,Telangana,Hyderabad,"Bollaram Industrial Area, Hyderabad - TSPCB",13-01-2024 07:00:00,17.540891,78.358528,SO2,11,23,16
India,Telangana,Hyderabad,"ECIL Kapra, Hyderabad - TSPCB",13-01-2024 07:00:00,17.470431,78.566959,OZONE,1,53,10
India,Telangana,Hyderabad,"IITH Kandi, Hyderabad - TSPCB",13-01-2024 07:00:00,17.585705,78.126199,PM10,NA,NA,NA
India,Telangana,Hyderabad,"IITH Kandi, Hyderabad - TSPCB",13-01-2024 07:00:00,17.585705,78.126199,NH3,NA,NA,NA
India,Telangana,Hyderabad,"IITH Kandi, Hyderabad - TSPCB",13-01-2024 07:00:00,17.585705,78.126199,CO,2,74,18
India,Telangana,Hyderabad,"Kokapet, Hyderabad - TSPCB",13-01-2024 07:00:00,17.393559,78.339194,NH3,1,2,1
India,Telangana,Hyderabad,"Kompally Municipal Office, Hyderabad - TSPCB",13-01-2024 07:00:00,17.544899,78.486949,NH3,5,6,5
India,Telangana,Hyderabad,"Kompally Municipal Office, Hyderabad - TSPCB",13-01-2024 07:00:00,17.544899,78.486949,CO,18,64,41
India,Telangana,Hyderabad,"Nacharam_TSIIC IALA, Hyderabad - TSPCB",13-01-2024 07:00:00,17.429398,78.569354,CO,20,37,24
India,Telangana,Hyderabad,"Nacharam_TSIIC IALA, Hyderabad - TSPCB",13-01-2024 07:00:00,17.429398,78.569354,OZONE,18,38,19
India,Telangana,Hyderabad,"New Malakpet, Hyderabad - TSPCB",13-01-2024 07:00:00,17.37206,78.50864,PM10,54,67,60
India,Telangana,Hyderabad,"New Malakpet, Hyderabad - TSPCB",13-01-2024 07:00:00,17.37206,78.50864,SO2,8,29,13
India,Telangana,Hyderabad,"Somajiguda, Hyderabad - TSPCB",13-01-2024 07:00:00,17.417094,78.457437,NH3,NA,NA,NA
India,Telangana,Hyderabad,"Somajiguda, Hyderabad - TSPCB",13-01-2024 07:00:00,17.417094,78.457437,OZONE,NA,NA,NA
India,Uttar_Pradesh,Agra,"Manoharpur, Agra - UPPCB",13-01-2024 07:00:00,27.23711,78.01936,NH3,1,3,1
India,Uttar_Pradesh,Agra,"Manoharpur, Agra - UPPCB",13-01-2024 07:00:00,27.23711,78.01936,CO,26,52,41
India,Uttar_Pradesh,Agra,"Rohta, Agra - UPPCB",13-01-2024 07:00:00,27.106972,78.000111,PM2.5,33,337,166
India,Uttar_Pradesh,Agra,"Rohta, Agra - UPPCB",13-01-2024 07:00:00,27.106972,78.000111,OZONE,21,22,21
India,Uttar_Pradesh,Agra,"Sanjay Palace, Agra - UPPCB",13-01-2024 07:00:00,27.19865833,78.00598056,PM10,92,196,148
India,Uttar_Pradesh,Agra,"Sector-3B Avas Vikas Colony, Agra - UPPCB",13-01-2024 07:00:00,27.19412,77.96237,SO2,14,20,16
India,Uttar_Pradesh,Agra,"Shahjahan Garden, Agra - UPPCB",13-01-2024 07:00:00,27.169338,78.03582,CO,23,72,55
India,Uttar_Pradesh,Agra,"Shastripuram, Agra - UPPCB",13-01-2024 07:00:00,27.19862,77.92066,PM10,42,249,137
India,Uttar_Pradesh,Baghpat,"Sardar Patel Inter College, Baghpat - UPPCB",13-01-2024 07:00:00,28.964949,77.278761,PM10,75,272,147
India,Uttar_Pradesh,Baghpat,"Sardar Patel Inter College, Baghpat - UPPCB",13-01-2024 07:00:00,28.964949,77.278761,CO,54,102,98
India,Uttar_Pradesh,Bareilly,"Civil Lines, Bareilly - UPPCB",13-01-2024 07:00:00,28.359581,79.414455,NH3,1,5,1
India,Uttar_Pradesh,Bareilly,"Rajendra Nagar, Bareilly - UPPCB",13-01-2024 07:00:00,28.38910936,79.42963708,SO2,38,39,39
India,Uttar_Pradesh,Bareilly,"Rajendra Nagar, Bareilly - UPPCB",13-01-2024 07:00:00,28.38910936,79.42963708,CO,52,90,73
India,Uttar_Pradesh,Bulandshahr,"Yamunapuram, Bulandshahr - UPPCB",13-01-2024 07:00:00,28.406963,77.849831,PM2.5,82,318,227
India,Uttar_Pradesh,Bulandshahr,"Yamunapuram, Bulandshahr - UPPCB",13-01-2024 07:00:00,28.406963,77.849831,NO2,11,105,55
India,Uttar_Pradesh,Firozabad,"Nagla Bhau, Firozabad - UPPCB",13-01-2024 07:00:00,27.168897,78.376960,PM2.5,66,365,215
India,Uttar_Pradesh,Firozabad,"Nagla Bhau, Firozabad - UPPCB",13-01-2024 07:00:00,27.168897,78.376960,PM10,52,248,132
India,Uttar_Pradesh,Ghaziabad,"Indirapuram, Ghaziabad - UPPCB",13-01-2024 07:00:00,28.646233,77.358075,NO2,101,138,119
India,Uttar_Pradesh,Ghaziabad,"Indirapuram, Ghaziabad - UPPCB",13-01-2024 07:00:00,28.646233,77.358075,NH3,12,16,14
India,Uttar_Pradesh,Ghaziabad,"Loni, Ghaziabad - UPPCB",13-01-2024 07:00:00,28.757294,77.278792,PM10,102,351,196
India,Uttar_Pradesh,Ghaziabad,"Sanjay Nagar, Ghaziabad - UPPCB",13-01-2024 07:00:00,28.685382,77.453839,NH3,13,19,16
India,Uttar_Pradesh,Ghaziabad,"Sanjay Nagar, Ghaziabad - UPPCB",13-01-2024 07:00:00,28.685382,77.453839,OZONE,3,44,4
India,Uttar_Pradesh,Ghaziabad,"Vasundhara, Ghaziabad - UPPCB",13-01-2024 07:00:00,28.6603346,77.3572563,PM2.5,272,395,333
India,Uttar_Pradesh,Gorakhpur,"Madan Mohan Malaviya University of Technology, Gorakhpur - UPPCB",13-01-2024 07:00:00,26.730136,83.433859,NH3,2,3,2
India,Uttar_Pradesh,Greater Noida,"Knowledge Park - III, Greater Noida - UPPCB",13-01-2024 07:00:00,28.47272,77.482000,NO2,27,93,46
India,Uttar_Pradesh,Greater Noida,"Knowledge Park - III, Greater Noida - UPPCB",13-01-2024 07:00:00,28.47272,77.482000,OZONE,1,141,1
India,Uttar_Pradesh,Greater Noida,"Knowledge Park - V, Greater Noida - UPPCB",13-01-2024 07:00:00,28.557054,77.453663,NO2,12,66,32
India,Uttar_Pradesh,Greater Noida,"Knowledge Park - V, Greater Noida - UPPCB",13-01-2024 07:00:00,28.557054,77.453663,SO2,5,17,10
India,Uttar_Pradesh,Hapur,"Anand Vihar, Hapur - UPPCB",13-01-2024 07:00:00,28.725645,77.749675,SO2,18,96,61
India,Uttar_Pradesh,Jhansi,"Shivaji Nagar, Jhansi - UPPCB",13-01-2024 07:00:00,25.4547,78.6039,PM2.5,23,259,96
India,Uttar_Pradesh,Jhansi,"Shivaji Nagar, Jhansi - UPPCB",13-01-2024 07:00:00,25.4547,78.6039,PM10,34,213,114
India,Uttar_Pradesh,Jhansi,"Shivaji Nagar, Jhansi - UPPCB",13-01-2024 07:00:00,25.4547,78.6039,CO,16,101,42
India,Uttar_Pradesh,Jhansi,"Shivaji Nagar, Jhansi - UPPCB",13-01-2024 07:00:00,25.4547,78.6039,OZONE,3,69,7
India,Uttar_Pradesh,Kanpur,"NSI Kalyanpur, Kanpur - UPPCB",13-01-2024 07:00:00,26.509954,80.249612,NH3,2,4,3
India,Uttar_Pradesh,Lucknow,"B R Ambedkar University, Lucknow - UPPCB",13-01-2024 07:00:00,26.766433,80.927299,PM10,59,165,121
India,Uttar_Pradesh,Lucknow,"Kendriya Vidyalaya, Lucknow - CPCB",13-01-2024 07:00:00,26.906111,80.948222,CO,40,101,54
India,Uttar_Pradesh,Lucknow,"Kukrail Picnic Spot-1, Lucknow - UPPCB",13-01-2024 07:00:00,26.90723,80.98579,PM2.5,77,191,142
India,Uttar_Pradesh,Lucknow,"Lalbagh, Lucknow - CPCB",13-01-2024 07:00:00,26.8458805,80.9365541,PM2.5,301,413,334
India,Uttar_Pradesh,Lucknow,"Lalbagh, Lucknow - CPCB",13-01-2024 07:00:00,26.8458805,80.9365541,PM10,195,457,294
India,Uttar_Pradesh,Lucknow,"Talkatora District Industries Center, Lucknow - CPCB",13-01-2024 07:00:00,26.83399722,80.8917361,PM10,153,235,192
India,Uttar_Pradesh,Lucknow,"Talkatora District Industries Center, Lucknow - CPCB",13-01-2024 07:00:00,26.83399722,80.8917361,CO,6,68,37
India,Uttar_Pradesh,Lucknow,"Talkatora District Industries Center, Lucknow - CPCB",13-01-2024 07:00:00,26.83399722,80.8917361,OZONE,2,71,6
India,Uttar_Pradesh,Meerut,"Ganga Nagar, Meerut - UPPCB",13-01-2024 07:00:00,28.999264,77.7590354,PM10,163,305,241
India,Uttar_Pradesh,Meerut,"Pallavpuram Phase 2, Meerut - UPPCB",13-01-2024 07:00:00,29.063510,77.709723,PM10,126,277,197
India,Uttar_Pradesh,Moradabad,"Buddhi Vihar, Moradabad - UPPCB",13-01-2024 07:00:00,28.83526,78.74460,CO,48,78,66
India,Uttar_Pradesh,Moradabad,"Eco Herbal Park, Moradabad - UPPCB",13-01-2024 07:00:00,28.840739,78.697531,PM10,56,194,132
India,Uttar_Pradesh,Moradabad,"Eco Herbal Park, Moradabad - UPPCB",13-01-2024 07:00:00,28.840739,78.697531,OZONE,4,12,5
India,Uttar_Pradesh,Moradabad,"Employment Office, Moradabad - UPPCB",13-01-2024 07:00:00,28.88528,78.73880,NO2,25,26,26
India,Uttar_Pradesh,Moradabad,"Employment Office, Moradabad - UPPCB",13-01-2024 07:00:00,28.88528,78.73880,SO2,23,26,24
India,Uttar_Pradesh,Moradabad,"Jigar Colony, Moradabad - UPPCB",13-01-2024 07:00:00,28.856664,78.772638,PM2.5,56,276,139
India,Uttar_Pradesh,Moradabad,"Jigar Colony, Moradabad - UPPCB",13-01-2024 07:00:00,28.856664,78.772638,PM10,72,209,151
India,Uttar_Pradesh,Moradabad,"Jigar Colony, Moradabad - UPPCB",13-01-2024 07:00:00,28.856664,78.772638,NH3,5,5,5
India,Uttar_Pradesh,Moradabad,"Jigar Colony, Moradabad - UPPCB",13-01-2024 07:00:00,28.856664,78.772638,SO2,14,26,20
India,Uttar_Pradesh,Moradabad,"Kashiram Nagar, Moradabad - UPPCB",13-01-2024 07:00:00,28.849399,78.742362,SO2,18,26,21
India,Uttar_Pradesh,Moradabad,"Transport Nagar, Moradabad - UPPCB",13-01-2024 07:00:00,28.802625,78.753728,CO,40,42,40
India,Uttar_Pradesh,Muzaffarnagar,"New Mandi, Muzaffarnagar - UPPCB",13-01-2024 07:00:00,29.4723508,77.7194031,NO2,38,75,55
India,Uttar_Pradesh,Muzaffarnagar,"New Mandi, Muzaffarnagar - UPPCB",13-01-2024 07:00:00,29.4723508,77.7194031,OZONE,5,23,9
India,Uttar_Pradesh,Noida,"Sector - 125, Noida - UPPCB",13-01-2024 07:00:00,28.5447608,77.3231257,PM10,118,296,180
India,Uttar_Pradesh,Noida,"Sector - 125, Noida - UPPCB",13-01-2024 07:00:00,28.5447608,77.3231257,NH3,4,15,10
India,Uttar_Pradesh,Noida,"Sector - 62, Noida - IMD",13-01-2024 07:00:00,28.6245479,77.3577104,CO,100,103,102
India,Uttar_Pradesh,Prayagraj,"Motilal Nehru NIT, Prayagraj - UPPCB",13-01-2024 07:00:00,25.494,81.863,PM10,NA,NA,NA
India,Uttar_Pradesh,Prayagraj,"Motilal Nehru NIT, Prayagraj - UPPCB",13-01-2024 07:00:00,25.494,81.863,OZONE,6,119,9
India,Uttar_Pradesh,Prayagraj,"Nagar Nigam, Prayagraj - UPPCB",13-01-2024 07:00:00,25.44919916 ,81.82735986 ,NO2,9,9,9
India,Uttar_Pradesh,Prayagraj,"Nagar Nigam, Prayagraj - UPPCB",13-01-2024 07:00:00,25.44919916 ,81.82735986 ,OZONE,4,7,5
India,Uttar_Pradesh,Varanasi,"Ardhali Bazar, Varanasi - UPPCB",13-01-2024 07:00:00,25.3505986,82.9083074,NO2,22,45,32
India,Uttar_Pradesh,Varanasi,"Ardhali Bazar, Varanasi - UPPCB",13-01-2024 07:00:00,25.3505986,82.9083074,OZONE,18,31,22
India,Uttar_Pradesh,Varanasi,"Bhelupur, Varanasi - UPPCB",13-01-2024 07:00:00,25.301778,82.996789,PM2.5,21,66,34
India,Uttar_Pradesh,Varanasi,"IESD Banaras Hindu University, Varanasi - UPPCB",13-01-2024 07:00:00,25.262326,82.995408,SO2,15,16,15
India,Uttar_Pradesh,Varanasi,"Maldahiya, Varanasi - UPPCB",13-01-2024 07:00:00,25.32393,82.99687,CO,32,86,53
India,Uttarakhand,Kashipur,"Govt. Girls Inter College, Kashipur - UKPCB",13-01-2024 07:00:00,29.2124114,78.9611753,NO2,18,79,41
India,Uttarakhand,Kashipur,"Govt. Girls Inter College, Kashipur - UKPCB",13-01-2024 07:00:00,29.2124114,78.9611753,OZONE,1,6,4
India,West_Bengal,Asansol,"Asansol Court Area, Asansol - WBPCB",13-01-2024 07:00:00,23.685297,86.945968,NO2,22,81,48
India,West_Bengal,Asansol,"Asansol Court Area, Asansol - WBPCB",13-01-2024 07:00:00,23.685297,86.945968,SO2,7,21,13
India,West_Bengal,Asansol,"Asansol Court Area, Asansol - WBPCB",13-01-2024 07:00:00,23.685297,86.945968,CO,18,52,42
India,West_Bengal,Asansol,"Asansol Court Area, Asansol - WBPCB",13-01-2024 07:00:00,23.685297,86.945968,OZONE,18,88,31
India,West_Bengal,Durgapur,"Sidhu Kanhu Indoor Stadium, Durgapur - WBPCB",13-01-2024 07:00:00,23.5404352,87.2892225,NH3,3,4,3
India,West_Bengal,Haldia,"Priyambada Housing Estate, Haldia - WBPCB",13-01-2024 07:00:00,22.06047,88.109737,NO2,25,64,36
India,West_Bengal,Haldia,"Priyambada Housing Estate, Haldia - WBPCB",13-01-2024 07:00:00,22.06047,88.109737,SO2,1,23,7
India,West_Bengal,Haldia,"Priyambada Housing Estate, Haldia - WBPCB",13-01-2024 07:00:00,22.06047,88.109737,CO,32,68,57
India,West_Bengal,Haldia,"Priyambada Housing Estate, Haldia - WBPCB",13-01-2024 07:00:00,22.06047,88.109737,OZONE,14,114,15
India,West_Bengal,Howrah,"Belur Math, Howrah - WBPCB",13-01-2024 07:00:00,22.629801,88.352017,PM10,136,171,153
India,West_Bengal,Howrah,"Belur Math, Howrah - WBPCB",13-01-2024 07:00:00,22.629801,88.352017,CO,10,36,31
India,West_Bengal,Howrah,"Ghusuri, Howrah - WBPCB",13-01-2024 07:00:00,22.611968,88.347422,PM2.5,202,369,307
India,West_Bengal,Howrah,"Ghusuri, Howrah - WBPCB",13-01-2024 07:00:00,22.611968,88.347422,NO2,24,102,44
India,West_Bengal,Howrah,"Ghusuri, Howrah - WBPCB",13-01-2024 07:00:00,22.611968,88.347422,CO,15,77,39
India,West_Bengal,Howrah,"Padmapukur, Howrah - WBPCB",13-01-2024 07:00:00,22.5687319,88.2797276,PM2.5,106,303,218
India,West_Bengal,Howrah,"Padmapukur, Howrah - WBPCB",13-01-2024 07:00:00,22.5687319,88.2797276,PM10,121,173,154
India,West_Bengal,Howrah,"Padmapukur, Howrah - WBPCB",13-01-2024 07:00:00,22.5687319,88.2797276,OZONE,59,123,62
India,West_Bengal,Kolkata,"Ballygunge, Kolkata - WBPCB",13-01-2024 07:00:00,22.5367507,88.3638022,NH3,9,21,12
India,West_Bengal,Kolkata,"Ballygunge, Kolkata - WBPCB",13-01-2024 07:00:00,22.5367507,88.3638022,SO2,12,29,21
India,West_Bengal,Kolkata,"Bidhannagar, Kolkata - WBPCB",13-01-2024 07:00:00,22.58157048,88.41002457,PM2.5,158,278,209
India,West_Bengal,Kolkata,"Bidhannagar, Kolkata - WBPCB",13-01-2024 07:00:00,22.58157048,88.41002457,NO2,19,29,23
India,West_Bengal,Kolkata,"Bidhannagar, Kolkata - WBPCB",13-01-2024 07:00:00,22.58157048,88.41002457,NH3,9,10,10
India,West_Bengal,Kolkata,"Fort William, Kolkata - WBPCB",13-01-2024 07:00:00,22.556640,88.342674,PM10,145,202,173
India,West_Bengal,Kolkata,"Fort William, Kolkata - WBPCB",13-01-2024 07:00:00,22.556640,88.342674,NH3,9,10,9
India,West_Bengal,Kolkata,"Jadavpur, Kolkata - WBPCB",13-01-2024 07:00:00,22.49929,88.36917,PM2.5,123,330,255
India,West_Bengal,Kolkata,"Jadavpur, Kolkata - WBPCB",13-01-2024 07:00:00,22.49929,88.36917,CO,16,39,33
India,West_Bengal,Kolkata,"Rabindra Bharati University, Kolkata - WBPCB",13-01-2024 07:00:00,22.627847,88.380669,PM10,110,146,129
India,West_Bengal,Kolkata,"Rabindra Bharati University, Kolkata - WBPCB",13-01-2024 07:00:00,22.627847,88.380669,NO2,18,23,22
India,West_Bengal,Kolkata,"Victoria, Kolkata - WBPCB",13-01-2024 07:00:00,22.5448082,88.3403691,PM2.5,166,306,250
India,West_Bengal,Kolkata,"Victoria, Kolkata - WBPCB",13-01-2024 07:00:00,22.5448082,88.3403691,PM10,133,170,152
India,West_Bengal,Kolkata,"Victoria, Kolkata - WBPCB",13-01-2024 07:00:00,22.5448082,88.3403691,NH3,1,1,1
India,West_Bengal,Kolkata,"Victoria, Kolkata - WBPCB",13-01-2024 07:00:00,22.5448082,88.3403691,OZONE,4,118,13
India,West_Bengal,Siliguri,"Ward-32 Bapupara, Siliguri - WBPCB",13-01-2024 07:00:00,26.6879226,88.4152495,PM10,75,344,171
India,Andhra_Pradesh,Amaravati,"Secretariat, Amaravati - APPCB",13-01-2024 07:00:00,16.5150833,80.5181667,PM10,63,158,133
India,Andhra_Pradesh,Anantapur,"Gulzarpet, Anantapur - APPCB",13-01-2024 07:00:00,14.675886,77.593027,NO2,NA,NA,NA
India,Andhra_Pradesh,Chittoor,"Gangineni Cheruvu, Chittoor - APPCB",13-01-2024 07:00:00,13.204880,79.097889,SO2,1,22,11
India,Andhra_Pradesh,Kadapa,"Yerramukkapalli, Kadapa - APPCB",13-01-2024 07:00:00,14.465052,78.824187,CO,24,35,29
India,Andhra_Pradesh,Tirupati,"Tirumala, Tirupati - APPCB",13-01-2024 07:00:00,13.67,79.35,NO2,24,52,36
India,Andhra_Pradesh,Tirupati,"Tirumala, Tirupati - APPCB",13-01-2024 07:00:00,13.67,79.35,NH3,1,2,2
India,Andhra_Pradesh,Tirupati,"Tirumala, Tirupati - APPCB",13-01-2024 07:00:00,13.67,79.35,OZONE,22,58,32
India,Andhra_Pradesh,Tirupati,"Vaikuntapuram, Tirupati - APPCB",13-01-2024 07:00:00,13.615387,79.409230,PM2.5,20,69,32
India,Andhra_Pradesh,Vijayawada,"HB Colony, Vijayawada - APPCB",13-01-2024 07:00:00,16.536107,80.594233,NO2,10,33,16
India,Andhra_Pradesh,Vijayawada,"Kanuru, Vijayawada - APPCB",13-01-2024 07:00:00,16.486692,80.699436,PM10,63,285,125
India,Andhra_Pradesh,Vijayawada,"Kanuru, Vijayawada - APPCB",13-01-2024 07:00:00,16.486692,80.699436,NO2,14,25,17
India,Andhra_Pradesh,Visakhapatnam,"GVM Corporation, Visakhapatnam - APPCB",13-01-2024 07:00:00,17.72,83.3,PM10,128,457,177
India,Arunachal_Pradesh,Naharlagun,"Naharlagun, Naharlagun - APSPCB",13-01-2024 07:00:00,27.103358,93.679645,CO,14,66,38
India,Arunachal_Pradesh,Naharlagun,"Naharlagun, Naharlagun - APSPCB",13-01-2024 07:00:00,27.103358,93.679645,OZONE,2,2,2
India,Assam,Byrnihat,"Central Academy for SFS, Byrnihat - PCBA",13-01-2024 07:00:00,26.071318,91.87488,SO2,15,17,16
India,Assam,Guwahati,"IITG, Guwahati - PCBA",13-01-2024 07:00:00,26.2028636,91.70046436,PM2.5,NA,NA,NA
India,Assam,Guwahati,"IITG, Guwahati - PCBA",13-01-2024 07:00:00,26.2028636,91.70046436,PM10,NA,NA,NA
India,Assam,Guwahati,"LGBI Airport, Guwahati - PCBA",13-01-2024 07:00:00,26.10887,91.589544,PM10,136,356,209
India,Assam,Guwahati,"LGBI Airport, Guwahati - PCBA",13-01-2024 07:00:00,26.10887,91.589544,SO2,12,16,14
India,Assam,Guwahati,"Pan Bazaar, Guwahati - PCBA",13-01-2024 07:00:00,26.187500,91.744194,PM10,154,313,193
India,Assam,Guwahati,"Pan Bazaar, Guwahati - PCBA",13-01-2024 07:00:00,26.187500,91.744194,CO,46,106,89
India,Assam,Nagaon,"Christianpatty, Nagaon - PCBA",13-01-2024 07:00:00,26.349082,92.68449,NO2,14,26,20
India,Assam,Silchar,"Tarapur, Silchar - PCBA",13-01-2024 07:00:00,24.82827,92.79525,PM10,42,53,44
India,Assam,Silchar,"Tarapur, Silchar - PCBA",13-01-2024 07:00:00,24.82827,92.79525,NH3,1,1,1
India,Assam,Sivasagar,"Girls College, Sivasagar - PCBA",13-01-2024 07:00:00,26.987634,94.636574,PM2.5,25,77,42
India,Assam,Sivasagar,"Girls College, Sivasagar - PCBA",13-01-2024 07:00:00,26.987634,94.636574,PM10,32,87,59
India,Bihar,Araria,"Kharahiya Basti, Araria - BSPCB",13-01-2024 07:00:00,26.146529,87.454184,PM2.5,250,428,326
India,Bihar,Araria,"Kharahiya Basti, Araria - BSPCB",13-01-2024 07:00:00,26.146529,87.454184,SO2,12,17,16
India,Bihar,Araria,"Kharahiya Basti, Araria - BSPCB",13-01-2024 07:00:00,26.146529,87.454184,OZONE,10,50,18
India,Bihar,Arrah,"New DM Office, Arrah - BSPCB",13-01-2024 07:00:00,25.5626095,84.663264,PM2.5,240,398,330
India,Bihar,Arrah,"New DM Office, Arrah - BSPCB",13-01-2024 07:00:00,25.5626095,84.663264,NO2,16,69,33
India,Bihar,Arrah,"New DM Office, Arrah - BSPCB",13-01-2024 07:00:00,25.5626095,84.663264,NH3,5,8,6
India,Bihar,Aurangabad,"Gurdeo Nagar, Aurangabad - BSPCB",13-01-2024 07:00:00,24.75746,84.366208,PM10,34,121,78
India,Bihar,Aurangabad,"Gurdeo Nagar, Aurangabad - BSPCB",13-01-2024 07:00:00,24.75746,84.366208,NH3,4,9,7
India,Bihar,Bettiah,"Kamalnath Nagar, Bettiah - BSPCB",13-01-2024 07:00:00,26.80365,84.51954,NH3,3,4,3
India,Bihar,Chhapra,"Darshan Nagar, Chhapra - BSPCB",13-01-2024 07:00:00,25.7808257,84.7446768,PM10,119,400,244
India,Bihar,Chhapra,"Darshan Nagar, Chhapra - BSPCB",13-01-2024 07:00:00,25.7808257,84.7446768,NH3,1,4,3
India,Bihar,Chhapra,"Darshan Nagar, Chhapra - BSPCB",13-01-2024 07:00:00,25.7808257,84.7446768,SO2,5,64,33
India,Bihar,Gaya,"Collectorate, Gaya - BSPCB",13-01-2024 07:00:00,24.7955,84.9994,NO2,17,23,20
India,Bihar,Gaya,"Kareemganj, Gaya - BSPCB",13-01-2024 07:00:00,24.792403,84.992416,SO2,7,12,10
India,Bihar,Gaya,"SFTI Kusdihra, Gaya - BSPCB",13-01-2024 07:00:00,24.762518,84.982348,NO2,20,54,32
India,Bihar,Gaya,"SFTI Kusdihra, Gaya - BSPCB",13-01-2024 07:00:00,24.762518,84.982348,OZONE,6,71,17
India,Bihar,Hajipur,"Industrial Area, Hajipur - BSPCB",13-01-2024 07:00:00,25.697189,85.245900,NH3,1,5,4
India,Bihar,Katihar,"Mirchaibari, Katihar - BSPCB",13-01-2024 07:00:00,25.560083,87.553265,PM2.5,163,402,237
India,Bihar,Motihari,"Gandak Colony, Motihari - BSPCB",13-01-2024 07:00:00,26.63086,84.90051,CO,26,114,53
India,Bihar,Motihari,"Gandak Colony, Motihari - BSPCB",13-01-2024 07:00:00,26.63086,84.90051,OZONE,27,73,56
India,Bihar,Munger,"Town Hall, Munger - BSPCB",13-01-2024 07:00:00,25.376776,86.471523,PM10,64,180,128
India,Bihar,Munger,"Town Hall, Munger - BSPCB",13-01-2024 07:00:00,25.376776,86.471523,NO2,8,10,9
India,Bihar,Muzaffarpur,"Buddha Colony, Muzaffarpur - BSPCB",13-01-2024 07:00:00,26.11442,85.39813,NO2,40,64,48
India,Bihar,Patna,"DRM Office Danapur, Patna - BSPCB",13-01-2024 07:00:00,25.586562,85.043586,CO,64,137,80
India,Bihar,Patna,"Govt. High School Shikarpur, Patna - BSPCB",13-01-2024 07:00:00,25.592539,85.227158,PM2.5,NA,NA,NA
India,Bihar,Patna,"Muradpur, Patna - BSPCB",13-01-2024 07:00:00,25.619651,85.147382,NH3,1,8,3
India,Bihar,Patna,"Rajbansi Nagar, Patna - BSPCB",13-01-2024 07:00:00,25.599486,85.113666,PM10,192,374,278
India,Bihar,Patna,"Samanpura, Patna - BSPCB",13-01-2024 07:00:00,25.596727,85.085624,NO2,15,24,17
India,Bihar,Purnia,"Mariam Nagar, Purnia - BSPCB",13-01-2024 07:00:00,25.366336,87.117468,NH3,2,2,2
India,Bihar,Rajgir,"Dangi Tola, Rajgir - BSPCB",13-01-2024 07:00:00,25.03280,85.41948,NO2,6,15,9
India,Bihar,Rajgir,"Dangi Tola, Rajgir - BSPCB",13-01-2024 07:00:00,25.03280,85.41948,OZONE,22,25,23
India,Bihar,Sasaram,"Dada Peer, Sasaram - BSPCB",13-01-2024 07:00:00,24.952822,84.002396,CO,30,59,43
India,Bihar,Sasaram,"Dada Peer, Sasaram - BSPCB",13-01-2024 07:00:00,24.952822,84.002396,OZONE,4,5,4
India,Bihar,Siwan,"Chitragupta Nagar, Siwan - BSPCB",13-01-2024 07:00:00,26.2271665,84.3570427,PM10,81,171,127
India,Chandigarh,Chandigarh,"Sector 22, Chandigarh - CPCC",13-01-2024 07:00:00,30.735567,76.775714,PM2.5,190,447,373
India,Chandigarh,Chandigarh,"Sector-25, Chandigarh - CPCC",13-01-2024 07:00:00,30.751462,76.762879,PM2.5,168,325,280
India,Chandigarh,Chandigarh,"Sector-25, Chandigarh - CPCC",13-01-2024 07:00:00,30.751462,76.762879,OZONE,1,55,2
India,Chandigarh,Chandigarh,"Sector-53, Chandigarh - CPCC",13-01-2024 07:00:00,30.719859,76.738637,CO,72,103,95
India,Chandigarh,Chandigarh,"Sector-53, Chandigarh - CPCC",13-01-2024 07:00:00,30.719859,76.738637,OZONE,7,26,12
India,Chhattisgarh,Bhilai,"32Bungalows, Bhilai - CECB",13-01-2024 07:00:00,21.194815,81.314770,PM2.5,49,112,71
India,Chhattisgarh,Bhilai,"32Bungalows, Bhilai - CECB",13-01-2024 07:00:00,21.194815,81.314770,SO2,9,15,11
India,Chhattisgarh,Bhilai,"Hathkhoj, Bhilai - CECB",13-01-2024 07:00:00,21.224231,81.408350,NH3,7,8,8
India,Chhattisgarh,Bilaspur,"Mangala, Bilaspur - NTPC",13-01-2024 07:00:00,22.08815,82.13737,PM10,19,195,75
India,Chhattisgarh,Bilaspur,"Mangala, Bilaspur - NTPC",13-01-2024 07:00:00,22.08815,82.13737,NO2,10,11,10
India,Chhattisgarh,Chhal,"Nawapara SECL Colony, Chhal - CECB",13-01-2024 07:00:00,22.118125,83.140608,PM10,28,99,48
India,Chhattisgarh,Chhal,"Nawapara SECL Colony, Chhal - CECB",13-01-2024 07:00:00,22.118125,83.140608,NO2,10,53,19
India,Chhattisgarh,Korba,"Rampur, Korba - CECB",13-01-2024 07:00:00,22.368195,82.746431,OZONE,NA,NA,NA
India,Chhattisgarh,Korba,"Urja Nagar, Korba - CECB",13-01-2024 07:00:00,22.348441,82.549611,NO2,26,65,51
India,Chhattisgarh,Korba,"Urja Nagar, Korba - CECB",13-01-2024 07:00:00,22.348441,82.549611,NH3,3,6,4
India,Chhattisgarh,Kunjemura,"OP Jindal School, Kunjemura - CECB",13-01-2024 07:00:00,22.126650,83.483212,PM10,43,474,171
India,Chhattisgarh,Kunjemura,"OP Jindal School, Kunjemura - CECB",13-01-2024 07:00:00,22.126650,83.483212,NH3,1,5,2
India,Chhattisgarh,Kunjemura,"OP Jindal School, Kunjemura - CECB",13-01-2024 07:00:00,22.126650,83.483212,SO2,1,46,15
India,Chhattisgarh,Milupara,"Govt. Higher Secondary School, Milupara - CECB",13-01-2024 07:00:00,22.1910172,83.5197009,PM2.5,12,45,23
India,Chhattisgarh,Milupara,"Govt. Higher Secondary School, Milupara - CECB",13-01-2024 07:00:00,22.1910172,83.5197009,NH3,1,2,1
India,Chhattisgarh,Raipur,"AIIMS, Raipur - CECB",13-01-2024 07:00:00,21.258815,81.578979,PM2.5,36,84,59
India,Chhattisgarh,Raipur,"Bhatagaon New ISBT, Raipur - CECB",13-01-2024 07:00:00,21.219665,81.630094,PM10,26,165,88
India,Chhattisgarh,Raipur,"Bhatagaon New ISBT, Raipur - CECB",13-01-2024 07:00:00,21.219665,81.630094,CO,22,111,76
India,Chhattisgarh,Raipur,"Krishak Nagar, Raipur - CECB",13-01-2024 07:00:00,21.237755,81.705301,OZONE,2,4,2
India,Chhattisgarh,Raipur,"Siltara Phase-II, Raipur - CECB",13-01-2024 07:00:00,21.371751,81.664929,OZONE,3,6,3
India,Chhattisgarh,Tumidih,"OP Jindal Industrial Park, Tumidih - CECB",13-01-2024 07:00:00,22.06631475,83.33820077,PM2.5,15,75,44
India,Chhattisgarh,Tumidih,"OP Jindal Industrial Park, Tumidih - CECB",13-01-2024 07:00:00,22.06631475,83.33820077,SO2,5,8,6
India,Chhattisgarh,Tumidih,"OP Jindal Industrial Park, Tumidih - CECB",13-01-2024 07:00:00,22.06631475,83.33820077,OZONE,4,54,9
India,Delhi,Delhi,"Alipur, Delhi - DPCC",13-01-2024 07:00:00,28.815329,77.153010,PM10,104,312,181
India,Delhi,Delhi,"Alipur, Delhi - DPCC",13-01-2024 07:00:00,28.815329,77.153010,SO2,4,9,7
India,Delhi,Delhi,"Alipur, Delhi - DPCC",13-01-2024 07:00:00,28.815329,77.153010,CO,48,82,75
India,Delhi,Delhi,"Anand Vihar, Delhi - DPCC",13-01-2024 07:00:00,28.647622,77.3158090,SO2,5,27,15
India,Delhi,Delhi,"Ashok Vihar, Delhi - DPCC",13-01-2024 07:00:00,28.695381,77.181665,NH3,11,13,12
India,Delhi,Delhi,"Aya Nagar, Delhi - IMD",13-01-2024 07:00:00,28.4706914,77.1099364,NO2,1,68,23
India,Delhi,Delhi,"Bawana, Delhi - DPCC",13-01-2024 07:00:00,28.776200,77.051074,SO2,4,8,6
India,Delhi,Delhi,"CRRI Mathura Road, Delhi - IMD",13-01-2024 07:00:00,28.5512005,77.2735737,PM10,NA,NA,NA
India,Delhi,Delhi,"DTU, Delhi - CPCB",13-01-2024 07:00:00,28.7500499,77.1112615,PM2.5,87,337,197
India,Delhi,Delhi,"DTU, Delhi - CPCB",13-01-2024 07:00:00,28.7500499,77.1112615,SO2,25,27,26
India,Delhi,Delhi,"DTU, Delhi - CPCB",13-01-2024 07:00:00,28.7500499,77.1112615,CO,40,75,72
India,Delhi,Delhi,"DTU, Delhi - CPCB",13-01-2024 07:00:00,28.7500499,77.1112615,OZONE,26,33,28
India,Delhi,Delhi,"ITO, Delhi - CPCB",13-01-2024 07:00:00,28.628624,77.241060,NO2,14,62,38
India,Delhi,Delhi,"ITO, Delhi - CPCB",13-01-2024 07:00:00,28.628624,77.241060,OZONE,18,67,19
India,Delhi,Delhi,"Jahangirpuri, Delhi - DPCC",13-01-2024 07:00:00,28.732820,77.170633,CO,49,109,71
India,Delhi,Delhi,"Lodhi Road, Delhi - IITM",13-01-2024 07:00:00,28.588333,77.221667,PM2.5,31,307,153
India,Delhi,Delhi,"Lodhi Road, Delhi - IITM",13-01-2024 07:00:00,28.588333,77.221667,NO2,66,96,84
India,Delhi,Delhi,"Lodhi Road, Delhi - IITM",13-01-2024 07:00:00,28.588333,77.221667,OZONE,15,16,15
India,Delhi,Delhi,"Lodhi Road, Delhi - IMD",13-01-2024 07:00:00,28.5918245,77.2273074,PM10,135,401,236
India,Delhi,Delhi,"Lodhi Road, Delhi - IMD",13-01-2024 07:00:00,28.5918245,77.2273074,NO2,14,17,15
India,Delhi,Delhi,"Lodhi Road, Delhi - IMD",13-01-2024 07:00:00,28.5918245,77.2273074,CO,70,110,108
India,Delhi,Delhi,"Lodhi Road, Delhi - IMD",13-01-2024 07:00:00,28.5918245,77.2273074,OZONE,14,87,16
India,Delhi,Delhi,"Major Dhyan Chand National Stadium, Delhi - DPCC",13-01-2024 07:00:00,28.611281,77.237738,CO,24,109,102
India,Delhi,Delhi,"Major Dhyan Chand National Stadium, Delhi - DPCC",13-01-2024 07:00:00,28.611281,77.237738,OZONE,6,70,14
India,Delhi,Delhi,"Mandir Marg, Delhi - DPCC",13-01-2024 07:00:00,28.636429,77.201067,NO2,72,126,99
India,Delhi,Delhi,"Mundka, Delhi - DPCC",13-01-2024 07:00:00,28.684678,77.076574,NO2,33,81,54
India,Delhi,Delhi,"Mundka, Delhi - DPCC",13-01-2024 07:00:00,28.684678,77.076574,NH3,8,17,11
India,Delhi,Delhi,"NSIT Dwarka, Delhi - CPCB",13-01-2024 07:00:00,28.60909,77.0325413,NH3,6,8,7
India,Delhi,Delhi,"Najafgarh, Delhi - DPCC",13-01-2024 07:00:00,28.570173,76.933762,NO2,17,52,26
India,Delhi,Delhi,"Najafgarh, Delhi - DPCC",13-01-2024 07:00:00,28.570173,76.933762,CO,17,92,69
India,Delhi,Delhi,"Narela, Delhi - DPCC",13-01-2024 07:00:00,28.822836,77.101981,PM10,124,470,278
India,Delhi,Delhi,"Nehru Nagar, Delhi - DPCC",13-01-2024 07:00:00,28.567890,77.250515,PM2.5,325,500,414
India,Delhi,Delhi,"North Campus, DU, Delhi - IMD",13-01-2024 07:00:00,28.6573814,77.1585447,PM2.5,318,450,377
India,Delhi,Delhi,"North Campus, DU, Delhi - IMD",13-01-2024 07:00:00,28.6573814,77.1585447,NO2,43,86,60
India,Delhi,Delhi,"Patparganj, Delhi - DPCC",13-01-2024 07:00:00,28.623763,77.287209,PM2.5,312,500,391
India,Delhi,Delhi,"Patparganj, Delhi - DPCC",13-01-2024 07:00:00,28.623763,77.287209,NO2,48,103,67
India,Delhi,Delhi,"Punjabi Bagh, Delhi - DPCC",13-01-2024 07:00:00,28.674045,77.131023,PM2.5,303,500,402
India,Delhi,Delhi,"Pusa, Delhi - DPCC",13-01-2024 07:00:00,28.639652,77.146275,SO2,2,88,23
India,Delhi,Delhi,"Shadipur, Delhi - CPCB",13-01-2024 07:00:00,28.6514781,77.1473105,NO2,35,75,54
India,Delhi,Delhi,"Shadipur, Delhi - CPCB",13-01-2024 07:00:00,28.6514781,77.1473105,SO2,6,27,17
India,Delhi,Delhi,"Shadipur, Delhi - CPCB",13-01-2024 07:00:00,28.6514781,77.1473105,CO,7,106,61
India,Delhi,Delhi,"Sirifort, Delhi - CPCB",13-01-2024 07:00:00,28.5504249,77.2159377,SO2,26,34,29
India,Delhi,Delhi,"Sirifort, Delhi - CPCB",13-01-2024 07:00:00,28.5504249,77.2159377,OZONE,16,48,39
India,Delhi,Delhi,"Sonia Vihar, Delhi - DPCC",13-01-2024 07:00:00,28.710508,77.249485,PM2.5,292,462,371
India,Delhi,Delhi,"Sri Aurobindo Marg, Delhi - DPCC",13-01-2024 07:00:00,28.531346,77.190156,NH3,8,13,11
India,Delhi,Delhi,"Sri Aurobindo Marg, Delhi - DPCC",13-01-2024 07:00:00,28.531346,77.190156,CO,33,112,93
India,Delhi,Delhi,"Vivek Vihar, Delhi - DPCC",13-01-2024 07:00:00,28.672342,77.315260,PM2.5,320,500,397
India,Delhi,Delhi,"Vivek Vihar, Delhi - DPCC",13-01-2024 07:00:00,28.672342,77.315260,CO,49,113,86
India,Delhi,Delhi,"Wazirpur, Delhi - DPCC",13-01-2024 07:00:00,28.699793,77.165453,CO,28,112,68
India,Gujarat,Ahmedabad,"Maninagar, Ahmedabad - GPCB",13-01-2024 07:00:00,23.002657,72.591912,NO2,20,100,55
India,Gujarat,Ahmedabad,"Raikhad, Ahmedabad - IITM",13-01-2024 07:00:00,23.020509,72.579261,SO2,10,12,11
India,Gujarat,Ahmedabad,"Rakhial, Ahmedabad - IITM",13-01-2024 07:00:00,23.016834,72.625775,PM10,95,167,129
India,Gujarat,Ahmedabad,"Rakhial, Ahmedabad - IITM",13-01-2024 07:00:00,23.016834,72.625775,NO2,8,49,18
India,Gujarat,Ahmedabad,"SAC ISRO Bopal, Ahmedabad - IITM",13-01-2024 07:00:00,23.041137,72.456691,PM10,77,184,118
India,Gujarat,Ahmedabad,"SAC ISRO Bopal, Ahmedabad - IITM",13-01-2024 07:00:00,23.041137,72.456691,NO2,10,15,12
India,Gujarat,Ahmedabad,"SAC ISRO Bopal, Ahmedabad - IITM",13-01-2024 07:00:00,23.041137,72.456691,OZONE,16,24,16
India,Gujarat,Ahmedabad,"SAC ISRO Satellite, Ahmedabad - IITM",13-01-2024 07:00:00,23.023389,72.515201,PM10,77,101,94
India,Gujarat,Ahmedabad,"SAC ISRO Satellite, Ahmedabad - IITM",13-01-2024 07:00:00,23.023389,72.515201,NO2,14,17,16
India,Gujarat,Ahmedabad,"SVPI Airport Hansol, Ahmedabad - IITM",13-01-2024 07:00:00,23.076793,72.627874,PM2.5,58,175,95
India,Gujarat,Ankleshwar,"GIDC, Ankleshwar - GPCB",13-01-2024 07:00:00,21.613267,73.010555,SO2,17,101,52
India,Gujarat,Gandhinagar,"Sector-10, Gandhinagar - GPCB",13-01-2024 07:00:00,23.221714,72.654328,NO2,9,12,10
India,Gujarat,Gandhinagar,"Sector-10, Gandhinagar - GPCB",13-01-2024 07:00:00,23.221714,72.654328,SO2,8,12,9
India,Gujarat,Surat,"Science Center, Surat - SMC",13-01-2024 07:00:00,21.170046,72.795405,PM2.5,45,130,76
India,Gujarat,Vapi,"Phase-1 GIDC, Vapi - GPCB",13-01-2024 07:00:00,20.362421,72.918013,SO2,49,51,50
India,Gujarat,Vatva,"Phase-4 GIDC, Vatva - GPCB",13-01-2024 07:00:00,22.969611,72.643500,NO2,39,149,98
India,Haryana,Ballabgarh,"Nathu Colony, Ballabgarh - HSPCB",13-01-2024 07:00:00,28.3419248,77.319699,NO2,11,14,12
India,Haryana,Ballabgarh,"Nathu Colony, Ballabgarh - HSPCB",13-01-2024 07:00:00,28.3419248,77.319699,OZONE,3,21,4
India,Haryana,Bhiwani,"H.B. Colony, Bhiwani - HSPCB",13-01-2024 07:00:00,28.806223,76.141105,OZONE,10,34,15
India,Haryana,Charkhi Dadri,"Mini Secretariat, Charkhi Dadri - HSPCB",13-01-2024 07:00:00,28.593883,76.270653,OZONE,13,18,16
India,Haryana,Faridabad,"Sector 11, Faridabad - HSPCB",13-01-2024 07:00:00,28.376058,77.315741,NH3,6,6,6
India,Haryana,Faridabad,"Sector 11, Faridabad - HSPCB",13-01-2024 07:00:00,28.376058,77.315741,CO,38,100,63
India,Haryana,Faridabad,"Sector 30, Faridabad - HSPCB",13-01-2024 07:00:00,28.4417,77.3217,PM2.5,148,201,171
India,Haryana,Faridabad,"Sector 30, Faridabad - HSPCB",13-01-2024 07:00:00,28.4417,77.3217,NO2,30,32,31
India,Haryana,Faridabad,"Sector 30, Faridabad - HSPCB",13-01-2024 07:00:00,28.4417,77.3217,CO,50,150,88
India,Haryana,Faridabad,"Sector- 16A, Faridabad - HSPCB",13-01-2024 07:00:00,28.4088421,77.3099081,NO2,17,93,43
India,Haryana,Faridabad,"Sector- 16A, Faridabad - HSPCB",13-01-2024 07:00:00,28.4088421,77.3099081,OZONE,14,14,14
India,Haryana,Fatehabad,"Huda Sector, Fatehabad - HSPCB",13-01-2024 07:00:00,29.503664,75.467934,PM2.5,63,258,135
India,Haryana,Fatehabad,"Huda Sector, Fatehabad - HSPCB",13-01-2024 07:00:00,29.503664,75.467934,SO2,1,14,8
India,Haryana,Fatehabad,"Huda Sector, Fatehabad - HSPCB",13-01-2024 07:00:00,29.503664,75.467934,CO,5,18,8
India,Haryana,Gurugram,"Sector-51, Gurugram - HSPCB",13-01-2024 07:00:00,28.4227,77.0667,PM2.5,157,500,348
India,Haryana,Gurugram,"Sector-51, Gurugram - HSPCB",13-01-2024 07:00:00,28.4227,77.0667,SO2,2,5,3
India,Haryana,Gurugram,"Sector-51, Gurugram - HSPCB",13-01-2024 07:00:00,28.4227,77.0667,OZONE,27,67,40
India,Haryana,Gurugram,"Teri Gram, Gurugram - HSPCB",13-01-2024 07:00:00,28.4275,77.1465,NO2,10,53,34
India,Haryana,Gurugram,"Teri Gram, Gurugram - HSPCB",13-01-2024 07:00:00,28.4275,77.1465,NH3,42,69,50
India,Haryana,Gurugram,"Teri Gram, Gurugram - HSPCB",13-01-2024 07:00:00,28.4275,77.1465,OZONE,7,35,22
India,Haryana,Hisar,"Urban Estate-II, Hisar - HSPCB",13-01-2024 07:00:00,29.140560,75.744941,NO2,8,38,11
India,Haryana,Jind,"Police Lines, Jind - HSPCB",13-01-2024 07:00:00,29.307814,76.337619,PM2.5,76,258,178
India,Haryana,Jind,"Police Lines, Jind - HSPCB",13-01-2024 07:00:00,29.307814,76.337619,NH3,2,5,4
India,Haryana,Kaithal,"Rishi Nagar, Kaithal - HSPCB",13-01-2024 07:00:00,29.8006,76.4155,SO2,6,108,24
India,Haryana,Kaithal,"Rishi Nagar, Kaithal - HSPCB",13-01-2024 07:00:00,29.8006,76.4155,OZONE,9,21,12
India,Haryana,Karnal,"Sector-12, Karnal - HSPCB",13-01-2024 07:00:00,29.695300,77.002700,PM10,102,149,133
India,Haryana,Karnal,"Sector-12, Karnal - HSPCB",13-01-2024 07:00:00,29.695300,77.002700,NH3,10,13,11
India,Haryana,Manesar,"Sector-2 IMT, Manesar - HSPCB",13-01-2024 07:00:00,28.360699,76.936090,PM10,93,257,157
India,Haryana,Manesar,"Sector-2 IMT, Manesar - HSPCB",13-01-2024 07:00:00,28.360699,76.936090,NH3,2,14,7
India,Haryana,Manesar,"Sector-2 IMT, Manesar - HSPCB",13-01-2024 07:00:00,28.360699,76.936090,SO2,11,19,14
India,Haryana,Manesar,"Sector-2 IMT, Manesar - HSPCB",13-01-2024 07:00:00,28.360699,76.936090,OZONE,5,29,5
India,Haryana,Narnaul,"Shastri Nagar, Narnaul - HSPCB",13-01-2024 07:00:00,28.060249,76.113115,NH3,5,15,11
India,Haryana,Narnaul,"Shastri Nagar, Narnaul - HSPCB",13-01-2024 07:00:00,28.060249,76.113115,SO2,10,103,24
India,Haryana,Panchkula,"Sector-6, Panchkula - HSPCB ",13-01-2024 07:00:00,30.7057778,76.8531805555555,PM2.5,99,311,220
India,Haryana,Panipat,"Sector-18, Panipat - HSPCB",13-01-2024 07:00:00,29.497973,76.993331,PM2.5,127,168,136
India,Haryana,Panipat,"Sector-18, Panipat - HSPCB",13-01-2024 07:00:00,29.497973,76.993331,PM10,129,174,136
India,Haryana,Panipat,"Sector-18, Panipat - HSPCB",13-01-2024 07:00:00,29.497973,76.993331,SO2,12,13,13
India,Haryana,Panipat,"Sector-18, Panipat - HSPCB",13-01-2024 07:00:00,29.497973,76.993331,CO,23,27,25
India,Haryana,Rohtak,"MD University, Rohtak - HSPCB",13-01-2024 07:00:00,28.52123,76.37138,PM2.5,34,305,189
India,Haryana,Rohtak,"MD University, Rohtak - HSPCB",13-01-2024 07:00:00,28.52123,76.37138,OZONE,45,54,50
India,Haryana,Sonipat,"Murthal, Sonipat - HSPCB",13-01-2024 07:00:00,29.027200,77.062100,PM2.5,108,344,259
India,Haryana,Sonipat,"Murthal, Sonipat - HSPCB",13-01-2024 07:00:00,29.027200,77.062100,CO,34,56,51
India,Haryana,Sonipat,"Murthal, Sonipat - HSPCB",13-01-2024 07:00:00,29.027200,77.062100,OZONE,16,35,19
India,Haryana,Yamuna Nagar,"Gobind Pura, Yamuna Nagar - HSPCB",13-01-2024 07:00:00,30.1480566,77.2893471,NO2,11,29,18
India,Haryana,Yamuna Nagar,"Gobind Pura, Yamuna Nagar - HSPCB",13-01-2024 07:00:00,30.1480566,77.2893471,CO,52,94,58
India,Himachal Pradesh,Baddi,"HIMUDA Complex Phase-1, Baddi - HPPCB",13-01-2024 07:00:00,30.943887,76.801991,PM10,162,423,308
India,Jharkhand,Dhanbad,"Kalakusuma, Dhanbad - DMC",13-01-2024 07:00:00,23.811548,86.481238,PM10,23,119,82
India,Jharkhand,Dhanbad,"Kalakusuma, Dhanbad - DMC",13-01-2024 07:00:00,23.811548,86.481238,CO,105,115,108
India,Jharkhand,Dhanbad,"Sardar Patel Nagar, Dhanbad - JSPCB",13-01-2024 07:00:00,23.80569,86.44268,SO2,1,35,22
India,Karnataka,Bagalkot,"Vidayagiri, Bagalkot - KSPCB",13-01-2024 07:00:00,16.172806,75.659694,PM10,57,58,58
India,Karnataka,Bagalkot,"Vidayagiri, Bagalkot - KSPCB",13-01-2024 07:00:00,16.172806,75.659694,NH3,1,2,1
India,Karnataka,Bengaluru,"BTM Layout, Bengaluru - CPCB",13-01-2024 07:00:00,12.9135218,77.5950804,PM2.5,13,79,40
India,Karnataka,Bengaluru,"Hombegowda Nagar, Bengaluru - KSPCB",13-01-2024 07:00:00,12.938539,77.590100,CO,14,30,17
India,Karnataka,Bengaluru,"Jayanagar 5th Block, Bengaluru - KSPCB",13-01-2024 07:00:00,12.920984,77.584908,NO2,10,12,11
India,Karnataka,Bengaluru,"Jayanagar 5th Block, Bengaluru - KSPCB",13-01-2024 07:00:00,12.920984,77.584908,NH3,2,3,3
India,Karnataka,Bengaluru,"Jayanagar 5th Block, Bengaluru - KSPCB",13-01-2024 07:00:00,12.920984,77.584908,OZONE,18,19,18
India,Karnataka,Bengaluru,"Jigani, Bengaluru - KSPCB",13-01-2024 07:00:00,12.7816279,77.6299145,PM10,63,178,110
