country,state,city,station,last_update,latitude,longitude,pollutant_id,pollutant_min,pollutant_max,pollutant_avg
India,Andhra_Pradesh,Anantapur,"Gulzarpet, Anantapur - APPCB",22-04-2024 08:00:00,14.675886,77.593027,PM2.5,30,56,41
India,Andhra_Pradesh,Anantapur,"Gulzarpet, Anantapur - APPCB",22-04-2024 08:00:00,14.675886,77.593027,PM10,74,102,83
India,Andhra_Pradesh,Rajamahendravaram,"Anand Kala Kshetram, Rajamahendravaram - APPCB",22-04-2024 08:00:00,16.9872867,81.7363176,CO,18,36,24
India,Andhra_Pradesh,Tirupati,"Tirumala, Tirupati - APPCB",22-04-2024 08:00:00,13.67,79.35,CO,32,58,36
India,Assam,Byrnihat,"Central Academy for SFS, Byrnihat - PCBA",22-04-2024 08:00:00,26.071318,91.87488,PM2.5,NA,NA,NA
India,Assam,Guwahati,"IITG, Guwahati - PCBA",22-04-2024 08:00:00,26.2028636,91.70046436,PM10,40,116,63
India,Assam,Guwahati,"IITG, Guwahati - PCBA",22-04-2024 08:00:00,26.2028636,91.70046436,NO2,NA,NA,NA
India,Assam,Guwahati,"IITG, Guwahati - PCBA",22-04-2024 08:00:00,26.2028636,91.70046436,NH3,5,6,6
India,Assam,Guwahati,"IITG, Guwahati - PCBA",22-04-2024 08:00:00,26.2028636,91.70046436,OZONE,4,36,15
India,Assam,Guwahati,"LGBI Airport, Guwahati - PCBA",22-04-2024 08:00:00,26.10887,91.589544,PM10,48,321,107
India,Assam,Guwahati,"LGBI Airport, Guwahati - PCBA",22-04-2024 08:00:00,26.10887,91.589544,NO2,28,90,56
India,Assam,Guwahati,"LGBI Airport, Guwahati - PCBA",22-04-2024 08:00:00,26.10887,91.589544,SO2,8,13,11
India,Assam,Guwahati,"LGBI Airport, Guwahati - PCBA",22-04-2024 08:00:00,26.10887,91.589544,CO,36,74,49
India,Assam,Guwahati,"Railway Colony, Guwahati - PCBA",22-04-2024 08:00:00,26.181742,91.78063,NO2,3,3,3
India,Assam,Guwahati,"Railway Colony, Guwahati - PCBA",22-04-2024 08:00:00,26.181742,91.78063,CO,12,80,14
India,Assam,Nagaon,"Christianpatty, Nagaon - PCBA",22-04-2024 08:00:00,26.349082,92.68449,PM10,65,95,77
India,Assam,Nagaon,"Christianpatty, Nagaon - PCBA",22-04-2024 08:00:00,26.349082,92.68449,OZONE,1,53,25
India,Assam,Nalbari,"Bata Chowk, Nalbari - PCBA",22-04-2024 08:00:00,26.446912,91.439057,NH3,1,2,2
India,Assam,Nalbari,"Bata Chowk, Nalbari - PCBA",22-04-2024 08:00:00,26.446912,91.439057,SO2,6,10,8
India,Assam,Silchar,"Tarapur, Silchar - PCBA",22-04-2024 08:00:00,24.82827,92.79525,NH3,1,1,1
India,Bihar,Araria,"Kharahiya Basti, Araria - BSPCB",22-04-2024 08:00:00,26.146529,87.454184,NO2,6,33,9
India,Bihar,Araria,"Kharahiya Basti, Araria - BSPCB",22-04-2024 08:00:00,26.146529,87.454184,CO,20,32,26
India,Bihar,Bettiah,"Kamalnath Nagar, Bettiah - BSPCB",22-04-2024 08:00:00,26.80365,84.51954,NH3,3,8,4
India,Bihar,Bhagalpur,"DM Office_Kachari Chowk, Bhagalpur - BSPCB",22-04-2024 08:00:00,25.251013,86.989001,CO,19,66,41
India,Bihar,Bhagalpur,"Mayaganj, Bhagalpur - BSPCB",22-04-2024 08:00:00,25.265194,87.012947,PM2.5,63,103,76
India,Bihar,Bhagalpur,"Mayaganj, Bhagalpur - BSPCB",22-04-2024 08:00:00,25.265194,87.012947,PM10,55,89,66
India,Bihar,Gaya,"Collectorate, Gaya - BSPCB",22-04-2024 08:00:00,24.7955,84.9994,OZONE,50,82,57
India,Bihar,Hajipur,"Industrial Area, Hajipur - BSPCB",22-04-2024 08:00:00,25.697189,85.245900,CO,18,42,38
India,Bihar,Hajipur,"Industrial Area, Hajipur - BSPCB",22-04-2024 08:00:00,25.697189,85.245900,OZONE,29,94,37
India,Bihar,Katihar,"Mirchaibari, Katihar - BSPCB",22-04-2024 08:00:00,25.560083,87.553265,PM10,NA,NA,NA
India,Bihar,Kishanganj,"SDM Office_Khagra, Kishanganj - BSPCB",22-04-2024 08:00:00,26.0881305,87.93840336,PM2.5,NA,NA,NA
India,Bihar,Kishanganj,"SDM Office_Khagra, Kishanganj - BSPCB",22-04-2024 08:00:00,26.0881305,87.93840336,NH3,9,9,9
India,Bihar,Motihari,"Gandak Colony, Motihari - BSPCB",22-04-2024 08:00:00,26.63086,84.90051,PM10,31,175,80
India,Bihar,Munger,"Town Hall, Munger - BSPCB",22-04-2024 08:00:00,25.376776,86.471523,SO2,9,33,22
India,Bihar,Munger,"Town Hall, Munger - BSPCB",22-04-2024 08:00:00,25.376776,86.471523,OZONE,28,41,29
India,Bihar,Muzaffarpur,"Buddha Colony, Muzaffarpur - BSPCB",22-04-2024 08:00:00,26.11442,85.39813,PM2.5,236,359,318
India,Bihar,Muzaffarpur,"Buddha Colony, Muzaffarpur - BSPCB",22-04-2024 08:00:00,26.11442,85.39813,PM10,170,370,271
India,Bihar,Muzaffarpur,"Buddha Colony, Muzaffarpur - BSPCB",22-04-2024 08:00:00,26.11442,85.39813,NH3,13,20,16
India,Bihar,Muzaffarpur,"Buddha Colony, Muzaffarpur - BSPCB",22-04-2024 08:00:00,26.11442,85.39813,SO2,7,13,10
India,Bihar,Muzaffarpur,"Buddha Colony, Muzaffarpur - BSPCB",22-04-2024 08:00:00,26.11442,85.39813,OZONE,19,31,27
India,Bihar,Muzaffarpur,"MIT-Daudpur Kothi, Muzaffarpur - BSPCB",22-04-2024 08:00:00,26.1403345,85.3650192,NH3,NA,NA,NA
India,Bihar,Patna,"DRM Office Danapur, Patna - BSPCB",22-04-2024 08:00:00,25.586562,85.043586,PM10,156,197,172
India,Bihar,Patna,"DRM Office Danapur, Patna - BSPCB",22-04-2024 08:00:00,25.586562,85.043586,SO2,11,33,18
India,Bihar,Patna,"Govt. High School Shikarpur, Patna - BSPCB",22-04-2024 08:00:00,25.592539,85.227158,SO2,10,11,11
India,Bihar,Patna,"Govt. High School Shikarpur, Patna - BSPCB",22-04-2024 08:00:00,25.592539,85.227158,CO,28,62,45
India,Bihar,Patna,"Muradpur, Patna - BSPCB",22-04-2024 08:00:00,25.619651,85.147382,NO2,8,22,14
India,Bihar,Patna,"Muradpur, Patna - BSPCB",22-04-2024 08:00:00,25.619651,85.147382,SO2,7,12,8
India,Bihar,Patna,"Muradpur, Patna - BSPCB",22-04-2024 08:00:00,25.619651,85.147382,OZONE,16,87,30
India,Bihar,Patna,"Rajbansi Nagar, Patna - BSPCB",22-04-2024 08:00:00,25.599486,85.113666,PM2.5,297,343,323
India,Bihar,Patna,"Samanpura, Patna - BSPCB",22-04-2024 08:00:00,25.596727,85.085624,OZONE,3,93,43
India,Bihar,Rajgir,"Dangi Tola, Rajgir - BSPCB",22-04-2024 08:00:00,25.03280,85.41948,PM2.5,43,110,66
India,Bihar,Saharsa,"Police Line, Saharsa - BSPCB",22-04-2024 08:00:00,25.892357,86.590325,NH3,9,9,9
India,Bihar,Saharsa,"Police Line, Saharsa - BSPCB",22-04-2024 08:00:00,25.892357,86.590325,CO,48,55,53
India,Bihar,Samastipur,"DM Office_Kasipur, Samastipur - BSPCB",22-04-2024 08:00:00,25.859655,85.77944,SO2,NA,NA,NA
India,Bihar,Samastipur,"DM Office_Kasipur, Samastipur - BSPCB",22-04-2024 08:00:00,25.859655,85.77944,OZONE,NA,NA,NA
India,Chandigarh,Chandigarh,"Sector 22, Chandigarh - CPCC",22-04-2024 08:00:00,30.735567,76.775714,SO2,NA,NA,NA
India,Chandigarh,Chandigarh,"Sector 22, Chandigarh - CPCC",22-04-2024 08:00:00,30.735567,76.775714,CO,NA,NA,NA
India,Chandigarh,Chandigarh,"Sector-25, Chandigarh - CPCC",22-04-2024 08:00:00,30.751462,76.762879,CO,14,32,25
India,Chandigarh,Chandigarh,"Sector-53, Chandigarh - CPCC",22-04-2024 08:00:00,30.719859,76.738637,PM2.5,NA,NA,NA
India,Chhattisgarh,Bhilai,"32Bungalows, Bhilai - CECB",22-04-2024 08:00:00,21.194815,81.314770,PM10,48,159,69
India,Chhattisgarh,Bhilai,"32Bungalows, Bhilai - CECB",22-04-2024 08:00:00,21.194815,81.314770,NO2,17,30,24
India,Chhattisgarh,Bhilai,"32Bungalows, Bhilai - CECB",22-04-2024 08:00:00,21.194815,81.314770,OZONE,7,57,11
India,Chhattisgarh,Chhal,"Nawapara SECL Colony, Chhal - CECB",22-04-2024 08:00:00,22.118125,83.140608,PM2.5,56,139,82
India,Chhattisgarh,Chhal,"Nawapara SECL Colony, Chhal - CECB",22-04-2024 08:00:00,22.118125,83.140608,CO,24,80,34
India,Chhattisgarh,Korba,"Rampur, Korba - CECB",22-04-2024 08:00:00,22.368195,82.746431,PM2.5,23,62,42
India,Chhattisgarh,Korba,"Rampur, Korba - CECB",22-04-2024 08:00:00,22.368195,82.746431,CO,17,44,36
India,Chhattisgarh,Korba,"Urja Nagar, Korba - CECB",22-04-2024 08:00:00,22.348441,82.549611,PM2.5,27,273,84
India,Chhattisgarh,Milupara,"Govt. Higher Secondary School, Milupara - CECB",22-04-2024 08:00:00,22.1910172,83.5197009,PM2.5,NA,NA,NA
India,Chhattisgarh,Milupara,"Govt. Higher Secondary School, Milupara - CECB",22-04-2024 08:00:00,22.1910172,83.5197009,NH3,NA,NA,NA
India,Chhattisgarh,Milupara,"Govt. Higher Secondary School, Milupara - CECB",22-04-2024 08:00:00,22.1910172,83.5197009,CO,NA,NA,NA
India,Chhattisgarh,Raipur,"AIIMS, Raipur - CECB",22-04-2024 08:00:00,21.258815,81.578979,OZONE,10,40,15
India,Chhattisgarh,Raipur,"Krishak Nagar, Raipur - CECB",22-04-2024 08:00:00,21.237755,81.705301,PM10,27,64,47
India,Chhattisgarh,Raipur,"Krishak Nagar, Raipur - CECB",22-04-2024 08:00:00,21.237755,81.705301,NO2,16,17,17
India,Chhattisgarh,Raipur,"Krishak Nagar, Raipur - CECB",22-04-2024 08:00:00,21.237755,81.705301,CO,18,31,23
India,Chhattisgarh,Raipur,"Siltara Phase-II, Raipur - CECB",22-04-2024 08:00:00,21.371751,81.664929,PM2.5,32,159,60
India,Chhattisgarh,Raipur,"Siltara Phase-II, Raipur - CECB",22-04-2024 08:00:00,21.371751,81.664929,CO,11,101,39
India,Delhi,Delhi,"Alipur, Delhi - DPCC",22-04-2024 08:00:00,28.815329,77.153010,PM10,19,252,116
India,Delhi,Delhi,"Alipur, Delhi - DPCC",22-04-2024 08:00:00,28.815329,77.153010,NO2,8,100,28
India,Delhi,Delhi,"Alipur, Delhi - DPCC",22-04-2024 08:00:00,28.815329,77.153010,OZONE,3,122,47
India,Delhi,Delhi,"Ashok Vihar, Delhi - DPCC",22-04-2024 08:00:00,28.695381,77.181665,PM2.5,11,172,66
India,Delhi,Delhi,"Ashok Vihar, Delhi - DPCC",22-04-2024 08:00:00,28.695381,77.181665,NH3,9,19,16
India,Delhi,Delhi,"Ashok Vihar, Delhi - DPCC",22-04-2024 08:00:00,28.695381,77.181665,CO,11,54,20
India,Delhi,Delhi,"Aya Nagar, Delhi - IMD",22-04-2024 08:00:00,28.4706914,77.1099364,OZONE,3,36,17
India,Delhi,Delhi,"Burari Crossing, Delhi - IMD",22-04-2024 08:00:00,28.7256504,77.2011573,NO2,12,31,20
India,Delhi,Delhi,"Burari Crossing, Delhi - IMD",22-04-2024 08:00:00,28.7256504,77.2011573,OZONE,9,66,26
India,Delhi,Delhi,"CRRI Mathura Road, Delhi - IMD",22-04-2024 08:00:00,28.5512005,77.2735737,OZONE,1,55,14
India,Delhi,Delhi,"Chandni Chowk, Delhi - IITM",22-04-2024 08:00:00,28.656756,77.227234,PM2.5,89,227,149
India,Delhi,Delhi,"DTU, Delhi - CPCB",22-04-2024 08:00:00,28.7500499,77.1112615,PM2.5,13,235,84
India,Delhi,Delhi,"DTU, Delhi - CPCB",22-04-2024 08:00:00,28.7500499,77.1112615,PM10,18,326,120
India,Delhi,Delhi,"DTU, Delhi - CPCB",22-04-2024 08:00:00,28.7500499,77.1112615,CO,15,37,23
India,Delhi,Delhi,"Dr. Karni Singh Shooting Range, Delhi - DPCC",22-04-2024 08:00:00,28.498571,77.264840,NH3,5,7,6
India,Delhi,Delhi,"Dr. Karni Singh Shooting Range, Delhi - DPCC",22-04-2024 08:00:00,28.498571,77.264840,SO2,16,48,24
India,Delhi,Delhi,"Dr. Karni Singh Shooting Range, Delhi - DPCC",22-04-2024 08:00:00,28.498571,77.264840,CO,20,110,49
India,Delhi,Delhi,"IHBAS, Dilshad Garden, Delhi - CPCB",22-04-2024 08:00:00,28.6811736,77.3025234,PM2.5,64,101,79
India,Delhi,Delhi,"Jahangirpuri, Delhi - DPCC",22-04-2024 08:00:00,28.732820,77.170633,NH3,12,32,20
India,Delhi,Delhi,"Jahangirpuri, Delhi - DPCC",22-04-2024 08:00:00,28.732820,77.170633,OZONE,5,74,31
India,Delhi,Delhi,"Lodhi Road, Delhi - IITM",22-04-2024 08:00:00,28.588333,77.221667,CO,58,66,64
India,Delhi,Delhi,"Lodhi Road, Delhi - IITM",22-04-2024 08:00:00,28.588333,77.221667,OZONE,15,20,16
India,Delhi,Delhi,"Lodhi Road, Delhi - IMD",22-04-2024 08:00:00,28.5918245,77.2273074,NO2,4,20,9
India,Delhi,Delhi,"Major Dhyan Chand National Stadium, Delhi - DPCC",22-04-2024 08:00:00,28.611281,77.237738,PM10,33,154,96
India,Delhi,Delhi,"Major Dhyan Chand National Stadium, Delhi - DPCC",22-04-2024 08:00:00,28.611281,77.237738,NH3,5,7,6
India,Delhi,Delhi,"Major Dhyan Chand National Stadium, Delhi - DPCC",22-04-2024 08:00:00,28.611281,77.237738,SO2,6,15,10
India,Delhi,Delhi,"Major Dhyan Chand National Stadium, Delhi - DPCC",22-04-2024 08:00:00,28.611281,77.237738,OZONE,2,128,53
India,Delhi,Delhi,"Mandir Marg, Delhi - DPCC",22-04-2024 08:00:00,28.636429,77.201067,CO,20,95,52
India,Delhi,Delhi,"Mandir Marg, Delhi - DPCC",22-04-2024 08:00:00,28.636429,77.201067,OZONE,2,26,12
India,Delhi,Delhi,"NSIT Dwarka, Delhi - CPCB",22-04-2024 08:00:00,28.60909,77.0325413,NO2,20,50,35
India,Delhi,Delhi,"NSIT Dwarka, Delhi - CPCB",22-04-2024 08:00:00,28.60909,77.0325413,NH3,9,14,11
India,Delhi,Delhi,"Narela, Delhi - DPCC",22-04-2024 08:00:00,28.822836,77.101981,NO2,3,77,23
India,Delhi,Delhi,"Nehru Nagar, Delhi - DPCC",22-04-2024 08:00:00,28.567890,77.250515,PM2.5,7,132,59
India,Delhi,Delhi,"New Moti Bagh, Delhi - MHUA",22-04-2024 08:00:00,28.57834,77.18400,NO2,4,38,13
India,Delhi,Delhi,"Patparganj, Delhi - DPCC",22-04-2024 08:00:00,28.623763,77.287209,NO2,20,74,42
India,Delhi,Delhi,"Punjabi Bagh, Delhi - DPCC",22-04-2024 08:00:00,28.674045,77.131023,SO2,25,53,40
India,Delhi,Delhi,"Pusa, Delhi - IMD",22-04-2024 08:00:00,28.636110,77.173332,PM2.5,34,243,117
India,Delhi,Delhi,"Pusa, Delhi - IMD",22-04-2024 08:00:00,28.636110,77.173332,PM10,70,163,129
India,Delhi,Delhi,"R K Puram, Delhi - DPCC",22-04-2024 08:00:00,28.563262,77.186937,PM2.5,21,335,100
India,Delhi,Delhi,"R K Puram, Delhi - DPCC",22-04-2024 08:00:00,28.563262,77.186937,NH3,4,6,4
India,Delhi,Delhi,"Rohini, Delhi - DPCC",22-04-2024 08:00:00,28.732528,77.119920,OZONE,7,108,52
India,Delhi,Delhi,"Shadipur, Delhi - CPCB",22-04-2024 08:00:00,28.6514781,77.1473105,PM2.5,39,435,198
India,Delhi,Delhi,"Sirifort, Delhi - CPCB",22-04-2024 08:00:00,28.5504249,77.2159377,PM10,29,181,114
India,Delhi,Delhi,"Sirifort, Delhi - CPCB",22-04-2024 08:00:00,28.5504249,77.2159377,SO2,24,32,27
India,Delhi,Delhi,"Vivek Vihar, Delhi - DPCC",22-04-2024 08:00:00,28.672342,77.315260,NO2,21,113,48
India,Gujarat,Ahmedabad,"Chandkheda, Ahmedabad - IITM",22-04-2024 08:00:00,23.107969,72.574648,OZONE,5,39,25
India,Gujarat,Ahmedabad,"Maninagar, Ahmedabad - GPCB",22-04-2024 08:00:00,23.002657,72.591912,PM10,NA,NA,NA
India,Gujarat,Ahmedabad,"Raikhad, Ahmedabad - IITM",22-04-2024 08:00:00,23.020509,72.579261,NH3,5,6,5
India,Gujarat,Ahmedabad,"Raikhad, Ahmedabad - IITM",22-04-2024 08:00:00,23.020509,72.579261,SO2,7,17,10
India,Gujarat,Ahmedabad,"SAC ISRO Satellite, Ahmedabad - IITM",22-04-2024 08:00:00,23.023389,72.515201,NO2,17,17,17
India,Gujarat,Ahmedabad,"SAC ISRO Satellite, Ahmedabad - IITM",22-04-2024 08:00:00,23.023389,72.515201,SO2,3,13,6
India,Gujarat,Ahmedabad,"SVPI Airport Hansol, Ahmedabad - IITM",22-04-2024 08:00:00,23.076793,72.627874,SO2,2,15,6
India,Gujarat,Ankleshwar,"GIDC, Ankleshwar - GPCB",22-04-2024 08:00:00,21.613267,73.010555,PM10,26,61,45
India,Gujarat,Ankleshwar,"GIDC, Ankleshwar - GPCB",22-04-2024 08:00:00,21.613267,73.010555,SO2,9,58,23
India,Gujarat,Gandhinagar,"Sector-10, Gandhinagar - GPCB",22-04-2024 08:00:00,23.221714,72.654328,SO2,5,6,5
India,Gujarat,Surat,"Science Center, Surat - SMC",22-04-2024 08:00:00,21.170046,72.795405,PM2.5,1,25,9
India,Gujarat,Surat,"Science Center, Surat - SMC",22-04-2024 08:00:00,21.170046,72.795405,PM10,2,34,16
India,Gujarat,Surat,"Science Center, Surat - SMC",22-04-2024 08:00:00,21.170046,72.795405,NO2,28,48,39
India,Gujarat,Vapi,"Phase-1 GIDC, Vapi - GPCB",22-04-2024 08:00:00,20.362421,72.918013,PM2.5,25,68,40
India,Gujarat,Vapi,"Phase-1 GIDC, Vapi - GPCB",22-04-2024 08:00:00,20.362421,72.918013,PM10,35,72,51
India,Gujarat,Vatva,"Phase-4 GIDC, Vatva - GPCB",22-04-2024 08:00:00,22.969611,72.643500,NO2,26,102,44
India,Haryana,Ambala,"Patti Mehar, Ambala - HSPCB",22-04-2024 08:00:00,30.379589,76.778328,CO,30,60,47
India,Haryana,Ambala,"Patti Mehar, Ambala - HSPCB",22-04-2024 08:00:00,30.379589,76.778328,OZONE,26,40,32
India,Haryana,Bahadurgarh,"Arya Nagar, Bahadurgarh - HSPCB",22-04-2024 08:00:00,28.6701,76.9254,NO2,19,26,23
India,Haryana,Bahadurgarh,"Arya Nagar, Bahadurgarh - HSPCB",22-04-2024 08:00:00,28.6701,76.9254,OZONE,33,42,37
India,Haryana,Ballabgarh,"Nathu Colony, Ballabgarh - HSPCB",22-04-2024 08:00:00,28.3419248,77.319699,NO2,3,13,12
India,Haryana,Ballabgarh,"Nathu Colony, Ballabgarh - HSPCB",22-04-2024 08:00:00,28.3419248,77.319699,NH3,1,2,2
India,Haryana,Ballabgarh,"Nathu Colony, Ballabgarh - HSPCB",22-04-2024 08:00:00,28.3419248,77.319699,OZONE,1,28,12
India,Haryana,Bhiwani,"H.B. Colony, Bhiwani - HSPCB",22-04-2024 08:00:00,28.806223,76.141105,PM2.5,34,147,67
India,Haryana,Bhiwani,"H.B. Colony, Bhiwani - HSPCB",22-04-2024 08:00:00,28.806223,76.141105,NO2,2,11,8
India,Haryana,Charkhi Dadri,"Mini Secretariat, Charkhi Dadri - HSPCB",22-04-2024 08:00:00,28.593883,76.270653,PM2.5,44,160,82
India,Haryana,Charkhi Dadri,"Mini Secretariat, Charkhi Dadri - HSPCB",22-04-2024 08:00:00,28.593883,76.270653,CO,23,60,27
India,Haryana,Dharuhera,"Municipal Corporation Office, Dharuhera -  HSPCB",22-04-2024 08:00:00,28.206800,76.799700,NO2,45,111,71
India,Haryana,Dharuhera,"Municipal Corporation Office, Dharuhera -  HSPCB",22-04-2024 08:00:00,28.206800,76.799700,CO,12,70,23
India,Haryana,Faridabad,"New Industrial Town, Faridabad - HSPCB",22-04-2024 08:00:00,28.39072,77.30059,NO2,1,15,8
India,Haryana,Faridabad,"New Industrial Town, Faridabad - HSPCB",22-04-2024 08:00:00,28.39072,77.30059,NH3,1,6,3
India,Haryana,Faridabad,"New Industrial Town, Faridabad - HSPCB",22-04-2024 08:00:00,28.39072,77.30059,SO2,8,9,9
India,Haryana,Faridabad,"Sector 30, Faridabad - HSPCB",22-04-2024 08:00:00,28.4417,77.3217,SO2,5,6,6
India,Haryana,Fatehabad,"Huda Sector, Fatehabad - HSPCB",22-04-2024 08:00:00,29.503664,75.467934,NH3,9,10,10
India,Haryana,Fatehabad,"Huda Sector, Fatehabad - HSPCB",22-04-2024 08:00:00,29.503664,75.467934,SO2,10,11,11
India,Haryana,Gurugram,"Teri Gram, Gurugram - HSPCB",22-04-2024 08:00:00,28.4275,77.1465,PM2.5,46,232,126
India,Haryana,Hisar,"Urban Estate-II, Hisar - HSPCB",22-04-2024 08:00:00,29.140560,75.744941,NH3,8,10,9
India,Haryana,Kaithal,"Rishi Nagar, Kaithal - HSPCB",22-04-2024 08:00:00,29.8006,76.4155,PM2.5,31,84,56
India,Haryana,Kaithal,"Rishi Nagar, Kaithal - HSPCB",22-04-2024 08:00:00,29.8006,76.4155,PM10,108,257,171
India,Haryana,Kaithal,"Rishi Nagar, Kaithal - HSPCB",22-04-2024 08:00:00,29.8006,76.4155,NO2,24,26,25
India,Haryana,Karnal,"Sector-12, Karnal - HSPCB",22-04-2024 08:00:00,29.695300,77.002700,OZONE,29,39,34
India,Haryana,Kurukshetra,"Sector-7, Kurukshetra - HSPCB",22-04-2024 08:00:00,29.966942,76.875879,NH3,5,5,5
India,Haryana,Kurukshetra,"Sector-7, Kurukshetra - HSPCB",22-04-2024 08:00:00,29.966942,76.875879,SO2,2,3,3
India,Haryana,Mandikhera,"General Hospital, Mandikhera - HSPCB",22-04-2024 08:00:00,27.9002,76.9938,PM2.5,10,73,35
India,Haryana,Mandikhera,"General Hospital, Mandikhera - HSPCB",22-04-2024 08:00:00,27.9002,76.9938,NH3,16,19,18
India,Haryana,Manesar,"Sector-2 IMT, Manesar - HSPCB",22-04-2024 08:00:00,28.360699,76.936090,CO,12,36,26
India,Haryana,Narnaul,"Shastri Nagar, Narnaul - HSPCB",22-04-2024 08:00:00,28.060249,76.113115,SO2,13,39,16
India,Haryana,Panchkula,"Sector-6, Panchkula - HSPCB ",22-04-2024 08:00:00,30.7057778,76.8531805555555,PM2.5,52,134,83
India,Haryana,Sirsa,"F-Block, Sirsa - HSPCB",22-04-2024 08:00:00,29.536400,75.015800,PM10,37,103,73
India,Haryana,Sirsa,"F-Block, Sirsa - HSPCB",22-04-2024 08:00:00,29.536400,75.015800,SO2,6,15,10
India,Haryana,Sirsa,"F-Block, Sirsa - HSPCB",22-04-2024 08:00:00,29.536400,75.015800,CO,58,72,69
India,Haryana,Sirsa,"F-Block, Sirsa - HSPCB",22-04-2024 08:00:00,29.536400,75.015800,OZONE,36,101,46
India,Haryana,Sonipat,"Murthal, Sonipat - HSPCB",22-04-2024 08:00:00,29.027200,77.062100,PM2.5,48,49,48
India,Haryana,Sonipat,"Murthal, Sonipat - HSPCB",22-04-2024 08:00:00,29.027200,77.062100,NO2,37,44,40
India,Haryana,Sonipat,"Murthal, Sonipat - HSPCB",22-04-2024 08:00:00,29.027200,77.062100,NH3,4,10,9
India,Haryana,Yamuna Nagar,"Gobind Pura, Yamuna Nagar - HSPCB",22-04-2024 08:00:00,30.1480566,77.2893471,NO2,11,29,18
India,Jharkhand,Dhanbad,"Kalakusuma, Dhanbad - DMC",22-04-2024 08:00:00,23.811548,86.481238,PM10,98,191,110
India,Karnataka,Bagalkot,"Vidayagiri, Bagalkot - KSPCB",22-04-2024 08:00:00,16.172806,75.659694,PM2.5,19,37,36
India,Karnataka,Bagalkot,"Vidayagiri, Bagalkot - KSPCB",22-04-2024 08:00:00,16.172806,75.659694,NH3,1,2,1
India,Karnataka,Bagalkot,"Vidayagiri, Bagalkot - KSPCB",22-04-2024 08:00:00,16.172806,75.659694,CO,12,54,37
India,Karnataka,Belgaum,"Ramteerth Nagar, Belgaum - KSPCB",22-04-2024 08:00:00,15.888653,74.541751,NH3,1,7,4
India,Karnataka,Belgaum,"Ramteerth Nagar, Belgaum - KSPCB",22-04-2024 08:00:00,15.888653,74.541751,CO,26,41,39
India,Karnataka,Bengaluru,"BTM Layout, Bengaluru - CPCB",22-04-2024 08:00:00,12.9135218,77.5950804,PM10,49,80,62
India,Karnataka,Bengaluru,"BTM Layout, Bengaluru - CPCB",22-04-2024 08:00:00,12.9135218,77.5950804,NO2,28,42,37
India,Karnataka,Bengaluru,"Bapuji Nagar, Bengaluru - KSPCB",22-04-2024 08:00:00,12.951913,77.539784,NH3,1,1,1
India,Karnataka,Bengaluru,"Bapuji Nagar, Bengaluru - KSPCB",22-04-2024 08:00:00,12.951913,77.539784,CO,26,46,40
India,Karnataka,Bengaluru,"Hebbal, Bengaluru - KSPCB",22-04-2024 08:00:00,13.029152,77.585901,PM2.5,47,88,69
India,Karnataka,Bengaluru,"Hebbal, Bengaluru - KSPCB",22-04-2024 08:00:00,13.029152,77.585901,CO,5,44,20
India,Karnataka,Bengaluru,"Hombegowda Nagar, Bengaluru - KSPCB",22-04-2024 08:00:00,12.938539,77.590100,NH3,1,2,1
India,Karnataka,Bengaluru,"Hombegowda Nagar, Bengaluru - KSPCB",22-04-2024 08:00:00,12.938539,77.590100,SO2,4,4,4
India,Karnataka,Bengaluru,"Kasturi Nagar, Bengaluru - KSPCB",22-04-2024 08:00:00,13.003872,77.664217,SO2,10,10,10
India,Karnataka,Bengaluru,"Peenya, Bengaluru - CPCB",22-04-2024 08:00:00,13.0270199,77.494094,NH3,3,5,4
India,Karnataka,Bidar,"Naubad, Bidar - KSPCB",22-04-2024 08:00:00,17.930306,77.482194,CO,72,133,97
India,Karnataka,Chamarajanagar,"Urban, Chamarajanagar - KSPCB",22-04-2024 08:00:00,11.55358,76.55521,NO2,28,35,34
India,Karnataka,Chamarajanagar,"Urban, Chamarajanagar - KSPCB",22-04-2024 08:00:00,11.55358,76.55521,NH3,2,3,3
India,Karnataka,Chamarajanagar,"Urban, Chamarajanagar - KSPCB",22-04-2024 08:00:00,11.55358,76.55521,OZONE,26,36,35
India,Karnataka,Chikkaballapur,"Chikkaballapur Rural, Chikkaballapur - KSPCB",22-04-2024 08:00:00,13.428828,77.731418,PM10,60,100,73
India,Karnataka,Chikkaballapur,"Chikkaballapur Rural, Chikkaballapur - KSPCB",22-04-2024 08:00:00,13.428828,77.731418,OZONE,25,26,26
India,Karnataka,Chikkamagaluru,"Kalyana Nagara, Chikkamagaluru - KSPCB",22-04-2024 08:00:00,13.328028,75.797056,SO2,NA,NA,NA
India,Karnataka,Chikkamagaluru,"Kalyana Nagara, Chikkamagaluru - KSPCB",22-04-2024 08:00:00,13.328028,75.797056,CO,NA,NA,NA
India,Karnataka,Davanagere,"Devaraj Urs Badavane, Davanagere - KSPCB",22-04-2024 08:00:00,14.475800,75.905200,NH3,1,2,1
India,Karnataka,Davanagere,"Devaraj Urs Badavane, Davanagere - KSPCB",22-04-2024 08:00:00,14.475800,75.905200,SO2,5,9,7
India,Karnataka,Davanagere,"Devaraj Urs Badavane, Davanagere - KSPCB",22-04-2024 08:00:00,14.475800,75.905200,CO,20,27,21
India,Karnataka,Davanagere,"Devaraj Urs Badavane, Davanagere - KSPCB",22-04-2024 08:00:00,14.475800,75.905200,OZONE,20,26,21
India,Karnataka,Dharwad,"Kalabhavan, Dharwad - KSPCB",22-04-2024 08:00:00,15.459706,75.008381,OZONE,2,41,3
India,Karnataka,Hubballi,"Deshpande Nagar, Hubballi - KSPCB",22-04-2024 08:00:00,15.351773,75.140726,NO2,NA,NA,NA
India,Karnataka,Kalaburagi,"Lal Bahadur Shastri Nagar, Kalaburagi - KSPCB",22-04-2024 08:00:00,17.321993,76.822628,SO2,14,19,16
India,Karnataka,Kalaburagi,"Mahatma Basaveswar Colony, Kalaburgi - KSPCB",22-04-2024 08:00:00,17.336318,76.847397,NH3,3,4,3
India,Karnataka,Koppal,"Diwator Nagar, Koppal - KSPCB",22-04-2024 08:00:00,15.347630,76.181767,OZONE,60,117,71
India,Karnataka,Madikeri,"Stuart Hill, Madikeri - KSPCB",22-04-2024 08:00:00,12.415911,75.735050,PM2.5,27,68,51
India,Karnataka,Madikeri,"Stuart Hill, Madikeri - KSPCB",22-04-2024 08:00:00,12.415911,75.735050,PM10,28,72,49
India,Karnataka,Madikeri,"Stuart Hill, Madikeri - KSPCB",22-04-2024 08:00:00,12.415911,75.735050,NO2,2,13,5
India,Karnataka,Mangalore,"Kadri, Mangalore - KSPCB",22-04-2024 08:00:00,12.889250,74.853000,PM2.5,34,63,48
India,Karnataka,Mangalore,"Kadri, Mangalore - KSPCB",22-04-2024 08:00:00,12.889250,74.853000,NH3,2,2,2
India,Karnataka,Mysuru,"Hebbal 1st Stage, Mysuru - KSPCB",22-04-2024 08:00:00,12.21041,76.37376,PM10,38,71,54
India,Karnataka,Mysuru,"Hebbal 1st Stage, Mysuru - KSPCB",22-04-2024 08:00:00,12.21041,76.37376,NO2,13,28,20
India,Karnataka,Ramanagara,"Vijay Nagar, Ramanagara - KSPCB",22-04-2024 08:00:00,12.733409,77.298051,NO2,4,16,6
India,Karnataka,Shivamogga,"Vinoba Nagara, Shivamogga - KSPCB",22-04-2024 08:00:00,13.940000,75.555917,PM2.5,30,52,42
India,Karnataka,Shivamogga,"Vinoba Nagara, Shivamogga - KSPCB",22-04-2024 08:00:00,13.940000,75.555917,NH3,2,4,3
India,Karnataka,Shivamogga,"Vinoba Nagara, Shivamogga - KSPCB",22-04-2024 08:00:00,13.940000,75.555917,SO2,2,9,6
India,Karnataka,Tumakuru,"Thimmalapura, Tumakuru - KSPCB",22-04-2024 08:00:00,13.377516,77.099072,PM10,102,223,159
India,Karnataka,Vijayapura,"Ibrahimpur, Vijayapura - KSPCB",22-04-2024 08:00:00,16.802639,75.722694,PM10,41,43,42
India,Karnataka,Yadgir,"Collector Office, Yadgir - KSPCB",22-04-2024 08:00:00,16.7602,77.1428,PM2.5,42,89,58
India,Kerala,Eloor,"Udyogamandal, Eloor - Kerala PCB",22-04-2024 08:00:00,10.073232,76.302765,CO,11,107,21
India,Kerala,Kannur,"Thavakkara, Kannur - Kerala PCB",22-04-2024 08:00:00,11.875000,75.373200,PM2.5,65,83,72
India,Kerala,Kannur,"Thavakkara, Kannur - Kerala PCB",22-04-2024 08:00:00,11.875000,75.373200,PM10,61,106,82
India,Kerala,Kannur,"Thavakkara, Kannur - Kerala PCB",22-04-2024 08:00:00,11.875000,75.373200,NO2,6,7,6
India,Kerala,Kannur,"Thavakkara, Kannur - Kerala PCB",22-04-2024 08:00:00,11.875000,75.373200,OZONE,32,36,32
India,Kerala,Thiruvananthapuram,"Kariavattom, Thiruvananthapuram - Kerala PCB",22-04-2024 08:00:00,8.563700,76.886500,SO2,2,14,8
India,Kerala,Thiruvananthapuram,"Plammoodu, Thiruvananthapuram - Kerala PCB",22-04-2024 08:00:00,8.5149093,76.9435879,PM2.5,8,56,25
India,Kerala,Thiruvananthapuram,"Plammoodu, Thiruvananthapuram - Kerala PCB",22-04-2024 08:00:00,8.5149093,76.9435879,NO2,8,10,9
India,Kerala,Thiruvananthapuram,"Plammoodu, Thiruvananthapuram - Kerala PCB",22-04-2024 08:00:00,8.5149093,76.9435879,OZONE,7,25,19
India,Kerala,Thrissur,"Corporation Ground, Thrissur - Kerala PCB",22-04-2024 08:00:00,10.532400,76.215900,NH3,1,1,1
India,Madhya Pradesh,Bhopal,"Idgah Hills, Bhopal - MPPCB",22-04-2024 08:00:00,23.264759,77.381568,NO2,16,51,26
India,Madhya Pradesh,Bhopal,"Paryavaran Parisar, Bhopal - MPPCB",22-04-2024 08:00:00,23.210494,77.425409,NO2,7,72,22
India,Madhya Pradesh,Bhopal,"T T Nagar, Bhopal - MPPCB",22-04-2024 08:00:00,23.233584,77.400574,PM10,41,200,68
India,Madhya Pradesh,Bhopal,"T T Nagar, Bhopal - MPPCB",22-04-2024 08:00:00,23.233584,77.400574,OZONE,32,88,52
India,Madhya Pradesh,Dewas,"Bhopal Chauraha, Dewas - MPPCB",22-04-2024 08:00:00,22.9682591,76.064118,NH3,NA,NA,NA
India,Madhya Pradesh,Gwalior,"City Center, Gwalior - MPPCB",22-04-2024 08:00:00,26.203442,78.193251,NO2,7,73,26
India,Madhya Pradesh,Gwalior,"Deen Dayal Nagar, Gwalior - MPPCB",22-04-2024 08:00:00,26.259242,78.216432,PM10,44,160,93
India,Madhya Pradesh,Indore,"Chhoti Gwaltoli, Indore - MPPCB",22-04-2024 08:00:00,22.4310,75.5213,SO2,12,26,21
India,Madhya Pradesh,Indore,"Chhoti Gwaltoli, Indore - MPPCB",22-04-2024 08:00:00,22.4310,75.5213,OZONE,21,73,53
India,Madhya Pradesh,Indore,"Residency Area, Indore - IMC",22-04-2024 08:00:00,22.7084,75.8815,SO2,23,30,27
India,Madhya Pradesh,Jabalpur,"Gupteshwar, Jabalpur - JMC",22-04-2024 08:00:00,23.142888,79.916147,PM2.5,12,107,33
India,Madhya Pradesh,Jabalpur,"Gupteshwar, Jabalpur - JMC",22-04-2024 08:00:00,23.142888,79.916147,SO2,5,13,9
India,Madhya Pradesh,Jabalpur,"Marhatal, Jabalpur - MPPCB",22-04-2024 08:00:00,23.168606,79.932247,OZONE,1,91,76
India,Madhya Pradesh,Katni,"Gole Bazar, Katni - MPPCB",22-04-2024 08:00:00,23.50016,80.23284,NO2,29,165,64
India,Madhya Pradesh,Katni,"Gole Bazar, Katni - MPPCB",22-04-2024 08:00:00,23.50016,80.23284,CO,29,119,93
India,Madhya Pradesh,Mandideep,"Sector-D Industrial Area, Mandideep - MPPCB",22-04-2024 08:00:00,23.108440,77.511428,NO2,10,59,31
India,Madhya Pradesh,Mandideep,"Sector-D Industrial Area, Mandideep - MPPCB",22-04-2024 08:00:00,23.108440,77.511428,SO2,7,131,49
India,Madhya Pradesh,Mandideep,"Sector-D Industrial Area, Mandideep - MPPCB",22-04-2024 08:00:00,23.108440,77.511428,OZONE,13,47,18
India,Madhya Pradesh,Pithampur,"Sector-2 Industrial Area, Pithampur - MPPCB",22-04-2024 08:00:00,22.624758,75.675238,PM2.5,11,312,71
India,Madhya Pradesh,Sagar,"Civil Lines, Sagar - MPPCB",22-04-2024 08:00:00,23.838586,78.759431,OZONE,8,110,49
India,Madhya Pradesh,Satna,"Bandhavgar Colony, Satna - Birla Cement",22-04-2024 08:00:00,24.58434363,80.8549414,PM2.5,55,55,55
India,Madhya Pradesh,Satna,"Bandhavgar Colony, Satna - Birla Cement",22-04-2024 08:00:00,24.58434363,80.8549414,CO,54,54,54
India,Madhya Pradesh,Singrauli,"Suryakiran Bhawan NCL, Singrauli - MPPCB",22-04-2024 08:00:00,24.108970,82.645580,NH3,3,4,4
India,Madhya Pradesh,Singrauli,"Suryakiran Bhawan NCL, Singrauli - MPPCB",22-04-2024 08:00:00,24.108970,82.645580,SO2,35,81,45
India,Madhya Pradesh,Ujjain,"Mahakaleshwar Temple, Ujjain - MPPCB",22-04-2024 08:00:00,23.182719 ,75.768218 ,PM2.5,NA,NA,NA
India,Madhya Pradesh,Ujjain,"Mahakaleshwar Temple, Ujjain - MPPCB",22-04-2024 08:00:00,23.182719 ,75.768218 ,OZONE,112,129,116
India,Maharashtra,Ahmednagar,"Tarakpur, Ahmednagar - MPCB",22-04-2024 08:00:00,19.10122,74.73339,NO2,22,51,37
India,Maharashtra,Akola,"Ramdaspeth, Akola - MPCB",22-04-2024 08:00:00,20.719516,77.000253,PM2.5,36,67,46
India,Maharashtra,Akola,"Ramdaspeth, Akola - MPCB",22-04-2024 08:00:00,20.719516,77.000253,PM10,56,125,85
India,Maharashtra,Akola,"Ramdaspeth, Akola - MPCB",22-04-2024 08:00:00,20.719516,77.000253,NO2,10,27,16
India,Maharashtra,Akola,"Ramdaspeth, Akola - MPCB",22-04-2024 08:00:00,20.719516,77.000253,SO2,14,21,17
India,Maharashtra,Akola,"Ramdaspeth, Akola - MPCB",22-04-2024 08:00:00,20.719516,77.000253,CO,16,38,20
India,Maharashtra,Amravati,"Shivneri Colony, Amravati - MPCB",22-04-2024 08:00:00,20.9402359,77.7895248,PM2.5,40,70,54
India,Maharashtra,Amravati,"Shivneri Colony, Amravati - MPCB",22-04-2024 08:00:00,20.9402359,77.7895248,SO2,2,6,4
India,Maharashtra,Amravati,"Shri Shivaji Science College, Amaravati - MPCB",22-04-2024 08:00:00,20.939198,77.765701,NO2,5,104,16
India,Maharashtra,Amravati,"Shri Shivaji Science College, Amaravati - MPCB",22-04-2024 08:00:00,20.939198,77.765701,OZONE,25,128,49
India,Maharashtra,Aurangabad,"More Chowk Waluj, Aurangabad - MPCB",22-04-2024 08:00:00,19.8389439,75.244448,CO,3,72,26
India,Maharashtra,Badlapur,"Katrap, Badlapur - MPCB",22-04-2024 08:00:00,19.16485,73.23409,PM10,63,106,86
India,Maharashtra,Belapur,"CBD Belapur, Belapur - MPCB",22-04-2024 08:00:00,19.0243902,73.0406721,CO,17,36,22
India,Maharashtra,Bhiwandi,"Gokul Nagar, Bhiwandi - MPCB",22-04-2024 08:00:00,19.309073,73.057223,PM10,54,111,80
India,Maharashtra,Chandrapur,"Chauhan Colony, Chandrapur - MPCB",22-04-2024 08:00:00,19.962900,79.298714,PM2.5,48,100,72
India,Maharashtra,Chandrapur,"Chauhan Colony, Chandrapur - MPCB",22-04-2024 08:00:00,19.962900,79.298714,PM10,43,83,61
India,Maharashtra,Chandrapur,"Chauhan Colony, Chandrapur - MPCB",22-04-2024 08:00:00,19.962900,79.298714,NH3,1,1,1
India,Maharashtra,Chandrapur,"Chauhan Colony, Chandrapur - MPCB",22-04-2024 08:00:00,19.962900,79.298714,CO,24,30,25
India,Maharashtra,Dhule,"Deopur, Dhule - MPCB",22-04-2024 08:00:00,20.918946,74.776388,NH3,1,8,5
India,Maharashtra,Dhule,"Deopur, Dhule - MPCB",22-04-2024 08:00:00,20.918946,74.776388,CO,15,28,26
India,Maharashtra,Dhule,"Deopur, Dhule - MPCB",22-04-2024 08:00:00,20.918946,74.776388,OZONE,18,72,28
India,Maharashtra,Jalgaon,"Prabhat Colony, Jalgaon - MPCB",22-04-2024 08:00:00,21.001264,75.565602,PM2.5,64,110,86
India,Maharashtra,Jalna,"Old MIDC, Jalna - MPCB",22-04-2024 08:00:00,19.854616,75.905894,PM2.5,NA,NA,NA
India,Maharashtra,Jalna,"Old MIDC, Jalna - MPCB",22-04-2024 08:00:00,19.854616,75.905894,PM10,28,87,56
India,Maharashtra,Latur,"Sawe Wadi, Latur - MPCB",22-04-2024 08:00:00,18.39963,76.57452,PM10,32,254,91
India,Maharashtra,Mahad,"Kamble Tarf Birwadi, Mahad - MPCB",22-04-2024 08:00:00,18.1023399,73.4783687,NO2,NA,NA,NA
India,Maharashtra,Mahad,"Kamble Tarf Birwadi, Mahad - MPCB",22-04-2024 08:00:00,18.1023399,73.4783687,NH3,NA,NA,NA
India,Maharashtra,Mahad,"Kamble Tarf Birwadi, Mahad - MPCB",22-04-2024 08:00:00,18.1023399,73.4783687,CO,10,33,27
India,Maharashtra,Mahad,"Kamble Tarf Birwadi, Mahad - MPCB",22-04-2024 08:00:00,18.1023399,73.4783687,OZONE,2,20,4
India,Maharashtra,Malegaon,"Mahesh Nagar, Malegaon - MPCB",22-04-2024 08:00:00,20.555712,74.529236,NO2,27,218,84
India,Maharashtra,Malegaon,"Mahesh Nagar, Malegaon - MPCB",22-04-2024 08:00:00,20.555712,74.529236,CO,13,37,24
India,Maharashtra,Mira-Bhayandar,"Bhayandar West, Mira-Bhayandar - MPCB",22-04-2024 08:00:00,19.296481,72.840923,PM10,25,121,65
India,Maharashtra,Mira-Bhayandar,"Bhayandar West, Mira-Bhayandar - MPCB",22-04-2024 08:00:00,19.296481,72.840923,NO2,5,26,11
India,Maharashtra,Mira-Bhayandar,"Bhayandar West, Mira-Bhayandar - MPCB",22-04-2024 08:00:00,19.296481,72.840923,SO2,2,6,4
India,Maharashtra,Mira-Bhayandar,"Bhayandar West, Mira-Bhayandar - MPCB",22-04-2024 08:00:00,19.296481,72.840923,CO,9,20,15
India,Maharashtra,Mumbai,"Bandra Kurla Complex, Mumbai - MPCB",22-04-2024 08:00:00,19.065931,72.862131,NO2,3,10,5
India,Maharashtra,Mumbai,"Bandra Kurla Complex, Mumbai - MPCB",22-04-2024 08:00:00,19.065931,72.862131,SO2,1,2,1
India,Maharashtra,Mumbai,"Borivali East, Mumbai - MPCB",22-04-2024 08:00:00,19.2243333,72.8658113,PM10,24,110,57
India,Maharashtra,Mumbai,"Borivali East, Mumbai - MPCB",22-04-2024 08:00:00,19.2243333,72.8658113,NO2,8,18,12
India,Maharashtra,Mumbai,"Borivali East, Mumbai - MPCB",22-04-2024 08:00:00,19.2243333,72.8658113,NH3,1,2,1
India,Maharashtra,Mumbai,"Byculla, Mumbai - BMC",22-04-2024 08:00:00,18.9767,72.8380,NH3,3,3,3
India,Maharashtra,Mumbai,"Byculla, Mumbai - BMC",22-04-2024 08:00:00,18.9767,72.8380,CO,8,12,9
India,Maharashtra,Mumbai,"Chakala-Andheri East, Mumbai - IITM",22-04-2024 08:00:00,19.11074,72.86084,PM2.5,45,175,80
India,Maharashtra,Mumbai,"Chakala-Andheri East, Mumbai - IITM",22-04-2024 08:00:00,19.11074,72.86084,SO2,2,21,8
India,Maharashtra,Mumbai,"Ghatkopar, Mumbai - BMC",22-04-2024 08:00:00,19.083694,72.920967,PM2.5,14,40,27
India,Maharashtra,Mumbai,"Kandivali East, Mumbai - MPCB",22-04-2024 08:00:00,19.205800,72.868200,CO,28,30,29
India,Maharashtra,Mumbai,"Kandivali West, Mumbai - BMC",22-04-2024 08:00:00,19.215859,72.831718,PM2.5,19,33,25
India,Maharashtra,Mumbai,"Kandivali West, Mumbai - BMC",22-04-2024 08:00:00,19.215859,72.831718,PM10,19,37,26
India,Maharashtra,Mumbai,"Kandivali West, Mumbai - BMC",22-04-2024 08:00:00,19.215859,72.831718,NH3,1,3,2
India,Maharashtra,Mumbai,"Kurla, Mumbai - MPCB",22-04-2024 08:00:00,19.0863,72.8888,PM10,29,190,94
India,Maharashtra,Mumbai,"Kurla, Mumbai - MPCB",22-04-2024 08:00:00,19.0863,72.8888,SO2,32,32,32
India,Maharashtra,Mumbai,"Kurla, Mumbai - MPCB",22-04-2024 08:00:00,19.0863,72.8888,OZONE,28,41,34
India,Maharashtra,Mumbai,"Mindspace-Malad West, Mumbai - MPCB",22-04-2024 08:00:00,19.1878657,72.8304069,NH3,9,9,9
India,Maharashtra,Mumbai,"Mindspace-Malad West, Mumbai - MPCB",22-04-2024 08:00:00,19.1878657,72.8304069,OZONE,15,130,20
India,Maharashtra,Mumbai,"Sion, Mumbai - MPCB",22-04-2024 08:00:00,19.047000,72.874600,SO2,33,36,34
India,Maharashtra,Mumbai,"Sion, Mumbai - MPCB",22-04-2024 08:00:00,19.047000,72.874600,CO,28,38,37
India,Maharashtra,Mumbai,"Vasai West, Mumbai - MPCB",22-04-2024 08:00:00,19.383200,72.820400,NO2,26,28,27
India,Maharashtra,Mumbai,"Vasai West, Mumbai - MPCB",22-04-2024 08:00:00,19.383200,72.820400,OZONE,13,40,16
India,Maharashtra,Mumbai,"Vile Parle West, Mumbai - MPCB",22-04-2024 08:00:00,19.10861,72.83622,OZONE,3,3,3
India,Maharashtra,Mumbai,"Worli, Mumbai - MPCB",22-04-2024 08:00:00,18.9936162,72.8128113,PM10,NA,NA,NA
India,Maharashtra,Mumbai,"Worli, Mumbai - MPCB",22-04-2024 08:00:00,18.9936162,72.8128113,CO,NA,NA,NA
India,Maharashtra,Nagpur,"Ambazari, Nagpur - MPCB",22-04-2024 08:00:00,21.121801,79.04952,PM10,61,104,78
India,Maharashtra,Nagpur,"Ambazari, Nagpur - MPCB",22-04-2024 08:00:00,21.121801,79.04952,NO2,3,81,20
India,Maharashtra,Nagpur,"Opp GPO Civil Lines, Nagpur - MPCB",22-04-2024 08:00:00,21.152875,79.0517531,NO2,8,77,25
India,Maharashtra,Nashik,"Gangapur Road, Nashik - MPCB",22-04-2024 08:00:00,20.0073285,73.7762427,NO2,18,48,26
India,Maharashtra,Nashik,"Gangapur Road, Nashik - MPCB",22-04-2024 08:00:00,20.0073285,73.7762427,CO,17,75,55
India,Maharashtra,Nashik,"Gangapur Road, Nashik - MPCB",22-04-2024 08:00:00,20.0073285,73.7762427,OZONE,8,56,14
India,Maharashtra,Nashik,"Hirawadi, Nashik - MPCB",22-04-2024 08:00:00,20.021503,73.813844,OZONE,6,81,16
India,Maharashtra,Nashik,"MIDC Ambad, Nashik - MPCB",22-04-2024 08:00:00,19.950220,73.731480,PM2.5,25,67,45
India,Maharashtra,Nashik,"Pandav Nagari, Nashik - MPCB",22-04-2024 08:00:00,19.9591346,73.7788008,CO,10,28,20
India,Maharashtra,Navi Mumbai,"Kopripada-Vashi, Navi Mumbai - MPCB",22-04-2024 08:00:00,19.090337,73.014232,PM10,50,201,79
India,Maharashtra,Navi Mumbai,"Sector-19A Nerul, Navi Mumbai - IITM",22-04-2024 08:00:00,19.044,73.0325,NO2,17,96,43
India,Maharashtra,Navi Mumbai,"Sector-19A Nerul, Navi Mumbai - IITM",22-04-2024 08:00:00,19.044,73.0325,NH3,4,10,7
India,Maharashtra,Navi Mumbai,"Sector-2E Kalamboli, Navi Mumbai - MPCB",22-04-2024 08:00:00,19.02579,73.10297,PM2.5,25,149,89
India,Maharashtra,Navi Mumbai,"Sector-2E Kalamboli, Navi Mumbai - MPCB",22-04-2024 08:00:00,19.02579,73.10297,CO,2,45,17
India,Maharashtra,Navi Mumbai,"Tondare-Taloja, Navi Mumbai - MPCB",22-04-2024 08:00:00,19.0630,73.1209,NH3,1,4,2
India,Maharashtra,Parbhani,"Masoom Colony, Parbhani - MPCB",22-04-2024 08:00:00,19.265594,76.761463,PM2.5,15,155,79
India,Maharashtra,Parbhani,"Masoom Colony, Parbhani - MPCB",22-04-2024 08:00:00,19.265594,76.761463,OZONE,5,86,28
India,Maharashtra,Pimpri-Chinchwad,"Gavalinagar, Pimpri Chinchwad - MPCB",22-04-2024 08:00:00,18.63673,73.82487,CO,13,50,27
India,Maharashtra,Pimpri-Chinchwad,"Park Street Wakad, Pimpri Chinchwad - MPCB",22-04-2024 08:00:00,18.59051,73.77946,PM2.5,18,67,44
India,Maharashtra,Pimpri-Chinchwad,"Park Street Wakad, Pimpri Chinchwad - MPCB",22-04-2024 08:00:00,18.59051,73.77946,NH3,6,11,8
India,Maharashtra,Pimpri-Chinchwad,"Thergaon, Pimpri Chinchwad - MPCB",22-04-2024 08:00:00,18.616318,73.765797,NH3,NA,NA,NA
India,Maharashtra,Pune,"Mhada Colony, Pune - IITM",22-04-2024 08:00:00,18.573040,73.927715,CO,26,106,78
India,Maharashtra,Pune,"Revenue Colony-Shivajinagar, Pune - IITM",22-04-2024 08:00:00,18.530085,73.849598,PM2.5,15,55,30
India,Maharashtra,Pune,"Revenue Colony-Shivajinagar, Pune - IITM",22-04-2024 08:00:00,18.530085,73.849598,CO,102,116,110
India,Maharashtra,Sangli,"Vijay Nagar, Sangli - MPCB",22-04-2024 08:00:00, 16.5038,74.3623,NO2,10,43,20
India,Maharashtra,Solapur,"Dnyaneshwar Nagar, Solapur - MPCB",22-04-2024 08:00:00,17.6336264,75.9132495,NO2,12,97,33
India,Maharashtra,Solapur,"Dnyaneshwar Nagar, Solapur - MPCB",22-04-2024 08:00:00,17.6336264,75.9132495,NH3,26,49,33
India,Maharashtra,Solapur,"Solapur, Solapur - MPCB",22-04-2024 08:00:00,17.6599188,75.9063906,PM2.5,63,63,63
India,Maharashtra,Thane,"Pimpleshwar Mandir, Thane - MPCB",22-04-2024 08:00:00,19.192056,72.9585188,SO2,1,28,6
India,Maharashtra,Thane,"Upvan Fort, Thane - MPCB",22-04-2024 08:00:00,19.222279,72.957979,PM2.5,26,75,49
India,Maharashtra,Thane,"Upvan Fort, Thane - MPCB",22-04-2024 08:00:00,19.222279,72.957979,CO,11,36,24
India,Maharashtra,Ulhasnagar,"Sidhi Vinayak Nagar, Ulhasnagar - MPCB",22-04-2024 08:00:00,19.235581,73.159121,NO2,6,24,13
India,Maharashtra,Ulhasnagar,"Sidhi Vinayak Nagar, Ulhasnagar - MPCB",22-04-2024 08:00:00,19.235581,73.159121,CO,12,50,27
India,Maharashtra,Virar,"Bolinj, Virar - MPCB",22-04-2024 08:00:00,19.4458210,72.7988231,PM10,38,63,46
India,Manipur,Imphal,"DM College of Science, Imphal - Manipur PCB",22-04-2024 08:00:00,24.8207389,93.9423085,PM2.5,9,28,17
India,Manipur,Imphal,"Manipur University, Imphal - Manipur PCB",22-04-2024 08:00:00,24.7524239,93.9286218,PM2.5,27,93,43
India,Manipur,Imphal,"Manipur University, Imphal - Manipur PCB",22-04-2024 08:00:00,24.7524239,93.9286218,NO2,7,10,9
India,Manipur,Imphal,"Manipur University, Imphal - Manipur PCB",22-04-2024 08:00:00,24.7524239,93.9286218,CO,8,12,10
India,Mizoram,Aizawl,"Sikulpuikawn, Aizawl - Mizoram PCB",22-04-2024 08:00:00,23.7176342,92.7192841,NO2,NA,NA,NA
India,Nagaland,Kohima,"PWD Juction, Kohima - NPCB",22-04-2024 08:00:00,25.6635413,94.0989878,NO2,3,6,4
India,Nagaland,Kohima,"PWD Juction, Kohima - NPCB",22-04-2024 08:00:00,25.6635413,94.0989878,NH3,1,1,1
India,Nagaland,Kohima,"PWD Juction, Kohima - NPCB",22-04-2024 08:00:00,25.6635413,94.0989878,SO2,32,37,34
India,Odisha,Balasore,"Kalidaspur, Balasore - OSPCB",22-04-2024 08:00:00,21.51161,86.89088,NO2,8,35,14
India,Odisha,Barbil,"Forest Office, Barbil - OSPCB",22-04-2024 08:00:00,22.1166054,85.3945546,PM10,105,346,195
India,Odisha,Barbil,"Forest Office, Barbil - OSPCB",22-04-2024 08:00:00,22.1166054,85.3945546,SO2,9,38,21
India,Odisha,Baripada,"Meher Colony, Baripada - OSPCB",22-04-2024 08:00:00,21.941841,86.728318,NH3,1,6,3
India,Odisha,Baripada,"Meher Colony, Baripada - OSPCB",22-04-2024 08:00:00,21.941841,86.728318,SO2,2,9,5
India,Odisha,Baripada,"Meher Colony, Baripada - OSPCB",22-04-2024 08:00:00,21.941841,86.728318,CO,25,46,28
India,Odisha,Bhubaneswar,"Lingraj Mandir, Bhubaneswar - OSPCB",22-04-2024 08:00:00,20.240790,85.836784,PM2.5,37,217,106
India,Odisha,Bhubaneswar,"Lingraj Mandir, Bhubaneswar - OSPCB",22-04-2024 08:00:00,20.240790,85.836784,CO,38,82,64
India,Odisha,Bhubaneswar,"Patia, Bhubaneswar - OSPCB",22-04-2024 08:00:00,20.34652,85.81630,CO,16,128,89
India,Odisha,Bhubaneswar,"Patia, Bhubaneswar - OSPCB",22-04-2024 08:00:00,20.34652,85.81630,OZONE,22,191,65
India,Odisha,Brajrajnagar,"GM Office, Brajrajnagar - OSPCB",22-04-2024 08:00:00,21.8004996,83.8396977,PM10,28,172,95
India,Odisha,Brajrajnagar,"GM Office, Brajrajnagar - OSPCB",22-04-2024 08:00:00,21.8004996,83.8396977,CO,82,96,93
India,Odisha,Brajrajnagar,"GM Office, Brajrajnagar - OSPCB",22-04-2024 08:00:00,21.8004996,83.8396977,OZONE,19,20,19
India,Odisha,Byasanagar,"Ferro Chrome Colony, Byasanagar - OSPCB",22-04-2024 08:00:00,20.94185,86.11510,PM2.5,53,210,106
India,Odisha,Keonjhar,"Jagamohanpur, Keonjhar - OSPCB",22-04-2024 08:00:00,21.643900,85.599355,PM2.5,65,297,155
India,Odisha,Keonjhar,"Jagamohanpur, Keonjhar - OSPCB",22-04-2024 08:00:00,21.643900,85.599355,CO,16,38,22
India,Odisha,Nayagarh,"Dabuna, Nayagarh - OSPCB",22-04-2024 08:00:00,21.847279,85.416905,SO2,2,36,13
India,Odisha,Rairangpur,"Divisional Forest Office, Rairangpur - OSPCB",22-04-2024 08:00:00,22.265816,86.174829,PM2.5,99,261,177
India,Odisha,Rairangpur,"Divisional Forest Office, Rairangpur - OSPCB",22-04-2024 08:00:00,22.265816,86.174829,PM10,100,155,127
India,Odisha,Rairangpur,"Divisional Forest Office, Rairangpur - OSPCB",22-04-2024 08:00:00,22.265816,86.174829,NO2,1,3,1
India,Odisha,Rourkela,"Fertilizer Township, Rourkela - OSPCB",22-04-2024 08:00:00,22.18972222,84.86277778,PM2.5,72,127,78
India,Odisha,Rourkela,"Raghunathpali, Rourkela - OSPCB",22-04-2024 08:00:00,22.220833,84.809444,PM2.5,86,272,197
India,Odisha,Rourkela,"Raghunathpali, Rourkela - OSPCB",22-04-2024 08:00:00,22.220833,84.809444,NO2,17,100,57
India,Odisha,Rourkela,"Sector-2, Rourkela - OSPCB",22-04-2024 08:00:00,22.24500000,84.88111111,PM10,94,176,133
India,Odisha,Suakati,"OMC Colony, Suakati - OSPCB",22-04-2024 08:00:00,21.606865,85.510538,NH3,5,7,6
India,Odisha,Talcher,"Talcher Coalfields,Talcher - OSPCB",22-04-2024 08:00:00,20.9360711,85.1707021,NO2,18,23,20
India,Odisha,Talcher,"Talcher Coalfields,Talcher - OSPCB",22-04-2024 08:00:00,20.9360711,85.1707021,SO2,99,114,105
India,Odisha,Tensa,"Barsua Iron Ore Mines, Tensa - OSPCB",22-04-2024 08:00:00,21.869985,85.167016,PM2.5,54,94,71
India,Odisha,Tensa,"Barsua Iron Ore Mines, Tensa - OSPCB",22-04-2024 08:00:00,21.869985,85.167016,NH3,1,3,3
India,Puducherry,Puducherry,"Jawahar Nagar, Puducherry - PPCC",22-04-2024 08:00:00,11.9309,79.8027,PM10,6,31,17
India,Puducherry,Puducherry,"Jawahar Nagar, Puducherry - PPCC",22-04-2024 08:00:00,11.9309,79.8027,NO2,2,12,5
India,Puducherry,Puducherry,"Jawahar Nagar, Puducherry - PPCC",22-04-2024 08:00:00,11.9309,79.8027,SO2,2,11,7
India,Punjab,Amritsar,"Golden Temple, Amritsar - PPCB",22-04-2024 08:00:00,31.620000,74.876512,NH3,5,8,6
India,Punjab,Bathinda,"Hardev Nagar, Bathinda - PPCB",22-04-2024 08:00:00,30.233011,74.907758,NO2,29,33,31
India,Punjab,Bathinda,"Hardev Nagar, Bathinda - PPCB",22-04-2024 08:00:00,30.233011,74.907758,CO,1,36,23
India,Punjab,Jalandhar,"Civil Line, Jalandhar - PPCB",22-04-2024 08:00:00,31.321907,75.578914,SO2,7,11,9
India,Punjab,Khanna,"Kalal Majra, Khanna - PPCB",22-04-2024 08:00:00,30.736056 ,76.209694,NO2,37,38,38
India,Punjab,Khanna,"Kalal Majra, Khanna - PPCB",22-04-2024 08:00:00,30.736056 ,76.209694,SO2,7,24,14
India,Punjab,Khanna,"Kalal Majra, Khanna - PPCB",22-04-2024 08:00:00,30.736056 ,76.209694,CO,13,20,15
India,Punjab,Ludhiana,"Punjab Agricultural University, Ludhiana - PPCB",22-04-2024 08:00:00,30.9028,75.8086,PM10,55,103,79
India,Punjab,Ludhiana,"Punjab Agricultural University, Ludhiana - PPCB",22-04-2024 08:00:00,30.9028,75.8086,NH3,4,4,4
India,Punjab,Ludhiana,"Punjab Agricultural University, Ludhiana - PPCB",22-04-2024 08:00:00,30.9028,75.8086,CO,5,34,20
India,Punjab,Patiala,"Model Town, Patiala - PPCB",22-04-2024 08:00:00,30.349388,76.366642,SO2,5,28,15
India,Punjab,Rupnagar,"Ratanpura, Rupnagar - Ambuja Cements",22-04-2024 08:00:00,31.0325454,76.5623046,PM2.5,18,69,50
India,Punjab,Rupnagar,"Ratanpura, Rupnagar - Ambuja Cements",22-04-2024 08:00:00,31.0325454,76.5623046,PM10,18,71,50
India,Rajasthan,Ajmer,"Civil Lines,  Ajmer - RSPCB",22-04-2024 08:00:00,26.470859,74.646594,SO2,11,13,12
India,Rajasthan,Alwar,"Moti Doongri, Alwar - RSPCB",22-04-2024 08:00:00,27.554793,76.611536,PM10,47,102,72
India,Rajasthan,Alwar,"Moti Doongri, Alwar - RSPCB",22-04-2024 08:00:00,27.554793,76.611536,NH3,4,9,6
India,Rajasthan,Alwar,"Moti Doongri, Alwar - RSPCB",22-04-2024 08:00:00,27.554793,76.611536,CO,30,100,53
India,Rajasthan,Alwar,"Moti Doongri, Alwar - RSPCB",22-04-2024 08:00:00,27.554793,76.611536,OZONE,9,48,14
India,Rajasthan,Baran,"Bamboliya, Baran - RSPCB",22-04-2024 08:00:00,25.106006,76.469948,NO2,7,82,19
India,Rajasthan,Baran,"Bamboliya, Baran - RSPCB",22-04-2024 08:00:00,25.106006,76.469948,SO2,9,19,12
India,Rajasthan,Barmer,"Railway Colony, Barmer - RSPCB",22-04-2024 08:00:00,25.747299,71.393989,PM2.5,8,34,20
India,Rajasthan,Barmer,"Railway Colony, Barmer - RSPCB",22-04-2024 08:00:00,25.747299,71.393989,PM10,39,100,72
India,Rajasthan,Barmer,"Railway Colony, Barmer - RSPCB",22-04-2024 08:00:00,25.747299,71.393989,CO,68,82,70
India,Rajasthan,Bharatpur,"Krishna Nagar, Bharatpur - RSPCB",22-04-2024 08:00:00,27.215415,77.50873,OZONE,46,121,63
India,Rajasthan,Bhilwara,"Pratap Nagar, Bhilwara - RSPCB",22-04-2024 08:00:00,25.339605,74.618883,NO2,11,38,19
India,Rajasthan,Bhiwadi,"RIICO Ind. Area III, Bhiwadi - RSPCB",22-04-2024 08:00:00,28.194909,76.862296,PM10,NA,NA,NA
India,Rajasthan,Bhiwadi,"RIICO Ind. Area III, Bhiwadi - RSPCB",22-04-2024 08:00:00,28.194909,76.862296,NO2,NA,NA,NA
India,Rajasthan,Bikaner,"MM Ground, Bikaner - RSPCB",22-04-2024 08:00:00,28.018792,73.292658,PM10,41,149,101
India,Rajasthan,Bikaner,"MM Ground, Bikaner - RSPCB",22-04-2024 08:00:00,28.018792,73.292658,NH3,11,12,11
India,Rajasthan,Bundi,"New Colony, Bundi - RSPCB",22-04-2024 08:00:00,25.435774,75.644272,PM2.5,9,129,38
India,Rajasthan,Bundi,"New Colony, Bundi - RSPCB",22-04-2024 08:00:00,25.435774,75.644272,CO,15,104,29
India,Rajasthan,Chittorgarh,"Shastri Nagar, Chittorgarh - RSPCB",22-04-2024 08:00:00,24.892047,74.623527,PM2.5,8,98,35
India,Rajasthan,Churu,"Subash Chowk, Churu - RSPCB",22-04-2024 08:00:00,28.296139,74.961696,SO2,4,10,6
India,Rajasthan,Dausa,"Khatikan Mohalla, Dausa - RSPCB",22-04-2024 08:00:00,26.895552,76.334753,PM2.5,22,56,41
India,Rajasthan,Dausa,"Khatikan Mohalla, Dausa - RSPCB",22-04-2024 08:00:00,26.895552,76.334753,NO2,38,103,62
India,Rajasthan,Dholpur,"Raja Ganj, Dholpur - RSPCB",22-04-2024 08:00:00,26.699557,77.898881,PM2.5,NA,NA,NA
India,Rajasthan,Dholpur,"Raja Ganj, Dholpur - RSPCB",22-04-2024 08:00:00,26.699557,77.898881,OZONE,5,29,23
India,Rajasthan,Dungarpur,"Bhoiwada, Dungarpur - RSPCB",22-04-2024 08:00:00,23.837789,73.714926,PM10,56,99,78
India,Rajasthan,Dungarpur,"Bhoiwada, Dungarpur - RSPCB",22-04-2024 08:00:00,23.837789,73.714926,SO2,6,13,11
India,Rajasthan,Hanumangarh,"Housing Board, Hanumangarh - RSPCB",22-04-2024 08:00:00,29.610750,74.283608,PM2.5,7,324,69
India,Rajasthan,Hanumangarh,"Housing Board, Hanumangarh - RSPCB",22-04-2024 08:00:00,29.610750,74.283608,PM10,67,445,160
India,Rajasthan,Hanumangarh,"Housing Board, Hanumangarh - RSPCB",22-04-2024 08:00:00,29.610750,74.283608,NO2,7,70,28
India,Rajasthan,Hanumangarh,"Housing Board, Hanumangarh - RSPCB",22-04-2024 08:00:00,29.610750,74.283608,SO2,2,31,11
India,Rajasthan,Jaipur,"Mansarovar Sector-12, Jaipur - RSPCB",22-04-2024 08:00:00,26.843698,75.766894,SO2,2,12,7
India,Rajasthan,Jaipur,"Mansarovar Sector-12, Jaipur - RSPCB",22-04-2024 08:00:00,26.843698,75.766894,CO,2,30,28
India,Rajasthan,Jaipur,"Police Commissionerate, Jaipur - RSPCB",22-04-2024 08:00:00,26.9164092,75.7994901,NO2,12,93,35
India,Rajasthan,Jaipur,"RIICO Sitapura, Jaipur - RSPCB",22-04-2024 08:00:00,26.786682,75.827928,PM10,55,126,87
India,Rajasthan,Jaipur,"Sector-2 Murlipura, Jaipur - RSPCB",22-04-2024 08:00:00,26.960669,75.771817,PM2.5,32,59,40
India,Rajasthan,Jaipur,"Sector-2 Murlipura, Jaipur - RSPCB",22-04-2024 08:00:00,26.960669,75.771817,NH3,3,17,8
India,Rajasthan,Jaipur,"Sector-2 Murlipura, Jaipur - RSPCB",22-04-2024 08:00:00,26.960669,75.771817,SO2,6,32,12
India,Rajasthan,Jaisalmer,"Sadar Bazar, Jaisalmer - RSPCB",22-04-2024 08:00:00,26.912329,70.909168,PM10,45,166,89
India,Rajasthan,Jaisalmer,"Sadar Bazar, Jaisalmer - RSPCB",22-04-2024 08:00:00,26.912329,70.909168,NH3,4,7,5
India,Rajasthan,Jaisalmer,"Sadar Bazar, Jaisalmer - RSPCB",22-04-2024 08:00:00,26.912329,70.909168,SO2,4,26,7
India,Rajasthan,Jalore,"Mudtra Sili, Jalore - RSPCB",22-04-2024 08:00:00,25.344694,72.626208,OZONE,57,118,69
India,Rajasthan,Jhalawar,"Rajlaxmi Nagar, Jhalawar - RSPCB",22-04-2024 08:00:00,24.588397,76.172782,SO2,2,12,5
India,Rajasthan,Jhunjhunu,"Indra Nagar, Jhunjhunu - RSPCB",22-04-2024 08:00:00,28.108988,75.386577,NH3,5,12,7
India,Rajasthan,Jhunjhunu,"Indra Nagar, Jhunjhunu - RSPCB",22-04-2024 08:00:00,28.108988,75.386577,OZONE,10,132,73
India,Rajasthan,Jodhpur,"Collectorate, Jodhpur - RSPCB",22-04-2024 08:00:00,26.268249,73.0193853,OZONE,5,124,34
India,Rajasthan,Jodhpur,"Digari Kalan, Jodhpur - RSPCB",22-04-2024 08:00:00,26.295810,73.082283,PM2.5,3,63,24
India,Rajasthan,Jodhpur,"Digari Kalan, Jodhpur - RSPCB",22-04-2024 08:00:00,26.295810,73.082283,OZONE,21,102,32
India,Rajasthan,Jodhpur,"Jhalamand, Jodhpur - RSPCB",22-04-2024 08:00:00,26.215415,73.070156,NO2,3,31,12
India,Rajasthan,Jodhpur,"Jhalamand, Jodhpur - RSPCB",22-04-2024 08:00:00,26.215415,73.070156,NH3,4,8,6
India,Rajasthan,Jodhpur,"Jhalamand, Jodhpur - RSPCB",22-04-2024 08:00:00,26.215415,73.070156,SO2,1,10,4
India,Rajasthan,Jodhpur,"Mandor, Jodhpur - RSPCB",22-04-2024 08:00:00,26.358805,73.047444,PM10,52,149,95
India,Rajasthan,Jodhpur,"Mandor, Jodhpur - RSPCB",22-04-2024 08:00:00,26.358805,73.047444,OZONE,13,113,44
India,Rajasthan,Jodhpur,"Samrat Ashok Udhyan, Jodhpur - RSPCB",22-04-2024 08:00:00,26.253384,72.976571,PM2.5,6,61,20
India,Rajasthan,Karauli,"Satyawati Vihar, Karauli - RSPCB",22-04-2024 08:00:00,26.506177,77.025989,PM2.5,18,63,36
India,Rajasthan,Kota,"Dhanmandi, Kota - RSPCB",22-04-2024 08:00:00,25.164090,75.858137,NO2,11,130,42
India,Rajasthan,Kota,"Nayapura, Kota - RSPCB",22-04-2024 08:00:00,25.196024,75.855668,PM10,34,149,96
India,Rajasthan,Kota,"Shrinath Puram, Kota - RSPCB",22-04-2024 08:00:00,25.14389,75.821256,NO2,12,104,28
India,Rajasthan,Kota,"Shrinath Puram, Kota - RSPCB",22-04-2024 08:00:00,25.14389,75.821256,NH3,5,12,7
India,Rajasthan,Nagaur,"Karni Colony, Nagaur - RSPCB",22-04-2024 08:00:00,27.213494,73.734444,NO2,7,18,12
India,Rajasthan,Pali,"Indira Colony Vistar, Pali - RSPCB",22-04-2024 08:00:00,25.771061, 73.340227,OZONE,34,113,43
India,Rajasthan,Pratapgarh,"Pragati Nagar, Pratapgarh - RSPCB",22-04-2024 08:00:00,24.041198,74.780702,PM2.5,16,67,36
India,Rajasthan,Rajsamand,"Dhoinda, Rajsamand - RSPCB",22-04-2024 08:00:00,25.036360,73.883502,NH3,5,6,5
India,Rajasthan,Sawai Madhopur,"Sahu Nagar, Sawai Madhopur - RSPCB",22-04-2024 08:00:00,26.031443,76.359327,PM2.5,28,267,60
India,Rajasthan,Sirohi,"Vedhaynath Colony, Sirohi - RSPCB",22-04-2024 08:00:00,24.885261,72.857549,NH3,3,4,4
India,Rajasthan,Sri Ganganagar,"Old City, Sri Ganganagar - RSPCB",22-04-2024 08:00:00,29.931624,73.864511,PM2.5,NA,NA,NA
India,Rajasthan,Sri Ganganagar,"Old City, Sri Ganganagar - RSPCB",22-04-2024 08:00:00,29.931624,73.864511,NO2,NA,NA,NA
India,Rajasthan,Sri Ganganagar,"Old City, Sri Ganganagar - RSPCB",22-04-2024 08:00:00,29.931624,73.864511,CO,28,92,63
India,Rajasthan,Tonk,"Shastri Nagar, Tonk - RSPCB",22-04-2024 08:00:00,26.159933,75.780517,PM2.5,25,97,55
India,Rajasthan,Tonk,"Shastri Nagar, Tonk - RSPCB",22-04-2024 08:00:00,26.159933,75.780517,SO2,1,14,7
India,Rajasthan,Udaipur,"Ashok Nagar, Udaipur - RSPCB",22-04-2024 08:00:00,24.5886166,73.6321397,PM2.5,29,112,57
India,Rajasthan,Udaipur,"Ashok Nagar, Udaipur - RSPCB",22-04-2024 08:00:00,24.5886166,73.6321397,NO2,48,78,58
India,Rajasthan,Udaipur,"Ashok Nagar, Udaipur - RSPCB",22-04-2024 08:00:00,24.5886166,73.6321397,SO2,5,10,7
India,Sikkim,Gangtok,"Zero Point GICI, Gangtok - SSPCB",22-04-2024 08:00:00,27.338530,88.614099,NH3,1,1,1
India,TamilNadu,Chennai,"Alandur Bus Depot, Chennai - CPCB",22-04-2024 08:00:00,12.9099161,80.1076538,CO,60,102,98
India,TamilNadu,Chennai,"Royapuram, Chennai - TNPCB",22-04-2024 08:00:00,13.1036,80.2909,NH3,NA,NA,NA
India,TamilNadu,Chennai,"Velachery Res. Area, Chennai - CPCB",22-04-2024 08:00:00,13.0052189,80.2398125,SO2,11,11,11
India,TamilNadu,Chennai,"Velachery Res. Area, Chennai - CPCB",22-04-2024 08:00:00,13.0052189,80.2398125,OZONE,22,52,42
India,TamilNadu,Cuddalore,"Kudikadu, Cuddalore - TNPCB",22-04-2024 08:00:00,11.6829898,79.7532099,NH3,4,4,4
India,TamilNadu,Cuddalore,"Semmandalam, Cuddalore - TNPCB",22-04-2024 08:00:00,11.7637683,79.7499835,OZONE,1,2,1
India,TamilNadu,Gummidipoondi,"Anthoni Pillai Nagar, Gummidipoondi - TNPCB",22-04-2024 08:00:00,13.4127,80.1081,PM2.5,12,95,38
India,TamilNadu,Gummidipoondi,"Anthoni Pillai Nagar, Gummidipoondi - TNPCB",22-04-2024 08:00:00,13.4127,80.1081,NH3,2,2,2
India,TamilNadu,Ooty,"Bombay Castel, Ooty - TNPCB",22-04-2024 08:00:00,11.4068288,76.7138973,NO2,1,57,17
India,TamilNadu,Ooty,"Bombay Castel, Ooty - TNPCB",22-04-2024 08:00:00,11.4068288,76.7138973,SO2,13,13,13
India,TamilNadu,Palkalaiperur,"Bharathidasan University, Palkalaiperur - TNPCB",22-04-2024 08:00:00,10.681158,78.741746,PM2.5,NA,NA,NA
India,TamilNadu,Thoothukudi,"Meelavittan, Thoothukudi - TNPCB",22-04-2024 08:00:00,8.816428 ,78.099039,PM10,38,112,70
India,TamilNadu,Tirupur,"Kumaran College, Tirupur - TNPCB",22-04-2024 08:00:00,11.0973603,77.3228673,PM2.5,12,29,21
India,Telangana,Hyderabad,"ECIL Kapra, Hyderabad - TSPCB",22-04-2024 08:00:00,17.470431,78.566959,PM10,48,63,55
India,Telangana,Hyderabad,"ECIL Kapra, Hyderabad - TSPCB",22-04-2024 08:00:00,17.470431,78.566959,NH3,5,8,5
India,Telangana,Hyderabad,"IITH Kandi, Hyderabad - TSPCB",22-04-2024 08:00:00,17.585705,78.126199,NO2,5,6,5
India,Telangana,Hyderabad,"Nacharam_TSIIC IALA, Hyderabad - TSPCB",22-04-2024 08:00:00,17.429398,78.569354,PM2.5,NA,NA,NA
India,Telangana,Hyderabad,"Nacharam_TSIIC IALA, Hyderabad - TSPCB",22-04-2024 08:00:00,17.429398,78.569354,PM10,NA,NA,NA
India,Telangana,Hyderabad,"Somajiguda, Hyderabad - TSPCB",22-04-2024 08:00:00,17.417094,78.457437,PM2.5,37,70,52
India,Telangana,Hyderabad,"Somajiguda, Hyderabad - TSPCB",22-04-2024 08:00:00,17.417094,78.457437,SO2,17,19,18
India,Telangana,Hyderabad,"Zoo Park, Hyderabad - TSPCB",22-04-2024 08:00:00,17.349694,78.451437,PM2.5,40,173,69
India,Telangana,Hyderabad,"Zoo Park, Hyderabad - TSPCB",22-04-2024 08:00:00,17.349694,78.451437,OZONE,16,45,21
India,Tripura,Agartala,"Bardowali, Agartala - Tripura SPCB",22-04-2024 08:00:00,23.8175497,91.2726974,NH3,1,3,2
India,Uttar_Pradesh,Agra,"Manoharpur, Agra - UPPCB",22-04-2024 08:00:00,27.23711,78.01936,NH3,1,3,2
India,Uttar_Pradesh,Agra,"Manoharpur, Agra - UPPCB",22-04-2024 08:00:00,27.23711,78.01936,CO,7,22,18
India,Uttar_Pradesh,Agra,"Rohta, Agra - UPPCB",22-04-2024 08:00:00,27.106972,78.000111,PM2.5,15,98,52
India,Uttar_Pradesh,Agra,"Rohta, Agra - UPPCB",22-04-2024 08:00:00,27.106972,78.000111,NH3,NA,NA,NA
India,Uttar_Pradesh,Agra,"Sanjay Palace, Agra - UPPCB",22-04-2024 08:00:00,27.19865833,78.00598056,PM2.5,9,46,23
India,Uttar_Pradesh,Agra,"Sanjay Palace, Agra - UPPCB",22-04-2024 08:00:00,27.19865833,78.00598056,CO,14,120,52
India,Uttar_Pradesh,Agra,"Sector-3B Avas Vikas Colony, Agra - UPPCB",22-04-2024 08:00:00,27.19412,77.96237,PM2.5,10,51,28
India,Uttar_Pradesh,Agra,"Sector-3B Avas Vikas Colony, Agra - UPPCB",22-04-2024 08:00:00,27.19412,77.96237,NH3,5,17,10
India,Uttar_Pradesh,Agra,"Shahjahan Garden, Agra - UPPCB",22-04-2024 08:00:00,27.169338,78.03582,PM2.5,19,71,42
India,Uttar_Pradesh,Agra,"Shahjahan Garden, Agra - UPPCB",22-04-2024 08:00:00,27.169338,78.03582,NO2,24,25,24
India,Uttar_Pradesh,Agra,"Shahjahan Garden, Agra - UPPCB",22-04-2024 08:00:00,27.169338,78.03582,NH3,2,5,4
India,Uttar_Pradesh,Agra,"Shastripuram, Agra - UPPCB",22-04-2024 08:00:00,27.19862,77.92066,NH3,NA,NA,NA
India,Uttar_Pradesh,Bareilly,"Civil Lines, Bareilly - UPPCB",22-04-2024 08:00:00,28.359581,79.414455,PM10,35,140,92
India,Uttar_Pradesh,Bareilly,"Civil Lines, Bareilly - UPPCB",22-04-2024 08:00:00,28.359581,79.414455,NO2,2,3,2
India,Uttar_Pradesh,Firozabad,"Nagla Bhau, Firozabad - UPPCB",22-04-2024 08:00:00,27.168897,78.376960,NO2,15,18,17
India,Uttar_Pradesh,Firozabad,"Nagla Bhau, Firozabad - UPPCB",22-04-2024 08:00:00,27.168897,78.376960,NH3,2,2,2
India,Uttar_Pradesh,Firozabad,"Nagla Bhau, Firozabad - UPPCB",22-04-2024 08:00:00,27.168897,78.376960,SO2,20,32,27
India,Uttar_Pradesh,Firozabad,"Nagla Bhau, Firozabad - UPPCB",22-04-2024 08:00:00,27.168897,78.376960,CO,15,36,25
India,Uttar_Pradesh,Firozabad,"Vibhab Nagar, Firozabad - UPPCB",22-04-2024 08:00:00,27.1594,78.3953,PM10,34,87,50
India,Uttar_Pradesh,Firozabad,"Vibhab Nagar, Firozabad - UPPCB",22-04-2024 08:00:00,27.1594,78.3953,OZONE,20,131,28
India,Uttar_Pradesh,Ghaziabad,"Indirapuram, Ghaziabad - UPPCB",22-04-2024 08:00:00,28.646233,77.358075,CO,15,94,34
India,Uttar_Pradesh,Ghaziabad,"Loni, Ghaziabad - UPPCB",22-04-2024 08:00:00,28.757294,77.278792,SO2,5,49,15
India,Uttar_Pradesh,Ghaziabad,"Sanjay Nagar, Ghaziabad - UPPCB",22-04-2024 08:00:00,28.685382,77.453839,NO2,14,92,42
India,Uttar_Pradesh,Ghaziabad,"Sanjay Nagar, Ghaziabad - UPPCB",22-04-2024 08:00:00,28.685382,77.453839,NH3,6,10,7
India,Uttar_Pradesh,Ghaziabad,"Sanjay Nagar, Ghaziabad - UPPCB",22-04-2024 08:00:00,28.685382,77.453839,SO2,9,89,36
India,Uttar_Pradesh,Ghaziabad,"Sanjay Nagar, Ghaziabad - UPPCB",22-04-2024 08:00:00,28.685382,77.453839,OZONE,13,139,49
India,Uttar_Pradesh,Ghaziabad,"Vasundhara, Ghaziabad - UPPCB",22-04-2024 08:00:00,28.6603346,77.3572563,SO2,1,117,28
India,Uttar_Pradesh,Gorakhpur,"Madan Mohan Malaviya University of Technology, Gorakhpur - UPPCB",22-04-2024 08:00:00,26.730136,83.433859,NO2,2,3,2
India,Uttar_Pradesh,Greater Noida,"Knowledge Park - III, Greater Noida - UPPCB",22-04-2024 08:00:00,28.47272,77.482000,NO2,15,132,52
India,Uttar_Pradesh,Greater Noida,"Knowledge Park - V, Greater Noida - UPPCB",22-04-2024 08:00:00,28.557054,77.453663,PM10,86,464,191
India,Uttar_Pradesh,Hapur,"Anand Vihar, Hapur - UPPCB",22-04-2024 08:00:00,28.725645,77.749675,PM10,NA,NA,NA
India,Uttar_Pradesh,Jhansi,"Shivaji Nagar, Jhansi - UPPCB",22-04-2024 08:00:00,25.4547,78.6039,CO,6,45,20
India,Uttar_Pradesh,Kanpur,"FTI Kidwai Nagar, Kanpur - UPPCB",22-04-2024 08:00:00,26.428282,80.327067,NO2,12,12,12
India,Uttar_Pradesh,Kanpur,"NSI Kalyanpur, Kanpur - UPPCB",22-04-2024 08:00:00,26.509954,80.249612,NO2,7,7,7
India,Uttar_Pradesh,Kanpur,"NSI Kalyanpur, Kanpur - UPPCB",22-04-2024 08:00:00,26.509954,80.249612,SO2,20,22,21
India,Uttar_Pradesh,Kanpur,"Nehru Nagar, Kanpur - UPPCB",22-04-2024 08:00:00,26.4703136,80.3229863,OZONE,NA,NA,NA
India,Uttar_Pradesh,Khurja,"Kalindi Kunj, Khurja - UPPCB",22-04-2024 08:00:00,28.2348927,77.8683002,OZONE,28,39,28
India,Uttar_Pradesh,Lucknow,"B R Ambedkar University, Lucknow - UPPCB",22-04-2024 08:00:00,26.766433,80.927299,OZONE,5,79,16
India,Uttar_Pradesh,Lucknow,"Gomti Nagar, Lucknow - UPPCB",22-04-2024 08:00:00,26.868120,81.005119,SO2,6,17,10
India,Uttar_Pradesh,Lucknow,"Gomti Nagar, Lucknow - UPPCB",22-04-2024 08:00:00,26.868120,81.005119,OZONE,33,41,35
India,Uttar_Pradesh,Lucknow,"Kendriya Vidyalaya, Lucknow - CPCB",22-04-2024 08:00:00,26.906111,80.948222,PM2.5,59,306,164
India,Uttar_Pradesh,Lucknow,"Kendriya Vidyalaya, Lucknow - CPCB",22-04-2024 08:00:00,26.906111,80.948222,NH3,4,25,16
India,Uttar_Pradesh,Lucknow,"Kukrail Picnic Spot-1, Lucknow - UPPCB",22-04-2024 08:00:00,26.90723,80.98579,NO2,8,8,8
India,Uttar_Pradesh,Lucknow,"Lalbagh, Lucknow - CPCB",22-04-2024 08:00:00,26.8458805,80.9365541,NH3,18,20,19
India,Uttar_Pradesh,Lucknow,"Lalbagh, Lucknow - CPCB",22-04-2024 08:00:00,26.8458805,80.9365541,CO,4,60,29
India,Uttar_Pradesh,Lucknow,"Talkatora District Industries Center, Lucknow - CPCB",22-04-2024 08:00:00,26.83399722,80.8917361,PM10,106,192,134
India,Uttar_Pradesh,Lucknow,"Talkatora District Industries Center, Lucknow - CPCB",22-04-2024 08:00:00,26.83399722,80.8917361,NH3,9,20,13
India,Uttar_Pradesh,Lucknow,"Talkatora District Industries Center, Lucknow - CPCB",22-04-2024 08:00:00,26.83399722,80.8917361,OZONE,2,81,6
India,Uttar_Pradesh,Meerut,"Ganga Nagar, Meerut - UPPCB",22-04-2024 08:00:00,28.999264,77.7590354,NO2,14,84,36
India,Uttar_Pradesh,Meerut,"Ganga Nagar, Meerut - UPPCB",22-04-2024 08:00:00,28.999264,77.7590354,CO,15,50,30
India,Uttar_Pradesh,Meerut,"Jai Bhim Nagar, Meerut - UPPCB",22-04-2024 08:00:00,28.9535882,77.7622941,NO2,38,67,50
India,Uttar_Pradesh,Meerut,"Pallavpuram Phase 2, Meerut - UPPCB",22-04-2024 08:00:00,29.063510,77.709723,SO2,9,37,20
India,Uttar_Pradesh,Meerut,"Pallavpuram Phase 2, Meerut - UPPCB",22-04-2024 08:00:00,29.063510,77.709723,OZONE,13,83,21
India,Uttar_Pradesh,Moradabad,"Eco Herbal Park, Moradabad - UPPCB",22-04-2024 08:00:00,28.840739,78.697531,PM10,41,152,93
India,Uttar_Pradesh,Moradabad,"Eco Herbal Park, Moradabad - UPPCB",22-04-2024 08:00:00,28.840739,78.697531,NO2,7,54,26
India,Uttar_Pradesh,Moradabad,"Jigar Colony, Moradabad - UPPCB",22-04-2024 08:00:00,28.856664,78.772638,CO,22,42,37
India,Uttar_Pradesh,Moradabad,"Kashiram Nagar, Moradabad - UPPCB",22-04-2024 08:00:00,28.849399,78.742362,SO2,40,49,45
India,Uttar_Pradesh,Moradabad,"Kashiram Nagar, Moradabad - UPPCB",22-04-2024 08:00:00,28.849399,78.742362,OZONE,10,31,12
India,Uttar_Pradesh,Moradabad,"Transport Nagar, Moradabad - UPPCB",22-04-2024 08:00:00,28.802625,78.753728,PM10,66,154,103
India,Uttar_Pradesh,Moradabad,"Transport Nagar, Moradabad - UPPCB",22-04-2024 08:00:00,28.802625,78.753728,CO,14,42,40
India,Uttar_Pradesh,Muzaffarnagar,"New Mandi, Muzaffarnagar - UPPCB",22-04-2024 08:00:00,29.4723508,77.7194031,SO2,7,41,23
India,Uttar_Pradesh,Noida,"Sector - 125, Noida - UPPCB",22-04-2024 08:00:00,28.5447608,77.3231257,PM10,NA,NA,NA
India,Uttar_Pradesh,Noida,"Sector-1, Noida - UPPCB",22-04-2024 08:00:00,28.5898,77.3101,SO2,3,62,11
India,Uttar_Pradesh,Noida,"Sector-116, Noida - UPPCB",22-04-2024 08:00:00,28.569230,77.393848,PM10,49,271,150
India,Uttar_Pradesh,Noida,"Sector-116, Noida - UPPCB",22-04-2024 08:00:00,28.569230,77.393848,NH3,5,7,6
India,Uttar_Pradesh,Noida,"Sector-116, Noida - UPPCB",22-04-2024 08:00:00,28.569230,77.393848,OZONE,6,158,74
India,Uttar_Pradesh,Prayagraj,"Jhunsi, Prayagraj - UPPCB",22-04-2024 08:00:00,25.425602,81.917152,PM2.5,21,59,43
India,Uttar_Pradesh,Prayagraj,"Jhunsi, Prayagraj - UPPCB",22-04-2024 08:00:00,25.425602,81.917152,NH3,5,5,5
India,Uttar_Pradesh,Prayagraj,"Jhunsi, Prayagraj - UPPCB",22-04-2024 08:00:00,25.425602,81.917152,OZONE,7,87,18
India,Uttar_Pradesh,Prayagraj,"Motilal Nehru NIT, Prayagraj - UPPCB",22-04-2024 08:00:00,25.494,81.863,NO2,11,12,12
India,Uttar_Pradesh,Prayagraj,"Nagar Nigam, Prayagraj - UPPCB",22-04-2024 08:00:00,25.44919916 ,81.82735986 ,CO,10,32,26
India,Uttar_Pradesh,Varanasi,"Ardhali Bazar, Varanasi - UPPCB",22-04-2024 08:00:00,25.3505986,82.9083074,PM2.5,5,36,20
India,Uttar_Pradesh,Varanasi,"Ardhali Bazar, Varanasi - UPPCB",22-04-2024 08:00:00,25.3505986,82.9083074,OZONE,13,15,14
India,Uttar_Pradesh,Varanasi,"Bhelupur, Varanasi - UPPCB",22-04-2024 08:00:00,25.301778,82.996789,SO2,27,29,28
India,Uttar_Pradesh,Varanasi,"Maldahiya, Varanasi - UPPCB",22-04-2024 08:00:00,25.32393,82.99687,NH3,1,1,1
India,Uttar_Pradesh,Vrindavan,"Omex Eternity, Vrindavan - UPPCB",22-04-2024 08:00:00,27.5714090,77.6557570,NH3,1,2,1
India,Uttar_Pradesh,Vrindavan,"Omex Eternity, Vrindavan - UPPCB",22-04-2024 08:00:00,27.5714090,77.6557570,SO2,41,53,43
India,Uttar_Pradesh,Vrindavan,"Omex Eternity, Vrindavan - UPPCB",22-04-2024 08:00:00,27.5714090,77.6557570,CO,23,80,63
India,Uttarakhand,Dehradun,"Doon University, Dehradun - UKPCB",22-04-2024 08:00:00,30.269444,78.044167,CO,8,33,20
India,Uttarakhand,Kashipur,"Govt. Girls Inter College, Kashipur - UKPCB",22-04-2024 08:00:00,29.2124114,78.9611753,PM2.5,28,94,64
India,Uttarakhand,Rishikesh,"Shivaji Nagar, Rishikesh - UKPCB",22-04-2024 08:00:00,30.075911,78.2859547,SO2,3,5,4
India,West_Bengal,Asansol,"Asansol Court Area, Asansol - WBPCB",22-04-2024 08:00:00,23.685297,86.945968,NH3,10,32,14
India,West_Bengal,Barrackpore,"SVSPA Campus, Barrackpore - WBPCB",22-04-2024 08:00:00,22.7605581,88.3617589,NH3,1,2,2
India,West_Bengal,Barrackpore,"SVSPA Campus, Barrackpore - WBPCB",22-04-2024 08:00:00,22.7605581,88.3617589,OZONE,20,76,25
India,West_Bengal,Haldia,"Priyambada Housing Estate, Haldia - WBPCB",22-04-2024 08:00:00,22.06047,88.109737,PM2.5,20,67,39
India,West_Bengal,Haldia,"Priyambada Housing Estate, Haldia - WBPCB",22-04-2024 08:00:00,22.06047,88.109737,PM10,19,102,60
India,West_Bengal,Haldia,"Priyambada Housing Estate, Haldia - WBPCB",22-04-2024 08:00:00,22.06047,88.109737,NH3,3,4,3
India,West_Bengal,Haldia,"Priyambada Housing Estate, Haldia - WBPCB",22-04-2024 08:00:00,22.06047,88.109737,OZONE,19,35,22
India,West_Bengal,Kolkata,"Ballygunge, Kolkata - WBPCB",22-04-2024 08:00:00,22.5367507,88.3638022,PM2.5,20,88,52
India,West_Bengal,Kolkata,"Ballygunge, Kolkata - WBPCB",22-04-2024 08:00:00,22.5367507,88.3638022,PM10,44,106,76
India,West_Bengal,Kolkata,"Ballygunge, Kolkata - WBPCB",22-04-2024 08:00:00,22.5367507,88.3638022,OZONE,19,82,21
India,West_Bengal,Kolkata,"Bidhannagar, Kolkata - WBPCB",22-04-2024 08:00:00,22.58157048,88.41002457,PM2.5,35,83,60
India,West_Bengal,Kolkata,"Bidhannagar, Kolkata - WBPCB",22-04-2024 08:00:00,22.58157048,88.41002457,NO2,22,36,28
India,West_Bengal,Kolkata,"Bidhannagar, Kolkata - WBPCB",22-04-2024 08:00:00,22.58157048,88.41002457,NH3,8,8,8
India,West_Bengal,Kolkata,"Fort William, Kolkata - WBPCB",22-04-2024 08:00:00,22.556640,88.342674,SO2,8,52,15
India,West_Bengal,Kolkata,"Rabindra Sarobar, Kolkata - WBPCB",22-04-2024 08:00:00,22.51106,88.35142,CO,9,31,15
India,West_Bengal,Kolkata,"Victoria, Kolkata - WBPCB",22-04-2024 08:00:00,22.5448082,88.3403691,NH3,1,2,1
India,West_Bengal,Kolkata,"Victoria, Kolkata - WBPCB",22-04-2024 08:00:00,22.5448082,88.3403691,SO2,9,22,13
India,West_Bengal,Siliguri,"Ward-32 Bapupara, Siliguri - WBPCB",22-04-2024 08:00:00,26.6879226,88.4152495,PM2.5,44,83,60
India,West_Bengal,Siliguri,"Ward-32 Bapupara, Siliguri - WBPCB",22-04-2024 08:00:00,26.6879226,88.4152495,OZONE,21,58,32
India,Andhra_Pradesh,Amaravati,"Secretariat, Amaravati - APPCB",22-04-2024 08:00:00,16.5150833,80.5181667,NO2,3,11,6
India,Andhra_Pradesh,Amaravati,"Secretariat, Amaravati - APPCB",22-04-2024 08:00:00,16.5150833,80.5181667,NH3,3,4,4
India,Andhra_Pradesh,Anantapur,"Gulzarpet, Anantapur - APPCB",22-04-2024 08:00:00,14.675886,77.593027,SO2,6,13,10
India,Andhra_Pradesh,Rajamahendravaram,"Anand Kala Kshetram, Rajamahendravaram - APPCB",22-04-2024 08:00:00,16.9872867,81.7363176,NH3,3,3,3
India,Andhra_Pradesh,Tirupati,"Tirumala, Tirupati - APPCB",22-04-2024 08:00:00,13.67,79.35,NH3,1,1,1
India,Andhra_Pradesh,Visakhapatnam,"GVM Corporation, Visakhapatnam - APPCB",22-04-2024 08:00:00,17.72,83.3,PM10,65,186,96
India,Andhra_Pradesh,Visakhapatnam,"GVM Corporation, Visakhapatnam - APPCB",22-04-2024 08:00:00,17.72,83.3,NO2,26,60,49
India,Andhra_Pradesh,Visakhapatnam,"GVM Corporation, Visakhapatnam - APPCB",22-04-2024 08:00:00,17.72,83.3,OZONE,3,59,23
India,Assam,Byrnihat,"Central Academy for SFS, Byrnihat - PCBA",22-04-2024 08:00:00,26.071318,91.87488,NH3,5,9,8
India,Assam,Byrnihat,"Central Academy for SFS, Byrnihat - PCBA",22-04-2024 08:00:00,26.071318,91.87488,SO2,4,13,10
India,Assam,Byrnihat,"Central Academy for SFS, Byrnihat - PCBA",22-04-2024 08:00:00,26.071318,91.87488,OZONE,25,127,39
India,Assam,Guwahati,"IITG, Guwahati - PCBA",22-04-2024 08:00:00,26.2028636,91.70046436,PM2.5,12,106,50
India,Assam,Guwahati,"IITG, Guwahati - PCBA",22-04-2024 08:00:00,26.2028636,91.70046436,SO2,11,15,13
India,Assam,Guwahati,"Railway Colony, Guwahati - PCBA",22-04-2024 08:00:00,26.181742,91.78063,PM2.5,1,1,1
India,Assam,Nagaon,"Christianpatty, Nagaon - PCBA",22-04-2024 08:00:00,26.349082,92.68449,NH3,3,3,3
India,Assam,Nagaon,"Christianpatty, Nagaon - PCBA",22-04-2024 08:00:00,26.349082,92.68449,SO2,NA,NA,NA
India,Assam,Nagaon,"Christianpatty, Nagaon - PCBA",22-04-2024 08:00:00,26.349082,92.68449,CO,36,70,40
India,Assam,Nalbari,"Bata Chowk, Nalbari - PCBA",22-04-2024 08:00:00,26.446912,91.439057,OZONE,28,131,59
India,Assam,Silchar,"Tarapur, Silchar - PCBA",22-04-2024 08:00:00,24.82827,92.79525,PM2.5,11,28,22
India,Assam,Silchar,"Tarapur, Silchar - PCBA",22-04-2024 08:00:00,24.82827,92.79525,PM10,27,79,43
India,Assam,Silchar,"Tarapur, Silchar - PCBA",22-04-2024 08:00:00,24.82827,92.79525,CO,20,44,30
India,Assam,Silchar,"Tarapur, Silchar - PCBA",22-04-2024 08:00:00,24.82827,92.79525,OZONE,1,11,1
India,Assam,Sivasagar,"Girls College, Sivasagar - PCBA",22-04-2024 08:00:00,26.987634,94.636574,SO2,1,5,4
India,Assam,Sivasagar,"Girls College, Sivasagar - PCBA",22-04-2024 08:00:00,26.987634,94.636574,CO,16,20,17
India,Bihar,Bettiah,"Kamalnath Nagar, Bettiah - BSPCB",22-04-2024 08:00:00,26.80365,84.51954,CO,62,66,63
India,Bihar,Bettiah,"Kamalnath Nagar, Bettiah - BSPCB",22-04-2024 08:00:00,26.80365,84.51954,OZONE,4,14,6
India,Bihar,Bhagalpur,"DM Office_Kachari Chowk, Bhagalpur - BSPCB",22-04-2024 08:00:00,25.251013,86.989001,PM10,NA,NA,NA
India,Bihar,Bhagalpur,"DM Office_Kachari Chowk, Bhagalpur - BSPCB",22-04-2024 08:00:00,25.251013,86.989001,OZONE,45,47,47
India,Bihar,Bhagalpur,"Mayaganj, Bhagalpur - BSPCB",22-04-2024 08:00:00,25.265194,87.012947,SO2,8,12,12
India,Bihar,Bhagalpur,"Mayaganj, Bhagalpur - BSPCB",22-04-2024 08:00:00,25.265194,87.012947,CO,5,9,9
India,Bihar,Bihar Sharif,"D M Colony, Bihar Sharif - BSPCB",22-04-2024 08:00:00,25.204762,85.514960,CO,47,71,62
India,Bihar,Chhapra,"Darshan Nagar, Chhapra - BSPCB",22-04-2024 08:00:00,25.7808257,84.7446768,NH3,7,14,10
India,Bihar,Gaya,"Collectorate, Gaya - BSPCB",22-04-2024 08:00:00,24.7955,84.9994,NO2,1,3,2
India,Bihar,Gaya,"Kareemganj, Gaya - BSPCB",22-04-2024 08:00:00,24.792403,84.992416,PM10,70,131,100
India,Bihar,Gaya,"Kareemganj, Gaya - BSPCB",22-04-2024 08:00:00,24.792403,84.992416,NO2,30,31,30
India,Bihar,Gaya,"Kareemganj, Gaya - BSPCB",22-04-2024 08:00:00,24.792403,84.992416,NH3,2,4,3
India,Bihar,Gaya,"SFTI Kusdihra, Gaya - BSPCB",22-04-2024 08:00:00,24.762518,84.982348,PM10,88,129,107
India,Bihar,Gaya,"SFTI Kusdihra, Gaya - BSPCB",22-04-2024 08:00:00,24.762518,84.982348,CO,15,41,31
India,Bihar,Gaya,"SFTI Kusdihra, Gaya - BSPCB",22-04-2024 08:00:00,24.762518,84.982348,OZONE,26,41,31
India,Bihar,Hajipur,"Industrial Area, Hajipur - BSPCB",22-04-2024 08:00:00,25.697189,85.245900,NH3,6,8,7
India,Bihar,Kishanganj,"SDM Office_Khagra, Kishanganj - BSPCB",22-04-2024 08:00:00,26.0881305,87.93840336,NO2,29,32,30
India,Bihar,Motihari,"Gandak Colony, Motihari - BSPCB",22-04-2024 08:00:00,26.63086,84.90051,NO2,35,108,73
India,Bihar,Muzaffarpur,"Buddha Colony, Muzaffarpur - BSPCB",22-04-2024 08:00:00,26.11442,85.39813,NO2,40,69,51
India,Bihar,Muzaffarpur,"MIT-Daudpur Kothi, Muzaffarpur - BSPCB",22-04-2024 08:00:00,26.1403345,85.3650192,PM10,NA,NA,NA
India,Bihar,Muzaffarpur,"MIT-Daudpur Kothi, Muzaffarpur - BSPCB",22-04-2024 08:00:00,26.1403345,85.3650192,CO,NA,NA,NA
India,Bihar,Patna,"DRM Office Danapur, Patna - BSPCB",22-04-2024 08:00:00,25.586562,85.043586,PM2.5,123,262,176
India,Bihar,Patna,"DRM Office Danapur, Patna - BSPCB",22-04-2024 08:00:00,25.586562,85.043586,NH3,3,3,3
India,Bihar,Patna,"Govt. High School Shikarpur, Patna - BSPCB",22-04-2024 08:00:00,25.592539,85.227158,PM2.5,153,305,232
India,Bihar,Patna,"Govt. High School Shikarpur, Patna - BSPCB",22-04-2024 08:00:00,25.592539,85.227158,OZONE,1,59,3
India,Bihar,Patna,"IGSC Planetarium Complex, Patna - BSPCB",22-04-2024 08:00:00,25.610369,85.132568,SO2,5,5,5
India,Bihar,Patna,"Rajbansi Nagar, Patna - BSPCB",22-04-2024 08:00:00,25.599486,85.113666,SO2,4,17,10
India,Bihar,Patna,"Samanpura, Patna - BSPCB",22-04-2024 08:00:00,25.596727,85.085624,NH3,9,21,14
India,Bihar,Purnia,"Mariam Nagar, Purnia - BSPCB",22-04-2024 08:00:00,25.366336,87.117468,NO2,3,10,7
India,Bihar,Purnia,"Mariam Nagar, Purnia - BSPCB",22-04-2024 08:00:00,25.366336,87.117468,CO,6,56,47
India,Bihar,Purnia,"Mariam Nagar, Purnia - BSPCB",22-04-2024 08:00:00,25.366336,87.117468,OZONE,3,13,7
India,Bihar,Rajgir,"Dangi Tola, Rajgir - BSPCB",22-04-2024 08:00:00,25.03280,85.41948,CO,28,44,31
India,Bihar,Rajgir,"Dangi Tola, Rajgir - BSPCB",22-04-2024 08:00:00,25.03280,85.41948,OZONE,32,36,34
India,Bihar,Saharsa,"Police Line, Saharsa - BSPCB",22-04-2024 08:00:00,25.892357,86.590325,PM2.5,23,78,47
India,Bihar,Saharsa,"Police Line, Saharsa - BSPCB",22-04-2024 08:00:00,25.892357,86.590325,SO2,14,16,16
India,Bihar,Samastipur,"DM Office_Kasipur, Samastipur - BSPCB",22-04-2024 08:00:00,25.859655,85.77944,NO2,NA,NA,NA
India,Bihar,Sasaram,"Dada Peer, Sasaram - BSPCB",22-04-2024 08:00:00,24.952822,84.002396,NO2,8,20,13
India,Bihar,Sasaram,"Dada Peer, Sasaram - BSPCB",22-04-2024 08:00:00,24.952822,84.002396,NH3,8,11,9
India,Chandigarh,Chandigarh,"Sector 22, Chandigarh - CPCC",22-04-2024 08:00:00,30.735567,76.775714,OZONE,NA,NA,NA
India,Chandigarh,Chandigarh,"Sector-25, Chandigarh - CPCC",22-04-2024 08:00:00,30.751462,76.762879,NO2,3,41,16
India,Chandigarh,Chandigarh,"Sector-25, Chandigarh - CPCC",22-04-2024 08:00:00,30.751462,76.762879,SO2,7,32,12
India,Chandigarh,Chandigarh,"Sector-53, Chandigarh - CPCC",22-04-2024 08:00:00,30.719859,76.738637,NO2,NA,NA,NA
India,Chandigarh,Chandigarh,"Sector-53, Chandigarh - CPCC",22-04-2024 08:00:00,30.719859,76.738637,OZONE,NA,NA,NA
India,Chhattisgarh,Bhilai,"32Bungalows, Bhilai - CECB",22-04-2024 08:00:00,21.194815,81.314770,CO,13,34,20
India,Chhattisgarh,Bhilai,"Civic Center, Bhilai - Bhilai Steel Plant",22-04-2024 08:00:00,21.185571,81.343175,NH3,3,5,4
India,Chhattisgarh,Bhilai,"Civic Center, Bhilai - Bhilai Steel Plant",22-04-2024 08:00:00,21.185571,81.343175,CO,18,72,43
India,Chhattisgarh,Bhilai,"Civic Center, Bhilai - Bhilai Steel Plant",22-04-2024 08:00:00,21.185571,81.343175,OZONE,13,57,42
India,Chhattisgarh,Bilaspur,"Mangala, Bilaspur - NTPC",22-04-2024 08:00:00,22.08815,82.13737,PM2.5,NA,NA,NA
India,Chhattisgarh,Bilaspur,"Mangala, Bilaspur - NTPC",22-04-2024 08:00:00,22.08815,82.13737,SO2,NA,NA,NA
India,Chhattisgarh,Bilaspur,"Mangala, Bilaspur - NTPC",22-04-2024 08:00:00,22.08815,82.13737,CO,NA,NA,NA
India,Chhattisgarh,Korba,"Urja Nagar, Korba - CECB",22-04-2024 08:00:00,22.348441,82.549611,PM10,20,410,115
India,Chhattisgarh,Korba,"Urja Nagar, Korba - CECB",22-04-2024 08:00:00,22.348441,82.549611,CO,18,60,42
India,Chhattisgarh,Korba,"Urja Nagar, Korba - CECB",22-04-2024 08:00:00,22.348441,82.549611,OZONE,NA,NA,NA
India,Chhattisgarh,Milupara,"Govt. Higher Secondary School, Milupara - CECB",22-04-2024 08:00:00,22.1910172,83.5197009,PM10,NA,NA,NA
India,Chhattisgarh,Milupara,"Govt. Higher Secondary School, Milupara - CECB",22-04-2024 08:00:00,22.1910172,83.5197009,SO2,NA,NA,NA
India,Chhattisgarh,Milupara,"Govt. Higher Secondary School, Milupara - CECB",22-04-2024 08:00:00,22.1910172,83.5197009,OZONE,NA,NA,NA
India,Chhattisgarh,Raipur,"AIIMS, Raipur - CECB",22-04-2024 08:00:00,21.258815,81.578979,NO2,19,38,25
India,Chhattisgarh,Raipur,"Bhatagaon New ISBT, Raipur - CECB",22-04-2024 08:00:00,21.219665,81.630094,NH3,2,2,2
India,Chhattisgarh,Raipur,"Siltara Phase-II, Raipur - CECB",22-04-2024 08:00:00,21.371751,81.664929,PM10,30,146,87
India,Chhattisgarh,Raipur,"Siltara Phase-II, Raipur - CECB",22-04-2024 08:00:00,21.371751,81.664929,NO2,27,77,42
India,Chhattisgarh,Raipur,"Siltara Phase-II, Raipur - CECB",22-04-2024 08:00:00,21.371751,81.664929,NH3,3,3,3
India,Chhattisgarh,Raipur,"Siltara Phase-II, Raipur - CECB",22-04-2024 08:00:00,21.371751,81.664929,SO2,14,84,49
India,Delhi,Delhi,"Ashok Vihar, Delhi - DPCC",22-04-2024 08:00:00,28.695381,77.181665,SO2,18,52,27
India,Delhi,Delhi,"Bawana, Delhi - DPCC",22-04-2024 08:00:00,28.776200,77.051074,PM10,23,205,133
India,Delhi,Delhi,"Bawana, Delhi - DPCC",22-04-2024 08:00:00,28.776200,77.051074,CO,9,30,18
India,Delhi,Delhi,"Chandni Chowk, Delhi - IITM",22-04-2024 08:00:00,28.656756,77.227234,PM10,75,175,115
India,Delhi,Delhi,"Chandni Chowk, Delhi - IITM",22-04-2024 08:00:00,28.656756,77.227234,CO,38,50,46
India,Delhi,Delhi,"Chandni Chowk, Delhi - IITM",22-04-2024 08:00:00,28.656756,77.227234,OZONE,3,7,5
India,Delhi,Delhi,"DTU, Delhi - CPCB",22-04-2024 08:00:00,28.7500499,77.1112615,OZONE,57,199,94
India,Delhi,Delhi,"Dr. Karni Singh Shooting Range, Delhi - DPCC",22-04-2024 08:00:00,28.498571,77.264840,OZONE,1,212,72
India,Delhi,Delhi,"Dwarka-Sector 8, Delhi - DPCC ",22-04-2024 08:00:00,28.5710274,77.0719006,NO2,5,84,32
India,Delhi,Delhi,"Dwarka-Sector 8, Delhi - DPCC ",22-04-2024 08:00:00,28.5710274,77.0719006,NH3,5,7,6
India,Delhi,Delhi,"Dwarka-Sector 8, Delhi - DPCC ",22-04-2024 08:00:00,28.5710274,77.0719006,CO,34,104,48
India,Delhi,Delhi,"IGI Airport (T3), Delhi - IMD",22-04-2024 08:00:00,28.5627763,77.1180053,PM2.5,7,131,54
India,Delhi,Delhi,"IGI Airport (T3), Delhi - IMD",22-04-2024 08:00:00,28.5627763,77.1180053,NO2,19,63,37
India,Delhi,Delhi,"IGI Airport (T3), Delhi - IMD",22-04-2024 08:00:00,28.5627763,77.1180053,OZONE,6,44,21
India,Delhi,Delhi,"IHBAS, Dilshad Garden, Delhi - CPCB",22-04-2024 08:00:00,28.6811736,77.3025234,OZONE,13,42,19
India,Delhi,Delhi,"ITO, Delhi - CPCB",22-04-2024 08:00:00,28.628624,77.241060,PM2.5,26,142,66
India,Delhi,Delhi,"ITO, Delhi - CPCB",22-04-2024 08:00:00,28.628624,77.241060,NO2,43,124,84
India,Delhi,Delhi,"ITO, Delhi - CPCB",22-04-2024 08:00:00,28.628624,77.241060,OZONE,8,65,31
India,Delhi,Delhi,"Jawaharlal Nehru Stadium, Delhi - DPCC",22-04-2024 08:00:00,28.580280,77.233829,NO2,23,146,62
India,Delhi,Delhi,"Jawaharlal Nehru Stadium, Delhi - DPCC",22-04-2024 08:00:00,28.580280,77.233829,NH3,5,8,7
India,Delhi,Delhi,"Jawaharlal Nehru Stadium, Delhi - DPCC",22-04-2024 08:00:00,28.580280,77.233829,SO2,4,46,15
India,Delhi,Delhi,"Jawaharlal Nehru Stadium, Delhi - DPCC",22-04-2024 08:00:00,28.580280,77.233829,OZONE,1,176,61
India,Delhi,Delhi,"Lodhi Road, Delhi - IITM",22-04-2024 08:00:00,28.588333,77.221667,PM10,46,394,115
India,Delhi,Delhi,"Lodhi Road, Delhi - IITM",22-04-2024 08:00:00,28.588333,77.221667,NO2,49,120,92
India,Delhi,Delhi,"Lodhi Road, Delhi - IITM",22-04-2024 08:00:00,28.588333,77.221667,SO2,11,33,23
India,Delhi,Delhi,"Lodhi Road, Delhi - IMD",22-04-2024 08:00:00,28.5918245,77.2273074,CO,8,21,17
India,Delhi,Delhi,"Major Dhyan Chand National Stadium, Delhi - DPCC",22-04-2024 08:00:00,28.611281,77.237738,PM2.5,27,128,59
India,Delhi,Delhi,"Major Dhyan Chand National Stadium, Delhi - DPCC",22-04-2024 08:00:00,28.611281,77.237738,CO,18,107,36
India,Delhi,Delhi,"Mandir Marg, Delhi - DPCC",22-04-2024 08:00:00,28.636429,77.201067,PM10,24,125,82
India,Delhi,Delhi,"Mandir Marg, Delhi - DPCC",22-04-2024 08:00:00,28.636429,77.201067,SO2,1,11,6
India,Delhi,Delhi,"Mundka, Delhi - DPCC",22-04-2024 08:00:00,28.684678,77.076574,CO,27,64,41
India,Delhi,Delhi,"Najafgarh, Delhi - DPCC",22-04-2024 08:00:00,28.570173,76.933762,PM2.5,13,308,74
India,Delhi,Delhi,"Najafgarh, Delhi - DPCC",22-04-2024 08:00:00,28.570173,76.933762,PM10,21,269,117
India,Delhi,Delhi,"Najafgarh, Delhi - DPCC",22-04-2024 08:00:00,28.570173,76.933762,NO2,3,108,27
India,Delhi,Delhi,"Najafgarh, Delhi - DPCC",22-04-2024 08:00:00,28.570173,76.933762,NH3,NA,NA,NA
India,Delhi,Delhi,"Najafgarh, Delhi - DPCC",22-04-2024 08:00:00,28.570173,76.933762,OZONE,24,118,62
India,Delhi,Delhi,"Narela, Delhi - DPCC",22-04-2024 08:00:00,28.822836,77.101981,PM2.5,13,120,54
India,Delhi,Delhi,"Nehru Nagar, Delhi - DPCC",22-04-2024 08:00:00,28.567890,77.250515,PM10,23,193,114
India,Delhi,Delhi,"North Campus, DU, Delhi - IMD",22-04-2024 08:00:00,28.6573814,77.1585447,PM10,53,276,145
India,Delhi,Delhi,"North Campus, DU, Delhi - IMD",22-04-2024 08:00:00,28.6573814,77.1585447,CO,62,121,84
India,Delhi,Delhi,"Okhla Phase-2, Delhi - DPCC",22-04-2024 08:00:00,28.530785,77.271255,PM2.5,10,87,45
India,Delhi,Delhi,"Okhla Phase-2, Delhi - DPCC",22-04-2024 08:00:00,28.530785,77.271255,NO2,29,131,67
India,Delhi,Delhi,"Okhla Phase-2, Delhi - DPCC",22-04-2024 08:00:00,28.530785,77.271255,SO2,2,22,13
India,Delhi,Delhi,"Punjabi Bagh, Delhi - DPCC",22-04-2024 08:00:00,28.674045,77.131023,NH3,4,5,4
India,Delhi,Delhi,"Pusa, Delhi - DPCC",22-04-2024 08:00:00,28.639652,77.146275,OZONE,9,78,42
India,Delhi,Delhi,"Rohini, Delhi - DPCC",22-04-2024 08:00:00,28.732528,77.119920,PM2.5,19,281,65
India,Delhi,Delhi,"Rohini, Delhi - DPCC",22-04-2024 08:00:00,28.732528,77.119920,NH3,7,10,8
India,Delhi,Delhi,"Sirifort, Delhi - CPCB",22-04-2024 08:00:00,28.5504249,77.2159377,NH3,13,20,16
India,Delhi,Delhi,"Sirifort, Delhi - CPCB",22-04-2024 08:00:00,28.5504249,77.2159377,CO,6,104,69
India,Delhi,Delhi,"Sirifort, Delhi - CPCB",22-04-2024 08:00:00,28.5504249,77.2159377,OZONE,7,50,12
India,Delhi,Delhi,"Vivek Vihar, Delhi - DPCC",22-04-2024 08:00:00,28.672342,77.315260,PM2.5,18,143,60
India,Delhi,Delhi,"Wazirpur, Delhi - DPCC",22-04-2024 08:00:00,28.699793,77.165453,PM2.5,28,316,106
India,Gujarat,Ahmedabad,"Chandkheda, Ahmedabad - IITM",22-04-2024 08:00:00,23.107969,72.574648,CO,6,85,58
India,Gujarat,Ahmedabad,"Gyaspur, Ahmedabad - IITM",22-04-2024 08:00:00,22.977134,72.553024,PM10,47,77,59
India,Gujarat,Ahmedabad,"Gyaspur, Ahmedabad - IITM",22-04-2024 08:00:00,22.977134,72.553024,CO,40,56,45
India,Gujarat,Ahmedabad,"Maninagar, Ahmedabad - GPCB",22-04-2024 08:00:00,23.002657,72.591912,PM2.5,NA,NA,NA
India,Gujarat,Ahmedabad,"Raikhad, Ahmedabad - IITM",22-04-2024 08:00:00,23.020509,72.579261,PM10,28,126,69
India,Gujarat,Ahmedabad,"Raikhad, Ahmedabad - IITM",22-04-2024 08:00:00,23.020509,72.579261,NO2,41,49,44
India,Gujarat,Ahmedabad,"Rakhial, Ahmedabad - IITM",22-04-2024 08:00:00,23.016834,72.625775,PM2.5,53,104,71
India,Gujarat,Ahmedabad,"SAC ISRO Satellite, Ahmedabad - IITM",22-04-2024 08:00:00,23.023389,72.515201,CO,25,38,26
India,Gujarat,Ahmedabad,"SAC ISRO Satellite, Ahmedabad - IITM",22-04-2024 08:00:00,23.023389,72.515201,OZONE,15,22,16
India,Gujarat,Ankleshwar,"GIDC, Ankleshwar - GPCB",22-04-2024 08:00:00,21.613267,73.010555,CO,28,80,75
India,Gujarat,Gandhinagar,"Sector-10, Gandhinagar - GPCB",22-04-2024 08:00:00,23.221714,72.654328,PM10,20,61,40
India,Gujarat,Gandhinagar,"Sector-10, Gandhinagar - GPCB",22-04-2024 08:00:00,23.221714,72.654328,NO2,21,23,22
India,Gujarat,Nandesari,"GIDC, Nandesari - Nandesari Ind. Association",22-04-2024 08:00:00,22.410802,73.097923,PM10,71,176,126
India,Gujarat,Surat,"Science Center, Surat - SMC",22-04-2024 08:00:00,21.170046,72.795405,SO2,1,6,3
India,Gujarat,Vapi,"Phase-1 GIDC, Vapi - GPCB",22-04-2024 08:00:00,20.362421,72.918013,NO2,6,8,6
India,Gujarat,Vapi,"Phase-1 GIDC, Vapi - GPCB",22-04-2024 08:00:00,20.362421,72.918013,NH3,2,2,2
India,Gujarat,Vapi,"Phase-1 GIDC, Vapi - GPCB",22-04-2024 08:00:00,20.362421,72.918013,SO2,51,54,53
India,Haryana,Ballabgarh,"Nathu Colony, Ballabgarh - HSPCB",22-04-2024 08:00:00,28.3419248,77.319699,PM2.5,45,303,129
India,Haryana,Bhiwani,"H.B. Colony, Bhiwani - HSPCB",22-04-2024 08:00:00,28.806223,76.141105,PM10,28,481,155
India,Haryana,Bhiwani,"H.B. Colony, Bhiwani - HSPCB",22-04-2024 08:00:00,28.806223,76.141105,NH3,5,6,6
India,Haryana,Charkhi Dadri,"Mini Secretariat, Charkhi Dadri - HSPCB",22-04-2024 08:00:00,28.593883,76.270653,PM10,44,120,77
India,Haryana,Dharuhera,"Municipal Corporation Office, Dharuhera -  HSPCB",22-04-2024 08:00:00,28.206800,76.799700,PM2.5,33,129,76
India,Haryana,Faridabad,"New Industrial Town, Faridabad - HSPCB",22-04-2024 08:00:00,28.39072,77.30059,PM2.5,25,310,184
India,Haryana,Faridabad,"Sector 11, Faridabad - HSPCB",22-04-2024 08:00:00,28.376058,77.315741,NO2,29,33,31
India,Haryana,Faridabad,"Sector- 16A, Faridabad - HSPCB",22-04-2024 08:00:00,28.4088421,77.3099081,SO2,21,26,24
India,Haryana,Fatehabad,"Huda Sector, Fatehabad - HSPCB",22-04-2024 08:00:00,29.503664,75.467934,PM10,51,138,89
India,Haryana,Fatehabad,"Huda Sector, Fatehabad - HSPCB",22-04-2024 08:00:00,29.503664,75.467934,CO,6,10,8
India,Haryana,Gurugram,"Sector-51, Gurugram - HSPCB",22-04-2024 08:00:00,28.4227,77.0667,CO,35,101,69
India,Haryana,Gurugram,"Sector-51, Gurugram - HSPCB",22-04-2024 08:00:00,28.4227,77.0667,OZONE,27,67,37
India,Haryana,Gurugram,"Teri Gram, Gurugram - HSPCB",22-04-2024 08:00:00,28.4275,77.1465,CO,8,45,25
India,Haryana,Gurugram,"Teri Gram, Gurugram - HSPCB",22-04-2024 08:00:00,28.4275,77.1465,OZONE,26,79,31
India,Haryana,Gurugram,"Vikas Sadan, Gurugram - HSPCB",22-04-2024 08:00:00,28.4501238,77.0263051,OZONE,8,69,10
India,Haryana,Jind,"Police Lines, Jind - HSPCB",22-04-2024 08:00:00,29.307814,76.337619,NH3,2,6,4
India,Haryana,Jind,"Police Lines, Jind - HSPCB",22-04-2024 08:00:00,29.307814,76.337619,SO2,1,31,9
India,Haryana,Jind,"Police Lines, Jind - HSPCB",22-04-2024 08:00:00,29.307814,76.337619,CO,2,109,22
India,Haryana,Kaithal,"Rishi Nagar, Kaithal - HSPCB",22-04-2024 08:00:00,29.8006,76.4155,SO2,20,130,58
India,Haryana,Karnal,"Sector-12, Karnal - HSPCB",22-04-2024 08:00:00,29.695300,77.002700,NH3,10,13,11
India,Haryana,Karnal,"Sector-12, Karnal - HSPCB",22-04-2024 08:00:00,29.695300,77.002700,CO,12,37,25
India,Haryana,Kurukshetra,"Sector-7, Kurukshetra - HSPCB",22-04-2024 08:00:00,29.966942,76.875879,NO2,10,10,10
India,Haryana,Manesar,"Sector-2 IMT, Manesar - HSPCB",22-04-2024 08:00:00,28.360699,76.936090,PM10,40,106,70
India,Haryana,Narnaul,"Shastri Nagar, Narnaul - HSPCB",22-04-2024 08:00:00,28.060249,76.113115,PM2.5,32,88,62
India,Haryana,Narnaul,"Shastri Nagar, Narnaul - HSPCB",22-04-2024 08:00:00,28.060249,76.113115,NO2,16,85,53
India,Haryana,Narnaul,"Shastri Nagar, Narnaul - HSPCB",22-04-2024 08:00:00,28.060249,76.113115,OZONE,35,61,54
India,Haryana,Palwal,"Shyam Nagar, Palwal - HSPCB",22-04-2024 08:00:00,28.1485564,77.3320667,PM10,68,163,103
India,Haryana,Palwal,"Shyam Nagar, Palwal - HSPCB",22-04-2024 08:00:00,28.1485564,77.3320667,SO2,1,116,14
India,Haryana,Panipat,"Sector-18, Panipat - HSPCB",22-04-2024 08:00:00,29.497973,76.993331,PM2.5,64,114,95
India,Haryana,Panipat,"Sector-18, Panipat - HSPCB",22-04-2024 08:00:00,29.497973,76.993331,OZONE,30,31,30
India,Haryana,Rohtak,"MD University, Rohtak - HSPCB",22-04-2024 08:00:00,28.52123,76.37138,PM2.5,1,142,44
India,Haryana,Rohtak,"MD University, Rohtak - HSPCB",22-04-2024 08:00:00,28.52123,76.37138,NO2,45,55,50
India,Haryana,Rohtak,"MD University, Rohtak - HSPCB",22-04-2024 08:00:00,28.52123,76.37138,OZONE,45,53,48
India,Haryana,Sonipat,"Murthal, Sonipat - HSPCB",22-04-2024 08:00:00,29.027200,77.062100,PM10,106,106,106
India,Haryana,Yamuna Nagar,"Gobind Pura, Yamuna Nagar - HSPCB",22-04-2024 08:00:00,30.1480566,77.2893471,PM10,61,115,92
India,Haryana,Yamuna Nagar,"Gobind Pura, Yamuna Nagar - HSPCB",22-04-2024 08:00:00,30.1480566,77.2893471,NH3,1,6,4
India,Haryana,Yamuna Nagar,"Gobind Pura, Yamuna Nagar - HSPCB",22-04-2024 08:00:00,30.1480566,77.2893471,CO,22,57,46
India,Himachal Pradesh,Baddi,"HIMUDA Complex Phase-1, Baddi - HPPCB",22-04-2024 08:00:00,30.943887,76.801991,NH3,3,6,3
India,Himachal Pradesh,Baddi,"HIMUDA Complex Phase-1, Baddi - HPPCB",22-04-2024 08:00:00,30.943887,76.801991,CO,6,70,28
India,Jharkhand,Dhanbad,"Kalakusuma, Dhanbad - DMC",22-04-2024 08:00:00,23.811548,86.481238,NO2,NA,NA,NA
India,Jharkhand,Dhanbad,"Kalakusuma, Dhanbad - DMC",22-04-2024 08:00:00,23.811548,86.481238,OZONE,30,43,38
India,Jharkhand,Dhanbad,"Sardar Patel Nagar, Dhanbad - JSPCB",22-04-2024 08:00:00,23.80569,86.44268,SO2,NA,NA,NA
India,Karnataka,Bagalkot,"Vidayagiri, Bagalkot - KSPCB",22-04-2024 08:00:00,16.172806,75.659694,NO2,9,11,9
India,Karnataka,Belgaum,"Ramteerth Nagar, Belgaum - KSPCB",22-04-2024 08:00:00,15.888653,74.541751,SO2,8,10,9
India,Karnataka,Belgaum,"Ramteerth Nagar, Belgaum - KSPCB",22-04-2024 08:00:00,15.888653,74.541751,OZONE,19,20,19
India,Karnataka,Bengaluru,"BTM Layout, Bengaluru - CPCB",22-04-2024 08:00:00,12.9135218,77.5950804,PM2.5,31,38,35
India,Karnataka,Bengaluru,"BTM Layout, Bengaluru - CPCB",22-04-2024 08:00:00,12.9135218,77.5950804,SO2,6,7,7
India,Karnataka,Bengaluru,"Bapuji Nagar, Bengaluru - KSPCB",22-04-2024 08:00:00,12.951913,77.539784,SO2,5,8,6
India,Karnataka,Bengaluru,"Hebbal, Bengaluru - KSPCB",22-04-2024 08:00:00,13.029152,77.585901,OZONE,7,37,8
India,Karnataka,Bengaluru,"Hombegowda Nagar, Bengaluru - KSPCB",22-04-2024 08:00:00,12.938539,77.590100,NO2,9,21,15
India,Karnataka,Bengaluru,"Hombegowda Nagar, Bengaluru - KSPCB",22-04-2024 08:00:00,12.938539,77.590100,CO,12,14,12
India,Karnataka,Bengaluru,"Jayanagar 5th Block, Bengaluru - KSPCB",22-04-2024 08:00:00,12.920984,77.584908,PM2.5,50,98,73
India,Karnataka,Bengaluru,"Jayanagar 5th Block, Bengaluru - KSPCB",22-04-2024 08:00:00,12.920984,77.584908,SO2,12,21,18
India,Karnataka,Bengaluru,"Kasturi Nagar, Bengaluru - KSPCB",22-04-2024 08:00:00,13.003872,77.664217,NO2,16,17,17
India,Karnataka,Bengaluru,"Kasturi Nagar, Bengaluru - KSPCB",22-04-2024 08:00:00,13.003872,77.664217,CO,22,27,24
India,Karnataka,Bengaluru,"Kasturi Nagar, Bengaluru - KSPCB",22-04-2024 08:00:00,13.003872,77.664217,OZONE,24,105,39
India,Karnataka,Bengaluru,"Peenya, Bengaluru - CPCB",22-04-2024 08:00:00,13.0270199,77.494094,SO2,7,13,11
India,Karnataka,Bengaluru,"Peenya, Bengaluru - CPCB",22-04-2024 08:00:00,13.0270199,77.494094,OZONE,27,89,38
India,Karnataka,Bengaluru,"Shivapura_Peenya, Bengaluru - KSPCB",22-04-2024 08:00:00,13.0246342,77.5080115,CO,19,46,32
India,Karnataka,Bengaluru,"Silk Board, Bengaluru - KSPCB",22-04-2024 08:00:00,12.917348,77.622813,NO2,NA,NA,NA
India,Karnataka,Bengaluru,"Silk Board, Bengaluru - KSPCB",22-04-2024 08:00:00,12.917348,77.622813,SO2,7,14,11
India,Karnataka,Chamarajanagar,"Urban, Chamarajanagar - KSPCB",22-04-2024 08:00:00,11.55358,76.55521,PM10,45,56,54
India,Karnataka,Chikkaballapur,"Chikkaballapur Rural, Chikkaballapur - KSPCB",22-04-2024 08:00:00,13.428828,77.731418,SO2,24,37,29
India,Karnataka,Chikkaballapur,"Chikkaballapur Rural, Chikkaballapur - KSPCB",22-04-2024 08:00:00,13.428828,77.731418,CO,14,34,30
India,Karnataka,Davanagere,"Devaraj Urs Badavane, Davanagere - KSPCB",22-04-2024 08:00:00,14.475800,75.905200,PM2.5,42,183,69
India,Karnataka,Davanagere,"Devaraj Urs Badavane, Davanagere - KSPCB",22-04-2024 08:00:00,14.475800,75.905200,PM10,NA,NA,NA
India,Karnataka,Dharwad,"Kalabhavan, Dharwad - KSPCB",22-04-2024 08:00:00,15.459706,75.008381,PM2.5,1,332,95
India,Karnataka,Dharwad,"Kalabhavan, Dharwad - KSPCB",22-04-2024 08:00:00,15.459706,75.008381,SO2,1,5,2
India,Karnataka,Haveri,"Ashwini Nagar, Haveri - KSPCB",22-04-2024 08:00:00,14.791800,75.389600,NH3,NA,NA,NA
India,Karnataka,Haveri,"Ashwini Nagar, Haveri - KSPCB",22-04-2024 08:00:00,14.791800,75.389600,SO2,NA,NA,NA
India,Karnataka,Hubballi,"Deshpande Nagar, Hubballi - KSPCB",22-04-2024 08:00:00,15.351773,75.140726,CO,NA,NA,NA
India,Karnataka,Kalaburagi,"Lal Bahadur Shastri Nagar, Kalaburagi - KSPCB",22-04-2024 08:00:00,17.321993,76.822628,PM2.5,3,298,52
India,Karnataka,Kalaburagi,"Lal Bahadur Shastri Nagar, Kalaburagi - KSPCB",22-04-2024 08:00:00,17.321993,76.822628,PM10,10,173,53
India,Karnataka,Kalaburagi,"Lal Bahadur Shastri Nagar, Kalaburagi - KSPCB",22-04-2024 08:00:00,17.321993,76.822628,NO2,11,11,11
India,Karnataka,Kalaburagi,"Lal Bahadur Shastri Nagar, Kalaburagi - KSPCB",22-04-2024 08:00:00,17.321993,76.822628,OZONE,3,40,11
India,Karnataka,Kalaburagi,"Mahatma Basaveswar Colony, Kalaburgi - KSPCB",22-04-2024 08:00:00,17.336318,76.847397,PM2.5,19,59,32
India,Karnataka,Kalaburagi,"Mahatma Basaveswar Colony, Kalaburgi - KSPCB",22-04-2024 08:00:00,17.336318,76.847397,CO,38,104,51
India,Karnataka,Karwar,"KHB Colony, Karwar - KSPCB",22-04-2024 08:00:00,14.816666,74.141003,PM10,NA,NA,NA
India,Karnataka,Karwar,"KHB Colony, Karwar - KSPCB",22-04-2024 08:00:00,14.816666,74.141003,OZONE,NA,NA,NA
India,Karnataka,Koppal,"Diwator Nagar, Koppal - KSPCB",22-04-2024 08:00:00,15.347630,76.181767,NH3,6,10,8
India,Karnataka,Madikeri,"Stuart Hill, Madikeri - KSPCB",22-04-2024 08:00:00,12.415911,75.735050,NH3,1,2,1
India,Karnataka,Madikeri,"Stuart Hill, Madikeri - KSPCB",22-04-2024 08:00:00,12.415911,75.735050,CO,6,77,35
India,Karnataka,Madikeri,"Stuart Hill, Madikeri - KSPCB",22-04-2024 08:00:00,12.415911,75.735050,OZONE,36,56,39
India,Karnataka,Mangalore,"Kadri, Mangalore - KSPCB",22-04-2024 08:00:00,12.889250,74.853000,PM10,36,100,63
India,Karnataka,Ramanagara,"Vijay Nagar, Ramanagara - KSPCB",22-04-2024 08:00:00,12.733409,77.298051,PM10,37,160,61
India,Karnataka,Ramanagara,"Vijay Nagar, Ramanagara - KSPCB",22-04-2024 08:00:00,12.733409,77.298051,OZONE,27,31,29
India,Karnataka,Shivamogga,"Vinoba Nagara, Shivamogga - KSPCB",22-04-2024 08:00:00,13.940000,75.555917,CO,7,32,19
India,Karnataka,Tumakuru,"Thimmalapura, Tumakuru - KSPCB",22-04-2024 08:00:00,13.377516,77.099072,SO2,7,12,9
India,Karnataka,Tumakuru,"Thimmalapura, Tumakuru - KSPCB",22-04-2024 08:00:00,13.377516,77.099072,OZONE,14,57,19
India,Karnataka,Vijayapura,"Ibrahimpur, Vijayapura - KSPCB",22-04-2024 08:00:00,16.802639,75.722694,NO2,17,19,19
India,Karnataka,Vijayapura,"Ibrahimpur, Vijayapura - KSPCB",22-04-2024 08:00:00,16.802639,75.722694,SO2,3,19,10
India,Karnataka,Yadgir,"Collector Office, Yadgir - KSPCB",22-04-2024 08:00:00,16.7602,77.1428,NO2,6,11,7
India,Kerala,Eloor,"Udyogamandal, Eloor - Kerala PCB",22-04-2024 08:00:00,10.073232,76.302765,PM2.5,30,44,36
India,Kerala,Eloor,"Udyogamandal, Eloor - Kerala PCB",22-04-2024 08:00:00,10.073232,76.302765,NH3,1,1,1
India,Kerala,Kannur,"Thavakkara, Kannur - Kerala PCB",22-04-2024 08:00:00,11.875000,75.373200,SO2,1,6,1
India,Kerala,Kollam,"Polayathode, Kollam - Kerala PCB",22-04-2024 08:00:00,8.8787,76.6073,CO,38,40,39
India,Kerala,Thiruvananthapuram,"Kariavattom, Thiruvananthapuram - Kerala PCB",22-04-2024 08:00:00,8.563700,76.886500,PM2.5,74,87,82
India,Kerala,Thiruvananthapuram,"Kariavattom, Thiruvananthapuram - Kerala PCB",22-04-2024 08:00:00,8.563700,76.886500,CO,18,27,20
India,Kerala,Thrissur,"Corporation Ground, Thrissur - Kerala PCB",22-04-2024 08:00:00,10.532400,76.215900,SO2,1,5,1
India,Kerala,Thrissur,"Corporation Ground, Thrissur - Kerala PCB",22-04-2024 08:00:00,10.532400,76.215900,CO,14,38,25
India,Madhya Pradesh,Bhopal,"Idgah Hills, Bhopal - MPPCB",22-04-2024 08:00:00,23.264759,77.381568,PM2.5,13,52,28
India,Madhya Pradesh,Bhopal,"Paryavaran Parisar, Bhopal - MPPCB",22-04-2024 08:00:00,23.210494,77.425409,PM10,33,170,59
India,Madhya Pradesh,Bhopal,"Paryavaran Parisar, Bhopal - MPPCB",22-04-2024 08:00:00,23.210494,77.425409,CO,15,78,19
India,Madhya Pradesh,Bhopal,"T T Nagar, Bhopal - MPPCB",22-04-2024 08:00:00,23.233584,77.400574,NO2,6,42,15
India,Madhya Pradesh,Bhopal,"T T Nagar, Bhopal - MPPCB",22-04-2024 08:00:00,23.233584,77.400574,SO2,16,30,23
India,Madhya Pradesh,Bhopal,"T T Nagar, Bhopal - MPPCB",22-04-2024 08:00:00,23.233584,77.400574,CO,10,68,30
India,Madhya Pradesh,Dewas,"Bhopal Chauraha, Dewas - MPPCB",22-04-2024 08:00:00,22.9682591,76.064118,SO2,NA,NA,NA
India,Madhya Pradesh,Gwalior,"Deen Dayal Nagar, Gwalior - MPPCB",22-04-2024 08:00:00,26.259242,78.216432,NO2,16,84,39
India,Madhya Pradesh,Gwalior,"Deen Dayal Nagar, Gwalior - MPPCB",22-04-2024 08:00:00,26.259242,78.216432,NH3,5,8,6
India,Madhya Pradesh,Gwalior,"Maharaj Bada, Gwalior - MPPCB",22-04-2024 08:00:00,26.200388,78.147714,NO2,12,66,34
India,Madhya Pradesh,Gwalior,"Maharaj Bada, Gwalior - MPPCB",22-04-2024 08:00:00,26.200388,78.147714,OZONE,46,146,57
India,Madhya Pradesh,Gwalior,"Phool Bagh, Gwalior - Mondelez Ind. Food",22-04-2024 08:00:00,26.210536,78.171,PM10,14,58,31
India,Madhya Pradesh,Indore,"Chhoti Gwaltoli, Indore - MPPCB",22-04-2024 08:00:00,22.4310,75.5213,PM10,44,129,86
India,Madhya Pradesh,Indore,"Chhoti Gwaltoli, Indore - MPPCB",22-04-2024 08:00:00,22.4310,75.5213,NO2,48,94,61
India,Madhya Pradesh,Indore,"Maguda Nagar, Indore - IMC",22-04-2024 08:00:00,22.7524,75.8872,NO2,5,6,5
India,Madhya Pradesh,Indore,"Residency Area, Indore - IMC",22-04-2024 08:00:00,22.7084,75.8815,PM10,29,80,52
India,Madhya Pradesh,Indore,"Residency Area, Indore - IMC",22-04-2024 08:00:00,22.7084,75.8815,OZONE,10,18,12
India,Madhya Pradesh,Jabalpur,"Gupteshwar, Jabalpur - JMC",22-04-2024 08:00:00,23.142888,79.916147,OZONE,5,95,63
India,Madhya Pradesh,Jabalpur,"Marhatal, Jabalpur - MPPCB",22-04-2024 08:00:00,23.168606,79.932247,NO2,5,116,29
India,Madhya Pradesh,Jabalpur,"Marhatal, Jabalpur - MPPCB",22-04-2024 08:00:00,23.168606,79.932247,SO2,9,21,14
India,Madhya Pradesh,Jabalpur,"Suhagi, Jabalpur - JMC",22-04-2024 08:00:00,23.218135,79.957770,PM2.5,NA,NA,NA
India,Madhya Pradesh,Jabalpur,"Suhagi, Jabalpur - JMC",22-04-2024 08:00:00,23.218135,79.957770,CO,16,55,33
India,Madhya Pradesh,Jabalpur,"Suhagi, Jabalpur - JMC",22-04-2024 08:00:00,23.218135,79.957770,OZONE,52,115,98
India,Madhya Pradesh,Katni,"Gole Bazar, Katni - MPPCB",22-04-2024 08:00:00,23.50016,80.23284,SO2,17,106,52
India,Madhya Pradesh,Maihar,"Sahilara, Maihar - KJS Cements",22-04-2024 08:00:00,24.2613009,80.7231783,PM10,8,70,38
India,Madhya Pradesh,Maihar,"Sahilara, Maihar - KJS Cements",22-04-2024 08:00:00,24.2613009,80.7231783,NO2,19,22,21
India,Madhya Pradesh,Maihar,"Sahilara, Maihar - KJS Cements",22-04-2024 08:00:00,24.2613009,80.7231783,SO2,13,16,14
India,Madhya Pradesh,Mandideep,"Sector-D Industrial Area, Mandideep - MPPCB",22-04-2024 08:00:00,23.108440,77.511428,PM10,53,237,111
India,Madhya Pradesh,Pithampur,"Sector-2 Industrial Area, Pithampur - MPPCB",22-04-2024 08:00:00,22.624758,75.675238,NO2,5,19,12
India,Madhya Pradesh,Ratlam,"Shasthri Nagar, Ratlam - IPCA Lab",22-04-2024 08:00:00,23.331731,75.045981,NO2,12,31,22
India,Madhya Pradesh,Sagar,"Deen Dayal Nagar, Sagar - MPPCB",22-04-2024 08:00:00,23.8640158,78.80289321,PM10,10,55,29
India,Madhya Pradesh,Sagar,"Deen Dayal Nagar, Sagar - MPPCB",22-04-2024 08:00:00,23.8640158,78.80289321,CO,32,82,42
India,Madhya Pradesh,Satna,"Bandhavgar Colony, Satna - Birla Cement",22-04-2024 08:00:00,24.58434363,80.8549414,NO2,47,47,47
India,Madhya Pradesh,Ujjain,"Mahakaleshwar Temple, Ujjain - MPPCB",22-04-2024 08:00:00,23.182719 ,75.768218 ,CO,38,52,46
India,Maharashtra,Ahmednagar,"Tarakpur, Ahmednagar - MPCB",22-04-2024 08:00:00,19.10122,74.73339,CO,7,91,78
India,Maharashtra,Akola,"Ramdaspeth, Akola - MPCB",22-04-2024 08:00:00,20.719516,77.000253,OZONE,13,54,28
India,Maharashtra,Amravati,"Shivneri Colony, Amravati - MPCB",22-04-2024 08:00:00,20.9402359,77.7895248,PM10,59,109,89
India,Maharashtra,Amravati,"Shri Shivaji Science College, Amaravati - MPCB",22-04-2024 08:00:00,20.939198,77.765701,SO2,3,23,8
India,Maharashtra,Amravati,"Shri Shivaji Science College, Amaravati - MPCB",22-04-2024 08:00:00,20.939198,77.765701,CO,15,76,17
India,Maharashtra,Aurangabad,"MIDC Chilkalthana, Aurangabad - MPCB",22-04-2024 08:00:00,19.875620,75.387310,CO,19,89,54
India,Maharashtra,Aurangabad,"MIDC Chilkalthana, Aurangabad - MPCB",22-04-2024 08:00:00,19.875620,75.387310,OZONE,11,129,37
