country,state,city,station,last_update,latitude,longitude,pollutant_id,pollutant_min,pollutant_max,pollutant_avg
India,Andhra_Pradesh,Amaravati,"Secretariat, Amaravati - APPCB",02-03-2024 21:00:00,16.5150833,80.5181667,NO2,6,23,14
India,Andhra_Pradesh,Amaravati,"Secretariat, Amaravati - APPCB",02-03-2024 21:00:00,16.5150833,80.5181667,OZONE,1,45,36
India,Andhra_Pradesh,Chittoor,"Gangineni Cheruvu, Chittoor - APPCB",02-03-2024 21:00:00,13.204880,79.097889,SO2,NA,NA,NA
India,Andhra_Pradesh,Kadapa,"Yerramukkapalli, Kadapa - APPCB",02-03-2024 21:00:00,14.465052,78.824187,PM10,28,305,64
India,Andhra_Pradesh,Rajamahendravaram,"Anand Kala Kshetram, Rajamahendravaram - APPCB",02-03-2024 21:00:00,16.9872867,81.7363176,PM2.5,60,85,75
India,Andhra_Pradesh,Tirupati,"Tirumala, Tirupati - APPCB",02-03-2024 21:00:00,13.67,79.35,PM2.5,20,80,52
India,Andhra_Pradesh,Tirupati,"Tirumala, Tirupati - APPCB",02-03-2024 21:00:00,13.67,79.35,NO2,30,54,42
India,Andhra_Pradesh,Tirupati,"Vaikuntapuram, Tirupati - APPCB",02-03-2024 21:00:00,13.615387,79.409230,CO,9,16,13
India,Andhra_Pradesh,Vijayawada,"HB Colony, Vijayawada - APPCB",02-03-2024 21:00:00,16.536107,80.594233,PM2.5,50,83,69
India,Andhra_Pradesh,Vijayawada,"HB Colony, Vijayawada - APPCB",02-03-2024 21:00:00,16.536107,80.594233,NO2,7,21,14
India,Andhra_Pradesh,Vijayawada,"Kanuru, Vijayawada - APPCB",02-03-2024 21:00:00,16.486692,80.699436,PM2.5,67,92,77
India,Andhra_Pradesh,Vijayawada,"Kanuru, Vijayawada - APPCB",02-03-2024 21:00:00,16.486692,80.699436,OZONE,25,25,25
India,Andhra_Pradesh,Vijayawada,"Rajiv Gandhi Park, Vijayawada - APPCB",02-03-2024 21:00:00,16.509717,80.612222,PM2.5,42,84,63
India,Andhra_Pradesh,Vijayawada,"Rajiv Gandhi Park, Vijayawada - APPCB",02-03-2024 21:00:00,16.509717,80.612222,CO,30,41,36
India,Andhra_Pradesh,Vijayawada,"Rajiv Nagar, Vijayawada - APPCB",02-03-2024 21:00:00,16.554731,80.649110,NH3,1,3,2
India,Andhra_Pradesh,Visakhapatnam,"GVM Corporation, Visakhapatnam - APPCB",02-03-2024 21:00:00,17.72,83.3,PM2.5,59,207,107
India,Andhra_Pradesh,Visakhapatnam,"GVM Corporation, Visakhapatnam - APPCB",02-03-2024 21:00:00,17.72,83.3,NO2,24,67,46
India,Arunachal_Pradesh,Naharlagun,"Naharlagun, Naharlagun - APSPCB",02-03-2024 21:00:00,27.103358,93.679645,CO,NA,NA,NA
India,Arunachal_Pradesh,Naharlagun,"Naharlagun, Naharlagun - APSPCB",02-03-2024 21:00:00,27.103358,93.679645,OZONE,NA,NA,NA
India,Assam,Byrnihat,"Central Academy for SFS, Byrnihat - PCBA",02-03-2024 21:00:00,26.071318,91.87488,NH3,NA,NA,NA
India,Assam,Byrnihat,"Central Academy for SFS, Byrnihat - PCBA",02-03-2024 21:00:00,26.071318,91.87488,SO2,NA,NA,NA
India,Assam,Guwahati,"LGBI Airport, Guwahati - PCBA",02-03-2024 21:00:00,26.10887,91.589544,OZONE,4,79,46
India,Assam,Guwahati,"Pan Bazaar, Guwahati - PCBA",02-03-2024 21:00:00,26.187500,91.744194,OZONE,18,19,18
India,Assam,Guwahati,"Railway Colony, Guwahati - PCBA",02-03-2024 21:00:00,26.181742,91.78063,NO2,3,4,3
India,Assam,Guwahati,"Railway Colony, Guwahati - PCBA",02-03-2024 21:00:00,26.181742,91.78063,OZONE,2,29,12
India,Assam,Silchar,"Tarapur, Silchar - PCBA",02-03-2024 21:00:00,24.82827,92.79525,PM2.5,40,58,50
India,Assam,Silchar,"Tarapur, Silchar - PCBA",02-03-2024 21:00:00,24.82827,92.79525,CO,28,36,33
India,Assam,Sivasagar,"Girls College, Sivasagar - PCBA",02-03-2024 21:00:00,26.987634,94.636574,OZONE,1,16,9
India,Bihar,Arrah,"New DM Office, Arrah - BSPCB",02-03-2024 21:00:00,25.5626095,84.663264,PM2.5,57,307,147
India,Bihar,Aurangabad,"Gurdeo Nagar, Aurangabad - BSPCB",02-03-2024 21:00:00,24.75746,84.366208,PM10,53,204,96
India,Bihar,Aurangabad,"Gurdeo Nagar, Aurangabad - BSPCB",02-03-2024 21:00:00,24.75746,84.366208,NO2,4,5,5
India,Bihar,Bhagalpur,"Mayaganj, Bhagalpur - BSPCB",02-03-2024 21:00:00,25.265194,87.012947,NH3,7,9,8
India,Bihar,Buxar,"Charitra Van, Buxar - BSPCB (Formerly known as Central Jail)",02-03-2024 21:00:00,25.567520,83.966379,PM2.5,52,300,163
India,Bihar,Buxar,"Charitra Van, Buxar - BSPCB (Formerly known as Central Jail)",02-03-2024 21:00:00,25.567520,83.966379,NH3,NA,NA,NA
India,Bihar,Buxar,"Charitra Van, Buxar - BSPCB (Formerly known as Central Jail)",02-03-2024 21:00:00,25.567520,83.966379,SO2,16,18,17
India,Bihar,Buxar,"Charitra Van, Buxar - BSPCB (Formerly known as Central Jail)",02-03-2024 21:00:00,25.567520,83.966379,OZONE,1,144,94
India,Bihar,Chhapra,"Darshan Nagar, Chhapra - BSPCB",02-03-2024 21:00:00,25.7808257,84.7446768,NH3,8,14,11
India,Bihar,Chhapra,"Darshan Nagar, Chhapra - BSPCB",02-03-2024 21:00:00,25.7808257,84.7446768,SO2,21,107,56
India,Bihar,Gaya,"Collectorate, Gaya - BSPCB",02-03-2024 21:00:00,24.7955,84.9994,OZONE,49,80,66
India,Bihar,Gaya,"Kareemganj, Gaya - BSPCB",02-03-2024 21:00:00,24.792403,84.992416,NH3,1,5,3
India,Bihar,Gaya,"Kareemganj, Gaya - BSPCB",02-03-2024 21:00:00,24.792403,84.992416,CO,19,107,49
India,Bihar,Gaya,"SFTI Kusdihra, Gaya - BSPCB",02-03-2024 21:00:00,24.762518,84.982348,NH3,3,6,5
India,Bihar,Gaya,"SFTI Kusdihra, Gaya - BSPCB",02-03-2024 21:00:00,24.762518,84.982348,SO2,5,12,7
India,Bihar,Katihar,"Mirchaibari, Katihar - BSPCB",02-03-2024 21:00:00,25.560083,87.553265,NO2,13,58,27
India,Bihar,Kishanganj,"SDM Office_Khagra, Kishanganj - BSPCB",02-03-2024 21:00:00,26.0881305,87.93840336,CO,3,25,5
India,Bihar,Manguraha,"Forest Rest House, Manguraha - BSPCB",02-03-2024 21:00:00,27.308328,84.531742,CO,NA,NA,NA
India,Bihar,Motihari,"Gandak Colony, Motihari - BSPCB",02-03-2024 21:00:00,26.63086,84.90051,PM2.5,50,306,171
India,Bihar,Motihari,"Gandak Colony, Motihari - BSPCB",02-03-2024 21:00:00,26.63086,84.90051,PM10,48,171,115
India,Bihar,Munger,"Town Hall, Munger - BSPCB",02-03-2024 21:00:00,25.376776,86.471523,PM10,68,500,194
India,Bihar,Muzaffarpur,"Buddha Colony, Muzaffarpur - BSPCB",02-03-2024 21:00:00,26.11442,85.39813,SO2,2,15,8
India,Bihar,Muzaffarpur,"MIT-Daudpur Kothi, Muzaffarpur - BSPCB",02-03-2024 21:00:00,26.1403345,85.3650192,NH3,1,4,1
India,Bihar,Muzaffarpur,"MIT-Daudpur Kothi, Muzaffarpur - BSPCB",02-03-2024 21:00:00,26.1403345,85.3650192,OZONE,7,81,55
India,Bihar,Muzaffarpur,"Muzaffarpur Collectorate, Muzaffarpur - BSPCB",02-03-2024 21:00:00,26.1209,85.3647,NO2,10,33,13
India,Bihar,Muzaffarpur,"Muzaffarpur Collectorate, Muzaffarpur - BSPCB",02-03-2024 21:00:00,26.1209,85.3647,CO,22,56,29
India,Bihar,Patna,"Govt. High School Shikarpur, Patna - BSPCB",02-03-2024 21:00:00,25.592539,85.227158,NH3,4,4,4
India,Bihar,Patna,"Govt. High School Shikarpur, Patna - BSPCB",02-03-2024 21:00:00,25.592539,85.227158,SO2,5,8,7
India,Bihar,Patna,"IGSC Planetarium Complex, Patna - BSPCB",02-03-2024 21:00:00,25.610369,85.132568,NO2,14,14,14
India,Bihar,Patna,"Muradpur, Patna - BSPCB",02-03-2024 21:00:00,25.619651,85.147382,SO2,4,13,8
India,Bihar,Patna,"Muradpur, Patna - BSPCB",02-03-2024 21:00:00,25.619651,85.147382,OZONE,10,93,71
India,Bihar,Patna,"Rajbansi Nagar, Patna - BSPCB",02-03-2024 21:00:00,25.599486,85.113666,OZONE,2,82,49
India,Bihar,Patna,"Samanpura, Patna - BSPCB",02-03-2024 21:00:00,25.596727,85.085624,PM2.5,6,204,91
India,Bihar,Patna,"Samanpura, Patna - BSPCB",02-03-2024 21:00:00,25.596727,85.085624,NH3,4,10,6
India,Bihar,Purnia,"Mariam Nagar, Purnia - BSPCB",02-03-2024 21:00:00,25.366336,87.117468,NH3,1,1,1
India,Bihar,Purnia,"Mariam Nagar, Purnia - BSPCB",02-03-2024 21:00:00,25.366336,87.117468,SO2,15,23,20
India,Bihar,Sasaram,"Dada Peer, Sasaram - BSPCB",02-03-2024 21:00:00,24.952822,84.002396,PM10,48,142,97
India,Bihar,Sasaram,"Dada Peer, Sasaram - BSPCB",02-03-2024 21:00:00,24.952822,84.002396,NH3,8,16,12
India,Bihar,Siwan,"Chitragupta Nagar, Siwan - BSPCB",02-03-2024 21:00:00,26.2271665,84.3570427,NO2,22,61,36
India,Chandigarh,Chandigarh,"Sector 22, Chandigarh - CPCC",02-03-2024 21:00:00,30.735567,76.775714,PM2.5,12,349,84
India,Chandigarh,Chandigarh,"Sector 22, Chandigarh - CPCC",02-03-2024 21:00:00,30.735567,76.775714,SO2,8,35,13
India,Chandigarh,Chandigarh,"Sector 22, Chandigarh - CPCC",02-03-2024 21:00:00,30.735567,76.775714,CO,24,78,35
India,Chandigarh,Chandigarh,"Sector-25, Chandigarh - CPCC",02-03-2024 21:00:00,30.751462,76.762879,PM2.5,78,298,146
India,Chandigarh,Chandigarh,"Sector-25, Chandigarh - CPCC",02-03-2024 21:00:00,30.751462,76.762879,PM10,73,201,113
India,Chandigarh,Chandigarh,"Sector-53, Chandigarh - CPCC",02-03-2024 21:00:00,30.719859,76.738637,OZONE,2,42,32
India,Chhattisgarh,Bhilai,"32Bungalows, Bhilai - CECB",02-03-2024 21:00:00,21.194815,81.314770,NO2,31,38,35
India,Chhattisgarh,Bhilai,"32Bungalows, Bhilai - CECB",02-03-2024 21:00:00,21.194815,81.314770,NH3,6,6,6
India,Chhattisgarh,Bhilai,"Civic Center, Bhilai - Bhilai Steel Plant",02-03-2024 21:00:00,21.185571,81.343175,OZONE,8,45,45
India,Chhattisgarh,Bhilai,"Hathkhoj, Bhilai - CECB",02-03-2024 21:00:00,21.224231,81.408350,NH3,7,8,8
India,Chhattisgarh,Bilaspur,"Mangala, Bilaspur - NTPC",02-03-2024 21:00:00,22.08815,82.13737,PM10,25,68,40
India,Chhattisgarh,Chhal,"Nawapara SECL Colony, Chhal - CECB",02-03-2024 21:00:00,22.118125,83.140608,PM2.5,57,118,77
India,Chhattisgarh,Korba,"Rampur, Korba - CECB",02-03-2024 21:00:00,22.368195,82.746431,PM2.5,16,51,31
India,Chhattisgarh,Korba,"Rampur, Korba - CECB",02-03-2024 21:00:00,22.368195,82.746431,NO2,23,84,47
India,Chhattisgarh,Korba,"Rampur, Korba - CECB",02-03-2024 21:00:00,22.368195,82.746431,CO,16,37,24
India,Chhattisgarh,Korba,"Rampur, Korba - CECB",02-03-2024 21:00:00,22.368195,82.746431,OZONE,2,30,15
India,Chhattisgarh,Korba,"Urja Nagar, Korba - CECB",02-03-2024 21:00:00,22.348441,82.549611,NO2,64,75,69
India,Chhattisgarh,Raipur,"AIIMS, Raipur - CECB",02-03-2024 21:00:00,21.258815,81.578979,PM10,43,129,80
India,Chhattisgarh,Raipur,"AIIMS, Raipur - CECB",02-03-2024 21:00:00,21.258815,81.578979,NH3,5,5,5
India,Chhattisgarh,Raipur,"Bhatagaon New ISBT, Raipur - CECB",02-03-2024 21:00:00,21.219665,81.630094,NH3,2,3,2
India,Chhattisgarh,Tumidih,"OP Jindal Industrial Park, Tumidih - CECB",02-03-2024 21:00:00,22.06631475,83.33820077,NH3,1,3,2
India,Delhi,Delhi,"Alipur, Delhi - DPCC",02-03-2024 21:00:00,28.815329,77.153010,NO2,16,72,35
India,Delhi,Delhi,"Anand Vihar, Delhi - DPCC",02-03-2024 21:00:00,28.647622,77.3158090,PM2.5,53,203,84
India,Delhi,Delhi,"Ashok Vihar, Delhi - DPCC",02-03-2024 21:00:00,28.695381,77.181665,OZONE,5,9,8
India,Delhi,Delhi,"Aya Nagar, Delhi - IMD",02-03-2024 21:00:00,28.4706914,77.1099364,NO2,3,36,17
India,Delhi,Delhi,"Bawana, Delhi - DPCC",02-03-2024 21:00:00,28.776200,77.051074,NO2,14,88,29
India,Delhi,Delhi,"Burari Crossing, Delhi - IMD",02-03-2024 21:00:00,28.7256504,77.2011573,PM2.5,20,231,60
India,Delhi,Delhi,"Burari Crossing, Delhi - IMD",02-03-2024 21:00:00,28.7256504,77.2011573,NO2,11,12,12
India,Delhi,Delhi,"Burari Crossing, Delhi - IMD",02-03-2024 21:00:00,28.7256504,77.2011573,CO,20,50,20
India,Delhi,Delhi,"CRRI Mathura Road, Delhi - IMD",02-03-2024 21:00:00,28.5512005,77.2735737,PM10,13,132,73
India,Delhi,Delhi,"Chandni Chowk, Delhi - IITM",02-03-2024 21:00:00,28.656756,77.227234,NH3,NA,NA,NA
India,Delhi,Delhi,"Dr. Karni Singh Shooting Range, Delhi - DPCC",02-03-2024 21:00:00,28.498571,77.264840,PM2.5,23,157,62
India,Delhi,Delhi,"Dr. Karni Singh Shooting Range, Delhi - DPCC",02-03-2024 21:00:00,28.498571,77.264840,OZONE,12,84,71
India,Delhi,Delhi,"Dwarka-Sector 8, Delhi - DPCC ",02-03-2024 21:00:00,28.5710274,77.0719006,PM2.5,28,148,60
India,Delhi,Delhi,"Dwarka-Sector 8, Delhi - DPCC ",02-03-2024 21:00:00,28.5710274,77.0719006,PM10,48,179,111
India,Delhi,Delhi,"IGI Airport (T3), Delhi - IMD",02-03-2024 21:00:00,28.5627763,77.1180053,PM10,16,467,162
India,Delhi,Delhi,"IGI Airport (T3), Delhi - IMD",02-03-2024 21:00:00,28.5627763,77.1180053,CO,19,42,20
India,Delhi,Delhi,"IHBAS, Dilshad Garden, Delhi - CPCB",02-03-2024 21:00:00,28.6811736,77.3025234,NH3,6,9,8
India,Delhi,Delhi,"Jahangirpuri, Delhi - DPCC",02-03-2024 21:00:00,28.732820,77.170633,PM10,69,354,142
India,Delhi,Delhi,"Jahangirpuri, Delhi - DPCC",02-03-2024 21:00:00,28.732820,77.170633,SO2,1,20,9
India,Delhi,Delhi,"Jawaharlal Nehru Stadium, Delhi - DPCC",02-03-2024 21:00:00,28.580280,77.233829,OZONE,8,66,51
India,Delhi,Delhi,"Lodhi Road, Delhi - IITM",02-03-2024 21:00:00,28.588333,77.221667,PM2.5,NA,NA,NA
India,Delhi,Delhi,"Lodhi Road, Delhi - IITM",02-03-2024 21:00:00,28.588333,77.221667,PM10,NA,NA,NA
India,Delhi,Delhi,"Lodhi Road, Delhi - IITM",02-03-2024 21:00:00,28.588333,77.221667,CO,66,67,66
India,Delhi,Delhi,"Lodhi Road, Delhi - IMD",02-03-2024 21:00:00,28.5918245,77.2273074,CO,16,30,17
India,Delhi,Delhi,"Mandir Marg, Delhi - DPCC",02-03-2024 21:00:00,28.636429,77.201067,SO2,6,10,8
India,Delhi,Delhi,"Narela, Delhi - DPCC",02-03-2024 21:00:00,28.822836,77.101981,PM10,61,424,155
India,Delhi,Delhi,"Narela, Delhi - DPCC",02-03-2024 21:00:00,28.822836,77.101981,OZONE,15,102,80
India,Delhi,Delhi,"Okhla Phase-2, Delhi - DPCC",02-03-2024 21:00:00,28.530785,77.271255,CO,2,66,32
India,Delhi,Delhi,"Patparganj, Delhi - DPCC",02-03-2024 21:00:00,28.623763,77.287209,PM10,47,202,93
India,Delhi,Delhi,"Patparganj, Delhi - DPCC",02-03-2024 21:00:00,28.623763,77.287209,NH3,7,15,10
India,Delhi,Delhi,"Pusa, Delhi - DPCC",02-03-2024 21:00:00,28.639652,77.146275,NO2,NA,NA,NA
India,Delhi,Delhi,"Pusa, Delhi - DPCC",02-03-2024 21:00:00,28.639652,77.146275,NH3,NA,NA,NA
India,Delhi,Delhi,"Pusa, Delhi - DPCC",02-03-2024 21:00:00,28.639652,77.146275,OZONE,39,55,49
India,Delhi,Delhi,"R K Puram, Delhi - DPCC",02-03-2024 21:00:00,28.563262,77.186937,PM10,57,168,98
India,Delhi,Delhi,"R K Puram, Delhi - DPCC",02-03-2024 21:00:00,28.563262,77.186937,OZONE,21,69,58
India,Delhi,Delhi,"Shadipur, Delhi - CPCB",02-03-2024 21:00:00,28.6514781,77.1473105,NH3,18,22,20
India,Delhi,Delhi,"Sirifort, Delhi - CPCB",02-03-2024 21:00:00,28.5504249,77.2159377,NH3,9,15,12
India,Delhi,Delhi,"Sonia Vihar, Delhi - DPCC",02-03-2024 21:00:00,28.710508,77.249485,CO,48,94,58
India,Delhi,Delhi,"Sri Aurobindo Marg, Delhi - DPCC",02-03-2024 21:00:00,28.531346,77.190156,NH3,7,11,10
India,Delhi,Delhi,"Sri Aurobindo Marg, Delhi - DPCC",02-03-2024 21:00:00,28.531346,77.190156,SO2,9,19,13
India,Delhi,Delhi,"Sri Aurobindo Marg, Delhi - DPCC",02-03-2024 21:00:00,28.531346,77.190156,OZONE,1,17,13
India,Delhi,Delhi,"Vivek Vihar, Delhi - DPCC",02-03-2024 21:00:00,28.672342,77.315260,SO2,23,25,24
India,Delhi,Delhi,"Wazirpur, Delhi - DPCC",02-03-2024 21:00:00,28.699793,77.165453,PM2.5,38,207,75
India,Delhi,Delhi,"Wazirpur, Delhi - DPCC",02-03-2024 21:00:00,28.699793,77.165453,NO2,35,164,60
India,Delhi,Delhi,"Wazirpur, Delhi - DPCC",02-03-2024 21:00:00,28.699793,77.165453,SO2,3,38,16
India,Gujarat,Ahmedabad,"Gyaspur, Ahmedabad - IITM",02-03-2024 21:00:00,22.977134,72.553024,NO2,21,22,22
India,Gujarat,Ahmedabad,"Gyaspur, Ahmedabad - IITM",02-03-2024 21:00:00,22.977134,72.553024,NH3,4,4,4
India,Gujarat,Ahmedabad,"Maninagar, Ahmedabad - GPCB",02-03-2024 21:00:00,23.002657,72.591912,PM2.5,23,109,50
India,Gujarat,Ahmedabad,"Maninagar, Ahmedabad - GPCB",02-03-2024 21:00:00,23.002657,72.591912,PM10,55,136,83
India,Gujarat,Ahmedabad,"Maninagar, Ahmedabad - GPCB",02-03-2024 21:00:00,23.002657,72.591912,NO2,10,37,20
India,Gujarat,Ahmedabad,"Maninagar, Ahmedabad - GPCB",02-03-2024 21:00:00,23.002657,72.591912,OZONE,31,169,105
India,Gujarat,Ahmedabad,"Raikhad, Ahmedabad - IITM",02-03-2024 21:00:00,23.020509,72.579261,OZONE,6,20,12
India,Gujarat,Ahmedabad,"Rakhial, Ahmedabad - IITM",02-03-2024 21:00:00,23.016834,72.625775,OZONE,5,17,9
India,Gujarat,Ahmedabad,"SAC ISRO Satellite, Ahmedabad - IITM",02-03-2024 21:00:00,23.023389,72.515201,SO2,12,27,17
India,Gujarat,Ahmedabad,"SVPI Airport Hansol, Ahmedabad - IITM",02-03-2024 21:00:00,23.076793,72.627874,NO2,17,23,20
India,Gujarat,Ahmedabad,"Sardar Vallabhbhai Patel Stadium, Ahmedabad - IITM",02-03-2024 21:00:00,23.043070,72.562968,SO2,4,12,8
India,Gujarat,Ankleshwar,"GIDC, Ankleshwar - GPCB",02-03-2024 21:00:00,21.613267,73.010555,PM10,NA,NA,NA
India,Gujarat,Gandhinagar,"IIPHG Lekawada, Gandhinagar - IITM",02-03-2024 21:00:00,23.243639,72.68994,OZONE,8,29,17
India,Gujarat,Gandhinagar,"Sector-10, Gandhinagar - GPCB",02-03-2024 21:00:00,23.221714,72.654328,PM10,37,107,69
India,Gujarat,Gandhinagar,"Sector-10, Gandhinagar - GPCB",02-03-2024 21:00:00,23.221714,72.654328,OZONE,7,24,22
India,Gujarat,Surat,"Science Center, Surat - SMC",02-03-2024 21:00:00,21.170046,72.795405,CO,42,53,44
India,Gujarat,Vapi,"Phase-1 GIDC, Vapi - GPCB",02-03-2024 21:00:00,20.362421,72.918013,PM10,48,489,88
India,Gujarat,Vapi,"Phase-1 GIDC, Vapi - GPCB",02-03-2024 21:00:00,20.362421,72.918013,OZONE,1,2,1
India,Gujarat,Vatva,"Phase-4 GIDC, Vatva - GPCB",02-03-2024 21:00:00,22.969611,72.643500,OZONE,10,22,15
India,Haryana,Ambala,"Patti Mehar, Ambala - HSPCB",02-03-2024 21:00:00,30.379589,76.778328,NO2,8,9,8
India,Haryana,Ambala,"Patti Mehar, Ambala - HSPCB",02-03-2024 21:00:00,30.379589,76.778328,SO2,NA,NA,NA
India,Haryana,Ambala,"Patti Mehar, Ambala - HSPCB",02-03-2024 21:00:00,30.379589,76.778328,OZONE,1,8,4
India,Haryana,Bahadurgarh,"Arya Nagar, Bahadurgarh - HSPCB",02-03-2024 21:00:00,28.6701,76.9254,PM10,51,163,94
India,Haryana,Bahadurgarh,"Arya Nagar, Bahadurgarh - HSPCB",02-03-2024 21:00:00,28.6701,76.9254,CO,39,56,47
India,Haryana,Bhiwani,"H.B. Colony, Bhiwani - HSPCB",02-03-2024 21:00:00,28.806223,76.141105,SO2,1,12,7
India,Haryana,Bhiwani,"H.B. Colony, Bhiwani - HSPCB",02-03-2024 21:00:00,28.806223,76.141105,OZONE,6,42,18
India,Haryana,Charkhi Dadri,"Mini Secretariat, Charkhi Dadri - HSPCB",02-03-2024 21:00:00,28.593883,76.270653,PM2.5,26,122,63
India,Haryana,Charkhi Dadri,"Mini Secretariat, Charkhi Dadri - HSPCB",02-03-2024 21:00:00,28.593883,76.270653,PM10,26,107,62
India,Haryana,Charkhi Dadri,"Mini Secretariat, Charkhi Dadri - HSPCB",02-03-2024 21:00:00,28.593883,76.270653,NO2,8,10,9
India,Haryana,Charkhi Dadri,"Mini Secretariat, Charkhi Dadri - HSPCB",02-03-2024 21:00:00,28.593883,76.270653,OZONE,12,19,16
India,Haryana,Dharuhera,"Municipal Corporation Office, Dharuhera -  HSPCB",02-03-2024 21:00:00,28.206800,76.799700,PM10,NA,NA,NA
India,Haryana,Dharuhera,"Municipal Corporation Office, Dharuhera -  HSPCB",02-03-2024 21:00:00,28.206800,76.799700,NO2,NA,NA,NA
India,Haryana,Dharuhera,"Municipal Corporation Office, Dharuhera -  HSPCB",02-03-2024 21:00:00,28.206800,76.799700,OZONE,15,71,44
India,Haryana,Faridabad,"New Industrial Town, Faridabad - HSPCB",02-03-2024 21:00:00,28.39072,77.30059,NH3,NA,NA,NA
India,Haryana,Faridabad,"Sector 11, Faridabad - HSPCB",02-03-2024 21:00:00,28.376058,77.315741,NO2,29,33,31
India,Haryana,Faridabad,"Sector 11, Faridabad - HSPCB",02-03-2024 21:00:00,28.376058,77.315741,CO,5,40,15
India,Haryana,Faridabad,"Sector 11, Faridabad - HSPCB",02-03-2024 21:00:00,28.376058,77.315741,OZONE,3,10,8
India,Haryana,Fatehabad,"Huda Sector, Fatehabad - HSPCB",02-03-2024 21:00:00,29.503664,75.467934,PM10,60,94,78
India,Haryana,Fatehabad,"Huda Sector, Fatehabad - HSPCB",02-03-2024 21:00:00,29.503664,75.467934,NO2,29,32,30
India,Haryana,Fatehabad,"Huda Sector, Fatehabad - HSPCB",02-03-2024 21:00:00,29.503664,75.467934,NH3,10,11,10
India,Haryana,Fatehabad,"Huda Sector, Fatehabad - HSPCB",02-03-2024 21:00:00,29.503664,75.467934,SO2,1,18,8
India,Haryana,Gurugram,"Teri Gram, Gurugram - HSPCB",02-03-2024 21:00:00,28.4275,77.1465,PM2.5,60,282,157
India,Haryana,Gurugram,"Teri Gram, Gurugram - HSPCB",02-03-2024 21:00:00,28.4275,77.1465,NO2,33,50,40
India,Haryana,Gurugram,"Vikas Sadan, Gurugram - HSPCB",02-03-2024 21:00:00,28.4501238,77.0263051,PM2.5,36,147,76
India,Haryana,Gurugram,"Vikas Sadan, Gurugram - HSPCB",02-03-2024 21:00:00,28.4501238,77.0263051,SO2,14,46,37
India,Haryana,Gurugram,"Vikas Sadan, Gurugram - HSPCB",02-03-2024 21:00:00,28.4501238,77.0263051,CO,54,139,97
India,Haryana,Hisar,"Urban Estate-II, Hisar - HSPCB",02-03-2024 21:00:00,29.140560,75.744941,SO2,14,19,17
India,Haryana,Hisar,"Urban Estate-II, Hisar - HSPCB",02-03-2024 21:00:00,29.140560,75.744941,CO,38,40,40
India,Haryana,Hisar,"Urban Estate-II, Hisar - HSPCB",02-03-2024 21:00:00,29.140560,75.744941,OZONE,29,115,45
India,Haryana,Jind,"Police Lines, Jind - HSPCB",02-03-2024 21:00:00,29.307814,76.337619,PM2.5,31,79,54
India,Haryana,Jind,"Police Lines, Jind - HSPCB",02-03-2024 21:00:00,29.307814,76.337619,SO2,4,17,8
India,Haryana,Kaithal,"Rishi Nagar, Kaithal - HSPCB",02-03-2024 21:00:00,29.8006,76.4155,NO2,24,120,50
India,Haryana,Kaithal,"Rishi Nagar, Kaithal - HSPCB",02-03-2024 21:00:00,29.8006,76.4155,SO2,1,48,19
India,Haryana,Karnal,"Sector-12, Karnal - HSPCB",02-03-2024 21:00:00,29.695300,77.002700,OZONE,16,37,30
India,Haryana,Kurukshetra,"Sector-7, Kurukshetra - HSPCB",02-03-2024 21:00:00,29.966942,76.875879,PM2.5,33,188,80
India,Haryana,Kurukshetra,"Sector-7, Kurukshetra - HSPCB",02-03-2024 21:00:00,29.966942,76.875879,OZONE,10,46,36
India,Haryana,Mandikhera,"General Hospital, Mandikhera - HSPCB",02-03-2024 21:00:00,27.9002,76.9938,PM10,29,85,52
India,Haryana,Manesar,"Sector-2 IMT, Manesar - HSPCB",02-03-2024 21:00:00,28.360699,76.936090,NO2,9,26,20
India,Haryana,Manesar,"Sector-2 IMT, Manesar - HSPCB",02-03-2024 21:00:00,28.360699,76.936090,NH3,1,4,3
India,Haryana,Manesar,"Sector-2 IMT, Manesar - HSPCB",02-03-2024 21:00:00,28.360699,76.936090,CO,10,111,11
India,Haryana,Manesar,"Sector-2 IMT, Manesar - HSPCB",02-03-2024 21:00:00,28.360699,76.936090,OZONE,7,26,20
India,Haryana,Palwal,"Shyam Nagar, Palwal - HSPCB",02-03-2024 21:00:00,28.1485564,77.3320667,PM2.5,49,84,61
India,Haryana,Palwal,"Shyam Nagar, Palwal - HSPCB",02-03-2024 21:00:00,28.1485564,77.3320667,PM10,38,107,58
India,Haryana,Sirsa,"F-Block, Sirsa - HSPCB",02-03-2024 21:00:00,29.536400,75.015800,NH3,5,13,12
India,Haryana,Sirsa,"F-Block, Sirsa - HSPCB",02-03-2024 21:00:00,29.536400,75.015800,OZONE,20,66,32
India,Haryana,Yamuna Nagar,"Gobind Pura, Yamuna Nagar - HSPCB",02-03-2024 21:00:00,30.1480566,77.2893471,OZONE,5,45,29
India,Himachal Pradesh,Baddi,"HIMUDA Complex Phase-1, Baddi - HPPCB",02-03-2024 21:00:00,30.943887,76.801991,PM10,24,232,75
India,Jammu_and_Kashmir,Srinagar,"Rajbagh, Srinagar - JKSPCB",02-03-2024 21:00:00,34.066206,74.819820,PM10,NA,NA,NA
India,Jammu_and_Kashmir,Srinagar,"Rajbagh, Srinagar - JKSPCB",02-03-2024 21:00:00,34.066206,74.819820,OZONE,NA,NA,NA
India,Jharkhand,Dhanbad,"Kalakusuma, Dhanbad - DMC",02-03-2024 21:00:00,23.811548,86.481238,NO2,13,55,47
India,Jharkhand,Dhanbad,"Kalakusuma, Dhanbad - DMC",02-03-2024 21:00:00,23.811548,86.481238,CO,129,133,131
India,Jharkhand,Dhanbad,"Kalakusuma, Dhanbad - DMC",02-03-2024 21:00:00,23.811548,86.481238,OZONE,16,40,24
India,Jharkhand,Pathardih,"Mohalbani Ghat, Pathardih - DMC",02-03-2024 21:00:00,23.669880,86.411725,PM10,66,154,105
India,Karnataka,Bagalkot,"Vidayagiri, Bagalkot - KSPCB",02-03-2024 21:00:00,16.172806,75.659694,PM2.5,25,38,36
India,Karnataka,Bagalkot,"Vidayagiri, Bagalkot - KSPCB",02-03-2024 21:00:00,16.172806,75.659694,SO2,NA,NA,NA
India,Karnataka,Belgaum,"Ramteerth Nagar, Belgaum - KSPCB",02-03-2024 21:00:00,15.888653,74.541751,PM10,29,101,57
India,Karnataka,Belgaum,"Ramteerth Nagar, Belgaum - KSPCB",02-03-2024 21:00:00,15.888653,74.541751,NO2,24,30,27
India,Karnataka,Belgaum,"Ramteerth Nagar, Belgaum - KSPCB",02-03-2024 21:00:00,15.888653,74.541751,NH3,34,34,34
India,Karnataka,Belgaum,"Ramteerth Nagar, Belgaum - KSPCB",02-03-2024 21:00:00,15.888653,74.541751,CO,36,52,48
India,Karnataka,Bengaluru,"BTM Layout, Bengaluru - CPCB",02-03-2024 21:00:00,12.9135218,77.5950804,PM10,46,63,54
India,Karnataka,Bengaluru,"BTM Layout, Bengaluru - CPCB",02-03-2024 21:00:00,12.9135218,77.5950804,CO,36,37,36
India,Karnataka,Bengaluru,"BTM Layout, Bengaluru - CPCB",02-03-2024 21:00:00,12.9135218,77.5950804,OZONE,35,97,83
India,Karnataka,Bengaluru,"Bapuji Nagar, Bengaluru - KSPCB",02-03-2024 21:00:00,12.951913,77.539784,PM2.5,43,500,96
India,Karnataka,Bengaluru,"Bapuji Nagar, Bengaluru - KSPCB",02-03-2024 21:00:00,12.951913,77.539784,OZONE,4,33,10
India,Karnataka,Bengaluru,"Jigani, Bengaluru - KSPCB",02-03-2024 21:00:00,12.7816279,77.6299145,PM10,NA,NA,NA
India,Karnataka,Bengaluru,"Jigani, Bengaluru - KSPCB",02-03-2024 21:00:00,12.7816279,77.6299145,NH3,4,4,4
India,Karnataka,Bengaluru,"Peenya, Bengaluru - CPCB",02-03-2024 21:00:00,13.0270199,77.494094,OZONE,30,79,64
India,Karnataka,Bengaluru,"RVCE-Mailasandra, Bengaluru - KSPCB",02-03-2024 21:00:00,12.921418,77.502466,CO,34,56,45
India,Karnataka,Bengaluru,"Shivapura_Peenya, Bengaluru - KSPCB",02-03-2024 21:00:00,13.0246342,77.5080115,NO2,15,16,15
India,Karnataka,Bengaluru,"Shivapura_Peenya, Bengaluru - KSPCB",02-03-2024 21:00:00,13.0246342,77.5080115,CO,20,49,31
India,Karnataka,Chamarajanagar,"Urban, Chamarajanagar - KSPCB",02-03-2024 21:00:00,11.55358,76.55521,PM2.5,20,51,33
India,Karnataka,Chamarajanagar,"Urban, Chamarajanagar - KSPCB",02-03-2024 21:00:00,11.55358,76.55521,OZONE,15,52,37
India,Karnataka,Chikkaballapur,"Chikkaballapur Rural, Chikkaballapur - KSPCB",02-03-2024 21:00:00,13.428828,77.731418,PM2.5,38,110,66
India,Karnataka,Chikkaballapur,"Chikkaballapur Rural, Chikkaballapur - KSPCB",02-03-2024 21:00:00,13.428828,77.731418,CO,8,24,18
India,Karnataka,Chikkamagaluru,"Kalyana Nagara, Chikkamagaluru - KSPCB",02-03-2024 21:00:00,13.328028,75.797056,PM10,48,81,59
India,Karnataka,Davanagere,"Devaraj Urs Badavane, Davanagere - KSPCB",02-03-2024 21:00:00,14.475800,75.905200,SO2,2,9,5
India,Karnataka,Davanagere,"Devaraj Urs Badavane, Davanagere - KSPCB",02-03-2024 21:00:00,14.475800,75.905200,OZONE,22,27,26
India,Karnataka,Dharwad,"Kalabhavan, Dharwad - KSPCB",02-03-2024 21:00:00,15.459706,75.008381,PM10,NA,NA,NA
India,Karnataka,Dharwad,"Kalabhavan, Dharwad - KSPCB",02-03-2024 21:00:00,15.459706,75.008381,NH3,NA,NA,NA
India,Karnataka,Hassan,"B.Katihalli, Hassan - KSPCB",02-03-2024 21:00:00,13.008556,76.125258,PM10,43,191,102
India,Karnataka,Hassan,"B.Katihalli, Hassan - KSPCB",02-03-2024 21:00:00,13.008556,76.125258,NO2,10,14,12
India,Karnataka,Haveri,"Ashwini Nagar, Haveri - KSPCB",02-03-2024 21:00:00,14.791800,75.389600,PM2.5,33,74,56
India,Karnataka,Haveri,"Ashwini Nagar, Haveri - KSPCB",02-03-2024 21:00:00,14.791800,75.389600,OZONE,18,20,19
India,Karnataka,Hubballi,"Deshpande Nagar, Hubballi - KSPCB",02-03-2024 21:00:00,15.351773,75.140726,SO2,19,21,20
India,Karnataka,Hubballi,"Lingaraj Nagar, Hubballi - KSPCB",02-03-2024 21:00:00,15.3714823,75.1160168,NO2,16,16,16
India,Karnataka,Kalaburagi,"Lal Bahadur Shastri Nagar, Kalaburagi - KSPCB",02-03-2024 21:00:00,17.321993,76.822628,NO2,NA,NA,NA
India,Karnataka,Kalaburagi,"Lal Bahadur Shastri Nagar, Kalaburagi - KSPCB",02-03-2024 21:00:00,17.321993,76.822628,CO,NA,NA,NA
India,Karnataka,Kalaburagi,"Lal Bahadur Shastri Nagar, Kalaburagi - KSPCB",02-03-2024 21:00:00,17.321993,76.822628,OZONE,NA,NA,NA
India,Karnataka,Kalaburagi,"Mahatma Basaveswar Colony, Kalaburgi - KSPCB",02-03-2024 21:00:00,17.336318,76.847397,PM10,22,86,50
India,Karnataka,Kalaburagi,"Mahatma Basaveswar Colony, Kalaburgi - KSPCB",02-03-2024 21:00:00,17.336318,76.847397,SO2,4,17,8
India,Karnataka,Karwar,"KHB Colony, Karwar - KSPCB",02-03-2024 21:00:00,14.816666,74.141003,PM10,58,113,78
India,Karnataka,Kolar,"Tamaka Ind. Area, Kolar - KSPCB",02-03-2024 21:00:00,13.1276288,78.1570122,SO2,NA,NA,NA
India,Karnataka,Koppal,"Diwator Nagar, Koppal - KSPCB",02-03-2024 21:00:00,15.347630,76.181767,PM10,16,77,38
India,Karnataka,Koppal,"Diwator Nagar, Koppal - KSPCB",02-03-2024 21:00:00,15.347630,76.181767,SO2,59,68,60
India,Karnataka,Madikeri,"Stuart Hill, Madikeri - KSPCB",02-03-2024 21:00:00,12.415911,75.735050,OZONE,26,39,35
India,Karnataka,Mysuru,"Hebbal 1st Stage, Mysuru - KSPCB",02-03-2024 21:00:00,12.21041,76.37376,CO,1,78,14
India,Karnataka,Raichur,"Haji Colony, Raichur - KSPCB",02-03-2024 21:00:00,16.208139,77.348417,SO2,63,78,69
India,Karnataka,Raichur,"Haji Colony, Raichur - KSPCB",02-03-2024 21:00:00,16.208139,77.348417,CO,84,118,106
India,Karnataka,Ramanagara,"Vijay Nagar, Ramanagara - KSPCB",02-03-2024 21:00:00,12.733409,77.298051,PM10,28,69,40
India,Karnataka,Ramanagara,"Vijay Nagar, Ramanagara - KSPCB",02-03-2024 21:00:00,12.733409,77.298051,OZONE,27,29,28
India,Karnataka,Tumakuru,"Thimmalapura, Tumakuru - KSPCB",02-03-2024 21:00:00,13.377516,77.099072,OZONE,7,62,49
India,Karnataka,Yadgir,"Collector Office, Yadgir - KSPCB",02-03-2024 21:00:00,16.7602,77.1428,NH3,1,1,1
India,Karnataka,Yadgir,"Collector Office, Yadgir - KSPCB",02-03-2024 21:00:00,16.7602,77.1428,OZONE,18,19,19
India,Kerala,Eloor,"Udyogamandal, Eloor - Kerala PCB",02-03-2024 21:00:00,10.073232,76.302765,PM10,37,57,46
India,Kerala,Eloor,"Udyogamandal, Eloor - Kerala PCB",02-03-2024 21:00:00,10.073232,76.302765,SO2,1,8,2
India,Kerala,Kannur,"Thavakkara, Kannur - Kerala PCB",02-03-2024 21:00:00,11.875000,75.373200,PM2.5,50,61,56
India,Kerala,Kannur,"Thavakkara, Kannur - Kerala PCB",02-03-2024 21:00:00,11.875000,75.373200,PM10,63,75,70
India,Kerala,Kannur,"Thavakkara, Kannur - Kerala PCB",02-03-2024 21:00:00,11.875000,75.373200,NO2,6,6,6
India,Kerala,Kannur,"Thavakkara, Kannur - Kerala PCB",02-03-2024 21:00:00,11.875000,75.373200,NH3,1,1,1
India,Kerala,Kannur,"Thavakkara, Kannur - Kerala PCB",02-03-2024 21:00:00,11.875000,75.373200,SO2,5,7,6
India,Kerala,Kannur,"Thavakkara, Kannur - Kerala PCB",02-03-2024 21:00:00,11.875000,75.373200,OZONE,32,36,33
India,Kerala,Kochi,"Vyttila, Kochi - Kerala PCB",02-03-2024 21:00:00,9.969447,76.321186,PM10,45,157,89
India,Kerala,Thiruvananthapuram,"Plammoodu, Thiruvananthapuram - Kerala PCB",02-03-2024 21:00:00,8.5149093,76.9435879,PM10,40,90,62
India,Kerala,Thiruvananthapuram,"Plammoodu, Thiruvananthapuram - Kerala PCB",02-03-2024 21:00:00,8.5149093,76.9435879,NH3,2,2,2
India,Madhya Pradesh,Bhopal,"Idgah Hills, Bhopal - MPPCB",02-03-2024 21:00:00,23.264759,77.381568,SO2,23,63,44
India,Madhya Pradesh,Bhopal,"Paryavaran Parisar, Bhopal - MPPCB",02-03-2024 21:00:00,23.210494,77.425409,CO,6,55,38
India,Madhya Pradesh,Bhopal,"T T Nagar, Bhopal - MPPCB",02-03-2024 21:00:00,23.233584,77.400574,NH3,6,7,7
India,Madhya Pradesh,Gwalior,"City Center, Gwalior - MPPCB",02-03-2024 21:00:00,26.203442,78.193251,NO2,12,34,19
India,Madhya Pradesh,Gwalior,"Deen Dayal Nagar, Gwalior - MPPCB",02-03-2024 21:00:00,26.259242,78.216432,NH3,2,13,7
India,Madhya Pradesh,Gwalior,"Maharaj Bada, Gwalior - MPPCB",02-03-2024 21:00:00,26.200388,78.147714,NO2,9,32,22
India,Madhya Pradesh,Gwalior,"Maharaj Bada, Gwalior - MPPCB",02-03-2024 21:00:00,26.200388,78.147714,NH3,9,12,11
India,Madhya Pradesh,Indore,"Maguda Nagar, Indore - IMC",02-03-2024 21:00:00,22.7524,75.8872,PM2.5,NA,NA,NA
India,Madhya Pradesh,Indore,"Maguda Nagar, Indore - IMC",02-03-2024 21:00:00,22.7524,75.8872,PM10,NA,NA,NA
India,Madhya Pradesh,Indore,"Maguda Nagar, Indore - IMC",02-03-2024 21:00:00,22.7524,75.8872,SO2,NA,NA,NA
India,Madhya Pradesh,Indore,"Regional Park, Indore - IMC",02-03-2024 21:00:00,22.6780,75.8559,NH3,NA,NA,NA
India,Madhya Pradesh,Indore,"Regional Park, Indore - IMC",02-03-2024 21:00:00,22.6780,75.8559,SO2,NA,NA,NA
India,Madhya Pradesh,Indore,"Regional Park, Indore - IMC",02-03-2024 21:00:00,22.6780,75.8559,OZONE,6,12,8
India,Madhya Pradesh,Jabalpur,"Gupteshwar, Jabalpur - JMC",02-03-2024 21:00:00,23.142888,79.916147,PM10,39,101,61
India,Madhya Pradesh,Jabalpur,"Gupteshwar, Jabalpur - JMC",02-03-2024 21:00:00,23.142888,79.916147,NO2,6,67,22
India,Madhya Pradesh,Jabalpur,"Gupteshwar, Jabalpur - JMC",02-03-2024 21:00:00,23.142888,79.916147,NH3,3,9,5
India,Madhya Pradesh,Jabalpur,"Marhatal, Jabalpur - MPPCB",02-03-2024 21:00:00,23.168606,79.932247,PM10,54,138,81
India,Madhya Pradesh,Jabalpur,"Marhatal, Jabalpur - MPPCB",02-03-2024 21:00:00,23.168606,79.932247,NO2,12,57,27
India,Madhya Pradesh,Katni,"Gole Bazar, Katni - MPPCB",02-03-2024 21:00:00,23.50016,80.23284,NO2,34,62,48
India,Madhya Pradesh,Maihar,"Sahilara, Maihar - KJS Cements",02-03-2024 21:00:00,24.2613009,80.7231783,NO2,14,14,14
India,Madhya Pradesh,Mandideep,"Sector-D Industrial Area, Mandideep - MPPCB",02-03-2024 21:00:00,23.108440,77.511428,PM10,NA,NA,NA
India,Madhya Pradesh,Pithampur,"Sector-2 Industrial Area, Pithampur - MPPCB",02-03-2024 21:00:00,22.624758,75.675238,NO2,7,24,16
India,Madhya Pradesh,Pithampur,"Sector-2 Industrial Area, Pithampur - MPPCB",02-03-2024 21:00:00,22.624758,75.675238,OZONE,20,71,59
India,Madhya Pradesh,Ratlam,"Shasthri Nagar, Ratlam - IPCA Lab",02-03-2024 21:00:00,23.331731,75.045981,PM10,99,215,134
India,Madhya Pradesh,Sagar,"Civil Lines, Sagar - MPPCB",02-03-2024 21:00:00,23.838586,78.759431,PM10,35,500,124
India,Madhya Pradesh,Satna,"Bandhavgar Colony, Satna - Birla Cement",02-03-2024 21:00:00,24.58434363,80.8549414,SO2,1,2,1
India,Madhya Pradesh,Satna,"Bandhavgar Colony, Satna - Birla Cement",02-03-2024 21:00:00,24.58434363,80.8549414,CO,27,66,46
India,Madhya Pradesh,Singrauli,"Suryakiran Bhawan NCL, Singrauli - MPPCB",02-03-2024 21:00:00,24.108970,82.645580,SO2,48,113,73
India,Madhya Pradesh,Ujjain,"Mahakaleshwar Temple, Ujjain - MPPCB",02-03-2024 21:00:00,23.182719 ,75.768218 ,PM2.5,15,46,33
India,Madhya Pradesh,Ujjain,"Mahakaleshwar Temple, Ujjain - MPPCB",02-03-2024 21:00:00,23.182719 ,75.768218 ,NH3,5,7,6
India,Maharashtra,Ahmednagar,"Tarakpur, Ahmednagar - MPCB",02-03-2024 21:00:00,19.10122,74.73339,CO,9,94,22
India,Maharashtra,Akola,"Ramdaspeth, Akola - MPCB",02-03-2024 21:00:00,20.719516,77.000253,PM2.5,38,156,61
India,Maharashtra,Akola,"Ramdaspeth, Akola - MPCB",02-03-2024 21:00:00,20.719516,77.000253,SO2,7,10,8
India,Maharashtra,Amravati,"Shivneri Colony, Amravati - MPCB",02-03-2024 21:00:00,20.9402359,77.7895248,PM2.5,32,65,48
India,Maharashtra,Amravati,"Shivneri Colony, Amravati - MPCB",02-03-2024 21:00:00,20.9402359,77.7895248,SO2,1,20,6
India,Maharashtra,Amravati,"Shri Shivaji Science College, Amaravati - MPCB",02-03-2024 21:00:00,20.939198,77.765701,NH3,4,16,6
India,Maharashtra,Aurangabad,"MIDC Chilkalthana, Aurangabad - MPCB",02-03-2024 21:00:00,19.875620,75.387310,NO2,14,30,20
India,Maharashtra,Aurangabad,"MIDC Chilkalthana, Aurangabad - MPCB",02-03-2024 21:00:00,19.875620,75.387310,CO,38,68,42
India,Maharashtra,Aurangabad,"More Chowk Waluj, Aurangabad - MPCB",02-03-2024 21:00:00,19.8389439,75.244448,NO2,33,39,35
India,Maharashtra,Aurangabad,"More Chowk Waluj, Aurangabad - MPCB",02-03-2024 21:00:00,19.8389439,75.244448,NH3,1,1,1
India,Maharashtra,Aurangabad,"More Chowk Waluj, Aurangabad - MPCB",02-03-2024 21:00:00,19.8389439,75.244448,CO,10,111,19
India,Maharashtra,Aurangabad,"Rachnakar Colony, Aurangabad - MPCB",02-03-2024 21:00:00,19.863756,75.321188,SO2,10,29,18
India,Maharashtra,Belapur,"CBD Belapur, Belapur - MPCB",02-03-2024 21:00:00,19.0243902,73.0406721,NO2,21,48,36
India,Maharashtra,Belapur,"CBD Belapur, Belapur - MPCB",02-03-2024 21:00:00,19.0243902,73.0406721,SO2,1,12,3
India,Maharashtra,Bhiwandi,"Gokul Nagar, Bhiwandi - MPCB",02-03-2024 21:00:00,19.309073,73.057223,NH3,1,10,4
India,Maharashtra,Bhiwandi,"Gokul Nagar, Bhiwandi - MPCB",02-03-2024 21:00:00,19.309073,73.057223,OZONE,2,99,30
India,Maharashtra,Boisar,"Khaira, Boisar - MPCB",02-03-2024 21:00:00,19.786089,72.757971,PM2.5,NA,NA,NA
India,Maharashtra,Chandrapur,"Chauhan Colony, Chandrapur - MPCB",02-03-2024 21:00:00,19.962900,79.298714,SO2,2,36,9
India,Maharashtra,Chandrapur,"Chauhan Colony, Chandrapur - MPCB",02-03-2024 21:00:00,19.962900,79.298714,OZONE,6,6,6
India,Maharashtra,Chandrapur,"MIDC Khutala, Chandrapur - MPCB",02-03-2024 21:00:00,19.9775302,79.2337086,NO2,NA,NA,NA
India,Maharashtra,Chandrapur,"MIDC Khutala, Chandrapur - MPCB",02-03-2024 21:00:00,19.9775302,79.2337086,NH3,NA,NA,NA
India,Maharashtra,Chandrapur,"MIDC Khutala, Chandrapur - MPCB",02-03-2024 21:00:00,19.9775302,79.2337086,SO2,NA,NA,NA
India,Maharashtra,Dhule,"Deopur, Dhule - MPCB",02-03-2024 21:00:00,20.918946,74.776388,SO2,1,26,8
India,Maharashtra,Jalgaon,"Prabhat Colony, Jalgaon - MPCB",02-03-2024 21:00:00,21.001264,75.565602,PM10,69,129,105
India,Maharashtra,Jalgaon,"Prabhat Colony, Jalgaon - MPCB",02-03-2024 21:00:00,21.001264,75.565602,NH3,1,2,1
India,Maharashtra,Jalgaon,"Prabhat Colony, Jalgaon - MPCB",02-03-2024 21:00:00,21.001264,75.565602,SO2,3,9,5
India,Maharashtra,Kalyan,"Khadakpada, Kalyan - MPCB",02-03-2024 21:00:00,19.25292,73.142019,PM10,83,415,133
India,Maharashtra,Kolhapur,"Sinchan Bhavan, Kolhapur - MPCB",02-03-2024 21:00:00,16.7143745,74.2426398,PM2.5,50,153,76
India,Maharashtra,Kolhapur,"Sinchan Bhavan, Kolhapur - MPCB",02-03-2024 21:00:00,16.7143745,74.2426398,PM10,49,122,81
India,Maharashtra,Kolhapur,"Sinchan Bhavan, Kolhapur - MPCB",02-03-2024 21:00:00,16.7143745,74.2426398,SO2,1,5,1
India,Maharashtra,Latur,"Sawe Wadi, Latur - MPCB",02-03-2024 21:00:00,18.39963,76.57452,PM2.5,68,206,114
India,Maharashtra,Latur,"Sawe Wadi, Latur - MPCB",02-03-2024 21:00:00,18.39963,76.57452,PM10,57,137,103
India,Maharashtra,Mahad,"Kamble Tarf Birwadi, Mahad - MPCB",02-03-2024 21:00:00,18.1023399,73.4783687,NH3,10,16,14
India,Maharashtra,Malegaon,"Mahesh Nagar, Malegaon - MPCB",02-03-2024 21:00:00,20.555712,74.529236,NH3,2,7,4
India,Maharashtra,Malegaon,"Mahesh Nagar, Malegaon - MPCB",02-03-2024 21:00:00,20.555712,74.529236,SO2,2,12,7
India,Maharashtra,Mumbai,"Bandra Kurla Complex, Mumbai - MPCB",02-03-2024 21:00:00,19.065931,72.862131,SO2,1,2,1
India,Maharashtra,Mumbai,"Borivali East, Mumbai - MPCB",02-03-2024 21:00:00,19.2243333,72.8658113,NO2,3,23,8
India,Maharashtra,Mumbai,"Borivali East, Mumbai - MPCB",02-03-2024 21:00:00,19.2243333,72.8658113,NH3,1,2,2
India,Maharashtra,Mumbai,"Chakala-Andheri East, Mumbai - IITM",02-03-2024 21:00:00,19.11074,72.86084,CO,12,50,18
India,Maharashtra,Mumbai,"Chembur, Mumbai - MPCB",02-03-2024 21:00:00,19.0364585,72.8954371,PM10,13,147,50
India,Maharashtra,Mumbai,"Chembur, Mumbai - MPCB",02-03-2024 21:00:00,19.0364585,72.8954371,NO2,25,75,45
India,Maharashtra,Mumbai,"Chembur, Mumbai - MPCB",02-03-2024 21:00:00,19.0364585,72.8954371,NH3,3,4,3
India,Maharashtra,Mumbai,"Colaba, Mumbai - MPCB",02-03-2024 21:00:00,18.910000,72.820000,NO2,16,28,20
India,Maharashtra,Mumbai,"Colaba, Mumbai - MPCB",02-03-2024 21:00:00,18.910000,72.820000,CO,10,18,12
India,Maharashtra,Mumbai,"Ghatkopar, Mumbai - BMC",02-03-2024 21:00:00,19.083694,72.920967,OZONE,1,16,11
India,Maharashtra,Mumbai,"Kandivali East, Mumbai - MPCB",02-03-2024 21:00:00,19.205800,72.868200,PM10,42,135,73
India,Maharashtra,Mumbai,"Kandivali West, Mumbai - BMC",02-03-2024 21:00:00,19.215859,72.831718,PM10,27,63,47
India,Maharashtra,Mumbai,"Kandivali West, Mumbai - BMC",02-03-2024 21:00:00,19.215859,72.831718,CO,8,22,11
India,Maharashtra,Mumbai,"Kherwadi_Bandra East, Mumbai - MPCB",02-03-2024 21:00:00,19.0632143,72.8456324,PM2.5,23,58,43
India,Maharashtra,Mumbai,"Kherwadi_Bandra East, Mumbai - MPCB",02-03-2024 21:00:00,19.0632143,72.8456324,CO,8,40,14
India,Maharashtra,Mumbai,"Kurla, Mumbai - MPCB",02-03-2024 21:00:00,19.0863,72.8888,CO,7,30,10
India,Maharashtra,Mumbai,"Mazgaon, Mumbai - IITM",02-03-2024 21:00:00,18.96702,72.84214,NO2,58,162,97
India,Maharashtra,Mumbai,"Mazgaon, Mumbai - IITM",02-03-2024 21:00:00,18.96702,72.84214,OZONE,12,52,36
India,Maharashtra,Mumbai,"Mulund West, Mumbai - MPCB",02-03-2024 21:00:00,19.1750,72.9419,PM2.5,NA,NA,NA
India,Maharashtra,Mumbai,"Navy Nagar-Colaba, Mumbai - IITM",02-03-2024 21:00:00,18.897756,72.813320,PM2.5,49,74,59
India,Maharashtra,Mumbai,"Powai, Mumbai - MPCB",02-03-2024 21:00:00,19.137500,72.915056,PM2.5,15,42,29
India,Maharashtra,Mumbai,"Powai, Mumbai - MPCB",02-03-2024 21:00:00,19.137500,72.915056,PM10,42,96,63
India,Maharashtra,Mumbai,"Powai, Mumbai - MPCB",02-03-2024 21:00:00,19.137500,72.915056,SO2,26,29,27
India,Maharashtra,Mumbai,"Sewri, Mumbai - BMC",02-03-2024 21:00:00,19.000084,72.856730,NH3,7,12,9
India,Maharashtra,Mumbai,"Sewri, Mumbai - BMC",02-03-2024 21:00:00,19.000084,72.856730,SO2,1,11,5
India,Maharashtra,Mumbai,"Sewri, Mumbai - BMC",02-03-2024 21:00:00,19.000084,72.856730,CO,13,41,17
India,Maharashtra,Mumbai,"Siddharth Nagar-Worli, Mumbai - IITM",02-03-2024 21:00:00,19.000083,72.813993,NH3,5,7,6
India,Maharashtra,Mumbai,"Siddharth Nagar-Worli, Mumbai - IITM",02-03-2024 21:00:00,19.000083,72.813993,CO,33,112,43
India,Maharashtra,Mumbai,"Sion, Mumbai - MPCB",02-03-2024 21:00:00,19.047000,72.874600,CO,2,32,6
India,Maharashtra,Mumbai,"Vasai West, Mumbai - MPCB",02-03-2024 21:00:00,19.383200,72.820400,PM2.5,10,76,39
India,Maharashtra,Mumbai,"Vile Parle West, Mumbai - MPCB",02-03-2024 21:00:00,19.10861,72.83622,NO2,1,5,2
India,Maharashtra,Mumbai,"Worli, Mumbai - MPCB",02-03-2024 21:00:00,18.9936162,72.8128113,PM10,21,36,29
India,Maharashtra,Mumbai,"Worli, Mumbai - MPCB",02-03-2024 21:00:00,18.9936162,72.8128113,NH3,1,1,1
India,Maharashtra,Mumbai,"Worli, Mumbai - MPCB",02-03-2024 21:00:00,18.9936162,72.8128113,SO2,9,10,10
India,Maharashtra,Mumbai,"Worli, Mumbai - MPCB",02-03-2024 21:00:00,18.9936162,72.8128113,OZONE,6,11,9
India,Maharashtra,Nagpur,"Mahal, Nagpur - MPCB",02-03-2024 21:00:00,21.14472,79.107595,NO2,14,41,24
India,Maharashtra,Nagpur,"Mahal, Nagpur - MPCB",02-03-2024 21:00:00,21.14472,79.107595,SO2,41,74,54
India,Maharashtra,Nagpur,"Mahal, Nagpur - MPCB",02-03-2024 21:00:00,21.14472,79.107595,CO,46,107,85
India,Maharashtra,Nagpur,"Ram Nagar, Nagpur - MPCB",02-03-2024 21:00:00,21.143383,79.048912,PM10,NA,NA,NA
India,Maharashtra,Nagpur,"Ram Nagar, Nagpur - MPCB",02-03-2024 21:00:00,21.143383,79.048912,SO2,NA,NA,NA
India,Maharashtra,Nanded,"Sneh Nagar, Nanded - MPCB",02-03-2024 21:00:00,19.173852,77.296291,NH3,1,2,1
India,Maharashtra,Nanded,"Sneh Nagar, Nanded - MPCB",02-03-2024 21:00:00,19.173852,77.296291,CO,31,40,35
India,Maharashtra,Nashik,"Gangapur Road, Nashik - MPCB",02-03-2024 21:00:00,20.0073285,73.7762427,PM2.5,22,207,81
India,Maharashtra,Nashik,"Gangapur Road, Nashik - MPCB",02-03-2024 21:00:00,20.0073285,73.7762427,CO,18,18,18
India,Maharashtra,Nashik,"Hirawadi, Nashik - MPCB",02-03-2024 21:00:00,20.021503,73.813844,NH3,1,2,1
India,Maharashtra,Nashik,"MIDC Ambad, Nashik - MPCB",02-03-2024 21:00:00,19.950220,73.731480,CO,2,52,12
India,Maharashtra,Nashik,"MIDC Ambad, Nashik - MPCB",02-03-2024 21:00:00,19.950220,73.731480,OZONE,22,75,60
India,Maharashtra,Nashik,"Pandav Nagari, Nashik - MPCB",02-03-2024 21:00:00,19.9591346,73.7788008,NH3,4,9,5
India,Maharashtra,Nashik,"Pandav Nagari, Nashik - MPCB",02-03-2024 21:00:00,19.9591346,73.7788008,SO2,1,15,6
India,Maharashtra,Navi Mumbai,"Mahape, Navi Mumbai - MPCB",02-03-2024 21:00:00,19.1135051,73.008978,PM2.5,NA,NA,NA
India,Maharashtra,Navi Mumbai,"Sanpada, Navi Mumbai - MPCB",02-03-2024 21:00:00,19.0575752,73.0151367,SO2,3,16,7
India,Maharashtra,Navi Mumbai,"Tondare-Taloja, Navi Mumbai - MPCB",02-03-2024 21:00:00,19.0630,73.1209,PM10,92,143,117
India,Maharashtra,Parbhani,"Masoom Colony, Parbhani - MPCB",02-03-2024 21:00:00,19.265594,76.761463,PM2.5,68,102,86
India,Maharashtra,Pimpri-Chinchwad,"Gavalinagar, Pimpri Chinchwad - MPCB",02-03-2024 21:00:00,18.63673,73.82487,PM10,53,103,78
India,Maharashtra,Pimpri-Chinchwad,"Park Street Wakad, Pimpri Chinchwad - MPCB",02-03-2024 21:00:00,18.59051,73.77946,PM10,72,139,104
India,Maharashtra,Pimpri-Chinchwad,"Park Street Wakad, Pimpri Chinchwad - MPCB",02-03-2024 21:00:00,18.59051,73.77946,NO2,46,109,74
India,Maharashtra,Pimpri-Chinchwad,"Thergaon, Pimpri Chinchwad - MPCB",02-03-2024 21:00:00,18.616318,73.765797,NH3,3,7,5
India,Maharashtra,Pune,"Karve Road, Pune - MPCB",02-03-2024 21:00:00,18.5011743,73.8165527,PM2.5,25,171,52
India,Maharashtra,Pune,"Mhada Colony, Pune - IITM",02-03-2024 21:00:00,18.573040,73.927715,PM2.5,30,99,63
India,Maharashtra,Pune,"Mhada Colony, Pune - IITM",02-03-2024 21:00:00,18.573040,73.927715,CO,72,141,80
India,Maharashtra,Pune,"Revenue Colony-Shivajinagar, Pune - IITM",02-03-2024 21:00:00,18.530085,73.849598,PM2.5,35,123,63
India,Maharashtra,Pune,"Revenue Colony-Shivajinagar, Pune - IITM",02-03-2024 21:00:00,18.530085,73.849598,NH3,13,24,18
India,Maharashtra,Pune,"Savitribai Phule Pune University, Pune - MPCB",02-03-2024 21:00:00,18.547056,73.826908,NO2,11,31,18
India,Maharashtra,Pune,"Savitribai Phule Pune University, Pune - MPCB",02-03-2024 21:00:00,18.547056,73.826908,SO2,5,20,11
India,Maharashtra,Pune,"Transport Nagar-Nigdi, Pune - IITM",02-03-2024 21:00:00,18.664282,73.763966,PM2.5,10,88,44
India,Maharashtra,Pune,"Transport Nagar-Nigdi, Pune - IITM",02-03-2024 21:00:00,18.664282,73.763966,OZONE,11,62,40
India,Maharashtra,Solapur,"Dnyaneshwar Nagar, Solapur - MPCB",02-03-2024 21:00:00,17.6336264,75.9132495,SO2,5,15,8
India,Maharashtra,Solapur,"Ratandeep Housing Society, Solapur - MPCB",02-03-2024 21:00:00,17.65439,75.90649,NO2,12,126,40
India,Maharashtra,Solapur,"Ratandeep Housing Society, Solapur - MPCB",02-03-2024 21:00:00,17.65439,75.90649,SO2,5,27,12
India,Maharashtra,Solapur,"Ratandeep Housing Society, Solapur - MPCB",02-03-2024 21:00:00,17.65439,75.90649,CO,14,113,48
India,Maharashtra,Solapur,"Solapur, Solapur - MPCB",02-03-2024 21:00:00,17.6599188,75.9063906,SO2,30,38,34
India,Maharashtra,Thane,"Kasarvadavali, Thane - MPCB",02-03-2024 21:00:00,19.26777,72.97182,CO,6,66,10
India,Maharashtra,Thane,"Kasarvadavali, Thane - MPCB",02-03-2024 21:00:00,19.26777,72.97182,OZONE,1,59,41
India,Maharashtra,Thane,"Pimpleshwar Mandir, Thane - MPCB",02-03-2024 21:00:00,19.192056,72.9585188,NO2,12,20,16
India,Maharashtra,Thane,"Pimpleshwar Mandir, Thane - MPCB",02-03-2024 21:00:00,19.192056,72.9585188,NH3,3,3,3
India,Maharashtra,Thane,"Pimpleshwar Mandir, Thane - MPCB",02-03-2024 21:00:00,19.192056,72.9585188,OZONE,1,45,21
India,Maharashtra,Thane,"Upvan Fort, Thane - MPCB",02-03-2024 21:00:00,19.222279,72.957979,NH3,NA,NA,NA
India,Maharashtra,Ulhasnagar,"Sidhi Vinayak Nagar, Ulhasnagar - MPCB",02-03-2024 21:00:00,19.235581,73.159121,PM10,58,115,85
India,Maharashtra,Ulhasnagar,"Sidhi Vinayak Nagar, Ulhasnagar - MPCB",02-03-2024 21:00:00,19.235581,73.159121,NO2,NA,NA,NA
India,Maharashtra,Ulhasnagar,"Sidhi Vinayak Nagar, Ulhasnagar - MPCB",02-03-2024 21:00:00,19.235581,73.159121,NH3,2,3,2
India,Maharashtra,Ulhasnagar,"Sidhi Vinayak Nagar, Ulhasnagar - MPCB",02-03-2024 21:00:00,19.235581,73.159121,OZONE,2,84,37
India,Maharashtra,Virar,"Bolinj, Virar - MPCB",02-03-2024 21:00:00,19.4458210,72.7988231,PM2.5,27,110,76
India,Maharashtra,Virar,"Bolinj, Virar - MPCB",02-03-2024 21:00:00,19.4458210,72.7988231,NH3,5,9,7
India,Manipur,Imphal,"DM College of Science, Imphal - Manipur PCB",02-03-2024 21:00:00,24.8207389,93.9423085,PM2.5,21,60,31
India,Manipur,Imphal,"DM College of Science, Imphal - Manipur PCB",02-03-2024 21:00:00,24.8207389,93.9423085,PM10,23,96,43
India,Manipur,Imphal,"Manipur University, Imphal - Manipur PCB",02-03-2024 21:00:00,24.7524239,93.9286218,PM2.5,57,198,104
India,Meghalaya,Shillong,"Lumpyngngad, Shillong - Meghalaya PCB",02-03-2024 21:00:00,25.5586,91.8985,NO2,6,6,6
India,Nagaland,Kohima,"PWD Juction, Kohima - NPCB",02-03-2024 21:00:00,25.6635413,94.0989878,OZONE,9,24,20
India,Odisha,Angul,"Hakimapada, Angul - OSPCB",02-03-2024 21:00:00,20.832874,85.104082,PM10,87,362,173
India,Odisha,Balasore,"Kalidaspur, Balasore - OSPCB",02-03-2024 21:00:00,21.51161,86.89088,SO2,17,30,21
India,Odisha,Barbil,"Forest Office, Barbil - OSPCB",02-03-2024 21:00:00,22.1166054,85.3945546,PM2.5,73,273,116
India,Odisha,Barbil,"Forest Office, Barbil - OSPCB",02-03-2024 21:00:00,22.1166054,85.3945546,SO2,2,71,18
India,Odisha,Baripada,"Meher Colony, Baripada - OSPCB",02-03-2024 21:00:00,21.941841,86.728318,PM10,87,128,111
India,Odisha,Baripada,"Meher Colony, Baripada - OSPCB",02-03-2024 21:00:00,21.941841,86.728318,NO2,1,1,1
India,Odisha,Baripada,"Meher Colony, Baripada - OSPCB",02-03-2024 21:00:00,21.941841,86.728318,OZONE,11,53,40
India,Odisha,Bhubaneswar,"Lingraj Mandir, Bhubaneswar - OSPCB",02-03-2024 21:00:00,20.240790,85.836784,PM2.5,62,157,93
India,Odisha,Bhubaneswar,"Lingraj Mandir, Bhubaneswar - OSPCB",02-03-2024 21:00:00,20.240790,85.836784,NH3,3,10,5
India,Odisha,Bhubaneswar,"Lingraj Mandir, Bhubaneswar - OSPCB",02-03-2024 21:00:00,20.240790,85.836784,SO2,2,7,4
India,Odisha,Bhubaneswar,"Patia, Bhubaneswar - OSPCB",02-03-2024 21:00:00,20.34652,85.81630,PM2.5,45,117,69
India,Odisha,Bhubaneswar,"Patia, Bhubaneswar - OSPCB",02-03-2024 21:00:00,20.34652,85.81630,NO2,7,24,12
India,Odisha,Bileipada,"Tata Township, Bileipada - OSPCB",02-03-2024 21:00:00,22.06156703,85.47409613,SO2,10,59,26
India,Odisha,Byasanagar,"Ferro Chrome Colony, Byasanagar - OSPCB",02-03-2024 21:00:00,20.94185,86.11510,PM10,69,135,104
India,Odisha,Byasanagar,"Ferro Chrome Colony, Byasanagar - OSPCB",02-03-2024 21:00:00,20.94185,86.11510,NH3,2,4,2
India,Odisha,Nayagarh,"Dabuna, Nayagarh - OSPCB",02-03-2024 21:00:00,21.847279,85.416905,PM2.5,8,250,167
India,Odisha,Nayagarh,"Dabuna, Nayagarh - OSPCB",02-03-2024 21:00:00,21.847279,85.416905,PM10,20,309,191
India,Odisha,Rairangpur,"Divisional Forest Office, Rairangpur - OSPCB",02-03-2024 21:00:00,22.265816,86.174829,NO2,7,8,7
India,Odisha,Rourkela,"Fertilizer Township, Rourkela - OSPCB",02-03-2024 21:00:00,22.18972222,84.86277778,CO,14,28,19
India,Odisha,Rourkela,"Raghunathpali, Rourkela - OSPCB",02-03-2024 21:00:00,22.220833,84.809444,PM2.5,74,197,108
India,Odisha,Rourkela,"Sector-2, Rourkela - OSPCB",02-03-2024 21:00:00,22.24500000,84.88111111,PM10,69,137,93
India,Odisha,Talcher,"Talcher Coalfields,Talcher - OSPCB",02-03-2024 21:00:00,20.9360711,85.1707021,NO2,41,51,46
India,Odisha,Talcher,"Talcher Coalfields,Talcher - OSPCB",02-03-2024 21:00:00,20.9360711,85.1707021,NH3,7,8,7
India,Puducherry,Puducherry,"Jawahar Nagar, Puducherry - PPCC",02-03-2024 21:00:00,11.9309,79.8027,PM2.5,36,207,85
India,Punjab,Amritsar,"Golden Temple, Amritsar - PPCB",02-03-2024 21:00:00,31.620000,74.876512,SO2,18,29,23
India,Punjab,Ludhiana,"Punjab Agricultural University, Ludhiana - PPCB",02-03-2024 21:00:00,30.9028,75.8086,NH3,4,11,6
India,Punjab,Ludhiana,"Punjab Agricultural University, Ludhiana - PPCB",02-03-2024 21:00:00,30.9028,75.8086,OZONE,10,24,19
India,Punjab,Mandi Gobindgarh,"RIMT University, Mandi Gobindgarh - PPCB",02-03-2024 21:00:00,30.649961,76.331442,SO2,NA,NA,NA
India,Rajasthan,Ajmer,"Civil Lines,  Ajmer - RSPCB",02-03-2024 21:00:00,26.470859,74.646594,CO,18,38,28
India,Rajasthan,Alwar,"Moti Doongri, Alwar - RSPCB",02-03-2024 21:00:00,27.554793,76.611536,PM10,35,72,51
India,Rajasthan,Alwar,"Moti Doongri, Alwar - RSPCB",02-03-2024 21:00:00,27.554793,76.611536,SO2,13,69,29
India,Rajasthan,Alwar,"Moti Doongri, Alwar - RSPCB",02-03-2024 21:00:00,27.554793,76.611536,CO,1,40,27
India,Rajasthan,Banswara,"Rati Talai, Banswara - RSPCB",02-03-2024 21:00:00,23.555190,74.440010,PM2.5,44,140,80
India,Rajasthan,Banswara,"Rati Talai, Banswara - RSPCB",02-03-2024 21:00:00,23.555190,74.440010,PM10,47,117,80
India,Rajasthan,Banswara,"Rati Talai, Banswara - RSPCB",02-03-2024 21:00:00,23.555190,74.440010,NH3,5,8,6
India,Rajasthan,Banswara,"Rati Talai, Banswara - RSPCB",02-03-2024 21:00:00,23.555190,74.440010,OZONE,32,100,83
India,Rajasthan,Baran,"Bamboliya, Baran - RSPCB",02-03-2024 21:00:00,25.106006,76.469948,PM10,34,70,46
India,Rajasthan,Baran,"Bamboliya, Baran - RSPCB",02-03-2024 21:00:00,25.106006,76.469948,NO2,10,23,15
India,Rajasthan,Baran,"Bamboliya, Baran - RSPCB",02-03-2024 21:00:00,25.106006,76.469948,NH3,3,4,4
India,Rajasthan,Barmer,"Railway Colony, Barmer - RSPCB",02-03-2024 21:00:00,25.747299,71.393989,PM10,3,215,78
India,Rajasthan,Bharatpur,"Krishna Nagar, Bharatpur - RSPCB",02-03-2024 21:00:00,27.215415,77.50873,NO2,9,48,23
India,Rajasthan,Bharatpur,"Krishna Nagar, Bharatpur - RSPCB",02-03-2024 21:00:00,27.215415,77.50873,CO,9,79,45
India,Rajasthan,Bhilwara,"Pratap Nagar, Bhilwara - RSPCB",02-03-2024 21:00:00,25.339605,74.618883,CO,20,33,24
India,Rajasthan,Bhiwadi,"RIICO Ind. Area III, Bhiwadi - RSPCB",02-03-2024 21:00:00,28.194909,76.862296,PM10,77,198,126
India,Rajasthan,Bhiwadi,"Vasundhara Nagar_UIT, Bhiwadi - RSPCB",02-03-2024 21:00:00,28.207266,76.829265,SO2,3,36,13
India,Rajasthan,Bikaner,"MM Ground, Bikaner - RSPCB",02-03-2024 21:00:00,28.018792,73.292658,PM10,40,500,209
India,Rajasthan,Bikaner,"MM Ground, Bikaner - RSPCB",02-03-2024 21:00:00,28.018792,73.292658,NH3,6,17,12
India,Rajasthan,Bikaner,"MM Ground, Bikaner - RSPCB",02-03-2024 21:00:00,28.018792,73.292658,CO,9,36,23
India,Rajasthan,Chittorgarh,"Shastri Nagar, Chittorgarh - RSPCB",02-03-2024 21:00:00,24.892047,74.623527,PM2.5,14,201,50
India,Rajasthan,Churu,"Subash Chowk, Churu - RSPCB",02-03-2024 21:00:00,28.296139,74.961696,NO2,9,41,16
India,Rajasthan,Churu,"Subash Chowk, Churu - RSPCB",02-03-2024 21:00:00,28.296139,74.961696,SO2,6,10,8
India,Rajasthan,Churu,"Subash Chowk, Churu - RSPCB",02-03-2024 21:00:00,28.296139,74.961696,CO,18,46,26
India,Rajasthan,Churu,"Subash Chowk, Churu - RSPCB",02-03-2024 21:00:00,28.296139,74.961696,OZONE,39,91,76
India,Rajasthan,Dausa,"Khatikan Mohalla, Dausa - RSPCB",02-03-2024 21:00:00,26.895552,76.334753,NH3,8,15,11
India,Rajasthan,Dholpur,"Raja Ganj, Dholpur - RSPCB",02-03-2024 21:00:00,26.699557,77.898881,NO2,6,21,12
India,Rajasthan,Dungarpur,"Bhoiwada, Dungarpur - RSPCB",02-03-2024 21:00:00,23.837789,73.714926,NH3,8,11,10
India,Rajasthan,Hanumangarh,"Housing Board, Hanumangarh - RSPCB",02-03-2024 21:00:00,29.610750,74.283608,CO,8,50,15
India,Rajasthan,Hanumangarh,"Housing Board, Hanumangarh - RSPCB",02-03-2024 21:00:00,29.610750,74.283608,OZONE,5,21,15
India,Rajasthan,Jaipur,"Adarsh Nagar, Jaipur - RSPCB",02-03-2024 21:00:00,26.902909,75.836858,PM2.5,19,53,36
India,Rajasthan,Jaipur,"Adarsh Nagar, Jaipur - RSPCB",02-03-2024 21:00:00,26.902909,75.836858,SO2,NA,NA,NA
India,Rajasthan,Jaipur,"Adarsh Nagar, Jaipur - RSPCB",02-03-2024 21:00:00,26.902909,75.836858,OZONE,17,37,30
India,Rajasthan,Jaipur,"Shastri Nagar, Jaipur - RSPCB",02-03-2024 21:00:00,26.9502929,75.730943,NH3,2,6,5
India,Rajasthan,Jaisalmer,"Sadar Bazar, Jaisalmer - RSPCB",02-03-2024 21:00:00,26.912329,70.909168,PM2.5,6,73,26
India,Rajasthan,Jaisalmer,"Sadar Bazar, Jaisalmer - RSPCB",02-03-2024 21:00:00,26.912329,70.909168,NH3,3,9,6
India,Rajasthan,Jalore,"Mudtra Sili, Jalore - RSPCB",02-03-2024 21:00:00,25.344694,72.626208,OZONE,55,108,77
India,Rajasthan,Jhalawar,"Rajlaxmi Nagar, Jhalawar - RSPCB",02-03-2024 21:00:00,24.588397,76.172782,CO,20,84,42
India,Rajasthan,Jhalawar,"Rajlaxmi Nagar, Jhalawar - RSPCB",02-03-2024 21:00:00,24.588397,76.172782,OZONE,26,76,62
India,Rajasthan,Jhunjhunu,"Indra Nagar, Jhunjhunu - RSPCB",02-03-2024 21:00:00,28.108988,75.386577,PM10,30,453,145
India,Rajasthan,Jhunjhunu,"Indra Nagar, Jhunjhunu - RSPCB",02-03-2024 21:00:00,28.108988,75.386577,NO2,19,50,29
India,Rajasthan,Jodhpur,"Jhalamand, Jodhpur - RSPCB",02-03-2024 21:00:00,26.215415,73.070156,PM10,5,222,71
India,Rajasthan,Jodhpur,"Mandor, Jodhpur - RSPCB",02-03-2024 21:00:00,26.358805,73.047444,OZONE,38,82,73
India,Rajasthan,Jodhpur,"Samrat Ashok Udhyan, Jodhpur - RSPCB",02-03-2024 21:00:00,26.253384,72.976571,SO2,1,5,2
India,Rajasthan,Jodhpur,"Samrat Ashok Udhyan, Jodhpur - RSPCB",02-03-2024 21:00:00,26.253384,72.976571,OZONE,42,98,87
India,Rajasthan,Karauli,"Satyawati Vihar, Karauli - RSPCB",02-03-2024 21:00:00,26.506177,77.025989,PM10,30,69,50
India,Rajasthan,Karauli,"Satyawati Vihar, Karauli - RSPCB",02-03-2024 21:00:00,26.506177,77.025989,SO2,12,34,20
India,Rajasthan,Karauli,"Satyawati Vihar, Karauli - RSPCB",02-03-2024 21:00:00,26.506177,77.025989,CO,64,101,92
India,Rajasthan,Kota,"Dhanmandi, Kota - RSPCB",02-03-2024 21:00:00,25.164090,75.858137,PM10,39,123,88
India,Rajasthan,Kota,"Dhanmandi, Kota - RSPCB",02-03-2024 21:00:00,25.164090,75.858137,NH3,4,7,5
India,Rajasthan,Kota,"Dhanmandi, Kota - RSPCB",02-03-2024 21:00:00,25.164090,75.858137,OZONE,12,87,59
India,Rajasthan,Kota,"Nayapura, Kota - RSPCB",02-03-2024 21:00:00,25.196024,75.855668,NH3,4,13,7
India,Rajasthan,Kota,"Nayapura, Kota - RSPCB",02-03-2024 21:00:00,25.196024,75.855668,SO2,4,19,7
India,Rajasthan,Kota,"Shrinath Puram, Kota - RSPCB",02-03-2024 21:00:00,25.14389,75.821256,NH3,13,19,16
India,Rajasthan,Kota,"Shrinath Puram, Kota - RSPCB",02-03-2024 21:00:00,25.14389,75.821256,SO2,7,60,18
India,Rajasthan,Pali,"Indira Colony Vistar, Pali - RSPCB",02-03-2024 21:00:00,25.771061, 73.340227,NO2,18,54,22
India,Rajasthan,Pratapgarh,"Pragati Nagar, Pratapgarh - RSPCB",02-03-2024 21:00:00,24.041198,74.780702,PM2.5,41,108,70
India,Rajasthan,Pratapgarh,"Pragati Nagar, Pratapgarh - RSPCB",02-03-2024 21:00:00,24.041198,74.780702,PM10,75,141,107
India,Rajasthan,Pratapgarh,"Pragati Nagar, Pratapgarh - RSPCB",02-03-2024 21:00:00,24.041198,74.780702,NO2,10,48,23
India,Rajasthan,Pratapgarh,"Pragati Nagar, Pratapgarh - RSPCB",02-03-2024 21:00:00,24.041198,74.780702,CO,20,39,25
India,Rajasthan,Rajsamand,"Dhoinda, Rajsamand - RSPCB",02-03-2024 21:00:00,25.036360,73.883502,NO2,10,32,16
India,Rajasthan,Sawai Madhopur,"Sahu Nagar, Sawai Madhopur - RSPCB",02-03-2024 21:00:00,26.031443,76.359327,NO2,7,53,16
India,Rajasthan,Sawai Madhopur,"Sahu Nagar, Sawai Madhopur - RSPCB",02-03-2024 21:00:00,26.031443,76.359327,CO,12,74,41
India,Rajasthan,Sikar,"Radhakishan Pura, Sikar - RSPCB",02-03-2024 21:00:00,27.608912,75.153302,SO2,4,10,6
India,Rajasthan,Sikar,"Radhakishan Pura, Sikar - RSPCB",02-03-2024 21:00:00,27.608912,75.153302,OZONE,51,93,77
India,Rajasthan,Sri Ganganagar,"Old City, Sri Ganganagar - RSPCB",02-03-2024 21:00:00,29.931624,73.864511,NO2,15,62,33
India,Rajasthan,Sri Ganganagar,"Old City, Sri Ganganagar - RSPCB",02-03-2024 21:00:00,29.931624,73.864511,SO2,1,16,9
India,Rajasthan,Sri Ganganagar,"Old City, Sri Ganganagar - RSPCB",02-03-2024 21:00:00,29.931624,73.864511,CO,6,37,32
India,Rajasthan,Tonk,"Shastri Nagar, Tonk - RSPCB",02-03-2024 21:00:00,26.159933,75.780517,PM10,16,111,55
India,Rajasthan,Tonk,"Shastri Nagar, Tonk - RSPCB",02-03-2024 21:00:00,26.159933,75.780517,OZONE,9,46,11
India,Rajasthan,Udaipur,"Ashok Nagar, Udaipur - RSPCB",02-03-2024 21:00:00,24.5886166,73.6321397,OZONE,3,81,48
India,Sikkim,Gangtok,"Zero Point GICI, Gangtok - SSPCB",02-03-2024 21:00:00,27.338530,88.614099,SO2,10,10,10
India,Sikkim,Gangtok,"Zero Point GICI, Gangtok - SSPCB",02-03-2024 21:00:00,27.338530,88.614099,CO,20,31,24
India,TamilNadu,Ariyalur,"Keelapalur, Ariyalur - TNPCB",02-03-2024 21:00:00,11.06825,79.07033,CO,9,10,9
India,TamilNadu,Chengalpattu,"Crescent University, Chengalpattu - TNPCB",02-03-2024 21:00:00,12.8777316,80.0834807,SO2,24,26,25
India,TamilNadu,Chennai,"Arumbakkam, Chennai - TNPCB",02-03-2024 21:00:00,13.0664,80.2112 ,PM2.5,47,149,81
India,TamilNadu,Chennai,"Arumbakkam, Chennai - TNPCB",02-03-2024 21:00:00,13.0664,80.2112 ,SO2,1,11,5
India,TamilNadu,Chennai,"Gandhi Nagar_Ennore, Chennai - TNPCB",02-03-2024 21:00:00,13.218341,80.32027,PM2.5,59,233,107
India,TamilNadu,Chennai,"Kodungaiyur, Chennai - TNPCB",02-03-2024 21:00:00,13.1278,80.2642,SO2,1,12,7
India,TamilNadu,Chennai,"Kodungaiyur, Chennai - TNPCB",02-03-2024 21:00:00,13.1278,80.2642,CO,14,47,32
India,TamilNadu,Chennai,"Manali, Chennai - CPCB",02-03-2024 21:00:00,13.164544,80.26285,CO,44,91,67
India,TamilNadu,Chennai,"Manali, Chennai - CPCB",02-03-2024 21:00:00,13.164544,80.26285,OZONE,8,52,22
India,TamilNadu,Chennai,"Perungudi, Chennai - TNPCB",02-03-2024 21:00:00,12.9533,80.2357,NO2,5,22,11
India,TamilNadu,Chennai,"Perungudi, Chennai - TNPCB",02-03-2024 21:00:00,12.9533,80.2357,CO,8,76,17
India,TamilNadu,Chennai,"Royapuram, Chennai - TNPCB",02-03-2024 21:00:00,13.1036,80.2909,PM10,49,142,67
India,TamilNadu,Chennai,"Velachery Res. Area, Chennai - CPCB",02-03-2024 21:00:00,13.0052189,80.2398125,PM10,62,133,90
India,TamilNadu,Coimbatore,"PSG College of Arts and Science, Coimbatore - TNPCB",02-03-2024 21:00:00,11.0328,77.0349,PM2.5,45,187,71
India,TamilNadu,Cuddalore,"Semmandalam, Cuddalore - TNPCB",02-03-2024 21:00:00,11.7637683,79.7499835,PM2.5,47,232,83
India,TamilNadu,Cuddalore,"Semmandalam, Cuddalore - TNPCB",02-03-2024 21:00:00,11.7637683,79.7499835,NO2,8,27,16
India,TamilNadu,Gummidipoondi,"Anthoni Pillai Nagar, Gummidipoondi - TNPCB",02-03-2024 21:00:00,13.4127,80.1081,PM2.5,67,345,160
India,TamilNadu,Gummidipoondi,"Anthoni Pillai Nagar, Gummidipoondi - TNPCB",02-03-2024 21:00:00,13.4127,80.1081,NH3,1,2,2
India,TamilNadu,Palkalaiperur,"Bharathidasan University, Palkalaiperur - TNPCB",02-03-2024 21:00:00,10.681158,78.741746,OZONE,1,1,1
India,TamilNadu,Ramanathapuram,"Chalai Bazaar, Ramanathapuram - TNPCB",02-03-2024 21:00:00,9.36399,78.831977,SO2,5,11,8
India,TamilNadu,Thoothukudi,"Meelavittan, Thoothukudi - TNPCB",02-03-2024 21:00:00,8.816428 ,78.099039,SO2,8,17,12
India,TamilNadu,Tirupur,"Kumaran College, Tirupur - TNPCB",02-03-2024 21:00:00,11.0973603,77.3228673,NO2,9,37,16
India,TamilNadu,Tirupur,"Kumaran College, Tirupur - TNPCB",02-03-2024 21:00:00,11.0973603,77.3228673,SO2,17,18,18
India,TamilNadu,Tirupur,"Kumaran College, Tirupur - TNPCB",02-03-2024 21:00:00,11.0973603,77.3228673,OZONE,6,7,7
India,TamilNadu,Virudhunagar,"Collectorate Office, Virudhunagar - TNPCB",02-03-2024 21:00:00,9.559382,77.948828,NO2,12,19,14
India,TamilNadu,Virudhunagar,"Collectorate Office, Virudhunagar - TNPCB",02-03-2024 21:00:00,9.559382,77.948828,SO2,4,32,7
India,Telangana,Hyderabad,"Bollaram Industrial Area, Hyderabad - TSPCB",02-03-2024 21:00:00,17.540891,78.358528,PM2.5,38,77,56
India,Telangana,Hyderabad,"Bollaram Industrial Area, Hyderabad - TSPCB",02-03-2024 21:00:00,17.540891,78.358528,PM10,60,147,107
India,Telangana,Hyderabad,"Bollaram Industrial Area, Hyderabad - TSPCB",02-03-2024 21:00:00,17.540891,78.358528,SO2,4,50,9
India,Telangana,Hyderabad,"ECIL Kapra, Hyderabad - TSPCB",02-03-2024 21:00:00,17.470431,78.566959,PM2.5,39,61,50
India,Telangana,Hyderabad,"ECIL Kapra, Hyderabad - TSPCB",02-03-2024 21:00:00,17.470431,78.566959,NH3,4,7,6
India,Telangana,Hyderabad,"ECIL Kapra, Hyderabad - TSPCB",02-03-2024 21:00:00,17.470431,78.566959,SO2,1,11,5
India,Telangana,Hyderabad,"ICRISAT Patancheru, Hyderabad - TSPCB",02-03-2024 21:00:00,17.518400,78.278777,CO,20,66,28
India,Telangana,Hyderabad,"IITH Kandi, Hyderabad - TSPCB",02-03-2024 21:00:00,17.585705,78.126199,OZONE,17,42,28
India,Telangana,Hyderabad,"New Malakpet, Hyderabad - TSPCB",02-03-2024 21:00:00,17.37206,78.50864,NO2,17,29,20
India,Telangana,Hyderabad,"Ramachandrapuram, Hyderabad - TSPCB",02-03-2024 21:00:00,17.528544,78.286195,PM2.5,NA,NA,NA
India,Telangana,Hyderabad,"Ramachandrapuram, Hyderabad - TSPCB",02-03-2024 21:00:00,17.528544,78.286195,NH3,NA,NA,NA
India,Telangana,Hyderabad,"Ramachandrapuram, Hyderabad - TSPCB",02-03-2024 21:00:00,17.528544,78.286195,SO2,NA,NA,NA
India,Telangana,Hyderabad,"Zoo Park, Hyderabad - TSPCB",02-03-2024 21:00:00,17.349694,78.451437,PM2.5,28,95,48
India,Tripura,Agartala,"Bardowali, Agartala - Tripura SPCB",02-03-2024 21:00:00,23.8175497,91.2726974,NH3,2,6,4
India,Tripura,Agartala,"Bardowali, Agartala - Tripura SPCB",02-03-2024 21:00:00,23.8175497,91.2726974,OZONE,1,54,27
India,Uttar_Pradesh,Agra,"Manoharpur, Agra - UPPCB",02-03-2024 21:00:00,27.23711,78.01936,NH3,2,3,2
India,Uttar_Pradesh,Agra,"Rohta, Agra - UPPCB",02-03-2024 21:00:00,27.106972,78.000111,OZONE,21,22,22
India,Uttar_Pradesh,Agra,"Shahjahan Garden, Agra - UPPCB",02-03-2024 21:00:00,27.169338,78.03582,NH3,11,12,11
India,Uttar_Pradesh,Bareilly,"Civil Lines, Bareilly - UPPCB",02-03-2024 21:00:00,28.359581,79.414455,PM2.5,14,49,33
India,Uttar_Pradesh,Bareilly,"Civil Lines, Bareilly - UPPCB",02-03-2024 21:00:00,28.359581,79.414455,SO2,41,43,42
India,Uttar_Pradesh,Bareilly,"Rajendra Nagar, Bareilly - UPPCB",02-03-2024 21:00:00,28.38910936,79.42963708,NO2,21,40,31
India,Uttar_Pradesh,Bulandshahr,"Yamunapuram, Bulandshahr - UPPCB",02-03-2024 21:00:00,28.406963,77.849831,PM10,32,132,52
India,Uttar_Pradesh,Bulandshahr,"Yamunapuram, Bulandshahr - UPPCB",02-03-2024 21:00:00,28.406963,77.849831,NO2,15,62,33
India,Uttar_Pradesh,Bulandshahr,"Yamunapuram, Bulandshahr - UPPCB",02-03-2024 21:00:00,28.406963,77.849831,OZONE,8,56,47
India,Uttar_Pradesh,Firozabad,"Vibhab Nagar, Firozabad - UPPCB",02-03-2024 21:00:00,27.1594,78.3953,PM2.5,22,44,31
India,Uttar_Pradesh,Ghaziabad,"Indirapuram, Ghaziabad - UPPCB",02-03-2024 21:00:00,28.646233,77.358075,PM2.5,11,82,28
India,Uttar_Pradesh,Ghaziabad,"Indirapuram, Ghaziabad - UPPCB",02-03-2024 21:00:00,28.646233,77.358075,NH3,8,10,9
India,Uttar_Pradesh,Ghaziabad,"Indirapuram, Ghaziabad - UPPCB",02-03-2024 21:00:00,28.646233,77.358075,OZONE,15,55,47
India,Uttar_Pradesh,Ghaziabad,"Loni, Ghaziabad - UPPCB",02-03-2024 21:00:00,28.757294,77.278792,PM2.5,25,202,68
India,Uttar_Pradesh,Ghaziabad,"Loni, Ghaziabad - UPPCB",02-03-2024 21:00:00,28.757294,77.278792,NH3,1,4,3
India,Uttar_Pradesh,Ghaziabad,"Vasundhara, Ghaziabad - UPPCB",02-03-2024 21:00:00,28.6603346,77.3572563,CO,19,50,35
India,Uttar_Pradesh,Gorakhpur,"Madan Mohan Malaviya University of Technology, Gorakhpur - UPPCB",02-03-2024 21:00:00,26.730136,83.433859,NH3,2,2,2
India,Uttar_Pradesh,Kanpur,"FTI Kidwai Nagar, Kanpur - UPPCB",02-03-2024 21:00:00,26.428282,80.327067,PM2.5,22,86,45
India,Uttar_Pradesh,Kanpur,"FTI Kidwai Nagar, Kanpur - UPPCB",02-03-2024 21:00:00,26.428282,80.327067,NH3,3,4,3
India,Uttar_Pradesh,Kanpur,"FTI Kidwai Nagar, Kanpur - UPPCB",02-03-2024 21:00:00,26.428282,80.327067,OZONE,3,14,8
India,Uttar_Pradesh,Kanpur,"NSI Kalyanpur, Kanpur - UPPCB",02-03-2024 21:00:00,26.509954,80.249612,OZONE,50,74,65
India,Uttar_Pradesh,Kanpur,"Nehru Nagar, Kanpur - UPPCB",02-03-2024 21:00:00,26.4703136,80.3229863,PM2.5,19,77,42
India,Uttar_Pradesh,Kanpur,"Nehru Nagar, Kanpur - UPPCB",02-03-2024 21:00:00,26.4703136,80.3229863,NO2,21,61,34
India,Uttar_Pradesh,Khurja,"Kalindi Kunj, Khurja - UPPCB",02-03-2024 21:00:00,28.2348927,77.8683002,NO2,11,16,12
India,Uttar_Pradesh,Khurja,"Kalindi Kunj, Khurja - UPPCB",02-03-2024 21:00:00,28.2348927,77.8683002,SO2,31,58,37
India,Uttar_Pradesh,Lucknow,"B R Ambedkar University, Lucknow - UPPCB",02-03-2024 21:00:00,26.766433,80.927299,PM2.5,33,90,61
India,Uttar_Pradesh,Lucknow,"B R Ambedkar University, Lucknow - UPPCB",02-03-2024 21:00:00,26.766433,80.927299,NO2,11,12,12
India,Uttar_Pradesh,Lucknow,"Gomti Nagar, Lucknow - UPPCB",02-03-2024 21:00:00,26.868120,81.005119,NO2,7,10,8
India,Uttar_Pradesh,Lucknow,"Kendriya Vidyalaya, Lucknow - CPCB",02-03-2024 21:00:00,26.906111,80.948222,PM10,62,148,88
India,Uttar_Pradesh,Lucknow,"Kendriya Vidyalaya, Lucknow - CPCB",02-03-2024 21:00:00,26.906111,80.948222,NO2,11,60,20
India,Uttar_Pradesh,Lucknow,"Kendriya Vidyalaya, Lucknow - CPCB",02-03-2024 21:00:00,26.906111,80.948222,SO2,5,10,8
India,Uttar_Pradesh,Lucknow,"Kendriya Vidyalaya, Lucknow - CPCB",02-03-2024 21:00:00,26.906111,80.948222,CO,1,102,25
India,Uttar_Pradesh,Lucknow,"Kukrail Picnic Spot-1, Lucknow - UPPCB",02-03-2024 21:00:00,26.90723,80.98579,PM10,34,97,51
India,Uttar_Pradesh,Lucknow,"Lalbagh, Lucknow - CPCB",02-03-2024 21:00:00,26.8458805,80.9365541,PM10,80,178,113
India,Uttar_Pradesh,Lucknow,"Lalbagh, Lucknow - CPCB",02-03-2024 21:00:00,26.8458805,80.9365541,CO,43,102,75
India,Uttar_Pradesh,Lucknow,"Lalbagh, Lucknow - CPCB",02-03-2024 21:00:00,26.8458805,80.9365541,OZONE,17,63,41
India,Uttar_Pradesh,Lucknow,"Talkatora District Industries Center, Lucknow - CPCB",02-03-2024 21:00:00,26.83399722,80.8917361,PM2.5,62,223,107
India,Uttar_Pradesh,Meerut,"Jai Bhim Nagar, Meerut - UPPCB",02-03-2024 21:00:00,28.9535882,77.7622941,PM2.5,19,89,47
India,Uttar_Pradesh,Meerut,"Jai Bhim Nagar, Meerut - UPPCB",02-03-2024 21:00:00,28.9535882,77.7622941,PM10,18,142,50
India,Uttar_Pradesh,Meerut,"Jai Bhim Nagar, Meerut - UPPCB",02-03-2024 21:00:00,28.9535882,77.7622941,NO2,9,35,19
India,Uttar_Pradesh,Meerut,"Jai Bhim Nagar, Meerut - UPPCB",02-03-2024 21:00:00,28.9535882,77.7622941,NH3,4,10,7
India,Uttar_Pradesh,Meerut,"Pallavpuram Phase 2, Meerut - UPPCB",02-03-2024 21:00:00,29.063510,77.709723,NH3,10,17,13
India,Uttar_Pradesh,Meerut,"Pallavpuram Phase 2, Meerut - UPPCB",02-03-2024 21:00:00,29.063510,77.709723,CO,35,74,40
India,Uttar_Pradesh,Moradabad,"Buddhi Vihar, Moradabad - UPPCB",02-03-2024 21:00:00,28.83526,78.74460,OZONE,13,29,23
India,Uttar_Pradesh,Moradabad,"Eco Herbal Park, Moradabad - UPPCB",02-03-2024 21:00:00,28.840739,78.697531,SO2,4,24,10
India,Uttar_Pradesh,Moradabad,"Eco Herbal Park, Moradabad - UPPCB",02-03-2024 21:00:00,28.840739,78.697531,CO,6,46,15
India,Uttar_Pradesh,Moradabad,"Employment Office, Moradabad - UPPCB",02-03-2024 21:00:00,28.88528,78.73880,PM2.5,NA,NA,NA
India,Uttar_Pradesh,Moradabad,"Employment Office, Moradabad - UPPCB",02-03-2024 21:00:00,28.88528,78.73880,PM10,NA,NA,NA
India,Uttar_Pradesh,Moradabad,"Employment Office, Moradabad - UPPCB",02-03-2024 21:00:00,28.88528,78.73880,NO2,NA,NA,NA
India,Uttar_Pradesh,Moradabad,"Jigar Colony, Moradabad - UPPCB",02-03-2024 21:00:00,28.856664,78.772638,NO2,17,25,23
India,Uttar_Pradesh,Moradabad,"Kashiram Nagar, Moradabad - UPPCB",02-03-2024 21:00:00,28.849399,78.742362,NO2,11,40,26
India,Uttar_Pradesh,Moradabad,"Transport Nagar, Moradabad - UPPCB",02-03-2024 21:00:00,28.802625,78.753728,PM10,NA,NA,NA
India,Uttar_Pradesh,Noida,"Sector - 62, Noida - IMD",02-03-2024 21:00:00,28.6245479,77.3577104,CO,15,26,16
India,Uttar_Pradesh,Noida,"Sector-1, Noida - UPPCB",02-03-2024 21:00:00,28.5898,77.3101,NO2,28,66,35
India,Uttar_Pradesh,Noida,"Sector-1, Noida - UPPCB",02-03-2024 21:00:00,28.5898,77.3101,NH3,5,6,6
India,Uttar_Pradesh,Noida,"Sector-1, Noida - UPPCB",02-03-2024 21:00:00,28.5898,77.3101,CO,15,37,24
India,Uttar_Pradesh,Noida,"Sector-116, Noida - UPPCB",02-03-2024 21:00:00,28.569230,77.393848,PM10,26,180,71
India,Uttar_Pradesh,Noida,"Sector-116, Noida - UPPCB",02-03-2024 21:00:00,28.569230,77.393848,OZONE,4,11,8
India,Uttar_Pradesh,Prayagraj,"Jhunsi, Prayagraj - UPPCB",02-03-2024 21:00:00,25.425602,81.917152,PM10,35,163,84
India,Uttar_Pradesh,Prayagraj,"Motilal Nehru NIT, Prayagraj - UPPCB",02-03-2024 21:00:00,25.494,81.863,NH3,5,7,7
India,Uttar_Pradesh,Prayagraj,"Motilal Nehru NIT, Prayagraj - UPPCB",02-03-2024 21:00:00,25.494,81.863,CO,11,53,17
India,Uttar_Pradesh,Prayagraj,"Motilal Nehru NIT, Prayagraj - UPPCB",02-03-2024 21:00:00,25.494,81.863,OZONE,5,58,24
India,Uttar_Pradesh,Varanasi,"Ardhali Bazar, Varanasi - UPPCB",02-03-2024 21:00:00,25.3505986,82.9083074,OZONE,21,35,23
India,Uttar_Pradesh,Varanasi,"Bhelupur, Varanasi - UPPCB",02-03-2024 21:00:00,25.301778,82.996789,NO2,8,8,8
India,Uttar_Pradesh,Varanasi,"Bhelupur, Varanasi - UPPCB",02-03-2024 21:00:00,25.301778,82.996789,NH3,1,2,2
India,Uttar_Pradesh,Varanasi,"Bhelupur, Varanasi - UPPCB",02-03-2024 21:00:00,25.301778,82.996789,CO,26,98,35
India,Uttar_Pradesh,Varanasi,"IESD Banaras Hindu University, Varanasi - UPPCB",02-03-2024 21:00:00,25.262326,82.995408,PM2.5,6,27,16
India,Uttar_Pradesh,Varanasi,"IESD Banaras Hindu University, Varanasi - UPPCB",02-03-2024 21:00:00,25.262326,82.995408,SO2,20,23,22
India,Uttar_Pradesh,Varanasi,"IESD Banaras Hindu University, Varanasi - UPPCB",02-03-2024 21:00:00,25.262326,82.995408,OZONE,9,19,16
India,Uttar_Pradesh,Vrindavan,"Omex Eternity, Vrindavan - UPPCB",02-03-2024 21:00:00,27.5714090,77.6557570,NO2,2,3,3
India,Uttar_Pradesh,Vrindavan,"Omex Eternity, Vrindavan - UPPCB",02-03-2024 21:00:00,27.5714090,77.6557570,CO,28,36,31
India,Uttarakhand,Dehradun,"Doon University, Dehradun - UKPCB",02-03-2024 21:00:00,30.269444,78.044167,CO,20,49,22
India,Uttarakhand,Kashipur,"Govt. Girls Inter College, Kashipur - UKPCB",02-03-2024 21:00:00,29.2124114,78.9611753,CO,16,102,29
India,Uttarakhand,Rishikesh,"Shivaji Nagar, Rishikesh - UKPCB",02-03-2024 21:00:00,30.075911,78.2859547,NO2,6,22,14
India,Uttarakhand,Rishikesh,"Shivaji Nagar, Rishikesh - UKPCB",02-03-2024 21:00:00,30.075911,78.2859547,NH3,2,4,3
India,West_Bengal,Asansol,"Asansol Court Area, Asansol - WBPCB",02-03-2024 21:00:00,23.685297,86.945968,CO,12,70,26
India,West_Bengal,Barrackpore,"SVSPA Campus, Barrackpore - WBPCB",02-03-2024 21:00:00,22.7605581,88.3617589,PM10,96,161,134
India,West_Bengal,Barrackpore,"SVSPA Campus, Barrackpore - WBPCB",02-03-2024 21:00:00,22.7605581,88.3617589,NO2,13,74,35
India,West_Bengal,Barrackpore,"SVSPA Campus, Barrackpore - WBPCB",02-03-2024 21:00:00,22.7605581,88.3617589,NH3,3,6,4
India,West_Bengal,Barrackpore,"SVSPA Campus, Barrackpore - WBPCB",02-03-2024 21:00:00,22.7605581,88.3617589,SO2,11,19,14
India,West_Bengal,Haldia,"Priyambada Housing Estate, Haldia - WBPCB",02-03-2024 21:00:00,22.06047,88.109737,PM2.5,49,118,70
India,West_Bengal,Haldia,"Priyambada Housing Estate, Haldia - WBPCB",02-03-2024 21:00:00,22.06047,88.109737,PM10,83,198,112
India,West_Bengal,Haldia,"Priyambada Housing Estate, Haldia - WBPCB",02-03-2024 21:00:00,22.06047,88.109737,OZONE,4,123,58
India,West_Bengal,Howrah,"Belur Math, Howrah - WBPCB",02-03-2024 21:00:00,22.629801,88.352017,PM2.5,90,254,134
India,West_Bengal,Howrah,"Belur Math, Howrah - WBPCB",02-03-2024 21:00:00,22.629801,88.352017,SO2,9,15,13
India,West_Bengal,Howrah,"Ghusuri, Howrah - WBPCB",02-03-2024 21:00:00,22.611968,88.347422,SO2,5,8,6
India,West_Bengal,Howrah,"Ghusuri, Howrah - WBPCB",02-03-2024 21:00:00,22.611968,88.347422,CO,2,54,19
India,West_Bengal,Howrah,"Ghusuri, Howrah - WBPCB",02-03-2024 21:00:00,22.611968,88.347422,OZONE,13,29,23
India,West_Bengal,Howrah,"Padmapukur, Howrah - WBPCB",02-03-2024 21:00:00,22.5687319,88.2797276,NH3,10,41,19
India,West_Bengal,Kolkata,"Ballygunge, Kolkata - WBPCB",02-03-2024 21:00:00,22.5367507,88.3638022,PM10,118,157,131
India,West_Bengal,Kolkata,"Ballygunge, Kolkata - WBPCB",02-03-2024 21:00:00,22.5367507,88.3638022,NO2,28,153,77
India,West_Bengal,Kolkata,"Bidhannagar, Kolkata - WBPCB",02-03-2024 21:00:00,22.58157048,88.41002457,NH3,9,11,10
India,West_Bengal,Kolkata,"Fort William, Kolkata - WBPCB",02-03-2024 21:00:00,22.556640,88.342674,NH3,5,9,6
India,West_Bengal,Kolkata,"Jadavpur, Kolkata - WBPCB",02-03-2024 21:00:00,22.49929,88.36917,NO2,2,18,6
India,West_Bengal,Kolkata,"Jadavpur, Kolkata - WBPCB",02-03-2024 21:00:00,22.49929,88.36917,NH3,3,5,4
India,West_Bengal,Kolkata,"Jadavpur, Kolkata - WBPCB",02-03-2024 21:00:00,22.49929,88.36917,OZONE,12,133,80
India,West_Bengal,Kolkata,"Rabindra Sarobar, Kolkata - WBPCB",02-03-2024 21:00:00,22.51106,88.35142,PM10,86,117,108
India,Andhra_Pradesh,Amaravati,"Secretariat, Amaravati - APPCB",02-03-2024 21:00:00,16.5150833,80.5181667,NH3,2,5,4
India,Andhra_Pradesh,Amaravati,"Secretariat, Amaravati - APPCB",02-03-2024 21:00:00,16.5150833,80.5181667,SO2,11,18,14
India,Andhra_Pradesh,Anantapur,"Gulzarpet, Anantapur - APPCB",02-03-2024 21:00:00,14.675886,77.593027,PM2.5,29,62,42
India,Andhra_Pradesh,Anantapur,"Gulzarpet, Anantapur - APPCB",02-03-2024 21:00:00,14.675886,77.593027,PM10,57,108,77
India,Andhra_Pradesh,Chittoor,"Gangineni Cheruvu, Chittoor - APPCB",02-03-2024 21:00:00,13.204880,79.097889,PM10,NA,NA,NA
India,Andhra_Pradesh,Chittoor,"Gangineni Cheruvu, Chittoor - APPCB",02-03-2024 21:00:00,13.204880,79.097889,NH3,NA,NA,NA
India,Andhra_Pradesh,Chittoor,"Gangineni Cheruvu, Chittoor - APPCB",02-03-2024 21:00:00,13.204880,79.097889,CO,57,75,63
India,Andhra_Pradesh,Rajamahendravaram,"Anand Kala Kshetram, Rajamahendravaram - APPCB",02-03-2024 21:00:00,16.9872867,81.7363176,NH3,4,6,4
India,Andhra_Pradesh,Rajamahendravaram,"Anand Kala Kshetram, Rajamahendravaram - APPCB",02-03-2024 21:00:00,16.9872867,81.7363176,SO2,11,12,12
India,Andhra_Pradesh,Rajamahendravaram,"Anand Kala Kshetram, Rajamahendravaram - APPCB",02-03-2024 21:00:00,16.9872867,81.7363176,OZONE,19,50,40
India,Andhra_Pradesh,Tirupati,"Tirumala, Tirupati - APPCB",02-03-2024 21:00:00,13.67,79.35,NH3,1,2,1
India,Andhra_Pradesh,Tirupati,"Vaikuntapuram, Tirupati - APPCB",02-03-2024 21:00:00,13.615387,79.409230,NO2,15,28,20
India,Andhra_Pradesh,Tirupati,"Vaikuntapuram, Tirupati - APPCB",02-03-2024 21:00:00,13.615387,79.409230,OZONE,4,45,39
India,Andhra_Pradesh,Vijayawada,"Kanuru, Vijayawada - APPCB",02-03-2024 21:00:00,16.486692,80.699436,NH3,1,1,1
India,Andhra_Pradesh,Vijayawada,"Kanuru, Vijayawada - APPCB",02-03-2024 21:00:00,16.486692,80.699436,SO2,6,11,9
India,Andhra_Pradesh,Vijayawada,"Rajiv Gandhi Park, Vijayawada - APPCB",02-03-2024 21:00:00,16.509717,80.612222,NH3,4,7,6
India,Andhra_Pradesh,Vijayawada,"Rajiv Nagar, Vijayawada - APPCB",02-03-2024 21:00:00,16.554731,80.649110,NO2,4,13,9
India,Andhra_Pradesh,Vijayawada,"Rajiv Nagar, Vijayawada - APPCB",02-03-2024 21:00:00,16.554731,80.649110,CO,48,48,48
India,Andhra_Pradesh,Vijayawada,"Rajiv Nagar, Vijayawada - APPCB",02-03-2024 21:00:00,16.554731,80.649110,OZONE,12,35,23
India,Andhra_Pradesh,Visakhapatnam,"GVM Corporation, Visakhapatnam - APPCB",02-03-2024 21:00:00,17.72,83.3,SO2,9,18,13
India,Andhra_Pradesh,Visakhapatnam,"GVM Corporation, Visakhapatnam - APPCB",02-03-2024 21:00:00,17.72,83.3,OZONE,8,29,11
India,Assam,Byrnihat,"Central Academy for SFS, Byrnihat - PCBA",02-03-2024 21:00:00,26.071318,91.87488,PM2.5,NA,NA,NA
India,Assam,Byrnihat,"Central Academy for SFS, Byrnihat - PCBA",02-03-2024 21:00:00,26.071318,91.87488,PM10,NA,NA,NA
India,Assam,Byrnihat,"Central Academy for SFS, Byrnihat - PCBA",02-03-2024 21:00:00,26.071318,91.87488,CO,32,80,50
India,Assam,Guwahati,"IITG, Guwahati - PCBA",02-03-2024 21:00:00,26.2028636,91.70046436,PM2.5,NA,NA,NA
India,Assam,Guwahati,"IITG, Guwahati - PCBA",02-03-2024 21:00:00,26.2028636,91.70046436,PM10,109,243,166
India,Assam,Guwahati,"IITG, Guwahati - PCBA",02-03-2024 21:00:00,26.2028636,91.70046436,NO2,1,16,8
India,Assam,Guwahati,"IITG, Guwahati - PCBA",02-03-2024 21:00:00,26.2028636,91.70046436,OZONE,1,27,17
India,Assam,Guwahati,"Pan Bazaar, Guwahati - PCBA",02-03-2024 21:00:00,26.187500,91.744194,PM10,123,338,201
India,Assam,Guwahati,"Railway Colony, Guwahati - PCBA",02-03-2024 21:00:00,26.181742,91.78063,PM10,91,419,193
India,Assam,Nalbari,"Bata Chowk, Nalbari - PCBA",02-03-2024 21:00:00,26.446912,91.439057,SO2,3,8,4
India,Assam,Silchar,"Tarapur, Silchar - PCBA",02-03-2024 21:00:00,24.82827,92.79525,OZONE,1,16,6
India,Bihar,Araria,"Kharahiya Basti, Araria - BSPCB",02-03-2024 21:00:00,26.146529,87.454184,PM10,89,400,175
India,Bihar,Araria,"Kharahiya Basti, Araria - BSPCB",02-03-2024 21:00:00,26.146529,87.454184,NO2,6,8,7
India,Bihar,Araria,"Kharahiya Basti, Araria - BSPCB",02-03-2024 21:00:00,26.146529,87.454184,SO2,13,17,15
India,Bihar,Arrah,"New DM Office, Arrah - BSPCB",02-03-2024 21:00:00,25.5626095,84.663264,NH3,4,7,6
India,Bihar,Arrah,"New DM Office, Arrah - BSPCB",02-03-2024 21:00:00,25.5626095,84.663264,SO2,11,21,18
India,Bihar,Arrah,"New DM Office, Arrah - BSPCB",02-03-2024 21:00:00,25.5626095,84.663264,OZONE,10,40,16
India,Bihar,Aurangabad,"Gurdeo Nagar, Aurangabad - BSPCB",02-03-2024 21:00:00,24.75746,84.366208,SO2,5,12,9
India,Bihar,Aurangabad,"Gurdeo Nagar, Aurangabad - BSPCB",02-03-2024 21:00:00,24.75746,84.366208,CO,12,70,46
India,Bihar,Bettiah,"Kamalnath Nagar, Bettiah - BSPCB",02-03-2024 21:00:00,26.80365,84.51954,SO2,10,23,18
India,Bihar,Bhagalpur,"DM Office_Kachari Chowk, Bhagalpur - BSPCB",02-03-2024 21:00:00,25.251013,86.989001,NO2,32,116,59
India,Bihar,Bihar Sharif,"D M Colony, Bihar Sharif - BSPCB",02-03-2024 21:00:00,25.204762,85.514960,PM10,19,99,69
India,Bihar,Bihar Sharif,"D M Colony, Bihar Sharif - BSPCB",02-03-2024 21:00:00,25.204762,85.514960,NO2,8,10,9
India,Bihar,Chhapra,"Darshan Nagar, Chhapra - BSPCB",02-03-2024 21:00:00,25.7808257,84.7446768,OZONE,1,45,29
India,Bihar,Gaya,"Kareemganj, Gaya - BSPCB",02-03-2024 21:00:00,24.792403,84.992416,PM10,43,279,112
India,Bihar,Gaya,"Kareemganj, Gaya - BSPCB",02-03-2024 21:00:00,24.792403,84.992416,SO2,5,12,9
India,Bihar,Hajipur,"Industrial Area, Hajipur - BSPCB",02-03-2024 21:00:00,25.697189,85.245900,PM2.5,34,170,82
India,Bihar,Hajipur,"Industrial Area, Hajipur - BSPCB",02-03-2024 21:00:00,25.697189,85.245900,OZONE,4,11,8
India,Bihar,Katihar,"Mirchaibari, Katihar - BSPCB",02-03-2024 21:00:00,25.560083,87.553265,CO,13,13,13
India,Bihar,Kishanganj,"SDM Office_Khagra, Kishanganj - BSPCB",02-03-2024 21:00:00,26.0881305,87.93840336,PM2.5,NA,NA,NA
India,Bihar,Kishanganj,"SDM Office_Khagra, Kishanganj - BSPCB",02-03-2024 21:00:00,26.0881305,87.93840336,PM10,119,421,205
India,Bihar,Manguraha,"Forest Rest House, Manguraha - BSPCB",02-03-2024 21:00:00,27.308328,84.531742,PM2.5,NA,NA,NA
India,Bihar,Manguraha,"Forest Rest House, Manguraha - BSPCB",02-03-2024 21:00:00,27.308328,84.531742,PM10,NA,NA,NA
India,Bihar,Manguraha,"Forest Rest House, Manguraha - BSPCB",02-03-2024 21:00:00,27.308328,84.531742,NH3,1,1,1
India,Bihar,Munger,"Town Hall, Munger - BSPCB",02-03-2024 21:00:00,25.376776,86.471523,NH3,1,2,2
India,Bihar,Munger,"Town Hall, Munger - BSPCB",02-03-2024 21:00:00,25.376776,86.471523,CO,61,66,62
India,Bihar,Munger,"Town Hall, Munger - BSPCB",02-03-2024 21:00:00,25.376776,86.471523,OZONE,9,14,11
India,Bihar,Muzaffarpur,"MIT-Daudpur Kothi, Muzaffarpur - BSPCB",02-03-2024 21:00:00,26.1403345,85.3650192,PM2.5,NA,NA,NA
India,Bihar,Muzaffarpur,"MIT-Daudpur Kothi, Muzaffarpur - BSPCB",02-03-2024 21:00:00,26.1403345,85.3650192,NO2,1,61,12
India,Bihar,Muzaffarpur,"MIT-Daudpur Kothi, Muzaffarpur - BSPCB",02-03-2024 21:00:00,26.1403345,85.3650192,SO2,9,44,15
India,Bihar,Patna,"DRM Office Danapur, Patna - BSPCB",02-03-2024 21:00:00,25.586562,85.043586,PM10,89,290,191
India,Bihar,Patna,"DRM Office Danapur, Patna - BSPCB",02-03-2024 21:00:00,25.586562,85.043586,NO2,9,70,36
India,Bihar,Patna,"DRM Office Danapur, Patna - BSPCB",02-03-2024 21:00:00,25.586562,85.043586,OZONE,1,62,59
India,Bihar,Patna,"Govt. High School Shikarpur, Patna - BSPCB",02-03-2024 21:00:00,25.592539,85.227158,PM10,111,244,151
India,Bihar,Patna,"Govt. High School Shikarpur, Patna - BSPCB",02-03-2024 21:00:00,25.592539,85.227158,OZONE,56,74,65
India,Bihar,Patna,"Muradpur, Patna - BSPCB",02-03-2024 21:00:00,25.619651,85.147382,PM2.5,87,340,229
India,Bihar,Patna,"Muradpur, Patna - BSPCB",02-03-2024 21:00:00,25.619651,85.147382,CO,28,129,36
India,Bihar,Patna,"Rajbansi Nagar, Patna - BSPCB",02-03-2024 21:00:00,25.599486,85.113666,SO2,11,22,17
India,Bihar,Patna,"Samanpura, Patna - BSPCB",02-03-2024 21:00:00,25.596727,85.085624,NO2,24,108,69
India,Bihar,Purnia,"Mariam Nagar, Purnia - BSPCB",02-03-2024 21:00:00,25.366336,87.117468,PM10,83,290,143
India,Bihar,Purnia,"Mariam Nagar, Purnia - BSPCB",02-03-2024 21:00:00,25.366336,87.117468,NO2,12,13,13
India,Bihar,Purnia,"Mariam Nagar, Purnia - BSPCB",02-03-2024 21:00:00,25.366336,87.117468,CO,24,109,35
India,Bihar,Purnia,"Mariam Nagar, Purnia - BSPCB",02-03-2024 21:00:00,25.366336,87.117468,OZONE,5,42,30
India,Bihar,Saharsa,"Police Line, Saharsa - BSPCB",02-03-2024 21:00:00,25.892357,86.590325,NO2,5,8,7
India,Bihar,Saharsa,"Police Line, Saharsa - BSPCB",02-03-2024 21:00:00,25.892357,86.590325,NH3,9,9,9
India,Bihar,Samastipur,"DM Office_Kasipur, Samastipur - BSPCB",02-03-2024 21:00:00,25.859655,85.77944,OZONE,9,61,45
India,Bihar,Siwan,"Chitragupta Nagar, Siwan - BSPCB",02-03-2024 21:00:00,26.2271665,84.3570427,SO2,19,36,32
India,Chandigarh,Chandigarh,"Sector 22, Chandigarh - CPCC",02-03-2024 21:00:00,30.735567,76.775714,OZONE,9,92,72
India,Chandigarh,Chandigarh,"Sector-25, Chandigarh - CPCC",02-03-2024 21:00:00,30.751462,76.762879,NH3,18,39,21
India,Chandigarh,Chandigarh,"Sector-25, Chandigarh - CPCC",02-03-2024 21:00:00,30.751462,76.762879,OZONE,1,73,28
India,Chandigarh,Chandigarh,"Sector-53, Chandigarh - CPCC",02-03-2024 21:00:00,30.719859,76.738637,SO2,10,28,17
India,Chhattisgarh,Bhilai,"Civic Center, Bhilai - Bhilai Steel Plant",02-03-2024 21:00:00,21.185571,81.343175,PM2.5,21,37,30
India,Chhattisgarh,Bhilai,"Civic Center, Bhilai - Bhilai Steel Plant",02-03-2024 21:00:00,21.185571,81.343175,SO2,7,12,10
India,Chhattisgarh,Bhilai,"Hathkhoj, Bhilai - CECB",02-03-2024 21:00:00,21.224231,81.408350,PM2.5,40,127,81
India,Chhattisgarh,Bhilai,"Hathkhoj, Bhilai - CECB",02-03-2024 21:00:00,21.224231,81.408350,NO2,16,59,37
India,Chhattisgarh,Bhilai,"Hathkhoj, Bhilai - CECB",02-03-2024 21:00:00,21.224231,81.408350,SO2,13,46,21
India,Chhattisgarh,Bhilai,"Hathkhoj, Bhilai - CECB",02-03-2024 21:00:00,21.224231,81.408350,CO,18,52,24
India,Chhattisgarh,Chhal,"Nawapara SECL Colony, Chhal - CECB",02-03-2024 21:00:00,22.118125,83.140608,NO2,14,48,25
India,Chhattisgarh,Chhal,"Nawapara SECL Colony, Chhal - CECB",02-03-2024 21:00:00,22.118125,83.140608,SO2,12,43,23
India,Chhattisgarh,Chhal,"Nawapara SECL Colony, Chhal - CECB",02-03-2024 21:00:00,22.118125,83.140608,CO,26,46,31
India,Chhattisgarh,Korba,"Rampur, Korba - CECB",02-03-2024 21:00:00,22.368195,82.746431,NH3,2,7,4
India,Chhattisgarh,Korba,"Urja Nagar, Korba - CECB",02-03-2024 21:00:00,22.348441,82.549611,NH3,2,10,6
India,Chhattisgarh,Korba,"Urja Nagar, Korba - CECB",02-03-2024 21:00:00,22.348441,82.549611,SO2,2,4,3
India,Chhattisgarh,Raipur,"Bhatagaon New ISBT, Raipur - CECB",02-03-2024 21:00:00,21.219665,81.630094,SO2,4,7,5
India,Chhattisgarh,Raipur,"Bhatagaon New ISBT, Raipur - CECB",02-03-2024 21:00:00,21.219665,81.630094,CO,26,53,31
India,Chhattisgarh,Raipur,"Krishak Nagar, Raipur - CECB",02-03-2024 21:00:00,21.237755,81.705301,PM10,39,105,69
India,Chhattisgarh,Raipur,"Siltara Phase-II, Raipur - CECB",02-03-2024 21:00:00,21.371751,81.664929,PM10,81,177,122
India,Chhattisgarh,Raipur,"Siltara Phase-II, Raipur - CECB",02-03-2024 21:00:00,21.371751,81.664929,CO,32,74,39
India,Chhattisgarh,Tumidih,"OP Jindal Industrial Park, Tumidih - CECB",02-03-2024 21:00:00,22.06631475,83.33820077,PM10,25,201,87
India,Chhattisgarh,Tumidih,"OP Jindal Industrial Park, Tumidih - CECB",02-03-2024 21:00:00,22.06631475,83.33820077,NO2,7,29,18
India,Delhi,Delhi,"Alipur, Delhi - DPCC",02-03-2024 21:00:00,28.815329,77.153010,PM2.5,12,179,61
India,Delhi,Delhi,"Anand Vihar, Delhi - DPCC",02-03-2024 21:00:00,28.647622,77.3158090,CO,56,90,61
India,Delhi,Delhi,"Aya Nagar, Delhi - IMD",02-03-2024 21:00:00,28.4706914,77.1099364,PM2.5,3,175,94
India,Delhi,Delhi,"Aya Nagar, Delhi - IMD",02-03-2024 21:00:00,28.4706914,77.1099364,OZONE,17,37,29
India,Delhi,Delhi,"Bawana, Delhi - DPCC",02-03-2024 21:00:00,28.776200,77.051074,PM10,44,305,110
India,Delhi,Delhi,"Bawana, Delhi - DPCC",02-03-2024 21:00:00,28.776200,77.051074,NH3,6,10,8
India,Delhi,Delhi,"Burari Crossing, Delhi - IMD",02-03-2024 21:00:00,28.7256504,77.2011573,PM10,22,199,83
India,Delhi,Delhi,"Chandni Chowk, Delhi - IITM",02-03-2024 21:00:00,28.656756,77.227234,OZONE,14,51,19
India,Delhi,Delhi,"Dwarka-Sector 8, Delhi - DPCC ",02-03-2024 21:00:00,28.5710274,77.0719006,CO,24,52,28
India,Delhi,Delhi,"Dwarka-Sector 8, Delhi - DPCC ",02-03-2024 21:00:00,28.5710274,77.0719006,OZONE,12,47,40
India,Delhi,Delhi,"IHBAS, Dilshad Garden, Delhi - CPCB",02-03-2024 21:00:00,28.6811736,77.3025234,PM10,43,140,84
India,Delhi,Delhi,"ITO, Delhi - CPCB",02-03-2024 21:00:00,28.628624,77.241060,PM2.5,63,237,116
India,Delhi,Delhi,"ITO, Delhi - CPCB",02-03-2024 21:00:00,28.628624,77.241060,OZONE,14,22,19
India,Delhi,Delhi,"Jawaharlal Nehru Stadium, Delhi - DPCC",02-03-2024 21:00:00,28.580280,77.233829,NO2,35,112,55
India,Delhi,Delhi,"Lodhi Road, Delhi - IITM",02-03-2024 21:00:00,28.588333,77.221667,NH3,NA,NA,NA
India,Delhi,Delhi,"Lodhi Road, Delhi - IMD",02-03-2024 21:00:00,28.5918245,77.2273074,NO2,2,13,5
India,Delhi,Delhi,"Major Dhyan Chand National Stadium, Delhi - DPCC",02-03-2024 21:00:00,28.611281,77.237738,NO2,25,118,50
India,Delhi,Delhi,"Major Dhyan Chand National Stadium, Delhi - DPCC",02-03-2024 21:00:00,28.611281,77.237738,OZONE,9,73,60
India,Delhi,Delhi,"Mandir Marg, Delhi - DPCC",02-03-2024 21:00:00,28.636429,77.201067,CO,28,64,59
India,Delhi,Delhi,"Mundka, Delhi - DPCC",02-03-2024 21:00:00,28.684678,77.076574,PM10,68,241,124
India,Delhi,Delhi,"NSIT Dwarka, Delhi - CPCB",02-03-2024 21:00:00,28.60909,77.0325413,PM2.5,43,230,91
India,Delhi,Delhi,"NSIT Dwarka, Delhi - CPCB",02-03-2024 21:00:00,28.60909,77.0325413,PM10,47,185,104
India,Delhi,Delhi,"NSIT Dwarka, Delhi - CPCB",02-03-2024 21:00:00,28.60909,77.0325413,NH3,12,14,13
India,Delhi,Delhi,"NSIT Dwarka, Delhi - CPCB",02-03-2024 21:00:00,28.60909,77.0325413,SO2,12,22,16
India,Delhi,Delhi,"Najafgarh, Delhi - DPCC",02-03-2024 21:00:00,28.570173,76.933762,CO,16,114,74
India,Delhi,Delhi,"Najafgarh, Delhi - DPCC",02-03-2024 21:00:00,28.570173,76.933762,OZONE,42,93,75
India,Delhi,Delhi,"Narela, Delhi - DPCC",02-03-2024 21:00:00,28.822836,77.101981,NH3,4,19,10
India,Delhi,Delhi,"Nehru Nagar, Delhi - DPCC",02-03-2024 21:00:00,28.567890,77.250515,PM2.5,34,172,69
India,Delhi,Delhi,"Nehru Nagar, Delhi - DPCC",02-03-2024 21:00:00,28.567890,77.250515,NO2,22,52,30
India,Delhi,Delhi,"Nehru Nagar, Delhi - DPCC",02-03-2024 21:00:00,28.567890,77.250515,NH3,8,13,11
India,Delhi,Delhi,"New Moti Bagh, Delhi - MHUA",02-03-2024 21:00:00,28.57834,77.18400,PM2.5,40,316,119
India,Delhi,Delhi,"New Moti Bagh, Delhi - MHUA",02-03-2024 21:00:00,28.57834,77.18400,NO2,1,3,1
India,Delhi,Delhi,"New Moti Bagh, Delhi - MHUA",02-03-2024 21:00:00,28.57834,77.18400,CO,14,46,16
India,Delhi,Delhi,"North Campus, DU, Delhi - IMD",02-03-2024 21:00:00,28.6573814,77.1585447,CO,NA,NA,NA
India,Delhi,Delhi,"Okhla Phase-2, Delhi - DPCC",02-03-2024 21:00:00,28.530785,77.271255,PM10,47,178,104
India,Delhi,Delhi,"Okhla Phase-2, Delhi - DPCC",02-03-2024 21:00:00,28.530785,77.271255,NO2,27,85,45
India,Delhi,Delhi,"Okhla Phase-2, Delhi - DPCC",02-03-2024 21:00:00,28.530785,77.271255,NH3,8,10,9
India,Delhi,Delhi,"Okhla Phase-2, Delhi - DPCC",02-03-2024 21:00:00,28.530785,77.271255,SO2,7,10,8
India,Delhi,Delhi,"Punjabi Bagh, Delhi - DPCC",02-03-2024 21:00:00,28.674045,77.131023,PM2.5,37,198,72
India,Delhi,Delhi,"Punjabi Bagh, Delhi - DPCC",02-03-2024 21:00:00,28.674045,77.131023,NO2,6,36,18
India,Delhi,Delhi,"Punjabi Bagh, Delhi - DPCC",02-03-2024 21:00:00,28.674045,77.131023,SO2,15,28,23
India,Delhi,Delhi,"R K Puram, Delhi - DPCC",02-03-2024 21:00:00,28.563262,77.186937,CO,18,57,23
India,Delhi,Delhi,"Rohini, Delhi - DPCC",02-03-2024 21:00:00,28.732528,77.119920,PM10,47,286,129
India,Delhi,Delhi,"Rohini, Delhi - DPCC",02-03-2024 21:00:00,28.732528,77.119920,CO,14,76,24
India,Delhi,Delhi,"Rohini, Delhi - DPCC",02-03-2024 21:00:00,28.732528,77.119920,OZONE,10,58,41
India,Delhi,Delhi,"Shadipur, Delhi - CPCB",02-03-2024 21:00:00,28.6514781,77.1473105,SO2,9,16,13
India,Delhi,Delhi,"Shadipur, Delhi - CPCB",02-03-2024 21:00:00,28.6514781,77.1473105,OZONE,9,37,28
India,Delhi,Delhi,"Sirifort, Delhi - CPCB",02-03-2024 21:00:00,28.5504249,77.2159377,OZONE,20,93,66
India,Delhi,Delhi,"Vivek Vihar, Delhi - DPCC",02-03-2024 21:00:00,28.672342,77.315260,OZONE,8,30,14
India,Gujarat,Ahmedabad,"Chandkheda, Ahmedabad - IITM",02-03-2024 21:00:00,23.107969,72.574648,PM10,69,140,94
India,Gujarat,Ahmedabad,"Chandkheda, Ahmedabad - IITM",02-03-2024 21:00:00,23.107969,72.574648,SO2,5,10,7
India,Gujarat,Ahmedabad,"Gyaspur, Ahmedabad - IITM",02-03-2024 21:00:00,22.977134,72.553024,PM10,31,150,77
India,Gujarat,Ahmedabad,"Gyaspur, Ahmedabad - IITM",02-03-2024 21:00:00,22.977134,72.553024,SO2,4,9,5
India,Gujarat,Ahmedabad,"Gyaspur, Ahmedabad - IITM",02-03-2024 21:00:00,22.977134,72.553024,OZONE,2,14,8
India,Gujarat,Ahmedabad,"Maninagar, Ahmedabad - GPCB",02-03-2024 21:00:00,23.002657,72.591912,SO2,1,59,24
India,Gujarat,Ahmedabad,"Raikhad, Ahmedabad - IITM",02-03-2024 21:00:00,23.020509,72.579261,PM2.5,71,303,115
India,Gujarat,Ahmedabad,"Rakhial, Ahmedabad - IITM",02-03-2024 21:00:00,23.016834,72.625775,NO2,120,419,220
India,Gujarat,Ahmedabad,"SAC ISRO Bopal, Ahmedabad - IITM",02-03-2024 21:00:00,23.041137,72.456691,PM2.5,32,96,65
India,Gujarat,Ahmedabad,"SAC ISRO Satellite, Ahmedabad - IITM",02-03-2024 21:00:00,23.023389,72.515201,PM10,91,107,98
India,Gujarat,Ahmedabad,"SAC ISRO Satellite, Ahmedabad - IITM",02-03-2024 21:00:00,23.023389,72.515201,NO2,17,17,17
India,Gujarat,Ahmedabad,"SAC ISRO Satellite, Ahmedabad - IITM",02-03-2024 21:00:00,23.023389,72.515201,OZONE,10,25,17
India,Gujarat,Ahmedabad,"SVPI Airport Hansol, Ahmedabad - IITM",02-03-2024 21:00:00,23.076793,72.627874,PM10,81,182,114
India,Gujarat,Ahmedabad,"Sardar Vallabhbhai Patel Stadium, Ahmedabad - IITM",02-03-2024 21:00:00,23.043070,72.562968,PM10,61,218,103
India,Gujarat,Ankleshwar,"GIDC, Ankleshwar - GPCB",02-03-2024 21:00:00,21.613267,73.010555,NH3,NA,NA,NA
India,Gujarat,Ankleshwar,"GIDC, Ankleshwar - GPCB",02-03-2024 21:00:00,21.613267,73.010555,SO2,NA,NA,NA
India,Gujarat,Gandhinagar,"IIPHG Lekawada, Gandhinagar - IITM",02-03-2024 21:00:00,23.243639,72.68994,PM10,55,123,87
India,Gujarat,Gandhinagar,"IIPHG Lekawada, Gandhinagar - IITM",02-03-2024 21:00:00,23.243639,72.68994,SO2,11,11,11
India,Gujarat,Gandhinagar,"IIPHG Lekawada, Gandhinagar - IITM",02-03-2024 21:00:00,23.243639,72.68994,CO,NA,NA,NA
India,Gujarat,Vapi,"Phase-1 GIDC, Vapi - GPCB",02-03-2024 21:00:00,20.362421,72.918013,NH3,8,10,9
India,Gujarat,Vapi,"Phase-1 GIDC, Vapi - GPCB",02-03-2024 21:00:00,20.362421,72.918013,SO2,46,48,47
India,Gujarat,Vatva,"Phase-4 GIDC, Vatva - GPCB",02-03-2024 21:00:00,22.969611,72.643500,SO2,17,17,17
India,Gujarat,Vatva,"Phase-4 GIDC, Vatva - GPCB",02-03-2024 21:00:00,22.969611,72.643500,CO,32,111,51
India,Haryana,Ambala,"Patti Mehar, Ambala - HSPCB",02-03-2024 21:00:00,30.379589,76.778328,PM2.5,5,49,18
India,Haryana,Bahadurgarh,"Arya Nagar, Bahadurgarh - HSPCB",02-03-2024 21:00:00,28.6701,76.9254,PM2.5,31,136,66
India,Haryana,Bahadurgarh,"Arya Nagar, Bahadurgarh - HSPCB",02-03-2024 21:00:00,28.6701,76.9254,NH3,10,12,11
India,Haryana,Ballabgarh,"Nathu Colony, Ballabgarh - HSPCB",02-03-2024 21:00:00,28.3419248,77.319699,PM10,52,108,72
India,Haryana,Ballabgarh,"Nathu Colony, Ballabgarh - HSPCB",02-03-2024 21:00:00,28.3419248,77.319699,NO2,11,14,12
India,Haryana,Ballabgarh,"Nathu Colony, Ballabgarh - HSPCB",02-03-2024 21:00:00,28.3419248,77.319699,NH3,1,2,2
India,Haryana,Bhiwani,"H.B. Colony, Bhiwani - HSPCB",02-03-2024 21:00:00,28.806223,76.141105,PM2.5,36,104,64
India,Haryana,Bhiwani,"H.B. Colony, Bhiwani - HSPCB",02-03-2024 21:00:00,28.806223,76.141105,NO2,8,33,17
India,Haryana,Dharuhera,"Municipal Corporation Office, Dharuhera -  HSPCB",02-03-2024 21:00:00,28.206800,76.799700,SO2,NA,NA,NA
India,Haryana,Faridabad,"New Industrial Town, Faridabad - HSPCB",02-03-2024 21:00:00,28.39072,77.30059,PM10,NA,NA,NA
India,Haryana,Faridabad,"New Industrial Town, Faridabad - HSPCB",02-03-2024 21:00:00,28.39072,77.30059,SO2,NA,NA,NA
India,Haryana,Faridabad,"Sector 11, Faridabad - HSPCB",02-03-2024 21:00:00,28.376058,77.315741,PM10,24,170,89
India,Haryana,Faridabad,"Sector 11, Faridabad - HSPCB",02-03-2024 21:00:00,28.376058,77.315741,SO2,NA,NA,NA
India,Haryana,Faridabad,"Sector 30, Faridabad - HSPCB",02-03-2024 21:00:00,28.4417,77.3217,OZONE,7,28,24
India,Haryana,Fatehabad,"Huda Sector, Fatehabad - HSPCB",02-03-2024 21:00:00,29.503664,75.467934,CO,5,12,7
India,Haryana,Fatehabad,"Huda Sector, Fatehabad - HSPCB",02-03-2024 21:00:00,29.503664,75.467934,OZONE,20,42,32
India,Haryana,Gurugram,"Teri Gram, Gurugram - HSPCB",02-03-2024 21:00:00,28.4275,77.1465,CO,14,29,18
India,Haryana,Jind,"Police Lines, Jind - HSPCB",02-03-2024 21:00:00,29.307814,76.337619,NH3,2,6,4
India,Haryana,Karnal,"Sector-12, Karnal - HSPCB",02-03-2024 21:00:00,29.695300,77.002700,NH3,10,13,11
India,Haryana,Karnal,"Sector-12, Karnal - HSPCB",02-03-2024 21:00:00,29.695300,77.002700,SO2,12,13,13
India,Haryana,Karnal,"Sector-12, Karnal - HSPCB",02-03-2024 21:00:00,29.695300,77.002700,CO,2,51,17
India,Haryana,Mandikhera,"General Hospital, Mandikhera - HSPCB",02-03-2024 21:00:00,27.9002,76.9938,NO2,17,22,19
India,Haryana,Mandikhera,"General Hospital, Mandikhera - HSPCB",02-03-2024 21:00:00,27.9002,76.9938,NH3,18,21,19
India,Haryana,Narnaul,"Shastri Nagar, Narnaul - HSPCB",02-03-2024 21:00:00,28.060249,76.113115,OZONE,14,45,27
India,Haryana,Sirsa,"F-Block, Sirsa - HSPCB",02-03-2024 21:00:00,29.536400,75.015800,SO2,6,43,16
India,Haryana,Sirsa,"F-Block, Sirsa - HSPCB",02-03-2024 21:00:00,29.536400,75.015800,CO,26,76,40
India,Haryana,Yamuna Nagar,"Gobind Pura, Yamuna Nagar - HSPCB",02-03-2024 21:00:00,30.1480566,77.2893471,NO2,NA,NA,NA
India,Himachal Pradesh,Baddi,"HIMUDA Complex Phase-1, Baddi - HPPCB",02-03-2024 21:00:00,30.943887,76.801991,OZONE,23,68,62
India,Jharkhand,Dhanbad,"Sardar Patel Nagar, Dhanbad - JSPCB",02-03-2024 21:00:00,23.80569,86.44268,SO2,6,123,29
India,Karnataka,Bagalkot,"Vidayagiri, Bagalkot - KSPCB",02-03-2024 21:00:00,16.172806,75.659694,NO2,9,10,9
India,Karnataka,Bagalkot,"Vidayagiri, Bagalkot - KSPCB",02-03-2024 21:00:00,16.172806,75.659694,OZONE,28,38,33
India,Karnataka,Bengaluru,"Bapuji Nagar, Bengaluru - KSPCB",02-03-2024 21:00:00,12.951913,77.539784,PM10,64,114,84
India,Karnataka,Bengaluru,"City Railway Station, Bengaluru - KSPCB",02-03-2024 21:00:00,12.9756843,77.5660749,PM10,60,94,72
India,Karnataka,Bengaluru,"City Railway Station, Bengaluru - KSPCB",02-03-2024 21:00:00,12.9756843,77.5660749,SO2,12,13,13
India,Karnataka,Bengaluru,"Hebbal, Bengaluru - KSPCB",02-03-2024 21:00:00,13.029152,77.585901,PM2.5,38,68,54
India,Karnataka,Bengaluru,"Hebbal, Bengaluru - KSPCB",02-03-2024 21:00:00,13.029152,77.585901,PM10,58,102,81
India,Karnataka,Bengaluru,"Hombegowda Nagar, Bengaluru - KSPCB",02-03-2024 21:00:00,12.938539,77.590100,PM2.5,37,73,49
India,Karnataka,Bengaluru,"Jayanagar 5th Block, Bengaluru - KSPCB",02-03-2024 21:00:00,12.920984,77.584908,PM2.5,52,98,71
India,Karnataka,Bengaluru,"Kasturi Nagar, Bengaluru - KSPCB",02-03-2024 21:00:00,13.003872,77.664217,NO2,16,17,17
India,Karnataka,Bengaluru,"Kasturi Nagar, Bengaluru - KSPCB",02-03-2024 21:00:00,13.003872,77.664217,CO,22,28,25
India,Karnataka,Bengaluru,"Peenya, Bengaluru - CPCB",02-03-2024 21:00:00,13.0270199,77.494094,PM2.5,30,56,47
India,Karnataka,Bengaluru,"RVCE-Mailasandra, Bengaluru - KSPCB",02-03-2024 21:00:00,12.921418,77.502466,PM2.5,37,171,76
India,Karnataka,Bengaluru,"RVCE-Mailasandra, Bengaluru - KSPCB",02-03-2024 21:00:00,12.921418,77.502466,NO2,38,75,60
India,Karnataka,Bengaluru,"Sanegurava Halli, Bengaluru - KSPCB",02-03-2024 21:00:00,12.990328,77.5431385,SO2,2,3,3
India,Karnataka,Bengaluru,"Shivapura_Peenya, Bengaluru - KSPCB",02-03-2024 21:00:00,13.0246342,77.5080115,NH3,4,4,4
India,Karnataka,Bengaluru,"Silk Board, Bengaluru - KSPCB",02-03-2024 21:00:00,12.917348,77.622813,PM10,70,128,91
India,Karnataka,Bengaluru,"Silk Board, Bengaluru - KSPCB",02-03-2024 21:00:00,12.917348,77.622813,OZONE,29,32,30
India,Karnataka,Bidar,"Naubad, Bidar - KSPCB",02-03-2024 21:00:00,17.930306,77.482194,PM2.5,41,89,55
India,Karnataka,Bidar,"Naubad, Bidar - KSPCB",02-03-2024 21:00:00,17.930306,77.482194,OZONE,23,40,33
India,Karnataka,Chamarajanagar,"Urban, Chamarajanagar - KSPCB",02-03-2024 21:00:00,11.55358,76.55521,NH3,1,2,2
India,Karnataka,Chamarajanagar,"Urban, Chamarajanagar - KSPCB",02-03-2024 21:00:00,11.55358,76.55521,SO2,2,9,5
India,Karnataka,Chamarajanagar,"Urban, Chamarajanagar - KSPCB",02-03-2024 21:00:00,11.55358,76.55521,CO,19,34,26
India,Karnataka,Chikkaballapur,"Chikkaballapur Rural, Chikkaballapur - KSPCB",02-03-2024 21:00:00,13.428828,77.731418,OZONE,24,26,25
India,Karnataka,Chikkamagaluru,"Kalyana Nagara, Chikkamagaluru - KSPCB",02-03-2024 21:00:00,13.328028,75.797056,NO2,18,28,24
India,Karnataka,Davanagere,"Devaraj Urs Badavane, Davanagere - KSPCB",02-03-2024 21:00:00,14.475800,75.905200,PM2.5,22,94,51
India,Karnataka,Davanagere,"Devaraj Urs Badavane, Davanagere - KSPCB",02-03-2024 21:00:00,14.475800,75.905200,PM10,44,99,64
India,Karnataka,Dharwad,"Kalabhavan, Dharwad - KSPCB",02-03-2024 21:00:00,15.459706,75.008381,OZONE,2,18,10
India,Karnataka,Gadag,"Panchal Nagar, Gadag - KSPCB",02-03-2024 21:00:00,15.411456,75.638133,NH3,2,3,2
India,Karnataka,Gadag,"Panchal Nagar, Gadag - KSPCB",02-03-2024 21:00:00,15.411456,75.638133,CO,42,48,44
India,Karnataka,Hassan,"B.Katihalli, Hassan - KSPCB",02-03-2024 21:00:00,13.008556,76.125258,PM2.5,37,143,72
India,Karnataka,Haveri,"Ashwini Nagar, Haveri - KSPCB",02-03-2024 21:00:00,14.791800,75.389600,CO,32,36,35
India,Karnataka,Hubballi,"Deshpande Nagar, Hubballi - KSPCB",02-03-2024 21:00:00,15.351773,75.140726,CO,4,90,75
India,Karnataka,Hubballi,"Lingaraj Nagar, Hubballi - KSPCB",02-03-2024 21:00:00,15.3714823,75.1160168,PM10,NA,NA,NA
India,Karnataka,Hubballi,"Lingaraj Nagar, Hubballi - KSPCB",02-03-2024 21:00:00,15.3714823,75.1160168,OZONE,15,38,27
India,Karnataka,Kalaburagi,"Lal Bahadur Shastri Nagar, Kalaburagi - KSPCB",02-03-2024 21:00:00,17.321993,76.822628,SO2,NA,NA,NA
India,Karnataka,Kalaburagi,"Mahatma Basaveswar Colony, Kalaburgi - KSPCB",02-03-2024 21:00:00,17.336318,76.847397,PM2.5,17,68,39
India,Karnataka,Kalaburagi,"Mahatma Basaveswar Colony, Kalaburgi - KSPCB",02-03-2024 21:00:00,17.336318,76.847397,NO2,16,37,25
India,Karnataka,Karwar,"KHB Colony, Karwar - KSPCB",02-03-2024 21:00:00,14.816666,74.141003,OZONE,21,22,21
