country,state,city,station,last_update,latitude,longitude,pollutant_id,pollutant_min,pollutant_max,pollutant_avg
India,Andhra_Pradesh,Amaravati,"Secretariat, Amaravati - APPCB",27-03-2024 21:00:00,16.5150833,80.5181667,CO,5,114,41
India,Andhra_Pradesh,Chittoor,"Gangineni Cheruvu, Chittoor - APPCB",27-03-2024 21:00:00,13.204880,79.097889,CO,NA,NA,NA
India,Andhra_Pradesh,Kadapa,"Yerramukkapalli, Kadapa - APPCB",27-03-2024 21:00:00,14.465052,78.824187,NO2,8,8,8
India,Andhra_Pradesh,Kadapa,"Yerramukkapalli, Kadapa - APPCB",27-03-2024 21:00:00,14.465052,78.824187,CO,11,22,17
India,Andhra_Pradesh,Kadapa,"Yerramukkapalli, Kadapa - APPCB",27-03-2024 21:00:00,14.465052,78.824187,OZONE,14,67,58
India,Andhra_Pradesh,Tirupati,"Tirumala, Tirupati - APPCB",27-03-2024 21:00:00,13.67,79.35,NO2,16,40,24
India,Andhra_Pradesh,Tirupati,"Vaikuntapuram, Tirupati - APPCB",27-03-2024 21:00:00,13.615387,79.409230,CO,9,14,12
India,Andhra_Pradesh,Vijayawada,"HB Colony, Vijayawada - APPCB",27-03-2024 21:00:00,16.536107,80.594233,NO2,5,13,8
India,Andhra_Pradesh,Vijayawada,"HB Colony, Vijayawada - APPCB",27-03-2024 21:00:00,16.536107,80.594233,OZONE,5,25,18
India,Andhra_Pradesh,Vijayawada,"Kanuru, Vijayawada - APPCB",27-03-2024 21:00:00,16.486692,80.699436,PM2.5,49,67,60
India,Andhra_Pradesh,Vijayawada,"Kanuru, Vijayawada - APPCB",27-03-2024 21:00:00,16.486692,80.699436,CO,22,63,30
India,Andhra_Pradesh,Vijayawada,"Rajiv Gandhi Park, Vijayawada - APPCB",27-03-2024 21:00:00,16.509717,80.612222,SO2,4,7,6
India,Andhra_Pradesh,Visakhapatnam,"GVM Corporation, Visakhapatnam - APPCB",27-03-2024 21:00:00,17.72,83.3,CO,9,79,25
India,Arunachal_Pradesh,Naharlagun,"Naharlagun, Naharlagun - APSPCB",27-03-2024 21:00:00,27.103358,93.679645,OZONE,2,2,2
India,Assam,Byrnihat,"Central Academy for SFS, Byrnihat - PCBA",27-03-2024 21:00:00,26.071318,91.87488,PM10,22,131,60
India,Assam,Byrnihat,"Central Academy for SFS, Byrnihat - PCBA",27-03-2024 21:00:00,26.071318,91.87488,NH3,2,8,5
India,Assam,Byrnihat,"Central Academy for SFS, Byrnihat - PCBA",27-03-2024 21:00:00,26.071318,91.87488,SO2,6,18,12
India,Assam,Guwahati,"IITG, Guwahati - PCBA",27-03-2024 21:00:00,26.2028636,91.70046436,NH3,5,5,5
India,Assam,Guwahati,"IITG, Guwahati - PCBA",27-03-2024 21:00:00,26.2028636,91.70046436,CO,7,10,9
India,Assam,Guwahati,"LGBI Airport, Guwahati - PCBA",27-03-2024 21:00:00,26.10887,91.589544,CO,23,94,60
India,Assam,Guwahati,"Railway Colony, Guwahati - PCBA",27-03-2024 21:00:00,26.181742,91.78063,PM10,17,114,46
India,Assam,Nagaon,"Christianpatty, Nagaon - PCBA",27-03-2024 21:00:00,26.349082,92.68449,PM10,44,86,57
India,Assam,Nagaon,"Christianpatty, Nagaon - PCBA",27-03-2024 21:00:00,26.349082,92.68449,NH3,6,9,7
India,Assam,Nalbari,"Bata Chowk, Nalbari - PCBA",27-03-2024 21:00:00,26.446912,91.439057,NH3,1,2,2
India,Assam,Nalbari,"Bata Chowk, Nalbari - PCBA",27-03-2024 21:00:00,26.446912,91.439057,SO2,10,14,11
India,Assam,Silchar,"Tarapur, Silchar - PCBA",27-03-2024 21:00:00,24.82827,92.79525,SO2,4,19,12
India,Assam,Sivasagar,"Girls College, Sivasagar - PCBA",27-03-2024 21:00:00,26.987634,94.636574,PM2.5,29,47,35
India,Assam,Sivasagar,"Girls College, Sivasagar - PCBA",27-03-2024 21:00:00,26.987634,94.636574,OZONE,1,34,5
India,Bihar,Arrah,"New DM Office, Arrah - BSPCB",27-03-2024 21:00:00,25.5626095,84.663264,PM2.5,32,153,60
India,Bihar,Aurangabad,"Gurdeo Nagar, Aurangabad - BSPCB",27-03-2024 21:00:00,24.75746,84.366208,PM10,34,87,56
India,Bihar,Aurangabad,"Gurdeo Nagar, Aurangabad - BSPCB",27-03-2024 21:00:00,24.75746,84.366208,SO2,2,9,6
India,Bihar,Bhagalpur,"DM Office_Kachari Chowk, Bhagalpur - BSPCB",27-03-2024 21:00:00,25.251013,86.989001,NO2,53,80,62
India,Bihar,Bihar Sharif,"D M Colony, Bihar Sharif - BSPCB",27-03-2024 21:00:00,25.204762,85.514960,PM2.5,50,167,77
India,Bihar,Bihar Sharif,"D M Colony, Bihar Sharif - BSPCB",27-03-2024 21:00:00,25.204762,85.514960,SO2,1,15,7
India,Bihar,Bihar Sharif,"D M Colony, Bihar Sharif - BSPCB",27-03-2024 21:00:00,25.204762,85.514960,OZONE,2,2,2
India,Bihar,Buxar,"Charitra Van, Buxar - BSPCB (Formerly known as Central Jail)",27-03-2024 21:00:00,25.567520,83.966379,PM2.5,NA,NA,NA
India,Bihar,Buxar,"Charitra Van, Buxar - BSPCB (Formerly known as Central Jail)",27-03-2024 21:00:00,25.567520,83.966379,PM10,NA,NA,NA
India,Bihar,Buxar,"Charitra Van, Buxar - BSPCB (Formerly known as Central Jail)",27-03-2024 21:00:00,25.567520,83.966379,CO,14,108,74
India,Bihar,Buxar,"Charitra Van, Buxar - BSPCB (Formerly known as Central Jail)",27-03-2024 21:00:00,25.567520,83.966379,OZONE,16,161,111
India,Bihar,Chhapra,"Darshan Nagar, Chhapra - BSPCB",27-03-2024 21:00:00,25.7808257,84.7446768,PM10,55,131,92
India,Bihar,Chhapra,"Darshan Nagar, Chhapra - BSPCB",27-03-2024 21:00:00,25.7808257,84.7446768,SO2,2,27,10
India,Bihar,Gaya,"Collectorate, Gaya - BSPCB",27-03-2024 21:00:00,24.7955,84.9994,SO2,4,15,10
India,Bihar,Gaya,"SFTI Kusdihra, Gaya - BSPCB",27-03-2024 21:00:00,24.762518,84.982348,PM2.5,20,84,50
India,Bihar,Kishanganj,"SDM Office_Khagra, Kishanganj - BSPCB",27-03-2024 21:00:00,26.0881305,87.93840336,NO2,33,38,35
India,Bihar,Kishanganj,"SDM Office_Khagra, Kishanganj - BSPCB",27-03-2024 21:00:00,26.0881305,87.93840336,NH3,12,13,12
India,Bihar,Manguraha,"Forest Rest House, Manguraha - BSPCB",27-03-2024 21:00:00,27.308328,84.531742,PM10,NA,NA,NA
India,Bihar,Manguraha,"Forest Rest House, Manguraha - BSPCB",27-03-2024 21:00:00,27.308328,84.531742,SO2,5,7,6
India,Bihar,Manguraha,"Forest Rest House, Manguraha - BSPCB",27-03-2024 21:00:00,27.308328,84.531742,OZONE,1,95,26
India,Bihar,Motihari,"Gandak Colony, Motihari - BSPCB",27-03-2024 21:00:00,26.63086,84.90051,PM10,13,107,30
India,Bihar,Munger,"Town Hall, Munger - BSPCB",27-03-2024 21:00:00,25.376776,86.471523,PM10,36,111,81
India,Bihar,Munger,"Town Hall, Munger - BSPCB",27-03-2024 21:00:00,25.376776,86.471523,SO2,9,40,28
India,Bihar,Munger,"Town Hall, Munger - BSPCB",27-03-2024 21:00:00,25.376776,86.471523,OZONE,27,31,29
India,Bihar,Muzaffarpur,"Buddha Colony, Muzaffarpur - BSPCB",27-03-2024 21:00:00,26.11442,85.39813,PM2.5,49,139,74
India,Bihar,Muzaffarpur,"Buddha Colony, Muzaffarpur - BSPCB",27-03-2024 21:00:00,26.11442,85.39813,NO2,11,38,17
India,Bihar,Muzaffarpur,"Buddha Colony, Muzaffarpur - BSPCB",27-03-2024 21:00:00,26.11442,85.39813,OZONE,33,60,46
India,Bihar,Muzaffarpur,"MIT-Daudpur Kothi, Muzaffarpur - BSPCB",27-03-2024 21:00:00,26.1403345,85.3650192,PM2.5,40,133,64
India,Bihar,Muzaffarpur,"MIT-Daudpur Kothi, Muzaffarpur - BSPCB",27-03-2024 21:00:00,26.1403345,85.3650192,NH3,2,6,3
India,Bihar,Muzaffarpur,"Muzaffarpur Collectorate, Muzaffarpur - BSPCB",27-03-2024 21:00:00,26.1209,85.3647,SO2,4,13,8
India,Bihar,Patna,"DRM Office Danapur, Patna - BSPCB",27-03-2024 21:00:00,25.586562,85.043586,PM10,81,125,92
India,Bihar,Patna,"Govt. High School Shikarpur, Patna - BSPCB",27-03-2024 21:00:00,25.592539,85.227158,PM10,88,162,114
India,Bihar,Patna,"Govt. High School Shikarpur, Patna - BSPCB",27-03-2024 21:00:00,25.592539,85.227158,NO2,11,22,20
India,Bihar,Patna,"Govt. High School Shikarpur, Patna - BSPCB",27-03-2024 21:00:00,25.592539,85.227158,NH3,5,6,5
India,Bihar,Patna,"IGSC Planetarium Complex, Patna - BSPCB",27-03-2024 21:00:00,25.610369,85.132568,PM2.5,52,170,82
India,Bihar,Patna,"IGSC Planetarium Complex, Patna - BSPCB",27-03-2024 21:00:00,25.610369,85.132568,SO2,5,5,5
India,Bihar,Patna,"Muradpur, Patna - BSPCB",27-03-2024 21:00:00,25.619651,85.147382,NO2,7,15,11
India,Bihar,Patna,"Muradpur, Patna - BSPCB",27-03-2024 21:00:00,25.619651,85.147382,NH3,2,4,3
India,Bihar,Patna,"Rajbansi Nagar, Patna - BSPCB",27-03-2024 21:00:00,25.599486,85.113666,PM2.5,43,128,74
India,Bihar,Patna,"Rajbansi Nagar, Patna - BSPCB",27-03-2024 21:00:00,25.599486,85.113666,PM10,89,149,109
India,Bihar,Patna,"Rajbansi Nagar, Patna - BSPCB",27-03-2024 21:00:00,25.599486,85.113666,SO2,2,17,7
India,Bihar,Patna,"Rajbansi Nagar, Patna - BSPCB",27-03-2024 21:00:00,25.599486,85.113666,CO,4,70,40
India,Bihar,Patna,"Rajbansi Nagar, Patna - BSPCB",27-03-2024 21:00:00,25.599486,85.113666,OZONE,8,87,61
India,Bihar,Patna,"Samanpura, Patna - BSPCB",27-03-2024 21:00:00,25.596727,85.085624,PM10,109,196,129
India,Bihar,Purnia,"Mariam Nagar, Purnia - BSPCB",27-03-2024 21:00:00,25.366336,87.117468,NH3,2,2,2
India,Bihar,Purnia,"Mariam Nagar, Purnia - BSPCB",27-03-2024 21:00:00,25.366336,87.117468,CO,20,47,31
India,Bihar,Rajgir,"Dangi Tola, Rajgir - BSPCB",27-03-2024 21:00:00,25.03280,85.41948,PM2.5,28,335,110
India,Bihar,Rajgir,"Dangi Tola, Rajgir - BSPCB",27-03-2024 21:00:00,25.03280,85.41948,NO2,1,1,1
India,Bihar,Saharsa,"Police Line, Saharsa - BSPCB",27-03-2024 21:00:00,25.892357,86.590325,OZONE,8,86,37
India,Bihar,Samastipur,"DM Office_Kasipur, Samastipur - BSPCB",27-03-2024 21:00:00,25.859655,85.77944,NO2,28,67,40
India,Bihar,Samastipur,"DM Office_Kasipur, Samastipur - BSPCB",27-03-2024 21:00:00,25.859655,85.77944,CO,23,32,27
India,Bihar,Sasaram,"Dada Peer, Sasaram - BSPCB",27-03-2024 21:00:00,24.952822,84.002396,PM2.5,18,65,37
India,Bihar,Siwan,"Chitragupta Nagar, Siwan - BSPCB",27-03-2024 21:00:00,26.2271665,84.3570427,PM2.5,NA,NA,NA
India,Bihar,Siwan,"Chitragupta Nagar, Siwan - BSPCB",27-03-2024 21:00:00,26.2271665,84.3570427,CO,11,112,46
India,Chandigarh,Chandigarh,"Sector 22, Chandigarh - CPCC",27-03-2024 21:00:00,30.735567,76.775714,PM2.5,35,187,109
India,Chandigarh,Chandigarh,"Sector 22, Chandigarh - CPCC",27-03-2024 21:00:00,30.735567,76.775714,PM10,74,176,114
India,Chandigarh,Chandigarh,"Sector-25, Chandigarh - CPCC",27-03-2024 21:00:00,30.751462,76.762879,OZONE,8,74,38
India,Chhattisgarh,Bhilai,"32Bungalows, Bhilai - CECB",27-03-2024 21:00:00,21.194815,81.314770,CO,22,46,26
India,Chhattisgarh,Bhilai,"32Bungalows, Bhilai - CECB",27-03-2024 21:00:00,21.194815,81.314770,OZONE,4,46,18
India,Chhattisgarh,Bhilai,"Hathkhoj, Bhilai - CECB",27-03-2024 21:00:00,21.224231,81.408350,OZONE,6,19,16
India,Chhattisgarh,Chhal,"Nawapara SECL Colony, Chhal - CECB",27-03-2024 21:00:00,22.118125,83.140608,NO2,22,72,33
India,Chhattisgarh,Korba,"Rampur, Korba - CECB",27-03-2024 21:00:00,22.368195,82.746431,PM2.5,18,60,40
India,Chhattisgarh,Korba,"Urja Nagar, Korba - CECB",27-03-2024 21:00:00,22.348441,82.549611,CO,14,54,26
India,Chhattisgarh,Kunjemura,"OP Jindal School, Kunjemura - CECB",27-03-2024 21:00:00,22.126650,83.483212,SO2,2,30,11
India,Chhattisgarh,Kunjemura,"OP Jindal School, Kunjemura - CECB",27-03-2024 21:00:00,22.126650,83.483212,OZONE,4,105,76
India,Chhattisgarh,Milupara,"Govt. Higher Secondary School, Milupara - CECB",27-03-2024 21:00:00,22.1910172,83.5197009,PM10,50,80,61
India,Chhattisgarh,Milupara,"Govt. Higher Secondary School, Milupara - CECB",27-03-2024 21:00:00,22.1910172,83.5197009,SO2,10,60,19
India,Chhattisgarh,Milupara,"Govt. Higher Secondary School, Milupara - CECB",27-03-2024 21:00:00,22.1910172,83.5197009,CO,20,41,24
India,Chhattisgarh,Raipur,"AIIMS, Raipur - CECB",27-03-2024 21:00:00,21.258815,81.578979,PM10,46,132,80
India,Chhattisgarh,Raipur,"AIIMS, Raipur - CECB",27-03-2024 21:00:00,21.258815,81.578979,NO2,28,78,60
India,Chhattisgarh,Raipur,"AIIMS, Raipur - CECB",27-03-2024 21:00:00,21.258815,81.578979,NH3,5,5,5
India,Chhattisgarh,Raipur,"Bhatagaon New ISBT, Raipur - CECB",27-03-2024 21:00:00,21.219665,81.630094,CO,32,78,47
India,Chhattisgarh,Raipur,"Siltara Phase-II, Raipur - CECB",27-03-2024 21:00:00,21.371751,81.664929,PM10,54,173,95
India,Chhattisgarh,Raipur,"Siltara Phase-II, Raipur - CECB",27-03-2024 21:00:00,21.371751,81.664929,CO,25,60,35
India,Delhi,Delhi,"Alipur, Delhi - DPCC",27-03-2024 21:00:00,28.815329,77.153010,NO2,6,78,32
India,Delhi,Delhi,"Anand Vihar, Delhi - DPCC",27-03-2024 21:00:00,28.647622,77.3158090,NO2,NA,NA,NA
India,Delhi,Delhi,"Bawana, Delhi - DPCC",27-03-2024 21:00:00,28.776200,77.051074,PM2.5,37,416,201
India,Delhi,Delhi,"Bawana, Delhi - DPCC",27-03-2024 21:00:00,28.776200,77.051074,PM10,68,374,163
India,Delhi,Delhi,"Bawana, Delhi - DPCC",27-03-2024 21:00:00,28.776200,77.051074,NO2,14,65,34
India,Delhi,Delhi,"Bawana, Delhi - DPCC",27-03-2024 21:00:00,28.776200,77.051074,NH3,5,9,7
India,Delhi,Delhi,"CRRI Mathura Road, Delhi - IMD",27-03-2024 21:00:00,28.5512005,77.2735737,OZONE,2,73,33
India,Delhi,Delhi,"Chandni Chowk, Delhi - IITM",27-03-2024 21:00:00,28.656756,77.227234,NO2,NA,NA,NA
India,Delhi,Delhi,"Chandni Chowk, Delhi - IITM",27-03-2024 21:00:00,28.656756,77.227234,SO2,NA,NA,NA
India,Delhi,Delhi,"DTU, Delhi - CPCB",27-03-2024 21:00:00,28.7500499,77.1112615,NO2,4,39,26
India,Delhi,Delhi,"DTU, Delhi - CPCB",27-03-2024 21:00:00,28.7500499,77.1112615,SO2,29,32,29
India,Delhi,Delhi,"Dr. Karni Singh Shooting Range, Delhi - DPCC",27-03-2024 21:00:00,28.498571,77.264840,CO,26,101,42
India,Delhi,Delhi,"Dr. Karni Singh Shooting Range, Delhi - DPCC",27-03-2024 21:00:00,28.498571,77.264840,OZONE,1,210,135
India,Delhi,Delhi,"Dwarka-Sector 8, Delhi - DPCC ",27-03-2024 21:00:00,28.5710274,77.0719006,PM2.5,55,328,178
India,Delhi,Delhi,"Dwarka-Sector 8, Delhi - DPCC ",27-03-2024 21:00:00,28.5710274,77.0719006,PM10,116,470,263
India,Delhi,Delhi,"Dwarka-Sector 8, Delhi - DPCC ",27-03-2024 21:00:00,28.5710274,77.0719006,NO2,12,87,45
India,Delhi,Delhi,"Dwarka-Sector 8, Delhi - DPCC ",27-03-2024 21:00:00,28.5710274,77.0719006,SO2,3,18,10
India,Delhi,Delhi,"IGI Airport (T3), Delhi - IMD",27-03-2024 21:00:00,28.5627763,77.1180053,NO2,8,67,37
India,Delhi,Delhi,"IGI Airport (T3), Delhi - IMD",27-03-2024 21:00:00,28.5627763,77.1180053,CO,14,108,20
India,Delhi,Delhi,"IHBAS, Dilshad Garden, Delhi - CPCB",27-03-2024 21:00:00,28.6811736,77.3025234,CO,27,103,86
India,Delhi,Delhi,"IHBAS, Dilshad Garden, Delhi - CPCB",27-03-2024 21:00:00,28.6811736,77.3025234,OZONE,8,42,25
India,Delhi,Delhi,"ITO, Delhi - CPCB",27-03-2024 21:00:00,28.628624,77.241060,PM10,22,186,126
India,Delhi,Delhi,"ITO, Delhi - CPCB",27-03-2024 21:00:00,28.628624,77.241060,NH3,3,10,6
India,Delhi,Delhi,"ITO, Delhi - CPCB",27-03-2024 21:00:00,28.628624,77.241060,OZONE,17,94,50
India,Delhi,Delhi,"Jahangirpuri, Delhi - DPCC",27-03-2024 21:00:00,28.732820,77.170633,PM2.5,35,332,153
India,Delhi,Delhi,"Jahangirpuri, Delhi - DPCC",27-03-2024 21:00:00,28.732820,77.170633,PM10,115,442,208
India,Delhi,Delhi,"Jahangirpuri, Delhi - DPCC",27-03-2024 21:00:00,28.732820,77.170633,NO2,30,115,80
India,Delhi,Delhi,"Jahangirpuri, Delhi - DPCC",27-03-2024 21:00:00,28.732820,77.170633,CO,42,104,71
India,Delhi,Delhi,"Jahangirpuri, Delhi - DPCC",27-03-2024 21:00:00,28.732820,77.170633,OZONE,2,38,22
India,Delhi,Delhi,"Jawaharlal Nehru Stadium, Delhi - DPCC",27-03-2024 21:00:00,28.580280,77.233829,PM10,87,286,133
India,Delhi,Delhi,"Lodhi Road, Delhi - IITM",27-03-2024 21:00:00,28.588333,77.221667,PM2.5,45,500,230
India,Delhi,Delhi,"Mandir Marg, Delhi - DPCC",27-03-2024 21:00:00,28.636429,77.201067,PM10,65,143,100
India,Delhi,Delhi,"Mundka, Delhi - DPCC",27-03-2024 21:00:00,28.684678,77.076574,NH3,4,7,5
India,Delhi,Delhi,"NSIT Dwarka, Delhi - CPCB",27-03-2024 21:00:00,28.60909,77.0325413,PM10,128,359,234
India,Delhi,Delhi,"NSIT Dwarka, Delhi - CPCB",27-03-2024 21:00:00,28.60909,77.0325413,NO2,41,84,62
India,Delhi,Delhi,"NSIT Dwarka, Delhi - CPCB",27-03-2024 21:00:00,28.60909,77.0325413,NH3,9,19,13
India,Delhi,Delhi,"NSIT Dwarka, Delhi - CPCB",27-03-2024 21:00:00,28.60909,77.0325413,CO,27,84,42
India,Delhi,Delhi,"NSIT Dwarka, Delhi - CPCB",27-03-2024 21:00:00,28.60909,77.0325413,OZONE,4,60,44
India,Delhi,Delhi,"Najafgarh, Delhi - DPCC",27-03-2024 21:00:00,28.570173,76.933762,NO2,3,22,12
India,Delhi,Delhi,"Najafgarh, Delhi - DPCC",27-03-2024 21:00:00,28.570173,76.933762,NH3,12,13,13
India,Delhi,Delhi,"Najafgarh, Delhi - DPCC",27-03-2024 21:00:00,28.570173,76.933762,SO2,8,18,14
India,Delhi,Delhi,"Najafgarh, Delhi - DPCC",27-03-2024 21:00:00,28.570173,76.933762,CO,18,99,25
India,Delhi,Delhi,"Najafgarh, Delhi - DPCC",27-03-2024 21:00:00,28.570173,76.933762,OZONE,7,110,90
India,Delhi,Delhi,"Nehru Nagar, Delhi - DPCC",27-03-2024 21:00:00,28.567890,77.250515,PM2.5,35,258,110
India,Delhi,Delhi,"Nehru Nagar, Delhi - DPCC",27-03-2024 21:00:00,28.567890,77.250515,NH3,6,15,11
India,Delhi,Delhi,"Okhla Phase-2, Delhi - DPCC",27-03-2024 21:00:00,28.530785,77.271255,PM2.5,42,222,109
India,Delhi,Delhi,"Okhla Phase-2, Delhi - DPCC",27-03-2024 21:00:00,28.530785,77.271255,NH3,5,10,7
India,Delhi,Delhi,"Okhla Phase-2, Delhi - DPCC",27-03-2024 21:00:00,28.530785,77.271255,CO,53,123,60
India,Delhi,Delhi,"Okhla Phase-2, Delhi - DPCC",27-03-2024 21:00:00,28.530785,77.271255,OZONE,10,154,82
India,Delhi,Delhi,"Punjabi Bagh, Delhi - DPCC",27-03-2024 21:00:00,28.674045,77.131023,NO2,35,73,50
India,Delhi,Delhi,"Pusa, Delhi - DPCC",27-03-2024 21:00:00,28.639652,77.146275,PM2.5,32,270,108
India,Delhi,Delhi,"Pusa, Delhi - DPCC",27-03-2024 21:00:00,28.639652,77.146275,PM10,111,402,176
India,Delhi,Delhi,"Pusa, Delhi - DPCC",27-03-2024 21:00:00,28.639652,77.146275,SO2,9,37,22
India,Delhi,Delhi,"Pusa, Delhi - DPCC",27-03-2024 21:00:00,28.639652,77.146275,OZONE,10,86,48
India,Delhi,Delhi,"Pusa, Delhi - IMD",27-03-2024 21:00:00,28.636110,77.173332,PM10,99,215,157
India,Delhi,Delhi,"Pusa, Delhi - IMD",27-03-2024 21:00:00,28.636110,77.173332,OZONE,1,38,28
India,Delhi,Delhi,"R K Puram, Delhi - DPCC",27-03-2024 21:00:00,28.563262,77.186937,NO2,12,40,26
India,Delhi,Delhi,"Rohini, Delhi - DPCC",27-03-2024 21:00:00,28.732528,77.119920,SO2,9,32,17
India,Delhi,Delhi,"Sirifort, Delhi - CPCB",27-03-2024 21:00:00,28.5504249,77.2159377,OZONE,3,27,14
India,Delhi,Delhi,"Sonia Vihar, Delhi - DPCC",27-03-2024 21:00:00,28.710508,77.249485,SO2,11,29,17
India,Delhi,Delhi,"Sonia Vihar, Delhi - DPCC",27-03-2024 21:00:00,28.710508,77.249485,CO,50,106,61
India,Delhi,Delhi,"Vivek Vihar, Delhi - DPCC",27-03-2024 21:00:00,28.672342,77.315260,PM10,107,308,183
India,Delhi,Delhi,"Vivek Vihar, Delhi - DPCC",27-03-2024 21:00:00,28.672342,77.315260,NH3,14,15,15
India,Delhi,Delhi,"Wazirpur, Delhi - DPCC",27-03-2024 21:00:00,28.699793,77.165453,NO2,56,194,114
India,Delhi,Delhi,"Wazirpur, Delhi - DPCC",27-03-2024 21:00:00,28.699793,77.165453,CO,9,105,47
India,Gujarat,Ahmedabad,"Gyaspur, Ahmedabad - IITM",27-03-2024 21:00:00,22.977134,72.553024,PM10,101,430,169
India,Gujarat,Ahmedabad,"Gyaspur, Ahmedabad - IITM",27-03-2024 21:00:00,22.977134,72.553024,OZONE,7,37,25
India,Gujarat,Ahmedabad,"Maninagar, Ahmedabad - GPCB",27-03-2024 21:00:00,23.002657,72.591912,PM10,75,324,137
India,Gujarat,Ahmedabad,"Maninagar, Ahmedabad - GPCB",27-03-2024 21:00:00,23.002657,72.591912,SO2,NA,NA,NA
India,Gujarat,Ahmedabad,"Raikhad, Ahmedabad - IITM",27-03-2024 21:00:00,23.020509,72.579261,CO,18,124,45
India,Gujarat,Ahmedabad,"Rakhial, Ahmedabad - IITM",27-03-2024 21:00:00,23.016834,72.625775,NH3,2,26,21
India,Gujarat,Ahmedabad,"Rakhial, Ahmedabad - IITM",27-03-2024 21:00:00,23.016834,72.625775,CO,2,83,9
India,Gujarat,Ahmedabad,"Rakhial, Ahmedabad - IITM",27-03-2024 21:00:00,23.016834,72.625775,OZONE,8,84,45
India,Gujarat,Ahmedabad,"SAC ISRO Satellite, Ahmedabad - IITM",27-03-2024 21:00:00,23.023389,72.515201,PM2.5,138,142,140
India,Gujarat,Ahmedabad,"SAC ISRO Satellite, Ahmedabad - IITM",27-03-2024 21:00:00,23.023389,72.515201,NH3,3,3,3
India,Gujarat,Ahmedabad,"SAC ISRO Satellite, Ahmedabad - IITM",27-03-2024 21:00:00,23.023389,72.515201,SO2,3,26,9
India,Gujarat,Ahmedabad,"SVPI Airport Hansol, Ahmedabad - IITM",27-03-2024 21:00:00,23.076793,72.627874,NO2,NA,NA,NA
India,Gujarat,Ankleshwar,"GIDC, Ankleshwar - GPCB",27-03-2024 21:00:00,21.613267,73.010555,NH3,6,7,7
India,Gujarat,Ankleshwar,"GIDC, Ankleshwar - GPCB",27-03-2024 21:00:00,21.613267,73.010555,CO,18,81,40
India,Gujarat,Gandhinagar,"IIPHG Lekawada, Gandhinagar - IITM",27-03-2024 21:00:00,23.243639,72.68994,SO2,3,35,13
India,Gujarat,Gandhinagar,"IIPHG Lekawada, Gandhinagar - IITM",27-03-2024 21:00:00,23.243639,72.68994,CO,22,25,23
India,Gujarat,Nandesari,"GIDC, Nandesari - Nandesari Ind. Association",27-03-2024 21:00:00,22.410802,73.097923,PM10,105,436,237
India,Gujarat,Surat,"Science Center, Surat - SMC",27-03-2024 21:00:00,21.170046,72.795405,CO,33,81,56
India,Gujarat,Vatva,"Phase-4 GIDC, Vatva - GPCB",27-03-2024 21:00:00,22.969611,72.643500,SO2,14,63,28
India,Gujarat,Vatva,"Phase-4 GIDC, Vatva - GPCB",27-03-2024 21:00:00,22.969611,72.643500,OZONE,7,74,42
India,Haryana,Ambala,"Patti Mehar, Ambala - HSPCB",27-03-2024 21:00:00,30.379589,76.778328,PM2.5,31,83,58
India,Haryana,Ambala,"Patti Mehar, Ambala - HSPCB",27-03-2024 21:00:00,30.379589,76.778328,NO2,8,22,15
India,Haryana,Ambala,"Patti Mehar, Ambala - HSPCB",27-03-2024 21:00:00,30.379589,76.778328,NH3,5,12,9
India,Haryana,Ambala,"Patti Mehar, Ambala - HSPCB",27-03-2024 21:00:00,30.379589,76.778328,SO2,5,105,30
India,Haryana,Bahadurgarh,"Arya Nagar, Bahadurgarh - HSPCB",27-03-2024 21:00:00,28.6701,76.9254,PM2.5,27,148,83
India,Haryana,Bahadurgarh,"Arya Nagar, Bahadurgarh - HSPCB",27-03-2024 21:00:00,28.6701,76.9254,CO,40,63,54
India,Haryana,Ballabgarh,"Nathu Colony, Ballabgarh - HSPCB",27-03-2024 21:00:00,28.3419248,77.319699,PM2.5,65,350,232
India,Haryana,Bhiwani,"H.B. Colony, Bhiwani - HSPCB",27-03-2024 21:00:00,28.806223,76.141105,OZONE,14,86,28
India,Haryana,Charkhi Dadri,"Mini Secretariat, Charkhi Dadri - HSPCB",27-03-2024 21:00:00,28.593883,76.270653,CO,14,97,22
India,Haryana,Faridabad,"New Industrial Town, Faridabad - HSPCB",27-03-2024 21:00:00,28.39072,77.30059,OZONE,18,91,28
India,Haryana,Faridabad,"Sector 11, Faridabad - HSPCB",27-03-2024 21:00:00,28.376058,77.315741,NH3,6,6,6
India,Haryana,Faridabad,"Sector 11, Faridabad - HSPCB",27-03-2024 21:00:00,28.376058,77.315741,OZONE,4,27,16
India,Haryana,Faridabad,"Sector- 16A, Faridabad - HSPCB",27-03-2024 21:00:00,28.4088421,77.3099081,PM2.5,54,306,142
India,Haryana,Faridabad,"Sector- 16A, Faridabad - HSPCB",27-03-2024 21:00:00,28.4088421,77.3099081,CO,6,68,27
India,Haryana,Fatehabad,"Huda Sector, Fatehabad - HSPCB",27-03-2024 21:00:00,29.503664,75.467934,NO2,37,54,39
India,Haryana,Fatehabad,"Huda Sector, Fatehabad - HSPCB",27-03-2024 21:00:00,29.503664,75.467934,CO,6,15,7
India,Haryana,Gurugram,"Sector-51, Gurugram - HSPCB",27-03-2024 21:00:00,28.4227,77.0667,PM2.5,32,393,192
India,Haryana,Gurugram,"Sector-51, Gurugram - HSPCB",27-03-2024 21:00:00,28.4227,77.0667,NO2,13,29,23
India,Haryana,Gurugram,"Sector-51, Gurugram - HSPCB",27-03-2024 21:00:00,28.4227,77.0667,SO2,3,4,4
India,Haryana,Gurugram,"Teri Gram, Gurugram - HSPCB",27-03-2024 21:00:00,28.4275,77.1465,CO,14,37,15
India,Haryana,Jind,"Police Lines, Jind - HSPCB",27-03-2024 21:00:00,29.307814,76.337619,PM10,45,93,73
India,Haryana,Kaithal,"Rishi Nagar, Kaithal - HSPCB",27-03-2024 21:00:00,29.8006,76.4155,NH3,8,8,8
India,Haryana,Karnal,"Sector-12, Karnal - HSPCB",27-03-2024 21:00:00,29.695300,77.002700,NH3,10,13,11
India,Haryana,Karnal,"Sector-12, Karnal - HSPCB",27-03-2024 21:00:00,29.695300,77.002700,OZONE,19,22,20
India,Haryana,Kurukshetra,"Sector-7, Kurukshetra - HSPCB",27-03-2024 21:00:00,29.966942,76.875879,CO,7,32,15
India,Haryana,Mandikhera,"General Hospital, Mandikhera - HSPCB",27-03-2024 21:00:00,27.9002,76.9938,CO,18,96,24
India,Haryana,Manesar,"Sector-2 IMT, Manesar - HSPCB",27-03-2024 21:00:00,28.360699,76.936090,NH3,1,3,2
India,Haryana,Manesar,"Sector-2 IMT, Manesar - HSPCB",27-03-2024 21:00:00,28.360699,76.936090,CO,8,42,12
India,Haryana,Narnaul,"Shastri Nagar, Narnaul - HSPCB",27-03-2024 21:00:00,28.060249,76.113115,PM2.5,34,100,54
India,Haryana,Narnaul,"Shastri Nagar, Narnaul - HSPCB",27-03-2024 21:00:00,28.060249,76.113115,NO2,12,75,35
India,Haryana,Palwal,"Shyam Nagar, Palwal - HSPCB",27-03-2024 21:00:00,28.1485564,77.3320667,PM10,58,170,96
India,Haryana,Palwal,"Shyam Nagar, Palwal - HSPCB",27-03-2024 21:00:00,28.1485564,77.3320667,NH3,9,9,9
India,Haryana,Palwal,"Shyam Nagar, Palwal - HSPCB",27-03-2024 21:00:00,28.1485564,77.3320667,SO2,10,24,17
India,Haryana,Panchkula,"Sector-6, Panchkula - HSPCB ",27-03-2024 21:00:00,30.7057778,76.8531805555555,PM2.5,NA,NA,NA
India,Haryana,Panchkula,"Sector-6, Panchkula - HSPCB ",27-03-2024 21:00:00,30.7057778,76.8531805555555,NO2,NA,NA,NA
India,Haryana,Panipat,"Sector-18, Panipat - HSPCB",27-03-2024 21:00:00,29.497973,76.993331,NO2,31,32,31
India,Haryana,Panipat,"Sector-18, Panipat - HSPCB",27-03-2024 21:00:00,29.497973,76.993331,NH3,2,3,2
India,Haryana,Panipat,"Sector-18, Panipat - HSPCB",27-03-2024 21:00:00,29.497973,76.993331,SO2,18,19,19
India,Haryana,Rohtak,"MD University, Rohtak - HSPCB",27-03-2024 21:00:00,28.52123,76.37138,SO2,5,8,7
India,Haryana,Sirsa,"F-Block, Sirsa - HSPCB",27-03-2024 21:00:00,29.536400,75.015800,PM2.5,32,110,65
India,Haryana,Sirsa,"F-Block, Sirsa - HSPCB",27-03-2024 21:00:00,29.536400,75.015800,NO2,10,18,11
India,Haryana,Sirsa,"F-Block, Sirsa - HSPCB",27-03-2024 21:00:00,29.536400,75.015800,OZONE,32,94,49
India,Haryana,Sonipat,"Murthal, Sonipat - HSPCB",27-03-2024 21:00:00,29.027200,77.062100,NH3,6,10,9
India,Haryana,Sonipat,"Murthal, Sonipat - HSPCB",27-03-2024 21:00:00,29.027200,77.062100,CO,10,30,16
India,Haryana,Sonipat,"Murthal, Sonipat - HSPCB",27-03-2024 21:00:00,29.027200,77.062100,OZONE,17,35,31
India,Haryana,Yamuna Nagar,"Gobind Pura, Yamuna Nagar - HSPCB",27-03-2024 21:00:00,30.1480566,77.2893471,PM10,NA,NA,NA
India,Jharkhand,Dhanbad,"Kalakusuma, Dhanbad - DMC",27-03-2024 21:00:00,23.811548,86.481238,CO,128,133,132
India,Jharkhand,Dhanbad,"Kalakusuma, Dhanbad - DMC",27-03-2024 21:00:00,23.811548,86.481238,OZONE,23,88,50
India,Jharkhand,Dhanbad,"Sardar Patel Nagar, Dhanbad - JSPCB",27-03-2024 21:00:00,23.80569,86.44268,PM2.5,NA,NA,NA
India,Karnataka,Bengaluru,"BTM Layout, Bengaluru - CPCB",27-03-2024 21:00:00,12.9135218,77.5950804,CO,43,44,44
India,Karnataka,Bengaluru,"Hebbal, Bengaluru - KSPCB",27-03-2024 21:00:00,13.029152,77.585901,CO,4,33,19
India,Karnataka,Bengaluru,"Hombegowda Nagar, Bengaluru - KSPCB",27-03-2024 21:00:00,12.938539,77.590100,PM2.5,33,68,51
India,Karnataka,Bengaluru,"Hombegowda Nagar, Bengaluru - KSPCB",27-03-2024 21:00:00,12.938539,77.590100,NO2,11,24,18
India,Karnataka,Bengaluru,"Hombegowda Nagar, Bengaluru - KSPCB",27-03-2024 21:00:00,12.938539,77.590100,NH3,1,2,1
India,Karnataka,Bengaluru,"Jayanagar 5th Block, Bengaluru - KSPCB",27-03-2024 21:00:00,12.920984,77.584908,NH3,4,5,4
India,Karnataka,Bengaluru,"Jayanagar 5th Block, Bengaluru - KSPCB",27-03-2024 21:00:00,12.920984,77.584908,CO,6,36,32
India,Karnataka,Bengaluru,"Kasturi Nagar, Bengaluru - KSPCB",27-03-2024 21:00:00,13.003872,77.664217,NO2,16,17,17
India,Karnataka,Bengaluru,"Kasturi Nagar, Bengaluru - KSPCB",27-03-2024 21:00:00,13.003872,77.664217,CO,22,24,23
India,Karnataka,Bengaluru,"Kasturi Nagar, Bengaluru - KSPCB",27-03-2024 21:00:00,13.003872,77.664217,OZONE,14,93,75
India,Karnataka,Bengaluru,"Peenya, Bengaluru - CPCB",27-03-2024 21:00:00,13.0270199,77.494094,NO2,9,25,14
India,Karnataka,Bengaluru,"RVCE-Mailasandra, Bengaluru - KSPCB",27-03-2024 21:00:00,12.921418,77.502466,PM10,67,186,92
India,Karnataka,Bengaluru,"RVCE-Mailasandra, Bengaluru - KSPCB",27-03-2024 21:00:00,12.921418,77.502466,SO2,8,19,11
India,Karnataka,Bengaluru,"Shivapura_Peenya, Bengaluru - KSPCB",27-03-2024 21:00:00,13.0246342,77.5080115,NH3,4,4,4
India,Karnataka,Bengaluru,"Shivapura_Peenya, Bengaluru - KSPCB",27-03-2024 21:00:00,13.0246342,77.5080115,OZONE,54,56,54
India,Karnataka,Bidar,"Naubad, Bidar - KSPCB",27-03-2024 21:00:00,17.930306,77.482194,NH3,3,3,3
India,Karnataka,Bidar,"Naubad, Bidar - KSPCB",27-03-2024 21:00:00,17.930306,77.482194,OZONE,15,49,44
India,Karnataka,Chamarajanagar,"Urban, Chamarajanagar - KSPCB",27-03-2024 21:00:00,11.55358,76.55521,PM10,34,65,43
India,Karnataka,Chamarajanagar,"Urban, Chamarajanagar - KSPCB",27-03-2024 21:00:00,11.55358,76.55521,NO2,24,50,31
India,Karnataka,Chikkaballapur,"Chikkaballapur Rural, Chikkaballapur - KSPCB",27-03-2024 21:00:00,13.428828,77.731418,PM10,51,118,67
India,Karnataka,Chikkamagaluru,"Kalyana Nagara, Chikkamagaluru - KSPCB",27-03-2024 21:00:00,13.328028,75.797056,PM10,25,420,68
India,Karnataka,Davanagere,"Devaraj Urs Badavane, Davanagere - KSPCB",27-03-2024 21:00:00,14.475800,75.905200,PM10,42,113,76
India,Karnataka,Davanagere,"Devaraj Urs Badavane, Davanagere - KSPCB",27-03-2024 21:00:00,14.475800,75.905200,OZONE,21,29,27
India,Karnataka,Dharwad,"Kalabhavan, Dharwad - KSPCB",27-03-2024 21:00:00,15.459706,75.008381,NO2,4,38,19
India,Karnataka,Dharwad,"Kalabhavan, Dharwad - KSPCB",27-03-2024 21:00:00,15.459706,75.008381,OZONE,2,35,22
India,Karnataka,Gadag,"Panchal Nagar, Gadag - KSPCB",27-03-2024 21:00:00,15.411456,75.638133,PM2.5,28,58,38
India,Karnataka,Gadag,"Panchal Nagar, Gadag - KSPCB",27-03-2024 21:00:00,15.411456,75.638133,NO2,4,20,13
India,Karnataka,Gadag,"Panchal Nagar, Gadag - KSPCB",27-03-2024 21:00:00,15.411456,75.638133,NH3,1,3,2
India,Karnataka,Gadag,"Panchal Nagar, Gadag - KSPCB",27-03-2024 21:00:00,15.411456,75.638133,OZONE,20,123,91
India,Karnataka,Hassan,"B.Katihalli, Hassan - KSPCB",27-03-2024 21:00:00,13.008556,76.125258,PM2.5,68,90,73
India,Karnataka,Hassan,"B.Katihalli, Hassan - KSPCB",27-03-2024 21:00:00,13.008556,76.125258,NH3,4,7,6
India,Karnataka,Haveri,"Ashwini Nagar, Haveri - KSPCB",27-03-2024 21:00:00,14.791800,75.389600,PM2.5,32,137,54
India,Karnataka,Haveri,"Ashwini Nagar, Haveri - KSPCB",27-03-2024 21:00:00,14.791800,75.389600,PM10,50,161,75
India,Karnataka,Haveri,"Ashwini Nagar, Haveri - KSPCB",27-03-2024 21:00:00,14.791800,75.389600,NO2,29,39,32
India,Karnataka,Haveri,"Ashwini Nagar, Haveri - KSPCB",27-03-2024 21:00:00,14.791800,75.389600,CO,36,38,37
India,Karnataka,Haveri,"Ashwini Nagar, Haveri - KSPCB",27-03-2024 21:00:00,14.791800,75.389600,OZONE,18,24,22
India,Karnataka,Kalaburagi,"Lal Bahadur Shastri Nagar, Kalaburagi - KSPCB",27-03-2024 21:00:00,17.321993,76.822628,PM10,34,92,62
India,Karnataka,Kalaburagi,"Lal Bahadur Shastri Nagar, Kalaburagi - KSPCB",27-03-2024 21:00:00,17.321993,76.822628,CO,42,47,43
India,Karnataka,Kolar,"Tamaka Ind. Area, Kolar - KSPCB",27-03-2024 21:00:00,13.1276288,78.1570122,PM10,17,67,56
India,Karnataka,Koppal,"Diwator Nagar, Koppal - KSPCB",27-03-2024 21:00:00,15.347630,76.181767,CO,78,82,81
India,Karnataka,Madikeri,"Stuart Hill, Madikeri - KSPCB",27-03-2024 21:00:00,12.415911,75.735050,PM2.5,35,75,54
India,Karnataka,Madikeri,"Stuart Hill, Madikeri - KSPCB",27-03-2024 21:00:00,12.415911,75.735050,CO,3,62,27
India,Karnataka,Mangalore,"Kadri, Mangalore - KSPCB",27-03-2024 21:00:00,12.889250,74.853000,NH3,2,2,2
India,Karnataka,Mysuru,"Hebbal 1st Stage, Mysuru - KSPCB",27-03-2024 21:00:00,12.21041,76.37376,PM10,29,76,51
India,Karnataka,Raichur,"Haji Colony, Raichur - KSPCB",27-03-2024 21:00:00,16.208139,77.348417,NO2,17,48,33
India,Karnataka,Raichur,"Haji Colony, Raichur - KSPCB",27-03-2024 21:00:00,16.208139,77.348417,CO,93,118,107
India,Karnataka,Ramanagara,"Vijay Nagar, Ramanagara - KSPCB",27-03-2024 21:00:00,12.733409,77.298051,PM2.5,21,37,28
India,Karnataka,Ramanagara,"Vijay Nagar, Ramanagara - KSPCB",27-03-2024 21:00:00,12.733409,77.298051,SO2,15,29,22
India,Karnataka,Ramanagara,"Vijay Nagar, Ramanagara - KSPCB",27-03-2024 21:00:00,12.733409,77.298051,OZONE,28,30,29
India,Karnataka,Shivamogga,"Vinoba Nagara, Shivamogga - KSPCB",27-03-2024 21:00:00,13.940000,75.555917,NO2,10,18,13
India,Karnataka,Tumakuru,"Thimmalapura, Tumakuru - KSPCB",27-03-2024 21:00:00,13.377516,77.099072,PM10,NA,NA,NA
India,Karnataka,Udupi,"Brahmagiri, Udupi - KSPCB",27-03-2024 21:00:00,13.34194444,74.74694444,PM10,52,132,81
India,Karnataka,Vijayapura,"Ibrahimpur, Vijayapura - KSPCB",27-03-2024 21:00:00,16.802639,75.722694,PM10,38,39,39
India,Karnataka,Yadgir,"Collector Office, Yadgir - KSPCB",27-03-2024 21:00:00,16.7602,77.1428,PM10,56,115,77
India,Kerala,Thiruvananthapuram,"Kariavattom, Thiruvananthapuram - Kerala PCB",27-03-2024 21:00:00,8.563700,76.886500,PM2.5,76,90,82
India,Kerala,Thiruvananthapuram,"Kariavattom, Thiruvananthapuram - Kerala PCB",27-03-2024 21:00:00,8.563700,76.886500,PM10,92,104,98
India,Kerala,Thiruvananthapuram,"Kariavattom, Thiruvananthapuram - Kerala PCB",27-03-2024 21:00:00,8.563700,76.886500,OZONE,27,33,30
India,Kerala,Thiruvananthapuram,"Plammoodu, Thiruvananthapuram - Kerala PCB",27-03-2024 21:00:00,8.5149093,76.9435879,SO2,5,14,8
India,Madhya Pradesh,Bhopal,"Idgah Hills, Bhopal - MPPCB",27-03-2024 21:00:00,23.264759,77.381568,PM10,79,188,110
India,Madhya Pradesh,Bhopal,"Idgah Hills, Bhopal - MPPCB",27-03-2024 21:00:00,23.264759,77.381568,NO2,16,66,29
India,Madhya Pradesh,Bhopal,"Paryavaran Parisar, Bhopal - MPPCB",27-03-2024 21:00:00,23.210494,77.425409,PM10,71,255,122
India,Madhya Pradesh,Bhopal,"Paryavaran Parisar, Bhopal - MPPCB",27-03-2024 21:00:00,23.210494,77.425409,NH3,7,12,8
India,Madhya Pradesh,Bhopal,"Paryavaran Parisar, Bhopal - MPPCB",27-03-2024 21:00:00,23.210494,77.425409,SO2,2,18,7
India,Madhya Pradesh,Bhopal,"T T Nagar, Bhopal - MPPCB",27-03-2024 21:00:00,23.233584,77.400574,PM2.5,38,187,64
India,Madhya Pradesh,Dewas,"Bhopal Chauraha, Dewas - MPPCB",27-03-2024 21:00:00,22.9682591,76.064118,PM2.5,43,201,74
India,Madhya Pradesh,Dewas,"Bhopal Chauraha, Dewas - MPPCB",27-03-2024 21:00:00,22.9682591,76.064118,NO2,12,14,13
India,Madhya Pradesh,Gwalior,"City Center, Gwalior - MPPCB",27-03-2024 21:00:00,26.203442,78.193251,CO,22,120,69
India,Madhya Pradesh,Gwalior,"Deen Dayal Nagar, Gwalior - MPPCB",27-03-2024 21:00:00,26.259242,78.216432,PM2.5,32,224,103
India,Madhya Pradesh,Gwalior,"Deen Dayal Nagar, Gwalior - MPPCB",27-03-2024 21:00:00,26.259242,78.216432,NH3,8,20,11
India,Madhya Pradesh,Gwalior,"Deen Dayal Nagar, Gwalior - MPPCB",27-03-2024 21:00:00,26.259242,78.216432,CO,24,90,73
India,Madhya Pradesh,Indore,"Chhoti Gwaltoli, Indore - MPPCB",27-03-2024 21:00:00,22.4310,75.5213,PM2.5,54,316,120
India,Madhya Pradesh,Indore,"Chhoti Gwaltoli, Indore - MPPCB",27-03-2024 21:00:00,22.4310,75.5213,PM10,79,257,127
India,Madhya Pradesh,Indore,"Chhoti Gwaltoli, Indore - MPPCB",27-03-2024 21:00:00,22.4310,75.5213,SO2,10,28,16
India,Madhya Pradesh,Jabalpur,"Govindh Bhavan Colony, Jabalpur - JMC",27-03-2024 21:00:00,23.163174,79.973061,NO2,8,26,14
India,Madhya Pradesh,Jabalpur,"Gupteshwar, Jabalpur - JMC",27-03-2024 21:00:00,23.142888,79.916147,PM2.5,53,313,114
India,Madhya Pradesh,Jabalpur,"Marhatal, Jabalpur - MPPCB",27-03-2024 21:00:00,23.168606,79.932247,PM10,30,252,61
India,Madhya Pradesh,Jabalpur,"Marhatal, Jabalpur - MPPCB",27-03-2024 21:00:00,23.168606,79.932247,NO2,10,121,33
India,Madhya Pradesh,Jabalpur,"Suhagi, Jabalpur - JMC",27-03-2024 21:00:00,23.218135,79.957770,PM2.5,58,316,113
India,Madhya Pradesh,Jabalpur,"Suhagi, Jabalpur - JMC",27-03-2024 21:00:00,23.218135,79.957770,CO,36,134,76
India,Madhya Pradesh,Katni,"Gole Bazar, Katni - MPPCB",27-03-2024 21:00:00,23.50016,80.23284,NH3,2,8,4
India,Madhya Pradesh,Katni,"Gole Bazar, Katni - MPPCB",27-03-2024 21:00:00,23.50016,80.23284,CO,24,54,28
India,Madhya Pradesh,Mandideep,"Sector-D Industrial Area, Mandideep - MPPCB",27-03-2024 21:00:00,23.108440,77.511428,PM10,104,417,210
India,Madhya Pradesh,Mandideep,"Sector-D Industrial Area, Mandideep - MPPCB",27-03-2024 21:00:00,23.108440,77.511428,SO2,18,121,62
India,Madhya Pradesh,Mandideep,"Sector-D Industrial Area, Mandideep - MPPCB",27-03-2024 21:00:00,23.108440,77.511428,CO,16,77,32
India,Madhya Pradesh,Pithampur,"Sector-2 Industrial Area, Pithampur - MPPCB",27-03-2024 21:00:00,22.624758,75.675238,NO2,13,35,19
India,Madhya Pradesh,Ratlam,"Shasthri Nagar, Ratlam - IPCA Lab",27-03-2024 21:00:00,23.331731,75.045981,PM10,107,359,165
India,Madhya Pradesh,Singrauli,"Suryakiran Bhawan NCL, Singrauli - MPPCB",27-03-2024 21:00:00,24.108970,82.645580,NH3,3,4,4
India,Maharashtra,Ahmednagar,"Tarakpur, Ahmednagar - MPCB",27-03-2024 21:00:00,19.10122,74.73339,PM2.5,52,287,126
India,Maharashtra,Ahmednagar,"Tarakpur, Ahmednagar - MPCB",27-03-2024 21:00:00,19.10122,74.73339,PM10,96,144,121
India,Maharashtra,Ahmednagar,"Tarakpur, Ahmednagar - MPCB",27-03-2024 21:00:00,19.10122,74.73339,OZONE,31,217,147
India,Maharashtra,Akola,"Ramdaspeth, Akola - MPCB",27-03-2024 21:00:00,20.719516,77.000253,PM2.5,43,99,69
India,Maharashtra,Amravati,"Shivneri Colony, Amravati - MPCB",27-03-2024 21:00:00,20.9402359,77.7895248,OZONE,5,146,112
India,Maharashtra,Aurangabad,"MIDC Chilkalthana, Aurangabad - MPCB",27-03-2024 21:00:00,19.875620,75.387310,CO,109,122,112
India,Maharashtra,Aurangabad,"More Chowk Waluj, Aurangabad - MPCB",27-03-2024 21:00:00,19.8389439,75.244448,NO2,41,100,62
India,Maharashtra,Aurangabad,"More Chowk Waluj, Aurangabad - MPCB",27-03-2024 21:00:00,19.8389439,75.244448,SO2,1,6,2
India,Maharashtra,Aurangabad,"Rachnakar Colony, Aurangabad - MPCB",27-03-2024 21:00:00,19.863756,75.321188,SO2,16,62,31
India,Maharashtra,Belapur,"CBD Belapur, Belapur - MPCB",27-03-2024 21:00:00,19.0243902,73.0406721,PM2.5,50,188,87
India,Maharashtra,Belapur,"CBD Belapur, Belapur - MPCB",27-03-2024 21:00:00,19.0243902,73.0406721,NO2,16,43,25
India,Maharashtra,Belapur,"CBD Belapur, Belapur - MPCB",27-03-2024 21:00:00,19.0243902,73.0406721,CO,16,40,21
India,Maharashtra,Boisar,"Khaira, Boisar - MPCB",27-03-2024 21:00:00,19.786089,72.757971,SO2,2,53,11
India,Maharashtra,Boisar,"Khaira, Boisar - MPCB",27-03-2024 21:00:00,19.786089,72.757971,OZONE,13,192,23
India,Maharashtra,Chandrapur,"Chauhan Colony, Chandrapur - MPCB",27-03-2024 21:00:00,19.962900,79.298714,SO2,12,42,20
India,Maharashtra,Dhule,"Deopur, Dhule - MPCB",27-03-2024 21:00:00,20.918946,74.776388,CO,20,67,31
India,Maharashtra,Jalna,"Old MIDC, Jalna - MPCB",27-03-2024 21:00:00,19.854616,75.905894,PM2.5,NA,NA,NA
India,Maharashtra,Jalna,"Old MIDC, Jalna - MPCB",27-03-2024 21:00:00,19.854616,75.905894,NH3,NA,NA,NA
India,Maharashtra,Jalna,"Old MIDC, Jalna - MPCB",27-03-2024 21:00:00,19.854616,75.905894,OZONE,51,172,87
India,Maharashtra,Kalyan,"Khadakpada, Kalyan - MPCB",27-03-2024 21:00:00,19.25292,73.142019,NH3,1,1,1
India,Maharashtra,Latur,"Sawe Wadi, Latur - MPCB",27-03-2024 21:00:00,18.39963,76.57452,SO2,2,12,8
India,Maharashtra,Mira-Bhayandar,"Bhayandar West, Mira-Bhayandar - MPCB",27-03-2024 21:00:00,19.296481,72.840923,OZONE,2,44,37
India,Maharashtra,Mumbai,"Bandra Kurla Complex, Mumbai - MPCB",27-03-2024 21:00:00,19.065931,72.862131,NO2,4,22,11
India,Maharashtra,Mumbai,"Bandra Kurla Complex, Mumbai - MPCB",27-03-2024 21:00:00,19.065931,72.862131,CO,14,58,17
India,Maharashtra,Mumbai,"Borivali East, Mumbai - IITM",27-03-2024 21:00:00,19.23241,72.86895,NO2,39,82,51
India,Maharashtra,Mumbai,"Borivali East, Mumbai - IITM",27-03-2024 21:00:00,19.23241,72.86895,OZONE,27,74,58
India,Maharashtra,Mumbai,"Borivali East, Mumbai - MPCB",27-03-2024 21:00:00,19.2243333,72.8658113,SO2,6,9,7
India,Maharashtra,Mumbai,"Byculla, Mumbai - BMC",27-03-2024 21:00:00,18.9767,72.8380,NH3,4,5,4
India,Maharashtra,Mumbai,"Byculla, Mumbai - BMC",27-03-2024 21:00:00,18.9767,72.8380,OZONE,1,50,38
India,Maharashtra,Mumbai,"Chakala-Andheri East, Mumbai - IITM",27-03-2024 21:00:00,19.11074,72.86084,PM2.5,35,75,58
India,Maharashtra,Mumbai,"Chembur, Mumbai - MPCB",27-03-2024 21:00:00,19.0364585,72.8954371,PM2.5,48,92,62
India,Maharashtra,Mumbai,"Chembur, Mumbai - MPCB",27-03-2024 21:00:00,19.0364585,72.8954371,CO,16,42,19
India,Maharashtra,Mumbai,"Chembur, Mumbai - MPCB",27-03-2024 21:00:00,19.0364585,72.8954371,OZONE,2,31,20
India,Maharashtra,Mumbai,"Chhatrapati Shivaji Intl. Airport (T2), Mumbai - MPCB",27-03-2024 21:00:00,19.10078,72.87462,PM10,40,153,71
India,Maharashtra,Mumbai,"Chhatrapati Shivaji Intl. Airport (T2), Mumbai - MPCB",27-03-2024 21:00:00,19.10078,72.87462,SO2,20,26,23
India,Maharashtra,Mumbai,"Chhatrapati Shivaji Intl. Airport (T2), Mumbai - MPCB",27-03-2024 21:00:00,19.10078,72.87462,OZONE,4,6,5
India,Maharashtra,Mumbai,"Colaba, Mumbai - MPCB",27-03-2024 21:00:00,18.910000,72.820000,PM2.5,11,53,23
India,Maharashtra,Mumbai,"Ghatkopar, Mumbai - BMC",27-03-2024 21:00:00,19.083694,72.920967,OZONE,1,10,7
India,Maharashtra,Mumbai,"Kandivali East, Mumbai - MPCB",27-03-2024 21:00:00,19.205800,72.868200,OZONE,29,31,30
India,Maharashtra,Mumbai,"Kandivali West, Mumbai - BMC",27-03-2024 21:00:00,19.215859,72.831718,PM10,25,58,40
India,Maharashtra,Mumbai,"Kandivali West, Mumbai - BMC",27-03-2024 21:00:00,19.215859,72.831718,SO2,NA,NA,NA
India,Maharashtra,Mumbai,"Kurla, Mumbai - MPCB",27-03-2024 21:00:00,19.0863,72.8888,OZONE,27,29,28
India,Maharashtra,Mumbai,"Mindspace-Malad West, Mumbai - MPCB",27-03-2024 21:00:00,19.1878657,72.8304069,NO2,2,44,18
India,Maharashtra,Mumbai,"Mindspace-Malad West, Mumbai - MPCB",27-03-2024 21:00:00,19.1878657,72.8304069,OZONE,4,31,26
India,Maharashtra,Mumbai,"Mulund West, Mumbai - MPCB",27-03-2024 21:00:00,19.1750,72.9419,PM2.5,18,57,32
India,Maharashtra,Mumbai,"Mulund West, Mumbai - MPCB",27-03-2024 21:00:00,19.1750,72.9419,NO2,20,25,22
India,Maharashtra,Mumbai,"Powai, Mumbai - MPCB",27-03-2024 21:00:00,19.137500,72.915056,CO,30,38,35
India,Maharashtra,Mumbai,"Sewri, Mumbai - BMC",27-03-2024 21:00:00,19.000084,72.856730,NH3,3,9,6
India,Maharashtra,Mumbai,"Sewri, Mumbai - BMC",27-03-2024 21:00:00,19.000084,72.856730,SO2,3,6,4
India,Maharashtra,Mumbai,"Sewri, Mumbai - BMC",27-03-2024 21:00:00,19.000084,72.856730,CO,16,52,18
India,Maharashtra,Mumbai,"Sewri, Mumbai - BMC",27-03-2024 21:00:00,19.000084,72.856730,OZONE,6,25,19
India,Maharashtra,Mumbai,"Shivaji Nagar, Mumbai - BMC",27-03-2024 21:00:00,19.060498,72.923356,PM10,67,113,94
India,Maharashtra,Mumbai,"Shivaji Nagar, Mumbai - BMC",27-03-2024 21:00:00,19.060498,72.923356,SO2,1,20,6
India,Maharashtra,Mumbai,"Sion, Mumbai - MPCB",27-03-2024 21:00:00,19.047000,72.874600,PM2.5,38,90,54
India,Maharashtra,Mumbai,"Vasai West, Mumbai - MPCB",27-03-2024 21:00:00,19.383200,72.820400,NH3,4,4,4
India,Maharashtra,Mumbai,"Vile Parle West, Mumbai - MPCB",27-03-2024 21:00:00,19.10861,72.83622,NH3,5,11,11
India,Maharashtra,Mumbai,"Worli, Mumbai - MPCB",27-03-2024 21:00:00,18.9936162,72.8128113,PM10,17,39,28
India,Maharashtra,Mumbai,"Worli, Mumbai - MPCB",27-03-2024 21:00:00,18.9936162,72.8128113,NO2,14,15,14
India,Maharashtra,Nagpur,"Ambazari, Nagpur - MPCB",27-03-2024 21:00:00,21.121801,79.04952,NO2,23,131,52
India,Maharashtra,Nagpur,"Opp GPO Civil Lines, Nagpur - MPCB",27-03-2024 21:00:00,21.152875,79.0517531,PM2.5,62,242,150
India,Maharashtra,Nagpur,"Opp GPO Civil Lines, Nagpur - MPCB",27-03-2024 21:00:00,21.152875,79.0517531,NH3,5,16,8
India,Maharashtra,Nagpur,"Ram Nagar, Nagpur - MPCB",27-03-2024 21:00:00,21.143383,79.048912,NH3,3,10,5
India,Maharashtra,Nagpur,"Ram Nagar, Nagpur - MPCB",27-03-2024 21:00:00,21.143383,79.048912,SO2,5,44,25
India,Maharashtra,Nanded,"Sneh Nagar, Nanded - MPCB",27-03-2024 21:00:00,19.173852,77.296291,PM10,90,167,120
India,Maharashtra,Nashik,"Gangapur Road, Nashik - MPCB",27-03-2024 21:00:00,20.0073285,73.7762427,SO2,NA,NA,NA
India,Maharashtra,Nashik,"Gangapur Road, Nashik - MPCB",27-03-2024 21:00:00,20.0073285,73.7762427,CO,22,24,23
India,Maharashtra,Nashik,"Hirawadi, Nashik - MPCB",27-03-2024 21:00:00,20.021503,73.813844,PM2.5,39,94,65
India,Maharashtra,Nashik,"Hirawadi, Nashik - MPCB",27-03-2024 21:00:00,20.021503,73.813844,CO,11,28,15
India,Maharashtra,Nashik,"MIDC Ambad, Nashik - MPCB",27-03-2024 21:00:00,19.950220,73.731480,NO2,10,34,20
India,Maharashtra,Nashik,"MIDC Ambad, Nashik - MPCB",27-03-2024 21:00:00,19.950220,73.731480,OZONE,9,75,53
India,Maharashtra,Navi Mumbai,"Kopripada-Vashi, Navi Mumbai - MPCB",27-03-2024 21:00:00,19.090337,73.014232,PM2.5,42,187,85
India,Maharashtra,Navi Mumbai,"Mahape, Navi Mumbai - MPCB",27-03-2024 21:00:00,19.1135051,73.008978,PM10,68,212,115
India,Maharashtra,Navi Mumbai,"Mahape, Navi Mumbai - MPCB",27-03-2024 21:00:00,19.1135051,73.008978,OZONE,15,45,36
India,Maharashtra,Navi Mumbai,"Nerul, Navi Mumbai - MPCB",27-03-2024 21:00:00,19.008751,73.016620,PM10,78,195,125
India,Maharashtra,Navi Mumbai,"Nerul, Navi Mumbai - MPCB",27-03-2024 21:00:00,19.008751,73.016620,CO,22,34,25
India,Maharashtra,Navi Mumbai,"Sanpada, Navi Mumbai - MPCB",27-03-2024 21:00:00,19.0575752,73.0151367,PM2.5,32,82,54
India,Maharashtra,Navi Mumbai,"Sector-19A Nerul, Navi Mumbai - IITM",27-03-2024 21:00:00,19.044,73.0325,NO2,26,69,50
India,Maharashtra,Navi Mumbai,"Sector-19A Nerul, Navi Mumbai - IITM",27-03-2024 21:00:00,19.044,73.0325,NH3,9,13,11
India,Maharashtra,Parbhani,"Masoom Colony, Parbhani - MPCB",27-03-2024 21:00:00,19.265594,76.761463,SO2,4,56,20
India,Maharashtra,Pimpri-Chinchwad,"Gavalinagar, Pimpri Chinchwad - MPCB",27-03-2024 21:00:00,18.63673,73.82487,NH3,1,7,4
India,Maharashtra,Pune,"Bhosari, Pune - IITM",27-03-2024 21:00:00,18.640051,73.848956,OZONE,13,150,104
India,Maharashtra,Pune,"Katraj Dairy, Pune - MPCB",27-03-2024 21:00:00,18.454450,73.854155,NO2,16,43,28
India,Maharashtra,Pune,"Katraj Dairy, Pune - MPCB",27-03-2024 21:00:00,18.454450,73.854155,CO,30,82,52
India,Maharashtra,Pune,"Revenue Colony-Shivajinagar, Pune - IITM",27-03-2024 21:00:00,18.530085,73.849598,NH3,10,20,15
India,Maharashtra,Pune,"Revenue Colony-Shivajinagar, Pune - IITM",27-03-2024 21:00:00,18.530085,73.849598,CO,109,118,116
India,Maharashtra,Pune,"Savitribai Phule Pune University, Pune - MPCB",27-03-2024 21:00:00,18.547056,73.826908,NH3,1,2,2
India,Maharashtra,Pune,"Transport Nagar-Nigdi, Pune - IITM",27-03-2024 21:00:00,18.664282,73.763966,PM10,51,110,81
India,Maharashtra,Sangli,"Vijay Nagar, Sangli - MPCB",27-03-2024 21:00:00, 16.5038,74.3623,NH3,2,3,2
India,Maharashtra,Solapur,"Dnyaneshwar Nagar, Solapur - MPCB",27-03-2024 21:00:00,17.6336264,75.9132495,OZONE,33,91,82
India,Maharashtra,Solapur,"Solapur, Solapur - MPCB",27-03-2024 21:00:00,17.6599188,75.9063906,PM10,128,154,145
India,Maharashtra,Thane,"Kasarvadavali, Thane - MPCB",27-03-2024 21:00:00,19.26777,72.97182,CO,8,35,12
India,Maharashtra,Thane,"Upvan Fort, Thane - MPCB",27-03-2024 21:00:00,19.222279,72.957979,PM2.5,33,104,65
India,Maharashtra,Thane,"Upvan Fort, Thane - MPCB",27-03-2024 21:00:00,19.222279,72.957979,NO2,12,81,34
India,Maharashtra,Thane,"Upvan Fort, Thane - MPCB",27-03-2024 21:00:00,19.222279,72.957979,NH3,14,24,17
India,Maharashtra,Ulhasnagar,"Sidhi Vinayak Nagar, Ulhasnagar - MPCB",27-03-2024 21:00:00,19.235581,73.159121,PM2.5,73,170,121
India,Maharashtra,Ulhasnagar,"Sidhi Vinayak Nagar, Ulhasnagar - MPCB",27-03-2024 21:00:00,19.235581,73.159121,NO2,9,31,20
India,Maharashtra,Virar,"Bolinj, Virar - MPCB",27-03-2024 21:00:00,19.4458210,72.7988231,PM2.5,33,200,93
India,Manipur,Imphal,"DM College of Science, Imphal - Manipur PCB",27-03-2024 21:00:00,24.8207389,93.9423085,NO2,7,8,8
India,Manipur,Imphal,"DM College of Science, Imphal - Manipur PCB",27-03-2024 21:00:00,24.8207389,93.9423085,CO,6,6,6
India,Manipur,Imphal,"DM College of Science, Imphal - Manipur PCB",27-03-2024 21:00:00,24.8207389,93.9423085,OZONE,1,4,3
India,Manipur,Imphal,"Manipur University, Imphal - Manipur PCB",27-03-2024 21:00:00,24.7524239,93.9286218,NO2,7,36,11
India,Manipur,Imphal,"Manipur University, Imphal - Manipur PCB",27-03-2024 21:00:00,24.7524239,93.9286218,SO2,79,83,81
India,Manipur,Imphal,"Manipur University, Imphal - Manipur PCB",27-03-2024 21:00:00,24.7524239,93.9286218,CO,8,52,21
India,Mizoram,Aizawl,"Sikulpuikawn, Aizawl - Mizoram PCB",27-03-2024 21:00:00,23.7176342,92.7192841,PM2.5,39,85,61
India,Mizoram,Aizawl,"Sikulpuikawn, Aizawl - Mizoram PCB",27-03-2024 21:00:00,23.7176342,92.7192841,OZONE,1,62,14
India,Odisha,Angul,"Hakimapada, Angul - OSPCB",27-03-2024 21:00:00,20.832874,85.104082,PM2.5,47,335,140
India,Odisha,Angul,"Hakimapada, Angul - OSPCB",27-03-2024 21:00:00,20.832874,85.104082,SO2,6,134,41
India,Odisha,Angul,"Hakimapada, Angul - OSPCB",27-03-2024 21:00:00,20.832874,85.104082,OZONE,9,224,158
India,Odisha,Balasore,"Kalidaspur, Balasore - OSPCB",27-03-2024 21:00:00,21.51161,86.89088,NO2,8,32,15
India,Odisha,Barbil,"Forest Office, Barbil - OSPCB",27-03-2024 21:00:00,22.1166054,85.3945546,SO2,3,37,16
India,Odisha,Bhubaneswar,"Lingraj Mandir, Bhubaneswar - OSPCB",27-03-2024 21:00:00,20.240790,85.836784,SO2,2,9,5
India,Odisha,Bhubaneswar,"Patia, Bhubaneswar - OSPCB",27-03-2024 21:00:00,20.34652,85.81630,PM10,25,161,72
India,Odisha,Bhubaneswar,"Patia, Bhubaneswar - OSPCB",27-03-2024 21:00:00,20.34652,85.81630,NO2,2,11,6
India,Odisha,Bileipada,"Tata Township, Bileipada - OSPCB",27-03-2024 21:00:00,22.06156703,85.47409613,PM10,20,406,192
India,Odisha,Bileipada,"Tata Township, Bileipada - OSPCB",27-03-2024 21:00:00,22.06156703,85.47409613,SO2,NA,NA,NA
India,Odisha,Brajrajnagar,"GM Office, Brajrajnagar - OSPCB",27-03-2024 21:00:00,21.8004996,83.8396977,CO,71,97,76
India,Odisha,Byasanagar,"Ferro Chrome Colony, Byasanagar - OSPCB",27-03-2024 21:00:00,20.94185,86.11510,NO2,6,17,11
India,Odisha,Byasanagar,"Ferro Chrome Colony, Byasanagar - OSPCB",27-03-2024 21:00:00,20.94185,86.11510,SO2,3,26,11
India,Odisha,Cuttack,"CDA Area, Cuttack - OSPCB",27-03-2024 21:00:00,20.48891     ,85.84768     ,OZONE,18,108,65
India,Odisha,Keonjhar,"Jagamohanpur, Keonjhar - OSPCB",27-03-2024 21:00:00,21.643900,85.599355,NO2,14,93,41
India,Odisha,Rourkela,"Raghunathpali, Rourkela - OSPCB",27-03-2024 21:00:00,22.220833,84.809444,PM2.5,109,205,160
India,Odisha,Rourkela,"Raghunathpali, Rourkela - OSPCB",27-03-2024 21:00:00,22.220833,84.809444,PM10,116,153,131
India,Odisha,Rourkela,"Raghunathpali, Rourkela - OSPCB",27-03-2024 21:00:00,22.220833,84.809444,SO2,1,24,6
India,Odisha,Rourkela,"Sector-2, Rourkela - OSPCB",27-03-2024 21:00:00,22.24500000,84.88111111,PM10,85,135,114
India,Odisha,Rourkela,"Sector-2, Rourkela - OSPCB",27-03-2024 21:00:00,22.24500000,84.88111111,CO,18,50,34
India,Odisha,Talcher,"Talcher Coalfields,Talcher - OSPCB",27-03-2024 21:00:00,20.9360711,85.1707021,PM2.5,2,307,109
India,Odisha,Talcher,"Talcher Coalfields,Talcher - OSPCB",27-03-2024 21:00:00,20.9360711,85.1707021,NO2,14,17,16
India,Odisha,Talcher,"Talcher Coalfields,Talcher - OSPCB",27-03-2024 21:00:00,20.9360711,85.1707021,NH3,4,5,5
India,Odisha,Talcher,"Talcher Coalfields,Talcher - OSPCB",27-03-2024 21:00:00,20.9360711,85.1707021,SO2,11,31,18
India,Odisha,Tensa,"Barsua Iron Ore Mines, Tensa - OSPCB",27-03-2024 21:00:00,21.869985,85.167016,OZONE,8,99,70
India,Puducherry,Puducherry,"Jawahar Nagar, Puducherry - PPCC",27-03-2024 21:00:00,11.9309,79.8027,PM2.5,11,288,48
India,Punjab,Amritsar,"Golden Temple, Amritsar - PPCB",27-03-2024 21:00:00,31.620000,74.876512,PM10,79,156,106
India,Punjab,Jalandhar,"Civil Line, Jalandhar - PPCB",27-03-2024 21:00:00,31.321907,75.578914,PM10,93,131,109
India,Punjab,Jalandhar,"Civil Line, Jalandhar - PPCB",27-03-2024 21:00:00,31.321907,75.578914,CO,26,64,42
India,Punjab,Khanna,"Kalal Majra, Khanna - PPCB",27-03-2024 21:00:00,30.736056 ,76.209694,PM10,51,98,74
India,Punjab,Khanna,"Kalal Majra, Khanna - PPCB",27-03-2024 21:00:00,30.736056 ,76.209694,CO,19,24,22
India,Punjab,Khanna,"Kalal Majra, Khanna - PPCB",27-03-2024 21:00:00,30.736056 ,76.209694,OZONE,4,81,57
India,Punjab,Ludhiana,"Punjab Agricultural University, Ludhiana - PPCB",27-03-2024 21:00:00,30.9028,75.8086,NH3,4,5,4
India,Punjab,Patiala,"Model Town, Patiala - PPCB",27-03-2024 21:00:00,30.349388,76.366642,SO2,4,24,13
India,Rajasthan,Ajmer,"Civil Lines,  Ajmer - RSPCB",27-03-2024 21:00:00,26.470859,74.646594,PM2.5,53,188,92
India,Rajasthan,Alwar,"Moti Doongri, Alwar - RSPCB",27-03-2024 21:00:00,27.554793,76.611536,NH3,4,13,7
India,Rajasthan,Alwar,"Moti Doongri, Alwar - RSPCB",27-03-2024 21:00:00,27.554793,76.611536,CO,10,115,58
India,Rajasthan,Alwar,"Moti Doongri, Alwar - RSPCB",27-03-2024 21:00:00,27.554793,76.611536,OZONE,7,29,18
India,Rajasthan,Banswara,"Rati Talai, Banswara - RSPCB",27-03-2024 21:00:00,23.555190,74.440010,NH3,3,10,6
India,Rajasthan,Baran,"Bamboliya, Baran - RSPCB",27-03-2024 21:00:00,25.106006,76.469948,SO2,9,34,16
India,Rajasthan,Barmer,"Railway Colony, Barmer - RSPCB",27-03-2024 21:00:00,25.747299,71.393989,PM10,54,130,78
India,Rajasthan,Bharatpur,"Krishna Nagar, Bharatpur - RSPCB",27-03-2024 21:00:00,27.215415,77.50873,PM10,93,198,130
India,Rajasthan,Bhilwara,"Pratap Nagar, Bhilwara - RSPCB",27-03-2024 21:00:00,25.339605,74.618883,NO2,NA,NA,NA
India,Rajasthan,Bhilwara,"Pratap Nagar, Bhilwara - RSPCB",27-03-2024 21:00:00,25.339605,74.618883,CO,18,78,35
India,Rajasthan,Bhiwadi,"RIICO Ind. Area III, Bhiwadi - RSPCB",27-03-2024 21:00:00,28.194909,76.862296,CO,71,74,72
India,Rajasthan,Bhiwadi,"Vasundhara Nagar_UIT, Bhiwadi - RSPCB",27-03-2024 21:00:00,28.207266,76.829265,PM10,81,416,196
India,Rajasthan,Bhiwadi,"Vasundhara Nagar_UIT, Bhiwadi - RSPCB",27-03-2024 21:00:00,28.207266,76.829265,OZONE,5,95,67
India,Rajasthan,Bundi,"New Colony, Bundi - RSPCB",27-03-2024 21:00:00,25.435774,75.644272,PM2.5,26,306,95
India,Rajasthan,Bundi,"New Colony, Bundi - RSPCB",27-03-2024 21:00:00,25.435774,75.644272,NO2,6,128,41
India,Rajasthan,Bundi,"New Colony, Bundi - RSPCB",27-03-2024 21:00:00,25.435774,75.644272,NH3,3,4,3
India,Rajasthan,Churu,"Subash Chowk, Churu - RSPCB",27-03-2024 21:00:00,28.296139,74.961696,PM2.5,27,58,40
India,Rajasthan,Churu,"Subash Chowk, Churu - RSPCB",27-03-2024 21:00:00,28.296139,74.961696,SO2,6,27,9
India,Rajasthan,Dausa,"Khatikan Mohalla, Dausa - RSPCB",27-03-2024 21:00:00,26.895552,76.334753,CO,6,118,58
India,Rajasthan,Dungarpur,"Bhoiwada, Dungarpur - RSPCB",27-03-2024 21:00:00,23.837789,73.714926,PM2.5,43,97,60
India,Rajasthan,Hanumangarh,"Housing Board, Hanumangarh - RSPCB",27-03-2024 21:00:00,29.610750,74.283608,NO2,12,34,21
India,Rajasthan,Hanumangarh,"Housing Board, Hanumangarh - RSPCB",27-03-2024 21:00:00,29.610750,74.283608,NH3,6,14,10
India,Rajasthan,Jaipur,"Mansarovar Sector-12, Jaipur - RSPCB",27-03-2024 21:00:00,26.843698,75.766894,NO2,9,112,45
India,Rajasthan,Jaipur,"Mansarovar Sector-12, Jaipur - RSPCB",27-03-2024 21:00:00,26.843698,75.766894,OZONE,59,93,71
India,Rajasthan,Jaipur,"Police Commissionerate, Jaipur - RSPCB",27-03-2024 21:00:00,26.9164092,75.7994901,PM10,92,194,130
India,Rajasthan,Jaipur,"Police Commissionerate, Jaipur - RSPCB",27-03-2024 21:00:00,26.9164092,75.7994901,CO,24,102,41
India,Rajasthan,Jaipur,"RIICO Sitapura, Jaipur - RSPCB",27-03-2024 21:00:00,26.786682,75.827928,SO2,15,34,22
India,Rajasthan,Jaipur,"RIICO Sitapura, Jaipur - RSPCB",27-03-2024 21:00:00,26.786682,75.827928,OZONE,1,97,66
India,Rajasthan,Jaipur,"Sector-2 Murlipura, Jaipur - RSPCB",27-03-2024 21:00:00,26.960669,75.771817,NH3,NA,NA,NA
India,Rajasthan,Jaipur,"Shastri Nagar, Jaipur - RSPCB",27-03-2024 21:00:00,26.9502929,75.730943,PM2.5,54,256,107
India,Rajasthan,Jaipur,"Shastri Nagar, Jaipur - RSPCB",27-03-2024 21:00:00,26.9502929,75.730943,SO2,5,83,35
India,Rajasthan,Jaisalmer,"Sadar Bazar, Jaisalmer - RSPCB",27-03-2024 21:00:00,26.912329,70.909168,NH3,5,10,7
India,Rajasthan,Jaisalmer,"Sadar Bazar, Jaisalmer - RSPCB",27-03-2024 21:00:00,26.912329,70.909168,SO2,3,7,5
India,Rajasthan,Jhunjhunu,"Indra Nagar, Jhunjhunu - RSPCB",27-03-2024 21:00:00,28.108988,75.386577,SO2,7,13,10
India,Rajasthan,Jhunjhunu,"Indra Nagar, Jhunjhunu - RSPCB",27-03-2024 21:00:00,28.108988,75.386577,CO,12,36,27
India,Rajasthan,Jodhpur,"Collectorate, Jodhpur - RSPCB",27-03-2024 21:00:00,26.268249,73.0193853,OZONE,29,118,90
India,Rajasthan,Jodhpur,"Digari Kalan, Jodhpur - RSPCB",27-03-2024 21:00:00,26.295810,73.082283,NO2,6,69,31
India,Rajasthan,Jodhpur,"Digari Kalan, Jodhpur - RSPCB",27-03-2024 21:00:00,26.295810,73.082283,NH3,5,9,7
India,Rajasthan,Jodhpur,"Digari Kalan, Jodhpur - RSPCB",27-03-2024 21:00:00,26.295810,73.082283,OZONE,1,112,77
India,Rajasthan,Jodhpur,"Jhalamand, Jodhpur - RSPCB",27-03-2024 21:00:00,26.215415,73.070156,CO,10,101,22
India,Rajasthan,Jodhpur,"Jhalamand, Jodhpur - RSPCB",27-03-2024 21:00:00,26.215415,73.070156,OZONE,22,61,55
India,Rajasthan,Jodhpur,"Mandor, Jodhpur - RSPCB",27-03-2024 21:00:00,26.358805,73.047444,NH3,7,14,9
India,Rajasthan,Jodhpur,"Mandor, Jodhpur - RSPCB",27-03-2024 21:00:00,26.358805,73.047444,CO,12,70,16
India,Rajasthan,Jodhpur,"Samrat Ashok Udhyan, Jodhpur - RSPCB",27-03-2024 21:00:00,26.253384,72.976571,OZONE,4,97,81
India,Rajasthan,Karauli,"Satyawati Vihar, Karauli - RSPCB",27-03-2024 21:00:00,26.506177,77.025989,PM10,15,69,37
India,Rajasthan,Karauli,"Satyawati Vihar, Karauli - RSPCB",27-03-2024 21:00:00,26.506177,77.025989,NH3,2,6,3
India,Rajasthan,Kota,"Dhanmandi, Kota - RSPCB",27-03-2024 21:00:00,25.164090,75.858137,SO2,3,54,14
India,Rajasthan,Kota,"Nayapura, Kota - RSPCB",27-03-2024 21:00:00,25.196024,75.855668,PM2.5,29,174,81
India,Rajasthan,Kota,"Shrinath Puram, Kota - RSPCB",27-03-2024 21:00:00,25.14389,75.821256,NH3,3,6,5
India,Rajasthan,Pratapgarh,"Pragati Nagar, Pratapgarh - RSPCB",27-03-2024 21:00:00,24.041198,74.780702,NO2,9,113,29
India,Rajasthan,Rajsamand,"Dhoinda, Rajsamand - RSPCB",27-03-2024 21:00:00,25.036360,73.883502,PM10,53,159,90
India,Rajasthan,Sikar,"Radhakishan Pura, Sikar - RSPCB",27-03-2024 21:00:00,27.608912,75.153302,NO2,NA,NA,NA
India,Rajasthan,Sikar,"Radhakishan Pura, Sikar - RSPCB",27-03-2024 21:00:00,27.608912,75.153302,SO2,NA,NA,NA
India,Rajasthan,Sirohi,"Vedhaynath Colony, Sirohi - RSPCB",27-03-2024 21:00:00,24.885261,72.857549,CO,12,51,16
India,Rajasthan,Tonk,"Shastri Nagar, Tonk - RSPCB",27-03-2024 21:00:00,26.159933,75.780517,NH3,3,20,9
India,Rajasthan,Tonk,"Shastri Nagar, Tonk - RSPCB",27-03-2024 21:00:00,26.159933,75.780517,CO,5,62,24
India,Rajasthan,Udaipur,"Ashok Nagar, Udaipur - RSPCB",27-03-2024 21:00:00,24.5886166,73.6321397,NO2,95,153,121
India,Rajasthan,Udaipur,"Ashok Nagar, Udaipur - RSPCB",27-03-2024 21:00:00,24.5886166,73.6321397,SO2,7,22,15
India,Sikkim,Gangtok,"Zero Point GICI, Gangtok - SSPCB",27-03-2024 21:00:00,27.338530,88.614099,PM10,NA,NA,NA
India,TamilNadu,Chengalpattu,"Crescent University, Chengalpattu - TNPCB",27-03-2024 21:00:00,12.8777316,80.0834807,PM2.5,NA,NA,NA
India,TamilNadu,Chengalpattu,"Crescent University, Chengalpattu - TNPCB",27-03-2024 21:00:00,12.8777316,80.0834807,NO2,182,186,185
India,TamilNadu,Chengalpattu,"Crescent University, Chengalpattu - TNPCB",27-03-2024 21:00:00,12.8777316,80.0834807,SO2,NA,NA,NA
India,TamilNadu,Chengalpattu,"Crescent University, Chengalpattu - TNPCB",27-03-2024 21:00:00,12.8777316,80.0834807,CO,25,32,26
India,TamilNadu,Chennai,"Alandur Bus Depot, Chennai - CPCB",27-03-2024 21:00:00,12.9099161,80.1076538,OZONE,2,11,6
India,TamilNadu,Chennai,"Manali, Chennai - CPCB",27-03-2024 21:00:00,13.164544,80.26285,PM10,29,85,47
India,TamilNadu,Chennai,"Manali, Chennai - CPCB",27-03-2024 21:00:00,13.164544,80.26285,NH3,3,5,4
India,TamilNadu,Chennai,"Perungudi, Chennai - TNPCB",27-03-2024 21:00:00,12.9533,80.2357,PM2.5,15,158,41
India,TamilNadu,Chennai,"Perungudi, Chennai - TNPCB",27-03-2024 21:00:00,12.9533,80.2357,NO2,3,13,6
India,TamilNadu,Chennai,"Perungudi, Chennai - TNPCB",27-03-2024 21:00:00,12.9533,80.2357,SO2,2,6,4
India,TamilNadu,Chennai,"Royapuram, Chennai - TNPCB",27-03-2024 21:00:00,13.1036,80.2909,PM2.5,10,65,24
India,TamilNadu,Chennai,"Royapuram, Chennai - TNPCB",27-03-2024 21:00:00,13.1036,80.2909,NH3,1,2,1
India,TamilNadu,Gummidipoondi,"Anthoni Pillai Nagar, Gummidipoondi - TNPCB",27-03-2024 21:00:00,13.4127,80.1081,NH3,1,2,2
India,TamilNadu,Kanchipuram,"Kilambi, Kanchipuram - TNPCB",27-03-2024 21:00:00,12.864618,79.659968,NH3,NA,NA,NA
India,TamilNadu,Ooty,"Bombay Castel, Ooty - TNPCB",27-03-2024 21:00:00,11.4068288,76.7138973,PM10,NA,NA,NA
India,TamilNadu,Ooty,"Bombay Castel, Ooty - TNPCB",27-03-2024 21:00:00,11.4068288,76.7138973,NO2,NA,NA,NA
India,TamilNadu,Ramanathapuram,"Chalai Bazaar, Ramanathapuram - TNPCB",27-03-2024 21:00:00,9.36399,78.831977,NO2,NA,NA,NA
India,TamilNadu,Salem,"Sona College of Technology, Salem - TNPCB",27-03-2024 21:00:00,11.679111,78.125052,OZONE,3,38,7
India,TamilNadu,Thoothukudi,"Meelavittan, Thoothukudi - TNPCB",27-03-2024 21:00:00,8.816428 ,78.099039,OZONE,2,12,6
India,TamilNadu,Vellore,"Vasanthapuram, Vellore - TNPCB",27-03-2024 21:00:00,12.909494,79.131861,NH3,1,1,1
India,TamilNadu,Virudhunagar,"Collectorate Office, Virudhunagar - TNPCB",27-03-2024 21:00:00,9.559382,77.948828,PM10,NA,NA,NA
India,TamilNadu,Virudhunagar,"Collectorate Office, Virudhunagar - TNPCB",27-03-2024 21:00:00,9.559382,77.948828,NH3,NA,NA,NA
India,Telangana,Hyderabad,"Bollaram Industrial Area, Hyderabad - TSPCB",27-03-2024 21:00:00,17.540891,78.358528,PM2.5,32,70,48
India,Telangana,Hyderabad,"Bollaram Industrial Area, Hyderabad - TSPCB",27-03-2024 21:00:00,17.540891,78.358528,SO2,5,50,12
India,Telangana,Hyderabad,"Bollaram Industrial Area, Hyderabad - TSPCB",27-03-2024 21:00:00,17.540891,78.358528,CO,2,112,32
India,Telangana,Hyderabad,"ECIL Kapra, Hyderabad - TSPCB",27-03-2024 21:00:00,17.470431,78.566959,PM2.5,52,122,62
India,Telangana,Hyderabad,"ICRISAT Patancheru, Hyderabad - TSPCB",27-03-2024 21:00:00,17.518400,78.278777,NO2,16,17,16
India,Telangana,Hyderabad,"ICRISAT Patancheru, Hyderabad - TSPCB",27-03-2024 21:00:00,17.518400,78.278777,CO,23,68,43
India,Telangana,Hyderabad,"Kompally Municipal Office, Hyderabad - TSPCB",27-03-2024 21:00:00,17.544899,78.486949,PM2.5,30,57,39
India,Telangana,Hyderabad,"Kompally Municipal Office, Hyderabad - TSPCB",27-03-2024 21:00:00,17.544899,78.486949,SO2,7,21,13
India,Telangana,Hyderabad,"Nacharam_TSIIC IALA, Hyderabad - TSPCB",27-03-2024 21:00:00,17.429398,78.569354,PM2.5,45,73,53
India,Telangana,Hyderabad,"Nacharam_TSIIC IALA, Hyderabad - TSPCB",27-03-2024 21:00:00,17.429398,78.569354,CO,24,48,35
India,Telangana,Hyderabad,"New Malakpet, Hyderabad - TSPCB",27-03-2024 21:00:00,17.37206,78.50864,SO2,7,20,14
India,Telangana,Hyderabad,"Ramachandrapuram, Hyderabad - TSPCB",27-03-2024 21:00:00,17.528544,78.286195,NO2,NA,NA,NA
India,Telangana,Hyderabad,"Zoo Park, Hyderabad - TSPCB",27-03-2024 21:00:00,17.349694,78.451437,PM2.5,35,119,60
India,Telangana,Hyderabad,"Zoo Park, Hyderabad - TSPCB",27-03-2024 21:00:00,17.349694,78.451437,CO,30,92,56
India,Telangana,Hyderabad,"Zoo Park, Hyderabad - TSPCB",27-03-2024 21:00:00,17.349694,78.451437,OZONE,16,47,26
India,Tripura,Agartala,"Bardowali, Agartala - Tripura SPCB",27-03-2024 21:00:00,23.8175497,91.2726974,PM2.5,64,188,110
India,Tripura,Agartala,"Bardowali, Agartala - Tripura SPCB",27-03-2024 21:00:00,23.8175497,91.2726974,CO,18,60,36
India,Uttar_Pradesh,Agra,"Manoharpur, Agra - UPPCB",27-03-2024 21:00:00,27.23711,78.01936,OZONE,1,62,54
India,Uttar_Pradesh,Agra,"Rohta, Agra - UPPCB",27-03-2024 21:00:00,27.106972,78.000111,PM10,20,99,43
India,Uttar_Pradesh,Agra,"Rohta, Agra - UPPCB",27-03-2024 21:00:00,27.106972,78.000111,NO2,2,2,2
India,Uttar_Pradesh,Agra,"Rohta, Agra - UPPCB",27-03-2024 21:00:00,27.106972,78.000111,OZONE,15,18,16
India,Uttar_Pradesh,Agra,"Sanjay Palace, Agra - UPPCB",27-03-2024 21:00:00,27.19865833,78.00598056,PM2.5,9,60,30
India,Uttar_Pradesh,Agra,"Sector-3B Avas Vikas Colony, Agra - UPPCB",27-03-2024 21:00:00,27.19412,77.96237,OZONE,2,12,7
India,Uttar_Pradesh,Agra,"Shahjahan Garden, Agra - UPPCB",27-03-2024 21:00:00,27.169338,78.03582,NH3,NA,NA,NA
India,Uttar_Pradesh,Agra,"Shastripuram, Agra - UPPCB",27-03-2024 21:00:00,27.19862,77.92066,PM2.5,3,119,65
India,Uttar_Pradesh,Agra,"Shastripuram, Agra - UPPCB",27-03-2024 21:00:00,27.19862,77.92066,OZONE,1,13,8
India,Uttar_Pradesh,Baghpat,"Sardar Patel Inter College, Baghpat - UPPCB",27-03-2024 21:00:00,28.964949,77.278761,OZONE,1,70,48
India,Uttar_Pradesh,Bareilly,"Civil Lines, Bareilly - UPPCB",27-03-2024 21:00:00,28.359581,79.414455,PM2.5,NA,NA,NA
India,Uttar_Pradesh,Bareilly,"Civil Lines, Bareilly - UPPCB",27-03-2024 21:00:00,28.359581,79.414455,NO2,NA,NA,NA
India,Uttar_Pradesh,Bareilly,"Rajendra Nagar, Bareilly - UPPCB",27-03-2024 21:00:00,28.38910936,79.42963708,PM10,47,96,72
India,Uttar_Pradesh,Bulandshahr,"Yamunapuram, Bulandshahr - UPPCB",27-03-2024 21:00:00,28.406963,77.849831,NO2,17,92,47
India,Uttar_Pradesh,Firozabad,"Nagla Bhau, Firozabad - UPPCB",27-03-2024 21:00:00,27.168897,78.376960,PM10,22,93,44
India,Uttar_Pradesh,Firozabad,"Vibhab Nagar, Firozabad - UPPCB",27-03-2024 21:00:00,27.1594,78.3953,PM2.5,29,97,59
India,Uttar_Pradesh,Firozabad,"Vibhab Nagar, Firozabad - UPPCB",27-03-2024 21:00:00,27.1594,78.3953,NH3,2,2,2
India,Uttar_Pradesh,Ghaziabad,"Indirapuram, Ghaziabad - UPPCB",27-03-2024 21:00:00,28.646233,77.358075,NO2,31,78,56
India,Uttar_Pradesh,Ghaziabad,"Indirapuram, Ghaziabad - UPPCB",27-03-2024 21:00:00,28.646233,77.358075,SO2,2,58,11
India,Uttar_Pradesh,Ghaziabad,"Sanjay Nagar, Ghaziabad - UPPCB",27-03-2024 21:00:00,28.685382,77.453839,CO,13,107,56
India,Uttar_Pradesh,Ghaziabad,"Sanjay Nagar, Ghaziabad - UPPCB",27-03-2024 21:00:00,28.685382,77.453839,OZONE,3,69,44
India,Uttar_Pradesh,Ghaziabad,"Vasundhara, Ghaziabad - UPPCB",27-03-2024 21:00:00,28.6603346,77.3572563,PM2.5,31,141,90
India,Uttar_Pradesh,Gorakhpur,"Madan Mohan Malaviya University of Technology, Gorakhpur - UPPCB",27-03-2024 21:00:00,26.730136,83.433859,PM10,50,126,72
India,Uttar_Pradesh,Gorakhpur,"Madan Mohan Malaviya University of Technology, Gorakhpur - UPPCB",27-03-2024 21:00:00,26.730136,83.433859,NO2,2,2,2
India,Uttar_Pradesh,Greater Noida,"Knowledge Park - III, Greater Noida - UPPCB",27-03-2024 21:00:00,28.47272,77.482000,PM10,127,284,191
India,Uttar_Pradesh,Greater Noida,"Knowledge Park - III, Greater Noida - UPPCB",27-03-2024 21:00:00,28.47272,77.482000,NH3,9,14,11
India,Uttar_Pradesh,Greater Noida,"Knowledge Park - V, Greater Noida - UPPCB",27-03-2024 21:00:00,28.557054,77.453663,PM2.5,39,341,174
India,Uttar_Pradesh,Greater Noida,"Knowledge Park - V, Greater Noida - UPPCB",27-03-2024 21:00:00,28.557054,77.453663,NO2,46,60,54
India,Uttar_Pradesh,Greater Noida,"Knowledge Park - V, Greater Noida - UPPCB",27-03-2024 21:00:00,28.557054,77.453663,SO2,9,36,22
India,Uttar_Pradesh,Jhansi,"Shivaji Nagar, Jhansi - UPPCB",27-03-2024 21:00:00,25.4547,78.6039,PM10,10,46,26
India,Uttar_Pradesh,Jhansi,"Shivaji Nagar, Jhansi - UPPCB",27-03-2024 21:00:00,25.4547,78.6039,NH3,6,6,6
India,Uttar_Pradesh,Kanpur,"FTI Kidwai Nagar, Kanpur - UPPCB",27-03-2024 21:00:00,26.428282,80.327067,PM2.5,45,154,90
India,Uttar_Pradesh,Kanpur,"FTI Kidwai Nagar, Kanpur - UPPCB",27-03-2024 21:00:00,26.428282,80.327067,NH3,3,4,3
India,Uttar_Pradesh,Kanpur,"NSI Kalyanpur, Kanpur - UPPCB",27-03-2024 21:00:00,26.509954,80.249612,SO2,16,22,18
India,Uttar_Pradesh,Lucknow,"B R Ambedkar University, Lucknow - UPPCB",27-03-2024 21:00:00,26.766433,80.927299,PM10,83,145,111
India,Uttar_Pradesh,Lucknow,"B R Ambedkar University, Lucknow - UPPCB",27-03-2024 21:00:00,26.766433,80.927299,NH3,5,7,6
India,Uttar_Pradesh,Lucknow,"Gomti Nagar, Lucknow - UPPCB",27-03-2024 21:00:00,26.868120,81.005119,SO2,4,17,10
India,Uttar_Pradesh,Lucknow,"Kendriya Vidyalaya, Lucknow - CPCB",27-03-2024 21:00:00,26.906111,80.948222,PM2.5,48,108,80
India,Uttar_Pradesh,Lucknow,"Kukrail Picnic Spot-1, Lucknow - UPPCB",27-03-2024 21:00:00,26.90723,80.98579,PM2.5,47,263,104
India,Uttar_Pradesh,Lucknow,"Lalbagh, Lucknow - CPCB",27-03-2024 21:00:00,26.8458805,80.9365541,PM10,119,162,137
India,Uttar_Pradesh,Meerut,"Pallavpuram Phase 2, Meerut - UPPCB",27-03-2024 21:00:00,29.063510,77.709723,NO2,22,87,48
India,Uttar_Pradesh,Moradabad,"Buddhi Vihar, Moradabad - UPPCB",27-03-2024 21:00:00,28.83526,78.74460,NO2,17,23,23
India,Uttar_Pradesh,Moradabad,"Buddhi Vihar, Moradabad - UPPCB",27-03-2024 21:00:00,28.83526,78.74460,NH3,1,2,2
India,Uttar_Pradesh,Moradabad,"Eco Herbal Park, Moradabad - UPPCB",27-03-2024 21:00:00,28.840739,78.697531,PM10,57,119,90
India,Uttar_Pradesh,Moradabad,"Eco Herbal Park, Moradabad - UPPCB",27-03-2024 21:00:00,28.840739,78.697531,SO2,13,49,29
India,Uttar_Pradesh,Moradabad,"Eco Herbal Park, Moradabad - UPPCB",27-03-2024 21:00:00,28.840739,78.697531,CO,26,94,58
India,Uttar_Pradesh,Moradabad,"Transport Nagar, Moradabad - UPPCB",27-03-2024 21:00:00,28.802625,78.753728,NH3,6,6,6
India,Uttar_Pradesh,Muzaffarnagar,"New Mandi, Muzaffarnagar - UPPCB",27-03-2024 21:00:00,29.4723508,77.7194031,NH3,11,16,13
India,Uttar_Pradesh,Muzaffarnagar,"New Mandi, Muzaffarnagar - UPPCB",27-03-2024 21:00:00,29.4723508,77.7194031,SO2,6,33,15
India,Uttar_Pradesh,Noida,"Sector - 125, Noida - UPPCB",27-03-2024 21:00:00,28.5447608,77.3231257,PM10,64,334,141
India,Uttar_Pradesh,Noida,"Sector - 62, Noida - IMD",27-03-2024 21:00:00,28.6245479,77.3577104,PM2.5,46,291,137
India,Uttar_Pradesh,Noida,"Sector - 62, Noida - IMD",27-03-2024 21:00:00,28.6245479,77.3577104,CO,57,98,64
India,Uttar_Pradesh,Noida,"Sector-1, Noida - UPPCB",27-03-2024 21:00:00,28.5898,77.3101,OZONE,1,173,91
India,Uttar_Pradesh,Noida,"Sector-116, Noida - UPPCB",27-03-2024 21:00:00,28.569230,77.393848,NH3,7,16,10
India,Uttar_Pradesh,Prayagraj,"Jhunsi, Prayagraj - UPPCB",27-03-2024 21:00:00,25.425602,81.917152,NH3,5,5,5
India,Uttar_Pradesh,Prayagraj,"Motilal Nehru NIT, Prayagraj - UPPCB",27-03-2024 21:00:00,25.494,81.863,PM2.5,15,76,38
India,Uttar_Pradesh,Prayagraj,"Motilal Nehru NIT, Prayagraj - UPPCB",27-03-2024 21:00:00,25.494,81.863,PM10,39,249,104
India,Uttar_Pradesh,Prayagraj,"Motilal Nehru NIT, Prayagraj - UPPCB",27-03-2024 21:00:00,25.494,81.863,CO,9,54,18
India,Uttar_Pradesh,Prayagraj,"Motilal Nehru NIT, Prayagraj - UPPCB",27-03-2024 21:00:00,25.494,81.863,OZONE,5,48,30
India,Uttar_Pradesh,Varanasi,"Ardhali Bazar, Varanasi - UPPCB",27-03-2024 21:00:00,25.3505986,82.9083074,SO2,2,28,8
India,Uttar_Pradesh,Varanasi,"Bhelupur, Varanasi - UPPCB",27-03-2024 21:00:00,25.301778,82.996789,CO,17,121,39
India,Uttar_Pradesh,Varanasi,"IESD Banaras Hindu University, Varanasi - UPPCB",27-03-2024 21:00:00,25.262326,82.995408,PM2.5,4,17,10
India,Uttar_Pradesh,Varanasi,"Maldahiya, Varanasi - UPPCB",27-03-2024 21:00:00,25.32393,82.99687,PM2.5,13,47,28
India,Uttar_Pradesh,Vrindavan,"Omex Eternity, Vrindavan - UPPCB",27-03-2024 21:00:00,27.5714090,77.6557570,NO2,2,3,3
India,Uttarakhand,Dehradun,"Doon University, Dehradun - UKPCB",27-03-2024 21:00:00,30.269444,78.044167,PM2.5,35,122,70
India,Uttarakhand,Dehradun,"Doon University, Dehradun - UKPCB",27-03-2024 21:00:00,30.269444,78.044167,OZONE,32,156,111
India,Uttarakhand,Kashipur,"Govt. Girls Inter College, Kashipur - UKPCB",27-03-2024 21:00:00,29.2124114,78.9611753,PM10,72,108,91
India,Uttarakhand,Rishikesh,"Shivaji Nagar, Rishikesh - UKPCB",27-03-2024 21:00:00,30.075911,78.2859547,PM2.5,12,44,27
India,Uttarakhand,Rishikesh,"Shivaji Nagar, Rishikesh - UKPCB",27-03-2024 21:00:00,30.075911,78.2859547,SO2,4,5,4
India,West_Bengal,Asansol,"Asansol Court Area, Asansol - WBPCB",27-03-2024 21:00:00,23.685297,86.945968,PM10,106,128,115
India,West_Bengal,Asansol,"Asansol Court Area, Asansol - WBPCB",27-03-2024 21:00:00,23.685297,86.945968,SO2,9,23,13
India,West_Bengal,Asansol,"Asansol Court Area, Asansol - WBPCB",27-03-2024 21:00:00,23.685297,86.945968,OZONE,13,37,30
India,West_Bengal,Barrackpore,"SVSPA Campus, Barrackpore - WBPCB",27-03-2024 21:00:00,22.7605581,88.3617589,SO2,4,11,8
India,West_Bengal,Barrackpore,"SVSPA Campus, Barrackpore - WBPCB",27-03-2024 21:00:00,22.7605581,88.3617589,OZONE,5,69,59
India,West_Bengal,Durgapur,"Sidhu Kanhu Indoor Stadium, Durgapur - WBPCB",27-03-2024 21:00:00,23.5404352,87.2892225,NH3,3,4,4
India,West_Bengal,Durgapur,"Sidhu Kanhu Indoor Stadium, Durgapur - WBPCB",27-03-2024 21:00:00,23.5404352,87.2892225,CO,24,78,31
India,West_Bengal,Howrah,"Belur Math, Howrah - WBPCB",27-03-2024 21:00:00,22.629801,88.352017,CO,4,21,15
India,West_Bengal,Howrah,"Ghusuri, Howrah - WBPCB",27-03-2024 21:00:00,22.611968,88.347422,PM2.5,36,222,80
India,West_Bengal,Howrah,"Ghusuri, Howrah - WBPCB",27-03-2024 21:00:00,22.611968,88.347422,SO2,4,6,5
India,West_Bengal,Howrah,"Padmapukur, Howrah - WBPCB",27-03-2024 21:00:00,22.5687319,88.2797276,PM2.5,39,80,53
India,West_Bengal,Howrah,"Padmapukur, Howrah - WBPCB",27-03-2024 21:00:00,22.5687319,88.2797276,SO2,7,97,30
India,West_Bengal,Howrah,"Padmapukur, Howrah - WBPCB",27-03-2024 21:00:00,22.5687319,88.2797276,OZONE,4,54,36
India,West_Bengal,Kolkata,"Bidhannagar, Kolkata - WBPCB",27-03-2024 21:00:00,22.58157048,88.41002457,CO,18,32,28
India,West_Bengal,Kolkata,"Bidhannagar, Kolkata - WBPCB",27-03-2024 21:00:00,22.58157048,88.41002457,OZONE,14,138,89
India,West_Bengal,Kolkata,"Fort William, Kolkata - WBPCB",27-03-2024 21:00:00,22.556640,88.342674,PM2.5,31,94,53
India,West_Bengal,Kolkata,"Fort William, Kolkata - WBPCB",27-03-2024 21:00:00,22.556640,88.342674,CO,14,31,26
India,West_Bengal,Kolkata,"Jadavpur, Kolkata - WBPCB",27-03-2024 21:00:00,22.49929,88.36917,PM2.5,28,53,39
India,West_Bengal,Kolkata,"Rabindra Bharati University, Kolkata - WBPCB",27-03-2024 21:00:00,22.627847,88.380669,OZONE,10,64,49
India,West_Bengal,Kolkata,"Victoria, Kolkata - WBPCB",27-03-2024 21:00:00,22.5448082,88.3403691,NH3,2,3,2
India,West_Bengal,Siliguri,"Ward-32 Bapupara, Siliguri - WBPCB",27-03-2024 21:00:00,26.6879226,88.4152495,NH3,6,16,12
India,West_Bengal,Siliguri,"Ward-32 Bapupara, Siliguri - WBPCB",27-03-2024 21:00:00,26.6879226,88.4152495,OZONE,19,41,33
India,Andhra_Pradesh,Amaravati,"Secretariat, Amaravati - APPCB",27-03-2024 21:00:00,16.5150833,80.5181667,NH3,4,5,4
India,Andhra_Pradesh,Amaravati,"Secretariat, Amaravati - APPCB",27-03-2024 21:00:00,16.5150833,80.5181667,SO2,4,20,16
India,Andhra_Pradesh,Amaravati,"Secretariat, Amaravati - APPCB",27-03-2024 21:00:00,16.5150833,80.5181667,OZONE,6,35,25
India,Andhra_Pradesh,Anantapur,"Gulzarpet, Anantapur - APPCB",27-03-2024 21:00:00,14.675886,77.593027,SO2,2,19,7
India,Andhra_Pradesh,Kadapa,"Yerramukkapalli, Kadapa - APPCB",27-03-2024 21:00:00,14.465052,78.824187,PM10,12,52,25
India,Andhra_Pradesh,Rajamahendravaram,"Anand Kala Kshetram, Rajamahendravaram - APPCB",27-03-2024 21:00:00,16.9872867,81.7363176,NO2,10,35,20
India,Andhra_Pradesh,Tirupati,"Tirumala, Tirupati - APPCB",27-03-2024 21:00:00,13.67,79.35,SO2,2,12,7
India,Andhra_Pradesh,Tirupati,"Vaikuntapuram, Tirupati - APPCB",27-03-2024 21:00:00,13.615387,79.409230,NO2,15,22,18
India,Andhra_Pradesh,Tirupati,"Vaikuntapuram, Tirupati - APPCB",27-03-2024 21:00:00,13.615387,79.409230,OZONE,1,42,31
India,Andhra_Pradesh,Vijayawada,"HB Colony, Vijayawada - APPCB",27-03-2024 21:00:00,16.536107,80.594233,NH3,4,4,4
India,Andhra_Pradesh,Vijayawada,"Kanuru, Vijayawada - APPCB",27-03-2024 21:00:00,16.486692,80.699436,NO2,14,18,16
India,Andhra_Pradesh,Vijayawada,"Kanuru, Vijayawada - APPCB",27-03-2024 21:00:00,16.486692,80.699436,NH3,1,1,1
India,Andhra_Pradesh,Vijayawada,"Kanuru, Vijayawada - APPCB",27-03-2024 21:00:00,16.486692,80.699436,SO2,5,7,6
India,Andhra_Pradesh,Vijayawada,"Rajiv Gandhi Park, Vijayawada - APPCB",27-03-2024 21:00:00,16.509717,80.612222,CO,36,52,41
India,Andhra_Pradesh,Vijayawada,"Rajiv Nagar, Vijayawada - APPCB",27-03-2024 21:00:00,16.554731,80.649110,PM2.5,44,46,45
India,Andhra_Pradesh,Vijayawada,"Rajiv Nagar, Vijayawada - APPCB",27-03-2024 21:00:00,16.554731,80.649110,PM10,61,64,63
India,Andhra_Pradesh,Vijayawada,"Rajiv Nagar, Vijayawada - APPCB",27-03-2024 21:00:00,16.554731,80.649110,NH3,NA,NA,NA
India,Andhra_Pradesh,Visakhapatnam,"GVM Corporation, Visakhapatnam - APPCB",27-03-2024 21:00:00,17.72,83.3,SO2,9,15,12
India,Arunachal_Pradesh,Naharlagun,"Naharlagun, Naharlagun - APSPCB",27-03-2024 21:00:00,27.103358,93.679645,SO2,4,4,4
India,Assam,Byrnihat,"Central Academy for SFS, Byrnihat - PCBA",27-03-2024 21:00:00,26.071318,91.87488,NO2,42,116,70
India,Assam,Byrnihat,"Central Academy for SFS, Byrnihat - PCBA",27-03-2024 21:00:00,26.071318,91.87488,OZONE,8,28,12
India,Assam,Guwahati,"IITG, Guwahati - PCBA",27-03-2024 21:00:00,26.2028636,91.70046436,SO2,12,12,12
India,Assam,Guwahati,"IITG, Guwahati - PCBA",27-03-2024 21:00:00,26.2028636,91.70046436,OZONE,7,27,16
India,Assam,Guwahati,"LGBI Airport, Guwahati - PCBA",27-03-2024 21:00:00,26.10887,91.589544,PM10,33,138,71
India,Assam,Guwahati,"LGBI Airport, Guwahati - PCBA",27-03-2024 21:00:00,26.10887,91.589544,OZONE,2,32,17
India,Assam,Guwahati,"Railway Colony, Guwahati - PCBA",27-03-2024 21:00:00,26.181742,91.78063,SO2,39,46,42
India,Assam,Guwahati,"Railway Colony, Guwahati - PCBA",27-03-2024 21:00:00,26.181742,91.78063,CO,11,60,28
India,Assam,Nalbari,"Bata Chowk, Nalbari - PCBA",27-03-2024 21:00:00,26.446912,91.439057,PM10,18,173,74
India,Assam,Nalbari,"Bata Chowk, Nalbari - PCBA",27-03-2024 21:00:00,26.446912,91.439057,NO2,4,25,10
India,Assam,Silchar,"Tarapur, Silchar - PCBA",27-03-2024 21:00:00,24.82827,92.79525,NH3,1,1,1
India,Assam,Sivasagar,"Girls College, Sivasagar - PCBA",27-03-2024 21:00:00,26.987634,94.636574,PM10,44,70,51
India,Assam,Sivasagar,"Girls College, Sivasagar - PCBA",27-03-2024 21:00:00,26.987634,94.636574,CO,4,12,7
India,Bihar,Araria,"Kharahiya Basti, Araria - BSPCB",27-03-2024 21:00:00,26.146529,87.454184,PM2.5,NA,NA,NA
India,Bihar,Araria,"Kharahiya Basti, Araria - BSPCB",27-03-2024 21:00:00,26.146529,87.454184,NH3,6,7,7
India,Bihar,Araria,"Kharahiya Basti, Araria - BSPCB",27-03-2024 21:00:00,26.146529,87.454184,SO2,11,17,15
India,Bihar,Araria,"Kharahiya Basti, Araria - BSPCB",27-03-2024 21:00:00,26.146529,87.454184,CO,20,29,27
India,Bihar,Arrah,"New DM Office, Arrah - BSPCB",27-03-2024 21:00:00,25.5626095,84.663264,PM10,50,153,87
India,Bihar,Arrah,"New DM Office, Arrah - BSPCB",27-03-2024 21:00:00,25.5626095,84.663264,SO2,15,24,19
India,Bihar,Arrah,"New DM Office, Arrah - BSPCB",27-03-2024 21:00:00,25.5626095,84.663264,OZONE,14,46,15
India,Bihar,Aurangabad,"Gurdeo Nagar, Aurangabad - BSPCB",27-03-2024 21:00:00,24.75746,84.366208,PM2.5,NA,NA,NA
India,Bihar,Aurangabad,"Gurdeo Nagar, Aurangabad - BSPCB",27-03-2024 21:00:00,24.75746,84.366208,OZONE,1,103,49
India,Bihar,Bettiah,"Kamalnath Nagar, Bettiah - BSPCB",27-03-2024 21:00:00,26.80365,84.51954,NO2,8,8,8
India,Bihar,Bettiah,"Kamalnath Nagar, Bettiah - BSPCB",27-03-2024 21:00:00,26.80365,84.51954,NH3,3,6,3
India,Bihar,Bettiah,"Kamalnath Nagar, Bettiah - BSPCB",27-03-2024 21:00:00,26.80365,84.51954,OZONE,3,11,9
India,Bihar,Bhagalpur,"DM Office_Kachari Chowk, Bhagalpur - BSPCB",27-03-2024 21:00:00,25.251013,86.989001,PM10,NA,NA,NA
India,Bihar,Bhagalpur,"DM Office_Kachari Chowk, Bhagalpur - BSPCB",27-03-2024 21:00:00,25.251013,86.989001,SO2,NA,NA,NA
India,Bihar,Bhagalpur,"Mayaganj, Bhagalpur - BSPCB",27-03-2024 21:00:00,25.265194,87.012947,NH3,6,8,7
India,Bihar,Buxar,"Charitra Van, Buxar - BSPCB (Formerly known as Central Jail)",27-03-2024 21:00:00,25.567520,83.966379,NO2,33,117,61
India,Bihar,Buxar,"Charitra Van, Buxar - BSPCB (Formerly known as Central Jail)",27-03-2024 21:00:00,25.567520,83.966379,NH3,1,2,1
India,Bihar,Buxar,"Charitra Van, Buxar - BSPCB (Formerly known as Central Jail)",27-03-2024 21:00:00,25.567520,83.966379,SO2,14,19,18
India,Bihar,Chhapra,"Darshan Nagar, Chhapra - BSPCB",27-03-2024 21:00:00,25.7808257,84.7446768,PM2.5,57,200,105
India,Bihar,Chhapra,"Darshan Nagar, Chhapra - BSPCB",27-03-2024 21:00:00,25.7808257,84.7446768,CO,28,54,46
India,Bihar,Gaya,"Collectorate, Gaya - BSPCB",27-03-2024 21:00:00,24.7955,84.9994,PM2.5,32,167,68
India,Bihar,Gaya,"Collectorate, Gaya - BSPCB",27-03-2024 21:00:00,24.7955,84.9994,CO,17,70,27
India,Bihar,Gaya,"Kareemganj, Gaya - BSPCB",27-03-2024 21:00:00,24.792403,84.992416,SO2,7,10,9
India,Bihar,Gaya,"SFTI Kusdihra, Gaya - BSPCB",27-03-2024 21:00:00,24.762518,84.982348,CO,14,40,22
India,Bihar,Hajipur,"Industrial Area, Hajipur - BSPCB",27-03-2024 21:00:00,25.697189,85.245900,NO2,13,23,18
India,Bihar,Hajipur,"Industrial Area, Hajipur - BSPCB",27-03-2024 21:00:00,25.697189,85.245900,NH3,5,6,6
India,Bihar,Hajipur,"Industrial Area, Hajipur - BSPCB",27-03-2024 21:00:00,25.697189,85.245900,SO2,4,8,7
India,Bihar,Katihar,"Mirchaibari, Katihar - BSPCB",27-03-2024 21:00:00,25.560083,87.553265,NH3,5,7,6
India,Bihar,Katihar,"Mirchaibari, Katihar - BSPCB",27-03-2024 21:00:00,25.560083,87.553265,SO2,17,21,19
India,Bihar,Manguraha,"Forest Rest House, Manguraha - BSPCB",27-03-2024 21:00:00,27.308328,84.531742,NO2,7,27,18
India,Bihar,Manguraha,"Forest Rest House, Manguraha - BSPCB",27-03-2024 21:00:00,27.308328,84.531742,CO,24,78,53
India,Bihar,Motihari,"Gandak Colony, Motihari - BSPCB",27-03-2024 21:00:00,26.63086,84.90051,PM2.5,13,130,32
India,Bihar,Motihari,"Gandak Colony, Motihari - BSPCB",27-03-2024 21:00:00,26.63086,84.90051,OZONE,20,40,28
India,Bihar,Munger,"Town Hall, Munger - BSPCB",27-03-2024 21:00:00,25.376776,86.471523,PM2.5,30,98,68
India,Bihar,Munger,"Town Hall, Munger - BSPCB",27-03-2024 21:00:00,25.376776,86.471523,NH3,1,2,2
India,Bihar,Muzaffarpur,"MIT-Daudpur Kothi, Muzaffarpur - BSPCB",27-03-2024 21:00:00,26.1403345,85.3650192,CO,25,135,120
India,Bihar,Muzaffarpur,"MIT-Daudpur Kothi, Muzaffarpur - BSPCB",27-03-2024 21:00:00,26.1403345,85.3650192,OZONE,18,69,50
India,Bihar,Muzaffarpur,"Muzaffarpur Collectorate, Muzaffarpur - BSPCB",27-03-2024 21:00:00,26.1209,85.3647,PM2.5,31,147,58
India,Bihar,Patna,"DRM Office Danapur, Patna - BSPCB",27-03-2024 21:00:00,25.586562,85.043586,CO,14,60,36
India,Bihar,Patna,"Govt. High School Shikarpur, Patna - BSPCB",27-03-2024 21:00:00,25.592539,85.227158,PM2.5,48,97,67
India,Bihar,Patna,"Govt. High School Shikarpur, Patna - BSPCB",27-03-2024 21:00:00,25.592539,85.227158,OZONE,1,58,39
India,Bihar,Patna,"IGSC Planetarium Complex, Patna - BSPCB",27-03-2024 21:00:00,25.610369,85.132568,OZONE,9,53,31
India,Bihar,Patna,"Samanpura, Patna - BSPCB",27-03-2024 21:00:00,25.596727,85.085624,PM2.5,51,241,129
India,Bihar,Purnia,"Mariam Nagar, Purnia - BSPCB",27-03-2024 21:00:00,25.366336,87.117468,PM10,28,110,71
India,Bihar,Purnia,"Mariam Nagar, Purnia - BSPCB",27-03-2024 21:00:00,25.366336,87.117468,SO2,4,10,7
India,Bihar,Rajgir,"Dangi Tola, Rajgir - BSPCB",27-03-2024 21:00:00,25.03280,85.41948,NH3,1,4,1
India,Bihar,Saharsa,"Police Line, Saharsa - BSPCB",27-03-2024 21:00:00,25.892357,86.590325,SO2,16,16,16
India,Bihar,Saharsa,"Police Line, Saharsa - BSPCB",27-03-2024 21:00:00,25.892357,86.590325,CO,17,45,35
India,Bihar,Samastipur,"DM Office_Kasipur, Samastipur - BSPCB",27-03-2024 21:00:00,25.859655,85.77944,NH3,1,4,4
India,Bihar,Sasaram,"Dada Peer, Sasaram - BSPCB",27-03-2024 21:00:00,24.952822,84.002396,NO2,7,30,17
India,Bihar,Sasaram,"Dada Peer, Sasaram - BSPCB",27-03-2024 21:00:00,24.952822,84.002396,SO2,14,25,22
India,Bihar,Siwan,"Chitragupta Nagar, Siwan - BSPCB",27-03-2024 21:00:00,26.2271665,84.3570427,PM10,NA,NA,NA
India,Chandigarh,Chandigarh,"Sector 22, Chandigarh - CPCC",27-03-2024 21:00:00,30.735567,76.775714,OZONE,39,135,84
India,Chandigarh,Chandigarh,"Sector-53, Chandigarh - CPCC",27-03-2024 21:00:00,30.719859,76.738637,SO2,11,22,15
India,Chhattisgarh,Bhilai,"Hathkhoj, Bhilai - CECB",27-03-2024 21:00:00,21.224231,81.408350,CO,17,72,30
India,Chhattisgarh,Bilaspur,"Mangala, Bilaspur - NTPC",27-03-2024 21:00:00,22.08815,82.13737,PM2.5,42,82,58
India,Chhattisgarh,Chhal,"Nawapara SECL Colony, Chhal - CECB",27-03-2024 21:00:00,22.118125,83.140608,CO,30,62,40
India,Chhattisgarh,Korba,"Rampur, Korba - CECB",27-03-2024 21:00:00,22.368195,82.746431,NH3,2,3,2
India,Chhattisgarh,Korba,"Rampur, Korba - CECB",27-03-2024 21:00:00,22.368195,82.746431,CO,20,32,25
India,Chhattisgarh,Korba,"Rampur, Korba - CECB",27-03-2024 21:00:00,22.368195,82.746431,OZONE,2,13,8
India,Chhattisgarh,Korba,"Urja Nagar, Korba - CECB",27-03-2024 21:00:00,22.348441,82.549611,PM2.5,3,10,5
India,Chhattisgarh,Korba,"Urja Nagar, Korba - CECB",27-03-2024 21:00:00,22.348441,82.549611,SO2,1,75,13
India,Chhattisgarh,Korba,"Urja Nagar, Korba - CECB",27-03-2024 21:00:00,22.348441,82.549611,OZONE,1,83,31
India,Chhattisgarh,Kunjemura,"OP Jindal School, Kunjemura - CECB",27-03-2024 21:00:00,22.126650,83.483212,NH3,1,5,2
India,Chhattisgarh,Raipur,"Krishak Nagar, Raipur - CECB",27-03-2024 21:00:00,21.237755,81.705301,PM2.5,47,59,54
India,Chhattisgarh,Raipur,"Krishak Nagar, Raipur - CECB",27-03-2024 21:00:00,21.237755,81.705301,PM10,57,81,71
India,Chhattisgarh,Raipur,"Krishak Nagar, Raipur - CECB",27-03-2024 21:00:00,21.237755,81.705301,OZONE,3,28,12
India,Chhattisgarh,Raipur,"Siltara Phase-II, Raipur - CECB",27-03-2024 21:00:00,21.371751,81.664929,PM2.5,57,98,76
India,Chhattisgarh,Tumidih,"OP Jindal Industrial Park, Tumidih - CECB",27-03-2024 21:00:00,22.06631475,83.33820077,PM10,54,230,100
India,Chhattisgarh,Tumidih,"OP Jindal Industrial Park, Tumidih - CECB",27-03-2024 21:00:00,22.06631475,83.33820077,NH3,1,3,2
India,Delhi,Delhi,"Alipur, Delhi - DPCC",27-03-2024 21:00:00,28.815329,77.153010,SO2,13,26,18
India,Delhi,Delhi,"Aya Nagar, Delhi - IMD",27-03-2024 21:00:00,28.4706914,77.1099364,PM10,96,187,146
India,Delhi,Delhi,"Bawana, Delhi - DPCC",27-03-2024 21:00:00,28.776200,77.051074,OZONE,5,58,42
India,Delhi,Delhi,"Burari Crossing, Delhi - IMD",27-03-2024 21:00:00,28.7256504,77.2011573,NO2,2,9,6
India,Delhi,Delhi,"Chandni Chowk, Delhi - IITM",27-03-2024 21:00:00,28.656756,77.227234,PM10,NA,NA,NA
India,Delhi,Delhi,"DTU, Delhi - CPCB",27-03-2024 21:00:00,28.7500499,77.1112615,PM2.5,49,316,175
India,Delhi,Delhi,"DTU, Delhi - CPCB",27-03-2024 21:00:00,28.7500499,77.1112615,CO,16,65,27
India,Delhi,Delhi,"IGI Airport (T3), Delhi - IMD",27-03-2024 21:00:00,28.5627763,77.1180053,PM2.5,30,278,119
India,Delhi,Delhi,"IHBAS, Dilshad Garden, Delhi - CPCB",27-03-2024 21:00:00,28.6811736,77.3025234,SO2,4,40,25
India,Delhi,Delhi,"ITO, Delhi - CPCB",27-03-2024 21:00:00,28.628624,77.241060,NO2,2,178,81
India,Delhi,Delhi,"Lodhi Road, Delhi - IITM",27-03-2024 21:00:00,28.588333,77.221667,SO2,16,34,24
India,Delhi,Delhi,"Lodhi Road, Delhi - IMD",27-03-2024 21:00:00,28.5918245,77.2273074,NO2,2,9,5
India,Delhi,Delhi,"Major Dhyan Chand National Stadium, Delhi - DPCC",27-03-2024 21:00:00,28.611281,77.237738,NH3,6,8,7
India,Delhi,Delhi,"Mundka, Delhi - DPCC",27-03-2024 21:00:00,28.684678,77.076574,PM10,112,500,254
India,Delhi,Delhi,"Mundka, Delhi - DPCC",27-03-2024 21:00:00,28.684678,77.076574,NO2,21,98,61
India,Delhi,Delhi,"Mundka, Delhi - DPCC",27-03-2024 21:00:00,28.684678,77.076574,SO2,8,27,15
India,Delhi,Delhi,"Mundka, Delhi - DPCC",27-03-2024 21:00:00,28.684678,77.076574,CO,28,78,38
India,Delhi,Delhi,"Najafgarh, Delhi - DPCC",27-03-2024 21:00:00,28.570173,76.933762,PM10,48,340,135
India,Delhi,Delhi,"Narela, Delhi - DPCC",27-03-2024 21:00:00,28.822836,77.101981,PM10,60,379,172
India,Delhi,Delhi,"New Moti Bagh, Delhi - MHUA",27-03-2024 21:00:00,28.57834,77.18400,PM2.5,37,321,145
India,Delhi,Delhi,"New Moti Bagh, Delhi - MHUA",27-03-2024 21:00:00,28.57834,77.18400,NO2,1,24,6
India,Delhi,Delhi,"Okhla Phase-2, Delhi - DPCC",27-03-2024 21:00:00,28.530785,77.271255,SO2,3,21,11
India,Delhi,Delhi,"Patparganj, Delhi - DPCC",27-03-2024 21:00:00,28.623763,77.287209,PM10,103,424,180
India,Delhi,Delhi,"Pusa, Delhi - DPCC",27-03-2024 21:00:00,28.639652,77.146275,CO,2,78,43
India,Delhi,Delhi,"R K Puram, Delhi - DPCC",27-03-2024 21:00:00,28.563262,77.186937,NH3,1,2,2
India,Delhi,Delhi,"Shadipur, Delhi - CPCB",27-03-2024 21:00:00,28.6514781,77.1473105,NO2,34,48,41
India,Delhi,Delhi,"Shadipur, Delhi - CPCB",27-03-2024 21:00:00,28.6514781,77.1473105,OZONE,12,59,26
India,Delhi,Delhi,"Sirifort, Delhi - CPCB",27-03-2024 21:00:00,28.5504249,77.2159377,NH3,NA,NA,NA
India,Delhi,Delhi,"Sirifort, Delhi - CPCB",27-03-2024 21:00:00,28.5504249,77.2159377,SO2,39,46,43
India,Delhi,Delhi,"Sonia Vihar, Delhi - DPCC",27-03-2024 21:00:00,28.710508,77.249485,PM2.5,34,292,140
India,Delhi,Delhi,"Sri Aurobindo Marg, Delhi - DPCC",27-03-2024 21:00:00,28.531346,77.190156,NO2,17,119,60
India,Delhi,Delhi,"Sri Aurobindo Marg, Delhi - DPCC",27-03-2024 21:00:00,28.531346,77.190156,NH3,7,11,8
India,Delhi,Delhi,"Sri Aurobindo Marg, Delhi - DPCC",27-03-2024 21:00:00,28.531346,77.190156,SO2,8,27,15
India,Delhi,Delhi,"Sri Aurobindo Marg, Delhi - DPCC",27-03-2024 21:00:00,28.531346,77.190156,OZONE,1,60,38
India,Delhi,Delhi,"Vivek Vihar, Delhi - DPCC",27-03-2024 21:00:00,28.672342,77.315260,SO2,31,85,43
India,Delhi,Delhi,"Wazirpur, Delhi - DPCC",27-03-2024 21:00:00,28.699793,77.165453,PM2.5,29,325,130
India,Gujarat,Ahmedabad,"Chandkheda, Ahmedabad - IITM",27-03-2024 21:00:00,23.107969,72.574648,PM2.5,53,317,124
India,Gujarat,Ahmedabad,"Gyaspur, Ahmedabad - IITM",27-03-2024 21:00:00,22.977134,72.553024,NH3,10,11,10
India,Gujarat,Ahmedabad,"Maninagar, Ahmedabad - GPCB",27-03-2024 21:00:00,23.002657,72.591912,PM2.5,57,332,138
India,Gujarat,Ahmedabad,"Maninagar, Ahmedabad - GPCB",27-03-2024 21:00:00,23.002657,72.591912,NO2,26,104,50
India,Gujarat,Ahmedabad,"Raikhad, Ahmedabad - IITM",27-03-2024 21:00:00,23.020509,72.579261,PM10,45,198,115
India,Gujarat,Ahmedabad,"Raikhad, Ahmedabad - IITM",27-03-2024 21:00:00,23.020509,72.579261,NH3,1,6,4
India,Gujarat,Ahmedabad,"SAC ISRO Satellite, Ahmedabad - IITM",27-03-2024 21:00:00,23.023389,72.515201,PM10,106,107,107
India,Gujarat,Ahmedabad,"SAC ISRO Satellite, Ahmedabad - IITM",27-03-2024 21:00:00,23.023389,72.515201,CO,26,28,28
India,Gujarat,Ahmedabad,"SVPI Airport Hansol, Ahmedabad - IITM",27-03-2024 21:00:00,23.076793,72.627874,PM2.5,NA,NA,NA
India,Gujarat,Ahmedabad,"Sardar Vallabhbhai Patel Stadium, Ahmedabad - IITM",27-03-2024 21:00:00,23.043070,72.562968,OZONE,17,29,24
India,Gujarat,Ankleshwar,"GIDC, Ankleshwar - GPCB",27-03-2024 21:00:00,21.613267,73.010555,SO2,7,37,19
India,Gujarat,Gandhinagar,"GIFT City, Gandhinagar - IITM",27-03-2024 21:00:00,23.163798,72.677768,NH3,4,4,4
India,Gujarat,Gandhinagar,"GIFT City, Gandhinagar - IITM",27-03-2024 21:00:00,23.163798,72.677768,OZONE,6,42,29
India,Gujarat,Gandhinagar,"Sector-10, Gandhinagar - GPCB",27-03-2024 21:00:00,23.221714,72.654328,PM10,58,106,77
India,Gujarat,Gandhinagar,"Sector-10, Gandhinagar - GPCB",27-03-2024 21:00:00,23.221714,72.654328,NO2,16,22,18
India,Gujarat,Gandhinagar,"Sector-10, Gandhinagar - GPCB",27-03-2024 21:00:00,23.221714,72.654328,CO,22,104,39
India,Gujarat,Nandesari,"GIDC, Nandesari - Nandesari Ind. Association",27-03-2024 21:00:00,22.410802,73.097923,PM2.5,81,409,256
India,Gujarat,Nandesari,"GIDC, Nandesari - Nandesari Ind. Association",27-03-2024 21:00:00,22.410802,73.097923,NO2,5,51,21
India,Gujarat,Surat,"Science Center, Surat - SMC",27-03-2024 21:00:00,21.170046,72.795405,NO2,19,54,36
India,Gujarat,Vapi,"Phase-1 GIDC, Vapi - GPCB",27-03-2024 21:00:00,20.362421,72.918013,OZONE,NA,NA,NA
India,Gujarat,Vatva,"Phase-4 GIDC, Vatva - GPCB",27-03-2024 21:00:00,22.969611,72.643500,PM10,72,133,95
India,Gujarat,Vatva,"Phase-4 GIDC, Vatva - GPCB",27-03-2024 21:00:00,22.969611,72.643500,NH3,6,13,9
India,Haryana,Ambala,"Patti Mehar, Ambala - HSPCB",27-03-2024 21:00:00,30.379589,76.778328,PM10,42,64,51
India,Haryana,Ambala,"Patti Mehar, Ambala - HSPCB",27-03-2024 21:00:00,30.379589,76.778328,OZONE,25,35,29
India,Haryana,Bahadurgarh,"Arya Nagar, Bahadurgarh - HSPCB",27-03-2024 21:00:00,28.6701,76.9254,PM10,86,210,148
India,Haryana,Bahadurgarh,"Arya Nagar, Bahadurgarh - HSPCB",27-03-2024 21:00:00,28.6701,76.9254,NH3,11,12,12
India,Haryana,Ballabgarh,"Nathu Colony, Ballabgarh - HSPCB",27-03-2024 21:00:00,28.3419248,77.319699,NH3,1,3,1
India,Haryana,Charkhi Dadri,"Mini Secretariat, Charkhi Dadri - HSPCB",27-03-2024 21:00:00,28.593883,76.270653,SO2,4,69,24
India,Haryana,Charkhi Dadri,"Mini Secretariat, Charkhi Dadri - HSPCB",27-03-2024 21:00:00,28.593883,76.270653,OZONE,13,17,15
India,Haryana,Dharuhera,"Municipal Corporation Office, Dharuhera -  HSPCB",27-03-2024 21:00:00,28.206800,76.799700,NO2,45,111,71
India,Haryana,Dharuhera,"Municipal Corporation Office, Dharuhera -  HSPCB",27-03-2024 21:00:00,28.206800,76.799700,CO,84,109,92
India,Haryana,Dharuhera,"Municipal Corporation Office, Dharuhera -  HSPCB",27-03-2024 21:00:00,28.206800,76.799700,OZONE,43,65,60
India,Haryana,Faridabad,"New Industrial Town, Faridabad - HSPCB",27-03-2024 21:00:00,28.39072,77.30059,NO2,33,37,35
India,Haryana,Faridabad,"New Industrial Town, Faridabad - HSPCB",27-03-2024 21:00:00,28.39072,77.30059,SO2,8,9,9
India,Haryana,Faridabad,"Sector 11, Faridabad - HSPCB",27-03-2024 21:00:00,28.376058,77.315741,NO2,30,33,31
India,Haryana,Faridabad,"Sector 30, Faridabad - HSPCB",27-03-2024 21:00:00,28.4417,77.3217,PM2.5,89,100,96
India,Haryana,Faridabad,"Sector 30, Faridabad - HSPCB",27-03-2024 21:00:00,28.4417,77.3217,NO2,29,33,31
India,Haryana,Faridabad,"Sector 30, Faridabad - HSPCB",27-03-2024 21:00:00,28.4417,77.3217,NH3,9,9,9
India,Haryana,Faridabad,"Sector 30, Faridabad - HSPCB",27-03-2024 21:00:00,28.4417,77.3217,CO,16,110,30
India,Haryana,Faridabad,"Sector- 16A, Faridabad - HSPCB",27-03-2024 21:00:00,28.4088421,77.3099081,NO2,24,76,45
India,Haryana,Gurugram,"Sector-51, Gurugram - HSPCB",27-03-2024 21:00:00,28.4227,77.0667,NH3,6,14,9
India,Haryana,Gurugram,"Sector-51, Gurugram - HSPCB",27-03-2024 21:00:00,28.4227,77.0667,OZONE,27,67,56
India,Haryana,Gurugram,"Teri Gram, Gurugram - HSPCB",27-03-2024 21:00:00,28.4275,77.1465,PM2.5,40,277,155
India,Haryana,Gurugram,"Vikas Sadan, Gurugram - HSPCB",27-03-2024 21:00:00,28.4501238,77.0263051,NO2,5,25,14
India,Haryana,Jind,"Police Lines, Jind - HSPCB",27-03-2024 21:00:00,29.307814,76.337619,NH3,1,5,4
India,Haryana,Kaithal,"Rishi Nagar, Kaithal - HSPCB",27-03-2024 21:00:00,29.8006,76.4155,NO2,24,26,25
India,Haryana,Kaithal,"Rishi Nagar, Kaithal - HSPCB",27-03-2024 21:00:00,29.8006,76.4155,SO2,1,41,19
India,Haryana,Karnal,"Sector-12, Karnal - HSPCB",27-03-2024 21:00:00,29.695300,77.002700,PM2.5,58,75,66
India,Haryana,Kurukshetra,"Sector-7, Kurukshetra - HSPCB",27-03-2024 21:00:00,29.966942,76.875879,NO2,10,11,10
India,Haryana,Mandikhera,"General Hospital, Mandikhera - HSPCB",27-03-2024 21:00:00,27.9002,76.9938,PM2.5,18,81,35
India,Haryana,Mandikhera,"General Hospital, Mandikhera - HSPCB",27-03-2024 21:00:00,27.9002,76.9938,PM10,68,134,106
India,Haryana,Mandikhera,"General Hospital, Mandikhera - HSPCB",27-03-2024 21:00:00,27.9002,76.9938,SO2,29,38,33
India,Haryana,Manesar,"Sector-2 IMT, Manesar - HSPCB",27-03-2024 21:00:00,28.360699,76.936090,PM2.5,43,183,94
India,Haryana,Manesar,"Sector-2 IMT, Manesar - HSPCB",27-03-2024 21:00:00,28.360699,76.936090,NO2,20,26,22
India,Haryana,Narnaul,"Shastri Nagar, Narnaul - HSPCB",27-03-2024 21:00:00,28.060249,76.113115,SO2,13,32,14
India,Haryana,Panchkula,"Sector-6, Panchkula - HSPCB ",27-03-2024 21:00:00,30.7057778,76.8531805555555,CO,2,16,7
India,Haryana,Rohtak,"MD University, Rohtak - HSPCB",27-03-2024 21:00:00,28.52123,76.37138,PM2.5,1,26,10
India,Haryana,Rohtak,"MD University, Rohtak - HSPCB",27-03-2024 21:00:00,28.52123,76.37138,NO2,45,57,52
India,Haryana,Sirsa,"F-Block, Sirsa - HSPCB",27-03-2024 21:00:00,29.536400,75.015800,CO,25,46,29
India,Haryana,Yamuna Nagar,"Gobind Pura, Yamuna Nagar - HSPCB",27-03-2024 21:00:00,30.1480566,77.2893471,SO2,NA,NA,NA
India,Haryana,Yamuna Nagar,"Gobind Pura, Yamuna Nagar - HSPCB",27-03-2024 21:00:00,30.1480566,77.2893471,OZONE,24,35,29
India,Jharkhand,Dhanbad,"Kalakusuma, Dhanbad - DMC",27-03-2024 21:00:00,23.811548,86.481238,PM2.5,45,128,77
India,Jharkhand,Dhanbad,"Kalakusuma, Dhanbad - DMC",27-03-2024 21:00:00,23.811548,86.481238,PM10,91,395,176
India,Jharkhand,Dhanbad,"Kalakusuma, Dhanbad - DMC",27-03-2024 21:00:00,23.811548,86.481238,NO2,13,39,16
India,Karnataka,Bagalkot,"Vidayagiri, Bagalkot - KSPCB",27-03-2024 21:00:00,16.172806,75.659694,CO,22,50,39
India,Karnataka,Bagalkot,"Vidayagiri, Bagalkot - KSPCB",27-03-2024 21:00:00,16.172806,75.659694,OZONE,25,44,40
India,Karnataka,Bengaluru,"BTM Layout, Bengaluru - CPCB",27-03-2024 21:00:00,12.9135218,77.5950804,NO2,27,28,27
India,Karnataka,Bengaluru,"Bapuji Nagar, Bengaluru - KSPCB",27-03-2024 21:00:00,12.951913,77.539784,PM10,52,135,100
India,Karnataka,Bengaluru,"Hebbal, Bengaluru - KSPCB",27-03-2024 21:00:00,13.029152,77.585901,OZONE,8,59,18
India,Karnataka,Bengaluru,"Hombegowda Nagar, Bengaluru - KSPCB",27-03-2024 21:00:00,12.938539,77.590100,SO2,4,4,4
India,Karnataka,Bengaluru,"Jigani, Bengaluru - KSPCB",27-03-2024 21:00:00,12.7816279,77.6299145,PM2.5,41,134,84
India,Karnataka,Bengaluru,"Jigani, Bengaluru - KSPCB",27-03-2024 21:00:00,12.7816279,77.6299145,NH3,4,4,4
India,Karnataka,Bengaluru,"Jigani, Bengaluru - KSPCB",27-03-2024 21:00:00,12.7816279,77.6299145,OZONE,7,71,71
India,Karnataka,Bengaluru,"Kasturi Nagar, Bengaluru - KSPCB",27-03-2024 21:00:00,13.003872,77.664217,PM10,107,155,130
India,Karnataka,Bengaluru,"Peenya, Bengaluru - CPCB",27-03-2024 21:00:00,13.0270199,77.494094,PM10,36,76,55
India,Karnataka,Bengaluru,"Peenya, Bengaluru - CPCB",27-03-2024 21:00:00,13.0270199,77.494094,CO,6,32,15
India,Karnataka,Bengaluru,"Shivapura_Peenya, Bengaluru - KSPCB",27-03-2024 21:00:00,13.0246342,77.5080115,PM10,53,104,72
India,Karnataka,Bengaluru,"Shivapura_Peenya, Bengaluru - KSPCB",27-03-2024 21:00:00,13.0246342,77.5080115,SO2,2,26,11
India,Karnataka,Bengaluru,"Shivapura_Peenya, Bengaluru - KSPCB",27-03-2024 21:00:00,13.0246342,77.5080115,CO,25,47,32
India,Karnataka,Bengaluru,"Silk Board, Bengaluru - KSPCB",27-03-2024 21:00:00,12.917348,77.622813,PM2.5,28,71,45
India,Karnataka,Bengaluru,"Silk Board, Bengaluru - KSPCB",27-03-2024 21:00:00,12.917348,77.622813,PM10,37,94,59
India,Karnataka,Bidar,"Naubad, Bidar - KSPCB",27-03-2024 21:00:00,17.930306,77.482194,SO2,14,21,17
India,Karnataka,Chamarajanagar,"Urban, Chamarajanagar - KSPCB",27-03-2024 21:00:00,11.55358,76.55521,NH3,1,2,2
India,Karnataka,Chamarajanagar,"Urban, Chamarajanagar - KSPCB",27-03-2024 21:00:00,11.55358,76.55521,SO2,2,9,4
India,Karnataka,Chamarajanagar,"Urban, Chamarajanagar - KSPCB",27-03-2024 21:00:00,11.55358,76.55521,CO,19,32,25
India,Karnataka,Chikkamagaluru,"Kalyana Nagara, Chikkamagaluru - KSPCB",27-03-2024 21:00:00,13.328028,75.797056,CO,11,130,25
India,Karnataka,Davanagere,"Devaraj Urs Badavane, Davanagere - KSPCB",27-03-2024 21:00:00,14.475800,75.905200,SO2,3,6,5
India,Karnataka,Dharwad,"Kalabhavan, Dharwad - KSPCB",27-03-2024 21:00:00,15.459706,75.008381,PM10,31,61,37
India,Karnataka,Gadag,"Panchal Nagar, Gadag - KSPCB",27-03-2024 21:00:00,15.411456,75.638133,CO,44,52,48
India,Karnataka,Hassan,"B.Katihalli, Hassan - KSPCB",27-03-2024 21:00:00,13.008556,76.125258,CO,7,20,13
India,Karnataka,Haveri,"Ashwini Nagar, Haveri - KSPCB",27-03-2024 21:00:00,14.791800,75.389600,NH3,3,3,3
India,Karnataka,Hubballi,"Deshpande Nagar, Hubballi - KSPCB",27-03-2024 21:00:00,15.351773,75.140726,NH3,NA,NA,NA
India,Karnataka,Hubballi,"Deshpande Nagar, Hubballi - KSPCB",27-03-2024 21:00:00,15.351773,75.140726,CO,4,86,56
India,Karnataka,Hubballi,"Lingaraj Nagar, Hubballi - KSPCB",27-03-2024 21:00:00,15.3714823,75.1160168,PM2.5,10,63,37
India,Karnataka,Kalaburagi,"Lal Bahadur Shastri Nagar, Kalaburagi - KSPCB",27-03-2024 21:00:00,17.321993,76.822628,PM2.5,24,82,52
India,Karnataka,Kalaburagi,"Lal Bahadur Shastri Nagar, Kalaburagi - KSPCB",27-03-2024 21:00:00,17.321993,76.822628,NO2,12,12,12
India,Karnataka,Kalaburagi,"Lal Bahadur Shastri Nagar, Kalaburagi - KSPCB",27-03-2024 21:00:00,17.321993,76.822628,SO2,10,13,11
India,Karnataka,Kalaburagi,"Mahatma Basaveswar Colony, Kalaburgi - KSPCB",27-03-2024 21:00:00,17.336318,76.847397,NO2,9,19,14
India,Karnataka,Kalaburagi,"Mahatma Basaveswar Colony, Kalaburgi - KSPCB",27-03-2024 21:00:00,17.336318,76.847397,CO,36,49,41
India,Karnataka,Karwar,"KHB Colony, Karwar - KSPCB",27-03-2024 21:00:00,14.816666,74.141003,NH3,1,41,9
India,Karnataka,Kolar,"Tamaka Ind. Area, Kolar - KSPCB",27-03-2024 21:00:00,13.1276288,78.1570122,OZONE,14,34,29
India,Karnataka,Koppal,"Diwator Nagar, Koppal - KSPCB",27-03-2024 21:00:00,15.347630,76.181767,PM2.5,NA,NA,NA
India,Karnataka,Koppal,"Diwator Nagar, Koppal - KSPCB",27-03-2024 21:00:00,15.347630,76.181767,NO2,NA,NA,NA
India,Karnataka,Madikeri,"Stuart Hill, Madikeri - KSPCB",27-03-2024 21:00:00,12.415911,75.735050,NO2,3,12,6
India,Karnataka,Mangalore,"Kadri, Mangalore - KSPCB",27-03-2024 21:00:00,12.889250,74.853000,SO2,20,23,22
India,Karnataka,Mysuru,"Hebbal 1st Stage, Mysuru - KSPCB",27-03-2024 21:00:00,12.21041,76.37376,PM2.5,19,57,35
India,Karnataka,Mysuru,"Hebbal 1st Stage, Mysuru - KSPCB",27-03-2024 21:00:00,12.21041,76.37376,NH3,1,3,2
India,Karnataka,Mysuru,"Hebbal 1st Stage, Mysuru - KSPCB",27-03-2024 21:00:00,12.21041,76.37376,CO,4,39,16
India,Karnataka,Raichur,"Haji Colony, Raichur - KSPCB",27-03-2024 21:00:00,16.208139,77.348417,NH3,1,3,2
India,Karnataka,Raichur,"Haji Colony, Raichur - KSPCB",27-03-2024 21:00:00,16.208139,77.348417,OZONE,4,78,30
India,Karnataka,Shivamogga,"Vinoba Nagara, Shivamogga - KSPCB",27-03-2024 21:00:00,13.940000,75.555917,NH3,2,4,3
India,Karnataka,Udupi,"Brahmagiri, Udupi - KSPCB",27-03-2024 21:00:00,13.34194444,74.74694444,CO,45,50,46
India,Karnataka,Vijayapura,"Ibrahimpur, Vijayapura - KSPCB",27-03-2024 21:00:00,16.802639,75.722694,OZONE,13,16,15
India,Kerala,Eloor,"Udyogamandal, Eloor - Kerala PCB",27-03-2024 21:00:00,10.073232,76.302765,OZONE,10,26,17
India,Kerala,Kannur,"Thavakkara, Kannur - Kerala PCB",27-03-2024 21:00:00,11.875000,75.373200,NO2,6,7,6
