country,state,city,station,last_update,latitude,longitude,pollutant_id,pollutant_min,pollutant_max,pollutant_avg
India,Andhra_Pradesh,Amaravati,"Secretariat, Amaravati - APPCB",14-01-2024 12:00:00,16.5150833,80.5181667,NH3,3,4,4
India,Andhra_Pradesh,Amaravati,"Secretariat, Amaravati - APPCB",14-01-2024 12:00:00,16.5150833,80.5181667,CO,8,48,27
India,Andhra_Pradesh,Anantapur,"Gulzarpet, Anantapur - APPCB",14-01-2024 12:00:00,14.675886,77.593027,PM2.5,48,169,89
India,Andhra_Pradesh,Anantapur,"Gulzarpet, Anantapur - APPCB",14-01-2024 12:00:00,14.675886,77.593027,SO2,5,11,6
India,Andhra_Pradesh,Anantapur,"Gulzarpet, Anantapur - APPCB",14-01-2024 12:00:00,14.675886,77.593027,CO,27,100,53
India,Andhra_Pradesh,Chittoor,"Gangineni Cheruvu, Chittoor - APPCB",14-01-2024 12:00:00,13.204880,79.097889,OZONE,8,95,22
India,Andhra_Pradesh,Kadapa,"Yerramukkapalli, Kadapa - APPCB",14-01-2024 12:00:00,14.465052,78.824187,PM2.5,23,95,58
India,Andhra_Pradesh,Kadapa,"Yerramukkapalli, Kadapa - APPCB",14-01-2024 12:00:00,14.465052,78.824187,SO2,1,2,2
India,Andhra_Pradesh,Rajamahendravaram,"Anand Kala Kshetram, Rajamahendravaram - APPCB",14-01-2024 12:00:00,16.9872867,81.7363176,OZONE,5,8,6
India,Andhra_Pradesh,Tirupati,"Tirumala, Tirupati - APPCB",14-01-2024 12:00:00,13.67,79.35,PM10,89,149,115
India,Andhra_Pradesh,Tirupati,"Tirumala, Tirupati - APPCB",14-01-2024 12:00:00,13.67,79.35,SO2,4,23,11
India,Andhra_Pradesh,Tirupati,"Tirumala, Tirupati - APPCB",14-01-2024 12:00:00,13.67,79.35,CO,46,86,71
India,Andhra_Pradesh,Tirupati,"Vaikuntapuram, Tirupati - APPCB",14-01-2024 12:00:00,13.615387,79.409230,NH3,2,9,4
India,Andhra_Pradesh,Vijayawada,"HB Colony, Vijayawada - APPCB",14-01-2024 12:00:00,16.536107,80.594233,PM10,43,133,65
India,Andhra_Pradesh,Vijayawada,"Rajiv Gandhi Park, Vijayawada - APPCB",14-01-2024 12:00:00,16.509717,80.612222,OZONE,1,82,23
India,Arunachal_Pradesh,Naharlagun,"Naharlagun, Naharlagun - APSPCB",14-01-2024 12:00:00,27.103358,93.679645,NO2,2,2,2
India,Arunachal_Pradesh,Naharlagun,"Naharlagun, Naharlagun - APSPCB",14-01-2024 12:00:00,27.103358,93.679645,SO2,3,3,3
India,Assam,Byrnihat,"Central Academy for SFS, Byrnihat - PCBA",14-01-2024 12:00:00,26.071318,91.87488,PM10,NA,NA,NA
India,Assam,Byrnihat,"Central Academy for SFS, Byrnihat - PCBA",14-01-2024 12:00:00,26.071318,91.87488,NO2,NA,NA,NA
India,Assam,Byrnihat,"Central Academy for SFS, Byrnihat - PCBA",14-01-2024 12:00:00,26.071318,91.87488,NH3,NA,NA,NA
India,Assam,Byrnihat,"Central Academy for SFS, Byrnihat - PCBA",14-01-2024 12:00:00,26.071318,91.87488,SO2,NA,NA,NA
India,Assam,Guwahati,"LGBI Airport, Guwahati - PCBA",14-01-2024 12:00:00,26.10887,91.589544,NO2,NA,NA,NA
India,Assam,Guwahati,"LGBI Airport, Guwahati - PCBA",14-01-2024 12:00:00,26.10887,91.589544,NH3,1,2,2
India,Assam,Guwahati,"LGBI Airport, Guwahati - PCBA",14-01-2024 12:00:00,26.10887,91.589544,SO2,10,15,12
India,Assam,Guwahati,"Pan Bazaar, Guwahati - PCBA",14-01-2024 12:00:00,26.187500,91.744194,OZONE,17,17,17
India,Assam,Nagaon,"Christianpatty, Nagaon - PCBA",14-01-2024 12:00:00,26.349082,92.68449,PM2.5,58,398,212
India,Assam,Nagaon,"Christianpatty, Nagaon - PCBA",14-01-2024 12:00:00,26.349082,92.68449,SO2,1,2,1
India,Assam,Nagaon,"Christianpatty, Nagaon - PCBA",14-01-2024 12:00:00,26.349082,92.68449,OZONE,3,57,9
India,Assam,Nalbari,"Bata Chowk, Nalbari - PCBA",14-01-2024 12:00:00,26.446912,91.439057,PM10,117,500,234
India,Assam,Silchar,"Tarapur, Silchar - PCBA",14-01-2024 12:00:00,24.82827,92.79525,NO2,26,40,33
India,Assam,Silchar,"Tarapur, Silchar - PCBA",14-01-2024 12:00:00,24.82827,92.79525,NH3,1,1,1
India,Assam,Silchar,"Tarapur, Silchar - PCBA",14-01-2024 12:00:00,24.82827,92.79525,SO2,5,7,6
India,Assam,Silchar,"Tarapur, Silchar - PCBA",14-01-2024 12:00:00,24.82827,92.79525,CO,20,39,22
India,Assam,Sivasagar,"Girls College, Sivasagar - PCBA",14-01-2024 12:00:00,26.987634,94.636574,PM2.5,23,58,36
India,Assam,Sivasagar,"Girls College, Sivasagar - PCBA",14-01-2024 12:00:00,26.987634,94.636574,NH3,2,2,2
India,Bihar,Araria,"Kharahiya Basti, Araria - BSPCB",14-01-2024 12:00:00,26.146529,87.454184,NH3,6,8,7
India,Bihar,Araria,"Kharahiya Basti, Araria - BSPCB",14-01-2024 12:00:00,26.146529,87.454184,SO2,16,17,16
India,Bihar,Araria,"Kharahiya Basti, Araria - BSPCB",14-01-2024 12:00:00,26.146529,87.454184,CO,50,109,81
India,Bihar,Aurangabad,"Gurdeo Nagar, Aurangabad - BSPCB",14-01-2024 12:00:00,24.75746,84.366208,OZONE,18,110,34
India,Bihar,Bettiah,"Kamalnath Nagar, Bettiah - BSPCB",14-01-2024 12:00:00,26.80365,84.51954,PM2.5,NA,NA,NA
India,Bihar,Bhagalpur,"DM Office_Kachari Chowk, Bhagalpur - BSPCB",14-01-2024 12:00:00,25.251013,86.989001,NO2,28,63,43
India,Bihar,Bihar Sharif,"D M Colony, Bihar Sharif - BSPCB",14-01-2024 12:00:00,25.204762,85.514960,SO2,1,13,6
India,Bihar,Gaya,"Collectorate, Gaya - BSPCB",14-01-2024 12:00:00,24.7955,84.9994,NO2,17,21,19
India,Bihar,Gaya,"Collectorate, Gaya - BSPCB",14-01-2024 12:00:00,24.7955,84.9994,CO,38,56,39
India,Bihar,Gaya,"Kareemganj, Gaya - BSPCB",14-01-2024 12:00:00,24.792403,84.992416,SO2,7,10,8
India,Bihar,Hajipur,"Industrial Area, Hajipur - BSPCB",14-01-2024 12:00:00,25.697189,85.245900,NO2,14,81,45
India,Bihar,Kishanganj,"SDM Office_Khagra, Kishanganj - BSPCB",14-01-2024 12:00:00,26.0881305,87.93840336,PM10,183,496,315
India,Bihar,Kishanganj,"SDM Office_Khagra, Kishanganj - BSPCB",14-01-2024 12:00:00,26.0881305,87.93840336,NO2,28,36,31
India,Bihar,Kishanganj,"SDM Office_Khagra, Kishanganj - BSPCB",14-01-2024 12:00:00,26.0881305,87.93840336,SO2,10,20,14
India,Bihar,Kishanganj,"SDM Office_Khagra, Kishanganj - BSPCB",14-01-2024 12:00:00,26.0881305,87.93840336,CO,6,28,18
India,Bihar,Kishanganj,"SDM Office_Khagra, Kishanganj - BSPCB",14-01-2024 12:00:00,26.0881305,87.93840336,OZONE,33,45,34
India,Bihar,Manguraha,"Forest Rest House, Manguraha - BSPCB",14-01-2024 12:00:00,27.308328,84.531742,PM2.5,48,197,106
India,Bihar,Manguraha,"Forest Rest House, Manguraha - BSPCB",14-01-2024 12:00:00,27.308328,84.531742,CO,8,108,44
India,Bihar,Motihari,"Gandak Colony, Motihari - BSPCB",14-01-2024 12:00:00,26.63086,84.90051,PM10,97,161,121
India,Bihar,Munger,"Town Hall, Munger - BSPCB",14-01-2024 12:00:00,25.376776,86.471523,NH3,1,2,2
India,Bihar,Muzaffarpur,"Buddha Colony, Muzaffarpur - BSPCB",14-01-2024 12:00:00,26.11442,85.39813,PM10,193,365,253
India,Bihar,Muzaffarpur,"Buddha Colony, Muzaffarpur - BSPCB",14-01-2024 12:00:00,26.11442,85.39813,SO2,8,16,10
India,Bihar,Muzaffarpur,"MIT-Daudpur Kothi, Muzaffarpur - BSPCB",14-01-2024 12:00:00,26.1403345,85.3650192,OZONE,3,48,14
India,Bihar,Muzaffarpur,"Muzaffarpur Collectorate, Muzaffarpur - BSPCB",14-01-2024 12:00:00,26.1209,85.3647,PM2.5,129,372,236
India,Bihar,Patna,"DRM Office Danapur, Patna - BSPCB",14-01-2024 12:00:00,25.586562,85.043586,PM10,106,438,306
India,Bihar,Patna,"DRM Office Danapur, Patna - BSPCB",14-01-2024 12:00:00,25.586562,85.043586,OZONE,2,25,15
India,Bihar,Patna,"Govt. High School Shikarpur, Patna - BSPCB",14-01-2024 12:00:00,25.592539,85.227158,PM10,61,153,103
India,Bihar,Patna,"Govt. High School Shikarpur, Patna - BSPCB",14-01-2024 12:00:00,25.592539,85.227158,SO2,3,7,5
India,Bihar,Patna,"IGSC Planetarium Complex, Patna - BSPCB",14-01-2024 12:00:00,25.610369,85.132568,PM2.5,55,300,153
India,Bihar,Patna,"Muradpur, Patna - BSPCB",14-01-2024 12:00:00,25.619651,85.147382,PM10,181,433,310
India,Bihar,Patna,"Muradpur, Patna - BSPCB",14-01-2024 12:00:00,25.619651,85.147382,OZONE,4,39,23
India,Bihar,Patna,"Rajbansi Nagar, Patna - BSPCB",14-01-2024 12:00:00,25.599486,85.113666,PM2.5,59,311,196
India,Bihar,Purnia,"Mariam Nagar, Purnia - BSPCB",14-01-2024 12:00:00,25.366336,87.117468,PM2.5,150,343,266
India,Bihar,Purnia,"Mariam Nagar, Purnia - BSPCB",14-01-2024 12:00:00,25.366336,87.117468,PM10,133,264,184
India,Bihar,Rajgir,"Dangi Tola, Rajgir - BSPCB",14-01-2024 12:00:00,25.03280,85.41948,NO2,6,15,9
India,Bihar,Rajgir,"Dangi Tola, Rajgir - BSPCB",14-01-2024 12:00:00,25.03280,85.41948,OZONE,21,25,23
India,Bihar,Samastipur,"DM Office_Kasipur, Samastipur - BSPCB",14-01-2024 12:00:00,25.859655,85.77944,OZONE,6,8,7
India,Bihar,Sasaram,"Dada Peer, Sasaram - BSPCB",14-01-2024 12:00:00,24.952822,84.002396,OZONE,4,6,4
India,Bihar,Siwan,"Chitragupta Nagar, Siwan - BSPCB",14-01-2024 12:00:00,26.2271665,84.3570427,PM2.5,75,220,138
India,Bihar,Siwan,"Chitragupta Nagar, Siwan - BSPCB",14-01-2024 12:00:00,26.2271665,84.3570427,NO2,15,53,23
India,Bihar,Siwan,"Chitragupta Nagar, Siwan - BSPCB",14-01-2024 12:00:00,26.2271665,84.3570427,NH3,1,5,2
India,Chandigarh,Chandigarh,"Sector-53, Chandigarh - CPCC",14-01-2024 12:00:00,30.719859,76.738637,NH3,NA,NA,NA
India,Chandigarh,Chandigarh,"Sector-53, Chandigarh - CPCC",14-01-2024 12:00:00,30.719859,76.738637,OZONE,4,47,8
India,Chhattisgarh,Bhilai,"32Bungalows, Bhilai - CECB",14-01-2024 12:00:00,21.194815,81.314770,PM10,51,123,82
India,Chhattisgarh,Bhilai,"32Bungalows, Bhilai - CECB",14-01-2024 12:00:00,21.194815,81.314770,NO2,17,30,22
India,Chhattisgarh,Bhilai,"Civic Center, Bhilai - Bhilai Steel Plant",14-01-2024 12:00:00,21.185571,81.343175,SO2,10,33,12
India,Chhattisgarh,Bhilai,"Hathkhoj, Bhilai - CECB",14-01-2024 12:00:00,21.224231,81.408350,PM2.5,58,164,94
India,Chhattisgarh,Bhilai,"Hathkhoj, Bhilai - CECB",14-01-2024 12:00:00,21.224231,81.408350,CO,18,42,29
India,Chhattisgarh,Bilaspur,"Mangala, Bilaspur - NTPC",14-01-2024 12:00:00,22.08815,82.13737,PM10,40,88,57
India,Chhattisgarh,Chhal,"Nawapara SECL Colony, Chhal - CECB",14-01-2024 12:00:00,22.118125,83.140608,PM2.5,19,58,35
India,Chhattisgarh,Chhal,"Nawapara SECL Colony, Chhal - CECB",14-01-2024 12:00:00,22.118125,83.140608,NH3,2,2,2
India,Chhattisgarh,Chhal,"Nawapara SECL Colony, Chhal - CECB",14-01-2024 12:00:00,22.118125,83.140608,SO2,9,95,26
India,Chhattisgarh,Korba,"Rampur, Korba - CECB",14-01-2024 12:00:00,22.368195,82.746431,NO2,18,52,35
India,Chhattisgarh,Korba,"Rampur, Korba - CECB",14-01-2024 12:00:00,22.368195,82.746431,NH3,1,4,3
India,Chhattisgarh,Korba,"Rampur, Korba - CECB",14-01-2024 12:00:00,22.368195,82.746431,OZONE,2,62,14
India,Chhattisgarh,Kunjemura,"OP Jindal School, Kunjemura - CECB",14-01-2024 12:00:00,22.126650,83.483212,NO2,15,120,53
India,Chhattisgarh,Kunjemura,"OP Jindal School, Kunjemura - CECB",14-01-2024 12:00:00,22.126650,83.483212,SO2,1,63,20
India,Chhattisgarh,Milupara,"Govt. Higher Secondary School, Milupara - CECB",14-01-2024 12:00:00,22.1910172,83.5197009,PM10,15,143,39
India,Chhattisgarh,Milupara,"Govt. Higher Secondary School, Milupara - CECB",14-01-2024 12:00:00,22.1910172,83.5197009,CO,5,48,6
India,Chhattisgarh,Raipur,"AIIMS, Raipur - CECB",14-01-2024 12:00:00,21.258815,81.578979,PM2.5,30,259,71
India,Chhattisgarh,Raipur,"AIIMS, Raipur - CECB",14-01-2024 12:00:00,21.258815,81.578979,PM10,39,173,93
India,Chhattisgarh,Raipur,"AIIMS, Raipur - CECB",14-01-2024 12:00:00,21.258815,81.578979,SO2,6,58,10
India,Chhattisgarh,Raipur,"Bhatagaon New ISBT, Raipur - CECB",14-01-2024 12:00:00,21.219665,81.630094,PM10,45,167,87
India,Chhattisgarh,Raipur,"Krishak Nagar, Raipur - CECB",14-01-2024 12:00:00,21.237755,81.705301,SO2,8,12,9
India,Chhattisgarh,Raipur,"Siltara Phase-II, Raipur - CECB",14-01-2024 12:00:00,21.371751,81.664929,NH3,1,4,2
India,Chhattisgarh,Raipur,"Siltara Phase-II, Raipur - CECB",14-01-2024 12:00:00,21.371751,81.664929,SO2,2,24,6
India,Chhattisgarh,Tumidih,"OP Jindal Industrial Park, Tumidih - CECB",14-01-2024 12:00:00,22.06631475,83.33820077,OZONE,4,60,15
India,Delhi,Delhi,"Alipur, Delhi - DPCC",14-01-2024 12:00:00,28.815329,77.153010,NH3,1,5,2
India,Delhi,Delhi,"Alipur, Delhi - DPCC",14-01-2024 12:00:00,28.815329,77.153010,SO2,7,11,9
India,Delhi,Delhi,"Ashok Vihar, Delhi - DPCC",14-01-2024 12:00:00,28.695381,77.181665,OZONE,4,24,4
India,Delhi,Delhi,"Aya Nagar, Delhi - IMD",14-01-2024 12:00:00,28.4706914,77.1099364,PM2.5,377,500,471
India,Delhi,Delhi,"Bawana, Delhi - DPCC",14-01-2024 12:00:00,28.776200,77.051074,NO2,9,64,36
India,Delhi,Delhi,"CRRI Mathura Road, Delhi - IMD",14-01-2024 12:00:00,28.5512005,77.2735737,PM10,NA,NA,NA
India,Delhi,Delhi,"CRRI Mathura Road, Delhi - IMD",14-01-2024 12:00:00,28.5512005,77.2735737,OZONE,34,74,36
India,Delhi,Delhi,"DTU, Delhi - CPCB",14-01-2024 12:00:00,28.7500499,77.1112615,PM10,192,489,370
India,Delhi,Delhi,"DTU, Delhi - CPCB",14-01-2024 12:00:00,28.7500499,77.1112615,SO2,26,28,27
India,Delhi,Delhi,"Dr. Karni Singh Shooting Range, Delhi - DPCC",14-01-2024 12:00:00,28.498571,77.264840,SO2,6,21,10
India,Delhi,Delhi,"Dwarka-Sector 8, Delhi - DPCC ",14-01-2024 12:00:00,28.5710274,77.0719006,PM2.5,424,500,480
India,Delhi,Delhi,"Dwarka-Sector 8, Delhi - DPCC ",14-01-2024 12:00:00,28.5710274,77.0719006,NH3,16,24,19
India,Delhi,Delhi,"IGI Airport (T3), Delhi - IMD",14-01-2024 12:00:00,28.5627763,77.1180053,PM10,300,500,443
India,Delhi,Delhi,"IGI Airport (T3), Delhi - IMD",14-01-2024 12:00:00,28.5627763,77.1180053,NO2,3,65,23
India,Delhi,Delhi,"IHBAS, Dilshad Garden, Delhi - CPCB",14-01-2024 12:00:00,28.6811736,77.3025234,NH3,1,5,4
India,Delhi,Delhi,"IHBAS, Dilshad Garden, Delhi - CPCB",14-01-2024 12:00:00,28.6811736,77.3025234,CO,8,148,104
India,Delhi,Delhi,"ITO, Delhi - CPCB",14-01-2024 12:00:00,28.628624,77.241060,NO2,27,108,55
India,Delhi,Delhi,"ITO, Delhi - CPCB",14-01-2024 12:00:00,28.628624,77.241060,NH3,7,22,13
India,Delhi,Delhi,"Jahangirpuri, Delhi - DPCC",14-01-2024 12:00:00,28.732820,77.170633,PM2.5,355,500,464
India,Delhi,Delhi,"Jawaharlal Nehru Stadium, Delhi - DPCC",14-01-2024 12:00:00,28.580280,77.233829,NO2,61,194,122
India,Delhi,Delhi,"Jawaharlal Nehru Stadium, Delhi - DPCC",14-01-2024 12:00:00,28.580280,77.233829,CO,50,190,94
India,Delhi,Delhi,"Lodhi Road, Delhi - IITM",14-01-2024 12:00:00,28.588333,77.221667,PM2.5,NA,NA,NA
India,Delhi,Delhi,"Lodhi Road, Delhi - IITM",14-01-2024 12:00:00,28.588333,77.221667,PM10,NA,NA,NA
India,Delhi,Delhi,"Major Dhyan Chand National Stadium, Delhi - DPCC",14-01-2024 12:00:00,28.611281,77.237738,CO,40,155,91
India,Delhi,Delhi,"Mandir Marg, Delhi - DPCC",14-01-2024 12:00:00,28.636429,77.201067,NH3,14,18,16
India,Delhi,Delhi,"Mandir Marg, Delhi - DPCC",14-01-2024 12:00:00,28.636429,77.201067,OZONE,4,19,6
India,Delhi,Delhi,"Mundka, Delhi - DPCC",14-01-2024 12:00:00,28.684678,77.076574,SO2,5,22,12
India,Delhi,Delhi,"Mundka, Delhi - DPCC",14-01-2024 12:00:00,28.684678,77.076574,CO,68,122,85
India,Delhi,Delhi,"NSIT Dwarka, Delhi - CPCB",14-01-2024 12:00:00,28.60909,77.0325413,PM10,NA,NA,NA
India,Delhi,Delhi,"Najafgarh, Delhi - DPCC",14-01-2024 12:00:00,28.570173,76.933762,NO2,34,78,54
India,Delhi,Delhi,"Najafgarh, Delhi - DPCC",14-01-2024 12:00:00,28.570173,76.933762,NH3,6,9,8
India,Delhi,Delhi,"Najafgarh, Delhi - DPCC",14-01-2024 12:00:00,28.570173,76.933762,CO,4,129,36
India,Delhi,Delhi,"Narela, Delhi - DPCC",14-01-2024 12:00:00,28.822836,77.101981,SO2,4,14,10
India,Delhi,Delhi,"Nehru Nagar, Delhi - DPCC",14-01-2024 12:00:00,28.567890,77.250515,NO2,37,98,61
India,Delhi,Delhi,"Nehru Nagar, Delhi - DPCC",14-01-2024 12:00:00,28.567890,77.250515,CO,4,138,68
India,Delhi,Delhi,"North Campus, DU, Delhi - IMD",14-01-2024 12:00:00,28.6573814,77.1585447,CO,66,114,74
India,Delhi,Delhi,"Punjabi Bagh, Delhi - DPCC",14-01-2024 12:00:00,28.674045,77.131023,PM10,267,500,460
India,Delhi,Delhi,"Punjabi Bagh, Delhi - DPCC",14-01-2024 12:00:00,28.674045,77.131023,CO,8,119,64
India,Delhi,Delhi,"Pusa, Delhi - IMD",14-01-2024 12:00:00,28.636110,77.173332,OZONE,12,20,13
India,Delhi,Delhi,"R K Puram, Delhi - DPCC",14-01-2024 12:00:00,28.563262,77.186937,PM10,407,500,472
India,Delhi,Delhi,"Rohini, Delhi - DPCC",14-01-2024 12:00:00,28.732528,77.119920,NH3,9,16,12
India,Delhi,Delhi,"Shadipur, Delhi - CPCB",14-01-2024 12:00:00,28.6514781,77.1473105,PM10,329,500,470
India,Delhi,Delhi,"Sri Aurobindo Marg, Delhi - DPCC",14-01-2024 12:00:00,28.531346,77.190156,PM2.5,403,500,486
India,Delhi,Delhi,"Sri Aurobindo Marg, Delhi - DPCC",14-01-2024 12:00:00,28.531346,77.190156,NH3,12,18,15
India,Delhi,Delhi,"Sri Aurobindo Marg, Delhi - DPCC",14-01-2024 12:00:00,28.531346,77.190156,CO,71,157,112
India,Delhi,Delhi,"Sri Aurobindo Marg, Delhi - DPCC",14-01-2024 12:00:00,28.531346,77.190156,OZONE,6,26,9
India,Delhi,Delhi,"Vivek Vihar, Delhi - DPCC",14-01-2024 12:00:00,28.672342,77.315260,PM2.5,370,500,469
India,Delhi,Delhi,"Vivek Vihar, Delhi - DPCC",14-01-2024 12:00:00,28.672342,77.315260,NH3,6,14,9
India,Delhi,Delhi,"Vivek Vihar, Delhi - DPCC",14-01-2024 12:00:00,28.672342,77.315260,OZONE,1,11,3
India,Delhi,Delhi,"Wazirpur, Delhi - DPCC",14-01-2024 12:00:00,28.699793,77.165453,NH3,6,13,8
India,Gujarat,Ahmedabad,"Chandkheda, Ahmedabad - IITM",14-01-2024 12:00:00,23.107969,72.574648,PM2.5,54,150,90
India,Gujarat,Ahmedabad,"Raikhad, Ahmedabad - IITM",14-01-2024 12:00:00,23.020509,72.579261,PM2.5,102,119,105
India,Gujarat,Ahmedabad,"Raikhad, Ahmedabad - IITM",14-01-2024 12:00:00,23.020509,72.579261,CO,22,102,59
India,Gujarat,Ahmedabad,"Rakhial, Ahmedabad - IITM",14-01-2024 12:00:00,23.016834,72.625775,PM10,98,306,146
India,Gujarat,Ahmedabad,"Rakhial, Ahmedabad - IITM",14-01-2024 12:00:00,23.016834,72.625775,NH3,2,6,5
India,Gujarat,Ahmedabad,"Rakhial, Ahmedabad - IITM",14-01-2024 12:00:00,23.016834,72.625775,SO2,3,14,7
India,Gujarat,Ahmedabad,"SAC ISRO Bopal, Ahmedabad - IITM",14-01-2024 12:00:00,23.041137,72.456691,CO,37,48,41
India,Gujarat,Ahmedabad,"SAC ISRO Satellite, Ahmedabad - IITM",14-01-2024 12:00:00,23.023389,72.515201,PM2.5,67,86,83
India,Gujarat,Ahmedabad,"Sardar Vallabhbhai Patel Stadium, Ahmedabad - IITM",14-01-2024 12:00:00,23.043070,72.562968,PM2.5,65,229,130
India,Gujarat,Ahmedabad,"Sardar Vallabhbhai Patel Stadium, Ahmedabad - IITM",14-01-2024 12:00:00,23.043070,72.562968,CO,14,106,22
India,Gujarat,Ankleshwar,"GIDC, Ankleshwar - GPCB",14-01-2024 12:00:00,21.613267,73.010555,PM10,86,199,115
India,Gujarat,Ankleshwar,"GIDC, Ankleshwar - GPCB",14-01-2024 12:00:00,21.613267,73.010555,NO2,33,34,34
India,Gujarat,Ankleshwar,"GIDC, Ankleshwar - GPCB",14-01-2024 12:00:00,21.613267,73.010555,NH3,6,6,6
India,Gujarat,Ankleshwar,"GIDC, Ankleshwar - GPCB",14-01-2024 12:00:00,21.613267,73.010555,OZONE,21,30,22
India,Gujarat,Gandhinagar,"IIPHG Lekawada, Gandhinagar - IITM",14-01-2024 12:00:00,23.243639,72.68994,PM10,59,142,92
India,Gujarat,Gandhinagar,"Sector-10, Gandhinagar - GPCB",14-01-2024 12:00:00,23.221714,72.654328,PM2.5,20,95,49
India,Gujarat,Gandhinagar,"Sector-10, Gandhinagar - GPCB",14-01-2024 12:00:00,23.221714,72.654328,NH3,1,2,2
India,Gujarat,Gandhinagar,"Sector-10, Gandhinagar - GPCB",14-01-2024 12:00:00,23.221714,72.654328,SO2,9,11,10
India,Gujarat,Surat,"Science Center, Surat - SMC",14-01-2024 12:00:00,21.170046,72.795405,SO2,14,18,16
India,Gujarat,Vapi,"Phase-1 GIDC, Vapi - GPCB",14-01-2024 12:00:00,20.362421,72.918013,SO2,NA,NA,NA
India,Gujarat,Vatva,"Phase-4 GIDC, Vatva - GPCB",14-01-2024 12:00:00,22.969611,72.643500,PM10,68,121,88
India,Haryana,Ambala,"Patti Mehar, Ambala - HSPCB",14-01-2024 12:00:00,30.379589,76.778328,NH3,6,36,14
India,Haryana,Ambala,"Patti Mehar, Ambala - HSPCB",14-01-2024 12:00:00,30.379589,76.778328,SO2,1,28,7
India,Haryana,Bahadurgarh,"Arya Nagar, Bahadurgarh - HSPCB",14-01-2024 12:00:00,28.6701,76.9254,PM10,126,416,250
India,Haryana,Bahadurgarh,"Arya Nagar, Bahadurgarh - HSPCB",14-01-2024 12:00:00,28.6701,76.9254,NH3,10,13,11
India,Haryana,Bahadurgarh,"Arya Nagar, Bahadurgarh - HSPCB",14-01-2024 12:00:00,28.6701,76.9254,OZONE,38,49,44
India,Haryana,Ballabgarh,"Nathu Colony, Ballabgarh - HSPCB",14-01-2024 12:00:00,28.3419248,77.319699,SO2,1,23,12
India,Haryana,Charkhi Dadri,"Mini Secretariat, Charkhi Dadri - HSPCB",14-01-2024 12:00:00,28.593883,76.270653,NO2,9,29,14
India,Haryana,Charkhi Dadri,"Mini Secretariat, Charkhi Dadri - HSPCB",14-01-2024 12:00:00,28.593883,76.270653,NH3,3,9,6
India,Haryana,Charkhi Dadri,"Mini Secretariat, Charkhi Dadri - HSPCB",14-01-2024 12:00:00,28.593883,76.270653,OZONE,13,17,15
India,Haryana,Dharuhera,"Municipal Corporation Office, Dharuhera -  HSPCB",14-01-2024 12:00:00,28.206800,76.799700,NO2,46,111,73
India,Haryana,Faridabad,"New Industrial Town, Faridabad - HSPCB",14-01-2024 12:00:00,28.39072,77.30059,PM2.5,443,500,488
India,Haryana,Faridabad,"New Industrial Town, Faridabad - HSPCB",14-01-2024 12:00:00,28.39072,77.30059,NO2,1,25,14
India,Haryana,Faridabad,"Sector 11, Faridabad - HSPCB",14-01-2024 12:00:00,28.376058,77.315741,SO2,7,36,18
India,Haryana,Faridabad,"Sector 30, Faridabad - HSPCB",14-01-2024 12:00:00,28.4417,77.3217,NH3,14,14,14
India,Haryana,Faridabad,"Sector- 16A, Faridabad - HSPCB",14-01-2024 12:00:00,28.4088421,77.3099081,OZONE,14,14,14
India,Haryana,Fatehabad,"Huda Sector, Fatehabad - HSPCB",14-01-2024 12:00:00,29.503664,75.467934,SO2,6,12,8
India,Haryana,Fatehabad,"Huda Sector, Fatehabad - HSPCB",14-01-2024 12:00:00,29.503664,75.467934,CO,5,14,7
India,Haryana,Gurugram,"Teri Gram, Gurugram - HSPCB",14-01-2024 12:00:00,28.4275,77.1465,PM10,172,500,320
India,Haryana,Gurugram,"Vikas Sadan, Gurugram - HSPCB",14-01-2024 12:00:00,28.4501238,77.0263051,PM2.5,164,483,357
India,Haryana,Gurugram,"Vikas Sadan, Gurugram - HSPCB",14-01-2024 12:00:00,28.4501238,77.0263051,CO,54,140,97
India,Haryana,Hisar,"Urban Estate-II, Hisar - HSPCB",14-01-2024 12:00:00,29.140560,75.744941,PM10,66,149,93
India,Haryana,Hisar,"Urban Estate-II, Hisar - HSPCB",14-01-2024 12:00:00,29.140560,75.744941,OZONE,12,71,16
India,Haryana,Jind,"Police Lines, Jind - HSPCB",14-01-2024 12:00:00,29.307814,76.337619,PM2.5,58,308,132
India,Haryana,Jind,"Police Lines, Jind - HSPCB",14-01-2024 12:00:00,29.307814,76.337619,PM10,64,157,102
India,Haryana,Jind,"Police Lines, Jind - HSPCB",14-01-2024 12:00:00,29.307814,76.337619,NH3,2,6,4
India,Haryana,Jind,"Police Lines, Jind - HSPCB",14-01-2024 12:00:00,29.307814,76.337619,SO2,3,7,5
India,Haryana,Jind,"Police Lines, Jind - HSPCB",14-01-2024 12:00:00,29.307814,76.337619,OZONE,1,10,4
India,Haryana,Karnal,"Sector-12, Karnal - HSPCB",14-01-2024 12:00:00,29.695300,77.002700,PM10,60,204,131
India,Haryana,Kurukshetra,"Sector-7, Kurukshetra - HSPCB",14-01-2024 12:00:00,29.966942,76.875879,OZONE,2,28,11
India,Haryana,Mandikhera,"General Hospital, Mandikhera - HSPCB",14-01-2024 12:00:00,27.9002,76.9938,PM10,102,415,171
India,Haryana,Mandikhera,"General Hospital, Mandikhera - HSPCB",14-01-2024 12:00:00,27.9002,76.9938,OZONE,21,35,27
India,Haryana,Manesar,"Sector-2 IMT, Manesar - HSPCB",14-01-2024 12:00:00,28.360699,76.936090,NH3,2,12,7
India,Haryana,Manesar,"Sector-2 IMT, Manesar - HSPCB",14-01-2024 12:00:00,28.360699,76.936090,SO2,10,23,17
India,Haryana,Narnaul,"Shastri Nagar, Narnaul - HSPCB",14-01-2024 12:00:00,28.060249,76.113115,NH3,5,16,11
India,Haryana,Narnaul,"Shastri Nagar, Narnaul - HSPCB",14-01-2024 12:00:00,28.060249,76.113115,OZONE,21,72,69
India,Haryana,Palwal,"Shyam Nagar, Palwal - HSPCB",14-01-2024 12:00:00,28.1485564,77.3320667,OZONE,1,23,2
India,Haryana,Panchkula,"Sector-6, Panchkula - HSPCB ",14-01-2024 12:00:00,30.7057778,76.8531805555555,NO2,28,30,29
India,Haryana,Panipat,"Sector-18, Panipat - HSPCB",14-01-2024 12:00:00,29.497973,76.993331,PM2.5,126,140,135
India,Haryana,Sirsa,"F-Block, Sirsa - HSPCB",14-01-2024 12:00:00,29.536400,75.015800,PM2.5,64,252,142
India,Haryana,Sirsa,"F-Block, Sirsa - HSPCB",14-01-2024 12:00:00,29.536400,75.015800,NH3,12,13,13
India,Haryana,Sonipat,"Murthal, Sonipat - HSPCB",14-01-2024 12:00:00,29.027200,77.062100,CO,26,71,58
India,Himachal Pradesh,Baddi,"HIMUDA Complex Phase-1, Baddi - HPPCB",14-01-2024 12:00:00,30.943887,76.801991,SO2,42,127,89
India,Jharkhand,Dhanbad,"Kalakusuma, Dhanbad - DMC",14-01-2024 12:00:00,23.811548,86.481238,CO,103,110,106
India,Jharkhand,Dhanbad,"Sardar Patel Nagar, Dhanbad - JSPCB",14-01-2024 12:00:00,23.80569,86.44268,SO2,5,49,18
India,Karnataka,Bagalkot,"Vidayagiri, Bagalkot - KSPCB",14-01-2024 12:00:00,16.172806,75.659694,PM10,53,58,54
India,Karnataka,Belgaum,"Ramteerth Nagar, Belgaum - KSPCB",14-01-2024 12:00:00,15.888653,74.541751,OZONE,19,20,20
India,Karnataka,Bengaluru,"BTM Layout, Bengaluru - CPCB",14-01-2024 12:00:00,12.9135218,77.5950804,OZONE,6,36,25
India,Karnataka,Bengaluru,"Bapuji Nagar, Bengaluru - KSPCB",14-01-2024 12:00:00,12.951913,77.539784,PM10,98,192,128
India,Karnataka,Bengaluru,"Bapuji Nagar, Bengaluru - KSPCB",14-01-2024 12:00:00,12.951913,77.539784,NH3,1,1,1
India,Karnataka,Bengaluru,"Hombegowda Nagar, Bengaluru - KSPCB",14-01-2024 12:00:00,12.938539,77.590100,CO,10,38,18
India,Karnataka,Bengaluru,"Jayanagar 5th Block, Bengaluru - KSPCB",14-01-2024 12:00:00,12.920984,77.584908,CO,8,39,23
India,Karnataka,Bengaluru,"Jigani, Bengaluru - KSPCB",14-01-2024 12:00:00,12.7816279,77.6299145,PM2.5,13,316,114
India,Karnataka,Bengaluru,"Jigani, Bengaluru - KSPCB",14-01-2024 12:00:00,12.7816279,77.6299145,NH3,3,3,3
India,Karnataka,Bengaluru,"Peenya, Bengaluru - CPCB",14-01-2024 12:00:00,13.0270199,77.494094,PM2.5,95,156,110
India,Karnataka,Bengaluru,"Peenya, Bengaluru - CPCB",14-01-2024 12:00:00,13.0270199,77.494094,NH3,5,5,5
India,Karnataka,Bengaluru,"RVCE-Mailasandra, Bengaluru - KSPCB",14-01-2024 12:00:00,12.921418,77.502466,NH3,4,4,4
India,Karnataka,Bengaluru,"RVCE-Mailasandra, Bengaluru - KSPCB",14-01-2024 12:00:00,12.921418,77.502466,OZONE,NA,NA,NA
India,Karnataka,Bengaluru,"Sanegurava Halli, Bengaluru - KSPCB",14-01-2024 12:00:00,12.990328,77.5431385,CO,NA,NA,NA
India,Karnataka,Bengaluru,"Shivapura_Peenya, Bengaluru - KSPCB",14-01-2024 12:00:00,13.0246342,77.5080115,PM2.5,NA,NA,NA
India,Karnataka,Bengaluru,"Shivapura_Peenya, Bengaluru - KSPCB",14-01-2024 12:00:00,13.0246342,77.5080115,OZONE,19,118,55
India,Karnataka,Bengaluru,"Silk Board, Bengaluru - KSPCB",14-01-2024 12:00:00,12.917348,77.622813,NH3,2,3,2
India,Karnataka,Bengaluru,"Silk Board, Bengaluru - KSPCB",14-01-2024 12:00:00,12.917348,77.622813,CO,12,24,19
India,Karnataka,Bidar,"Naubad, Bidar - KSPCB",14-01-2024 12:00:00,17.930306,77.482194,NO2,NA,NA,NA
India,Karnataka,Bidar,"Naubad, Bidar - KSPCB",14-01-2024 12:00:00,17.930306,77.482194,CO,NA,NA,NA
India,Karnataka,Chikkaballapur,"Chikkaballapur Rural, Chikkaballapur - KSPCB",14-01-2024 12:00:00,13.428828,77.731418,SO2,17,22,19
India,Karnataka,Chikkamagaluru,"Kalyana Nagara, Chikkamagaluru - KSPCB",14-01-2024 12:00:00,13.328028,75.797056,NO2,18,36,23
India,Karnataka,Chikkamagaluru,"Kalyana Nagara, Chikkamagaluru - KSPCB",14-01-2024 12:00:00,13.328028,75.797056,SO2,1,3,2
India,Karnataka,Davanagere,"Devaraj Urs Badavane, Davanagere - KSPCB",14-01-2024 12:00:00,14.475800,75.905200,PM2.5,47,172,81
India,Karnataka,Davanagere,"Devaraj Urs Badavane, Davanagere - KSPCB",14-01-2024 12:00:00,14.475800,75.905200,NH3,1,1,1
India,Karnataka,Dharwad,"Kalabhavan, Dharwad - KSPCB",14-01-2024 12:00:00,15.459706,75.008381,SO2,2,8,5
India,Karnataka,Hassan,"B.Katihalli, Hassan - KSPCB",14-01-2024 12:00:00,13.008556,76.125258,NO2,NA,NA,NA
India,Karnataka,Haveri,"Ashwini Nagar, Haveri - KSPCB",14-01-2024 12:00:00,14.791800,75.389600,OZONE,NA,NA,NA
India,Karnataka,Hubballi,"Lingaraj Nagar, Hubballi - KSPCB",14-01-2024 12:00:00,15.3714823,75.1160168,PM10,57,103,78
India,Karnataka,Hubballi,"Lingaraj Nagar, Hubballi - KSPCB",14-01-2024 12:00:00,15.3714823,75.1160168,NH3,2,2,2
India,Karnataka,Kalaburagi,"Lal Bahadur Shastri Nagar, Kalaburagi - KSPCB",14-01-2024 12:00:00,17.321993,76.822628,PM10,27,88,51
India,Karnataka,Kalaburagi,"Lal Bahadur Shastri Nagar, Kalaburagi - KSPCB",14-01-2024 12:00:00,17.321993,76.822628,NO2,11,12,11
India,Karnataka,Kalaburagi,"Lal Bahadur Shastri Nagar, Kalaburagi - KSPCB",14-01-2024 12:00:00,17.321993,76.822628,NH3,2,2,2
India,Karnataka,Kalaburagi,"Mahatma Basaveswar Colony, Kalaburgi - KSPCB",14-01-2024 12:00:00,17.336318,76.847397,OZONE,2,45,21
India,Karnataka,Karwar,"KHB Colony, Karwar - KSPCB",14-01-2024 12:00:00,14.816666,74.141003,CO,1,2,2
India,Karnataka,Kolar,"Tamaka Ind. Area, Kolar - KSPCB",14-01-2024 12:00:00,13.1276288,78.1570122,SO2,12,22,14
India,Karnataka,Kolar,"Tamaka Ind. Area, Kolar - KSPCB",14-01-2024 12:00:00,13.1276288,78.1570122,OZONE,15,25,17
India,Karnataka,Madikeri,"Stuart Hill, Madikeri - KSPCB",14-01-2024 12:00:00,12.415911,75.735050,NO2,6,17,9
India,Karnataka,Madikeri,"Stuart Hill, Madikeri - KSPCB",14-01-2024 12:00:00,12.415911,75.735050,OZONE,22,40,34
India,Karnataka,Mysuru,"Hebbal 1st Stage, Mysuru - KSPCB",14-01-2024 12:00:00,12.21041,76.37376,SO2,1,5,3
India,Karnataka,Raichur,"Haji Colony, Raichur - KSPCB",14-01-2024 12:00:00,16.208139,77.348417,NH3,NA,NA,NA
India,Karnataka,Raichur,"Haji Colony, Raichur - KSPCB",14-01-2024 12:00:00,16.208139,77.348417,SO2,65,115,77
India,Karnataka,Ramanagara,"Vijay Nagar, Ramanagara - KSPCB",14-01-2024 12:00:00,12.733409,77.298051,CO,12,32,18
India,Karnataka,Tumakuru,"Thimmalapura, Tumakuru - KSPCB",14-01-2024 12:00:00,13.377516,77.099072,PM2.5,43,167,94
India,Karnataka,Vijayapura,"Ibrahimpur, Vijayapura - KSPCB",14-01-2024 12:00:00,16.802639,75.722694,NO2,17,19,19
India,Karnataka,Vijayapura,"Ibrahimpur, Vijayapura - KSPCB",14-01-2024 12:00:00,16.802639,75.722694,NH3,2,2,2
India,Karnataka,Yadgir,"Collector Office, Yadgir - KSPCB",14-01-2024 12:00:00,16.7602,77.1428,OZONE,18,19,19
India,Kerala,Eloor,"Udyogamandal, Eloor - Kerala PCB",14-01-2024 12:00:00,10.073232,76.302765,PM10,37,65,51
India,Kerala,Eloor,"Udyogamandal, Eloor - Kerala PCB",14-01-2024 12:00:00,10.073232,76.302765,NO2,4,4,4
India,Kerala,Eloor,"Udyogamandal, Eloor - Kerala PCB",14-01-2024 12:00:00,10.073232,76.302765,OZONE,3,87,11
India,Kerala,Kannur,"Thavakkara, Kannur - Kerala PCB",14-01-2024 12:00:00,11.875000,75.373200,NO2,6,7,6
India,Kerala,Kannur,"Thavakkara, Kannur - Kerala PCB",14-01-2024 12:00:00,11.875000,75.373200,SO2,5,6,5
India,Kerala,Kannur,"Thavakkara, Kannur - Kerala PCB",14-01-2024 12:00:00,11.875000,75.373200,CO,31,35,33
India,Kerala,Kollam,"Polayathode, Kollam - Kerala PCB",14-01-2024 12:00:00,8.8787,76.6073,OZONE,31,38,31
India,Kerala,Thiruvananthapuram,"Kariavattom, Thiruvananthapuram - Kerala PCB",14-01-2024 12:00:00,8.563700,76.886500,SO2,5,16,9
India,Kerala,Thiruvananthapuram,"Plammoodu, Thiruvananthapuram - Kerala PCB",14-01-2024 12:00:00,8.5149093,76.9435879,PM10,NA,NA,NA
India,Kerala,Thiruvananthapuram,"Plammoodu, Thiruvananthapuram - Kerala PCB",14-01-2024 12:00:00,8.5149093,76.9435879,NH3,2,2,2
India,Kerala,Thrissur,"Corporation Ground, Thrissur - Kerala PCB",14-01-2024 12:00:00,10.532400,76.215900,SO2,NA,NA,NA
India,Madhya Pradesh,Bhopal,"Paryavaran Parisar, Bhopal - MPPCB",14-01-2024 12:00:00,23.210494,77.425409,NO2,19,82,44
India,Madhya Pradesh,Gwalior,"City Center, Gwalior - MPPCB",14-01-2024 12:00:00,26.203442,78.193251,NO2,20,59,33
India,Madhya Pradesh,Gwalior,"Deen Dayal Nagar, Gwalior - MPPCB",14-01-2024 12:00:00,26.259242,78.216432,SO2,14,18,17
India,Madhya Pradesh,Gwalior,"Deen Dayal Nagar, Gwalior - MPPCB",14-01-2024 12:00:00,26.259242,78.216432,CO,40,52,50
India,Madhya Pradesh,Gwalior,"Maharaj Bada, Gwalior - MPPCB",14-01-2024 12:00:00,26.200388,78.147714,NO2,19,113,58
India,Madhya Pradesh,Gwalior,"Phool Bagh, Gwalior - Mondelez Ind. Food",14-01-2024 12:00:00,26.210536,78.171,CO,32,52,34
India,Madhya Pradesh,Indore,"Chhoti Gwaltoli, Indore - MPPCB",14-01-2024 12:00:00,22.4310,75.5213,OZONE,10,93,42
India,Madhya Pradesh,Indore,"Maguda Nagar, Indore - IMC",14-01-2024 12:00:00,22.7524,75.8872,NH3,1,2,1
India,Madhya Pradesh,Indore,"Maguda Nagar, Indore - IMC",14-01-2024 12:00:00,22.7524,75.8872,OZONE,28,45,40
India,Madhya Pradesh,Indore,"Regional Park, Indore - IMC",14-01-2024 12:00:00,22.6780,75.8559,SO2,43,47,45
India,Madhya Pradesh,Indore,"Regional Park, Indore - IMC",14-01-2024 12:00:00,22.6780,75.8559,OZONE,5,16,7
India,Madhya Pradesh,Indore,"Residency Area, Indore - IMC",14-01-2024 12:00:00,22.7084,75.8815,PM2.5,44,293,129
India,Madhya Pradesh,Indore,"Residency Area, Indore - IMC",14-01-2024 12:00:00,22.7084,75.8815,OZONE,10,23,13
India,Madhya Pradesh,Jabalpur,"Gupteshwar, Jabalpur - JMC",14-01-2024 12:00:00,23.142888,79.916147,SO2,5,11,7
India,Madhya Pradesh,Katni,"Gole Bazar, Katni - MPPCB",14-01-2024 12:00:00,23.50016,80.23284,PM2.5,34,313,118
India,Madhya Pradesh,Katni,"Gole Bazar, Katni - MPPCB",14-01-2024 12:00:00,23.50016,80.23284,PM10,50,230,116
India,Madhya Pradesh,Katni,"Gole Bazar, Katni - MPPCB",14-01-2024 12:00:00,23.50016,80.23284,CO,24,132,32
India,Madhya Pradesh,Katni,"Gole Bazar, Katni - MPPCB",14-01-2024 12:00:00,23.50016,80.23284,OZONE,4,86,40
India,Madhya Pradesh,Maihar,"Sahilara, Maihar - KJS Cements",14-01-2024 12:00:00,24.2613009,80.7231783,NO2,14,14,14
India,Madhya Pradesh,Mandideep,"Sector-D Industrial Area, Mandideep - MPPCB",14-01-2024 12:00:00,23.108440,77.511428,NO2,41,132,93
India,Madhya Pradesh,Pithampur,"Sector-2 Industrial Area, Pithampur - MPPCB",14-01-2024 12:00:00,22.624758,75.675238,PM10,92,151,113
India,Madhya Pradesh,Pithampur,"Sector-2 Industrial Area, Pithampur - MPPCB",14-01-2024 12:00:00,22.624758,75.675238,NO2,6,20,10
India,Madhya Pradesh,Pithampur,"Sector-2 Industrial Area, Pithampur - MPPCB",14-01-2024 12:00:00,22.624758,75.675238,OZONE,27,65,36
India,Madhya Pradesh,Ratlam,"Shasthri Nagar, Ratlam - IPCA Lab",14-01-2024 12:00:00,23.331731,75.045981,SO2,12,15,13
India,Madhya Pradesh,Sagar,"Civil Lines, Sagar - MPPCB",14-01-2024 12:00:00,23.838586,78.759431,PM2.5,42,189,84
India,Madhya Pradesh,Sagar,"Civil Lines, Sagar - MPPCB",14-01-2024 12:00:00,23.838586,78.759431,PM10,47,128,78
India,Madhya Pradesh,Sagar,"Civil Lines, Sagar - MPPCB",14-01-2024 12:00:00,23.838586,78.759431,OZONE,39,45,40
India,Madhya Pradesh,Sagar,"Deen Dayal Nagar, Sagar - MPPCB",14-01-2024 12:00:00,23.8640158,78.80289321,PM2.5,13,66,36
India,Madhya Pradesh,Sagar,"Deen Dayal Nagar, Sagar - MPPCB",14-01-2024 12:00:00,23.8640158,78.80289321,PM10,26,137,69
India,Madhya Pradesh,Sagar,"Deen Dayal Nagar, Sagar - MPPCB",14-01-2024 12:00:00,23.8640158,78.80289321,CO,18,107,57
India,Madhya Pradesh,Satna,"Bandhavgar Colony, Satna - Birla Cement",14-01-2024 12:00:00,24.58434363,80.8549414,PM2.5,1,40,15
India,Madhya Pradesh,Singrauli,"Suryakiran Bhawan NCL, Singrauli - MPPCB",14-01-2024 12:00:00,24.108970,82.645580,NO2,4,20,11
India,Madhya Pradesh,Ujjain,"Mahakaleshwar Temple, Ujjain - MPPCB",14-01-2024 12:00:00,23.182719 ,75.768218 ,NO2,8,69,28
India,Madhya Pradesh,Ujjain,"Mahakaleshwar Temple, Ujjain - MPPCB",14-01-2024 12:00:00,23.182719 ,75.768218 ,NH3,6,10,7
India,Maharashtra,Ahmednagar,"Tarakpur, Ahmednagar - MPCB",14-01-2024 12:00:00,19.10122,74.73339,CO,6,140,23
India,Maharashtra,Akola,"Ramdaspeth, Akola - MPCB",14-01-2024 12:00:00,20.719516,77.000253,SO2,5,24,14
India,Maharashtra,Amravati,"Shivneri Colony, Amravati - MPCB",14-01-2024 12:00:00,20.9402359,77.7895248,PM10,96,151,119
India,Maharashtra,Amravati,"Shivneri Colony, Amravati - MPCB",14-01-2024 12:00:00,20.9402359,77.7895248,NO2,12,92,43
India,Maharashtra,Amravati,"Shri Shivaji Science College, Amaravati - MPCB",14-01-2024 12:00:00,20.939198,77.765701,NO2,10,127,52
India,Maharashtra,Amravati,"Shri Shivaji Science College, Amaravati - MPCB",14-01-2024 12:00:00,20.939198,77.765701,SO2,4,30,14
India,Maharashtra,Aurangabad,"MIDC Chilkalthana, Aurangabad - MPCB",14-01-2024 12:00:00,19.875620,75.387310,NO2,8,150,42
India,Maharashtra,Aurangabad,"MIDC Chilkalthana, Aurangabad - MPCB",14-01-2024 12:00:00,19.875620,75.387310,OZONE,26,48,32
India,Maharashtra,Badlapur,"Katrap, Badlapur - MPCB",14-01-2024 12:00:00,19.16485,73.23409,PM10,115,158,143
India,Maharashtra,Belapur,"CBD Belapur, Belapur - MPCB",14-01-2024 12:00:00,19.0243902,73.0406721,PM10,108,159,124
India,Maharashtra,Bhiwandi,"Gokul Nagar, Bhiwandi - MPCB",14-01-2024 12:00:00,19.309073,73.057223,PM2.5,75,193,133
India,Maharashtra,Bhiwandi,"Gokul Nagar, Bhiwandi - MPCB",14-01-2024 12:00:00,19.309073,73.057223,SO2,6,25,11
India,Maharashtra,Boisar,"Khaira, Boisar - MPCB",14-01-2024 12:00:00,19.786089,72.757971,PM2.5,43,209,120
India,Maharashtra,Boisar,"Khaira, Boisar - MPCB",14-01-2024 12:00:00,19.786089,72.757971,NH3,8,14,10
India,Maharashtra,Chandrapur,"Chauhan Colony, Chandrapur - MPCB",14-01-2024 12:00:00,19.962900,79.298714,NH3,2,2,2
India,Maharashtra,Chandrapur,"Chauhan Colony, Chandrapur - MPCB",14-01-2024 12:00:00,19.962900,79.298714,CO,1,124,9
India,Maharashtra,Chandrapur,"Chauhan Colony, Chandrapur - MPCB",14-01-2024 12:00:00,19.962900,79.298714,OZONE,1,46,8
India,Maharashtra,Chandrapur,"MIDC Khutala, Chandrapur - MPCB",14-01-2024 12:00:00,19.9775302,79.2337086,PM2.5,NA,NA,NA
India,Maharashtra,Chandrapur,"MIDC Khutala, Chandrapur - MPCB",14-01-2024 12:00:00,19.9775302,79.2337086,CO,27,106,46
India,Maharashtra,Dhule,"Deopur, Dhule - MPCB",14-01-2024 12:00:00,20.918946,74.776388,NO2,8,21,11
India,Maharashtra,Jalgaon,"Prabhat Colony, Jalgaon - MPCB",14-01-2024 12:00:00,21.001264,75.565602,NO2,17,118,52
India,Maharashtra,Jalgaon,"Prabhat Colony, Jalgaon - MPCB",14-01-2024 12:00:00,21.001264,75.565602,SO2,1,14,5
India,Maharashtra,Kalyan,"Khadakpada, Kalyan - MPCB",14-01-2024 12:00:00,19.25292,73.142019,NO2,15,71,32
India,Maharashtra,Kalyan,"Khadakpada, Kalyan - MPCB",14-01-2024 12:00:00,19.25292,73.142019,OZONE,10,38,15
India,Maharashtra,Kolhapur,"Shivaji University, Kolhapur - MPCB",14-01-2024 12:00:00,16.6870449,74.2505872,PM2.5,78,138,104
India,Maharashtra,Kolhapur,"Shivaji University, Kolhapur - MPCB",14-01-2024 12:00:00,16.6870449,74.2505872,NO2,10,53,19
India,Maharashtra,Kolhapur,"Shivaji University, Kolhapur - MPCB",14-01-2024 12:00:00,16.6870449,74.2505872,CO,17,92,45
India,Maharashtra,Kolhapur,"Sinchan Bhavan, Kolhapur - MPCB",14-01-2024 12:00:00,16.7143745,74.2426398,PM10,89,185,123
India,Maharashtra,Latur,"Sawe Wadi, Latur - MPCB",14-01-2024 12:00:00,18.39963,76.57452,CO,16,112,56
India,Maharashtra,Malegaon,"Mahesh Nagar, Malegaon - MPCB",14-01-2024 12:00:00,20.555712,74.529236,NO2,1,21,6
India,Maharashtra,Malegaon,"Mahesh Nagar, Malegaon - MPCB",14-01-2024 12:00:00,20.555712,74.529236,NH3,9,10,9
India,Maharashtra,Mira-Bhayandar,"Bhayandar West, Mira-Bhayandar - MPCB",14-01-2024 12:00:00,19.296481,72.840923,PM2.5,68,134,96
India,Maharashtra,Mumbai,"Bandra Kurla Complex, Mumbai - MPCB",14-01-2024 12:00:00,19.065931,72.862131,SO2,2,6,4
India,Maharashtra,Mumbai,"Borivali East, Mumbai - IITM",14-01-2024 12:00:00,19.23241,72.86895,NO2,37,118,72
India,Maharashtra,Mumbai,"Borivali East, Mumbai - IITM",14-01-2024 12:00:00,19.23241,72.86895,OZONE,4,99,18
India,Maharashtra,Mumbai,"Borivali East, Mumbai - MPCB",14-01-2024 12:00:00,19.2243333,72.8658113,CO,2,164,8
India,Maharashtra,Mumbai,"Byculla, Mumbai - BMC",14-01-2024 12:00:00,18.9767,72.8380,PM2.5,72,200,125
India,Maharashtra,Mumbai,"Byculla, Mumbai - BMC",14-01-2024 12:00:00,18.9767,72.8380,SO2,1,5,2
India,Maharashtra,Mumbai,"Byculla, Mumbai - BMC",14-01-2024 12:00:00,18.9767,72.8380,CO,8,111,28
India,Maharashtra,Mumbai,"Chakala-Andheri East, Mumbai - IITM",14-01-2024 12:00:00,19.11074,72.86084,NO2,50,197,116
India,Maharashtra,Mumbai,"Chakala-Andheri East, Mumbai - IITM",14-01-2024 12:00:00,19.11074,72.86084,OZONE,39,79,61
India,Maharashtra,Mumbai,"Chembur, Mumbai - MPCB",14-01-2024 12:00:00,19.0364585,72.8954371,CO,30,106,46
India,Maharashtra,Mumbai,"Chhatrapati Shivaji Intl. Airport (T2), Mumbai - MPCB",14-01-2024 12:00:00,19.10078,72.87462,PM10,61,121,103
India,Maharashtra,Mumbai,"Chhatrapati Shivaji Intl. Airport (T2), Mumbai - MPCB",14-01-2024 12:00:00,19.10078,72.87462,CO,62,106,92
India,Maharashtra,Mumbai,"Chhatrapati Shivaji Intl. Airport (T2), Mumbai - MPCB",14-01-2024 12:00:00,19.10078,72.87462,OZONE,1,20,2
India,Maharashtra,Mumbai,"Colaba, Mumbai - MPCB",14-01-2024 12:00:00,18.910000,72.820000,SO2,NA,NA,NA
India,Maharashtra,Mumbai,"Colaba, Mumbai - MPCB",14-01-2024 12:00:00,18.910000,72.820000,CO,NA,NA,NA
India,Maharashtra,Mumbai,"Ghatkopar, Mumbai - BMC",14-01-2024 12:00:00,19.083694,72.920967,PM2.5,70,144,103
India,Maharashtra,Mumbai,"Ghatkopar, Mumbai - BMC",14-01-2024 12:00:00,19.083694,72.920967,NH3,1,1,1
India,Maharashtra,Mumbai,"Ghatkopar, Mumbai - BMC",14-01-2024 12:00:00,19.083694,72.920967,CO,10,62,22
India,Maharashtra,Mumbai,"Kandivali East, Mumbai - MPCB",14-01-2024 12:00:00,19.205800,72.868200,OZONE,27,31,29
India,Maharashtra,Mumbai,"Khindipada-Bhandup West, Mumbai - IITM",14-01-2024 12:00:00,19.1653323,72.922099,OZONE,4,102,21
India,Maharashtra,Mumbai,"Kurla, Mumbai - MPCB",14-01-2024 12:00:00,19.0863,72.8888,PM2.5,38,217,102
India,Maharashtra,Mumbai,"Kurla, Mumbai - MPCB",14-01-2024 12:00:00,19.0863,72.8888,NH3,3,3,3
India,Maharashtra,Mumbai,"Malad West, Mumbai - IITM",14-01-2024 12:00:00,19.19709,72.82204,PM2.5,120,282,210
India,Maharashtra,Mumbai,"Malad West, Mumbai - IITM",14-01-2024 12:00:00,19.19709,72.82204,PM10,110,163,135
India,Maharashtra,Mumbai,"Mazgaon, Mumbai - IITM",14-01-2024 12:00:00,18.96702,72.84214,CO,2,34,13
India,Maharashtra,Mumbai,"Mindspace-Malad West, Mumbai - MPCB",14-01-2024 12:00:00,19.1878657,72.8304069,SO2,4,11,8
India,Maharashtra,Mumbai,"Mindspace-Malad West, Mumbai - MPCB",14-01-2024 12:00:00,19.1878657,72.8304069,CO,19,104,56
India,Maharashtra,Mumbai,"Mulund West, Mumbai - MPCB",14-01-2024 12:00:00,19.1750,72.9419,PM2.5,18,45,29
India,Maharashtra,Mumbai,"Mulund West, Mumbai - MPCB",14-01-2024 12:00:00,19.1750,72.9419,NO2,22,25,23
India,Maharashtra,Mumbai,"Navy Nagar-Colaba, Mumbai - IITM",14-01-2024 12:00:00,18.897756,72.813320,PM2.5,59,125,78
India,Maharashtra,Mumbai,"Navy Nagar-Colaba, Mumbai - IITM",14-01-2024 12:00:00,18.897756,72.813320,NO2,19,42,29
India,Maharashtra,Mumbai,"Navy Nagar-Colaba, Mumbai - IITM",14-01-2024 12:00:00,18.897756,72.813320,OZONE,5,181,37
India,Maharashtra,Mumbai,"Powai, Mumbai - MPCB",14-01-2024 12:00:00,19.137500,72.915056,NH3,NA,NA,NA
India,Maharashtra,Mumbai,"Powai, Mumbai - MPCB",14-01-2024 12:00:00,19.137500,72.915056,CO,NA,NA,NA
India,Maharashtra,Mumbai,"Sewri, Mumbai - BMC",14-01-2024 12:00:00,19.000084,72.856730,PM2.5,73,169,114
India,Maharashtra,Mumbai,"Sewri, Mumbai - BMC",14-01-2024 12:00:00,19.000084,72.856730,NO2,43,115,82
India,Maharashtra,Mumbai,"Sewri, Mumbai - BMC",14-01-2024 12:00:00,19.000084,72.856730,CO,10,103,31
India,Maharashtra,Mumbai,"Sion, Mumbai - MPCB",14-01-2024 12:00:00,19.047000,72.874600,PM10,75,172,122
India,Maharashtra,Mumbai,"Vasai West, Mumbai - MPCB",14-01-2024 12:00:00,19.383200,72.820400,PM10,15,104,65
India,Maharashtra,Mumbai,"Vile Parle West, Mumbai - MPCB",14-01-2024 12:00:00,19.10861,72.83622,NH3,2,11,7
India,Maharashtra,Mumbai,"Worli, Mumbai - MPCB",14-01-2024 12:00:00,18.9936162,72.8128113,NH3,NA,NA,NA
India,Maharashtra,Nagpur,"Mahal, Nagpur - MPCB",14-01-2024 12:00:00,21.14472,79.107595,PM10,57,121,87
India,Maharashtra,Nagpur,"Opp GPO Civil Lines, Nagpur - MPCB",14-01-2024 12:00:00,21.152875,79.0517531,CO,17,113,26
India,Maharashtra,Nagpur,"Opp GPO Civil Lines, Nagpur - MPCB",14-01-2024 12:00:00,21.152875,79.0517531,OZONE,2,98,20
India,Maharashtra,Nagpur,"Ram Nagar, Nagpur - MPCB",14-01-2024 12:00:00,21.143383,79.048912,NH3,4,5,5
India,Maharashtra,Nanded,"Sneh Nagar, Nanded - MPCB",14-01-2024 12:00:00,19.173852,77.296291,PM10,93,258,146
India,Maharashtra,Nanded,"Sneh Nagar, Nanded - MPCB",14-01-2024 12:00:00,19.173852,77.296291,SO2,1,7,3
India,Maharashtra,Nanded,"Sneh Nagar, Nanded - MPCB",14-01-2024 12:00:00,19.173852,77.296291,OZONE,6,168,38
India,Maharashtra,Nashik,"Gangapur Road, Nashik - MPCB",14-01-2024 12:00:00,20.0073285,73.7762427,NO2,2,7,4
India,Maharashtra,Nashik,"Hirawadi, Nashik - MPCB",14-01-2024 12:00:00,20.021503,73.813844,NO2,5,30,19
India,Maharashtra,Nashik,"Hirawadi, Nashik - MPCB",14-01-2024 12:00:00,20.021503,73.813844,SO2,9,11,10
India,Maharashtra,Nashik,"Hirawadi, Nashik - MPCB",14-01-2024 12:00:00,20.021503,73.813844,OZONE,8,84,33
India,Maharashtra,Nashik,"MIDC Ambad, Nashik - MPCB",14-01-2024 12:00:00,19.950220,73.731480,OZONE,3,43,20
India,Maharashtra,Nashik,"Pandav Nagari, Nashik - MPCB",14-01-2024 12:00:00,19.9591346,73.7788008,PM10,34,115,85
India,Maharashtra,Nashik,"Pandav Nagari, Nashik - MPCB",14-01-2024 12:00:00,19.9591346,73.7788008,SO2,9,21,14
India,Maharashtra,Navi Mumbai,"Kopripada-Vashi, Navi Mumbai - MPCB",14-01-2024 12:00:00,19.090337,73.014232,CO,14,80,24
India,Maharashtra,Navi Mumbai,"Mahape, Navi Mumbai - MPCB",14-01-2024 12:00:00,19.1135051,73.008978,CO,28,57,32
India,Maharashtra,Navi Mumbai,"Sanpada, Navi Mumbai - MPCB",14-01-2024 12:00:00,19.0575752,73.0151367,OZONE,4,229,40
India,Maharashtra,Navi Mumbai,"Sector-19A Nerul, Navi Mumbai - IITM",14-01-2024 12:00:00,19.044,73.0325,NO2,35,178,80
India,Maharashtra,Navi Mumbai,"Sector-19A Nerul, Navi Mumbai - IITM",14-01-2024 12:00:00,19.044,73.0325,CO,18,112,54
India,Maharashtra,Navi Mumbai,"Sector-2E Kalamboli, Navi Mumbai - MPCB",14-01-2024 12:00:00,19.02579,73.10297,PM2.5,71,264,161
India,Maharashtra,Navi Mumbai,"Sector-2E Kalamboli, Navi Mumbai - MPCB",14-01-2024 12:00:00,19.02579,73.10297,OZONE,1,157,14
India,Maharashtra,Navi Mumbai,"Tondare-Taloja, Navi Mumbai - MPCB",14-01-2024 12:00:00,19.0630,73.1209,NO2,24,142,67
India,Maharashtra,Parbhani,"Masoom Colony, Parbhani - MPCB",14-01-2024 12:00:00,19.265594,76.761463,NO2,9,82,37
India,Maharashtra,Parbhani,"Masoom Colony, Parbhani - MPCB",14-01-2024 12:00:00,19.265594,76.761463,SO2,18,121,58
India,Maharashtra,Pimpri-Chinchwad,"Gavalinagar, Pimpri Chinchwad - MPCB",14-01-2024 12:00:00,18.63673,73.82487,NH3,1,14,6
India,Maharashtra,Pimpri-Chinchwad,"Park Street Wakad, Pimpri Chinchwad - MPCB",14-01-2024 12:00:00,18.59051,73.77946,NH3,8,25,13
India,Maharashtra,Pimpri-Chinchwad,"Park Street Wakad, Pimpri Chinchwad - MPCB",14-01-2024 12:00:00,18.59051,73.77946,SO2,4,20,9
India,Maharashtra,Pimpri-Chinchwad,"Thergaon, Pimpri Chinchwad - MPCB",14-01-2024 12:00:00,18.616318,73.765797,PM2.5,70,321,221
India,Maharashtra,Pune,"Bhosari, Pune - IITM",14-01-2024 12:00:00,18.640051,73.848956,CO,28,58,44
India,Maharashtra,Pune,"Katraj Dairy, Pune - MPCB",14-01-2024 12:00:00,18.454450,73.854155,CO,NA,NA,NA
India,Maharashtra,Pune,"Katraj Dairy, Pune - MPCB",14-01-2024 12:00:00,18.454450,73.854155,OZONE,1,77,10
India,Maharashtra,Pune,"Mhada Colony, Pune - IITM",14-01-2024 12:00:00,18.573040,73.927715,PM10,60,155,109
India,Maharashtra,Pune,"Revenue Colony-Shivajinagar, Pune - IITM",14-01-2024 12:00:00,18.530085,73.849598,PM10,39,151,90
India,Maharashtra,Pune,"Revenue Colony-Shivajinagar, Pune - IITM",14-01-2024 12:00:00,18.530085,73.849598,NH3,13,30,22
India,Maharashtra,Solapur,"Dnyaneshwar Nagar, Solapur - MPCB",14-01-2024 12:00:00,17.6336264,75.9132495,PM2.5,84,194,127
India,Maharashtra,Solapur,"Dnyaneshwar Nagar, Solapur - MPCB",14-01-2024 12:00:00,17.6336264,75.9132495,NO2,15,133,54
India,Maharashtra,Solapur,"Dnyaneshwar Nagar, Solapur - MPCB",14-01-2024 12:00:00,17.6336264,75.9132495,NH3,19,51,29
India,Maharashtra,Solapur,"Ratandeep Housing Society, Solapur - MPCB",14-01-2024 12:00:00,17.65439,75.90649,OZONE,1,45,18
India,Maharashtra,Solapur,"Solapur, Solapur - MPCB",14-01-2024 12:00:00,17.6599188,75.9063906,NO2,46,58,50
India,Maharashtra,Solapur,"Solapur, Solapur - MPCB",14-01-2024 12:00:00,17.6599188,75.9063906,SO2,31,38,33
India,Maharashtra,Thane,"Kasarvadavali, Thane - MPCB",14-01-2024 12:00:00,19.26777,72.97182,PM10,91,130,110
India,Maharashtra,Thane,"Kasarvadavali, Thane - MPCB",14-01-2024 12:00:00,19.26777,72.97182,OZONE,1,121,21
India,Maharashtra,Thane,"Upvan Fort, Thane - MPCB",14-01-2024 12:00:00,19.222279,72.957979,PM2.5,63,163,96
India,Maharashtra,Thane,"Upvan Fort, Thane - MPCB",14-01-2024 12:00:00,19.222279,72.957979,NO2,14,101,46
India,Maharashtra,Ulhasnagar,"Sidhi Vinayak Nagar, Ulhasnagar - MPCB",14-01-2024 12:00:00,19.235581,73.159121,PM2.5,162,300,226
India,Maharashtra,Ulhasnagar,"Sidhi Vinayak Nagar, Ulhasnagar - MPCB",14-01-2024 12:00:00,19.235581,73.159121,PM10,106,155,136
India,Maharashtra,Ulhasnagar,"Sidhi Vinayak Nagar, Ulhasnagar - MPCB",14-01-2024 12:00:00,19.235581,73.159121,NO2,10,53,29
India,Maharashtra,Virar,"Bolinj, Virar - MPCB",14-01-2024 12:00:00,19.4458210,72.7988231,PM2.5,21,70,39
India,Maharashtra,Virar,"Bolinj, Virar - MPCB",14-01-2024 12:00:00,19.4458210,72.7988231,NO2,15,34,23
India,Manipur,Imphal,"DM College of Science, Imphal - Manipur PCB",14-01-2024 12:00:00,24.8207389,93.9423085,PM2.5,14,138,45
India,Meghalaya,Shillong,"Lumpyngngad, Shillong - Meghalaya PCB",14-01-2024 12:00:00,25.5586,91.8985,NO2,6,6,6
India,Meghalaya,Shillong,"Lumpyngngad, Shillong - Meghalaya PCB",14-01-2024 12:00:00,25.5586,91.8985,NH3,1,1,1
India,Meghalaya,Shillong,"Lumpyngngad, Shillong - Meghalaya PCB",14-01-2024 12:00:00,25.5586,91.8985,SO2,14,17,15
India,Mizoram,Aizawl,"Sikulpuikawn, Aizawl - Mizoram PCB",14-01-2024 12:00:00,23.7176342,92.7192841,CO,10,25,11
India,Nagaland,Kohima,"PWD Juction, Kohima - NPCB",14-01-2024 12:00:00,25.6635413,94.0989878,NH3,NA,NA,NA
India,Odisha,Angul,"Hakimapada, Angul - OSPCB",14-01-2024 12:00:00,20.832874,85.104082,PM2.5,147,386,310
India,Odisha,Angul,"Hakimapada, Angul - OSPCB",14-01-2024 12:00:00,20.832874,85.104082,SO2,13,128,74
India,Odisha,Balasore,"Kalidaspur, Balasore - OSPCB",14-01-2024 12:00:00,21.51161,86.89088,OZONE,10,115,36
India,Odisha,Baripada,"Meher Colony, Baripada - OSPCB",14-01-2024 12:00:00,21.941841,86.728318,PM10,111,219,146
India,Odisha,Baripada,"Meher Colony, Baripada - OSPCB",14-01-2024 12:00:00,21.941841,86.728318,NH3,4,4,4
India,Odisha,Baripada,"Meher Colony, Baripada - OSPCB",14-01-2024 12:00:00,21.941841,86.728318,SO2,1,10,5
India,Odisha,Bhubaneswar,"Patia, Bhubaneswar - OSPCB",14-01-2024 12:00:00,20.34652,85.81630,SO2,6,29,17
India,Odisha,Bileipada,"Tata Township, Bileipada - OSPCB",14-01-2024 12:00:00,22.06156703,85.47409613,PM2.5,59,260,137
India,Odisha,Bileipada,"Tata Township, Bileipada - OSPCB",14-01-2024 12:00:00,22.06156703,85.47409613,PM10,84,234,161
India,Odisha,Brajrajnagar,"GM Office, Brajrajnagar - OSPCB",14-01-2024 12:00:00,21.8004996,83.8396977,PM2.5,23,90,54
India,Odisha,Cuttack,"CDA Area, Cuttack - OSPCB",14-01-2024 12:00:00,20.48891     ,85.84768     ,PM2.5,120,351,281
India,Odisha,Keonjhar,"Jagamohanpur, Keonjhar - OSPCB",14-01-2024 12:00:00,21.643900,85.599355,PM10,79,144,113
India,Odisha,Rourkela,"Fertilizer Township, Rourkela - OSPCB",14-01-2024 12:00:00,22.18972222,84.86277778,NO2,10,116,28
India,Odisha,Rourkela,"Raghunathpali, Rourkela - OSPCB",14-01-2024 12:00:00,22.220833,84.809444,NO2,27,156,65
India,Odisha,Rourkela,"Sector-2, Rourkela - OSPCB",14-01-2024 12:00:00,22.24500000,84.88111111,PM2.5,32,71,46
India,Odisha,Suakati,"OMC Colony, Suakati - OSPCB",14-01-2024 12:00:00,21.606865,85.510538,PM2.5,59,148,89
India,Odisha,Suakati,"OMC Colony, Suakati - OSPCB",14-01-2024 12:00:00,21.606865,85.510538,PM10,57,150,98
India,Odisha,Suakati,"OMC Colony, Suakati - OSPCB",14-01-2024 12:00:00,21.606865,85.510538,OZONE,33,110,70
India,Odisha,Tensa,"Barsua Iron Ore Mines, Tensa - OSPCB",14-01-2024 12:00:00,21.869985,85.167016,PM2.5,36,72,52
India,Punjab,Amritsar,"Golden Temple, Amritsar - PPCB",14-01-2024 12:00:00,31.620000,74.876512,PM2.5,112,353,202
India,Punjab,Amritsar,"Golden Temple, Amritsar - PPCB",14-01-2024 12:00:00,31.620000,74.876512,NO2,9,39,33
India,Punjab,Amritsar,"Golden Temple, Amritsar - PPCB",14-01-2024 12:00:00,31.620000,74.876512,SO2,19,46,39
India,Punjab,Amritsar,"Golden Temple, Amritsar - PPCB",14-01-2024 12:00:00,31.620000,74.876512,OZONE,18,31,26
India,Punjab,Jalandhar,"Civil Line, Jalandhar - PPCB",14-01-2024 12:00:00,31.321907,75.578914,NH3,9,9,9
India,Punjab,Jalandhar,"Civil Line, Jalandhar - PPCB",14-01-2024 12:00:00,31.321907,75.578914,OZONE,12,39,15
India,Punjab,Khanna,"Kalal Majra, Khanna - PPCB",14-01-2024 12:00:00,30.736056 ,76.209694,NO2,34,34,34
India,Punjab,Khanna,"Kalal Majra, Khanna - PPCB",14-01-2024 12:00:00,30.736056 ,76.209694,OZONE,16,28,19
India,Punjab,Ludhiana,"Punjab Agricultural University, Ludhiana - PPCB",14-01-2024 12:00:00,30.9028,75.8086,SO2,3,38,16
India,Punjab,Ludhiana,"Punjab Agricultural University, Ludhiana - PPCB",14-01-2024 12:00:00,30.9028,75.8086,OZONE,9,34,13
India,Punjab,Mandi Gobindgarh,"RIMT University, Mandi Gobindgarh - PPCB",14-01-2024 12:00:00,30.649961,76.331442,PM10,38,218,129
India,Punjab,Mandi Gobindgarh,"RIMT University, Mandi Gobindgarh - PPCB",14-01-2024 12:00:00,30.649961,76.331442,SO2,5,35,14
India,Punjab,Patiala,"Model Town, Patiala - PPCB",14-01-2024 12:00:00,30.349388,76.366642,NH3,6,7,7
India,Punjab,Rupnagar,"Ratanpura, Rupnagar - Ambuja Cements",14-01-2024 12:00:00,31.0325454,76.5623046,SO2,1,4,2
India,Rajasthan,Ajmer,"Civil Lines,  Ajmer - RSPCB",14-01-2024 12:00:00,26.470859,74.646594,NO2,20,86,38
India,Rajasthan,Ajmer,"Civil Lines,  Ajmer - RSPCB",14-01-2024 12:00:00,26.470859,74.646594,NH3,33,87,42
India,Rajasthan,Ajmer,"Civil Lines,  Ajmer - RSPCB",14-01-2024 12:00:00,26.470859,74.646594,SO2,10,24,14
India,Rajasthan,Ajmer,"Civil Lines,  Ajmer - RSPCB",14-01-2024 12:00:00,26.470859,74.646594,CO,9,102,27
India,Rajasthan,Baran,"Bamboliya, Baran - RSPCB",14-01-2024 12:00:00,25.106006,76.469948,NO2,20,91,38
India,Rajasthan,Barmer,"Railway Colony, Barmer - RSPCB",14-01-2024 12:00:00,25.747299,71.393989,NO2,7,65,22
India,Rajasthan,Bharatpur,"Krishna Nagar, Bharatpur - RSPCB",14-01-2024 12:00:00,27.215415,77.50873,PM10,143,424,257
India,Rajasthan,Bharatpur,"Krishna Nagar, Bharatpur - RSPCB",14-01-2024 12:00:00,27.215415,77.50873,NH3,6,12,9
India,Rajasthan,Bharatpur,"Krishna Nagar, Bharatpur - RSPCB",14-01-2024 12:00:00,27.215415,77.50873,SO2,2,23,16
India,Rajasthan,Bharatpur,"Krishna Nagar, Bharatpur - RSPCB",14-01-2024 12:00:00,27.215415,77.50873,OZONE,7,90,15
India,Rajasthan,Bhilwara,"Pratap Nagar, Bhilwara - RSPCB",14-01-2024 12:00:00,25.339605,74.618883,NO2,21,114,70
India,Rajasthan,Bhilwara,"Pratap Nagar, Bhilwara - RSPCB",14-01-2024 12:00:00,25.339605,74.618883,SO2,4,55,20
India,Rajasthan,Bhiwadi,"RIICO Ind. Area III, Bhiwadi - RSPCB",14-01-2024 12:00:00,28.194909,76.862296,PM10,198,420,305
India,Rajasthan,Bhiwadi,"RIICO Ind. Area III, Bhiwadi - RSPCB",14-01-2024 12:00:00,28.194909,76.862296,SO2,1,14,6
India,Rajasthan,Bhiwadi,"RIICO Ind. Area III, Bhiwadi - RSPCB",14-01-2024 12:00:00,28.194909,76.862296,CO,14,124,109
India,Rajasthan,Bikaner,"MM Ground, Bikaner - RSPCB",14-01-2024 12:00:00,28.018792,73.292658,PM2.5,34,396,271
India,Rajasthan,Bikaner,"MM Ground, Bikaner - RSPCB",14-01-2024 12:00:00,28.018792,73.292658,NH3,15,25,19
India,Rajasthan,Bundi,"New Colony, Bundi - RSPCB",14-01-2024 12:00:00,25.435774,75.644272,PM10,71,206,117
India,Rajasthan,Bundi,"New Colony, Bundi - RSPCB",14-01-2024 12:00:00,25.435774,75.644272,CO,21,90,29
India,Rajasthan,Churu,"Subash Chowk, Churu - RSPCB",14-01-2024 12:00:00,28.296139,74.961696,PM2.5,64,442,255
India,Rajasthan,Dausa,"Khatikan Mohalla, Dausa - RSPCB",14-01-2024 12:00:00,26.895552,76.334753,PM10,95,316,161
India,Rajasthan,Dausa,"Khatikan Mohalla, Dausa - RSPCB",14-01-2024 12:00:00,26.895552,76.334753,OZONE,19,306,238
India,Rajasthan,Dholpur,"Raja Ganj, Dholpur - RSPCB",14-01-2024 12:00:00,26.699557,77.898881,NH3,10,19,14
India,Rajasthan,Hanumangarh,"Housing Board, Hanumangarh - RSPCB",14-01-2024 12:00:00,29.610750,74.283608,NH3,15,26,19
India,Rajasthan,Hanumangarh,"Housing Board, Hanumangarh - RSPCB",14-01-2024 12:00:00,29.610750,74.283608,SO2,4,8,6
India,Rajasthan,Jaipur,"Adarsh Nagar, Jaipur - RSPCB",14-01-2024 12:00:00,26.902909,75.836858,PM10,90,156,111
India,Rajasthan,Jaipur,"Adarsh Nagar, Jaipur - RSPCB",14-01-2024 12:00:00,26.902909,75.836858,NO2,24,128,69
India,Rajasthan,Jaipur,"Sector-2 Murlipura, Jaipur - RSPCB",14-01-2024 12:00:00,26.960669,75.771817,SO2,8,40,16
India,Rajasthan,Jaipur,"Shastri Nagar, Jaipur - RSPCB",14-01-2024 12:00:00,26.9502929,75.730943,PM2.5,81,335,181
India,Rajasthan,Jaisalmer,"Sadar Bazar, Jaisalmer - RSPCB",14-01-2024 12:00:00,26.912329,70.909168,PM2.5,20,347,198
India,Rajasthan,Jaisalmer,"Sadar Bazar, Jaisalmer - RSPCB",14-01-2024 12:00:00,26.912329,70.909168,NO2,17,124,43
India,Rajasthan,Jalore,"Mudtra Sili, Jalore - RSPCB",14-01-2024 12:00:00,25.344694,72.626208,NH3,8,17,12
India,Rajasthan,Jalore,"Mudtra Sili, Jalore - RSPCB",14-01-2024 12:00:00,25.344694,72.626208,CO,26,129,62
India,Rajasthan,Jhalawar,"Rajlaxmi Nagar, Jhalawar - RSPCB",14-01-2024 12:00:00,24.588397,76.172782,CO,34,106,47
India,Rajasthan,Jhunjhunu,"Indra Nagar, Jhunjhunu - RSPCB",14-01-2024 12:00:00,28.108988,75.386577,SO2,2,13,6
India,Rajasthan,Jodhpur,"Collectorate, Jodhpur - RSPCB",14-01-2024 12:00:00,26.268249,73.0193853,CO,25,89,71
India,Rajasthan,Jodhpur,"Collectorate, Jodhpur - RSPCB",14-01-2024 12:00:00,26.268249,73.0193853,OZONE,28,119,47
India,Rajasthan,Jodhpur,"Digari Kalan, Jodhpur - RSPCB",14-01-2024 12:00:00,26.295810,73.082283,PM10,69,385,163
India,Rajasthan,Jodhpur,"Digari Kalan, Jodhpur - RSPCB",14-01-2024 12:00:00,26.295810,73.082283,NO2,13,89,48
India,Rajasthan,Jodhpur,"Digari Kalan, Jodhpur - RSPCB",14-01-2024 12:00:00,26.295810,73.082283,SO2,3,9,6
India,Rajasthan,Jodhpur,"Samrat Ashok Udhyan, Jodhpur - RSPCB",14-01-2024 12:00:00,26.253384,72.976571,NO2,10,140,75
India,Rajasthan,Jodhpur,"Samrat Ashok Udhyan, Jodhpur - RSPCB",14-01-2024 12:00:00,26.253384,72.976571,NH3,4,14,10
India,Rajasthan,Jodhpur,"Samrat Ashok Udhyan, Jodhpur - RSPCB",14-01-2024 12:00:00,26.253384,72.976571,SO2,4,42,9
India,Rajasthan,Karauli,"Satyawati Vihar, Karauli - RSPCB",14-01-2024 12:00:00,26.506177,77.025989,PM2.5,NA,NA,NA
India,Rajasthan,Karauli,"Satyawati Vihar, Karauli - RSPCB",14-01-2024 12:00:00,26.506177,77.025989,NH3,7,9,8
India,Rajasthan,Kota,"Dhanmandi, Kota - RSPCB",14-01-2024 12:00:00,25.164090,75.858137,OZONE,1,157,24
India,Rajasthan,Kota,"Shrinath Puram, Kota - RSPCB",14-01-2024 12:00:00,25.14389,75.821256,NH3,3,10,8
India,Rajasthan,Kota,"Shrinath Puram, Kota - RSPCB",14-01-2024 12:00:00,25.14389,75.821256,OZONE,10,95,28
India,Rajasthan,Nagaur,"Karni Colony, Nagaur - RSPCB",14-01-2024 12:00:00,27.213494,73.734444,NO2,20,102,46
India,Rajasthan,Nagaur,"Karni Colony, Nagaur - RSPCB",14-01-2024 12:00:00,27.213494,73.734444,CO,33,123,47
India,Rajasthan,Pali,"Indira Colony Vistar, Pali - RSPCB",14-01-2024 12:00:00,25.771061, 73.340227,CO,25,70,42
India,Rajasthan,Pali,"Indira Colony Vistar, Pali - RSPCB",14-01-2024 12:00:00,25.771061, 73.340227,OZONE,9,26,16
India,Rajasthan,Pratapgarh,"Pragati Nagar, Pratapgarh - RSPCB",14-01-2024 12:00:00,24.041198,74.780702,NH3,6,12,8
India,Rajasthan,Pratapgarh,"Pragati Nagar, Pratapgarh - RSPCB",14-01-2024 12:00:00,24.041198,74.780702,SO2,1,6,2
India,Rajasthan,Rajsamand,"Dhoinda, Rajsamand - RSPCB",14-01-2024 12:00:00,25.036360,73.883502,CO,18,58,44
India,Rajasthan,Sawai Madhopur,"Sahu Nagar, Sawai Madhopur - RSPCB",14-01-2024 12:00:00,26.031443,76.359327,NH3,2,3,3
India,Rajasthan,Sawai Madhopur,"Sahu Nagar, Sawai Madhopur - RSPCB",14-01-2024 12:00:00,26.031443,76.359327,CO,16,85,54
India,Rajasthan,Sikar,"Radhakishan Pura, Sikar - RSPCB",14-01-2024 12:00:00,27.608912,75.153302,NH3,2,5,3
India,Rajasthan,Sikar,"Radhakishan Pura, Sikar - RSPCB",14-01-2024 12:00:00,27.608912,75.153302,CO,26,105,57
India,Rajasthan,Sirohi,"Vedhaynath Colony, Sirohi - RSPCB",14-01-2024 12:00:00,24.885261,72.857549,NO2,9,112,46
India,Rajasthan,Sirohi,"Vedhaynath Colony, Sirohi - RSPCB",14-01-2024 12:00:00,24.885261,72.857549,NH3,4,16,6
India,Rajasthan,Sirohi,"Vedhaynath Colony, Sirohi - RSPCB",14-01-2024 12:00:00,24.885261,72.857549,SO2,1,38,13
India,Rajasthan,Sirohi,"Vedhaynath Colony, Sirohi - RSPCB",14-01-2024 12:00:00,24.885261,72.857549,CO,7,109,41
India,Rajasthan,Tonk,"Shastri Nagar, Tonk - RSPCB",14-01-2024 12:00:00,26.159933,75.780517,PM10,99,363,158
India,Rajasthan,Udaipur,"Ashok Nagar, Udaipur - RSPCB",14-01-2024 12:00:00,24.5886166,73.6321397,SO2,6,19,12
India,Sikkim,Gangtok,"Zero Point GICI, Gangtok - SSPCB",14-01-2024 12:00:00,27.338530,88.614099,NO2,1,18,6
India,Sikkim,Gangtok,"Zero Point GICI, Gangtok - SSPCB",14-01-2024 12:00:00,27.338530,88.614099,CO,8,22,13
India,Sikkim,Gangtok,"Zero Point GICI, Gangtok - SSPCB",14-01-2024 12:00:00,27.338530,88.614099,OZONE,18,59,36
India,TamilNadu,Chengalpattu,"Crescent University, Chengalpattu - TNPCB",14-01-2024 12:00:00,12.8777316,80.0834807,PM10,98,209,130
India,TamilNadu,Chennai,"Alandur Bus Depot, Chennai - CPCB",14-01-2024 12:00:00,12.9099161,80.1076538,SO2,26,105,33
India,TamilNadu,Chennai,"Arumbakkam, Chennai - TNPCB",14-01-2024 12:00:00,13.0664,80.2112 ,PM10,123,440,208
India,TamilNadu,Chennai,"Arumbakkam, Chennai - TNPCB",14-01-2024 12:00:00,13.0664,80.2112 ,SO2,1,35,11
India,TamilNadu,Chennai,"Gandhi Nagar_Ennore, Chennai - TNPCB",14-01-2024 12:00:00,13.218341,80.32027,PM2.5,157,436,266
India,TamilNadu,Chennai,"Gandhi Nagar_Ennore, Chennai - TNPCB",14-01-2024 12:00:00,13.218341,80.32027,CO,24,81,53
India,TamilNadu,Chennai,"Gandhi Nagar_Ennore, Chennai - TNPCB",14-01-2024 12:00:00,13.218341,80.32027,OZONE,2,2,2
India,TamilNadu,Chennai,"Manali, Chennai - CPCB",14-01-2024 12:00:00,13.164544,80.26285,CO,2,90,50
India,TamilNadu,Chennai,"Manali, Chennai - CPCB",14-01-2024 12:00:00,13.164544,80.26285,OZONE,10,27,14
India,TamilNadu,Chennai,"Velachery Res. Area, Chennai - CPCB",14-01-2024 12:00:00,13.0052189,80.2398125,NO2,10,74,30
India,TamilNadu,Chennai,"Velachery Res. Area, Chennai - CPCB",14-01-2024 12:00:00,13.0052189,80.2398125,OZONE,18,44,22
India,TamilNadu,Coimbatore,"PSG College of Arts and Science, Coimbatore - TNPCB",14-01-2024 12:00:00,11.0328,77.0349,SO2,16,21,18
India,TamilNadu,Cuddalore,"Kudikadu, Cuddalore - TNPCB",14-01-2024 12:00:00,11.6829898,79.7532099,PM2.5,151,309,219
India,TamilNadu,Cuddalore,"Kudikadu, Cuddalore - TNPCB",14-01-2024 12:00:00,11.6829898,79.7532099,NO2,8,10,9
India,TamilNadu,Cuddalore,"Kudikadu, Cuddalore - TNPCB",14-01-2024 12:00:00,11.6829898,79.7532099,SO2,17,18,17
India,TamilNadu,Kanchipuram,"Kilambi, Kanchipuram - TNPCB",14-01-2024 12:00:00,12.864618,79.659968,SO2,11,20,18
India,TamilNadu,Kanchipuram,"Kilambi, Kanchipuram - TNPCB",14-01-2024 12:00:00,12.864618,79.659968,CO,1,185,37
India,TamilNadu,Ooty,"Bombay Castel, Ooty - TNPCB",14-01-2024 12:00:00,11.4068288,76.7138973,NO2,NA,NA,NA
India,TamilNadu,Palkalaiperur,"Bharathidasan University, Palkalaiperur - TNPCB",14-01-2024 12:00:00,10.681158,78.741746,CO,6,27,16
India,TamilNadu,Salem,"Sona College of Technology, Salem - TNPCB",14-01-2024 12:00:00,11.679111,78.125052,OZONE,3,3,3
India,TamilNadu,Tiruchirappalli,"St Joseph College, Tiruchirappalli - TNPCB",14-01-2024 12:00:00,10.830158,78.691849,NH3,3,3,3
India,TamilNadu,Tirupur,"Kumaran College, Tirupur - TNPCB",14-01-2024 12:00:00,11.0973603,77.3228673,OZONE,7,7,7
India,TamilNadu,Virudhunagar,"Collectorate Office, Virudhunagar - TNPCB",14-01-2024 12:00:00,9.559382,77.948828,PM2.5,66,181,102
India,TamilNadu,Virudhunagar,"Collectorate Office, Virudhunagar - TNPCB",14-01-2024 12:00:00,9.559382,77.948828,NO2,23,60,32
India,Telangana,Hyderabad,"Bollaram Industrial Area, Hyderabad - TSPCB",14-01-2024 12:00:00,17.540891,78.358528,PM2.5,NA,NA,NA
India,Telangana,Hyderabad,"Bollaram Industrial Area, Hyderabad - TSPCB",14-01-2024 12:00:00,17.540891,78.358528,PM10,95,159,124
India,Telangana,Hyderabad,"Central University, Hyderabad - TSPCB",14-01-2024 12:00:00,17.460103,78.334361,PM10,61,154,112
India,Telangana,Hyderabad,"Central University, Hyderabad - TSPCB",14-01-2024 12:00:00,17.460103,78.334361,NO2,21,53,28
India,Telangana,Hyderabad,"Central University, Hyderabad - TSPCB",14-01-2024 12:00:00,17.460103,78.334361,NH3,3,9,5
India,Telangana,Hyderabad,"ECIL Kapra, Hyderabad - TSPCB",14-01-2024 12:00:00,17.470431,78.566959,PM10,72,93,78
India,Telangana,Hyderabad,"ECIL Kapra, Hyderabad - TSPCB",14-01-2024 12:00:00,17.470431,78.566959,NO2,7,9,7
India,Telangana,Hyderabad,"ICRISAT Patancheru, Hyderabad - TSPCB",14-01-2024 12:00:00,17.518400,78.278777,NO2,16,17,16
India,Telangana,Hyderabad,"IITH Kandi, Hyderabad - TSPCB",14-01-2024 12:00:00,17.585705,78.126199,SO2,NA,NA,NA
India,Telangana,Hyderabad,"Kokapet, Hyderabad - TSPCB",14-01-2024 12:00:00,17.393559,78.339194,CO,NA,NA,NA
India,Telangana,Hyderabad,"Nacharam_TSIIC IALA, Hyderabad - TSPCB",14-01-2024 12:00:00,17.429398,78.569354,SO2,7,26,15
India,Telangana,Hyderabad,"New Malakpet, Hyderabad - TSPCB",14-01-2024 12:00:00,17.37206,78.50864,PM2.5,26,54,39
India,Telangana,Hyderabad,"New Malakpet, Hyderabad - TSPCB",14-01-2024 12:00:00,17.37206,78.50864,NO2,18,35,25
India,Telangana,Hyderabad,"New Malakpet, Hyderabad - TSPCB",14-01-2024 12:00:00,17.37206,78.50864,NH3,2,2,2
India,Telangana,Hyderabad,"New Malakpet, Hyderabad - TSPCB",14-01-2024 12:00:00,17.37206,78.50864,CO,NA,NA,NA
India,Telangana,Hyderabad,"Sanathnagar, Hyderabad - TSPCB",14-01-2024 12:00:00,17.4559458,78.4332152,OZONE,10,276,101
India,Telangana,Hyderabad,"Zoo Park, Hyderabad - TSPCB",14-01-2024 12:00:00,17.349694,78.451437,SO2,1,4,2
India,Telangana,Hyderabad,"Zoo Park, Hyderabad - TSPCB",14-01-2024 12:00:00,17.349694,78.451437,OZONE,15,36,19
India,Tripura,Agartala,"Bardowali, Agartala - Tripura SPCB",14-01-2024 12:00:00,23.8175497,91.2726974,PM2.5,110,318,222
India,Tripura,Agartala,"Bardowali, Agartala - Tripura SPCB",14-01-2024 12:00:00,23.8175497,91.2726974,NO2,9,24,15
India,Tripura,Agartala,"Bardowali, Agartala - Tripura SPCB",14-01-2024 12:00:00,23.8175497,91.2726974,OZONE,NA,NA,NA
India,Uttar_Pradesh,Agra,"Manoharpur, Agra - UPPCB",14-01-2024 12:00:00,27.23711,78.01936,NO2,17,24,18
India,Uttar_Pradesh,Agra,"Manoharpur, Agra - UPPCB",14-01-2024 12:00:00,27.23711,78.01936,NH3,1,2,2
India,Uttar_Pradesh,Agra,"Manoharpur, Agra - UPPCB",14-01-2024 12:00:00,27.23711,78.01936,SO2,21,24,22
India,Uttar_Pradesh,Agra,"Sector-3B Avas Vikas Colony, Agra - UPPCB",14-01-2024 12:00:00,27.19412,77.96237,NO2,29,56,41
India,Uttar_Pradesh,Agra,"Shastripuram, Agra - UPPCB",14-01-2024 12:00:00,27.19862,77.92066,OZONE,9,34,16
India,Uttar_Pradesh,Baghpat,"Sardar Patel Inter College, Baghpat - UPPCB",14-01-2024 12:00:00,28.964949,77.278761,PM10,71,257,144
India,Uttar_Pradesh,Bareilly,"Civil Lines, Bareilly - UPPCB",14-01-2024 12:00:00,28.359581,79.414455,NO2,21,35,27
India,Uttar_Pradesh,Bulandshahr,"Yamunapuram, Bulandshahr - UPPCB",14-01-2024 12:00:00,28.406963,77.849831,NH3,18,31,21
India,Uttar_Pradesh,Firozabad,"Nagla Bhau, Firozabad - UPPCB",14-01-2024 12:00:00,27.168897,78.376960,PM2.5,58,205,126
India,Uttar_Pradesh,Firozabad,"Vibhab Nagar, Firozabad - UPPCB",14-01-2024 12:00:00,27.1594,78.3953,PM2.5,60,250,132
India,Uttar_Pradesh,Firozabad,"Vibhab Nagar, Firozabad - UPPCB",14-01-2024 12:00:00,27.1594,78.3953,PM10,45,121,83
India,Uttar_Pradesh,Firozabad,"Vibhab Nagar, Firozabad - UPPCB",14-01-2024 12:00:00,27.1594,78.3953,SO2,11,25,18
India,Uttar_Pradesh,Ghaziabad,"Loni, Ghaziabad - UPPCB",14-01-2024 12:00:00,28.757294,77.278792,CO,28,145,56
India,Uttar_Pradesh,Ghaziabad,"Loni, Ghaziabad - UPPCB",14-01-2024 12:00:00,28.757294,77.278792,OZONE,1,70,1
India,Uttar_Pradesh,Ghaziabad,"Sanjay Nagar, Ghaziabad - UPPCB",14-01-2024 12:00:00,28.685382,77.453839,PM2.5,246,500,403
India,Uttar_Pradesh,Ghaziabad,"Sanjay Nagar, Ghaziabad - UPPCB",14-01-2024 12:00:00,28.685382,77.453839,CO,4,160,8
India,Uttar_Pradesh,Ghaziabad,"Sanjay Nagar, Ghaziabad - UPPCB",14-01-2024 12:00:00,28.685382,77.453839,OZONE,3,23,4
India,Uttar_Pradesh,Ghaziabad,"Vasundhara, Ghaziabad - UPPCB",14-01-2024 12:00:00,28.6603346,77.3572563,NO2,45,143,103
India,Uttar_Pradesh,Ghaziabad,"Vasundhara, Ghaziabad - UPPCB",14-01-2024 12:00:00,28.6603346,77.3572563,NH3,17,35,25
India,Uttar_Pradesh,Gorakhpur,"Madan Mohan Malaviya University of Technology, Gorakhpur - UPPCB",14-01-2024 12:00:00,26.730136,83.433859,NO2,2,2,2
India,Uttar_Pradesh,Gorakhpur,"Madan Mohan Malaviya University of Technology, Gorakhpur - UPPCB",14-01-2024 12:00:00,26.730136,83.433859,OZONE,4,9,5
India,Uttar_Pradesh,Greater Noida,"Knowledge Park - III, Greater Noida - UPPCB",14-01-2024 12:00:00,28.47272,77.482000,SO2,12,23,17
India,Uttar_Pradesh,Greater Noida,"Knowledge Park - III, Greater Noida - UPPCB",14-01-2024 12:00:00,28.47272,77.482000,OZONE,1,61,3
India,Uttar_Pradesh,Hapur,"Anand Vihar, Hapur - UPPCB",14-01-2024 12:00:00,28.725645,77.749675,NH3,8,16,12
India,Uttar_Pradesh,Hapur,"Anand Vihar, Hapur - UPPCB",14-01-2024 12:00:00,28.725645,77.749675,OZONE,12,68,16
India,Uttar_Pradesh,Jhansi,"Shivaji Nagar, Jhansi - UPPCB",14-01-2024 12:00:00,25.4547,78.6039,PM2.5,27,147,74
India,Uttar_Pradesh,Jhansi,"Shivaji Nagar, Jhansi - UPPCB",14-01-2024 12:00:00,25.4547,78.6039,SO2,10,27,15
India,Uttar_Pradesh,Jhansi,"Shivaji Nagar, Jhansi - UPPCB",14-01-2024 12:00:00,25.4547,78.6039,OZONE,2,67,21
India,Uttar_Pradesh,Kanpur,"FTI Kidwai Nagar, Kanpur - UPPCB",14-01-2024 12:00:00,26.428282,80.327067,PM10,112,337,194
India,Uttar_Pradesh,Kanpur,"FTI Kidwai Nagar, Kanpur - UPPCB",14-01-2024 12:00:00,26.428282,80.327067,NO2,11,11,11
India,Uttar_Pradesh,Kanpur,"FTI Kidwai Nagar, Kanpur - UPPCB",14-01-2024 12:00:00,26.428282,80.327067,CO,68,108,98
India,Uttar_Pradesh,Kanpur,"NSI Kalyanpur, Kanpur - UPPCB",14-01-2024 12:00:00,26.509954,80.249612,PM2.5,64,309,157
India,Uttar_Pradesh,Kanpur,"Nehru Nagar, Kanpur - UPPCB",14-01-2024 12:00:00,26.4703136,80.3229863,NO2,4,130,51
India,Uttar_Pradesh,Kanpur,"Nehru Nagar, Kanpur - UPPCB",14-01-2024 12:00:00,26.4703136,80.3229863,OZONE,6,98,8
India,Uttar_Pradesh,Khurja,"Kalindi Kunj, Khurja - UPPCB",14-01-2024 12:00:00,28.2348927,77.8683002,CO,63,107,94
India,Uttar_Pradesh,Lucknow,"B R Ambedkar University, Lucknow - UPPCB",14-01-2024 12:00:00,26.766433,80.927299,PM10,95,277,167
India,Uttar_Pradesh,Lucknow,"B R Ambedkar University, Lucknow - UPPCB",14-01-2024 12:00:00,26.766433,80.927299,NH3,7,9,8
India,Uttar_Pradesh,Lucknow,"Gomti Nagar, Lucknow - UPPCB",14-01-2024 12:00:00,26.868120,81.005119,NO2,6,8,7
India,Uttar_Pradesh,Lucknow,"Gomti Nagar, Lucknow - UPPCB",14-01-2024 12:00:00,26.868120,81.005119,OZONE,42,59,44
India,Uttar_Pradesh,Lucknow,"Kendriya Vidyalaya, Lucknow - CPCB",14-01-2024 12:00:00,26.906111,80.948222,PM2.5,128,401,304
India,Uttar_Pradesh,Lucknow,"Kendriya Vidyalaya, Lucknow - CPCB",14-01-2024 12:00:00,26.906111,80.948222,PM10,109,261,171
India,Uttar_Pradesh,Lucknow,"Kendriya Vidyalaya, Lucknow - CPCB",14-01-2024 12:00:00,26.906111,80.948222,NO2,13,56,33
India,Uttar_Pradesh,Lucknow,"Kukrail Picnic Spot-1, Lucknow - UPPCB",14-01-2024 12:00:00,26.90723,80.98579,PM10,84,173,128
India,Uttar_Pradesh,Lucknow,"Kukrail Picnic Spot-1, Lucknow - UPPCB",14-01-2024 12:00:00,26.90723,80.98579,NO2,8,9,8
India,Uttar_Pradesh,Lucknow,"Kukrail Picnic Spot-1, Lucknow - UPPCB",14-01-2024 12:00:00,26.90723,80.98579,CO,38,87,65
India,Uttar_Pradesh,Lucknow,"Lalbagh, Lucknow - CPCB",14-01-2024 12:00:00,26.8458805,80.9365541,NO2,31,103,58
India,Uttar_Pradesh,Lucknow,"Talkatora District Industries Center, Lucknow - CPCB",14-01-2024 12:00:00,26.83399722,80.8917361,PM10,115,457,235
India,Uttar_Pradesh,Lucknow,"Talkatora District Industries Center, Lucknow - CPCB",14-01-2024 12:00:00,26.83399722,80.8917361,NH3,27,62,38
India,Uttar_Pradesh,Meerut,"Jai Bhim Nagar, Meerut - UPPCB",14-01-2024 12:00:00,28.9535882,77.7622941,PM2.5,92,401,276
India,Uttar_Pradesh,Meerut,"Jai Bhim Nagar, Meerut - UPPCB",14-01-2024 12:00:00,28.9535882,77.7622941,NO2,40,127,67
India,Uttar_Pradesh,Meerut,"Jai Bhim Nagar, Meerut - UPPCB",14-01-2024 12:00:00,28.9535882,77.7622941,OZONE,13,84,18
India,Uttar_Pradesh,Meerut,"Pallavpuram Phase 2, Meerut - UPPCB",14-01-2024 12:00:00,29.063510,77.709723,OZONE,11,20,14
India,Uttar_Pradesh,Moradabad,"Buddhi Vihar, Moradabad - UPPCB",14-01-2024 12:00:00,28.83526,78.74460,NH3,7,9,8
India,Uttar_Pradesh,Moradabad,"Jigar Colony, Moradabad - UPPCB",14-01-2024 12:00:00,28.856664,78.772638,PM2.5,98,295,167
India,Uttar_Pradesh,Moradabad,"Kashiram Nagar, Moradabad - UPPCB",14-01-2024 12:00:00,28.849399,78.742362,NH3,4,4,4
India,Uttar_Pradesh,Moradabad,"Transport Nagar, Moradabad - UPPCB",14-01-2024 12:00:00,28.802625,78.753728,PM2.5,68,308,150
India,Uttar_Pradesh,Moradabad,"Transport Nagar, Moradabad - UPPCB",14-01-2024 12:00:00,28.802625,78.753728,OZONE,15,21,16
India,Uttar_Pradesh,Muzaffarnagar,"New Mandi, Muzaffarnagar - UPPCB",14-01-2024 12:00:00,29.4723508,77.7194031,PM2.5,153,425,322
India,Uttar_Pradesh,Muzaffarnagar,"New Mandi, Muzaffarnagar - UPPCB",14-01-2024 12:00:00,29.4723508,77.7194031,NH3,6,13,9
India,Uttar_Pradesh,Noida,"Sector-1, Noida - UPPCB",14-01-2024 12:00:00,28.5898,77.3101,NH3,11,20,15
India,Uttar_Pradesh,Noida,"Sector-1, Noida - UPPCB",14-01-2024 12:00:00,28.5898,77.3101,SO2,3,23,12
India,Uttar_Pradesh,Noida,"Sector-116, Noida - UPPCB",14-01-2024 12:00:00,28.569230,77.393848,PM10,192,500,404
India,Uttar_Pradesh,Noida,"Sector-116, Noida - UPPCB",14-01-2024 12:00:00,28.569230,77.393848,NH3,8,14,10
India,Uttar_Pradesh,Noida,"Sector-116, Noida - UPPCB",14-01-2024 12:00:00,28.569230,77.393848,SO2,11,28,20
India,Uttar_Pradesh,Prayagraj,"Jhunsi, Prayagraj - UPPCB",14-01-2024 12:00:00,25.425602,81.917152,PM2.5,51,275,123
India,Uttar_Pradesh,Prayagraj,"Jhunsi, Prayagraj - UPPCB",14-01-2024 12:00:00,25.425602,81.917152,NO2,6,6,6
India,Uttar_Pradesh,Prayagraj,"Jhunsi, Prayagraj - UPPCB",14-01-2024 12:00:00,25.425602,81.917152,NH3,5,5,5
India,Uttar_Pradesh,Prayagraj,"Motilal Nehru NIT, Prayagraj - UPPCB",14-01-2024 12:00:00,25.494,81.863,PM10,62,175,124
India,Uttar_Pradesh,Prayagraj,"Motilal Nehru NIT, Prayagraj - UPPCB",14-01-2024 12:00:00,25.494,81.863,SO2,29,39,37
India,Uttar_Pradesh,Prayagraj,"Nagar Nigam, Prayagraj - UPPCB",14-01-2024 12:00:00,25.44919916 ,81.82735986 ,PM10,83,233,142
India,Uttar_Pradesh,Prayagraj,"Nagar Nigam, Prayagraj - UPPCB",14-01-2024 12:00:00,25.44919916 ,81.82735986 ,SO2,7,46,25
India,Uttar_Pradesh,Prayagraj,"Nagar Nigam, Prayagraj - UPPCB",14-01-2024 12:00:00,25.44919916 ,81.82735986 ,CO,20,114,93
India,Uttar_Pradesh,Varanasi,"Ardhali Bazar, Varanasi - UPPCB",14-01-2024 12:00:00,25.3505986,82.9083074,PM2.5,32,70,48
India,Uttar_Pradesh,Varanasi,"Bhelupur, Varanasi - UPPCB",14-01-2024 12:00:00,25.301778,82.996789,PM2.5,20,48,32
India,Uttar_Pradesh,Varanasi,"IESD Banaras Hindu University, Varanasi - UPPCB",14-01-2024 12:00:00,25.262326,82.995408,NO2,2,3,2
India,Uttar_Pradesh,Varanasi,"IESD Banaras Hindu University, Varanasi - UPPCB",14-01-2024 12:00:00,25.262326,82.995408,SO2,15,16,16
India,Uttar_Pradesh,Varanasi,"Maldahiya, Varanasi - UPPCB",14-01-2024 12:00:00,25.32393,82.99687,NO2,11,29,19
India,Uttarakhand,Dehradun,"Doon University, Dehradun - UKPCB",14-01-2024 12:00:00,30.269444,78.044167,NO2,2,10,6
India,Uttarakhand,Kashipur,"Govt. Girls Inter College, Kashipur - UKPCB",14-01-2024 12:00:00,29.2124114,78.9611753,PM2.5,60,310,193
India,Uttarakhand,Kashipur,"Govt. Girls Inter College, Kashipur - UKPCB",14-01-2024 12:00:00,29.2124114,78.9611753,NO2,24,93,54
India,West_Bengal,Asansol,"Asansol Court Area, Asansol - WBPCB",14-01-2024 12:00:00,23.685297,86.945968,NH3,5,9,7
India,West_Bengal,Asansol,"Asansol Court Area, Asansol - WBPCB",14-01-2024 12:00:00,23.685297,86.945968,CO,16,68,50
India,West_Bengal,Barrackpore,"SVSPA Campus, Barrackpore - WBPCB",14-01-2024 12:00:00,22.7605581,88.3617589,NH3,2,4,4
India,West_Bengal,Barrackpore,"SVSPA Campus, Barrackpore - WBPCB",14-01-2024 12:00:00,22.7605581,88.3617589,OZONE,10,104,26
India,West_Bengal,Durgapur,"Sidhu Kanhu Indoor Stadium, Durgapur - WBPCB",14-01-2024 12:00:00,23.5404352,87.2892225,SO2,19,56,30
India,West_Bengal,Durgapur,"Sidhu Kanhu Indoor Stadium, Durgapur - WBPCB",14-01-2024 12:00:00,23.5404352,87.2892225,OZONE,1,38,8
India,West_Bengal,Haldia,"Priyambada Housing Estate, Haldia - WBPCB",14-01-2024 12:00:00,22.06047,88.109737,NH3,4,7,4
India,West_Bengal,Haldia,"Priyambada Housing Estate, Haldia - WBPCB",14-01-2024 12:00:00,22.06047,88.109737,SO2,1,12,4
India,West_Bengal,Haldia,"Priyambada Housing Estate, Haldia - WBPCB",14-01-2024 12:00:00,22.06047,88.109737,CO,32,74,65
India,West_Bengal,Howrah,"Belur Math, Howrah - WBPCB",14-01-2024 12:00:00,22.629801,88.352017,PM10,108,203,165
India,West_Bengal,Howrah,"Ghusuri, Howrah - WBPCB",14-01-2024 12:00:00,22.611968,88.347422,PM10,141,308,226
India,West_Bengal,Howrah,"Ghusuri, Howrah - WBPCB",14-01-2024 12:00:00,22.611968,88.347422,SO2,6,8,7
India,West_Bengal,Kolkata,"Ballygunge, Kolkata - WBPCB",14-01-2024 12:00:00,22.5367507,88.3638022,CO,16,107,39
India,West_Bengal,Kolkata,"Bidhannagar, Kolkata - WBPCB",14-01-2024 12:00:00,22.58157048,88.41002457,NH3,9,13,10
India,West_Bengal,Kolkata,"Fort William, Kolkata - WBPCB",14-01-2024 12:00:00,22.556640,88.342674,SO2,5,34,16
India,West_Bengal,Kolkata,"Jadavpur, Kolkata - WBPCB",14-01-2024 12:00:00,22.49929,88.36917,SO2,4,9,6
India,West_Bengal,Kolkata,"Rabindra Bharati University, Kolkata - WBPCB",14-01-2024 12:00:00,22.627847,88.380669,PM10,86,160,134
India,West_Bengal,Kolkata,"Rabindra Bharati University, Kolkata - WBPCB",14-01-2024 12:00:00,22.627847,88.380669,NH3,7,8,7
India,West_Bengal,Siliguri,"Ward-32 Bapupara, Siliguri - WBPCB",14-01-2024 12:00:00,26.6879226,88.4152495,PM10,84,172,122
India,West_Bengal,Siliguri,"Ward-32 Bapupara, Siliguri - WBPCB",14-01-2024 12:00:00,26.6879226,88.4152495,OZONE,7,61,13
India,Andhra_Pradesh,Anantapur,"Gulzarpet, Anantapur - APPCB",14-01-2024 12:00:00,14.675886,77.593027,PM10,53,295,107
India,Andhra_Pradesh,Anantapur,"Gulzarpet, Anantapur - APPCB",14-01-2024 12:00:00,14.675886,77.593027,NH3,2,3,3
India,Andhra_Pradesh,Anantapur,"Gulzarpet, Anantapur - APPCB",14-01-2024 12:00:00,14.675886,77.593027,OZONE,2,52,20
India,Andhra_Pradesh,Kadapa,"Yerramukkapalli, Kadapa - APPCB",14-01-2024 12:00:00,14.465052,78.824187,PM10,21,77,48
India,Andhra_Pradesh,Rajamahendravaram,"Anand Kala Kshetram, Rajamahendravaram - APPCB",14-01-2024 12:00:00,16.9872867,81.7363176,SO2,14,74,34
India,Andhra_Pradesh,Tirupati,"Tirumala, Tirupati - APPCB",14-01-2024 12:00:00,13.67,79.35,NO2,29,64,48
India,Andhra_Pradesh,Tirupati,"Tirumala, Tirupati - APPCB",14-01-2024 12:00:00,13.67,79.35,NH3,1,3,2
India,Andhra_Pradesh,Tirupati,"Tirumala, Tirupati - APPCB",14-01-2024 12:00:00,13.67,79.35,OZONE,3,57,24
India,Andhra_Pradesh,Tirupati,"Vaikuntapuram, Tirupati - APPCB",14-01-2024 12:00:00,13.615387,79.409230,PM2.5,13,253,40
India,Andhra_Pradesh,Tirupati,"Vaikuntapuram, Tirupati - APPCB",14-01-2024 12:00:00,13.615387,79.409230,CO,9,16,13
India,Andhra_Pradesh,Tirupati,"Vaikuntapuram, Tirupati - APPCB",14-01-2024 12:00:00,13.615387,79.409230,OZONE,2,41,6
India,Andhra_Pradesh,Vijayawada,"HB Colony, Vijayawada - APPCB",14-01-2024 12:00:00,16.536107,80.594233,NO2,8,38,19
India,Andhra_Pradesh,Vijayawada,"Kanuru, Vijayawada - APPCB",14-01-2024 12:00:00,16.486692,80.699436,PM2.5,47,500,160
India,Andhra_Pradesh,Visakhapatnam,"GVM Corporation, Visakhapatnam - APPCB",14-01-2024 12:00:00,17.72,83.3,PM2.5,250,404,310
India,Andhra_Pradesh,Visakhapatnam,"GVM Corporation, Visakhapatnam - APPCB",14-01-2024 12:00:00,17.72,83.3,PM10,143,400,193
India,Andhra_Pradesh,Visakhapatnam,"GVM Corporation, Visakhapatnam - APPCB",14-01-2024 12:00:00,17.72,83.3,SO2,11,24,14
India,Assam,Byrnihat,"Central Academy for SFS, Byrnihat - PCBA",14-01-2024 12:00:00,26.071318,91.87488,PM2.5,NA,NA,NA
India,Assam,Byrnihat,"Central Academy for SFS, Byrnihat - PCBA",14-01-2024 12:00:00,26.071318,91.87488,CO,NA,NA,NA
India,Assam,Guwahati,"LGBI Airport, Guwahati - PCBA",14-01-2024 12:00:00,26.10887,91.589544,PM10,NA,NA,NA
India,Assam,Guwahati,"Pan Bazaar, Guwahati - PCBA",14-01-2024 12:00:00,26.187500,91.744194,CO,36,124,63
India,Assam,Nagaon,"Christianpatty, Nagaon - PCBA",14-01-2024 12:00:00,26.349082,92.68449,NO2,14,30,21
India,Assam,Nalbari,"Bata Chowk, Nalbari - PCBA",14-01-2024 12:00:00,26.446912,91.439057,SO2,5,16,9
India,Assam,Silchar,"Tarapur, Silchar - PCBA",14-01-2024 12:00:00,24.82827,92.79525,OZONE,NA,NA,NA
India,Assam,Sivasagar,"Girls College, Sivasagar - PCBA",14-01-2024 12:00:00,26.987634,94.636574,PM10,31,94,55
India,Assam,Sivasagar,"Girls College, Sivasagar - PCBA",14-01-2024 12:00:00,26.987634,94.636574,CO,22,73,33
India,Bihar,Araria,"Kharahiya Basti, Araria - BSPCB",14-01-2024 12:00:00,26.146529,87.454184,PM10,181,476,348
India,Bihar,Arrah,"New DM Office, Arrah - BSPCB",14-01-2024 12:00:00,25.5626095,84.663264,NH3,5,7,6
India,Bihar,Arrah,"New DM Office, Arrah - BSPCB",14-01-2024 12:00:00,25.5626095,84.663264,CO,2,16,6
India,Bihar,Aurangabad,"Gurdeo Nagar, Aurangabad - BSPCB",14-01-2024 12:00:00,24.75746,84.366208,PM2.5,53,88,71
India,Bihar,Bettiah,"Kamalnath Nagar, Bettiah - BSPCB",14-01-2024 12:00:00,26.80365,84.51954,CO,25,110,56
India,Bihar,Bhagalpur,"DM Office_Kachari Chowk, Bhagalpur - BSPCB",14-01-2024 12:00:00,25.251013,86.989001,NH3,3,6,4
India,Bihar,Bhagalpur,"DM Office_Kachari Chowk, Bhagalpur - BSPCB",14-01-2024 12:00:00,25.251013,86.989001,CO,38,82,40
India,Bihar,Bhagalpur,"DM Office_Kachari Chowk, Bhagalpur - BSPCB",14-01-2024 12:00:00,25.251013,86.989001,OZONE,19,38,27
India,Bihar,Bhagalpur,"Mayaganj, Bhagalpur - BSPCB",14-01-2024 12:00:00,25.265194,87.012947,SO2,10,14,12
India,Bihar,Bihar Sharif,"D M Colony, Bihar Sharif - BSPCB",14-01-2024 12:00:00,25.204762,85.514960,PM2.5,20,67,48
India,Bihar,Bihar Sharif,"D M Colony, Bihar Sharif - BSPCB",14-01-2024 12:00:00,25.204762,85.514960,CO,4,56,34
India,Bihar,Bihar Sharif,"D M Colony, Bihar Sharif - BSPCB",14-01-2024 12:00:00,25.204762,85.514960,OZONE,1,9,4
India,Bihar,Chhapra,"Darshan Nagar, Chhapra - BSPCB",14-01-2024 12:00:00,25.7808257,84.7446768,PM2.5,160,368,271
India,Bihar,Chhapra,"Darshan Nagar, Chhapra - BSPCB",14-01-2024 12:00:00,25.7808257,84.7446768,PM10,119,289,180
India,Bihar,Gaya,"Kareemganj, Gaya - BSPCB",14-01-2024 12:00:00,24.792403,84.992416,PM10,117,195,162
India,Bihar,Gaya,"Kareemganj, Gaya - BSPCB",14-01-2024 12:00:00,24.792403,84.992416,CO,7,101,45
India,Bihar,Gaya,"SFTI Kusdihra, Gaya - BSPCB",14-01-2024 12:00:00,24.762518,84.982348,NH3,NA,NA,NA
India,Bihar,Hajipur,"Industrial Area, Hajipur - BSPCB",14-01-2024 12:00:00,25.697189,85.245900,PM10,101,310,173
India,Bihar,Hajipur,"Industrial Area, Hajipur - BSPCB",14-01-2024 12:00:00,25.697189,85.245900,NH3,1,8,6
India,Bihar,Hajipur,"Industrial Area, Hajipur - BSPCB",14-01-2024 12:00:00,25.697189,85.245900,SO2,6,7,6
India,Bihar,Hajipur,"Industrial Area, Hajipur - BSPCB",14-01-2024 12:00:00,25.697189,85.245900,CO,42,98,72
India,Bihar,Manguraha,"Forest Rest House, Manguraha - BSPCB",14-01-2024 12:00:00,27.308328,84.531742,PM10,NA,NA,NA
India,Bihar,Manguraha,"Forest Rest House, Manguraha - BSPCB",14-01-2024 12:00:00,27.308328,84.531742,OZONE,24,46,33
India,Bihar,Munger,"Town Hall, Munger - BSPCB",14-01-2024 12:00:00,25.376776,86.471523,PM2.5,133,325,235
India,Bihar,Munger,"Town Hall, Munger - BSPCB",14-01-2024 12:00:00,25.376776,86.471523,SO2,9,49,29
India,Bihar,Muzaffarpur,"Buddha Colony, Muzaffarpur - BSPCB",14-01-2024 12:00:00,26.11442,85.39813,OZONE,21,66,31
India,Bihar,Muzaffarpur,"MIT-Daudpur Kothi, Muzaffarpur - BSPCB",14-01-2024 12:00:00,26.1403345,85.3650192,SO2,11,23,12
India,Bihar,Muzaffarpur,"MIT-Daudpur Kothi, Muzaffarpur - BSPCB",14-01-2024 12:00:00,26.1403345,85.3650192,CO,10,134,12
India,Bihar,Muzaffarpur,"Muzaffarpur Collectorate, Muzaffarpur - BSPCB",14-01-2024 12:00:00,26.1209,85.3647,OZONE,14,87,15
India,Bihar,Patna,"DRM Office Danapur, Patna - BSPCB",14-01-2024 12:00:00,25.586562,85.043586,PM2.5,236,385,338
India,Bihar,Patna,"DRM Office Danapur, Patna - BSPCB",14-01-2024 12:00:00,25.586562,85.043586,NH3,4,4,4
India,Bihar,Patna,"DRM Office Danapur, Patna - BSPCB",14-01-2024 12:00:00,25.586562,85.043586,SO2,6,8,7
India,Bihar,Patna,"DRM Office Danapur, Patna - BSPCB",14-01-2024 12:00:00,25.586562,85.043586,CO,67,111,74
India,Bihar,Patna,"Govt. High School Shikarpur, Patna - BSPCB",14-01-2024 12:00:00,25.592539,85.227158,NH3,5,6,6
India,Bihar,Patna,"Govt. High School Shikarpur, Patna - BSPCB",14-01-2024 12:00:00,25.592539,85.227158,CO,32,118,36
India,Bihar,Patna,"Muradpur, Patna - BSPCB",14-01-2024 12:00:00,25.619651,85.147382,CO,74,120,78
India,Bihar,Purnia,"Mariam Nagar, Purnia - BSPCB",14-01-2024 12:00:00,25.366336,87.117468,SO2,18,23,20
India,Bihar,Rajgir,"Dangi Tola, Rajgir - BSPCB",14-01-2024 12:00:00,25.03280,85.41948,PM10,NA,NA,NA
India,Bihar,Rajgir,"Dangi Tola, Rajgir - BSPCB",14-01-2024 12:00:00,25.03280,85.41948,NH3,1,27,4
India,Bihar,Samastipur,"DM Office_Kasipur, Samastipur - BSPCB",14-01-2024 12:00:00,25.859655,85.77944,CO,6,31,14
India,Bihar,Siwan,"Chitragupta Nagar, Siwan - BSPCB",14-01-2024 12:00:00,26.2271665,84.3570427,SO2,8,35,30
India,Chandigarh,Chandigarh,"Sector 22, Chandigarh - CPCC",14-01-2024 12:00:00,30.735567,76.775714,PM10,141,500,342
India,Chandigarh,Chandigarh,"Sector 22, Chandigarh - CPCC",14-01-2024 12:00:00,30.735567,76.775714,CO,NA,NA,NA
India,Chandigarh,Chandigarh,"Sector-25, Chandigarh - CPCC",14-01-2024 12:00:00,30.751462,76.762879,NO2,13,49,27
India,Chandigarh,Chandigarh,"Sector-25, Chandigarh - CPCC",14-01-2024 12:00:00,30.751462,76.762879,SO2,6,39,12
India,Chandigarh,Chandigarh,"Sector-25, Chandigarh - CPCC",14-01-2024 12:00:00,30.751462,76.762879,CO,58,113,62
India,Chandigarh,Chandigarh,"Sector-53, Chandigarh - CPCC",14-01-2024 12:00:00,30.719859,76.738637,PM10,133,500,324
India,Chandigarh,Chandigarh,"Sector-53, Chandigarh - CPCC",14-01-2024 12:00:00,30.719859,76.738637,CO,58,135,83
India,Chhattisgarh,Bhilai,"32Bungalows, Bhilai - CECB",14-01-2024 12:00:00,21.194815,81.314770,NH3,6,6,6
India,Chhattisgarh,Bhilai,"32Bungalows, Bhilai - CECB",14-01-2024 12:00:00,21.194815,81.314770,CO,34,70,40
India,Chhattisgarh,Bhilai,"32Bungalows, Bhilai - CECB",14-01-2024 12:00:00,21.194815,81.314770,OZONE,4,15,4
India,Chhattisgarh,Bhilai,"Civic Center, Bhilai - Bhilai Steel Plant",14-01-2024 12:00:00,21.185571,81.343175,NO2,2,130,16
India,Chhattisgarh,Bhilai,"Hathkhoj, Bhilai - CECB",14-01-2024 12:00:00,21.224231,81.408350,NO2,42,78,56
India,Chhattisgarh,Bhilai,"Hathkhoj, Bhilai - CECB",14-01-2024 12:00:00,21.224231,81.408350,SO2,12,53,24
India,Chhattisgarh,Bilaspur,"Mangala, Bilaspur - NTPC",14-01-2024 12:00:00,22.08815,82.13737,NO2,11,13,11
India,Chhattisgarh,Korba,"Rampur, Korba - CECB",14-01-2024 12:00:00,22.368195,82.746431,SO2,12,65,22
India,Chhattisgarh,Raipur,"Bhatagaon New ISBT, Raipur - CECB",14-01-2024 12:00:00,21.219665,81.630094,NO2,65,93,77
India,Chhattisgarh,Raipur,"Bhatagaon New ISBT, Raipur - CECB",14-01-2024 12:00:00,21.219665,81.630094,NH3,2,4,3
India,Chhattisgarh,Raipur,"Bhatagaon New ISBT, Raipur - CECB",14-01-2024 12:00:00,21.219665,81.630094,SO2,NA,NA,NA
India,Chhattisgarh,Tumidih,"OP Jindal Industrial Park, Tumidih - CECB",14-01-2024 12:00:00,22.06631475,83.33820077,PM2.5,6,84,43
India,Chhattisgarh,Tumidih,"OP Jindal Industrial Park, Tumidih - CECB",14-01-2024 12:00:00,22.06631475,83.33820077,NH3,1,2,2
India,Delhi,Delhi,"Anand Vihar, Delhi - DPCC",14-01-2024 12:00:00,28.647622,77.3158090,NO2,54,208,143
India,Delhi,Delhi,"Ashok Vihar, Delhi - DPCC",14-01-2024 12:00:00,28.695381,77.181665,NH3,12,19,14
India,Delhi,Delhi,"Ashok Vihar, Delhi - DPCC",14-01-2024 12:00:00,28.695381,77.181665,SO2,17,33,24
India,Delhi,Delhi,"Aya Nagar, Delhi - IMD",14-01-2024 12:00:00,28.4706914,77.1099364,CO,114,180,151
India,Delhi,Delhi,"Bawana, Delhi - DPCC",14-01-2024 12:00:00,28.776200,77.051074,SO2,4,11,7
India,Delhi,Delhi,"Burari Crossing, Delhi - IMD",14-01-2024 12:00:00,28.7256504,77.2011573,PM10,138,470,358
India,Delhi,Delhi,"Burari Crossing, Delhi - IMD",14-01-2024 12:00:00,28.7256504,77.2011573,OZONE,20,44,25
India,Delhi,Delhi,"DTU, Delhi - CPCB",14-01-2024 12:00:00,28.7500499,77.1112615,OZONE,26,30,26
India,Delhi,Delhi,"Dr. Karni Singh Shooting Range, Delhi - DPCC",14-01-2024 12:00:00,28.498571,77.264840,NO2,80,214,131
India,Delhi,Delhi,"Dr. Karni Singh Shooting Range, Delhi - DPCC",14-01-2024 12:00:00,28.498571,77.264840,CO,107,158,131
India,Delhi,Delhi,"Dr. Karni Singh Shooting Range, Delhi - DPCC",14-01-2024 12:00:00,28.498571,77.264840,OZONE,1,71,3
India,Delhi,Delhi,"Dwarka-Sector 8, Delhi - DPCC ",14-01-2024 12:00:00,28.5710274,77.0719006,PM10,311,500,453
India,Delhi,Delhi,"IHBAS, Dilshad Garden, Delhi - CPCB",14-01-2024 12:00:00,28.6811736,77.3025234,NO2,7,35,22
India,Delhi,Delhi,"ITO, Delhi - CPCB",14-01-2024 12:00:00,28.628624,77.241060,SO2,5,31,16
India,Delhi,Delhi,"Jawaharlal Nehru Stadium, Delhi - DPCC",14-01-2024 12:00:00,28.580280,77.233829,PM2.5,399,500,481
India,Delhi,Delhi,"Jawaharlal Nehru Stadium, Delhi - DPCC",14-01-2024 12:00:00,28.580280,77.233829,PM10,286,500,457
India,Delhi,Delhi,"Jawaharlal Nehru Stadium, Delhi - DPCC",14-01-2024 12:00:00,28.580280,77.233829,SO2,16,75,33
India,Delhi,Delhi,"Lodhi Road, Delhi - IITM",14-01-2024 12:00:00,28.588333,77.221667,NO2,NA,NA,NA
India,Delhi,Delhi,"Lodhi Road, Delhi - IMD",14-01-2024 12:00:00,28.5918245,77.2273074,NO2,4,14,8
India,Delhi,Delhi,"Mandir Marg, Delhi - DPCC",14-01-2024 12:00:00,28.636429,77.201067,NO2,96,195,124
India,Delhi,Delhi,"Mandir Marg, Delhi - DPCC",14-01-2024 12:00:00,28.636429,77.201067,SO2,1,15,9
India,Delhi,Delhi,"NSIT Dwarka, Delhi - CPCB",14-01-2024 12:00:00,28.60909,77.0325413,PM2.5,NA,NA,NA
India,Delhi,Delhi,"Najafgarh, Delhi - DPCC",14-01-2024 12:00:00,28.570173,76.933762,OZONE,7,180,9
India,Delhi,Delhi,"Narela, Delhi - DPCC",14-01-2024 12:00:00,28.822836,77.101981,PM10,126,500,365
India,Delhi,Delhi,"Nehru Nagar, Delhi - DPCC",14-01-2024 12:00:00,28.567890,77.250515,NH3,19,37,23
India,Delhi,Delhi,"Nehru Nagar, Delhi - DPCC",14-01-2024 12:00:00,28.567890,77.250515,OZONE,2,68,3
India,Delhi,Delhi,"North Campus, DU, Delhi - IMD",14-01-2024 12:00:00,28.6573814,77.1585447,PM10,150,500,378
India,Delhi,Delhi,"North Campus, DU, Delhi - IMD",14-01-2024 12:00:00,28.6573814,77.1585447,NO2,33,132,73
India,Delhi,Delhi,"Okhla Phase-2, Delhi - DPCC",14-01-2024 12:00:00,28.530785,77.271255,PM2.5,NA,NA,NA
India,Delhi,Delhi,"Patparganj, Delhi - DPCC",14-01-2024 12:00:00,28.623763,77.287209,NO2,46,139,94
India,Delhi,Delhi,"Patparganj, Delhi - DPCC",14-01-2024 12:00:00,28.623763,77.287209,CO,54,170,69
India,Delhi,Delhi,"Punjabi Bagh, Delhi - DPCC",14-01-2024 12:00:00,28.674045,77.131023,PM2.5,407,500,486
India,Delhi,Delhi,"Punjabi Bagh, Delhi - DPCC",14-01-2024 12:00:00,28.674045,77.131023,NO2,84,134,108
India,Delhi,Delhi,"Punjabi Bagh, Delhi - DPCC",14-01-2024 12:00:00,28.674045,77.131023,NH3,7,10,8
India,Delhi,Delhi,"Punjabi Bagh, Delhi - DPCC",14-01-2024 12:00:00,28.674045,77.131023,OZONE,8,12,9
India,Delhi,Delhi,"Pusa, Delhi - DPCC",14-01-2024 12:00:00,28.639652,77.146275,NO2,108,404,244
India,Delhi,Delhi,"Pusa, Delhi - DPCC",14-01-2024 12:00:00,28.639652,77.146275,NH3,36,55,45
India,Delhi,Delhi,"Pusa, Delhi - DPCC",14-01-2024 12:00:00,28.639652,77.146275,CO,12,130,78
India,Delhi,Delhi,"R K Puram, Delhi - DPCC",14-01-2024 12:00:00,28.563262,77.186937,PM2.5,440,500,490
India,Delhi,Delhi,"R K Puram, Delhi - DPCC",14-01-2024 12:00:00,28.563262,77.186937,OZONE,11,58,13
India,Delhi,Delhi,"Rohini, Delhi - DPCC",14-01-2024 12:00:00,28.732528,77.119920,PM2.5,350,500,456
India,Delhi,Delhi,"Rohini, Delhi - DPCC",14-01-2024 12:00:00,28.732528,77.119920,CO,80,153,91
India,Delhi,Delhi,"Rohini, Delhi - DPCC",14-01-2024 12:00:00,28.732528,77.119920,OZONE,1,79,2
India,Delhi,Delhi,"Shadipur, Delhi - CPCB",14-01-2024 12:00:00,28.6514781,77.1473105,NH3,17,30,23
India,Delhi,Delhi,"Shadipur, Delhi - CPCB",14-01-2024 12:00:00,28.6514781,77.1473105,CO,10,106,70
India,Delhi,Delhi,"Sirifort, Delhi - CPCB",14-01-2024 12:00:00,28.5504249,77.2159377,PM2.5,NA,NA,NA
India,Delhi,Delhi,"Sirifort, Delhi - CPCB",14-01-2024 12:00:00,28.5504249,77.2159377,PM10,418,500,478
India,Delhi,Delhi,"Sirifort, Delhi - CPCB",14-01-2024 12:00:00,28.5504249,77.2159377,CO,70,153,116
India,Delhi,Delhi,"Sonia Vihar, Delhi - DPCC",14-01-2024 12:00:00,28.710508,77.249485,SO2,3,9,6
India,Delhi,Delhi,"Sri Aurobindo Marg, Delhi - DPCC",14-01-2024 12:00:00,28.531346,77.190156,PM10,338,500,475
India,Delhi,Delhi,"Sri Aurobindo Marg, Delhi - DPCC",14-01-2024 12:00:00,28.531346,77.190156,SO2,10,27,15
India,Gujarat,Ahmedabad,"Chandkheda, Ahmedabad - IITM",14-01-2024 12:00:00,23.107969,72.574648,NH3,4,5,5
India,Gujarat,Ahmedabad,"Gyaspur, Ahmedabad - IITM",14-01-2024 12:00:00,22.977134,72.553024,PM10,74,278,131
India,Gujarat,Ahmedabad,"Gyaspur, Ahmedabad - IITM",14-01-2024 12:00:00,22.977134,72.553024,NH3,3,3,3
India,Gujarat,Ahmedabad,"Maninagar, Ahmedabad - GPCB",14-01-2024 12:00:00,23.002657,72.591912,PM2.5,38,135,84
India,Gujarat,Ahmedabad,"Maninagar, Ahmedabad - GPCB",14-01-2024 12:00:00,23.002657,72.591912,PM10,49,165,119
India,Gujarat,Ahmedabad,"Maninagar, Ahmedabad - GPCB",14-01-2024 12:00:00,23.002657,72.591912,CO,10,76,14
India,Gujarat,Ahmedabad,"Raikhad, Ahmedabad - IITM",14-01-2024 12:00:00,23.020509,72.579261,PM10,91,101,93
India,Gujarat,Ahmedabad,"Rakhial, Ahmedabad - IITM",14-01-2024 12:00:00,23.016834,72.625775,PM2.5,77,346,163
India,Gujarat,Ahmedabad,"Rakhial, Ahmedabad - IITM",14-01-2024 12:00:00,23.016834,72.625775,NO2,8,108,24
India,Gujarat,Ahmedabad,"Rakhial, Ahmedabad - IITM",14-01-2024 12:00:00,23.016834,72.625775,CO,10,112,12
India,Gujarat,Ahmedabad,"SAC ISRO Bopal, Ahmedabad - IITM",14-01-2024 12:00:00,23.041137,72.456691,NO2,10,15,11
India,Gujarat,Ahmedabad,"SAC ISRO Bopal, Ahmedabad - IITM",14-01-2024 12:00:00,23.041137,72.456691,NH3,3,4,4
India,Gujarat,Ahmedabad,"SAC ISRO Satellite, Ahmedabad - IITM",14-01-2024 12:00:00,23.023389,72.515201,NH3,2,3,3
India,Gujarat,Ahmedabad,"Sardar Vallabhbhai Patel Stadium, Ahmedabad - IITM",14-01-2024 12:00:00,23.043070,72.562968,PM10,82,160,119
India,Gujarat,Ankleshwar,"GIDC, Ankleshwar - GPCB",14-01-2024 12:00:00,21.613267,73.010555,PM2.5,69,373,148
India,Gujarat,Gandhinagar,"GIFT City, Gandhinagar - IITM",14-01-2024 12:00:00,23.163798,72.677768,PM2.5,35,79,56
India,Gujarat,Gandhinagar,"GIFT City, Gandhinagar - IITM",14-01-2024 12:00:00,23.163798,72.677768,PM10,45,97,66
India,Gujarat,Gandhinagar,"GIFT City, Gandhinagar - IITM",14-01-2024 12:00:00,23.163798,72.677768,NO2,6,8,7
India,Gujarat,Gandhinagar,"GIFT City, Gandhinagar - IITM",14-01-2024 12:00:00,23.163798,72.677768,CO,10,25,22
India,Gujarat,Vapi,"Phase-1 GIDC, Vapi - GPCB",14-01-2024 12:00:00,20.362421,72.918013,PM2.5,NA,NA,NA
India,Gujarat,Vatva,"Phase-4 GIDC, Vatva - GPCB",14-01-2024 12:00:00,22.969611,72.643500,PM2.5,53,184,88
India,Gujarat,Vatva,"Phase-4 GIDC, Vatva - GPCB",14-01-2024 12:00:00,22.969611,72.643500,NO2,27,176,61
India,Haryana,Ambala,"Patti Mehar, Ambala - HSPCB",14-01-2024 12:00:00,30.379589,76.778328,NO2,101,153,128
India,Haryana,Bhiwani,"H.B. Colony, Bhiwani - HSPCB",14-01-2024 12:00:00,28.806223,76.141105,PM2.5,84,316,190
India,Haryana,Bhiwani,"H.B. Colony, Bhiwani - HSPCB",14-01-2024 12:00:00,28.806223,76.141105,PM10,77,178,121
India,Haryana,Faridabad,"New Industrial Town, Faridabad - HSPCB",14-01-2024 12:00:00,28.39072,77.30059,CO,71,118,104
India,Haryana,Faridabad,"Sector 11, Faridabad - HSPCB",14-01-2024 12:00:00,28.376058,77.315741,PM10,151,500,432
India,Haryana,Faridabad,"Sector 11, Faridabad - HSPCB",14-01-2024 12:00:00,28.376058,77.315741,CO,68,116,102
India,Haryana,Faridabad,"Sector 30, Faridabad - HSPCB",14-01-2024 12:00:00,28.4417,77.3217,NO2,30,33,31
India,Haryana,Faridabad,"Sector- 16A, Faridabad - HSPCB",14-01-2024 12:00:00,28.4088421,77.3099081,SO2,22,26,24
India,Haryana,Fatehabad,"Huda Sector, Fatehabad - HSPCB",14-01-2024 12:00:00,29.503664,75.467934,PM10,66,146,99
India,Haryana,Gurugram,"Sector-51, Gurugram - HSPCB",14-01-2024 12:00:00,28.4227,77.0667,NH3,6,14,9
India,Haryana,Gurugram,"Teri Gram, Gurugram - HSPCB",14-01-2024 12:00:00,28.4275,77.1465,NO2,22,74,44
India,Haryana,Gurugram,"Teri Gram, Gurugram - HSPCB",14-01-2024 12:00:00,28.4275,77.1465,NH3,44,63,54
India,Haryana,Hisar,"Urban Estate-II, Hisar - HSPCB",14-01-2024 12:00:00,29.140560,75.744941,NH3,3,4,4
India,Haryana,Karnal,"Sector-12, Karnal - HSPCB",14-01-2024 12:00:00,29.695300,77.002700,NO2,7,12,10
India,Haryana,Karnal,"Sector-12, Karnal - HSPCB",14-01-2024 12:00:00,29.695300,77.002700,CO,57,122,74
India,Haryana,Karnal,"Sector-12, Karnal - HSPCB",14-01-2024 12:00:00,29.695300,77.002700,OZONE,29,31,30
India,Haryana,Mandikhera,"General Hospital, Mandikhera - HSPCB",14-01-2024 12:00:00,27.9002,76.9938,PM2.5,12,59,32
India,Haryana,Mandikhera,"General Hospital, Mandikhera - HSPCB",14-01-2024 12:00:00,27.9002,76.9938,NO2,16,22,18
India,Haryana,Mandikhera,"General Hospital, Mandikhera - HSPCB",14-01-2024 12:00:00,27.9002,76.9938,CO,23,109,88
India,Haryana,Manesar,"Sector-2 IMT, Manesar - HSPCB",14-01-2024 12:00:00,28.360699,76.936090,PM10,162,364,267
India,Haryana,Narnaul,"Shastri Nagar, Narnaul - HSPCB",14-01-2024 12:00:00,28.060249,76.113115,PM2.5,53,310,162
India,Haryana,Narnaul,"Shastri Nagar, Narnaul - HSPCB",14-01-2024 12:00:00,28.060249,76.113115,CO,6,26,22
India,Haryana,Panchkula,"Sector-6, Panchkula - HSPCB ",14-01-2024 12:00:00,30.7057778,76.8531805555555,PM2.5,46,381,259
India,Haryana,Panchkula,"Sector-6, Panchkula - HSPCB ",14-01-2024 12:00:00,30.7057778,76.8531805555555,OZONE,37,60,40
India,Haryana,Panipat,"Sector-18, Panipat - HSPCB",14-01-2024 12:00:00,29.497973,76.993331,PM10,128,139,134
India,Haryana,Panipat,"Sector-18, Panipat - HSPCB",14-01-2024 12:00:00,29.497973,76.993331,CO,22,27,25
India,Haryana,Rohtak,"MD University, Rohtak - HSPCB",14-01-2024 12:00:00,28.52123,76.37138,SO2,2,39,10
India,Haryana,Sirsa,"F-Block, Sirsa - HSPCB",14-01-2024 12:00:00,29.536400,75.015800,NO2,10,10,10
India,Haryana,Sirsa,"F-Block, Sirsa - HSPCB",14-01-2024 12:00:00,29.536400,75.015800,SO2,5,10,8
India,Haryana,Sirsa,"F-Block, Sirsa - HSPCB",14-01-2024 12:00:00,29.536400,75.015800,CO,64,98,80
India,Haryana,Yamuna Nagar,"Gobind Pura, Yamuna Nagar - HSPCB",14-01-2024 12:00:00,30.1480566,77.2893471,PM10,65,368,176
India,Haryana,Yamuna Nagar,"Gobind Pura, Yamuna Nagar - HSPCB",14-01-2024 12:00:00,30.1480566,77.2893471,NO2,11,29,19
India,Haryana,Yamuna Nagar,"Gobind Pura, Yamuna Nagar - HSPCB",14-01-2024 12:00:00,30.1480566,77.2893471,NH3,1,6,4
India,Haryana,Yamuna Nagar,"Gobind Pura, Yamuna Nagar - HSPCB",14-01-2024 12:00:00,30.1480566,77.2893471,SO2,1,21,7
India,Jharkhand,Dhanbad,"Kalakusuma, Dhanbad - DMC",14-01-2024 12:00:00,23.811548,86.481238,SO2,111,118,115
India,Jharkhand,Dhanbad,"Sardar Patel Nagar, Dhanbad - JSPCB",14-01-2024 12:00:00,23.80569,86.44268,NO2,124,196,155
India,Jharkhand,Pathardih,"Mohalbani Ghat, Pathardih - DMC",14-01-2024 12:00:00,23.669880,86.411725,CO,6,6,6
India,Jharkhand,Pathardih,"Mohalbani Ghat, Pathardih - DMC",14-01-2024 12:00:00,23.669880,86.411725,OZONE,139,140,140
India,Karnataka,Bagalkot,"Vidayagiri, Bagalkot - KSPCB",14-01-2024 12:00:00,16.172806,75.659694,SO2,9,10,9
India,Karnataka,Bagalkot,"Vidayagiri, Bagalkot - KSPCB",14-01-2024 12:00:00,16.172806,75.659694,OZONE,6,41,20
India,Karnataka,Belgaum,"Ramteerth Nagar, Belgaum - KSPCB",14-01-2024 12:00:00,15.888653,74.541751,PM2.5,35,205,82
India,Karnataka,Belgaum,"Ramteerth Nagar, Belgaum - KSPCB",14-01-2024 12:00:00,15.888653,74.541751,SO2,8,9,8
India,Karnataka,Bengaluru,"City Railway Station, Bengaluru - KSPCB",14-01-2024 12:00:00,12.9756843,77.5660749,NO2,18,25,22
India,Karnataka,Bengaluru,"Hombegowda Nagar, Bengaluru - KSPCB",14-01-2024 12:00:00,12.938539,77.590100,PM2.5,47,111,70
India,Karnataka,Bengaluru,"Hombegowda Nagar, Bengaluru - KSPCB",14-01-2024 12:00:00,12.938539,77.590100,SO2,4,5,4
India,Karnataka,Bengaluru,"Jayanagar 5th Block, Bengaluru - KSPCB",14-01-2024 12:00:00,12.920984,77.584908,PM2.5,97,290,185
India,Karnataka,Bengaluru,"Jayanagar 5th Block, Bengaluru - KSPCB",14-01-2024 12:00:00,12.920984,77.584908,NH3,2,3,3
India,Karnataka,Bengaluru,"Kasturi Nagar, Bengaluru - KSPCB",14-01-2024 12:00:00,13.003872,77.664217,SO2,9,10,10
India,Karnataka,Bengaluru,"Kasturi Nagar, Bengaluru - KSPCB",14-01-2024 12:00:00,13.003872,77.664217,CO,24,26,25
India,Karnataka,Bengaluru,"Peenya, Bengaluru - CPCB",14-01-2024 12:00:00,13.0270199,77.494094,PM10,117,151,127
India,Karnataka,Bengaluru,"Peenya, Bengaluru - CPCB",14-01-2024 12:00:00,13.0270199,77.494094,OZONE,36,38,37
India,Karnataka,Bengaluru,"RVCE-Mailasandra, Bengaluru - KSPCB",14-01-2024 12:00:00,12.921418,77.502466,PM2.5,44,130,78
India,Karnataka,Bengaluru,"RVCE-Mailasandra, Bengaluru - KSPCB",14-01-2024 12:00:00,12.921418,77.502466,PM10,76,247,148
India,Karnataka,Bengaluru,"RVCE-Mailasandra, Bengaluru - KSPCB",14-01-2024 12:00:00,12.921418,77.502466,SO2,4,5,4
India,Karnataka,Bengaluru,"Sanegurava Halli, Bengaluru - KSPCB",14-01-2024 12:00:00,12.990328,77.5431385,NO2,NA,NA,NA
India,Karnataka,Bengaluru,"Silk Board, Bengaluru - KSPCB",14-01-2024 12:00:00,12.917348,77.622813,SO2,6,12,8
