country,state,city,station,last_update,latitude,longitude,pollutant_id,pollutant_min,pollutant_max,pollutant_avg
India,Andhra_Pradesh,Amaravati,"Secretariat, Amaravati - APPCB",17-06-2024 19:00:00,16.5150833,80.5181667,CO,8,148,66
India,Andhra_Pradesh,Anantapur,"Gulzarpet, Anantapur - APPCB",17-06-2024 19:00:00,14.675886,77.593027,PM2.5,26,73,41
India,Andhra_Pradesh,Anantapur,"Gulzarpet, Anantapur - APPCB",17-06-2024 19:00:00,14.675886,77.593027,NO2,12,13,12
India,Andhra_Pradesh,Anantapur,"Gulzarpet, Anantapur - APPCB",17-06-2024 19:00:00,14.675886,77.593027,CO,19,38,27
India,Andhra_Pradesh,Kadapa,"Yerramukkapalli, Kadapa - APPCB",17-06-2024 19:00:00,14.465052,78.824187,PM10,NA,NA,NA
India,Andhra_Pradesh,Rajamahendravaram,"Anand Kala Kshetram, Rajamahendravaram - APPCB",17-06-2024 19:00:00,16.9872867,81.7363176,NH3,1,16,3
India,Andhra_Pradesh,Rajamahendravaram,"Anand Kala Kshetram, Rajamahendravaram - APPCB",17-06-2024 19:00:00,16.9872867,81.7363176,CO,18,80,47
India,Andhra_Pradesh,Tirupati,"Tirumala, Tirupati - APPCB",17-06-2024 19:00:00,13.67,79.35,PM10,20,49,30
India,Andhra_Pradesh,Tirupati,"Tirumala, Tirupati - APPCB",17-06-2024 19:00:00,13.67,79.35,NO2,13,41,24
India,Andhra_Pradesh,Tirupati,"Tirumala, Tirupati - APPCB",17-06-2024 19:00:00,13.67,79.35,CO,17,48,32
India,Andhra_Pradesh,Tirupati,"Tirumala, Tirupati - APPCB",17-06-2024 19:00:00,13.67,79.35,OZONE,5,19,13
India,Andhra_Pradesh,Tirupati,"Vaikuntapuram, Tirupati - APPCB",17-06-2024 19:00:00,13.615387,79.409230,PM2.5,NA,NA,NA
India,Andhra_Pradesh,Vijayawada,"HB Colony, Vijayawada - APPCB",17-06-2024 19:00:00,16.536107,80.594233,PM10,42,97,54
India,Andhra_Pradesh,Vijayawada,"HB Colony, Vijayawada - APPCB",17-06-2024 19:00:00,16.536107,80.594233,OZONE,9,31,23
India,Andhra_Pradesh,Visakhapatnam,"GVM Corporation, Visakhapatnam - APPCB",17-06-2024 19:00:00,17.72,83.3,PM2.5,NA,NA,NA
India,Andhra_Pradesh,Visakhapatnam,"GVM Corporation, Visakhapatnam - APPCB",17-06-2024 19:00:00,17.72,83.3,NO2,NA,NA,NA
India,Andhra_Pradesh,Visakhapatnam,"GVM Corporation, Visakhapatnam - APPCB",17-06-2024 19:00:00,17.72,83.3,NH3,NA,NA,NA
India,Assam,Byrnihat,"Central Academy for SFS, Byrnihat - PCBA",17-06-2024 19:00:00,26.071318,91.87488,NO2,NA,NA,NA
India,Assam,Byrnihat,"Central Academy for SFS, Byrnihat - PCBA",17-06-2024 19:00:00,26.071318,91.87488,CO,2,9,4
India,Assam,Guwahati,"LGBI Airport, Guwahati - PCBA",17-06-2024 19:00:00,26.10887,91.589544,NO2,3,50,17
India,Assam,Guwahati,"LGBI Airport, Guwahati - PCBA",17-06-2024 19:00:00,26.10887,91.589544,SO2,7,12,10
India,Assam,Guwahati,"LGBI Airport, Guwahati - PCBA",17-06-2024 19:00:00,26.10887,91.589544,OZONE,22,31,26
India,Assam,Nagaon,"Christianpatty, Nagaon - PCBA",17-06-2024 19:00:00,26.349082,92.68449,NH3,1,2,1
India,Assam,Nagaon,"Christianpatty, Nagaon - PCBA",17-06-2024 19:00:00,26.349082,92.68449,SO2,9,11,10
India,Assam,Nagaon,"Christianpatty, Nagaon - PCBA",17-06-2024 19:00:00,26.349082,92.68449,OZONE,3,29,11
India,Assam,Nalbari,"Bata Chowk, Nalbari - PCBA",17-06-2024 19:00:00,26.446912,91.439057,PM10,7,35,17
India,Assam,Nalbari,"Bata Chowk, Nalbari - PCBA",17-06-2024 19:00:00,26.446912,91.439057,SO2,3,9,7
India,Assam,Nalbari,"Bata Chowk, Nalbari - PCBA",17-06-2024 19:00:00,26.446912,91.439057,CO,8,49,46
India,Assam,Silchar,"Tarapur, Silchar - PCBA",17-06-2024 19:00:00,24.82827,92.79525,CO,23,33,30
India,Assam,Sivasagar,"Girls College, Sivasagar - PCBA",17-06-2024 19:00:00,26.987634,94.636574,PM2.5,26,73,37
India,Assam,Sivasagar,"Girls College, Sivasagar - PCBA",17-06-2024 19:00:00,26.987634,94.636574,SO2,3,11,5
India,Assam,Sivasagar,"Girls College, Sivasagar - PCBA",17-06-2024 19:00:00,26.987634,94.636574,CO,4,10,7
India,Bihar,Bettiah,"Kamalnath Nagar, Bettiah - BSPCB",17-06-2024 19:00:00,26.80365,84.51954,CO,32,56,45
India,Bihar,Bhagalpur,"DM Office_Kachari Chowk, Bhagalpur - BSPCB",17-06-2024 19:00:00,25.251013,86.989001,NO2,NA,NA,NA
India,Bihar,Bhagalpur,"DM Office_Kachari Chowk, Bhagalpur - BSPCB",17-06-2024 19:00:00,25.251013,86.989001,CO,54,74,62
India,Bihar,Bhagalpur,"Mayaganj, Bhagalpur - BSPCB",17-06-2024 19:00:00,25.265194,87.012947,PM2.5,83,253,160
India,Bihar,Bihar Sharif,"D M Colony, Bihar Sharif - BSPCB",17-06-2024 19:00:00,25.204762,85.514960,PM2.5,NA,NA,NA
India,Bihar,Bihar Sharif,"D M Colony, Bihar Sharif - BSPCB",17-06-2024 19:00:00,25.204762,85.514960,NO2,9,9,9
India,Bihar,Chhapra,"Darshan Nagar, Chhapra - BSPCB",17-06-2024 19:00:00,25.7808257,84.7446768,NH3,6,11,8
India,Bihar,Gaya,"Collectorate, Gaya - BSPCB",17-06-2024 19:00:00,24.7955,84.9994,SO2,1,18,7
India,Bihar,Gaya,"Kareemganj, Gaya - BSPCB",17-06-2024 19:00:00,24.792403,84.992416,PM2.5,45,130,66
India,Bihar,Gaya,"Kareemganj, Gaya - BSPCB",17-06-2024 19:00:00,24.792403,84.992416,NH3,1,8,3
India,Bihar,Hajipur,"Industrial Area, Hajipur - BSPCB",17-06-2024 19:00:00,25.697189,85.245900,NH3,NA,NA,NA
India,Bihar,Katihar,"Mirchaibari, Katihar - BSPCB",17-06-2024 19:00:00,25.560083,87.553265,PM2.5,22,62,41
India,Bihar,Katihar,"Mirchaibari, Katihar - BSPCB",17-06-2024 19:00:00,25.560083,87.553265,PM10,31,146,56
India,Bihar,Katihar,"Mirchaibari, Katihar - BSPCB",17-06-2024 19:00:00,25.560083,87.553265,NH3,1,1,1
India,Bihar,Katihar,"Mirchaibari, Katihar - BSPCB",17-06-2024 19:00:00,25.560083,87.553265,OZONE,3,9,6
India,Bihar,Kishanganj,"SDM Office_Khagra, Kishanganj - BSPCB",17-06-2024 19:00:00,26.0881305,87.93840336,NH3,6,7,6
India,Bihar,Manguraha,"Forest Rest House, Manguraha - BSPCB",17-06-2024 19:00:00,27.308328,84.531742,PM10,24,114,68
India,Bihar,Manguraha,"Forest Rest House, Manguraha - BSPCB",17-06-2024 19:00:00,27.308328,84.531742,SO2,1,4,2
India,Bihar,Manguraha,"Forest Rest House, Manguraha - BSPCB",17-06-2024 19:00:00,27.308328,84.531742,CO,16,58,25
India,Bihar,Munger,"Town Hall, Munger - BSPCB",17-06-2024 19:00:00,25.376776,86.471523,PM2.5,35,500,214
India,Bihar,Muzaffarpur,"Buddha Colony, Muzaffarpur - BSPCB",17-06-2024 19:00:00,26.11442,85.39813,PM10,NA,NA,NA
India,Bihar,Muzaffarpur,"MIT-Daudpur Kothi, Muzaffarpur - BSPCB",17-06-2024 19:00:00,26.1403345,85.3650192,SO2,9,9,9
India,Bihar,Muzaffarpur,"Muzaffarpur Collectorate, Muzaffarpur - BSPCB",17-06-2024 19:00:00,26.1209,85.3647,NO2,NA,NA,NA
India,Bihar,Patna,"Govt. High School Shikarpur, Patna - BSPCB",17-06-2024 19:00:00,25.592539,85.227158,PM2.5,79,165,124
India,Bihar,Patna,"Govt. High School Shikarpur, Patna - BSPCB",17-06-2024 19:00:00,25.592539,85.227158,NO2,34,36,35
India,Bihar,Patna,"Govt. High School Shikarpur, Patna - BSPCB",17-06-2024 19:00:00,25.592539,85.227158,SO2,8,11,10
India,Bihar,Patna,"IGSC Planetarium Complex, Patna - BSPCB",17-06-2024 19:00:00,25.610369,85.132568,CO,10,16,12
India,Bihar,Patna,"Muradpur, Patna - BSPCB",17-06-2024 19:00:00,25.619651,85.147382,NH3,3,12,6
India,Bihar,Patna,"Muradpur, Patna - BSPCB",17-06-2024 19:00:00,25.619651,85.147382,CO,40,70,54
India,Bihar,Patna,"Samanpura, Patna - BSPCB",17-06-2024 19:00:00,25.596727,85.085624,NO2,1,82,13
India,Bihar,Patna,"Samanpura, Patna - BSPCB",17-06-2024 19:00:00,25.596727,85.085624,SO2,2,3,3
India,Bihar,Patna,"Samanpura, Patna - BSPCB",17-06-2024 19:00:00,25.596727,85.085624,CO,48,63,58
India,Bihar,Purnia,"Mariam Nagar, Purnia - BSPCB",17-06-2024 19:00:00,25.366336,87.117468,CO,42,70,63
India,Bihar,Purnia,"Mariam Nagar, Purnia - BSPCB",17-06-2024 19:00:00,25.366336,87.117468,OZONE,2,16,10
India,Bihar,Rajgir,"Dangi Tola, Rajgir - BSPCB",17-06-2024 19:00:00,25.03280,85.41948,NO2,13,16,14
India,Bihar,Rajgir,"Dangi Tola, Rajgir - BSPCB",17-06-2024 19:00:00,25.03280,85.41948,OZONE,30,42,33
India,Bihar,Saharsa,"Police Line, Saharsa - BSPCB",17-06-2024 19:00:00,25.892357,86.590325,OZONE,18,71,38
India,Bihar,Samastipur,"DM Office_Kasipur, Samastipur - BSPCB",17-06-2024 19:00:00,25.859655,85.77944,NO2,NA,NA,NA
India,Bihar,Samastipur,"DM Office_Kasipur, Samastipur - BSPCB",17-06-2024 19:00:00,25.859655,85.77944,NH3,NA,NA,NA
India,Bihar,Sasaram,"Dada Peer, Sasaram - BSPCB",17-06-2024 19:00:00,24.952822,84.002396,CO,41,82,44
India,Bihar,Sasaram,"Dada Peer, Sasaram - BSPCB",17-06-2024 19:00:00,24.952822,84.002396,OZONE,1,48,44
India,Chandigarh,Chandigarh,"Sector 22, Chandigarh - CPCC",17-06-2024 19:00:00,30.735567,76.775714,OZONE,67,185,108
India,Chandigarh,Chandigarh,"Sector-25, Chandigarh - CPCC",17-06-2024 19:00:00,30.751462,76.762879,PM10,138,187,161
India,Chandigarh,Chandigarh,"Sector-25, Chandigarh - CPCC",17-06-2024 19:00:00,30.751462,76.762879,NO2,5,15,11
India,Chhattisgarh,Bhilai,"32Bungalows, Bhilai - CECB",17-06-2024 19:00:00,21.194815,81.314770,PM10,32,99,54
India,Chhattisgarh,Bhilai,"Civic Center, Bhilai - Bhilai Steel Plant",17-06-2024 19:00:00,21.185571,81.343175,PM10,19,83,38
India,Chhattisgarh,Bhilai,"Civic Center, Bhilai - Bhilai Steel Plant",17-06-2024 19:00:00,21.185571,81.343175,NO2,7,8,8
India,Chhattisgarh,Bhilai,"Civic Center, Bhilai - Bhilai Steel Plant",17-06-2024 19:00:00,21.185571,81.343175,CO,28,48,44
India,Chhattisgarh,Bhilai,"Civic Center, Bhilai - Bhilai Steel Plant",17-06-2024 19:00:00,21.185571,81.343175,OZONE,13,49,45
India,Chhattisgarh,Bhilai,"Hathkhoj, Bhilai - CECB",17-06-2024 19:00:00,21.224231,81.408350,NO2,5,19,9
India,Chhattisgarh,Bhilai,"Hathkhoj, Bhilai - CECB",17-06-2024 19:00:00,21.224231,81.408350,CO,8,35,15
India,Chhattisgarh,Chhal,"Nawapara SECL Colony, Chhal - CECB",17-06-2024 19:00:00,22.118125,83.140608,PM10,44,76,61
India,Chhattisgarh,Chhal,"Nawapara SECL Colony, Chhal - CECB",17-06-2024 19:00:00,22.118125,83.140608,OZONE,3,185,135
India,Chhattisgarh,Korba,"Urja Nagar, Korba - CECB",17-06-2024 19:00:00,22.348441,82.549611,CO,18,53,24
India,Chhattisgarh,Kunjemura,"OP Jindal School, Kunjemura - CECB",17-06-2024 19:00:00,22.126650,83.483212,SO2,1,7,4
India,Chhattisgarh,Milupara,"Govt. Higher Secondary School, Milupara - CECB",17-06-2024 19:00:00,22.1910172,83.5197009,NO2,15,68,41
India,Chhattisgarh,Raipur,"AIIMS, Raipur - CECB",17-06-2024 19:00:00,21.258815,81.578979,NO2,NA,NA,NA
India,Chhattisgarh,Raipur,"Krishak Nagar, Raipur - CECB",17-06-2024 19:00:00,21.237755,81.705301,NH3,1,1,1
India,Chhattisgarh,Raipur,"Siltara Phase-II, Raipur - CECB",17-06-2024 19:00:00,21.371751,81.664929,PM10,100,189,142
India,Chhattisgarh,Tumidih,"OP Jindal Industrial Park, Tumidih - CECB",17-06-2024 19:00:00,22.06631475,83.33820077,CO,22,62,24
India,Delhi,Delhi,"Alipur, Delhi - DPCC",17-06-2024 19:00:00,28.815329,77.153010,SO2,6,60,30
India,Delhi,Delhi,"Anand Vihar, Delhi - DPCC",17-06-2024 19:00:00,28.647622,77.3158090,NO2,NA,NA,NA
India,Delhi,Delhi,"Anand Vihar, Delhi - DPCC",17-06-2024 19:00:00,28.647622,77.3158090,OZONE,82,110,109
India,Delhi,Delhi,"Ashok Vihar, Delhi - DPCC",17-06-2024 19:00:00,28.695381,77.181665,PM10,114,175,143
India,Delhi,Delhi,"Ashok Vihar, Delhi - DPCC",17-06-2024 19:00:00,28.695381,77.181665,NO2,24,119,55
India,Delhi,Delhi,"Ashok Vihar, Delhi - DPCC",17-06-2024 19:00:00,28.695381,77.181665,CO,30,65,38
India,Delhi,Delhi,"Aya Nagar, Delhi - IMD",17-06-2024 19:00:00,28.4706914,77.1099364,PM10,107,172,134
India,Delhi,Delhi,"Burari Crossing, Delhi - IMD",17-06-2024 19:00:00,28.7256504,77.2011573,NO2,NA,NA,NA
India,Delhi,Delhi,"CRRI Mathura Road, Delhi - IMD",17-06-2024 19:00:00,28.5512005,77.2735737,PM10,97,244,149
India,Delhi,Delhi,"CRRI Mathura Road, Delhi - IMD",17-06-2024 19:00:00,28.5512005,77.2735737,NO2,19,55,33
India,Delhi,Delhi,"Chandni Chowk, Delhi - IITM",17-06-2024 19:00:00,28.656756,77.227234,CO,52,74,56
India,Delhi,Delhi,"Chandni Chowk, Delhi - IITM",17-06-2024 19:00:00,28.656756,77.227234,OZONE,1,3,1
India,Delhi,Delhi,"DTU, Delhi - CPCB",17-06-2024 19:00:00,28.7500499,77.1112615,PM2.5,73,284,142
India,Delhi,Delhi,"DTU, Delhi - CPCB",17-06-2024 19:00:00,28.7500499,77.1112615,SO2,41,70,48
India,Delhi,Delhi,"Dr. Karni Singh Shooting Range, Delhi - DPCC",17-06-2024 19:00:00,28.498571,77.264840,PM10,125,205,156
India,Delhi,Delhi,"Dr. Karni Singh Shooting Range, Delhi - DPCC",17-06-2024 19:00:00,28.498571,77.264840,NH3,5,7,6
India,Delhi,Delhi,"Dr. Karni Singh Shooting Range, Delhi - DPCC",17-06-2024 19:00:00,28.498571,77.264840,SO2,7,23,14
India,Delhi,Delhi,"Dwarka-Sector 8, Delhi - DPCC ",17-06-2024 19:00:00,28.5710274,77.0719006,NH3,4,8,6
India,Delhi,Delhi,"IHBAS, Dilshad Garden, Delhi - CPCB",17-06-2024 19:00:00,28.6811736,77.3025234,PM10,110,145,129
India,Delhi,Delhi,"IHBAS, Dilshad Garden, Delhi - CPCB",17-06-2024 19:00:00,28.6811736,77.3025234,CO,14,102,32
India,Delhi,Delhi,"ITO, Delhi - CPCB",17-06-2024 19:00:00,28.628624,77.241060,NH3,4,6,5
India,Delhi,Delhi,"ITO, Delhi - CPCB",17-06-2024 19:00:00,28.628624,77.241060,CO,54,107,59
India,Delhi,Delhi,"Jahangirpuri, Delhi - DPCC",17-06-2024 19:00:00,28.732820,77.170633,NH3,3,7,5
India,Delhi,Delhi,"Jahangirpuri, Delhi - DPCC",17-06-2024 19:00:00,28.732820,77.170633,CO,34,100,44
India,Delhi,Delhi,"Jahangirpuri, Delhi - DPCC",17-06-2024 19:00:00,28.732820,77.170633,OZONE,1,78,60
India,Delhi,Delhi,"Jawaharlal Nehru Stadium, Delhi - DPCC",17-06-2024 19:00:00,28.580280,77.233829,PM2.5,23,75,47
India,Delhi,Delhi,"Lodhi Road, Delhi - IMD",17-06-2024 19:00:00,28.5918245,77.2273074,PM2.5,35,90,69
India,Delhi,Delhi,"Lodhi Road, Delhi - IMD",17-06-2024 19:00:00,28.5918245,77.2273074,OZONE,2,13,12
India,Delhi,Delhi,"Mandir Marg, Delhi - DPCC",17-06-2024 19:00:00,28.636429,77.201067,PM10,89,187,127
India,Delhi,Delhi,"Mandir Marg, Delhi - DPCC",17-06-2024 19:00:00,28.636429,77.201067,OZONE,11,71,63
India,Delhi,Delhi,"Mundka, Delhi - DPCC",17-06-2024 19:00:00,28.684678,77.076574,SO2,7,81,28
India,Delhi,Delhi,"NSIT Dwarka, Delhi - CPCB",17-06-2024 19:00:00,28.60909,77.0325413,CO,37,75,44
India,Delhi,Delhi,"Najafgarh, Delhi - DPCC",17-06-2024 19:00:00,28.570173,76.933762,PM2.5,23,138,58
India,Delhi,Delhi,"Najafgarh, Delhi - DPCC",17-06-2024 19:00:00,28.570173,76.933762,NH3,5,9,6
India,Delhi,Delhi,"Nehru Nagar, Delhi - DPCC",17-06-2024 19:00:00,28.567890,77.250515,NH3,2,8,4
India,Delhi,Delhi,"North Campus, DU, Delhi - IMD",17-06-2024 19:00:00,28.6573814,77.1585447,PM10,114,323,167
India,Delhi,Delhi,"Okhla Phase-2, Delhi - DPCC",17-06-2024 19:00:00,28.530785,77.271255,NH3,8,14,11
India,Delhi,Delhi,"Patparganj, Delhi - DPCC",17-06-2024 19:00:00,28.623763,77.287209,OZONE,1,111,101
India,Delhi,Delhi,"Pusa, Delhi - IMD",17-06-2024 19:00:00,28.636110,77.173332,PM2.5,13,306,86
India,Delhi,Delhi,"Pusa, Delhi - IMD",17-06-2024 19:00:00,28.636110,77.173332,OZONE,4,27,24
India,Delhi,Delhi,"R K Puram, Delhi - DPCC",17-06-2024 19:00:00,28.563262,77.186937,PM10,117,376,172
India,Delhi,Delhi,"Rohini, Delhi - DPCC",17-06-2024 19:00:00,28.732528,77.119920,NO2,7,71,27
India,Delhi,Delhi,"Rohini, Delhi - DPCC",17-06-2024 19:00:00,28.732528,77.119920,OZONE,10,99,91
India,Delhi,Delhi,"Shadipur, Delhi - CPCB",17-06-2024 19:00:00,28.6514781,77.1473105,PM2.5,176,364,287
India,Delhi,Delhi,"Sirifort, Delhi - CPCB",17-06-2024 19:00:00,28.5504249,77.2159377,PM2.5,41,114,74
India,Delhi,Delhi,"Sirifort, Delhi - CPCB",17-06-2024 19:00:00,28.5504249,77.2159377,PM10,127,322,165
India,Delhi,Delhi,"Sonia Vihar, Delhi - DPCC",17-06-2024 19:00:00,28.710508,77.249485,CO,7,94,9
India,Delhi,Delhi,"Sri Aurobindo Marg, Delhi - DPCC",17-06-2024 19:00:00,28.531346,77.190156,PM2.5,40,83,57
India,Delhi,Delhi,"Sri Aurobindo Marg, Delhi - DPCC",17-06-2024 19:00:00,28.531346,77.190156,NH3,4,7,5
India,Delhi,Delhi,"Vivek Vihar, Delhi - DPCC",17-06-2024 19:00:00,28.672342,77.315260,NO2,NA,NA,NA
India,Delhi,Delhi,"Wazirpur, Delhi - DPCC",17-06-2024 19:00:00,28.699793,77.165453,PM2.5,50,233,96
India,Delhi,Delhi,"Wazirpur, Delhi - DPCC",17-06-2024 19:00:00,28.699793,77.165453,NH3,7,9,8
India,Delhi,Delhi,"Wazirpur, Delhi - DPCC",17-06-2024 19:00:00,28.699793,77.165453,OZONE,2,67,60
India,Gujarat,Ahmedabad,"Chandkheda, Ahmedabad - IITM",17-06-2024 19:00:00,23.107969,72.574648,NO2,64,68,66
India,Gujarat,Ahmedabad,"Chandkheda, Ahmedabad - IITM",17-06-2024 19:00:00,23.107969,72.574648,CO,22,67,39
India,Gujarat,Ahmedabad,"Gyaspur, Ahmedabad - IITM",17-06-2024 19:00:00,22.977134,72.553024,PM2.5,60,137,88
India,Gujarat,Ahmedabad,"Gyaspur, Ahmedabad - IITM",17-06-2024 19:00:00,22.977134,72.553024,NO2,31,52,41
India,Gujarat,Ahmedabad,"Gyaspur, Ahmedabad - IITM",17-06-2024 19:00:00,22.977134,72.553024,OZONE,9,74,62
India,Gujarat,Ahmedabad,"Maninagar, Ahmedabad - GPCB",17-06-2024 19:00:00,23.002657,72.591912,PM2.5,33,89,60
India,Gujarat,Ahmedabad,"Raikhad, Ahmedabad - IITM",17-06-2024 19:00:00,23.020509,72.579261,PM2.5,88,320,181
India,Gujarat,Ahmedabad,"Raikhad, Ahmedabad - IITM",17-06-2024 19:00:00,23.020509,72.579261,SO2,24,27,25
India,Gujarat,Ahmedabad,"Rakhial, Ahmedabad - IITM",17-06-2024 19:00:00,23.016834,72.625775,SO2,18,37,28
India,Gujarat,Ahmedabad,"SVPI Airport Hansol, Ahmedabad - IITM",17-06-2024 19:00:00,23.076793,72.627874,OZONE,14,73,57
India,Gujarat,Ahmedabad,"Sardar Vallabhbhai Patel Stadium, Ahmedabad - IITM",17-06-2024 19:00:00,23.043070,72.562968,NH3,7,9,8
India,Gujarat,Ahmedabad,"Sardar Vallabhbhai Patel Stadium, Ahmedabad - IITM",17-06-2024 19:00:00,23.043070,72.562968,SO2,29,40,37
India,Gujarat,Ahmedabad,"Sardar Vallabhbhai Patel Stadium, Ahmedabad - IITM",17-06-2024 19:00:00,23.043070,72.562968,CO,14,66,63
India,Gujarat,Ankleshwar,"GIDC, Ankleshwar - GPCB",17-06-2024 19:00:00,21.613267,73.010555,NH3,3,3,3
India,Gujarat,Ankleshwar,"GIDC, Ankleshwar - GPCB",17-06-2024 19:00:00,21.613267,73.010555,OZONE,22,33,27
India,Gujarat,Gandhinagar,"GIFT City, Gandhinagar - IITM",17-06-2024 19:00:00,23.163798,72.677768,PM2.5,25,83,51
India,Gujarat,Gandhinagar,"GIFT City, Gandhinagar - IITM",17-06-2024 19:00:00,23.163798,72.677768,PM10,43,141,77
India,Gujarat,Gandhinagar,"GIFT City, Gandhinagar - IITM",17-06-2024 19:00:00,23.163798,72.677768,SO2,4,15,10
India,Gujarat,Gandhinagar,"Sector-10, Gandhinagar - GPCB",17-06-2024 19:00:00,23.221714,72.654328,NH3,2,2,2
India,Gujarat,Nandesari,"GIDC, Nandesari - Nandesari Ind. Association",17-06-2024 19:00:00,22.410802,73.097923,PM2.5,63,311,153
India,Gujarat,Nandesari,"GIDC, Nandesari - Nandesari Ind. Association",17-06-2024 19:00:00,22.410802,73.097923,NO2,2,17,9
India,Gujarat,Surat,"Science Center, Surat - SMC",17-06-2024 19:00:00,21.170046,72.795405,PM10,NA,NA,NA
India,Gujarat,Surat,"Science Center, Surat - SMC",17-06-2024 19:00:00,21.170046,72.795405,SO2,9,12,11
India,Gujarat,Vapi,"Phase-1 GIDC, Vapi - GPCB",17-06-2024 19:00:00,20.362421,72.918013,PM2.5,NA,NA,NA
India,Gujarat,Vatva,"Phase-4 GIDC, Vatva - GPCB",17-06-2024 19:00:00,22.969611,72.643500,NH3,4,13,9
India,Haryana,Ambala,"Patti Mehar, Ambala - HSPCB",17-06-2024 19:00:00,30.379589,76.778328,SO2,4,41,13
India,Haryana,Bahadurgarh,"Arya Nagar, Bahadurgarh - HSPCB",17-06-2024 19:00:00,28.6701,76.9254,PM10,120,181,150
India,Haryana,Ballabgarh,"Nathu Colony, Ballabgarh - HSPCB",17-06-2024 19:00:00,28.3419248,77.319699,NH3,1,3,2
India,Haryana,Ballabgarh,"Nathu Colony, Ballabgarh - HSPCB",17-06-2024 19:00:00,28.3419248,77.319699,CO,4,110,21
India,Haryana,Bhiwani,"H.B. Colony, Bhiwani - HSPCB",17-06-2024 19:00:00,28.806223,76.141105,PM2.5,8,119,84
India,Haryana,Bhiwani,"H.B. Colony, Bhiwani - HSPCB",17-06-2024 19:00:00,28.806223,76.141105,NO2,2,11,8
India,Haryana,Bhiwani,"H.B. Colony, Bhiwani - HSPCB",17-06-2024 19:00:00,28.806223,76.141105,SO2,1,64,13
India,Haryana,Bhiwani,"H.B. Colony, Bhiwani - HSPCB",17-06-2024 19:00:00,28.806223,76.141105,CO,25,66,31
India,Haryana,Charkhi Dadri,"Mini Secretariat, Charkhi Dadri - HSPCB",17-06-2024 19:00:00,28.593883,76.270653,NH3,6,8,7
India,Haryana,Dharuhera,"Municipal Corporation Office, Dharuhera -  HSPCB",17-06-2024 19:00:00,28.206800,76.799700,CO,14,46,17
India,Haryana,Faridabad,"Sector 11, Faridabad - HSPCB",17-06-2024 19:00:00,28.376058,77.315741,OZONE,6,23,19
India,Haryana,Faridabad,"Sector- 16A, Faridabad - HSPCB",17-06-2024 19:00:00,28.4088421,77.3099081,SO2,2,26,21
India,Haryana,Faridabad,"Sector- 16A, Faridabad - HSPCB",17-06-2024 19:00:00,28.4088421,77.3099081,CO,20,92,39
India,Haryana,Fatehabad,"Huda Sector, Fatehabad - HSPCB",17-06-2024 19:00:00,29.503664,75.467934,PM2.5,37,107,72
India,Haryana,Fatehabad,"Huda Sector, Fatehabad - HSPCB",17-06-2024 19:00:00,29.503664,75.467934,SO2,8,18,14
India,Haryana,Gurugram,"NISE Gwal Pahari, Gurugram - IMD",17-06-2024 19:00:00,28.422681,77.148944,OZONE,6,53,46
India,Haryana,Gurugram,"Sector-51, Gurugram - HSPCB",17-06-2024 19:00:00,28.4227,77.0667,PM10,103,270,170
India,Haryana,Gurugram,"Teri Gram, Gurugram - HSPCB",17-06-2024 19:00:00,28.4275,77.1465,CO,4,56,23
India,Haryana,Gurugram,"Vikas Sadan, Gurugram - HSPCB",17-06-2024 19:00:00,28.4501238,77.0263051,CO,50,130,103
India,Haryana,Kaithal,"Rishi Nagar, Kaithal - HSPCB",17-06-2024 19:00:00,29.8006,76.4155,CO,4,34,17
India,Haryana,Karnal,"Sector-12, Karnal - HSPCB",17-06-2024 19:00:00,29.695300,77.002700,NO2,7,12,10
India,Haryana,Karnal,"Sector-12, Karnal - HSPCB",17-06-2024 19:00:00,29.695300,77.002700,CO,18,34,21
India,Haryana,Mandikhera,"General Hospital, Mandikhera - HSPCB",17-06-2024 19:00:00,27.9002,76.9938,PM10,62,102,80
India,Haryana,Mandikhera,"General Hospital, Mandikhera - HSPCB",17-06-2024 19:00:00,27.9002,76.9938,NH3,17,20,18
India,Haryana,Manesar,"Sector-2 IMT, Manesar - HSPCB",17-06-2024 19:00:00,28.360699,76.936090,PM10,49,99,72
India,Haryana,Narnaul,"Shastri Nagar, Narnaul - HSPCB",17-06-2024 19:00:00,28.060249,76.113115,NH3,3,16,11
India,Haryana,Narnaul,"Shastri Nagar, Narnaul - HSPCB",17-06-2024 19:00:00,28.060249,76.113115,CO,6,24,14
India,Haryana,Palwal,"Shyam Nagar, Palwal - HSPCB",17-06-2024 19:00:00,28.1485564,77.3320667,PM2.5,NA,NA,NA
India,Haryana,Palwal,"Shyam Nagar, Palwal - HSPCB",17-06-2024 19:00:00,28.1485564,77.3320667,PM10,NA,NA,NA
India,Haryana,Panchkula,"Sector-6, Panchkula - HSPCB ",17-06-2024 19:00:00,30.7057778,76.8531805555555,CO,2,8,5
India,Haryana,Panipat,"Sector-18, Panipat - HSPCB",17-06-2024 19:00:00,29.432304,76.972765,PM10,104,105,104
India,Haryana,Rohtak,"MD University, Rohtak - HSPCB",17-06-2024 19:00:00,28.52123,76.37138,OZONE,44,54,49
India,Haryana,Sirsa,"F-Block, Sirsa - HSPCB",17-06-2024 19:00:00,29.536400,75.015800,CO,75,103,93
India,Haryana,Sonipat,"Murthal, Sonipat - HSPCB",17-06-2024 19:00:00,29.027200,77.062100,NH3,6,10,9
India,Haryana,Sonipat,"Murthal, Sonipat - HSPCB",17-06-2024 19:00:00,29.027200,77.062100,CO,24,26,25
India,Haryana,Yamuna Nagar,"Gobind Pura, Yamuna Nagar - HSPCB",17-06-2024 19:00:00,30.1480566,77.2893471,OZONE,27,37,34
India,Jharkhand,Dhanbad,"Kalakusuma, Dhanbad - DMC",17-06-2024 19:00:00,23.811548,86.481238,PM10,103,151,147
India,Jharkhand,Dhanbad,"Sardar Patel Nagar, Dhanbad - JSPCB",17-06-2024 19:00:00,23.80569,86.44268,CO,68,106,96
India,Karnataka,Bagalkot,"Vidayagiri, Bagalkot - KSPCB",17-06-2024 19:00:00,16.172806,75.659694,PM10,45,46,46
India,Karnataka,Bagalkot,"Vidayagiri, Bagalkot - KSPCB",17-06-2024 19:00:00,16.172806,75.659694,CO,14,54,34
India,Karnataka,Belgaum,"Ramteerth Nagar, Belgaum - KSPCB",17-06-2024 19:00:00,15.888653,74.541751,PM10,15,32,21
India,Karnataka,Bengaluru,"Bapuji Nagar, Bengaluru - KSPCB",17-06-2024 19:00:00,12.951913,77.539784,OZONE,22,45,29
India,Karnataka,Bengaluru,"Hombegowda Nagar, Bengaluru - KSPCB",17-06-2024 19:00:00,12.938539,77.590100,PM2.5,5,19,13
India,Karnataka,Bengaluru,"Hombegowda Nagar, Bengaluru - KSPCB",17-06-2024 19:00:00,12.938539,77.590100,NH3,1,1,1
India,Karnataka,Bengaluru,"Hombegowda Nagar, Bengaluru - KSPCB",17-06-2024 19:00:00,12.938539,77.590100,SO2,3,4,4
India,Karnataka,Bengaluru,"Jayanagar 5th Block, Bengaluru - KSPCB",17-06-2024 19:00:00,12.920984,77.584908,OZONE,18,19,18
India,Karnataka,Bengaluru,"Kasturi Nagar, Bengaluru - KSPCB",17-06-2024 19:00:00,13.003872,77.664217,PM2.5,30,40,34
India,Karnataka,Bengaluru,"Kasturi Nagar, Bengaluru - KSPCB",17-06-2024 19:00:00,13.003872,77.664217,NO2,16,17,17
India,Karnataka,Bengaluru,"Peenya, Bengaluru - CPCB",17-06-2024 19:00:00,13.0270199,77.494094,PM10,44,57,50
India,Karnataka,Bengaluru,"Peenya, Bengaluru - CPCB",17-06-2024 19:00:00,13.0270199,77.494094,NH3,3,4,3
India,Karnataka,Bengaluru,"Peenya, Bengaluru - CPCB",17-06-2024 19:00:00,13.0270199,77.494094,SO2,12,16,14
India,Karnataka,Bengaluru,"Sanegurava Halli, Bengaluru - KSPCB",17-06-2024 19:00:00,12.990328,77.5431385,PM10,34,44,38
India,Karnataka,Bengaluru,"Shivapura_Peenya, Bengaluru - KSPCB",17-06-2024 19:00:00,13.0246342,77.5080115,PM2.5,21,58,31
India,Karnataka,Bidar,"Naubad, Bidar - KSPCB",17-06-2024 19:00:00,17.930306,77.482194,PM2.5,NA,NA,NA
India,Karnataka,Chikkaballapur,"Chikkaballapur Rural, Chikkaballapur - KSPCB",17-06-2024 19:00:00,13.428828,77.731418,PM2.5,4,18,11
India,Karnataka,Chikkaballapur,"Chikkaballapur Rural, Chikkaballapur - KSPCB",17-06-2024 19:00:00,13.428828,77.731418,NO2,5,10,7
India,Karnataka,Chikkaballapur,"Chikkaballapur Rural, Chikkaballapur - KSPCB",17-06-2024 19:00:00,13.428828,77.731418,NH3,1,1,1
India,Karnataka,Chikkaballapur,"Chikkaballapur Rural, Chikkaballapur - KSPCB",17-06-2024 19:00:00,13.428828,77.731418,CO,14,48,21
India,Karnataka,Chikkamagaluru,"Kalyana Nagara, Chikkamagaluru - KSPCB",17-06-2024 19:00:00,13.328028,75.797056,SO2,1,9,2
India,Karnataka,Chikkamagaluru,"Kalyana Nagara, Chikkamagaluru - KSPCB",17-06-2024 19:00:00,13.328028,75.797056,OZONE,10,51,48
India,Karnataka,Davanagere,"Devaraj Urs Badavane, Davanagere - KSPCB",17-06-2024 19:00:00,14.475800,75.905200,PM2.5,6,27,13
India,Karnataka,Dharwad,"Kalabhavan, Dharwad - KSPCB",17-06-2024 19:00:00,15.459706,75.008381,PM2.5,NA,NA,NA
India,Karnataka,Gadag,"Panchal Nagar, Gadag - KSPCB",17-06-2024 19:00:00,15.411456,75.638133,NH3,NA,NA,NA
India,Karnataka,Hubballi,"Lingaraj Nagar, Hubballi - KSPCB",17-06-2024 19:00:00,15.3714823,75.1160168,PM10,43,63,58
India,Karnataka,Kolar,"Tamaka Ind. Area, Kolar - KSPCB",17-06-2024 19:00:00,13.1276288,78.1570122,NH3,5,8,7
India,Karnataka,Madikeri,"Stuart Hill, Madikeri - KSPCB",17-06-2024 19:00:00,12.415911,75.735050,OZONE,11,18,16
India,Karnataka,Mangalore,"Kadri, Mangalore - KSPCB",17-06-2024 19:00:00,12.889250,74.853000,NH3,2,2,2
India,Karnataka,Mysuru,"Hebbal 1st Stage, Mysuru - KSPCB",17-06-2024 19:00:00,12.21041,76.37376,CO,2,24,16
India,Karnataka,Raichur,"Haji Colony, Raichur - KSPCB",17-06-2024 19:00:00,16.208139,77.348417,PM10,12,72,33
India,Karnataka,Raichur,"Haji Colony, Raichur - KSPCB",17-06-2024 19:00:00,16.208139,77.348417,NO2,5,23,13
India,Karnataka,Raichur,"Haji Colony, Raichur - KSPCB",17-06-2024 19:00:00,16.208139,77.348417,NH3,1,3,2
India,Karnataka,Raichur,"Haji Colony, Raichur - KSPCB",17-06-2024 19:00:00,16.208139,77.348417,OZONE,3,7,4
India,Karnataka,Ramanagara,"Vijay Nagar, Ramanagara - KSPCB",17-06-2024 19:00:00,12.733409,77.298051,PM2.5,5,47,16
India,Karnataka,Shivamogga,"Vinoba Nagara, Shivamogga - KSPCB",17-06-2024 19:00:00,13.940000,75.555917,NO2,16,48,28
India,Karnataka,Shivamogga,"Vinoba Nagara, Shivamogga - KSPCB",17-06-2024 19:00:00,13.940000,75.555917,SO2,2,8,4
India,Karnataka,Shivamogga,"Vinoba Nagara, Shivamogga - KSPCB",17-06-2024 19:00:00,13.940000,75.555917,CO,12,32,23
India,Karnataka,Tumakuru,"Thimmalapura, Tumakuru - KSPCB",17-06-2024 19:00:00,13.377516,77.099072,NH3,NA,NA,NA
India,Karnataka,Tumakuru,"Thimmalapura, Tumakuru - KSPCB",17-06-2024 19:00:00,13.377516,77.099072,SO2,7,16,8
India,Karnataka,Vijayapura,"Ibrahimpur, Vijayapura - KSPCB",17-06-2024 19:00:00,16.802639,75.722694,PM2.5,25,31,30
India,Karnataka,Vijayapura,"Ibrahimpur, Vijayapura - KSPCB",17-06-2024 19:00:00,16.802639,75.722694,NO2,17,19,19
India,Karnataka,Vijayapura,"Ibrahimpur, Vijayapura - KSPCB",17-06-2024 19:00:00,16.802639,75.722694,CO,NA,NA,NA
India,Karnataka,Vijayapura,"Ibrahimpur, Vijayapura - KSPCB",17-06-2024 19:00:00,16.802639,75.722694,OZONE,13,16,15
India,Karnataka,Yadgir,"Collector Office, Yadgir - KSPCB",17-06-2024 19:00:00,16.7602,77.1428,PM2.5,2,22,10
India,Karnataka,Yadgir,"Collector Office, Yadgir - KSPCB",17-06-2024 19:00:00,16.7602,77.1428,NH3,1,2,1
India,Kerala,Eloor,"Udyogamandal, Eloor - Kerala PCB",17-06-2024 19:00:00,10.073232,76.302765,SO2,1,2,1
India,Kerala,Kollam,"Polayathode, Kollam - Kerala PCB",17-06-2024 19:00:00,8.8787,76.6073,PM10,34,95,68
India,Kerala,Kollam,"Polayathode, Kollam - Kerala PCB",17-06-2024 19:00:00,8.8787,76.6073,SO2,1,4,2
India,Kerala,Kollam,"Polayathode, Kollam - Kerala PCB",17-06-2024 19:00:00,8.8787,76.6073,CO,14,18,16
India,Kerala,Thiruvananthapuram,"Kariavattom, Thiruvananthapuram - Kerala PCB",17-06-2024 19:00:00,8.563700,76.886500,NO2,6,7,6
India,Kerala,Thrissur,"Corporation Ground, Thrissur - Kerala PCB",17-06-2024 19:00:00,10.532400,76.215900,OZONE,27,32,29
India,Madhya Pradesh,Bhopal,"Paryavaran Parisar, Bhopal - MPPCB",17-06-2024 19:00:00,23.210494,77.425409,CO,17,78,35
India,Madhya Pradesh,Bhopal,"T T Nagar, Bhopal - MPPCB",17-06-2024 19:00:00,23.233584,77.400574,NO2,21,45,29
India,Madhya Pradesh,Bhopal,"T T Nagar, Bhopal - MPPCB",17-06-2024 19:00:00,23.233584,77.400574,SO2,4,30,19
India,Madhya Pradesh,Dewas,"Bhopal Chauraha, Dewas - MPPCB",17-06-2024 19:00:00,22.9682591,76.064118,SO2,18,28,24
India,Madhya Pradesh,Gwalior,"City Center, Gwalior - MPPCB",17-06-2024 19:00:00,26.203442,78.193251,NH3,1,3,2
India,Madhya Pradesh,Gwalior,"Deen Dayal Nagar, Gwalior - MPPCB",17-06-2024 19:00:00,26.259242,78.216432,NH3,3,7,4
India,Madhya Pradesh,Gwalior,"Deen Dayal Nagar, Gwalior - MPPCB",17-06-2024 19:00:00,26.259242,78.216432,SO2,8,30,17
India,Madhya Pradesh,Gwalior,"Phool Bagh, Gwalior - Mondelez Ind. Food",17-06-2024 19:00:00,26.210536,78.171,PM2.5,17,168,84
India,Madhya Pradesh,Indore,"Chhoti Gwaltoli, Indore - MPPCB",17-06-2024 19:00:00,22.4310,75.5213,OZONE,17,67,55
India,Madhya Pradesh,Indore,"Maguda Nagar, Indore - IMC",17-06-2024 19:00:00,22.7524,75.8872,NO2,3,4,3
India,Madhya Pradesh,Indore,"Regional Park, Indore - IMC",17-06-2024 19:00:00,22.6780,75.8559,SO2,49,59,53
India,Madhya Pradesh,Jabalpur,"Gupteshwar, Jabalpur - JMC",17-06-2024 19:00:00,23.142888,79.916147,CO,19,33,23
India,Madhya Pradesh,Jabalpur,"Marhatal, Jabalpur - MPPCB",17-06-2024 19:00:00,23.168606,79.932247,NO2,8,46,20
India,Madhya Pradesh,Maihar,"Sahilara, Maihar - KJS Cements",17-06-2024 19:00:00,24.2613009,80.7231783,PM2.5,10,78,34
India,Madhya Pradesh,Mandideep,"Sector-D Industrial Area, Mandideep - MPPCB",17-06-2024 19:00:00,23.108440,77.511428,NO2,16,42,28
India,Madhya Pradesh,Mandideep,"Sector-D Industrial Area, Mandideep - MPPCB",17-06-2024 19:00:00,23.108440,77.511428,NH3,5,7,6
India,Madhya Pradesh,Mandideep,"Sector-D Industrial Area, Mandideep - MPPCB",17-06-2024 19:00:00,23.108440,77.511428,OZONE,4,15,13
India,Madhya Pradesh,Pithampur,"Sector-2 Industrial Area, Pithampur - MPPCB",17-06-2024 19:00:00,22.624758,75.675238,PM2.5,32,279,80
India,Madhya Pradesh,Ratlam,"Shasthri Nagar, Ratlam - IPCA Lab",17-06-2024 19:00:00,23.331731,75.045981,PM2.5,17,80,42
India,Madhya Pradesh,Ratlam,"Shasthri Nagar, Ratlam - IPCA Lab",17-06-2024 19:00:00,23.331731,75.045981,SO2,28,31,29
India,Madhya Pradesh,Sagar,"Deen Dayal Nagar, Sagar - MPPCB",17-06-2024 19:00:00,23.8640158,78.80289321,NO2,17,24,23
India,Madhya Pradesh,Sagar,"Deen Dayal Nagar, Sagar - MPPCB",17-06-2024 19:00:00,23.8640158,78.80289321,CO,58,60,60
India,Madhya Pradesh,Ujjain,"Mahakaleshwar Temple, Ujjain - MPPCB",17-06-2024 19:00:00,23.182719 ,75.768218 ,OZONE,63,75,67
India,Maharashtra,Ahmednagar,"Tarakpur, Ahmednagar - MPCB",17-06-2024 19:00:00,19.10122,74.73339,PM2.5,32,96,59
India,Maharashtra,Akola,"Ramdaspeth, Akola - MPCB",17-06-2024 19:00:00,20.719516,77.000253,PM2.5,17,72,35
India,Maharashtra,Akola,"Ramdaspeth, Akola - MPCB",17-06-2024 19:00:00,20.719516,77.000253,NH3,3,15,7
India,Maharashtra,Akola,"Ramdaspeth, Akola - MPCB",17-06-2024 19:00:00,20.719516,77.000253,CO,14,72,21
India,Maharashtra,Amravati,"Shivneri Colony, Amravati - MPCB",17-06-2024 19:00:00,20.9402359,77.7895248,PM10,26,80,49
India,Maharashtra,Aurangabad,"MIDC Chilkalthana, Aurangabad - MPCB",17-06-2024 19:00:00,19.875620,75.387310,NO2,3,35,9
India,Maharashtra,Aurangabad,"MIDC Chilkalthana, Aurangabad - MPCB",17-06-2024 19:00:00,19.875620,75.387310,OZONE,1,71,48
India,Maharashtra,Badlapur,"Katrap, Badlapur - MPCB",17-06-2024 19:00:00,19.16485,73.23409,PM2.5,51,122,77
India,Maharashtra,Belapur,"CBD Belapur, Belapur - MPCB",17-06-2024 19:00:00,19.0243902,73.0406721,NH3,2,3,3
India,Maharashtra,Belapur,"CBD Belapur, Belapur - MPCB",17-06-2024 19:00:00,19.0243902,73.0406721,SO2,7,10,8
India,Maharashtra,Bhiwandi,"Gokul Nagar, Bhiwandi - MPCB",17-06-2024 19:00:00,19.309073,73.057223,NH3,2,4,3
India,Maharashtra,Bhiwandi,"Gokul Nagar, Bhiwandi - MPCB",17-06-2024 19:00:00,19.309073,73.057223,SO2,7,21,12
India,Maharashtra,Bhiwandi,"Gokul Nagar, Bhiwandi - MPCB",17-06-2024 19:00:00,19.309073,73.057223,CO,15,62,31
India,Maharashtra,Bhiwandi,"Gokul Nagar, Bhiwandi - MPCB",17-06-2024 19:00:00,19.309073,73.057223,OZONE,12,65,43
India,Maharashtra,Boisar,"Khaira, Boisar - MPCB",17-06-2024 19:00:00,19.786089,72.757971,OZONE,39,44,42
India,Maharashtra,Chandrapur,"Chauhan Colony, Chandrapur - MPCB",17-06-2024 19:00:00,19.962900,79.298714,NH3,2,8,4
India,Maharashtra,Chandrapur,"Chauhan Colony, Chandrapur - MPCB",17-06-2024 19:00:00,19.962900,79.298714,CO,26,31,28
India,Maharashtra,Chandrapur,"MIDC Khutala, Chandrapur - MPCB",17-06-2024 19:00:00,19.9775302,79.2337086,NH3,3,14,10
India,Maharashtra,Chandrapur,"MIDC Khutala, Chandrapur - MPCB",17-06-2024 19:00:00,19.9775302,79.2337086,SO2,6,97,30
India,Maharashtra,Chandrapur,"MIDC Khutala, Chandrapur - MPCB",17-06-2024 19:00:00,19.9775302,79.2337086,OZONE,11,64,46
India,Maharashtra,Jalgaon,"Prabhat Colony, Jalgaon - MPCB",17-06-2024 19:00:00,21.001264,75.565602,CO,14,37,23
India,Maharashtra,Jalna,"Old MIDC, Jalna - MPCB",17-06-2024 19:00:00,19.854616,75.905894,CO,29,64,47
India,Maharashtra,Kolhapur,"Shivaji University, Kolhapur - MPCB",17-06-2024 19:00:00,16.6870449,74.2505872,PM10,31,84,55
India,Maharashtra,Kolhapur,"Sinchan Bhavan, Kolhapur - MPCB",17-06-2024 19:00:00,16.7143745,74.2426398,OZONE,14,47,37
India,Maharashtra,Latur,"Sawe Wadi, Latur - MPCB",17-06-2024 19:00:00,18.39963,76.57452,NO2,1,71,18
India,Maharashtra,Latur,"Sawe Wadi, Latur - MPCB",17-06-2024 19:00:00,18.39963,76.57452,SO2,3,7,4
India,Maharashtra,Mahad,"Kamble Tarf Birwadi, Mahad - MPCB",17-06-2024 19:00:00,18.1023399,73.4783687,PM10,33,76,49
India,Maharashtra,Mahad,"Kamble Tarf Birwadi, Mahad - MPCB",17-06-2024 19:00:00,18.1023399,73.4783687,OZONE,12,35,19
India,Maharashtra,Malegaon,"Mahesh Nagar, Malegaon - MPCB",17-06-2024 19:00:00,20.555712,74.529236,NO2,6,47,16
India,Maharashtra,Mira-Bhayandar,"Bhayandar West, Mira-Bhayandar - MPCB",17-06-2024 19:00:00,19.296481,72.840923,NH3,5,7,6
India,Maharashtra,Mira-Bhayandar,"Bhayandar West, Mira-Bhayandar - MPCB",17-06-2024 19:00:00,19.296481,72.840923,CO,20,36,21
India,Maharashtra,Mumbai,"Bandra Kurla Complex, Mumbai - MPCB",17-06-2024 19:00:00,19.065931,72.862131,CO,24,44,30
India,Maharashtra,Mumbai,"Borivali East, Mumbai - IITM",17-06-2024 19:00:00,19.23241,72.86895,NO2,19,38,25
India,Maharashtra,Mumbai,"Borivali East, Mumbai - IITM",17-06-2024 19:00:00,19.23241,72.86895,OZONE,22,28,26
India,Maharashtra,Mumbai,"Borivali East, Mumbai - MPCB",17-06-2024 19:00:00,19.2243333,72.8658113,SO2,9,12,10
India,Maharashtra,Mumbai,"Byculla, Mumbai - BMC",17-06-2024 19:00:00,18.9767,72.8380,PM2.5,8,23,16
India,Maharashtra,Mumbai,"Chembur, Mumbai - MPCB",17-06-2024 19:00:00,19.0364585,72.8954371,NO2,12,36,23
India,Maharashtra,Mumbai,"Chembur, Mumbai - MPCB",17-06-2024 19:00:00,19.0364585,72.8954371,SO2,1,11,1
India,Maharashtra,Mumbai,"Chhatrapati Shivaji Intl. Airport (T2), Mumbai - MPCB",17-06-2024 19:00:00,19.10078,72.87462,SO2,16,21,18
India,Maharashtra,Mumbai,"Chhatrapati Shivaji Intl. Airport (T2), Mumbai - MPCB",17-06-2024 19:00:00,19.10078,72.87462,OZONE,11,12,11
India,Maharashtra,Mumbai,"Colaba, Mumbai - MPCB",17-06-2024 19:00:00,18.910000,72.820000,PM2.5,NA,NA,NA
India,Maharashtra,Mumbai,"Colaba, Mumbai - MPCB",17-06-2024 19:00:00,18.910000,72.820000,PM10,NA,NA,NA
India,Maharashtra,Mumbai,"Colaba, Mumbai - MPCB",17-06-2024 19:00:00,18.910000,72.820000,NO2,NA,NA,NA
India,Maharashtra,Mumbai,"Colaba, Mumbai - MPCB",17-06-2024 19:00:00,18.910000,72.820000,NH3,NA,NA,NA
India,Maharashtra,Mumbai,"Deonar, Mumbai - IITM",17-06-2024 19:00:00,19.04946,72.9230,PM2.5,10,47,31
India,Maharashtra,Mumbai,"Deonar, Mumbai - IITM",17-06-2024 19:00:00,19.04946,72.9230,OZONE,1,16,10
India,Maharashtra,Mumbai,"Ghatkopar, Mumbai - BMC",17-06-2024 19:00:00,19.083694,72.920967,PM10,4,21,9
India,Maharashtra,Mumbai,"Ghatkopar, Mumbai - BMC",17-06-2024 19:00:00,19.083694,72.920967,NH3,3,17,9
India,Maharashtra,Mumbai,"Ghatkopar, Mumbai - BMC",17-06-2024 19:00:00,19.083694,72.920967,SO2,1,2,1
India,Maharashtra,Mumbai,"Kherwadi_Bandra East, Mumbai - MPCB",17-06-2024 19:00:00,19.0632143,72.8456324,PM10,50,88,62
India,Maharashtra,Mumbai,"Kherwadi_Bandra East, Mumbai - MPCB",17-06-2024 19:00:00,19.0632143,72.8456324,OZONE,4,39,31
India,Maharashtra,Mumbai,"Khindipada-Bhandup West, Mumbai - IITM",17-06-2024 19:00:00,19.1653323,72.922099,PM2.5,14,35,22
India,Maharashtra,Mumbai,"Khindipada-Bhandup West, Mumbai - IITM",17-06-2024 19:00:00,19.1653323,72.922099,NO2,3,9,5
India,Maharashtra,Mumbai,"Khindipada-Bhandup West, Mumbai - IITM",17-06-2024 19:00:00,19.1653323,72.922099,NH3,1,2,2
India,Maharashtra,Mumbai,"Mulund West, Mumbai - MPCB",17-06-2024 19:00:00,19.1750,72.9419,OZONE,7,8,8
India,Maharashtra,Mumbai,"Navy Nagar-Colaba, Mumbai - IITM",17-06-2024 19:00:00,18.897756,72.813320,NH3,5,13,11
India,Maharashtra,Mumbai,"Navy Nagar-Colaba, Mumbai - IITM",17-06-2024 19:00:00,18.897756,72.813320,SO2,2,15,10
India,Maharashtra,Mumbai,"Powai, Mumbai - MPCB",17-06-2024 19:00:00,19.137500,72.915056,NO2,9,21,16
India,Maharashtra,Mumbai,"Powai, Mumbai - MPCB",17-06-2024 19:00:00,19.137500,72.915056,OZONE,1,8,6
India,Maharashtra,Mumbai,"Sewri, Mumbai - BMC",17-06-2024 19:00:00,19.000084,72.856730,NH3,2,5,3
India,Maharashtra,Mumbai,"Sion, Mumbai - MPCB",17-06-2024 19:00:00,19.047000,72.874600,PM10,NA,NA,NA
India,Maharashtra,Mumbai,"Sion, Mumbai - MPCB",17-06-2024 19:00:00,19.047000,72.874600,NH3,NA,NA,NA
India,Maharashtra,Mumbai,"Sion, Mumbai - MPCB",17-06-2024 19:00:00,19.047000,72.874600,SO2,NA,NA,NA
India,Maharashtra,Mumbai,"Sion, Mumbai - MPCB",17-06-2024 19:00:00,19.047000,72.874600,CO,46,56,47
India,Maharashtra,Mumbai,"Vasai West, Mumbai - MPCB",17-06-2024 19:00:00,19.383200,72.820400,CO,10,30,13
India,Maharashtra,Mumbai,"Vasai West, Mumbai - MPCB",17-06-2024 19:00:00,19.383200,72.820400,OZONE,4,62,16
India,Maharashtra,Mumbai,"Vile Parle West, Mumbai - MPCB",17-06-2024 19:00:00,19.10861,72.83622,CO,32,32,32
India,Maharashtra,Mumbai,"Worli, Mumbai - MPCB",17-06-2024 19:00:00,18.9936162,72.8128113,PM10,NA,NA,NA
India,Maharashtra,Nagpur,"Ambazari, Nagpur - MPCB",17-06-2024 19:00:00,21.121801,79.04952,CO,12,42,20
India,Maharashtra,Nagpur,"Mahal, Nagpur - MPCB",17-06-2024 19:00:00,21.14472,79.107595,CO,20,118,40
India,Maharashtra,Nagpur,"Opp GPO Civil Lines, Nagpur - MPCB",17-06-2024 19:00:00,21.152875,79.0517531,PM2.5,20,63,42
India,Maharashtra,Nagpur,"Opp GPO Civil Lines, Nagpur - MPCB",17-06-2024 19:00:00,21.152875,79.0517531,PM10,30,85,48
India,Maharashtra,Nagpur,"Opp GPO Civil Lines, Nagpur - MPCB",17-06-2024 19:00:00,21.152875,79.0517531,NO2,7,52,18
India,Maharashtra,Nagpur,"Opp GPO Civil Lines, Nagpur - MPCB",17-06-2024 19:00:00,21.152875,79.0517531,CO,6,33,19
India,Maharashtra,Nagpur,"Opp GPO Civil Lines, Nagpur - MPCB",17-06-2024 19:00:00,21.152875,79.0517531,OZONE,12,55,38
India,Maharashtra,Nagpur,"Ram Nagar, Nagpur - MPCB",17-06-2024 19:00:00,21.143383,79.048912,PM2.5,NA,NA,NA
India,Maharashtra,Nagpur,"Ram Nagar, Nagpur - MPCB",17-06-2024 19:00:00,21.143383,79.048912,NO2,NA,NA,NA
India,Maharashtra,Nagpur,"Ram Nagar, Nagpur - MPCB",17-06-2024 19:00:00,21.143383,79.048912,SO2,NA,NA,NA
India,Maharashtra,Nagpur,"Ram Nagar, Nagpur - MPCB",17-06-2024 19:00:00,21.143383,79.048912,CO,6,38,15
India,Maharashtra,Nanded,"Sneh Nagar, Nanded - MPCB",17-06-2024 19:00:00,19.173852,77.296291,PM2.5,11,37,21
India,Maharashtra,Nanded,"Sneh Nagar, Nanded - MPCB",17-06-2024 19:00:00,19.173852,77.296291,PM10,16,55,32
India,Maharashtra,Nashik,"Gangapur Road, Nashik - MPCB",17-06-2024 19:00:00,20.0073285,73.7762427,NO2,18,28,22
India,Maharashtra,Nashik,"Hirawadi, Nashik - MPCB",17-06-2024 19:00:00,20.021503,73.813844,PM2.5,16,38,25
India,Maharashtra,Nashik,"Hirawadi, Nashik - MPCB",17-06-2024 19:00:00,20.021503,73.813844,NO2,4,13,8
India,Maharashtra,Navi Mumbai,"Mahape, Navi Mumbai - MPCB",17-06-2024 19:00:00,19.1135051,73.008978,PM2.5,22,75,35
India,Maharashtra,Navi Mumbai,"Nerul, Navi Mumbai - MPCB",17-06-2024 19:00:00,19.008751,73.016620,NO2,8,37,26
India,Maharashtra,Navi Mumbai,"Nerul, Navi Mumbai - MPCB",17-06-2024 19:00:00,19.008751,73.016620,SO2,8,9,8
India,Maharashtra,Navi Mumbai,"Sanpada, Navi Mumbai - MPCB",17-06-2024 19:00:00,19.0575752,73.0151367,OZONE,5,54,42
India,Maharashtra,Pimpri-Chinchwad,"Gavalinagar, Pimpri Chinchwad - MPCB",17-06-2024 19:00:00,18.63673,73.82487,NO2,32,33,33
India,Maharashtra,Pimpri-Chinchwad,"Gavalinagar, Pimpri Chinchwad - MPCB",17-06-2024 19:00:00,18.63673,73.82487,NH3,4,4,4
India,Maharashtra,Pimpri-Chinchwad,"Gavalinagar, Pimpri Chinchwad - MPCB",17-06-2024 19:00:00,18.63673,73.82487,CO,5,26,7
India,Maharashtra,Pune,"Alandi, Pune - IITM",17-06-2024 19:00:00,18.675076,73.892743,PM2.5,8,26,15
India,Maharashtra,Pune,"Bhosari, Pune - IITM",17-06-2024 19:00:00,18.640051,73.848956,CO,46,64,57
India,Maharashtra,Pune,"Bhosari, Pune - IITM",17-06-2024 19:00:00,18.640051,73.848956,OZONE,8,47,39
India,Maharashtra,Pune,"Karve Road, Pune - MPCB",17-06-2024 19:00:00,18.5011743,73.8165527,SO2,1,18,7
India,Maharashtra,Pune,"Mhada Colony, Pune - IITM",17-06-2024 19:00:00,18.573040,73.927715,CO,12,104,95
India,Maharashtra,Pune,"Revenue Colony-Shivajinagar, Pune - IITM",17-06-2024 19:00:00,18.530085,73.849598,CO,19,39,28
India,Maharashtra,Pune,"Revenue Colony-Shivajinagar, Pune - IITM",17-06-2024 19:00:00,18.530085,73.849598,OZONE,5,34,22
India,Maharashtra,Pune,"Savitribai Phule Pune University, Pune - MPCB",17-06-2024 19:00:00,18.547056,73.826908,NH3,1,4,3
India,Maharashtra,Pune,"Savitribai Phule Pune University, Pune - MPCB",17-06-2024 19:00:00,18.547056,73.826908,SO2,1,8,4
India,Maharashtra,Pune,"Transport Nagar-Nigdi, Pune - IITM",17-06-2024 19:00:00,18.664282,73.763966,NO2,27,35,30
India,Maharashtra,Sangli,"Vijay Nagar, Sangli - MPCB",17-06-2024 19:00:00, 16.5038,74.3623,PM10,16,42,28
India,Maharashtra,Sangli,"Vijay Nagar, Sangli - MPCB",17-06-2024 19:00:00, 16.5038,74.3623,CO,10,26,17
India,Maharashtra,Solapur,"Ratandeep Housing Society, Solapur - MPCB",17-06-2024 19:00:00,17.65439,75.90649,CO,12,62,35
India,Maharashtra,Solapur,"Ratandeep Housing Society, Solapur - MPCB",17-06-2024 19:00:00,17.65439,75.90649,OZONE,9,53,36
India,Maharashtra,Thane,"Kasarvadavali, Thane - MPCB",17-06-2024 19:00:00,19.26777,72.97182,CO,30,47,36
India,Maharashtra,Thane,"Kasarvadavali, Thane - MPCB",17-06-2024 19:00:00,19.26777,72.97182,OZONE,1,6,4
India,Maharashtra,Thane,"Pimpleshwar Mandir, Thane - MPCB",17-06-2024 19:00:00,19.192056,72.9585188,PM10,20,112,69
India,Maharashtra,Thane,"Upvan Fort, Thane - MPCB",17-06-2024 19:00:00,19.222279,72.957979,PM2.5,11,52,32
India,Maharashtra,Thane,"Upvan Fort, Thane - MPCB",17-06-2024 19:00:00,19.222279,72.957979,CO,8,40,17
India,Maharashtra,Ulhasnagar,"Sidhi Vinayak Nagar, Ulhasnagar - MPCB",17-06-2024 19:00:00,19.235581,73.159121,PM2.5,34,77,52
India,Maharashtra,Ulhasnagar,"Sidhi Vinayak Nagar, Ulhasnagar - MPCB",17-06-2024 19:00:00,19.235581,73.159121,NO2,14,20,17
India,Maharashtra,Ulhasnagar,"Sidhi Vinayak Nagar, Ulhasnagar - MPCB",17-06-2024 19:00:00,19.235581,73.159121,NH3,2,3,3
India,Maharashtra,Ulhasnagar,"Sidhi Vinayak Nagar, Ulhasnagar - MPCB",17-06-2024 19:00:00,19.235581,73.159121,SO2,5,15,9
India,Maharashtra,Virar,"Bolinj, Virar - MPCB",17-06-2024 19:00:00,19.4458210,72.7988231,PM10,44,119,82
India,Maharashtra,Virar,"Bolinj, Virar - MPCB",17-06-2024 19:00:00,19.4458210,72.7988231,NO2,12,23,13
India,Manipur,Imphal,"DM College of Science, Imphal - Manipur PCB",17-06-2024 19:00:00,24.8207389,93.9423085,PM10,7,37,20
India,Manipur,Imphal,"Manipur University, Imphal - Manipur PCB",17-06-2024 19:00:00,24.7524239,93.9286218,SO2,98,101,100
India,Meghalaya,Shillong,"Lumpyngngad, Shillong - Meghalaya PCB",17-06-2024 19:00:00,25.5586,91.8985,NO2,1,2,1
India,Nagaland,Kohima,"PWD Juction, Kohima - NPCB",17-06-2024 19:00:00,25.6635413,94.0989878,PM10,37,129,71
India,Nagaland,Kohima,"PWD Juction, Kohima - NPCB",17-06-2024 19:00:00,25.6635413,94.0989878,NO2,3,9,4
India,Nagaland,Kohima,"PWD Juction, Kohima - NPCB",17-06-2024 19:00:00,25.6635413,94.0989878,CO,5,20,12
India,Nagaland,Kohima,"PWD Juction, Kohima - NPCB",17-06-2024 19:00:00,25.6635413,94.0989878,OZONE,6,17,11
India,Odisha,Angul,"Hakimapada, Angul - OSPCB",17-06-2024 19:00:00,20.832874,85.104082,PM2.5,40,310,82
India,Odisha,Balasore,"Kalidaspur, Balasore - OSPCB",17-06-2024 19:00:00,21.51161,86.89088,PM2.5,NA,NA,NA
India,Odisha,Balasore,"Kalidaspur, Balasore - OSPCB",17-06-2024 19:00:00,21.51161,86.89088,SO2,NA,NA,NA
India,Odisha,Barbil,"Forest Office, Barbil - OSPCB",17-06-2024 19:00:00,22.1166054,85.3945546,CO,30,54,37
India,Odisha,Baripada,"Meher Colony, Baripada - OSPCB",17-06-2024 19:00:00,21.941841,86.728318,PM2.5,36,77,60
India,Odisha,Bhubaneswar,"Lingraj Mandir, Bhubaneswar - OSPCB",17-06-2024 19:00:00,20.240790,85.836784,PM10,59,264,105
India,Odisha,Bhubaneswar,"Lingraj Mandir, Bhubaneswar - OSPCB",17-06-2024 19:00:00,20.240790,85.836784,NO2,5,18,10
India,Odisha,Bhubaneswar,"Patia, Bhubaneswar - OSPCB",17-06-2024 19:00:00,20.34652,85.81630,CO,21,39,34
India,Odisha,Byasanagar,"Ferro Chrome Colony, Byasanagar - OSPCB",17-06-2024 19:00:00,20.94185,86.11510,NO2,9,21,13
India,Odisha,Byasanagar,"Ferro Chrome Colony, Byasanagar - OSPCB",17-06-2024 19:00:00,20.94185,86.11510,CO,27,42,36
India,Odisha,Cuttack,"CDA Area, Cuttack - OSPCB",17-06-2024 19:00:00,20.48891     ,85.84768     ,PM10,46,137,76
India,Odisha,Keonjhar,"Jagamohanpur, Keonjhar - OSPCB",17-06-2024 19:00:00,21.643900,85.599355,PM2.5,8,89,60
India,Odisha,Keonjhar,"Jagamohanpur, Keonjhar - OSPCB",17-06-2024 19:00:00,21.643900,85.599355,NH3,2,3,3
India,Odisha,Keonjhar,"Jagamohanpur, Keonjhar - OSPCB",17-06-2024 19:00:00,21.643900,85.599355,OZONE,6,68,31
India,Odisha,Nayagarh,"Dabuna, Nayagarh - OSPCB",17-06-2024 19:00:00,21.847279,85.416905,NH3,1,5,5
India,Odisha,Nayagarh,"Dabuna, Nayagarh - OSPCB",17-06-2024 19:00:00,21.847279,85.416905,SO2,1,3,2
India,Odisha,Rairangpur,"Divisional Forest Office, Rairangpur - OSPCB",17-06-2024 19:00:00,22.265816,86.174829,NH3,4,4,4
India,Odisha,Rourkela,"Fertilizer Township, Rourkela - OSPCB",17-06-2024 19:00:00,22.18972222,84.86277778,SO2,9,14,13
India,Odisha,Rourkela,"Raghunathpali, Rourkela - OSPCB",17-06-2024 19:00:00,22.220833,84.809444,PM2.5,58,170,100
India,Odisha,Rourkela,"Raghunathpali, Rourkela - OSPCB",17-06-2024 19:00:00,22.220833,84.809444,NO2,20,66,39
India,Odisha,Suakati,"OMC Colony, Suakati - OSPCB",17-06-2024 19:00:00,21.606865,85.510538,NO2,14,16,14
India,Odisha,Suakati,"OMC Colony, Suakati - OSPCB",17-06-2024 19:00:00,21.606865,85.510538,NH3,4,4,4
India,Odisha,Talcher,"Talcher Coalfields,Talcher - OSPCB",17-06-2024 19:00:00,20.9360711,85.1707021,SO2,20,31,24
India,Puducherry,Puducherry,"Jawahar Nagar, Puducherry - PPCC",17-06-2024 19:00:00,11.9309,79.8027,CO,14,31,25
India,Punjab,Amritsar,"Golden Temple, Amritsar - PPCB",17-06-2024 19:00:00,31.620000,74.876512,NO2,6,217,70
India,Punjab,Amritsar,"Golden Temple, Amritsar - PPCB",17-06-2024 19:00:00,31.620000,74.876512,CO,13,69,38
India,Punjab,Amritsar,"Golden Temple, Amritsar - PPCB",17-06-2024 19:00:00,31.620000,74.876512,OZONE,47,67,55
India,Punjab,Jalandhar,"Civil Line, Jalandhar - PPCB",17-06-2024 19:00:00,31.321907,75.578914,NH3,2,5,3
India,Punjab,Khanna,"Kalal Majra, Khanna - PPCB",17-06-2024 19:00:00,30.736056 ,76.209694,NO2,30,30,30
India,Punjab,Khanna,"Kalal Majra, Khanna - PPCB",17-06-2024 19:00:00,30.736056 ,76.209694,OZONE,6,34,27
India,Punjab,Ludhiana,"Punjab Agricultural University, Ludhiana - PPCB",17-06-2024 19:00:00,30.9028,75.8086,NH3,NA,NA,NA
India,Punjab,Rupnagar,"Ratanpura, Rupnagar - Ambuja Cements",17-06-2024 19:00:00,31.0325454,76.5623046,NO2,1,48,18
India,Rajasthan,Ajmer,"Civil Lines,  Ajmer - RSPCB",17-06-2024 19:00:00,26.470859,74.646594,SO2,8,18,14
India,Rajasthan,Alwar,"Moti Doongri, Alwar - RSPCB",17-06-2024 19:00:00,27.554793,76.611536,PM10,59,106,75
India,Rajasthan,Banswara,"Rati Talai, Banswara - RSPCB",17-06-2024 19:00:00,23.555190,74.440010,PM2.5,46,99,70
India,Rajasthan,Banswara,"Rati Talai, Banswara - RSPCB",17-06-2024 19:00:00,23.555190,74.440010,NH3,2,6,3
India,Rajasthan,Barmer,"Railway Colony, Barmer - RSPCB",17-06-2024 19:00:00,25.747299,71.393989,NH3,2,29,9
India,Rajasthan,Barmer,"Railway Colony, Barmer - RSPCB",17-06-2024 19:00:00,25.747299,71.393989,SO2,2,6,4
India,Rajasthan,Bharatpur,"Krishna Nagar, Bharatpur - RSPCB",17-06-2024 19:00:00,27.215415,77.50873,PM10,48,121,73
India,Rajasthan,Bharatpur,"Krishna Nagar, Bharatpur - RSPCB",17-06-2024 19:00:00,27.215415,77.50873,NH3,1,8,1
India,Rajasthan,Bhilwara,"Pratap Nagar, Bhilwara - RSPCB",17-06-2024 19:00:00,25.339605,74.618883,NH3,1,6,2
India,Rajasthan,Bhiwadi,"RIICO Ind. Area III, Bhiwadi - RSPCB",17-06-2024 19:00:00,28.194909,76.862296,SO2,9,18,13
India,Rajasthan,Bhiwadi,"RIICO Ind. Area III, Bhiwadi - RSPCB",17-06-2024 19:00:00,28.194909,76.862296,CO,46,106,82
India,Rajasthan,Bikaner,"MM Ground, Bikaner - RSPCB",17-06-2024 19:00:00,28.018792,73.292658,NH3,7,8,7
India,Rajasthan,Bundi,"New Colony, Bundi - RSPCB",17-06-2024 19:00:00,25.435774,75.644272,NO2,5,31,16
India,Rajasthan,Chittorgarh,"Shastri Nagar, Chittorgarh - RSPCB",17-06-2024 19:00:00,24.892047,74.623527,NO2,9,45,19
India,Rajasthan,Chittorgarh,"Shastri Nagar, Chittorgarh - RSPCB",17-06-2024 19:00:00,24.892047,74.623527,CO,10,22,13
India,Rajasthan,Dholpur,"Raja Ganj, Dholpur - RSPCB",17-06-2024 19:00:00,26.699557,77.898881,SO2,3,6,4
India,Rajasthan,Dholpur,"Raja Ganj, Dholpur - RSPCB",17-06-2024 19:00:00,26.699557,77.898881,OZONE,38,79,70
India,Rajasthan,Dungarpur,"Bhoiwada, Dungarpur - RSPCB",17-06-2024 19:00:00,23.837789,73.714926,NO2,NA,NA,NA
India,Rajasthan,Dungarpur,"Bhoiwada, Dungarpur - RSPCB",17-06-2024 19:00:00,23.837789,73.714926,SO2,NA,NA,NA
India,Rajasthan,Dungarpur,"Bhoiwada, Dungarpur - RSPCB",17-06-2024 19:00:00,23.837789,73.714926,OZONE,78,107,92
India,Rajasthan,Jaipur,"Mansarovar Sector-12, Jaipur - RSPCB",17-06-2024 19:00:00,26.843698,75.766894,SO2,1,5,2
India,Rajasthan,Jaipur,"Mansarovar Sector-12, Jaipur - RSPCB",17-06-2024 19:00:00,26.843698,75.766894,CO,10,24,13
India,Rajasthan,Jaipur,"Mansarovar Sector-12, Jaipur - RSPCB",17-06-2024 19:00:00,26.843698,75.766894,OZONE,32,144,127
India,Rajasthan,Jaipur,"Police Commissionerate, Jaipur - RSPCB",17-06-2024 19:00:00,26.9164092,75.7994901,NO2,18,37,25
India,Rajasthan,Jaipur,"RIICO Sitapura, Jaipur - RSPCB",17-06-2024 19:00:00,26.786682,75.827928,PM2.5,33,118,67
India,Rajasthan,Jaipur,"Sector-2 Murlipura, Jaipur - RSPCB",17-06-2024 19:00:00,26.960669,75.771817,NO2,NA,NA,NA
India,Rajasthan,Jaipur,"Shastri Nagar, Jaipur - RSPCB",17-06-2024 19:00:00,26.9502929,75.730943,SO2,1,37,15
India,Rajasthan,Jaisalmer,"Sadar Bazar, Jaisalmer - RSPCB",17-06-2024 19:00:00,26.912329,70.909168,NO2,7,17,11
India,Rajasthan,Jaisalmer,"Sadar Bazar, Jaisalmer - RSPCB",17-06-2024 19:00:00,26.912329,70.909168,SO2,3,7,4
India,Rajasthan,Jalore,"Mudtra Sili, Jalore - RSPCB",17-06-2024 19:00:00,25.344694,72.626208,PM10,49,117,84
India,Rajasthan,Jalore,"Mudtra Sili, Jalore - RSPCB",17-06-2024 19:00:00,25.344694,72.626208,SO2,1,4,2
India,Rajasthan,Jhalawar,"Rajlaxmi Nagar, Jhalawar - RSPCB",17-06-2024 19:00:00,24.588397,76.172782,NO2,14,50,20
India,Rajasthan,Jhalawar,"Rajlaxmi Nagar, Jhalawar - RSPCB",17-06-2024 19:00:00,24.588397,76.172782,SO2,2,12,5
India,Rajasthan,Jhunjhunu,"Indra Nagar, Jhunjhunu - RSPCB",17-06-2024 19:00:00,28.108988,75.386577,PM10,67,156,104
India,Rajasthan,Jhunjhunu,"Indra Nagar, Jhunjhunu - RSPCB",17-06-2024 19:00:00,28.108988,75.386577,NO2,8,16,11
India,Rajasthan,Jodhpur,"Digari Kalan, Jodhpur - RSPCB",17-06-2024 19:00:00,26.295810,73.082283,NO2,3,13,6
India,Rajasthan,Jodhpur,"Jhalamand, Jodhpur - RSPCB",17-06-2024 19:00:00,26.215415,73.070156,PM2.5,21,43,31
India,Rajasthan,Jodhpur,"Jhalamand, Jodhpur - RSPCB",17-06-2024 19:00:00,26.215415,73.070156,NH3,2,4,3
India,Rajasthan,Jodhpur,"Jhalamand, Jodhpur - RSPCB",17-06-2024 19:00:00,26.215415,73.070156,OZONE,28,60,51
India,Rajasthan,Jodhpur,"Mandor, Jodhpur - RSPCB",17-06-2024 19:00:00,26.358805,73.047444,PM10,51,116,66
India,Rajasthan,Jodhpur,"Mandor, Jodhpur - RSPCB",17-06-2024 19:00:00,26.358805,73.047444,NH3,2,4,3
India,Rajasthan,Jodhpur,"Mandor, Jodhpur - RSPCB",17-06-2024 19:00:00,26.358805,73.047444,OZONE,32,61,56
India,Rajasthan,Karauli,"Satyawati Vihar, Karauli - RSPCB",17-06-2024 19:00:00,26.506177,77.025989,PM2.5,NA,NA,NA
India,Rajasthan,Karauli,"Satyawati Vihar, Karauli - RSPCB",17-06-2024 19:00:00,26.506177,77.025989,SO2,2,16,6
India,Rajasthan,Kota,"Dhanmandi, Kota - RSPCB",17-06-2024 19:00:00,25.164090,75.858137,PM10,38,118,69
India,Rajasthan,Kota,"Dhanmandi, Kota - RSPCB",17-06-2024 19:00:00,25.164090,75.858137,NH3,4,4,4
India,Rajasthan,Kota,"Shrinath Puram, Kota - RSPCB",17-06-2024 19:00:00,25.14389,75.821256,PM2.5,30,69,49
India,Rajasthan,Nagaur,"Karni Colony, Nagaur - RSPCB",17-06-2024 19:00:00,27.213494,73.734444,PM2.5,23,51,33
India,Rajasthan,Nagaur,"Karni Colony, Nagaur - RSPCB",17-06-2024 19:00:00,27.213494,73.734444,PM10,57,106,83
India,Rajasthan,Nagaur,"Karni Colony, Nagaur - RSPCB",17-06-2024 19:00:00,27.213494,73.734444,NH3,4,13,8
India,Rajasthan,Nagaur,"Karni Colony, Nagaur - RSPCB",17-06-2024 19:00:00,27.213494,73.734444,CO,28,62,42
India,Rajasthan,Pali,"Indira Colony Vistar, Pali - RSPCB",17-06-2024 19:00:00,25.771061, 73.340227,NH3,2,7,4
India,Rajasthan,Pali,"Indira Colony Vistar, Pali - RSPCB",17-06-2024 19:00:00,25.771061, 73.340227,OZONE,15,36,27
India,Rajasthan,Pratapgarh,"Pragati Nagar, Pratapgarh - RSPCB",17-06-2024 19:00:00,24.041198,74.780702,PM2.5,6,36,18
India,Rajasthan,Pratapgarh,"Pragati Nagar, Pratapgarh - RSPCB",17-06-2024 19:00:00,24.041198,74.780702,OZONE,29,85,78
India,Rajasthan,Rajsamand,"Dhoinda, Rajsamand - RSPCB",17-06-2024 19:00:00,25.036360,73.883502,PM2.5,3,32,17
India,Rajasthan,Rajsamand,"Dhoinda, Rajsamand - RSPCB",17-06-2024 19:00:00,25.036360,73.883502,CO,12,52,30
India,Rajasthan,Sawai Madhopur,"Sahu Nagar, Sawai Madhopur - RSPCB",17-06-2024 19:00:00,26.031443,76.359327,PM10,54,154,101
India,Rajasthan,Sikar,"Radhakishan Pura, Sikar - RSPCB",17-06-2024 19:00:00,27.608912,75.153302,PM10,75,193,111
India,Rajasthan,Sikar,"Radhakishan Pura, Sikar - RSPCB",17-06-2024 19:00:00,27.608912,75.153302,NO2,9,27,14
India,Rajasthan,Sikar,"Radhakishan Pura, Sikar - RSPCB",17-06-2024 19:00:00,27.608912,75.153302,CO,16,45,32
India,Rajasthan,Sirohi,"Vedhaynath Colony, Sirohi - RSPCB",17-06-2024 19:00:00,24.885261,72.857549,PM10,31,64,47
India,Rajasthan,Sirohi,"Vedhaynath Colony, Sirohi - RSPCB",17-06-2024 19:00:00,24.885261,72.857549,NO2,1,7,3
India,Rajasthan,Sirohi,"Vedhaynath Colony, Sirohi - RSPCB",17-06-2024 19:00:00,24.885261,72.857549,SO2,1,4,3
India,Rajasthan,Sri Ganganagar,"Old City, Sri Ganganagar - RSPCB",17-06-2024 19:00:00,29.931624,73.864511,PM10,135,279,188
India,Rajasthan,Sri Ganganagar,"Old City, Sri Ganganagar - RSPCB",17-06-2024 19:00:00,29.931624,73.864511,NH3,12,26,18
India,Rajasthan,Sri Ganganagar,"Old City, Sri Ganganagar - RSPCB",17-06-2024 19:00:00,29.931624,73.864511,CO,3,135,52
India,Sikkim,Gangtok,"Zero Point GICI, Gangtok - SSPCB",17-06-2024 19:00:00,27.338530,88.614099,NH3,NA,NA,NA
India,TamilNadu,Chennai,"Alandur Bus Depot, Chennai - CPCB",17-06-2024 19:00:00,12.9099161,80.1076538,PM2.5,25,27,25
India,TamilNadu,Chennai,"Kodungaiyur, Chennai - TNPCB",17-06-2024 19:00:00,13.1278,80.2642,PM10,NA,NA,NA
India,TamilNadu,Chennai,"Kodungaiyur, Chennai - TNPCB",17-06-2024 19:00:00,13.1278,80.2642,SO2,NA,NA,NA
India,TamilNadu,Chennai,"Manali, Chennai - CPCB",17-06-2024 19:00:00,13.164544,80.26285,SO2,4,9,6
India,TamilNadu,Chennai,"Perungudi, Chennai - TNPCB",17-06-2024 19:00:00,12.9533,80.2357,PM10,12,92,53
India,TamilNadu,Chennai,"Royapuram, Chennai - TNPCB",17-06-2024 19:00:00,13.1036,80.2909,NO2,13,36,25
India,TamilNadu,Chennai,"Royapuram, Chennai - TNPCB",17-06-2024 19:00:00,13.1036,80.2909,SO2,1,10,4
India,TamilNadu,Gummidipoondi,"Anthoni Pillai Nagar, Gummidipoondi - TNPCB",17-06-2024 19:00:00,13.4127,80.1081,NH3,1,3,2
India,TamilNadu,Ooty,"Bombay Castel, Ooty - TNPCB",17-06-2024 19:00:00,11.4068288,76.7138973,CO,24,24,24
India,TamilNadu,Ramanathapuram,"Chalai Bazaar, Ramanathapuram - TNPCB",17-06-2024 19:00:00,9.36399,78.831977,PM2.5,10,30,20
India,TamilNadu,Salem,"Sona College of Technology, Salem - TNPCB",17-06-2024 19:00:00,11.679111,78.125052,CO,38,40,38
India,TamilNadu,Thoothukudi,"Meelavittan, Thoothukudi - TNPCB",17-06-2024 19:00:00,8.816428 ,78.099039,NO2,30,48,36
India,TamilNadu,Tirupur,"Kumaran College, Tirupur - TNPCB",17-06-2024 19:00:00,11.0973603,77.3228673,NO2,2,15,8
India,TamilNadu,Tirupur,"Kumaran College, Tirupur - TNPCB",17-06-2024 19:00:00,11.0973603,77.3228673,NH3,NA,NA,NA
India,Telangana,Hyderabad,"Bollaram Industrial Area, Hyderabad - TSPCB",17-06-2024 19:00:00,17.540891,78.358528,PM2.5,13,40,27
India,Telangana,Hyderabad,"Bollaram Industrial Area, Hyderabad - TSPCB",17-06-2024 19:00:00,17.540891,78.358528,SO2,5,68,27
India,Telangana,Hyderabad,"Central University, Hyderabad - TSPCB",17-06-2024 19:00:00,17.460103,78.334361,OZONE,3,4,4
India,Telangana,Hyderabad,"IITH Kandi, Hyderabad - TSPCB",17-06-2024 19:00:00,17.585705,78.126199,OZONE,NA,NA,NA
India,Telangana,Hyderabad,"New Malakpet, Hyderabad - TSPCB",17-06-2024 19:00:00,17.37206,78.50864,PM10,68,106,76
India,Telangana,Hyderabad,"New Malakpet, Hyderabad - TSPCB",17-06-2024 19:00:00,17.37206,78.50864,NH3,2,4,3
India,Telangana,Hyderabad,"Sanathnagar, Hyderabad - TSPCB",17-06-2024 19:00:00,17.4559458,78.4332152,PM2.5,21,262,42
India,Telangana,Hyderabad,"Sanathnagar, Hyderabad - TSPCB",17-06-2024 19:00:00,17.4559458,78.4332152,NO2,28,33,30
India,Telangana,Hyderabad,"Sanathnagar, Hyderabad - TSPCB",17-06-2024 19:00:00,17.4559458,78.4332152,SO2,1,11,6
India,Telangana,Hyderabad,"Sanathnagar, Hyderabad - TSPCB",17-06-2024 19:00:00,17.4559458,78.4332152,CO,24,38,26
India,Telangana,Hyderabad,"Somajiguda, Hyderabad - TSPCB",17-06-2024 19:00:00,17.417094,78.457437,PM10,NA,NA,NA
India,Telangana,Hyderabad,"Somajiguda, Hyderabad - TSPCB",17-06-2024 19:00:00,17.417094,78.457437,SO2,NA,NA,NA
India,Telangana,Hyderabad,"Somajiguda, Hyderabad - TSPCB",17-06-2024 19:00:00,17.417094,78.457437,OZONE,9,37,31
India,Telangana,Hyderabad,"Zoo Park, Hyderabad - TSPCB",17-06-2024 19:00:00,17.349694,78.451437,OZONE,15,33,22
India,Tripura,Agartala,"Bardowali, Agartala - Tripura SPCB",17-06-2024 19:00:00,23.8175497,91.2726974,SO2,36,37,36
India,Uttar_Pradesh,Agra,"Rohta, Agra - UPPCB",17-06-2024 19:00:00,27.106972,78.000111,OZONE,21,22,22
India,Uttar_Pradesh,Agra,"Sanjay Palace, Agra - UPPCB",17-06-2024 19:00:00,27.19865833,78.00598056,CO,4,109,13
India,Uttar_Pradesh,Agra,"Sector-3B Avas Vikas Colony, Agra - UPPCB",17-06-2024 19:00:00,27.19412,77.96237,PM2.5,14,46,22
India,Uttar_Pradesh,Agra,"Sector-3B Avas Vikas Colony, Agra - UPPCB",17-06-2024 19:00:00,27.19412,77.96237,NO2,43,49,47
India,Uttar_Pradesh,Agra,"Sector-3B Avas Vikas Colony, Agra - UPPCB",17-06-2024 19:00:00,27.19412,77.96237,NH3,3,14,7
India,Uttar_Pradesh,Agra,"Shahjahan Garden, Agra - UPPCB",17-06-2024 19:00:00,27.169338,78.03582,PM2.5,24,55,36
India,Uttar_Pradesh,Agra,"Shahjahan Garden, Agra - UPPCB",17-06-2024 19:00:00,27.169338,78.03582,OZONE,1,8,7
India,Uttar_Pradesh,Agra,"Shastripuram, Agra - UPPCB",17-06-2024 19:00:00,27.19862,77.92066,NH3,NA,NA,NA
India,Uttar_Pradesh,Agra,"Shastripuram, Agra - UPPCB",17-06-2024 19:00:00,27.19862,77.92066,CO,3,16,10
India,Uttar_Pradesh,Agra,"Shastripuram, Agra - UPPCB",17-06-2024 19:00:00,27.19862,77.92066,OZONE,1,8,6
India,Uttar_Pradesh,Bareilly,"Civil Lines, Bareilly - UPPCB",17-06-2024 19:00:00,28.359581,79.414455,OZONE,1,8,3
India,Uttar_Pradesh,Bareilly,"Rajendra Nagar, Bareilly - UPPCB",17-06-2024 19:00:00,28.38910936,79.42963708,PM10,66,86,76
India,Uttar_Pradesh,Bulandshahr,"Yamunapuram, Bulandshahr - UPPCB",17-06-2024 19:00:00,28.406963,77.849831,NO2,8,115,46
India,Uttar_Pradesh,Bulandshahr,"Yamunapuram, Bulandshahr - UPPCB",17-06-2024 19:00:00,28.406963,77.849831,CO,2,64,32
India,Uttar_Pradesh,Firozabad,"Vibhab Nagar, Firozabad - UPPCB",17-06-2024 19:00:00,27.1594,78.3953,PM2.5,41,71,52
India,Uttar_Pradesh,Firozabad,"Vibhab Nagar, Firozabad - UPPCB",17-06-2024 19:00:00,27.1594,78.3953,PM10,55,96,70
India,Uttar_Pradesh,Ghaziabad,"Indirapuram, Ghaziabad - UPPCB",17-06-2024 19:00:00,28.646233,77.358075,NO2,23,98,50
India,Uttar_Pradesh,Ghaziabad,"Indirapuram, Ghaziabad - UPPCB",17-06-2024 19:00:00,28.646233,77.358075,SO2,3,9,6
India,Uttar_Pradesh,Ghaziabad,"Sanjay Nagar, Ghaziabad - UPPCB",17-06-2024 19:00:00,28.685382,77.453839,PM2.5,24,82,48
India,Uttar_Pradesh,Ghaziabad,"Sanjay Nagar, Ghaziabad - UPPCB",17-06-2024 19:00:00,28.685382,77.453839,NO2,19,104,53
India,Uttar_Pradesh,Ghaziabad,"Sanjay Nagar, Ghaziabad - UPPCB",17-06-2024 19:00:00,28.685382,77.453839,NH3,6,11,8
India,Uttar_Pradesh,Ghaziabad,"Sanjay Nagar, Ghaziabad - UPPCB",17-06-2024 19:00:00,28.685382,77.453839,SO2,10,31,22
India,Uttar_Pradesh,Ghaziabad,"Vasundhara, Ghaziabad - UPPCB",17-06-2024 19:00:00,28.6603346,77.3572563,PM2.5,24,52,39
India,Uttar_Pradesh,Ghaziabad,"Vasundhara, Ghaziabad - UPPCB",17-06-2024 19:00:00,28.6603346,77.3572563,NH3,5,12,8
India,Uttar_Pradesh,Gorakhpur,"Madan Mohan Malaviya University of Technology, Gorakhpur - UPPCB",17-06-2024 19:00:00,26.730136,83.433859,NO2,11,12,11
India,Uttar_Pradesh,Greater Noida,"Knowledge Park - III, Greater Noida - UPPCB",17-06-2024 19:00:00,28.47272,77.482000,PM2.5,44,137,83
India,Uttar_Pradesh,Greater Noida,"Knowledge Park - III, Greater Noida - UPPCB",17-06-2024 19:00:00,28.47272,77.482000,PM10,146,251,183
India,Uttar_Pradesh,Greater Noida,"Knowledge Park - V, Greater Noida - UPPCB",17-06-2024 19:00:00,28.557054,77.453663,OZONE,1,92,79
India,Uttar_Pradesh,Hapur,"Anand Vihar, Hapur - UPPCB",17-06-2024 19:00:00,28.725645,77.749675,NH3,NA,NA,NA
India,Uttar_Pradesh,Hapur,"Anand Vihar, Hapur - UPPCB",17-06-2024 19:00:00,28.725645,77.749675,OZONE,1,12,6
India,Uttar_Pradesh,Jhansi,"Shivaji Nagar, Jhansi - UPPCB",17-06-2024 19:00:00,25.4547,78.6039,PM2.5,NA,NA,NA
India,Uttar_Pradesh,Jhansi,"Shivaji Nagar, Jhansi - UPPCB",17-06-2024 19:00:00,25.4547,78.6039,CO,6,24,8
India,Uttar_Pradesh,Jhansi,"Shivaji Nagar, Jhansi - UPPCB",17-06-2024 19:00:00,25.4547,78.6039,OZONE,7,71,42
India,Uttar_Pradesh,Kanpur,"FTI Kidwai Nagar, Kanpur - UPPCB",17-06-2024 19:00:00,26.428282,80.327067,NH3,2,3,2
India,Uttar_Pradesh,Kanpur,"NSI Kalyanpur, Kanpur - UPPCB",17-06-2024 19:00:00,26.509954,80.249612,OZONE,6,70,53
India,Uttar_Pradesh,Kanpur,"Nehru Nagar, Kanpur - UPPCB",17-06-2024 19:00:00,26.4703136,80.3229863,SO2,NA,NA,NA
India,Uttar_Pradesh,Kanpur,"Nehru Nagar, Kanpur - UPPCB",17-06-2024 19:00:00,26.4703136,80.3229863,OZONE,16,126,102
India,Uttar_Pradesh,Khurja,"Kalindi Kunj, Khurja - UPPCB",17-06-2024 19:00:00,28.2348927,77.8683002,NO2,16,29,21
India,Uttar_Pradesh,Khurja,"Kalindi Kunj, Khurja - UPPCB",17-06-2024 19:00:00,28.2348927,77.8683002,SO2,55,103,77
India,Uttar_Pradesh,Khurja,"Kalindi Kunj, Khurja - UPPCB",17-06-2024 19:00:00,28.2348927,77.8683002,CO,24,44,27
India,Uttar_Pradesh,Lucknow,"B R Ambedkar University, Lucknow - UPPCB",17-06-2024 19:00:00,26.766433,80.927299,NO2,11,12,11
India,Uttar_Pradesh,Lucknow,"Gomti Nagar, Lucknow - UPPCB",17-06-2024 19:00:00,26.868120,81.005119,PM2.5,7,226,117
India,Uttar_Pradesh,Lucknow,"Kendriya Vidyalaya, Lucknow - CPCB",17-06-2024 19:00:00,26.906111,80.948222,PM2.5,121,271,191
India,Uttar_Pradesh,Lucknow,"Kendriya Vidyalaya, Lucknow - CPCB",17-06-2024 19:00:00,26.906111,80.948222,CO,24,54,40
India,Uttar_Pradesh,Lucknow,"Kendriya Vidyalaya, Lucknow - CPCB",17-06-2024 19:00:00,26.906111,80.948222,OZONE,16,93,77
India,Uttar_Pradesh,Lucknow,"Kukrail Picnic Spot-1, Lucknow - UPPCB",17-06-2024 19:00:00,26.90723,80.98579,NH3,2,2,2
India,Uttar_Pradesh,Lucknow,"Lalbagh, Lucknow - CPCB",17-06-2024 19:00:00,26.8458805,80.9365541,NH3,17,17,17
India,Uttar_Pradesh,Lucknow,"Lalbagh, Lucknow - CPCB",17-06-2024 19:00:00,26.8458805,80.9365541,SO2,1,27,12
India,Uttar_Pradesh,Lucknow,"Talkatora District Industries Center, Lucknow - CPCB",17-06-2024 19:00:00,26.83399722,80.8917361,NO2,12,14,13
India,Uttar_Pradesh,Lucknow,"Talkatora District Industries Center, Lucknow - CPCB",17-06-2024 19:00:00,26.83399722,80.8917361,NH3,4,5,5
India,Uttar_Pradesh,Meerut,"Ganga Nagar, Meerut - UPPCB",17-06-2024 19:00:00,28.999264,77.7590354,PM2.5,12,58,35
India,Uttar_Pradesh,Meerut,"Ganga Nagar, Meerut - UPPCB",17-06-2024 19:00:00,28.999264,77.7590354,OZONE,3,34,32
India,Uttar_Pradesh,Meerut,"Jai Bhim Nagar, Meerut - UPPCB",17-06-2024 19:00:00,28.9535882,77.7622941,PM2.5,32,104,61
India,Uttar_Pradesh,Meerut,"Jai Bhim Nagar, Meerut - UPPCB",17-06-2024 19:00:00,28.9535882,77.7622941,SO2,8,24,14
India,Uttar_Pradesh,Meerut,"Pallavpuram Phase 2, Meerut - UPPCB",17-06-2024 19:00:00,29.063510,77.709723,SO2,16,85,32
India,Uttar_Pradesh,Moradabad,"Buddhi Vihar, Moradabad - UPPCB",17-06-2024 19:00:00,28.83526,78.74460,PM10,93,139,116
India,Uttar_Pradesh,Moradabad,"Buddhi Vihar, Moradabad - UPPCB",17-06-2024 19:00:00,28.83526,78.74460,SO2,27,45,35
India,Uttar_Pradesh,Moradabad,"Eco Herbal Park, Moradabad - UPPCB",17-06-2024 19:00:00,28.840739,78.697531,CO,10,48,14
India,Uttar_Pradesh,Moradabad,"Eco Herbal Park, Moradabad - UPPCB",17-06-2024 19:00:00,28.840739,78.697531,OZONE,22,123,100
India,Uttar_Pradesh,Moradabad,"Employment Office, Moradabad - UPPCB",17-06-2024 19:00:00,28.88528,78.73880,OZONE,13,65,59
India,Uttar_Pradesh,Moradabad,"Jigar Colony, Moradabad - UPPCB",17-06-2024 19:00:00,28.856664,78.772638,CO,23,42,28
India,Uttar_Pradesh,Moradabad,"Kashiram Nagar, Moradabad - UPPCB",17-06-2024 19:00:00,28.849399,78.742362,OZONE,2,68,41
India,Uttar_Pradesh,Moradabad,"Transport Nagar, Moradabad - UPPCB",17-06-2024 19:00:00,28.802625,78.753728,PM2.5,NA,NA,NA
India,Uttar_Pradesh,Moradabad,"Transport Nagar, Moradabad - UPPCB",17-06-2024 19:00:00,28.802625,78.753728,PM10,NA,NA,NA
India,Uttar_Pradesh,Moradabad,"Transport Nagar, Moradabad - UPPCB",17-06-2024 19:00:00,28.802625,78.753728,SO2,20,55,35
India,Uttar_Pradesh,Muzaffarnagar,"New Mandi, Muzaffarnagar - UPPCB",17-06-2024 19:00:00,29.4723508,77.7194031,PM2.5,52,160,91
India,Uttar_Pradesh,Muzaffarnagar,"New Mandi, Muzaffarnagar - UPPCB",17-06-2024 19:00:00,29.4723508,77.7194031,NO2,8,32,14
India,Uttar_Pradesh,Noida,"Sector - 62, Noida - IMD",17-06-2024 19:00:00,28.6245479,77.3577104,NO2,NA,NA,NA
India,Uttar_Pradesh,Noida,"Sector-1, Noida - UPPCB",17-06-2024 19:00:00,28.5898,77.3101,PM10,144,215,177
India,Uttar_Pradesh,Noida,"Sector-1, Noida - UPPCB",17-06-2024 19:00:00,28.5898,77.3101,NO2,NA,NA,NA
India,Uttar_Pradesh,Noida,"Sector-1, Noida - UPPCB",17-06-2024 19:00:00,28.5898,77.3101,SO2,NA,NA,NA
India,Uttar_Pradesh,Noida,"Sector-116, Noida - UPPCB",17-06-2024 19:00:00,28.569230,77.393848,NH3,7,18,11
India,Uttar_Pradesh,Prayagraj,"Jhunsi, Prayagraj - UPPCB",17-06-2024 19:00:00,25.425602,81.917152,PM10,37,167,78
India,Uttar_Pradesh,Prayagraj,"Motilal Nehru NIT, Prayagraj - UPPCB",17-06-2024 19:00:00,25.494,81.863,NO2,12,12,12
India,Uttar_Pradesh,Prayagraj,"Motilal Nehru NIT, Prayagraj - UPPCB",17-06-2024 19:00:00,25.494,81.863,SO2,14,42,25
India,Uttar_Pradesh,Prayagraj,"Motilal Nehru NIT, Prayagraj - UPPCB",17-06-2024 19:00:00,25.494,81.863,OZONE,14,37,26
India,Uttar_Pradesh,Prayagraj,"Nagar Nigam, Prayagraj - UPPCB",17-06-2024 19:00:00,25.44919916 ,81.82735986 ,PM2.5,43,186,75
India,Uttar_Pradesh,Prayagraj,"Nagar Nigam, Prayagraj - UPPCB",17-06-2024 19:00:00,25.44919916 ,81.82735986 ,NH3,3,6,4
India,Uttar_Pradesh,Prayagraj,"Nagar Nigam, Prayagraj - UPPCB",17-06-2024 19:00:00,25.44919916 ,81.82735986 ,OZONE,10,12,11
India,Uttar_Pradesh,Varanasi,"Bhelupur, Varanasi - UPPCB",17-06-2024 19:00:00,25.301778,82.996789,PM2.5,5,14,8
India,Uttar_Pradesh,Varanasi,"Bhelupur, Varanasi - UPPCB",17-06-2024 19:00:00,25.301778,82.996789,PM10,26,65,38
India,Uttar_Pradesh,Varanasi,"Bhelupur, Varanasi - UPPCB",17-06-2024 19:00:00,25.301778,82.996789,OZONE,5,30,20
India,Uttar_Pradesh,Varanasi,"IESD Banaras Hindu University, Varanasi - UPPCB",17-06-2024 19:00:00,25.262326,82.995408,PM10,22,48,31
India,Uttar_Pradesh,Varanasi,"Maldahiya, Varanasi - UPPCB",17-06-2024 19:00:00,25.32393,82.99687,NH3,1,1,1
India,Uttar_Pradesh,Vrindavan,"Omex Eternity, Vrindavan - UPPCB",17-06-2024 19:00:00,27.5714090,77.6557570,PM10,41,237,85
India,Uttar_Pradesh,Vrindavan,"Omex Eternity, Vrindavan - UPPCB",17-06-2024 19:00:00,27.5714090,77.6557570,NO2,12,12,12
India,Uttarakhand,Dehradun,"Doon University, Dehradun - UKPCB",17-06-2024 19:00:00,30.269444,78.044167,PM2.5,40,176,81
India,Uttarakhand,Dehradun,"Doon University, Dehradun - UKPCB",17-06-2024 19:00:00,30.269444,78.044167,NO2,1,5,2
India,Uttarakhand,Kashipur,"Govt. Girls Inter College, Kashipur - UKPCB",17-06-2024 19:00:00,29.2124114,78.9611753,OZONE,18,78,70
India,Uttarakhand,Rishikesh,"Shivaji Nagar, Rishikesh - UKPCB",17-06-2024 19:00:00,30.075911,78.2859547,PM2.5,NA,NA,NA
India,Uttarakhand,Rishikesh,"Shivaji Nagar, Rishikesh - UKPCB",17-06-2024 19:00:00,30.075911,78.2859547,NH3,NA,NA,NA
India,Uttarakhand,Rishikesh,"Shivaji Nagar, Rishikesh - UKPCB",17-06-2024 19:00:00,30.075911,78.2859547,SO2,NA,NA,NA
India,West_Bengal,Asansol,"Asansol Court Area, Asansol - WBPCB",17-06-2024 19:00:00,23.685297,86.945968,PM10,56,123,87
India,West_Bengal,Asansol,"Asansol Court Area, Asansol - WBPCB",17-06-2024 19:00:00,23.685297,86.945968,NH3,10,14,12
India,West_Bengal,Asansol,"Asansol Court Area, Asansol - WBPCB",17-06-2024 19:00:00,23.685297,86.945968,CO,14,40,33
India,West_Bengal,Asansol,"Evelyn Lodge, Asansol - WBPCB",17-06-2024 19:00:00,23.6979360,86.9443950,NO2,11,44,20
India,West_Bengal,Asansol,"Evelyn Lodge, Asansol - WBPCB",17-06-2024 19:00:00,23.6979360,86.9443950,OZONE,26,78,68
India,West_Bengal,Barrackpore,"SVSPA Campus, Barrackpore - WBPCB",17-06-2024 19:00:00,22.7605581,88.3617589,NH3,NA,NA,NA
India,West_Bengal,Durgapur,"Sidhu Kanhu Indoor Stadium, Durgapur - WBPCB",17-06-2024 19:00:00,23.5404352,87.2892225,PM10,54,140,104
India,West_Bengal,Haldia,"Priyambada Housing Estate, Haldia - WBPCB",17-06-2024 19:00:00,22.06047,88.109737,SO2,6,17,13
India,West_Bengal,Howrah,"Ghusuri, Howrah - WBPCB",17-06-2024 19:00:00,22.611968,88.347422,PM2.5,24,118,53
India,West_Bengal,Howrah,"Ghusuri, Howrah - WBPCB",17-06-2024 19:00:00,22.611968,88.347422,OZONE,16,24,20
India,West_Bengal,Kolkata,"Ballygunge, Kolkata - WBPCB",17-06-2024 19:00:00,22.5367507,88.3638022,NH3,5,6,6
India,West_Bengal,Kolkata,"Bidhannagar, Kolkata - WBPCB",17-06-2024 19:00:00,22.58157048,88.41002457,NO2,16,21,18
India,West_Bengal,Kolkata,"Bidhannagar, Kolkata - WBPCB",17-06-2024 19:00:00,22.58157048,88.41002457,CO,30,36,35
India,West_Bengal,Kolkata,"Fort William, Kolkata - WBPCB",17-06-2024 19:00:00,22.556640,88.342674,CO,16,21,19
India,West_Bengal,Kolkata,"Jadavpur, Kolkata - WBPCB",17-06-2024 19:00:00,22.49929,88.36917,NO2,15,16,16
India,West_Bengal,Kolkata,"Jadavpur, Kolkata - WBPCB",17-06-2024 19:00:00,22.49929,88.36917,SO2,3,5,4
India,West_Bengal,Kolkata,"Jadavpur, Kolkata - WBPCB",17-06-2024 19:00:00,22.49929,88.36917,OZONE,17,26,23
India,West_Bengal,Kolkata,"Rabindra Bharati University, Kolkata - WBPCB",17-06-2024 19:00:00,22.627847,88.380669,NH3,4,5,5
India,West_Bengal,Kolkata,"Rabindra Sarobar, Kolkata - WBPCB",17-06-2024 19:00:00,22.51106,88.35142,PM10,44,65,56
India,West_Bengal,Kolkata,"Rabindra Sarobar, Kolkata - WBPCB",17-06-2024 19:00:00,22.51106,88.35142,NO2,15,23,18
India,West_Bengal,Kolkata,"Rabindra Sarobar, Kolkata - WBPCB",17-06-2024 19:00:00,22.51106,88.35142,NH3,11,13,12
India,West_Bengal,Siliguri,"Ward-32 Bapupara, Siliguri - WBPCB",17-06-2024 19:00:00,26.6879226,88.4152495,NH3,10,10,10
India,Andhra_Pradesh,Amaravati,"Secretariat, Amaravati - APPCB",17-06-2024 19:00:00,16.5150833,80.5181667,PM10,16,39,22
India,Andhra_Pradesh,Amaravati,"Secretariat, Amaravati - APPCB",17-06-2024 19:00:00,16.5150833,80.5181667,SO2,10,31,16
India,Andhra_Pradesh,Anantapur,"Gulzarpet, Anantapur - APPCB",17-06-2024 19:00:00,14.675886,77.593027,PM10,48,193,74
India,Andhra_Pradesh,Chittoor,"Gangineni Cheruvu, Chittoor - APPCB",17-06-2024 19:00:00,13.204880,79.097889,SO2,1,11,6
India,Andhra_Pradesh,Chittoor,"Gangineni Cheruvu, Chittoor - APPCB",17-06-2024 19:00:00,13.204880,79.097889,OZONE,51,51,51
India,Andhra_Pradesh,Kadapa,"Yerramukkapalli, Kadapa - APPCB",17-06-2024 19:00:00,14.465052,78.824187,NH3,NA,NA,NA
India,Andhra_Pradesh,Kadapa,"Yerramukkapalli, Kadapa - APPCB",17-06-2024 19:00:00,14.465052,78.824187,OZONE,7,27,24
India,Andhra_Pradesh,Rajamahendravaram,"Anand Kala Kshetram, Rajamahendravaram - APPCB",17-06-2024 19:00:00,16.9872867,81.7363176,PM2.5,15,42,33
India,Andhra_Pradesh,Rajamahendravaram,"Anand Kala Kshetram, Rajamahendravaram - APPCB",17-06-2024 19:00:00,16.9872867,81.7363176,PM10,28,76,43
India,Andhra_Pradesh,Tirupati,"Vaikuntapuram, Tirupati - APPCB",17-06-2024 19:00:00,13.615387,79.409230,PM10,NA,NA,NA
India,Andhra_Pradesh,Tirupati,"Vaikuntapuram, Tirupati - APPCB",17-06-2024 19:00:00,13.615387,79.409230,NH3,NA,NA,NA
India,Andhra_Pradesh,Tirupati,"Vaikuntapuram, Tirupati - APPCB",17-06-2024 19:00:00,13.615387,79.409230,CO,NA,NA,NA
India,Andhra_Pradesh,Vijayawada,"Kanuru, Vijayawada - APPCB",17-06-2024 19:00:00,16.486692,80.699436,PM10,NA,NA,NA
India,Andhra_Pradesh,Vijayawada,"Kanuru, Vijayawada - APPCB",17-06-2024 19:00:00,16.486692,80.699436,OZONE,40,40,40
India,Andhra_Pradesh,Vijayawada,"Rajiv Gandhi Park, Vijayawada - APPCB",17-06-2024 19:00:00,16.509717,80.612222,NH3,4,6,5
India,Andhra_Pradesh,Vijayawada,"Rajiv Nagar, Vijayawada - APPCB",17-06-2024 19:00:00,16.554731,80.649110,NO2,10,10,10
India,Andhra_Pradesh,Vijayawada,"Rajiv Nagar, Vijayawada - APPCB",17-06-2024 19:00:00,16.554731,80.649110,CO,38,38,38
India,Andhra_Pradesh,Visakhapatnam,"GVM Corporation, Visakhapatnam - APPCB",17-06-2024 19:00:00,17.72,83.3,SO2,NA,NA,NA
India,Assam,Byrnihat,"Central Academy for SFS, Byrnihat - PCBA",17-06-2024 19:00:00,26.071318,91.87488,PM2.5,NA,NA,NA
India,Assam,Byrnihat,"Central Academy for SFS, Byrnihat - PCBA",17-06-2024 19:00:00,26.071318,91.87488,NH3,NA,NA,NA
India,Assam,Guwahati,"LGBI Airport, Guwahati - PCBA",17-06-2024 19:00:00,26.10887,91.589544,CO,32,52,46
India,Assam,Guwahati,"Pan Bazaar, Guwahati - PCBA",17-06-2024 19:00:00,26.187500,91.744194,PM2.5,2,27,11
India,Assam,Nagaon,"Christianpatty, Nagaon - PCBA",17-06-2024 19:00:00,26.349082,92.68449,PM10,15,39,18
India,Assam,Nagaon,"Christianpatty, Nagaon - PCBA",17-06-2024 19:00:00,26.349082,92.68449,CO,2,88,51
India,Assam,Nalbari,"Bata Chowk, Nalbari - PCBA",17-06-2024 19:00:00,26.446912,91.439057,NO2,11,23,17
India,Assam,Silchar,"Tarapur, Silchar - PCBA",17-06-2024 19:00:00,24.82827,92.79525,PM10,40,46,42
India,Assam,Silchar,"Tarapur, Silchar - PCBA",17-06-2024 19:00:00,24.82827,92.79525,NO2,13,16,16
India,Assam,Silchar,"Tarapur, Silchar - PCBA",17-06-2024 19:00:00,24.82827,92.79525,NH3,1,1,1
India,Assam,Sivasagar,"Girls College, Sivasagar - PCBA",17-06-2024 19:00:00,26.987634,94.636574,PM10,48,72,55
India,Bihar,Arrah,"New DM Office, Arrah - BSPCB",17-06-2024 19:00:00,25.5626095,84.663264,SO2,6,10,9
India,Bihar,Arrah,"New DM Office, Arrah - BSPCB",17-06-2024 19:00:00,25.5626095,84.663264,CO,10,22,20
India,Bihar,Aurangabad,"Gurdeo Nagar, Aurangabad - BSPCB",17-06-2024 19:00:00,24.75746,84.366208,PM10,NA,NA,NA
India,Bihar,Bettiah,"Kamalnath Nagar, Bettiah - BSPCB",17-06-2024 19:00:00,26.80365,84.51954,PM10,71,160,109
India,Bihar,Bettiah,"Kamalnath Nagar, Bettiah - BSPCB",17-06-2024 19:00:00,26.80365,84.51954,NO2,24,32,28
India,Bihar,Bettiah,"Kamalnath Nagar, Bettiah - BSPCB",17-06-2024 19:00:00,26.80365,84.51954,NH3,27,52,43
India,Bihar,Bettiah,"Kamalnath Nagar, Bettiah - BSPCB",17-06-2024 19:00:00,26.80365,84.51954,OZONE,2,10,6
India,Bihar,Bhagalpur,"DM Office_Kachari Chowk, Bhagalpur - BSPCB",17-06-2024 19:00:00,25.251013,86.989001,OZONE,44,63,47
India,Bihar,Bhagalpur,"Mayaganj, Bhagalpur - BSPCB",17-06-2024 19:00:00,25.265194,87.012947,NH3,9,10,10
India,Bihar,Bihar Sharif,"D M Colony, Bihar Sharif - BSPCB",17-06-2024 19:00:00,25.204762,85.514960,PM10,NA,NA,NA
India,Bihar,Bihar Sharif,"D M Colony, Bihar Sharif - BSPCB",17-06-2024 19:00:00,25.204762,85.514960,SO2,2,3,3
India,Bihar,Chhapra,"Darshan Nagar, Chhapra - BSPCB",17-06-2024 19:00:00,25.7808257,84.7446768,PM10,48,103,74
India,Bihar,Gaya,"Collectorate, Gaya - BSPCB",17-06-2024 19:00:00,24.7955,84.9994,NO2,4,5,4
India,Bihar,Gaya,"Collectorate, Gaya - BSPCB",17-06-2024 19:00:00,24.7955,84.9994,CO,20,104,93
India,Bihar,Gaya,"Collectorate, Gaya - BSPCB",17-06-2024 19:00:00,24.7955,84.9994,OZONE,38,80,59
India,Bihar,Gaya,"SFTI Kusdihra, Gaya - BSPCB",17-06-2024 19:00:00,24.762518,84.982348,CO,10,40,14
India,Bihar,Gaya,"SFTI Kusdihra, Gaya - BSPCB",17-06-2024 19:00:00,24.762518,84.982348,OZONE,23,100,89
India,Bihar,Hajipur,"Industrial Area, Hajipur - BSPCB",17-06-2024 19:00:00,25.697189,85.245900,PM10,NA,NA,NA
India,Bihar,Katihar,"Mirchaibari, Katihar - BSPCB",17-06-2024 19:00:00,25.560083,87.553265,CO,27,39,34
India,Bihar,Kishanganj,"SDM Office_Khagra, Kishanganj - BSPCB",17-06-2024 19:00:00,26.0881305,87.93840336,PM2.5,25,140,48
India,Bihar,Manguraha,"Forest Rest House, Manguraha - BSPCB",17-06-2024 19:00:00,27.308328,84.531742,NH3,NA,NA,NA
India,Bihar,Motihari,"Gandak Colony, Motihari - BSPCB",17-06-2024 19:00:00,26.63086,84.90051,NH3,NA,NA,NA
India,Bihar,Motihari,"Gandak Colony, Motihari - BSPCB",17-06-2024 19:00:00,26.63086,84.90051,CO,8,38,23
India,Bihar,Munger,"Town Hall, Munger - BSPCB",17-06-2024 19:00:00,25.376776,86.471523,PM10,52,500,232
India,Bihar,Munger,"Town Hall, Munger - BSPCB",17-06-2024 19:00:00,25.376776,86.471523,CO,NA,NA,NA
India,Bihar,Munger,"Town Hall, Munger - BSPCB",17-06-2024 19:00:00,25.376776,86.471523,OZONE,25,33,29
India,Bihar,Muzaffarpur,"Buddha Colony, Muzaffarpur - BSPCB",17-06-2024 19:00:00,26.11442,85.39813,SO2,NA,NA,NA
India,Bihar,Muzaffarpur,"MIT-Daudpur Kothi, Muzaffarpur - BSPCB",17-06-2024 19:00:00,26.1403345,85.3650192,PM2.5,22,57,40
India,Bihar,Muzaffarpur,"MIT-Daudpur Kothi, Muzaffarpur - BSPCB",17-06-2024 19:00:00,26.1403345,85.3650192,OZONE,5,43,35
India,Bihar,Muzaffarpur,"Muzaffarpur Collectorate, Muzaffarpur - BSPCB",17-06-2024 19:00:00,26.1209,85.3647,PM2.5,NA,NA,NA
India,Bihar,Muzaffarpur,"Muzaffarpur Collectorate, Muzaffarpur - BSPCB",17-06-2024 19:00:00,26.1209,85.3647,SO2,NA,NA,NA
India,Bihar,Muzaffarpur,"Muzaffarpur Collectorate, Muzaffarpur - BSPCB",17-06-2024 19:00:00,26.1209,85.3647,OZONE,157,157,157
India,Bihar,Patna,"DRM Office Danapur, Patna - BSPCB",17-06-2024 19:00:00,25.586562,85.043586,PM10,NA,NA,NA
India,Bihar,Patna,"Govt. High School Shikarpur, Patna - BSPCB",17-06-2024 19:00:00,25.592539,85.227158,PM10,65,132,106
India,Bihar,Patna,"IGSC Planetarium Complex, Patna - BSPCB",17-06-2024 19:00:00,25.610369,85.132568,PM2.5,81,150,115
India,Bihar,Patna,"IGSC Planetarium Complex, Patna - BSPCB",17-06-2024 19:00:00,25.610369,85.132568,NO2,12,12,12
India,Bihar,Patna,"IGSC Planetarium Complex, Patna - BSPCB",17-06-2024 19:00:00,25.610369,85.132568,OZONE,93,148,122
India,Bihar,Patna,"Muradpur, Patna - BSPCB",17-06-2024 19:00:00,25.619651,85.147382,SO2,3,14,6
India,Bihar,Patna,"Rajbansi Nagar, Patna - BSPCB",17-06-2024 19:00:00,25.599486,85.113666,NO2,5,27,11
India,Bihar,Patna,"Rajbansi Nagar, Patna - BSPCB",17-06-2024 19:00:00,25.599486,85.113666,SO2,7,16,12
India,Bihar,Patna,"Samanpura, Patna - BSPCB",17-06-2024 19:00:00,25.596727,85.085624,NH3,1,28,11
India,Bihar,Purnia,"Mariam Nagar, Purnia - BSPCB",17-06-2024 19:00:00,25.366336,87.117468,PM2.5,37,87,58
India,Bihar,Purnia,"Mariam Nagar, Purnia - BSPCB",17-06-2024 19:00:00,25.366336,87.117468,NO2,2,18,6
India,Bihar,Rajgir,"Dangi Tola, Rajgir - BSPCB",17-06-2024 19:00:00,25.03280,85.41948,PM2.5,57,143,87
India,Bihar,Rajgir,"Dangi Tola, Rajgir - BSPCB",17-06-2024 19:00:00,25.03280,85.41948,SO2,4,4,4
India,Bihar,Rajgir,"Dangi Tola, Rajgir - BSPCB",17-06-2024 19:00:00,25.03280,85.41948,CO,38,38,38
India,Bihar,Saharsa,"Police Line, Saharsa - BSPCB",17-06-2024 19:00:00,25.892357,86.590325,PM10,NA,NA,NA
India,Bihar,Samastipur,"DM Office_Kasipur, Samastipur - BSPCB",17-06-2024 19:00:00,25.859655,85.77944,PM10,NA,NA,NA
India,Bihar,Sasaram,"Dada Peer, Sasaram - BSPCB",17-06-2024 19:00:00,24.952822,84.002396,NH3,NA,NA,NA
India,Bihar,Siwan,"Chitragupta Nagar, Siwan - BSPCB",17-06-2024 19:00:00,26.2271665,84.3570427,PM10,NA,NA,NA
India,Bihar,Siwan,"Chitragupta Nagar, Siwan - BSPCB",17-06-2024 19:00:00,26.2271665,84.3570427,SO2,NA,NA,NA
India,Bihar,Siwan,"Chitragupta Nagar, Siwan - BSPCB",17-06-2024 19:00:00,26.2271665,84.3570427,CO,84,109,102
India,Bihar,Siwan,"Chitragupta Nagar, Siwan - BSPCB",17-06-2024 19:00:00,26.2271665,84.3570427,OZONE,8,86,28
India,Chandigarh,Chandigarh,"Sector 22, Chandigarh - CPCC",17-06-2024 19:00:00,30.735567,76.775714,NH3,6,23,10
India,Chandigarh,Chandigarh,"Sector-25, Chandigarh - CPCC",17-06-2024 19:00:00,30.751462,76.762879,NH3,9,15,12
India,Chhattisgarh,Bhilai,"32Bungalows, Bhilai - CECB",17-06-2024 19:00:00,21.194815,81.314770,NH3,9,10,9
India,Chhattisgarh,Bhilai,"32Bungalows, Bhilai - CECB",17-06-2024 19:00:00,21.194815,81.314770,SO2,9,15,11
India,Chhattisgarh,Bhilai,"Civic Center, Bhilai - Bhilai Steel Plant",17-06-2024 19:00:00,21.185571,81.343175,PM2.5,19,41,28
India,Chhattisgarh,Bhilai,"Hathkhoj, Bhilai - CECB",17-06-2024 19:00:00,21.224231,81.408350,PM2.5,9,54,32
India,Chhattisgarh,Bhilai,"Hathkhoj, Bhilai - CECB",17-06-2024 19:00:00,21.224231,81.408350,NH3,9,10,10
India,Chhattisgarh,Chhal,"Nawapara SECL Colony, Chhal - CECB",17-06-2024 19:00:00,22.118125,83.140608,PM2.5,23,70,55
India,Chhattisgarh,Chhal,"Nawapara SECL Colony, Chhal - CECB",17-06-2024 19:00:00,22.118125,83.140608,NO2,10,68,29
India,Chhattisgarh,Chhal,"Nawapara SECL Colony, Chhal - CECB",17-06-2024 19:00:00,22.118125,83.140608,NH3,2,2,2
India,Chhattisgarh,Chhal,"Nawapara SECL Colony, Chhal - CECB",17-06-2024 19:00:00,22.118125,83.140608,CO,30,76,34
India,Chhattisgarh,Korba,"Rampur, Korba - CECB",17-06-2024 19:00:00,22.368195,82.746431,PM10,42,90,61
India,Chhattisgarh,Korba,"Urja Nagar, Korba - CECB",17-06-2024 19:00:00,22.348441,82.549611,PM2.5,NA,NA,NA
India,Chhattisgarh,Korba,"Urja Nagar, Korba - CECB",17-06-2024 19:00:00,22.348441,82.549611,NO2,36,49,43
India,Chhattisgarh,Korba,"Urja Nagar, Korba - CECB",17-06-2024 19:00:00,22.348441,82.549611,OZONE,1,3,2
India,Chhattisgarh,Kunjemura,"OP Jindal School, Kunjemura - CECB",17-06-2024 19:00:00,22.126650,83.483212,PM10,56,315,105
India,Chhattisgarh,Kunjemura,"OP Jindal School, Kunjemura - CECB",17-06-2024 19:00:00,22.126650,83.483212,NO2,15,202,43
India,Chhattisgarh,Kunjemura,"OP Jindal School, Kunjemura - CECB",17-06-2024 19:00:00,22.126650,83.483212,NH3,1,5,2
India,Chhattisgarh,Milupara,"Govt. Higher Secondary School, Milupara - CECB",17-06-2024 19:00:00,22.1910172,83.5197009,NH3,1,1,1
India,Chhattisgarh,Milupara,"Govt. Higher Secondary School, Milupara - CECB",17-06-2024 19:00:00,22.1910172,83.5197009,SO2,2,11,7
India,Chhattisgarh,Milupara,"Govt. Higher Secondary School, Milupara - CECB",17-06-2024 19:00:00,22.1910172,83.5197009,CO,5,68,20
India,Chhattisgarh,Raipur,"AIIMS, Raipur - CECB",17-06-2024 19:00:00,21.258815,81.578979,PM10,NA,NA,NA
India,Chhattisgarh,Raipur,"Bhatagaon New ISBT, Raipur - CECB",17-06-2024 19:00:00,21.219665,81.630094,PM10,31,127,64
India,Chhattisgarh,Raipur,"Bhatagaon New ISBT, Raipur - CECB",17-06-2024 19:00:00,21.219665,81.630094,NO2,4,4,4
India,Chhattisgarh,Raipur,"Krishak Nagar, Raipur - CECB",17-06-2024 19:00:00,21.237755,81.705301,SO2,11,92,23
India,Chhattisgarh,Raipur,"Siltara Phase-II, Raipur - CECB",17-06-2024 19:00:00,21.371751,81.664929,SO2,1,38,11
India,Delhi,Delhi,"Aya Nagar, Delhi - IMD",17-06-2024 19:00:00,28.4706914,77.1099364,NO2,7,15,11
India,Delhi,Delhi,"Bawana, Delhi - DPCC",17-06-2024 19:00:00,28.776200,77.051074,PM2.5,41,334,155
India,Delhi,Delhi,"Burari Crossing, Delhi - IMD",17-06-2024 19:00:00,28.7256504,77.2011573,PM10,NA,NA,NA
India,Delhi,Delhi,"CRRI Mathura Road, Delhi - IMD",17-06-2024 19:00:00,28.5512005,77.2735737,OZONE,3,27,24
India,Delhi,Delhi,"Chandni Chowk, Delhi - IITM",17-06-2024 19:00:00,28.656756,77.227234,SO2,NA,NA,NA
India,Delhi,Delhi,"DTU, Delhi - CPCB",17-06-2024 19:00:00,28.7500499,77.1112615,PM10,111,244,159
India,Delhi,Delhi,"DTU, Delhi - CPCB",17-06-2024 19:00:00,28.7500499,77.1112615,NH3,7,8,7
India,Delhi,Delhi,"DTU, Delhi - CPCB",17-06-2024 19:00:00,28.7500499,77.1112615,OZONE,31,98,85
India,Delhi,Delhi,"Dr. Karni Singh Shooting Range, Delhi - DPCC",17-06-2024 19:00:00,28.498571,77.264840,OZONE,14,173,150
India,Delhi,Delhi,"Dwarka-Sector 8, Delhi - DPCC ",17-06-2024 19:00:00,28.5710274,77.0719006,SO2,14,49,26
India,Delhi,Delhi,"IGI Airport (T3), Delhi - IMD",17-06-2024 19:00:00,28.5627763,77.1180053,PM2.5,16,158,63
India,Delhi,Delhi,"IGI Airport (T3), Delhi - IMD",17-06-2024 19:00:00,28.5627763,77.1180053,PM10,80,170,120
India,Delhi,Delhi,"IGI Airport (T3), Delhi - IMD",17-06-2024 19:00:00,28.5627763,77.1180053,NO2,13,47,25
India,Delhi,Delhi,"IGI Airport (T3), Delhi - IMD",17-06-2024 19:00:00,28.5627763,77.1180053,OZONE,2,32,26
India,Delhi,Delhi,"IHBAS, Dilshad Garden, Delhi - CPCB",17-06-2024 19:00:00,28.6811736,77.3025234,PM2.5,61,318,144
India,Delhi,Delhi,"Jahangirpuri, Delhi - DPCC",17-06-2024 19:00:00,28.732820,77.170633,PM2.5,45,280,125
India,Delhi,Delhi,"Jawaharlal Nehru Stadium, Delhi - DPCC",17-06-2024 19:00:00,28.580280,77.233829,PM10,118,210,145
India,Delhi,Delhi,"Jawaharlal Nehru Stadium, Delhi - DPCC",17-06-2024 19:00:00,28.580280,77.233829,NH3,7,9,8
India,Delhi,Delhi,"Jawaharlal Nehru Stadium, Delhi - DPCC",17-06-2024 19:00:00,28.580280,77.233829,CO,5,105,7
India,Delhi,Delhi,"Major Dhyan Chand National Stadium, Delhi - DPCC",17-06-2024 19:00:00,28.611281,77.237738,NO2,10,119,49
India,Delhi,Delhi,"Mandir Marg, Delhi - DPCC",17-06-2024 19:00:00,28.636429,77.201067,PM2.5,32,103,60
India,Delhi,Delhi,"Mandir Marg, Delhi - DPCC",17-06-2024 19:00:00,28.636429,77.201067,SO2,6,32,17
India,Delhi,Delhi,"Mundka, Delhi - DPCC",17-06-2024 19:00:00,28.684678,77.076574,PM2.5,42,316,122
India,Delhi,Delhi,"NSIT Dwarka, Delhi - CPCB",17-06-2024 19:00:00,28.60909,77.0325413,PM2.5,50,185,109
India,Delhi,Delhi,"NSIT Dwarka, Delhi - CPCB",17-06-2024 19:00:00,28.60909,77.0325413,NH3,8,9,8
India,Delhi,Delhi,"NSIT Dwarka, Delhi - CPCB",17-06-2024 19:00:00,28.60909,77.0325413,SO2,6,32,16
India,Delhi,Delhi,"NSIT Dwarka, Delhi - CPCB",17-06-2024 19:00:00,28.60909,77.0325413,OZONE,6,45,41
India,Delhi,Delhi,"Narela, Delhi - DPCC",17-06-2024 19:00:00,28.822836,77.101981,PM10,124,256,190
India,Delhi,Delhi,"Narela, Delhi - DPCC",17-06-2024 19:00:00,28.822836,77.101981,NO2,8,72,27
India,Delhi,Delhi,"Nehru Nagar, Delhi - DPCC",17-06-2024 19:00:00,28.567890,77.250515,NO2,6,56,25
India,Delhi,Delhi,"Nehru Nagar, Delhi - DPCC",17-06-2024 19:00:00,28.567890,77.250515,SO2,4,15,9
India,Delhi,Delhi,"Patparganj, Delhi - DPCC",17-06-2024 19:00:00,28.623763,77.287209,SO2,4,25,16
India,Delhi,Delhi,"Pusa, Delhi - DPCC",17-06-2024 19:00:00,28.639652,77.146275,PM2.5,27,113,58
India,Delhi,Delhi,"Pusa, Delhi - DPCC",17-06-2024 19:00:00,28.639652,77.146275,NH3,5,7,6
India,Delhi,Delhi,"Pusa, Delhi - IMD",17-06-2024 19:00:00,28.636110,77.173332,PM10,84,209,134
India,Delhi,Delhi,"R K Puram, Delhi - DPCC",17-06-2024 19:00:00,28.563262,77.186937,PM2.5,60,167,108
India,Delhi,Delhi,"R K Puram, Delhi - DPCC",17-06-2024 19:00:00,28.563262,77.186937,NO2,12,127,60
India,Delhi,Delhi,"Rohini, Delhi - DPCC",17-06-2024 19:00:00,28.732528,77.119920,PM10,131,315,186
India,Delhi,Delhi,"Rohini, Delhi - DPCC",17-06-2024 19:00:00,28.732528,77.119920,NH3,8,11,9
India,Delhi,Delhi,"Sonia Vihar, Delhi - DPCC",17-06-2024 19:00:00,28.710508,77.249485,NH3,4,8,6
India,Delhi,Delhi,"Sonia Vihar, Delhi - DPCC",17-06-2024 19:00:00,28.710508,77.249485,OZONE,5,105,97
India,Delhi,Delhi,"Sri Aurobindo Marg, Delhi - DPCC",17-06-2024 19:00:00,28.531346,77.190156,PM10,122,183,148
India,Delhi,Delhi,"Sri Aurobindo Marg, Delhi - DPCC",17-06-2024 19:00:00,28.531346,77.190156,NO2,4,69,25
India,Delhi,Delhi,"Sri Aurobindo Marg, Delhi - DPCC",17-06-2024 19:00:00,28.531346,77.190156,CO,34,68,39
India,Delhi,Delhi,"Wazirpur, Delhi - DPCC",17-06-2024 19:00:00,28.699793,77.165453,SO2,8,78,29
India,Gujarat,Ahmedabad,"Chandkheda, Ahmedabad - IITM",17-06-2024 19:00:00,23.107969,72.574648,PM2.5,40,172,68
India,Gujarat,Ahmedabad,"Chandkheda, Ahmedabad - IITM",17-06-2024 19:00:00,23.107969,72.574648,OZONE,10,73,64
India,Gujarat,Ahmedabad,"Maninagar, Ahmedabad - GPCB",17-06-2024 19:00:00,23.002657,72.591912,NO2,18,43,31
India,Gujarat,Ahmedabad,"Maninagar, Ahmedabad - GPCB",17-06-2024 19:00:00,23.002657,72.591912,CO,7,26,13
India,Gujarat,Ahmedabad,"Rakhial, Ahmedabad - IITM",17-06-2024 19:00:00,23.016834,72.625775,NO2,21,118,47
India,Gujarat,Ahmedabad,"SVPI Airport Hansol, Ahmedabad - IITM",17-06-2024 19:00:00,23.076793,72.627874,PM2.5,NA,NA,NA
India,Gujarat,Ahmedabad,"SVPI Airport Hansol, Ahmedabad - IITM",17-06-2024 19:00:00,23.076793,72.627874,SO2,NA,NA,NA
India,Gujarat,Ankleshwar,"GIDC, Ankleshwar - GPCB",17-06-2024 19:00:00,21.613267,73.010555,SO2,13,90,31
India,Gujarat,Ankleshwar,"GIDC, Ankleshwar - GPCB",17-06-2024 19:00:00,21.613267,73.010555,CO,14,106,29
India,Gujarat,Gandhinagar,"GIFT City, Gandhinagar - IITM",17-06-2024 19:00:00,23.163798,72.677768,NH3,6,9,7
India,Gujarat,Gandhinagar,"GIFT City, Gandhinagar - IITM",17-06-2024 19:00:00,23.163798,72.677768,CO,11,20,15
India,Gujarat,Vapi,"Phase-1 GIDC, Vapi - GPCB",17-06-2024 19:00:00,20.362421,72.918013,SO2,NA,NA,NA
India,Gujarat,Vatva,"Phase-4 GIDC, Vatva - GPCB",17-06-2024 19:00:00,22.969611,72.643500,NO2,34,132,65
India,Gujarat,Vatva,"Phase-4 GIDC, Vatva - GPCB",17-06-2024 19:00:00,22.969611,72.643500,CO,3,57,10
India,Haryana,Ambala,"Patti Mehar, Ambala - HSPCB",17-06-2024 19:00:00,30.379589,76.778328,PM2.5,50,89,67
India,Haryana,Ambala,"Patti Mehar, Ambala - HSPCB",17-06-2024 19:00:00,30.379589,76.778328,NH3,5,12,8
India,Haryana,Ballabgarh,"Nathu Colony, Ballabgarh - HSPCB",17-06-2024 19:00:00,28.3419248,77.319699,PM10,120,271,176
India,Haryana,Ballabgarh,"Nathu Colony, Ballabgarh - HSPCB",17-06-2024 19:00:00,28.3419248,77.319699,SO2,3,18,7
India,Haryana,Ballabgarh,"Nathu Colony, Ballabgarh - HSPCB",17-06-2024 19:00:00,28.3419248,77.319699,OZONE,5,36,30
India,Haryana,Bhiwani,"H.B. Colony, Bhiwani - HSPCB",17-06-2024 19:00:00,28.806223,76.141105,PM10,61,115,92
India,Haryana,Bhiwani,"H.B. Colony, Bhiwani - HSPCB",17-06-2024 19:00:00,28.806223,76.141105,NH3,4,6,6
India,Haryana,Bhiwani,"H.B. Colony, Bhiwani - HSPCB",17-06-2024 19:00:00,28.806223,76.141105,OZONE,8,89,25
India,Haryana,Dharuhera,"Municipal Corporation Office, Dharuhera -  HSPCB",17-06-2024 19:00:00,28.206800,76.799700,NH3,9,26,19
India,Haryana,Faridabad,"New Industrial Town, Faridabad - HSPCB",17-06-2024 19:00:00,28.39072,77.30059,NO2,4,17,8
India,Haryana,Faridabad,"New Industrial Town, Faridabad - HSPCB",17-06-2024 19:00:00,28.39072,77.30059,SO2,3,11,9
India,Haryana,Faridabad,"Sector 11, Faridabad - HSPCB",17-06-2024 19:00:00,28.376058,77.315741,PM2.5,110,353,245
India,Haryana,Faridabad,"Sector 30, Faridabad - HSPCB",17-06-2024 19:00:00,28.4417,77.3217,OZONE,1,36,33
India,Haryana,Fatehabad,"Huda Sector, Fatehabad - HSPCB",17-06-2024 19:00:00,29.503664,75.467934,NH3,10,10,10
India,Haryana,Fatehabad,"Huda Sector, Fatehabad - HSPCB",17-06-2024 19:00:00,29.503664,75.467934,OZONE,10,24,13
India,Haryana,Gurugram,"Sector-51, Gurugram - HSPCB",17-06-2024 19:00:00,28.4227,77.0667,PM2.5,85,260,142
India,Haryana,Gurugram,"Sector-51, Gurugram - HSPCB",17-06-2024 19:00:00,28.4227,77.0667,CO,22,68,24
India,Haryana,Gurugram,"Teri Gram, Gurugram - HSPCB",17-06-2024 19:00:00,28.4275,77.1465,OZONE,13,226,79
India,Haryana,Gurugram,"Vikas Sadan, Gurugram - HSPCB",17-06-2024 19:00:00,28.4501238,77.0263051,SO2,6,102,32
India,Haryana,Hisar,"Urban Estate-II, Hisar - HSPCB",17-06-2024 19:00:00,29.140560,75.744941,CO,25,42,28
India,Haryana,Jind,"Police Lines, Jind - HSPCB",17-06-2024 19:00:00,29.307814,76.337619,NO2,1,407,23
India,Haryana,Kaithal,"Rishi Nagar, Kaithal - HSPCB",17-06-2024 19:00:00,29.8006,76.4155,NO2,NA,NA,NA
India,Haryana,Karnal,"Sector-12, Karnal - HSPCB",17-06-2024 19:00:00,29.695300,77.002700,NH3,10,13,11
India,Haryana,Kurukshetra,"Sector-7, Kurukshetra - HSPCB",17-06-2024 19:00:00,29.966942,76.875879,NO2,10,13,10
India,Haryana,Kurukshetra,"Sector-7, Kurukshetra - HSPCB",17-06-2024 19:00:00,29.966942,76.875879,CO,4,26,7
India,Haryana,Kurukshetra,"Sector-7, Kurukshetra - HSPCB",17-06-2024 19:00:00,29.966942,76.875879,OZONE,56,92,74
India,Haryana,Mandikhera,"General Hospital, Mandikhera - HSPCB",17-06-2024 19:00:00,27.9002,76.9938,CO,28,52,30
India,Haryana,Manesar,"Sector-2 IMT, Manesar - HSPCB",17-06-2024 19:00:00,28.360699,76.936090,NO2,22,30,26
India,Haryana,Narnaul,"Shastri Nagar, Narnaul - HSPCB",17-06-2024 19:00:00,28.060249,76.113115,OZONE,14,50,28
India,Haryana,Palwal,"Shyam Nagar, Palwal - HSPCB",17-06-2024 19:00:00,28.1485564,77.3320667,SO2,NA,NA,NA
India,Haryana,Panchkula,"Sector-6, Panchkula - HSPCB ",17-06-2024 19:00:00,30.7057778,76.8531805555555,PM2.5,NA,NA,NA
India,Haryana,Panchkula,"Sector-6, Panchkula - HSPCB ",17-06-2024 19:00:00,30.7057778,76.8531805555555,SO2,NA,NA,NA
India,Haryana,Panchkula,"Sector-6, Panchkula - HSPCB ",17-06-2024 19:00:00,30.7057778,76.8531805555555,OZONE,40,46,43
India,Haryana,Sirsa,"F-Block, Sirsa - HSPCB",17-06-2024 19:00:00,29.536400,75.015800,SO2,4,28,23
India,Haryana,Sonipat,"Murthal, Sonipat - HSPCB",17-06-2024 19:00:00,29.027200,77.062100,PM10,102,139,124
India,Haryana,Sonipat,"Murthal, Sonipat - HSPCB",17-06-2024 19:00:00,29.027200,77.062100,SO2,12,29,20
India,Haryana,Yamuna Nagar,"Gobind Pura, Yamuna Nagar - HSPCB",17-06-2024 19:00:00,30.1480566,77.2893471,NO2,11,21,16
India,Haryana,Yamuna Nagar,"Gobind Pura, Yamuna Nagar - HSPCB",17-06-2024 19:00:00,30.1480566,77.2893471,SO2,1,21,6
India,Himachal Pradesh,Baddi,"HIMUDA Complex Phase-1, Baddi - HPPCB",17-06-2024 19:00:00,30.943887,76.801991,NH3,5,7,6
India,Himachal Pradesh,Baddi,"HIMUDA Complex Phase-1, Baddi - HPPCB",17-06-2024 19:00:00,30.943887,76.801991,CO,12,34,19
India,Himachal Pradesh,Baddi,"HIMUDA Complex Phase-1, Baddi - HPPCB",17-06-2024 19:00:00,30.943887,76.801991,OZONE,42,184,160
India,Jharkhand,Dhanbad,"Kalakusuma, Dhanbad - DMC",17-06-2024 19:00:00,23.811548,86.481238,CO,130,135,132
India,Jharkhand,Dhanbad,"Kalakusuma, Dhanbad - DMC",17-06-2024 19:00:00,23.811548,86.481238,OZONE,28,29,28
India,Karnataka,Belgaum,"Ramteerth Nagar, Belgaum - KSPCB",17-06-2024 19:00:00,15.888653,74.541751,PM2.5,7,16,10
India,Karnataka,Belgaum,"Ramteerth Nagar, Belgaum - KSPCB",17-06-2024 19:00:00,15.888653,74.541751,OZONE,19,20,19
India,Karnataka,Bengaluru,"Bapuji Nagar, Bengaluru - KSPCB",17-06-2024 19:00:00,12.951913,77.539784,NH3,1,1,1
India,Karnataka,Bengaluru,"Bapuji Nagar, Bengaluru - KSPCB",17-06-2024 19:00:00,12.951913,77.539784,SO2,4,8,6
India,Karnataka,Bengaluru,"Hebbal, Bengaluru - KSPCB",17-06-2024 19:00:00,13.029152,77.585901,CO,14,27,18
India,Karnataka,Bengaluru,"Jigani, Bengaluru - KSPCB",17-06-2024 19:00:00,12.7816279,77.6299145,CO,24,40,29
India,Karnataka,Bengaluru,"RVCE-Mailasandra, Bengaluru - KSPCB",17-06-2024 19:00:00,12.921418,77.502466,NO2,16,17,17
India,Karnataka,Bengaluru,"RVCE-Mailasandra, Bengaluru - KSPCB",17-06-2024 19:00:00,12.921418,77.502466,SO2,7,9,8
India,Karnataka,Bengaluru,"Sanegurava Halli, Bengaluru - KSPCB",17-06-2024 19:00:00,12.990328,77.5431385,NO2,21,26,22
India,Karnataka,Bengaluru,"Shivapura_Peenya, Bengaluru - KSPCB",17-06-2024 19:00:00,13.0246342,77.5080115,PM10,22,61,33
India,Karnataka,Bengaluru,"Shivapura_Peenya, Bengaluru - KSPCB",17-06-2024 19:00:00,13.0246342,77.5080115,OZONE,53,55,54
India,Karnataka,Bengaluru,"Silk Board, Bengaluru - KSPCB",17-06-2024 19:00:00,12.917348,77.622813,PM2.5,5,27,14
India,Karnataka,Chamarajanagar,"Urban, Chamarajanagar - KSPCB",17-06-2024 19:00:00,11.55358,76.55521,PM2.5,20,44,29
India,Karnataka,Chamarajanagar,"Urban, Chamarajanagar - KSPCB",17-06-2024 19:00:00,11.55358,76.55521,NO2,19,35,26
India,Karnataka,Gadag,"Panchal Nagar, Gadag - KSPCB",17-06-2024 19:00:00,15.411456,75.638133,SO2,NA,NA,NA
India,Karnataka,Hubballi,"Lingaraj Nagar, Hubballi - KSPCB",17-06-2024 19:00:00,15.3714823,75.1160168,NO2,9,17,12
India,Karnataka,Hubballi,"Lingaraj Nagar, Hubballi - KSPCB",17-06-2024 19:00:00,15.3714823,75.1160168,SO2,1,6,1
India,Karnataka,Kalaburagi,"Lal Bahadur Shastri Nagar, Kalaburagi - KSPCB",17-06-2024 19:00:00,17.321993,76.822628,PM2.5,7,41,22
India,Karnataka,Kalaburagi,"Lal Bahadur Shastri Nagar, Kalaburagi - KSPCB",17-06-2024 19:00:00,17.321993,76.822628,CO,33,35,34
India,Karnataka,Kalaburagi,"Lal Bahadur Shastri Nagar, Kalaburagi - KSPCB",17-06-2024 19:00:00,17.321993,76.822628,OZONE,6,31,11
India,Karnataka,Kolar,"Tamaka Ind. Area, Kolar - KSPCB",17-06-2024 19:00:00,13.1276288,78.1570122,PM10,16,40,30
India,Karnataka,Kolar,"Tamaka Ind. Area, Kolar - KSPCB",17-06-2024 19:00:00,13.1276288,78.1570122,CO,6,7,7
India,Karnataka,Madikeri,"Stuart Hill, Madikeri - KSPCB",17-06-2024 19:00:00,12.415911,75.735050,NO2,1,6,3
India,Karnataka,Madikeri,"Stuart Hill, Madikeri - KSPCB",17-06-2024 19:00:00,12.415911,75.735050,NH3,NA,NA,NA
India,Karnataka,Mangalore,"Kadri, Mangalore - KSPCB",17-06-2024 19:00:00,12.889250,74.853000,NO2,5,6,6
India,Karnataka,Mangalore,"Kadri, Mangalore - KSPCB",17-06-2024 19:00:00,12.889250,74.853000,SO2,10,10,10
India,Karnataka,Mangalore,"Kadri, Mangalore - KSPCB",17-06-2024 19:00:00,12.889250,74.853000,OZONE,30,32,31
India,Karnataka,Mysuru,"Hebbal 1st Stage, Mysuru - KSPCB",17-06-2024 19:00:00,12.21041,76.37376,OZONE,10,58,51
India,Karnataka,Ramanagara,"Vijay Nagar, Ramanagara - KSPCB",17-06-2024 19:00:00,12.733409,77.298051,PM10,7,62,22
India,Karnataka,Ramanagara,"Vijay Nagar, Ramanagara - KSPCB",17-06-2024 19:00:00,12.733409,77.298051,NH3,1,3,2
India,Karnataka,Ramanagara,"Vijay Nagar, Ramanagara - KSPCB",17-06-2024 19:00:00,12.733409,77.298051,CO,6,22,13
India,Karnataka,Shivamogga,"Vinoba Nagara, Shivamogga - KSPCB",17-06-2024 19:00:00,13.940000,75.555917,PM10,30,60,45
India,Karnataka,Yadgir,"Collector Office, Yadgir - KSPCB",17-06-2024 19:00:00,16.7602,77.1428,NO2,5,17,9
India,Karnataka,Yadgir,"Collector Office, Yadgir - KSPCB",17-06-2024 19:00:00,16.7602,77.1428,CO,10,20,16
India,Kerala,Eloor,"Udyogamandal, Eloor - Kerala PCB",17-06-2024 19:00:00,10.073232,76.302765,CO,12,96,70
India,Kerala,Kollam,"Polayathode, Kollam - Kerala PCB",17-06-2024 19:00:00,8.8787,76.6073,PM2.5,18,142,80
India,Kerala,Kollam,"Polayathode, Kollam - Kerala PCB",17-06-2024 19:00:00,8.8787,76.6073,NH3,1,1,1
India,Kerala,Thiruvananthapuram,"Plammoodu, Thiruvananthapuram - Kerala PCB",17-06-2024 19:00:00,8.5149093,76.9435879,PM2.5,2,38,15
India,Kerala,Thiruvananthapuram,"Plammoodu, Thiruvananthapuram - Kerala PCB",17-06-2024 19:00:00,8.5149093,76.9435879,SO2,7,17,10
India,Kerala,Thiruvananthapuram,"Plammoodu, Thiruvananthapuram - Kerala PCB",17-06-2024 19:00:00,8.5149093,76.9435879,OZONE,6,51,12
India,Kerala,Thrissur,"Corporation Ground, Thrissur - Kerala PCB",17-06-2024 19:00:00,10.532400,76.215900,NH3,NA,NA,NA
India,Madhya Pradesh,Bhopal,"T T Nagar, Bhopal - MPPCB",17-06-2024 19:00:00,23.233584,77.400574,CO,14,132,85
India,Madhya Pradesh,Dewas,"Bhopal Chauraha, Dewas - MPPCB",17-06-2024 19:00:00,22.9682591,76.064118,PM2.5,32,102,47
India,Madhya Pradesh,Dewas,"Bhopal Chauraha, Dewas - MPPCB",17-06-2024 19:00:00,22.9682591,76.064118,PM10,40,104,54
