country,state,city,station,last_update,latitude,longitude,pollutant_id,pollutant_min,pollutant_max,pollutant_avg
India,Andhra_Pradesh,Rajamahendravaram,"Anand Kala Kshetram, Rajamahendravaram - APPCB",21-04-2024 10:00:00,16.9872867,81.7363176,NH3,1,5,3
India,Andhra_Pradesh,Rajamahendravaram,"Anand Kala Kshetram, Rajamahendravaram - APPCB",21-04-2024 10:00:00,16.9872867,81.7363176,OZONE,15,25,17
India,Andhra_Pradesh,Tirupati,"Tirumala, Tirupati - APPCB",21-04-2024 10:00:00,13.67,79.35,PM10,55,125,70
India,Andhra_Pradesh,Tirupati,"Tirumala, Tirupati - APPCB",21-04-2024 10:00:00,13.67,79.35,OZONE,28,71,36
India,Andhra_Pradesh,Vijayawada,"HB Colony, Vijayawada - APPCB",21-04-2024 10:00:00,16.536107,80.594233,PM2.5,42,53,47
India,Andhra_Pradesh,Vijayawada,"HB Colony, Vijayawada - APPCB",21-04-2024 10:00:00,16.536107,80.594233,PM10,54,78,64
India,Andhra_Pradesh,Vijayawada,"HB Colony, Vijayawada - APPCB",21-04-2024 10:00:00,16.536107,80.594233,NH3,4,4,4
India,Andhra_Pradesh,Vijayawada,"HB Colony, Vijayawada - APPCB",21-04-2024 10:00:00,16.536107,80.594233,CO,28,31,31
India,Andhra_Pradesh,Visakhapatnam,"GVM Corporation, Visakhapatnam - APPCB",21-04-2024 10:00:00,17.72,83.3,PM10,62,136,96
India,Assam,Byrnihat,"Central Academy for SFS, Byrnihat - PCBA",21-04-2024 10:00:00,26.071318,91.87488,NH3,5,9,8
India,Assam,Byrnihat,"Central Academy for SFS, Byrnihat - PCBA",21-04-2024 10:00:00,26.071318,91.87488,CO,32,88,53
India,Assam,Guwahati,"IITG, Guwahati - PCBA",21-04-2024 10:00:00,26.2028636,91.70046436,CO,9,10,10
India,Assam,Guwahati,"LGBI Airport, Guwahati - PCBA",21-04-2024 10:00:00,26.10887,91.589544,NO2,19,124,71
India,Assam,Guwahati,"LGBI Airport, Guwahati - PCBA",21-04-2024 10:00:00,26.10887,91.589544,NH3,1,10,6
India,Assam,Guwahati,"Railway Colony, Guwahati - PCBA",21-04-2024 10:00:00,26.181742,91.78063,PM10,30,60,38
India,Assam,Guwahati,"Railway Colony, Guwahati - PCBA",21-04-2024 10:00:00,26.181742,91.78063,SO2,9,17,13
India,Assam,Nagaon,"Christianpatty, Nagaon - PCBA",21-04-2024 10:00:00,26.349082,92.68449,PM2.5,57,88,70
India,Assam,Nagaon,"Christianpatty, Nagaon - PCBA",21-04-2024 10:00:00,26.349082,92.68449,NH3,2,4,4
India,Assam,Nalbari,"Bata Chowk, Nalbari - PCBA",21-04-2024 10:00:00,26.446912,91.439057,NO2,6,17,9
India,Assam,Nalbari,"Bata Chowk, Nalbari - PCBA",21-04-2024 10:00:00,26.446912,91.439057,SO2,8,10,9
India,Assam,Silchar,"Tarapur, Silchar - PCBA",21-04-2024 10:00:00,24.82827,92.79525,PM2.5,20,56,31
India,Assam,Silchar,"Tarapur, Silchar - PCBA",21-04-2024 10:00:00,24.82827,92.79525,OZONE,1,14,4
India,Assam,Sivasagar,"Girls College, Sivasagar - PCBA",21-04-2024 10:00:00,26.987634,94.636574,SO2,2,5,3
India,Assam,Sivasagar,"Girls College, Sivasagar - PCBA",21-04-2024 10:00:00,26.987634,94.636574,OZONE,1,61,2
India,Bihar,Aurangabad,"Gurdeo Nagar, Aurangabad - BSPCB",21-04-2024 10:00:00,24.75746,84.366208,NO2,NA,NA,NA
India,Bihar,Aurangabad,"Gurdeo Nagar, Aurangabad - BSPCB",21-04-2024 10:00:00,24.75746,84.366208,SO2,NA,NA,NA
India,Bihar,Bhagalpur,"DM Office_Kachari Chowk, Bhagalpur - BSPCB",21-04-2024 10:00:00,25.251013,86.989001,NO2,49,114,77
India,Bihar,Bhagalpur,"DM Office_Kachari Chowk, Bhagalpur - BSPCB",21-04-2024 10:00:00,25.251013,86.989001,OZONE,42,50,46
India,Bihar,Bhagalpur,"Mayaganj, Bhagalpur - BSPCB",21-04-2024 10:00:00,25.265194,87.012947,PM2.5,50,318,118
India,Bihar,Bhagalpur,"Mayaganj, Bhagalpur - BSPCB",21-04-2024 10:00:00,25.265194,87.012947,PM10,43,172,85
India,Bihar,Bhagalpur,"Mayaganj, Bhagalpur - BSPCB",21-04-2024 10:00:00,25.265194,87.012947,NO2,2,12,7
India,Bihar,Bhagalpur,"Mayaganj, Bhagalpur - BSPCB",21-04-2024 10:00:00,25.265194,87.012947,CO,8,10,9
India,Bihar,Bihar Sharif,"D M Colony, Bihar Sharif - BSPCB",21-04-2024 10:00:00,25.204762,85.514960,PM2.5,33,77,50
India,Bihar,Bihar Sharif,"D M Colony, Bihar Sharif - BSPCB",21-04-2024 10:00:00,25.204762,85.514960,SO2,1,15,8
India,Bihar,Bihar Sharif,"D M Colony, Bihar Sharif - BSPCB",21-04-2024 10:00:00,25.204762,85.514960,OZONE,20,52,42
India,Bihar,Chhapra,"Darshan Nagar, Chhapra - BSPCB",21-04-2024 10:00:00,25.7808257,84.7446768,PM2.5,85,217,118
India,Bihar,Chhapra,"Darshan Nagar, Chhapra - BSPCB",21-04-2024 10:00:00,25.7808257,84.7446768,NH3,7,13,10
India,Bihar,Gaya,"Kareemganj, Gaya - BSPCB",21-04-2024 10:00:00,24.792403,84.992416,CO,12,22,19
India,Bihar,Gaya,"SFTI Kusdihra, Gaya - BSPCB",21-04-2024 10:00:00,24.762518,84.982348,SO2,7,9,8
India,Bihar,Gaya,"SFTI Kusdihra, Gaya - BSPCB",21-04-2024 10:00:00,24.762518,84.982348,CO,19,45,28
India,Bihar,Hajipur,"Industrial Area, Hajipur - BSPCB",21-04-2024 10:00:00,25.697189,85.245900,NO2,49,65,58
India,Bihar,Hajipur,"Industrial Area, Hajipur - BSPCB",21-04-2024 10:00:00,25.697189,85.245900,NH3,6,11,8
India,Bihar,Katihar,"Mirchaibari, Katihar - BSPCB",21-04-2024 10:00:00,25.560083,87.553265,PM10,59,171,116
India,Bihar,Katihar,"Mirchaibari, Katihar - BSPCB",21-04-2024 10:00:00,25.560083,87.553265,SO2,18,24,20
India,Bihar,Katihar,"Mirchaibari, Katihar - BSPCB",21-04-2024 10:00:00,25.560083,87.553265,CO,50,68,58
India,Bihar,Kishanganj,"SDM Office_Khagra, Kishanganj - BSPCB",21-04-2024 10:00:00,26.0881305,87.93840336,CO,4,7,4
India,Bihar,Motihari,"Gandak Colony, Motihari - BSPCB",21-04-2024 10:00:00,26.63086,84.90051,PM10,31,111,64
India,Bihar,Motihari,"Gandak Colony, Motihari - BSPCB",21-04-2024 10:00:00,26.63086,84.90051,NH3,7,17,12
India,Bihar,Motihari,"Gandak Colony, Motihari - BSPCB",21-04-2024 10:00:00,26.63086,84.90051,SO2,1,5,3
India,Bihar,Munger,"Town Hall, Munger - BSPCB",21-04-2024 10:00:00,25.376776,86.471523,CO,28,75,57
India,Bihar,Muzaffarpur,"Buddha Colony, Muzaffarpur - BSPCB",21-04-2024 10:00:00,26.11442,85.39813,PM10,150,411,246
India,Bihar,Muzaffarpur,"MIT-Daudpur Kothi, Muzaffarpur - BSPCB",21-04-2024 10:00:00,26.1403345,85.3650192,PM10,101,342,160
India,Bihar,Muzaffarpur,"MIT-Daudpur Kothi, Muzaffarpur - BSPCB",21-04-2024 10:00:00,26.1403345,85.3650192,NH3,1,6,3
India,Bihar,Muzaffarpur,"Muzaffarpur Collectorate, Muzaffarpur - BSPCB",21-04-2024 10:00:00,26.1209,85.3647,SO2,6,22,8
India,Bihar,Muzaffarpur,"Muzaffarpur Collectorate, Muzaffarpur - BSPCB",21-04-2024 10:00:00,26.1209,85.3647,CO,21,105,21
India,Bihar,Patna,"Govt. High School Shikarpur, Patna - BSPCB",21-04-2024 10:00:00,25.592539,85.227158,CO,24,54,37
India,Bihar,Patna,"IGSC Planetarium Complex, Patna - BSPCB",21-04-2024 10:00:00,25.610369,85.132568,OZONE,21,45,33
India,Bihar,Patna,"Muradpur, Patna - BSPCB",21-04-2024 10:00:00,25.619651,85.147382,PM2.5,98,420,256
India,Bihar,Patna,"Rajbansi Nagar, Patna - BSPCB",21-04-2024 10:00:00,25.599486,85.113666,PM2.5,43,337,227
India,Bihar,Patna,"Rajbansi Nagar, Patna - BSPCB",21-04-2024 10:00:00,25.599486,85.113666,NO2,14,36,21
India,Bihar,Patna,"Rajbansi Nagar, Patna - BSPCB",21-04-2024 10:00:00,25.599486,85.113666,CO,22,57,32
India,Bihar,Rajgir,"Dangi Tola, Rajgir - BSPCB",21-04-2024 10:00:00,25.03280,85.41948,CO,30,44,33
India,Bihar,Saharsa,"Police Line, Saharsa - BSPCB",21-04-2024 10:00:00,25.892357,86.590325,CO,50,55,54
India,Bihar,Sasaram,"Dada Peer, Sasaram - BSPCB",21-04-2024 10:00:00,24.952822,84.002396,PM2.5,16,67,33
India,Bihar,Sasaram,"Dada Peer, Sasaram - BSPCB",21-04-2024 10:00:00,24.952822,84.002396,NO2,9,21,14
India,Bihar,Sasaram,"Dada Peer, Sasaram - BSPCB",21-04-2024 10:00:00,24.952822,84.002396,NH3,8,11,9
India,Chandigarh,Chandigarh,"Sector 22, Chandigarh - CPCC",21-04-2024 10:00:00,30.735567,76.775714,SO2,9,73,19
India,Chandigarh,Chandigarh,"Sector-25, Chandigarh - CPCC",21-04-2024 10:00:00,30.751462,76.762879,PM10,97,143,126
India,Chhattisgarh,Bhilai,"32Bungalows, Bhilai - CECB",21-04-2024 10:00:00,21.194815,81.314770,PM2.5,43,74,56
India,Chhattisgarh,Bhilai,"32Bungalows, Bhilai - CECB",21-04-2024 10:00:00,21.194815,81.314770,PM10,53,106,70
India,Chhattisgarh,Bhilai,"Civic Center, Bhilai - Bhilai Steel Plant",21-04-2024 10:00:00,21.185571,81.343175,OZONE,13,70,25
India,Chhattisgarh,Bilaspur,"Mangala, Bilaspur - NTPC",21-04-2024 10:00:00,22.08815,82.13737,SO2,NA,NA,NA
India,Chhattisgarh,Chhal,"Nawapara SECL Colony, Chhal - CECB",21-04-2024 10:00:00,22.118125,83.140608,NH3,NA,NA,NA
India,Chhattisgarh,Chhal,"Nawapara SECL Colony, Chhal - CECB",21-04-2024 10:00:00,22.118125,83.140608,SO2,NA,NA,NA
India,Chhattisgarh,Korba,"Rampur, Korba - CECB",21-04-2024 10:00:00,22.368195,82.746431,PM10,36,102,67
India,Chhattisgarh,Korba,"Rampur, Korba - CECB",21-04-2024 10:00:00,22.368195,82.746431,NH3,1,1,1
India,Chhattisgarh,Kunjemura,"OP Jindal School, Kunjemura - CECB",21-04-2024 10:00:00,22.126650,83.483212,PM10,NA,NA,NA
India,Chhattisgarh,Milupara,"Govt. Higher Secondary School, Milupara - CECB",21-04-2024 10:00:00,22.1910172,83.5197009,NO2,15,66,40
India,Chhattisgarh,Milupara,"Govt. Higher Secondary School, Milupara - CECB",21-04-2024 10:00:00,22.1910172,83.5197009,NH3,1,2,1
India,Chhattisgarh,Raipur,"Krishak Nagar, Raipur - CECB",21-04-2024 10:00:00,21.237755,81.705301,NO2,16,17,15
India,Chhattisgarh,Raipur,"Krishak Nagar, Raipur - CECB",21-04-2024 10:00:00,21.237755,81.705301,CO,16,34,21
India,Chhattisgarh,Raipur,"Siltara Phase-II, Raipur - CECB",21-04-2024 10:00:00,21.371751,81.664929,PM10,42,146,89
India,Chhattisgarh,Tumidih,"OP Jindal Industrial Park, Tumidih - CECB",21-04-2024 10:00:00,22.06631475,83.33820077,SO2,NA,NA,NA
India,Delhi,Delhi,"Alipur, Delhi - DPCC",21-04-2024 10:00:00,28.815329,77.153010,PM2.5,32,90,56
India,Delhi,Delhi,"Alipur, Delhi - DPCC",21-04-2024 10:00:00,28.815329,77.153010,NH3,4,6,5
India,Delhi,Delhi,"Ashok Vihar, Delhi - DPCC",21-04-2024 10:00:00,28.695381,77.181665,NO2,9,61,34
India,Delhi,Delhi,"Bawana, Delhi - DPCC",21-04-2024 10:00:00,28.776200,77.051074,PM10,130,228,169
India,Delhi,Delhi,"Bawana, Delhi - DPCC",21-04-2024 10:00:00,28.776200,77.051074,NO2,9,38,24
India,Delhi,Delhi,"Burari Crossing, Delhi - IMD",21-04-2024 10:00:00,28.7256504,77.2011573,PM2.5,49,118,76
India,Delhi,Delhi,"Burari Crossing, Delhi - IMD",21-04-2024 10:00:00,28.7256504,77.2011573,CO,2,22,11
India,Delhi,Delhi,"Burari Crossing, Delhi - IMD",21-04-2024 10:00:00,28.7256504,77.2011573,OZONE,15,54,22
India,Delhi,Delhi,"CRRI Mathura Road, Delhi - IMD",21-04-2024 10:00:00,28.5512005,77.2735737,CO,28,58,38
India,Delhi,Delhi,"Chandni Chowk, Delhi - IITM",21-04-2024 10:00:00,28.656756,77.227234,PM2.5,119,233,155
India,Delhi,Delhi,"Chandni Chowk, Delhi - IITM",21-04-2024 10:00:00,28.656756,77.227234,SO2,33,69,48
India,Delhi,Delhi,"Chandni Chowk, Delhi - IITM",21-04-2024 10:00:00,28.656756,77.227234,CO,46,50,48
India,Delhi,Delhi,"DTU, Delhi - CPCB",21-04-2024 10:00:00,28.7500499,77.1112615,SO2,33,43,36
India,Delhi,Delhi,"Dr. Karni Singh Shooting Range, Delhi - DPCC",21-04-2024 10:00:00,28.498571,77.264840,PM10,110,208,144
India,Delhi,Delhi,"IGI Airport (T3), Delhi - IMD",21-04-2024 10:00:00,28.5627763,77.1180053,PM2.5,37,116,65
India,Delhi,Delhi,"IHBAS, Dilshad Garden, Delhi - CPCB",21-04-2024 10:00:00,28.6811736,77.3025234,PM2.5,64,120,74
India,Delhi,Delhi,"ITO, Delhi - CPCB",21-04-2024 10:00:00,28.628624,77.241060,NH3,2,6,4
India,Delhi,Delhi,"ITO, Delhi - CPCB",21-04-2024 10:00:00,28.628624,77.241060,SO2,10,62,20
India,Delhi,Delhi,"ITO, Delhi - CPCB",21-04-2024 10:00:00,28.628624,77.241060,OZONE,10,60,31
India,Delhi,Delhi,"Jawaharlal Nehru Stadium, Delhi - DPCC",21-04-2024 10:00:00,28.580280,77.233829,PM2.5,24,95,42
India,Delhi,Delhi,"Jawaharlal Nehru Stadium, Delhi - DPCC",21-04-2024 10:00:00,28.580280,77.233829,PM10,93,173,124
India,Delhi,Delhi,"Jawaharlal Nehru Stadium, Delhi - DPCC",21-04-2024 10:00:00,28.580280,77.233829,NO2,25,70,47
India,Delhi,Delhi,"Jawaharlal Nehru Stadium, Delhi - DPCC",21-04-2024 10:00:00,28.580280,77.233829,OZONE,50,158,74
India,Delhi,Delhi,"Lodhi Road, Delhi - IITM",21-04-2024 10:00:00,28.588333,77.221667,OZONE,15,22,16
India,Delhi,Delhi,"Lodhi Road, Delhi - IMD",21-04-2024 10:00:00,28.5918245,77.2273074,PM10,75,157,106
India,Delhi,Delhi,"Lodhi Road, Delhi - IMD",21-04-2024 10:00:00,28.5918245,77.2273074,OZONE,57,86,63
India,Delhi,Delhi,"Mandir Marg, Delhi - DPCC",21-04-2024 10:00:00,28.636429,77.201067,NO2,19,90,73
India,Delhi,Delhi,"Mundka, Delhi - DPCC",21-04-2024 10:00:00,28.684678,77.076574,SO2,10,106,39
India,Delhi,Delhi,"Mundka, Delhi - DPCC",21-04-2024 10:00:00,28.684678,77.076574,CO,28,52,44
India,Delhi,Delhi,"NSIT Dwarka, Delhi - CPCB",21-04-2024 10:00:00,28.60909,77.0325413,CO,24,50,32
India,Delhi,Delhi,"Najafgarh, Delhi - DPCC",21-04-2024 10:00:00,28.570173,76.933762,PM2.5,22,308,80
India,Delhi,Delhi,"Najafgarh, Delhi - DPCC",21-04-2024 10:00:00,28.570173,76.933762,PM10,122,232,155
India,Delhi,Delhi,"Najafgarh, Delhi - DPCC",21-04-2024 10:00:00,28.570173,76.933762,CO,34,60,49
India,Delhi,Delhi,"Nehru Nagar, Delhi - DPCC",21-04-2024 10:00:00,28.567890,77.250515,PM2.5,35,132,63
India,Delhi,Delhi,"New Moti Bagh, Delhi - MHUA",21-04-2024 10:00:00,28.57834,77.18400,CO,11,42,32
India,Delhi,Delhi,"Okhla Phase-2, Delhi - DPCC",21-04-2024 10:00:00,28.530785,77.271255,NO2,34,95,66
India,Delhi,Delhi,"Okhla Phase-2, Delhi - DPCC",21-04-2024 10:00:00,28.530785,77.271255,OZONE,28,80,43
India,Delhi,Delhi,"Patparganj, Delhi - DPCC",21-04-2024 10:00:00,28.623763,77.287209,NO2,27,73,45
India,Delhi,Delhi,"Punjabi Bagh, Delhi - DPCC",21-04-2024 10:00:00,28.674045,77.131023,CO,34,48,40
India,Delhi,Delhi,"Pusa, Delhi - DPCC",21-04-2024 10:00:00,28.639652,77.146275,NO2,31,101,66
India,Delhi,Delhi,"Pusa, Delhi - IMD",21-04-2024 10:00:00,28.636110,77.173332,CO,78,92,86
India,Delhi,Delhi,"Rohini, Delhi - DPCC",21-04-2024 10:00:00,28.732528,77.119920,PM10,119,197,145
India,Delhi,Delhi,"Rohini, Delhi - DPCC",21-04-2024 10:00:00,28.732528,77.119920,OZONE,36,84,54
India,Delhi,Delhi,"Shadipur, Delhi - CPCB",21-04-2024 10:00:00,28.6514781,77.1473105,PM10,94,418,154
India,Delhi,Delhi,"Shadipur, Delhi - CPCB",21-04-2024 10:00:00,28.6514781,77.1473105,OZONE,45,109,69
India,Delhi,Delhi,"Sonia Vihar, Delhi - DPCC",21-04-2024 10:00:00,28.710508,77.249485,OZONE,29,80,47
India,Delhi,Delhi,"Sri Aurobindo Marg, Delhi - DPCC",21-04-2024 10:00:00,28.531346,77.190156,PM10,121,214,160
India,Delhi,Delhi,"Sri Aurobindo Marg, Delhi - DPCC",21-04-2024 10:00:00,28.531346,77.190156,OZONE,30,62,45
India,Delhi,Delhi,"Vivek Vihar, Delhi - DPCC",21-04-2024 10:00:00,28.672342,77.315260,CO,5,34,20
India,Delhi,Delhi,"Vivek Vihar, Delhi - DPCC",21-04-2024 10:00:00,28.672342,77.315260,OZONE,25,84,40
India,Delhi,Delhi,"Wazirpur, Delhi - DPCC",21-04-2024 10:00:00,28.699793,77.165453,PM2.5,53,238,96
India,Delhi,Delhi,"Wazirpur, Delhi - DPCC",21-04-2024 10:00:00,28.699793,77.165453,CO,39,96,58
India,Gujarat,Ahmedabad,"Chandkheda, Ahmedabad - IITM",21-04-2024 10:00:00,23.107969,72.574648,NO2,41,41,41
India,Gujarat,Ahmedabad,"Chandkheda, Ahmedabad - IITM",21-04-2024 10:00:00,23.107969,72.574648,SO2,8,12,10
India,Gujarat,Ahmedabad,"Gyaspur, Ahmedabad - IITM",21-04-2024 10:00:00,22.977134,72.553024,PM10,42,325,85
India,Gujarat,Ahmedabad,"Gyaspur, Ahmedabad - IITM",21-04-2024 10:00:00,22.977134,72.553024,NO2,19,110,57
India,Gujarat,Ahmedabad,"Raikhad, Ahmedabad - IITM",21-04-2024 10:00:00,23.020509,72.579261,SO2,5,13,8
India,Gujarat,Ahmedabad,"SAC ISRO Satellite, Ahmedabad - IITM",21-04-2024 10:00:00,23.023389,72.515201,NO2,17,17,17
India,Gujarat,Ahmedabad,"SAC ISRO Satellite, Ahmedabad - IITM",21-04-2024 10:00:00,23.023389,72.515201,SO2,3,28,9
India,Gujarat,Ankleshwar,"GIDC, Ankleshwar - GPCB",21-04-2024 10:00:00,21.613267,73.010555,SO2,7,58,20
India,Gujarat,Gandhinagar,"IIPHG Lekawada, Gandhinagar - IITM",21-04-2024 10:00:00,23.243639,72.68994,PM2.5,26,92,56
India,Gujarat,Gandhinagar,"IIPHG Lekawada, Gandhinagar - IITM",21-04-2024 10:00:00,23.243639,72.68994,OZONE,10,26,13
India,Gujarat,Gandhinagar,"Sector-10, Gandhinagar - GPCB",21-04-2024 10:00:00,23.221714,72.654328,PM2.5,23,48,36
India,Gujarat,Gandhinagar,"Sector-10, Gandhinagar - GPCB",21-04-2024 10:00:00,23.221714,72.654328,PM10,35,96,49
India,Gujarat,Gandhinagar,"Sector-10, Gandhinagar - GPCB",21-04-2024 10:00:00,23.221714,72.654328,SO2,4,6,5
India,Gujarat,Nandesari,"GIDC, Nandesari - Nandesari Ind. Association",21-04-2024 10:00:00,22.410802,73.097923,PM2.5,50,372,182
India,Gujarat,Surat,"Science Center, Surat - SMC",21-04-2024 10:00:00,21.170046,72.795405,PM2.5,2,15,7
India,Gujarat,Surat,"Science Center, Surat - SMC",21-04-2024 10:00:00,21.170046,72.795405,PM10,6,39,17
India,Gujarat,Vapi,"Phase-1 GIDC, Vapi - GPCB",21-04-2024 10:00:00,20.362421,72.918013,PM10,41,93,68
India,Gujarat,Vapi,"Phase-1 GIDC, Vapi - GPCB",21-04-2024 10:00:00,20.362421,72.918013,NH3,2,2,2
India,Gujarat,Vatva,"Phase-4 GIDC, Vatva - GPCB",21-04-2024 10:00:00,22.969611,72.643500,PM10,43,103,67
India,Haryana,Ambala,"Patti Mehar, Ambala - HSPCB",21-04-2024 10:00:00,30.379589,76.778328,NO2,1,5,4
India,Haryana,Ambala,"Patti Mehar, Ambala - HSPCB",21-04-2024 10:00:00,30.379589,76.778328,CO,20,60,51
India,Haryana,Bahadurgarh,"Arya Nagar, Bahadurgarh - HSPCB",21-04-2024 10:00:00,28.6701,76.9254,NO2,21,38,24
India,Haryana,Ballabgarh,"Nathu Colony, Ballabgarh - HSPCB",21-04-2024 10:00:00,28.3419248,77.319699,PM2.5,76,360,142
India,Haryana,Ballabgarh,"Nathu Colony, Ballabgarh - HSPCB",21-04-2024 10:00:00,28.3419248,77.319699,NH3,1,2,2
India,Haryana,Bhiwani,"H.B. Colony, Bhiwani - HSPCB",21-04-2024 10:00:00,28.806223,76.141105,NO2,6,11,8
India,Haryana,Bhiwani,"H.B. Colony, Bhiwani - HSPCB",21-04-2024 10:00:00,28.806223,76.141105,OZONE,12,23,15
India,Haryana,Dharuhera,"Municipal Corporation Office, Dharuhera -  HSPCB",21-04-2024 10:00:00,28.206800,76.799700,PM10,158,266,189
India,Haryana,Faridabad,"New Industrial Town, Faridabad - HSPCB",21-04-2024 10:00:00,28.39072,77.30059,PM10,99,382,170
India,Haryana,Faridabad,"New Industrial Town, Faridabad - HSPCB",21-04-2024 10:00:00,28.39072,77.30059,NO2,1,15,8
India,Haryana,Faridabad,"New Industrial Town, Faridabad - HSPCB",21-04-2024 10:00:00,28.39072,77.30059,CO,4,20,13
India,Haryana,Faridabad,"Sector 11, Faridabad - HSPCB",21-04-2024 10:00:00,28.376058,77.315741,NO2,30,33,31
India,Haryana,Faridabad,"Sector 11, Faridabad - HSPCB",21-04-2024 10:00:00,28.376058,77.315741,CO,16,52,46
India,Haryana,Faridabad,"Sector 30, Faridabad - HSPCB",21-04-2024 10:00:00,28.4417,77.3217,PM2.5,93,100,96
India,Haryana,Faridabad,"Sector- 16A, Faridabad - HSPCB",21-04-2024 10:00:00,28.4088421,77.3099081,SO2,5,26,19
India,Haryana,Fatehabad,"Huda Sector, Fatehabad - HSPCB",21-04-2024 10:00:00,29.503664,75.467934,PM10,46,102,73
India,Haryana,Fatehabad,"Huda Sector, Fatehabad - HSPCB",21-04-2024 10:00:00,29.503664,75.467934,CO,6,14,7
India,Haryana,Gurugram,"Sector-51, Gurugram - HSPCB",21-04-2024 10:00:00,28.4227,77.0667,PM2.5,245,334,289
India,Haryana,Gurugram,"Teri Gram, Gurugram - HSPCB",21-04-2024 10:00:00,28.4275,77.1465,PM2.5,23,410,160
India,Haryana,Gurugram,"Teri Gram, Gurugram - HSPCB",21-04-2024 10:00:00,28.4275,77.1465,PM10,57,410,180
India,Haryana,Hisar,"Urban Estate-II, Hisar - HSPCB",21-04-2024 10:00:00,29.140560,75.744941,PM2.5,31,68,46
India,Haryana,Hisar,"Urban Estate-II, Hisar - HSPCB",21-04-2024 10:00:00,29.140560,75.744941,CO,25,40,28
India,Haryana,Jind,"Police Lines, Jind - HSPCB",21-04-2024 10:00:00,29.307814,76.337619,PM2.5,33,63,45
India,Haryana,Kaithal,"Rishi Nagar, Kaithal - HSPCB",21-04-2024 10:00:00,29.8006,76.4155,PM2.5,NA,NA,NA
India,Haryana,Kaithal,"Rishi Nagar, Kaithal - HSPCB",21-04-2024 10:00:00,29.8006,76.4155,NO2,NA,NA,NA
India,Haryana,Kaithal,"Rishi Nagar, Kaithal - HSPCB",21-04-2024 10:00:00,29.8006,76.4155,NH3,NA,NA,NA
India,Haryana,Kaithal,"Rishi Nagar, Kaithal - HSPCB",21-04-2024 10:00:00,29.8006,76.4155,CO,NA,NA,NA
India,Haryana,Mandikhera,"General Hospital, Mandikhera - HSPCB",21-04-2024 10:00:00,27.9002,76.9938,PM2.5,9,85,37
India,Haryana,Mandikhera,"General Hospital, Mandikhera - HSPCB",21-04-2024 10:00:00,27.9002,76.9938,PM10,61,278,103
India,Haryana,Manesar,"Sector-2 IMT, Manesar - HSPCB",21-04-2024 10:00:00,28.360699,76.936090,NO2,12,24,17
India,Haryana,Manesar,"Sector-2 IMT, Manesar - HSPCB",21-04-2024 10:00:00,28.360699,76.936090,OZONE,13,58,33
India,Haryana,Narnaul,"Shastri Nagar, Narnaul - HSPCB",21-04-2024 10:00:00,28.060249,76.113115,NH3,5,27,15
India,Haryana,Panchkula,"Sector-6, Panchkula - HSPCB ",21-04-2024 10:00:00,30.7057778,76.8531805555555,CO,10,30,24
India,Haryana,Panchkula,"Sector-6, Panchkula - HSPCB ",21-04-2024 10:00:00,30.7057778,76.8531805555555,OZONE,35,41,36
India,Haryana,Rohtak,"MD University, Rohtak - HSPCB",21-04-2024 10:00:00,28.52123,76.37138,PM2.5,24,141,62
India,Haryana,Sirsa,"F-Block, Sirsa - HSPCB",21-04-2024 10:00:00,29.536400,75.015800,PM2.5,28,59,47
India,Haryana,Sirsa,"F-Block, Sirsa - HSPCB",21-04-2024 10:00:00,29.536400,75.015800,NO2,9,11,10
India,Haryana,Sirsa,"F-Block, Sirsa - HSPCB",21-04-2024 10:00:00,29.536400,75.015800,NH3,12,13,12
India,Haryana,Sirsa,"F-Block, Sirsa - HSPCB",21-04-2024 10:00:00,29.536400,75.015800,OZONE,61,98,70
India,Haryana,Sonipat,"Murthal, Sonipat - HSPCB",21-04-2024 10:00:00,29.027200,77.062100,PM2.5,48,48,48
India,Haryana,Sonipat,"Murthal, Sonipat - HSPCB",21-04-2024 10:00:00,29.027200,77.062100,CO,8,21,17
India,Haryana,Yamuna Nagar,"Gobind Pura, Yamuna Nagar - HSPCB",21-04-2024 10:00:00,30.1480566,77.2893471,NO2,11,28,18
India,Haryana,Yamuna Nagar,"Gobind Pura, Yamuna Nagar - HSPCB",21-04-2024 10:00:00,30.1480566,77.2893471,NH3,1,6,4
India,Himachal Pradesh,Baddi,"HIMUDA Complex Phase-1, Baddi - HPPCB",21-04-2024 10:00:00,30.943887,76.801991,SO2,12,115,36
India,Himachal Pradesh,Baddi,"HIMUDA Complex Phase-1, Baddi - HPPCB",21-04-2024 10:00:00,30.943887,76.801991,OZONE,32,153,66
India,Karnataka,Belgaum,"Ramteerth Nagar, Belgaum - KSPCB",21-04-2024 10:00:00,15.888653,74.541751,PM2.5,19,54,29
India,Karnataka,Belgaum,"Ramteerth Nagar, Belgaum - KSPCB",21-04-2024 10:00:00,15.888653,74.541751,SO2,8,9,9
India,Karnataka,Belgaum,"Ramteerth Nagar, Belgaum - KSPCB",21-04-2024 10:00:00,15.888653,74.541751,CO,18,38,31
India,Karnataka,Bengaluru,"BTM Layout, Bengaluru - CPCB",21-04-2024 10:00:00,12.9135218,77.5950804,CO,18,31,29
India,Karnataka,Bengaluru,"BTM Layout, Bengaluru - CPCB",21-04-2024 10:00:00,12.9135218,77.5950804,OZONE,9,34,10
India,Karnataka,Bengaluru,"Bapuji Nagar, Bengaluru - KSPCB",21-04-2024 10:00:00,12.951913,77.539784,PM2.5,72,149,104
India,Karnataka,Bengaluru,"Bapuji Nagar, Bengaluru - KSPCB",21-04-2024 10:00:00,12.951913,77.539784,NO2,10,11,11
India,Karnataka,Bengaluru,"Bapuji Nagar, Bengaluru - KSPCB",21-04-2024 10:00:00,12.951913,77.539784,OZONE,23,33,26
India,Karnataka,Bengaluru,"Hombegowda Nagar, Bengaluru - KSPCB",21-04-2024 10:00:00,12.938539,77.590100,PM2.5,38,71,53
India,Karnataka,Bengaluru,"Hombegowda Nagar, Bengaluru - KSPCB",21-04-2024 10:00:00,12.938539,77.590100,NH3,1,2,2
India,Karnataka,Bengaluru,"Hombegowda Nagar, Bengaluru - KSPCB",21-04-2024 10:00:00,12.938539,77.590100,SO2,3,4,4
India,Karnataka,Bengaluru,"Hombegowda Nagar, Bengaluru - KSPCB",21-04-2024 10:00:00,12.938539,77.590100,CO,9,14,12
India,Karnataka,Bengaluru,"Hombegowda Nagar, Bengaluru - KSPCB",21-04-2024 10:00:00,12.938539,77.590100,OZONE,4,5,4
India,Karnataka,Bengaluru,"Shivapura_Peenya, Bengaluru - KSPCB",21-04-2024 10:00:00,13.0246342,77.5080115,OZONE,53,56,54
India,Karnataka,Bengaluru,"Silk Board, Bengaluru - KSPCB",21-04-2024 10:00:00,12.917348,77.622813,PM2.5,50,121,77
India,Karnataka,Bidar,"Naubad, Bidar - KSPCB",21-04-2024 10:00:00,17.930306,77.482194,PM2.5,14,90,45
India,Karnataka,Bidar,"Naubad, Bidar - KSPCB",21-04-2024 10:00:00,17.930306,77.482194,CO,66,102,78
India,Karnataka,Chamarajanagar,"Urban, Chamarajanagar - KSPCB",21-04-2024 10:00:00,11.55358,76.55521,PM2.5,24,52,33
India,Karnataka,Chamarajanagar,"Urban, Chamarajanagar - KSPCB",21-04-2024 10:00:00,11.55358,76.55521,PM10,43,62,48
India,Karnataka,Chikkaballapur,"Chikkaballapur Rural, Chikkaballapur - KSPCB",21-04-2024 10:00:00,13.428828,77.731418,PM2.5,55,95,74
India,Karnataka,Davanagere,"Devaraj Urs Badavane, Davanagere - KSPCB",21-04-2024 10:00:00,14.475800,75.905200,NH3,1,1,1
India,Karnataka,Hassan,"B.Katihalli, Hassan - KSPCB",21-04-2024 10:00:00,13.008556,76.125258,PM2.5,38,88,64
India,Karnataka,Hassan,"B.Katihalli, Hassan - KSPCB",21-04-2024 10:00:00,13.008556,76.125258,OZONE,4,20,4
India,Karnataka,Haveri,"Ashwini Nagar, Haveri - KSPCB",21-04-2024 10:00:00,14.791800,75.389600,PM2.5,42,92,63
India,Karnataka,Haveri,"Ashwini Nagar, Haveri - KSPCB",21-04-2024 10:00:00,14.791800,75.389600,NO2,29,38,32
India,Karnataka,Kalaburagi,"Lal Bahadur Shastri Nagar, Kalaburagi - KSPCB",21-04-2024 10:00:00,17.321993,76.822628,NO2,11,12,11
India,Karnataka,Kolar,"Tamaka Ind. Area, Kolar - KSPCB",21-04-2024 10:00:00,13.1276288,78.1570122,PM2.5,NA,NA,NA
India,Karnataka,Kolar,"Tamaka Ind. Area, Kolar - KSPCB",21-04-2024 10:00:00,13.1276288,78.1570122,PM10,NA,NA,NA
India,Karnataka,Kolar,"Tamaka Ind. Area, Kolar - KSPCB",21-04-2024 10:00:00,13.1276288,78.1570122,NH3,NA,NA,NA
India,Karnataka,Kolar,"Tamaka Ind. Area, Kolar - KSPCB",21-04-2024 10:00:00,13.1276288,78.1570122,OZONE,13,15,14
India,Karnataka,Koppal,"Diwator Nagar, Koppal - KSPCB",21-04-2024 10:00:00,15.347630,76.181767,PM2.5,12,34,21
India,Karnataka,Koppal,"Diwator Nagar, Koppal - KSPCB",21-04-2024 10:00:00,15.347630,76.181767,NO2,31,63,45
India,Karnataka,Koppal,"Diwator Nagar, Koppal - KSPCB",21-04-2024 10:00:00,15.347630,76.181767,NH3,7,9,8
India,Karnataka,Madikeri,"Stuart Hill, Madikeri - KSPCB",21-04-2024 10:00:00,12.415911,75.735050,NH3,1,2,1
India,Karnataka,Madikeri,"Stuart Hill, Madikeri - KSPCB",21-04-2024 10:00:00,12.415911,75.735050,SO2,4,4,4
India,Karnataka,Mangalore,"Kadri, Mangalore - KSPCB",21-04-2024 10:00:00,12.889250,74.853000,CO,42,60,45
India,Karnataka,Mysuru,"Hebbal 1st Stage, Mysuru - KSPCB",21-04-2024 10:00:00,12.21041,76.37376,PM10,33,85,52
India,Karnataka,Mysuru,"Hebbal 1st Stage, Mysuru - KSPCB",21-04-2024 10:00:00,12.21041,76.37376,CO,10,53,20
India,Karnataka,Ramanagara,"Vijay Nagar, Ramanagara - KSPCB",21-04-2024 10:00:00,12.733409,77.298051,NH3,1,1,1
India,Karnataka,Shivamogga,"Vinoba Nagara, Shivamogga - KSPCB",21-04-2024 10:00:00,13.940000,75.555917,PM2.5,32,51,46
India,Karnataka,Shivamogga,"Vinoba Nagara, Shivamogga - KSPCB",21-04-2024 10:00:00,13.940000,75.555917,NH3,2,4,3
India,Karnataka,Tumakuru,"Thimmalapura, Tumakuru - KSPCB",21-04-2024 10:00:00,13.377516,77.099072,CO,29,34,32
India,Karnataka,Vijayapura,"Ibrahimpur, Vijayapura - KSPCB",21-04-2024 10:00:00,16.802639,75.722694,NH3,2,2,2
India,Kerala,Eloor,"Udyogamandal, Eloor - Kerala PCB",21-04-2024 10:00:00,10.073232,76.302765,CO,14,114,26
India,Kerala,Kannur,"Thavakkara, Kannur - Kerala PCB",21-04-2024 10:00:00,11.875000,75.373200,PM2.5,66,78,71
India,Kerala,Kannur,"Thavakkara, Kannur - Kerala PCB",21-04-2024 10:00:00,11.875000,75.373200,NO2,6,7,6
India,Kerala,Kannur,"Thavakkara, Kannur - Kerala PCB",21-04-2024 10:00:00,11.875000,75.373200,SO2,1,1,1
India,Kerala,Kannur,"Thavakkara, Kannur - Kerala PCB",21-04-2024 10:00:00,11.875000,75.373200,CO,30,35,32
India,Kerala,Thiruvananthapuram,"Kariavattom, Thiruvananthapuram - Kerala PCB",21-04-2024 10:00:00,8.563700,76.886500,NO2,8,10,9
India,Kerala,Thiruvananthapuram,"Kariavattom, Thiruvananthapuram - Kerala PCB",21-04-2024 10:00:00,8.563700,76.886500,CO,18,41,21
India,Kerala,Thiruvananthapuram,"Plammoodu, Thiruvananthapuram - Kerala PCB",21-04-2024 10:00:00,8.5149093,76.9435879,PM2.5,2,51,21
India,Kerala,Thiruvananthapuram,"Plammoodu, Thiruvananthapuram - Kerala PCB",21-04-2024 10:00:00,8.5149093,76.9435879,NO2,8,10,9
India,Kerala,Thiruvananthapuram,"Plammoodu, Thiruvananthapuram - Kerala PCB",21-04-2024 10:00:00,8.5149093,76.9435879,NH3,1,1,1
India,Kerala,Thrissur,"Corporation Ground, Thrissur - Kerala PCB",21-04-2024 10:00:00,10.532400,76.215900,PM2.5,45,50,47
India,Madhya Pradesh,Bhopal,"Paryavaran Parisar, Bhopal - MPPCB",21-04-2024 10:00:00,23.210494,77.425409,PM10,55,115,76
India,Madhya Pradesh,Bhopal,"Paryavaran Parisar, Bhopal - MPPCB",21-04-2024 10:00:00,23.210494,77.425409,NH3,7,7,7
India,Madhya Pradesh,Bhopal,"Paryavaran Parisar, Bhopal - MPPCB",21-04-2024 10:00:00,23.210494,77.425409,OZONE,43,85,64
India,Madhya Pradesh,Bhopal,"T T Nagar, Bhopal - MPPCB",21-04-2024 10:00:00,23.233584,77.400574,NO2,5,34,15
India,Madhya Pradesh,Dewas,"Bhopal Chauraha, Dewas - MPPCB",21-04-2024 10:00:00,22.9682591,76.064118,CO,13,34,17
India,Madhya Pradesh,Gwalior,"City Center, Gwalior - MPPCB",21-04-2024 10:00:00,26.203442,78.193251,PM2.5,16,65,40
India,Madhya Pradesh,Gwalior,"City Center, Gwalior - MPPCB",21-04-2024 10:00:00,26.203442,78.193251,SO2,6,41,25
India,Madhya Pradesh,Gwalior,"Deen Dayal Nagar, Gwalior - MPPCB",21-04-2024 10:00:00,26.259242,78.216432,PM10,51,208,118
India,Madhya Pradesh,Gwalior,"Maharaj Bada, Gwalior - MPPCB",21-04-2024 10:00:00,26.200388,78.147714,SO2,3,19,10
India,Madhya Pradesh,Gwalior,"Maharaj Bada, Gwalior - MPPCB",21-04-2024 10:00:00,26.200388,78.147714,CO,16,89,28
India,Madhya Pradesh,Gwalior,"Phool Bagh, Gwalior - Mondelez Ind. Food",21-04-2024 10:00:00,26.210536,78.171,PM10,20,56,39
India,Madhya Pradesh,Gwalior,"Phool Bagh, Gwalior - Mondelez Ind. Food",21-04-2024 10:00:00,26.210536,78.171,SO2,14,16,15
India,Madhya Pradesh,Indore,"Chhoti Gwaltoli, Indore - MPPCB",21-04-2024 10:00:00,22.4310,75.5213,OZONE,22,67,51
India,Madhya Pradesh,Indore,"Maguda Nagar, Indore - IMC",21-04-2024 10:00:00,22.7524,75.8872,NO2,4,6,5
India,Madhya Pradesh,Indore,"Residency Area, Indore - IMC",21-04-2024 10:00:00,22.7084,75.8815,NO2,32,51,40
India,Madhya Pradesh,Jabalpur,"Suhagi, Jabalpur - JMC",21-04-2024 10:00:00,23.218135,79.957770,PM10,45,119,82
India,Madhya Pradesh,Maihar,"Sahilara, Maihar - KJS Cements",21-04-2024 10:00:00,24.2613009,80.7231783,PM2.5,7,48,26
India,Madhya Pradesh,Mandideep,"Sector-D Industrial Area, Mandideep - MPPCB",21-04-2024 10:00:00,23.108440,77.511428,SO2,2,22,10
India,Madhya Pradesh,Pithampur,"Sector-2 Industrial Area, Pithampur - MPPCB",21-04-2024 10:00:00,22.624758,75.675238,PM2.5,21,228,59
India,Madhya Pradesh,Pithampur,"Sector-2 Industrial Area, Pithampur - MPPCB",21-04-2024 10:00:00,22.624758,75.675238,SO2,10,14,12
India,Madhya Pradesh,Ratlam,"Shasthri Nagar, Ratlam - IPCA Lab",21-04-2024 10:00:00,23.331731,75.045981,PM2.5,3,227,62
India,Madhya Pradesh,Singrauli,"Suryakiran Bhawan NCL, Singrauli - MPPCB",21-04-2024 10:00:00,24.108970,82.645580,NO2,13,88,41
India,Madhya Pradesh,Singrauli,"Suryakiran Bhawan NCL, Singrauli - MPPCB",21-04-2024 10:00:00,24.108970,82.645580,OZONE,5,62,27
India,Madhya Pradesh,Ujjain,"Mahakaleshwar Temple, Ujjain - MPPCB",21-04-2024 10:00:00,23.182719 ,75.768218 ,SO2,NA,NA,NA
India,Maharashtra,Ahmednagar,"Tarakpur, Ahmednagar - MPCB",21-04-2024 10:00:00,19.10122,74.73339,PM2.5,34,297,94
India,Maharashtra,Akola,"Ramdaspeth, Akola - MPCB",21-04-2024 10:00:00,20.719516,77.000253,PM10,41,182,102
India,Maharashtra,Amravati,"Shivneri Colony, Amravati - MPCB",21-04-2024 10:00:00,20.9402359,77.7895248,PM2.5,42,76,60
India,Maharashtra,Amravati,"Shivneri Colony, Amravati - MPCB",21-04-2024 10:00:00,20.9402359,77.7895248,SO2,1,6,3
India,Maharashtra,Aurangabad,"MIDC Chilkalthana, Aurangabad - MPCB",21-04-2024 10:00:00,19.875620,75.387310,PM10,NA,NA,NA
India,Maharashtra,Aurangabad,"MIDC Chilkalthana, Aurangabad - MPCB",21-04-2024 10:00:00,19.875620,75.387310,NH3,NA,NA,NA
India,Maharashtra,Aurangabad,"More Chowk Waluj, Aurangabad - MPCB",21-04-2024 10:00:00,19.8389439,75.244448,SO2,NA,NA,NA
India,Maharashtra,Aurangabad,"Rachnakar Colony, Aurangabad - MPCB",21-04-2024 10:00:00,19.863756,75.321188,PM2.5,NA,NA,NA
India,Maharashtra,Belapur,"CBD Belapur, Belapur - MPCB",21-04-2024 10:00:00,19.0243902,73.0406721,CO,16,34,22
India,Maharashtra,Boisar,"Khaira, Boisar - MPCB",21-04-2024 10:00:00,19.786089,72.757971,NO2,24,93,51
India,Maharashtra,Boisar,"Khaira, Boisar - MPCB",21-04-2024 10:00:00,19.786089,72.757971,SO2,29,105,60
India,Maharashtra,Boisar,"Khaira, Boisar - MPCB",21-04-2024 10:00:00,19.786089,72.757971,CO,8,40,20
India,Maharashtra,Chandrapur,"Chauhan Colony, Chandrapur - MPCB",21-04-2024 10:00:00,19.962900,79.298714,PM2.5,60,93,78
India,Maharashtra,Chandrapur,"MIDC Khutala, Chandrapur - MPCB",21-04-2024 10:00:00,19.9775302,79.2337086,SO2,NA,NA,NA
India,Maharashtra,Chandrapur,"MIDC Khutala, Chandrapur - MPCB",21-04-2024 10:00:00,19.9775302,79.2337086,OZONE,NA,NA,NA
India,Maharashtra,Dhule,"Deopur, Dhule - MPCB",21-04-2024 10:00:00,20.918946,74.776388,SO2,13,21,18
India,Maharashtra,Jalgaon,"Prabhat Colony, Jalgaon - MPCB",21-04-2024 10:00:00,21.001264,75.565602,NO2,11,35,20
India,Maharashtra,Jalgaon,"Prabhat Colony, Jalgaon - MPCB",21-04-2024 10:00:00,21.001264,75.565602,SO2,2,31,13
India,Maharashtra,Jalna,"Old MIDC, Jalna - MPCB",21-04-2024 10:00:00,19.854616,75.905894,PM10,18,122,47
India,Maharashtra,Jalna,"Old MIDC, Jalna - MPCB",21-04-2024 10:00:00,19.854616,75.905894,OZONE,10,138,17
India,Maharashtra,Latur,"Sawe Wadi, Latur - MPCB",21-04-2024 10:00:00,18.39963,76.57452,NO2,8,68,25
India,Maharashtra,Mahad,"Kamble Tarf Birwadi, Mahad - MPCB",21-04-2024 10:00:00,18.1023399,73.4783687,PM2.5,40,181,84
India,Maharashtra,Mahad,"Kamble Tarf Birwadi, Mahad - MPCB",21-04-2024 10:00:00,18.1023399,73.4783687,CO,10,33,22
India,Maharashtra,Mahad,"Kamble Tarf Birwadi, Mahad - MPCB",21-04-2024 10:00:00,18.1023399,73.4783687,OZONE,20,83,28
India,Maharashtra,Mumbai,"Bandra Kurla Complex, Mumbai - MPCB",21-04-2024 10:00:00,19.065931,72.862131,OZONE,9,95,33
India,Maharashtra,Mumbai,"Borivali East, Mumbai - IITM",21-04-2024 10:00:00,19.23241,72.86895,NH3,NA,NA,NA
India,Maharashtra,Mumbai,"Byculla, Mumbai - BMC",21-04-2024 10:00:00,18.9767,72.8380,NO2,9,15,12
India,Maharashtra,Mumbai,"Byculla, Mumbai - BMC",21-04-2024 10:00:00,18.9767,72.8380,NH3,3,3,3
India,Maharashtra,Mumbai,"Byculla, Mumbai - BMC",21-04-2024 10:00:00,18.9767,72.8380,CO,8,32,10
India,Maharashtra,Mumbai,"Chembur, Mumbai - MPCB",21-04-2024 10:00:00,19.0364585,72.8954371,CO,18,27,23
India,Maharashtra,Mumbai,"Chhatrapati Shivaji Intl. Airport (T2), Mumbai - MPCB",21-04-2024 10:00:00,19.10078,72.87462,CO,36,48,43
India,Maharashtra,Mumbai,"Chhatrapati Shivaji Intl. Airport (T2), Mumbai - MPCB",21-04-2024 10:00:00,19.10078,72.87462,OZONE,4,11,5
India,Maharashtra,Mumbai,"Colaba, Mumbai - MPCB",21-04-2024 10:00:00,18.910000,72.820000,OZONE,11,11,11
India,Maharashtra,Mumbai,"Ghatkopar, Mumbai - BMC",21-04-2024 10:00:00,19.083694,72.920967,PM2.5,13,59,30
India,Maharashtra,Mumbai,"Ghatkopar, Mumbai - BMC",21-04-2024 10:00:00,19.083694,72.920967,SO2,1,2,1
India,Maharashtra,Mumbai,"Kandivali East, Mumbai - MPCB",21-04-2024 10:00:00,19.205800,72.868200,CO,28,32,30
India,Maharashtra,Mumbai,"Kandivali West, Mumbai - BMC",21-04-2024 10:00:00,19.215859,72.831718,PM10,24,59,42
India,Maharashtra,Mumbai,"Kandivali West, Mumbai - BMC",21-04-2024 10:00:00,19.215859,72.831718,NH3,1,3,2
India,Maharashtra,Mumbai,"Kandivali West, Mumbai - BMC",21-04-2024 10:00:00,19.215859,72.831718,OZONE,20,145,34
India,Maharashtra,Mumbai,"Kherwadi_Bandra East, Mumbai - MPCB",21-04-2024 10:00:00,19.0632143,72.8456324,PM10,56,112,82
India,Maharashtra,Mumbai,"Kherwadi_Bandra East, Mumbai - MPCB",21-04-2024 10:00:00,19.0632143,72.8456324,NH3,7,37,12
India,Maharashtra,Mumbai,"Khindipada-Bhandup West, Mumbai - IITM",21-04-2024 10:00:00,19.1653323,72.922099,NO2,7,12,9
India,Maharashtra,Mumbai,"Khindipada-Bhandup West, Mumbai - IITM",21-04-2024 10:00:00,19.1653323,72.922099,NH3,5,10,8
India,Maharashtra,Mumbai,"Khindipada-Bhandup West, Mumbai - IITM",21-04-2024 10:00:00,19.1653323,72.922099,SO2,1,9,3
India,Maharashtra,Mumbai,"Kurla, Mumbai - MPCB",21-04-2024 10:00:00,19.0863,72.8888,SO2,32,32,32
India,Maharashtra,Mumbai,"Kurla, Mumbai - MPCB",21-04-2024 10:00:00,19.0863,72.8888,CO,8,21,12
India,Maharashtra,Mumbai,"Mazgaon, Mumbai - IITM",21-04-2024 10:00:00,18.96702,72.84214,OZONE,42,125,57
India,Maharashtra,Mumbai,"Mindspace-Malad West, Mumbai - MPCB",21-04-2024 10:00:00,19.1878657,72.8304069,NO2,20,68,39
India,Maharashtra,Mumbai,"Navy Nagar-Colaba, Mumbai - IITM",21-04-2024 10:00:00,18.897756,72.813320,PM2.5,6,38,19
India,Maharashtra,Mumbai,"Navy Nagar-Colaba, Mumbai - IITM",21-04-2024 10:00:00,18.897756,72.813320,NH3,8,10,9
India,Maharashtra,Mumbai,"Navy Nagar-Colaba, Mumbai - IITM",21-04-2024 10:00:00,18.897756,72.813320,OZONE,43,185,79
India,Maharashtra,Mumbai,"Powai, Mumbai - MPCB",21-04-2024 10:00:00,19.137500,72.915056,PM10,48,142,95
India,Maharashtra,Mumbai,"Powai, Mumbai - MPCB",21-04-2024 10:00:00,19.137500,72.915056,NH3,1,2,1
India,Maharashtra,Mumbai,"Powai, Mumbai - MPCB",21-04-2024 10:00:00,19.137500,72.915056,CO,27,37,30
India,Maharashtra,Mumbai,"Sewri, Mumbai - BMC",21-04-2024 10:00:00,19.000084,72.856730,NH3,1,5,4
India,Maharashtra,Mumbai,"Shivaji Nagar, Mumbai - BMC",21-04-2024 10:00:00,19.060498,72.923356,NO2,25,84,57
India,Maharashtra,Mumbai,"Sion, Mumbai - MPCB",21-04-2024 10:00:00,19.047000,72.874600,PM2.5,28,59,42
India,Maharashtra,Mumbai,"Sion, Mumbai - MPCB",21-04-2024 10:00:00,19.047000,72.874600,NH3,1,1,1
India,Maharashtra,Mumbai,"Sion, Mumbai - MPCB",21-04-2024 10:00:00,19.047000,72.874600,SO2,33,36,34
India,Maharashtra,Mumbai,"Vasai West, Mumbai - MPCB",21-04-2024 10:00:00,19.383200,72.820400,PM10,65,135,104
India,Maharashtra,Mumbai,"Vasai West, Mumbai - MPCB",21-04-2024 10:00:00,19.383200,72.820400,CO,30,39,36
India,Maharashtra,Mumbai,"Vile Parle West, Mumbai - MPCB",21-04-2024 10:00:00,19.10861,72.83622,PM2.5,23,58,41
India,Maharashtra,Mumbai,"Vile Parle West, Mumbai - MPCB",21-04-2024 10:00:00,19.10861,72.83622,NO2,6,11,9
India,Maharashtra,Mumbai,"Worli, Mumbai - MPCB",21-04-2024 10:00:00,18.9936162,72.8128113,PM2.5,13,50,27
India,Maharashtra,Mumbai,"Worli, Mumbai - MPCB",21-04-2024 10:00:00,18.9936162,72.8128113,PM10,58,279,99
India,Maharashtra,Nagpur,"Ambazari, Nagpur - MPCB",21-04-2024 10:00:00,21.121801,79.04952,PM2.5,51,95,68
India,Maharashtra,Nagpur,"Ambazari, Nagpur - MPCB",21-04-2024 10:00:00,21.121801,79.04952,SO2,15,48,23
India,Maharashtra,Nagpur,"Mahal, Nagpur - MPCB",21-04-2024 10:00:00,21.14472,79.107595,PM2.5,52,83,66
India,Maharashtra,Nagpur,"Mahal, Nagpur - MPCB",21-04-2024 10:00:00,21.14472,79.107595,SO2,5,111,38
India,Maharashtra,Nagpur,"Mahal, Nagpur - MPCB",21-04-2024 10:00:00,21.14472,79.107595,OZONE,5,166,38
India,Maharashtra,Nagpur,"Opp GPO Civil Lines, Nagpur - MPCB",21-04-2024 10:00:00,21.152875,79.0517531,SO2,2,22,12
India,Maharashtra,Nagpur,"Opp GPO Civil Lines, Nagpur - MPCB",21-04-2024 10:00:00,21.152875,79.0517531,OZONE,3,96,36
India,Maharashtra,Nanded,"Sneh Nagar, Nanded - MPCB",21-04-2024 10:00:00,19.173852,77.296291,PM10,32,102,58
India,Maharashtra,Nanded,"Sneh Nagar, Nanded - MPCB",21-04-2024 10:00:00,19.173852,77.296291,SO2,1,15,8
India,Maharashtra,Nashik,"Gangapur Road, Nashik - MPCB",21-04-2024 10:00:00,20.0073285,73.7762427,PM2.5,57,134,86
India,Maharashtra,Nashik,"Gangapur Road, Nashik - MPCB",21-04-2024 10:00:00,20.0073285,73.7762427,PM10,48,124,76
India,Maharashtra,Nashik,"Gangapur Road, Nashik - MPCB",21-04-2024 10:00:00,20.0073285,73.7762427,NO2,4,27,17
India,Maharashtra,Nashik,"MIDC Ambad, Nashik - MPCB",21-04-2024 10:00:00,19.950220,73.731480,NO2,7,27,13
India,Maharashtra,Nashik,"MIDC Ambad, Nashik - MPCB",21-04-2024 10:00:00,19.950220,73.731480,SO2,2,47,16
India,Maharashtra,Nashik,"MIDC Ambad, Nashik - MPCB",21-04-2024 10:00:00,19.950220,73.731480,OZONE,17,99,27
India,Maharashtra,Nashik,"Pandav Nagari, Nashik - MPCB",21-04-2024 10:00:00,19.9591346,73.7788008,PM2.5,43,75,56
India,Maharashtra,Nashik,"Pandav Nagari, Nashik - MPCB",21-04-2024 10:00:00,19.9591346,73.7788008,NH3,1,2,2
India,Maharashtra,Nashik,"Pandav Nagari, Nashik - MPCB",21-04-2024 10:00:00,19.9591346,73.7788008,CO,12,31,22
India,Maharashtra,Nashik,"Pandav Nagari, Nashik - MPCB",21-04-2024 10:00:00,19.9591346,73.7788008,OZONE,21,91,25
India,Maharashtra,Navi Mumbai,"Kopripada-Vashi, Navi Mumbai - MPCB",21-04-2024 10:00:00,19.090337,73.014232,PM10,75,129,100
India,Maharashtra,Navi Mumbai,"Mahape, Navi Mumbai - MPCB",21-04-2024 10:00:00,19.1135051,73.008978,SO2,22,23,23
India,Maharashtra,Navi Mumbai,"Mahape, Navi Mumbai - MPCB",21-04-2024 10:00:00,19.1135051,73.008978,CO,103,110,109
India,Maharashtra,Navi Mumbai,"Nerul, Navi Mumbai - MPCB",21-04-2024 10:00:00,19.008751,73.016620,CO,35,42,40
India,Maharashtra,Navi Mumbai,"Sanpada, Navi Mumbai - MPCB",21-04-2024 10:00:00,19.0575752,73.0151367,PM2.5,31,59,46
India,Maharashtra,Navi Mumbai,"Sanpada, Navi Mumbai - MPCB",21-04-2024 10:00:00,19.0575752,73.0151367,CO,2,44,5
India,Maharashtra,Navi Mumbai,"Sector-19A Nerul, Navi Mumbai - IITM",21-04-2024 10:00:00,19.044,73.0325,SO2,8,26,17
India,Maharashtra,Navi Mumbai,"Sector-19A Nerul, Navi Mumbai - IITM",21-04-2024 10:00:00,19.044,73.0325,CO,23,46,36
India,Maharashtra,Navi Mumbai,"Sector-19A Nerul, Navi Mumbai - IITM",21-04-2024 10:00:00,19.044,73.0325,OZONE,9,147,33
India,Maharashtra,Navi Mumbai,"Tondare-Taloja, Navi Mumbai - MPCB",21-04-2024 10:00:00,19.0630,73.1209,NO2,12,90,45
India,Maharashtra,Pimpri-Chinchwad,"Gavalinagar, Pimpri Chinchwad - MPCB",21-04-2024 10:00:00,18.63673,73.82487,PM10,44,160,88
India,Maharashtra,Pimpri-Chinchwad,"Gavalinagar, Pimpri Chinchwad - MPCB",21-04-2024 10:00:00,18.63673,73.82487,NO2,15,63,35
India,Maharashtra,Pimpri-Chinchwad,"Gavalinagar, Pimpri Chinchwad - MPCB",21-04-2024 10:00:00,18.63673,73.82487,NH3,1,5,3
India,Maharashtra,Pimpri-Chinchwad,"Gavalinagar, Pimpri Chinchwad - MPCB",21-04-2024 10:00:00,18.63673,73.82487,CO,14,41,29
India,Maharashtra,Pimpri-Chinchwad,"Park Street Wakad, Pimpri Chinchwad - MPCB",21-04-2024 10:00:00,18.59051,73.77946,PM10,13,242,61
India,Maharashtra,Pimpri-Chinchwad,"Park Street Wakad, Pimpri Chinchwad - MPCB",21-04-2024 10:00:00,18.59051,73.77946,NO2,51,83,68
India,Maharashtra,Pune,"Karve Road, Pune - MPCB",21-04-2024 10:00:00,18.5011743,73.8165527,PM2.5,17,450,78
India,Maharashtra,Pune,"Karve Road, Pune - MPCB",21-04-2024 10:00:00,18.5011743,73.8165527,CO,15,194,31
India,Maharashtra,Pune,"Katraj Dairy, Pune - MPCB",21-04-2024 10:00:00,18.454450,73.854155,SO2,1,3,2
India,Maharashtra,Pune,"Revenue Colony-Shivajinagar, Pune - IITM",21-04-2024 10:00:00,18.530085,73.849598,PM10,14,65,38
India,Maharashtra,Pune,"Revenue Colony-Shivajinagar, Pune - IITM",21-04-2024 10:00:00,18.530085,73.849598,CO,104,118,109
India,Maharashtra,Pune,"Revenue Colony-Shivajinagar, Pune - IITM",21-04-2024 10:00:00,18.530085,73.849598,OZONE,3,69,7
India,Maharashtra,Pune,"Savitribai Phule Pune University, Pune - MPCB",21-04-2024 10:00:00,18.547056,73.826908,NH3,NA,NA,NA
India,Maharashtra,Pune,"Savitribai Phule Pune University, Pune - MPCB",21-04-2024 10:00:00,18.547056,73.826908,SO2,NA,NA,NA
India,Maharashtra,Pune,"Savitribai Phule Pune University, Pune - MPCB",21-04-2024 10:00:00,18.547056,73.826908,CO,NA,NA,NA
India,Maharashtra,Pune,"Transport Nagar-Nigdi, Pune - IITM",21-04-2024 10:00:00,18.664282,73.763966,CO,22,43,32
India,Maharashtra,Sangli,"Vijay Nagar, Sangli - MPCB",21-04-2024 10:00:00, 16.5038,74.3623,NO2,11,34,23
India,Maharashtra,Solapur,"Dnyaneshwar Nagar, Solapur - MPCB",21-04-2024 10:00:00,17.6336264,75.9132495,PM10,61,125,87
India,Maharashtra,Solapur,"Dnyaneshwar Nagar, Solapur - MPCB",21-04-2024 10:00:00,17.6336264,75.9132495,NO2,10,46,24
India,Maharashtra,Solapur,"Dnyaneshwar Nagar, Solapur - MPCB",21-04-2024 10:00:00,17.6336264,75.9132495,SO2,2,3,3
India,Maharashtra,Solapur,"Dnyaneshwar Nagar, Solapur - MPCB",21-04-2024 10:00:00,17.6336264,75.9132495,OZONE,14,86,28
India,Maharashtra,Solapur,"Ratandeep Housing Society, Solapur - MPCB",21-04-2024 10:00:00,17.65439,75.90649,NO2,14,92,37
India,Maharashtra,Thane,"Kasarvadavali, Thane - MPCB",21-04-2024 10:00:00,19.26777,72.97182,NO2,25,72,39
India,Maharashtra,Thane,"Kasarvadavali, Thane - MPCB",21-04-2024 10:00:00,19.26777,72.97182,NH3,5,9,6
India,Maharashtra,Thane,"Kasarvadavali, Thane - MPCB",21-04-2024 10:00:00,19.26777,72.97182,SO2,3,14,5
India,Maharashtra,Thane,"Upvan Fort, Thane - MPCB",21-04-2024 10:00:00,19.222279,72.957979,NH3,5,7,6
India,Maharashtra,Thane,"Upvan Fort, Thane - MPCB",21-04-2024 10:00:00,19.222279,72.957979,SO2,4,24,10
India,Maharashtra,Ulhasnagar,"Sidhi Vinayak Nagar, Ulhasnagar - MPCB",21-04-2024 10:00:00,19.235581,73.159121,PM10,65,140,108
India,Maharashtra,Ulhasnagar,"Sidhi Vinayak Nagar, Ulhasnagar - MPCB",21-04-2024 10:00:00,19.235581,73.159121,NH3,2,4,2
India,Maharashtra,Ulhasnagar,"Sidhi Vinayak Nagar, Ulhasnagar - MPCB",21-04-2024 10:00:00,19.235581,73.159121,SO2,11,55,19
India,Maharashtra,Virar,"Bolinj, Virar - MPCB",21-04-2024 10:00:00,19.4458210,72.7988231,CO,11,62,19
India,Manipur,Imphal,"DM College of Science, Imphal - Manipur PCB",21-04-2024 10:00:00,24.8207389,93.9423085,CO,6,7,6
India,Manipur,Imphal,"Manipur University, Imphal - Manipur PCB",21-04-2024 10:00:00,24.7524239,93.9286218,SO2,88,93,90
India,Meghalaya,Shillong,"Lumpyngngad, Shillong - Meghalaya PCB",21-04-2024 10:00:00,25.5586,91.8985,PM2.5,48,267,93
India,Nagaland,Kohima,"PWD Juction, Kohima - NPCB",21-04-2024 10:00:00,25.6635413,94.0989878,SO2,32,33,33
India,Odisha,Angul,"Hakimapada, Angul - OSPCB",21-04-2024 10:00:00,20.832874,85.104082,PM10,101,394,171
India,Odisha,Angul,"Hakimapada, Angul - OSPCB",21-04-2024 10:00:00,20.832874,85.104082,OZONE,30,287,59
India,Odisha,Balasore,"Kalidaspur, Balasore - OSPCB",21-04-2024 10:00:00,21.51161,86.89088,NO2,9,21,15
India,Odisha,Balasore,"Kalidaspur, Balasore - OSPCB",21-04-2024 10:00:00,21.51161,86.89088,SO2,15,39,22
India,Odisha,Balasore,"Kalidaspur, Balasore - OSPCB",21-04-2024 10:00:00,21.51161,86.89088,OZONE,5,143,25
India,Odisha,Barbil,"Forest Office, Barbil - OSPCB",21-04-2024 10:00:00,22.1166054,85.3945546,SO2,12,42,20
India,Odisha,Baripada,"Meher Colony, Baripada - OSPCB",21-04-2024 10:00:00,21.941841,86.728318,OZONE,22,212,42
India,Odisha,Bhubaneswar,"Lingraj Mandir, Bhubaneswar - OSPCB",21-04-2024 10:00:00,20.240790,85.836784,PM10,67,137,97
India,Odisha,Bhubaneswar,"Patia, Bhubaneswar - OSPCB",21-04-2024 10:00:00,20.34652,85.81630,SO2,1,65,8
India,Odisha,Bhubaneswar,"Patia, Bhubaneswar - OSPCB",21-04-2024 10:00:00,20.34652,85.81630,CO,6,104,68
India,Odisha,Brajrajnagar,"GM Office, Brajrajnagar - OSPCB",21-04-2024 10:00:00,21.8004996,83.8396977,OZONE,19,20,19
India,Odisha,Byasanagar,"Ferro Chrome Colony, Byasanagar - OSPCB",21-04-2024 10:00:00,20.94185,86.11510,NO2,9,25,16
India,Odisha,Byasanagar,"Ferro Chrome Colony, Byasanagar - OSPCB",21-04-2024 10:00:00,20.94185,86.11510,NH3,2,6,3
India,Odisha,Cuttack,"CDA Area, Cuttack - OSPCB",21-04-2024 10:00:00,20.48891     ,85.84768     ,PM2.5,17,163,56
India,Odisha,Keonjhar,"Jagamohanpur, Keonjhar - OSPCB",21-04-2024 10:00:00,21.643900,85.599355,NO2,12,45,20
India,Odisha,Keonjhar,"Jagamohanpur, Keonjhar - OSPCB",21-04-2024 10:00:00,21.643900,85.599355,SO2,2,5,3
India,Odisha,Keonjhar,"Jagamohanpur, Keonjhar - OSPCB",21-04-2024 10:00:00,21.643900,85.599355,OZONE,13,59,21
India,Odisha,Nayagarh,"Dabuna, Nayagarh - OSPCB",21-04-2024 10:00:00,21.847279,85.416905,NO2,3,3,3
India,Odisha,Rairangpur,"Divisional Forest Office, Rairangpur - OSPCB",21-04-2024 10:00:00,22.265816,86.174829,NH3,3,3,3
India,Odisha,Rourkela,"Fertilizer Township, Rourkela - OSPCB",21-04-2024 10:00:00,22.18972222,84.86277778,NO2,4,22,15
India,Odisha,Rourkela,"Sector-2, Rourkela - OSPCB",21-04-2024 10:00:00,22.24500000,84.88111111,PM2.5,60,380,163
India,Odisha,Suakati,"OMC Colony, Suakati - OSPCB",21-04-2024 10:00:00,21.606865,85.510538,SO2,7,103,32
India,Odisha,Suakati,"OMC Colony, Suakati - OSPCB",21-04-2024 10:00:00,21.606865,85.510538,CO,14,25,14
India,Odisha,Talcher,"Talcher Coalfields,Talcher - OSPCB",21-04-2024 10:00:00,20.9360711,85.1707021,PM2.5,86,388,210
India,Punjab,Amritsar,"Golden Temple, Amritsar - PPCB",21-04-2024 10:00:00,31.620000,74.876512,PM10,18,98,81
India,Punjab,Amritsar,"Golden Temple, Amritsar - PPCB",21-04-2024 10:00:00,31.620000,74.876512,NO2,10,258,52
India,Punjab,Bathinda,"Hardev Nagar, Bathinda - PPCB",21-04-2024 10:00:00,30.233011,74.907758,CO,2,112,60
India,Punjab,Jalandhar,"Civil Line, Jalandhar - PPCB",21-04-2024 10:00:00,31.321907,75.578914,NO2,33,36,35
India,Punjab,Jalandhar,"Civil Line, Jalandhar - PPCB",21-04-2024 10:00:00,31.321907,75.578914,NH3,2,5,2
India,Punjab,Khanna,"Kalal Majra, Khanna - PPCB",21-04-2024 10:00:00,30.736056 ,76.209694,CO,13,20,18
India,Punjab,Ludhiana,"Punjab Agricultural University, Ludhiana - PPCB",21-04-2024 10:00:00,30.9028,75.8086,PM2.5,52,173,85
India,Punjab,Ludhiana,"Punjab Agricultural University, Ludhiana - PPCB",21-04-2024 10:00:00,30.9028,75.8086,PM10,56,132,85
India,Punjab,Ludhiana,"Punjab Agricultural University, Ludhiana - PPCB",21-04-2024 10:00:00,30.9028,75.8086,NH3,4,4,4
India,Punjab,Mandi Gobindgarh,"RIMT University, Mandi Gobindgarh - PPCB",21-04-2024 10:00:00,30.649961,76.331442,NO2,25,35,34
India,Punjab,Mandi Gobindgarh,"RIMT University, Mandi Gobindgarh - PPCB",21-04-2024 10:00:00,30.649961,76.331442,CO,10,50,21
India,Punjab,Patiala,"Model Town, Patiala - PPCB",21-04-2024 10:00:00,30.349388,76.366642,PM10,62,108,81
India,Punjab,Rupnagar,"Ratanpura, Rupnagar - Ambuja Cements",21-04-2024 10:00:00,31.0325454,76.5623046,PM2.5,17,58,39
India,Punjab,Rupnagar,"Ratanpura, Rupnagar - Ambuja Cements",21-04-2024 10:00:00,31.0325454,76.5623046,SO2,9,12,11
India,Rajasthan,Ajmer,"Civil Lines,  Ajmer - RSPCB",21-04-2024 10:00:00,26.470859,74.646594,PM10,39,115,74
India,Rajasthan,Ajmer,"Civil Lines,  Ajmer - RSPCB",21-04-2024 10:00:00,26.470859,74.646594,SO2,10,13,12
India,Rajasthan,Ajmer,"Civil Lines,  Ajmer - RSPCB",21-04-2024 10:00:00,26.470859,74.646594,CO,8,38,28
India,Rajasthan,Alwar,"Moti Doongri, Alwar - RSPCB",21-04-2024 10:00:00,27.554793,76.611536,NO2,25,42,36
India,Rajasthan,Banswara,"Rati Talai, Banswara - RSPCB",21-04-2024 10:00:00,23.555190,74.440010,NO2,2,68,19
India,Rajasthan,Baran,"Bamboliya, Baran - RSPCB",21-04-2024 10:00:00,25.106006,76.469948,NO2,6,77,22
India,Rajasthan,Baran,"Bamboliya, Baran - RSPCB",21-04-2024 10:00:00,25.106006,76.469948,CO,13,40,25
India,Rajasthan,Bharatpur,"Krishna Nagar, Bharatpur - RSPCB",21-04-2024 10:00:00,27.215415,77.50873,SO2,7,22,13
India,Rajasthan,Bharatpur,"Krishna Nagar, Bharatpur - RSPCB",21-04-2024 10:00:00,27.215415,77.50873,CO,3,68,33
India,Rajasthan,Bharatpur,"Krishna Nagar, Bharatpur - RSPCB",21-04-2024 10:00:00,27.215415,77.50873,OZONE,52,108,72
India,Rajasthan,Bhilwara,"Pratap Nagar, Bhilwara - RSPCB",21-04-2024 10:00:00,25.339605,74.618883,SO2,9,24,14
India,Rajasthan,Bhiwadi,"RIICO Ind. Area III, Bhiwadi - RSPCB",21-04-2024 10:00:00,28.194909,76.862296,PM2.5,113,278,166
India,Rajasthan,Bhiwadi,"RIICO Ind. Area III, Bhiwadi - RSPCB",21-04-2024 10:00:00,28.194909,76.862296,NO2,11,53,25
India,Rajasthan,Bhiwadi,"Vasundhara Nagar_UIT, Bhiwadi - RSPCB",21-04-2024 10:00:00,28.207266,76.829265,PM2.5,32,114,67
India,Rajasthan,Bhiwadi,"Vasundhara Nagar_UIT, Bhiwadi - RSPCB",21-04-2024 10:00:00,28.207266,76.829265,OZONE,78,252,90
India,Rajasthan,Bikaner,"MM Ground, Bikaner - RSPCB",21-04-2024 10:00:00,28.018792,73.292658,NO2,27,68,44
India,Rajasthan,Bundi,"New Colony, Bundi - RSPCB",21-04-2024 10:00:00,25.435774,75.644272,PM2.5,2,36,16
India,Rajasthan,Chittorgarh,"Shastri Nagar, Chittorgarh - RSPCB",21-04-2024 10:00:00,24.892047,74.623527,PM2.5,3,183,43
India,Rajasthan,Chittorgarh,"Shastri Nagar, Chittorgarh - RSPCB",21-04-2024 10:00:00,24.892047,74.623527,PM10,46,178,89
India,Rajasthan,Chittorgarh,"Shastri Nagar, Chittorgarh - RSPCB",21-04-2024 10:00:00,24.892047,74.623527,NO2,13,78,38
India,Rajasthan,Chittorgarh,"Shastri Nagar, Chittorgarh - RSPCB",21-04-2024 10:00:00,24.892047,74.623527,CO,14,34,20
India,Rajasthan,Churu,"Subash Chowk, Churu - RSPCB",21-04-2024 10:00:00,28.296139,74.961696,OZONE,56,146,84
India,Rajasthan,Dausa,"Khatikan Mohalla, Dausa - RSPCB",21-04-2024 10:00:00,26.895552,76.334753,PM10,104,175,132
India,Rajasthan,Dausa,"Khatikan Mohalla, Dausa - RSPCB",21-04-2024 10:00:00,26.895552,76.334753,CO,18,98,27
India,Rajasthan,Dholpur,"Raja Ganj, Dholpur - RSPCB",21-04-2024 10:00:00,26.699557,77.898881,SO2,4,7,5
India,Rajasthan,Dholpur,"Raja Ganj, Dholpur - RSPCB",21-04-2024 10:00:00,26.699557,77.898881,CO,8,27,21
India,Rajasthan,Dungarpur,"Bhoiwada, Dungarpur - RSPCB",21-04-2024 10:00:00,23.837789,73.714926,CO,4,32,19
India,Rajasthan,Hanumangarh,"Housing Board, Hanumangarh - RSPCB",21-04-2024 10:00:00,29.610750,74.283608,PM2.5,12,345,83
India,Rajasthan,Hanumangarh,"Housing Board, Hanumangarh - RSPCB",21-04-2024 10:00:00,29.610750,74.283608,NH3,6,14,9
India,Rajasthan,Hanumangarh,"Housing Board, Hanumangarh - RSPCB",21-04-2024 10:00:00,29.610750,74.283608,SO2,1,28,10
India,Rajasthan,Hanumangarh,"Housing Board, Hanumangarh - RSPCB",21-04-2024 10:00:00,29.610750,74.283608,OZONE,20,55,27
India,Rajasthan,Jaipur,"Adarsh Nagar, Jaipur - RSPCB",21-04-2024 10:00:00,26.902909,75.836858,PM10,63,153,86
India,Rajasthan,Jaipur,"Adarsh Nagar, Jaipur - RSPCB",21-04-2024 10:00:00,26.902909,75.836858,SO2,1,23,10
India,Rajasthan,Jaipur,"Adarsh Nagar, Jaipur - RSPCB",21-04-2024 10:00:00,26.902909,75.836858,CO,22,67,36
India,Rajasthan,Jaipur,"Mansarovar Sector-12, Jaipur - RSPCB",21-04-2024 10:00:00,26.843698,75.766894,PM10,77,196,120
India,Rajasthan,Jaipur,"Mansarovar Sector-12, Jaipur - RSPCB",21-04-2024 10:00:00,26.843698,75.766894,CO,2,31,25
India,Rajasthan,Jaipur,"Mansarovar Sector-12, Jaipur - RSPCB",21-04-2024 10:00:00,26.843698,75.766894,OZONE,9,82,18
India,Rajasthan,Jaisalmer,"Sadar Bazar, Jaisalmer - RSPCB",21-04-2024 10:00:00,26.912329,70.909168,NO2,7,46,22
India,Rajasthan,Jalore,"Mudtra Sili, Jalore - RSPCB",21-04-2024 10:00:00,25.344694,72.626208,PM10,45,186,77
India,Rajasthan,Jalore,"Mudtra Sili, Jalore - RSPCB",21-04-2024 10:00:00,25.344694,72.626208,SO2,7,12,8
India,Rajasthan,Jhalawar,"Rajlaxmi Nagar, Jhalawar - RSPCB",21-04-2024 10:00:00,24.588397,76.172782,NH3,2,3,2
India,Rajasthan,Jhalawar,"Rajlaxmi Nagar, Jhalawar - RSPCB",21-04-2024 10:00:00,24.588397,76.172782,CO,6,23,13
India,Rajasthan,Jhunjhunu,"Indra Nagar, Jhunjhunu - RSPCB",21-04-2024 10:00:00,28.108988,75.386577,OZONE,29,121,77
India,Rajasthan,Jodhpur,"Collectorate, Jodhpur - RSPCB",21-04-2024 10:00:00,26.268249,73.0193853,PM2.5,21,168,84
India,Rajasthan,Jodhpur,"Collectorate, Jodhpur - RSPCB",21-04-2024 10:00:00,26.268249,73.0193853,SO2,2,39,15
India,Rajasthan,Jodhpur,"Collectorate, Jodhpur - RSPCB",21-04-2024 10:00:00,26.268249,73.0193853,CO,44,100,59
India,Rajasthan,Jodhpur,"Digari Kalan, Jodhpur - RSPCB",21-04-2024 10:00:00,26.295810,73.082283,CO,11,28,18
India,Rajasthan,Jodhpur,"Digari Kalan, Jodhpur - RSPCB",21-04-2024 10:00:00,26.295810,73.082283,OZONE,22,100,40
India,Rajasthan,Jodhpur,"Mandor, Jodhpur - RSPCB",21-04-2024 10:00:00,26.358805,73.047444,NH3,6,11,8
India,Rajasthan,Jodhpur,"Mandor, Jodhpur - RSPCB",21-04-2024 10:00:00,26.358805,73.047444,OZONE,36,107,65
India,Rajasthan,Jodhpur,"Samrat Ashok Udhyan, Jodhpur - RSPCB",21-04-2024 10:00:00,26.253384,72.976571,PM2.5,9,41,20
India,Rajasthan,Jodhpur,"Samrat Ashok Udhyan, Jodhpur - RSPCB",21-04-2024 10:00:00,26.253384,72.976571,NH3,2,4,3
India,Rajasthan,Karauli,"Satyawati Vihar, Karauli - RSPCB",21-04-2024 10:00:00,26.506177,77.025989,PM10,82,175,115
India,Rajasthan,Kota,"Dhanmandi, Kota - RSPCB",21-04-2024 10:00:00,25.164090,75.858137,SO2,6,89,18
India,Rajasthan,Kota,"Nayapura, Kota - RSPCB",21-04-2024 10:00:00,25.196024,75.855668,PM10,63,147,108
India,Rajasthan,Kota,"Shrinath Puram, Kota - RSPCB",21-04-2024 10:00:00,25.14389,75.821256,NH3,5,8,6
India,Rajasthan,Kota,"Shrinath Puram, Kota - RSPCB",21-04-2024 10:00:00,25.14389,75.821256,SO2,6,11,8
India,Rajasthan,Kota,"Shrinath Puram, Kota - RSPCB",21-04-2024 10:00:00,25.14389,75.821256,CO,5,55,21
India,Rajasthan,Nagaur,"Karni Colony, Nagaur - RSPCB",21-04-2024 10:00:00,27.213494,73.734444,NO2,7,25,14
India,Rajasthan,Pali,"Indira Colony Vistar, Pali - RSPCB",21-04-2024 10:00:00,25.771061, 73.340227,OZONE,33,76,40
India,Rajasthan,Pratapgarh,"Pragati Nagar, Pratapgarh - RSPCB",21-04-2024 10:00:00,24.041198,74.780702,NO2,6,79,15
India,Rajasthan,Rajsamand,"Dhoinda, Rajsamand - RSPCB",21-04-2024 10:00:00,25.036360,73.883502,CO,56,78,70
India,Rajasthan,Sawai Madhopur,"Sahu Nagar, Sawai Madhopur - RSPCB",21-04-2024 10:00:00,26.031443,76.359327,PM2.5,25,67,40
India,Rajasthan,Sawai Madhopur,"Sahu Nagar, Sawai Madhopur - RSPCB",21-04-2024 10:00:00,26.031443,76.359327,NH3,3,12,9
India,Rajasthan,Sikar,"Radhakishan Pura, Sikar - RSPCB",21-04-2024 10:00:00,27.608912,75.153302,SO2,3,11,5
India,Rajasthan,Sikar,"Radhakishan Pura, Sikar - RSPCB",21-04-2024 10:00:00,27.608912,75.153302,OZONE,75,132,95
India,Rajasthan,Sirohi,"Vedhaynath Colony, Sirohi - RSPCB",21-04-2024 10:00:00,24.885261,72.857549,NH3,3,17,5
India,Rajasthan,Sirohi,"Vedhaynath Colony, Sirohi - RSPCB",21-04-2024 10:00:00,24.885261,72.857549,SO2,5,12,7
India,Rajasthan,Sri Ganganagar,"Old City, Sri Ganganagar - RSPCB",21-04-2024 10:00:00,29.931624,73.864511,NO2,23,63,40
India,Sikkim,Gangtok,"Zero Point GICI, Gangtok - SSPCB",21-04-2024 10:00:00,27.338530,88.614099,NH3,1,1,1
India,TamilNadu,Chengalpattu,"Crescent University, Chengalpattu - TNPCB",21-04-2024 10:00:00,12.8777316,80.0834807,PM2.5,3,42,18
India,TamilNadu,Chengalpattu,"Crescent University, Chengalpattu - TNPCB",21-04-2024 10:00:00,12.8777316,80.0834807,OZONE,6,7,6
India,TamilNadu,Chennai,"Alandur Bus Depot, Chennai - CPCB",21-04-2024 10:00:00,12.9099161,80.1076538,PM2.5,27,72,39
India,TamilNadu,Chennai,"Arumbakkam, Chennai - TNPCB",21-04-2024 10:00:00,13.0664,80.2112 ,SO2,NA,NA,NA
India,TamilNadu,Chennai,"Kodungaiyur, Chennai - TNPCB",21-04-2024 10:00:00,13.1278,80.2642,PM10,8,44,27
India,TamilNadu,Chennai,"Kodungaiyur, Chennai - TNPCB",21-04-2024 10:00:00,13.1278,80.2642,OZONE,3,10,5
India,TamilNadu,Chennai,"Perungudi, Chennai - TNPCB",21-04-2024 10:00:00,12.9533,80.2357,NO2,2,6,4
India,TamilNadu,Chennai,"Royapuram, Chennai - TNPCB",21-04-2024 10:00:00,13.1036,80.2909,PM10,9,79,31
India,TamilNadu,Chennai,"Royapuram, Chennai - TNPCB",21-04-2024 10:00:00,13.1036,80.2909,OZONE,9,19,10
India,TamilNadu,Cuddalore,"Kudikadu, Cuddalore - TNPCB",21-04-2024 10:00:00,11.6829898,79.7532099,PM2.5,25,100,58
India,TamilNadu,Cuddalore,"Semmandalam, Cuddalore - TNPCB",21-04-2024 10:00:00,11.7637683,79.7499835,PM10,NA,NA,NA
India,TamilNadu,Gummidipoondi,"Anthoni Pillai Nagar, Gummidipoondi - TNPCB",21-04-2024 10:00:00,13.4127,80.1081,PM10,46,107,61
India,TamilNadu,Ooty,"Bombay Castel, Ooty - TNPCB",21-04-2024 10:00:00,11.4068288,76.7138973,PM2.5,6,86,46
India,TamilNadu,Palkalaiperur,"Bharathidasan University, Palkalaiperur - TNPCB",21-04-2024 10:00:00,10.681158,78.741746,CO,1,11,11
India,TamilNadu,Ramanathapuram,"Chalai Bazaar, Ramanathapuram - TNPCB",21-04-2024 10:00:00,9.36399,78.831977,PM10,NA,NA,NA
India,TamilNadu,Ramanathapuram,"Chalai Bazaar, Ramanathapuram - TNPCB",21-04-2024 10:00:00,9.36399,78.831977,CO,NA,NA,NA
India,TamilNadu,Ramanathapuram,"Chalai Bazaar, Ramanathapuram - TNPCB",21-04-2024 10:00:00,9.36399,78.831977,OZONE,NA,NA,NA
India,TamilNadu,Thoothukudi,"Meelavittan, Thoothukudi - TNPCB",21-04-2024 10:00:00,8.816428 ,78.099039,PM10,38,175,69
India,TamilNadu,Tirupur,"Kumaran College, Tirupur - TNPCB",21-04-2024 10:00:00,11.0973603,77.3228673,CO,NA,NA,NA
India,Telangana,Hyderabad,"Bollaram Industrial Area, Hyderabad - TSPCB",21-04-2024 10:00:00,17.540891,78.358528,PM2.5,62,180,97
India,Telangana,Hyderabad,"Central University, Hyderabad - TSPCB",21-04-2024 10:00:00,17.460103,78.334361,PM10,45,118,89
India,Telangana,Hyderabad,"Central University, Hyderabad - TSPCB",21-04-2024 10:00:00,17.460103,78.334361,NH3,3,8,5
India,Telangana,Hyderabad,"Central University, Hyderabad - TSPCB",21-04-2024 10:00:00,17.460103,78.334361,SO2,5,14,8
India,Telangana,Hyderabad,"Central University, Hyderabad - TSPCB",21-04-2024 10:00:00,17.460103,78.334361,OZONE,3,4,3
India,Telangana,Hyderabad,"ECIL Kapra, Hyderabad - TSPCB",21-04-2024 10:00:00,17.470431,78.566959,PM10,48,76,62
India,Telangana,Hyderabad,"ECIL Kapra, Hyderabad - TSPCB",21-04-2024 10:00:00,17.470431,78.566959,NH3,7,11,8
India,Telangana,Hyderabad,"ECIL Kapra, Hyderabad - TSPCB",21-04-2024 10:00:00,17.470431,78.566959,SO2,2,46,17
India,Telangana,Hyderabad,"Kompally Municipal Office, Hyderabad - TSPCB",21-04-2024 10:00:00,17.544899,78.486949,PM10,NA,NA,NA
India,Telangana,Hyderabad,"Kompally Municipal Office, Hyderabad - TSPCB",21-04-2024 10:00:00,17.544899,78.486949,NO2,NA,NA,NA
India,Telangana,Hyderabad,"Kompally Municipal Office, Hyderabad - TSPCB",21-04-2024 10:00:00,17.544899,78.486949,OZONE,NA,NA,NA
India,Telangana,Hyderabad,"Nacharam_TSIIC IALA, Hyderabad - TSPCB",21-04-2024 10:00:00,17.429398,78.569354,SO2,NA,NA,NA
India,Telangana,Hyderabad,"Nacharam_TSIIC IALA, Hyderabad - TSPCB",21-04-2024 10:00:00,17.429398,78.569354,CO,NA,NA,NA
India,Telangana,Hyderabad,"New Malakpet, Hyderabad - TSPCB",21-04-2024 10:00:00,17.37206,78.50864,PM2.5,35,99,62
India,Telangana,Hyderabad,"Sanathnagar, Hyderabad - TSPCB",21-04-2024 10:00:00,17.4559458,78.4332152,OZONE,14,278,204
India,Telangana,Hyderabad,"Somajiguda, Hyderabad - TSPCB",21-04-2024 10:00:00,17.417094,78.457437,SO2,17,19,18
India,Telangana,Hyderabad,"Somajiguda, Hyderabad - TSPCB",21-04-2024 10:00:00,17.417094,78.457437,OZONE,10,19,11
India,Telangana,Hyderabad,"Zoo Park, Hyderabad - TSPCB",21-04-2024 10:00:00,17.349694,78.451437,PM2.5,48,103,66
India,Telangana,Hyderabad,"Zoo Park, Hyderabad - TSPCB",21-04-2024 10:00:00,17.349694,78.451437,SO2,1,8,4
India,Tripura,Agartala,"Bardowali, Agartala - Tripura SPCB",21-04-2024 10:00:00,23.8175497,91.2726974,SO2,29,30,30
India,Tripura,Agartala,"Bardowali, Agartala - Tripura SPCB",21-04-2024 10:00:00,23.8175497,91.2726974,OZONE,7,46,13
India,Uttar_Pradesh,Agra,"Manoharpur, Agra - UPPCB",21-04-2024 10:00:00,27.23711,78.01936,PM2.5,21,120,60
India,Uttar_Pradesh,Agra,"Manoharpur, Agra - UPPCB",21-04-2024 10:00:00,27.23711,78.01936,CO,5,15,13
India,Uttar_Pradesh,Agra,"Sanjay Palace, Agra - UPPCB",21-04-2024 10:00:00,27.19865833,78.00598056,PM2.5,7,52,27
India,Uttar_Pradesh,Agra,"Sector-3B Avas Vikas Colony, Agra - UPPCB",21-04-2024 10:00:00,27.19412,77.96237,NO2,19,22,22
India,Uttar_Pradesh,Agra,"Shastripuram, Agra - UPPCB",21-04-2024 10:00:00,27.19862,77.92066,NH3,1,4,2
India,Uttar_Pradesh,Agra,"Shastripuram, Agra - UPPCB",21-04-2024 10:00:00,27.19862,77.92066,OZONE,1,8,2
India,Uttar_Pradesh,Bareilly,"Rajendra Nagar, Bareilly - UPPCB",21-04-2024 10:00:00,28.38910936,79.42963708,NH3,1,1,1
India,Uttar_Pradesh,Firozabad,"Nagla Bhau, Firozabad - UPPCB",21-04-2024 10:00:00,27.168897,78.376960,PM10,59,138,88
India,Uttar_Pradesh,Firozabad,"Nagla Bhau, Firozabad - UPPCB",21-04-2024 10:00:00,27.168897,78.376960,NO2,17,17,17
India,Uttar_Pradesh,Firozabad,"Nagla Bhau, Firozabad - UPPCB",21-04-2024 10:00:00,27.168897,78.376960,NH3,2,2,2
India,Uttar_Pradesh,Firozabad,"Nagla Bhau, Firozabad - UPPCB",21-04-2024 10:00:00,27.168897,78.376960,CO,20,27,24
India,Uttar_Pradesh,Firozabad,"Vibhab Nagar, Firozabad - UPPCB",21-04-2024 10:00:00,27.1594,78.3953,NH3,2,2,2
India,Uttar_Pradesh,Firozabad,"Vibhab Nagar, Firozabad - UPPCB",21-04-2024 10:00:00,27.1594,78.3953,SO2,14,55,28
India,Uttar_Pradesh,Firozabad,"Vibhab Nagar, Firozabad - UPPCB",21-04-2024 10:00:00,27.1594,78.3953,CO,15,23,22
India,Uttar_Pradesh,Ghaziabad,"Indirapuram, Ghaziabad - UPPCB",21-04-2024 10:00:00,28.646233,77.358075,OZONE,14,50,22
India,Uttar_Pradesh,Ghaziabad,"Loni, Ghaziabad - UPPCB",21-04-2024 10:00:00,28.757294,77.278792,PM2.5,25,129,50
India,Uttar_Pradesh,Ghaziabad,"Sanjay Nagar, Ghaziabad - UPPCB",21-04-2024 10:00:00,28.685382,77.453839,PM2.5,34,228,80
India,Uttar_Pradesh,Gorakhpur,"Madan Mohan Malaviya University of Technology, Gorakhpur - UPPCB",21-04-2024 10:00:00,26.730136,83.433859,PM10,76,177,121
India,Uttar_Pradesh,Gorakhpur,"Madan Mohan Malaviya University of Technology, Gorakhpur - UPPCB",21-04-2024 10:00:00,26.730136,83.433859,NH3,1,2,1
India,Uttar_Pradesh,Gorakhpur,"Madan Mohan Malaviya University of Technology, Gorakhpur - UPPCB",21-04-2024 10:00:00,26.730136,83.433859,SO2,33,52,40
India,Uttar_Pradesh,Greater Noida,"Knowledge Park - III, Greater Noida - UPPCB",21-04-2024 10:00:00,28.47272,77.482000,PM2.5,44,313,88
India,Uttar_Pradesh,Greater Noida,"Knowledge Park - V, Greater Noida - UPPCB",21-04-2024 10:00:00,28.557054,77.453663,OZONE,61,169,87
India,Uttar_Pradesh,Hapur,"Anand Vihar, Hapur - UPPCB",21-04-2024 10:00:00,28.725645,77.749675,OZONE,NA,NA,NA
India,Uttar_Pradesh,Jhansi,"Shivaji Nagar, Jhansi - UPPCB",21-04-2024 10:00:00,25.4547,78.6039,NO2,1,12,5
India,Uttar_Pradesh,Jhansi,"Shivaji Nagar, Jhansi - UPPCB",21-04-2024 10:00:00,25.4547,78.6039,CO,6,13,9
India,Uttar_Pradesh,Kanpur,"FTI Kidwai Nagar, Kanpur - UPPCB",21-04-2024 10:00:00,26.428282,80.327067,NO2,11,12,12
India,Uttar_Pradesh,Khurja,"Kalindi Kunj, Khurja - UPPCB",21-04-2024 10:00:00,28.2348927,77.8683002,CO,18,39,32
India,Uttar_Pradesh,Khurja,"Kalindi Kunj, Khurja - UPPCB",21-04-2024 10:00:00,28.2348927,77.8683002,OZONE,28,41,29
India,Uttar_Pradesh,Lucknow,"B R Ambedkar University, Lucknow - UPPCB",21-04-2024 10:00:00,26.766433,80.927299,NO2,11,12,11
India,Uttar_Pradesh,Lucknow,"B R Ambedkar University, Lucknow - UPPCB",21-04-2024 10:00:00,26.766433,80.927299,SO2,31,42,34
India,Uttar_Pradesh,Lucknow,"Gomti Nagar, Lucknow - UPPCB",21-04-2024 10:00:00,26.868120,81.005119,PM2.5,158,325,277
India,Uttar_Pradesh,Lucknow,"Kendriya Vidyalaya, Lucknow - CPCB",21-04-2024 10:00:00,26.906111,80.948222,NH3,4,25,16
India,Uttar_Pradesh,Lucknow,"Kukrail Picnic Spot-1, Lucknow - UPPCB",21-04-2024 10:00:00,26.90723,80.98579,NO2,8,9,8
India,Uttar_Pradesh,Lucknow,"Kukrail Picnic Spot-1, Lucknow - UPPCB",21-04-2024 10:00:00,26.90723,80.98579,CO,8,20,19
India,Uttar_Pradesh,Lucknow,"Lalbagh, Lucknow - CPCB",21-04-2024 10:00:00,26.8458805,80.9365541,PM10,145,227,184
India,Uttar_Pradesh,Lucknow,"Lalbagh, Lucknow - CPCB",21-04-2024 10:00:00,26.8458805,80.9365541,NO2,12,41,22
India,Uttar_Pradesh,Lucknow,"Lalbagh, Lucknow - CPCB",21-04-2024 10:00:00,26.8458805,80.9365541,NH3,18,20,19
India,Uttar_Pradesh,Lucknow,"Lalbagh, Lucknow - CPCB",21-04-2024 10:00:00,26.8458805,80.9365541,SO2,1,18,10
India,Uttar_Pradesh,Lucknow,"Lalbagh, Lucknow - CPCB",21-04-2024 10:00:00,26.8458805,80.9365541,OZONE,23,50,34
India,Uttar_Pradesh,Lucknow,"Talkatora District Industries Center, Lucknow - CPCB",21-04-2024 10:00:00,26.83399722,80.8917361,PM2.5,NA,NA,NA
India,Uttar_Pradesh,Lucknow,"Talkatora District Industries Center, Lucknow - CPCB",21-04-2024 10:00:00,26.83399722,80.8917361,NH3,8,20,14
India,Uttar_Pradesh,Lucknow,"Talkatora District Industries Center, Lucknow - CPCB",21-04-2024 10:00:00,26.83399722,80.8917361,SO2,NA,NA,NA
India,Uttar_Pradesh,Lucknow,"Talkatora District Industries Center, Lucknow - CPCB",21-04-2024 10:00:00,26.83399722,80.8917361,CO,8,58,26
India,Uttar_Pradesh,Meerut,"Ganga Nagar, Meerut - UPPCB",21-04-2024 10:00:00,28.999264,77.7590354,PM2.5,25,75,42
India,Uttar_Pradesh,Meerut,"Ganga Nagar, Meerut - UPPCB",21-04-2024 10:00:00,28.999264,77.7590354,CO,15,36,31
India,Uttar_Pradesh,Meerut,"Jai Bhim Nagar, Meerut - UPPCB",21-04-2024 10:00:00,28.9535882,77.7622941,SO2,8,24,16
India,Uttar_Pradesh,Meerut,"Jai Bhim Nagar, Meerut - UPPCB",21-04-2024 10:00:00,28.9535882,77.7622941,OZONE,59,116,75
India,Uttar_Pradesh,Meerut,"Pallavpuram Phase 2, Meerut - UPPCB",21-04-2024 10:00:00,29.063510,77.709723,PM2.5,31,134,56
India,Uttar_Pradesh,Meerut,"Pallavpuram Phase 2, Meerut - UPPCB",21-04-2024 10:00:00,29.063510,77.709723,NH3,6,12,8
India,Uttar_Pradesh,Meerut,"Pallavpuram Phase 2, Meerut - UPPCB",21-04-2024 10:00:00,29.063510,77.709723,SO2,8,32,22
India,Uttar_Pradesh,Moradabad,"Eco Herbal Park, Moradabad - UPPCB",21-04-2024 10:00:00,28.840739,78.697531,NO2,9,51,23
India,Uttar_Pradesh,Moradabad,"Eco Herbal Park, Moradabad - UPPCB",21-04-2024 10:00:00,28.840739,78.697531,CO,4,63,42
India,Uttar_Pradesh,Moradabad,"Employment Office, Moradabad - UPPCB",21-04-2024 10:00:00,28.88528,78.73880,CO,9,36,24
India,Uttar_Pradesh,Moradabad,"Jigar Colony, Moradabad - UPPCB",21-04-2024 10:00:00,28.856664,78.772638,PM2.5,26,84,51
India,Uttar_Pradesh,Moradabad,"Jigar Colony, Moradabad - UPPCB",21-04-2024 10:00:00,28.856664,78.772638,PM10,95,189,125
India,Uttar_Pradesh,Moradabad,"Jigar Colony, Moradabad - UPPCB",21-04-2024 10:00:00,28.856664,78.772638,NH3,6,6,6
India,Uttar_Pradesh,Moradabad,"Jigar Colony, Moradabad - UPPCB",21-04-2024 10:00:00,28.856664,78.772638,SO2,8,13,10
India,Uttar_Pradesh,Moradabad,"Kashiram Nagar, Moradabad - UPPCB",21-04-2024 10:00:00,28.849399,78.742362,CO,22,42,30
India,Uttar_Pradesh,Moradabad,"Kashiram Nagar, Moradabad - UPPCB",21-04-2024 10:00:00,28.849399,78.742362,OZONE,11,87,14
India,Uttar_Pradesh,Moradabad,"Transport Nagar, Moradabad - UPPCB",21-04-2024 10:00:00,28.802625,78.753728,PM2.5,27,69,47
India,Uttar_Pradesh,Moradabad,"Transport Nagar, Moradabad - UPPCB",21-04-2024 10:00:00,28.802625,78.753728,NO2,4,25,11
India,Uttar_Pradesh,Muzaffarnagar,"New Mandi, Muzaffarnagar - UPPCB",21-04-2024 10:00:00,29.4723508,77.7194031,OZONE,34,80,45
India,Uttar_Pradesh,Noida,"Sector - 125, Noida - UPPCB",21-04-2024 10:00:00,28.5447608,77.3231257,SO2,12,97,32
India,Uttar_Pradesh,Noida,"Sector - 125, Noida - UPPCB",21-04-2024 10:00:00,28.5447608,77.3231257,OZONE,37,111,48
India,Uttar_Pradesh,Noida,"Sector - 62, Noida - IMD",21-04-2024 10:00:00,28.6245479,77.3577104,NO2,3,6,5
India,Uttar_Pradesh,Noida,"Sector - 62, Noida - IMD",21-04-2024 10:00:00,28.6245479,77.3577104,OZONE,19,44,26
India,Uttar_Pradesh,Noida,"Sector-1, Noida - UPPCB",21-04-2024 10:00:00,28.5898,77.3101,NO2,31,87,59
India,Uttar_Pradesh,Noida,"Sector-116, Noida - UPPCB",21-04-2024 10:00:00,28.569230,77.393848,OZONE,51,199,73
India,Uttar_Pradesh,Prayagraj,"Jhunsi, Prayagraj - UPPCB",21-04-2024 10:00:00,25.425602,81.917152,OZONE,1,34,8
India,Uttar_Pradesh,Prayagraj,"Motilal Nehru NIT, Prayagraj - UPPCB",21-04-2024 10:00:00,25.494,81.863,PM2.5,20,46,32
India,Uttar_Pradesh,Prayagraj,"Motilal Nehru NIT, Prayagraj - UPPCB",21-04-2024 10:00:00,25.494,81.863,OZONE,8,29,14
India,Uttar_Pradesh,Prayagraj,"Nagar Nigam, Prayagraj - UPPCB",21-04-2024 10:00:00,25.44919916 ,81.82735986 ,SO2,12,73,45
India,Uttar_Pradesh,Varanasi,"Bhelupur, Varanasi - UPPCB",21-04-2024 10:00:00,25.301778,82.996789,PM10,26,65,45
India,Uttar_Pradesh,Varanasi,"Bhelupur, Varanasi - UPPCB",21-04-2024 10:00:00,25.301778,82.996789,NO2,7,8,8
India,Uttarakhand,Kashipur,"Govt. Girls Inter College, Kashipur - UKPCB",21-04-2024 10:00:00,29.2124114,78.9611753,NO2,7,21,13
India,Uttarakhand,Kashipur,"Govt. Girls Inter College, Kashipur - UKPCB",21-04-2024 10:00:00,29.2124114,78.9611753,NH3,2,5,3
India,Uttarakhand,Rishikesh,"Shivaji Nagar, Rishikesh - UKPCB",21-04-2024 10:00:00,30.075911,78.2859547,NH3,2,4,3
India,West_Bengal,Asansol,"Asansol Court Area, Asansol - WBPCB",21-04-2024 10:00:00,23.685297,86.945968,NO2,18,76,39
India,West_Bengal,Asansol,"Asansol Court Area, Asansol - WBPCB",21-04-2024 10:00:00,23.685297,86.945968,OZONE,24,41,32
India,West_Bengal,Barrackpore,"SVSPA Campus, Barrackpore - WBPCB",21-04-2024 10:00:00,22.7605581,88.3617589,PM10,53,139,93
India,West_Bengal,Durgapur,"Sidhu Kanhu Indoor Stadium, Durgapur - WBPCB",21-04-2024 10:00:00,23.5404352,87.2892225,NO2,23,67,43
India,West_Bengal,Durgapur,"Sidhu Kanhu Indoor Stadium, Durgapur - WBPCB",21-04-2024 10:00:00,23.5404352,87.2892225,CO,88,117,107
India,West_Bengal,Haldia,"Priyambada Housing Estate, Haldia - WBPCB",21-04-2024 10:00:00,22.06047,88.109737,PM2.5,10,39,23
India,West_Bengal,Howrah,"Belur Math, Howrah - WBPCB",21-04-2024 10:00:00,22.629801,88.352017,SO2,7,17,9
India,West_Bengal,Howrah,"Ghusuri, Howrah - WBPCB",21-04-2024 10:00:00,22.611968,88.347422,PM2.5,35,320,108
India,West_Bengal,Howrah,"Ghusuri, Howrah - WBPCB",21-04-2024 10:00:00,22.611968,88.347422,PM10,50,150,100
India,West_Bengal,Howrah,"Padmapukur, Howrah - WBPCB",21-04-2024 10:00:00,22.5687319,88.2797276,CO,6,51,26
India,West_Bengal,Kolkata,"Ballygunge, Kolkata - WBPCB",21-04-2024 10:00:00,22.5367507,88.3638022,PM10,36,96,65
India,West_Bengal,Kolkata,"Ballygunge, Kolkata - WBPCB",21-04-2024 10:00:00,22.5367507,88.3638022,CO,3,25,8
India,West_Bengal,Kolkata,"Ballygunge, Kolkata - WBPCB",21-04-2024 10:00:00,22.5367507,88.3638022,OZONE,17,83,26
India,West_Bengal,Kolkata,"Jadavpur, Kolkata - WBPCB",21-04-2024 10:00:00,22.49929,88.36917,PM2.5,21,62,44
India,West_Bengal,Kolkata,"Jadavpur, Kolkata - WBPCB",21-04-2024 10:00:00,22.49929,88.36917,PM10,29,103,64
India,West_Bengal,Kolkata,"Jadavpur, Kolkata - WBPCB",21-04-2024 10:00:00,22.49929,88.36917,NH3,4,6,5
India,West_Bengal,Kolkata,"Rabindra Bharati University, Kolkata - WBPCB",21-04-2024 10:00:00,22.627847,88.380669,NH3,17,19,17
India,West_Bengal,Kolkata,"Rabindra Sarobar, Kolkata - WBPCB",21-04-2024 10:00:00,22.51106,88.35142,PM10,56,102,79
India,West_Bengal,Kolkata,"Victoria, Kolkata - WBPCB",21-04-2024 10:00:00,22.5448082,88.3403691,OZONE,11,65,18
India,West_Bengal,Siliguri,"Ward-32 Bapupara, Siliguri - WBPCB",21-04-2024 10:00:00,26.6879226,88.4152495,NH3,7,10,9
India,West_Bengal,Siliguri,"Ward-32 Bapupara, Siliguri - WBPCB",21-04-2024 10:00:00,26.6879226,88.4152495,CO,15,32,27
India,Andhra_Pradesh,Amaravati,"Secretariat, Amaravati - APPCB",21-04-2024 10:00:00,16.5150833,80.5181667,PM2.5,3,65,30
India,Andhra_Pradesh,Amaravati,"Secretariat, Amaravati - APPCB",21-04-2024 10:00:00,16.5150833,80.5181667,SO2,12,14,13
India,Andhra_Pradesh,Rajamahendravaram,"Anand Kala Kshetram, Rajamahendravaram - APPCB",21-04-2024 10:00:00,16.9872867,81.7363176,NO2,1,54,9
India,Andhra_Pradesh,Rajamahendravaram,"Anand Kala Kshetram, Rajamahendravaram - APPCB",21-04-2024 10:00:00,16.9872867,81.7363176,CO,20,38,29
India,Andhra_Pradesh,Tirupati,"Tirumala, Tirupati - APPCB",21-04-2024 10:00:00,13.67,79.35,PM2.5,48,72,60
India,Andhra_Pradesh,Tirupati,"Tirumala, Tirupati - APPCB",21-04-2024 10:00:00,13.67,79.35,SO2,1,29,10
India,Andhra_Pradesh,Vijayawada,"HB Colony, Vijayawada - APPCB",21-04-2024 10:00:00,16.536107,80.594233,NO2,4,11,6
India,Andhra_Pradesh,Vijayawada,"HB Colony, Vijayawada - APPCB",21-04-2024 10:00:00,16.536107,80.594233,SO2,4,5,4
India,Andhra_Pradesh,Vijayawada,"Rajiv Gandhi Park, Vijayawada - APPCB",21-04-2024 10:00:00,16.509717,80.612222,PM2.5,31,72,56
India,Andhra_Pradesh,Vijayawada,"Rajiv Gandhi Park, Vijayawada - APPCB",21-04-2024 10:00:00,16.509717,80.612222,NO2,4,45,25
India,Andhra_Pradesh,Vijayawada,"Rajiv Gandhi Park, Vijayawada - APPCB",21-04-2024 10:00:00,16.509717,80.612222,OZONE,11,52,21
India,Andhra_Pradesh,Vijayawada,"Rajiv Nagar, Vijayawada - APPCB",21-04-2024 10:00:00,16.554731,80.649110,PM10,59,78,60
India,Andhra_Pradesh,Vijayawada,"Rajiv Nagar, Vijayawada - APPCB",21-04-2024 10:00:00,16.554731,80.649110,SO2,11,19,15
India,Assam,Guwahati,"LGBI Airport, Guwahati - PCBA",21-04-2024 10:00:00,26.10887,91.589544,PM2.5,15,75,42
India,Assam,Guwahati,"LGBI Airport, Guwahati - PCBA",21-04-2024 10:00:00,26.10887,91.589544,OZONE,2,84,3
India,Assam,Guwahati,"Railway Colony, Guwahati - PCBA",21-04-2024 10:00:00,26.181742,91.78063,NO2,3,4,3
India,Assam,Nalbari,"Bata Chowk, Nalbari - PCBA",21-04-2024 10:00:00,26.446912,91.439057,PM2.5,35,65,47
India,Assam,Nalbari,"Bata Chowk, Nalbari - PCBA",21-04-2024 10:00:00,26.446912,91.439057,PM10,40,94,63
India,Assam,Silchar,"Tarapur, Silchar - PCBA",21-04-2024 10:00:00,24.82827,92.79525,PM10,27,55,41
India,Assam,Silchar,"Tarapur, Silchar - PCBA",21-04-2024 10:00:00,24.82827,92.79525,CO,18,34,21
India,Assam,Sivasagar,"Girls College, Sivasagar - PCBA",21-04-2024 10:00:00,26.987634,94.636574,PM2.5,6,30,18
India,Assam,Sivasagar,"Girls College, Sivasagar - PCBA",21-04-2024 10:00:00,26.987634,94.636574,NO2,9,18,13
India,Bihar,Araria,"Kharahiya Basti, Araria - BSPCB",21-04-2024 10:00:00,26.146529,87.454184,PM10,55,131,83
India,Bihar,Araria,"Kharahiya Basti, Araria - BSPCB",21-04-2024 10:00:00,26.146529,87.454184,NO2,5,138,14
India,Bihar,Araria,"Kharahiya Basti, Araria - BSPCB",21-04-2024 10:00:00,26.146529,87.454184,SO2,11,16,14
India,Bihar,Araria,"Kharahiya Basti, Araria - BSPCB",21-04-2024 10:00:00,26.146529,87.454184,OZONE,7,10,8
India,Bihar,Bettiah,"Kamalnath Nagar, Bettiah - BSPCB",21-04-2024 10:00:00,26.80365,84.51954,PM2.5,110,500,236
India,Bihar,Bettiah,"Kamalnath Nagar, Bettiah - BSPCB",21-04-2024 10:00:00,26.80365,84.51954,PM10,112,471,173
India,Bihar,Bettiah,"Kamalnath Nagar, Bettiah - BSPCB",21-04-2024 10:00:00,26.80365,84.51954,SO2,7,27,16
India,Bihar,Bhagalpur,"DM Office_Kachari Chowk, Bhagalpur - BSPCB",21-04-2024 10:00:00,25.251013,86.989001,CO,36,92,46
India,Bihar,Bhagalpur,"Mayaganj, Bhagalpur - BSPCB",21-04-2024 10:00:00,25.265194,87.012947,NH3,7,9,8
India,Bihar,Bhagalpur,"Mayaganj, Bhagalpur - BSPCB",21-04-2024 10:00:00,25.265194,87.012947,SO2,11,12,12
India,Bihar,Bhagalpur,"Mayaganj, Bhagalpur - BSPCB",21-04-2024 10:00:00,25.265194,87.012947,OZONE,16,68,27
India,Bihar,Chhapra,"Darshan Nagar, Chhapra - BSPCB",21-04-2024 10:00:00,25.7808257,84.7446768,CO,41,62,48
India,Bihar,Gaya,"Kareemganj, Gaya - BSPCB",21-04-2024 10:00:00,24.792403,84.992416,PM2.5,8,75,44
India,Bihar,Gaya,"Kareemganj, Gaya - BSPCB",21-04-2024 10:00:00,24.792403,84.992416,OZONE,1,24,11
India,Bihar,Gaya,"SFTI Kusdihra, Gaya - BSPCB",21-04-2024 10:00:00,24.762518,84.982348,NO2,16,108,47
India,Bihar,Hajipur,"Industrial Area, Hajipur - BSPCB",21-04-2024 10:00:00,25.697189,85.245900,SO2,6,18,8
India,Bihar,Hajipur,"Industrial Area, Hajipur - BSPCB",21-04-2024 10:00:00,25.697189,85.245900,OZONE,10,92,33
India,Bihar,Kishanganj,"SDM Office_Khagra, Kishanganj - BSPCB",21-04-2024 10:00:00,26.0881305,87.93840336,PM10,79,227,138
India,Bihar,Kishanganj,"SDM Office_Khagra, Kishanganj - BSPCB",21-04-2024 10:00:00,26.0881305,87.93840336,NO2,28,31,29
India,Bihar,Motihari,"Gandak Colony, Motihari - BSPCB",21-04-2024 10:00:00,26.63086,84.90051,PM2.5,33,143,70
India,Bihar,Motihari,"Gandak Colony, Motihari - BSPCB",21-04-2024 10:00:00,26.63086,84.90051,NO2,39,105,77
India,Bihar,Munger,"Town Hall, Munger - BSPCB",21-04-2024 10:00:00,25.376776,86.471523,OZONE,28,78,30
India,Bihar,Muzaffarpur,"Buddha Colony, Muzaffarpur - BSPCB",21-04-2024 10:00:00,26.11442,85.39813,NH3,12,19,15
India,Bihar,Muzaffarpur,"Buddha Colony, Muzaffarpur - BSPCB",21-04-2024 10:00:00,26.11442,85.39813,CO,16,42,26
India,Bihar,Muzaffarpur,"MIT-Daudpur Kothi, Muzaffarpur - BSPCB",21-04-2024 10:00:00,26.1403345,85.3650192,PM2.5,127,457,267
India,Bihar,Muzaffarpur,"MIT-Daudpur Kothi, Muzaffarpur - BSPCB",21-04-2024 10:00:00,26.1403345,85.3650192,OZONE,30,70,49
India,Bihar,Muzaffarpur,"Muzaffarpur Collectorate, Muzaffarpur - BSPCB",21-04-2024 10:00:00,26.1209,85.3647,PM2.5,50,364,112
India,Bihar,Patna,"DRM Office Danapur, Patna - BSPCB",21-04-2024 10:00:00,25.586562,85.043586,PM2.5,91,229,144
India,Bihar,Patna,"DRM Office Danapur, Patna - BSPCB",21-04-2024 10:00:00,25.586562,85.043586,PM10,133,197,156
India,Bihar,Patna,"DRM Office Danapur, Patna - BSPCB",21-04-2024 10:00:00,25.586562,85.043586,NH3,3,3,3
India,Bihar,Patna,"Govt. High School Shikarpur, Patna - BSPCB",21-04-2024 10:00:00,25.592539,85.227158,PM2.5,132,325,235
India,Bihar,Patna,"Govt. High School Shikarpur, Patna - BSPCB",21-04-2024 10:00:00,25.592539,85.227158,PM10,144,421,215
India,Bihar,Patna,"Govt. High School Shikarpur, Patna - BSPCB",21-04-2024 10:00:00,25.592539,85.227158,OZONE,1,59,7
India,Bihar,Patna,"IGSC Planetarium Complex, Patna - BSPCB",21-04-2024 10:00:00,25.610369,85.132568,NO2,11,11,11
India,Bihar,Patna,"Rajbansi Nagar, Patna - BSPCB",21-04-2024 10:00:00,25.599486,85.113666,PM10,122,404,181
India,Bihar,Patna,"Rajbansi Nagar, Patna - BSPCB",21-04-2024 10:00:00,25.599486,85.113666,NH3,5,9,6
India,Bihar,Patna,"Samanpura, Patna - BSPCB",21-04-2024 10:00:00,25.596727,85.085624,NO2,12,74,41
India,Bihar,Patna,"Samanpura, Patna - BSPCB",21-04-2024 10:00:00,25.596727,85.085624,SO2,5,11,7
India,Bihar,Patna,"Samanpura, Patna - BSPCB",21-04-2024 10:00:00,25.596727,85.085624,CO,32,111,60
India,Bihar,Purnia,"Mariam Nagar, Purnia - BSPCB",21-04-2024 10:00:00,25.366336,87.117468,NH3,5,21,8
India,Bihar,Purnia,"Mariam Nagar, Purnia - BSPCB",21-04-2024 10:00:00,25.366336,87.117468,SO2,6,9,8
India,Bihar,Purnia,"Mariam Nagar, Purnia - BSPCB",21-04-2024 10:00:00,25.366336,87.117468,CO,24,102,52
India,Bihar,Rajgir,"Dangi Tola, Rajgir - BSPCB",21-04-2024 10:00:00,25.03280,85.41948,OZONE,32,36,34
India,Chandigarh,Chandigarh,"Sector 22, Chandigarh - CPCC",21-04-2024 10:00:00,30.735567,76.775714,PM2.5,30,100,73
India,Chandigarh,Chandigarh,"Sector 22, Chandigarh - CPCC",21-04-2024 10:00:00,30.735567,76.775714,NH3,7,13,9
India,Chandigarh,Chandigarh,"Sector-25, Chandigarh - CPCC",21-04-2024 10:00:00,30.751462,76.762879,NH3,8,24,14
India,Chandigarh,Chandigarh,"Sector-53, Chandigarh - CPCC",21-04-2024 10:00:00,30.719859,76.738637,PM2.5,33,130,80
India,Chandigarh,Chandigarh,"Sector-53, Chandigarh - CPCC",21-04-2024 10:00:00,30.719859,76.738637,PM10,60,163,113
India,Chandigarh,Chandigarh,"Sector-53, Chandigarh - CPCC",21-04-2024 10:00:00,30.719859,76.738637,CO,36,77,47
India,Chhattisgarh,Bhilai,"32Bungalows, Bhilai - CECB",21-04-2024 10:00:00,21.194815,81.314770,CO,14,29,22
India,Chhattisgarh,Bhilai,"32Bungalows, Bhilai - CECB",21-04-2024 10:00:00,21.194815,81.314770,OZONE,6,63,10
India,Chhattisgarh,Bhilai,"Civic Center, Bhilai - Bhilai Steel Plant",21-04-2024 10:00:00,21.185571,81.343175,PM10,NA,NA,NA
India,Chhattisgarh,Bilaspur,"Mangala, Bilaspur - NTPC",21-04-2024 10:00:00,22.08815,82.13737,NO2,NA,NA,NA
India,Chhattisgarh,Chhal,"Nawapara SECL Colony, Chhal - CECB",21-04-2024 10:00:00,22.118125,83.140608,NO2,NA,NA,NA
India,Chhattisgarh,Korba,"Rampur, Korba - CECB",21-04-2024 10:00:00,22.368195,82.746431,NO2,16,53,39
India,Chhattisgarh,Korba,"Urja Nagar, Korba - CECB",21-04-2024 10:00:00,22.348441,82.549611,SO2,3,6,4
India,Chhattisgarh,Korba,"Urja Nagar, Korba - CECB",21-04-2024 10:00:00,22.348441,82.549611,CO,12,74,63
India,Chhattisgarh,Milupara,"Govt. Higher Secondary School, Milupara - CECB",21-04-2024 10:00:00,22.1910172,83.5197009,OZONE,5,22,9
India,Chhattisgarh,Raipur,"AIIMS, Raipur - CECB",21-04-2024 10:00:00,21.258815,81.578979,PM2.5,24,47,36
India,Chhattisgarh,Raipur,"AIIMS, Raipur - CECB",21-04-2024 10:00:00,21.258815,81.578979,PM10,40,61,50
India,Chhattisgarh,Raipur,"Bhatagaon New ISBT, Raipur - CECB",21-04-2024 10:00:00,21.219665,81.630094,PM10,21,97,45
India,Chhattisgarh,Raipur,"Bhatagaon New ISBT, Raipur - CECB",21-04-2024 10:00:00,21.219665,81.630094,NO2,33,58,41
India,Chhattisgarh,Raipur,"Bhatagaon New ISBT, Raipur - CECB",21-04-2024 10:00:00,21.219665,81.630094,NH3,2,2,2
India,Chhattisgarh,Raipur,"Krishak Nagar, Raipur - CECB",21-04-2024 10:00:00,21.237755,81.705301,PM10,25,57,41
India,Chhattisgarh,Raipur,"Krishak Nagar, Raipur - CECB",21-04-2024 10:00:00,21.237755,81.705301,SO2,10,79,23
India,Chhattisgarh,Raipur,"Siltara Phase-II, Raipur - CECB",21-04-2024 10:00:00,21.371751,81.664929,PM2.5,39,173,78
India,Chhattisgarh,Tumidih,"OP Jindal Industrial Park, Tumidih - CECB",21-04-2024 10:00:00,22.06631475,83.33820077,PM2.5,NA,NA,NA
India,Chhattisgarh,Tumidih,"OP Jindal Industrial Park, Tumidih - CECB",21-04-2024 10:00:00,22.06631475,83.33820077,PM10,NA,NA,NA
India,Delhi,Delhi,"Alipur, Delhi - DPCC",21-04-2024 10:00:00,28.815329,77.153010,SO2,9,29,19
India,Delhi,Delhi,"Ashok Vihar, Delhi - DPCC",21-04-2024 10:00:00,28.695381,77.181665,PM2.5,49,300,93
India,Delhi,Delhi,"Ashok Vihar, Delhi - DPCC",21-04-2024 10:00:00,28.695381,77.181665,PM10,128,216,162
India,Delhi,Delhi,"Aya Nagar, Delhi - IMD",21-04-2024 10:00:00,28.4706914,77.1099364,CO,28,79,69
India,Delhi,Delhi,"Aya Nagar, Delhi - IMD",21-04-2024 10:00:00,28.4706914,77.1099364,OZONE,10,35,19
India,Delhi,Delhi,"Burari Crossing, Delhi - IMD",21-04-2024 10:00:00,28.7256504,77.2011573,NO2,13,26,20
India,Delhi,Delhi,"Dwarka-Sector 8, Delhi - DPCC ",21-04-2024 10:00:00,28.5710274,77.0719006,NO2,15,52,26
India,Delhi,Delhi,"Dwarka-Sector 8, Delhi - DPCC ",21-04-2024 10:00:00,28.5710274,77.0719006,NH3,6,7,7
India,Delhi,Delhi,"Dwarka-Sector 8, Delhi - DPCC ",21-04-2024 10:00:00,28.5710274,77.0719006,SO2,4,26,13
India,Delhi,Delhi,"Dwarka-Sector 8, Delhi - DPCC ",21-04-2024 10:00:00,28.5710274,77.0719006,CO,31,58,47
India,Delhi,Delhi,"IGI Airport (T3), Delhi - IMD",21-04-2024 10:00:00,28.5627763,77.1180053,PM10,113,164,133
India,Delhi,Delhi,"IGI Airport (T3), Delhi - IMD",21-04-2024 10:00:00,28.5627763,77.1180053,CO,14,28,22
India,Delhi,Delhi,"IHBAS, Dilshad Garden, Delhi - CPCB",21-04-2024 10:00:00,28.6811736,77.3025234,NH3,9,13,11
India,Delhi,Delhi,"IHBAS, Dilshad Garden, Delhi - CPCB",21-04-2024 10:00:00,28.6811736,77.3025234,SO2,7,38,19
India,Delhi,Delhi,"ITO, Delhi - CPCB",21-04-2024 10:00:00,28.628624,77.241060,PM2.5,48,115,64
India,Delhi,Delhi,"Jahangirpuri, Delhi - DPCC",21-04-2024 10:00:00,28.732820,77.170633,PM10,150,259,187
India,Delhi,Delhi,"Jahangirpuri, Delhi - DPCC",21-04-2024 10:00:00,28.732820,77.170633,NO2,22,120,73
India,Delhi,Delhi,"Jawaharlal Nehru Stadium, Delhi - DPCC",21-04-2024 10:00:00,28.580280,77.233829,SO2,3,46,16
India,Delhi,Delhi,"Jawaharlal Nehru Stadium, Delhi - DPCC",21-04-2024 10:00:00,28.580280,77.233829,CO,17,41,33
India,Delhi,Delhi,"Lodhi Road, Delhi - IITM",21-04-2024 10:00:00,28.588333,77.221667,PM10,58,478,133
India,Delhi,Delhi,"Lodhi Road, Delhi - IITM",21-04-2024 10:00:00,28.588333,77.221667,NO2,60,112,88
India,Delhi,Delhi,"Lodhi Road, Delhi - IITM",21-04-2024 10:00:00,28.588333,77.221667,NH3,7,8,8
India,Delhi,Delhi,"Lodhi Road, Delhi - IITM",21-04-2024 10:00:00,28.588333,77.221667,CO,58,67,65
India,Delhi,Delhi,"Lodhi Road, Delhi - IMD",21-04-2024 10:00:00,28.5918245,77.2273074,NO2,4,10,7
India,Delhi,Delhi,"Major Dhyan Chand National Stadium, Delhi - DPCC",21-04-2024 10:00:00,28.611281,77.237738,PM2.5,48,128,67
India,Delhi,Delhi,"Major Dhyan Chand National Stadium, Delhi - DPCC",21-04-2024 10:00:00,28.611281,77.237738,NH3,6,9,7
India,Delhi,Delhi,"Major Dhyan Chand National Stadium, Delhi - DPCC",21-04-2024 10:00:00,28.611281,77.237738,SO2,6,13,9
India,Delhi,Delhi,"Mandir Marg, Delhi - DPCC",21-04-2024 10:00:00,28.636429,77.201067,PM2.5,10,106,44
India,Delhi,Delhi,"Mandir Marg, Delhi - DPCC",21-04-2024 10:00:00,28.636429,77.201067,CO,2,38,33
India,Delhi,Delhi,"Mundka, Delhi - DPCC",21-04-2024 10:00:00,28.684678,77.076574,PM2.5,37,331,119
India,Delhi,Delhi,"NSIT Dwarka, Delhi - CPCB",21-04-2024 10:00:00,28.60909,77.0325413,PM10,168,274,221
India,Delhi,Delhi,"Najafgarh, Delhi - DPCC",21-04-2024 10:00:00,28.570173,76.933762,NH3,NA,NA,NA
India,Delhi,Delhi,"Narela, Delhi - DPCC",21-04-2024 10:00:00,28.822836,77.101981,PM2.5,30,120,64
India,Delhi,Delhi,"Narela, Delhi - DPCC",21-04-2024 10:00:00,28.822836,77.101981,PM10,121,193,157
India,Delhi,Delhi,"Patparganj, Delhi - DPCC",21-04-2024 10:00:00,28.623763,77.287209,SO2,4,19,8
India,Delhi,Delhi,"Patparganj, Delhi - DPCC",21-04-2024 10:00:00,28.623763,77.287209,CO,40,87,58
India,Delhi,Delhi,"Patparganj, Delhi - DPCC",21-04-2024 10:00:00,28.623763,77.287209,OZONE,15,93,43
India,Delhi,Delhi,"Punjabi Bagh, Delhi - DPCC",21-04-2024 10:00:00,28.674045,77.131023,NO2,34,58,45
India,Delhi,Delhi,"Punjabi Bagh, Delhi - DPCC",21-04-2024 10:00:00,28.674045,77.131023,SO2,39,60,49
India,Delhi,Delhi,"Pusa, Delhi - IMD",21-04-2024 10:00:00,28.636110,77.173332,PM2.5,23,295,145
India,Delhi,Delhi,"R K Puram, Delhi - DPCC",21-04-2024 10:00:00,28.563262,77.186937,PM2.5,57,192,82
India,Delhi,Delhi,"Rohini, Delhi - DPCC",21-04-2024 10:00:00,28.732528,77.119920,NH3,8,11,9
India,Delhi,Delhi,"Shadipur, Delhi - CPCB",21-04-2024 10:00:00,28.6514781,77.1473105,PM2.5,77,380,236
India,Delhi,Delhi,"Sirifort, Delhi - CPCB",21-04-2024 10:00:00,28.5504249,77.2159377,PM10,101,186,135
India,Delhi,Delhi,"Sirifort, Delhi - CPCB",21-04-2024 10:00:00,28.5504249,77.2159377,SO2,25,34,29
India,Delhi,Delhi,"Sirifort, Delhi - CPCB",21-04-2024 10:00:00,28.5504249,77.2159377,OZONE,11,50,15
India,Delhi,Delhi,"Sonia Vihar, Delhi - DPCC",21-04-2024 10:00:00,28.710508,77.249485,PM2.5,40,98,59
India,Delhi,Delhi,"Sonia Vihar, Delhi - DPCC",21-04-2024 10:00:00,28.710508,77.249485,NO2,11,52,28
India,Delhi,Delhi,"Sonia Vihar, Delhi - DPCC",21-04-2024 10:00:00,28.710508,77.249485,CO,36,62,57
India,Delhi,Delhi,"Sri Aurobindo Marg, Delhi - DPCC",21-04-2024 10:00:00,28.531346,77.190156,PM2.5,37,143,71
India,Delhi,Delhi,"Sri Aurobindo Marg, Delhi - DPCC",21-04-2024 10:00:00,28.531346,77.190156,SO2,10,38,21
India,Delhi,Delhi,"Vivek Vihar, Delhi - DPCC",21-04-2024 10:00:00,28.672342,77.315260,PM2.5,38,85,63
India,Delhi,Delhi,"Vivek Vihar, Delhi - DPCC",21-04-2024 10:00:00,28.672342,77.315260,NH3,15,16,15
India,Delhi,Delhi,"Wazirpur, Delhi - DPCC",21-04-2024 10:00:00,28.699793,77.165453,PM10,131,204,162
India,Delhi,Delhi,"Wazirpur, Delhi - DPCC",21-04-2024 10:00:00,28.699793,77.165453,OZONE,16,70,40
India,Gujarat,Ahmedabad,"Chandkheda, Ahmedabad - IITM",21-04-2024 10:00:00,23.107969,72.574648,NH3,5,5,5
India,Gujarat,Ahmedabad,"Maninagar, Ahmedabad - GPCB",21-04-2024 10:00:00,23.002657,72.591912,PM10,27,184,76
India,Gujarat,Ahmedabad,"Maninagar, Ahmedabad - GPCB",21-04-2024 10:00:00,23.002657,72.591912,NO2,22,72,36
India,Gujarat,Ahmedabad,"Maninagar, Ahmedabad - GPCB",21-04-2024 10:00:00,23.002657,72.591912,CO,60,122,75
India,Gujarat,Ahmedabad,"SAC ISRO Satellite, Ahmedabad - IITM",21-04-2024 10:00:00,23.023389,72.515201,PM2.5,111,129,120
India,Gujarat,Ahmedabad,"SAC ISRO Satellite, Ahmedabad - IITM",21-04-2024 10:00:00,23.023389,72.515201,OZONE,14,21,17
India,Gujarat,Ahmedabad,"SVPI Airport Hansol, Ahmedabad - IITM",21-04-2024 10:00:00,23.076793,72.627874,NH3,1,2,2
India,Gujarat,Ahmedabad,"Sardar Vallabhbhai Patel Stadium, Ahmedabad - IITM",21-04-2024 10:00:00,23.043070,72.562968,PM2.5,31,122,66
India,Gujarat,Ahmedabad,"Sardar Vallabhbhai Patel Stadium, Ahmedabad - IITM",21-04-2024 10:00:00,23.043070,72.562968,NO2,40,41,40
India,Gujarat,Ahmedabad,"Sardar Vallabhbhai Patel Stadium, Ahmedabad - IITM",21-04-2024 10:00:00,23.043070,72.562968,NH3,7,7,7
India,Gujarat,Ankleshwar,"GIDC, Ankleshwar - GPCB",21-04-2024 10:00:00,21.613267,73.010555,PM10,48,75,58
India,Gujarat,Ankleshwar,"GIDC, Ankleshwar - GPCB",21-04-2024 10:00:00,21.613267,73.010555,NO2,32,33,33
India,Gujarat,Ankleshwar,"GIDC, Ankleshwar - GPCB",21-04-2024 10:00:00,21.613267,73.010555,NH3,7,7,7
India,Gujarat,Ankleshwar,"GIDC, Ankleshwar - GPCB",21-04-2024 10:00:00,21.613267,73.010555,CO,28,84,69
India,Gujarat,Surat,"Science Center, Surat - SMC",21-04-2024 10:00:00,21.170046,72.795405,NO2,26,47,36
India,Gujarat,Surat,"Science Center, Surat - SMC",21-04-2024 10:00:00,21.170046,72.795405,CO,22,40,23
India,Gujarat,Vapi,"Phase-1 GIDC, Vapi - GPCB",21-04-2024 10:00:00,20.362421,72.918013,NO2,6,7,6
India,Gujarat,Vatva,"Phase-4 GIDC, Vatva - GPCB",21-04-2024 10:00:00,22.969611,72.643500,NH3,1,5,2
India,Haryana,Ambala,"Patti Mehar, Ambala - HSPCB",21-04-2024 10:00:00,30.379589,76.778328,PM10,48,113,92
India,Haryana,Ballabgarh,"Nathu Colony, Ballabgarh - HSPCB",21-04-2024 10:00:00,28.3419248,77.319699,NO2,3,13,12
India,Haryana,Bhiwani,"H.B. Colony, Bhiwani - HSPCB",21-04-2024 10:00:00,28.806223,76.141105,PM10,72,355,125
India,Haryana,Charkhi Dadri,"Mini Secretariat, Charkhi Dadri - HSPCB",21-04-2024 10:00:00,28.593883,76.270653,NO2,14,25,18
India,Haryana,Charkhi Dadri,"Mini Secretariat, Charkhi Dadri - HSPCB",21-04-2024 10:00:00,28.593883,76.270653,SO2,4,27,14
India,Haryana,Charkhi Dadri,"Mini Secretariat, Charkhi Dadri - HSPCB",21-04-2024 10:00:00,28.593883,76.270653,CO,20,76,38
India,Haryana,Dharuhera,"Municipal Corporation Office, Dharuhera -  HSPCB",21-04-2024 10:00:00,28.206800,76.799700,PM2.5,68,308,112
India,Haryana,Dharuhera,"Municipal Corporation Office, Dharuhera -  HSPCB",21-04-2024 10:00:00,28.206800,76.799700,CO,12,31,28
India,Haryana,Faridabad,"New Industrial Town, Faridabad - HSPCB",21-04-2024 10:00:00,28.39072,77.30059,NH3,1,5,2
India,Haryana,Faridabad,"Sector- 16A, Faridabad - HSPCB",21-04-2024 10:00:00,28.4088421,77.3099081,PM2.5,36,140,60
India,Haryana,Faridabad,"Sector- 16A, Faridabad - HSPCB",21-04-2024 10:00:00,28.4088421,77.3099081,NO2,15,34,22
India,Haryana,Fatehabad,"Huda Sector, Fatehabad - HSPCB",21-04-2024 10:00:00,29.503664,75.467934,NO2,29,31,30
India,Haryana,Gurugram,"Teri Gram, Gurugram - HSPCB",21-04-2024 10:00:00,28.4275,77.1465,OZONE,25,68,31
India,Haryana,Gurugram,"Vikas Sadan, Gurugram - HSPCB",21-04-2024 10:00:00,28.4501238,77.0263051,SO2,25,40,32
India,Haryana,Hisar,"Urban Estate-II, Hisar - HSPCB",21-04-2024 10:00:00,29.140560,75.744941,PM10,78,117,97
India,Haryana,Hisar,"Urban Estate-II, Hisar - HSPCB",21-04-2024 10:00:00,29.140560,75.744941,NO2,22,26,23
India,Haryana,Hisar,"Urban Estate-II, Hisar - HSPCB",21-04-2024 10:00:00,29.140560,75.744941,NH3,9,10,9
India,Haryana,Jind,"Police Lines, Jind - HSPCB",21-04-2024 10:00:00,29.307814,76.337619,NO2,7,17,12
India,Haryana,Jind,"Police Lines, Jind - HSPCB",21-04-2024 10:00:00,29.307814,76.337619,CO,1,101,22
India,Haryana,Kaithal,"Rishi Nagar, Kaithal - HSPCB",21-04-2024 10:00:00,29.8006,76.4155,SO2,NA,NA,NA
India,Haryana,Karnal,"Sector-12, Karnal - HSPCB",21-04-2024 10:00:00,29.695300,77.002700,SO2,12,13,13
India,Haryana,Mandikhera,"General Hospital, Mandikhera - HSPCB",21-04-2024 10:00:00,27.9002,76.9938,OZONE,23,32,26
India,Haryana,Narnaul,"Shastri Nagar, Narnaul - HSPCB",21-04-2024 10:00:00,28.060249,76.113115,NO2,15,85,48
India,Haryana,Palwal,"Shyam Nagar, Palwal - HSPCB",21-04-2024 10:00:00,28.1485564,77.3320667,PM10,64,244,122
India,Haryana,Palwal,"Shyam Nagar, Palwal - HSPCB",21-04-2024 10:00:00,28.1485564,77.3320667,NO2,23,24,24
India,Haryana,Panipat,"Sector-18, Panipat - HSPCB",21-04-2024 10:00:00,29.497973,76.993331,NH3,2,3,2
India,Haryana,Panipat,"Sector-18, Panipat - HSPCB",21-04-2024 10:00:00,29.497973,76.993331,OZONE,30,30,30
India,Haryana,Sirsa,"F-Block, Sirsa - HSPCB",21-04-2024 10:00:00,29.536400,75.015800,PM10,35,97,53
India,Haryana,Sonipat,"Murthal, Sonipat - HSPCB",21-04-2024 10:00:00,29.027200,77.062100,PM10,106,106,106
India,Haryana,Sonipat,"Murthal, Sonipat - HSPCB",21-04-2024 10:00:00,29.027200,77.062100,NH3,7,10,9
India,Haryana,Yamuna Nagar,"Gobind Pura, Yamuna Nagar - HSPCB",21-04-2024 10:00:00,30.1480566,77.2893471,PM2.5,60,83,73
India,Haryana,Yamuna Nagar,"Gobind Pura, Yamuna Nagar - HSPCB",21-04-2024 10:00:00,30.1480566,77.2893471,PM10,80,107,96
India,Haryana,Yamuna Nagar,"Gobind Pura, Yamuna Nagar - HSPCB",21-04-2024 10:00:00,30.1480566,77.2893471,SO2,1,28,7
India,Haryana,Yamuna Nagar,"Gobind Pura, Yamuna Nagar - HSPCB",21-04-2024 10:00:00,30.1480566,77.2893471,CO,3,53,47
India,Himachal Pradesh,Baddi,"HIMUDA Complex Phase-1, Baddi - HPPCB",21-04-2024 10:00:00,30.943887,76.801991,PM10,72,271,121
India,Jharkhand,Dhanbad,"Kalakusuma, Dhanbad - DMC",21-04-2024 10:00:00,23.811548,86.481238,NO2,NA,NA,NA
India,Jharkhand,Dhanbad,"Kalakusuma, Dhanbad - DMC",21-04-2024 10:00:00,23.811548,86.481238,SO2,NA,NA,NA
India,Jharkhand,Dhanbad,"Kalakusuma, Dhanbad - DMC",21-04-2024 10:00:00,23.811548,86.481238,CO,129,134,132
India,Jharkhand,Dhanbad,"Sardar Patel Nagar, Dhanbad - JSPCB",21-04-2024 10:00:00,23.80569,86.44268,PM10,43,193,103
India,Jharkhand,Dhanbad,"Sardar Patel Nagar, Dhanbad - JSPCB",21-04-2024 10:00:00,23.80569,86.44268,SO2,NA,NA,NA
India,Karnataka,Bagalkot,"Vidayagiri, Bagalkot - KSPCB",21-04-2024 10:00:00,16.172806,75.659694,PM2.5,19,37,36
India,Karnataka,Bagalkot,"Vidayagiri, Bagalkot - KSPCB",21-04-2024 10:00:00,16.172806,75.659694,PM10,45,46,46
India,Karnataka,Bagalkot,"Vidayagiri, Bagalkot - KSPCB",21-04-2024 10:00:00,16.172806,75.659694,NO2,9,11,9
India,Karnataka,Belgaum,"Ramteerth Nagar, Belgaum - KSPCB",21-04-2024 10:00:00,15.888653,74.541751,NH3,2,6,4
India,Karnataka,Bengaluru,"Hebbal, Bengaluru - KSPCB",21-04-2024 10:00:00,13.029152,77.585901,SO2,18,24,21
India,Karnataka,Bengaluru,"Jayanagar 5th Block, Bengaluru - KSPCB",21-04-2024 10:00:00,12.920984,77.584908,NO2,4,12,7
India,Karnataka,Bengaluru,"Jayanagar 5th Block, Bengaluru - KSPCB",21-04-2024 10:00:00,12.920984,77.584908,CO,2,7,5
India,Karnataka,Bengaluru,"Kasturi Nagar, Bengaluru - KSPCB",21-04-2024 10:00:00,13.003872,77.664217,PM10,72,164,116
India,Karnataka,Bengaluru,"Kasturi Nagar, Bengaluru - KSPCB",21-04-2024 10:00:00,13.003872,77.664217,NH3,4,4,4
India,Karnataka,Bengaluru,"Kasturi Nagar, Bengaluru - KSPCB",21-04-2024 10:00:00,13.003872,77.664217,CO,20,28,27
India,Karnataka,Bengaluru,"RVCE-Mailasandra, Bengaluru - KSPCB",21-04-2024 10:00:00,12.921418,77.502466,PM2.5,20,109,79
India,Karnataka,Bengaluru,"RVCE-Mailasandra, Bengaluru - KSPCB",21-04-2024 10:00:00,12.921418,77.502466,NO2,17,17,17
India,Karnataka,Bengaluru,"RVCE-Mailasandra, Bengaluru - KSPCB",21-04-2024 10:00:00,12.921418,77.502466,CO,32,70,38
India,Karnataka,Bengaluru,"Sanegurava Halli, Bengaluru - KSPCB",21-04-2024 10:00:00,12.990328,77.5431385,SO2,2,3,3
India,Karnataka,Bengaluru,"Sanegurava Halli, Bengaluru - KSPCB",21-04-2024 10:00:00,12.990328,77.5431385,CO,6,38,15
India,Karnataka,Bengaluru,"Shivapura_Peenya, Bengaluru - KSPCB",21-04-2024 10:00:00,13.0246342,77.5080115,PM2.5,27,176,76
India,Karnataka,Bengaluru,"Shivapura_Peenya, Bengaluru - KSPCB",21-04-2024 10:00:00,13.0246342,77.5080115,PM10,40,268,85
India,Karnataka,Bengaluru,"Shivapura_Peenya, Bengaluru - KSPCB",21-04-2024 10:00:00,13.0246342,77.5080115,SO2,1,8,4
India,Karnataka,Bidar,"Naubad, Bidar - KSPCB",21-04-2024 10:00:00,17.930306,77.482194,SO2,16,24,18
India,Karnataka,Bidar,"Naubad, Bidar - KSPCB",21-04-2024 10:00:00,17.930306,77.482194,OZONE,11,42,28
India,Karnataka,Chamarajanagar,"Urban, Chamarajanagar - KSPCB",21-04-2024 10:00:00,11.55358,76.55521,OZONE,24,51,26
India,Karnataka,Chikkaballapur,"Chikkaballapur Rural, Chikkaballapur - KSPCB",21-04-2024 10:00:00,13.428828,77.731418,OZONE,25,26,25
India,Karnataka,Chikkamagaluru,"Kalyana Nagara, Chikkamagaluru - KSPCB",21-04-2024 10:00:00,13.328028,75.797056,PM10,34,87,50
India,Karnataka,Chikkamagaluru,"Kalyana Nagara, Chikkamagaluru - KSPCB",21-04-2024 10:00:00,13.328028,75.797056,NO2,15,32,27
India,Karnataka,Chikkamagaluru,"Kalyana Nagara, Chikkamagaluru - KSPCB",21-04-2024 10:00:00,13.328028,75.797056,NH3,2,3,3
India,Karnataka,Chikkamagaluru,"Kalyana Nagara, Chikkamagaluru - KSPCB",21-04-2024 10:00:00,13.328028,75.797056,SO2,1,6,2
India,Karnataka,Dharwad,"Kalabhavan, Dharwad - KSPCB",21-04-2024 10:00:00,15.459706,75.008381,NO2,NA,NA,NA
India,Karnataka,Dharwad,"Kalabhavan, Dharwad - KSPCB",21-04-2024 10:00:00,15.459706,75.008381,SO2,1,4,3
India,Karnataka,Dharwad,"Kalabhavan, Dharwad - KSPCB",21-04-2024 10:00:00,15.459706,75.008381,OZONE,2,56,3
India,Karnataka,Hassan,"B.Katihalli, Hassan - KSPCB",21-04-2024 10:00:00,13.008556,76.125258,SO2,18,22,21
India,Karnataka,Hubballi,"Deshpande Nagar, Hubballi - KSPCB",21-04-2024 10:00:00,15.351773,75.140726,NH3,4,5,5
India,Karnataka,Kalaburagi,"Lal Bahadur Shastri Nagar, Kalaburagi - KSPCB",21-04-2024 10:00:00,17.321993,76.822628,PM10,NA,NA,NA
India,Karnataka,Kalaburagi,"Lal Bahadur Shastri Nagar, Kalaburagi - KSPCB",21-04-2024 10:00:00,17.321993,76.822628,SO2,15,19,16
India,Karnataka,Kalaburagi,"Lal Bahadur Shastri Nagar, Kalaburagi - KSPCB",21-04-2024 10:00:00,17.321993,76.822628,CO,NA,NA,NA
India,Karnataka,Kalaburagi,"Mahatma Basaveswar Colony, Kalaburgi - KSPCB",21-04-2024 10:00:00,17.336318,76.847397,NO2,12,17,15
India,Karnataka,Kalaburagi,"Mahatma Basaveswar Colony, Kalaburgi - KSPCB",21-04-2024 10:00:00,17.336318,76.847397,CO,32,56,39
India,Karnataka,Karwar,"KHB Colony, Karwar - KSPCB",21-04-2024 10:00:00,14.816666,74.141003,PM2.5,NA,NA,NA
India,Karnataka,Karwar,"KHB Colony, Karwar - KSPCB",21-04-2024 10:00:00,14.816666,74.141003,NH3,NA,NA,NA
India,Karnataka,Karwar,"KHB Colony, Karwar - KSPCB",21-04-2024 10:00:00,14.816666,74.141003,OZONE,22,22,22
India,Karnataka,Madikeri,"Stuart Hill, Madikeri - KSPCB",21-04-2024 10:00:00,12.415911,75.735050,OZONE,23,54,41
India,Karnataka,Mangalore,"Kadri, Mangalore - KSPCB",21-04-2024 10:00:00,12.889250,74.853000,PM2.5,34,107,59
India,Karnataka,Mysuru,"Hebbal 1st Stage, Mysuru - KSPCB",21-04-2024 10:00:00,12.21041,76.37376,SO2,1,4,2
India,Karnataka,Mysuru,"Hebbal 1st Stage, Mysuru - KSPCB",21-04-2024 10:00:00,12.21041,76.37376,OZONE,8,64,19
India,Karnataka,Ramanagara,"Vijay Nagar, Ramanagara - KSPCB",21-04-2024 10:00:00,12.733409,77.298051,NO2,3,11,7
