country,state,city,station,last_update,latitude,longitude,pollutant_id,pollutant_min,pollutant_max,pollutant_avg
India,Andhra_Pradesh,Amaravati,"Secretariat, Amaravati - APPCB",15-01-2024 01:00:00,16.5150833,80.5181667,PM10,95,249,148
India,Andhra_Pradesh,Amaravati,"Secretariat, Amaravati - APPCB",15-01-2024 01:00:00,16.5150833,80.5181667,SO2,12,101,32
India,Andhra_Pradesh,Chittoor,"Gangineni Cheruvu, Chittoor - APPCB",15-01-2024 01:00:00,13.204880,79.097889,NO2,10,37,17
India,Andhra_Pradesh,Kadapa,"Yerramukkapalli, Kadapa - APPCB",15-01-2024 01:00:00,14.465052,78.824187,NO2,9,21,12
India,Andhra_Pradesh,Tirupati,"Tirumala, Tirupati - APPCB",15-01-2024 01:00:00,13.67,79.35,SO2,10,29,15
India,Andhra_Pradesh,Vijayawada,"HB Colony, Vijayawada - APPCB",15-01-2024 01:00:00,16.536107,80.594233,PM2.5,NA,NA,NA
India,Andhra_Pradesh,Vijayawada,"HB Colony, Vijayawada - APPCB",15-01-2024 01:00:00,16.536107,80.594233,CO,NA,NA,NA
India,Andhra_Pradesh,Vijayawada,"Kanuru, Vijayawada - APPCB",15-01-2024 01:00:00,16.486692,80.699436,NO2,NA,NA,NA
India,Andhra_Pradesh,Vijayawada,"Kanuru, Vijayawada - APPCB",15-01-2024 01:00:00,16.486692,80.699436,SO2,NA,NA,NA
India,Andhra_Pradesh,Vijayawada,"Kanuru, Vijayawada - APPCB",15-01-2024 01:00:00,16.486692,80.699436,CO,NA,NA,NA
India,Andhra_Pradesh,Vijayawada,"Rajiv Gandhi Park, Vijayawada - APPCB",15-01-2024 01:00:00,16.509717,80.612222,CO,NA,NA,NA
India,Andhra_Pradesh,Vijayawada,"Rajiv Gandhi Park, Vijayawada - APPCB",15-01-2024 01:00:00,16.509717,80.612222,OZONE,NA,NA,NA
India,Andhra_Pradesh,Visakhapatnam,"GVM Corporation, Visakhapatnam - APPCB",15-01-2024 01:00:00,17.72,83.3,PM2.5,277,404,327
India,Andhra_Pradesh,Visakhapatnam,"GVM Corporation, Visakhapatnam - APPCB",15-01-2024 01:00:00,17.72,83.3,NO2,25,56,44
India,Assam,Guwahati,"Pan Bazaar, Guwahati - PCBA",15-01-2024 01:00:00,26.187500,91.744194,PM2.5,121,500,301
India,Assam,Guwahati,"Pan Bazaar, Guwahati - PCBA",15-01-2024 01:00:00,26.187500,91.744194,CO,36,134,98
India,Assam,Nalbari,"Bata Chowk, Nalbari - PCBA",15-01-2024 01:00:00,26.446912,91.439057,CO,8,179,128
India,Assam,Silchar,"Tarapur, Silchar - PCBA",15-01-2024 01:00:00,24.82827,92.79525,PM2.5,33,44,37
India,Assam,Silchar,"Tarapur, Silchar - PCBA",15-01-2024 01:00:00,24.82827,92.79525,PM10,42,43,42
India,Bihar,Araria,"Kharahiya Basti, Araria - BSPCB",15-01-2024 01:00:00,26.146529,87.454184,NO2,NA,NA,NA
India,Bihar,Araria,"Kharahiya Basti, Araria - BSPCB",15-01-2024 01:00:00,26.146529,87.454184,SO2,NA,NA,NA
India,Bihar,Araria,"Kharahiya Basti, Araria - BSPCB",15-01-2024 01:00:00,26.146529,87.454184,CO,NA,NA,NA
India,Bihar,Arrah,"New DM Office, Arrah - BSPCB",15-01-2024 01:00:00,25.5626095,84.663264,PM10,117,166,142
India,Bihar,Arrah,"New DM Office, Arrah - BSPCB",15-01-2024 01:00:00,25.5626095,84.663264,OZONE,13,29,14
India,Bihar,Aurangabad,"Gurdeo Nagar, Aurangabad - BSPCB",15-01-2024 01:00:00,24.75746,84.366208,NO2,7,12,9
India,Bihar,Aurangabad,"Gurdeo Nagar, Aurangabad - BSPCB",15-01-2024 01:00:00,24.75746,84.366208,CO,34,119,78
India,Bihar,Bhagalpur,"DM Office_Kachari Chowk, Bhagalpur - BSPCB",15-01-2024 01:00:00,25.251013,86.989001,NO2,28,60,40
India,Bihar,Bhagalpur,"DM Office_Kachari Chowk, Bhagalpur - BSPCB",15-01-2024 01:00:00,25.251013,86.989001,SO2,NA,NA,NA
India,Bihar,Bhagalpur,"Mayaganj, Bhagalpur - BSPCB",15-01-2024 01:00:00,25.265194,87.012947,NO2,3,24,10
India,Bihar,Bihar Sharif,"D M Colony, Bihar Sharif - BSPCB",15-01-2024 01:00:00,25.204762,85.514960,PM2.5,20,67,47
India,Bihar,Chhapra,"Darshan Nagar, Chhapra - BSPCB",15-01-2024 01:00:00,25.7808257,84.7446768,PM2.5,160,341,244
India,Bihar,Gaya,"Collectorate, Gaya - BSPCB",15-01-2024 01:00:00,24.7955,84.9994,PM2.5,267,329,312
India,Bihar,Gaya,"Kareemganj, Gaya - BSPCB",15-01-2024 01:00:00,24.792403,84.992416,CO,12,107,40
India,Bihar,Gaya,"Kareemganj, Gaya - BSPCB",15-01-2024 01:00:00,24.792403,84.992416,OZONE,3,28,17
India,Bihar,Hajipur,"Industrial Area, Hajipur - BSPCB",15-01-2024 01:00:00,25.697189,85.245900,PM2.5,60,127,91
India,Bihar,Hajipur,"Industrial Area, Hajipur - BSPCB",15-01-2024 01:00:00,25.697189,85.245900,CO,62,82,74
India,Bihar,Kishanganj,"SDM Office_Khagra, Kishanganj - BSPCB",15-01-2024 01:00:00,26.0881305,87.93840336,PM2.5,8,117,52
India,Bihar,Kishanganj,"SDM Office_Khagra, Kishanganj - BSPCB",15-01-2024 01:00:00,26.0881305,87.93840336,SO2,10,14,12
India,Bihar,Kishanganj,"SDM Office_Khagra, Kishanganj - BSPCB",15-01-2024 01:00:00,26.0881305,87.93840336,CO,8,24,20
India,Bihar,Motihari,"Gandak Colony, Motihari - BSPCB",15-01-2024 01:00:00,26.63086,84.90051,PM10,97,199,133
India,Bihar,Motihari,"Gandak Colony, Motihari - BSPCB",15-01-2024 01:00:00,26.63086,84.90051,SO2,2,4,3
India,Bihar,Motihari,"Gandak Colony, Motihari - BSPCB",15-01-2024 01:00:00,26.63086,84.90051,CO,59,106,92
India,Bihar,Muzaffarpur,"MIT-Daudpur Kothi, Muzaffarpur - BSPCB",15-01-2024 01:00:00,26.1403345,85.3650192,OZONE,3,31,10
India,Bihar,Patna,"DRM Office Danapur, Patna - BSPCB",15-01-2024 01:00:00,25.586562,85.043586,PM10,NA,NA,NA
India,Bihar,Patna,"Govt. High School Shikarpur, Patna - BSPCB",15-01-2024 01:00:00,25.592539,85.227158,PM2.5,34,100,65
India,Bihar,Patna,"IGSC Planetarium Complex, Patna - BSPCB",15-01-2024 01:00:00,25.610369,85.132568,NO2,14,24,15
India,Bihar,Patna,"Rajbansi Nagar, Patna - BSPCB",15-01-2024 01:00:00,25.599486,85.113666,SO2,8,18,13
India,Bihar,Patna,"Samanpura, Patna - BSPCB",15-01-2024 01:00:00,25.596727,85.085624,SO2,3,5,4
India,Bihar,Patna,"Samanpura, Patna - BSPCB",15-01-2024 01:00:00,25.596727,85.085624,CO,104,120,113
India,Bihar,Saharsa,"Police Line, Saharsa - BSPCB",15-01-2024 01:00:00,25.892357,86.590325,PM2.5,293,443,359
India,Bihar,Saharsa,"Police Line, Saharsa - BSPCB",15-01-2024 01:00:00,25.892357,86.590325,NH3,9,9,9
India,Bihar,Samastipur,"DM Office_Kasipur, Samastipur - BSPCB",15-01-2024 01:00:00,25.859655,85.77944,NO2,3,7,4
India,Bihar,Samastipur,"DM Office_Kasipur, Samastipur - BSPCB",15-01-2024 01:00:00,25.859655,85.77944,OZONE,6,10,7
India,Bihar,Sasaram,"Dada Peer, Sasaram - BSPCB",15-01-2024 01:00:00,24.952822,84.002396,CO,26,58,45
India,Bihar,Siwan,"Chitragupta Nagar, Siwan - BSPCB",15-01-2024 01:00:00,26.2271665,84.3570427,PM2.5,75,347,164
India,Bihar,Siwan,"Chitragupta Nagar, Siwan - BSPCB",15-01-2024 01:00:00,26.2271665,84.3570427,SO2,23,35,32
India,Bihar,Siwan,"Chitragupta Nagar, Siwan - BSPCB",15-01-2024 01:00:00,26.2271665,84.3570427,OZONE,2,30,7
India,Chandigarh,Chandigarh,"Sector 22, Chandigarh - CPCC",15-01-2024 01:00:00,30.735567,76.775714,CO,50,100,70
India,Chandigarh,Chandigarh,"Sector-25, Chandigarh - CPCC",15-01-2024 01:00:00,30.751462,76.762879,PM10,NA,NA,NA
India,Chandigarh,Chandigarh,"Sector-53, Chandigarh - CPCC",15-01-2024 01:00:00,30.719859,76.738637,PM10,NA,NA,NA
India,Chhattisgarh,Bhilai,"32Bungalows, Bhilai - CECB",15-01-2024 01:00:00,21.194815,81.314770,NO2,16,29,23
India,Chhattisgarh,Bhilai,"Civic Center, Bhilai - Bhilai Steel Plant",15-01-2024 01:00:00,21.185571,81.343175,NH3,2,3,2
India,Chhattisgarh,Bhilai,"Hathkhoj, Bhilai - CECB",15-01-2024 01:00:00,21.224231,81.408350,PM10,77,122,104
India,Chhattisgarh,Chhal,"Nawapara SECL Colony, Chhal - CECB",15-01-2024 01:00:00,22.118125,83.140608,NO2,10,66,23
India,Chhattisgarh,Korba,"Rampur, Korba - CECB",15-01-2024 01:00:00,22.368195,82.746431,NH3,1,4,3
India,Chhattisgarh,Kunjemura,"OP Jindal School, Kunjemura - CECB",15-01-2024 01:00:00,22.126650,83.483212,PM2.5,1,32,6
India,Chhattisgarh,Kunjemura,"OP Jindal School, Kunjemura - CECB",15-01-2024 01:00:00,22.126650,83.483212,NO2,14,124,55
India,Chhattisgarh,Milupara,"Govt. Higher Secondary School, Milupara - CECB",15-01-2024 01:00:00,22.1910172,83.5197009,PM2.5,14,42,28
India,Chhattisgarh,Milupara,"Govt. Higher Secondary School, Milupara - CECB",15-01-2024 01:00:00,22.1910172,83.5197009,NO2,9,49,22
India,Chhattisgarh,Milupara,"Govt. Higher Secondary School, Milupara - CECB",15-01-2024 01:00:00,22.1910172,83.5197009,OZONE,7,71,27
India,Chhattisgarh,Raipur,"AIIMS, Raipur - CECB",15-01-2024 01:00:00,21.258815,81.578979,PM2.5,25,259,72
India,Chhattisgarh,Raipur,"Bhatagaon New ISBT, Raipur - CECB",15-01-2024 01:00:00,21.219665,81.630094,PM2.5,35,88,50
India,Chhattisgarh,Raipur,"Bhatagaon New ISBT, Raipur - CECB",15-01-2024 01:00:00,21.219665,81.630094,NO2,65,93,81
India,Chhattisgarh,Raipur,"Bhatagaon New ISBT, Raipur - CECB",15-01-2024 01:00:00,21.219665,81.630094,NH3,2,4,3
India,Chhattisgarh,Raipur,"Krishak Nagar, Raipur - CECB",15-01-2024 01:00:00,21.237755,81.705301,PM2.5,37,60,47
India,Chhattisgarh,Raipur,"Siltara Phase-II, Raipur - CECB",15-01-2024 01:00:00,21.371751,81.664929,CO,12,44,30
India,Chhattisgarh,Tumidih,"OP Jindal Industrial Park, Tumidih - CECB",15-01-2024 01:00:00,22.06631475,83.33820077,NO2,7,22,15
India,Delhi,Delhi,"Alipur, Delhi - DPCC",15-01-2024 01:00:00,28.815329,77.153010,CO,61,108,88
India,Delhi,Delhi,"Ashok Vihar, Delhi - DPCC",15-01-2024 01:00:00,28.695381,77.181665,CO,7,147,94
India,Delhi,Delhi,"Bawana, Delhi - DPCC",15-01-2024 01:00:00,28.776200,77.051074,PM10,127,411,254
India,Delhi,Delhi,"Bawana, Delhi - DPCC",15-01-2024 01:00:00,28.776200,77.051074,NO2,17,42,26
India,Delhi,Delhi,"Bawana, Delhi - DPCC",15-01-2024 01:00:00,28.776200,77.051074,NH3,5,7,6
India,Delhi,Delhi,"Bawana, Delhi - DPCC",15-01-2024 01:00:00,28.776200,77.051074,OZONE,3,58,12
India,Delhi,Delhi,"Burari Crossing, Delhi - IMD",15-01-2024 01:00:00,28.7256504,77.2011573,PM10,138,500,349
India,Delhi,Delhi,"Burari Crossing, Delhi - IMD",15-01-2024 01:00:00,28.7256504,77.2011573,OZONE,18,50,34
India,Delhi,Delhi,"CRRI Mathura Road, Delhi - IMD",15-01-2024 01:00:00,28.5512005,77.2735737,CO,12,113,61
India,Delhi,Delhi,"DTU, Delhi - CPCB",15-01-2024 01:00:00,28.7500499,77.1112615,PM2.5,134,377,222
India,Delhi,Delhi,"Dr. Karni Singh Shooting Range, Delhi - DPCC",15-01-2024 01:00:00,28.498571,77.264840,PM2.5,360,500,474
India,Delhi,Delhi,"Dr. Karni Singh Shooting Range, Delhi - DPCC",15-01-2024 01:00:00,28.498571,77.264840,PM10,249,478,426
India,Delhi,Delhi,"Dr. Karni Singh Shooting Range, Delhi - DPCC",15-01-2024 01:00:00,28.498571,77.264840,NO2,80,175,126
India,Delhi,Delhi,"Dr. Karni Singh Shooting Range, Delhi - DPCC",15-01-2024 01:00:00,28.498571,77.264840,NH3,8,24,13
India,Delhi,Delhi,"IGI Airport (T3), Delhi - IMD",15-01-2024 01:00:00,28.5627763,77.1180053,CO,2,141,34
India,Delhi,Delhi,"IGI Airport (T3), Delhi - IMD",15-01-2024 01:00:00,28.5627763,77.1180053,OZONE,21,54,34
India,Delhi,Delhi,"IHBAS, Dilshad Garden, Delhi - CPCB",15-01-2024 01:00:00,28.6811736,77.3025234,OZONE,5,62,17
India,Delhi,Delhi,"ITO, Delhi - CPCB",15-01-2024 01:00:00,28.628624,77.241060,PM2.5,337,500,420
India,Delhi,Delhi,"ITO, Delhi - CPCB",15-01-2024 01:00:00,28.628624,77.241060,NO2,18,108,43
India,Delhi,Delhi,"ITO, Delhi - CPCB",15-01-2024 01:00:00,28.628624,77.241060,OZONE,18,58,23
India,Delhi,Delhi,"Jahangirpuri, Delhi - DPCC",15-01-2024 01:00:00,28.732820,77.170633,NH3,10,14,12
India,Delhi,Delhi,"Jawaharlal Nehru Stadium, Delhi - DPCC",15-01-2024 01:00:00,28.580280,77.233829,NO2,61,147,101
India,Delhi,Delhi,"Jawaharlal Nehru Stadium, Delhi - DPCC",15-01-2024 01:00:00,28.580280,77.233829,OZONE,12,73,26
India,Delhi,Delhi,"Lodhi Road, Delhi - IMD",15-01-2024 01:00:00,28.5918245,77.2273074,PM10,196,500,346
India,Delhi,Delhi,"Major Dhyan Chand National Stadium, Delhi - DPCC",15-01-2024 01:00:00,28.611281,77.237738,OZONE,3,3,3
India,Delhi,Delhi,"Mandir Marg, Delhi - DPCC",15-01-2024 01:00:00,28.636429,77.201067,NO2,96,154,116
India,Delhi,Delhi,"NSIT Dwarka, Delhi - CPCB",15-01-2024 01:00:00,28.60909,77.0325413,SO2,2,21,12
India,Delhi,Delhi,"Najafgarh, Delhi - DPCC",15-01-2024 01:00:00,28.570173,76.933762,SO2,1,11,5
India,Delhi,Delhi,"Narela, Delhi - DPCC",15-01-2024 01:00:00,28.822836,77.101981,NH3,10,15,11
India,Delhi,Delhi,"Nehru Nagar, Delhi - DPCC",15-01-2024 01:00:00,28.567890,77.250515,NO2,37,72,53
India,Delhi,Delhi,"Nehru Nagar, Delhi - DPCC",15-01-2024 01:00:00,28.567890,77.250515,OZONE,2,131,17
India,Delhi,Delhi,"New Moti Bagh, Delhi - MHUA",15-01-2024 01:00:00,28.57834,77.18400,NO2,3,12,7
India,Delhi,Delhi,"North Campus, DU, Delhi - IMD",15-01-2024 01:00:00,28.6573814,77.1585447,NO2,33,108,70
India,Delhi,Delhi,"Okhla Phase-2, Delhi - DPCC",15-01-2024 01:00:00,28.530785,77.271255,NH3,5,8,5
India,Delhi,Delhi,"Okhla Phase-2, Delhi - DPCC",15-01-2024 01:00:00,28.530785,77.271255,SO2,8,29,19
India,Delhi,Delhi,"Okhla Phase-2, Delhi - DPCC",15-01-2024 01:00:00,28.530785,77.271255,OZONE,10,154,21
India,Delhi,Delhi,"Patparganj, Delhi - DPCC",15-01-2024 01:00:00,28.623763,77.287209,NO2,46,127,86
India,Delhi,Delhi,"Punjabi Bagh, Delhi - DPCC",15-01-2024 01:00:00,28.674045,77.131023,NO2,84,116,99
India,Delhi,Delhi,"Punjabi Bagh, Delhi - DPCC",15-01-2024 01:00:00,28.674045,77.131023,SO2,5,14,8
India,Delhi,Delhi,"Punjabi Bagh, Delhi - DPCC",15-01-2024 01:00:00,28.674045,77.131023,CO,8,119,84
India,Delhi,Delhi,"Pusa, Delhi - DPCC",15-01-2024 01:00:00,28.639652,77.146275,SO2,10,41,18
India,Delhi,Delhi,"Pusa, Delhi - IMD",15-01-2024 01:00:00,28.636110,77.173332,CO,109,155,117
India,Delhi,Delhi,"R K Puram, Delhi - DPCC",15-01-2024 01:00:00,28.563262,77.186937,PM2.5,342,500,471
India,Delhi,Delhi,"R K Puram, Delhi - DPCC",15-01-2024 01:00:00,28.563262,77.186937,SO2,NA,NA,NA
India,Delhi,Delhi,"Sirifort, Delhi - CPCB",15-01-2024 01:00:00,28.5504249,77.2159377,NO2,147,208,178
India,Delhi,Delhi,"Sirifort, Delhi - CPCB",15-01-2024 01:00:00,28.5504249,77.2159377,NH3,8,13,10
India,Delhi,Delhi,"Sirifort, Delhi - CPCB",15-01-2024 01:00:00,28.5504249,77.2159377,CO,57,143,89
India,Delhi,Delhi,"Sonia Vihar, Delhi - DPCC",15-01-2024 01:00:00,28.710508,77.249485,NO2,40,97,62
India,Delhi,Delhi,"Sri Aurobindo Marg, Delhi - DPCC",15-01-2024 01:00:00,28.531346,77.190156,PM2.5,332,500,448
India,Delhi,Delhi,"Vivek Vihar, Delhi - DPCC",15-01-2024 01:00:00,28.672342,77.315260,PM2.5,370,500,450
India,Delhi,Delhi,"Vivek Vihar, Delhi - DPCC",15-01-2024 01:00:00,28.672342,77.315260,PM10,275,500,412
India,Delhi,Delhi,"Wazirpur, Delhi - DPCC",15-01-2024 01:00:00,28.699793,77.165453,NO2,170,330,235
India,Gujarat,Ahmedabad,"Chandkheda, Ahmedabad - IITM",15-01-2024 01:00:00,23.107969,72.574648,NO2,NA,NA,NA
India,Gujarat,Ahmedabad,"Chandkheda, Ahmedabad - IITM",15-01-2024 01:00:00,23.107969,72.574648,SO2,NA,NA,NA
India,Gujarat,Ahmedabad,"Chandkheda, Ahmedabad - IITM",15-01-2024 01:00:00,23.107969,72.574648,OZONE,NA,NA,NA
India,Gujarat,Ahmedabad,"Maninagar, Ahmedabad - GPCB",15-01-2024 01:00:00,23.002657,72.591912,NO2,11,92,50
India,Gujarat,Ahmedabad,"Raikhad, Ahmedabad - IITM",15-01-2024 01:00:00,23.020509,72.579261,PM10,91,102,98
India,Gujarat,Ahmedabad,"Raikhad, Ahmedabad - IITM",15-01-2024 01:00:00,23.020509,72.579261,SO2,11,15,14
India,Gujarat,Ahmedabad,"Rakhial, Ahmedabad - IITM",15-01-2024 01:00:00,23.016834,72.625775,CO,5,48,28
India,Gujarat,Ahmedabad,"SAC ISRO Bopal, Ahmedabad - IITM",15-01-2024 01:00:00,23.041137,72.456691,PM10,40,123,78
India,Gujarat,Ahmedabad,"SAC ISRO Bopal, Ahmedabad - IITM",15-01-2024 01:00:00,23.041137,72.456691,NO2,10,15,13
India,Gujarat,Ahmedabad,"SAC ISRO Satellite, Ahmedabad - IITM",15-01-2024 01:00:00,23.023389,72.515201,NO2,14,28,21
India,Gujarat,Ahmedabad,"SVPI Airport Hansol, Ahmedabad - IITM",15-01-2024 01:00:00,23.076793,72.627874,NH3,4,4,4
India,Gujarat,Ahmedabad,"SVPI Airport Hansol, Ahmedabad - IITM",15-01-2024 01:00:00,23.076793,72.627874,CO,20,76,32
India,Gujarat,Ankleshwar,"GIDC, Ankleshwar - GPCB",15-01-2024 01:00:00,21.613267,73.010555,NH3,6,6,6
India,Gujarat,Gandhinagar,"GIFT City, Gandhinagar - IITM",15-01-2024 01:00:00,23.163798,72.677768,PM2.5,29,79,49
India,Gujarat,Gandhinagar,"IIPHG Lekawada, Gandhinagar - IITM",15-01-2024 01:00:00,23.243639,72.68994,NH3,3,3,3
India,Gujarat,Gandhinagar,"IIPHG Lekawada, Gandhinagar - IITM",15-01-2024 01:00:00,23.243639,72.68994,CO,29,52,43
India,Gujarat,Gandhinagar,"Sector-10, Gandhinagar - GPCB",15-01-2024 01:00:00,23.221714,72.654328,PM10,21,84,59
India,Gujarat,Gandhinagar,"Sector-10, Gandhinagar - GPCB",15-01-2024 01:00:00,23.221714,72.654328,SO2,9,11,10
India,Gujarat,Surat,"Science Center, Surat - SMC",15-01-2024 01:00:00,21.170046,72.795405,CO,42,70,53
India,Haryana,Bahadurgarh,"Arya Nagar, Bahadurgarh - HSPCB",15-01-2024 01:00:00,28.6701,76.9254,SO2,8,13,10
India,Haryana,Bahadurgarh,"Arya Nagar, Bahadurgarh - HSPCB",15-01-2024 01:00:00,28.6701,76.9254,OZONE,38,49,43
India,Haryana,Ballabgarh,"Nathu Colony, Ballabgarh - HSPCB",15-01-2024 01:00:00,28.3419248,77.319699,NH3,1,2,2
India,Haryana,Charkhi Dadri,"Mini Secretariat, Charkhi Dadri - HSPCB",15-01-2024 01:00:00,28.593883,76.270653,NO2,9,16,11
India,Haryana,Faridabad,"New Industrial Town, Faridabad - HSPCB",15-01-2024 01:00:00,28.39072,77.30059,NO2,1,39,18
India,Haryana,Faridabad,"Sector 11, Faridabad - HSPCB",15-01-2024 01:00:00,28.376058,77.315741,NO2,30,32,31
India,Haryana,Faridabad,"Sector 30, Faridabad - HSPCB",15-01-2024 01:00:00,28.4417,77.3217,NH3,NA,NA,NA
India,Haryana,Faridabad,"Sector 30, Faridabad - HSPCB",15-01-2024 01:00:00,28.4417,77.3217,SO2,NA,NA,NA
India,Haryana,Fatehabad,"Huda Sector, Fatehabad - HSPCB",15-01-2024 01:00:00,29.503664,75.467934,NH3,10,10,10
India,Haryana,Fatehabad,"Huda Sector, Fatehabad - HSPCB",15-01-2024 01:00:00,29.503664,75.467934,OZONE,40,66,56
India,Haryana,Gurugram,"Sector-51, Gurugram - HSPCB",15-01-2024 01:00:00,28.4227,77.0667,SO2,3,135,15
India,Haryana,Gurugram,"Sector-51, Gurugram - HSPCB",15-01-2024 01:00:00,28.4227,77.0667,OZONE,27,67,54
India,Haryana,Gurugram,"Teri Gram, Gurugram - HSPCB",15-01-2024 01:00:00,28.4275,77.1465,NH3,39,63,50
India,Haryana,Gurugram,"Teri Gram, Gurugram - HSPCB",15-01-2024 01:00:00,28.4275,77.1465,CO,55,106,65
India,Haryana,Gurugram,"Vikas Sadan, Gurugram - HSPCB",15-01-2024 01:00:00,28.4501238,77.0263051,SO2,23,37,28
India,Haryana,Hisar,"Urban Estate-II, Hisar - HSPCB",15-01-2024 01:00:00,29.140560,75.744941,SO2,1,16,7
India,Haryana,Hisar,"Urban Estate-II, Hisar - HSPCB",15-01-2024 01:00:00,29.140560,75.744941,CO,100,128,101
India,Haryana,Kaithal,"Rishi Nagar, Kaithal - HSPCB",15-01-2024 01:00:00,29.8006,76.4155,NO2,24,26,25
India,Haryana,Karnal,"Sector-12, Karnal - HSPCB",15-01-2024 01:00:00,29.695300,77.002700,PM2.5,48,214,132
India,Haryana,Karnal,"Sector-12, Karnal - HSPCB",15-01-2024 01:00:00,29.695300,77.002700,PM10,60,136,104
India,Haryana,Karnal,"Sector-12, Karnal - HSPCB",15-01-2024 01:00:00,29.695300,77.002700,NO2,7,12,10
India,Haryana,Karnal,"Sector-12, Karnal - HSPCB",15-01-2024 01:00:00,29.695300,77.002700,OZONE,29,31,30
India,Haryana,Kurukshetra,"Sector-7, Kurukshetra - HSPCB",15-01-2024 01:00:00,29.966942,76.875879,PM2.5,65,218,125
India,Haryana,Mandikhera,"General Hospital, Mandikhera - HSPCB",15-01-2024 01:00:00,27.9002,76.9938,OZONE,24,30,27
India,Haryana,Manesar,"Sector-2 IMT, Manesar - HSPCB",15-01-2024 01:00:00,28.360699,76.936090,NH3,5,12,8
India,Haryana,Manesar,"Sector-2 IMT, Manesar - HSPCB",15-01-2024 01:00:00,28.360699,76.936090,OZONE,5,40,13
India,Haryana,Narnaul,"Shastri Nagar, Narnaul - HSPCB",15-01-2024 01:00:00,28.060249,76.113115,SO2,13,70,17
India,Haryana,Palwal,"Shyam Nagar, Palwal - HSPCB",15-01-2024 01:00:00,28.1485564,77.3320667,SO2,6,19,12
India,Haryana,Palwal,"Shyam Nagar, Palwal - HSPCB",15-01-2024 01:00:00,28.1485564,77.3320667,CO,26,44,37
India,Haryana,Panchkula,"Sector-6, Panchkula - HSPCB ",15-01-2024 01:00:00,30.7057778,76.8531805555555,NO2,28,30,29
India,Haryana,Panchkula,"Sector-6, Panchkula - HSPCB ",15-01-2024 01:00:00,30.7057778,76.8531805555555,SO2,11,13,12
India,Haryana,Panipat,"Sector-18, Panipat - HSPCB",15-01-2024 01:00:00,29.497973,76.993331,PM10,109,139,133
India,Haryana,Panipat,"Sector-18, Panipat - HSPCB",15-01-2024 01:00:00,29.497973,76.993331,NH3,2,3,3
India,Haryana,Sirsa,"F-Block, Sirsa - HSPCB",15-01-2024 01:00:00,29.536400,75.015800,NH3,12,13,13
India,Haryana,Sirsa,"F-Block, Sirsa - HSPCB",15-01-2024 01:00:00,29.536400,75.015800,OZONE,17,54,28
India,Haryana,Sonipat,"Murthal, Sonipat - HSPCB",15-01-2024 01:00:00,29.027200,77.062100,PM2.5,108,327,223
India,Haryana,Sonipat,"Murthal, Sonipat - HSPCB",15-01-2024 01:00:00,29.027200,77.062100,CO,18,74,44
India,Himachal Pradesh,Baddi,"HIMUDA Complex Phase-1, Baddi - HPPCB",15-01-2024 01:00:00,30.943887,76.801991,PM10,150,500,316
India,Himachal Pradesh,Baddi,"HIMUDA Complex Phase-1, Baddi - HPPCB",15-01-2024 01:00:00,30.943887,76.801991,CO,40,112,78
India,Himachal Pradesh,Baddi,"HIMUDA Complex Phase-1, Baddi - HPPCB",15-01-2024 01:00:00,30.943887,76.801991,OZONE,8,56,20
India,Jharkhand,Dhanbad,"Sardar Patel Nagar, Dhanbad - JSPCB",15-01-2024 01:00:00,23.80569,86.44268,PM2.5,NA,NA,NA
India,Jharkhand,Dhanbad,"Sardar Patel Nagar, Dhanbad - JSPCB",15-01-2024 01:00:00,23.80569,86.44268,PM10,NA,NA,NA
India,Jharkhand,Pathardih,"Mohalbani Ghat, Pathardih - DMC",15-01-2024 01:00:00,23.669880,86.411725,PM10,NA,NA,NA
India,Jharkhand,Pathardih,"Mohalbani Ghat, Pathardih - DMC",15-01-2024 01:00:00,23.669880,86.411725,NO2,NA,NA,NA
India,Karnataka,Bagalkot,"Vidayagiri, Bagalkot - KSPCB",15-01-2024 01:00:00,16.172806,75.659694,PM10,53,53,53
India,Karnataka,Bengaluru,"Bapuji Nagar, Bengaluru - KSPCB",15-01-2024 01:00:00,12.951913,77.539784,SO2,4,6,5
India,Karnataka,Bengaluru,"Bapuji Nagar, Bengaluru - KSPCB",15-01-2024 01:00:00,12.951913,77.539784,OZONE,10,12,11
India,Karnataka,Bengaluru,"Hombegowda Nagar, Bengaluru - KSPCB",15-01-2024 01:00:00,12.938539,77.590100,PM2.5,57,111,74
India,Karnataka,Bengaluru,"Hombegowda Nagar, Bengaluru - KSPCB",15-01-2024 01:00:00,12.938539,77.590100,SO2,4,5,4
India,Karnataka,Bengaluru,"Jayanagar 5th Block, Bengaluru - KSPCB",15-01-2024 01:00:00,12.920984,77.584908,CO,8,63,40
India,Karnataka,Bengaluru,"Jayanagar 5th Block, Bengaluru - KSPCB",15-01-2024 01:00:00,12.920984,77.584908,OZONE,18,21,18
India,Karnataka,Bengaluru,"Kasturi Nagar, Bengaluru - KSPCB",15-01-2024 01:00:00,13.003872,77.664217,NO2,16,17,17
India,Karnataka,Bengaluru,"Peenya, Bengaluru - CPCB",15-01-2024 01:00:00,13.0270199,77.494094,PM10,112,151,122
India,Karnataka,Bengaluru,"RVCE-Mailasandra, Bengaluru - KSPCB",15-01-2024 01:00:00,12.921418,77.502466,NH3,4,4,4
India,Karnataka,Bengaluru,"Silk Board, Bengaluru - KSPCB",15-01-2024 01:00:00,12.917348,77.622813,NO2,17,30,21
India,Karnataka,Bengaluru,"Silk Board, Bengaluru - KSPCB",15-01-2024 01:00:00,12.917348,77.622813,OZONE,29,31,30
India,Karnataka,Chamarajanagar,"Urban, Chamarajanagar - KSPCB",15-01-2024 01:00:00,11.55358,76.55521,PM10,34,50,44
India,Karnataka,Chamarajanagar,"Urban, Chamarajanagar - KSPCB",15-01-2024 01:00:00,11.55358,76.55521,SO2,2,6,5
India,Karnataka,Chikkaballapur,"Chikkaballapur Rural, Chikkaballapur - KSPCB",15-01-2024 01:00:00,13.428828,77.731418,NH3,1,1,1
India,Karnataka,Chikkaballapur,"Chikkaballapur Rural, Chikkaballapur - KSPCB",15-01-2024 01:00:00,13.428828,77.731418,OZONE,25,25,25
India,Karnataka,Chikkamagaluru,"Kalyana Nagara, Chikkamagaluru - KSPCB",15-01-2024 01:00:00,13.328028,75.797056,NO2,17,36,24
India,Karnataka,Chikkamagaluru,"Kalyana Nagara, Chikkamagaluru - KSPCB",15-01-2024 01:00:00,13.328028,75.797056,NH3,3,5,4
India,Karnataka,Dharwad,"Kalabhavan, Dharwad - KSPCB",15-01-2024 01:00:00,15.459706,75.008381,NO2,5,34,21
India,Karnataka,Gadag,"Panchal Nagar, Gadag - KSPCB",15-01-2024 01:00:00,15.411456,75.638133,OZONE,33,85,54
India,Karnataka,Hubballi,"Deshpande Nagar, Hubballi - KSPCB",15-01-2024 01:00:00,15.351773,75.140726,NO2,24,28,25
India,Karnataka,Hubballi,"Deshpande Nagar, Hubballi - KSPCB",15-01-2024 01:00:00,15.351773,75.140726,SO2,13,14,13
India,Karnataka,Hubballi,"Lingaraj Nagar, Hubballi - KSPCB",15-01-2024 01:00:00,15.3714823,75.1160168,CO,3,80,54
India,Karnataka,Kalaburagi,"Lal Bahadur Shastri Nagar, Kalaburagi - KSPCB",15-01-2024 01:00:00,17.321993,76.822628,NO2,11,12,11
India,Karnataka,Kalaburagi,"Mahatma Basaveswar Colony, Kalaburgi - KSPCB",15-01-2024 01:00:00,17.336318,76.847397,PM10,39,68,52
India,Karnataka,Kolar,"Tamaka Ind. Area, Kolar - KSPCB",15-01-2024 01:00:00,13.1276288,78.1570122,NO2,4,22,12
India,Karnataka,Kolar,"Tamaka Ind. Area, Kolar - KSPCB",15-01-2024 01:00:00,13.1276288,78.1570122,NH3,6,7,7
India,Karnataka,Kolar,"Tamaka Ind. Area, Kolar - KSPCB",15-01-2024 01:00:00,13.1276288,78.1570122,OZONE,15,25,21
India,Karnataka,Madikeri,"Stuart Hill, Madikeri - KSPCB",15-01-2024 01:00:00,12.415911,75.735050,NO2,6,12,8
India,Karnataka,Madikeri,"Stuart Hill, Madikeri - KSPCB",15-01-2024 01:00:00,12.415911,75.735050,SO2,4,4,4
India,Karnataka,Mysuru,"Hebbal 1st Stage, Mysuru - KSPCB",15-01-2024 01:00:00,12.21041,76.37376,CO,12,62,39
India,Karnataka,Raichur,"Haji Colony, Raichur - KSPCB",15-01-2024 01:00:00,16.208139,77.348417,NO2,17,52,31
India,Karnataka,Yadgir,"Collector Office, Yadgir - KSPCB",15-01-2024 01:00:00,16.7602,77.1428,NO2,5,12,7
India,Kerala,Kannur,"Thavakkara, Kannur - Kerala PCB",15-01-2024 01:00:00,11.875000,75.373200,OZONE,31,35,31
India,Kerala,Kochi,"Vyttila, Kochi - Kerala PCB",15-01-2024 01:00:00,9.969447,76.321186,PM10,61,191,113
India,Kerala,Kollam,"Polayathode, Kollam - Kerala PCB",15-01-2024 01:00:00,8.8787,76.6073,NO2,NA,NA,NA
India,Kerala,Thiruvananthapuram,"Kariavattom, Thiruvananthapuram - Kerala PCB",15-01-2024 01:00:00,8.563700,76.886500,SO2,2,13,8
India,Kerala,Thiruvananthapuram,"Plammoodu, Thiruvananthapuram - Kerala PCB",15-01-2024 01:00:00,8.5149093,76.9435879,NO2,13,14,13
India,Kerala,Thiruvananthapuram,"Plammoodu, Thiruvananthapuram - Kerala PCB",15-01-2024 01:00:00,8.5149093,76.9435879,CO,18,45,25
India,Kerala,Thrissur,"Corporation Ground, Thrissur - Kerala PCB",15-01-2024 01:00:00,10.532400,76.215900,SO2,NA,NA,NA
India,Madhya Pradesh,Bhopal,"Idgah Hills, Bhopal - MPPCB",15-01-2024 01:00:00,23.264759,77.381568,OZONE,22,92,54
India,Madhya Pradesh,Bhopal,"Paryavaran Parisar, Bhopal - MPPCB",15-01-2024 01:00:00,23.210494,77.425409,PM10,54,199,121
India,Madhya Pradesh,Bhopal,"Paryavaran Parisar, Bhopal - MPPCB",15-01-2024 01:00:00,23.210494,77.425409,CO,4,98,51
India,Madhya Pradesh,Bhopal,"Paryavaran Parisar, Bhopal - MPPCB",15-01-2024 01:00:00,23.210494,77.425409,OZONE,2,70,26
India,Madhya Pradesh,Dewas,"Bhopal Chauraha, Dewas - MPPCB",15-01-2024 01:00:00,22.9682591,76.064118,PM10,47,186,102
India,Madhya Pradesh,Dewas,"Bhopal Chauraha, Dewas - MPPCB",15-01-2024 01:00:00,22.9682591,76.064118,NO2,11,13,12
India,Madhya Pradesh,Dewas,"Bhopal Chauraha, Dewas - MPPCB",15-01-2024 01:00:00,22.9682591,76.064118,SO2,20,54,42
India,Madhya Pradesh,Gwalior,"City Center, Gwalior - MPPCB",15-01-2024 01:00:00,26.203442,78.193251,SO2,11,38,24
India,Madhya Pradesh,Gwalior,"City Center, Gwalior - MPPCB",15-01-2024 01:00:00,26.203442,78.193251,OZONE,18,20,19
India,Madhya Pradesh,Gwalior,"Deen Dayal Nagar, Gwalior - MPPCB",15-01-2024 01:00:00,26.259242,78.216432,NO2,37,87,61
India,Madhya Pradesh,Gwalior,"Deen Dayal Nagar, Gwalior - MPPCB",15-01-2024 01:00:00,26.259242,78.216432,OZONE,7,130,43
India,Madhya Pradesh,Gwalior,"Maharaj Bada, Gwalior - MPPCB",15-01-2024 01:00:00,26.200388,78.147714,CO,4,120,69
India,Madhya Pradesh,Gwalior,"Phool Bagh, Gwalior - Mondelez Ind. Food",15-01-2024 01:00:00,26.210536,78.171,PM2.5,15,304,174
India,Madhya Pradesh,Indore,"Chhoti Gwaltoli, Indore - MPPCB",15-01-2024 01:00:00,22.4310,75.5213,OZONE,10,84,25
India,Madhya Pradesh,Indore,"Regional Park, Indore - IMC",15-01-2024 01:00:00,22.6780,75.8559,NO2,3,8,6
India,Madhya Pradesh,Indore,"Regional Park, Indore - IMC",15-01-2024 01:00:00,22.6780,75.8559,NH3,1,3,2
India,Madhya Pradesh,Indore,"Regional Park, Indore - IMC",15-01-2024 01:00:00,22.6780,75.8559,CO,10,49,22
India,Madhya Pradesh,Indore,"Regional Park, Indore - IMC",15-01-2024 01:00:00,22.6780,75.8559,OZONE,4,17,6
India,Madhya Pradesh,Jabalpur,"Govindh Bhavan Colony, Jabalpur - JMC",15-01-2024 01:00:00,23.163174,79.973061,SO2,5,19,9
India,Madhya Pradesh,Jabalpur,"Govindh Bhavan Colony, Jabalpur - JMC",15-01-2024 01:00:00,23.163174,79.973061,OZONE,5,106,52
India,Madhya Pradesh,Jabalpur,"Gupteshwar, Jabalpur - JMC",15-01-2024 01:00:00,23.142888,79.916147,OZONE,2,118,60
India,Madhya Pradesh,Jabalpur,"Marhatal, Jabalpur - MPPCB",15-01-2024 01:00:00,23.168606,79.932247,PM2.5,40,179,71
India,Madhya Pradesh,Jabalpur,"Marhatal, Jabalpur - MPPCB",15-01-2024 01:00:00,23.168606,79.932247,PM10,52,127,75
India,Madhya Pradesh,Jabalpur,"Marhatal, Jabalpur - MPPCB",15-01-2024 01:00:00,23.168606,79.932247,SO2,16,25,18
India,Madhya Pradesh,Jabalpur,"Marhatal, Jabalpur - MPPCB",15-01-2024 01:00:00,23.168606,79.932247,OZONE,5,69,47
India,Madhya Pradesh,Jabalpur,"Suhagi, Jabalpur - JMC",15-01-2024 01:00:00,23.218135,79.957770,SO2,7,38,14
India,Madhya Pradesh,Jabalpur,"Suhagi, Jabalpur - JMC",15-01-2024 01:00:00,23.218135,79.957770,OZONE,5,144,45
India,Madhya Pradesh,Maihar,"Sahilara, Maihar - KJS Cements",15-01-2024 01:00:00,24.2613009,80.7231783,SO2,11,14,12
India,Madhya Pradesh,Mandideep,"Sector-D Industrial Area, Mandideep - MPPCB",15-01-2024 01:00:00,23.108440,77.511428,PM10,62,418,167
India,Madhya Pradesh,Mandideep,"Sector-D Industrial Area, Mandideep - MPPCB",15-01-2024 01:00:00,23.108440,77.511428,SO2,14,124,56
India,Madhya Pradesh,Mandideep,"Sector-D Industrial Area, Mandideep - MPPCB",15-01-2024 01:00:00,23.108440,77.511428,OZONE,12,38,26
India,Madhya Pradesh,Sagar,"Civil Lines, Sagar - MPPCB",15-01-2024 01:00:00,23.838586,78.759431,PM2.5,57,126,81
India,Madhya Pradesh,Sagar,"Civil Lines, Sagar - MPPCB",15-01-2024 01:00:00,23.838586,78.759431,SO2,2,5,4
India,Madhya Pradesh,Sagar,"Civil Lines, Sagar - MPPCB",15-01-2024 01:00:00,23.838586,78.759431,CO,28,40,35
India,Madhya Pradesh,Sagar,"Deen Dayal Nagar, Sagar - MPPCB",15-01-2024 01:00:00,23.8640158,78.80289321,PM2.5,21,57,34
India,Madhya Pradesh,Satna,"Bandhavgar Colony, Satna - Birla Cement",15-01-2024 01:00:00,24.58434363,80.8549414,NO2,7,16,11
India,Madhya Pradesh,Satna,"Bandhavgar Colony, Satna - Birla Cement",15-01-2024 01:00:00,24.58434363,80.8549414,OZONE,57,98,75
India,Madhya Pradesh,Singrauli,"Suryakiran Bhawan NCL, Singrauli - MPPCB",15-01-2024 01:00:00,24.108970,82.645580,NH3,1,2,2
India,Madhya Pradesh,Singrauli,"Suryakiran Bhawan NCL, Singrauli - MPPCB",15-01-2024 01:00:00,24.108970,82.645580,SO2,25,105,47
India,Madhya Pradesh,Ujjain,"Mahakaleshwar Temple, Ujjain - MPPCB",15-01-2024 01:00:00,23.182719 ,75.768218 ,SO2,2,13,7
India,Maharashtra,Ahmednagar,"Tarakpur, Ahmednagar - MPCB",15-01-2024 01:00:00,19.10122,74.73339,NO2,12,76,41
India,Maharashtra,Akola,"Ramdaspeth, Akola - MPCB",15-01-2024 01:00:00,20.719516,77.000253,NO2,13,55,25
India,Maharashtra,Amravati,"Shivneri Colony, Amravati - MPCB",15-01-2024 01:00:00,20.9402359,77.7895248,NO2,17,61,32
India,Maharashtra,Aurangabad,"Rachnakar Colony, Aurangabad - MPCB",15-01-2024 01:00:00,19.863756,75.321188,PM2.5,59,202,125
India,Maharashtra,Aurangabad,"Rachnakar Colony, Aurangabad - MPCB",15-01-2024 01:00:00,19.863756,75.321188,OZONE,15,79,37
India,Maharashtra,Badlapur,"Katrap, Badlapur - MPCB",15-01-2024 01:00:00,19.16485,73.23409,NO2,14,60,41
India,Maharashtra,Badlapur,"Katrap, Badlapur - MPCB",15-01-2024 01:00:00,19.16485,73.23409,SO2,6,14,9
India,Maharashtra,Boisar,"Khaira, Boisar - MPCB",15-01-2024 01:00:00,19.786089,72.757971,PM10,92,125,105
India,Maharashtra,Boisar,"Khaira, Boisar - MPCB",15-01-2024 01:00:00,19.786089,72.757971,SO2,17,63,39
India,Maharashtra,Chandrapur,"Chauhan Colony, Chandrapur - MPCB",15-01-2024 01:00:00,19.962900,79.298714,PM2.5,96,318,211
India,Maharashtra,Chandrapur,"MIDC Khutala, Chandrapur - MPCB",15-01-2024 01:00:00,19.9775302,79.2337086,CO,29,72,53
India,Maharashtra,Dhule,"Deopur, Dhule - MPCB",15-01-2024 01:00:00,20.918946,74.776388,NO2,3,17,9
India,Maharashtra,Dhule,"Deopur, Dhule - MPCB",15-01-2024 01:00:00,20.918946,74.776388,NH3,4,6,4
India,Maharashtra,Jalgaon,"Prabhat Colony, Jalgaon - MPCB",15-01-2024 01:00:00,21.001264,75.565602,PM10,1,198,92
India,Maharashtra,Jalgaon,"Prabhat Colony, Jalgaon - MPCB",15-01-2024 01:00:00,21.001264,75.565602,CO,12,24,18
India,Maharashtra,Jalna,"Old MIDC, Jalna - MPCB",15-01-2024 01:00:00,19.854616,75.905894,CO,36,48,43
India,Maharashtra,Kalyan,"Khadakpada, Kalyan - MPCB",15-01-2024 01:00:00,19.25292,73.142019,PM2.5,11,83,46
India,Maharashtra,Latur,"Sawe Wadi, Latur - MPCB",15-01-2024 01:00:00,18.39963,76.57452,PM2.5,46,289,132
India,Maharashtra,Latur,"Sawe Wadi, Latur - MPCB",15-01-2024 01:00:00,18.39963,76.57452,OZONE,2,75,41
India,Maharashtra,Malegaon,"Mahesh Nagar, Malegaon - MPCB",15-01-2024 01:00:00,20.555712,74.529236,PM10,30,114,78
India,Maharashtra,Malegaon,"Mahesh Nagar, Malegaon - MPCB",15-01-2024 01:00:00,20.555712,74.529236,NH3,9,9,9
India,Maharashtra,Malegaon,"Mahesh Nagar, Malegaon - MPCB",15-01-2024 01:00:00,20.555712,74.529236,SO2,11,13,11
India,Maharashtra,Mira-Bhayandar,"Bhayandar West, Mira-Bhayandar - MPCB",15-01-2024 01:00:00,19.296481,72.840923,OZONE,1,58,22
India,Maharashtra,Mumbai,"Bandra Kurla Complex, Mumbai - MPCB",15-01-2024 01:00:00,19.065931,72.862131,PM2.5,53,162,94
India,Maharashtra,Mumbai,"Bandra Kurla Complex, Mumbai - MPCB",15-01-2024 01:00:00,19.065931,72.862131,SO2,2,5,4
India,Maharashtra,Mumbai,"Bandra Kurla Complex, Mumbai - MPCB",15-01-2024 01:00:00,19.065931,72.862131,CO,18,105,39
India,Maharashtra,Mumbai,"Borivali East, Mumbai - IITM",15-01-2024 01:00:00,19.23241,72.86895,NO2,37,118,69
India,Maharashtra,Mumbai,"Borivali East, Mumbai - MPCB",15-01-2024 01:00:00,19.2243333,72.8658113,NO2,5,22,12
India,Maharashtra,Mumbai,"Borivali East, Mumbai - MPCB",15-01-2024 01:00:00,19.2243333,72.8658113,SO2,7,9,8
India,Maharashtra,Mumbai,"Borivali East, Mumbai - MPCB",15-01-2024 01:00:00,19.2243333,72.8658113,CO,2,106,20
India,Maharashtra,Mumbai,"Byculla, Mumbai - BMC",15-01-2024 01:00:00,18.9767,72.8380,NO2,17,92,49
India,Maharashtra,Mumbai,"Byculla, Mumbai - BMC",15-01-2024 01:00:00,18.9767,72.8380,CO,3,81,18
India,Maharashtra,Mumbai,"Chakala-Andheri East, Mumbai - IITM",15-01-2024 01:00:00,19.11074,72.86084,CO,2,100,22
India,Maharashtra,Mumbai,"Chakala-Andheri East, Mumbai - IITM",15-01-2024 01:00:00,19.11074,72.86084,OZONE,41,79,52
India,Maharashtra,Mumbai,"Chembur, Mumbai - MPCB",15-01-2024 01:00:00,19.0364585,72.8954371,PM10,80,150,111
India,Maharashtra,Mumbai,"Chhatrapati Shivaji Intl. Airport (T2), Mumbai - MPCB",15-01-2024 01:00:00,19.10078,72.87462,PM2.5,7,51,27
India,Maharashtra,Mumbai,"Chhatrapati Shivaji Intl. Airport (T2), Mumbai - MPCB",15-01-2024 01:00:00,19.10078,72.87462,PM10,33,120,78
India,Maharashtra,Mumbai,"Chhatrapati Shivaji Intl. Airport (T2), Mumbai - MPCB",15-01-2024 01:00:00,19.10078,72.87462,NO2,NA,NA,NA
India,Maharashtra,Mumbai,"Chhatrapati Shivaji Intl. Airport (T2), Mumbai - MPCB",15-01-2024 01:00:00,19.10078,72.87462,NH3,4,10,7
India,Maharashtra,Mumbai,"Chhatrapati Shivaji Intl. Airport (T2), Mumbai - MPCB",15-01-2024 01:00:00,19.10078,72.87462,SO2,22,33,28
India,Maharashtra,Mumbai,"Chhatrapati Shivaji Intl. Airport (T2), Mumbai - MPCB",15-01-2024 01:00:00,19.10078,72.87462,OZONE,1,12,6
India,Maharashtra,Mumbai,"Kandivali East, Mumbai - MPCB",15-01-2024 01:00:00,19.205800,72.868200,PM2.5,14,57,36
India,Maharashtra,Mumbai,"Kandivali East, Mumbai - MPCB",15-01-2024 01:00:00,19.205800,72.868200,NH3,6,9,7
India,Maharashtra,Mumbai,"Kandivali East, Mumbai - MPCB",15-01-2024 01:00:00,19.205800,72.868200,CO,48,100,77
India,Maharashtra,Mumbai,"Kherwadi_Bandra East, Mumbai - MPCB",15-01-2024 01:00:00,19.0632143,72.8456324,SO2,18,136,39
India,Maharashtra,Mumbai,"Kherwadi_Bandra East, Mumbai - MPCB",15-01-2024 01:00:00,19.0632143,72.8456324,OZONE,1,51,36
India,Maharashtra,Mumbai,"Kurla, Mumbai - MPCB",15-01-2024 01:00:00,19.0863,72.8888,PM10,17,112,65
India,Maharashtra,Mumbai,"Kurla, Mumbai - MPCB",15-01-2024 01:00:00,19.0863,72.8888,NH3,3,3,3
India,Maharashtra,Mumbai,"Kurla, Mumbai - MPCB",15-01-2024 01:00:00,19.0863,72.8888,SO2,32,32,32
India,Maharashtra,Mumbai,"Mazgaon, Mumbai - IITM",15-01-2024 01:00:00,18.96702,72.84214,OZONE,24,80,51
India,Maharashtra,Mumbai,"Mindspace-Malad West, Mumbai - MPCB",15-01-2024 01:00:00,19.1878657,72.8304069,PM10,28,75,53
India,Maharashtra,Mumbai,"Mindspace-Malad West, Mumbai - MPCB",15-01-2024 01:00:00,19.1878657,72.8304069,CO,12,102,52
India,Maharashtra,Mumbai,"Mulund West, Mumbai - MPCB",15-01-2024 01:00:00,19.1750,72.9419,PM2.5,NA,NA,NA
India,Maharashtra,Mumbai,"Mulund West, Mumbai - MPCB",15-01-2024 01:00:00,19.1750,72.9419,NH3,NA,NA,NA
India,Maharashtra,Mumbai,"Navy Nagar-Colaba, Mumbai - IITM",15-01-2024 01:00:00,18.897756,72.813320,CO,NA,NA,NA
India,Maharashtra,Mumbai,"Siddharth Nagar-Worli, Mumbai - IITM",15-01-2024 01:00:00,19.000083,72.813993,CO,16,28,22
India,Maharashtra,Mumbai,"Siddharth Nagar-Worli, Mumbai - IITM",15-01-2024 01:00:00,19.000083,72.813993,OZONE,22,54,38
India,Maharashtra,Mumbai,"Vasai West, Mumbai - MPCB",15-01-2024 01:00:00,19.383200,72.820400,PM10,7,95,50
India,Maharashtra,Mumbai,"Vasai West, Mumbai - MPCB",15-01-2024 01:00:00,19.383200,72.820400,NH3,4,4,4
India,Maharashtra,Mumbai,"Vile Parle West, Mumbai - MPCB",15-01-2024 01:00:00,19.10861,72.83622,PM10,33,144,80
India,Maharashtra,Mumbai,"Vile Parle West, Mumbai - MPCB",15-01-2024 01:00:00,19.10861,72.83622,NO2,NA,NA,NA
India,Maharashtra,Mumbai,"Vile Parle West, Mumbai - MPCB",15-01-2024 01:00:00,19.10861,72.83622,NH3,1,10,6
India,Maharashtra,Mumbai,"Vile Parle West, Mumbai - MPCB",15-01-2024 01:00:00,19.10861,72.83622,SO2,13,15,14
India,Maharashtra,Mumbai,"Vile Parle West, Mumbai - MPCB",15-01-2024 01:00:00,19.10861,72.83622,CO,14,16,15
India,Maharashtra,Nagpur,"Ambazari, Nagpur - MPCB",15-01-2024 01:00:00,21.121801,79.04952,NH3,1,12,3
India,Maharashtra,Nagpur,"Ambazari, Nagpur - MPCB",15-01-2024 01:00:00,21.121801,79.04952,SO2,3,46,23
India,Maharashtra,Nagpur,"Ram Nagar, Nagpur - MPCB",15-01-2024 01:00:00,21.143383,79.048912,NH3,4,5,5
India,Maharashtra,Nashik,"Gangapur Road, Nashik - MPCB",15-01-2024 01:00:00,20.0073285,73.7762427,PM2.5,NA,NA,NA
India,Maharashtra,Nashik,"MIDC Ambad, Nashik - MPCB",15-01-2024 01:00:00,19.950220,73.731480,NH3,2,2,2
India,Maharashtra,Nashik,"Pandav Nagari, Nashik - MPCB",15-01-2024 01:00:00,19.9591346,73.7788008,NO2,21,46,30
India,Maharashtra,Nashik,"Pandav Nagari, Nashik - MPCB",15-01-2024 01:00:00,19.9591346,73.7788008,CO,14,34,22
India,Maharashtra,Navi Mumbai,"Kopripada-Vashi, Navi Mumbai - MPCB",15-01-2024 01:00:00,19.090337,73.014232,PM2.5,14,112,46
India,Maharashtra,Navi Mumbai,"Kopripada-Vashi, Navi Mumbai - MPCB",15-01-2024 01:00:00,19.090337,73.014232,NO2,17,81,48
India,Maharashtra,Navi Mumbai,"Mahape, Navi Mumbai - MPCB",15-01-2024 01:00:00,19.1135051,73.008978,PM2.5,15,90,44
India,Maharashtra,Navi Mumbai,"Mahape, Navi Mumbai - MPCB",15-01-2024 01:00:00,19.1135051,73.008978,NO2,37,38,38
India,Maharashtra,Navi Mumbai,"Mahape, Navi Mumbai - MPCB",15-01-2024 01:00:00,19.1135051,73.008978,SO2,26,26,26
India,Maharashtra,Navi Mumbai,"Nerul, Navi Mumbai - MPCB",15-01-2024 01:00:00,19.008751,73.016620,PM2.5,8,181,70
India,Maharashtra,Navi Mumbai,"Nerul, Navi Mumbai - MPCB",15-01-2024 01:00:00,19.008751,73.016620,OZONE,18,32,21
India,Maharashtra,Navi Mumbai,"Sector-2E Kalamboli, Navi Mumbai - MPCB",15-01-2024 01:00:00,19.02579,73.10297,CO,6,46,29
India,Maharashtra,Parbhani,"Masoom Colony, Parbhani - MPCB",15-01-2024 01:00:00,19.265594,76.761463,PM2.5,7,143,74
India,Maharashtra,Parbhani,"Masoom Colony, Parbhani - MPCB",15-01-2024 01:00:00,19.265594,76.761463,SO2,13,121,51
India,Maharashtra,Pimpri-Chinchwad,"Park Street Wakad, Pimpri Chinchwad - MPCB",15-01-2024 01:00:00,18.59051,73.77946,SO2,4,12,6
India,Maharashtra,Pimpri-Chinchwad,"Thergaon, Pimpri Chinchwad - MPCB",15-01-2024 01:00:00,18.616318,73.765797,PM2.5,61,312,167
India,Maharashtra,Pimpri-Chinchwad,"Thergaon, Pimpri Chinchwad - MPCB",15-01-2024 01:00:00,18.616318,73.765797,PM10,58,177,109
India,Maharashtra,Pimpri-Chinchwad,"Thergaon, Pimpri Chinchwad - MPCB",15-01-2024 01:00:00,18.616318,73.765797,NO2,4,106,55
India,Maharashtra,Pune,"Katraj Dairy, Pune - MPCB",15-01-2024 01:00:00,18.454450,73.854155,PM2.5,NA,NA,NA
India,Maharashtra,Pune,"Katraj Dairy, Pune - MPCB",15-01-2024 01:00:00,18.454450,73.854155,PM10,NA,NA,NA
India,Maharashtra,Pune,"Katraj Dairy, Pune - MPCB",15-01-2024 01:00:00,18.454450,73.854155,OZONE,NA,NA,NA
India,Maharashtra,Pune,"Mhada Colony, Pune - IITM",15-01-2024 01:00:00,18.573040,73.927715,PM2.5,31,302,138
India,Maharashtra,Pune,"Transport Nagar-Nigdi, Pune - IITM",15-01-2024 01:00:00,18.664282,73.763966,PM2.5,11,161,72
India,Maharashtra,Sangli,"Vijay Nagar, Sangli - MPCB",15-01-2024 01:00:00, 16.5038,74.3623,PM2.5,50,286,155
India,Maharashtra,Sangli,"Vijay Nagar, Sangli - MPCB",15-01-2024 01:00:00, 16.5038,74.3623,NH3,1,4,3
India,Maharashtra,Sangli,"Vijay Nagar, Sangli - MPCB",15-01-2024 01:00:00, 16.5038,74.3623,SO2,9,24,14
India,Maharashtra,Solapur,"Dnyaneshwar Nagar, Solapur - MPCB",15-01-2024 01:00:00,17.6336264,75.9132495,NH3,18,42,28
India,Maharashtra,Solapur,"Dnyaneshwar Nagar, Solapur - MPCB",15-01-2024 01:00:00,17.6336264,75.9132495,SO2,3,49,10
India,Maharashtra,Solapur,"Dnyaneshwar Nagar, Solapur - MPCB",15-01-2024 01:00:00,17.6336264,75.9132495,OZONE,19,89,41
India,Maharashtra,Solapur,"Ratandeep Housing Society, Solapur - MPCB",15-01-2024 01:00:00,17.65439,75.90649,PM2.5,61,335,120
India,Maharashtra,Solapur,"Solapur, Solapur - MPCB",15-01-2024 01:00:00,17.6599188,75.9063906,PM10,88,157,120
India,Maharashtra,Thane,"Kasarvadavali, Thane - MPCB",15-01-2024 01:00:00,19.26777,72.97182,NO2,21,63,35
India,Maharashtra,Thane,"Upvan Fort, Thane - MPCB",15-01-2024 01:00:00,19.222279,72.957979,PM10,31,332,131
India,Maharashtra,Thane,"Upvan Fort, Thane - MPCB",15-01-2024 01:00:00,19.222279,72.957979,CO,8,42,25
India,Maharashtra,Virar,"Bolinj, Virar - MPCB",15-01-2024 01:00:00,19.4458210,72.7988231,PM2.5,13,43,27
India,Maharashtra,Virar,"Bolinj, Virar - MPCB",15-01-2024 01:00:00,19.4458210,72.7988231,NO2,15,52,26
India,Maharashtra,Virar,"Bolinj, Virar - MPCB",15-01-2024 01:00:00,19.4458210,72.7988231,NH3,3,6,4
India,Manipur,Imphal,"DM College of Science, Imphal - Manipur PCB",15-01-2024 01:00:00,24.8207389,93.9423085,NH3,2,2,2
India,Meghalaya,Shillong,"JN Stadium, Shillong - Meghalaya PCB",15-01-2024 01:00:00,25.5803419,91.8942571,PM10,10,109,47
India,Meghalaya,Shillong,"JN Stadium, Shillong - Meghalaya PCB",15-01-2024 01:00:00,25.5803419,91.8942571,NO2,11,51,33
India,Meghalaya,Shillong,"Lumpyngngad, Shillong - Meghalaya PCB",15-01-2024 01:00:00,25.5586,91.8985,OZONE,42,79,68
India,Mizoram,Aizawl,"Sikulpuikawn, Aizawl - Mizoram PCB",15-01-2024 01:00:00,23.7176342,92.7192841,PM2.5,11,30,17
India,Nagaland,Kohima,"PWD Juction, Kohima - NPCB",15-01-2024 01:00:00,25.6635413,94.0989878,PM2.5,16,158,60
India,Nagaland,Kohima,"PWD Juction, Kohima - NPCB",15-01-2024 01:00:00,25.6635413,94.0989878,NH3,NA,NA,NA
India,Odisha,Angul,"Hakimapada, Angul - OSPCB",15-01-2024 01:00:00,20.832874,85.104082,NH3,2,5,3
India,Odisha,Angul,"Hakimapada, Angul - OSPCB",15-01-2024 01:00:00,20.832874,85.104082,OZONE,3,265,55
India,Odisha,Balasore,"Kalidaspur, Balasore - OSPCB",15-01-2024 01:00:00,21.51161,86.89088,PM2.5,270,414,338
India,Odisha,Barbil,"Forest Office, Barbil - OSPCB",15-01-2024 01:00:00,22.1166054,85.3945546,PM2.5,48,315,138
India,Odisha,Barbil,"Forest Office, Barbil - OSPCB",15-01-2024 01:00:00,22.1166054,85.3945546,PM10,84,414,152
India,Odisha,Barbil,"Forest Office, Barbil - OSPCB",15-01-2024 01:00:00,22.1166054,85.3945546,SO2,2,74,14
India,Odisha,Barbil,"Forest Office, Barbil - OSPCB",15-01-2024 01:00:00,22.1166054,85.3945546,CO,31,86,70
India,Odisha,Bhubaneswar,"Lingraj Mandir, Bhubaneswar - OSPCB",15-01-2024 01:00:00,20.240790,85.836784,PM10,123,414,171
India,Odisha,Bhubaneswar,"Patia, Bhubaneswar - OSPCB",15-01-2024 01:00:00,20.34652,85.81630,NO2,15,80,37
India,Odisha,Bileipada,"Tata Township, Bileipada - OSPCB",15-01-2024 01:00:00,22.06156703,85.47409613,PM2.5,90,260,174
India,Odisha,Bileipada,"Tata Township, Bileipada - OSPCB",15-01-2024 01:00:00,22.06156703,85.47409613,SO2,8,55,19
India,Odisha,Bileipada,"Tata Township, Bileipada - OSPCB",15-01-2024 01:00:00,22.06156703,85.47409613,OZONE,11,29,19
India,Odisha,Brajrajnagar,"GM Office, Brajrajnagar - OSPCB",15-01-2024 01:00:00,21.8004996,83.8396977,PM2.5,29,85,54
India,Odisha,Brajrajnagar,"GM Office, Brajrajnagar - OSPCB",15-01-2024 01:00:00,21.8004996,83.8396977,PM10,41,113,76
India,Odisha,Brajrajnagar,"GM Office, Brajrajnagar - OSPCB",15-01-2024 01:00:00,21.8004996,83.8396977,NH3,1,2,2
India,Odisha,Cuttack,"CDA Area, Cuttack - OSPCB",15-01-2024 01:00:00,20.48891     ,85.84768     ,NH3,3,6,4
India,Odisha,Cuttack,"CDA Area, Cuttack - OSPCB",15-01-2024 01:00:00,20.48891     ,85.84768     ,CO,36,110,63
India,Odisha,Rairangpur,"Divisional Forest Office, Rairangpur - OSPCB",15-01-2024 01:00:00,22.265816,86.174829,CO,16,50,39
India,Odisha,Rourkela,"Fertilizer Township, Rourkela - OSPCB",15-01-2024 01:00:00,22.18972222,84.86277778,PM10,63,113,85
India,Odisha,Rourkela,"Raghunathpali, Rourkela - OSPCB",15-01-2024 01:00:00,22.220833,84.809444,NO2,NA,NA,NA
India,Odisha,Rourkela,"Raghunathpali, Rourkela - OSPCB",15-01-2024 01:00:00,22.220833,84.809444,CO,34,102,34
India,Odisha,Suakati,"OMC Colony, Suakati - OSPCB",15-01-2024 01:00:00,21.606865,85.510538,NO2,59,75,67
India,Odisha,Suakati,"OMC Colony, Suakati - OSPCB",15-01-2024 01:00:00,21.606865,85.510538,CO,12,18,12
India,Odisha,Talcher,"Talcher Coalfields,Talcher - OSPCB",15-01-2024 01:00:00,20.9360711,85.1707021,PM2.5,54,493,258
India,Odisha,Talcher,"Talcher Coalfields,Talcher - OSPCB",15-01-2024 01:00:00,20.9360711,85.1707021,PM10,74,419,198
India,Odisha,Talcher,"Talcher Coalfields,Talcher - OSPCB",15-01-2024 01:00:00,20.9360711,85.1707021,NH3,7,7,7
India,Odisha,Talcher,"Talcher Coalfields,Talcher - OSPCB",15-01-2024 01:00:00,20.9360711,85.1707021,OZONE,1,12,2
India,Puducherry,Puducherry,"Jawahar Nagar, Puducherry - PPCC",15-01-2024 01:00:00,11.9309,79.8027,CO,48,98,64
India,Punjab,Amritsar,"Golden Temple, Amritsar - PPCB",15-01-2024 01:00:00,31.620000,74.876512,PM10,113,248,144
India,Punjab,Amritsar,"Golden Temple, Amritsar - PPCB",15-01-2024 01:00:00,31.620000,74.876512,NO2,39,89,41
India,Punjab,Amritsar,"Golden Temple, Amritsar - PPCB",15-01-2024 01:00:00,31.620000,74.876512,OZONE,23,31,26
India,Punjab,Khanna,"Kalal Majra, Khanna - PPCB",15-01-2024 01:00:00,30.736056 ,76.209694,PM10,41,124,81
India,Punjab,Khanna,"Kalal Majra, Khanna - PPCB",15-01-2024 01:00:00,30.736056 ,76.209694,SO2,3,23,15
India,Punjab,Ludhiana,"Punjab Agricultural University, Ludhiana - PPCB",15-01-2024 01:00:00,30.9028,75.8086,PM10,54,204,102
India,Punjab,Ludhiana,"Punjab Agricultural University, Ludhiana - PPCB",15-01-2024 01:00:00,30.9028,75.8086,OZONE,9,25,14
India,Punjab,Mandi Gobindgarh,"RIMT University, Mandi Gobindgarh - PPCB",15-01-2024 01:00:00,30.649961,76.331442,NO2,30,32,31
India,Punjab,Mandi Gobindgarh,"RIMT University, Mandi Gobindgarh - PPCB",15-01-2024 01:00:00,30.649961,76.331442,NH3,2,2,2
India,Punjab,Rupnagar,"Ratanpura, Rupnagar - Ambuja Cements",15-01-2024 01:00:00,31.0325454,76.5623046,PM10,63,123,89
India,Rajasthan,Alwar,"Moti Doongri, Alwar - RSPCB",15-01-2024 01:00:00,27.554793,76.611536,NO2,39,69,51
India,Rajasthan,Banswara,"Rati Talai, Banswara - RSPCB",15-01-2024 01:00:00,23.555190,74.440010,PM2.5,85,203,127
India,Rajasthan,Banswara,"Rati Talai, Banswara - RSPCB",15-01-2024 01:00:00,23.555190,74.440010,NH3,3,3,3
India,Rajasthan,Baran,"Bamboliya, Baran - RSPCB",15-01-2024 01:00:00,25.106006,76.469948,OZONE,2,95,52
India,Rajasthan,Barmer,"Railway Colony, Barmer - RSPCB",15-01-2024 01:00:00,25.747299,71.393989,PM10,19,143,68
India,Rajasthan,Barmer,"Railway Colony, Barmer - RSPCB",15-01-2024 01:00:00,25.747299,71.393989,NO2,7,55,18
India,Rajasthan,Barmer,"Railway Colony, Barmer - RSPCB",15-01-2024 01:00:00,25.747299,71.393989,SO2,5,13,10
India,Rajasthan,Bharatpur,"Krishna Nagar, Bharatpur - RSPCB",15-01-2024 01:00:00,27.215415,77.50873,PM10,143,500,257
India,Rajasthan,Bhilwara,"Pratap Nagar, Bhilwara - RSPCB",15-01-2024 01:00:00,25.339605,74.618883,PM2.5,3,339,150
India,Rajasthan,Churu,"Subash Chowk, Churu - RSPCB",15-01-2024 01:00:00,28.296139,74.961696,NO2,21,99,42
India,Rajasthan,Churu,"Subash Chowk, Churu - RSPCB",15-01-2024 01:00:00,28.296139,74.961696,SO2,4,23,10
India,Rajasthan,Churu,"Subash Chowk, Churu - RSPCB",15-01-2024 01:00:00,28.296139,74.961696,CO,22,119,60
India,Rajasthan,Dausa,"Khatikan Mohalla, Dausa - RSPCB",15-01-2024 01:00:00,26.895552,76.334753,NO2,21,64,35
India,Rajasthan,Dausa,"Khatikan Mohalla, Dausa - RSPCB",15-01-2024 01:00:00,26.895552,76.334753,SO2,8,10,9
India,Rajasthan,Dungarpur,"Bhoiwada, Dungarpur - RSPCB",15-01-2024 01:00:00,23.837789,73.714926,PM10,39,161,78
India,Rajasthan,Hanumangarh,"Housing Board, Hanumangarh - RSPCB",15-01-2024 01:00:00,29.610750,74.283608,CO,54,91,69
India,Rajasthan,Hanumangarh,"Housing Board, Hanumangarh - RSPCB",15-01-2024 01:00:00,29.610750,74.283608,OZONE,8,17,10
India,Rajasthan,Jaipur,"Adarsh Nagar, Jaipur - RSPCB",15-01-2024 01:00:00,26.902909,75.836858,PM10,67,156,109
India,Rajasthan,Jaipur,"Mansarovar Sector-12, Jaipur - RSPCB",15-01-2024 01:00:00,26.843698,75.766894,PM10,58,282,147
India,Rajasthan,Jaipur,"Mansarovar Sector-12, Jaipur - RSPCB",15-01-2024 01:00:00,26.843698,75.766894,NH3,9,14,12
India,Rajasthan,Jaipur,"Mansarovar Sector-12, Jaipur - RSPCB",15-01-2024 01:00:00,26.843698,75.766894,OZONE,1,77,33
India,Rajasthan,Jaipur,"RIICO Sitapura, Jaipur - RSPCB",15-01-2024 01:00:00,26.786682,75.827928,NH3,2,4,3
India,Rajasthan,Jaipur,"Sector-2 Murlipura, Jaipur - RSPCB",15-01-2024 01:00:00,26.960669,75.771817,NO2,6,20,11
India,Rajasthan,Jaipur,"Shastri Nagar, Jaipur - RSPCB",15-01-2024 01:00:00,26.9502929,75.730943,CO,26,112,53
India,Rajasthan,Jaisalmer,"Sadar Bazar, Jaisalmer - RSPCB",15-01-2024 01:00:00,26.912329,70.909168,NO2,17,52,29
India,Rajasthan,Jaisalmer,"Sadar Bazar, Jaisalmer - RSPCB",15-01-2024 01:00:00,26.912329,70.909168,SO2,3,6,4
India,Rajasthan,Jalore,"Mudtra Sili, Jalore - RSPCB",15-01-2024 01:00:00,25.344694,72.626208,PM2.5,37,398,141
India,Rajasthan,Jhalawar,"Rajlaxmi Nagar, Jhalawar - RSPCB",15-01-2024 01:00:00,24.588397,76.172782,NO2,8,36,14
India,Rajasthan,Jhalawar,"Rajlaxmi Nagar, Jhalawar - RSPCB",15-01-2024 01:00:00,24.588397,76.172782,NH3,5,9,7
India,Rajasthan,Jhunjhunu,"Indra Nagar, Jhunjhunu - RSPCB",15-01-2024 01:00:00,28.108988,75.386577,CO,25,101,52
India,Rajasthan,Jodhpur,"Digari Kalan, Jodhpur - RSPCB",15-01-2024 01:00:00,26.295810,73.082283,OZONE,1,113,58
India,Rajasthan,Jodhpur,"Jhalamand, Jodhpur - RSPCB",15-01-2024 01:00:00,26.215415,73.070156,NH3,4,13,8
India,Rajasthan,Jodhpur,"Jhalamand, Jodhpur - RSPCB",15-01-2024 01:00:00,26.215415,73.070156,SO2,4,12,7
India,Rajasthan,Jodhpur,"Jhalamand, Jodhpur - RSPCB",15-01-2024 01:00:00,26.215415,73.070156,OZONE,2,194,49
India,Rajasthan,Jodhpur,"Mandor, Jodhpur - RSPCB",15-01-2024 01:00:00,26.358805,73.047444,OZONE,1,104,82
India,Rajasthan,Kota,"Dhanmandi, Kota - RSPCB",15-01-2024 01:00:00,25.164090,75.858137,PM2.5,76,397,231
India,Rajasthan,Kota,"Dhanmandi, Kota - RSPCB",15-01-2024 01:00:00,25.164090,75.858137,CO,43,122,86
India,Rajasthan,Kota,"Nayapura, Kota - RSPCB",15-01-2024 01:00:00,25.196024,75.855668,PM2.5,63,332,215
India,Rajasthan,Kota,"Nayapura, Kota - RSPCB",15-01-2024 01:00:00,25.196024,75.855668,NH3,10,14,12
India,Rajasthan,Kota,"Shrinath Puram, Kota - RSPCB",15-01-2024 01:00:00,25.14389,75.821256,PM10,86,158,118
India,Rajasthan,Kota,"Shrinath Puram, Kota - RSPCB",15-01-2024 01:00:00,25.14389,75.821256,NO2,60,199,113
India,Rajasthan,Pali,"Indira Colony Vistar, Pali - RSPCB",15-01-2024 01:00:00,25.771061, 73.340227,NO2,18,70,39
India,Rajasthan,Pratapgarh,"Pragati Nagar, Pratapgarh - RSPCB",15-01-2024 01:00:00,24.041198,74.780702,OZONE,26,101,65
India,Rajasthan,Rajsamand,"Dhoinda, Rajsamand - RSPCB",15-01-2024 01:00:00,25.036360,73.883502,SO2,4,13,7
India,Rajasthan,Sawai Madhopur,"Sahu Nagar, Sawai Madhopur - RSPCB",15-01-2024 01:00:00,26.031443,76.359327,PM10,81,182,121
India,Rajasthan,Sawai Madhopur,"Sahu Nagar, Sawai Madhopur - RSPCB",15-01-2024 01:00:00,26.031443,76.359327,NO2,23,24,24
India,Rajasthan,Sikar,"Radhakishan Pura, Sikar - RSPCB",15-01-2024 01:00:00,27.608912,75.153302,PM2.5,45,424,188
India,Rajasthan,Sikar,"Radhakishan Pura, Sikar - RSPCB",15-01-2024 01:00:00,27.608912,75.153302,NO2,9,51,22
India,Rajasthan,Sikar,"Radhakishan Pura, Sikar - RSPCB",15-01-2024 01:00:00,27.608912,75.153302,NH3,2,5,3
India,Rajasthan,Sikar,"Radhakishan Pura, Sikar - RSPCB",15-01-2024 01:00:00,27.608912,75.153302,OZONE,25,138,78
India,Rajasthan,Sirohi,"Vedhaynath Colony, Sirohi - RSPCB",15-01-2024 01:00:00,24.885261,72.857549,NO2,8,112,49
India,Rajasthan,Sirohi,"Vedhaynath Colony, Sirohi - RSPCB",15-01-2024 01:00:00,24.885261,72.857549,CO,9,109,41
India,Rajasthan,Sri Ganganagar,"Old City, Sri Ganganagar - RSPCB",15-01-2024 01:00:00,29.931624,73.864511,SO2,4,7,6
India,Rajasthan,Tonk,"Shastri Nagar, Tonk - RSPCB",15-01-2024 01:00:00,26.159933,75.780517,PM2.5,89,403,184
India,Rajasthan,Udaipur,"Ashok Nagar, Udaipur - RSPCB",15-01-2024 01:00:00,24.5886166,73.6321397,PM10,47,154,92
India,Rajasthan,Udaipur,"Ashok Nagar, Udaipur - RSPCB",15-01-2024 01:00:00,24.5886166,73.6321397,CO,15,125,89
India,Sikkim,Gangtok,"Zero Point GICI, Gangtok - SSPCB",15-01-2024 01:00:00,27.338530,88.614099,SO2,51,62,55
India,TamilNadu,Ariyalur,"Keelapalur, Ariyalur - TNPCB",15-01-2024 01:00:00,11.06825,79.07033,SO2,33,34,34
India,TamilNadu,Chengalpattu,"Crescent University, Chengalpattu - TNPCB",15-01-2024 01:00:00,12.8777316,80.0834807,SO2,23,23,23
India,TamilNadu,Chennai,"Alandur Bus Depot, Chennai - CPCB",15-01-2024 01:00:00,12.9099161,80.1076538,PM2.5,77,388,139
India,TamilNadu,Chennai,"Alandur Bus Depot, Chennai - CPCB",15-01-2024 01:00:00,12.9099161,80.1076538,OZONE,17,43,23
India,TamilNadu,Chennai,"Arumbakkam, Chennai - TNPCB",15-01-2024 01:00:00,13.0664,80.2112 ,NH3,1,5,3
India,TamilNadu,Chennai,"Arumbakkam, Chennai - TNPCB",15-01-2024 01:00:00,13.0664,80.2112 ,SO2,1,62,13
India,TamilNadu,Chennai,"Gandhi Nagar_Ennore, Chennai - TNPCB",15-01-2024 01:00:00,13.218341,80.32027,PM10,122,431,190
India,TamilNadu,Chennai,"Gandhi Nagar_Ennore, Chennai - TNPCB",15-01-2024 01:00:00,13.218341,80.32027,NH3,1,3,3
India,TamilNadu,Chennai,"Gandhi Nagar_Ennore, Chennai - TNPCB",15-01-2024 01:00:00,13.218341,80.32027,SO2,25,27,26
India,TamilNadu,Chennai,"Gandhi Nagar_Ennore, Chennai - TNPCB",15-01-2024 01:00:00,13.218341,80.32027,CO,NA,NA,NA
India,TamilNadu,Chennai,"Royapuram, Chennai - TNPCB",15-01-2024 01:00:00,13.1036,80.2909,NH3,2,5,2
India,TamilNadu,Chennai,"Velachery Res. Area, Chennai - CPCB",15-01-2024 01:00:00,13.0052189,80.2398125,OZONE,16,57,32
India,TamilNadu,Coimbatore,"PSG College of Arts and Science, Coimbatore - TNPCB",15-01-2024 01:00:00,11.0328,77.0349,CO,7,32,18
India,TamilNadu,Cuddalore,"Semmandalam, Cuddalore - TNPCB",15-01-2024 01:00:00,11.7637683,79.7499835,PM2.5,168,390,246
India,TamilNadu,Gummidipoondi,"Anthoni Pillai Nagar, Gummidipoondi - TNPCB",15-01-2024 01:00:00,13.4127,80.1081,PM2.5,186,500,311
India,TamilNadu,Kanchipuram,"Kilambi, Kanchipuram - TNPCB",15-01-2024 01:00:00,12.864618,79.659968,SO2,NA,NA,NA
India,TamilNadu,Ooty,"Bombay Castel, Ooty - TNPCB",15-01-2024 01:00:00,11.4068288,76.7138973,CO,19,20,19
India,TamilNadu,Palkalaiperur,"Bharathidasan University, Palkalaiperur - TNPCB",15-01-2024 01:00:00,10.681158,78.741746,PM2.5,68,141,88
India,TamilNadu,Palkalaiperur,"Bharathidasan University, Palkalaiperur - TNPCB",15-01-2024 01:00:00,10.681158,78.741746,PM10,87,137,106
India,TamilNadu,Ramanathapuram,"Chalai Bazaar, Ramanathapuram - TNPCB",15-01-2024 01:00:00,9.36399,78.831977,NH3,1,1,1
India,TamilNadu,Salem,"Sona College of Technology, Salem - TNPCB",15-01-2024 01:00:00,11.679111,78.125052,PM10,81,124,100
India,TamilNadu,Salem,"Sona College of Technology, Salem - TNPCB",15-01-2024 01:00:00,11.679111,78.125052,SO2,98,99,99
India,TamilNadu,Thoothukudi,"Meelavittan, Thoothukudi - TNPCB",15-01-2024 01:00:00,8.816428 ,78.099039,SO2,8,21,13
India,TamilNadu,Tiruchirappalli,"St Joseph College, Tiruchirappalli - TNPCB",15-01-2024 01:00:00,10.830158,78.691849,PM2.5,86,138,101
India,TamilNadu,Tirupur,"Kumaran College, Tirupur - TNPCB",15-01-2024 01:00:00,11.0973603,77.3228673,NH3,NA,NA,NA
India,TamilNadu,Tirupur,"Kumaran College, Tirupur - TNPCB",15-01-2024 01:00:00,11.0973603,77.3228673,CO,22,104,62
India,TamilNadu,Vellore,"Vasanthapuram, Vellore - TNPCB",15-01-2024 01:00:00,12.909494,79.131861,NH3,1,1,1
India,TamilNadu,Vellore,"Vasanthapuram, Vellore - TNPCB",15-01-2024 01:00:00,12.909494,79.131861,CO,NA,NA,NA
India,Telangana,Hyderabad,"Bollaram Industrial Area, Hyderabad - TSPCB",15-01-2024 01:00:00,17.540891,78.358528,PM2.5,NA,NA,NA
India,Telangana,Hyderabad,"Bollaram Industrial Area, Hyderabad - TSPCB",15-01-2024 01:00:00,17.540891,78.358528,NO2,15,109,39
India,Telangana,Hyderabad,"Bollaram Industrial Area, Hyderabad - TSPCB",15-01-2024 01:00:00,17.540891,78.358528,OZONE,37,40,38
India,Telangana,Hyderabad,"Central University, Hyderabad - TSPCB",15-01-2024 01:00:00,17.460103,78.334361,PM10,NA,NA,NA
India,Telangana,Hyderabad,"Central University, Hyderabad - TSPCB",15-01-2024 01:00:00,17.460103,78.334361,NH3,3,5,4
India,Telangana,Hyderabad,"Central University, Hyderabad - TSPCB",15-01-2024 01:00:00,17.460103,78.334361,SO2,5,10,7
India,Telangana,Hyderabad,"ECIL Kapra, Hyderabad - TSPCB",15-01-2024 01:00:00,17.470431,78.566959,PM10,69,84,75
India,Telangana,Hyderabad,"ECIL Kapra, Hyderabad - TSPCB",15-01-2024 01:00:00,17.470431,78.566959,NO2,7,7,7
India,Telangana,Hyderabad,"ECIL Kapra, Hyderabad - TSPCB",15-01-2024 01:00:00,17.470431,78.566959,CO,13,94,35
India,Telangana,Hyderabad,"ICRISAT Patancheru, Hyderabad - TSPCB",15-01-2024 01:00:00,17.518400,78.278777,NH3,2,2,2
India,Telangana,Hyderabad,"Kompally Municipal Office, Hyderabad - TSPCB",15-01-2024 01:00:00,17.544899,78.486949,CO,NA,NA,NA
India,Telangana,Hyderabad,"New Malakpet, Hyderabad - TSPCB",15-01-2024 01:00:00,17.37206,78.50864,SO2,NA,NA,NA
India,Telangana,Hyderabad,"Ramachandrapuram, Hyderabad - TSPCB",15-01-2024 01:00:00,17.528544,78.286195,OZONE,1,61,21
India,Telangana,Hyderabad,"Zoo Park, Hyderabad - TSPCB",15-01-2024 01:00:00,17.349694,78.451437,NO2,31,51,39
India,Telangana,Hyderabad,"Zoo Park, Hyderabad - TSPCB",15-01-2024 01:00:00,17.349694,78.451437,NH3,1,1,1
India,Tripura,Agartala,"Bardowali, Agartala - Tripura SPCB",15-01-2024 01:00:00,23.8175497,91.2726974,NO2,9,17,13
India,Tripura,Agartala,"Bardowali, Agartala - Tripura SPCB",15-01-2024 01:00:00,23.8175497,91.2726974,NH3,2,3,2
India,Tripura,Agartala,"Bardowali, Agartala - Tripura SPCB",15-01-2024 01:00:00,23.8175497,91.2726974,SO2,22,25,23
India,Tripura,Agartala,"Bardowali, Agartala - Tripura SPCB",15-01-2024 01:00:00,23.8175497,91.2726974,OZONE,1,8,1
India,Uttar_Pradesh,Agra,"Manoharpur, Agra - UPPCB",15-01-2024 01:00:00,27.23711,78.01936,NO2,17,24,22
India,Uttar_Pradesh,Agra,"Manoharpur, Agra - UPPCB",15-01-2024 01:00:00,27.23711,78.01936,NH3,1,2,1
India,Uttar_Pradesh,Agra,"Rohta, Agra - UPPCB",15-01-2024 01:00:00,27.106972,78.000111,SO2,17,50,26
India,Uttar_Pradesh,Agra,"Rohta, Agra - UPPCB",15-01-2024 01:00:00,27.106972,78.000111,OZONE,21,21,21
India,Uttar_Pradesh,Agra,"Sanjay Palace, Agra - UPPCB",15-01-2024 01:00:00,27.19865833,78.00598056,CO,50,148,106
India,Uttar_Pradesh,Agra,"Shahjahan Garden, Agra - UPPCB",15-01-2024 01:00:00,27.169338,78.03582,PM10,73,259,112
India,Uttar_Pradesh,Agra,"Shastripuram, Agra - UPPCB",15-01-2024 01:00:00,27.19862,77.92066,NH3,2,3,3
India,Uttar_Pradesh,Bareilly,"Civil Lines, Bareilly - UPPCB",15-01-2024 01:00:00,28.359581,79.414455,NO2,21,44,27
India,Uttar_Pradesh,Bareilly,"Civil Lines, Bareilly - UPPCB",15-01-2024 01:00:00,28.359581,79.414455,CO,55,84,62
India,Uttar_Pradesh,Bulandshahr,"Yamunapuram, Bulandshahr - UPPCB",15-01-2024 01:00:00,28.406963,77.849831,PM2.5,89,405,251
India,Uttar_Pradesh,Bulandshahr,"Yamunapuram, Bulandshahr - UPPCB",15-01-2024 01:00:00,28.406963,77.849831,NO2,20,114,58
India,Uttar_Pradesh,Firozabad,"Nagla Bhau, Firozabad - UPPCB",15-01-2024 01:00:00,27.168897,78.376960,NH3,NA,NA,NA
India,Uttar_Pradesh,Firozabad,"Vibhab Nagar, Firozabad - UPPCB",15-01-2024 01:00:00,27.1594,78.3953,PM10,55,213,93
India,Uttar_Pradesh,Ghaziabad,"Loni, Ghaziabad - UPPCB",15-01-2024 01:00:00,28.757294,77.278792,NO2,16,66,33
India,Uttar_Pradesh,Ghaziabad,"Sanjay Nagar, Ghaziabad - UPPCB",15-01-2024 01:00:00,28.685382,77.453839,PM2.5,246,500,364
India,Uttar_Pradesh,Ghaziabad,"Sanjay Nagar, Ghaziabad - UPPCB",15-01-2024 01:00:00,28.685382,77.453839,PM10,126,479,248
India,Uttar_Pradesh,Ghaziabad,"Vasundhara, Ghaziabad - UPPCB",15-01-2024 01:00:00,28.6603346,77.3572563,OZONE,7,172,47
India,Uttar_Pradesh,Gorakhpur,"Madan Mohan Malaviya University of Technology, Gorakhpur - UPPCB",15-01-2024 01:00:00,26.730136,83.433859,NO2,2,3,2
India,Uttar_Pradesh,Greater Noida,"Knowledge Park - III, Greater Noida - UPPCB",15-01-2024 01:00:00,28.47272,77.482000,PM2.5,333,483,402
India,Uttar_Pradesh,Greater Noida,"Knowledge Park - III, Greater Noida - UPPCB",15-01-2024 01:00:00,28.47272,77.482000,NO2,36,86,60
India,Uttar_Pradesh,Greater Noida,"Knowledge Park - V, Greater Noida - UPPCB",15-01-2024 01:00:00,28.557054,77.453663,NO2,11,77,33
India,Uttar_Pradesh,Greater Noida,"Knowledge Park - V, Greater Noida - UPPCB",15-01-2024 01:00:00,28.557054,77.453663,CO,8,128,90
India,Uttar_Pradesh,Jhansi,"Shivaji Nagar, Jhansi - UPPCB",15-01-2024 01:00:00,25.4547,78.6039,SO2,10,33,14
India,Uttar_Pradesh,Jhansi,"Shivaji Nagar, Jhansi - UPPCB",15-01-2024 01:00:00,25.4547,78.6039,CO,17,74,37
India,Uttar_Pradesh,Jhansi,"Shivaji Nagar, Jhansi - UPPCB",15-01-2024 01:00:00,25.4547,78.6039,OZONE,5,68,26
India,Uttar_Pradesh,Kanpur,"FTI Kidwai Nagar, Kanpur - UPPCB",15-01-2024 01:00:00,26.428282,80.327067,NH3,5,7,5
India,Uttar_Pradesh,Kanpur,"NSI Kalyanpur, Kanpur - UPPCB",15-01-2024 01:00:00,26.509954,80.249612,PM2.5,64,251,110
India,Uttar_Pradesh,Kanpur,"NSI Kalyanpur, Kanpur - UPPCB",15-01-2024 01:00:00,26.509954,80.249612,NO2,7,13,10
India,Uttar_Pradesh,Kanpur,"Nehru Nagar, Kanpur - UPPCB",15-01-2024 01:00:00,26.4703136,80.3229863,PM2.5,92,328,194
India,Uttar_Pradesh,Kanpur,"Nehru Nagar, Kanpur - UPPCB",15-01-2024 01:00:00,26.4703136,80.3229863,OZONE,6,72,38
India,Uttar_Pradesh,Khurja,"Kalindi Kunj, Khurja - UPPCB",15-01-2024 01:00:00,28.2348927,77.8683002,NH3,2,2,2
India,Uttar_Pradesh,Lucknow,"Gomti Nagar, Lucknow - UPPCB",15-01-2024 01:00:00,26.868120,81.005119,PM2.5,48,208,114
India,Uttar_Pradesh,Lucknow,"Kendriya Vidyalaya, Lucknow - CPCB",15-01-2024 01:00:00,26.906111,80.948222,CO,46,92,58
India,Uttar_Pradesh,Lucknow,"Kukrail Picnic Spot-1, Lucknow - UPPCB",15-01-2024 01:00:00,26.90723,80.98579,PM2.5,88,324,217
India,Uttar_Pradesh,Lucknow,"Kukrail Picnic Spot-1, Lucknow - UPPCB",15-01-2024 01:00:00,26.90723,80.98579,NO2,8,9,8
India,Uttar_Pradesh,Lucknow,"Kukrail Picnic Spot-1, Lucknow - UPPCB",15-01-2024 01:00:00,26.90723,80.98579,CO,44,87,55
India,Uttar_Pradesh,Lucknow,"Kukrail Picnic Spot-1, Lucknow - UPPCB",15-01-2024 01:00:00,26.90723,80.98579,OZONE,2,20,12
India,Uttar_Pradesh,Lucknow,"Talkatora District Industries Center, Lucknow - CPCB",15-01-2024 01:00:00,26.83399722,80.8917361,NO2,58,94,78
India,Uttar_Pradesh,Meerut,"Ganga Nagar, Meerut - UPPCB",15-01-2024 01:00:00,28.999264,77.7590354,PM2.5,121,441,294
India,Uttar_Pradesh,Meerut,"Jai Bhim Nagar, Meerut - UPPCB",15-01-2024 01:00:00,28.9535882,77.7622941,SO2,2,20,10
India,Uttar_Pradesh,Meerut,"Pallavpuram Phase 2, Meerut - UPPCB",15-01-2024 01:00:00,29.063510,77.709723,PM10,68,440,182
India,Uttar_Pradesh,Meerut,"Pallavpuram Phase 2, Meerut - UPPCB",15-01-2024 01:00:00,29.063510,77.709723,CO,37,68,58
India,Uttar_Pradesh,Moradabad,"Buddhi Vihar, Moradabad - UPPCB",15-01-2024 01:00:00,28.83526,78.74460,SO2,15,21,18
India,Uttar_Pradesh,Moradabad,"Buddhi Vihar, Moradabad - UPPCB",15-01-2024 01:00:00,28.83526,78.74460,OZONE,13,15,14
India,Uttar_Pradesh,Moradabad,"Eco Herbal Park, Moradabad - UPPCB",15-01-2024 01:00:00,28.840739,78.697531,NO2,10,59,24
India,Uttar_Pradesh,Moradabad,"Eco Herbal Park, Moradabad - UPPCB",15-01-2024 01:00:00,28.840739,78.697531,NH3,8,64,12
India,Uttar_Pradesh,Moradabad,"Eco Herbal Park, Moradabad - UPPCB",15-01-2024 01:00:00,28.840739,78.697531,SO2,2,12,8
India,Uttar_Pradesh,Moradabad,"Employment Office, Moradabad - UPPCB",15-01-2024 01:00:00,28.88528,78.73880,NH3,4,4,4
India,Uttar_Pradesh,Moradabad,"Employment Office, Moradabad - UPPCB",15-01-2024 01:00:00,28.88528,78.73880,SO2,23,24,24
India,Uttar_Pradesh,Moradabad,"Employment Office, Moradabad - UPPCB",15-01-2024 01:00:00,28.88528,78.73880,CO,102,108,105
India,Uttar_Pradesh,Moradabad,"Employment Office, Moradabad - UPPCB",15-01-2024 01:00:00,28.88528,78.73880,OZONE,13,14,13
India,Uttar_Pradesh,Muzaffarnagar,"New Mandi, Muzaffarnagar - UPPCB",15-01-2024 01:00:00,29.4723508,77.7194031,NO2,35,93,55
India,Uttar_Pradesh,Noida,"Sector - 125, Noida - UPPCB",15-01-2024 01:00:00,28.5447608,77.3231257,CO,8,158,101
India,Uttar_Pradesh,Noida,"Sector - 62, Noida - IMD",15-01-2024 01:00:00,28.6245479,77.3577104,NO2,33,79,50
India,Uttar_Pradesh,Noida,"Sector-1, Noida - UPPCB",15-01-2024 01:00:00,28.5898,77.3101,NH3,11,21,15
India,Uttar_Pradesh,Noida,"Sector-116, Noida - UPPCB",15-01-2024 01:00:00,28.569230,77.393848,PM10,192,500,362
India,Uttar_Pradesh,Noida,"Sector-116, Noida - UPPCB",15-01-2024 01:00:00,28.569230,77.393848,OZONE,4,80,9
India,Uttar_Pradesh,Prayagraj,"Jhunsi, Prayagraj - UPPCB",15-01-2024 01:00:00,25.425602,81.917152,PM10,92,179,130
India,Uttar_Pradesh,Prayagraj,"Jhunsi, Prayagraj - UPPCB",15-01-2024 01:00:00,25.425602,81.917152,SO2,30,32,31
India,Uttar_Pradesh,Prayagraj,"Jhunsi, Prayagraj - UPPCB",15-01-2024 01:00:00,25.425602,81.917152,OZONE,1,10,2
India,Uttar_Pradesh,Prayagraj,"Motilal Nehru NIT, Prayagraj - UPPCB",15-01-2024 01:00:00,25.494,81.863,NO2,11,12,12
India,Uttar_Pradesh,Prayagraj,"Motilal Nehru NIT, Prayagraj - UPPCB",15-01-2024 01:00:00,25.494,81.863,NH3,5,7,6
India,Uttar_Pradesh,Prayagraj,"Nagar Nigam, Prayagraj - UPPCB",15-01-2024 01:00:00,25.44919916 ,81.82735986 ,OZONE,4,13,7
India,Uttar_Pradesh,Varanasi,"Ardhali Bazar, Varanasi - UPPCB",15-01-2024 01:00:00,25.3505986,82.9083074,PM2.5,32,69,49
India,Uttar_Pradesh,Varanasi,"Bhelupur, Varanasi - UPPCB",15-01-2024 01:00:00,25.301778,82.996789,PM10,38,101,66
India,Uttar_Pradesh,Varanasi,"Bhelupur, Varanasi - UPPCB",15-01-2024 01:00:00,25.301778,82.996789,NH3,2,3,2
India,Uttar_Pradesh,Varanasi,"Bhelupur, Varanasi - UPPCB",15-01-2024 01:00:00,25.301778,82.996789,CO,12,52,34
India,Uttar_Pradesh,Varanasi,"IESD Banaras Hindu University, Varanasi - UPPCB",15-01-2024 01:00:00,25.262326,82.995408,CO,34,41,39
India,Uttar_Pradesh,Varanasi,"IESD Banaras Hindu University, Varanasi - UPPCB",15-01-2024 01:00:00,25.262326,82.995408,OZONE,1,2,2
India,Uttarakhand,Kashipur,"Govt. Girls Inter College, Kashipur - UKPCB",15-01-2024 01:00:00,29.2124114,78.9611753,NH3,7,13,10
India,Uttarakhand,Kashipur,"Govt. Girls Inter College, Kashipur - UKPCB",15-01-2024 01:00:00,29.2124114,78.9611753,CO,65,107,101
India,Uttarakhand,Kashipur,"Govt. Girls Inter College, Kashipur - UKPCB",15-01-2024 01:00:00,29.2124114,78.9611753,OZONE,1,6,1
India,Uttarakhand,Rishikesh,"Shivaji Nagar, Rishikesh - UKPCB",15-01-2024 01:00:00,30.075911,78.2859547,NH3,2,4,4
India,Uttarakhand,Rishikesh,"Shivaji Nagar, Rishikesh - UKPCB",15-01-2024 01:00:00,30.075911,78.2859547,CO,52,76,72
India,West_Bengal,Barrackpore,"SVSPA Campus, Barrackpore - WBPCB",15-01-2024 01:00:00,22.7605581,88.3617589,PM2.5,220,363,305
India,West_Bengal,Durgapur,"Sidhu Kanhu Indoor Stadium, Durgapur - WBPCB",15-01-2024 01:00:00,23.5404352,87.2892225,PM10,185,281,228
India,West_Bengal,Durgapur,"Sidhu Kanhu Indoor Stadium, Durgapur - WBPCB",15-01-2024 01:00:00,23.5404352,87.2892225,NH3,3,4,3
India,West_Bengal,Haldia,"Priyambada Housing Estate, Haldia - WBPCB",15-01-2024 01:00:00,22.06047,88.109737,PM10,104,146,125
India,West_Bengal,Howrah,"Belur Math, Howrah - WBPCB",15-01-2024 01:00:00,22.629801,88.352017,PM10,161,203,184
India,West_Bengal,Howrah,"Belur Math, Howrah - WBPCB",15-01-2024 01:00:00,22.629801,88.352017,CO,22,44,35
India,West_Bengal,Howrah,"Ghusuri, Howrah - WBPCB",15-01-2024 01:00:00,22.611968,88.347422,PM2.5,312,375,341
India,West_Bengal,Howrah,"Ghusuri, Howrah - WBPCB",15-01-2024 01:00:00,22.611968,88.347422,PM10,166,283,206
India,West_Bengal,Howrah,"Ghusuri, Howrah - WBPCB",15-01-2024 01:00:00,22.611968,88.347422,NO2,24,100,44
India,West_Bengal,Howrah,"Padmapukur, Howrah - WBPCB",15-01-2024 01:00:00,22.5687319,88.2797276,OZONE,59,121,72
India,West_Bengal,Kolkata,"Ballygunge, Kolkata - WBPCB",15-01-2024 01:00:00,22.5367507,88.3638022,SO2,10,31,19
India,West_Bengal,Kolkata,"Ballygunge, Kolkata - WBPCB",15-01-2024 01:00:00,22.5367507,88.3638022,CO,24,84,55
India,West_Bengal,Kolkata,"Bidhannagar, Kolkata - WBPCB",15-01-2024 01:00:00,22.58157048,88.41002457,NO2,22,38,26
India,West_Bengal,Kolkata,"Bidhannagar, Kolkata - WBPCB",15-01-2024 01:00:00,22.58157048,88.41002457,NH3,9,11,10
India,West_Bengal,Kolkata,"Fort William, Kolkata - WBPCB",15-01-2024 01:00:00,22.556640,88.342674,PM2.5,316,350,331
India,West_Bengal,Kolkata,"Fort William, Kolkata - WBPCB",15-01-2024 01:00:00,22.556640,88.342674,NO2,36,101,61
India,West_Bengal,Kolkata,"Fort William, Kolkata - WBPCB",15-01-2024 01:00:00,22.556640,88.342674,SO2,5,29,15
India,West_Bengal,Kolkata,"Fort William, Kolkata - WBPCB",15-01-2024 01:00:00,22.556640,88.342674,OZONE,46,86,61
India,West_Bengal,Kolkata,"Jadavpur, Kolkata - WBPCB",15-01-2024 01:00:00,22.49929,88.36917,CO,28,73,43
India,West_Bengal,Kolkata,"Rabindra Bharati University, Kolkata - WBPCB",15-01-2024 01:00:00,22.627847,88.380669,PM10,139,185,157
India,West_Bengal,Kolkata,"Rabindra Bharati University, Kolkata - WBPCB",15-01-2024 01:00:00,22.627847,88.380669,SO2,3,23,9
India,West_Bengal,Kolkata,"Victoria, Kolkata - WBPCB",15-01-2024 01:00:00,22.5448082,88.3403691,PM2.5,297,336,314
India,West_Bengal,Kolkata,"Victoria, Kolkata - WBPCB",15-01-2024 01:00:00,22.5448082,88.3403691,NO2,2,18,7
India,West_Bengal,Siliguri,"Ward-32 Bapupara, Siliguri - WBPCB",15-01-2024 01:00:00,26.6879226,88.4152495,NO2,24,49,38
India,West_Bengal,Siliguri,"Ward-32 Bapupara, Siliguri - WBPCB",15-01-2024 01:00:00,26.6879226,88.4152495,NH3,5,15,11
India,Andhra_Pradesh,Anantapur,"Gulzarpet, Anantapur - APPCB",15-01-2024 01:00:00,14.675886,77.593027,CO,26,110,56
India,Andhra_Pradesh,Chittoor,"Gangineni Cheruvu, Chittoor - APPCB",15-01-2024 01:00:00,13.204880,79.097889,SO2,2,29,11
India,Andhra_Pradesh,Chittoor,"Gangineni Cheruvu, Chittoor - APPCB",15-01-2024 01:00:00,13.204880,79.097889,OZONE,8,124,77
India,Andhra_Pradesh,Kadapa,"Yerramukkapalli, Kadapa - APPCB",15-01-2024 01:00:00,14.465052,78.824187,PM10,21,77,53
India,Andhra_Pradesh,Kadapa,"Yerramukkapalli, Kadapa - APPCB",15-01-2024 01:00:00,14.465052,78.824187,NH3,NA,NA,NA
India,Andhra_Pradesh,Rajamahendravaram,"Anand Kala Kshetram, Rajamahendravaram - APPCB",15-01-2024 01:00:00,16.9872867,81.7363176,PM10,126,316,162
India,Andhra_Pradesh,Rajamahendravaram,"Anand Kala Kshetram, Rajamahendravaram - APPCB",15-01-2024 01:00:00,16.9872867,81.7363176,SO2,12,73,31
India,Andhra_Pradesh,Tirupati,"Tirumala, Tirupati - APPCB",15-01-2024 01:00:00,13.67,79.35,PM10,102,149,119
India,Andhra_Pradesh,Tirupati,"Tirumala, Tirupati - APPCB",15-01-2024 01:00:00,13.67,79.35,NO2,30,64,48
India,Andhra_Pradesh,Tirupati,"Tirumala, Tirupati - APPCB",15-01-2024 01:00:00,13.67,79.35,CO,47,86,57
India,Andhra_Pradesh,Tirupati,"Vaikuntapuram, Tirupati - APPCB",15-01-2024 01:00:00,13.615387,79.409230,OZONE,2,46,20
India,Andhra_Pradesh,Vijayawada,"HB Colony, Vijayawada - APPCB",15-01-2024 01:00:00,16.536107,80.594233,NO2,NA,NA,NA
India,Andhra_Pradesh,Vijayawada,"HB Colony, Vijayawada - APPCB",15-01-2024 01:00:00,16.536107,80.594233,SO2,NA,NA,NA
India,Andhra_Pradesh,Vijayawada,"Kanuru, Vijayawada - APPCB",15-01-2024 01:00:00,16.486692,80.699436,PM10,NA,NA,NA
India,Andhra_Pradesh,Vijayawada,"Rajiv Gandhi Park, Vijayawada - APPCB",15-01-2024 01:00:00,16.509717,80.612222,PM10,NA,NA,NA
India,Andhra_Pradesh,Visakhapatnam,"GVM Corporation, Visakhapatnam - APPCB",15-01-2024 01:00:00,17.72,83.3,CO,34,101,63
India,Andhra_Pradesh,Visakhapatnam,"GVM Corporation, Visakhapatnam - APPCB",15-01-2024 01:00:00,17.72,83.3,OZONE,9,49,10
India,Arunachal_Pradesh,Naharlagun,"Naharlagun, Naharlagun - APSPCB",15-01-2024 01:00:00,27.103358,93.679645,OZONE,2,2,2
India,Assam,Guwahati,"LGBI Airport, Guwahati - PCBA",15-01-2024 01:00:00,26.10887,91.589544,PM10,103,358,171
India,Assam,Guwahati,"LGBI Airport, Guwahati - PCBA",15-01-2024 01:00:00,26.10887,91.589544,NH3,1,7,3
India,Assam,Guwahati,"LGBI Airport, Guwahati - PCBA",15-01-2024 01:00:00,26.10887,91.589544,SO2,10,12,11
India,Assam,Guwahati,"LGBI Airport, Guwahati - PCBA",15-01-2024 01:00:00,26.10887,91.589544,OZONE,2,86,19
India,Assam,Guwahati,"Pan Bazaar, Guwahati - PCBA",15-01-2024 01:00:00,26.187500,91.744194,NO2,1,8,4
India,Assam,Guwahati,"Pan Bazaar, Guwahati - PCBA",15-01-2024 01:00:00,26.187500,91.744194,NH3,3,6,4
India,Assam,Guwahati,"Pan Bazaar, Guwahati - PCBA",15-01-2024 01:00:00,26.187500,91.744194,SO2,59,107,73
India,Assam,Guwahati,"Pan Bazaar, Guwahati - PCBA",15-01-2024 01:00:00,26.187500,91.744194,OZONE,17,17,17
India,Assam,Nagaon,"Christianpatty, Nagaon - PCBA",15-01-2024 01:00:00,26.349082,92.68449,PM10,91,500,208
India,Assam,Nalbari,"Bata Chowk, Nalbari - PCBA",15-01-2024 01:00:00,26.446912,91.439057,PM10,107,500,219
India,Assam,Nalbari,"Bata Chowk, Nalbari - PCBA",15-01-2024 01:00:00,26.446912,91.439057,NH3,9,31,13
India,Assam,Silchar,"Tarapur, Silchar - PCBA",15-01-2024 01:00:00,24.82827,92.79525,NH3,1,1,1
India,Assam,Sivasagar,"Girls College, Sivasagar - PCBA",15-01-2024 01:00:00,26.987634,94.636574,PM10,30,94,49
India,Assam,Sivasagar,"Girls College, Sivasagar - PCBA",15-01-2024 01:00:00,26.987634,94.636574,NH3,2,2,2
India,Assam,Sivasagar,"Girls College, Sivasagar - PCBA",15-01-2024 01:00:00,26.987634,94.636574,SO2,4,6,6
India,Assam,Sivasagar,"Girls College, Sivasagar - PCBA",15-01-2024 01:00:00,26.987634,94.636574,CO,11,103,56
India,Bihar,Arrah,"New DM Office, Arrah - BSPCB",15-01-2024 01:00:00,25.5626095,84.663264,NH3,3,7,5
India,Bihar,Aurangabad,"Gurdeo Nagar, Aurangabad - BSPCB",15-01-2024 01:00:00,24.75746,84.366208,PM2.5,58,240,82
India,Bihar,Aurangabad,"Gurdeo Nagar, Aurangabad - BSPCB",15-01-2024 01:00:00,24.75746,84.366208,NH3,6,10,8
India,Bihar,Bettiah,"Kamalnath Nagar, Bettiah - BSPCB",15-01-2024 01:00:00,26.80365,84.51954,PM10,25,125,56
India,Bihar,Bettiah,"Kamalnath Nagar, Bettiah - BSPCB",15-01-2024 01:00:00,26.80365,84.51954,NH3,3,3,3
India,Bihar,Bettiah,"Kamalnath Nagar, Bettiah - BSPCB",15-01-2024 01:00:00,26.80365,84.51954,CO,41,98,89
India,Bihar,Bhagalpur,"DM Office_Kachari Chowk, Bhagalpur - BSPCB",15-01-2024 01:00:00,25.251013,86.989001,PM2.5,338,414,369
India,Bihar,Bhagalpur,"DM Office_Kachari Chowk, Bhagalpur - BSPCB",15-01-2024 01:00:00,25.251013,86.989001,PM10,178,321,227
India,Bihar,Bhagalpur,"Mayaganj, Bhagalpur - BSPCB",15-01-2024 01:00:00,25.265194,87.012947,PM2.5,308,419,366
India,Bihar,Bhagalpur,"Mayaganj, Bhagalpur - BSPCB",15-01-2024 01:00:00,25.265194,87.012947,SO2,10,14,12
India,Bihar,Bihar Sharif,"D M Colony, Bihar Sharif - BSPCB",15-01-2024 01:00:00,25.204762,85.514960,NO2,9,11,9
India,Bihar,Chhapra,"Darshan Nagar, Chhapra - BSPCB",15-01-2024 01:00:00,25.7808257,84.7446768,SO2,29,61,45
India,Bihar,Gaya,"Collectorate, Gaya - BSPCB",15-01-2024 01:00:00,24.7955,84.9994,NO2,17,19,18
India,Bihar,Gaya,"Kareemganj, Gaya - BSPCB",15-01-2024 01:00:00,24.792403,84.992416,NO2,30,31,30
India,Bihar,Katihar,"Mirchaibari, Katihar - BSPCB",15-01-2024 01:00:00,25.560083,87.553265,PM2.5,NA,NA,NA
India,Bihar,Katihar,"Mirchaibari, Katihar - BSPCB",15-01-2024 01:00:00,25.560083,87.553265,SO2,NA,NA,NA
India,Bihar,Manguraha,"Forest Rest House, Manguraha - BSPCB",15-01-2024 01:00:00,27.308328,84.531742,PM10,NA,NA,NA
India,Bihar,Motihari,"Gandak Colony, Motihari - BSPCB",15-01-2024 01:00:00,26.63086,84.90051,NO2,55,89,73
India,Bihar,Munger,"Town Hall, Munger - BSPCB",15-01-2024 01:00:00,25.376776,86.471523,NO2,8,10,9
India,Bihar,Munger,"Town Hall, Munger - BSPCB",15-01-2024 01:00:00,25.376776,86.471523,NH3,1,2,2
India,Bihar,Muzaffarpur,"Buddha Colony, Muzaffarpur - BSPCB",15-01-2024 01:00:00,26.11442,85.39813,PM2.5,291,349,314
India,Bihar,Muzaffarpur,"Buddha Colony, Muzaffarpur - BSPCB",15-01-2024 01:00:00,26.11442,85.39813,OZONE,22,48,29
India,Bihar,Muzaffarpur,"Muzaffarpur Collectorate, Muzaffarpur - BSPCB",15-01-2024 01:00:00,26.1209,85.3647,PM2.5,112,248,168
India,Bihar,Patna,"DRM Office Danapur, Patna - BSPCB",15-01-2024 01:00:00,25.586562,85.043586,NO2,12,36,20
India,Bihar,Patna,"DRM Office Danapur, Patna - BSPCB",15-01-2024 01:00:00,25.586562,85.043586,SO2,6,8,7
India,Bihar,Patna,"Govt. High School Shikarpur, Patna - BSPCB",15-01-2024 01:00:00,25.592539,85.227158,NO2,12,25,16
India,Bihar,Patna,"Govt. High School Shikarpur, Patna - BSPCB",15-01-2024 01:00:00,25.592539,85.227158,CO,32,79,66
India,Bihar,Patna,"IGSC Planetarium Complex, Patna - BSPCB",15-01-2024 01:00:00,25.610369,85.132568,SO2,NA,NA,NA
India,Bihar,Patna,"IGSC Planetarium Complex, Patna - BSPCB",15-01-2024 01:00:00,25.610369,85.132568,CO,8,51,30
India,Bihar,Patna,"Rajbansi Nagar, Patna - BSPCB",15-01-2024 01:00:00,25.599486,85.113666,PM2.5,59,197,129
India,Bihar,Patna,"Rajbansi Nagar, Patna - BSPCB",15-01-2024 01:00:00,25.599486,85.113666,PM10,134,222,174
India,Bihar,Patna,"Rajbansi Nagar, Patna - BSPCB",15-01-2024 01:00:00,25.599486,85.113666,NH3,6,6,6
India,Bihar,Patna,"Samanpura, Patna - BSPCB",15-01-2024 01:00:00,25.596727,85.085624,NO2,14,16,14
India,Bihar,Purnia,"Mariam Nagar, Purnia - BSPCB",15-01-2024 01:00:00,25.366336,87.117468,NO2,12,13,13
India,Bihar,Rajgir,"Dangi Tola, Rajgir - BSPCB",15-01-2024 01:00:00,25.03280,85.41948,SO2,4,7,5
India,Bihar,Rajgir,"Dangi Tola, Rajgir - BSPCB",15-01-2024 01:00:00,25.03280,85.41948,CO,8,16,13
India,Bihar,Saharsa,"Police Line, Saharsa - BSPCB",15-01-2024 01:00:00,25.892357,86.590325,OZONE,2,6,3
India,Bihar,Samastipur,"DM Office_Kasipur, Samastipur - BSPCB",15-01-2024 01:00:00,25.859655,85.77944,PM10,55,101,73
India,Bihar,Samastipur,"DM Office_Kasipur, Samastipur - BSPCB",15-01-2024 01:00:00,25.859655,85.77944,SO2,4,14,8
India,Bihar,Sasaram,"Dada Peer, Sasaram - BSPCB",15-01-2024 01:00:00,24.952822,84.002396,NO2,2,14,7
India,Chandigarh,Chandigarh,"Sector 22, Chandigarh - CPCC",15-01-2024 01:00:00,30.735567,76.775714,PM2.5,243,454,330
India,Chandigarh,Chandigarh,"Sector 22, Chandigarh - CPCC",15-01-2024 01:00:00,30.735567,76.775714,OZONE,2,52,11
India,Chandigarh,Chandigarh,"Sector-25, Chandigarh - CPCC",15-01-2024 01:00:00,30.751462,76.762879,SO2,6,13,9
India,Chandigarh,Chandigarh,"Sector-25, Chandigarh - CPCC",15-01-2024 01:00:00,30.751462,76.762879,CO,42,106,50
India,Chandigarh,Chandigarh,"Sector-53, Chandigarh - CPCC",15-01-2024 01:00:00,30.719859,76.738637,SO2,NA,NA,NA
India,Chhattisgarh,Bhilai,"32Bungalows, Bhilai - CECB",15-01-2024 01:00:00,21.194815,81.314770,PM2.5,41,106,63
India,Chhattisgarh,Bhilai,"32Bungalows, Bhilai - CECB",15-01-2024 01:00:00,21.194815,81.314770,PM10,64,163,100
India,Chhattisgarh,Bhilai,"32Bungalows, Bhilai - CECB",15-01-2024 01:00:00,21.194815,81.314770,NH3,6,6,6
India,Chhattisgarh,Bhilai,"Hathkhoj, Bhilai - CECB",15-01-2024 01:00:00,21.224231,81.408350,NH3,7,8,8
India,Chhattisgarh,Bilaspur,"Mangala, Bilaspur - NTPC",15-01-2024 01:00:00,22.08815,82.13737,NO2,11,13,11
India,Chhattisgarh,Chhal,"Nawapara SECL Colony, Chhal - CECB",15-01-2024 01:00:00,22.118125,83.140608,PM2.5,23,103,44
India,Chhattisgarh,Chhal,"Nawapara SECL Colony, Chhal - CECB",15-01-2024 01:00:00,22.118125,83.140608,SO2,9,65,24
India,Chhattisgarh,Korba,"Rampur, Korba - CECB",15-01-2024 01:00:00,22.368195,82.746431,NO2,20,46,38
India,Chhattisgarh,Korba,"Urja Nagar, Korba - CECB",15-01-2024 01:00:00,22.348441,82.549611,PM2.5,6,38,21
India,Chhattisgarh,Korba,"Urja Nagar, Korba - CECB",15-01-2024 01:00:00,22.348441,82.549611,SO2,3,9,5
India,Chhattisgarh,Kunjemura,"OP Jindal School, Kunjemura - CECB",15-01-2024 01:00:00,22.126650,83.483212,NH3,1,4,2
India,Chhattisgarh,Milupara,"Govt. Higher Secondary School, Milupara - CECB",15-01-2024 01:00:00,22.1910172,83.5197009,NH3,1,2,1
India,Chhattisgarh,Raipur,"AIIMS, Raipur - CECB",15-01-2024 01:00:00,21.258815,81.578979,OZONE,1,41,2
India,Chhattisgarh,Raipur,"Bhatagaon New ISBT, Raipur - CECB",15-01-2024 01:00:00,21.219665,81.630094,CO,33,102,69
India,Chhattisgarh,Raipur,"Krishak Nagar, Raipur - CECB",15-01-2024 01:00:00,21.237755,81.705301,NO2,25,37,31
India,Chhattisgarh,Raipur,"Krishak Nagar, Raipur - CECB",15-01-2024 01:00:00,21.237755,81.705301,OZONE,2,6,3
India,Chhattisgarh,Tumidih,"OP Jindal Industrial Park, Tumidih - CECB",15-01-2024 01:00:00,22.06631475,83.33820077,PM2.5,29,64,48
India,Delhi,Delhi,"Alipur, Delhi - DPCC",15-01-2024 01:00:00,28.815329,77.153010,NH3,1,5,2
India,Delhi,Delhi,"Anand Vihar, Delhi - DPCC",15-01-2024 01:00:00,28.647622,77.3158090,PM2.5,373,500,454
India,Delhi,Delhi,"Anand Vihar, Delhi - DPCC",15-01-2024 01:00:00,28.647622,77.3158090,CO,121,180,151
India,Delhi,Delhi,"Aya Nagar, Delhi - IMD",15-01-2024 01:00:00,28.4706914,77.1099364,PM10,174,500,336
India,Delhi,Delhi,"Bawana, Delhi - DPCC",15-01-2024 01:00:00,28.776200,77.051074,SO2,4,17,7
India,Delhi,Delhi,"Burari Crossing, Delhi - IMD",15-01-2024 01:00:00,28.7256504,77.2011573,NO2,10,20,15
India,Delhi,Delhi,"Dwarka-Sector 8, Delhi - DPCC ",15-01-2024 01:00:00,28.5710274,77.0719006,PM10,311,500,439
India,Delhi,Delhi,"IGI Airport (T3), Delhi - IMD",15-01-2024 01:00:00,28.5627763,77.1180053,PM10,189,500,370
India,Delhi,Delhi,"IHBAS, Dilshad Garden, Delhi - CPCB",15-01-2024 01:00:00,28.6811736,77.3025234,SO2,2,32,9
India,Delhi,Delhi,"ITO, Delhi - CPCB",15-01-2024 01:00:00,28.628624,77.241060,CO,66,164,112
India,Delhi,Delhi,"Jahangirpuri, Delhi - DPCC",15-01-2024 01:00:00,28.732820,77.170633,NO2,45,81,64
India,Delhi,Delhi,"Lodhi Road, Delhi - IMD",15-01-2024 01:00:00,28.5918245,77.2273074,PM2.5,313,500,405
India,Delhi,Delhi,"Lodhi Road, Delhi - IMD",15-01-2024 01:00:00,28.5918245,77.2273074,NO2,4,9,6
India,Delhi,Delhi,"Lodhi Road, Delhi - IMD",15-01-2024 01:00:00,28.5918245,77.2273074,CO,30,113,53
India,Delhi,Delhi,"Major Dhyan Chand National Stadium, Delhi - DPCC",15-01-2024 01:00:00,28.611281,77.237738,NH3,13,23,16
India,Delhi,Delhi,"Major Dhyan Chand National Stadium, Delhi - DPCC",15-01-2024 01:00:00,28.611281,77.237738,CO,56,130,95
India,Delhi,Delhi,"Mandir Marg, Delhi - DPCC",15-01-2024 01:00:00,28.636429,77.201067,PM2.5,341,500,434
India,Delhi,Delhi,"Mandir Marg, Delhi - DPCC",15-01-2024 01:00:00,28.636429,77.201067,PM10,205,500,365
India,Delhi,Delhi,"Mandir Marg, Delhi - DPCC",15-01-2024 01:00:00,28.636429,77.201067,CO,5,129,87
India,Delhi,Delhi,"Mandir Marg, Delhi - DPCC",15-01-2024 01:00:00,28.636429,77.201067,OZONE,2,24,7
India,Delhi,Delhi,"Mundka, Delhi - DPCC",15-01-2024 01:00:00,28.684678,77.076574,NO2,40,96,57
India,Delhi,Delhi,"Mundka, Delhi - DPCC",15-01-2024 01:00:00,28.684678,77.076574,SO2,4,13,8
India,Delhi,Delhi,"Mundka, Delhi - DPCC",15-01-2024 01:00:00,28.684678,77.076574,CO,58,110,82
India,Delhi,Delhi,"Najafgarh, Delhi - DPCC",15-01-2024 01:00:00,28.570173,76.933762,PM2.5,333,469,375
India,Delhi,Delhi,"Najafgarh, Delhi - DPCC",15-01-2024 01:00:00,28.570173,76.933762,NO2,21,57,36
India,Delhi,Delhi,"Najafgarh, Delhi - DPCC",15-01-2024 01:00:00,28.570173,76.933762,OZONE,5,100,31
India,Delhi,Delhi,"Narela, Delhi - DPCC",15-01-2024 01:00:00,28.822836,77.101981,PM10,126,479,260
India,Delhi,Delhi,"Narela, Delhi - DPCC",15-01-2024 01:00:00,28.822836,77.101981,NO2,30,84,50
India,Delhi,Delhi,"Narela, Delhi - DPCC",15-01-2024 01:00:00,28.822836,77.101981,CO,67,111,100
India,Delhi,Delhi,"North Campus, DU, Delhi - IMD",15-01-2024 01:00:00,28.6573814,77.1585447,CO,60,114,86
India,Delhi,Delhi,"North Campus, DU, Delhi - IMD",15-01-2024 01:00:00,28.6573814,77.1585447,OZONE,25,54,34
India,Delhi,Delhi,"Okhla Phase-2, Delhi - DPCC",15-01-2024 01:00:00,28.530785,77.271255,PM10,270,500,422
India,Delhi,Delhi,"Pusa, Delhi - DPCC",15-01-2024 01:00:00,28.639652,77.146275,NO2,108,376,246
India,Delhi,Delhi,"Pusa, Delhi - IMD",15-01-2024 01:00:00,28.636110,77.173332,PM2.5,290,500,401
India,Delhi,Delhi,"Rohini, Delhi - DPCC",15-01-2024 01:00:00,28.732528,77.119920,NO2,12,82,48
India,Delhi,Delhi,"Rohini, Delhi - DPCC",15-01-2024 01:00:00,28.732528,77.119920,NH3,8,12,10
India,Delhi,Delhi,"Rohini, Delhi - DPCC",15-01-2024 01:00:00,28.732528,77.119920,SO2,6,30,12
India,Delhi,Delhi,"Sirifort, Delhi - CPCB",15-01-2024 01:00:00,28.5504249,77.2159377,PM2.5,NA,NA,NA
India,Delhi,Delhi,"Sonia Vihar, Delhi - DPCC",15-01-2024 01:00:00,28.710508,77.249485,OZONE,3,149,27
India,Delhi,Delhi,"Sri Aurobindo Marg, Delhi - DPCC",15-01-2024 01:00:00,28.531346,77.190156,SO2,10,57,20
India,Delhi,Delhi,"Sri Aurobindo Marg, Delhi - DPCC",15-01-2024 01:00:00,28.531346,77.190156,OZONE,5,32,9
India,Delhi,Delhi,"Vivek Vihar, Delhi - DPCC",15-01-2024 01:00:00,28.672342,77.315260,NO2,56,142,84
India,Delhi,Delhi,"Wazirpur, Delhi - DPCC",15-01-2024 01:00:00,28.699793,77.165453,SO2,18,74,40
India,Delhi,Delhi,"Wazirpur, Delhi - DPCC",15-01-2024 01:00:00,28.699793,77.165453,OZONE,3,81,15
India,Gujarat,Ahmedabad,"Chandkheda, Ahmedabad - IITM",15-01-2024 01:00:00,23.107969,72.574648,PM10,NA,NA,NA
India,Gujarat,Ahmedabad,"Gyaspur, Ahmedabad - IITM",15-01-2024 01:00:00,22.977134,72.553024,PM10,40,297,120
India,Gujarat,Ahmedabad,"Gyaspur, Ahmedabad - IITM",15-01-2024 01:00:00,22.977134,72.553024,NO2,11,12,12
India,Gujarat,Ahmedabad,"Gyaspur, Ahmedabad - IITM",15-01-2024 01:00:00,22.977134,72.553024,NH3,3,3,3
India,Gujarat,Ahmedabad,"Raikhad, Ahmedabad - IITM",15-01-2024 01:00:00,23.020509,72.579261,NH3,4,4,4
India,Gujarat,Ahmedabad,"Raikhad, Ahmedabad - IITM",15-01-2024 01:00:00,23.020509,72.579261,OZONE,19,21,21
India,Gujarat,Ahmedabad,"Rakhial, Ahmedabad - IITM",15-01-2024 01:00:00,23.016834,72.625775,PM2.5,54,196,106
India,Gujarat,Ahmedabad,"Rakhial, Ahmedabad - IITM",15-01-2024 01:00:00,23.016834,72.625775,PM10,70,154,111
India,Gujarat,Ahmedabad,"SAC ISRO Bopal, Ahmedabad - IITM",15-01-2024 01:00:00,23.041137,72.456691,CO,37,50,49
India,Gujarat,Ahmedabad,"Sardar Vallabhbhai Patel Stadium, Ahmedabad - IITM",15-01-2024 01:00:00,23.043070,72.562968,PM2.5,55,229,124
India,Gujarat,Ahmedabad,"Sardar Vallabhbhai Patel Stadium, Ahmedabad - IITM",15-01-2024 01:00:00,23.043070,72.562968,NH3,3,3,3
India,Gujarat,Ahmedabad,"Sardar Vallabhbhai Patel Stadium, Ahmedabad - IITM",15-01-2024 01:00:00,23.043070,72.562968,CO,4,54,28
India,Gujarat,Ankleshwar,"GIDC, Ankleshwar - GPCB",15-01-2024 01:00:00,21.613267,73.010555,CO,16,106,61
India,Gujarat,Gandhinagar,"GIFT City, Gandhinagar - IITM",15-01-2024 01:00:00,23.163798,72.677768,NH3,2,2,2
India,Gujarat,Gandhinagar,"GIFT City, Gandhinagar - IITM",15-01-2024 01:00:00,23.163798,72.677768,SO2,4,8,6
India,Gujarat,Gandhinagar,"GIFT City, Gandhinagar - IITM",15-01-2024 01:00:00,23.163798,72.677768,CO,10,24,17
India,Gujarat,Gandhinagar,"Sector-10, Gandhinagar - GPCB",15-01-2024 01:00:00,23.221714,72.654328,NH3,1,2,2
India,Gujarat,Vatva,"Phase-4 GIDC, Vatva - GPCB",15-01-2024 01:00:00,22.969611,72.643500,PM2.5,24,99,67
India,Haryana,Ambala,"Patti Mehar, Ambala - HSPCB",15-01-2024 01:00:00,30.379589,76.778328,NO2,53,162,125
India,Haryana,Ambala,"Patti Mehar, Ambala - HSPCB",15-01-2024 01:00:00,30.379589,76.778328,NH3,6,53,16
India,Haryana,Bahadurgarh,"Arya Nagar, Bahadurgarh - HSPCB",15-01-2024 01:00:00,28.6701,76.9254,PM2.5,208,356,298
India,Haryana,Bahadurgarh,"Arya Nagar, Bahadurgarh - HSPCB",15-01-2024 01:00:00,28.6701,76.9254,PM10,126,216,165
India,Haryana,Ballabgarh,"Nathu Colony, Ballabgarh - HSPCB",15-01-2024 01:00:00,28.3419248,77.319699,PM10,279,480,403
India,Haryana,Bhiwani,"H.B. Colony, Bhiwani - HSPCB",15-01-2024 01:00:00,28.806223,76.141105,PM2.5,83,183,118
India,Haryana,Bhiwani,"H.B. Colony, Bhiwani - HSPCB",15-01-2024 01:00:00,28.806223,76.141105,NH3,6,6,6
India,Haryana,Bhiwani,"H.B. Colony, Bhiwani - HSPCB",15-01-2024 01:00:00,28.806223,76.141105,CO,46,90,63
India,Haryana,Charkhi Dadri,"Mini Secretariat, Charkhi Dadri - HSPCB",15-01-2024 01:00:00,28.593883,76.270653,NH3,5,6,6
India,Haryana,Charkhi Dadri,"Mini Secretariat, Charkhi Dadri - HSPCB",15-01-2024 01:00:00,28.593883,76.270653,SO2,3,10,9
India,Haryana,Charkhi Dadri,"Mini Secretariat, Charkhi Dadri - HSPCB",15-01-2024 01:00:00,28.593883,76.270653,CO,45,103,75
India,Haryana,Dharuhera,"Municipal Corporation Office, Dharuhera -  HSPCB",15-01-2024 01:00:00,28.206800,76.799700,NO2,44,112,73
India,Haryana,Dharuhera,"Municipal Corporation Office, Dharuhera -  HSPCB",15-01-2024 01:00:00,28.206800,76.799700,SO2,4,20,8
India,Haryana,Dharuhera,"Municipal Corporation Office, Dharuhera -  HSPCB",15-01-2024 01:00:00,28.206800,76.799700,CO,34,107,66
India,Haryana,Faridabad,"New Industrial Town, Faridabad - HSPCB",15-01-2024 01:00:00,28.39072,77.30059,PM10,200,500,441
India,Haryana,Faridabad,"New Industrial Town, Faridabad - HSPCB",15-01-2024 01:00:00,28.39072,77.30059,SO2,1,7,3
India,Haryana,Faridabad,"New Industrial Town, Faridabad - HSPCB",15-01-2024 01:00:00,28.39072,77.30059,CO,66,107,72
India,Haryana,Faridabad,"New Industrial Town, Faridabad - HSPCB",15-01-2024 01:00:00,28.39072,77.30059,OZONE,29,173,66
India,Haryana,Faridabad,"Sector 11, Faridabad - HSPCB",15-01-2024 01:00:00,28.376058,77.315741,NH3,6,6,6
India,Haryana,Faridabad,"Sector 11, Faridabad - HSPCB",15-01-2024 01:00:00,28.376058,77.315741,SO2,7,34,14
India,Haryana,Faridabad,"Sector 30, Faridabad - HSPCB",15-01-2024 01:00:00,28.4417,77.3217,PM2.5,NA,NA,NA
India,Haryana,Faridabad,"Sector- 16A, Faridabad - HSPCB",15-01-2024 01:00:00,28.4088421,77.3099081,NO2,26,151,71
India,Haryana,Faridabad,"Sector- 16A, Faridabad - HSPCB",15-01-2024 01:00:00,28.4088421,77.3099081,CO,6,105,32
India,Haryana,Faridabad,"Sector- 16A, Faridabad - HSPCB",15-01-2024 01:00:00,28.4088421,77.3099081,OZONE,14,14,14
India,Haryana,Fatehabad,"Huda Sector, Fatehabad - HSPCB",15-01-2024 01:00:00,29.503664,75.467934,NO2,29,31,30
India,Haryana,Jind,"Police Lines, Jind - HSPCB",15-01-2024 01:00:00,29.307814,76.337619,SO2,4,10,6
India,Haryana,Kaithal,"Rishi Nagar, Kaithal - HSPCB",15-01-2024 01:00:00,29.8006,76.4155,PM10,96,132,110
India,Haryana,Kaithal,"Rishi Nagar, Kaithal - HSPCB",15-01-2024 01:00:00,29.8006,76.4155,SO2,5,16,9
India,Haryana,Kurukshetra,"Sector-7, Kurukshetra - HSPCB",15-01-2024 01:00:00,29.966942,76.875879,SO2,1,57,14
India,Haryana,Kurukshetra,"Sector-7, Kurukshetra - HSPCB",15-01-2024 01:00:00,29.966942,76.875879,CO,4,78,40
India,Haryana,Manesar,"Sector-2 IMT, Manesar - HSPCB",15-01-2024 01:00:00,28.360699,76.936090,PM2.5,232,500,346
India,Haryana,Manesar,"Sector-2 IMT, Manesar - HSPCB",15-01-2024 01:00:00,28.360699,76.936090,CO,41,112,75
India,Haryana,Narnaul,"Shastri Nagar, Narnaul - HSPCB",15-01-2024 01:00:00,28.060249,76.113115,OZONE,46,76,67
India,Haryana,Rohtak,"MD University, Rohtak - HSPCB",15-01-2024 01:00:00,28.52123,76.37138,PM2.5,23,307,175
India,Haryana,Sirsa,"F-Block, Sirsa - HSPCB",15-01-2024 01:00:00,29.536400,75.015800,PM10,40,83,62
India,Haryana,Sirsa,"F-Block, Sirsa - HSPCB",15-01-2024 01:00:00,29.536400,75.015800,SO2,6,12,9
India,Haryana,Sonipat,"Murthal, Sonipat - HSPCB",15-01-2024 01:00:00,29.027200,77.062100,PM10,110,180,145
India,Haryana,Sonipat,"Murthal, Sonipat - HSPCB",15-01-2024 01:00:00,29.027200,77.062100,NO2,37,44,40
India,Haryana,Sonipat,"Murthal, Sonipat - HSPCB",15-01-2024 01:00:00,29.027200,77.062100,NH3,7,10,9
India,Haryana,Sonipat,"Murthal, Sonipat - HSPCB",15-01-2024 01:00:00,29.027200,77.062100,OZONE,16,36,23
India,Haryana,Yamuna Nagar,"Gobind Pura, Yamuna Nagar - HSPCB",15-01-2024 01:00:00,30.1480566,77.2893471,NH3,1,6,4
India,Haryana,Yamuna Nagar,"Gobind Pura, Yamuna Nagar - HSPCB",15-01-2024 01:00:00,30.1480566,77.2893471,CO,29,101,65
India,Jharkhand,Dhanbad,"Kalakusuma, Dhanbad - DMC",15-01-2024 01:00:00,23.811548,86.481238,PM2.5,NA,NA,NA
India,Jharkhand,Dhanbad,"Kalakusuma, Dhanbad - DMC",15-01-2024 01:00:00,23.811548,86.481238,NO2,32,33,33
India,Jharkhand,Pathardih,"Mohalbani Ghat, Pathardih - DMC",15-01-2024 01:00:00,23.669880,86.411725,PM2.5,NA,NA,NA
India,Jharkhand,Pathardih,"Mohalbani Ghat, Pathardih - DMC",15-01-2024 01:00:00,23.669880,86.411725,SO2,NA,NA,NA
India,Karnataka,Bagalkot,"Vidayagiri, Bagalkot - KSPCB",15-01-2024 01:00:00,16.172806,75.659694,NH3,1,2,1
India,Karnataka,Bagalkot,"Vidayagiri, Bagalkot - KSPCB",15-01-2024 01:00:00,16.172806,75.659694,OZONE,NA,NA,NA
India,Karnataka,Bengaluru,"BTM Layout, Bengaluru - CPCB",15-01-2024 01:00:00,12.9135218,77.5950804,NH3,3,3,3
India,Karnataka,Bengaluru,"Hombegowda Nagar, Bengaluru - KSPCB",15-01-2024 01:00:00,12.938539,77.590100,PM10,85,139,106
India,Karnataka,Bengaluru,"Hombegowda Nagar, Bengaluru - KSPCB",15-01-2024 01:00:00,12.938539,77.590100,NO2,31,42,38
India,Karnataka,Bengaluru,"Hombegowda Nagar, Bengaluru - KSPCB",15-01-2024 01:00:00,12.938539,77.590100,CO,10,34,22
India,Karnataka,Bengaluru,"Jayanagar 5th Block, Bengaluru - KSPCB",15-01-2024 01:00:00,12.920984,77.584908,NH3,2,4,3
India,Karnataka,Bengaluru,"Jigani, Bengaluru - KSPCB",15-01-2024 01:00:00,12.7816279,77.6299145,PM10,43,169,112
India,Karnataka,Bengaluru,"Jigani, Bengaluru - KSPCB",15-01-2024 01:00:00,12.7816279,77.6299145,NH3,3,3,3
India,Karnataka,Bengaluru,"Peenya, Bengaluru - CPCB",15-01-2024 01:00:00,13.0270199,77.494094,OZONE,35,38,37
India,Karnataka,Bengaluru,"RVCE-Mailasandra, Bengaluru - KSPCB",15-01-2024 01:00:00,12.921418,77.502466,PM10,81,247,159
India,Karnataka,Bengaluru,"Shivapura_Peenya, Bengaluru - KSPCB",15-01-2024 01:00:00,13.0246342,77.5080115,PM2.5,NA,NA,NA
India,Karnataka,Bengaluru,"Shivapura_Peenya, Bengaluru - KSPCB",15-01-2024 01:00:00,13.0246342,77.5080115,NH3,4,4,4
India,Karnataka,Bengaluru,"Shivapura_Peenya, Bengaluru - KSPCB",15-01-2024 01:00:00,13.0246342,77.5080115,SO2,5,9,7
India,Karnataka,Chamarajanagar,"Urban, Chamarajanagar - KSPCB",15-01-2024 01:00:00,11.55358,76.55521,PM2.5,21,38,31
India,Karnataka,Davanagere,"Devaraj Urs Badavane, Davanagere - KSPCB",15-01-2024 01:00:00,14.475800,75.905200,SO2,4,5,5
India,Karnataka,Davanagere,"Devaraj Urs Badavane, Davanagere - KSPCB",15-01-2024 01:00:00,14.475800,75.905200,CO,16,19,16
India,Karnataka,Davanagere,"Devaraj Urs Badavane, Davanagere - KSPCB",15-01-2024 01:00:00,14.475800,75.905200,OZONE,23,31,26
India,Karnataka,Dharwad,"Kalabhavan, Dharwad - KSPCB",15-01-2024 01:00:00,15.459706,75.008381,PM10,65,85,78
India,Karnataka,Dharwad,"Kalabhavan, Dharwad - KSPCB",15-01-2024 01:00:00,15.459706,75.008381,OZONE,2,84,30
India,Karnataka,Gadag,"Panchal Nagar, Gadag - KSPCB",15-01-2024 01:00:00,15.411456,75.638133,PM10,52,81,65
India,Karnataka,Hubballi,"Deshpande Nagar, Hubballi - KSPCB",15-01-2024 01:00:00,15.351773,75.140726,NH3,6,19,11
India,Karnataka,Hubballi,"Lingaraj Nagar, Hubballi - KSPCB",15-01-2024 01:00:00,15.3714823,75.1160168,PM2.5,NA,NA,NA
India,Karnataka,Hubballi,"Lingaraj Nagar, Hubballi - KSPCB",15-01-2024 01:00:00,15.3714823,75.1160168,OZONE,7,108,67
India,Karnataka,Kalaburagi,"Lal Bahadur Shastri Nagar, Kalaburagi - KSPCB",15-01-2024 01:00:00,17.321993,76.822628,OZONE,5,65,26
India,Karnataka,Kalaburagi,"Mahatma Basaveswar Colony, Kalaburgi - KSPCB",15-01-2024 01:00:00,17.336318,76.847397,PM2.5,19,44,29
India,Karnataka,Kalaburagi,"Mahatma Basaveswar Colony, Kalaburgi - KSPCB",15-01-2024 01:00:00,17.336318,76.847397,NH3,2,3,2
India,Karnataka,Kalaburagi,"Mahatma Basaveswar Colony, Kalaburgi - KSPCB",15-01-2024 01:00:00,17.336318,76.847397,CO,34,78,52
India,Karnataka,Karwar,"KHB Colony, Karwar - KSPCB",15-01-2024 01:00:00,14.816666,74.141003,SO2,18,18,18
India,Karnataka,Madikeri,"Stuart Hill, Madikeri - KSPCB",15-01-2024 01:00:00,12.415911,75.735050,PM10,55,80,66
India,Karnataka,Mangalore,"Kadri, Mangalore - KSPCB",15-01-2024 01:00:00,12.889250,74.853000,SO2,20,22,21
India,Karnataka,Mysuru,"Hebbal 1st Stage, Mysuru - KSPCB",15-01-2024 01:00:00,12.21041,76.37376,PM2.5,49,79,63
India,Karnataka,Mysuru,"Hebbal 1st Stage, Mysuru - KSPCB",15-01-2024 01:00:00,12.21041,76.37376,SO2,1,4,2
India,Karnataka,Raichur,"Haji Colony, Raichur - KSPCB",15-01-2024 01:00:00,16.208139,77.348417,SO2,65,96,75
India,Karnataka,Ramanagara,"Vijay Nagar, Ramanagara - KSPCB",15-01-2024 01:00:00,12.733409,77.298051,OZONE,10,12,11
India,Karnataka,Shivamogga,"Vinoba Nagara, Shivamogga - KSPCB",15-01-2024 01:00:00,13.940000,75.555917,PM2.5,33,59,42
India,Karnataka,Shivamogga,"Vinoba Nagara, Shivamogga - KSPCB",15-01-2024 01:00:00,13.940000,75.555917,PM10,41,61,50
India,Karnataka,Yadgir,"Collector Office, Yadgir - KSPCB",15-01-2024 01:00:00,16.7602,77.1428,PM10,49,129,91
India,Karnataka,Yadgir,"Collector Office, Yadgir - KSPCB",15-01-2024 01:00:00,16.7602,77.1428,NH3,1,1,1
India,Kerala,Eloor,"Udyogamandal, Eloor - Kerala PCB",15-01-2024 01:00:00,10.073232,76.302765,PM2.5,38,82,58
India,Kerala,Eloor,"Udyogamandal, Eloor - Kerala PCB",15-01-2024 01:00:00,10.073232,76.302765,NH3,1,1,1
India,Kerala,Kannur,"Thavakkara, Kannur - Kerala PCB",15-01-2024 01:00:00,11.875000,75.373200,PM2.5,44,52,47
India,Kerala,Kannur,"Thavakkara, Kannur - Kerala PCB",15-01-2024 01:00:00,11.875000,75.373200,NH3,1,1,1
India,Kerala,Kollam,"Polayathode, Kollam - Kerala PCB",15-01-2024 01:00:00,8.8787,76.6073,PM10,NA,NA,NA
India,Kerala,Thiruvananthapuram,"Plammoodu, Thiruvananthapuram - Kerala PCB",15-01-2024 01:00:00,8.5149093,76.9435879,PM2.5,NA,NA,NA
India,Kerala,Thiruvananthapuram,"Plammoodu, Thiruvananthapuram - Kerala PCB",15-01-2024 01:00:00,8.5149093,76.9435879,SO2,1,12,6
India,Kerala,Thiruvananthapuram,"Plammoodu, Thiruvananthapuram - Kerala PCB",15-01-2024 01:00:00,8.5149093,76.9435879,OZONE,12,49,14
India,Kerala,Thrissur,"Corporation Ground, Thrissur - Kerala PCB",15-01-2024 01:00:00,10.532400,76.215900,CO,14,136,69
India,Madhya Pradesh,Bhopal,"Idgah Hills, Bhopal - MPPCB",15-01-2024 01:00:00,23.264759,77.381568,NH3,3,6,4
India,Madhya Pradesh,Bhopal,"Idgah Hills, Bhopal - MPPCB",15-01-2024 01:00:00,23.264759,77.381568,SO2,8,51,16
India,Madhya Pradesh,Bhopal,"Paryavaran Parisar, Bhopal - MPPCB",15-01-2024 01:00:00,23.210494,77.425409,PM2.5,43,283,132
India,Madhya Pradesh,Bhopal,"T T Nagar, Bhopal - MPPCB",15-01-2024 01:00:00,23.233584,77.400574,NH3,NA,NA,NA
India,Madhya Pradesh,Damoh,"Shrivastav Colony, Damoh - MPPCB",15-01-2024 01:00:00,23.81748678,79.446246,PM10,33,128,57
India,Madhya Pradesh,Dewas,"Bhopal Chauraha, Dewas - MPPCB",15-01-2024 01:00:00,22.9682591,76.064118,CO,18,73,42
India,Madhya Pradesh,Gwalior,"City Center, Gwalior - MPPCB",15-01-2024 01:00:00,26.203442,78.193251,PM10,40,270,125
India,Madhya Pradesh,Gwalior,"City Center, Gwalior - MPPCB",15-01-2024 01:00:00,26.203442,78.193251,NO2,20,52,32
India,Madhya Pradesh,Gwalior,"Deen Dayal Nagar, Gwalior - MPPCB",15-01-2024 01:00:00,26.259242,78.216432,SO2,16,21,18
India,Madhya Pradesh,Gwalior,"Deen Dayal Nagar, Gwalior - MPPCB",15-01-2024 01:00:00,26.259242,78.216432,CO,46,59,56
India,Madhya Pradesh,Gwalior,"Maharaj Bada, Gwalior - MPPCB",15-01-2024 01:00:00,26.200388,78.147714,PM10,25,353,175
India,Madhya Pradesh,Gwalior,"Maharaj Bada, Gwalior - MPPCB",15-01-2024 01:00:00,26.200388,78.147714,NO2,23,118,55
India,Madhya Pradesh,Gwalior,"Phool Bagh, Gwalior - Mondelez Ind. Food",15-01-2024 01:00:00,26.210536,78.171,PM10,27,169,109
India,Madhya Pradesh,Gwalior,"Phool Bagh, Gwalior - Mondelez Ind. Food",15-01-2024 01:00:00,26.210536,78.171,NO2,4,5,4
India,Madhya Pradesh,Indore,"Chhoti Gwaltoli, Indore - MPPCB",15-01-2024 01:00:00,22.4310,75.5213,PM10,32,316,138
India,Madhya Pradesh,Indore,"Maguda Nagar, Indore - IMC",15-01-2024 01:00:00,22.7524,75.8872,CO,14,57,21
India,Madhya Pradesh,Indore,"Regional Park, Indore - IMC",15-01-2024 01:00:00,22.6780,75.8559,PM10,NA,NA,NA
India,Madhya Pradesh,Jabalpur,"Gupteshwar, Jabalpur - JMC",15-01-2024 01:00:00,23.142888,79.916147,NH3,5,8,6
India,Madhya Pradesh,Jabalpur,"Gupteshwar, Jabalpur - JMC",15-01-2024 01:00:00,23.142888,79.916147,CO,24,100,56
