country,state,city,station,last_update,latitude,longitude,pollutant_id,pollutant_min,pollutant_max,pollutant_avg
India,Andhra_Pradesh,Chittoor,"Gangineni Cheruvu, Chittoor - APPCB",18-04-2024 10:00:00,13.204880,79.097889,SO2,NA,NA,NA
India,Andhra_Pradesh,Rajamahendravaram,"Anand Kala Kshetram, Rajamahendravaram - APPCB",18-04-2024 10:00:00,16.9872867,81.7363176,NH3,2,5,3
India,Andhra_Pradesh,Tirupati,"Tirumala, Tirupati - APPCB",18-04-2024 10:00:00,13.67,79.35,SO2,5,52,18
India,Andhra_Pradesh,Tirupati,"Tirumala, Tirupati - APPCB",18-04-2024 10:00:00,13.67,79.35,OZONE,27,74,36
India,Andhra_Pradesh,Tirupati,"Vaikuntapuram, Tirupati - APPCB",18-04-2024 10:00:00,13.615387,79.409230,NH3,NA,NA,NA
India,Andhra_Pradesh,Visakhapatnam,"GVM Corporation, Visakhapatnam - APPCB",18-04-2024 10:00:00,17.72,83.3,PM2.5,55,83,68
India,Andhra_Pradesh,Visakhapatnam,"GVM Corporation, Visakhapatnam - APPCB",18-04-2024 10:00:00,17.72,83.3,CO,2,103,23
India,Arunachal_Pradesh,Naharlagun,"Naharlagun, Naharlagun - APSPCB",18-04-2024 10:00:00,27.103358,93.679645,PM10,NA,NA,NA
India,Arunachal_Pradesh,Naharlagun,"Naharlagun, Naharlagun - APSPCB",18-04-2024 10:00:00,27.103358,93.679645,NO2,NA,NA,NA
India,Arunachal_Pradesh,Naharlagun,"Naharlagun, Naharlagun - APSPCB",18-04-2024 10:00:00,27.103358,93.679645,OZONE,NA,NA,NA
India,Assam,Guwahati,"IITG, Guwahati - PCBA",18-04-2024 10:00:00,26.2028636,91.70046436,NH3,5,6,5
India,Assam,Guwahati,"LGBI Airport, Guwahati - PCBA",18-04-2024 10:00:00,26.10887,91.589544,CO,35,56,50
India,Assam,Guwahati,"LGBI Airport, Guwahati - PCBA",18-04-2024 10:00:00,26.10887,91.589544,OZONE,1,44,14
India,Assam,Guwahati,"Pan Bazaar, Guwahati - PCBA",18-04-2024 10:00:00,26.187500,91.744194,NH3,3,5,3
India,Assam,Guwahati,"Pan Bazaar, Guwahati - PCBA",18-04-2024 10:00:00,26.187500,91.744194,OZONE,17,18,17
India,Assam,Guwahati,"Railway Colony, Guwahati - PCBA",18-04-2024 10:00:00,26.181742,91.78063,PM10,24,209,70
India,Assam,Nagaon,"Christianpatty, Nagaon - PCBA",18-04-2024 10:00:00,26.349082,92.68449,PM2.5,55,87,68
India,Assam,Nagaon,"Christianpatty, Nagaon - PCBA",18-04-2024 10:00:00,26.349082,92.68449,PM10,62,90,74
India,Assam,Nagaon,"Christianpatty, Nagaon - PCBA",18-04-2024 10:00:00,26.349082,92.68449,NO2,2,12,5
India,Assam,Nagaon,"Christianpatty, Nagaon - PCBA",18-04-2024 10:00:00,26.349082,92.68449,SO2,6,77,30
India,Assam,Nagaon,"Christianpatty, Nagaon - PCBA",18-04-2024 10:00:00,26.349082,92.68449,CO,37,66,45
India,Assam,Nalbari,"Bata Chowk, Nalbari - PCBA",18-04-2024 10:00:00,26.446912,91.439057,SO2,6,12,10
India,Assam,Silchar,"Tarapur, Silchar - PCBA",18-04-2024 10:00:00,24.82827,92.79525,SO2,4,13,8
India,Assam,Silchar,"Tarapur, Silchar - PCBA",18-04-2024 10:00:00,24.82827,92.79525,CO,30,60,41
India,Assam,Sivasagar,"Girls College, Sivasagar - PCBA",18-04-2024 10:00:00,26.987634,94.636574,PM10,38,59,48
India,Assam,Sivasagar,"Girls College, Sivasagar - PCBA",18-04-2024 10:00:00,26.987634,94.636574,SO2,4,6,4
India,Assam,Sivasagar,"Girls College, Sivasagar - PCBA",18-04-2024 10:00:00,26.987634,94.636574,CO,2,8,7
India,Bihar,Araria,"Kharahiya Basti, Araria - BSPCB",18-04-2024 10:00:00,26.146529,87.454184,PM2.5,51,233,94
India,Bihar,Arrah,"New DM Office, Arrah - BSPCB",18-04-2024 10:00:00,25.5626095,84.663264,PM2.5,NA,NA,NA
India,Bihar,Arrah,"New DM Office, Arrah - BSPCB",18-04-2024 10:00:00,25.5626095,84.663264,PM10,NA,NA,NA
India,Bihar,Aurangabad,"Gurdeo Nagar, Aurangabad - BSPCB",18-04-2024 10:00:00,24.75746,84.366208,OZONE,26,92,50
India,Bihar,Bhagalpur,"DM Office_Kachari Chowk, Bhagalpur - BSPCB",18-04-2024 10:00:00,25.251013,86.989001,NO2,41,112,83
India,Bihar,Bhagalpur,"DM Office_Kachari Chowk, Bhagalpur - BSPCB",18-04-2024 10:00:00,25.251013,86.989001,NH3,5,7,6
India,Bihar,Bhagalpur,"DM Office_Kachari Chowk, Bhagalpur - BSPCB",18-04-2024 10:00:00,25.251013,86.989001,CO,44,87,50
India,Bihar,Bhagalpur,"Mayaganj, Bhagalpur - BSPCB",18-04-2024 10:00:00,25.265194,87.012947,PM10,48,129,79
India,Bihar,Bhagalpur,"Mayaganj, Bhagalpur - BSPCB",18-04-2024 10:00:00,25.265194,87.012947,NH3,7,10,8
India,Bihar,Bihar Sharif,"D M Colony, Bihar Sharif - BSPCB",18-04-2024 10:00:00,25.204762,85.514960,PM2.5,42,70,53
India,Bihar,Bihar Sharif,"D M Colony, Bihar Sharif - BSPCB",18-04-2024 10:00:00,25.204762,85.514960,SO2,1,15,10
India,Bihar,Chhapra,"Darshan Nagar, Chhapra - BSPCB",18-04-2024 10:00:00,25.7808257,84.7446768,SO2,9,113,45
India,Bihar,Gaya,"Collectorate, Gaya - BSPCB",18-04-2024 10:00:00,24.7955,84.9994,SO2,NA,NA,NA
India,Bihar,Gaya,"Kareemganj, Gaya - BSPCB",18-04-2024 10:00:00,24.792403,84.992416,OZONE,4,28,9
India,Bihar,Gaya,"SFTI Kusdihra, Gaya - BSPCB",18-04-2024 10:00:00,24.762518,84.982348,PM2.5,NA,NA,NA
India,Bihar,Gaya,"SFTI Kusdihra, Gaya - BSPCB",18-04-2024 10:00:00,24.762518,84.982348,NO2,9,70,35
India,Bihar,Hajipur,"Industrial Area, Hajipur - BSPCB",18-04-2024 10:00:00,25.697189,85.245900,SO2,4,8,6
India,Bihar,Katihar,"Mirchaibari, Katihar - BSPCB",18-04-2024 10:00:00,25.560083,87.553265,NH3,4,9,7
India,Bihar,Kishanganj,"SDM Office_Khagra, Kishanganj - BSPCB",18-04-2024 10:00:00,26.0881305,87.93840336,PM2.5,50,300,103
India,Bihar,Kishanganj,"SDM Office_Khagra, Kishanganj - BSPCB",18-04-2024 10:00:00,26.0881305,87.93840336,PM10,107,464,204
India,Bihar,Kishanganj,"SDM Office_Khagra, Kishanganj - BSPCB",18-04-2024 10:00:00,26.0881305,87.93840336,NO2,28,32,30
India,Bihar,Kishanganj,"SDM Office_Khagra, Kishanganj - BSPCB",18-04-2024 10:00:00,26.0881305,87.93840336,CO,2,14,6
India,Bihar,Manguraha,"Forest Rest House, Manguraha - BSPCB",18-04-2024 10:00:00,27.308328,84.531742,PM2.5,37,143,70
India,Bihar,Manguraha,"Forest Rest House, Manguraha - BSPCB",18-04-2024 10:00:00,27.308328,84.531742,OZONE,26,84,31
India,Bihar,Motihari,"Gandak Colony, Motihari - BSPCB",18-04-2024 10:00:00,26.63086,84.90051,PM10,32,128,75
India,Bihar,Motihari,"Gandak Colony, Motihari - BSPCB",18-04-2024 10:00:00,26.63086,84.90051,NH3,6,18,14
India,Bihar,Motihari,"Gandak Colony, Motihari - BSPCB",18-04-2024 10:00:00,26.63086,84.90051,CO,1,16,8
India,Bihar,Munger,"Town Hall, Munger - BSPCB",18-04-2024 10:00:00,25.376776,86.471523,NO2,6,9,8
India,Bihar,Munger,"Town Hall, Munger - BSPCB",18-04-2024 10:00:00,25.376776,86.471523,SO2,10,18,14
India,Bihar,Muzaffarpur,"Buddha Colony, Muzaffarpur - BSPCB",18-04-2024 10:00:00,26.11442,85.39813,PM10,176,400,268
India,Bihar,Muzaffarpur,"MIT-Daudpur Kothi, Muzaffarpur - BSPCB",18-04-2024 10:00:00,26.1403345,85.3650192,NH3,NA,NA,NA
India,Bihar,Muzaffarpur,"MIT-Daudpur Kothi, Muzaffarpur - BSPCB",18-04-2024 10:00:00,26.1403345,85.3650192,OZONE,NA,NA,NA
India,Bihar,Muzaffarpur,"Muzaffarpur Collectorate, Muzaffarpur - BSPCB",18-04-2024 10:00:00,26.1209,85.3647,NO2,5,272,69
India,Bihar,Patna,"Govt. High School Shikarpur, Patna - BSPCB",18-04-2024 10:00:00,25.592539,85.227158,PM10,141,454,217
India,Bihar,Patna,"Govt. High School Shikarpur, Patna - BSPCB",18-04-2024 10:00:00,25.592539,85.227158,NO2,16,20,18
India,Bihar,Patna,"Govt. High School Shikarpur, Patna - BSPCB",18-04-2024 10:00:00,25.592539,85.227158,OZONE,1,59,7
India,Bihar,Patna,"Muradpur, Patna - BSPCB",18-04-2024 10:00:00,25.619651,85.147382,CO,5,45,27
India,Bihar,Patna,"Muradpur, Patna - BSPCB",18-04-2024 10:00:00,25.619651,85.147382,OZONE,13,91,41
India,Bihar,Patna,"Rajbansi Nagar, Patna - BSPCB",18-04-2024 10:00:00,25.599486,85.113666,SO2,1,23,15
India,Bihar,Patna,"Samanpura, Patna - BSPCB",18-04-2024 10:00:00,25.596727,85.085624,PM2.5,71,303,137
India,Bihar,Patna,"Samanpura, Patna - BSPCB",18-04-2024 10:00:00,25.596727,85.085624,PM10,187,402,274
India,Bihar,Patna,"Samanpura, Patna - BSPCB",18-04-2024 10:00:00,25.596727,85.085624,SO2,7,12,9
India,Bihar,Purnia,"Mariam Nagar, Purnia - BSPCB",18-04-2024 10:00:00,25.366336,87.117468,PM2.5,15,100,54
India,Bihar,Purnia,"Mariam Nagar, Purnia - BSPCB",18-04-2024 10:00:00,25.366336,87.117468,NO2,3,9,7
India,Bihar,Purnia,"Mariam Nagar, Purnia - BSPCB",18-04-2024 10:00:00,25.366336,87.117468,OZONE,1,13,4
India,Bihar,Rajgir,"Dangi Tola, Rajgir - BSPCB",18-04-2024 10:00:00,25.03280,85.41948,NO2,18,24,20
India,Bihar,Saharsa,"Police Line, Saharsa - BSPCB",18-04-2024 10:00:00,25.892357,86.590325,NO2,1,2,1
India,Bihar,Samastipur,"DM Office_Kasipur, Samastipur - BSPCB",18-04-2024 10:00:00,25.859655,85.77944,CO,17,22,22
India,Bihar,Sasaram,"Dada Peer, Sasaram - BSPCB",18-04-2024 10:00:00,24.952822,84.002396,NH3,7,11,9
India,Bihar,Sasaram,"Dada Peer, Sasaram - BSPCB",18-04-2024 10:00:00,24.952822,84.002396,OZONE,6,81,58
India,Chandigarh,Chandigarh,"Sector 22, Chandigarh - CPCC",18-04-2024 10:00:00,30.735567,76.775714,PM2.5,NA,NA,NA
India,Chandigarh,Chandigarh,"Sector 22, Chandigarh - CPCC",18-04-2024 10:00:00,30.735567,76.775714,PM10,NA,NA,NA
India,Chandigarh,Chandigarh,"Sector 22, Chandigarh - CPCC",18-04-2024 10:00:00,30.735567,76.775714,NH3,NA,NA,NA
India,Chandigarh,Chandigarh,"Sector-25, Chandigarh - CPCC",18-04-2024 10:00:00,30.751462,76.762879,NH3,8,16,12
India,Chandigarh,Chandigarh,"Sector-25, Chandigarh - CPCC",18-04-2024 10:00:00,30.751462,76.762879,CO,10,25,20
India,Chhattisgarh,Bhilai,"32Bungalows, Bhilai - CECB",18-04-2024 10:00:00,21.194815,81.314770,PM2.5,16,48,26
India,Chhattisgarh,Bhilai,"Civic Center, Bhilai - Bhilai Steel Plant",18-04-2024 10:00:00,21.185571,81.343175,SO2,7,12,10
India,Chhattisgarh,Bhilai,"Civic Center, Bhilai - Bhilai Steel Plant",18-04-2024 10:00:00,21.185571,81.343175,OZONE,8,59,15
India,Chhattisgarh,Bhilai,"Hathkhoj, Bhilai - CECB",18-04-2024 10:00:00,21.224231,81.408350,NH3,7,8,7
India,Chhattisgarh,Chhal,"Nawapara SECL Colony, Chhal - CECB",18-04-2024 10:00:00,22.118125,83.140608,NO2,12,46,27
India,Chhattisgarh,Chhal,"Nawapara SECL Colony, Chhal - CECB",18-04-2024 10:00:00,22.118125,83.140608,NH3,2,2,2
India,Chhattisgarh,Korba,"Rampur, Korba - CECB",18-04-2024 10:00:00,22.368195,82.746431,PM2.5,NA,NA,NA
India,Chhattisgarh,Korba,"Rampur, Korba - CECB",18-04-2024 10:00:00,22.368195,82.746431,NO2,NA,NA,NA
India,Chhattisgarh,Korba,"Rampur, Korba - CECB",18-04-2024 10:00:00,22.368195,82.746431,NH3,NA,NA,NA
India,Chhattisgarh,Korba,"Rampur, Korba - CECB",18-04-2024 10:00:00,22.368195,82.746431,CO,24,24,24
India,Chhattisgarh,Korba,"Urja Nagar, Korba - CECB",18-04-2024 10:00:00,22.348441,82.549611,PM10,26,204,49
India,Chhattisgarh,Korba,"Urja Nagar, Korba - CECB",18-04-2024 10:00:00,22.348441,82.549611,CO,15,44,34
India,Chhattisgarh,Kunjemura,"OP Jindal School, Kunjemura - CECB",18-04-2024 10:00:00,22.126650,83.483212,PM10,60,450,181
India,Chhattisgarh,Kunjemura,"OP Jindal School, Kunjemura - CECB",18-04-2024 10:00:00,22.126650,83.483212,NO2,12,96,46
India,Chhattisgarh,Kunjemura,"OP Jindal School, Kunjemura - CECB",18-04-2024 10:00:00,22.126650,83.483212,NH3,1,7,3
India,Chhattisgarh,Raipur,"AIIMS, Raipur - CECB",18-04-2024 10:00:00,21.258815,81.578979,PM2.5,25,88,41
India,Chhattisgarh,Raipur,"Bhatagaon New ISBT, Raipur - CECB",18-04-2024 10:00:00,21.219665,81.630094,NO2,28,52,37
India,Chhattisgarh,Raipur,"Bhatagaon New ISBT, Raipur - CECB",18-04-2024 10:00:00,21.219665,81.630094,NH3,2,2,2
India,Chhattisgarh,Raipur,"Krishak Nagar, Raipur - CECB",18-04-2024 10:00:00,21.237755,81.705301,NO2,1,2,1
India,Chhattisgarh,Raipur,"Krishak Nagar, Raipur - CECB",18-04-2024 10:00:00,21.237755,81.705301,NH3,1,1,1
India,Chhattisgarh,Raipur,"Krishak Nagar, Raipur - CECB",18-04-2024 10:00:00,21.237755,81.705301,CO,26,54,49
India,Chhattisgarh,Raipur,"Siltara Phase-II, Raipur - CECB",18-04-2024 10:00:00,21.371751,81.664929,PM10,NA,NA,NA
India,Chhattisgarh,Tumidih,"OP Jindal Industrial Park, Tumidih - CECB",18-04-2024 10:00:00,22.06631475,83.33820077,NO2,16,74,37
India,Delhi,Delhi,"Alipur, Delhi - DPCC",18-04-2024 10:00:00,28.815329,77.153010,PM2.5,15,227,63
India,Delhi,Delhi,"Alipur, Delhi - DPCC",18-04-2024 10:00:00,28.815329,77.153010,NH3,4,7,5
India,Delhi,Delhi,"Alipur, Delhi - DPCC",18-04-2024 10:00:00,28.815329,77.153010,OZONE,34,151,37
India,Delhi,Delhi,"Ashok Vihar, Delhi - DPCC",18-04-2024 10:00:00,28.695381,77.181665,NO2,10,79,37
India,Delhi,Delhi,"Aya Nagar, Delhi - IMD",18-04-2024 10:00:00,28.4706914,77.1099364,NO2,NA,NA,NA
India,Delhi,Delhi,"CRRI Mathura Road, Delhi - IMD",18-04-2024 10:00:00,28.5512005,77.2735737,PM2.5,NA,NA,NA
India,Delhi,Delhi,"CRRI Mathura Road, Delhi - IMD",18-04-2024 10:00:00,28.5512005,77.2735737,PM10,NA,NA,NA
India,Delhi,Delhi,"CRRI Mathura Road, Delhi - IMD",18-04-2024 10:00:00,28.5512005,77.2735737,NO2,NA,NA,NA
India,Delhi,Delhi,"Chandni Chowk, Delhi - IITM",18-04-2024 10:00:00,28.656756,77.227234,CO,38,50,38
India,Delhi,Delhi,"DTU, Delhi - CPCB",18-04-2024 10:00:00,28.7500499,77.1112615,OZONE,26,164,38
India,Delhi,Delhi,"Dr. Karni Singh Shooting Range, Delhi - DPCC",18-04-2024 10:00:00,28.498571,77.264840,PM10,98,249,157
India,Delhi,Delhi,"IGI Airport (T3), Delhi - IMD",18-04-2024 10:00:00,28.5627763,77.1180053,PM2.5,23,285,105
India,Delhi,Delhi,"IGI Airport (T3), Delhi - IMD",18-04-2024 10:00:00,28.5627763,77.1180053,PM10,108,232,161
India,Delhi,Delhi,"IHBAS, Dilshad Garden, Delhi - CPCB",18-04-2024 10:00:00,28.6811736,77.3025234,NH3,7,10,9
India,Delhi,Delhi,"IHBAS, Dilshad Garden, Delhi - CPCB",18-04-2024 10:00:00,28.6811736,77.3025234,CO,20,51,33
India,Delhi,Delhi,"ITO, Delhi - CPCB",18-04-2024 10:00:00,28.628624,77.241060,SO2,5,31,19
India,Delhi,Delhi,"Jahangirpuri, Delhi - DPCC",18-04-2024 10:00:00,28.732820,77.170633,PM10,128,285,192
India,Delhi,Delhi,"Jahangirpuri, Delhi - DPCC",18-04-2024 10:00:00,28.732820,77.170633,NH3,23,29,26
India,Delhi,Delhi,"Jawaharlal Nehru Stadium, Delhi - DPCC",18-04-2024 10:00:00,28.580280,77.233829,PM2.5,13,213,61
India,Delhi,Delhi,"Jawaharlal Nehru Stadium, Delhi - DPCC",18-04-2024 10:00:00,28.580280,77.233829,PM10,103,243,147
India,Delhi,Delhi,"Jawaharlal Nehru Stadium, Delhi - DPCC",18-04-2024 10:00:00,28.580280,77.233829,NO2,24,104,57
India,Delhi,Delhi,"Jawaharlal Nehru Stadium, Delhi - DPCC",18-04-2024 10:00:00,28.580280,77.233829,SO2,6,57,21
India,Delhi,Delhi,"Lodhi Road, Delhi - IITM",18-04-2024 10:00:00,28.588333,77.221667,PM2.5,64,299,146
India,Delhi,Delhi,"Lodhi Road, Delhi - IITM",18-04-2024 10:00:00,28.588333,77.221667,PM10,68,142,104
India,Delhi,Delhi,"Major Dhyan Chand National Stadium, Delhi - DPCC",18-04-2024 10:00:00,28.611281,77.237738,SO2,9,13,10
India,Delhi,Delhi,"NSIT Dwarka, Delhi - CPCB",18-04-2024 10:00:00,28.60909,77.0325413,PM10,132,328,183
India,Delhi,Delhi,"NSIT Dwarka, Delhi - CPCB",18-04-2024 10:00:00,28.60909,77.0325413,NO2,39,50,45
India,Delhi,Delhi,"NSIT Dwarka, Delhi - CPCB",18-04-2024 10:00:00,28.60909,77.0325413,CO,24,50,32
India,Delhi,Delhi,"Najafgarh, Delhi - DPCC",18-04-2024 10:00:00,28.570173,76.933762,NO2,7,42,18
India,Delhi,Delhi,"Nehru Nagar, Delhi - DPCC",18-04-2024 10:00:00,28.567890,77.250515,NO2,7,14,10
India,Delhi,Delhi,"Nehru Nagar, Delhi - DPCC",18-04-2024 10:00:00,28.567890,77.250515,NH3,2,3,2
India,Delhi,Delhi,"Nehru Nagar, Delhi - DPCC",18-04-2024 10:00:00,28.567890,77.250515,OZONE,1,151,32
India,Delhi,Delhi,"New Moti Bagh, Delhi - MHUA",18-04-2024 10:00:00,28.57834,77.18400,CO,16,74,54
India,Delhi,Delhi,"Patparganj, Delhi - DPCC",18-04-2024 10:00:00,28.623763,77.287209,SO2,2,9,6
India,Delhi,Delhi,"Punjabi Bagh, Delhi - DPCC",18-04-2024 10:00:00,28.674045,77.131023,NH3,4,5,4
India,Delhi,Delhi,"Punjabi Bagh, Delhi - DPCC",18-04-2024 10:00:00,28.674045,77.131023,OZONE,3,30,8
India,Delhi,Delhi,"Pusa, Delhi - IMD",18-04-2024 10:00:00,28.636110,77.173332,NO2,NA,NA,NA
India,Delhi,Delhi,"R K Puram, Delhi - DPCC",18-04-2024 10:00:00,28.563262,77.186937,NH3,5,8,6
India,Delhi,Delhi,"Rohini, Delhi - DPCC",18-04-2024 10:00:00,28.732528,77.119920,SO2,5,75,24
India,Delhi,Delhi,"Rohini, Delhi - DPCC",18-04-2024 10:00:00,28.732528,77.119920,CO,17,50,38
India,Delhi,Delhi,"Shadipur, Delhi - CPCB",18-04-2024 10:00:00,28.6514781,77.1473105,SO2,12,23,18
India,Delhi,Delhi,"Sonia Vihar, Delhi - DPCC",18-04-2024 10:00:00,28.710508,77.249485,NH3,4,6,5
India,Delhi,Delhi,"Sri Aurobindo Marg, Delhi - DPCC",18-04-2024 10:00:00,28.531346,77.190156,NH3,6,8,7
India,Delhi,Delhi,"Vivek Vihar, Delhi - DPCC",18-04-2024 10:00:00,28.672342,77.315260,NH3,15,16,15
India,Delhi,Delhi,"Vivek Vihar, Delhi - DPCC",18-04-2024 10:00:00,28.672342,77.315260,OZONE,18,95,36
India,Delhi,Delhi,"Wazirpur, Delhi - DPCC",18-04-2024 10:00:00,28.699793,77.165453,PM2.5,30,261,97
India,Delhi,Delhi,"Wazirpur, Delhi - DPCC",18-04-2024 10:00:00,28.699793,77.165453,NO2,22,63,40
India,Delhi,Delhi,"Wazirpur, Delhi - DPCC",18-04-2024 10:00:00,28.699793,77.165453,NH3,12,13,12
India,Gujarat,Ahmedabad,"Chandkheda, Ahmedabad - IITM",18-04-2024 10:00:00,23.107969,72.574648,PM2.5,53,319,117
India,Gujarat,Ahmedabad,"Chandkheda, Ahmedabad - IITM",18-04-2024 10:00:00,23.107969,72.574648,PM10,55,196,98
India,Gujarat,Ahmedabad,"Chandkheda, Ahmedabad - IITM",18-04-2024 10:00:00,23.107969,72.574648,CO,80,116,101
India,Gujarat,Ahmedabad,"Chandkheda, Ahmedabad - IITM",18-04-2024 10:00:00,23.107969,72.574648,OZONE,9,60,17
India,Gujarat,Ahmedabad,"Gyaspur, Ahmedabad - IITM",18-04-2024 10:00:00,22.977134,72.553024,PM10,57,200,108
India,Gujarat,Ahmedabad,"Gyaspur, Ahmedabad - IITM",18-04-2024 10:00:00,22.977134,72.553024,CO,1,76,3
India,Gujarat,Ahmedabad,"Raikhad, Ahmedabad - IITM",18-04-2024 10:00:00,23.020509,72.579261,PM10,NA,NA,NA
India,Gujarat,Ahmedabad,"Raikhad, Ahmedabad - IITM",18-04-2024 10:00:00,23.020509,72.579261,OZONE,6,58,11
India,Gujarat,Ahmedabad,"Rakhial, Ahmedabad - IITM",18-04-2024 10:00:00,23.016834,72.625775,NO2,6,28,12
India,Gujarat,Ahmedabad,"SAC ISRO Satellite, Ahmedabad - IITM",18-04-2024 10:00:00,23.023389,72.515201,PM2.5,126,138,128
India,Gujarat,Ahmedabad,"SAC ISRO Satellite, Ahmedabad - IITM",18-04-2024 10:00:00,23.023389,72.515201,NO2,17,17,17
India,Gujarat,Ahmedabad,"SVPI Airport Hansol, Ahmedabad - IITM",18-04-2024 10:00:00,23.076793,72.627874,NO2,14,18,16
India,Gujarat,Ahmedabad,"SVPI Airport Hansol, Ahmedabad - IITM",18-04-2024 10:00:00,23.076793,72.627874,SO2,2,8,5
India,Gujarat,Ahmedabad,"SVPI Airport Hansol, Ahmedabad - IITM",18-04-2024 10:00:00,23.076793,72.627874,OZONE,7,39,14
India,Gujarat,Ahmedabad,"Sardar Vallabhbhai Patel Stadium, Ahmedabad - IITM",18-04-2024 10:00:00,23.043070,72.562968,SO2,3,42,11
India,Gujarat,Ahmedabad,"Sardar Vallabhbhai Patel Stadium, Ahmedabad - IITM",18-04-2024 10:00:00,23.043070,72.562968,OZONE,3,19,9
India,Gujarat,Ankleshwar,"GIDC, Ankleshwar - GPCB",18-04-2024 10:00:00,21.613267,73.010555,NH3,7,7,7
India,Gujarat,Gandhinagar,"IIPHG Lekawada, Gandhinagar - IITM",18-04-2024 10:00:00,23.243639,72.68994,NO2,31,49,39
India,Gujarat,Gandhinagar,"Sector-10, Gandhinagar - GPCB",18-04-2024 10:00:00,23.221714,72.654328,NO2,17,28,19
India,Gujarat,Surat,"Science Center, Surat - SMC",18-04-2024 10:00:00,21.170046,72.795405,NO2,30,52,40
India,Gujarat,Vatva,"Phase-4 GIDC, Vatva - GPCB",18-04-2024 10:00:00,22.969611,72.643500,NH3,1,20,4
India,Gujarat,Vatva,"Phase-4 GIDC, Vatva - GPCB",18-04-2024 10:00:00,22.969611,72.643500,OZONE,NA,NA,NA
India,Haryana,Ambala,"Patti Mehar, Ambala - HSPCB",18-04-2024 10:00:00,30.379589,76.778328,NO2,3,5,4
India,Haryana,Ambala,"Patti Mehar, Ambala - HSPCB",18-04-2024 10:00:00,30.379589,76.778328,OZONE,29,50,32
India,Haryana,Bahadurgarh,"Arya Nagar, Bahadurgarh - HSPCB",18-04-2024 10:00:00,28.6701,76.9254,PM10,71,202,119
India,Haryana,Ballabgarh,"Nathu Colony, Ballabgarh - HSPCB",18-04-2024 10:00:00,28.3419248,77.319699,NH3,1,3,2
India,Haryana,Ballabgarh,"Nathu Colony, Ballabgarh - HSPCB",18-04-2024 10:00:00,28.3419248,77.319699,OZONE,6,21,10
India,Haryana,Bhiwani,"H.B. Colony, Bhiwani - HSPCB",18-04-2024 10:00:00,28.806223,76.141105,OZONE,28,98,31
India,Haryana,Charkhi Dadri,"Mini Secretariat, Charkhi Dadri - HSPCB",18-04-2024 10:00:00,28.593883,76.270653,PM10,52,178,114
India,Haryana,Charkhi Dadri,"Mini Secretariat, Charkhi Dadri - HSPCB",18-04-2024 10:00:00,28.593883,76.270653,NO2,15,22,18
India,Haryana,Charkhi Dadri,"Mini Secretariat, Charkhi Dadri - HSPCB",18-04-2024 10:00:00,28.593883,76.270653,NH3,6,8,7
India,Haryana,Charkhi Dadri,"Mini Secretariat, Charkhi Dadri - HSPCB",18-04-2024 10:00:00,28.593883,76.270653,OZONE,13,17,15
India,Haryana,Dharuhera,"Municipal Corporation Office, Dharuhera -  HSPCB",18-04-2024 10:00:00,28.206800,76.799700,PM2.5,40,198,85
India,Haryana,Faridabad,"Sector 11, Faridabad - HSPCB",18-04-2024 10:00:00,28.376058,77.315741,NH3,6,6,6
India,Haryana,Fatehabad,"Huda Sector, Fatehabad - HSPCB",18-04-2024 10:00:00,29.503664,75.467934,NH3,10,11,10
India,Haryana,Fatehabad,"Huda Sector, Fatehabad - HSPCB",18-04-2024 10:00:00,29.503664,75.467934,SO2,10,11,11
India,Haryana,Gurugram,"Sector-51, Gurugram - HSPCB",18-04-2024 10:00:00,28.4227,77.0667,PM2.5,195,345,270
India,Haryana,Gurugram,"Sector-51, Gurugram - HSPCB",18-04-2024 10:00:00,28.4227,77.0667,NH3,7,14,9
India,Haryana,Gurugram,"Sector-51, Gurugram - HSPCB",18-04-2024 10:00:00,28.4227,77.0667,SO2,3,4,3
India,Haryana,Gurugram,"Sector-51, Gurugram - HSPCB",18-04-2024 10:00:00,28.4227,77.0667,CO,28,41,37
India,Haryana,Gurugram,"Teri Gram, Gurugram - HSPCB",18-04-2024 10:00:00,28.4275,77.1465,PM2.5,127,339,233
India,Haryana,Gurugram,"Teri Gram, Gurugram - HSPCB",18-04-2024 10:00:00,28.4275,77.1465,CO,14,25,19
India,Haryana,Kaithal,"Rishi Nagar, Kaithal - HSPCB",18-04-2024 10:00:00,29.8006,76.4155,NH3,7,8,8
India,Haryana,Mandikhera,"General Hospital, Mandikhera - HSPCB",18-04-2024 10:00:00,27.9002,76.9938,SO2,30,37,34
India,Haryana,Mandikhera,"General Hospital, Mandikhera - HSPCB",18-04-2024 10:00:00,27.9002,76.9938,OZONE,23,31,27
India,Haryana,Narnaul,"Shastri Nagar, Narnaul - HSPCB",18-04-2024 10:00:00,28.060249,76.113115,PM10,37,92,61
India,Haryana,Palwal,"Shyam Nagar, Palwal - HSPCB",18-04-2024 10:00:00,28.1485564,77.3320667,OZONE,15,32,24
India,Haryana,Panchkula,"Sector-6, Panchkula - HSPCB ",18-04-2024 10:00:00,30.7057778,76.8531805555555,NO2,8,11,10
India,Haryana,Panchkula,"Sector-6, Panchkula - HSPCB ",18-04-2024 10:00:00,30.7057778,76.8531805555555,CO,6,19,13
India,Haryana,Panipat,"Sector-18, Panipat - HSPCB",18-04-2024 10:00:00,29.497973,76.993331,OZONE,30,30,30
India,Haryana,Rohtak,"MD University, Rohtak - HSPCB",18-04-2024 10:00:00,28.52123,76.37138,PM2.5,8,500,173
India,Haryana,Rohtak,"MD University, Rohtak - HSPCB",18-04-2024 10:00:00,28.52123,76.37138,SO2,5,8,6
India,Haryana,Rohtak,"MD University, Rohtak - HSPCB",18-04-2024 10:00:00,28.52123,76.37138,CO,4,54,45
India,Haryana,Sirsa,"F-Block, Sirsa - HSPCB",18-04-2024 10:00:00,29.536400,75.015800,CO,51,74,67
India,Haryana,Sonipat,"Murthal, Sonipat - HSPCB",18-04-2024 10:00:00,29.027200,77.062100,NO2,37,44,40
India,Haryana,Yamuna Nagar,"Gobind Pura, Yamuna Nagar - HSPCB",18-04-2024 10:00:00,30.1480566,77.2893471,CO,27,54,45
India,Himachal Pradesh,Baddi,"HIMUDA Complex Phase-1, Baddi - HPPCB",18-04-2024 10:00:00,30.943887,76.801991,SO2,11,71,34
India,Jharkhand,Dhanbad,"Kalakusuma, Dhanbad - DMC",18-04-2024 10:00:00,23.811548,86.481238,NO2,NA,NA,NA
India,Jharkhand,Dhanbad,"Sardar Patel Nagar, Dhanbad - JSPCB",18-04-2024 10:00:00,23.80569,86.44268,CO,NA,NA,NA
India,Karnataka,Belgaum,"Ramteerth Nagar, Belgaum - KSPCB",18-04-2024 10:00:00,15.888653,74.541751,NO2,4,44,20
India,Karnataka,Bengaluru,"Bapuji Nagar, Bengaluru - KSPCB",18-04-2024 10:00:00,12.951913,77.539784,PM10,69,122,92
India,Karnataka,Bengaluru,"Jayanagar 5th Block, Bengaluru - KSPCB",18-04-2024 10:00:00,12.920984,77.584908,PM10,58,158,98
India,Karnataka,Bengaluru,"Jayanagar 5th Block, Bengaluru - KSPCB",18-04-2024 10:00:00,12.920984,77.584908,NH3,NA,NA,NA
India,Karnataka,Bengaluru,"Jayanagar 5th Block, Bengaluru - KSPCB",18-04-2024 10:00:00,12.920984,77.584908,SO2,8,21,16
India,Karnataka,Bengaluru,"Kasturi Nagar, Bengaluru - KSPCB",18-04-2024 10:00:00,13.003872,77.664217,PM2.5,21,202,99
India,Karnataka,Bengaluru,"Kasturi Nagar, Bengaluru - KSPCB",18-04-2024 10:00:00,13.003872,77.664217,PM10,28,159,108
India,Karnataka,Bengaluru,"Peenya, Bengaluru - CPCB",18-04-2024 10:00:00,13.0270199,77.494094,PM2.5,27,172,76
India,Karnataka,Bengaluru,"Peenya, Bengaluru - CPCB",18-04-2024 10:00:00,13.0270199,77.494094,NH3,4,6,4
India,Karnataka,Bengaluru,"Peenya, Bengaluru - CPCB",18-04-2024 10:00:00,13.0270199,77.494094,CO,29,49,37
India,Karnataka,Bengaluru,"Peenya, Bengaluru - CPCB",18-04-2024 10:00:00,13.0270199,77.494094,OZONE,10,58,11
India,Karnataka,Bengaluru,"Sanegurava Halli, Bengaluru - KSPCB",18-04-2024 10:00:00,12.990328,77.5431385,PM10,34,103,60
India,Karnataka,Bengaluru,"Shivapura_Peenya, Bengaluru - KSPCB",18-04-2024 10:00:00,13.0246342,77.5080115,SO2,3,16,8
India,Karnataka,Bengaluru,"Silk Board, Bengaluru - KSPCB",18-04-2024 10:00:00,12.917348,77.622813,NO2,8,26,14
India,Karnataka,Bengaluru,"Silk Board, Bengaluru - KSPCB",18-04-2024 10:00:00,12.917348,77.622813,CO,10,50,23
India,Karnataka,Bidar,"Naubad, Bidar - KSPCB",18-04-2024 10:00:00,17.930306,77.482194,NO2,7,10,8
India,Karnataka,Chamarajanagar,"Urban, Chamarajanagar - KSPCB",18-04-2024 10:00:00,11.55358,76.55521,SO2,2,8,4
India,Karnataka,Chamarajanagar,"Urban, Chamarajanagar - KSPCB",18-04-2024 10:00:00,11.55358,76.55521,OZONE,14,36,15
India,Karnataka,Chikkaballapur,"Chikkaballapur Rural, Chikkaballapur - KSPCB",18-04-2024 10:00:00,13.428828,77.731418,PM10,61,131,80
India,Karnataka,Chikkamagaluru,"Kalyana Nagara, Chikkamagaluru - KSPCB",18-04-2024 10:00:00,13.328028,75.797056,OZONE,16,45,18
India,Karnataka,Davanagere,"Devaraj Urs Badavane, Davanagere - KSPCB",18-04-2024 10:00:00,14.475800,75.905200,NO2,NA,NA,NA
India,Karnataka,Davanagere,"Devaraj Urs Badavane, Davanagere - KSPCB",18-04-2024 10:00:00,14.475800,75.905200,SO2,NA,NA,NA
India,Karnataka,Dharwad,"Kalabhavan, Dharwad - KSPCB",18-04-2024 10:00:00,15.459706,75.008381,SO2,2,25,5
India,Karnataka,Dharwad,"Kalabhavan, Dharwad - KSPCB",18-04-2024 10:00:00,15.459706,75.008381,CO,30,108,54
India,Karnataka,Gadag,"Panchal Nagar, Gadag - KSPCB",18-04-2024 10:00:00,15.411456,75.638133,PM10,NA,NA,NA
India,Karnataka,Hassan,"B.Katihalli, Hassan - KSPCB",18-04-2024 10:00:00,13.008556,76.125258,PM10,37,103,54
India,Karnataka,Hassan,"B.Katihalli, Hassan - KSPCB",18-04-2024 10:00:00,13.008556,76.125258,CO,12,24,18
India,Karnataka,Haveri,"Ashwini Nagar, Haveri - KSPCB",18-04-2024 10:00:00,14.791800,75.389600,NH3,3,3,3
India,Karnataka,Haveri,"Ashwini Nagar, Haveri - KSPCB",18-04-2024 10:00:00,14.791800,75.389600,OZONE,18,21,19
India,Karnataka,Hubballi,"Deshpande Nagar, Hubballi - KSPCB",18-04-2024 10:00:00,15.351773,75.140726,PM10,NA,NA,NA
India,Karnataka,Kalaburagi,"Mahatma Basaveswar Colony, Kalaburgi - KSPCB",18-04-2024 10:00:00,17.336318,76.847397,PM2.5,NA,NA,NA
India,Karnataka,Kalaburagi,"Mahatma Basaveswar Colony, Kalaburgi - KSPCB",18-04-2024 10:00:00,17.336318,76.847397,NO2,NA,NA,NA
India,Karnataka,Karwar,"KHB Colony, Karwar - KSPCB",18-04-2024 10:00:00,14.816666,74.141003,PM2.5,32,123,58
India,Karnataka,Karwar,"KHB Colony, Karwar - KSPCB",18-04-2024 10:00:00,14.816666,74.141003,PM10,38,118,67
India,Karnataka,Koppal,"Diwator Nagar, Koppal - KSPCB",18-04-2024 10:00:00,15.347630,76.181767,SO2,NA,NA,NA
India,Karnataka,Koppal,"Diwator Nagar, Koppal - KSPCB",18-04-2024 10:00:00,15.347630,76.181767,CO,124,126,126
India,Karnataka,Madikeri,"Stuart Hill, Madikeri - KSPCB",18-04-2024 10:00:00,12.415911,75.735050,NO2,2,10,4
India,Karnataka,Mangalore,"Kadri, Mangalore - KSPCB",18-04-2024 10:00:00,12.889250,74.853000,PM2.5,30,60,43
India,Karnataka,Mangalore,"Kadri, Mangalore - KSPCB",18-04-2024 10:00:00,12.889250,74.853000,OZONE,30,32,31
India,Karnataka,Ramanagara,"Vijay Nagar, Ramanagara - KSPCB",18-04-2024 10:00:00,12.733409,77.298051,SO2,11,38,22
India,Karnataka,Shivamogga,"Vinoba Nagara, Shivamogga - KSPCB",18-04-2024 10:00:00,13.940000,75.555917,PM10,44,80,55
India,Karnataka,Shivamogga,"Vinoba Nagara, Shivamogga - KSPCB",18-04-2024 10:00:00,13.940000,75.555917,SO2,2,11,7
India,Karnataka,Tumakuru,"Thimmalapura, Tumakuru - KSPCB",18-04-2024 10:00:00,13.377516,77.099072,CO,30,34,31
India,Karnataka,Tumakuru,"Thimmalapura, Tumakuru - KSPCB",18-04-2024 10:00:00,13.377516,77.099072,OZONE,9,49,19
India,Karnataka,Vijayapura,"Ibrahimpur, Vijayapura - KSPCB",18-04-2024 10:00:00,16.802639,75.722694,PM2.5,26,31,30
India,Karnataka,Vijayapura,"Ibrahimpur, Vijayapura - KSPCB",18-04-2024 10:00:00,16.802639,75.722694,NH3,2,2,2
India,Karnataka,Vijayapura,"Ibrahimpur, Vijayapura - KSPCB",18-04-2024 10:00:00,16.802639,75.722694,SO2,1,18,8
India,Karnataka,Yadgir,"Collector Office, Yadgir - KSPCB",18-04-2024 10:00:00,16.7602,77.1428,NO2,5,13,7
India,Karnataka,Yadgir,"Collector Office, Yadgir - KSPCB",18-04-2024 10:00:00,16.7602,77.1428,SO2,1,33,16
India,Kerala,Eloor,"Udyogamandal, Eloor - Kerala PCB",18-04-2024 10:00:00,10.073232,76.302765,PM10,31,53,39
India,Kerala,Eloor,"Udyogamandal, Eloor - Kerala PCB",18-04-2024 10:00:00,10.073232,76.302765,OZONE,12,17,12
India,Kerala,Thiruvananthapuram,"Plammoodu, Thiruvananthapuram - Kerala PCB",18-04-2024 10:00:00,8.5149093,76.9435879,NO2,7,10,9
India,Kerala,Thiruvananthapuram,"Plammoodu, Thiruvananthapuram - Kerala PCB",18-04-2024 10:00:00,8.5149093,76.9435879,SO2,4,16,9
India,Kerala,Thiruvananthapuram,"Plammoodu, Thiruvananthapuram - Kerala PCB",18-04-2024 10:00:00,8.5149093,76.9435879,CO,8,34,27
India,Kerala,Thrissur,"Corporation Ground, Thrissur - Kerala PCB",18-04-2024 10:00:00,10.532400,76.215900,SO2,NA,NA,NA
India,Madhya Pradesh,Bhopal,"Idgah Hills, Bhopal - MPPCB",18-04-2024 10:00:00,23.264759,77.381568,CO,23,56,34
India,Madhya Pradesh,Bhopal,"Paryavaran Parisar, Bhopal - MPPCB",18-04-2024 10:00:00,23.210494,77.425409,PM2.5,17,153,63
India,Madhya Pradesh,Bhopal,"Paryavaran Parisar, Bhopal - MPPCB",18-04-2024 10:00:00,23.210494,77.425409,PM10,49,200,105
India,Madhya Pradesh,Bhopal,"Paryavaran Parisar, Bhopal - MPPCB",18-04-2024 10:00:00,23.210494,77.425409,NO2,10,116,52
India,Madhya Pradesh,Bhopal,"Paryavaran Parisar, Bhopal - MPPCB",18-04-2024 10:00:00,23.210494,77.425409,NH3,6,11,8
India,Madhya Pradesh,Bhopal,"T T Nagar, Bhopal - MPPCB",18-04-2024 10:00:00,23.233584,77.400574,PM2.5,19,113,56
India,Madhya Pradesh,Bhopal,"T T Nagar, Bhopal - MPPCB",18-04-2024 10:00:00,23.233584,77.400574,NO2,13,81,36
India,Madhya Pradesh,Bhopal,"T T Nagar, Bhopal - MPPCB",18-04-2024 10:00:00,23.233584,77.400574,CO,14,105,39
India,Madhya Pradesh,Dewas,"Bhopal Chauraha, Dewas - MPPCB",18-04-2024 10:00:00,22.9682591,76.064118,OZONE,9,43,16
India,Madhya Pradesh,Gwalior,"City Center, Gwalior - MPPCB",18-04-2024 10:00:00,26.203442,78.193251,PM2.5,18,118,48
India,Madhya Pradesh,Gwalior,"City Center, Gwalior - MPPCB",18-04-2024 10:00:00,26.203442,78.193251,CO,31,60,36
India,Madhya Pradesh,Gwalior,"Deen Dayal Nagar, Gwalior - MPPCB",18-04-2024 10:00:00,26.259242,78.216432,PM10,106,193,145
India,Madhya Pradesh,Gwalior,"Maharaj Bada, Gwalior - MPPCB",18-04-2024 10:00:00,26.200388,78.147714,SO2,2,40,13
India,Madhya Pradesh,Gwalior,"Maharaj Bada, Gwalior - MPPCB",18-04-2024 10:00:00,26.200388,78.147714,OZONE,2,133,87
India,Madhya Pradesh,Gwalior,"Phool Bagh, Gwalior - Mondelez Ind. Food",18-04-2024 10:00:00,26.210536,78.171,SO2,NA,NA,NA
India,Madhya Pradesh,Indore,"Chhoti Gwaltoli, Indore - MPPCB",18-04-2024 10:00:00,22.4310,75.5213,SO2,8,90,29
India,Madhya Pradesh,Indore,"Maguda Nagar, Indore - IMC",18-04-2024 10:00:00,22.7524,75.8872,NO2,4,6,5
India,Madhya Pradesh,Indore,"Residency Area, Indore - IMC",18-04-2024 10:00:00,22.7084,75.8815,PM10,37,147,72
India,Madhya Pradesh,Jabalpur,"Govindh Bhavan Colony, Jabalpur - JMC",18-04-2024 10:00:00,23.163174,79.973061,NH3,8,18,14
India,Madhya Pradesh,Jabalpur,"Gupteshwar, Jabalpur - JMC",18-04-2024 10:00:00,23.142888,79.916147,PM10,47,161,86
India,Madhya Pradesh,Jabalpur,"Gupteshwar, Jabalpur - JMC",18-04-2024 10:00:00,23.142888,79.916147,NO2,14,125,47
India,Madhya Pradesh,Jabalpur,"Gupteshwar, Jabalpur - JMC",18-04-2024 10:00:00,23.142888,79.916147,SO2,4,10,7
India,Madhya Pradesh,Jabalpur,"Marhatal, Jabalpur - MPPCB",18-04-2024 10:00:00,23.168606,79.932247,PM2.5,25,315,106
India,Madhya Pradesh,Jabalpur,"Marhatal, Jabalpur - MPPCB",18-04-2024 10:00:00,23.168606,79.932247,OZONE,1,87,31
India,Madhya Pradesh,Jabalpur,"Suhagi, Jabalpur - JMC",18-04-2024 10:00:00,23.218135,79.957770,NO2,39,47,44
India,Madhya Pradesh,Jabalpur,"Suhagi, Jabalpur - JMC",18-04-2024 10:00:00,23.218135,79.957770,NH3,2,4,4
India,Madhya Pradesh,Katni,"Gole Bazar, Katni - MPPCB",18-04-2024 10:00:00,23.50016,80.23284,NO2,22,146,66
India,Madhya Pradesh,Katni,"Gole Bazar, Katni - MPPCB",18-04-2024 10:00:00,23.50016,80.23284,OZONE,11,130,43
India,Madhya Pradesh,Mandideep,"Sector-D Industrial Area, Mandideep - MPPCB",18-04-2024 10:00:00,23.108440,77.511428,PM2.5,25,375,117
India,Madhya Pradesh,Mandideep,"Sector-D Industrial Area, Mandideep - MPPCB",18-04-2024 10:00:00,23.108440,77.511428,PM10,75,500,187
India,Madhya Pradesh,Mandideep,"Sector-D Industrial Area, Mandideep - MPPCB",18-04-2024 10:00:00,23.108440,77.511428,NH3,5,5,5
India,Madhya Pradesh,Pithampur,"Sector-2 Industrial Area, Pithampur - MPPCB",18-04-2024 10:00:00,22.624758,75.675238,NO2,5,22,11
India,Madhya Pradesh,Ratlam,"Shasthri Nagar, Ratlam - IPCA Lab",18-04-2024 10:00:00,23.331731,75.045981,PM10,40,296,131
India,Madhya Pradesh,Ratlam,"Shasthri Nagar, Ratlam - IPCA Lab",18-04-2024 10:00:00,23.331731,75.045981,SO2,37,48,41
India,Madhya Pradesh,Sagar,"Deen Dayal Nagar, Sagar - MPPCB",18-04-2024 10:00:00,23.8640158,78.80289321,PM10,34,221,107
India,Madhya Pradesh,Satna,"Bandhavgar Colony, Satna - Birla Cement",18-04-2024 10:00:00,24.58434363,80.8549414,PM2.5,34,85,57
India,Madhya Pradesh,Singrauli,"Suryakiran Bhawan NCL, Singrauli - MPPCB",18-04-2024 10:00:00,24.108970,82.645580,NO2,15,93,42
India,Madhya Pradesh,Singrauli,"Suryakiran Bhawan NCL, Singrauli - MPPCB",18-04-2024 10:00:00,24.108970,82.645580,NH3,3,5,4
India,Madhya Pradesh,Ujjain,"Mahakaleshwar Temple, Ujjain - MPPCB",18-04-2024 10:00:00,23.182719 ,75.768218 ,NO2,12,59,33
India,Maharashtra,Amravati,"Shivneri Colony, Amravati - MPCB",18-04-2024 10:00:00,20.9402359,77.7895248,SO2,2,6,3
India,Maharashtra,Amravati,"Shri Shivaji Science College, Amaravati - MPCB",18-04-2024 10:00:00,20.939198,77.765701,NO2,6,123,37
India,Maharashtra,Aurangabad,"MIDC Chilkalthana, Aurangabad - MPCB",18-04-2024 10:00:00,19.875620,75.387310,PM2.5,67,104,78
India,Maharashtra,Aurangabad,"More Chowk Waluj, Aurangabad - MPCB",18-04-2024 10:00:00,19.8389439,75.244448,PM10,40,136,77
India,Maharashtra,Aurangabad,"Rachnakar Colony, Aurangabad - MPCB",18-04-2024 10:00:00,19.863756,75.321188,NO2,NA,NA,NA
India,Maharashtra,Aurangabad,"Rachnakar Colony, Aurangabad - MPCB",18-04-2024 10:00:00,19.863756,75.321188,NH3,NA,NA,NA
India,Maharashtra,Aurangabad,"Rachnakar Colony, Aurangabad - MPCB",18-04-2024 10:00:00,19.863756,75.321188,OZONE,NA,NA,NA
India,Maharashtra,Badlapur,"Katrap, Badlapur - MPCB",18-04-2024 10:00:00,19.16485,73.23409,CO,9,60,41
India,Maharashtra,Belapur,"CBD Belapur, Belapur - MPCB",18-04-2024 10:00:00,19.0243902,73.0406721,PM10,54,96,75
India,Maharashtra,Bhiwandi,"Gokul Nagar, Bhiwandi - MPCB",18-04-2024 10:00:00,19.309073,73.057223,CO,20,66,43
India,Maharashtra,Boisar,"Khaira, Boisar - MPCB",18-04-2024 10:00:00,19.786089,72.757971,NH3,4,9,6
India,Maharashtra,Boisar,"Khaira, Boisar - MPCB",18-04-2024 10:00:00,19.786089,72.757971,OZONE,35,77,40
India,Maharashtra,Chandrapur,"Chauhan Colony, Chandrapur - MPCB",18-04-2024 10:00:00,19.962900,79.298714,NO2,13,84,34
India,Maharashtra,Chandrapur,"Chauhan Colony, Chandrapur - MPCB",18-04-2024 10:00:00,19.962900,79.298714,NH3,1,3,2
India,Maharashtra,Chandrapur,"Chauhan Colony, Chandrapur - MPCB",18-04-2024 10:00:00,19.962900,79.298714,CO,26,40,28
India,Maharashtra,Chandrapur,"MIDC Khutala, Chandrapur - MPCB",18-04-2024 10:00:00,19.9775302,79.2337086,OZONE,2,86,13
India,Maharashtra,Jalna,"Old MIDC, Jalna - MPCB",18-04-2024 10:00:00,19.854616,75.905894,PM2.5,36,58,46
India,Maharashtra,Jalna,"Old MIDC, Jalna - MPCB",18-04-2024 10:00:00,19.854616,75.905894,SO2,2,3,2
India,Maharashtra,Jalna,"Old MIDC, Jalna - MPCB",18-04-2024 10:00:00,19.854616,75.905894,CO,20,27,25
India,Maharashtra,Kalyan,"Khadakpada, Kalyan - MPCB",18-04-2024 10:00:00,19.25292,73.142019,SO2,29,37,33
India,Maharashtra,Kolhapur,"Shivaji University, Kolhapur - MPCB",18-04-2024 10:00:00,16.6870449,74.2505872,PM2.5,73,157,106
India,Maharashtra,Kolhapur,"Shivaji University, Kolhapur - MPCB",18-04-2024 10:00:00,16.6870449,74.2505872,NH3,2,3,3
India,Maharashtra,Kolhapur,"Sinchan Bhavan, Kolhapur - MPCB",18-04-2024 10:00:00,16.7143745,74.2426398,NH3,7,8,8
India,Maharashtra,Kolhapur,"Sinchan Bhavan, Kolhapur - MPCB",18-04-2024 10:00:00,16.7143745,74.2426398,OZONE,23,106,31
India,Maharashtra,Latur,"Sawe Wadi, Latur - MPCB",18-04-2024 10:00:00,18.39963,76.57452,PM2.5,66,127,93
India,Maharashtra,Latur,"Sawe Wadi, Latur - MPCB",18-04-2024 10:00:00,18.39963,76.57452,CO,21,107,64
India,Maharashtra,Malegaon,"Mahesh Nagar, Malegaon - MPCB",18-04-2024 10:00:00,20.555712,74.529236,NO2,8,110,44
India,Maharashtra,Malegaon,"Mahesh Nagar, Malegaon - MPCB",18-04-2024 10:00:00,20.555712,74.529236,OZONE,27,125,43
India,Maharashtra,Mira-Bhayandar,"Bhayandar West, Mira-Bhayandar - MPCB",18-04-2024 10:00:00,19.296481,72.840923,NO2,4,29,10
India,Maharashtra,Mumbai,"Bandra Kurla Complex, Mumbai - MPCB",18-04-2024 10:00:00,19.065931,72.862131,NH3,NA,NA,NA
India,Maharashtra,Mumbai,"Bandra Kurla Complex, Mumbai - MPCB",18-04-2024 10:00:00,19.065931,72.862131,SO2,1,2,1
India,Maharashtra,Mumbai,"Borivali East, Mumbai - MPCB",18-04-2024 10:00:00,19.2243333,72.8658113,SO2,7,12,8
India,Maharashtra,Mumbai,"Borivali East, Mumbai - MPCB",18-04-2024 10:00:00,19.2243333,72.8658113,OZONE,14,15,15
India,Maharashtra,Mumbai,"Byculla, Mumbai - BMC",18-04-2024 10:00:00,18.9767,72.8380,NH3,2,3,3
India,Maharashtra,Mumbai,"Byculla, Mumbai - BMC",18-04-2024 10:00:00,18.9767,72.8380,CO,10,32,17
India,Maharashtra,Mumbai,"Chakala-Andheri East, Mumbai - IITM",18-04-2024 10:00:00,19.11074,72.86084,NH3,9,26,16
India,Maharashtra,Mumbai,"Chakala-Andheri East, Mumbai - IITM",18-04-2024 10:00:00,19.11074,72.86084,SO2,10,38,22
India,Maharashtra,Mumbai,"Chakala-Andheri East, Mumbai - IITM",18-04-2024 10:00:00,19.11074,72.86084,OZONE,16,75,29
India,Maharashtra,Mumbai,"Chembur, Mumbai - MPCB",18-04-2024 10:00:00,19.0364585,72.8954371,PM10,28,100,75
India,Maharashtra,Mumbai,"Chhatrapati Shivaji Intl. Airport (T2), Mumbai - MPCB",18-04-2024 10:00:00,19.10078,72.87462,PM2.5,47,80,61
India,Maharashtra,Mumbai,"Chhatrapati Shivaji Intl. Airport (T2), Mumbai - MPCB",18-04-2024 10:00:00,19.10078,72.87462,NH3,1,3,1
India,Maharashtra,Mumbai,"Ghatkopar, Mumbai - BMC",18-04-2024 10:00:00,19.083694,72.920967,PM10,NA,NA,NA
India,Maharashtra,Mumbai,"Ghatkopar, Mumbai - BMC",18-04-2024 10:00:00,19.083694,72.920967,OZONE,2,43,8
India,Maharashtra,Mumbai,"Kandivali East, Mumbai - MPCB",18-04-2024 10:00:00,19.205800,72.868200,SO2,6,8,7
India,Maharashtra,Mumbai,"Kandivali West, Mumbai - BMC",18-04-2024 10:00:00,19.215859,72.831718,NH3,1,2,2
India,Maharashtra,Mumbai,"Kandivali West, Mumbai - BMC",18-04-2024 10:00:00,19.215859,72.831718,OZONE,4,63,24
India,Maharashtra,Mumbai,"Khindipada-Bhandup West, Mumbai - IITM",18-04-2024 10:00:00,19.1653323,72.922099,PM10,NA,NA,NA
India,Maharashtra,Mumbai,"Kurla, Mumbai - MPCB",18-04-2024 10:00:00,19.0863,72.8888,PM10,64,186,106
India,Maharashtra,Mumbai,"Mindspace-Malad West, Mumbai - MPCB",18-04-2024 10:00:00,19.1878657,72.8304069,NO2,13,52,23
India,Maharashtra,Mumbai,"Mulund West, Mumbai - MPCB",18-04-2024 10:00:00,19.1750,72.9419,PM2.5,79,220,115
India,Maharashtra,Mumbai,"Mulund West, Mumbai - MPCB",18-04-2024 10:00:00,19.1750,72.9419,PM10,92,500,182
India,Maharashtra,Mumbai,"Mulund West, Mumbai - MPCB",18-04-2024 10:00:00,19.1750,72.9419,SO2,13,14,13
India,Maharashtra,Mumbai,"Powai, Mumbai - MPCB",18-04-2024 10:00:00,19.137500,72.915056,NH3,1,3,1
India,Maharashtra,Mumbai,"Powai, Mumbai - MPCB",18-04-2024 10:00:00,19.137500,72.915056,CO,32,45,39
India,Maharashtra,Mumbai,"Sewri, Mumbai - BMC",18-04-2024 10:00:00,19.000084,72.856730,PM2.5,NA,NA,NA
India,Maharashtra,Mumbai,"Sewri, Mumbai - BMC",18-04-2024 10:00:00,19.000084,72.856730,NO2,NA,NA,NA
India,Maharashtra,Mumbai,"Shivaji Nagar, Mumbai - BMC",18-04-2024 10:00:00,19.060498,72.923356,NH3,1,8,4
India,Maharashtra,Mumbai,"Sion, Mumbai - MPCB",18-04-2024 10:00:00,19.047000,72.874600,NO2,17,41,26
India,Maharashtra,Mumbai,"Sion, Mumbai - MPCB",18-04-2024 10:00:00,19.047000,72.874600,OZONE,35,76,36
India,Maharashtra,Mumbai,"Worli, Mumbai - MPCB",18-04-2024 10:00:00,18.9936162,72.8128113,NO2,15,15,15
India,Maharashtra,Mumbai,"Worli, Mumbai - MPCB",18-04-2024 10:00:00,18.9936162,72.8128113,SO2,11,12,12
India,Maharashtra,Nagpur,"Ambazari, Nagpur - MPCB",18-04-2024 10:00:00,21.121801,79.04952,SO2,21,39,29
India,Maharashtra,Nagpur,"Ambazari, Nagpur - MPCB",18-04-2024 10:00:00,21.121801,79.04952,CO,6,112,16
India,Maharashtra,Nagpur,"Mahal, Nagpur - MPCB",18-04-2024 10:00:00,21.14472,79.107595,OZONE,1,102,32
India,Maharashtra,Nagpur,"Opp GPO Civil Lines, Nagpur - MPCB",18-04-2024 10:00:00,21.152875,79.0517531,PM2.5,34,125,77
India,Maharashtra,Nagpur,"Opp GPO Civil Lines, Nagpur - MPCB",18-04-2024 10:00:00,21.152875,79.0517531,SO2,2,25,12
India,Maharashtra,Nashik,"Gangapur Road, Nashik - MPCB",18-04-2024 10:00:00,20.0073285,73.7762427,OZONE,8,120,27
India,Maharashtra,Nashik,"Hirawadi, Nashik - MPCB",18-04-2024 10:00:00,20.021503,73.813844,NH3,2,2,2
India,Maharashtra,Nashik,"MIDC Ambad, Nashik - MPCB",18-04-2024 10:00:00,19.950220,73.731480,CO,26,112,81
India,Maharashtra,Navi Mumbai,"Kopripada-Vashi, Navi Mumbai - MPCB",18-04-2024 10:00:00,19.090337,73.014232,NH3,6,10,8
India,Maharashtra,Navi Mumbai,"Kopripada-Vashi, Navi Mumbai - MPCB",18-04-2024 10:00:00,19.090337,73.014232,SO2,NA,NA,NA
India,Maharashtra,Navi Mumbai,"Kopripada-Vashi, Navi Mumbai - MPCB",18-04-2024 10:00:00,19.090337,73.014232,OZONE,4,40,10
India,Maharashtra,Navi Mumbai,"Mahape, Navi Mumbai - MPCB",18-04-2024 10:00:00,19.1135051,73.008978,OZONE,NA,NA,NA
India,Maharashtra,Navi Mumbai,"Nerul, Navi Mumbai - MPCB",18-04-2024 10:00:00,19.008751,73.016620,OZONE,39,53,48
India,Maharashtra,Navi Mumbai,"Sanpada, Navi Mumbai - MPCB",18-04-2024 10:00:00,19.0575752,73.0151367,SO2,1,7,2
India,Maharashtra,Navi Mumbai,"Sanpada, Navi Mumbai - MPCB",18-04-2024 10:00:00,19.0575752,73.0151367,CO,NA,NA,NA
India,Maharashtra,Navi Mumbai,"Sector-19A Nerul, Navi Mumbai - IITM",18-04-2024 10:00:00,19.044,73.0325,PM2.5,48,122,65
India,Maharashtra,Navi Mumbai,"Sector-19A Nerul, Navi Mumbai - IITM",18-04-2024 10:00:00,19.044,73.0325,NH3,5,7,6
India,Maharashtra,Navi Mumbai,"Tondare-Taloja, Navi Mumbai - MPCB",18-04-2024 10:00:00,19.0630,73.1209,NO2,28,82,51
India,Maharashtra,Navi Mumbai,"Tondare-Taloja, Navi Mumbai - MPCB",18-04-2024 10:00:00,19.0630,73.1209,CO,2,40,25
India,Maharashtra,Parbhani,"Masoom Colony, Parbhani - MPCB",18-04-2024 10:00:00,19.265594,76.761463,NO2,17,51,24
India,Maharashtra,Parbhani,"Masoom Colony, Parbhani - MPCB",18-04-2024 10:00:00,19.265594,76.761463,OZONE,46,99,60
India,Maharashtra,Pimpri-Chinchwad,"Gavalinagar, Pimpri Chinchwad - MPCB",18-04-2024 10:00:00,18.63673,73.82487,NO2,12,42,26
India,Maharashtra,Pimpri-Chinchwad,"Gavalinagar, Pimpri Chinchwad - MPCB",18-04-2024 10:00:00,18.63673,73.82487,CO,16,31,23
India,Maharashtra,Pune,"Bhosari, Pune - IITM",18-04-2024 10:00:00,18.640051,73.848956,PM10,70,125,95
India,Maharashtra,Pune,"Karve Road, Pune - MPCB",18-04-2024 10:00:00,18.5011743,73.8165527,NO2,NA,NA,NA
India,Maharashtra,Pune,"Katraj Dairy, Pune - MPCB",18-04-2024 10:00:00,18.454450,73.854155,NO2,10,24,17
India,Maharashtra,Pune,"Katraj Dairy, Pune - MPCB",18-04-2024 10:00:00,18.454450,73.854155,OZONE,2,85,7
India,Maharashtra,Pune,"Savitribai Phule Pune University, Pune - MPCB",18-04-2024 10:00:00,18.547056,73.826908,PM2.5,64,99,83
India,Maharashtra,Pune,"Savitribai Phule Pune University, Pune - MPCB",18-04-2024 10:00:00,18.547056,73.826908,NH3,2,4,2
India,Maharashtra,Pune,"Savitribai Phule Pune University, Pune - MPCB",18-04-2024 10:00:00,18.547056,73.826908,SO2,3,8,5
India,Maharashtra,Pune,"Savitribai Phule Pune University, Pune - MPCB",18-04-2024 10:00:00,18.547056,73.826908,CO,16,28,25
India,Maharashtra,Sangli,"Vijay Nagar, Sangli - MPCB",18-04-2024 10:00:00, 16.5038,74.3623,PM2.5,47,80,59
India,Maharashtra,Sangli,"Vijay Nagar, Sangli - MPCB",18-04-2024 10:00:00, 16.5038,74.3623,PM10,59,101,79
India,Maharashtra,Sangli,"Vijay Nagar, Sangli - MPCB",18-04-2024 10:00:00, 16.5038,74.3623,NH3,1,3,2
India,Maharashtra,Solapur,"Dnyaneshwar Nagar, Solapur - MPCB",18-04-2024 10:00:00,17.6336264,75.9132495,NO2,11,45,21
India,Maharashtra,Solapur,"Dnyaneshwar Nagar, Solapur - MPCB",18-04-2024 10:00:00,17.6336264,75.9132495,SO2,1,6,3
India,Maharashtra,Solapur,"Ratandeep Housing Society, Solapur - MPCB",18-04-2024 10:00:00,17.65439,75.90649,SO2,1,40,9
India,Maharashtra,Solapur,"Ratandeep Housing Society, Solapur - MPCB",18-04-2024 10:00:00,17.65439,75.90649,CO,18,72,30
India,Maharashtra,Thane,"Upvan Fort, Thane - MPCB",18-04-2024 10:00:00,19.222279,72.957979,NO2,10,65,36
India,Maharashtra,Thane,"Upvan Fort, Thane - MPCB",18-04-2024 10:00:00,19.222279,72.957979,NH3,7,10,8
India,Maharashtra,Ulhasnagar,"Sidhi Vinayak Nagar, Ulhasnagar - MPCB",18-04-2024 10:00:00,19.235581,73.159121,PM10,80,116,100
India,Maharashtra,Ulhasnagar,"Sidhi Vinayak Nagar, Ulhasnagar - MPCB",18-04-2024 10:00:00,19.235581,73.159121,CO,14,48,32
India,Maharashtra,Virar,"Bolinj, Virar - MPCB",18-04-2024 10:00:00,19.4458210,72.7988231,PM2.5,46,214,90
India,Maharashtra,Virar,"Bolinj, Virar - MPCB",18-04-2024 10:00:00,19.4458210,72.7988231,PM10,67,123,100
India,Maharashtra,Virar,"Bolinj, Virar - MPCB",18-04-2024 10:00:00,19.4458210,72.7988231,NO2,11,36,25
India,Maharashtra,Virar,"Bolinj, Virar - MPCB",18-04-2024 10:00:00,19.4458210,72.7988231,CO,18,96,40
India,Meghalaya,Shillong,"Lumpyngngad, Shillong - Meghalaya PCB",18-04-2024 10:00:00,25.5586,91.8985,CO,8,12,9
India,Mizoram,Aizawl,"Sikulpuikawn, Aizawl - Mizoram PCB",18-04-2024 10:00:00,23.7176342,92.7192841,PM10,14,104,66
India,Nagaland,Kohima,"PWD Juction, Kohima - NPCB",18-04-2024 10:00:00,25.6635413,94.0989878,SO2,31,33,32
India,Nagaland,Kohima,"PWD Juction, Kohima - NPCB",18-04-2024 10:00:00,25.6635413,94.0989878,CO,12,25,14
India,Nagaland,Kohima,"PWD Juction, Kohima - NPCB",18-04-2024 10:00:00,25.6635413,94.0989878,OZONE,5,23,7
India,Odisha,Angul,"Hakimapada, Angul - OSPCB",18-04-2024 10:00:00,20.832874,85.104082,NO2,7,115,33
India,Odisha,Balasore,"Kalidaspur, Balasore - OSPCB",18-04-2024 10:00:00,21.51161,86.89088,PM2.5,83,173,117
India,Odisha,Barbil,"Forest Office, Barbil - OSPCB",18-04-2024 10:00:00,22.1166054,85.3945546,NO2,1,1,1
India,Odisha,Barbil,"Forest Office, Barbil - OSPCB",18-04-2024 10:00:00,22.1166054,85.3945546,OZONE,24,216,164
India,Odisha,Bhubaneswar,"Lingraj Mandir, Bhubaneswar - OSPCB",18-04-2024 10:00:00,20.240790,85.836784,PM10,100,279,140
India,Odisha,Bhubaneswar,"Lingraj Mandir, Bhubaneswar - OSPCB",18-04-2024 10:00:00,20.240790,85.836784,OZONE,4,13,9
India,Odisha,Byasanagar,"Ferro Chrome Colony, Byasanagar - OSPCB",18-04-2024 10:00:00,20.94185,86.11510,CO,69,105,82
India,Odisha,Rairangpur,"Divisional Forest Office, Rairangpur - OSPCB",18-04-2024 10:00:00,22.265816,86.174829,NH3,3,3,3
India,Odisha,Rourkela,"Raghunathpali, Rourkela - OSPCB",18-04-2024 10:00:00,22.220833,84.809444,PM2.5,96,319,224
India,Odisha,Rourkela,"Raghunathpali, Rourkela - OSPCB",18-04-2024 10:00:00,22.220833,84.809444,SO2,7,8,8
India,Odisha,Suakati,"OMC Colony, Suakati - OSPCB",18-04-2024 10:00:00,21.606865,85.510538,CO,18,23,18
India,Odisha,Suakati,"OMC Colony, Suakati - OSPCB",18-04-2024 10:00:00,21.606865,85.510538,OZONE,16,168,160
India,Odisha,Talcher,"Talcher Coalfields,Talcher - OSPCB",18-04-2024 10:00:00,20.9360711,85.1707021,PM10,75,485,207
India,Odisha,Tensa,"Barsua Iron Ore Mines, Tensa - OSPCB",18-04-2024 10:00:00,21.869985,85.167016,PM10,20,265,113
India,Odisha,Tensa,"Barsua Iron Ore Mines, Tensa - OSPCB",18-04-2024 10:00:00,21.869985,85.167016,NO2,23,128,51
India,Puducherry,Puducherry,"Jawahar Nagar, Puducherry - PPCC",18-04-2024 10:00:00,11.9309,79.8027,SO2,4,14,7
India,Punjab,Amritsar,"Golden Temple, Amritsar - PPCB",18-04-2024 10:00:00,31.620000,74.876512,NH3,5,9,6
India,Punjab,Amritsar,"Golden Temple, Amritsar - PPCB",18-04-2024 10:00:00,31.620000,74.876512,SO2,10,47,19
India,Punjab,Amritsar,"Golden Temple, Amritsar - PPCB",18-04-2024 10:00:00,31.620000,74.876512,CO,10,104,50
India,Punjab,Bathinda,"Hardev Nagar, Bathinda - PPCB",18-04-2024 10:00:00,30.233011,74.907758,PM2.5,22,194,66
India,Punjab,Khanna,"Kalal Majra, Khanna - PPCB",18-04-2024 10:00:00,30.736056 ,76.209694,PM10,54,105,80
India,Punjab,Khanna,"Kalal Majra, Khanna - PPCB",18-04-2024 10:00:00,30.736056 ,76.209694,NH3,15,15,15
India,Punjab,Khanna,"Kalal Majra, Khanna - PPCB",18-04-2024 10:00:00,30.736056 ,76.209694,SO2,8,48,26
India,Punjab,Mandi Gobindgarh,"RIMT University, Mandi Gobindgarh - PPCB",18-04-2024 10:00:00,30.649961,76.331442,PM10,119,333,187
India,Punjab,Patiala,"Model Town, Patiala - PPCB",18-04-2024 10:00:00,30.349388,76.366642,SO2,8,44,16
India,Punjab,Rupnagar,"Ratanpura, Rupnagar - Ambuja Cements",18-04-2024 10:00:00,31.0325454,76.5623046,PM10,24,96,54
India,Punjab,Rupnagar,"Ratanpura, Rupnagar - Ambuja Cements",18-04-2024 10:00:00,31.0325454,76.5623046,SO2,10,13,11
India,Punjab,Rupnagar,"Ratanpura, Rupnagar - Ambuja Cements",18-04-2024 10:00:00,31.0325454,76.5623046,CO,25,46,33
India,Rajasthan,Alwar,"Moti Doongri, Alwar - RSPCB",18-04-2024 10:00:00,27.554793,76.611536,NH3,3,8,6
India,Rajasthan,Banswara,"Rati Talai, Banswara - RSPCB",18-04-2024 10:00:00,23.555190,74.440010,PM2.5,42,376,130
India,Rajasthan,Banswara,"Rati Talai, Banswara - RSPCB",18-04-2024 10:00:00,23.555190,74.440010,CO,2,76,13
India,Rajasthan,Baran,"Bamboliya, Baran - RSPCB",18-04-2024 10:00:00,25.106006,76.469948,NH3,2,13,5
India,Rajasthan,Baran,"Bamboliya, Baran - RSPCB",18-04-2024 10:00:00,25.106006,76.469948,SO2,4,16,7
India,Rajasthan,Baran,"Bamboliya, Baran - RSPCB",18-04-2024 10:00:00,25.106006,76.469948,OZONE,3,105,27
India,Rajasthan,Barmer,"Railway Colony, Barmer - RSPCB",18-04-2024 10:00:00,25.747299,71.393989,CO,48,109,71
India,Rajasthan,Bharatpur,"Krishna Nagar, Bharatpur - RSPCB",18-04-2024 10:00:00,27.215415,77.50873,SO2,4,25,12
India,Rajasthan,Bhilwara,"Pratap Nagar, Bhilwara - RSPCB",18-04-2024 10:00:00,25.339605,74.618883,OZONE,2,78,17
India,Rajasthan,Bhiwadi,"RIICO Ind. Area III, Bhiwadi - RSPCB",18-04-2024 10:00:00,28.194909,76.862296,PM2.5,61,178,108
India,Rajasthan,Bhiwadi,"RIICO Ind. Area III, Bhiwadi - RSPCB",18-04-2024 10:00:00,28.194909,76.862296,CO,1,139,100
India,Rajasthan,Bhiwadi,"Vasundhara Nagar_UIT, Bhiwadi - RSPCB",18-04-2024 10:00:00,28.207266,76.829265,NH3,6,15,11
India,Rajasthan,Bikaner,"MM Ground, Bikaner - RSPCB",18-04-2024 10:00:00,28.018792,73.292658,PM2.5,3,117,40
India,Rajasthan,Bundi,"New Colony, Bundi - RSPCB",18-04-2024 10:00:00,25.435774,75.644272,PM10,67,172,93
India,Rajasthan,Chittorgarh,"Shastri Nagar, Chittorgarh - RSPCB",18-04-2024 10:00:00,24.892047,74.623527,NH3,12,14,13
India,Rajasthan,Chittorgarh,"Shastri Nagar, Chittorgarh - RSPCB",18-04-2024 10:00:00,24.892047,74.623527,SO2,7,69,20
India,Rajasthan,Chittorgarh,"Shastri Nagar, Chittorgarh - RSPCB",18-04-2024 10:00:00,24.892047,74.623527,OZONE,2,107,21
India,Rajasthan,Churu,"Subash Chowk, Churu - RSPCB",18-04-2024 10:00:00,28.296139,74.961696,PM2.5,8,81,41
India,Rajasthan,Churu,"Subash Chowk, Churu - RSPCB",18-04-2024 10:00:00,28.296139,74.961696,OZONE,9,163,46
India,Rajasthan,Dholpur,"Raja Ganj, Dholpur - RSPCB",18-04-2024 10:00:00,26.699557,77.898881,PM10,133,402,195
India,Rajasthan,Hanumangarh,"Housing Board, Hanumangarh - RSPCB",18-04-2024 10:00:00,29.610750,74.283608,PM2.5,2,405,118
India,Rajasthan,Hanumangarh,"Housing Board, Hanumangarh - RSPCB",18-04-2024 10:00:00,29.610750,74.283608,PM10,80,500,192
India,Rajasthan,Jaipur,"Adarsh Nagar, Jaipur - RSPCB",18-04-2024 10:00:00,26.902909,75.836858,OZONE,15,43,26
India,Rajasthan,Jaipur,"Mansarovar Sector-12, Jaipur - RSPCB",18-04-2024 10:00:00,26.843698,75.766894,PM2.5,21,220,47
India,Rajasthan,Jaipur,"Mansarovar Sector-12, Jaipur - RSPCB",18-04-2024 10:00:00,26.843698,75.766894,SO2,1,7,4
India,Rajasthan,Jaipur,"Sector-2 Murlipura, Jaipur - RSPCB",18-04-2024 10:00:00,26.960669,75.771817,PM10,NA,NA,NA
India,Rajasthan,Jaipur,"Shastri Nagar, Jaipur - RSPCB",18-04-2024 10:00:00,26.9502929,75.730943,NH3,5,19,10
India,Rajasthan,Jaipur,"Shastri Nagar, Jaipur - RSPCB",18-04-2024 10:00:00,26.9502929,75.730943,OZONE,26,51,40
India,Rajasthan,Jaisalmer,"Sadar Bazar, Jaisalmer - RSPCB",18-04-2024 10:00:00,26.912329,70.909168,PM10,50,170,92
India,Rajasthan,Jaisalmer,"Sadar Bazar, Jaisalmer - RSPCB",18-04-2024 10:00:00,26.912329,70.909168,NH3,5,9,7
India,Rajasthan,Jaisalmer,"Sadar Bazar, Jaisalmer - RSPCB",18-04-2024 10:00:00,26.912329,70.909168,SO2,4,6,4
India,Rajasthan,Jalore,"Mudtra Sili, Jalore - RSPCB",18-04-2024 10:00:00,25.344694,72.626208,SO2,5,10,7
India,Rajasthan,Jhalawar,"Rajlaxmi Nagar, Jhalawar - RSPCB",18-04-2024 10:00:00,24.588397,76.172782,SO2,5,18,9
India,Rajasthan,Jhunjhunu,"Indra Nagar, Jhunjhunu - RSPCB",18-04-2024 10:00:00,28.108988,75.386577,SO2,2,9,5
India,Rajasthan,Jhunjhunu,"Indra Nagar, Jhunjhunu - RSPCB",18-04-2024 10:00:00,28.108988,75.386577,OZONE,15,93,32
India,Rajasthan,Jodhpur,"Collectorate, Jodhpur - RSPCB",18-04-2024 10:00:00,26.268249,73.0193853,NO2,9,114,41
India,Rajasthan,Jodhpur,"Collectorate, Jodhpur - RSPCB",18-04-2024 10:00:00,26.268249,73.0193853,CO,44,100,58
India,Rajasthan,Jodhpur,"Collectorate, Jodhpur - RSPCB",18-04-2024 10:00:00,26.268249,73.0193853,OZONE,7,120,26
India,Rajasthan,Jodhpur,"Digari Kalan, Jodhpur - RSPCB",18-04-2024 10:00:00,26.295810,73.082283,PM2.5,18,326,51
India,Rajasthan,Jodhpur,"Digari Kalan, Jodhpur - RSPCB",18-04-2024 10:00:00,26.295810,73.082283,NH3,4,20,8
India,Rajasthan,Jodhpur,"Digari Kalan, Jodhpur - RSPCB",18-04-2024 10:00:00,26.295810,73.082283,CO,11,101,20
India,Rajasthan,Jodhpur,"Digari Kalan, Jodhpur - RSPCB",18-04-2024 10:00:00,26.295810,73.082283,OZONE,2,108,36
India,Rajasthan,Jodhpur,"Mandor, Jodhpur - RSPCB",18-04-2024 10:00:00,26.358805,73.047444,PM2.5,11,59,25
India,Rajasthan,Jodhpur,"Samrat Ashok Udhyan, Jodhpur - RSPCB",18-04-2024 10:00:00,26.253384,72.976571,NO2,4,138,38
India,Rajasthan,Kota,"Dhanmandi, Kota - RSPCB",18-04-2024 10:00:00,25.164090,75.858137,NH3,3,4,3
India,Rajasthan,Kota,"Nayapura, Kota - RSPCB",18-04-2024 10:00:00,25.196024,75.855668,PM10,55,197,107
India,Rajasthan,Kota,"Nayapura, Kota - RSPCB",18-04-2024 10:00:00,25.196024,75.855668,NO2,16,122,60
India,Rajasthan,Kota,"Nayapura, Kota - RSPCB",18-04-2024 10:00:00,25.196024,75.855668,NH3,7,16,11
India,Rajasthan,Nagaur,"Karni Colony, Nagaur - RSPCB",18-04-2024 10:00:00,27.213494,73.734444,CO,12,94,18
India,Rajasthan,Sawai Madhopur,"Sahu Nagar, Sawai Madhopur - RSPCB",18-04-2024 10:00:00,26.031443,76.359327,PM2.5,36,98,53
India,Rajasthan,Sawai Madhopur,"Sahu Nagar, Sawai Madhopur - RSPCB",18-04-2024 10:00:00,26.031443,76.359327,NH3,1,13,6
India,Rajasthan,Sirohi,"Vedhaynath Colony, Sirohi - RSPCB",18-04-2024 10:00:00,24.885261,72.857549,NO2,7,230,27
India,Rajasthan,Sirohi,"Vedhaynath Colony, Sirohi - RSPCB",18-04-2024 10:00:00,24.885261,72.857549,CO,4,111,88
India,Rajasthan,Tonk,"Shastri Nagar, Tonk - RSPCB",18-04-2024 10:00:00,26.159933,75.780517,PM2.5,18,107,44
India,Rajasthan,Tonk,"Shastri Nagar, Tonk - RSPCB",18-04-2024 10:00:00,26.159933,75.780517,PM10,63,201,113
India,Rajasthan,Tonk,"Shastri Nagar, Tonk - RSPCB",18-04-2024 10:00:00,26.159933,75.780517,SO2,1,11,6
India,Rajasthan,Udaipur,"Ashok Nagar, Udaipur - RSPCB",18-04-2024 10:00:00,24.5886166,73.6321397,SO2,9,16,12
India,Sikkim,Gangtok,"Zero Point GICI, Gangtok - SSPCB",18-04-2024 10:00:00,27.338530,88.614099,NO2,1,6,2
India,TamilNadu,Ariyalur,"Keelapalur, Ariyalur - TNPCB",18-04-2024 10:00:00,11.06825,79.07033,NO2,7,8,7
India,TamilNadu,Chennai,"Alandur Bus Depot, Chennai - CPCB",18-04-2024 10:00:00,12.9099161,80.1076538,PM2.5,29,65,44
India,TamilNadu,Chennai,"Alandur Bus Depot, Chennai - CPCB",18-04-2024 10:00:00,12.9099161,80.1076538,NO2,9,13,10
India,TamilNadu,Chennai,"Alandur Bus Depot, Chennai - CPCB",18-04-2024 10:00:00,12.9099161,80.1076538,SO2,2,7,3
India,TamilNadu,Chennai,"Alandur Bus Depot, Chennai - CPCB",18-04-2024 10:00:00,12.9099161,80.1076538,OZONE,2,8,4
India,TamilNadu,Chennai,"Arumbakkam, Chennai - TNPCB",18-04-2024 10:00:00,13.0664,80.2112 ,PM10,19,80,45
India,TamilNadu,Chennai,"Kodungaiyur, Chennai - TNPCB",18-04-2024 10:00:00,13.1278,80.2642,OZONE,2,9,5
India,TamilNadu,Chennai,"Manali, Chennai - CPCB",18-04-2024 10:00:00,13.164544,80.26285,NO2,9,10,9
India,TamilNadu,Chennai,"Manali, Chennai - CPCB",18-04-2024 10:00:00,13.164544,80.26285,OZONE,16,23,18
India,TamilNadu,Chennai,"Perungudi, Chennai - TNPCB",18-04-2024 10:00:00,12.9533,80.2357,PM10,18,86,44
India,TamilNadu,Chennai,"Perungudi, Chennai - TNPCB",18-04-2024 10:00:00,12.9533,80.2357,OZONE,4,8,5
India,TamilNadu,Coimbatore,"PSG College of Arts and Science, Coimbatore - TNPCB",18-04-2024 10:00:00,11.0328,77.0349,OZONE,3,5,4
India,TamilNadu,Cuddalore,"Kudikadu, Cuddalore - TNPCB",18-04-2024 10:00:00,11.6829898,79.7532099,PM2.5,22,301,119
India,TamilNadu,Cuddalore,"Kudikadu, Cuddalore - TNPCB",18-04-2024 10:00:00,11.6829898,79.7532099,PM10,26,196,102
India,TamilNadu,Cuddalore,"Semmandalam, Cuddalore - TNPCB",18-04-2024 10:00:00,11.7637683,79.7499835,PM2.5,NA,NA,NA
India,TamilNadu,Cuddalore,"Semmandalam, Cuddalore - TNPCB",18-04-2024 10:00:00,11.7637683,79.7499835,PM10,NA,NA,NA
India,TamilNadu,Cuddalore,"Semmandalam, Cuddalore - TNPCB",18-04-2024 10:00:00,11.7637683,79.7499835,OZONE,1,2,1
India,TamilNadu,Gummidipoondi,"Anthoni Pillai Nagar, Gummidipoondi - TNPCB",18-04-2024 10:00:00,13.4127,80.1081,PM10,60,119,89
India,TamilNadu,Ramanathapuram,"Chalai Bazaar, Ramanathapuram - TNPCB",18-04-2024 10:00:00,9.36399,78.831977,SO2,NA,NA,NA
India,TamilNadu,Ramanathapuram,"Chalai Bazaar, Ramanathapuram - TNPCB",18-04-2024 10:00:00,9.36399,78.831977,OZONE,NA,NA,NA
India,TamilNadu,Thoothukudi,"Meelavittan, Thoothukudi - TNPCB",18-04-2024 10:00:00,8.816428 ,78.099039,SO2,NA,NA,NA
India,TamilNadu,Thoothukudi,"Meelavittan, Thoothukudi - TNPCB",18-04-2024 10:00:00,8.816428 ,78.099039,CO,10,61,25
India,TamilNadu,Tirupur,"Kumaran College, Tirupur - TNPCB",18-04-2024 10:00:00,11.0973603,77.3228673,CO,17,54,22
India,TamilNadu,Virudhunagar,"Collectorate Office, Virudhunagar - TNPCB",18-04-2024 10:00:00,9.559382,77.948828,OZONE,NA,NA,NA
India,Telangana,Hyderabad,"Bollaram Industrial Area, Hyderabad - TSPCB",18-04-2024 10:00:00,17.540891,78.358528,SO2,8,106,35
India,Telangana,Hyderabad,"Central University, Hyderabad - TSPCB",18-04-2024 10:00:00,17.460103,78.334361,NH3,3,8,5
India,Telangana,Hyderabad,"Central University, Hyderabad - TSPCB",18-04-2024 10:00:00,17.460103,78.334361,OZONE,3,4,4
India,Telangana,Hyderabad,"ICRISAT Patancheru, Hyderabad - TSPCB",18-04-2024 10:00:00,17.518400,78.278777,NO2,16,17,16
India,Telangana,Hyderabad,"ICRISAT Patancheru, Hyderabad - TSPCB",18-04-2024 10:00:00,17.518400,78.278777,SO2,15,32,23
India,Telangana,Hyderabad,"IITH Kandi, Hyderabad - TSPCB",18-04-2024 10:00:00,17.585705,78.126199,PM2.5,27,57,40
India,Telangana,Hyderabad,"Kompally Municipal Office, Hyderabad - TSPCB",18-04-2024 10:00:00,17.544899,78.486949,PM10,NA,NA,NA
India,Telangana,Hyderabad,"Nacharam_TSIIC IALA, Hyderabad - TSPCB",18-04-2024 10:00:00,17.429398,78.569354,PM10,55,88,74
India,Telangana,Hyderabad,"Nacharam_TSIIC IALA, Hyderabad - TSPCB",18-04-2024 10:00:00,17.429398,78.569354,CO,26,46,30
India,Telangana,Hyderabad,"Somajiguda, Hyderabad - TSPCB",18-04-2024 10:00:00,17.417094,78.457437,NH3,NA,NA,NA
India,Telangana,Hyderabad,"Somajiguda, Hyderabad - TSPCB",18-04-2024 10:00:00,17.417094,78.457437,CO,NA,NA,NA
India,Telangana,Hyderabad,"Zoo Park, Hyderabad - TSPCB",18-04-2024 10:00:00,17.349694,78.451437,PM10,51,138,99
India,Telangana,Hyderabad,"Zoo Park, Hyderabad - TSPCB",18-04-2024 10:00:00,17.349694,78.451437,NO2,21,36,28
India,Telangana,Hyderabad,"Zoo Park, Hyderabad - TSPCB",18-04-2024 10:00:00,17.349694,78.451437,SO2,1,12,5
India,Tripura,Agartala,"Bardowali, Agartala - Tripura SPCB",18-04-2024 10:00:00,23.8175497,91.2726974,PM2.5,53,182,99
India,Tripura,Agartala,"Bardowali, Agartala - Tripura SPCB",18-04-2024 10:00:00,23.8175497,91.2726974,PM10,44,146,102
India,Uttar_Pradesh,Agra,"Manoharpur, Agra - UPPCB",18-04-2024 10:00:00,27.23711,78.01936,PM2.5,25,62,38
India,Uttar_Pradesh,Agra,"Manoharpur, Agra - UPPCB",18-04-2024 10:00:00,27.23711,78.01936,NH3,2,2,2
India,Uttar_Pradesh,Agra,"Manoharpur, Agra - UPPCB",18-04-2024 10:00:00,27.23711,78.01936,CO,6,10,8
India,Uttar_Pradesh,Agra,"Manoharpur, Agra - UPPCB",18-04-2024 10:00:00,27.23711,78.01936,OZONE,3,45,8
India,Uttar_Pradesh,Agra,"Rohta, Agra - UPPCB",18-04-2024 10:00:00,27.106972,78.000111,CO,4,12,10
India,Uttar_Pradesh,Agra,"Sanjay Palace, Agra - UPPCB",18-04-2024 10:00:00,27.19865833,78.00598056,PM10,20,74,42
India,Uttar_Pradesh,Agra,"Sanjay Palace, Agra - UPPCB",18-04-2024 10:00:00,27.19865833,78.00598056,NO2,24,42,30
India,Uttar_Pradesh,Agra,"Sector-3B Avas Vikas Colony, Agra - UPPCB",18-04-2024 10:00:00,27.19412,77.96237,PM10,42,106,71
India,Uttar_Pradesh,Agra,"Sector-3B Avas Vikas Colony, Agra - UPPCB",18-04-2024 10:00:00,27.19412,77.96237,NH3,3,10,6
India,Uttar_Pradesh,Agra,"Shahjahan Garden, Agra - UPPCB",18-04-2024 10:00:00,27.169338,78.03582,PM2.5,17,56,33
India,Uttar_Pradesh,Agra,"Shastripuram, Agra - UPPCB",18-04-2024 10:00:00,27.19862,77.92066,NH3,NA,NA,NA
India,Uttar_Pradesh,Baghpat,"Sardar Patel Inter College, Baghpat - UPPCB",18-04-2024 10:00:00,28.964949,77.278761,PM2.5,23,119,63
India,Uttar_Pradesh,Baghpat,"Sardar Patel Inter College, Baghpat - UPPCB",18-04-2024 10:00:00,28.964949,77.278761,PM10,96,196,142
India,Uttar_Pradesh,Bareilly,"Civil Lines, Bareilly - UPPCB",18-04-2024 10:00:00,28.359581,79.414455,PM2.5,4,9,7
India,Uttar_Pradesh,Bareilly,"Rajendra Nagar, Bareilly - UPPCB",18-04-2024 10:00:00,28.38910936,79.42963708,PM10,47,97,69
India,Uttar_Pradesh,Bulandshahr,"Yamunapuram, Bulandshahr - UPPCB",18-04-2024 10:00:00,28.406963,77.849831,PM2.5,19,214,64
India,Uttar_Pradesh,Firozabad,"Nagla Bhau, Firozabad - UPPCB",18-04-2024 10:00:00,27.168897,78.376960,CO,18,25,23
India,Uttar_Pradesh,Ghaziabad,"Loni, Ghaziabad - UPPCB",18-04-2024 10:00:00,28.757294,77.278792,PM2.5,27,290,111
India,Uttar_Pradesh,Ghaziabad,"Loni, Ghaziabad - UPPCB",18-04-2024 10:00:00,28.757294,77.278792,NH3,2,4,3
India,Uttar_Pradesh,Ghaziabad,"Loni, Ghaziabad - UPPCB",18-04-2024 10:00:00,28.757294,77.278792,SO2,7,42,20
India,Uttar_Pradesh,Ghaziabad,"Sanjay Nagar, Ghaziabad - UPPCB",18-04-2024 10:00:00,28.685382,77.453839,PM10,113,156,137
India,Uttar_Pradesh,Ghaziabad,"Sanjay Nagar, Ghaziabad - UPPCB",18-04-2024 10:00:00,28.685382,77.453839,NH3,4,9,6
India,Uttar_Pradesh,Ghaziabad,"Vasundhara, Ghaziabad - UPPCB",18-04-2024 10:00:00,28.6603346,77.3572563,NO2,18,103,48
India,Uttar_Pradesh,Ghaziabad,"Vasundhara, Ghaziabad - UPPCB",18-04-2024 10:00:00,28.6603346,77.3572563,NH3,6,12,8
India,Uttar_Pradesh,Gorakhpur,"Madan Mohan Malaviya University of Technology, Gorakhpur - UPPCB",18-04-2024 10:00:00,26.730136,83.433859,NO2,2,2,2
India,Uttar_Pradesh,Gorakhpur,"Madan Mohan Malaviya University of Technology, Gorakhpur - UPPCB",18-04-2024 10:00:00,26.730136,83.433859,OZONE,30,66,42
India,Uttar_Pradesh,Greater Noida,"Knowledge Park - III, Greater Noida - UPPCB",18-04-2024 10:00:00,28.47272,77.482000,PM10,144,258,178
India,Uttar_Pradesh,Hapur,"Anand Vihar, Hapur - UPPCB",18-04-2024 10:00:00,28.725645,77.749675,PM2.5,18,143,59
India,Uttar_Pradesh,Hapur,"Anand Vihar, Hapur - UPPCB",18-04-2024 10:00:00,28.725645,77.749675,NO2,4,37,13
India,Uttar_Pradesh,Kanpur,"FTI Kidwai Nagar, Kanpur - UPPCB",18-04-2024 10:00:00,26.428282,80.327067,NO2,11,12,12
India,Uttar_Pradesh,Kanpur,"NSI Kalyanpur, Kanpur - UPPCB",18-04-2024 10:00:00,26.509954,80.249612,CO,31,38,36
India,Uttar_Pradesh,Kanpur,"Nehru Nagar, Kanpur - UPPCB",18-04-2024 10:00:00,26.4703136,80.3229863,OZONE,49,271,60
India,Uttar_Pradesh,Lucknow,"B R Ambedkar University, Lucknow - UPPCB",18-04-2024 10:00:00,26.766433,80.927299,CO,20,26,25
India,Uttar_Pradesh,Lucknow,"Kendriya Vidyalaya, Lucknow - CPCB",18-04-2024 10:00:00,26.906111,80.948222,SO2,3,7,5
India,Uttar_Pradesh,Lucknow,"Kendriya Vidyalaya, Lucknow - CPCB",18-04-2024 10:00:00,26.906111,80.948222,OZONE,39,102,53
India,Uttar_Pradesh,Lucknow,"Kukrail Picnic Spot-1, Lucknow - UPPCB",18-04-2024 10:00:00,26.90723,80.98579,NO2,8,8,8
India,Uttar_Pradesh,Lucknow,"Lalbagh, Lucknow - CPCB",18-04-2024 10:00:00,26.8458805,80.9365541,NO2,2,12,5
India,Uttar_Pradesh,Lucknow,"Lalbagh, Lucknow - CPCB",18-04-2024 10:00:00,26.8458805,80.9365541,OZONE,22,37,27
India,Uttar_Pradesh,Lucknow,"Talkatora District Industries Center, Lucknow - CPCB",18-04-2024 10:00:00,26.83399722,80.8917361,CO,14,46,23
India,Uttar_Pradesh,Meerut,"Ganga Nagar, Meerut - UPPCB",18-04-2024 10:00:00,28.999264,77.7590354,PM10,NA,NA,NA
India,Uttar_Pradesh,Meerut,"Ganga Nagar, Meerut - UPPCB",18-04-2024 10:00:00,28.999264,77.7590354,NO2,NA,NA,NA
India,Uttar_Pradesh,Meerut,"Jai Bhim Nagar, Meerut - UPPCB",18-04-2024 10:00:00,28.9535882,77.7622941,PM2.5,11,58,31
India,Uttar_Pradesh,Meerut,"Jai Bhim Nagar, Meerut - UPPCB",18-04-2024 10:00:00,28.9535882,77.7622941,NO2,3,31,15
India,Uttar_Pradesh,Meerut,"Pallavpuram Phase 2, Meerut - UPPCB",18-04-2024 10:00:00,29.063510,77.709723,PM2.5,12,113,52
India,Uttar_Pradesh,Meerut,"Pallavpuram Phase 2, Meerut - UPPCB",18-04-2024 10:00:00,29.063510,77.709723,PM10,104,181,135
India,Uttar_Pradesh,Meerut,"Pallavpuram Phase 2, Meerut - UPPCB",18-04-2024 10:00:00,29.063510,77.709723,NO2,6,58,31
India,Uttar_Pradesh,Meerut,"Pallavpuram Phase 2, Meerut - UPPCB",18-04-2024 10:00:00,29.063510,77.709723,CO,21,52,42
India,Uttar_Pradesh,Moradabad,"Buddhi Vihar, Moradabad - UPPCB",18-04-2024 10:00:00,28.83526,78.74460,PM2.5,22,70,42
India,Uttar_Pradesh,Moradabad,"Eco Herbal Park, Moradabad - UPPCB",18-04-2024 10:00:00,28.840739,78.697531,CO,12,70,49
India,Uttar_Pradesh,Moradabad,"Eco Herbal Park, Moradabad - UPPCB",18-04-2024 10:00:00,28.840739,78.697531,OZONE,47,231,73
India,Uttar_Pradesh,Moradabad,"Kashiram Nagar, Moradabad - UPPCB",18-04-2024 10:00:00,28.849399,78.742362,PM2.5,19,69,46
India,Uttar_Pradesh,Moradabad,"Kashiram Nagar, Moradabad - UPPCB",18-04-2024 10:00:00,28.849399,78.742362,SO2,35,46,39
India,Uttar_Pradesh,Moradabad,"Transport Nagar, Moradabad - UPPCB",18-04-2024 10:00:00,28.802625,78.753728,PM2.5,11,69,35
India,Uttar_Pradesh,Muzaffarnagar,"New Mandi, Muzaffarnagar - UPPCB",18-04-2024 10:00:00,29.4723508,77.7194031,PM2.5,36,172,83
India,Uttar_Pradesh,Noida,"Sector - 125, Noida - UPPCB",18-04-2024 10:00:00,28.5447608,77.3231257,PM10,96,193,130
India,Uttar_Pradesh,Noida,"Sector-1, Noida - UPPCB",18-04-2024 10:00:00,28.5898,77.3101,SO2,9,25,15
India,Uttar_Pradesh,Noida,"Sector-116, Noida - UPPCB",18-04-2024 10:00:00,28.569230,77.393848,SO2,13,28,19
India,Uttar_Pradesh,Noida,"Sector-116, Noida - UPPCB",18-04-2024 10:00:00,28.569230,77.393848,OZONE,32,156,50
India,Uttar_Pradesh,Prayagraj,"Motilal Nehru NIT, Prayagraj - UPPCB",18-04-2024 10:00:00,25.494,81.863,PM10,46,158,99
India,Uttar_Pradesh,Varanasi,"Ardhali Bazar, Varanasi - UPPCB",18-04-2024 10:00:00,25.3505986,82.9083074,OZONE,13,16,14
India,Uttar_Pradesh,Varanasi,"Bhelupur, Varanasi - UPPCB",18-04-2024 10:00:00,25.301778,82.996789,SO2,27,30,29
India,Uttar_Pradesh,Vrindavan,"Omex Eternity, Vrindavan - UPPCB",18-04-2024 10:00:00,27.5714090,77.6557570,SO2,40,46,41
India,Uttarakhand,Dehradun,"Doon University, Dehradun - UKPCB",18-04-2024 10:00:00,30.269444,78.044167,NO2,1,6,3
India,Uttarakhand,Rishikesh,"Shivaji Nagar, Rishikesh - UKPCB",18-04-2024 10:00:00,30.075911,78.2859547,PM2.5,33,78,47
India,West_Bengal,Asansol,"Asansol Court Area, Asansol - WBPCB",18-04-2024 10:00:00,23.685297,86.945968,NO2,23,67,39
India,West_Bengal,Barrackpore,"SVSPA Campus, Barrackpore - WBPCB",18-04-2024 10:00:00,22.7605581,88.3617589,CO,NA,NA,NA
India,West_Bengal,Barrackpore,"SVSPA Campus, Barrackpore - WBPCB",18-04-2024 10:00:00,22.7605581,88.3617589,OZONE,6,78,18
India,West_Bengal,Durgapur,"Sidhu Kanhu Indoor Stadium, Durgapur - WBPCB",18-04-2024 10:00:00,23.5404352,87.2892225,PM2.5,76,290,156
India,West_Bengal,Durgapur,"Sidhu Kanhu Indoor Stadium, Durgapur - WBPCB",18-04-2024 10:00:00,23.5404352,87.2892225,CO,32,84,55
India,West_Bengal,Howrah,"Belur Math, Howrah - WBPCB",18-04-2024 10:00:00,22.629801,88.352017,PM2.5,65,109,82
India,West_Bengal,Howrah,"Ghusuri, Howrah - WBPCB",18-04-2024 10:00:00,22.611968,88.347422,PM10,93,204,143
India,West_Bengal,Howrah,"Ghusuri, Howrah - WBPCB",18-04-2024 10:00:00,22.611968,88.347422,NH3,2,3,3
India,West_Bengal,Howrah,"Padmapukur, Howrah - WBPCB",18-04-2024 10:00:00,22.5687319,88.2797276,PM2.5,60,132,82
India,West_Bengal,Howrah,"Padmapukur, Howrah - WBPCB",18-04-2024 10:00:00,22.5687319,88.2797276,PM10,69,139,100
India,West_Bengal,Kolkata,"Ballygunge, Kolkata - WBPCB",18-04-2024 10:00:00,22.5367507,88.3638022,CO,4,26,12
India,West_Bengal,Kolkata,"Fort William, Kolkata - WBPCB",18-04-2024 10:00:00,22.556640,88.342674,NO2,NA,NA,NA
India,West_Bengal,Kolkata,"Fort William, Kolkata - WBPCB",18-04-2024 10:00:00,22.556640,88.342674,CO,10,36,20
India,West_Bengal,Kolkata,"Jadavpur, Kolkata - WBPCB",18-04-2024 10:00:00,22.49929,88.36917,CO,10,30,17
India,West_Bengal,Kolkata,"Rabindra Bharati University, Kolkata - WBPCB",18-04-2024 10:00:00,22.627847,88.380669,PM2.5,37,71,56
India,West_Bengal,Kolkata,"Rabindra Bharati University, Kolkata - WBPCB",18-04-2024 10:00:00,22.627847,88.380669,CO,26,64,33
India,West_Bengal,Kolkata,"Rabindra Sarobar, Kolkata - WBPCB",18-04-2024 10:00:00,22.51106,88.35142,OZONE,28,123,41
India,West_Bengal,Kolkata,"Victoria, Kolkata - WBPCB",18-04-2024 10:00:00,22.5448082,88.3403691,PM10,75,134,107
India,Andhra_Pradesh,Amaravati,"Secretariat, Amaravati - APPCB",18-04-2024 10:00:00,16.5150833,80.5181667,PM10,35,82,58
India,Andhra_Pradesh,Anantapur,"Gulzarpet, Anantapur - APPCB",18-04-2024 10:00:00,14.675886,77.593027,PM2.5,NA,NA,NA
India,Andhra_Pradesh,Anantapur,"Gulzarpet, Anantapur - APPCB",18-04-2024 10:00:00,14.675886,77.593027,PM10,NA,NA,NA
India,Andhra_Pradesh,Anantapur,"Gulzarpet, Anantapur - APPCB",18-04-2024 10:00:00,14.675886,77.593027,SO2,5,13,8
India,Andhra_Pradesh,Anantapur,"Gulzarpet, Anantapur - APPCB",18-04-2024 10:00:00,14.675886,77.593027,OZONE,1,60,7
India,Andhra_Pradesh,Chittoor,"Gangineni Cheruvu, Chittoor - APPCB",18-04-2024 10:00:00,13.204880,79.097889,PM10,NA,NA,NA
India,Andhra_Pradesh,Chittoor,"Gangineni Cheruvu, Chittoor - APPCB",18-04-2024 10:00:00,13.204880,79.097889,NH3,NA,NA,NA
India,Andhra_Pradesh,Chittoor,"Gangineni Cheruvu, Chittoor - APPCB",18-04-2024 10:00:00,13.204880,79.097889,OZONE,NA,NA,NA
India,Andhra_Pradesh,Rajamahendravaram,"Anand Kala Kshetram, Rajamahendravaram - APPCB",18-04-2024 10:00:00,16.9872867,81.7363176,SO2,3,57,19
India,Andhra_Pradesh,Tirupati,"Vaikuntapuram, Tirupati - APPCB",18-04-2024 10:00:00,13.615387,79.409230,PM10,NA,NA,NA
India,Andhra_Pradesh,Tirupati,"Vaikuntapuram, Tirupati - APPCB",18-04-2024 10:00:00,13.615387,79.409230,CO,10,10,10
India,Andhra_Pradesh,Visakhapatnam,"GVM Corporation, Visakhapatnam - APPCB",18-04-2024 10:00:00,17.72,83.3,NO2,37,66,53
India,Assam,Byrnihat,"Central Academy for SFS, Byrnihat - PCBA",18-04-2024 10:00:00,26.071318,91.87488,NO2,45,107,68
India,Assam,Byrnihat,"Central Academy for SFS, Byrnihat - PCBA",18-04-2024 10:00:00,26.071318,91.87488,CO,34,80,55
India,Assam,Guwahati,"LGBI Airport, Guwahati - PCBA",18-04-2024 10:00:00,26.10887,91.589544,NO2,23,114,63
India,Assam,Guwahati,"LGBI Airport, Guwahati - PCBA",18-04-2024 10:00:00,26.10887,91.589544,NH3,2,9,5
India,Assam,Guwahati,"Railway Colony, Guwahati - PCBA",18-04-2024 10:00:00,26.181742,91.78063,CO,8,26,12
India,Assam,Nalbari,"Bata Chowk, Nalbari - PCBA",18-04-2024 10:00:00,26.446912,91.439057,PM2.5,20,77,44
India,Assam,Nalbari,"Bata Chowk, Nalbari - PCBA",18-04-2024 10:00:00,26.446912,91.439057,NO2,6,13,9
India,Assam,Nalbari,"Bata Chowk, Nalbari - PCBA",18-04-2024 10:00:00,26.446912,91.439057,CO,22,82,65
India,Bihar,Araria,"Kharahiya Basti, Araria - BSPCB",18-04-2024 10:00:00,26.146529,87.454184,NH3,5,7,6
India,Bihar,Araria,"Kharahiya Basti, Araria - BSPCB",18-04-2024 10:00:00,26.146529,87.454184,CO,20,32,25
India,Bihar,Arrah,"New DM Office, Arrah - BSPCB",18-04-2024 10:00:00,25.5626095,84.663264,NO2,NA,NA,NA
India,Bihar,Aurangabad,"Gurdeo Nagar, Aurangabad - BSPCB",18-04-2024 10:00:00,24.75746,84.366208,NO2,4,5,5
India,Bihar,Bettiah,"Kamalnath Nagar, Bettiah - BSPCB",18-04-2024 10:00:00,26.80365,84.51954,PM10,123,288,172
India,Bihar,Bettiah,"Kamalnath Nagar, Bettiah - BSPCB",18-04-2024 10:00:00,26.80365,84.51954,SO2,10,30,13
India,Bihar,Bhagalpur,"DM Office_Kachari Chowk, Bhagalpur - BSPCB",18-04-2024 10:00:00,25.251013,86.989001,OZONE,45,50,46
India,Bihar,Bhagalpur,"Mayaganj, Bhagalpur - BSPCB",18-04-2024 10:00:00,25.265194,87.012947,OZONE,13,94,27
India,Bihar,Bihar Sharif,"D M Colony, Bihar Sharif - BSPCB",18-04-2024 10:00:00,25.204762,85.514960,PM10,60,101,78
India,Bihar,Bihar Sharif,"D M Colony, Bihar Sharif - BSPCB",18-04-2024 10:00:00,25.204762,85.514960,OZONE,16,53,44
India,Bihar,Chhapra,"Darshan Nagar, Chhapra - BSPCB",18-04-2024 10:00:00,25.7808257,84.7446768,PM2.5,173,331,249
India,Bihar,Chhapra,"Darshan Nagar, Chhapra - BSPCB",18-04-2024 10:00:00,25.7808257,84.7446768,NO2,23,33,27
India,Bihar,Gaya,"Collectorate, Gaya - BSPCB",18-04-2024 10:00:00,24.7955,84.9994,NO2,NA,NA,NA
India,Bihar,Gaya,"Kareemganj, Gaya - BSPCB",18-04-2024 10:00:00,24.792403,84.992416,PM2.5,20,60,38
India,Bihar,Gaya,"Kareemganj, Gaya - BSPCB",18-04-2024 10:00:00,24.792403,84.992416,PM10,65,140,98
India,Bihar,Hajipur,"Industrial Area, Hajipur - BSPCB",18-04-2024 10:00:00,25.697189,85.245900,PM10,206,422,273
India,Bihar,Hajipur,"Industrial Area, Hajipur - BSPCB",18-04-2024 10:00:00,25.697189,85.245900,OZONE,22,82,35
India,Bihar,Katihar,"Mirchaibari, Katihar - BSPCB",18-04-2024 10:00:00,25.560083,87.553265,SO2,16,21,18
India,Bihar,Katihar,"Mirchaibari, Katihar - BSPCB",18-04-2024 10:00:00,25.560083,87.553265,OZONE,10,16,11
India,Bihar,Manguraha,"Forest Rest House, Manguraha - BSPCB",18-04-2024 10:00:00,27.308328,84.531742,NO2,16,21,18
India,Bihar,Manguraha,"Forest Rest House, Manguraha - BSPCB",18-04-2024 10:00:00,27.308328,84.531742,CO,14,38,30
India,Bihar,Muzaffarpur,"Buddha Colony, Muzaffarpur - BSPCB",18-04-2024 10:00:00,26.11442,85.39813,SO2,4,35,9
India,Bihar,Muzaffarpur,"Buddha Colony, Muzaffarpur - BSPCB",18-04-2024 10:00:00,26.11442,85.39813,CO,15,65,28
India,Bihar,Muzaffarpur,"Muzaffarpur Collectorate, Muzaffarpur - BSPCB",18-04-2024 10:00:00,26.1209,85.3647,SO2,4,12,7
India,Bihar,Patna,"DRM Office Danapur, Patna - BSPCB",18-04-2024 10:00:00,25.586562,85.043586,PM10,140,183,159
India,Bihar,Patna,"DRM Office Danapur, Patna - BSPCB",18-04-2024 10:00:00,25.586562,85.043586,NH3,3,3,3
India,Bihar,Patna,"DRM Office Danapur, Patna - BSPCB",18-04-2024 10:00:00,25.586562,85.043586,SO2,7,16,12
India,Bihar,Patna,"IGSC Planetarium Complex, Patna - BSPCB",18-04-2024 10:00:00,25.610369,85.132568,OZONE,7,42,28
India,Bihar,Patna,"Muradpur, Patna - BSPCB",18-04-2024 10:00:00,25.619651,85.147382,PM10,144,500,297
India,Bihar,Patna,"Muradpur, Patna - BSPCB",18-04-2024 10:00:00,25.619651,85.147382,NH3,2,4,3
India,Bihar,Patna,"Rajbansi Nagar, Patna - BSPCB",18-04-2024 10:00:00,25.599486,85.113666,OZONE,24,123,48
India,Bihar,Patna,"Samanpura, Patna - BSPCB",18-04-2024 10:00:00,25.596727,85.085624,CO,26,111,63
India,Bihar,Purnia,"Mariam Nagar, Purnia - BSPCB",18-04-2024 10:00:00,25.366336,87.117468,PM10,54,197,126
India,Bihar,Purnia,"Mariam Nagar, Purnia - BSPCB",18-04-2024 10:00:00,25.366336,87.117468,SO2,6,12,9
India,Bihar,Rajgir,"Dangi Tola, Rajgir - BSPCB",18-04-2024 10:00:00,25.03280,85.41948,PM10,NA,NA,NA
India,Bihar,Rajgir,"Dangi Tola, Rajgir - BSPCB",18-04-2024 10:00:00,25.03280,85.41948,SO2,2,5,4
India,Bihar,Saharsa,"Police Line, Saharsa - BSPCB",18-04-2024 10:00:00,25.892357,86.590325,PM10,94,165,120
India,Bihar,Samastipur,"DM Office_Kasipur, Samastipur - BSPCB",18-04-2024 10:00:00,25.859655,85.77944,NO2,2,13,6
India,Bihar,Samastipur,"DM Office_Kasipur, Samastipur - BSPCB",18-04-2024 10:00:00,25.859655,85.77944,NH3,3,4,3
India,Bihar,Siwan,"Chitragupta Nagar, Siwan - BSPCB",18-04-2024 10:00:00,26.2271665,84.3570427,PM2.5,NA,NA,NA
India,Bihar,Siwan,"Chitragupta Nagar, Siwan - BSPCB",18-04-2024 10:00:00,26.2271665,84.3570427,SO2,NA,NA,NA
India,Chandigarh,Chandigarh,"Sector 22, Chandigarh - CPCC",18-04-2024 10:00:00,30.735567,76.775714,CO,NA,NA,NA
India,Chandigarh,Chandigarh,"Sector-25, Chandigarh - CPCC",18-04-2024 10:00:00,30.751462,76.762879,PM10,85,132,112
India,Chandigarh,Chandigarh,"Sector-25, Chandigarh - CPCC",18-04-2024 10:00:00,30.751462,76.762879,SO2,7,126,17
India,Chandigarh,Chandigarh,"Sector-53, Chandigarh - CPCC",18-04-2024 10:00:00,30.719859,76.738637,PM10,47,500,149
India,Chandigarh,Chandigarh,"Sector-53, Chandigarh - CPCC",18-04-2024 10:00:00,30.719859,76.738637,SO2,3,31,14
India,Chhattisgarh,Bhilai,"32Bungalows, Bhilai - CECB",18-04-2024 10:00:00,21.194815,81.314770,SO2,4,9,6
India,Chhattisgarh,Bhilai,"Civic Center, Bhilai - Bhilai Steel Plant",18-04-2024 10:00:00,21.185571,81.343175,PM2.5,25,74,36
India,Chhattisgarh,Bhilai,"Civic Center, Bhilai - Bhilai Steel Plant",18-04-2024 10:00:00,21.185571,81.343175,CO,18,58,34
India,Chhattisgarh,Bhilai,"Hathkhoj, Bhilai - CECB",18-04-2024 10:00:00,21.224231,81.408350,PM2.5,21,95,55
India,Chhattisgarh,Bilaspur,"Mangala, Bilaspur - NTPC",18-04-2024 10:00:00,22.08815,82.13737,NO2,13,15,14
India,Chhattisgarh,Korba,"Rampur, Korba - CECB",18-04-2024 10:00:00,22.368195,82.746431,PM10,NA,NA,NA
India,Chhattisgarh,Korba,"Urja Nagar, Korba - CECB",18-04-2024 10:00:00,22.348441,82.549611,NH3,3,10,6
India,Chhattisgarh,Kunjemura,"OP Jindal School, Kunjemura - CECB",18-04-2024 10:00:00,22.126650,83.483212,PM2.5,32,315,116
India,Chhattisgarh,Raipur,"AIIMS, Raipur - CECB",18-04-2024 10:00:00,21.258815,81.578979,SO2,5,62,16
India,Chhattisgarh,Raipur,"Bhatagaon New ISBT, Raipur - CECB",18-04-2024 10:00:00,21.219665,81.630094,OZONE,3,9,3
India,Chhattisgarh,Raipur,"Krishak Nagar, Raipur - CECB",18-04-2024 10:00:00,21.237755,81.705301,SO2,12,70,22
India,Chhattisgarh,Tumidih,"OP Jindal Industrial Park, Tumidih - CECB",18-04-2024 10:00:00,22.06631475,83.33820077,PM10,NA,NA,NA
India,Chhattisgarh,Tumidih,"OP Jindal Industrial Park, Tumidih - CECB",18-04-2024 10:00:00,22.06631475,83.33820077,SO2,5,41,8
India,Delhi,Delhi,"Alipur, Delhi - DPCC",18-04-2024 10:00:00,28.815329,77.153010,SO2,12,32,19
India,Delhi,Delhi,"Alipur, Delhi - DPCC",18-04-2024 10:00:00,28.815329,77.153010,CO,35,52,46
India,Delhi,Delhi,"Anand Vihar, Delhi - DPCC",18-04-2024 10:00:00,28.647622,77.3158090,CO,21,72,45
India,Delhi,Delhi,"Aya Nagar, Delhi - IMD",18-04-2024 10:00:00,28.4706914,77.1099364,PM2.5,NA,NA,NA
India,Delhi,Delhi,"Aya Nagar, Delhi - IMD",18-04-2024 10:00:00,28.4706914,77.1099364,OZONE,10,24,15
India,Delhi,Delhi,"Bawana, Delhi - DPCC",18-04-2024 10:00:00,28.776200,77.051074,PM2.5,28,337,130
India,Delhi,Delhi,"Bawana, Delhi - DPCC",18-04-2024 10:00:00,28.776200,77.051074,PM10,123,340,203
India,Delhi,Delhi,"Bawana, Delhi - DPCC",18-04-2024 10:00:00,28.776200,77.051074,NH3,4,7,5
India,Delhi,Delhi,"Burari Crossing, Delhi - IMD",18-04-2024 10:00:00,28.7256504,77.2011573,PM2.5,NA,NA,NA
India,Delhi,Delhi,"Burari Crossing, Delhi - IMD",18-04-2024 10:00:00,28.7256504,77.2011573,NO2,NA,NA,NA
India,Delhi,Delhi,"Burari Crossing, Delhi - IMD",18-04-2024 10:00:00,28.7256504,77.2011573,CO,6,16,13
India,Delhi,Delhi,"Chandni Chowk, Delhi - IITM",18-04-2024 10:00:00,28.656756,77.227234,NO2,8,232,43
India,Delhi,Delhi,"Chandni Chowk, Delhi - IITM",18-04-2024 10:00:00,28.656756,77.227234,SO2,9,50,24
India,Delhi,Delhi,"DTU, Delhi - CPCB",18-04-2024 10:00:00,28.7500499,77.1112615,PM10,112,500,199
India,Delhi,Delhi,"DTU, Delhi - CPCB",18-04-2024 10:00:00,28.7500499,77.1112615,NO2,8,13,10
India,Delhi,Delhi,"Dwarka-Sector 8, Delhi - DPCC ",18-04-2024 10:00:00,28.5710274,77.0719006,PM10,118,472,217
India,Delhi,Delhi,"IGI Airport (T3), Delhi - IMD",18-04-2024 10:00:00,28.5627763,77.1180053,OZONE,6,36,12
India,Delhi,Delhi,"ITO, Delhi - CPCB",18-04-2024 10:00:00,28.628624,77.241060,PM2.5,28,118,58
India,Delhi,Delhi,"Jahangirpuri, Delhi - DPCC",18-04-2024 10:00:00,28.732820,77.170633,PM2.5,26,315,120
India,Delhi,Delhi,"Jawaharlal Nehru Stadium, Delhi - DPCC",18-04-2024 10:00:00,28.580280,77.233829,NH3,5,9,7
India,Delhi,Delhi,"Jawaharlal Nehru Stadium, Delhi - DPCC",18-04-2024 10:00:00,28.580280,77.233829,OZONE,1,179,37
India,Delhi,Delhi,"Lodhi Road, Delhi - IITM",18-04-2024 10:00:00,28.588333,77.221667,NO2,69,99,86
India,Delhi,Delhi,"Lodhi Road, Delhi - IITM",18-04-2024 10:00:00,28.588333,77.221667,OZONE,15,21,15
India,Delhi,Delhi,"Lodhi Road, Delhi - IMD",18-04-2024 10:00:00,28.5918245,77.2273074,PM2.5,29,178,72
India,Delhi,Delhi,"Lodhi Road, Delhi - IMD",18-04-2024 10:00:00,28.5918245,77.2273074,CO,8,14,12
India,Delhi,Delhi,"Mandir Marg, Delhi - DPCC",18-04-2024 10:00:00,28.636429,77.201067,NO2,99,111,105
India,Delhi,Delhi,"Mandir Marg, Delhi - DPCC",18-04-2024 10:00:00,28.636429,77.201067,SO2,2,15,7
India,Delhi,Delhi,"Mandir Marg, Delhi - DPCC",18-04-2024 10:00:00,28.636429,77.201067,OZONE,1,22,6
India,Delhi,Delhi,"NSIT Dwarka, Delhi - CPCB",18-04-2024 10:00:00,28.60909,77.0325413,PM2.5,118,270,210
India,Delhi,Delhi,"Najafgarh, Delhi - DPCC",18-04-2024 10:00:00,28.570173,76.933762,CO,38,57,51
India,Delhi,Delhi,"Narela, Delhi - DPCC",18-04-2024 10:00:00,28.822836,77.101981,PM10,127,410,203
India,Delhi,Delhi,"Narela, Delhi - DPCC",18-04-2024 10:00:00,28.822836,77.101981,NH3,5,8,6
India,Delhi,Delhi,"Okhla Phase-2, Delhi - DPCC",18-04-2024 10:00:00,28.530785,77.271255,PM2.5,18,252,72
India,Delhi,Delhi,"Okhla Phase-2, Delhi - DPCC",18-04-2024 10:00:00,28.530785,77.271255,NH3,7,9,8
India,Delhi,Delhi,"Okhla Phase-2, Delhi - DPCC",18-04-2024 10:00:00,28.530785,77.271255,OZONE,10,94,22
India,Delhi,Delhi,"Patparganj, Delhi - DPCC",18-04-2024 10:00:00,28.623763,77.287209,NH3,8,9,8
India,Delhi,Delhi,"Punjabi Bagh, Delhi - DPCC",18-04-2024 10:00:00,28.674045,77.131023,PM10,103,247,150
India,Delhi,Delhi,"Punjabi Bagh, Delhi - DPCC",18-04-2024 10:00:00,28.674045,77.131023,CO,36,55,43
India,Delhi,Delhi,"Pusa, Delhi - DPCC",18-04-2024 10:00:00,28.639652,77.146275,SO2,9,36,20
India,Delhi,Delhi,"Pusa, Delhi - DPCC",18-04-2024 10:00:00,28.639652,77.146275,CO,12,66,38
India,Delhi,Delhi,"Pusa, Delhi - DPCC",18-04-2024 10:00:00,28.639652,77.146275,OZONE,10,84,24
India,Delhi,Delhi,"Pusa, Delhi - IMD",18-04-2024 10:00:00,28.636110,77.173332,CO,83,94,89
India,Delhi,Delhi,"R K Puram, Delhi - DPCC",18-04-2024 10:00:00,28.563262,77.186937,PM2.5,41,314,113
India,Delhi,Delhi,"R K Puram, Delhi - DPCC",18-04-2024 10:00:00,28.563262,77.186937,NO2,21,102,60
India,Delhi,Delhi,"R K Puram, Delhi - DPCC",18-04-2024 10:00:00,28.563262,77.186937,CO,14,66,42
India,Delhi,Delhi,"Rohini, Delhi - DPCC",18-04-2024 10:00:00,28.732528,77.119920,PM2.5,26,319,118
India,Delhi,Delhi,"Sirifort, Delhi - CPCB",18-04-2024 10:00:00,28.5504249,77.2159377,PM10,106,270,150
India,Delhi,Delhi,"Sirifort, Delhi - CPCB",18-04-2024 10:00:00,28.5504249,77.2159377,CO,7,35,27
India,Delhi,Delhi,"Sonia Vihar, Delhi - DPCC",18-04-2024 10:00:00,28.710508,77.249485,PM10,86,186,139
India,Delhi,Delhi,"Sonia Vihar, Delhi - DPCC",18-04-2024 10:00:00,28.710508,77.249485,NO2,12,73,37
India,Delhi,Delhi,"Sonia Vihar, Delhi - DPCC",18-04-2024 10:00:00,28.710508,77.249485,OZONE,19,119,39
India,Delhi,Delhi,"Sri Aurobindo Marg, Delhi - DPCC",18-04-2024 10:00:00,28.531346,77.190156,SO2,12,79,26
India,Delhi,Delhi,"Sri Aurobindo Marg, Delhi - DPCC",18-04-2024 10:00:00,28.531346,77.190156,OZONE,11,73,20
India,Delhi,Delhi,"Vivek Vihar, Delhi - DPCC",18-04-2024 10:00:00,28.672342,77.315260,PM2.5,15,147,70
India,Delhi,Delhi,"Vivek Vihar, Delhi - DPCC",18-04-2024 10:00:00,28.672342,77.315260,PM10,117,185,154
India,Delhi,Delhi,"Wazirpur, Delhi - DPCC",18-04-2024 10:00:00,28.699793,77.165453,SO2,8,26,16
India,Gujarat,Ahmedabad,"Gyaspur, Ahmedabad - IITM",18-04-2024 10:00:00,22.977134,72.553024,PM2.5,53,315,125
India,Gujarat,Ahmedabad,"Maninagar, Ahmedabad - GPCB",18-04-2024 10:00:00,23.002657,72.591912,NO2,25,107,43
India,Gujarat,Ahmedabad,"Rakhial, Ahmedabad - IITM",18-04-2024 10:00:00,23.016834,72.625775,PM2.5,47,127,69
India,Gujarat,Ahmedabad,"Rakhial, Ahmedabad - IITM",18-04-2024 10:00:00,23.016834,72.625775,CO,6,86,27
India,Gujarat,Ahmedabad,"SAC ISRO Satellite, Ahmedabad - IITM",18-04-2024 10:00:00,23.023389,72.515201,CO,26,35,32
India,Gujarat,Ahmedabad,"SVPI Airport Hansol, Ahmedabad - IITM",18-04-2024 10:00:00,23.076793,72.627874,PM10,81,172,113
India,Gujarat,Ahmedabad,"SVPI Airport Hansol, Ahmedabad - IITM",18-04-2024 10:00:00,23.076793,72.627874,CO,60,105,66
India,Gujarat,Ankleshwar,"GIDC, Ankleshwar - GPCB",18-04-2024 10:00:00,21.613267,73.010555,PM2.5,33,78,55
India,Gujarat,Ankleshwar,"GIDC, Ankleshwar - GPCB",18-04-2024 10:00:00,21.613267,73.010555,CO,56,102,73
India,Gujarat,Gandhinagar,"IIPHG Lekawada, Gandhinagar - IITM",18-04-2024 10:00:00,23.243639,72.68994,CO,2,29,13
India,Gujarat,Surat,"Science Center, Surat - SMC",18-04-2024 10:00:00,21.170046,72.795405,PM2.5,2,28,14
India,Gujarat,Vapi,"Phase-1 GIDC, Vapi - GPCB",18-04-2024 10:00:00,20.362421,72.918013,NO2,6,7,7
India,Gujarat,Vapi,"Phase-1 GIDC, Vapi - GPCB",18-04-2024 10:00:00,20.362421,72.918013,OZONE,3,7,3
India,Haryana,Ambala,"Patti Mehar, Ambala - HSPCB",18-04-2024 10:00:00,30.379589,76.778328,PM2.5,12,50,31
India,Haryana,Bahadurgarh,"Arya Nagar, Bahadurgarh - HSPCB",18-04-2024 10:00:00,28.6701,76.9254,NH3,10,12,11
India,Haryana,Bahadurgarh,"Arya Nagar, Bahadurgarh - HSPCB",18-04-2024 10:00:00,28.6701,76.9254,SO2,3,57,23
India,Haryana,Bahadurgarh,"Arya Nagar, Bahadurgarh - HSPCB",18-04-2024 10:00:00,28.6701,76.9254,OZONE,40,51,44
India,Haryana,Charkhi Dadri,"Mini Secretariat, Charkhi Dadri - HSPCB",18-04-2024 10:00:00,28.593883,76.270653,SO2,3,27,14
India,Haryana,Faridabad,"New Industrial Town, Faridabad - HSPCB",18-04-2024 10:00:00,28.39072,77.30059,PM10,119,416,201
India,Haryana,Faridabad,"Sector 11, Faridabad - HSPCB",18-04-2024 10:00:00,28.376058,77.315741,PM2.5,135,242,184
India,Haryana,Faridabad,"Sector 11, Faridabad - HSPCB",18-04-2024 10:00:00,28.376058,77.315741,SO2,4,121,11
India,Haryana,Faridabad,"Sector 11, Faridabad - HSPCB",18-04-2024 10:00:00,28.376058,77.315741,CO,34,51,50
India,Haryana,Gurugram,"Sector-51, Gurugram - HSPCB",18-04-2024 10:00:00,28.4227,77.0667,PM10,118,205,150
India,Haryana,Gurugram,"Teri Gram, Gurugram - HSPCB",18-04-2024 10:00:00,28.4275,77.1465,SO2,2,5,4
India,Haryana,Hisar,"Urban Estate-II, Hisar - HSPCB",18-04-2024 10:00:00,29.140560,75.744941,PM2.5,29,114,51
India,Haryana,Hisar,"Urban Estate-II, Hisar - HSPCB",18-04-2024 10:00:00,29.140560,75.744941,NO2,21,45,33
India,Haryana,Hisar,"Urban Estate-II, Hisar - HSPCB",18-04-2024 10:00:00,29.140560,75.744941,SO2,NA,NA,NA
India,Haryana,Hisar,"Urban Estate-II, Hisar - HSPCB",18-04-2024 10:00:00,29.140560,75.744941,CO,25,52,26
India,Haryana,Jind,"Police Lines, Jind - HSPCB",18-04-2024 10:00:00,29.307814,76.337619,NO2,5,15,11
India,Haryana,Jind,"Police Lines, Jind - HSPCB",18-04-2024 10:00:00,29.307814,76.337619,OZONE,5,22,11
India,Haryana,Kaithal,"Rishi Nagar, Kaithal - HSPCB",18-04-2024 10:00:00,29.8006,76.4155,PM2.5,17,61,41
India,Haryana,Kaithal,"Rishi Nagar, Kaithal - HSPCB",18-04-2024 10:00:00,29.8006,76.4155,NO2,24,26,25
India,Haryana,Kaithal,"Rishi Nagar, Kaithal - HSPCB",18-04-2024 10:00:00,29.8006,76.4155,SO2,5,34,17
India,Haryana,Karnal,"Sector-12, Karnal - HSPCB",18-04-2024 10:00:00,29.695300,77.002700,NO2,7,12,10
India,Haryana,Kurukshetra,"Sector-7, Kurukshetra - HSPCB",18-04-2024 10:00:00,29.966942,76.875879,NH3,4,5,5
India,Haryana,Kurukshetra,"Sector-7, Kurukshetra - HSPCB",18-04-2024 10:00:00,29.966942,76.875879,CO,4,22,17
India,Haryana,Mandikhera,"General Hospital, Mandikhera - HSPCB",18-04-2024 10:00:00,27.9002,76.9938,PM2.5,14,46,30
India,Haryana,Manesar,"Sector-2 IMT, Manesar - HSPCB",18-04-2024 10:00:00,28.360699,76.936090,NO2,26,84,48
India,Haryana,Manesar,"Sector-2 IMT, Manesar - HSPCB",18-04-2024 10:00:00,28.360699,76.936090,SO2,1,15,6
India,Haryana,Narnaul,"Shastri Nagar, Narnaul - HSPCB",18-04-2024 10:00:00,28.060249,76.113115,OZONE,34,64,61
India,Haryana,Palwal,"Shyam Nagar, Palwal - HSPCB",18-04-2024 10:00:00,28.1485564,77.3320667,PM2.5,45,79,55
India,Haryana,Palwal,"Shyam Nagar, Palwal - HSPCB",18-04-2024 10:00:00,28.1485564,77.3320667,NH3,8,9,9
India,Haryana,Palwal,"Shyam Nagar, Palwal - HSPCB",18-04-2024 10:00:00,28.1485564,77.3320667,SO2,4,18,11
India,Haryana,Palwal,"Shyam Nagar, Palwal - HSPCB",18-04-2024 10:00:00,28.1485564,77.3320667,CO,22,30,26
India,Haryana,Panchkula,"Sector-6, Panchkula - HSPCB ",18-04-2024 10:00:00,30.7057778,76.8531805555555,OZONE,36,83,53
India,Haryana,Panipat,"Sector-18, Panipat - HSPCB",18-04-2024 10:00:00,29.497973,76.993331,NH3,2,3,2
India,Haryana,Panipat,"Sector-18, Panipat - HSPCB",18-04-2024 10:00:00,29.497973,76.993331,CO,24,26,25
India,Haryana,Sirsa,"F-Block, Sirsa - HSPCB",18-04-2024 10:00:00,29.536400,75.015800,NH3,12,13,13
India,Haryana,Sirsa,"F-Block, Sirsa - HSPCB",18-04-2024 10:00:00,29.536400,75.015800,SO2,1,7,2
India,Haryana,Sonipat,"Murthal, Sonipat - HSPCB",18-04-2024 10:00:00,29.027200,77.062100,PM2.5,29,139,81
India,Haryana,Yamuna Nagar,"Gobind Pura, Yamuna Nagar - HSPCB",18-04-2024 10:00:00,30.1480566,77.2893471,NO2,11,29,18
India,Haryana,Yamuna Nagar,"Gobind Pura, Yamuna Nagar - HSPCB",18-04-2024 10:00:00,30.1480566,77.2893471,SO2,2,46,8
India,Himachal Pradesh,Baddi,"HIMUDA Complex Phase-1, Baddi - HPPCB",18-04-2024 10:00:00,30.943887,76.801991,PM2.5,15,322,87
India,Himachal Pradesh,Baddi,"HIMUDA Complex Phase-1, Baddi - HPPCB",18-04-2024 10:00:00,30.943887,76.801991,NO2,8,67,24
India,Jharkhand,Dhanbad,"Kalakusuma, Dhanbad - DMC",18-04-2024 10:00:00,23.811548,86.481238,PM10,83,166,101
India,Jharkhand,Dhanbad,"Sardar Patel Nagar, Dhanbad - JSPCB",18-04-2024 10:00:00,23.80569,86.44268,NO2,NA,NA,NA
India,Jharkhand,Dhanbad,"Sardar Patel Nagar, Dhanbad - JSPCB",18-04-2024 10:00:00,23.80569,86.44268,SO2,NA,NA,NA
India,Karnataka,Bagalkot,"Vidayagiri, Bagalkot - KSPCB",18-04-2024 10:00:00,16.172806,75.659694,NO2,9,11,9
India,Karnataka,Bagalkot,"Vidayagiri, Bagalkot - KSPCB",18-04-2024 10:00:00,16.172806,75.659694,NH3,1,2,1
India,Karnataka,Bagalkot,"Vidayagiri, Bagalkot - KSPCB",18-04-2024 10:00:00,16.172806,75.659694,OZONE,9,37,16
India,Karnataka,Belgaum,"Ramteerth Nagar, Belgaum - KSPCB",18-04-2024 10:00:00,15.888653,74.541751,PM2.5,21,39,26
India,Karnataka,Belgaum,"Ramteerth Nagar, Belgaum - KSPCB",18-04-2024 10:00:00,15.888653,74.541751,SO2,8,9,8
India,Karnataka,Bengaluru,"BTM Layout, Bengaluru - CPCB",18-04-2024 10:00:00,12.9135218,77.5950804,PM10,42,85,64
India,Karnataka,Bengaluru,"BTM Layout, Bengaluru - CPCB",18-04-2024 10:00:00,12.9135218,77.5950804,SO2,8,17,10
India,Karnataka,Bengaluru,"BTM Layout, Bengaluru - CPCB",18-04-2024 10:00:00,12.9135218,77.5950804,CO,14,28,25
India,Karnataka,Bengaluru,"BTM Layout, Bengaluru - CPCB",18-04-2024 10:00:00,12.9135218,77.5950804,OZONE,4,55,6
India,Karnataka,Bengaluru,"Bapuji Nagar, Bengaluru - KSPCB",18-04-2024 10:00:00,12.951913,77.539784,NO2,10,11,11
India,Karnataka,Bengaluru,"Bapuji Nagar, Bengaluru - KSPCB",18-04-2024 10:00:00,12.951913,77.539784,SO2,3,9,7
India,Karnataka,Bengaluru,"Hombegowda Nagar, Bengaluru - KSPCB",18-04-2024 10:00:00,12.938539,77.590100,NH3,1,2,1
India,Karnataka,Bengaluru,"Hombegowda Nagar, Bengaluru - KSPCB",18-04-2024 10:00:00,12.938539,77.590100,SO2,4,4,4
India,Karnataka,Bengaluru,"Hombegowda Nagar, Bengaluru - KSPCB",18-04-2024 10:00:00,12.938539,77.590100,OZONE,4,5,4
India,Karnataka,Bengaluru,"Peenya, Bengaluru - CPCB",18-04-2024 10:00:00,13.0270199,77.494094,NO2,1,52,9
India,Karnataka,Bengaluru,"RVCE-Mailasandra, Bengaluru - KSPCB",18-04-2024 10:00:00,12.921418,77.502466,PM2.5,78,334,215
India,Karnataka,Bengaluru,"Sanegurava Halli, Bengaluru - KSPCB",18-04-2024 10:00:00,12.990328,77.5431385,SO2,2,3,3
India,Karnataka,Bengaluru,"Sanegurava Halli, Bengaluru - KSPCB",18-04-2024 10:00:00,12.990328,77.5431385,CO,3,58,19
India,Karnataka,Bengaluru,"Shivapura_Peenya, Bengaluru - KSPCB",18-04-2024 10:00:00,13.0246342,77.5080115,CO,30,92,32
India,Karnataka,Bengaluru,"Silk Board, Bengaluru - KSPCB",18-04-2024 10:00:00,12.917348,77.622813,PM10,27,111,77
India,Karnataka,Bengaluru,"Silk Board, Bengaluru - KSPCB",18-04-2024 10:00:00,12.917348,77.622813,NH3,2,2,2
India,Karnataka,Chamarajanagar,"Urban, Chamarajanagar - KSPCB",18-04-2024 10:00:00,11.55358,76.55521,PM10,34,59,43
India,Karnataka,Chamarajanagar,"Urban, Chamarajanagar - KSPCB",18-04-2024 10:00:00,11.55358,76.55521,NO2,24,36,34
India,Karnataka,Chikkaballapur,"Chikkaballapur Rural, Chikkaballapur - KSPCB",18-04-2024 10:00:00,13.428828,77.731418,NH3,1,1,1
India,Karnataka,Chikkaballapur,"Chikkaballapur Rural, Chikkaballapur - KSPCB",18-04-2024 10:00:00,13.428828,77.731418,OZONE,25,26,26
India,Karnataka,Chikkamagaluru,"Kalyana Nagara, Chikkamagaluru - KSPCB",18-04-2024 10:00:00,13.328028,75.797056,PM2.5,9,61,40
India,Karnataka,Chikkamagaluru,"Kalyana Nagara, Chikkamagaluru - KSPCB",18-04-2024 10:00:00,13.328028,75.797056,PM10,17,68,53
India,Karnataka,Davanagere,"Devaraj Urs Badavane, Davanagere - KSPCB",18-04-2024 10:00:00,14.475800,75.905200,PM10,NA,NA,NA
India,Karnataka,Davanagere,"Devaraj Urs Badavane, Davanagere - KSPCB",18-04-2024 10:00:00,14.475800,75.905200,NH3,NA,NA,NA
India,Karnataka,Davanagere,"Devaraj Urs Badavane, Davanagere - KSPCB",18-04-2024 10:00:00,14.475800,75.905200,CO,NA,NA,NA
India,Karnataka,Dharwad,"Kalabhavan, Dharwad - KSPCB",18-04-2024 10:00:00,15.459706,75.008381,OZONE,2,18,3
India,Karnataka,Gadag,"Panchal Nagar, Gadag - KSPCB",18-04-2024 10:00:00,15.411456,75.638133,PM2.5,NA,NA,NA
India,Karnataka,Gadag,"Panchal Nagar, Gadag - KSPCB",18-04-2024 10:00:00,15.411456,75.638133,OZONE,NA,NA,NA
India,Karnataka,Hassan,"B.Katihalli, Hassan - KSPCB",18-04-2024 10:00:00,13.008556,76.125258,NH3,1,6,3
India,Karnataka,Hassan,"B.Katihalli, Hassan - KSPCB",18-04-2024 10:00:00,13.008556,76.125258,SO2,18,33,23
India,Karnataka,Kalaburagi,"Lal Bahadur Shastri Nagar, Kalaburagi - KSPCB",18-04-2024 10:00:00,17.321993,76.822628,NH3,2,2,2
India,Karnataka,Kalaburagi,"Mahatma Basaveswar Colony, Kalaburgi - KSPCB",18-04-2024 10:00:00,17.336318,76.847397,PM10,NA,NA,NA
India,Karnataka,Kalaburagi,"Mahatma Basaveswar Colony, Kalaburgi - KSPCB",18-04-2024 10:00:00,17.336318,76.847397,NH3,NA,NA,NA
India,Karnataka,Karwar,"KHB Colony, Karwar - KSPCB",18-04-2024 10:00:00,14.816666,74.141003,NO2,1,12,5
India,Karnataka,Karwar,"KHB Colony, Karwar - KSPCB",18-04-2024 10:00:00,14.816666,74.141003,SO2,19,20,19
India,Karnataka,Karwar,"KHB Colony, Karwar - KSPCB",18-04-2024 10:00:00,14.816666,74.141003,OZONE,21,22,22
India,Karnataka,Madikeri,"Stuart Hill, Madikeri - KSPCB",18-04-2024 10:00:00,12.415911,75.735050,PM2.5,24,47,34
India,Karnataka,Madikeri,"Stuart Hill, Madikeri - KSPCB",18-04-2024 10:00:00,12.415911,75.735050,NH3,1,2,1
India,Karnataka,Madikeri,"Stuart Hill, Madikeri - KSPCB",18-04-2024 10:00:00,12.415911,75.735050,SO2,4,4,4
India,Karnataka,Madikeri,"Stuart Hill, Madikeri - KSPCB",18-04-2024 10:00:00,12.415911,75.735050,CO,2,80,40
India,Karnataka,Mangalore,"Kadri, Mangalore - KSPCB",18-04-2024 10:00:00,12.889250,74.853000,NO2,5,6,6
India,Karnataka,Mangalore,"Kadri, Mangalore - KSPCB",18-04-2024 10:00:00,12.889250,74.853000,NH3,1,2,2
India,Karnataka,Mysuru,"Hebbal 1st Stage, Mysuru - KSPCB",18-04-2024 10:00:00,12.21041,76.37376,NO2,18,21,20
India,Karnataka,Mysuru,"Hebbal 1st Stage, Mysuru - KSPCB",18-04-2024 10:00:00,12.21041,76.37376,NH3,2,2,2
India,Karnataka,Ramanagara,"Vijay Nagar, Ramanagara - KSPCB",18-04-2024 10:00:00,12.733409,77.298051,PM2.5,45,79,56
India,Karnataka,Ramanagara,"Vijay Nagar, Ramanagara - KSPCB",18-04-2024 10:00:00,12.733409,77.298051,NO2,3,5,4
India,Karnataka,Ramanagara,"Vijay Nagar, Ramanagara - KSPCB",18-04-2024 10:00:00,12.733409,77.298051,CO,5,28,10
India,Karnataka,Tumakuru,"Thimmalapura, Tumakuru - KSPCB",18-04-2024 10:00:00,13.377516,77.099072,PM2.5,20,45,32
India,Karnataka,Vijayapura,"Ibrahimpur, Vijayapura - KSPCB",18-04-2024 10:00:00,16.802639,75.722694,PM10,42,43,42
India,Karnataka,Vijayapura,"Ibrahimpur, Vijayapura - KSPCB",18-04-2024 10:00:00,16.802639,75.722694,OZONE,14,15,15
India,Karnataka,Yadgir,"Collector Office, Yadgir - KSPCB",18-04-2024 10:00:00,16.7602,77.1428,OZONE,18,19,19
India,Kerala,Eloor,"Udyogamandal, Eloor - Kerala PCB",18-04-2024 10:00:00,10.073232,76.302765,NH3,1,1,1
India,Kerala,Kollam,"Polayathode, Kollam - Kerala PCB",18-04-2024 10:00:00,8.8787,76.6073,PM10,41,101,53
India,Kerala,Kollam,"Polayathode, Kollam - Kerala PCB",18-04-2024 10:00:00,8.8787,76.6073,NH3,1,1,1
India,Kerala,Thiruvananthapuram,"Kariavattom, Thiruvananthapuram - Kerala PCB",18-04-2024 10:00:00,8.563700,76.886500,PM2.5,75,89,83
India,Kerala,Thiruvananthapuram,"Kariavattom, Thiruvananthapuram - Kerala PCB",18-04-2024 10:00:00,8.563700,76.886500,PM10,79,93,86
India,Kerala,Thiruvananthapuram,"Kariavattom, Thiruvananthapuram - Kerala PCB",18-04-2024 10:00:00,8.563700,76.886500,NO2,8,9,9
India,Kerala,Thiruvananthapuram,"Kariavattom, Thiruvananthapuram - Kerala PCB",18-04-2024 10:00:00,8.563700,76.886500,SO2,3,18,9
India,Kerala,Thiruvananthapuram,"Kariavattom, Thiruvananthapuram - Kerala PCB",18-04-2024 10:00:00,8.563700,76.886500,OZONE,27,32,30
India,Kerala,Thrissur,"Corporation Ground, Thrissur - Kerala PCB",18-04-2024 10:00:00,10.532400,76.215900,PM2.5,46,50,48
India,Kerala,Thrissur,"Corporation Ground, Thrissur - Kerala PCB",18-04-2024 10:00:00,10.532400,76.215900,PM10,62,68,65
India,Kerala,Thrissur,"Corporation Ground, Thrissur - Kerala PCB",18-04-2024 10:00:00,10.532400,76.215900,NO2,7,8,7
India,Madhya Pradesh,Bhopal,"T T Nagar, Bhopal - MPPCB",18-04-2024 10:00:00,23.233584,77.400574,SO2,14,25,22
India,Madhya Pradesh,Dewas,"Bhopal Chauraha, Dewas - MPPCB",18-04-2024 10:00:00,22.9682591,76.064118,PM2.5,23,307,65
India,Madhya Pradesh,Dewas,"Bhopal Chauraha, Dewas - MPPCB",18-04-2024 10:00:00,22.9682591,76.064118,SO2,17,30,22
India,Madhya Pradesh,Gwalior,"Deen Dayal Nagar, Gwalior - MPPCB",18-04-2024 10:00:00,26.259242,78.216432,SO2,8,14,11
India,Madhya Pradesh,Gwalior,"Deen Dayal Nagar, Gwalior - MPPCB",18-04-2024 10:00:00,26.259242,78.216432,CO,22,38,36
India,Madhya Pradesh,Gwalior,"Maharaj Bada, Gwalior - MPPCB",18-04-2024 10:00:00,26.200388,78.147714,NO2,1,57,26
India,Madhya Pradesh,Gwalior,"Maharaj Bada, Gwalior - MPPCB",18-04-2024 10:00:00,26.200388,78.147714,CO,12,65,26
India,Madhya Pradesh,Indore,"Chhoti Gwaltoli, Indore - MPPCB",18-04-2024 10:00:00,22.4310,75.5213,PM2.5,29,270,100
India,Madhya Pradesh,Indore,"Chhoti Gwaltoli, Indore - MPPCB",18-04-2024 10:00:00,22.4310,75.5213,NH3,2,7,5
India,Madhya Pradesh,Indore,"Maguda Nagar, Indore - IMC",18-04-2024 10:00:00,22.7524,75.8872,PM2.5,35,283,103
India,Madhya Pradesh,Indore,"Residency Area, Indore - IMC",18-04-2024 10:00:00,22.7084,75.8815,SO2,24,31,28
India,Madhya Pradesh,Indore,"Residency Area, Indore - IMC",18-04-2024 10:00:00,22.7084,75.8815,CO,13,17,16
India,Madhya Pradesh,Indore,"Residency Area, Indore - IMC",18-04-2024 10:00:00,22.7084,75.8815,OZONE,9,18,11
India,Madhya Pradesh,Jabalpur,"Govindh Bhavan Colony, Jabalpur - JMC",18-04-2024 10:00:00,23.163174,79.973061,NO2,12,42,24
India,Madhya Pradesh,Jabalpur,"Govindh Bhavan Colony, Jabalpur - JMC",18-04-2024 10:00:00,23.163174,79.973061,OZONE,14,95,35
India,Madhya Pradesh,Jabalpur,"Gupteshwar, Jabalpur - JMC",18-04-2024 10:00:00,23.142888,79.916147,PM2.5,13,183,64
India,Madhya Pradesh,Jabalpur,"Suhagi, Jabalpur - JMC",18-04-2024 10:00:00,23.218135,79.957770,PM10,42,173,96
India,Madhya Pradesh,Jabalpur,"Suhagi, Jabalpur - JMC",18-04-2024 10:00:00,23.218135,79.957770,OZONE,1,113,21
