country,state,city,station,last_update,latitude,longitude,pollutant_id,pollutant_min,pollutant_max,pollutant_avg
India,Andhra_Pradesh,Amaravati,"Secretariat, Amaravati - APPCB",05-05-2024 16:00:00,16.5150833,80.5181667,NH3,4,4,4
India,Andhra_Pradesh,Amaravati,"Secretariat, Amaravati - APPCB",05-05-2024 16:00:00,16.5150833,80.5181667,CO,1,56,18
India,Andhra_Pradesh,Kadapa,"Yerramukkapalli, Kadapa - APPCB",05-05-2024 16:00:00,14.465052,78.824187,PM2.5,26,203,64
India,Andhra_Pradesh,Kadapa,"Yerramukkapalli, Kadapa - APPCB",05-05-2024 16:00:00,14.465052,78.824187,PM10,27,140,62
India,Andhra_Pradesh,Rajamahendravaram,"Anand Kala Kshetram, Rajamahendravaram - APPCB",05-05-2024 16:00:00,16.9872867,81.7363176,PM10,17,51,33
India,Andhra_Pradesh,Tirupati,"Tirumala, Tirupati - APPCB",05-05-2024 16:00:00,13.67,79.35,PM10,48,73,61
India,Andhra_Pradesh,Tirupati,"Vaikuntapuram, Tirupati - APPCB",05-05-2024 16:00:00,13.615387,79.409230,PM10,NA,NA,NA
India,Andhra_Pradesh,Tirupati,"Vaikuntapuram, Tirupati - APPCB",05-05-2024 16:00:00,13.615387,79.409230,SO2,NA,NA,NA
India,Andhra_Pradesh,Tirupati,"Vaikuntapuram, Tirupati - APPCB",05-05-2024 16:00:00,13.615387,79.409230,CO,10,15,13
India,Andhra_Pradesh,Tirupati,"Vaikuntapuram, Tirupati - APPCB",05-05-2024 16:00:00,13.615387,79.409230,OZONE,12,46,26
India,Andhra_Pradesh,Vijayawada,"HB Colony, Vijayawada - APPCB",05-05-2024 16:00:00,16.536107,80.594233,PM2.5,35,60,47
India,Andhra_Pradesh,Vijayawada,"HB Colony, Vijayawada - APPCB",05-05-2024 16:00:00,16.536107,80.594233,NH3,4,4,4
India,Andhra_Pradesh,Vijayawada,"HB Colony, Vijayawada - APPCB",05-05-2024 16:00:00,16.536107,80.594233,OZONE,7,313,313
India,Andhra_Pradesh,Vijayawada,"Rajiv Gandhi Park, Vijayawada - APPCB",05-05-2024 16:00:00,16.509717,80.612222,PM2.5,41,119,72
India,Andhra_Pradesh,Vijayawada,"Rajiv Gandhi Park, Vijayawada - APPCB",05-05-2024 16:00:00,16.509717,80.612222,NH3,2,6,5
India,Andhra_Pradesh,Vijayawada,"Rajiv Nagar, Vijayawada - APPCB",05-05-2024 16:00:00,16.554731,80.649110,PM2.5,42,98,49
India,Andhra_Pradesh,Vijayawada,"Rajiv Nagar, Vijayawada - APPCB",05-05-2024 16:00:00,16.554731,80.649110,CO,34,39,38
India,Andhra_Pradesh,Visakhapatnam,"GVM Corporation, Visakhapatnam - APPCB",05-05-2024 16:00:00,17.72,83.3,PM2.5,14,65,40
India,Andhra_Pradesh,Visakhapatnam,"GVM Corporation, Visakhapatnam - APPCB",05-05-2024 16:00:00,17.72,83.3,NH3,2,4,3
India,Andhra_Pradesh,Visakhapatnam,"GVM Corporation, Visakhapatnam - APPCB",05-05-2024 16:00:00,17.72,83.3,CO,7,52,21
India,Arunachal_Pradesh,Naharlagun,"Naharlagun, Naharlagun - APSPCB",05-05-2024 16:00:00,27.103358,93.679645,NO2,NA,NA,NA
India,Assam,Guwahati,"LGBI Airport, Guwahati - PCBA",05-05-2024 16:00:00,26.10887,91.589544,CO,32,82,46
India,Assam,Guwahati,"Pan Bazaar, Guwahati - PCBA",05-05-2024 16:00:00,26.187500,91.744194,NH3,2,4,3
India,Assam,Nagaon,"Christianpatty, Nagaon - PCBA",05-05-2024 16:00:00,26.349082,92.68449,NO2,1,72,21
India,Assam,Nalbari,"Bata Chowk, Nalbari - PCBA",05-05-2024 16:00:00,26.446912,91.439057,OZONE,14,31,21
India,Assam,Silchar,"Tarapur, Silchar - PCBA",05-05-2024 16:00:00,24.82827,92.79525,PM10,32,73,52
India,Assam,Silchar,"Tarapur, Silchar - PCBA",05-05-2024 16:00:00,24.82827,92.79525,NO2,12,13,13
India,Assam,Sivasagar,"Girls College, Sivasagar - PCBA",05-05-2024 16:00:00,26.987634,94.636574,PM10,52,95,73
India,Assam,Sivasagar,"Girls College, Sivasagar - PCBA",05-05-2024 16:00:00,26.987634,94.636574,NO2,10,21,15
India,Bihar,Araria,"Kharahiya Basti, Araria - BSPCB",05-05-2024 16:00:00,26.146529,87.454184,NH3,6,7,6
India,Bihar,Araria,"Kharahiya Basti, Araria - BSPCB",05-05-2024 16:00:00,26.146529,87.454184,OZONE,5,10,8
India,Bihar,Aurangabad,"Gurdeo Nagar, Aurangabad - BSPCB",05-05-2024 16:00:00,24.75746,84.366208,CO,4,54,28
India,Bihar,Bettiah,"Kamalnath Nagar, Bettiah - BSPCB",05-05-2024 16:00:00,26.80365,84.51954,NH3,3,7,4
India,Bihar,Bhagalpur,"DM Office_Kachari Chowk, Bhagalpur - BSPCB",05-05-2024 16:00:00,25.251013,86.989001,PM2.5,77,267,148
India,Bihar,Bhagalpur,"DM Office_Kachari Chowk, Bhagalpur - BSPCB",05-05-2024 16:00:00,25.251013,86.989001,PM10,106,181,148
India,Bihar,Bhagalpur,"DM Office_Kachari Chowk, Bhagalpur - BSPCB",05-05-2024 16:00:00,25.251013,86.989001,NO2,51,89,65
India,Bihar,Bhagalpur,"Mayaganj, Bhagalpur - BSPCB",05-05-2024 16:00:00,25.265194,87.012947,PM2.5,117,333,251
India,Bihar,Bhagalpur,"Mayaganj, Bhagalpur - BSPCB",05-05-2024 16:00:00,25.265194,87.012947,NO2,3,11,7
India,Bihar,Bhagalpur,"Mayaganj, Bhagalpur - BSPCB",05-05-2024 16:00:00,25.265194,87.012947,SO2,11,12,12
India,Bihar,Bihar Sharif,"D M Colony, Bihar Sharif - BSPCB",05-05-2024 16:00:00,25.204762,85.514960,PM2.5,45,441,101
India,Bihar,Bihar Sharif,"D M Colony, Bihar Sharif - BSPCB",05-05-2024 16:00:00,25.204762,85.514960,NO2,8,10,9
India,Bihar,Bihar Sharif,"D M Colony, Bihar Sharif - BSPCB",05-05-2024 16:00:00,25.204762,85.514960,OZONE,10,60,27
India,Bihar,Buxar,"Charitra Van, Buxar - BSPCB (Formerly known as Central Jail)",05-05-2024 16:00:00,25.567520,83.966379,PM2.5,NA,NA,NA
India,Bihar,Chhapra,"Darshan Nagar, Chhapra - BSPCB",05-05-2024 16:00:00,25.7808257,84.7446768,NO2,22,38,30
India,Bihar,Chhapra,"Darshan Nagar, Chhapra - BSPCB",05-05-2024 16:00:00,25.7808257,84.7446768,SO2,25,43,33
India,Bihar,Gaya,"Collectorate, Gaya - BSPCB",05-05-2024 16:00:00,24.7955,84.9994,NO2,1,3,2
India,Bihar,Gaya,"Kareemganj, Gaya - BSPCB",05-05-2024 16:00:00,24.792403,84.992416,PM10,57,159,103
India,Bihar,Gaya,"Kareemganj, Gaya - BSPCB",05-05-2024 16:00:00,24.792403,84.992416,NO2,30,31,30
India,Bihar,Gaya,"SFTI Kusdihra, Gaya - BSPCB",05-05-2024 16:00:00,24.762518,84.982348,PM10,78,120,101
India,Bihar,Gaya,"SFTI Kusdihra, Gaya - BSPCB",05-05-2024 16:00:00,24.762518,84.982348,NO2,28,104,55
India,Bihar,Hajipur,"Industrial Area, Hajipur - BSPCB",05-05-2024 16:00:00,25.697189,85.245900,NO2,59,63,61
India,Bihar,Hajipur,"Industrial Area, Hajipur - BSPCB",05-05-2024 16:00:00,25.697189,85.245900,NH3,7,8,8
India,Bihar,Kishanganj,"SDM Office_Khagra, Kishanganj - BSPCB",05-05-2024 16:00:00,26.0881305,87.93840336,PM2.5,42,180,92
India,Bihar,Munger,"Town Hall, Munger - BSPCB",05-05-2024 16:00:00,25.376776,86.471523,PM2.5,95,213,139
India,Bihar,Muzaffarpur,"Buddha Colony, Muzaffarpur - BSPCB",05-05-2024 16:00:00,26.11442,85.39813,PM10,161,256,196
India,Bihar,Muzaffarpur,"MIT-Daudpur Kothi, Muzaffarpur - BSPCB",05-05-2024 16:00:00,26.1403345,85.3650192,PM2.5,154,329,253
India,Bihar,Muzaffarpur,"MIT-Daudpur Kothi, Muzaffarpur - BSPCB",05-05-2024 16:00:00,26.1403345,85.3650192,SO2,4,4,4
India,Bihar,Muzaffarpur,"MIT-Daudpur Kothi, Muzaffarpur - BSPCB",05-05-2024 16:00:00,26.1403345,85.3650192,OZONE,10,67,30
India,Bihar,Muzaffarpur,"Muzaffarpur Collectorate, Muzaffarpur - BSPCB",05-05-2024 16:00:00,26.1209,85.3647,CO,18,51,26
India,Bihar,Patna,"DRM Office Danapur, Patna - BSPCB",05-05-2024 16:00:00,25.586562,85.043586,PM2.5,228,320,301
India,Bihar,Patna,"DRM Office Danapur, Patna - BSPCB",05-05-2024 16:00:00,25.586562,85.043586,NH3,1,6,3
India,Bihar,Patna,"DRM Office Danapur, Patna - BSPCB",05-05-2024 16:00:00,25.586562,85.043586,OZONE,2,65,14
India,Bihar,Patna,"Govt. High School Shikarpur, Patna - BSPCB",05-05-2024 16:00:00,25.592539,85.227158,NH3,5,5,5
India,Bihar,Patna,"IGSC Planetarium Complex, Patna - BSPCB",05-05-2024 16:00:00,25.610369,85.132568,SO2,6,16,9
India,Bihar,Patna,"Rajbansi Nagar, Patna - BSPCB",05-05-2024 16:00:00,25.599486,85.113666,PM2.5,189,320,261
India,Bihar,Patna,"Samanpura, Patna - BSPCB",05-05-2024 16:00:00,25.596727,85.085624,CO,53,118,96
India,Bihar,Rajgir,"Dangi Tola, Rajgir - BSPCB",05-05-2024 16:00:00,25.03280,85.41948,PM10,58,187,108
India,Bihar,Rajgir,"Dangi Tola, Rajgir - BSPCB",05-05-2024 16:00:00,25.03280,85.41948,NH3,2,5,3
India,Bihar,Rajgir,"Dangi Tola, Rajgir - BSPCB",05-05-2024 16:00:00,25.03280,85.41948,CO,19,82,27
India,Bihar,Samastipur,"DM Office_Kasipur, Samastipur - BSPCB",05-05-2024 16:00:00,25.859655,85.77944,PM2.5,NA,NA,NA
India,Bihar,Samastipur,"DM Office_Kasipur, Samastipur - BSPCB",05-05-2024 16:00:00,25.859655,85.77944,PM10,NA,NA,NA
India,Bihar,Samastipur,"DM Office_Kasipur, Samastipur - BSPCB",05-05-2024 16:00:00,25.859655,85.77944,NO2,NA,NA,NA
India,Bihar,Samastipur,"DM Office_Kasipur, Samastipur - BSPCB",05-05-2024 16:00:00,25.859655,85.77944,CO,10,22,20
India,Bihar,Sasaram,"Dada Peer, Sasaram - BSPCB",05-05-2024 16:00:00,24.952822,84.002396,PM2.5,24,68,42
India,Bihar,Siwan,"Chitragupta Nagar, Siwan - BSPCB",05-05-2024 16:00:00,26.2271665,84.3570427,NO2,16,93,33
India,Chhattisgarh,Bhilai,"32Bungalows, Bhilai - CECB",05-05-2024 16:00:00,21.194815,81.314770,NH3,6,6,6
India,Chhattisgarh,Bhilai,"Civic Center, Bhilai - Bhilai Steel Plant",05-05-2024 16:00:00,21.185571,81.343175,OZONE,8,93,68
India,Chhattisgarh,Bilaspur,"Mangala, Bilaspur - NTPC",05-05-2024 16:00:00,22.08815,82.13737,PM2.5,53,212,105
India,Chhattisgarh,Chhal,"Nawapara SECL Colony, Chhal - CECB",05-05-2024 16:00:00,22.118125,83.140608,PM10,60,165,98
India,Chhattisgarh,Chhal,"Nawapara SECL Colony, Chhal - CECB",05-05-2024 16:00:00,22.118125,83.140608,NO2,19,41,28
India,Chhattisgarh,Chhal,"Nawapara SECL Colony, Chhal - CECB",05-05-2024 16:00:00,22.118125,83.140608,SO2,21,93,50
India,Chhattisgarh,Korba,"Urja Nagar, Korba - CECB",05-05-2024 16:00:00,22.348441,82.549611,PM10,16,450,111
India,Chhattisgarh,Korba,"Urja Nagar, Korba - CECB",05-05-2024 16:00:00,22.348441,82.549611,OZONE,NA,NA,NA
India,Chhattisgarh,Kunjemura,"OP Jindal School, Kunjemura - CECB",05-05-2024 16:00:00,22.126650,83.483212,PM2.5,59,311,174
India,Chhattisgarh,Milupara,"Govt. Higher Secondary School, Milupara - CECB",05-05-2024 16:00:00,22.1910172,83.5197009,PM2.5,30,76,54
India,Chhattisgarh,Raipur,"Krishak Nagar, Raipur - CECB",05-05-2024 16:00:00,21.237755,81.705301,OZONE,1,92,23
India,Chhattisgarh,Raipur,"Siltara Phase-II, Raipur - CECB",05-05-2024 16:00:00,21.371751,81.664929,PM2.5,52,326,184
India,Chhattisgarh,Raipur,"Siltara Phase-II, Raipur - CECB",05-05-2024 16:00:00,21.371751,81.664929,PM10,NA,NA,NA
India,Chhattisgarh,Raipur,"Siltara Phase-II, Raipur - CECB",05-05-2024 16:00:00,21.371751,81.664929,SO2,15,87,46
India,Delhi,Delhi,"Alipur, Delhi - DPCC",05-05-2024 16:00:00,28.815329,77.153010,OZONE,1,184,153
India,Delhi,Delhi,"Anand Vihar, Delhi - DPCC",05-05-2024 16:00:00,28.647622,77.3158090,OZONE,5,105,66
India,Delhi,Delhi,"Ashok Vihar, Delhi - DPCC",05-05-2024 16:00:00,28.695381,77.181665,NO2,12,162,94
India,Delhi,Delhi,"Ashok Vihar, Delhi - DPCC",05-05-2024 16:00:00,28.695381,77.181665,SO2,13,99,40
India,Delhi,Delhi,"Aya Nagar, Delhi - IMD",05-05-2024 16:00:00,28.4706914,77.1099364,PM10,172,366,265
India,Delhi,Delhi,"Bawana, Delhi - DPCC",05-05-2024 16:00:00,28.776200,77.051074,SO2,8,113,46
India,Delhi,Delhi,"Bawana, Delhi - DPCC",05-05-2024 16:00:00,28.776200,77.051074,OZONE,1,156,115
India,Delhi,Delhi,"Burari Crossing, Delhi - IMD",05-05-2024 16:00:00,28.7256504,77.2011573,OZONE,9,97,56
India,Delhi,Delhi,"CRRI Mathura Road, Delhi - IMD",05-05-2024 16:00:00,28.5512005,77.2735737,OZONE,3,117,72
India,Delhi,Delhi,"Chandni Chowk, Delhi - IITM",05-05-2024 16:00:00,28.656756,77.227234,SO2,1,69,30
India,Delhi,Delhi,"Chandni Chowk, Delhi - IITM",05-05-2024 16:00:00,28.656756,77.227234,CO,4,113,22
India,Delhi,Delhi,"DTU, Delhi - CPCB",05-05-2024 16:00:00,28.7500499,77.1112615,PM10,129,500,294
India,Delhi,Delhi,"IGI Airport (T3), Delhi - IMD",05-05-2024 16:00:00,28.5627763,77.1180053,PM2.5,86,415,240
India,Delhi,Delhi,"IGI Airport (T3), Delhi - IMD",05-05-2024 16:00:00,28.5627763,77.1180053,PM10,128,424,278
India,Delhi,Delhi,"IGI Airport (T3), Delhi - IMD",05-05-2024 16:00:00,28.5627763,77.1180053,OZONE,5,58,41
India,Delhi,Delhi,"IHBAS, Dilshad Garden, Delhi - CPCB",05-05-2024 16:00:00,28.6811736,77.3025234,CO,8,36,15
India,Delhi,Delhi,"ITO, Delhi - CPCB",05-05-2024 16:00:00,28.628624,77.241060,PM2.5,82,445,270
India,Delhi,Delhi,"Jawaharlal Nehru Stadium, Delhi - DPCC",05-05-2024 16:00:00,28.580280,77.233829,SO2,12,105,49
India,Delhi,Delhi,"Lodhi Road, Delhi - IITM",05-05-2024 16:00:00,28.588333,77.221667,PM10,84,495,155
India,Delhi,Delhi,"Lodhi Road, Delhi - IITM",05-05-2024 16:00:00,28.588333,77.221667,NH3,8,18,12
India,Delhi,Delhi,"Major Dhyan Chand National Stadium, Delhi - DPCC",05-05-2024 16:00:00,28.611281,77.237738,CO,4,139,10
India,Delhi,Delhi,"Mundka, Delhi - DPCC",05-05-2024 16:00:00,28.684678,77.076574,PM10,159,500,360
India,Delhi,Delhi,"Mundka, Delhi - DPCC",05-05-2024 16:00:00,28.684678,77.076574,NO2,20,139,77
India,Delhi,Delhi,"NSIT Dwarka, Delhi - CPCB",05-05-2024 16:00:00,28.60909,77.0325413,PM2.5,202,453,328
India,Delhi,Delhi,"NSIT Dwarka, Delhi - CPCB",05-05-2024 16:00:00,28.60909,77.0325413,OZONE,11,107,86
India,Delhi,Delhi,"Najafgarh, Delhi - DPCC",05-05-2024 16:00:00,28.570173,76.933762,PM2.5,50,426,232
India,Delhi,Delhi,"Najafgarh, Delhi - DPCC",05-05-2024 16:00:00,28.570173,76.933762,OZONE,13,147,108
India,Delhi,Delhi,"Narela, Delhi - DPCC",05-05-2024 16:00:00,28.822836,77.101981,PM10,138,482,314
India,Delhi,Delhi,"Narela, Delhi - DPCC",05-05-2024 16:00:00,28.822836,77.101981,CO,4,102,25
India,Delhi,Delhi,"Narela, Delhi - DPCC",05-05-2024 16:00:00,28.822836,77.101981,OZONE,2,197,161
India,Delhi,Delhi,"Nehru Nagar, Delhi - DPCC",05-05-2024 16:00:00,28.567890,77.250515,PM2.5,93,425,288
India,Delhi,Delhi,"Nehru Nagar, Delhi - DPCC",05-05-2024 16:00:00,28.567890,77.250515,PM10,128,380,232
India,Delhi,Delhi,"Nehru Nagar, Delhi - DPCC",05-05-2024 16:00:00,28.567890,77.250515,OZONE,1,268,189
India,Delhi,Delhi,"New Moti Bagh, Delhi - MHUA",05-05-2024 16:00:00,28.57834,77.18400,PM2.5,78,403,252
India,Delhi,Delhi,"New Moti Bagh, Delhi - MHUA",05-05-2024 16:00:00,28.57834,77.18400,NO2,6,52,27
India,Delhi,Delhi,"Okhla Phase-2, Delhi - DPCC",05-05-2024 16:00:00,28.530785,77.271255,NO2,40,227,121
India,Delhi,Delhi,"Pusa, Delhi - DPCC",05-05-2024 16:00:00,28.639652,77.146275,PM2.5,68,487,213
India,Delhi,Delhi,"Pusa, Delhi - DPCC",05-05-2024 16:00:00,28.639652,77.146275,CO,8,101,25
India,Delhi,Delhi,"Pusa, Delhi - IMD",05-05-2024 16:00:00,28.636110,77.173332,CO,42,112,79
India,Delhi,Delhi,"R K Puram, Delhi - DPCC",05-05-2024 16:00:00,28.563262,77.186937,PM2.5,104,433,279
India,Delhi,Delhi,"Rohini, Delhi - DPCC",05-05-2024 16:00:00,28.732528,77.119920,PM2.5,68,500,300
India,Delhi,Delhi,"Rohini, Delhi - DPCC",05-05-2024 16:00:00,28.732528,77.119920,NO2,12,187,81
India,Delhi,Delhi,"Rohini, Delhi - DPCC",05-05-2024 16:00:00,28.732528,77.119920,NH3,9,15,12
India,Delhi,Delhi,"Sirifort, Delhi - CPCB",05-05-2024 16:00:00,28.5504249,77.2159377,NO2,55,73,66
India,Delhi,Delhi,"Sonia Vihar, Delhi - DPCC",05-05-2024 16:00:00,28.710508,77.249485,SO2,12,90,28
India,Delhi,Delhi,"Sri Aurobindo Marg, Delhi - DPCC",05-05-2024 16:00:00,28.531346,77.190156,PM2.5,87,351,193
India,Delhi,Delhi,"Sri Aurobindo Marg, Delhi - DPCC",05-05-2024 16:00:00,28.531346,77.190156,SO2,13,72,25
India,Delhi,Delhi,"Sri Aurobindo Marg, Delhi - DPCC",05-05-2024 16:00:00,28.531346,77.190156,OZONE,9,91,70
India,Delhi,Delhi,"Wazirpur, Delhi - DPCC",05-05-2024 16:00:00,28.699793,77.165453,NO2,29,165,103
India,Gujarat,Ahmedabad,"Chandkheda, Ahmedabad - IITM",05-05-2024 16:00:00,23.107969,72.574648,PM2.5,60,333,126
India,Gujarat,Ahmedabad,"Chandkheda, Ahmedabad - IITM",05-05-2024 16:00:00,23.107969,72.574648,NH3,2,3,3
India,Gujarat,Ahmedabad,"Maninagar, Ahmedabad - GPCB",05-05-2024 16:00:00,23.002657,72.591912,PM2.5,18,41,29
India,Gujarat,Ahmedabad,"Maninagar, Ahmedabad - GPCB",05-05-2024 16:00:00,23.002657,72.591912,CO,58,102,79
India,Gujarat,Ahmedabad,"Raikhad, Ahmedabad - IITM",05-05-2024 16:00:00,23.020509,72.579261,PM10,80,142,109
India,Gujarat,Ahmedabad,"Raikhad, Ahmedabad - IITM",05-05-2024 16:00:00,23.020509,72.579261,SO2,4,8,5
India,Gujarat,Ahmedabad,"Rakhial, Ahmedabad - IITM",05-05-2024 16:00:00,23.016834,72.625775,PM2.5,NA,NA,NA
India,Gujarat,Ahmedabad,"Rakhial, Ahmedabad - IITM",05-05-2024 16:00:00,23.016834,72.625775,NO2,22,62,33
India,Gujarat,Ahmedabad,"Rakhial, Ahmedabad - IITM",05-05-2024 16:00:00,23.016834,72.625775,SO2,1,3,2
India,Gujarat,Ahmedabad,"SAC ISRO Satellite, Ahmedabad - IITM",05-05-2024 16:00:00,23.023389,72.515201,NO2,32,32,32
India,Gujarat,Ahmedabad,"SVPI Airport Hansol, Ahmedabad - IITM",05-05-2024 16:00:00,23.076793,72.627874,PM2.5,37,68,52
India,Gujarat,Ahmedabad,"Sardar Vallabhbhai Patel Stadium, Ahmedabad - IITM",05-05-2024 16:00:00,23.043070,72.562968,NH3,1,2,1
India,Gujarat,Gandhinagar,"Sector-10, Gandhinagar - GPCB",05-05-2024 16:00:00,23.221714,72.654328,PM2.5,16,46,30
India,Gujarat,Gandhinagar,"Sector-10, Gandhinagar - GPCB",05-05-2024 16:00:00,23.221714,72.654328,NH3,1,5,1
India,Gujarat,Surat,"Science Center, Surat - SMC",05-05-2024 16:00:00,21.170046,72.795405,PM10,10,49,22
India,Gujarat,Surat,"Science Center, Surat - SMC",05-05-2024 16:00:00,21.170046,72.795405,SO2,1,6,3
India,Gujarat,Vapi,"Phase-1 GIDC, Vapi - GPCB",05-05-2024 16:00:00,20.362421,72.918013,PM10,44,81,59
India,Gujarat,Vapi,"Phase-1 GIDC, Vapi - GPCB",05-05-2024 16:00:00,20.362421,72.918013,SO2,53,56,54
India,Gujarat,Vapi,"Phase-1 GIDC, Vapi - GPCB",05-05-2024 16:00:00,20.362421,72.918013,OZONE,NA,NA,NA
India,Gujarat,Vatva,"Phase-4 GIDC, Vatva - GPCB",05-05-2024 16:00:00,22.969611,72.643500,OZONE,13,48,18
India,Haryana,Bahadurgarh,"Arya Nagar, Bahadurgarh - HSPCB",05-05-2024 16:00:00,28.6701,76.9254,OZONE,29,41,36
India,Haryana,Ballabgarh,"Nathu Colony, Ballabgarh - HSPCB",05-05-2024 16:00:00,28.3419248,77.319699,PM2.5,94,370,238
India,Haryana,Ballabgarh,"Nathu Colony, Ballabgarh - HSPCB",05-05-2024 16:00:00,28.3419248,77.319699,PM10,112,428,217
India,Haryana,Bhiwani,"H.B. Colony, Bhiwani - HSPCB",05-05-2024 16:00:00,28.806223,76.141105,NO2,7,11,9
India,Haryana,Charkhi Dadri,"Mini Secretariat, Charkhi Dadri - HSPCB",05-05-2024 16:00:00,28.593883,76.270653,SO2,27,67,48
India,Haryana,Dharuhera,"Municipal Corporation Office, Dharuhera -  HSPCB",05-05-2024 16:00:00,28.206800,76.799700,SO2,5,38,14
India,Haryana,Dharuhera,"Municipal Corporation Office, Dharuhera -  HSPCB",05-05-2024 16:00:00,28.206800,76.799700,OZONE,7,42,32
India,Haryana,Faridabad,"Sector 11, Faridabad - HSPCB",05-05-2024 16:00:00,28.376058,77.315741,NH3,6,6,6
India,Haryana,Faridabad,"Sector 30, Faridabad - HSPCB",05-05-2024 16:00:00,28.4417,77.3217,PM10,NA,NA,NA
India,Haryana,Faridabad,"Sector- 16A, Faridabad - HSPCB",05-05-2024 16:00:00,28.4088421,77.3099081,OZONE,14,14,14
India,Haryana,Fatehabad,"Huda Sector, Fatehabad - HSPCB",05-05-2024 16:00:00,29.503664,75.467934,PM2.5,NA,NA,NA
India,Haryana,Fatehabad,"Huda Sector, Fatehabad - HSPCB",05-05-2024 16:00:00,29.503664,75.467934,SO2,10,11,11
India,Haryana,Fatehabad,"Huda Sector, Fatehabad - HSPCB",05-05-2024 16:00:00,29.503664,75.467934,OZONE,54,71,60
India,Haryana,Gurugram,"Sector-51, Gurugram - HSPCB",05-05-2024 16:00:00,28.4227,77.0667,SO2,3,4,4
India,Haryana,Gurugram,"Teri Gram, Gurugram - HSPCB",05-05-2024 16:00:00,28.4275,77.1465,NH3,25,52,33
India,Haryana,Hisar,"Urban Estate-II, Hisar - HSPCB",05-05-2024 16:00:00,29.140560,75.744941,PM2.5,56,198,108
India,Haryana,Hisar,"Urban Estate-II, Hisar - HSPCB",05-05-2024 16:00:00,29.140560,75.744941,SO2,8,68,45
India,Haryana,Jind,"Police Lines, Jind - HSPCB",05-05-2024 16:00:00,29.307814,76.337619,PM2.5,53,166,92
India,Haryana,Kaithal,"Rishi Nagar, Kaithal - HSPCB",05-05-2024 16:00:00,29.8006,76.4155,PM10,87,166,119
India,Haryana,Karnal,"Sector-12, Karnal - HSPCB",05-05-2024 16:00:00,29.695300,77.002700,PM2.5,70,258,125
India,Haryana,Karnal,"Sector-12, Karnal - HSPCB",05-05-2024 16:00:00,29.695300,77.002700,SO2,12,13,12
India,Haryana,Karnal,"Sector-12, Karnal - HSPCB",05-05-2024 16:00:00,29.695300,77.002700,OZONE,27,32,28
India,Haryana,Kurukshetra,"Sector-7, Kurukshetra - HSPCB",05-05-2024 16:00:00,29.966942,76.875879,CO,7,50,12
India,Haryana,Mandikhera,"General Hospital, Mandikhera - HSPCB",05-05-2024 16:00:00,27.9002,76.9938,PM10,64,132,94
India,Haryana,Palwal,"Shyam Nagar, Palwal - HSPCB",05-05-2024 16:00:00,28.1485564,77.3320667,OZONE,5,56,30
India,Haryana,Panchkula,"Sector-6, Panchkula - HSPCB ",05-05-2024 16:00:00,30.7057778,76.8531805555555,SO2,2,14,5
India,Haryana,Panipat,"Sector-18, Panipat - HSPCB",05-05-2024 16:00:00,29.497973,76.993331,PM10,79,81,80
India,Haryana,Rohtak,"MD University, Rohtak - HSPCB",05-05-2024 16:00:00,28.52123,76.37138,PM2.5,7,340,228
India,Haryana,Rohtak,"MD University, Rohtak - HSPCB",05-05-2024 16:00:00,28.52123,76.37138,OZONE,45,54,50
India,Haryana,Sirsa,"F-Block, Sirsa - HSPCB",05-05-2024 16:00:00,29.536400,75.015800,CO,60,79,65
India,Haryana,Sonipat,"Murthal, Sonipat - HSPCB",05-05-2024 16:00:00,29.027200,77.062100,NH3,7,10,9
India,Haryana,Sonipat,"Murthal, Sonipat - HSPCB",05-05-2024 16:00:00,29.027200,77.062100,CO,14,56,30
India,Haryana,Yamuna Nagar,"Gobind Pura, Yamuna Nagar - HSPCB",05-05-2024 16:00:00,30.1480566,77.2893471,OZONE,15,61,39
India,Himachal Pradesh,Baddi,"HIMUDA Complex Phase-1, Baddi - HPPCB",05-05-2024 16:00:00,30.943887,76.801991,NH3,3,6,4
India,Himachal Pradesh,Baddi,"HIMUDA Complex Phase-1, Baddi - HPPCB",05-05-2024 16:00:00,30.943887,76.801991,SO2,9,77,24
India,Himachal Pradesh,Baddi,"HIMUDA Complex Phase-1, Baddi - HPPCB",05-05-2024 16:00:00,30.943887,76.801991,OZONE,15,143,117
India,Jharkhand,Dhanbad,"Kalakusuma, Dhanbad - DMC",05-05-2024 16:00:00,23.811548,86.481238,PM2.5,3,95,63
India,Jharkhand,Dhanbad,"Kalakusuma, Dhanbad - DMC",05-05-2024 16:00:00,23.811548,86.481238,PM10,13,249,159
India,Jharkhand,Dhanbad,"Kalakusuma, Dhanbad - DMC",05-05-2024 16:00:00,23.811548,86.481238,CO,130,135,131
India,Jharkhand,Dhanbad,"Sardar Patel Nagar, Dhanbad - JSPCB",05-05-2024 16:00:00,23.80569,86.44268,PM10,NA,NA,NA
India,Jharkhand,Dhanbad,"Sardar Patel Nagar, Dhanbad - JSPCB",05-05-2024 16:00:00,23.80569,86.44268,CO,NA,NA,NA
India,Karnataka,Bagalkot,"Vidayagiri, Bagalkot - KSPCB",05-05-2024 16:00:00,16.172806,75.659694,NH3,1,2,1
India,Karnataka,Belgaum,"Ramteerth Nagar, Belgaum - KSPCB",05-05-2024 16:00:00,15.888653,74.541751,OZONE,19,19,19
India,Karnataka,Bengaluru,"BTM Layout, Bengaluru - CPCB",05-05-2024 16:00:00,12.9135218,77.5950804,PM10,NA,NA,NA
India,Karnataka,Bengaluru,"Bapuji Nagar, Bengaluru - KSPCB",05-05-2024 16:00:00,12.951913,77.539784,NH3,1,1,1
India,Karnataka,Bengaluru,"Bapuji Nagar, Bengaluru - KSPCB",05-05-2024 16:00:00,12.951913,77.539784,CO,18,137,27
India,Karnataka,Bengaluru,"Hebbal, Bengaluru - KSPCB",05-05-2024 16:00:00,13.029152,77.585901,PM10,56,136,77
India,Karnataka,Bengaluru,"Hebbal, Bengaluru - KSPCB",05-05-2024 16:00:00,13.029152,77.585901,NO2,4,5,5
India,Karnataka,Bengaluru,"Hebbal, Bengaluru - KSPCB",05-05-2024 16:00:00,13.029152,77.585901,CO,6,66,21
India,Karnataka,Bengaluru,"Hebbal, Bengaluru - KSPCB",05-05-2024 16:00:00,13.029152,77.585901,OZONE,8,115,34
India,Karnataka,Bengaluru,"Hombegowda Nagar, Bengaluru - KSPCB",05-05-2024 16:00:00,12.938539,77.590100,PM10,50,443,181
India,Karnataka,Bengaluru,"Hombegowda Nagar, Bengaluru - KSPCB",05-05-2024 16:00:00,12.938539,77.590100,SO2,1,6,4
India,Karnataka,Bengaluru,"Jayanagar 5th Block, Bengaluru - KSPCB",05-05-2024 16:00:00,12.920984,77.584908,OZONE,32,34,33
India,Karnataka,Bengaluru,"Kasturi Nagar, Bengaluru - KSPCB",05-05-2024 16:00:00,13.003872,77.664217,PM2.5,7,16,8
India,Karnataka,Bengaluru,"Kasturi Nagar, Bengaluru - KSPCB",05-05-2024 16:00:00,13.003872,77.664217,CO,20,26,25
India,Karnataka,Bengaluru,"Peenya, Bengaluru - CPCB",05-05-2024 16:00:00,13.0270199,77.494094,SO2,9,12,11
India,Karnataka,Bengaluru,"Sanegurava Halli, Bengaluru - KSPCB",05-05-2024 16:00:00,12.990328,77.5431385,CO,1,112,12
India,Karnataka,Chamarajanagar,"Urban, Chamarajanagar - KSPCB",05-05-2024 16:00:00,11.55358,76.55521,CO,22,120,22
India,Karnataka,Chikkaballapur,"Chikkaballapur Rural, Chikkaballapur - KSPCB",05-05-2024 16:00:00,13.428828,77.731418,NO2,7,26,10
India,Karnataka,Chikkaballapur,"Chikkaballapur Rural, Chikkaballapur - KSPCB",05-05-2024 16:00:00,13.428828,77.731418,NH3,1,1,1
India,Karnataka,Chikkaballapur,"Chikkaballapur Rural, Chikkaballapur - KSPCB",05-05-2024 16:00:00,13.428828,77.731418,CO,11,44,15
India,Karnataka,Chikkamagaluru,"Kalyana Nagara, Chikkamagaluru - KSPCB",05-05-2024 16:00:00,13.328028,75.797056,NO2,18,23,21
India,Karnataka,Chikkamagaluru,"Kalyana Nagara, Chikkamagaluru - KSPCB",05-05-2024 16:00:00,13.328028,75.797056,NH3,3,4,3
India,Karnataka,Chikkamagaluru,"Kalyana Nagara, Chikkamagaluru - KSPCB",05-05-2024 16:00:00,13.328028,75.797056,CO,11,110,51
India,Karnataka,Davanagere,"Devaraj Urs Badavane, Davanagere - KSPCB",05-05-2024 16:00:00,14.475800,75.905200,PM10,50,166,85
India,Karnataka,Dharwad,"Kalabhavan, Dharwad - KSPCB",05-05-2024 16:00:00,15.459706,75.008381,PM2.5,49,98,71
India,Karnataka,Dharwad,"Kalabhavan, Dharwad - KSPCB",05-05-2024 16:00:00,15.459706,75.008381,NO2,16,16,16
India,Karnataka,Hassan,"B.Katihalli, Hassan - KSPCB",05-05-2024 16:00:00,13.008556,76.125258,NO2,11,14,12
India,Karnataka,Hassan,"B.Katihalli, Hassan - KSPCB",05-05-2024 16:00:00,13.008556,76.125258,SO2,123,128,126
India,Karnataka,Hubballi,"Deshpande Nagar, Hubballi - KSPCB",05-05-2024 16:00:00,15.351773,75.140726,NH3,5,6,5
India,Karnataka,Hubballi,"Deshpande Nagar, Hubballi - KSPCB",05-05-2024 16:00:00,15.351773,75.140726,SO2,7,10,8
India,Karnataka,Kalaburagi,"Lal Bahadur Shastri Nagar, Kalaburagi - KSPCB",05-05-2024 16:00:00,17.321993,76.822628,PM2.5,43,223,111
India,Karnataka,Kalaburagi,"Lal Bahadur Shastri Nagar, Kalaburagi - KSPCB",05-05-2024 16:00:00,17.321993,76.822628,NH3,1,2,2
India,Karnataka,Kalaburagi,"Mahatma Basaveswar Colony, Kalaburgi - KSPCB",05-05-2024 16:00:00,17.336318,76.847397,PM10,34,79,47
India,Karnataka,Kolar,"Tamaka Ind. Area, Kolar - KSPCB",05-05-2024 16:00:00,13.1276288,78.1570122,NH3,3,18,6
India,Karnataka,Kolar,"Tamaka Ind. Area, Kolar - KSPCB",05-05-2024 16:00:00,13.1276288,78.1570122,CO,4,6,5
India,Karnataka,Koppal,"Diwator Nagar, Koppal - KSPCB",05-05-2024 16:00:00,15.347630,76.181767,NH3,6,9,8
India,Karnataka,Madikeri,"Stuart Hill, Madikeri - KSPCB",05-05-2024 16:00:00,12.415911,75.735050,PM2.5,12,47,26
India,Karnataka,Madikeri,"Stuart Hill, Madikeri - KSPCB",05-05-2024 16:00:00,12.415911,75.735050,NH3,NA,NA,NA
India,Karnataka,Mysuru,"Hebbal 1st Stage, Mysuru - KSPCB",05-05-2024 16:00:00,12.21041,76.37376,PM10,31,64,48
India,Karnataka,Raichur,"Haji Colony, Raichur - KSPCB",05-05-2024 16:00:00,16.208139,77.348417,NO2,29,114,53
India,Karnataka,Raichur,"Haji Colony, Raichur - KSPCB",05-05-2024 16:00:00,16.208139,77.348417,NH3,NA,NA,NA
India,Karnataka,Shivamogga,"Vinoba Nagara, Shivamogga - KSPCB",05-05-2024 16:00:00,13.940000,75.555917,SO2,3,10,6
India,Karnataka,Shivamogga,"Vinoba Nagara, Shivamogga - KSPCB",05-05-2024 16:00:00,13.940000,75.555917,CO,12,30,19
India,Karnataka,Tumakuru,"Thimmalapura, Tumakuru - KSPCB",05-05-2024 16:00:00,13.377516,77.099072,OZONE,7,41,30
India,Karnataka,Udupi,"Brahmagiri, Udupi - KSPCB",05-05-2024 16:00:00,13.34194444,74.74694444,SO2,7,13,11
India,Karnataka,Udupi,"Brahmagiri, Udupi - KSPCB",05-05-2024 16:00:00,13.34194444,74.74694444,OZONE,23,23,23
India,Karnataka,Vijayapura,"Ibrahimpur, Vijayapura - KSPCB",05-05-2024 16:00:00,16.802639,75.722694,NO2,17,19,19
India,Kerala,Eloor,"Udyogamandal, Eloor - Kerala PCB",05-05-2024 16:00:00,10.073232,76.302765,PM10,30,47,37
India,Kerala,Eloor,"Udyogamandal, Eloor - Kerala PCB",05-05-2024 16:00:00,10.073232,76.302765,NH3,1,1,1
India,Kerala,Eloor,"Udyogamandal, Eloor - Kerala PCB",05-05-2024 16:00:00,10.073232,76.302765,OZONE,11,15,14
India,Kerala,Kollam,"Polayathode, Kollam - Kerala PCB",05-05-2024 16:00:00,8.8787,76.6073,PM10,64,90,78
India,Kerala,Kollam,"Polayathode, Kollam - Kerala PCB",05-05-2024 16:00:00,8.8787,76.6073,NO2,8,9,8
India,Kerala,Thiruvananthapuram,"Kariavattom, Thiruvananthapuram - Kerala PCB",05-05-2024 16:00:00,8.563700,76.886500,CO,18,36,22
India,Kerala,Thiruvananthapuram,"Plammoodu, Thiruvananthapuram - Kerala PCB",05-05-2024 16:00:00,8.5149093,76.9435879,NH3,1,1,1
India,Kerala,Thiruvananthapuram,"Plammoodu, Thiruvananthapuram - Kerala PCB",05-05-2024 16:00:00,8.5149093,76.9435879,OZONE,9,63,15
India,Kerala,Thrissur,"Corporation Ground, Thrissur - Kerala PCB",05-05-2024 16:00:00,10.532400,76.215900,NH3,NA,NA,NA
India,Madhya Pradesh,Bhopal,"Idgah Hills, Bhopal - MPPCB",05-05-2024 16:00:00,23.264759,77.381568,PM2.5,13,78,41
India,Madhya Pradesh,Bhopal,"Paryavaran Parisar, Bhopal - MPPCB",05-05-2024 16:00:00,23.210494,77.425409,CO,13,104,29
India,Madhya Pradesh,Bhopal,"T T Nagar, Bhopal - MPPCB",05-05-2024 16:00:00,23.233584,77.400574,NO2,11,51,25
India,Madhya Pradesh,Bhopal,"T T Nagar, Bhopal - MPPCB",05-05-2024 16:00:00,23.233584,77.400574,NH3,2,6,5
India,Madhya Pradesh,Dewas,"Bhopal Chauraha, Dewas - MPPCB",05-05-2024 16:00:00,22.9682591,76.064118,PM10,22,65,39
India,Madhya Pradesh,Dewas,"Bhopal Chauraha, Dewas - MPPCB",05-05-2024 16:00:00,22.9682591,76.064118,SO2,13,58,34
India,Madhya Pradesh,Gwalior,"City Center, Gwalior - MPPCB",05-05-2024 16:00:00,26.203442,78.193251,CO,6,131,30
India,Madhya Pradesh,Gwalior,"City Center, Gwalior - MPPCB",05-05-2024 16:00:00,26.203442,78.193251,OZONE,19,55,37
India,Madhya Pradesh,Gwalior,"Deen Dayal Nagar, Gwalior - MPPCB",05-05-2024 16:00:00,26.259242,78.216432,NO2,9,147,47
India,Madhya Pradesh,Gwalior,"Maharaj Bada, Gwalior - MPPCB",05-05-2024 16:00:00,26.200388,78.147714,CO,16,147,44
India,Madhya Pradesh,Gwalior,"Phool Bagh, Gwalior - Mondelez Ind. Food",05-05-2024 16:00:00,26.210536,78.171,CO,54,104,73
India,Madhya Pradesh,Indore,"Chhoti Gwaltoli, Indore - MPPCB",05-05-2024 16:00:00,22.4310,75.5213,NO2,44,99,57
India,Madhya Pradesh,Indore,"Chhoti Gwaltoli, Indore - MPPCB",05-05-2024 16:00:00,22.4310,75.5213,SO2,9,16,12
India,Madhya Pradesh,Indore,"Maguda Nagar, Indore - IMC",05-05-2024 16:00:00,22.7524,75.8872,PM2.5,38,114,53
India,Madhya Pradesh,Indore,"Maguda Nagar, Indore - IMC",05-05-2024 16:00:00,22.7524,75.8872,NH3,1,1,1
India,Madhya Pradesh,Indore,"Maguda Nagar, Indore - IMC",05-05-2024 16:00:00,22.7524,75.8872,SO2,33,40,36
India,Madhya Pradesh,Jabalpur,"Govindh Bhavan Colony, Jabalpur - JMC",05-05-2024 16:00:00,23.163174,79.973061,NO2,9,35,22
India,Madhya Pradesh,Jabalpur,"Govindh Bhavan Colony, Jabalpur - JMC",05-05-2024 16:00:00,23.163174,79.973061,NH3,8,14,11
India,Madhya Pradesh,Jabalpur,"Gupteshwar, Jabalpur - JMC",05-05-2024 16:00:00,23.142888,79.916147,PM2.5,49,257,128
India,Madhya Pradesh,Jabalpur,"Suhagi, Jabalpur - JMC",05-05-2024 16:00:00,23.218135,79.957770,CO,13,122,30
India,Madhya Pradesh,Katni,"Gole Bazar, Katni - MPPCB",05-05-2024 16:00:00,23.50016,80.23284,PM2.5,36,306,136
India,Madhya Pradesh,Katni,"Gole Bazar, Katni - MPPCB",05-05-2024 16:00:00,23.50016,80.23284,SO2,20,137,64
India,Madhya Pradesh,Katni,"Gole Bazar, Katni - MPPCB",05-05-2024 16:00:00,23.50016,80.23284,OZONE,3,148,116
India,Madhya Pradesh,Mandideep,"Sector-D Industrial Area, Mandideep - MPPCB",05-05-2024 16:00:00,23.108440,77.511428,NO2,6,41,21
India,Madhya Pradesh,Sagar,"Civil Lines, Sagar - MPPCB",05-05-2024 16:00:00,23.838586,78.759431,NH3,5,11,7
India,Madhya Pradesh,Sagar,"Civil Lines, Sagar - MPPCB",05-05-2024 16:00:00,23.838586,78.759431,CO,8,101,25
India,Madhya Pradesh,Satna,"Bandhavgar Colony, Satna - Birla Cement",05-05-2024 16:00:00,24.58434363,80.8549414,NO2,4,4,4
India,Madhya Pradesh,Satna,"Bandhavgar Colony, Satna - Birla Cement",05-05-2024 16:00:00,24.58434363,80.8549414,SO2,4,7,5
India,Madhya Pradesh,Singrauli,"Suryakiran Bhawan NCL, Singrauli - MPPCB",05-05-2024 16:00:00,24.108970,82.645580,PM2.5,95,407,239
India,Madhya Pradesh,Singrauli,"Suryakiran Bhawan NCL, Singrauli - MPPCB",05-05-2024 16:00:00,24.108970,82.645580,NO2,11,107,45
India,Madhya Pradesh,Singrauli,"Suryakiran Bhawan NCL, Singrauli - MPPCB",05-05-2024 16:00:00,24.108970,82.645580,OZONE,9,98,81
India,Madhya Pradesh,Ujjain,"Mahakaleshwar Temple, Ujjain - MPPCB",05-05-2024 16:00:00,23.182719 ,75.768218 ,PM2.5,NA,NA,NA
India,Madhya Pradesh,Ujjain,"Mahakaleshwar Temple, Ujjain - MPPCB",05-05-2024 16:00:00,23.182719 ,75.768218 ,OZONE,112,121,117
India,Maharashtra,Ahmednagar,"Tarakpur, Ahmednagar - MPCB",05-05-2024 16:00:00,19.10122,74.73339,PM10,55,121,100
India,Maharashtra,Ahmednagar,"Tarakpur, Ahmednagar - MPCB",05-05-2024 16:00:00,19.10122,74.73339,SO2,1,88,15
India,Maharashtra,Akola,"Ramdaspeth, Akola - MPCB",05-05-2024 16:00:00,20.719516,77.000253,PM2.5,20,180,60
India,Maharashtra,Akola,"Ramdaspeth, Akola - MPCB",05-05-2024 16:00:00,20.719516,77.000253,SO2,11,21,14
India,Maharashtra,Amravati,"Shivneri Colony, Amravati - MPCB",05-05-2024 16:00:00,20.9402359,77.7895248,NO2,5,87,29
India,Maharashtra,Amravati,"Shivneri Colony, Amravati - MPCB",05-05-2024 16:00:00,20.9402359,77.7895248,CO,10,64,15
India,Maharashtra,Aurangabad,"MIDC Chilkalthana, Aurangabad - MPCB",05-05-2024 16:00:00,19.875620,75.387310,NO2,5,95,18
India,Maharashtra,Aurangabad,"More Chowk Waluj, Aurangabad - MPCB",05-05-2024 16:00:00,19.8389439,75.244448,OZONE,26,76,48
India,Maharashtra,Badlapur,"Katrap, Badlapur - MPCB",05-05-2024 16:00:00,19.16485,73.23409,PM10,42,120,90
India,Maharashtra,Belapur,"CBD Belapur, Belapur - MPCB",05-05-2024 16:00:00,19.0243902,73.0406721,PM2.5,32,121,68
India,Maharashtra,Belapur,"CBD Belapur, Belapur - MPCB",05-05-2024 16:00:00,19.0243902,73.0406721,NO2,21,65,36
India,Maharashtra,Belapur,"CBD Belapur, Belapur - MPCB",05-05-2024 16:00:00,19.0243902,73.0406721,CO,16,54,22
India,Maharashtra,Belapur,"CBD Belapur, Belapur - MPCB",05-05-2024 16:00:00,19.0243902,73.0406721,OZONE,110,285,211
India,Maharashtra,Bhiwandi,"Gokul Nagar, Bhiwandi - MPCB",05-05-2024 16:00:00,19.309073,73.057223,PM10,67,103,83
India,Maharashtra,Chandrapur,"Chauhan Colony, Chandrapur - MPCB",05-05-2024 16:00:00,19.962900,79.298714,NH3,1,1,1
India,Maharashtra,Chandrapur,"Chauhan Colony, Chandrapur - MPCB",05-05-2024 16:00:00,19.962900,79.298714,OZONE,77,128,107
India,Maharashtra,Dhule,"Deopur, Dhule - MPCB",05-05-2024 16:00:00,20.918946,74.776388,NH3,7,10,9
India,Maharashtra,Jalgaon,"Prabhat Colony, Jalgaon - MPCB",05-05-2024 16:00:00,21.001264,75.565602,PM2.5,88,230,125
India,Maharashtra,Jalgaon,"Prabhat Colony, Jalgaon - MPCB",05-05-2024 16:00:00,21.001264,75.565602,PM10,77,188,121
India,Maharashtra,Jalgaon,"Prabhat Colony, Jalgaon - MPCB",05-05-2024 16:00:00,21.001264,75.565602,NO2,7,113,30
India,Maharashtra,Jalgaon,"Prabhat Colony, Jalgaon - MPCB",05-05-2024 16:00:00,21.001264,75.565602,NH3,1,19,9
India,Maharashtra,Jalna,"Old MIDC, Jalna - MPCB",05-05-2024 16:00:00,19.854616,75.905894,NO2,17,36,27
India,Maharashtra,Jalna,"Old MIDC, Jalna - MPCB",05-05-2024 16:00:00,19.854616,75.905894,CO,20,30,22
India,Maharashtra,Kalyan,"Khadakpada, Kalyan - MPCB",05-05-2024 16:00:00,19.25292,73.142019,PM2.5,21,79,35
India,Maharashtra,Kalyan,"Khadakpada, Kalyan - MPCB",05-05-2024 16:00:00,19.25292,73.142019,PM10,70,150,105
India,Maharashtra,Kalyan,"Khadakpada, Kalyan - MPCB",05-05-2024 16:00:00,19.25292,73.142019,NH3,1,1,1
India,Maharashtra,Kolhapur,"Shivaji University, Kolhapur - MPCB",05-05-2024 16:00:00,16.6870449,74.2505872,NH3,3,6,4
India,Maharashtra,Latur,"Sawe Wadi, Latur - MPCB",05-05-2024 16:00:00,18.39963,76.57452,OZONE,62,134,92
India,Maharashtra,Mahad,"Kamble Tarf Birwadi, Mahad - MPCB",05-05-2024 16:00:00,18.1023399,73.4783687,PM10,51,114,76
India,Maharashtra,Mahad,"Kamble Tarf Birwadi, Mahad - MPCB",05-05-2024 16:00:00,18.1023399,73.4783687,OZONE,3,62,22
India,Maharashtra,Mira-Bhayandar,"Bhayandar West, Mira-Bhayandar - MPCB",05-05-2024 16:00:00,19.296481,72.840923,SO2,2,4,3
India,Maharashtra,Mumbai,"Bandra Kurla Complex, Mumbai - MPCB",05-05-2024 16:00:00,19.065931,72.862131,PM2.5,30,65,42
India,Maharashtra,Mumbai,"Borivali East, Mumbai - IITM",05-05-2024 16:00:00,19.23241,72.86895,NH3,2,5,4
India,Maharashtra,Mumbai,"Byculla, Mumbai - BMC",05-05-2024 16:00:00,18.9767,72.8380,SO2,1,2,1
India,Maharashtra,Mumbai,"Byculla, Mumbai - BMC",05-05-2024 16:00:00,18.9767,72.8380,OZONE,4,52,37
India,Maharashtra,Mumbai,"Chakala-Andheri East, Mumbai - IITM",05-05-2024 16:00:00,19.11074,72.86084,SO2,NA,NA,NA
India,Maharashtra,Mumbai,"Chakala-Andheri East, Mumbai - IITM",05-05-2024 16:00:00,19.11074,72.86084,OZONE,NA,NA,NA
India,Maharashtra,Mumbai,"Chembur, Mumbai - MPCB",05-05-2024 16:00:00,19.0364585,72.8954371,OZONE,2,69,35
India,Maharashtra,Mumbai,"Chhatrapati Shivaji Intl. Airport (T2), Mumbai - MPCB",05-05-2024 16:00:00,19.10078,72.87462,SO2,17,24,20
India,Maharashtra,Mumbai,"Colaba, Mumbai - MPCB",05-05-2024 16:00:00,18.910000,72.820000,OZONE,10,11,11
India,Maharashtra,Mumbai,"Ghatkopar, Mumbai - BMC",05-05-2024 16:00:00,19.083694,72.920967,SO2,1,2,1
India,Maharashtra,Mumbai,"Kandivali East, Mumbai - MPCB",05-05-2024 16:00:00,19.205800,72.868200,PM2.5,9,500,55
India,Maharashtra,Mumbai,"Kandivali East, Mumbai - MPCB",05-05-2024 16:00:00,19.205800,72.868200,CO,30,32,31
India,Maharashtra,Mumbai,"Kandivali West, Mumbai - BMC",05-05-2024 16:00:00,19.215859,72.831718,NO2,5,26,12
India,Maharashtra,Mumbai,"Kandivali West, Mumbai - BMC",05-05-2024 16:00:00,19.215859,72.831718,SO2,1,2,1
India,Maharashtra,Mumbai,"Khindipada-Bhandup West, Mumbai - IITM",05-05-2024 16:00:00,19.1653323,72.922099,NO2,3,9,6
India,Maharashtra,Mumbai,"Kurla, Mumbai - MPCB",05-05-2024 16:00:00,19.0863,72.8888,NO2,11,17,14
India,Maharashtra,Mumbai,"Kurla, Mumbai - MPCB",05-05-2024 16:00:00,19.0863,72.8888,NH3,1,2,1
India,Maharashtra,Mumbai,"Mazgaon, Mumbai - IITM",05-05-2024 16:00:00,18.96702,72.84214,CO,20,67,39
India,Maharashtra,Mumbai,"Mindspace-Malad West, Mumbai - MPCB",05-05-2024 16:00:00,19.1878657,72.8304069,NO2,8,25,16
India,Maharashtra,Mumbai,"Mulund West, Mumbai - MPCB",05-05-2024 16:00:00,19.1750,72.9419,PM2.5,38,70,52
India,Maharashtra,Mumbai,"Mulund West, Mumbai - MPCB",05-05-2024 16:00:00,19.1750,72.9419,NO2,15,16,15
India,Maharashtra,Mumbai,"Navy Nagar-Colaba, Mumbai - IITM",05-05-2024 16:00:00,18.897756,72.813320,CO,20,32,28
India,Maharashtra,Mumbai,"Powai, Mumbai - MPCB",05-05-2024 16:00:00,19.137500,72.915056,NO2,15,28,21
India,Maharashtra,Mumbai,"Sion, Mumbai - MPCB",05-05-2024 16:00:00,19.047000,72.874600,PM2.5,29,47,37
India,Maharashtra,Mumbai,"Sion, Mumbai - MPCB",05-05-2024 16:00:00,19.047000,72.874600,CO,66,72,69
India,Maharashtra,Mumbai,"Vasai West, Mumbai - MPCB",05-05-2024 16:00:00,19.383200,72.820400,OZONE,6,45,25
India,Maharashtra,Mumbai,"Worli, Mumbai - MPCB",05-05-2024 16:00:00,18.9936162,72.8128113,NO2,15,16,15
India,Maharashtra,Nagpur,"Mahal, Nagpur - MPCB",05-05-2024 16:00:00,21.14472,79.107595,CO,28,172,44
India,Maharashtra,Nagpur,"Opp GPO Civil Lines, Nagpur - MPCB",05-05-2024 16:00:00,21.152875,79.0517531,CO,7,139,20
India,Maharashtra,Nagpur,"Opp GPO Civil Lines, Nagpur - MPCB",05-05-2024 16:00:00,21.152875,79.0517531,OZONE,3,162,79
India,Maharashtra,Nashik,"Gangapur Road, Nashik - MPCB",05-05-2024 16:00:00,20.0073285,73.7762427,PM2.5,57,97,73
India,Maharashtra,Nashik,"Gangapur Road, Nashik - MPCB",05-05-2024 16:00:00,20.0073285,73.7762427,PM10,64,105,86
India,Maharashtra,Nashik,"Gangapur Road, Nashik - MPCB",05-05-2024 16:00:00,20.0073285,73.7762427,SO2,3,12,8
India,Maharashtra,Nashik,"Hirawadi, Nashik - MPCB",05-05-2024 16:00:00,20.021503,73.813844,SO2,9,23,16
India,Maharashtra,Nashik,"MIDC Ambad, Nashik - MPCB",05-05-2024 16:00:00,19.950220,73.731480,CO,13,42,26
India,Maharashtra,Navi Mumbai,"Kopripada-Vashi, Navi Mumbai - MPCB",05-05-2024 16:00:00,19.090337,73.014232,PM10,38,224,107
India,Maharashtra,Navi Mumbai,"Kopripada-Vashi, Navi Mumbai - MPCB",05-05-2024 16:00:00,19.090337,73.014232,CO,10,24,13
India,Maharashtra,Navi Mumbai,"Mahape, Navi Mumbai - MPCB",05-05-2024 16:00:00,19.1135051,73.008978,PM10,56,408,117
India,Maharashtra,Navi Mumbai,"Nerul, Navi Mumbai - MPCB",05-05-2024 16:00:00,19.008751,73.016620,PM2.5,29,370,156
India,Maharashtra,Navi Mumbai,"Nerul, Navi Mumbai - MPCB",05-05-2024 16:00:00,19.008751,73.016620,PM10,40,413,153
India,Maharashtra,Navi Mumbai,"Nerul, Navi Mumbai - MPCB",05-05-2024 16:00:00,19.008751,73.016620,NH3,2,3,3
India,Maharashtra,Navi Mumbai,"Nerul, Navi Mumbai - MPCB",05-05-2024 16:00:00,19.008751,73.016620,CO,20,31,25
India,Maharashtra,Navi Mumbai,"Sanpada, Navi Mumbai - MPCB",05-05-2024 16:00:00,19.0575752,73.0151367,PM2.5,32,74,48
India,Maharashtra,Navi Mumbai,"Sanpada, Navi Mumbai - MPCB",05-05-2024 16:00:00,19.0575752,73.0151367,NH3,1,13,5
India,Maharashtra,Navi Mumbai,"Sanpada, Navi Mumbai - MPCB",05-05-2024 16:00:00,19.0575752,73.0151367,SO2,1,9,3
India,Maharashtra,Navi Mumbai,"Sector-19A Nerul, Navi Mumbai - IITM",05-05-2024 16:00:00,19.044,73.0325,PM2.5,43,210,76
India,Maharashtra,Navi Mumbai,"Sector-19A Nerul, Navi Mumbai - IITM",05-05-2024 16:00:00,19.044,73.0325,SO2,7,31,14
India,Maharashtra,Navi Mumbai,"Sector-19A Nerul, Navi Mumbai - IITM",05-05-2024 16:00:00,19.044,73.0325,OZONE,4,84,54
India,Maharashtra,Navi Mumbai,"Sector-2E Kalamboli, Navi Mumbai - MPCB",05-05-2024 16:00:00,19.02579,73.10297,NH3,2,5,3
India,Maharashtra,Navi Mumbai,"Tondare-Taloja, Navi Mumbai - MPCB",05-05-2024 16:00:00,19.0630,73.1209,NO2,28,53,37
India,Maharashtra,Navi Mumbai,"Tondare-Taloja, Navi Mumbai - MPCB",05-05-2024 16:00:00,19.0630,73.1209,NH3,3,6,4
India,Maharashtra,Navi Mumbai,"Tondare-Taloja, Navi Mumbai - MPCB",05-05-2024 16:00:00,19.0630,73.1209,SO2,NA,NA,NA
India,Maharashtra,Pimpri-Chinchwad,"Gavalinagar, Pimpri Chinchwad - MPCB",05-05-2024 16:00:00,18.63673,73.82487,NO2,8,42,21
India,Maharashtra,Pimpri-Chinchwad,"Gavalinagar, Pimpri Chinchwad - MPCB",05-05-2024 16:00:00,18.63673,73.82487,OZONE,2,165,81
India,Maharashtra,Pimpri-Chinchwad,"Park Street Wakad, Pimpri Chinchwad - MPCB",05-05-2024 16:00:00,18.59051,73.77946,NO2,32,69,44
India,Maharashtra,Pimpri-Chinchwad,"Thergaon, Pimpri Chinchwad - MPCB",05-05-2024 16:00:00,18.616318,73.765797,PM2.5,69,222,117
India,Maharashtra,Pimpri-Chinchwad,"Thergaon, Pimpri Chinchwad - MPCB",05-05-2024 16:00:00,18.616318,73.765797,PM10,65,135,95
India,Maharashtra,Pimpri-Chinchwad,"Thergaon, Pimpri Chinchwad - MPCB",05-05-2024 16:00:00,18.616318,73.765797,NO2,13,63,31
India,Maharashtra,Pune,"Bhosari, Pune - IITM",05-05-2024 16:00:00,18.640051,73.848956,PM2.5,12,57,36
India,Maharashtra,Pune,"Bhosari, Pune - IITM",05-05-2024 16:00:00,18.640051,73.848956,NO2,9,13,11
India,Maharashtra,Pune,"Karve Road, Pune - MPCB",05-05-2024 16:00:00,18.5011743,73.8165527,NO2,6,21,11
India,Maharashtra,Pune,"Mhada Colony, Pune - IITM",05-05-2024 16:00:00,18.573040,73.927715,NO2,21,56,37
India,Maharashtra,Pune,"Mhada Colony, Pune - IITM",05-05-2024 16:00:00,18.573040,73.927715,OZONE,8,78,56
India,Maharashtra,Pune,"Revenue Colony-Shivajinagar, Pune - IITM",05-05-2024 16:00:00,18.530085,73.849598,NH3,8,23,16
India,Maharashtra,Pune,"Revenue Colony-Shivajinagar, Pune - IITM",05-05-2024 16:00:00,18.530085,73.849598,CO,103,118,115
India,Maharashtra,Pune,"Revenue Colony-Shivajinagar, Pune - IITM",05-05-2024 16:00:00,18.530085,73.849598,OZONE,9,77,41
India,Maharashtra,Pune,"Transport Nagar-Nigdi, Pune - IITM",05-05-2024 16:00:00,18.664282,73.763966,NO2,3,46,25
India,Maharashtra,Pune,"Transport Nagar-Nigdi, Pune - IITM",05-05-2024 16:00:00,18.664282,73.763966,OZONE,16,72,46
India,Maharashtra,Sangli,"Vijay Nagar, Sangli - MPCB",05-05-2024 16:00:00, 16.5038,74.3623,PM2.5,35,59,48
India,Maharashtra,Sangli,"Vijay Nagar, Sangli - MPCB",05-05-2024 16:00:00, 16.5038,74.3623,OZONE,41,170,170
India,Maharashtra,Solapur,"Dnyaneshwar Nagar, Solapur - MPCB",05-05-2024 16:00:00,17.6336264,75.9132495,CO,9,37,20
India,Maharashtra,Solapur,"Dnyaneshwar Nagar, Solapur - MPCB",05-05-2024 16:00:00,17.6336264,75.9132495,OZONE,29,117,81
India,Maharashtra,Solapur,"Ratandeep Housing Society, Solapur - MPCB",05-05-2024 16:00:00,17.65439,75.90649,PM2.5,87,248,140
India,Maharashtra,Solapur,"Ratandeep Housing Society, Solapur - MPCB",05-05-2024 16:00:00,17.65439,75.90649,PM10,90,145,119
India,Maharashtra,Solapur,"Ratandeep Housing Society, Solapur - MPCB",05-05-2024 16:00:00,17.65439,75.90649,SO2,5,23,10
India,Maharashtra,Thane,"Pimpleshwar Mandir, Thane - MPCB",05-05-2024 16:00:00,19.192056,72.9585188,NO2,1,15,10
India,Maharashtra,Thane,"Pimpleshwar Mandir, Thane - MPCB",05-05-2024 16:00:00,19.192056,72.9585188,NH3,1,7,3
India,Maharashtra,Thane,"Pimpleshwar Mandir, Thane - MPCB",05-05-2024 16:00:00,19.192056,72.9585188,OZONE,6,65,39
India,Maharashtra,Thane,"Upvan Fort, Thane - MPCB",05-05-2024 16:00:00,19.222279,72.957979,PM10,49,84,61
India,Maharashtra,Thane,"Upvan Fort, Thane - MPCB",05-05-2024 16:00:00,19.222279,72.957979,SO2,12,19,15
India,Maharashtra,Ulhasnagar,"Sidhi Vinayak Nagar, Ulhasnagar - MPCB",05-05-2024 16:00:00,19.235581,73.159121,OZONE,1,175,83
India,Maharashtra,Virar,"Bolinj, Virar - MPCB",05-05-2024 16:00:00,19.4458210,72.7988231,NH3,9,9,9
India,Manipur,Imphal,"DM College of Science, Imphal - Manipur PCB",05-05-2024 16:00:00,24.8207389,93.9423085,PM2.5,12,53,26
India,Manipur,Imphal,"Manipur University, Imphal - Manipur PCB",05-05-2024 16:00:00,24.7524239,93.9286218,NO2,6,26,13
India,Meghalaya,Shillong,"Lumpyngngad, Shillong - Meghalaya PCB",05-05-2024 16:00:00,25.5586,91.8985,CO,NA,NA,NA
India,Nagaland,Kohima,"PWD Juction, Kohima - NPCB",05-05-2024 16:00:00,25.6635413,94.0989878,OZONE,10,16,11
India,Odisha,Balasore,"Kalidaspur, Balasore - OSPCB",05-05-2024 16:00:00,21.51161,86.89088,PM2.5,8,73,26
India,Odisha,Balasore,"Kalidaspur, Balasore - OSPCB",05-05-2024 16:00:00,21.51161,86.89088,PM10,27,100,54
India,Odisha,Barbil,"Forest Office, Barbil - OSPCB",05-05-2024 16:00:00,22.1166054,85.3945546,NO2,1,1,1
India,Odisha,Barbil,"Forest Office, Barbil - OSPCB",05-05-2024 16:00:00,22.1166054,85.3945546,NH3,1,1,1
India,Odisha,Barbil,"Forest Office, Barbil - OSPCB",05-05-2024 16:00:00,22.1166054,85.3945546,SO2,10,54,25
India,Odisha,Bhubaneswar,"Lingraj Mandir, Bhubaneswar - OSPCB",05-05-2024 16:00:00,20.240790,85.836784,OZONE,30,86,57
India,Odisha,Bileipada,"Tata Township, Bileipada - OSPCB",05-05-2024 16:00:00,22.06156703,85.47409613,PM2.5,79,327,226
India,Odisha,Brajrajnagar,"GM Office, Brajrajnagar - OSPCB",05-05-2024 16:00:00,21.8004996,83.8396977,NH3,6,7,6
India,Odisha,Brajrajnagar,"GM Office, Brajrajnagar - OSPCB",05-05-2024 16:00:00,21.8004996,83.8396977,SO2,30,31,31
India,Odisha,Brajrajnagar,"GM Office, Brajrajnagar - OSPCB",05-05-2024 16:00:00,21.8004996,83.8396977,OZONE,5,106,32
India,Odisha,Byasanagar,"Ferro Chrome Colony, Byasanagar - OSPCB",05-05-2024 16:00:00,20.94185,86.11510,PM2.5,7,88,48
India,Odisha,Byasanagar,"Ferro Chrome Colony, Byasanagar - OSPCB",05-05-2024 16:00:00,20.94185,86.11510,CO,62,105,83
India,Odisha,Cuttack,"CDA Area, Cuttack - OSPCB",05-05-2024 16:00:00,20.48891     ,85.84768     ,PM2.5,5,85,38
India,Odisha,Cuttack,"CDA Area, Cuttack - OSPCB",05-05-2024 16:00:00,20.48891     ,85.84768     ,CO,14,26,23
India,Odisha,Nayagarh,"Dabuna, Nayagarh - OSPCB",05-05-2024 16:00:00,21.847279,85.416905,PM10,91,401,181
India,Odisha,Nayagarh,"Dabuna, Nayagarh - OSPCB",05-05-2024 16:00:00,21.847279,85.416905,SO2,3,19,7
India,Odisha,Nayagarh,"Dabuna, Nayagarh - OSPCB",05-05-2024 16:00:00,21.847279,85.416905,CO,15,65,32
India,Odisha,Nayagarh,"Dabuna, Nayagarh - OSPCB",05-05-2024 16:00:00,21.847279,85.416905,OZONE,1,48,36
India,Odisha,Rairangpur,"Divisional Forest Office, Rairangpur - OSPCB",05-05-2024 16:00:00,22.265816,86.174829,PM2.5,91,301,160
India,Odisha,Rairangpur,"Divisional Forest Office, Rairangpur - OSPCB",05-05-2024 16:00:00,22.265816,86.174829,NH3,3,3,3
India,Odisha,Rairangpur,"Divisional Forest Office, Rairangpur - OSPCB",05-05-2024 16:00:00,22.265816,86.174829,CO,16,53,26
India,Odisha,Rourkela,"Fertilizer Township, Rourkela - OSPCB",05-05-2024 16:00:00,22.18972222,84.86277778,PM2.5,97,128,104
India,Odisha,Rourkela,"Raghunathpali, Rourkela - OSPCB",05-05-2024 16:00:00,22.220833,84.809444,PM2.5,11,374,300
India,Odisha,Rourkela,"Raghunathpali, Rourkela - OSPCB",05-05-2024 16:00:00,22.220833,84.809444,NO2,23,305,108
India,Odisha,Rourkela,"Raghunathpali, Rourkela - OSPCB",05-05-2024 16:00:00,22.220833,84.809444,CO,30,112,75
India,Odisha,Talcher,"Talcher Coalfields,Talcher - OSPCB",05-05-2024 16:00:00,20.9360711,85.1707021,NH3,3,4,3
India,Odisha,Tensa,"Barsua Iron Ore Mines, Tensa - OSPCB",05-05-2024 16:00:00,21.869985,85.167016,NO2,24,120,59
India,Punjab,Amritsar,"Golden Temple, Amritsar - PPCB",05-05-2024 16:00:00,31.620000,74.876512,PM10,72,102,87
India,Punjab,Amritsar,"Golden Temple, Amritsar - PPCB",05-05-2024 16:00:00,31.620000,74.876512,OZONE,39,59,49
India,Punjab,Bathinda,"Hardev Nagar, Bathinda - PPCB",05-05-2024 16:00:00,30.233011,74.907758,SO2,2,23,11
India,Punjab,Jalandhar,"Civil Line, Jalandhar - PPCB",05-05-2024 16:00:00,31.321907,75.578914,NH3,5,5,5
India,Punjab,Jalandhar,"Civil Line, Jalandhar - PPCB",05-05-2024 16:00:00,31.321907,75.578914,SO2,10,16,11
India,Punjab,Khanna,"Kalal Majra, Khanna - PPCB",05-05-2024 16:00:00,30.736056 ,76.209694,PM2.5,29,100,66
India,Punjab,Ludhiana,"Punjab Agricultural University, Ludhiana - PPCB",05-05-2024 16:00:00,30.9028,75.8086,SO2,5,23,10
India,Punjab,Mandi Gobindgarh,"RIMT University, Mandi Gobindgarh - PPCB",05-05-2024 16:00:00,30.649961,76.331442,PM2.5,39,192,94
India,Punjab,Mandi Gobindgarh,"RIMT University, Mandi Gobindgarh - PPCB",05-05-2024 16:00:00,30.649961,76.331442,NH3,6,6,6
India,Punjab,Patiala,"Model Town, Patiala - PPCB",05-05-2024 16:00:00,30.349388,76.366642,NO2,22,27,25
India,Punjab,Patiala,"Model Town, Patiala - PPCB",05-05-2024 16:00:00,30.349388,76.366642,CO,20,32,26
India,Punjab,Rupnagar,"Ratanpura, Rupnagar - Ambuja Cements",05-05-2024 16:00:00,31.0325454,76.5623046,SO2,7,10,9
India,Rajasthan,Ajmer,"Civil Lines,  Ajmer - RSPCB",05-05-2024 16:00:00,26.470859,74.646594,SO2,11,15,13
India,Rajasthan,Ajmer,"Civil Lines,  Ajmer - RSPCB",05-05-2024 16:00:00,26.470859,74.646594,OZONE,31,124,74
India,Rajasthan,Banswara,"Rati Talai, Banswara - RSPCB",05-05-2024 16:00:00,23.555190,74.440010,NH3,3,6,5
India,Rajasthan,Banswara,"Rati Talai, Banswara - RSPCB",05-05-2024 16:00:00,23.555190,74.440010,CO,4,74,12
India,Rajasthan,Banswara,"Rati Talai, Banswara - RSPCB",05-05-2024 16:00:00,23.555190,74.440010,OZONE,31,84,55
India,Rajasthan,Baran,"Bamboliya, Baran - RSPCB",05-05-2024 16:00:00,25.106006,76.469948,PM10,NA,NA,NA
India,Rajasthan,Baran,"Bamboliya, Baran - RSPCB",05-05-2024 16:00:00,25.106006,76.469948,NH3,NA,NA,NA
India,Rajasthan,Baran,"Bamboliya, Baran - RSPCB",05-05-2024 16:00:00,25.106006,76.469948,CO,19,66,24
India,Rajasthan,Baran,"Bamboliya, Baran - RSPCB",05-05-2024 16:00:00,25.106006,76.469948,OZONE,44,184,80
India,Rajasthan,Barmer,"Railway Colony, Barmer - RSPCB",05-05-2024 16:00:00,25.747299,71.393989,PM2.5,15,66,36
India,Rajasthan,Barmer,"Railway Colony, Barmer - RSPCB",05-05-2024 16:00:00,25.747299,71.393989,NO2,2,5,3
India,Rajasthan,Barmer,"Railway Colony, Barmer - RSPCB",05-05-2024 16:00:00,25.747299,71.393989,SO2,2,9,5
India,Rajasthan,Bharatpur,"Krishna Nagar, Bharatpur - RSPCB",05-05-2024 16:00:00,27.215415,77.50873,SO2,1,7,3
India,Rajasthan,Bharatpur,"Krishna Nagar, Bharatpur - RSPCB",05-05-2024 16:00:00,27.215415,77.50873,CO,28,67,37
India,Rajasthan,Bhiwadi,"Vasundhara Nagar_UIT, Bhiwadi - RSPCB",05-05-2024 16:00:00,28.207266,76.829265,NO2,17,128,41
India,Rajasthan,Bhiwadi,"Vasundhara Nagar_UIT, Bhiwadi - RSPCB",05-05-2024 16:00:00,28.207266,76.829265,NH3,6,19,11
India,Rajasthan,Bhiwadi,"Vasundhara Nagar_UIT, Bhiwadi - RSPCB",05-05-2024 16:00:00,28.207266,76.829265,SO2,3,17,8
India,Rajasthan,Bhiwadi,"Vasundhara Nagar_UIT, Bhiwadi - RSPCB",05-05-2024 16:00:00,28.207266,76.829265,OZONE,11,119,73
India,Rajasthan,Bundi,"New Colony, Bundi - RSPCB",05-05-2024 16:00:00,25.435774,75.644272,PM2.5,28,311,108
India,Rajasthan,Bundi,"New Colony, Bundi - RSPCB",05-05-2024 16:00:00,25.435774,75.644272,OZONE,5,138,96
India,Rajasthan,Chittorgarh,"Shastri Nagar, Chittorgarh - RSPCB",05-05-2024 16:00:00,24.892047,74.623527,PM2.5,10,305,66
India,Rajasthan,Chittorgarh,"Shastri Nagar, Chittorgarh - RSPCB",05-05-2024 16:00:00,24.892047,74.623527,CO,13,28,26
India,Rajasthan,Dausa,"Khatikan Mohalla, Dausa - RSPCB",05-05-2024 16:00:00,26.895552,76.334753,PM2.5,23,221,70
India,Rajasthan,Dausa,"Khatikan Mohalla, Dausa - RSPCB",05-05-2024 16:00:00,26.895552,76.334753,SO2,2,40,6
India,Rajasthan,Dholpur,"Raja Ganj, Dholpur - RSPCB",05-05-2024 16:00:00,26.699557,77.898881,PM2.5,28,283,87
India,Rajasthan,Dholpur,"Raja Ganj, Dholpur - RSPCB",05-05-2024 16:00:00,26.699557,77.898881,NO2,26,131,51
India,Rajasthan,Dungarpur,"Bhoiwada, Dungarpur - RSPCB",05-05-2024 16:00:00,23.837789,73.714926,PM2.5,8,38,20
India,Rajasthan,Dungarpur,"Bhoiwada, Dungarpur - RSPCB",05-05-2024 16:00:00,23.837789,73.714926,PM10,2,64,32
India,Rajasthan,Hanumangarh,"Housing Board, Hanumangarh - RSPCB",05-05-2024 16:00:00,29.610750,74.283608,PM10,93,266,135
India,Rajasthan,Jaipur,"Adarsh Nagar, Jaipur - RSPCB",05-05-2024 16:00:00,26.902909,75.836858,SO2,2,21,12
India,Rajasthan,Jaipur,"Mansarovar Sector-12, Jaipur - RSPCB",05-05-2024 16:00:00,26.843698,75.766894,CO,16,19,18
India,Rajasthan,Jaipur,"Police Commissionerate, Jaipur - RSPCB",05-05-2024 16:00:00,26.9164092,75.7994901,SO2,5,31,18
India,Rajasthan,Jaipur,"Police Commissionerate, Jaipur - RSPCB",05-05-2024 16:00:00,26.9164092,75.7994901,OZONE,15,101,73
India,Rajasthan,Jaipur,"RIICO Sitapura, Jaipur - RSPCB",05-05-2024 16:00:00,26.786682,75.827928,NO2,11,239,50
India,Rajasthan,Jaipur,"Shastri Nagar, Jaipur - RSPCB",05-05-2024 16:00:00,26.9502929,75.730943,OZONE,15,84,39
India,Rajasthan,Jaisalmer,"Sadar Bazar, Jaisalmer - RSPCB",05-05-2024 16:00:00,26.912329,70.909168,NH3,3,12,7
India,Rajasthan,Jaisalmer,"Sadar Bazar, Jaisalmer - RSPCB",05-05-2024 16:00:00,26.912329,70.909168,OZONE,45,136,103
India,Rajasthan,Jhalawar,"Rajlaxmi Nagar, Jhalawar - RSPCB",05-05-2024 16:00:00,24.588397,76.172782,PM10,55,160,116
India,Rajasthan,Jodhpur,"Collectorate, Jodhpur - RSPCB",05-05-2024 16:00:00,26.268249,73.0193853,NO2,24,26,25
India,Rajasthan,Jodhpur,"Digari Kalan, Jodhpur - RSPCB",05-05-2024 16:00:00,26.295810,73.082283,SO2,3,17,7
India,Rajasthan,Jodhpur,"Jhalamand, Jodhpur - RSPCB",05-05-2024 16:00:00,26.215415,73.070156,OZONE,51,113,89
India,Rajasthan,Jodhpur,"Mandor, Jodhpur - RSPCB",05-05-2024 16:00:00,26.358805,73.047444,SO2,2,5,4
India,Rajasthan,Jodhpur,"Samrat Ashok Udhyan, Jodhpur - RSPCB",05-05-2024 16:00:00,26.253384,72.976571,PM2.5,13,53,29
India,Rajasthan,Jodhpur,"Samrat Ashok Udhyan, Jodhpur - RSPCB",05-05-2024 16:00:00,26.253384,72.976571,SO2,4,9,6
India,Rajasthan,Karauli,"Satyawati Vihar, Karauli - RSPCB",05-05-2024 16:00:00,26.506177,77.025989,PM10,83,301,132
India,Rajasthan,Kota,"Dhanmandi, Kota - RSPCB",05-05-2024 16:00:00,25.164090,75.858137,NH3,4,8,6
India,Rajasthan,Kota,"Dhanmandi, Kota - RSPCB",05-05-2024 16:00:00,25.164090,75.858137,OZONE,11,95,66
India,Rajasthan,Kota,"Nayapura, Kota - RSPCB",05-05-2024 16:00:00,25.196024,75.855668,OZONE,6,114,86
India,Rajasthan,Kota,"Shrinath Puram, Kota - RSPCB",05-05-2024 16:00:00,25.14389,75.821256,OZONE,14,90,60
India,Rajasthan,Pali,"Indira Colony Vistar, Pali - RSPCB",05-05-2024 16:00:00,25.771061, 73.340227,NH3,6,17,12
India,Rajasthan,Pratapgarh,"Pragati Nagar, Pratapgarh - RSPCB",05-05-2024 16:00:00,24.041198,74.780702,SO2,4,8,6
India,Rajasthan,Rajsamand,"Dhoinda, Rajsamand - RSPCB",05-05-2024 16:00:00,25.036360,73.883502,PM10,22,73,45
India,Rajasthan,Sawai Madhopur,"Sahu Nagar, Sawai Madhopur - RSPCB",05-05-2024 16:00:00,26.031443,76.359327,PM2.5,32,283,86
India,Rajasthan,Sikar,"Radhakishan Pura, Sikar - RSPCB",05-05-2024 16:00:00,27.608912,75.153302,PM10,NA,NA,NA
India,Rajasthan,Sikar,"Radhakishan Pura, Sikar - RSPCB",05-05-2024 16:00:00,27.608912,75.153302,SO2,NA,NA,NA
India,Rajasthan,Sirohi,"Vedhaynath Colony, Sirohi - RSPCB",05-05-2024 16:00:00,24.885261,72.857549,NO2,6,14,9
India,Rajasthan,Sri Ganganagar,"Old City, Sri Ganganagar - RSPCB",05-05-2024 16:00:00,29.931624,73.864511,PM2.5,NA,NA,NA
India,Rajasthan,Tonk,"Shastri Nagar, Tonk - RSPCB",05-05-2024 16:00:00,26.159933,75.780517,NH3,2,19,5
India,Rajasthan,Tonk,"Shastri Nagar, Tonk - RSPCB",05-05-2024 16:00:00,26.159933,75.780517,OZONE,14,104,70
India,Rajasthan,Udaipur,"Ashok Nagar, Udaipur - RSPCB",05-05-2024 16:00:00,24.5886166,73.6321397,PM2.5,18,64,46
India,Rajasthan,Udaipur,"Ashok Nagar, Udaipur - RSPCB",05-05-2024 16:00:00,24.5886166,73.6321397,NO2,70,106,84
India,Sikkim,Gangtok,"Zero Point GICI, Gangtok - SSPCB",05-05-2024 16:00:00,27.338530,88.614099,PM10,44,65,54
India,TamilNadu,Ariyalur,"Keelapalur, Ariyalur - TNPCB",05-05-2024 16:00:00,11.06825,79.07033,NO2,4,5,4
India,TamilNadu,Chengalpattu,"Crescent University, Chengalpattu - TNPCB",05-05-2024 16:00:00,12.8777316,80.0834807,CO,26,28,28
India,TamilNadu,Chennai,"Kodungaiyur, Chennai - TNPCB",05-05-2024 16:00:00,13.1278,80.2642,OZONE,16,69,44
India,TamilNadu,Chennai,"Manali, Chennai - CPCB",05-05-2024 16:00:00,13.164544,80.26285,PM2.5,1,255,41
India,TamilNadu,Chennai,"Perungudi, Chennai - TNPCB",05-05-2024 16:00:00,12.9533,80.2357,NH3,2,3,2
India,TamilNadu,Chennai,"Royapuram, Chennai - TNPCB",05-05-2024 16:00:00,13.1036,80.2909,PM10,26,80,42
India,TamilNadu,Chennai,"Royapuram, Chennai - TNPCB",05-05-2024 16:00:00,13.1036,80.2909,CO,12,37,24
India,TamilNadu,Chennai,"Velachery Res. Area, Chennai - CPCB",05-05-2024 16:00:00,13.0052189,80.2398125,PM2.5,15,43,24
India,TamilNadu,Chennai,"Velachery Res. Area, Chennai - CPCB",05-05-2024 16:00:00,13.0052189,80.2398125,PM10,15,40,24
India,TamilNadu,Chennai,"Velachery Res. Area, Chennai - CPCB",05-05-2024 16:00:00,13.0052189,80.2398125,NH3,12,17,14
India,TamilNadu,Chennai,"Velachery Res. Area, Chennai - CPCB",05-05-2024 16:00:00,13.0052189,80.2398125,SO2,11,11,11
India,TamilNadu,Chennai,"Velachery Res. Area, Chennai - CPCB",05-05-2024 16:00:00,13.0052189,80.2398125,OZONE,23,52,45
India,TamilNadu,Cuddalore,"Semmandalam, Cuddalore - TNPCB",05-05-2024 16:00:00,11.7637683,79.7499835,OZONE,1,2,2
India,TamilNadu,Gummidipoondi,"Anthoni Pillai Nagar, Gummidipoondi - TNPCB",05-05-2024 16:00:00,13.4127,80.1081,PM10,50,122,89
India,TamilNadu,Gummidipoondi,"Anthoni Pillai Nagar, Gummidipoondi - TNPCB",05-05-2024 16:00:00,13.4127,80.1081,NO2,16,37,26
India,TamilNadu,Palkalaiperur,"Bharathidasan University, Palkalaiperur - TNPCB",05-05-2024 16:00:00,10.681158,78.741746,SO2,28,29,28
India,TamilNadu,Ramanathapuram,"Chalai Bazaar, Ramanathapuram - TNPCB",05-05-2024 16:00:00,9.36399,78.831977,PM10,30,67,44
India,TamilNadu,Ramanathapuram,"Chalai Bazaar, Ramanathapuram - TNPCB",05-05-2024 16:00:00,9.36399,78.831977,NH3,1,1,1
India,TamilNadu,Ramanathapuram,"Chalai Bazaar, Ramanathapuram - TNPCB",05-05-2024 16:00:00,9.36399,78.831977,CO,2,8,4
India,TamilNadu,Ramanathapuram,"Chalai Bazaar, Ramanathapuram - TNPCB",05-05-2024 16:00:00,9.36399,78.831977,OZONE,13,14,14
India,TamilNadu,Thoothukudi,"Meelavittan, Thoothukudi - TNPCB",05-05-2024 16:00:00,8.816428 ,78.099039,PM10,53,121,82
India,TamilNadu,Thoothukudi,"Meelavittan, Thoothukudi - TNPCB",05-05-2024 16:00:00,8.816428 ,78.099039,CO,12,130,48
India,TamilNadu,Tirupur,"Kumaran College, Tirupur - TNPCB",05-05-2024 16:00:00,11.0973603,77.3228673,OZONE,NA,NA,NA
India,TamilNadu,Vellore,"Vasanthapuram, Vellore - TNPCB",05-05-2024 16:00:00,12.909494,79.131861,NO2,NA,NA,NA
India,TamilNadu,Virudhunagar,"Collectorate Office, Virudhunagar - TNPCB",05-05-2024 16:00:00,9.559382,77.948828,PM10,47,101,59
India,TamilNadu,Virudhunagar,"Collectorate Office, Virudhunagar - TNPCB",05-05-2024 16:00:00,9.559382,77.948828,SO2,14,18,16
India,TamilNadu,Virudhunagar,"Collectorate Office, Virudhunagar - TNPCB",05-05-2024 16:00:00,9.559382,77.948828,OZONE,6,6,6
India,Telangana,Hyderabad,"Bollaram Industrial Area, Hyderabad - TSPCB",05-05-2024 16:00:00,17.540891,78.358528,PM2.5,50,173,89
India,Telangana,Hyderabad,"Bollaram Industrial Area, Hyderabad - TSPCB",05-05-2024 16:00:00,17.540891,78.358528,SO2,12,76,29
India,Telangana,Hyderabad,"Bollaram Industrial Area, Hyderabad - TSPCB",05-05-2024 16:00:00,17.540891,78.358528,OZONE,34,36,35
India,Telangana,Hyderabad,"Central University, Hyderabad - TSPCB",05-05-2024 16:00:00,17.460103,78.334361,PM10,73,156,116
India,Telangana,Hyderabad,"ECIL Kapra, Hyderabad - TSPCB",05-05-2024 16:00:00,17.470431,78.566959,SO2,8,23,15
India,Telangana,Hyderabad,"IITH Kandi, Hyderabad - TSPCB",05-05-2024 16:00:00,17.585705,78.126199,SO2,NA,NA,NA
India,Telangana,Hyderabad,"Kokapet, Hyderabad - TSPCB",05-05-2024 16:00:00,17.393559,78.339194,PM10,NA,NA,NA
India,Telangana,Hyderabad,"Kokapet, Hyderabad - TSPCB",05-05-2024 16:00:00,17.393559,78.339194,NO2,9,10,9
India,Telangana,Hyderabad,"Kokapet, Hyderabad - TSPCB",05-05-2024 16:00:00,17.393559,78.339194,NH3,2,2,2
India,Telangana,Hyderabad,"Kompally Municipal Office, Hyderabad - TSPCB",05-05-2024 16:00:00,17.544899,78.486949,PM2.5,46,64,54
India,Telangana,Hyderabad,"Kompally Municipal Office, Hyderabad - TSPCB",05-05-2024 16:00:00,17.544899,78.486949,NH3,5,7,6
India,Telangana,Hyderabad,"Kompally Municipal Office, Hyderabad - TSPCB",05-05-2024 16:00:00,17.544899,78.486949,CO,29,103,45
India,Telangana,Hyderabad,"Kompally Municipal Office, Hyderabad - TSPCB",05-05-2024 16:00:00,17.544899,78.486949,OZONE,1,72,36
India,Telangana,Hyderabad,"Nacharam_TSIIC IALA, Hyderabad - TSPCB",05-05-2024 16:00:00,17.429398,78.569354,PM10,62,90,84
India,Telangana,Hyderabad,"Nacharam_TSIIC IALA, Hyderabad - TSPCB",05-05-2024 16:00:00,17.429398,78.569354,OZONE,15,57,27
India,Telangana,Hyderabad,"Ramachandrapuram, Hyderabad - TSPCB",05-05-2024 16:00:00,17.528544,78.286195,OZONE,NA,NA,NA
India,Telangana,Hyderabad,"Sanathnagar, Hyderabad - TSPCB",05-05-2024 16:00:00,17.4559458,78.4332152,PM2.5,46,169,87
India,Telangana,Hyderabad,"Sanathnagar, Hyderabad - TSPCB",05-05-2024 16:00:00,17.4559458,78.4332152,SO2,19,101,65
India,Telangana,Hyderabad,"Somajiguda, Hyderabad - TSPCB",05-05-2024 16:00:00,17.417094,78.457437,PM2.5,54,161,95
India,Telangana,Hyderabad,"Somajiguda, Hyderabad - TSPCB",05-05-2024 16:00:00,17.417094,78.457437,CO,20,91,35
India,Telangana,Hyderabad,"Somajiguda, Hyderabad - TSPCB",05-05-2024 16:00:00,17.417094,78.457437,OZONE,10,39,20
India,Tripura,Agartala,"Bardowali, Agartala - Tripura SPCB",05-05-2024 16:00:00,23.8175497,91.2726974,PM10,56,138,93
India,Tripura,Agartala,"Bardowali, Agartala - Tripura SPCB",05-05-2024 16:00:00,23.8175497,91.2726974,NH3,1,2,2
India,Uttar_Pradesh,Agra,"Manoharpur, Agra - UPPCB",05-05-2024 16:00:00,27.23711,78.01936,PM2.5,20,114,52
India,Uttar_Pradesh,Agra,"Manoharpur, Agra - UPPCB",05-05-2024 16:00:00,27.23711,78.01936,NH3,1,3,2
India,Uttar_Pradesh,Agra,"Rohta, Agra - UPPCB",05-05-2024 16:00:00,27.106972,78.000111,OZONE,12,15,14
India,Uttar_Pradesh,Agra,"Sanjay Palace, Agra - UPPCB",05-05-2024 16:00:00,27.19865833,78.00598056,PM2.5,3,41,22
India,Uttar_Pradesh,Agra,"Shastripuram, Agra - UPPCB",05-05-2024 16:00:00,27.19862,77.92066,SO2,13,18,15
India,Uttar_Pradesh,Agra,"Shastripuram, Agra - UPPCB",05-05-2024 16:00:00,27.19862,77.92066,OZONE,1,12,5
India,Uttar_Pradesh,Baghpat,"Sardar Patel Inter College, Baghpat - UPPCB",05-05-2024 16:00:00,28.964949,77.278761,OZONE,3,91,70
India,Uttar_Pradesh,Bareilly,"Civil Lines, Bareilly - UPPCB",05-05-2024 16:00:00,28.359581,79.414455,PM10,17,32,24
India,Uttar_Pradesh,Bareilly,"Civil Lines, Bareilly - UPPCB",05-05-2024 16:00:00,28.359581,79.414455,NH3,1,1,1
India,Uttar_Pradesh,Bareilly,"Rajendra Nagar, Bareilly - UPPCB",05-05-2024 16:00:00,28.38910936,79.42963708,CO,13,33,25
India,Uttar_Pradesh,Firozabad,"Vibhab Nagar, Firozabad - UPPCB",05-05-2024 16:00:00,27.1594,78.3953,PM10,37,112,67
India,Uttar_Pradesh,Firozabad,"Vibhab Nagar, Firozabad - UPPCB",05-05-2024 16:00:00,27.1594,78.3953,OZONE,12,100,36
India,Uttar_Pradesh,Ghaziabad,"Indirapuram, Ghaziabad - UPPCB",05-05-2024 16:00:00,28.646233,77.358075,NO2,42,108,74
India,Uttar_Pradesh,Ghaziabad,"Loni, Ghaziabad - UPPCB",05-05-2024 16:00:00,28.757294,77.278792,OZONE,3,192,154
India,Uttar_Pradesh,Ghaziabad,"Sanjay Nagar, Ghaziabad - UPPCB",05-05-2024 16:00:00,28.685382,77.453839,SO2,8,79,31
India,Uttar_Pradesh,Ghaziabad,"Sanjay Nagar, Ghaziabad - UPPCB",05-05-2024 16:00:00,28.685382,77.453839,OZONE,4,208,160
India,Uttar_Pradesh,Gorakhpur,"Madan Mohan Malaviya University of Technology, Gorakhpur - UPPCB",05-05-2024 16:00:00,26.730136,83.433859,PM10,101,336,149
India,Uttar_Pradesh,Greater Noida,"Knowledge Park - III, Greater Noida - UPPCB",05-05-2024 16:00:00,28.47272,77.482000,OZONE,2,256,192
India,Uttar_Pradesh,Greater Noida,"Knowledge Park - V, Greater Noida - UPPCB",05-05-2024 16:00:00,28.557054,77.453663,PM2.5,85,419,314
India,Uttar_Pradesh,Greater Noida,"Knowledge Park - V, Greater Noida - UPPCB",05-05-2024 16:00:00,28.557054,77.453663,PM10,172,500,377
India,Uttar_Pradesh,Hapur,"Anand Vihar, Hapur - UPPCB",05-05-2024 16:00:00,28.725645,77.749675,NO2,5,75,37
India,Uttar_Pradesh,Hapur,"Anand Vihar, Hapur - UPPCB",05-05-2024 16:00:00,28.725645,77.749675,NH3,3,6,5
India,Uttar_Pradesh,Jhansi,"Shivaji Nagar, Jhansi - UPPCB",05-05-2024 16:00:00,25.4547,78.6039,SO2,15,23,18
India,Uttar_Pradesh,Jhansi,"Shivaji Nagar, Jhansi - UPPCB",05-05-2024 16:00:00,25.4547,78.6039,OZONE,5,63,33
India,Uttar_Pradesh,Kanpur,"FTI Kidwai Nagar, Kanpur - UPPCB",05-05-2024 16:00:00,26.428282,80.327067,PM2.5,39,303,140
India,Uttar_Pradesh,Kanpur,"NSI Kalyanpur, Kanpur - UPPCB",05-05-2024 16:00:00,26.509954,80.249612,NH3,1,2,2
India,Uttar_Pradesh,Kanpur,"Nehru Nagar, Kanpur - UPPCB",05-05-2024 16:00:00,26.4703136,80.3229863,SO2,1,11,6
India,Uttar_Pradesh,Kanpur,"Nehru Nagar, Kanpur - UPPCB",05-05-2024 16:00:00,26.4703136,80.3229863,OZONE,24,210,62
India,Uttar_Pradesh,Khurja,"Kalindi Kunj, Khurja - UPPCB",05-05-2024 16:00:00,28.2348927,77.8683002,NH3,1,2,2
India,Uttar_Pradesh,Khurja,"Kalindi Kunj, Khurja - UPPCB",05-05-2024 16:00:00,28.2348927,77.8683002,CO,42,69,55
India,Uttar_Pradesh,Lucknow,"B R Ambedkar University, Lucknow - UPPCB",05-05-2024 16:00:00,26.766433,80.927299,NH3,6,8,6
India,Uttar_Pradesh,Lucknow,"Gomti Nagar, Lucknow - UPPCB",05-05-2024 16:00:00,26.868120,81.005119,PM2.5,73,217,119
India,Uttar_Pradesh,Lucknow,"Gomti Nagar, Lucknow - UPPCB",05-05-2024 16:00:00,26.868120,81.005119,CO,38,47,45
India,Uttar_Pradesh,Lucknow,"Kukrail Picnic Spot-1, Lucknow - UPPCB",05-05-2024 16:00:00,26.90723,80.98579,NO2,8,8,8
India,Uttar_Pradesh,Lucknow,"Kukrail Picnic Spot-1, Lucknow - UPPCB",05-05-2024 16:00:00,26.90723,80.98579,OZONE,7,48,37
India,Uttar_Pradesh,Lucknow,"Talkatora District Industries Center, Lucknow - CPCB",05-05-2024 16:00:00,26.83399722,80.8917361,NH3,6,21,15
India,Uttar_Pradesh,Meerut,"Jai Bhim Nagar, Meerut - UPPCB",05-05-2024 16:00:00,28.9535882,77.7622941,CO,36,109,47
India,Uttar_Pradesh,Meerut,"Pallavpuram Phase 2, Meerut - UPPCB",05-05-2024 16:00:00,29.063510,77.709723,NO2,9,120,62
India,Uttar_Pradesh,Meerut,"Pallavpuram Phase 2, Meerut - UPPCB",05-05-2024 16:00:00,29.063510,77.709723,SO2,13,62,34
India,Uttar_Pradesh,Meerut,"Pallavpuram Phase 2, Meerut - UPPCB",05-05-2024 16:00:00,29.063510,77.709723,OZONE,1,76,62
India,Uttar_Pradesh,Moradabad,"Buddhi Vihar, Moradabad - UPPCB",05-05-2024 16:00:00,28.83526,78.74460,NO2,23,23,23
India,Uttar_Pradesh,Moradabad,"Buddhi Vihar, Moradabad - UPPCB",05-05-2024 16:00:00,28.83526,78.74460,NH3,2,2,2
India,Uttar_Pradesh,Moradabad,"Employment Office, Moradabad - UPPCB",05-05-2024 16:00:00,28.88528,78.73880,SO2,31,91,46
India,Uttar_Pradesh,Moradabad,"Jigar Colony, Moradabad - UPPCB",05-05-2024 16:00:00,28.856664,78.772638,NO2,18,20,19
India,Uttar_Pradesh,Moradabad,"Jigar Colony, Moradabad - UPPCB",05-05-2024 16:00:00,28.856664,78.772638,SO2,6,10,8
India,Uttar_Pradesh,Moradabad,"Jigar Colony, Moradabad - UPPCB",05-05-2024 16:00:00,28.856664,78.772638,OZONE,47,77,63
India,Uttar_Pradesh,Moradabad,"Kashiram Nagar, Moradabad - UPPCB",05-05-2024 16:00:00,28.849399,78.742362,OZONE,11,92,24
India,Uttar_Pradesh,Moradabad,"Transport Nagar, Moradabad - UPPCB",05-05-2024 16:00:00,28.802625,78.753728,NH3,5,5,5
India,Uttar_Pradesh,Muzaffarnagar,"New Mandi, Muzaffarnagar - UPPCB",05-05-2024 16:00:00,29.4723508,77.7194031,CO,18,96,30
India,Uttar_Pradesh,Muzaffarnagar,"New Mandi, Muzaffarnagar - UPPCB",05-05-2024 16:00:00,29.4723508,77.7194031,OZONE,5,54,37
India,Uttar_Pradesh,Noida,"Sector-1, Noida - UPPCB",05-05-2024 16:00:00,28.5898,77.3101,CO,4,134,22
India,Uttar_Pradesh,Noida,"Sector-116, Noida - UPPCB",05-05-2024 16:00:00,28.569230,77.393848,SO2,8,80,24
India,Uttar_Pradesh,Noida,"Sector-116, Noida - UPPCB",05-05-2024 16:00:00,28.569230,77.393848,OZONE,1,147,98
India,Uttar_Pradesh,Prayagraj,"Jhunsi, Prayagraj - UPPCB",05-05-2024 16:00:00,25.425602,81.917152,PM10,55,152,106
India,Uttar_Pradesh,Prayagraj,"Jhunsi, Prayagraj - UPPCB",05-05-2024 16:00:00,25.425602,81.917152,NO2,6,6,6
India,Uttar_Pradesh,Prayagraj,"Nagar Nigam, Prayagraj - UPPCB",05-05-2024 16:00:00,25.44919916 ,81.82735986 ,NO2,5,5,5
India,Uttar_Pradesh,Varanasi,"Ardhali Bazar, Varanasi - UPPCB",05-05-2024 16:00:00,25.3505986,82.9083074,PM2.5,17,87,54
India,Uttar_Pradesh,Varanasi,"Ardhali Bazar, Varanasi - UPPCB",05-05-2024 16:00:00,25.3505986,82.9083074,CO,18,66,25
India,Uttar_Pradesh,Varanasi,"Ardhali Bazar, Varanasi - UPPCB",05-05-2024 16:00:00,25.3505986,82.9083074,OZONE,33,37,35
India,Uttar_Pradesh,Varanasi,"Maldahiya, Varanasi - UPPCB",05-05-2024 16:00:00,25.32393,82.99687,NH3,1,2,1
India,Uttar_Pradesh,Vrindavan,"Omex Eternity, Vrindavan - UPPCB",05-05-2024 16:00:00,27.5714090,77.6557570,NO2,2,3,3
India,Uttar_Pradesh,Vrindavan,"Omex Eternity, Vrindavan - UPPCB",05-05-2024 16:00:00,27.5714090,77.6557570,NH3,1,1,1
India,Uttar_Pradesh,Vrindavan,"Omex Eternity, Vrindavan - UPPCB",05-05-2024 16:00:00,27.5714090,77.6557570,SO2,41,53,44
India,Uttarakhand,Dehradun,"Doon University, Dehradun - UKPCB",05-05-2024 16:00:00,30.269444,78.044167,PM2.5,34,103,70
India,Uttarakhand,Dehradun,"Doon University, Dehradun - UKPCB",05-05-2024 16:00:00,30.269444,78.044167,PM10,64,120,92
India,Uttarakhand,Rishikesh,"Shivaji Nagar, Rishikesh - UKPCB",05-05-2024 16:00:00,30.075911,78.2859547,PM10,71,127,93
India,West_Bengal,Asansol,"Asansol Court Area, Asansol - WBPCB",05-05-2024 16:00:00,23.685297,86.945968,PM10,71,190,130
India,West_Bengal,Barrackpore,"SVSPA Campus, Barrackpore - WBPCB",05-05-2024 16:00:00,22.7605581,88.3617589,PM10,35,125,79
India,West_Bengal,Durgapur,"PCBL Residential Complex, Durgapur - WBPCB",05-05-2024 16:00:00,23.5087640,87.3544400,CO,34,91,44
India,West_Bengal,Durgapur,"Sidhu Kanhu Indoor Stadium, Durgapur - WBPCB",05-05-2024 16:00:00,23.5404352,87.2892225,NH3,5,9,7
India,West_Bengal,Howrah,"Belur Math, Howrah - WBPCB",05-05-2024 16:00:00,22.629801,88.352017,CO,2,12,7
India,West_Bengal,Howrah,"Ghusuri, Howrah - WBPCB",05-05-2024 16:00:00,22.611968,88.347422,NH3,3,3,3
India,West_Bengal,Howrah,"Ghusuri, Howrah - WBPCB",05-05-2024 16:00:00,22.611968,88.347422,SO2,4,6,5
India,West_Bengal,Howrah,"Padmapukur, Howrah - WBPCB",05-05-2024 16:00:00,22.5687319,88.2797276,PM2.5,29,83,51
India,West_Bengal,Howrah,"Padmapukur, Howrah - WBPCB",05-05-2024 16:00:00,22.5687319,88.2797276,CO,11,53,26
India,West_Bengal,Kolkata,"Ballygunge, Kolkata - WBPCB",05-05-2024 16:00:00,22.5367507,88.3638022,PM2.5,16,71,38
India,West_Bengal,Kolkata,"Ballygunge, Kolkata - WBPCB",05-05-2024 16:00:00,22.5367507,88.3638022,CO,19,28,26
India,West_Bengal,Kolkata,"Bidhannagar, Kolkata - WBPCB",05-05-2024 16:00:00,22.58157048,88.41002457,SO2,11,17,14
India,West_Bengal,Kolkata,"Fort William, Kolkata - WBPCB",05-05-2024 16:00:00,22.556640,88.342674,NO2,12,22,17
India,West_Bengal,Kolkata,"Fort William, Kolkata - WBPCB",05-05-2024 16:00:00,22.556640,88.342674,NH3,2,10,2
India,West_Bengal,Kolkata,"Jadavpur, Kolkata - WBPCB",05-05-2024 16:00:00,22.49929,88.36917,OZONE,19,65,48
India,West_Bengal,Kolkata,"Rabindra Bharati University, Kolkata - WBPCB",05-05-2024 16:00:00,22.627847,88.380669,NO2,23,24,23
India,West_Bengal,Kolkata,"Rabindra Bharati University, Kolkata - WBPCB",05-05-2024 16:00:00,22.627847,88.380669,NH3,10,10,10
India,West_Bengal,Kolkata,"Rabindra Sarobar, Kolkata - WBPCB",05-05-2024 16:00:00,22.51106,88.35142,NH3,6,10,8
India,West_Bengal,Siliguri,"Ward-32 Bapupara, Siliguri - WBPCB",05-05-2024 16:00:00,26.6879226,88.4152495,SO2,7,10,8
India,West_Bengal,Siliguri,"Ward-32 Bapupara, Siliguri - WBPCB",05-05-2024 16:00:00,26.6879226,88.4152495,OZONE,17,64,49
India,Andhra_Pradesh,Anantapur,"Gulzarpet, Anantapur - APPCB",05-05-2024 16:00:00,14.675886,77.593027,PM10,63,104,81
India,Andhra_Pradesh,Kadapa,"Yerramukkapalli, Kadapa - APPCB",05-05-2024 16:00:00,14.465052,78.824187,NH3,3,3,3
India,Andhra_Pradesh,Rajamahendravaram,"Anand Kala Kshetram, Rajamahendravaram - APPCB",05-05-2024 16:00:00,16.9872867,81.7363176,PM2.5,6,30,15
India,Andhra_Pradesh,Rajamahendravaram,"Anand Kala Kshetram, Rajamahendravaram - APPCB",05-05-2024 16:00:00,16.9872867,81.7363176,NH3,1,8,3
India,Andhra_Pradesh,Rajamahendravaram,"Anand Kala Kshetram, Rajamahendravaram - APPCB",05-05-2024 16:00:00,16.9872867,81.7363176,OZONE,25,57,48
India,Andhra_Pradesh,Tirupati,"Tirumala, Tirupati - APPCB",05-05-2024 16:00:00,13.67,79.35,CO,32,57,44
India,Andhra_Pradesh,Tirupati,"Vaikuntapuram, Tirupati - APPCB",05-05-2024 16:00:00,13.615387,79.409230,NH3,NA,NA,NA
India,Andhra_Pradesh,Vijayawada,"HB Colony, Vijayawada - APPCB",05-05-2024 16:00:00,16.536107,80.594233,PM10,38,92,64
India,Andhra_Pradesh,Vijayawada,"HB Colony, Vijayawada - APPCB",05-05-2024 16:00:00,16.536107,80.594233,SO2,5,7,6
India,Andhra_Pradesh,Vijayawada,"Kanuru, Vijayawada - APPCB",05-05-2024 16:00:00,16.486692,80.699436,NO2,72,82,78
India,Andhra_Pradesh,Vijayawada,"Rajiv Gandhi Park, Vijayawada - APPCB",05-05-2024 16:00:00,16.509717,80.612222,NO2,29,65,37
India,Andhra_Pradesh,Vijayawada,"Rajiv Nagar, Vijayawada - APPCB",05-05-2024 16:00:00,16.554731,80.649110,PM10,59,117,67
India,Andhra_Pradesh,Vijayawada,"Rajiv Nagar, Vijayawada - APPCB",05-05-2024 16:00:00,16.554731,80.649110,NO2,12,13,12
India,Andhra_Pradesh,Visakhapatnam,"GVM Corporation, Visakhapatnam - APPCB",05-05-2024 16:00:00,17.72,83.3,SO2,10,16,13
India,Andhra_Pradesh,Visakhapatnam,"GVM Corporation, Visakhapatnam - APPCB",05-05-2024 16:00:00,17.72,83.3,OZONE,11,159,152
India,Arunachal_Pradesh,Naharlagun,"Naharlagun, Naharlagun - APSPCB",05-05-2024 16:00:00,27.103358,93.679645,SO2,NA,NA,NA
India,Assam,Byrnihat,"Central Academy for SFS, Byrnihat - PCBA",05-05-2024 16:00:00,26.071318,91.87488,NO2,34,79,52
India,Assam,Guwahati,"LGBI Airport, Guwahati - PCBA",05-05-2024 16:00:00,26.10887,91.589544,OZONE,6,16,11
India,Assam,Nagaon,"Christianpatty, Nagaon - PCBA",05-05-2024 16:00:00,26.349082,92.68449,PM2.5,62,230,113
India,Assam,Nagaon,"Christianpatty, Nagaon - PCBA",05-05-2024 16:00:00,26.349082,92.68449,NH3,1,8,3
India,Assam,Nagaon,"Christianpatty, Nagaon - PCBA",05-05-2024 16:00:00,26.349082,92.68449,SO2,NA,NA,NA
India,Assam,Nalbari,"Bata Chowk, Nalbari - PCBA",05-05-2024 16:00:00,26.446912,91.439057,PM2.5,57,150,83
India,Assam,Nalbari,"Bata Chowk, Nalbari - PCBA",05-05-2024 16:00:00,26.446912,91.439057,CO,64,90,83
India,Bihar,Araria,"Kharahiya Basti, Araria - BSPCB",05-05-2024 16:00:00,26.146529,87.454184,CO,14,30,22
India,Bihar,Arrah,"New DM Office, Arrah - BSPCB",05-05-2024 16:00:00,25.5626095,84.663264,PM10,93,232,145
India,Bihar,Arrah,"New DM Office, Arrah - BSPCB",05-05-2024 16:00:00,25.5626095,84.663264,NO2,1,15,9
India,Bihar,Arrah,"New DM Office, Arrah - BSPCB",05-05-2024 16:00:00,25.5626095,84.663264,CO,4,16,10
India,Bihar,Arrah,"New DM Office, Arrah - BSPCB",05-05-2024 16:00:00,25.5626095,84.663264,OZONE,13,37,18
India,Bihar,Aurangabad,"Gurdeo Nagar, Aurangabad - BSPCB",05-05-2024 16:00:00,24.75746,84.366208,NO2,4,7,5
India,Bihar,Aurangabad,"Gurdeo Nagar, Aurangabad - BSPCB",05-05-2024 16:00:00,24.75746,84.366208,NH3,3,27,20
India,Bihar,Bettiah,"Kamalnath Nagar, Bettiah - BSPCB",05-05-2024 16:00:00,26.80365,84.51954,PM2.5,98,375,221
India,Bihar,Bhagalpur,"DM Office_Kachari Chowk, Bhagalpur - BSPCB",05-05-2024 16:00:00,25.251013,86.989001,NH3,7,11,8
India,Bihar,Bhagalpur,"DM Office_Kachari Chowk, Bhagalpur - BSPCB",05-05-2024 16:00:00,25.251013,86.989001,OZONE,39,64,50
India,Bihar,Bihar Sharif,"D M Colony, Bihar Sharif - BSPCB",05-05-2024 16:00:00,25.204762,85.514960,PM10,66,500,129
India,Bihar,Bihar Sharif,"D M Colony, Bihar Sharif - BSPCB",05-05-2024 16:00:00,25.204762,85.514960,SO2,1,15,9
India,Bihar,Buxar,"Charitra Van, Buxar - BSPCB (Formerly known as Central Jail)",05-05-2024 16:00:00,25.567520,83.966379,OZONE,11,303,303
India,Bihar,Gaya,"Collectorate, Gaya - BSPCB",05-05-2024 16:00:00,24.7955,84.9994,OZONE,49,81,60
India,Bihar,Gaya,"SFTI Kusdihra, Gaya - BSPCB",05-05-2024 16:00:00,24.762518,84.982348,SO2,9,23,13
India,Bihar,Hajipur,"Industrial Area, Hajipur - BSPCB",05-05-2024 16:00:00,25.697189,85.245900,PM2.5,76,211,134
India,Bihar,Hajipur,"Industrial Area, Hajipur - BSPCB",05-05-2024 16:00:00,25.697189,85.245900,OZONE,2,209,33
India,Bihar,Kishanganj,"SDM Office_Khagra, Kishanganj - BSPCB",05-05-2024 16:00:00,26.0881305,87.93840336,NH3,9,10,10
India,Bihar,Manguraha,"Forest Rest House, Manguraha - BSPCB",05-05-2024 16:00:00,27.308328,84.531742,PM2.5,43,67,55
India,Bihar,Manguraha,"Forest Rest House, Manguraha - BSPCB",05-05-2024 16:00:00,27.308328,84.531742,NH3,2,3,3
India,Bihar,Manguraha,"Forest Rest House, Manguraha - BSPCB",05-05-2024 16:00:00,27.308328,84.531742,SO2,NA,NA,NA
India,Bihar,Motihari,"Gandak Colony, Motihari - BSPCB",05-05-2024 16:00:00,26.63086,84.90051,NH3,11,21,16
India,Bihar,Munger,"Town Hall, Munger - BSPCB",05-05-2024 16:00:00,25.376776,86.471523,PM10,110,159,129
India,Bihar,Munger,"Town Hall, Munger - BSPCB",05-05-2024 16:00:00,25.376776,86.471523,CO,32,62,39
India,Bihar,Muzaffarpur,"Buddha Colony, Muzaffarpur - BSPCB",05-05-2024 16:00:00,26.11442,85.39813,CO,29,91,33
India,Bihar,Muzaffarpur,"Muzaffarpur Collectorate, Muzaffarpur - BSPCB",05-05-2024 16:00:00,26.1209,85.3647,SO2,5,13,9
India,Bihar,Patna,"Govt. High School Shikarpur, Patna - BSPCB",05-05-2024 16:00:00,25.592539,85.227158,PM2.5,273,327,307
India,Bihar,Patna,"Govt. High School Shikarpur, Patna - BSPCB",05-05-2024 16:00:00,25.592539,85.227158,PM10,144,244,189
India,Bihar,Patna,"Govt. High School Shikarpur, Patna - BSPCB",05-05-2024 16:00:00,25.592539,85.227158,OZONE,1,59,44
India,Bihar,Patna,"IGSC Planetarium Complex, Patna - BSPCB",05-05-2024 16:00:00,25.610369,85.132568,PM2.5,186,352,295
India,Bihar,Patna,"IGSC Planetarium Complex, Patna - BSPCB",05-05-2024 16:00:00,25.610369,85.132568,NO2,11,11,11
India,Bihar,Patna,"Rajbansi Nagar, Patna - BSPCB",05-05-2024 16:00:00,25.599486,85.113666,PM10,162,379,243
India,Bihar,Purnia,"Mariam Nagar, Purnia - BSPCB",05-05-2024 16:00:00,25.366336,87.117468,PM2.5,67,153,88
India,Bihar,Purnia,"Mariam Nagar, Purnia - BSPCB",05-05-2024 16:00:00,25.366336,87.117468,NH3,6,9,7
India,Bihar,Rajgir,"Dangi Tola, Rajgir - BSPCB",05-05-2024 16:00:00,25.03280,85.41948,PM2.5,52,303,119
India,Bihar,Rajgir,"Dangi Tola, Rajgir - BSPCB",05-05-2024 16:00:00,25.03280,85.41948,NO2,18,37,21
India,Bihar,Saharsa,"Police Line, Saharsa - BSPCB",05-05-2024 16:00:00,25.892357,86.590325,SO2,16,16,16
India,Bihar,Saharsa,"Police Line, Saharsa - BSPCB",05-05-2024 16:00:00,25.892357,86.590325,OZONE,15,73,34
India,Bihar,Samastipur,"DM Office_Kasipur, Samastipur - BSPCB",05-05-2024 16:00:00,25.859655,85.77944,OZONE,1,23,15
India,Bihar,Sasaram,"Dada Peer, Sasaram - BSPCB",05-05-2024 16:00:00,24.952822,84.002396,OZONE,18,117,88
India,Bihar,Siwan,"Chitragupta Nagar, Siwan - BSPCB",05-05-2024 16:00:00,26.2271665,84.3570427,NH3,2,11,3
India,Bihar,Siwan,"Chitragupta Nagar, Siwan - BSPCB",05-05-2024 16:00:00,26.2271665,84.3570427,OZONE,29,214,190
India,Chandigarh,Chandigarh,"Sector 22, Chandigarh - CPCC",05-05-2024 16:00:00,30.735567,76.775714,PM10,42,139,96
India,Chandigarh,Chandigarh,"Sector-53, Chandigarh - CPCC",05-05-2024 16:00:00,30.719859,76.738637,OZONE,20,64,57
India,Chhattisgarh,Bhilai,"32Bungalows, Bhilai - CECB",05-05-2024 16:00:00,21.194815,81.314770,PM10,99,141,119
India,Chhattisgarh,Bhilai,"32Bungalows, Bhilai - CECB",05-05-2024 16:00:00,21.194815,81.314770,NO2,18,33,27
India,Chhattisgarh,Bilaspur,"Mangala, Bilaspur - NTPC",05-05-2024 16:00:00,22.08815,82.13737,PM10,55,136,91
India,Chhattisgarh,Bilaspur,"Mangala, Bilaspur - NTPC",05-05-2024 16:00:00,22.08815,82.13737,NO2,11,19,13
India,Chhattisgarh,Chhal,"Nawapara SECL Colony, Chhal - CECB",05-05-2024 16:00:00,22.118125,83.140608,PM2.5,72,186,129
India,Chhattisgarh,Chhal,"Nawapara SECL Colony, Chhal - CECB",05-05-2024 16:00:00,22.118125,83.140608,CO,24,78,44
India,Chhattisgarh,Korba,"Rampur, Korba - CECB",05-05-2024 16:00:00,22.368195,82.746431,PM2.5,28,98,65
India,Chhattisgarh,Korba,"Rampur, Korba - CECB",05-05-2024 16:00:00,22.368195,82.746431,SO2,12,79,41
India,Chhattisgarh,Korba,"Rampur, Korba - CECB",05-05-2024 16:00:00,22.368195,82.746431,CO,14,62,47
India,Chhattisgarh,Korba,"Rampur, Korba - CECB",05-05-2024 16:00:00,22.368195,82.746431,OZONE,8,41,12
India,Chhattisgarh,Korba,"Urja Nagar, Korba - CECB",05-05-2024 16:00:00,22.348441,82.549611,PM2.5,1,306,73
India,Chhattisgarh,Milupara,"Govt. Higher Secondary School, Milupara - CECB",05-05-2024 16:00:00,22.1910172,83.5197009,NO2,14,63,33
India,Chhattisgarh,Raipur,"Bhatagaon New ISBT, Raipur - CECB",05-05-2024 16:00:00,21.219665,81.630094,NH3,2,3,3
India,Chhattisgarh,Raipur,"Bhatagaon New ISBT, Raipur - CECB",05-05-2024 16:00:00,21.219665,81.630094,CO,27,83,33
India,Chhattisgarh,Raipur,"Bhatagaon New ISBT, Raipur - CECB",05-05-2024 16:00:00,21.219665,81.630094,OZONE,3,12,7
India,Chhattisgarh,Raipur,"Siltara Phase-II, Raipur - CECB",05-05-2024 16:00:00,21.371751,81.664929,OZONE,3,70,41
India,Chhattisgarh,Tumidih,"OP Jindal Industrial Park, Tumidih - CECB",05-05-2024 16:00:00,22.06631475,83.33820077,PM10,54,492,143
India,Chhattisgarh,Tumidih,"OP Jindal Industrial Park, Tumidih - CECB",05-05-2024 16:00:00,22.06631475,83.33820077,NH3,1,2,1
India,Chhattisgarh,Tumidih,"OP Jindal Industrial Park, Tumidih - CECB",05-05-2024 16:00:00,22.06631475,83.33820077,SO2,6,29,8
India,Chhattisgarh,Tumidih,"OP Jindal Industrial Park, Tumidih - CECB",05-05-2024 16:00:00,22.06631475,83.33820077,OZONE,12,132,81
India,Delhi,Delhi,"Alipur, Delhi - DPCC",05-05-2024 16:00:00,28.815329,77.153010,SO2,11,107,41
India,Delhi,Delhi,"Ashok Vihar, Delhi - DPCC",05-05-2024 16:00:00,28.695381,77.181665,NH3,5,20,12
India,Delhi,Delhi,"Ashok Vihar, Delhi - DPCC",05-05-2024 16:00:00,28.695381,77.181665,CO,2,155,46
India,Delhi,Delhi,"Bawana, Delhi - DPCC",05-05-2024 16:00:00,28.776200,77.051074,NH3,4,7,6
India,Delhi,Delhi,"Burari Crossing, Delhi - IMD",05-05-2024 16:00:00,28.7256504,77.2011573,NO2,7,21,14
India,Delhi,Delhi,"Chandni Chowk, Delhi - IITM",05-05-2024 16:00:00,28.656756,77.227234,NO2,27,161,60
India,Delhi,Delhi,"Chandni Chowk, Delhi - IITM",05-05-2024 16:00:00,28.656756,77.227234,NH3,12,43,25
India,Delhi,Delhi,"DTU, Delhi - CPCB",05-05-2024 16:00:00,28.7500499,77.1112615,PM2.5,97,427,268
India,Delhi,Delhi,"DTU, Delhi - CPCB",05-05-2024 16:00:00,28.7500499,77.1112615,NH3,1,13,4
India,Delhi,Delhi,"DTU, Delhi - CPCB",05-05-2024 16:00:00,28.7500499,77.1112615,CO,24,139,55
India,Delhi,Delhi,"Dr. Karni Singh Shooting Range, Delhi - DPCC",05-05-2024 16:00:00,28.498571,77.264840,PM2.5,110,360,206
India,Delhi,Delhi,"Dr. Karni Singh Shooting Range, Delhi - DPCC",05-05-2024 16:00:00,28.498571,77.264840,PM10,138,364,189
India,Delhi,Delhi,"Dr. Karni Singh Shooting Range, Delhi - DPCC",05-05-2024 16:00:00,28.498571,77.264840,NO2,23,199,85
India,Delhi,Delhi,"Dr. Karni Singh Shooting Range, Delhi - DPCC",05-05-2024 16:00:00,28.498571,77.264840,NH3,5,6,5
India,Delhi,Delhi,"Dr. Karni Singh Shooting Range, Delhi - DPCC",05-05-2024 16:00:00,28.498571,77.264840,CO,30,122,43
India,Delhi,Delhi,"Dwarka-Sector 8, Delhi - DPCC ",05-05-2024 16:00:00,28.5710274,77.0719006,NH3,1,2,1
India,Delhi,Delhi,"Dwarka-Sector 8, Delhi - DPCC ",05-05-2024 16:00:00,28.5710274,77.0719006,CO,52,171,73
India,Delhi,Delhi,"ITO, Delhi - CPCB",05-05-2024 16:00:00,28.628624,77.241060,NH3,4,10,6
India,Delhi,Delhi,"Jahangirpuri, Delhi - DPCC",05-05-2024 16:00:00,28.732820,77.170633,PM10,154,500,369
India,Delhi,Delhi,"Jahangirpuri, Delhi - DPCC",05-05-2024 16:00:00,28.732820,77.170633,NH3,1,28,14
India,Delhi,Delhi,"Jahangirpuri, Delhi - DPCC",05-05-2024 16:00:00,28.732820,77.170633,SO2,10,111,52
India,Delhi,Delhi,"Jawaharlal Nehru Stadium, Delhi - DPCC",05-05-2024 16:00:00,28.580280,77.233829,PM2.5,60,387,207
India,Delhi,Delhi,"Jawaharlal Nehru Stadium, Delhi - DPCC",05-05-2024 16:00:00,28.580280,77.233829,CO,27,161,54
India,Delhi,Delhi,"Lodhi Road, Delhi - IITM",05-05-2024 16:00:00,28.588333,77.221667,NO2,81,146,105
India,Delhi,Delhi,"Lodhi Road, Delhi - IMD",05-05-2024 16:00:00,28.5918245,77.2273074,NO2,3,19,10
India,Delhi,Delhi,"Major Dhyan Chand National Stadium, Delhi - DPCC",05-05-2024 16:00:00,28.611281,77.237738,OZONE,1,276,206
India,Delhi,Delhi,"NSIT Dwarka, Delhi - CPCB",05-05-2024 16:00:00,28.60909,77.0325413,PM10,155,403,287
India,Delhi,Delhi,"NSIT Dwarka, Delhi - CPCB",05-05-2024 16:00:00,28.60909,77.0325413,NH3,12,26,17
India,Delhi,Delhi,"Nehru Nagar, Delhi - DPCC",05-05-2024 16:00:00,28.567890,77.250515,SO2,4,15,8
India,Delhi,Delhi,"New Moti Bagh, Delhi - MHUA",05-05-2024 16:00:00,28.57834,77.18400,CO,24,174,60
India,Delhi,Delhi,"Okhla Phase-2, Delhi - DPCC",05-05-2024 16:00:00,28.530785,77.271255,NH3,7,12,9
India,Delhi,Delhi,"Patparganj, Delhi - DPCC",05-05-2024 16:00:00,28.623763,77.287209,PM10,156,474,337
India,Delhi,Delhi,"Punjabi Bagh, Delhi - DPCC",05-05-2024 16:00:00,28.674045,77.131023,PM2.5,65,500,303
India,Delhi,Delhi,"Punjabi Bagh, Delhi - DPCC",05-05-2024 16:00:00,28.674045,77.131023,NO2,46,104,75
India,Delhi,Delhi,"Punjabi Bagh, Delhi - DPCC",05-05-2024 16:00:00,28.674045,77.131023,CO,26,140,45
India,Delhi,Delhi,"Pusa, Delhi - IMD",05-05-2024 16:00:00,28.636110,77.173332,PM10,157,452,276
India,Delhi,Delhi,"Pusa, Delhi - IMD",05-05-2024 16:00:00,28.636110,77.173332,NO2,12,35,24
India,Delhi,Delhi,"Shadipur, Delhi - CPCB",05-05-2024 16:00:00,28.6514781,77.1473105,SO2,3,63,26
India,Delhi,Delhi,"Shadipur, Delhi - CPCB",05-05-2024 16:00:00,28.6514781,77.1473105,OZONE,NA,NA,NA
India,Delhi,Delhi,"Sirifort, Delhi - CPCB",05-05-2024 16:00:00,28.5504249,77.2159377,CO,14,185,58
India,Delhi,Delhi,"Sonia Vihar, Delhi - DPCC",05-05-2024 16:00:00,28.710508,77.249485,CO,54,153,77
India,Delhi,Delhi,"Vivek Vihar, Delhi - DPCC",05-05-2024 16:00:00,28.672342,77.315260,NH3,13,16,15
India,Delhi,Delhi,"Vivek Vihar, Delhi - DPCC",05-05-2024 16:00:00,28.672342,77.315260,OZONE,1,149,107
India,Delhi,Delhi,"Wazirpur, Delhi - DPCC",05-05-2024 16:00:00,28.699793,77.165453,CO,68,146,86
India,Gujarat,Ahmedabad,"Chandkheda, Ahmedabad - IITM",05-05-2024 16:00:00,23.107969,72.574648,PM10,61,239,106
India,Gujarat,Ahmedabad,"Chandkheda, Ahmedabad - IITM",05-05-2024 16:00:00,23.107969,72.574648,NO2,47,49,48
India,Gujarat,Ahmedabad,"Chandkheda, Ahmedabad - IITM",05-05-2024 16:00:00,23.107969,72.574648,OZONE,7,25,19
India,Gujarat,Ahmedabad,"Gyaspur, Ahmedabad - IITM",05-05-2024 16:00:00,22.977134,72.553024,NO2,18,23,21
India,Gujarat,Ahmedabad,"Raikhad, Ahmedabad - IITM",05-05-2024 16:00:00,23.020509,72.579261,NH3,1,4,3
India,Gujarat,Ahmedabad,"Raikhad, Ahmedabad - IITM",05-05-2024 16:00:00,23.020509,72.579261,OZONE,2,14,11
India,Gujarat,Ahmedabad,"Rakhial, Ahmedabad - IITM",05-05-2024 16:00:00,23.016834,72.625775,NH3,18,37,24
India,Gujarat,Ahmedabad,"SAC ISRO Satellite, Ahmedabad - IITM",05-05-2024 16:00:00,23.023389,72.515201,SO2,2,9,4
India,Gujarat,Ahmedabad,"SVPI Airport Hansol, Ahmedabad - IITM",05-05-2024 16:00:00,23.076793,72.627874,NO2,18,23,20
India,Gujarat,Ahmedabad,"Sardar Vallabhbhai Patel Stadium, Ahmedabad - IITM",05-05-2024 16:00:00,23.043070,72.562968,CO,32,46,36
India,Gujarat,Gandhinagar,"Sector-10, Gandhinagar - GPCB",05-05-2024 16:00:00,23.221714,72.654328,PM10,25,59,55
India,Gujarat,Gandhinagar,"Sector-10, Gandhinagar - GPCB",05-05-2024 16:00:00,23.221714,72.654328,SO2,5,6,6
India,Gujarat,Nandesari,"GIDC, Nandesari - Nandesari Ind. Association",05-05-2024 16:00:00,22.410802,73.097923,PM2.5,37,324,130
India,Gujarat,Vapi,"Phase-1 GIDC, Vapi - GPCB",05-05-2024 16:00:00,20.362421,72.918013,NO2,6,7,6
India,Gujarat,Vapi,"Phase-1 GIDC, Vapi - GPCB",05-05-2024 16:00:00,20.362421,72.918013,NH3,2,2,2
India,Gujarat,Vatva,"Phase-4 GIDC, Vatva - GPCB",05-05-2024 16:00:00,22.969611,72.643500,PM2.5,21,33,26
India,Gujarat,Vatva,"Phase-4 GIDC, Vatva - GPCB",05-05-2024 16:00:00,22.969611,72.643500,CO,34,36,36
India,Haryana,Bahadurgarh,"Arya Nagar, Bahadurgarh - HSPCB",05-05-2024 16:00:00,28.6701,76.9254,PM2.5,76,433,243
India,Haryana,Bahadurgarh,"Arya Nagar, Bahadurgarh - HSPCB",05-05-2024 16:00:00,28.6701,76.9254,NO2,21,25,23
India,Haryana,Bahadurgarh,"Arya Nagar, Bahadurgarh - HSPCB",05-05-2024 16:00:00,28.6701,76.9254,CO,82,102,96
India,Haryana,Ballabgarh,"Nathu Colony, Ballabgarh - HSPCB",05-05-2024 16:00:00,28.3419248,77.319699,NO2,1,14,11
India,Haryana,Ballabgarh,"Nathu Colony, Ballabgarh - HSPCB",05-05-2024 16:00:00,28.3419248,77.319699,CO,3,164,24
India,Haryana,Bhiwani,"H.B. Colony, Bhiwani - HSPCB",05-05-2024 16:00:00,28.806223,76.141105,PM2.5,96,305,208
India,Haryana,Charkhi Dadri,"Mini Secretariat, Charkhi Dadri - HSPCB",05-05-2024 16:00:00,28.593883,76.270653,NO2,14,25,18
India,Haryana,Charkhi Dadri,"Mini Secretariat, Charkhi Dadri - HSPCB",05-05-2024 16:00:00,28.593883,76.270653,CO,10,114,39
India,Haryana,Dharuhera,"Municipal Corporation Office, Dharuhera -  HSPCB",05-05-2024 16:00:00,28.206800,76.799700,PM10,110,246,164
India,Haryana,Dharuhera,"Municipal Corporation Office, Dharuhera -  HSPCB",05-05-2024 16:00:00,28.206800,76.799700,NH3,9,26,19
India,Haryana,Faridabad,"New Industrial Town, Faridabad - HSPCB",05-05-2024 16:00:00,28.39072,77.30059,NO2,10,25,14
India,Haryana,Faridabad,"Sector 11, Faridabad - HSPCB",05-05-2024 16:00:00,28.376058,77.315741,NO2,30,32,31
India,Haryana,Faridabad,"Sector 11, Faridabad - HSPCB",05-05-2024 16:00:00,28.376058,77.315741,OZONE,4,47,15
India,Haryana,Faridabad,"Sector 30, Faridabad - HSPCB",05-05-2024 16:00:00,28.4417,77.3217,NH3,NA,NA,NA
India,Haryana,Faridabad,"Sector- 16A, Faridabad - HSPCB",05-05-2024 16:00:00,28.4088421,77.3099081,PM2.5,68,444,192
India,Haryana,Fatehabad,"Huda Sector, Fatehabad - HSPCB",05-05-2024 16:00:00,29.503664,75.467934,PM10,95,286,134
India,Haryana,Fatehabad,"Huda Sector, Fatehabad - HSPCB",05-05-2024 16:00:00,29.503664,75.467934,NO2,29,31,30
India,Haryana,Fatehabad,"Huda Sector, Fatehabad - HSPCB",05-05-2024 16:00:00,29.503664,75.467934,NH3,9,10,10
India,Haryana,Gurugram,"Sector-51, Gurugram - HSPCB",05-05-2024 16:00:00,28.4227,77.0667,PM2.5,96,500,336
India,Haryana,Gurugram,"Teri Gram, Gurugram - HSPCB",05-05-2024 16:00:00,28.4275,77.1465,PM2.5,63,279,147
India,Haryana,Gurugram,"Teri Gram, Gurugram - HSPCB",05-05-2024 16:00:00,28.4275,77.1465,NO2,22,108,59
India,Haryana,Gurugram,"Teri Gram, Gurugram - HSPCB",05-05-2024 16:00:00,28.4275,77.1465,OZONE,7,64,10
India,Haryana,Hisar,"Urban Estate-II, Hisar - HSPCB",05-05-2024 16:00:00,29.140560,75.744941,PM10,76,185,122
India,Haryana,Jind,"Police Lines, Jind - HSPCB",05-05-2024 16:00:00,29.307814,76.337619,PM10,82,152,111
India,Haryana,Jind,"Police Lines, Jind - HSPCB",05-05-2024 16:00:00,29.307814,76.337619,NO2,8,15,12
India,Haryana,Kaithal,"Rishi Nagar, Kaithal - HSPCB",05-05-2024 16:00:00,29.8006,76.4155,CO,18,56,21
India,Haryana,Kurukshetra,"Sector-7, Kurukshetra - HSPCB",05-05-2024 16:00:00,29.966942,76.875879,NO2,10,10,10
India,Haryana,Mandikhera,"General Hospital, Mandikhera - HSPCB",05-05-2024 16:00:00,27.9002,76.9938,CO,8,16,14
India,Haryana,Mandikhera,"General Hospital, Mandikhera - HSPCB",05-05-2024 16:00:00,27.9002,76.9938,OZONE,21,32,26
India,Haryana,Narnaul,"Shastri Nagar, Narnaul - HSPCB",05-05-2024 16:00:00,28.060249,76.113115,PM10,64,114,89
India,Haryana,Narnaul,"Shastri Nagar, Narnaul - HSPCB",05-05-2024 16:00:00,28.060249,76.113115,NO2,15,84,46
India,Haryana,Narnaul,"Shastri Nagar, Narnaul - HSPCB",05-05-2024 16:00:00,28.060249,76.113115,NH3,5,27,15
India,Haryana,Narnaul,"Shastri Nagar, Narnaul - HSPCB",05-05-2024 16:00:00,28.060249,76.113115,SO2,13,13,13
India,Haryana,Palwal,"Shyam Nagar, Palwal - HSPCB",05-05-2024 16:00:00,28.1485564,77.3320667,NO2,23,24,24
India,Haryana,Panchkula,"Sector-6, Panchkula - HSPCB ",05-05-2024 16:00:00,30.7057778,76.8531805555555,NO2,9,10,10
India,Haryana,Panipat,"Sector-18, Panipat - HSPCB",05-05-2024 16:00:00,29.497973,76.993331,PM2.5,90,93,92
India,Haryana,Panipat,"Sector-18, Panipat - HSPCB",05-05-2024 16:00:00,29.497973,76.993331,NO2,31,32,31
India,Haryana,Panipat,"Sector-18, Panipat - HSPCB",05-05-2024 16:00:00,29.497973,76.993331,SO2,18,19,19
India,Haryana,Sirsa,"F-Block, Sirsa - HSPCB",05-05-2024 16:00:00,29.536400,75.015800,PM2.5,65,133,88
India,Haryana,Sirsa,"F-Block, Sirsa - HSPCB",05-05-2024 16:00:00,29.536400,75.015800,PM10,81,180,124
India,Haryana,Sirsa,"F-Block, Sirsa - HSPCB",05-05-2024 16:00:00,29.536400,75.015800,NO2,9,11,10
India,Haryana,Sirsa,"F-Block, Sirsa - HSPCB",05-05-2024 16:00:00,29.536400,75.015800,SO2,2,11,6
India,Haryana,Sonipat,"Murthal, Sonipat - HSPCB",05-05-2024 16:00:00,29.027200,77.062100,PM10,86,87,87
India,Haryana,Sonipat,"Murthal, Sonipat - HSPCB",05-05-2024 16:00:00,29.027200,77.062100,SO2,13,29,20
India,Haryana,Yamuna Nagar,"Gobind Pura, Yamuna Nagar - HSPCB",05-05-2024 16:00:00,30.1480566,77.2893471,NH3,1,6,4
India,Haryana,Yamuna Nagar,"Gobind Pura, Yamuna Nagar - HSPCB",05-05-2024 16:00:00,30.1480566,77.2893471,CO,32,58,41
India,Jharkhand,Dhanbad,"Kalakusuma, Dhanbad - DMC",05-05-2024 16:00:00,23.811548,86.481238,OZONE,23,43,24
India,Jharkhand,Pathardih,"Mohalbani Ghat, Pathardih - DMC",05-05-2024 16:00:00,23.669880,86.411725,PM2.5,NA,NA,NA
India,Jharkhand,Pathardih,"Mohalbani Ghat, Pathardih - DMC",05-05-2024 16:00:00,23.669880,86.411725,PM10,NA,NA,NA
India,Jharkhand,Pathardih,"Mohalbani Ghat, Pathardih - DMC",05-05-2024 16:00:00,23.669880,86.411725,NO2,NA,NA,NA
India,Karnataka,Belgaum,"Ramteerth Nagar, Belgaum - KSPCB",05-05-2024 16:00:00,15.888653,74.541751,NH3,2,7,4
India,Karnataka,Bengaluru,"BTM Layout, Bengaluru - CPCB",05-05-2024 16:00:00,12.9135218,77.5950804,SO2,NA,NA,NA
India,Karnataka,Bengaluru,"Bapuji Nagar, Bengaluru - KSPCB",05-05-2024 16:00:00,12.951913,77.539784,PM10,50,178,86
India,Karnataka,Bengaluru,"Hebbal, Bengaluru - KSPCB",05-05-2024 16:00:00,13.029152,77.585901,NH3,1,1,1
India,Karnataka,Bengaluru,"Hombegowda Nagar, Bengaluru - KSPCB",05-05-2024 16:00:00,12.938539,77.590100,NH3,1,1,1
India,Karnataka,Bengaluru,"Jayanagar 5th Block, Bengaluru - KSPCB",05-05-2024 16:00:00,12.920984,77.584908,SO2,17,34,21
India,Karnataka,Bengaluru,"Peenya, Bengaluru - CPCB",05-05-2024 16:00:00,13.0270199,77.494094,PM2.5,31,90,42
India,Karnataka,Bengaluru,"Peenya, Bengaluru - CPCB",05-05-2024 16:00:00,13.0270199,77.494094,NO2,17,29,22
India,Karnataka,Bengaluru,"Peenya, Bengaluru - CPCB",05-05-2024 16:00:00,13.0270199,77.494094,CO,28,47,33
India,Karnataka,Bengaluru,"RVCE-Mailasandra, Bengaluru - KSPCB",05-05-2024 16:00:00,12.921418,77.502466,NO2,16,17,17
India,Karnataka,Bengaluru,"Sanegurava Halli, Bengaluru - KSPCB",05-05-2024 16:00:00,12.990328,77.5431385,SO2,2,3,3
India,Karnataka,Bengaluru,"Shivapura_Peenya, Bengaluru - KSPCB",05-05-2024 16:00:00,13.0246342,77.5080115,PM10,39,110,71
India,Karnataka,Bengaluru,"Shivapura_Peenya, Bengaluru - KSPCB",05-05-2024 16:00:00,13.0246342,77.5080115,NO2,15,16,16
India,Karnataka,Bengaluru,"Shivapura_Peenya, Bengaluru - KSPCB",05-05-2024 16:00:00,13.0246342,77.5080115,CO,14,98,21
India,Karnataka,Bengaluru,"Silk Board, Bengaluru - KSPCB",05-05-2024 16:00:00,12.917348,77.622813,NO2,12,55,21
India,Karnataka,Bidar,"Naubad, Bidar - KSPCB",05-05-2024 16:00:00,17.930306,77.482194,OZONE,26,58,44
India,Karnataka,Chamarajanagar,"Urban, Chamarajanagar - KSPCB",05-05-2024 16:00:00,11.55358,76.55521,NH3,2,2,2
India,Karnataka,Chamarajanagar,"Urban, Chamarajanagar - KSPCB",05-05-2024 16:00:00,11.55358,76.55521,SO2,3,7,4
India,Karnataka,Chikkaballapur,"Chikkaballapur Rural, Chikkaballapur - KSPCB",05-05-2024 16:00:00,13.428828,77.731418,PM10,53,139,77
India,Karnataka,Chikkaballapur,"Chikkaballapur Rural, Chikkaballapur - KSPCB",05-05-2024 16:00:00,13.428828,77.731418,OZONE,24,25,25
India,Karnataka,Davanagere,"Devaraj Urs Badavane, Davanagere - KSPCB",05-05-2024 16:00:00,14.475800,75.905200,PM2.5,19,92,47
India,Karnataka,Davanagere,"Devaraj Urs Badavane, Davanagere - KSPCB",05-05-2024 16:00:00,14.475800,75.905200,OZONE,19,21,20
India,Karnataka,Dharwad,"Kalabhavan, Dharwad - KSPCB",05-05-2024 16:00:00,15.459706,75.008381,PM10,75,134,105
India,Karnataka,Haveri,"Ashwini Nagar, Haveri - KSPCB",05-05-2024 16:00:00,14.791800,75.389600,PM2.5,20,70,50
India,Karnataka,Haveri,"Ashwini Nagar, Haveri - KSPCB",05-05-2024 16:00:00,14.791800,75.389600,OZONE,30,49,41
India,Karnataka,Hubballi,"Lingaraj Nagar, Hubballi - KSPCB",05-05-2024 16:00:00,15.3714823,75.1160168,PM10,43,59,51
India,Karnataka,Kalaburagi,"Lal Bahadur Shastri Nagar, Kalaburagi - KSPCB",05-05-2024 16:00:00,17.321993,76.822628,SO2,23,25,23
India,Karnataka,Kalaburagi,"Mahatma Basaveswar Colony, Kalaburgi - KSPCB",05-05-2024 16:00:00,17.336318,76.847397,NH3,2,4,3
India,Karnataka,Karwar,"KHB Colony, Karwar - KSPCB",05-05-2024 16:00:00,14.816666,74.141003,PM10,14,364,70
India,Karnataka,Kolar,"Tamaka Ind. Area, Kolar - KSPCB",05-05-2024 16:00:00,13.1276288,78.1570122,PM10,38,123,76
India,Karnataka,Kolar,"Tamaka Ind. Area, Kolar - KSPCB",05-05-2024 16:00:00,13.1276288,78.1570122,OZONE,11,13,12
India,Karnataka,Koppal,"Diwator Nagar, Koppal - KSPCB",05-05-2024 16:00:00,15.347630,76.181767,SO2,28,32,28
India,Karnataka,Madikeri,"Stuart Hill, Madikeri - KSPCB",05-05-2024 16:00:00,12.415911,75.735050,SO2,4,4,4
India,Karnataka,Mangalore,"Kadri, Mangalore - KSPCB",05-05-2024 16:00:00,12.889250,74.853000,PM2.5,NA,NA,NA
India,Karnataka,Mangalore,"Kadri, Mangalore - KSPCB",05-05-2024 16:00:00,12.889250,74.853000,NO2,5,6,6
India,Karnataka,Mangalore,"Kadri, Mangalore - KSPCB",05-05-2024 16:00:00,12.889250,74.853000,NH3,2,2,2
India,Karnataka,Mangalore,"Kadri, Mangalore - KSPCB",05-05-2024 16:00:00,12.889250,74.853000,CO,36,40,36
India,Karnataka,Mysuru,"Hebbal 1st Stage, Mysuru - KSPCB",05-05-2024 16:00:00,12.21041,76.37376,NH3,1,2,2
India,Karnataka,Mysuru,"Hebbal 1st Stage, Mysuru - KSPCB",05-05-2024 16:00:00,12.21041,76.37376,SO2,1,4,2
India,Karnataka,Raichur,"Haji Colony, Raichur - KSPCB",05-05-2024 16:00:00,16.208139,77.348417,PM10,66,321,117
India,Karnataka,Ramanagara,"Vijay Nagar, Ramanagara - KSPCB",05-05-2024 16:00:00,12.733409,77.298051,NO2,7,33,12
India,Karnataka,Shivamogga,"Vinoba Nagara, Shivamogga - KSPCB",05-05-2024 16:00:00,13.940000,75.555917,NO2,9,16,13
India,Karnataka,Shivamogga,"Vinoba Nagara, Shivamogga - KSPCB",05-05-2024 16:00:00,13.940000,75.555917,OZONE,25,72,64
India,Karnataka,Tumakuru,"Thimmalapura, Tumakuru - KSPCB",05-05-2024 16:00:00,13.377516,77.099072,PM2.5,22,463,97
India,Karnataka,Tumakuru,"Thimmalapura, Tumakuru - KSPCB",05-05-2024 16:00:00,13.377516,77.099072,CO,29,34,32
India,Karnataka,Udupi,"Brahmagiri, Udupi - KSPCB",05-05-2024 16:00:00,13.34194444,74.74694444,CO,47,51,49
India,Kerala,Kannur,"Thavakkara, Kannur - Kerala PCB",05-05-2024 16:00:00,11.875000,75.373200,CO,28,36,32
India,Kerala,Kollam,"Polayathode, Kollam - Kerala PCB",05-05-2024 16:00:00,8.8787,76.6073,CO,14,16,16
India,Kerala,Thiruvananthapuram,"Kariavattom, Thiruvananthapuram - Kerala PCB",05-05-2024 16:00:00,8.563700,76.886500,SO2,1,13,6
India,Kerala,Thrissur,"Corporation Ground, Thrissur - Kerala PCB",05-05-2024 16:00:00,10.532400,76.215900,SO2,NA,NA,NA
India,Madhya Pradesh,Bhopal,"Idgah Hills, Bhopal - MPPCB",05-05-2024 16:00:00,23.264759,77.381568,NO2,17,69,36
India,Madhya Pradesh,Bhopal,"Paryavaran Parisar, Bhopal - MPPCB",05-05-2024 16:00:00,23.210494,77.425409,PM2.5,7,130,54
India,Madhya Pradesh,Bhopal,"Paryavaran Parisar, Bhopal - MPPCB",05-05-2024 16:00:00,23.210494,77.425409,PM10,59,158,102
India,Madhya Pradesh,Bhopal,"Paryavaran Parisar, Bhopal - MPPCB",05-05-2024 16:00:00,23.210494,77.425409,OZONE,3,134,54
India,Madhya Pradesh,Bhopal,"T T Nagar, Bhopal - MPPCB",05-05-2024 16:00:00,23.233584,77.400574,OZONE,36,126,54
