country,state,city,station,last_update,latitude,longitude,pollutant_id,pollutant_min,pollutant_max,pollutant_avg
India,Andhra_Pradesh,Chittoor,"Gangineni Cheruvu, Chittoor - APPCB",28-03-2024 23:00:00,13.204880,79.097889,SO2,5,13,9
India,Andhra_Pradesh,Kadapa,"Yerramukkapalli, Kadapa - APPCB",28-03-2024 23:00:00,14.465052,78.824187,NO2,8,8,8
India,Andhra_Pradesh,Tirupati,"Tirumala, Tirupati - APPCB",28-03-2024 23:00:00,13.67,79.35,PM2.5,15,71,36
India,Andhra_Pradesh,Tirupati,"Tirumala, Tirupati - APPCB",28-03-2024 23:00:00,13.67,79.35,NH3,1,2,1
India,Andhra_Pradesh,Tirupati,"Vaikuntapuram, Tirupati - APPCB",28-03-2024 23:00:00,13.615387,79.409230,NH3,2,4,3
India,Andhra_Pradesh,Vijayawada,"HB Colony, Vijayawada - APPCB",28-03-2024 23:00:00,16.536107,80.594233,NO2,5,12,8
India,Andhra_Pradesh,Vijayawada,"Kanuru, Vijayawada - APPCB",28-03-2024 23:00:00,16.486692,80.699436,NO2,14,17,15
India,Andhra_Pradesh,Vijayawada,"Rajiv Nagar, Vijayawada - APPCB",28-03-2024 23:00:00,16.554731,80.649110,PM10,61,63,62
India,Andhra_Pradesh,Vijayawada,"Rajiv Nagar, Vijayawada - APPCB",28-03-2024 23:00:00,16.554731,80.649110,OZONE,5,28,17
India,Andhra_Pradesh,Visakhapatnam,"GVM Corporation, Visakhapatnam - APPCB",28-03-2024 23:00:00,17.72,83.3,NO2,36,53,42
India,Andhra_Pradesh,Visakhapatnam,"GVM Corporation, Visakhapatnam - APPCB",28-03-2024 23:00:00,17.72,83.3,SO2,8,17,11
India,Andhra_Pradesh,Visakhapatnam,"GVM Corporation, Visakhapatnam - APPCB",28-03-2024 23:00:00,17.72,83.3,OZONE,12,77,35
India,Arunachal_Pradesh,Naharlagun,"Naharlagun, Naharlagun - APSPCB",28-03-2024 23:00:00,27.103358,93.679645,SO2,4,4,4
India,Arunachal_Pradesh,Naharlagun,"Naharlagun, Naharlagun - APSPCB",28-03-2024 23:00:00,27.103358,93.679645,CO,8,33,22
India,Arunachal_Pradesh,Naharlagun,"Naharlagun, Naharlagun - APSPCB",28-03-2024 23:00:00,27.103358,93.679645,OZONE,2,2,2
India,Assam,Byrnihat,"Central Academy for SFS, Byrnihat - PCBA",28-03-2024 23:00:00,26.071318,91.87488,OZONE,6,23,11
India,Assam,Guwahati,"IITG, Guwahati - PCBA",28-03-2024 23:00:00,26.2028636,91.70046436,PM2.5,29,97,60
India,Assam,Guwahati,"IITG, Guwahati - PCBA",28-03-2024 23:00:00,26.2028636,91.70046436,PM10,50,105,74
India,Assam,Guwahati,"IITG, Guwahati - PCBA",28-03-2024 23:00:00,26.2028636,91.70046436,NH3,5,5,5
India,Assam,Guwahati,"IITG, Guwahati - PCBA",28-03-2024 23:00:00,26.2028636,91.70046436,SO2,11,12,12
India,Assam,Guwahati,"LGBI Airport, Guwahati - PCBA",28-03-2024 23:00:00,26.10887,91.589544,PM10,55,232,124
India,Assam,Nagaon,"Christianpatty, Nagaon - PCBA",28-03-2024 23:00:00,26.349082,92.68449,PM2.5,52,309,106
India,Assam,Nagaon,"Christianpatty, Nagaon - PCBA",28-03-2024 23:00:00,26.349082,92.68449,NH3,6,17,10
India,Assam,Nalbari,"Bata Chowk, Nalbari - PCBA",28-03-2024 23:00:00,26.446912,91.439057,PM2.5,27,287,69
India,Assam,Silchar,"Tarapur, Silchar - PCBA",28-03-2024 23:00:00,24.82827,92.79525,PM10,56,85,70
India,Bihar,Araria,"Kharahiya Basti, Araria - BSPCB",28-03-2024 23:00:00,26.146529,87.454184,NH3,7,8,7
India,Bihar,Aurangabad,"Gurdeo Nagar, Aurangabad - BSPCB",28-03-2024 23:00:00,24.75746,84.366208,NO2,5,5,5
India,Bihar,Bettiah,"Kamalnath Nagar, Bettiah - BSPCB",28-03-2024 23:00:00,26.80365,84.51954,NO2,8,8,8
India,Bihar,Bhagalpur,"DM Office_Kachari Chowk, Bhagalpur - BSPCB",28-03-2024 23:00:00,25.251013,86.989001,PM10,NA,NA,NA
India,Bihar,Bhagalpur,"Mayaganj, Bhagalpur - BSPCB",28-03-2024 23:00:00,25.265194,87.012947,PM10,NA,NA,NA
India,Bihar,Bhagalpur,"Mayaganj, Bhagalpur - BSPCB",28-03-2024 23:00:00,25.265194,87.012947,CO,NA,NA,NA
India,Bihar,Bihar Sharif,"D M Colony, Bihar Sharif - BSPCB",28-03-2024 23:00:00,25.204762,85.514960,OZONE,28,28,28
India,Bihar,Chhapra,"Darshan Nagar, Chhapra - BSPCB",28-03-2024 23:00:00,25.7808257,84.7446768,PM2.5,63,180,111
India,Bihar,Gaya,"Collectorate, Gaya - BSPCB",28-03-2024 23:00:00,24.7955,84.9994,PM2.5,NA,NA,NA
India,Bihar,Gaya,"Kareemganj, Gaya - BSPCB",28-03-2024 23:00:00,24.792403,84.992416,PM2.5,20,98,41
India,Bihar,Gaya,"Kareemganj, Gaya - BSPCB",28-03-2024 23:00:00,24.792403,84.992416,NH3,1,6,3
India,Bihar,Gaya,"Kareemganj, Gaya - BSPCB",28-03-2024 23:00:00,24.792403,84.992416,OZONE,2,69,19
India,Bihar,Gaya,"SFTI Kusdihra, Gaya - BSPCB",28-03-2024 23:00:00,24.762518,84.982348,CO,20,43,32
India,Bihar,Hajipur,"Industrial Area, Hajipur - BSPCB",28-03-2024 23:00:00,25.697189,85.245900,PM2.5,22,60,43
India,Bihar,Katihar,"Mirchaibari, Katihar - BSPCB",28-03-2024 23:00:00,25.560083,87.553265,CO,49,62,56
India,Bihar,Katihar,"Mirchaibari, Katihar - BSPCB",28-03-2024 23:00:00,25.560083,87.553265,OZONE,11,16,12
India,Bihar,Kishanganj,"SDM Office_Khagra, Kishanganj - BSPCB",28-03-2024 23:00:00,26.0881305,87.93840336,PM2.5,NA,NA,NA
India,Bihar,Kishanganj,"SDM Office_Khagra, Kishanganj - BSPCB",28-03-2024 23:00:00,26.0881305,87.93840336,NO2,35,40,37
India,Bihar,Kishanganj,"SDM Office_Khagra, Kishanganj - BSPCB",28-03-2024 23:00:00,26.0881305,87.93840336,CO,4,18,10
India,Bihar,Kishanganj,"SDM Office_Khagra, Kishanganj - BSPCB",28-03-2024 23:00:00,26.0881305,87.93840336,OZONE,18,33,32
India,Bihar,Manguraha,"Forest Rest House, Manguraha - BSPCB",28-03-2024 23:00:00,27.308328,84.531742,PM10,26,83,54
India,Bihar,Manguraha,"Forest Rest House, Manguraha - BSPCB",28-03-2024 23:00:00,27.308328,84.531742,CO,22,78,28
India,Bihar,Motihari,"Gandak Colony, Motihari - BSPCB",28-03-2024 23:00:00,26.63086,84.90051,CO,8,26,18
India,Bihar,Munger,"Town Hall, Munger - BSPCB",28-03-2024 23:00:00,25.376776,86.471523,NO2,7,10,9
India,Bihar,Muzaffarpur,"Buddha Colony, Muzaffarpur - BSPCB",28-03-2024 23:00:00,26.11442,85.39813,OZONE,28,53,40
India,Bihar,Muzaffarpur,"MIT-Daudpur Kothi, Muzaffarpur - BSPCB",28-03-2024 23:00:00,26.1403345,85.3650192,PM10,65,155,98
India,Bihar,Muzaffarpur,"Muzaffarpur Collectorate, Muzaffarpur - BSPCB",28-03-2024 23:00:00,26.1209,85.3647,CO,22,88,41
India,Bihar,Muzaffarpur,"Muzaffarpur Collectorate, Muzaffarpur - BSPCB",28-03-2024 23:00:00,26.1209,85.3647,OZONE,16,99,46
India,Bihar,Patna,"DRM Office Danapur, Patna - BSPCB",28-03-2024 23:00:00,25.586562,85.043586,NO2,9,19,12
India,Bihar,Patna,"DRM Office Danapur, Patna - BSPCB",28-03-2024 23:00:00,25.586562,85.043586,SO2,6,8,7
India,Bihar,Patna,"Govt. High School Shikarpur, Patna - BSPCB",28-03-2024 23:00:00,25.592539,85.227158,NO2,19,22,21
India,Bihar,Patna,"Govt. High School Shikarpur, Patna - BSPCB",28-03-2024 23:00:00,25.592539,85.227158,OZONE,1,59,27
India,Bihar,Patna,"IGSC Planetarium Complex, Patna - BSPCB",28-03-2024 23:00:00,25.610369,85.132568,PM2.5,49,116,80
India,Bihar,Patna,"Muradpur, Patna - BSPCB",28-03-2024 23:00:00,25.619651,85.147382,PM2.5,79,252,136
India,Bihar,Patna,"Rajbansi Nagar, Patna - BSPCB",28-03-2024 23:00:00,25.599486,85.113666,PM10,85,136,111
India,Bihar,Patna,"Rajbansi Nagar, Patna - BSPCB",28-03-2024 23:00:00,25.599486,85.113666,NO2,11,25,15
India,Bihar,Patna,"Rajbansi Nagar, Patna - BSPCB",28-03-2024 23:00:00,25.599486,85.113666,SO2,6,17,12
India,Bihar,Patna,"Samanpura, Patna - BSPCB",28-03-2024 23:00:00,25.596727,85.085624,PM2.5,92,148,120
India,Bihar,Patna,"Samanpura, Patna - BSPCB",28-03-2024 23:00:00,25.596727,85.085624,PM10,100,374,148
India,Bihar,Purnia,"Mariam Nagar, Purnia - BSPCB",28-03-2024 23:00:00,25.366336,87.117468,NO2,5,7,6
India,Bihar,Rajgir,"Dangi Tola, Rajgir - BSPCB",28-03-2024 23:00:00,25.03280,85.41948,SO2,4,4,4
India,Bihar,Sasaram,"Dada Peer, Sasaram - BSPCB",28-03-2024 23:00:00,24.952822,84.002396,OZONE,4,84,53
India,Bihar,Siwan,"Chitragupta Nagar, Siwan - BSPCB",28-03-2024 23:00:00,26.2271665,84.3570427,PM2.5,47,160,68
India,Chandigarh,Chandigarh,"Sector 22, Chandigarh - CPCC",28-03-2024 23:00:00,30.735567,76.775714,SO2,6,23,15
India,Chandigarh,Chandigarh,"Sector-25, Chandigarh - CPCC",28-03-2024 23:00:00,30.751462,76.762879,NO2,6,18,11
India,Chandigarh,Chandigarh,"Sector-25, Chandigarh - CPCC",28-03-2024 23:00:00,30.751462,76.762879,OZONE,6,35,25
India,Chandigarh,Chandigarh,"Sector-53, Chandigarh - CPCC",28-03-2024 23:00:00,30.719859,76.738637,OZONE,19,49,33
India,Chhattisgarh,Bhilai,"32Bungalows, Bhilai - CECB",28-03-2024 23:00:00,21.194815,81.314770,OZONE,4,24,16
India,Chhattisgarh,Bhilai,"Civic Center, Bhilai - Bhilai Steel Plant",28-03-2024 23:00:00,21.185571,81.343175,NH3,5,5,5
India,Chhattisgarh,Bhilai,"Hathkhoj, Bhilai - CECB",28-03-2024 23:00:00,21.224231,81.408350,NH3,7,8,8
India,Chhattisgarh,Bhilai,"Hathkhoj, Bhilai - CECB",28-03-2024 23:00:00,21.224231,81.408350,SO2,12,26,16
India,Chhattisgarh,Bilaspur,"Mangala, Bilaspur - NTPC",28-03-2024 23:00:00,22.08815,82.13737,PM10,40,103,68
India,Chhattisgarh,Chhal,"Nawapara SECL Colony, Chhal - CECB",28-03-2024 23:00:00,22.118125,83.140608,NH3,2,2,2
India,Chhattisgarh,Korba,"Rampur, Korba - CECB",28-03-2024 23:00:00,22.368195,82.746431,PM10,29,112,66
India,Chhattisgarh,Korba,"Rampur, Korba - CECB",28-03-2024 23:00:00,22.368195,82.746431,SO2,5,45,11
India,Chhattisgarh,Korba,"Urja Nagar, Korba - CECB",28-03-2024 23:00:00,22.348441,82.549611,CO,34,72,45
India,Chhattisgarh,Milupara,"Govt. Higher Secondary School, Milupara - CECB",28-03-2024 23:00:00,22.1910172,83.5197009,CO,27,69,29
India,Chhattisgarh,Raipur,"AIIMS, Raipur - CECB",28-03-2024 23:00:00,21.258815,81.578979,OZONE,2,40,22
India,Chhattisgarh,Raipur,"Bhatagaon New ISBT, Raipur - CECB",28-03-2024 23:00:00,21.219665,81.630094,PM2.5,14,76,50
India,Chhattisgarh,Raipur,"Bhatagaon New ISBT, Raipur - CECB",28-03-2024 23:00:00,21.219665,81.630094,OZONE,3,9,6
India,Chhattisgarh,Raipur,"Krishak Nagar, Raipur - CECB",28-03-2024 23:00:00,21.237755,81.705301,CO,26,64,32
India,Delhi,Delhi,"Alipur, Delhi - DPCC",28-03-2024 23:00:00,28.815329,77.153010,PM2.5,41,296,119
India,Delhi,Delhi,"Alipur, Delhi - DPCC",28-03-2024 23:00:00,28.815329,77.153010,PM10,84,178,135
India,Delhi,Delhi,"Alipur, Delhi - DPCC",28-03-2024 23:00:00,28.815329,77.153010,NO2,6,70,29
India,Delhi,Delhi,"Alipur, Delhi - DPCC",28-03-2024 23:00:00,28.815329,77.153010,NH3,5,8,6
India,Delhi,Delhi,"Anand Vihar, Delhi - DPCC",28-03-2024 23:00:00,28.647622,77.3158090,CO,2,38,14
India,Delhi,Delhi,"Ashok Vihar, Delhi - DPCC",28-03-2024 23:00:00,28.695381,77.181665,PM2.5,47,273,115
India,Delhi,Delhi,"Ashok Vihar, Delhi - DPCC",28-03-2024 23:00:00,28.695381,77.181665,PM10,116,194,153
India,Delhi,Delhi,"Ashok Vihar, Delhi - DPCC",28-03-2024 23:00:00,28.695381,77.181665,CO,17,52,26
India,Delhi,Delhi,"Bawana, Delhi - DPCC",28-03-2024 23:00:00,28.776200,77.051074,NO2,15,35,24
India,Delhi,Delhi,"Bawana, Delhi - DPCC",28-03-2024 23:00:00,28.776200,77.051074,CO,40,61,45
India,Delhi,Delhi,"Burari Crossing, Delhi - IMD",28-03-2024 23:00:00,28.7256504,77.2011573,PM2.5,62,276,154
India,Delhi,Delhi,"Burari Crossing, Delhi - IMD",28-03-2024 23:00:00,28.7256504,77.2011573,PM10,96,182,150
India,Delhi,Delhi,"CRRI Mathura Road, Delhi - IMD",28-03-2024 23:00:00,28.5512005,77.2735737,NO2,NA,NA,NA
India,Delhi,Delhi,"Chandni Chowk, Delhi - IITM",28-03-2024 23:00:00,28.656756,77.227234,NO2,11,208,62
India,Delhi,Delhi,"Chandni Chowk, Delhi - IITM",28-03-2024 23:00:00,28.656756,77.227234,SO2,25,113,54
India,Delhi,Delhi,"DTU, Delhi - CPCB",28-03-2024 23:00:00,28.7500499,77.1112615,OZONE,27,153,73
India,Delhi,Delhi,"Dr. Karni Singh Shooting Range, Delhi - DPCC",28-03-2024 23:00:00,28.498571,77.264840,PM2.5,47,160,90
India,Delhi,Delhi,"Dr. Karni Singh Shooting Range, Delhi - DPCC",28-03-2024 23:00:00,28.498571,77.264840,NH3,7,10,8
India,Delhi,Delhi,"Dr. Karni Singh Shooting Range, Delhi - DPCC",28-03-2024 23:00:00,28.498571,77.264840,OZONE,3,270,75
India,Delhi,Delhi,"Dwarka-Sector 8, Delhi - DPCC ",28-03-2024 23:00:00,28.5710274,77.0719006,PM10,116,449,190
India,Delhi,Delhi,"IGI Airport (T3), Delhi - IMD",28-03-2024 23:00:00,28.5627763,77.1180053,PM10,91,167,112
India,Delhi,Delhi,"IGI Airport (T3), Delhi - IMD",28-03-2024 23:00:00,28.5627763,77.1180053,NO2,31,47,39
India,Delhi,Delhi,"ITO, Delhi - CPCB",28-03-2024 23:00:00,28.628624,77.241060,CO,28,84,45
India,Delhi,Delhi,"Jahangirpuri, Delhi - DPCC",28-03-2024 23:00:00,28.732820,77.170633,CO,42,97,68
India,Delhi,Delhi,"Lodhi Road, Delhi - IITM",28-03-2024 23:00:00,28.588333,77.221667,PM10,92,413,211
India,Delhi,Delhi,"Lodhi Road, Delhi - IITM",28-03-2024 23:00:00,28.588333,77.221667,NO2,78,125,92
India,Delhi,Delhi,"Lodhi Road, Delhi - IITM",28-03-2024 23:00:00,28.588333,77.221667,SO2,16,36,24
India,Delhi,Delhi,"Lodhi Road, Delhi - IITM",28-03-2024 23:00:00,28.588333,77.221667,CO,58,68,62
India,Delhi,Delhi,"Lodhi Road, Delhi - IMD",28-03-2024 23:00:00,28.5918245,77.2273074,NO2,3,8,5
India,Delhi,Delhi,"Major Dhyan Chand National Stadium, Delhi - DPCC",28-03-2024 23:00:00,28.611281,77.237738,NH3,7,9,8
India,Delhi,Delhi,"Mandir Marg, Delhi - DPCC",28-03-2024 23:00:00,28.636429,77.201067,NH3,7,8,7
India,Delhi,Delhi,"Mandir Marg, Delhi - DPCC",28-03-2024 23:00:00,28.636429,77.201067,SO2,3,14,8
India,Delhi,Delhi,"Mundka, Delhi - DPCC",28-03-2024 23:00:00,28.684678,77.076574,PM2.5,45,353,168
India,Delhi,Delhi,"Mundka, Delhi - DPCC",28-03-2024 23:00:00,28.684678,77.076574,PM10,105,323,180
India,Delhi,Delhi,"NSIT Dwarka, Delhi - CPCB",28-03-2024 23:00:00,28.60909,77.0325413,NO2,46,78,58
India,Delhi,Delhi,"New Moti Bagh, Delhi - MHUA",28-03-2024 23:00:00,28.57834,77.18400,CO,18,57,29
India,Delhi,Delhi,"North Campus, DU, Delhi - IMD",28-03-2024 23:00:00,28.6573814,77.1585447,PM2.5,86,269,143
India,Delhi,Delhi,"Okhla Phase-2, Delhi - DPCC",28-03-2024 23:00:00,28.530785,77.271255,PM10,110,176,145
India,Delhi,Delhi,"Okhla Phase-2, Delhi - DPCC",28-03-2024 23:00:00,28.530785,77.271255,NH3,6,23,13
India,Delhi,Delhi,"Okhla Phase-2, Delhi - DPCC",28-03-2024 23:00:00,28.530785,77.271255,CO,41,99,62
India,Delhi,Delhi,"Patparganj, Delhi - DPCC",28-03-2024 23:00:00,28.623763,77.287209,NO2,26,54,37
India,Delhi,Delhi,"Punjabi Bagh, Delhi - DPCC",28-03-2024 23:00:00,28.674045,77.131023,PM2.5,55,247,132
India,Delhi,Delhi,"Punjabi Bagh, Delhi - DPCC",28-03-2024 23:00:00,28.674045,77.131023,CO,28,52,42
India,Delhi,Delhi,"Pusa, Delhi - DPCC",28-03-2024 23:00:00,28.639652,77.146275,PM10,111,273,165
India,Delhi,Delhi,"Pusa, Delhi - IMD",28-03-2024 23:00:00,28.636110,77.173332,PM10,NA,NA,NA
India,Delhi,Delhi,"Pusa, Delhi - IMD",28-03-2024 23:00:00,28.636110,77.173332,CO,74,86,76
India,Delhi,Delhi,"Shadipur, Delhi - CPCB",28-03-2024 23:00:00,28.6514781,77.1473105,SO2,9,26,17
India,Delhi,Delhi,"Sirifort, Delhi - CPCB",28-03-2024 23:00:00,28.5504249,77.2159377,NO2,NA,NA,NA
India,Delhi,Delhi,"Sonia Vihar, Delhi - DPCC",28-03-2024 23:00:00,28.710508,77.249485,NH3,6,8,7
India,Delhi,Delhi,"Sonia Vihar, Delhi - DPCC",28-03-2024 23:00:00,28.710508,77.249485,SO2,12,41,21
India,Delhi,Delhi,"Sri Aurobindo Marg, Delhi - DPCC",28-03-2024 23:00:00,28.531346,77.190156,PM10,95,194,135
India,Delhi,Delhi,"Sri Aurobindo Marg, Delhi - DPCC",28-03-2024 23:00:00,28.531346,77.190156,NO2,27,97,54
India,Delhi,Delhi,"Sri Aurobindo Marg, Delhi - DPCC",28-03-2024 23:00:00,28.531346,77.190156,OZONE,1,69,29
India,Delhi,Delhi,"Vivek Vihar, Delhi - DPCC",28-03-2024 23:00:00,28.672342,77.315260,PM10,115,177,146
India,Delhi,Delhi,"Vivek Vihar, Delhi - DPCC",28-03-2024 23:00:00,28.672342,77.315260,OZONE,1,99,48
India,Delhi,Delhi,"Wazirpur, Delhi - DPCC",28-03-2024 23:00:00,28.699793,77.165453,PM2.5,58,301,140
India,Delhi,Delhi,"Wazirpur, Delhi - DPCC",28-03-2024 23:00:00,28.699793,77.165453,PM10,128,215,162
India,Gujarat,Ahmedabad,"Gyaspur, Ahmedabad - IITM",28-03-2024 23:00:00,22.977134,72.553024,SO2,4,5,4
India,Gujarat,Ahmedabad,"Maninagar, Ahmedabad - GPCB",28-03-2024 23:00:00,23.002657,72.591912,PM2.5,4,329,84
India,Gujarat,Ahmedabad,"Raikhad, Ahmedabad - IITM",28-03-2024 23:00:00,23.020509,72.579261,PM10,44,282,84
India,Gujarat,Ahmedabad,"Raikhad, Ahmedabad - IITM",28-03-2024 23:00:00,23.020509,72.579261,CO,15,120,45
India,Gujarat,Ahmedabad,"SAC ISRO Satellite, Ahmedabad - IITM",28-03-2024 23:00:00,23.023389,72.515201,NO2,17,17,17
India,Gujarat,Ahmedabad,"SVPI Airport Hansol, Ahmedabad - IITM",28-03-2024 23:00:00,23.076793,72.627874,NH3,4,5,4
India,Gujarat,Ahmedabad,"SVPI Airport Hansol, Ahmedabad - IITM",28-03-2024 23:00:00,23.076793,72.627874,SO2,7,8,8
India,Gujarat,Ahmedabad,"SVPI Airport Hansol, Ahmedabad - IITM",28-03-2024 23:00:00,23.076793,72.627874,OZONE,10,36,25
India,Gujarat,Ahmedabad,"Sardar Vallabhbhai Patel Stadium, Ahmedabad - IITM",28-03-2024 23:00:00,23.043070,72.562968,SO2,2,13,6
India,Gujarat,Ankleshwar,"GIDC, Ankleshwar - GPCB",28-03-2024 23:00:00,21.613267,73.010555,PM10,58,104,74
India,Gujarat,Ankleshwar,"GIDC, Ankleshwar - GPCB",28-03-2024 23:00:00,21.613267,73.010555,NO2,34,35,35
India,Gujarat,Ankleshwar,"GIDC, Ankleshwar - GPCB",28-03-2024 23:00:00,21.613267,73.010555,NH3,6,6,6
India,Gujarat,Gandhinagar,"GIFT City, Gandhinagar - IITM",28-03-2024 23:00:00,23.163798,72.677768,PM2.5,45,123,73
India,Gujarat,Gandhinagar,"GIFT City, Gandhinagar - IITM",28-03-2024 23:00:00,23.163798,72.677768,NO2,13,21,18
India,Gujarat,Gandhinagar,"IIPHG Lekawada, Gandhinagar - IITM",28-03-2024 23:00:00,23.243639,72.68994,CO,22,24,23
India,Gujarat,Gandhinagar,"IIPHG Lekawada, Gandhinagar - IITM",28-03-2024 23:00:00,23.243639,72.68994,OZONE,11,36,30
India,Gujarat,Gandhinagar,"Sector-10, Gandhinagar - GPCB",28-03-2024 23:00:00,23.221714,72.654328,SO2,4,8,5
India,Gujarat,Surat,"Science Center, Surat - SMC",28-03-2024 23:00:00,21.170046,72.795405,PM10,35,500,185
India,Gujarat,Surat,"Science Center, Surat - SMC",28-03-2024 23:00:00,21.170046,72.795405,SO2,1,6,4
India,Gujarat,Surat,"Science Center, Surat - SMC",28-03-2024 23:00:00,21.170046,72.795405,CO,46,60,52
India,Gujarat,Vapi,"Phase-1 GIDC, Vapi - GPCB",28-03-2024 23:00:00,20.362421,72.918013,PM10,50,106,73
India,Gujarat,Vapi,"Phase-1 GIDC, Vapi - GPCB",28-03-2024 23:00:00,20.362421,72.918013,OZONE,1,1,1
India,Gujarat,Vatva,"Phase-4 GIDC, Vatva - GPCB",28-03-2024 23:00:00,22.969611,72.643500,NO2,34,176,72
India,Gujarat,Vatva,"Phase-4 GIDC, Vatva - GPCB",28-03-2024 23:00:00,22.969611,72.643500,CO,1,76,19
India,Haryana,Bahadurgarh,"Arya Nagar, Bahadurgarh - HSPCB",28-03-2024 23:00:00,28.6701,76.9254,SO2,20,66,33
India,Haryana,Ballabgarh,"Nathu Colony, Ballabgarh - HSPCB",28-03-2024 23:00:00,28.3419248,77.319699,PM2.5,130,278,205
India,Haryana,Ballabgarh,"Nathu Colony, Ballabgarh - HSPCB",28-03-2024 23:00:00,28.3419248,77.319699,NH3,1,3,2
India,Haryana,Bhiwani,"H.B. Colony, Bhiwani - HSPCB",28-03-2024 23:00:00,28.806223,76.141105,NH3,5,6,6
India,Haryana,Bhiwani,"H.B. Colony, Bhiwani - HSPCB",28-03-2024 23:00:00,28.806223,76.141105,OZONE,8,44,18
India,Haryana,Charkhi Dadri,"Mini Secretariat, Charkhi Dadri - HSPCB",28-03-2024 23:00:00,28.593883,76.270653,PM10,66,126,84
India,Haryana,Faridabad,"New Industrial Town, Faridabad - HSPCB",28-03-2024 23:00:00,28.39072,77.30059,NO2,NA,NA,NA
India,Haryana,Faridabad,"Sector 30, Faridabad - HSPCB",28-03-2024 23:00:00,28.4417,77.3217,NH3,9,9,9
India,Haryana,Faridabad,"Sector- 16A, Faridabad - HSPCB",28-03-2024 23:00:00,28.4088421,77.3099081,PM2.5,70,168,116
India,Haryana,Faridabad,"Sector- 16A, Faridabad - HSPCB",28-03-2024 23:00:00,28.4088421,77.3099081,NO2,24,62,41
India,Haryana,Faridabad,"Sector- 16A, Faridabad - HSPCB",28-03-2024 23:00:00,28.4088421,77.3099081,CO,4,90,65
India,Haryana,Fatehabad,"Huda Sector, Fatehabad - HSPCB",28-03-2024 23:00:00,29.503664,75.467934,NO2,34,47,38
India,Haryana,Gurugram,"Sector-51, Gurugram - HSPCB",28-03-2024 23:00:00,28.4227,77.0667,PM10,126,253,163
India,Haryana,Gurugram,"Teri Gram, Gurugram - HSPCB",28-03-2024 23:00:00,28.4275,77.1465,PM10,148,217,186
India,Haryana,Gurugram,"Vikas Sadan, Gurugram - HSPCB",28-03-2024 23:00:00,28.4501238,77.0263051,OZONE,8,69,35
India,Haryana,Hisar,"Urban Estate-II, Hisar - HSPCB",28-03-2024 23:00:00,29.140560,75.744941,PM10,61,87,74
India,Haryana,Hisar,"Urban Estate-II, Hisar - HSPCB",28-03-2024 23:00:00,29.140560,75.744941,SO2,2,95,50
India,Haryana,Hisar,"Urban Estate-II, Hisar - HSPCB",28-03-2024 23:00:00,29.140560,75.744941,CO,40,57,50
India,Haryana,Hisar,"Urban Estate-II, Hisar - HSPCB",28-03-2024 23:00:00,29.140560,75.744941,OZONE,35,98,67
India,Haryana,Jind,"Police Lines, Jind - HSPCB",28-03-2024 23:00:00,29.307814,76.337619,PM10,53,75,62
India,Haryana,Jind,"Police Lines, Jind - HSPCB",28-03-2024 23:00:00,29.307814,76.337619,NO2,7,15,11
India,Haryana,Jind,"Police Lines, Jind - HSPCB",28-03-2024 23:00:00,29.307814,76.337619,NH3,2,5,4
India,Haryana,Karnal,"Sector-12, Karnal - HSPCB",28-03-2024 23:00:00,29.695300,77.002700,NH3,10,13,11
India,Haryana,Kurukshetra,"Sector-7, Kurukshetra - HSPCB",28-03-2024 23:00:00,29.966942,76.875879,NO2,10,20,10
India,Haryana,Mandikhera,"General Hospital, Mandikhera - HSPCB",28-03-2024 23:00:00,27.9002,76.9938,NO2,16,23,21
India,Haryana,Manesar,"Sector-2 IMT, Manesar - HSPCB",28-03-2024 23:00:00,28.360699,76.936090,OZONE,1,61,32
India,Haryana,Narnaul,"Shastri Nagar, Narnaul - HSPCB",28-03-2024 23:00:00,28.060249,76.113115,PM10,32,66,41
India,Haryana,Narnaul,"Shastri Nagar, Narnaul - HSPCB",28-03-2024 23:00:00,28.060249,76.113115,OZONE,35,50,45
India,Haryana,Palwal,"Shyam Nagar, Palwal - HSPCB",28-03-2024 23:00:00,28.1485564,77.3320667,NO2,23,24,24
India,Haryana,Panipat,"Sector-18, Panipat - HSPCB",28-03-2024 23:00:00,29.497973,76.993331,NH3,NA,NA,NA
India,Haryana,Panipat,"Sector-18, Panipat - HSPCB",28-03-2024 23:00:00,29.497973,76.993331,SO2,NA,NA,NA
India,Haryana,Panipat,"Sector-18, Panipat - HSPCB",28-03-2024 23:00:00,29.497973,76.993331,OZONE,30,30,30
India,Haryana,Rohtak,"MD University, Rohtak - HSPCB",28-03-2024 23:00:00,28.52123,76.37138,PM2.5,1,26,7
India,Haryana,Rohtak,"MD University, Rohtak - HSPCB",28-03-2024 23:00:00,28.52123,76.37138,NO2,47,57,52
India,Haryana,Sirsa,"F-Block, Sirsa - HSPCB",28-03-2024 23:00:00,29.536400,75.015800,SO2,3,81,40
India,Haryana,Sonipat,"Murthal, Sonipat - HSPCB",28-03-2024 23:00:00,29.027200,77.062100,PM2.5,5,38,17
India,Haryana,Yamuna Nagar,"Gobind Pura, Yamuna Nagar - HSPCB",28-03-2024 23:00:00,30.1480566,77.2893471,SO2,2,13,7
India,Haryana,Yamuna Nagar,"Gobind Pura, Yamuna Nagar - HSPCB",28-03-2024 23:00:00,30.1480566,77.2893471,OZONE,20,36,27
India,Jharkhand,Dhanbad,"Kalakusuma, Dhanbad - DMC",28-03-2024 23:00:00,23.811548,86.481238,OZONE,26,97,49
India,Karnataka,Bagalkot,"Vidayagiri, Bagalkot - KSPCB",28-03-2024 23:00:00,16.172806,75.659694,SO2,9,9,9
India,Karnataka,Bengaluru,"BTM Layout, Bengaluru - CPCB",28-03-2024 23:00:00,12.9135218,77.5950804,CO,43,44,44
India,Karnataka,Bengaluru,"BTM Layout, Bengaluru - CPCB",28-03-2024 23:00:00,12.9135218,77.5950804,OZONE,21,114,58
India,Karnataka,Bengaluru,"Bapuji Nagar, Bengaluru - KSPCB",28-03-2024 23:00:00,12.951913,77.539784,PM2.5,87,233,118
India,Karnataka,Bengaluru,"Hombegowda Nagar, Bengaluru - KSPCB",28-03-2024 23:00:00,12.938539,77.590100,PM10,47,108,77
India,Karnataka,Bengaluru,"Hombegowda Nagar, Bengaluru - KSPCB",28-03-2024 23:00:00,12.938539,77.590100,CO,10,14,13
India,Karnataka,Bengaluru,"Hombegowda Nagar, Bengaluru - KSPCB",28-03-2024 23:00:00,12.938539,77.590100,OZONE,4,5,4
India,Karnataka,Bengaluru,"Jayanagar 5th Block, Bengaluru - KSPCB",28-03-2024 23:00:00,12.920984,77.584908,NO2,7,18,11
India,Karnataka,Bengaluru,"Jayanagar 5th Block, Bengaluru - KSPCB",28-03-2024 23:00:00,12.920984,77.584908,NH3,4,5,4
India,Karnataka,Bengaluru,"Jigani, Bengaluru - KSPCB",28-03-2024 23:00:00,12.7816279,77.6299145,PM10,NA,NA,NA
India,Karnataka,Bengaluru,"Kasturi Nagar, Bengaluru - KSPCB",28-03-2024 23:00:00,13.003872,77.664217,NO2,16,17,17
India,Karnataka,Bengaluru,"Kasturi Nagar, Bengaluru - KSPCB",28-03-2024 23:00:00,13.003872,77.664217,NH3,3,4,4
India,Karnataka,Bengaluru,"Peenya, Bengaluru - CPCB",28-03-2024 23:00:00,13.0270199,77.494094,NH3,2,4,3
India,Karnataka,Bengaluru,"Peenya, Bengaluru - CPCB",28-03-2024 23:00:00,13.0270199,77.494094,OZONE,11,103,18
India,Karnataka,Bengaluru,"RVCE-Mailasandra, Bengaluru - KSPCB",28-03-2024 23:00:00,12.921418,77.502466,PM2.5,16,302,119
India,Karnataka,Bengaluru,"Silk Board, Bengaluru - KSPCB",28-03-2024 23:00:00,12.917348,77.622813,PM2.5,30,107,60
India,Karnataka,Bengaluru,"Silk Board, Bengaluru - KSPCB",28-03-2024 23:00:00,12.917348,77.622813,PM10,40,124,78
India,Karnataka,Bengaluru,"Silk Board, Bengaluru - KSPCB",28-03-2024 23:00:00,12.917348,77.622813,NH3,5,8,6
India,Karnataka,Bengaluru,"Silk Board, Bengaluru - KSPCB",28-03-2024 23:00:00,12.917348,77.622813,OZONE,29,31,30
India,Karnataka,Bidar,"Naubad, Bidar - KSPCB",28-03-2024 23:00:00,17.930306,77.482194,NO2,7,8,8
India,Karnataka,Chamarajanagar,"Urban, Chamarajanagar - KSPCB",28-03-2024 23:00:00,11.55358,76.55521,CO,22,120,27
India,Karnataka,Chikkaballapur,"Chikkaballapur Rural, Chikkaballapur - KSPCB",28-03-2024 23:00:00,13.428828,77.731418,SO2,10,28,17
India,Karnataka,Dharwad,"Kalabhavan, Dharwad - KSPCB",28-03-2024 23:00:00,15.459706,75.008381,NH3,2,3,3
India,Karnataka,Dharwad,"Kalabhavan, Dharwad - KSPCB",28-03-2024 23:00:00,15.459706,75.008381,CO,69,69,69
India,Karnataka,Gadag,"Panchal Nagar, Gadag - KSPCB",28-03-2024 23:00:00,15.411456,75.638133,NO2,6,22,13
India,Karnataka,Gadag,"Panchal Nagar, Gadag - KSPCB",28-03-2024 23:00:00,15.411456,75.638133,NH3,2,3,2
India,Karnataka,Hubballi,"Deshpande Nagar, Hubballi - KSPCB",28-03-2024 23:00:00,15.351773,75.140726,OZONE,1,30,19
India,Karnataka,Hubballi,"Lingaraj Nagar, Hubballi - KSPCB",28-03-2024 23:00:00,15.3714823,75.1160168,CO,10,65,24
India,Karnataka,Kalaburagi,"Lal Bahadur Shastri Nagar, Kalaburagi - KSPCB",28-03-2024 23:00:00,17.321993,76.822628,NH3,2,2,2
India,Karnataka,Kalaburagi,"Mahatma Basaveswar Colony, Kalaburgi - KSPCB",28-03-2024 23:00:00,17.336318,76.847397,PM10,32,96,57
India,Karnataka,Karwar,"KHB Colony, Karwar - KSPCB",28-03-2024 23:00:00,14.816666,74.141003,SO2,18,19,18
India,Karnataka,Kolar,"Tamaka Ind. Area, Kolar - KSPCB",28-03-2024 23:00:00,13.1276288,78.1570122,PM10,28,111,62
India,Karnataka,Mangalore,"Kadri, Mangalore - KSPCB",28-03-2024 23:00:00,12.889250,74.853000,CO,40,50,47
India,Karnataka,Ramanagara,"Vijay Nagar, Ramanagara - KSPCB",28-03-2024 23:00:00,12.733409,77.298051,SO2,13,36,24
India,Karnataka,Shivamogga,"Vinoba Nagara, Shivamogga - KSPCB",28-03-2024 23:00:00,13.940000,75.555917,NH3,2,5,3
India,Karnataka,Shivamogga,"Vinoba Nagara, Shivamogga - KSPCB",28-03-2024 23:00:00,13.940000,75.555917,CO,8,32,26
India,Karnataka,Shivamogga,"Vinoba Nagara, Shivamogga - KSPCB",28-03-2024 23:00:00,13.940000,75.555917,OZONE,1,70,54
India,Karnataka,Udupi,"Brahmagiri, Udupi - KSPCB",28-03-2024 23:00:00,13.34194444,74.74694444,CO,46,50,46
India,Karnataka,Vijayapura,"Ibrahimpur, Vijayapura - KSPCB",28-03-2024 23:00:00,16.802639,75.722694,CO,104,137,137
India,Karnataka,Yadgir,"Collector Office, Yadgir - KSPCB",28-03-2024 23:00:00,16.7602,77.1428,NH3,NA,NA,NA
India,Karnataka,Yadgir,"Collector Office, Yadgir - KSPCB",28-03-2024 23:00:00,16.7602,77.1428,OZONE,18,20,19
India,Kerala,Eloor,"Udyogamandal, Eloor - Kerala PCB",28-03-2024 23:00:00,10.073232,76.302765,NO2,4,5,4
India,Kerala,Eloor,"Udyogamandal, Eloor - Kerala PCB",28-03-2024 23:00:00,10.073232,76.302765,NH3,1,1,1
India,Kerala,Eloor,"Udyogamandal, Eloor - Kerala PCB",28-03-2024 23:00:00,10.073232,76.302765,SO2,1,11,3
India,Kerala,Kollam,"Polayathode, Kollam - Kerala PCB",28-03-2024 23:00:00,8.8787,76.6073,PM10,57,105,79
India,Kerala,Kollam,"Polayathode, Kollam - Kerala PCB",28-03-2024 23:00:00,8.8787,76.6073,NO2,8,9,8
India,Kerala,Kollam,"Polayathode, Kollam - Kerala PCB",28-03-2024 23:00:00,8.8787,76.6073,NH3,1,1,1
India,Kerala,Kollam,"Polayathode, Kollam - Kerala PCB",28-03-2024 23:00:00,8.8787,76.6073,CO,5,36,10
India,Kerala,Kollam,"Polayathode, Kollam - Kerala PCB",28-03-2024 23:00:00,8.8787,76.6073,OZONE,28,39,35
India,Kerala,Thiruvananthapuram,"Kariavattom, Thiruvananthapuram - Kerala PCB",28-03-2024 23:00:00,8.563700,76.886500,CO,18,44,20
India,Kerala,Thiruvananthapuram,"Plammoodu, Thiruvananthapuram - Kerala PCB",28-03-2024 23:00:00,8.5149093,76.9435879,NH3,2,2,2
India,Kerala,Thiruvananthapuram,"Plammoodu, Thiruvananthapuram - Kerala PCB",28-03-2024 23:00:00,8.5149093,76.9435879,CO,12,26,14
India,Madhya Pradesh,Bhopal,"Idgah Hills, Bhopal - MPPCB",28-03-2024 23:00:00,23.264759,77.381568,SO2,18,21,18
India,Madhya Pradesh,Bhopal,"Idgah Hills, Bhopal - MPPCB",28-03-2024 23:00:00,23.264759,77.381568,CO,32,80,52
India,Madhya Pradesh,Bhopal,"Paryavaran Parisar, Bhopal - MPPCB",28-03-2024 23:00:00,23.210494,77.425409,PM10,78,301,150
India,Madhya Pradesh,Bhopal,"Paryavaran Parisar, Bhopal - MPPCB",28-03-2024 23:00:00,23.210494,77.425409,OZONE,2,99,60
India,Madhya Pradesh,Bhopal,"T T Nagar, Bhopal - MPPCB",28-03-2024 23:00:00,23.233584,77.400574,NO2,34,108,52
India,Madhya Pradesh,Bhopal,"T T Nagar, Bhopal - MPPCB",28-03-2024 23:00:00,23.233584,77.400574,NH3,1,6,5
India,Madhya Pradesh,Dewas,"Bhopal Chauraha, Dewas - MPPCB",28-03-2024 23:00:00,22.9682591,76.064118,PM10,104,184,135
India,Madhya Pradesh,Gwalior,"City Center, Gwalior - MPPCB",28-03-2024 23:00:00,26.203442,78.193251,NO2,9,87,33
India,Madhya Pradesh,Gwalior,"Deen Dayal Nagar, Gwalior - MPPCB",28-03-2024 23:00:00,26.259242,78.216432,NO2,NA,NA,NA
India,Madhya Pradesh,Gwalior,"Deen Dayal Nagar, Gwalior - MPPCB",28-03-2024 23:00:00,26.259242,78.216432,OZONE,NA,NA,NA
India,Madhya Pradesh,Gwalior,"Maharaj Bada, Gwalior - MPPCB",28-03-2024 23:00:00,26.200388,78.147714,PM10,95,246,160
India,Madhya Pradesh,Gwalior,"Maharaj Bada, Gwalior - MPPCB",28-03-2024 23:00:00,26.200388,78.147714,OZONE,10,195,73
India,Madhya Pradesh,Indore,"Chhoti Gwaltoli, Indore - MPPCB",28-03-2024 23:00:00,22.4310,75.5213,NH3,5,10,7
India,Madhya Pradesh,Jabalpur,"Govindh Bhavan Colony, Jabalpur - JMC",28-03-2024 23:00:00,23.163174,79.973061,PM2.5,47,87,65
India,Madhya Pradesh,Jabalpur,"Marhatal, Jabalpur - MPPCB",28-03-2024 23:00:00,23.168606,79.932247,SO2,8,34,13
India,Madhya Pradesh,Jabalpur,"Marhatal, Jabalpur - MPPCB",28-03-2024 23:00:00,23.168606,79.932247,CO,12,128,90
India,Madhya Pradesh,Jabalpur,"Suhagi, Jabalpur - JMC",28-03-2024 23:00:00,23.218135,79.957770,NO2,34,47,42
India,Madhya Pradesh,Katni,"Gole Bazar, Katni - MPPCB",28-03-2024 23:00:00,23.50016,80.23284,PM10,94,243,164
India,Madhya Pradesh,Katni,"Gole Bazar, Katni - MPPCB",28-03-2024 23:00:00,23.50016,80.23284,NH3,1,9,4
India,Madhya Pradesh,Katni,"Gole Bazar, Katni - MPPCB",28-03-2024 23:00:00,23.50016,80.23284,CO,19,70,24
India,Madhya Pradesh,Pithampur,"Sector-2 Industrial Area, Pithampur - MPPCB",28-03-2024 23:00:00,22.624758,75.675238,NH3,2,3,3
India,Madhya Pradesh,Pithampur,"Sector-2 Industrial Area, Pithampur - MPPCB",28-03-2024 23:00:00,22.624758,75.675238,SO2,2,18,14
India,Madhya Pradesh,Pithampur,"Sector-2 Industrial Area, Pithampur - MPPCB",28-03-2024 23:00:00,22.624758,75.675238,CO,58,100,81
India,Madhya Pradesh,Ratlam,"Shasthri Nagar, Ratlam - IPCA Lab",28-03-2024 23:00:00,23.331731,75.045981,SO2,36,39,37
India,Madhya Pradesh,Sagar,"Civil Lines, Sagar - MPPCB",28-03-2024 23:00:00,23.838586,78.759431,PM10,82,170,106
India,Madhya Pradesh,Sagar,"Deen Dayal Nagar, Sagar - MPPCB",28-03-2024 23:00:00,23.8640158,78.80289321,SO2,6,17,9
India,Madhya Pradesh,Sagar,"Deen Dayal Nagar, Sagar - MPPCB",28-03-2024 23:00:00,23.8640158,78.80289321,CO,8,101,55
India,Madhya Pradesh,Satna,"Bandhavgar Colony, Satna - Birla Cement",28-03-2024 23:00:00,24.58434363,80.8549414,NO2,25,53,36
India,Madhya Pradesh,Singrauli,"Suryakiran Bhawan NCL, Singrauli - MPPCB",28-03-2024 23:00:00,24.108970,82.645580,CO,41,85,56
India,Madhya Pradesh,Singrauli,"Suryakiran Bhawan NCL, Singrauli - MPPCB",28-03-2024 23:00:00,24.108970,82.645580,OZONE,1,76,52
India,Madhya Pradesh,Ujjain,"Mahakaleshwar Temple, Ujjain - MPPCB",28-03-2024 23:00:00,23.182719 ,75.768218 ,NO2,4,78,33
India,Madhya Pradesh,Ujjain,"Mahakaleshwar Temple, Ujjain - MPPCB",28-03-2024 23:00:00,23.182719 ,75.768218 ,NH3,6,11,9
India,Maharashtra,Ahmednagar,"Tarakpur, Ahmednagar - MPCB",28-03-2024 23:00:00,19.10122,74.73339,SO2,7,17,11
India,Maharashtra,Ahmednagar,"Tarakpur, Ahmednagar - MPCB",28-03-2024 23:00:00,19.10122,74.73339,OZONE,12,182,125
India,Maharashtra,Akola,"Ramdaspeth, Akola - MPCB",28-03-2024 23:00:00,20.719516,77.000253,PM10,51,298,116
India,Maharashtra,Akola,"Ramdaspeth, Akola - MPCB",28-03-2024 23:00:00,20.719516,77.000253,NH3,6,14,10
India,Maharashtra,Amravati,"Shivneri Colony, Amravati - MPCB",28-03-2024 23:00:00,20.9402359,77.7895248,PM10,90,154,112
India,Maharashtra,Amravati,"Shri Shivaji Science College, Amaravati - MPCB",28-03-2024 23:00:00,20.939198,77.765701,CO,36,124,74
India,Maharashtra,Aurangabad,"MIDC Chilkalthana, Aurangabad - MPCB",28-03-2024 23:00:00,19.875620,75.387310,NH3,3,4,4
India,Maharashtra,Aurangabad,"Rachnakar Colony, Aurangabad - MPCB",28-03-2024 23:00:00,19.863756,75.321188,PM2.5,165,236,184
India,Maharashtra,Badlapur,"Katrap, Badlapur - MPCB",28-03-2024 23:00:00,19.16485,73.23409,NO2,7,198,23
India,Maharashtra,Badlapur,"Katrap, Badlapur - MPCB",28-03-2024 23:00:00,19.16485,73.23409,SO2,1,14,4
India,Maharashtra,Badlapur,"Katrap, Badlapur - MPCB",28-03-2024 23:00:00,19.16485,73.23409,OZONE,1,129,49
India,Maharashtra,Belapur,"CBD Belapur, Belapur - MPCB",28-03-2024 23:00:00,19.0243902,73.0406721,NH3,8,18,12
India,Maharashtra,Boisar,"Khaira, Boisar - MPCB",28-03-2024 23:00:00,19.786089,72.757971,PM10,70,135,93
India,Maharashtra,Boisar,"Khaira, Boisar - MPCB",28-03-2024 23:00:00,19.786089,72.757971,NO2,15,133,43
India,Maharashtra,Jalgaon,"Prabhat Colony, Jalgaon - MPCB",28-03-2024 23:00:00,21.001264,75.565602,NO2,9,60,31
India,Maharashtra,Jalgaon,"Prabhat Colony, Jalgaon - MPCB",28-03-2024 23:00:00,21.001264,75.565602,NH3,5,14,8
India,Maharashtra,Jalgaon,"Prabhat Colony, Jalgaon - MPCB",28-03-2024 23:00:00,21.001264,75.565602,SO2,7,30,14
India,Maharashtra,Jalna,"Old MIDC, Jalna - MPCB",28-03-2024 23:00:00,19.854616,75.905894,PM10,125,192,146
India,Maharashtra,Jalna,"Old MIDC, Jalna - MPCB",28-03-2024 23:00:00,19.854616,75.905894,CO,28,56,40
India,Maharashtra,Kalyan,"Khadakpada, Kalyan - MPCB",28-03-2024 23:00:00,19.25292,73.142019,PM2.5,32,79,53
India,Maharashtra,Kalyan,"Khadakpada, Kalyan - MPCB",28-03-2024 23:00:00,19.25292,73.142019,SO2,28,36,32
India,Maharashtra,Kolhapur,"Shivaji University, Kolhapur - MPCB",28-03-2024 23:00:00,16.6870449,74.2505872,PM10,51,158,113
India,Maharashtra,Kolhapur,"Sinchan Bhavan, Kolhapur - MPCB",28-03-2024 23:00:00,16.7143745,74.2426398,SO2,1,13,4
India,Maharashtra,Latur,"Sawe Wadi, Latur - MPCB",28-03-2024 23:00:00,18.39963,76.57452,SO2,1,16,8
India,Maharashtra,Latur,"Sawe Wadi, Latur - MPCB",28-03-2024 23:00:00,18.39963,76.57452,CO,14,166,83
India,Maharashtra,Mahad,"Kamble Tarf Birwadi, Mahad - MPCB",28-03-2024 23:00:00,18.1023399,73.4783687,CO,10,52,28
India,Maharashtra,Malegaon,"Mahesh Nagar, Malegaon - MPCB",28-03-2024 23:00:00,20.555712,74.529236,SO2,3,24,13
India,Maharashtra,Malegaon,"Mahesh Nagar, Malegaon - MPCB",28-03-2024 23:00:00,20.555712,74.529236,OZONE,16,105,70
India,Maharashtra,Mira-Bhayandar,"Bhayandar West, Mira-Bhayandar - MPCB",28-03-2024 23:00:00,19.296481,72.840923,NO2,4,24,11
India,Maharashtra,Mumbai,"Borivali East, Mumbai - IITM",28-03-2024 23:00:00,19.23241,72.86895,CO,28,52,38
India,Maharashtra,Mumbai,"Borivali East, Mumbai - MPCB",28-03-2024 23:00:00,19.2243333,72.8658113,PM2.5,22,53,31
India,Maharashtra,Mumbai,"Borivali East, Mumbai - MPCB",28-03-2024 23:00:00,19.2243333,72.8658113,OZONE,14,15,15
India,Maharashtra,Mumbai,"Byculla, Mumbai - BMC",28-03-2024 23:00:00,18.9767,72.8380,NO2,12,19,17
India,Maharashtra,Mumbai,"Byculla, Mumbai - BMC",28-03-2024 23:00:00,18.9767,72.8380,CO,9,31,14
India,Maharashtra,Mumbai,"Chakala-Andheri East, Mumbai - IITM",28-03-2024 23:00:00,19.11074,72.86084,PM2.5,31,77,52
India,Maharashtra,Mumbai,"Chakala-Andheri East, Mumbai - IITM",28-03-2024 23:00:00,19.11074,72.86084,NO2,74,128,101
India,Maharashtra,Mumbai,"Chakala-Andheri East, Mumbai - IITM",28-03-2024 23:00:00,19.11074,72.86084,SO2,15,64,31
India,Maharashtra,Mumbai,"Chembur, Mumbai - MPCB",28-03-2024 23:00:00,19.0364585,72.8954371,PM2.5,42,157,66
India,Maharashtra,Mumbai,"Chembur, Mumbai - MPCB",28-03-2024 23:00:00,19.0364585,72.8954371,NH3,2,4,3
India,Maharashtra,Mumbai,"Chhatrapati Shivaji Intl. Airport (T2), Mumbai - MPCB",28-03-2024 23:00:00,19.10078,72.87462,CO,34,73,47
India,Maharashtra,Mumbai,"Ghatkopar, Mumbai - BMC",28-03-2024 23:00:00,19.083694,72.920967,CO,4,32,9
India,Maharashtra,Mumbai,"Kandivali East, Mumbai - MPCB",28-03-2024 23:00:00,19.205800,72.868200,PM10,73,296,126
India,Maharashtra,Mumbai,"Kandivali East, Mumbai - MPCB",28-03-2024 23:00:00,19.205800,72.868200,NH3,4,32,9
India,Maharashtra,Mumbai,"Kandivali West, Mumbai - BMC",28-03-2024 23:00:00,19.215859,72.831718,PM10,27,50,36
India,Maharashtra,Mumbai,"Kherwadi_Bandra East, Mumbai - MPCB",28-03-2024 23:00:00,19.0632143,72.8456324,SO2,1,1,1
India,Maharashtra,Mumbai,"Kherwadi_Bandra East, Mumbai - MPCB",28-03-2024 23:00:00,19.0632143,72.8456324,CO,8,34,17
India,Maharashtra,Mumbai,"Kherwadi_Bandra East, Mumbai - MPCB",28-03-2024 23:00:00,19.0632143,72.8456324,OZONE,8,39,30
India,Maharashtra,Mumbai,"Kurla, Mumbai - MPCB",28-03-2024 23:00:00,19.0863,72.8888,NH3,2,7,5
India,Maharashtra,Mumbai,"Mazgaon, Mumbai - IITM",28-03-2024 23:00:00,18.96702,72.84214,NH3,17,31,22
India,Maharashtra,Mumbai,"Mazgaon, Mumbai - IITM",28-03-2024 23:00:00,18.96702,72.84214,SO2,6,18,12
India,Maharashtra,Mumbai,"Mindspace-Malad West, Mumbai - MPCB",28-03-2024 23:00:00,19.1878657,72.8304069,NO2,4,21,10
India,Maharashtra,Mumbai,"Mindspace-Malad West, Mumbai - MPCB",28-03-2024 23:00:00,19.1878657,72.8304069,OZONE,3,23,17
India,Maharashtra,Mumbai,"Mulund West, Mumbai - MPCB",28-03-2024 23:00:00,19.1750,72.9419,PM2.5,47,102,71
India,Maharashtra,Mumbai,"Mulund West, Mumbai - MPCB",28-03-2024 23:00:00,19.1750,72.9419,NO2,20,25,21
India,Maharashtra,Mumbai,"Navy Nagar-Colaba, Mumbai - IITM",28-03-2024 23:00:00,18.897756,72.813320,NH3,11,14,12
India,Maharashtra,Mumbai,"Powai, Mumbai - MPCB",28-03-2024 23:00:00,19.137500,72.915056,NO2,18,40,24
India,Maharashtra,Mumbai,"Sewri, Mumbai - BMC",28-03-2024 23:00:00,19.000084,72.856730,PM2.5,13,43,30
India,Maharashtra,Mumbai,"Sewri, Mumbai - BMC",28-03-2024 23:00:00,19.000084,72.856730,OZONE,1,24,16
India,Maharashtra,Mumbai,"Vasai West, Mumbai - MPCB",28-03-2024 23:00:00,19.383200,72.820400,NH3,4,4,4
India,Maharashtra,Mumbai,"Vile Parle West, Mumbai - MPCB",28-03-2024 23:00:00,19.10861,72.83622,NH3,10,11,11
India,Maharashtra,Mumbai,"Worli, Mumbai - MPCB",28-03-2024 23:00:00,18.9936162,72.8128113,NO2,14,14,14
India,Maharashtra,Nagpur,"Ambazari, Nagpur - MPCB",28-03-2024 23:00:00,21.121801,79.04952,PM10,93,167,114
India,Maharashtra,Nagpur,"Mahal, Nagpur - MPCB",28-03-2024 23:00:00,21.14472,79.107595,NO2,NA,NA,NA
India,Maharashtra,Nagpur,"Mahal, Nagpur - MPCB",28-03-2024 23:00:00,21.14472,79.107595,NH3,NA,NA,NA
India,Maharashtra,Nagpur,"Mahal, Nagpur - MPCB",28-03-2024 23:00:00,21.14472,79.107595,OZONE,5,81,46
India,Maharashtra,Nagpur,"Opp GPO Civil Lines, Nagpur - MPCB",28-03-2024 23:00:00,21.152875,79.0517531,PM10,81,156,121
India,Maharashtra,Nagpur,"Opp GPO Civil Lines, Nagpur - MPCB",28-03-2024 23:00:00,21.152875,79.0517531,NO2,48,196,96
India,Maharashtra,Nagpur,"Opp GPO Civil Lines, Nagpur - MPCB",28-03-2024 23:00:00,21.152875,79.0517531,SO2,2,40,18
India,Maharashtra,Nanded,"Sneh Nagar, Nanded - MPCB",28-03-2024 23:00:00,19.173852,77.296291,PM2.5,36,197,95
India,Maharashtra,Nashik,"Gangapur Road, Nashik - MPCB",28-03-2024 23:00:00,20.0073285,73.7762427,PM10,51,142,91
India,Maharashtra,Nashik,"Gangapur Road, Nashik - MPCB",28-03-2024 23:00:00,20.0073285,73.7762427,NO2,8,12,9
India,Maharashtra,Nashik,"MIDC Ambad, Nashik - MPCB",28-03-2024 23:00:00,19.950220,73.731480,PM2.5,2,157,41
India,Maharashtra,Nashik,"MIDC Ambad, Nashik - MPCB",28-03-2024 23:00:00,19.950220,73.731480,NO2,10,41,19
India,Maharashtra,Nashik,"MIDC Ambad, Nashik - MPCB",28-03-2024 23:00:00,19.950220,73.731480,CO,12,50,20
India,Maharashtra,Nashik,"Pandav Nagari, Nashik - MPCB",28-03-2024 23:00:00,19.9591346,73.7788008,NO2,6,42,14
India,Maharashtra,Nashik,"Pandav Nagari, Nashik - MPCB",28-03-2024 23:00:00,19.9591346,73.7788008,NH3,4,6,5
India,Maharashtra,Nashik,"Pandav Nagari, Nashik - MPCB",28-03-2024 23:00:00,19.9591346,73.7788008,SO2,6,24,13
India,Maharashtra,Nashik,"Pandav Nagari, Nashik - MPCB",28-03-2024 23:00:00,19.9591346,73.7788008,CO,14,50,22
India,Maharashtra,Navi Mumbai,"Kopripada-Vashi, Navi Mumbai - MPCB",28-03-2024 23:00:00,19.090337,73.014232,CO,11,60,19
India,Maharashtra,Navi Mumbai,"Mahape, Navi Mumbai - MPCB",28-03-2024 23:00:00,19.1135051,73.008978,SO2,26,27,27
India,Maharashtra,Navi Mumbai,"Mahape, Navi Mumbai - MPCB",28-03-2024 23:00:00,19.1135051,73.008978,CO,44,58,49
India,Maharashtra,Navi Mumbai,"Sanpada, Navi Mumbai - MPCB",28-03-2024 23:00:00,19.0575752,73.0151367,NH3,5,21,11
India,Maharashtra,Navi Mumbai,"Sanpada, Navi Mumbai - MPCB",28-03-2024 23:00:00,19.0575752,73.0151367,SO2,2,8,4
India,Maharashtra,Navi Mumbai,"Sanpada, Navi Mumbai - MPCB",28-03-2024 23:00:00,19.0575752,73.0151367,OZONE,2,63,27
India,Maharashtra,Navi Mumbai,"Sector-19A Nerul, Navi Mumbai - IITM",28-03-2024 23:00:00,19.044,73.0325,CO,36,81,51
India,Maharashtra,Navi Mumbai,"Sector-2E Kalamboli, Navi Mumbai - MPCB",28-03-2024 23:00:00,19.02579,73.10297,CO,7,41,17
India,Maharashtra,Navi Mumbai,"Sector-2E Kalamboli, Navi Mumbai - MPCB",28-03-2024 23:00:00,19.02579,73.10297,OZONE,2,63,19
India,Maharashtra,Parbhani,"Masoom Colony, Parbhani - MPCB",28-03-2024 23:00:00,19.265594,76.761463,SO2,7,92,26
India,Maharashtra,Pimpri-Chinchwad,"Park Street Wakad, Pimpri Chinchwad - MPCB",28-03-2024 23:00:00,18.59051,73.77946,PM2.5,22,468,99
India,Maharashtra,Pimpri-Chinchwad,"Thergaon, Pimpri Chinchwad - MPCB",28-03-2024 23:00:00,18.616318,73.765797,SO2,3,7,5
India,Maharashtra,Pune,"Bhosari, Pune - IITM",28-03-2024 23:00:00,18.640051,73.848956,PM2.5,35,73,54
India,Maharashtra,Pune,"Karve Road, Pune - MPCB",28-03-2024 23:00:00,18.5011743,73.8165527,PM2.5,72,86,81
India,Maharashtra,Pune,"Karve Road, Pune - MPCB",28-03-2024 23:00:00,18.5011743,73.8165527,NO2,2,2,2
India,Maharashtra,Pune,"Karve Road, Pune - MPCB",28-03-2024 23:00:00,18.5011743,73.8165527,SO2,20,24,23
India,Maharashtra,Pune,"Karve Road, Pune - MPCB",28-03-2024 23:00:00,18.5011743,73.8165527,OZONE,5,6,6
India,Maharashtra,Pune,"Katraj Dairy, Pune - MPCB",28-03-2024 23:00:00,18.454450,73.854155,NH3,1,6,3
India,Maharashtra,Pune,"Katraj Dairy, Pune - MPCB",28-03-2024 23:00:00,18.454450,73.854155,CO,29,76,48
India,Maharashtra,Pune,"Transport Nagar-Nigdi, Pune - IITM",28-03-2024 23:00:00,18.664282,73.763966,CO,46,67,59
India,Maharashtra,Solapur,"Dnyaneshwar Nagar, Solapur - MPCB",28-03-2024 23:00:00,17.6336264,75.9132495,OZONE,22,96,63
India,Maharashtra,Thane,"Kasarvadavali, Thane - MPCB",28-03-2024 23:00:00,19.26777,72.97182,PM2.5,45,114,75
India,Maharashtra,Thane,"Kasarvadavali, Thane - MPCB",28-03-2024 23:00:00,19.26777,72.97182,PM10,60,445,128
India,Maharashtra,Thane,"Kasarvadavali, Thane - MPCB",28-03-2024 23:00:00,19.26777,72.97182,NO2,30,69,44
India,Maharashtra,Thane,"Kasarvadavali, Thane - MPCB",28-03-2024 23:00:00,19.26777,72.97182,SO2,2,24,9
India,Maharashtra,Thane,"Pimpleshwar Mandir, Thane - MPCB",28-03-2024 23:00:00,19.192056,72.9585188,PM10,34,267,126
India,Maharashtra,Thane,"Pimpleshwar Mandir, Thane - MPCB",28-03-2024 23:00:00,19.192056,72.9585188,OZONE,1,71,21
India,Maharashtra,Thane,"Upvan Fort, Thane - MPCB",28-03-2024 23:00:00,19.222279,72.957979,CO,2,58,18
India,Maharashtra,Ulhasnagar,"Sidhi Vinayak Nagar, Ulhasnagar - MPCB",28-03-2024 23:00:00,19.235581,73.159121,PM10,96,156,126
India,Maharashtra,Ulhasnagar,"Sidhi Vinayak Nagar, Ulhasnagar - MPCB",28-03-2024 23:00:00,19.235581,73.159121,NH3,2,2,2
India,Maharashtra,Virar,"Bolinj, Virar - MPCB",28-03-2024 23:00:00,19.4458210,72.7988231,OZONE,3,61,41
India,Manipur,Imphal,"DM College of Science, Imphal - Manipur PCB",28-03-2024 23:00:00,24.8207389,93.9423085,OZONE,1,5,4
India,Manipur,Imphal,"Manipur University, Imphal - Manipur PCB",28-03-2024 23:00:00,24.7524239,93.9286218,PM2.5,41,250,93
India,Manipur,Imphal,"Manipur University, Imphal - Manipur PCB",28-03-2024 23:00:00,24.7524239,93.9286218,NO2,8,32,13
India,Manipur,Imphal,"Manipur University, Imphal - Manipur PCB",28-03-2024 23:00:00,24.7524239,93.9286218,NH3,NA,NA,NA
India,Manipur,Imphal,"Manipur University, Imphal - Manipur PCB",28-03-2024 23:00:00,24.7524239,93.9286218,SO2,79,83,81
India,Meghalaya,Shillong,"Lumpyngngad, Shillong - Meghalaya PCB",28-03-2024 23:00:00,25.5586,91.8985,CO,8,24,17
India,Nagaland,Kohima,"PWD Juction, Kohima - NPCB",28-03-2024 23:00:00,25.6635413,94.0989878,PM2.5,1,175,70
India,Nagaland,Kohima,"PWD Juction, Kohima - NPCB",28-03-2024 23:00:00,25.6635413,94.0989878,PM10,1,120,92
India,Odisha,Angul,"Hakimapada, Angul - OSPCB",28-03-2024 23:00:00,20.832874,85.104082,NO2,8,28,17
India,Odisha,Angul,"Hakimapada, Angul - OSPCB",28-03-2024 23:00:00,20.832874,85.104082,NH3,1,1,1
India,Odisha,Balasore,"Kalidaspur, Balasore - OSPCB",28-03-2024 23:00:00,21.51161,86.89088,SO2,16,62,27
India,Odisha,Barbil,"Forest Office, Barbil - OSPCB",28-03-2024 23:00:00,22.1166054,85.3945546,PM2.5,67,314,189
India,Odisha,Barbil,"Forest Office, Barbil - OSPCB",28-03-2024 23:00:00,22.1166054,85.3945546,NH3,4,5,5
India,Odisha,Baripada,"Meher Colony, Baripada - OSPCB",28-03-2024 23:00:00,21.941841,86.728318,NO2,1,2,1
India,Odisha,Bhubaneswar,"Lingraj Mandir, Bhubaneswar - OSPCB",28-03-2024 23:00:00,20.240790,85.836784,NO2,4,20,12
India,Odisha,Bhubaneswar,"Patia, Bhubaneswar - OSPCB",28-03-2024 23:00:00,20.34652,85.81630,PM2.5,2,83,37
India,Odisha,Bhubaneswar,"Patia, Bhubaneswar - OSPCB",28-03-2024 23:00:00,20.34652,85.81630,CO,70,102,88
India,Odisha,Bhubaneswar,"Patia, Bhubaneswar - OSPCB",28-03-2024 23:00:00,20.34652,85.81630,OZONE,11,186,83
India,Odisha,Bileipada,"Tata Township, Bileipada - OSPCB",28-03-2024 23:00:00,22.06156703,85.47409613,OZONE,NA,NA,NA
India,Odisha,Keonjhar,"Jagamohanpur, Keonjhar - OSPCB",28-03-2024 23:00:00,21.643900,85.599355,NH3,6,11,8
India,Odisha,Keonjhar,"Jagamohanpur, Keonjhar - OSPCB",28-03-2024 23:00:00,21.643900,85.599355,SO2,4,10,5
India,Odisha,Nayagarh,"Dabuna, Nayagarh - OSPCB",28-03-2024 23:00:00,21.847279,85.416905,NO2,NA,NA,NA
India,Odisha,Nayagarh,"Dabuna, Nayagarh - OSPCB",28-03-2024 23:00:00,21.847279,85.416905,NH3,NA,NA,NA
India,Odisha,Rourkela,"Raghunathpali, Rourkela - OSPCB",28-03-2024 23:00:00,22.220833,84.809444,PM2.5,85,261,183
India,Odisha,Suakati,"OMC Colony, Suakati - OSPCB",28-03-2024 23:00:00,21.606865,85.510538,PM2.5,129,283,194
India,Odisha,Suakati,"OMC Colony, Suakati - OSPCB",28-03-2024 23:00:00,21.606865,85.510538,PM10,111,401,164
India,Odisha,Talcher,"Talcher Coalfields,Talcher - OSPCB",28-03-2024 23:00:00,20.9360711,85.1707021,PM2.5,9,309,117
India,Odisha,Talcher,"Talcher Coalfields,Talcher - OSPCB",28-03-2024 23:00:00,20.9360711,85.1707021,PM10,26,308,115
India,Odisha,Tensa,"Barsua Iron Ore Mines, Tensa - OSPCB",28-03-2024 23:00:00,21.869985,85.167016,PM2.5,20,317,118
India,Odisha,Tensa,"Barsua Iron Ore Mines, Tensa - OSPCB",28-03-2024 23:00:00,21.869985,85.167016,NO2,28,52,37
India,Puducherry,Puducherry,"Jawahar Nagar, Puducherry - PPCC",28-03-2024 23:00:00,11.9309,79.8027,PM10,18,62,35
India,Puducherry,Puducherry,"Jawahar Nagar, Puducherry - PPCC",28-03-2024 23:00:00,11.9309,79.8027,NO2,2,25,8
India,Punjab,Amritsar,"Golden Temple, Amritsar - PPCB",28-03-2024 23:00:00,31.620000,74.876512,NH3,4,9,5
India,Punjab,Bathinda,"Hardev Nagar, Bathinda - PPCB",28-03-2024 23:00:00,30.233011,74.907758,NO2,NA,NA,NA
India,Punjab,Bathinda,"Hardev Nagar, Bathinda - PPCB",28-03-2024 23:00:00,30.233011,74.907758,SO2,NA,NA,NA
India,Punjab,Bathinda,"Hardev Nagar, Bathinda - PPCB",28-03-2024 23:00:00,30.233011,74.907758,CO,2,14,6
India,Punjab,Jalandhar,"Civil Line, Jalandhar - PPCB",28-03-2024 23:00:00,31.321907,75.578914,PM10,46,101,74
India,Punjab,Jalandhar,"Civil Line, Jalandhar - PPCB",28-03-2024 23:00:00,31.321907,75.578914,OZONE,19,91,75
India,Punjab,Khanna,"Kalal Majra, Khanna - PPCB",28-03-2024 23:00:00,30.736056 ,76.209694,NO2,24,24,24
India,Punjab,Khanna,"Kalal Majra, Khanna - PPCB",28-03-2024 23:00:00,30.736056 ,76.209694,NH3,13,13,13
India,Punjab,Ludhiana,"Punjab Agricultural University, Ludhiana - PPCB",28-03-2024 23:00:00,30.9028,75.8086,NH3,4,5,4
India,Punjab,Mandi Gobindgarh,"RIMT University, Mandi Gobindgarh - PPCB",28-03-2024 23:00:00,30.649961,76.331442,NO2,23,24,23
India,Punjab,Patiala,"Model Town, Patiala - PPCB",28-03-2024 23:00:00,30.349388,76.366642,NH3,7,7,7
India,Punjab,Patiala,"Model Town, Patiala - PPCB",28-03-2024 23:00:00,30.349388,76.366642,SO2,2,37,16
India,Punjab,Rupnagar,"Ratanpura, Rupnagar - Ambuja Cements",28-03-2024 23:00:00,31.0325454,76.5623046,PM10,124,400,217
India,Rajasthan,Ajmer,"Civil Lines,  Ajmer - RSPCB",28-03-2024 23:00:00,26.470859,74.646594,NO2,10,14,12
India,Rajasthan,Alwar,"Moti Doongri, Alwar - RSPCB",28-03-2024 23:00:00,27.554793,76.611536,PM2.5,43,107,69
India,Rajasthan,Banswara,"Rati Talai, Banswara - RSPCB",28-03-2024 23:00:00,23.555190,74.440010,PM10,100,245,143
India,Rajasthan,Baran,"Bamboliya, Baran - RSPCB",28-03-2024 23:00:00,25.106006,76.469948,SO2,7,20,11
India,Rajasthan,Barmer,"Railway Colony, Barmer - RSPCB",28-03-2024 23:00:00,25.747299,71.393989,NO2,6,18,12
India,Rajasthan,Bharatpur,"Krishna Nagar, Bharatpur - RSPCB",28-03-2024 23:00:00,27.215415,77.50873,OZONE,15,149,101
India,Rajasthan,Bhilwara,"Pratap Nagar, Bhilwara - RSPCB",28-03-2024 23:00:00,25.339605,74.618883,NH3,2,6,3
India,Rajasthan,Bhilwara,"Pratap Nagar, Bhilwara - RSPCB",28-03-2024 23:00:00,25.339605,74.618883,SO2,2,25,15
India,Rajasthan,Bhiwadi,"Vasundhara Nagar_UIT, Bhiwadi - RSPCB",28-03-2024 23:00:00,28.207266,76.829265,OZONE,5,84,53
India,Rajasthan,Bundi,"New Colony, Bundi - RSPCB",28-03-2024 23:00:00,25.435774,75.644272,NO2,9,90,31
India,Rajasthan,Bundi,"New Colony, Bundi - RSPCB",28-03-2024 23:00:00,25.435774,75.644272,CO,8,101,32
India,Rajasthan,Chittorgarh,"Shastri Nagar, Chittorgarh - RSPCB",28-03-2024 23:00:00,24.892047,74.623527,NO2,7,106,38
India,Rajasthan,Chittorgarh,"Shastri Nagar, Chittorgarh - RSPCB",28-03-2024 23:00:00,24.892047,74.623527,NH3,3,13,10
India,Rajasthan,Chittorgarh,"Shastri Nagar, Chittorgarh - RSPCB",28-03-2024 23:00:00,24.892047,74.623527,OZONE,1,95,63
India,Rajasthan,Churu,"Subash Chowk, Churu - RSPCB",28-03-2024 23:00:00,28.296139,74.961696,NH3,9,14,12
India,Rajasthan,Hanumangarh,"Housing Board, Hanumangarh - RSPCB",28-03-2024 23:00:00,29.610750,74.283608,PM2.5,20,263,67
India,Rajasthan,Jaipur,"Mansarovar Sector-12, Jaipur - RSPCB",28-03-2024 23:00:00,26.843698,75.766894,OZONE,62,100,70
India,Rajasthan,Jaipur,"RIICO Sitapura, Jaipur - RSPCB",28-03-2024 23:00:00,26.786682,75.827928,OZONE,3,96,46
India,Rajasthan,Jaipur,"Sector-2 Murlipura, Jaipur - RSPCB",28-03-2024 23:00:00,26.960669,75.771817,PM2.5,41,84,55
India,Rajasthan,Jaipur,"Sector-2 Murlipura, Jaipur - RSPCB",28-03-2024 23:00:00,26.960669,75.771817,CO,32,88,52
India,Rajasthan,Jaipur,"Shastri Nagar, Jaipur - RSPCB",28-03-2024 23:00:00,26.9502929,75.730943,NH3,1,14,6
India,Rajasthan,Jaipur,"Shastri Nagar, Jaipur - RSPCB",28-03-2024 23:00:00,26.9502929,75.730943,CO,21,62,39
India,Rajasthan,Jaisalmer,"Sadar Bazar, Jaisalmer - RSPCB",28-03-2024 23:00:00,26.912329,70.909168,PM2.5,17,228,98
India,Rajasthan,Jaisalmer,"Sadar Bazar, Jaisalmer - RSPCB",28-03-2024 23:00:00,26.912329,70.909168,PM10,84,500,284
India,Rajasthan,Jaisalmer,"Sadar Bazar, Jaisalmer - RSPCB",28-03-2024 23:00:00,26.912329,70.909168,SO2,4,12,8
India,Rajasthan,Jalore,"Mudtra Sili, Jalore - RSPCB",28-03-2024 23:00:00,25.344694,72.626208,NH3,4,11,7
India,Rajasthan,Jalore,"Mudtra Sili, Jalore - RSPCB",28-03-2024 23:00:00,25.344694,72.626208,CO,8,31,19
India,Rajasthan,Jhalawar,"Rajlaxmi Nagar, Jhalawar - RSPCB",28-03-2024 23:00:00,24.588397,76.172782,OZONE,1,92,47
India,Rajasthan,Jhunjhunu,"Indra Nagar, Jhunjhunu - RSPCB",28-03-2024 23:00:00,28.108988,75.386577,PM2.5,22,181,56
India,Rajasthan,Jodhpur,"Collectorate, Jodhpur - RSPCB",28-03-2024 23:00:00,26.268249,73.0193853,PM10,60,256,133
India,Rajasthan,Jodhpur,"Collectorate, Jodhpur - RSPCB",28-03-2024 23:00:00,26.268249,73.0193853,NO2,36,39,38
India,Rajasthan,Jodhpur,"Digari Kalan, Jodhpur - RSPCB",28-03-2024 23:00:00,26.295810,73.082283,SO2,3,8,6
India,Rajasthan,Jodhpur,"Jhalamand, Jodhpur - RSPCB",28-03-2024 23:00:00,26.215415,73.070156,NO2,4,42,32
India,Rajasthan,Jodhpur,"Jhalamand, Jodhpur - RSPCB",28-03-2024 23:00:00,26.215415,73.070156,SO2,2,34,10
India,Rajasthan,Jodhpur,"Mandor, Jodhpur - RSPCB",28-03-2024 23:00:00,26.358805,73.047444,NO2,28,62,37
India,Rajasthan,Jodhpur,"Samrat Ashok Udhyan, Jodhpur - RSPCB",28-03-2024 23:00:00,26.253384,72.976571,NH3,4,6,6
India,Rajasthan,Karauli,"Satyawati Vihar, Karauli - RSPCB",28-03-2024 23:00:00,26.506177,77.025989,NO2,NA,NA,NA
India,Rajasthan,Karauli,"Satyawati Vihar, Karauli - RSPCB",28-03-2024 23:00:00,26.506177,77.025989,OZONE,2,39,13
India,Rajasthan,Kota,"Dhanmandi, Kota - RSPCB",28-03-2024 23:00:00,25.164090,75.858137,PM10,88,208,126
India,Rajasthan,Kota,"Dhanmandi, Kota - RSPCB",28-03-2024 23:00:00,25.164090,75.858137,CO,19,123,51
India,Rajasthan,Kota,"Nayapura, Kota - RSPCB",28-03-2024 23:00:00,25.196024,75.855668,NH3,7,14,11
India,Rajasthan,Kota,"Shrinath Puram, Kota - RSPCB",28-03-2024 23:00:00,25.14389,75.821256,CO,23,62,46
India,Rajasthan,Nagaur,"Karni Colony, Nagaur - RSPCB",28-03-2024 23:00:00,27.213494,73.734444,PM10,NA,NA,NA
India,Rajasthan,Nagaur,"Karni Colony, Nagaur - RSPCB",28-03-2024 23:00:00,27.213494,73.734444,NO2,NA,NA,NA
India,Rajasthan,Nagaur,"Karni Colony, Nagaur - RSPCB",28-03-2024 23:00:00,27.213494,73.734444,NH3,NA,NA,NA
India,Rajasthan,Pali,"Indira Colony Vistar, Pali - RSPCB",28-03-2024 23:00:00,25.771061, 73.340227,CO,35,74,48
India,Rajasthan,Pratapgarh,"Pragati Nagar, Pratapgarh - RSPCB",28-03-2024 23:00:00,24.041198,74.780702,NH3,5,12,6
India,Rajasthan,Pratapgarh,"Pragati Nagar, Pratapgarh - RSPCB",28-03-2024 23:00:00,24.041198,74.780702,SO2,6,15,8
India,Rajasthan,Rajsamand,"Dhoinda, Rajsamand - RSPCB",28-03-2024 23:00:00,25.036360,73.883502,NO2,NA,NA,NA
India,Rajasthan,Sawai Madhopur,"Sahu Nagar, Sawai Madhopur - RSPCB",28-03-2024 23:00:00,26.031443,76.359327,CO,20,118,74
India,Rajasthan,Sikar,"Radhakishan Pura, Sikar - RSPCB",28-03-2024 23:00:00,27.608912,75.153302,PM10,72,214,116
India,Rajasthan,Sri Ganganagar,"Old City, Sri Ganganagar - RSPCB",28-03-2024 23:00:00,29.931624,73.864511,PM10,39,413,137
India,Rajasthan,Sri Ganganagar,"Old City, Sri Ganganagar - RSPCB",28-03-2024 23:00:00,29.931624,73.864511,SO2,6,10,8
India,Rajasthan,Tonk,"Shastri Nagar, Tonk - RSPCB",28-03-2024 23:00:00,26.159933,75.780517,CO,3,50,25
India,Rajasthan,Udaipur,"Ashok Nagar, Udaipur - RSPCB",28-03-2024 23:00:00,24.5886166,73.6321397,CO,2,75,46
India,Sikkim,Gangtok,"Zero Point GICI, Gangtok - SSPCB",28-03-2024 23:00:00,27.338530,88.614099,PM2.5,14,32,23
India,TamilNadu,Ariyalur,"Keelapalur, Ariyalur - TNPCB",28-03-2024 23:00:00,11.06825,79.07033,PM10,23,59,35
India,TamilNadu,Ariyalur,"Keelapalur, Ariyalur - TNPCB",28-03-2024 23:00:00,11.06825,79.07033,NO2,38,53,45
India,TamilNadu,Chengalpattu,"Crescent University, Chengalpattu - TNPCB",28-03-2024 23:00:00,12.8777316,80.0834807,OZONE,6,6,6
India,TamilNadu,Chennai,"Alandur Bus Depot, Chennai - CPCB",28-03-2024 23:00:00,12.9099161,80.1076538,PM2.5,38,61,50
India,TamilNadu,Chennai,"Alandur Bus Depot, Chennai - CPCB",28-03-2024 23:00:00,12.9099161,80.1076538,PM10,38,61,50
India,TamilNadu,Chennai,"Arumbakkam, Chennai - TNPCB",28-03-2024 23:00:00,13.0664,80.2112 ,NO2,9,27,16
India,TamilNadu,Chennai,"Kodungaiyur, Chennai - TNPCB",28-03-2024 23:00:00,13.1278,80.2642,NO2,8,15,11
India,TamilNadu,Chennai,"Manali, Chennai - CPCB",28-03-2024 23:00:00,13.164544,80.26285,NO2,6,13,9
India,TamilNadu,Chennai,"Manali, Chennai - CPCB",28-03-2024 23:00:00,13.164544,80.26285,CO,NA,NA,NA
India,TamilNadu,Chennai,"Manali, Chennai - CPCB",28-03-2024 23:00:00,13.164544,80.26285,OZONE,6,22,12
India,TamilNadu,Chennai,"Perungudi, Chennai - TNPCB",28-03-2024 23:00:00,12.9533,80.2357,PM2.5,12,83,40
India,TamilNadu,Chennai,"Perungudi, Chennai - TNPCB",28-03-2024 23:00:00,12.9533,80.2357,NO2,3,11,7
India,TamilNadu,Chennai,"Perungudi, Chennai - TNPCB",28-03-2024 23:00:00,12.9533,80.2357,SO2,2,8,4
India,TamilNadu,Chennai,"Royapuram, Chennai - TNPCB",28-03-2024 23:00:00,13.1036,80.2909,PM2.5,14,96,40
India,TamilNadu,Chennai,"Velachery Res. Area, Chennai - CPCB",28-03-2024 23:00:00,13.0052189,80.2398125,PM2.5,32,71,43
India,TamilNadu,Chennai,"Velachery Res. Area, Chennai - CPCB",28-03-2024 23:00:00,13.0052189,80.2398125,CO,4,105,58
India,TamilNadu,Coimbatore,"PSG College of Arts and Science, Coimbatore - TNPCB",28-03-2024 23:00:00,11.0328,77.0349,NO2,2,14,5
India,TamilNadu,Cuddalore,"Kudikadu, Cuddalore - TNPCB",28-03-2024 23:00:00,11.6829898,79.7532099,NO2,3,30,20
India,TamilNadu,Gummidipoondi,"Anthoni Pillai Nagar, Gummidipoondi - TNPCB",28-03-2024 23:00:00,13.4127,80.1081,PM10,64,166,101
India,TamilNadu,Kanchipuram,"Kilambi, Kanchipuram - TNPCB",28-03-2024 23:00:00,12.864618,79.659968,SO2,NA,NA,NA
India,TamilNadu,Kanchipuram,"Kilambi, Kanchipuram - TNPCB",28-03-2024 23:00:00,12.864618,79.659968,CO,NA,NA,NA
India,TamilNadu,Ooty,"Bombay Castel, Ooty - TNPCB",28-03-2024 23:00:00,11.4068288,76.7138973,NO2,1,61,18
India,TamilNadu,Ooty,"Bombay Castel, Ooty - TNPCB",28-03-2024 23:00:00,11.4068288,76.7138973,OZONE,4,6,5
India,TamilNadu,Palkalaiperur,"Bharathidasan University, Palkalaiperur - TNPCB",28-03-2024 23:00:00,10.681158,78.741746,CO,1,8,4
India,TamilNadu,Salem,"Sona College of Technology, Salem - TNPCB",28-03-2024 23:00:00,11.679111,78.125052,PM2.5,NA,NA,NA
India,TamilNadu,Salem,"Sona College of Technology, Salem - TNPCB",28-03-2024 23:00:00,11.679111,78.125052,OZONE,3,3,3
India,TamilNadu,Vellore,"Vasanthapuram, Vellore - TNPCB",28-03-2024 23:00:00,12.909494,79.131861,NH3,1,1,1
India,TamilNadu,Vellore,"Vasanthapuram, Vellore - TNPCB",28-03-2024 23:00:00,12.909494,79.131861,OZONE,2,2,2
India,TamilNadu,Virudhunagar,"Collectorate Office, Virudhunagar - TNPCB",28-03-2024 23:00:00,9.559382,77.948828,PM10,28,87,48
India,TamilNadu,Virudhunagar,"Collectorate Office, Virudhunagar - TNPCB",28-03-2024 23:00:00,9.559382,77.948828,NO2,2,15,7
India,TamilNadu,Virudhunagar,"Collectorate Office, Virudhunagar - TNPCB",28-03-2024 23:00:00,9.559382,77.948828,NH3,6,6,6
India,TamilNadu,Virudhunagar,"Collectorate Office, Virudhunagar - TNPCB",28-03-2024 23:00:00,9.559382,77.948828,SO2,5,8,6
India,TamilNadu,Virudhunagar,"Collectorate Office, Virudhunagar - TNPCB",28-03-2024 23:00:00,9.559382,77.948828,CO,28,42,38
India,Telangana,Hyderabad,"Bollaram Industrial Area, Hyderabad - TSPCB",28-03-2024 23:00:00,17.540891,78.358528,PM10,59,124,93
India,Telangana,Hyderabad,"Bollaram Industrial Area, Hyderabad - TSPCB",28-03-2024 23:00:00,17.540891,78.358528,NH3,2,4,3
India,Telangana,Hyderabad,"Bollaram Industrial Area, Hyderabad - TSPCB",28-03-2024 23:00:00,17.540891,78.358528,CO,18,55,35
India,Telangana,Hyderabad,"ECIL Kapra, Hyderabad - TSPCB",28-03-2024 23:00:00,17.470431,78.566959,PM2.5,NA,NA,NA
India,Telangana,Hyderabad,"Kokapet, Hyderabad - TSPCB",28-03-2024 23:00:00,17.393559,78.339194,OZONE,2,11,7
India,Telangana,Hyderabad,"Nacharam_TSIIC IALA, Hyderabad - TSPCB",28-03-2024 23:00:00,17.429398,78.569354,CO,30,36,35
India,Telangana,Hyderabad,"Nacharam_TSIIC IALA, Hyderabad - TSPCB",28-03-2024 23:00:00,17.429398,78.569354,OZONE,27,41,37
India,Telangana,Hyderabad,"New Malakpet, Hyderabad - TSPCB",28-03-2024 23:00:00,17.37206,78.50864,OZONE,1,59,31
India,Telangana,Hyderabad,"Ramachandrapuram, Hyderabad - TSPCB",28-03-2024 23:00:00,17.528544,78.286195,PM10,77,86,80
India,Telangana,Hyderabad,"Sanathnagar, Hyderabad - TSPCB",28-03-2024 23:00:00,17.4559458,78.4332152,PM2.5,40,148,73
India,Telangana,Hyderabad,"Somajiguda, Hyderabad - TSPCB",28-03-2024 23:00:00,17.417094,78.457437,PM10,NA,NA,NA
India,Telangana,Hyderabad,"Zoo Park, Hyderabad - TSPCB",28-03-2024 23:00:00,17.349694,78.451437,PM10,101,153,134
India,Tripura,Agartala,"Bardowali, Agartala - Tripura SPCB",28-03-2024 23:00:00,23.8175497,91.2726974,NO2,5,11,8
India,Tripura,Agartala,"Bardowali, Agartala - Tripura SPCB",28-03-2024 23:00:00,23.8175497,91.2726974,NH3,2,4,2
India,Tripura,Agartala,"Bardowali, Agartala - Tripura SPCB",28-03-2024 23:00:00,23.8175497,91.2726974,SO2,27,28,28
India,Tripura,Agartala,"Bardowali, Agartala - Tripura SPCB",28-03-2024 23:00:00,23.8175497,91.2726974,CO,16,30,24
India,Uttar_Pradesh,Agra,"Manoharpur, Agra - UPPCB",28-03-2024 23:00:00,27.23711,78.01936,NO2,31,31,31
India,Uttar_Pradesh,Agra,"Rohta, Agra - UPPCB",28-03-2024 23:00:00,27.106972,78.000111,PM10,9,107,61
India,Uttar_Pradesh,Agra,"Rohta, Agra - UPPCB",28-03-2024 23:00:00,27.106972,78.000111,SO2,4,17,10
India,Uttar_Pradesh,Agra,"Rohta, Agra - UPPCB",28-03-2024 23:00:00,27.106972,78.000111,CO,5,30,12
India,Uttar_Pradesh,Agra,"Sanjay Palace, Agra - UPPCB",28-03-2024 23:00:00,27.19865833,78.00598056,OZONE,46,104,68
India,Uttar_Pradesh,Agra,"Sector-3B Avas Vikas Colony, Agra - UPPCB",28-03-2024 23:00:00,27.19412,77.96237,SO2,22,27,23
India,Uttar_Pradesh,Agra,"Shastripuram, Agra - UPPCB",28-03-2024 23:00:00,27.19862,77.92066,SO2,16,19,17
India,Uttar_Pradesh,Baghpat,"Sardar Patel Inter College, Baghpat - UPPCB",28-03-2024 23:00:00,28.964949,77.278761,SO2,30,104,57
India,Uttar_Pradesh,Baghpat,"Sardar Patel Inter College, Baghpat - UPPCB",28-03-2024 23:00:00,28.964949,77.278761,CO,36,70,50
India,Uttar_Pradesh,Bareilly,"Civil Lines, Bareilly - UPPCB",28-03-2024 23:00:00,28.359581,79.414455,SO2,44,51,45
India,Uttar_Pradesh,Bareilly,"Civil Lines, Bareilly - UPPCB",28-03-2024 23:00:00,28.359581,79.414455,CO,12,109,55
India,Uttar_Pradesh,Bareilly,"Rajendra Nagar, Bareilly - UPPCB",28-03-2024 23:00:00,28.38910936,79.42963708,PM2.5,30,59,40
India,Uttar_Pradesh,Bareilly,"Rajendra Nagar, Bareilly - UPPCB",28-03-2024 23:00:00,28.38910936,79.42963708,PM10,58,116,75
India,Uttar_Pradesh,Bulandshahr,"Yamunapuram, Bulandshahr - UPPCB",28-03-2024 23:00:00,28.406963,77.849831,NH3,12,17,14
India,Uttar_Pradesh,Bulandshahr,"Yamunapuram, Bulandshahr - UPPCB",28-03-2024 23:00:00,28.406963,77.849831,CO,23,46,35
India,Uttar_Pradesh,Bulandshahr,"Yamunapuram, Bulandshahr - UPPCB",28-03-2024 23:00:00,28.406963,77.849831,OZONE,5,117,64
India,Uttar_Pradesh,Firozabad,"Nagla Bhau, Firozabad - UPPCB",28-03-2024 23:00:00,27.168897,78.376960,NH3,2,2,2
India,Uttar_Pradesh,Firozabad,"Vibhab Nagar, Firozabad - UPPCB",28-03-2024 23:00:00,27.1594,78.3953,NO2,14,14,14
India,Uttar_Pradesh,Ghaziabad,"Indirapuram, Ghaziabad - UPPCB",28-03-2024 23:00:00,28.646233,77.358075,NH3,7,11,9
India,Uttar_Pradesh,Ghaziabad,"Loni, Ghaziabad - UPPCB",28-03-2024 23:00:00,28.757294,77.278792,SO2,11,27,16
India,Uttar_Pradesh,Ghaziabad,"Loni, Ghaziabad - UPPCB",28-03-2024 23:00:00,28.757294,77.278792,CO,30,76,46
India,Uttar_Pradesh,Ghaziabad,"Sanjay Nagar, Ghaziabad - UPPCB",28-03-2024 23:00:00,28.685382,77.453839,PM10,81,149,121
India,Uttar_Pradesh,Ghaziabad,"Vasundhara, Ghaziabad - UPPCB",28-03-2024 23:00:00,28.6603346,77.3572563,PM10,86,151,114
India,Uttar_Pradesh,Ghaziabad,"Vasundhara, Ghaziabad - UPPCB",28-03-2024 23:00:00,28.6603346,77.3572563,NH3,9,24,15
India,Uttar_Pradesh,Gorakhpur,"Madan Mohan Malaviya University of Technology, Gorakhpur - UPPCB",28-03-2024 23:00:00,26.730136,83.433859,PM2.5,44,130,66
India,Uttar_Pradesh,Greater Noida,"Knowledge Park - V, Greater Noida - UPPCB",28-03-2024 23:00:00,28.557054,77.453663,PM10,100,186,145
India,Uttar_Pradesh,Hapur,"Anand Vihar, Hapur - UPPCB",28-03-2024 23:00:00,28.725645,77.749675,PM10,77,118,99
India,Uttar_Pradesh,Hapur,"Anand Vihar, Hapur - UPPCB",28-03-2024 23:00:00,28.725645,77.749675,CO,14,104,74
India,Uttar_Pradesh,Hapur,"Anand Vihar, Hapur - UPPCB",28-03-2024 23:00:00,28.725645,77.749675,OZONE,5,118,62
India,Uttar_Pradesh,Jhansi,"Shivaji Nagar, Jhansi - UPPCB",28-03-2024 23:00:00,25.4547,78.6039,NH3,6,6,6
India,Uttar_Pradesh,Kanpur,"Nehru Nagar, Kanpur - UPPCB",28-03-2024 23:00:00,26.4703136,80.3229863,PM2.5,34,292,113
India,Uttar_Pradesh,Kanpur,"Nehru Nagar, Kanpur - UPPCB",28-03-2024 23:00:00,26.4703136,80.3229863,PM10,29,151,79
India,Uttar_Pradesh,Khurja,"Kalindi Kunj, Khurja - UPPCB",28-03-2024 23:00:00,28.2348927,77.8683002,NO2,3,4,3
India,Uttar_Pradesh,Khurja,"Kalindi Kunj, Khurja - UPPCB",28-03-2024 23:00:00,28.2348927,77.8683002,CO,32,48,42
India,Uttar_Pradesh,Lucknow,"B R Ambedkar University, Lucknow - UPPCB",28-03-2024 23:00:00,26.766433,80.927299,CO,28,48,36
India,Uttar_Pradesh,Lucknow,"Gomti Nagar, Lucknow - UPPCB",28-03-2024 23:00:00,26.868120,81.005119,PM2.5,53,293,136
India,Uttar_Pradesh,Lucknow,"Gomti Nagar, Lucknow - UPPCB",28-03-2024 23:00:00,26.868120,81.005119,SO2,4,17,10
India,Uttar_Pradesh,Lucknow,"Kendriya Vidyalaya, Lucknow - CPCB",28-03-2024 23:00:00,26.906111,80.948222,NH3,3,17,11
India,Uttar_Pradesh,Lucknow,"Kendriya Vidyalaya, Lucknow - CPCB",28-03-2024 23:00:00,26.906111,80.948222,CO,29,80,50
India,Uttar_Pradesh,Lucknow,"Kukrail Picnic Spot-1, Lucknow - UPPCB",28-03-2024 23:00:00,26.90723,80.98579,PM2.5,77,304,184
India,Uttar_Pradesh,Lucknow,"Kukrail Picnic Spot-1, Lucknow - UPPCB",28-03-2024 23:00:00,26.90723,80.98579,PM10,84,170,122
India,Uttar_Pradesh,Lucknow,"Kukrail Picnic Spot-1, Lucknow - UPPCB",28-03-2024 23:00:00,26.90723,80.98579,NH3,2,2,2
India,Uttar_Pradesh,Lucknow,"Kukrail Picnic Spot-1, Lucknow - UPPCB",28-03-2024 23:00:00,26.90723,80.98579,OZONE,3,95,42
India,Uttar_Pradesh,Lucknow,"Lalbagh, Lucknow - CPCB",28-03-2024 23:00:00,26.8458805,80.9365541,NO2,5,30,10
India,Uttar_Pradesh,Lucknow,"Lalbagh, Lucknow - CPCB",28-03-2024 23:00:00,26.8458805,80.9365541,NH3,12,15,13
India,Uttar_Pradesh,Lucknow,"Lalbagh, Lucknow - CPCB",28-03-2024 23:00:00,26.8458805,80.9365541,SO2,1,17,7
India,Uttar_Pradesh,Lucknow,"Lalbagh, Lucknow - CPCB",28-03-2024 23:00:00,26.8458805,80.9365541,CO,44,119,90
India,Uttar_Pradesh,Lucknow,"Lalbagh, Lucknow - CPCB",28-03-2024 23:00:00,26.8458805,80.9365541,OZONE,18,75,49
India,Uttar_Pradesh,Meerut,"Ganga Nagar, Meerut - UPPCB",28-03-2024 23:00:00,28.999264,77.7590354,SO2,8,70,22
India,Uttar_Pradesh,Meerut,"Jai Bhim Nagar, Meerut - UPPCB",28-03-2024 23:00:00,28.9535882,77.7622941,NH3,7,10,8
India,Uttar_Pradesh,Meerut,"Pallavpuram Phase 2, Meerut - UPPCB",28-03-2024 23:00:00,29.063510,77.709723,PM2.5,36,126,70
India,Uttar_Pradesh,Meerut,"Pallavpuram Phase 2, Meerut - UPPCB",28-03-2024 23:00:00,29.063510,77.709723,CO,44,72,53
India,Uttar_Pradesh,Moradabad,"Buddhi Vihar, Moradabad - UPPCB",28-03-2024 23:00:00,28.83526,78.74460,PM10,76,169,114
India,Uttar_Pradesh,Moradabad,"Buddhi Vihar, Moradabad - UPPCB",28-03-2024 23:00:00,28.83526,78.74460,NO2,23,24,23
India,Uttar_Pradesh,Moradabad,"Buddhi Vihar, Moradabad - UPPCB",28-03-2024 23:00:00,28.83526,78.74460,NH3,2,2,2
India,Uttar_Pradesh,Moradabad,"Buddhi Vihar, Moradabad - UPPCB",28-03-2024 23:00:00,28.83526,78.74460,OZONE,12,38,26
India,Uttar_Pradesh,Moradabad,"Eco Herbal Park, Moradabad - UPPCB",28-03-2024 23:00:00,28.840739,78.697531,OZONE,12,47,30
India,Uttar_Pradesh,Moradabad,"Employment Office, Moradabad - UPPCB",28-03-2024 23:00:00,28.88528,78.73880,NH3,3,4,4
India,Uttar_Pradesh,Moradabad,"Employment Office, Moradabad - UPPCB",28-03-2024 23:00:00,28.88528,78.73880,CO,22,46,33
India,Uttar_Pradesh,Moradabad,"Jigar Colony, Moradabad - UPPCB",28-03-2024 23:00:00,28.856664,78.772638,OZONE,17,28,23
India,Uttar_Pradesh,Moradabad,"Kashiram Nagar, Moradabad - UPPCB",28-03-2024 23:00:00,28.849399,78.742362,PM10,84,183,118
India,Uttar_Pradesh,Moradabad,"Kashiram Nagar, Moradabad - UPPCB",28-03-2024 23:00:00,28.849399,78.742362,NH3,4,4,4
India,Uttar_Pradesh,Moradabad,"Kashiram Nagar, Moradabad - UPPCB",28-03-2024 23:00:00,28.849399,78.742362,CO,32,67,46
India,Uttar_Pradesh,Moradabad,"Transport Nagar, Moradabad - UPPCB",28-03-2024 23:00:00,28.802625,78.753728,PM10,79,161,103
India,Uttar_Pradesh,Muzaffarnagar,"New Mandi, Muzaffarnagar - UPPCB",28-03-2024 23:00:00,29.4723508,77.7194031,NH3,10,19,12
India,Uttar_Pradesh,Noida,"Sector - 125, Noida - UPPCB",28-03-2024 23:00:00,28.5447608,77.3231257,PM10,71,147,100
India,Uttar_Pradesh,Noida,"Sector - 125, Noida - UPPCB",28-03-2024 23:00:00,28.5447608,77.3231257,CO,41,74,52
India,Uttar_Pradesh,Noida,"Sector - 62, Noida - IMD",28-03-2024 23:00:00,28.6245479,77.3577104,PM10,93,157,132
India,Uttar_Pradesh,Noida,"Sector-1, Noida - UPPCB",28-03-2024 23:00:00,28.5898,77.3101,PM2.5,58,123,85
India,Uttar_Pradesh,Noida,"Sector-116, Noida - UPPCB",28-03-2024 23:00:00,28.569230,77.393848,PM10,103,162,141
India,Uttar_Pradesh,Noida,"Sector-116, Noida - UPPCB",28-03-2024 23:00:00,28.569230,77.393848,SO2,31,77,52
India,Uttar_Pradesh,Prayagraj,"Jhunsi, Prayagraj - UPPCB",28-03-2024 23:00:00,25.425602,81.917152,CO,8,40,24
India,Uttar_Pradesh,Prayagraj,"Motilal Nehru NIT, Prayagraj - UPPCB",28-03-2024 23:00:00,25.494,81.863,NH3,6,7,7
India,Uttar_Pradesh,Prayagraj,"Nagar Nigam, Prayagraj - UPPCB",28-03-2024 23:00:00,25.44919916 ,81.82735986 ,NH3,6,12,9
India,Uttar_Pradesh,Prayagraj,"Nagar Nigam, Prayagraj - UPPCB",28-03-2024 23:00:00,25.44919916 ,81.82735986 ,CO,13,76,35
India,Uttar_Pradesh,Varanasi,"Ardhali Bazar, Varanasi - UPPCB",28-03-2024 23:00:00,25.3505986,82.9083074,SO2,2,22,9
India,Uttar_Pradesh,Varanasi,"IESD Banaras Hindu University, Varanasi - UPPCB",28-03-2024 23:00:00,25.262326,82.995408,CO,8,22,10
India,Uttar_Pradesh,Varanasi,"Maldahiya, Varanasi - UPPCB",28-03-2024 23:00:00,25.32393,82.99687,NO2,1,2,2
India,Uttar_Pradesh,Vrindavan,"Omex Eternity, Vrindavan - UPPCB",28-03-2024 23:00:00,27.5714090,77.6557570,PM2.5,18,78,40
India,Uttar_Pradesh,Vrindavan,"Omex Eternity, Vrindavan - UPPCB",28-03-2024 23:00:00,27.5714090,77.6557570,CO,30,79,38
India,Uttarakhand,Dehradun,"Doon University, Dehradun - UKPCB",28-03-2024 23:00:00,30.269444,78.044167,NO2,1,7,3
India,Uttarakhand,Kashipur,"Govt. Girls Inter College, Kashipur - UKPCB",28-03-2024 23:00:00,29.2124114,78.9611753,NO2,5,20,9
India,Uttarakhand,Rishikesh,"Shivaji Nagar, Rishikesh - UKPCB",28-03-2024 23:00:00,30.075911,78.2859547,NO2,8,44,17
India,Uttarakhand,Rishikesh,"Shivaji Nagar, Rishikesh - UKPCB",28-03-2024 23:00:00,30.075911,78.2859547,SO2,4,6,5
India,West_Bengal,Barrackpore,"SVSPA Campus, Barrackpore - WBPCB",28-03-2024 23:00:00,22.7605581,88.3617589,SO2,NA,NA,NA
India,West_Bengal,Barrackpore,"SVSPA Campus, Barrackpore - WBPCB",28-03-2024 23:00:00,22.7605581,88.3617589,CO,8,44,25
India,West_Bengal,Durgapur,"Sidhu Kanhu Indoor Stadium, Durgapur - WBPCB",28-03-2024 23:00:00,23.5404352,87.2892225,PM10,57,153,110
India,West_Bengal,Howrah,"Belur Math, Howrah - WBPCB",28-03-2024 23:00:00,22.629801,88.352017,NO2,7,19,11
India,West_Bengal,Howrah,"Belur Math, Howrah - WBPCB",28-03-2024 23:00:00,22.629801,88.352017,OZONE,6,73,46
India,West_Bengal,Howrah,"Padmapukur, Howrah - WBPCB",28-03-2024 23:00:00,22.5687319,88.2797276,NH3,1,2,1
India,West_Bengal,Kolkata,"Ballygunge, Kolkata - WBPCB",28-03-2024 23:00:00,22.5367507,88.3638022,SO2,2,28,8
India,West_Bengal,Kolkata,"Ballygunge, Kolkata - WBPCB",28-03-2024 23:00:00,22.5367507,88.3638022,OZONE,8,40,29
India,West_Bengal,Kolkata,"Bidhannagar, Kolkata - WBPCB",28-03-2024 23:00:00,22.58157048,88.41002457,NO2,12,35,19
India,West_Bengal,Kolkata,"Fort William, Kolkata - WBPCB",28-03-2024 23:00:00,22.556640,88.342674,NH3,3,4,3
India,West_Bengal,Kolkata,"Fort William, Kolkata - WBPCB",28-03-2024 23:00:00,22.556640,88.342674,SO2,8,62,18
India,West_Bengal,Kolkata,"Jadavpur, Kolkata - WBPCB",28-03-2024 23:00:00,22.49929,88.36917,PM2.5,27,78,49
India,West_Bengal,Kolkata,"Jadavpur, Kolkata - WBPCB",28-03-2024 23:00:00,22.49929,88.36917,OZONE,11,116,66
India,West_Bengal,Kolkata,"Rabindra Bharati University, Kolkata - WBPCB",28-03-2024 23:00:00,22.627847,88.380669,NO2,22,23,23
India,West_Bengal,Kolkata,"Rabindra Bharati University, Kolkata - WBPCB",28-03-2024 23:00:00,22.627847,88.380669,SO2,1,43,10
India,West_Bengal,Kolkata,"Rabindra Bharati University, Kolkata - WBPCB",28-03-2024 23:00:00,22.627847,88.380669,OZONE,12,72,48
India,West_Bengal,Kolkata,"Rabindra Sarobar, Kolkata - WBPCB",28-03-2024 23:00:00,22.51106,88.35142,PM2.5,23,86,52
India,West_Bengal,Kolkata,"Victoria, Kolkata - WBPCB",28-03-2024 23:00:00,22.5448082,88.3403691,NH3,2,3,2
India,West_Bengal,Siliguri,"Ward-32 Bapupara, Siliguri - WBPCB",28-03-2024 23:00:00,26.6879226,88.4152495,SO2,8,13,11
India,Andhra_Pradesh,Chittoor,"Gangineni Cheruvu, Chittoor - APPCB",28-03-2024 23:00:00,13.204880,79.097889,PM10,27,68,47
India,Andhra_Pradesh,Kadapa,"Yerramukkapalli, Kadapa - APPCB",28-03-2024 23:00:00,14.465052,78.824187,CO,8,26,14
India,Andhra_Pradesh,Tirupati,"Tirumala, Tirupati - APPCB",28-03-2024 23:00:00,13.67,79.35,CO,14,48,28
India,Andhra_Pradesh,Tirupati,"Vaikuntapuram, Tirupati - APPCB",28-03-2024 23:00:00,13.615387,79.409230,PM10,13,143,54
India,Andhra_Pradesh,Tirupati,"Vaikuntapuram, Tirupati - APPCB",28-03-2024 23:00:00,13.615387,79.409230,SO2,4,5,5
India,Andhra_Pradesh,Vijayawada,"Kanuru, Vijayawada - APPCB",28-03-2024 23:00:00,16.486692,80.699436,PM10,55,67,62
India,Andhra_Pradesh,Vijayawada,"Kanuru, Vijayawada - APPCB",28-03-2024 23:00:00,16.486692,80.699436,SO2,6,10,8
India,Andhra_Pradesh,Vijayawada,"Rajiv Gandhi Park, Vijayawada - APPCB",28-03-2024 23:00:00,16.509717,80.612222,NH3,3,7,6
India,Andhra_Pradesh,Vijayawada,"Rajiv Gandhi Park, Vijayawada - APPCB",28-03-2024 23:00:00,16.509717,80.612222,OZONE,1,43,20
India,Andhra_Pradesh,Vijayawada,"Rajiv Nagar, Vijayawada - APPCB",28-03-2024 23:00:00,16.554731,80.649110,PM2.5,43,46,45
India,Arunachal_Pradesh,Naharlagun,"Naharlagun, Naharlagun - APSPCB",28-03-2024 23:00:00,27.103358,93.679645,PM2.5,15,206,64
India,Arunachal_Pradesh,Naharlagun,"Naharlagun, Naharlagun - APSPCB",28-03-2024 23:00:00,27.103358,93.679645,PM10,15,143,54
India,Arunachal_Pradesh,Naharlagun,"Naharlagun, Naharlagun - APSPCB",28-03-2024 23:00:00,27.103358,93.679645,NO2,3,3,3
India,Assam,Byrnihat,"Central Academy for SFS, Byrnihat - PCBA",28-03-2024 23:00:00,26.071318,91.87488,PM10,37,322,137
India,Assam,Byrnihat,"Central Academy for SFS, Byrnihat - PCBA",28-03-2024 23:00:00,26.071318,91.87488,NO2,38,112,71
India,Assam,Guwahati,"LGBI Airport, Guwahati - PCBA",28-03-2024 23:00:00,26.10887,91.589544,NH3,1,7,3
India,Assam,Guwahati,"LGBI Airport, Guwahati - PCBA",28-03-2024 23:00:00,26.10887,91.589544,SO2,4,28,12
India,Assam,Guwahati,"Pan Bazaar, Guwahati - PCBA",28-03-2024 23:00:00,26.187500,91.744194,PM2.5,NA,NA,NA
India,Assam,Guwahati,"Pan Bazaar, Guwahati - PCBA",28-03-2024 23:00:00,26.187500,91.744194,SO2,36,61,51
India,Assam,Guwahati,"Pan Bazaar, Guwahati - PCBA",28-03-2024 23:00:00,26.187500,91.744194,OZONE,15,17,17
India,Assam,Guwahati,"Railway Colony, Guwahati - PCBA",28-03-2024 23:00:00,26.181742,91.78063,PM10,NA,NA,NA
India,Assam,Nagaon,"Christianpatty, Nagaon - PCBA",28-03-2024 23:00:00,26.349082,92.68449,NO2,8,86,28
India,Assam,Nalbari,"Bata Chowk, Nalbari - PCBA",28-03-2024 23:00:00,26.446912,91.439057,NO2,6,51,18
India,Assam,Silchar,"Tarapur, Silchar - PCBA",28-03-2024 23:00:00,24.82827,92.79525,PM2.5,19,37,30
India,Assam,Silchar,"Tarapur, Silchar - PCBA",28-03-2024 23:00:00,24.82827,92.79525,NO2,13,13,13
India,Assam,Sivasagar,"Girls College, Sivasagar - PCBA",28-03-2024 23:00:00,26.987634,94.636574,NO2,8,22,13
India,Assam,Sivasagar,"Girls College, Sivasagar - PCBA",28-03-2024 23:00:00,26.987634,94.636574,NH3,1,1,1
India,Assam,Sivasagar,"Girls College, Sivasagar - PCBA",28-03-2024 23:00:00,26.987634,94.636574,CO,1,12,5
India,Assam,Sivasagar,"Girls College, Sivasagar - PCBA",28-03-2024 23:00:00,26.987634,94.636574,OZONE,1,26,3
India,Bihar,Araria,"Kharahiya Basti, Araria - BSPCB",28-03-2024 23:00:00,26.146529,87.454184,PM2.5,20,337,75
India,Bihar,Arrah,"New DM Office, Arrah - BSPCB",28-03-2024 23:00:00,25.5626095,84.663264,SO2,14,22,18
India,Bihar,Bettiah,"Kamalnath Nagar, Bettiah - BSPCB",28-03-2024 23:00:00,26.80365,84.51954,PM2.5,32,130,71
India,Bihar,Bettiah,"Kamalnath Nagar, Bettiah - BSPCB",28-03-2024 23:00:00,26.80365,84.51954,PM10,36,120,78
India,Bihar,Bettiah,"Kamalnath Nagar, Bettiah - BSPCB",28-03-2024 23:00:00,26.80365,84.51954,SO2,6,18,16
India,Bihar,Bettiah,"Kamalnath Nagar, Bettiah - BSPCB",28-03-2024 23:00:00,26.80365,84.51954,CO,62,72,65
India,Bihar,Bhagalpur,"DM Office_Kachari Chowk, Bhagalpur - BSPCB",28-03-2024 23:00:00,25.251013,86.989001,NO2,NA,NA,NA
India,Bihar,Bhagalpur,"Mayaganj, Bhagalpur - BSPCB",28-03-2024 23:00:00,25.265194,87.012947,NH3,NA,NA,NA
India,Bihar,Bihar Sharif,"D M Colony, Bihar Sharif - BSPCB",28-03-2024 23:00:00,25.204762,85.514960,PM2.5,48,117,80
India,Bihar,Bihar Sharif,"D M Colony, Bihar Sharif - BSPCB",28-03-2024 23:00:00,25.204762,85.514960,NO2,9,10,9
India,Bihar,Bihar Sharif,"D M Colony, Bihar Sharif - BSPCB",28-03-2024 23:00:00,25.204762,85.514960,CO,14,50,31
India,Bihar,Buxar,"Charitra Van, Buxar - BSPCB (Formerly known as Central Jail)",28-03-2024 23:00:00,25.567520,83.966379,PM2.5,42,157,90
India,Bihar,Buxar,"Charitra Van, Buxar - BSPCB (Formerly known as Central Jail)",28-03-2024 23:00:00,25.567520,83.966379,OZONE,23,168,109
India,Bihar,Gaya,"Collectorate, Gaya - BSPCB",28-03-2024 23:00:00,24.7955,84.9994,CO,26,64,47
India,Bihar,Gaya,"Kareemganj, Gaya - BSPCB",28-03-2024 23:00:00,24.792403,84.992416,CO,4,102,33
India,Bihar,Gaya,"SFTI Kusdihra, Gaya - BSPCB",28-03-2024 23:00:00,24.762518,84.982348,OZONE,15,99,69
India,Bihar,Hajipur,"Industrial Area, Hajipur - BSPCB",28-03-2024 23:00:00,25.697189,85.245900,NH3,5,7,6
India,Bihar,Hajipur,"Industrial Area, Hajipur - BSPCB",28-03-2024 23:00:00,25.697189,85.245900,SO2,7,8,7
India,Bihar,Hajipur,"Industrial Area, Hajipur - BSPCB",28-03-2024 23:00:00,25.697189,85.245900,OZONE,10,52,35
India,Bihar,Kishanganj,"SDM Office_Khagra, Kishanganj - BSPCB",28-03-2024 23:00:00,26.0881305,87.93840336,PM10,NA,NA,NA
India,Bihar,Kishanganj,"SDM Office_Khagra, Kishanganj - BSPCB",28-03-2024 23:00:00,26.0881305,87.93840336,NH3,10,14,12
India,Bihar,Motihari,"Gandak Colony, Motihari - BSPCB",28-03-2024 23:00:00,26.63086,84.90051,PM10,12,49,26
India,Bihar,Munger,"Town Hall, Munger - BSPCB",28-03-2024 23:00:00,25.376776,86.471523,PM2.5,47,123,82
India,Bihar,Munger,"Town Hall, Munger - BSPCB",28-03-2024 23:00:00,25.376776,86.471523,NH3,1,2,2
India,Bihar,Munger,"Town Hall, Munger - BSPCB",28-03-2024 23:00:00,25.376776,86.471523,SO2,21,52,32
India,Bihar,Munger,"Town Hall, Munger - BSPCB",28-03-2024 23:00:00,25.376776,86.471523,OZONE,25,32,29
India,Bihar,Muzaffarpur,"Buddha Colony, Muzaffarpur - BSPCB",28-03-2024 23:00:00,26.11442,85.39813,PM10,57,121,88
India,Bihar,Muzaffarpur,"Buddha Colony, Muzaffarpur - BSPCB",28-03-2024 23:00:00,26.11442,85.39813,SO2,7,25,11
India,Bihar,Muzaffarpur,"Buddha Colony, Muzaffarpur - BSPCB",28-03-2024 23:00:00,26.11442,85.39813,CO,10,27,19
India,Bihar,Muzaffarpur,"MIT-Daudpur Kothi, Muzaffarpur - BSPCB",28-03-2024 23:00:00,26.1403345,85.3650192,NO2,5,8,6
India,Bihar,Muzaffarpur,"Muzaffarpur Collectorate, Muzaffarpur - BSPCB",28-03-2024 23:00:00,26.1209,85.3647,NO2,6,13,9
India,Bihar,Patna,"DRM Office Danapur, Patna - BSPCB",28-03-2024 23:00:00,25.586562,85.043586,PM10,70,117,100
India,Bihar,Patna,"DRM Office Danapur, Patna - BSPCB",28-03-2024 23:00:00,25.586562,85.043586,NH3,3,3,3
India,Bihar,Patna,"DRM Office Danapur, Patna - BSPCB",28-03-2024 23:00:00,25.586562,85.043586,OZONE,15,59,45
India,Bihar,Patna,"Govt. High School Shikarpur, Patna - BSPCB",28-03-2024 23:00:00,25.592539,85.227158,PM2.5,42,111,76
India,Bihar,Patna,"Govt. High School Shikarpur, Patna - BSPCB",28-03-2024 23:00:00,25.592539,85.227158,CO,34,53,47
India,Bihar,Patna,"Muradpur, Patna - BSPCB",28-03-2024 23:00:00,25.619651,85.147382,OZONE,5,28,16
India,Bihar,Patna,"Samanpura, Patna - BSPCB",28-03-2024 23:00:00,25.596727,85.085624,NO2,13,39,27
India,Bihar,Patna,"Samanpura, Patna - BSPCB",28-03-2024 23:00:00,25.596727,85.085624,NH3,4,12,8
India,Bihar,Patna,"Samanpura, Patna - BSPCB",28-03-2024 23:00:00,25.596727,85.085624,CO,44,62,59
India,Bihar,Purnia,"Mariam Nagar, Purnia - BSPCB",28-03-2024 23:00:00,25.366336,87.117468,SO2,6,9,7
India,Bihar,Rajgir,"Dangi Tola, Rajgir - BSPCB",28-03-2024 23:00:00,25.03280,85.41948,OZONE,20,27,22
India,Bihar,Samastipur,"DM Office_Kasipur, Samastipur - BSPCB",28-03-2024 23:00:00,25.859655,85.77944,PM10,22,136,73
India,Bihar,Sasaram,"Dada Peer, Sasaram - BSPCB",28-03-2024 23:00:00,24.952822,84.002396,PM2.5,12,77,44
India,Bihar,Sasaram,"Dada Peer, Sasaram - BSPCB",28-03-2024 23:00:00,24.952822,84.002396,SO2,10,27,21
India,Bihar,Siwan,"Chitragupta Nagar, Siwan - BSPCB",28-03-2024 23:00:00,26.2271665,84.3570427,SO2,28,34,32
India,Bihar,Siwan,"Chitragupta Nagar, Siwan - BSPCB",28-03-2024 23:00:00,26.2271665,84.3570427,CO,32,102,49
India,Chandigarh,Chandigarh,"Sector 22, Chandigarh - CPCC",28-03-2024 23:00:00,30.735567,76.775714,PM2.5,28,153,72
India,Chandigarh,Chandigarh,"Sector 22, Chandigarh - CPCC",28-03-2024 23:00:00,30.735567,76.775714,PM10,53,209,109
India,Chandigarh,Chandigarh,"Sector-25, Chandigarh - CPCC",28-03-2024 23:00:00,30.751462,76.762879,PM2.5,97,152,121
India,Chandigarh,Chandigarh,"Sector-53, Chandigarh - CPCC",28-03-2024 23:00:00,30.719859,76.738637,PM2.5,38,137,83
India,Chhattisgarh,Bhilai,"32Bungalows, Bhilai - CECB",28-03-2024 23:00:00,21.194815,81.314770,NO2,27,37,32
India,Chhattisgarh,Bhilai,"32Bungalows, Bhilai - CECB",28-03-2024 23:00:00,21.194815,81.314770,NH3,6,7,6
India,Chhattisgarh,Bhilai,"Civic Center, Bhilai - Bhilai Steel Plant",28-03-2024 23:00:00,21.185571,81.343175,CO,26,112,71
India,Chhattisgarh,Bhilai,"Civic Center, Bhilai - Bhilai Steel Plant",28-03-2024 23:00:00,21.185571,81.343175,OZONE,10,73,47
India,Chhattisgarh,Bhilai,"Hathkhoj, Bhilai - CECB",28-03-2024 23:00:00,21.224231,81.408350,CO,13,51,29
India,Chhattisgarh,Bhilai,"Hathkhoj, Bhilai - CECB",28-03-2024 23:00:00,21.224231,81.408350,OZONE,5,21,16
India,Chhattisgarh,Bilaspur,"Mangala, Bilaspur - NTPC",28-03-2024 23:00:00,22.08815,82.13737,NO2,NA,NA,NA
India,Chhattisgarh,Bilaspur,"Mangala, Bilaspur - NTPC",28-03-2024 23:00:00,22.08815,82.13737,SO2,7,25,14
India,Chhattisgarh,Chhal,"Nawapara SECL Colony, Chhal - CECB",28-03-2024 23:00:00,22.118125,83.140608,SO2,10,14,12
India,Chhattisgarh,Kunjemura,"OP Jindal School, Kunjemura - CECB",28-03-2024 23:00:00,22.126650,83.483212,PM10,NA,NA,NA
India,Chhattisgarh,Kunjemura,"OP Jindal School, Kunjemura - CECB",28-03-2024 23:00:00,22.126650,83.483212,SO2,NA,NA,NA
India,Chhattisgarh,Kunjemura,"OP Jindal School, Kunjemura - CECB",28-03-2024 23:00:00,22.126650,83.483212,CO,NA,NA,NA
India,Chhattisgarh,Raipur,"AIIMS, Raipur - CECB",28-03-2024 23:00:00,21.258815,81.578979,PM10,46,81,59
India,Chhattisgarh,Raipur,"Krishak Nagar, Raipur - CECB",28-03-2024 23:00:00,21.237755,81.705301,PM2.5,33,70,49
India,Chhattisgarh,Raipur,"Krishak Nagar, Raipur - CECB",28-03-2024 23:00:00,21.237755,81.705301,NH3,1,1,1
India,Chhattisgarh,Raipur,"Siltara Phase-II, Raipur - CECB",28-03-2024 23:00:00,21.371751,81.664929,NH3,3,3,3
India,Chhattisgarh,Raipur,"Siltara Phase-II, Raipur - CECB",28-03-2024 23:00:00,21.371751,81.664929,CO,18,87,29
India,Delhi,Delhi,"Anand Vihar, Delhi - DPCC",28-03-2024 23:00:00,28.647622,77.3158090,PM10,116,256,174
India,Delhi,Delhi,"Anand Vihar, Delhi - DPCC",28-03-2024 23:00:00,28.647622,77.3158090,OZONE,4,176,74
India,Delhi,Delhi,"Bawana, Delhi - DPCC",28-03-2024 23:00:00,28.776200,77.051074,PM10,99,282,138
India,Delhi,Delhi,"CRRI Mathura Road, Delhi - IMD",28-03-2024 23:00:00,28.5512005,77.2735737,PM10,NA,NA,NA
India,Delhi,Delhi,"CRRI Mathura Road, Delhi - IMD",28-03-2024 23:00:00,28.5512005,77.2735737,CO,NA,NA,NA
India,Delhi,Delhi,"DTU, Delhi - CPCB",28-03-2024 23:00:00,28.7500499,77.1112615,PM10,94,233,139
India,Delhi,Delhi,"DTU, Delhi - CPCB",28-03-2024 23:00:00,28.7500499,77.1112615,NH3,8,12,9
India,Delhi,Delhi,"DTU, Delhi - CPCB",28-03-2024 23:00:00,28.7500499,77.1112615,CO,18,40,24
India,Delhi,Delhi,"Dr. Karni Singh Shooting Range, Delhi - DPCC",28-03-2024 23:00:00,28.498571,77.264840,PM10,108,167,133
India,Delhi,Delhi,"Dwarka-Sector 8, Delhi - DPCC ",28-03-2024 23:00:00,28.5710274,77.0719006,NH3,6,9,7
India,Delhi,Delhi,"IHBAS, Dilshad Garden, Delhi - CPCB",28-03-2024 23:00:00,28.6811736,77.3025234,PM10,115,156,135
India,Delhi,Delhi,"IHBAS, Dilshad Garden, Delhi - CPCB",28-03-2024 23:00:00,28.6811736,77.3025234,NO2,32,74,50
India,Delhi,Delhi,"IHBAS, Dilshad Garden, Delhi - CPCB",28-03-2024 23:00:00,28.6811736,77.3025234,SO2,3,48,24
India,Delhi,Delhi,"ITO, Delhi - CPCB",28-03-2024 23:00:00,28.628624,77.241060,PM2.5,54,300,132
India,Delhi,Delhi,"Jahangirpuri, Delhi - DPCC",28-03-2024 23:00:00,28.732820,77.170633,NO2,34,111,75
India,Delhi,Delhi,"Jahangirpuri, Delhi - DPCC",28-03-2024 23:00:00,28.732820,77.170633,SO2,11,58,24
India,Delhi,Delhi,"Jahangirpuri, Delhi - DPCC",28-03-2024 23:00:00,28.732820,77.170633,OZONE,1,80,24
India,Delhi,Delhi,"Jawaharlal Nehru Stadium, Delhi - DPCC",28-03-2024 23:00:00,28.580280,77.233829,SO2,19,53,36
India,Delhi,Delhi,"Lodhi Road, Delhi - IITM",28-03-2024 23:00:00,28.588333,77.221667,PM2.5,55,500,258
India,Delhi,Delhi,"Lodhi Road, Delhi - IMD",28-03-2024 23:00:00,28.5918245,77.2273074,PM2.5,35,154,90
India,Delhi,Delhi,"Lodhi Road, Delhi - IMD",28-03-2024 23:00:00,28.5918245,77.2273074,PM10,81,157,112
India,Delhi,Delhi,"Lodhi Road, Delhi - IMD",28-03-2024 23:00:00,28.5918245,77.2273074,CO,9,21,14
India,Delhi,Delhi,"Major Dhyan Chand National Stadium, Delhi - DPCC",28-03-2024 23:00:00,28.611281,77.237738,PM10,99,156,122
India,Delhi,Delhi,"Major Dhyan Chand National Stadium, Delhi - DPCC",28-03-2024 23:00:00,28.611281,77.237738,SO2,9,31,18
India,Delhi,Delhi,"Mundka, Delhi - DPCC",28-03-2024 23:00:00,28.684678,77.076574,NH3,5,8,6
India,Delhi,Delhi,"NSIT Dwarka, Delhi - CPCB",28-03-2024 23:00:00,28.60909,77.0325413,PM10,133,232,172
India,Delhi,Delhi,"NSIT Dwarka, Delhi - CPCB",28-03-2024 23:00:00,28.60909,77.0325413,CO,27,84,51
India,Delhi,Delhi,"Najafgarh, Delhi - DPCC",28-03-2024 23:00:00,28.570173,76.933762,NO2,4,19,9
India,Delhi,Delhi,"Narela, Delhi - DPCC",28-03-2024 23:00:00,28.822836,77.101981,NH3,6,16,8
India,Delhi,Delhi,"Narela, Delhi - DPCC",28-03-2024 23:00:00,28.822836,77.101981,OZONE,14,154,58
India,Delhi,Delhi,"Nehru Nagar, Delhi - DPCC",28-03-2024 23:00:00,28.567890,77.250515,PM2.5,51,208,113
India,Delhi,Delhi,"Nehru Nagar, Delhi - DPCC",28-03-2024 23:00:00,28.567890,77.250515,NO2,9,26,17
India,Delhi,Delhi,"North Campus, DU, Delhi - IMD",28-03-2024 23:00:00,28.6573814,77.1585447,OZONE,1,45,18
India,Delhi,Delhi,"Okhla Phase-2, Delhi - DPCC",28-03-2024 23:00:00,28.530785,77.271255,NO2,50,174,96
India,Delhi,Delhi,"Punjabi Bagh, Delhi - DPCC",28-03-2024 23:00:00,28.674045,77.131023,OZONE,1,141,46
India,Delhi,Delhi,"Pusa, Delhi - DPCC",28-03-2024 23:00:00,28.639652,77.146275,PM2.5,56,262,114
India,Delhi,Delhi,"Pusa, Delhi - DPCC",28-03-2024 23:00:00,28.639652,77.146275,NO2,57,133,101
India,Delhi,Delhi,"Pusa, Delhi - DPCC",28-03-2024 23:00:00,28.639652,77.146275,CO,29,117,60
India,Delhi,Delhi,"Pusa, Delhi - DPCC",28-03-2024 23:00:00,28.639652,77.146275,OZONE,10,109,36
India,Delhi,Delhi,"Rohini, Delhi - DPCC",28-03-2024 23:00:00,28.732528,77.119920,PM2.5,33,327,143
India,Delhi,Delhi,"Rohini, Delhi - DPCC",28-03-2024 23:00:00,28.732528,77.119920,PM10,89,220,142
India,Delhi,Delhi,"Rohini, Delhi - DPCC",28-03-2024 23:00:00,28.732528,77.119920,NH3,8,11,10
India,Delhi,Delhi,"Rohini, Delhi - DPCC",28-03-2024 23:00:00,28.732528,77.119920,SO2,11,52,22
India,Delhi,Delhi,"Shadipur, Delhi - CPCB",28-03-2024 23:00:00,28.6514781,77.1473105,PM10,121,463,187
India,Delhi,Delhi,"Shadipur, Delhi - CPCB",28-03-2024 23:00:00,28.6514781,77.1473105,NH3,5,9,7
India,Delhi,Delhi,"Shadipur, Delhi - CPCB",28-03-2024 23:00:00,28.6514781,77.1473105,CO,28,72,42
India,Delhi,Delhi,"Sonia Vihar, Delhi - DPCC",28-03-2024 23:00:00,28.710508,77.249485,NO2,20,78,38
India,Delhi,Delhi,"Sonia Vihar, Delhi - DPCC",28-03-2024 23:00:00,28.710508,77.249485,OZONE,8,78,40
India,Delhi,Delhi,"Sri Aurobindo Marg, Delhi - DPCC",28-03-2024 23:00:00,28.531346,77.190156,NH3,7,9,8
India,Delhi,Delhi,"Sri Aurobindo Marg, Delhi - DPCC",28-03-2024 23:00:00,28.531346,77.190156,CO,21,44,30
India,Delhi,Delhi,"Vivek Vihar, Delhi - DPCC",28-03-2024 23:00:00,28.672342,77.315260,PM2.5,65,240,114
India,Delhi,Delhi,"Vivek Vihar, Delhi - DPCC",28-03-2024 23:00:00,28.672342,77.315260,SO2,33,54,42
India,Gujarat,Ahmedabad,"Chandkheda, Ahmedabad - IITM",28-03-2024 23:00:00,23.107969,72.574648,PM2.5,89,242,128
India,Gujarat,Ahmedabad,"Chandkheda, Ahmedabad - IITM",28-03-2024 23:00:00,23.107969,72.574648,PM10,86,160,104
India,Gujarat,Ahmedabad,"Gyaspur, Ahmedabad - IITM",28-03-2024 23:00:00,22.977134,72.553024,PM2.5,66,411,203
India,Gujarat,Ahmedabad,"Gyaspur, Ahmedabad - IITM",28-03-2024 23:00:00,22.977134,72.553024,PM10,74,430,164
India,Gujarat,Ahmedabad,"Gyaspur, Ahmedabad - IITM",28-03-2024 23:00:00,22.977134,72.553024,OZONE,7,20,14
India,Gujarat,Ahmedabad,"Maninagar, Ahmedabad - GPCB",28-03-2024 23:00:00,23.002657,72.591912,PM10,20,326,102
India,Gujarat,Ahmedabad,"Raikhad, Ahmedabad - IITM",28-03-2024 23:00:00,23.020509,72.579261,PM2.5,48,362,92
India,Gujarat,Ahmedabad,"Rakhial, Ahmedabad - IITM",28-03-2024 23:00:00,23.016834,72.625775,PM10,62,172,99
India,Gujarat,Ahmedabad,"Rakhial, Ahmedabad - IITM",28-03-2024 23:00:00,23.016834,72.625775,NH3,4,26,22
India,Gujarat,Ahmedabad,"SAC ISRO Satellite, Ahmedabad - IITM",28-03-2024 23:00:00,23.023389,72.515201,PM10,106,107,107
India,Gujarat,Ahmedabad,"SAC ISRO Satellite, Ahmedabad - IITM",28-03-2024 23:00:00,23.023389,72.515201,SO2,3,8,5
India,Gujarat,Ahmedabad,"SVPI Airport Hansol, Ahmedabad - IITM",28-03-2024 23:00:00,23.076793,72.627874,NO2,14,20,17
India,Gujarat,Ahmedabad,"Sardar Vallabhbhai Patel Stadium, Ahmedabad - IITM",28-03-2024 23:00:00,23.043070,72.562968,PM10,77,157,96
India,Gujarat,Ankleshwar,"GIDC, Ankleshwar - GPCB",28-03-2024 23:00:00,21.613267,73.010555,OZONE,21,34,28
India,Gujarat,Gandhinagar,"GIFT City, Gandhinagar - IITM",28-03-2024 23:00:00,23.163798,72.677768,SO2,8,12,10
India,Gujarat,Gandhinagar,"IIPHG Lekawada, Gandhinagar - IITM",28-03-2024 23:00:00,23.243639,72.68994,PM10,51,97,74
India,Gujarat,Gandhinagar,"IIPHG Lekawada, Gandhinagar - IITM",28-03-2024 23:00:00,23.243639,72.68994,NO2,37,43,40
India,Gujarat,Gandhinagar,"IIPHG Lekawada, Gandhinagar - IITM",28-03-2024 23:00:00,23.243639,72.68994,NH3,6,7,7
India,Gujarat,Nandesari,"GIDC, Nandesari - Nandesari Ind. Association",28-03-2024 23:00:00,22.410802,73.097923,PM10,117,500,242
India,Gujarat,Nandesari,"GIDC, Nandesari - Nandesari Ind. Association",28-03-2024 23:00:00,22.410802,73.097923,NO2,5,88,18
India,Gujarat,Surat,"Science Center, Surat - SMC",28-03-2024 23:00:00,21.170046,72.795405,PM2.5,7,62,28
India,Gujarat,Vapi,"Phase-1 GIDC, Vapi - GPCB",28-03-2024 23:00:00,20.362421,72.918013,PM2.5,29,101,58
India,Gujarat,Vatva,"Phase-4 GIDC, Vatva - GPCB",28-03-2024 23:00:00,22.969611,72.643500,PM10,44,162,79
India,Gujarat,Vatva,"Phase-4 GIDC, Vatva - GPCB",28-03-2024 23:00:00,22.969611,72.643500,NH3,5,15,9
India,Gujarat,Vatva,"Phase-4 GIDC, Vatva - GPCB",28-03-2024 23:00:00,22.969611,72.643500,OZONE,7,35,18
India,Haryana,Ambala,"Patti Mehar, Ambala - HSPCB",28-03-2024 23:00:00,30.379589,76.778328,SO2,9,42,17
India,Haryana,Ambala,"Patti Mehar, Ambala - HSPCB",28-03-2024 23:00:00,30.379589,76.778328,OZONE,17,33,20
India,Haryana,Bahadurgarh,"Arya Nagar, Bahadurgarh - HSPCB",28-03-2024 23:00:00,28.6701,76.9254,NO2,33,40,36
India,Haryana,Ballabgarh,"Nathu Colony, Ballabgarh - HSPCB",28-03-2024 23:00:00,28.3419248,77.319699,SO2,3,44,22
India,Haryana,Charkhi Dadri,"Mini Secretariat, Charkhi Dadri - HSPCB",28-03-2024 23:00:00,28.593883,76.270653,PM2.5,66,179,89
India,Haryana,Charkhi Dadri,"Mini Secretariat, Charkhi Dadri - HSPCB",28-03-2024 23:00:00,28.593883,76.270653,OZONE,13,17,15
India,Haryana,Dharuhera,"Municipal Corporation Office, Dharuhera -  HSPCB",28-03-2024 23:00:00,28.206800,76.799700,PM2.5,45,181,94
India,Haryana,Dharuhera,"Municipal Corporation Office, Dharuhera -  HSPCB",28-03-2024 23:00:00,28.206800,76.799700,NH3,9,25,16
India,Haryana,Dharuhera,"Municipal Corporation Office, Dharuhera -  HSPCB",28-03-2024 23:00:00,28.206800,76.799700,CO,NA,NA,NA
India,Haryana,Faridabad,"Sector 11, Faridabad - HSPCB",28-03-2024 23:00:00,28.376058,77.315741,PM2.5,156,250,214
India,Haryana,Faridabad,"Sector 30, Faridabad - HSPCB",28-03-2024 23:00:00,28.4417,77.3217,NO2,28,32,31
India,Haryana,Fatehabad,"Huda Sector, Fatehabad - HSPCB",28-03-2024 23:00:00,29.503664,75.467934,PM2.5,3,56,31
India,Haryana,Gurugram,"Sector-51, Gurugram - HSPCB",28-03-2024 23:00:00,28.4227,77.0667,PM2.5,66,310,164
India,Haryana,Gurugram,"Sector-51, Gurugram - HSPCB",28-03-2024 23:00:00,28.4227,77.0667,NH3,6,14,8
India,Haryana,Gurugram,"Teri Gram, Gurugram - HSPCB",28-03-2024 23:00:00,28.4275,77.1465,PM2.5,58,303,163
India,Haryana,Gurugram,"Teri Gram, Gurugram - HSPCB",28-03-2024 23:00:00,28.4275,77.1465,OZONE,13,18,15
India,Haryana,Hisar,"Urban Estate-II, Hisar - HSPCB",28-03-2024 23:00:00,29.140560,75.744941,PM2.5,42,70,56
India,Haryana,Jind,"Police Lines, Jind - HSPCB",28-03-2024 23:00:00,29.307814,76.337619,SO2,4,10,6
India,Haryana,Kaithal,"Rishi Nagar, Kaithal - HSPCB",28-03-2024 23:00:00,29.8006,76.4155,SO2,2,35,17
India,Haryana,Kaithal,"Rishi Nagar, Kaithal - HSPCB",28-03-2024 23:00:00,29.8006,76.4155,OZONE,13,25,19
India,Haryana,Karnal,"Sector-12, Karnal - HSPCB",28-03-2024 23:00:00,29.695300,77.002700,PM2.5,59,78,65
India,Haryana,Karnal,"Sector-12, Karnal - HSPCB",28-03-2024 23:00:00,29.695300,77.002700,PM10,44,73,57
India,Haryana,Karnal,"Sector-12, Karnal - HSPCB",28-03-2024 23:00:00,29.695300,77.002700,OZONE,19,21,20
India,Haryana,Kurukshetra,"Sector-7, Kurukshetra - HSPCB",28-03-2024 23:00:00,29.966942,76.875879,CO,6,30,20
India,Haryana,Kurukshetra,"Sector-7, Kurukshetra - HSPCB",28-03-2024 23:00:00,29.966942,76.875879,OZONE,11,62,43
India,Haryana,Mandikhera,"General Hospital, Mandikhera - HSPCB",28-03-2024 23:00:00,27.9002,76.9938,PM2.5,20,84,41
India,Haryana,Mandikhera,"General Hospital, Mandikhera - HSPCB",28-03-2024 23:00:00,27.9002,76.9938,PM10,64,131,103
India,Haryana,Mandikhera,"General Hospital, Mandikhera - HSPCB",28-03-2024 23:00:00,27.9002,76.9938,OZONE,22,38,29
India,Haryana,Manesar,"Sector-2 IMT, Manesar - HSPCB",28-03-2024 23:00:00,28.360699,76.936090,PM10,53,86,69
India,Haryana,Manesar,"Sector-2 IMT, Manesar - HSPCB",28-03-2024 23:00:00,28.360699,76.936090,CO,8,28,16
India,Haryana,Narnaul,"Shastri Nagar, Narnaul - HSPCB",28-03-2024 23:00:00,28.060249,76.113115,NH3,4,24,11
India,Haryana,Narnaul,"Shastri Nagar, Narnaul - HSPCB",28-03-2024 23:00:00,28.060249,76.113115,SO2,12,24,13
India,Haryana,Palwal,"Shyam Nagar, Palwal - HSPCB",28-03-2024 23:00:00,28.1485564,77.3320667,PM10,75,143,100
India,Haryana,Palwal,"Shyam Nagar, Palwal - HSPCB",28-03-2024 23:00:00,28.1485564,77.3320667,NH3,8,9,9
India,Haryana,Palwal,"Shyam Nagar, Palwal - HSPCB",28-03-2024 23:00:00,28.1485564,77.3320667,SO2,1,63,17
India,Haryana,Panchkula,"Sector-6, Panchkula - HSPCB ",28-03-2024 23:00:00,30.7057778,76.8531805555555,OZONE,47,59,53
India,Haryana,Sirsa,"F-Block, Sirsa - HSPCB",28-03-2024 23:00:00,29.536400,75.015800,PM10,9,80,42
India,Haryana,Sonipat,"Murthal, Sonipat - HSPCB",28-03-2024 23:00:00,29.027200,77.062100,OZONE,16,36,27
India,Haryana,Yamuna Nagar,"Gobind Pura, Yamuna Nagar - HSPCB",28-03-2024 23:00:00,30.1480566,77.2893471,PM10,60,103,76
India,Haryana,Yamuna Nagar,"Gobind Pura, Yamuna Nagar - HSPCB",28-03-2024 23:00:00,30.1480566,77.2893471,NO2,3,4,4
India,Himachal Pradesh,Baddi,"HIMUDA Complex Phase-1, Baddi - HPPCB",28-03-2024 23:00:00,30.943887,76.801991,PM2.5,8,157,72
India,Himachal Pradesh,Baddi,"HIMUDA Complex Phase-1, Baddi - HPPCB",28-03-2024 23:00:00,30.943887,76.801991,PM10,67,174,117
India,Himachal Pradesh,Baddi,"HIMUDA Complex Phase-1, Baddi - HPPCB",28-03-2024 23:00:00,30.943887,76.801991,SO2,9,58,29
India,Himachal Pradesh,Baddi,"HIMUDA Complex Phase-1, Baddi - HPPCB",28-03-2024 23:00:00,30.943887,76.801991,OZONE,25,102,74
India,Jharkhand,Dhanbad,"Kalakusuma, Dhanbad - DMC",28-03-2024 23:00:00,23.811548,86.481238,PM10,98,238,141
India,Jharkhand,Dhanbad,"Kalakusuma, Dhanbad - DMC",28-03-2024 23:00:00,23.811548,86.481238,NO2,13,26,20
India,Jharkhand,Dhanbad,"Sardar Patel Nagar, Dhanbad - JSPCB",28-03-2024 23:00:00,23.80569,86.44268,PM10,NA,NA,NA
India,Karnataka,Bagalkot,"Vidayagiri, Bagalkot - KSPCB",28-03-2024 23:00:00,16.172806,75.659694,PM2.5,25,38,36
India,Karnataka,Bagalkot,"Vidayagiri, Bagalkot - KSPCB",28-03-2024 23:00:00,16.172806,75.659694,NO2,9,10,9
India,Karnataka,Bengaluru,"BTM Layout, Bengaluru - CPCB",28-03-2024 23:00:00,12.9135218,77.5950804,SO2,9,10,9
India,Karnataka,Bengaluru,"Bapuji Nagar, Bengaluru - KSPCB",28-03-2024 23:00:00,12.951913,77.539784,PM10,68,134,93
India,Karnataka,Bengaluru,"Bapuji Nagar, Bengaluru - KSPCB",28-03-2024 23:00:00,12.951913,77.539784,OZONE,4,29,22
India,Karnataka,Bengaluru,"Hombegowda Nagar, Bengaluru - KSPCB",28-03-2024 23:00:00,12.938539,77.590100,NH3,1,2,2
India,Karnataka,Bengaluru,"Jigani, Bengaluru - KSPCB",28-03-2024 23:00:00,12.7816279,77.6299145,OZONE,8,69,40
India,Karnataka,Bengaluru,"Peenya, Bengaluru - CPCB",28-03-2024 23:00:00,13.0270199,77.494094,NO2,5,31,16
India,Karnataka,Bengaluru,"Peenya, Bengaluru - CPCB",28-03-2024 23:00:00,13.0270199,77.494094,SO2,4,8,6
India,Karnataka,Bengaluru,"Shivapura_Peenya, Bengaluru - KSPCB",28-03-2024 23:00:00,13.0246342,77.5080115,PM10,54,110,77
India,Karnataka,Bengaluru,"Shivapura_Peenya, Bengaluru - KSPCB",28-03-2024 23:00:00,13.0246342,77.5080115,NO2,15,16,16
India,Karnataka,Bengaluru,"Shivapura_Peenya, Bengaluru - KSPCB",28-03-2024 23:00:00,13.0246342,77.5080115,NH3,4,4,4
India,Karnataka,Bengaluru,"Shivapura_Peenya, Bengaluru - KSPCB",28-03-2024 23:00:00,13.0246342,77.5080115,SO2,5,31,15
India,Karnataka,Bidar,"Naubad, Bidar - KSPCB",28-03-2024 23:00:00,17.930306,77.482194,PM10,75,114,95
India,Karnataka,Bidar,"Naubad, Bidar - KSPCB",28-03-2024 23:00:00,17.930306,77.482194,SO2,16,20,17
India,Karnataka,Bidar,"Naubad, Bidar - KSPCB",28-03-2024 23:00:00,17.930306,77.482194,OZONE,21,51,46
India,Karnataka,Chamarajanagar,"Urban, Chamarajanagar - KSPCB",28-03-2024 23:00:00,11.55358,76.55521,SO2,4,10,5
India,Karnataka,Chikkaballapur,"Chikkaballapur Rural, Chikkaballapur - KSPCB",28-03-2024 23:00:00,13.428828,77.731418,NO2,7,18,11
India,Karnataka,Chikkamagaluru,"Kalyana Nagara, Chikkamagaluru - KSPCB",28-03-2024 23:00:00,13.328028,75.797056,NH3,3,5,4
India,Karnataka,Chikkamagaluru,"Kalyana Nagara, Chikkamagaluru - KSPCB",28-03-2024 23:00:00,13.328028,75.797056,SO2,2,10,7
India,Karnataka,Chikkamagaluru,"Kalyana Nagara, Chikkamagaluru - KSPCB",28-03-2024 23:00:00,13.328028,75.797056,OZONE,22,55,53
India,Karnataka,Davanagere,"Devaraj Urs Badavane, Davanagere - KSPCB",28-03-2024 23:00:00,14.475800,75.905200,PM10,47,165,86
India,Karnataka,Davanagere,"Devaraj Urs Badavane, Davanagere - KSPCB",28-03-2024 23:00:00,14.475800,75.905200,OZONE,21,35,26
India,Karnataka,Dharwad,"Kalabhavan, Dharwad - KSPCB",28-03-2024 23:00:00,15.459706,75.008381,SO2,1,6,2
India,Karnataka,Gadag,"Panchal Nagar, Gadag - KSPCB",28-03-2024 23:00:00,15.411456,75.638133,CO,44,60,50
India,Karnataka,Hassan,"B.Katihalli, Hassan - KSPCB",28-03-2024 23:00:00,13.008556,76.125258,PM2.5,40,85,59
India,Karnataka,Hassan,"B.Katihalli, Hassan - KSPCB",28-03-2024 23:00:00,13.008556,76.125258,NO2,8,33,19
India,Karnataka,Hassan,"B.Katihalli, Hassan - KSPCB",28-03-2024 23:00:00,13.008556,76.125258,SO2,22,30,24
India,Karnataka,Haveri,"Ashwini Nagar, Haveri - KSPCB",28-03-2024 23:00:00,14.791800,75.389600,PM2.5,34,65,53
India,Karnataka,Haveri,"Ashwini Nagar, Haveri - KSPCB",28-03-2024 23:00:00,14.791800,75.389600,PM10,59,96,73
India,Karnataka,Haveri,"Ashwini Nagar, Haveri - KSPCB",28-03-2024 23:00:00,14.791800,75.389600,CO,36,37,36
India,Karnataka,Hubballi,"Deshpande Nagar, Hubballi - KSPCB",28-03-2024 23:00:00,15.351773,75.140726,SO2,1,2,2
India,Karnataka,Hubballi,"Lingaraj Nagar, Hubballi - KSPCB",28-03-2024 23:00:00,15.3714823,75.1160168,NH3,2,2,2
