country,state,city,station,last_update,latitude,longitude,pollutant_id,pollutant_min,pollutant_max,pollutant_avg
India,Andhra_Pradesh,Amaravati,"Secretariat, Amaravati - APPCB",03-04-2024 15:00:00,16.5150833,80.5181667,NO2,4,10,7
India,Andhra_Pradesh,Amaravati,"Secretariat, Amaravati - APPCB",03-04-2024 15:00:00,16.5150833,80.5181667,CO,11,45,25
India,Andhra_Pradesh,Amaravati,"Secretariat, Amaravati - APPCB",03-04-2024 15:00:00,16.5150833,80.5181667,OZONE,1,53,17
India,Andhra_Pradesh,Chittoor,"Gangineni Cheruvu, Chittoor - APPCB",03-04-2024 15:00:00,13.204880,79.097889,NO2,2,11,5
India,Andhra_Pradesh,Chittoor,"Gangineni Cheruvu, Chittoor - APPCB",03-04-2024 15:00:00,13.204880,79.097889,CO,2,16,16
India,Andhra_Pradesh,Kadapa,"Yerramukkapalli, Kadapa - APPCB",03-04-2024 15:00:00,14.465052,78.824187,PM10,27,58,40
India,Andhra_Pradesh,Kadapa,"Yerramukkapalli, Kadapa - APPCB",03-04-2024 15:00:00,14.465052,78.824187,SO2,2,3,2
India,Andhra_Pradesh,Kadapa,"Yerramukkapalli, Kadapa - APPCB",03-04-2024 15:00:00,14.465052,78.824187,OZONE,17,91,48
India,Andhra_Pradesh,Tirupati,"Tirumala, Tirupati - APPCB",03-04-2024 15:00:00,13.67,79.35,NO2,12,42,21
India,Andhra_Pradesh,Tirupati,"Vaikuntapuram, Tirupati - APPCB",03-04-2024 15:00:00,13.615387,79.409230,OZONE,17,38,30
India,Andhra_Pradesh,Vijayawada,"HB Colony, Vijayawada - APPCB",03-04-2024 15:00:00,16.536107,80.594233,PM10,47,93,63
India,Andhra_Pradesh,Vijayawada,"HB Colony, Vijayawada - APPCB",03-04-2024 15:00:00,16.536107,80.594233,NH3,4,4,4
India,Andhra_Pradesh,Vijayawada,"HB Colony, Vijayawada - APPCB",03-04-2024 15:00:00,16.536107,80.594233,SO2,3,4,3
India,Andhra_Pradesh,Vijayawada,"Kanuru, Vijayawada - APPCB",03-04-2024 15:00:00,16.486692,80.699436,SO2,NA,NA,NA
India,Andhra_Pradesh,Vijayawada,"Rajiv Gandhi Park, Vijayawada - APPCB",03-04-2024 15:00:00,16.509717,80.612222,NO2,4,37,22
India,Andhra_Pradesh,Vijayawada,"Rajiv Nagar, Vijayawada - APPCB",03-04-2024 15:00:00,16.554731,80.649110,OZONE,5,41,14
India,Andhra_Pradesh,Visakhapatnam,"GVM Corporation, Visakhapatnam - APPCB",03-04-2024 15:00:00,17.72,83.3,PM2.5,43,80,55
India,Arunachal_Pradesh,Naharlagun,"Naharlagun, Naharlagun - APSPCB",03-04-2024 15:00:00,27.103358,93.679645,NO2,NA,NA,NA
India,Assam,Guwahati,"IITG, Guwahati - PCBA",03-04-2024 15:00:00,26.2028636,91.70046436,PM2.5,37,316,119
India,Assam,Guwahati,"IITG, Guwahati - PCBA",03-04-2024 15:00:00,26.2028636,91.70046436,NO2,1,11,4
India,Assam,Guwahati,"IITG, Guwahati - PCBA",03-04-2024 15:00:00,26.2028636,91.70046436,NH3,5,5,5
India,Assam,Guwahati,"IITG, Guwahati - PCBA",03-04-2024 15:00:00,26.2028636,91.70046436,CO,8,31,9
India,Assam,Guwahati,"IITG, Guwahati - PCBA",03-04-2024 15:00:00,26.2028636,91.70046436,OZONE,2,43,28
India,Assam,Guwahati,"LGBI Airport, Guwahati - PCBA",03-04-2024 15:00:00,26.10887,91.589544,PM2.5,50,280,107
India,Assam,Guwahati,"LGBI Airport, Guwahati - PCBA",03-04-2024 15:00:00,26.10887,91.589544,NO2,20,89,54
India,Assam,Guwahati,"Pan Bazaar, Guwahati - PCBA",03-04-2024 15:00:00,26.187500,91.744194,OZONE,17,18,17
India,Assam,Nagaon,"Christianpatty, Nagaon - PCBA",03-04-2024 15:00:00,26.349082,92.68449,PM10,56,160,97
India,Assam,Nalbari,"Bata Chowk, Nalbari - PCBA",03-04-2024 15:00:00,26.446912,91.439057,NH3,NA,NA,NA
India,Assam,Silchar,"Tarapur, Silchar - PCBA",03-04-2024 15:00:00,24.82827,92.79525,NO2,12,13,13
India,Assam,Sivasagar,"Girls College, Sivasagar - PCBA",03-04-2024 15:00:00,26.987634,94.636574,CO,2,10,3
India,Bihar,Araria,"Kharahiya Basti, Araria - BSPCB",03-04-2024 15:00:00,26.146529,87.454184,PM2.5,21,430,155
India,Bihar,Araria,"Kharahiya Basti, Araria - BSPCB",03-04-2024 15:00:00,26.146529,87.454184,SO2,10,22,16
India,Bihar,Araria,"Kharahiya Basti, Araria - BSPCB",03-04-2024 15:00:00,26.146529,87.454184,CO,16,39,34
India,Bihar,Arrah,"New DM Office, Arrah - BSPCB",03-04-2024 15:00:00,25.5626095,84.663264,CO,1,20,12
India,Bihar,Bettiah,"Kamalnath Nagar, Bettiah - BSPCB",03-04-2024 15:00:00,26.80365,84.51954,PM2.5,45,127,80
India,Bihar,Bettiah,"Kamalnath Nagar, Bettiah - BSPCB",03-04-2024 15:00:00,26.80365,84.51954,PM10,51,119,86
India,Bihar,Bhagalpur,"DM Office_Kachari Chowk, Bhagalpur - BSPCB",03-04-2024 15:00:00,25.251013,86.989001,PM2.5,38,110,71
India,Bihar,Bhagalpur,"DM Office_Kachari Chowk, Bhagalpur - BSPCB",03-04-2024 15:00:00,25.251013,86.989001,NH3,6,9,7
India,Bihar,Bhagalpur,"Mayaganj, Bhagalpur - BSPCB",03-04-2024 15:00:00,25.265194,87.012947,PM2.5,27,227,89
India,Bihar,Bhagalpur,"Mayaganj, Bhagalpur - BSPCB",03-04-2024 15:00:00,25.265194,87.012947,SO2,11,12,12
India,Bihar,Buxar,"Charitra Van, Buxar - BSPCB (Formerly known as Central Jail)",03-04-2024 15:00:00,25.567520,83.966379,NH3,NA,NA,NA
India,Bihar,Buxar,"Charitra Van, Buxar - BSPCB (Formerly known as Central Jail)",03-04-2024 15:00:00,25.567520,83.966379,CO,54,88,67
India,Bihar,Buxar,"Charitra Van, Buxar - BSPCB (Formerly known as Central Jail)",03-04-2024 15:00:00,25.567520,83.966379,OZONE,6,190,121
India,Bihar,Chhapra,"Darshan Nagar, Chhapra - BSPCB",03-04-2024 15:00:00,25.7808257,84.7446768,SO2,3,22,7
India,Bihar,Chhapra,"Darshan Nagar, Chhapra - BSPCB",03-04-2024 15:00:00,25.7808257,84.7446768,CO,33,62,46
India,Bihar,Gaya,"Kareemganj, Gaya - BSPCB",03-04-2024 15:00:00,24.792403,84.992416,PM10,59,132,94
India,Bihar,Hajipur,"Industrial Area, Hajipur - BSPCB",03-04-2024 15:00:00,25.697189,85.245900,PM2.5,54,111,79
India,Bihar,Hajipur,"Industrial Area, Hajipur - BSPCB",03-04-2024 15:00:00,25.697189,85.245900,NH3,1,3,2
India,Bihar,Katihar,"Mirchaibari, Katihar - BSPCB",03-04-2024 15:00:00,25.560083,87.553265,PM2.5,22,73,51
India,Bihar,Katihar,"Mirchaibari, Katihar - BSPCB",03-04-2024 15:00:00,25.560083,87.553265,NH3,6,9,8
India,Bihar,Katihar,"Mirchaibari, Katihar - BSPCB",03-04-2024 15:00:00,25.560083,87.553265,SO2,15,19,17
India,Bihar,Kishanganj,"SDM Office_Khagra, Kishanganj - BSPCB",03-04-2024 15:00:00,26.0881305,87.93840336,NH3,10,11,10
India,Bihar,Kishanganj,"SDM Office_Khagra, Kishanganj - BSPCB",03-04-2024 15:00:00,26.0881305,87.93840336,CO,4,15,6
India,Bihar,Manguraha,"Forest Rest House, Manguraha - BSPCB",03-04-2024 15:00:00,27.308328,84.531742,NO2,8,18,14
India,Bihar,Motihari,"Gandak Colony, Motihari - BSPCB",03-04-2024 15:00:00,26.63086,84.90051,PM2.5,NA,NA,NA
India,Bihar,Motihari,"Gandak Colony, Motihari - BSPCB",03-04-2024 15:00:00,26.63086,84.90051,NO2,NA,NA,NA
India,Bihar,Munger,"Town Hall, Munger - BSPCB",03-04-2024 15:00:00,25.376776,86.471523,NH3,1,2,2
India,Bihar,Muzaffarpur,"Muzaffarpur Collectorate, Muzaffarpur - BSPCB",03-04-2024 15:00:00,26.1209,85.3647,PM2.5,35,187,84
India,Bihar,Muzaffarpur,"Muzaffarpur Collectorate, Muzaffarpur - BSPCB",03-04-2024 15:00:00,26.1209,85.3647,OZONE,58,126,76
India,Bihar,Patna,"DRM Office Danapur, Patna - BSPCB",03-04-2024 15:00:00,25.586562,85.043586,CO,20,64,38
India,Bihar,Patna,"Govt. High School Shikarpur, Patna - BSPCB",03-04-2024 15:00:00,25.592539,85.227158,PM2.5,89,183,143
India,Bihar,Patna,"Govt. High School Shikarpur, Patna - BSPCB",03-04-2024 15:00:00,25.592539,85.227158,NH3,5,5,5
India,Bihar,Patna,"Govt. High School Shikarpur, Patna - BSPCB",03-04-2024 15:00:00,25.592539,85.227158,CO,26,50,41
India,Bihar,Patna,"IGSC Planetarium Complex, Patna - BSPCB",03-04-2024 15:00:00,25.610369,85.132568,PM2.5,NA,NA,NA
India,Bihar,Patna,"IGSC Planetarium Complex, Patna - BSPCB",03-04-2024 15:00:00,25.610369,85.132568,SO2,NA,NA,NA
India,Bihar,Patna,"Rajbansi Nagar, Patna - BSPCB",03-04-2024 15:00:00,25.599486,85.113666,PM10,139,177,153
India,Bihar,Purnia,"Mariam Nagar, Purnia - BSPCB",03-04-2024 15:00:00,25.366336,87.117468,PM2.5,NA,NA,NA
India,Bihar,Purnia,"Mariam Nagar, Purnia - BSPCB",03-04-2024 15:00:00,25.366336,87.117468,PM10,109,194,142
India,Bihar,Purnia,"Mariam Nagar, Purnia - BSPCB",03-04-2024 15:00:00,25.366336,87.117468,NO2,5,7,6
India,Bihar,Purnia,"Mariam Nagar, Purnia - BSPCB",03-04-2024 15:00:00,25.366336,87.117468,NH3,2,2,2
India,Bihar,Purnia,"Mariam Nagar, Purnia - BSPCB",03-04-2024 15:00:00,25.366336,87.117468,SO2,5,14,11
India,Bihar,Rajgir,"Dangi Tola, Rajgir - BSPCB",03-04-2024 15:00:00,25.03280,85.41948,PM2.5,NA,NA,NA
India,Bihar,Rajgir,"Dangi Tola, Rajgir - BSPCB",03-04-2024 15:00:00,25.03280,85.41948,PM10,NA,NA,NA
India,Bihar,Rajgir,"Dangi Tola, Rajgir - BSPCB",03-04-2024 15:00:00,25.03280,85.41948,CO,10,11,10
India,Bihar,Rajgir,"Dangi Tola, Rajgir - BSPCB",03-04-2024 15:00:00,25.03280,85.41948,OZONE,20,24,22
India,Bihar,Samastipur,"DM Office_Kasipur, Samastipur - BSPCB",03-04-2024 15:00:00,25.859655,85.77944,NO2,5,16,10
India,Bihar,Samastipur,"DM Office_Kasipur, Samastipur - BSPCB",03-04-2024 15:00:00,25.859655,85.77944,NH3,4,4,4
India,Bihar,Samastipur,"DM Office_Kasipur, Samastipur - BSPCB",03-04-2024 15:00:00,25.859655,85.77944,CO,4,110,22
India,Bihar,Sasaram,"Dada Peer, Sasaram - BSPCB",03-04-2024 15:00:00,24.952822,84.002396,PM10,52,175,102
India,Bihar,Sasaram,"Dada Peer, Sasaram - BSPCB",03-04-2024 15:00:00,24.952822,84.002396,NH3,7,9,8
India,Bihar,Sasaram,"Dada Peer, Sasaram - BSPCB",03-04-2024 15:00:00,24.952822,84.002396,SO2,22,27,24
India,Bihar,Sasaram,"Dada Peer, Sasaram - BSPCB",03-04-2024 15:00:00,24.952822,84.002396,OZONE,35,82,72
India,Bihar,Siwan,"Chitragupta Nagar, Siwan - BSPCB",03-04-2024 15:00:00,26.2271665,84.3570427,PM10,58,110,83
India,Bihar,Siwan,"Chitragupta Nagar, Siwan - BSPCB",03-04-2024 15:00:00,26.2271665,84.3570427,NH3,1,5,2
India,Chandigarh,Chandigarh,"Sector 22, Chandigarh - CPCC",03-04-2024 15:00:00,30.735567,76.775714,SO2,5,99,22
India,Chandigarh,Chandigarh,"Sector-25, Chandigarh - CPCC",03-04-2024 15:00:00,30.751462,76.762879,OZONE,1,46,23
India,Chandigarh,Chandigarh,"Sector-53, Chandigarh - CPCC",03-04-2024 15:00:00,30.719859,76.738637,PM10,40,171,113
India,Chhattisgarh,Bhilai,"32Bungalows, Bhilai - CECB",03-04-2024 15:00:00,21.194815,81.314770,OZONE,4,56,28
India,Chhattisgarh,Bhilai,"Civic Center, Bhilai - Bhilai Steel Plant",03-04-2024 15:00:00,21.185571,81.343175,NH3,3,5,5
India,Chhattisgarh,Bhilai,"Hathkhoj, Bhilai - CECB",03-04-2024 15:00:00,21.224231,81.408350,NO2,NA,NA,NA
India,Chhattisgarh,Bhilai,"Hathkhoj, Bhilai - CECB",03-04-2024 15:00:00,21.224231,81.408350,NH3,NA,NA,NA
India,Chhattisgarh,Bhilai,"Hathkhoj, Bhilai - CECB",03-04-2024 15:00:00,21.224231,81.408350,CO,20,40,28
India,Chhattisgarh,Bilaspur,"Mangala, Bilaspur - NTPC",03-04-2024 15:00:00,22.08815,82.13737,PM10,43,101,76
India,Chhattisgarh,Chhal,"Nawapara SECL Colony, Chhal - CECB",03-04-2024 15:00:00,22.118125,83.140608,PM10,92,152,123
India,Chhattisgarh,Korba,"Urja Nagar, Korba - CECB",03-04-2024 15:00:00,22.348441,82.549611,PM2.5,NA,NA,NA
India,Chhattisgarh,Korba,"Urja Nagar, Korba - CECB",03-04-2024 15:00:00,22.348441,82.549611,PM10,NA,NA,NA
India,Chhattisgarh,Kunjemura,"OP Jindal School, Kunjemura - CECB",03-04-2024 15:00:00,22.126650,83.483212,PM2.5,34,277,140
India,Chhattisgarh,Kunjemura,"OP Jindal School, Kunjemura - CECB",03-04-2024 15:00:00,22.126650,83.483212,OZONE,5,131,60
India,Chhattisgarh,Milupara,"Govt. Higher Secondary School, Milupara - CECB",03-04-2024 15:00:00,22.1910172,83.5197009,PM10,62,171,102
India,Chhattisgarh,Milupara,"Govt. Higher Secondary School, Milupara - CECB",03-04-2024 15:00:00,22.1910172,83.5197009,NH3,1,2,1
India,Chhattisgarh,Raipur,"AIIMS, Raipur - CECB",03-04-2024 15:00:00,21.258815,81.578979,CO,30,52,39
India,Chhattisgarh,Raipur,"Bhatagaon New ISBT, Raipur - CECB",03-04-2024 15:00:00,21.219665,81.630094,OZONE,3,17,7
India,Chhattisgarh,Raipur,"Krishak Nagar, Raipur - CECB",03-04-2024 15:00:00,21.237755,81.705301,CO,29,70,62
India,Chhattisgarh,Raipur,"Siltara Phase-II, Raipur - CECB",03-04-2024 15:00:00,21.371751,81.664929,PM10,53,197,133
India,Chhattisgarh,Raipur,"Siltara Phase-II, Raipur - CECB",03-04-2024 15:00:00,21.371751,81.664929,NO2,44,87,60
India,Delhi,Delhi,"Anand Vihar, Delhi - DPCC",03-04-2024 15:00:00,28.647622,77.3158090,PM2.5,28,329,167
India,Delhi,Delhi,"Anand Vihar, Delhi - DPCC",03-04-2024 15:00:00,28.647622,77.3158090,PM10,112,373,201
India,Delhi,Delhi,"Ashok Vihar, Delhi - DPCC",03-04-2024 15:00:00,28.695381,77.181665,CO,10,64,32
India,Delhi,Delhi,"Ashok Vihar, Delhi - DPCC",03-04-2024 15:00:00,28.695381,77.181665,OZONE,2,69,25
India,Delhi,Delhi,"Aya Nagar, Delhi - IMD",03-04-2024 15:00:00,28.4706914,77.1099364,PM2.5,27,240,108
India,Delhi,Delhi,"Aya Nagar, Delhi - IMD",03-04-2024 15:00:00,28.4706914,77.1099364,PM10,93,166,128
India,Delhi,Delhi,"Bawana, Delhi - DPCC",03-04-2024 15:00:00,28.776200,77.051074,OZONE,6,182,166
India,Delhi,Delhi,"Burari Crossing, Delhi - IMD",03-04-2024 15:00:00,28.7256504,77.2011573,CO,16,40,30
India,Delhi,Delhi,"Chandni Chowk, Delhi - IITM",03-04-2024 15:00:00,28.656756,77.227234,PM10,106,151,137
India,Delhi,Delhi,"Chandni Chowk, Delhi - IITM",03-04-2024 15:00:00,28.656756,77.227234,NO2,13,106,34
India,Delhi,Delhi,"DTU, Delhi - CPCB",03-04-2024 15:00:00,28.7500499,77.1112615,SO2,NA,NA,NA
India,Delhi,Delhi,"DTU, Delhi - CPCB",03-04-2024 15:00:00,28.7500499,77.1112615,CO,18,60,41
India,Delhi,Delhi,"Dr. Karni Singh Shooting Range, Delhi - DPCC",03-04-2024 15:00:00,28.498571,77.264840,PM2.5,27,260,105
India,Delhi,Delhi,"Dr. Karni Singh Shooting Range, Delhi - DPCC",03-04-2024 15:00:00,28.498571,77.264840,NO2,31,144,76
India,Delhi,Delhi,"Dr. Karni Singh Shooting Range, Delhi - DPCC",03-04-2024 15:00:00,28.498571,77.264840,SO2,20,38,28
India,Delhi,Delhi,"Dwarka-Sector 8, Delhi - DPCC ",03-04-2024 15:00:00,28.5710274,77.0719006,SO2,8,21,14
India,Delhi,Delhi,"IGI Airport (T3), Delhi - IMD",03-04-2024 15:00:00,28.5627763,77.1180053,OZONE,1,76,69
India,Delhi,Delhi,"IHBAS, Dilshad Garden, Delhi - CPCB",03-04-2024 15:00:00,28.6811736,77.3025234,NO2,29,67,41
India,Delhi,Delhi,"ITO, Delhi - CPCB",03-04-2024 15:00:00,28.628624,77.241060,PM2.5,18,142,82
India,Delhi,Delhi,"Jahangirpuri, Delhi - DPCC",03-04-2024 15:00:00,28.732820,77.170633,SO2,21,54,42
India,Delhi,Delhi,"Jahangirpuri, Delhi - DPCC",03-04-2024 15:00:00,28.732820,77.170633,CO,34,109,78
India,Delhi,Delhi,"Lodhi Road, Delhi - IITM",03-04-2024 15:00:00,28.588333,77.221667,CO,59,68,63
India,Delhi,Delhi,"Lodhi Road, Delhi - IITM",03-04-2024 15:00:00,28.588333,77.221667,OZONE,15,20,18
India,Delhi,Delhi,"Lodhi Road, Delhi - IMD",03-04-2024 15:00:00,28.5918245,77.2273074,NO2,1,8,5
India,Delhi,Delhi,"Lodhi Road, Delhi - IMD",03-04-2024 15:00:00,28.5918245,77.2273074,CO,6,24,21
India,Delhi,Delhi,"Major Dhyan Chand National Stadium, Delhi - DPCC",03-04-2024 15:00:00,28.611281,77.237738,NH3,5,8,6
India,Delhi,Delhi,"Major Dhyan Chand National Stadium, Delhi - DPCC",03-04-2024 15:00:00,28.611281,77.237738,SO2,16,31,21
India,Delhi,Delhi,"Major Dhyan Chand National Stadium, Delhi - DPCC",03-04-2024 15:00:00,28.611281,77.237738,CO,24,80,48
India,Delhi,Delhi,"Mundka, Delhi - DPCC",03-04-2024 15:00:00,28.684678,77.076574,NH3,4,6,5
India,Delhi,Delhi,"NSIT Dwarka, Delhi - CPCB",03-04-2024 15:00:00,28.60909,77.0325413,PM2.5,40,276,168
India,Delhi,Delhi,"NSIT Dwarka, Delhi - CPCB",03-04-2024 15:00:00,28.60909,77.0325413,CO,27,85,40
India,Delhi,Delhi,"Najafgarh, Delhi - DPCC",03-04-2024 15:00:00,28.570173,76.933762,NH3,1,6,4
India,Delhi,Delhi,"Narela, Delhi - DPCC",03-04-2024 15:00:00,28.822836,77.101981,PM2.5,23,316,152
India,Delhi,Delhi,"Narela, Delhi - DPCC",03-04-2024 15:00:00,28.822836,77.101981,NH3,5,9,7
India,Delhi,Delhi,"Narela, Delhi - DPCC",03-04-2024 15:00:00,28.822836,77.101981,OZONE,7,244,151
India,Delhi,Delhi,"Nehru Nagar, Delhi - DPCC",03-04-2024 15:00:00,28.567890,77.250515,NO2,26,57,36
India,Delhi,Delhi,"Nehru Nagar, Delhi - DPCC",03-04-2024 15:00:00,28.567890,77.250515,OZONE,2,178,178
India,Delhi,Delhi,"New Moti Bagh, Delhi - MHUA",03-04-2024 15:00:00,28.57834,77.18400,PM2.5,22,259,84
India,Delhi,Delhi,"Okhla Phase-2, Delhi - DPCC",03-04-2024 15:00:00,28.530785,77.271255,NH3,6,12,8
India,Delhi,Delhi,"Punjabi Bagh, Delhi - DPCC",03-04-2024 15:00:00,28.674045,77.131023,PM10,97,376,164
India,Delhi,Delhi,"Punjabi Bagh, Delhi - DPCC",03-04-2024 15:00:00,28.674045,77.131023,NO2,34,93,63
India,Delhi,Delhi,"Punjabi Bagh, Delhi - DPCC",03-04-2024 15:00:00,28.674045,77.131023,OZONE,2,56,27
India,Delhi,Delhi,"Pusa, Delhi - IMD",03-04-2024 15:00:00,28.636110,77.173332,PM2.5,NA,NA,NA
India,Delhi,Delhi,"R K Puram, Delhi - DPCC",03-04-2024 15:00:00,28.563262,77.186937,PM10,95,230,141
India,Delhi,Delhi,"Rohini, Delhi - DPCC",03-04-2024 15:00:00,28.732528,77.119920,PM10,89,268,174
India,Delhi,Delhi,"Rohini, Delhi - DPCC",03-04-2024 15:00:00,28.732528,77.119920,NH3,6,10,8
India,Delhi,Delhi,"Rohini, Delhi - DPCC",03-04-2024 15:00:00,28.732528,77.119920,OZONE,4,238,157
India,Delhi,Delhi,"Shadipur, Delhi - CPCB",03-04-2024 15:00:00,28.6514781,77.1473105,PM2.5,79,344,252
India,Delhi,Delhi,"Shadipur, Delhi - CPCB",03-04-2024 15:00:00,28.6514781,77.1473105,NH3,2,11,6
India,Delhi,Delhi,"Sonia Vihar, Delhi - DPCC",03-04-2024 15:00:00,28.710508,77.249485,NH3,4,6,5
India,Delhi,Delhi,"Sonia Vihar, Delhi - DPCC",03-04-2024 15:00:00,28.710508,77.249485,SO2,12,37,21
India,Delhi,Delhi,"Sonia Vihar, Delhi - DPCC",03-04-2024 15:00:00,28.710508,77.249485,OZONE,12,90,48
India,Delhi,Delhi,"Wazirpur, Delhi - DPCC",03-04-2024 15:00:00,28.699793,77.165453,SO2,4,73,37
India,Gujarat,Ahmedabad,"Gyaspur, Ahmedabad - IITM",03-04-2024 15:00:00,22.977134,72.553024,SO2,3,5,4
India,Gujarat,Ahmedabad,"Gyaspur, Ahmedabad - IITM",03-04-2024 15:00:00,22.977134,72.553024,CO,6,40,12
India,Gujarat,Ahmedabad,"Maninagar, Ahmedabad - GPCB",03-04-2024 15:00:00,23.002657,72.591912,PM10,56,211,126
India,Gujarat,Ahmedabad,"Raikhad, Ahmedabad - IITM",03-04-2024 15:00:00,23.020509,72.579261,CO,25,104,36
India,Gujarat,Ahmedabad,"Rakhial, Ahmedabad - IITM",03-04-2024 15:00:00,23.016834,72.625775,PM2.5,66,166,106
India,Gujarat,Ahmedabad,"SAC ISRO Satellite, Ahmedabad - IITM",03-04-2024 15:00:00,23.023389,72.515201,PM10,99,109,103
India,Gujarat,Ahmedabad,"SVPI Airport Hansol, Ahmedabad - IITM",03-04-2024 15:00:00,23.076793,72.627874,NH3,4,5,4
India,Gujarat,Ahmedabad,"SVPI Airport Hansol, Ahmedabad - IITM",03-04-2024 15:00:00,23.076793,72.627874,SO2,4,52,14
India,Gujarat,Ahmedabad,"Sardar Vallabhbhai Patel Stadium, Ahmedabad - IITM",03-04-2024 15:00:00,23.043070,72.562968,PM2.5,56,171,99
India,Gujarat,Ahmedabad,"Sardar Vallabhbhai Patel Stadium, Ahmedabad - IITM",03-04-2024 15:00:00,23.043070,72.562968,NO2,31,41,39
India,Gujarat,Ahmedabad,"Sardar Vallabhbhai Patel Stadium, Ahmedabad - IITM",03-04-2024 15:00:00,23.043070,72.562968,SO2,4,14,9
India,Gujarat,Ankleshwar,"GIDC, Ankleshwar - GPCB",03-04-2024 15:00:00,21.613267,73.010555,PM2.5,61,210,114
India,Gujarat,Ankleshwar,"GIDC, Ankleshwar - GPCB",03-04-2024 15:00:00,21.613267,73.010555,NO2,35,35,35
India,Gujarat,Gandhinagar,"IIPHG Lekawada, Gandhinagar - IITM",03-04-2024 15:00:00,23.243639,72.68994,PM2.5,56,103,73
India,Gujarat,Gandhinagar,"IIPHG Lekawada, Gandhinagar - IITM",03-04-2024 15:00:00,23.243639,72.68994,PM10,70,128,89
India,Gujarat,Gandhinagar,"Sector-10, Gandhinagar - GPCB",03-04-2024 15:00:00,23.221714,72.654328,PM2.5,22,69,47
India,Gujarat,Gandhinagar,"Sector-10, Gandhinagar - GPCB",03-04-2024 15:00:00,23.221714,72.654328,NH3,1,2,1
India,Gujarat,Nandesari,"GIDC, Nandesari - Nandesari Ind. Association",03-04-2024 15:00:00,22.410802,73.097923,PM10,115,466,253
India,Gujarat,Surat,"Science Center, Surat - SMC",03-04-2024 15:00:00,21.170046,72.795405,SO2,3,9,5
India,Gujarat,Surat,"Science Center, Surat - SMC",03-04-2024 15:00:00,21.170046,72.795405,CO,28,74,33
India,Gujarat,Vapi,"Phase-1 GIDC, Vapi - GPCB",03-04-2024 15:00:00,20.362421,72.918013,NO2,6,7,6
India,Gujarat,Vatva,"Phase-4 GIDC, Vatva - GPCB",03-04-2024 15:00:00,22.969611,72.643500,PM2.5,NA,NA,NA
India,Gujarat,Vatva,"Phase-4 GIDC, Vatva - GPCB",03-04-2024 15:00:00,22.969611,72.643500,SO2,NA,NA,NA
India,Gujarat,Vatva,"Phase-4 GIDC, Vatva - GPCB",03-04-2024 15:00:00,22.969611,72.643500,CO,18,18,18
India,Haryana,Ambala,"Patti Mehar, Ambala - HSPCB",03-04-2024 15:00:00,30.379589,76.778328,OZONE,26,51,36
India,Haryana,Bahadurgarh,"Arya Nagar, Bahadurgarh - HSPCB",03-04-2024 15:00:00,28.6701,76.9254,NH3,10,12,12
India,Haryana,Bahadurgarh,"Arya Nagar, Bahadurgarh - HSPCB",03-04-2024 15:00:00,28.6701,76.9254,SO2,5,59,19
India,Haryana,Ballabgarh,"Nathu Colony, Ballabgarh - HSPCB",03-04-2024 15:00:00,28.3419248,77.319699,PM10,130,268,184
India,Haryana,Charkhi Dadri,"Mini Secretariat, Charkhi Dadri - HSPCB",03-04-2024 15:00:00,28.593883,76.270653,NH3,6,8,7
India,Haryana,Charkhi Dadri,"Mini Secretariat, Charkhi Dadri - HSPCB",03-04-2024 15:00:00,28.593883,76.270653,OZONE,14,18,15
India,Haryana,Dharuhera,"Municipal Corporation Office, Dharuhera -  HSPCB",03-04-2024 15:00:00,28.206800,76.799700,SO2,8,39,25
India,Haryana,Dharuhera,"Municipal Corporation Office, Dharuhera -  HSPCB",03-04-2024 15:00:00,28.206800,76.799700,CO,72,105,91
India,Haryana,Faridabad,"New Industrial Town, Faridabad - HSPCB",03-04-2024 15:00:00,28.39072,77.30059,PM10,114,465,217
India,Haryana,Faridabad,"Sector 30, Faridabad - HSPCB",03-04-2024 15:00:00,28.4417,77.3217,SO2,4,40,8
India,Haryana,Faridabad,"Sector- 16A, Faridabad - HSPCB",03-04-2024 15:00:00,28.4088421,77.3099081,PM2.5,20,372,168
India,Haryana,Faridabad,"Sector- 16A, Faridabad - HSPCB",03-04-2024 15:00:00,28.4088421,77.3099081,NO2,17,65,38
India,Haryana,Fatehabad,"Huda Sector, Fatehabad - HSPCB",03-04-2024 15:00:00,29.503664,75.467934,NO2,37,45,38
India,Haryana,Fatehabad,"Huda Sector, Fatehabad - HSPCB",03-04-2024 15:00:00,29.503664,75.467934,OZONE,75,101,89
India,Haryana,Gurugram,"Sector-51, Gurugram - HSPCB",03-04-2024 15:00:00,28.4227,77.0667,NO2,13,29,23
India,Haryana,Gurugram,"Teri Gram, Gurugram - HSPCB",03-04-2024 15:00:00,28.4275,77.1465,PM2.5,64,385,173
India,Haryana,Hisar,"Urban Estate-II, Hisar - HSPCB",03-04-2024 15:00:00,29.140560,75.744941,NH3,8,10,9
India,Haryana,Jind,"Police Lines, Jind - HSPCB",03-04-2024 15:00:00,29.307814,76.337619,PM2.5,18,72,41
India,Haryana,Jind,"Police Lines, Jind - HSPCB",03-04-2024 15:00:00,29.307814,76.337619,PM10,45,95,64
India,Haryana,Jind,"Police Lines, Jind - HSPCB",03-04-2024 15:00:00,29.307814,76.337619,NH3,3,5,4
India,Haryana,Jind,"Police Lines, Jind - HSPCB",03-04-2024 15:00:00,29.307814,76.337619,OZONE,13,23,20
India,Haryana,Kaithal,"Rishi Nagar, Kaithal - HSPCB",03-04-2024 15:00:00,29.8006,76.4155,SO2,22,139,57
India,Haryana,Karnal,"Sector-12, Karnal - HSPCB",03-04-2024 15:00:00,29.695300,77.002700,PM2.5,50,108,71
India,Haryana,Kurukshetra,"Sector-7, Kurukshetra - HSPCB",03-04-2024 15:00:00,29.966942,76.875879,CO,4,35,18
India,Haryana,Mandikhera,"General Hospital, Mandikhera - HSPCB",03-04-2024 15:00:00,27.9002,76.9938,CO,3,32,26
India,Haryana,Manesar,"Sector-2 IMT, Manesar - HSPCB",03-04-2024 15:00:00,28.360699,76.936090,PM10,32,122,67
India,Haryana,Palwal,"Shyam Nagar, Palwal - HSPCB",03-04-2024 15:00:00,28.1485564,77.3320667,NH3,8,9,9
India,Haryana,Rohtak,"MD University, Rohtak - HSPCB",03-04-2024 15:00:00,28.52123,76.37138,PM2.5,1,21,7
India,Haryana,Rohtak,"MD University, Rohtak - HSPCB",03-04-2024 15:00:00,28.52123,76.37138,NO2,46,53,50
India,Haryana,Rohtak,"MD University, Rohtak - HSPCB",03-04-2024 15:00:00,28.52123,76.37138,SO2,5,8,7
India,Haryana,Sirsa,"F-Block, Sirsa - HSPCB",03-04-2024 15:00:00,29.536400,75.015800,PM10,38,220,65
India,Haryana,Sirsa,"F-Block, Sirsa - HSPCB",03-04-2024 15:00:00,29.536400,75.015800,NH3,12,13,13
India,Haryana,Sonipat,"Murthal, Sonipat - HSPCB",03-04-2024 15:00:00,29.027200,77.062100,NO2,37,44,40
India,Haryana,Yamuna Nagar,"Gobind Pura, Yamuna Nagar - HSPCB",03-04-2024 15:00:00,30.1480566,77.2893471,NO2,11,29,18
India,Haryana,Yamuna Nagar,"Gobind Pura, Yamuna Nagar - HSPCB",03-04-2024 15:00:00,30.1480566,77.2893471,CO,34,104,61
India,Himachal Pradesh,Baddi,"HIMUDA Complex Phase-1, Baddi - HPPCB",03-04-2024 15:00:00,30.943887,76.801991,NO2,11,41,23
India,Himachal Pradesh,Baddi,"HIMUDA Complex Phase-1, Baddi - HPPCB",03-04-2024 15:00:00,30.943887,76.801991,CO,4,47,21
India,Jharkhand,Dhanbad,"Sardar Patel Nagar, Dhanbad - JSPCB",03-04-2024 15:00:00,23.80569,86.44268,PM10,65,406,141
India,Karnataka,Bagalkot,"Vidayagiri, Bagalkot - KSPCB",03-04-2024 15:00:00,16.172806,75.659694,NO2,9,10,9
India,Karnataka,Bagalkot,"Vidayagiri, Bagalkot - KSPCB",03-04-2024 15:00:00,16.172806,75.659694,OZONE,43,53,48
India,Karnataka,Bengaluru,"BTM Layout, Bengaluru - CPCB",03-04-2024 15:00:00,12.9135218,77.5950804,SO2,NA,NA,NA
India,Karnataka,Bengaluru,"BTM Layout, Bengaluru - CPCB",03-04-2024 15:00:00,12.9135218,77.5950804,CO,34,44,44
India,Karnataka,Bengaluru,"Bapuji Nagar, Bengaluru - KSPCB",03-04-2024 15:00:00,12.951913,77.539784,PM2.5,43,151,92
India,Karnataka,Bengaluru,"Bapuji Nagar, Bengaluru - KSPCB",03-04-2024 15:00:00,12.951913,77.539784,CO,19,44,28
India,Karnataka,Bengaluru,"Hebbal, Bengaluru - KSPCB",03-04-2024 15:00:00,13.029152,77.585901,OZONE,7,26,16
India,Karnataka,Bengaluru,"Hombegowda Nagar, Bengaluru - KSPCB",03-04-2024 15:00:00,12.938539,77.590100,NO2,8,38,17
India,Karnataka,Bengaluru,"Jigani, Bengaluru - KSPCB",03-04-2024 15:00:00,12.7816279,77.6299145,OZONE,15,83,41
India,Karnataka,Bengaluru,"Kasturi Nagar, Bengaluru - KSPCB",03-04-2024 15:00:00,13.003872,77.664217,PM10,105,178,133
India,Karnataka,Bengaluru,"Kasturi Nagar, Bengaluru - KSPCB",03-04-2024 15:00:00,13.003872,77.664217,SO2,10,10,10
India,Karnataka,Bengaluru,"RVCE-Mailasandra, Bengaluru - KSPCB",03-04-2024 15:00:00,12.921418,77.502466,PM2.5,44,230,103
India,Karnataka,Bengaluru,"RVCE-Mailasandra, Bengaluru - KSPCB",03-04-2024 15:00:00,12.921418,77.502466,CO,36,40,38
India,Karnataka,Bengaluru,"RVCE-Mailasandra, Bengaluru - KSPCB",03-04-2024 15:00:00,12.921418,77.502466,OZONE,10,10,10
India,Karnataka,Bengaluru,"Shivapura_Peenya, Bengaluru - KSPCB",03-04-2024 15:00:00,13.0246342,77.5080115,SO2,5,18,10
India,Karnataka,Bengaluru,"Silk Board, Bengaluru - KSPCB",03-04-2024 15:00:00,12.917348,77.622813,NO2,18,28,22
India,Karnataka,Bengaluru,"Silk Board, Bengaluru - KSPCB",03-04-2024 15:00:00,12.917348,77.622813,CO,12,24,19
India,Karnataka,Bidar,"Naubad, Bidar - KSPCB",03-04-2024 15:00:00,17.930306,77.482194,PM2.5,NA,NA,NA
India,Karnataka,Chamarajanagar,"Urban, Chamarajanagar - KSPCB",03-04-2024 15:00:00,11.55358,76.55521,NH3,1,2,2
India,Karnataka,Chamarajanagar,"Urban, Chamarajanagar - KSPCB",03-04-2024 15:00:00,11.55358,76.55521,SO2,2,9,5
India,Karnataka,Chikkaballapur,"Chikkaballapur Rural, Chikkaballapur - KSPCB",03-04-2024 15:00:00,13.428828,77.731418,OZONE,25,26,26
India,Karnataka,Chikkamagaluru,"Kalyana Nagara, Chikkamagaluru - KSPCB",03-04-2024 15:00:00,13.328028,75.797056,PM10,14,157,69
India,Karnataka,Chikkamagaluru,"Kalyana Nagara, Chikkamagaluru - KSPCB",03-04-2024 15:00:00,13.328028,75.797056,NO2,20,34,30
India,Karnataka,Chikkamagaluru,"Kalyana Nagara, Chikkamagaluru - KSPCB",03-04-2024 15:00:00,13.328028,75.797056,SO2,1,7,4
India,Karnataka,Davanagere,"Devaraj Urs Badavane, Davanagere - KSPCB",03-04-2024 15:00:00,14.475800,75.905200,PM2.5,NA,NA,NA
India,Karnataka,Gadag,"Panchal Nagar, Gadag - KSPCB",03-04-2024 15:00:00,15.411456,75.638133,NH3,2,3,2
India,Karnataka,Hassan,"B.Katihalli, Hassan - KSPCB",03-04-2024 15:00:00,13.008556,76.125258,NO2,11,17,13
India,Karnataka,Hassan,"B.Katihalli, Hassan - KSPCB",03-04-2024 15:00:00,13.008556,76.125258,NH3,3,4,4
India,Karnataka,Hassan,"B.Katihalli, Hassan - KSPCB",03-04-2024 15:00:00,13.008556,76.125258,OZONE,1,2,2
India,Karnataka,Haveri,"Ashwini Nagar, Haveri - KSPCB",03-04-2024 15:00:00,14.791800,75.389600,CO,36,38,36
India,Karnataka,Haveri,"Ashwini Nagar, Haveri - KSPCB",03-04-2024 15:00:00,14.791800,75.389600,OZONE,18,24,19
India,Karnataka,Hubballi,"Deshpande Nagar, Hubballi - KSPCB",03-04-2024 15:00:00,15.351773,75.140726,NH3,4,6,5
India,Karnataka,Kalaburagi,"Mahatma Basaveswar Colony, Kalaburgi - KSPCB",03-04-2024 15:00:00,17.336318,76.847397,NO2,12,20,15
India,Karnataka,Kalaburagi,"Mahatma Basaveswar Colony, Kalaburgi - KSPCB",03-04-2024 15:00:00,17.336318,76.847397,NH3,2,4,3
India,Karnataka,Kalaburagi,"Mahatma Basaveswar Colony, Kalaburgi - KSPCB",03-04-2024 15:00:00,17.336318,76.847397,OZONE,5,20,13
India,Karnataka,Karwar,"KHB Colony, Karwar - KSPCB",03-04-2024 15:00:00,14.816666,74.141003,NH3,1,23,4
India,Karnataka,Karwar,"KHB Colony, Karwar - KSPCB",03-04-2024 15:00:00,14.816666,74.141003,OZONE,21,22,22
India,Karnataka,Kolar,"Tamaka Ind. Area, Kolar - KSPCB",03-04-2024 15:00:00,13.1276288,78.1570122,OZONE,13,16,15
India,Karnataka,Madikeri,"Stuart Hill, Madikeri - KSPCB",03-04-2024 15:00:00,12.415911,75.735050,PM2.5,27,48,38
India,Karnataka,Madikeri,"Stuart Hill, Madikeri - KSPCB",03-04-2024 15:00:00,12.415911,75.735050,PM10,27,45,35
India,Karnataka,Madikeri,"Stuart Hill, Madikeri - KSPCB",03-04-2024 15:00:00,12.415911,75.735050,NH3,1,1,1
India,Karnataka,Mangalore,"Kadri, Mangalore - KSPCB",03-04-2024 15:00:00,12.889250,74.853000,PM2.5,23,64,46
India,Karnataka,Mangalore,"Kadri, Mangalore - KSPCB",03-04-2024 15:00:00,12.889250,74.853000,CO,32,47,44
India,Karnataka,Mysuru,"Hebbal 1st Stage, Mysuru - KSPCB",03-04-2024 15:00:00,12.21041,76.37376,CO,4,100,16
India,Karnataka,Ramanagara,"Vijay Nagar, Ramanagara - KSPCB",03-04-2024 15:00:00,12.733409,77.298051,NO2,2,11,4
India,Karnataka,Shivamogga,"Vinoba Nagara, Shivamogga - KSPCB",03-04-2024 15:00:00,13.940000,75.555917,PM2.5,32,63,43
India,Karnataka,Tumakuru,"Thimmalapura, Tumakuru - KSPCB",03-04-2024 15:00:00,13.377516,77.099072,PM2.5,NA,NA,NA
India,Karnataka,Tumakuru,"Thimmalapura, Tumakuru - KSPCB",03-04-2024 15:00:00,13.377516,77.099072,CO,30,35,32
India,Karnataka,Udupi,"Brahmagiri, Udupi - KSPCB",03-04-2024 15:00:00,13.34194444,74.74694444,PM2.5,35,60,47
India,Karnataka,Udupi,"Brahmagiri, Udupi - KSPCB",03-04-2024 15:00:00,13.34194444,74.74694444,NO2,28,31,29
India,Karnataka,Udupi,"Brahmagiri, Udupi - KSPCB",03-04-2024 15:00:00,13.34194444,74.74694444,NH3,1,1,1
India,Karnataka,Udupi,"Brahmagiri, Udupi - KSPCB",03-04-2024 15:00:00,13.34194444,74.74694444,OZONE,23,23,23
India,Karnataka,Vijayapura,"Ibrahimpur, Vijayapura - KSPCB",03-04-2024 15:00:00,16.802639,75.722694,PM10,41,44,42
India,Karnataka,Vijayapura,"Ibrahimpur, Vijayapura - KSPCB",03-04-2024 15:00:00,16.802639,75.722694,OZONE,14,16,15
India,Karnataka,Yadgir,"Collector Office, Yadgir - KSPCB",03-04-2024 15:00:00,16.7602,77.1428,PM2.5,55,92,72
India,Karnataka,Yadgir,"Collector Office, Yadgir - KSPCB",03-04-2024 15:00:00,16.7602,77.1428,NH3,1,1,1
India,Karnataka,Yadgir,"Collector Office, Yadgir - KSPCB",03-04-2024 15:00:00,16.7602,77.1428,SO2,6,56,20
India,Kerala,Eloor,"Udyogamandal, Eloor - Kerala PCB",03-04-2024 15:00:00,10.073232,76.302765,PM2.5,34,52,42
India,Kerala,Eloor,"Udyogamandal, Eloor - Kerala PCB",03-04-2024 15:00:00,10.073232,76.302765,NO2,4,4,4
India,Kerala,Kollam,"Polayathode, Kollam - Kerala PCB",03-04-2024 15:00:00,8.8787,76.6073,OZONE,37,38,37
India,Kerala,Thiruvananthapuram,"Kariavattom, Thiruvananthapuram - Kerala PCB",03-04-2024 15:00:00,8.563700,76.886500,OZONE,26,32,29
India,Kerala,Thiruvananthapuram,"Plammoodu, Thiruvananthapuram - Kerala PCB",03-04-2024 15:00:00,8.5149093,76.9435879,PM2.5,7,53,24
India,Kerala,Thiruvananthapuram,"Plammoodu, Thiruvananthapuram - Kerala PCB",03-04-2024 15:00:00,8.5149093,76.9435879,PM10,12,59,28
India,Kerala,Thrissur,"Corporation Ground, Thrissur - Kerala PCB",03-04-2024 15:00:00,10.532400,76.215900,CO,14,28,16
India,Madhya Pradesh,Bhopal,"Idgah Hills, Bhopal - MPPCB",03-04-2024 15:00:00,23.264759,77.381568,NO2,26,56,40
India,Madhya Pradesh,Bhopal,"Idgah Hills, Bhopal - MPPCB",03-04-2024 15:00:00,23.264759,77.381568,SO2,18,21,19
India,Madhya Pradesh,Bhopal,"Paryavaran Parisar, Bhopal - MPPCB",03-04-2024 15:00:00,23.210494,77.425409,PM2.5,35,183,93
India,Madhya Pradesh,Bhopal,"Paryavaran Parisar, Bhopal - MPPCB",03-04-2024 15:00:00,23.210494,77.425409,OZONE,25,97,64
India,Madhya Pradesh,Bhopal,"T T Nagar, Bhopal - MPPCB",03-04-2024 15:00:00,23.233584,77.400574,OZONE,47,120,81
India,Madhya Pradesh,Gwalior,"City Center, Gwalior - MPPCB",03-04-2024 15:00:00,26.203442,78.193251,SO2,16,45,31
India,Madhya Pradesh,Gwalior,"Deen Dayal Nagar, Gwalior - MPPCB",03-04-2024 15:00:00,26.259242,78.216432,PM2.5,30,313,101
India,Madhya Pradesh,Gwalior,"Deen Dayal Nagar, Gwalior - MPPCB",03-04-2024 15:00:00,26.259242,78.216432,NO2,18,115,60
India,Madhya Pradesh,Gwalior,"Deen Dayal Nagar, Gwalior - MPPCB",03-04-2024 15:00:00,26.259242,78.216432,NH3,7,10,8
India,Madhya Pradesh,Gwalior,"Deen Dayal Nagar, Gwalior - MPPCB",03-04-2024 15:00:00,26.259242,78.216432,OZONE,9,163,150
India,Madhya Pradesh,Indore,"Chhoti Gwaltoli, Indore - MPPCB",03-04-2024 15:00:00,22.4310,75.5213,SO2,12,34,21
India,Madhya Pradesh,Indore,"Maguda Nagar, Indore - IMC",03-04-2024 15:00:00,22.7524,75.8872,PM2.5,60,288,136
India,Madhya Pradesh,Indore,"Regional Park, Indore - IMC",03-04-2024 15:00:00,22.6780,75.8559,NH3,1,2,1
India,Madhya Pradesh,Jabalpur,"Govindh Bhavan Colony, Jabalpur - JMC",03-04-2024 15:00:00,23.163174,79.973061,OZONE,11,111,72
India,Madhya Pradesh,Jabalpur,"Marhatal, Jabalpur - MPPCB",03-04-2024 15:00:00,23.168606,79.932247,PM2.5,52,331,135
India,Madhya Pradesh,Jabalpur,"Marhatal, Jabalpur - MPPCB",03-04-2024 15:00:00,23.168606,79.932247,SO2,5,38,11
India,Madhya Pradesh,Katni,"Gole Bazar, Katni - MPPCB",03-04-2024 15:00:00,23.50016,80.23284,NO2,26,82,53
India,Madhya Pradesh,Mandideep,"Sector-D Industrial Area, Mandideep - MPPCB",03-04-2024 15:00:00,23.108440,77.511428,SO2,3,48,15
India,Madhya Pradesh,Pithampur,"Sector-2 Industrial Area, Pithampur - MPPCB",03-04-2024 15:00:00,22.624758,75.675238,NO2,5,29,14
India,Madhya Pradesh,Ratlam,"Shasthri Nagar, Ratlam - IPCA Lab",03-04-2024 15:00:00,23.331731,75.045981,PM2.5,33,133,72
India,Madhya Pradesh,Ratlam,"Shasthri Nagar, Ratlam - IPCA Lab",03-04-2024 15:00:00,23.331731,75.045981,NO2,13,43,25
India,Madhya Pradesh,Sagar,"Civil Lines, Sagar - MPPCB",03-04-2024 15:00:00,23.838586,78.759431,PM2.5,37,97,55
India,Madhya Pradesh,Sagar,"Deen Dayal Nagar, Sagar - MPPCB",03-04-2024 15:00:00,23.8640158,78.80289321,NO2,23,101,58
India,Madhya Pradesh,Sagar,"Deen Dayal Nagar, Sagar - MPPCB",03-04-2024 15:00:00,23.8640158,78.80289321,CO,2,109,45
India,Madhya Pradesh,Ujjain,"Mahakaleshwar Temple, Ujjain - MPPCB",03-04-2024 15:00:00,23.182719 ,75.768218 ,PM10,70,167,131
India,Madhya Pradesh,Ujjain,"Mahakaleshwar Temple, Ujjain - MPPCB",03-04-2024 15:00:00,23.182719 ,75.768218 ,NO2,10,33,20
India,Maharashtra,Akola,"Ramdaspeth, Akola - MPCB",03-04-2024 15:00:00,20.719516,77.000253,NH3,4,14,7
India,Maharashtra,Akola,"Ramdaspeth, Akola - MPCB",03-04-2024 15:00:00,20.719516,77.000253,OZONE,2,147,89
India,Maharashtra,Amravati,"Shivneri Colony, Amravati - MPCB",03-04-2024 15:00:00,20.9402359,77.7895248,OZONE,2,123,77
India,Maharashtra,Amravati,"Shri Shivaji Science College, Amaravati - MPCB",03-04-2024 15:00:00,20.939198,77.765701,SO2,1,59,6
India,Maharashtra,Amravati,"Shri Shivaji Science College, Amaravati - MPCB",03-04-2024 15:00:00,20.939198,77.765701,OZONE,3,107,74
India,Maharashtra,Aurangabad,"MIDC Chilkalthana, Aurangabad - MPCB",03-04-2024 15:00:00,19.875620,75.387310,PM10,109,267,136
India,Maharashtra,Aurangabad,"MIDC Chilkalthana, Aurangabad - MPCB",03-04-2024 15:00:00,19.875620,75.387310,CO,16,64,21
India,Maharashtra,Aurangabad,"More Chowk Waluj, Aurangabad - MPCB",03-04-2024 15:00:00,19.8389439,75.244448,PM10,58,153,108
India,Maharashtra,Badlapur,"Katrap, Badlapur - MPCB",03-04-2024 15:00:00,19.16485,73.23409,OZONE,2,177,47
India,Maharashtra,Belapur,"CBD Belapur, Belapur - MPCB",03-04-2024 15:00:00,19.0243902,73.0406721,PM10,130,174,153
India,Maharashtra,Belapur,"CBD Belapur, Belapur - MPCB",03-04-2024 15:00:00,19.0243902,73.0406721,CO,22,42,33
India,Maharashtra,Bhiwandi,"Gokul Nagar, Bhiwandi - MPCB",03-04-2024 15:00:00,19.309073,73.057223,SO2,2,13,6
India,Maharashtra,Bhiwandi,"Gokul Nagar, Bhiwandi - MPCB",03-04-2024 15:00:00,19.309073,73.057223,CO,14,70,34
India,Maharashtra,Boisar,"Khaira, Boisar - MPCB",03-04-2024 15:00:00,19.786089,72.757971,PM2.5,NA,NA,NA
India,Maharashtra,Boisar,"Khaira, Boisar - MPCB",03-04-2024 15:00:00,19.786089,72.757971,NO2,NA,NA,NA
India,Maharashtra,Boisar,"Khaira, Boisar - MPCB",03-04-2024 15:00:00,19.786089,72.757971,SO2,NA,NA,NA
India,Maharashtra,Chandrapur,"Chauhan Colony, Chandrapur - MPCB",03-04-2024 15:00:00,19.962900,79.298714,PM2.5,95,303,166
India,Maharashtra,Chandrapur,"Chauhan Colony, Chandrapur - MPCB",03-04-2024 15:00:00,19.962900,79.298714,OZONE,8,9,9
India,Maharashtra,Chandrapur,"MIDC Khutala, Chandrapur - MPCB",03-04-2024 15:00:00,19.9775302,79.2337086,PM10,NA,NA,NA
India,Maharashtra,Chandrapur,"MIDC Khutala, Chandrapur - MPCB",03-04-2024 15:00:00,19.9775302,79.2337086,NH3,NA,NA,NA
India,Maharashtra,Chandrapur,"MIDC Khutala, Chandrapur - MPCB",03-04-2024 15:00:00,19.9775302,79.2337086,CO,22,49,33
India,Maharashtra,Jalgaon,"Prabhat Colony, Jalgaon - MPCB",03-04-2024 15:00:00,21.001264,75.565602,NO2,13,93,31
India,Maharashtra,Kalyan,"Khadakpada, Kalyan - MPCB",03-04-2024 15:00:00,19.25292,73.142019,PM10,125,174,153
India,Maharashtra,Kalyan,"Khadakpada, Kalyan - MPCB",03-04-2024 15:00:00,19.25292,73.142019,CO,18,24,20
India,Maharashtra,Kolhapur,"Shivaji University, Kolhapur - MPCB",03-04-2024 15:00:00,16.6870449,74.2505872,PM10,139,363,181
India,Maharashtra,Kolhapur,"Shivaji University, Kolhapur - MPCB",03-04-2024 15:00:00,16.6870449,74.2505872,NH3,3,4,4
India,Maharashtra,Kolhapur,"Sinchan Bhavan, Kolhapur - MPCB",03-04-2024 15:00:00,16.7143745,74.2426398,PM2.5,21,189,59
India,Maharashtra,Kolhapur,"Sinchan Bhavan, Kolhapur - MPCB",03-04-2024 15:00:00,16.7143745,74.2426398,PM10,97,132,109
India,Maharashtra,Kolhapur,"Sinchan Bhavan, Kolhapur - MPCB",03-04-2024 15:00:00,16.7143745,74.2426398,NO2,11,35,18
India,Maharashtra,Mahad,"Kamble Tarf Birwadi, Mahad - MPCB",03-04-2024 15:00:00,18.1023399,73.4783687,NH3,10,10,10
India,Maharashtra,Malegaon,"Mahesh Nagar, Malegaon - MPCB",03-04-2024 15:00:00,20.555712,74.529236,CO,5,38,15
India,Maharashtra,Mira-Bhayandar,"Bhayandar West, Mira-Bhayandar - MPCB",03-04-2024 15:00:00,19.296481,72.840923,PM10,65,247,124
India,Maharashtra,Mira-Bhayandar,"Bhayandar West, Mira-Bhayandar - MPCB",03-04-2024 15:00:00,19.296481,72.840923,NH3,3,5,4
India,Maharashtra,Mumbai,"Bandra Kurla Complex, Mumbai - MPCB",03-04-2024 15:00:00,19.065931,72.862131,PM2.5,65,142,86
India,Maharashtra,Mumbai,"Borivali East, Mumbai - MPCB",03-04-2024 15:00:00,19.2243333,72.8658113,CO,5,48,35
India,Maharashtra,Mumbai,"Byculla, Mumbai - BMC",03-04-2024 15:00:00,18.9767,72.8380,PM2.5,34,60,48
India,Maharashtra,Mumbai,"Byculla, Mumbai - BMC",03-04-2024 15:00:00,18.9767,72.8380,NH3,3,4,4
India,Maharashtra,Mumbai,"Chakala-Andheri East, Mumbai - IITM",03-04-2024 15:00:00,19.11074,72.86084,PM10,9,167,116
India,Maharashtra,Mumbai,"Chakala-Andheri East, Mumbai - IITM",03-04-2024 15:00:00,19.11074,72.86084,CO,5,54,38
India,Maharashtra,Mumbai,"Chembur, Mumbai - MPCB",03-04-2024 15:00:00,19.0364585,72.8954371,NO2,15,96,30
India,Maharashtra,Mumbai,"Chembur, Mumbai - MPCB",03-04-2024 15:00:00,19.0364585,72.8954371,OZONE,7,116,62
India,Maharashtra,Mumbai,"Chhatrapati Shivaji Intl. Airport (T2), Mumbai - MPCB",03-04-2024 15:00:00,19.10078,72.87462,PM10,107,198,146
India,Maharashtra,Mumbai,"Chhatrapati Shivaji Intl. Airport (T2), Mumbai - MPCB",03-04-2024 15:00:00,19.10078,72.87462,OZONE,4,11,7
India,Maharashtra,Mumbai,"Colaba, Mumbai - MPCB",03-04-2024 15:00:00,18.910000,72.820000,NO2,19,28,22
India,Maharashtra,Mumbai,"Colaba, Mumbai - MPCB",03-04-2024 15:00:00,18.910000,72.820000,CO,12,18,16
India,Maharashtra,Mumbai,"Ghatkopar, Mumbai - BMC",03-04-2024 15:00:00,19.083694,72.920967,PM2.5,31,96,62
India,Maharashtra,Mumbai,"Kandivali East, Mumbai - MPCB",03-04-2024 15:00:00,19.205800,72.868200,PM10,83,242,140
India,Maharashtra,Mumbai,"Kandivali East, Mumbai - MPCB",03-04-2024 15:00:00,19.205800,72.868200,SO2,6,7,7
India,Maharashtra,Mumbai,"Kandivali West, Mumbai - BMC",03-04-2024 15:00:00,19.215859,72.831718,PM10,51,107,78
India,Maharashtra,Mumbai,"Kandivali West, Mumbai - BMC",03-04-2024 15:00:00,19.215859,72.831718,OZONE,3,31,16
India,Maharashtra,Mumbai,"Kherwadi_Bandra East, Mumbai - MPCB",03-04-2024 15:00:00,19.0632143,72.8456324,PM2.5,55,98,79
India,Maharashtra,Mumbai,"Kherwadi_Bandra East, Mumbai - MPCB",03-04-2024 15:00:00,19.0632143,72.8456324,CO,7,63,31
India,Maharashtra,Mumbai,"Kherwadi_Bandra East, Mumbai - MPCB",03-04-2024 15:00:00,19.0632143,72.8456324,OZONE,1,82,39
India,Maharashtra,Mumbai,"Kurla, Mumbai - MPCB",03-04-2024 15:00:00,19.0863,72.8888,PM10,83,215,136
India,Maharashtra,Mumbai,"Kurla, Mumbai - MPCB",03-04-2024 15:00:00,19.0863,72.8888,NO2,14,20,17
India,Maharashtra,Mumbai,"Kurla, Mumbai - MPCB",03-04-2024 15:00:00,19.0863,72.8888,CO,7,28,20
India,Maharashtra,Mumbai,"Mazgaon, Mumbai - IITM",03-04-2024 15:00:00,18.96702,72.84214,PM2.5,95,355,179
India,Maharashtra,Mumbai,"Mindspace-Malad West, Mumbai - MPCB",03-04-2024 15:00:00,19.1878657,72.8304069,CO,12,28,20
India,Maharashtra,Mumbai,"Mulund West, Mumbai - MPCB",03-04-2024 15:00:00,19.1750,72.9419,OZONE,7,7,7
India,Maharashtra,Mumbai,"Powai, Mumbai - MPCB",03-04-2024 15:00:00,19.137500,72.915056,NH3,1,1,1
India,Maharashtra,Mumbai,"Powai, Mumbai - MPCB",03-04-2024 15:00:00,19.137500,72.915056,SO2,30,41,34
India,Maharashtra,Mumbai,"Powai, Mumbai - MPCB",03-04-2024 15:00:00,19.137500,72.915056,CO,30,39,35
India,Maharashtra,Mumbai,"Shivaji Nagar, Mumbai - BMC",03-04-2024 15:00:00,19.060498,72.923356,NO2,36,121,68
India,Maharashtra,Mumbai,"Shivaji Nagar, Mumbai - BMC",03-04-2024 15:00:00,19.060498,72.923356,CO,6,104,16
India,Maharashtra,Mumbai,"Siddharth Nagar-Worli, Mumbai - IITM",03-04-2024 15:00:00,19.000083,72.813993,CO,33,56,42
India,Maharashtra,Mumbai,"Sion, Mumbai - MPCB",03-04-2024 15:00:00,19.047000,72.874600,NO2,11,47,27
India,Maharashtra,Mumbai,"Sion, Mumbai - MPCB",03-04-2024 15:00:00,19.047000,72.874600,OZONE,22,27,24
India,Maharashtra,Mumbai,"Vasai West, Mumbai - MPCB",03-04-2024 15:00:00,19.383200,72.820400,NO2,NA,NA,NA
India,Maharashtra,Nagpur,"Mahal, Nagpur - MPCB",03-04-2024 15:00:00,21.14472,79.107595,PM10,94,146,116
India,Maharashtra,Nagpur,"Opp GPO Civil Lines, Nagpur - MPCB",03-04-2024 15:00:00,21.152875,79.0517531,PM2.5,48,164,84
India,Maharashtra,Nagpur,"Opp GPO Civil Lines, Nagpur - MPCB",03-04-2024 15:00:00,21.152875,79.0517531,NO2,24,183,65
India,Maharashtra,Nagpur,"Ram Nagar, Nagpur - MPCB",03-04-2024 15:00:00,21.143383,79.048912,PM2.5,2,120,77
India,Maharashtra,Nashik,"Gangapur Road, Nashik - MPCB",03-04-2024 15:00:00,20.0073285,73.7762427,PM2.5,61,116,79
India,Maharashtra,Nashik,"Gangapur Road, Nashik - MPCB",03-04-2024 15:00:00,20.0073285,73.7762427,OZONE,19,91,50
India,Maharashtra,Nashik,"MIDC Ambad, Nashik - MPCB",03-04-2024 15:00:00,19.950220,73.731480,PM2.5,63,111,79
India,Maharashtra,Nashik,"Pandav Nagari, Nashik - MPCB",03-04-2024 15:00:00,19.9591346,73.7788008,SO2,6,42,16
India,Maharashtra,Navi Mumbai,"Kopripada-Vashi, Navi Mumbai - MPCB",03-04-2024 15:00:00,19.090337,73.014232,NO2,32,73,52
India,Maharashtra,Navi Mumbai,"Mahape, Navi Mumbai - MPCB",03-04-2024 15:00:00,19.1135051,73.008978,PM2.5,59,258,118
India,Maharashtra,Navi Mumbai,"Nerul, Navi Mumbai - MPCB",03-04-2024 15:00:00,19.008751,73.016620,PM2.5,85,191,115
India,Maharashtra,Navi Mumbai,"Nerul, Navi Mumbai - MPCB",03-04-2024 15:00:00,19.008751,73.016620,PM10,155,312,207
India,Maharashtra,Navi Mumbai,"Sanpada, Navi Mumbai - MPCB",03-04-2024 15:00:00,19.0575752,73.0151367,PM2.5,74,139,96
India,Maharashtra,Navi Mumbai,"Sanpada, Navi Mumbai - MPCB",03-04-2024 15:00:00,19.0575752,73.0151367,CO,1,30,21
India,Maharashtra,Navi Mumbai,"Sanpada, Navi Mumbai - MPCB",03-04-2024 15:00:00,19.0575752,73.0151367,OZONE,1,170,79
India,Maharashtra,Navi Mumbai,"Sector-19A Nerul, Navi Mumbai - IITM",03-04-2024 15:00:00,19.044,73.0325,CO,2,114,43
India,Maharashtra,Navi Mumbai,"Sector-2E Kalamboli, Navi Mumbai - MPCB",03-04-2024 15:00:00,19.02579,73.10297,OZONE,4,75,36
India,Maharashtra,Parbhani,"Masoom Colony, Parbhani - MPCB",03-04-2024 15:00:00,19.265594,76.761463,PM2.5,41,193,89
India,Maharashtra,Parbhani,"Masoom Colony, Parbhani - MPCB",03-04-2024 15:00:00,19.265594,76.761463,OZONE,41,123,77
India,Maharashtra,Pimpri-Chinchwad,"Gavalinagar, Pimpri Chinchwad - MPCB",03-04-2024 15:00:00,18.63673,73.82487,SO2,8,20,14
India,Maharashtra,Pimpri-Chinchwad,"Gavalinagar, Pimpri Chinchwad - MPCB",03-04-2024 15:00:00,18.63673,73.82487,CO,12,40,26
India,Maharashtra,Pimpri-Chinchwad,"Gavalinagar, Pimpri Chinchwad - MPCB",03-04-2024 15:00:00,18.63673,73.82487,OZONE,31,212,178
India,Maharashtra,Pimpri-Chinchwad,"Park Street Wakad, Pimpri Chinchwad - MPCB",03-04-2024 15:00:00,18.59051,73.77946,CO,15,52,35
India,Maharashtra,Pimpri-Chinchwad,"Thergaon, Pimpri Chinchwad - MPCB",03-04-2024 15:00:00,18.616318,73.765797,PM10,95,137,117
India,Maharashtra,Pimpri-Chinchwad,"Thergaon, Pimpri Chinchwad - MPCB",03-04-2024 15:00:00,18.616318,73.765797,SO2,3,9,6
India,Maharashtra,Pimpri-Chinchwad,"Thergaon, Pimpri Chinchwad - MPCB",03-04-2024 15:00:00,18.616318,73.765797,CO,18,50,31
India,Maharashtra,Pune,"Karve Road, Pune - MPCB",03-04-2024 15:00:00,18.5011743,73.8165527,PM10,131,133,133
India,Maharashtra,Pune,"Katraj Dairy, Pune - MPCB",03-04-2024 15:00:00,18.454450,73.854155,OZONE,23,82,56
India,Maharashtra,Pune,"Revenue Colony-Shivajinagar, Pune - IITM",03-04-2024 15:00:00,18.530085,73.849598,NH3,9,19,13
India,Maharashtra,Pune,"Savitribai Phule Pune University, Pune - MPCB",03-04-2024 15:00:00,18.547056,73.826908,PM2.5,61,98,75
India,Maharashtra,Pune,"Savitribai Phule Pune University, Pune - MPCB",03-04-2024 15:00:00,18.547056,73.826908,PM10,89,134,108
India,Maharashtra,Pune,"Savitribai Phule Pune University, Pune - MPCB",03-04-2024 15:00:00,18.547056,73.826908,OZONE,2,302,283
India,Maharashtra,Pune,"Transport Nagar-Nigdi, Pune - IITM",03-04-2024 15:00:00,18.664282,73.763966,PM2.5,25,76,50
India,Maharashtra,Pune,"Transport Nagar-Nigdi, Pune - IITM",03-04-2024 15:00:00,18.664282,73.763966,CO,50,63,55
India,Maharashtra,Solapur,"Dnyaneshwar Nagar, Solapur - MPCB",03-04-2024 15:00:00,17.6336264,75.9132495,PM2.5,90,277,194
India,Maharashtra,Solapur,"Dnyaneshwar Nagar, Solapur - MPCB",03-04-2024 15:00:00,17.6336264,75.9132495,SO2,7,21,11
India,Maharashtra,Solapur,"Ratandeep Housing Society, Solapur - MPCB",03-04-2024 15:00:00,17.65439,75.90649,PM10,100,123,111
India,Maharashtra,Solapur,"Ratandeep Housing Society, Solapur - MPCB",03-04-2024 15:00:00,17.65439,75.90649,NO2,18,106,51
India,Maharashtra,Solapur,"Ratandeep Housing Society, Solapur - MPCB",03-04-2024 15:00:00,17.65439,75.90649,OZONE,31,184,165
India,Maharashtra,Thane,"Kasarvadavali, Thane - MPCB",03-04-2024 15:00:00,19.26777,72.97182,PM2.5,70,125,95
India,Maharashtra,Thane,"Upvan Fort, Thane - MPCB",03-04-2024 15:00:00,19.222279,72.957979,PM2.5,47,133,87
India,Maharashtra,Thane,"Upvan Fort, Thane - MPCB",03-04-2024 15:00:00,19.222279,72.957979,CO,5,49,20
India,Maharashtra,Ulhasnagar,"Sidhi Vinayak Nagar, Ulhasnagar - MPCB",03-04-2024 15:00:00,19.235581,73.159121,PM10,129,163,142
India,Maharashtra,Virar,"Bolinj, Virar - MPCB",03-04-2024 15:00:00,19.4458210,72.7988231,NH3,1,13,6
India,Manipur,Imphal,"DM College of Science, Imphal - Manipur PCB",03-04-2024 15:00:00,24.8207389,93.9423085,OZONE,NA,NA,NA
India,Manipur,Imphal,"Manipur University, Imphal - Manipur PCB",03-04-2024 15:00:00,24.7524239,93.9286218,PM2.5,48,210,84
India,Manipur,Imphal,"Manipur University, Imphal - Manipur PCB",03-04-2024 15:00:00,24.7524239,93.9286218,NO2,7,17,10
India,Manipur,Imphal,"Manipur University, Imphal - Manipur PCB",03-04-2024 15:00:00,24.7524239,93.9286218,CO,10,30,13
India,Mizoram,Aizawl,"Sikulpuikawn, Aizawl - Mizoram PCB",03-04-2024 15:00:00,23.7176342,92.7192841,PM10,44,105,79
India,Mizoram,Aizawl,"Sikulpuikawn, Aizawl - Mizoram PCB",03-04-2024 15:00:00,23.7176342,92.7192841,NH3,1,5,2
India,Mizoram,Aizawl,"Sikulpuikawn, Aizawl - Mizoram PCB",03-04-2024 15:00:00,23.7176342,92.7192841,SO2,2,2,2
India,Mizoram,Aizawl,"Sikulpuikawn, Aizawl - Mizoram PCB",03-04-2024 15:00:00,23.7176342,92.7192841,CO,11,18,13
India,Nagaland,Kohima,"PWD Juction, Kohima - NPCB",03-04-2024 15:00:00,25.6635413,94.0989878,SO2,31,32,31
India,Odisha,Angul,"Hakimapada, Angul - OSPCB",03-04-2024 15:00:00,20.832874,85.104082,NO2,8,51,25
India,Odisha,Balasore,"Kalidaspur, Balasore - OSPCB",03-04-2024 15:00:00,21.51161,86.89088,CO,41,108,101
India,Odisha,Barbil,"Forest Office, Barbil - OSPCB",03-04-2024 15:00:00,22.1166054,85.3945546,PM2.5,62,352,203
India,Odisha,Barbil,"Forest Office, Barbil - OSPCB",03-04-2024 15:00:00,22.1166054,85.3945546,NO2,1,2,2
India,Odisha,Barbil,"Forest Office, Barbil - OSPCB",03-04-2024 15:00:00,22.1166054,85.3945546,SO2,8,33,16
India,Odisha,Barbil,"Forest Office, Barbil - OSPCB",03-04-2024 15:00:00,22.1166054,85.3945546,CO,8,118,38
India,Odisha,Barbil,"Forest Office, Barbil - OSPCB",03-04-2024 15:00:00,22.1166054,85.3945546,OZONE,15,302,220
India,Odisha,Baripada,"Meher Colony, Baripada - OSPCB",03-04-2024 15:00:00,21.941841,86.728318,CO,24,42,34
India,Odisha,Bhubaneswar,"Lingraj Mandir, Bhubaneswar - OSPCB",03-04-2024 15:00:00,20.240790,85.836784,CO,25,66,57
India,Odisha,Bhubaneswar,"Patia, Bhubaneswar - OSPCB",03-04-2024 15:00:00,20.34652,85.81630,PM2.5,7,65,33
India,Odisha,Bileipada,"Tata Township, Bileipada - OSPCB",03-04-2024 15:00:00,22.06156703,85.47409613,CO,42,108,73
India,Odisha,Bileipada,"Tata Township, Bileipada - OSPCB",03-04-2024 15:00:00,22.06156703,85.47409613,OZONE,29,40,36
India,Odisha,Byasanagar,"Ferro Chrome Colony, Byasanagar - OSPCB",03-04-2024 15:00:00,20.94185,86.11510,PM2.5,65,297,146
India,Odisha,Byasanagar,"Ferro Chrome Colony, Byasanagar - OSPCB",03-04-2024 15:00:00,20.94185,86.11510,PM10,82,204,135
India,Odisha,Cuttack,"CDA Area, Cuttack - OSPCB",03-04-2024 15:00:00,20.48891     ,85.84768     ,NO2,11,27,16
India,Odisha,Nayagarh,"Dabuna, Nayagarh - OSPCB",03-04-2024 15:00:00,21.847279,85.416905,NH3,5,5,5
India,Odisha,Nayagarh,"Dabuna, Nayagarh - OSPCB",03-04-2024 15:00:00,21.847279,85.416905,OZONE,3,60,37
India,Odisha,Suakati,"OMC Colony, Suakati - OSPCB",03-04-2024 15:00:00,21.606865,85.510538,PM2.5,129,251,189
India,Odisha,Suakati,"OMC Colony, Suakati - OSPCB",03-04-2024 15:00:00,21.606865,85.510538,PM10,124,186,146
India,Odisha,Tensa,"Barsua Iron Ore Mines, Tensa - OSPCB",03-04-2024 15:00:00,21.869985,85.167016,NO2,36,306,118
India,Puducherry,Puducherry,"Jawahar Nagar, Puducherry - PPCC",03-04-2024 15:00:00,11.9309,79.8027,PM10,12,40,25
India,Punjab,Amritsar,"Golden Temple, Amritsar - PPCB",03-04-2024 15:00:00,31.620000,74.876512,PM2.5,26,132,51
India,Punjab,Bathinda,"Hardev Nagar, Bathinda - PPCB",03-04-2024 15:00:00,30.233011,74.907758,NO2,26,29,28
India,Punjab,Bathinda,"Hardev Nagar, Bathinda - PPCB",03-04-2024 15:00:00,30.233011,74.907758,SO2,4,34,17
India,Punjab,Jalandhar,"Civil Line, Jalandhar - PPCB",03-04-2024 15:00:00,31.321907,75.578914,PM10,48,167,100
India,Punjab,Khanna,"Kalal Majra, Khanna - PPCB",03-04-2024 15:00:00,30.736056 ,76.209694,PM2.5,31,68,52
India,Punjab,Khanna,"Kalal Majra, Khanna - PPCB",03-04-2024 15:00:00,30.736056 ,76.209694,SO2,8,27,14
India,Punjab,Patiala,"Model Town, Patiala - PPCB",03-04-2024 15:00:00,30.349388,76.366642,PM2.5,41,139,74
India,Punjab,Patiala,"Model Town, Patiala - PPCB",03-04-2024 15:00:00,30.349388,76.366642,CO,14,44,23
India,Punjab,Patiala,"Model Town, Patiala - PPCB",03-04-2024 15:00:00,30.349388,76.366642,OZONE,9,57,35
India,Rajasthan,Banswara,"Rati Talai, Banswara - RSPCB",03-04-2024 15:00:00,23.555190,74.440010,OZONE,16,116,63
India,Rajasthan,Barmer,"Railway Colony, Barmer - RSPCB",03-04-2024 15:00:00,25.747299,71.393989,PM10,46,114,91
India,Rajasthan,Barmer,"Railway Colony, Barmer - RSPCB",03-04-2024 15:00:00,25.747299,71.393989,NH3,7,14,9
India,Rajasthan,Bharatpur,"Krishna Nagar, Bharatpur - RSPCB",03-04-2024 15:00:00,27.215415,77.50873,PM10,94,183,138
India,Rajasthan,Bharatpur,"Krishna Nagar, Bharatpur - RSPCB",03-04-2024 15:00:00,27.215415,77.50873,CO,26,76,33
India,Rajasthan,Bharatpur,"Krishna Nagar, Bharatpur - RSPCB",03-04-2024 15:00:00,27.215415,77.50873,OZONE,27,123,93
India,Rajasthan,Bhiwadi,"RIICO Ind. Area III, Bhiwadi - RSPCB",03-04-2024 15:00:00,28.194909,76.862296,PM2.5,64,266,140
India,Rajasthan,Bhiwadi,"RIICO Ind. Area III, Bhiwadi - RSPCB",03-04-2024 15:00:00,28.194909,76.862296,SO2,3,101,44
India,Rajasthan,Bhiwadi,"RIICO Ind. Area III, Bhiwadi - RSPCB",03-04-2024 15:00:00,28.194909,76.862296,OZONE,21,68,46
India,Rajasthan,Bhiwadi,"Vasundhara Nagar_UIT, Bhiwadi - RSPCB",03-04-2024 15:00:00,28.207266,76.829265,NO2,20,70,42
India,Rajasthan,Bhiwadi,"Vasundhara Nagar_UIT, Bhiwadi - RSPCB",03-04-2024 15:00:00,28.207266,76.829265,SO2,6,30,17
India,Rajasthan,Bhiwadi,"Vasundhara Nagar_UIT, Bhiwadi - RSPCB",03-04-2024 15:00:00,28.207266,76.829265,CO,10,44,30
India,Rajasthan,Bikaner,"MM Ground, Bikaner - RSPCB",03-04-2024 15:00:00,28.018792,73.292658,SO2,3,14,7
India,Rajasthan,Bikaner,"MM Ground, Bikaner - RSPCB",03-04-2024 15:00:00,28.018792,73.292658,CO,8,174,18
India,Rajasthan,Bundi,"New Colony, Bundi - RSPCB",03-04-2024 15:00:00,25.435774,75.644272,SO2,6,13,9
India,Rajasthan,Bundi,"New Colony, Bundi - RSPCB",03-04-2024 15:00:00,25.435774,75.644272,CO,11,106,17
India,Rajasthan,Chittorgarh,"Shastri Nagar, Chittorgarh - RSPCB",03-04-2024 15:00:00,24.892047,74.623527,PM2.5,NA,NA,NA
India,Rajasthan,Chittorgarh,"Shastri Nagar, Chittorgarh - RSPCB",03-04-2024 15:00:00,24.892047,74.623527,OZONE,83,83,83
India,Rajasthan,Dausa,"Khatikan Mohalla, Dausa - RSPCB",03-04-2024 15:00:00,26.895552,76.334753,PM10,114,206,154
India,Rajasthan,Dausa,"Khatikan Mohalla, Dausa - RSPCB",03-04-2024 15:00:00,26.895552,76.334753,CO,2,129,34
India,Rajasthan,Dausa,"Khatikan Mohalla, Dausa - RSPCB",03-04-2024 15:00:00,26.895552,76.334753,OZONE,7,169,155
India,Rajasthan,Dholpur,"Raja Ganj, Dholpur - RSPCB",03-04-2024 15:00:00,26.699557,77.898881,PM2.5,27,301,105
India,Rajasthan,Hanumangarh,"Housing Board, Hanumangarh - RSPCB",03-04-2024 15:00:00,29.610750,74.283608,NO2,19,43,29
India,Rajasthan,Hanumangarh,"Housing Board, Hanumangarh - RSPCB",03-04-2024 15:00:00,29.610750,74.283608,OZONE,20,65,49
India,Rajasthan,Jaipur,"Mansarovar Sector-12, Jaipur - RSPCB",03-04-2024 15:00:00,26.843698,75.766894,PM2.5,38,73,52
India,Rajasthan,Jaipur,"Mansarovar Sector-12, Jaipur - RSPCB",03-04-2024 15:00:00,26.843698,75.766894,PM10,96,168,126
India,Rajasthan,Jaipur,"Mansarovar Sector-12, Jaipur - RSPCB",03-04-2024 15:00:00,26.843698,75.766894,OZONE,2,149,82
India,Rajasthan,Jaipur,"Police Commissionerate, Jaipur - RSPCB",03-04-2024 15:00:00,26.9164092,75.7994901,CO,26,62,41
India,Rajasthan,Jaipur,"RIICO Sitapura, Jaipur - RSPCB",03-04-2024 15:00:00,26.786682,75.827928,PM2.5,33,326,164
India,Rajasthan,Jaipur,"RIICO Sitapura, Jaipur - RSPCB",03-04-2024 15:00:00,26.786682,75.827928,CO,26,106,48
India,Rajasthan,Jaipur,"Sector-2 Murlipura, Jaipur - RSPCB",03-04-2024 15:00:00,26.960669,75.771817,NO2,16,78,42
India,Rajasthan,Jaipur,"Shastri Nagar, Jaipur - RSPCB",03-04-2024 15:00:00,26.9502929,75.730943,NH3,1,16,6
India,Rajasthan,Jaisalmer,"Sadar Bazar, Jaisalmer - RSPCB",03-04-2024 15:00:00,26.912329,70.909168,PM2.5,27,82,41
India,Rajasthan,Jaisalmer,"Sadar Bazar, Jaisalmer - RSPCB",03-04-2024 15:00:00,26.912329,70.909168,PM10,74,210,116
India,Rajasthan,Jhalawar,"Rajlaxmi Nagar, Jhalawar - RSPCB",03-04-2024 15:00:00,24.588397,76.172782,CO,18,86,36
India,Rajasthan,Jodhpur,"Collectorate, Jodhpur - RSPCB",03-04-2024 15:00:00,26.268249,73.0193853,SO2,5,53,21
India,Rajasthan,Jodhpur,"Collectorate, Jodhpur - RSPCB",03-04-2024 15:00:00,26.268249,73.0193853,OZONE,42,110,67
India,Rajasthan,Jodhpur,"Jhalamand, Jodhpur - RSPCB",03-04-2024 15:00:00,26.215415,73.070156,SO2,1,9,4
India,Rajasthan,Jodhpur,"Jhalamand, Jodhpur - RSPCB",03-04-2024 15:00:00,26.215415,73.070156,OZONE,43,86,61
India,Rajasthan,Karauli,"Satyawati Vihar, Karauli - RSPCB",03-04-2024 15:00:00,26.506177,77.025989,NO2,7,84,25
India,Rajasthan,Karauli,"Satyawati Vihar, Karauli - RSPCB",03-04-2024 15:00:00,26.506177,77.025989,OZONE,1,42,29
India,Rajasthan,Kota,"Nayapura, Kota - RSPCB",03-04-2024 15:00:00,25.196024,75.855668,NH3,5,12,8
India,Rajasthan,Kota,"Nayapura, Kota - RSPCB",03-04-2024 15:00:00,25.196024,75.855668,CO,12,108,24
India,Rajasthan,Pali,"Indira Colony Vistar, Pali - RSPCB",03-04-2024 15:00:00,25.771061, 73.340227,OZONE,28,75,55
India,Rajasthan,Rajsamand,"Dhoinda, Rajsamand - RSPCB",03-04-2024 15:00:00,25.036360,73.883502,PM10,36,131,74
India,Rajasthan,Rajsamand,"Dhoinda, Rajsamand - RSPCB",03-04-2024 15:00:00,25.036360,73.883502,SO2,8,11,11
India,Rajasthan,Sawai Madhopur,"Sahu Nagar, Sawai Madhopur - RSPCB",03-04-2024 15:00:00,26.031443,76.359327,PM2.5,70,450,161
India,Rajasthan,Sawai Madhopur,"Sahu Nagar, Sawai Madhopur - RSPCB",03-04-2024 15:00:00,26.031443,76.359327,PM10,75,365,129
India,Rajasthan,Sawai Madhopur,"Sahu Nagar, Sawai Madhopur - RSPCB",03-04-2024 15:00:00,26.031443,76.359327,SO2,2,13,4
India,Rajasthan,Sikar,"Radhakishan Pura, Sikar - RSPCB",03-04-2024 15:00:00,27.608912,75.153302,PM10,63,329,136
India,Rajasthan,Sikar,"Radhakishan Pura, Sikar - RSPCB",03-04-2024 15:00:00,27.608912,75.153302,NH3,4,9,6
India,Rajasthan,Sirohi,"Vedhaynath Colony, Sirohi - RSPCB",03-04-2024 15:00:00,24.885261,72.857549,NO2,4,17,8
India,Rajasthan,Sirohi,"Vedhaynath Colony, Sirohi - RSPCB",03-04-2024 15:00:00,24.885261,72.857549,NH3,2,4,3
India,Rajasthan,Sirohi,"Vedhaynath Colony, Sirohi - RSPCB",03-04-2024 15:00:00,24.885261,72.857549,SO2,5,14,8
India,Rajasthan,Sri Ganganagar,"Old City, Sri Ganganagar - RSPCB",03-04-2024 15:00:00,29.931624,73.864511,CO,32,107,67
India,Rajasthan,Tonk,"Shastri Nagar, Tonk - RSPCB",03-04-2024 15:00:00,26.159933,75.780517,PM2.5,38,247,100
India,Rajasthan,Tonk,"Shastri Nagar, Tonk - RSPCB",03-04-2024 15:00:00,26.159933,75.780517,NO2,11,141,43
India,Rajasthan,Tonk,"Shastri Nagar, Tonk - RSPCB",03-04-2024 15:00:00,26.159933,75.780517,SO2,3,13,7
India,Rajasthan,Udaipur,"Ashok Nagar, Udaipur - RSPCB",03-04-2024 15:00:00,24.5886166,73.6321397,NO2,53,86,72
India,Rajasthan,Udaipur,"Ashok Nagar, Udaipur - RSPCB",03-04-2024 15:00:00,24.5886166,73.6321397,NH3,6,7,7
India,Rajasthan,Udaipur,"Ashok Nagar, Udaipur - RSPCB",03-04-2024 15:00:00,24.5886166,73.6321397,OZONE,13,47,30
India,TamilNadu,Chengalpattu,"Crescent University, Chengalpattu - TNPCB",03-04-2024 15:00:00,12.8777316,80.0834807,SO2,NA,NA,NA
India,TamilNadu,Chennai,"Manali, Chennai - CPCB",03-04-2024 15:00:00,13.164544,80.26285,PM10,27,105,66
India,TamilNadu,Chennai,"Manali, Chennai - CPCB",03-04-2024 15:00:00,13.164544,80.26285,NO2,7,10,8
India,TamilNadu,Chennai,"Manali, Chennai - CPCB",03-04-2024 15:00:00,13.164544,80.26285,NH3,4,5,4
India,TamilNadu,Chennai,"Manali, Chennai - CPCB",03-04-2024 15:00:00,13.164544,80.26285,OZONE,15,22,17
India,TamilNadu,Chennai,"Perungudi, Chennai - TNPCB",03-04-2024 15:00:00,12.9533,80.2357,SO2,1,7,4
India,TamilNadu,Chennai,"Royapuram, Chennai - TNPCB",03-04-2024 15:00:00,13.1036,80.2909,PM10,25,108,57
India,TamilNadu,Chennai,"Velachery Res. Area, Chennai - CPCB",03-04-2024 15:00:00,13.0052189,80.2398125,CO,2,105,60
India,TamilNadu,Chennai,"Velachery Res. Area, Chennai - CPCB",03-04-2024 15:00:00,13.0052189,80.2398125,OZONE,7,41,22
India,TamilNadu,Coimbatore,"PSG College of Arts and Science, Coimbatore - TNPCB",03-04-2024 15:00:00,11.0328,77.0349,NO2,NA,NA,NA
India,TamilNadu,Coimbatore,"PSG College of Arts and Science, Coimbatore - TNPCB",03-04-2024 15:00:00,11.0328,77.0349,OZONE,4,5,4
India,TamilNadu,Cuddalore,"Semmandalam, Cuddalore - TNPCB",03-04-2024 15:00:00,11.7637683,79.7499835,NH3,2,3,2
India,TamilNadu,Kanchipuram,"Kilambi, Kanchipuram - TNPCB",03-04-2024 15:00:00,12.864618,79.659968,PM2.5,NA,NA,NA
India,TamilNadu,Kanchipuram,"Kilambi, Kanchipuram - TNPCB",03-04-2024 15:00:00,12.864618,79.659968,SO2,NA,NA,NA
India,TamilNadu,Ooty,"Bombay Castel, Ooty - TNPCB",03-04-2024 15:00:00,11.4068288,76.7138973,PM10,27,120,51
India,TamilNadu,Ooty,"Bombay Castel, Ooty - TNPCB",03-04-2024 15:00:00,11.4068288,76.7138973,NO2,1,56,18
India,TamilNadu,Ooty,"Bombay Castel, Ooty - TNPCB",03-04-2024 15:00:00,11.4068288,76.7138973,SO2,12,13,13
India,TamilNadu,Palkalaiperur,"Bharathidasan University, Palkalaiperur - TNPCB",03-04-2024 15:00:00,10.681158,78.741746,CO,2,10,7
India,TamilNadu,Ramanathapuram,"Chalai Bazaar, Ramanathapuram - TNPCB",03-04-2024 15:00:00,9.36399,78.831977,PM10,NA,NA,NA
India,TamilNadu,Thoothukudi,"Meelavittan, Thoothukudi - TNPCB",03-04-2024 15:00:00,8.816428 ,78.099039,PM10,37,181,69
India,TamilNadu,Thoothukudi,"Meelavittan, Thoothukudi - TNPCB",03-04-2024 15:00:00,8.816428 ,78.099039,NO2,26,39,32
India,TamilNadu,Thoothukudi,"Meelavittan, Thoothukudi - TNPCB",03-04-2024 15:00:00,8.816428 ,78.099039,SO2,NA,NA,NA
India,TamilNadu,Thoothukudi,"Meelavittan, Thoothukudi - TNPCB",03-04-2024 15:00:00,8.816428 ,78.099039,OZONE,6,6,6
India,TamilNadu,Tirupur,"Kumaran College, Tirupur - TNPCB",03-04-2024 15:00:00,11.0973603,77.3228673,NO2,NA,NA,NA
India,TamilNadu,Vellore,"Vasanthapuram, Vellore - TNPCB",03-04-2024 15:00:00,12.909494,79.131861,OZONE,NA,NA,NA
India,TamilNadu,Virudhunagar,"Collectorate Office, Virudhunagar - TNPCB",03-04-2024 15:00:00,9.559382,77.948828,PM10,37,76,52
India,Telangana,Hyderabad,"Bollaram Industrial Area, Hyderabad - TSPCB",03-04-2024 15:00:00,17.540891,78.358528,CO,2,120,15
India,Telangana,Hyderabad,"ECIL Kapra, Hyderabad - TSPCB",03-04-2024 15:00:00,17.470431,78.566959,NO2,9,12,10
India,Telangana,Hyderabad,"ECIL Kapra, Hyderabad - TSPCB",03-04-2024 15:00:00,17.470431,78.566959,NH3,7,8,7
India,Telangana,Hyderabad,"ICRISAT Patancheru, Hyderabad - TSPCB",03-04-2024 15:00:00,17.518400,78.278777,PM2.5,34,88,54
India,Telangana,Hyderabad,"ICRISAT Patancheru, Hyderabad - TSPCB",03-04-2024 15:00:00,17.518400,78.278777,SO2,12,32,19
India,Telangana,Hyderabad,"IITH Kandi, Hyderabad - TSPCB",03-04-2024 15:00:00,17.585705,78.126199,PM10,49,276,99
India,Telangana,Hyderabad,"IITH Kandi, Hyderabad - TSPCB",03-04-2024 15:00:00,17.585705,78.126199,NO2,8,12,9
India,Telangana,Hyderabad,"IITH Kandi, Hyderabad - TSPCB",03-04-2024 15:00:00,17.585705,78.126199,OZONE,10,68,21
India,Telangana,Hyderabad,"Kokapet, Hyderabad - TSPCB",03-04-2024 15:00:00,17.393559,78.339194,NH3,NA,NA,NA
India,Telangana,Hyderabad,"Kokapet, Hyderabad - TSPCB",03-04-2024 15:00:00,17.393559,78.339194,CO,18,25,24
India,Telangana,Hyderabad,"Kompally Municipal Office, Hyderabad - TSPCB",03-04-2024 15:00:00,17.544899,78.486949,CO,24,56,36
India,Telangana,Hyderabad,"New Malakpet, Hyderabad - TSPCB",03-04-2024 15:00:00,17.37206,78.50864,SO2,1,7,3
India,Telangana,Hyderabad,"New Malakpet, Hyderabad - TSPCB",03-04-2024 15:00:00,17.37206,78.50864,OZONE,8,58,34
India,Telangana,Hyderabad,"Ramachandrapuram, Hyderabad - TSPCB",03-04-2024 15:00:00,17.528544,78.286195,PM10,59,74,71
India,Telangana,Hyderabad,"Sanathnagar, Hyderabad - TSPCB",03-04-2024 15:00:00,17.4559458,78.4332152,SO2,1,21,8
India,Telangana,Hyderabad,"Sanathnagar, Hyderabad - TSPCB",03-04-2024 15:00:00,17.4559458,78.4332152,CO,35,49,43
India,Telangana,Hyderabad,"Somajiguda, Hyderabad - TSPCB",03-04-2024 15:00:00,17.417094,78.457437,SO2,12,12,12
India,Telangana,Hyderabad,"Somajiguda, Hyderabad - TSPCB",03-04-2024 15:00:00,17.417094,78.457437,CO,6,36,19
India,Telangana,Hyderabad,"Zoo Park, Hyderabad - TSPCB",03-04-2024 15:00:00,17.349694,78.451437,PM10,80,153,124
India,Telangana,Hyderabad,"Zoo Park, Hyderabad - TSPCB",03-04-2024 15:00:00,17.349694,78.451437,NH3,1,2,1
India,Telangana,Hyderabad,"Zoo Park, Hyderabad - TSPCB",03-04-2024 15:00:00,17.349694,78.451437,CO,38,86,45
India,Uttar_Pradesh,Agra,"Manoharpur, Agra - UPPCB",03-04-2024 15:00:00,27.23711,78.01936,PM2.5,25,122,55
India,Uttar_Pradesh,Agra,"Manoharpur, Agra - UPPCB",03-04-2024 15:00:00,27.23711,78.01936,SO2,5,16,9
India,Uttar_Pradesh,Agra,"Rohta, Agra - UPPCB",03-04-2024 15:00:00,27.106972,78.000111,CO,5,20,12
India,Uttar_Pradesh,Agra,"Sanjay Palace, Agra - UPPCB",03-04-2024 15:00:00,27.19865833,78.00598056,NO2,27,48,37
India,Uttar_Pradesh,Agra,"Sanjay Palace, Agra - UPPCB",03-04-2024 15:00:00,27.19865833,78.00598056,OZONE,22,53,45
India,Uttar_Pradesh,Agra,"Sector-3B Avas Vikas Colony, Agra - UPPCB",03-04-2024 15:00:00,27.19412,77.96237,NH3,3,9,6
India,Uttar_Pradesh,Agra,"Sector-3B Avas Vikas Colony, Agra - UPPCB",03-04-2024 15:00:00,27.19412,77.96237,OZONE,2,6,4
India,Uttar_Pradesh,Agra,"Shastripuram, Agra - UPPCB",03-04-2024 15:00:00,27.19862,77.92066,PM10,19,157,106
India,Uttar_Pradesh,Agra,"Shastripuram, Agra - UPPCB",03-04-2024 15:00:00,27.19862,77.92066,NO2,72,129,80
India,Uttar_Pradesh,Agra,"Shastripuram, Agra - UPPCB",03-04-2024 15:00:00,27.19862,77.92066,NH3,NA,NA,NA
India,Uttar_Pradesh,Bareilly,"Civil Lines, Bareilly - UPPCB",03-04-2024 15:00:00,28.359581,79.414455,SO2,45,48,46
India,Uttar_Pradesh,Bareilly,"Rajendra Nagar, Bareilly - UPPCB",03-04-2024 15:00:00,28.38910936,79.42963708,CO,2,22,17
India,Uttar_Pradesh,Bulandshahr,"Yamunapuram, Bulandshahr - UPPCB",03-04-2024 15:00:00,28.406963,77.849831,NH3,8,13,10
India,Uttar_Pradesh,Firozabad,"Vibhab Nagar, Firozabad - UPPCB",03-04-2024 15:00:00,27.1594,78.3953,OZONE,20,73,35
India,Uttar_Pradesh,Ghaziabad,"Indirapuram, Ghaziabad - UPPCB",03-04-2024 15:00:00,28.646233,77.358075,SO2,1,118,18
India,Uttar_Pradesh,Ghaziabad,"Loni, Ghaziabad - UPPCB",03-04-2024 15:00:00,28.757294,77.278792,NH3,1,9,5
India,Uttar_Pradesh,Ghaziabad,"Loni, Ghaziabad - UPPCB",03-04-2024 15:00:00,28.757294,77.278792,CO,13,100,54
India,Uttar_Pradesh,Ghaziabad,"Vasundhara, Ghaziabad - UPPCB",03-04-2024 15:00:00,28.6603346,77.3572563,NO2,30,133,72
India,Uttar_Pradesh,Ghaziabad,"Vasundhara, Ghaziabad - UPPCB",03-04-2024 15:00:00,28.6603346,77.3572563,SO2,16,83,43
India,Uttar_Pradesh,Gorakhpur,"Madan Mohan Malaviya University of Technology, Gorakhpur - UPPCB",03-04-2024 15:00:00,26.730136,83.433859,PM2.5,40,185,82
India,Uttar_Pradesh,Gorakhpur,"Madan Mohan Malaviya University of Technology, Gorakhpur - UPPCB",03-04-2024 15:00:00,26.730136,83.433859,SO2,34,59,43
India,Uttar_Pradesh,Greater Noida,"Knowledge Park - V, Greater Noida - UPPCB",03-04-2024 15:00:00,28.557054,77.453663,NO2,39,61,53
India,Uttar_Pradesh,Greater Noida,"Knowledge Park - V, Greater Noida - UPPCB",03-04-2024 15:00:00,28.557054,77.453663,CO,59,110,79
India,Uttar_Pradesh,Greater Noida,"Knowledge Park - V, Greater Noida - UPPCB",03-04-2024 15:00:00,28.557054,77.453663,OZONE,6,246,244
India,Uttar_Pradesh,Hapur,"Anand Vihar, Hapur - UPPCB",03-04-2024 15:00:00,28.725645,77.749675,NO2,3,156,69
India,Uttar_Pradesh,Hapur,"Anand Vihar, Hapur - UPPCB",03-04-2024 15:00:00,28.725645,77.749675,OZONE,2,95,74
India,Uttar_Pradesh,Jhansi,"Shivaji Nagar, Jhansi - UPPCB",03-04-2024 15:00:00,25.4547,78.6039,PM2.5,18,62,41
India,Uttar_Pradesh,Jhansi,"Shivaji Nagar, Jhansi - UPPCB",03-04-2024 15:00:00,25.4547,78.6039,NO2,1,52,17
India,Uttar_Pradesh,Jhansi,"Shivaji Nagar, Jhansi - UPPCB",03-04-2024 15:00:00,25.4547,78.6039,SO2,14,23,16
India,Uttar_Pradesh,Jhansi,"Shivaji Nagar, Jhansi - UPPCB",03-04-2024 15:00:00,25.4547,78.6039,OZONE,4,33,13
India,Uttar_Pradesh,Kanpur,"FTI Kidwai Nagar, Kanpur - UPPCB",03-04-2024 15:00:00,26.428282,80.327067,NO2,14,14,14
India,Uttar_Pradesh,Kanpur,"NSI Kalyanpur, Kanpur - UPPCB",03-04-2024 15:00:00,26.509954,80.249612,PM2.5,9,260,90
India,Uttar_Pradesh,Khurja,"Kalindi Kunj, Khurja - UPPCB",03-04-2024 15:00:00,28.2348927,77.8683002,PM2.5,29,154,81
India,Uttar_Pradesh,Lucknow,"Gomti Nagar, Lucknow - UPPCB",03-04-2024 15:00:00,26.868120,81.005119,PM10,38,119,64
India,Uttar_Pradesh,Lucknow,"Kendriya Vidyalaya, Lucknow - CPCB",03-04-2024 15:00:00,26.906111,80.948222,PM10,89,117,100
India,Uttar_Pradesh,Lucknow,"Kendriya Vidyalaya, Lucknow - CPCB",03-04-2024 15:00:00,26.906111,80.948222,CO,31,52,43
India,Uttar_Pradesh,Lucknow,"Kukrail Picnic Spot-1, Lucknow - UPPCB",03-04-2024 15:00:00,26.90723,80.98579,NH3,2,2,2
India,Uttar_Pradesh,Lucknow,"Kukrail Picnic Spot-1, Lucknow - UPPCB",03-04-2024 15:00:00,26.90723,80.98579,CO,11,23,18
India,Uttar_Pradesh,Lucknow,"Lalbagh, Lucknow - CPCB",03-04-2024 15:00:00,26.8458805,80.9365541,SO2,1,16,9
India,Uttar_Pradesh,Lucknow,"Talkatora District Industries Center, Lucknow - CPCB",03-04-2024 15:00:00,26.83399722,80.8917361,NO2,39,74,53
India,Uttar_Pradesh,Meerut,"Ganga Nagar, Meerut - UPPCB",03-04-2024 15:00:00,28.999264,77.7590354,OZONE,8,260,184
India,Uttar_Pradesh,Moradabad,"Eco Herbal Park, Moradabad - UPPCB",03-04-2024 15:00:00,28.840739,78.697531,NO2,3,48,19
India,Uttar_Pradesh,Moradabad,"Eco Herbal Park, Moradabad - UPPCB",03-04-2024 15:00:00,28.840739,78.697531,OZONE,3,128,88
India,Uttar_Pradesh,Moradabad,"Employment Office, Moradabad - UPPCB",03-04-2024 15:00:00,28.88528,78.73880,PM2.5,26,92,53
India,Uttar_Pradesh,Moradabad,"Employment Office, Moradabad - UPPCB",03-04-2024 15:00:00,28.88528,78.73880,PM10,61,146,94
India,Uttar_Pradesh,Moradabad,"Employment Office, Moradabad - UPPCB",03-04-2024 15:00:00,28.88528,78.73880,NH3,3,4,4
India,Uttar_Pradesh,Moradabad,"Jigar Colony, Moradabad - UPPCB",03-04-2024 15:00:00,28.856664,78.772638,NO2,19,24,22
India,Uttar_Pradesh,Moradabad,"Jigar Colony, Moradabad - UPPCB",03-04-2024 15:00:00,28.856664,78.772638,SO2,19,27,24
India,Uttar_Pradesh,Moradabad,"Jigar Colony, Moradabad - UPPCB",03-04-2024 15:00:00,28.856664,78.772638,CO,10,42,35
India,Uttar_Pradesh,Moradabad,"Kashiram Nagar, Moradabad - UPPCB",03-04-2024 15:00:00,28.849399,78.742362,NO2,3,4,4
India,Uttar_Pradesh,Moradabad,"Transport Nagar, Moradabad - UPPCB",03-04-2024 15:00:00,28.802625,78.753728,NO2,7,21,15
India,Uttar_Pradesh,Moradabad,"Transport Nagar, Moradabad - UPPCB",03-04-2024 15:00:00,28.802625,78.753728,SO2,44,54,49
India,Uttar_Pradesh,Moradabad,"Transport Nagar, Moradabad - UPPCB",03-04-2024 15:00:00,28.802625,78.753728,CO,39,42,41
India,Uttar_Pradesh,Muzaffarnagar,"New Mandi, Muzaffarnagar - UPPCB",03-04-2024 15:00:00,29.4723508,77.7194031,NH3,9,13,11
India,Uttar_Pradesh,Noida,"Sector - 125, Noida - UPPCB",03-04-2024 15:00:00,28.5447608,77.3231257,SO2,7,105,29
India,Uttar_Pradesh,Noida,"Sector - 62, Noida - IMD",03-04-2024 15:00:00,28.6245479,77.3577104,CO,43,76,53
India,Uttar_Pradesh,Noida,"Sector - 62, Noida - IMD",03-04-2024 15:00:00,28.6245479,77.3577104,OZONE,11,57,43
India,Uttar_Pradesh,Noida,"Sector-1, Noida - UPPCB",03-04-2024 15:00:00,28.5898,77.3101,PM10,98,204,151
India,Uttar_Pradesh,Noida,"Sector-116, Noida - UPPCB",03-04-2024 15:00:00,28.569230,77.393848,PM10,100,218,142
India,Uttar_Pradesh,Noida,"Sector-116, Noida - UPPCB",03-04-2024 15:00:00,28.569230,77.393848,NH3,6,9,7
India,Uttar_Pradesh,Prayagraj,"Jhunsi, Prayagraj - UPPCB",03-04-2024 15:00:00,25.425602,81.917152,NH3,5,5,5
India,Uttar_Pradesh,Prayagraj,"Jhunsi, Prayagraj - UPPCB",03-04-2024 15:00:00,25.425602,81.917152,SO2,30,32,31
India,Uttar_Pradesh,Prayagraj,"Motilal Nehru NIT, Prayagraj - UPPCB",03-04-2024 15:00:00,25.494,81.863,NO2,12,12,12
India,Uttar_Pradesh,Prayagraj,"Nagar Nigam, Prayagraj - UPPCB",03-04-2024 15:00:00,25.44919916 ,81.82735986 ,CO,14,34,23
India,Uttar_Pradesh,Prayagraj,"Nagar Nigam, Prayagraj - UPPCB",03-04-2024 15:00:00,25.44919916 ,81.82735986 ,OZONE,11,12,11
India,Uttar_Pradesh,Varanasi,"Ardhali Bazar, Varanasi - UPPCB",03-04-2024 15:00:00,25.3505986,82.9083074,PM10,8,48,30
India,Uttar_Pradesh,Varanasi,"Ardhali Bazar, Varanasi - UPPCB",03-04-2024 15:00:00,25.3505986,82.9083074,OZONE,12,15,14
India,Uttar_Pradesh,Varanasi,"Bhelupur, Varanasi - UPPCB",03-04-2024 15:00:00,25.301778,82.996789,NH3,1,2,1
India,Uttar_Pradesh,Varanasi,"IESD Banaras Hindu University, Varanasi - UPPCB",03-04-2024 15:00:00,25.262326,82.995408,NH3,1,3,2
India,Uttar_Pradesh,Varanasi,"Maldahiya, Varanasi - UPPCB",03-04-2024 15:00:00,25.32393,82.99687,CO,2,28,14
India,Uttarakhand,Kashipur,"Govt. Girls Inter College, Kashipur - UKPCB",03-04-2024 15:00:00,29.2124114,78.9611753,PM10,57,106,79
India,Uttarakhand,Rishikesh,"Shivaji Nagar, Rishikesh - UKPCB",03-04-2024 15:00:00,30.075911,78.2859547,PM2.5,29,60,42
India,West_Bengal,Asansol,"Asansol Court Area, Asansol - WBPCB",03-04-2024 15:00:00,23.685297,86.945968,PM2.5,92,301,212
India,West_Bengal,Asansol,"Asansol Court Area, Asansol - WBPCB",03-04-2024 15:00:00,23.685297,86.945968,PM10,127,187,155
India,West_Bengal,Asansol,"Asansol Court Area, Asansol - WBPCB",03-04-2024 15:00:00,23.685297,86.945968,NH3,3,11,5
India,West_Bengal,Barrackpore,"SVSPA Campus, Barrackpore - WBPCB",03-04-2024 15:00:00,22.7605581,88.3617589,PM2.5,NA,NA,NA
India,West_Bengal,Barrackpore,"SVSPA Campus, Barrackpore - WBPCB",03-04-2024 15:00:00,22.7605581,88.3617589,PM10,NA,NA,NA
India,West_Bengal,Barrackpore,"SVSPA Campus, Barrackpore - WBPCB",03-04-2024 15:00:00,22.7605581,88.3617589,SO2,NA,NA,NA
India,West_Bengal,Durgapur,"PCBL Residential Complex, Durgapur - WBPCB",03-04-2024 15:00:00,23.5087640,87.3544400,PM10,140,410,272
India,West_Bengal,Durgapur,"PCBL Residential Complex, Durgapur - WBPCB",03-04-2024 15:00:00,23.5087640,87.3544400,NO2,21,139,61
India,West_Bengal,Durgapur,"PCBL Residential Complex, Durgapur - WBPCB",03-04-2024 15:00:00,23.5087640,87.3544400,CO,101,139,108
India,West_Bengal,Durgapur,"Sidhu Kanhu Indoor Stadium, Durgapur - WBPCB",03-04-2024 15:00:00,23.5404352,87.2892225,SO2,10,51,26
India,West_Bengal,Durgapur,"Sidhu Kanhu Indoor Stadium, Durgapur - WBPCB",03-04-2024 15:00:00,23.5404352,87.2892225,CO,26,101,45
India,West_Bengal,Howrah,"Belur Math, Howrah - WBPCB",03-04-2024 15:00:00,22.629801,88.352017,NO2,3,25,14
India,West_Bengal,Howrah,"Ghusuri, Howrah - WBPCB",03-04-2024 15:00:00,22.611968,88.347422,PM2.5,54,238,123
India,West_Bengal,Howrah,"Ghusuri, Howrah - WBPCB",03-04-2024 15:00:00,22.611968,88.347422,PM10,71,189,126
India,West_Bengal,Howrah,"Ghusuri, Howrah - WBPCB",03-04-2024 15:00:00,22.611968,88.347422,OZONE,15,36,25
India,West_Bengal,Howrah,"Padmapukur, Howrah - WBPCB",03-04-2024 15:00:00,22.5687319,88.2797276,PM2.5,35,84,58
India,West_Bengal,Howrah,"Padmapukur, Howrah - WBPCB",03-04-2024 15:00:00,22.5687319,88.2797276,OZONE,7,98,46
India,West_Bengal,Kolkata,"Fort William, Kolkata - WBPCB",03-04-2024 15:00:00,22.556640,88.342674,NH3,3,5,4
India,West_Bengal,Kolkata,"Jadavpur, Kolkata - WBPCB",03-04-2024 15:00:00,22.49929,88.36917,SO2,5,30,14
India,West_Bengal,Kolkata,"Rabindra Sarobar, Kolkata - WBPCB",03-04-2024 15:00:00,22.51106,88.35142,PM10,38,98,65
India,West_Bengal,Kolkata,"Rabindra Sarobar, Kolkata - WBPCB",03-04-2024 15:00:00,22.51106,88.35142,CO,4,44,17
India,West_Bengal,Kolkata,"Victoria, Kolkata - WBPCB",03-04-2024 15:00:00,22.5448082,88.3403691,NO2,7,20,9
India,West_Bengal,Siliguri,"Ward-32 Bapupara, Siliguri - WBPCB",03-04-2024 15:00:00,26.6879226,88.4152495,NO2,35,136,69
India,West_Bengal,Siliguri,"Ward-32 Bapupara, Siliguri - WBPCB",03-04-2024 15:00:00,26.6879226,88.4152495,SO2,7,11,9
India,Andhra_Pradesh,Amaravati,"Secretariat, Amaravati - APPCB",03-04-2024 15:00:00,16.5150833,80.5181667,SO2,14,18,16
India,Andhra_Pradesh,Anantapur,"Gulzarpet, Anantapur - APPCB",03-04-2024 15:00:00,14.675886,77.593027,SO2,5,9,7
India,Andhra_Pradesh,Chittoor,"Gangineni Cheruvu, Chittoor - APPCB",03-04-2024 15:00:00,13.204880,79.097889,PM2.5,26,362,102
India,Andhra_Pradesh,Chittoor,"Gangineni Cheruvu, Chittoor - APPCB",03-04-2024 15:00:00,13.204880,79.097889,NH3,1,2,1
India,Andhra_Pradesh,Kadapa,"Yerramukkapalli, Kadapa - APPCB",03-04-2024 15:00:00,14.465052,78.824187,PM2.5,25,55,38
India,Andhra_Pradesh,Kadapa,"Yerramukkapalli, Kadapa - APPCB",03-04-2024 15:00:00,14.465052,78.824187,NO2,8,8,8
India,Andhra_Pradesh,Rajamahendravaram,"Anand Kala Kshetram, Rajamahendravaram - APPCB",03-04-2024 15:00:00,16.9872867,81.7363176,PM10,20,44,31
India,Andhra_Pradesh,Rajamahendravaram,"Anand Kala Kshetram, Rajamahendravaram - APPCB",03-04-2024 15:00:00,16.9872867,81.7363176,NO2,5,20,10
India,Andhra_Pradesh,Rajamahendravaram,"Anand Kala Kshetram, Rajamahendravaram - APPCB",03-04-2024 15:00:00,16.9872867,81.7363176,OZONE,16,23,21
India,Andhra_Pradesh,Tirupati,"Tirumala, Tirupati - APPCB",03-04-2024 15:00:00,13.67,79.35,CO,10,48,30
India,Andhra_Pradesh,Tirupati,"Vaikuntapuram, Tirupati - APPCB",03-04-2024 15:00:00,13.615387,79.409230,NO2,NA,NA,NA
India,Andhra_Pradesh,Vijayawada,"Kanuru, Vijayawada - APPCB",03-04-2024 15:00:00,16.486692,80.699436,NH3,NA,NA,NA
India,Andhra_Pradesh,Vijayawada,"Rajiv Gandhi Park, Vijayawada - APPCB",03-04-2024 15:00:00,16.509717,80.612222,OZONE,3,61,21
India,Assam,Byrnihat,"Central Academy for SFS, Byrnihat - PCBA",03-04-2024 15:00:00,26.071318,91.87488,OZONE,17,22,20
India,Assam,Guwahati,"IITG, Guwahati - PCBA",03-04-2024 15:00:00,26.2028636,91.70046436,PM10,88,270,162
India,Assam,Guwahati,"LGBI Airport, Guwahati - PCBA",03-04-2024 15:00:00,26.10887,91.589544,PM10,121,311,197
India,Assam,Guwahati,"LGBI Airport, Guwahati - PCBA",03-04-2024 15:00:00,26.10887,91.589544,NH3,2,8,5
India,Assam,Guwahati,"LGBI Airport, Guwahati - PCBA",03-04-2024 15:00:00,26.10887,91.589544,OZONE,16,37,24
India,Assam,Guwahati,"Pan Bazaar, Guwahati - PCBA",03-04-2024 15:00:00,26.187500,91.744194,NH3,4,7,5
India,Assam,Guwahati,"Pan Bazaar, Guwahati - PCBA",03-04-2024 15:00:00,26.187500,91.744194,CO,21,107,22
India,Assam,Nagaon,"Christianpatty, Nagaon - PCBA",03-04-2024 15:00:00,26.349082,92.68449,SO2,1,47,21
India,Assam,Nagaon,"Christianpatty, Nagaon - PCBA",03-04-2024 15:00:00,26.349082,92.68449,OZONE,12,114,76
India,Assam,Nalbari,"Bata Chowk, Nalbari - PCBA",03-04-2024 15:00:00,26.446912,91.439057,OZONE,30,181,98
India,Assam,Silchar,"Tarapur, Silchar - PCBA",03-04-2024 15:00:00,24.82827,92.79525,CO,32,62,43
India,Assam,Sivasagar,"Girls College, Sivasagar - PCBA",03-04-2024 15:00:00,26.987634,94.636574,NH3,1,1,1
India,Bihar,Araria,"Kharahiya Basti, Araria - BSPCB",03-04-2024 15:00:00,26.146529,87.454184,NH3,7,8,7
India,Bihar,Arrah,"New DM Office, Arrah - BSPCB",03-04-2024 15:00:00,25.5626095,84.663264,NO2,4,22,13
India,Bihar,Aurangabad,"Gurdeo Nagar, Aurangabad - BSPCB",03-04-2024 15:00:00,24.75746,84.366208,PM2.5,NA,NA,NA
India,Bihar,Bettiah,"Kamalnath Nagar, Bettiah - BSPCB",03-04-2024 15:00:00,26.80365,84.51954,CO,62,72,64
India,Bihar,Bettiah,"Kamalnath Nagar, Bettiah - BSPCB",03-04-2024 15:00:00,26.80365,84.51954,OZONE,3,12,10
India,Bihar,Bhagalpur,"DM Office_Kachari Chowk, Bhagalpur - BSPCB",03-04-2024 15:00:00,25.251013,86.989001,NO2,50,90,69
India,Bihar,Buxar,"Charitra Van, Buxar - BSPCB (Formerly known as Central Jail)",03-04-2024 15:00:00,25.567520,83.966379,NO2,NA,NA,NA
India,Bihar,Buxar,"Charitra Van, Buxar - BSPCB (Formerly known as Central Jail)",03-04-2024 15:00:00,25.567520,83.966379,SO2,NA,NA,NA
India,Bihar,Gaya,"Kareemganj, Gaya - BSPCB",03-04-2024 15:00:00,24.792403,84.992416,CO,2,150,55
India,Bihar,Gaya,"SFTI Kusdihra, Gaya - BSPCB",03-04-2024 15:00:00,24.762518,84.982348,NH3,4,5,4
India,Bihar,Gaya,"SFTI Kusdihra, Gaya - BSPCB",03-04-2024 15:00:00,24.762518,84.982348,CO,12,40,20
India,Bihar,Gaya,"SFTI Kusdihra, Gaya - BSPCB",03-04-2024 15:00:00,24.762518,84.982348,OZONE,7,87,60
India,Bihar,Hajipur,"Industrial Area, Hajipur - BSPCB",03-04-2024 15:00:00,25.697189,85.245900,OZONE,12,75,56
India,Bihar,Katihar,"Mirchaibari, Katihar - BSPCB",03-04-2024 15:00:00,25.560083,87.553265,PM10,127,282,187
India,Bihar,Katihar,"Mirchaibari, Katihar - BSPCB",03-04-2024 15:00:00,25.560083,87.553265,OZONE,11,20,14
India,Bihar,Kishanganj,"SDM Office_Khagra, Kishanganj - BSPCB",03-04-2024 15:00:00,26.0881305,87.93840336,PM10,151,500,245
India,Bihar,Kishanganj,"SDM Office_Khagra, Kishanganj - BSPCB",03-04-2024 15:00:00,26.0881305,87.93840336,SO2,30,104,51
India,Bihar,Motihari,"Gandak Colony, Motihari - BSPCB",03-04-2024 15:00:00,26.63086,84.90051,OZONE,33,173,108
India,Bihar,Munger,"Town Hall, Munger - BSPCB",03-04-2024 15:00:00,25.376776,86.471523,PM2.5,62,197,101
India,Bihar,Muzaffarpur,"Buddha Colony, Muzaffarpur - BSPCB",03-04-2024 15:00:00,26.11442,85.39813,PM2.5,126,294,205
India,Bihar,Muzaffarpur,"Buddha Colony, Muzaffarpur - BSPCB",03-04-2024 15:00:00,26.11442,85.39813,NO2,20,63,35
India,Bihar,Muzaffarpur,"MIT-Daudpur Kothi, Muzaffarpur - BSPCB",03-04-2024 15:00:00,26.1403345,85.3650192,PM2.5,93,442,265
India,Bihar,Muzaffarpur,"MIT-Daudpur Kothi, Muzaffarpur - BSPCB",03-04-2024 15:00:00,26.1403345,85.3650192,PM10,84,308,156
India,Bihar,Muzaffarpur,"MIT-Daudpur Kothi, Muzaffarpur - BSPCB",03-04-2024 15:00:00,26.1403345,85.3650192,NH3,1,4,3
India,Bihar,Muzaffarpur,"MIT-Daudpur Kothi, Muzaffarpur - BSPCB",03-04-2024 15:00:00,26.1403345,85.3650192,CO,18,80,35
India,Bihar,Muzaffarpur,"MIT-Daudpur Kothi, Muzaffarpur - BSPCB",03-04-2024 15:00:00,26.1403345,85.3650192,OZONE,14,80,59
India,Bihar,Muzaffarpur,"Muzaffarpur Collectorate, Muzaffarpur - BSPCB",03-04-2024 15:00:00,26.1209,85.3647,SO2,7,31,13
India,Bihar,Patna,"DRM Office Danapur, Patna - BSPCB",03-04-2024 15:00:00,25.586562,85.043586,PM10,118,143,129
India,Bihar,Patna,"Govt. High School Shikarpur, Patna - BSPCB",03-04-2024 15:00:00,25.592539,85.227158,SO2,8,14,10
India,Bihar,Patna,"IGSC Planetarium Complex, Patna - BSPCB",03-04-2024 15:00:00,25.610369,85.132568,NO2,NA,NA,NA
India,Bihar,Patna,"Muradpur, Patna - BSPCB",03-04-2024 15:00:00,25.619651,85.147382,PM2.5,195,373,276
India,Bihar,Patna,"Muradpur, Patna - BSPCB",03-04-2024 15:00:00,25.619651,85.147382,CO,8,56,20
India,Bihar,Patna,"Samanpura, Patna - BSPCB",03-04-2024 15:00:00,25.596727,85.085624,NO2,22,48,35
India,Bihar,Patna,"Samanpura, Patna - BSPCB",03-04-2024 15:00:00,25.596727,85.085624,SO2,6,7,7
India,Bihar,Patna,"Samanpura, Patna - BSPCB",03-04-2024 15:00:00,25.596727,85.085624,OZONE,28,35,31
India,Bihar,Rajgir,"Dangi Tola, Rajgir - BSPCB",03-04-2024 15:00:00,25.03280,85.41948,NO2,NA,NA,NA
India,Bihar,Saharsa,"Police Line, Saharsa - BSPCB",03-04-2024 15:00:00,25.892357,86.590325,PM2.5,15,170,63
India,Bihar,Saharsa,"Police Line, Saharsa - BSPCB",03-04-2024 15:00:00,25.892357,86.590325,NH3,9,9,9
India,Bihar,Saharsa,"Police Line, Saharsa - BSPCB",03-04-2024 15:00:00,25.892357,86.590325,OZONE,16,53,40
India,Bihar,Samastipur,"DM Office_Kasipur, Samastipur - BSPCB",03-04-2024 15:00:00,25.859655,85.77944,PM10,69,185,115
India,Bihar,Samastipur,"DM Office_Kasipur, Samastipur - BSPCB",03-04-2024 15:00:00,25.859655,85.77944,SO2,2,63,18
India,Bihar,Samastipur,"DM Office_Kasipur, Samastipur - BSPCB",03-04-2024 15:00:00,25.859655,85.77944,OZONE,10,38,17
India,Bihar,Sasaram,"Dada Peer, Sasaram - BSPCB",03-04-2024 15:00:00,24.952822,84.002396,PM2.5,11,46,27
India,Bihar,Siwan,"Chitragupta Nagar, Siwan - BSPCB",03-04-2024 15:00:00,26.2271665,84.3570427,NO2,10,47,22
India,Bihar,Siwan,"Chitragupta Nagar, Siwan - BSPCB",03-04-2024 15:00:00,26.2271665,84.3570427,CO,58,136,96
India,Chandigarh,Chandigarh,"Sector-25, Chandigarh - CPCC",03-04-2024 15:00:00,30.751462,76.762879,PM2.5,96,179,122
India,Chandigarh,Chandigarh,"Sector-25, Chandigarh - CPCC",03-04-2024 15:00:00,30.751462,76.762879,PM10,101,135,114
India,Chandigarh,Chandigarh,"Sector-25, Chandigarh - CPCC",03-04-2024 15:00:00,30.751462,76.762879,NH3,11,19,15
India,Chandigarh,Chandigarh,"Sector-53, Chandigarh - CPCC",03-04-2024 15:00:00,30.719859,76.738637,PM2.5,27,290,102
India,Chandigarh,Chandigarh,"Sector-53, Chandigarh - CPCC",03-04-2024 15:00:00,30.719859,76.738637,OZONE,5,57,35
India,Chhattisgarh,Bhilai,"32Bungalows, Bhilai - CECB",03-04-2024 15:00:00,21.194815,81.314770,PM10,54,119,87
India,Chhattisgarh,Bhilai,"Civic Center, Bhilai - Bhilai Steel Plant",03-04-2024 15:00:00,21.185571,81.343175,PM2.5,33,96,60
India,Chhattisgarh,Bhilai,"Civic Center, Bhilai - Bhilai Steel Plant",03-04-2024 15:00:00,21.185571,81.343175,PM10,49,157,80
India,Chhattisgarh,Bilaspur,"Mangala, Bilaspur - NTPC",03-04-2024 15:00:00,22.08815,82.13737,NO2,19,22,20
India,Chhattisgarh,Bilaspur,"Mangala, Bilaspur - NTPC",03-04-2024 15:00:00,22.08815,82.13737,SO2,8,17,13
India,Chhattisgarh,Chhal,"Nawapara SECL Colony, Chhal - CECB",03-04-2024 15:00:00,22.118125,83.140608,NO2,16,74,44
India,Chhattisgarh,Chhal,"Nawapara SECL Colony, Chhal - CECB",03-04-2024 15:00:00,22.118125,83.140608,SO2,6,72,15
India,Chhattisgarh,Korba,"Rampur, Korba - CECB",03-04-2024 15:00:00,22.368195,82.746431,SO2,7,42,15
India,Chhattisgarh,Kunjemura,"OP Jindal School, Kunjemura - CECB",03-04-2024 15:00:00,22.126650,83.483212,NH3,1,6,2
India,Chhattisgarh,Kunjemura,"OP Jindal School, Kunjemura - CECB",03-04-2024 15:00:00,22.126650,83.483212,CO,22,108,51
India,Chhattisgarh,Milupara,"Govt. Higher Secondary School, Milupara - CECB",03-04-2024 15:00:00,22.1910172,83.5197009,PM2.5,44,145,87
India,Chhattisgarh,Raipur,"AIIMS, Raipur - CECB",03-04-2024 15:00:00,21.258815,81.578979,PM2.5,NA,NA,NA
India,Chhattisgarh,Raipur,"Bhatagaon New ISBT, Raipur - CECB",03-04-2024 15:00:00,21.219665,81.630094,PM2.5,25,111,58
India,Chhattisgarh,Raipur,"Bhatagaon New ISBT, Raipur - CECB",03-04-2024 15:00:00,21.219665,81.630094,PM10,52,175,118
India,Chhattisgarh,Raipur,"Krishak Nagar, Raipur - CECB",03-04-2024 15:00:00,21.237755,81.705301,NO2,23,45,36
India,Chhattisgarh,Raipur,"Krishak Nagar, Raipur - CECB",03-04-2024 15:00:00,21.237755,81.705301,NH3,1,1,1
India,Chhattisgarh,Raipur,"Krishak Nagar, Raipur - CECB",03-04-2024 15:00:00,21.237755,81.705301,SO2,13,40,23
India,Chhattisgarh,Raipur,"Krishak Nagar, Raipur - CECB",03-04-2024 15:00:00,21.237755,81.705301,OZONE,2,43,18
India,Chhattisgarh,Raipur,"Siltara Phase-II, Raipur - CECB",03-04-2024 15:00:00,21.371751,81.664929,PM2.5,47,251,129
India,Chhattisgarh,Raipur,"Siltara Phase-II, Raipur - CECB",03-04-2024 15:00:00,21.371751,81.664929,NH3,3,3,3
India,Chhattisgarh,Raipur,"Siltara Phase-II, Raipur - CECB",03-04-2024 15:00:00,21.371751,81.664929,CO,26,106,60
India,Chhattisgarh,Raipur,"Siltara Phase-II, Raipur - CECB",03-04-2024 15:00:00,21.371751,81.664929,OZONE,3,73,37
India,Delhi,Delhi,"Alipur, Delhi - DPCC",03-04-2024 15:00:00,28.815329,77.153010,PM10,75,256,145
India,Delhi,Delhi,"Alipur, Delhi - DPCC",03-04-2024 15:00:00,28.815329,77.153010,CO,28,68,44
India,Delhi,Delhi,"Bawana, Delhi - DPCC",03-04-2024 15:00:00,28.776200,77.051074,CO,37,66,51
India,Delhi,Delhi,"Chandni Chowk, Delhi - IITM",03-04-2024 15:00:00,28.656756,77.227234,NH3,1,24,14
India,Delhi,Delhi,"Dr. Karni Singh Shooting Range, Delhi - DPCC",03-04-2024 15:00:00,28.498571,77.264840,PM10,103,155,129
India,Delhi,Delhi,"Dwarka-Sector 8, Delhi - DPCC ",03-04-2024 15:00:00,28.5710274,77.0719006,NH3,3,6,5
India,Delhi,Delhi,"Dwarka-Sector 8, Delhi - DPCC ",03-04-2024 15:00:00,28.5710274,77.0719006,CO,40,110,80
India,Delhi,Delhi,"IGI Airport (T3), Delhi - IMD",03-04-2024 15:00:00,28.5627763,77.1180053,PM2.5,25,155,77
India,Delhi,Delhi,"IHBAS, Dilshad Garden, Delhi - CPCB",03-04-2024 15:00:00,28.6811736,77.3025234,PM10,114,364,163
India,Delhi,Delhi,"IHBAS, Dilshad Garden, Delhi - CPCB",03-04-2024 15:00:00,28.6811736,77.3025234,CO,12,60,39
India,Delhi,Delhi,"IHBAS, Dilshad Garden, Delhi - CPCB",03-04-2024 15:00:00,28.6811736,77.3025234,OZONE,6,63,36
India,Delhi,Delhi,"Jawaharlal Nehru Stadium, Delhi - DPCC",03-04-2024 15:00:00,28.580280,77.233829,NO2,27,132,88
India,Delhi,Delhi,"Lodhi Road, Delhi - IMD",03-04-2024 15:00:00,28.5918245,77.2273074,PM2.5,25,93,62
India,Delhi,Delhi,"Mandir Marg, Delhi - DPCC",03-04-2024 15:00:00,28.636429,77.201067,NH3,6,6,6
India,Delhi,Delhi,"Mandir Marg, Delhi - DPCC",03-04-2024 15:00:00,28.636429,77.201067,SO2,6,11,8
India,Delhi,Delhi,"Mandir Marg, Delhi - DPCC",03-04-2024 15:00:00,28.636429,77.201067,CO,60,96,86
India,Delhi,Delhi,"Mundka, Delhi - DPCC",03-04-2024 15:00:00,28.684678,77.076574,PM2.5,37,315,174
India,Delhi,Delhi,"Mundka, Delhi - DPCC",03-04-2024 15:00:00,28.684678,77.076574,PM10,114,428,248
India,Delhi,Delhi,"NSIT Dwarka, Delhi - CPCB",03-04-2024 15:00:00,28.60909,77.0325413,NO2,59,86,71
India,Delhi,Delhi,"Najafgarh, Delhi - DPCC",03-04-2024 15:00:00,28.570173,76.933762,OZONE,16,213,182
India,Delhi,Delhi,"Narela, Delhi - DPCC",03-04-2024 15:00:00,28.822836,77.101981,PM10,101,243,176
India,Delhi,Delhi,"Okhla Phase-2, Delhi - DPCC",03-04-2024 15:00:00,28.530785,77.271255,NO2,45,139,98
India,Delhi,Delhi,"Okhla Phase-2, Delhi - DPCC",03-04-2024 15:00:00,28.530785,77.271255,SO2,9,19,13
India,Delhi,Delhi,"Patparganj, Delhi - DPCC",03-04-2024 15:00:00,28.623763,77.287209,NH3,6,10,8
India,Delhi,Delhi,"Punjabi Bagh, Delhi - DPCC",03-04-2024 15:00:00,28.674045,77.131023,PM2.5,31,211,126
India,Delhi,Delhi,"Punjabi Bagh, Delhi - DPCC",03-04-2024 15:00:00,28.674045,77.131023,CO,28,82,48
India,Delhi,Delhi,"Pusa, Delhi - DPCC",03-04-2024 15:00:00,28.639652,77.146275,NO2,55,157,112
India,Delhi,Delhi,"Pusa, Delhi - DPCC",03-04-2024 15:00:00,28.639652,77.146275,NH3,3,9,7
India,Delhi,Delhi,"Pusa, Delhi - DPCC",03-04-2024 15:00:00,28.639652,77.146275,SO2,10,34,23
India,Delhi,Delhi,"Pusa, Delhi - IMD",03-04-2024 15:00:00,28.636110,77.173332,PM10,NA,NA,NA
India,Delhi,Delhi,"R K Puram, Delhi - DPCC",03-04-2024 15:00:00,28.563262,77.186937,PM2.5,47,278,114
India,Delhi,Delhi,"R K Puram, Delhi - DPCC",03-04-2024 15:00:00,28.563262,77.186937,SO2,6,42,21
India,Delhi,Delhi,"Shadipur, Delhi - CPCB",03-04-2024 15:00:00,28.6514781,77.1473105,CO,16,44,24
India,Delhi,Delhi,"Sirifort, Delhi - CPCB",03-04-2024 15:00:00,28.5504249,77.2159377,OZONE,2,42,9
India,Delhi,Delhi,"Sri Aurobindo Marg, Delhi - DPCC",03-04-2024 15:00:00,28.531346,77.190156,OZONE,7,47,16
India,Delhi,Delhi,"Vivek Vihar, Delhi - DPCC",03-04-2024 15:00:00,28.672342,77.315260,PM2.5,21,362,169
India,Delhi,Delhi,"Vivek Vihar, Delhi - DPCC",03-04-2024 15:00:00,28.672342,77.315260,NO2,26,107,64
India,Delhi,Delhi,"Vivek Vihar, Delhi - DPCC",03-04-2024 15:00:00,28.672342,77.315260,NH3,14,15,15
India,Delhi,Delhi,"Vivek Vihar, Delhi - DPCC",03-04-2024 15:00:00,28.672342,77.315260,CO,8,68,35
India,Delhi,Delhi,"Vivek Vihar, Delhi - DPCC",03-04-2024 15:00:00,28.672342,77.315260,OZONE,4,138,80
India,Delhi,Delhi,"Wazirpur, Delhi - DPCC",03-04-2024 15:00:00,28.699793,77.165453,PM10,124,257,182
India,Delhi,Delhi,"Wazirpur, Delhi - DPCC",03-04-2024 15:00:00,28.699793,77.165453,NH3,8,10,9
India,Gujarat,Ahmedabad,"Chandkheda, Ahmedabad - IITM",03-04-2024 15:00:00,23.107969,72.574648,PM2.5,46,181,93
India,Gujarat,Ahmedabad,"Chandkheda, Ahmedabad - IITM",03-04-2024 15:00:00,23.107969,72.574648,PM10,50,130,90
India,Gujarat,Ahmedabad,"Chandkheda, Ahmedabad - IITM",03-04-2024 15:00:00,23.107969,72.574648,SO2,7,11,9
India,Gujarat,Ahmedabad,"Gyaspur, Ahmedabad - IITM",03-04-2024 15:00:00,22.977134,72.553024,PM10,82,480,172
India,Gujarat,Ahmedabad,"Gyaspur, Ahmedabad - IITM",03-04-2024 15:00:00,22.977134,72.553024,NO2,23,64,48
India,Gujarat,Ahmedabad,"Maninagar, Ahmedabad - GPCB",03-04-2024 15:00:00,23.002657,72.591912,SO2,NA,NA,NA
India,Gujarat,Ahmedabad,"Raikhad, Ahmedabad - IITM",03-04-2024 15:00:00,23.020509,72.579261,PM2.5,83,309,187
India,Gujarat,Ahmedabad,"Raikhad, Ahmedabad - IITM",03-04-2024 15:00:00,23.020509,72.579261,NO2,31,119,61
India,Gujarat,Ahmedabad,"SAC ISRO Satellite, Ahmedabad - IITM",03-04-2024 15:00:00,23.023389,72.515201,PM2.5,131,158,141
India,Gujarat,Ahmedabad,"SVPI Airport Hansol, Ahmedabad - IITM",03-04-2024 15:00:00,23.076793,72.627874,CO,20,77,24
India,Gujarat,Ankleshwar,"GIDC, Ankleshwar - GPCB",03-04-2024 15:00:00,21.613267,73.010555,PM10,79,153,116
India,Gujarat,Ankleshwar,"GIDC, Ankleshwar - GPCB",03-04-2024 15:00:00,21.613267,73.010555,NH3,6,6,6
India,Gujarat,Gandhinagar,"IIPHG Lekawada, Gandhinagar - IITM",03-04-2024 15:00:00,23.243639,72.68994,NO2,38,45,41
India,Gujarat,Nandesari,"GIDC, Nandesari - Nandesari Ind. Association",03-04-2024 15:00:00,22.410802,73.097923,NO2,1,18,10
India,Gujarat,Nandesari,"GIDC, Nandesari - Nandesari Ind. Association",03-04-2024 15:00:00,22.410802,73.097923,SO2,5,15,11
India,Gujarat,Vatva,"Phase-4 GIDC, Vatva - GPCB",03-04-2024 15:00:00,22.969611,72.643500,PM10,NA,NA,NA
India,Haryana,Ambala,"Patti Mehar, Ambala - HSPCB",03-04-2024 15:00:00,30.379589,76.778328,PM10,33,66,50
India,Haryana,Ballabgarh,"Nathu Colony, Ballabgarh - HSPCB",03-04-2024 15:00:00,28.3419248,77.319699,PM2.5,74,319,189
India,Haryana,Bhiwani,"H.B. Colony, Bhiwani - HSPCB",03-04-2024 15:00:00,28.806223,76.141105,PM10,10,500,143
India,Haryana,Bhiwani,"H.B. Colony, Bhiwani - HSPCB",03-04-2024 15:00:00,28.806223,76.141105,OZONE,2,27,17
India,Haryana,Charkhi Dadri,"Mini Secretariat, Charkhi Dadri - HSPCB",03-04-2024 15:00:00,28.593883,76.270653,PM2.5,85,302,160
India,Haryana,Dharuhera,"Municipal Corporation Office, Dharuhera -  HSPCB",03-04-2024 15:00:00,28.206800,76.799700,PM10,91,439,175
India,Haryana,Faridabad,"New Industrial Town, Faridabad - HSPCB",03-04-2024 15:00:00,28.39072,77.30059,NO2,9,18,13
India,Haryana,Faridabad,"New Industrial Town, Faridabad - HSPCB",03-04-2024 15:00:00,28.39072,77.30059,NH3,2,5,3
India,Haryana,Faridabad,"New Industrial Town, Faridabad - HSPCB",03-04-2024 15:00:00,28.39072,77.30059,SO2,8,9,9
India,Haryana,Faridabad,"Sector 11, Faridabad - HSPCB",03-04-2024 15:00:00,28.376058,77.315741,NO2,31,32,31
India,Haryana,Faridabad,"Sector 30, Faridabad - HSPCB",03-04-2024 15:00:00,28.4417,77.3217,NO2,29,32,31
India,Haryana,Faridabad,"Sector- 16A, Faridabad - HSPCB",03-04-2024 15:00:00,28.4088421,77.3099081,SO2,7,25,18
India,Haryana,Fatehabad,"Huda Sector, Fatehabad - HSPCB",03-04-2024 15:00:00,29.503664,75.467934,CO,5,11,7
India,Haryana,Gurugram,"Sector-51, Gurugram - HSPCB",03-04-2024 15:00:00,28.4227,77.0667,SO2,1,4,3
India,Haryana,Gurugram,"Teri Gram, Gurugram - HSPCB",03-04-2024 15:00:00,28.4275,77.1465,CO,7,29,24
India,Haryana,Hisar,"Urban Estate-II, Hisar - HSPCB",03-04-2024 15:00:00,29.140560,75.744941,NO2,20,26,22
India,Haryana,Jind,"Police Lines, Jind - HSPCB",03-04-2024 15:00:00,29.307814,76.337619,NO2,4,13,10
India,Haryana,Jind,"Police Lines, Jind - HSPCB",03-04-2024 15:00:00,29.307814,76.337619,CO,4,106,29
India,Haryana,Kaithal,"Rishi Nagar, Kaithal - HSPCB",03-04-2024 15:00:00,29.8006,76.4155,PM2.5,27,111,54
India,Haryana,Karnal,"Sector-12, Karnal - HSPCB",03-04-2024 15:00:00,29.695300,77.002700,PM10,56,131,80
India,Haryana,Karnal,"Sector-12, Karnal - HSPCB",03-04-2024 15:00:00,29.695300,77.002700,CO,20,44,33
India,Haryana,Kurukshetra,"Sector-7, Kurukshetra - HSPCB",03-04-2024 15:00:00,29.966942,76.875879,PM2.5,32,186,90
India,Haryana,Kurukshetra,"Sector-7, Kurukshetra - HSPCB",03-04-2024 15:00:00,29.966942,76.875879,SO2,1,59,20
India,Haryana,Mandikhera,"General Hospital, Mandikhera - HSPCB",03-04-2024 15:00:00,27.9002,76.9938,PM10,65,188,112
India,Haryana,Mandikhera,"General Hospital, Mandikhera - HSPCB",03-04-2024 15:00:00,27.9002,76.9938,NO2,20,25,21
India,Haryana,Mandikhera,"General Hospital, Mandikhera - HSPCB",03-04-2024 15:00:00,27.9002,76.9938,NH3,17,19,18
India,Haryana,Mandikhera,"General Hospital, Mandikhera - HSPCB",03-04-2024 15:00:00,27.9002,76.9938,OZONE,22,33,28
India,Haryana,Manesar,"Sector-2 IMT, Manesar - HSPCB",03-04-2024 15:00:00,28.360699,76.936090,NO2,24,30,27
India,Haryana,Manesar,"Sector-2 IMT, Manesar - HSPCB",03-04-2024 15:00:00,28.360699,76.936090,NH3,2,3,2
India,Haryana,Manesar,"Sector-2 IMT, Manesar - HSPCB",03-04-2024 15:00:00,28.360699,76.936090,SO2,1,16,8
India,Haryana,Manesar,"Sector-2 IMT, Manesar - HSPCB",03-04-2024 15:00:00,28.360699,76.936090,CO,2,32,24
India,Haryana,Narnaul,"Shastri Nagar, Narnaul - HSPCB",03-04-2024 15:00:00,28.060249,76.113115,NH3,4,24,11
India,Haryana,Narnaul,"Shastri Nagar, Narnaul - HSPCB",03-04-2024 15:00:00,28.060249,76.113115,CO,12,42,26
India,Haryana,Palwal,"Shyam Nagar, Palwal - HSPCB",03-04-2024 15:00:00,28.1485564,77.3320667,CO,18,40,30
India,Haryana,Panipat,"Sector-18, Panipat - HSPCB",03-04-2024 15:00:00,29.497973,76.993331,CO,24,26,25
India,Haryana,Panipat,"Sector-18, Panipat - HSPCB",03-04-2024 15:00:00,29.497973,76.993331,OZONE,29,30,30
India,Haryana,Sirsa,"F-Block, Sirsa - HSPCB",03-04-2024 15:00:00,29.536400,75.015800,NO2,10,10,10
India,Haryana,Sirsa,"F-Block, Sirsa - HSPCB",03-04-2024 15:00:00,29.536400,75.015800,OZONE,56,112,89
India,Haryana,Sonipat,"Murthal, Sonipat - HSPCB",03-04-2024 15:00:00,29.027200,77.062100,PM2.5,53,125,74
India,Haryana,Yamuna Nagar,"Gobind Pura, Yamuna Nagar - HSPCB",03-04-2024 15:00:00,30.1480566,77.2893471,NH3,1,6,4
India,Himachal Pradesh,Baddi,"HIMUDA Complex Phase-1, Baddi - HPPCB",03-04-2024 15:00:00,30.943887,76.801991,PM10,44,177,104
India,Jharkhand,Dhanbad,"Kalakusuma, Dhanbad - DMC",03-04-2024 15:00:00,23.811548,86.481238,CO,128,134,131
India,Jharkhand,Dhanbad,"Sardar Patel Nagar, Dhanbad - JSPCB",03-04-2024 15:00:00,23.80569,86.44268,NO2,1,125,42
India,Jharkhand,Dhanbad,"Sardar Patel Nagar, Dhanbad - JSPCB",03-04-2024 15:00:00,23.80569,86.44268,CO,1,161,77
India,Karnataka,Bagalkot,"Vidayagiri, Bagalkot - KSPCB",03-04-2024 15:00:00,16.172806,75.659694,CO,16,52,37
India,Karnataka,Bengaluru,"BTM Layout, Bengaluru - CPCB",03-04-2024 15:00:00,12.9135218,77.5950804,NO2,NA,NA,NA
India,Karnataka,Bengaluru,"Bapuji Nagar, Bengaluru - KSPCB",03-04-2024 15:00:00,12.951913,77.539784,PM10,55,116,78
India,Karnataka,Bengaluru,"Bapuji Nagar, Bengaluru - KSPCB",03-04-2024 15:00:00,12.951913,77.539784,NH3,1,1,1
India,Karnataka,Bengaluru,"Hebbal, Bengaluru - KSPCB",03-04-2024 15:00:00,13.029152,77.585901,CO,10,48,17
India,Karnataka,Bengaluru,"Hombegowda Nagar, Bengaluru - KSPCB",03-04-2024 15:00:00,12.938539,77.590100,NH3,1,2,2
India,Karnataka,Bengaluru,"Jayanagar 5th Block, Bengaluru - KSPCB",03-04-2024 15:00:00,12.920984,77.584908,NH3,1,4,1
India,Karnataka,Bengaluru,"Jayanagar 5th Block, Bengaluru - KSPCB",03-04-2024 15:00:00,12.920984,77.584908,OZONE,18,28,19
India,Karnataka,Bengaluru,"Jigani, Bengaluru - KSPCB",03-04-2024 15:00:00,12.7816279,77.6299145,PM2.5,12,179,50
India,Karnataka,Bengaluru,"Jigani, Bengaluru - KSPCB",03-04-2024 15:00:00,12.7816279,77.6299145,NO2,31,32,32
India,Karnataka,Bengaluru,"Sanegurava Halli, Bengaluru - KSPCB",03-04-2024 15:00:00,12.990328,77.5431385,NO2,23,56,29
India,Karnataka,Bengaluru,"Sanegurava Halli, Bengaluru - KSPCB",03-04-2024 15:00:00,12.990328,77.5431385,SO2,2,3,3
India,Karnataka,Bengaluru,"Sanegurava Halli, Bengaluru - KSPCB",03-04-2024 15:00:00,12.990328,77.5431385,CO,7,29,17
India,Karnataka,Bengaluru,"Silk Board, Bengaluru - KSPCB",03-04-2024 15:00:00,12.917348,77.622813,PM2.5,30,60,45
India,Karnataka,Bengaluru,"Silk Board, Bengaluru - KSPCB",03-04-2024 15:00:00,12.917348,77.622813,PM10,39,80,59
India,Karnataka,Bengaluru,"Silk Board, Bengaluru - KSPCB",03-04-2024 15:00:00,12.917348,77.622813,OZONE,21,27,24
India,Karnataka,Bidar,"Naubad, Bidar - KSPCB",03-04-2024 15:00:00,17.930306,77.482194,PM10,92,132,114
India,Karnataka,Bidar,"Naubad, Bidar - KSPCB",03-04-2024 15:00:00,17.930306,77.482194,SO2,16,20,18
India,Karnataka,Chamarajanagar,"Urban, Chamarajanagar - KSPCB",03-04-2024 15:00:00,11.55358,76.55521,NO2,22,35,29
India,Karnataka,Chikkaballapur,"Chikkaballapur Rural, Chikkaballapur - KSPCB",03-04-2024 15:00:00,13.428828,77.731418,NH3,1,1,1
India,Karnataka,Chikkaballapur,"Chikkaballapur Rural, Chikkaballapur - KSPCB",03-04-2024 15:00:00,13.428828,77.731418,CO,14,74,36
India,Karnataka,Davanagere,"Devaraj Urs Badavane, Davanagere - KSPCB",03-04-2024 15:00:00,14.475800,75.905200,NO2,NA,NA,NA
India,Karnataka,Davanagere,"Devaraj Urs Badavane, Davanagere - KSPCB",03-04-2024 15:00:00,14.475800,75.905200,SO2,NA,NA,NA
India,Karnataka,Dharwad,"Kalabhavan, Dharwad - KSPCB",03-04-2024 15:00:00,15.459706,75.008381,NO2,8,32,16
India,Karnataka,Dharwad,"Kalabhavan, Dharwad - KSPCB",03-04-2024 15:00:00,15.459706,75.008381,SO2,2,6,4
India,Karnataka,Gadag,"Panchal Nagar, Gadag - KSPCB",03-04-2024 15:00:00,15.411456,75.638133,PM2.5,41,78,58
India,Karnataka,Hassan,"B.Katihalli, Hassan - KSPCB",03-04-2024 15:00:00,13.008556,76.125258,PM10,51,155,101
India,Karnataka,Haveri,"Ashwini Nagar, Haveri - KSPCB",03-04-2024 15:00:00,14.791800,75.389600,NH3,3,4,3
India,Karnataka,Hubballi,"Deshpande Nagar, Hubballi - KSPCB",03-04-2024 15:00:00,15.351773,75.140726,CO,1,18,6
India,Karnataka,Hubballi,"Lingaraj Nagar, Hubballi - KSPCB",03-04-2024 15:00:00,15.3714823,75.1160168,PM10,49,71,59
India,Karnataka,Hubballi,"Lingaraj Nagar, Hubballi - KSPCB",03-04-2024 15:00:00,15.3714823,75.1160168,SO2,1,8,2
India,Karnataka,Kalaburagi,"Lal Bahadur Shastri Nagar, Kalaburagi - KSPCB",03-04-2024 15:00:00,17.321993,76.822628,SO2,13,15,15
India,Karnataka,Koppal,"Diwator Nagar, Koppal - KSPCB",03-04-2024 15:00:00,15.347630,76.181767,PM2.5,19,78,37
