country,state,city,station,last_update,latitude,longitude,pollutant_id,pollutant_min,pollutant_max,pollutant_avg
India,Andhra_Pradesh,Amaravati,"Secretariat, Amaravati - APPCB",25-02-2024 23:00:00,16.5150833,80.5181667,NO2,6,12,9
India,Andhra_Pradesh,Anantapur,"Gulzarpet, Anantapur - APPCB",25-02-2024 23:00:00,14.675886,77.593027,CO,30,42,35
India,Andhra_Pradesh,Chittoor,"Gangineni Cheruvu, Chittoor - APPCB",25-02-2024 23:00:00,13.204880,79.097889,NO2,5,14,8
India,Andhra_Pradesh,Chittoor,"Gangineni Cheruvu, Chittoor - APPCB",25-02-2024 23:00:00,13.204880,79.097889,SO2,7,44,16
India,Andhra_Pradesh,Kadapa,"Yerramukkapalli, Kadapa - APPCB",25-02-2024 23:00:00,14.465052,78.824187,PM10,12,66,33
India,Andhra_Pradesh,Kadapa,"Yerramukkapalli, Kadapa - APPCB",25-02-2024 23:00:00,14.465052,78.824187,SO2,2,2,2
India,Andhra_Pradesh,Tirupati,"Tirumala, Tirupati - APPCB",25-02-2024 23:00:00,13.67,79.35,PM2.5,46,80,57
India,Andhra_Pradesh,Tirupati,"Tirumala, Tirupati - APPCB",25-02-2024 23:00:00,13.67,79.35,SO2,2,10,5
India,Andhra_Pradesh,Tirupati,"Vaikuntapuram, Tirupati - APPCB",25-02-2024 23:00:00,13.615387,79.409230,PM10,20,86,38
India,Andhra_Pradesh,Vijayawada,"HB Colony, Vijayawada - APPCB",25-02-2024 23:00:00,16.536107,80.594233,OZONE,3,21,14
India,Andhra_Pradesh,Vijayawada,"Kanuru, Vijayawada - APPCB",25-02-2024 23:00:00,16.486692,80.699436,NO2,15,18,16
India,Andhra_Pradesh,Vijayawada,"Kanuru, Vijayawada - APPCB",25-02-2024 23:00:00,16.486692,80.699436,SO2,5,10,7
India,Andhra_Pradesh,Vijayawada,"Rajiv Gandhi Park, Vijayawada - APPCB",25-02-2024 23:00:00,16.509717,80.612222,OZONE,1,52,25
India,Andhra_Pradesh,Vijayawada,"Rajiv Nagar, Vijayawada - APPCB",25-02-2024 23:00:00,16.554731,80.649110,NH3,2,8,3
India,Andhra_Pradesh,Vijayawada,"Rajiv Nagar, Vijayawada - APPCB",25-02-2024 23:00:00,16.554731,80.649110,OZONE,16,35,24
India,Andhra_Pradesh,Visakhapatnam,"GVM Corporation, Visakhapatnam - APPCB",25-02-2024 23:00:00,17.72,83.3,NH3,4,6,5
India,Andhra_Pradesh,Visakhapatnam,"GVM Corporation, Visakhapatnam - APPCB",25-02-2024 23:00:00,17.72,83.3,SO2,7,14,11
India,Arunachal_Pradesh,Naharlagun,"Naharlagun, Naharlagun - APSPCB",25-02-2024 23:00:00,27.103358,93.679645,PM10,24,114,68
India,Assam,Byrnihat,"Central Academy for SFS, Byrnihat - PCBA",25-02-2024 23:00:00,26.071318,91.87488,PM10,153,500,264
India,Assam,Guwahati,"IITG, Guwahati - PCBA",25-02-2024 23:00:00,26.2028636,91.70046436,PM10,113,251,163
India,Assam,Guwahati,"IITG, Guwahati - PCBA",25-02-2024 23:00:00,26.2028636,91.70046436,NH3,5,5,5
India,Assam,Guwahati,"IITG, Guwahati - PCBA",25-02-2024 23:00:00,26.2028636,91.70046436,SO2,12,15,13
India,Assam,Guwahati,"Pan Bazaar, Guwahati - PCBA",25-02-2024 23:00:00,26.187500,91.744194,PM2.5,104,307,204
India,Assam,Guwahati,"Pan Bazaar, Guwahati - PCBA",25-02-2024 23:00:00,26.187500,91.744194,CO,30,96,41
India,Assam,Guwahati,"Pan Bazaar, Guwahati - PCBA",25-02-2024 23:00:00,26.187500,91.744194,OZONE,17,18,18
India,Assam,Guwahati,"Railway Colony, Guwahati - PCBA",25-02-2024 23:00:00,26.181742,91.78063,CO,36,88,52
India,Assam,Nagaon,"Christianpatty, Nagaon - PCBA",25-02-2024 23:00:00,26.349082,92.68449,PM10,29,355,142
India,Assam,Nalbari,"Bata Chowk, Nalbari - PCBA",25-02-2024 23:00:00,26.446912,91.439057,PM10,117,242,158
India,Assam,Silchar,"Tarapur, Silchar - PCBA",25-02-2024 23:00:00,24.82827,92.79525,PM2.5,43,59,52
India,Assam,Silchar,"Tarapur, Silchar - PCBA",25-02-2024 23:00:00,24.82827,92.79525,PM10,47,48,48
India,Assam,Sivasagar,"Girls College, Sivasagar - PCBA",25-02-2024 23:00:00,26.987634,94.636574,OZONE,1,4,3
India,Bihar,Arrah,"New DM Office, Arrah - BSPCB",25-02-2024 23:00:00,25.5626095,84.663264,PM10,43,182,102
India,Bihar,Bettiah,"Kamalnath Nagar, Bettiah - BSPCB",25-02-2024 23:00:00,26.80365,84.51954,PM10,2,50,21
India,Bihar,Bhagalpur,"DM Office_Kachari Chowk, Bhagalpur - BSPCB",25-02-2024 23:00:00,25.251013,86.989001,NH3,4,7,6
India,Bihar,Bhagalpur,"Mayaganj, Bhagalpur - BSPCB",25-02-2024 23:00:00,25.265194,87.012947,PM10,70,155,105
India,Bihar,Bhagalpur,"Mayaganj, Bhagalpur - BSPCB",25-02-2024 23:00:00,25.265194,87.012947,NH3,7,8,8
India,Bihar,Bhagalpur,"Mayaganj, Bhagalpur - BSPCB",25-02-2024 23:00:00,25.265194,87.012947,SO2,7,13,12
India,Bihar,Bihar Sharif,"D M Colony, Bihar Sharif - BSPCB",25-02-2024 23:00:00,25.204762,85.514960,PM10,NA,NA,NA
India,Bihar,Chhapra,"Darshan Nagar, Chhapra - BSPCB",25-02-2024 23:00:00,25.7808257,84.7446768,NH3,8,13,10
India,Bihar,Chhapra,"Darshan Nagar, Chhapra - BSPCB",25-02-2024 23:00:00,25.7808257,84.7446768,OZONE,1,47,20
India,Bihar,Gaya,"Collectorate, Gaya - BSPCB",25-02-2024 23:00:00,24.7955,84.9994,OZONE,47,73,64
India,Bihar,Hajipur,"Industrial Area, Hajipur - BSPCB",25-02-2024 23:00:00,25.697189,85.245900,PM2.5,54,258,103
India,Bihar,Katihar,"Mirchaibari, Katihar - BSPCB",25-02-2024 23:00:00,25.560083,87.553265,PM10,12,153,92
India,Bihar,Katihar,"Mirchaibari, Katihar - BSPCB",25-02-2024 23:00:00,25.560083,87.553265,CO,13,101,13
India,Bihar,Katihar,"Mirchaibari, Katihar - BSPCB",25-02-2024 23:00:00,25.560083,87.553265,OZONE,20,26,25
India,Bihar,Kishanganj,"SDM Office_Khagra, Kishanganj - BSPCB",25-02-2024 23:00:00,26.0881305,87.93840336,SO2,28,37,33
India,Bihar,Manguraha,"Forest Rest House, Manguraha - BSPCB",25-02-2024 23:00:00,27.308328,84.531742,NO2,5,16,10
India,Bihar,Manguraha,"Forest Rest House, Manguraha - BSPCB",25-02-2024 23:00:00,27.308328,84.531742,OZONE,44,99,81
India,Bihar,Munger,"Town Hall, Munger - BSPCB",25-02-2024 23:00:00,25.376776,86.471523,CO,2,60,22
India,Bihar,Muzaffarpur,"Buddha Colony, Muzaffarpur - BSPCB",25-02-2024 23:00:00,26.11442,85.39813,PM2.5,184,304,241
India,Bihar,Muzaffarpur,"Buddha Colony, Muzaffarpur - BSPCB",25-02-2024 23:00:00,26.11442,85.39813,OZONE,41,86,65
India,Bihar,Muzaffarpur,"MIT-Daudpur Kothi, Muzaffarpur - BSPCB",25-02-2024 23:00:00,26.1403345,85.3650192,PM10,62,178,118
India,Bihar,Muzaffarpur,"Muzaffarpur Collectorate, Muzaffarpur - BSPCB",25-02-2024 23:00:00,26.1209,85.3647,SO2,5,7,6
India,Bihar,Patna,"DRM Office Danapur, Patna - BSPCB",25-02-2024 23:00:00,25.586562,85.043586,PM10,103,429,196
India,Bihar,Patna,"Govt. High School Shikarpur, Patna - BSPCB",25-02-2024 23:00:00,25.592539,85.227158,PM2.5,118,249,185
India,Bihar,Patna,"Govt. High School Shikarpur, Patna - BSPCB",25-02-2024 23:00:00,25.592539,85.227158,NO2,23,28,25
India,Bihar,Patna,"Govt. High School Shikarpur, Patna - BSPCB",25-02-2024 23:00:00,25.592539,85.227158,SO2,1,5,3
India,Bihar,Patna,"IGSC Planetarium Complex, Patna - BSPCB",25-02-2024 23:00:00,25.610369,85.132568,PM2.5,44,265,109
India,Bihar,Patna,"Muradpur, Patna - BSPCB",25-02-2024 23:00:00,25.619651,85.147382,CO,2,122,63
India,Bihar,Patna,"Rajbansi Nagar, Patna - BSPCB",25-02-2024 23:00:00,25.599486,85.113666,NO2,43,60,48
India,Bihar,Patna,"Rajbansi Nagar, Patna - BSPCB",25-02-2024 23:00:00,25.599486,85.113666,SO2,11,17,13
India,Bihar,Patna,"Rajbansi Nagar, Patna - BSPCB",25-02-2024 23:00:00,25.599486,85.113666,OZONE,1,55,23
India,Bihar,Patna,"Samanpura, Patna - BSPCB",25-02-2024 23:00:00,25.596727,85.085624,PM10,128,473,271
India,Bihar,Patna,"Samanpura, Patna - BSPCB",25-02-2024 23:00:00,25.596727,85.085624,NH3,1,16,5
India,Bihar,Patna,"Samanpura, Patna - BSPCB",25-02-2024 23:00:00,25.596727,85.085624,SO2,15,16,16
India,Bihar,Purnia,"Mariam Nagar, Purnia - BSPCB",25-02-2024 23:00:00,25.366336,87.117468,PM10,54,161,112
India,Bihar,Purnia,"Mariam Nagar, Purnia - BSPCB",25-02-2024 23:00:00,25.366336,87.117468,SO2,19,34,25
India,Bihar,Rajgir,"Dangi Tola, Rajgir - BSPCB",25-02-2024 23:00:00,25.03280,85.41948,PM10,27,153,83
India,Bihar,Rajgir,"Dangi Tola, Rajgir - BSPCB",25-02-2024 23:00:00,25.03280,85.41948,CO,10,11,10
India,Bihar,Saharsa,"Police Line, Saharsa - BSPCB",25-02-2024 23:00:00,25.892357,86.590325,OZONE,26,84,50
India,Bihar,Samastipur,"DM Office_Kasipur, Samastipur - BSPCB",25-02-2024 23:00:00,25.859655,85.77944,CO,2,40,31
India,Bihar,Sasaram,"Dada Peer, Sasaram - BSPCB",25-02-2024 23:00:00,24.952822,84.002396,NO2,13,32,21
India,Bihar,Sasaram,"Dada Peer, Sasaram - BSPCB",25-02-2024 23:00:00,24.952822,84.002396,NH3,8,16,12
India,Bihar,Sasaram,"Dada Peer, Sasaram - BSPCB",25-02-2024 23:00:00,24.952822,84.002396,CO,103,108,107
India,Chandigarh,Chandigarh,"Sector 22, Chandigarh - CPCC",25-02-2024 23:00:00,30.735567,76.775714,PM10,42,132,82
India,Chandigarh,Chandigarh,"Sector 22, Chandigarh - CPCC",25-02-2024 23:00:00,30.735567,76.775714,OZONE,28,173,95
India,Chandigarh,Chandigarh,"Sector-53, Chandigarh - CPCC",25-02-2024 23:00:00,30.719859,76.738637,PM10,59,162,98
India,Chhattisgarh,Bhilai,"32Bungalows, Bhilai - CECB",25-02-2024 23:00:00,21.194815,81.314770,PM2.5,29,71,42
India,Chhattisgarh,Bhilai,"Civic Center, Bhilai - Bhilai Steel Plant",25-02-2024 23:00:00,21.185571,81.343175,NH3,2,2,2
India,Chhattisgarh,Bhilai,"Civic Center, Bhilai - Bhilai Steel Plant",25-02-2024 23:00:00,21.185571,81.343175,SO2,7,12,10
India,Chhattisgarh,Bhilai,"Civic Center, Bhilai - Bhilai Steel Plant",25-02-2024 23:00:00,21.185571,81.343175,OZONE,18,63,44
India,Chhattisgarh,Bhilai,"Hathkhoj, Bhilai - CECB",25-02-2024 23:00:00,21.224231,81.408350,NH3,8,9,8
India,Chhattisgarh,Chhal,"Nawapara SECL Colony, Chhal - CECB",25-02-2024 23:00:00,22.118125,83.140608,PM2.5,3,16,7
India,Chhattisgarh,Korba,"Rampur, Korba - CECB",25-02-2024 23:00:00,22.368195,82.746431,SO2,6,12,8
India,Chhattisgarh,Korba,"Rampur, Korba - CECB",25-02-2024 23:00:00,22.368195,82.746431,CO,17,24,19
India,Chhattisgarh,Korba,"Rampur, Korba - CECB",25-02-2024 23:00:00,22.368195,82.746431,OZONE,3,22,5
India,Chhattisgarh,Korba,"Urja Nagar, Korba - CECB",25-02-2024 23:00:00,22.348441,82.549611,CO,26,38,30
India,Chhattisgarh,Kunjemura,"OP Jindal School, Kunjemura - CECB",25-02-2024 23:00:00,22.126650,83.483212,PM10,26,57,39
India,Chhattisgarh,Raipur,"AIIMS, Raipur - CECB",25-02-2024 23:00:00,21.258815,81.578979,PM2.5,45,85,62
India,Chhattisgarh,Raipur,"AIIMS, Raipur - CECB",25-02-2024 23:00:00,21.258815,81.578979,NH3,4,4,4
India,Chhattisgarh,Raipur,"AIIMS, Raipur - CECB",25-02-2024 23:00:00,21.258815,81.578979,CO,28,48,33
India,Chhattisgarh,Raipur,"Bhatagaon New ISBT, Raipur - CECB",25-02-2024 23:00:00,21.219665,81.630094,PM2.5,31,66,44
India,Chhattisgarh,Raipur,"Krishak Nagar, Raipur - CECB",25-02-2024 23:00:00,21.237755,81.705301,NH3,1,1,1
India,Chhattisgarh,Tumidih,"OP Jindal Industrial Park, Tumidih - CECB",25-02-2024 23:00:00,22.06631475,83.33820077,NO2,7,42,15
India,Chhattisgarh,Tumidih,"OP Jindal Industrial Park, Tumidih - CECB",25-02-2024 23:00:00,22.06631475,83.33820077,SO2,5,14,7
India,Chhattisgarh,Tumidih,"OP Jindal Industrial Park, Tumidih - CECB",25-02-2024 23:00:00,22.06631475,83.33820077,OZONE,29,61,44
India,Delhi,Delhi,"Alipur, Delhi - DPCC",25-02-2024 23:00:00,28.815329,77.153010,NO2,12,70,35
India,Delhi,Delhi,"Alipur, Delhi - DPCC",25-02-2024 23:00:00,28.815329,77.153010,NH3,3,8,6
India,Delhi,Delhi,"Anand Vihar, Delhi - DPCC",25-02-2024 23:00:00,28.647622,77.3158090,PM10,100,355,207
India,Delhi,Delhi,"Ashok Vihar, Delhi - DPCC",25-02-2024 23:00:00,28.695381,77.181665,CO,4,64,34
India,Delhi,Delhi,"Ashok Vihar, Delhi - DPCC",25-02-2024 23:00:00,28.695381,77.181665,OZONE,4,15,10
India,Delhi,Delhi,"Aya Nagar, Delhi - IMD",25-02-2024 23:00:00,28.4706914,77.1099364,OZONE,9,55,34
India,Delhi,Delhi,"CRRI Mathura Road, Delhi - IMD",25-02-2024 23:00:00,28.5512005,77.2735737,CO,1,54,15
India,Delhi,Delhi,"Chandni Chowk, Delhi - IITM",25-02-2024 23:00:00,28.656756,77.227234,PM10,40,394,124
India,Delhi,Delhi,"Chandni Chowk, Delhi - IITM",25-02-2024 23:00:00,28.656756,77.227234,OZONE,28,30,28
India,Delhi,Delhi,"DTU, Delhi - CPCB",25-02-2024 23:00:00,28.7500499,77.1112615,PM2.5,29,210,97
India,Delhi,Delhi,"DTU, Delhi - CPCB",25-02-2024 23:00:00,28.7500499,77.1112615,NO2,38,83,54
India,Delhi,Delhi,"DTU, Delhi - CPCB",25-02-2024 23:00:00,28.7500499,77.1112615,CO,15,40,18
India,Delhi,Delhi,"Dr. Karni Singh Shooting Range, Delhi - DPCC",25-02-2024 23:00:00,28.498571,77.264840,PM10,66,294,150
India,Delhi,Delhi,"Dr. Karni Singh Shooting Range, Delhi - DPCC",25-02-2024 23:00:00,28.498571,77.264840,NO2,27,143,84
India,Delhi,Delhi,"Dr. Karni Singh Shooting Range, Delhi - DPCC",25-02-2024 23:00:00,28.498571,77.264840,NH3,5,9,7
India,Delhi,Delhi,"Dr. Karni Singh Shooting Range, Delhi - DPCC",25-02-2024 23:00:00,28.498571,77.264840,CO,17,101,50
India,Delhi,Delhi,"Dr. Karni Singh Shooting Range, Delhi - DPCC",25-02-2024 23:00:00,28.498571,77.264840,OZONE,1,175,77
India,Delhi,Delhi,"Dwarka-Sector 8, Delhi - DPCC ",25-02-2024 23:00:00,28.5710274,77.0719006,NO2,4,76,30
India,Delhi,Delhi,"Dwarka-Sector 8, Delhi - DPCC ",25-02-2024 23:00:00,28.5710274,77.0719006,OZONE,1,83,40
India,Delhi,Delhi,"IGI Airport (T3), Delhi - IMD",25-02-2024 23:00:00,28.5627763,77.1180053,PM10,33,269,142
India,Delhi,Delhi,"IHBAS, Dilshad Garden, Delhi - CPCB",25-02-2024 23:00:00,28.6811736,77.3025234,SO2,3,41,14
India,Delhi,Delhi,"ITO, Delhi - CPCB",25-02-2024 23:00:00,28.628624,77.241060,PM2.5,52,336,210
India,Delhi,Delhi,"ITO, Delhi - CPCB",25-02-2024 23:00:00,28.628624,77.241060,NH3,4,10,6
India,Delhi,Delhi,"ITO, Delhi - CPCB",25-02-2024 23:00:00,28.628624,77.241060,SO2,4,42,16
India,Delhi,Delhi,"ITO, Delhi - CPCB",25-02-2024 23:00:00,28.628624,77.241060,CO,38,113,72
India,Delhi,Delhi,"ITO, Delhi - CPCB",25-02-2024 23:00:00,28.628624,77.241060,OZONE,11,86,33
India,Delhi,Delhi,"Jawaharlal Nehru Stadium, Delhi - DPCC",25-02-2024 23:00:00,28.580280,77.233829,SO2,2,39,19
India,Delhi,Delhi,"Lodhi Road, Delhi - IMD",25-02-2024 23:00:00,28.5918245,77.2273074,PM10,70,169,117
India,Delhi,Delhi,"Lodhi Road, Delhi - IMD",25-02-2024 23:00:00,28.5918245,77.2273074,CO,28,63,32
India,Delhi,Delhi,"Major Dhyan Chand National Stadium, Delhi - DPCC",25-02-2024 23:00:00,28.611281,77.237738,CO,70,120,89
India,Delhi,Delhi,"Mandir Marg, Delhi - DPCC",25-02-2024 23:00:00,28.636429,77.201067,CO,44,96,61
India,Delhi,Delhi,"Mundka, Delhi - DPCC",25-02-2024 23:00:00,28.684678,77.076574,OZONE,3,28,14
India,Delhi,Delhi,"NSIT Dwarka, Delhi - CPCB",25-02-2024 23:00:00,28.60909,77.0325413,PM2.5,131,343,254
India,Delhi,Delhi,"NSIT Dwarka, Delhi - CPCB",25-02-2024 23:00:00,28.60909,77.0325413,PM10,103,236,155
India,Delhi,Delhi,"NSIT Dwarka, Delhi - CPCB",25-02-2024 23:00:00,28.60909,77.0325413,OZONE,21,114,67
India,Delhi,Delhi,"Najafgarh, Delhi - DPCC",25-02-2024 23:00:00,28.570173,76.933762,PM2.5,NA,NA,NA
India,Delhi,Delhi,"Najafgarh, Delhi - DPCC",25-02-2024 23:00:00,28.570173,76.933762,NH3,NA,NA,NA
India,Delhi,Delhi,"Najafgarh, Delhi - DPCC",25-02-2024 23:00:00,28.570173,76.933762,CO,NA,NA,NA
India,Delhi,Delhi,"Najafgarh, Delhi - DPCC",25-02-2024 23:00:00,28.570173,76.933762,OZONE,NA,NA,NA
India,Delhi,Delhi,"Narela, Delhi - DPCC",25-02-2024 23:00:00,28.822836,77.101981,NH3,4,11,7
India,Delhi,Delhi,"Narela, Delhi - DPCC",25-02-2024 23:00:00,28.822836,77.101981,SO2,2,26,14
India,Delhi,Delhi,"Nehru Nagar, Delhi - DPCC",25-02-2024 23:00:00,28.567890,77.250515,PM2.5,46,337,187
India,Delhi,Delhi,"North Campus, DU, Delhi - IMD",25-02-2024 23:00:00,28.6573814,77.1585447,PM2.5,92,307,202
India,Delhi,Delhi,"Okhla Phase-2, Delhi - DPCC",25-02-2024 23:00:00,28.530785,77.271255,NO2,36,190,106
India,Delhi,Delhi,"Okhla Phase-2, Delhi - DPCC",25-02-2024 23:00:00,28.530785,77.271255,CO,40,105,53
India,Delhi,Delhi,"Okhla Phase-2, Delhi - DPCC",25-02-2024 23:00:00,28.530785,77.271255,OZONE,7,136,62
India,Delhi,Delhi,"Patparganj, Delhi - DPCC",25-02-2024 23:00:00,28.623763,77.287209,PM2.5,32,213,103
India,Delhi,Delhi,"Patparganj, Delhi - DPCC",25-02-2024 23:00:00,28.623763,77.287209,OZONE,2,111,55
India,Delhi,Delhi,"Punjabi Bagh, Delhi - DPCC",25-02-2024 23:00:00,28.674045,77.131023,PM2.5,46,383,211
India,Delhi,Delhi,"Punjabi Bagh, Delhi - DPCC",25-02-2024 23:00:00,28.674045,77.131023,NO2,19,47,34
India,Delhi,Delhi,"Punjabi Bagh, Delhi - DPCC",25-02-2024 23:00:00,28.674045,77.131023,CO,27,104,54
India,Delhi,Delhi,"R K Puram, Delhi - DPCC",25-02-2024 23:00:00,28.563262,77.186937,PM2.5,58,366,216
India,Delhi,Delhi,"R K Puram, Delhi - DPCC",25-02-2024 23:00:00,28.563262,77.186937,NO2,13,47,30
India,Delhi,Delhi,"Rohini, Delhi - DPCC",25-02-2024 23:00:00,28.732528,77.119920,PM2.5,22,331,190
India,Delhi,Delhi,"Rohini, Delhi - DPCC",25-02-2024 23:00:00,28.732528,77.119920,CO,9,112,46
India,Delhi,Delhi,"Shadipur, Delhi - CPCB",25-02-2024 23:00:00,28.6514781,77.1473105,PM2.5,103,317,234
India,Delhi,Delhi,"Shadipur, Delhi - CPCB",25-02-2024 23:00:00,28.6514781,77.1473105,NH3,27,36,33
India,Delhi,Delhi,"Shadipur, Delhi - CPCB",25-02-2024 23:00:00,28.6514781,77.1473105,OZONE,13,14,14
India,Delhi,Delhi,"Sri Aurobindo Marg, Delhi - DPCC",25-02-2024 23:00:00,28.531346,77.190156,SO2,4,23,13
India,Delhi,Delhi,"Vivek Vihar, Delhi - DPCC",25-02-2024 23:00:00,28.672342,77.315260,NH3,3,6,5
India,Delhi,Delhi,"Vivek Vihar, Delhi - DPCC",25-02-2024 23:00:00,28.672342,77.315260,CO,4,82,40
India,Delhi,Delhi,"Wazirpur, Delhi - DPCC",25-02-2024 23:00:00,28.699793,77.165453,NO2,42,165,110
India,Delhi,Delhi,"Wazirpur, Delhi - DPCC",25-02-2024 23:00:00,28.699793,77.165453,SO2,10,58,34
India,Gujarat,Ahmedabad,"Chandkheda, Ahmedabad - IITM",25-02-2024 23:00:00,23.107969,72.574648,PM2.5,66,281,130
India,Gujarat,Ahmedabad,"Chandkheda, Ahmedabad - IITM",25-02-2024 23:00:00,23.107969,72.574648,NO2,28,37,33
India,Gujarat,Ahmedabad,"Chandkheda, Ahmedabad - IITM",25-02-2024 23:00:00,23.107969,72.574648,OZONE,9,60,38
India,Gujarat,Ahmedabad,"Gyaspur, Ahmedabad - IITM",25-02-2024 23:00:00,22.977134,72.553024,PM2.5,27,27,27
India,Gujarat,Ahmedabad,"Gyaspur, Ahmedabad - IITM",25-02-2024 23:00:00,22.977134,72.553024,NH3,3,3,3
India,Gujarat,Ahmedabad,"Rakhial, Ahmedabad - IITM",25-02-2024 23:00:00,23.016834,72.625775,PM2.5,47,191,100
India,Gujarat,Ahmedabad,"Rakhial, Ahmedabad - IITM",25-02-2024 23:00:00,23.016834,72.625775,OZONE,4,54,32
India,Gujarat,Ahmedabad,"SAC ISRO Bopal, Ahmedabad - IITM",25-02-2024 23:00:00,23.041137,72.456691,OZONE,7,21,18
India,Gujarat,Ahmedabad,"SAC ISRO Satellite, Ahmedabad - IITM",25-02-2024 23:00:00,23.023389,72.515201,CO,33,34,34
India,Gujarat,Ahmedabad,"SAC ISRO Satellite, Ahmedabad - IITM",25-02-2024 23:00:00,23.023389,72.515201,OZONE,11,18,15
India,Gujarat,Ankleshwar,"GIDC, Ankleshwar - GPCB",25-02-2024 23:00:00,21.613267,73.010555,PM2.5,51,100,76
India,Gujarat,Ankleshwar,"GIDC, Ankleshwar - GPCB",25-02-2024 23:00:00,21.613267,73.010555,SO2,17,140,69
India,Gujarat,Gandhinagar,"IIPHG Lekawada, Gandhinagar - IITM",25-02-2024 23:00:00,23.243639,72.68994,NO2,32,33,32
India,Gujarat,Gandhinagar,"IIPHG Lekawada, Gandhinagar - IITM",25-02-2024 23:00:00,23.243639,72.68994,NH3,3,4,3
India,Gujarat,Gandhinagar,"IIPHG Lekawada, Gandhinagar - IITM",25-02-2024 23:00:00,23.243639,72.68994,SO2,13,14,13
India,Gujarat,Vatva,"Phase-4 GIDC, Vatva - GPCB",25-02-2024 23:00:00,22.969611,72.643500,NH3,1,2,1
India,Haryana,Ambala,"Patti Mehar, Ambala - HSPCB",25-02-2024 23:00:00,30.379589,76.778328,PM2.5,23,61,45
India,Haryana,Ambala,"Patti Mehar, Ambala - HSPCB",25-02-2024 23:00:00,30.379589,76.778328,NH3,7,7,7
India,Haryana,Ambala,"Patti Mehar, Ambala - HSPCB",25-02-2024 23:00:00,30.379589,76.778328,SO2,2,26,11
India,Haryana,Bahadurgarh,"Arya Nagar, Bahadurgarh - HSPCB",25-02-2024 23:00:00,28.6701,76.9254,PM10,107,166,134
India,Haryana,Bahadurgarh,"Arya Nagar, Bahadurgarh - HSPCB",25-02-2024 23:00:00,28.6701,76.9254,NH3,11,12,11
India,Haryana,Ballabgarh,"Nathu Colony, Ballabgarh - HSPCB",25-02-2024 23:00:00,28.3419248,77.319699,NH3,1,2,2
India,Haryana,Ballabgarh,"Nathu Colony, Ballabgarh - HSPCB",25-02-2024 23:00:00,28.3419248,77.319699,SO2,3,26,12
India,Haryana,Ballabgarh,"Nathu Colony, Ballabgarh - HSPCB",25-02-2024 23:00:00,28.3419248,77.319699,CO,6,79,33
India,Haryana,Charkhi Dadri,"Mini Secretariat, Charkhi Dadri - HSPCB",25-02-2024 23:00:00,28.593883,76.270653,NO2,8,9,9
India,Haryana,Charkhi Dadri,"Mini Secretariat, Charkhi Dadri - HSPCB",25-02-2024 23:00:00,28.593883,76.270653,NH3,5,5,5
India,Haryana,Dharuhera,"Municipal Corporation Office, Dharuhera -  HSPCB",25-02-2024 23:00:00,28.206800,76.799700,PM10,95,203,156
India,Haryana,Dharuhera,"Municipal Corporation Office, Dharuhera -  HSPCB",25-02-2024 23:00:00,28.206800,76.799700,SO2,3,44,16
India,Haryana,Faridabad,"New Industrial Town, Faridabad - HSPCB",25-02-2024 23:00:00,28.39072,77.30059,PM2.5,3,169,29
India,Haryana,Faridabad,"New Industrial Town, Faridabad - HSPCB",25-02-2024 23:00:00,28.39072,77.30059,SO2,1,9,3
India,Haryana,Faridabad,"Sector 11, Faridabad - HSPCB",25-02-2024 23:00:00,28.376058,77.315741,SO2,8,9,8
India,Haryana,Faridabad,"Sector- 16A, Faridabad - HSPCB",25-02-2024 23:00:00,28.4088421,77.3099081,SO2,NA,NA,NA
India,Haryana,Faridabad,"Sector- 16A, Faridabad - HSPCB",25-02-2024 23:00:00,28.4088421,77.3099081,OZONE,NA,NA,NA
India,Haryana,Fatehabad,"Huda Sector, Fatehabad - HSPCB",25-02-2024 23:00:00,29.503664,75.467934,PM2.5,NA,NA,NA
India,Haryana,Fatehabad,"Huda Sector, Fatehabad - HSPCB",25-02-2024 23:00:00,29.503664,75.467934,PM10,NA,NA,NA
India,Haryana,Fatehabad,"Huda Sector, Fatehabad - HSPCB",25-02-2024 23:00:00,29.503664,75.467934,NH3,NA,NA,NA
India,Haryana,Gurugram,"Vikas Sadan, Gurugram - HSPCB",25-02-2024 23:00:00,28.4501238,77.0263051,PM2.5,22,110,72
India,Haryana,Gurugram,"Vikas Sadan, Gurugram - HSPCB",25-02-2024 23:00:00,28.4501238,77.0263051,NO2,5,26,14
India,Haryana,Hisar,"Urban Estate-II, Hisar - HSPCB",25-02-2024 23:00:00,29.140560,75.744941,PM10,51,128,80
India,Haryana,Hisar,"Urban Estate-II, Hisar - HSPCB",25-02-2024 23:00:00,29.140560,75.744941,NO2,6,10,8
India,Haryana,Hisar,"Urban Estate-II, Hisar - HSPCB",25-02-2024 23:00:00,29.140560,75.744941,OZONE,40,180,115
India,Haryana,Jind,"Police Lines, Jind - HSPCB",25-02-2024 23:00:00,29.307814,76.337619,OZONE,11,17,13
India,Haryana,Kaithal,"Rishi Nagar, Kaithal - HSPCB",25-02-2024 23:00:00,29.8006,76.4155,CO,NA,NA,NA
India,Haryana,Mandikhera,"General Hospital, Mandikhera - HSPCB",25-02-2024 23:00:00,27.9002,76.9938,SO2,30,39,34
India,Haryana,Manesar,"Sector-2 IMT, Manesar - HSPCB",25-02-2024 23:00:00,28.360699,76.936090,PM2.5,65,247,153
India,Haryana,Narnaul,"Shastri Nagar, Narnaul - HSPCB",25-02-2024 23:00:00,28.060249,76.113115,PM2.5,29,114,50
India,Haryana,Narnaul,"Shastri Nagar, Narnaul - HSPCB",25-02-2024 23:00:00,28.060249,76.113115,SO2,13,13,13
India,Haryana,Palwal,"Shyam Nagar, Palwal - HSPCB",25-02-2024 23:00:00,28.1485564,77.3320667,PM10,73,164,122
India,Haryana,Palwal,"Shyam Nagar, Palwal - HSPCB",25-02-2024 23:00:00,28.1485564,77.3320667,SO2,6,21,12
India,Haryana,Palwal,"Shyam Nagar, Palwal - HSPCB",25-02-2024 23:00:00,28.1485564,77.3320667,CO,23,34,27
India,Haryana,Rohtak,"MD University, Rohtak - HSPCB",25-02-2024 23:00:00,28.52123,76.37138,OZONE,46,54,50
India,Haryana,Sirsa,"F-Block, Sirsa - HSPCB",25-02-2024 23:00:00,29.536400,75.015800,PM2.5,28,70,47
India,Haryana,Sirsa,"F-Block, Sirsa - HSPCB",25-02-2024 23:00:00,29.536400,75.015800,PM10,26,66,47
India,Haryana,Sonipat,"Murthal, Sonipat - HSPCB",25-02-2024 23:00:00,29.027200,77.062100,NH3,2,10,8
India,Haryana,Sonipat,"Murthal, Sonipat - HSPCB",25-02-2024 23:00:00,29.027200,77.062100,OZONE,15,35,26
India,Haryana,Yamuna Nagar,"Gobind Pura, Yamuna Nagar - HSPCB",25-02-2024 23:00:00,30.1480566,77.2893471,PM10,66,137,94
India,Haryana,Yamuna Nagar,"Gobind Pura, Yamuna Nagar - HSPCB",25-02-2024 23:00:00,30.1480566,77.2893471,CO,10,66,44
India,Himachal Pradesh,Baddi,"HIMUDA Complex Phase-1, Baddi - HPPCB",25-02-2024 23:00:00,30.943887,76.801991,PM10,44,134,78
India,Jharkhand,Dhanbad,"Sardar Patel Nagar, Dhanbad - JSPCB",25-02-2024 23:00:00,23.80569,86.44268,PM2.5,NA,NA,NA
India,Karnataka,Bagalkot,"Vidayagiri, Bagalkot - KSPCB",25-02-2024 23:00:00,16.172806,75.659694,PM2.5,25,38,36
India,Karnataka,Bagalkot,"Vidayagiri, Bagalkot - KSPCB",25-02-2024 23:00:00,16.172806,75.659694,PM10,41,42,42
India,Karnataka,Bagalkot,"Vidayagiri, Bagalkot - KSPCB",25-02-2024 23:00:00,16.172806,75.659694,CO,14,68,36
India,Karnataka,Belgaum,"Ramteerth Nagar, Belgaum - KSPCB",25-02-2024 23:00:00,15.888653,74.541751,PM2.5,28,64,40
India,Karnataka,Belgaum,"Ramteerth Nagar, Belgaum - KSPCB",25-02-2024 23:00:00,15.888653,74.541751,PM10,32,71,53
India,Karnataka,Belgaum,"Ramteerth Nagar, Belgaum - KSPCB",25-02-2024 23:00:00,15.888653,74.541751,NH3,33,34,34
India,Karnataka,Belgaum,"Ramteerth Nagar, Belgaum - KSPCB",25-02-2024 23:00:00,15.888653,74.541751,CO,36,59,41
India,Karnataka,Bengaluru,"BTM Layout, Bengaluru - CPCB",25-02-2024 23:00:00,12.9135218,77.5950804,PM10,52,96,64
India,Karnataka,Bengaluru,"Bapuji Nagar, Bengaluru - KSPCB",25-02-2024 23:00:00,12.951913,77.539784,PM10,56,105,83
India,Karnataka,Bengaluru,"Bapuji Nagar, Bengaluru - KSPCB",25-02-2024 23:00:00,12.951913,77.539784,NH3,1,1,1
India,Karnataka,Bengaluru,"City Railway Station, Bengaluru - KSPCB",25-02-2024 23:00:00,12.9756843,77.5660749,CO,53,77,67
India,Karnataka,Bengaluru,"Jayanagar 5th Block, Bengaluru - KSPCB",25-02-2024 23:00:00,12.920984,77.584908,PM2.5,57,100,81
India,Karnataka,Bengaluru,"Jigani, Bengaluru - KSPCB",25-02-2024 23:00:00,12.7816279,77.6299145,NO2,31,32,32
India,Karnataka,Bengaluru,"Kasturi Nagar, Bengaluru - KSPCB",25-02-2024 23:00:00,13.003872,77.664217,PM2.5,58,126,85
India,Karnataka,Bengaluru,"Kasturi Nagar, Bengaluru - KSPCB",25-02-2024 23:00:00,13.003872,77.664217,NO2,16,17,17
India,Karnataka,Bengaluru,"Kasturi Nagar, Bengaluru - KSPCB",25-02-2024 23:00:00,13.003872,77.664217,CO,21,28,23
India,Karnataka,Bengaluru,"Kasturi Nagar, Bengaluru - KSPCB",25-02-2024 23:00:00,13.003872,77.664217,OZONE,43,98,75
India,Karnataka,Bengaluru,"Peenya, Bengaluru - CPCB",25-02-2024 23:00:00,13.0270199,77.494094,NH3,3,4,3
India,Karnataka,Bengaluru,"Peenya, Bengaluru - CPCB",25-02-2024 23:00:00,13.0270199,77.494094,CO,16,52,39
India,Karnataka,Bengaluru,"RVCE-Mailasandra, Bengaluru - KSPCB",25-02-2024 23:00:00,12.921418,77.502466,NO2,70,85,82
India,Karnataka,Bengaluru,"RVCE-Mailasandra, Bengaluru - KSPCB",25-02-2024 23:00:00,12.921418,77.502466,CO,32,53,47
India,Karnataka,Bengaluru,"RVCE-Mailasandra, Bengaluru - KSPCB",25-02-2024 23:00:00,12.921418,77.502466,OZONE,29,69,49
India,Karnataka,Bengaluru,"Sanegurava Halli, Bengaluru - KSPCB",25-02-2024 23:00:00,12.990328,77.5431385,PM10,35,55,41
India,Karnataka,Bengaluru,"Shivapura_Peenya, Bengaluru - KSPCB",25-02-2024 23:00:00,13.0246342,77.5080115,SO2,4,18,9
India,Karnataka,Bengaluru,"Silk Board, Bengaluru - KSPCB",25-02-2024 23:00:00,12.917348,77.622813,NO2,19,22,21
India,Karnataka,Bengaluru,"Silk Board, Bengaluru - KSPCB",25-02-2024 23:00:00,12.917348,77.622813,SO2,5,12,8
India,Karnataka,Bengaluru,"Silk Board, Bengaluru - KSPCB",25-02-2024 23:00:00,12.917348,77.622813,CO,25,52,39
India,Karnataka,Bidar,"Naubad, Bidar - KSPCB",25-02-2024 23:00:00,17.930306,77.482194,PM2.5,NA,NA,NA
India,Karnataka,Bidar,"Naubad, Bidar - KSPCB",25-02-2024 23:00:00,17.930306,77.482194,NH3,NA,NA,NA
India,Karnataka,Bidar,"Naubad, Bidar - KSPCB",25-02-2024 23:00:00,17.930306,77.482194,SO2,NA,NA,NA
India,Karnataka,Chikkamagaluru,"Kalyana Nagara, Chikkamagaluru - KSPCB",25-02-2024 23:00:00,13.328028,75.797056,NO2,16,25,19
India,Karnataka,Chikkamagaluru,"Kalyana Nagara, Chikkamagaluru - KSPCB",25-02-2024 23:00:00,13.328028,75.797056,SO2,1,4,2
India,Karnataka,Chikkamagaluru,"Kalyana Nagara, Chikkamagaluru - KSPCB",25-02-2024 23:00:00,13.328028,75.797056,CO,11,24,12
India,Karnataka,Davanagere,"Devaraj Urs Badavane, Davanagere - KSPCB",25-02-2024 23:00:00,14.475800,75.905200,NH3,1,2,1
India,Karnataka,Dharwad,"Kalabhavan, Dharwad - KSPCB",25-02-2024 23:00:00,15.459706,75.008381,CO,40,121,74
India,Karnataka,Gadag,"Panchal Nagar, Gadag - KSPCB",25-02-2024 23:00:00,15.411456,75.638133,NH3,1,3,2
India,Karnataka,Hassan,"B.Katihalli, Hassan - KSPCB",25-02-2024 23:00:00,13.008556,76.125258,PM2.5,42,92,56
India,Karnataka,Hassan,"B.Katihalli, Hassan - KSPCB",25-02-2024 23:00:00,13.008556,76.125258,NH3,3,4,3
India,Karnataka,Haveri,"Ashwini Nagar, Haveri - KSPCB",25-02-2024 23:00:00,14.791800,75.389600,SO2,NA,NA,NA
India,Karnataka,Hubballi,"Deshpande Nagar, Hubballi - KSPCB",25-02-2024 23:00:00,15.351773,75.140726,NO2,NA,NA,NA
India,Karnataka,Hubballi,"Deshpande Nagar, Hubballi - KSPCB",25-02-2024 23:00:00,15.351773,75.140726,NH3,NA,NA,NA
India,Karnataka,Hubballi,"Lingaraj Nagar, Hubballi - KSPCB",25-02-2024 23:00:00,15.3714823,75.1160168,PM10,49,68,56
India,Karnataka,Kalaburagi,"Lal Bahadur Shastri Nagar, Kalaburagi - KSPCB",25-02-2024 23:00:00,17.321993,76.822628,NO2,11,12,12
India,Karnataka,Kalaburagi,"Mahatma Basaveswar Colony, Kalaburgi - KSPCB",25-02-2024 23:00:00,17.336318,76.847397,NO2,17,27,22
India,Karnataka,Kalaburagi,"Mahatma Basaveswar Colony, Kalaburgi - KSPCB",25-02-2024 23:00:00,17.336318,76.847397,NH3,2,4,3
India,Karnataka,Kalaburagi,"Mahatma Basaveswar Colony, Kalaburgi - KSPCB",25-02-2024 23:00:00,17.336318,76.847397,OZONE,10,24,18
India,Karnataka,Karwar,"KHB Colony, Karwar - KSPCB",25-02-2024 23:00:00,14.816666,74.141003,NO2,3,8,6
India,Karnataka,Karwar,"KHB Colony, Karwar - KSPCB",25-02-2024 23:00:00,14.816666,74.141003,NH3,1,3,2
India,Karnataka,Kolar,"Tamaka Ind. Area, Kolar - KSPCB",25-02-2024 23:00:00,13.1276288,78.1570122,PM10,39,69,51
India,Karnataka,Kolar,"Tamaka Ind. Area, Kolar - KSPCB",25-02-2024 23:00:00,13.1276288,78.1570122,NO2,3,8,5
India,Karnataka,Kolar,"Tamaka Ind. Area, Kolar - KSPCB",25-02-2024 23:00:00,13.1276288,78.1570122,OZONE,8,13,10
India,Karnataka,Koppal,"Diwator Nagar, Koppal - KSPCB",25-02-2024 23:00:00,15.347630,76.181767,NH3,3,6,5
India,Karnataka,Koppal,"Diwator Nagar, Koppal - KSPCB",25-02-2024 23:00:00,15.347630,76.181767,CO,34,38,36
India,Karnataka,Madikeri,"Stuart Hill, Madikeri - KSPCB",25-02-2024 23:00:00,12.415911,75.735050,PM10,36,60,48
India,Karnataka,Madikeri,"Stuart Hill, Madikeri - KSPCB",25-02-2024 23:00:00,12.415911,75.735050,OZONE,20,28,24
India,Karnataka,Raichur,"Haji Colony, Raichur - KSPCB",25-02-2024 23:00:00,16.208139,77.348417,NH3,2,5,3
India,Karnataka,Raichur,"Haji Colony, Raichur - KSPCB",25-02-2024 23:00:00,16.208139,77.348417,SO2,63,74,67
India,Karnataka,Ramanagara,"Vijay Nagar, Ramanagara - KSPCB",25-02-2024 23:00:00,12.733409,77.298051,PM2.5,42,75,61
India,Karnataka,Ramanagara,"Vijay Nagar, Ramanagara - KSPCB",25-02-2024 23:00:00,12.733409,77.298051,PM10,40,55,48
India,Karnataka,Ramanagara,"Vijay Nagar, Ramanagara - KSPCB",25-02-2024 23:00:00,12.733409,77.298051,NH3,1,1,1
India,Karnataka,Ramanagara,"Vijay Nagar, Ramanagara - KSPCB",25-02-2024 23:00:00,12.733409,77.298051,SO2,14,20,17
India,Karnataka,Shivamogga,"Vinoba Nagara, Shivamogga - KSPCB",25-02-2024 23:00:00,13.940000,75.555917,OZONE,37,88,78
India,Karnataka,Tumakuru,"Thimmalapura, Tumakuru - KSPCB",25-02-2024 23:00:00,13.377516,77.099072,SO2,7,12,8
India,Karnataka,Vijayapura,"Ibrahimpur, Vijayapura - KSPCB",25-02-2024 23:00:00,16.802639,75.722694,NH3,2,2,2
India,Kerala,Eloor,"Udyogamandal, Eloor - Kerala PCB",25-02-2024 23:00:00,10.073232,76.302765,NO2,4,5,4
India,Kerala,Kannur,"Thavakkara, Kannur - Kerala PCB",25-02-2024 23:00:00,11.875000,75.373200,OZONE,31,36,32
India,Kerala,Kochi,"Vyttila, Kochi - Kerala PCB",25-02-2024 23:00:00,9.969447,76.321186,PM10,54,117,75
India,Kerala,Kochi,"Vyttila, Kochi - Kerala PCB",25-02-2024 23:00:00,9.969447,76.321186,CO,58,60,59
India,Kerala,Thiruvananthapuram,"Kariavattom, Thiruvananthapuram - Kerala PCB",25-02-2024 23:00:00,8.563700,76.886500,PM2.5,74,83,78
India,Kerala,Thiruvananthapuram,"Kariavattom, Thiruvananthapuram - Kerala PCB",25-02-2024 23:00:00,8.563700,76.886500,NO2,8,9,9
India,Kerala,Thrissur,"Corporation Ground, Thrissur - Kerala PCB",25-02-2024 23:00:00,10.532400,76.215900,PM10,NA,NA,NA
India,Kerala,Thrissur,"Corporation Ground, Thrissur - Kerala PCB",25-02-2024 23:00:00,10.532400,76.215900,SO2,NA,NA,NA
India,Madhya Pradesh,Bhopal,"Paryavaran Parisar, Bhopal - MPPCB",25-02-2024 23:00:00,23.210494,77.425409,CO,4,44,35
India,Madhya Pradesh,Bhopal,"T T Nagar, Bhopal - MPPCB",25-02-2024 23:00:00,23.233584,77.400574,NO2,29,67,39
India,Madhya Pradesh,Bhopal,"T T Nagar, Bhopal - MPPCB",25-02-2024 23:00:00,23.233584,77.400574,OZONE,56,134,101
India,Madhya Pradesh,Dewas,"Bhopal Chauraha, Dewas - MPPCB",25-02-2024 23:00:00,22.9682591,76.064118,SO2,34,58,43
India,Madhya Pradesh,Dewas,"Bhopal Chauraha, Dewas - MPPCB",25-02-2024 23:00:00,22.9682591,76.064118,OZONE,19,34,29
India,Madhya Pradesh,Gwalior,"City Center, Gwalior - MPPCB",25-02-2024 23:00:00,26.203442,78.193251,SO2,19,37,30
India,Madhya Pradesh,Gwalior,"City Center, Gwalior - MPPCB",25-02-2024 23:00:00,26.203442,78.193251,CO,36,87,62
India,Madhya Pradesh,Gwalior,"Deen Dayal Nagar, Gwalior - MPPCB",25-02-2024 23:00:00,26.259242,78.216432,SO2,15,19,17
India,Madhya Pradesh,Gwalior,"Maharaj Bada, Gwalior - MPPCB",25-02-2024 23:00:00,26.200388,78.147714,PM10,54,165,118
India,Madhya Pradesh,Gwalior,"Phool Bagh, Gwalior - Mondelez Ind. Food",25-02-2024 23:00:00,26.210536,78.171,PM2.5,35,186,70
India,Madhya Pradesh,Indore,"Chhoti Gwaltoli, Indore - MPPCB",25-02-2024 23:00:00,22.4310,75.5213,NO2,54,121,77
India,Madhya Pradesh,Indore,"Regional Park, Indore - IMC",25-02-2024 23:00:00,22.6780,75.8559,PM2.5,31,181,60
India,Madhya Pradesh,Indore,"Regional Park, Indore - IMC",25-02-2024 23:00:00,22.6780,75.8559,OZONE,5,15,10
India,Madhya Pradesh,Indore,"Residency Area, Indore - IMC",25-02-2024 23:00:00,22.7084,75.8815,NO2,39,64,48
India,Madhya Pradesh,Jabalpur,"Govindh Bhavan Colony, Jabalpur - JMC",25-02-2024 23:00:00,23.163174,79.973061,NO2,9,21,14
India,Madhya Pradesh,Jabalpur,"Govindh Bhavan Colony, Jabalpur - JMC",25-02-2024 23:00:00,23.163174,79.973061,NH3,6,6,6
India,Madhya Pradesh,Jabalpur,"Gupteshwar, Jabalpur - JMC",25-02-2024 23:00:00,23.142888,79.916147,PM2.5,58,163,84
India,Madhya Pradesh,Jabalpur,"Gupteshwar, Jabalpur - JMC",25-02-2024 23:00:00,23.142888,79.916147,NO2,7,26,15
India,Madhya Pradesh,Jabalpur,"Gupteshwar, Jabalpur - JMC",25-02-2024 23:00:00,23.142888,79.916147,OZONE,36,142,115
India,Madhya Pradesh,Jabalpur,"Marhatal, Jabalpur - MPPCB",25-02-2024 23:00:00,23.168606,79.932247,PM2.5,43,82,59
India,Madhya Pradesh,Jabalpur,"Marhatal, Jabalpur - MPPCB",25-02-2024 23:00:00,23.168606,79.932247,NO2,17,30,22
India,Madhya Pradesh,Jabalpur,"Marhatal, Jabalpur - MPPCB",25-02-2024 23:00:00,23.168606,79.932247,CO,30,58,52
India,Madhya Pradesh,Jabalpur,"Marhatal, Jabalpur - MPPCB",25-02-2024 23:00:00,23.168606,79.932247,OZONE,38,76,71
India,Madhya Pradesh,Jabalpur,"Suhagi, Jabalpur - JMC",25-02-2024 23:00:00,23.218135,79.957770,PM10,18,83,37
India,Madhya Pradesh,Jabalpur,"Suhagi, Jabalpur - JMC",25-02-2024 23:00:00,23.218135,79.957770,NH3,5,5,5
India,Madhya Pradesh,Jabalpur,"Suhagi, Jabalpur - JMC",25-02-2024 23:00:00,23.218135,79.957770,SO2,9,10,9
India,Madhya Pradesh,Katni,"Gole Bazar, Katni - MPPCB",25-02-2024 23:00:00,23.50016,80.23284,PM2.5,NA,NA,NA
India,Madhya Pradesh,Katni,"Gole Bazar, Katni - MPPCB",25-02-2024 23:00:00,23.50016,80.23284,OZONE,NA,NA,NA
India,Madhya Pradesh,Maihar,"Sahilara, Maihar - KJS Cements",25-02-2024 23:00:00,24.2613009,80.7231783,PM10,14,47,26
India,Madhya Pradesh,Mandideep,"Sector-D Industrial Area, Mandideep - MPPCB",25-02-2024 23:00:00,23.108440,77.511428,NO2,23,87,41
India,Madhya Pradesh,Pithampur,"Sector-2 Industrial Area, Pithampur - MPPCB",25-02-2024 23:00:00,22.624758,75.675238,NH3,6,8,7
India,Madhya Pradesh,Pithampur,"Sector-2 Industrial Area, Pithampur - MPPCB",25-02-2024 23:00:00,22.624758,75.675238,SO2,9,22,13
India,Madhya Pradesh,Pithampur,"Sector-2 Industrial Area, Pithampur - MPPCB",25-02-2024 23:00:00,22.624758,75.675238,OZONE,46,65,54
India,Madhya Pradesh,Ujjain,"Mahakaleshwar Temple, Ujjain - MPPCB",25-02-2024 23:00:00,23.182719 ,75.768218 ,SO2,5,26,13
India,Maharashtra,Ahmednagar,"Tarakpur, Ahmednagar - MPCB",25-02-2024 23:00:00,19.10122,74.73339,NO2,NA,NA,NA
India,Maharashtra,Ahmednagar,"Tarakpur, Ahmednagar - MPCB",25-02-2024 23:00:00,19.10122,74.73339,NH3,NA,NA,NA
India,Maharashtra,Akola,"Ramdaspeth, Akola - MPCB",25-02-2024 23:00:00,20.719516,77.000253,PM10,NA,NA,NA
India,Maharashtra,Amravati,"Shri Shivaji Science College, Amaravati - MPCB",25-02-2024 23:00:00,20.939198,77.765701,PM2.5,74,192,110
India,Maharashtra,Aurangabad,"MIDC Chilkalthana, Aurangabad - MPCB",25-02-2024 23:00:00,19.875620,75.387310,SO2,8,41,15
India,Maharashtra,Aurangabad,"MIDC Chilkalthana, Aurangabad - MPCB",25-02-2024 23:00:00,19.875620,75.387310,CO,59,93,69
India,Maharashtra,Aurangabad,"More Chowk Waluj, Aurangabad - MPCB",25-02-2024 23:00:00,19.8389439,75.244448,PM10,27,83,54
India,Maharashtra,Badlapur,"Katrap, Badlapur - MPCB",25-02-2024 23:00:00,19.16485,73.23409,NH3,4,5,4
India,Maharashtra,Badlapur,"Katrap, Badlapur - MPCB",25-02-2024 23:00:00,19.16485,73.23409,OZONE,1,79,48
India,Maharashtra,Belapur,"CBD Belapur, Belapur - MPCB",25-02-2024 23:00:00,19.0243902,73.0406721,PM2.5,21,306,86
India,Maharashtra,Belapur,"CBD Belapur, Belapur - MPCB",25-02-2024 23:00:00,19.0243902,73.0406721,NO2,13,84,48
India,Maharashtra,Bhiwandi,"Gokul Nagar, Bhiwandi - MPCB",25-02-2024 23:00:00,19.309073,73.057223,NH3,1,2,2
India,Maharashtra,Boisar,"Khaira, Boisar - MPCB",25-02-2024 23:00:00,19.786089,72.757971,PM2.5,NA,NA,NA
India,Maharashtra,Boisar,"Khaira, Boisar - MPCB",25-02-2024 23:00:00,19.786089,72.757971,SO2,NA,NA,NA
India,Maharashtra,Chandrapur,"MIDC Khutala, Chandrapur - MPCB",25-02-2024 23:00:00,19.9775302,79.2337086,SO2,NA,NA,NA
India,Maharashtra,Dhule,"Deopur, Dhule - MPCB",25-02-2024 23:00:00,20.918946,74.776388,PM2.5,84,139,102
India,Maharashtra,Dhule,"Deopur, Dhule - MPCB",25-02-2024 23:00:00,20.918946,74.776388,PM10,54,184,94
India,Maharashtra,Dhule,"Deopur, Dhule - MPCB",25-02-2024 23:00:00,20.918946,74.776388,OZONE,10,74,53
India,Maharashtra,Jalgaon,"Prabhat Colony, Jalgaon - MPCB",25-02-2024 23:00:00,21.001264,75.565602,OZONE,11,39,28
India,Maharashtra,Kalyan,"Khadakpada, Kalyan - MPCB",25-02-2024 23:00:00,19.25292,73.142019,PM10,55,139,101
India,Maharashtra,Kalyan,"Khadakpada, Kalyan - MPCB",25-02-2024 23:00:00,19.25292,73.142019,NO2,31,47,38
India,Maharashtra,Kalyan,"Khadakpada, Kalyan - MPCB",25-02-2024 23:00:00,19.25292,73.142019,OZONE,9,33,23
India,Maharashtra,Kolhapur,"Shivaji University, Kolhapur - MPCB",25-02-2024 23:00:00,16.6870449,74.2505872,NO2,12,68,36
India,Maharashtra,Kolhapur,"Shivaji University, Kolhapur - MPCB",25-02-2024 23:00:00,16.6870449,74.2505872,SO2,2,14,7
India,Maharashtra,Kolhapur,"Shivaji University, Kolhapur - MPCB",25-02-2024 23:00:00,16.6870449,74.2505872,CO,34,80,54
India,Maharashtra,Kolhapur,"Shivaji University, Kolhapur - MPCB",25-02-2024 23:00:00,16.6870449,74.2505872,OZONE,7,159,87
India,Maharashtra,Kolhapur,"Sinchan Bhavan, Kolhapur - MPCB",25-02-2024 23:00:00,16.7143745,74.2426398,NO2,15,50,30
India,Maharashtra,Latur,"Sawe Wadi, Latur - MPCB",25-02-2024 23:00:00,18.39963,76.57452,PM2.5,NA,NA,NA
India,Maharashtra,Latur,"Sawe Wadi, Latur - MPCB",25-02-2024 23:00:00,18.39963,76.57452,NH3,NA,NA,NA
India,Maharashtra,Malegaon,"Mahesh Nagar, Malegaon - MPCB",25-02-2024 23:00:00,20.555712,74.529236,PM2.5,63,138,91
India,Maharashtra,Malegaon,"Mahesh Nagar, Malegaon - MPCB",25-02-2024 23:00:00,20.555712,74.529236,NH3,2,13,4
India,Maharashtra,Mumbai,"Bandra Kurla Complex, Mumbai - MPCB",25-02-2024 23:00:00,19.065931,72.862131,PM10,113,423,207
India,Maharashtra,Mumbai,"Bandra Kurla Complex, Mumbai - MPCB",25-02-2024 23:00:00,19.065931,72.862131,NH3,8,17,12
India,Maharashtra,Mumbai,"Byculla, Mumbai - BMC",25-02-2024 23:00:00,18.9767,72.8380,PM2.5,24,101,64
India,Maharashtra,Mumbai,"Byculla, Mumbai - BMC",25-02-2024 23:00:00,18.9767,72.8380,PM10,57,111,85
India,Maharashtra,Mumbai,"Chakala-Andheri East, Mumbai - IITM",25-02-2024 23:00:00,19.11074,72.86084,PM10,77,444,143
India,Maharashtra,Mumbai,"Chakala-Andheri East, Mumbai - IITM",25-02-2024 23:00:00,19.11074,72.86084,NH3,4,33,15
India,Maharashtra,Mumbai,"Chakala-Andheri East, Mumbai - IITM",25-02-2024 23:00:00,19.11074,72.86084,SO2,7,51,25
India,Maharashtra,Mumbai,"Chembur, Mumbai - MPCB",25-02-2024 23:00:00,19.0364585,72.8954371,PM2.5,48,88,75
India,Maharashtra,Mumbai,"Chembur, Mumbai - MPCB",25-02-2024 23:00:00,19.0364585,72.8954371,CO,25,66,40
India,Maharashtra,Mumbai,"Chhatrapati Shivaji Intl. Airport (T2), Mumbai - MPCB",25-02-2024 23:00:00,19.10078,72.87462,OZONE,4,27,14
India,Maharashtra,Mumbai,"Ghatkopar, Mumbai - BMC",25-02-2024 23:00:00,19.083694,72.920967,CO,5,56,18
India,Maharashtra,Mumbai,"Kandivali East, Mumbai - MPCB",25-02-2024 23:00:00,19.205800,72.868200,PM2.5,7,94,33
India,Maharashtra,Mumbai,"Kandivali East, Mumbai - MPCB",25-02-2024 23:00:00,19.205800,72.868200,PM10,53,285,128
India,Maharashtra,Mumbai,"Kandivali East, Mumbai - MPCB",25-02-2024 23:00:00,19.205800,72.868200,NH3,4,8,6
India,Maharashtra,Mumbai,"Kandivali East, Mumbai - MPCB",25-02-2024 23:00:00,19.205800,72.868200,SO2,68,78,72
India,Maharashtra,Mumbai,"Kandivali East, Mumbai - MPCB",25-02-2024 23:00:00,19.205800,72.868200,CO,68,107,85
India,Maharashtra,Mumbai,"Kandivali West, Mumbai - BMC",25-02-2024 23:00:00,19.215859,72.831718,NH3,1,2,2
India,Maharashtra,Mumbai,"Kherwadi_Bandra East, Mumbai - MPCB",25-02-2024 23:00:00,19.0632143,72.8456324,PM2.5,63,225,120
India,Maharashtra,Mumbai,"Khindipada-Bhandup West, Mumbai - IITM",25-02-2024 23:00:00,19.1653323,72.922099,OZONE,12,42,31
India,Maharashtra,Mumbai,"Mindspace-Malad West, Mumbai - MPCB",25-02-2024 23:00:00,19.1878657,72.8304069,SO2,4,13,8
India,Maharashtra,Mumbai,"Mulund West, Mumbai - MPCB",25-02-2024 23:00:00,19.1750,72.9419,SO2,15,15,15
India,Maharashtra,Mumbai,"Navy Nagar-Colaba, Mumbai - IITM",25-02-2024 23:00:00,18.897756,72.813320,PM10,89,164,118
India,Maharashtra,Mumbai,"Navy Nagar-Colaba, Mumbai - IITM",25-02-2024 23:00:00,18.897756,72.813320,SO2,1,35,8
India,Maharashtra,Mumbai,"Navy Nagar-Colaba, Mumbai - IITM",25-02-2024 23:00:00,18.897756,72.813320,CO,27,52,34
India,Maharashtra,Mumbai,"Powai, Mumbai - MPCB",25-02-2024 23:00:00,19.137500,72.915056,PM10,46,113,83
India,Maharashtra,Mumbai,"Powai, Mumbai - MPCB",25-02-2024 23:00:00,19.137500,72.915056,NO2,19,45,26
India,Maharashtra,Mumbai,"Powai, Mumbai - MPCB",25-02-2024 23:00:00,19.137500,72.915056,NH3,1,1,1
India,Maharashtra,Mumbai,"Powai, Mumbai - MPCB",25-02-2024 23:00:00,19.137500,72.915056,CO,26,35,30
India,Maharashtra,Mumbai,"Powai, Mumbai - MPCB",25-02-2024 23:00:00,19.137500,72.915056,OZONE,32,125,88
India,Maharashtra,Mumbai,"Sewri, Mumbai - BMC",25-02-2024 23:00:00,19.000084,72.856730,CO,14,82,24
India,Maharashtra,Mumbai,"Siddharth Nagar-Worli, Mumbai - IITM",25-02-2024 23:00:00,19.000083,72.813993,PM2.5,88,240,154
India,Maharashtra,Mumbai,"Siddharth Nagar-Worli, Mumbai - IITM",25-02-2024 23:00:00,19.000083,72.813993,CO,10,52,21
India,Maharashtra,Mumbai,"Sion, Mumbai - MPCB",25-02-2024 23:00:00,19.047000,72.874600,NO2,10,115,53
India,Maharashtra,Mumbai,"Vile Parle West, Mumbai - MPCB",25-02-2024 23:00:00,19.10861,72.83622,PM2.5,22,260,63
India,Maharashtra,Mumbai,"Vile Parle West, Mumbai - MPCB",25-02-2024 23:00:00,19.10861,72.83622,SO2,13,14,14
India,Maharashtra,Mumbai,"Vile Parle West, Mumbai - MPCB",25-02-2024 23:00:00,19.10861,72.83622,OZONE,4,5,4
India,Maharashtra,Mumbai,"Worli, Mumbai - MPCB",25-02-2024 23:00:00,18.9936162,72.8128113,PM10,59,182,91
India,Maharashtra,Mumbai,"Worli, Mumbai - MPCB",25-02-2024 23:00:00,18.9936162,72.8128113,SO2,10,11,11
India,Maharashtra,Nagpur,"Ambazari, Nagpur - MPCB",25-02-2024 23:00:00,21.121801,79.04952,PM10,90,142,114
India,Maharashtra,Nagpur,"Ambazari, Nagpur - MPCB",25-02-2024 23:00:00,21.121801,79.04952,OZONE,51,160,110
India,Maharashtra,Nagpur,"Mahal, Nagpur - MPCB",25-02-2024 23:00:00,21.14472,79.107595,PM10,100,173,120
India,Maharashtra,Nagpur,"Opp GPO Civil Lines, Nagpur - MPCB",25-02-2024 23:00:00,21.152875,79.0517531,PM10,93,185,122
India,Maharashtra,Nagpur,"Opp GPO Civil Lines, Nagpur - MPCB",25-02-2024 23:00:00,21.152875,79.0517531,CO,14,55,35
India,Maharashtra,Nagpur,"Ram Nagar, Nagpur - MPCB",25-02-2024 23:00:00,21.143383,79.048912,CO,17,46,32
India,Maharashtra,Nashik,"Gangapur Road, Nashik - MPCB",25-02-2024 23:00:00,20.0073285,73.7762427,PM2.5,35,141,59
India,Maharashtra,Nashik,"Hirawadi, Nashik - MPCB",25-02-2024 23:00:00,20.021503,73.813844,NO2,5,110,42
India,Maharashtra,Nashik,"MIDC Ambad, Nashik - MPCB",25-02-2024 23:00:00,19.950220,73.731480,PM10,44,147,69
India,Maharashtra,Nashik,"Pandav Nagari, Nashik - MPCB",25-02-2024 23:00:00,19.9591346,73.7788008,NH3,4,22,6
India,Maharashtra,Nashik,"Pandav Nagari, Nashik - MPCB",25-02-2024 23:00:00,19.9591346,73.7788008,CO,8,106,42
India,Maharashtra,Navi Mumbai,"Kopripada-Vashi, Navi Mumbai - MPCB",25-02-2024 23:00:00,19.090337,73.014232,SO2,9,64,25
India,Maharashtra,Navi Mumbai,"Kopripada-Vashi, Navi Mumbai - MPCB",25-02-2024 23:00:00,19.090337,73.014232,OZONE,13,98,58
India,Maharashtra,Navi Mumbai,"Mahape, Navi Mumbai - MPCB",25-02-2024 23:00:00,19.1135051,73.008978,CO,40,72,72
India,Maharashtra,Navi Mumbai,"Nerul, Navi Mumbai - MPCB",25-02-2024 23:00:00,19.008751,73.016620,NO2,20,30,26
India,Maharashtra,Navi Mumbai,"Sanpada, Navi Mumbai - MPCB",25-02-2024 23:00:00,19.0575752,73.0151367,NO2,NA,NA,NA
India,Maharashtra,Navi Mumbai,"Sanpada, Navi Mumbai - MPCB",25-02-2024 23:00:00,19.0575752,73.0151367,NH3,NA,NA,NA
India,Maharashtra,Navi Mumbai,"Sector-19A Nerul, Navi Mumbai - IITM",25-02-2024 23:00:00,19.044,73.0325,SO2,8,50,24
India,Maharashtra,Navi Mumbai,"Sector-19A Nerul, Navi Mumbai - IITM",25-02-2024 23:00:00,19.044,73.0325,OZONE,1,182,86
India,Maharashtra,Navi Mumbai,"Sector-2E Kalamboli, Navi Mumbai - MPCB",25-02-2024 23:00:00,19.02579,73.10297,NO2,25,106,61
India,Maharashtra,Navi Mumbai,"Sector-2E Kalamboli, Navi Mumbai - MPCB",25-02-2024 23:00:00,19.02579,73.10297,CO,11,84,39
India,Maharashtra,Navi Mumbai,"Tondare-Taloja, Navi Mumbai - MPCB",25-02-2024 23:00:00,19.0630,73.1209,PM2.5,59,159,86
India,Maharashtra,Parbhani,"Masoom Colony, Parbhani - MPCB",25-02-2024 23:00:00,19.265594,76.761463,NH3,2,3,3
India,Maharashtra,Pimpri-Chinchwad,"Gavalinagar, Pimpri Chinchwad - MPCB",25-02-2024 23:00:00,18.63673,73.82487,OZONE,1,204,104
India,Maharashtra,Pimpri-Chinchwad,"Park Street Wakad, Pimpri Chinchwad - MPCB",25-02-2024 23:00:00,18.59051,73.77946,SO2,5,15,10
India,Maharashtra,Pune,"Karve Road, Pune - MPCB",25-02-2024 23:00:00,18.5011743,73.8165527,PM10,2,399,107
India,Maharashtra,Pune,"Karve Road, Pune - MPCB",25-02-2024 23:00:00,18.5011743,73.8165527,OZONE,1,19,6
India,Maharashtra,Pune,"Katraj Dairy, Pune - MPCB",25-02-2024 23:00:00,18.454450,73.854155,OZONE,7,51,32
India,Maharashtra,Pune,"Revenue Colony-Shivajinagar, Pune - IITM",25-02-2024 23:00:00,18.530085,73.849598,NO2,76,154,114
India,Maharashtra,Pune,"Revenue Colony-Shivajinagar, Pune - IITM",25-02-2024 23:00:00,18.530085,73.849598,CO,30,114,102
India,Maharashtra,Pune,"Transport Nagar-Nigdi, Pune - IITM",25-02-2024 23:00:00,18.664282,73.763966,PM2.5,32,220,77
India,Maharashtra,Solapur,"Dnyaneshwar Nagar, Solapur - MPCB",25-02-2024 23:00:00,17.6336264,75.9132495,PM10,77,332,134
India,Maharashtra,Solapur,"Dnyaneshwar Nagar, Solapur - MPCB",25-02-2024 23:00:00,17.6336264,75.9132495,NH3,9,61,22
India,Maharashtra,Solapur,"Dnyaneshwar Nagar, Solapur - MPCB",25-02-2024 23:00:00,17.6336264,75.9132495,SO2,4,20,8
India,Maharashtra,Solapur,"Ratandeep Housing Society, Solapur - MPCB",25-02-2024 23:00:00,17.65439,75.90649,OZONE,4,173,82
India,Maharashtra,Solapur,"Solapur, Solapur - MPCB",25-02-2024 23:00:00,17.6599188,75.9063906,PM10,125,141,136
India,Maharashtra,Thane,"Kasarvadavali, Thane - MPCB",25-02-2024 23:00:00,19.26777,72.97182,NO2,25,150,62
India,Maharashtra,Thane,"Kasarvadavali, Thane - MPCB",25-02-2024 23:00:00,19.26777,72.97182,NH3,3,21,7
India,Maharashtra,Ulhasnagar,"Sidhi Vinayak Nagar, Ulhasnagar - MPCB",25-02-2024 23:00:00,19.235581,73.159121,PM2.5,59,133,82
India,Maharashtra,Virar,"Bolinj, Virar - MPCB",25-02-2024 23:00:00,19.4458210,72.7988231,NH3,4,6,5
India,Maharashtra,Virar,"Bolinj, Virar - MPCB",25-02-2024 23:00:00,19.4458210,72.7988231,OZONE,56,148,86
India,Manipur,Imphal,"DM College of Science, Imphal - Manipur PCB",25-02-2024 23:00:00,24.8207389,93.9423085,NO2,7,8,8
India,Mizoram,Aizawl,"Sikulpuikawn, Aizawl - Mizoram PCB",25-02-2024 23:00:00,23.7176342,92.7192841,NO2,NA,NA,NA
India,Mizoram,Aizawl,"Sikulpuikawn, Aizawl - Mizoram PCB",25-02-2024 23:00:00,23.7176342,92.7192841,CO,8,16,11
India,Odisha,Balasore,"Kalidaspur, Balasore - OSPCB",25-02-2024 23:00:00,21.51161,86.89088,NO2,10,57,21
India,Odisha,Balasore,"Kalidaspur, Balasore - OSPCB",25-02-2024 23:00:00,21.51161,86.89088,OZONE,22,71,45
India,Odisha,Barbil,"Forest Office, Barbil - OSPCB",25-02-2024 23:00:00,22.1166054,85.3945546,SO2,1,19,9
India,Odisha,Baripada,"Meher Colony, Baripada - OSPCB",25-02-2024 23:00:00,21.941841,86.728318,PM10,89,127,106
India,Odisha,Baripada,"Meher Colony, Baripada - OSPCB",25-02-2024 23:00:00,21.941841,86.728318,NH3,4,4,4
India,Odisha,Bhubaneswar,"Lingraj Mandir, Bhubaneswar - OSPCB",25-02-2024 23:00:00,20.240790,85.836784,NO2,5,26,15
India,Odisha,Bhubaneswar,"Lingraj Mandir, Bhubaneswar - OSPCB",25-02-2024 23:00:00,20.240790,85.836784,SO2,4,12,8
India,Odisha,Bhubaneswar,"Patia, Bhubaneswar - OSPCB",25-02-2024 23:00:00,20.34652,85.81630,PM10,94,149,128
India,Odisha,Bhubaneswar,"Patia, Bhubaneswar - OSPCB",25-02-2024 23:00:00,20.34652,85.81630,SO2,4,16,9
India,Odisha,Bileipada,"Tata Township, Bileipada - OSPCB",25-02-2024 23:00:00,22.06156703,85.47409613,PM10,127,268,173
India,Odisha,Bileipada,"Tata Township, Bileipada - OSPCB",25-02-2024 23:00:00,22.06156703,85.47409613,NO2,7,10,9
India,Odisha,Brajrajnagar,"GM Office, Brajrajnagar - OSPCB",25-02-2024 23:00:00,21.8004996,83.8396977,PM2.5,10,55,33
India,Odisha,Brajrajnagar,"GM Office, Brajrajnagar - OSPCB",25-02-2024 23:00:00,21.8004996,83.8396977,CO,49,76,65
India,Odisha,Byasanagar,"Ferro Chrome Colony, Byasanagar - OSPCB",25-02-2024 23:00:00,20.94185,86.11510,NO2,15,24,19
India,Odisha,Byasanagar,"Ferro Chrome Colony, Byasanagar - OSPCB",25-02-2024 23:00:00,20.94185,86.11510,NH3,3,5,4
India,Odisha,Byasanagar,"Ferro Chrome Colony, Byasanagar - OSPCB",25-02-2024 23:00:00,20.94185,86.11510,SO2,8,25,18
India,Odisha,Cuttack,"CDA Area, Cuttack - OSPCB",25-02-2024 23:00:00,20.48891     ,85.84768     ,PM10,97,158,128
India,Odisha,Cuttack,"CDA Area, Cuttack - OSPCB",25-02-2024 23:00:00,20.48891     ,85.84768     ,NO2,12,28,17
India,Odisha,Nayagarh,"Dabuna, Nayagarh - OSPCB",25-02-2024 23:00:00,21.847279,85.416905,NO2,30,34,32
India,Odisha,Nayagarh,"Dabuna, Nayagarh - OSPCB",25-02-2024 23:00:00,21.847279,85.416905,SO2,1,4,2
India,Odisha,Nayagarh,"Dabuna, Nayagarh - OSPCB",25-02-2024 23:00:00,21.847279,85.416905,CO,19,24,21
India,Odisha,Rairangpur,"Divisional Forest Office, Rairangpur - OSPCB",25-02-2024 23:00:00,22.265816,86.174829,PM2.5,NA,NA,NA
India,Odisha,Rairangpur,"Divisional Forest Office, Rairangpur - OSPCB",25-02-2024 23:00:00,22.265816,86.174829,NO2,NA,NA,NA
India,Odisha,Rairangpur,"Divisional Forest Office, Rairangpur - OSPCB",25-02-2024 23:00:00,22.265816,86.174829,NH3,NA,NA,NA
India,Odisha,Rourkela,"Fertilizer Township, Rourkela - OSPCB",25-02-2024 23:00:00,22.18972222,84.86277778,PM2.5,46,139,72
India,Odisha,Rourkela,"Fertilizer Township, Rourkela - OSPCB",25-02-2024 23:00:00,22.18972222,84.86277778,NO2,12,23,17
India,Odisha,Rourkela,"Fertilizer Township, Rourkela - OSPCB",25-02-2024 23:00:00,22.18972222,84.86277778,SO2,11,18,13
India,Odisha,Rourkela,"Raghunathpali, Rourkela - OSPCB",25-02-2024 23:00:00,22.220833,84.809444,NO2,18,62,34
India,Odisha,Rourkela,"Raghunathpali, Rourkela - OSPCB",25-02-2024 23:00:00,22.220833,84.809444,NH3,2,3,2
India,Odisha,Rourkela,"Raghunathpali, Rourkela - OSPCB",25-02-2024 23:00:00,22.220833,84.809444,CO,26,46,39
India,Odisha,Rourkela,"Sector-2, Rourkela - OSPCB",25-02-2024 23:00:00,22.24500000,84.88111111,PM10,86,118,106
India,Odisha,Talcher,"Talcher Coalfields,Talcher - OSPCB",25-02-2024 23:00:00,20.9360711,85.1707021,SO2,10,69,20
India,Odisha,Tensa,"Barsua Iron Ore Mines, Tensa - OSPCB",25-02-2024 23:00:00,21.869985,85.167016,OZONE,3,15,6
India,Puducherry,Puducherry,"Jawahar Nagar, Puducherry - PPCC",25-02-2024 23:00:00,11.9309,79.8027,PM10,25,76,38
India,Puducherry,Puducherry,"Jawahar Nagar, Puducherry - PPCC",25-02-2024 23:00:00,11.9309,79.8027,CO,11,46,28
India,Punjab,Amritsar,"Golden Temple, Amritsar - PPCB",25-02-2024 23:00:00,31.620000,74.876512,PM10,22,134,51
India,Punjab,Bathinda,"Hardev Nagar, Bathinda - PPCB",25-02-2024 23:00:00,30.233011,74.907758,PM2.5,19,158,65
India,Punjab,Bathinda,"Hardev Nagar, Bathinda - PPCB",25-02-2024 23:00:00,30.233011,74.907758,PM10,39,216,102
India,Punjab,Khanna,"Kalal Majra, Khanna - PPCB",25-02-2024 23:00:00,30.736056 ,76.209694,PM2.5,73,180,110
India,Punjab,Khanna,"Kalal Majra, Khanna - PPCB",25-02-2024 23:00:00,30.736056 ,76.209694,NH3,16,16,16
India,Punjab,Ludhiana,"Punjab Agricultural University, Ludhiana - PPCB",25-02-2024 23:00:00,30.9028,75.8086,SO2,1,15,9
India,Punjab,Ludhiana,"Punjab Agricultural University, Ludhiana - PPCB",25-02-2024 23:00:00,30.9028,75.8086,OZONE,8,34,23
India,Punjab,Mandi Gobindgarh,"RIMT University, Mandi Gobindgarh - PPCB",25-02-2024 23:00:00,30.649961,76.331442,PM2.5,53,288,100
India,Punjab,Mandi Gobindgarh,"RIMT University, Mandi Gobindgarh - PPCB",25-02-2024 23:00:00,30.649961,76.331442,NH3,2,2,2
India,Punjab,Patiala,"Model Town, Patiala - PPCB",25-02-2024 23:00:00,30.349388,76.366642,NH3,3,3,3
India,Punjab,Patiala,"Model Town, Patiala - PPCB",25-02-2024 23:00:00,30.349388,76.366642,SO2,3,45,6
India,Punjab,Patiala,"Model Town, Patiala - PPCB",25-02-2024 23:00:00,30.349388,76.366642,CO,40,70,52
India,Punjab,Rupnagar,"Ratanpura, Rupnagar - Ambuja Cements",25-02-2024 23:00:00,31.0325454,76.5623046,SO2,5,11,9
India,Rajasthan,Ajmer,"Civil Lines,  Ajmer - RSPCB",25-02-2024 23:00:00,26.470859,74.646594,OZONE,22,51,45
India,Rajasthan,Banswara,"Rati Talai, Banswara - RSPCB",25-02-2024 23:00:00,23.555190,74.440010,PM2.5,21,178,59
India,Rajasthan,Banswara,"Rati Talai, Banswara - RSPCB",25-02-2024 23:00:00,23.555190,74.440010,CO,14,44,23
India,Rajasthan,Bharatpur,"Krishna Nagar, Bharatpur - RSPCB",25-02-2024 23:00:00,27.215415,77.50873,PM10,72,171,121
India,Rajasthan,Bharatpur,"Krishna Nagar, Bharatpur - RSPCB",25-02-2024 23:00:00,27.215415,77.50873,NO2,27,93,51
India,Rajasthan,Bharatpur,"Krishna Nagar, Bharatpur - RSPCB",25-02-2024 23:00:00,27.215415,77.50873,CO,4,134,80
India,Rajasthan,Bharatpur,"Krishna Nagar, Bharatpur - RSPCB",25-02-2024 23:00:00,27.215415,77.50873,OZONE,25,125,77
India,Rajasthan,Bhilwara,"Pratap Nagar, Bhilwara - RSPCB",25-02-2024 23:00:00,25.339605,74.618883,NO2,18,76,35
India,Rajasthan,Bhilwara,"Pratap Nagar, Bhilwara - RSPCB",25-02-2024 23:00:00,25.339605,74.618883,NH3,1,2,1
India,Rajasthan,Bhiwadi,"RIICO Ind. Area III, Bhiwadi - RSPCB",25-02-2024 23:00:00,28.194909,76.862296,PM2.5,56,177,111
India,Rajasthan,Bhiwadi,"RIICO Ind. Area III, Bhiwadi - RSPCB",25-02-2024 23:00:00,28.194909,76.862296,SO2,4,19,11
India,Rajasthan,Bhiwadi,"RIICO Ind. Area III, Bhiwadi - RSPCB",25-02-2024 23:00:00,28.194909,76.862296,CO,2,119,77
India,Rajasthan,Bhiwadi,"RIICO Ind. Area III, Bhiwadi - RSPCB",25-02-2024 23:00:00,28.194909,76.862296,OZONE,15,98,53
India,Rajasthan,Bikaner,"MM Ground, Bikaner - RSPCB",25-02-2024 23:00:00,28.018792,73.292658,NH3,8,10,9
India,Rajasthan,Bikaner,"MM Ground, Bikaner - RSPCB",25-02-2024 23:00:00,28.018792,73.292658,CO,16,64,48
India,Rajasthan,Chittorgarh,"Shastri Nagar, Chittorgarh - RSPCB",25-02-2024 23:00:00,24.892047,74.623527,NH3,4,9,6
India,Rajasthan,Chittorgarh,"Shastri Nagar, Chittorgarh - RSPCB",25-02-2024 23:00:00,24.892047,74.623527,OZONE,2,153,122
India,Rajasthan,Churu,"Subash Chowk, Churu - RSPCB",25-02-2024 23:00:00,28.296139,74.961696,PM10,59,162,94
India,Rajasthan,Churu,"Subash Chowk, Churu - RSPCB",25-02-2024 23:00:00,28.296139,74.961696,NH3,8,13,10
India,Rajasthan,Churu,"Subash Chowk, Churu - RSPCB",25-02-2024 23:00:00,28.296139,74.961696,CO,19,52,32
India,Rajasthan,Dausa,"Khatikan Mohalla, Dausa - RSPCB",25-02-2024 23:00:00,26.895552,76.334753,NO2,23,47,35
India,Rajasthan,Dholpur,"Raja Ganj, Dholpur - RSPCB",25-02-2024 23:00:00,26.699557,77.898881,PM2.5,37,317,143
India,Rajasthan,Dholpur,"Raja Ganj, Dholpur - RSPCB",25-02-2024 23:00:00,26.699557,77.898881,PM10,41,181,102
India,Rajasthan,Dholpur,"Raja Ganj, Dholpur - RSPCB",25-02-2024 23:00:00,26.699557,77.898881,NO2,6,31,15
India,Rajasthan,Dholpur,"Raja Ganj, Dholpur - RSPCB",25-02-2024 23:00:00,26.699557,77.898881,SO2,3,9,6
India,Rajasthan,Dholpur,"Raja Ganj, Dholpur - RSPCB",25-02-2024 23:00:00,26.699557,77.898881,CO,16,62,33
India,Rajasthan,Dungarpur,"Bhoiwada, Dungarpur - RSPCB",25-02-2024 23:00:00,23.837789,73.714926,PM10,52,135,92
India,Rajasthan,Hanumangarh,"Housing Board, Hanumangarh - RSPCB",25-02-2024 23:00:00,29.610750,74.283608,PM2.5,35,300,112
India,Rajasthan,Hanumangarh,"Housing Board, Hanumangarh - RSPCB",25-02-2024 23:00:00,29.610750,74.283608,PM10,108,244,140
India,Rajasthan,Hanumangarh,"Housing Board, Hanumangarh - RSPCB",25-02-2024 23:00:00,29.610750,74.283608,SO2,1,12,5
India,Rajasthan,Jaipur,"Mansarovar Sector-12, Jaipur - RSPCB",25-02-2024 23:00:00,26.843698,75.766894,NO2,24,33,28
India,Rajasthan,Jaipur,"Mansarovar Sector-12, Jaipur - RSPCB",25-02-2024 23:00:00,26.843698,75.766894,NH3,10,12,11
India,Rajasthan,Jaipur,"Mansarovar Sector-12, Jaipur - RSPCB",25-02-2024 23:00:00,26.843698,75.766894,CO,60,74,67
India,Rajasthan,Jaipur,"Police Commissionerate, Jaipur - RSPCB",25-02-2024 23:00:00,26.9164092,75.7994901,NO2,19,46,29
India,Rajasthan,Jaipur,"RIICO Sitapura, Jaipur - RSPCB",25-02-2024 23:00:00,26.786682,75.827928,NH3,1,1,1
India,Rajasthan,Jaipur,"RIICO Sitapura, Jaipur - RSPCB",25-02-2024 23:00:00,26.786682,75.827928,CO,4,42,14
India,Rajasthan,Jaipur,"Sector-2 Murlipura, Jaipur - RSPCB",25-02-2024 23:00:00,26.960669,75.771817,PM2.5,12,46,25
India,Rajasthan,Jaipur,"Shastri Nagar, Jaipur - RSPCB",25-02-2024 23:00:00,26.9502929,75.730943,NO2,12,31,20
India,Rajasthan,Jaisalmer,"Sadar Bazar, Jaisalmer - RSPCB",25-02-2024 23:00:00,26.912329,70.909168,PM10,67,160,107
India,Rajasthan,Jaisalmer,"Sadar Bazar, Jaisalmer - RSPCB",25-02-2024 23:00:00,26.912329,70.909168,OZONE,22,95,76
India,Rajasthan,Jalore,"Mudtra Sili, Jalore - RSPCB",25-02-2024 23:00:00,25.344694,72.626208,PM2.5,17,118,46
India,Rajasthan,Jhalawar,"Rajlaxmi Nagar, Jhalawar - RSPCB",25-02-2024 23:00:00,24.588397,76.172782,NO2,3,9,6
India,Rajasthan,Jhunjhunu,"Indra Nagar, Jhunjhunu - RSPCB",25-02-2024 23:00:00,28.108988,75.386577,PM2.5,34,303,116
India,Rajasthan,Jhunjhunu,"Indra Nagar, Jhunjhunu - RSPCB",25-02-2024 23:00:00,28.108988,75.386577,OZONE,14,99,77
India,Rajasthan,Jodhpur,"Collectorate, Jodhpur - RSPCB",25-02-2024 23:00:00,26.268249,73.0193853,PM10,48,195,119
India,Rajasthan,Jodhpur,"Collectorate, Jodhpur - RSPCB",25-02-2024 23:00:00,26.268249,73.0193853,NO2,35,40,37
India,Rajasthan,Jodhpur,"Jhalamand, Jodhpur - RSPCB",25-02-2024 23:00:00,26.215415,73.070156,NO2,24,52,32
India,Rajasthan,Jodhpur,"Mandor, Jodhpur - RSPCB",25-02-2024 23:00:00,26.358805,73.047444,OZONE,55,129,94
India,Rajasthan,Jodhpur,"Samrat Ashok Udhyan, Jodhpur - RSPCB",25-02-2024 23:00:00,26.253384,72.976571,NO2,10,47,24
India,Rajasthan,Jodhpur,"Samrat Ashok Udhyan, Jodhpur - RSPCB",25-02-2024 23:00:00,26.253384,72.976571,NH3,3,6,4
India,Rajasthan,Karauli,"Satyawati Vihar, Karauli - RSPCB",25-02-2024 23:00:00,26.506177,77.025989,CO,75,100,89
India,Rajasthan,Karauli,"Satyawati Vihar, Karauli - RSPCB",25-02-2024 23:00:00,26.506177,77.025989,OZONE,30,68,40
India,Rajasthan,Kota,"Dhanmandi, Kota - RSPCB",25-02-2024 23:00:00,25.164090,75.858137,NH3,3,4,3
India,Rajasthan,Kota,"Nayapura, Kota - RSPCB",25-02-2024 23:00:00,25.196024,75.855668,SO2,4,6,5
India,Rajasthan,Kota,"Shrinath Puram, Kota - RSPCB",25-02-2024 23:00:00,25.14389,75.821256,CO,5,52,15
India,Rajasthan,Kota,"Shrinath Puram, Kota - RSPCB",25-02-2024 23:00:00,25.14389,75.821256,OZONE,38,81,62
India,Rajasthan,Nagaur,"Karni Colony, Nagaur - RSPCB",25-02-2024 23:00:00,27.213494,73.734444,NO2,12,86,30
India,Rajasthan,Pali,"Indira Colony Vistar, Pali - RSPCB",25-02-2024 23:00:00,25.771061, 73.340227,SO2,8,13,11
India,Rajasthan,Pali,"Indira Colony Vistar, Pali - RSPCB",25-02-2024 23:00:00,25.771061, 73.340227,CO,44,102,60
India,Rajasthan,Pratapgarh,"Pragati Nagar, Pratapgarh - RSPCB",25-02-2024 23:00:00,24.041198,74.780702,NO2,10,24,15
India,Rajasthan,Pratapgarh,"Pragati Nagar, Pratapgarh - RSPCB",25-02-2024 23:00:00,24.041198,74.780702,CO,11,24,16
India,Rajasthan,Rajsamand,"Dhoinda, Rajsamand - RSPCB",25-02-2024 23:00:00,25.036360,73.883502,PM2.5,NA,NA,NA
India,Rajasthan,Rajsamand,"Dhoinda, Rajsamand - RSPCB",25-02-2024 23:00:00,25.036360,73.883502,PM10,NA,NA,NA
India,Rajasthan,Rajsamand,"Dhoinda, Rajsamand - RSPCB",25-02-2024 23:00:00,25.036360,73.883502,NO2,NA,NA,NA
India,Rajasthan,Sawai Madhopur,"Sahu Nagar, Sawai Madhopur - RSPCB",25-02-2024 23:00:00,26.031443,76.359327,PM2.5,27,73,47
India,Rajasthan,Sikar,"Radhakishan Pura, Sikar - RSPCB",25-02-2024 23:00:00,27.608912,75.153302,PM2.5,19,71,38
India,Rajasthan,Sri Ganganagar,"Old City, Sri Ganganagar - RSPCB",25-02-2024 23:00:00,29.931624,73.864511,PM2.5,38,313,132
India,Rajasthan,Sri Ganganagar,"Old City, Sri Ganganagar - RSPCB",25-02-2024 23:00:00,29.931624,73.864511,SO2,7,20,10
India,Sikkim,Gangtok,"Zero Point GICI, Gangtok - SSPCB",25-02-2024 23:00:00,27.338530,88.614099,NO2,1,5,2
India,TamilNadu,Chennai,"Alandur Bus Depot, Chennai - CPCB",25-02-2024 23:00:00,12.9099161,80.1076538,PM2.5,59,110,82
India,TamilNadu,Chennai,"Alandur Bus Depot, Chennai - CPCB",25-02-2024 23:00:00,12.9099161,80.1076538,NO2,9,83,22
India,TamilNadu,Chennai,"Alandur Bus Depot, Chennai - CPCB",25-02-2024 23:00:00,12.9099161,80.1076538,SO2,1,7,2
India,TamilNadu,Chennai,"Kodungaiyur, Chennai - TNPCB",25-02-2024 23:00:00,13.1278,80.2642,PM10,38,76,54
India,TamilNadu,Chennai,"Kodungaiyur, Chennai - TNPCB",25-02-2024 23:00:00,13.1278,80.2642,SO2,1,10,5
India,TamilNadu,Chennai,"Kodungaiyur, Chennai - TNPCB",25-02-2024 23:00:00,13.1278,80.2642,OZONE,5,6,6
India,TamilNadu,Chennai,"Manali, Chennai - CPCB",25-02-2024 23:00:00,13.164544,80.26285,NO2,10,14,12
India,TamilNadu,Chennai,"Royapuram, Chennai - TNPCB",25-02-2024 23:00:00,13.1036,80.2909,PM2.5,26,60,37
India,TamilNadu,Cuddalore,"Kudikadu, Cuddalore - TNPCB",25-02-2024 23:00:00,11.6829898,79.7532099,PM2.5,27,100,53
India,TamilNadu,Cuddalore,"Semmandalam, Cuddalore - TNPCB",25-02-2024 23:00:00,11.7637683,79.7499835,PM2.5,23,122,48
India,TamilNadu,Palkalaiperur,"Bharathidasan University, Palkalaiperur - TNPCB",25-02-2024 23:00:00,10.681158,78.741746,PM2.5,23,41,32
India,TamilNadu,Palkalaiperur,"Bharathidasan University, Palkalaiperur - TNPCB",25-02-2024 23:00:00,10.681158,78.741746,CO,2,10,4
India,TamilNadu,Palkalaiperur,"Bharathidasan University, Palkalaiperur - TNPCB",25-02-2024 23:00:00,10.681158,78.741746,OZONE,1,2,1
India,TamilNadu,Tirupur,"Kumaran College, Tirupur - TNPCB",25-02-2024 23:00:00,11.0973603,77.3228673,NO2,5,32,11
India,TamilNadu,Tirupur,"Kumaran College, Tirupur - TNPCB",25-02-2024 23:00:00,11.0973603,77.3228673,SO2,17,18,18
India,TamilNadu,Vellore,"Vasanthapuram, Vellore - TNPCB",25-02-2024 23:00:00,12.909494,79.131861,PM2.5,NA,NA,NA
India,TamilNadu,Vellore,"Vasanthapuram, Vellore - TNPCB",25-02-2024 23:00:00,12.909494,79.131861,NO2,NA,NA,NA
India,Telangana,Hyderabad,"Bollaram Industrial Area, Hyderabad - TSPCB",25-02-2024 23:00:00,17.540891,78.358528,OZONE,35,38,37
India,Telangana,Hyderabad,"Central University, Hyderabad - TSPCB",25-02-2024 23:00:00,17.460103,78.334361,OZONE,NA,NA,NA
India,Telangana,Hyderabad,"ICRISAT Patancheru, Hyderabad - TSPCB",25-02-2024 23:00:00,17.518400,78.278777,NH3,2,2,2
India,Telangana,Hyderabad,"IITH Kandi, Hyderabad - TSPCB",25-02-2024 23:00:00,17.585705,78.126199,NO2,NA,NA,NA
India,Telangana,Hyderabad,"Kokapet, Hyderabad - TSPCB",25-02-2024 23:00:00,17.393559,78.339194,PM10,77,117,92
India,Telangana,Hyderabad,"Kokapet, Hyderabad - TSPCB",25-02-2024 23:00:00,17.393559,78.339194,OZONE,2,12,4
India,Telangana,Hyderabad,"Kompally Municipal Office, Hyderabad - TSPCB",25-02-2024 23:00:00,17.544899,78.486949,PM10,41,64,50
India,Telangana,Hyderabad,"Kompally Municipal Office, Hyderabad - TSPCB",25-02-2024 23:00:00,17.544899,78.486949,NO2,5,10,7
India,Telangana,Hyderabad,"Kompally Municipal Office, Hyderabad - TSPCB",25-02-2024 23:00:00,17.544899,78.486949,SO2,NA,NA,NA
India,Telangana,Hyderabad,"Kompally Municipal Office, Hyderabad - TSPCB",25-02-2024 23:00:00,17.544899,78.486949,OZONE,10,44,36
India,Telangana,Hyderabad,"Nacharam_TSIIC IALA, Hyderabad - TSPCB",25-02-2024 23:00:00,17.429398,78.569354,OZONE,NA,NA,NA
India,Telangana,Hyderabad,"New Malakpet, Hyderabad - TSPCB",25-02-2024 23:00:00,17.37206,78.50864,PM10,56,70,60
India,Telangana,Hyderabad,"Sanathnagar, Hyderabad - TSPCB",25-02-2024 23:00:00,17.4559458,78.4332152,NO2,26,289,102
India,Telangana,Hyderabad,"Somajiguda, Hyderabad - TSPCB",25-02-2024 23:00:00,17.417094,78.457437,PM2.5,36,67,49
India,Telangana,Hyderabad,"Somajiguda, Hyderabad - TSPCB",25-02-2024 23:00:00,17.417094,78.457437,CO,4,18,14
India,Telangana,Hyderabad,"Zoo Park, Hyderabad - TSPCB",25-02-2024 23:00:00,17.349694,78.451437,PM2.5,43,77,55
India,Telangana,Hyderabad,"Zoo Park, Hyderabad - TSPCB",25-02-2024 23:00:00,17.349694,78.451437,PM10,65,153,111
India,Telangana,Hyderabad,"Zoo Park, Hyderabad - TSPCB",25-02-2024 23:00:00,17.349694,78.451437,NO2,24,31,27
India,Telangana,Hyderabad,"Zoo Park, Hyderabad - TSPCB",25-02-2024 23:00:00,17.349694,78.451437,NH3,1,1,1
India,Telangana,Hyderabad,"Zoo Park, Hyderabad - TSPCB",25-02-2024 23:00:00,17.349694,78.451437,CO,28,52,47
India,Tripura,Agartala,"Bardowali, Agartala - Tripura SPCB",25-02-2024 23:00:00,23.8175497,91.2726974,PM10,76,178,110
India,Uttar_Pradesh,Agra,"Manoharpur, Agra - UPPCB",25-02-2024 23:00:00,27.23711,78.01936,NH3,1,1,1
India,Uttar_Pradesh,Agra,"Rohta, Agra - UPPCB",25-02-2024 23:00:00,27.106972,78.000111,SO2,1,14,5
India,Uttar_Pradesh,Agra,"Rohta, Agra - UPPCB",25-02-2024 23:00:00,27.106972,78.000111,OZONE,21,22,22
India,Uttar_Pradesh,Agra,"Sanjay Palace, Agra - UPPCB",25-02-2024 23:00:00,27.19865833,78.00598056,PM10,26,70,43
India,Uttar_Pradesh,Agra,"Shastripuram, Agra - UPPCB",25-02-2024 23:00:00,27.19862,77.92066,CO,4,18,13
India,Uttar_Pradesh,Firozabad,"Nagla Bhau, Firozabad - UPPCB",25-02-2024 23:00:00,27.168897,78.376960,PM10,15,62,37
India,Uttar_Pradesh,Firozabad,"Nagla Bhau, Firozabad - UPPCB",25-02-2024 23:00:00,27.168897,78.376960,CO,22,30,26
India,Uttar_Pradesh,Firozabad,"Nagla Bhau, Firozabad - UPPCB",25-02-2024 23:00:00,27.168897,78.376960,OZONE,16,20,17
India,Uttar_Pradesh,Ghaziabad,"Indirapuram, Ghaziabad - UPPCB",25-02-2024 23:00:00,28.646233,77.358075,SO2,12,19,16
India,Uttar_Pradesh,Ghaziabad,"Loni, Ghaziabad - UPPCB",25-02-2024 23:00:00,28.757294,77.278792,NO2,8,40,25
India,Uttar_Pradesh,Ghaziabad,"Loni, Ghaziabad - UPPCB",25-02-2024 23:00:00,28.757294,77.278792,NH3,1,4,2
India,Uttar_Pradesh,Ghaziabad,"Sanjay Nagar, Ghaziabad - UPPCB",25-02-2024 23:00:00,28.685382,77.453839,NO2,25,100,60
India,Uttar_Pradesh,Ghaziabad,"Sanjay Nagar, Ghaziabad - UPPCB",25-02-2024 23:00:00,28.685382,77.453839,NH3,6,13,10
India,Uttar_Pradesh,Ghaziabad,"Vasundhara, Ghaziabad - UPPCB",25-02-2024 23:00:00,28.6603346,77.3572563,PM2.5,13,244,106
India,Uttar_Pradesh,Ghaziabad,"Vasundhara, Ghaziabad - UPPCB",25-02-2024 23:00:00,28.6603346,77.3572563,NO2,14,102,57
India,Uttar_Pradesh,Gorakhpur,"Madan Mohan Malaviya University of Technology, Gorakhpur - UPPCB",25-02-2024 23:00:00,26.730136,83.433859,PM2.5,32,166,71
India,Uttar_Pradesh,Greater Noida,"Knowledge Park - III, Greater Noida - UPPCB",25-02-2024 23:00:00,28.47272,77.482000,NO2,1,16,8
India,Uttar_Pradesh,Greater Noida,"Knowledge Park - III, Greater Noida - UPPCB",25-02-2024 23:00:00,28.47272,77.482000,OZONE,6,110,58
India,Uttar_Pradesh,Greater Noida,"Knowledge Park - V, Greater Noida - UPPCB",25-02-2024 23:00:00,28.557054,77.453663,NO2,15,54,32
India,Uttar_Pradesh,Greater Noida,"Knowledge Park - V, Greater Noida - UPPCB",25-02-2024 23:00:00,28.557054,77.453663,NH3,2,6,4
India,Uttar_Pradesh,Greater Noida,"Knowledge Park - V, Greater Noida - UPPCB",25-02-2024 23:00:00,28.557054,77.453663,CO,3,104,52
India,Uttar_Pradesh,Hapur,"Anand Vihar, Hapur - UPPCB",25-02-2024 23:00:00,28.725645,77.749675,PM2.5,28,239,119
India,Uttar_Pradesh,Hapur,"Anand Vihar, Hapur - UPPCB",25-02-2024 23:00:00,28.725645,77.749675,SO2,11,48,28
India,Uttar_Pradesh,Kanpur,"NSI Kalyanpur, Kanpur - UPPCB",25-02-2024 23:00:00,26.509954,80.249612,NH3,1,2,1
India,Uttar_Pradesh,Kanpur,"NSI Kalyanpur, Kanpur - UPPCB",25-02-2024 23:00:00,26.509954,80.249612,SO2,21,22,22
India,Uttar_Pradesh,Kanpur,"NSI Kalyanpur, Kanpur - UPPCB",25-02-2024 23:00:00,26.509954,80.249612,OZONE,19,34,25
India,Uttar_Pradesh,Kanpur,"Nehru Nagar, Kanpur - UPPCB",25-02-2024 23:00:00,26.4703136,80.3229863,PM10,24,100,60
India,Uttar_Pradesh,Kanpur,"Nehru Nagar, Kanpur - UPPCB",25-02-2024 23:00:00,26.4703136,80.3229863,NO2,15,76,38
India,Uttar_Pradesh,Khurja,"Kalindi Kunj, Khurja - UPPCB",25-02-2024 23:00:00,28.2348927,77.8683002,NH3,1,2,1
India,Uttar_Pradesh,Lucknow,"B R Ambedkar University, Lucknow - UPPCB",25-02-2024 23:00:00,26.766433,80.927299,PM10,53,168,99
India,Uttar_Pradesh,Lucknow,"Kendriya Vidyalaya, Lucknow - CPCB",25-02-2024 23:00:00,26.906111,80.948222,PM2.5,43,221,120
India,Uttar_Pradesh,Lucknow,"Kendriya Vidyalaya, Lucknow - CPCB",25-02-2024 23:00:00,26.906111,80.948222,NO2,9,69,34
India,Uttar_Pradesh,Lucknow,"Kukrail Picnic Spot-1, Lucknow - UPPCB",25-02-2024 23:00:00,26.90723,80.98579,PM10,36,94,57
India,Uttar_Pradesh,Lucknow,"Kukrail Picnic Spot-1, Lucknow - UPPCB",25-02-2024 23:00:00,26.90723,80.98579,CO,15,28,18
India,Uttar_Pradesh,Lucknow,"Lalbagh, Lucknow - CPCB",25-02-2024 23:00:00,26.8458805,80.9365541,PM10,82,229,144
India,Uttar_Pradesh,Lucknow,"Lalbagh, Lucknow - CPCB",25-02-2024 23:00:00,26.8458805,80.9365541,NO2,14,114,52
India,Uttar_Pradesh,Lucknow,"Lalbagh, Lucknow - CPCB",25-02-2024 23:00:00,26.8458805,80.9365541,NH3,6,16,8
India,Uttar_Pradesh,Lucknow,"Lalbagh, Lucknow - CPCB",25-02-2024 23:00:00,26.8458805,80.9365541,CO,22,106,71
India,Uttar_Pradesh,Lucknow,"Lalbagh, Lucknow - CPCB",25-02-2024 23:00:00,26.8458805,80.9365541,OZONE,11,91,56
India,Uttar_Pradesh,Lucknow,"Talkatora District Industries Center, Lucknow - CPCB",25-02-2024 23:00:00,26.83399722,80.8917361,PM2.5,52,326,165
India,Uttar_Pradesh,Meerut,"Jai Bhim Nagar, Meerut - UPPCB",25-02-2024 23:00:00,28.9535882,77.7622941,PM2.5,19,305,102
India,Uttar_Pradesh,Meerut,"Jai Bhim Nagar, Meerut - UPPCB",25-02-2024 23:00:00,28.9535882,77.7622941,NO2,12,54,33
India,Uttar_Pradesh,Meerut,"Jai Bhim Nagar, Meerut - UPPCB",25-02-2024 23:00:00,28.9535882,77.7622941,SO2,11,29,17
India,Uttar_Pradesh,Meerut,"Pallavpuram Phase 2, Meerut - UPPCB",25-02-2024 23:00:00,29.063510,77.709723,PM2.5,23,148,82
India,Uttar_Pradesh,Meerut,"Pallavpuram Phase 2, Meerut - UPPCB",25-02-2024 23:00:00,29.063510,77.709723,CO,28,64,45
India,Uttar_Pradesh,Moradabad,"Buddhi Vihar, Moradabad - UPPCB",25-02-2024 23:00:00,28.83526,78.74460,OZONE,11,26,21
India,Uttar_Pradesh,Moradabad,"Eco Herbal Park, Moradabad - UPPCB",25-02-2024 23:00:00,28.840739,78.697531,PM2.5,17,245,97
India,Uttar_Pradesh,Moradabad,"Eco Herbal Park, Moradabad - UPPCB",25-02-2024 23:00:00,28.840739,78.697531,PM10,36,152,86
India,Uttar_Pradesh,Moradabad,"Eco Herbal Park, Moradabad - UPPCB",25-02-2024 23:00:00,28.840739,78.697531,CO,6,36,24
India,Uttar_Pradesh,Moradabad,"Eco Herbal Park, Moradabad - UPPCB",25-02-2024 23:00:00,28.840739,78.697531,OZONE,11,31,16
India,Uttar_Pradesh,Moradabad,"Employment Office, Moradabad - UPPCB",25-02-2024 23:00:00,28.88528,78.73880,PM10,44,233,99
India,Uttar_Pradesh,Moradabad,"Jigar Colony, Moradabad - UPPCB",25-02-2024 23:00:00,28.856664,78.772638,OZONE,16,28,24
India,Uttar_Pradesh,Moradabad,"Kashiram Nagar, Moradabad - UPPCB",25-02-2024 23:00:00,28.849399,78.742362,OZONE,14,33,21
India,Uttar_Pradesh,Moradabad,"Transport Nagar, Moradabad - UPPCB",25-02-2024 23:00:00,28.802625,78.753728,NO2,20,49,34
India,Uttar_Pradesh,Muzaffarnagar,"New Mandi, Muzaffarnagar - UPPCB",25-02-2024 23:00:00,29.4723508,77.7194031,SO2,16,93,34
India,Uttar_Pradesh,Noida,"Sector-1, Noida - UPPCB",25-02-2024 23:00:00,28.5898,77.3101,PM10,84,265,153
India,Uttar_Pradesh,Noida,"Sector-116, Noida - UPPCB",25-02-2024 23:00:00,28.569230,77.393848,NO2,14,81,42
India,Uttar_Pradesh,Noida,"Sector-116, Noida - UPPCB",25-02-2024 23:00:00,28.569230,77.393848,CO,8,65,49
India,Uttar_Pradesh,Prayagraj,"Motilal Nehru NIT, Prayagraj - UPPCB",25-02-2024 23:00:00,25.494,81.863,CO,10,58,27
India,Uttar_Pradesh,Prayagraj,"Nagar Nigam, Prayagraj - UPPCB",25-02-2024 23:00:00,25.44919916 ,81.82735986 ,NO2,5,5,5
India,Uttar_Pradesh,Prayagraj,"Nagar Nigam, Prayagraj - UPPCB",25-02-2024 23:00:00,25.44919916 ,81.82735986 ,OZONE,9,19,12
India,Uttar_Pradesh,Varanasi,"Bhelupur, Varanasi - UPPCB",25-02-2024 23:00:00,25.301778,82.996789,CO,12,126,65
India,Uttar_Pradesh,Varanasi,"Maldahiya, Varanasi - UPPCB",25-02-2024 23:00:00,25.32393,82.99687,PM10,17,85,40
India,Uttar_Pradesh,Varanasi,"Maldahiya, Varanasi - UPPCB",25-02-2024 23:00:00,25.32393,82.99687,NO2,1,5,2
India,Uttarakhand,Kashipur,"Govt. Girls Inter College, Kashipur - UKPCB",25-02-2024 23:00:00,29.2124114,78.9611753,NO2,4,21,10
India,Uttarakhand,Kashipur,"Govt. Girls Inter College, Kashipur - UKPCB",25-02-2024 23:00:00,29.2124114,78.9611753,NH3,3,5,4
India,Uttarakhand,Rishikesh,"Shivaji Nagar, Rishikesh - UKPCB",25-02-2024 23:00:00,30.075911,78.2859547,OZONE,23,83,56
India,West_Bengal,Asansol,"Asansol Court Area, Asansol - WBPCB",25-02-2024 23:00:00,23.685297,86.945968,SO2,10,21,13
India,West_Bengal,Barrackpore,"SVSPA Campus, Barrackpore - WBPCB",25-02-2024 23:00:00,22.7605581,88.3617589,PM2.5,52,179,98
India,West_Bengal,Barrackpore,"SVSPA Campus, Barrackpore - WBPCB",25-02-2024 23:00:00,22.7605581,88.3617589,CO,36,90,58
India,West_Bengal,Durgapur,"Sidhu Kanhu Indoor Stadium, Durgapur - WBPCB",25-02-2024 23:00:00,23.5404352,87.2892225,OZONE,5,38,15
India,West_Bengal,Haldia,"Priyambada Housing Estate, Haldia - WBPCB",25-02-2024 23:00:00,22.06047,88.109737,SO2,6,29,11
India,West_Bengal,Haldia,"Priyambada Housing Estate, Haldia - WBPCB",25-02-2024 23:00:00,22.06047,88.109737,OZONE,2,88,53
India,West_Bengal,Howrah,"Ghusuri, Howrah - WBPCB",25-02-2024 23:00:00,22.611968,88.347422,NH3,7,12,9
India,West_Bengal,Howrah,"Padmapukur, Howrah - WBPCB",25-02-2024 23:00:00,22.5687319,88.2797276,PM2.5,31,84,54
India,West_Bengal,Howrah,"Padmapukur, Howrah - WBPCB",25-02-2024 23:00:00,22.5687319,88.2797276,NH3,7,17,11
India,West_Bengal,Kolkata,"Bidhannagar, Kolkata - WBPCB",25-02-2024 23:00:00,22.58157048,88.41002457,PM10,71,132,100
India,West_Bengal,Kolkata,"Jadavpur, Kolkata - WBPCB",25-02-2024 23:00:00,22.49929,88.36917,PM10,62,127,91
India,West_Bengal,Kolkata,"Rabindra Bharati University, Kolkata - WBPCB",25-02-2024 23:00:00,22.627847,88.380669,OZONE,8,51,30
India,West_Bengal,Kolkata,"Rabindra Sarobar, Kolkata - WBPCB",25-02-2024 23:00:00,22.51106,88.35142,PM10,53,110,76
India,West_Bengal,Kolkata,"Rabindra Sarobar, Kolkata - WBPCB",25-02-2024 23:00:00,22.51106,88.35142,NO2,25,129,50
India,West_Bengal,Kolkata,"Victoria, Kolkata - WBPCB",25-02-2024 23:00:00,22.5448082,88.3403691,NO2,2,11,7
India,West_Bengal,Siliguri,"Ward-32 Bapupara, Siliguri - WBPCB",25-02-2024 23:00:00,26.6879226,88.4152495,NH3,4,15,12
India,West_Bengal,Siliguri,"Ward-32 Bapupara, Siliguri - WBPCB",25-02-2024 23:00:00,26.6879226,88.4152495,OZONE,9,86,50
India,Andhra_Pradesh,Amaravati,"Secretariat, Amaravati - APPCB",25-02-2024 23:00:00,16.5150833,80.5181667,PM2.5,30,58,38
India,Andhra_Pradesh,Amaravati,"Secretariat, Amaravati - APPCB",25-02-2024 23:00:00,16.5150833,80.5181667,CO,6,37,30
India,Andhra_Pradesh,Kadapa,"Yerramukkapalli, Kadapa - APPCB",25-02-2024 23:00:00,14.465052,78.824187,OZONE,19,77,71
India,Andhra_Pradesh,Rajamahendravaram,"Anand Kala Kshetram, Rajamahendravaram - APPCB",25-02-2024 23:00:00,16.9872867,81.7363176,PM2.5,37,72,49
India,Andhra_Pradesh,Tirupati,"Tirumala, Tirupati - APPCB",25-02-2024 23:00:00,13.67,79.35,PM10,42,90,59
India,Andhra_Pradesh,Tirupati,"Tirumala, Tirupati - APPCB",25-02-2024 23:00:00,13.67,79.35,NO2,22,40,28
India,Andhra_Pradesh,Tirupati,"Tirumala, Tirupati - APPCB",25-02-2024 23:00:00,13.67,79.35,CO,38,47,45
India,Andhra_Pradesh,Tirupati,"Vaikuntapuram, Tirupati - APPCB",25-02-2024 23:00:00,13.615387,79.409230,NO2,15,23,18
India,Andhra_Pradesh,Tirupati,"Vaikuntapuram, Tirupati - APPCB",25-02-2024 23:00:00,13.615387,79.409230,NH3,2,3,3
India,Andhra_Pradesh,Tirupati,"Vaikuntapuram, Tirupati - APPCB",25-02-2024 23:00:00,13.615387,79.409230,SO2,4,5,5
India,Andhra_Pradesh,Vijayawada,"HB Colony, Vijayawada - APPCB",25-02-2024 23:00:00,16.536107,80.594233,PM10,51,71,58
India,Andhra_Pradesh,Vijayawada,"HB Colony, Vijayawada - APPCB",25-02-2024 23:00:00,16.536107,80.594233,NH3,4,4,4
India,Andhra_Pradesh,Vijayawada,"Rajiv Gandhi Park, Vijayawada - APPCB",25-02-2024 23:00:00,16.509717,80.612222,SO2,4,7,6
India,Andhra_Pradesh,Vijayawada,"Rajiv Nagar, Vijayawada - APPCB",25-02-2024 23:00:00,16.554731,80.649110,PM2.5,39,430,120
India,Andhra_Pradesh,Vijayawada,"Rajiv Nagar, Vijayawada - APPCB",25-02-2024 23:00:00,16.554731,80.649110,NO2,4,15,10
India,Arunachal_Pradesh,Naharlagun,"Naharlagun, Naharlagun - APSPCB",25-02-2024 23:00:00,27.103358,93.679645,NO2,2,3,2
India,Assam,Byrnihat,"Central Academy for SFS, Byrnihat - PCBA",25-02-2024 23:00:00,26.071318,91.87488,NO2,35,71,47
India,Assam,Byrnihat,"Central Academy for SFS, Byrnihat - PCBA",25-02-2024 23:00:00,26.071318,91.87488,OZONE,13,16,14
India,Assam,Guwahati,"IITG, Guwahati - PCBA",25-02-2024 23:00:00,26.2028636,91.70046436,PM2.5,169,340,271
India,Assam,Guwahati,"IITG, Guwahati - PCBA",25-02-2024 23:00:00,26.2028636,91.70046436,OZONE,2,31,13
India,Assam,Guwahati,"LGBI Airport, Guwahati - PCBA",25-02-2024 23:00:00,26.10887,91.589544,PM2.5,92,395,225
India,Assam,Guwahati,"Railway Colony, Guwahati - PCBA",25-02-2024 23:00:00,26.181742,91.78063,SO2,7,13,9
India,Assam,Nagaon,"Christianpatty, Nagaon - PCBA",25-02-2024 23:00:00,26.349082,92.68449,NH3,1,10,3
India,Assam,Nagaon,"Christianpatty, Nagaon - PCBA",25-02-2024 23:00:00,26.349082,92.68449,CO,17,102,23
India,Assam,Nalbari,"Bata Chowk, Nalbari - PCBA",25-02-2024 23:00:00,26.446912,91.439057,PM2.5,153,334,263
India,Assam,Nalbari,"Bata Chowk, Nalbari - PCBA",25-02-2024 23:00:00,26.446912,91.439057,SO2,6,9,8
India,Assam,Nalbari,"Bata Chowk, Nalbari - PCBA",25-02-2024 23:00:00,26.446912,91.439057,CO,22,104,32
India,Assam,Silchar,"Tarapur, Silchar - PCBA",25-02-2024 23:00:00,24.82827,92.79525,NH3,1,1,1
India,Assam,Sivasagar,"Girls College, Sivasagar - PCBA",25-02-2024 23:00:00,26.987634,94.636574,NO2,17,27,21
India,Assam,Sivasagar,"Girls College, Sivasagar - PCBA",25-02-2024 23:00:00,26.987634,94.636574,SO2,5,5,5
India,Assam,Sivasagar,"Girls College, Sivasagar - PCBA",25-02-2024 23:00:00,26.987634,94.636574,CO,14,32,28
India,Bihar,Araria,"Kharahiya Basti, Araria - BSPCB",25-02-2024 23:00:00,26.146529,87.454184,PM10,91,410,196
India,Bihar,Araria,"Kharahiya Basti, Araria - BSPCB",25-02-2024 23:00:00,26.146529,87.454184,SO2,11,17,14
India,Bihar,Araria,"Kharahiya Basti, Araria - BSPCB",25-02-2024 23:00:00,26.146529,87.454184,OZONE,7,10,7
India,Bihar,Aurangabad,"Gurdeo Nagar, Aurangabad - BSPCB",25-02-2024 23:00:00,24.75746,84.366208,PM10,44,149,91
India,Bihar,Aurangabad,"Gurdeo Nagar, Aurangabad - BSPCB",25-02-2024 23:00:00,24.75746,84.366208,NO2,4,8,6
India,Bihar,Aurangabad,"Gurdeo Nagar, Aurangabad - BSPCB",25-02-2024 23:00:00,24.75746,84.366208,CO,16,72,41
India,Bihar,Bettiah,"Kamalnath Nagar, Bettiah - BSPCB",25-02-2024 23:00:00,26.80365,84.51954,NO2,28,44,36
India,Bihar,Bettiah,"Kamalnath Nagar, Bettiah - BSPCB",25-02-2024 23:00:00,26.80365,84.51954,OZONE,1,15,8
India,Bihar,Bhagalpur,"DM Office_Kachari Chowk, Bhagalpur - BSPCB",25-02-2024 23:00:00,25.251013,86.989001,PM10,73,215,120
India,Bihar,Bhagalpur,"Mayaganj, Bhagalpur - BSPCB",25-02-2024 23:00:00,25.265194,87.012947,PM2.5,93,322,195
India,Bihar,Bhagalpur,"Mayaganj, Bhagalpur - BSPCB",25-02-2024 23:00:00,25.265194,87.012947,CO,4,11,8
India,Bihar,Bihar Sharif,"D M Colony, Bihar Sharif - BSPCB",25-02-2024 23:00:00,25.204762,85.514960,NO2,9,11,10
India,Bihar,Bihar Sharif,"D M Colony, Bihar Sharif - BSPCB",25-02-2024 23:00:00,25.204762,85.514960,SO2,1,123,13
India,Bihar,Buxar,"Charitra Van, Buxar - BSPCB (Formerly known as Central Jail)",25-02-2024 23:00:00,25.567520,83.966379,PM10,87,431,184
India,Bihar,Chhapra,"Darshan Nagar, Chhapra - BSPCB",25-02-2024 23:00:00,25.7808257,84.7446768,SO2,15,63,38
India,Bihar,Gaya,"Collectorate, Gaya - BSPCB",25-02-2024 23:00:00,24.7955,84.9994,SO2,5,21,10
India,Bihar,Gaya,"Collectorate, Gaya - BSPCB",25-02-2024 23:00:00,24.7955,84.9994,CO,2,73,40
India,Bihar,Gaya,"SFTI Kusdihra, Gaya - BSPCB",25-02-2024 23:00:00,24.762518,84.982348,NH3,1,3,2
India,Bihar,Kishanganj,"SDM Office_Khagra, Kishanganj - BSPCB",25-02-2024 23:00:00,26.0881305,87.93840336,PM10,84,242,141
India,Bihar,Manguraha,"Forest Rest House, Manguraha - BSPCB",25-02-2024 23:00:00,27.308328,84.531742,PM10,38,216,81
India,Bihar,Manguraha,"Forest Rest House, Manguraha - BSPCB",25-02-2024 23:00:00,27.308328,84.531742,SO2,3,3,3
India,Bihar,Motihari,"Gandak Colony, Motihari - BSPCB",25-02-2024 23:00:00,26.63086,84.90051,PM10,33,132,82
India,Bihar,Motihari,"Gandak Colony, Motihari - BSPCB",25-02-2024 23:00:00,26.63086,84.90051,NO2,44,78,60
India,Bihar,Motihari,"Gandak Colony, Motihari - BSPCB",25-02-2024 23:00:00,26.63086,84.90051,NH3,7,13,10
India,Bihar,Motihari,"Gandak Colony, Motihari - BSPCB",25-02-2024 23:00:00,26.63086,84.90051,CO,14,129,29
India,Bihar,Muzaffarpur,"MIT-Daudpur Kothi, Muzaffarpur - BSPCB",25-02-2024 23:00:00,26.1403345,85.3650192,NH3,1,7,3
India,Bihar,Muzaffarpur,"MIT-Daudpur Kothi, Muzaffarpur - BSPCB",25-02-2024 23:00:00,26.1403345,85.3650192,OZONE,10,83,42
India,Bihar,Patna,"DRM Office Danapur, Patna - BSPCB",25-02-2024 23:00:00,25.586562,85.043586,NH3,3,4,3
India,Bihar,Patna,"DRM Office Danapur, Patna - BSPCB",25-02-2024 23:00:00,25.586562,85.043586,SO2,5,10,8
India,Bihar,Patna,"DRM Office Danapur, Patna - BSPCB",25-02-2024 23:00:00,25.586562,85.043586,OZONE,1,71,28
India,Bihar,Patna,"Govt. High School Shikarpur, Patna - BSPCB",25-02-2024 23:00:00,25.592539,85.227158,PM10,120,218,152
India,Bihar,Patna,"Govt. High School Shikarpur, Patna - BSPCB",25-02-2024 23:00:00,25.592539,85.227158,NH3,4,4,4
India,Bihar,Patna,"Govt. High School Shikarpur, Patna - BSPCB",25-02-2024 23:00:00,25.592539,85.227158,CO,24,86,48
India,Bihar,Patna,"IGSC Planetarium Complex, Patna - BSPCB",25-02-2024 23:00:00,25.610369,85.132568,CO,13,15,14
India,Bihar,Patna,"IGSC Planetarium Complex, Patna - BSPCB",25-02-2024 23:00:00,25.610369,85.132568,OZONE,5,24,20
India,Bihar,Patna,"Muradpur, Patna - BSPCB",25-02-2024 23:00:00,25.619651,85.147382,NO2,7,23,12
India,Bihar,Patna,"Muradpur, Patna - BSPCB",25-02-2024 23:00:00,25.619651,85.147382,NH3,2,5,3
India,Bihar,Patna,"Samanpura, Patna - BSPCB",25-02-2024 23:00:00,25.596727,85.085624,OZONE,5,53,33
India,Bihar,Purnia,"Mariam Nagar, Purnia - BSPCB",25-02-2024 23:00:00,25.366336,87.117468,CO,10,84,24
India,Bihar,Rajgir,"Dangi Tola, Rajgir - BSPCB",25-02-2024 23:00:00,25.03280,85.41948,PM2.5,23,223,88
India,Bihar,Saharsa,"Police Line, Saharsa - BSPCB",25-02-2024 23:00:00,25.892357,86.590325,PM2.5,43,326,166
India,Bihar,Saharsa,"Police Line, Saharsa - BSPCB",25-02-2024 23:00:00,25.892357,86.590325,CO,2,103,49
India,Bihar,Samastipur,"DM Office_Kasipur, Samastipur - BSPCB",25-02-2024 23:00:00,25.859655,85.77944,PM10,53,208,106
India,Bihar,Samastipur,"DM Office_Kasipur, Samastipur - BSPCB",25-02-2024 23:00:00,25.859655,85.77944,NH3,2,4,2
India,Bihar,Samastipur,"DM Office_Kasipur, Samastipur - BSPCB",25-02-2024 23:00:00,25.859655,85.77944,OZONE,10,53,29
India,Bihar,Sasaram,"Dada Peer, Sasaram - BSPCB",25-02-2024 23:00:00,24.952822,84.002396,SO2,22,23,23
India,Bihar,Siwan,"Chitragupta Nagar, Siwan - BSPCB",25-02-2024 23:00:00,26.2271665,84.3570427,PM2.5,48,392,247
India,Bihar,Siwan,"Chitragupta Nagar, Siwan - BSPCB",25-02-2024 23:00:00,26.2271665,84.3570427,PM10,81,336,161
India,Chandigarh,Chandigarh,"Sector 22, Chandigarh - CPCC",25-02-2024 23:00:00,30.735567,76.775714,PM2.5,40,117,70
India,Chandigarh,Chandigarh,"Sector 22, Chandigarh - CPCC",25-02-2024 23:00:00,30.735567,76.775714,NH3,3,5,4
India,Chandigarh,Chandigarh,"Sector-25, Chandigarh - CPCC",25-02-2024 23:00:00,30.751462,76.762879,NH3,15,43,22
India,Chandigarh,Chandigarh,"Sector-25, Chandigarh - CPCC",25-02-2024 23:00:00,30.751462,76.762879,SO2,5,37,11
India,Chandigarh,Chandigarh,"Sector-25, Chandigarh - CPCC",25-02-2024 23:00:00,30.751462,76.762879,CO,13,67,23
India,Chandigarh,Chandigarh,"Sector-53, Chandigarh - CPCC",25-02-2024 23:00:00,30.719859,76.738637,NO2,33,115,61
India,Chandigarh,Chandigarh,"Sector-53, Chandigarh - CPCC",25-02-2024 23:00:00,30.719859,76.738637,OZONE,4,78,56
India,Chhattisgarh,Bhilai,"32Bungalows, Bhilai - CECB",25-02-2024 23:00:00,21.194815,81.314770,CO,24,57,27
India,Chhattisgarh,Bhilai,"Hathkhoj, Bhilai - CECB",25-02-2024 23:00:00,21.224231,81.408350,PM10,40,137,76
India,Chhattisgarh,Bhilai,"Hathkhoj, Bhilai - CECB",25-02-2024 23:00:00,21.224231,81.408350,OZONE,14,23,20
India,Chhattisgarh,Bilaspur,"Mangala, Bilaspur - NTPC",25-02-2024 23:00:00,22.08815,82.13737,SO2,1,56,17
India,Chhattisgarh,Chhal,"Nawapara SECL Colony, Chhal - CECB",25-02-2024 23:00:00,22.118125,83.140608,CO,28,46,36
India,Chhattisgarh,Korba,"Urja Nagar, Korba - CECB",25-02-2024 23:00:00,22.348441,82.549611,PM2.5,14,32,23
India,Chhattisgarh,Korba,"Urja Nagar, Korba - CECB",25-02-2024 23:00:00,22.348441,82.549611,NO2,68,81,74
India,Chhattisgarh,Kunjemura,"OP Jindal School, Kunjemura - CECB",25-02-2024 23:00:00,22.126650,83.483212,NH3,2,2,2
India,Chhattisgarh,Kunjemura,"OP Jindal School, Kunjemura - CECB",25-02-2024 23:00:00,22.126650,83.483212,SO2,4,15,10
India,Chhattisgarh,Kunjemura,"OP Jindal School, Kunjemura - CECB",25-02-2024 23:00:00,22.126650,83.483212,OZONE,34,63,53
India,Chhattisgarh,Milupara,"Govt. Higher Secondary School, Milupara - CECB",25-02-2024 23:00:00,22.1910172,83.5197009,PM2.5,18,72,39
India,Chhattisgarh,Milupara,"Govt. Higher Secondary School, Milupara - CECB",25-02-2024 23:00:00,22.1910172,83.5197009,NO2,15,45,24
India,Chhattisgarh,Milupara,"Govt. Higher Secondary School, Milupara - CECB",25-02-2024 23:00:00,22.1910172,83.5197009,SO2,NA,NA,NA
India,Chhattisgarh,Milupara,"Govt. Higher Secondary School, Milupara - CECB",25-02-2024 23:00:00,22.1910172,83.5197009,CO,5,47,35
India,Chhattisgarh,Raipur,"AIIMS, Raipur - CECB",25-02-2024 23:00:00,21.258815,81.578979,OZONE,1,9,5
India,Chhattisgarh,Raipur,"Krishak Nagar, Raipur - CECB",25-02-2024 23:00:00,21.237755,81.705301,SO2,8,20,12
India,Chhattisgarh,Tumidih,"OP Jindal Industrial Park, Tumidih - CECB",25-02-2024 23:00:00,22.06631475,83.33820077,CO,22,46,34
India,Delhi,Delhi,"Anand Vihar, Delhi - DPCC",25-02-2024 23:00:00,28.647622,77.3158090,NH3,5,8,6
India,Delhi,Delhi,"Ashok Vihar, Delhi - DPCC",25-02-2024 23:00:00,28.695381,77.181665,PM10,78,294,166
India,Delhi,Delhi,"Aya Nagar, Delhi - IMD",25-02-2024 23:00:00,28.4706914,77.1099364,PM10,55,222,134
India,Delhi,Delhi,"Bawana, Delhi - DPCC",25-02-2024 23:00:00,28.776200,77.051074,NO2,14,70,36
India,Delhi,Delhi,"Bawana, Delhi - DPCC",25-02-2024 23:00:00,28.776200,77.051074,NH3,5,7,6
India,Delhi,Delhi,"CRRI Mathura Road, Delhi - IMD",25-02-2024 23:00:00,28.5512005,77.2735737,NO2,NA,NA,NA
India,Delhi,Delhi,"Chandni Chowk, Delhi - IITM",25-02-2024 23:00:00,28.656756,77.227234,CO,106,109,106
India,Delhi,Delhi,"DTU, Delhi - CPCB",25-02-2024 23:00:00,28.7500499,77.1112615,PM10,53,286,167
India,Delhi,Delhi,"Dr. Karni Singh Shooting Range, Delhi - DPCC",25-02-2024 23:00:00,28.498571,77.264840,SO2,4,24,11
India,Delhi,Delhi,"Dwarka-Sector 8, Delhi - DPCC ",25-02-2024 23:00:00,28.5710274,77.0719006,PM10,109,309,173
India,Delhi,Delhi,"IGI Airport (T3), Delhi - IMD",25-02-2024 23:00:00,28.5627763,77.1180053,PM2.5,24,258,111
India,Delhi,Delhi,"Jawaharlal Nehru Stadium, Delhi - DPCC",25-02-2024 23:00:00,28.580280,77.233829,PM2.5,28,301,153
India,Delhi,Delhi,"Major Dhyan Chand National Stadium, Delhi - DPCC",25-02-2024 23:00:00,28.611281,77.237738,PM10,70,242,137
India,Delhi,Delhi,"Mundka, Delhi - DPCC",25-02-2024 23:00:00,28.684678,77.076574,NO2,32,124,73
India,Delhi,Delhi,"Nehru Nagar, Delhi - DPCC",25-02-2024 23:00:00,28.567890,77.250515,NO2,20,43,25
India,Delhi,Delhi,"Nehru Nagar, Delhi - DPCC",25-02-2024 23:00:00,28.567890,77.250515,SO2,8,31,15
India,Delhi,Delhi,"New Moti Bagh, Delhi - MHUA",25-02-2024 23:00:00,28.57834,77.18400,CO,17,86,34
India,Delhi,Delhi,"North Campus, DU, Delhi - IMD",25-02-2024 23:00:00,28.6573814,77.1585447,PM10,101,203,149
India,Delhi,Delhi,"North Campus, DU, Delhi - IMD",25-02-2024 23:00:00,28.6573814,77.1585447,OZONE,1,34,17
India,Delhi,Delhi,"Patparganj, Delhi - DPCC",25-02-2024 23:00:00,28.623763,77.287209,NH3,7,13,10
India,Delhi,Delhi,"Punjabi Bagh, Delhi - DPCC",25-02-2024 23:00:00,28.674045,77.131023,OZONE,6,33,19
India,Delhi,Delhi,"Pusa, Delhi - DPCC",25-02-2024 23:00:00,28.639652,77.146275,NO2,32,126,74
India,Delhi,Delhi,"Pusa, Delhi - DPCC",25-02-2024 23:00:00,28.639652,77.146275,NH3,4,9,7
India,Delhi,Delhi,"R K Puram, Delhi - DPCC",25-02-2024 23:00:00,28.563262,77.186937,OZONE,9,149,63
India,Delhi,Delhi,"Shadipur, Delhi - CPCB",25-02-2024 23:00:00,28.6514781,77.1473105,PM10,116,448,236
India,Delhi,Delhi,"Shadipur, Delhi - CPCB",25-02-2024 23:00:00,28.6514781,77.1473105,NO2,43,58,52
India,Delhi,Delhi,"Sirifort, Delhi - CPCB",25-02-2024 23:00:00,28.5504249,77.2159377,OZONE,15,68,40
India,Delhi,Delhi,"Sonia Vihar, Delhi - DPCC",25-02-2024 23:00:00,28.710508,77.249485,PM10,82,286,167
India,Delhi,Delhi,"Sri Aurobindo Marg, Delhi - DPCC",25-02-2024 23:00:00,28.531346,77.190156,PM2.5,45,287,154
India,Delhi,Delhi,"Sri Aurobindo Marg, Delhi - DPCC",25-02-2024 23:00:00,28.531346,77.190156,NO2,24,99,52
India,Delhi,Delhi,"Vivek Vihar, Delhi - DPCC",25-02-2024 23:00:00,28.672342,77.315260,SO2,24,32,26
India,Delhi,Delhi,"Vivek Vihar, Delhi - DPCC",25-02-2024 23:00:00,28.672342,77.315260,OZONE,5,59,29
India,Delhi,Delhi,"Wazirpur, Delhi - DPCC",25-02-2024 23:00:00,28.699793,77.165453,PM10,75,292,174
India,Delhi,Delhi,"Wazirpur, Delhi - DPCC",25-02-2024 23:00:00,28.699793,77.165453,OZONE,14,120,52
India,Gujarat,Ahmedabad,"Chandkheda, Ahmedabad - IITM",25-02-2024 23:00:00,23.107969,72.574648,PM10,74,168,112
India,Gujarat,Ahmedabad,"Chandkheda, Ahmedabad - IITM",25-02-2024 23:00:00,23.107969,72.574648,SO2,5,45,10
India,Gujarat,Ahmedabad,"Chandkheda, Ahmedabad - IITM",25-02-2024 23:00:00,23.107969,72.574648,CO,78,106,93
India,Gujarat,Ahmedabad,"Gyaspur, Ahmedabad - IITM",25-02-2024 23:00:00,22.977134,72.553024,PM10,30,30,30
India,Gujarat,Ahmedabad,"Gyaspur, Ahmedabad - IITM",25-02-2024 23:00:00,22.977134,72.553024,CO,32,32,32
India,Gujarat,Ahmedabad,"Maninagar, Ahmedabad - GPCB",25-02-2024 23:00:00,23.002657,72.591912,NO2,10,12,11
India,Gujarat,Ahmedabad,"Maninagar, Ahmedabad - GPCB",25-02-2024 23:00:00,23.002657,72.591912,CO,20,37,29
India,Gujarat,Ahmedabad,"Maninagar, Ahmedabad - GPCB",25-02-2024 23:00:00,23.002657,72.591912,OZONE,6,37,23
India,Gujarat,Ahmedabad,"Raikhad, Ahmedabad - IITM",25-02-2024 23:00:00,23.020509,72.579261,PM10,74,151,106
India,Gujarat,Ahmedabad,"Raikhad, Ahmedabad - IITM",25-02-2024 23:00:00,23.020509,72.579261,NH3,1,2,2
India,Gujarat,Ahmedabad,"SAC ISRO Bopal, Ahmedabad - IITM",25-02-2024 23:00:00,23.041137,72.456691,PM2.5,NA,NA,NA
India,Gujarat,Ahmedabad,"SAC ISRO Bopal, Ahmedabad - IITM",25-02-2024 23:00:00,23.041137,72.456691,NO2,12,13,12
India,Gujarat,Ahmedabad,"SVPI Airport Hansol, Ahmedabad - IITM",25-02-2024 23:00:00,23.076793,72.627874,PM2.5,NA,NA,NA
India,Gujarat,Ahmedabad,"Sardar Vallabhbhai Patel Stadium, Ahmedabad - IITM",25-02-2024 23:00:00,23.043070,72.562968,PM10,63,117,90
India,Gujarat,Ahmedabad,"Sardar Vallabhbhai Patel Stadium, Ahmedabad - IITM",25-02-2024 23:00:00,23.043070,72.562968,NH3,1,2,1
India,Gujarat,Ahmedabad,"Sardar Vallabhbhai Patel Stadium, Ahmedabad - IITM",25-02-2024 23:00:00,23.043070,72.562968,SO2,3,9,6
India,Gujarat,Ahmedabad,"Sardar Vallabhbhai Patel Stadium, Ahmedabad - IITM",25-02-2024 23:00:00,23.043070,72.562968,CO,4,36,16
India,Gujarat,Ankleshwar,"GIDC, Ankleshwar - GPCB",25-02-2024 23:00:00,21.613267,73.010555,PM10,62,120,87
India,Gujarat,Ankleshwar,"GIDC, Ankleshwar - GPCB",25-02-2024 23:00:00,21.613267,73.010555,NH3,7,7,7
India,Gujarat,Ankleshwar,"GIDC, Ankleshwar - GPCB",25-02-2024 23:00:00,21.613267,73.010555,CO,70,102,86
India,Gujarat,Gandhinagar,"Sector-10, Gandhinagar - GPCB",25-02-2024 23:00:00,23.221714,72.654328,NO2,4,15,7
India,Gujarat,Gandhinagar,"Sector-10, Gandhinagar - GPCB",25-02-2024 23:00:00,23.221714,72.654328,CO,39,106,65
India,Gujarat,Vapi,"Phase-1 GIDC, Vapi - GPCB",25-02-2024 23:00:00,20.362421,72.918013,PM10,67,409,159
India,Gujarat,Vapi,"Phase-1 GIDC, Vapi - GPCB",25-02-2024 23:00:00,20.362421,72.918013,OZONE,41,74,45
India,Gujarat,Vatva,"Phase-4 GIDC, Vatva - GPCB",25-02-2024 23:00:00,22.969611,72.643500,SO2,17,17,17
India,Gujarat,Vatva,"Phase-4 GIDC, Vatva - GPCB",25-02-2024 23:00:00,22.969611,72.643500,CO,48,50,49
India,Haryana,Bahadurgarh,"Arya Nagar, Bahadurgarh - HSPCB",25-02-2024 23:00:00,28.6701,76.9254,NO2,33,39,37
India,Haryana,Bahadurgarh,"Arya Nagar, Bahadurgarh - HSPCB",25-02-2024 23:00:00,28.6701,76.9254,SO2,10,13,12
India,Haryana,Bahadurgarh,"Arya Nagar, Bahadurgarh - HSPCB",25-02-2024 23:00:00,28.6701,76.9254,OZONE,41,50,46
India,Haryana,Ballabgarh,"Nathu Colony, Ballabgarh - HSPCB",25-02-2024 23:00:00,28.3419248,77.319699,OZONE,3,23,14
India,Haryana,Bhiwani,"H.B. Colony, Bhiwani - HSPCB",25-02-2024 23:00:00,28.806223,76.141105,PM2.5,45,121,67
India,Haryana,Bhiwani,"H.B. Colony, Bhiwani - HSPCB",25-02-2024 23:00:00,28.806223,76.141105,SO2,5,15,11
India,Haryana,Dharuhera,"Municipal Corporation Office, Dharuhera -  HSPCB",25-02-2024 23:00:00,28.206800,76.799700,OZONE,10,73,35
India,Haryana,Faridabad,"New Industrial Town, Faridabad - HSPCB",25-02-2024 23:00:00,28.39072,77.30059,PM10,4,141,30
India,Haryana,Faridabad,"New Industrial Town, Faridabad - HSPCB",25-02-2024 23:00:00,28.39072,77.30059,NH3,4,14,6
India,Haryana,Faridabad,"New Industrial Town, Faridabad - HSPCB",25-02-2024 23:00:00,28.39072,77.30059,OZONE,27,155,90
India,Haryana,Faridabad,"Sector 11, Faridabad - HSPCB",25-02-2024 23:00:00,28.376058,77.315741,PM10,45,337,157
India,Haryana,Faridabad,"Sector 11, Faridabad - HSPCB",25-02-2024 23:00:00,28.376058,77.315741,NO2,30,33,31
India,Haryana,Faridabad,"Sector 30, Faridabad - HSPCB",25-02-2024 23:00:00,28.4417,77.3217,PM2.5,NA,NA,NA
India,Haryana,Faridabad,"Sector 30, Faridabad - HSPCB",25-02-2024 23:00:00,28.4417,77.3217,NO2,NA,NA,NA
India,Haryana,Faridabad,"Sector 30, Faridabad - HSPCB",25-02-2024 23:00:00,28.4417,77.3217,NH3,NA,NA,NA
India,Haryana,Faridabad,"Sector- 16A, Faridabad - HSPCB",25-02-2024 23:00:00,28.4088421,77.3099081,NO2,NA,NA,NA
India,Haryana,Faridabad,"Sector- 16A, Faridabad - HSPCB",25-02-2024 23:00:00,28.4088421,77.3099081,CO,NA,NA,NA
India,Haryana,Gurugram,"Sector-51, Gurugram - HSPCB",25-02-2024 23:00:00,28.4227,77.0667,OZONE,27,67,56
India,Haryana,Gurugram,"Teri Gram, Gurugram - HSPCB",25-02-2024 23:00:00,28.4275,77.1465,SO2,3,5,4
India,Haryana,Gurugram,"Vikas Sadan, Gurugram - HSPCB",25-02-2024 23:00:00,28.4501238,77.0263051,SO2,20,29,25
India,Haryana,Kaithal,"Rishi Nagar, Kaithal - HSPCB",25-02-2024 23:00:00,29.8006,76.4155,PM10,NA,NA,NA
India,Haryana,Kaithal,"Rishi Nagar, Kaithal - HSPCB",25-02-2024 23:00:00,29.8006,76.4155,NH3,NA,NA,NA
India,Haryana,Kurukshetra,"Sector-7, Kurukshetra - HSPCB",25-02-2024 23:00:00,29.966942,76.875879,CO,4,27,15
India,Haryana,Mandikhera,"General Hospital, Mandikhera - HSPCB",25-02-2024 23:00:00,27.9002,76.9938,PM2.5,26,75,51
India,Haryana,Manesar,"Sector-2 IMT, Manesar - HSPCB",25-02-2024 23:00:00,28.360699,76.936090,NO2,11,28,20
India,Haryana,Manesar,"Sector-2 IMT, Manesar - HSPCB",25-02-2024 23:00:00,28.360699,76.936090,OZONE,5,70,43
India,Haryana,Palwal,"Shyam Nagar, Palwal - HSPCB",25-02-2024 23:00:00,28.1485564,77.3320667,PM2.5,66,105,86
India,Haryana,Palwal,"Shyam Nagar, Palwal - HSPCB",25-02-2024 23:00:00,28.1485564,77.3320667,NO2,23,24,24
India,Haryana,Panipat,"Sector-18, Panipat - HSPCB",25-02-2024 23:00:00,29.497973,76.993331,NO2,31,32,31
India,Haryana,Sirsa,"F-Block, Sirsa - HSPCB",25-02-2024 23:00:00,29.536400,75.015800,NO2,10,10,10
India,Haryana,Sirsa,"F-Block, Sirsa - HSPCB",25-02-2024 23:00:00,29.536400,75.015800,OZONE,41,96,78
India,Haryana,Sonipat,"Murthal, Sonipat - HSPCB",25-02-2024 23:00:00,29.027200,77.062100,NO2,37,44,41
India,Haryana,Yamuna Nagar,"Gobind Pura, Yamuna Nagar - HSPCB",25-02-2024 23:00:00,30.1480566,77.2893471,OZONE,20,37,28
India,Himachal Pradesh,Baddi,"HIMUDA Complex Phase-1, Baddi - HPPCB",25-02-2024 23:00:00,30.943887,76.801991,NO2,8,36,16
India,Himachal Pradesh,Baddi,"HIMUDA Complex Phase-1, Baddi - HPPCB",25-02-2024 23:00:00,30.943887,76.801991,NH3,2,4,3
India,Jharkhand,Dhanbad,"Kalakusuma, Dhanbad - DMC",25-02-2024 23:00:00,23.811548,86.481238,PM2.5,1,35,8
India,Jharkhand,Dhanbad,"Kalakusuma, Dhanbad - DMC",25-02-2024 23:00:00,23.811548,86.481238,NO2,13,14,14
India,Jharkhand,Dhanbad,"Sardar Patel Nagar, Dhanbad - JSPCB",25-02-2024 23:00:00,23.80569,86.44268,OZONE,NA,NA,NA
India,Jharkhand,Pathardih,"Mohalbani Ghat, Pathardih - DMC",25-02-2024 23:00:00,23.669880,86.411725,NO2,NA,NA,NA
India,Jharkhand,Pathardih,"Mohalbani Ghat, Pathardih - DMC",25-02-2024 23:00:00,23.669880,86.411725,CO,NA,NA,NA
India,Karnataka,Bagalkot,"Vidayagiri, Bagalkot - KSPCB",25-02-2024 23:00:00,16.172806,75.659694,NO2,9,10,9
India,Karnataka,Belgaum,"Ramteerth Nagar, Belgaum - KSPCB",25-02-2024 23:00:00,15.888653,74.541751,SO2,8,10,9
India,Karnataka,Bengaluru,"Bapuji Nagar, Bengaluru - KSPCB",25-02-2024 23:00:00,12.951913,77.539784,PM2.5,37,500,214
India,Karnataka,Bengaluru,"Bapuji Nagar, Bengaluru - KSPCB",25-02-2024 23:00:00,12.951913,77.539784,OZONE,10,26,14
India,Karnataka,Bengaluru,"Hombegowda Nagar, Bengaluru - KSPCB",25-02-2024 23:00:00,12.938539,77.590100,PM10,52,93,73
India,Karnataka,Bengaluru,"Hombegowda Nagar, Bengaluru - KSPCB",25-02-2024 23:00:00,12.938539,77.590100,OZONE,4,5,4
India,Karnataka,Bengaluru,"Jayanagar 5th Block, Bengaluru - KSPCB",25-02-2024 23:00:00,12.920984,77.584908,NO2,10,11,11
India,Karnataka,Bengaluru,"Jayanagar 5th Block, Bengaluru - KSPCB",25-02-2024 23:00:00,12.920984,77.584908,SO2,14,28,19
India,Karnataka,Bengaluru,"Jayanagar 5th Block, Bengaluru - KSPCB",25-02-2024 23:00:00,12.920984,77.584908,OZONE,26,28,28
India,Karnataka,Bengaluru,"Kasturi Nagar, Bengaluru - KSPCB",25-02-2024 23:00:00,13.003872,77.664217,NH3,3,4,4
India,Karnataka,Bengaluru,"Peenya, Bengaluru - CPCB",25-02-2024 23:00:00,13.0270199,77.494094,NO2,18,28,23
India,Karnataka,Bengaluru,"Sanegurava Halli, Bengaluru - KSPCB",25-02-2024 23:00:00,12.990328,77.5431385,NO2,19,23,21
India,Karnataka,Bengaluru,"Sanegurava Halli, Bengaluru - KSPCB",25-02-2024 23:00:00,12.990328,77.5431385,SO2,2,3,3
India,Karnataka,Bengaluru,"Shivapura_Peenya, Bengaluru - KSPCB",25-02-2024 23:00:00,13.0246342,77.5080115,PM10,53,104,76
India,Karnataka,Bengaluru,"Shivapura_Peenya, Bengaluru - KSPCB",25-02-2024 23:00:00,13.0246342,77.5080115,NO2,15,16,15
India,Karnataka,Bengaluru,"Shivapura_Peenya, Bengaluru - KSPCB",25-02-2024 23:00:00,13.0246342,77.5080115,NH3,4,4,4
India,Karnataka,Chikkaballapur,"Chikkaballapur Rural, Chikkaballapur - KSPCB",25-02-2024 23:00:00,13.428828,77.731418,PM10,45,116,70
India,Karnataka,Chikkaballapur,"Chikkaballapur Rural, Chikkaballapur - KSPCB",25-02-2024 23:00:00,13.428828,77.731418,NO2,2,9,4
India,Karnataka,Chikkaballapur,"Chikkaballapur Rural, Chikkaballapur - KSPCB",25-02-2024 23:00:00,13.428828,77.731418,SO2,13,29,17
India,Karnataka,Chikkamagaluru,"Kalyana Nagara, Chikkamagaluru - KSPCB",25-02-2024 23:00:00,13.328028,75.797056,NH3,2,5,3
