country,state,city,station,last_update,latitude,longitude,pollutant_id,pollutant_min,pollutant_max,pollutant_avg
India,Andhra_Pradesh,Amaravati,"Secretariat, Amaravati - APPCB",13-01-2024 20:00:00,16.5150833,80.5181667,PM2.5,61,268,173
India,Andhra_Pradesh,Amaravati,"Secretariat, Amaravati - APPCB",13-01-2024 20:00:00,16.5150833,80.5181667,CO,6,49,32
India,Andhra_Pradesh,Amaravati,"Secretariat, Amaravati - APPCB",13-01-2024 20:00:00,16.5150833,80.5181667,OZONE,4,74,59
India,Andhra_Pradesh,Anantapur,"Gulzarpet, Anantapur - APPCB",13-01-2024 20:00:00,14.675886,77.593027,PM2.5,48,77,64
India,Andhra_Pradesh,Anantapur,"Gulzarpet, Anantapur - APPCB",13-01-2024 20:00:00,14.675886,77.593027,PM10,53,124,91
India,Andhra_Pradesh,Anantapur,"Gulzarpet, Anantapur - APPCB",13-01-2024 20:00:00,14.675886,77.593027,NH3,2,3,3
India,Andhra_Pradesh,Chittoor,"Gangineni Cheruvu, Chittoor - APPCB",13-01-2024 20:00:00,13.204880,79.097889,NH3,1,4,2
India,Andhra_Pradesh,Chittoor,"Gangineni Cheruvu, Chittoor - APPCB",13-01-2024 20:00:00,13.204880,79.097889,CO,1,30,6
India,Andhra_Pradesh,Kadapa,"Yerramukkapalli, Kadapa - APPCB",13-01-2024 20:00:00,14.465052,78.824187,NH3,NA,NA,NA
India,Andhra_Pradesh,Kadapa,"Yerramukkapalli, Kadapa - APPCB",13-01-2024 20:00:00,14.465052,78.824187,CO,23,40,28
India,Andhra_Pradesh,Tirupati,"Vaikuntapuram, Tirupati - APPCB",13-01-2024 20:00:00,13.615387,79.409230,PM10,13,70,30
India,Andhra_Pradesh,Tirupati,"Vaikuntapuram, Tirupati - APPCB",13-01-2024 20:00:00,13.615387,79.409230,OZONE,1,41,36
India,Andhra_Pradesh,Vijayawada,"HB Colony, Vijayawada - APPCB",13-01-2024 20:00:00,16.536107,80.594233,NO2,10,27,16
India,Andhra_Pradesh,Vijayawada,"Kanuru, Vijayawada - APPCB",13-01-2024 20:00:00,16.486692,80.699436,NO2,15,22,17
India,Andhra_Pradesh,Vijayawada,"Kanuru, Vijayawada - APPCB",13-01-2024 20:00:00,16.486692,80.699436,CO,36,36,36
India,Andhra_Pradesh,Vijayawada,"Kanuru, Vijayawada - APPCB",13-01-2024 20:00:00,16.486692,80.699436,OZONE,32,32,32
India,Assam,Byrnihat,"Central Academy for SFS, Byrnihat - PCBA",13-01-2024 20:00:00,26.071318,91.87488,NO2,42,107,71
India,Assam,Byrnihat,"Central Academy for SFS, Byrnihat - PCBA",13-01-2024 20:00:00,26.071318,91.87488,OZONE,6,8,6
India,Assam,Guwahati,"LGBI Airport, Guwahati - PCBA",13-01-2024 20:00:00,26.10887,91.589544,PM2.5,203,400,304
India,Assam,Guwahati,"LGBI Airport, Guwahati - PCBA",13-01-2024 20:00:00,26.10887,91.589544,NO2,16,44,27
India,Assam,Guwahati,"Pan Bazaar, Guwahati - PCBA",13-01-2024 20:00:00,26.187500,91.744194,NO2,NA,NA,NA
India,Assam,Guwahati,"Pan Bazaar, Guwahati - PCBA",13-01-2024 20:00:00,26.187500,91.744194,OZONE,17,17,17
India,Assam,Nagaon,"Christianpatty, Nagaon - PCBA",13-01-2024 20:00:00,26.349082,92.68449,NH3,3,7,4
India,Assam,Silchar,"Tarapur, Silchar - PCBA",13-01-2024 20:00:00,24.82827,92.79525,NO2,28,40,33
India,Assam,Silchar,"Tarapur, Silchar - PCBA",13-01-2024 20:00:00,24.82827,92.79525,CO,22,36,31
India,Assam,Sivasagar,"Girls College, Sivasagar - PCBA",13-01-2024 20:00:00,26.987634,94.636574,PM2.5,19,55,32
India,Assam,Sivasagar,"Girls College, Sivasagar - PCBA",13-01-2024 20:00:00,26.987634,94.636574,NH3,2,2,2
India,Bihar,Araria,"Kharahiya Basti, Araria - BSPCB",13-01-2024 20:00:00,26.146529,87.454184,PM2.5,311,428,344
India,Bihar,Araria,"Kharahiya Basti, Araria - BSPCB",13-01-2024 20:00:00,26.146529,87.454184,OZONE,11,52,34
India,Bihar,Arrah,"New DM Office, Arrah - BSPCB",13-01-2024 20:00:00,25.5626095,84.663264,PM10,128,282,197
India,Bihar,Arrah,"New DM Office, Arrah - BSPCB",13-01-2024 20:00:00,25.5626095,84.663264,NH3,5,8,6
India,Bihar,Aurangabad,"Gurdeo Nagar, Aurangabad - BSPCB",13-01-2024 20:00:00,24.75746,84.366208,CO,2,77,24
India,Bihar,Bettiah,"Kamalnath Nagar, Bettiah - BSPCB",13-01-2024 20:00:00,26.80365,84.51954,PM2.5,NA,NA,NA
India,Bihar,Bhagalpur,"DM Office_Kachari Chowk, Bhagalpur - BSPCB",13-01-2024 20:00:00,25.251013,86.989001,SO2,20,30,24
India,Bihar,Bhagalpur,"DM Office_Kachari Chowk, Bhagalpur - BSPCB",13-01-2024 20:00:00,25.251013,86.989001,CO,40,62,51
India,Bihar,Bhagalpur,"Mayaganj, Bhagalpur - BSPCB",13-01-2024 20:00:00,25.265194,87.012947,NH3,9,10,9
India,Bihar,Bhagalpur,"Mayaganj, Bhagalpur - BSPCB",13-01-2024 20:00:00,25.265194,87.012947,OZONE,20,60,49
India,Bihar,Bihar Sharif,"D M Colony, Bihar Sharif - BSPCB",13-01-2024 20:00:00,25.204762,85.514960,NH3,2,2,2
India,Bihar,Bihar Sharif,"D M Colony, Bihar Sharif - BSPCB",13-01-2024 20:00:00,25.204762,85.514960,CO,4,52,23
India,Bihar,Gaya,"Kareemganj, Gaya - BSPCB",13-01-2024 20:00:00,24.792403,84.992416,SO2,7,12,9
India,Bihar,Gaya,"SFTI Kusdihra, Gaya - BSPCB",13-01-2024 20:00:00,24.762518,84.982348,NH3,3,5,4
India,Bihar,Hajipur,"Industrial Area, Hajipur - BSPCB",13-01-2024 20:00:00,25.697189,85.245900,NO2,14,81,29
India,Bihar,Hajipur,"Industrial Area, Hajipur - BSPCB",13-01-2024 20:00:00,25.697189,85.245900,CO,42,102,69
India,Bihar,Kishanganj,"SDM Office_Khagra, Kishanganj - BSPCB",13-01-2024 20:00:00,26.0881305,87.93840336,NO2,28,36,30
India,Bihar,Manguraha,"Forest Rest House, Manguraha - BSPCB",13-01-2024 20:00:00,27.308328,84.531742,PM2.5,103,273,174
India,Bihar,Motihari,"Gandak Colony, Motihari - BSPCB",13-01-2024 20:00:00,26.63086,84.90051,NO2,56,100,76
India,Bihar,Motihari,"Gandak Colony, Motihari - BSPCB",13-01-2024 20:00:00,26.63086,84.90051,CO,26,81,62
India,Bihar,Munger,"Town Hall, Munger - BSPCB",13-01-2024 20:00:00,25.376776,86.471523,PM2.5,85,320,218
India,Bihar,Munger,"Town Hall, Munger - BSPCB",13-01-2024 20:00:00,25.376776,86.471523,NO2,8,10,9
India,Bihar,Muzaffarpur,"Buddha Colony, Muzaffarpur - BSPCB",13-01-2024 20:00:00,26.11442,85.39813,SO2,7,16,9
India,Bihar,Muzaffarpur,"MIT-Daudpur Kothi, Muzaffarpur - BSPCB",13-01-2024 20:00:00,26.1403345,85.3650192,PM2.5,120,410,243
India,Bihar,Muzaffarpur,"MIT-Daudpur Kothi, Muzaffarpur - BSPCB",13-01-2024 20:00:00,26.1403345,85.3650192,PM10,98,306,153
India,Bihar,Muzaffarpur,"Muzaffarpur Collectorate, Muzaffarpur - BSPCB",13-01-2024 20:00:00,26.1209,85.3647,NO2,8,13,11
India,Bihar,Muzaffarpur,"Muzaffarpur Collectorate, Muzaffarpur - BSPCB",13-01-2024 20:00:00,26.1209,85.3647,SO2,5,14,8
India,Bihar,Patna,"DRM Office Danapur, Patna - BSPCB",13-01-2024 20:00:00,25.586562,85.043586,NO2,22,54,32
India,Bihar,Patna,"DRM Office Danapur, Patna - BSPCB",13-01-2024 20:00:00,25.586562,85.043586,CO,73,116,87
India,Bihar,Patna,"Samanpura, Patna - BSPCB",13-01-2024 20:00:00,25.596727,85.085624,NH3,2,3,3
India,Bihar,Patna,"Samanpura, Patna - BSPCB",13-01-2024 20:00:00,25.596727,85.085624,SO2,3,5,4
India,Bihar,Purnia,"Mariam Nagar, Purnia - BSPCB",13-01-2024 20:00:00,25.366336,87.117468,NH3,2,2,2
India,Bihar,Rajgir,"Dangi Tola, Rajgir - BSPCB",13-01-2024 20:00:00,25.03280,85.41948,PM2.5,237,410,327
India,Bihar,Rajgir,"Dangi Tola, Rajgir - BSPCB",13-01-2024 20:00:00,25.03280,85.41948,PM10,143,264,189
India,Bihar,Saharsa,"Police Line, Saharsa - BSPCB",13-01-2024 20:00:00,25.892357,86.590325,PM2.5,344,437,373
India,Bihar,Saharsa,"Police Line, Saharsa - BSPCB",13-01-2024 20:00:00,25.892357,86.590325,SO2,18,18,18
India,Bihar,Siwan,"Chitragupta Nagar, Siwan - BSPCB",13-01-2024 20:00:00,26.2271665,84.3570427,SO2,8,35,29
India,Chandigarh,Chandigarh,"Sector 22, Chandigarh - CPCC",13-01-2024 20:00:00,30.735567,76.775714,NO2,NA,NA,NA
India,Chandigarh,Chandigarh,"Sector-25, Chandigarh - CPCC",13-01-2024 20:00:00,30.751462,76.762879,PM2.5,263,359,326
India,Chandigarh,Chandigarh,"Sector-25, Chandigarh - CPCC",13-01-2024 20:00:00,30.751462,76.762879,NH3,11,20,13
India,Chandigarh,Chandigarh,"Sector-25, Chandigarh - CPCC",13-01-2024 20:00:00,30.751462,76.762879,SO2,8,22,12
India,Chandigarh,Chandigarh,"Sector-25, Chandigarh - CPCC",13-01-2024 20:00:00,30.751462,76.762879,CO,58,99,71
India,Chandigarh,Chandigarh,"Sector-25, Chandigarh - CPCC",13-01-2024 20:00:00,30.751462,76.762879,OZONE,1,28,15
India,Chhattisgarh,Bhilai,"32Bungalows, Bhilai - CECB",13-01-2024 20:00:00,21.194815,81.314770,PM2.5,46,75,61
India,Chhattisgarh,Bhilai,"32Bungalows, Bhilai - CECB",13-01-2024 20:00:00,21.194815,81.314770,SO2,9,17,11
India,Chhattisgarh,Bhilai,"32Bungalows, Bhilai - CECB",13-01-2024 20:00:00,21.194815,81.314770,CO,33,76,48
India,Chhattisgarh,Bhilai,"Hathkhoj, Bhilai - CECB",13-01-2024 20:00:00,21.224231,81.408350,PM2.5,43,285,114
India,Chhattisgarh,Bhilai,"Hathkhoj, Bhilai - CECB",13-01-2024 20:00:00,21.224231,81.408350,NH3,7,8,8
India,Chhattisgarh,Bilaspur,"Mangala, Bilaspur - NTPC",13-01-2024 20:00:00,22.08815,82.13737,CO,26,46,40
India,Chhattisgarh,Korba,"Rampur, Korba - CECB",13-01-2024 20:00:00,22.368195,82.746431,CO,16,30,20
India,Chhattisgarh,Korba,"Urja Nagar, Korba - CECB",13-01-2024 20:00:00,22.348441,82.549611,PM2.5,9,27,18
India,Chhattisgarh,Korba,"Urja Nagar, Korba - CECB",13-01-2024 20:00:00,22.348441,82.549611,SO2,4,7,5
India,Chhattisgarh,Korba,"Urja Nagar, Korba - CECB",13-01-2024 20:00:00,22.348441,82.549611,OZONE,47,48,48
India,Chhattisgarh,Raipur,"Krishak Nagar, Raipur - CECB",13-01-2024 20:00:00,21.237755,81.705301,NO2,25,43,33
India,Chhattisgarh,Raipur,"Krishak Nagar, Raipur - CECB",13-01-2024 20:00:00,21.237755,81.705301,NH3,1,1,1
India,Chhattisgarh,Raipur,"Siltara Phase-II, Raipur - CECB",13-01-2024 20:00:00,21.371751,81.664929,NO2,9,22,14
India,Chhattisgarh,Tumidih,"OP Jindal Industrial Park, Tumidih - CECB",13-01-2024 20:00:00,22.06631475,83.33820077,SO2,5,9,6
India,Delhi,Delhi,"Anand Vihar, Delhi - DPCC",13-01-2024 20:00:00,28.647622,77.3158090,PM10,364,500,442
India,Delhi,Delhi,"Bawana, Delhi - DPCC",13-01-2024 20:00:00,28.776200,77.051074,PM10,170,500,383
India,Delhi,Delhi,"Bawana, Delhi - DPCC",13-01-2024 20:00:00,28.776200,77.051074,CO,88,113,104
India,Delhi,Delhi,"Bawana, Delhi - DPCC",13-01-2024 20:00:00,28.776200,77.051074,OZONE,3,86,46
India,Delhi,Delhi,"CRRI Mathura Road, Delhi - IMD",13-01-2024 20:00:00,28.5512005,77.2735737,PM10,171,456,307
India,Delhi,Delhi,"CRRI Mathura Road, Delhi - IMD",13-01-2024 20:00:00,28.5512005,77.2735737,NO2,21,27,25
India,Delhi,Delhi,"CRRI Mathura Road, Delhi - IMD",13-01-2024 20:00:00,28.5512005,77.2735737,CO,8,50,28
India,Delhi,Delhi,"Dr. Karni Singh Shooting Range, Delhi - DPCC",13-01-2024 20:00:00,28.498571,77.264840,SO2,3,10,7
India,Delhi,Delhi,"Dr. Karni Singh Shooting Range, Delhi - DPCC",13-01-2024 20:00:00,28.498571,77.264840,CO,96,151,116
India,Delhi,Delhi,"IHBAS, Dilshad Garden, Delhi - CPCB",13-01-2024 20:00:00,28.6811736,77.3025234,PM10,152,425,265
India,Delhi,Delhi,"IHBAS, Dilshad Garden, Delhi - CPCB",13-01-2024 20:00:00,28.6811736,77.3025234,NH3,1,5,3
India,Delhi,Delhi,"IHBAS, Dilshad Garden, Delhi - CPCB",13-01-2024 20:00:00,28.6811736,77.3025234,CO,14,110,71
India,Delhi,Delhi,"ITO, Delhi - CPCB",13-01-2024 20:00:00,28.628624,77.241060,PM2.5,315,500,406
India,Delhi,Delhi,"Jawaharlal Nehru Stadium, Delhi - DPCC",13-01-2024 20:00:00,28.580280,77.233829,PM10,212,500,369
India,Delhi,Delhi,"Jawaharlal Nehru Stadium, Delhi - DPCC",13-01-2024 20:00:00,28.580280,77.233829,NO2,54,194,117
India,Delhi,Delhi,"Jawaharlal Nehru Stadium, Delhi - DPCC",13-01-2024 20:00:00,28.580280,77.233829,NH3,10,16,12
India,Delhi,Delhi,"Lodhi Road, Delhi - IITM",13-01-2024 20:00:00,28.588333,77.221667,CO,68,69,68
India,Delhi,Delhi,"Major Dhyan Chand National Stadium, Delhi - DPCC",13-01-2024 20:00:00,28.611281,77.237738,PM2.5,367,500,439
India,Delhi,Delhi,"Major Dhyan Chand National Stadium, Delhi - DPCC",13-01-2024 20:00:00,28.611281,77.237738,OZONE,3,53,28
India,Delhi,Delhi,"Mandir Marg, Delhi - DPCC",13-01-2024 20:00:00,28.636429,77.201067,SO2,3,16,10
India,Delhi,Delhi,"Mandir Marg, Delhi - DPCC",13-01-2024 20:00:00,28.636429,77.201067,OZONE,5,19,13
India,Delhi,Delhi,"Mundka, Delhi - DPCC",13-01-2024 20:00:00,28.684678,77.076574,NO2,33,136,77
India,Delhi,Delhi,"Mundka, Delhi - DPCC",13-01-2024 20:00:00,28.684678,77.076574,CO,84,122,100
India,Delhi,Delhi,"NSIT Dwarka, Delhi - CPCB",13-01-2024 20:00:00,28.60909,77.0325413,PM2.5,409,500,450
India,Delhi,Delhi,"NSIT Dwarka, Delhi - CPCB",13-01-2024 20:00:00,28.60909,77.0325413,CO,24,61,30
India,Delhi,Delhi,"Najafgarh, Delhi - DPCC",13-01-2024 20:00:00,28.570173,76.933762,NO2,17,78,39
India,Delhi,Delhi,"Najafgarh, Delhi - DPCC",13-01-2024 20:00:00,28.570173,76.933762,SO2,4,11,7
India,Delhi,Delhi,"Najafgarh, Delhi - DPCC",13-01-2024 20:00:00,28.570173,76.933762,CO,39,108,67
India,Delhi,Delhi,"Okhla Phase-2, Delhi - DPCC",13-01-2024 20:00:00,28.530785,77.271255,PM2.5,400,500,459
India,Delhi,Delhi,"Patparganj, Delhi - DPCC",13-01-2024 20:00:00,28.623763,77.287209,CO,46,146,106
India,Delhi,Delhi,"Punjabi Bagh, Delhi - DPCC",13-01-2024 20:00:00,28.674045,77.131023,NO2,76,134,102
India,Delhi,Delhi,"Punjabi Bagh, Delhi - DPCC",13-01-2024 20:00:00,28.674045,77.131023,OZONE,8,11,9
India,Delhi,Delhi,"Pusa, Delhi - DPCC",13-01-2024 20:00:00,28.639652,77.146275,PM10,341,500,441
India,Delhi,Delhi,"Pusa, Delhi - DPCC",13-01-2024 20:00:00,28.639652,77.146275,NO2,85,415,226
India,Delhi,Delhi,"Pusa, Delhi - IMD",13-01-2024 20:00:00,28.636110,77.173332,NO2,37,85,54
India,Delhi,Delhi,"Pusa, Delhi - IMD",13-01-2024 20:00:00,28.636110,77.173332,CO,109,125,119
India,Delhi,Delhi,"Pusa, Delhi - IMD",13-01-2024 20:00:00,28.636110,77.173332,OZONE,12,20,17
India,Delhi,Delhi,"Rohini, Delhi - DPCC",13-01-2024 20:00:00,28.732528,77.119920,NO2,29,109,68
India,Delhi,Delhi,"Rohini, Delhi - DPCC",13-01-2024 20:00:00,28.732528,77.119920,NH3,9,14,12
India,Delhi,Delhi,"Rohini, Delhi - DPCC",13-01-2024 20:00:00,28.732528,77.119920,SO2,8,17,12
India,Delhi,Delhi,"Rohini, Delhi - DPCC",13-01-2024 20:00:00,28.732528,77.119920,CO,77,116,106
India,Delhi,Delhi,"Shadipur, Delhi - CPCB",13-01-2024 20:00:00,28.6514781,77.1473105,PM10,385,500,448
India,Delhi,Delhi,"Shadipur, Delhi - CPCB",13-01-2024 20:00:00,28.6514781,77.1473105,OZONE,15,39,25
India,Delhi,Delhi,"Sirifort, Delhi - CPCB",13-01-2024 20:00:00,28.5504249,77.2159377,NH3,7,11,9
India,Delhi,Delhi,"Sonia Vihar, Delhi - DPCC",13-01-2024 20:00:00,28.710508,77.249485,PM2.5,351,500,428
India,Delhi,Delhi,"Sonia Vihar, Delhi - DPCC",13-01-2024 20:00:00,28.710508,77.249485,NO2,38,108,68
India,Delhi,Delhi,"Sonia Vihar, Delhi - DPCC",13-01-2024 20:00:00,28.710508,77.249485,NH3,8,12,10
India,Delhi,Delhi,"Sonia Vihar, Delhi - DPCC",13-01-2024 20:00:00,28.710508,77.249485,CO,81,115,103
India,Delhi,Delhi,"Sri Aurobindo Marg, Delhi - DPCC",13-01-2024 20:00:00,28.531346,77.190156,OZONE,4,26,17
India,Delhi,Delhi,"Vivek Vihar, Delhi - DPCC",13-01-2024 20:00:00,28.672342,77.315260,PM2.5,360,500,440
India,Delhi,Delhi,"Vivek Vihar, Delhi - DPCC",13-01-2024 20:00:00,28.672342,77.315260,SO2,7,8,8
India,Delhi,Delhi,"Vivek Vihar, Delhi - DPCC",13-01-2024 20:00:00,28.672342,77.315260,CO,82,148,112
India,Delhi,Delhi,"Vivek Vihar, Delhi - DPCC",13-01-2024 20:00:00,28.672342,77.315260,OZONE,1,34,11
India,Delhi,Delhi,"Wazirpur, Delhi - DPCC",13-01-2024 20:00:00,28.699793,77.165453,PM10,243,500,425
India,Delhi,Delhi,"Wazirpur, Delhi - DPCC",13-01-2024 20:00:00,28.699793,77.165453,OZONE,3,64,33
India,Gujarat,Ahmedabad,"Chandkheda, Ahmedabad - IITM",13-01-2024 20:00:00,23.107969,72.574648,PM2.5,54,245,109
India,Gujarat,Ahmedabad,"Chandkheda, Ahmedabad - IITM",13-01-2024 20:00:00,23.107969,72.574648,NH3,4,5,4
India,Gujarat,Ahmedabad,"Chandkheda, Ahmedabad - IITM",13-01-2024 20:00:00,23.107969,72.574648,CO,9,37,9
India,Gujarat,Ahmedabad,"Gyaspur, Ahmedabad - IITM",13-01-2024 20:00:00,22.977134,72.553024,NH3,3,3,3
India,Gujarat,Ahmedabad,"Gyaspur, Ahmedabad - IITM",13-01-2024 20:00:00,22.977134,72.553024,CO,12,28,16
India,Gujarat,Ahmedabad,"Raikhad, Ahmedabad - IITM",13-01-2024 20:00:00,23.020509,72.579261,NH3,4,4,4
India,Gujarat,Ahmedabad,"Raikhad, Ahmedabad - IITM",13-01-2024 20:00:00,23.020509,72.579261,SO2,11,12,12
India,Gujarat,Ahmedabad,"Rakhial, Ahmedabad - IITM",13-01-2024 20:00:00,23.016834,72.625775,CO,20,98,31
India,Gujarat,Ahmedabad,"SAC ISRO Bopal, Ahmedabad - IITM",13-01-2024 20:00:00,23.041137,72.456691,CO,37,39,38
India,Gujarat,Ahmedabad,"SAC ISRO Satellite, Ahmedabad - IITM",13-01-2024 20:00:00,23.023389,72.515201,NO2,16,16,16
India,Gujarat,Ahmedabad,"SAC ISRO Satellite, Ahmedabad - IITM",13-01-2024 20:00:00,23.023389,72.515201,SO2,4,5,5
India,Gujarat,Ahmedabad,"SAC ISRO Satellite, Ahmedabad - IITM",13-01-2024 20:00:00,23.023389,72.515201,CO,32,33,32
India,Gujarat,Ahmedabad,"SAC ISRO Satellite, Ahmedabad - IITM",13-01-2024 20:00:00,23.023389,72.515201,OZONE,2,20,15
India,Gujarat,Ahmedabad,"SVPI Airport Hansol, Ahmedabad - IITM",13-01-2024 20:00:00,23.076793,72.627874,CO,37,90,46
India,Gujarat,Ankleshwar,"GIDC, Ankleshwar - GPCB",13-01-2024 20:00:00,21.613267,73.010555,NO2,33,34,34
India,Gujarat,Gandhinagar,"GIFT City, Gandhinagar - IITM",13-01-2024 20:00:00,23.163798,72.677768,PM10,45,93,63
India,Gujarat,Gandhinagar,"GIFT City, Gandhinagar - IITM",13-01-2024 20:00:00,23.163798,72.677768,SO2,5,7,6
India,Gujarat,Gandhinagar,"IIPHG Lekawada, Gandhinagar - IITM",13-01-2024 20:00:00,23.243639,72.68994,NH3,3,3,3
India,Gujarat,Gandhinagar,"Sector-10, Gandhinagar - GPCB",13-01-2024 20:00:00,23.221714,72.654328,OZONE,15,15,15
India,Gujarat,Surat,"Science Center, Surat - SMC",13-01-2024 20:00:00,21.170046,72.795405,CO,44,66,55
India,Gujarat,Vapi,"Phase-1 GIDC, Vapi - GPCB",13-01-2024 20:00:00,20.362421,72.918013,OZONE,1,9,6
India,Haryana,Ambala,"Patti Mehar, Ambala - HSPCB",13-01-2024 20:00:00,30.379589,76.778328,PM10,NA,NA,NA
India,Haryana,Ambala,"Patti Mehar, Ambala - HSPCB",13-01-2024 20:00:00,30.379589,76.778328,NH3,NA,NA,NA
India,Haryana,Ambala,"Patti Mehar, Ambala - HSPCB",13-01-2024 20:00:00,30.379589,76.778328,SO2,NA,NA,NA
India,Haryana,Ambala,"Patti Mehar, Ambala - HSPCB",13-01-2024 20:00:00,30.379589,76.778328,CO,37,50,41
India,Haryana,Bahadurgarh,"Arya Nagar, Bahadurgarh - HSPCB",13-01-2024 20:00:00,28.6701,76.9254,PM10,148,416,234
India,Haryana,Bahadurgarh,"Arya Nagar, Bahadurgarh - HSPCB",13-01-2024 20:00:00,28.6701,76.9254,NH3,11,13,12
India,Haryana,Ballabgarh,"Nathu Colony, Ballabgarh - HSPCB",13-01-2024 20:00:00,28.3419248,77.319699,PM2.5,253,383,326
India,Haryana,Ballabgarh,"Nathu Colony, Ballabgarh - HSPCB",13-01-2024 20:00:00,28.3419248,77.319699,SO2,1,13,7
India,Haryana,Bhiwani,"H.B. Colony, Bhiwani - HSPCB",13-01-2024 20:00:00,28.806223,76.141105,PM10,95,178,131
India,Haryana,Charkhi Dadri,"Mini Secretariat, Charkhi Dadri - HSPCB",13-01-2024 20:00:00,28.593883,76.270653,PM2.5,91,331,210
India,Haryana,Charkhi Dadri,"Mini Secretariat, Charkhi Dadri - HSPCB",13-01-2024 20:00:00,28.593883,76.270653,OZONE,13,18,16
India,Haryana,Dharuhera,"Municipal Corporation Office, Dharuhera -  HSPCB",13-01-2024 20:00:00,28.206800,76.799700,CO,30,108,64
India,Haryana,Faridabad,"Sector- 16A, Faridabad - HSPCB",13-01-2024 20:00:00,28.4088421,77.3099081,SO2,11,26,21
India,Haryana,Fatehabad,"Huda Sector, Fatehabad - HSPCB",13-01-2024 20:00:00,29.503664,75.467934,PM2.5,63,269,134
India,Haryana,Fatehabad,"Huda Sector, Fatehabad - HSPCB",13-01-2024 20:00:00,29.503664,75.467934,NH3,10,11,10
India,Haryana,Gurugram,"Sector-51, Gurugram - HSPCB",13-01-2024 20:00:00,28.4227,77.0667,PM2.5,382,500,435
India,Haryana,Gurugram,"Sector-51, Gurugram - HSPCB",13-01-2024 20:00:00,28.4227,77.0667,PM10,239,500,329
India,Haryana,Gurugram,"Teri Gram, Gurugram - HSPCB",13-01-2024 20:00:00,28.4275,77.1465,CO,42,102,76
India,Haryana,Gurugram,"Teri Gram, Gurugram - HSPCB",13-01-2024 20:00:00,28.4275,77.1465,OZONE,10,24,24
India,Haryana,Gurugram,"Vikas Sadan, Gurugram - HSPCB",13-01-2024 20:00:00,28.4501238,77.0263051,NO2,5,24,14
India,Haryana,Jind,"Police Lines, Jind - HSPCB",13-01-2024 20:00:00,29.307814,76.337619,PM10,102,143,119
India,Haryana,Jind,"Police Lines, Jind - HSPCB",13-01-2024 20:00:00,29.307814,76.337619,NH3,2,6,4
India,Haryana,Kaithal,"Rishi Nagar, Kaithal - HSPCB",13-01-2024 20:00:00,29.8006,76.4155,SO2,1,99,17
India,Haryana,Karnal,"Sector-12, Karnal - HSPCB",13-01-2024 20:00:00,29.695300,77.002700,SO2,31,62,48
India,Haryana,Kurukshetra,"Sector-7, Kurukshetra - HSPCB",13-01-2024 20:00:00,29.966942,76.875879,NH3,3,5,5
India,Haryana,Kurukshetra,"Sector-7, Kurukshetra - HSPCB",13-01-2024 20:00:00,29.966942,76.875879,CO,36,101,62
India,Haryana,Mandikhera,"General Hospital, Mandikhera - HSPCB",13-01-2024 20:00:00,27.9002,76.9938,NH3,17,21,19
India,Haryana,Manesar,"Sector-2 IMT, Manesar - HSPCB",13-01-2024 20:00:00,28.360699,76.936090,PM2.5,234,352,317
India,Haryana,Manesar,"Sector-2 IMT, Manesar - HSPCB",13-01-2024 20:00:00,28.360699,76.936090,NH3,2,14,8
India,Haryana,Palwal,"Shyam Nagar, Palwal - HSPCB",13-01-2024 20:00:00,28.1485564,77.3320667,PM2.5,41,101,73
India,Haryana,Palwal,"Shyam Nagar, Palwal - HSPCB",13-01-2024 20:00:00,28.1485564,77.3320667,CO,17,24,23
India,Haryana,Panipat,"Sector-18, Panipat - HSPCB",13-01-2024 20:00:00,29.497973,76.993331,PM10,129,138,135
India,Haryana,Panipat,"Sector-18, Panipat - HSPCB",13-01-2024 20:00:00,29.497973,76.993331,NH3,2,3,2
India,Haryana,Panipat,"Sector-18, Panipat - HSPCB",13-01-2024 20:00:00,29.497973,76.993331,SO2,12,13,13
India,Haryana,Sirsa,"F-Block, Sirsa - HSPCB",13-01-2024 20:00:00,29.536400,75.015800,PM10,38,112,67
India,Haryana,Sirsa,"F-Block, Sirsa - HSPCB",13-01-2024 20:00:00,29.536400,75.015800,OZONE,17,59,39
India,Haryana,Yamuna Nagar,"Gobind Pura, Yamuna Nagar - HSPCB",13-01-2024 20:00:00,30.1480566,77.2893471,OZONE,6,29,12
India,Himachal Pradesh,Baddi,"HIMUDA Complex Phase-1, Baddi - HPPCB",13-01-2024 20:00:00,30.943887,76.801991,OZONE,9,77,49
India,Jharkhand,Dhanbad,"Kalakusuma, Dhanbad - DMC",13-01-2024 20:00:00,23.811548,86.481238,NO2,32,34,33
India,Jharkhand,Dhanbad,"Sardar Patel Nagar, Dhanbad - JSPCB",13-01-2024 20:00:00,23.80569,86.44268,SO2,6,35,21
India,Karnataka,Bagalkot,"Vidayagiri, Bagalkot - KSPCB",13-01-2024 20:00:00,16.172806,75.659694,NO2,10,11,10
India,Karnataka,Bagalkot,"Vidayagiri, Bagalkot - KSPCB",13-01-2024 20:00:00,16.172806,75.659694,NH3,1,2,1
India,Karnataka,Bagalkot,"Vidayagiri, Bagalkot - KSPCB",13-01-2024 20:00:00,16.172806,75.659694,CO,28,56,44
India,Karnataka,Bagalkot,"Vidayagiri, Bagalkot - KSPCB",13-01-2024 20:00:00,16.172806,75.659694,OZONE,27,41,35
India,Karnataka,Belgaum,"Ramteerth Nagar, Belgaum - KSPCB",13-01-2024 20:00:00,15.888653,74.541751,NO2,26,36,30
India,Karnataka,Belgaum,"Ramteerth Nagar, Belgaum - KSPCB",13-01-2024 20:00:00,15.888653,74.541751,CO,34,58,47
India,Karnataka,Bengaluru,"Bapuji Nagar, Bengaluru - KSPCB",13-01-2024 20:00:00,12.951913,77.539784,CO,31,68,45
India,Karnataka,Bengaluru,"Bapuji Nagar, Bengaluru - KSPCB",13-01-2024 20:00:00,12.951913,77.539784,OZONE,11,12,11
India,Karnataka,Bengaluru,"City Railway Station, Bengaluru - KSPCB",13-01-2024 20:00:00,12.9756843,77.5660749,SO2,12,13,13
India,Karnataka,Bengaluru,"Hebbal, Bengaluru - KSPCB",13-01-2024 20:00:00,13.029152,77.585901,PM2.5,NA,NA,NA
India,Karnataka,Bengaluru,"Hombegowda Nagar, Bengaluru - KSPCB",13-01-2024 20:00:00,12.938539,77.590100,NH3,2,2,2
India,Karnataka,Bengaluru,"Jigani, Bengaluru - KSPCB",13-01-2024 20:00:00,12.7816279,77.6299145,PM2.5,13,273,97
India,Karnataka,Bengaluru,"Jigani, Bengaluru - KSPCB",13-01-2024 20:00:00,12.7816279,77.6299145,PM10,39,178,100
India,Karnataka,Bengaluru,"Jigani, Bengaluru - KSPCB",13-01-2024 20:00:00,12.7816279,77.6299145,NH3,3,3,3
India,Karnataka,Bengaluru,"Kasturi Nagar, Bengaluru - KSPCB",13-01-2024 20:00:00,13.003872,77.664217,NH3,3,4,4
India,Karnataka,Bengaluru,"Kasturi Nagar, Bengaluru - KSPCB",13-01-2024 20:00:00,13.003872,77.664217,CO,24,26,25
India,Karnataka,Bengaluru,"Kasturi Nagar, Bengaluru - KSPCB",13-01-2024 20:00:00,13.003872,77.664217,OZONE,40,91,73
India,Karnataka,Bengaluru,"Peenya, Bengaluru - CPCB",13-01-2024 20:00:00,13.0270199,77.494094,SO2,10,21,16
India,Karnataka,Bengaluru,"Peenya, Bengaluru - CPCB",13-01-2024 20:00:00,13.0270199,77.494094,CO,34,52,39
India,Karnataka,Bengaluru,"Peenya, Bengaluru - CPCB",13-01-2024 20:00:00,13.0270199,77.494094,OZONE,36,38,37
India,Karnataka,Bengaluru,"RVCE-Mailasandra, Bengaluru - KSPCB",13-01-2024 20:00:00,12.921418,77.502466,PM2.5,57,100,78
India,Karnataka,Bengaluru,"RVCE-Mailasandra, Bengaluru - KSPCB",13-01-2024 20:00:00,12.921418,77.502466,PM10,52,195,139
India,Karnataka,Bengaluru,"RVCE-Mailasandra, Bengaluru - KSPCB",13-01-2024 20:00:00,12.921418,77.502466,NO2,31,31,31
India,Karnataka,Bengaluru,"Shivapura_Peenya, Bengaluru - KSPCB",13-01-2024 20:00:00,13.0246342,77.5080115,NO2,15,16,16
India,Karnataka,Bengaluru,"Shivapura_Peenya, Bengaluru - KSPCB",13-01-2024 20:00:00,13.0246342,77.5080115,OZONE,26,116,86
India,Karnataka,Bengaluru,"Silk Board, Bengaluru - KSPCB",13-01-2024 20:00:00,12.917348,77.622813,CO,12,26,16
India,Karnataka,Bidar,"Naubad, Bidar - KSPCB",13-01-2024 20:00:00,17.930306,77.482194,PM2.5,109,274,182
India,Karnataka,Chikkaballapur,"Chikkaballapur Rural, Chikkaballapur - KSPCB",13-01-2024 20:00:00,13.428828,77.731418,PM2.5,63,153,106
India,Karnataka,Chikkamagaluru,"Kalyana Nagara, Chikkamagaluru - KSPCB",13-01-2024 20:00:00,13.328028,75.797056,SO2,1,3,1
India,Karnataka,Chikkamagaluru,"Kalyana Nagara, Chikkamagaluru - KSPCB",13-01-2024 20:00:00,13.328028,75.797056,CO,11,102,31
India,Karnataka,Davanagere,"Devaraj Urs Badavane, Davanagere - KSPCB",13-01-2024 20:00:00,14.475800,75.905200,PM2.5,47,151,90
India,Karnataka,Davanagere,"Devaraj Urs Badavane, Davanagere - KSPCB",13-01-2024 20:00:00,14.475800,75.905200,NO2,7,13,11
India,Karnataka,Dharwad,"Kalabhavan, Dharwad - KSPCB",13-01-2024 20:00:00,15.459706,75.008381,PM10,62,155,103
India,Karnataka,Gadag,"Panchal Nagar, Gadag - KSPCB",13-01-2024 20:00:00,15.411456,75.638133,NO2,2,27,13
India,Karnataka,Gadag,"Panchal Nagar, Gadag - KSPCB",13-01-2024 20:00:00,15.411456,75.638133,NH3,2,3,2
India,Karnataka,Hubballi,"Lingaraj Nagar, Hubballi - KSPCB",13-01-2024 20:00:00,15.3714823,75.1160168,NO2,16,16,16
India,Karnataka,Hubballi,"Lingaraj Nagar, Hubballi - KSPCB",13-01-2024 20:00:00,15.3714823,75.1160168,CO,38,102,61
India,Karnataka,Kalaburagi,"Lal Bahadur Shastri Nagar, Kalaburagi - KSPCB",13-01-2024 20:00:00,17.321993,76.822628,NH3,2,2,2
India,Karnataka,Kalaburagi,"Mahatma Basaveswar Colony, Kalaburgi - KSPCB",13-01-2024 20:00:00,17.336318,76.847397,PM10,24,56,45
India,Karnataka,Karwar,"KHB Colony, Karwar - KSPCB",13-01-2024 20:00:00,14.816666,74.141003,PM2.5,58,310,108
India,Karnataka,Karwar,"KHB Colony, Karwar - KSPCB",13-01-2024 20:00:00,14.816666,74.141003,SO2,18,18,18
India,Karnataka,Kolar,"Tamaka Ind. Area, Kolar - KSPCB",13-01-2024 20:00:00,13.1276288,78.1570122,NO2,3,24,9
India,Karnataka,Kolar,"Tamaka Ind. Area, Kolar - KSPCB",13-01-2024 20:00:00,13.1276288,78.1570122,OZONE,15,22,20
India,Karnataka,Madikeri,"Stuart Hill, Madikeri - KSPCB",13-01-2024 20:00:00,12.415911,75.735050,PM2.5,33,78,55
India,Karnataka,Madikeri,"Stuart Hill, Madikeri - KSPCB",13-01-2024 20:00:00,12.415911,75.735050,PM10,32,62,49
India,Karnataka,Mysuru,"Hebbal 1st Stage, Mysuru - KSPCB",13-01-2024 20:00:00,12.21041,76.37376,PM2.5,31,66,48
India,Karnataka,Mysuru,"Hebbal 1st Stage, Mysuru - KSPCB",13-01-2024 20:00:00,12.21041,76.37376,SO2,2,4,2
India,Karnataka,Mysuru,"Hebbal 1st Stage, Mysuru - KSPCB",13-01-2024 20:00:00,12.21041,76.37376,OZONE,6,66,47
India,Karnataka,Ramanagara,"Vijay Nagar, Ramanagara - KSPCB",13-01-2024 20:00:00,12.733409,77.298051,NO2,2,22,7
India,Karnataka,Ramanagara,"Vijay Nagar, Ramanagara - KSPCB",13-01-2024 20:00:00,12.733409,77.298051,OZONE,11,12,11
India,Karnataka,Shivamogga,"Vinoba Nagara, Shivamogga - KSPCB",13-01-2024 20:00:00,13.940000,75.555917,NO2,10,130,48
India,Karnataka,Tumakuru,"Thimmalapura, Tumakuru - KSPCB",13-01-2024 20:00:00,13.377516,77.099072,PM2.5,32,245,101
India,Karnataka,Tumakuru,"Thimmalapura, Tumakuru - KSPCB",13-01-2024 20:00:00,13.377516,77.099072,PM10,49,280,142
India,Karnataka,Vijayapura,"Ibrahimpur, Vijayapura - KSPCB",13-01-2024 20:00:00,16.802639,75.722694,CO,35,64,46
India,Karnataka,Yadgir,"Collector Office, Yadgir - KSPCB",13-01-2024 20:00:00,16.7602,77.1428,PM2.5,95,168,131
India,Karnataka,Yadgir,"Collector Office, Yadgir - KSPCB",13-01-2024 20:00:00,16.7602,77.1428,SO2,6,26,14
India,Kerala,Eloor,"Udyogamandal, Eloor - Kerala PCB",13-01-2024 20:00:00,10.073232,76.302765,NO2,4,4,4
India,Kerala,Eloor,"Udyogamandal, Eloor - Kerala PCB",13-01-2024 20:00:00,10.073232,76.302765,NH3,1,1,1
India,Kerala,Kannur,"Thavakkara, Kannur - Kerala PCB",13-01-2024 20:00:00,11.875000,75.373200,PM10,60,67,63
India,Kerala,Kannur,"Thavakkara, Kannur - Kerala PCB",13-01-2024 20:00:00,11.875000,75.373200,NO2,6,7,6
India,Kerala,Kochi,"Vyttila, Kochi - Kerala PCB",13-01-2024 20:00:00,9.969447,76.321186,NO2,1,8,4
India,Kerala,Kollam,"Polayathode, Kollam - Kerala PCB",13-01-2024 20:00:00,8.8787,76.6073,NH3,1,1,1
India,Kerala,Kollam,"Polayathode, Kollam - Kerala PCB",13-01-2024 20:00:00,8.8787,76.6073,SO2,1,11,4
India,Kerala,Thiruvananthapuram,"Kariavattom, Thiruvananthapuram - Kerala PCB",13-01-2024 20:00:00,8.563700,76.886500,PM10,68,84,76
India,Kerala,Thrissur,"Corporation Ground, Thrissur - Kerala PCB",13-01-2024 20:00:00,10.532400,76.215900,NH3,1,1,1
India,Kerala,Thrissur,"Corporation Ground, Thrissur - Kerala PCB",13-01-2024 20:00:00,10.532400,76.215900,SO2,NA,NA,NA
India,Madhya Pradesh,Bhopal,"Idgah Hills, Bhopal - MPPCB",13-01-2024 20:00:00,23.264759,77.381568,NO2,16,53,31
India,Madhya Pradesh,Damoh,"Shrivastav Colony, Damoh - MPPCB",13-01-2024 20:00:00,23.81748678,79.446246,CO,23,24,24
India,Madhya Pradesh,Dewas,"Bhopal Chauraha, Dewas - MPPCB",13-01-2024 20:00:00,22.9682591,76.064118,PM2.5,50,123,71
India,Madhya Pradesh,Dewas,"Bhopal Chauraha, Dewas - MPPCB",13-01-2024 20:00:00,22.9682591,76.064118,NO2,11,13,12
India,Madhya Pradesh,Gwalior,"Maharaj Bada, Gwalior - MPPCB",13-01-2024 20:00:00,26.200388,78.147714,PM10,78,489,229
India,Madhya Pradesh,Gwalior,"Maharaj Bada, Gwalior - MPPCB",13-01-2024 20:00:00,26.200388,78.147714,OZONE,4,87,61
India,Madhya Pradesh,Indore,"Chhoti Gwaltoli, Indore - MPPCB",13-01-2024 20:00:00,22.4310,75.5213,NO2,42,128,67
India,Madhya Pradesh,Indore,"Chhoti Gwaltoli, Indore - MPPCB",13-01-2024 20:00:00,22.4310,75.5213,CO,39,116,89
India,Madhya Pradesh,Indore,"Maguda Nagar, Indore - IMC",13-01-2024 20:00:00,22.7524,75.8872,PM2.5,45,195,68
India,Madhya Pradesh,Indore,"Maguda Nagar, Indore - IMC",13-01-2024 20:00:00,22.7524,75.8872,NO2,4,5,5
India,Madhya Pradesh,Indore,"Maguda Nagar, Indore - IMC",13-01-2024 20:00:00,22.7524,75.8872,NH3,1,2,1
India,Madhya Pradesh,Indore,"Regional Park, Indore - IMC",13-01-2024 20:00:00,22.6780,75.8559,PM2.5,31,121,54
India,Madhya Pradesh,Indore,"Residency Area, Indore - IMC",13-01-2024 20:00:00,22.7084,75.8815,PM2.5,38,93,57
India,Madhya Pradesh,Jabalpur,"Marhatal, Jabalpur - MPPCB",13-01-2024 20:00:00,23.168606,79.932247,PM10,48,160,90
India,Madhya Pradesh,Jabalpur,"Suhagi, Jabalpur - JMC",13-01-2024 20:00:00,23.218135,79.957770,NH3,4,4,4
India,Madhya Pradesh,Katni,"Gole Bazar, Katni - MPPCB",13-01-2024 20:00:00,23.50016,80.23284,PM10,NA,NA,NA
India,Madhya Pradesh,Katni,"Gole Bazar, Katni - MPPCB",13-01-2024 20:00:00,23.50016,80.23284,NO2,NA,NA,NA
India,Madhya Pradesh,Mandideep,"Sector-D Industrial Area, Mandideep - MPPCB",13-01-2024 20:00:00,23.108440,77.511428,PM2.5,36,198,86
India,Madhya Pradesh,Mandideep,"Sector-D Industrial Area, Mandideep - MPPCB",13-01-2024 20:00:00,23.108440,77.511428,PM10,64,271,157
India,Madhya Pradesh,Pithampur,"Sector-2 Industrial Area, Pithampur - MPPCB",13-01-2024 20:00:00,22.624758,75.675238,OZONE,25,65,54
India,Madhya Pradesh,Sagar,"Civil Lines, Sagar - MPPCB",13-01-2024 20:00:00,23.838586,78.759431,NO2,11,22,14
India,Madhya Pradesh,Satna,"Bandhavgar Colony, Satna - Birla Cement",13-01-2024 20:00:00,24.58434363,80.8549414,PM2.5,6,40,22
India,Madhya Pradesh,Singrauli,"Suryakiran Bhawan NCL, Singrauli - MPPCB",13-01-2024 20:00:00,24.108970,82.645580,PM10,NA,NA,NA
India,Madhya Pradesh,Singrauli,"Suryakiran Bhawan NCL, Singrauli - MPPCB",13-01-2024 20:00:00,24.108970,82.645580,OZONE,15,66,49
India,Madhya Pradesh,Ujjain,"Mahakaleshwar Temple, Ujjain - MPPCB",13-01-2024 20:00:00,23.182719 ,75.768218 ,PM10,52,122,78
India,Madhya Pradesh,Ujjain,"Mahakaleshwar Temple, Ujjain - MPPCB",13-01-2024 20:00:00,23.182719 ,75.768218 ,NH3,5,9,6
India,Madhya Pradesh,Ujjain,"Mahakaleshwar Temple, Ujjain - MPPCB",13-01-2024 20:00:00,23.182719 ,75.768218 ,SO2,3,24,8
India,Maharashtra,Ahmednagar,"Tarakpur, Ahmednagar - MPCB",13-01-2024 20:00:00,19.10122,74.73339,CO,16,123,51
India,Maharashtra,Akola,"Ramdaspeth, Akola - MPCB",13-01-2024 20:00:00,20.719516,77.000253,PM10,111,219,146
India,Maharashtra,Amravati,"Shivneri Colony, Amravati - MPCB",13-01-2024 20:00:00,20.9402359,77.7895248,PM2.5,80,165,117
India,Maharashtra,Amravati,"Shri Shivaji Science College, Amaravati - MPCB",13-01-2024 20:00:00,20.939198,77.765701,NH3,2,8,3
India,Maharashtra,Aurangabad,"More Chowk Waluj, Aurangabad - MPCB",13-01-2024 20:00:00,19.8389439,75.244448,OZONE,NA,NA,NA
India,Maharashtra,Aurangabad,"Rachnakar Colony, Aurangabad - MPCB",13-01-2024 20:00:00,19.863756,75.321188,PM2.5,89,273,204
India,Maharashtra,Aurangabad,"Rachnakar Colony, Aurangabad - MPCB",13-01-2024 20:00:00,19.863756,75.321188,OZONE,18,95,65
India,Maharashtra,Badlapur,"Katrap, Badlapur - MPCB",13-01-2024 20:00:00,19.16485,73.23409,SO2,1,11,6
India,Maharashtra,Badlapur,"Katrap, Badlapur - MPCB",13-01-2024 20:00:00,19.16485,73.23409,CO,21,86,32
India,Maharashtra,Bhiwandi,"Gokul Nagar, Bhiwandi - MPCB",13-01-2024 20:00:00,19.309073,73.057223,OZONE,7,57,42
India,Maharashtra,Chandrapur,"Chauhan Colony, Chandrapur - MPCB",13-01-2024 20:00:00,19.962900,79.298714,PM2.5,90,319,166
India,Maharashtra,Chandrapur,"Chauhan Colony, Chandrapur - MPCB",13-01-2024 20:00:00,19.962900,79.298714,PM10,81,181,111
India,Maharashtra,Chandrapur,"Chauhan Colony, Chandrapur - MPCB",13-01-2024 20:00:00,19.962900,79.298714,NO2,15,57,29
India,Maharashtra,Chandrapur,"Chauhan Colony, Chandrapur - MPCB",13-01-2024 20:00:00,19.962900,79.298714,OZONE,2,46,19
India,Maharashtra,Dhule,"Deopur, Dhule - MPCB",13-01-2024 20:00:00,20.918946,74.776388,NH3,1,4,2
India,Maharashtra,Dhule,"Deopur, Dhule - MPCB",13-01-2024 20:00:00,20.918946,74.776388,SO2,9,37,15
India,Maharashtra,Jalgaon,"Prabhat Colony, Jalgaon - MPCB",13-01-2024 20:00:00,21.001264,75.565602,NH3,6,10,8
India,Maharashtra,Jalna,"Old MIDC, Jalna - MPCB",13-01-2024 20:00:00,19.854616,75.905894,PM2.5,116,222,173
India,Maharashtra,Jalna,"Old MIDC, Jalna - MPCB",13-01-2024 20:00:00,19.854616,75.905894,PM10,122,217,160
India,Maharashtra,Jalna,"Old MIDC, Jalna - MPCB",13-01-2024 20:00:00,19.854616,75.905894,NO2,10,24,16
India,Maharashtra,Jalna,"Old MIDC, Jalna - MPCB",13-01-2024 20:00:00,19.854616,75.905894,SO2,8,10,9
India,Maharashtra,Kalyan,"Khadakpada, Kalyan - MPCB",13-01-2024 20:00:00,19.25292,73.142019,PM10,93,177,116
India,Maharashtra,Kalyan,"Khadakpada, Kalyan - MPCB",13-01-2024 20:00:00,19.25292,73.142019,SO2,13,94,35
India,Maharashtra,Kolhapur,"Sinchan Bhavan, Kolhapur - MPCB",13-01-2024 20:00:00,16.7143745,74.2426398,PM10,91,257,177
India,Maharashtra,Mahad,"Kamble Tarf Birwadi, Mahad - MPCB",13-01-2024 20:00:00,18.1023399,73.4783687,NO2,26,36,29
India,Maharashtra,Mahad,"Kamble Tarf Birwadi, Mahad - MPCB",13-01-2024 20:00:00,18.1023399,73.4783687,NH3,4,6,5
India,Maharashtra,Mahad,"Kamble Tarf Birwadi, Mahad - MPCB",13-01-2024 20:00:00,18.1023399,73.4783687,OZONE,8,88,59
India,Maharashtra,Malegaon,"Mahesh Nagar, Malegaon - MPCB",13-01-2024 20:00:00,20.555712,74.529236,NH3,9,9,9
India,Maharashtra,Mumbai,"Borivali East, Mumbai - IITM",13-01-2024 20:00:00,19.23241,72.86895,PM10,NA,NA,NA
India,Maharashtra,Mumbai,"Borivali East, Mumbai - IITM",13-01-2024 20:00:00,19.23241,72.86895,CO,1,66,23
India,Maharashtra,Mumbai,"Borivali East, Mumbai - MPCB",13-01-2024 20:00:00,19.2243333,72.8658113,PM2.5,40,140,73
India,Maharashtra,Mumbai,"Borivali East, Mumbai - MPCB",13-01-2024 20:00:00,19.2243333,72.8658113,PM10,56,150,90
India,Maharashtra,Mumbai,"Borivali East, Mumbai - MPCB",13-01-2024 20:00:00,19.2243333,72.8658113,NO2,5,67,16
India,Maharashtra,Mumbai,"Borivali East, Mumbai - MPCB",13-01-2024 20:00:00,19.2243333,72.8658113,CO,2,164,57
India,Maharashtra,Mumbai,"Borivali East, Mumbai - MPCB",13-01-2024 20:00:00,19.2243333,72.8658113,OZONE,8,9,8
India,Maharashtra,Mumbai,"Byculla, Mumbai - BMC",13-01-2024 20:00:00,18.9767,72.8380,NO2,22,89,57
India,Maharashtra,Mumbai,"Byculla, Mumbai - BMC",13-01-2024 20:00:00,18.9767,72.8380,SO2,1,9,3
India,Maharashtra,Mumbai,"Chakala-Andheri East, Mumbai - IITM",13-01-2024 20:00:00,19.11074,72.86084,NH3,2,12,5
India,Maharashtra,Mumbai,"Chakala-Andheri East, Mumbai - IITM",13-01-2024 20:00:00,19.11074,72.86084,SO2,24,81,56
India,Maharashtra,Mumbai,"Chakala-Andheri East, Mumbai - IITM",13-01-2024 20:00:00,19.11074,72.86084,OZONE,32,70,60
India,Maharashtra,Mumbai,"Chhatrapati Shivaji Intl. Airport (T2), Mumbai - MPCB",13-01-2024 20:00:00,19.10078,72.87462,NH3,6,15,8
India,Maharashtra,Mumbai,"Chhatrapati Shivaji Intl. Airport (T2), Mumbai - MPCB",13-01-2024 20:00:00,19.10078,72.87462,CO,62,110,82
India,Maharashtra,Mumbai,"Colaba, Mumbai - MPCB",13-01-2024 20:00:00,18.910000,72.820000,NO2,18,30,24
India,Maharashtra,Mumbai,"Ghatkopar, Mumbai - BMC",13-01-2024 20:00:00,19.083694,72.920967,NO2,13,56,45
India,Maharashtra,Mumbai,"Ghatkopar, Mumbai - BMC",13-01-2024 20:00:00,19.083694,72.920967,CO,17,68,23
India,Maharashtra,Mumbai,"Kandivali East, Mumbai - MPCB",13-01-2024 20:00:00,19.205800,72.868200,PM10,77,286,147
India,Maharashtra,Mumbai,"Kandivali East, Mumbai - MPCB",13-01-2024 20:00:00,19.205800,72.868200,NH3,7,14,10
India,Maharashtra,Mumbai,"Khindipada-Bhandup West, Mumbai - IITM",13-01-2024 20:00:00,19.1653323,72.922099,PM10,80,128,114
India,Maharashtra,Mumbai,"Khindipada-Bhandup West, Mumbai - IITM",13-01-2024 20:00:00,19.1653323,72.922099,NO2,NA,NA,NA
India,Maharashtra,Mumbai,"Khindipada-Bhandup West, Mumbai - IITM",13-01-2024 20:00:00,19.1653323,72.922099,SO2,1,16,8
India,Maharashtra,Mumbai,"Khindipada-Bhandup West, Mumbai - IITM",13-01-2024 20:00:00,19.1653323,72.922099,CO,NA,NA,NA
India,Maharashtra,Mumbai,"Kurla, Mumbai - MPCB",13-01-2024 20:00:00,19.0863,72.8888,SO2,32,32,32
India,Maharashtra,Mumbai,"Malad West, Mumbai - IITM",13-01-2024 20:00:00,19.19709,72.82204,NO2,11,28,16
India,Maharashtra,Mumbai,"Mazgaon, Mumbai - IITM",13-01-2024 20:00:00,18.96702,72.84214,NH3,4,10,7
India,Maharashtra,Mumbai,"Mazgaon, Mumbai - IITM",13-01-2024 20:00:00,18.96702,72.84214,OZONE,13,178,96
India,Maharashtra,Mumbai,"Mindspace-Malad West, Mumbai - MPCB",13-01-2024 20:00:00,19.1878657,72.8304069,PM2.5,86,182,131
India,Maharashtra,Mumbai,"Mulund West, Mumbai - MPCB",13-01-2024 20:00:00,19.1750,72.9419,PM2.5,21,51,34
India,Maharashtra,Mumbai,"Powai, Mumbai - MPCB",13-01-2024 20:00:00,19.137500,72.915056,NH3,1,1,1
India,Maharashtra,Mumbai,"Sewri, Mumbai - BMC",13-01-2024 20:00:00,19.000084,72.856730,PM10,107,152,130
India,Maharashtra,Mumbai,"Vasai West, Mumbai - MPCB",13-01-2024 20:00:00,19.383200,72.820400,PM10,55,121,95
India,Maharashtra,Mumbai,"Vasai West, Mumbai - MPCB",13-01-2024 20:00:00,19.383200,72.820400,SO2,17,18,18
India,Maharashtra,Mumbai,"Vile Parle West, Mumbai - MPCB",13-01-2024 20:00:00,19.10861,72.83622,SO2,13,14,14
India,Maharashtra,Mumbai,"Vile Parle West, Mumbai - MPCB",13-01-2024 20:00:00,19.10861,72.83622,CO,14,16,15
India,Maharashtra,Mumbai,"Vile Parle West, Mumbai - MPCB",13-01-2024 20:00:00,19.10861,72.83622,OZONE,3,3,3
India,Maharashtra,Mumbai,"Worli, Mumbai - MPCB",13-01-2024 20:00:00,18.9936162,72.8128113,CO,32,34,34
India,Maharashtra,Nagpur,"Ambazari, Nagpur - MPCB",13-01-2024 20:00:00,21.121801,79.04952,OZONE,1,108,78
India,Maharashtra,Nagpur,"Mahal, Nagpur - MPCB",13-01-2024 20:00:00,21.14472,79.107595,OZONE,13,90,69
India,Maharashtra,Nagpur,"Ram Nagar, Nagpur - MPCB",13-01-2024 20:00:00,21.143383,79.048912,OZONE,2,87,67
India,Maharashtra,Nanded,"Sneh Nagar, Nanded - MPCB",13-01-2024 20:00:00,19.173852,77.296291,PM2.5,2,180,120
India,Maharashtra,Nanded,"Sneh Nagar, Nanded - MPCB",13-01-2024 20:00:00,19.173852,77.296291,PM10,55,191,138
India,Maharashtra,Nanded,"Sneh Nagar, Nanded - MPCB",13-01-2024 20:00:00,19.173852,77.296291,NO2,28,146,67
India,Maharashtra,Nashik,"MIDC Ambad, Nashik - MPCB",13-01-2024 20:00:00,19.950220,73.731480,NH3,2,4,3
India,Maharashtra,Nashik,"Pandav Nagari, Nashik - MPCB",13-01-2024 20:00:00,19.9591346,73.7788008,NO2,22,109,59
India,Maharashtra,Nashik,"Pandav Nagari, Nashik - MPCB",13-01-2024 20:00:00,19.9591346,73.7788008,SO2,9,19,12
India,Maharashtra,Navi Mumbai,"Kopripada-Vashi, Navi Mumbai - MPCB",13-01-2024 20:00:00,19.090337,73.014232,PM2.5,36,326,112
India,Maharashtra,Navi Mumbai,"Kopripada-Vashi, Navi Mumbai - MPCB",13-01-2024 20:00:00,19.090337,73.014232,PM10,73,256,130
India,Maharashtra,Navi Mumbai,"Mahape, Navi Mumbai - MPCB",13-01-2024 20:00:00,19.1135051,73.008978,NH3,3,3,3
India,Maharashtra,Navi Mumbai,"Nerul, Navi Mumbai - MPCB",13-01-2024 20:00:00,19.008751,73.016620,PM2.5,52,155,96
India,Maharashtra,Navi Mumbai,"Nerul, Navi Mumbai - MPCB",13-01-2024 20:00:00,19.008751,73.016620,SO2,3,6,4
India,Maharashtra,Navi Mumbai,"Sanpada, Navi Mumbai - MPCB",13-01-2024 20:00:00,19.0575752,73.0151367,NO2,7,44,32
India,Maharashtra,Navi Mumbai,"Sanpada, Navi Mumbai - MPCB",13-01-2024 20:00:00,19.0575752,73.0151367,NH3,12,45,24
India,Maharashtra,Navi Mumbai,"Sector-19A Nerul, Navi Mumbai - IITM",13-01-2024 20:00:00,19.044,73.0325,PM10,142,251,190
India,Maharashtra,Navi Mumbai,"Sector-19A Nerul, Navi Mumbai - IITM",13-01-2024 20:00:00,19.044,73.0325,SO2,12,97,32
India,Maharashtra,Navi Mumbai,"Sector-2E Kalamboli, Navi Mumbai - MPCB",13-01-2024 20:00:00,19.02579,73.10297,OZONE,1,157,84
India,Maharashtra,Navi Mumbai,"Tondare-Taloja, Navi Mumbai - MPCB",13-01-2024 20:00:00,19.0630,73.1209,PM10,NA,NA,NA
India,Maharashtra,Parbhani,"Masoom Colony, Parbhani - MPCB",13-01-2024 20:00:00,19.265594,76.761463,PM2.5,56,181,102
India,Maharashtra,Pimpri-Chinchwad,"Gavalinagar, Pimpri Chinchwad - MPCB",13-01-2024 20:00:00,18.63673,73.82487,PM2.5,61,352,288
India,Maharashtra,Pimpri-Chinchwad,"Gavalinagar, Pimpri Chinchwad - MPCB",13-01-2024 20:00:00,18.63673,73.82487,PM10,37,379,190
India,Maharashtra,Pimpri-Chinchwad,"Park Street Wakad, Pimpri Chinchwad - MPCB",13-01-2024 20:00:00,18.59051,73.77946,SO2,4,20,8
India,Maharashtra,Pimpri-Chinchwad,"Thergaon, Pimpri Chinchwad - MPCB",13-01-2024 20:00:00,18.616318,73.765797,PM10,67,226,158
India,Maharashtra,Pune,"Alandi, Pune - IITM",13-01-2024 20:00:00,18.675076,73.892743,PM10,27,164,95
India,Maharashtra,Pune,"Bhosari, Pune - IITM",13-01-2024 20:00:00,18.640051,73.848956,PM2.5,10,302,159
India,Maharashtra,Pune,"Mhada Colony, Pune - IITM",13-01-2024 20:00:00,18.573040,73.927715,PM2.5,43,291,176
India,Maharashtra,Pune,"Revenue Colony-Shivajinagar, Pune - IITM",13-01-2024 20:00:00,18.530085,73.849598,NH3,13,30,23
India,Maharashtra,Pune,"Revenue Colony-Shivajinagar, Pune - IITM",13-01-2024 20:00:00,18.530085,73.849598,OZONE,6,78,41
India,Maharashtra,Pune,"Savitribai Phule Pune University, Pune - MPCB",13-01-2024 20:00:00,18.547056,73.826908,SO2,8,20,15
India,Maharashtra,Pune,"Savitribai Phule Pune University, Pune - MPCB",13-01-2024 20:00:00,18.547056,73.826908,OZONE,2,182,152
India,Maharashtra,Pune,"Transport Nagar-Nigdi, Pune - IITM",13-01-2024 20:00:00,18.664282,73.763966,PM10,42,177,133
India,Maharashtra,Pune,"Transport Nagar-Nigdi, Pune - IITM",13-01-2024 20:00:00,18.664282,73.763966,CO,38,68,47
India,Maharashtra,Sangli,"Vijay Nagar, Sangli - MPCB",13-01-2024 20:00:00, 16.5038,74.3623,PM10,66,143,113
India,Maharashtra,Sangli,"Vijay Nagar, Sangli - MPCB",13-01-2024 20:00:00, 16.5038,74.3623,NO2,22,103,45
India,Maharashtra,Solapur,"Ratandeep Housing Society, Solapur - MPCB",13-01-2024 20:00:00,17.65439,75.90649,NH3,7,10,9
India,Maharashtra,Solapur,"Ratandeep Housing Society, Solapur - MPCB",13-01-2024 20:00:00,17.65439,75.90649,SO2,6,13,9
India,Maharashtra,Solapur,"Solapur, Solapur - MPCB",13-01-2024 20:00:00,17.6599188,75.9063906,PM2.5,41,100,65
India,Maharashtra,Solapur,"Solapur, Solapur - MPCB",13-01-2024 20:00:00,17.6599188,75.9063906,NO2,46,58,50
India,Maharashtra,Thane,"Upvan Fort, Thane - MPCB",13-01-2024 20:00:00,19.222279,72.957979,NH3,9,12,10
India,Maharashtra,Thane,"Upvan Fort, Thane - MPCB",13-01-2024 20:00:00,19.222279,72.957979,OZONE,15,178,131
India,Maharashtra,Ulhasnagar,"Sidhi Vinayak Nagar, Ulhasnagar - MPCB",13-01-2024 20:00:00,19.235581,73.159121,PM2.5,162,309,247
India,Maharashtra,Ulhasnagar,"Sidhi Vinayak Nagar, Ulhasnagar - MPCB",13-01-2024 20:00:00,19.235581,73.159121,NO2,10,84,37
India,Maharashtra,Virar,"Bolinj, Virar - MPCB",13-01-2024 20:00:00,19.4458210,72.7988231,NH3,5,16,7
India,Meghalaya,Shillong,"JN Stadium, Shillong - Meghalaya PCB",13-01-2024 20:00:00,25.5803419,91.8942571,NO2,13,50,32
India,Meghalaya,Shillong,"JN Stadium, Shillong - Meghalaya PCB",13-01-2024 20:00:00,25.5803419,91.8942571,CO,14,103,37
India,Meghalaya,Shillong,"Lumpyngngad, Shillong - Meghalaya PCB",13-01-2024 20:00:00,25.5586,91.8985,NO2,6,6,6
India,Nagaland,Kohima,"PWD Juction, Kohima - NPCB",13-01-2024 20:00:00,25.6635413,94.0989878,NH3,NA,NA,NA
India,Odisha,Angul,"Hakimapada, Angul - OSPCB",13-01-2024 20:00:00,20.832874,85.104082,OZONE,11,267,175
India,Odisha,Barbil,"Forest Office, Barbil - OSPCB",13-01-2024 20:00:00,22.1166054,85.3945546,PM2.5,17,243,91
India,Odisha,Barbil,"Forest Office, Barbil - OSPCB",13-01-2024 20:00:00,22.1166054,85.3945546,CO,24,84,44
India,Odisha,Baripada,"Meher Colony, Baripada - OSPCB",13-01-2024 20:00:00,21.941841,86.728318,PM2.5,99,315,182
India,Odisha,Baripada,"Meher Colony, Baripada - OSPCB",13-01-2024 20:00:00,21.941841,86.728318,NH3,NA,NA,NA
India,Odisha,Bhubaneswar,"Lingraj Mandir, Bhubaneswar - OSPCB",13-01-2024 20:00:00,20.240790,85.836784,PM2.5,97,309,184
India,Odisha,Bhubaneswar,"Lingraj Mandir, Bhubaneswar - OSPCB",13-01-2024 20:00:00,20.240790,85.836784,NH3,2,5,3
India,Odisha,Bhubaneswar,"Patia, Bhubaneswar - OSPCB",13-01-2024 20:00:00,20.34652,85.81630,PM10,91,227,137
India,Odisha,Bhubaneswar,"Patia, Bhubaneswar - OSPCB",13-01-2024 20:00:00,20.34652,85.81630,NH3,4,5,4
India,Odisha,Brajrajnagar,"GM Office, Brajrajnagar - OSPCB",13-01-2024 20:00:00,21.8004996,83.8396977,CO,38,105,47
India,Odisha,Byasanagar,"Ferro Chrome Colony, Byasanagar - OSPCB",13-01-2024 20:00:00,20.94185,86.11510,CO,35,116,104
India,Odisha,Cuttack,"CDA Area, Cuttack - OSPCB",13-01-2024 20:00:00,20.48891     ,85.84768     ,CO,38,80,46
India,Odisha,Nayagarh,"Dabuna, Nayagarh - OSPCB",13-01-2024 20:00:00,21.847279,85.416905,SO2,NA,NA,NA
India,Odisha,Rairangpur,"Divisional Forest Office, Rairangpur - OSPCB",13-01-2024 20:00:00,22.265816,86.174829,NH3,3,3,3
India,Odisha,Rourkela,"Fertilizer Township, Rourkela - OSPCB",13-01-2024 20:00:00,22.18972222,84.86277778,CO,14,24,19
India,Odisha,Rourkela,"Raghunathpali, Rourkela - OSPCB",13-01-2024 20:00:00,22.220833,84.809444,PM10,55,297,99
India,Odisha,Rourkela,"Raghunathpali, Rourkela - OSPCB",13-01-2024 20:00:00,22.220833,84.809444,NH3,1,5,3
India,Odisha,Suakati,"OMC Colony, Suakati - OSPCB",13-01-2024 20:00:00,21.606865,85.510538,NO2,74,128,91
India,Odisha,Suakati,"OMC Colony, Suakati - OSPCB",13-01-2024 20:00:00,21.606865,85.510538,NH3,2,5,4
India,Odisha,Talcher,"Talcher Coalfields,Talcher - OSPCB",13-01-2024 20:00:00,20.9360711,85.1707021,PM10,79,326,153
India,Odisha,Talcher,"Talcher Coalfields,Talcher - OSPCB",13-01-2024 20:00:00,20.9360711,85.1707021,OZONE,1,8,3
India,Odisha,Tensa,"Barsua Iron Ore Mines, Tensa - OSPCB",13-01-2024 20:00:00,21.869985,85.167016,NH3,6,9,8
India,Odisha,Tensa,"Barsua Iron Ore Mines, Tensa - OSPCB",13-01-2024 20:00:00,21.869985,85.167016,OZONE,5,33,21
India,Puducherry,Puducherry,"Jawahar Nagar, Puducherry - PPCC",13-01-2024 20:00:00,11.9309,79.8027,PM2.5,68,242,125
India,Puducherry,Puducherry,"Jawahar Nagar, Puducherry - PPCC",13-01-2024 20:00:00,11.9309,79.8027,NO2,5,53,19
India,Punjab,Bathinda,"Hardev Nagar, Bathinda - PPCB",13-01-2024 20:00:00,30.233011,74.907758,CO,2,60,32
India,Punjab,Jalandhar,"Civil Line, Jalandhar - PPCB",13-01-2024 20:00:00,31.321907,75.578914,PM10,89,141,105
India,Punjab,Khanna,"Kalal Majra, Khanna - PPCB",13-01-2024 20:00:00,30.736056 ,76.209694,PM2.5,159,405,247
India,Punjab,Khanna,"Kalal Majra, Khanna - PPCB",13-01-2024 20:00:00,30.736056 ,76.209694,NH3,14,16,15
India,Punjab,Ludhiana,"Punjab Agricultural University, Ludhiana - PPCB",13-01-2024 20:00:00,30.9028,75.8086,NO2,24,45,27
India,Punjab,Mandi Gobindgarh,"RIMT University, Mandi Gobindgarh - PPCB",13-01-2024 20:00:00,30.649961,76.331442,PM2.5,NA,NA,NA
India,Punjab,Mandi Gobindgarh,"RIMT University, Mandi Gobindgarh - PPCB",13-01-2024 20:00:00,30.649961,76.331442,PM10,NA,NA,NA
India,Punjab,Mandi Gobindgarh,"RIMT University, Mandi Gobindgarh - PPCB",13-01-2024 20:00:00,30.649961,76.331442,NH3,NA,NA,NA
India,Punjab,Patiala,"Model Town, Patiala - PPCB",13-01-2024 20:00:00,30.349388,76.366642,OZONE,21,39,30
India,Rajasthan,Banswara,"Rati Talai, Banswara - RSPCB",13-01-2024 20:00:00,23.555190,74.440010,PM2.5,55,197,121
India,Rajasthan,Banswara,"Rati Talai, Banswara - RSPCB",13-01-2024 20:00:00,23.555190,74.440010,SO2,4,19,11
India,Rajasthan,Baran,"Bamboliya, Baran - RSPCB",13-01-2024 20:00:00,25.106006,76.469948,PM2.5,31,303,122
India,Rajasthan,Baran,"Bamboliya, Baran - RSPCB",13-01-2024 20:00:00,25.106006,76.469948,OZONE,3,97,76
India,Rajasthan,Bharatpur,"Krishna Nagar, Bharatpur - RSPCB",13-01-2024 20:00:00,27.215415,77.50873,PM2.5,310,416,361
India,Rajasthan,Bharatpur,"Krishna Nagar, Bharatpur - RSPCB",13-01-2024 20:00:00,27.215415,77.50873,OZONE,6,90,52
India,Rajasthan,Bhilwara,"Pratap Nagar, Bhilwara - RSPCB",13-01-2024 20:00:00,25.339605,74.618883,CO,14,115,51
India,Rajasthan,Bhiwadi,"RIICO Ind. Area III, Bhiwadi - RSPCB",13-01-2024 20:00:00,28.194909,76.862296,PM10,225,429,290
India,Rajasthan,Bhiwadi,"RIICO Ind. Area III, Bhiwadi - RSPCB",13-01-2024 20:00:00,28.194909,76.862296,OZONE,6,99,8
India,Rajasthan,Bikaner,"MM Ground, Bikaner - RSPCB",13-01-2024 20:00:00,28.018792,73.292658,NH3,14,30,18
India,Rajasthan,Bundi,"New Colony, Bundi - RSPCB",13-01-2024 20:00:00,25.435774,75.644272,NO2,22,96,42
India,Rajasthan,Bundi,"New Colony, Bundi - RSPCB",13-01-2024 20:00:00,25.435774,75.644272,CO,26,105,37
India,Rajasthan,Churu,"Subash Chowk, Churu - RSPCB",13-01-2024 20:00:00,28.296139,74.961696,SO2,3,30,12
India,Rajasthan,Dausa,"Khatikan Mohalla, Dausa - RSPCB",13-01-2024 20:00:00,26.895552,76.334753,PM10,95,427,170
India,Rajasthan,Dausa,"Khatikan Mohalla, Dausa - RSPCB",13-01-2024 20:00:00,26.895552,76.334753,SO2,8,10,9
India,Rajasthan,Dholpur,"Raja Ganj, Dholpur - RSPCB",13-01-2024 20:00:00,26.699557,77.898881,PM2.5,128,424,303
India,Rajasthan,Dholpur,"Raja Ganj, Dholpur - RSPCB",13-01-2024 20:00:00,26.699557,77.898881,NH3,2,17,10
India,Rajasthan,Dungarpur,"Bhoiwada, Dungarpur - RSPCB",13-01-2024 20:00:00,23.837789,73.714926,PM10,47,230,119
India,Rajasthan,Dungarpur,"Bhoiwada, Dungarpur - RSPCB",13-01-2024 20:00:00,23.837789,73.714926,NO2,20,74,39
India,Rajasthan,Dungarpur,"Bhoiwada, Dungarpur - RSPCB",13-01-2024 20:00:00,23.837789,73.714926,SO2,3,5,4
India,Rajasthan,Dungarpur,"Bhoiwada, Dungarpur - RSPCB",13-01-2024 20:00:00,23.837789,73.714926,OZONE,4,41,38
India,Rajasthan,Hanumangarh,"Housing Board, Hanumangarh - RSPCB",13-01-2024 20:00:00,29.610750,74.283608,NH3,15,26,19
India,Rajasthan,Hanumangarh,"Housing Board, Hanumangarh - RSPCB",13-01-2024 20:00:00,29.610750,74.283608,CO,56,107,79
India,Rajasthan,Jaipur,"Adarsh Nagar, Jaipur - RSPCB",13-01-2024 20:00:00,26.902909,75.836858,PM2.5,56,329,146
India,Rajasthan,Jaipur,"Adarsh Nagar, Jaipur - RSPCB",13-01-2024 20:00:00,26.902909,75.836858,NH3,4,21,9
India,Rajasthan,Jaipur,"Mansarovar Sector-12, Jaipur - RSPCB",13-01-2024 20:00:00,26.843698,75.766894,NO2,20,148,80
India,Rajasthan,Jaipur,"Mansarovar Sector-12, Jaipur - RSPCB",13-01-2024 20:00:00,26.843698,75.766894,NH3,10,15,13
India,Rajasthan,Jaipur,"Police Commissionerate, Jaipur - RSPCB",13-01-2024 20:00:00,26.9164092,75.7994901,PM10,105,381,178
India,Rajasthan,Jaipur,"Police Commissionerate, Jaipur - RSPCB",13-01-2024 20:00:00,26.9164092,75.7994901,SO2,9,29,17
India,Rajasthan,Jaipur,"RIICO Sitapura, Jaipur - RSPCB",13-01-2024 20:00:00,26.786682,75.827928,NO2,25,162,79
India,Rajasthan,Jaipur,"RIICO Sitapura, Jaipur - RSPCB",13-01-2024 20:00:00,26.786682,75.827928,SO2,6,18,12
India,Rajasthan,Jaipur,"Sector-2 Murlipura, Jaipur - RSPCB",13-01-2024 20:00:00,26.960669,75.771817,OZONE,6,126,87
India,Rajasthan,Jaisalmer,"Sadar Bazar, Jaisalmer - RSPCB",13-01-2024 20:00:00,26.912329,70.909168,NO2,16,102,48
India,Rajasthan,Jalore,"Mudtra Sili, Jalore - RSPCB",13-01-2024 20:00:00,25.344694,72.626208,NO2,21,130,60
India,Rajasthan,Jalore,"Mudtra Sili, Jalore - RSPCB",13-01-2024 20:00:00,25.344694,72.626208,CO,30,170,57
India,Rajasthan,Jhunjhunu,"Indra Nagar, Jhunjhunu - RSPCB",13-01-2024 20:00:00,28.108988,75.386577,PM10,116,406,171
India,Rajasthan,Jodhpur,"Collectorate, Jodhpur - RSPCB",13-01-2024 20:00:00,26.268249,73.0193853,CO,24,93,59
India,Rajasthan,Jodhpur,"Jhalamand, Jodhpur - RSPCB",13-01-2024 20:00:00,26.215415,73.070156,SO2,3,10,6
India,Rajasthan,Jodhpur,"Mandor, Jodhpur - RSPCB",13-01-2024 20:00:00,26.358805,73.047444,NO2,28,112,72
India,Rajasthan,Jodhpur,"Mandor, Jodhpur - RSPCB",13-01-2024 20:00:00,26.358805,73.047444,SO2,1,7,3
India,Rajasthan,Jodhpur,"Samrat Ashok Udhyan, Jodhpur - RSPCB",13-01-2024 20:00:00,26.253384,72.976571,PM10,40,500,226
India,Rajasthan,Jodhpur,"Samrat Ashok Udhyan, Jodhpur - RSPCB",13-01-2024 20:00:00,26.253384,72.976571,SO2,3,61,12
India,Rajasthan,Kota,"Dhanmandi, Kota - RSPCB",13-01-2024 20:00:00,25.164090,75.858137,NH3,6,11,8
India,Rajasthan,Kota,"Dhanmandi, Kota - RSPCB",13-01-2024 20:00:00,25.164090,75.858137,OZONE,11,157,89
India,Rajasthan,Kota,"Nayapura, Kota - RSPCB",13-01-2024 20:00:00,25.196024,75.855668,PM10,80,293,166
India,Rajasthan,Kota,"Nayapura, Kota - RSPCB",13-01-2024 20:00:00,25.196024,75.855668,NO2,33,101,63
India,Rajasthan,Kota,"Nayapura, Kota - RSPCB",13-01-2024 20:00:00,25.196024,75.855668,NH3,10,17,13
India,Rajasthan,Kota,"Shrinath Puram, Kota - RSPCB",13-01-2024 20:00:00,25.14389,75.821256,SO2,10,44,15
India,Rajasthan,Nagaur,"Karni Colony, Nagaur - RSPCB",13-01-2024 20:00:00,27.213494,73.734444,PM2.5,27,336,134
India,Rajasthan,Nagaur,"Karni Colony, Nagaur - RSPCB",13-01-2024 20:00:00,27.213494,73.734444,SO2,4,14,7
India,Rajasthan,Nagaur,"Karni Colony, Nagaur - RSPCB",13-01-2024 20:00:00,27.213494,73.734444,CO,32,108,55
India,Rajasthan,Pali,"Indira Colony Vistar, Pali - RSPCB",13-01-2024 20:00:00,25.771061, 73.340227,PM10,124,187,144
India,Rajasthan,Pali,"Indira Colony Vistar, Pali - RSPCB",13-01-2024 20:00:00,25.771061, 73.340227,NH3,6,17,13
India,Rajasthan,Pratapgarh,"Pragati Nagar, Pratapgarh - RSPCB",13-01-2024 20:00:00,24.041198,74.780702,PM10,67,252,108
India,Rajasthan,Pratapgarh,"Pragati Nagar, Pratapgarh - RSPCB",13-01-2024 20:00:00,24.041198,74.780702,NH3,6,11,8
India,Rajasthan,Pratapgarh,"Pragati Nagar, Pratapgarh - RSPCB",13-01-2024 20:00:00,24.041198,74.780702,SO2,1,6,3
India,Rajasthan,Pratapgarh,"Pragati Nagar, Pratapgarh - RSPCB",13-01-2024 20:00:00,24.041198,74.780702,CO,16,125,30
India,Rajasthan,Pratapgarh,"Pragati Nagar, Pratapgarh - RSPCB",13-01-2024 20:00:00,24.041198,74.780702,OZONE,2,88,77
India,Rajasthan,Sawai Madhopur,"Sahu Nagar, Sawai Madhopur - RSPCB",13-01-2024 20:00:00,26.031443,76.359327,CO,16,113,40
India,Rajasthan,Sirohi,"Vedhaynath Colony, Sirohi - RSPCB",13-01-2024 20:00:00,24.885261,72.857549,CO,7,80,15
India,Rajasthan,Tonk,"Shastri Nagar, Tonk - RSPCB",13-01-2024 20:00:00,26.159933,75.780517,SO2,2,11,6
India,Rajasthan,Udaipur,"Ashok Nagar, Udaipur - RSPCB",13-01-2024 20:00:00,24.5886166,73.6321397,SO2,9,20,14
India,Rajasthan,Udaipur,"Ashok Nagar, Udaipur - RSPCB",13-01-2024 20:00:00,24.5886166,73.6321397,CO,28,159,77
India,Sikkim,Gangtok,"Zero Point GICI, Gangtok - SSPCB",13-01-2024 20:00:00,27.338530,88.614099,CO,9,22,17
India,TamilNadu,Chengalpattu,"Crescent University, Chengalpattu - TNPCB",13-01-2024 20:00:00,12.8777316,80.0834807,PM10,NA,NA,NA
India,TamilNadu,Chennai,"Alandur Bus Depot, Chennai - CPCB",13-01-2024 20:00:00,12.9099161,80.1076538,PM2.5,70,207,124
India,TamilNadu,Chennai,"Arumbakkam, Chennai - TNPCB",13-01-2024 20:00:00,13.0664,80.2112 ,NO2,13,40,24
India,TamilNadu,Chennai,"Gandhi Nagar_Ennore, Chennai - TNPCB",13-01-2024 20:00:00,13.218341,80.32027,OZONE,2,3,2
India,TamilNadu,Chennai,"Kodungaiyur, Chennai - TNPCB",13-01-2024 20:00:00,13.1278,80.2642,PM10,90,179,126
India,TamilNadu,Chennai,"Kodungaiyur, Chennai - TNPCB",13-01-2024 20:00:00,13.1278,80.2642,CO,6,55,32
India,TamilNadu,Chennai,"Manali, Chennai - CPCB",13-01-2024 20:00:00,13.164544,80.26285,CO,1,90,40
India,TamilNadu,Chennai,"Perungudi, Chennai - TNPCB",13-01-2024 20:00:00,12.9533,80.2357,NO2,3,13,8
India,TamilNadu,Chennai,"Perungudi, Chennai - TNPCB",13-01-2024 20:00:00,12.9533,80.2357,CO,26,40,32
India,TamilNadu,Chennai,"Perungudi, Chennai - TNPCB",13-01-2024 20:00:00,12.9533,80.2357,OZONE,25,56,34
India,TamilNadu,Chennai,"Velachery Res. Area, Chennai - CPCB",13-01-2024 20:00:00,13.0052189,80.2398125,PM10,68,108,87
India,TamilNadu,Cuddalore,"Kudikadu, Cuddalore - TNPCB",13-01-2024 20:00:00,11.6829898,79.7532099,NO2,8,11,9
India,TamilNadu,Cuddalore,"Kudikadu, Cuddalore - TNPCB",13-01-2024 20:00:00,11.6829898,79.7532099,NH3,4,4,4
India,TamilNadu,Cuddalore,"Kudikadu, Cuddalore - TNPCB",13-01-2024 20:00:00,11.6829898,79.7532099,SO2,16,18,17
India,TamilNadu,Cuddalore,"Semmandalam, Cuddalore - TNPCB",13-01-2024 20:00:00,11.7637683,79.7499835,PM10,54,131,83
India,TamilNadu,Cuddalore,"Semmandalam, Cuddalore - TNPCB",13-01-2024 20:00:00,11.7637683,79.7499835,NO2,8,44,23
India,TamilNadu,Gummidipoondi,"Anthoni Pillai Nagar, Gummidipoondi - TNPCB",13-01-2024 20:00:00,13.4127,80.1081,PM10,93,194,129
India,TamilNadu,Kanchipuram,"Kilambi, Kanchipuram - TNPCB",13-01-2024 20:00:00,12.864618,79.659968,SO2,NA,NA,NA
India,TamilNadu,Ooty,"Bombay Castel, Ooty - TNPCB",13-01-2024 20:00:00,11.4068288,76.7138973,PM2.5,NA,NA,NA
India,TamilNadu,Ooty,"Bombay Castel, Ooty - TNPCB",13-01-2024 20:00:00,11.4068288,76.7138973,PM10,NA,NA,NA
India,TamilNadu,Ramanathapuram,"Chalai Bazaar, Ramanathapuram - TNPCB",13-01-2024 20:00:00,9.36399,78.831977,PM2.5,36,88,61
India,TamilNadu,Ramanathapuram,"Chalai Bazaar, Ramanathapuram - TNPCB",13-01-2024 20:00:00,9.36399,78.831977,PM10,37,91,65
India,TamilNadu,Ramanathapuram,"Chalai Bazaar, Ramanathapuram - TNPCB",13-01-2024 20:00:00,9.36399,78.831977,NH3,1,1,1
India,TamilNadu,Ramanathapuram,"Chalai Bazaar, Ramanathapuram - TNPCB",13-01-2024 20:00:00,9.36399,78.831977,CO,12,37,25
India,TamilNadu,Salem,"Sona College of Technology, Salem - TNPCB",13-01-2024 20:00:00,11.679111,78.125052,PM2.5,61,297,111
India,TamilNadu,Salem,"Sona College of Technology, Salem - TNPCB",13-01-2024 20:00:00,11.679111,78.125052,OZONE,3,3,3
India,TamilNadu,Thoothukudi,"Meelavittan, Thoothukudi - TNPCB",13-01-2024 20:00:00,8.816428 ,78.099039,PM10,37,72,53
India,TamilNadu,Thoothukudi,"Meelavittan, Thoothukudi - TNPCB",13-01-2024 20:00:00,8.816428 ,78.099039,NO2,17,25,21
India,TamilNadu,Thoothukudi,"Meelavittan, Thoothukudi - TNPCB",13-01-2024 20:00:00,8.816428 ,78.099039,SO2,9,19,15
India,TamilNadu,Thoothukudi,"Meelavittan, Thoothukudi - TNPCB",13-01-2024 20:00:00,8.816428 ,78.099039,CO,4,39,13
India,TamilNadu,Thoothukudi,"Meelavittan, Thoothukudi - TNPCB",13-01-2024 20:00:00,8.816428 ,78.099039,OZONE,4,17,6
India,TamilNadu,Tirupur,"Kumaran College, Tirupur - TNPCB",13-01-2024 20:00:00,11.0973603,77.3228673,PM10,75,170,115
India,TamilNadu,Tirupur,"Kumaran College, Tirupur - TNPCB",13-01-2024 20:00:00,11.0973603,77.3228673,OZONE,7,7,7
India,TamilNadu,Vellore,"Vasanthapuram, Vellore - TNPCB",13-01-2024 20:00:00,12.909494,79.131861,NH3,1,2,1
India,TamilNadu,Virudhunagar,"Collectorate Office, Virudhunagar - TNPCB",13-01-2024 20:00:00,9.559382,77.948828,NH3,2,3,3
India,Telangana,Hyderabad,"Central University, Hyderabad - TSPCB",13-01-2024 20:00:00,17.460103,78.334361,NH3,1,9,4
India,Telangana,Hyderabad,"Central University, Hyderabad - TSPCB",13-01-2024 20:00:00,17.460103,78.334361,CO,14,76,21
India,Telangana,Hyderabad,"Central University, Hyderabad - TSPCB",13-01-2024 20:00:00,17.460103,78.334361,OZONE,2,5,3
India,Telangana,Hyderabad,"ICRISAT Patancheru, Hyderabad - TSPCB",13-01-2024 20:00:00,17.518400,78.278777,CO,6,110,46
India,Telangana,Hyderabad,"IITH Kandi, Hyderabad - TSPCB",13-01-2024 20:00:00,17.585705,78.126199,PM10,NA,NA,NA
India,Telangana,Hyderabad,"Kokapet, Hyderabad - TSPCB",13-01-2024 20:00:00,17.393559,78.339194,NO2,7,11,8
India,Telangana,Hyderabad,"Kokapet, Hyderabad - TSPCB",13-01-2024 20:00:00,17.393559,78.339194,SO2,6,9,7
India,Telangana,Hyderabad,"Kompally Municipal Office, Hyderabad - TSPCB",13-01-2024 20:00:00,17.544899,78.486949,NO2,8,9,8
India,Telangana,Hyderabad,"Nacharam_TSIIC IALA, Hyderabad - TSPCB",13-01-2024 20:00:00,17.429398,78.569354,PM10,57,168,114
India,Telangana,Hyderabad,"New Malakpet, Hyderabad - TSPCB",13-01-2024 20:00:00,17.37206,78.50864,PM10,52,67,60
India,Telangana,Hyderabad,"Ramachandrapuram, Hyderabad - TSPCB",13-01-2024 20:00:00,17.528544,78.286195,SO2,9,9,9
India,Telangana,Hyderabad,"Somajiguda, Hyderabad - TSPCB",13-01-2024 20:00:00,17.417094,78.457437,PM10,NA,NA,NA
India,Telangana,Hyderabad,"Somajiguda, Hyderabad - TSPCB",13-01-2024 20:00:00,17.417094,78.457437,NO2,NA,NA,NA
India,Telangana,Hyderabad,"Somajiguda, Hyderabad - TSPCB",13-01-2024 20:00:00,17.417094,78.457437,SO2,NA,NA,NA
India,Telangana,Hyderabad,"Somajiguda, Hyderabad - TSPCB",13-01-2024 20:00:00,17.417094,78.457437,CO,NA,NA,NA
India,Tripura,Agartala,"Bardowali, Agartala - Tripura SPCB",13-01-2024 20:00:00,23.8175497,91.2726974,NO2,10,24,17
India,Tripura,Agartala,"Bardowali, Agartala - Tripura SPCB",13-01-2024 20:00:00,23.8175497,91.2726974,NH3,2,2,2
India,Tripura,Agartala,"Bardowali, Agartala - Tripura SPCB",13-01-2024 20:00:00,23.8175497,91.2726974,SO2,22,24,23
India,Uttar_Pradesh,Agra,"Manoharpur, Agra - UPPCB",13-01-2024 20:00:00,27.23711,78.01936,PM10,41,239,125
India,Uttar_Pradesh,Agra,"Manoharpur, Agra - UPPCB",13-01-2024 20:00:00,27.23711,78.01936,CO,22,52,28
India,Uttar_Pradesh,Agra,"Sanjay Palace, Agra - UPPCB",13-01-2024 20:00:00,27.19865833,78.00598056,PM2.5,58,312,186
India,Uttar_Pradesh,Agra,"Sector-3B Avas Vikas Colony, Agra - UPPCB",13-01-2024 20:00:00,27.19412,77.96237,NO2,33,78,53
India,Uttar_Pradesh,Agra,"Shahjahan Garden, Agra - UPPCB",13-01-2024 20:00:00,27.169338,78.03582,NH3,2,3,3
India,Uttar_Pradesh,Agra,"Shahjahan Garden, Agra - UPPCB",13-01-2024 20:00:00,27.169338,78.03582,SO2,26,29,27
India,Uttar_Pradesh,Agra,"Shahjahan Garden, Agra - UPPCB",13-01-2024 20:00:00,27.169338,78.03582,CO,26,72,34
India,Uttar_Pradesh,Agra,"Shahjahan Garden, Agra - UPPCB",13-01-2024 20:00:00,27.169338,78.03582,OZONE,NA,NA,NA
India,Uttar_Pradesh,Agra,"Shastripuram, Agra - UPPCB",13-01-2024 20:00:00,27.19862,77.92066,PM2.5,76,318,193
India,Uttar_Pradesh,Agra,"Shastripuram, Agra - UPPCB",13-01-2024 20:00:00,27.19862,77.92066,NO2,26,27,26
India,Uttar_Pradesh,Agra,"Shastripuram, Agra - UPPCB",13-01-2024 20:00:00,27.19862,77.92066,SO2,16,26,20
India,Uttar_Pradesh,Baghpat,"Sardar Patel Inter College, Baghpat - UPPCB",13-01-2024 20:00:00,28.964949,77.278761,NH3,3,6,4
India,Uttar_Pradesh,Bareilly,"Rajendra Nagar, Bareilly - UPPCB",13-01-2024 20:00:00,28.38910936,79.42963708,PM10,48,160,103
India,Uttar_Pradesh,Bareilly,"Rajendra Nagar, Bareilly - UPPCB",13-01-2024 20:00:00,28.38910936,79.42963708,SO2,38,40,39
India,Uttar_Pradesh,Bulandshahr,"Yamunapuram, Bulandshahr - UPPCB",13-01-2024 20:00:00,28.406963,77.849831,PM10,80,402,173
India,Uttar_Pradesh,Bulandshahr,"Yamunapuram, Bulandshahr - UPPCB",13-01-2024 20:00:00,28.406963,77.849831,NO2,11,134,42
India,Uttar_Pradesh,Firozabad,"Nagla Bhau, Firozabad - UPPCB",13-01-2024 20:00:00,27.168897,78.376960,SO2,17,20,18
India,Uttar_Pradesh,Firozabad,"Vibhab Nagar, Firozabad - UPPCB",13-01-2024 20:00:00,27.1594,78.3953,PM10,45,170,92
India,Uttar_Pradesh,Firozabad,"Vibhab Nagar, Firozabad - UPPCB",13-01-2024 20:00:00,27.1594,78.3953,SO2,12,25,19
India,Uttar_Pradesh,Firozabad,"Vibhab Nagar, Firozabad - UPPCB",13-01-2024 20:00:00,27.1594,78.3953,CO,34,106,44
India,Uttar_Pradesh,Ghaziabad,"Indirapuram, Ghaziabad - UPPCB",13-01-2024 20:00:00,28.646233,77.358075,NH3,12,20,15
India,Uttar_Pradesh,Ghaziabad,"Sanjay Nagar, Ghaziabad - UPPCB",13-01-2024 20:00:00,28.685382,77.453839,PM10,126,441,261
India,Uttar_Pradesh,Ghaziabad,"Vasundhara, Ghaziabad - UPPCB",13-01-2024 20:00:00,28.6603346,77.3572563,SO2,1,19,8
India,Uttar_Pradesh,Ghaziabad,"Vasundhara, Ghaziabad - UPPCB",13-01-2024 20:00:00,28.6603346,77.3572563,CO,8,155,105
India,Uttar_Pradesh,Greater Noida,"Knowledge Park - III, Greater Noida - UPPCB",13-01-2024 20:00:00,28.47272,77.482000,NH3,7,12,9
India,Uttar_Pradesh,Hapur,"Anand Vihar, Hapur - UPPCB",13-01-2024 20:00:00,28.725645,77.749675,NO2,21,121,43
India,Uttar_Pradesh,Kanpur,"FTI Kidwai Nagar, Kanpur - UPPCB",13-01-2024 20:00:00,26.428282,80.327067,NH3,4,7,5
India,Uttar_Pradesh,Kanpur,"FTI Kidwai Nagar, Kanpur - UPPCB",13-01-2024 20:00:00,26.428282,80.327067,CO,68,102,85
India,Uttar_Pradesh,Kanpur,"NSI Kalyanpur, Kanpur - UPPCB",13-01-2024 20:00:00,26.509954,80.249612,PM10,106,263,166
India,Uttar_Pradesh,Kanpur,"NSI Kalyanpur, Kanpur - UPPCB",13-01-2024 20:00:00,26.509954,80.249612,NH3,2,3,3
India,Uttar_Pradesh,Kanpur,"NSI Kalyanpur, Kanpur - UPPCB",13-01-2024 20:00:00,26.509954,80.249612,SO2,23,23,23
India,Uttar_Pradesh,Kanpur,"Nehru Nagar, Kanpur - UPPCB",13-01-2024 20:00:00,26.4703136,80.3229863,NO2,5,130,52
India,Uttar_Pradesh,Kanpur,"Nehru Nagar, Kanpur - UPPCB",13-01-2024 20:00:00,26.4703136,80.3229863,OZONE,7,98,59
India,Uttar_Pradesh,Khurja,"Kalindi Kunj, Khurja - UPPCB",13-01-2024 20:00:00,28.2348927,77.8683002,PM10,7,172,89
India,Uttar_Pradesh,Khurja,"Kalindi Kunj, Khurja - UPPCB",13-01-2024 20:00:00,28.2348927,77.8683002,CO,46,78,71
India,Uttar_Pradesh,Lucknow,"B R Ambedkar University, Lucknow - UPPCB",13-01-2024 20:00:00,26.766433,80.927299,NO2,11,12,12
India,Uttar_Pradesh,Lucknow,"Gomti Nagar, Lucknow - UPPCB",13-01-2024 20:00:00,26.868120,81.005119,SO2,4,20,10
India,Uttar_Pradesh,Lucknow,"Gomti Nagar, Lucknow - UPPCB",13-01-2024 20:00:00,26.868120,81.005119,OZONE,43,59,56
India,Uttar_Pradesh,Lucknow,"Kendriya Vidyalaya, Lucknow - CPCB",13-01-2024 20:00:00,26.906111,80.948222,OZONE,6,46,37
India,Uttar_Pradesh,Lucknow,"Kukrail Picnic Spot-1, Lucknow - UPPCB",13-01-2024 20:00:00,26.90723,80.98579,NO2,8,9,8
India,Uttar_Pradesh,Lucknow,"Lalbagh, Lucknow - CPCB",13-01-2024 20:00:00,26.8458805,80.9365541,NO2,29,103,55
India,Uttar_Pradesh,Lucknow,"Lalbagh, Lucknow - CPCB",13-01-2024 20:00:00,26.8458805,80.9365541,NH3,12,14,13
India,Uttar_Pradesh,Lucknow,"Talkatora District Industries Center, Lucknow - CPCB",13-01-2024 20:00:00,26.83399722,80.8917361,CO,3,79,34
India,Uttar_Pradesh,Meerut,"Ganga Nagar, Meerut - UPPCB",13-01-2024 20:00:00,28.999264,77.7590354,PM2.5,300,412,346
India,Uttar_Pradesh,Meerut,"Jai Bhim Nagar, Meerut - UPPCB",13-01-2024 20:00:00,28.9535882,77.7622941,PM2.5,168,401,279
India,Uttar_Pradesh,Meerut,"Pallavpuram Phase 2, Meerut - UPPCB",13-01-2024 20:00:00,29.063510,77.709723,SO2,1,6,4
India,Uttar_Pradesh,Meerut,"Pallavpuram Phase 2, Meerut - UPPCB",13-01-2024 20:00:00,29.063510,77.709723,OZONE,11,20,15
India,Uttar_Pradesh,Moradabad,"Buddhi Vihar, Moradabad - UPPCB",13-01-2024 20:00:00,28.83526,78.74460,SO2,14,21,16
India,Uttar_Pradesh,Moradabad,"Buddhi Vihar, Moradabad - UPPCB",13-01-2024 20:00:00,28.83526,78.74460,OZONE,13,16,15
India,Uttar_Pradesh,Moradabad,"Eco Herbal Park, Moradabad - UPPCB",13-01-2024 20:00:00,28.840739,78.697531,NH3,7,67,12
India,Uttar_Pradesh,Moradabad,"Employment Office, Moradabad - UPPCB",13-01-2024 20:00:00,28.88528,78.73880,PM2.5,75,214,131
India,Uttar_Pradesh,Moradabad,"Employment Office, Moradabad - UPPCB",13-01-2024 20:00:00,28.88528,78.73880,NO2,25,26,26
India,Uttar_Pradesh,Moradabad,"Employment Office, Moradabad - UPPCB",13-01-2024 20:00:00,28.88528,78.73880,SO2,23,25,24
India,Uttar_Pradesh,Moradabad,"Kashiram Nagar, Moradabad - UPPCB",13-01-2024 20:00:00,28.849399,78.742362,PM2.5,54,298,133
India,Uttar_Pradesh,Moradabad,"Transport Nagar, Moradabad - UPPCB",13-01-2024 20:00:00,28.802625,78.753728,PM10,55,172,110
India,Uttar_Pradesh,Noida,"Sector - 125, Noida - UPPCB",13-01-2024 20:00:00,28.5447608,77.3231257,NH3,2,16,10
India,Uttar_Pradesh,Noida,"Sector - 125, Noida - UPPCB",13-01-2024 20:00:00,28.5447608,77.3231257,CO,46,148,101
India,Uttar_Pradesh,Noida,"Sector - 62, Noida - IMD",13-01-2024 20:00:00,28.6245479,77.3577104,NO2,27,76,48
India,Uttar_Pradesh,Noida,"Sector-1, Noida - UPPCB",13-01-2024 20:00:00,28.5898,77.3101,NO2,55,174,104
India,Uttar_Pradesh,Prayagraj,"Jhunsi, Prayagraj - UPPCB",13-01-2024 20:00:00,25.425602,81.917152,SO2,30,32,31
India,Uttar_Pradesh,Prayagraj,"Nagar Nigam, Prayagraj - UPPCB",13-01-2024 20:00:00,25.44919916 ,81.82735986 ,PM2.5,47,218,91
India,Uttar_Pradesh,Prayagraj,"Nagar Nigam, Prayagraj - UPPCB",13-01-2024 20:00:00,25.44919916 ,81.82735986 ,NO2,9,9,9
India,Uttar_Pradesh,Varanasi,"Ardhali Bazar, Varanasi - UPPCB",13-01-2024 20:00:00,25.3505986,82.9083074,PM10,48,120,70
India,Uttar_Pradesh,Varanasi,"Ardhali Bazar, Varanasi - UPPCB",13-01-2024 20:00:00,25.3505986,82.9083074,OZONE,17,31,18
India,Uttar_Pradesh,Varanasi,"IESD Banaras Hindu University, Varanasi - UPPCB",13-01-2024 20:00:00,25.262326,82.995408,NO2,2,3,2
India,Uttar_Pradesh,Varanasi,"IESD Banaras Hindu University, Varanasi - UPPCB",13-01-2024 20:00:00,25.262326,82.995408,NH3,1,3,2
India,Uttar_Pradesh,Varanasi,"Maldahiya, Varanasi - UPPCB",13-01-2024 20:00:00,25.32393,82.99687,NO2,10,28,17
India,Uttar_Pradesh,Vrindavan,"Omex Eternity, Vrindavan - UPPCB",13-01-2024 20:00:00,27.5714090,77.6557570,PM2.5,43,205,81
India,Uttar_Pradesh,Vrindavan,"Omex Eternity, Vrindavan - UPPCB",13-01-2024 20:00:00,27.5714090,77.6557570,PM10,52,157,89
India,Uttar_Pradesh,Vrindavan,"Omex Eternity, Vrindavan - UPPCB",13-01-2024 20:00:00,27.5714090,77.6557570,NH3,2,4,3
India,Uttar_Pradesh,Vrindavan,"Omex Eternity, Vrindavan - UPPCB",13-01-2024 20:00:00,27.5714090,77.6557570,SO2,35,35,35
India,Uttarakhand,Dehradun,"Doon University, Dehradun - UKPCB",13-01-2024 20:00:00,30.269444,78.044167,SO2,1,2,1
India,Uttarakhand,Kashipur,"Govt. Girls Inter College, Kashipur - UKPCB",13-01-2024 20:00:00,29.2124114,78.9611753,NH3,8,11,9
India,Uttarakhand,Kashipur,"Govt. Girls Inter College, Kashipur - UKPCB",13-01-2024 20:00:00,29.2124114,78.9611753,OZONE,1,12,8
India,Uttarakhand,Rishikesh,"Shivaji Nagar, Rishikesh - UKPCB",13-01-2024 20:00:00,30.075911,78.2859547,NH3,3,4,4
India,Uttarakhand,Rishikesh,"Shivaji Nagar, Rishikesh - UKPCB",13-01-2024 20:00:00,30.075911,78.2859547,OZONE,6,39,21
India,West_Bengal,Asansol,"Asansol Court Area, Asansol - WBPCB",13-01-2024 20:00:00,23.685297,86.945968,NH3,5,9,7
India,West_Bengal,Asansol,"Asansol Court Area, Asansol - WBPCB",13-01-2024 20:00:00,23.685297,86.945968,CO,16,68,30
India,West_Bengal,Barrackpore,"SVSPA Campus, Barrackpore - WBPCB",13-01-2024 20:00:00,22.7605581,88.3617589,PM10,102,239,155
India,West_Bengal,Haldia,"Priyambada Housing Estate, Haldia - WBPCB",13-01-2024 20:00:00,22.06047,88.109737,OZONE,14,29,22
India,West_Bengal,Howrah,"Belur Math, Howrah - WBPCB",13-01-2024 20:00:00,22.629801,88.352017,CO,12,58,21
India,West_Bengal,Howrah,"Ghusuri, Howrah - WBPCB",13-01-2024 20:00:00,22.611968,88.347422,PM2.5,180,333,299
India,West_Bengal,Kolkata,"Fort William, Kolkata - WBPCB",13-01-2024 20:00:00,22.556640,88.342674,PM2.5,182,330,289
India,West_Bengal,Kolkata,"Fort William, Kolkata - WBPCB",13-01-2024 20:00:00,22.556640,88.342674,SO2,4,35,14
India,West_Bengal,Kolkata,"Rabindra Bharati University, Kolkata - WBPCB",13-01-2024 20:00:00,22.627847,88.380669,NO2,18,23,22
India,West_Bengal,Kolkata,"Rabindra Bharati University, Kolkata - WBPCB",13-01-2024 20:00:00,22.627847,88.380669,SO2,2,22,7
India,West_Bengal,Kolkata,"Rabindra Sarobar, Kolkata - WBPCB",13-01-2024 20:00:00,22.51106,88.35142,SO2,7,48,22
India,West_Bengal,Siliguri,"Ward-32 Bapupara, Siliguri - WBPCB",13-01-2024 20:00:00,26.6879226,88.4152495,NH3,2,19,11
India,Andhra_Pradesh,Anantapur,"Gulzarpet, Anantapur - APPCB",13-01-2024 20:00:00,14.675886,77.593027,SO2,4,11,6
India,Andhra_Pradesh,Anantapur,"Gulzarpet, Anantapur - APPCB",13-01-2024 20:00:00,14.675886,77.593027,OZONE,10,52,50
India,Andhra_Pradesh,Chittoor,"Gangineni Cheruvu, Chittoor - APPCB",13-01-2024 20:00:00,13.204880,79.097889,PM10,47,112,78
India,Andhra_Pradesh,Chittoor,"Gangineni Cheruvu, Chittoor - APPCB",13-01-2024 20:00:00,13.204880,79.097889,SO2,1,19,8
India,Andhra_Pradesh,Rajamahendravaram,"Anand Kala Kshetram, Rajamahendravaram - APPCB",13-01-2024 20:00:00,16.9872867,81.7363176,PM2.5,255,320,300
India,Andhra_Pradesh,Tirupati,"Tirumala, Tirupati - APPCB",13-01-2024 20:00:00,13.67,79.35,PM10,77,122,96
India,Andhra_Pradesh,Tirupati,"Tirumala, Tirupati - APPCB",13-01-2024 20:00:00,13.67,79.35,CO,43,68,53
India,Andhra_Pradesh,Tirupati,"Tirumala, Tirupati - APPCB",13-01-2024 20:00:00,13.67,79.35,OZONE,13,47,35
India,Andhra_Pradesh,Tirupati,"Vaikuntapuram, Tirupati - APPCB",13-01-2024 20:00:00,13.615387,79.409230,NH3,2,4,3
India,Andhra_Pradesh,Vijayawada,"HB Colony, Vijayawada - APPCB",13-01-2024 20:00:00,16.536107,80.594233,PM2.5,49,155,70
India,Andhra_Pradesh,Vijayawada,"HB Colony, Vijayawada - APPCB",13-01-2024 20:00:00,16.536107,80.594233,PM10,43,132,68
India,Andhra_Pradesh,Vijayawada,"Kanuru, Vijayawada - APPCB",13-01-2024 20:00:00,16.486692,80.699436,NH3,1,1,1
India,Andhra_Pradesh,Vijayawada,"Rajiv Gandhi Park, Vijayawada - APPCB",13-01-2024 20:00:00,16.509717,80.612222,NH3,3,7,5
India,Andhra_Pradesh,Vijayawada,"Rajiv Gandhi Park, Vijayawada - APPCB",13-01-2024 20:00:00,16.509717,80.612222,SO2,7,20,13
India,Andhra_Pradesh,Vijayawada,"Rajiv Gandhi Park, Vijayawada - APPCB",13-01-2024 20:00:00,16.509717,80.612222,CO,48,59,58
India,Arunachal_Pradesh,Naharlagun,"Naharlagun, Naharlagun - APSPCB",13-01-2024 20:00:00,27.103358,93.679645,SO2,3,3,3
India,Assam,Byrnihat,"Central Academy for SFS, Byrnihat - PCBA",13-01-2024 20:00:00,26.071318,91.87488,SO2,15,17,16
India,Assam,Guwahati,"Pan Bazaar, Guwahati - PCBA",13-01-2024 20:00:00,26.187500,91.744194,SO2,58,91,69
India,Assam,Nagaon,"Christianpatty, Nagaon - PCBA",13-01-2024 20:00:00,26.349082,92.68449,NO2,15,30,20
India,Assam,Nalbari,"Bata Chowk, Nalbari - PCBA",13-01-2024 20:00:00,26.446912,91.439057,PM10,107,447,205
India,Assam,Nalbari,"Bata Chowk, Nalbari - PCBA",13-01-2024 20:00:00,26.446912,91.439057,NO2,49,74,55
India,Assam,Nalbari,"Bata Chowk, Nalbari - PCBA",13-01-2024 20:00:00,26.446912,91.439057,OZONE,18,21,20
India,Assam,Silchar,"Tarapur, Silchar - PCBA",13-01-2024 20:00:00,24.82827,92.79525,NH3,1,1,1
India,Assam,Silchar,"Tarapur, Silchar - PCBA",13-01-2024 20:00:00,24.82827,92.79525,SO2,5,7,6
India,Assam,Sivasagar,"Girls College, Sivasagar - PCBA",13-01-2024 20:00:00,26.987634,94.636574,PM10,39,87,55
India,Bihar,Araria,"Kharahiya Basti, Araria - BSPCB",13-01-2024 20:00:00,26.146529,87.454184,SO2,15,17,16
India,Bihar,Arrah,"New DM Office, Arrah - BSPCB",13-01-2024 20:00:00,25.5626095,84.663264,SO2,11,21,17
India,Bihar,Aurangabad,"Gurdeo Nagar, Aurangabad - BSPCB",13-01-2024 20:00:00,24.75746,84.366208,NO2,7,14,10
India,Bihar,Bettiah,"Kamalnath Nagar, Bettiah - BSPCB",13-01-2024 20:00:00,26.80365,84.51954,NH3,3,4,3
India,Bihar,Bhagalpur,"DM Office_Kachari Chowk, Bhagalpur - BSPCB",13-01-2024 20:00:00,25.251013,86.989001,NO2,22,63,41
India,Bihar,Bhagalpur,"Mayaganj, Bhagalpur - BSPCB",13-01-2024 20:00:00,25.265194,87.012947,CO,7,12,9
India,Bihar,Bihar Sharif,"D M Colony, Bihar Sharif - BSPCB",13-01-2024 20:00:00,25.204762,85.514960,PM10,125,193,152
India,Bihar,Chhapra,"Darshan Nagar, Chhapra - BSPCB",13-01-2024 20:00:00,25.7808257,84.7446768,PM2.5,163,401,311
India,Bihar,Chhapra,"Darshan Nagar, Chhapra - BSPCB",13-01-2024 20:00:00,25.7808257,84.7446768,OZONE,1,3,1
India,Bihar,Gaya,"Collectorate, Gaya - BSPCB",13-01-2024 20:00:00,24.7955,84.9994,NO2,18,21,20
India,Bihar,Gaya,"Collectorate, Gaya - BSPCB",13-01-2024 20:00:00,24.7955,84.9994,SO2,17,23,20
India,Bihar,Gaya,"Kareemganj, Gaya - BSPCB",13-01-2024 20:00:00,24.792403,84.992416,PM10,117,211,162
India,Bihar,Gaya,"Kareemganj, Gaya - BSPCB",13-01-2024 20:00:00,24.792403,84.992416,NH3,1,6,3
India,Bihar,Gaya,"Kareemganj, Gaya - BSPCB",13-01-2024 20:00:00,24.792403,84.992416,CO,2,107,45
India,Bihar,Hajipur,"Industrial Area, Hajipur - BSPCB",13-01-2024 20:00:00,25.697189,85.245900,PM2.5,161,302,221
India,Bihar,Katihar,"Mirchaibari, Katihar - BSPCB",13-01-2024 20:00:00,25.560083,87.553265,CO,27,44,30
India,Bihar,Katihar,"Mirchaibari, Katihar - BSPCB",13-01-2024 20:00:00,25.560083,87.553265,OZONE,22,28,25
India,Bihar,Kishanganj,"SDM Office_Khagra, Kishanganj - BSPCB",13-01-2024 20:00:00,26.0881305,87.93840336,OZONE,29,45,39
India,Bihar,Manguraha,"Forest Rest House, Manguraha - BSPCB",13-01-2024 20:00:00,27.308328,84.531742,NH3,2,3,3
India,Bihar,Motihari,"Gandak Colony, Motihari - BSPCB",13-01-2024 20:00:00,26.63086,84.90051,PM2.5,87,307,167
India,Bihar,Munger,"Town Hall, Munger - BSPCB",13-01-2024 20:00:00,25.376776,86.471523,NH3,1,2,2
India,Bihar,Muzaffarpur,"Buddha Colony, Muzaffarpur - BSPCB",13-01-2024 20:00:00,26.11442,85.39813,PM10,195,401,268
India,Bihar,Muzaffarpur,"Buddha Colony, Muzaffarpur - BSPCB",13-01-2024 20:00:00,26.11442,85.39813,CO,38,106,57
India,Bihar,Muzaffarpur,"MIT-Daudpur Kothi, Muzaffarpur - BSPCB",13-01-2024 20:00:00,26.1403345,85.3650192,NH3,7,8,7
India,Bihar,Muzaffarpur,"MIT-Daudpur Kothi, Muzaffarpur - BSPCB",13-01-2024 20:00:00,26.1403345,85.3650192,CO,24,134,123
India,Bihar,Patna,"DRM Office Danapur, Patna - BSPCB",13-01-2024 20:00:00,25.586562,85.043586,PM2.5,307,427,364
India,Bihar,Patna,"DRM Office Danapur, Patna - BSPCB",13-01-2024 20:00:00,25.586562,85.043586,SO2,6,8,7
India,Bihar,Patna,"Govt. High School Shikarpur, Patna - BSPCB",13-01-2024 20:00:00,25.592539,85.227158,PM10,85,252,131
India,Bihar,Patna,"Govt. High School Shikarpur, Patna - BSPCB",13-01-2024 20:00:00,25.592539,85.227158,CO,74,118,106
India,Bihar,Patna,"IGSC Planetarium Complex, Patna - BSPCB",13-01-2024 20:00:00,25.610369,85.132568,NO2,11,34,17
India,Bihar,Patna,"IGSC Planetarium Complex, Patna - BSPCB",13-01-2024 20:00:00,25.610369,85.132568,SO2,16,41,28
India,Bihar,Patna,"Rajbansi Nagar, Patna - BSPCB",13-01-2024 20:00:00,25.599486,85.113666,PM10,138,374,247
India,Bihar,Patna,"Rajbansi Nagar, Patna - BSPCB",13-01-2024 20:00:00,25.599486,85.113666,SO2,12,21,17
India,Bihar,Patna,"Samanpura, Patna - BSPCB",13-01-2024 20:00:00,25.596727,85.085624,PM10,299,500,401
India,Bihar,Patna,"Samanpura, Patna - BSPCB",13-01-2024 20:00:00,25.596727,85.085624,NO2,15,24,17
India,Bihar,Purnia,"Mariam Nagar, Purnia - BSPCB",13-01-2024 20:00:00,25.366336,87.117468,SO2,18,24,20
India,Bihar,Rajgir,"Dangi Tola, Rajgir - BSPCB",13-01-2024 20:00:00,25.03280,85.41948,NO2,6,15,9
India,Bihar,Rajgir,"Dangi Tola, Rajgir - BSPCB",13-01-2024 20:00:00,25.03280,85.41948,OZONE,22,25,23
India,Bihar,Saharsa,"Police Line, Saharsa - BSPCB",13-01-2024 20:00:00,25.892357,86.590325,PM10,165,302,205
India,Bihar,Sasaram,"Dada Peer, Sasaram - BSPCB",13-01-2024 20:00:00,24.952822,84.002396,PM10,94,165,126
India,Bihar,Sasaram,"Dada Peer, Sasaram - BSPCB",13-01-2024 20:00:00,24.952822,84.002396,NO2,2,16,7
India,Bihar,Sasaram,"Dada Peer, Sasaram - BSPCB",13-01-2024 20:00:00,24.952822,84.002396,SO2,12,23,21
India,Bihar,Siwan,"Chitragupta Nagar, Siwan - BSPCB",13-01-2024 20:00:00,26.2271665,84.3570427,PM2.5,103,309,217
India,Bihar,Siwan,"Chitragupta Nagar, Siwan - BSPCB",13-01-2024 20:00:00,26.2271665,84.3570427,PM10,96,171,133
India,Bihar,Siwan,"Chitragupta Nagar, Siwan - BSPCB",13-01-2024 20:00:00,26.2271665,84.3570427,CO,104,177,137
India,Chandigarh,Chandigarh,"Sector 22, Chandigarh - CPCC",13-01-2024 20:00:00,30.735567,76.775714,NH3,7,13,9
India,Chandigarh,Chandigarh,"Sector 22, Chandigarh - CPCC",13-01-2024 20:00:00,30.735567,76.775714,SO2,4,38,10
India,Chandigarh,Chandigarh,"Sector 22, Chandigarh - CPCC",13-01-2024 20:00:00,30.735567,76.775714,CO,69,126,92
India,Chandigarh,Chandigarh,"Sector 22, Chandigarh - CPCC",13-01-2024 20:00:00,30.735567,76.775714,OZONE,4,97,52
India,Chandigarh,Chandigarh,"Sector-53, Chandigarh - CPCC",13-01-2024 20:00:00,30.719859,76.738637,PM2.5,390,485,430
India,Chandigarh,Chandigarh,"Sector-53, Chandigarh - CPCC",13-01-2024 20:00:00,30.719859,76.738637,CO,84,125,95
India,Chhattisgarh,Bhilai,"32Bungalows, Bhilai - CECB",13-01-2024 20:00:00,21.194815,81.314770,NO2,17,31,23
India,Chhattisgarh,Bhilai,"32Bungalows, Bhilai - CECB",13-01-2024 20:00:00,21.194815,81.314770,OZONE,4,15,7
India,Chhattisgarh,Bhilai,"Civic Center, Bhilai - Bhilai Steel Plant",13-01-2024 20:00:00,21.185571,81.343175,SO2,10,33,12
India,Chhattisgarh,Bilaspur,"Mangala, Bilaspur - NTPC",13-01-2024 20:00:00,22.08815,82.13737,SO2,1,34,18
India,Chhattisgarh,Chhal,"Nawapara SECL Colony, Chhal - CECB",13-01-2024 20:00:00,22.118125,83.140608,NH3,2,2,2
India,Chhattisgarh,Chhal,"Nawapara SECL Colony, Chhal - CECB",13-01-2024 20:00:00,22.118125,83.140608,SO2,10,95,25
India,Chhattisgarh,Chhal,"Nawapara SECL Colony, Chhal - CECB",13-01-2024 20:00:00,22.118125,83.140608,OZONE,6,61,52
India,Chhattisgarh,Korba,"Rampur, Korba - CECB",13-01-2024 20:00:00,22.368195,82.746431,NH3,1,4,3
India,Chhattisgarh,Korba,"Urja Nagar, Korba - CECB",13-01-2024 20:00:00,22.348441,82.549611,PM10,15,49,26
India,Chhattisgarh,Korba,"Urja Nagar, Korba - CECB",13-01-2024 20:00:00,22.348441,82.549611,CO,18,31,23
India,Chhattisgarh,Kunjemura,"OP Jindal School, Kunjemura - CECB",13-01-2024 20:00:00,22.126650,83.483212,OZONE,3,50,40
India,Chhattisgarh,Raipur,"AIIMS, Raipur - CECB",13-01-2024 20:00:00,21.258815,81.578979,SO2,6,9,7
India,Chhattisgarh,Raipur,"AIIMS, Raipur - CECB",13-01-2024 20:00:00,21.258815,81.578979,OZONE,1,9,5
India,Chhattisgarh,Raipur,"Bhatagaon New ISBT, Raipur - CECB",13-01-2024 20:00:00,21.219665,81.630094,CO,26,111,30
India,Chhattisgarh,Raipur,"Bhatagaon New ISBT, Raipur - CECB",13-01-2024 20:00:00,21.219665,81.630094,OZONE,3,5,4
India,Chhattisgarh,Raipur,"Krishak Nagar, Raipur - CECB",13-01-2024 20:00:00,21.237755,81.705301,PM10,46,124,82
India,Chhattisgarh,Raipur,"Krishak Nagar, Raipur - CECB",13-01-2024 20:00:00,21.237755,81.705301,SO2,8,12,10
India,Chhattisgarh,Raipur,"Krishak Nagar, Raipur - CECB",13-01-2024 20:00:00,21.237755,81.705301,OZONE,2,6,4
India,Chhattisgarh,Raipur,"Siltara Phase-II, Raipur - CECB",13-01-2024 20:00:00,21.371751,81.664929,CO,12,47,19
India,Delhi,Delhi,"Alipur, Delhi - DPCC",13-01-2024 20:00:00,28.815329,77.153010,NO2,1,17,12
India,Delhi,Delhi,"Alipur, Delhi - DPCC",13-01-2024 20:00:00,28.815329,77.153010,SO2,7,11,8
India,Delhi,Delhi,"Alipur, Delhi - DPCC",13-01-2024 20:00:00,28.815329,77.153010,OZONE,3,81,47
India,Delhi,Delhi,"Ashok Vihar, Delhi - DPCC",13-01-2024 20:00:00,28.695381,77.181665,PM2.5,328,497,409
India,Delhi,Delhi,"Ashok Vihar, Delhi - DPCC",13-01-2024 20:00:00,28.695381,77.181665,PM10,214,500,406
India,Delhi,Delhi,"Ashok Vihar, Delhi - DPCC",13-01-2024 20:00:00,28.695381,77.181665,OZONE,4,24,12
India,Delhi,Delhi,"Aya Nagar, Delhi - IMD",13-01-2024 20:00:00,28.4706914,77.1099364,NO2,1,14,5
India,Delhi,Delhi,"Aya Nagar, Delhi - IMD",13-01-2024 20:00:00,28.4706914,77.1099364,CO,102,124,115
India,Delhi,Delhi,"Burari Crossing, Delhi - IMD",13-01-2024 20:00:00,28.7256504,77.2011573,NO2,6,18,14
India,Delhi,Delhi,"CRRI Mathura Road, Delhi - IMD",13-01-2024 20:00:00,28.5512005,77.2735737,PM2.5,318,500,401
India,Delhi,Delhi,"DTU, Delhi - CPCB",13-01-2024 20:00:00,28.7500499,77.1112615,CO,55,90,83
India,Delhi,Delhi,"Dr. Karni Singh Shooting Range, Delhi - DPCC",13-01-2024 20:00:00,28.498571,77.264840,PM10,257,486,391
India,Delhi,Delhi,"Dwarka-Sector 8, Delhi - DPCC ",13-01-2024 20:00:00,28.5710274,77.0719006,OZONE,11,80,45
India,Delhi,Delhi,"IGI Airport (T3), Delhi - IMD",13-01-2024 20:00:00,28.5627763,77.1180053,NO2,NA,NA,NA
India,Delhi,Delhi,"IGI Airport (T3), Delhi - IMD",13-01-2024 20:00:00,28.5627763,77.1180053,OZONE,22,55,43
India,Delhi,Delhi,"IHBAS, Dilshad Garden, Delhi - CPCB",13-01-2024 20:00:00,28.6811736,77.3025234,OZONE,10,42,24
India,Delhi,Delhi,"ITO, Delhi - CPCB",13-01-2024 20:00:00,28.628624,77.241060,NO2,30,63,46
India,Delhi,Delhi,"ITO, Delhi - CPCB",13-01-2024 20:00:00,28.628624,77.241060,CO,101,133,115
India,Delhi,Delhi,"Jahangirpuri, Delhi - DPCC",13-01-2024 20:00:00,28.732820,77.170633,PM2.5,352,500,445
India,Delhi,Delhi,"Jahangirpuri, Delhi - DPCC",13-01-2024 20:00:00,28.732820,77.170633,PM10,224,500,415
India,Delhi,Delhi,"Jahangirpuri, Delhi - DPCC",13-01-2024 20:00:00,28.732820,77.170633,NH3,8,15,11
India,Delhi,Delhi,"Jawaharlal Nehru Stadium, Delhi - DPCC",13-01-2024 20:00:00,28.580280,77.233829,CO,98,138,113
India,Delhi,Delhi,"Lodhi Road, Delhi - IITM",13-01-2024 20:00:00,28.588333,77.221667,SO2,17,29,24
India,Delhi,Delhi,"Lodhi Road, Delhi - IMD",13-01-2024 20:00:00,28.5918245,77.2273074,PM10,183,500,351
India,Delhi,Delhi,"Mandir Marg, Delhi - DPCC",13-01-2024 20:00:00,28.636429,77.201067,NO2,72,195,117
India,Delhi,Delhi,"Mundka, Delhi - DPCC",13-01-2024 20:00:00,28.684678,77.076574,PM2.5,414,500,464
India,Delhi,Delhi,"NSIT Dwarka, Delhi - CPCB",13-01-2024 20:00:00,28.60909,77.0325413,SO2,6,16,11
India,Delhi,Delhi,"Najafgarh, Delhi - DPCC",13-01-2024 20:00:00,28.570173,76.933762,NH3,7,9,8
India,Delhi,Delhi,"Najafgarh, Delhi - DPCC",13-01-2024 20:00:00,28.570173,76.933762,OZONE,2,180,89
India,Delhi,Delhi,"Narela, Delhi - DPCC",13-01-2024 20:00:00,28.822836,77.101981,PM10,162,495,377
India,Delhi,Delhi,"Nehru Nagar, Delhi - DPCC",13-01-2024 20:00:00,28.567890,77.250515,NH3,10,37,16
India,Delhi,Delhi,"Nehru Nagar, Delhi - DPCC",13-01-2024 20:00:00,28.567890,77.250515,OZONE,1,68,33
India,Delhi,Delhi,"New Moti Bagh, Delhi - MHUA",13-01-2024 20:00:00,28.57834,77.18400,PM2.5,350,500,436
India,Delhi,Delhi,"New Moti Bagh, Delhi - MHUA",13-01-2024 20:00:00,28.57834,77.18400,CO,100,130,113
India,Delhi,Delhi,"North Campus, DU, Delhi - IMD",13-01-2024 20:00:00,28.6573814,77.1585447,PM2.5,347,500,420
India,Delhi,Delhi,"Okhla Phase-2, Delhi - DPCC",13-01-2024 20:00:00,28.530785,77.271255,NH3,NA,NA,NA
India,Delhi,Delhi,"Okhla Phase-2, Delhi - DPCC",13-01-2024 20:00:00,28.530785,77.271255,OZONE,3,71,33
India,Delhi,Delhi,"Punjabi Bagh, Delhi - DPCC",13-01-2024 20:00:00,28.674045,77.131023,CO,56,110,79
India,Delhi,Delhi,"R K Puram, Delhi - DPCC",13-01-2024 20:00:00,28.563262,77.186937,PM2.5,409,500,464
India,Delhi,Delhi,"R K Puram, Delhi - DPCC",13-01-2024 20:00:00,28.563262,77.186937,SO2,17,46,28
India,Delhi,Delhi,"R K Puram, Delhi - DPCC",13-01-2024 20:00:00,28.563262,77.186937,CO,104,165,131
India,Delhi,Delhi,"Rohini, Delhi - DPCC",13-01-2024 20:00:00,28.732528,77.119920,OZONE,2,79,41
India,Delhi,Delhi,"Sirifort, Delhi - CPCB",13-01-2024 20:00:00,28.5504249,77.2159377,OZONE,29,66,44
India,Delhi,Delhi,"Sonia Vihar, Delhi - DPCC",13-01-2024 20:00:00,28.710508,77.249485,SO2,4,9,6
India,Delhi,Delhi,"Sri Aurobindo Marg, Delhi - DPCC",13-01-2024 20:00:00,28.531346,77.190156,PM2.5,353,500,420
India,Delhi,Delhi,"Vivek Vihar, Delhi - DPCC",13-01-2024 20:00:00,28.672342,77.315260,NO2,48,142,90
India,Delhi,Delhi,"Wazirpur, Delhi - DPCC",13-01-2024 20:00:00,28.699793,77.165453,SO2,19,42,28
India,Delhi,Delhi,"Wazirpur, Delhi - DPCC",13-01-2024 20:00:00,28.699793,77.165453,CO,40,112,79
India,Gujarat,Ahmedabad,"Gyaspur, Ahmedabad - IITM",13-01-2024 20:00:00,22.977134,72.553024,NO2,11,12,12
India,Gujarat,Ahmedabad,"Gyaspur, Ahmedabad - IITM",13-01-2024 20:00:00,22.977134,72.553024,SO2,8,9,8
India,Gujarat,Ahmedabad,"Maninagar, Ahmedabad - GPCB",13-01-2024 20:00:00,23.002657,72.591912,PM2.5,38,174,86
India,Gujarat,Ahmedabad,"Maninagar, Ahmedabad - GPCB",13-01-2024 20:00:00,23.002657,72.591912,PM10,49,144,117
India,Gujarat,Ahmedabad,"Rakhial, Ahmedabad - IITM",13-01-2024 20:00:00,23.016834,72.625775,PM2.5,77,290,149
India,Gujarat,Ahmedabad,"SAC ISRO Bopal, Ahmedabad - IITM",13-01-2024 20:00:00,23.041137,72.456691,SO2,6,7,7
India,Gujarat,Ahmedabad,"SAC ISRO Bopal, Ahmedabad - IITM",13-01-2024 20:00:00,23.041137,72.456691,OZONE,16,17,16
India,Gujarat,Ahmedabad,"SVPI Airport Hansol, Ahmedabad - IITM",13-01-2024 20:00:00,23.076793,72.627874,PM10,53,125,94
India,Gujarat,Ahmedabad,"SVPI Airport Hansol, Ahmedabad - IITM",13-01-2024 20:00:00,23.076793,72.627874,NO2,15,16,15
India,Gujarat,Ahmedabad,"SVPI Airport Hansol, Ahmedabad - IITM",13-01-2024 20:00:00,23.076793,72.627874,NH3,4,4,4
India,Gujarat,Ankleshwar,"GIDC, Ankleshwar - GPCB",13-01-2024 20:00:00,21.613267,73.010555,SO2,18,116,53
India,Gujarat,Gandhinagar,"GIFT City, Gandhinagar - IITM",13-01-2024 20:00:00,23.163798,72.677768,NO2,6,8,7
India,Gujarat,Gandhinagar,"GIFT City, Gandhinagar - IITM",13-01-2024 20:00:00,23.163798,72.677768,OZONE,1,30,23
India,Gujarat,Gandhinagar,"IIPHG Lekawada, Gandhinagar - IITM",13-01-2024 20:00:00,23.243639,72.68994,NO2,14,15,15
India,Gujarat,Surat,"Science Center, Surat - SMC",13-01-2024 20:00:00,21.170046,72.795405,PM2.5,45,103,76
India,Gujarat,Surat,"Science Center, Surat - SMC",13-01-2024 20:00:00,21.170046,72.795405,SO2,14,17,15
India,Gujarat,Vapi,"Phase-1 GIDC, Vapi - GPCB",13-01-2024 20:00:00,20.362421,72.918013,SO2,50,54,50
India,Gujarat,Vatva,"Phase-4 GIDC, Vatva - GPCB",13-01-2024 20:00:00,22.969611,72.643500,PM2.5,53,108,84
India,Gujarat,Vatva,"Phase-4 GIDC, Vatva - GPCB",13-01-2024 20:00:00,22.969611,72.643500,NO2,29,149,87
India,Gujarat,Vatva,"Phase-4 GIDC, Vatva - GPCB",13-01-2024 20:00:00,22.969611,72.643500,OZONE,5,39,28
India,Haryana,Ambala,"Patti Mehar, Ambala - HSPCB",13-01-2024 20:00:00,30.379589,76.778328,NO2,NA,NA,NA
India,Haryana,Bhiwani,"H.B. Colony, Bhiwani - HSPCB",13-01-2024 20:00:00,28.806223,76.141105,OZONE,10,21,18
India,Haryana,Charkhi Dadri,"Mini Secretariat, Charkhi Dadri - HSPCB",13-01-2024 20:00:00,28.593883,76.270653,PM10,91,217,139
India,Haryana,Dharuhera,"Municipal Corporation Office, Dharuhera -  HSPCB",13-01-2024 20:00:00,28.206800,76.799700,OZONE,1,77,46
India,Haryana,Faridabad,"New Industrial Town, Faridabad - HSPCB",13-01-2024 20:00:00,28.39072,77.30059,NO2,3,23,12
India,Haryana,Faridabad,"New Industrial Town, Faridabad - HSPCB",13-01-2024 20:00:00,28.39072,77.30059,CO,48,98,78
India,Haryana,Faridabad,"Sector 11, Faridabad - HSPCB",13-01-2024 20:00:00,28.376058,77.315741,SO2,4,16,9
India,Haryana,Faridabad,"Sector 30, Faridabad - HSPCB",13-01-2024 20:00:00,28.4417,77.3217,PM10,135,149,144
India,Haryana,Faridabad,"Sector 30, Faridabad - HSPCB",13-01-2024 20:00:00,28.4417,77.3217,SO2,3,4,3
India,Haryana,Gurugram,"Sector-51, Gurugram - HSPCB",13-01-2024 20:00:00,28.4227,77.0667,OZONE,27,67,56
India,Haryana,Gurugram,"Teri Gram, Gurugram - HSPCB",13-01-2024 20:00:00,28.4275,77.1465,PM10,172,421,308
India,Haryana,Gurugram,"Teri Gram, Gurugram - HSPCB",13-01-2024 20:00:00,28.4275,77.1465,NO2,10,74,36
India,Haryana,Gurugram,"Vikas Sadan, Gurugram - HSPCB",13-01-2024 20:00:00,28.4501238,77.0263051,PM2.5,98,417,302
India,Haryana,Hisar,"Urban Estate-II, Hisar - HSPCB",13-01-2024 20:00:00,29.140560,75.744941,NO2,7,10,9
India,Haryana,Hisar,"Urban Estate-II, Hisar - HSPCB",13-01-2024 20:00:00,29.140560,75.744941,CO,100,121,106
India,Haryana,Jind,"Police Lines, Jind - HSPCB",13-01-2024 20:00:00,29.307814,76.337619,NO2,8,17,12
India,Haryana,Jind,"Police Lines, Jind - HSPCB",13-01-2024 20:00:00,29.307814,76.337619,OZONE,1,10,7
India,Haryana,Kaithal,"Rishi Nagar, Kaithal - HSPCB",13-01-2024 20:00:00,29.8006,76.4155,NO2,23,26,25
India,Haryana,Karnal,"Sector-12, Karnal - HSPCB",13-01-2024 20:00:00,29.695300,77.002700,PM2.5,171,304,224
India,Haryana,Kurukshetra,"Sector-7, Kurukshetra - HSPCB",13-01-2024 20:00:00,29.966942,76.875879,PM2.5,99,245,184
India,Haryana,Kurukshetra,"Sector-7, Kurukshetra - HSPCB",13-01-2024 20:00:00,29.966942,76.875879,NO2,10,38,11
India,Haryana,Kurukshetra,"Sector-7, Kurukshetra - HSPCB",13-01-2024 20:00:00,29.966942,76.875879,OZONE,5,28,18
India,Haryana,Manesar,"Sector-2 IMT, Manesar - HSPCB",13-01-2024 20:00:00,28.360699,76.936090,NO2,20,28,25
India,Haryana,Narnaul,"Shastri Nagar, Narnaul - HSPCB",13-01-2024 20:00:00,28.060249,76.113115,PM2.5,53,317,131
India,Haryana,Narnaul,"Shastri Nagar, Narnaul - HSPCB",13-01-2024 20:00:00,28.060249,76.113115,NH3,5,15,11
India,Haryana,Palwal,"Shyam Nagar, Palwal - HSPCB",13-01-2024 20:00:00,28.1485564,77.3320667,NO2,5,5,5
India,Haryana,Palwal,"Shyam Nagar, Palwal - HSPCB",13-01-2024 20:00:00,28.1485564,77.3320667,SO2,1,20,10
India,Haryana,Panchkula,"Sector-6, Panchkula - HSPCB ",13-01-2024 20:00:00,30.7057778,76.8531805555555,PM2.5,219,367,299
India,Haryana,Panchkula,"Sector-6, Panchkula - HSPCB ",13-01-2024 20:00:00,30.7057778,76.8531805555555,OZONE,35,60,52
India,Haryana,Panipat,"Sector-18, Panipat - HSPCB",13-01-2024 20:00:00,29.497973,76.993331,PM2.5,127,140,135
India,Haryana,Panipat,"Sector-18, Panipat - HSPCB",13-01-2024 20:00:00,29.497973,76.993331,NO2,28,32,30
India,Haryana,Rohtak,"MD University, Rohtak - HSPCB",13-01-2024 20:00:00,28.52123,76.37138,PM2.5,136,322,242
India,Haryana,Sirsa,"F-Block, Sirsa - HSPCB",13-01-2024 20:00:00,29.536400,75.015800,PM2.5,60,176,107
India,Haryana,Sirsa,"F-Block, Sirsa - HSPCB",13-01-2024 20:00:00,29.536400,75.015800,NO2,10,10,10
India,Haryana,Sirsa,"F-Block, Sirsa - HSPCB",13-01-2024 20:00:00,29.536400,75.015800,CO,64,80,68
India,Haryana,Sonipat,"Murthal, Sonipat - HSPCB",13-01-2024 20:00:00,29.027200,77.062100,PM2.5,162,344,292
India,Haryana,Sonipat,"Murthal, Sonipat - HSPCB",13-01-2024 20:00:00,29.027200,77.062100,NH3,5,10,9
India,Haryana,Yamuna Nagar,"Gobind Pura, Yamuna Nagar - HSPCB",13-01-2024 20:00:00,30.1480566,77.2893471,PM10,91,368,152
India,Haryana,Yamuna Nagar,"Gobind Pura, Yamuna Nagar - HSPCB",13-01-2024 20:00:00,30.1480566,77.2893471,CO,12,115,73
India,Himachal Pradesh,Baddi,"HIMUDA Complex Phase-1, Baddi - HPPCB",13-01-2024 20:00:00,30.943887,76.801991,PM2.5,353,500,418
India,Himachal Pradesh,Baddi,"HIMUDA Complex Phase-1, Baddi - HPPCB",13-01-2024 20:00:00,30.943887,76.801991,CO,64,111,81
India,Jharkhand,Dhanbad,"Kalakusuma, Dhanbad - DMC",13-01-2024 20:00:00,23.811548,86.481238,PM2.5,8,136,47
India,Jharkhand,Dhanbad,"Kalakusuma, Dhanbad - DMC",13-01-2024 20:00:00,23.811548,86.481238,PM10,50,162,104
India,Jharkhand,Dhanbad,"Kalakusuma, Dhanbad - DMC",13-01-2024 20:00:00,23.811548,86.481238,CO,105,114,109
India,Jharkhand,Dhanbad,"Kalakusuma, Dhanbad - DMC",13-01-2024 20:00:00,23.811548,86.481238,OZONE,24,42,35
India,Jharkhand,Dhanbad,"Sardar Patel Nagar, Dhanbad - JSPCB",13-01-2024 20:00:00,23.80569,86.44268,NO2,125,196,151
India,Jharkhand,Pathardih,"Mohalbani Ghat, Pathardih - DMC",13-01-2024 20:00:00,23.669880,86.411725,CO,6,6,6
India,Karnataka,Bagalkot,"Vidayagiri, Bagalkot - KSPCB",13-01-2024 20:00:00,16.172806,75.659694,PM2.5,24,36,35
India,Karnataka,Belgaum,"Ramteerth Nagar, Belgaum - KSPCB",13-01-2024 20:00:00,15.888653,74.541751,PM10,54,168,76
India,Karnataka,Bengaluru,"BTM Layout, Bengaluru - CPCB",13-01-2024 20:00:00,12.9135218,77.5950804,NH3,3,3,3
India,Karnataka,Bengaluru,"Bapuji Nagar, Bengaluru - KSPCB",13-01-2024 20:00:00,12.951913,77.539784,PM2.5,116,211,154
India,Karnataka,Bengaluru,"Hebbal, Bengaluru - KSPCB",13-01-2024 20:00:00,13.029152,77.585901,CO,NA,NA,NA
India,Karnataka,Bengaluru,"Hombegowda Nagar, Bengaluru - KSPCB",13-01-2024 20:00:00,12.938539,77.590100,PM2.5,47,75,63
India,Karnataka,Bengaluru,"Hombegowda Nagar, Bengaluru - KSPCB",13-01-2024 20:00:00,12.938539,77.590100,OZONE,4,6,5
India,Karnataka,Bengaluru,"Jayanagar 5th Block, Bengaluru - KSPCB",13-01-2024 20:00:00,12.920984,77.584908,NO2,10,13,11
India,Karnataka,Bengaluru,"Jayanagar 5th Block, Bengaluru - KSPCB",13-01-2024 20:00:00,12.920984,77.584908,CO,6,39,26
India,Karnataka,Bengaluru,"Kasturi Nagar, Bengaluru - KSPCB",13-01-2024 20:00:00,13.003872,77.664217,PM2.5,15,227,124
India,Karnataka,Bengaluru,"Kasturi Nagar, Bengaluru - KSPCB",13-01-2024 20:00:00,13.003872,77.664217,NO2,16,17,17
India,Karnataka,Bengaluru,"Kasturi Nagar, Bengaluru - KSPCB",13-01-2024 20:00:00,13.003872,77.664217,SO2,9,10,10
India,Karnataka,Bengaluru,"RVCE-Mailasandra, Bengaluru - KSPCB",13-01-2024 20:00:00,12.921418,77.502466,SO2,4,5,4
India,Karnataka,Bengaluru,"Sanegurava Halli, Bengaluru - KSPCB",13-01-2024 20:00:00,12.990328,77.5431385,PM10,26,43,32
India,Karnataka,Bengaluru,"Shivapura_Peenya, Bengaluru - KSPCB",13-01-2024 20:00:00,13.0246342,77.5080115,PM2.5,NA,NA,NA
India,Karnataka,Bengaluru,"Shivapura_Peenya, Bengaluru - KSPCB",13-01-2024 20:00:00,13.0246342,77.5080115,PM10,57,121,95
India,Karnataka,Bengaluru,"Silk Board, Bengaluru - KSPCB",13-01-2024 20:00:00,12.917348,77.622813,NO2,15,27,19
India,Karnataka,Bidar,"Naubad, Bidar - KSPCB",13-01-2024 20:00:00,17.930306,77.482194,PM10,103,123,109
India,Karnataka,Bidar,"Naubad, Bidar - KSPCB",13-01-2024 20:00:00,17.930306,77.482194,SO2,15,25,17
India,Karnataka,Chamarajanagar,"Urban, Chamarajanagar - KSPCB",13-01-2024 20:00:00,11.55358,76.55521,PM2.5,20,23,22
India,Karnataka,Chamarajanagar,"Urban, Chamarajanagar - KSPCB",13-01-2024 20:00:00,11.55358,76.55521,PM10,33,37,35
India,Karnataka,Chamarajanagar,"Urban, Chamarajanagar - KSPCB",13-01-2024 20:00:00,11.55358,76.55521,NO2,23,29,29
India,Karnataka,Chamarajanagar,"Urban, Chamarajanagar - KSPCB",13-01-2024 20:00:00,11.55358,76.55521,SO2,2,6,3
India,Karnataka,Chikkaballapur,"Chikkaballapur Rural, Chikkaballapur - KSPCB",13-01-2024 20:00:00,13.428828,77.731418,PM10,58,97,80
India,Karnataka,Chikkamagaluru,"Kalyana Nagara, Chikkamagaluru - KSPCB",13-01-2024 20:00:00,13.328028,75.797056,PM2.5,39,63,53
India,Karnataka,Chikkamagaluru,"Kalyana Nagara, Chikkamagaluru - KSPCB",13-01-2024 20:00:00,13.328028,75.797056,NH3,3,6,4
India,Karnataka,Gadag,"Panchal Nagar, Gadag - KSPCB",13-01-2024 20:00:00,15.411456,75.638133,PM2.5,45,92,61
India,Karnataka,Hassan,"B.Katihalli, Hassan - KSPCB",13-01-2024 20:00:00,13.008556,76.125258,NH3,3,5,3
India,Karnataka,Haveri,"Ashwini Nagar, Haveri - KSPCB",13-01-2024 20:00:00,14.791800,75.389600,NH3,3,4,3
India,Karnataka,Haveri,"Ashwini Nagar, Haveri - KSPCB",13-01-2024 20:00:00,14.791800,75.389600,CO,32,34,33
India,Karnataka,Hubballi,"Deshpande Nagar, Hubballi - KSPCB",13-01-2024 20:00:00,15.351773,75.140726,SO2,12,14,13
India,Karnataka,Hubballi,"Deshpande Nagar, Hubballi - KSPCB",13-01-2024 20:00:00,15.351773,75.140726,CO,71,102,79
India,Karnataka,Karwar,"KHB Colony, Karwar - KSPCB",13-01-2024 20:00:00,14.816666,74.141003,OZONE,21,22,21
India,Karnataka,Kolar,"Tamaka Ind. Area, Kolar - KSPCB",13-01-2024 20:00:00,13.1276288,78.1570122,PM10,50,235,110
India,Karnataka,Mangalore,"Kadri, Mangalore - KSPCB",13-01-2024 20:00:00,12.889250,74.853000,PM10,70,119,89
India,Karnataka,Udupi,"Brahmagiri, Udupi - KSPCB",13-01-2024 20:00:00,13.34194444,74.74694444,NH3,1,2,1
India,Karnataka,Vijayapura,"Ibrahimpur, Vijayapura - KSPCB",13-01-2024 20:00:00,16.802639,75.722694,PM10,38,40,39
India,Karnataka,Vijayapura,"Ibrahimpur, Vijayapura - KSPCB",13-01-2024 20:00:00,16.802639,75.722694,NO2,17,19,19
India,Karnataka,Vijayapura,"Ibrahimpur, Vijayapura - KSPCB",13-01-2024 20:00:00,16.802639,75.722694,NH3,2,2,2
India,Karnataka,Yadgir,"Collector Office, Yadgir - KSPCB",13-01-2024 20:00:00,16.7602,77.1428,PM10,87,124,104
India,Kerala,Kannur,"Thavakkara, Kannur - Kerala PCB",13-01-2024 20:00:00,11.875000,75.373200,PM2.5,45,50,47
India,Kerala,Kochi,"Vyttila, Kochi - Kerala PCB",13-01-2024 20:00:00,9.969447,76.321186,NH3,3,3,3
India,Kerala,Kochi,"Vyttila, Kochi - Kerala PCB",13-01-2024 20:00:00,9.969447,76.321186,CO,41,57,42
India,Kerala,Kollam,"Polayathode, Kollam - Kerala PCB",13-01-2024 20:00:00,8.8787,76.6073,OZONE,30,38,36
India,Kerala,Thiruvananthapuram,"Plammoodu, Thiruvananthapuram - Kerala PCB",13-01-2024 20:00:00,8.5149093,76.9435879,PM2.5,NA,NA,NA
India,Kerala,Thiruvananthapuram,"Plammoodu, Thiruvananthapuram - Kerala PCB",13-01-2024 20:00:00,8.5149093,76.9435879,NO2,13,14,13
India,Kerala,Thiruvananthapuram,"Plammoodu, Thiruvananthapuram - Kerala PCB",13-01-2024 20:00:00,8.5149093,76.9435879,SO2,1,11,6
