country,state,city,station,last_update,latitude,longitude,pollutant_id,pollutant_min,pollutant_max,pollutant_avg
India,Andhra_Pradesh,Amaravati,"Secretariat, Amaravati - APPCB",24-04-2024 04:00:00,16.5150833,80.5181667,NH3,2,4,4
India,Andhra_Pradesh,Anantapur,"Gulzarpet, Anantapur - APPCB",24-04-2024 04:00:00,14.675886,77.593027,PM2.5,24,72,46
India,Andhra_Pradesh,Anantapur,"Gulzarpet, Anantapur - APPCB",24-04-2024 04:00:00,14.675886,77.593027,NO2,NA,NA,NA
India,Andhra_Pradesh,Anantapur,"Gulzarpet, Anantapur - APPCB",24-04-2024 04:00:00,14.675886,77.593027,NH3,NA,NA,NA
India,Andhra_Pradesh,Anantapur,"Gulzarpet, Anantapur - APPCB",24-04-2024 04:00:00,14.675886,77.593027,CO,20,45,26
India,Andhra_Pradesh,Chittoor,"Gangineni Cheruvu, Chittoor - APPCB",24-04-2024 04:00:00,13.204880,79.097889,PM10,48,125,85
India,Andhra_Pradesh,Chittoor,"Gangineni Cheruvu, Chittoor - APPCB",24-04-2024 04:00:00,13.204880,79.097889,NO2,NA,NA,NA
India,Andhra_Pradesh,Kadapa,"Yerramukkapalli, Kadapa - APPCB",24-04-2024 04:00:00,14.465052,78.824187,NO2,8,9,8
India,Andhra_Pradesh,Rajamahendravaram,"Anand Kala Kshetram, Rajamahendravaram - APPCB",24-04-2024 04:00:00,16.9872867,81.7363176,PM10,15,87,47
India,Andhra_Pradesh,Rajamahendravaram,"Anand Kala Kshetram, Rajamahendravaram - APPCB",24-04-2024 04:00:00,16.9872867,81.7363176,NH3,3,4,4
India,Andhra_Pradesh,Rajamahendravaram,"Anand Kala Kshetram, Rajamahendravaram - APPCB",24-04-2024 04:00:00,16.9872867,81.7363176,SO2,11,13,12
India,Andhra_Pradesh,Tirupati,"Tirumala, Tirupati - APPCB",24-04-2024 04:00:00,13.67,79.35,PM10,38,104,66
India,Andhra_Pradesh,Tirupati,"Tirumala, Tirupati - APPCB",24-04-2024 04:00:00,13.67,79.35,SO2,2,15,7
India,Andhra_Pradesh,Tirupati,"Vaikuntapuram, Tirupati - APPCB",24-04-2024 04:00:00,13.615387,79.409230,PM2.5,13,86,45
India,Andhra_Pradesh,Vijayawada,"HB Colony, Vijayawada - APPCB",24-04-2024 04:00:00,16.536107,80.594233,NH3,4,4,4
India,Andhra_Pradesh,Vijayawada,"HB Colony, Vijayawada - APPCB",24-04-2024 04:00:00,16.536107,80.594233,CO,29,34,34
India,Andhra_Pradesh,Vijayawada,"Kanuru, Vijayawada - APPCB",24-04-2024 04:00:00,16.486692,80.699436,CO,40,62,51
India,Andhra_Pradesh,Vijayawada,"Rajiv Gandhi Park, Vijayawada - APPCB",24-04-2024 04:00:00,16.509717,80.612222,PM10,30,74,48
India,Andhra_Pradesh,Vijayawada,"Rajiv Gandhi Park, Vijayawada - APPCB",24-04-2024 04:00:00,16.509717,80.612222,NO2,34,44,39
India,Andhra_Pradesh,Visakhapatnam,"GVM Corporation, Visakhapatnam - APPCB",24-04-2024 04:00:00,17.72,83.3,NO2,34,77,52
India,Andhra_Pradesh,Visakhapatnam,"GVM Corporation, Visakhapatnam - APPCB",24-04-2024 04:00:00,17.72,83.3,SO2,7,19,13
India,Andhra_Pradesh,Visakhapatnam,"GVM Corporation, Visakhapatnam - APPCB",24-04-2024 04:00:00,17.72,83.3,CO,5,88,34
India,Arunachal_Pradesh,Naharlagun,"Naharlagun, Naharlagun - APSPCB",24-04-2024 04:00:00,27.103358,93.679645,PM10,NA,NA,NA
India,Arunachal_Pradesh,Naharlagun,"Naharlagun, Naharlagun - APSPCB",24-04-2024 04:00:00,27.103358,93.679645,CO,NA,NA,NA
India,Assam,Byrnihat,"Central Academy for SFS, Byrnihat - PCBA",24-04-2024 04:00:00,26.071318,91.87488,NH3,NA,NA,NA
India,Assam,Guwahati,"IITG, Guwahati - PCBA",24-04-2024 04:00:00,26.2028636,91.70046436,NH3,5,6,6
India,Assam,Guwahati,"IITG, Guwahati - PCBA",24-04-2024 04:00:00,26.2028636,91.70046436,SO2,11,13,12
India,Assam,Guwahati,"LGBI Airport, Guwahati - PCBA",24-04-2024 04:00:00,26.10887,91.589544,PM10,66,269,153
India,Assam,Guwahati,"LGBI Airport, Guwahati - PCBA",24-04-2024 04:00:00,26.10887,91.589544,SO2,9,11,10
India,Assam,Guwahati,"LGBI Airport, Guwahati - PCBA",24-04-2024 04:00:00,26.10887,91.589544,CO,42,80,68
India,Assam,Guwahati,"Pan Bazaar, Guwahati - PCBA",24-04-2024 04:00:00,26.187500,91.744194,PM2.5,NA,NA,NA
India,Assam,Guwahati,"Pan Bazaar, Guwahati - PCBA",24-04-2024 04:00:00,26.187500,91.744194,SO2,NA,NA,NA
India,Assam,Guwahati,"Railway Colony, Guwahati - PCBA",24-04-2024 04:00:00,26.181742,91.78063,PM10,50,280,129
India,Assam,Guwahati,"Railway Colony, Guwahati - PCBA",24-04-2024 04:00:00,26.181742,91.78063,CO,12,106,77
India,Assam,Nagaon,"Christianpatty, Nagaon - PCBA",24-04-2024 04:00:00,26.349082,92.68449,SO2,6,36,22
India,Assam,Nalbari,"Bata Chowk, Nalbari - PCBA",24-04-2024 04:00:00,26.446912,91.439057,PM2.5,37,308,133
India,Assam,Nalbari,"Bata Chowk, Nalbari - PCBA",24-04-2024 04:00:00,26.446912,91.439057,NH3,1,2,1
India,Assam,Nalbari,"Bata Chowk, Nalbari - PCBA",24-04-2024 04:00:00,26.446912,91.439057,CO,38,120,72
India,Assam,Silchar,"Tarapur, Silchar - PCBA",24-04-2024 04:00:00,24.82827,92.79525,OZONE,2,34,5
India,Assam,Sivasagar,"Girls College, Sivasagar - PCBA",24-04-2024 04:00:00,26.987634,94.636574,PM2.5,23,52,38
India,Bihar,Araria,"Kharahiya Basti, Araria - BSPCB",24-04-2024 04:00:00,26.146529,87.454184,PM10,67,306,127
India,Bihar,Arrah,"New DM Office, Arrah - BSPCB",24-04-2024 04:00:00,25.5626095,84.663264,SO2,8,35,19
India,Bihar,Aurangabad,"Gurdeo Nagar, Aurangabad - BSPCB",24-04-2024 04:00:00,24.75746,84.366208,NH3,NA,NA,NA
India,Bihar,Aurangabad,"Gurdeo Nagar, Aurangabad - BSPCB",24-04-2024 04:00:00,24.75746,84.366208,CO,NA,NA,NA
India,Bihar,Bhagalpur,"DM Office_Kachari Chowk, Bhagalpur - BSPCB",24-04-2024 04:00:00,25.251013,86.989001,NO2,NA,NA,NA
India,Bihar,Bhagalpur,"Mayaganj, Bhagalpur - BSPCB",24-04-2024 04:00:00,25.265194,87.012947,PM2.5,30,97,60
India,Bihar,Bhagalpur,"Mayaganj, Bhagalpur - BSPCB",24-04-2024 04:00:00,25.265194,87.012947,NO2,4,11,7
India,Bihar,Bhagalpur,"Mayaganj, Bhagalpur - BSPCB",24-04-2024 04:00:00,25.265194,87.012947,SO2,3,12,11
India,Bihar,Bihar Sharif,"D M Colony, Bihar Sharif - BSPCB",24-04-2024 04:00:00,25.204762,85.514960,PM10,14,98,54
India,Bihar,Gaya,"Collectorate, Gaya - BSPCB",24-04-2024 04:00:00,24.7955,84.9994,NO2,1,3,2
India,Bihar,Gaya,"Collectorate, Gaya - BSPCB",24-04-2024 04:00:00,24.7955,84.9994,SO2,5,35,16
India,Bihar,Hajipur,"Industrial Area, Hajipur - BSPCB",24-04-2024 04:00:00,25.697189,85.245900,OZONE,13,92,24
India,Bihar,Katihar,"Mirchaibari, Katihar - BSPCB",24-04-2024 04:00:00,25.560083,87.553265,PM2.5,18,68,34
India,Bihar,Kishanganj,"SDM Office_Khagra, Kishanganj - BSPCB",24-04-2024 04:00:00,26.0881305,87.93840336,NH3,9,10,9
India,Bihar,Motihari,"Gandak Colony, Motihari - BSPCB",24-04-2024 04:00:00,26.63086,84.90051,CO,9,50,30
India,Bihar,Motihari,"Gandak Colony, Motihari - BSPCB",24-04-2024 04:00:00,26.63086,84.90051,OZONE,42,209,69
India,Bihar,Munger,"Town Hall, Munger - BSPCB",24-04-2024 04:00:00,25.376776,86.471523,CO,2,110,72
India,Bihar,Muzaffarpur,"Buddha Colony, Muzaffarpur - BSPCB",24-04-2024 04:00:00,26.11442,85.39813,OZONE,10,115,28
India,Bihar,Muzaffarpur,"MIT-Daudpur Kothi, Muzaffarpur - BSPCB",24-04-2024 04:00:00,26.1403345,85.3650192,PM2.5,NA,NA,NA
India,Bihar,Muzaffarpur,"Muzaffarpur Collectorate, Muzaffarpur - BSPCB",24-04-2024 04:00:00,26.1209,85.3647,PM2.5,46,197,106
India,Bihar,Muzaffarpur,"Muzaffarpur Collectorate, Muzaffarpur - BSPCB",24-04-2024 04:00:00,26.1209,85.3647,OZONE,43,106,45
India,Bihar,Patna,"DRM Office Danapur, Patna - BSPCB",24-04-2024 04:00:00,25.586562,85.043586,PM10,83,164,121
India,Bihar,Patna,"Govt. High School Shikarpur, Patna - BSPCB",24-04-2024 04:00:00,25.592539,85.227158,SO2,9,12,10
India,Bihar,Patna,"Govt. High School Shikarpur, Patna - BSPCB",24-04-2024 04:00:00,25.592539,85.227158,CO,29,91,56
India,Bihar,Patna,"IGSC Planetarium Complex, Patna - BSPCB",24-04-2024 04:00:00,25.610369,85.132568,NO2,11,12,11
India,Bihar,Patna,"Muradpur, Patna - BSPCB",24-04-2024 04:00:00,25.619651,85.147382,CO,7,109,50
India,Bihar,Patna,"Rajbansi Nagar, Patna - BSPCB",24-04-2024 04:00:00,25.599486,85.113666,CO,23,103,62
India,Bihar,Patna,"Samanpura, Patna - BSPCB",24-04-2024 04:00:00,25.596727,85.085624,PM2.5,58,354,261
India,Bihar,Patna,"Samanpura, Patna - BSPCB",24-04-2024 04:00:00,25.596727,85.085624,NH3,13,30,19
India,Bihar,Rajgir,"Dangi Tola, Rajgir - BSPCB",24-04-2024 04:00:00,25.03280,85.41948,PM10,NA,NA,NA
India,Bihar,Saharsa,"Police Line, Saharsa - BSPCB",24-04-2024 04:00:00,25.892357,86.590325,SO2,14,17,16
India,Bihar,Sasaram,"Dada Peer, Sasaram - BSPCB",24-04-2024 04:00:00,24.952822,84.002396,SO2,16,23,21
India,Chandigarh,Chandigarh,"Sector 22, Chandigarh - CPCC",24-04-2024 04:00:00,30.735567,76.775714,SO2,5,22,11
India,Chandigarh,Chandigarh,"Sector 22, Chandigarh - CPCC",24-04-2024 04:00:00,30.735567,76.775714,CO,34,80,61
India,Chandigarh,Chandigarh,"Sector-25, Chandigarh - CPCC",24-04-2024 04:00:00,30.751462,76.762879,NH3,12,31,19
India,Chandigarh,Chandigarh,"Sector-53, Chandigarh - CPCC",24-04-2024 04:00:00,30.719859,76.738637,SO2,1,14,8
India,Chhattisgarh,Bhilai,"32Bungalows, Bhilai - CECB",24-04-2024 04:00:00,21.194815,81.314770,PM10,17,82,46
India,Chhattisgarh,Bhilai,"32Bungalows, Bhilai - CECB",24-04-2024 04:00:00,21.194815,81.314770,SO2,3,6,5
India,Chhattisgarh,Bhilai,"32Bungalows, Bhilai - CECB",24-04-2024 04:00:00,21.194815,81.314770,CO,16,44,30
India,Chhattisgarh,Bilaspur,"Mangala, Bilaspur - NTPC",24-04-2024 04:00:00,22.08815,82.13737,PM10,12,71,42
India,Chhattisgarh,Bilaspur,"Mangala, Bilaspur - NTPC",24-04-2024 04:00:00,22.08815,82.13737,NO2,13,17,15
India,Chhattisgarh,Chhal,"Nawapara SECL Colony, Chhal - CECB",24-04-2024 04:00:00,22.118125,83.140608,OZONE,16,92,38
India,Chhattisgarh,Korba,"Rampur, Korba - CECB",24-04-2024 04:00:00,22.368195,82.746431,PM10,27,65,43
India,Chhattisgarh,Korba,"Urja Nagar, Korba - CECB",24-04-2024 04:00:00,22.348441,82.549611,PM10,NA,NA,NA
India,Chhattisgarh,Korba,"Urja Nagar, Korba - CECB",24-04-2024 04:00:00,22.348441,82.549611,NH3,3,7,5
India,Chhattisgarh,Korba,"Urja Nagar, Korba - CECB",24-04-2024 04:00:00,22.348441,82.549611,SO2,1,2,1
India,Chhattisgarh,Raipur,"AIIMS, Raipur - CECB",24-04-2024 04:00:00,21.258815,81.578979,OZONE,1,46,8
India,Chhattisgarh,Tumidih,"OP Jindal Industrial Park, Tumidih - CECB",24-04-2024 04:00:00,22.06631475,83.33820077,PM10,15,91,48
India,Delhi,Delhi,"Alipur, Delhi - DPCC",24-04-2024 04:00:00,28.815329,77.153010,NO2,11,97,46
India,Delhi,Delhi,"Alipur, Delhi - DPCC",24-04-2024 04:00:00,28.815329,77.153010,NH3,5,10,6
India,Delhi,Delhi,"Alipur, Delhi - DPCC",24-04-2024 04:00:00,28.815329,77.153010,OZONE,1,187,30
India,Delhi,Delhi,"Anand Vihar, Delhi - DPCC",24-04-2024 04:00:00,28.647622,77.3158090,PM10,149,497,257
India,Delhi,Delhi,"Anand Vihar, Delhi - DPCC",24-04-2024 04:00:00,28.647622,77.3158090,NO2,55,140,110
India,Delhi,Delhi,"Anand Vihar, Delhi - DPCC",24-04-2024 04:00:00,28.647622,77.3158090,NH3,5,14,8
India,Delhi,Delhi,"Ashok Vihar, Delhi - DPCC",24-04-2024 04:00:00,28.695381,77.181665,NO2,13,114,64
India,Delhi,Delhi,"Ashok Vihar, Delhi - DPCC",24-04-2024 04:00:00,28.695381,77.181665,OZONE,2,81,5
India,Delhi,Delhi,"Bawana, Delhi - DPCC",24-04-2024 04:00:00,28.776200,77.051074,OZONE,2,165,17
India,Delhi,Delhi,"DTU, Delhi - CPCB",24-04-2024 04:00:00,28.7500499,77.1112615,PM2.5,98,330,198
India,Delhi,Delhi,"DTU, Delhi - CPCB",24-04-2024 04:00:00,28.7500499,77.1112615,NH3,11,16,13
India,Delhi,Delhi,"Dwarka-Sector 8, Delhi - DPCC ",24-04-2024 04:00:00,28.5710274,77.0719006,PM10,52,500,239
India,Delhi,Delhi,"Dwarka-Sector 8, Delhi - DPCC ",24-04-2024 04:00:00,28.5710274,77.0719006,NO2,19,70,39
India,Delhi,Delhi,"Dwarka-Sector 8, Delhi - DPCC ",24-04-2024 04:00:00,28.5710274,77.0719006,CO,46,112,76
India,Delhi,Delhi,"IGI Airport (T3), Delhi - IMD",24-04-2024 04:00:00,28.5627763,77.1180053,PM10,80,382,170
India,Delhi,Delhi,"IGI Airport (T3), Delhi - IMD",24-04-2024 04:00:00,28.5627763,77.1180053,NO2,6,28,12
India,Delhi,Delhi,"ITO, Delhi - CPCB",24-04-2024 04:00:00,28.628624,77.241060,NH3,2,8,4
India,Delhi,Delhi,"Jahangirpuri, Delhi - DPCC",24-04-2024 04:00:00,28.732820,77.170633,SO2,15,62,36
India,Delhi,Delhi,"Jahangirpuri, Delhi - DPCC",24-04-2024 04:00:00,28.732820,77.170633,CO,45,108,93
India,Delhi,Delhi,"Jawaharlal Nehru Stadium, Delhi - DPCC",24-04-2024 04:00:00,28.580280,77.233829,SO2,6,27,18
India,Delhi,Delhi,"Jawaharlal Nehru Stadium, Delhi - DPCC",24-04-2024 04:00:00,28.580280,77.233829,OZONE,2,262,6
India,Delhi,Delhi,"Lodhi Road, Delhi - IITM",24-04-2024 04:00:00,28.588333,77.221667,PM2.5,82,337,173
India,Delhi,Delhi,"Lodhi Road, Delhi - IITM",24-04-2024 04:00:00,28.588333,77.221667,NH3,7,10,9
India,Delhi,Delhi,"Lodhi Road, Delhi - IMD",24-04-2024 04:00:00,28.5918245,77.2273074,OZONE,1,99,7
India,Delhi,Delhi,"Mandir Marg, Delhi - DPCC",24-04-2024 04:00:00,28.636429,77.201067,PM2.5,26,246,86
India,Delhi,Delhi,"Mandir Marg, Delhi - DPCC",24-04-2024 04:00:00,28.636429,77.201067,NH3,4,8,6
India,Delhi,Delhi,"Mandir Marg, Delhi - DPCC",24-04-2024 04:00:00,28.636429,77.201067,OZONE,2,181,3
India,Delhi,Delhi,"Mundka, Delhi - DPCC",24-04-2024 04:00:00,28.684678,77.076574,PM10,33,500,251
India,Delhi,Delhi,"Mundka, Delhi - DPCC",24-04-2024 04:00:00,28.684678,77.076574,OZONE,12,104,51
India,Delhi,Delhi,"NSIT Dwarka, Delhi - CPCB",24-04-2024 04:00:00,28.60909,77.0325413,NO2,17,44,33
India,Delhi,Delhi,"NSIT Dwarka, Delhi - CPCB",24-04-2024 04:00:00,28.60909,77.0325413,CO,25,50,37
India,Delhi,Delhi,"Narela, Delhi - DPCC",24-04-2024 04:00:00,28.822836,77.101981,NH3,5,7,6
India,Delhi,Delhi,"Narela, Delhi - DPCC",24-04-2024 04:00:00,28.822836,77.101981,OZONE,4,195,20
India,Delhi,Delhi,"Nehru Nagar, Delhi - DPCC",24-04-2024 04:00:00,28.567890,77.250515,PM10,109,462,161
India,Delhi,Delhi,"Nehru Nagar, Delhi - DPCC",24-04-2024 04:00:00,28.567890,77.250515,OZONE,1,249,4
India,Delhi,Delhi,"New Moti Bagh, Delhi - MHUA",24-04-2024 04:00:00,28.57834,77.18400,CO,27,100,75
India,Delhi,Delhi,"Okhla Phase-2, Delhi - DPCC",24-04-2024 04:00:00,28.530785,77.271255,PM10,80,379,185
India,Delhi,Delhi,"Okhla Phase-2, Delhi - DPCC",24-04-2024 04:00:00,28.530785,77.271255,CO,50,114,90
India,Delhi,Delhi,"Patparganj, Delhi - DPCC",24-04-2024 04:00:00,28.623763,77.287209,PM2.5,32,150,78
India,Delhi,Delhi,"Patparganj, Delhi - DPCC",24-04-2024 04:00:00,28.623763,77.287209,NH3,6,11,9
India,Delhi,Delhi,"Patparganj, Delhi - DPCC",24-04-2024 04:00:00,28.623763,77.287209,SO2,3,6,4
India,Delhi,Delhi,"Patparganj, Delhi - DPCC",24-04-2024 04:00:00,28.623763,77.287209,OZONE,5,178,13
India,Delhi,Delhi,"Punjabi Bagh, Delhi - DPCC",24-04-2024 04:00:00,28.674045,77.131023,OZONE,3,42,4
India,Delhi,Delhi,"Pusa, Delhi - DPCC",24-04-2024 04:00:00,28.639652,77.146275,NH3,5,8,7
India,Delhi,Delhi,"Pusa, Delhi - DPCC",24-04-2024 04:00:00,28.639652,77.146275,SO2,6,28,15
India,Delhi,Delhi,"Pusa, Delhi - DPCC",24-04-2024 04:00:00,28.639652,77.146275,CO,4,75,46
India,Delhi,Delhi,"Pusa, Delhi - IMD",24-04-2024 04:00:00,28.636110,77.173332,NO2,16,48,34
India,Delhi,Delhi,"Pusa, Delhi - IMD",24-04-2024 04:00:00,28.636110,77.173332,OZONE,1,62,4
India,Delhi,Delhi,"R K Puram, Delhi - DPCC",24-04-2024 04:00:00,28.563262,77.186937,NH3,1,5,4
India,Delhi,Delhi,"Rohini, Delhi - DPCC",24-04-2024 04:00:00,28.732528,77.119920,NO2,14,108,59
India,Delhi,Delhi,"Shadipur, Delhi - CPCB",24-04-2024 04:00:00,28.6514781,77.1473105,SO2,10,32,20
India,Delhi,Delhi,"Vivek Vihar, Delhi - DPCC",24-04-2024 04:00:00,28.672342,77.315260,OZONE,1,164,17
India,Delhi,Delhi,"Wazirpur, Delhi - DPCC",24-04-2024 04:00:00,28.699793,77.165453,PM10,124,440,236
India,Gujarat,Ahmedabad,"Chandkheda, Ahmedabad - IITM",24-04-2024 04:00:00,23.107969,72.574648,NH3,NA,NA,NA
India,Gujarat,Ahmedabad,"Chandkheda, Ahmedabad - IITM",24-04-2024 04:00:00,23.107969,72.574648,CO,4,106,64
India,Gujarat,Ahmedabad,"Raikhad, Ahmedabad - IITM",24-04-2024 04:00:00,23.020509,72.579261,PM2.5,54,362,156
India,Gujarat,Ahmedabad,"Rakhial, Ahmedabad - IITM",24-04-2024 04:00:00,23.016834,72.625775,PM2.5,79,301,144
India,Gujarat,Ahmedabad,"Rakhial, Ahmedabad - IITM",24-04-2024 04:00:00,23.016834,72.625775,PM10,98,199,132
India,Gujarat,Ahmedabad,"Rakhial, Ahmedabad - IITM",24-04-2024 04:00:00,23.016834,72.625775,NO2,29,52,37
India,Gujarat,Ahmedabad,"Rakhial, Ahmedabad - IITM",24-04-2024 04:00:00,23.016834,72.625775,OZONE,4,38,26
India,Gujarat,Ahmedabad,"SAC ISRO Satellite, Ahmedabad - IITM",24-04-2024 04:00:00,23.023389,72.515201,NH3,3,4,3
India,Gujarat,Ahmedabad,"SAC ISRO Satellite, Ahmedabad - IITM",24-04-2024 04:00:00,23.023389,72.515201,CO,26,28,26
India,Gujarat,Ahmedabad,"SAC ISRO Satellite, Ahmedabad - IITM",24-04-2024 04:00:00,23.023389,72.515201,OZONE,13,21,16
India,Gujarat,Ahmedabad,"Sardar Vallabhbhai Patel Stadium, Ahmedabad - IITM",24-04-2024 04:00:00,23.043070,72.562968,NO2,35,41,40
India,Gujarat,Ahmedabad,"Sardar Vallabhbhai Patel Stadium, Ahmedabad - IITM",24-04-2024 04:00:00,23.043070,72.562968,NH3,7,9,8
India,Gujarat,Ahmedabad,"Sardar Vallabhbhai Patel Stadium, Ahmedabad - IITM",24-04-2024 04:00:00,23.043070,72.562968,SO2,6,24,13
India,Gujarat,Ankleshwar,"GIDC, Ankleshwar - GPCB",24-04-2024 04:00:00,21.613267,73.010555,PM10,50,89,67
India,Gujarat,Gandhinagar,"Sector-10, Gandhinagar - GPCB",24-04-2024 04:00:00,23.221714,72.654328,PM2.5,28,64,44
India,Gujarat,Vapi,"Phase-1 GIDC, Vapi - GPCB",24-04-2024 04:00:00,20.362421,72.918013,SO2,52,54,53
India,Gujarat,Vatva,"Phase-4 GIDC, Vatva - GPCB",24-04-2024 04:00:00,22.969611,72.643500,PM2.5,52,334,102
India,Haryana,Ambala,"Patti Mehar, Ambala - HSPCB",24-04-2024 04:00:00,30.379589,76.778328,PM2.5,2,141,59
India,Haryana,Ambala,"Patti Mehar, Ambala - HSPCB",24-04-2024 04:00:00,30.379589,76.778328,CO,30,60,43
India,Haryana,Bahadurgarh,"Arya Nagar, Bahadurgarh - HSPCB",24-04-2024 04:00:00,28.6701,76.9254,PM2.5,NA,NA,NA
India,Haryana,Ballabgarh,"Nathu Colony, Ballabgarh - HSPCB",24-04-2024 04:00:00,28.3419248,77.319699,PM2.5,99,348,168
India,Haryana,Bhiwani,"H.B. Colony, Bhiwani - HSPCB",24-04-2024 04:00:00,28.806223,76.141105,CO,2,57,22
India,Haryana,Bhiwani,"H.B. Colony, Bhiwani - HSPCB",24-04-2024 04:00:00,28.806223,76.141105,OZONE,8,55,12
India,Haryana,Charkhi Dadri,"Mini Secretariat, Charkhi Dadri - HSPCB",24-04-2024 04:00:00,28.593883,76.270653,NH3,6,8,7
India,Haryana,Charkhi Dadri,"Mini Secretariat, Charkhi Dadri - HSPCB",24-04-2024 04:00:00,28.593883,76.270653,SO2,6,38,16
India,Haryana,Charkhi Dadri,"Mini Secretariat, Charkhi Dadri - HSPCB",24-04-2024 04:00:00,28.593883,76.270653,OZONE,14,17,15
India,Haryana,Dharuhera,"Municipal Corporation Office, Dharuhera -  HSPCB",24-04-2024 04:00:00,28.206800,76.799700,PM10,83,500,167
India,Haryana,Dharuhera,"Municipal Corporation Office, Dharuhera -  HSPCB",24-04-2024 04:00:00,28.206800,76.799700,CO,12,36,24
India,Haryana,Faridabad,"New Industrial Town, Faridabad - HSPCB",24-04-2024 04:00:00,28.39072,77.30059,CO,6,38,24
India,Haryana,Faridabad,"Sector 11, Faridabad - HSPCB",24-04-2024 04:00:00,28.376058,77.315741,PM2.5,92,336,242
India,Haryana,Faridabad,"Sector- 16A, Faridabad - HSPCB",24-04-2024 04:00:00,28.4088421,77.3099081,PM2.5,NA,NA,NA
India,Haryana,Faridabad,"Sector- 16A, Faridabad - HSPCB",24-04-2024 04:00:00,28.4088421,77.3099081,SO2,NA,NA,NA
India,Haryana,Faridabad,"Sector- 16A, Faridabad - HSPCB",24-04-2024 04:00:00,28.4088421,77.3099081,OZONE,NA,NA,NA
India,Haryana,Fatehabad,"Huda Sector, Fatehabad - HSPCB",24-04-2024 04:00:00,29.503664,75.467934,PM10,52,142,90
India,Haryana,Fatehabad,"Huda Sector, Fatehabad - HSPCB",24-04-2024 04:00:00,29.503664,75.467934,NO2,29,31,30
India,Haryana,Fatehabad,"Huda Sector, Fatehabad - HSPCB",24-04-2024 04:00:00,29.503664,75.467934,NH3,9,11,10
India,Haryana,Fatehabad,"Huda Sector, Fatehabad - HSPCB",24-04-2024 04:00:00,29.503664,75.467934,OZONE,44,76,67
India,Haryana,Gurugram,"Teri Gram, Gurugram - HSPCB",24-04-2024 04:00:00,28.4275,77.1465,NO2,24,57,35
India,Haryana,Gurugram,"Teri Gram, Gurugram - HSPCB",24-04-2024 04:00:00,28.4275,77.1465,SO2,4,7,6
India,Haryana,Gurugram,"Vikas Sadan, Gurugram - HSPCB",24-04-2024 04:00:00,28.4501238,77.0263051,PM2.5,8,478,243
India,Haryana,Gurugram,"Vikas Sadan, Gurugram - HSPCB",24-04-2024 04:00:00,28.4501238,77.0263051,OZONE,8,68,13
India,Haryana,Hisar,"Urban Estate-II, Hisar - HSPCB",24-04-2024 04:00:00,29.140560,75.744941,PM2.5,34,98,62
India,Haryana,Hisar,"Urban Estate-II, Hisar - HSPCB",24-04-2024 04:00:00,29.140560,75.744941,CO,25,47,34
India,Haryana,Jind,"Police Lines, Jind - HSPCB",24-04-2024 04:00:00,29.307814,76.337619,NH3,2,5,4
India,Haryana,Jind,"Police Lines, Jind - HSPCB",24-04-2024 04:00:00,29.307814,76.337619,CO,11,102,34
India,Haryana,Kaithal,"Rishi Nagar, Kaithal - HSPCB",24-04-2024 04:00:00,29.8006,76.4155,CO,12,35,29
India,Haryana,Karnal,"Sector-12, Karnal - HSPCB",24-04-2024 04:00:00,29.695300,77.002700,PM2.5,75,146,105
India,Haryana,Karnal,"Sector-12, Karnal - HSPCB",24-04-2024 04:00:00,29.695300,77.002700,NO2,7,12,10
India,Haryana,Karnal,"Sector-12, Karnal - HSPCB",24-04-2024 04:00:00,29.695300,77.002700,OZONE,27,37,28
India,Haryana,Kurukshetra,"Sector-7, Kurukshetra - HSPCB",24-04-2024 04:00:00,29.966942,76.875879,PM10,27,252,115
India,Haryana,Kurukshetra,"Sector-7, Kurukshetra - HSPCB",24-04-2024 04:00:00,29.966942,76.875879,OZONE,7,63,21
India,Haryana,Manesar,"Sector-2 IMT, Manesar - HSPCB",24-04-2024 04:00:00,28.360699,76.936090,PM2.5,44,191,104
India,Haryana,Manesar,"Sector-2 IMT, Manesar - HSPCB",24-04-2024 04:00:00,28.360699,76.936090,CO,20,32,22
India,Haryana,Narnaul,"Shastri Nagar, Narnaul - HSPCB",24-04-2024 04:00:00,28.060249,76.113115,CO,22,40,24
India,Haryana,Narnaul,"Shastri Nagar, Narnaul - HSPCB",24-04-2024 04:00:00,28.060249,76.113115,OZONE,25,61,57
India,Haryana,Palwal,"Shyam Nagar, Palwal - HSPCB",24-04-2024 04:00:00,28.1485564,77.3320667,PM2.5,33,99,65
India,Haryana,Palwal,"Shyam Nagar, Palwal - HSPCB",24-04-2024 04:00:00,28.1485564,77.3320667,PM10,38,120,80
India,Haryana,Palwal,"Shyam Nagar, Palwal - HSPCB",24-04-2024 04:00:00,28.1485564,77.3320667,SO2,1,132,20
India,Haryana,Panchkula,"Sector-6, Panchkula - HSPCB ",24-04-2024 04:00:00,30.7057778,76.8531805555555,NO2,9,11,10
India,Haryana,Panipat,"Sector-18, Panipat - HSPCB",24-04-2024 04:00:00,29.497973,76.993331,PM2.5,91,110,97
India,Haryana,Rohtak,"MD University, Rohtak - HSPCB",24-04-2024 04:00:00,28.52123,76.37138,NO2,48,56,51
India,Haryana,Rohtak,"MD University, Rohtak - HSPCB",24-04-2024 04:00:00,28.52123,76.37138,SO2,6,8,7
India,Haryana,Sirsa,"F-Block, Sirsa - HSPCB",24-04-2024 04:00:00,29.536400,75.015800,PM2.5,42,96,58
India,Haryana,Sonipat,"Murthal, Sonipat - HSPCB",24-04-2024 04:00:00,29.027200,77.062100,PM10,98,106,100
India,Haryana,Sonipat,"Murthal, Sonipat - HSPCB",24-04-2024 04:00:00,29.027200,77.062100,CO,1,46,11
India,Haryana,Yamuna Nagar,"Gobind Pura, Yamuna Nagar - HSPCB",24-04-2024 04:00:00,30.1480566,77.2893471,CO,27,108,66
India,Himachal Pradesh,Baddi,"HIMUDA Complex Phase-1, Baddi - HPPCB",24-04-2024 04:00:00,30.943887,76.801991,SO2,8,32,16
India,Jharkhand,Dhanbad,"Kalakusuma, Dhanbad - DMC",24-04-2024 04:00:00,23.811548,86.481238,PM2.5,2,72,28
India,Jharkhand,Dhanbad,"Kalakusuma, Dhanbad - DMC",24-04-2024 04:00:00,23.811548,86.481238,CO,127,136,131
India,Jharkhand,Pathardih,"Mohalbani Ghat, Pathardih - DMC",24-04-2024 04:00:00,23.669880,86.411725,PM10,NA,NA,NA
India,Karnataka,Bagalkot,"Vidayagiri, Bagalkot - KSPCB",24-04-2024 04:00:00,16.172806,75.659694,PM2.5,25,37,36
India,Karnataka,Belgaum,"Ramteerth Nagar, Belgaum - KSPCB",24-04-2024 04:00:00,15.888653,74.541751,NO2,6,62,34
India,Karnataka,Bengaluru,"BTM Layout, Bengaluru - CPCB",24-04-2024 04:00:00,12.9135218,77.5950804,NO2,31,37,34
India,Karnataka,Bengaluru,"BTM Layout, Bengaluru - CPCB",24-04-2024 04:00:00,12.9135218,77.5950804,NH3,4,5,4
India,Karnataka,Bengaluru,"BTM Layout, Bengaluru - CPCB",24-04-2024 04:00:00,12.9135218,77.5950804,SO2,11,12,12
India,Karnataka,Bengaluru,"Hombegowda Nagar, Bengaluru - KSPCB",24-04-2024 04:00:00,12.938539,77.590100,NO2,9,21,15
India,Karnataka,Bengaluru,"Kasturi Nagar, Bengaluru - KSPCB",24-04-2024 04:00:00,13.003872,77.664217,NO2,16,17,17
India,Karnataka,Bengaluru,"Silk Board, Bengaluru - KSPCB",24-04-2024 04:00:00,12.917348,77.622813,CO,6,36,12
India,Karnataka,Chamarajanagar,"Urban, Chamarajanagar - KSPCB",24-04-2024 04:00:00,11.55358,76.55521,NH3,2,3,2
India,Karnataka,Chikkaballapur,"Chikkaballapur Rural, Chikkaballapur - KSPCB",24-04-2024 04:00:00,13.428828,77.731418,PM2.5,23,102,57
India,Karnataka,Chikkaballapur,"Chikkaballapur Rural, Chikkaballapur - KSPCB",24-04-2024 04:00:00,13.428828,77.731418,NO2,6,13,10
India,Karnataka,Chikkamagaluru,"Kalyana Nagara, Chikkamagaluru - KSPCB",24-04-2024 04:00:00,13.328028,75.797056,PM2.5,38,67,51
India,Karnataka,Davanagere,"Devaraj Urs Badavane, Davanagere - KSPCB",24-04-2024 04:00:00,14.475800,75.905200,PM2.5,NA,NA,NA
India,Karnataka,Davanagere,"Devaraj Urs Badavane, Davanagere - KSPCB",24-04-2024 04:00:00,14.475800,75.905200,NH3,1,28,3
India,Karnataka,Dharwad,"Kalabhavan, Dharwad - KSPCB",24-04-2024 04:00:00,15.459706,75.008381,NH3,3,3,3
India,Karnataka,Gadag,"Panchal Nagar, Gadag - KSPCB",24-04-2024 04:00:00,15.411456,75.638133,PM2.5,23,51,32
India,Karnataka,Haveri,"Ashwini Nagar, Haveri - KSPCB",24-04-2024 04:00:00,14.791800,75.389600,CO,36,38,38
India,Karnataka,Hubballi,"Lingaraj Nagar, Hubballi - KSPCB",24-04-2024 04:00:00,15.3714823,75.1160168,NO2,NA,NA,NA
India,Karnataka,Hubballi,"Lingaraj Nagar, Hubballi - KSPCB",24-04-2024 04:00:00,15.3714823,75.1160168,CO,2,26,18
India,Karnataka,Kalaburagi,"Lal Bahadur Shastri Nagar, Kalaburagi - KSPCB",24-04-2024 04:00:00,17.321993,76.822628,PM10,12,171,46
India,Karnataka,Kalaburagi,"Lal Bahadur Shastri Nagar, Kalaburagi - KSPCB",24-04-2024 04:00:00,17.321993,76.822628,NO2,11,12,12
India,Karnataka,Kalaburagi,"Lal Bahadur Shastri Nagar, Kalaburagi - KSPCB",24-04-2024 04:00:00,17.321993,76.822628,SO2,18,21,20
India,Karnataka,Kolar,"Tamaka Ind. Area, Kolar - KSPCB",24-04-2024 04:00:00,13.1276288,78.1570122,NO2,NA,NA,NA
India,Karnataka,Koppal,"Diwator Nagar, Koppal - KSPCB",24-04-2024 04:00:00,15.347630,76.181767,PM10,22,92,43
India,Karnataka,Koppal,"Diwator Nagar, Koppal - KSPCB",24-04-2024 04:00:00,15.347630,76.181767,SO2,27,28,28
India,Karnataka,Koppal,"Diwator Nagar, Koppal - KSPCB",24-04-2024 04:00:00,15.347630,76.181767,CO,92,132,92
India,Karnataka,Koppal,"Diwator Nagar, Koppal - KSPCB",24-04-2024 04:00:00,15.347630,76.181767,OZONE,50,147,58
India,Karnataka,Madikeri,"Stuart Hill, Madikeri - KSPCB",24-04-2024 04:00:00,12.415911,75.735050,OZONE,21,52,26
India,Karnataka,Mysuru,"Hebbal 1st Stage, Mysuru - KSPCB",24-04-2024 04:00:00,12.21041,76.37376,PM2.5,21,56,39
India,Karnataka,Mysuru,"Hebbal 1st Stage, Mysuru - KSPCB",24-04-2024 04:00:00,12.21041,76.37376,SO2,1,3,2
India,Karnataka,Raichur,"Haji Colony, Raichur - KSPCB",24-04-2024 04:00:00,16.208139,77.348417,PM2.5,NA,NA,NA
India,Karnataka,Raichur,"Haji Colony, Raichur - KSPCB",24-04-2024 04:00:00,16.208139,77.348417,PM10,NA,NA,NA
India,Karnataka,Raichur,"Haji Colony, Raichur - KSPCB",24-04-2024 04:00:00,16.208139,77.348417,SO2,NA,NA,NA
India,Karnataka,Raichur,"Haji Colony, Raichur - KSPCB",24-04-2024 04:00:00,16.208139,77.348417,CO,86,111,102
India,Karnataka,Ramanagara,"Vijay Nagar, Ramanagara - KSPCB",24-04-2024 04:00:00,12.733409,77.298051,PM10,22,62,40
India,Karnataka,Yadgir,"Collector Office, Yadgir - KSPCB",24-04-2024 04:00:00,16.7602,77.1428,OZONE,18,20,19
India,Kerala,Eloor,"Udyogamandal, Eloor - Kerala PCB",24-04-2024 04:00:00,10.073232,76.302765,PM10,36,47,41
India,Kerala,Kannur,"Thavakkara, Kannur - Kerala PCB",24-04-2024 04:00:00,11.875000,75.373200,NO2,6,7,6
India,Kerala,Kollam,"Polayathode, Kollam - Kerala PCB",24-04-2024 04:00:00,8.8787,76.6073,PM10,59,107,84
India,Kerala,Kollam,"Polayathode, Kollam - Kerala PCB",24-04-2024 04:00:00,8.8787,76.6073,OZONE,32,39,33
India,Kerala,Thiruvananthapuram,"Kariavattom, Thiruvananthapuram - Kerala PCB",24-04-2024 04:00:00,8.563700,76.886500,PM2.5,77,90,82
India,Kerala,Thiruvananthapuram,"Kariavattom, Thiruvananthapuram - Kerala PCB",24-04-2024 04:00:00,8.563700,76.886500,PM10,81,94,86
India,Kerala,Thiruvananthapuram,"Kariavattom, Thiruvananthapuram - Kerala PCB",24-04-2024 04:00:00,8.563700,76.886500,OZONE,28,33,30
India,Kerala,Thiruvananthapuram,"Plammoodu, Thiruvananthapuram - Kerala PCB",24-04-2024 04:00:00,8.5149093,76.9435879,PM2.5,12,43,27
India,Kerala,Thiruvananthapuram,"Plammoodu, Thiruvananthapuram - Kerala PCB",24-04-2024 04:00:00,8.5149093,76.9435879,SO2,4,17,10
India,Kerala,Thiruvananthapuram,"Plammoodu, Thiruvananthapuram - Kerala PCB",24-04-2024 04:00:00,8.5149093,76.9435879,CO,8,33,15
India,Kerala,Thrissur,"Corporation Ground, Thrissur - Kerala PCB",24-04-2024 04:00:00,10.532400,76.215900,NO2,7,8,7
India,Madhya Pradesh,Bhopal,"Idgah Hills, Bhopal - MPPCB",24-04-2024 04:00:00,23.264759,77.381568,NH3,4,6,5
India,Madhya Pradesh,Bhopal,"Idgah Hills, Bhopal - MPPCB",24-04-2024 04:00:00,23.264759,77.381568,SO2,14,24,17
India,Madhya Pradesh,Bhopal,"Paryavaran Parisar, Bhopal - MPPCB",24-04-2024 04:00:00,23.210494,77.425409,OZONE,7,85,26
India,Madhya Pradesh,Bhopal,"T T Nagar, Bhopal - MPPCB",24-04-2024 04:00:00,23.233584,77.400574,NO2,6,74,24
India,Madhya Pradesh,Bhopal,"T T Nagar, Bhopal - MPPCB",24-04-2024 04:00:00,23.233584,77.400574,SO2,15,34,23
India,Madhya Pradesh,Bhopal,"T T Nagar, Bhopal - MPPCB",24-04-2024 04:00:00,23.233584,77.400574,CO,18,96,56
India,Madhya Pradesh,Bhopal,"T T Nagar, Bhopal - MPPCB",24-04-2024 04:00:00,23.233584,77.400574,OZONE,12,72,33
India,Madhya Pradesh,Gwalior,"City Center, Gwalior - MPPCB",24-04-2024 04:00:00,26.203442,78.193251,PM10,63,219,104
India,Madhya Pradesh,Gwalior,"City Center, Gwalior - MPPCB",24-04-2024 04:00:00,26.203442,78.193251,NH3,1,7,4
India,Madhya Pradesh,Gwalior,"City Center, Gwalior - MPPCB",24-04-2024 04:00:00,26.203442,78.193251,SO2,1,30,17
India,Madhya Pradesh,Gwalior,"Deen Dayal Nagar, Gwalior - MPPCB",24-04-2024 04:00:00,26.259242,78.216432,NO2,9,74,34
India,Madhya Pradesh,Gwalior,"Deen Dayal Nagar, Gwalior - MPPCB",24-04-2024 04:00:00,26.259242,78.216432,NH3,5,9,7
India,Madhya Pradesh,Gwalior,"Deen Dayal Nagar, Gwalior - MPPCB",24-04-2024 04:00:00,26.259242,78.216432,CO,22,56,44
India,Madhya Pradesh,Gwalior,"Deen Dayal Nagar, Gwalior - MPPCB",24-04-2024 04:00:00,26.259242,78.216432,OZONE,46,192,141
India,Madhya Pradesh,Gwalior,"Maharaj Bada, Gwalior - MPPCB",24-04-2024 04:00:00,26.200388,78.147714,NO2,12,128,32
India,Madhya Pradesh,Gwalior,"Maharaj Bada, Gwalior - MPPCB",24-04-2024 04:00:00,26.200388,78.147714,OZONE,30,158,92
India,Madhya Pradesh,Gwalior,"Phool Bagh, Gwalior - Mondelez Ind. Food",24-04-2024 04:00:00,26.210536,78.171,PM2.5,10,55,34
India,Madhya Pradesh,Indore,"Regional Park, Indore - IMC",24-04-2024 04:00:00,22.6780,75.8559,CO,22,39,34
India,Madhya Pradesh,Indore,"Residency Area, Indore - IMC",24-04-2024 04:00:00,22.7084,75.8815,CO,13,16,16
India,Madhya Pradesh,Jabalpur,"Govindh Bhavan Colony, Jabalpur - JMC",24-04-2024 04:00:00,23.163174,79.973061,PM10,NA,NA,NA
India,Madhya Pradesh,Jabalpur,"Gupteshwar, Jabalpur - JMC",24-04-2024 04:00:00,23.142888,79.916147,NO2,NA,NA,NA
India,Madhya Pradesh,Jabalpur,"Marhatal, Jabalpur - MPPCB",24-04-2024 04:00:00,23.168606,79.932247,NO2,6,34,18
India,Madhya Pradesh,Jabalpur,"Marhatal, Jabalpur - MPPCB",24-04-2024 04:00:00,23.168606,79.932247,SO2,7,16,12
India,Madhya Pradesh,Jabalpur,"Suhagi, Jabalpur - JMC",24-04-2024 04:00:00,23.218135,79.957770,PM10,24,76,50
India,Madhya Pradesh,Jabalpur,"Suhagi, Jabalpur - JMC",24-04-2024 04:00:00,23.218135,79.957770,NO2,39,44,41
India,Madhya Pradesh,Katni,"Gole Bazar, Katni - MPPCB",24-04-2024 04:00:00,23.50016,80.23284,NO2,28,72,42
India,Madhya Pradesh,Katni,"Gole Bazar, Katni - MPPCB",24-04-2024 04:00:00,23.50016,80.23284,NH3,2,8,6
India,Madhya Pradesh,Pithampur,"Sector-2 Industrial Area, Pithampur - MPPCB",24-04-2024 04:00:00,22.624758,75.675238,PM10,76,149,101
India,Madhya Pradesh,Pithampur,"Sector-2 Industrial Area, Pithampur - MPPCB",24-04-2024 04:00:00,22.624758,75.675238,NO2,6,18,12
India,Madhya Pradesh,Sagar,"Civil Lines, Sagar - MPPCB",24-04-2024 04:00:00,23.838586,78.759431,PM2.5,24,74,47
India,Madhya Pradesh,Sagar,"Civil Lines, Sagar - MPPCB",24-04-2024 04:00:00,23.838586,78.759431,NO2,4,59,17
India,Madhya Pradesh,Sagar,"Civil Lines, Sagar - MPPCB",24-04-2024 04:00:00,23.838586,78.759431,NH3,4,5,5
India,Madhya Pradesh,Sagar,"Deen Dayal Nagar, Sagar - MPPCB",24-04-2024 04:00:00,23.8640158,78.80289321,PM2.5,16,90,36
India,Madhya Pradesh,Sagar,"Deen Dayal Nagar, Sagar - MPPCB",24-04-2024 04:00:00,23.8640158,78.80289321,PM10,21,163,73
India,Madhya Pradesh,Satna,"Bandhavgar Colony, Satna - Birla Cement",24-04-2024 04:00:00,24.58434363,80.8549414,PM2.5,10,77,25
India,Madhya Pradesh,Satna,"Bandhavgar Colony, Satna - Birla Cement",24-04-2024 04:00:00,24.58434363,80.8549414,PM10,24,105,53
India,Madhya Pradesh,Singrauli,"Suryakiran Bhawan NCL, Singrauli - MPPCB",24-04-2024 04:00:00,24.108970,82.645580,PM2.5,40,344,110
India,Madhya Pradesh,Singrauli,"Suryakiran Bhawan NCL, Singrauli - MPPCB",24-04-2024 04:00:00,24.108970,82.645580,SO2,40,57,45
India,Madhya Pradesh,Ujjain,"Mahakaleshwar Temple, Ujjain - MPPCB",24-04-2024 04:00:00,23.182719 ,75.768218 ,NH3,5,24,12
India,Madhya Pradesh,Ujjain,"Mahakaleshwar Temple, Ujjain - MPPCB",24-04-2024 04:00:00,23.182719 ,75.768218 ,SO2,6,22,12
India,Maharashtra,Ahmednagar,"Tarakpur, Ahmednagar - MPCB",24-04-2024 04:00:00,19.10122,74.73339,PM2.5,42,136,73
India,Maharashtra,Ahmednagar,"Tarakpur, Ahmednagar - MPCB",24-04-2024 04:00:00,19.10122,74.73339,OZONE,20,144,63
India,Maharashtra,Amravati,"Shivneri Colony, Amravati - MPCB",24-04-2024 04:00:00,20.9402359,77.7895248,PM10,53,86,65
India,Maharashtra,Amravati,"Shri Shivaji Science College, Amaravati - MPCB",24-04-2024 04:00:00,20.939198,77.765701,OZONE,27,105,60
India,Maharashtra,Aurangabad,"MIDC Chilkalthana, Aurangabad - MPCB",24-04-2024 04:00:00,19.875620,75.387310,PM2.5,65,112,79
India,Maharashtra,Aurangabad,"MIDC Chilkalthana, Aurangabad - MPCB",24-04-2024 04:00:00,19.875620,75.387310,OZONE,12,79,28
India,Maharashtra,Aurangabad,"More Chowk Waluj, Aurangabad - MPCB",24-04-2024 04:00:00,19.8389439,75.244448,PM10,55,102,71
India,Maharashtra,Aurangabad,"More Chowk Waluj, Aurangabad - MPCB",24-04-2024 04:00:00,19.8389439,75.244448,SO2,1,9,7
India,Maharashtra,Belapur,"CBD Belapur, Belapur - MPCB",24-04-2024 04:00:00,19.0243902,73.0406721,OZONE,12,72,41
India,Maharashtra,Chandrapur,"Chauhan Colony, Chandrapur - MPCB",24-04-2024 04:00:00,19.962900,79.298714,NO2,14,92,32
India,Maharashtra,Chandrapur,"MIDC Khutala, Chandrapur - MPCB",24-04-2024 04:00:00,19.9775302,79.2337086,NH3,NA,NA,NA
India,Maharashtra,Chandrapur,"MIDC Khutala, Chandrapur - MPCB",24-04-2024 04:00:00,19.9775302,79.2337086,CO,18,99,55
India,Maharashtra,Dhule,"Deopur, Dhule - MPCB",24-04-2024 04:00:00,20.918946,74.776388,PM10,92,155,118
India,Maharashtra,Jalgaon,"Prabhat Colony, Jalgaon - MPCB",24-04-2024 04:00:00,21.001264,75.565602,NH3,7,13,11
India,Maharashtra,Jalna,"Old MIDC, Jalna - MPCB",24-04-2024 04:00:00,19.854616,75.905894,NO2,9,17,12
India,Maharashtra,Kalyan,"Khadakpada, Kalyan - MPCB",24-04-2024 04:00:00,19.25292,73.142019,NH3,1,1,1
India,Maharashtra,Kalyan,"Khadakpada, Kalyan - MPCB",24-04-2024 04:00:00,19.25292,73.142019,SO2,23,37,28
India,Maharashtra,Kolhapur,"Shivaji University, Kolhapur - MPCB",24-04-2024 04:00:00,16.6870449,74.2505872,NH3,4,7,5
India,Maharashtra,Latur,"Sawe Wadi, Latur - MPCB",24-04-2024 04:00:00,18.39963,76.57452,PM10,33,144,60
India,Maharashtra,Latur,"Sawe Wadi, Latur - MPCB",24-04-2024 04:00:00,18.39963,76.57452,NO2,7,197,35
India,Maharashtra,Latur,"Sawe Wadi, Latur - MPCB",24-04-2024 04:00:00,18.39963,76.57452,NH3,3,7,5
India,Maharashtra,Mahad,"Kamble Tarf Birwadi, Mahad - MPCB",24-04-2024 04:00:00,18.1023399,73.4783687,PM2.5,59,111,76
India,Maharashtra,Mahad,"Kamble Tarf Birwadi, Mahad - MPCB",24-04-2024 04:00:00,18.1023399,73.4783687,NO2,24,57,34
India,Maharashtra,Malegaon,"Mahesh Nagar, Malegaon - MPCB",24-04-2024 04:00:00,20.555712,74.529236,NH3,2,7,5
India,Maharashtra,Mumbai,"Bandra Kurla Complex, Mumbai - MPCB",24-04-2024 04:00:00,19.065931,72.862131,SO2,1,2,1
India,Maharashtra,Mumbai,"Borivali East, Mumbai - IITM",24-04-2024 04:00:00,19.23241,72.86895,CO,1,38,17
India,Maharashtra,Mumbai,"Borivali East, Mumbai - IITM",24-04-2024 04:00:00,19.23241,72.86895,OZONE,37,101,70
India,Maharashtra,Mumbai,"Borivali East, Mumbai - MPCB",24-04-2024 04:00:00,19.2243333,72.8658113,PM2.5,12,95,37
India,Maharashtra,Mumbai,"Borivali East, Mumbai - MPCB",24-04-2024 04:00:00,19.2243333,72.8658113,NO2,6,19,12
India,Maharashtra,Mumbai,"Borivali East, Mumbai - MPCB",24-04-2024 04:00:00,19.2243333,72.8658113,CO,2,60,19
India,Maharashtra,Mumbai,"Byculla, Mumbai - BMC",24-04-2024 04:00:00,18.9767,72.8380,NO2,8,15,11
India,Maharashtra,Mumbai,"Colaba, Mumbai - MPCB",24-04-2024 04:00:00,18.910000,72.820000,NO2,21,25,22
India,Maharashtra,Mumbai,"Colaba, Mumbai - MPCB",24-04-2024 04:00:00,18.910000,72.820000,CO,14,16,14
India,Maharashtra,Mumbai,"Deonar, Mumbai - IITM",24-04-2024 04:00:00,19.04946,72.9230,PM2.5,NA,NA,NA
India,Maharashtra,Mumbai,"Ghatkopar, Mumbai - BMC",24-04-2024 04:00:00,19.083694,72.920967,CO,3,26,16
India,Maharashtra,Mumbai,"Ghatkopar, Mumbai - BMC",24-04-2024 04:00:00,19.083694,72.920967,OZONE,1,49,20
India,Maharashtra,Mumbai,"Kandivali East, Mumbai - MPCB",24-04-2024 04:00:00,19.205800,72.868200,NO2,18,89,38
India,Maharashtra,Mumbai,"Kandivali East, Mumbai - MPCB",24-04-2024 04:00:00,19.205800,72.868200,CO,28,32,32
India,Maharashtra,Mumbai,"Kherwadi_Bandra East, Mumbai - MPCB",24-04-2024 04:00:00,19.0632143,72.8456324,PM10,39,107,87
India,Maharashtra,Mumbai,"Kherwadi_Bandra East, Mumbai - MPCB",24-04-2024 04:00:00,19.0632143,72.8456324,NH3,4,17,7
India,Maharashtra,Mumbai,"Khindipada-Bhandup West, Mumbai - IITM",24-04-2024 04:00:00,19.1653323,72.922099,PM2.5,28,84,57
India,Maharashtra,Mumbai,"Kurla, Mumbai - MPCB",24-04-2024 04:00:00,19.0863,72.8888,PM2.5,14,77,45
India,Maharashtra,Mumbai,"Kurla, Mumbai - MPCB",24-04-2024 04:00:00,19.0863,72.8888,NO2,14,19,16
India,Maharashtra,Mumbai,"Kurla, Mumbai - MPCB",24-04-2024 04:00:00,19.0863,72.8888,NH3,2,2,2
India,Maharashtra,Mumbai,"Kurla, Mumbai - MPCB",24-04-2024 04:00:00,19.0863,72.8888,CO,8,25,20
India,Maharashtra,Mumbai,"Mazgaon, Mumbai - IITM",24-04-2024 04:00:00,18.96702,72.84214,PM10,45,327,150
India,Maharashtra,Mumbai,"Mazgaon, Mumbai - IITM",24-04-2024 04:00:00,18.96702,72.84214,NO2,36,88,52
India,Maharashtra,Mumbai,"Mazgaon, Mumbai - IITM",24-04-2024 04:00:00,18.96702,72.84214,NH3,15,27,19
India,Maharashtra,Mumbai,"Mulund West, Mumbai - MPCB",24-04-2024 04:00:00,19.1750,72.9419,SO2,12,14,13
India,Maharashtra,Mumbai,"Navy Nagar-Colaba, Mumbai - IITM",24-04-2024 04:00:00,18.897756,72.813320,PM10,49,106,86
India,Maharashtra,Mumbai,"Powai, Mumbai - MPCB",24-04-2024 04:00:00,19.137500,72.915056,NH3,1,2,1
India,Maharashtra,Mumbai,"Powai, Mumbai - MPCB",24-04-2024 04:00:00,19.137500,72.915056,CO,28,37,32
India,Maharashtra,Mumbai,"Sewri, Mumbai - BMC",24-04-2024 04:00:00,19.000084,72.856730,NO2,24,59,35
India,Maharashtra,Mumbai,"Sewri, Mumbai - BMC",24-04-2024 04:00:00,19.000084,72.856730,SO2,2,8,6
India,Maharashtra,Mumbai,"Shivaji Nagar, Mumbai - BMC",24-04-2024 04:00:00,19.060498,72.923356,PM10,61,108,90
India,Maharashtra,Mumbai,"Shivaji Nagar, Mumbai - BMC",24-04-2024 04:00:00,19.060498,72.923356,SO2,1,9,5
India,Maharashtra,Mumbai,"Sion, Mumbai - MPCB",24-04-2024 04:00:00,19.047000,72.874600,PM2.5,30,71,47
India,Maharashtra,Mumbai,"Sion, Mumbai - MPCB",24-04-2024 04:00:00,19.047000,72.874600,PM10,67,133,106
India,Maharashtra,Mumbai,"Vile Parle West, Mumbai - MPCB",24-04-2024 04:00:00,19.10861,72.83622,PM10,68,122,108
India,Maharashtra,Mumbai,"Vile Parle West, Mumbai - MPCB",24-04-2024 04:00:00,19.10861,72.83622,CO,2,2,2
India,Maharashtra,Mumbai,"Worli, Mumbai - MPCB",24-04-2024 04:00:00,18.9936162,72.8128113,SO2,11,12,12
India,Maharashtra,Nagpur,"Ambazari, Nagpur - MPCB",24-04-2024 04:00:00,21.121801,79.04952,NH3,2,4,2
India,Maharashtra,Nagpur,"Mahal, Nagpur - MPCB",24-04-2024 04:00:00,21.14472,79.107595,PM2.5,47,66,55
India,Maharashtra,Nagpur,"Opp GPO Civil Lines, Nagpur - MPCB",24-04-2024 04:00:00,21.152875,79.0517531,PM10,38,127,62
India,Maharashtra,Nashik,"Gangapur Road, Nashik - MPCB",24-04-2024 04:00:00,20.0073285,73.7762427,CO,26,100,57
India,Maharashtra,Nashik,"MIDC Ambad, Nashik - MPCB",24-04-2024 04:00:00,19.950220,73.731480,PM2.5,32,61,50
India,Maharashtra,Nashik,"MIDC Ambad, Nashik - MPCB",24-04-2024 04:00:00,19.950220,73.731480,PM10,49,85,64
India,Maharashtra,Nashik,"MIDC Ambad, Nashik - MPCB",24-04-2024 04:00:00,19.950220,73.731480,NH3,2,4,3
India,Maharashtra,Nashik,"MIDC Ambad, Nashik - MPCB",24-04-2024 04:00:00,19.950220,73.731480,SO2,10,38,21
India,Maharashtra,Nashik,"MIDC Ambad, Nashik - MPCB",24-04-2024 04:00:00,19.950220,73.731480,CO,10,121,25
India,Maharashtra,Nashik,"Pandav Nagari, Nashik - MPCB",24-04-2024 04:00:00,19.9591346,73.7788008,PM10,70,109,86
India,Maharashtra,Navi Mumbai,"Mahape, Navi Mumbai - MPCB",24-04-2024 04:00:00,19.1135051,73.008978,PM2.5,35,315,92
India,Maharashtra,Navi Mumbai,"Mahape, Navi Mumbai - MPCB",24-04-2024 04:00:00,19.1135051,73.008978,SO2,22,23,23
India,Maharashtra,Navi Mumbai,"Nerul, Navi Mumbai - MPCB",24-04-2024 04:00:00,19.008751,73.016620,PM10,86,176,124
India,Maharashtra,Navi Mumbai,"Nerul, Navi Mumbai - MPCB",24-04-2024 04:00:00,19.008751,73.016620,OZONE,29,44,39
India,Maharashtra,Navi Mumbai,"Sanpada, Navi Mumbai - MPCB",24-04-2024 04:00:00,19.0575752,73.0151367,NO2,11,52,26
India,Maharashtra,Navi Mumbai,"Sector-19A Nerul, Navi Mumbai - IITM",24-04-2024 04:00:00,19.044,73.0325,PM10,39,105,82
India,Maharashtra,Navi Mumbai,"Sector-19A Nerul, Navi Mumbai - IITM",24-04-2024 04:00:00,19.044,73.0325,NH3,5,8,7
India,Maharashtra,Navi Mumbai,"Sector-2E Kalamboli, Navi Mumbai - MPCB",24-04-2024 04:00:00,19.02579,73.10297,PM10,47,149,104
India,Maharashtra,Pimpri-Chinchwad,"Park Street Wakad, Pimpri Chinchwad - MPCB",24-04-2024 04:00:00,18.59051,73.77946,NO2,54,97,73
India,Maharashtra,Pimpri-Chinchwad,"Park Street Wakad, Pimpri Chinchwad - MPCB",24-04-2024 04:00:00,18.59051,73.77946,NH3,6,11,8
India,Maharashtra,Pimpri-Chinchwad,"Park Street Wakad, Pimpri Chinchwad - MPCB",24-04-2024 04:00:00,18.59051,73.77946,SO2,2,18,10
India,Maharashtra,Pimpri-Chinchwad,"Park Street Wakad, Pimpri Chinchwad - MPCB",24-04-2024 04:00:00,18.59051,73.77946,CO,1,55,19
India,Maharashtra,Pune,"Bhosari, Pune - IITM",24-04-2024 04:00:00,18.640051,73.848956,CO,46,52,48
India,Maharashtra,Pune,"Bhosari, Pune - IITM",24-04-2024 04:00:00,18.640051,73.848956,OZONE,2,132,48
India,Maharashtra,Pune,"Karve Road, Pune - MPCB",24-04-2024 04:00:00,18.5011743,73.8165527,PM2.5,28,90,59
India,Maharashtra,Pune,"Karve Road, Pune - MPCB",24-04-2024 04:00:00,18.5011743,73.8165527,CO,24,78,58
India,Maharashtra,Pune,"Katraj Dairy, Pune - MPCB",24-04-2024 04:00:00,18.454450,73.854155,PM10,56,105,82
India,Maharashtra,Pune,"Mhada Colony, Pune - IITM",24-04-2024 04:00:00,18.573040,73.927715,CO,8,105,73
India,Maharashtra,Sangli,"Vijay Nagar, Sangli - MPCB",24-04-2024 04:00:00, 16.5038,74.3623,NH3,1,3,2
India,Maharashtra,Solapur,"Ratandeep Housing Society, Solapur - MPCB",24-04-2024 04:00:00,17.65439,75.90649,NH3,NA,NA,NA
India,Maharashtra,Thane,"Pimpleshwar Mandir, Thane - MPCB",24-04-2024 04:00:00,19.192056,72.9585188,CO,5,109,51
India,Maharashtra,Thane,"Upvan Fort, Thane - MPCB",24-04-2024 04:00:00,19.222279,72.957979,NO2,8,45,18
India,Maharashtra,Thane,"Upvan Fort, Thane - MPCB",24-04-2024 04:00:00,19.222279,72.957979,NH3,5,6,6
India,Maharashtra,Virar,"Bolinj, Virar - MPCB",24-04-2024 04:00:00,19.4458210,72.7988231,NH3,NA,NA,NA
India,Maharashtra,Virar,"Bolinj, Virar - MPCB",24-04-2024 04:00:00,19.4458210,72.7988231,SO2,7,18,9
India,Manipur,Imphal,"DM College of Science, Imphal - Manipur PCB",24-04-2024 04:00:00,24.8207389,93.9423085,SO2,NA,NA,NA
India,Manipur,Imphal,"Manipur University, Imphal - Manipur PCB",24-04-2024 04:00:00,24.7524239,93.9286218,PM2.5,39,149,60
India,Mizoram,Aizawl,"Sikulpuikawn, Aizawl - Mizoram PCB",24-04-2024 04:00:00,23.7176342,92.7192841,PM2.5,NA,NA,NA
India,Mizoram,Aizawl,"Sikulpuikawn, Aizawl - Mizoram PCB",24-04-2024 04:00:00,23.7176342,92.7192841,OZONE,NA,NA,NA
India,Nagaland,Kohima,"PWD Juction, Kohima - NPCB",24-04-2024 04:00:00,25.6635413,94.0989878,OZONE,17,30,25
India,Odisha,Angul,"Hakimapada, Angul - OSPCB",24-04-2024 04:00:00,20.832874,85.104082,NO2,4,39,17
India,Odisha,Balasore,"Kalidaspur, Balasore - OSPCB",24-04-2024 04:00:00,21.51161,86.89088,PM2.5,45,127,78
India,Odisha,Baripada,"Meher Colony, Baripada - OSPCB",24-04-2024 04:00:00,21.941841,86.728318,NH3,1,7,3
India,Odisha,Bhubaneswar,"Lingraj Mandir, Bhubaneswar - OSPCB",24-04-2024 04:00:00,20.240790,85.836784,PM10,105,155,122
India,Odisha,Bhubaneswar,"Patia, Bhubaneswar - OSPCB",24-04-2024 04:00:00,20.34652,85.81630,CO,29,153,119
India,Odisha,Bileipada,"Tata Township, Bileipada - OSPCB",24-04-2024 04:00:00,22.06156703,85.47409613,PM2.5,46,185,96
India,Odisha,Brajrajnagar,"GM Office, Brajrajnagar - OSPCB",24-04-2024 04:00:00,21.8004996,83.8396977,NH3,1,9,6
India,Odisha,Byasanagar,"Ferro Chrome Colony, Byasanagar - OSPCB",24-04-2024 04:00:00,20.94185,86.11510,SO2,13,79,36
India,Odisha,Cuttack,"CDA Area, Cuttack - OSPCB",24-04-2024 04:00:00,20.48891     ,85.84768     ,SO2,3,49,20
India,Odisha,Keonjhar,"Jagamohanpur, Keonjhar - OSPCB",24-04-2024 04:00:00,21.643900,85.599355,PM10,52,106,70
India,Odisha,Keonjhar,"Jagamohanpur, Keonjhar - OSPCB",24-04-2024 04:00:00,21.643900,85.599355,SO2,5,26,8
India,Odisha,Nayagarh,"Dabuna, Nayagarh - OSPCB",24-04-2024 04:00:00,21.847279,85.416905,PM10,NA,NA,NA
India,Odisha,Nayagarh,"Dabuna, Nayagarh - OSPCB",24-04-2024 04:00:00,21.847279,85.416905,SO2,2,35,13
India,Odisha,Rairangpur,"Divisional Forest Office, Rairangpur - OSPCB",24-04-2024 04:00:00,22.265816,86.174829,NH3,3,3,3
India,Odisha,Rairangpur,"Divisional Forest Office, Rairangpur - OSPCB",24-04-2024 04:00:00,22.265816,86.174829,SO2,13,22,15
India,Odisha,Rairangpur,"Divisional Forest Office, Rairangpur - OSPCB",24-04-2024 04:00:00,22.265816,86.174829,OZONE,42,76,47
India,Odisha,Rourkela,"Raghunathpali, Rourkela - OSPCB",24-04-2024 04:00:00,22.220833,84.809444,NO2,19,110,61
India,Odisha,Rourkela,"Raghunathpali, Rourkela - OSPCB",24-04-2024 04:00:00,22.220833,84.809444,CO,21,59,48
India,Odisha,Rourkela,"Sector-2, Rourkela - OSPCB",24-04-2024 04:00:00,22.24500000,84.88111111,PM2.5,25,127,63
India,Odisha,Suakati,"OMC Colony, Suakati - OSPCB",24-04-2024 04:00:00,21.606865,85.510538,PM10,54,114,91
India,Odisha,Suakati,"OMC Colony, Suakati - OSPCB",24-04-2024 04:00:00,21.606865,85.510538,CO,14,20,16
India,Odisha,Talcher,"Talcher Coalfields,Talcher - OSPCB",24-04-2024 04:00:00,20.9360711,85.1707021,PM10,64,327,142
India,Odisha,Talcher,"Talcher Coalfields,Talcher - OSPCB",24-04-2024 04:00:00,20.9360711,85.1707021,NH3,3,3,3
India,Odisha,Talcher,"Talcher Coalfields,Talcher - OSPCB",24-04-2024 04:00:00,20.9360711,85.1707021,SO2,79,95,86
India,Odisha,Tensa,"Barsua Iron Ore Mines, Tensa - OSPCB",24-04-2024 04:00:00,21.869985,85.167016,SO2,NA,NA,NA
India,Odisha,Tensa,"Barsua Iron Ore Mines, Tensa - OSPCB",24-04-2024 04:00:00,21.869985,85.167016,CO,16,52,35
India,Odisha,Tensa,"Barsua Iron Ore Mines, Tensa - OSPCB",24-04-2024 04:00:00,21.869985,85.167016,OZONE,27,83,63
India,Puducherry,Puducherry,"Jawahar Nagar, Puducherry - PPCC",24-04-2024 04:00:00,11.9309,79.8027,NO2,2,17,7
India,Punjab,Bathinda,"Hardev Nagar, Bathinda - PPCB",24-04-2024 04:00:00,30.233011,74.907758,CO,3,64,19
India,Punjab,Jalandhar,"Civil Line, Jalandhar - PPCB",24-04-2024 04:00:00,31.321907,75.578914,PM2.5,28,58,44
India,Punjab,Jalandhar,"Civil Line, Jalandhar - PPCB",24-04-2024 04:00:00,31.321907,75.578914,NO2,35,39,37
India,Punjab,Ludhiana,"Punjab Agricultural University, Ludhiana - PPCB",24-04-2024 04:00:00,30.9028,75.8086,CO,5,60,37
India,Punjab,Patiala,"Model Town, Patiala - PPCB",24-04-2024 04:00:00,30.349388,76.366642,OZONE,14,113,20
India,Punjab,Rupnagar,"Ratanpura, Rupnagar - Ambuja Cements",24-04-2024 04:00:00,31.0325454,76.5623046,SO2,6,12,10
India,Punjab,Rupnagar,"Ratanpura, Rupnagar - Ambuja Cements",24-04-2024 04:00:00,31.0325454,76.5623046,CO,20,66,46
India,Rajasthan,Ajmer,"Civil Lines,  Ajmer - RSPCB",24-04-2024 04:00:00,26.470859,74.646594,PM2.5,25,82,51
India,Rajasthan,Ajmer,"Civil Lines,  Ajmer - RSPCB",24-04-2024 04:00:00,26.470859,74.646594,NO2,12,18,15
India,Rajasthan,Ajmer,"Civil Lines,  Ajmer - RSPCB",24-04-2024 04:00:00,26.470859,74.646594,SO2,12,14,13
India,Rajasthan,Alwar,"Moti Doongri, Alwar - RSPCB",24-04-2024 04:00:00,27.554793,76.611536,NH3,4,7,5
India,Rajasthan,Alwar,"Moti Doongri, Alwar - RSPCB",24-04-2024 04:00:00,27.554793,76.611536,OZONE,14,27,15
India,Rajasthan,Banswara,"Rati Talai, Banswara - RSPCB",24-04-2024 04:00:00,23.555190,74.440010,PM2.5,22,91,52
India,Rajasthan,Banswara,"Rati Talai, Banswara - RSPCB",24-04-2024 04:00:00,23.555190,74.440010,CO,11,37,21
India,Rajasthan,Baran,"Bamboliya, Baran - RSPCB",24-04-2024 04:00:00,25.106006,76.469948,CO,14,59,37
India,Rajasthan,Baran,"Bamboliya, Baran - RSPCB",24-04-2024 04:00:00,25.106006,76.469948,OZONE,2,154,44
India,Rajasthan,Barmer,"Railway Colony, Barmer - RSPCB",24-04-2024 04:00:00,25.747299,71.393989,SO2,4,15,7
India,Rajasthan,Bharatpur,"Krishna Nagar, Bharatpur - RSPCB",24-04-2024 04:00:00,27.215415,77.50873,CO,2,48,24
India,Rajasthan,Bhilwara,"Pratap Nagar, Bhilwara - RSPCB",24-04-2024 04:00:00,25.339605,74.618883,NO2,11,106,37
India,Rajasthan,Bhilwara,"Pratap Nagar, Bhilwara - RSPCB",24-04-2024 04:00:00,25.339605,74.618883,NH3,1,5,3
India,Rajasthan,Bhiwadi,"RIICO Ind. Area III, Bhiwadi - RSPCB",24-04-2024 04:00:00,28.194909,76.862296,NO2,24,42,31
India,Rajasthan,Bhiwadi,"Vasundhara Nagar_UIT, Bhiwadi - RSPCB",24-04-2024 04:00:00,28.207266,76.829265,PM2.5,43,303,102
India,Rajasthan,Bundi,"New Colony, Bundi - RSPCB",24-04-2024 04:00:00,25.435774,75.644272,PM2.5,14,66,28
India,Rajasthan,Bundi,"New Colony, Bundi - RSPCB",24-04-2024 04:00:00,25.435774,75.644272,OZONE,24,144,73
India,Rajasthan,Chittorgarh,"Shastri Nagar, Chittorgarh - RSPCB",24-04-2024 04:00:00,24.892047,74.623527,PM10,74,428,129
India,Rajasthan,Churu,"Subash Chowk, Churu - RSPCB",24-04-2024 04:00:00,28.296139,74.961696,NH3,11,18,15
India,Rajasthan,Dholpur,"Raja Ganj, Dholpur - RSPCB",24-04-2024 04:00:00,26.699557,77.898881,PM10,52,414,123
India,Rajasthan,Dungarpur,"Bhoiwada, Dungarpur - RSPCB",24-04-2024 04:00:00,23.837789,73.714926,SO2,3,8,5
India,Rajasthan,Hanumangarh,"Housing Board, Hanumangarh - RSPCB",24-04-2024 04:00:00,29.610750,74.283608,PM10,46,355,132
India,Rajasthan,Hanumangarh,"Housing Board, Hanumangarh - RSPCB",24-04-2024 04:00:00,29.610750,74.283608,NO2,6,56,25
India,Rajasthan,Hanumangarh,"Housing Board, Hanumangarh - RSPCB",24-04-2024 04:00:00,29.610750,74.283608,NH3,9,19,15
India,Rajasthan,Jaipur,"Adarsh Nagar, Jaipur - RSPCB",24-04-2024 04:00:00,26.902909,75.836858,PM2.5,27,123,58
India,Rajasthan,Jaipur,"Adarsh Nagar, Jaipur - RSPCB",24-04-2024 04:00:00,26.902909,75.836858,NH3,3,9,5
India,Rajasthan,Jaipur,"Mansarovar Sector-12, Jaipur - RSPCB",24-04-2024 04:00:00,26.843698,75.766894,NH3,2,25,6
India,Rajasthan,Jaipur,"Police Commissionerate, Jaipur - RSPCB",24-04-2024 04:00:00,26.9164092,75.7994901,NO2,16,110,40
India,Rajasthan,Jaipur,"Police Commissionerate, Jaipur - RSPCB",24-04-2024 04:00:00,26.9164092,75.7994901,NH3,5,8,7
India,Rajasthan,Jaipur,"Police Commissionerate, Jaipur - RSPCB",24-04-2024 04:00:00,26.9164092,75.7994901,OZONE,12,115,61
India,Rajasthan,Jaipur,"RIICO Sitapura, Jaipur - RSPCB",24-04-2024 04:00:00,26.786682,75.827928,NH3,6,17,13
India,Rajasthan,Jaipur,"RIICO Sitapura, Jaipur - RSPCB",24-04-2024 04:00:00,26.786682,75.827928,CO,20,60,38
India,Rajasthan,Jaipur,"RIICO Sitapura, Jaipur - RSPCB",24-04-2024 04:00:00,26.786682,75.827928,OZONE,12,31,17
India,Rajasthan,Jaipur,"Sector-2 Murlipura, Jaipur - RSPCB",24-04-2024 04:00:00,26.960669,75.771817,SO2,6,17,10
India,Rajasthan,Jaipur,"Sector-2 Murlipura, Jaipur - RSPCB",24-04-2024 04:00:00,26.960669,75.771817,CO,32,90,56
India,Rajasthan,Jaipur,"Shastri Nagar, Jaipur - RSPCB",24-04-2024 04:00:00,26.9502929,75.730943,SO2,6,32,18
India,Rajasthan,Jaisalmer,"Sadar Bazar, Jaisalmer - RSPCB",24-04-2024 04:00:00,26.912329,70.909168,PM2.5,13,153,46
India,Rajasthan,Jaisalmer,"Sadar Bazar, Jaisalmer - RSPCB",24-04-2024 04:00:00,26.912329,70.909168,SO2,2,6,4
India,Rajasthan,Jaisalmer,"Sadar Bazar, Jaisalmer - RSPCB",24-04-2024 04:00:00,26.912329,70.909168,CO,12,82,37
India,Rajasthan,Jalore,"Mudtra Sili, Jalore - RSPCB",24-04-2024 04:00:00,25.344694,72.626208,NO2,6,84,23
India,Rajasthan,Jodhpur,"Collectorate, Jodhpur - RSPCB",24-04-2024 04:00:00,26.268249,73.0193853,PM10,64,250,144
India,Rajasthan,Jodhpur,"Collectorate, Jodhpur - RSPCB",24-04-2024 04:00:00,26.268249,73.0193853,CO,8,104,30
India,Rajasthan,Jodhpur,"Digari Kalan, Jodhpur - RSPCB",24-04-2024 04:00:00,26.295810,73.082283,NO2,5,98,34
India,Rajasthan,Jodhpur,"Digari Kalan, Jodhpur - RSPCB",24-04-2024 04:00:00,26.295810,73.082283,OZONE,3,131,21
India,Rajasthan,Jodhpur,"Mandor, Jodhpur - RSPCB",24-04-2024 04:00:00,26.358805,73.047444,NO2,19,102,42
India,Rajasthan,Jodhpur,"Samrat Ashok Udhyan, Jodhpur - RSPCB",24-04-2024 04:00:00,26.253384,72.976571,NO2,3,103,30
India,Rajasthan,Karauli,"Satyawati Vihar, Karauli - RSPCB",24-04-2024 04:00:00,26.506177,77.025989,PM2.5,13,88,36
India,Rajasthan,Karauli,"Satyawati Vihar, Karauli - RSPCB",24-04-2024 04:00:00,26.506177,77.025989,NH3,8,11,10
India,Rajasthan,Karauli,"Satyawati Vihar, Karauli - RSPCB",24-04-2024 04:00:00,26.506177,77.025989,CO,10,28,13
India,Rajasthan,Karauli,"Satyawati Vihar, Karauli - RSPCB",24-04-2024 04:00:00,26.506177,77.025989,OZONE,56,101,85
India,Rajasthan,Kota,"Dhanmandi, Kota - RSPCB",24-04-2024 04:00:00,25.164090,75.858137,PM2.5,12,201,55
India,Rajasthan,Kota,"Dhanmandi, Kota - RSPCB",24-04-2024 04:00:00,25.164090,75.858137,PM10,58,171,100
India,Rajasthan,Kota,"Nayapura, Kota - RSPCB",24-04-2024 04:00:00,25.196024,75.855668,OZONE,2,154,20
India,Rajasthan,Kota,"Shrinath Puram, Kota - RSPCB",24-04-2024 04:00:00,25.14389,75.821256,PM2.5,47,287,121
India,Rajasthan,Kota,"Shrinath Puram, Kota - RSPCB",24-04-2024 04:00:00,25.14389,75.821256,SO2,6,87,24
India,Rajasthan,Kota,"Shrinath Puram, Kota - RSPCB",24-04-2024 04:00:00,25.14389,75.821256,CO,4,59,15
India,Rajasthan,Kota,"Shrinath Puram, Kota - RSPCB",24-04-2024 04:00:00,25.14389,75.821256,OZONE,16,90,33
India,Rajasthan,Nagaur,"Karni Colony, Nagaur - RSPCB",24-04-2024 04:00:00,27.213494,73.734444,PM2.5,12,69,30
India,Rajasthan,Pratapgarh,"Pragati Nagar, Pratapgarh - RSPCB",24-04-2024 04:00:00,24.041198,74.780702,NO2,5,33,17
India,Rajasthan,Rajsamand,"Dhoinda, Rajsamand - RSPCB",24-04-2024 04:00:00,25.036360,73.883502,CO,52,87,82
India,Rajasthan,Sawai Madhopur,"Sahu Nagar, Sawai Madhopur - RSPCB",24-04-2024 04:00:00,26.031443,76.359327,SO2,NA,NA,NA
India,Rajasthan,Sawai Madhopur,"Sahu Nagar, Sawai Madhopur - RSPCB",24-04-2024 04:00:00,26.031443,76.359327,OZONE,4,137,58
India,Rajasthan,Sikar,"Radhakishan Pura, Sikar - RSPCB",24-04-2024 04:00:00,27.608912,75.153302,NH3,4,9,6
India,Rajasthan,Sri Ganganagar,"Old City, Sri Ganganagar - RSPCB",24-04-2024 04:00:00,29.931624,73.864511,NO2,40,109,71
India,Rajasthan,Tonk,"Shastri Nagar, Tonk - RSPCB",24-04-2024 04:00:00,26.159933,75.780517,SO2,1,8,4
India,Rajasthan,Udaipur,"Ashok Nagar, Udaipur - RSPCB",24-04-2024 04:00:00,24.5886166,73.6321397,CO,2,86,27
India,Sikkim,Gangtok,"Zero Point GICI, Gangtok - SSPCB",24-04-2024 04:00:00,27.338530,88.614099,PM10,56,86,71
India,Sikkim,Gangtok,"Zero Point GICI, Gangtok - SSPCB",24-04-2024 04:00:00,27.338530,88.614099,NH3,1,1,1
India,TamilNadu,Ariyalur,"Keelapalur, Ariyalur - TNPCB",24-04-2024 04:00:00,11.06825,79.07033,PM2.5,20,43,30
India,TamilNadu,Chengalpattu,"Crescent University, Chengalpattu - TNPCB",24-04-2024 04:00:00,12.8777316,80.0834807,CO,28,30,28
India,TamilNadu,Chengalpattu,"Crescent University, Chengalpattu - TNPCB",24-04-2024 04:00:00,12.8777316,80.0834807,OZONE,6,7,6
India,TamilNadu,Chennai,"Alandur Bus Depot, Chennai - CPCB",24-04-2024 04:00:00,12.9099161,80.1076538,PM10,30,57,38
India,TamilNadu,Chennai,"Alandur Bus Depot, Chennai - CPCB",24-04-2024 04:00:00,12.9099161,80.1076538,NO2,11,28,18
India,TamilNadu,Chennai,"Alandur Bus Depot, Chennai - CPCB",24-04-2024 04:00:00,12.9099161,80.1076538,OZONE,1,16,8
India,TamilNadu,Chennai,"Kodungaiyur, Chennai - TNPCB",24-04-2024 04:00:00,13.1278,80.2642,PM2.5,4,18,10
India,TamilNadu,Chennai,"Kodungaiyur, Chennai - TNPCB",24-04-2024 04:00:00,13.1278,80.2642,NO2,8,22,14
India,TamilNadu,Chennai,"Manali, Chennai - CPCB",24-04-2024 04:00:00,13.164544,80.26285,NO2,8,10,9
India,TamilNadu,Chennai,"Manali, Chennai - CPCB",24-04-2024 04:00:00,13.164544,80.26285,SO2,3,9,6
India,TamilNadu,Chennai,"Manali, Chennai - CPCB",24-04-2024 04:00:00,13.164544,80.26285,OZONE,14,20,18
India,TamilNadu,Chennai,"Perungudi, Chennai - TNPCB",24-04-2024 04:00:00,12.9533,80.2357,PM10,9,73,33
India,TamilNadu,Chennai,"Royapuram, Chennai - TNPCB",24-04-2024 04:00:00,13.1036,80.2909,PM10,7,57,24
India,TamilNadu,Chennai,"Velachery Res. Area, Chennai - CPCB",24-04-2024 04:00:00,13.0052189,80.2398125,PM2.5,16,33,24
India,TamilNadu,Coimbatore,"PSG College of Arts and Science, Coimbatore - TNPCB",24-04-2024 04:00:00,11.0328,77.0349,SO2,14,49,25
India,TamilNadu,Cuddalore,"Kudikadu, Cuddalore - TNPCB",24-04-2024 04:00:00,11.6829898,79.7532099,PM10,24,118,56
India,TamilNadu,Cuddalore,"Kudikadu, Cuddalore - TNPCB",24-04-2024 04:00:00,11.6829898,79.7532099,NO2,1,5,3
India,TamilNadu,Gummidipoondi,"Anthoni Pillai Nagar, Gummidipoondi - TNPCB",24-04-2024 04:00:00,13.4127,80.1081,NH3,1,2,2
India,TamilNadu,Kanchipuram,"Kilambi, Kanchipuram - TNPCB",24-04-2024 04:00:00,12.864618,79.659968,OZONE,NA,NA,NA
India,TamilNadu,Ramanathapuram,"Chalai Bazaar, Ramanathapuram - TNPCB",24-04-2024 04:00:00,9.36399,78.831977,NH3,NA,NA,NA
India,TamilNadu,Ramanathapuram,"Chalai Bazaar, Ramanathapuram - TNPCB",24-04-2024 04:00:00,9.36399,78.831977,OZONE,NA,NA,NA
India,TamilNadu,Salem,"Sona College of Technology, Salem - TNPCB",24-04-2024 04:00:00,11.679111,78.125052,PM2.5,NA,NA,NA
India,TamilNadu,Salem,"Sona College of Technology, Salem - TNPCB",24-04-2024 04:00:00,11.679111,78.125052,PM10,NA,NA,NA
India,TamilNadu,Salem,"Sona College of Technology, Salem - TNPCB",24-04-2024 04:00:00,11.679111,78.125052,NO2,NA,NA,NA
India,TamilNadu,Thoothukudi,"Meelavittan, Thoothukudi - TNPCB",24-04-2024 04:00:00,8.816428 ,78.099039,PM10,41,258,79
India,TamilNadu,Thoothukudi,"Meelavittan, Thoothukudi - TNPCB",24-04-2024 04:00:00,8.816428 ,78.099039,OZONE,1,15,6
India,TamilNadu,Tirupur,"Kumaran College, Tirupur - TNPCB",24-04-2024 04:00:00,11.0973603,77.3228673,PM10,NA,NA,NA
India,TamilNadu,Vellore,"Vasanthapuram, Vellore - TNPCB",24-04-2024 04:00:00,12.909494,79.131861,PM10,NA,NA,NA
India,TamilNadu,Vellore,"Vasanthapuram, Vellore - TNPCB",24-04-2024 04:00:00,12.909494,79.131861,NH3,NA,NA,NA
India,Telangana,Hyderabad,"Bollaram Industrial Area, Hyderabad - TSPCB",24-04-2024 04:00:00,17.540891,78.358528,PM2.5,43,86,61
India,Telangana,Hyderabad,"Bollaram Industrial Area, Hyderabad - TSPCB",24-04-2024 04:00:00,17.540891,78.358528,NO2,18,62,37
India,Telangana,Hyderabad,"Bollaram Industrial Area, Hyderabad - TSPCB",24-04-2024 04:00:00,17.540891,78.358528,OZONE,33,38,35
India,Telangana,Hyderabad,"ECIL Kapra, Hyderabad - TSPCB",24-04-2024 04:00:00,17.470431,78.566959,CO,6,22,16
India,Telangana,Hyderabad,"Kokapet, Hyderabad - TSPCB",24-04-2024 04:00:00,17.393559,78.339194,NO2,11,11,11
India,Telangana,Hyderabad,"Kompally Municipal Office, Hyderabad - TSPCB",24-04-2024 04:00:00,17.544899,78.486949,NO2,8,14,13
India,Telangana,Hyderabad,"Kompally Municipal Office, Hyderabad - TSPCB",24-04-2024 04:00:00,17.544899,78.486949,OZONE,19,89,30
India,Telangana,Hyderabad,"New Malakpet, Hyderabad - TSPCB",24-04-2024 04:00:00,17.37206,78.50864,PM2.5,18,53,43
India,Telangana,Hyderabad,"New Malakpet, Hyderabad - TSPCB",24-04-2024 04:00:00,17.37206,78.50864,CO,12,55,27
India,Telangana,Hyderabad,"Sanathnagar, Hyderabad - TSPCB",24-04-2024 04:00:00,17.4559458,78.4332152,PM2.5,39,500,91
India,Telangana,Hyderabad,"Zoo Park, Hyderabad - TSPCB",24-04-2024 04:00:00,17.349694,78.451437,SO2,1,8,4
India,Tripura,Agartala,"Bardowali, Agartala - Tripura SPCB",24-04-2024 04:00:00,23.8175497,91.2726974,SO2,30,31,30
India,Tripura,Agartala,"Bardowali, Agartala - Tripura SPCB",24-04-2024 04:00:00,23.8175497,91.2726974,OZONE,3,44,9
India,Uttar_Pradesh,Agra,"Manoharpur, Agra - UPPCB",24-04-2024 04:00:00,27.23711,78.01936,CO,6,11,7
India,Uttar_Pradesh,Agra,"Rohta, Agra - UPPCB",24-04-2024 04:00:00,27.106972,78.000111,PM10,NA,NA,NA
India,Uttar_Pradesh,Agra,"Sanjay Palace, Agra - UPPCB",24-04-2024 04:00:00,27.19865833,78.00598056,PM10,16,68,39
India,Uttar_Pradesh,Agra,"Sanjay Palace, Agra - UPPCB",24-04-2024 04:00:00,27.19865833,78.00598056,NO2,21,36,27
India,Uttar_Pradesh,Agra,"Sector-3B Avas Vikas Colony, Agra - UPPCB",24-04-2024 04:00:00,27.19412,77.96237,PM10,28,129,53
India,Uttar_Pradesh,Agra,"Sector-3B Avas Vikas Colony, Agra - UPPCB",24-04-2024 04:00:00,27.19412,77.96237,NH3,5,13,8
India,Uttar_Pradesh,Agra,"Shahjahan Garden, Agra - UPPCB",24-04-2024 04:00:00,27.169338,78.03582,SO2,7,19,15
India,Uttar_Pradesh,Agra,"Shastripuram, Agra - UPPCB",24-04-2024 04:00:00,27.19862,77.92066,PM2.5,2,58,33
India,Uttar_Pradesh,Baghpat,"Sardar Patel Inter College, Baghpat - UPPCB",24-04-2024 04:00:00,28.964949,77.278761,NO2,13,70,39
India,Uttar_Pradesh,Bareilly,"Civil Lines, Bareilly - UPPCB",24-04-2024 04:00:00,28.359581,79.414455,NH3,NA,NA,NA
India,Uttar_Pradesh,Bareilly,"Rajendra Nagar, Bareilly - UPPCB",24-04-2024 04:00:00,28.38910936,79.42963708,NO2,2,4,2
India,Uttar_Pradesh,Bareilly,"Rajendra Nagar, Bareilly - UPPCB",24-04-2024 04:00:00,28.38910936,79.42963708,NH3,1,1,1
India,Uttar_Pradesh,Bulandshahr,"Yamunapuram, Bulandshahr - UPPCB",24-04-2024 04:00:00,28.406963,77.849831,PM10,44,192,102
India,Uttar_Pradesh,Bulandshahr,"Yamunapuram, Bulandshahr - UPPCB",24-04-2024 04:00:00,28.406963,77.849831,NO2,9,109,40
India,Uttar_Pradesh,Bulandshahr,"Yamunapuram, Bulandshahr - UPPCB",24-04-2024 04:00:00,28.406963,77.849831,CO,25,58,42
India,Uttar_Pradesh,Firozabad,"Nagla Bhau, Firozabad - UPPCB",24-04-2024 04:00:00,27.168897,78.376960,CO,24,28,26
India,Uttar_Pradesh,Firozabad,"Vibhab Nagar, Firozabad - UPPCB",24-04-2024 04:00:00,27.1594,78.3953,NH3,2,2,2
India,Uttar_Pradesh,Firozabad,"Vibhab Nagar, Firozabad - UPPCB",24-04-2024 04:00:00,27.1594,78.3953,CO,16,21,17
India,Uttar_Pradesh,Ghaziabad,"Indirapuram, Ghaziabad - UPPCB",24-04-2024 04:00:00,28.646233,77.358075,NO2,23,66,45
India,Uttar_Pradesh,Ghaziabad,"Indirapuram, Ghaziabad - UPPCB",24-04-2024 04:00:00,28.646233,77.358075,SO2,5,25,16
India,Uttar_Pradesh,Ghaziabad,"Indirapuram, Ghaziabad - UPPCB",24-04-2024 04:00:00,28.646233,77.358075,CO,24,82,54
India,Uttar_Pradesh,Ghaziabad,"Loni, Ghaziabad - UPPCB",24-04-2024 04:00:00,28.757294,77.278792,SO2,17,59,33
India,Uttar_Pradesh,Ghaziabad,"Sanjay Nagar, Ghaziabad - UPPCB",24-04-2024 04:00:00,28.685382,77.453839,NH3,6,12,8
India,Uttar_Pradesh,Ghaziabad,"Sanjay Nagar, Ghaziabad - UPPCB",24-04-2024 04:00:00,28.685382,77.453839,SO2,16,34,27
India,Uttar_Pradesh,Ghaziabad,"Vasundhara, Ghaziabad - UPPCB",24-04-2024 04:00:00,28.6603346,77.3572563,OZONE,2,65,16
India,Uttar_Pradesh,Gorakhpur,"Madan Mohan Malaviya University of Technology, Gorakhpur - UPPCB",24-04-2024 04:00:00,26.730136,83.433859,PM2.5,33,190,88
India,Uttar_Pradesh,Gorakhpur,"Madan Mohan Malaviya University of Technology, Gorakhpur - UPPCB",24-04-2024 04:00:00,26.730136,83.433859,SO2,34,50,41
India,Uttar_Pradesh,Gorakhpur,"Madan Mohan Malaviya University of Technology, Gorakhpur - UPPCB",24-04-2024 04:00:00,26.730136,83.433859,OZONE,7,74,21
India,Uttar_Pradesh,Greater Noida,"Knowledge Park - III, Greater Noida - UPPCB",24-04-2024 04:00:00,28.47272,77.482000,PM2.5,30,265,89
India,Uttar_Pradesh,Greater Noida,"Knowledge Park - III, Greater Noida - UPPCB",24-04-2024 04:00:00,28.47272,77.482000,PM10,53,346,145
India,Uttar_Pradesh,Greater Noida,"Knowledge Park - III, Greater Noida - UPPCB",24-04-2024 04:00:00,28.47272,77.482000,CO,2,66,46
India,Uttar_Pradesh,Greater Noida,"Knowledge Park - III, Greater Noida - UPPCB",24-04-2024 04:00:00,28.47272,77.482000,OZONE,6,127,30
India,Uttar_Pradesh,Hapur,"Anand Vihar, Hapur - UPPCB",24-04-2024 04:00:00,28.725645,77.749675,PM10,30,188,114
India,Uttar_Pradesh,Hapur,"Anand Vihar, Hapur - UPPCB",24-04-2024 04:00:00,28.725645,77.749675,CO,23,34,27
India,Uttar_Pradesh,Jhansi,"Shivaji Nagar, Jhansi - UPPCB",24-04-2024 04:00:00,25.4547,78.6039,CO,9,78,27
India,Uttar_Pradesh,Kanpur,"FTI Kidwai Nagar, Kanpur - UPPCB",24-04-2024 04:00:00,26.428282,80.327067,SO2,25,25,25
India,Uttar_Pradesh,Kanpur,"FTI Kidwai Nagar, Kanpur - UPPCB",24-04-2024 04:00:00,26.428282,80.327067,OZONE,3,14,4
India,Uttar_Pradesh,Kanpur,"NSI Kalyanpur, Kanpur - UPPCB",24-04-2024 04:00:00,26.509954,80.249612,PM2.5,11,210,90
India,Uttar_Pradesh,Kanpur,"NSI Kalyanpur, Kanpur - UPPCB",24-04-2024 04:00:00,26.509954,80.249612,NO2,7,11,10
India,Uttar_Pradesh,Kanpur,"Nehru Nagar, Kanpur - UPPCB",24-04-2024 04:00:00,26.4703136,80.3229863,CO,34,65,56
India,Uttar_Pradesh,Lucknow,"Kendriya Vidyalaya, Lucknow - CPCB",24-04-2024 04:00:00,26.906111,80.948222,PM10,85,186,126
India,Uttar_Pradesh,Lucknow,"Kendriya Vidyalaya, Lucknow - CPCB",24-04-2024 04:00:00,26.906111,80.948222,SO2,4,7,5
India,Uttar_Pradesh,Lucknow,"Kukrail Picnic Spot-1, Lucknow - UPPCB",24-04-2024 04:00:00,26.90723,80.98579,PM2.5,27,135,72
India,Uttar_Pradesh,Lucknow,"Kukrail Picnic Spot-1, Lucknow - UPPCB",24-04-2024 04:00:00,26.90723,80.98579,PM10,45,190,97
India,Uttar_Pradesh,Lucknow,"Kukrail Picnic Spot-1, Lucknow - UPPCB",24-04-2024 04:00:00,26.90723,80.98579,CO,10,26,15
India,Uttar_Pradesh,Lucknow,"Lalbagh, Lucknow - CPCB",24-04-2024 04:00:00,26.8458805,80.9365541,PM10,75,403,149
India,Uttar_Pradesh,Lucknow,"Lalbagh, Lucknow - CPCB",24-04-2024 04:00:00,26.8458805,80.9365541,NH3,19,24,20
India,Uttar_Pradesh,Lucknow,"Lalbagh, Lucknow - CPCB",24-04-2024 04:00:00,26.8458805,80.9365541,CO,2,120,32
India,Uttar_Pradesh,Lucknow,"Talkatora District Industries Center, Lucknow - CPCB",24-04-2024 04:00:00,26.83399722,80.8917361,NH3,8,26,14
India,Uttar_Pradesh,Meerut,"Ganga Nagar, Meerut - UPPCB",24-04-2024 04:00:00,28.999264,77.7590354,PM2.5,15,197,57
India,Uttar_Pradesh,Meerut,"Jai Bhim Nagar, Meerut - UPPCB",24-04-2024 04:00:00,28.9535882,77.7622941,SO2,6,30,15
India,Uttar_Pradesh,Meerut,"Jai Bhim Nagar, Meerut - UPPCB",24-04-2024 04:00:00,28.9535882,77.7622941,OZONE,16,232,56
India,Uttar_Pradesh,Meerut,"Pallavpuram Phase 2, Meerut - UPPCB",24-04-2024 04:00:00,29.063510,77.709723,NO2,12,123,60
India,Uttar_Pradesh,Meerut,"Pallavpuram Phase 2, Meerut - UPPCB",24-04-2024 04:00:00,29.063510,77.709723,NH3,5,14,9
India,Uttar_Pradesh,Moradabad,"Buddhi Vihar, Moradabad - UPPCB",24-04-2024 04:00:00,28.83526,78.74460,SO2,5,16,13
India,Uttar_Pradesh,Moradabad,"Buddhi Vihar, Moradabad - UPPCB",24-04-2024 04:00:00,28.83526,78.74460,OZONE,16,46,23
India,Uttar_Pradesh,Moradabad,"Eco Herbal Park, Moradabad - UPPCB",24-04-2024 04:00:00,28.840739,78.697531,OZONE,11,161,68
India,Uttar_Pradesh,Moradabad,"Employment Office, Moradabad - UPPCB",24-04-2024 04:00:00,28.88528,78.73880,NH3,3,4,4
India,Uttar_Pradesh,Moradabad,"Employment Office, Moradabad - UPPCB",24-04-2024 04:00:00,28.88528,78.73880,CO,10,46,22
India,Uttar_Pradesh,Moradabad,"Transport Nagar, Moradabad - UPPCB",24-04-2024 04:00:00,28.802625,78.753728,PM10,54,234,100
India,Uttar_Pradesh,Muzaffarnagar,"New Mandi, Muzaffarnagar - UPPCB",24-04-2024 04:00:00,29.4723508,77.7194031,PM10,138,500,284
India,Uttar_Pradesh,Noida,"Sector - 125, Noida - UPPCB",24-04-2024 04:00:00,28.5447608,77.3231257,PM2.5,27,82,51
India,Uttar_Pradesh,Noida,"Sector - 125, Noida - UPPCB",24-04-2024 04:00:00,28.5447608,77.3231257,SO2,10,37,23
India,Uttar_Pradesh,Noida,"Sector-1, Noida - UPPCB",24-04-2024 04:00:00,28.5898,77.3101,PM2.5,39,138,68
India,Uttar_Pradesh,Noida,"Sector-1, Noida - UPPCB",24-04-2024 04:00:00,28.5898,77.3101,CO,12,76,57
India,Uttar_Pradesh,Noida,"Sector-116, Noida - UPPCB",24-04-2024 04:00:00,28.569230,77.393848,OZONE,2,206,27
India,Uttar_Pradesh,Prayagraj,"Jhunsi, Prayagraj - UPPCB",24-04-2024 04:00:00,25.425602,81.917152,NO2,6,6,6
India,Uttar_Pradesh,Prayagraj,"Jhunsi, Prayagraj - UPPCB",24-04-2024 04:00:00,25.425602,81.917152,CO,5,72,33
India,Uttar_Pradesh,Prayagraj,"Nagar Nigam, Prayagraj - UPPCB",24-04-2024 04:00:00,25.44919916 ,81.82735986 ,CO,12,102,58
India,Uttar_Pradesh,Varanasi,"Ardhali Bazar, Varanasi - UPPCB",24-04-2024 04:00:00,25.3505986,82.9083074,PM10,14,45,22
India,Uttar_Pradesh,Varanasi,"Ardhali Bazar, Varanasi - UPPCB",24-04-2024 04:00:00,25.3505986,82.9083074,OZONE,13,15,14
India,Uttar_Pradesh,Varanasi,"Bhelupur, Varanasi - UPPCB",24-04-2024 04:00:00,25.301778,82.996789,PM10,17,45,28
India,Uttar_Pradesh,Varanasi,"IESD Banaras Hindu University, Varanasi - UPPCB",24-04-2024 04:00:00,25.262326,82.995408,SO2,16,18,17
India,Uttar_Pradesh,Varanasi,"IESD Banaras Hindu University, Varanasi - UPPCB",24-04-2024 04:00:00,25.262326,82.995408,CO,2,11,8
India,Uttar_Pradesh,Varanasi,"Maldahiya, Varanasi - UPPCB",24-04-2024 04:00:00,25.32393,82.99687,PM2.5,11,36,20
India,Uttar_Pradesh,Varanasi,"Maldahiya, Varanasi - UPPCB",24-04-2024 04:00:00,25.32393,82.99687,OZONE,1,22,3
India,Uttarakhand,Dehradun,"Doon University, Dehradun - UKPCB",24-04-2024 04:00:00,30.269444,78.044167,PM2.5,22,95,64
India,Uttarakhand,Dehradun,"Doon University, Dehradun - UKPCB",24-04-2024 04:00:00,30.269444,78.044167,OZONE,45,147,54
India,Uttarakhand,Kashipur,"Govt. Girls Inter College, Kashipur - UKPCB",24-04-2024 04:00:00,29.2124114,78.9611753,SO2,7,11,9
India,Uttarakhand,Kashipur,"Govt. Girls Inter College, Kashipur - UKPCB",24-04-2024 04:00:00,29.2124114,78.9611753,CO,11,42,23
India,West_Bengal,Asansol,"Asansol Court Area, Asansol - WBPCB",24-04-2024 04:00:00,23.685297,86.945968,NO2,23,58,35
India,West_Bengal,Asansol,"Asansol Court Area, Asansol - WBPCB",24-04-2024 04:00:00,23.685297,86.945968,SO2,7,16,11
India,West_Bengal,Barrackpore,"SVSPA Campus, Barrackpore - WBPCB",24-04-2024 04:00:00,22.7605581,88.3617589,SO2,NA,NA,NA
India,West_Bengal,Durgapur,"Sidhu Kanhu Indoor Stadium, Durgapur - WBPCB",24-04-2024 04:00:00,23.5404352,87.2892225,PM10,67,143,112
India,West_Bengal,Durgapur,"Sidhu Kanhu Indoor Stadium, Durgapur - WBPCB",24-04-2024 04:00:00,23.5404352,87.2892225,NH3,4,6,5
India,West_Bengal,Durgapur,"Sidhu Kanhu Indoor Stadium, Durgapur - WBPCB",24-04-2024 04:00:00,23.5404352,87.2892225,OZONE,1,93,21
India,West_Bengal,Haldia,"Priyambada Housing Estate, Haldia - WBPCB",24-04-2024 04:00:00,22.06047,88.109737,PM2.5,27,91,48
India,West_Bengal,Howrah,"Belur Math, Howrah - WBPCB",24-04-2024 04:00:00,22.629801,88.352017,PM2.5,53,128,79
India,West_Bengal,Howrah,"Belur Math, Howrah - WBPCB",24-04-2024 04:00:00,22.629801,88.352017,OZONE,8,79,29
India,West_Bengal,Howrah,"Ghusuri, Howrah - WBPCB",24-04-2024 04:00:00,22.611968,88.347422,NH3,3,10,4
India,West_Bengal,Howrah,"Ghusuri, Howrah - WBPCB",24-04-2024 04:00:00,22.611968,88.347422,SO2,4,7,6
India,West_Bengal,Howrah,"Ghusuri, Howrah - WBPCB",24-04-2024 04:00:00,22.611968,88.347422,OZONE,10,25,16
India,West_Bengal,Howrah,"Padmapukur, Howrah - WBPCB",24-04-2024 04:00:00,22.5687319,88.2797276,PM2.5,51,99,68
India,West_Bengal,Howrah,"Padmapukur, Howrah - WBPCB",24-04-2024 04:00:00,22.5687319,88.2797276,PM10,54,129,83
India,West_Bengal,Howrah,"Padmapukur, Howrah - WBPCB",24-04-2024 04:00:00,22.5687319,88.2797276,NH3,6,15,9
India,West_Bengal,Howrah,"Padmapukur, Howrah - WBPCB",24-04-2024 04:00:00,22.5687319,88.2797276,CO,9,40,26
India,West_Bengal,Kolkata,"Ballygunge, Kolkata - WBPCB",24-04-2024 04:00:00,22.5367507,88.3638022,CO,12,54,26
India,West_Bengal,Kolkata,"Bidhannagar, Kolkata - WBPCB",24-04-2024 04:00:00,22.58157048,88.41002457,CO,28,74,43
India,West_Bengal,Kolkata,"Fort William, Kolkata - WBPCB",24-04-2024 04:00:00,22.556640,88.342674,PM10,80,114,95
India,West_Bengal,Kolkata,"Fort William, Kolkata - WBPCB",24-04-2024 04:00:00,22.556640,88.342674,NH3,2,5,3
India,West_Bengal,Kolkata,"Fort William, Kolkata - WBPCB",24-04-2024 04:00:00,22.556640,88.342674,SO2,17,80,32
India,West_Bengal,Kolkata,"Rabindra Bharati University, Kolkata - WBPCB",24-04-2024 04:00:00,22.627847,88.380669,NO2,4,42,28
India,West_Bengal,Kolkata,"Rabindra Sarobar, Kolkata - WBPCB",24-04-2024 04:00:00,22.51106,88.35142,CO,18,46,35
India,West_Bengal,Siliguri,"Ward-32 Bapupara, Siliguri - WBPCB",24-04-2024 04:00:00,26.6879226,88.4152495,PM2.5,62,97,81
India,West_Bengal,Siliguri,"Ward-32 Bapupara, Siliguri - WBPCB",24-04-2024 04:00:00,26.6879226,88.4152495,NH3,6,11,8
India,Andhra_Pradesh,Amaravati,"Secretariat, Amaravati - APPCB",24-04-2024 04:00:00,16.5150833,80.5181667,SO2,6,31,14
India,Andhra_Pradesh,Amaravati,"Secretariat, Amaravati - APPCB",24-04-2024 04:00:00,16.5150833,80.5181667,OZONE,1,35,13
India,Andhra_Pradesh,Chittoor,"Gangineni Cheruvu, Chittoor - APPCB",24-04-2024 04:00:00,13.204880,79.097889,SO2,6,100,36
India,Andhra_Pradesh,Chittoor,"Gangineni Cheruvu, Chittoor - APPCB",24-04-2024 04:00:00,13.204880,79.097889,CO,4,24,18
India,Andhra_Pradesh,Kadapa,"Yerramukkapalli, Kadapa - APPCB",24-04-2024 04:00:00,14.465052,78.824187,OZONE,33,91,61
India,Andhra_Pradesh,Rajamahendravaram,"Anand Kala Kshetram, Rajamahendravaram - APPCB",24-04-2024 04:00:00,16.9872867,81.7363176,OZONE,15,38,16
India,Andhra_Pradesh,Tirupati,"Tirumala, Tirupati - APPCB",24-04-2024 04:00:00,13.67,79.35,NO2,20,44,28
India,Andhra_Pradesh,Tirupati,"Tirumala, Tirupati - APPCB",24-04-2024 04:00:00,13.67,79.35,OZONE,14,69,41
India,Andhra_Pradesh,Tirupati,"Vaikuntapuram, Tirupati - APPCB",24-04-2024 04:00:00,13.615387,79.409230,NO2,14,30,20
India,Andhra_Pradesh,Vijayawada,"HB Colony, Vijayawada - APPCB",24-04-2024 04:00:00,16.536107,80.594233,OZONE,13,89,29
India,Andhra_Pradesh,Vijayawada,"Kanuru, Vijayawada - APPCB",24-04-2024 04:00:00,16.486692,80.699436,NH3,NA,NA,NA
India,Andhra_Pradesh,Vijayawada,"Rajiv Gandhi Park, Vijayawada - APPCB",24-04-2024 04:00:00,16.509717,80.612222,NH3,2,3,3
India,Andhra_Pradesh,Vijayawada,"Rajiv Nagar, Vijayawada - APPCB",24-04-2024 04:00:00,16.554731,80.649110,CO,40,40,40
India,Arunachal_Pradesh,Naharlagun,"Naharlagun, Naharlagun - APSPCB",24-04-2024 04:00:00,27.103358,93.679645,SO2,NA,NA,NA
India,Assam,Byrnihat,"Central Academy for SFS, Byrnihat - PCBA",24-04-2024 04:00:00,26.071318,91.87488,PM2.5,NA,NA,NA
India,Assam,Guwahati,"IITG, Guwahati - PCBA",24-04-2024 04:00:00,26.2028636,91.70046436,PM2.5,45,298,107
India,Assam,Guwahati,"IITG, Guwahati - PCBA",24-04-2024 04:00:00,26.2028636,91.70046436,PM10,57,224,112
India,Assam,Guwahati,"IITG, Guwahati - PCBA",24-04-2024 04:00:00,26.2028636,91.70046436,OZONE,2,21,4
India,Assam,Guwahati,"LGBI Airport, Guwahati - PCBA",24-04-2024 04:00:00,26.10887,91.589544,NH3,2,11,6
India,Assam,Guwahati,"LGBI Airport, Guwahati - PCBA",24-04-2024 04:00:00,26.10887,91.589544,OZONE,6,21,8
India,Assam,Guwahati,"Pan Bazaar, Guwahati - PCBA",24-04-2024 04:00:00,26.187500,91.744194,OZONE,NA,NA,NA
India,Assam,Guwahati,"Railway Colony, Guwahati - PCBA",24-04-2024 04:00:00,26.181742,91.78063,PM2.5,50,336,162
India,Assam,Guwahati,"Railway Colony, Guwahati - PCBA",24-04-2024 04:00:00,26.181742,91.78063,NO2,3,4,3
India,Assam,Nagaon,"Christianpatty, Nagaon - PCBA",24-04-2024 04:00:00,26.349082,92.68449,PM10,71,138,101
India,Assam,Nalbari,"Bata Chowk, Nalbari - PCBA",24-04-2024 04:00:00,26.446912,91.439057,PM10,52,493,227
India,Assam,Nalbari,"Bata Chowk, Nalbari - PCBA",24-04-2024 04:00:00,26.446912,91.439057,SO2,7,26,10
India,Assam,Silchar,"Tarapur, Silchar - PCBA",24-04-2024 04:00:00,24.82827,92.79525,NO2,13,13,13
India,Assam,Sivasagar,"Girls College, Sivasagar - PCBA",24-04-2024 04:00:00,26.987634,94.636574,OZONE,1,15,3
India,Bihar,Araria,"Kharahiya Basti, Araria - BSPCB",24-04-2024 04:00:00,26.146529,87.454184,SO2,10,17,15
India,Bihar,Arrah,"New DM Office, Arrah - BSPCB",24-04-2024 04:00:00,25.5626095,84.663264,NO2,2,54,15
India,Bihar,Aurangabad,"Gurdeo Nagar, Aurangabad - BSPCB",24-04-2024 04:00:00,24.75746,84.366208,PM2.5,NA,NA,NA
India,Bihar,Bettiah,"Kamalnath Nagar, Bettiah - BSPCB",24-04-2024 04:00:00,26.80365,84.51954,CO,62,66,63
India,Bihar,Bhagalpur,"DM Office_Kachari Chowk, Bhagalpur - BSPCB",24-04-2024 04:00:00,25.251013,86.989001,SO2,NA,NA,NA
India,Bihar,Bhagalpur,"Mayaganj, Bhagalpur - BSPCB",24-04-2024 04:00:00,25.265194,87.012947,OZONE,29,97,38
India,Bihar,Bihar Sharif,"D M Colony, Bihar Sharif - BSPCB",24-04-2024 04:00:00,25.204762,85.514960,PM2.5,10,67,37
India,Bihar,Chhapra,"Darshan Nagar, Chhapra - BSPCB",24-04-2024 04:00:00,25.7808257,84.7446768,NH3,7,15,11
India,Bihar,Gaya,"Collectorate, Gaya - BSPCB",24-04-2024 04:00:00,24.7955,84.9994,OZONE,44,81,60
India,Bihar,Gaya,"Kareemganj, Gaya - BSPCB",24-04-2024 04:00:00,24.792403,84.992416,NO2,30,31,30
India,Bihar,Gaya,"Kareemganj, Gaya - BSPCB",24-04-2024 04:00:00,24.792403,84.992416,NH3,1,5,3
India,Bihar,Gaya,"SFTI Kusdihra, Gaya - BSPCB",24-04-2024 04:00:00,24.762518,84.982348,PM2.5,17,88,49
India,Bihar,Gaya,"SFTI Kusdihra, Gaya - BSPCB",24-04-2024 04:00:00,24.762518,84.982348,PM10,41,88,66
India,Bihar,Gaya,"SFTI Kusdihra, Gaya - BSPCB",24-04-2024 04:00:00,24.762518,84.982348,NH3,3,8,6
India,Bihar,Hajipur,"Industrial Area, Hajipur - BSPCB",24-04-2024 04:00:00,25.697189,85.245900,PM2.5,48,220,90
India,Bihar,Hajipur,"Industrial Area, Hajipur - BSPCB",24-04-2024 04:00:00,25.697189,85.245900,CO,22,50,42
India,Bihar,Katihar,"Mirchaibari, Katihar - BSPCB",24-04-2024 04:00:00,25.560083,87.553265,SO2,16,21,19
India,Bihar,Kishanganj,"SDM Office_Khagra, Kishanganj - BSPCB",24-04-2024 04:00:00,26.0881305,87.93840336,CO,4,7,5
India,Bihar,Kishanganj,"SDM Office_Khagra, Kishanganj - BSPCB",24-04-2024 04:00:00,26.0881305,87.93840336,OZONE,18,58,57
India,Bihar,Manguraha,"Forest Rest House, Manguraha - BSPCB",24-04-2024 04:00:00,27.308328,84.531742,OZONE,NA,NA,NA
India,Bihar,Munger,"Town Hall, Munger - BSPCB",24-04-2024 04:00:00,25.376776,86.471523,NH3,2,2,2
India,Bihar,Munger,"Town Hall, Munger - BSPCB",24-04-2024 04:00:00,25.376776,86.471523,SO2,10,25,15
India,Bihar,Muzaffarpur,"Buddha Colony, Muzaffarpur - BSPCB",24-04-2024 04:00:00,26.11442,85.39813,PM2.5,123,332,262
India,Bihar,Muzaffarpur,"Buddha Colony, Muzaffarpur - BSPCB",24-04-2024 04:00:00,26.11442,85.39813,CO,16,64,41
India,Bihar,Muzaffarpur,"MIT-Daudpur Kothi, Muzaffarpur - BSPCB",24-04-2024 04:00:00,26.1403345,85.3650192,NH3,1,2,1
India,Bihar,Muzaffarpur,"MIT-Daudpur Kothi, Muzaffarpur - BSPCB",24-04-2024 04:00:00,26.1403345,85.3650192,SO2,4,4,4
India,Bihar,Patna,"DRM Office Danapur, Patna - BSPCB",24-04-2024 04:00:00,25.586562,85.043586,PM2.5,32,133,87
India,Bihar,Patna,"DRM Office Danapur, Patna - BSPCB",24-04-2024 04:00:00,25.586562,85.043586,NH3,2,3,3
India,Bihar,Patna,"DRM Office Danapur, Patna - BSPCB",24-04-2024 04:00:00,25.586562,85.043586,SO2,12,27,17
India,Bihar,Patna,"Govt. High School Shikarpur, Patna - BSPCB",24-04-2024 04:00:00,25.592539,85.227158,NH3,4,5,5
India,Bihar,Patna,"IGSC Planetarium Complex, Patna - BSPCB",24-04-2024 04:00:00,25.610369,85.132568,CO,12,14,12
India,Bihar,Patna,"Rajbansi Nagar, Patna - BSPCB",24-04-2024 04:00:00,25.599486,85.113666,PM10,117,173,140
India,Bihar,Patna,"Rajbansi Nagar, Patna - BSPCB",24-04-2024 04:00:00,25.599486,85.113666,NH3,5,12,7
India,Bihar,Patna,"Rajbansi Nagar, Patna - BSPCB",24-04-2024 04:00:00,25.599486,85.113666,SO2,5,27,14
India,Bihar,Patna,"Samanpura, Patna - BSPCB",24-04-2024 04:00:00,25.596727,85.085624,CO,34,150,86
India,Bihar,Purnia,"Mariam Nagar, Purnia - BSPCB",24-04-2024 04:00:00,25.366336,87.117468,NO2,5,11,7
India,Bihar,Rajgir,"Dangi Tola, Rajgir - BSPCB",24-04-2024 04:00:00,25.03280,85.41948,SO2,3,5,4
India,Bihar,Rajgir,"Dangi Tola, Rajgir - BSPCB",24-04-2024 04:00:00,25.03280,85.41948,CO,28,48,40
India,Bihar,Saharsa,"Police Line, Saharsa - BSPCB",24-04-2024 04:00:00,25.892357,86.590325,PM10,NA,NA,NA
India,Bihar,Saharsa,"Police Line, Saharsa - BSPCB",24-04-2024 04:00:00,25.892357,86.590325,CO,47,55,54
India,Bihar,Sasaram,"Dada Peer, Sasaram - BSPCB",24-04-2024 04:00:00,24.952822,84.002396,NH3,7,31,14
India,Bihar,Siwan,"Chitragupta Nagar, Siwan - BSPCB",24-04-2024 04:00:00,26.2271665,84.3570427,PM2.5,25,75,49
India,Chandigarh,Chandigarh,"Sector-25, Chandigarh - CPCC",24-04-2024 04:00:00,30.751462,76.762879,SO2,12,104,46
India,Chandigarh,Chandigarh,"Sector-53, Chandigarh - CPCC",24-04-2024 04:00:00,30.719859,76.738637,PM10,44,178,101
India,Chhattisgarh,Bhilai,"32Bungalows, Bhilai - CECB",24-04-2024 04:00:00,21.194815,81.314770,PM2.5,19,54,36
India,Chhattisgarh,Bhilai,"32Bungalows, Bhilai - CECB",24-04-2024 04:00:00,21.194815,81.314770,NH3,6,7,6
India,Chhattisgarh,Bhilai,"32Bungalows, Bhilai - CECB",24-04-2024 04:00:00,21.194815,81.314770,OZONE,5,53,8
India,Chhattisgarh,Bhilai,"Civic Center, Bhilai - Bhilai Steel Plant",24-04-2024 04:00:00,21.185571,81.343175,PM2.5,15,43,24
India,Chhattisgarh,Bhilai,"Civic Center, Bhilai - Bhilai Steel Plant",24-04-2024 04:00:00,21.185571,81.343175,NH3,3,5,3
India,Chhattisgarh,Bhilai,"Civic Center, Bhilai - Bhilai Steel Plant",24-04-2024 04:00:00,21.185571,81.343175,CO,28,52,38
India,Chhattisgarh,Bhilai,"Hathkhoj, Bhilai - CECB",24-04-2024 04:00:00,21.224231,81.408350,PM2.5,10,100,42
India,Chhattisgarh,Bhilai,"Hathkhoj, Bhilai - CECB",24-04-2024 04:00:00,21.224231,81.408350,NO2,7,58,29
India,Chhattisgarh,Bhilai,"Hathkhoj, Bhilai - CECB",24-04-2024 04:00:00,21.224231,81.408350,NH3,7,9,8
India,Chhattisgarh,Bilaspur,"Mangala, Bilaspur - NTPC",24-04-2024 04:00:00,22.08815,82.13737,CO,20,103,21
India,Chhattisgarh,Chhal,"Nawapara SECL Colony, Chhal - CECB",24-04-2024 04:00:00,22.118125,83.140608,PM10,29,68,47
India,Chhattisgarh,Korba,"Rampur, Korba - CECB",24-04-2024 04:00:00,22.368195,82.746431,PM2.5,18,33,23
India,Chhattisgarh,Raipur,"Bhatagaon New ISBT, Raipur - CECB",24-04-2024 04:00:00,21.219665,81.630094,NO2,29,49,37
India,Chhattisgarh,Raipur,"Krishak Nagar, Raipur - CECB",24-04-2024 04:00:00,21.237755,81.705301,OZONE,1,54,6
India,Delhi,Delhi,"Anand Vihar, Delhi - DPCC",24-04-2024 04:00:00,28.647622,77.3158090,PM2.5,73,315,184
India,Delhi,Delhi,"Anand Vihar, Delhi - DPCC",24-04-2024 04:00:00,28.647622,77.3158090,SO2,8,44,24
India,Delhi,Delhi,"Anand Vihar, Delhi - DPCC",24-04-2024 04:00:00,28.647622,77.3158090,OZONE,5,165,16
India,Delhi,Delhi,"Ashok Vihar, Delhi - DPCC",24-04-2024 04:00:00,28.695381,77.181665,PM10,73,431,225
India,Delhi,Delhi,"Ashok Vihar, Delhi - DPCC",24-04-2024 04:00:00,28.695381,77.181665,NH3,10,20,14
India,Delhi,Delhi,"Ashok Vihar, Delhi - DPCC",24-04-2024 04:00:00,28.695381,77.181665,SO2,22,44,30
India,Delhi,Delhi,"Aya Nagar, Delhi - IMD",24-04-2024 04:00:00,28.4706914,77.1099364,PM2.5,NA,NA,NA
India,Delhi,Delhi,"Bawana, Delhi - DPCC",24-04-2024 04:00:00,28.776200,77.051074,NH3,5,8,6
India,Delhi,Delhi,"Burari Crossing, Delhi - IMD",24-04-2024 04:00:00,28.7256504,77.2011573,NO2,12,24,17
India,Delhi,Delhi,"CRRI Mathura Road, Delhi - IMD",24-04-2024 04:00:00,28.5512005,77.2735737,OZONE,1,29,3
India,Delhi,Delhi,"Chandni Chowk, Delhi - IITM",24-04-2024 04:00:00,28.656756,77.227234,PM2.5,107,293,218
India,Delhi,Delhi,"DTU, Delhi - CPCB",24-04-2024 04:00:00,28.7500499,77.1112615,PM10,107,500,210
India,Delhi,Delhi,"DTU, Delhi - CPCB",24-04-2024 04:00:00,28.7500499,77.1112615,NO2,4,15,9
India,Delhi,Delhi,"Dr. Karni Singh Shooting Range, Delhi - DPCC",24-04-2024 04:00:00,28.498571,77.264840,PM10,68,500,165
India,Delhi,Delhi,"Dr. Karni Singh Shooting Range, Delhi - DPCC",24-04-2024 04:00:00,28.498571,77.264840,NO2,26,117,56
India,Delhi,Delhi,"Dr. Karni Singh Shooting Range, Delhi - DPCC",24-04-2024 04:00:00,28.498571,77.264840,NH3,5,7,6
India,Delhi,Delhi,"Dr. Karni Singh Shooting Range, Delhi - DPCC",24-04-2024 04:00:00,28.498571,77.264840,CO,28,100,58
India,Delhi,Delhi,"IGI Airport (T3), Delhi - IMD",24-04-2024 04:00:00,28.5627763,77.1180053,OZONE,5,61,7
India,Delhi,Delhi,"IHBAS, Dilshad Garden, Delhi - CPCB",24-04-2024 04:00:00,28.6811736,77.3025234,PM2.5,67,178,92
India,Delhi,Delhi,"IHBAS, Dilshad Garden, Delhi - CPCB",24-04-2024 04:00:00,28.6811736,77.3025234,PM10,94,448,152
India,Delhi,Delhi,"IHBAS, Dilshad Garden, Delhi - CPCB",24-04-2024 04:00:00,28.6811736,77.3025234,NO2,38,68,50
India,Delhi,Delhi,"ITO, Delhi - CPCB",24-04-2024 04:00:00,28.628624,77.241060,NO2,40,218,100
India,Delhi,Delhi,"ITO, Delhi - CPCB",24-04-2024 04:00:00,28.628624,77.241060,SO2,12,26,18
India,Delhi,Delhi,"Jahangirpuri, Delhi - DPCC",24-04-2024 04:00:00,28.732820,77.170633,NO2,39,179,106
India,Delhi,Delhi,"Jawaharlal Nehru Stadium, Delhi - DPCC",24-04-2024 04:00:00,28.580280,77.233829,PM2.5,41,90,61
India,Delhi,Delhi,"Jawaharlal Nehru Stadium, Delhi - DPCC",24-04-2024 04:00:00,28.580280,77.233829,NH3,5,9,7
India,Delhi,Delhi,"Jawaharlal Nehru Stadium, Delhi - DPCC",24-04-2024 04:00:00,28.580280,77.233829,CO,28,82,67
India,Delhi,Delhi,"Lodhi Road, Delhi - IMD",24-04-2024 04:00:00,28.5918245,77.2273074,PM2.5,7,106,68
India,Delhi,Delhi,"Major Dhyan Chand National Stadium, Delhi - DPCC",24-04-2024 04:00:00,28.611281,77.237738,SO2,8,18,13
India,Delhi,Delhi,"Mandir Marg, Delhi - DPCC",24-04-2024 04:00:00,28.636429,77.201067,SO2,3,29,10
India,Delhi,Delhi,"Mundka, Delhi - DPCC",24-04-2024 04:00:00,28.684678,77.076574,SO2,7,44,22
India,Delhi,Delhi,"NSIT Dwarka, Delhi - CPCB",24-04-2024 04:00:00,28.60909,77.0325413,SO2,3,19,13
India,Delhi,Delhi,"Najafgarh, Delhi - DPCC",24-04-2024 04:00:00,28.570173,76.933762,PM10,25,403,164
India,Delhi,Delhi,"Najafgarh, Delhi - DPCC",24-04-2024 04:00:00,28.570173,76.933762,NH3,6,52,13
India,Delhi,Delhi,"Najafgarh, Delhi - DPCC",24-04-2024 04:00:00,28.570173,76.933762,SO2,3,28,14
India,Delhi,Delhi,"Nehru Nagar, Delhi - DPCC",24-04-2024 04:00:00,28.567890,77.250515,NH3,2,3,2
India,Delhi,Delhi,"North Campus, DU, Delhi - IMD",24-04-2024 04:00:00,28.6573814,77.1585447,PM2.5,44,308,152
India,Delhi,Delhi,"Okhla Phase-2, Delhi - DPCC",24-04-2024 04:00:00,28.530785,77.271255,PM2.5,39,129,68
India,Delhi,Delhi,"Patparganj, Delhi - DPCC",24-04-2024 04:00:00,28.623763,77.287209,NO2,21,96,60
India,Delhi,Delhi,"Patparganj, Delhi - DPCC",24-04-2024 04:00:00,28.623763,77.287209,CO,44,108,85
India,Delhi,Delhi,"Punjabi Bagh, Delhi - DPCC",24-04-2024 04:00:00,28.674045,77.131023,PM2.5,30,337,167
India,Delhi,Delhi,"Punjabi Bagh, Delhi - DPCC",24-04-2024 04:00:00,28.674045,77.131023,PM10,77,441,203
India,Delhi,Delhi,"Punjabi Bagh, Delhi - DPCC",24-04-2024 04:00:00,28.674045,77.131023,NO2,43,74,58
India,Delhi,Delhi,"Punjabi Bagh, Delhi - DPCC",24-04-2024 04:00:00,28.674045,77.131023,CO,33,84,61
India,Delhi,Delhi,"Pusa, Delhi - DPCC",24-04-2024 04:00:00,28.639652,77.146275,PM2.5,22,160,83
India,Delhi,Delhi,"Shadipur, Delhi - CPCB",24-04-2024 04:00:00,28.6514781,77.1473105,NO2,49,83,64
India,Delhi,Delhi,"Shadipur, Delhi - CPCB",24-04-2024 04:00:00,28.6514781,77.1473105,CO,19,36,28
India,Delhi,Delhi,"Sirifort, Delhi - CPCB",24-04-2024 04:00:00,28.5504249,77.2159377,PM10,94,500,181
India,Delhi,Delhi,"Sonia Vihar, Delhi - DPCC",24-04-2024 04:00:00,28.710508,77.249485,SO2,7,30,16
India,Delhi,Delhi,"Sonia Vihar, Delhi - DPCC",24-04-2024 04:00:00,28.710508,77.249485,OZONE,5,172,21
India,Delhi,Delhi,"Sri Aurobindo Marg, Delhi - DPCC",24-04-2024 04:00:00,28.531346,77.190156,PM2.5,38,197,75
India,Delhi,Delhi,"Sri Aurobindo Marg, Delhi - DPCC",24-04-2024 04:00:00,28.531346,77.190156,PM10,79,500,158
India,Delhi,Delhi,"Sri Aurobindo Marg, Delhi - DPCC",24-04-2024 04:00:00,28.531346,77.190156,NH3,6,10,8
India,Delhi,Delhi,"Sri Aurobindo Marg, Delhi - DPCC",24-04-2024 04:00:00,28.531346,77.190156,CO,14,50,41
India,Delhi,Delhi,"Vivek Vihar, Delhi - DPCC",24-04-2024 04:00:00,28.672342,77.315260,PM2.5,33,314,112
India,Delhi,Delhi,"Vivek Vihar, Delhi - DPCC",24-04-2024 04:00:00,28.672342,77.315260,NH3,15,16,15
India,Delhi,Delhi,"Wazirpur, Delhi - DPCC",24-04-2024 04:00:00,28.699793,77.165453,SO2,6,29,16
India,Gujarat,Ahmedabad,"Chandkheda, Ahmedabad - IITM",24-04-2024 04:00:00,23.107969,72.574648,SO2,2,15,7
India,Gujarat,Ahmedabad,"Gyaspur, Ahmedabad - IITM",24-04-2024 04:00:00,22.977134,72.553024,NO2,19,94,47
India,Gujarat,Ahmedabad,"Maninagar, Ahmedabad - GPCB",24-04-2024 04:00:00,23.002657,72.591912,NO2,23,93,42
India,Gujarat,Ahmedabad,"Raikhad, Ahmedabad - IITM",24-04-2024 04:00:00,23.020509,72.579261,SO2,6,23,11
India,Gujarat,Ahmedabad,"Rakhial, Ahmedabad - IITM",24-04-2024 04:00:00,23.016834,72.625775,NH3,3,7,4
India,Gujarat,Ahmedabad,"SVPI Airport Hansol, Ahmedabad - IITM",24-04-2024 04:00:00,23.076793,72.627874,NH3,5,6,6
India,Gujarat,Ankleshwar,"GIDC, Ankleshwar - GPCB",24-04-2024 04:00:00,21.613267,73.010555,NH3,7,7,7
India,Gujarat,Ankleshwar,"GIDC, Ankleshwar - GPCB",24-04-2024 04:00:00,21.613267,73.010555,CO,29,76,64
India,Gujarat,Gandhinagar,"IIPHG Lekawada, Gandhinagar - IITM",24-04-2024 04:00:00,23.243639,72.68994,PM2.5,NA,NA,NA
India,Gujarat,Gandhinagar,"IIPHG Lekawada, Gandhinagar - IITM",24-04-2024 04:00:00,23.243639,72.68994,CO,NA,NA,NA
India,Gujarat,Gandhinagar,"Sector-10, Gandhinagar - GPCB",24-04-2024 04:00:00,23.221714,72.654328,PM10,31,102,58
India,Gujarat,Nandesari,"GIDC, Nandesari - Nandesari Ind. Association",24-04-2024 04:00:00,22.410802,73.097923,NO2,2,50,19
India,Gujarat,Surat,"Science Center, Surat - SMC",24-04-2024 04:00:00,21.170046,72.795405,PM2.5,2,38,12
India,Gujarat,Vatva,"Phase-4 GIDC, Vatva - GPCB",24-04-2024 04:00:00,22.969611,72.643500,CO,34,36,36
India,Haryana,Ambala,"Patti Mehar, Ambala - HSPCB",24-04-2024 04:00:00,30.379589,76.778328,SO2,1,28,18
India,Haryana,Ambala,"Patti Mehar, Ambala - HSPCB",24-04-2024 04:00:00,30.379589,76.778328,OZONE,27,52,40
India,Haryana,Bahadurgarh,"Arya Nagar, Bahadurgarh - HSPCB",24-04-2024 04:00:00,28.6701,76.9254,NO2,NA,NA,NA
India,Haryana,Bahadurgarh,"Arya Nagar, Bahadurgarh - HSPCB",24-04-2024 04:00:00,28.6701,76.9254,CO,92,102,97
India,Haryana,Ballabgarh,"Nathu Colony, Ballabgarh - HSPCB",24-04-2024 04:00:00,28.3419248,77.319699,SO2,1,129,20
India,Haryana,Ballabgarh,"Nathu Colony, Ballabgarh - HSPCB",24-04-2024 04:00:00,28.3419248,77.319699,CO,11,105,49
India,Haryana,Bhiwani,"H.B. Colony, Bhiwani - HSPCB",24-04-2024 04:00:00,28.806223,76.141105,NO2,1,11,8
India,Haryana,Bhiwani,"H.B. Colony, Bhiwani - HSPCB",24-04-2024 04:00:00,28.806223,76.141105,NH3,5,6,6
India,Haryana,Dharuhera,"Municipal Corporation Office, Dharuhera -  HSPCB",24-04-2024 04:00:00,28.206800,76.799700,OZONE,27,49,31
India,Haryana,Faridabad,"New Industrial Town, Faridabad - HSPCB",24-04-2024 04:00:00,28.39072,77.30059,NO2,NA,NA,NA
India,Haryana,Faridabad,"Sector 11, Faridabad - HSPCB",24-04-2024 04:00:00,28.376058,77.315741,PM10,63,401,187
India,Haryana,Faridabad,"Sector 11, Faridabad - HSPCB",24-04-2024 04:00:00,28.376058,77.315741,CO,26,52,46
India,Haryana,Faridabad,"Sector 30, Faridabad - HSPCB",24-04-2024 04:00:00,28.4417,77.3217,NO2,NA,NA,NA
India,Haryana,Fatehabad,"Huda Sector, Fatehabad - HSPCB",24-04-2024 04:00:00,29.503664,75.467934,CO,6,12,7
India,Haryana,Gurugram,"Sector-51, Gurugram - HSPCB",24-04-2024 04:00:00,28.4227,77.0667,NO2,13,29,23
India,Haryana,Gurugram,"Sector-51, Gurugram - HSPCB",24-04-2024 04:00:00,28.4227,77.0667,OZONE,27,67,49
India,Haryana,Gurugram,"Teri Gram, Gurugram - HSPCB",24-04-2024 04:00:00,28.4275,77.1465,PM10,86,368,225
India,Haryana,Jind,"Police Lines, Jind - HSPCB",24-04-2024 04:00:00,29.307814,76.337619,PM10,37,129,91
India,Haryana,Karnal,"Sector-12, Karnal - HSPCB",24-04-2024 04:00:00,29.695300,77.002700,PM10,73,151,109
India,Haryana,Karnal,"Sector-12, Karnal - HSPCB",24-04-2024 04:00:00,29.695300,77.002700,SO2,12,13,12
India,Haryana,Karnal,"Sector-12, Karnal - HSPCB",24-04-2024 04:00:00,29.695300,77.002700,CO,19,42,35
India,Haryana,Kurukshetra,"Sector-7, Kurukshetra - HSPCB",24-04-2024 04:00:00,29.966942,76.875879,NO2,10,10,10
India,Haryana,Mandikhera,"General Hospital, Mandikhera - HSPCB",24-04-2024 04:00:00,27.9002,76.9938,PM2.5,10,61,30
India,Haryana,Mandikhera,"General Hospital, Mandikhera - HSPCB",24-04-2024 04:00:00,27.9002,76.9938,NH3,15,20,18
India,Haryana,Mandikhera,"General Hospital, Mandikhera - HSPCB",24-04-2024 04:00:00,27.9002,76.9938,SO2,29,42,34
India,Haryana,Mandikhera,"General Hospital, Mandikhera - HSPCB",24-04-2024 04:00:00,27.9002,76.9938,OZONE,21,37,27
India,Haryana,Panchkula,"Sector-6, Panchkula - HSPCB ",24-04-2024 04:00:00,30.7057778,76.8531805555555,SO2,2,20,4
India,Haryana,Panchkula,"Sector-6, Panchkula - HSPCB ",24-04-2024 04:00:00,30.7057778,76.8531805555555,OZONE,36,56,47
India,Haryana,Rohtak,"MD University, Rohtak - HSPCB",24-04-2024 04:00:00,28.52123,76.37138,CO,24,90,49
India,Haryana,Sirsa,"F-Block, Sirsa - HSPCB",24-04-2024 04:00:00,29.536400,75.015800,NH3,12,13,12
India,Haryana,Yamuna Nagar,"Gobind Pura, Yamuna Nagar - HSPCB",24-04-2024 04:00:00,30.1480566,77.2893471,SO2,1,83,13
India,Haryana,Yamuna Nagar,"Gobind Pura, Yamuna Nagar - HSPCB",24-04-2024 04:00:00,30.1480566,77.2893471,OZONE,15,36,17
India,Jharkhand,Dhanbad,"Kalakusuma, Dhanbad - DMC",24-04-2024 04:00:00,23.811548,86.481238,NO2,NA,NA,NA
India,Jharkhand,Dhanbad,"Sardar Patel Nagar, Dhanbad - JSPCB",24-04-2024 04:00:00,23.80569,86.44268,PM10,63,159,112
India,Jharkhand,Dhanbad,"Sardar Patel Nagar, Dhanbad - JSPCB",24-04-2024 04:00:00,23.80569,86.44268,SO2,NA,NA,NA
India,Jharkhand,Dhanbad,"Sardar Patel Nagar, Dhanbad - JSPCB",24-04-2024 04:00:00,23.80569,86.44268,OZONE,16,23,18
India,Jharkhand,Pathardih,"Mohalbani Ghat, Pathardih - DMC",24-04-2024 04:00:00,23.669880,86.411725,SO2,NA,NA,NA
India,Jharkhand,Pathardih,"Mohalbani Ghat, Pathardih - DMC",24-04-2024 04:00:00,23.669880,86.411725,CO,NA,NA,NA
India,Karnataka,Bagalkot,"Vidayagiri, Bagalkot - KSPCB",24-04-2024 04:00:00,16.172806,75.659694,PM10,45,46,46
India,Karnataka,Belgaum,"Ramteerth Nagar, Belgaum - KSPCB",24-04-2024 04:00:00,15.888653,74.541751,NH3,1,6,3
India,Karnataka,Belgaum,"Ramteerth Nagar, Belgaum - KSPCB",24-04-2024 04:00:00,15.888653,74.541751,SO2,8,9,8
India,Karnataka,Belgaum,"Ramteerth Nagar, Belgaum - KSPCB",24-04-2024 04:00:00,15.888653,74.541751,OZONE,19,20,20
India,Karnataka,Bengaluru,"BTM Layout, Bengaluru - CPCB",24-04-2024 04:00:00,12.9135218,77.5950804,CO,22,28,26
India,Karnataka,Bengaluru,"Bapuji Nagar, Bengaluru - KSPCB",24-04-2024 04:00:00,12.951913,77.539784,PM2.5,47,143,81
India,Karnataka,Bengaluru,"Bapuji Nagar, Bengaluru - KSPCB",24-04-2024 04:00:00,12.951913,77.539784,PM10,48,105,73
India,Karnataka,Bengaluru,"Hebbal, Bengaluru - KSPCB",24-04-2024 04:00:00,13.029152,77.585901,PM10,50,111,83
India,Karnataka,Bengaluru,"Hebbal, Bengaluru - KSPCB",24-04-2024 04:00:00,13.029152,77.585901,SO2,16,26,20
India,Karnataka,Bengaluru,"Hebbal, Bengaluru - KSPCB",24-04-2024 04:00:00,13.029152,77.585901,CO,1,32,18
India,Karnataka,Bengaluru,"Hebbal, Bengaluru - KSPCB",24-04-2024 04:00:00,13.029152,77.585901,OZONE,8,27,9
India,Karnataka,Bengaluru,"Jayanagar 5th Block, Bengaluru - KSPCB",24-04-2024 04:00:00,12.920984,77.584908,NO2,4,8,6
India,Karnataka,Bengaluru,"Jayanagar 5th Block, Bengaluru - KSPCB",24-04-2024 04:00:00,12.920984,77.584908,SO2,8,41,17
India,Karnataka,Bengaluru,"Jayanagar 5th Block, Bengaluru - KSPCB",24-04-2024 04:00:00,12.920984,77.584908,CO,5,7,6
India,Karnataka,Bengaluru,"Kasturi Nagar, Bengaluru - KSPCB",24-04-2024 04:00:00,13.003872,77.664217,PM2.5,47,500,117
India,Karnataka,Bengaluru,"Peenya, Bengaluru - CPCB",24-04-2024 04:00:00,13.0270199,77.494094,PM2.5,56,72,64
India,Karnataka,Bengaluru,"Peenya, Bengaluru - CPCB",24-04-2024 04:00:00,13.0270199,77.494094,PM10,71,92,81
India,Karnataka,Bengaluru,"RVCE-Mailasandra, Bengaluru - KSPCB",24-04-2024 04:00:00,12.921418,77.502466,PM2.5,31,97,68
India,Karnataka,Bengaluru,"RVCE-Mailasandra, Bengaluru - KSPCB",24-04-2024 04:00:00,12.921418,77.502466,PM10,45,109,83
India,Karnataka,Bengaluru,"RVCE-Mailasandra, Bengaluru - KSPCB",24-04-2024 04:00:00,12.921418,77.502466,NO2,16,17,17
India,Karnataka,Bengaluru,"RVCE-Mailasandra, Bengaluru - KSPCB",24-04-2024 04:00:00,12.921418,77.502466,SO2,7,31,12
India,Karnataka,Bengaluru,"RVCE-Mailasandra, Bengaluru - KSPCB",24-04-2024 04:00:00,12.921418,77.502466,CO,39,58,51
India,Karnataka,Bengaluru,"Sanegurava Halli, Bengaluru - KSPCB",24-04-2024 04:00:00,12.990328,77.5431385,PM10,39,70,50
India,Karnataka,Bengaluru,"Sanegurava Halli, Bengaluru - KSPCB",24-04-2024 04:00:00,12.990328,77.5431385,SO2,2,3,3
India,Karnataka,Bengaluru,"Shivapura_Peenya, Bengaluru - KSPCB",24-04-2024 04:00:00,13.0246342,77.5080115,NO2,15,16,15
India,Karnataka,Bengaluru,"Shivapura_Peenya, Bengaluru - KSPCB",24-04-2024 04:00:00,13.0246342,77.5080115,CO,22,40,27
India,Karnataka,Chikkaballapur,"Chikkaballapur Rural, Chikkaballapur - KSPCB",24-04-2024 04:00:00,13.428828,77.731418,PM10,44,111,72
India,Karnataka,Chikkaballapur,"Chikkaballapur Rural, Chikkaballapur - KSPCB",24-04-2024 04:00:00,13.428828,77.731418,NH3,1,1,1
India,Karnataka,Chikkaballapur,"Chikkaballapur Rural, Chikkaballapur - KSPCB",24-04-2024 04:00:00,13.428828,77.731418,CO,5,23,20
India,Karnataka,Chikkamagaluru,"Kalyana Nagara, Chikkamagaluru - KSPCB",24-04-2024 04:00:00,13.328028,75.797056,OZONE,15,63,18
India,Karnataka,Davanagere,"Devaraj Urs Badavane, Davanagere - KSPCB",24-04-2024 04:00:00,14.475800,75.905200,OZONE,20,27,21
India,Karnataka,Dharwad,"Kalabhavan, Dharwad - KSPCB",24-04-2024 04:00:00,15.459706,75.008381,NO2,7,33,17
India,Karnataka,Gadag,"Panchal Nagar, Gadag - KSPCB",24-04-2024 04:00:00,15.411456,75.638133,NH3,1,3,2
India,Karnataka,Gadag,"Panchal Nagar, Gadag - KSPCB",24-04-2024 04:00:00,15.411456,75.638133,CO,43,56,50
India,Karnataka,Gadag,"Panchal Nagar, Gadag - KSPCB",24-04-2024 04:00:00,15.411456,75.638133,OZONE,35,98,48
India,Karnataka,Hassan,"B.Katihalli, Hassan - KSPCB",24-04-2024 04:00:00,13.008556,76.125258,PM2.5,NA,NA,NA
India,Karnataka,Haveri,"Ashwini Nagar, Haveri - KSPCB",24-04-2024 04:00:00,14.791800,75.389600,PM10,NA,NA,NA
India,Karnataka,Kalaburagi,"Lal Bahadur Shastri Nagar, Kalaburagi - KSPCB",24-04-2024 04:00:00,17.321993,76.822628,PM2.5,2,294,43
India,Karnataka,Karwar,"KHB Colony, Karwar - KSPCB",24-04-2024 04:00:00,14.816666,74.141003,CO,8,9,9
India,Karnataka,Kolar,"Tamaka Ind. Area, Kolar - KSPCB",24-04-2024 04:00:00,13.1276288,78.1570122,PM10,NA,NA,NA
India,Karnataka,Kolar,"Tamaka Ind. Area, Kolar - KSPCB",24-04-2024 04:00:00,13.1276288,78.1570122,SO2,NA,NA,NA
India,Karnataka,Madikeri,"Stuart Hill, Madikeri - KSPCB",24-04-2024 04:00:00,12.415911,75.735050,PM10,21,61,38
India,Karnataka,Madikeri,"Stuart Hill, Madikeri - KSPCB",24-04-2024 04:00:00,12.415911,75.735050,NO2,2,16,8
India,Karnataka,Madikeri,"Stuart Hill, Madikeri - KSPCB",24-04-2024 04:00:00,12.415911,75.735050,SO2,4,4,4
India,Karnataka,Mangalore,"Kadri, Mangalore - KSPCB",24-04-2024 04:00:00,12.889250,74.853000,PM10,56,98,76
India,Karnataka,Mangalore,"Kadri, Mangalore - KSPCB",24-04-2024 04:00:00,12.889250,74.853000,CO,32,34,33
India,Karnataka,Mysuru,"Hebbal 1st Stage, Mysuru - KSPCB",24-04-2024 04:00:00,12.21041,76.37376,NH3,1,2,2
India,Karnataka,Mysuru,"Hebbal 1st Stage, Mysuru - KSPCB",24-04-2024 04:00:00,12.21041,76.37376,CO,7,36,17
India,Karnataka,Mysuru,"Hebbal 1st Stage, Mysuru - KSPCB",24-04-2024 04:00:00,12.21041,76.37376,OZONE,14,98,37
India,Karnataka,Raichur,"Haji Colony, Raichur - KSPCB",24-04-2024 04:00:00,16.208139,77.348417,NO2,NA,NA,NA
India,Karnataka,Ramanagara,"Vijay Nagar, Ramanagara - KSPCB",24-04-2024 04:00:00,12.733409,77.298051,NH3,1,2,1
India,Karnataka,Shivamogga,"Vinoba Nagara, Shivamogga - KSPCB",24-04-2024 04:00:00,13.940000,75.555917,PM2.5,22,50,33
India,Karnataka,Tumakuru,"Thimmalapura, Tumakuru - KSPCB",24-04-2024 04:00:00,13.377516,77.099072,PM2.5,NA,NA,NA
India,Karnataka,Vijayapura,"Ibrahimpur, Vijayapura - KSPCB",24-04-2024 04:00:00,16.802639,75.722694,NH3,NA,NA,NA
India,Karnataka,Vijayapura,"Ibrahimpur, Vijayapura - KSPCB",24-04-2024 04:00:00,16.802639,75.722694,CO,12,12,12
India,Karnataka,Yadgir,"Collector Office, Yadgir - KSPCB",24-04-2024 04:00:00,16.7602,77.1428,PM2.5,40,79,51
India,Karnataka,Yadgir,"Collector Office, Yadgir - KSPCB",24-04-2024 04:00:00,16.7602,77.1428,CO,12,23,15
India,Kerala,Kannur,"Thavakkara, Kannur - Kerala PCB",24-04-2024 04:00:00,11.875000,75.373200,PM10,65,120,82
India,Kerala,Kollam,"Polayathode, Kollam - Kerala PCB",24-04-2024 04:00:00,8.8787,76.6073,NO2,8,9,8
