country,state,city,station,last_update,latitude,longitude,pollutant_id,pollutant_min,pollutant_max,pollutant_avg
India,Andhra_Pradesh,Amaravati,"Secretariat, Amaravati - APPCB",08-03-2024 06:00:00,16.5150833,80.5181667,NO2,6,19,11
India,Andhra_Pradesh,Amaravati,"Secretariat, Amaravati - APPCB",08-03-2024 06:00:00,16.5150833,80.5181667,NH3,3,5,4
India,Andhra_Pradesh,Amaravati,"Secretariat, Amaravati - APPCB",08-03-2024 06:00:00,16.5150833,80.5181667,CO,15,54,37
India,Andhra_Pradesh,Anantapur,"Gulzarpet, Anantapur - APPCB",08-03-2024 06:00:00,14.675886,77.593027,PM2.5,NA,NA,NA
India,Andhra_Pradesh,Anantapur,"Gulzarpet, Anantapur - APPCB",08-03-2024 06:00:00,14.675886,77.593027,PM10,NA,NA,NA
India,Andhra_Pradesh,Anantapur,"Gulzarpet, Anantapur - APPCB",08-03-2024 06:00:00,14.675886,77.593027,OZONE,1,70,20
India,Andhra_Pradesh,Kadapa,"Yerramukkapalli, Kadapa - APPCB",08-03-2024 06:00:00,14.465052,78.824187,PM2.5,26,162,60
India,Andhra_Pradesh,Kadapa,"Yerramukkapalli, Kadapa - APPCB",08-03-2024 06:00:00,14.465052,78.824187,OZONE,16,105,47
India,Andhra_Pradesh,Rajamahendravaram,"Anand Kala Kshetram, Rajamahendravaram - APPCB",08-03-2024 06:00:00,16.9872867,81.7363176,NO2,8,55,25
India,Andhra_Pradesh,Rajamahendravaram,"Anand Kala Kshetram, Rajamahendravaram - APPCB",08-03-2024 06:00:00,16.9872867,81.7363176,NH3,3,6,4
India,Andhra_Pradesh,Rajamahendravaram,"Anand Kala Kshetram, Rajamahendravaram - APPCB",08-03-2024 06:00:00,16.9872867,81.7363176,CO,12,58,30
India,Andhra_Pradesh,Rajamahendravaram,"Anand Kala Kshetram, Rajamahendravaram - APPCB",08-03-2024 06:00:00,16.9872867,81.7363176,OZONE,11,26,15
India,Andhra_Pradesh,Tirupati,"Tirumala, Tirupati - APPCB",08-03-2024 06:00:00,13.67,79.35,PM2.5,20,80,52
India,Andhra_Pradesh,Tirupati,"Tirumala, Tirupati - APPCB",08-03-2024 06:00:00,13.67,79.35,CO,27,50,36
India,Andhra_Pradesh,Tirupati,"Vaikuntapuram, Tirupati - APPCB",08-03-2024 06:00:00,13.615387,79.409230,NO2,16,42,21
India,Andhra_Pradesh,Tirupati,"Vaikuntapuram, Tirupati - APPCB",08-03-2024 06:00:00,13.615387,79.409230,SO2,4,5,5
India,Andhra_Pradesh,Vijayawada,"HB Colony, Vijayawada - APPCB",08-03-2024 06:00:00,16.536107,80.594233,NH3,4,4,4
India,Andhra_Pradesh,Vijayawada,"Kanuru, Vijayawada - APPCB",08-03-2024 06:00:00,16.486692,80.699436,NO2,14,22,17
India,Andhra_Pradesh,Vijayawada,"Kanuru, Vijayawada - APPCB",08-03-2024 06:00:00,16.486692,80.699436,NH3,1,1,1
India,Andhra_Pradesh,Vijayawada,"Rajiv Gandhi Park, Vijayawada - APPCB",08-03-2024 06:00:00,16.509717,80.612222,PM10,41,73,60
India,Andhra_Pradesh,Vijayawada,"Rajiv Nagar, Vijayawada - APPCB",08-03-2024 06:00:00,16.554731,80.649110,OZONE,6,32,9
India,Andhra_Pradesh,Visakhapatnam,"GVM Corporation, Visakhapatnam - APPCB",08-03-2024 06:00:00,17.72,83.3,PM2.5,32,110,67
India,Andhra_Pradesh,Visakhapatnam,"GVM Corporation, Visakhapatnam - APPCB",08-03-2024 06:00:00,17.72,83.3,PM10,68,159,101
India,Andhra_Pradesh,Visakhapatnam,"GVM Corporation, Visakhapatnam - APPCB",08-03-2024 06:00:00,17.72,83.3,CO,4,54,28
India,Assam,Byrnihat,"Central Academy for SFS, Byrnihat - PCBA",08-03-2024 06:00:00,26.071318,91.87488,SO2,NA,NA,NA
India,Assam,Guwahati,"IITG, Guwahati - PCBA",08-03-2024 06:00:00,26.2028636,91.70046436,PM10,99,209,149
India,Assam,Guwahati,"IITG, Guwahati - PCBA",08-03-2024 06:00:00,26.2028636,91.70046436,NO2,1,15,6
India,Assam,Guwahati,"IITG, Guwahati - PCBA",08-03-2024 06:00:00,26.2028636,91.70046436,SO2,12,14,13
India,Assam,Guwahati,"LGBI Airport, Guwahati - PCBA",08-03-2024 06:00:00,26.10887,91.589544,PM10,111,239,153
India,Assam,Guwahati,"LGBI Airport, Guwahati - PCBA",08-03-2024 06:00:00,26.10887,91.589544,OZONE,12,82,27
India,Assam,Guwahati,"Pan Bazaar, Guwahati - PCBA",08-03-2024 06:00:00,26.187500,91.744194,PM2.5,64,300,151
India,Assam,Guwahati,"Railway Colony, Guwahati - PCBA",08-03-2024 06:00:00,26.181742,91.78063,NO2,3,4,3
India,Assam,Nagaon,"Christianpatty, Nagaon - PCBA",08-03-2024 06:00:00,26.349082,92.68449,PM2.5,73,386,209
India,Assam,Nagaon,"Christianpatty, Nagaon - PCBA",08-03-2024 06:00:00,26.349082,92.68449,PM10,84,406,186
India,Assam,Silchar,"Tarapur, Silchar - PCBA",08-03-2024 06:00:00,24.82827,92.79525,NO2,22,47,35
India,Assam,Silchar,"Tarapur, Silchar - PCBA",08-03-2024 06:00:00,24.82827,92.79525,CO,29,46,36
India,Bihar,Araria,"Kharahiya Basti, Araria - BSPCB",08-03-2024 06:00:00,26.146529,87.454184,PM10,72,221,120
India,Bihar,Aurangabad,"Gurdeo Nagar, Aurangabad - BSPCB",08-03-2024 06:00:00,24.75746,84.366208,NO2,5,6,5
India,Bihar,Bettiah,"Kamalnath Nagar, Bettiah - BSPCB",08-03-2024 06:00:00,26.80365,84.51954,PM10,71,183,119
India,Bihar,Bhagalpur,"Mayaganj, Bhagalpur - BSPCB",08-03-2024 06:00:00,25.265194,87.012947,PM2.5,NA,NA,NA
India,Bihar,Bhagalpur,"Mayaganj, Bhagalpur - BSPCB",08-03-2024 06:00:00,25.265194,87.012947,NH3,NA,NA,NA
India,Bihar,Bihar Sharif,"D M Colony, Bihar Sharif - BSPCB",08-03-2024 06:00:00,25.204762,85.514960,PM2.5,27,80,48
India,Bihar,Bihar Sharif,"D M Colony, Bihar Sharif - BSPCB",08-03-2024 06:00:00,25.204762,85.514960,CO,10,60,26
India,Bihar,Gaya,"Collectorate, Gaya - BSPCB",08-03-2024 06:00:00,24.7955,84.9994,NO2,1,3,2
India,Bihar,Gaya,"Kareemganj, Gaya - BSPCB",08-03-2024 06:00:00,24.792403,84.992416,PM2.5,12,110,50
India,Bihar,Gaya,"Kareemganj, Gaya - BSPCB",08-03-2024 06:00:00,24.792403,84.992416,OZONE,2,24,11
India,Bihar,Hajipur,"Industrial Area, Hajipur - BSPCB",08-03-2024 06:00:00,25.697189,85.245900,PM10,112,252,165
India,Bihar,Katihar,"Mirchaibari, Katihar - BSPCB",08-03-2024 06:00:00,25.560083,87.553265,SO2,15,24,20
India,Bihar,Katihar,"Mirchaibari, Katihar - BSPCB",08-03-2024 06:00:00,25.560083,87.553265,CO,28,110,66
India,Bihar,Kishanganj,"SDM Office_Khagra, Kishanganj - BSPCB",08-03-2024 06:00:00,26.0881305,87.93840336,NH3,10,12,12
India,Bihar,Motihari,"Gandak Colony, Motihari - BSPCB",08-03-2024 06:00:00,26.63086,84.90051,NH3,9,17,13
India,Bihar,Motihari,"Gandak Colony, Motihari - BSPCB",08-03-2024 06:00:00,26.63086,84.90051,SO2,2,12,8
India,Bihar,Munger,"Town Hall, Munger - BSPCB",08-03-2024 06:00:00,25.376776,86.471523,CO,58,62,62
India,Bihar,Muzaffarpur,"Buddha Colony, Muzaffarpur - BSPCB",08-03-2024 06:00:00,26.11442,85.39813,PM2.5,106,262,168
India,Bihar,Muzaffarpur,"Buddha Colony, Muzaffarpur - BSPCB",08-03-2024 06:00:00,26.11442,85.39813,NH3,8,25,14
India,Bihar,Muzaffarpur,"Buddha Colony, Muzaffarpur - BSPCB",08-03-2024 06:00:00,26.11442,85.39813,SO2,7,17,11
India,Bihar,Muzaffarpur,"Buddha Colony, Muzaffarpur - BSPCB",08-03-2024 06:00:00,26.11442,85.39813,CO,12,40,26
India,Bihar,Muzaffarpur,"MIT-Daudpur Kothi, Muzaffarpur - BSPCB",08-03-2024 06:00:00,26.1403345,85.3650192,PM10,67,165,111
India,Bihar,Muzaffarpur,"Muzaffarpur Collectorate, Muzaffarpur - BSPCB",08-03-2024 06:00:00,26.1209,85.3647,PM2.5,44,130,83
India,Bihar,Muzaffarpur,"Muzaffarpur Collectorate, Muzaffarpur - BSPCB",08-03-2024 06:00:00,26.1209,85.3647,OZONE,11,108,61
India,Bihar,Patna,"DRM Office Danapur, Patna - BSPCB",08-03-2024 06:00:00,25.586562,85.043586,PM2.5,77,149,98
India,Bihar,Patna,"DRM Office Danapur, Patna - BSPCB",08-03-2024 06:00:00,25.586562,85.043586,CO,26,81,48
India,Bihar,Patna,"Govt. High School Shikarpur, Patna - BSPCB",08-03-2024 06:00:00,25.592539,85.227158,PM10,130,181,153
India,Bihar,Patna,"IGSC Planetarium Complex, Patna - BSPCB",08-03-2024 06:00:00,25.610369,85.132568,NO2,14,14,14
India,Bihar,Patna,"Muradpur, Patna - BSPCB",08-03-2024 06:00:00,25.619651,85.147382,PM10,127,429,170
India,Bihar,Patna,"Muradpur, Patna - BSPCB",08-03-2024 06:00:00,25.619651,85.147382,SO2,7,12,9
India,Bihar,Patna,"Rajbansi Nagar, Patna - BSPCB",08-03-2024 06:00:00,25.599486,85.113666,PM2.5,48,103,74
India,Bihar,Patna,"Samanpura, Patna - BSPCB",08-03-2024 06:00:00,25.596727,85.085624,PM10,84,288,175
India,Bihar,Saharsa,"Police Line, Saharsa - BSPCB",08-03-2024 06:00:00,25.892357,86.590325,PM2.5,27,263,94
India,Bihar,Saharsa,"Police Line, Saharsa - BSPCB",08-03-2024 06:00:00,25.892357,86.590325,SO2,16,17,16
India,Bihar,Samastipur,"DM Office_Kasipur, Samastipur - BSPCB",08-03-2024 06:00:00,25.859655,85.77944,PM2.5,NA,NA,NA
India,Bihar,Samastipur,"DM Office_Kasipur, Samastipur - BSPCB",08-03-2024 06:00:00,25.859655,85.77944,NO2,NA,NA,NA
India,Bihar,Samastipur,"DM Office_Kasipur, Samastipur - BSPCB",08-03-2024 06:00:00,25.859655,85.77944,NH3,NA,NA,NA
India,Bihar,Samastipur,"DM Office_Kasipur, Samastipur - BSPCB",08-03-2024 06:00:00,25.859655,85.77944,OZONE,NA,NA,NA
India,Bihar,Sasaram,"Dada Peer, Sasaram - BSPCB",08-03-2024 06:00:00,24.952822,84.002396,CO,94,114,108
India,Bihar,Siwan,"Chitragupta Nagar, Siwan - BSPCB",08-03-2024 06:00:00,26.2271665,84.3570427,PM10,76,137,101
India,Bihar,Siwan,"Chitragupta Nagar, Siwan - BSPCB",08-03-2024 06:00:00,26.2271665,84.3570427,SO2,16,35,31
India,Chandigarh,Chandigarh,"Sector 22, Chandigarh - CPCC",08-03-2024 06:00:00,30.735567,76.775714,NO2,12,77,29
India,Chandigarh,Chandigarh,"Sector 22, Chandigarh - CPCC",08-03-2024 06:00:00,30.735567,76.775714,NH3,4,6,6
India,Chandigarh,Chandigarh,"Sector-53, Chandigarh - CPCC",08-03-2024 06:00:00,30.719859,76.738637,PM2.5,30,303,110
India,Chhattisgarh,Bhilai,"32Bungalows, Bhilai - CECB",08-03-2024 06:00:00,21.194815,81.314770,PM2.5,10,63,41
India,Chhattisgarh,Bhilai,"32Bungalows, Bhilai - CECB",08-03-2024 06:00:00,21.194815,81.314770,NH3,6,6,6
India,Chhattisgarh,Bhilai,"Hathkhoj, Bhilai - CECB",08-03-2024 06:00:00,21.224231,81.408350,SO2,15,48,25
India,Chhattisgarh,Chhal,"Nawapara SECL Colony, Chhal - CECB",08-03-2024 06:00:00,22.118125,83.140608,CO,10,44,34
India,Chhattisgarh,Korba,"Urja Nagar, Korba - CECB",08-03-2024 06:00:00,22.348441,82.549611,CO,20,36,28
India,Chhattisgarh,Kunjemura,"OP Jindal School, Kunjemura - CECB",08-03-2024 06:00:00,22.126650,83.483212,NH3,1,3,2
India,Chhattisgarh,Milupara,"Govt. Higher Secondary School, Milupara - CECB",08-03-2024 06:00:00,22.1910172,83.5197009,NO2,12,61,23
India,Chhattisgarh,Milupara,"Govt. Higher Secondary School, Milupara - CECB",08-03-2024 06:00:00,22.1910172,83.5197009,NH3,1,2,1
India,Chhattisgarh,Milupara,"Govt. Higher Secondary School, Milupara - CECB",08-03-2024 06:00:00,22.1910172,83.5197009,CO,19,44,23
India,Chhattisgarh,Raipur,"AIIMS, Raipur - CECB",08-03-2024 06:00:00,21.258815,81.578979,NH3,5,5,5
India,Chhattisgarh,Raipur,"AIIMS, Raipur - CECB",08-03-2024 06:00:00,21.258815,81.578979,CO,28,56,51
India,Chhattisgarh,Raipur,"Krishak Nagar, Raipur - CECB",08-03-2024 06:00:00,21.237755,81.705301,PM2.5,39,87,58
India,Chhattisgarh,Raipur,"Krishak Nagar, Raipur - CECB",08-03-2024 06:00:00,21.237755,81.705301,NO2,24,46,37
India,Chhattisgarh,Raipur,"Krishak Nagar, Raipur - CECB",08-03-2024 06:00:00,21.237755,81.705301,SO2,7,57,17
India,Chhattisgarh,Raipur,"Krishak Nagar, Raipur - CECB",08-03-2024 06:00:00,21.237755,81.705301,OZONE,5,31,5
India,Delhi,Delhi,"Anand Vihar, Delhi - DPCC",08-03-2024 06:00:00,28.647622,77.3158090,NO2,55,143,99
India,Delhi,Delhi,"Ashok Vihar, Delhi - DPCC",08-03-2024 06:00:00,28.695381,77.181665,SO2,18,38,26
India,Delhi,Delhi,"Bawana, Delhi - DPCC",08-03-2024 06:00:00,28.776200,77.051074,NH3,5,6,6
India,Delhi,Delhi,"Burari Crossing, Delhi - IMD",08-03-2024 06:00:00,28.7256504,77.2011573,NO2,11,17,13
India,Delhi,Delhi,"CRRI Mathura Road, Delhi - IMD",08-03-2024 06:00:00,28.5512005,77.2735737,CO,12,92,48
India,Delhi,Delhi,"Chandni Chowk, Delhi - IITM",08-03-2024 06:00:00,28.656756,77.227234,PM2.5,143,323,213
India,Delhi,Delhi,"DTU, Delhi - CPCB",08-03-2024 06:00:00,28.7500499,77.1112615,PM2.5,41,174,71
India,Delhi,Delhi,"DTU, Delhi - CPCB",08-03-2024 06:00:00,28.7500499,77.1112615,NO2,29,52,40
India,Delhi,Delhi,"DTU, Delhi - CPCB",08-03-2024 06:00:00,28.7500499,77.1112615,SO2,26,28,27
India,Delhi,Delhi,"Dr. Karni Singh Shooting Range, Delhi - DPCC",08-03-2024 06:00:00,28.498571,77.264840,PM2.5,45,256,119
India,Delhi,Delhi,"Dwarka-Sector 8, Delhi - DPCC ",08-03-2024 06:00:00,28.5710274,77.0719006,PM10,117,430,209
India,Delhi,Delhi,"IHBAS, Dilshad Garden, Delhi - CPCB",08-03-2024 06:00:00,28.6811736,77.3025234,NH3,3,10,8
India,Delhi,Delhi,"ITO, Delhi - CPCB",08-03-2024 06:00:00,28.628624,77.241060,NO2,28,151,69
India,Delhi,Delhi,"Lodhi Road, Delhi - IITM",08-03-2024 06:00:00,28.588333,77.221667,SO2,NA,NA,NA
India,Delhi,Delhi,"Major Dhyan Chand National Stadium, Delhi - DPCC",08-03-2024 06:00:00,28.611281,77.237738,NH3,6,9,7
India,Delhi,Delhi,"Mandir Marg, Delhi - DPCC",08-03-2024 06:00:00,28.636429,77.201067,PM10,68,141,110
India,Delhi,Delhi,"Mundka, Delhi - DPCC",08-03-2024 06:00:00,28.684678,77.076574,CO,14,98,48
India,Delhi,Delhi,"NSIT Dwarka, Delhi - CPCB",08-03-2024 06:00:00,28.60909,77.0325413,PM10,116,482,206
India,Delhi,Delhi,"NSIT Dwarka, Delhi - CPCB",08-03-2024 06:00:00,28.60909,77.0325413,SO2,17,22,19
India,Delhi,Delhi,"NSIT Dwarka, Delhi - CPCB",08-03-2024 06:00:00,28.60909,77.0325413,CO,28,76,45
India,Delhi,Delhi,"Najafgarh, Delhi - DPCC",08-03-2024 06:00:00,28.570173,76.933762,PM2.5,38,380,159
India,Delhi,Delhi,"Najafgarh, Delhi - DPCC",08-03-2024 06:00:00,28.570173,76.933762,NO2,7,27,15
India,Delhi,Delhi,"Najafgarh, Delhi - DPCC",08-03-2024 06:00:00,28.570173,76.933762,CO,1,73,32
India,Delhi,Delhi,"Narela, Delhi - DPCC",08-03-2024 06:00:00,28.822836,77.101981,PM2.5,57,406,193
India,Delhi,Delhi,"Narela, Delhi - DPCC",08-03-2024 06:00:00,28.822836,77.101981,NO2,14,84,45
India,Delhi,Delhi,"Narela, Delhi - DPCC",08-03-2024 06:00:00,28.822836,77.101981,CO,44,94,68
India,Delhi,Delhi,"Nehru Nagar, Delhi - DPCC",08-03-2024 06:00:00,28.567890,77.250515,SO2,7,21,11
India,Delhi,Delhi,"Nehru Nagar, Delhi - DPCC",08-03-2024 06:00:00,28.567890,77.250515,OZONE,2,191,12
India,Delhi,Delhi,"North Campus, DU, Delhi - IMD",08-03-2024 06:00:00,28.6573814,77.1585447,PM2.5,67,306,151
India,Delhi,Delhi,"North Campus, DU, Delhi - IMD",08-03-2024 06:00:00,28.6573814,77.1585447,NO2,11,23,17
India,Delhi,Delhi,"Okhla Phase-2, Delhi - DPCC",08-03-2024 06:00:00,28.530785,77.271255,PM2.5,38,288,117
India,Delhi,Delhi,"Okhla Phase-2, Delhi - DPCC",08-03-2024 06:00:00,28.530785,77.271255,NO2,40,156,104
India,Delhi,Delhi,"Okhla Phase-2, Delhi - DPCC",08-03-2024 06:00:00,28.530785,77.271255,OZONE,10,125,12
India,Delhi,Delhi,"Patparganj, Delhi - DPCC",08-03-2024 06:00:00,28.623763,77.287209,PM2.5,40,142,77
India,Delhi,Delhi,"Patparganj, Delhi - DPCC",08-03-2024 06:00:00,28.623763,77.287209,NO2,34,64,52
India,Delhi,Delhi,"Punjabi Bagh, Delhi - DPCC",08-03-2024 06:00:00,28.674045,77.131023,SO2,NA,NA,NA
India,Delhi,Delhi,"Pusa, Delhi - IMD",08-03-2024 06:00:00,28.636110,77.173332,PM2.5,NA,NA,NA
India,Delhi,Delhi,"Pusa, Delhi - IMD",08-03-2024 06:00:00,28.636110,77.173332,OZONE,1,19,2
India,Delhi,Delhi,"Rohini, Delhi - DPCC",08-03-2024 06:00:00,28.732528,77.119920,PM2.5,48,316,174
India,Delhi,Delhi,"Rohini, Delhi - DPCC",08-03-2024 06:00:00,28.732528,77.119920,CO,13,78,52
India,Delhi,Delhi,"Shadipur, Delhi - CPCB",08-03-2024 06:00:00,28.6514781,77.1473105,SO2,3,21,16
India,Delhi,Delhi,"Shadipur, Delhi - CPCB",08-03-2024 06:00:00,28.6514781,77.1473105,OZONE,12,45,26
India,Delhi,Delhi,"Sirifort, Delhi - CPCB",08-03-2024 06:00:00,28.5504249,77.2159377,CO,15,75,55
India,Delhi,Delhi,"Sonia Vihar, Delhi - DPCC",08-03-2024 06:00:00,28.710508,77.249485,PM10,82,348,150
India,Delhi,Delhi,"Sonia Vihar, Delhi - DPCC",08-03-2024 06:00:00,28.710508,77.249485,NO2,24,106,50
India,Delhi,Delhi,"Sonia Vihar, Delhi - DPCC",08-03-2024 06:00:00,28.710508,77.249485,NH3,4,8,5
India,Delhi,Delhi,"Sonia Vihar, Delhi - DPCC",08-03-2024 06:00:00,28.710508,77.249485,SO2,8,27,14
India,Delhi,Delhi,"Sri Aurobindo Marg, Delhi - DPCC",08-03-2024 06:00:00,28.531346,77.190156,PM10,94,184,123
India,Delhi,Delhi,"Sri Aurobindo Marg, Delhi - DPCC",08-03-2024 06:00:00,28.531346,77.190156,NO2,21,112,55
India,Delhi,Delhi,"Sri Aurobindo Marg, Delhi - DPCC",08-03-2024 06:00:00,28.531346,77.190156,SO2,9,23,14
India,Delhi,Delhi,"Sri Aurobindo Marg, Delhi - DPCC",08-03-2024 06:00:00,28.531346,77.190156,OZONE,1,44,2
India,Delhi,Delhi,"Vivek Vihar, Delhi - DPCC",08-03-2024 06:00:00,28.672342,77.315260,NO2,36,101,62
India,Delhi,Delhi,"Vivek Vihar, Delhi - DPCC",08-03-2024 06:00:00,28.672342,77.315260,NH3,4,7,5
India,Delhi,Delhi,"Vivek Vihar, Delhi - DPCC",08-03-2024 06:00:00,28.672342,77.315260,SO2,27,45,35
India,Delhi,Delhi,"Vivek Vihar, Delhi - DPCC",08-03-2024 06:00:00,28.672342,77.315260,CO,10,70,44
India,Delhi,Delhi,"Wazirpur, Delhi - DPCC",08-03-2024 06:00:00,28.699793,77.165453,PM2.5,58,374,163
India,Delhi,Delhi,"Wazirpur, Delhi - DPCC",08-03-2024 06:00:00,28.699793,77.165453,PM10,125,355,183
India,Delhi,Delhi,"Wazirpur, Delhi - DPCC",08-03-2024 06:00:00,28.699793,77.165453,SO2,4,40,24
India,Delhi,Delhi,"Wazirpur, Delhi - DPCC",08-03-2024 06:00:00,28.699793,77.165453,CO,39,109,71
India,Gujarat,Ahmedabad,"Chandkheda, Ahmedabad - IITM",08-03-2024 06:00:00,23.107969,72.574648,PM10,54,157,116
India,Gujarat,Ahmedabad,"Chandkheda, Ahmedabad - IITM",08-03-2024 06:00:00,23.107969,72.574648,CO,21,75,60
India,Gujarat,Ahmedabad,"Gyaspur, Ahmedabad - IITM",08-03-2024 06:00:00,22.977134,72.553024,PM2.5,57,330,165
India,Gujarat,Ahmedabad,"Gyaspur, Ahmedabad - IITM",08-03-2024 06:00:00,22.977134,72.553024,OZONE,3,47,7
India,Gujarat,Ahmedabad,"Maninagar, Ahmedabad - GPCB",08-03-2024 06:00:00,23.002657,72.591912,PM2.5,26,119,64
India,Gujarat,Ahmedabad,"Maninagar, Ahmedabad - GPCB",08-03-2024 06:00:00,23.002657,72.591912,NO2,17,42,29
India,Gujarat,Ahmedabad,"Rakhial, Ahmedabad - IITM",08-03-2024 06:00:00,23.016834,72.625775,PM2.5,37,461,189
India,Gujarat,Ahmedabad,"SAC ISRO Bopal, Ahmedabad - IITM",08-03-2024 06:00:00,23.041137,72.456691,PM10,NA,NA,NA
India,Gujarat,Ahmedabad,"SAC ISRO Satellite, Ahmedabad - IITM",08-03-2024 06:00:00,23.023389,72.515201,PM2.5,NA,NA,NA
India,Gujarat,Ahmedabad,"SAC ISRO Satellite, Ahmedabad - IITM",08-03-2024 06:00:00,23.023389,72.515201,NO2,NA,NA,NA
India,Gujarat,Ahmedabad,"SAC ISRO Satellite, Ahmedabad - IITM",08-03-2024 06:00:00,23.023389,72.515201,OZONE,NA,NA,NA
India,Gujarat,Ahmedabad,"SVPI Airport Hansol, Ahmedabad - IITM",08-03-2024 06:00:00,23.076793,72.627874,NH3,4,5,4
India,Gujarat,Ahmedabad,"Sardar Vallabhbhai Patel Stadium, Ahmedabad - IITM",08-03-2024 06:00:00,23.043070,72.562968,PM2.5,61,379,146
India,Gujarat,Ankleshwar,"GIDC, Ankleshwar - GPCB",08-03-2024 06:00:00,21.613267,73.010555,PM2.5,36,152,91
India,Gujarat,Ankleshwar,"GIDC, Ankleshwar - GPCB",08-03-2024 06:00:00,21.613267,73.010555,PM10,46,120,91
India,Gujarat,Gandhinagar,"GIFT City, Gandhinagar - IITM",08-03-2024 06:00:00,23.163798,72.677768,PM10,53,158,88
India,Gujarat,Gandhinagar,"GIFT City, Gandhinagar - IITM",08-03-2024 06:00:00,23.163798,72.677768,NO2,21,25,25
India,Gujarat,Gandhinagar,"GIFT City, Gandhinagar - IITM",08-03-2024 06:00:00,23.163798,72.677768,NH3,3,5,3
India,Gujarat,Gandhinagar,"GIFT City, Gandhinagar - IITM",08-03-2024 06:00:00,23.163798,72.677768,CO,28,39,36
India,Gujarat,Gandhinagar,"GIFT City, Gandhinagar - IITM",08-03-2024 06:00:00,23.163798,72.677768,OZONE,1,40,3
India,Gujarat,Gandhinagar,"Sector-10, Gandhinagar - GPCB",08-03-2024 06:00:00,23.221714,72.654328,PM10,21,107,68
India,Gujarat,Gandhinagar,"Sector-10, Gandhinagar - GPCB",08-03-2024 06:00:00,23.221714,72.654328,NH3,1,2,1
India,Gujarat,Nandesari,"GIDC, Nandesari - Nandesari Ind. Association",08-03-2024 06:00:00,22.410802,73.097923,NO2,8,75,29
India,Gujarat,Nandesari,"GIDC, Nandesari - Nandesari Ind. Association",08-03-2024 06:00:00,22.410802,73.097923,SO2,1,14,7
India,Gujarat,Surat,"Science Center, Surat - SMC",08-03-2024 06:00:00,21.170046,72.795405,SO2,20,30,22
India,Gujarat,Surat,"Science Center, Surat - SMC",08-03-2024 06:00:00,21.170046,72.795405,CO,50,84,66
India,Gujarat,Vapi,"Phase-1 GIDC, Vapi - GPCB",08-03-2024 06:00:00,20.362421,72.918013,PM2.5,35,314,110
India,Gujarat,Vapi,"Phase-1 GIDC, Vapi - GPCB",08-03-2024 06:00:00,20.362421,72.918013,PM10,60,212,121
India,Gujarat,Vapi,"Phase-1 GIDC, Vapi - GPCB",08-03-2024 06:00:00,20.362421,72.918013,SO2,46,47,47
India,Gujarat,Vapi,"Phase-1 GIDC, Vapi - GPCB",08-03-2024 06:00:00,20.362421,72.918013,OZONE,1,8,1
India,Gujarat,Vatva,"Phase-4 GIDC, Vatva - GPCB",08-03-2024 06:00:00,22.969611,72.643500,CO,38,169,140
India,Haryana,Ambala,"Patti Mehar, Ambala - HSPCB",08-03-2024 06:00:00,30.379589,76.778328,PM2.5,33,101,55
India,Haryana,Bahadurgarh,"Arya Nagar, Bahadurgarh - HSPCB",08-03-2024 06:00:00,28.6701,76.9254,PM2.5,46,352,143
India,Haryana,Bahadurgarh,"Arya Nagar, Bahadurgarh - HSPCB",08-03-2024 06:00:00,28.6701,76.9254,NO2,32,41,36
India,Haryana,Bahadurgarh,"Arya Nagar, Bahadurgarh - HSPCB",08-03-2024 06:00:00,28.6701,76.9254,CO,36,60,52
India,Haryana,Ballabgarh,"Nathu Colony, Ballabgarh - HSPCB",08-03-2024 06:00:00,28.3419248,77.319699,PM2.5,7,308,159
India,Haryana,Ballabgarh,"Nathu Colony, Ballabgarh - HSPCB",08-03-2024 06:00:00,28.3419248,77.319699,PM10,101,427,162
India,Haryana,Ballabgarh,"Nathu Colony, Ballabgarh - HSPCB",08-03-2024 06:00:00,28.3419248,77.319699,OZONE,1,29,2
India,Haryana,Bhiwani,"H.B. Colony, Bhiwani - HSPCB",08-03-2024 06:00:00,28.806223,76.141105,PM2.5,34,290,92
India,Haryana,Bhiwani,"H.B. Colony, Bhiwani - HSPCB",08-03-2024 06:00:00,28.806223,76.141105,NH3,6,6,6
India,Haryana,Charkhi Dadri,"Mini Secretariat, Charkhi Dadri - HSPCB",08-03-2024 06:00:00,28.593883,76.270653,PM10,59,158,98
India,Haryana,Charkhi Dadri,"Mini Secretariat, Charkhi Dadri - HSPCB",08-03-2024 06:00:00,28.593883,76.270653,NO2,12,15,13
India,Haryana,Charkhi Dadri,"Mini Secretariat, Charkhi Dadri - HSPCB",08-03-2024 06:00:00,28.593883,76.270653,NH3,6,6,6
India,Haryana,Dharuhera,"Municipal Corporation Office, Dharuhera -  HSPCB",08-03-2024 06:00:00,28.206800,76.799700,NH3,9,25,19
India,Haryana,Dharuhera,"Municipal Corporation Office, Dharuhera -  HSPCB",08-03-2024 06:00:00,28.206800,76.799700,SO2,30,46,37
India,Haryana,Dharuhera,"Municipal Corporation Office, Dharuhera -  HSPCB",08-03-2024 06:00:00,28.206800,76.799700,CO,14,57,39
India,Haryana,Dharuhera,"Municipal Corporation Office, Dharuhera -  HSPCB",08-03-2024 06:00:00,28.206800,76.799700,OZONE,10,74,14
India,Haryana,Faridabad,"New Industrial Town, Faridabad - HSPCB",08-03-2024 06:00:00,28.39072,77.30059,OZONE,35,127,55
India,Haryana,Faridabad,"Sector 11, Faridabad - HSPCB",08-03-2024 06:00:00,28.376058,77.315741,PM2.5,126,268,175
India,Haryana,Faridabad,"Sector 30, Faridabad - HSPCB",08-03-2024 06:00:00,28.4417,77.3217,PM10,108,117,112
India,Haryana,Faridabad,"Sector 30, Faridabad - HSPCB",08-03-2024 06:00:00,28.4417,77.3217,CO,12,106,78
India,Haryana,Fatehabad,"Huda Sector, Fatehabad - HSPCB",08-03-2024 06:00:00,29.503664,75.467934,PM10,62,103,79
India,Haryana,Hisar,"Urban Estate-II, Hisar - HSPCB",08-03-2024 06:00:00,29.140560,75.744941,NH3,10,19,13
India,Haryana,Kaithal,"Rishi Nagar, Kaithal - HSPCB",08-03-2024 06:00:00,29.8006,76.4155,NH3,8,8,8
India,Haryana,Kaithal,"Rishi Nagar, Kaithal - HSPCB",08-03-2024 06:00:00,29.8006,76.4155,OZONE,10,16,11
India,Haryana,Karnal,"Sector-12, Karnal - HSPCB",08-03-2024 06:00:00,29.695300,77.002700,PM2.5,79,140,98
India,Haryana,Karnal,"Sector-12, Karnal - HSPCB",08-03-2024 06:00:00,29.695300,77.002700,SO2,12,13,12
India,Haryana,Kurukshetra,"Sector-7, Kurukshetra - HSPCB",08-03-2024 06:00:00,29.966942,76.875879,PM10,59,105,77
India,Haryana,Kurukshetra,"Sector-7, Kurukshetra - HSPCB",08-03-2024 06:00:00,29.966942,76.875879,NH3,5,5,5
India,Haryana,Kurukshetra,"Sector-7, Kurukshetra - HSPCB",08-03-2024 06:00:00,29.966942,76.875879,CO,1,22,14
India,Haryana,Mandikhera,"General Hospital, Mandikhera - HSPCB",08-03-2024 06:00:00,27.9002,76.9938,PM2.5,13,62,33
India,Haryana,Manesar,"Sector-2 IMT, Manesar - HSPCB",08-03-2024 06:00:00,28.360699,76.936090,NO2,14,20,17
India,Haryana,Manesar,"Sector-2 IMT, Manesar - HSPCB",08-03-2024 06:00:00,28.360699,76.936090,NH3,1,2,1
India,Haryana,Manesar,"Sector-2 IMT, Manesar - HSPCB",08-03-2024 06:00:00,28.360699,76.936090,CO,16,36,26
India,Haryana,Narnaul,"Shastri Nagar, Narnaul - HSPCB",08-03-2024 06:00:00,28.060249,76.113115,PM10,29,167,57
India,Haryana,Narnaul,"Shastri Nagar, Narnaul - HSPCB",08-03-2024 06:00:00,28.060249,76.113115,NH3,5,18,11
India,Haryana,Palwal,"Shyam Nagar, Palwal - HSPCB",08-03-2024 06:00:00,28.1485564,77.3320667,PM2.5,46,74,60
India,Haryana,Palwal,"Shyam Nagar, Palwal - HSPCB",08-03-2024 06:00:00,28.1485564,77.3320667,NH3,8,9,9
India,Haryana,Rohtak,"MD University, Rohtak - HSPCB",08-03-2024 06:00:00,28.52123,76.37138,PM2.5,5,301,123
India,Haryana,Sirsa,"F-Block, Sirsa - HSPCB",08-03-2024 06:00:00,29.536400,75.015800,SO2,4,18,13
India,Haryana,Sonipat,"Murthal, Sonipat - HSPCB",08-03-2024 06:00:00,29.027200,77.062100,PM2.5,NA,NA,NA
India,Haryana,Sonipat,"Murthal, Sonipat - HSPCB",08-03-2024 06:00:00,29.027200,77.062100,NO2,37,44,39
India,Haryana,Sonipat,"Murthal, Sonipat - HSPCB",08-03-2024 06:00:00,29.027200,77.062100,OZONE,16,36,19
India,Haryana,Yamuna Nagar,"Gobind Pura, Yamuna Nagar - HSPCB",08-03-2024 06:00:00,30.1480566,77.2893471,NO2,11,29,19
India,Haryana,Yamuna Nagar,"Gobind Pura, Yamuna Nagar - HSPCB",08-03-2024 06:00:00,30.1480566,77.2893471,SO2,2,59,8
India,Haryana,Yamuna Nagar,"Gobind Pura, Yamuna Nagar - HSPCB",08-03-2024 06:00:00,30.1480566,77.2893471,CO,38,64,48
India,Jharkhand,Dhanbad,"Kalakusuma, Dhanbad - DMC",08-03-2024 06:00:00,23.811548,86.481238,OZONE,NA,NA,NA
India,Jharkhand,Dhanbad,"Sardar Patel Nagar, Dhanbad - JSPCB",08-03-2024 06:00:00,23.80569,86.44268,CO,NA,NA,NA
India,Karnataka,Bagalkot,"Vidayagiri, Bagalkot - KSPCB",08-03-2024 06:00:00,16.172806,75.659694,PM2.5,25,37,36
India,Karnataka,Bagalkot,"Vidayagiri, Bagalkot - KSPCB",08-03-2024 06:00:00,16.172806,75.659694,SO2,9,10,9
India,Karnataka,Belgaum,"Ramteerth Nagar, Belgaum - KSPCB",08-03-2024 06:00:00,15.888653,74.541751,SO2,8,9,8
India,Karnataka,Bengaluru,"BTM Layout, Bengaluru - CPCB",08-03-2024 06:00:00,12.9135218,77.5950804,CO,44,44,44
India,Karnataka,Bengaluru,"Bapuji Nagar, Bengaluru - KSPCB",08-03-2024 06:00:00,12.951913,77.539784,PM2.5,98,305,186
India,Karnataka,Bengaluru,"Hebbal, Bengaluru - KSPCB",08-03-2024 06:00:00,13.029152,77.585901,OZONE,9,90,10
India,Karnataka,Bengaluru,"Hombegowda Nagar, Bengaluru - KSPCB",08-03-2024 06:00:00,12.938539,77.590100,OZONE,4,5,4
India,Karnataka,Bengaluru,"Jayanagar 5th Block, Bengaluru - KSPCB",08-03-2024 06:00:00,12.920984,77.584908,OZONE,28,29,28
India,Karnataka,Bengaluru,"Jigani, Bengaluru - KSPCB",08-03-2024 06:00:00,12.7816279,77.6299145,SO2,16,16,16
India,Karnataka,Bengaluru,"Jigani, Bengaluru - KSPCB",08-03-2024 06:00:00,12.7816279,77.6299145,CO,51,107,71
India,Karnataka,Bengaluru,"Jigani, Bengaluru - KSPCB",08-03-2024 06:00:00,12.7816279,77.6299145,OZONE,6,99,53
India,Karnataka,Bengaluru,"Kasturi Nagar, Bengaluru - KSPCB",08-03-2024 06:00:00,13.003872,77.664217,SO2,10,10,10
India,Karnataka,Bengaluru,"Kasturi Nagar, Bengaluru - KSPCB",08-03-2024 06:00:00,13.003872,77.664217,CO,23,28,26
India,Karnataka,Bengaluru,"Peenya, Bengaluru - CPCB",08-03-2024 06:00:00,13.0270199,77.494094,PM2.5,27,90,53
India,Karnataka,Bengaluru,"RVCE-Mailasandra, Bengaluru - KSPCB",08-03-2024 06:00:00,12.921418,77.502466,PM10,NA,NA,NA
India,Karnataka,Bidar,"Naubad, Bidar - KSPCB",08-03-2024 06:00:00,17.930306,77.482194,NO2,7,10,8
India,Karnataka,Bidar,"Naubad, Bidar - KSPCB",08-03-2024 06:00:00,17.930306,77.482194,OZONE,28,45,33
India,Karnataka,Chamarajanagar,"Urban, Chamarajanagar - KSPCB",08-03-2024 06:00:00,11.55358,76.55521,NH3,1,2,2
India,Karnataka,Chamarajanagar,"Urban, Chamarajanagar - KSPCB",08-03-2024 06:00:00,11.55358,76.55521,SO2,3,7,4
India,Karnataka,Chikkaballapur,"Chikkaballapur Rural, Chikkaballapur - KSPCB",08-03-2024 06:00:00,13.428828,77.731418,PM2.5,53,279,121
India,Karnataka,Chikkaballapur,"Chikkaballapur Rural, Chikkaballapur - KSPCB",08-03-2024 06:00:00,13.428828,77.731418,SO2,12,61,30
India,Karnataka,Chikkamagaluru,"Kalyana Nagara, Chikkamagaluru - KSPCB",08-03-2024 06:00:00,13.328028,75.797056,NH3,3,4,3
India,Karnataka,Gadag,"Panchal Nagar, Gadag - KSPCB",08-03-2024 06:00:00,15.411456,75.638133,CO,40,54,46
India,Karnataka,Hassan,"B.Katihalli, Hassan - KSPCB",08-03-2024 06:00:00,13.008556,76.125258,PM2.5,NA,NA,NA
India,Karnataka,Hassan,"B.Katihalli, Hassan - KSPCB",08-03-2024 06:00:00,13.008556,76.125258,NH3,NA,NA,NA
India,Karnataka,Haveri,"Ashwini Nagar, Haveri - KSPCB",08-03-2024 06:00:00,14.791800,75.389600,NO2,NA,NA,NA
India,Karnataka,Haveri,"Ashwini Nagar, Haveri - KSPCB",08-03-2024 06:00:00,14.791800,75.389600,CO,36,36,36
India,Karnataka,Hubballi,"Deshpande Nagar, Hubballi - KSPCB",08-03-2024 06:00:00,15.351773,75.140726,SO2,18,20,19
India,Karnataka,Hubballi,"Lingaraj Nagar, Hubballi - KSPCB",08-03-2024 06:00:00,15.3714823,75.1160168,PM10,24,67,54
India,Karnataka,Hubballi,"Lingaraj Nagar, Hubballi - KSPCB",08-03-2024 06:00:00,15.3714823,75.1160168,SO2,1,20,6
India,Karnataka,Kalaburagi,"Lal Bahadur Shastri Nagar, Kalaburagi - KSPCB",08-03-2024 06:00:00,17.321993,76.822628,PM2.5,21,141,67
India,Karnataka,Kalaburagi,"Lal Bahadur Shastri Nagar, Kalaburagi - KSPCB",08-03-2024 06:00:00,17.321993,76.822628,PM10,31,120,75
India,Karnataka,Kalaburagi,"Mahatma Basaveswar Colony, Kalaburgi - KSPCB",08-03-2024 06:00:00,17.336318,76.847397,PM10,37,109,58
India,Karnataka,Karwar,"KHB Colony, Karwar - KSPCB",08-03-2024 06:00:00,14.816666,74.141003,OZONE,21,22,22
India,Karnataka,Madikeri,"Stuart Hill, Madikeri - KSPCB",08-03-2024 06:00:00,12.415911,75.735050,PM10,21,59,41
India,Karnataka,Mysuru,"Hebbal 1st Stage, Mysuru - KSPCB",08-03-2024 06:00:00,12.21041,76.37376,PM10,48,81,65
India,Karnataka,Raichur,"Haji Colony, Raichur - KSPCB",08-03-2024 06:00:00,16.208139,77.348417,SO2,64,78,70
India,Karnataka,Raichur,"Haji Colony, Raichur - KSPCB",08-03-2024 06:00:00,16.208139,77.348417,CO,84,142,112
India,Karnataka,Ramanagara,"Vijay Nagar, Ramanagara - KSPCB",08-03-2024 06:00:00,12.733409,77.298051,NO2,4,21,10
India,Karnataka,Ramanagara,"Vijay Nagar, Ramanagara - KSPCB",08-03-2024 06:00:00,12.733409,77.298051,CO,10,42,15
India,Karnataka,Shivamogga,"Vinoba Nagara, Shivamogga - KSPCB",08-03-2024 06:00:00,13.940000,75.555917,NO2,10,19,13
India,Karnataka,Shivamogga,"Vinoba Nagara, Shivamogga - KSPCB",08-03-2024 06:00:00,13.940000,75.555917,NH3,2,4,3
India,Karnataka,Tumakuru,"Thimmalapura, Tumakuru - KSPCB",08-03-2024 06:00:00,13.377516,77.099072,PM10,17,40,26
India,Karnataka,Tumakuru,"Thimmalapura, Tumakuru - KSPCB",08-03-2024 06:00:00,13.377516,77.099072,OZONE,NA,NA,NA
India,Karnataka,Udupi,"Brahmagiri, Udupi - KSPCB",08-03-2024 06:00:00,13.34194444,74.74694444,PM10,36,82,53
India,Karnataka,Vijayapura,"Ibrahimpur, Vijayapura - KSPCB",08-03-2024 06:00:00,16.802639,75.722694,SO2,19,118,55
India,Karnataka,Yadgir,"Collector Office, Yadgir - KSPCB",08-03-2024 06:00:00,16.7602,77.1428,OZONE,18,20,19
India,Kerala,Eloor,"Udyogamandal, Eloor - Kerala PCB",08-03-2024 06:00:00,10.073232,76.302765,NH3,1,1,1
India,Kerala,Kannur,"Thavakkara, Kannur - Kerala PCB",08-03-2024 06:00:00,11.875000,75.373200,OZONE,31,36,31
India,Kerala,Kollam,"Polayathode, Kollam - Kerala PCB",08-03-2024 06:00:00,8.8787,76.6073,PM2.5,57,167,96
India,Kerala,Kollam,"Polayathode, Kollam - Kerala PCB",08-03-2024 06:00:00,8.8787,76.6073,CO,10,48,20
India,Kerala,Thiruvananthapuram,"Plammoodu, Thiruvananthapuram - Kerala PCB",08-03-2024 06:00:00,8.5149093,76.9435879,OZONE,4,57,26
India,Kerala,Thrissur,"Corporation Ground, Thrissur - Kerala PCB",08-03-2024 06:00:00,10.532400,76.215900,SO2,1,21,5
India,Madhya Pradesh,Bhopal,"Idgah Hills, Bhopal - MPPCB",08-03-2024 06:00:00,23.264759,77.381568,NO2,12,77,31
India,Madhya Pradesh,Bhopal,"Idgah Hills, Bhopal - MPPCB",08-03-2024 06:00:00,23.264759,77.381568,NH3,2,2,2
India,Madhya Pradesh,Bhopal,"Idgah Hills, Bhopal - MPPCB",08-03-2024 06:00:00,23.264759,77.381568,CO,22,86,42
India,Madhya Pradesh,Bhopal,"Paryavaran Parisar, Bhopal - MPPCB",08-03-2024 06:00:00,23.210494,77.425409,NH3,8,14,10
India,Madhya Pradesh,Bhopal,"Paryavaran Parisar, Bhopal - MPPCB",08-03-2024 06:00:00,23.210494,77.425409,SO2,19,26,23
India,Madhya Pradesh,Bhopal,"T T Nagar, Bhopal - MPPCB",08-03-2024 06:00:00,23.233584,77.400574,PM10,66,166,102
India,Madhya Pradesh,Bhopal,"T T Nagar, Bhopal - MPPCB",08-03-2024 06:00:00,23.233584,77.400574,NO2,30,105,55
India,Madhya Pradesh,Bhopal,"T T Nagar, Bhopal - MPPCB",08-03-2024 06:00:00,23.233584,77.400574,CO,12,110,41
India,Madhya Pradesh,Dewas,"Bhopal Chauraha, Dewas - MPPCB",08-03-2024 06:00:00,22.9682591,76.064118,PM2.5,12,75,37
India,Madhya Pradesh,Dewas,"Bhopal Chauraha, Dewas - MPPCB",08-03-2024 06:00:00,22.9682591,76.064118,NO2,10,13,11
India,Madhya Pradesh,Gwalior,"Deen Dayal Nagar, Gwalior - MPPCB",08-03-2024 06:00:00,26.259242,78.216432,PM10,63,223,152
India,Madhya Pradesh,Gwalior,"Deen Dayal Nagar, Gwalior - MPPCB",08-03-2024 06:00:00,26.259242,78.216432,SO2,14,20,16
India,Madhya Pradesh,Gwalior,"Deen Dayal Nagar, Gwalior - MPPCB",08-03-2024 06:00:00,26.259242,78.216432,CO,6,107,103
India,Madhya Pradesh,Gwalior,"Maharaj Bada, Gwalior - MPPCB",08-03-2024 06:00:00,26.200388,78.147714,CO,8,145,63
India,Madhya Pradesh,Indore,"Chhoti Gwaltoli, Indore - MPPCB",08-03-2024 06:00:00,22.4310,75.5213,NO2,55,148,92
India,Madhya Pradesh,Indore,"Chhoti Gwaltoli, Indore - MPPCB",08-03-2024 06:00:00,22.4310,75.5213,SO2,14,118,38
India,Madhya Pradesh,Indore,"Chhoti Gwaltoli, Indore - MPPCB",08-03-2024 06:00:00,22.4310,75.5213,CO,44,102,75
India,Madhya Pradesh,Indore,"Maguda Nagar, Indore - IMC",08-03-2024 06:00:00,22.7524,75.8872,PM2.5,24,110,59
India,Madhya Pradesh,Indore,"Maguda Nagar, Indore - IMC",08-03-2024 06:00:00,22.7524,75.8872,NO2,4,7,6
India,Madhya Pradesh,Jabalpur,"Gupteshwar, Jabalpur - JMC",08-03-2024 06:00:00,23.142888,79.916147,PM2.5,48,321,107
India,Madhya Pradesh,Jabalpur,"Gupteshwar, Jabalpur - JMC",08-03-2024 06:00:00,23.142888,79.916147,SO2,3,9,6
India,Madhya Pradesh,Jabalpur,"Marhatal, Jabalpur - MPPCB",08-03-2024 06:00:00,23.168606,79.932247,SO2,4,9,7
India,Madhya Pradesh,Jabalpur,"Suhagi, Jabalpur - JMC",08-03-2024 06:00:00,23.218135,79.957770,NH3,5,5,5
India,Madhya Pradesh,Jabalpur,"Suhagi, Jabalpur - JMC",08-03-2024 06:00:00,23.218135,79.957770,SO2,8,10,9
India,Madhya Pradesh,Jabalpur,"Suhagi, Jabalpur - JMC",08-03-2024 06:00:00,23.218135,79.957770,OZONE,18,150,42
India,Madhya Pradesh,Katni,"Gole Bazar, Katni - MPPCB",08-03-2024 06:00:00,23.50016,80.23284,CO,15,26,20
India,Madhya Pradesh,Mandideep,"Sector-D Industrial Area, Mandideep - MPPCB",08-03-2024 06:00:00,23.108440,77.511428,PM10,44,286,103
India,Madhya Pradesh,Mandideep,"Sector-D Industrial Area, Mandideep - MPPCB",08-03-2024 06:00:00,23.108440,77.511428,CO,15,114,57
India,Madhya Pradesh,Mandideep,"Sector-D Industrial Area, Mandideep - MPPCB",08-03-2024 06:00:00,23.108440,77.511428,OZONE,12,38,18
India,Madhya Pradesh,Pithampur,"Sector-2 Industrial Area, Pithampur - MPPCB",08-03-2024 06:00:00,22.624758,75.675238,NO2,8,22,12
India,Madhya Pradesh,Pithampur,"Sector-2 Industrial Area, Pithampur - MPPCB",08-03-2024 06:00:00,22.624758,75.675238,NH3,7,10,8
India,Madhya Pradesh,Pithampur,"Sector-2 Industrial Area, Pithampur - MPPCB",08-03-2024 06:00:00,22.624758,75.675238,SO2,11,16,13
India,Madhya Pradesh,Sagar,"Civil Lines, Sagar - MPPCB",08-03-2024 06:00:00,23.838586,78.759431,NH3,6,10,7
India,Madhya Pradesh,Satna,"Bandhavgar Colony, Satna - Birla Cement",08-03-2024 06:00:00,24.58434363,80.8549414,PM10,36,110,63
India,Madhya Pradesh,Singrauli,"Suryakiran Bhawan NCL, Singrauli - MPPCB",08-03-2024 06:00:00,24.108970,82.645580,NO2,7,88,37
India,Madhya Pradesh,Singrauli,"Suryakiran Bhawan NCL, Singrauli - MPPCB",08-03-2024 06:00:00,24.108970,82.645580,CO,108,148,138
India,Madhya Pradesh,Singrauli,"Suryakiran Bhawan NCL, Singrauli - MPPCB",08-03-2024 06:00:00,24.108970,82.645580,OZONE,11,67,31
India,Maharashtra,Ahmednagar,"Tarakpur, Ahmednagar - MPCB",08-03-2024 06:00:00,19.10122,74.73339,CO,10,120,41
India,Maharashtra,Ahmednagar,"Tarakpur, Ahmednagar - MPCB",08-03-2024 06:00:00,19.10122,74.73339,OZONE,6,176,24
India,Maharashtra,Akola,"Ramdaspeth, Akola - MPCB",08-03-2024 06:00:00,20.719516,77.000253,PM2.5,12,144,79
India,Maharashtra,Akola,"Ramdaspeth, Akola - MPCB",08-03-2024 06:00:00,20.719516,77.000253,PM10,12,165,104
India,Maharashtra,Akola,"Ramdaspeth, Akola - MPCB",08-03-2024 06:00:00,20.719516,77.000253,NH3,3,10,7
India,Maharashtra,Amravati,"Shivneri Colony, Amravati - MPCB",08-03-2024 06:00:00,20.9402359,77.7895248,PM2.5,34,92,53
India,Maharashtra,Aurangabad,"MIDC Chilkalthana, Aurangabad - MPCB",08-03-2024 06:00:00,19.875620,75.387310,CO,24,57,29
India,Maharashtra,Aurangabad,"Rachnakar Colony, Aurangabad - MPCB",08-03-2024 06:00:00,19.863756,75.321188,CO,9,62,25
India,Maharashtra,Badlapur,"Katrap, Badlapur - MPCB",08-03-2024 06:00:00,19.16485,73.23409,PM10,49,214,115
India,Maharashtra,Badlapur,"Katrap, Badlapur - MPCB",08-03-2024 06:00:00,19.16485,73.23409,OZONE,1,67,13
India,Maharashtra,Belapur,"CBD Belapur, Belapur - MPCB",08-03-2024 06:00:00,19.0243902,73.0406721,NO2,30,85,58
India,Maharashtra,Belapur,"CBD Belapur, Belapur - MPCB",08-03-2024 06:00:00,19.0243902,73.0406721,NH3,21,54,33
India,Maharashtra,Bhiwandi,"Gokul Nagar, Bhiwandi - MPCB",08-03-2024 06:00:00,19.309073,73.057223,SO2,4,63,14
India,Maharashtra,Bhiwandi,"Gokul Nagar, Bhiwandi - MPCB",08-03-2024 06:00:00,19.309073,73.057223,CO,12,92,38
India,Maharashtra,Boisar,"Khaira, Boisar - MPCB",08-03-2024 06:00:00,19.786089,72.757971,OZONE,65,106,70
India,Maharashtra,Chandrapur,"Chauhan Colony, Chandrapur - MPCB",08-03-2024 06:00:00,19.962900,79.298714,NH3,2,7,4
India,Maharashtra,Chandrapur,"Chauhan Colony, Chandrapur - MPCB",08-03-2024 06:00:00,19.962900,79.298714,SO2,5,122,22
India,Maharashtra,Chandrapur,"MIDC Khutala, Chandrapur - MPCB",08-03-2024 06:00:00,19.9775302,79.2337086,NH3,NA,NA,NA
India,Maharashtra,Dhule,"Deopur, Dhule - MPCB",08-03-2024 06:00:00,20.918946,74.776388,NH3,1,12,2
India,Maharashtra,Dhule,"Deopur, Dhule - MPCB",08-03-2024 06:00:00,20.918946,74.776388,CO,12,44,17
India,Maharashtra,Jalgaon,"Prabhat Colony, Jalgaon - MPCB",08-03-2024 06:00:00,21.001264,75.565602,NH3,1,16,6
India,Maharashtra,Jalgaon,"Prabhat Colony, Jalgaon - MPCB",08-03-2024 06:00:00,21.001264,75.565602,SO2,2,55,16
India,Maharashtra,Jalna,"Old MIDC, Jalna - MPCB",08-03-2024 06:00:00,19.854616,75.905894,SO2,1,15,4
India,Maharashtra,Kalyan,"Khadakpada, Kalyan - MPCB",08-03-2024 06:00:00,19.25292,73.142019,PM2.5,30,197,62
India,Maharashtra,Kalyan,"Khadakpada, Kalyan - MPCB",08-03-2024 06:00:00,19.25292,73.142019,PM10,78,294,130
India,Maharashtra,Kalyan,"Khadakpada, Kalyan - MPCB",08-03-2024 06:00:00,19.25292,73.142019,CO,16,36,19
India,Maharashtra,Kalyan,"Khadakpada, Kalyan - MPCB",08-03-2024 06:00:00,19.25292,73.142019,OZONE,7,31,21
India,Maharashtra,Kolhapur,"Shivaji University, Kolhapur - MPCB",08-03-2024 06:00:00,16.6870449,74.2505872,NO2,26,104,56
India,Maharashtra,Kolhapur,"Shivaji University, Kolhapur - MPCB",08-03-2024 06:00:00,16.6870449,74.2505872,NH3,4,13,7
India,Maharashtra,Kolhapur,"Shivaji University, Kolhapur - MPCB",08-03-2024 06:00:00,16.6870449,74.2505872,OZONE,5,119,51
India,Maharashtra,Kolhapur,"Sinchan Bhavan, Kolhapur - MPCB",08-03-2024 06:00:00,16.7143745,74.2426398,PM2.5,37,223,96
India,Maharashtra,Latur,"Sawe Wadi, Latur - MPCB",08-03-2024 06:00:00,18.39963,76.57452,NO2,3,53,23
India,Maharashtra,Mahad,"Kamble Tarf Birwadi, Mahad - MPCB",08-03-2024 06:00:00,18.1023399,73.4783687,PM2.5,103,239,154
India,Maharashtra,Mahad,"Kamble Tarf Birwadi, Mahad - MPCB",08-03-2024 06:00:00,18.1023399,73.4783687,NO2,26,92,47
India,Maharashtra,Malegaon,"Mahesh Nagar, Malegaon - MPCB",08-03-2024 06:00:00,20.555712,74.529236,NO2,3,18,9
India,Maharashtra,Malegaon,"Mahesh Nagar, Malegaon - MPCB",08-03-2024 06:00:00,20.555712,74.529236,NH3,1,7,2
India,Maharashtra,Malegaon,"Mahesh Nagar, Malegaon - MPCB",08-03-2024 06:00:00,20.555712,74.529236,OZONE,30,110,68
India,Maharashtra,Mira-Bhayandar,"Bhayandar West, Mira-Bhayandar - MPCB",08-03-2024 06:00:00,19.296481,72.840923,PM10,126,191,154
India,Maharashtra,Mira-Bhayandar,"Bhayandar West, Mira-Bhayandar - MPCB",08-03-2024 06:00:00,19.296481,72.840923,NO2,17,99,44
India,Maharashtra,Mira-Bhayandar,"Bhayandar West, Mira-Bhayandar - MPCB",08-03-2024 06:00:00,19.296481,72.840923,SO2,6,20,12
India,Maharashtra,Mumbai,"Bandra Kurla Complex, Mumbai - MPCB",08-03-2024 06:00:00,19.065931,72.862131,NH3,4,7,5
India,Maharashtra,Mumbai,"Bandra Kurla Complex, Mumbai - MPCB",08-03-2024 06:00:00,19.065931,72.862131,SO2,1,18,9
India,Maharashtra,Mumbai,"Borivali East, Mumbai - MPCB",08-03-2024 06:00:00,19.2243333,72.8658113,NH3,1,2,2
India,Maharashtra,Mumbai,"Borivali East, Mumbai - MPCB",08-03-2024 06:00:00,19.2243333,72.8658113,CO,1,72,4
India,Maharashtra,Mumbai,"Borivali East, Mumbai - MPCB",08-03-2024 06:00:00,19.2243333,72.8658113,OZONE,14,15,15
India,Maharashtra,Mumbai,"Byculla, Mumbai - BMC",08-03-2024 06:00:00,18.9767,72.8380,OZONE,13,155,42
India,Maharashtra,Mumbai,"Chembur, Mumbai - MPCB",08-03-2024 06:00:00,19.0364585,72.8954371,NH3,3,5,4
India,Maharashtra,Mumbai,"Chhatrapati Shivaji Intl. Airport (T2), Mumbai - MPCB",08-03-2024 06:00:00,19.10078,72.87462,NO2,3,83,48
India,Maharashtra,Mumbai,"Chhatrapati Shivaji Intl. Airport (T2), Mumbai - MPCB",08-03-2024 06:00:00,19.10078,72.87462,NH3,1,9,2
India,Maharashtra,Mumbai,"Chhatrapati Shivaji Intl. Airport (T2), Mumbai - MPCB",08-03-2024 06:00:00,19.10078,72.87462,CO,56,105,87
India,Maharashtra,Mumbai,"Colaba, Mumbai - MPCB",08-03-2024 06:00:00,18.910000,72.820000,PM10,42,85,64
India,Maharashtra,Mumbai,"Colaba, Mumbai - MPCB",08-03-2024 06:00:00,18.910000,72.820000,NH3,1,1,1
India,Maharashtra,Mumbai,"Kandivali West, Mumbai - BMC",08-03-2024 06:00:00,19.215859,72.831718,PM2.5,61,99,82
India,Maharashtra,Mumbai,"Kandivali West, Mumbai - BMC",08-03-2024 06:00:00,19.215859,72.831718,SO2,5,13,8
India,Maharashtra,Mumbai,"Kandivali West, Mumbai - BMC",08-03-2024 06:00:00,19.215859,72.831718,CO,12,38,22
India,Maharashtra,Mumbai,"Kherwadi_Bandra East, Mumbai - MPCB",08-03-2024 06:00:00,19.0632143,72.8456324,OZONE,1,126,16
India,Maharashtra,Mumbai,"Khindipada-Bhandup West, Mumbai - IITM",08-03-2024 06:00:00,19.1653323,72.922099,CO,6,46,18
India,Maharashtra,Mumbai,"Kurla, Mumbai - MPCB",08-03-2024 06:00:00,19.0863,72.8888,CO,16,42,30
India,Maharashtra,Mumbai,"Mazgaon, Mumbai - IITM",08-03-2024 06:00:00,18.96702,72.84214,PM10,75,159,130
India,Maharashtra,Mumbai,"Mazgaon, Mumbai - IITM",08-03-2024 06:00:00,18.96702,72.84214,NH3,25,62,36
India,Maharashtra,Mumbai,"Navy Nagar-Colaba, Mumbai - IITM",08-03-2024 06:00:00,18.897756,72.813320,CO,12,32,19
India,Maharashtra,Mumbai,"Powai, Mumbai - MPCB",08-03-2024 06:00:00,19.137500,72.915056,OZONE,23,148,59
India,Maharashtra,Mumbai,"Sewri, Mumbai - BMC",08-03-2024 06:00:00,19.000084,72.856730,PM2.5,53,125,81
India,Maharashtra,Mumbai,"Sewri, Mumbai - BMC",08-03-2024 06:00:00,19.000084,72.856730,NO2,43,117,83
India,Maharashtra,Mumbai,"Sewri, Mumbai - BMC",08-03-2024 06:00:00,19.000084,72.856730,NH3,1,10,8
India,Maharashtra,Mumbai,"Siddharth Nagar-Worli, Mumbai - IITM",08-03-2024 06:00:00,19.000083,72.813993,NO2,NA,NA,NA
India,Maharashtra,Mumbai,"Sion, Mumbai - MPCB",08-03-2024 06:00:00,19.047000,72.874600,PM2.5,42,121,64
India,Maharashtra,Mumbai,"Sion, Mumbai - MPCB",08-03-2024 06:00:00,19.047000,72.874600,PM10,118,291,161
India,Maharashtra,Mumbai,"Sion, Mumbai - MPCB",08-03-2024 06:00:00,19.047000,72.874600,CO,16,69,37
India,Maharashtra,Mumbai,"Sion, Mumbai - MPCB",08-03-2024 06:00:00,19.047000,72.874600,OZONE,11,30,13
India,Maharashtra,Mumbai,"Vasai West, Mumbai - MPCB",08-03-2024 06:00:00,19.383200,72.820400,CO,38,100,61
India,Maharashtra,Nagpur,"Ambazari, Nagpur - MPCB",08-03-2024 06:00:00,21.121801,79.04952,CO,14,105,19
India,Maharashtra,Nagpur,"Mahal, Nagpur - MPCB",08-03-2024 06:00:00,21.14472,79.107595,PM2.5,48,116,76
India,Maharashtra,Nagpur,"Mahal, Nagpur - MPCB",08-03-2024 06:00:00,21.14472,79.107595,PM10,80,151,111
India,Maharashtra,Nagpur,"Mahal, Nagpur - MPCB",08-03-2024 06:00:00,21.14472,79.107595,OZONE,18,108,52
India,Maharashtra,Nagpur,"Opp GPO Civil Lines, Nagpur - MPCB",08-03-2024 06:00:00,21.152875,79.0517531,PM2.5,26,194,85
India,Maharashtra,Nagpur,"Opp GPO Civil Lines, Nagpur - MPCB",08-03-2024 06:00:00,21.152875,79.0517531,SO2,2,115,38
India,Maharashtra,Nagpur,"Ram Nagar, Nagpur - MPCB",08-03-2024 06:00:00,21.143383,79.048912,CO,10,91,20
India,Maharashtra,Nanded,"Sneh Nagar, Nanded - MPCB",08-03-2024 06:00:00,19.173852,77.296291,NO2,16,124,40
India,Maharashtra,Nashik,"Gangapur Road, Nashik - MPCB",08-03-2024 06:00:00,20.0073285,73.7762427,SO2,1,33,5
India,Maharashtra,Nashik,"Hirawadi, Nashik - MPCB",08-03-2024 06:00:00,20.021503,73.813844,PM10,40,107,64
India,Maharashtra,Nashik,"Hirawadi, Nashik - MPCB",08-03-2024 06:00:00,20.021503,73.813844,NO2,4,78,31
India,Maharashtra,Nashik,"MIDC Ambad, Nashik - MPCB",08-03-2024 06:00:00,19.950220,73.731480,PM10,46,77,62
India,Maharashtra,Nashik,"MIDC Ambad, Nashik - MPCB",08-03-2024 06:00:00,19.950220,73.731480,OZONE,33,61,59
India,Maharashtra,Nashik,"Pandav Nagari, Nashik - MPCB",08-03-2024 06:00:00,19.9591346,73.7788008,PM10,48,90,68
India,Maharashtra,Navi Mumbai,"Kopripada-Vashi, Navi Mumbai - MPCB",08-03-2024 06:00:00,19.090337,73.014232,PM10,46,156,86
India,Maharashtra,Navi Mumbai,"Mahape, Navi Mumbai - MPCB",08-03-2024 06:00:00,19.1135051,73.008978,NO2,37,39,38
India,Maharashtra,Navi Mumbai,"Mahape, Navi Mumbai - MPCB",08-03-2024 06:00:00,19.1135051,73.008978,SO2,26,27,26
India,Maharashtra,Navi Mumbai,"Mahape, Navi Mumbai - MPCB",08-03-2024 06:00:00,19.1135051,73.008978,CO,34,68,53
India,Maharashtra,Navi Mumbai,"Sanpada, Navi Mumbai - MPCB",08-03-2024 06:00:00,19.0575752,73.0151367,SO2,4,59,25
India,Maharashtra,Navi Mumbai,"Sanpada, Navi Mumbai - MPCB",08-03-2024 06:00:00,19.0575752,73.0151367,CO,2,79,32
India,Maharashtra,Navi Mumbai,"Sanpada, Navi Mumbai - MPCB",08-03-2024 06:00:00,19.0575752,73.0151367,OZONE,1,146,13
India,Maharashtra,Navi Mumbai,"Tondare-Taloja, Navi Mumbai - MPCB",08-03-2024 06:00:00,19.0630,73.1209,NH3,5,17,9
India,Maharashtra,Parbhani,"Masoom Colony, Parbhani - MPCB",08-03-2024 06:00:00,19.265594,76.761463,PM10,70,118,92
India,Maharashtra,Parbhani,"Masoom Colony, Parbhani - MPCB",08-03-2024 06:00:00,19.265594,76.761463,CO,12,86,35
India,Maharashtra,Pimpri-Chinchwad,"Gavalinagar, Pimpri Chinchwad - MPCB",08-03-2024 06:00:00,18.63673,73.82487,PM10,77,168,118
India,Maharashtra,Pimpri-Chinchwad,"Gavalinagar, Pimpri Chinchwad - MPCB",08-03-2024 06:00:00,18.63673,73.82487,NO2,12,109,53
India,Maharashtra,Pimpri-Chinchwad,"Gavalinagar, Pimpri Chinchwad - MPCB",08-03-2024 06:00:00,18.63673,73.82487,NH3,1,23,5
India,Maharashtra,Pimpri-Chinchwad,"Gavalinagar, Pimpri Chinchwad - MPCB",08-03-2024 06:00:00,18.63673,73.82487,CO,11,101,42
India,Maharashtra,Pimpri-Chinchwad,"Park Street Wakad, Pimpri Chinchwad - MPCB",08-03-2024 06:00:00,18.59051,73.77946,PM2.5,68,293,187
India,Maharashtra,Pimpri-Chinchwad,"Park Street Wakad, Pimpri Chinchwad - MPCB",08-03-2024 06:00:00,18.59051,73.77946,NO2,64,152,103
India,Maharashtra,Pimpri-Chinchwad,"Park Street Wakad, Pimpri Chinchwad - MPCB",08-03-2024 06:00:00,18.59051,73.77946,NH3,7,18,12
India,Maharashtra,Pune,"Bhosari, Pune - IITM",08-03-2024 06:00:00,18.640051,73.848956,PM10,48,151,104
India,Maharashtra,Pune,"Bhosari, Pune - IITM",08-03-2024 06:00:00,18.640051,73.848956,NO2,13,15,14
India,Maharashtra,Pune,"Karve Road, Pune - MPCB",08-03-2024 06:00:00,18.5011743,73.8165527,CO,89,89,89
India,Maharashtra,Pune,"Mhada Colony, Pune - IITM",08-03-2024 06:00:00,18.573040,73.927715,PM2.5,35,123,81
India,Maharashtra,Pune,"Mhada Colony, Pune - IITM",08-03-2024 06:00:00,18.573040,73.927715,OZONE,7,28,10
India,Maharashtra,Pune,"Revenue Colony-Shivajinagar, Pune - IITM",08-03-2024 06:00:00,18.530085,73.849598,PM2.5,49,190,96
India,Maharashtra,Pune,"Revenue Colony-Shivajinagar, Pune - IITM",08-03-2024 06:00:00,18.530085,73.849598,NO2,76,165,119
India,Maharashtra,Pune,"Revenue Colony-Shivajinagar, Pune - IITM",08-03-2024 06:00:00,18.530085,73.849598,OZONE,1,36,7
India,Maharashtra,Sangli,"Vijay Nagar, Sangli - MPCB",08-03-2024 06:00:00, 16.5038,74.3623,NH3,1,4,2
India,Maharashtra,Solapur,"Ratandeep Housing Society, Solapur - MPCB",08-03-2024 06:00:00,17.65439,75.90649,NO2,30,118,68
India,Maharashtra,Solapur,"Solapur, Solapur - MPCB",08-03-2024 06:00:00,17.6599188,75.9063906,SO2,33,40,38
India,Maharashtra,Solapur,"Solapur, Solapur - MPCB",08-03-2024 06:00:00,17.6599188,75.9063906,OZONE,NA,NA,NA
India,Maharashtra,Thane,"Pimpleshwar Mandir, Thane - MPCB",08-03-2024 06:00:00,19.192056,72.9585188,PM10,95,207,139
India,Maharashtra,Thane,"Pimpleshwar Mandir, Thane - MPCB",08-03-2024 06:00:00,19.192056,72.9585188,CO,18,119,89
India,Maharashtra,Thane,"Upvan Fort, Thane - MPCB",08-03-2024 06:00:00,19.222279,72.957979,PM2.5,61,248,107
India,Maharashtra,Virar,"Bolinj, Virar - MPCB",08-03-2024 06:00:00,19.4458210,72.7988231,SO2,11,41,23
India,Maharashtra,Virar,"Bolinj, Virar - MPCB",08-03-2024 06:00:00,19.4458210,72.7988231,CO,18,53,25
India,Maharashtra,Virar,"Bolinj, Virar - MPCB",08-03-2024 06:00:00,19.4458210,72.7988231,OZONE,30,126,44
India,Manipur,Imphal,"DM College of Science, Imphal - Manipur PCB",08-03-2024 06:00:00,24.8207389,93.9423085,PM2.5,9,51,22
India,Manipur,Imphal,"DM College of Science, Imphal - Manipur PCB",08-03-2024 06:00:00,24.8207389,93.9423085,NO2,7,8,7
India,Manipur,Imphal,"Manipur University, Imphal - Manipur PCB",08-03-2024 06:00:00,24.7524239,93.9286218,NO2,8,27,15
India,Meghalaya,Shillong,"Lumpyngngad, Shillong - Meghalaya PCB",08-03-2024 06:00:00,25.5586,91.8985,PM10,29,129,86
India,Meghalaya,Shillong,"Lumpyngngad, Shillong - Meghalaya PCB",08-03-2024 06:00:00,25.5586,91.8985,NH3,1,1,1
India,Meghalaya,Shillong,"Lumpyngngad, Shillong - Meghalaya PCB",08-03-2024 06:00:00,25.5586,91.8985,SO2,44,47,45
India,Meghalaya,Shillong,"Lumpyngngad, Shillong - Meghalaya PCB",08-03-2024 06:00:00,25.5586,91.8985,CO,12,35,19
India,Mizoram,Aizawl,"Sikulpuikawn, Aizawl - Mizoram PCB",08-03-2024 06:00:00,23.7176342,92.7192841,PM2.5,18,102,44
India,Mizoram,Aizawl,"Sikulpuikawn, Aizawl - Mizoram PCB",08-03-2024 06:00:00,23.7176342,92.7192841,SO2,2,2,2
India,Nagaland,Kohima,"PWD Juction, Kohima - NPCB",08-03-2024 06:00:00,25.6635413,94.0989878,NO2,3,4,4
India,Nagaland,Kohima,"PWD Juction, Kohima - NPCB",08-03-2024 06:00:00,25.6635413,94.0989878,NH3,1,1,1
India,Nagaland,Kohima,"PWD Juction, Kohima - NPCB",08-03-2024 06:00:00,25.6635413,94.0989878,SO2,29,31,29
India,Odisha,Angul,"Hakimapada, Angul - OSPCB",08-03-2024 06:00:00,20.832874,85.104082,PM10,22,256,113
India,Odisha,Balasore,"Kalidaspur, Balasore - OSPCB",08-03-2024 06:00:00,21.51161,86.89088,PM10,116,360,171
India,Odisha,Balasore,"Kalidaspur, Balasore - OSPCB",08-03-2024 06:00:00,21.51161,86.89088,NH3,6,10,8
India,Odisha,Balasore,"Kalidaspur, Balasore - OSPCB",08-03-2024 06:00:00,21.51161,86.89088,OZONE,14,75,32
India,Odisha,Barbil,"Forest Office, Barbil - OSPCB",08-03-2024 06:00:00,22.1166054,85.3945546,PM10,87,203,147
India,Odisha,Barbil,"Forest Office, Barbil - OSPCB",08-03-2024 06:00:00,22.1166054,85.3945546,OZONE,4,96,21
India,Odisha,Baripada,"Meher Colony, Baripada - OSPCB",08-03-2024 06:00:00,21.941841,86.728318,CO,24,104,72
India,Odisha,Baripada,"Meher Colony, Baripada - OSPCB",08-03-2024 06:00:00,21.941841,86.728318,OZONE,12,35,19
India,Odisha,Brajrajnagar,"GM Office, Brajrajnagar - OSPCB",08-03-2024 06:00:00,21.8004996,83.8396977,PM10,24,174,72
India,Odisha,Byasanagar,"Ferro Chrome Colony, Byasanagar - OSPCB",08-03-2024 06:00:00,20.94185,86.11510,SO2,3,27,11
India,Odisha,Cuttack,"CDA Area, Cuttack - OSPCB",08-03-2024 06:00:00,20.48891     ,85.84768     ,OZONE,18,69,36
India,Odisha,Rairangpur,"Divisional Forest Office, Rairangpur - OSPCB",08-03-2024 06:00:00,22.265816,86.174829,PM2.5,86,202,134
India,Odisha,Rairangpur,"Divisional Forest Office, Rairangpur - OSPCB",08-03-2024 06:00:00,22.265816,86.174829,NH3,5,5,5
India,Odisha,Rourkela,"Fertilizer Township, Rourkela - OSPCB",08-03-2024 06:00:00,22.18972222,84.86277778,NO2,8,19,15
India,Odisha,Rourkela,"Raghunathpali, Rourkela - OSPCB",08-03-2024 06:00:00,22.220833,84.809444,SO2,2,16,7
India,Odisha,Suakati,"OMC Colony, Suakati - OSPCB",08-03-2024 06:00:00,21.606865,85.510538,NH3,NA,NA,NA
India,Odisha,Suakati,"OMC Colony, Suakati - OSPCB",08-03-2024 06:00:00,21.606865,85.510538,CO,12,27,20
India,Odisha,Talcher,"Talcher Coalfields,Talcher - OSPCB",08-03-2024 06:00:00,20.9360711,85.1707021,PM2.5,22,130,66
India,Odisha,Talcher,"Talcher Coalfields,Talcher - OSPCB",08-03-2024 06:00:00,20.9360711,85.1707021,PM10,20,104,56
India,Odisha,Talcher,"Talcher Coalfields,Talcher - OSPCB",08-03-2024 06:00:00,20.9360711,85.1707021,NO2,39,45,41
India,Odisha,Talcher,"Talcher Coalfields,Talcher - OSPCB",08-03-2024 06:00:00,20.9360711,85.1707021,OZONE,2,17,9
India,Odisha,Tensa,"Barsua Iron Ore Mines, Tensa - OSPCB",08-03-2024 06:00:00,21.869985,85.167016,PM2.5,49,111,70
India,Odisha,Tensa,"Barsua Iron Ore Mines, Tensa - OSPCB",08-03-2024 06:00:00,21.869985,85.167016,NH3,6,8,7
India,Odisha,Tensa,"Barsua Iron Ore Mines, Tensa - OSPCB",08-03-2024 06:00:00,21.869985,85.167016,OZONE,1,32,2
India,Puducherry,Puducherry,"Jawahar Nagar, Puducherry - PPCC",08-03-2024 06:00:00,11.9309,79.8027,CO,18,80,25
India,Punjab,Amritsar,"Golden Temple, Amritsar - PPCB",08-03-2024 06:00:00,31.620000,74.876512,PM10,73,108,89
India,Punjab,Jalandhar,"Civil Line, Jalandhar - PPCB",08-03-2024 06:00:00,31.321907,75.578914,PM10,61,104,84
India,Punjab,Khanna,"Kalal Majra, Khanna - PPCB",08-03-2024 06:00:00,30.736056 ,76.209694,OZONE,17,88,33
India,Punjab,Ludhiana,"Punjab Agricultural University, Ludhiana - PPCB",08-03-2024 06:00:00,30.9028,75.8086,NH3,4,4,4
India,Punjab,Ludhiana,"Punjab Agricultural University, Ludhiana - PPCB",08-03-2024 06:00:00,30.9028,75.8086,OZONE,11,64,15
India,Punjab,Mandi Gobindgarh,"RIMT University, Mandi Gobindgarh - PPCB",08-03-2024 06:00:00,30.649961,76.331442,CO,14,32,25
India,Punjab,Patiala,"Model Town, Patiala - PPCB",08-03-2024 06:00:00,30.349388,76.366642,OZONE,14,86,21
India,Punjab,Rupnagar,"Ratanpura, Rupnagar - Ambuja Cements",08-03-2024 06:00:00,31.0325454,76.5623046,SO2,8,12,10
India,Rajasthan,Alwar,"Moti Doongri, Alwar - RSPCB",08-03-2024 06:00:00,27.554793,76.611536,NO2,37,53,45
India,Rajasthan,Alwar,"Moti Doongri, Alwar - RSPCB",08-03-2024 06:00:00,27.554793,76.611536,NH3,5,8,6
India,Rajasthan,Banswara,"Rati Talai, Banswara - RSPCB",08-03-2024 06:00:00,23.555190,74.440010,OZONE,4,151,42
India,Rajasthan,Baran,"Bamboliya, Baran - RSPCB",08-03-2024 06:00:00,25.106006,76.469948,NH3,NA,NA,NA
India,Rajasthan,Baran,"Bamboliya, Baran - RSPCB",08-03-2024 06:00:00,25.106006,76.469948,CO,NA,NA,NA
India,Rajasthan,Barmer,"Railway Colony, Barmer - RSPCB",08-03-2024 06:00:00,25.747299,71.393989,PM2.5,13,63,25
India,Rajasthan,Barmer,"Railway Colony, Barmer - RSPCB",08-03-2024 06:00:00,25.747299,71.393989,OZONE,40,121,79
India,Rajasthan,Bharatpur,"Krishna Nagar, Bharatpur - RSPCB",08-03-2024 06:00:00,27.215415,77.50873,NH3,10,27,14
India,Rajasthan,Bhilwara,"Pratap Nagar, Bhilwara - RSPCB",08-03-2024 06:00:00,25.339605,74.618883,OZONE,3,101,6
India,Rajasthan,Bhiwadi,"RIICO Ind. Area III, Bhiwadi - RSPCB",08-03-2024 06:00:00,28.194909,76.862296,PM10,11,222,167
India,Rajasthan,Bhiwadi,"RIICO Ind. Area III, Bhiwadi - RSPCB",08-03-2024 06:00:00,28.194909,76.862296,OZONE,1,59,2
India,Rajasthan,Bhiwadi,"Vasundhara Nagar_UIT, Bhiwadi - RSPCB",08-03-2024 06:00:00,28.207266,76.829265,PM10,64,314,172
India,Rajasthan,Bhiwadi,"Vasundhara Nagar_UIT, Bhiwadi - RSPCB",08-03-2024 06:00:00,28.207266,76.829265,SO2,7,25,12
India,Rajasthan,Bikaner,"MM Ground, Bikaner - RSPCB",08-03-2024 06:00:00,28.018792,73.292658,NO2,24,72,43
India,Rajasthan,Bundi,"New Colony, Bundi - RSPCB",08-03-2024 06:00:00,25.435774,75.644272,NO2,16,83,37
India,Rajasthan,Chittorgarh,"Shastri Nagar, Chittorgarh - RSPCB",08-03-2024 06:00:00,24.892047,74.623527,PM10,111,261,169
India,Rajasthan,Churu,"Subash Chowk, Churu - RSPCB",08-03-2024 06:00:00,28.296139,74.961696,PM2.5,10,272,78
India,Rajasthan,Dausa,"Khatikan Mohalla, Dausa - RSPCB",08-03-2024 06:00:00,26.895552,76.334753,PM2.5,30,170,87
India,Rajasthan,Dausa,"Khatikan Mohalla, Dausa - RSPCB",08-03-2024 06:00:00,26.895552,76.334753,NH3,7,9,8
India,Rajasthan,Dausa,"Khatikan Mohalla, Dausa - RSPCB",08-03-2024 06:00:00,26.895552,76.334753,SO2,4,14,9
India,Rajasthan,Dholpur,"Raja Ganj, Dholpur - RSPCB",08-03-2024 06:00:00,26.699557,77.898881,NH3,NA,NA,NA
India,Rajasthan,Dholpur,"Raja Ganj, Dholpur - RSPCB",08-03-2024 06:00:00,26.699557,77.898881,SO2,NA,NA,NA
India,Rajasthan,Dungarpur,"Bhoiwada, Dungarpur - RSPCB",08-03-2024 06:00:00,23.837789,73.714926,SO2,8,21,11
India,Rajasthan,Hanumangarh,"Housing Board, Hanumangarh - RSPCB",08-03-2024 06:00:00,29.610750,74.283608,NH3,6,10,8
India,Rajasthan,Jaipur,"Adarsh Nagar, Jaipur - RSPCB",08-03-2024 06:00:00,26.902909,75.836858,OZONE,12,50,35
India,Rajasthan,Jaipur,"Mansarovar Sector-12, Jaipur - RSPCB",08-03-2024 06:00:00,26.843698,75.766894,SO2,2,5,4
India,Rajasthan,Jaipur,"Mansarovar Sector-12, Jaipur - RSPCB",08-03-2024 06:00:00,26.843698,75.766894,CO,6,158,158
India,Rajasthan,Jaipur,"Mansarovar Sector-12, Jaipur - RSPCB",08-03-2024 06:00:00,26.843698,75.766894,OZONE,4,19,9
India,Rajasthan,Jaipur,"Police Commissionerate, Jaipur - RSPCB",08-03-2024 06:00:00,26.9164092,75.7994901,NO2,NA,NA,NA
India,Rajasthan,Jaipur,"Police Commissionerate, Jaipur - RSPCB",08-03-2024 06:00:00,26.9164092,75.7994901,SO2,14,24,18
India,Rajasthan,Jaipur,"RIICO Sitapura, Jaipur - RSPCB",08-03-2024 06:00:00,26.786682,75.827928,NH3,1,2,1
India,Rajasthan,Jaipur,"RIICO Sitapura, Jaipur - RSPCB",08-03-2024 06:00:00,26.786682,75.827928,CO,9,101,37
India,Rajasthan,Jaipur,"RIICO Sitapura, Jaipur - RSPCB",08-03-2024 06:00:00,26.786682,75.827928,OZONE,4,98,55
India,Rajasthan,Jaipur,"Sector-2 Murlipura, Jaipur - RSPCB",08-03-2024 06:00:00,26.960669,75.771817,PM10,67,200,112
India,Rajasthan,Jaipur,"Shastri Nagar, Jaipur - RSPCB",08-03-2024 06:00:00,26.9502929,75.730943,PM10,83,137,111
India,Rajasthan,Jaisalmer,"Sadar Bazar, Jaisalmer - RSPCB",08-03-2024 06:00:00,26.912329,70.909168,CO,21,49,27
India,Rajasthan,Jhalawar,"Rajlaxmi Nagar, Jhalawar - RSPCB",08-03-2024 06:00:00,24.588397,76.172782,PM2.5,8,310,64
India,Rajasthan,Jhalawar,"Rajlaxmi Nagar, Jhalawar - RSPCB",08-03-2024 06:00:00,24.588397,76.172782,OZONE,19,92,63
India,Rajasthan,Jhunjhunu,"Indra Nagar, Jhunjhunu - RSPCB",08-03-2024 06:00:00,28.108988,75.386577,PM2.5,16,293,94
India,Rajasthan,Jhunjhunu,"Indra Nagar, Jhunjhunu - RSPCB",08-03-2024 06:00:00,28.108988,75.386577,NH3,19,38,27
India,Rajasthan,Jhunjhunu,"Indra Nagar, Jhunjhunu - RSPCB",08-03-2024 06:00:00,28.108988,75.386577,SO2,3,13,7
India,Rajasthan,Jodhpur,"Jhalamand, Jodhpur - RSPCB",08-03-2024 06:00:00,26.215415,73.070156,NO2,22,39,31
India,Rajasthan,Jodhpur,"Jhalamand, Jodhpur - RSPCB",08-03-2024 06:00:00,26.215415,73.070156,OZONE,31,85,66
India,Rajasthan,Jodhpur,"Samrat Ashok Udhyan, Jodhpur - RSPCB",08-03-2024 06:00:00,26.253384,72.976571,PM2.5,7,151,36
India,Rajasthan,Jodhpur,"Samrat Ashok Udhyan, Jodhpur - RSPCB",08-03-2024 06:00:00,26.253384,72.976571,NH3,3,7,5
India,Rajasthan,Karauli,"Satyawati Vihar, Karauli - RSPCB",08-03-2024 06:00:00,26.506177,77.025989,CO,34,96,43
India,Rajasthan,Kota,"Nayapura, Kota - RSPCB",08-03-2024 06:00:00,25.196024,75.855668,NH3,5,9,7
India,Rajasthan,Kota,"Nayapura, Kota - RSPCB",08-03-2024 06:00:00,25.196024,75.855668,CO,18,120,38
India,Rajasthan,Kota,"Shrinath Puram, Kota - RSPCB",08-03-2024 06:00:00,25.14389,75.821256,PM10,36,180,104
India,Rajasthan,Kota,"Shrinath Puram, Kota - RSPCB",08-03-2024 06:00:00,25.14389,75.821256,NH3,9,22,16
India,Rajasthan,Nagaur,"Karni Colony, Nagaur - RSPCB",08-03-2024 06:00:00,27.213494,73.734444,NO2,8,67,33
India,Rajasthan,Nagaur,"Karni Colony, Nagaur - RSPCB",08-03-2024 06:00:00,27.213494,73.734444,CO,19,72,27
India,Rajasthan,Pali,"Indira Colony Vistar, Pali - RSPCB",08-03-2024 06:00:00,25.771061, 73.340227,CO,20,70,32
India,Rajasthan,Pali,"Indira Colony Vistar, Pali - RSPCB",08-03-2024 06:00:00,25.771061, 73.340227,OZONE,20,80,39
India,Rajasthan,Pratapgarh,"Pragati Nagar, Pratapgarh - RSPCB",08-03-2024 06:00:00,24.041198,74.780702,NO2,7,97,22
India,Rajasthan,Rajsamand,"Dhoinda, Rajsamand - RSPCB",08-03-2024 06:00:00,25.036360,73.883502,SO2,7,12,8
India,Rajasthan,Sikar,"Radhakishan Pura, Sikar - RSPCB",08-03-2024 06:00:00,27.608912,75.153302,PM2.5,17,335,93
India,Rajasthan,Sirohi,"Vedhaynath Colony, Sirohi - RSPCB",08-03-2024 06:00:00,24.885261,72.857549,PM10,24,206,79
India,Rajasthan,Sirohi,"Vedhaynath Colony, Sirohi - RSPCB",08-03-2024 06:00:00,24.885261,72.857549,SO2,8,20,12
India,Rajasthan,Sri Ganganagar,"Old City, Sri Ganganagar - RSPCB",08-03-2024 06:00:00,29.931624,73.864511,OZONE,11,108,28
India,Rajasthan,Udaipur,"Ashok Nagar, Udaipur - RSPCB",08-03-2024 06:00:00,24.5886166,73.6321397,PM2.5,55,188,88
India,Sikkim,Gangtok,"Zero Point GICI, Gangtok - SSPCB",08-03-2024 06:00:00,27.338530,88.614099,NO2,1,5,3
India,TamilNadu,Chennai,"Arumbakkam, Chennai - TNPCB",08-03-2024 06:00:00,13.0664,80.2112 ,NH3,1,6,4
India,TamilNadu,Chennai,"Kodungaiyur, Chennai - TNPCB",08-03-2024 06:00:00,13.1278,80.2642,NO2,10,32,17
India,TamilNadu,Chennai,"Manali, Chennai - CPCB",08-03-2024 06:00:00,13.164544,80.26285,OZONE,6,16,12
India,TamilNadu,Chennai,"Velachery Res. Area, Chennai - CPCB",08-03-2024 06:00:00,13.0052189,80.2398125,PM10,74,111,92
India,TamilNadu,Cuddalore,"Semmandalam, Cuddalore - TNPCB",08-03-2024 06:00:00,11.7637683,79.7499835,PM10,10,91,34
India,TamilNadu,Gummidipoondi,"Anthoni Pillai Nagar, Gummidipoondi - TNPCB",08-03-2024 06:00:00,13.4127,80.1081,PM2.5,41,243,99
India,TamilNadu,Kanchipuram,"Kilambi, Kanchipuram - TNPCB",08-03-2024 06:00:00,12.864618,79.659968,OZONE,NA,NA,NA
India,TamilNadu,Palkalaiperur,"Bharathidasan University, Palkalaiperur - TNPCB",08-03-2024 06:00:00,10.681158,78.741746,PM10,NA,NA,NA
India,TamilNadu,Palkalaiperur,"Bharathidasan University, Palkalaiperur - TNPCB",08-03-2024 06:00:00,10.681158,78.741746,CO,NA,NA,NA
India,TamilNadu,Thoothukudi,"Meelavittan, Thoothukudi - TNPCB",08-03-2024 06:00:00,8.816428 ,78.099039,PM10,43,111,70
India,TamilNadu,Tirupur,"Kumaran College, Tirupur - TNPCB",08-03-2024 06:00:00,11.0973603,77.3228673,NH3,NA,NA,NA
India,TamilNadu,Vellore,"Vasanthapuram, Vellore - TNPCB",08-03-2024 06:00:00,12.909494,79.131861,CO,NA,NA,NA
India,Telangana,Hyderabad,"Central University, Hyderabad - TSPCB",08-03-2024 06:00:00,17.460103,78.334361,PM2.5,38,80,54
India,Telangana,Hyderabad,"Central University, Hyderabad - TSPCB",08-03-2024 06:00:00,17.460103,78.334361,SO2,7,23,12
India,Telangana,Hyderabad,"Central University, Hyderabad - TSPCB",08-03-2024 06:00:00,17.460103,78.334361,OZONE,3,4,3
India,Telangana,Hyderabad,"ECIL Kapra, Hyderabad - TSPCB",08-03-2024 06:00:00,17.470431,78.566959,PM2.5,38,63,52
India,Telangana,Hyderabad,"ECIL Kapra, Hyderabad - TSPCB",08-03-2024 06:00:00,17.470431,78.566959,NO2,10,11,11
India,Telangana,Hyderabad,"ECIL Kapra, Hyderabad - TSPCB",08-03-2024 06:00:00,17.470431,78.566959,NH3,3,8,7
India,Telangana,Hyderabad,"ICRISAT Patancheru, Hyderabad - TSPCB",08-03-2024 06:00:00,17.518400,78.278777,NH3,2,2,2
India,Telangana,Hyderabad,"ICRISAT Patancheru, Hyderabad - TSPCB",08-03-2024 06:00:00,17.518400,78.278777,SO2,19,89,28
India,Telangana,Hyderabad,"IITH Kandi, Hyderabad - TSPCB",08-03-2024 06:00:00,17.585705,78.126199,OZONE,23,23,23
India,Telangana,Hyderabad,"Kokapet, Hyderabad - TSPCB",08-03-2024 06:00:00,17.393559,78.339194,NH3,1,2,1
India,Telangana,Hyderabad,"Kokapet, Hyderabad - TSPCB",08-03-2024 06:00:00,17.393559,78.339194,OZONE,2,12,4
India,Telangana,Hyderabad,"Kompally Municipal Office, Hyderabad - TSPCB",08-03-2024 06:00:00,17.544899,78.486949,NO2,NA,NA,NA
India,Telangana,Hyderabad,"Kompally Municipal Office, Hyderabad - TSPCB",08-03-2024 06:00:00,17.544899,78.486949,OZONE,1,148,40
India,Telangana,Hyderabad,"Nacharam_TSIIC IALA, Hyderabad - TSPCB",08-03-2024 06:00:00,17.429398,78.569354,CO,20,38,26
India,Telangana,Hyderabad,"New Malakpet, Hyderabad - TSPCB",08-03-2024 06:00:00,17.37206,78.50864,PM2.5,17,43,29
India,Telangana,Hyderabad,"New Malakpet, Hyderabad - TSPCB",08-03-2024 06:00:00,17.37206,78.50864,SO2,11,26,17
India,Telangana,Hyderabad,"Ramachandrapuram, Hyderabad - TSPCB",08-03-2024 06:00:00,17.528544,78.286195,PM2.5,NA,NA,NA
India,Telangana,Hyderabad,"Ramachandrapuram, Hyderabad - TSPCB",08-03-2024 06:00:00,17.528544,78.286195,CO,21,48,39
India,Telangana,Hyderabad,"Ramachandrapuram, Hyderabad - TSPCB",08-03-2024 06:00:00,17.528544,78.286195,OZONE,21,49,21
India,Telangana,Hyderabad,"Sanathnagar, Hyderabad - TSPCB",08-03-2024 06:00:00,17.4559458,78.4332152,OZONE,14,59,15
India,Telangana,Hyderabad,"Somajiguda, Hyderabad - TSPCB",08-03-2024 06:00:00,17.417094,78.457437,PM10,70,83,75
India,Telangana,Hyderabad,"Zoo Park, Hyderabad - TSPCB",08-03-2024 06:00:00,17.349694,78.451437,PM10,62,154,101
India,Telangana,Hyderabad,"Zoo Park, Hyderabad - TSPCB",08-03-2024 06:00:00,17.349694,78.451437,NH3,1,1,1
India,Telangana,Hyderabad,"Zoo Park, Hyderabad - TSPCB",08-03-2024 06:00:00,17.349694,78.451437,SO2,1,8,3
India,Tripura,Agartala,"Bardowali, Agartala - Tripura SPCB",08-03-2024 06:00:00,23.8175497,91.2726974,PM10,113,425,197
India,Uttar_Pradesh,Agra,"Manoharpur, Agra - UPPCB",08-03-2024 06:00:00,27.23711,78.01936,NO2,19,20,19
India,Uttar_Pradesh,Agra,"Rohta, Agra - UPPCB",08-03-2024 06:00:00,27.106972,78.000111,PM2.5,3,100,62
India,Uttar_Pradesh,Agra,"Rohta, Agra - UPPCB",08-03-2024 06:00:00,27.106972,78.000111,PM10,2,83,51
India,Uttar_Pradesh,Agra,"Sector-3B Avas Vikas Colony, Agra - UPPCB",08-03-2024 06:00:00,27.19412,77.96237,NO2,5,68,26
India,Uttar_Pradesh,Agra,"Sector-3B Avas Vikas Colony, Agra - UPPCB",08-03-2024 06:00:00,27.19412,77.96237,SO2,21,23,22
India,Uttar_Pradesh,Agra,"Sector-3B Avas Vikas Colony, Agra - UPPCB",08-03-2024 06:00:00,27.19412,77.96237,CO,8,56,41
India,Uttar_Pradesh,Agra,"Shahjahan Garden, Agra - UPPCB",08-03-2024 06:00:00,27.169338,78.03582,NH3,4,6,6
India,Uttar_Pradesh,Agra,"Shastripuram, Agra - UPPCB",08-03-2024 06:00:00,27.19862,77.92066,SO2,17,27,19
India,Uttar_Pradesh,Bareilly,"Rajendra Nagar, Bareilly - UPPCB",08-03-2024 06:00:00,28.38910936,79.42963708,PM2.5,19,45,31
India,Uttar_Pradesh,Bareilly,"Rajendra Nagar, Bareilly - UPPCB",08-03-2024 06:00:00,28.38910936,79.42963708,NO2,12,27,20
India,Uttar_Pradesh,Bulandshahr,"Yamunapuram, Bulandshahr - UPPCB",08-03-2024 06:00:00,28.406963,77.849831,NH3,9,18,12
India,Uttar_Pradesh,Firozabad,"Nagla Bhau, Firozabad - UPPCB",08-03-2024 06:00:00,27.168897,78.376960,NO2,17,17,17
India,Uttar_Pradesh,Firozabad,"Nagla Bhau, Firozabad - UPPCB",08-03-2024 06:00:00,27.168897,78.376960,NH3,2,2,2
India,Uttar_Pradesh,Firozabad,"Nagla Bhau, Firozabad - UPPCB",08-03-2024 06:00:00,27.168897,78.376960,OZONE,17,23,18
India,Uttar_Pradesh,Firozabad,"Vibhab Nagar, Firozabad - UPPCB",08-03-2024 06:00:00,27.1594,78.3953,PM2.5,37,170,76
India,Uttar_Pradesh,Ghaziabad,"Indirapuram, Ghaziabad - UPPCB",08-03-2024 06:00:00,28.646233,77.358075,PM2.5,28,286,93
India,Uttar_Pradesh,Ghaziabad,"Loni, Ghaziabad - UPPCB",08-03-2024 06:00:00,28.757294,77.278792,PM2.5,40,301,106
India,Uttar_Pradesh,Ghaziabad,"Loni, Ghaziabad - UPPCB",08-03-2024 06:00:00,28.757294,77.278792,NO2,9,47,25
India,Uttar_Pradesh,Ghaziabad,"Vasundhara, Ghaziabad - UPPCB",08-03-2024 06:00:00,28.6603346,77.3572563,PM2.5,33,306,117
India,Uttar_Pradesh,Ghaziabad,"Vasundhara, Ghaziabad - UPPCB",08-03-2024 06:00:00,28.6603346,77.3572563,SO2,4,50,20
India,Uttar_Pradesh,Gorakhpur,"Madan Mohan Malaviya University of Technology, Gorakhpur - UPPCB",08-03-2024 06:00:00,26.730136,83.433859,PM2.5,58,200,120
India,Uttar_Pradesh,Gorakhpur,"Madan Mohan Malaviya University of Technology, Gorakhpur - UPPCB",08-03-2024 06:00:00,26.730136,83.433859,SO2,31,38,33
India,Uttar_Pradesh,Gorakhpur,"Madan Mohan Malaviya University of Technology, Gorakhpur - UPPCB",08-03-2024 06:00:00,26.730136,83.433859,OZONE,18,56,21
India,Uttar_Pradesh,Greater Noida,"Knowledge Park - III, Greater Noida - UPPCB",08-03-2024 06:00:00,28.47272,77.482000,SO2,4,28,12
India,Uttar_Pradesh,Greater Noida,"Knowledge Park - III, Greater Noida - UPPCB",08-03-2024 06:00:00,28.47272,77.482000,CO,35,89,62
India,Uttar_Pradesh,Greater Noida,"Knowledge Park - V, Greater Noida - UPPCB",08-03-2024 06:00:00,28.557054,77.453663,NO2,23,43,32
India,Uttar_Pradesh,Hapur,"Anand Vihar, Hapur - UPPCB",08-03-2024 06:00:00,28.725645,77.749675,NH3,5,8,7
India,Uttar_Pradesh,Kanpur,"FTI Kidwai Nagar, Kanpur - UPPCB",08-03-2024 06:00:00,26.428282,80.327067,NO2,15,15,15
India,Uttar_Pradesh,Kanpur,"NSI Kalyanpur, Kanpur - UPPCB",08-03-2024 06:00:00,26.509954,80.249612,PM2.5,33,92,57
India,Uttar_Pradesh,Kanpur,"Nehru Nagar, Kanpur - UPPCB",08-03-2024 06:00:00,26.4703136,80.3229863,OZONE,5,133,74
India,Uttar_Pradesh,Khurja,"Kalindi Kunj, Khurja - UPPCB",08-03-2024 06:00:00,28.2348927,77.8683002,PM10,28,91,67
India,Uttar_Pradesh,Khurja,"Kalindi Kunj, Khurja - UPPCB",08-03-2024 06:00:00,28.2348927,77.8683002,OZONE,10,22,15
India,Uttar_Pradesh,Lucknow,"B R Ambedkar University, Lucknow - UPPCB",08-03-2024 06:00:00,26.766433,80.927299,OZONE,6,72,23
India,Uttar_Pradesh,Lucknow,"Kukrail Picnic Spot-1, Lucknow - UPPCB",08-03-2024 06:00:00,26.90723,80.98579,PM2.5,20,70,47
India,Uttar_Pradesh,Lucknow,"Kukrail Picnic Spot-1, Lucknow - UPPCB",08-03-2024 06:00:00,26.90723,80.98579,NO2,8,9,8
India,Uttar_Pradesh,Lucknow,"Kukrail Picnic Spot-1, Lucknow - UPPCB",08-03-2024 06:00:00,26.90723,80.98579,OZONE,12,64,21
India,Uttar_Pradesh,Lucknow,"Lalbagh, Lucknow - CPCB",08-03-2024 06:00:00,26.8458805,80.9365541,CO,20,82,39
India,Uttar_Pradesh,Lucknow,"Talkatora District Industries Center, Lucknow - CPCB",08-03-2024 06:00:00,26.83399722,80.8917361,CO,6,34,28
India,Uttar_Pradesh,Meerut,"Ganga Nagar, Meerut - UPPCB",08-03-2024 06:00:00,28.999264,77.7590354,NH3,4,7,5
India,Uttar_Pradesh,Meerut,"Ganga Nagar, Meerut - UPPCB",08-03-2024 06:00:00,28.999264,77.7590354,SO2,19,43,28
India,Uttar_Pradesh,Meerut,"Jai Bhim Nagar, Meerut - UPPCB",08-03-2024 06:00:00,28.9535882,77.7622941,SO2,15,36,21
India,Uttar_Pradesh,Meerut,"Pallavpuram Phase 2, Meerut - UPPCB",08-03-2024 06:00:00,29.063510,77.709723,OZONE,15,98,28
India,Uttar_Pradesh,Moradabad,"Buddhi Vihar, Moradabad - UPPCB",08-03-2024 06:00:00,28.83526,78.74460,PM10,61,136,85
India,Uttar_Pradesh,Moradabad,"Eco Herbal Park, Moradabad - UPPCB",08-03-2024 06:00:00,28.840739,78.697531,SO2,3,39,18
India,Uttar_Pradesh,Moradabad,"Eco Herbal Park, Moradabad - UPPCB",08-03-2024 06:00:00,28.840739,78.697531,CO,6,74,17
India,Uttar_Pradesh,Moradabad,"Employment Office, Moradabad - UPPCB",08-03-2024 06:00:00,28.88528,78.73880,PM2.5,33,80,52
India,Uttar_Pradesh,Moradabad,"Jigar Colony, Moradabad - UPPCB",08-03-2024 06:00:00,28.856664,78.772638,NO2,21,33,24
India,Uttar_Pradesh,Moradabad,"Jigar Colony, Moradabad - UPPCB",08-03-2024 06:00:00,28.856664,78.772638,NH3,5,20,6
India,Uttar_Pradesh,Moradabad,"Transport Nagar, Moradabad - UPPCB",08-03-2024 06:00:00,28.802625,78.753728,PM2.5,22,79,47
India,Uttar_Pradesh,Moradabad,"Transport Nagar, Moradabad - UPPCB",08-03-2024 06:00:00,28.802625,78.753728,PM10,41,97,63
India,Uttar_Pradesh,Muzaffarnagar,"New Mandi, Muzaffarnagar - UPPCB",08-03-2024 06:00:00,29.4723508,77.7194031,NH3,4,5,4
India,Uttar_Pradesh,Muzaffarnagar,"New Mandi, Muzaffarnagar - UPPCB",08-03-2024 06:00:00,29.4723508,77.7194031,SO2,20,63,34
India,Uttar_Pradesh,Noida,"Sector - 125, Noida - UPPCB",08-03-2024 06:00:00,28.5447608,77.3231257,PM2.5,28,119,67
India,Uttar_Pradesh,Noida,"Sector - 125, Noida - UPPCB",08-03-2024 06:00:00,28.5447608,77.3231257,PM10,59,142,97
India,Uttar_Pradesh,Noida,"Sector - 125, Noida - UPPCB",08-03-2024 06:00:00,28.5447608,77.3231257,NO2,16,144,92
India,Uttar_Pradesh,Noida,"Sector - 125, Noida - UPPCB",08-03-2024 06:00:00,28.5447608,77.3231257,CO,18,72,51
India,Uttar_Pradesh,Noida,"Sector - 62, Noida - IMD",08-03-2024 06:00:00,28.6245479,77.3577104,CO,18,30,24
India,Uttar_Pradesh,Noida,"Sector-1, Noida - UPPCB",08-03-2024 06:00:00,28.5898,77.3101,PM10,100,196,147
India,Uttar_Pradesh,Noida,"Sector-1, Noida - UPPCB",08-03-2024 06:00:00,28.5898,77.3101,NO2,30,106,70
India,Uttar_Pradesh,Noida,"Sector-1, Noida - UPPCB",08-03-2024 06:00:00,28.5898,77.3101,NH3,2,5,3
India,Uttar_Pradesh,Noida,"Sector-116, Noida - UPPCB",08-03-2024 06:00:00,28.569230,77.393848,PM10,87,190,122
India,Uttar_Pradesh,Noida,"Sector-116, Noida - UPPCB",08-03-2024 06:00:00,28.569230,77.393848,NO2,25,88,49
India,Uttar_Pradesh,Prayagraj,"Jhunsi, Prayagraj - UPPCB",08-03-2024 06:00:00,25.425602,81.917152,PM2.5,18,47,29
India,Uttar_Pradesh,Prayagraj,"Motilal Nehru NIT, Prayagraj - UPPCB",08-03-2024 06:00:00,25.494,81.863,OZONE,10,39,12
India,Uttar_Pradesh,Prayagraj,"Nagar Nigam, Prayagraj - UPPCB",08-03-2024 06:00:00,25.44919916 ,81.82735986 ,PM10,43,157,72
India,Uttar_Pradesh,Varanasi,"Bhelupur, Varanasi - UPPCB",08-03-2024 06:00:00,25.301778,82.996789,PM10,18,38,26
India,Uttar_Pradesh,Varanasi,"Bhelupur, Varanasi - UPPCB",08-03-2024 06:00:00,25.301778,82.996789,OZONE,1,24,1
India,Uttar_Pradesh,Varanasi,"Maldahiya, Varanasi - UPPCB",08-03-2024 06:00:00,25.32393,82.99687,NO2,1,7,2
India,Uttarakhand,Dehradun,"Doon University, Dehradun - UKPCB",08-03-2024 06:00:00,30.269444,78.044167,SO2,1,3,1
India,Uttarakhand,Dehradun,"Doon University, Dehradun - UKPCB",08-03-2024 06:00:00,30.269444,78.044167,CO,28,44,35
India,Uttarakhand,Kashipur,"Govt. Girls Inter College, Kashipur - UKPCB",08-03-2024 06:00:00,29.2124114,78.9611753,PM2.5,40,91,62
India,Uttarakhand,Kashipur,"Govt. Girls Inter College, Kashipur - UKPCB",08-03-2024 06:00:00,29.2124114,78.9611753,NO2,4,19,11
India,West_Bengal,Asansol,"Asansol Court Area, Asansol - WBPCB",08-03-2024 06:00:00,23.685297,86.945968,NO2,13,45,23
India,West_Bengal,Asansol,"Asansol Court Area, Asansol - WBPCB",08-03-2024 06:00:00,23.685297,86.945968,SO2,16,34,23
India,West_Bengal,Asansol,"Asansol Court Area, Asansol - WBPCB",08-03-2024 06:00:00,23.685297,86.945968,CO,12,68,39
India,West_Bengal,Asansol,"Asansol Court Area, Asansol - WBPCB",08-03-2024 06:00:00,23.685297,86.945968,OZONE,12,32,16
India,West_Bengal,Barrackpore,"SVSPA Campus, Barrackpore - WBPCB",08-03-2024 06:00:00,22.7605581,88.3617589,OZONE,9,81,14
India,West_Bengal,Durgapur,"Sidhu Kanhu Indoor Stadium, Durgapur - WBPCB",08-03-2024 06:00:00,23.5404352,87.2892225,PM2.5,60,147,105
India,West_Bengal,Durgapur,"Sidhu Kanhu Indoor Stadium, Durgapur - WBPCB",08-03-2024 06:00:00,23.5404352,87.2892225,PM10,104,171,136
India,West_Bengal,Durgapur,"Sidhu Kanhu Indoor Stadium, Durgapur - WBPCB",08-03-2024 06:00:00,23.5404352,87.2892225,NO2,28,152,42
India,West_Bengal,Haldia,"Priyambada Housing Estate, Haldia - WBPCB",08-03-2024 06:00:00,22.06047,88.109737,CO,26,100,58
India,West_Bengal,Howrah,"Belur Math, Howrah - WBPCB",08-03-2024 06:00:00,22.629801,88.352017,NH3,4,9,5
India,West_Bengal,Howrah,"Ghusuri, Howrah - WBPCB",08-03-2024 06:00:00,22.611968,88.347422,CO,2,48,31
India,West_Bengal,Howrah,"Padmapukur, Howrah - WBPCB",08-03-2024 06:00:00,22.5687319,88.2797276,NH3,2,3,2
India,West_Bengal,Howrah,"Padmapukur, Howrah - WBPCB",08-03-2024 06:00:00,22.5687319,88.2797276,SO2,11,36,21
India,West_Bengal,Kolkata,"Ballygunge, Kolkata - WBPCB",08-03-2024 06:00:00,22.5367507,88.3638022,PM10,102,147,125
India,West_Bengal,Kolkata,"Ballygunge, Kolkata - WBPCB",08-03-2024 06:00:00,22.5367507,88.3638022,CO,14,61,36
India,West_Bengal,Kolkata,"Bidhannagar, Kolkata - WBPCB",08-03-2024 06:00:00,22.58157048,88.41002457,NH3,8,10,9
India,West_Bengal,Kolkata,"Fort William, Kolkata - WBPCB",08-03-2024 06:00:00,22.556640,88.342674,NO2,46,154,97
India,West_Bengal,Kolkata,"Fort William, Kolkata - WBPCB",08-03-2024 06:00:00,22.556640,88.342674,CO,24,82,64
India,West_Bengal,Kolkata,"Jadavpur, Kolkata - WBPCB",08-03-2024 06:00:00,22.49929,88.36917,NO2,2,19,5
India,West_Bengal,Kolkata,"Jadavpur, Kolkata - WBPCB",08-03-2024 06:00:00,22.49929,88.36917,NH3,2,4,3
India,West_Bengal,Kolkata,"Jadavpur, Kolkata - WBPCB",08-03-2024 06:00:00,22.49929,88.36917,CO,19,48,38
India,West_Bengal,Kolkata,"Rabindra Bharati University, Kolkata - WBPCB",08-03-2024 06:00:00,22.627847,88.380669,NO2,NA,NA,NA
India,West_Bengal,Kolkata,"Rabindra Bharati University, Kolkata - WBPCB",08-03-2024 06:00:00,22.627847,88.380669,CO,26,78,58
India,West_Bengal,Siliguri,"Ward-32 Bapupara, Siliguri - WBPCB",08-03-2024 06:00:00,26.6879226,88.4152495,SO2,11,21,14
India,West_Bengal,Siliguri,"Ward-32 Bapupara, Siliguri - WBPCB",08-03-2024 06:00:00,26.6879226,88.4152495,CO,20,62,47
India,Andhra_Pradesh,Amaravati,"Secretariat, Amaravati - APPCB",08-03-2024 06:00:00,16.5150833,80.5181667,PM10,44,81,57
India,Andhra_Pradesh,Amaravati,"Secretariat, Amaravati - APPCB",08-03-2024 06:00:00,16.5150833,80.5181667,OZONE,4,66,14
India,Andhra_Pradesh,Anantapur,"Gulzarpet, Anantapur - APPCB",08-03-2024 06:00:00,14.675886,77.593027,NO2,NA,NA,NA
India,Andhra_Pradesh,Anantapur,"Gulzarpet, Anantapur - APPCB",08-03-2024 06:00:00,14.675886,77.593027,NH3,NA,NA,NA
India,Andhra_Pradesh,Chittoor,"Gangineni Cheruvu, Chittoor - APPCB",08-03-2024 06:00:00,13.204880,79.097889,SO2,NA,NA,NA
India,Andhra_Pradesh,Rajamahendravaram,"Anand Kala Kshetram, Rajamahendravaram - APPCB",08-03-2024 06:00:00,16.9872867,81.7363176,PM2.5,45,122,70
India,Andhra_Pradesh,Rajamahendravaram,"Anand Kala Kshetram, Rajamahendravaram - APPCB",08-03-2024 06:00:00,16.9872867,81.7363176,PM10,53,131,84
India,Andhra_Pradesh,Tirupati,"Tirumala, Tirupati - APPCB",08-03-2024 06:00:00,13.67,79.35,PM10,32,132,68
India,Andhra_Pradesh,Vijayawada,"Rajiv Gandhi Park, Vijayawada - APPCB",08-03-2024 06:00:00,16.509717,80.612222,NH3,4,7,6
India,Andhra_Pradesh,Vijayawada,"Rajiv Gandhi Park, Vijayawada - APPCB",08-03-2024 06:00:00,16.509717,80.612222,OZONE,1,62,6
India,Andhra_Pradesh,Vijayawada,"Rajiv Nagar, Vijayawada - APPCB",08-03-2024 06:00:00,16.554731,80.649110,NO2,3,17,9
India,Arunachal_Pradesh,Naharlagun,"Naharlagun, Naharlagun - APSPCB",08-03-2024 06:00:00,27.103358,93.679645,OZONE,2,2,2
India,Assam,Byrnihat,"Central Academy for SFS, Byrnihat - PCBA",08-03-2024 06:00:00,26.071318,91.87488,PM2.5,NA,NA,NA
India,Assam,Byrnihat,"Central Academy for SFS, Byrnihat - PCBA",08-03-2024 06:00:00,26.071318,91.87488,OZONE,NA,NA,NA
India,Assam,Guwahati,"IITG, Guwahati - PCBA",08-03-2024 06:00:00,26.2028636,91.70046436,OZONE,2,52,13
India,Assam,Guwahati,"LGBI Airport, Guwahati - PCBA",08-03-2024 06:00:00,26.10887,91.589544,NO2,9,83,26
India,Assam,Guwahati,"Pan Bazaar, Guwahati - PCBA",08-03-2024 06:00:00,26.187500,91.744194,PM10,117,314,176
India,Assam,Guwahati,"Pan Bazaar, Guwahati - PCBA",08-03-2024 06:00:00,26.187500,91.744194,OZONE,18,18,18
India,Assam,Guwahati,"Railway Colony, Guwahati - PCBA",08-03-2024 06:00:00,26.181742,91.78063,PM10,78,310,182
India,Assam,Nagaon,"Christianpatty, Nagaon - PCBA",08-03-2024 06:00:00,26.349082,92.68449,SO2,2,46,25
India,Assam,Nagaon,"Christianpatty, Nagaon - PCBA",08-03-2024 06:00:00,26.349082,92.68449,OZONE,3,139,34
India,Assam,Nalbari,"Bata Chowk, Nalbari - PCBA",08-03-2024 06:00:00,26.446912,91.439057,PM2.5,80,345,223
India,Assam,Nalbari,"Bata Chowk, Nalbari - PCBA",08-03-2024 06:00:00,26.446912,91.439057,NH3,1,6,2
India,Assam,Silchar,"Tarapur, Silchar - PCBA",08-03-2024 06:00:00,24.82827,92.79525,NH3,1,1,1
India,Assam,Sivasagar,"Girls College, Sivasagar - PCBA",08-03-2024 06:00:00,26.987634,94.636574,OZONE,1,47,2
India,Bihar,Araria,"Kharahiya Basti, Araria - BSPCB",08-03-2024 06:00:00,26.146529,87.454184,SO2,15,16,16
India,Bihar,Araria,"Kharahiya Basti, Araria - BSPCB",08-03-2024 06:00:00,26.146529,87.454184,CO,26,28,26
India,Bihar,Araria,"Kharahiya Basti, Araria - BSPCB",08-03-2024 06:00:00,26.146529,87.454184,OZONE,9,10,9
India,Bihar,Arrah,"New DM Office, Arrah - BSPCB",08-03-2024 06:00:00,25.5626095,84.663264,PM10,65,131,92
India,Bihar,Arrah,"New DM Office, Arrah - BSPCB",08-03-2024 06:00:00,25.5626095,84.663264,NO2,5,47,18
India,Bihar,Aurangabad,"Gurdeo Nagar, Aurangabad - BSPCB",08-03-2024 06:00:00,24.75746,84.366208,SO2,1,10,4
India,Bihar,Aurangabad,"Gurdeo Nagar, Aurangabad - BSPCB",08-03-2024 06:00:00,24.75746,84.366208,CO,64,73,66
India,Bihar,Bettiah,"Kamalnath Nagar, Bettiah - BSPCB",08-03-2024 06:00:00,26.80365,84.51954,SO2,8,20,16
India,Bihar,Bhagalpur,"DM Office_Kachari Chowk, Bhagalpur - BSPCB",08-03-2024 06:00:00,25.251013,86.989001,NH3,8,9,9
India,Bihar,Bhagalpur,"DM Office_Kachari Chowk, Bhagalpur - BSPCB",08-03-2024 06:00:00,25.251013,86.989001,SO2,9,19,13
India,Bihar,Bhagalpur,"DM Office_Kachari Chowk, Bhagalpur - BSPCB",08-03-2024 06:00:00,25.251013,86.989001,CO,48,78,59
India,Bihar,Bhagalpur,"DM Office_Kachari Chowk, Bhagalpur - BSPCB",08-03-2024 06:00:00,25.251013,86.989001,OZONE,22,48,38
India,Bihar,Chhapra,"Darshan Nagar, Chhapra - BSPCB",08-03-2024 06:00:00,25.7808257,84.7446768,NH3,7,12,9
India,Bihar,Chhapra,"Darshan Nagar, Chhapra - BSPCB",08-03-2024 06:00:00,25.7808257,84.7446768,OZONE,11,42,18
India,Bihar,Gaya,"Kareemganj, Gaya - BSPCB",08-03-2024 06:00:00,24.792403,84.992416,NH3,1,5,3
India,Bihar,Gaya,"SFTI Kusdihra, Gaya - BSPCB",08-03-2024 06:00:00,24.762518,84.982348,PM10,30,63,52
India,Bihar,Hajipur,"Industrial Area, Hajipur - BSPCB",08-03-2024 06:00:00,25.697189,85.245900,NO2,40,64,51
India,Bihar,Hajipur,"Industrial Area, Hajipur - BSPCB",08-03-2024 06:00:00,25.697189,85.245900,NH3,13,17,15
India,Bihar,Hajipur,"Industrial Area, Hajipur - BSPCB",08-03-2024 06:00:00,25.697189,85.245900,OZONE,1,38,12
India,Bihar,Kishanganj,"SDM Office_Khagra, Kishanganj - BSPCB",08-03-2024 06:00:00,26.0881305,87.93840336,OZONE,12,41,12
India,Bihar,Manguraha,"Forest Rest House, Manguraha - BSPCB",08-03-2024 06:00:00,27.308328,84.531742,NO2,7,17,12
India,Bihar,Motihari,"Gandak Colony, Motihari - BSPCB",08-03-2024 06:00:00,26.63086,84.90051,PM2.5,38,97,65
India,Bihar,Motihari,"Gandak Colony, Motihari - BSPCB",08-03-2024 06:00:00,26.63086,84.90051,OZONE,47,161,76
India,Bihar,Munger,"Town Hall, Munger - BSPCB",08-03-2024 06:00:00,25.376776,86.471523,NO2,8,11,9
India,Bihar,Munger,"Town Hall, Munger - BSPCB",08-03-2024 06:00:00,25.376776,86.471523,OZONE,10,26,11
India,Bihar,Muzaffarpur,"Buddha Colony, Muzaffarpur - BSPCB",08-03-2024 06:00:00,26.11442,85.39813,PM10,115,181,141
India,Bihar,Muzaffarpur,"MIT-Daudpur Kothi, Muzaffarpur - BSPCB",08-03-2024 06:00:00,26.1403345,85.3650192,PM2.5,37,120,67
India,Bihar,Muzaffarpur,"MIT-Daudpur Kothi, Muzaffarpur - BSPCB",08-03-2024 06:00:00,26.1403345,85.3650192,NO2,5,9,7
India,Bihar,Muzaffarpur,"MIT-Daudpur Kothi, Muzaffarpur - BSPCB",08-03-2024 06:00:00,26.1403345,85.3650192,CO,22,102,60
India,Bihar,Muzaffarpur,"Muzaffarpur Collectorate, Muzaffarpur - BSPCB",08-03-2024 06:00:00,26.1209,85.3647,NO2,10,15,11
India,Bihar,Patna,"DRM Office Danapur, Patna - BSPCB",08-03-2024 06:00:00,25.586562,85.043586,OZONE,3,60,13
India,Bihar,Patna,"Govt. High School Shikarpur, Patna - BSPCB",08-03-2024 06:00:00,25.592539,85.227158,SO2,6,10,7
India,Bihar,Patna,"IGSC Planetarium Complex, Patna - BSPCB",08-03-2024 06:00:00,25.610369,85.132568,PM2.5,53,298,131
India,Bihar,Patna,"IGSC Planetarium Complex, Patna - BSPCB",08-03-2024 06:00:00,25.610369,85.132568,CO,7,18,14
India,Bihar,Patna,"Muradpur, Patna - BSPCB",08-03-2024 06:00:00,25.619651,85.147382,PM2.5,86,328,157
India,Bihar,Patna,"Muradpur, Patna - BSPCB",08-03-2024 06:00:00,25.619651,85.147382,NH3,2,4,3
India,Bihar,Patna,"Muradpur, Patna - BSPCB",08-03-2024 06:00:00,25.619651,85.147382,CO,22,97,50
India,Bihar,Patna,"Muradpur, Patna - BSPCB",08-03-2024 06:00:00,25.619651,85.147382,OZONE,16,91,30
India,Bihar,Patna,"Rajbansi Nagar, Patna - BSPCB",08-03-2024 06:00:00,25.599486,85.113666,CO,10,94,32
India,Bihar,Patna,"Samanpura, Patna - BSPCB",08-03-2024 06:00:00,25.596727,85.085624,PM2.5,42,307,168
India,Bihar,Patna,"Samanpura, Patna - BSPCB",08-03-2024 06:00:00,25.596727,85.085624,NO2,30,107,69
India,Bihar,Patna,"Samanpura, Patna - BSPCB",08-03-2024 06:00:00,25.596727,85.085624,NH3,1,7,4
India,Bihar,Purnia,"Mariam Nagar, Purnia - BSPCB",08-03-2024 06:00:00,25.366336,87.117468,NO2,12,13,13
India,Bihar,Rajgir,"Dangi Tola, Rajgir - BSPCB",08-03-2024 06:00:00,25.03280,85.41948,PM2.5,22,95,54
India,Bihar,Rajgir,"Dangi Tola, Rajgir - BSPCB",08-03-2024 06:00:00,25.03280,85.41948,SO2,3,4,4
India,Bihar,Saharsa,"Police Line, Saharsa - BSPCB",08-03-2024 06:00:00,25.892357,86.590325,NO2,6,8,7
India,Bihar,Saharsa,"Police Line, Saharsa - BSPCB",08-03-2024 06:00:00,25.892357,86.590325,OZONE,14,59,21
India,Bihar,Samastipur,"DM Office_Kasipur, Samastipur - BSPCB",08-03-2024 06:00:00,25.859655,85.77944,CO,NA,NA,NA
India,Bihar,Sasaram,"Dada Peer, Sasaram - BSPCB",08-03-2024 06:00:00,24.952822,84.002396,PM10,27,110,62
India,Bihar,Sasaram,"Dada Peer, Sasaram - BSPCB",08-03-2024 06:00:00,24.952822,84.002396,OZONE,32,96,42
India,Bihar,Siwan,"Chitragupta Nagar, Siwan - BSPCB",08-03-2024 06:00:00,26.2271665,84.3570427,PM2.5,42,200,111
India,Bihar,Siwan,"Chitragupta Nagar, Siwan - BSPCB",08-03-2024 06:00:00,26.2271665,84.3570427,NO2,12,68,24
India,Chandigarh,Chandigarh,"Sector-53, Chandigarh - CPCC",08-03-2024 06:00:00,30.719859,76.738637,NO2,22,69,41
India,Chandigarh,Chandigarh,"Sector-53, Chandigarh - CPCC",08-03-2024 06:00:00,30.719859,76.738637,OZONE,16,64,34
India,Chhattisgarh,Bhilai,"32Bungalows, Bhilai - CECB",08-03-2024 06:00:00,21.194815,81.314770,PM10,33,80,58
India,Chhattisgarh,Bhilai,"32Bungalows, Bhilai - CECB",08-03-2024 06:00:00,21.194815,81.314770,NO2,24,37,33
India,Chhattisgarh,Bhilai,"Civic Center, Bhilai - Bhilai Steel Plant",08-03-2024 06:00:00,21.185571,81.343175,PM2.5,NA,NA,NA
India,Chhattisgarh,Bhilai,"Hathkhoj, Bhilai - CECB",08-03-2024 06:00:00,21.224231,81.408350,PM10,53,103,86
India,Chhattisgarh,Bhilai,"Hathkhoj, Bhilai - CECB",08-03-2024 06:00:00,21.224231,81.408350,OZONE,35,47,38
India,Chhattisgarh,Chhal,"Nawapara SECL Colony, Chhal - CECB",08-03-2024 06:00:00,22.118125,83.140608,PM2.5,37,103,66
India,Chhattisgarh,Korba,"Rampur, Korba - CECB",08-03-2024 06:00:00,22.368195,82.746431,PM10,20,65,37
India,Chhattisgarh,Korba,"Rampur, Korba - CECB",08-03-2024 06:00:00,22.368195,82.746431,SO2,8,25,12
India,Chhattisgarh,Korba,"Rampur, Korba - CECB",08-03-2024 06:00:00,22.368195,82.746431,CO,11,24,20
India,Chhattisgarh,Korba,"Rampur, Korba - CECB",08-03-2024 06:00:00,22.368195,82.746431,OZONE,2,41,3
India,Chhattisgarh,Milupara,"Govt. Higher Secondary School, Milupara - CECB",08-03-2024 06:00:00,22.1910172,83.5197009,OZONE,3,56,10
India,Chhattisgarh,Raipur,"AIIMS, Raipur - CECB",08-03-2024 06:00:00,21.258815,81.578979,PM10,53,161,95
India,Chhattisgarh,Raipur,"Bhatagaon New ISBT, Raipur - CECB",08-03-2024 06:00:00,21.219665,81.630094,NH3,3,3,3
India,Chhattisgarh,Raipur,"Bhatagaon New ISBT, Raipur - CECB",08-03-2024 06:00:00,21.219665,81.630094,CO,22,67,49
India,Chhattisgarh,Raipur,"Siltara Phase-II, Raipur - CECB",08-03-2024 06:00:00,21.371751,81.664929,PM2.5,33,76,52
India,Chhattisgarh,Raipur,"Siltara Phase-II, Raipur - CECB",08-03-2024 06:00:00,21.371751,81.664929,PM10,45,162,81
India,Chhattisgarh,Tumidih,"OP Jindal Industrial Park, Tumidih - CECB",08-03-2024 06:00:00,22.06631475,83.33820077,PM10,18,111,57
India,Chhattisgarh,Tumidih,"OP Jindal Industrial Park, Tumidih - CECB",08-03-2024 06:00:00,22.06631475,83.33820077,NH3,2,3,2
India,Delhi,Delhi,"Alipur, Delhi - DPCC",08-03-2024 06:00:00,28.815329,77.153010,NO2,16,80,45
India,Delhi,Delhi,"Anand Vihar, Delhi - DPCC",08-03-2024 06:00:00,28.647622,77.3158090,PM2.5,80,322,185
India,Delhi,Delhi,"Anand Vihar, Delhi - DPCC",08-03-2024 06:00:00,28.647622,77.3158090,SO2,20,34,29
India,Delhi,Delhi,"Anand Vihar, Delhi - DPCC",08-03-2024 06:00:00,28.647622,77.3158090,CO,53,102,71
India,Delhi,Delhi,"Ashok Vihar, Delhi - DPCC",08-03-2024 06:00:00,28.695381,77.181665,PM2.5,43,303,115
India,Delhi,Delhi,"Ashok Vihar, Delhi - DPCC",08-03-2024 06:00:00,28.695381,77.181665,PM10,110,222,150
India,Delhi,Delhi,"Ashok Vihar, Delhi - DPCC",08-03-2024 06:00:00,28.695381,77.181665,NO2,15,98,50
India,Delhi,Delhi,"Aya Nagar, Delhi - IMD",08-03-2024 06:00:00,28.4706914,77.1099364,PM2.5,51,278,161
India,Delhi,Delhi,"Aya Nagar, Delhi - IMD",08-03-2024 06:00:00,28.4706914,77.1099364,NO2,24,36,30
India,Delhi,Delhi,"Bawana, Delhi - DPCC",08-03-2024 06:00:00,28.776200,77.051074,PM10,98,349,169
India,Delhi,Delhi,"Bawana, Delhi - DPCC",08-03-2024 06:00:00,28.776200,77.051074,NO2,13,76,34
India,Delhi,Delhi,"Bawana, Delhi - DPCC",08-03-2024 06:00:00,28.776200,77.051074,CO,16,60,30
India,Delhi,Delhi,"Burari Crossing, Delhi - IMD",08-03-2024 06:00:00,28.7256504,77.2011573,OZONE,3,42,9
India,Delhi,Delhi,"CRRI Mathura Road, Delhi - IMD",08-03-2024 06:00:00,28.5512005,77.2735737,PM10,78,210,120
India,Delhi,Delhi,"Chandni Chowk, Delhi - IITM",08-03-2024 06:00:00,28.656756,77.227234,PM10,81,194,113
India,Delhi,Delhi,"Chandni Chowk, Delhi - IITM",08-03-2024 06:00:00,28.656756,77.227234,SO2,1,49,21
India,Delhi,Delhi,"Dr. Karni Singh Shooting Range, Delhi - DPCC",08-03-2024 06:00:00,28.498571,77.264840,PM10,88,195,138
India,Delhi,Delhi,"Dr. Karni Singh Shooting Range, Delhi - DPCC",08-03-2024 06:00:00,28.498571,77.264840,NO2,36,152,94
India,Delhi,Delhi,"Dr. Karni Singh Shooting Range, Delhi - DPCC",08-03-2024 06:00:00,28.498571,77.264840,CO,26,105,69
India,Delhi,Delhi,"Dwarka-Sector 8, Delhi - DPCC ",08-03-2024 06:00:00,28.5710274,77.0719006,SO2,2,16,8
India,Delhi,Delhi,"IHBAS, Dilshad Garden, Delhi - CPCB",08-03-2024 06:00:00,28.6811736,77.3025234,PM10,98,147,123
India,Delhi,Delhi,"IHBAS, Dilshad Garden, Delhi - CPCB",08-03-2024 06:00:00,28.6811736,77.3025234,CO,12,94,76
India,Delhi,Delhi,"Jawaharlal Nehru Stadium, Delhi - DPCC",08-03-2024 06:00:00,28.580280,77.233829,CO,26,95,71
India,Delhi,Delhi,"Lodhi Road, Delhi - IMD",08-03-2024 06:00:00,28.5918245,77.2273074,PM2.5,40,211,114
India,Delhi,Delhi,"Lodhi Road, Delhi - IMD",08-03-2024 06:00:00,28.5918245,77.2273074,PM10,69,134,106
India,Delhi,Delhi,"Lodhi Road, Delhi - IMD",08-03-2024 06:00:00,28.5918245,77.2273074,OZONE,5,87,7
India,Delhi,Delhi,"Major Dhyan Chand National Stadium, Delhi - DPCC",08-03-2024 06:00:00,28.611281,77.237738,PM10,58,167,115
India,Delhi,Delhi,"Major Dhyan Chand National Stadium, Delhi - DPCC",08-03-2024 06:00:00,28.611281,77.237738,OZONE,2,165,16
India,Delhi,Delhi,"Mandir Marg, Delhi - DPCC",08-03-2024 06:00:00,28.636429,77.201067,SO2,6,14,8
India,Delhi,Delhi,"Mandir Marg, Delhi - DPCC",08-03-2024 06:00:00,28.636429,77.201067,OZONE,10,10,10
India,Delhi,Delhi,"Mundka, Delhi - DPCC",08-03-2024 06:00:00,28.684678,77.076574,PM10,115,500,243
India,Delhi,Delhi,"Mundka, Delhi - DPCC",08-03-2024 06:00:00,28.684678,77.076574,NH3,4,8,6
India,Delhi,Delhi,"Mundka, Delhi - DPCC",08-03-2024 06:00:00,28.684678,77.076574,SO2,9,58,24
India,Delhi,Delhi,"NSIT Dwarka, Delhi - CPCB",08-03-2024 06:00:00,28.60909,77.0325413,NO2,41,68,54
India,Delhi,Delhi,"Najafgarh, Delhi - DPCC",08-03-2024 06:00:00,28.570173,76.933762,NH3,11,13,12
India,Delhi,Delhi,"Narela, Delhi - DPCC",08-03-2024 06:00:00,28.822836,77.101981,SO2,8,60,18
India,Delhi,Delhi,"Nehru Nagar, Delhi - DPCC",08-03-2024 06:00:00,28.567890,77.250515,NH3,7,12,9
India,Delhi,Delhi,"Okhla Phase-2, Delhi - DPCC",08-03-2024 06:00:00,28.530785,77.271255,SO2,8,16,11
India,Delhi,Delhi,"Okhla Phase-2, Delhi - DPCC",08-03-2024 06:00:00,28.530785,77.271255,CO,20,101,78
India,Delhi,Delhi,"Punjabi Bagh, Delhi - DPCC",08-03-2024 06:00:00,28.674045,77.131023,PM10,94,215,135
India,Delhi,Delhi,"Punjabi Bagh, Delhi - DPCC",08-03-2024 06:00:00,28.674045,77.131023,NH3,2,2,2
India,Delhi,Delhi,"Punjabi Bagh, Delhi - DPCC",08-03-2024 06:00:00,28.674045,77.131023,CO,26,76,52
India,Delhi,Delhi,"Punjabi Bagh, Delhi - DPCC",08-03-2024 06:00:00,28.674045,77.131023,OZONE,6,60,9
India,Delhi,Delhi,"Pusa, Delhi - DPCC",08-03-2024 06:00:00,28.639652,77.146275,NO2,14,164,108
India,Delhi,Delhi,"R K Puram, Delhi - DPCC",08-03-2024 06:00:00,28.563262,77.186937,PM2.5,67,306,174
India,Delhi,Delhi,"R K Puram, Delhi - DPCC",08-03-2024 06:00:00,28.563262,77.186937,PM10,98,202,143
India,Delhi,Delhi,"R K Puram, Delhi - DPCC",08-03-2024 06:00:00,28.563262,77.186937,NO2,19,80,47
India,Delhi,Delhi,"R K Puram, Delhi - DPCC",08-03-2024 06:00:00,28.563262,77.186937,NH3,3,4,3
India,Delhi,Delhi,"R K Puram, Delhi - DPCC",08-03-2024 06:00:00,28.563262,77.186937,CO,20,108,79
India,Delhi,Delhi,"Rohini, Delhi - DPCC",08-03-2024 06:00:00,28.732528,77.119920,PM10,82,264,161
India,Delhi,Delhi,"Sirifort, Delhi - CPCB",08-03-2024 06:00:00,28.5504249,77.2159377,PM10,84,188,135
India,Delhi,Delhi,"Sonia Vihar, Delhi - DPCC",08-03-2024 06:00:00,28.710508,77.249485,CO,47,86,65
India,Delhi,Delhi,"Sri Aurobindo Marg, Delhi - DPCC",08-03-2024 06:00:00,28.531346,77.190156,NH3,5,8,6
India,Gujarat,Ahmedabad,"Chandkheda, Ahmedabad - IITM",08-03-2024 06:00:00,23.107969,72.574648,NO2,58,78,68
India,Gujarat,Ahmedabad,"Gyaspur, Ahmedabad - IITM",08-03-2024 06:00:00,22.977134,72.553024,PM10,66,247,132
India,Gujarat,Ahmedabad,"Gyaspur, Ahmedabad - IITM",08-03-2024 06:00:00,22.977134,72.553024,NH3,4,4,4
India,Gujarat,Ahmedabad,"Maninagar, Ahmedabad - GPCB",08-03-2024 06:00:00,23.002657,72.591912,SO2,6,121,47
India,Gujarat,Ahmedabad,"Raikhad, Ahmedabad - IITM",08-03-2024 06:00:00,23.020509,72.579261,PM2.5,26,78,56
India,Gujarat,Ahmedabad,"Raikhad, Ahmedabad - IITM",08-03-2024 06:00:00,23.020509,72.579261,NO2,48,164,91
India,Gujarat,Ahmedabad,"Raikhad, Ahmedabad - IITM",08-03-2024 06:00:00,23.020509,72.579261,NH3,1,2,1
India,Gujarat,Ahmedabad,"Raikhad, Ahmedabad - IITM",08-03-2024 06:00:00,23.020509,72.579261,CO,18,102,88
India,Gujarat,Ahmedabad,"Raikhad, Ahmedabad - IITM",08-03-2024 06:00:00,23.020509,72.579261,OZONE,3,45,4
India,Gujarat,Ahmedabad,"Rakhial, Ahmedabad - IITM",08-03-2024 06:00:00,23.016834,72.625775,PM10,52,500,192
India,Gujarat,Ahmedabad,"SAC ISRO Bopal, Ahmedabad - IITM",08-03-2024 06:00:00,23.041137,72.456691,NH3,NA,NA,NA
India,Gujarat,Ahmedabad,"SAC ISRO Satellite, Ahmedabad - IITM",08-03-2024 06:00:00,23.023389,72.515201,PM10,NA,NA,NA
India,Gujarat,Ahmedabad,"SAC ISRO Satellite, Ahmedabad - IITM",08-03-2024 06:00:00,23.023389,72.515201,NH3,NA,NA,NA
India,Gujarat,Ahmedabad,"SVPI Airport Hansol, Ahmedabad - IITM",08-03-2024 06:00:00,23.076793,72.627874,PM2.5,50,300,198
India,Gujarat,Ahmedabad,"SVPI Airport Hansol, Ahmedabad - IITM",08-03-2024 06:00:00,23.076793,72.627874,SO2,7,8,7
India,Gujarat,Ahmedabad,"Sardar Vallabhbhai Patel Stadium, Ahmedabad - IITM",08-03-2024 06:00:00,23.043070,72.562968,NO2,12,14,13
India,Gujarat,Ankleshwar,"GIDC, Ankleshwar - GPCB",08-03-2024 06:00:00,21.613267,73.010555,SO2,7,69,28
India,Gujarat,Gandhinagar,"IIPHG Lekawada, Gandhinagar - IITM",08-03-2024 06:00:00,23.243639,72.68994,CO,22,36,22
India,Gujarat,Gandhinagar,"Sector-10, Gandhinagar - GPCB",08-03-2024 06:00:00,23.221714,72.654328,NO2,8,25,16
India,Gujarat,Nandesari,"GIDC, Nandesari - Nandesari Ind. Association",08-03-2024 06:00:00,22.410802,73.097923,PM2.5,46,335,173
India,Gujarat,Vapi,"Phase-1 GIDC, Vapi - GPCB",08-03-2024 06:00:00,20.362421,72.918013,NO2,29,39,33
India,Gujarat,Vapi,"Phase-1 GIDC, Vapi - GPCB",08-03-2024 06:00:00,20.362421,72.918013,NH3,8,11,10
India,Gujarat,Vapi,"Phase-1 GIDC, Vapi - GPCB",08-03-2024 06:00:00,20.362421,72.918013,CO,NA,NA,NA
India,Gujarat,Vatva,"Phase-4 GIDC, Vatva - GPCB",08-03-2024 06:00:00,22.969611,72.643500,PM10,58,194,99
India,Haryana,Ballabgarh,"Nathu Colony, Ballabgarh - HSPCB",08-03-2024 06:00:00,28.3419248,77.319699,NH3,1,2,2
India,Haryana,Ballabgarh,"Nathu Colony, Ballabgarh - HSPCB",08-03-2024 06:00:00,28.3419248,77.319699,SO2,2,22,11
India,Haryana,Ballabgarh,"Nathu Colony, Ballabgarh - HSPCB",08-03-2024 06:00:00,28.3419248,77.319699,CO,6,115,32
India,Haryana,Bhiwani,"H.B. Colony, Bhiwani - HSPCB",08-03-2024 06:00:00,28.806223,76.141105,PM10,31,153,73
India,Haryana,Bhiwani,"H.B. Colony, Bhiwani - HSPCB",08-03-2024 06:00:00,28.806223,76.141105,OZONE,3,17,6
India,Haryana,Charkhi Dadri,"Mini Secretariat, Charkhi Dadri - HSPCB",08-03-2024 06:00:00,28.593883,76.270653,PM2.5,59,273,119
India,Haryana,Faridabad,"Sector 11, Faridabad - HSPCB",08-03-2024 06:00:00,28.376058,77.315741,NO2,30,33,32
India,Haryana,Fatehabad,"Huda Sector, Fatehabad - HSPCB",08-03-2024 06:00:00,29.503664,75.467934,NO2,37,39,38
India,Haryana,Gurugram,"Teri Gram, Gurugram - HSPCB",08-03-2024 06:00:00,28.4275,77.1465,CO,18,45,30
India,Haryana,Gurugram,"Teri Gram, Gurugram - HSPCB",08-03-2024 06:00:00,28.4275,77.1465,OZONE,10,33,29
India,Haryana,Hisar,"Urban Estate-II, Hisar - HSPCB",08-03-2024 06:00:00,29.140560,75.744941,PM2.5,32,322,105
India,Haryana,Jind,"Police Lines, Jind - HSPCB",08-03-2024 06:00:00,29.307814,76.337619,PM2.5,35,135,62
India,Haryana,Jind,"Police Lines, Jind - HSPCB",08-03-2024 06:00:00,29.307814,76.337619,PM10,58,109,75
India,Haryana,Jind,"Police Lines, Jind - HSPCB",08-03-2024 06:00:00,29.307814,76.337619,CO,5,92,33
India,Haryana,Kaithal,"Rishi Nagar, Kaithal - HSPCB",08-03-2024 06:00:00,29.8006,76.4155,PM10,55,105,76
India,Haryana,Kaithal,"Rishi Nagar, Kaithal - HSPCB",08-03-2024 06:00:00,29.8006,76.4155,SO2,16,72,31
India,Haryana,Kurukshetra,"Sector-7, Kurukshetra - HSPCB",08-03-2024 06:00:00,29.966942,76.875879,OZONE,26,71,36
India,Haryana,Mandikhera,"General Hospital, Mandikhera - HSPCB",08-03-2024 06:00:00,27.9002,76.9938,PM10,47,150,86
India,Haryana,Mandikhera,"General Hospital, Mandikhera - HSPCB",08-03-2024 06:00:00,27.9002,76.9938,NO2,17,22,19
India,Haryana,Mandikhera,"General Hospital, Mandikhera - HSPCB",08-03-2024 06:00:00,27.9002,76.9938,CO,16,50,26
India,Haryana,Mandikhera,"General Hospital, Mandikhera - HSPCB",08-03-2024 06:00:00,27.9002,76.9938,OZONE,22,31,28
India,Haryana,Panchkula,"Sector-6, Panchkula - HSPCB ",08-03-2024 06:00:00,30.7057778,76.8531805555555,SO2,11,12,12
India,Haryana,Panchkula,"Sector-6, Panchkula - HSPCB ",08-03-2024 06:00:00,30.7057778,76.8531805555555,CO,1,12,1
India,Haryana,Panipat,"Sector-18, Panipat - HSPCB",08-03-2024 06:00:00,29.497973,76.993331,PM2.5,129,136,134
India,Haryana,Panipat,"Sector-18, Panipat - HSPCB",08-03-2024 06:00:00,29.497973,76.993331,CO,24,26,25
India,Haryana,Rohtak,"MD University, Rohtak - HSPCB",08-03-2024 06:00:00,28.52123,76.37138,NO2,44,55,51
India,Haryana,Sirsa,"F-Block, Sirsa - HSPCB",08-03-2024 06:00:00,29.536400,75.015800,NH3,12,13,13
India,Haryana,Sonipat,"Murthal, Sonipat - HSPCB",08-03-2024 06:00:00,29.027200,77.062100,NH3,4,10,9
India,Himachal Pradesh,Baddi,"HIMUDA Complex Phase-1, Baddi - HPPCB",08-03-2024 06:00:00,30.943887,76.801991,PM2.5,12,345,123
India,Jharkhand,Dhanbad,"Kalakusuma, Dhanbad - DMC",08-03-2024 06:00:00,23.811548,86.481238,PM10,NA,NA,NA
India,Jharkhand,Dhanbad,"Kalakusuma, Dhanbad - DMC",08-03-2024 06:00:00,23.811548,86.481238,CO,NA,NA,NA
India,Jharkhand,Dhanbad,"Sardar Patel Nagar, Dhanbad - JSPCB",08-03-2024 06:00:00,23.80569,86.44268,PM2.5,NA,NA,NA
India,Jharkhand,Dhanbad,"Sardar Patel Nagar, Dhanbad - JSPCB",08-03-2024 06:00:00,23.80569,86.44268,SO2,NA,NA,NA
India,Jharkhand,Pathardih,"Mohalbani Ghat, Pathardih - DMC",08-03-2024 06:00:00,23.669880,86.411725,PM10,NA,NA,NA
India,Jharkhand,Pathardih,"Mohalbani Ghat, Pathardih - DMC",08-03-2024 06:00:00,23.669880,86.411725,NO2,NA,NA,NA
India,Jharkhand,Pathardih,"Mohalbani Ghat, Pathardih - DMC",08-03-2024 06:00:00,23.669880,86.411725,CO,NA,NA,NA
India,Karnataka,Belgaum,"Ramteerth Nagar, Belgaum - KSPCB",08-03-2024 06:00:00,15.888653,74.541751,NH3,33,34,34
India,Karnataka,Belgaum,"Ramteerth Nagar, Belgaum - KSPCB",08-03-2024 06:00:00,15.888653,74.541751,CO,28,62,45
India,Karnataka,Belgaum,"Ramteerth Nagar, Belgaum - KSPCB",08-03-2024 06:00:00,15.888653,74.541751,OZONE,17,20,18
India,Karnataka,Bengaluru,"Bapuji Nagar, Bengaluru - KSPCB",08-03-2024 06:00:00,12.951913,77.539784,CO,32,56,51
India,Karnataka,Bengaluru,"Jayanagar 5th Block, Bengaluru - KSPCB",08-03-2024 06:00:00,12.920984,77.584908,PM10,87,409,129
India,Karnataka,Bengaluru,"Jayanagar 5th Block, Bengaluru - KSPCB",08-03-2024 06:00:00,12.920984,77.584908,NO2,10,20,14
India,Karnataka,Bengaluru,"Jayanagar 5th Block, Bengaluru - KSPCB",08-03-2024 06:00:00,12.920984,77.584908,SO2,16,71,33
