country,state,city,station,last_update,latitude,longitude,pollutant_id,pollutant_min,pollutant_max,pollutant_avg
India,Andhra_Pradesh,Anantapur,"Gulzarpet, Anantapur - APPCB",22-06-2024 06:00:00,14.675886,77.593027,PM10,50,101,77
India,Andhra_Pradesh,Anantapur,"Gulzarpet, Anantapur - APPCB",22-06-2024 06:00:00,14.675886,77.593027,NH3,4,4,4
India,Andhra_Pradesh,Chittoor,"Gangineni Cheruvu, Chittoor - APPCB",22-06-2024 06:00:00,13.204880,79.097889,NH3,NA,NA,NA
India,Andhra_Pradesh,Chittoor,"Gangineni Cheruvu, Chittoor - APPCB",22-06-2024 06:00:00,13.204880,79.097889,SO2,NA,NA,NA
India,Andhra_Pradesh,Kadapa,"Yerramukkapalli, Kadapa - APPCB",22-06-2024 06:00:00,14.465052,78.824187,OZONE,NA,NA,NA
India,Andhra_Pradesh,Tirupati,"Vaikuntapuram, Tirupati - APPCB",22-06-2024 06:00:00,13.615387,79.409230,OZONE,7,33,17
India,Andhra_Pradesh,Vijayawada,"HB Colony, Vijayawada - APPCB",22-06-2024 06:00:00,16.536107,80.594233,NH3,4,4,4
India,Andhra_Pradesh,Vijayawada,"HB Colony, Vijayawada - APPCB",22-06-2024 06:00:00,16.536107,80.594233,SO2,3,4,4
India,Andhra_Pradesh,Vijayawada,"Kanuru, Vijayawada - APPCB",22-06-2024 06:00:00,16.486692,80.699436,CO,36,36,36
India,Andhra_Pradesh,Vijayawada,"Rajiv Gandhi Park, Vijayawada - APPCB",22-06-2024 06:00:00,16.509717,80.612222,NO2,22,55,36
India,Andhra_Pradesh,Vijayawada,"Rajiv Gandhi Park, Vijayawada - APPCB",22-06-2024 06:00:00,16.509717,80.612222,OZONE,14,45,33
India,Andhra_Pradesh,Visakhapatnam,"GVM Corporation, Visakhapatnam - APPCB",22-06-2024 06:00:00,17.72,83.3,PM2.5,24,69,47
India,Arunachal_Pradesh,Naharlagun,"Naharlagun, Naharlagun - APSPCB",22-06-2024 06:00:00,27.103358,93.679645,PM10,NA,NA,NA
India,Arunachal_Pradesh,Naharlagun,"Naharlagun, Naharlagun - APSPCB",22-06-2024 06:00:00,27.103358,93.679645,CO,NA,NA,NA
India,Assam,Byrnihat,"Central Academy for SFS, Byrnihat - PCBA",22-06-2024 06:00:00,26.071318,91.87488,OZONE,23,134,23
India,Assam,Guwahati,"IITG, Guwahati - PCBA",22-06-2024 06:00:00,26.2028636,91.70046436,PM2.5,NA,NA,NA
India,Assam,Guwahati,"IITG, Guwahati - PCBA",22-06-2024 06:00:00,26.2028636,91.70046436,PM10,17,79,40
India,Assam,Guwahati,"IITG, Guwahati - PCBA",22-06-2024 06:00:00,26.2028636,91.70046436,NH3,5,5,5
India,Assam,Guwahati,"Pan Bazaar, Guwahati - PCBA",22-06-2024 06:00:00,26.187500,91.744194,PM2.5,NA,NA,NA
India,Assam,Guwahati,"Pan Bazaar, Guwahati - PCBA",22-06-2024 06:00:00,26.187500,91.744194,NO2,NA,NA,NA
India,Assam,Guwahati,"Railway Colony, Guwahati - PCBA",22-06-2024 06:00:00,26.181742,91.78063,CO,20,66,43
India,Assam,Nagaon,"Christianpatty, Nagaon - PCBA",22-06-2024 06:00:00,26.349082,92.68449,OZONE,6,41,9
India,Assam,Nalbari,"Bata Chowk, Nalbari - PCBA",22-06-2024 06:00:00,26.446912,91.439057,PM10,40,101,60
India,Assam,Silchar,"Tarapur, Silchar - PCBA",22-06-2024 06:00:00,24.82827,92.79525,CO,24,37,29
India,Assam,Silchar,"Tarapur, Silchar - PCBA",22-06-2024 06:00:00,24.82827,92.79525,OZONE,NA,NA,NA
India,Assam,Sivasagar,"Girls College, Sivasagar - PCBA",22-06-2024 06:00:00,26.987634,94.636574,NO2,7,17,10
India,Bihar,Araria,"Kharahiya Basti, Araria - BSPCB",22-06-2024 06:00:00,26.146529,87.454184,PM10,30,404,85
India,Bihar,Arrah,"New DM Office, Arrah - BSPCB",22-06-2024 06:00:00,25.5626095,84.663264,NO2,10,14,12
India,Bihar,Arrah,"New DM Office, Arrah - BSPCB",22-06-2024 06:00:00,25.5626095,84.663264,SO2,6,10,9
India,Bihar,Aurangabad,"Gurdeo Nagar, Aurangabad - BSPCB",22-06-2024 06:00:00,24.75746,84.366208,PM10,NA,NA,NA
India,Bihar,Aurangabad,"Gurdeo Nagar, Aurangabad - BSPCB",22-06-2024 06:00:00,24.75746,84.366208,NH3,NA,NA,NA
India,Bihar,Aurangabad,"Gurdeo Nagar, Aurangabad - BSPCB",22-06-2024 06:00:00,24.75746,84.366208,OZONE,3,85,16
India,Bihar,Bettiah,"Kamalnath Nagar, Bettiah - BSPCB",22-06-2024 06:00:00,26.80365,84.51954,PM10,46,158,112
India,Bihar,Bettiah,"Kamalnath Nagar, Bettiah - BSPCB",22-06-2024 06:00:00,26.80365,84.51954,NO2,25,32,28
India,Bihar,Bettiah,"Kamalnath Nagar, Bettiah - BSPCB",22-06-2024 06:00:00,26.80365,84.51954,OZONE,1,7,2
India,Bihar,Bhagalpur,"DM Office_Kachari Chowk, Bhagalpur - BSPCB",22-06-2024 06:00:00,25.251013,86.989001,PM10,42,138,103
India,Bihar,Bhagalpur,"DM Office_Kachari Chowk, Bhagalpur - BSPCB",22-06-2024 06:00:00,25.251013,86.989001,NO2,23,41,30
India,Bihar,Bihar Sharif,"D M Colony, Bihar Sharif - BSPCB",22-06-2024 06:00:00,25.204762,85.514960,SO2,3,4,3
India,Bihar,Bihar Sharif,"D M Colony, Bihar Sharif - BSPCB",22-06-2024 06:00:00,25.204762,85.514960,CO,26,30,29
India,Bihar,Chhapra,"Darshan Nagar, Chhapra - BSPCB",22-06-2024 06:00:00,25.7808257,84.7446768,NH3,6,14,9
India,Bihar,Gaya,"Collectorate, Gaya - BSPCB",22-06-2024 06:00:00,24.7955,84.9994,PM2.5,18,317,96
India,Bihar,Hajipur,"Industrial Area, Hajipur - BSPCB",22-06-2024 06:00:00,25.697189,85.245900,PM10,48,101,79
India,Bihar,Hajipur,"Industrial Area, Hajipur - BSPCB",22-06-2024 06:00:00,25.697189,85.245900,NO2,9,36,19
India,Bihar,Hajipur,"Industrial Area, Hajipur - BSPCB",22-06-2024 06:00:00,25.697189,85.245900,CO,18,27,26
India,Bihar,Katihar,"Mirchaibari, Katihar - BSPCB",22-06-2024 06:00:00,25.560083,87.553265,PM2.5,17,113,53
India,Bihar,Kishanganj,"SDM Office_Khagra, Kishanganj - BSPCB",22-06-2024 06:00:00,26.0881305,87.93840336,CO,4,9,8
India,Bihar,Manguraha,"Forest Rest House, Manguraha - BSPCB",22-06-2024 06:00:00,27.308328,84.531742,PM10,11,39,24
India,Bihar,Manguraha,"Forest Rest House, Manguraha - BSPCB",22-06-2024 06:00:00,27.308328,84.531742,NH3,1,3,2
India,Bihar,Manguraha,"Forest Rest House, Manguraha - BSPCB",22-06-2024 06:00:00,27.308328,84.531742,OZONE,4,53,7
India,Bihar,Muzaffarpur,"Buddha Colony, Muzaffarpur - BSPCB",22-06-2024 06:00:00,26.11442,85.39813,OZONE,33,111,41
India,Bihar,Muzaffarpur,"MIT-Daudpur Kothi, Muzaffarpur - BSPCB",22-06-2024 06:00:00,26.1403345,85.3650192,NH3,12,13,12
India,Bihar,Muzaffarpur,"MIT-Daudpur Kothi, Muzaffarpur - BSPCB",22-06-2024 06:00:00,26.1403345,85.3650192,OZONE,9,42,13
India,Bihar,Muzaffarpur,"Muzaffarpur Collectorate, Muzaffarpur - BSPCB",22-06-2024 06:00:00,26.1209,85.3647,PM2.5,13,143,45
India,Bihar,Muzaffarpur,"Muzaffarpur Collectorate, Muzaffarpur - BSPCB",22-06-2024 06:00:00,26.1209,85.3647,SO2,8,14,11
India,Bihar,Patna,"Govt. High School Shikarpur, Patna - BSPCB",22-06-2024 06:00:00,25.592539,85.227158,SO2,8,10,9
India,Bihar,Patna,"IGSC Planetarium Complex, Patna - BSPCB",22-06-2024 06:00:00,25.610369,85.132568,NO2,12,12,12
India,Bihar,Patna,"IGSC Planetarium Complex, Patna - BSPCB",22-06-2024 06:00:00,25.610369,85.132568,SO2,6,8,7
India,Bihar,Patna,"Muradpur, Patna - BSPCB",22-06-2024 06:00:00,25.619651,85.147382,NH3,1,22,9
India,Bihar,Patna,"Muradpur, Patna - BSPCB",22-06-2024 06:00:00,25.619651,85.147382,SO2,2,10,6
India,Bihar,Patna,"Muradpur, Patna - BSPCB",22-06-2024 06:00:00,25.619651,85.147382,OZONE,5,62,6
India,Bihar,Patna,"Rajbansi Nagar, Patna - BSPCB",22-06-2024 06:00:00,25.599486,85.113666,PM2.5,54,85,69
India,Bihar,Patna,"Rajbansi Nagar, Patna - BSPCB",22-06-2024 06:00:00,25.599486,85.113666,NO2,8,42,16
India,Bihar,Purnia,"Mariam Nagar, Purnia - BSPCB",22-06-2024 06:00:00,25.366336,87.117468,SO2,6,15,10
India,Bihar,Rajgir,"Dangi Tola, Rajgir - BSPCB",22-06-2024 06:00:00,25.03280,85.41948,PM10,NA,NA,NA
India,Bihar,Rajgir,"Dangi Tola, Rajgir - BSPCB",22-06-2024 06:00:00,25.03280,85.41948,NO2,14,15,15
India,Bihar,Saharsa,"Police Line, Saharsa - BSPCB",22-06-2024 06:00:00,25.892357,86.590325,SO2,15,17,16
India,Bihar,Saharsa,"Police Line, Saharsa - BSPCB",22-06-2024 06:00:00,25.892357,86.590325,CO,48,55,54
India,Bihar,Samastipur,"DM Office_Kasipur, Samastipur - BSPCB",22-06-2024 06:00:00,25.859655,85.77944,CO,102,113,105
India,Bihar,Sasaram,"Dada Peer, Sasaram - BSPCB",22-06-2024 06:00:00,24.952822,84.002396,NH3,3,23,9
India,Bihar,Sasaram,"Dada Peer, Sasaram - BSPCB",22-06-2024 06:00:00,24.952822,84.002396,CO,20,82,60
India,Bihar,Siwan,"Chitragupta Nagar, Siwan - BSPCB",22-06-2024 06:00:00,26.2271665,84.3570427,PM10,NA,NA,NA
India,Bihar,Siwan,"Chitragupta Nagar, Siwan - BSPCB",22-06-2024 06:00:00,26.2271665,84.3570427,NH3,2,9,4
India,Bihar,Siwan,"Chitragupta Nagar, Siwan - BSPCB",22-06-2024 06:00:00,26.2271665,84.3570427,OZONE,1,83,34
India,Chandigarh,Chandigarh,"Sector 22, Chandigarh - CPCC",22-06-2024 06:00:00,30.735567,76.775714,NH3,7,12,9
India,Chandigarh,Chandigarh,"Sector-25, Chandigarh - CPCC",22-06-2024 06:00:00,30.751462,76.762879,CO,16,24,23
India,Chandigarh,Chandigarh,"Sector-53, Chandigarh - CPCC",22-06-2024 06:00:00,30.719859,76.738637,PM10,82,169,132
India,Chandigarh,Chandigarh,"Sector-53, Chandigarh - CPCC",22-06-2024 06:00:00,30.719859,76.738637,SO2,4,17,8
India,Chandigarh,Chandigarh,"Sector-53, Chandigarh - CPCC",22-06-2024 06:00:00,30.719859,76.738637,CO,43,63,52
India,Chhattisgarh,Bhilai,"32Bungalows, Bhilai - CECB",22-06-2024 06:00:00,21.194815,81.314770,NO2,5,12,7
India,Chhattisgarh,Bhilai,"32Bungalows, Bhilai - CECB",22-06-2024 06:00:00,21.194815,81.314770,CO,11,14,12
India,Chhattisgarh,Bhilai,"32Bungalows, Bhilai - CECB",22-06-2024 06:00:00,21.194815,81.314770,OZONE,7,46,8
India,Chhattisgarh,Bhilai,"Civic Center, Bhilai - Bhilai Steel Plant",22-06-2024 06:00:00,21.185571,81.343175,PM10,10,26,18
India,Chhattisgarh,Bhilai,"Hathkhoj, Bhilai - CECB",22-06-2024 06:00:00,21.224231,81.408350,CO,4,55,21
India,Chhattisgarh,Bilaspur,"Mangala, Bilaspur - NTPC",22-06-2024 06:00:00,22.08815,82.13737,PM2.5,11,40,21
India,Chhattisgarh,Chhal,"Nawapara SECL Colony, Chhal - CECB",22-06-2024 06:00:00,22.118125,83.140608,NO2,NA,NA,NA
India,Chhattisgarh,Korba,"Urja Nagar, Korba - CECB",22-06-2024 06:00:00,22.348441,82.549611,OZONE,NA,NA,NA
India,Chhattisgarh,Milupara,"Govt. Higher Secondary School, Milupara - CECB",22-06-2024 06:00:00,22.1910172,83.5197009,CO,5,41,11
India,Chhattisgarh,Milupara,"Govt. Higher Secondary School, Milupara - CECB",22-06-2024 06:00:00,22.1910172,83.5197009,OZONE,31,46,39
India,Chhattisgarh,Raipur,"AIIMS, Raipur - CECB",22-06-2024 06:00:00,21.258815,81.578979,PM2.5,2,35,14
India,Chhattisgarh,Tumidih,"OP Jindal Industrial Park, Tumidih - CECB",22-06-2024 06:00:00,22.06631475,83.33820077,SO2,5,7,6
India,Chhattisgarh,Tumidih,"OP Jindal Industrial Park, Tumidih - CECB",22-06-2024 06:00:00,22.06631475,83.33820077,CO,15,100,16
India,Delhi,Delhi,"Alipur, Delhi - DPCC",22-06-2024 06:00:00,28.815329,77.153010,NH3,4,7,5
India,Delhi,Delhi,"Anand Vihar, Delhi - DPCC",22-06-2024 06:00:00,28.647622,77.3158090,PM10,105,445,228
India,Delhi,Delhi,"Ashok Vihar, Delhi - DPCC",22-06-2024 06:00:00,28.695381,77.181665,NO2,26,101,61
India,Delhi,Delhi,"Ashok Vihar, Delhi - DPCC",22-06-2024 06:00:00,28.695381,77.181665,NH3,3,9,7
India,Delhi,Delhi,"Ashok Vihar, Delhi - DPCC",22-06-2024 06:00:00,28.695381,77.181665,OZONE,12,142,62
India,Delhi,Delhi,"Aya Nagar, Delhi - IMD",22-06-2024 06:00:00,28.4706914,77.1099364,PM2.5,26,377,151
India,Delhi,Delhi,"Bawana, Delhi - DPCC",22-06-2024 06:00:00,28.776200,77.051074,PM2.5,65,490,164
India,Delhi,Delhi,"Bawana, Delhi - DPCC",22-06-2024 06:00:00,28.776200,77.051074,PM10,78,455,202
India,Delhi,Delhi,"Bawana, Delhi - DPCC",22-06-2024 06:00:00,28.776200,77.051074,NO2,8,62,32
India,Delhi,Delhi,"Burari Crossing, Delhi - IMD",22-06-2024 06:00:00,28.7256504,77.2011573,CO,32,78,66
India,Delhi,Delhi,"CRRI Mathura Road, Delhi - IMD",22-06-2024 06:00:00,28.5512005,77.2735737,PM2.5,40,150,103
India,Delhi,Delhi,"Chandni Chowk, Delhi - IITM",22-06-2024 06:00:00,28.656756,77.227234,OZONE,NA,NA,NA
India,Delhi,Delhi,"DTU, Delhi - CPCB",22-06-2024 06:00:00,28.7500499,77.1112615,PM2.5,65,329,175
India,Delhi,Delhi,"DTU, Delhi - CPCB",22-06-2024 06:00:00,28.7500499,77.1112615,NO2,60,73,67
India,Delhi,Delhi,"DTU, Delhi - CPCB",22-06-2024 06:00:00,28.7500499,77.1112615,NH3,15,20,18
India,Delhi,Delhi,"Dr. Karni Singh Shooting Range, Delhi - DPCC",22-06-2024 06:00:00,28.498571,77.264840,PM10,88,336,156
India,Delhi,Delhi,"Dr. Karni Singh Shooting Range, Delhi - DPCC",22-06-2024 06:00:00,28.498571,77.264840,NH3,5,11,7
India,Delhi,Delhi,"Dr. Karni Singh Shooting Range, Delhi - DPCC",22-06-2024 06:00:00,28.498571,77.264840,OZONE,6,250,9
India,Delhi,Delhi,"Dwarka-Sector 8, Delhi - DPCC ",22-06-2024 06:00:00,28.5710274,77.0719006,OZONE,5,117,8
India,Delhi,Delhi,"IGI Airport (T3), Delhi - IMD",22-06-2024 06:00:00,28.5627763,77.1180053,NO2,24,70,44
India,Delhi,Delhi,"IHBAS, Dilshad Garden, Delhi - CPCB",22-06-2024 06:00:00,28.6811736,77.3025234,PM10,NA,NA,NA
India,Delhi,Delhi,"IHBAS, Dilshad Garden, Delhi - CPCB",22-06-2024 06:00:00,28.6811736,77.3025234,NH3,NA,NA,NA
India,Delhi,Delhi,"IHBAS, Dilshad Garden, Delhi - CPCB",22-06-2024 06:00:00,28.6811736,77.3025234,OZONE,NA,NA,NA
India,Delhi,Delhi,"ITO, Delhi - CPCB",22-06-2024 06:00:00,28.628624,77.241060,PM10,52,155,100
India,Delhi,Delhi,"ITO, Delhi - CPCB",22-06-2024 06:00:00,28.628624,77.241060,NO2,10,78,42
India,Delhi,Delhi,"ITO, Delhi - CPCB",22-06-2024 06:00:00,28.628624,77.241060,OZONE,32,62,40
India,Delhi,Delhi,"Jawaharlal Nehru Stadium, Delhi - DPCC",22-06-2024 06:00:00,28.580280,77.233829,NH3,5,8,7
India,Delhi,Delhi,"Jawaharlal Nehru Stadium, Delhi - DPCC",22-06-2024 06:00:00,28.580280,77.233829,SO2,12,25,17
India,Delhi,Delhi,"Lodhi Road, Delhi - IMD",22-06-2024 06:00:00,28.5918245,77.2273074,PM2.5,58,175,95
India,Delhi,Delhi,"Major Dhyan Chand National Stadium, Delhi - DPCC",22-06-2024 06:00:00,28.611281,77.237738,OZONE,1,92,4
India,Delhi,Delhi,"Mandir Marg, Delhi - DPCC",22-06-2024 06:00:00,28.636429,77.201067,CO,34,95,84
India,Delhi,Delhi,"Mundka, Delhi - DPCC",22-06-2024 06:00:00,28.684678,77.076574,CO,36,102,82
India,Delhi,Delhi,"NSIT Dwarka, Delhi - CPCB",22-06-2024 06:00:00,28.60909,77.0325413,OZONE,7,22,12
India,Delhi,Delhi,"Najafgarh, Delhi - DPCC",22-06-2024 06:00:00,28.570173,76.933762,NO2,8,30,21
India,Delhi,Delhi,"Najafgarh, Delhi - DPCC",22-06-2024 06:00:00,28.570173,76.933762,OZONE,9,74,21
India,Delhi,Delhi,"Narela, Delhi - DPCC",22-06-2024 06:00:00,28.822836,77.101981,CO,36,78,63
India,Delhi,Delhi,"Narela, Delhi - DPCC",22-06-2024 06:00:00,28.822836,77.101981,OZONE,68,177,88
India,Delhi,Delhi,"Nehru Nagar, Delhi - DPCC",22-06-2024 06:00:00,28.567890,77.250515,NH3,2,3,3
India,Delhi,Delhi,"Nehru Nagar, Delhi - DPCC",22-06-2024 06:00:00,28.567890,77.250515,SO2,3,11,7
India,Delhi,Delhi,"Nehru Nagar, Delhi - DPCC",22-06-2024 06:00:00,28.567890,77.250515,OZONE,4,114,11
India,Delhi,Delhi,"North Campus, DU, Delhi - IMD",22-06-2024 06:00:00,28.6573814,77.1585447,PM2.5,40,379,185
India,Delhi,Delhi,"North Campus, DU, Delhi - IMD",22-06-2024 06:00:00,28.6573814,77.1585447,CO,36,97,86
India,Delhi,Delhi,"Okhla Phase-2, Delhi - DPCC",22-06-2024 06:00:00,28.530785,77.271255,PM10,81,355,168
India,Delhi,Delhi,"Patparganj, Delhi - DPCC",22-06-2024 06:00:00,28.623763,77.287209,CO,26,90,72
India,Delhi,Delhi,"Pusa, Delhi - DPCC",22-06-2024 06:00:00,28.639652,77.146275,PM2.5,NA,NA,NA
India,Delhi,Delhi,"Pusa, Delhi - IMD",22-06-2024 06:00:00,28.636110,77.173332,PM10,31,250,131
India,Delhi,Delhi,"R K Puram, Delhi - DPCC",22-06-2024 06:00:00,28.563262,77.186937,PM10,112,348,172
India,Delhi,Delhi,"Rohini, Delhi - DPCC",22-06-2024 06:00:00,28.732528,77.119920,PM10,102,391,209
India,Delhi,Delhi,"Rohini, Delhi - DPCC",22-06-2024 06:00:00,28.732528,77.119920,NO2,12,80,34
India,Delhi,Delhi,"Rohini, Delhi - DPCC",22-06-2024 06:00:00,28.732528,77.119920,NH3,7,21,12
India,Delhi,Delhi,"Shadipur, Delhi - CPCB",22-06-2024 06:00:00,28.6514781,77.1473105,OZONE,15,57,22
India,Delhi,Delhi,"Sirifort, Delhi - CPCB",22-06-2024 06:00:00,28.5504249,77.2159377,PM2.5,87,240,125
India,Delhi,Delhi,"Sirifort, Delhi - CPCB",22-06-2024 06:00:00,28.5504249,77.2159377,NO2,14,74,43
India,Delhi,Delhi,"Sirifort, Delhi - CPCB",22-06-2024 06:00:00,28.5504249,77.2159377,OZONE,4,40,4
India,Delhi,Delhi,"Sri Aurobindo Marg, Delhi - DPCC",22-06-2024 06:00:00,28.531346,77.190156,PM10,92,368,166
India,Delhi,Delhi,"Vivek Vihar, Delhi - DPCC",22-06-2024 06:00:00,28.672342,77.315260,CO,64,107,101
India,Gujarat,Ahmedabad,"Gyaspur, Ahmedabad - IITM",22-06-2024 06:00:00,22.977134,72.553024,NO2,32,54,43
India,Gujarat,Ahmedabad,"Gyaspur, Ahmedabad - IITM",22-06-2024 06:00:00,22.977134,72.553024,SO2,15,18,17
India,Gujarat,Ahmedabad,"Maninagar, Ahmedabad - GPCB",22-06-2024 06:00:00,23.002657,72.591912,PM10,71,358,120
India,Gujarat,Ahmedabad,"Rakhial, Ahmedabad - IITM",22-06-2024 06:00:00,23.016834,72.625775,PM10,46,162,91
India,Gujarat,Ahmedabad,"Rakhial, Ahmedabad - IITM",22-06-2024 06:00:00,23.016834,72.625775,OZONE,10,70,18
India,Gujarat,Ahmedabad,"Sardar Vallabhbhai Patel Stadium, Ahmedabad - IITM",22-06-2024 06:00:00,23.043070,72.562968,CO,16,52,43
India,Gujarat,Gandhinagar,"GIFT City, Gandhinagar - IITM",22-06-2024 06:00:00,23.163798,72.677768,PM2.5,50,302,77
India,Gujarat,Gandhinagar,"GIFT City, Gandhinagar - IITM",22-06-2024 06:00:00,23.163798,72.677768,CO,8,14,11
India,Gujarat,Gandhinagar,"Sector-10, Gandhinagar - GPCB",22-06-2024 06:00:00,23.221714,72.654328,OZONE,19,23,19
India,Gujarat,Surat,"Science Center, Surat - SMC",22-06-2024 06:00:00,21.170046,72.795405,NO2,16,33,22
India,Gujarat,Vatva,"Phase-4 GIDC, Vatva - GPCB",22-06-2024 06:00:00,22.969611,72.643500,SO2,7,33,11
India,Gujarat,Vatva,"Phase-4 GIDC, Vatva - GPCB",22-06-2024 06:00:00,22.969611,72.643500,CO,22,40,22
India,Haryana,Ambala,"Patti Mehar, Ambala - HSPCB",22-06-2024 06:00:00,30.379589,76.778328,NH3,5,12,8
India,Haryana,Ambala,"Patti Mehar, Ambala - HSPCB",22-06-2024 06:00:00,30.379589,76.778328,OZONE,35,52,44
India,Haryana,Bahadurgarh,"Arya Nagar, Bahadurgarh - HSPCB",22-06-2024 06:00:00,28.6701,76.9254,NO2,19,25,22
India,Haryana,Bahadurgarh,"Arya Nagar, Bahadurgarh - HSPCB",22-06-2024 06:00:00,28.6701,76.9254,SO2,NA,NA,NA
India,Haryana,Bahadurgarh,"Arya Nagar, Bahadurgarh - HSPCB",22-06-2024 06:00:00,28.6701,76.9254,CO,88,102,96
India,Haryana,Ballabgarh,"Nathu Colony, Ballabgarh - HSPCB",22-06-2024 06:00:00,28.3419248,77.319699,PM10,50,186,142
India,Haryana,Bhiwani,"H.B. Colony, Bhiwani - HSPCB",22-06-2024 06:00:00,28.806223,76.141105,NO2,2,10,8
India,Haryana,Bhiwani,"H.B. Colony, Bhiwani - HSPCB",22-06-2024 06:00:00,28.806223,76.141105,SO2,4,15,9
India,Haryana,Dharuhera,"Municipal Corporation Office, Dharuhera -  HSPCB",22-06-2024 06:00:00,28.206800,76.799700,PM2.5,70,213,139
India,Haryana,Dharuhera,"Municipal Corporation Office, Dharuhera -  HSPCB",22-06-2024 06:00:00,28.206800,76.799700,PM10,69,135,110
India,Haryana,Dharuhera,"Municipal Corporation Office, Dharuhera -  HSPCB",22-06-2024 06:00:00,28.206800,76.799700,CO,14,36,24
India,Haryana,Faridabad,"New Industrial Town, Faridabad - HSPCB",22-06-2024 06:00:00,28.39072,77.30059,NH3,1,3,2
India,Haryana,Faridabad,"Sector 11, Faridabad - HSPCB",22-06-2024 06:00:00,28.376058,77.315741,NO2,30,33,31
India,Haryana,Faridabad,"Sector 30, Faridabad - HSPCB",22-06-2024 06:00:00,28.4417,77.3217,SO2,5,45,7
India,Haryana,Faridabad,"Sector 30, Faridabad - HSPCB",22-06-2024 06:00:00,28.4417,77.3217,OZONE,3,23,20
India,Haryana,Fatehabad,"Huda Sector, Fatehabad - HSPCB",22-06-2024 06:00:00,29.503664,75.467934,NH3,10,11,10
India,Haryana,Gurugram,"NISE Gwal Pahari, Gurugram - IMD",22-06-2024 06:00:00,28.422681,77.148944,PM10,111,423,179
India,Haryana,Gurugram,"Sector-51, Gurugram - HSPCB",22-06-2024 06:00:00,28.4227,77.0667,OZONE,28,69,30
India,Haryana,Gurugram,"Vikas Sadan, Gurugram - HSPCB",22-06-2024 06:00:00,28.4501238,77.0263051,PM2.5,67,415,183
India,Haryana,Gurugram,"Vikas Sadan, Gurugram - HSPCB",22-06-2024 06:00:00,28.4501238,77.0263051,SO2,7,60,26
India,Haryana,Jind,"Police Lines, Jind - HSPCB",22-06-2024 06:00:00,29.307814,76.337619,PM10,55,225,97
India,Haryana,Kaithal,"Rishi Nagar, Kaithal - HSPCB",22-06-2024 06:00:00,29.8006,76.4155,CO,8,26,16
India,Haryana,Karnal,"Sector-12, Karnal - HSPCB",22-06-2024 06:00:00,29.695300,77.002700,NH3,10,13,11
India,Haryana,Karnal,"Sector-12, Karnal - HSPCB",22-06-2024 06:00:00,29.695300,77.002700,SO2,12,13,12
India,Haryana,Karnal,"Sector-12, Karnal - HSPCB",22-06-2024 06:00:00,29.695300,77.002700,CO,22,40,32
India,Haryana,Kurukshetra,"Sector-7, Kurukshetra - HSPCB",22-06-2024 06:00:00,29.966942,76.875879,OZONE,61,91,70
India,Haryana,Mandikhera,"General Hospital, Mandikhera - HSPCB",22-06-2024 06:00:00,27.9002,76.9938,PM2.5,4,437,32
India,Haryana,Mandikhera,"General Hospital, Mandikhera - HSPCB",22-06-2024 06:00:00,27.9002,76.9938,NO2,19,23,21
India,Haryana,Mandikhera,"General Hospital, Mandikhera - HSPCB",22-06-2024 06:00:00,27.9002,76.9938,NH3,16,19,18
India,Haryana,Manesar,"Sector-2 IMT, Manesar - HSPCB",22-06-2024 06:00:00,28.360699,76.936090,PM2.5,100,252,146
India,Haryana,Manesar,"Sector-2 IMT, Manesar - HSPCB",22-06-2024 06:00:00,28.360699,76.936090,CO,10,24,16
India,Haryana,Narnaul,"Shastri Nagar, Narnaul - HSPCB",22-06-2024 06:00:00,28.060249,76.113115,CO,8,39,20
India,Haryana,Narnaul,"Shastri Nagar, Narnaul - HSPCB",22-06-2024 06:00:00,28.060249,76.113115,OZONE,20,58,39
India,Haryana,Palwal,"Shyam Nagar, Palwal - HSPCB",22-06-2024 06:00:00,28.1485564,77.3320667,PM2.5,37,78,60
India,Haryana,Palwal,"Shyam Nagar, Palwal - HSPCB",22-06-2024 06:00:00,28.1485564,77.3320667,NH3,8,9,9
India,Haryana,Panchkula,"Sector-6, Panchkula - HSPCB ",22-06-2024 06:00:00,30.7057778,76.8531805555555,PM2.5,111,259,187
India,Haryana,Panchkula,"Sector-6, Panchkula - HSPCB ",22-06-2024 06:00:00,30.7057778,76.8531805555555,CO,4,28,17
India,Haryana,Panipat,"Sector-18, Panipat - HSPCB",22-06-2024 06:00:00,29.432304,76.972765,PM10,106,110,109
India,Haryana,Panipat,"Sector-18, Panipat - HSPCB",22-06-2024 06:00:00,29.432304,76.972765,NO2,31,32,31
India,Haryana,Sirsa,"F-Block, Sirsa - HSPCB",22-06-2024 06:00:00,29.536400,75.015800,PM10,NA,NA,NA
India,Haryana,Sonipat,"Murthal, Sonipat - HSPCB",22-06-2024 06:00:00,29.027200,77.062100,CO,24,26,25
India,Haryana,Yamuna Nagar,"Gobind Pura, Yamuna Nagar - HSPCB",22-06-2024 06:00:00,30.1480566,77.2893471,NO2,NA,NA,NA
India,Himachal Pradesh,Baddi,"HIMUDA Complex Phase-1, Baddi - HPPCB",22-06-2024 06:00:00,30.943887,76.801991,PM10,76,398,166
India,Himachal Pradesh,Baddi,"HIMUDA Complex Phase-1, Baddi - HPPCB",22-06-2024 06:00:00,30.943887,76.801991,NO2,14,60,33
India,Himachal Pradesh,Baddi,"HIMUDA Complex Phase-1, Baddi - HPPCB",22-06-2024 06:00:00,30.943887,76.801991,OZONE,30,217,67
India,Jharkhand,Dhanbad,"Sardar Patel Nagar, Dhanbad - JSPCB",22-06-2024 06:00:00,23.80569,86.44268,SO2,NA,NA,NA
India,Karnataka,Bagalkot,"Vidayagiri, Bagalkot - KSPCB",22-06-2024 06:00:00,16.172806,75.659694,PM2.5,26,37,36
India,Karnataka,Belgaum,"Ramteerth Nagar, Belgaum - KSPCB",22-06-2024 06:00:00,15.888653,74.541751,SO2,NA,NA,NA
India,Karnataka,Belgaum,"Ramteerth Nagar, Belgaum - KSPCB",22-06-2024 06:00:00,15.888653,74.541751,CO,51,62,55
India,Karnataka,Bengaluru,"City Railway Station, Bengaluru - KSPCB",22-06-2024 06:00:00,12.9756843,77.5660749,PM10,69,122,89
India,Karnataka,Bengaluru,"Hebbal, Bengaluru - KSPCB",22-06-2024 06:00:00,13.029152,77.585901,PM2.5,8,55,20
India,Karnataka,Bengaluru,"Hebbal, Bengaluru - KSPCB",22-06-2024 06:00:00,13.029152,77.585901,PM10,26,49,35
India,Karnataka,Bengaluru,"Hebbal, Bengaluru - KSPCB",22-06-2024 06:00:00,13.029152,77.585901,SO2,18,27,22
India,Karnataka,Bengaluru,"Hebbal, Bengaluru - KSPCB",22-06-2024 06:00:00,13.029152,77.585901,CO,6,30,14
India,Karnataka,Bengaluru,"Hombegowda Nagar, Bengaluru - KSPCB",22-06-2024 06:00:00,12.938539,77.590100,PM10,24,42,32
India,Karnataka,Bengaluru,"Jayanagar 5th Block, Bengaluru - KSPCB",22-06-2024 06:00:00,12.920984,77.584908,SO2,16,22,19
India,Karnataka,Bengaluru,"Jigani, Bengaluru - KSPCB",22-06-2024 06:00:00,12.7816279,77.6299145,NO2,39,41,40
India,Karnataka,Bengaluru,"Jigani, Bengaluru - KSPCB",22-06-2024 06:00:00,12.7816279,77.6299145,SO2,8,9,9
India,Karnataka,Bengaluru,"Kasturi Nagar, Bengaluru - KSPCB",22-06-2024 06:00:00,13.003872,77.664217,CO,25,26,25
India,Karnataka,Bengaluru,"Kasturi Nagar, Bengaluru - KSPCB",22-06-2024 06:00:00,13.003872,77.664217,OZONE,39,39,39
India,Karnataka,Bengaluru,"Peenya, Bengaluru - CPCB",22-06-2024 06:00:00,13.0270199,77.494094,PM10,45,63,54
India,Karnataka,Bengaluru,"Peenya, Bengaluru - CPCB",22-06-2024 06:00:00,13.0270199,77.494094,NH3,3,4,3
India,Karnataka,Bengaluru,"RVCE-Mailasandra, Bengaluru - KSPCB",22-06-2024 06:00:00,12.921418,77.502466,PM10,NA,NA,NA
India,Karnataka,Bengaluru,"Sanegurava Halli, Bengaluru - KSPCB",22-06-2024 06:00:00,12.990328,77.5431385,SO2,2,6,3
India,Karnataka,Bengaluru,"Sanegurava Halli, Bengaluru - KSPCB",22-06-2024 06:00:00,12.990328,77.5431385,CO,12,25,16
India,Karnataka,Bengaluru,"Shivapura_Peenya, Bengaluru - KSPCB",22-06-2024 06:00:00,13.0246342,77.5080115,PM10,39,73,53
India,Karnataka,Bengaluru,"Shivapura_Peenya, Bengaluru - KSPCB",22-06-2024 06:00:00,13.0246342,77.5080115,NH3,4,4,4
India,Karnataka,Bengaluru,"Silk Board, Bengaluru - KSPCB",22-06-2024 06:00:00,12.917348,77.622813,PM2.5,19,45,30
India,Karnataka,Bengaluru,"Silk Board, Bengaluru - KSPCB",22-06-2024 06:00:00,12.917348,77.622813,NO2,NA,NA,NA
India,Karnataka,Bengaluru,"Silk Board, Bengaluru - KSPCB",22-06-2024 06:00:00,12.917348,77.622813,NH3,NA,NA,NA
India,Karnataka,Bengaluru,"Silk Board, Bengaluru - KSPCB",22-06-2024 06:00:00,12.917348,77.622813,OZONE,7,16,10
India,Karnataka,Chamarajanagar,"Urban, Chamarajanagar - KSPCB",22-06-2024 06:00:00,11.55358,76.55521,NO2,22,36,29
India,Karnataka,Chikkaballapur,"Chikkaballapur Rural, Chikkaballapur - KSPCB",22-06-2024 06:00:00,13.428828,77.731418,PM2.5,17,38,24
India,Karnataka,Chikkaballapur,"Chikkaballapur Rural, Chikkaballapur - KSPCB",22-06-2024 06:00:00,13.428828,77.731418,SO2,17,21,19
India,Karnataka,Chikkaballapur,"Chikkaballapur Rural, Chikkaballapur - KSPCB",22-06-2024 06:00:00,13.428828,77.731418,CO,10,18,14
India,Karnataka,Chikkamagaluru,"Kalyana Nagara, Chikkamagaluru - KSPCB",22-06-2024 06:00:00,13.328028,75.797056,SO2,3,7,4
India,Karnataka,Davanagere,"Devaraj Urs Badavane, Davanagere - KSPCB",22-06-2024 06:00:00,14.475800,75.905200,NO2,9,12,10
India,Karnataka,Dharwad,"Kalabhavan, Dharwad - KSPCB",22-06-2024 06:00:00,15.459706,75.008381,CO,11,62,24
India,Karnataka,Dharwad,"Kalabhavan, Dharwad - KSPCB",22-06-2024 06:00:00,15.459706,75.008381,OZONE,24,31,26
India,Karnataka,Gadag,"Panchal Nagar, Gadag - KSPCB",22-06-2024 06:00:00,15.411456,75.638133,PM10,25,159,34
India,Karnataka,Gadag,"Panchal Nagar, Gadag - KSPCB",22-06-2024 06:00:00,15.411456,75.638133,NH3,2,3,2
India,Karnataka,Hassan,"B.Katihalli, Hassan - KSPCB",22-06-2024 06:00:00,13.008556,76.125258,PM10,15,107,44
India,Karnataka,Hassan,"B.Katihalli, Hassan - KSPCB",22-06-2024 06:00:00,13.008556,76.125258,NO2,6,27,15
India,Karnataka,Hassan,"B.Katihalli, Hassan - KSPCB",22-06-2024 06:00:00,13.008556,76.125258,CO,3,20,14
India,Karnataka,Haveri,"Ashwini Nagar, Haveri - KSPCB",22-06-2024 06:00:00,14.791800,75.389600,PM10,NA,NA,NA
India,Karnataka,Haveri,"Ashwini Nagar, Haveri - KSPCB",22-06-2024 06:00:00,14.791800,75.389600,CO,36,37,36
India,Karnataka,Hubballi,"Lingaraj Nagar, Hubballi - KSPCB",22-06-2024 06:00:00,15.3714823,75.1160168,PM10,42,66,54
India,Karnataka,Hubballi,"Lingaraj Nagar, Hubballi - KSPCB",22-06-2024 06:00:00,15.3714823,75.1160168,OZONE,8,25,10
India,Karnataka,Kalaburagi,"Mahatma Basaveswar Colony, Kalaburgi - KSPCB",22-06-2024 06:00:00,17.336318,76.847397,NH3,2,3,3
India,Karnataka,Karwar,"KHB Colony, Karwar - KSPCB",22-06-2024 06:00:00,14.816666,74.141003,NH3,NA,NA,NA
India,Karnataka,Kolar,"Tamaka Ind. Area, Kolar - KSPCB",22-06-2024 06:00:00,13.1276288,78.1570122,NH3,NA,NA,NA
India,Karnataka,Kolar,"Tamaka Ind. Area, Kolar - KSPCB",22-06-2024 06:00:00,13.1276288,78.1570122,SO2,NA,NA,NA
India,Karnataka,Madikeri,"Stuart Hill, Madikeri - KSPCB",22-06-2024 06:00:00,12.415911,75.735050,NO2,1,4,2
India,Karnataka,Madikeri,"Stuart Hill, Madikeri - KSPCB",22-06-2024 06:00:00,12.415911,75.735050,CO,4,26,11
India,Karnataka,Mangalore,"Kadri, Mangalore - KSPCB",22-06-2024 06:00:00,12.889250,74.853000,PM2.5,5,47,30
India,Karnataka,Mangalore,"Kadri, Mangalore - KSPCB",22-06-2024 06:00:00,12.889250,74.853000,PM10,37,71,56
India,Karnataka,Mysuru,"Hebbal 1st Stage, Mysuru - KSPCB",22-06-2024 06:00:00,12.21041,76.37376,PM10,24,58,32
India,Karnataka,Mysuru,"Hebbal 1st Stage, Mysuru - KSPCB",22-06-2024 06:00:00,12.21041,76.37376,NO2,10,45,22
India,Karnataka,Raichur,"Haji Colony, Raichur - KSPCB",22-06-2024 06:00:00,16.208139,77.348417,PM10,29,60,40
India,Karnataka,Raichur,"Haji Colony, Raichur - KSPCB",22-06-2024 06:00:00,16.208139,77.348417,NH3,3,3,3
India,Karnataka,Raichur,"Haji Colony, Raichur - KSPCB",22-06-2024 06:00:00,16.208139,77.348417,SO2,67,75,71
India,Karnataka,Raichur,"Haji Colony, Raichur - KSPCB",22-06-2024 06:00:00,16.208139,77.348417,CO,94,103,99
India,Karnataka,Raichur,"Haji Colony, Raichur - KSPCB",22-06-2024 06:00:00,16.208139,77.348417,OZONE,3,38,13
India,Karnataka,Shivamogga,"Vinoba Nagara, Shivamogga - KSPCB",22-06-2024 06:00:00,13.940000,75.555917,PM2.5,21,58,37
India,Karnataka,Shivamogga,"Vinoba Nagara, Shivamogga - KSPCB",22-06-2024 06:00:00,13.940000,75.555917,PM10,31,75,50
India,Karnataka,Shivamogga,"Vinoba Nagara, Shivamogga - KSPCB",22-06-2024 06:00:00,13.940000,75.555917,CO,14,43,22
India,Kerala,Kannur,"Thavakkara, Kannur - Kerala PCB",22-06-2024 06:00:00,11.875000,75.373200,NO2,5,5,5
India,Kerala,Kollam,"Polayathode, Kollam - Kerala PCB",22-06-2024 06:00:00,8.8787,76.6073,PM2.5,22,68,45
India,Kerala,Kollam,"Polayathode, Kollam - Kerala PCB",22-06-2024 06:00:00,8.8787,76.6073,NH3,1,1,1
India,Kerala,Kollam,"Polayathode, Kollam - Kerala PCB",22-06-2024 06:00:00,8.8787,76.6073,SO2,1,7,2
India,Kerala,Thiruvananthapuram,"Kariavattom, Thiruvananthapuram - Kerala PCB",22-06-2024 06:00:00,8.563700,76.886500,OZONE,36,36,36
India,Kerala,Thiruvananthapuram,"Plammoodu, Thiruvananthapuram - Kerala PCB",22-06-2024 06:00:00,8.5149093,76.9435879,NO2,8,11,9
India,Kerala,Thiruvananthapuram,"Plammoodu, Thiruvananthapuram - Kerala PCB",22-06-2024 06:00:00,8.5149093,76.9435879,SO2,5,13,9
India,Kerala,Thrissur,"Corporation Ground, Thrissur - Kerala PCB",22-06-2024 06:00:00,10.532400,76.215900,NO2,7,8,7
India,Madhya Pradesh,Bhopal,"Paryavaran Parisar, Bhopal - MPPCB",22-06-2024 06:00:00,23.210494,77.425409,PM2.5,2,20,9
India,Madhya Pradesh,Bhopal,"Paryavaran Parisar, Bhopal - MPPCB",22-06-2024 06:00:00,23.210494,77.425409,PM10,3,68,25
India,Madhya Pradesh,Bhopal,"T T Nagar, Bhopal - MPPCB",22-06-2024 06:00:00,23.233584,77.400574,NO2,17,43,29
India,Madhya Pradesh,Bhopal,"T T Nagar, Bhopal - MPPCB",22-06-2024 06:00:00,23.233584,77.400574,CO,20,81,29
India,Madhya Pradesh,Dewas,"Bhopal Chauraha, Dewas - MPPCB",22-06-2024 06:00:00,22.9682591,76.064118,OZONE,7,26,19
India,Madhya Pradesh,Gwalior,"Deen Dayal Nagar, Gwalior - MPPCB",22-06-2024 06:00:00,26.259242,78.216432,CO,38,75,65
India,Madhya Pradesh,Gwalior,"Deen Dayal Nagar, Gwalior - MPPCB",22-06-2024 06:00:00,26.259242,78.216432,OZONE,24,129,46
India,Madhya Pradesh,Gwalior,"Phool Bagh, Gwalior - Mondelez Ind. Food",22-06-2024 06:00:00,26.210536,78.171,CO,64,84,67
India,Madhya Pradesh,Indore,"Chhoti Gwaltoli, Indore - MPPCB",22-06-2024 06:00:00,22.4310,75.5213,SO2,10,16,12
India,Madhya Pradesh,Indore,"Maguda Nagar, Indore - IMC",22-06-2024 06:00:00,22.7524,75.8872,CO,12,31,29
India,Madhya Pradesh,Indore,"Regional Park, Indore - IMC",22-06-2024 06:00:00,22.6780,75.8559,PM10,13,38,25
India,Madhya Pradesh,Indore,"Regional Park, Indore - IMC",22-06-2024 06:00:00,22.6780,75.8559,CO,18,22,21
India,Madhya Pradesh,Indore,"Residency Area, Indore - IMC",22-06-2024 06:00:00,22.7084,75.8815,CO,10,12,12
India,Madhya Pradesh,Jabalpur,"Govindh Bhavan Colony, Jabalpur - JMC",22-06-2024 06:00:00,23.163174,79.973061,PM2.5,7,35,21
India,Madhya Pradesh,Jabalpur,"Gupteshwar, Jabalpur - JMC",22-06-2024 06:00:00,23.142888,79.916147,PM10,40,47,42
India,Madhya Pradesh,Jabalpur,"Gupteshwar, Jabalpur - JMC",22-06-2024 06:00:00,23.142888,79.916147,CO,8,30,13
India,Madhya Pradesh,Jabalpur,"Marhatal, Jabalpur - MPPCB",22-06-2024 06:00:00,23.168606,79.932247,PM10,6,67,35
India,Madhya Pradesh,Jabalpur,"Marhatal, Jabalpur - MPPCB",22-06-2024 06:00:00,23.168606,79.932247,SO2,10,21,14
India,Madhya Pradesh,Jabalpur,"Suhagi, Jabalpur - JMC",22-06-2024 06:00:00,23.218135,79.957770,OZONE,38,66,48
India,Madhya Pradesh,Pithampur,"Sector-2 Industrial Area, Pithampur - MPPCB",22-06-2024 06:00:00,22.624758,75.675238,SO2,14,41,23
India,Madhya Pradesh,Pithampur,"Sector-2 Industrial Area, Pithampur - MPPCB",22-06-2024 06:00:00,22.624758,75.675238,OZONE,20,73,36
India,Madhya Pradesh,Sagar,"Civil Lines, Sagar - MPPCB",22-06-2024 06:00:00,23.838586,78.759431,NO2,9,21,14
India,Madhya Pradesh,Sagar,"Civil Lines, Sagar - MPPCB",22-06-2024 06:00:00,23.838586,78.759431,NH3,6,7,6
India,Madhya Pradesh,Sagar,"Civil Lines, Sagar - MPPCB",22-06-2024 06:00:00,23.838586,78.759431,SO2,2,5,3
India,Madhya Pradesh,Sagar,"Deen Dayal Nagar, Sagar - MPPCB",22-06-2024 06:00:00,23.8640158,78.80289321,NO2,12,24,22
India,Madhya Pradesh,Sagar,"Deen Dayal Nagar, Sagar - MPPCB",22-06-2024 06:00:00,23.8640158,78.80289321,SO2,11,14,13
India,Madhya Pradesh,Satna,"Bandhavgar Colony, Satna - Birla Cement",22-06-2024 06:00:00,24.58434363,80.8549414,NO2,20,49,32
India,Madhya Pradesh,Satna,"Bandhavgar Colony, Satna - Birla Cement",22-06-2024 06:00:00,24.58434363,80.8549414,CO,36,123,64
India,Madhya Pradesh,Singrauli,"Suryakiran Bhawan NCL, Singrauli - MPPCB",22-06-2024 06:00:00,24.108970,82.645580,NH3,2,5,3
India,Madhya Pradesh,Ujjain,"Mahakaleshwar Temple, Ujjain - MPPCB",22-06-2024 06:00:00,23.182719 ,75.768218 ,PM10,26,84,60
India,Madhya Pradesh,Ujjain,"Mahakaleshwar Temple, Ujjain - MPPCB",22-06-2024 06:00:00,23.182719 ,75.768218 ,SO2,2,6,4
India,Maharashtra,Ahmednagar,"Tarakpur, Ahmednagar - MPCB",22-06-2024 06:00:00,19.10122,74.73339,NO2,NA,NA,NA
India,Maharashtra,Amravati,"Shivneri Colony, Amravati - MPCB",22-06-2024 06:00:00,20.9402359,77.7895248,PM10,14,93,49
India,Maharashtra,Amravati,"Shivneri Colony, Amravati - MPCB",22-06-2024 06:00:00,20.9402359,77.7895248,SO2,2,7,3
India,Maharashtra,Amravati,"Shri Shivaji Science College, Amaravati - MPCB",22-06-2024 06:00:00,20.939198,77.765701,PM10,17,75,45
India,Maharashtra,Aurangabad,"MIDC Chilkalthana, Aurangabad - MPCB",22-06-2024 06:00:00,19.875620,75.387310,PM2.5,NA,NA,NA
India,Maharashtra,Aurangabad,"More Chowk Waluj, Aurangabad - MPCB",22-06-2024 06:00:00,19.8389439,75.244448,NO2,10,16,14
India,Maharashtra,Aurangabad,"More Chowk Waluj, Aurangabad - MPCB",22-06-2024 06:00:00,19.8389439,75.244448,CO,2,109,10
India,Maharashtra,Belapur,"CBD Belapur, Belapur - MPCB",22-06-2024 06:00:00,19.0243902,73.0406721,PM2.5,23,45,33
India,Maharashtra,Bhiwandi,"Gokul Nagar, Bhiwandi - MPCB",22-06-2024 06:00:00,19.309073,73.057223,PM10,36,71,56
India,Maharashtra,Bhiwandi,"Gokul Nagar, Bhiwandi - MPCB",22-06-2024 06:00:00,19.309073,73.057223,CO,15,67,38
India,Maharashtra,Bhiwandi,"Gokul Nagar, Bhiwandi - MPCB",22-06-2024 06:00:00,19.309073,73.057223,OZONE,13,60,21
India,Maharashtra,Boisar,"Khaira, Boisar - MPCB",22-06-2024 06:00:00,19.786089,72.757971,SO2,8,10,9
India,Maharashtra,Chandrapur,"Chauhan Colony, Chandrapur - MPCB",22-06-2024 06:00:00,19.962900,79.298714,SO2,3,3,3
India,Maharashtra,Chandrapur,"Chauhan Colony, Chandrapur - MPCB",22-06-2024 06:00:00,19.962900,79.298714,CO,27,30,28
India,Maharashtra,Dhule,"Deopur, Dhule - MPCB",22-06-2024 06:00:00,20.918946,74.776388,CO,12,26,21
India,Maharashtra,Jalgaon,"Prabhat Colony, Jalgaon - MPCB",22-06-2024 06:00:00,21.001264,75.565602,OZONE,8,64,37
India,Maharashtra,Jalna,"Old MIDC, Jalna - MPCB",22-06-2024 06:00:00,19.854616,75.905894,NH3,1,2,1
India,Maharashtra,Jalna,"Old MIDC, Jalna - MPCB",22-06-2024 06:00:00,19.854616,75.905894,SO2,6,8,6
India,Maharashtra,Latur,"Sawe Wadi, Latur - MPCB",22-06-2024 06:00:00,18.39963,76.57452,NH3,16,17,17
India,Maharashtra,Latur,"Sawe Wadi, Latur - MPCB",22-06-2024 06:00:00,18.39963,76.57452,SO2,3,5,5
India,Maharashtra,Mahad,"Kamble Tarf Birwadi, Mahad - MPCB",22-06-2024 06:00:00,18.1023399,73.4783687,NO2,8,43,20
India,Maharashtra,Mahad,"Kamble Tarf Birwadi, Mahad - MPCB",22-06-2024 06:00:00,18.1023399,73.4783687,SO2,1,101,21
India,Maharashtra,Mahad,"Kamble Tarf Birwadi, Mahad - MPCB",22-06-2024 06:00:00,18.1023399,73.4783687,OZONE,12,25,18
India,Maharashtra,Malegaon,"Mahesh Nagar, Malegaon - MPCB",22-06-2024 06:00:00,20.555712,74.529236,NO2,7,30,13
India,Maharashtra,Mira-Bhayandar,"Bhayandar West, Mira-Bhayandar - MPCB",22-06-2024 06:00:00,19.296481,72.840923,PM2.5,15,41,25
India,Maharashtra,Mira-Bhayandar,"Bhayandar West, Mira-Bhayandar - MPCB",22-06-2024 06:00:00,19.296481,72.840923,SO2,2,4,3
India,Maharashtra,Mumbai,"Bandra Kurla Complex, Mumbai - MPCB",22-06-2024 06:00:00,19.065931,72.862131,CO,28,72,35
India,Maharashtra,Mumbai,"Bandra Kurla Complex, Mumbai - MPCB",22-06-2024 06:00:00,19.065931,72.862131,OZONE,3,18,6
India,Maharashtra,Mumbai,"Borivali East, Mumbai - IITM",22-06-2024 06:00:00,19.23241,72.86895,PM10,25,66,48
India,Maharashtra,Mumbai,"Borivali East, Mumbai - IITM",22-06-2024 06:00:00,19.23241,72.86895,NH3,5,10,8
India,Maharashtra,Mumbai,"Borivali East, Mumbai - MPCB",22-06-2024 06:00:00,19.2243333,72.8658113,PM10,NA,NA,NA
India,Maharashtra,Mumbai,"Borivali East, Mumbai - MPCB",22-06-2024 06:00:00,19.2243333,72.8658113,CO,NA,NA,NA
India,Maharashtra,Mumbai,"Byculla, Mumbai - BMC",22-06-2024 06:00:00,18.9767,72.8380,NH3,NA,NA,NA
India,Maharashtra,Mumbai,"Byculla, Mumbai - BMC",22-06-2024 06:00:00,18.9767,72.8380,OZONE,5,18,10
India,Maharashtra,Mumbai,"Chakala-Andheri East, Mumbai - IITM",22-06-2024 06:00:00,19.11074,72.86084,NH3,5,40,12
India,Maharashtra,Mumbai,"Chembur, Mumbai - MPCB",22-06-2024 06:00:00,19.0364585,72.8954371,PM2.5,17,44,27
India,Maharashtra,Mumbai,"Chembur, Mumbai - MPCB",22-06-2024 06:00:00,19.0364585,72.8954371,NH3,3,4,4
India,Maharashtra,Mumbai,"Chhatrapati Shivaji Intl. Airport (T2), Mumbai - MPCB",22-06-2024 06:00:00,19.10078,72.87462,OZONE,NA,NA,NA
India,Maharashtra,Mumbai,"Colaba, Mumbai - MPCB",22-06-2024 06:00:00,18.910000,72.820000,SO2,10,11,10
India,Maharashtra,Mumbai,"Kandivali East, Mumbai - MPCB",22-06-2024 06:00:00,19.205800,72.868200,PM10,20,375,157
India,Maharashtra,Mumbai,"Kandivali East, Mumbai - MPCB",22-06-2024 06:00:00,19.205800,72.868200,NO2,14,33,21
India,Maharashtra,Mumbai,"Kherwadi_Bandra East, Mumbai - MPCB",22-06-2024 06:00:00,19.0632143,72.8456324,PM2.5,26,46,36
India,Maharashtra,Mumbai,"Khindipada-Bhandup West, Mumbai - IITM",22-06-2024 06:00:00,19.1653323,72.922099,PM2.5,6,21,14
India,Maharashtra,Mumbai,"Khindipada-Bhandup West, Mumbai - IITM",22-06-2024 06:00:00,19.1653323,72.922099,PM10,5,33,20
India,Maharashtra,Mumbai,"Khindipada-Bhandup West, Mumbai - IITM",22-06-2024 06:00:00,19.1653323,72.922099,SO2,1,3,1
India,Maharashtra,Mumbai,"Kurla, Mumbai - MPCB",22-06-2024 06:00:00,19.0863,72.8888,PM2.5,4,24,13
India,Maharashtra,Mumbai,"Malad West, Mumbai - IITM",22-06-2024 06:00:00,19.19709,72.82204,PM2.5,3,33,13
India,Maharashtra,Mumbai,"Malad West, Mumbai - IITM",22-06-2024 06:00:00,19.19709,72.82204,NH3,1,5,3
India,Maharashtra,Mumbai,"Mazgaon, Mumbai - IITM",22-06-2024 06:00:00,18.96702,72.84214,PM10,20,48,33
India,Maharashtra,Mumbai,"Mazgaon, Mumbai - IITM",22-06-2024 06:00:00,18.96702,72.84214,OZONE,6,21,9
India,Maharashtra,Mumbai,"Mindspace-Malad West, Mumbai - MPCB",22-06-2024 06:00:00,19.1878657,72.8304069,SO2,3,9,7
India,Maharashtra,Mumbai,"Mulund West, Mumbai - MPCB",22-06-2024 06:00:00,19.1750,72.9419,NO2,19,21,20
India,Maharashtra,Mumbai,"Navy Nagar-Colaba, Mumbai - IITM",22-06-2024 06:00:00,18.897756,72.813320,OZONE,NA,NA,NA
India,Maharashtra,Mumbai,"Powai, Mumbai - MPCB",22-06-2024 06:00:00,19.137500,72.915056,PM10,24,58,40
India,Maharashtra,Mumbai,"Powai, Mumbai - MPCB",22-06-2024 06:00:00,19.137500,72.915056,SO2,14,15,14
India,Maharashtra,Mumbai,"Siddharth Nagar-Worli, Mumbai - IITM",22-06-2024 06:00:00,19.000083,72.813993,PM2.5,3,25,11
India,Maharashtra,Mumbai,"Sion, Mumbai - MPCB",22-06-2024 06:00:00,19.047000,72.874600,NH3,6,14,10
India,Maharashtra,Mumbai,"Sion, Mumbai - MPCB",22-06-2024 06:00:00,19.047000,72.874600,OZONE,NA,NA,NA
India,Maharashtra,Mumbai,"Vasai West, Mumbai - MPCB",22-06-2024 06:00:00,19.383200,72.820400,CO,12,36,18
India,Maharashtra,Mumbai,"Worli, Mumbai - MPCB",22-06-2024 06:00:00,18.9936162,72.8128113,NO2,13,13,13
India,Maharashtra,Nagpur,"Ambazari, Nagpur - MPCB",22-06-2024 06:00:00,21.121801,79.04952,NO2,3,30,12
India,Maharashtra,Nagpur,"Ambazari, Nagpur - MPCB",22-06-2024 06:00:00,21.121801,79.04952,SO2,12,18,16
India,Maharashtra,Nagpur,"Mahal, Nagpur - MPCB",22-06-2024 06:00:00,21.14472,79.107595,CO,24,83,40
India,Maharashtra,Nagpur,"Opp GPO Civil Lines, Nagpur - MPCB",22-06-2024 06:00:00,21.152875,79.0517531,PM10,17,60,35
India,Maharashtra,Nagpur,"Opp GPO Civil Lines, Nagpur - MPCB",22-06-2024 06:00:00,21.152875,79.0517531,CO,13,37,25
India,Maharashtra,Nagpur,"Ram Nagar, Nagpur - MPCB",22-06-2024 06:00:00,21.143383,79.048912,NH3,4,6,5
India,Maharashtra,Nashik,"MIDC Ambad, Nashik - MPCB",22-06-2024 06:00:00,19.950220,73.731480,PM10,33,78,57
India,Maharashtra,Nashik,"MIDC Ambad, Nashik - MPCB",22-06-2024 06:00:00,19.950220,73.731480,SO2,14,37,24
India,Maharashtra,Nashik,"MIDC Ambad, Nashik - MPCB",22-06-2024 06:00:00,19.950220,73.731480,CO,10,39,20
India,Maharashtra,Navi Mumbai,"Kopripada-Vashi, Navi Mumbai - MPCB",22-06-2024 06:00:00,19.090337,73.014232,PM2.5,17,28,22
India,Maharashtra,Navi Mumbai,"Mahape, Navi Mumbai - MPCB",22-06-2024 06:00:00,19.1135051,73.008978,OZONE,20,25,22
India,Maharashtra,Navi Mumbai,"Nerul, Navi Mumbai - MPCB",22-06-2024 06:00:00,19.008751,73.016620,PM10,16,93,44
India,Maharashtra,Navi Mumbai,"Nerul, Navi Mumbai - MPCB",22-06-2024 06:00:00,19.008751,73.016620,NO2,22,38,30
India,Maharashtra,Navi Mumbai,"Nerul, Navi Mumbai - MPCB",22-06-2024 06:00:00,19.008751,73.016620,CO,16,26,24
India,Maharashtra,Navi Mumbai,"Sector-2E Kalamboli, Navi Mumbai - MPCB",22-06-2024 06:00:00,19.02579,73.10297,NH3,1,2,1
India,Maharashtra,Pimpri-Chinchwad,"Gavalinagar, Pimpri Chinchwad - MPCB",22-06-2024 06:00:00,18.63673,73.82487,PM2.5,14,34,23
India,Maharashtra,Pimpri-Chinchwad,"Gavalinagar, Pimpri Chinchwad - MPCB",22-06-2024 06:00:00,18.63673,73.82487,PM10,26,43,34
India,Maharashtra,Pimpri-Chinchwad,"Park Street Wakad, Pimpri Chinchwad - MPCB",22-06-2024 06:00:00,18.59051,73.77946,PM2.5,1,40,8
India,Maharashtra,Pune,"Alandi, Pune - IITM",22-06-2024 06:00:00,18.675076,73.892743,CO,24,44,35
India,Maharashtra,Pune,"Bhumkar Nagar, Pune - IITM",22-06-2024 06:00:00,18.605770,73.749976,PM10,NA,NA,NA
India,Maharashtra,Pune,"Hadapsar, Pune - IITM",22-06-2024 06:00:00,18.501793,73.927532,NO2,24,38,29
India,Maharashtra,Pune,"Karve Road, Pune - MPCB",22-06-2024 06:00:00,18.5011743,73.8165527,PM10,2,85,32
India,Maharashtra,Pune,"Karve Road, Pune - MPCB",22-06-2024 06:00:00,18.5011743,73.8165527,NO2,1,9,3
India,Maharashtra,Pune,"Karve Road, Pune - MPCB",22-06-2024 06:00:00,18.5011743,73.8165527,CO,1,42,15
India,Maharashtra,Pune,"Karve Road, Pune - MPCB",22-06-2024 06:00:00,18.5011743,73.8165527,OZONE,1,45,14
India,Maharashtra,Pune,"Mhada Colony, Pune - IITM",22-06-2024 06:00:00,18.573040,73.927715,PM10,30,62,45
India,Maharashtra,Pune,"Revenue Colony-Shivajinagar, Pune - IITM",22-06-2024 06:00:00,18.530085,73.849598,NO2,20,43,33
India,Maharashtra,Pune,"Revenue Colony-Shivajinagar, Pune - IITM",22-06-2024 06:00:00,18.530085,73.849598,SO2,6,13,10
India,Maharashtra,Pune,"Savitribai Phule Pune University, Pune - MPCB",22-06-2024 06:00:00,18.547056,73.826908,PM2.5,14,35,25
India,Maharashtra,Pune,"Savitribai Phule Pune University, Pune - MPCB",22-06-2024 06:00:00,18.547056,73.826908,CO,11,20,13
India,Maharashtra,Pune,"Transport Nagar-Nigdi, Pune - IITM",22-06-2024 06:00:00,18.664282,73.763966,OZONE,16,50,28
India,Maharashtra,Sangli,"Vijay Nagar, Sangli - MPCB",22-06-2024 06:00:00, 16.5038,74.3623,NO2,10,19,14
India,Maharashtra,Sangli,"Vijay Nagar, Sangli - MPCB",22-06-2024 06:00:00, 16.5038,74.3623,SO2,9,14,12
India,Maharashtra,Solapur,"Dnyaneshwar Nagar, Solapur - MPCB",22-06-2024 06:00:00,17.6336264,75.9132495,PM2.5,NA,NA,NA
India,Maharashtra,Solapur,"Dnyaneshwar Nagar, Solapur - MPCB",22-06-2024 06:00:00,17.6336264,75.9132495,SO2,NA,NA,NA
India,Maharashtra,Solapur,"Ratandeep Housing Society, Solapur - MPCB",22-06-2024 06:00:00,17.65439,75.90649,NO2,1,10,3
India,Maharashtra,Solapur,"Solapur, Solapur - MPCB",22-06-2024 06:00:00,17.6599188,75.9063906,PM10,88,94,93
India,Maharashtra,Thane,"Kasarvadavali, Thane - MPCB",22-06-2024 06:00:00,19.26777,72.97182,NO2,4,18,11
India,Maharashtra,Thane,"Kasarvadavali, Thane - MPCB",22-06-2024 06:00:00,19.26777,72.97182,NH3,3,6,4
India,Maharashtra,Thane,"Kasarvadavali, Thane - MPCB",22-06-2024 06:00:00,19.26777,72.97182,SO2,3,6,5
India,Maharashtra,Thane,"Pimpleshwar Mandir, Thane - MPCB",22-06-2024 06:00:00,19.192056,72.9585188,NO2,13,13,13
India,Maharashtra,Thane,"Pimpleshwar Mandir, Thane - MPCB",22-06-2024 06:00:00,19.192056,72.9585188,CO,1,105,27
India,Maharashtra,Thane,"Upvan Fort, Thane - MPCB",22-06-2024 06:00:00,19.222279,72.957979,PM10,18,40,31
India,Maharashtra,Thane,"Upvan Fort, Thane - MPCB",22-06-2024 06:00:00,19.222279,72.957979,NO2,4,26,11
India,Maharashtra,Thane,"Upvan Fort, Thane - MPCB",22-06-2024 06:00:00,19.222279,72.957979,SO2,4,7,5
India,Maharashtra,Ulhasnagar,"Sidhi Vinayak Nagar, Ulhasnagar - MPCB",22-06-2024 06:00:00,19.235581,73.159121,CO,14,54,25
India,Maharashtra,Virar,"Bolinj, Virar - MPCB",22-06-2024 06:00:00,19.4458210,72.7988231,PM10,51,92,82
India,Maharashtra,Virar,"Bolinj, Virar - MPCB",22-06-2024 06:00:00,19.4458210,72.7988231,NH3,5,9,8
India,Maharashtra,Virar,"Bolinj, Virar - MPCB",22-06-2024 06:00:00,19.4458210,72.7988231,OZONE,8,38,15
India,Manipur,Imphal,"DM College of Science, Imphal - Manipur PCB",22-06-2024 06:00:00,24.8207389,93.9423085,NH3,2,2,2
India,Manipur,Imphal,"Manipur University, Imphal - Manipur PCB",22-06-2024 06:00:00,24.7524239,93.9286218,SO2,99,102,100
India,Mizoram,Aizawl,"Sikulpuikawn, Aizawl - Mizoram PCB",22-06-2024 06:00:00,23.7176342,92.7192841,PM10,1,42,20
India,Nagaland,Kohima,"PWD Juction, Kohima - NPCB",22-06-2024 06:00:00,25.6635413,94.0989878,CO,4,16,12
India,Odisha,Angul,"Hakimapada, Angul - OSPCB",22-06-2024 06:00:00,20.832874,85.104082,SO2,3,40,10
India,Odisha,Balasore,"Kalidaspur, Balasore - OSPCB",22-06-2024 06:00:00,21.51161,86.89088,SO2,14,23,16
India,Odisha,Balasore,"Kalidaspur, Balasore - OSPCB",22-06-2024 06:00:00,21.51161,86.89088,CO,42,112,71
India,Odisha,Barbil,"Forest Office, Barbil - OSPCB",22-06-2024 06:00:00,22.1166054,85.3945546,PM10,34,217,104
India,Odisha,Barbil,"Forest Office, Barbil - OSPCB",22-06-2024 06:00:00,22.1166054,85.3945546,OZONE,1,119,6
India,Odisha,Baripada,"Meher Colony, Baripada - OSPCB",22-06-2024 06:00:00,21.941841,86.728318,SO2,5,18,12
India,Odisha,Baripada,"Meher Colony, Baripada - OSPCB",22-06-2024 06:00:00,21.941841,86.728318,CO,12,31,18
India,Odisha,Baripada,"Meher Colony, Baripada - OSPCB",22-06-2024 06:00:00,21.941841,86.728318,OZONE,40,104,71
India,Odisha,Bhubaneswar,"Patia, Bhubaneswar - OSPCB",22-06-2024 06:00:00,20.34652,85.81630,PM10,8,30,18
India,Odisha,Bhubaneswar,"Patia, Bhubaneswar - OSPCB",22-06-2024 06:00:00,20.34652,85.81630,NH3,1,2,1
India,Odisha,Bileipada,"Tata Township, Bileipada - OSPCB",22-06-2024 06:00:00,22.06156703,85.47409613,NO2,5,9,7
India,Odisha,Brajrajnagar,"GM Office, Brajrajnagar - OSPCB",22-06-2024 06:00:00,21.8004996,83.8396977,NO2,20,42,21
India,Odisha,Byasanagar,"Ferro Chrome Colony, Byasanagar - OSPCB",22-06-2024 06:00:00,20.94185,86.11510,PM2.5,2,63,27
India,Odisha,Byasanagar,"Ferro Chrome Colony, Byasanagar - OSPCB",22-06-2024 06:00:00,20.94185,86.11510,CO,22,41,29
India,Odisha,Cuttack,"CDA Area, Cuttack - OSPCB",22-06-2024 06:00:00,20.48891     ,85.84768     ,NH3,NA,NA,NA
India,Odisha,Keonjhar,"Jagamohanpur, Keonjhar - OSPCB",22-06-2024 06:00:00,21.643900,85.599355,PM2.5,14,35,27
India,Odisha,Nayagarh,"Dabuna, Nayagarh - OSPCB",22-06-2024 06:00:00,21.847279,85.416905,PM2.5,NA,NA,NA
India,Odisha,Rairangpur,"Divisional Forest Office, Rairangpur - OSPCB",22-06-2024 06:00:00,22.265816,86.174829,PM2.5,29,69,44
India,Odisha,Rairangpur,"Divisional Forest Office, Rairangpur - OSPCB",22-06-2024 06:00:00,22.265816,86.174829,CO,10,21,14
India,Odisha,Rourkela,"Fertilizer Township, Rourkela - OSPCB",22-06-2024 06:00:00,22.18972222,84.86277778,SO2,11,14,12
India,Odisha,Rourkela,"Raghunathpali, Rourkela - OSPCB",22-06-2024 06:00:00,22.220833,84.809444,SO2,7,8,7
India,Odisha,Rourkela,"Sector-2, Rourkela - OSPCB",22-06-2024 06:00:00,22.24500000,84.88111111,PM2.5,NA,NA,NA
India,Odisha,Rourkela,"Sector-2, Rourkela - OSPCB",22-06-2024 06:00:00,22.24500000,84.88111111,PM10,NA,NA,NA
India,Odisha,Suakati,"OMC Colony, Suakati - OSPCB",22-06-2024 06:00:00,21.606865,85.510538,NO2,11,13,12
India,Odisha,Talcher,"Talcher Coalfields,Talcher - OSPCB",22-06-2024 06:00:00,20.9360711,85.1707021,SO2,20,31,24
India,Puducherry,Puducherry,"Jawahar Nagar, Puducherry - PPCC",22-06-2024 06:00:00,11.9309,79.8027,PM2.5,2,48,24
India,Puducherry,Puducherry,"Jawahar Nagar, Puducherry - PPCC",22-06-2024 06:00:00,11.9309,79.8027,SO2,8,15,11
India,Punjab,Amritsar,"Golden Temple, Amritsar - PPCB",22-06-2024 06:00:00,31.620000,74.876512,NH3,6,9,7
India,Punjab,Amritsar,"Golden Temple, Amritsar - PPCB",22-06-2024 06:00:00,31.620000,74.876512,SO2,4,23,12
India,Punjab,Bathinda,"Hardev Nagar, Bathinda - PPCB",22-06-2024 06:00:00,30.233011,74.907758,PM2.5,9,74,38
India,Punjab,Jalandhar,"Civil Line, Jalandhar - PPCB",22-06-2024 06:00:00,31.321907,75.578914,OZONE,16,94,27
India,Punjab,Khanna,"Kalal Majra, Khanna - PPCB",22-06-2024 06:00:00,30.736056 ,76.209694,PM2.5,70,238,97
India,Punjab,Khanna,"Kalal Majra, Khanna - PPCB",22-06-2024 06:00:00,30.736056 ,76.209694,CO,30,46,40
India,Punjab,Ludhiana,"Punjab Agricultural University, Ludhiana - PPCB",22-06-2024 06:00:00,30.9028,75.8086,OZONE,14,45,20
India,Punjab,Mandi Gobindgarh,"RIMT University, Mandi Gobindgarh - PPCB",22-06-2024 06:00:00,30.649961,76.331442,SO2,8,20,12
India,Punjab,Mandi Gobindgarh,"RIMT University, Mandi Gobindgarh - PPCB",22-06-2024 06:00:00,30.649961,76.331442,OZONE,47,51,50
India,Punjab,Patiala,"Model Town, Patiala - PPCB",22-06-2024 06:00:00,30.349388,76.366642,NH3,4,5,5
India,Punjab,Rupnagar,"Ratanpura, Rupnagar - Ambuja Cements",22-06-2024 06:00:00,31.0325454,76.5623046,PM2.5,18,42,30
India,Rajasthan,Ajmer,"Civil Lines,  Ajmer - RSPCB",22-06-2024 06:00:00,26.470859,74.646594,NH3,5,5,5
India,Rajasthan,Alwar,"Moti Doongri, Alwar - RSPCB",22-06-2024 06:00:00,27.554793,76.611536,OZONE,11,69,12
India,Rajasthan,Baran,"Bamboliya, Baran - RSPCB",22-06-2024 06:00:00,25.106006,76.469948,NO2,12,42,22
India,Rajasthan,Barmer,"Railway Colony, Barmer - RSPCB",22-06-2024 06:00:00,25.747299,71.393989,PM2.5,22,83,40
India,Rajasthan,Barmer,"Railway Colony, Barmer - RSPCB",22-06-2024 06:00:00,25.747299,71.393989,NO2,4,19,8
India,Rajasthan,Barmer,"Railway Colony, Barmer - RSPCB",22-06-2024 06:00:00,25.747299,71.393989,NH3,3,15,6
India,Rajasthan,Bharatpur,"Krishna Nagar, Bharatpur - RSPCB",22-06-2024 06:00:00,27.215415,77.50873,NO2,5,51,20
India,Rajasthan,Bharatpur,"Krishna Nagar, Bharatpur - RSPCB",22-06-2024 06:00:00,27.215415,77.50873,OZONE,10,134,34
India,Rajasthan,Bhiwadi,"RIICO Ind. Area III, Bhiwadi - RSPCB",22-06-2024 06:00:00,28.194909,76.862296,PM10,78,208,135
India,Rajasthan,Bhiwadi,"RIICO Ind. Area III, Bhiwadi - RSPCB",22-06-2024 06:00:00,28.194909,76.862296,CO,5,113,59
India,Rajasthan,Bikaner,"MM Ground, Bikaner - RSPCB",22-06-2024 06:00:00,28.018792,73.292658,OZONE,19,60,43
India,Rajasthan,Dausa,"Khatikan Mohalla, Dausa - RSPCB",22-06-2024 06:00:00,26.895552,76.334753,PM10,26,176,95
India,Rajasthan,Dausa,"Khatikan Mohalla, Dausa - RSPCB",22-06-2024 06:00:00,26.895552,76.334753,SO2,1,6,4
India,Rajasthan,Dausa,"Khatikan Mohalla, Dausa - RSPCB",22-06-2024 06:00:00,26.895552,76.334753,CO,4,105,41
India,Rajasthan,Dholpur,"Raja Ganj, Dholpur - RSPCB",22-06-2024 06:00:00,26.699557,77.898881,CO,2,21,10
India,Rajasthan,Dholpur,"Raja Ganj, Dholpur - RSPCB",22-06-2024 06:00:00,26.699557,77.898881,OZONE,14,147,29
India,Rajasthan,Dungarpur,"Bhoiwada, Dungarpur - RSPCB",22-06-2024 06:00:00,23.837789,73.714926,PM2.5,22,65,43
India,Rajasthan,Dungarpur,"Bhoiwada, Dungarpur - RSPCB",22-06-2024 06:00:00,23.837789,73.714926,PM10,42,111,78
India,Rajasthan,Dungarpur,"Bhoiwada, Dungarpur - RSPCB",22-06-2024 06:00:00,23.837789,73.714926,NO2,5,10,7
India,Rajasthan,Dungarpur,"Bhoiwada, Dungarpur - RSPCB",22-06-2024 06:00:00,23.837789,73.714926,CO,4,56,29
India,Rajasthan,Dungarpur,"Bhoiwada, Dungarpur - RSPCB",22-06-2024 06:00:00,23.837789,73.714926,OZONE,30,79,57
India,Rajasthan,Jaipur,"Adarsh Nagar, Jaipur - RSPCB",22-06-2024 06:00:00,26.902909,75.836858,OZONE,8,69,14
India,Rajasthan,Jaipur,"Police Commissionerate, Jaipur - RSPCB",22-06-2024 06:00:00,26.9164092,75.7994901,NO2,9,17,12
India,Rajasthan,Jaipur,"Police Commissionerate, Jaipur - RSPCB",22-06-2024 06:00:00,26.9164092,75.7994901,CO,22,80,44
India,Rajasthan,Jaipur,"Police Commissionerate, Jaipur - RSPCB",22-06-2024 06:00:00,26.9164092,75.7994901,OZONE,12,98,28
India,Rajasthan,Jaipur,"RIICO Sitapura, Jaipur - RSPCB",22-06-2024 06:00:00,26.786682,75.827928,SO2,7,10,9
India,Rajasthan,Jaipur,"Sector-2 Murlipura, Jaipur - RSPCB",22-06-2024 06:00:00,26.960669,75.771817,NO2,12,84,43
India,Rajasthan,Jaipur,"Sector-2 Murlipura, Jaipur - RSPCB",22-06-2024 06:00:00,26.960669,75.771817,CO,20,78,52
India,Rajasthan,Jaipur,"Sector-2 Murlipura, Jaipur - RSPCB",22-06-2024 06:00:00,26.960669,75.771817,OZONE,3,75,8
India,Rajasthan,Jaisalmer,"Sadar Bazar, Jaisalmer - RSPCB",22-06-2024 06:00:00,26.912329,70.909168,PM10,87,454,170
India,Rajasthan,Jalore,"Mudtra Sili, Jalore - RSPCB",22-06-2024 06:00:00,25.344694,72.626208,PM2.5,37,68,50
India,Rajasthan,Jalore,"Mudtra Sili, Jalore - RSPCB",22-06-2024 06:00:00,25.344694,72.626208,NO2,4,26,9
India,Rajasthan,Jalore,"Mudtra Sili, Jalore - RSPCB",22-06-2024 06:00:00,25.344694,72.626208,SO2,3,4,3
India,Rajasthan,Jhalawar,"Rajlaxmi Nagar, Jhalawar - RSPCB",22-06-2024 06:00:00,24.588397,76.172782,NH3,1,2,2
India,Rajasthan,Jhunjhunu,"Indra Nagar, Jhunjhunu - RSPCB",22-06-2024 06:00:00,28.108988,75.386577,NO2,22,39,30
India,Rajasthan,Jhunjhunu,"Indra Nagar, Jhunjhunu - RSPCB",22-06-2024 06:00:00,28.108988,75.386577,NH3,26,34,30
India,Rajasthan,Jhunjhunu,"Indra Nagar, Jhunjhunu - RSPCB",22-06-2024 06:00:00,28.108988,75.386577,SO2,2,3,2
India,Rajasthan,Jodhpur,"Collectorate, Jodhpur - RSPCB",22-06-2024 06:00:00,26.268249,73.0193853,PM2.5,24,99,66
India,Rajasthan,Jodhpur,"Digari Kalan, Jodhpur - RSPCB",22-06-2024 06:00:00,26.295810,73.082283,CO,15,28,18
India,Rajasthan,Jodhpur,"Jhalamand, Jodhpur - RSPCB",22-06-2024 06:00:00,26.215415,73.070156,PM2.5,21,98,47
India,Rajasthan,Jodhpur,"Jhalamand, Jodhpur - RSPCB",22-06-2024 06:00:00,26.215415,73.070156,PM10,41,184,106
India,Rajasthan,Jodhpur,"Jhalamand, Jodhpur - RSPCB",22-06-2024 06:00:00,26.215415,73.070156,NO2,2,36,6
India,Rajasthan,Jodhpur,"Mandor, Jodhpur - RSPCB",22-06-2024 06:00:00,26.358805,73.047444,NO2,10,28,18
India,Rajasthan,Jodhpur,"Samrat Ashok Udhyan, Jodhpur - RSPCB",22-06-2024 06:00:00,26.253384,72.976571,PM10,42,172,120
India,Rajasthan,Jodhpur,"Samrat Ashok Udhyan, Jodhpur - RSPCB",22-06-2024 06:00:00,26.253384,72.976571,SO2,2,5,3
India,Rajasthan,Karauli,"Satyawati Vihar, Karauli - RSPCB",22-06-2024 06:00:00,26.506177,77.025989,NO2,11,20,14
India,Rajasthan,Kota,"Shrinath Puram, Kota - RSPCB",22-06-2024 06:00:00,25.14389,75.821256,PM2.5,17,63,37
India,Rajasthan,Kota,"Shrinath Puram, Kota - RSPCB",22-06-2024 06:00:00,25.14389,75.821256,PM10,20,91,51
India,Rajasthan,Kota,"Shrinath Puram, Kota - RSPCB",22-06-2024 06:00:00,25.14389,75.821256,NO2,13,37,24
India,Rajasthan,Kota,"Shrinath Puram, Kota - RSPCB",22-06-2024 06:00:00,25.14389,75.821256,NH3,4,11,6
India,Rajasthan,Kota,"Shrinath Puram, Kota - RSPCB",22-06-2024 06:00:00,25.14389,75.821256,SO2,3,13,7
India,Rajasthan,Kota,"Shrinath Puram, Kota - RSPCB",22-06-2024 06:00:00,25.14389,75.821256,OZONE,28,62,33
India,Rajasthan,Nagaur,"Karni Colony, Nagaur - RSPCB",22-06-2024 06:00:00,27.213494,73.734444,NH3,2,39,8
India,Rajasthan,Nagaur,"Karni Colony, Nagaur - RSPCB",22-06-2024 06:00:00,27.213494,73.734444,SO2,3,7,4
India,Rajasthan,Nagaur,"Karni Colony, Nagaur - RSPCB",22-06-2024 06:00:00,27.213494,73.734444,OZONE,11,76,40
India,Rajasthan,Pali,"Indira Colony Vistar, Pali - RSPCB",22-06-2024 06:00:00,25.771061, 73.340227,NO2,21,36,27
India,Rajasthan,Pali,"Indira Colony Vistar, Pali - RSPCB",22-06-2024 06:00:00,25.771061, 73.340227,NH3,2,7,3
India,Rajasthan,Rajsamand,"Dhoinda, Rajsamand - RSPCB",22-06-2024 06:00:00,25.036360,73.883502,PM2.5,10,48,23
India,Rajasthan,Rajsamand,"Dhoinda, Rajsamand - RSPCB",22-06-2024 06:00:00,25.036360,73.883502,CO,16,39,17
India,Rajasthan,Sikar,"Radhakishan Pura, Sikar - RSPCB",22-06-2024 06:00:00,27.608912,75.153302,PM2.5,12,71,37
India,Rajasthan,Sikar,"Radhakishan Pura, Sikar - RSPCB",22-06-2024 06:00:00,27.608912,75.153302,SO2,2,4,2
India,Rajasthan,Sirohi,"Vedhaynath Colony, Sirohi - RSPCB",22-06-2024 06:00:00,24.885261,72.857549,PM2.5,14,58,34
India,Rajasthan,Sri Ganganagar,"Old City, Sri Ganganagar - RSPCB",22-06-2024 06:00:00,29.931624,73.864511,PM2.5,43,140,78
India,Rajasthan,Sri Ganganagar,"Old City, Sri Ganganagar - RSPCB",22-06-2024 06:00:00,29.931624,73.864511,SO2,1,7,3
India,Rajasthan,Tonk,"Shastri Nagar, Tonk - RSPCB",22-06-2024 06:00:00,26.159933,75.780517,CO,6,20,17
India,Rajasthan,Tonk,"Shastri Nagar, Tonk - RSPCB",22-06-2024 06:00:00,26.159933,75.780517,OZONE,8,52,18
India,Rajasthan,Udaipur,"Ashok Nagar, Udaipur - RSPCB",22-06-2024 06:00:00,24.5886166,73.6321397,SO2,2,18,8
India,Sikkim,Gangtok,"Zero Point GICI, Gangtok - SSPCB",22-06-2024 06:00:00,27.338530,88.614099,PM2.5,NA,NA,NA
India,TamilNadu,Ariyalur,"Keelapalur, Ariyalur - TNPCB",22-06-2024 06:00:00,11.06825,79.07033,PM10,13,176,47
India,TamilNadu,Chennai,"Alandur Bus Depot, Chennai - CPCB",22-06-2024 06:00:00,12.9099161,80.1076538,NH3,4,12,6
India,TamilNadu,Chennai,"Kodungaiyur, Chennai - TNPCB",22-06-2024 06:00:00,13.1278,80.2642,NH3,3,4,3
India,TamilNadu,Chennai,"Perungudi, Chennai - TNPCB",22-06-2024 06:00:00,12.9533,80.2357,SO2,2,10,6
India,TamilNadu,Chennai,"Royapuram, Chennai - TNPCB",22-06-2024 06:00:00,13.1036,80.2909,PM10,33,107,64
India,TamilNadu,Chennai,"Royapuram, Chennai - TNPCB",22-06-2024 06:00:00,13.1036,80.2909,NH3,1,3,2
India,TamilNadu,Chennai,"Royapuram, Chennai - TNPCB",22-06-2024 06:00:00,13.1036,80.2909,SO2,1,17,5
India,TamilNadu,Chennai,"Royapuram, Chennai - TNPCB",22-06-2024 06:00:00,13.1036,80.2909,CO,24,69,36
India,TamilNadu,Chennai,"Royapuram, Chennai - TNPCB",22-06-2024 06:00:00,13.1036,80.2909,OZONE,4,9,7
India,TamilNadu,Chennai,"Velachery Res. Area, Chennai - CPCB",22-06-2024 06:00:00,13.0052189,80.2398125,PM2.5,26,53,38
India,TamilNadu,Chennai,"Velachery Res. Area, Chennai - CPCB",22-06-2024 06:00:00,13.0052189,80.2398125,NH3,13,19,17
India,TamilNadu,Chennai,"Velachery Res. Area, Chennai - CPCB",22-06-2024 06:00:00,13.0052189,80.2398125,CO,55,56,55
India,TamilNadu,Coimbatore,"PSG College of Arts and Science, Coimbatore - TNPCB",22-06-2024 06:00:00,11.0328,77.0349,SO2,35,43,40
India,TamilNadu,Coimbatore,"PSG College of Arts and Science, Coimbatore - TNPCB",22-06-2024 06:00:00,11.0328,77.0349,OZONE,4,5,4
India,TamilNadu,Gummidipoondi,"Anthoni Pillai Nagar, Gummidipoondi - TNPCB",22-06-2024 06:00:00,13.4127,80.1081,SO2,3,63,25
India,TamilNadu,Ramanathapuram,"Chalai Bazaar, Ramanathapuram - TNPCB",22-06-2024 06:00:00,9.36399,78.831977,SO2,8,11,9
India,TamilNadu,Tirupur,"Kumaran College, Tirupur - TNPCB",22-06-2024 06:00:00,11.0973603,77.3228673,CO,18,32,22
India,TamilNadu,Vellore,"Vasanthapuram, Vellore - TNPCB",22-06-2024 06:00:00,12.909494,79.131861,PM2.5,NA,NA,NA
India,TamilNadu,Vellore,"Vasanthapuram, Vellore - TNPCB",22-06-2024 06:00:00,12.909494,79.131861,CO,NA,NA,NA
India,TamilNadu,Vellore,"Vasanthapuram, Vellore - TNPCB",22-06-2024 06:00:00,12.909494,79.131861,OZONE,NA,NA,NA
India,TamilNadu,Virudhunagar,"Collectorate Office, Virudhunagar - TNPCB",22-06-2024 06:00:00,9.559382,77.948828,PM2.5,NA,NA,NA
India,TamilNadu,Virudhunagar,"Collectorate Office, Virudhunagar - TNPCB",22-06-2024 06:00:00,9.559382,77.948828,CO,70,77,76
India,Telangana,Hyderabad,"Bollaram Industrial Area, Hyderabad - TSPCB",22-06-2024 06:00:00,17.540891,78.358528,NH3,2,5,3
India,Telangana,Hyderabad,"Bollaram Industrial Area, Hyderabad - TSPCB",22-06-2024 06:00:00,17.540891,78.358528,CO,2,95,24
India,Telangana,Hyderabad,"Central University, Hyderabad - TSPCB",22-06-2024 06:00:00,17.460103,78.334361,PM10,19,78,40
India,Telangana,Hyderabad,"Central University, Hyderabad - TSPCB",22-06-2024 06:00:00,17.460103,78.334361,NH3,2,6,4
India,Telangana,Hyderabad,"IDA Pashamylaram, Hyderabad - TSPCB",22-06-2024 06:00:00,17.5316895,78.218939,NO2,31,48,40
India,Telangana,Hyderabad,"IDA Pashamylaram, Hyderabad - TSPCB",22-06-2024 06:00:00,17.5316895,78.218939,NH3,NA,NA,NA
India,Telangana,Hyderabad,"IITH Kandi, Hyderabad - TSPCB",22-06-2024 06:00:00,17.585705,78.126199,SO2,NA,NA,NA
India,Telangana,Hyderabad,"IITH Kandi, Hyderabad - TSPCB",22-06-2024 06:00:00,17.585705,78.126199,CO,1,16,7
India,Telangana,Hyderabad,"Kokapet, Hyderabad - TSPCB",22-06-2024 06:00:00,17.393559,78.339194,SO2,8,10,10
India,Telangana,Hyderabad,"Kompally Municipal Office, Hyderabad - TSPCB",22-06-2024 06:00:00,17.544899,78.486949,PM10,52,64,56
India,Telangana,Hyderabad,"Kompally Municipal Office, Hyderabad - TSPCB",22-06-2024 06:00:00,17.544899,78.486949,NO2,11,12,11
India,Telangana,Hyderabad,"Nacharam_TSIIC IALA, Hyderabad - TSPCB",22-06-2024 06:00:00,17.429398,78.569354,SO2,13,27,20
India,Telangana,Hyderabad,"Nacharam_TSIIC IALA, Hyderabad - TSPCB",22-06-2024 06:00:00,17.429398,78.569354,CO,32,45,44
India,Telangana,Hyderabad,"New Malakpet, Hyderabad - TSPCB",22-06-2024 06:00:00,17.37206,78.50864,CO,6,86,12
India,Telangana,Hyderabad,"Ramachandrapuram, Hyderabad - TSPCB",22-06-2024 06:00:00,17.528544,78.286195,PM10,78,84,82
India,Telangana,Hyderabad,"Ramachandrapuram, Hyderabad - TSPCB",22-06-2024 06:00:00,17.528544,78.286195,CO,36,43,42
India,Telangana,Hyderabad,"Sanathnagar, Hyderabad - TSPCB",22-06-2024 06:00:00,17.4559458,78.4332152,OZONE,15,18,17
India,Telangana,Hyderabad,"Somajiguda, Hyderabad - TSPCB",22-06-2024 06:00:00,17.417094,78.457437,SO2,NA,NA,NA
India,Telangana,Hyderabad,"Zoo Park, Hyderabad - TSPCB",22-06-2024 06:00:00,17.349694,78.451437,PM10,NA,NA,NA
India,Telangana,Hyderabad,"Zoo Park, Hyderabad - TSPCB",22-06-2024 06:00:00,17.349694,78.451437,NH3,1,2,1
India,Tripura,Agartala,"Bardowali, Agartala - Tripura SPCB",22-06-2024 06:00:00,23.8175497,91.2726974,CO,10,60,20
India,Uttar_Pradesh,Agra,"Manoharpur, Agra - UPPCB",22-06-2024 06:00:00,27.23711,78.01936,CO,6,8,8
India,Uttar_Pradesh,Agra,"Rohta, Agra - UPPCB",22-06-2024 06:00:00,27.106972,78.000111,SO2,4,6,5
India,Uttar_Pradesh,Agra,"Rohta, Agra - UPPCB",22-06-2024 06:00:00,27.106972,78.000111,CO,5,10,9
India,Uttar_Pradesh,Agra,"Sanjay Palace, Agra - UPPCB",22-06-2024 06:00:00,27.19865833,78.00598056,PM10,23,52,33
India,Uttar_Pradesh,Agra,"Shahjahan Garden, Agra - UPPCB",22-06-2024 06:00:00,27.169338,78.03582,PM2.5,27,53,38
India,Uttar_Pradesh,Agra,"Shahjahan Garden, Agra - UPPCB",22-06-2024 06:00:00,27.169338,78.03582,NH3,1,1,1
India,Uttar_Pradesh,Agra,"Shastripuram, Agra - UPPCB",22-06-2024 06:00:00,27.19862,77.92066,PM2.5,NA,NA,NA
India,Uttar_Pradesh,Agra,"Shastripuram, Agra - UPPCB",22-06-2024 06:00:00,27.19862,77.92066,NH3,4,20,5
India,Uttar_Pradesh,Agra,"Shastripuram, Agra - UPPCB",22-06-2024 06:00:00,27.19862,77.92066,CO,6,12,7
India,Uttar_Pradesh,Baghpat,"Sardar Patel Inter College, Baghpat - UPPCB",22-06-2024 06:00:00,28.964949,77.278761,PM10,16,340,130
India,Uttar_Pradesh,Bareilly,"Rajendra Nagar, Bareilly - UPPCB",22-06-2024 06:00:00,28.38910936,79.42963708,PM2.5,NA,NA,NA
India,Uttar_Pradesh,Bareilly,"Rajendra Nagar, Bareilly - UPPCB",22-06-2024 06:00:00,28.38910936,79.42963708,PM10,NA,NA,NA
India,Uttar_Pradesh,Firozabad,"Nagla Bhau, Firozabad - UPPCB",22-06-2024 06:00:00,27.168897,78.376960,CO,8,32,30
India,Uttar_Pradesh,Firozabad,"Vibhab Nagar, Firozabad - UPPCB",22-06-2024 06:00:00,27.1594,78.3953,SO2,NA,NA,NA
India,Uttar_Pradesh,Ghaziabad,"Indirapuram, Ghaziabad - UPPCB",22-06-2024 06:00:00,28.646233,77.358075,NH3,13,29,16
India,Uttar_Pradesh,Ghaziabad,"Loni, Ghaziabad - UPPCB",22-06-2024 06:00:00,28.757294,77.278792,SO2,2,47,22
India,Uttar_Pradesh,Ghaziabad,"Loni, Ghaziabad - UPPCB",22-06-2024 06:00:00,28.757294,77.278792,CO,17,102,69
India,Uttar_Pradesh,Ghaziabad,"Sanjay Nagar, Ghaziabad - UPPCB",22-06-2024 06:00:00,28.685382,77.453839,PM2.5,20,314,87
India,Uttar_Pradesh,Ghaziabad,"Sanjay Nagar, Ghaziabad - UPPCB",22-06-2024 06:00:00,28.685382,77.453839,SO2,5,37,15
India,Uttar_Pradesh,Gorakhpur,"Madan Mohan Malaviya University of Technology, Gorakhpur - UPPCB",22-06-2024 06:00:00,26.730136,83.433859,NO2,11,11,11
India,Uttar_Pradesh,Gorakhpur,"Madan Mohan Malaviya University of Technology, Gorakhpur - UPPCB",22-06-2024 06:00:00,26.730136,83.433859,SO2,20,22,21
India,Uttar_Pradesh,Gorakhpur,"Madan Mohan Malaviya University of Technology, Gorakhpur - UPPCB",22-06-2024 06:00:00,26.730136,83.433859,CO,4,16,6
India,Uttar_Pradesh,Gorakhpur,"Madan Mohan Malaviya University of Technology, Gorakhpur - UPPCB",22-06-2024 06:00:00,26.730136,83.433859,OZONE,11,13,12
India,Uttar_Pradesh,Greater Noida,"Knowledge Park - III, Greater Noida - UPPCB",22-06-2024 06:00:00,28.47272,77.482000,NH3,9,19,13
India,Uttar_Pradesh,Greater Noida,"Knowledge Park - III, Greater Noida - UPPCB",22-06-2024 06:00:00,28.47272,77.482000,SO2,5,14,9
India,Uttar_Pradesh,Greater Noida,"Knowledge Park - III, Greater Noida - UPPCB",22-06-2024 06:00:00,28.47272,77.482000,CO,19,78,55
India,Uttar_Pradesh,Greater Noida,"Knowledge Park - III, Greater Noida - UPPCB",22-06-2024 06:00:00,28.47272,77.482000,OZONE,5,100,12
India,Uttar_Pradesh,Hapur,"Anand Vihar, Hapur - UPPCB",22-06-2024 06:00:00,28.725645,77.749675,PM2.5,19,127,57
India,Uttar_Pradesh,Hapur,"Anand Vihar, Hapur - UPPCB",22-06-2024 06:00:00,28.725645,77.749675,NO2,10,82,39
India,Uttar_Pradesh,Hapur,"Anand Vihar, Hapur - UPPCB",22-06-2024 06:00:00,28.725645,77.749675,SO2,1,43,10
India,Uttar_Pradesh,Kanpur,"FTI Kidwai Nagar, Kanpur - UPPCB",22-06-2024 06:00:00,26.428282,80.327067,NH3,3,6,4
India,Uttar_Pradesh,Kanpur,"FTI Kidwai Nagar, Kanpur - UPPCB",22-06-2024 06:00:00,26.428282,80.327067,OZONE,18,73,29
India,Uttar_Pradesh,Kanpur,"NSI Kalyanpur, Kanpur - UPPCB",22-06-2024 06:00:00,26.509954,80.249612,NH3,1,1,1
India,Uttar_Pradesh,Kanpur,"Nehru Nagar, Kanpur - UPPCB",22-06-2024 06:00:00,26.4703136,80.3229863,PM10,20,54,38
India,Uttar_Pradesh,Kanpur,"Nehru Nagar, Kanpur - UPPCB",22-06-2024 06:00:00,26.4703136,80.3229863,NO2,31,51,44
India,Uttar_Pradesh,Lucknow,"B R Ambedkar University, Lucknow - UPPCB",22-06-2024 06:00:00,26.766433,80.927299,PM2.5,34,108,55
India,Uttar_Pradesh,Lucknow,"B R Ambedkar University, Lucknow - UPPCB",22-06-2024 06:00:00,26.766433,80.927299,CO,24,28,26
India,Uttar_Pradesh,Lucknow,"Gomti Nagar, Lucknow - UPPCB",22-06-2024 06:00:00,26.868120,81.005119,PM2.5,15,76,43
India,Uttar_Pradesh,Lucknow,"Gomti Nagar, Lucknow - UPPCB",22-06-2024 06:00:00,26.868120,81.005119,PM10,8,86,51
India,Uttar_Pradesh,Lucknow,"Gomti Nagar, Lucknow - UPPCB",22-06-2024 06:00:00,26.868120,81.005119,NO2,10,11,11
India,Uttar_Pradesh,Lucknow,"Kendriya Vidyalaya, Lucknow - CPCB",22-06-2024 06:00:00,26.906111,80.948222,CO,21,48,30
India,Uttar_Pradesh,Lucknow,"Kukrail Picnic Spot-1, Lucknow - UPPCB",22-06-2024 06:00:00,26.90723,80.98579,NO2,13,14,13
India,Uttar_Pradesh,Lucknow,"Kukrail Picnic Spot-1, Lucknow - UPPCB",22-06-2024 06:00:00,26.90723,80.98579,OZONE,13,35,22
India,Uttar_Pradesh,Lucknow,"Talkatora District Industries Center, Lucknow - CPCB",22-06-2024 06:00:00,26.83399722,80.8917361,NO2,11,13,12
India,Uttar_Pradesh,Meerut,"Ganga Nagar, Meerut - UPPCB",22-06-2024 06:00:00,28.999264,77.7590354,PM2.5,15,83,51
India,Uttar_Pradesh,Meerut,"Ganga Nagar, Meerut - UPPCB",22-06-2024 06:00:00,28.999264,77.7590354,OZONE,1,41,6
India,Uttar_Pradesh,Meerut,"Jai Bhim Nagar, Meerut - UPPCB",22-06-2024 06:00:00,28.9535882,77.7622941,NO2,NA,NA,NA
India,Uttar_Pradesh,Meerut,"Jai Bhim Nagar, Meerut - UPPCB",22-06-2024 06:00:00,28.9535882,77.7622941,NH3,NA,NA,NA
India,Uttar_Pradesh,Moradabad,"Buddhi Vihar, Moradabad - UPPCB",22-06-2024 06:00:00,28.83526,78.74460,SO2,21,28,24
India,Uttar_Pradesh,Moradabad,"Buddhi Vihar, Moradabad - UPPCB",22-06-2024 06:00:00,28.83526,78.74460,CO,22,28,27
India,Uttar_Pradesh,Moradabad,"Buddhi Vihar, Moradabad - UPPCB",22-06-2024 06:00:00,28.83526,78.74460,OZONE,2,27,6
India,Uttar_Pradesh,Moradabad,"Eco Herbal Park, Moradabad - UPPCB",22-06-2024 06:00:00,28.840739,78.697531,PM10,49,96,71
India,Uttar_Pradesh,Moradabad,"Eco Herbal Park, Moradabad - UPPCB",22-06-2024 06:00:00,28.840739,78.697531,SO2,7,38,23
India,Uttar_Pradesh,Moradabad,"Eco Herbal Park, Moradabad - UPPCB",22-06-2024 06:00:00,28.840739,78.697531,OZONE,5,184,12
India,Uttar_Pradesh,Moradabad,"Employment Office, Moradabad - UPPCB",22-06-2024 06:00:00,28.88528,78.73880,PM2.5,39,75,54
India,Uttar_Pradesh,Moradabad,"Employment Office, Moradabad - UPPCB",22-06-2024 06:00:00,28.88528,78.73880,CO,10,31,27
India,Uttar_Pradesh,Moradabad,"Kashiram Nagar, Moradabad - UPPCB",22-06-2024 06:00:00,28.849399,78.742362,NH3,4,4,4
India,Uttar_Pradesh,Moradabad,"Transport Nagar, Moradabad - UPPCB",22-06-2024 06:00:00,28.802625,78.753728,PM2.5,34,72,53
India,Uttar_Pradesh,Moradabad,"Transport Nagar, Moradabad - UPPCB",22-06-2024 06:00:00,28.802625,78.753728,NH3,5,5,5
India,Uttar_Pradesh,Moradabad,"Transport Nagar, Moradabad - UPPCB",22-06-2024 06:00:00,28.802625,78.753728,CO,28,43,41
India,Uttar_Pradesh,Muzaffarnagar,"New Mandi, Muzaffarnagar - UPPCB",22-06-2024 06:00:00,29.4723508,77.7194031,SO2,17,86,35
India,Uttar_Pradesh,Muzaffarnagar,"New Mandi, Muzaffarnagar - UPPCB",22-06-2024 06:00:00,29.4723508,77.7194031,CO,35,81,57
India,Uttar_Pradesh,Noida,"Sector - 125, Noida - UPPCB",22-06-2024 06:00:00,28.5447608,77.3231257,NO2,20,140,77
India,Uttar_Pradesh,Noida,"Sector - 125, Noida - UPPCB",22-06-2024 06:00:00,28.5447608,77.3231257,NH3,1,7,4
India,Uttar_Pradesh,Noida,"Sector - 62, Noida - IMD",22-06-2024 06:00:00,28.6245479,77.3577104,PM2.5,36,121,84
India,Uttar_Pradesh,Noida,"Sector - 62, Noida - IMD",22-06-2024 06:00:00,28.6245479,77.3577104,NO2,12,21,15
India,Uttar_Pradesh,Noida,"Sector-116, Noida - UPPCB",22-06-2024 06:00:00,28.569230,77.393848,CO,40,95,75
India,Uttar_Pradesh,Prayagraj,"Jhunsi, Prayagraj - UPPCB",22-06-2024 06:00:00,25.425602,81.917152,CO,10,23,15
India,Uttar_Pradesh,Prayagraj,"Motilal Nehru NIT, Prayagraj - UPPCB",22-06-2024 06:00:00,25.494,81.863,NO2,NA,NA,NA
India,Uttar_Pradesh,Varanasi,"Ardhali Bazar, Varanasi - UPPCB",22-06-2024 06:00:00,25.3505986,82.9083074,SO2,32,35,34
India,Uttar_Pradesh,Varanasi,"Bhelupur, Varanasi - UPPCB",22-06-2024 06:00:00,25.301778,82.996789,PM2.5,4,7,6
India,Uttar_Pradesh,Varanasi,"Bhelupur, Varanasi - UPPCB",22-06-2024 06:00:00,25.301778,82.996789,CO,7,18,16
India,Uttar_Pradesh,Varanasi,"IESD Banaras Hindu University, Varanasi - UPPCB",22-06-2024 06:00:00,25.262326,82.995408,NH3,1,4,2
India,Uttar_Pradesh,Varanasi,"IESD Banaras Hindu University, Varanasi - UPPCB",22-06-2024 06:00:00,25.262326,82.995408,SO2,21,26,23
India,Uttar_Pradesh,Varanasi,"Maldahiya, Varanasi - UPPCB",22-06-2024 06:00:00,25.32393,82.99687,NH3,1,1,1
India,Uttar_Pradesh,Vrindavan,"Omex Eternity, Vrindavan - UPPCB",22-06-2024 06:00:00,27.5714090,77.6557570,PM2.5,24,97,41
India,Uttarakhand,Kashipur,"Govt. Girls Inter College, Kashipur - UKPCB",22-06-2024 06:00:00,29.2124114,78.9611753,PM10,45,110,88
India,Uttarakhand,Kashipur,"Govt. Girls Inter College, Kashipur - UKPCB",22-06-2024 06:00:00,29.2124114,78.9611753,NH3,1,4,4
India,Uttarakhand,Kashipur,"Govt. Girls Inter College, Kashipur - UKPCB",22-06-2024 06:00:00,29.2124114,78.9611753,SO2,2,10,7
India,Uttarakhand,Kashipur,"Govt. Girls Inter College, Kashipur - UKPCB",22-06-2024 06:00:00,29.2124114,78.9611753,CO,2,41,20
India,Uttarakhand,Rishikesh,"Shivaji Nagar, Rishikesh - UKPCB",22-06-2024 06:00:00,30.075911,78.2859547,PM2.5,17,83,44
India,West_Bengal,Asansol,"Asansol Court Area, Asansol - WBPCB",22-06-2024 06:00:00,23.685297,86.945968,NO2,10,39,23
India,West_Bengal,Asansol,"Evelyn Lodge, Asansol - WBPCB",22-06-2024 06:00:00,23.6979360,86.9443950,NH3,NA,NA,NA
India,West_Bengal,Asansol,"Evelyn Lodge, Asansol - WBPCB",22-06-2024 06:00:00,23.6979360,86.9443950,CO,60,88,69
India,West_Bengal,Asansol,"Mahabir Colliery, Asansol - WBPCB",22-06-2024 06:00:00,23.6181830,87.1057180,PM10,55,156,113
India,West_Bengal,Barrackpore,"SVSPA Campus, Barrackpore - WBPCB",22-06-2024 06:00:00,22.7605581,88.3617589,PM10,29,84,52
India,West_Bengal,Barrackpore,"SVSPA Campus, Barrackpore - WBPCB",22-06-2024 06:00:00,22.7605581,88.3617589,CO,24,53,43
India,West_Bengal,Durgapur,"Sidhu Kanhu Indoor Stadium, Durgapur - WBPCB",22-06-2024 06:00:00,23.5404352,87.2892225,CO,24,58,30
India,West_Bengal,Haldia,"Priyambada Housing Estate, Haldia - WBPCB",22-06-2024 06:00:00,22.06047,88.109737,PM2.5,14,30,18
India,West_Bengal,Haldia,"Priyambada Housing Estate, Haldia - WBPCB",22-06-2024 06:00:00,22.06047,88.109737,CO,22,36,25
India,West_Bengal,Haldia,"Priyambada Housing Estate, Haldia - WBPCB",22-06-2024 06:00:00,22.06047,88.109737,OZONE,14,29,24
India,West_Bengal,Howrah,"Belur Math, Howrah - WBPCB",22-06-2024 06:00:00,22.629801,88.352017,PM10,30,68,51
India,West_Bengal,Howrah,"Belur Math, Howrah - WBPCB",22-06-2024 06:00:00,22.629801,88.352017,NO2,1,21,10
India,West_Bengal,Howrah,"Belur Math, Howrah - WBPCB",22-06-2024 06:00:00,22.629801,88.352017,NH3,1,2,1
India,West_Bengal,Howrah,"Botanical Garden, Howrah - WBPCB",22-06-2024 06:00:00,22.554954,88.292568,NH3,1,1,1
India,West_Bengal,Howrah,"Botanical Garden, Howrah - WBPCB",22-06-2024 06:00:00,22.554954,88.292568,OZONE,14,55,16
India,West_Bengal,Howrah,"Ghusuri, Howrah - WBPCB",22-06-2024 06:00:00,22.611968,88.347422,NH3,6,6,6
India,West_Bengal,Howrah,"Padmapukur, Howrah - WBPCB",22-06-2024 06:00:00,22.5687319,88.2797276,CO,6,57,29
India,West_Bengal,Howrah,"Padmapukur, Howrah - WBPCB",22-06-2024 06:00:00,22.5687319,88.2797276,OZONE,20,33,23
India,West_Bengal,Kolkata,"Ballygunge, Kolkata - WBPCB",22-06-2024 06:00:00,22.5367507,88.3638022,PM2.5,19,71,40
India,West_Bengal,Kolkata,"Ballygunge, Kolkata - WBPCB",22-06-2024 06:00:00,22.5367507,88.3638022,PM10,26,65,43
India,West_Bengal,Kolkata,"Ballygunge, Kolkata - WBPCB",22-06-2024 06:00:00,22.5367507,88.3638022,NO2,14,44,21
India,West_Bengal,Kolkata,"Bidhannagar, Kolkata - WBPCB",22-06-2024 06:00:00,22.58157048,88.41002457,NO2,42,72,49
India,West_Bengal,Kolkata,"Bidhannagar, Kolkata - WBPCB",22-06-2024 06:00:00,22.58157048,88.41002457,NH3,6,8,7
India,West_Bengal,Kolkata,"Fort William, Kolkata - WBPCB",22-06-2024 06:00:00,22.556640,88.342674,PM10,30,63,46
India,West_Bengal,Kolkata,"Jadavpur, Kolkata - WBPCB",22-06-2024 06:00:00,22.49929,88.36917,CO,24,28,26
India,West_Bengal,Kolkata,"Rabindra Bharati University, Kolkata - WBPCB",22-06-2024 06:00:00,22.627847,88.380669,NO2,15,21,18
India,West_Bengal,Kolkata,"Rabindra Bharati University, Kolkata - WBPCB",22-06-2024 06:00:00,22.627847,88.380669,SO2,9,15,12
India,West_Bengal,Kolkata,"Rabindra Sarobar, Kolkata - WBPCB",22-06-2024 06:00:00,22.51106,88.35142,SO2,6,8,7
India,West_Bengal,Kolkata,"Rabindra Sarobar, Kolkata - WBPCB",22-06-2024 06:00:00,22.51106,88.35142,OZONE,19,41,26
India,West_Bengal,Siliguri,"Ward-32 Bapupara, Siliguri - WBPCB",22-06-2024 06:00:00,26.6879226,88.4152495,SO2,7,9,8
India,Andhra_Pradesh,Anantapur,"Gulzarpet, Anantapur - APPCB",22-06-2024 06:00:00,14.675886,77.593027,NO2,12,13,12
India,Andhra_Pradesh,Kadapa,"Yerramukkapalli, Kadapa - APPCB",22-06-2024 06:00:00,14.465052,78.824187,NO2,NA,NA,NA
India,Andhra_Pradesh,Rajamahendravaram,"Anand Kala Kshetram, Rajamahendravaram - APPCB",22-06-2024 06:00:00,16.9872867,81.7363176,PM2.5,11,38,24
India,Andhra_Pradesh,Tirupati,"Tirumala, Tirupati - APPCB",22-06-2024 06:00:00,13.67,79.35,PM10,23,88,44
India,Andhra_Pradesh,Tirupati,"Tirumala, Tirupati - APPCB",22-06-2024 06:00:00,13.67,79.35,NH3,1,2,1
India,Andhra_Pradesh,Tirupati,"Vaikuntapuram, Tirupati - APPCB",22-06-2024 06:00:00,13.615387,79.409230,PM10,67,124,90
India,Andhra_Pradesh,Tirupati,"Vaikuntapuram, Tirupati - APPCB",22-06-2024 06:00:00,13.615387,79.409230,SO2,7,8,8
India,Andhra_Pradesh,Vijayawada,"HB Colony, Vijayawada - APPCB",22-06-2024 06:00:00,16.536107,80.594233,OZONE,6,31,15
India,Andhra_Pradesh,Vijayawada,"Kanuru, Vijayawada - APPCB",22-06-2024 06:00:00,16.486692,80.699436,PM10,50,93,67
India,Andhra_Pradesh,Vijayawada,"Kanuru, Vijayawada - APPCB",22-06-2024 06:00:00,16.486692,80.699436,SO2,6,9,8
India,Andhra_Pradesh,Vijayawada,"Rajiv Gandhi Park, Vijayawada - APPCB",22-06-2024 06:00:00,16.509717,80.612222,NH3,1,6,4
India,Andhra_Pradesh,Vijayawada,"Rajiv Gandhi Park, Vijayawada - APPCB",22-06-2024 06:00:00,16.509717,80.612222,CO,37,42,42
India,Andhra_Pradesh,Vijayawada,"Rajiv Nagar, Vijayawada - APPCB",22-06-2024 06:00:00,16.554731,80.649110,NH3,1,2,2
India,Andhra_Pradesh,Vijayawada,"Rajiv Nagar, Vijayawada - APPCB",22-06-2024 06:00:00,16.554731,80.649110,CO,38,38,38
India,Andhra_Pradesh,Visakhapatnam,"GVM Corporation, Visakhapatnam - APPCB",22-06-2024 06:00:00,17.72,83.3,PM10,49,137,99
India,Andhra_Pradesh,Visakhapatnam,"GVM Corporation, Visakhapatnam - APPCB",22-06-2024 06:00:00,17.72,83.3,NH3,3,5,4
India,Andhra_Pradesh,Visakhapatnam,"GVM Corporation, Visakhapatnam - APPCB",22-06-2024 06:00:00,17.72,83.3,CO,12,38,21
India,Arunachal_Pradesh,Naharlagun,"Naharlagun, Naharlagun - APSPCB",22-06-2024 06:00:00,27.103358,93.679645,PM2.5,NA,NA,NA
India,Arunachal_Pradesh,Naharlagun,"Naharlagun, Naharlagun - APSPCB",22-06-2024 06:00:00,27.103358,93.679645,SO2,NA,NA,NA
India,Assam,Byrnihat,"Central Academy for SFS, Byrnihat - PCBA",22-06-2024 06:00:00,26.071318,91.87488,SO2,10,35,15
India,Assam,Guwahati,"IITG, Guwahati - PCBA",22-06-2024 06:00:00,26.2028636,91.70046436,CO,7,18,13
India,Assam,Guwahati,"LGBI Airport, Guwahati - PCBA",22-06-2024 06:00:00,26.10887,91.589544,PM2.5,10,366,96
India,Assam,Guwahati,"LGBI Airport, Guwahati - PCBA",22-06-2024 06:00:00,26.10887,91.589544,PM10,8,445,99
India,Assam,Guwahati,"Railway Colony, Guwahati - PCBA",22-06-2024 06:00:00,26.181742,91.78063,OZONE,2,6,3
India,Assam,Nalbari,"Bata Chowk, Nalbari - PCBA",22-06-2024 06:00:00,26.446912,91.439057,SO2,3,8,6
India,Assam,Silchar,"Tarapur, Silchar - PCBA",22-06-2024 06:00:00,24.82827,92.79525,PM10,50,65,58
India,Assam,Silchar,"Tarapur, Silchar - PCBA",22-06-2024 06:00:00,24.82827,92.79525,SO2,1,14,7
India,Assam,Sivasagar,"Girls College, Sivasagar - PCBA",22-06-2024 06:00:00,26.987634,94.636574,OZONE,1,33,1
India,Bihar,Araria,"Kharahiya Basti, Araria - BSPCB",22-06-2024 06:00:00,26.146529,87.454184,PM2.5,8,298,52
India,Bihar,Araria,"Kharahiya Basti, Araria - BSPCB",22-06-2024 06:00:00,26.146529,87.454184,NO2,6,11,7
India,Bihar,Araria,"Kharahiya Basti, Araria - BSPCB",22-06-2024 06:00:00,26.146529,87.454184,SO2,6,16,10
India,Bihar,Araria,"Kharahiya Basti, Araria - BSPCB",22-06-2024 06:00:00,26.146529,87.454184,OZONE,28,32,30
India,Bihar,Arrah,"New DM Office, Arrah - BSPCB",22-06-2024 06:00:00,25.5626095,84.663264,NH3,2,3,3
India,Bihar,Aurangabad,"Gurdeo Nagar, Aurangabad - BSPCB",22-06-2024 06:00:00,24.75746,84.366208,CO,8,29,21
India,Bihar,Bettiah,"Kamalnath Nagar, Bettiah - BSPCB",22-06-2024 06:00:00,26.80365,84.51954,NH3,9,85,42
India,Bihar,Bhagalpur,"Mayaganj, Bhagalpur - BSPCB",22-06-2024 06:00:00,25.265194,87.012947,PM2.5,57,348,188
India,Bihar,Bihar Sharif,"D M Colony, Bihar Sharif - BSPCB",22-06-2024 06:00:00,25.204762,85.514960,OZONE,16,73,40
India,Bihar,Buxar,"Charitra Van, Buxar - BSPCB (Formerly known as Central Jail)",22-06-2024 06:00:00,25.567520,83.966379,SO2,3,4,3
India,Bihar,Buxar,"Charitra Van, Buxar - BSPCB (Formerly known as Central Jail)",22-06-2024 06:00:00,25.567520,83.966379,OZONE,13,88,29
India,Bihar,Chhapra,"Darshan Nagar, Chhapra - BSPCB",22-06-2024 06:00:00,25.7808257,84.7446768,NO2,NA,NA,NA
India,Bihar,Chhapra,"Darshan Nagar, Chhapra - BSPCB",22-06-2024 06:00:00,25.7808257,84.7446768,CO,20,51,37
India,Bihar,Gaya,"Collectorate, Gaya - BSPCB",22-06-2024 06:00:00,24.7955,84.9994,SO2,3,12,7
India,Bihar,Gaya,"SFTI Kusdihra, Gaya - BSPCB",22-06-2024 06:00:00,24.762518,84.982348,NO2,4,28,20
India,Bihar,Gaya,"SFTI Kusdihra, Gaya - BSPCB",22-06-2024 06:00:00,24.762518,84.982348,CO,22,36,27
India,Bihar,Hajipur,"Industrial Area, Hajipur - BSPCB",22-06-2024 06:00:00,25.697189,85.245900,OZONE,19,149,39
India,Bihar,Katihar,"Mirchaibari, Katihar - BSPCB",22-06-2024 06:00:00,25.560083,87.553265,NH3,NA,NA,NA
India,Bihar,Katihar,"Mirchaibari, Katihar - BSPCB",22-06-2024 06:00:00,25.560083,87.553265,OZONE,3,10,4
India,Bihar,Manguraha,"Forest Rest House, Manguraha - BSPCB",22-06-2024 06:00:00,27.308328,84.531742,CO,34,68,42
India,Bihar,Muzaffarpur,"Buddha Colony, Muzaffarpur - BSPCB",22-06-2024 06:00:00,26.11442,85.39813,PM2.5,33,60,44
India,Bihar,Muzaffarpur,"Buddha Colony, Muzaffarpur - BSPCB",22-06-2024 06:00:00,26.11442,85.39813,CO,16,29,25
India,Bihar,Patna,"DRM Office Danapur, Patna - BSPCB",22-06-2024 06:00:00,25.586562,85.043586,PM10,62,107,85
India,Bihar,Patna,"DRM Office Danapur, Patna - BSPCB",22-06-2024 06:00:00,25.586562,85.043586,NO2,18,27,22
India,Bihar,Patna,"DRM Office Danapur, Patna - BSPCB",22-06-2024 06:00:00,25.586562,85.043586,SO2,1,5,3
India,Bihar,Patna,"DRM Office Danapur, Patna - BSPCB",22-06-2024 06:00:00,25.586562,85.043586,CO,24,41,29
India,Bihar,Patna,"Govt. High School Shikarpur, Patna - BSPCB",22-06-2024 06:00:00,25.592539,85.227158,PM10,55,91,73
India,Bihar,Patna,"IGSC Planetarium Complex, Patna - BSPCB",22-06-2024 06:00:00,25.610369,85.132568,CO,15,20,17
India,Bihar,Patna,"Muradpur, Patna - BSPCB",22-06-2024 06:00:00,25.619651,85.147382,NO2,2,108,21
India,Bihar,Patna,"Rajbansi Nagar, Patna - BSPCB",22-06-2024 06:00:00,25.599486,85.113666,PM10,61,106,83
India,Bihar,Patna,"Rajbansi Nagar, Patna - BSPCB",22-06-2024 06:00:00,25.599486,85.113666,CO,25,44,28
India,Bihar,Rajgir,"Dangi Tola, Rajgir - BSPCB",22-06-2024 06:00:00,25.03280,85.41948,OZONE,30,41,34
India,Bihar,Saharsa,"Police Line, Saharsa - BSPCB",22-06-2024 06:00:00,25.892357,86.590325,PM10,3,79,40
India,Bihar,Sasaram,"Dada Peer, Sasaram - BSPCB",22-06-2024 06:00:00,24.952822,84.002396,PM2.5,76,317,196
India,Bihar,Siwan,"Chitragupta Nagar, Siwan - BSPCB",22-06-2024 06:00:00,26.2271665,84.3570427,NO2,22,86,42
India,Bihar,Siwan,"Chitragupta Nagar, Siwan - BSPCB",22-06-2024 06:00:00,26.2271665,84.3570427,SO2,7,30,17
India,Bihar,Siwan,"Chitragupta Nagar, Siwan - BSPCB",22-06-2024 06:00:00,26.2271665,84.3570427,CO,62,119,82
India,Chandigarh,Chandigarh,"Sector-25, Chandigarh - CPCC",22-06-2024 06:00:00,30.751462,76.762879,PM10,123,219,155
India,Chandigarh,Chandigarh,"Sector-25, Chandigarh - CPCC",22-06-2024 06:00:00,30.751462,76.762879,OZONE,5,51,11
India,Chandigarh,Chandigarh,"Sector-53, Chandigarh - CPCC",22-06-2024 06:00:00,30.719859,76.738637,NH3,5,12,8
India,Chhattisgarh,Bhilai,"32Bungalows, Bhilai - CECB",22-06-2024 06:00:00,21.194815,81.314770,PM10,21,47,31
India,Chhattisgarh,Bhilai,"Civic Center, Bhilai - Bhilai Steel Plant",22-06-2024 06:00:00,21.185571,81.343175,PM2.5,12,35,20
India,Chhattisgarh,Bhilai,"Hathkhoj, Bhilai - CECB",22-06-2024 06:00:00,21.224231,81.408350,PM2.5,9,27,16
India,Chhattisgarh,Bhilai,"Hathkhoj, Bhilai - CECB",22-06-2024 06:00:00,21.224231,81.408350,PM10,15,41,29
India,Chhattisgarh,Bhilai,"Hathkhoj, Bhilai - CECB",22-06-2024 06:00:00,21.224231,81.408350,SO2,9,12,11
India,Chhattisgarh,Bhilai,"Hathkhoj, Bhilai - CECB",22-06-2024 06:00:00,21.224231,81.408350,OZONE,21,46,32
India,Chhattisgarh,Bilaspur,"Mangala, Bilaspur - NTPC",22-06-2024 06:00:00,22.08815,82.13737,CO,34,50,44
India,Chhattisgarh,Chhal,"Nawapara SECL Colony, Chhal - CECB",22-06-2024 06:00:00,22.118125,83.140608,PM10,NA,NA,NA
India,Chhattisgarh,Chhal,"Nawapara SECL Colony, Chhal - CECB",22-06-2024 06:00:00,22.118125,83.140608,SO2,NA,NA,NA
India,Chhattisgarh,Korba,"Urja Nagar, Korba - CECB",22-06-2024 06:00:00,22.348441,82.549611,PM2.5,NA,NA,NA
India,Chhattisgarh,Korba,"Urja Nagar, Korba - CECB",22-06-2024 06:00:00,22.348441,82.549611,PM10,NA,NA,NA
India,Chhattisgarh,Kunjemura,"OP Jindal School, Kunjemura - CECB",22-06-2024 06:00:00,22.126650,83.483212,PM10,13,55,36
India,Chhattisgarh,Milupara,"Govt. Higher Secondary School, Milupara - CECB",22-06-2024 06:00:00,22.1910172,83.5197009,PM10,NA,NA,NA
India,Chhattisgarh,Milupara,"Govt. Higher Secondary School, Milupara - CECB",22-06-2024 06:00:00,22.1910172,83.5197009,NO2,NA,NA,NA
India,Chhattisgarh,Raipur,"AIIMS, Raipur - CECB",22-06-2024 06:00:00,21.258815,81.578979,PM10,9,52,25
India,Chhattisgarh,Raipur,"AIIMS, Raipur - CECB",22-06-2024 06:00:00,21.258815,81.578979,NO2,NA,NA,NA
India,Chhattisgarh,Raipur,"AIIMS, Raipur - CECB",22-06-2024 06:00:00,21.258815,81.578979,NH3,6,6,6
India,Chhattisgarh,Raipur,"Bhatagaon New ISBT, Raipur - CECB",22-06-2024 06:00:00,21.219665,81.630094,PM10,7,53,27
India,Chhattisgarh,Raipur,"Krishak Nagar, Raipur - CECB",22-06-2024 06:00:00,21.237755,81.705301,PM2.5,3,27,11
India,Chhattisgarh,Raipur,"Krishak Nagar, Raipur - CECB",22-06-2024 06:00:00,21.237755,81.705301,OZONE,4,30,10
India,Delhi,Delhi,"Alipur, Delhi - DPCC",22-06-2024 06:00:00,28.815329,77.153010,OZONE,5,87,10
India,Delhi,Delhi,"Anand Vihar, Delhi - DPCC",22-06-2024 06:00:00,28.647622,77.3158090,SO2,17,23,19
India,Delhi,Delhi,"Anand Vihar, Delhi - DPCC",22-06-2024 06:00:00,28.647622,77.3158090,CO,27,110,107
India,Delhi,Delhi,"Ashok Vihar, Delhi - DPCC",22-06-2024 06:00:00,28.695381,77.181665,PM2.5,68,352,146
India,Delhi,Delhi,"Ashok Vihar, Delhi - DPCC",22-06-2024 06:00:00,28.695381,77.181665,PM10,66,256,142
India,Delhi,Delhi,"Aya Nagar, Delhi - IMD",22-06-2024 06:00:00,28.4706914,77.1099364,OZONE,7,58,12
India,Delhi,Delhi,"Bawana, Delhi - DPCC",22-06-2024 06:00:00,28.776200,77.051074,CO,36,89,70
India,Delhi,Delhi,"Burari Crossing, Delhi - IMD",22-06-2024 06:00:00,28.7256504,77.2011573,PM2.5,26,284,103
India,Delhi,Delhi,"Burari Crossing, Delhi - IMD",22-06-2024 06:00:00,28.7256504,77.2011573,NO2,11,24,14
India,Delhi,Delhi,"CRRI Mathura Road, Delhi - IMD",22-06-2024 06:00:00,28.5512005,77.2735737,PM10,53,342,157
India,Delhi,Delhi,"CRRI Mathura Road, Delhi - IMD",22-06-2024 06:00:00,28.5512005,77.2735737,CO,27,80,70
India,Delhi,Delhi,"Chandni Chowk, Delhi - IITM",22-06-2024 06:00:00,28.656756,77.227234,PM10,123,467,178
India,Delhi,Delhi,"Chandni Chowk, Delhi - IITM",22-06-2024 06:00:00,28.656756,77.227234,NO2,NA,NA,NA
India,Delhi,Delhi,"Dr. Karni Singh Shooting Range, Delhi - DPCC",22-06-2024 06:00:00,28.498571,77.264840,PM2.5,77,232,143
India,Delhi,Delhi,"Dr. Karni Singh Shooting Range, Delhi - DPCC",22-06-2024 06:00:00,28.498571,77.264840,SO2,8,16,12
India,Delhi,Delhi,"Dwarka-Sector 8, Delhi - DPCC ",22-06-2024 06:00:00,28.5710274,77.0719006,PM2.5,57,402,142
India,Delhi,Delhi,"Dwarka-Sector 8, Delhi - DPCC ",22-06-2024 06:00:00,28.5710274,77.0719006,PM10,NA,NA,NA
India,Delhi,Delhi,"Dwarka-Sector 8, Delhi - DPCC ",22-06-2024 06:00:00,28.5710274,77.0719006,NO2,14,88,44
India,Delhi,Delhi,"Dwarka-Sector 8, Delhi - DPCC ",22-06-2024 06:00:00,28.5710274,77.0719006,NH3,6,15,9
India,Delhi,Delhi,"IGI Airport (T3), Delhi - IMD",22-06-2024 06:00:00,28.5627763,77.1180053,CO,28,62,60
India,Delhi,Delhi,"IGI Airport (T3), Delhi - IMD",22-06-2024 06:00:00,28.5627763,77.1180053,OZONE,2,58,2
India,Delhi,Delhi,"ITO, Delhi - CPCB",22-06-2024 06:00:00,28.628624,77.241060,PM2.5,71,288,111
India,Delhi,Delhi,"Jahangirpuri, Delhi - DPCC",22-06-2024 06:00:00,28.732820,77.170633,PM2.5,63,391,160
India,Delhi,Delhi,"Jahangirpuri, Delhi - DPCC",22-06-2024 06:00:00,28.732820,77.170633,SO2,22,44,32
India,Delhi,Delhi,"Jahangirpuri, Delhi - DPCC",22-06-2024 06:00:00,28.732820,77.170633,CO,31,112,98
India,Delhi,Delhi,"Jawaharlal Nehru Stadium, Delhi - DPCC",22-06-2024 06:00:00,28.580280,77.233829,PM10,66,281,133
India,Delhi,Delhi,"Jawaharlal Nehru Stadium, Delhi - DPCC",22-06-2024 06:00:00,28.580280,77.233829,OZONE,1,159,14
India,Delhi,Delhi,"Major Dhyan Chand National Stadium, Delhi - DPCC",22-06-2024 06:00:00,28.611281,77.237738,NH3,7,45,12
India,Delhi,Delhi,"Mandir Marg, Delhi - DPCC",22-06-2024 06:00:00,28.636429,77.201067,PM2.5,35,277,100
India,Delhi,Delhi,"Mundka, Delhi - DPCC",22-06-2024 06:00:00,28.684678,77.076574,PM2.5,50,447,150
India,Delhi,Delhi,"Mundka, Delhi - DPCC",22-06-2024 06:00:00,28.684678,77.076574,PM10,89,500,212
India,Delhi,Delhi,"Mundka, Delhi - DPCC",22-06-2024 06:00:00,28.684678,77.076574,OZONE,3,166,31
India,Delhi,Delhi,"NSIT Dwarka, Delhi - CPCB",22-06-2024 06:00:00,28.60909,77.0325413,PM2.5,8,316,209
India,Delhi,Delhi,"NSIT Dwarka, Delhi - CPCB",22-06-2024 06:00:00,28.60909,77.0325413,PM10,110,261,175
India,Delhi,Delhi,"NSIT Dwarka, Delhi - CPCB",22-06-2024 06:00:00,28.60909,77.0325413,SO2,2,53,16
India,Delhi,Delhi,"Najafgarh, Delhi - DPCC",22-06-2024 06:00:00,28.570173,76.933762,SO2,12,25,18
India,Delhi,Delhi,"Nehru Nagar, Delhi - DPCC",22-06-2024 06:00:00,28.567890,77.250515,NO2,11,58,33
India,Delhi,Delhi,"New Moti Bagh, Delhi - MHUA",22-06-2024 06:00:00,28.57834,77.18400,PM2.5,80,500,215
India,Delhi,Delhi,"Okhla Phase-2, Delhi - DPCC",22-06-2024 06:00:00,28.530785,77.271255,CO,33,119,83
India,Delhi,Delhi,"Patparganj, Delhi - DPCC",22-06-2024 06:00:00,28.623763,77.287209,SO2,13,25,19
India,Delhi,Delhi,"Punjabi Bagh, Delhi - DPCC",22-06-2024 06:00:00,28.674045,77.131023,CO,6,80,47
India,Delhi,Delhi,"Pusa, Delhi - DPCC",22-06-2024 06:00:00,28.639652,77.146275,NO2,40,103,64
India,Delhi,Delhi,"Pusa, Delhi - DPCC",22-06-2024 06:00:00,28.639652,77.146275,NH3,4,7,6
India,Delhi,Delhi,"Pusa, Delhi - IMD",22-06-2024 06:00:00,28.636110,77.173332,OZONE,8,52,8
India,Delhi,Delhi,"R K Puram, Delhi - DPCC",22-06-2024 06:00:00,28.563262,77.186937,NH3,4,11,8
India,Delhi,Delhi,"R K Puram, Delhi - DPCC",22-06-2024 06:00:00,28.563262,77.186937,SO2,1,28,10
India,Delhi,Delhi,"Shadipur, Delhi - CPCB",22-06-2024 06:00:00,28.6514781,77.1473105,NH3,8,13,10
India,Delhi,Delhi,"Sirifort, Delhi - CPCB",22-06-2024 06:00:00,28.5504249,77.2159377,PM10,96,270,166
India,Delhi,Delhi,"Sirifort, Delhi - CPCB",22-06-2024 06:00:00,28.5504249,77.2159377,SO2,28,50,44
India,Delhi,Delhi,"Sirifort, Delhi - CPCB",22-06-2024 06:00:00,28.5504249,77.2159377,CO,18,98,78
India,Delhi,Delhi,"Sonia Vihar, Delhi - DPCC",22-06-2024 06:00:00,28.710508,77.249485,OZONE,12,139,33
India,Delhi,Delhi,"Sri Aurobindo Marg, Delhi - DPCC",22-06-2024 06:00:00,28.531346,77.190156,NO2,15,102,51
India,Delhi,Delhi,"Sri Aurobindo Marg, Delhi - DPCC",22-06-2024 06:00:00,28.531346,77.190156,NH3,3,11,7
India,Delhi,Delhi,"Sri Aurobindo Marg, Delhi - DPCC",22-06-2024 06:00:00,28.531346,77.190156,OZONE,2,93,6
India,Delhi,Delhi,"Vivek Vihar, Delhi - DPCC",22-06-2024 06:00:00,28.672342,77.315260,PM2.5,72,404,151
India,Delhi,Delhi,"Vivek Vihar, Delhi - DPCC",22-06-2024 06:00:00,28.672342,77.315260,PM10,100,403,186
India,Delhi,Delhi,"Vivek Vihar, Delhi - DPCC",22-06-2024 06:00:00,28.672342,77.315260,NH3,17,18,18
India,Delhi,Delhi,"Vivek Vihar, Delhi - DPCC",22-06-2024 06:00:00,28.672342,77.315260,SO2,13,32,19
India,Delhi,Delhi,"Wazirpur, Delhi - DPCC",22-06-2024 06:00:00,28.699793,77.165453,PM10,59,356,184
India,Delhi,Delhi,"Wazirpur, Delhi - DPCC",22-06-2024 06:00:00,28.699793,77.165453,CO,3,103,48
India,Delhi,Delhi,"Wazirpur, Delhi - DPCC",22-06-2024 06:00:00,28.699793,77.165453,OZONE,3,68,5
India,Gujarat,Ahmedabad,"Chandkheda, Ahmedabad - IITM",22-06-2024 06:00:00,23.107969,72.574648,PM10,43,272,80
India,Gujarat,Ahmedabad,"Gyaspur, Ahmedabad - IITM",22-06-2024 06:00:00,22.977134,72.553024,NH3,4,6,5
India,Gujarat,Ahmedabad,"Maninagar, Ahmedabad - GPCB",22-06-2024 06:00:00,23.002657,72.591912,OZONE,13,264,32
India,Gujarat,Ahmedabad,"Raikhad, Ahmedabad - IITM",22-06-2024 06:00:00,23.020509,72.579261,PM2.5,21,317,82
India,Gujarat,Ahmedabad,"Raikhad, Ahmedabad - IITM",22-06-2024 06:00:00,23.020509,72.579261,CO,28,45,31
India,Gujarat,Ahmedabad,"Raikhad, Ahmedabad - IITM",22-06-2024 06:00:00,23.020509,72.579261,OZONE,7,75,28
India,Gujarat,Ahmedabad,"Rakhial, Ahmedabad - IITM",22-06-2024 06:00:00,23.016834,72.625775,PM2.5,40,184,79
India,Gujarat,Ahmedabad,"Rakhial, Ahmedabad - IITM",22-06-2024 06:00:00,23.016834,72.625775,SO2,10,24,17
India,Gujarat,Ahmedabad,"Sardar Vallabhbhai Patel Stadium, Ahmedabad - IITM",22-06-2024 06:00:00,23.043070,72.562968,PM10,40,222,95
India,Gujarat,Ankleshwar,"GIDC, Ankleshwar - GPCB",22-06-2024 06:00:00,21.613267,73.010555,PM10,41,62,53
India,Gujarat,Gandhinagar,"GIFT City, Gandhinagar - IITM",22-06-2024 06:00:00,23.163798,72.677768,SO2,7,15,11
India,Gujarat,Gandhinagar,"Sector-10, Gandhinagar - GPCB",22-06-2024 06:00:00,23.221714,72.654328,PM10,21,226,75
India,Gujarat,Nandesari,"GIDC, Nandesari - Nandesari Ind. Association",22-06-2024 06:00:00,22.410802,73.097923,NO2,1,13,5
India,Gujarat,Nandesari,"GIDC, Nandesari - Nandesari Ind. Association",22-06-2024 06:00:00,22.410802,73.097923,SO2,1,20,9
India,Gujarat,Surat,"Science Center, Surat - SMC",22-06-2024 06:00:00,21.170046,72.795405,PM10,NA,NA,NA
India,Gujarat,Vapi,"Phase-1 GIDC, Vapi - GPCB",22-06-2024 06:00:00,20.362421,72.918013,SO2,45,51,47
India,Gujarat,Vatva,"Phase-4 GIDC, Vatva - GPCB",22-06-2024 06:00:00,22.969611,72.643500,PM2.5,12,41,29
India,Haryana,Ambala,"Patti Mehar, Ambala - HSPCB",22-06-2024 06:00:00,30.379589,76.778328,SO2,3,36,13
India,Haryana,Bahadurgarh,"Arya Nagar, Bahadurgarh - HSPCB",22-06-2024 06:00:00,28.6701,76.9254,PM2.5,33,312,121
India,Haryana,Bahadurgarh,"Arya Nagar, Bahadurgarh - HSPCB",22-06-2024 06:00:00,28.6701,76.9254,PM10,33,190,121
India,Haryana,Charkhi Dadri,"Mini Secretariat, Charkhi Dadri - HSPCB",22-06-2024 06:00:00,28.593883,76.270653,NO2,14,22,18
India,Haryana,Charkhi Dadri,"Mini Secretariat, Charkhi Dadri - HSPCB",22-06-2024 06:00:00,28.593883,76.270653,SO2,14,25,19
India,Haryana,Dharuhera,"Municipal Corporation Office, Dharuhera -  HSPCB",22-06-2024 06:00:00,28.206800,76.799700,NO2,48,111,78
India,Haryana,Dharuhera,"Municipal Corporation Office, Dharuhera -  HSPCB",22-06-2024 06:00:00,28.206800,76.799700,NH3,9,27,19
India,Haryana,Faridabad,"New Industrial Town, Faridabad - HSPCB",22-06-2024 06:00:00,28.39072,77.30059,PM2.5,36,267,84
India,Haryana,Faridabad,"Sector 11, Faridabad - HSPCB",22-06-2024 06:00:00,28.376058,77.315741,OZONE,7,28,13
India,Haryana,Faridabad,"Sector 30, Faridabad - HSPCB",22-06-2024 06:00:00,28.4417,77.3217,CO,18,70,47
India,Haryana,Faridabad,"Sector- 16A, Faridabad - HSPCB",22-06-2024 06:00:00,28.4088421,77.3099081,SO2,24,32,26
India,Haryana,Fatehabad,"Huda Sector, Fatehabad - HSPCB",22-06-2024 06:00:00,29.503664,75.467934,PM2.5,21,86,38
India,Haryana,Fatehabad,"Huda Sector, Fatehabad - HSPCB",22-06-2024 06:00:00,29.503664,75.467934,SO2,NA,NA,NA
India,Haryana,Gurugram,"Teri Gram, Gurugram - HSPCB",22-06-2024 06:00:00,28.4275,77.1465,NH3,NA,NA,NA
India,Haryana,Gurugram,"Teri Gram, Gurugram - HSPCB",22-06-2024 06:00:00,28.4275,77.1465,OZONE,13,26,15
India,Haryana,Hisar,"Urban Estate-II, Hisar - HSPCB",22-06-2024 06:00:00,29.140560,75.744941,PM2.5,49,92,63
India,Haryana,Jind,"Police Lines, Jind - HSPCB",22-06-2024 06:00:00,29.307814,76.337619,NO2,1,31,9
India,Haryana,Jind,"Police Lines, Jind - HSPCB",22-06-2024 06:00:00,29.307814,76.337619,SO2,2,22,7
India,Haryana,Jind,"Police Lines, Jind - HSPCB",22-06-2024 06:00:00,29.307814,76.337619,CO,2,71,16
India,Haryana,Kaithal,"Rishi Nagar, Kaithal - HSPCB",22-06-2024 06:00:00,29.8006,76.4155,PM10,92,199,139
India,Haryana,Kaithal,"Rishi Nagar, Kaithal - HSPCB",22-06-2024 06:00:00,29.8006,76.4155,SO2,5,91,15
India,Haryana,Kaithal,"Rishi Nagar, Kaithal - HSPCB",22-06-2024 06:00:00,29.8006,76.4155,OZONE,28,77,34
India,Haryana,Karnal,"Sector-12, Karnal - HSPCB",22-06-2024 06:00:00,29.695300,77.002700,PM10,70,130,97
India,Haryana,Karnal,"Sector-12, Karnal - HSPCB",22-06-2024 06:00:00,29.695300,77.002700,OZONE,24,30,27
India,Haryana,Kurukshetra,"Sector-7, Kurukshetra - HSPCB",22-06-2024 06:00:00,29.966942,76.875879,CO,12,30,22
India,Haryana,Mandikhera,"General Hospital, Mandikhera - HSPCB",22-06-2024 06:00:00,27.9002,76.9938,SO2,32,42,34
India,Haryana,Manesar,"Sector-2 IMT, Manesar - HSPCB",22-06-2024 06:00:00,28.360699,76.936090,OZONE,12,77,19
India,Haryana,Narnaul,"Shastri Nagar, Narnaul - HSPCB",22-06-2024 06:00:00,28.060249,76.113115,NO2,15,87,47
India,Haryana,Palwal,"Shyam Nagar, Palwal - HSPCB",22-06-2024 06:00:00,28.1485564,77.3320667,PM10,46,259,111
India,Haryana,Palwal,"Shyam Nagar, Palwal - HSPCB",22-06-2024 06:00:00,28.1485564,77.3320667,SO2,5,108,16
India,Haryana,Panipat,"Sector-18, Panipat - HSPCB",22-06-2024 06:00:00,29.432304,76.972765,PM2.5,95,122,112
India,Haryana,Panipat,"Sector-18, Panipat - HSPCB",22-06-2024 06:00:00,29.432304,76.972765,NH3,2,3,2
India,Haryana,Rohtak,"MD University, Rohtak - HSPCB",22-06-2024 06:00:00,28.52123,76.37138,CO,20,52,49
India,Haryana,Yamuna Nagar,"Gobind Pura, Yamuna Nagar - HSPCB",22-06-2024 06:00:00,30.1480566,77.2893471,PM10,NA,NA,NA
India,Haryana,Yamuna Nagar,"Gobind Pura, Yamuna Nagar - HSPCB",22-06-2024 06:00:00,30.1480566,77.2893471,NH3,NA,NA,NA
India,Himachal Pradesh,Baddi,"HIMUDA Complex Phase-1, Baddi - HPPCB",22-06-2024 06:00:00,30.943887,76.801991,NH3,7,10,8
India,Jharkhand,Dhanbad,"Sardar Patel Nagar, Dhanbad - JSPCB",22-06-2024 06:00:00,23.80569,86.44268,NO2,NA,NA,NA
India,Karnataka,Bagalkot,"Vidayagiri, Bagalkot - KSPCB",22-06-2024 06:00:00,16.172806,75.659694,NH3,1,2,1
India,Karnataka,Belgaum,"Ramteerth Nagar, Belgaum - KSPCB",22-06-2024 06:00:00,15.888653,74.541751,PM2.5,NA,NA,NA
India,Karnataka,Bengaluru,"Bapuji Nagar, Bengaluru - KSPCB",22-06-2024 06:00:00,12.951913,77.539784,PM10,26,75,47
India,Karnataka,Bengaluru,"Bapuji Nagar, Bengaluru - KSPCB",22-06-2024 06:00:00,12.951913,77.539784,NO2,14,17,15
India,Karnataka,Bengaluru,"Hebbal, Bengaluru - KSPCB",22-06-2024 06:00:00,13.029152,77.585901,NO2,5,6,5
India,Karnataka,Bengaluru,"Hebbal, Bengaluru - KSPCB",22-06-2024 06:00:00,13.029152,77.585901,NH3,1,1,1
India,Karnataka,Bengaluru,"Hebbal, Bengaluru - KSPCB",22-06-2024 06:00:00,13.029152,77.585901,OZONE,6,47,7
India,Karnataka,Bengaluru,"Hombegowda Nagar, Bengaluru - KSPCB",22-06-2024 06:00:00,12.938539,77.590100,PM2.5,16,28,22
India,Karnataka,Bengaluru,"Hombegowda Nagar, Bengaluru - KSPCB",22-06-2024 06:00:00,12.938539,77.590100,NH3,1,1,1
India,Karnataka,Bengaluru,"Hombegowda Nagar, Bengaluru - KSPCB",22-06-2024 06:00:00,12.938539,77.590100,CO,8,28,14
India,Karnataka,Bengaluru,"Jayanagar 5th Block, Bengaluru - KSPCB",22-06-2024 06:00:00,12.920984,77.584908,CO,20,22,22
India,Karnataka,Bengaluru,"Jigani, Bengaluru - KSPCB",22-06-2024 06:00:00,12.7816279,77.6299145,PM10,28,52,39
India,Karnataka,Bengaluru,"Kasturi Nagar, Bengaluru - KSPCB",22-06-2024 06:00:00,13.003872,77.664217,NH3,3,4,4
India,Karnataka,Bengaluru,"Kasturi Nagar, Bengaluru - KSPCB",22-06-2024 06:00:00,13.003872,77.664217,SO2,10,10,10
India,Karnataka,Bengaluru,"Peenya, Bengaluru - CPCB",22-06-2024 06:00:00,13.0270199,77.494094,SO2,12,16,14
India,Karnataka,Bengaluru,"RVCE-Mailasandra, Bengaluru - KSPCB",22-06-2024 06:00:00,12.921418,77.502466,CO,25,50,37
India,Karnataka,Bengaluru,"RVCE-Mailasandra, Bengaluru - KSPCB",22-06-2024 06:00:00,12.921418,77.502466,OZONE,39,39,39
India,Karnataka,Bengaluru,"Sanegurava Halli, Bengaluru - KSPCB",22-06-2024 06:00:00,12.990328,77.5431385,PM10,34,49,37
India,Karnataka,Bengaluru,"Shivapura_Peenya, Bengaluru - KSPCB",22-06-2024 06:00:00,13.0246342,77.5080115,PM2.5,37,69,50
India,Karnataka,Chamarajanagar,"Urban, Chamarajanagar - KSPCB",22-06-2024 06:00:00,11.55358,76.55521,PM10,34,58,46
India,Karnataka,Chamarajanagar,"Urban, Chamarajanagar - KSPCB",22-06-2024 06:00:00,11.55358,76.55521,NH3,2,3,2
India,Karnataka,Chikkaballapur,"Chikkaballapur Rural, Chikkaballapur - KSPCB",22-06-2024 06:00:00,13.428828,77.731418,NH3,1,1,1
India,Karnataka,Chikkamagaluru,"Kalyana Nagara, Chikkamagaluru - KSPCB",22-06-2024 06:00:00,13.328028,75.797056,OZONE,10,35,10
