country,state,city,station,last_update,latitude,longitude,pollutant_id,pollutant_min,pollutant_max,pollutant_avg
India,Andhra_Pradesh,Amaravati,"Secretariat, Amaravati - APPCB",21-04-2024 01:00:00,16.5150833,80.5181667,PM2.5,3,65,29
India,Andhra_Pradesh,Anantapur,"Gulzarpet, Anantapur - APPCB",21-04-2024 01:00:00,14.675886,77.593027,SO2,5,13,8
India,Andhra_Pradesh,Rajamahendravaram,"Anand Kala Kshetram, Rajamahendravaram - APPCB",21-04-2024 01:00:00,16.9872867,81.7363176,OZONE,17,25,18
India,Andhra_Pradesh,Tirupati,"Tirumala, Tirupati - APPCB",21-04-2024 01:00:00,13.67,79.35,NO2,12,45,26
India,Andhra_Pradesh,Tirupati,"Tirumala, Tirupati - APPCB",21-04-2024 01:00:00,13.67,79.35,SO2,3,14,9
India,Andhra_Pradesh,Vijayawada,"HB Colony, Vijayawada - APPCB",21-04-2024 01:00:00,16.536107,80.594233,NH3,NA,NA,NA
India,Andhra_Pradesh,Vijayawada,"Rajiv Nagar, Vijayawada - APPCB",21-04-2024 01:00:00,16.554731,80.649110,SO2,NA,NA,NA
India,Assam,Byrnihat,"Central Academy for SFS, Byrnihat - PCBA",21-04-2024 01:00:00,26.071318,91.87488,NO2,43,120,72
India,Assam,Byrnihat,"Central Academy for SFS, Byrnihat - PCBA",21-04-2024 01:00:00,26.071318,91.87488,SO2,3,14,11
India,Assam,Guwahati,"IITG, Guwahati - PCBA",21-04-2024 01:00:00,26.2028636,91.70046436,SO2,11,13,11
India,Assam,Guwahati,"LGBI Airport, Guwahati - PCBA",21-04-2024 01:00:00,26.10887,91.589544,NO2,19,116,61
India,Assam,Guwahati,"Railway Colony, Guwahati - PCBA",21-04-2024 01:00:00,26.181742,91.78063,CO,10,22,17
India,Assam,Nagaon,"Christianpatty, Nagaon - PCBA",21-04-2024 01:00:00,26.349082,92.68449,PM2.5,62,88,73
India,Assam,Nagaon,"Christianpatty, Nagaon - PCBA",21-04-2024 01:00:00,26.349082,92.68449,SO2,6,43,18
India,Assam,Nagaon,"Christianpatty, Nagaon - PCBA",21-04-2024 01:00:00,26.349082,92.68449,OZONE,19,59,37
India,Assam,Nalbari,"Bata Chowk, Nalbari - PCBA",21-04-2024 01:00:00,26.446912,91.439057,PM2.5,32,65,49
India,Assam,Nalbari,"Bata Chowk, Nalbari - PCBA",21-04-2024 01:00:00,26.446912,91.439057,NH3,1,2,2
India,Assam,Nalbari,"Bata Chowk, Nalbari - PCBA",21-04-2024 01:00:00,26.446912,91.439057,CO,30,72,68
India,Assam,Silchar,"Tarapur, Silchar - PCBA",21-04-2024 01:00:00,24.82827,92.79525,SO2,NA,NA,NA
India,Assam,Silchar,"Tarapur, Silchar - PCBA",21-04-2024 01:00:00,24.82827,92.79525,CO,21,34,30
India,Assam,Sivasagar,"Girls College, Sivasagar - PCBA",21-04-2024 01:00:00,26.987634,94.636574,NO2,9,18,14
India,Assam,Sivasagar,"Girls College, Sivasagar - PCBA",21-04-2024 01:00:00,26.987634,94.636574,OZONE,1,61,10
India,Bihar,Araria,"Kharahiya Basti, Araria - BSPCB",21-04-2024 01:00:00,26.146529,87.454184,NO2,5,138,13
India,Bihar,Araria,"Kharahiya Basti, Araria - BSPCB",21-04-2024 01:00:00,26.146529,87.454184,NH3,6,6,6
India,Bihar,Aurangabad,"Gurdeo Nagar, Aurangabad - BSPCB",21-04-2024 01:00:00,24.75746,84.366208,NO2,5,5,3
India,Bihar,Bettiah,"Kamalnath Nagar, Bettiah - BSPCB",21-04-2024 01:00:00,26.80365,84.51954,SO2,9,27,22
India,Bihar,Bihar Sharif,"D M Colony, Bihar Sharif - BSPCB",21-04-2024 01:00:00,25.204762,85.514960,PM2.5,33,75,48
India,Bihar,Chhapra,"Darshan Nagar, Chhapra - BSPCB",21-04-2024 01:00:00,25.7808257,84.7446768,NO2,19,26,23
India,Bihar,Chhapra,"Darshan Nagar, Chhapra - BSPCB",21-04-2024 01:00:00,25.7808257,84.7446768,NH3,8,14,10
India,Bihar,Chhapra,"Darshan Nagar, Chhapra - BSPCB",21-04-2024 01:00:00,25.7808257,84.7446768,OZONE,1,5,2
India,Bihar,Gaya,"Kareemganj, Gaya - BSPCB",21-04-2024 01:00:00,24.792403,84.992416,SO2,5,9,7
India,Bihar,Hajipur,"Industrial Area, Hajipur - BSPCB",21-04-2024 01:00:00,25.697189,85.245900,PM2.5,33,183,90
India,Bihar,Hajipur,"Industrial Area, Hajipur - BSPCB",21-04-2024 01:00:00,25.697189,85.245900,OZONE,15,92,37
India,Bihar,Katihar,"Mirchaibari, Katihar - BSPCB",21-04-2024 01:00:00,25.560083,87.553265,CO,50,71,56
India,Bihar,Kishanganj,"SDM Office_Khagra, Kishanganj - BSPCB",21-04-2024 01:00:00,26.0881305,87.93840336,SO2,NA,NA,NA
India,Bihar,Kishanganj,"SDM Office_Khagra, Kishanganj - BSPCB",21-04-2024 01:00:00,26.0881305,87.93840336,CO,5,7,6
India,Bihar,Motihari,"Gandak Colony, Motihari - BSPCB",21-04-2024 01:00:00,26.63086,84.90051,SO2,1,6,4
India,Bihar,Motihari,"Gandak Colony, Motihari - BSPCB",21-04-2024 01:00:00,26.63086,84.90051,OZONE,19,122,77
India,Bihar,Munger,"Town Hall, Munger - BSPCB",21-04-2024 01:00:00,25.376776,86.471523,NO2,6,9,7
India,Bihar,Patna,"DRM Office Danapur, Patna - BSPCB",21-04-2024 01:00:00,25.586562,85.043586,NO2,6,78,34
India,Bihar,Patna,"IGSC Planetarium Complex, Patna - BSPCB",21-04-2024 01:00:00,25.610369,85.132568,SO2,5,5,5
India,Bihar,Patna,"Muradpur, Patna - BSPCB",21-04-2024 01:00:00,25.619651,85.147382,NO2,6,22,13
India,Bihar,Patna,"Muradpur, Patna - BSPCB",21-04-2024 01:00:00,25.619651,85.147382,OZONE,10,69,43
India,Bihar,Patna,"Rajbansi Nagar, Patna - BSPCB",21-04-2024 01:00:00,25.599486,85.113666,PM10,122,228,169
India,Bihar,Patna,"Samanpura, Patna - BSPCB",21-04-2024 01:00:00,25.596727,85.085624,PM10,152,298,212
India,Bihar,Patna,"Samanpura, Patna - BSPCB",21-04-2024 01:00:00,25.596727,85.085624,OZONE,13,261,41
India,Bihar,Purnia,"Mariam Nagar, Purnia - BSPCB",21-04-2024 01:00:00,25.366336,87.117468,NH3,NA,NA,NA
India,Bihar,Purnia,"Mariam Nagar, Purnia - BSPCB",21-04-2024 01:00:00,25.366336,87.117468,OZONE,4,30,12
India,Bihar,Rajgir,"Dangi Tola, Rajgir - BSPCB",21-04-2024 01:00:00,25.03280,85.41948,PM2.5,25,97,52
India,Bihar,Rajgir,"Dangi Tola, Rajgir - BSPCB",21-04-2024 01:00:00,25.03280,85.41948,CO,27,44,38
India,Bihar,Sasaram,"Dada Peer, Sasaram - BSPCB",21-04-2024 01:00:00,24.952822,84.002396,NH3,8,10,8
India,Bihar,Siwan,"Chitragupta Nagar, Siwan - BSPCB",21-04-2024 01:00:00,26.2271665,84.3570427,NO2,NA,NA,NA
India,Bihar,Siwan,"Chitragupta Nagar, Siwan - BSPCB",21-04-2024 01:00:00,26.2271665,84.3570427,SO2,NA,NA,NA
India,Chandigarh,Chandigarh,"Sector 22, Chandigarh - CPCC",21-04-2024 01:00:00,30.735567,76.775714,CO,32,50,41
India,Chandigarh,Chandigarh,"Sector-25, Chandigarh - CPCC",21-04-2024 01:00:00,30.751462,76.762879,PM2.5,94,179,127
India,Chandigarh,Chandigarh,"Sector-25, Chandigarh - CPCC",21-04-2024 01:00:00,30.751462,76.762879,SO2,8,85,14
India,Chandigarh,Chandigarh,"Sector-53, Chandigarh - CPCC",21-04-2024 01:00:00,30.719859,76.738637,PM2.5,20,130,58
India,Chandigarh,Chandigarh,"Sector-53, Chandigarh - CPCC",21-04-2024 01:00:00,30.719859,76.738637,SO2,2,11,7
India,Chhattisgarh,Bhilai,"32Bungalows, Bhilai - CECB",21-04-2024 01:00:00,21.194815,81.314770,NO2,18,30,25
India,Chhattisgarh,Bhilai,"Civic Center, Bhilai - Bhilai Steel Plant",21-04-2024 01:00:00,21.185571,81.343175,NO2,11,16,15
India,Chhattisgarh,Bhilai,"Civic Center, Bhilai - Bhilai Steel Plant",21-04-2024 01:00:00,21.185571,81.343175,SO2,10,41,15
India,Chhattisgarh,Chhal,"Nawapara SECL Colony, Chhal - CECB",21-04-2024 01:00:00,22.118125,83.140608,PM10,NA,NA,NA
India,Chhattisgarh,Chhal,"Nawapara SECL Colony, Chhal - CECB",21-04-2024 01:00:00,22.118125,83.140608,CO,10,76,46
India,Chhattisgarh,Korba,"Urja Nagar, Korba - CECB",21-04-2024 01:00:00,22.348441,82.549611,PM10,31,230,72
India,Chhattisgarh,Korba,"Urja Nagar, Korba - CECB",21-04-2024 01:00:00,22.348441,82.549611,NO2,27,75,62
India,Chhattisgarh,Kunjemura,"OP Jindal School, Kunjemura - CECB",21-04-2024 01:00:00,22.126650,83.483212,OZONE,4,86,86
India,Chhattisgarh,Milupara,"Govt. Higher Secondary School, Milupara - CECB",21-04-2024 01:00:00,22.1910172,83.5197009,NO2,15,79,41
India,Chhattisgarh,Milupara,"Govt. Higher Secondary School, Milupara - CECB",21-04-2024 01:00:00,22.1910172,83.5197009,CO,20,75,42
India,Chhattisgarh,Raipur,"AIIMS, Raipur - CECB",21-04-2024 01:00:00,21.258815,81.578979,PM10,43,80,61
India,Chhattisgarh,Raipur,"Bhatagaon New ISBT, Raipur - CECB",21-04-2024 01:00:00,21.219665,81.630094,PM2.5,27,49,38
India,Chhattisgarh,Raipur,"Krishak Nagar, Raipur - CECB",21-04-2024 01:00:00,21.237755,81.705301,SO2,10,79,24
India,Chhattisgarh,Raipur,"Krishak Nagar, Raipur - CECB",21-04-2024 01:00:00,21.237755,81.705301,OZONE,3,123,38
India,Chhattisgarh,Raipur,"Siltara Phase-II, Raipur - CECB",21-04-2024 01:00:00,21.371751,81.664929,NO2,25,80,44
India,Chhattisgarh,Raipur,"Siltara Phase-II, Raipur - CECB",21-04-2024 01:00:00,21.371751,81.664929,CO,20,90,32
India,Chhattisgarh,Tumidih,"OP Jindal Industrial Park, Tumidih - CECB",21-04-2024 01:00:00,22.06631475,83.33820077,NO2,NA,NA,NA
India,Delhi,Delhi,"Alipur, Delhi - DPCC",21-04-2024 01:00:00,28.815329,77.153010,PM10,118,190,146
India,Delhi,Delhi,"Alipur, Delhi - DPCC",21-04-2024 01:00:00,28.815329,77.153010,CO,34,56,42
India,Delhi,Delhi,"Ashok Vihar, Delhi - DPCC",21-04-2024 01:00:00,28.695381,77.181665,PM10,135,389,189
India,Delhi,Delhi,"Ashok Vihar, Delhi - DPCC",21-04-2024 01:00:00,28.695381,77.181665,NO2,9,61,30
India,Delhi,Delhi,"Aya Nagar, Delhi - IMD",21-04-2024 01:00:00,28.4706914,77.1099364,PM2.5,33,395,191
India,Delhi,Delhi,"Aya Nagar, Delhi - IMD",21-04-2024 01:00:00,28.4706914,77.1099364,PM10,112,454,233
India,Delhi,Delhi,"Bawana, Delhi - DPCC",21-04-2024 01:00:00,28.776200,77.051074,PM2.5,38,352,117
India,Delhi,Delhi,"Bawana, Delhi - DPCC",21-04-2024 01:00:00,28.776200,77.051074,CO,8,42,16
India,Delhi,Delhi,"CRRI Mathura Road, Delhi - IMD",21-04-2024 01:00:00,28.5512005,77.2735737,NO2,9,15,12
India,Delhi,Delhi,"DTU, Delhi - CPCB",21-04-2024 01:00:00,28.7500499,77.1112615,PM10,116,289,160
India,Delhi,Delhi,"DTU, Delhi - CPCB",21-04-2024 01:00:00,28.7500499,77.1112615,SO2,33,43,36
India,Delhi,Delhi,"DTU, Delhi - CPCB",21-04-2024 01:00:00,28.7500499,77.1112615,OZONE,34,180,132
India,Delhi,Delhi,"Dr. Karni Singh Shooting Range, Delhi - DPCC",21-04-2024 01:00:00,28.498571,77.264840,PM10,124,420,204
India,Delhi,Delhi,"Dr. Karni Singh Shooting Range, Delhi - DPCC",21-04-2024 01:00:00,28.498571,77.264840,NH3,5,9,6
India,Delhi,Delhi,"Dwarka-Sector 8, Delhi - DPCC ",21-04-2024 01:00:00,28.5710274,77.0719006,NH3,6,10,7
India,Delhi,Delhi,"Dwarka-Sector 8, Delhi - DPCC ",21-04-2024 01:00:00,28.5710274,77.0719006,CO,31,70,43
India,Delhi,Delhi,"IHBAS, Dilshad Garden, Delhi - CPCB",21-04-2024 01:00:00,28.6811736,77.3025234,CO,12,52,26
India,Delhi,Delhi,"Jahangirpuri, Delhi - DPCC",21-04-2024 01:00:00,28.732820,77.170633,NO2,22,120,68
India,Delhi,Delhi,"Lodhi Road, Delhi - IITM",21-04-2024 01:00:00,28.588333,77.221667,NO2,80,112,90
India,Delhi,Delhi,"Lodhi Road, Delhi - IITM",21-04-2024 01:00:00,28.588333,77.221667,CO,58,66,61
India,Delhi,Delhi,"Major Dhyan Chand National Stadium, Delhi - DPCC",21-04-2024 01:00:00,28.611281,77.237738,PM10,95,319,153
India,Delhi,Delhi,"Major Dhyan Chand National Stadium, Delhi - DPCC",21-04-2024 01:00:00,28.611281,77.237738,SO2,6,11,8
India,Delhi,Delhi,"Mundka, Delhi - DPCC",21-04-2024 01:00:00,28.684678,77.076574,NH3,4,10,6
India,Delhi,Delhi,"Mundka, Delhi - DPCC",21-04-2024 01:00:00,28.684678,77.076574,SO2,10,106,34
India,Delhi,Delhi,"NSIT Dwarka, Delhi - CPCB",21-04-2024 01:00:00,28.60909,77.0325413,NO2,26,50,40
India,Delhi,Delhi,"NSIT Dwarka, Delhi - CPCB",21-04-2024 01:00:00,28.60909,77.0325413,CO,24,50,39
India,Delhi,Delhi,"Najafgarh, Delhi - DPCC",21-04-2024 01:00:00,28.570173,76.933762,PM2.5,22,321,108
India,Delhi,Delhi,"Nehru Nagar, Delhi - DPCC",21-04-2024 01:00:00,28.567890,77.250515,NH3,2,3,2
India,Delhi,Delhi,"Nehru Nagar, Delhi - DPCC",21-04-2024 01:00:00,28.567890,77.250515,SO2,4,9,5
India,Delhi,Delhi,"New Moti Bagh, Delhi - MHUA",21-04-2024 01:00:00,28.57834,77.18400,NO2,5,25,11
India,Delhi,Delhi,"North Campus, DU, Delhi - IMD",21-04-2024 01:00:00,28.6573814,77.1585447,PM2.5,43,314,125
India,Delhi,Delhi,"North Campus, DU, Delhi - IMD",21-04-2024 01:00:00,28.6573814,77.1585447,NO2,13,44,23
India,Delhi,Delhi,"Okhla Phase-2, Delhi - DPCC",21-04-2024 01:00:00,28.530785,77.271255,NO2,34,96,69
India,Delhi,Delhi,"Okhla Phase-2, Delhi - DPCC",21-04-2024 01:00:00,28.530785,77.271255,SO2,11,21,15
India,Delhi,Delhi,"Okhla Phase-2, Delhi - DPCC",21-04-2024 01:00:00,28.530785,77.271255,OZONE,10,80,43
India,Delhi,Delhi,"Patparganj, Delhi - DPCC",21-04-2024 01:00:00,28.623763,77.287209,NO2,27,73,43
India,Delhi,Delhi,"Patparganj, Delhi - DPCC",21-04-2024 01:00:00,28.623763,77.287209,NH3,8,10,9
India,Delhi,Delhi,"Pusa, Delhi - DPCC",21-04-2024 01:00:00,28.639652,77.146275,PM2.5,33,303,90
India,Delhi,Delhi,"Pusa, Delhi - DPCC",21-04-2024 01:00:00,28.639652,77.146275,SO2,7,62,21
India,Delhi,Delhi,"Pusa, Delhi - IMD",21-04-2024 01:00:00,28.636110,77.173332,PM10,128,333,185
India,Delhi,Delhi,"Pusa, Delhi - IMD",21-04-2024 01:00:00,28.636110,77.173332,NO2,11,28,18
India,Delhi,Delhi,"R K Puram, Delhi - DPCC",21-04-2024 01:00:00,28.563262,77.186937,CO,12,57,28
India,Delhi,Delhi,"Rohini, Delhi - DPCC",21-04-2024 01:00:00,28.732528,77.119920,SO2,8,34,19
India,Delhi,Delhi,"Shadipur, Delhi - CPCB",21-04-2024 01:00:00,28.6514781,77.1473105,PM10,124,418,189
India,Delhi,Delhi,"Shadipur, Delhi - CPCB",21-04-2024 01:00:00,28.6514781,77.1473105,SO2,12,22,18
India,Delhi,Delhi,"Sonia Vihar, Delhi - DPCC",21-04-2024 01:00:00,28.710508,77.249485,PM10,123,219,153
India,Delhi,Delhi,"Sri Aurobindo Marg, Delhi - DPCC",21-04-2024 01:00:00,28.531346,77.190156,NH3,6,9,7
India,Delhi,Delhi,"Vivek Vihar, Delhi - DPCC",21-04-2024 01:00:00,28.672342,77.315260,PM2.5,38,329,106
India,Delhi,Delhi,"Wazirpur, Delhi - DPCC",21-04-2024 01:00:00,28.699793,77.165453,SO2,8,25,15
India,Gujarat,Ahmedabad,"Gyaspur, Ahmedabad - IITM",21-04-2024 01:00:00,22.977134,72.553024,PM2.5,35,187,64
India,Gujarat,Ahmedabad,"Gyaspur, Ahmedabad - IITM",21-04-2024 01:00:00,22.977134,72.553024,NH3,2,3,2
India,Gujarat,Ahmedabad,"Maninagar, Ahmedabad - GPCB",21-04-2024 01:00:00,23.002657,72.591912,CO,52,120,84
India,Gujarat,Ahmedabad,"Raikhad, Ahmedabad - IITM",21-04-2024 01:00:00,23.020509,72.579261,PM2.5,27,291,102
India,Gujarat,Ahmedabad,"SAC ISRO Satellite, Ahmedabad - IITM",21-04-2024 01:00:00,23.023389,72.515201,SO2,3,21,7
India,Gujarat,Ahmedabad,"SAC ISRO Satellite, Ahmedabad - IITM",21-04-2024 01:00:00,23.023389,72.515201,CO,32,38,36
India,Gujarat,Ahmedabad,"SVPI Airport Hansol, Ahmedabad - IITM",21-04-2024 01:00:00,23.076793,72.627874,NH3,1,2,2
India,Gujarat,Ahmedabad,"Sardar Vallabhbhai Patel Stadium, Ahmedabad - IITM",21-04-2024 01:00:00,23.043070,72.562968,PM10,40,107,68
India,Gujarat,Ahmedabad,"Sardar Vallabhbhai Patel Stadium, Ahmedabad - IITM",21-04-2024 01:00:00,23.043070,72.562968,NO2,40,41,40
India,Gujarat,Ankleshwar,"GIDC, Ankleshwar - GPCB",21-04-2024 01:00:00,21.613267,73.010555,SO2,5,65,20
India,Gujarat,Gandhinagar,"Sector-10, Gandhinagar - GPCB",21-04-2024 01:00:00,23.221714,72.654328,SO2,4,6,5
India,Gujarat,Nandesari,"GIDC, Nandesari - Nandesari Ind. Association",21-04-2024 01:00:00,22.410802,73.097923,NO2,10,37,23
India,Gujarat,Vatva,"Phase-4 GIDC, Vatva - GPCB",21-04-2024 01:00:00,22.969611,72.643500,PM2.5,23,66,40
India,Gujarat,Vatva,"Phase-4 GIDC, Vatva - GPCB",21-04-2024 01:00:00,22.969611,72.643500,SO2,10,58,27
India,Haryana,Ambala,"Patti Mehar, Ambala - HSPCB",21-04-2024 01:00:00,30.379589,76.778328,PM2.5,18,86,44
India,Haryana,Ambala,"Patti Mehar, Ambala - HSPCB",21-04-2024 01:00:00,30.379589,76.778328,NO2,3,5,4
India,Haryana,Ambala,"Patti Mehar, Ambala - HSPCB",21-04-2024 01:00:00,30.379589,76.778328,SO2,NA,NA,NA
India,Haryana,Bahadurgarh,"Arya Nagar, Bahadurgarh - HSPCB",21-04-2024 01:00:00,28.6701,76.9254,CO,44,102,99
India,Haryana,Bahadurgarh,"Arya Nagar, Bahadurgarh - HSPCB",21-04-2024 01:00:00,28.6701,76.9254,OZONE,35,44,37
India,Haryana,Ballabgarh,"Nathu Colony, Ballabgarh - HSPCB",21-04-2024 01:00:00,28.3419248,77.319699,NH3,1,2,2
India,Haryana,Ballabgarh,"Nathu Colony, Ballabgarh - HSPCB",21-04-2024 01:00:00,28.3419248,77.319699,SO2,1,135,26
India,Haryana,Bhiwani,"H.B. Colony, Bhiwani - HSPCB",21-04-2024 01:00:00,28.806223,76.141105,CO,12,34,23
India,Haryana,Dharuhera,"Municipal Corporation Office, Dharuhera -  HSPCB",21-04-2024 01:00:00,28.206800,76.799700,PM10,158,474,277
India,Haryana,Dharuhera,"Municipal Corporation Office, Dharuhera -  HSPCB",21-04-2024 01:00:00,28.206800,76.799700,OZONE,22,47,37
India,Haryana,Faridabad,"Sector 11, Faridabad - HSPCB",21-04-2024 01:00:00,28.376058,77.315741,NO2,30,33,31
India,Haryana,Faridabad,"Sector 11, Faridabad - HSPCB",21-04-2024 01:00:00,28.376058,77.315741,SO2,1,3,2
India,Haryana,Faridabad,"Sector- 16A, Faridabad - HSPCB",21-04-2024 01:00:00,28.4088421,77.3099081,CO,4,96,21
India,Haryana,Fatehabad,"Huda Sector, Fatehabad - HSPCB",21-04-2024 01:00:00,29.503664,75.467934,PM2.5,17,110,42
India,Haryana,Gurugram,"Sector-51, Gurugram - HSPCB",21-04-2024 01:00:00,28.4227,77.0667,PM10,140,489,269
India,Haryana,Gurugram,"Sector-51, Gurugram - HSPCB",21-04-2024 01:00:00,28.4227,77.0667,NO2,13,29,23
India,Haryana,Gurugram,"Teri Gram, Gurugram - HSPCB",21-04-2024 01:00:00,28.4275,77.1465,PM10,57,485,298
India,Haryana,Gurugram,"Vikas Sadan, Gurugram - HSPCB",21-04-2024 01:00:00,28.4501238,77.0263051,PM2.5,83,435,314
India,Haryana,Gurugram,"Vikas Sadan, Gurugram - HSPCB",21-04-2024 01:00:00,28.4501238,77.0263051,CO,54,147,110
India,Haryana,Kaithal,"Rishi Nagar, Kaithal - HSPCB",21-04-2024 01:00:00,29.8006,76.4155,OZONE,2,94,32
India,Haryana,Karnal,"Sector-12, Karnal - HSPCB",21-04-2024 01:00:00,29.695300,77.002700,CO,18,30,26
India,Haryana,Kurukshetra,"Sector-7, Kurukshetra - HSPCB",21-04-2024 01:00:00,29.966942,76.875879,OZONE,17,74,46
India,Haryana,Mandikhera,"General Hospital, Mandikhera - HSPCB",21-04-2024 01:00:00,27.9002,76.9938,PM2.5,9,85,44
India,Haryana,Mandikhera,"General Hospital, Mandikhera - HSPCB",21-04-2024 01:00:00,27.9002,76.9938,NH3,16,19,18
India,Haryana,Mandikhera,"General Hospital, Mandikhera - HSPCB",21-04-2024 01:00:00,27.9002,76.9938,OZONE,23,32,27
India,Haryana,Narnaul,"Shastri Nagar, Narnaul - HSPCB",21-04-2024 01:00:00,28.060249,76.113115,OZONE,45,58,50
India,Haryana,Panipat,"Sector-18, Panipat - HSPCB",21-04-2024 01:00:00,29.497973,76.993331,NH3,2,3,2
India,Haryana,Panipat,"Sector-18, Panipat - HSPCB",21-04-2024 01:00:00,29.497973,76.993331,OZONE,30,30,30
India,Haryana,Rohtak,"MD University, Rohtak - HSPCB",21-04-2024 01:00:00,28.52123,76.37138,CO,21,69,46
India,Haryana,Rohtak,"MD University, Rohtak - HSPCB",21-04-2024 01:00:00,28.52123,76.37138,OZONE,44,54,50
India,Haryana,Sirsa,"F-Block, Sirsa - HSPCB",21-04-2024 01:00:00,29.536400,75.015800,PM10,31,97,53
India,Haryana,Yamuna Nagar,"Gobind Pura, Yamuna Nagar - HSPCB",21-04-2024 01:00:00,30.1480566,77.2893471,SO2,1,28,7
India,Himachal Pradesh,Baddi,"HIMUDA Complex Phase-1, Baddi - HPPCB",21-04-2024 01:00:00,30.943887,76.801991,SO2,11,115,24
India,Himachal Pradesh,Baddi,"HIMUDA Complex Phase-1, Baddi - HPPCB",21-04-2024 01:00:00,30.943887,76.801991,OZONE,45,153,99
India,Jharkhand,Dhanbad,"Kalakusuma, Dhanbad - DMC",21-04-2024 01:00:00,23.811548,86.481238,SO2,NA,NA,NA
India,Karnataka,Bagalkot,"Vidayagiri, Bagalkot - KSPCB",21-04-2024 01:00:00,16.172806,75.659694,PM10,45,46,46
India,Karnataka,Belgaum,"Ramteerth Nagar, Belgaum - KSPCB",21-04-2024 01:00:00,15.888653,74.541751,OZONE,19,20,20
India,Karnataka,Bengaluru,"BTM Layout, Bengaluru - CPCB",21-04-2024 01:00:00,12.9135218,77.5950804,PM2.5,NA,NA,NA
India,Karnataka,Bengaluru,"Bapuji Nagar, Bengaluru - KSPCB",21-04-2024 01:00:00,12.951913,77.539784,PM2.5,68,149,97
India,Karnataka,Bengaluru,"Bapuji Nagar, Bengaluru - KSPCB",21-04-2024 01:00:00,12.951913,77.539784,CO,36,46,41
India,Karnataka,Bengaluru,"Hebbal, Bengaluru - KSPCB",21-04-2024 01:00:00,13.029152,77.585901,PM2.5,47,86,65
India,Karnataka,Bengaluru,"Hebbal, Bengaluru - KSPCB",21-04-2024 01:00:00,13.029152,77.585901,SO2,17,30,22
India,Karnataka,Bengaluru,"Hebbal, Bengaluru - KSPCB",21-04-2024 01:00:00,13.029152,77.585901,CO,6,28,19
India,Karnataka,Bengaluru,"Hombegowda Nagar, Bengaluru - KSPCB",21-04-2024 01:00:00,12.938539,77.590100,NH3,1,2,1
India,Karnataka,Bengaluru,"Jayanagar 5th Block, Bengaluru - KSPCB",21-04-2024 01:00:00,12.920984,77.584908,PM2.5,44,112,73
India,Karnataka,Bengaluru,"Jayanagar 5th Block, Bengaluru - KSPCB",21-04-2024 01:00:00,12.920984,77.584908,CO,2,7,6
India,Karnataka,Bengaluru,"Kasturi Nagar, Bengaluru - KSPCB",21-04-2024 01:00:00,13.003872,77.664217,PM2.5,57,215,104
India,Karnataka,Bengaluru,"Kasturi Nagar, Bengaluru - KSPCB",21-04-2024 01:00:00,13.003872,77.664217,NH3,3,4,4
India,Karnataka,Bengaluru,"RVCE-Mailasandra, Bengaluru - KSPCB",21-04-2024 01:00:00,12.921418,77.502466,PM2.5,20,107,76
India,Karnataka,Bengaluru,"RVCE-Mailasandra, Bengaluru - KSPCB",21-04-2024 01:00:00,12.921418,77.502466,NO2,16,17,17
India,Karnataka,Bengaluru,"RVCE-Mailasandra, Bengaluru - KSPCB",21-04-2024 01:00:00,12.921418,77.502466,CO,32,70,56
India,Karnataka,Bengaluru,"Shivapura_Peenya, Bengaluru - KSPCB",21-04-2024 01:00:00,13.0246342,77.5080115,PM2.5,35,148,81
India,Karnataka,Bengaluru,"Shivapura_Peenya, Bengaluru - KSPCB",21-04-2024 01:00:00,13.0246342,77.5080115,NO2,15,16,15
India,Karnataka,Bengaluru,"Shivapura_Peenya, Bengaluru - KSPCB",21-04-2024 01:00:00,13.0246342,77.5080115,CO,28,66,44
India,Karnataka,Bengaluru,"Silk Board, Bengaluru - KSPCB",21-04-2024 01:00:00,12.917348,77.622813,PM2.5,46,92,66
India,Karnataka,Bengaluru,"Silk Board, Bengaluru - KSPCB",21-04-2024 01:00:00,12.917348,77.622813,SO2,8,15,12
India,Karnataka,Bidar,"Naubad, Bidar - KSPCB",21-04-2024 01:00:00,17.930306,77.482194,PM2.5,NA,NA,NA
India,Karnataka,Chamarajanagar,"Urban, Chamarajanagar - KSPCB",21-04-2024 01:00:00,11.55358,76.55521,SO2,4,8,5
India,Karnataka,Chamarajanagar,"Urban, Chamarajanagar - KSPCB",21-04-2024 01:00:00,11.55358,76.55521,CO,22,120,33
India,Karnataka,Chikkaballapur,"Chikkaballapur Rural, Chikkaballapur - KSPCB",21-04-2024 01:00:00,13.428828,77.731418,PM2.5,55,95,72
India,Karnataka,Chikkamagaluru,"Kalyana Nagara, Chikkamagaluru - KSPCB",21-04-2024 01:00:00,13.328028,75.797056,CO,4,117,38
India,Karnataka,Chikkamagaluru,"Kalyana Nagara, Chikkamagaluru - KSPCB",21-04-2024 01:00:00,13.328028,75.797056,OZONE,10,29,28
India,Karnataka,Davanagere,"Devaraj Urs Badavane, Davanagere - KSPCB",21-04-2024 01:00:00,14.475800,75.905200,PM10,22,104,45
India,Karnataka,Dharwad,"Kalabhavan, Dharwad - KSPCB",21-04-2024 01:00:00,15.459706,75.008381,NH3,3,3,3
India,Karnataka,Dharwad,"Kalabhavan, Dharwad - KSPCB",21-04-2024 01:00:00,15.459706,75.008381,OZONE,2,56,11
India,Karnataka,Hubballi,"Deshpande Nagar, Hubballi - KSPCB",21-04-2024 01:00:00,15.351773,75.140726,OZONE,2,11,3
India,Karnataka,Kalaburagi,"Lal Bahadur Shastri Nagar, Kalaburagi - KSPCB",21-04-2024 01:00:00,17.321993,76.822628,NO2,11,12,11
India,Karnataka,Kolar,"Tamaka Ind. Area, Kolar - KSPCB",21-04-2024 01:00:00,13.1276288,78.1570122,PM2.5,NA,NA,NA
India,Karnataka,Kolar,"Tamaka Ind. Area, Kolar - KSPCB",21-04-2024 01:00:00,13.1276288,78.1570122,SO2,NA,NA,NA
India,Karnataka,Kolar,"Tamaka Ind. Area, Kolar - KSPCB",21-04-2024 01:00:00,13.1276288,78.1570122,OZONE,13,15,14
India,Karnataka,Madikeri,"Stuart Hill, Madikeri - KSPCB",21-04-2024 01:00:00,12.415911,75.735050,CO,3,70,39
India,Karnataka,Mangalore,"Kadri, Mangalore - KSPCB",21-04-2024 01:00:00,12.889250,74.853000,NH3,1,2,2
India,Karnataka,Mangalore,"Kadri, Mangalore - KSPCB",21-04-2024 01:00:00,12.889250,74.853000,SO2,3,20,15
India,Karnataka,Mangalore,"Kadri, Mangalore - KSPCB",21-04-2024 01:00:00,12.889250,74.853000,OZONE,30,36,31
India,Karnataka,Mysuru,"Hebbal 1st Stage, Mysuru - KSPCB",21-04-2024 01:00:00,12.21041,76.37376,CO,10,53,26
India,Karnataka,Mysuru,"Hebbal 1st Stage, Mysuru - KSPCB",21-04-2024 01:00:00,12.21041,76.37376,OZONE,10,64,41
India,Karnataka,Ramanagara,"Vijay Nagar, Ramanagara - KSPCB",21-04-2024 01:00:00,12.733409,77.298051,NH3,1,1,1
India,Karnataka,Tumakuru,"Thimmalapura, Tumakuru - KSPCB",21-04-2024 01:00:00,13.377516,77.099072,CO,29,34,31
India,Karnataka,Vijayapura,"Ibrahimpur, Vijayapura - KSPCB",21-04-2024 01:00:00,16.802639,75.722694,PM10,41,44,42
India,Karnataka,Vijayapura,"Ibrahimpur, Vijayapura - KSPCB",21-04-2024 01:00:00,16.802639,75.722694,NO2,17,19,19
India,Karnataka,Vijayapura,"Ibrahimpur, Vijayapura - KSPCB",21-04-2024 01:00:00,16.802639,75.722694,SO2,2,26,8
India,Karnataka,Yadgir,"Collector Office, Yadgir - KSPCB",21-04-2024 01:00:00,16.7602,77.1428,PM10,62,93,77
India,Karnataka,Yadgir,"Collector Office, Yadgir - KSPCB",21-04-2024 01:00:00,16.7602,77.1428,NH3,NA,NA,NA
India,Kerala,Kannur,"Thavakkara, Kannur - Kerala PCB",21-04-2024 01:00:00,11.875000,75.373200,PM2.5,69,78,72
India,Kerala,Kannur,"Thavakkara, Kannur - Kerala PCB",21-04-2024 01:00:00,11.875000,75.373200,NH3,1,1,1
India,Kerala,Kollam,"Polayathode, Kollam - Kerala PCB",21-04-2024 01:00:00,8.8787,76.6073,SO2,NA,NA,NA
India,Kerala,Thiruvananthapuram,"Kariavattom, Thiruvananthapuram - Kerala PCB",21-04-2024 01:00:00,8.563700,76.886500,SO2,1,12,6
India,Kerala,Thiruvananthapuram,"Plammoodu, Thiruvananthapuram - Kerala PCB",21-04-2024 01:00:00,8.5149093,76.9435879,OZONE,5,60,18
India,Kerala,Thrissur,"Corporation Ground, Thrissur - Kerala PCB",21-04-2024 01:00:00,10.532400,76.215900,PM2.5,44,51,47
India,Kerala,Thrissur,"Corporation Ground, Thrissur - Kerala PCB",21-04-2024 01:00:00,10.532400,76.215900,CO,14,66,35
India,Madhya Pradesh,Bhopal,"Idgah Hills, Bhopal - MPPCB",21-04-2024 01:00:00,23.264759,77.381568,NO2,17,51,31
India,Madhya Pradesh,Bhopal,"Idgah Hills, Bhopal - MPPCB",21-04-2024 01:00:00,23.264759,77.381568,SO2,12,16,14
India,Madhya Pradesh,Bhopal,"Paryavaran Parisar, Bhopal - MPPCB",21-04-2024 01:00:00,23.210494,77.425409,OZONE,31,81,58
India,Madhya Pradesh,Bhopal,"T T Nagar, Bhopal - MPPCB",21-04-2024 01:00:00,23.233584,77.400574,NH3,6,9,8
India,Madhya Pradesh,Dewas,"Bhopal Chauraha, Dewas - MPPCB",21-04-2024 01:00:00,22.9682591,76.064118,NH3,3,3,3
India,Madhya Pradesh,Dewas,"Bhopal Chauraha, Dewas - MPPCB",21-04-2024 01:00:00,22.9682591,76.064118,SO2,18,30,22
India,Madhya Pradesh,Gwalior,"City Center, Gwalior - MPPCB",21-04-2024 01:00:00,26.203442,78.193251,PM10,88,189,120
India,Madhya Pradesh,Gwalior,"City Center, Gwalior - MPPCB",21-04-2024 01:00:00,26.203442,78.193251,SO2,5,34,18
India,Madhya Pradesh,Gwalior,"Maharaj Bada, Gwalior - MPPCB",21-04-2024 01:00:00,26.200388,78.147714,PM2.5,20,48,32
India,Madhya Pradesh,Gwalior,"Phool Bagh, Gwalior - Mondelez Ind. Food",21-04-2024 01:00:00,26.210536,78.171,CO,45,50,49
India,Madhya Pradesh,Indore,"Chhoti Gwaltoli, Indore - MPPCB",21-04-2024 01:00:00,22.4310,75.5213,PM2.5,32,75,53
India,Madhya Pradesh,Indore,"Chhoti Gwaltoli, Indore - MPPCB",21-04-2024 01:00:00,22.4310,75.5213,SO2,14,32,22
India,Madhya Pradesh,Indore,"Chhoti Gwaltoli, Indore - MPPCB",21-04-2024 01:00:00,22.4310,75.5213,OZONE,22,69,36
India,Madhya Pradesh,Indore,"Maguda Nagar, Indore - IMC",21-04-2024 01:00:00,22.7524,75.8872,NH3,1,2,1
India,Madhya Pradesh,Indore,"Residency Area, Indore - IMC",21-04-2024 01:00:00,22.7084,75.8815,PM2.5,37,76,55
India,Madhya Pradesh,Indore,"Residency Area, Indore - IMC",21-04-2024 01:00:00,22.7084,75.8815,NO2,32,51,40
India,Madhya Pradesh,Indore,"Residency Area, Indore - IMC",21-04-2024 01:00:00,22.7084,75.8815,SO2,23,30,26
India,Madhya Pradesh,Jabalpur,"Govindh Bhavan Colony, Jabalpur - JMC",21-04-2024 01:00:00,23.163174,79.973061,NO2,NA,NA,NA
India,Madhya Pradesh,Jabalpur,"Marhatal, Jabalpur - MPPCB",21-04-2024 01:00:00,23.168606,79.932247,NO2,8,72,30
India,Madhya Pradesh,Jabalpur,"Marhatal, Jabalpur - MPPCB",21-04-2024 01:00:00,23.168606,79.932247,CO,11,102,68
India,Madhya Pradesh,Jabalpur,"Suhagi, Jabalpur - JMC",21-04-2024 01:00:00,23.218135,79.957770,PM2.5,28,367,102
India,Madhya Pradesh,Jabalpur,"Suhagi, Jabalpur - JMC",21-04-2024 01:00:00,23.218135,79.957770,NH3,3,4,4
India,Madhya Pradesh,Katni,"Gole Bazar, Katni - MPPCB",21-04-2024 01:00:00,23.50016,80.23284,PM10,60,191,112
India,Madhya Pradesh,Katni,"Gole Bazar, Katni - MPPCB",21-04-2024 01:00:00,23.50016,80.23284,SO2,21,139,51
India,Madhya Pradesh,Maihar,"Sahilara, Maihar - KJS Cements",21-04-2024 01:00:00,24.2613009,80.7231783,PM10,29,101,52
India,Madhya Pradesh,Maihar,"Sahilara, Maihar - KJS Cements",21-04-2024 01:00:00,24.2613009,80.7231783,SO2,14,19,15
India,Madhya Pradesh,Mandideep,"Sector-D Industrial Area, Mandideep - MPPCB",21-04-2024 01:00:00,23.108440,77.511428,PM10,80,161,107
India,Madhya Pradesh,Mandideep,"Sector-D Industrial Area, Mandideep - MPPCB",21-04-2024 01:00:00,23.108440,77.511428,OZONE,12,39,28
India,Madhya Pradesh,Pithampur,"Sector-2 Industrial Area, Pithampur - MPPCB",21-04-2024 01:00:00,22.624758,75.675238,PM10,93,137,115
India,Madhya Pradesh,Sagar,"Civil Lines, Sagar - MPPCB",21-04-2024 01:00:00,23.838586,78.759431,PM2.5,NA,NA,NA
India,Madhya Pradesh,Sagar,"Civil Lines, Sagar - MPPCB",21-04-2024 01:00:00,23.838586,78.759431,NO2,8,40,17
India,Madhya Pradesh,Sagar,"Deen Dayal Nagar, Sagar - MPPCB",21-04-2024 01:00:00,23.8640158,78.80289321,CO,29,90,51
India,Madhya Pradesh,Satna,"Bandhavgar Colony, Satna - Birla Cement",21-04-2024 01:00:00,24.58434363,80.8549414,SO2,3,4,4
India,Madhya Pradesh,Singrauli,"Suryakiran Bhawan NCL, Singrauli - MPPCB",21-04-2024 01:00:00,24.108970,82.645580,PM10,100,500,248
India,Madhya Pradesh,Singrauli,"Suryakiran Bhawan NCL, Singrauli - MPPCB",21-04-2024 01:00:00,24.108970,82.645580,NO2,13,88,47
India,Madhya Pradesh,Singrauli,"Suryakiran Bhawan NCL, Singrauli - MPPCB",21-04-2024 01:00:00,24.108970,82.645580,SO2,37,55,45
India,Madhya Pradesh,Ujjain,"Mahakaleshwar Temple, Ujjain - MPPCB",21-04-2024 01:00:00,23.182719 ,75.768218 ,PM10,NA,NA,NA
India,Madhya Pradesh,Ujjain,"Mahakaleshwar Temple, Ujjain - MPPCB",21-04-2024 01:00:00,23.182719 ,75.768218 ,SO2,NA,NA,NA
India,Madhya Pradesh,Ujjain,"Mahakaleshwar Temple, Ujjain - MPPCB",21-04-2024 01:00:00,23.182719 ,75.768218 ,OZONE,95,141,139
India,Maharashtra,Ahmednagar,"Tarakpur, Ahmednagar - MPCB",21-04-2024 01:00:00,19.10122,74.73339,SO2,7,13,10
India,Maharashtra,Akola,"Ramdaspeth, Akola - MPCB",21-04-2024 01:00:00,20.719516,77.000253,PM2.5,26,81,50
India,Maharashtra,Akola,"Ramdaspeth, Akola - MPCB",21-04-2024 01:00:00,20.719516,77.000253,CO,14,64,27
India,Maharashtra,Amravati,"Shri Shivaji Science College, Amaravati - MPCB",21-04-2024 01:00:00,20.939198,77.765701,PM2.5,44,92,65
India,Maharashtra,Aurangabad,"More Chowk Waluj, Aurangabad - MPCB",21-04-2024 01:00:00,19.8389439,75.244448,NH3,NA,NA,NA
India,Maharashtra,Aurangabad,"More Chowk Waluj, Aurangabad - MPCB",21-04-2024 01:00:00,19.8389439,75.244448,CO,1,52,8
India,Maharashtra,Aurangabad,"Rachnakar Colony, Aurangabad - MPCB",21-04-2024 01:00:00,19.863756,75.321188,PM2.5,46,102,75
India,Maharashtra,Badlapur,"Katrap, Badlapur - MPCB",21-04-2024 01:00:00,19.16485,73.23409,PM2.5,103,168,141
India,Maharashtra,Badlapur,"Katrap, Badlapur - MPCB",21-04-2024 01:00:00,19.16485,73.23409,NO2,4,44,13
India,Maharashtra,Badlapur,"Katrap, Badlapur - MPCB",21-04-2024 01:00:00,19.16485,73.23409,CO,8,54,20
India,Maharashtra,Belapur,"CBD Belapur, Belapur - MPCB",21-04-2024 01:00:00,19.0243902,73.0406721,PM2.5,69,181,106
India,Maharashtra,Belapur,"CBD Belapur, Belapur - MPCB",21-04-2024 01:00:00,19.0243902,73.0406721,PM10,75,146,115
India,Maharashtra,Belapur,"CBD Belapur, Belapur - MPCB",21-04-2024 01:00:00,19.0243902,73.0406721,SO2,1,12,4
India,Maharashtra,Bhiwandi,"Gokul Nagar, Bhiwandi - MPCB",21-04-2024 01:00:00,19.309073,73.057223,SO2,19,25,21
India,Maharashtra,Bhiwandi,"Gokul Nagar, Bhiwandi - MPCB",21-04-2024 01:00:00,19.309073,73.057223,CO,11,46,19
India,Maharashtra,Chandrapur,"Chauhan Colony, Chandrapur - MPCB",21-04-2024 01:00:00,19.962900,79.298714,PM2.5,62,147,94
India,Maharashtra,Chandrapur,"Chauhan Colony, Chandrapur - MPCB",21-04-2024 01:00:00,19.962900,79.298714,PM10,54,101,76
India,Maharashtra,Chandrapur,"Chauhan Colony, Chandrapur - MPCB",21-04-2024 01:00:00,19.962900,79.298714,NH3,1,27,6
India,Maharashtra,Chandrapur,"Chauhan Colony, Chandrapur - MPCB",21-04-2024 01:00:00,19.962900,79.298714,SO2,6,67,19
India,Maharashtra,Dhule,"Deopur, Dhule - MPCB",21-04-2024 01:00:00,20.918946,74.776388,NH3,2,19,9
India,Maharashtra,Jalgaon,"Prabhat Colony, Jalgaon - MPCB",21-04-2024 01:00:00,21.001264,75.565602,PM2.5,56,132,88
India,Maharashtra,Jalgaon,"Prabhat Colony, Jalgaon - MPCB",21-04-2024 01:00:00,21.001264,75.565602,NO2,11,36,23
India,Maharashtra,Jalna,"Old MIDC, Jalna - MPCB",21-04-2024 01:00:00,19.854616,75.905894,OZONE,15,138,53
India,Maharashtra,Kalyan,"Khadakpada, Kalyan - MPCB",21-04-2024 01:00:00,19.25292,73.142019,PM2.5,30,65,41
India,Maharashtra,Kalyan,"Khadakpada, Kalyan - MPCB",21-04-2024 01:00:00,19.25292,73.142019,PM10,88,155,121
India,Maharashtra,Kalyan,"Khadakpada, Kalyan - MPCB",21-04-2024 01:00:00,19.25292,73.142019,OZONE,11,27,21
India,Maharashtra,Kolhapur,"Shivaji University, Kolhapur - MPCB",21-04-2024 01:00:00,16.6870449,74.2505872,PM2.5,71,169,105
India,Maharashtra,Kolhapur,"Shivaji University, Kolhapur - MPCB",21-04-2024 01:00:00,16.6870449,74.2505872,CO,46,98,66
India,Maharashtra,Kolhapur,"Sinchan Bhavan, Kolhapur - MPCB",21-04-2024 01:00:00,16.7143745,74.2426398,NO2,7,45,24
India,Maharashtra,Kolhapur,"Sinchan Bhavan, Kolhapur - MPCB",21-04-2024 01:00:00,16.7143745,74.2426398,CO,14,37,28
India,Maharashtra,Kolhapur,"Sinchan Bhavan, Kolhapur - MPCB",21-04-2024 01:00:00,16.7143745,74.2426398,OZONE,17,95,46
India,Maharashtra,Latur,"Sawe Wadi, Latur - MPCB",21-04-2024 01:00:00,18.39963,76.57452,NH3,NA,NA,NA
India,Maharashtra,Malegaon,"Mahesh Nagar, Malegaon - MPCB",21-04-2024 01:00:00,20.555712,74.529236,PM10,103,253,138
India,Maharashtra,Mira-Bhayandar,"Bhayandar West, Mira-Bhayandar - MPCB",21-04-2024 01:00:00,19.296481,72.840923,NH3,3,4,3
India,Maharashtra,Mira-Bhayandar,"Bhayandar West, Mira-Bhayandar - MPCB",21-04-2024 01:00:00,19.296481,72.840923,SO2,3,10,6
India,Maharashtra,Mira-Bhayandar,"Bhayandar West, Mira-Bhayandar - MPCB",21-04-2024 01:00:00,19.296481,72.840923,CO,6,22,11
India,Maharashtra,Mumbai,"Borivali East, Mumbai - IITM",21-04-2024 01:00:00,19.23241,72.86895,PM10,NA,NA,NA
India,Maharashtra,Mumbai,"Borivali East, Mumbai - IITM",21-04-2024 01:00:00,19.23241,72.86895,CO,39,70,42
India,Maharashtra,Mumbai,"Byculla, Mumbai - BMC",21-04-2024 01:00:00,18.9767,72.8380,PM2.5,16,40,29
India,Maharashtra,Mumbai,"Byculla, Mumbai - BMC",21-04-2024 01:00:00,18.9767,72.8380,NH3,3,3,3
India,Maharashtra,Mumbai,"Chembur, Mumbai - MPCB",21-04-2024 01:00:00,19.0364585,72.8954371,PM2.5,38,75,53
India,Maharashtra,Mumbai,"Chembur, Mumbai - MPCB",21-04-2024 01:00:00,19.0364585,72.8954371,SO2,1,2,1
India,Maharashtra,Mumbai,"Chhatrapati Shivaji Intl. Airport (T2), Mumbai - MPCB",21-04-2024 01:00:00,19.10078,72.87462,PM10,57,151,110
India,Maharashtra,Mumbai,"Chhatrapati Shivaji Intl. Airport (T2), Mumbai - MPCB",21-04-2024 01:00:00,19.10078,72.87462,OZONE,4,11,6
India,Maharashtra,Mumbai,"Ghatkopar, Mumbai - BMC",21-04-2024 01:00:00,19.083694,72.920967,NH3,1,19,11
India,Maharashtra,Mumbai,"Kandivali East, Mumbai - MPCB",21-04-2024 01:00:00,19.205800,72.868200,SO2,6,7,7
India,Maharashtra,Mumbai,"Kandivali West, Mumbai - BMC",21-04-2024 01:00:00,19.215859,72.831718,SO2,1,4,2
India,Maharashtra,Mumbai,"Kherwadi_Bandra East, Mumbai - MPCB",21-04-2024 01:00:00,19.0632143,72.8456324,CO,8,24,13
India,Maharashtra,Mumbai,"Khindipada-Bhandup West, Mumbai - IITM",21-04-2024 01:00:00,19.1653323,72.922099,PM2.5,45,101,77
India,Maharashtra,Mumbai,"Khindipada-Bhandup West, Mumbai - IITM",21-04-2024 01:00:00,19.1653323,72.922099,PM10,52,114,91
India,Maharashtra,Mumbai,"Khindipada-Bhandup West, Mumbai - IITM",21-04-2024 01:00:00,19.1653323,72.922099,SO2,1,9,4
India,Maharashtra,Mumbai,"Khindipada-Bhandup West, Mumbai - IITM",21-04-2024 01:00:00,19.1653323,72.922099,OZONE,7,36,23
India,Maharashtra,Mumbai,"Mazgaon, Mumbai - IITM",21-04-2024 01:00:00,18.96702,72.84214,NO2,45,78,61
India,Maharashtra,Mumbai,"Mindspace-Malad West, Mumbai - MPCB",21-04-2024 01:00:00,19.1878657,72.8304069,PM2.5,24,80,57
India,Maharashtra,Mumbai,"Mindspace-Malad West, Mumbai - MPCB",21-04-2024 01:00:00,19.1878657,72.8304069,PM10,57,88,75
India,Maharashtra,Mumbai,"Mulund West, Mumbai - MPCB",21-04-2024 01:00:00,19.1750,72.9419,PM10,61,153,113
India,Maharashtra,Mumbai,"Mulund West, Mumbai - MPCB",21-04-2024 01:00:00,19.1750,72.9419,CO,36,37,37
India,Maharashtra,Mumbai,"Navy Nagar-Colaba, Mumbai - IITM",21-04-2024 01:00:00,18.897756,72.813320,PM2.5,9,38,21
India,Maharashtra,Mumbai,"Navy Nagar-Colaba, Mumbai - IITM",21-04-2024 01:00:00,18.897756,72.813320,PM10,69,137,99
India,Maharashtra,Mumbai,"Powai, Mumbai - MPCB",21-04-2024 01:00:00,19.137500,72.915056,CO,26,37,34
India,Maharashtra,Mumbai,"Sewri, Mumbai - BMC",21-04-2024 01:00:00,19.000084,72.856730,OZONE,21,96,70
India,Maharashtra,Mumbai,"Sion, Mumbai - MPCB",21-04-2024 01:00:00,19.047000,72.874600,PM10,63,153,122
India,Maharashtra,Mumbai,"Sion, Mumbai - MPCB",21-04-2024 01:00:00,19.047000,72.874600,SO2,33,36,34
India,Maharashtra,Mumbai,"Vasai West, Mumbai - MPCB",21-04-2024 01:00:00,19.383200,72.820400,PM10,89,145,113
India,Maharashtra,Mumbai,"Vasai West, Mumbai - MPCB",21-04-2024 01:00:00,19.383200,72.820400,OZONE,12,65,36
India,Maharashtra,Mumbai,"Vile Parle West, Mumbai - MPCB",21-04-2024 01:00:00,19.10861,72.83622,OZONE,3,3,3
India,Maharashtra,Mumbai,"Worli, Mumbai - MPCB",21-04-2024 01:00:00,18.9936162,72.8128113,PM2.5,15,50,35
India,Maharashtra,Nagpur,"Mahal, Nagpur - MPCB",21-04-2024 01:00:00,21.14472,79.107595,PM10,63,131,96
India,Maharashtra,Nagpur,"Mahal, Nagpur - MPCB",21-04-2024 01:00:00,21.14472,79.107595,SO2,18,111,48
India,Maharashtra,Nagpur,"Mahal, Nagpur - MPCB",21-04-2024 01:00:00,21.14472,79.107595,CO,14,144,77
India,Maharashtra,Nanded,"Sneh Nagar, Nanded - MPCB",21-04-2024 01:00:00,19.173852,77.296291,PM2.5,4,167,73
India,Maharashtra,Nanded,"Sneh Nagar, Nanded - MPCB",21-04-2024 01:00:00,19.173852,77.296291,NO2,13,39,19
India,Maharashtra,Nanded,"Sneh Nagar, Nanded - MPCB",21-04-2024 01:00:00,19.173852,77.296291,NH3,1,2,1
India,Maharashtra,Nashik,"Gangapur Road, Nashik - MPCB",21-04-2024 01:00:00,20.0073285,73.7762427,NO2,4,26,11
India,Maharashtra,Nashik,"Gangapur Road, Nashik - MPCB",21-04-2024 01:00:00,20.0073285,73.7762427,NH3,NA,NA,NA
India,Maharashtra,Nashik,"Hirawadi, Nashik - MPCB",21-04-2024 01:00:00,20.021503,73.813844,SO2,2,14,8
India,Maharashtra,Nashik,"MIDC Ambad, Nashik - MPCB",21-04-2024 01:00:00,19.950220,73.731480,PM2.5,31,78,50
India,Maharashtra,Navi Mumbai,"Kopripada-Vashi, Navi Mumbai - MPCB",21-04-2024 01:00:00,19.090337,73.014232,PM2.5,36,65,49
India,Maharashtra,Navi Mumbai,"Kopripada-Vashi, Navi Mumbai - MPCB",21-04-2024 01:00:00,19.090337,73.014232,SO2,4,10,6
India,Maharashtra,Navi Mumbai,"Kopripada-Vashi, Navi Mumbai - MPCB",21-04-2024 01:00:00,19.090337,73.014232,CO,10,24,16
India,Maharashtra,Navi Mumbai,"Kopripada-Vashi, Navi Mumbai - MPCB",21-04-2024 01:00:00,19.090337,73.014232,OZONE,2,140,130
India,Maharashtra,Navi Mumbai,"Mahape, Navi Mumbai - MPCB",21-04-2024 01:00:00,19.1135051,73.008978,OZONE,42,79,53
India,Maharashtra,Navi Mumbai,"Nerul, Navi Mumbai - MPCB",21-04-2024 01:00:00,19.008751,73.016620,PM2.5,36,95,61
India,Maharashtra,Navi Mumbai,"Sanpada, Navi Mumbai - MPCB",21-04-2024 01:00:00,19.0575752,73.0151367,PM2.5,NA,NA,NA
India,Maharashtra,Navi Mumbai,"Sector-2E Kalamboli, Navi Mumbai - MPCB",21-04-2024 01:00:00,19.02579,73.10297,PM10,95,123,109
India,Maharashtra,Navi Mumbai,"Sector-2E Kalamboli, Navi Mumbai - MPCB",21-04-2024 01:00:00,19.02579,73.10297,SO2,2,30,15
India,Maharashtra,Navi Mumbai,"Tondare-Taloja, Navi Mumbai - MPCB",21-04-2024 01:00:00,19.0630,73.1209,NH3,NA,NA,NA
India,Maharashtra,Navi Mumbai,"Tondare-Taloja, Navi Mumbai - MPCB",21-04-2024 01:00:00,19.0630,73.1209,OZONE,1,76,27
India,Maharashtra,Pimpri-Chinchwad,"Gavalinagar, Pimpri Chinchwad - MPCB",21-04-2024 01:00:00,18.63673,73.82487,NH3,1,5,3
India,Maharashtra,Pimpri-Chinchwad,"Park Street Wakad, Pimpri Chinchwad - MPCB",21-04-2024 01:00:00,18.59051,73.77946,PM10,13,242,60
India,Maharashtra,Pimpri-Chinchwad,"Thergaon, Pimpri Chinchwad - MPCB",21-04-2024 01:00:00,18.616318,73.765797,PM10,58,117,84
India,Maharashtra,Pimpri-Chinchwad,"Thergaon, Pimpri Chinchwad - MPCB",21-04-2024 01:00:00,18.616318,73.765797,NH3,2,14,5
India,Maharashtra,Pimpri-Chinchwad,"Thergaon, Pimpri Chinchwad - MPCB",21-04-2024 01:00:00,18.616318,73.765797,OZONE,12,199,34
India,Maharashtra,Pune,"Bhosari, Pune - IITM",21-04-2024 01:00:00,18.640051,73.848956,NO2,14,15,15
India,Maharashtra,Pune,"Karve Road, Pune - MPCB",21-04-2024 01:00:00,18.5011743,73.8165527,PM10,44,500,118
India,Maharashtra,Pune,"Katraj Dairy, Pune - MPCB",21-04-2024 01:00:00,18.454450,73.854155,PM10,32,82,61
India,Maharashtra,Pune,"Mhada Colony, Pune - IITM",21-04-2024 01:00:00,18.573040,73.927715,NO2,8,35,21
India,Maharashtra,Pune,"Mhada Colony, Pune - IITM",21-04-2024 01:00:00,18.573040,73.927715,OZONE,25,116,64
India,Maharashtra,Pune,"Revenue Colony-Shivajinagar, Pune - IITM",21-04-2024 01:00:00,18.530085,73.849598,NO2,104,225,146
India,Maharashtra,Pune,"Revenue Colony-Shivajinagar, Pune - IITM",21-04-2024 01:00:00,18.530085,73.849598,SO2,91,133,110
India,Maharashtra,Pune,"Savitribai Phule Pune University, Pune - MPCB",21-04-2024 01:00:00,18.547056,73.826908,PM2.5,NA,NA,NA
India,Maharashtra,Pune,"Savitribai Phule Pune University, Pune - MPCB",21-04-2024 01:00:00,18.547056,73.826908,PM10,NA,NA,NA
India,Maharashtra,Pune,"Savitribai Phule Pune University, Pune - MPCB",21-04-2024 01:00:00,18.547056,73.826908,SO2,NA,NA,NA
India,Maharashtra,Pune,"Transport Nagar-Nigdi, Pune - IITM",21-04-2024 01:00:00,18.664282,73.763966,CO,28,43,35
India,Maharashtra,Pune,"Transport Nagar-Nigdi, Pune - IITM",21-04-2024 01:00:00,18.664282,73.763966,OZONE,4,57,30
India,Maharashtra,Sangli,"Vijay Nagar, Sangli - MPCB",21-04-2024 01:00:00, 16.5038,74.3623,SO2,3,7,5
India,Maharashtra,Sangli,"Vijay Nagar, Sangli - MPCB",21-04-2024 01:00:00, 16.5038,74.3623,OZONE,23,92,46
India,Maharashtra,Solapur,"Dnyaneshwar Nagar, Solapur - MPCB",21-04-2024 01:00:00,17.6336264,75.9132495,PM2.5,33,152,74
India,Maharashtra,Solapur,"Dnyaneshwar Nagar, Solapur - MPCB",21-04-2024 01:00:00,17.6336264,75.9132495,NH3,26,94,39
India,Maharashtra,Solapur,"Dnyaneshwar Nagar, Solapur - MPCB",21-04-2024 01:00:00,17.6336264,75.9132495,SO2,2,3,2
India,Maharashtra,Solapur,"Solapur, Solapur - MPCB",21-04-2024 01:00:00,17.6599188,75.9063906,NO2,53,54,54
India,Maharashtra,Thane,"Kasarvadavali, Thane - MPCB",21-04-2024 01:00:00,19.26777,72.97182,OZONE,3,147,81
India,Maharashtra,Thane,"Pimpleshwar Mandir, Thane - MPCB",21-04-2024 01:00:00,19.192056,72.9585188,PM10,56,71,61
India,Maharashtra,Thane,"Pimpleshwar Mandir, Thane - MPCB",21-04-2024 01:00:00,19.192056,72.9585188,NO2,1,19,14
India,Maharashtra,Thane,"Upvan Fort, Thane - MPCB",21-04-2024 01:00:00,19.222279,72.957979,NO2,7,48,18
India,Maharashtra,Ulhasnagar,"Sidhi Vinayak Nagar, Ulhasnagar - MPCB",21-04-2024 01:00:00,19.235581,73.159121,PM10,101,140,122
India,Manipur,Imphal,"DM College of Science, Imphal - Manipur PCB",21-04-2024 01:00:00,24.8207389,93.9423085,PM10,17,46,31
India,Manipur,Imphal,"Manipur University, Imphal - Manipur PCB",21-04-2024 01:00:00,24.7524239,93.9286218,SO2,88,93,90
India,Meghalaya,Shillong,"Lumpyngngad, Shillong - Meghalaya PCB",21-04-2024 01:00:00,25.5586,91.8985,SO2,38,40,39
India,Meghalaya,Shillong,"Lumpyngngad, Shillong - Meghalaya PCB",21-04-2024 01:00:00,25.5586,91.8985,CO,6,14,11
India,Mizoram,Aizawl,"Sikulpuikawn, Aizawl - Mizoram PCB",21-04-2024 01:00:00,23.7176342,92.7192841,PM10,60,94,79
India,Mizoram,Aizawl,"Sikulpuikawn, Aizawl - Mizoram PCB",21-04-2024 01:00:00,23.7176342,92.7192841,NO2,NA,NA,NA
India,Mizoram,Aizawl,"Sikulpuikawn, Aizawl - Mizoram PCB",21-04-2024 01:00:00,23.7176342,92.7192841,NH3,NA,NA,NA
India,Mizoram,Aizawl,"Sikulpuikawn, Aizawl - Mizoram PCB",21-04-2024 01:00:00,23.7176342,92.7192841,OZONE,1,25,10
India,Nagaland,Kohima,"PWD Juction, Kohima - NPCB",21-04-2024 01:00:00,25.6635413,94.0989878,SO2,32,33,33
India,Nagaland,Kohima,"PWD Juction, Kohima - NPCB",21-04-2024 01:00:00,25.6635413,94.0989878,OZONE,6,27,15
India,Odisha,Angul,"Hakimapada, Angul - OSPCB",21-04-2024 01:00:00,20.832874,85.104082,PM2.5,82,419,232
India,Odisha,Balasore,"Kalidaspur, Balasore - OSPCB",21-04-2024 01:00:00,21.51161,86.89088,PM2.5,27,117,54
India,Odisha,Balasore,"Kalidaspur, Balasore - OSPCB",21-04-2024 01:00:00,21.51161,86.89088,SO2,14,39,22
India,Odisha,Barbil,"Forest Office, Barbil - OSPCB",21-04-2024 01:00:00,22.1166054,85.3945546,OZONE,43,250,98
India,Odisha,Baripada,"Meher Colony, Baripada - OSPCB",21-04-2024 01:00:00,21.941841,86.728318,OZONE,18,212,99
India,Odisha,Bhubaneswar,"Lingraj Mandir, Bhubaneswar - OSPCB",21-04-2024 01:00:00,20.240790,85.836784,NO2,4,21,11
India,Odisha,Bhubaneswar,"Lingraj Mandir, Bhubaneswar - OSPCB",21-04-2024 01:00:00,20.240790,85.836784,NH3,2,4,3
India,Odisha,Bhubaneswar,"Patia, Bhubaneswar - OSPCB",21-04-2024 01:00:00,20.34652,85.81630,CO,6,104,94
India,Odisha,Byasanagar,"Ferro Chrome Colony, Byasanagar - OSPCB",21-04-2024 01:00:00,20.94185,86.11510,PM2.5,23,300,95
India,Odisha,Byasanagar,"Ferro Chrome Colony, Byasanagar - OSPCB",21-04-2024 01:00:00,20.94185,86.11510,CO,60,111,98
India,Odisha,Cuttack,"CDA Area, Cuttack - OSPCB",21-04-2024 01:00:00,20.48891     ,85.84768     ,PM10,42,117,75
India,Odisha,Keonjhar,"Jagamohanpur, Keonjhar - OSPCB",21-04-2024 01:00:00,21.643900,85.599355,NH3,1,3,1
India,Odisha,Nayagarh,"Dabuna, Nayagarh - OSPCB",21-04-2024 01:00:00,21.847279,85.416905,NO2,3,3,3
India,Odisha,Nayagarh,"Dabuna, Nayagarh - OSPCB",21-04-2024 01:00:00,21.847279,85.416905,SO2,2,14,5
India,Odisha,Rourkela,"Fertilizer Township, Rourkela - OSPCB",21-04-2024 01:00:00,22.18972222,84.86277778,PM2.5,1,77,58
India,Odisha,Rourkela,"Fertilizer Township, Rourkela - OSPCB",21-04-2024 01:00:00,22.18972222,84.86277778,PM10,86,319,157
India,Odisha,Rourkela,"Fertilizer Township, Rourkela - OSPCB",21-04-2024 01:00:00,22.18972222,84.86277778,CO,12,26,22
India,Odisha,Rourkela,"Raghunathpali, Rourkela - OSPCB",21-04-2024 01:00:00,22.220833,84.809444,SO2,7,9,8
India,Odisha,Rourkela,"Sector-2, Rourkela - OSPCB",21-04-2024 01:00:00,22.24500000,84.88111111,NO2,33,34,33
India,Odisha,Suakati,"OMC Colony, Suakati - OSPCB",21-04-2024 01:00:00,21.606865,85.510538,PM2.5,23,336,227
India,Odisha,Suakati,"OMC Colony, Suakati - OSPCB",21-04-2024 01:00:00,21.606865,85.510538,PM10,NA,NA,NA
India,Odisha,Suakati,"OMC Colony, Suakati - OSPCB",21-04-2024 01:00:00,21.606865,85.510538,SO2,7,32,17
India,Odisha,Talcher,"Talcher Coalfields,Talcher - OSPCB",21-04-2024 01:00:00,20.9360711,85.1707021,PM2.5,86,418,233
India,Odisha,Talcher,"Talcher Coalfields,Talcher - OSPCB",21-04-2024 01:00:00,20.9360711,85.1707021,SO2,76,140,108
India,Odisha,Tensa,"Barsua Iron Ore Mines, Tensa - OSPCB",21-04-2024 01:00:00,21.869985,85.167016,PM10,20,136,110
India,Odisha,Tensa,"Barsua Iron Ore Mines, Tensa - OSPCB",21-04-2024 01:00:00,21.869985,85.167016,OZONE,26,185,122
India,Puducherry,Puducherry,"Jawahar Nagar, Puducherry - PPCC",21-04-2024 01:00:00,11.9309,79.8027,NH3,3,5,4
India,Punjab,Bathinda,"Hardev Nagar, Bathinda - PPCB",21-04-2024 01:00:00,30.233011,74.907758,PM10,36,157,94
India,Punjab,Bathinda,"Hardev Nagar, Bathinda - PPCB",21-04-2024 01:00:00,30.233011,74.907758,NO2,32,33,32
India,Punjab,Jalandhar,"Civil Line, Jalandhar - PPCB",21-04-2024 01:00:00,31.321907,75.578914,NH3,2,5,3
India,Punjab,Jalandhar,"Civil Line, Jalandhar - PPCB",21-04-2024 01:00:00,31.321907,75.578914,OZONE,27,83,48
India,Punjab,Khanna,"Kalal Majra, Khanna - PPCB",21-04-2024 01:00:00,30.736056 ,76.209694,PM2.5,50,107,69
India,Punjab,Khanna,"Kalal Majra, Khanna - PPCB",21-04-2024 01:00:00,30.736056 ,76.209694,NO2,35,38,36
India,Punjab,Khanna,"Kalal Majra, Khanna - PPCB",21-04-2024 01:00:00,30.736056 ,76.209694,SO2,5,18,12
India,Punjab,Khanna,"Kalal Majra, Khanna - PPCB",21-04-2024 01:00:00,30.736056 ,76.209694,CO,13,18,15
India,Punjab,Ludhiana,"Punjab Agricultural University, Ludhiana - PPCB",21-04-2024 01:00:00,30.9028,75.8086,NH3,4,4,4
India,Punjab,Mandi Gobindgarh,"RIMT University, Mandi Gobindgarh - PPCB",21-04-2024 01:00:00,30.649961,76.331442,NO2,25,35,34
India,Punjab,Rupnagar,"Ratanpura, Rupnagar - Ambuja Cements",21-04-2024 01:00:00,31.0325454,76.5623046,CO,27,48,36
India,Rajasthan,Ajmer,"Civil Lines,  Ajmer - RSPCB",21-04-2024 01:00:00,26.470859,74.646594,NH3,9,40,13
India,Rajasthan,Alwar,"Moti Doongri, Alwar - RSPCB",21-04-2024 01:00:00,27.554793,76.611536,OZONE,10,29,18
India,Rajasthan,Banswara,"Rati Talai, Banswara - RSPCB",21-04-2024 01:00:00,23.555190,74.440010,NO2,2,68,15
India,Rajasthan,Barmer,"Railway Colony, Barmer - RSPCB",21-04-2024 01:00:00,25.747299,71.393989,NO2,NA,NA,NA
India,Rajasthan,Bharatpur,"Krishna Nagar, Bharatpur - RSPCB",21-04-2024 01:00:00,27.215415,77.50873,SO2,6,28,13
India,Rajasthan,Bhilwara,"Pratap Nagar, Bhilwara - RSPCB",21-04-2024 01:00:00,25.339605,74.618883,PM2.5,9,52,26
India,Rajasthan,Bhilwara,"Pratap Nagar, Bhilwara - RSPCB",21-04-2024 01:00:00,25.339605,74.618883,CO,14,23,19
India,Rajasthan,Bhiwadi,"RIICO Ind. Area III, Bhiwadi - RSPCB",21-04-2024 01:00:00,28.194909,76.862296,CO,14,127,76
India,Rajasthan,Bhiwadi,"Vasundhara Nagar_UIT, Bhiwadi - RSPCB",21-04-2024 01:00:00,28.207266,76.829265,PM10,42,154,89
India,Rajasthan,Bhiwadi,"Vasundhara Nagar_UIT, Bhiwadi - RSPCB",21-04-2024 01:00:00,28.207266,76.829265,CO,10,26,18
India,Rajasthan,Bikaner,"MM Ground, Bikaner - RSPCB",21-04-2024 01:00:00,28.018792,73.292658,NH3,10,13,12
India,Rajasthan,Churu,"Subash Chowk, Churu - RSPCB",21-04-2024 01:00:00,28.296139,74.961696,PM2.5,NA,NA,NA
India,Rajasthan,Churu,"Subash Chowk, Churu - RSPCB",21-04-2024 01:00:00,28.296139,74.961696,PM10,NA,NA,NA
India,Rajasthan,Churu,"Subash Chowk, Churu - RSPCB",21-04-2024 01:00:00,28.296139,74.961696,NH3,NA,NA,NA
India,Rajasthan,Dausa,"Khatikan Mohalla, Dausa - RSPCB",21-04-2024 01:00:00,26.895552,76.334753,PM2.5,17,200,60
India,Rajasthan,Dausa,"Khatikan Mohalla, Dausa - RSPCB",21-04-2024 01:00:00,26.895552,76.334753,SO2,1,8,3
India,Rajasthan,Dholpur,"Raja Ganj, Dholpur - RSPCB",21-04-2024 01:00:00,26.699557,77.898881,PM2.5,32,77,50
India,Rajasthan,Dholpur,"Raja Ganj, Dholpur - RSPCB",21-04-2024 01:00:00,26.699557,77.898881,SO2,4,8,5
India,Rajasthan,Dungarpur,"Bhoiwada, Dungarpur - RSPCB",21-04-2024 01:00:00,23.837789,73.714926,NO2,9,27,17
India,Rajasthan,Dungarpur,"Bhoiwada, Dungarpur - RSPCB",21-04-2024 01:00:00,23.837789,73.714926,NH3,6,6,6
India,Rajasthan,Dungarpur,"Bhoiwada, Dungarpur - RSPCB",21-04-2024 01:00:00,23.837789,73.714926,OZONE,15,83,63
India,Rajasthan,Hanumangarh,"Housing Board, Hanumangarh - RSPCB",21-04-2024 01:00:00,29.610750,74.283608,PM2.5,12,345,84
India,Rajasthan,Hanumangarh,"Housing Board, Hanumangarh - RSPCB",21-04-2024 01:00:00,29.610750,74.283608,NO2,7,76,23
India,Rajasthan,Hanumangarh,"Housing Board, Hanumangarh - RSPCB",21-04-2024 01:00:00,29.610750,74.283608,NH3,6,13,8
India,Rajasthan,Hanumangarh,"Housing Board, Hanumangarh - RSPCB",21-04-2024 01:00:00,29.610750,74.283608,CO,64,103,85
India,Rajasthan,Jaipur,"Police Commissionerate, Jaipur - RSPCB",21-04-2024 01:00:00,26.9164092,75.7994901,PM10,70,193,125
India,Rajasthan,Jaipur,"RIICO Sitapura, Jaipur - RSPCB",21-04-2024 01:00:00,26.786682,75.827928,OZONE,13,251,66
India,Rajasthan,Jaipur,"Sector-2 Murlipura, Jaipur - RSPCB",21-04-2024 01:00:00,26.960669,75.771817,PM2.5,NA,NA,NA
India,Rajasthan,Jaipur,"Sector-2 Murlipura, Jaipur - RSPCB",21-04-2024 01:00:00,26.960669,75.771817,NH3,2,14,8
India,Rajasthan,Jaipur,"Shastri Nagar, Jaipur - RSPCB",21-04-2024 01:00:00,26.9502929,75.730943,SO2,10,25,20
India,Rajasthan,Jaipur,"Shastri Nagar, Jaipur - RSPCB",21-04-2024 01:00:00,26.9502929,75.730943,CO,12,28,13
India,Rajasthan,Jaisalmer,"Sadar Bazar, Jaisalmer - RSPCB",21-04-2024 01:00:00,26.912329,70.909168,PM2.5,8,52,23
India,Rajasthan,Jaisalmer,"Sadar Bazar, Jaisalmer - RSPCB",21-04-2024 01:00:00,26.912329,70.909168,PM10,50,130,77
India,Rajasthan,Jalore,"Mudtra Sili, Jalore - RSPCB",21-04-2024 01:00:00,25.344694,72.626208,OZONE,64,102,86
India,Rajasthan,Jhalawar,"Rajlaxmi Nagar, Jhalawar - RSPCB",21-04-2024 01:00:00,24.588397,76.172782,CO,10,24,17
India,Rajasthan,Jhalawar,"Rajlaxmi Nagar, Jhalawar - RSPCB",21-04-2024 01:00:00,24.588397,76.172782,OZONE,11,79,68
India,Rajasthan,Jhunjhunu,"Indra Nagar, Jhunjhunu - RSPCB",21-04-2024 01:00:00,28.108988,75.386577,NH3,4,33,7
India,Rajasthan,Jhunjhunu,"Indra Nagar, Jhunjhunu - RSPCB",21-04-2024 01:00:00,28.108988,75.386577,CO,6,16,9
India,Rajasthan,Jodhpur,"Collectorate, Jodhpur - RSPCB",21-04-2024 01:00:00,26.268249,73.0193853,PM10,42,225,99
India,Rajasthan,Jodhpur,"Digari Kalan, Jodhpur - RSPCB",21-04-2024 01:00:00,26.295810,73.082283,NH3,3,5,4
India,Rajasthan,Jodhpur,"Mandor, Jodhpur - RSPCB",21-04-2024 01:00:00,26.358805,73.047444,NO2,20,41,29
India,Rajasthan,Jodhpur,"Samrat Ashok Udhyan, Jodhpur - RSPCB",21-04-2024 01:00:00,26.253384,72.976571,CO,3,16,12
India,Rajasthan,Karauli,"Satyawati Vihar, Karauli - RSPCB",21-04-2024 01:00:00,26.506177,77.025989,PM2.5,32,77,46
India,Rajasthan,Karauli,"Satyawati Vihar, Karauli - RSPCB",21-04-2024 01:00:00,26.506177,77.025989,NO2,4,20,12
India,Rajasthan,Karauli,"Satyawati Vihar, Karauli - RSPCB",21-04-2024 01:00:00,26.506177,77.025989,NH3,6,8,7
India,Rajasthan,Karauli,"Satyawati Vihar, Karauli - RSPCB",21-04-2024 01:00:00,26.506177,77.025989,OZONE,29,98,78
India,Rajasthan,Kota,"Dhanmandi, Kota - RSPCB",21-04-2024 01:00:00,25.164090,75.858137,NH3,2,3,2
India,Rajasthan,Kota,"Shrinath Puram, Kota - RSPCB",21-04-2024 01:00:00,25.14389,75.821256,PM2.5,35,90,60
India,Rajasthan,Kota,"Shrinath Puram, Kota - RSPCB",21-04-2024 01:00:00,25.14389,75.821256,NH3,5,8,6
India,Rajasthan,Pali,"Indira Colony Vistar, Pali - RSPCB",21-04-2024 01:00:00,25.771061, 73.340227,NH3,1,10,3
India,Rajasthan,Pali,"Indira Colony Vistar, Pali - RSPCB",21-04-2024 01:00:00,25.771061, 73.340227,SO2,6,11,9
India,Rajasthan,Pratapgarh,"Pragati Nagar, Pratapgarh - RSPCB",21-04-2024 01:00:00,24.041198,74.780702,NH3,3,7,5
India,Rajasthan,Rajsamand,"Dhoinda, Rajsamand - RSPCB",21-04-2024 01:00:00,25.036360,73.883502,PM2.5,NA,NA,NA
India,Rajasthan,Sawai Madhopur,"Sahu Nagar, Sawai Madhopur - RSPCB",21-04-2024 01:00:00,26.031443,76.359327,PM2.5,33,72,46
India,Rajasthan,Sikar,"Radhakishan Pura, Sikar - RSPCB",21-04-2024 01:00:00,27.608912,75.153302,PM2.5,18,79,50
India,Rajasthan,Sikar,"Radhakishan Pura, Sikar - RSPCB",21-04-2024 01:00:00,27.608912,75.153302,CO,10,34,26
India,Rajasthan,Sirohi,"Vedhaynath Colony, Sirohi - RSPCB",21-04-2024 01:00:00,24.885261,72.857549,SO2,5,12,8
India,Rajasthan,Tonk,"Shastri Nagar, Tonk - RSPCB",21-04-2024 01:00:00,26.159933,75.780517,PM2.5,20,77,40
India,Rajasthan,Tonk,"Shastri Nagar, Tonk - RSPCB",21-04-2024 01:00:00,26.159933,75.780517,PM10,69,165,108
India,Rajasthan,Tonk,"Shastri Nagar, Tonk - RSPCB",21-04-2024 01:00:00,26.159933,75.780517,NO2,8,35,14
India,Rajasthan,Udaipur,"Ashok Nagar, Udaipur - RSPCB",21-04-2024 01:00:00,24.5886166,73.6321397,SO2,5,12,8
India,Rajasthan,Udaipur,"Ashok Nagar, Udaipur - RSPCB",21-04-2024 01:00:00,24.5886166,73.6321397,OZONE,34,69,56
India,Sikkim,Gangtok,"Zero Point GICI, Gangtok - SSPCB",21-04-2024 01:00:00,27.338530,88.614099,SO2,11,12,11
India,TamilNadu,Ariyalur,"Keelapalur, Ariyalur - TNPCB",21-04-2024 01:00:00,11.06825,79.07033,SO2,27,29,28
India,TamilNadu,Chengalpattu,"Crescent University, Chengalpattu - TNPCB",21-04-2024 01:00:00,12.8777316,80.0834807,SO2,20,22,21
India,TamilNadu,Chennai,"Alandur Bus Depot, Chennai - CPCB",21-04-2024 01:00:00,12.9099161,80.1076538,PM2.5,27,72,39
India,TamilNadu,Chennai,"Alandur Bus Depot, Chennai - CPCB",21-04-2024 01:00:00,12.9099161,80.1076538,NO2,5,8,6
India,TamilNadu,Chennai,"Arumbakkam, Chennai - TNPCB",21-04-2024 01:00:00,13.0664,80.2112 ,PM10,12,55,35
India,TamilNadu,Chennai,"Kodungaiyur, Chennai - TNPCB",21-04-2024 01:00:00,13.1278,80.2642,PM2.5,5,26,13
India,TamilNadu,Chennai,"Kodungaiyur, Chennai - TNPCB",21-04-2024 01:00:00,13.1278,80.2642,PM10,6,44,26
India,TamilNadu,Chennai,"Manali, Chennai - CPCB",21-04-2024 01:00:00,13.164544,80.26285,PM10,14,77,47
India,TamilNadu,Chennai,"Perungudi, Chennai - TNPCB",21-04-2024 01:00:00,12.9533,80.2357,NO2,2,5,4
India,TamilNadu,Chennai,"Royapuram, Chennai - TNPCB",21-04-2024 01:00:00,13.1036,80.2909,PM10,NA,NA,NA
India,TamilNadu,Chennai,"Royapuram, Chennai - TNPCB",21-04-2024 01:00:00,13.1036,80.2909,NH3,NA,NA,NA
India,TamilNadu,Chennai,"Velachery Res. Area, Chennai - CPCB",21-04-2024 01:00:00,13.0052189,80.2398125,NH3,13,23,16
India,TamilNadu,Chennai,"Velachery Res. Area, Chennai - CPCB",21-04-2024 01:00:00,13.0052189,80.2398125,CO,8,121,78
India,TamilNadu,Gummidipoondi,"Anthoni Pillai Nagar, Gummidipoondi - TNPCB",21-04-2024 01:00:00,13.4127,80.1081,NO2,9,15,11
India,TamilNadu,Ooty,"Bombay Castel, Ooty - TNPCB",21-04-2024 01:00:00,11.4068288,76.7138973,CO,17,22,18
India,TamilNadu,Ooty,"Bombay Castel, Ooty - TNPCB",21-04-2024 01:00:00,11.4068288,76.7138973,OZONE,5,5,5
India,TamilNadu,Ramanathapuram,"Chalai Bazaar, Ramanathapuram - TNPCB",21-04-2024 01:00:00,9.36399,78.831977,PM10,NA,NA,NA
India,TamilNadu,Ramanathapuram,"Chalai Bazaar, Ramanathapuram - TNPCB",21-04-2024 01:00:00,9.36399,78.831977,NH3,NA,NA,NA
India,TamilNadu,Ramanathapuram,"Chalai Bazaar, Ramanathapuram - TNPCB",21-04-2024 01:00:00,9.36399,78.831977,CO,NA,NA,NA
India,TamilNadu,Thoothukudi,"Meelavittan, Thoothukudi - TNPCB",21-04-2024 01:00:00,8.816428 ,78.099039,NO2,29,47,33
India,TamilNadu,Thoothukudi,"Meelavittan, Thoothukudi - TNPCB",21-04-2024 01:00:00,8.816428 ,78.099039,CO,10,38,22
India,TamilNadu,Tirupur,"Kumaran College, Tirupur - TNPCB",21-04-2024 01:00:00,11.0973603,77.3228673,SO2,NA,NA,NA
India,TamilNadu,Vellore,"Vasanthapuram, Vellore - TNPCB",21-04-2024 01:00:00,12.909494,79.131861,PM10,NA,NA,NA
India,TamilNadu,Vellore,"Vasanthapuram, Vellore - TNPCB",21-04-2024 01:00:00,12.909494,79.131861,NH3,NA,NA,NA
India,Telangana,Hyderabad,"Bollaram Industrial Area, Hyderabad - TSPCB",21-04-2024 01:00:00,17.540891,78.358528,CO,24,71,41
India,Telangana,Hyderabad,"Central University, Hyderabad - TSPCB",21-04-2024 01:00:00,17.460103,78.334361,PM10,45,129,93
India,Telangana,Hyderabad,"Central University, Hyderabad - TSPCB",21-04-2024 01:00:00,17.460103,78.334361,SO2,5,14,8
India,Telangana,Hyderabad,"ECIL Kapra, Hyderabad - TSPCB",21-04-2024 01:00:00,17.470431,78.566959,NO2,11,13,12
India,Telangana,Hyderabad,"ICRISAT Patancheru, Hyderabad - TSPCB",21-04-2024 01:00:00,17.518400,78.278777,SO2,10,39,21
India,Telangana,Hyderabad,"Kokapet, Hyderabad - TSPCB",21-04-2024 01:00:00,17.393559,78.339194,NH3,NA,NA,NA
India,Telangana,Hyderabad,"Kokapet, Hyderabad - TSPCB",21-04-2024 01:00:00,17.393559,78.339194,SO2,NA,NA,NA
India,Telangana,Hyderabad,"Kompally Municipal Office, Hyderabad - TSPCB",21-04-2024 01:00:00,17.544899,78.486949,SO2,1,11,4
India,Telangana,Hyderabad,"Nacharam_TSIIC IALA, Hyderabad - TSPCB",21-04-2024 01:00:00,17.429398,78.569354,PM2.5,NA,NA,NA
India,Telangana,Hyderabad,"New Malakpet, Hyderabad - TSPCB",21-04-2024 01:00:00,17.37206,78.50864,PM2.5,31,99,58
India,Telangana,Hyderabad,"New Malakpet, Hyderabad - TSPCB",21-04-2024 01:00:00,17.37206,78.50864,NH3,3,5,5
India,Telangana,Hyderabad,"Sanathnagar, Hyderabad - TSPCB",21-04-2024 01:00:00,17.4559458,78.4332152,PM2.5,61,118,89
India,Telangana,Hyderabad,"Sanathnagar, Hyderabad - TSPCB",21-04-2024 01:00:00,17.4559458,78.4332152,CO,44,56,51
India,Telangana,Hyderabad,"Zoo Park, Hyderabad - TSPCB",21-04-2024 01:00:00,17.349694,78.451437,NO2,25,37,30
India,Uttar_Pradesh,Agra,"Manoharpur, Agra - UPPCB",21-04-2024 01:00:00,27.23711,78.01936,NO2,31,31,31
India,Uttar_Pradesh,Agra,"Rohta, Agra - UPPCB",21-04-2024 01:00:00,27.106972,78.000111,PM2.5,15,69,37
India,Uttar_Pradesh,Agra,"Rohta, Agra - UPPCB",21-04-2024 01:00:00,27.106972,78.000111,OZONE,13,15,14
India,Uttar_Pradesh,Agra,"Sanjay Palace, Agra - UPPCB",21-04-2024 01:00:00,27.19865833,78.00598056,PM2.5,7,36,19
India,Uttar_Pradesh,Agra,"Sanjay Palace, Agra - UPPCB",21-04-2024 01:00:00,27.19865833,78.00598056,SO2,7,9,8
India,Uttar_Pradesh,Agra,"Sector-3B Avas Vikas Colony, Agra - UPPCB",21-04-2024 01:00:00,27.19412,77.96237,SO2,9,13,10
India,Uttar_Pradesh,Agra,"Shahjahan Garden, Agra - UPPCB",21-04-2024 01:00:00,27.169338,78.03582,PM2.5,16,67,40
India,Uttar_Pradesh,Agra,"Shahjahan Garden, Agra - UPPCB",21-04-2024 01:00:00,27.169338,78.03582,NH3,1,4,2
India,Uttar_Pradesh,Agra,"Shahjahan Garden, Agra - UPPCB",21-04-2024 01:00:00,27.169338,78.03582,OZONE,1,21,3
India,Uttar_Pradesh,Agra,"Shastripuram, Agra - UPPCB",21-04-2024 01:00:00,27.19862,77.92066,PM10,31,214,129
India,Uttar_Pradesh,Agra,"Shastripuram, Agra - UPPCB",21-04-2024 01:00:00,27.19862,77.92066,NH3,1,3,2
India,Uttar_Pradesh,Agra,"Shastripuram, Agra - UPPCB",21-04-2024 01:00:00,27.19862,77.92066,SO2,14,17,15
India,Uttar_Pradesh,Agra,"Shastripuram, Agra - UPPCB",21-04-2024 01:00:00,27.19862,77.92066,OZONE,1,8,2
India,Uttar_Pradesh,Baghpat,"Sardar Patel Inter College, Baghpat - UPPCB",21-04-2024 01:00:00,28.964949,77.278761,NH3,1,3,2
India,Uttar_Pradesh,Baghpat,"Sardar Patel Inter College, Baghpat - UPPCB",21-04-2024 01:00:00,28.964949,77.278761,SO2,20,81,48
India,Uttar_Pradesh,Bareilly,"Civil Lines, Bareilly - UPPCB",21-04-2024 01:00:00,28.359581,79.414455,PM2.5,6,12,10
India,Uttar_Pradesh,Bareilly,"Civil Lines, Bareilly - UPPCB",21-04-2024 01:00:00,28.359581,79.414455,NO2,2,3,2
India,Uttar_Pradesh,Bareilly,"Civil Lines, Bareilly - UPPCB",21-04-2024 01:00:00,28.359581,79.414455,NH3,NA,NA,NA
India,Uttar_Pradesh,Bareilly,"Civil Lines, Bareilly - UPPCB",21-04-2024 01:00:00,28.359581,79.414455,SO2,46,60,50
India,Uttar_Pradesh,Bareilly,"Civil Lines, Bareilly - UPPCB",21-04-2024 01:00:00,28.359581,79.414455,OZONE,1,18,2
India,Uttar_Pradesh,Bareilly,"Rajendra Nagar, Bareilly - UPPCB",21-04-2024 01:00:00,28.38910936,79.42963708,PM2.5,17,57,33
India,Uttar_Pradesh,Bulandshahr,"Yamunapuram, Bulandshahr - UPPCB",21-04-2024 01:00:00,28.406963,77.849831,PM10,125,232,164
India,Uttar_Pradesh,Bulandshahr,"Yamunapuram, Bulandshahr - UPPCB",21-04-2024 01:00:00,28.406963,77.849831,NH3,11,15,13
India,Uttar_Pradesh,Firozabad,"Nagla Bhau, Firozabad - UPPCB",21-04-2024 01:00:00,27.168897,78.376960,PM2.5,26,102,52
India,Uttar_Pradesh,Firozabad,"Vibhab Nagar, Firozabad - UPPCB",21-04-2024 01:00:00,27.1594,78.3953,NO2,12,14,14
India,Uttar_Pradesh,Ghaziabad,"Indirapuram, Ghaziabad - UPPCB",21-04-2024 01:00:00,28.646233,77.358075,NO2,36,67,48
India,Uttar_Pradesh,Ghaziabad,"Sanjay Nagar, Ghaziabad - UPPCB",21-04-2024 01:00:00,28.685382,77.453839,PM2.5,34,225,77
India,Uttar_Pradesh,Ghaziabad,"Vasundhara, Ghaziabad - UPPCB",21-04-2024 01:00:00,28.6603346,77.3572563,OZONE,8,63,35
India,Uttar_Pradesh,Gorakhpur,"Madan Mohan Malaviya University of Technology, Gorakhpur - UPPCB",21-04-2024 01:00:00,26.730136,83.433859,PM2.5,36,134,73
India,Uttar_Pradesh,Greater Noida,"Knowledge Park - III, Greater Noida - UPPCB",21-04-2024 01:00:00,28.47272,77.482000,SO2,11,57,29
India,Uttar_Pradesh,Hapur,"Anand Vihar, Hapur - UPPCB",21-04-2024 01:00:00,28.725645,77.749675,NH3,5,15,8
India,Uttar_Pradesh,Hapur,"Anand Vihar, Hapur - UPPCB",21-04-2024 01:00:00,28.725645,77.749675,SO2,5,59,38
India,Uttar_Pradesh,Jhansi,"Shivaji Nagar, Jhansi - UPPCB",21-04-2024 01:00:00,25.4547,78.6039,NH3,6,6,6
India,Uttar_Pradesh,Jhansi,"Shivaji Nagar, Jhansi - UPPCB",21-04-2024 01:00:00,25.4547,78.6039,CO,6,28,11
India,Uttar_Pradesh,Kanpur,"FTI Kidwai Nagar, Kanpur - UPPCB",21-04-2024 01:00:00,26.428282,80.327067,NO2,11,12,12
India,Uttar_Pradesh,Kanpur,"NSI Kalyanpur, Kanpur - UPPCB",21-04-2024 01:00:00,26.509954,80.249612,PM10,119,230,177
India,Uttar_Pradesh,Kanpur,"NSI Kalyanpur, Kanpur - UPPCB",21-04-2024 01:00:00,26.509954,80.249612,NO2,7,13,9
India,Uttar_Pradesh,Kanpur,"NSI Kalyanpur, Kanpur - UPPCB",21-04-2024 01:00:00,26.509954,80.249612,SO2,19,51,23
India,Uttar_Pradesh,Kanpur,"Nehru Nagar, Kanpur - UPPCB",21-04-2024 01:00:00,26.4703136,80.3229863,PM2.5,NA,NA,NA
India,Uttar_Pradesh,Kanpur,"Nehru Nagar, Kanpur - UPPCB",21-04-2024 01:00:00,26.4703136,80.3229863,PM10,NA,NA,NA
India,Uttar_Pradesh,Kanpur,"Nehru Nagar, Kanpur - UPPCB",21-04-2024 01:00:00,26.4703136,80.3229863,SO2,NA,NA,NA
India,Uttar_Pradesh,Khurja,"Kalindi Kunj, Khurja - UPPCB",21-04-2024 01:00:00,28.2348927,77.8683002,PM10,40,134,77
India,Uttar_Pradesh,Khurja,"Kalindi Kunj, Khurja - UPPCB",21-04-2024 01:00:00,28.2348927,77.8683002,NO2,3,4,3
India,Uttar_Pradesh,Lucknow,"B R Ambedkar University, Lucknow - UPPCB",21-04-2024 01:00:00,26.766433,80.927299,CO,19,33,27
India,Uttar_Pradesh,Lucknow,"Kendriya Vidyalaya, Lucknow - CPCB",21-04-2024 01:00:00,26.906111,80.948222,PM2.5,110,320,209
India,Uttar_Pradesh,Lucknow,"Kukrail Picnic Spot-1, Lucknow - UPPCB",21-04-2024 01:00:00,26.90723,80.98579,NO2,8,9,8
India,Uttar_Pradesh,Lucknow,"Lalbagh, Lucknow - CPCB",21-04-2024 01:00:00,26.8458805,80.9365541,NH3,18,20,19
India,Uttar_Pradesh,Lucknow,"Talkatora District Industries Center, Lucknow - CPCB",21-04-2024 01:00:00,26.83399722,80.8917361,PM10,14,198,145
India,Uttar_Pradesh,Meerut,"Ganga Nagar, Meerut - UPPCB",21-04-2024 01:00:00,28.999264,77.7590354,PM10,116,168,136
India,Uttar_Pradesh,Meerut,"Ganga Nagar, Meerut - UPPCB",21-04-2024 01:00:00,28.999264,77.7590354,NO2,15,56,31
India,Uttar_Pradesh,Meerut,"Jai Bhim Nagar, Meerut - UPPCB",21-04-2024 01:00:00,28.9535882,77.7622941,NO2,1,53,22
India,Uttar_Pradesh,Meerut,"Jai Bhim Nagar, Meerut - UPPCB",21-04-2024 01:00:00,28.9535882,77.7622941,CO,30,66,52
India,Uttar_Pradesh,Meerut,"Pallavpuram Phase 2, Meerut - UPPCB",21-04-2024 01:00:00,29.063510,77.709723,PM2.5,31,84,54
India,Uttar_Pradesh,Meerut,"Pallavpuram Phase 2, Meerut - UPPCB",21-04-2024 01:00:00,29.063510,77.709723,NH3,7,12,9
India,Uttar_Pradesh,Moradabad,"Buddhi Vihar, Moradabad - UPPCB",21-04-2024 01:00:00,28.83526,78.74460,NO2,23,23,23
India,Uttar_Pradesh,Moradabad,"Eco Herbal Park, Moradabad - UPPCB",21-04-2024 01:00:00,28.840739,78.697531,CO,4,42,24
India,Uttar_Pradesh,Moradabad,"Eco Herbal Park, Moradabad - UPPCB",21-04-2024 01:00:00,28.840739,78.697531,OZONE,17,134,72
India,Uttar_Pradesh,Moradabad,"Employment Office, Moradabad - UPPCB",21-04-2024 01:00:00,28.88528,78.73880,PM2.5,27,69,46
India,Uttar_Pradesh,Moradabad,"Employment Office, Moradabad - UPPCB",21-04-2024 01:00:00,28.88528,78.73880,SO2,28,44,33
India,Uttar_Pradesh,Moradabad,"Kashiram Nagar, Moradabad - UPPCB",21-04-2024 01:00:00,28.849399,78.742362,NO2,3,4,4
India,Uttar_Pradesh,Moradabad,"Kashiram Nagar, Moradabad - UPPCB",21-04-2024 01:00:00,28.849399,78.742362,OZONE,13,87,42
India,Uttar_Pradesh,Moradabad,"Transport Nagar, Moradabad - UPPCB",21-04-2024 01:00:00,28.802625,78.753728,OZONE,23,144,36
India,Uttar_Pradesh,Muzaffarnagar,"New Mandi, Muzaffarnagar - UPPCB",21-04-2024 01:00:00,29.4723508,77.7194031,SO2,12,89,32
India,Uttar_Pradesh,Noida,"Sector - 125, Noida - UPPCB",21-04-2024 01:00:00,28.5447608,77.3231257,PM2.5,27,154,63
India,Uttar_Pradesh,Noida,"Sector - 125, Noida - UPPCB",21-04-2024 01:00:00,28.5447608,77.3231257,PM10,80,262,139
India,Uttar_Pradesh,Noida,"Sector - 125, Noida - UPPCB",21-04-2024 01:00:00,28.5447608,77.3231257,NH3,6,11,9
India,Uttar_Pradesh,Noida,"Sector-1, Noida - UPPCB",21-04-2024 01:00:00,28.5898,77.3101,OZONE,9,144,72
India,Uttar_Pradesh,Noida,"Sector-116, Noida - UPPCB",21-04-2024 01:00:00,28.569230,77.393848,CO,2,67,60
India,Uttar_Pradesh,Prayagraj,"Jhunsi, Prayagraj - UPPCB",21-04-2024 01:00:00,25.425602,81.917152,PM10,65,138,93
India,Uttar_Pradesh,Prayagraj,"Jhunsi, Prayagraj - UPPCB",21-04-2024 01:00:00,25.425602,81.917152,SO2,30,33,31
India,Uttar_Pradesh,Prayagraj,"Jhunsi, Prayagraj - UPPCB",21-04-2024 01:00:00,25.425602,81.917152,CO,4,34,21
India,Uttar_Pradesh,Prayagraj,"Motilal Nehru NIT, Prayagraj - UPPCB",21-04-2024 01:00:00,25.494,81.863,NO2,11,12,12
India,Uttar_Pradesh,Prayagraj,"Motilal Nehru NIT, Prayagraj - UPPCB",21-04-2024 01:00:00,25.494,81.863,OZONE,7,29,17
India,Uttar_Pradesh,Varanasi,"Ardhali Bazar, Varanasi - UPPCB",21-04-2024 01:00:00,25.3505986,82.9083074,PM2.5,7,28,17
India,Uttar_Pradesh,Varanasi,"Ardhali Bazar, Varanasi - UPPCB",21-04-2024 01:00:00,25.3505986,82.9083074,CO,14,25,21
India,Uttar_Pradesh,Varanasi,"Bhelupur, Varanasi - UPPCB",21-04-2024 01:00:00,25.301778,82.996789,NO2,7,8,8
India,Uttar_Pradesh,Varanasi,"Maldahiya, Varanasi - UPPCB",21-04-2024 01:00:00,25.32393,82.99687,NH3,1,1,1
India,Uttar_Pradesh,Varanasi,"Maldahiya, Varanasi - UPPCB",21-04-2024 01:00:00,25.32393,82.99687,OZONE,1,19,6
India,Uttar_Pradesh,Vrindavan,"Omex Eternity, Vrindavan - UPPCB",21-04-2024 01:00:00,27.5714090,77.6557570,NH3,1,2,1
India,Uttarakhand,Dehradun,"Doon University, Dehradun - UKPCB",21-04-2024 01:00:00,30.269444,78.044167,PM2.5,38,86,56
India,Uttarakhand,Dehradun,"Doon University, Dehradun - UKPCB",21-04-2024 01:00:00,30.269444,78.044167,SO2,1,2,1
India,Uttarakhand,Dehradun,"Doon University, Dehradun - UKPCB",21-04-2024 01:00:00,30.269444,78.044167,OZONE,7,101,74
India,Uttarakhand,Kashipur,"Govt. Girls Inter College, Kashipur - UKPCB",21-04-2024 01:00:00,29.2124114,78.9611753,CO,10,52,39
India,Uttarakhand,Rishikesh,"Shivaji Nagar, Rishikesh - UKPCB",21-04-2024 01:00:00,30.075911,78.2859547,PM10,10,500,87
India,Uttarakhand,Rishikesh,"Shivaji Nagar, Rishikesh - UKPCB",21-04-2024 01:00:00,30.075911,78.2859547,NH3,2,4,2
India,West_Bengal,Durgapur,"PCBL Residential Complex, Durgapur - WBPCB",21-04-2024 01:00:00,23.5087640,87.3544400,PM10,92,277,175
India,West_Bengal,Durgapur,"Sidhu Kanhu Indoor Stadium, Durgapur - WBPCB",21-04-2024 01:00:00,23.5404352,87.2892225,PM10,113,383,186
India,West_Bengal,Durgapur,"Sidhu Kanhu Indoor Stadium, Durgapur - WBPCB",21-04-2024 01:00:00,23.5404352,87.2892225,SO2,12,41,24
India,West_Bengal,Haldia,"Priyambada Housing Estate, Haldia - WBPCB",21-04-2024 01:00:00,22.06047,88.109737,NH3,3,4,3
India,West_Bengal,Howrah,"Belur Math, Howrah - WBPCB",21-04-2024 01:00:00,22.629801,88.352017,PM2.5,35,91,59
India,West_Bengal,Howrah,"Belur Math, Howrah - WBPCB",21-04-2024 01:00:00,22.629801,88.352017,PM10,57,108,84
India,West_Bengal,Howrah,"Belur Math, Howrah - WBPCB",21-04-2024 01:00:00,22.629801,88.352017,SO2,7,17,9
India,West_Bengal,Howrah,"Ghusuri, Howrah - WBPCB",21-04-2024 01:00:00,22.611968,88.347422,PM2.5,46,320,114
India,West_Bengal,Howrah,"Ghusuri, Howrah - WBPCB",21-04-2024 01:00:00,22.611968,88.347422,SO2,4,6,5
India,West_Bengal,Howrah,"Padmapukur, Howrah - WBPCB",21-04-2024 01:00:00,22.5687319,88.2797276,PM10,52,106,81
India,West_Bengal,Kolkata,"Ballygunge, Kolkata - WBPCB",21-04-2024 01:00:00,22.5367507,88.3638022,NO2,14,30,20
India,West_Bengal,Kolkata,"Ballygunge, Kolkata - WBPCB",21-04-2024 01:00:00,22.5367507,88.3638022,NH3,5,6,5
India,West_Bengal,Kolkata,"Bidhannagar, Kolkata - WBPCB",21-04-2024 01:00:00,22.58157048,88.41002457,NH3,8,8,8
India,West_Bengal,Kolkata,"Bidhannagar, Kolkata - WBPCB",21-04-2024 01:00:00,22.58157048,88.41002457,CO,22,38,26
India,West_Bengal,Kolkata,"Fort William, Kolkata - WBPCB",21-04-2024 01:00:00,22.556640,88.342674,PM2.5,40,83,61
India,West_Bengal,Kolkata,"Fort William, Kolkata - WBPCB",21-04-2024 01:00:00,22.556640,88.342674,PM10,54,108,81
India,West_Bengal,Kolkata,"Fort William, Kolkata - WBPCB",21-04-2024 01:00:00,22.556640,88.342674,NH3,1,2,2
India,West_Bengal,Kolkata,"Fort William, Kolkata - WBPCB",21-04-2024 01:00:00,22.556640,88.342674,CO,6,29,11
India,West_Bengal,Kolkata,"Rabindra Bharati University, Kolkata - WBPCB",21-04-2024 01:00:00,22.627847,88.380669,OZONE,17,155,48
India,West_Bengal,Kolkata,"Victoria, Kolkata - WBPCB",21-04-2024 01:00:00,22.5448082,88.3403691,SO2,8,18,11
India,West_Bengal,Kolkata,"Victoria, Kolkata - WBPCB",21-04-2024 01:00:00,22.5448082,88.3403691,OZONE,16,65,24
India,West_Bengal,Siliguri,"Ward-32 Bapupara, Siliguri - WBPCB",21-04-2024 01:00:00,26.6879226,88.4152495,PM2.5,36,70,54
India,West_Bengal,Siliguri,"Ward-32 Bapupara, Siliguri - WBPCB",21-04-2024 01:00:00,26.6879226,88.4152495,PM10,53,98,72
India,West_Bengal,Siliguri,"Ward-32 Bapupara, Siliguri - WBPCB",21-04-2024 01:00:00,26.6879226,88.4152495,NH3,8,11,9
India,West_Bengal,Siliguri,"Ward-32 Bapupara, Siliguri - WBPCB",21-04-2024 01:00:00,26.6879226,88.4152495,OZONE,30,53,38
India,Andhra_Pradesh,Anantapur,"Gulzarpet, Anantapur - APPCB",21-04-2024 01:00:00,14.675886,77.593027,PM2.5,23,50,36
India,Andhra_Pradesh,Rajamahendravaram,"Anand Kala Kshetram, Rajamahendravaram - APPCB",21-04-2024 01:00:00,16.9872867,81.7363176,PM2.5,6,37,21
India,Andhra_Pradesh,Rajamahendravaram,"Anand Kala Kshetram, Rajamahendravaram - APPCB",21-04-2024 01:00:00,16.9872867,81.7363176,PM10,8,44,29
India,Andhra_Pradesh,Rajamahendravaram,"Anand Kala Kshetram, Rajamahendravaram - APPCB",21-04-2024 01:00:00,16.9872867,81.7363176,NO2,1,54,8
India,Andhra_Pradesh,Tirupati,"Tirumala, Tirupati - APPCB",21-04-2024 01:00:00,13.67,79.35,OZONE,20,71,47
India,Andhra_Pradesh,Vijayawada,"Rajiv Gandhi Park, Vijayawada - APPCB",21-04-2024 01:00:00,16.509717,80.612222,PM2.5,NA,NA,NA
India,Andhra_Pradesh,Vijayawada,"Rajiv Gandhi Park, Vijayawada - APPCB",21-04-2024 01:00:00,16.509717,80.612222,PM10,NA,NA,NA
India,Andhra_Pradesh,Vijayawada,"Rajiv Nagar, Vijayawada - APPCB",21-04-2024 01:00:00,16.554731,80.649110,PM2.5,NA,NA,NA
India,Andhra_Pradesh,Visakhapatnam,"GVM Corporation, Visakhapatnam - APPCB",21-04-2024 01:00:00,17.72,83.3,NO2,40,59,50
India,Andhra_Pradesh,Visakhapatnam,"GVM Corporation, Visakhapatnam - APPCB",21-04-2024 01:00:00,17.72,83.3,SO2,8,15,12
India,Assam,Byrnihat,"Central Academy for SFS, Byrnihat - PCBA",21-04-2024 01:00:00,26.071318,91.87488,NH3,5,9,8
India,Assam,Byrnihat,"Central Academy for SFS, Byrnihat - PCBA",21-04-2024 01:00:00,26.071318,91.87488,OZONE,21,35,30
India,Assam,Guwahati,"IITG, Guwahati - PCBA",21-04-2024 01:00:00,26.2028636,91.70046436,PM2.5,19,59,41
India,Assam,Guwahati,"IITG, Guwahati - PCBA",21-04-2024 01:00:00,26.2028636,91.70046436,PM10,25,58,42
India,Assam,Guwahati,"LGBI Airport, Guwahati - PCBA",21-04-2024 01:00:00,26.10887,91.589544,PM2.5,15,58,33
India,Assam,Guwahati,"LGBI Airport, Guwahati - PCBA",21-04-2024 01:00:00,26.10887,91.589544,PM10,26,151,77
India,Assam,Guwahati,"LGBI Airport, Guwahati - PCBA",21-04-2024 01:00:00,26.10887,91.589544,NH3,1,9,5
India,Assam,Guwahati,"LGBI Airport, Guwahati - PCBA",21-04-2024 01:00:00,26.10887,91.589544,OZONE,2,84,3
India,Assam,Nagaon,"Christianpatty, Nagaon - PCBA",21-04-2024 01:00:00,26.349082,92.68449,NO2,1,26,7
India,Assam,Nalbari,"Bata Chowk, Nalbari - PCBA",21-04-2024 01:00:00,26.446912,91.439057,PM10,43,94,63
India,Assam,Silchar,"Tarapur, Silchar - PCBA",21-04-2024 01:00:00,24.82827,92.79525,PM2.5,NA,NA,NA
India,Assam,Sivasagar,"Girls College, Sivasagar - PCBA",21-04-2024 01:00:00,26.987634,94.636574,NH3,1,2,2
India,Bihar,Araria,"Kharahiya Basti, Araria - BSPCB",21-04-2024 01:00:00,26.146529,87.454184,PM2.5,38,111,67
India,Bihar,Araria,"Kharahiya Basti, Araria - BSPCB",21-04-2024 01:00:00,26.146529,87.454184,PM10,55,131,86
India,Bihar,Araria,"Kharahiya Basti, Araria - BSPCB",21-04-2024 01:00:00,26.146529,87.454184,OZONE,7,10,9
India,Bihar,Aurangabad,"Gurdeo Nagar, Aurangabad - BSPCB",21-04-2024 01:00:00,24.75746,84.366208,SO2,NA,NA,NA
India,Bihar,Aurangabad,"Gurdeo Nagar, Aurangabad - BSPCB",21-04-2024 01:00:00,24.75746,84.366208,CO,1,26,9
India,Bihar,Bhagalpur,"DM Office_Kachari Chowk, Bhagalpur - BSPCB",21-04-2024 01:00:00,25.251013,86.989001,PM10,121,233,169
India,Bihar,Bhagalpur,"DM Office_Kachari Chowk, Bhagalpur - BSPCB",21-04-2024 01:00:00,25.251013,86.989001,NO2,44,114,68
India,Bihar,Bhagalpur,"Mayaganj, Bhagalpur - BSPCB",21-04-2024 01:00:00,25.265194,87.012947,NO2,2,12,7
India,Bihar,Bhagalpur,"Mayaganj, Bhagalpur - BSPCB",21-04-2024 01:00:00,25.265194,87.012947,CO,8,10,9
India,Bihar,Bihar Sharif,"D M Colony, Bihar Sharif - BSPCB",21-04-2024 01:00:00,25.204762,85.514960,CO,39,70,53
India,Bihar,Chhapra,"Darshan Nagar, Chhapra - BSPCB",21-04-2024 01:00:00,25.7808257,84.7446768,SO2,4,29,12
India,Bihar,Gaya,"Collectorate, Gaya - BSPCB",21-04-2024 01:00:00,24.7955,84.9994,SO2,6,20,13
India,Bihar,Gaya,"SFTI Kusdihra, Gaya - BSPCB",21-04-2024 01:00:00,24.762518,84.982348,PM10,45,99,71
India,Bihar,Gaya,"SFTI Kusdihra, Gaya - BSPCB",21-04-2024 01:00:00,24.762518,84.982348,OZONE,3,91,27
India,Bihar,Katihar,"Mirchaibari, Katihar - BSPCB",21-04-2024 01:00:00,25.560083,87.553265,NO2,17,30,23
India,Bihar,Kishanganj,"SDM Office_Khagra, Kishanganj - BSPCB",21-04-2024 01:00:00,26.0881305,87.93840336,PM10,NA,NA,NA
India,Bihar,Kishanganj,"SDM Office_Khagra, Kishanganj - BSPCB",21-04-2024 01:00:00,26.0881305,87.93840336,OZONE,26,69,27
India,Bihar,Motihari,"Gandak Colony, Motihari - BSPCB",21-04-2024 01:00:00,26.63086,84.90051,NO2,39,113,81
India,Bihar,Muzaffarpur,"Buddha Colony, Muzaffarpur - BSPCB",21-04-2024 01:00:00,26.11442,85.39813,CO,16,48,26
India,Bihar,Muzaffarpur,"Buddha Colony, Muzaffarpur - BSPCB",21-04-2024 01:00:00,26.11442,85.39813,OZONE,20,39,33
India,Bihar,Muzaffarpur,"MIT-Daudpur Kothi, Muzaffarpur - BSPCB",21-04-2024 01:00:00,26.1403345,85.3650192,NO2,3,9,7
India,Bihar,Muzaffarpur,"Muzaffarpur Collectorate, Muzaffarpur - BSPCB",21-04-2024 01:00:00,26.1209,85.3647,CO,21,105,34
India,Bihar,Muzaffarpur,"Muzaffarpur Collectorate, Muzaffarpur - BSPCB",21-04-2024 01:00:00,26.1209,85.3647,OZONE,44,129,60
India,Bihar,Patna,"DRM Office Danapur, Patna - BSPCB",21-04-2024 01:00:00,25.586562,85.043586,SO2,7,14,11
India,Bihar,Patna,"Govt. High School Shikarpur, Patna - BSPCB",21-04-2024 01:00:00,25.592539,85.227158,PM10,116,421,213
India,Bihar,Patna,"Rajbansi Nagar, Patna - BSPCB",21-04-2024 01:00:00,25.599486,85.113666,OZONE,7,92,49
India,Bihar,Patna,"Samanpura, Patna - BSPCB",21-04-2024 01:00:00,25.596727,85.085624,NO2,12,74,42
India,Bihar,Purnia,"Mariam Nagar, Purnia - BSPCB",21-04-2024 01:00:00,25.366336,87.117468,PM2.5,NA,NA,NA
India,Bihar,Purnia,"Mariam Nagar, Purnia - BSPCB",21-04-2024 01:00:00,25.366336,87.117468,SO2,NA,NA,NA
India,Bihar,Rajgir,"Dangi Tola, Rajgir - BSPCB",21-04-2024 01:00:00,25.03280,85.41948,PM10,28,105,58
India,Bihar,Rajgir,"Dangi Tola, Rajgir - BSPCB",21-04-2024 01:00:00,25.03280,85.41948,NO2,17,23,19
India,Bihar,Saharsa,"Police Line, Saharsa - BSPCB",21-04-2024 01:00:00,25.892357,86.590325,CO,50,55,54
India,Bihar,Saharsa,"Police Line, Saharsa - BSPCB",21-04-2024 01:00:00,25.892357,86.590325,OZONE,10,87,24
India,Bihar,Samastipur,"DM Office_Kasipur, Samastipur - BSPCB",21-04-2024 01:00:00,25.859655,85.77944,PM10,70,242,127
India,Bihar,Samastipur,"DM Office_Kasipur, Samastipur - BSPCB",21-04-2024 01:00:00,25.859655,85.77944,SO2,8,67,13
India,Bihar,Sasaram,"Dada Peer, Sasaram - BSPCB",21-04-2024 01:00:00,24.952822,84.002396,NO2,9,21,13
India,Bihar,Sasaram,"Dada Peer, Sasaram - BSPCB",21-04-2024 01:00:00,24.952822,84.002396,OZONE,25,75,41
India,Bihar,Siwan,"Chitragupta Nagar, Siwan - BSPCB",21-04-2024 01:00:00,26.2271665,84.3570427,PM2.5,NA,NA,NA
India,Chandigarh,Chandigarh,"Sector 22, Chandigarh - CPCC",21-04-2024 01:00:00,30.735567,76.775714,PM10,41,123,85
India,Chandigarh,Chandigarh,"Sector 22, Chandigarh - CPCC",21-04-2024 01:00:00,30.735567,76.775714,NO2,11,74,31
India,Chandigarh,Chandigarh,"Sector 22, Chandigarh - CPCC",21-04-2024 01:00:00,30.735567,76.775714,NH3,4,13,9
India,Chandigarh,Chandigarh,"Sector 22, Chandigarh - CPCC",21-04-2024 01:00:00,30.735567,76.775714,OZONE,47,163,91
India,Chandigarh,Chandigarh,"Sector-25, Chandigarh - CPCC",21-04-2024 01:00:00,30.751462,76.762879,OZONE,3,65,21
India,Chandigarh,Chandigarh,"Sector-53, Chandigarh - CPCC",21-04-2024 01:00:00,30.719859,76.738637,CO,33,77,57
India,Chhattisgarh,Bhilai,"32Bungalows, Bhilai - CECB",21-04-2024 01:00:00,21.194815,81.314770,SO2,4,10,7
India,Chhattisgarh,Bhilai,"Civic Center, Bhilai - Bhilai Steel Plant",21-04-2024 01:00:00,21.185571,81.343175,NH3,3,5,5
India,Chhattisgarh,Bhilai,"Civic Center, Bhilai - Bhilai Steel Plant",21-04-2024 01:00:00,21.185571,81.343175,OZONE,12,70,44
India,Chhattisgarh,Bilaspur,"Mangala, Bilaspur - NTPC",21-04-2024 01:00:00,22.08815,82.13737,CO,28,136,111
India,Chhattisgarh,Korba,"Rampur, Korba - CECB",21-04-2024 01:00:00,22.368195,82.746431,SO2,11,39,21
India,Chhattisgarh,Korba,"Urja Nagar, Korba - CECB",21-04-2024 01:00:00,22.348441,82.549611,NH3,1,9,5
India,Chhattisgarh,Korba,"Urja Nagar, Korba - CECB",21-04-2024 01:00:00,22.348441,82.549611,SO2,3,6,4
India,Chhattisgarh,Korba,"Urja Nagar, Korba - CECB",21-04-2024 01:00:00,22.348441,82.549611,CO,12,74,50
India,Chhattisgarh,Korba,"Urja Nagar, Korba - CECB",21-04-2024 01:00:00,22.348441,82.549611,OZONE,1,50,2
India,Chhattisgarh,Kunjemura,"OP Jindal School, Kunjemura - CECB",21-04-2024 01:00:00,22.126650,83.483212,PM10,62,328,146
India,Chhattisgarh,Kunjemura,"OP Jindal School, Kunjemura - CECB",21-04-2024 01:00:00,22.126650,83.483212,NH3,1,7,3
India,Chhattisgarh,Milupara,"Govt. Higher Secondary School, Milupara - CECB",21-04-2024 01:00:00,22.1910172,83.5197009,PM2.5,42,88,59
India,Chhattisgarh,Milupara,"Govt. Higher Secondary School, Milupara - CECB",21-04-2024 01:00:00,22.1910172,83.5197009,NH3,1,1,1
India,Chhattisgarh,Raipur,"AIIMS, Raipur - CECB",21-04-2024 01:00:00,21.258815,81.578979,SO2,6,27,14
India,Chhattisgarh,Raipur,"Krishak Nagar, Raipur - CECB",21-04-2024 01:00:00,21.237755,81.705301,NH3,NA,NA,NA
India,Chhattisgarh,Raipur,"Siltara Phase-II, Raipur - CECB",21-04-2024 01:00:00,21.371751,81.664929,NH3,3,3,3
India,Chhattisgarh,Raipur,"Siltara Phase-II, Raipur - CECB",21-04-2024 01:00:00,21.371751,81.664929,SO2,14,87,41
India,Delhi,Delhi,"Alipur, Delhi - DPCC",21-04-2024 01:00:00,28.815329,77.153010,NH3,4,8,6
India,Delhi,Delhi,"Ashok Vihar, Delhi - DPCC",21-04-2024 01:00:00,28.695381,77.181665,PM2.5,49,300,109
India,Delhi,Delhi,"Ashok Vihar, Delhi - DPCC",21-04-2024 01:00:00,28.695381,77.181665,CO,10,36,26
India,Delhi,Delhi,"Burari Crossing, Delhi - IMD",21-04-2024 01:00:00,28.7256504,77.2011573,CO,2,34,12
India,Delhi,Delhi,"CRRI Mathura Road, Delhi - IMD",21-04-2024 01:00:00,28.5512005,77.2735737,PM2.5,54,317,117
India,Delhi,Delhi,"CRRI Mathura Road, Delhi - IMD",21-04-2024 01:00:00,28.5512005,77.2735737,PM10,116,402,182
India,Delhi,Delhi,"CRRI Mathura Road, Delhi - IMD",21-04-2024 01:00:00,28.5512005,77.2735737,CO,28,66,45
India,Delhi,Delhi,"Chandni Chowk, Delhi - IITM",21-04-2024 01:00:00,28.656756,77.227234,PM2.5,119,306,195
India,Delhi,Delhi,"Chandni Chowk, Delhi - IITM",21-04-2024 01:00:00,28.656756,77.227234,SO2,33,69,50
India,Delhi,Delhi,"Chandni Chowk, Delhi - IITM",21-04-2024 01:00:00,28.656756,77.227234,OZONE,5,7,6
India,Delhi,Delhi,"DTU, Delhi - CPCB",21-04-2024 01:00:00,28.7500499,77.1112615,CO,14,41,22
India,Delhi,Delhi,"Dr. Karni Singh Shooting Range, Delhi - DPCC",21-04-2024 01:00:00,28.498571,77.264840,SO2,18,48,28
India,Delhi,Delhi,"Dr. Karni Singh Shooting Range, Delhi - DPCC",21-04-2024 01:00:00,28.498571,77.264840,CO,23,72,46
India,Delhi,Delhi,"Dwarka-Sector 8, Delhi - DPCC ",21-04-2024 01:00:00,28.5710274,77.0719006,NO2,15,52,31
India,Delhi,Delhi,"Dwarka-Sector 8, Delhi - DPCC ",21-04-2024 01:00:00,28.5710274,77.0719006,OZONE,2,54,41
India,Delhi,Delhi,"IHBAS, Dilshad Garden, Delhi - CPCB",21-04-2024 01:00:00,28.6811736,77.3025234,SO2,7,38,21
India,Delhi,Delhi,"ITO, Delhi - CPCB",21-04-2024 01:00:00,28.628624,77.241060,PM2.5,48,272,93
India,Delhi,Delhi,"ITO, Delhi - CPCB",21-04-2024 01:00:00,28.628624,77.241060,PM10,88,238,126
India,Delhi,Delhi,"ITO, Delhi - CPCB",21-04-2024 01:00:00,28.628624,77.241060,NH3,2,6,4
India,Delhi,Delhi,"ITO, Delhi - CPCB",21-04-2024 01:00:00,28.628624,77.241060,SO2,10,23,16
India,Delhi,Delhi,"Jahangirpuri, Delhi - DPCC",21-04-2024 01:00:00,28.732820,77.170633,NH3,10,42,20
India,Delhi,Delhi,"Jahangirpuri, Delhi - DPCC",21-04-2024 01:00:00,28.732820,77.170633,CO,37,79,57
India,Delhi,Delhi,"Jawaharlal Nehru Stadium, Delhi - DPCC",21-04-2024 01:00:00,28.580280,77.233829,NO2,25,95,53
India,Delhi,Delhi,"Jawaharlal Nehru Stadium, Delhi - DPCC",21-04-2024 01:00:00,28.580280,77.233829,CO,17,56,35
India,Delhi,Delhi,"Lodhi Road, Delhi - IITM",21-04-2024 01:00:00,28.588333,77.221667,OZONE,16,22,17
India,Delhi,Delhi,"Lodhi Road, Delhi - IMD",21-04-2024 01:00:00,28.5918245,77.2273074,PM2.5,38,295,90
India,Delhi,Delhi,"Major Dhyan Chand National Stadium, Delhi - DPCC",21-04-2024 01:00:00,28.611281,77.237738,NH3,6,9,7
India,Delhi,Delhi,"Major Dhyan Chand National Stadium, Delhi - DPCC",21-04-2024 01:00:00,28.611281,77.237738,CO,24,63,34
India,Delhi,Delhi,"Mandir Marg, Delhi - DPCC",21-04-2024 01:00:00,28.636429,77.201067,SO2,NA,NA,NA
India,Delhi,Delhi,"Mundka, Delhi - DPCC",21-04-2024 01:00:00,28.684678,77.076574,PM10,127,454,246
India,Delhi,Delhi,"Najafgarh, Delhi - DPCC",21-04-2024 01:00:00,28.570173,76.933762,PM10,122,494,228
India,Delhi,Delhi,"Najafgarh, Delhi - DPCC",21-04-2024 01:00:00,28.570173,76.933762,OZONE,4,107,70
India,Delhi,Delhi,"Narela, Delhi - DPCC",21-04-2024 01:00:00,28.822836,77.101981,NO2,6,47,24
India,Delhi,Delhi,"Nehru Nagar, Delhi - DPCC",21-04-2024 01:00:00,28.567890,77.250515,NO2,8,12,10
India,Delhi,Delhi,"Nehru Nagar, Delhi - DPCC",21-04-2024 01:00:00,28.567890,77.250515,CO,52,63,56
India,Delhi,Delhi,"North Campus, DU, Delhi - IMD",21-04-2024 01:00:00,28.6573814,77.1585447,CO,24,105,84
India,Delhi,Delhi,"Okhla Phase-2, Delhi - DPCC",21-04-2024 01:00:00,28.530785,77.271255,PM2.5,32,301,100
India,Delhi,Delhi,"Okhla Phase-2, Delhi - DPCC",21-04-2024 01:00:00,28.530785,77.271255,NH3,7,10,8
India,Delhi,Delhi,"Patparganj, Delhi - DPCC",21-04-2024 01:00:00,28.623763,77.287209,CO,40,87,65
India,Delhi,Delhi,"Punjabi Bagh, Delhi - DPCC",21-04-2024 01:00:00,28.674045,77.131023,PM2.5,38,261,117
India,Delhi,Delhi,"Punjabi Bagh, Delhi - DPCC",21-04-2024 01:00:00,28.674045,77.131023,SO2,39,69,52
India,Delhi,Delhi,"Punjabi Bagh, Delhi - DPCC",21-04-2024 01:00:00,28.674045,77.131023,CO,34,50,44
India,Delhi,Delhi,"Pusa, Delhi - DPCC",21-04-2024 01:00:00,28.639652,77.146275,PM10,134,439,216
India,Delhi,Delhi,"Pusa, Delhi - DPCC",21-04-2024 01:00:00,28.639652,77.146275,NH3,3,7,5
India,Delhi,Delhi,"Pusa, Delhi - IMD",21-04-2024 01:00:00,28.636110,77.173332,CO,78,97,82
India,Delhi,Delhi,"R K Puram, Delhi - DPCC",21-04-2024 01:00:00,28.563262,77.186937,NO2,1,37,11
India,Delhi,Delhi,"Rohini, Delhi - DPCC",21-04-2024 01:00:00,28.732528,77.119920,PM2.5,41,308,93
India,Delhi,Delhi,"Sirifort, Delhi - CPCB",21-04-2024 01:00:00,28.5504249,77.2159377,CO,8,72,20
India,Delhi,Delhi,"Sirifort, Delhi - CPCB",21-04-2024 01:00:00,28.5504249,77.2159377,OZONE,7,50,26
India,Delhi,Delhi,"Sonia Vihar, Delhi - DPCC",21-04-2024 01:00:00,28.710508,77.249485,OZONE,5,80,67
India,Delhi,Delhi,"Sri Aurobindo Marg, Delhi - DPCC",21-04-2024 01:00:00,28.531346,77.190156,CO,4,36,17
India,Delhi,Delhi,"Vivek Vihar, Delhi - DPCC",21-04-2024 01:00:00,28.672342,77.315260,NH3,15,16,15
India,Delhi,Delhi,"Wazirpur, Delhi - DPCC",21-04-2024 01:00:00,28.699793,77.165453,NO2,16,75,38
India,Delhi,Delhi,"Wazirpur, Delhi - DPCC",21-04-2024 01:00:00,28.699793,77.165453,OZONE,6,70,35
India,Gujarat,Ahmedabad,"Chandkheda, Ahmedabad - IITM",21-04-2024 01:00:00,23.107969,72.574648,PM10,45,143,87
India,Gujarat,Ahmedabad,"Chandkheda, Ahmedabad - IITM",21-04-2024 01:00:00,23.107969,72.574648,NH3,5,5,5
India,Gujarat,Ahmedabad,"Maninagar, Ahmedabad - GPCB",21-04-2024 01:00:00,23.002657,72.591912,PM2.5,18,153,41
India,Gujarat,Ahmedabad,"Raikhad, Ahmedabad - IITM",21-04-2024 01:00:00,23.020509,72.579261,SO2,5,20,8
India,Gujarat,Ahmedabad,"Rakhial, Ahmedabad - IITM",21-04-2024 01:00:00,23.016834,72.625775,PM2.5,32,234,66
India,Gujarat,Ahmedabad,"Rakhial, Ahmedabad - IITM",21-04-2024 01:00:00,23.016834,72.625775,PM10,41,166,73
India,Gujarat,Ahmedabad,"SVPI Airport Hansol, Ahmedabad - IITM",21-04-2024 01:00:00,23.076793,72.627874,PM2.5,39,88,57
India,Gujarat,Ahmedabad,"SVPI Airport Hansol, Ahmedabad - IITM",21-04-2024 01:00:00,23.076793,72.627874,OZONE,10,30,24
India,Gujarat,Ahmedabad,"Sardar Vallabhbhai Patel Stadium, Ahmedabad - IITM",21-04-2024 01:00:00,23.043070,72.562968,PM2.5,31,94,56
India,Gujarat,Ahmedabad,"Sardar Vallabhbhai Patel Stadium, Ahmedabad - IITM",21-04-2024 01:00:00,23.043070,72.562968,NH3,7,7,7
India,Gujarat,Ahmedabad,"Sardar Vallabhbhai Patel Stadium, Ahmedabad - IITM",21-04-2024 01:00:00,23.043070,72.562968,SO2,3,17,11
India,Gujarat,Ankleshwar,"GIDC, Ankleshwar - GPCB",21-04-2024 01:00:00,21.613267,73.010555,PM10,48,95,64
India,Gujarat,Ankleshwar,"GIDC, Ankleshwar - GPCB",21-04-2024 01:00:00,21.613267,73.010555,NO2,32,33,33
India,Gujarat,Gandhinagar,"IIPHG Lekawada, Gandhinagar - IITM",21-04-2024 01:00:00,23.243639,72.68994,PM10,35,111,70
India,Gujarat,Gandhinagar,"IIPHG Lekawada, Gandhinagar - IITM",21-04-2024 01:00:00,23.243639,72.68994,OZONE,10,26,18
India,Gujarat,Gandhinagar,"Sector-10, Gandhinagar - GPCB",21-04-2024 01:00:00,23.221714,72.654328,NO2,17,24,20
India,Gujarat,Gandhinagar,"Sector-10, Gandhinagar - GPCB",21-04-2024 01:00:00,23.221714,72.654328,OZONE,8,45,23
India,Gujarat,Nandesari,"GIDC, Nandesari - Nandesari Ind. Association",21-04-2024 01:00:00,22.410802,73.097923,PM2.5,50,372,134
India,Gujarat,Surat,"Science Center, Surat - SMC",21-04-2024 01:00:00,21.170046,72.795405,CO,20,40,28
India,Gujarat,Vapi,"Phase-1 GIDC, Vapi - GPCB",21-04-2024 01:00:00,20.362421,72.918013,PM2.5,28,74,50
India,Gujarat,Vatva,"Phase-4 GIDC, Vatva - GPCB",21-04-2024 01:00:00,22.969611,72.643500,NO2,27,114,45
India,Gujarat,Vatva,"Phase-4 GIDC, Vatva - GPCB",21-04-2024 01:00:00,22.969611,72.643500,NH3,1,5,2
India,Gujarat,Vatva,"Phase-4 GIDC, Vatva - GPCB",21-04-2024 01:00:00,22.969611,72.643500,CO,34,37,36
India,Haryana,Ambala,"Patti Mehar, Ambala - HSPCB",21-04-2024 01:00:00,30.379589,76.778328,PM10,26,111,62
India,Haryana,Ambala,"Patti Mehar, Ambala - HSPCB",21-04-2024 01:00:00,30.379589,76.778328,NH3,8,8,8
India,Haryana,Bahadurgarh,"Arya Nagar, Bahadurgarh - HSPCB",21-04-2024 01:00:00,28.6701,76.9254,PM2.5,NA,NA,NA
India,Haryana,Bahadurgarh,"Arya Nagar, Bahadurgarh - HSPCB",21-04-2024 01:00:00,28.6701,76.9254,NO2,21,38,24
India,Haryana,Ballabgarh,"Nathu Colony, Ballabgarh - HSPCB",21-04-2024 01:00:00,28.3419248,77.319699,PM2.5,76,369,234
India,Haryana,Ballabgarh,"Nathu Colony, Ballabgarh - HSPCB",21-04-2024 01:00:00,28.3419248,77.319699,CO,4,91,25
India,Haryana,Bhiwani,"H.B. Colony, Bhiwani - HSPCB",21-04-2024 01:00:00,28.806223,76.141105,PM10,72,167,116
India,Haryana,Bhiwani,"H.B. Colony, Bhiwani - HSPCB",21-04-2024 01:00:00,28.806223,76.141105,NH3,6,6,6
India,Haryana,Bhiwani,"H.B. Colony, Bhiwani - HSPCB",21-04-2024 01:00:00,28.806223,76.141105,OZONE,12,23,17
India,Haryana,Charkhi Dadri,"Mini Secretariat, Charkhi Dadri - HSPCB",21-04-2024 01:00:00,28.593883,76.270653,PM2.5,85,379,198
India,Haryana,Charkhi Dadri,"Mini Secretariat, Charkhi Dadri - HSPCB",21-04-2024 01:00:00,28.593883,76.270653,NH3,6,8,7
India,Haryana,Dharuhera,"Municipal Corporation Office, Dharuhera -  HSPCB",21-04-2024 01:00:00,28.206800,76.799700,PM2.5,69,325,179
India,Haryana,Dharuhera,"Municipal Corporation Office, Dharuhera -  HSPCB",21-04-2024 01:00:00,28.206800,76.799700,SO2,11,36,16
India,Haryana,Dharuhera,"Municipal Corporation Office, Dharuhera -  HSPCB",21-04-2024 01:00:00,28.206800,76.799700,CO,12,39,23
India,Haryana,Faridabad,"Sector 11, Faridabad - HSPCB",21-04-2024 01:00:00,28.376058,77.315741,PM2.5,73,383,266
India,Haryana,Faridabad,"Sector 11, Faridabad - HSPCB",21-04-2024 01:00:00,28.376058,77.315741,PM10,156,463,301
India,Haryana,Faridabad,"Sector 30, Faridabad - HSPCB",21-04-2024 01:00:00,28.4417,77.3217,PM2.5,87,103,95
India,Haryana,Faridabad,"Sector- 16A, Faridabad - HSPCB",21-04-2024 01:00:00,28.4088421,77.3099081,PM2.5,40,322,98
India,Haryana,Faridabad,"Sector- 16A, Faridabad - HSPCB",21-04-2024 01:00:00,28.4088421,77.3099081,NO2,15,42,26
India,Haryana,Fatehabad,"Huda Sector, Fatehabad - HSPCB",21-04-2024 01:00:00,29.503664,75.467934,PM10,29,127,68
India,Haryana,Fatehabad,"Huda Sector, Fatehabad - HSPCB",21-04-2024 01:00:00,29.503664,75.467934,OZONE,34,62,53
India,Haryana,Gurugram,"Teri Gram, Gurugram - HSPCB",21-04-2024 01:00:00,28.4275,77.1465,PM2.5,23,410,273
India,Haryana,Gurugram,"Teri Gram, Gurugram - HSPCB",21-04-2024 01:00:00,28.4275,77.1465,NO2,24,56,37
India,Haryana,Gurugram,"Teri Gram, Gurugram - HSPCB",21-04-2024 01:00:00,28.4275,77.1465,OZONE,26,68,35
India,Haryana,Hisar,"Urban Estate-II, Hisar - HSPCB",21-04-2024 01:00:00,29.140560,75.744941,NO2,22,27,24
India,Haryana,Hisar,"Urban Estate-II, Hisar - HSPCB",21-04-2024 01:00:00,29.140560,75.744941,NH3,9,11,9
India,Haryana,Jind,"Police Lines, Jind - HSPCB",21-04-2024 01:00:00,29.307814,76.337619,SO2,NA,NA,NA
India,Haryana,Kaithal,"Rishi Nagar, Kaithal - HSPCB",21-04-2024 01:00:00,29.8006,76.4155,NO2,NA,NA,NA
India,Haryana,Kaithal,"Rishi Nagar, Kaithal - HSPCB",21-04-2024 01:00:00,29.8006,76.4155,CO,4,50,13
India,Haryana,Karnal,"Sector-12, Karnal - HSPCB",21-04-2024 01:00:00,29.695300,77.002700,PM10,60,92,76
India,Haryana,Karnal,"Sector-12, Karnal - HSPCB",21-04-2024 01:00:00,29.695300,77.002700,NO2,7,12,10
India,Haryana,Karnal,"Sector-12, Karnal - HSPCB",21-04-2024 01:00:00,29.695300,77.002700,NH3,10,13,11
India,Haryana,Kurukshetra,"Sector-7, Kurukshetra - HSPCB",21-04-2024 01:00:00,29.966942,76.875879,PM2.5,49,95,72
India,Haryana,Manesar,"Sector-2 IMT, Manesar - HSPCB",21-04-2024 01:00:00,28.360699,76.936090,PM10,105,175,134
India,Haryana,Manesar,"Sector-2 IMT, Manesar - HSPCB",21-04-2024 01:00:00,28.360699,76.936090,NO2,12,24,18
India,Haryana,Manesar,"Sector-2 IMT, Manesar - HSPCB",21-04-2024 01:00:00,28.360699,76.936090,SO2,NA,NA,NA
India,Haryana,Manesar,"Sector-2 IMT, Manesar - HSPCB",21-04-2024 01:00:00,28.360699,76.936090,OZONE,3,49,28
India,Haryana,Palwal,"Shyam Nagar, Palwal - HSPCB",21-04-2024 01:00:00,28.1485564,77.3320667,PM10,87,244,154
India,Haryana,Palwal,"Shyam Nagar, Palwal - HSPCB",21-04-2024 01:00:00,28.1485564,77.3320667,OZONE,6,58,23
India,Haryana,Panchkula,"Sector-6, Panchkula - HSPCB ",21-04-2024 01:00:00,30.7057778,76.8531805555555,PM2.5,NA,NA,NA
India,Haryana,Panchkula,"Sector-6, Panchkula - HSPCB ",21-04-2024 01:00:00,30.7057778,76.8531805555555,CO,NA,NA,NA
India,Haryana,Panipat,"Sector-18, Panipat - HSPCB",21-04-2024 01:00:00,29.497973,76.993331,SO2,18,19,19
India,Haryana,Sirsa,"F-Block, Sirsa - HSPCB",21-04-2024 01:00:00,29.536400,75.015800,NH3,9,13,12
India,Haryana,Sirsa,"F-Block, Sirsa - HSPCB",21-04-2024 01:00:00,29.536400,75.015800,CO,47,65,58
India,Haryana,Sonipat,"Murthal, Sonipat - HSPCB",21-04-2024 01:00:00,29.027200,77.062100,PM2.5,48,48,48
India,Haryana,Sonipat,"Murthal, Sonipat - HSPCB",21-04-2024 01:00:00,29.027200,77.062100,PM10,106,106,106
India,Haryana,Sonipat,"Murthal, Sonipat - HSPCB",21-04-2024 01:00:00,29.027200,77.062100,NO2,37,44,40
India,Haryana,Sonipat,"Murthal, Sonipat - HSPCB",21-04-2024 01:00:00,29.027200,77.062100,CO,8,26,13
India,Himachal Pradesh,Baddi,"HIMUDA Complex Phase-1, Baddi - HPPCB",21-04-2024 01:00:00,30.943887,76.801991,NO2,3,41,13
India,Himachal Pradesh,Baddi,"HIMUDA Complex Phase-1, Baddi - HPPCB",21-04-2024 01:00:00,30.943887,76.801991,CO,7,38,21
India,Jharkhand,Dhanbad,"Kalakusuma, Dhanbad - DMC",21-04-2024 01:00:00,23.811548,86.481238,PM2.5,1,278,52
India,Jharkhand,Dhanbad,"Sardar Patel Nagar, Dhanbad - JSPCB",21-04-2024 01:00:00,23.80569,86.44268,PM10,43,395,122
India,Jharkhand,Dhanbad,"Sardar Patel Nagar, Dhanbad - JSPCB",21-04-2024 01:00:00,23.80569,86.44268,CO,1,72,22
India,Karnataka,Bagalkot,"Vidayagiri, Bagalkot - KSPCB",21-04-2024 01:00:00,16.172806,75.659694,NO2,9,11,9
India,Karnataka,Bagalkot,"Vidayagiri, Bagalkot - KSPCB",21-04-2024 01:00:00,16.172806,75.659694,OZONE,6,26,14
India,Karnataka,Belgaum,"Ramteerth Nagar, Belgaum - KSPCB",21-04-2024 01:00:00,15.888653,74.541751,SO2,8,9,8
India,Karnataka,Bengaluru,"BTM Layout, Bengaluru - CPCB",21-04-2024 01:00:00,12.9135218,77.5950804,CO,18,31,30
India,Karnataka,Bengaluru,"Bapuji Nagar, Bengaluru - KSPCB",21-04-2024 01:00:00,12.951913,77.539784,PM10,62,150,104
India,Karnataka,Bengaluru,"Bapuji Nagar, Bengaluru - KSPCB",21-04-2024 01:00:00,12.951913,77.539784,NH3,1,1,1
India,Karnataka,Bengaluru,"Hebbal, Bengaluru - KSPCB",21-04-2024 01:00:00,13.029152,77.585901,PM10,47,114,76
India,Karnataka,Bengaluru,"Hombegowda Nagar, Bengaluru - KSPCB",21-04-2024 01:00:00,12.938539,77.590100,CO,9,14,13
India,Karnataka,Bengaluru,"Kasturi Nagar, Bengaluru - KSPCB",21-04-2024 01:00:00,13.003872,77.664217,PM10,72,164,111
India,Karnataka,Bengaluru,"Kasturi Nagar, Bengaluru - KSPCB",21-04-2024 01:00:00,13.003872,77.664217,NO2,16,17,17
India,Karnataka,Bengaluru,"Kasturi Nagar, Bengaluru - KSPCB",21-04-2024 01:00:00,13.003872,77.664217,SO2,10,10,10
India,Karnataka,Bengaluru,"Kasturi Nagar, Bengaluru - KSPCB",21-04-2024 01:00:00,13.003872,77.664217,CO,20,25,24
India,Karnataka,Bengaluru,"RVCE-Mailasandra, Bengaluru - KSPCB",21-04-2024 01:00:00,12.921418,77.502466,OZONE,39,39,39
India,Karnataka,Bengaluru,"Sanegurava Halli, Bengaluru - KSPCB",21-04-2024 01:00:00,12.990328,77.5431385,PM10,34,111,59
India,Karnataka,Bengaluru,"Sanegurava Halli, Bengaluru - KSPCB",21-04-2024 01:00:00,12.990328,77.5431385,NO2,22,44,27
India,Karnataka,Bengaluru,"Sanegurava Halli, Bengaluru - KSPCB",21-04-2024 01:00:00,12.990328,77.5431385,SO2,2,3,3
India,Karnataka,Bengaluru,"Sanegurava Halli, Bengaluru - KSPCB",21-04-2024 01:00:00,12.990328,77.5431385,CO,6,38,21
India,Karnataka,Bengaluru,"Shivapura_Peenya, Bengaluru - KSPCB",21-04-2024 01:00:00,13.0246342,77.5080115,PM10,52,268,84
India,Karnataka,Bengaluru,"Silk Board, Bengaluru - KSPCB",21-04-2024 01:00:00,12.917348,77.622813,PM10,61,114,85
India,Karnataka,Bengaluru,"Silk Board, Bengaluru - KSPCB",21-04-2024 01:00:00,12.917348,77.622813,NH3,NA,NA,NA
India,Karnataka,Bidar,"Naubad, Bidar - KSPCB",21-04-2024 01:00:00,17.930306,77.482194,NO2,NA,NA,NA
India,Karnataka,Bidar,"Naubad, Bidar - KSPCB",21-04-2024 01:00:00,17.930306,77.482194,NH3,NA,NA,NA
India,Karnataka,Chamarajanagar,"Urban, Chamarajanagar - KSPCB",21-04-2024 01:00:00,11.55358,76.55521,PM10,43,62,48
India,Karnataka,Chamarajanagar,"Urban, Chamarajanagar - KSPCB",21-04-2024 01:00:00,11.55358,76.55521,OZONE,24,51,26
India,Karnataka,Chikkamagaluru,"Kalyana Nagara, Chikkamagaluru - KSPCB",21-04-2024 01:00:00,13.328028,75.797056,PM2.5,NA,NA,NA
India,Karnataka,Chikkamagaluru,"Kalyana Nagara, Chikkamagaluru - KSPCB",21-04-2024 01:00:00,13.328028,75.797056,NO2,NA,NA,NA
India,Karnataka,Davanagere,"Devaraj Urs Badavane, Davanagere - KSPCB",21-04-2024 01:00:00,14.475800,75.905200,PM2.5,26,124,59
India,Karnataka,Hassan,"B.Katihalli, Hassan - KSPCB",21-04-2024 01:00:00,13.008556,76.125258,PM2.5,NA,NA,NA
India,Karnataka,Haveri,"Ashwini Nagar, Haveri - KSPCB",21-04-2024 01:00:00,14.791800,75.389600,OZONE,18,23,19
India,Karnataka,Hubballi,"Deshpande Nagar, Hubballi - KSPCB",21-04-2024 01:00:00,15.351773,75.140726,NH3,NA,NA,NA
India,Karnataka,Hubballi,"Deshpande Nagar, Hubballi - KSPCB",21-04-2024 01:00:00,15.351773,75.140726,CO,2,26,7
India,Karnataka,Kalaburagi,"Lal Bahadur Shastri Nagar, Kalaburagi - KSPCB",21-04-2024 01:00:00,17.321993,76.822628,PM10,10,38,19
India,Karnataka,Kalaburagi,"Lal Bahadur Shastri Nagar, Kalaburagi - KSPCB",21-04-2024 01:00:00,17.321993,76.822628,NH3,2,2,2
India,Karnataka,Kalaburagi,"Lal Bahadur Shastri Nagar, Kalaburagi - KSPCB",21-04-2024 01:00:00,17.321993,76.822628,CO,36,43,40
India,Karnataka,Kalaburagi,"Mahatma Basaveswar Colony, Kalaburgi - KSPCB",21-04-2024 01:00:00,17.336318,76.847397,PM10,32,93,56
India,Karnataka,Kalaburagi,"Mahatma Basaveswar Colony, Kalaburgi - KSPCB",21-04-2024 01:00:00,17.336318,76.847397,SO2,3,22,6
India,Karnataka,Karwar,"KHB Colony, Karwar - KSPCB",21-04-2024 01:00:00,14.816666,74.141003,PM10,NA,NA,NA
India,Karnataka,Karwar,"KHB Colony, Karwar - KSPCB",21-04-2024 01:00:00,14.816666,74.141003,NO2,NA,NA,NA
India,Karnataka,Karwar,"KHB Colony, Karwar - KSPCB",21-04-2024 01:00:00,14.816666,74.141003,NH3,NA,NA,NA
India,Karnataka,Karwar,"KHB Colony, Karwar - KSPCB",21-04-2024 01:00:00,14.816666,74.141003,SO2,NA,NA,NA
India,Karnataka,Kolar,"Tamaka Ind. Area, Kolar - KSPCB",21-04-2024 01:00:00,13.1276288,78.1570122,NO2,NA,NA,NA
India,Karnataka,Koppal,"Diwator Nagar, Koppal - KSPCB",21-04-2024 01:00:00,15.347630,76.181767,SO2,27,28,28
India,Karnataka,Koppal,"Diwator Nagar, Koppal - KSPCB",21-04-2024 01:00:00,15.347630,76.181767,CO,129,130,130
India,Karnataka,Koppal,"Diwator Nagar, Koppal - KSPCB",21-04-2024 01:00:00,15.347630,76.181767,OZONE,47,90,66
India,Karnataka,Madikeri,"Stuart Hill, Madikeri - KSPCB",21-04-2024 01:00:00,12.415911,75.735050,NH3,1,2,1
