country,state,city,station,last_update,latitude,longitude,pollutant_id,pollutant_min,pollutant_max,pollutant_avg
India,Andhra_Pradesh,Amaravati,"Secretariat, Amaravati - APPCB",16-02-2024 21:00:00,16.5150833,80.5181667,CO,18,78,30
India,Andhra_Pradesh,Anantapur,"Gulzarpet, Anantapur - APPCB",16-02-2024 21:00:00,14.675886,77.593027,SO2,2,21,5
India,Andhra_Pradesh,Chittoor,"Gangineni Cheruvu, Chittoor - APPCB",16-02-2024 21:00:00,13.204880,79.097889,PM2.5,22,94,50
India,Andhra_Pradesh,Chittoor,"Gangineni Cheruvu, Chittoor - APPCB",16-02-2024 21:00:00,13.204880,79.097889,NO2,6,32,13
India,Andhra_Pradesh,Chittoor,"Gangineni Cheruvu, Chittoor - APPCB",16-02-2024 21:00:00,13.204880,79.097889,CO,37,101,70
India,Andhra_Pradesh,Chittoor,"Gangineni Cheruvu, Chittoor - APPCB",16-02-2024 21:00:00,13.204880,79.097889,OZONE,7,111,99
India,Andhra_Pradesh,Rajamahendravaram,"Anand Kala Kshetram, Rajamahendravaram - APPCB",16-02-2024 21:00:00,16.9872867,81.7363176,PM2.5,44,153,86
India,Andhra_Pradesh,Tirupati,"Vaikuntapuram, Tirupati - APPCB",16-02-2024 21:00:00,13.615387,79.409230,CO,10,16,12
India,Andhra_Pradesh,Vijayawada,"HB Colony, Vijayawada - APPCB",16-02-2024 21:00:00,16.536107,80.594233,PM2.5,25,328,110
India,Andhra_Pradesh,Vijayawada,"HB Colony, Vijayawada - APPCB",16-02-2024 21:00:00,16.536107,80.594233,SO2,4,8,6
India,Andhra_Pradesh,Vijayawada,"Kanuru, Vijayawada - APPCB",16-02-2024 21:00:00,16.486692,80.699436,OZONE,25,25,25
India,Andhra_Pradesh,Vijayawada,"Rajiv Gandhi Park, Vijayawada - APPCB",16-02-2024 21:00:00,16.509717,80.612222,NH3,2,7,6
India,Andhra_Pradesh,Vijayawada,"Rajiv Nagar, Vijayawada - APPCB",16-02-2024 21:00:00,16.554731,80.649110,PM10,26,120,81
India,Andhra_Pradesh,Vijayawada,"Rajiv Nagar, Vijayawada - APPCB",16-02-2024 21:00:00,16.554731,80.649110,NH3,1,2,1
India,Andhra_Pradesh,Vijayawada,"Rajiv Nagar, Vijayawada - APPCB",16-02-2024 21:00:00,16.554731,80.649110,CO,16,77,26
India,Andhra_Pradesh,Visakhapatnam,"GVM Corporation, Visakhapatnam - APPCB",16-02-2024 21:00:00,17.72,83.3,PM2.5,37,346,104
India,Andhra_Pradesh,Visakhapatnam,"GVM Corporation, Visakhapatnam - APPCB",16-02-2024 21:00:00,17.72,83.3,PM10,58,402,139
India,Andhra_Pradesh,Visakhapatnam,"GVM Corporation, Visakhapatnam - APPCB",16-02-2024 21:00:00,17.72,83.3,OZONE,8,38,24
India,Arunachal_Pradesh,Naharlagun,"Naharlagun, Naharlagun - APSPCB",16-02-2024 21:00:00,27.103358,93.679645,PM10,17,86,45
India,Assam,Byrnihat,"Central Academy for SFS, Byrnihat - PCBA",16-02-2024 21:00:00,26.071318,91.87488,NO2,59,154,88
India,Assam,Byrnihat,"Central Academy for SFS, Byrnihat - PCBA",16-02-2024 21:00:00,26.071318,91.87488,NH3,1,7,5
India,Assam,Guwahati,"LGBI Airport, Guwahati - PCBA",16-02-2024 21:00:00,26.10887,91.589544,SO2,12,14,13
India,Assam,Guwahati,"LGBI Airport, Guwahati - PCBA",16-02-2024 21:00:00,26.10887,91.589544,CO,13,112,61
India,Assam,Guwahati,"Pan Bazaar, Guwahati - PCBA",16-02-2024 21:00:00,26.187500,91.744194,NH3,4,6,4
India,Assam,Guwahati,"Pan Bazaar, Guwahati - PCBA",16-02-2024 21:00:00,26.187500,91.744194,CO,24,102,47
India,Assam,Guwahati,"Railway Colony, Guwahati - PCBA",16-02-2024 21:00:00,26.181742,91.78063,NO2,NA,NA,NA
India,Assam,Nagaon,"Christianpatty, Nagaon - PCBA",16-02-2024 21:00:00,26.349082,92.68449,NH3,2,6,2
India,Assam,Nalbari,"Bata Chowk, Nalbari - PCBA",16-02-2024 21:00:00,26.446912,91.439057,NO2,12,43,19
India,Assam,Nalbari,"Bata Chowk, Nalbari - PCBA",16-02-2024 21:00:00,26.446912,91.439057,CO,71,126,94
India,Assam,Silchar,"Tarapur, Silchar - PCBA",16-02-2024 21:00:00,24.82827,92.79525,PM10,42,47,44
India,Assam,Silchar,"Tarapur, Silchar - PCBA",16-02-2024 21:00:00,24.82827,92.79525,CO,20,36,23
India,Assam,Sivasagar,"Girls College, Sivasagar - PCBA",16-02-2024 21:00:00,26.987634,94.636574,PM10,NA,NA,NA
India,Assam,Sivasagar,"Girls College, Sivasagar - PCBA",16-02-2024 21:00:00,26.987634,94.636574,SO2,NA,NA,NA
India,Bihar,Arrah,"New DM Office, Arrah - BSPCB",16-02-2024 21:00:00,25.5626095,84.663264,NH3,6,9,7
India,Bihar,Arrah,"New DM Office, Arrah - BSPCB",16-02-2024 21:00:00,25.5626095,84.663264,OZONE,13,43,15
India,Bihar,Aurangabad,"Gurdeo Nagar, Aurangabad - BSPCB",16-02-2024 21:00:00,24.75746,84.366208,NH3,3,14,9
India,Bihar,Bhagalpur,"DM Office_Kachari Chowk, Bhagalpur - BSPCB",16-02-2024 21:00:00,25.251013,86.989001,CO,43,73,63
India,Bihar,Bhagalpur,"DM Office_Kachari Chowk, Bhagalpur - BSPCB",16-02-2024 21:00:00,25.251013,86.989001,OZONE,22,36,27
India,Bihar,Bhagalpur,"Mayaganj, Bhagalpur - BSPCB",16-02-2024 21:00:00,25.265194,87.012947,OZONE,13,47,32
India,Bihar,Bihar Sharif,"D M Colony, Bihar Sharif - BSPCB",16-02-2024 21:00:00,25.204762,85.514960,PM2.5,NA,NA,NA
India,Bihar,Buxar,"Charitra Van, Buxar - BSPCB (Formerly known as Central Jail)",16-02-2024 21:00:00,25.567520,83.966379,PM2.5,57,320,173
India,Bihar,Buxar,"Charitra Van, Buxar - BSPCB (Formerly known as Central Jail)",16-02-2024 21:00:00,25.567520,83.966379,SO2,16,17,16
India,Bihar,Chhapra,"Darshan Nagar, Chhapra - BSPCB",16-02-2024 21:00:00,25.7808257,84.7446768,PM2.5,63,357,164
India,Bihar,Chhapra,"Darshan Nagar, Chhapra - BSPCB",16-02-2024 21:00:00,25.7808257,84.7446768,NH3,7,16,11
India,Bihar,Chhapra,"Darshan Nagar, Chhapra - BSPCB",16-02-2024 21:00:00,25.7808257,84.7446768,OZONE,2,20,14
India,Bihar,Gaya,"Collectorate, Gaya - BSPCB",16-02-2024 21:00:00,24.7955,84.9994,SO2,2,22,8
India,Bihar,Gaya,"Kareemganj, Gaya - BSPCB",16-02-2024 21:00:00,24.792403,84.992416,NH3,1,5,3
India,Bihar,Gaya,"SFTI Kusdihra, Gaya - BSPCB",16-02-2024 21:00:00,24.762518,84.982348,CO,21,68,26
India,Bihar,Katihar,"Mirchaibari, Katihar - BSPCB",16-02-2024 21:00:00,25.560083,87.553265,PM2.5,40,163,76
India,Bihar,Katihar,"Mirchaibari, Katihar - BSPCB",16-02-2024 21:00:00,25.560083,87.553265,PM10,43,169,99
India,Bihar,Motihari,"Gandak Colony, Motihari - BSPCB",16-02-2024 21:00:00,26.63086,84.90051,SO2,1,2,1
India,Bihar,Munger,"Town Hall, Munger - BSPCB",16-02-2024 21:00:00,25.376776,86.471523,PM2.5,22,180,73
India,Bihar,Munger,"Town Hall, Munger - BSPCB",16-02-2024 21:00:00,25.376776,86.471523,SO2,20,47,39
India,Bihar,Muzaffarpur,"MIT-Daudpur Kothi, Muzaffarpur - BSPCB",16-02-2024 21:00:00,26.1403345,85.3650192,PM10,92,194,150
India,Bihar,Muzaffarpur,"Muzaffarpur Collectorate, Muzaffarpur - BSPCB",16-02-2024 21:00:00,26.1209,85.3647,CO,12,62,35
India,Bihar,Patna,"DRM Office Danapur, Patna - BSPCB",16-02-2024 21:00:00,25.586562,85.043586,NH3,3,4,3
India,Bihar,Patna,"IGSC Planetarium Complex, Patna - BSPCB",16-02-2024 21:00:00,25.610369,85.132568,NO2,12,12,12
India,Bihar,Patna,"Muradpur, Patna - BSPCB",16-02-2024 21:00:00,25.619651,85.147382,PM10,142,404,194
India,Bihar,Patna,"Muradpur, Patna - BSPCB",16-02-2024 21:00:00,25.619651,85.147382,SO2,7,14,11
India,Bihar,Patna,"Muradpur, Patna - BSPCB",16-02-2024 21:00:00,25.619651,85.147382,CO,21,116,55
India,Bihar,Patna,"Rajbansi Nagar, Patna - BSPCB",16-02-2024 21:00:00,25.599486,85.113666,CO,6,64,29
India,Bihar,Patna,"Samanpura, Patna - BSPCB",16-02-2024 21:00:00,25.596727,85.085624,CO,37,130,68
India,Bihar,Purnia,"Mariam Nagar, Purnia - BSPCB",16-02-2024 21:00:00,25.366336,87.117468,NH3,1,1,1
India,Bihar,Purnia,"Mariam Nagar, Purnia - BSPCB",16-02-2024 21:00:00,25.366336,87.117468,CO,26,72,46
India,Bihar,Rajgir,"Dangi Tola, Rajgir - BSPCB",16-02-2024 21:00:00,25.03280,85.41948,CO,6,12,10
India,Bihar,Saharsa,"Police Line, Saharsa - BSPCB",16-02-2024 21:00:00,25.892357,86.590325,PM2.5,NA,NA,NA
India,Bihar,Samastipur,"DM Office_Kasipur, Samastipur - BSPCB",16-02-2024 21:00:00,25.859655,85.77944,NH3,2,5,4
India,Bihar,Samastipur,"DM Office_Kasipur, Samastipur - BSPCB",16-02-2024 21:00:00,25.859655,85.77944,SO2,1,15,8
India,Bihar,Sasaram,"Dada Peer, Sasaram - BSPCB",16-02-2024 21:00:00,24.952822,84.002396,SO2,10,23,21
India,Bihar,Siwan,"Chitragupta Nagar, Siwan - BSPCB",16-02-2024 21:00:00,26.2271665,84.3570427,PM10,45,110,69
India,Bihar,Siwan,"Chitragupta Nagar, Siwan - BSPCB",16-02-2024 21:00:00,26.2271665,84.3570427,NO2,11,62,24
India,Chandigarh,Chandigarh,"Sector 22, Chandigarh - CPCC",16-02-2024 21:00:00,30.735567,76.775714,PM10,83,408,174
India,Chandigarh,Chandigarh,"Sector-25, Chandigarh - CPCC",16-02-2024 21:00:00,30.751462,76.762879,PM10,132,169,147
India,Chandigarh,Chandigarh,"Sector-25, Chandigarh - CPCC",16-02-2024 21:00:00,30.751462,76.762879,SO2,5,17,10
India,Chandigarh,Chandigarh,"Sector-53, Chandigarh - CPCC",16-02-2024 21:00:00,30.719859,76.738637,PM10,82,301,169
India,Chhattisgarh,Bhilai,"32Bungalows, Bhilai - CECB",16-02-2024 21:00:00,21.194815,81.314770,CO,30,56,36
India,Chhattisgarh,Bhilai,"Civic Center, Bhilai - Bhilai Steel Plant",16-02-2024 21:00:00,21.185571,81.343175,PM2.5,NA,NA,NA
India,Chhattisgarh,Bhilai,"Civic Center, Bhilai - Bhilai Steel Plant",16-02-2024 21:00:00,21.185571,81.343175,OZONE,12,59,39
India,Chhattisgarh,Bhilai,"Hathkhoj, Bhilai - CECB",16-02-2024 21:00:00,21.224231,81.408350,OZONE,11,26,22
India,Chhattisgarh,Chhal,"Nawapara SECL Colony, Chhal - CECB",16-02-2024 21:00:00,22.118125,83.140608,SO2,5,19,14
India,Chhattisgarh,Korba,"Rampur, Korba - CECB",16-02-2024 21:00:00,22.368195,82.746431,PM2.5,26,50,40
India,Chhattisgarh,Korba,"Rampur, Korba - CECB",16-02-2024 21:00:00,22.368195,82.746431,PM10,29,497,135
India,Chhattisgarh,Korba,"Rampur, Korba - CECB",16-02-2024 21:00:00,22.368195,82.746431,NO2,23,78,39
India,Chhattisgarh,Kunjemura,"OP Jindal School, Kunjemura - CECB",16-02-2024 21:00:00,22.126650,83.483212,PM10,49,256,125
India,Chhattisgarh,Kunjemura,"OP Jindal School, Kunjemura - CECB",16-02-2024 21:00:00,22.126650,83.483212,OZONE,5,64,36
India,Chhattisgarh,Milupara,"Govt. Higher Secondary School, Milupara - CECB",16-02-2024 21:00:00,22.1910172,83.5197009,NO2,NA,NA,NA
India,Chhattisgarh,Milupara,"Govt. Higher Secondary School, Milupara - CECB",16-02-2024 21:00:00,22.1910172,83.5197009,OZONE,18,65,45
India,Chhattisgarh,Raipur,"AIIMS, Raipur - CECB",16-02-2024 21:00:00,21.258815,81.578979,NO2,48,61,52
India,Chhattisgarh,Raipur,"AIIMS, Raipur - CECB",16-02-2024 21:00:00,21.258815,81.578979,CO,35,68,38
India,Chhattisgarh,Raipur,"Bhatagaon New ISBT, Raipur - CECB",16-02-2024 21:00:00,21.219665,81.630094,SO2,NA,NA,NA
India,Chhattisgarh,Raipur,"Krishak Nagar, Raipur - CECB",16-02-2024 21:00:00,21.237755,81.705301,NO2,NA,NA,NA
India,Chhattisgarh,Raipur,"Krishak Nagar, Raipur - CECB",16-02-2024 21:00:00,21.237755,81.705301,CO,NA,NA,NA
India,Chhattisgarh,Raipur,"Krishak Nagar, Raipur - CECB",16-02-2024 21:00:00,21.237755,81.705301,OZONE,NA,NA,NA
India,Chhattisgarh,Raipur,"Siltara Phase-II, Raipur - CECB",16-02-2024 21:00:00,21.371751,81.664929,NO2,53,73,61
India,Chhattisgarh,Raipur,"Siltara Phase-II, Raipur - CECB",16-02-2024 21:00:00,21.371751,81.664929,SO2,7,29,12
India,Chhattisgarh,Raipur,"Siltara Phase-II, Raipur - CECB",16-02-2024 21:00:00,21.371751,81.664929,CO,34,56,40
India,Chhattisgarh,Tumidih,"OP Jindal Industrial Park, Tumidih - CECB",16-02-2024 21:00:00,22.06631475,83.33820077,PM10,NA,NA,NA
India,Chhattisgarh,Tumidih,"OP Jindal Industrial Park, Tumidih - CECB",16-02-2024 21:00:00,22.06631475,83.33820077,NO2,NA,NA,NA
India,Delhi,Delhi,"Alipur, Delhi - DPCC",16-02-2024 21:00:00,28.815329,77.153010,PM10,56,277,170
India,Delhi,Delhi,"Alipur, Delhi - DPCC",16-02-2024 21:00:00,28.815329,77.153010,CO,34,83,44
India,Delhi,Delhi,"Anand Vihar, Delhi - DPCC",16-02-2024 21:00:00,28.647622,77.3158090,SO2,16,49,26
India,Delhi,Delhi,"Ashok Vihar, Delhi - DPCC",16-02-2024 21:00:00,28.695381,77.181665,NO2,25,200,99
India,Delhi,Delhi,"Burari Crossing, Delhi - IMD",16-02-2024 21:00:00,28.7256504,77.2011573,NO2,3,9,6
India,Delhi,Delhi,"DTU, Delhi - CPCB",16-02-2024 21:00:00,28.7500499,77.1112615,NO2,29,69,51
India,Delhi,Delhi,"Dwarka-Sector 8, Delhi - DPCC ",16-02-2024 21:00:00,28.5710274,77.0719006,NH3,4,9,6
India,Delhi,Delhi,"IGI Airport (T3), Delhi - IMD",16-02-2024 21:00:00,28.5627763,77.1180053,NO2,41,89,64
India,Delhi,Delhi,"IGI Airport (T3), Delhi - IMD",16-02-2024 21:00:00,28.5627763,77.1180053,CO,6,102,22
India,Delhi,Delhi,"IHBAS, Dilshad Garden, Delhi - CPCB",16-02-2024 21:00:00,28.6811736,77.3025234,PM2.5,98,308,178
India,Delhi,Delhi,"IHBAS, Dilshad Garden, Delhi - CPCB",16-02-2024 21:00:00,28.6811736,77.3025234,PM10,89,182,135
India,Delhi,Delhi,"ITO, Delhi - CPCB",16-02-2024 21:00:00,28.628624,77.241060,PM10,85,288,183
India,Delhi,Delhi,"ITO, Delhi - CPCB",16-02-2024 21:00:00,28.628624,77.241060,CO,29,129,61
India,Delhi,Delhi,"ITO, Delhi - CPCB",16-02-2024 21:00:00,28.628624,77.241060,OZONE,13,172,94
India,Delhi,Delhi,"Jahangirpuri, Delhi - DPCC",16-02-2024 21:00:00,28.732820,77.170633,NH3,1,26,3
India,Delhi,Delhi,"Lodhi Road, Delhi - IITM",16-02-2024 21:00:00,28.588333,77.221667,PM2.5,39,248,127
India,Delhi,Delhi,"Lodhi Road, Delhi - IITM",16-02-2024 21:00:00,28.588333,77.221667,NO2,67,138,90
India,Delhi,Delhi,"Lodhi Road, Delhi - IMD",16-02-2024 21:00:00,28.5918245,77.2273074,NO2,7,25,16
India,Delhi,Delhi,"Major Dhyan Chand National Stadium, Delhi - DPCC",16-02-2024 21:00:00,28.611281,77.237738,PM10,63,272,168
India,Delhi,Delhi,"Major Dhyan Chand National Stadium, Delhi - DPCC",16-02-2024 21:00:00,28.611281,77.237738,NH3,5,12,9
India,Delhi,Delhi,"Mandir Marg, Delhi - DPCC",16-02-2024 21:00:00,28.636429,77.201067,PM2.5,58,340,253
India,Delhi,Delhi,"Mundka, Delhi - DPCC",16-02-2024 21:00:00,28.684678,77.076574,OZONE,1,22,20
India,Delhi,Delhi,"Najafgarh, Delhi - DPCC",16-02-2024 21:00:00,28.570173,76.933762,PM10,NA,NA,NA
India,Delhi,Delhi,"Narela, Delhi - DPCC",16-02-2024 21:00:00,28.822836,77.101981,NO2,17,83,48
India,Delhi,Delhi,"New Moti Bagh, Delhi - MHUA",16-02-2024 21:00:00,28.57834,77.18400,NO2,1,8,4
India,Delhi,Delhi,"North Campus, DU, Delhi - IMD",16-02-2024 21:00:00,28.6573814,77.1585447,PM2.5,54,345,255
India,Delhi,Delhi,"Okhla Phase-2, Delhi - DPCC",16-02-2024 21:00:00,28.530785,77.271255,NO2,52,231,145
India,Delhi,Delhi,"Patparganj, Delhi - DPCC",16-02-2024 21:00:00,28.623763,77.287209,PM2.5,37,307,198
India,Delhi,Delhi,"Patparganj, Delhi - DPCC",16-02-2024 21:00:00,28.623763,77.287209,PM10,95,352,212
India,Delhi,Delhi,"Patparganj, Delhi - DPCC",16-02-2024 21:00:00,28.623763,77.287209,NO2,34,70,55
India,Delhi,Delhi,"Patparganj, Delhi - DPCC",16-02-2024 21:00:00,28.623763,77.287209,NH3,7,13,10
India,Delhi,Delhi,"Patparganj, Delhi - DPCC",16-02-2024 21:00:00,28.623763,77.287209,SO2,7,15,11
India,Delhi,Delhi,"Punjabi Bagh, Delhi - DPCC",16-02-2024 21:00:00,28.674045,77.131023,PM2.5,27,379,279
India,Delhi,Delhi,"Punjabi Bagh, Delhi - DPCC",16-02-2024 21:00:00,28.674045,77.131023,PM10,69,330,207
India,Delhi,Delhi,"Punjabi Bagh, Delhi - DPCC",16-02-2024 21:00:00,28.674045,77.131023,NH3,3,12,8
India,Delhi,Delhi,"Punjabi Bagh, Delhi - DPCC",16-02-2024 21:00:00,28.674045,77.131023,SO2,1,49,33
India,Delhi,Delhi,"Punjabi Bagh, Delhi - DPCC",16-02-2024 21:00:00,28.674045,77.131023,CO,28,102,46
India,Delhi,Delhi,"Pusa, Delhi - DPCC",16-02-2024 21:00:00,28.639652,77.146275,SO2,7,31,15
India,Delhi,Delhi,"Pusa, Delhi - DPCC",16-02-2024 21:00:00,28.639652,77.146275,OZONE,14,79,45
India,Delhi,Delhi,"Pusa, Delhi - IMD",16-02-2024 21:00:00,28.636110,77.173332,PM10,NA,NA,NA
India,Delhi,Delhi,"Pusa, Delhi - IMD",16-02-2024 21:00:00,28.636110,77.173332,NO2,NA,NA,NA
India,Delhi,Delhi,"R K Puram, Delhi - DPCC",16-02-2024 21:00:00,28.563262,77.186937,PM10,114,323,210
India,Delhi,Delhi,"Rohini, Delhi - DPCC",16-02-2024 21:00:00,28.732528,77.119920,PM2.5,64,376,288
India,Delhi,Delhi,"Rohini, Delhi - DPCC",16-02-2024 21:00:00,28.732528,77.119920,CO,12,132,42
India,Delhi,Delhi,"Sirifort, Delhi - CPCB",16-02-2024 21:00:00,28.5504249,77.2159377,PM10,37,132,79
India,Delhi,Delhi,"Sri Aurobindo Marg, Delhi - DPCC",16-02-2024 21:00:00,28.531346,77.190156,NO2,22,93,49
India,Delhi,Delhi,"Sri Aurobindo Marg, Delhi - DPCC",16-02-2024 21:00:00,28.531346,77.190156,CO,8,78,16
India,Delhi,Delhi,"Wazirpur, Delhi - DPCC",16-02-2024 21:00:00,28.699793,77.165453,PM10,111,409,271
India,Delhi,Delhi,"Wazirpur, Delhi - DPCC",16-02-2024 21:00:00,28.699793,77.165453,CO,15,131,72
India,Delhi,Delhi,"Wazirpur, Delhi - DPCC",16-02-2024 21:00:00,28.699793,77.165453,OZONE,12,132,69
India,Gujarat,Ahmedabad,"Chandkheda, Ahmedabad - IITM",16-02-2024 21:00:00,23.107969,72.574648,NO2,72,170,113
India,Gujarat,Ahmedabad,"Gyaspur, Ahmedabad - IITM",16-02-2024 21:00:00,22.977134,72.553024,NH3,4,4,4
India,Gujarat,Ahmedabad,"Maninagar, Ahmedabad - GPCB",16-02-2024 21:00:00,23.002657,72.591912,PM10,53,155,90
India,Gujarat,Ahmedabad,"Rakhial, Ahmedabad - IITM",16-02-2024 21:00:00,23.016834,72.625775,NH3,6,13,9
India,Gujarat,Ahmedabad,"Rakhial, Ahmedabad - IITM",16-02-2024 21:00:00,23.016834,72.625775,SO2,3,6,4
India,Gujarat,Ahmedabad,"SAC ISRO Bopal, Ahmedabad - IITM",16-02-2024 21:00:00,23.041137,72.456691,PM2.5,40,272,130
India,Gujarat,Ahmedabad,"SVPI Airport Hansol, Ahmedabad - IITM",16-02-2024 21:00:00,23.076793,72.627874,PM10,NA,NA,NA
India,Gujarat,Ahmedabad,"SVPI Airport Hansol, Ahmedabad - IITM",16-02-2024 21:00:00,23.076793,72.627874,CO,26,76,36
India,Gujarat,Ahmedabad,"Sardar Vallabhbhai Patel Stadium, Ahmedabad - IITM",16-02-2024 21:00:00,23.043070,72.562968,NO2,12,14,13
India,Gujarat,Ankleshwar,"GIDC, Ankleshwar - GPCB",16-02-2024 21:00:00,21.613267,73.010555,OZONE,20,36,33
India,Gujarat,Gandhinagar,"Sector-10, Gandhinagar - GPCB",16-02-2024 21:00:00,23.221714,72.654328,NH3,1,2,2
India,Gujarat,Gandhinagar,"Sector-10, Gandhinagar - GPCB",16-02-2024 21:00:00,23.221714,72.654328,CO,13,96,34
India,Gujarat,Surat,"Science Center, Surat - SMC",16-02-2024 21:00:00,21.170046,72.795405,NO2,5,11,8
India,Gujarat,Surat,"Science Center, Surat - SMC",16-02-2024 21:00:00,21.170046,72.795405,SO2,16,24,20
India,Gujarat,Surat,"Science Center, Surat - SMC",16-02-2024 21:00:00,21.170046,72.795405,CO,53,77,60
India,Haryana,Ballabgarh,"Nathu Colony, Ballabgarh - HSPCB",16-02-2024 21:00:00,28.3419248,77.319699,NO2,12,13,13
India,Haryana,Ballabgarh,"Nathu Colony, Ballabgarh - HSPCB",16-02-2024 21:00:00,28.3419248,77.319699,OZONE,6,30,19
India,Haryana,Bhiwani,"H.B. Colony, Bhiwani - HSPCB",16-02-2024 21:00:00,28.806223,76.141105,NO2,8,11,9
India,Haryana,Bhiwani,"H.B. Colony, Bhiwani - HSPCB",16-02-2024 21:00:00,28.806223,76.141105,OZONE,11,21,19
India,Haryana,Charkhi Dadri,"Mini Secretariat, Charkhi Dadri - HSPCB",16-02-2024 21:00:00,28.593883,76.270653,CO,26,107,34
India,Haryana,Charkhi Dadri,"Mini Secretariat, Charkhi Dadri - HSPCB",16-02-2024 21:00:00,28.593883,76.270653,OZONE,14,18,16
India,Haryana,Dharuhera,"Municipal Corporation Office, Dharuhera -  HSPCB",16-02-2024 21:00:00,28.206800,76.799700,SO2,5,72,12
India,Haryana,Faridabad,"New Industrial Town, Faridabad - HSPCB",16-02-2024 21:00:00,28.39072,77.30059,PM2.5,108,322,269
India,Haryana,Faridabad,"New Industrial Town, Faridabad - HSPCB",16-02-2024 21:00:00,28.39072,77.30059,OZONE,28,237,163
India,Haryana,Faridabad,"Sector 30, Faridabad - HSPCB",16-02-2024 21:00:00,28.4417,77.3217,PM2.5,118,165,139
India,Haryana,Faridabad,"Sector 30, Faridabad - HSPCB",16-02-2024 21:00:00,28.4417,77.3217,NO2,30,32,31
India,Haryana,Faridabad,"Sector 30, Faridabad - HSPCB",16-02-2024 21:00:00,28.4417,77.3217,CO,15,80,44
India,Haryana,Faridabad,"Sector- 16A, Faridabad - HSPCB",16-02-2024 21:00:00,28.4088421,77.3099081,PM2.5,82,331,270
India,Haryana,Fatehabad,"Huda Sector, Fatehabad - HSPCB",16-02-2024 21:00:00,29.503664,75.467934,NO2,13,35,24
India,Haryana,Fatehabad,"Huda Sector, Fatehabad - HSPCB",16-02-2024 21:00:00,29.503664,75.467934,NH3,4,10,8
India,Haryana,Gurugram,"Teri Gram, Gurugram - HSPCB",16-02-2024 21:00:00,28.4275,77.1465,PM2.5,162,284,205
India,Haryana,Gurugram,"Vikas Sadan, Gurugram - HSPCB",16-02-2024 21:00:00,28.4501238,77.0263051,NO2,5,26,14
India,Haryana,Hisar,"Urban Estate-II, Hisar - HSPCB",16-02-2024 21:00:00,29.140560,75.744941,NH3,3,8,3
India,Haryana,Jind,"Police Lines, Jind - HSPCB",16-02-2024 21:00:00,29.307814,76.337619,PM2.5,62,261,147
India,Haryana,Kaithal,"Rishi Nagar, Kaithal - HSPCB",16-02-2024 21:00:00,29.8006,76.4155,NH3,8,8,8
India,Haryana,Karnal,"Sector-12, Karnal - HSPCB",16-02-2024 21:00:00,29.695300,77.002700,PM10,36,114,86
India,Haryana,Karnal,"Sector-12, Karnal - HSPCB",16-02-2024 21:00:00,29.695300,77.002700,NH3,10,13,11
India,Haryana,Manesar,"Sector-2 IMT, Manesar - HSPCB",16-02-2024 21:00:00,28.360699,76.936090,PM2.5,58,302,163
India,Haryana,Manesar,"Sector-2 IMT, Manesar - HSPCB",16-02-2024 21:00:00,28.360699,76.936090,PM10,59,172,117
India,Haryana,Narnaul,"Shastri Nagar, Narnaul - HSPCB",16-02-2024 21:00:00,28.060249,76.113115,NH3,5,18,11
India,Haryana,Narnaul,"Shastri Nagar, Narnaul - HSPCB",16-02-2024 21:00:00,28.060249,76.113115,SO2,13,46,18
India,Haryana,Palwal,"Shyam Nagar, Palwal - HSPCB",16-02-2024 21:00:00,28.1485564,77.3320667,NH3,8,9,9
India,Haryana,Sirsa,"F-Block, Sirsa - HSPCB",16-02-2024 21:00:00,29.536400,75.015800,NO2,10,10,10
India,Haryana,Sonipat,"Murthal, Sonipat - HSPCB",16-02-2024 21:00:00,29.027200,77.062100,PM2.5,89,225,149
India,Himachal Pradesh,Baddi,"HIMUDA Complex Phase-1, Baddi - HPPCB",16-02-2024 21:00:00,30.943887,76.801991,NO2,19,114,51
India,Himachal Pradesh,Baddi,"HIMUDA Complex Phase-1, Baddi - HPPCB",16-02-2024 21:00:00,30.943887,76.801991,NH3,6,14,8
India,Himachal Pradesh,Baddi,"HIMUDA Complex Phase-1, Baddi - HPPCB",16-02-2024 21:00:00,30.943887,76.801991,SO2,16,111,43
India,Jharkhand,Dhanbad,"Kalakusuma, Dhanbad - DMC",16-02-2024 21:00:00,23.811548,86.481238,PM2.5,NA,NA,NA
India,Jharkhand,Pathardih,"Mohalbani Ghat, Pathardih - DMC",16-02-2024 21:00:00,23.669880,86.411725,NO2,14,282,179
India,Jharkhand,Pathardih,"Mohalbani Ghat, Pathardih - DMC",16-02-2024 21:00:00,23.669880,86.411725,OZONE,7,44,18
India,Karnataka,Bagalkot,"Vidayagiri, Bagalkot - KSPCB",16-02-2024 21:00:00,16.172806,75.659694,NO2,9,11,9
India,Karnataka,Belgaum,"Ramteerth Nagar, Belgaum - KSPCB",16-02-2024 21:00:00,15.888653,74.541751,PM2.5,13,102,44
India,Karnataka,Belgaum,"Ramteerth Nagar, Belgaum - KSPCB",16-02-2024 21:00:00,15.888653,74.541751,PM10,24,87,57
India,Karnataka,Bengaluru,"BTM Layout, Bengaluru - CPCB",16-02-2024 21:00:00,12.9135218,77.5950804,NO2,35,40,37
India,Karnataka,Bengaluru,"BTM Layout, Bengaluru - CPCB",16-02-2024 21:00:00,12.9135218,77.5950804,CO,36,43,42
India,Karnataka,Bengaluru,"Hebbal, Bengaluru - KSPCB",16-02-2024 21:00:00,13.029152,77.585901,PM10,NA,NA,NA
India,Karnataka,Bengaluru,"Hombegowda Nagar, Bengaluru - KSPCB",16-02-2024 21:00:00,12.938539,77.590100,PM2.5,35,63,47
India,Karnataka,Bengaluru,"Hombegowda Nagar, Bengaluru - KSPCB",16-02-2024 21:00:00,12.938539,77.590100,SO2,4,7,6
India,Karnataka,Bengaluru,"Hombegowda Nagar, Bengaluru - KSPCB",16-02-2024 21:00:00,12.938539,77.590100,CO,14,24,19
India,Karnataka,Bengaluru,"Jayanagar 5th Block, Bengaluru - KSPCB",16-02-2024 21:00:00,12.920984,77.584908,NH3,2,3,3
India,Karnataka,Bengaluru,"Jigani, Bengaluru - KSPCB",16-02-2024 21:00:00,12.7816279,77.6299145,NO2,31,32,32
India,Karnataka,Bengaluru,"Jigani, Bengaluru - KSPCB",16-02-2024 21:00:00,12.7816279,77.6299145,SO2,16,16,16
India,Karnataka,Bengaluru,"Jigani, Bengaluru - KSPCB",16-02-2024 21:00:00,12.7816279,77.6299145,OZONE,24,64,44
India,Karnataka,Bengaluru,"Kasturi Nagar, Bengaluru - KSPCB",16-02-2024 21:00:00,13.003872,77.664217,SO2,10,10,10
India,Karnataka,Bengaluru,"Sanegurava Halli, Bengaluru - KSPCB",16-02-2024 21:00:00,12.990328,77.5431385,CO,10,36,20
India,Karnataka,Bengaluru,"Shivapura_Peenya, Bengaluru - KSPCB",16-02-2024 21:00:00,13.0246342,77.5080115,PM2.5,34,141,64
India,Karnataka,Bengaluru,"Shivapura_Peenya, Bengaluru - KSPCB",16-02-2024 21:00:00,13.0246342,77.5080115,NO2,15,16,16
India,Karnataka,Bengaluru,"Shivapura_Peenya, Bengaluru - KSPCB",16-02-2024 21:00:00,13.0246342,77.5080115,CO,22,37,28
India,Karnataka,Bengaluru,"Silk Board, Bengaluru - KSPCB",16-02-2024 21:00:00,12.917348,77.622813,OZONE,28,32,30
India,Karnataka,Bidar,"Naubad, Bidar - KSPCB",16-02-2024 21:00:00,17.930306,77.482194,NO2,7,8,8
India,Karnataka,Bidar,"Naubad, Bidar - KSPCB",16-02-2024 21:00:00,17.930306,77.482194,SO2,15,17,16
India,Karnataka,Chamarajanagar,"Urban, Chamarajanagar - KSPCB",16-02-2024 21:00:00,11.55358,76.55521,PM2.5,25,51,33
India,Karnataka,Chamarajanagar,"Urban, Chamarajanagar - KSPCB",16-02-2024 21:00:00,11.55358,76.55521,NO2,23,43,31
India,Karnataka,Chamarajanagar,"Urban, Chamarajanagar - KSPCB",16-02-2024 21:00:00,11.55358,76.55521,NH3,2,3,2
India,Karnataka,Chikkaballapur,"Chikkaballapur Rural, Chikkaballapur - KSPCB",16-02-2024 21:00:00,13.428828,77.731418,NO2,2,10,4
India,Karnataka,Chikkamagaluru,"Kalyana Nagara, Chikkamagaluru - KSPCB",16-02-2024 21:00:00,13.328028,75.797056,CO,8,103,32
India,Karnataka,Davanagere,"Devaraj Urs Badavane, Davanagere - KSPCB",16-02-2024 21:00:00,14.475800,75.905200,PM10,38,95,59
India,Karnataka,Dharwad,"Kalabhavan, Dharwad - KSPCB",16-02-2024 21:00:00,15.459706,75.008381,PM10,54,119,79
India,Karnataka,Dharwad,"Kalabhavan, Dharwad - KSPCB",16-02-2024 21:00:00,15.459706,75.008381,NO2,6,35,24
India,Karnataka,Gadag,"Panchal Nagar, Gadag - KSPCB",16-02-2024 21:00:00,15.411456,75.638133,CO,35,44,38
India,Karnataka,Hassan,"B.Katihalli, Hassan - KSPCB",16-02-2024 21:00:00,13.008556,76.125258,PM10,16,107,77
India,Karnataka,Hassan,"B.Katihalli, Hassan - KSPCB",16-02-2024 21:00:00,13.008556,76.125258,NO2,7,8,8
India,Karnataka,Hassan,"B.Katihalli, Hassan - KSPCB",16-02-2024 21:00:00,13.008556,76.125258,NH3,1,3,2
India,Karnataka,Haveri,"Ashwini Nagar, Haveri - KSPCB",16-02-2024 21:00:00,14.791800,75.389600,OZONE,18,33,23
India,Karnataka,Hubballi,"Lingaraj Nagar, Hubballi - KSPCB",16-02-2024 21:00:00,15.3714823,75.1160168,NH3,2,2,2
India,Karnataka,Kalaburagi,"Lal Bahadur Shastri Nagar, Kalaburagi - KSPCB",16-02-2024 21:00:00,17.321993,76.822628,NH3,2,2,2
India,Karnataka,Kalaburagi,"Lal Bahadur Shastri Nagar, Kalaburagi - KSPCB",16-02-2024 21:00:00,17.321993,76.822628,SO2,14,18,15
India,Karnataka,Kalaburagi,"Mahatma Basaveswar Colony, Kalaburgi - KSPCB",16-02-2024 21:00:00,17.336318,76.847397,PM10,34,84,49
India,Karnataka,Kalaburagi,"Mahatma Basaveswar Colony, Kalaburgi - KSPCB",16-02-2024 21:00:00,17.336318,76.847397,SO2,3,17,6
India,Karnataka,Kalaburagi,"Mahatma Basaveswar Colony, Kalaburgi - KSPCB",16-02-2024 21:00:00,17.336318,76.847397,OZONE,6,27,20
India,Karnataka,Karwar,"KHB Colony, Karwar - KSPCB",16-02-2024 21:00:00,14.816666,74.141003,NO2,5,10,7
India,Karnataka,Koppal,"Diwator Nagar, Koppal - KSPCB",16-02-2024 21:00:00,15.347630,76.181767,PM2.5,10,60,38
India,Karnataka,Koppal,"Diwator Nagar, Koppal - KSPCB",16-02-2024 21:00:00,15.347630,76.181767,NO2,1,29,14
India,Karnataka,Koppal,"Diwator Nagar, Koppal - KSPCB",16-02-2024 21:00:00,15.347630,76.181767,NH3,3,6,5
India,Karnataka,Koppal,"Diwator Nagar, Koppal - KSPCB",16-02-2024 21:00:00,15.347630,76.181767,SO2,54,80,59
India,Karnataka,Koppal,"Diwator Nagar, Koppal - KSPCB",16-02-2024 21:00:00,15.347630,76.181767,CO,26,57,29
India,Karnataka,Madikeri,"Stuart Hill, Madikeri - KSPCB",16-02-2024 21:00:00,12.415911,75.735050,SO2,4,4,4
India,Karnataka,Mangalore,"Kadri, Mangalore - KSPCB",16-02-2024 21:00:00,12.889250,74.853000,OZONE,30,32,32
India,Karnataka,Mysuru,"Hebbal 1st Stage, Mysuru - KSPCB",16-02-2024 21:00:00,12.21041,76.37376,PM2.5,NA,NA,NA
India,Karnataka,Mysuru,"Hebbal 1st Stage, Mysuru - KSPCB",16-02-2024 21:00:00,12.21041,76.37376,NO2,NA,NA,NA
India,Karnataka,Mysuru,"Hebbal 1st Stage, Mysuru - KSPCB",16-02-2024 21:00:00,12.21041,76.37376,NH3,NA,NA,NA
India,Karnataka,Mysuru,"Hebbal 1st Stage, Mysuru - KSPCB",16-02-2024 21:00:00,12.21041,76.37376,CO,4,26,15
India,Karnataka,Mysuru,"Hebbal 1st Stage, Mysuru - KSPCB",16-02-2024 21:00:00,12.21041,76.37376,OZONE,26,89,71
India,Karnataka,Raichur,"Haji Colony, Raichur - KSPCB",16-02-2024 21:00:00,16.208139,77.348417,CO,81,117,105
India,Karnataka,Raichur,"Haji Colony, Raichur - KSPCB",16-02-2024 21:00:00,16.208139,77.348417,OZONE,1,7,3
India,Karnataka,Ramanagara,"Vijay Nagar, Ramanagara - KSPCB",16-02-2024 21:00:00,12.733409,77.298051,OZONE,28,30,29
India,Karnataka,Udupi,"Brahmagiri, Udupi - KSPCB",16-02-2024 21:00:00,13.34194444,74.74694444,NO2,13,14,14
India,Karnataka,Vijayapura,"Ibrahimpur, Vijayapura - KSPCB",16-02-2024 21:00:00,16.802639,75.722694,PM2.5,26,31,30
India,Karnataka,Vijayapura,"Ibrahimpur, Vijayapura - KSPCB",16-02-2024 21:00:00,16.802639,75.722694,NO2,17,19,19
India,Kerala,Eloor,"Udyogamandal, Eloor - Kerala PCB",16-02-2024 21:00:00,10.073232,76.302765,NH3,1,1,1
India,Kerala,Kannur,"Thavakkara, Kannur - Kerala PCB",16-02-2024 21:00:00,11.875000,75.373200,PM2.5,44,59,51
India,Kerala,Kannur,"Thavakkara, Kannur - Kerala PCB",16-02-2024 21:00:00,11.875000,75.373200,SO2,5,6,6
India,Kerala,Kochi,"Vyttila, Kochi - Kerala PCB",16-02-2024 21:00:00,9.969447,76.321186,PM10,59,146,97
India,Kerala,Kollam,"Polayathode, Kollam - Kerala PCB",16-02-2024 21:00:00,8.8787,76.6073,CO,14,45,20
India,Kerala,Thiruvananthapuram,"Kariavattom, Thiruvananthapuram - Kerala PCB",16-02-2024 21:00:00,8.563700,76.886500,PM2.5,71,84,78
India,Kerala,Thiruvananthapuram,"Plammoodu, Thiruvananthapuram - Kerala PCB",16-02-2024 21:00:00,8.5149093,76.9435879,SO2,8,14,10
India,Madhya Pradesh,Gwalior,"City Center, Gwalior - MPPCB",16-02-2024 21:00:00,26.203442,78.193251,NO2,27,105,54
India,Madhya Pradesh,Gwalior,"City Center, Gwalior - MPPCB",16-02-2024 21:00:00,26.203442,78.193251,NH3,5,8,6
India,Madhya Pradesh,Gwalior,"City Center, Gwalior - MPPCB",16-02-2024 21:00:00,26.203442,78.193251,CO,26,109,62
India,Madhya Pradesh,Gwalior,"City Center, Gwalior - MPPCB",16-02-2024 21:00:00,26.203442,78.193251,OZONE,31,211,153
India,Madhya Pradesh,Gwalior,"Deen Dayal Nagar, Gwalior - MPPCB",16-02-2024 21:00:00,26.259242,78.216432,NO2,24,156,73
India,Madhya Pradesh,Gwalior,"Deen Dayal Nagar, Gwalior - MPPCB",16-02-2024 21:00:00,26.259242,78.216432,SO2,16,24,19
India,Madhya Pradesh,Gwalior,"Maharaj Bada, Gwalior - MPPCB",16-02-2024 21:00:00,26.200388,78.147714,PM10,101,423,194
India,Madhya Pradesh,Gwalior,"Maharaj Bada, Gwalior - MPPCB",16-02-2024 21:00:00,26.200388,78.147714,CO,2,139,53
India,Madhya Pradesh,Gwalior,"Phool Bagh, Gwalior - Mondelez Ind. Food",16-02-2024 21:00:00,26.210536,78.171,PM2.5,16,362,267
India,Madhya Pradesh,Indore,"Chhoti Gwaltoli, Indore - MPPCB",16-02-2024 21:00:00,22.4310,75.5213,SO2,13,29,18
India,Madhya Pradesh,Indore,"Maguda Nagar, Indore - IMC",16-02-2024 21:00:00,22.7524,75.8872,NO2,4,6,5
India,Madhya Pradesh,Indore,"Maguda Nagar, Indore - IMC",16-02-2024 21:00:00,22.7524,75.8872,SO2,14,18,16
India,Madhya Pradesh,Indore,"Maguda Nagar, Indore - IMC",16-02-2024 21:00:00,22.7524,75.8872,CO,20,29,23
India,Madhya Pradesh,Indore,"Maguda Nagar, Indore - IMC",16-02-2024 21:00:00,22.7524,75.8872,OZONE,37,52,39
India,Madhya Pradesh,Indore,"Regional Park, Indore - IMC",16-02-2024 21:00:00,22.6780,75.8559,NH3,1,3,2
India,Madhya Pradesh,Indore,"Regional Park, Indore - IMC",16-02-2024 21:00:00,22.6780,75.8559,SO2,39,41,40
India,Madhya Pradesh,Indore,"Residency Area, Indore - IMC",16-02-2024 21:00:00,22.7084,75.8815,SO2,22,23,22
India,Madhya Pradesh,Indore,"Residency Area, Indore - IMC",16-02-2024 21:00:00,22.7084,75.8815,OZONE,11,20,15
India,Madhya Pradesh,Jabalpur,"Govindh Bhavan Colony, Jabalpur - JMC",16-02-2024 21:00:00,23.163174,79.973061,NO2,12,28,18
India,Madhya Pradesh,Jabalpur,"Gupteshwar, Jabalpur - JMC",16-02-2024 21:00:00,23.142888,79.916147,PM10,NA,NA,NA
India,Madhya Pradesh,Jabalpur,"Gupteshwar, Jabalpur - JMC",16-02-2024 21:00:00,23.142888,79.916147,NO2,NA,NA,NA
India,Madhya Pradesh,Jabalpur,"Gupteshwar, Jabalpur - JMC",16-02-2024 21:00:00,23.142888,79.916147,SO2,NA,NA,NA
India,Madhya Pradesh,Jabalpur,"Gupteshwar, Jabalpur - JMC",16-02-2024 21:00:00,23.142888,79.916147,OZONE,3,123,72
India,Madhya Pradesh,Jabalpur,"Marhatal, Jabalpur - MPPCB",16-02-2024 21:00:00,23.168606,79.932247,NO2,19,93,40
India,Madhya Pradesh,Jabalpur,"Marhatal, Jabalpur - MPPCB",16-02-2024 21:00:00,23.168606,79.932247,CO,46,144,76
India,Madhya Pradesh,Jabalpur,"Suhagi, Jabalpur - JMC",16-02-2024 21:00:00,23.218135,79.957770,NH3,5,5,5
India,Madhya Pradesh,Jabalpur,"Suhagi, Jabalpur - JMC",16-02-2024 21:00:00,23.218135,79.957770,SO2,7,10,10
India,Madhya Pradesh,Jabalpur,"Suhagi, Jabalpur - JMC",16-02-2024 21:00:00,23.218135,79.957770,CO,4,112,55
India,Madhya Pradesh,Jabalpur,"Suhagi, Jabalpur - JMC",16-02-2024 21:00:00,23.218135,79.957770,OZONE,7,87,53
India,Madhya Pradesh,Maihar,"Sahilara, Maihar - KJS Cements",16-02-2024 21:00:00,24.2613009,80.7231783,NO2,14,14,14
India,Madhya Pradesh,Mandideep,"Sector-D Industrial Area, Mandideep - MPPCB",16-02-2024 21:00:00,23.108440,77.511428,NO2,25,82,48
India,Madhya Pradesh,Mandideep,"Sector-D Industrial Area, Mandideep - MPPCB",16-02-2024 21:00:00,23.108440,77.511428,CO,24,66,38
India,Madhya Pradesh,Pithampur,"Sector-2 Industrial Area, Pithampur - MPPCB",16-02-2024 21:00:00,22.624758,75.675238,PM2.5,45,266,122
India,Madhya Pradesh,Pithampur,"Sector-2 Industrial Area, Pithampur - MPPCB",16-02-2024 21:00:00,22.624758,75.675238,NH3,6,8,7
India,Madhya Pradesh,Sagar,"Civil Lines, Sagar - MPPCB",16-02-2024 21:00:00,23.838586,78.759431,NH3,5,12,7
India,Madhya Pradesh,Sagar,"Civil Lines, Sagar - MPPCB",16-02-2024 21:00:00,23.838586,78.759431,OZONE,42,54,45
India,Madhya Pradesh,Sagar,"Deen Dayal Nagar, Sagar - MPPCB",16-02-2024 21:00:00,23.8640158,78.80289321,CO,8,74,53
India,Madhya Pradesh,Satna,"Bandhavgar Colony, Satna - Birla Cement",16-02-2024 21:00:00,24.58434363,80.8549414,PM2.5,14,14,14
India,Madhya Pradesh,Satna,"Bandhavgar Colony, Satna - Birla Cement",16-02-2024 21:00:00,24.58434363,80.8549414,CO,38,38,38
India,Madhya Pradesh,Singrauli,"Suryakiran Bhawan NCL, Singrauli - MPPCB",16-02-2024 21:00:00,24.108970,82.645580,NH3,3,5,4
India,Madhya Pradesh,Singrauli,"Suryakiran Bhawan NCL, Singrauli - MPPCB",16-02-2024 21:00:00,24.108970,82.645580,OZONE,4,46,32
India,Madhya Pradesh,Ujjain,"Mahakaleshwar Temple, Ujjain - MPPCB",16-02-2024 21:00:00,23.182719 ,75.768218 ,NH3,5,6,6
India,Madhya Pradesh,Ujjain,"Mahakaleshwar Temple, Ujjain - MPPCB",16-02-2024 21:00:00,23.182719 ,75.768218 ,OZONE,124,148,132
India,Maharashtra,Ahmednagar,"Tarakpur, Ahmednagar - MPCB",16-02-2024 21:00:00,19.10122,74.73339,NH3,2,3,3
India,Maharashtra,Ahmednagar,"Tarakpur, Ahmednagar - MPCB",16-02-2024 21:00:00,19.10122,74.73339,SO2,11,18,14
India,Maharashtra,Akola,"Ramdaspeth, Akola - MPCB",16-02-2024 21:00:00,20.719516,77.000253,NH3,4,9,6
India,Maharashtra,Amravati,"Shivneri Colony, Amravati - MPCB",16-02-2024 21:00:00,20.9402359,77.7895248,PM2.5,47,97,68
India,Maharashtra,Amravati,"Shri Shivaji Science College, Amaravati - MPCB",16-02-2024 21:00:00,20.939198,77.765701,NO2,7,99,24
India,Maharashtra,Aurangabad,"MIDC Chilkalthana, Aurangabad - MPCB",16-02-2024 21:00:00,19.875620,75.387310,PM2.5,44,90,67
India,Maharashtra,Aurangabad,"MIDC Chilkalthana, Aurangabad - MPCB",16-02-2024 21:00:00,19.875620,75.387310,SO2,5,9,7
India,Maharashtra,Aurangabad,"More Chowk Waluj, Aurangabad - MPCB",16-02-2024 21:00:00,19.8389439,75.244448,NO2,33,39,34
India,Maharashtra,Aurangabad,"More Chowk Waluj, Aurangabad - MPCB",16-02-2024 21:00:00,19.8389439,75.244448,CO,9,74,39
India,Maharashtra,Aurangabad,"Rachnakar Colony, Aurangabad - MPCB",16-02-2024 21:00:00,19.863756,75.321188,SO2,15,43,24
India,Maharashtra,Badlapur,"Katrap, Badlapur - MPCB",16-02-2024 21:00:00,19.16485,73.23409,NO2,22,118,50
India,Maharashtra,Belapur,"CBD Belapur, Belapur - MPCB",16-02-2024 21:00:00,19.0243902,73.0406721,PM2.5,94,270,151
India,Maharashtra,Belapur,"CBD Belapur, Belapur - MPCB",16-02-2024 21:00:00,19.0243902,73.0406721,NH3,21,56,34
India,Maharashtra,Belapur,"CBD Belapur, Belapur - MPCB",16-02-2024 21:00:00,19.0243902,73.0406721,CO,30,92,45
India,Maharashtra,Bhiwandi,"Gokul Nagar, Bhiwandi - MPCB",16-02-2024 21:00:00,19.309073,73.057223,CO,31,119,47
India,Maharashtra,Boisar,"Khaira, Boisar - MPCB",16-02-2024 21:00:00,19.786089,72.757971,OZONE,4,29,19
India,Maharashtra,Chandrapur,"MIDC Khutala, Chandrapur - MPCB",16-02-2024 21:00:00,19.9775302,79.2337086,SO2,NA,NA,NA
India,Maharashtra,Jalgaon,"Prabhat Colony, Jalgaon - MPCB",16-02-2024 21:00:00,21.001264,75.565602,PM2.5,89,298,175
India,Maharashtra,Jalgaon,"Prabhat Colony, Jalgaon - MPCB",16-02-2024 21:00:00,21.001264,75.565602,NH3,1,2,1
India,Maharashtra,Jalgaon,"Prabhat Colony, Jalgaon - MPCB",16-02-2024 21:00:00,21.001264,75.565602,CO,7,14,12
India,Maharashtra,Jalna,"Old MIDC, Jalna - MPCB",16-02-2024 21:00:00,19.854616,75.905894,PM2.5,NA,NA,NA
India,Maharashtra,Jalna,"Old MIDC, Jalna - MPCB",16-02-2024 21:00:00,19.854616,75.905894,NO2,NA,NA,NA
India,Maharashtra,Jalna,"Old MIDC, Jalna - MPCB",16-02-2024 21:00:00,19.854616,75.905894,SO2,NA,NA,NA
India,Maharashtra,Kalyan,"Khadakpada, Kalyan - MPCB",16-02-2024 21:00:00,19.25292,73.142019,CO,18,52,21
India,Maharashtra,Kolhapur,"Shivaji University, Kolhapur - MPCB",16-02-2024 21:00:00,16.6870449,74.2505872,PM2.5,97,201,149
India,Maharashtra,Kolhapur,"Shivaji University, Kolhapur - MPCB",16-02-2024 21:00:00,16.6870449,74.2505872,NO2,13,70,38
India,Maharashtra,Kolhapur,"Shivaji University, Kolhapur - MPCB",16-02-2024 21:00:00,16.6870449,74.2505872,NH3,2,10,5
India,Maharashtra,Kolhapur,"Shivaji University, Kolhapur - MPCB",16-02-2024 21:00:00,16.6870449,74.2505872,OZONE,1,121,81
India,Maharashtra,Kolhapur,"Sinchan Bhavan, Kolhapur - MPCB",16-02-2024 21:00:00,16.7143745,74.2426398,PM10,66,406,147
India,Maharashtra,Latur,"Sawe Wadi, Latur - MPCB",16-02-2024 21:00:00,18.39963,76.57452,PM10,53,118,76
India,Maharashtra,Latur,"Sawe Wadi, Latur - MPCB",16-02-2024 21:00:00,18.39963,76.57452,SO2,2,7,4
India,Maharashtra,Mahad,"Kamble Tarf Birwadi, Mahad - MPCB",16-02-2024 21:00:00,18.1023399,73.4783687,SO2,11,14,12
India,Maharashtra,Mahad,"Kamble Tarf Birwadi, Mahad - MPCB",16-02-2024 21:00:00,18.1023399,73.4783687,CO,23,28,25
India,Maharashtra,Malegaon,"Mahesh Nagar, Malegaon - MPCB",16-02-2024 21:00:00,20.555712,74.529236,PM2.5,75,221,124
India,Maharashtra,Mumbai,"Bandra Kurla Complex, Mumbai - MPCB",16-02-2024 21:00:00,19.065931,72.862131,PM10,NA,NA,NA
India,Maharashtra,Mumbai,"Bandra Kurla Complex, Mumbai - MPCB",16-02-2024 21:00:00,19.065931,72.862131,NO2,NA,NA,NA
India,Maharashtra,Mumbai,"Bandra Kurla Complex, Mumbai - MPCB",16-02-2024 21:00:00,19.065931,72.862131,NH3,NA,NA,NA
India,Maharashtra,Mumbai,"Bandra Kurla Complex, Mumbai - MPCB",16-02-2024 21:00:00,19.065931,72.862131,OZONE,22,84,56
India,Maharashtra,Mumbai,"Borivali East, Mumbai - IITM",16-02-2024 21:00:00,19.23241,72.86895,PM2.5,108,303,197
India,Maharashtra,Mumbai,"Byculla, Mumbai - BMC",16-02-2024 21:00:00,18.9767,72.8380,PM10,101,185,130
India,Maharashtra,Mumbai,"Byculla, Mumbai - BMC",16-02-2024 21:00:00,18.9767,72.8380,SO2,1,10,3
India,Maharashtra,Mumbai,"Chakala-Andheri East, Mumbai - IITM",16-02-2024 21:00:00,19.11074,72.86084,PM2.5,149,326,243
India,Maharashtra,Mumbai,"Chakala-Andheri East, Mumbai - IITM",16-02-2024 21:00:00,19.11074,72.86084,PM10,129,156,140
India,Maharashtra,Mumbai,"Chakala-Andheri East, Mumbai - IITM",16-02-2024 21:00:00,19.11074,72.86084,NH3,11,35,19
India,Maharashtra,Mumbai,"Chembur, Mumbai - MPCB",16-02-2024 21:00:00,19.0364585,72.8954371,PM2.5,126,271,205
India,Maharashtra,Mumbai,"Chhatrapati Shivaji Intl. Airport (T2), Mumbai - MPCB",16-02-2024 21:00:00,19.10078,72.87462,PM2.5,31,81,60
India,Maharashtra,Mumbai,"Colaba, Mumbai - MPCB",16-02-2024 21:00:00,18.910000,72.820000,OZONE,8,11,9
India,Maharashtra,Mumbai,"Ghatkopar, Mumbai - BMC",16-02-2024 21:00:00,19.083694,72.920967,PM2.5,87,231,165
India,Maharashtra,Mumbai,"Kandivali East, Mumbai - MPCB",16-02-2024 21:00:00,19.205800,72.868200,SO2,65,73,68
India,Maharashtra,Mumbai,"Kandivali East, Mumbai - MPCB",16-02-2024 21:00:00,19.205800,72.868200,CO,82,115,97
India,Maharashtra,Mumbai,"Kandivali West, Mumbai - BMC",16-02-2024 21:00:00,19.215859,72.831718,PM2.5,85,304,231
India,Maharashtra,Mumbai,"Kandivali West, Mumbai - BMC",16-02-2024 21:00:00,19.215859,72.831718,NH3,1,3,2
India,Maharashtra,Mumbai,"Kandivali West, Mumbai - BMC",16-02-2024 21:00:00,19.215859,72.831718,CO,24,62,33
India,Maharashtra,Mumbai,"Kherwadi_Bandra East, Mumbai - MPCB",16-02-2024 21:00:00,19.0632143,72.8456324,NO2,26,120,62
India,Maharashtra,Mumbai,"Kherwadi_Bandra East, Mumbai - MPCB",16-02-2024 21:00:00,19.0632143,72.8456324,CO,30,91,35
India,Maharashtra,Mumbai,"Kherwadi_Bandra East, Mumbai - MPCB",16-02-2024 21:00:00,19.0632143,72.8456324,OZONE,1,81,63
India,Maharashtra,Mumbai,"Khindipada-Bhandup West, Mumbai - IITM",16-02-2024 21:00:00,19.1653323,72.922099,SO2,1,8,2
India,Maharashtra,Mumbai,"Khindipada-Bhandup West, Mumbai - IITM",16-02-2024 21:00:00,19.1653323,72.922099,OZONE,33,118,43
India,Maharashtra,Mumbai,"Kurla, Mumbai - MPCB",16-02-2024 21:00:00,19.0863,72.8888,OZONE,32,55,33
India,Maharashtra,Mumbai,"Malad West, Mumbai - IITM",16-02-2024 21:00:00,19.19709,72.82204,NO2,25,64,39
India,Maharashtra,Mumbai,"Mazgaon, Mumbai - IITM",16-02-2024 21:00:00,18.96702,72.84214,NO2,37,82,58
India,Maharashtra,Mumbai,"Mindspace-Malad West, Mumbai - MPCB",16-02-2024 21:00:00,19.1878657,72.8304069,NH3,3,4,4
India,Maharashtra,Mumbai,"Navy Nagar-Colaba, Mumbai - IITM",16-02-2024 21:00:00,18.897756,72.813320,PM2.5,158,302,235
India,Maharashtra,Mumbai,"Navy Nagar-Colaba, Mumbai - IITM",16-02-2024 21:00:00,18.897756,72.813320,PM10,144,271,187
India,Maharashtra,Mumbai,"Powai, Mumbai - MPCB",16-02-2024 21:00:00,19.137500,72.915056,PM10,91,169,132
India,Maharashtra,Mumbai,"Powai, Mumbai - MPCB",16-02-2024 21:00:00,19.137500,72.915056,NO2,7,43,23
India,Maharashtra,Mumbai,"Sewri, Mumbai - BMC",16-02-2024 21:00:00,19.000084,72.856730,PM10,120,196,148
India,Maharashtra,Mumbai,"Sewri, Mumbai - BMC",16-02-2024 21:00:00,19.000084,72.856730,SO2,5,37,13
India,Maharashtra,Mumbai,"Sewri, Mumbai - BMC",16-02-2024 21:00:00,19.000084,72.856730,CO,NA,NA,NA
India,Maharashtra,Mumbai,"Shivaji Nagar, Mumbai - BMC",16-02-2024 21:00:00,19.060498,72.923356,SO2,5,77,22
India,Maharashtra,Mumbai,"Siddharth Nagar-Worli, Mumbai - IITM",16-02-2024 21:00:00,19.000083,72.813993,PM2.5,212,376,306
India,Maharashtra,Mumbai,"Siddharth Nagar-Worli, Mumbai - IITM",16-02-2024 21:00:00,19.000083,72.813993,NO2,28,167,63
India,Maharashtra,Mumbai,"Siddharth Nagar-Worli, Mumbai - IITM",16-02-2024 21:00:00,19.000083,72.813993,OZONE,4,250,155
India,Maharashtra,Mumbai,"Sion, Mumbai - MPCB",16-02-2024 21:00:00,19.047000,72.874600,NH3,1,2,2
India,Maharashtra,Mumbai,"Vasai West, Mumbai - MPCB",16-02-2024 21:00:00,19.383200,72.820400,NH3,4,4,4
India,Maharashtra,Mumbai,"Vile Parle West, Mumbai - MPCB",16-02-2024 21:00:00,19.10861,72.83622,PM10,95,145,126
India,Maharashtra,Mumbai,"Vile Parle West, Mumbai - MPCB",16-02-2024 21:00:00,19.10861,72.83622,OZONE,4,5,5
India,Maharashtra,Mumbai,"Worli, Mumbai - MPCB",16-02-2024 21:00:00,18.9936162,72.8128113,SO2,10,11,10
India,Maharashtra,Nagpur,"Ambazari, Nagpur - MPCB",16-02-2024 21:00:00,21.121801,79.04952,PM10,64,126,100
India,Maharashtra,Nagpur,"Ambazari, Nagpur - MPCB",16-02-2024 21:00:00,21.121801,79.04952,CO,12,95,47
India,Maharashtra,Nagpur,"Mahal, Nagpur - MPCB",16-02-2024 21:00:00,21.14472,79.107595,PM10,79,142,111
India,Maharashtra,Nagpur,"Opp GPO Civil Lines, Nagpur - MPCB",16-02-2024 21:00:00,21.152875,79.0517531,CO,16,116,56
India,Maharashtra,Nanded,"Sneh Nagar, Nanded - MPCB",16-02-2024 21:00:00,19.173852,77.296291,OZONE,39,91,76
India,Maharashtra,Nashik,"Gangapur Road, Nashik - MPCB",16-02-2024 21:00:00,20.0073285,73.7762427,NO2,2,4,2
India,Maharashtra,Nashik,"Gangapur Road, Nashik - MPCB",16-02-2024 21:00:00,20.0073285,73.7762427,OZONE,2,66,48
India,Maharashtra,Nashik,"MIDC Ambad, Nashik - MPCB",16-02-2024 21:00:00,19.950220,73.731480,PM2.5,58,143,92
India,Maharashtra,Nashik,"MIDC Ambad, Nashik - MPCB",16-02-2024 21:00:00,19.950220,73.731480,CO,24,86,46
India,Maharashtra,Nashik,"Pandav Nagari, Nashik - MPCB",16-02-2024 21:00:00,19.9591346,73.7788008,PM2.5,43,96,73
India,Maharashtra,Nashik,"Pandav Nagari, Nashik - MPCB",16-02-2024 21:00:00,19.9591346,73.7788008,NO2,25,126,51
India,Maharashtra,Nashik,"Pandav Nagari, Nashik - MPCB",16-02-2024 21:00:00,19.9591346,73.7788008,SO2,6,48,15
India,Maharashtra,Navi Mumbai,"Kopripada-Vashi, Navi Mumbai - MPCB",16-02-2024 21:00:00,19.090337,73.014232,SO2,22,83,45
India,Maharashtra,Navi Mumbai,"Mahape, Navi Mumbai - MPCB",16-02-2024 21:00:00,19.1135051,73.008978,PM10,108,224,155
India,Maharashtra,Navi Mumbai,"Mahape, Navi Mumbai - MPCB",16-02-2024 21:00:00,19.1135051,73.008978,NH3,3,4,3
India,Maharashtra,Navi Mumbai,"Mahape, Navi Mumbai - MPCB",16-02-2024 21:00:00,19.1135051,73.008978,SO2,26,26,26
India,Maharashtra,Navi Mumbai,"Nerul, Navi Mumbai - MPCB",16-02-2024 21:00:00,19.008751,73.016620,PM10,162,495,270
India,Maharashtra,Navi Mumbai,"Nerul, Navi Mumbai - MPCB",16-02-2024 21:00:00,19.008751,73.016620,NH3,5,8,6
India,Maharashtra,Navi Mumbai,"Sector-19A Nerul, Navi Mumbai - IITM",16-02-2024 21:00:00,19.044,73.0325,NH3,9,17,14
India,Maharashtra,Navi Mumbai,"Sector-2E Kalamboli, Navi Mumbai - MPCB",16-02-2024 21:00:00,19.02579,73.10297,PM2.5,116,258,182
India,Maharashtra,Navi Mumbai,"Tondare-Taloja, Navi Mumbai - MPCB",16-02-2024 21:00:00,19.0630,73.1209,PM10,125,270,182
India,Maharashtra,Navi Mumbai,"Tondare-Taloja, Navi Mumbai - MPCB",16-02-2024 21:00:00,19.0630,73.1209,NH3,1,19,10
India,Maharashtra,Parbhani,"Masoom Colony, Parbhani - MPCB",16-02-2024 21:00:00,19.265594,76.761463,CO,12,82,35
India,Maharashtra,Pimpri-Chinchwad,"Park Street Wakad, Pimpri Chinchwad - MPCB",16-02-2024 21:00:00,18.59051,73.77946,PM2.5,103,316,208
India,Maharashtra,Pimpri-Chinchwad,"Park Street Wakad, Pimpri Chinchwad - MPCB",16-02-2024 21:00:00,18.59051,73.77946,SO2,6,20,11
India,Maharashtra,Pimpri-Chinchwad,"Thergaon, Pimpri Chinchwad - MPCB",16-02-2024 21:00:00,18.616318,73.765797,PM10,125,304,161
India,Maharashtra,Pimpri-Chinchwad,"Thergaon, Pimpri Chinchwad - MPCB",16-02-2024 21:00:00,18.616318,73.765797,CO,16,111,37
India,Maharashtra,Pune,"Alandi, Pune - IITM",16-02-2024 21:00:00,18.675076,73.892743,PM10,80,122,106
India,Maharashtra,Pune,"Bhosari, Pune - IITM",16-02-2024 21:00:00,18.640051,73.848956,PM2.5,38,142,90
India,Maharashtra,Pune,"Katraj Dairy, Pune - MPCB",16-02-2024 21:00:00,18.454450,73.854155,NH3,3,11,5
India,Maharashtra,Pune,"Katraj Dairy, Pune - MPCB",16-02-2024 21:00:00,18.454450,73.854155,SO2,3,15,8
India,Maharashtra,Pune,"Mhada Colony, Pune - IITM",16-02-2024 21:00:00,18.573040,73.927715,PM2.5,25,201,123
India,Maharashtra,Pune,"Savitribai Phule Pune University, Pune - MPCB",16-02-2024 21:00:00,18.547056,73.826908,OZONE,7,254,141
India,Maharashtra,Sangli,"Vijay Nagar, Sangli - MPCB",16-02-2024 21:00:00, 16.5038,74.3623,SO2,NA,NA,NA
India,Maharashtra,Solapur,"Dnyaneshwar Nagar, Solapur - MPCB",16-02-2024 21:00:00,17.6336264,75.9132495,OZONE,21,88,67
India,Maharashtra,Solapur,"Ratandeep Housing Society, Solapur - MPCB",16-02-2024 21:00:00,17.65439,75.90649,PM10,43,106,69
India,Maharashtra,Solapur,"Ratandeep Housing Society, Solapur - MPCB",16-02-2024 21:00:00,17.65439,75.90649,NH3,1,2,1
India,Maharashtra,Solapur,"Ratandeep Housing Society, Solapur - MPCB",16-02-2024 21:00:00,17.65439,75.90649,CO,9,108,35
India,Maharashtra,Thane,"Pimpleshwar Mandir, Thane - MPCB",16-02-2024 21:00:00,19.192056,72.9585188,NH3,3,3,3
India,Maharashtra,Thane,"Upvan Fort, Thane - MPCB",16-02-2024 21:00:00,19.222279,72.957979,NO2,32,129,57
India,Maharashtra,Thane,"Upvan Fort, Thane - MPCB",16-02-2024 21:00:00,19.222279,72.957979,CO,13,55,19
India,Maharashtra,Ulhasnagar,"Sidhi Vinayak Nagar, Ulhasnagar - MPCB",16-02-2024 21:00:00,19.235581,73.159121,PM10,114,196,147
India,Maharashtra,Ulhasnagar,"Sidhi Vinayak Nagar, Ulhasnagar - MPCB",16-02-2024 21:00:00,19.235581,73.159121,NO2,12,83,40
India,Maharashtra,Ulhasnagar,"Sidhi Vinayak Nagar, Ulhasnagar - MPCB",16-02-2024 21:00:00,19.235581,73.159121,NH3,1,2,1
India,Maharashtra,Ulhasnagar,"Sidhi Vinayak Nagar, Ulhasnagar - MPCB",16-02-2024 21:00:00,19.235581,73.159121,CO,14,108,34
India,Maharashtra,Ulhasnagar,"Sidhi Vinayak Nagar, Ulhasnagar - MPCB",16-02-2024 21:00:00,19.235581,73.159121,OZONE,1,176,121
India,Maharashtra,Virar,"Bolinj, Virar - MPCB",16-02-2024 21:00:00,19.4458210,72.7988231,PM2.5,105,232,190
India,Maharashtra,Virar,"Bolinj, Virar - MPCB",16-02-2024 21:00:00,19.4458210,72.7988231,NH3,6,10,7
India,Manipur,Imphal,"DM College of Science, Imphal - Manipur PCB",16-02-2024 21:00:00,24.8207389,93.9423085,PM10,11,66,35
India,Manipur,Imphal,"DM College of Science, Imphal - Manipur PCB",16-02-2024 21:00:00,24.8207389,93.9423085,NH3,2,2,2
India,Manipur,Imphal,"DM College of Science, Imphal - Manipur PCB",16-02-2024 21:00:00,24.8207389,93.9423085,CO,6,6,6
India,Manipur,Imphal,"Manipur University, Imphal - Manipur PCB",16-02-2024 21:00:00,24.7524239,93.9286218,NH3,NA,NA,NA
India,Manipur,Imphal,"Manipur University, Imphal - Manipur PCB",16-02-2024 21:00:00,24.7524239,93.9286218,CO,10,46,17
India,Meghalaya,Shillong,"Lumpyngngad, Shillong - Meghalaya PCB",16-02-2024 21:00:00,25.5586,91.8985,PM10,45,138,98
India,Mizoram,Aizawl,"Sikulpuikawn, Aizawl - Mizoram PCB",16-02-2024 21:00:00,23.7176342,92.7192841,NO2,1,5,1
India,Mizoram,Aizawl,"Sikulpuikawn, Aizawl - Mizoram PCB",16-02-2024 21:00:00,23.7176342,92.7192841,SO2,2,2,2
India,Nagaland,Kohima,"PWD Juction, Kohima - NPCB",16-02-2024 21:00:00,25.6635413,94.0989878,PM2.5,34,301,103
India,Odisha,Angul,"Hakimapada, Angul - OSPCB",16-02-2024 21:00:00,20.832874,85.104082,PM2.5,60,307,146
India,Odisha,Balasore,"Kalidaspur, Balasore - OSPCB",16-02-2024 21:00:00,21.51161,86.89088,PM10,55,267,146
India,Odisha,Balasore,"Kalidaspur, Balasore - OSPCB",16-02-2024 21:00:00,21.51161,86.89088,CO,50,113,92
India,Odisha,Barbil,"Forest Office, Barbil - OSPCB",16-02-2024 21:00:00,22.1166054,85.3945546,PM10,78,253,149
India,Odisha,Baripada,"Meher Colony, Baripada - OSPCB",16-02-2024 21:00:00,21.941841,86.728318,PM10,26,292,85
India,Odisha,Baripada,"Meher Colony, Baripada - OSPCB",16-02-2024 21:00:00,21.941841,86.728318,NH3,4,4,4
India,Odisha,Bhubaneswar,"Lingraj Mandir, Bhubaneswar - OSPCB",16-02-2024 21:00:00,20.240790,85.836784,PM10,77,174,121
India,Odisha,Bhubaneswar,"Lingraj Mandir, Bhubaneswar - OSPCB",16-02-2024 21:00:00,20.240790,85.836784,NH3,4,6,5
India,Odisha,Bhubaneswar,"Lingraj Mandir, Bhubaneswar - OSPCB",16-02-2024 21:00:00,20.240790,85.836784,OZONE,40,145,117
India,Odisha,Bhubaneswar,"Patia, Bhubaneswar - OSPCB",16-02-2024 21:00:00,20.34652,85.81630,CO,52,102,67
India,Odisha,Bileipada,"Tata Township, Bileipada - OSPCB",16-02-2024 21:00:00,22.06156703,85.47409613,SO2,NA,NA,NA
India,Odisha,Bileipada,"Tata Township, Bileipada - OSPCB",16-02-2024 21:00:00,22.06156703,85.47409613,OZONE,1,6,4
India,Odisha,Byasanagar,"Ferro Chrome Colony, Byasanagar - OSPCB",16-02-2024 21:00:00,20.94185,86.11510,NO2,13,30,19
India,Odisha,Byasanagar,"Ferro Chrome Colony, Byasanagar - OSPCB",16-02-2024 21:00:00,20.94185,86.11510,CO,28,111,105
India,Odisha,Cuttack,"CDA Area, Cuttack - OSPCB",16-02-2024 21:00:00,20.48891     ,85.84768     ,SO2,5,58,13
India,Odisha,Cuttack,"CDA Area, Cuttack - OSPCB",16-02-2024 21:00:00,20.48891     ,85.84768     ,OZONE,29,143,115
India,Odisha,Keonjhar,"Jagamohanpur, Keonjhar - OSPCB",16-02-2024 21:00:00,21.643900,85.599355,PM10,97,150,114
India,Odisha,Keonjhar,"Jagamohanpur, Keonjhar - OSPCB",16-02-2024 21:00:00,21.643900,85.599355,SO2,12,27,14
India,Odisha,Nayagarh,"Dabuna, Nayagarh - OSPCB",16-02-2024 21:00:00,21.847279,85.416905,NH3,3,5,5
India,Odisha,Nayagarh,"Dabuna, Nayagarh - OSPCB",16-02-2024 21:00:00,21.847279,85.416905,SO2,2,7,3
India,Odisha,Nayagarh,"Dabuna, Nayagarh - OSPCB",16-02-2024 21:00:00,21.847279,85.416905,CO,17,26,20
India,Odisha,Rairangpur,"Divisional Forest Office, Rairangpur - OSPCB",16-02-2024 21:00:00,22.265816,86.174829,PM2.5,8,323,78
India,Odisha,Rairangpur,"Divisional Forest Office, Rairangpur - OSPCB",16-02-2024 21:00:00,22.265816,86.174829,SO2,8,31,16
India,Odisha,Rairangpur,"Divisional Forest Office, Rairangpur - OSPCB",16-02-2024 21:00:00,22.265816,86.174829,OZONE,1,59,36
India,Odisha,Rourkela,"Fertilizer Township, Rourkela - OSPCB",16-02-2024 21:00:00,22.18972222,84.86277778,PM2.5,52,241,137
India,Odisha,Rourkela,"Fertilizer Township, Rourkela - OSPCB",16-02-2024 21:00:00,22.18972222,84.86277778,SO2,11,14,13
India,Odisha,Rourkela,"Fertilizer Township, Rourkela - OSPCB",16-02-2024 21:00:00,22.18972222,84.86277778,CO,15,26,20
India,Odisha,Rourkela,"Raghunathpali, Rourkela - OSPCB",16-02-2024 21:00:00,22.220833,84.809444,PM2.5,72,288,147
India,Odisha,Rourkela,"Raghunathpali, Rourkela - OSPCB",16-02-2024 21:00:00,22.220833,84.809444,SO2,5,12,8
India,Odisha,Rourkela,"Raghunathpali, Rourkela - OSPCB",16-02-2024 21:00:00,22.220833,84.809444,CO,26,86,49
India,Odisha,Suakati,"OMC Colony, Suakati - OSPCB",16-02-2024 21:00:00,21.606865,85.510538,NO2,NA,NA,NA
India,Odisha,Suakati,"OMC Colony, Suakati - OSPCB",16-02-2024 21:00:00,21.606865,85.510538,SO2,2,55,15
India,Odisha,Talcher,"Talcher Coalfields,Talcher - OSPCB",16-02-2024 21:00:00,20.9360711,85.1707021,NO2,31,42,36
India,Odisha,Talcher,"Talcher Coalfields,Talcher - OSPCB",16-02-2024 21:00:00,20.9360711,85.1707021,OZONE,1,15,7
India,Odisha,Tensa,"Barsua Iron Ore Mines, Tensa - OSPCB",16-02-2024 21:00:00,21.869985,85.167016,PM2.5,53,154,90
India,Puducherry,Puducherry,"Jawahar Nagar, Puducherry - PPCC",16-02-2024 21:00:00,11.9309,79.8027,PM2.5,39,87,56
India,Puducherry,Puducherry,"Jawahar Nagar, Puducherry - PPCC",16-02-2024 21:00:00,11.9309,79.8027,CO,22,44,34
India,Punjab,Bathinda,"Hardev Nagar, Bathinda - PPCB",16-02-2024 21:00:00,30.233011,74.907758,CO,2,70,20
India,Punjab,Jalandhar,"Civil Line, Jalandhar - PPCB",16-02-2024 21:00:00,31.321907,75.578914,NH3,2,2,2
India,Punjab,Jalandhar,"Civil Line, Jalandhar - PPCB",16-02-2024 21:00:00,31.321907,75.578914,CO,26,108,44
India,Punjab,Khanna,"Kalal Majra, Khanna - PPCB",16-02-2024 21:00:00,30.736056 ,76.209694,NO2,NA,NA,NA
India,Punjab,Khanna,"Kalal Majra, Khanna - PPCB",16-02-2024 21:00:00,30.736056 ,76.209694,CO,9,44,26
India,Punjab,Ludhiana,"Punjab Agricultural University, Ludhiana - PPCB",16-02-2024 21:00:00,30.9028,75.8086,NH3,4,9,5
India,Punjab,Ludhiana,"Punjab Agricultural University, Ludhiana - PPCB",16-02-2024 21:00:00,30.9028,75.8086,OZONE,10,78,46
India,Punjab,Mandi Gobindgarh,"RIMT University, Mandi Gobindgarh - PPCB",16-02-2024 21:00:00,30.649961,76.331442,NO2,31,32,31
India,Punjab,Mandi Gobindgarh,"RIMT University, Mandi Gobindgarh - PPCB",16-02-2024 21:00:00,30.649961,76.331442,OZONE,32,34,33
India,Punjab,Patiala,"Model Town, Patiala - PPCB",16-02-2024 21:00:00,30.349388,76.366642,PM10,67,286,112
India,Punjab,Rupnagar,"Ratanpura, Rupnagar - Ambuja Cements",16-02-2024 21:00:00,31.0325454,76.5623046,PM2.5,42,237,105
India,Rajasthan,Banswara,"Rati Talai, Banswara - RSPCB",16-02-2024 21:00:00,23.555190,74.440010,PM2.5,78,212,145
India,Rajasthan,Banswara,"Rati Talai, Banswara - RSPCB",16-02-2024 21:00:00,23.555190,74.440010,PM10,82,137,116
India,Rajasthan,Baran,"Bamboliya, Baran - RSPCB",16-02-2024 21:00:00,25.106006,76.469948,PM10,64,184,112
India,Rajasthan,Barmer,"Railway Colony, Barmer - RSPCB",16-02-2024 21:00:00,25.747299,71.393989,PM2.5,48,197,81
India,Rajasthan,Barmer,"Railway Colony, Barmer - RSPCB",16-02-2024 21:00:00,25.747299,71.393989,NH3,3,14,5
India,Rajasthan,Bharatpur,"Krishna Nagar, Bharatpur - RSPCB",16-02-2024 21:00:00,27.215415,77.50873,OZONE,2,120,80
India,Rajasthan,Bhilwara,"Pratap Nagar, Bhilwara - RSPCB",16-02-2024 21:00:00,25.339605,74.618883,CO,22,107,40
India,Rajasthan,Bhiwadi,"RIICO Ind. Area III, Bhiwadi - RSPCB",16-02-2024 21:00:00,28.194909,76.862296,NO2,19,48,32
India,Rajasthan,Bhiwadi,"RIICO Ind. Area III, Bhiwadi - RSPCB",16-02-2024 21:00:00,28.194909,76.862296,CO,52,125,93
India,Rajasthan,Bikaner,"MM Ground, Bikaner - RSPCB",16-02-2024 21:00:00,28.018792,73.292658,PM10,106,422,225
India,Rajasthan,Bundi,"New Colony, Bundi - RSPCB",16-02-2024 21:00:00,25.435774,75.644272,NO2,NA,NA,NA
India,Rajasthan,Chittorgarh,"Shastri Nagar, Chittorgarh - RSPCB",16-02-2024 21:00:00,24.892047,74.623527,PM2.5,47,309,190
India,Rajasthan,Chittorgarh,"Shastri Nagar, Chittorgarh - RSPCB",16-02-2024 21:00:00,24.892047,74.623527,NO2,20,136,52
India,Rajasthan,Chittorgarh,"Shastri Nagar, Chittorgarh - RSPCB",16-02-2024 21:00:00,24.892047,74.623527,NH3,3,12,7
India,Rajasthan,Churu,"Subash Chowk, Churu - RSPCB",16-02-2024 21:00:00,28.296139,74.961696,SO2,29,49,36
India,Rajasthan,Dausa,"Khatikan Mohalla, Dausa - RSPCB",16-02-2024 21:00:00,26.895552,76.334753,NO2,20,106,53
India,Rajasthan,Dausa,"Khatikan Mohalla, Dausa - RSPCB",16-02-2024 21:00:00,26.895552,76.334753,NH3,7,13,10
India,Rajasthan,Dausa,"Khatikan Mohalla, Dausa - RSPCB",16-02-2024 21:00:00,26.895552,76.334753,SO2,NA,NA,NA
India,Rajasthan,Dausa,"Khatikan Mohalla, Dausa - RSPCB",16-02-2024 21:00:00,26.895552,76.334753,CO,94,173,136
India,Rajasthan,Dholpur,"Raja Ganj, Dholpur - RSPCB",16-02-2024 21:00:00,26.699557,77.898881,PM2.5,220,411,342
India,Rajasthan,Dholpur,"Raja Ganj, Dholpur - RSPCB",16-02-2024 21:00:00,26.699557,77.898881,SO2,1,7,5
India,Rajasthan,Dholpur,"Raja Ganj, Dholpur - RSPCB",16-02-2024 21:00:00,26.699557,77.898881,CO,28,87,45
India,Rajasthan,Dholpur,"Raja Ganj, Dholpur - RSPCB",16-02-2024 21:00:00,26.699557,77.898881,OZONE,9,198,144
India,Rajasthan,Dungarpur,"Bhoiwada, Dungarpur - RSPCB",16-02-2024 21:00:00,23.837789,73.714926,SO2,6,14,8
India,Rajasthan,Jaipur,"Adarsh Nagar, Jaipur - RSPCB",16-02-2024 21:00:00,26.902909,75.836858,SO2,8,26,16
India,Rajasthan,Jaipur,"Mansarovar Sector-12, Jaipur - RSPCB",16-02-2024 21:00:00,26.843698,75.766894,PM2.5,120,300,184
India,Rajasthan,Jaipur,"Police Commissionerate, Jaipur - RSPCB",16-02-2024 21:00:00,26.9164092,75.7994901,NH3,10,16,14
India,Rajasthan,Jaipur,"RIICO Sitapura, Jaipur - RSPCB",16-02-2024 21:00:00,26.786682,75.827928,OZONE,1,125,73
India,Rajasthan,Jaipur,"Sector-2 Murlipura, Jaipur - RSPCB",16-02-2024 21:00:00,26.960669,75.771817,CO,2,114,41
India,Rajasthan,Jaipur,"Shastri Nagar, Jaipur - RSPCB",16-02-2024 21:00:00,26.9502929,75.730943,PM2.5,79,300,167
India,Rajasthan,Jaisalmer,"Sadar Bazar, Jaisalmer - RSPCB",16-02-2024 21:00:00,26.912329,70.909168,SO2,5,24,9
India,Rajasthan,Jaisalmer,"Sadar Bazar, Jaisalmer - RSPCB",16-02-2024 21:00:00,26.912329,70.909168,CO,25,153,153
India,Rajasthan,Jalore,"Mudtra Sili, Jalore - RSPCB",16-02-2024 21:00:00,25.344694,72.626208,SO2,3,10,6
India,Rajasthan,Jhalawar,"Rajlaxmi Nagar, Jhalawar - RSPCB",16-02-2024 21:00:00,24.588397,76.172782,NH3,5,6,6
India,Rajasthan,Jhalawar,"Rajlaxmi Nagar, Jhalawar - RSPCB",16-02-2024 21:00:00,24.588397,76.172782,OZONE,58,113,98
India,Rajasthan,Jhunjhunu,"Indra Nagar, Jhunjhunu - RSPCB",16-02-2024 21:00:00,28.108988,75.386577,NH3,13,28,20
India,Rajasthan,Jodhpur,"Collectorate, Jodhpur - RSPCB",16-02-2024 21:00:00,26.268249,73.0193853,SO2,1,55,19
India,Rajasthan,Jodhpur,"Digari Kalan, Jodhpur - RSPCB",16-02-2024 21:00:00,26.295810,73.082283,CO,24,81,36
India,Rajasthan,Jodhpur,"Mandor, Jodhpur - RSPCB",16-02-2024 21:00:00,26.358805,73.047444,NO2,24,104,45
India,Rajasthan,Kota,"Dhanmandi, Kota - RSPCB",16-02-2024 21:00:00,25.164090,75.858137,NH3,4,7,5
India,Rajasthan,Kota,"Dhanmandi, Kota - RSPCB",16-02-2024 21:00:00,25.164090,75.858137,OZONE,60,127,98
India,Rajasthan,Kota,"Nayapura, Kota - RSPCB",16-02-2024 21:00:00,25.196024,75.855668,SO2,3,11,6
India,Rajasthan,Kota,"Nayapura, Kota - RSPCB",16-02-2024 21:00:00,25.196024,75.855668,OZONE,5,170,107
India,Rajasthan,Kota,"Shrinath Puram, Kota - RSPCB",16-02-2024 21:00:00,25.14389,75.821256,NO2,48,286,128
India,Rajasthan,Kota,"Shrinath Puram, Kota - RSPCB",16-02-2024 21:00:00,25.14389,75.821256,SO2,8,98,19
India,Rajasthan,Pali,"Indira Colony Vistar, Pali - RSPCB",16-02-2024 21:00:00,25.771061, 73.340227,PM10,67,211,118
India,Rajasthan,Pali,"Indira Colony Vistar, Pali - RSPCB",16-02-2024 21:00:00,25.771061, 73.340227,NH3,6,17,14
India,Rajasthan,Pali,"Indira Colony Vistar, Pali - RSPCB",16-02-2024 21:00:00,25.771061, 73.340227,SO2,19,20,19
India,Rajasthan,Pratapgarh,"Pragati Nagar, Pratapgarh - RSPCB",16-02-2024 21:00:00,24.041198,74.780702,OZONE,73,141,119
India,Rajasthan,Rajsamand,"Dhoinda, Rajsamand - RSPCB",16-02-2024 21:00:00,25.036360,73.883502,SO2,2,23,7
India,Rajasthan,Sawai Madhopur,"Sahu Nagar, Sawai Madhopur - RSPCB",16-02-2024 21:00:00,26.031443,76.359327,NO2,17,41,27
India,Rajasthan,Sawai Madhopur,"Sahu Nagar, Sawai Madhopur - RSPCB",16-02-2024 21:00:00,26.031443,76.359327,SO2,10,23,15
India,Rajasthan,Sikar,"Radhakishan Pura, Sikar - RSPCB",16-02-2024 21:00:00,27.608912,75.153302,PM10,75,407,151
India,Rajasthan,Sirohi,"Vedhaynath Colony, Sirohi - RSPCB",16-02-2024 21:00:00,24.885261,72.857549,NH3,3,7,5
India,Rajasthan,Sirohi,"Vedhaynath Colony, Sirohi - RSPCB",16-02-2024 21:00:00,24.885261,72.857549,OZONE,46,187,130
India,Rajasthan,Sri Ganganagar,"Old City, Sri Ganganagar - RSPCB",16-02-2024 21:00:00,29.931624,73.864511,PM10,156,500,345
India,Rajasthan,Sri Ganganagar,"Old City, Sri Ganganagar - RSPCB",16-02-2024 21:00:00,29.931624,73.864511,SO2,2,15,8
India,Rajasthan,Tonk,"Shastri Nagar, Tonk - RSPCB",16-02-2024 21:00:00,26.159933,75.780517,PM10,102,435,201
India,Rajasthan,Tonk,"Shastri Nagar, Tonk - RSPCB",16-02-2024 21:00:00,26.159933,75.780517,OZONE,6,101,57
India,Rajasthan,Udaipur,"Ashok Nagar, Udaipur - RSPCB",16-02-2024 21:00:00,24.5886166,73.6321397,NH3,4,12,6
India,Sikkim,Gangtok,"Zero Point GICI, Gangtok - SSPCB",16-02-2024 21:00:00,27.338530,88.614099,NO2,1,10,4
India,TamilNadu,Chengalpattu,"Crescent University, Chengalpattu - TNPCB",16-02-2024 21:00:00,12.8777316,80.0834807,PM10,NA,NA,NA
India,TamilNadu,Chengalpattu,"Crescent University, Chengalpattu - TNPCB",16-02-2024 21:00:00,12.8777316,80.0834807,OZONE,6,7,6
India,TamilNadu,Chennai,"Alandur Bus Depot, Chennai - CPCB",16-02-2024 21:00:00,12.9099161,80.1076538,NH3,6,16,8
India,TamilNadu,Chennai,"Alandur Bus Depot, Chennai - CPCB",16-02-2024 21:00:00,12.9099161,80.1076538,SO2,1,9,4
India,TamilNadu,Chennai,"Gandhi Nagar_Ennore, Chennai - TNPCB",16-02-2024 21:00:00,13.218341,80.32027,NO2,NA,NA,NA
India,TamilNadu,Coimbatore,"PSG College of Arts and Science, Coimbatore - TNPCB",16-02-2024 21:00:00,11.0328,77.0349,PM2.5,33,130,76
India,TamilNadu,Cuddalore,"Kudikadu, Cuddalore - TNPCB",16-02-2024 21:00:00,11.6829898,79.7532099,PM2.5,45,103,66
India,TamilNadu,Cuddalore,"Kudikadu, Cuddalore - TNPCB",16-02-2024 21:00:00,11.6829898,79.7532099,PM10,54,115,78
India,TamilNadu,Cuddalore,"Kudikadu, Cuddalore - TNPCB",16-02-2024 21:00:00,11.6829898,79.7532099,SO2,14,15,15
India,TamilNadu,Kanchipuram,"Kilambi, Kanchipuram - TNPCB",16-02-2024 21:00:00,12.864618,79.659968,PM2.5,NA,NA,NA
India,TamilNadu,Kanchipuram,"Kilambi, Kanchipuram - TNPCB",16-02-2024 21:00:00,12.864618,79.659968,NH3,NA,NA,NA
India,TamilNadu,Ooty,"Bombay Castel, Ooty - TNPCB",16-02-2024 21:00:00,11.4068288,76.7138973,CO,16,20,17
India,TamilNadu,Palkalaiperur,"Bharathidasan University, Palkalaiperur - TNPCB",16-02-2024 21:00:00,10.681158,78.741746,SO2,27,29,28
India,TamilNadu,Salem,"Sona College of Technology, Salem - TNPCB",16-02-2024 21:00:00,11.679111,78.125052,SO2,21,22,22
India,TamilNadu,Vellore,"Vasanthapuram, Vellore - TNPCB",16-02-2024 21:00:00,12.909494,79.131861,PM2.5,NA,NA,NA
India,TamilNadu,Vellore,"Vasanthapuram, Vellore - TNPCB",16-02-2024 21:00:00,12.909494,79.131861,PM10,NA,NA,NA
India,TamilNadu,Vellore,"Vasanthapuram, Vellore - TNPCB",16-02-2024 21:00:00,12.909494,79.131861,NO2,NA,NA,NA
India,TamilNadu,Vellore,"Vasanthapuram, Vellore - TNPCB",16-02-2024 21:00:00,12.909494,79.131861,NH3,NA,NA,NA
India,TamilNadu,Virudhunagar,"Collectorate Office, Virudhunagar - TNPCB",16-02-2024 21:00:00,9.559382,77.948828,PM10,33,108,57
India,Telangana,Hyderabad,"Bollaram Industrial Area, Hyderabad - TSPCB",16-02-2024 21:00:00,17.540891,78.358528,CO,10,40,22
India,Telangana,Hyderabad,"Central University, Hyderabad - TSPCB",16-02-2024 21:00:00,17.460103,78.334361,SO2,3,10,7
India,Telangana,Hyderabad,"Central University, Hyderabad - TSPCB",16-02-2024 21:00:00,17.460103,78.334361,OZONE,3,4,4
India,Telangana,Hyderabad,"ECIL Kapra, Hyderabad - TSPCB",16-02-2024 21:00:00,17.470431,78.566959,PM2.5,41,50,45
India,Telangana,Hyderabad,"ECIL Kapra, Hyderabad - TSPCB",16-02-2024 21:00:00,17.470431,78.566959,PM10,63,81,69
India,Telangana,Hyderabad,"ECIL Kapra, Hyderabad - TSPCB",16-02-2024 21:00:00,17.470431,78.566959,SO2,1,9,5
India,Telangana,Hyderabad,"ECIL Kapra, Hyderabad - TSPCB",16-02-2024 21:00:00,17.470431,78.566959,CO,14,32,19
India,Telangana,Hyderabad,"ECIL Kapra, Hyderabad - TSPCB",16-02-2024 21:00:00,17.470431,78.566959,OZONE,4,101,88
India,Telangana,Hyderabad,"ICRISAT Patancheru, Hyderabad - TSPCB",16-02-2024 21:00:00,17.518400,78.278777,PM2.5,17,55,26
India,Telangana,Hyderabad,"IITH Kandi, Hyderabad - TSPCB",16-02-2024 21:00:00,17.585705,78.126199,PM2.5,NA,NA,NA
India,Telangana,Hyderabad,"IITH Kandi, Hyderabad - TSPCB",16-02-2024 21:00:00,17.585705,78.126199,NO2,NA,NA,NA
India,Telangana,Hyderabad,"IITH Kandi, Hyderabad - TSPCB",16-02-2024 21:00:00,17.585705,78.126199,NH3,NA,NA,NA
India,Telangana,Hyderabad,"Kokapet, Hyderabad - TSPCB",16-02-2024 21:00:00,17.393559,78.339194,PM2.5,NA,NA,NA
India,Telangana,Hyderabad,"Nacharam_TSIIC IALA, Hyderabad - TSPCB",16-02-2024 21:00:00,17.429398,78.569354,NO2,NA,NA,NA
India,Telangana,Hyderabad,"Nacharam_TSIIC IALA, Hyderabad - TSPCB",16-02-2024 21:00:00,17.429398,78.569354,OZONE,22,42,34
India,Telangana,Hyderabad,"New Malakpet, Hyderabad - TSPCB",16-02-2024 21:00:00,17.37206,78.50864,PM10,58,76,61
India,Telangana,Hyderabad,"New Malakpet, Hyderabad - TSPCB",16-02-2024 21:00:00,17.37206,78.50864,OZONE,5,27,21
India,Telangana,Hyderabad,"Ramachandrapuram, Hyderabad - TSPCB",16-02-2024 21:00:00,17.528544,78.286195,PM10,NA,NA,NA
India,Telangana,Hyderabad,"Ramachandrapuram, Hyderabad - TSPCB",16-02-2024 21:00:00,17.528544,78.286195,NH3,NA,NA,NA
India,Telangana,Hyderabad,"Ramachandrapuram, Hyderabad - TSPCB",16-02-2024 21:00:00,17.528544,78.286195,SO2,NA,NA,NA
India,Telangana,Hyderabad,"Sanathnagar, Hyderabad - TSPCB",16-02-2024 21:00:00,17.4559458,78.4332152,SO2,1,31,9
India,Telangana,Hyderabad,"Somajiguda, Hyderabad - TSPCB",16-02-2024 21:00:00,17.417094,78.457437,OZONE,4,32,25
India,Telangana,Hyderabad,"Zoo Park, Hyderabad - TSPCB",16-02-2024 21:00:00,17.349694,78.451437,NO2,28,45,35
India,Tripura,Agartala,"Bardowali, Agartala - Tripura SPCB",16-02-2024 21:00:00,23.8175497,91.2726974,NO2,7,24,15
India,Uttar_Pradesh,Agra,"Manoharpur, Agra - UPPCB",16-02-2024 21:00:00,27.23711,78.01936,NO2,16,17,17
India,Uttar_Pradesh,Agra,"Manoharpur, Agra - UPPCB",16-02-2024 21:00:00,27.23711,78.01936,NH3,1,1,1
India,Uttar_Pradesh,Agra,"Sanjay Palace, Agra - UPPCB",16-02-2024 21:00:00,27.19865833,78.00598056,PM10,42,133,74
India,Uttar_Pradesh,Agra,"Sanjay Palace, Agra - UPPCB",16-02-2024 21:00:00,27.19865833,78.00598056,NO2,60,114,87
India,Uttar_Pradesh,Agra,"Sector-3B Avas Vikas Colony, Agra - UPPCB",16-02-2024 21:00:00,27.19412,77.96237,CO,10,46,14
India,Uttar_Pradesh,Agra,"Shahjahan Garden, Agra - UPPCB",16-02-2024 21:00:00,27.169338,78.03582,SO2,30,34,32
India,Uttar_Pradesh,Agra,"Shastripuram, Agra - UPPCB",16-02-2024 21:00:00,27.19862,77.92066,PM10,NA,NA,NA
India,Uttar_Pradesh,Agra,"Shastripuram, Agra - UPPCB",16-02-2024 21:00:00,27.19862,77.92066,CO,10,30,17
India,Uttar_Pradesh,Baghpat,"Sardar Patel Inter College, Baghpat - UPPCB",16-02-2024 21:00:00,28.964949,77.278761,PM10,53,156,124
India,Uttar_Pradesh,Baghpat,"Sardar Patel Inter College, Baghpat - UPPCB",16-02-2024 21:00:00,28.964949,77.278761,NO2,27,97,65
India,Uttar_Pradesh,Bulandshahr,"Yamunapuram, Bulandshahr - UPPCB",16-02-2024 21:00:00,28.406963,77.849831,NO2,19,87,51
India,Uttar_Pradesh,Firozabad,"Nagla Bhau, Firozabad - UPPCB",16-02-2024 21:00:00,27.168897,78.376960,OZONE,23,55,34
India,Uttar_Pradesh,Ghaziabad,"Indirapuram, Ghaziabad - UPPCB",16-02-2024 21:00:00,28.646233,77.358075,PM10,99,324,203
India,Uttar_Pradesh,Ghaziabad,"Loni, Ghaziabad - UPPCB",16-02-2024 21:00:00,28.757294,77.278792,OZONE,2,117,78
India,Uttar_Pradesh,Ghaziabad,"Sanjay Nagar, Ghaziabad - UPPCB",16-02-2024 21:00:00,28.685382,77.453839,SO2,19,41,26
India,Uttar_Pradesh,Gorakhpur,"Madan Mohan Malaviya University of Technology, Gorakhpur - UPPCB",16-02-2024 21:00:00,26.730136,83.433859,PM10,54,129,92
India,Uttar_Pradesh,Greater Noida,"Knowledge Park - III, Greater Noida - UPPCB",16-02-2024 21:00:00,28.47272,77.482000,SO2,16,51,23
India,Uttar_Pradesh,Greater Noida,"Knowledge Park - V, Greater Noida - UPPCB",16-02-2024 21:00:00,28.557054,77.453663,OZONE,4,216,109
India,Uttar_Pradesh,Hapur,"Anand Vihar, Hapur - UPPCB",16-02-2024 21:00:00,28.725645,77.749675,PM2.5,49,364,236
India,Uttar_Pradesh,Hapur,"Anand Vihar, Hapur - UPPCB",16-02-2024 21:00:00,28.725645,77.749675,NO2,21,67,44
India,Uttar_Pradesh,Hapur,"Anand Vihar, Hapur - UPPCB",16-02-2024 21:00:00,28.725645,77.749675,NH3,6,8,7
India,Uttar_Pradesh,Hapur,"Anand Vihar, Hapur - UPPCB",16-02-2024 21:00:00,28.725645,77.749675,OZONE,18,176,119
India,Uttar_Pradesh,Jhansi,"Shivaji Nagar, Jhansi - UPPCB",16-02-2024 21:00:00,25.4547,78.6039,PM10,85,156,126
India,Uttar_Pradesh,Kanpur,"FTI Kidwai Nagar, Kanpur - UPPCB",16-02-2024 21:00:00,26.428282,80.327067,OZONE,3,14,8
India,Uttar_Pradesh,Kanpur,"NSI Kalyanpur, Kanpur - UPPCB",16-02-2024 21:00:00,26.509954,80.249612,PM10,108,165,138
India,Uttar_Pradesh,Kanpur,"NSI Kalyanpur, Kanpur - UPPCB",16-02-2024 21:00:00,26.509954,80.249612,CO,20,73,47
India,Uttar_Pradesh,Kanpur,"Nehru Nagar, Kanpur - UPPCB",16-02-2024 21:00:00,26.4703136,80.3229863,SO2,2,30,11
India,Uttar_Pradesh,Khurja,"Kalindi Kunj, Khurja - UPPCB",16-02-2024 21:00:00,28.2348927,77.8683002,CO,18,53,28
India,Uttar_Pradesh,Lucknow,"B R Ambedkar University, Lucknow - UPPCB",16-02-2024 21:00:00,26.766433,80.927299,SO2,26,32,28
India,Uttar_Pradesh,Lucknow,"Gomti Nagar, Lucknow - UPPCB",16-02-2024 21:00:00,26.868120,81.005119,PM10,58,116,88
India,Uttar_Pradesh,Lucknow,"Kendriya Vidyalaya, Lucknow - CPCB",16-02-2024 21:00:00,26.906111,80.948222,NH3,3,21,13
India,Uttar_Pradesh,Lucknow,"Kukrail Picnic Spot-1, Lucknow - UPPCB",16-02-2024 21:00:00,26.90723,80.98579,SO2,30,33,31
India,Uttar_Pradesh,Lucknow,"Talkatora District Industries Center, Lucknow - CPCB",16-02-2024 21:00:00,26.83399722,80.8917361,NH3,1,10,6
India,Uttar_Pradesh,Lucknow,"Talkatora District Industries Center, Lucknow - CPCB",16-02-2024 21:00:00,26.83399722,80.8917361,CO,6,80,29
India,Uttar_Pradesh,Meerut,"Ganga Nagar, Meerut - UPPCB",16-02-2024 21:00:00,28.999264,77.7590354,SO2,7,28,16
India,Uttar_Pradesh,Meerut,"Jai Bhim Nagar, Meerut - UPPCB",16-02-2024 21:00:00,28.9535882,77.7622941,SO2,5,34,17
India,Uttar_Pradesh,Moradabad,"Buddhi Vihar, Moradabad - UPPCB",16-02-2024 21:00:00,28.83526,78.74460,NO2,21,24,23
India,Uttar_Pradesh,Moradabad,"Eco Herbal Park, Moradabad - UPPCB",16-02-2024 21:00:00,28.840739,78.697531,SO2,3,37,16
India,Uttar_Pradesh,Moradabad,"Employment Office, Moradabad - UPPCB",16-02-2024 21:00:00,28.88528,78.73880,PM10,69,257,138
India,Uttar_Pradesh,Moradabad,"Employment Office, Moradabad - UPPCB",16-02-2024 21:00:00,28.88528,78.73880,SO2,25,46,28
India,Uttar_Pradesh,Moradabad,"Jigar Colony, Moradabad - UPPCB",16-02-2024 21:00:00,28.856664,78.772638,PM10,64,176,119
India,Uttar_Pradesh,Moradabad,"Jigar Colony, Moradabad - UPPCB",16-02-2024 21:00:00,28.856664,78.772638,OZONE,19,81,36
India,Uttar_Pradesh,Moradabad,"Kashiram Nagar, Moradabad - UPPCB",16-02-2024 21:00:00,28.849399,78.742362,PM10,44,165,114
India,Uttar_Pradesh,Moradabad,"Transport Nagar, Moradabad - UPPCB",16-02-2024 21:00:00,28.802625,78.753728,NH3,6,6,6
India,Uttar_Pradesh,Moradabad,"Transport Nagar, Moradabad - UPPCB",16-02-2024 21:00:00,28.802625,78.753728,SO2,43,50,45
India,Uttar_Pradesh,Muzaffarnagar,"New Mandi, Muzaffarnagar - UPPCB",16-02-2024 21:00:00,29.4723508,77.7194031,PM10,116,345,215
India,Uttar_Pradesh,Noida,"Sector - 125, Noida - UPPCB",16-02-2024 21:00:00,28.5447608,77.3231257,PM2.5,22,272,161
India,Uttar_Pradesh,Noida,"Sector - 125, Noida - UPPCB",16-02-2024 21:00:00,28.5447608,77.3231257,NO2,36,152,101
India,Uttar_Pradesh,Noida,"Sector - 62, Noida - IMD",16-02-2024 21:00:00,28.6245479,77.3577104,OZONE,2,39,24
India,Uttar_Pradesh,Noida,"Sector-1, Noida - UPPCB",16-02-2024 21:00:00,28.5898,77.3101,NO2,20,134,80
India,Uttar_Pradesh,Noida,"Sector-116, Noida - UPPCB",16-02-2024 21:00:00,28.569230,77.393848,SO2,12,35,17
India,Uttar_Pradesh,Prayagraj,"Jhunsi, Prayagraj - UPPCB",16-02-2024 21:00:00,25.425602,81.917152,NH3,5,5,5
India,Uttar_Pradesh,Prayagraj,"Motilal Nehru NIT, Prayagraj - UPPCB",16-02-2024 21:00:00,25.494,81.863,PM10,27,139,78
India,Uttar_Pradesh,Prayagraj,"Motilal Nehru NIT, Prayagraj - UPPCB",16-02-2024 21:00:00,25.494,81.863,CO,12,100,35
India,Uttar_Pradesh,Prayagraj,"Nagar Nigam, Prayagraj - UPPCB",16-02-2024 21:00:00,25.44919916 ,81.82735986 ,PM10,30,241,119
India,Uttar_Pradesh,Prayagraj,"Nagar Nigam, Prayagraj - UPPCB",16-02-2024 21:00:00,25.44919916 ,81.82735986 ,SO2,28,114,61
India,Uttar_Pradesh,Prayagraj,"Nagar Nigam, Prayagraj - UPPCB",16-02-2024 21:00:00,25.44919916 ,81.82735986 ,CO,15,115,31
India,Uttar_Pradesh,Varanasi,"IESD Banaras Hindu University, Varanasi - UPPCB",16-02-2024 21:00:00,25.262326,82.995408,NO2,2,2,2
India,Uttar_Pradesh,Varanasi,"Maldahiya, Varanasi - UPPCB",16-02-2024 21:00:00,25.32393,82.99687,PM10,18,106,41
India,Uttar_Pradesh,Varanasi,"Maldahiya, Varanasi - UPPCB",16-02-2024 21:00:00,25.32393,82.99687,SO2,43,63,56
India,Uttar_Pradesh,Varanasi,"Maldahiya, Varanasi - UPPCB",16-02-2024 21:00:00,25.32393,82.99687,CO,2,116,15
India,Uttar_Pradesh,Vrindavan,"Omex Eternity, Vrindavan - UPPCB",16-02-2024 21:00:00,27.5714090,77.6557570,NH3,2,5,3
India,Uttar_Pradesh,Vrindavan,"Omex Eternity, Vrindavan - UPPCB",16-02-2024 21:00:00,27.5714090,77.6557570,SO2,37,40,38
India,Uttarakhand,Kashipur,"Govt. Girls Inter College, Kashipur - UKPCB",16-02-2024 21:00:00,29.2124114,78.9611753,PM10,48,129,93
India,Uttarakhand,Rishikesh,"Shivaji Nagar, Rishikesh - UKPCB",16-02-2024 21:00:00,30.075911,78.2859547,NH3,2,4,3
India,Uttarakhand,Rishikesh,"Shivaji Nagar, Rishikesh - UKPCB",16-02-2024 21:00:00,30.075911,78.2859547,OZONE,11,131,71
India,West_Bengal,Asansol,"Asansol Court Area, Asansol - WBPCB",16-02-2024 21:00:00,23.685297,86.945968,OZONE,8,40,28
India,West_Bengal,Barrackpore,"SVSPA Campus, Barrackpore - WBPCB",16-02-2024 21:00:00,22.7605581,88.3617589,NO2,15,52,28
India,West_Bengal,Durgapur,"Sidhu Kanhu Indoor Stadium, Durgapur - WBPCB",16-02-2024 21:00:00,23.5404352,87.2892225,NO2,26,68,34
India,West_Bengal,Durgapur,"Sidhu Kanhu Indoor Stadium, Durgapur - WBPCB",16-02-2024 21:00:00,23.5404352,87.2892225,SO2,14,33,22
India,West_Bengal,Haldia,"Priyambada Housing Estate, Haldia - WBPCB",16-02-2024 21:00:00,22.06047,88.109737,PM10,71,189,129
India,West_Bengal,Howrah,"Belur Math, Howrah - WBPCB",16-02-2024 21:00:00,22.629801,88.352017,NH3,5,7,6
India,West_Bengal,Howrah,"Ghusuri, Howrah - WBPCB",16-02-2024 21:00:00,22.611968,88.347422,PM10,142,177,152
India,West_Bengal,Howrah,"Ghusuri, Howrah - WBPCB",16-02-2024 21:00:00,22.611968,88.347422,CO,27,68,39
India,West_Bengal,Howrah,"Padmapukur, Howrah - WBPCB",16-02-2024 21:00:00,22.5687319,88.2797276,CO,19,98,43
India,West_Bengal,Kolkata,"Ballygunge, Kolkata - WBPCB",16-02-2024 21:00:00,22.5367507,88.3638022,OZONE,8,48,35
India,West_Bengal,Kolkata,"Bidhannagar, Kolkata - WBPCB",16-02-2024 21:00:00,22.58157048,88.41002457,OZONE,7,84,40
India,West_Bengal,Kolkata,"Fort William, Kolkata - WBPCB",16-02-2024 21:00:00,22.556640,88.342674,PM2.5,42,238,102
India,West_Bengal,Kolkata,"Fort William, Kolkata - WBPCB",16-02-2024 21:00:00,22.556640,88.342674,NH3,7,10,8
India,West_Bengal,Kolkata,"Jadavpur, Kolkata - WBPCB",16-02-2024 21:00:00,22.49929,88.36917,PM2.5,93,276,159
India,West_Bengal,Kolkata,"Rabindra Bharati University, Kolkata - WBPCB",16-02-2024 21:00:00,22.627847,88.380669,SO2,6,27,15
India,West_Bengal,Kolkata,"Rabindra Sarobar, Kolkata - WBPCB",16-02-2024 21:00:00,22.51106,88.35142,NH3,4,12,6
India,West_Bengal,Kolkata,"Victoria, Kolkata - WBPCB",16-02-2024 21:00:00,22.5448082,88.3403691,NH3,2,7,4
India,Andhra_Pradesh,Anantapur,"Gulzarpet, Anantapur - APPCB",16-02-2024 21:00:00,14.675886,77.593027,PM10,29,64,44
India,Andhra_Pradesh,Anantapur,"Gulzarpet, Anantapur - APPCB",16-02-2024 21:00:00,14.675886,77.593027,CO,27,54,37
India,Andhra_Pradesh,Kadapa,"Yerramukkapalli, Kadapa - APPCB",16-02-2024 21:00:00,14.465052,78.824187,NO2,8,8,8
India,Andhra_Pradesh,Rajamahendravaram,"Anand Kala Kshetram, Rajamahendravaram - APPCB",16-02-2024 21:00:00,16.9872867,81.7363176,NH3,2,5,4
India,Andhra_Pradesh,Tirupati,"Vaikuntapuram, Tirupati - APPCB",16-02-2024 21:00:00,13.615387,79.409230,SO2,4,5,5
India,Andhra_Pradesh,Tirupati,"Vaikuntapuram, Tirupati - APPCB",16-02-2024 21:00:00,13.615387,79.409230,OZONE,2,35,34
India,Andhra_Pradesh,Vijayawada,"Kanuru, Vijayawada - APPCB",16-02-2024 21:00:00,16.486692,80.699436,NO2,14,23,17
India,Andhra_Pradesh,Vijayawada,"Kanuru, Vijayawada - APPCB",16-02-2024 21:00:00,16.486692,80.699436,NH3,1,1,1
India,Andhra_Pradesh,Vijayawada,"Kanuru, Vijayawada - APPCB",16-02-2024 21:00:00,16.486692,80.699436,SO2,5,14,9
India,Andhra_Pradesh,Vijayawada,"Rajiv Gandhi Park, Vijayawada - APPCB",16-02-2024 21:00:00,16.509717,80.612222,PM2.5,43,88,67
India,Andhra_Pradesh,Vijayawada,"Rajiv Gandhi Park, Vijayawada - APPCB",16-02-2024 21:00:00,16.509717,80.612222,CO,31,36,34
India,Andhra_Pradesh,Vijayawada,"Rajiv Nagar, Vijayawada - APPCB",16-02-2024 21:00:00,16.554731,80.649110,SO2,2,20,12
India,Arunachal_Pradesh,Naharlagun,"Naharlagun, Naharlagun - APSPCB",16-02-2024 21:00:00,27.103358,93.679645,NO2,2,2,2
India,Assam,Guwahati,"IITG, Guwahati - PCBA",16-02-2024 21:00:00,26.2028636,91.70046436,NO2,1,10,3
India,Assam,Guwahati,"IITG, Guwahati - PCBA",16-02-2024 21:00:00,26.2028636,91.70046436,CO,10,20,13
India,Assam,Guwahati,"LGBI Airport, Guwahati - PCBA",16-02-2024 21:00:00,26.10887,91.589544,PM2.5,57,297,133
India,Assam,Guwahati,"Pan Bazaar, Guwahati - PCBA",16-02-2024 21:00:00,26.187500,91.744194,SO2,60,89,66
India,Assam,Guwahati,"Railway Colony, Guwahati - PCBA",16-02-2024 21:00:00,26.181742,91.78063,PM2.5,NA,NA,NA
India,Assam,Guwahati,"Railway Colony, Guwahati - PCBA",16-02-2024 21:00:00,26.181742,91.78063,SO2,NA,NA,NA
India,Assam,Nalbari,"Bata Chowk, Nalbari - PCBA",16-02-2024 21:00:00,26.446912,91.439057,NH3,1,8,1
India,Assam,Nalbari,"Bata Chowk, Nalbari - PCBA",16-02-2024 21:00:00,26.446912,91.439057,SO2,5,8,6
India,Assam,Silchar,"Tarapur, Silchar - PCBA",16-02-2024 21:00:00,24.82827,92.79525,PM2.5,37,50,44
India,Bihar,Araria,"Kharahiya Basti, Araria - BSPCB",16-02-2024 21:00:00,26.146529,87.454184,NH3,7,8,7
India,Bihar,Arrah,"New DM Office, Arrah - BSPCB",16-02-2024 21:00:00,25.5626095,84.663264,PM10,46,151,91
India,Bihar,Aurangabad,"Gurdeo Nagar, Aurangabad - BSPCB",16-02-2024 21:00:00,24.75746,84.366208,SO2,3,14,8
India,Bihar,Bettiah,"Kamalnath Nagar, Bettiah - BSPCB",16-02-2024 21:00:00,26.80365,84.51954,PM2.5,13,325,63
India,Bihar,Bettiah,"Kamalnath Nagar, Bettiah - BSPCB",16-02-2024 21:00:00,26.80365,84.51954,NO2,14,19,16
India,Bihar,Bettiah,"Kamalnath Nagar, Bettiah - BSPCB",16-02-2024 21:00:00,26.80365,84.51954,NH3,3,3,3
India,Bihar,Bettiah,"Kamalnath Nagar, Bettiah - BSPCB",16-02-2024 21:00:00,26.80365,84.51954,SO2,7,13,11
India,Bihar,Bettiah,"Kamalnath Nagar, Bettiah - BSPCB",16-02-2024 21:00:00,26.80365,84.51954,OZONE,1,2,2
India,Bihar,Bhagalpur,"Mayaganj, Bhagalpur - BSPCB",16-02-2024 21:00:00,25.265194,87.012947,PM2.5,57,348,214
India,Bihar,Bhagalpur,"Mayaganj, Bhagalpur - BSPCB",16-02-2024 21:00:00,25.265194,87.012947,NH3,8,9,8
India,Bihar,Bhagalpur,"Mayaganj, Bhagalpur - BSPCB",16-02-2024 21:00:00,25.265194,87.012947,SO2,11,13,12
India,Bihar,Bihar Sharif,"D M Colony, Bihar Sharif - BSPCB",16-02-2024 21:00:00,25.204762,85.514960,NO2,9,10,9
India,Bihar,Bihar Sharif,"D M Colony, Bihar Sharif - BSPCB",16-02-2024 21:00:00,25.204762,85.514960,SO2,2,13,8
India,Bihar,Chhapra,"Darshan Nagar, Chhapra - BSPCB",16-02-2024 21:00:00,25.7808257,84.7446768,PM10,61,265,120
India,Bihar,Chhapra,"Darshan Nagar, Chhapra - BSPCB",16-02-2024 21:00:00,25.7808257,84.7446768,NO2,12,23,16
India,Bihar,Gaya,"SFTI Kusdihra, Gaya - BSPCB",16-02-2024 21:00:00,24.762518,84.982348,PM2.5,36,113,62
India,Bihar,Gaya,"SFTI Kusdihra, Gaya - BSPCB",16-02-2024 21:00:00,24.762518,84.982348,NO2,1,45,25
India,Bihar,Gaya,"SFTI Kusdihra, Gaya - BSPCB",16-02-2024 21:00:00,24.762518,84.982348,SO2,8,9,8
India,Bihar,Hajipur,"Industrial Area, Hajipur - BSPCB",16-02-2024 21:00:00,25.697189,85.245900,OZONE,1,4,2
India,Bihar,Katihar,"Mirchaibari, Katihar - BSPCB",16-02-2024 21:00:00,25.560083,87.553265,NO2,5,23,12
India,Bihar,Kishanganj,"SDM Office_Khagra, Kishanganj - BSPCB",16-02-2024 21:00:00,26.0881305,87.93840336,PM2.5,2,187,43
India,Bihar,Kishanganj,"SDM Office_Khagra, Kishanganj - BSPCB",16-02-2024 21:00:00,26.0881305,87.93840336,PM10,130,208,168
India,Bihar,Kishanganj,"SDM Office_Khagra, Kishanganj - BSPCB",16-02-2024 21:00:00,26.0881305,87.93840336,CO,4,12,8
India,Bihar,Manguraha,"Forest Rest House, Manguraha - BSPCB",16-02-2024 21:00:00,27.308328,84.531742,NH3,2,3,2
India,Bihar,Motihari,"Gandak Colony, Motihari - BSPCB",16-02-2024 21:00:00,26.63086,84.90051,PM2.5,52,253,106
India,Bihar,Motihari,"Gandak Colony, Motihari - BSPCB",16-02-2024 21:00:00,26.63086,84.90051,NO2,38,75,57
India,Bihar,Munger,"Town Hall, Munger - BSPCB",16-02-2024 21:00:00,25.376776,86.471523,OZONE,9,13,11
India,Bihar,Muzaffarpur,"Buddha Colony, Muzaffarpur - BSPCB",16-02-2024 21:00:00,26.11442,85.39813,CO,36,73,53
India,Bihar,Muzaffarpur,"MIT-Daudpur Kothi, Muzaffarpur - BSPCB",16-02-2024 21:00:00,26.1403345,85.3650192,PM2.5,20,247,82
India,Bihar,Muzaffarpur,"MIT-Daudpur Kothi, Muzaffarpur - BSPCB",16-02-2024 21:00:00,26.1403345,85.3650192,NO2,6,9,7
India,Bihar,Muzaffarpur,"MIT-Daudpur Kothi, Muzaffarpur - BSPCB",16-02-2024 21:00:00,26.1403345,85.3650192,OZONE,6,54,31
India,Bihar,Muzaffarpur,"Muzaffarpur Collectorate, Muzaffarpur - BSPCB",16-02-2024 21:00:00,26.1209,85.3647,SO2,5,9,7
India,Bihar,Muzaffarpur,"Muzaffarpur Collectorate, Muzaffarpur - BSPCB",16-02-2024 21:00:00,26.1209,85.3647,OZONE,16,75,54
India,Bihar,Patna,"DRM Office Danapur, Patna - BSPCB",16-02-2024 21:00:00,25.586562,85.043586,SO2,7,9,8
India,Bihar,Patna,"Govt. High School Shikarpur, Patna - BSPCB",16-02-2024 21:00:00,25.592539,85.227158,PM2.5,55,140,97
India,Bihar,Patna,"Rajbansi Nagar, Patna - BSPCB",16-02-2024 21:00:00,25.599486,85.113666,NO2,27,51,36
India,Bihar,Patna,"Rajbansi Nagar, Patna - BSPCB",16-02-2024 21:00:00,25.599486,85.113666,NH3,2,3,3
India,Bihar,Patna,"Rajbansi Nagar, Patna - BSPCB",16-02-2024 21:00:00,25.599486,85.113666,OZONE,1,47,24
India,Bihar,Patna,"Samanpura, Patna - BSPCB",16-02-2024 21:00:00,25.596727,85.085624,PM2.5,78,452,179
India,Bihar,Purnia,"Mariam Nagar, Purnia - BSPCB",16-02-2024 21:00:00,25.366336,87.117468,PM2.5,52,303,125
India,Bihar,Purnia,"Mariam Nagar, Purnia - BSPCB",16-02-2024 21:00:00,25.366336,87.117468,OZONE,10,33,18
India,Bihar,Rajgir,"Dangi Tola, Rajgir - BSPCB",16-02-2024 21:00:00,25.03280,85.41948,NO2,1,1,1
India,Bihar,Rajgir,"Dangi Tola, Rajgir - BSPCB",16-02-2024 21:00:00,25.03280,85.41948,OZONE,18,29,24
India,Bihar,Saharsa,"Police Line, Saharsa - BSPCB",16-02-2024 21:00:00,25.892357,86.590325,OZONE,13,56,38
India,Bihar,Samastipur,"DM Office_Kasipur, Samastipur - BSPCB",16-02-2024 21:00:00,25.859655,85.77944,CO,2,32,11
India,Bihar,Sasaram,"Dada Peer, Sasaram - BSPCB",16-02-2024 21:00:00,24.952822,84.002396,NH3,8,14,11
India,Bihar,Siwan,"Chitragupta Nagar, Siwan - BSPCB",16-02-2024 21:00:00,26.2271665,84.3570427,NH3,1,8,3
India,Bihar,Siwan,"Chitragupta Nagar, Siwan - BSPCB",16-02-2024 21:00:00,26.2271665,84.3570427,CO,56,150,127
India,Chandigarh,Chandigarh,"Sector 22, Chandigarh - CPCC",16-02-2024 21:00:00,30.735567,76.775714,PM2.5,97,326,251
India,Chandigarh,Chandigarh,"Sector 22, Chandigarh - CPCC",16-02-2024 21:00:00,30.735567,76.775714,NH3,5,8,7
India,Chandigarh,Chandigarh,"Sector 22, Chandigarh - CPCC",16-02-2024 21:00:00,30.735567,76.775714,SO2,5,33,11
India,Chandigarh,Chandigarh,"Sector-25, Chandigarh - CPCC",16-02-2024 21:00:00,30.751462,76.762879,NH3,19,50,29
India,Chandigarh,Chandigarh,"Sector-53, Chandigarh - CPCC",16-02-2024 21:00:00,30.719859,76.738637,NH3,6,9,7
India,Chandigarh,Chandigarh,"Sector-53, Chandigarh - CPCC",16-02-2024 21:00:00,30.719859,76.738637,OZONE,4,78,53
India,Chhattisgarh,Bhilai,"32Bungalows, Bhilai - CECB",16-02-2024 21:00:00,21.194815,81.314770,PM10,50,91,72
India,Chhattisgarh,Bhilai,"32Bungalows, Bhilai - CECB",16-02-2024 21:00:00,21.194815,81.314770,OZONE,4,10,8
India,Chhattisgarh,Bhilai,"Civic Center, Bhilai - Bhilai Steel Plant",16-02-2024 21:00:00,21.185571,81.343175,NH3,NA,NA,NA
India,Chhattisgarh,Bhilai,"Civic Center, Bhilai - Bhilai Steel Plant",16-02-2024 21:00:00,21.185571,81.343175,CO,24,42,35
India,Chhattisgarh,Bhilai,"Hathkhoj, Bhilai - CECB",16-02-2024 21:00:00,21.224231,81.408350,SO2,14,41,22
India,Chhattisgarh,Bilaspur,"Mangala, Bilaspur - NTPC",16-02-2024 21:00:00,22.08815,82.13737,PM10,37,82,59
India,Chhattisgarh,Chhal,"Nawapara SECL Colony, Chhal - CECB",16-02-2024 21:00:00,22.118125,83.140608,NO2,12,36,21
India,Chhattisgarh,Chhal,"Nawapara SECL Colony, Chhal - CECB",16-02-2024 21:00:00,22.118125,83.140608,CO,38,76,47
India,Chhattisgarh,Korba,"Rampur, Korba - CECB",16-02-2024 21:00:00,22.368195,82.746431,CO,17,37,25
India,Chhattisgarh,Korba,"Urja Nagar, Korba - CECB",16-02-2024 21:00:00,22.348441,82.549611,PM2.5,33,76,54
India,Chhattisgarh,Milupara,"Govt. Higher Secondary School, Milupara - CECB",16-02-2024 21:00:00,22.1910172,83.5197009,NH3,NA,NA,NA
India,Chhattisgarh,Raipur,"Bhatagaon New ISBT, Raipur - CECB",16-02-2024 21:00:00,21.219665,81.630094,PM10,52,110,72
India,Chhattisgarh,Tumidih,"OP Jindal Industrial Park, Tumidih - CECB",16-02-2024 21:00:00,22.06631475,83.33820077,NH3,NA,NA,NA
India,Chhattisgarh,Tumidih,"OP Jindal Industrial Park, Tumidih - CECB",16-02-2024 21:00:00,22.06631475,83.33820077,OZONE,23,75,51
India,Delhi,Delhi,"Alipur, Delhi - DPCC",16-02-2024 21:00:00,28.815329,77.153010,NH3,6,13,10
India,Delhi,Delhi,"Alipur, Delhi - DPCC",16-02-2024 21:00:00,28.815329,77.153010,SO2,5,19,9
India,Delhi,Delhi,"Anand Vihar, Delhi - DPCC",16-02-2024 21:00:00,28.647622,77.3158090,PM10,124,442,286
India,Delhi,Delhi,"Anand Vihar, Delhi - DPCC",16-02-2024 21:00:00,28.647622,77.3158090,NO2,85,235,148
India,Delhi,Delhi,"Anand Vihar, Delhi - DPCC",16-02-2024 21:00:00,28.647622,77.3158090,NH3,4,24,10
India,Delhi,Delhi,"Ashok Vihar, Delhi - DPCC",16-02-2024 21:00:00,28.695381,77.181665,PM10,98,400,212
India,Delhi,Delhi,"Ashok Vihar, Delhi - DPCC",16-02-2024 21:00:00,28.695381,77.181665,SO2,26,56,32
India,Delhi,Delhi,"Aya Nagar, Delhi - IMD",16-02-2024 21:00:00,28.4706914,77.1099364,PM10,NA,NA,NA
India,Delhi,Delhi,"Bawana, Delhi - DPCC",16-02-2024 21:00:00,28.776200,77.051074,NO2,14,109,54
India,Delhi,Delhi,"Bawana, Delhi - DPCC",16-02-2024 21:00:00,28.776200,77.051074,OZONE,3,128,81
India,Delhi,Delhi,"DTU, Delhi - CPCB",16-02-2024 21:00:00,28.7500499,77.1112615,PM2.5,34,312,140
India,Delhi,Delhi,"DTU, Delhi - CPCB",16-02-2024 21:00:00,28.7500499,77.1112615,PM10,98,454,236
India,Delhi,Delhi,"Dr. Karni Singh Shooting Range, Delhi - DPCC",16-02-2024 21:00:00,28.498571,77.264840,CO,24,119,58
India,Delhi,Delhi,"Dwarka-Sector 8, Delhi - DPCC ",16-02-2024 21:00:00,28.5710274,77.0719006,NO2,6,17,11
India,Delhi,Delhi,"IGI Airport (T3), Delhi - IMD",16-02-2024 21:00:00,28.5627763,77.1180053,PM2.5,61,359,243
India,Delhi,Delhi,"IGI Airport (T3), Delhi - IMD",16-02-2024 21:00:00,28.5627763,77.1180053,PM10,97,418,216
India,Delhi,Delhi,"IGI Airport (T3), Delhi - IMD",16-02-2024 21:00:00,28.5627763,77.1180053,OZONE,11,72,43
India,Delhi,Delhi,"IHBAS, Dilshad Garden, Delhi - CPCB",16-02-2024 21:00:00,28.6811736,77.3025234,SO2,2,66,22
India,Delhi,Delhi,"ITO, Delhi - CPCB",16-02-2024 21:00:00,28.628624,77.241060,NH3,1,12,3
India,Delhi,Delhi,"Jahangirpuri, Delhi - DPCC",16-02-2024 21:00:00,28.732820,77.170633,PM10,118,488,285
India,Delhi,Delhi,"Jawaharlal Nehru Stadium, Delhi - DPCC",16-02-2024 21:00:00,28.580280,77.233829,PM10,79,242,173
India,Delhi,Delhi,"Jawaharlal Nehru Stadium, Delhi - DPCC",16-02-2024 21:00:00,28.580280,77.233829,NH3,5,14,10
India,Delhi,Delhi,"Jawaharlal Nehru Stadium, Delhi - DPCC",16-02-2024 21:00:00,28.580280,77.233829,SO2,16,44,25
India,Delhi,Delhi,"Lodhi Road, Delhi - IMD",16-02-2024 21:00:00,28.5918245,77.2273074,PM2.5,60,376,204
India,Delhi,Delhi,"Major Dhyan Chand National Stadium, Delhi - DPCC",16-02-2024 21:00:00,28.611281,77.237738,NO2,39,182,102
India,Delhi,Delhi,"Mundka, Delhi - DPCC",16-02-2024 21:00:00,28.684678,77.076574,NH3,7,10,9
India,Delhi,Delhi,"Mundka, Delhi - DPCC",16-02-2024 21:00:00,28.684678,77.076574,SO2,3,62,11
India,Delhi,Delhi,"NSIT Dwarka, Delhi - CPCB",16-02-2024 21:00:00,28.60909,77.0325413,NO2,44,79,53
India,Delhi,Delhi,"NSIT Dwarka, Delhi - CPCB",16-02-2024 21:00:00,28.60909,77.0325413,NH3,8,12,10
India,Delhi,Delhi,"NSIT Dwarka, Delhi - CPCB",16-02-2024 21:00:00,28.60909,77.0325413,OZONE,17,147,83
India,Delhi,Delhi,"Najafgarh, Delhi - DPCC",16-02-2024 21:00:00,28.570173,76.933762,PM2.5,NA,NA,NA
India,Delhi,Delhi,"Narela, Delhi - DPCC",16-02-2024 21:00:00,28.822836,77.101981,NH3,6,12,8
India,Delhi,Delhi,"Narela, Delhi - DPCC",16-02-2024 21:00:00,28.822836,77.101981,OZONE,2,205,150
India,Delhi,Delhi,"Nehru Nagar, Delhi - DPCC",16-02-2024 21:00:00,28.567890,77.250515,SO2,1,33,12
India,Delhi,Delhi,"Nehru Nagar, Delhi - DPCC",16-02-2024 21:00:00,28.567890,77.250515,CO,22,148,101
India,Delhi,Delhi,"Nehru Nagar, Delhi - DPCC",16-02-2024 21:00:00,28.567890,77.250515,OZONE,1,265,120
India,Delhi,Delhi,"New Moti Bagh, Delhi - MHUA",16-02-2024 21:00:00,28.57834,77.18400,PM2.5,68,361,269
India,Delhi,Delhi,"North Campus, DU, Delhi - IMD",16-02-2024 21:00:00,28.6573814,77.1585447,CO,8,40,12
India,Delhi,Delhi,"Okhla Phase-2, Delhi - DPCC",16-02-2024 21:00:00,28.530785,77.271255,PM2.5,58,336,253
India,Delhi,Delhi,"Okhla Phase-2, Delhi - DPCC",16-02-2024 21:00:00,28.530785,77.271255,SO2,3,11,7
India,Delhi,Delhi,"Okhla Phase-2, Delhi - DPCC",16-02-2024 21:00:00,28.530785,77.271255,OZONE,10,155,83
India,Delhi,Delhi,"Patparganj, Delhi - DPCC",16-02-2024 21:00:00,28.623763,77.287209,OZONE,1,117,59
India,Delhi,Delhi,"Pusa, Delhi - DPCC",16-02-2024 21:00:00,28.639652,77.146275,PM2.5,73,338,280
India,Delhi,Delhi,"R K Puram, Delhi - DPCC",16-02-2024 21:00:00,28.563262,77.186937,CO,20,146,58
India,Delhi,Delhi,"Shadipur, Delhi - CPCB",16-02-2024 21:00:00,28.6514781,77.1473105,PM2.5,115,338,280
India,Delhi,Delhi,"Shadipur, Delhi - CPCB",16-02-2024 21:00:00,28.6514781,77.1473105,NH3,4,16,13
India,Delhi,Delhi,"Sirifort, Delhi - CPCB",16-02-2024 21:00:00,28.5504249,77.2159377,NH3,10,12,11
India,Delhi,Delhi,"Sirifort, Delhi - CPCB",16-02-2024 21:00:00,28.5504249,77.2159377,SO2,33,41,38
India,Delhi,Delhi,"Sonia Vihar, Delhi - DPCC",16-02-2024 21:00:00,28.710508,77.249485,SO2,6,23,12
India,Delhi,Delhi,"Sri Aurobindo Marg, Delhi - DPCC",16-02-2024 21:00:00,28.531346,77.190156,PM2.5,45,334,234
India,Delhi,Delhi,"Sri Aurobindo Marg, Delhi - DPCC",16-02-2024 21:00:00,28.531346,77.190156,OZONE,1,50,28
India,Delhi,Delhi,"Vivek Vihar, Delhi - DPCC",16-02-2024 21:00:00,28.672342,77.315260,NO2,44,124,71
India,Delhi,Delhi,"Vivek Vihar, Delhi - DPCC",16-02-2024 21:00:00,28.672342,77.315260,CO,8,127,15
India,Delhi,Delhi,"Wazirpur, Delhi - DPCC",16-02-2024 21:00:00,28.699793,77.165453,NO2,63,262,153
India,Gujarat,Ahmedabad,"Chandkheda, Ahmedabad - IITM",16-02-2024 21:00:00,23.107969,72.574648,PM2.5,4,37,20
India,Gujarat,Ahmedabad,"Chandkheda, Ahmedabad - IITM",16-02-2024 21:00:00,23.107969,72.574648,SO2,8,26,12
India,Gujarat,Ahmedabad,"SAC ISRO Satellite, Ahmedabad - IITM",16-02-2024 21:00:00,23.023389,72.515201,OZONE,2,15,8
India,Gujarat,Ahmedabad,"Sardar Vallabhbhai Patel Stadium, Ahmedabad - IITM",16-02-2024 21:00:00,23.043070,72.562968,PM2.5,83,184,121
India,Gujarat,Ahmedabad,"Sardar Vallabhbhai Patel Stadium, Ahmedabad - IITM",16-02-2024 21:00:00,23.043070,72.562968,NH3,1,2,1
India,Gujarat,Ankleshwar,"GIDC, Ankleshwar - GPCB",16-02-2024 21:00:00,21.613267,73.010555,NH3,6,7,6
India,Gujarat,Gandhinagar,"GIFT City, Gandhinagar - IITM",16-02-2024 21:00:00,23.163798,72.677768,OZONE,1,7,6
India,Gujarat,Gandhinagar,"IIPHG Lekawada, Gandhinagar - IITM",16-02-2024 21:00:00,23.243639,72.68994,PM10,77,130,106
India,Gujarat,Gandhinagar,"IIPHG Lekawada, Gandhinagar - IITM",16-02-2024 21:00:00,23.243639,72.68994,NH3,3,3,3
India,Gujarat,Gandhinagar,"Sector-10, Gandhinagar - GPCB",16-02-2024 21:00:00,23.221714,72.654328,PM10,74,120,98
India,Gujarat,Vapi,"Phase-1 GIDC, Vapi - GPCB",16-02-2024 21:00:00,20.362421,72.918013,PM10,81,330,186
India,Gujarat,Vatva,"Phase-4 GIDC, Vatva - GPCB",16-02-2024 21:00:00,22.969611,72.643500,PM2.5,35,124,77
India,Haryana,Ambala,"Patti Mehar, Ambala - HSPCB",16-02-2024 21:00:00,30.379589,76.778328,PM10,NA,NA,NA
India,Haryana,Bhiwani,"H.B. Colony, Bhiwani - HSPCB",16-02-2024 21:00:00,28.806223,76.141105,NH3,6,6,6
India,Haryana,Bhiwani,"H.B. Colony, Bhiwani - HSPCB",16-02-2024 21:00:00,28.806223,76.141105,SO2,8,14,11
India,Haryana,Charkhi Dadri,"Mini Secretariat, Charkhi Dadri - HSPCB",16-02-2024 21:00:00,28.593883,76.270653,PM10,71,287,151
India,Haryana,Charkhi Dadri,"Mini Secretariat, Charkhi Dadri - HSPCB",16-02-2024 21:00:00,28.593883,76.270653,SO2,16,24,20
India,Haryana,Dharuhera,"Municipal Corporation Office, Dharuhera -  HSPCB",16-02-2024 21:00:00,28.206800,76.799700,NO2,44,111,71
India,Haryana,Dharuhera,"Municipal Corporation Office, Dharuhera -  HSPCB",16-02-2024 21:00:00,28.206800,76.799700,CO,10,100,29
India,Haryana,Dharuhera,"Municipal Corporation Office, Dharuhera -  HSPCB",16-02-2024 21:00:00,28.206800,76.799700,OZONE,2,69,41
India,Haryana,Faridabad,"New Industrial Town, Faridabad - HSPCB",16-02-2024 21:00:00,28.39072,77.30059,PM10,117,246,194
India,Haryana,Faridabad,"New Industrial Town, Faridabad - HSPCB",16-02-2024 21:00:00,28.39072,77.30059,SO2,16,25,21
India,Haryana,Faridabad,"Sector 11, Faridabad - HSPCB",16-02-2024 21:00:00,28.376058,77.315741,SO2,NA,NA,NA
India,Haryana,Faridabad,"Sector 30, Faridabad - HSPCB",16-02-2024 21:00:00,28.4417,77.3217,NH3,9,9,9
India,Haryana,Faridabad,"Sector- 16A, Faridabad - HSPCB",16-02-2024 21:00:00,28.4088421,77.3099081,OZONE,14,14,14
India,Haryana,Fatehabad,"Huda Sector, Fatehabad - HSPCB",16-02-2024 21:00:00,29.503664,75.467934,PM2.5,71,274,163
India,Haryana,Gurugram,"Sector-51, Gurugram - HSPCB",16-02-2024 21:00:00,28.4227,77.0667,NH3,7,14,9
India,Haryana,Gurugram,"Teri Gram, Gurugram - HSPCB",16-02-2024 21:00:00,28.4275,77.1465,NH3,23,32,27
India,Haryana,Gurugram,"Teri Gram, Gurugram - HSPCB",16-02-2024 21:00:00,28.4275,77.1465,CO,22,46,27
India,Haryana,Gurugram,"Vikas Sadan, Gurugram - HSPCB",16-02-2024 21:00:00,28.4501238,77.0263051,PM2.5,73,232,134
India,Haryana,Gurugram,"Vikas Sadan, Gurugram - HSPCB",16-02-2024 21:00:00,28.4501238,77.0263051,OZONE,8,68,48
India,Haryana,Jind,"Police Lines, Jind - HSPCB",16-02-2024 21:00:00,29.307814,76.337619,PM10,76,138,115
India,Haryana,Kaithal,"Rishi Nagar, Kaithal - HSPCB",16-02-2024 21:00:00,29.8006,76.4155,NO2,24,26,25
India,Haryana,Kaithal,"Rishi Nagar, Kaithal - HSPCB",16-02-2024 21:00:00,29.8006,76.4155,OZONE,6,15,12
India,Haryana,Karnal,"Sector-12, Karnal - HSPCB",16-02-2024 21:00:00,29.695300,77.002700,PM2.5,45,140,82
India,Haryana,Karnal,"Sector-12, Karnal - HSPCB",16-02-2024 21:00:00,29.695300,77.002700,SO2,12,13,12
India,Haryana,Karnal,"Sector-12, Karnal - HSPCB",16-02-2024 21:00:00,29.695300,77.002700,CO,34,56,44
India,Haryana,Kurukshetra,"Sector-7, Kurukshetra - HSPCB",16-02-2024 21:00:00,29.966942,76.875879,PM10,91,150,123
India,Haryana,Kurukshetra,"Sector-7, Kurukshetra - HSPCB",16-02-2024 21:00:00,29.966942,76.875879,OZONE,26,88,71
India,Haryana,Mandikhera,"General Hospital, Mandikhera - HSPCB",16-02-2024 21:00:00,27.9002,76.9938,NO2,17,20,19
India,Haryana,Mandikhera,"General Hospital, Mandikhera - HSPCB",16-02-2024 21:00:00,27.9002,76.9938,NH3,18,21,19
India,Haryana,Mandikhera,"General Hospital, Mandikhera - HSPCB",16-02-2024 21:00:00,27.9002,76.9938,CO,22,162,29
India,Haryana,Narnaul,"Shastri Nagar, Narnaul - HSPCB",16-02-2024 21:00:00,28.060249,76.113115,OZONE,12,79,61
India,Haryana,Palwal,"Shyam Nagar, Palwal - HSPCB",16-02-2024 21:00:00,28.1485564,77.3320667,SO2,10,24,18
India,Haryana,Panchkula,"Sector-6, Panchkula - HSPCB ",16-02-2024 21:00:00,30.7057778,76.8531805555555,NO2,NA,NA,NA
India,Haryana,Panchkula,"Sector-6, Panchkula - HSPCB ",16-02-2024 21:00:00,30.7057778,76.8531805555555,SO2,NA,NA,NA
India,Haryana,Rohtak,"MD University, Rohtak - HSPCB",16-02-2024 21:00:00,28.52123,76.37138,PM2.5,12,284,122
India,Haryana,Sirsa,"F-Block, Sirsa - HSPCB",16-02-2024 21:00:00,29.536400,75.015800,NH3,12,13,13
India,Haryana,Sonipat,"Murthal, Sonipat - HSPCB",16-02-2024 21:00:00,29.027200,77.062100,NH3,7,10,9
India,Haryana,Yamuna Nagar,"Gobind Pura, Yamuna Nagar - HSPCB",16-02-2024 21:00:00,30.1480566,77.2893471,PM2.5,114,404,242
India,Haryana,Yamuna Nagar,"Gobind Pura, Yamuna Nagar - HSPCB",16-02-2024 21:00:00,30.1480566,77.2893471,PM10,82,320,137
India,Haryana,Yamuna Nagar,"Gobind Pura, Yamuna Nagar - HSPCB",16-02-2024 21:00:00,30.1480566,77.2893471,CO,4,57,40
India,Jharkhand,Dhanbad,"Sardar Patel Nagar, Dhanbad - JSPCB",16-02-2024 21:00:00,23.80569,86.44268,PM2.5,NA,NA,NA
India,Jharkhand,Dhanbad,"Sardar Patel Nagar, Dhanbad - JSPCB",16-02-2024 21:00:00,23.80569,86.44268,OZONE,8,45,19
India,Karnataka,Bagalkot,"Vidayagiri, Bagalkot - KSPCB",16-02-2024 21:00:00,16.172806,75.659694,OZONE,23,34,28
India,Karnataka,Belgaum,"Ramteerth Nagar, Belgaum - KSPCB",16-02-2024 21:00:00,15.888653,74.541751,NH3,33,34,34
India,Karnataka,Belgaum,"Ramteerth Nagar, Belgaum - KSPCB",16-02-2024 21:00:00,15.888653,74.541751,CO,24,52,48
India,Karnataka,Bengaluru,"BTM Layout, Bengaluru - CPCB",16-02-2024 21:00:00,12.9135218,77.5950804,PM10,45,74,58
India,Karnataka,Bengaluru,"City Railway Station, Bengaluru - KSPCB",16-02-2024 21:00:00,12.9756843,77.5660749,NO2,23,32,28
India,Karnataka,Bengaluru,"Hebbal, Bengaluru - KSPCB",16-02-2024 21:00:00,13.029152,77.585901,NO2,NA,NA,NA
India,Karnataka,Bengaluru,"Hombegowda Nagar, Bengaluru - KSPCB",16-02-2024 21:00:00,12.938539,77.590100,PM10,54,95,71
India,Karnataka,Bengaluru,"Jayanagar 5th Block, Bengaluru - KSPCB",16-02-2024 21:00:00,12.920984,77.584908,SO2,19,26,23
India,Karnataka,Bengaluru,"Jayanagar 5th Block, Bengaluru - KSPCB",16-02-2024 21:00:00,12.920984,77.584908,CO,5,37,18
India,Karnataka,Bengaluru,"Peenya, Bengaluru - CPCB",16-02-2024 21:00:00,13.0270199,77.494094,NO2,19,25,22
India,Karnataka,Bengaluru,"Peenya, Bengaluru - CPCB",16-02-2024 21:00:00,13.0270199,77.494094,CO,26,39,30
India,Karnataka,Bengaluru,"Sanegurava Halli, Bengaluru - KSPCB",16-02-2024 21:00:00,12.990328,77.5431385,SO2,2,3,3
India,Karnataka,Bengaluru,"Shivapura_Peenya, Bengaluru - KSPCB",16-02-2024 21:00:00,13.0246342,77.5080115,PM10,63,86,73
India,Karnataka,Bengaluru,"Shivapura_Peenya, Bengaluru - KSPCB",16-02-2024 21:00:00,13.0246342,77.5080115,NH3,4,4,4
India,Karnataka,Bengaluru,"Shivapura_Peenya, Bengaluru - KSPCB",16-02-2024 21:00:00,13.0246342,77.5080115,SO2,5,25,13
India,Karnataka,Bengaluru,"Silk Board, Bengaluru - KSPCB",16-02-2024 21:00:00,12.917348,77.622813,SO2,9,15,11
India,Karnataka,Bidar,"Naubad, Bidar - KSPCB",16-02-2024 21:00:00,17.930306,77.482194,PM2.5,21,67,42
India,Karnataka,Bidar,"Naubad, Bidar - KSPCB",16-02-2024 21:00:00,17.930306,77.482194,PM10,58,100,77
India,Karnataka,Chamarajanagar,"Urban, Chamarajanagar - KSPCB",16-02-2024 21:00:00,11.55358,76.55521,CO,22,32,26
India,Karnataka,Chikkaballapur,"Chikkaballapur Rural, Chikkaballapur - KSPCB",16-02-2024 21:00:00,13.428828,77.731418,CO,NA,NA,NA
India,Karnataka,Chikkaballapur,"Chikkaballapur Rural, Chikkaballapur - KSPCB",16-02-2024 21:00:00,13.428828,77.731418,OZONE,24,25,25
India,Karnataka,Chikkamagaluru,"Kalyana Nagara, Chikkamagaluru - KSPCB",16-02-2024 21:00:00,13.328028,75.797056,OZONE,19,65,47
