country,state,city,station,last_update,latitude,longitude,pollutant_id,pollutant_min,pollutant_max,pollutant_avg
India,Andhra_Pradesh,Amaravati,"Secretariat, Amaravati - APPCB",17-02-2024 00:00:00,16.5150833,80.5181667,SO2,12,17,15
India,Andhra_Pradesh,Amaravati,"Secretariat, Amaravati - APPCB",17-02-2024 00:00:00,16.5150833,80.5181667,CO,18,78,36
India,Andhra_Pradesh,Amaravati,"Secretariat, Amaravati - APPCB",17-02-2024 00:00:00,16.5150833,80.5181667,OZONE,1,57,30
India,Andhra_Pradesh,Anantapur,"Gulzarpet, Anantapur - APPCB",17-02-2024 00:00:00,14.675886,77.593027,PM10,31,64,47
India,Andhra_Pradesh,Rajamahendravaram,"Anand Kala Kshetram, Rajamahendravaram - APPCB",17-02-2024 00:00:00,16.9872867,81.7363176,PM10,52,122,91
India,Andhra_Pradesh,Rajamahendravaram,"Anand Kala Kshetram, Rajamahendravaram - APPCB",17-02-2024 00:00:00,16.9872867,81.7363176,SO2,11,16,12
India,Andhra_Pradesh,Tirupati,"Tirumala, Tirupati - APPCB",17-02-2024 00:00:00,13.67,79.35,PM10,42,82,56
India,Andhra_Pradesh,Tirupati,"Vaikuntapuram, Tirupati - APPCB",17-02-2024 00:00:00,13.615387,79.409230,PM10,21,63,38
India,Andhra_Pradesh,Vijayawada,"HB Colony, Vijayawada - APPCB",17-02-2024 00:00:00,16.536107,80.594233,PM10,28,249,89
India,Andhra_Pradesh,Vijayawada,"HB Colony, Vijayawada - APPCB",17-02-2024 00:00:00,16.536107,80.594233,SO2,4,8,6
India,Andhra_Pradesh,Vijayawada,"Kanuru, Vijayawada - APPCB",17-02-2024 00:00:00,16.486692,80.699436,PM10,49,107,80
India,Andhra_Pradesh,Vijayawada,"Kanuru, Vijayawada - APPCB",17-02-2024 00:00:00,16.486692,80.699436,OZONE,25,25,25
India,Andhra_Pradesh,Vijayawada,"Rajiv Gandhi Park, Vijayawada - APPCB",17-02-2024 00:00:00,16.509717,80.612222,PM2.5,43,88,66
India,Andhra_Pradesh,Vijayawada,"Rajiv Gandhi Park, Vijayawada - APPCB",17-02-2024 00:00:00,16.509717,80.612222,PM10,42,88,66
India,Andhra_Pradesh,Vijayawada,"Rajiv Gandhi Park, Vijayawada - APPCB",17-02-2024 00:00:00,16.509717,80.612222,SO2,1,3,1
India,Andhra_Pradesh,Vijayawada,"Rajiv Gandhi Park, Vijayawada - APPCB",17-02-2024 00:00:00,16.509717,80.612222,CO,31,36,32
India,Andhra_Pradesh,Vijayawada,"Rajiv Nagar, Vijayawada - APPCB",17-02-2024 00:00:00,16.554731,80.649110,PM10,26,120,80
India,Andhra_Pradesh,Visakhapatnam,"GVM Corporation, Visakhapatnam - APPCB",17-02-2024 00:00:00,17.72,83.3,PM10,58,402,133
India,Andhra_Pradesh,Visakhapatnam,"GVM Corporation, Visakhapatnam - APPCB",17-02-2024 00:00:00,17.72,83.3,NH3,3,5,4
India,Andhra_Pradesh,Visakhapatnam,"GVM Corporation, Visakhapatnam - APPCB",17-02-2024 00:00:00,17.72,83.3,CO,12,60,25
India,Arunachal_Pradesh,Naharlagun,"Naharlagun, Naharlagun - APSPCB",17-02-2024 00:00:00,27.103358,93.679645,CO,10,44,28
India,Assam,Byrnihat,"Central Academy for SFS, Byrnihat - PCBA",17-02-2024 00:00:00,26.071318,91.87488,PM2.5,73,381,261
India,Assam,Byrnihat,"Central Academy for SFS, Byrnihat - PCBA",17-02-2024 00:00:00,26.071318,91.87488,NO2,56,154,90
India,Assam,Guwahati,"IITG, Guwahati - PCBA",17-02-2024 00:00:00,26.2028636,91.70046436,PM2.5,77,320,126
India,Assam,Guwahati,"LGBI Airport, Guwahati - PCBA",17-02-2024 00:00:00,26.10887,91.589544,NO2,8,65,26
India,Assam,Guwahati,"Pan Bazaar, Guwahati - PCBA",17-02-2024 00:00:00,26.187500,91.744194,OZONE,17,18,18
India,Assam,Guwahati,"Railway Colony, Guwahati - PCBA",17-02-2024 00:00:00,26.181742,91.78063,SO2,NA,NA,NA
India,Assam,Guwahati,"Railway Colony, Guwahati - PCBA",17-02-2024 00:00:00,26.181742,91.78063,CO,18,108,78
India,Assam,Nagaon,"Christianpatty, Nagaon - PCBA",17-02-2024 00:00:00,26.349082,92.68449,PM10,68,430,159
India,Assam,Nalbari,"Bata Chowk, Nalbari - PCBA",17-02-2024 00:00:00,26.446912,91.439057,PM10,57,470,147
India,Assam,Nalbari,"Bata Chowk, Nalbari - PCBA",17-02-2024 00:00:00,26.446912,91.439057,CO,71,126,104
India,Assam,Silchar,"Tarapur, Silchar - PCBA",17-02-2024 00:00:00,24.82827,92.79525,NO2,23,49,34
India,Assam,Silchar,"Tarapur, Silchar - PCBA",17-02-2024 00:00:00,24.82827,92.79525,NH3,1,1,1
India,Bihar,Araria,"Kharahiya Basti, Araria - BSPCB",17-02-2024 00:00:00,26.146529,87.454184,PM10,116,338,177
India,Bihar,Arrah,"New DM Office, Arrah - BSPCB",17-02-2024 00:00:00,25.5626095,84.663264,NO2,10,55,27
India,Bihar,Arrah,"New DM Office, Arrah - BSPCB",17-02-2024 00:00:00,25.5626095,84.663264,NH3,6,9,7
India,Bihar,Aurangabad,"Gurdeo Nagar, Aurangabad - BSPCB",17-02-2024 00:00:00,24.75746,84.366208,SO2,3,15,8
India,Bihar,Aurangabad,"Gurdeo Nagar, Aurangabad - BSPCB",17-02-2024 00:00:00,24.75746,84.366208,OZONE,1,30,8
India,Bihar,Bettiah,"Kamalnath Nagar, Bettiah - BSPCB",17-02-2024 00:00:00,26.80365,84.51954,SO2,7,15,12
India,Bihar,Bhagalpur,"DM Office_Kachari Chowk, Bhagalpur - BSPCB",17-02-2024 00:00:00,25.251013,86.989001,PM10,81,199,142
India,Bihar,Bhagalpur,"DM Office_Kachari Chowk, Bhagalpur - BSPCB",17-02-2024 00:00:00,25.251013,86.989001,SO2,9,19,14
India,Bihar,Bhagalpur,"DM Office_Kachari Chowk, Bhagalpur - BSPCB",17-02-2024 00:00:00,25.251013,86.989001,OZONE,22,36,26
India,Bihar,Bhagalpur,"Mayaganj, Bhagalpur - BSPCB",17-02-2024 00:00:00,25.265194,87.012947,NH3,8,9,8
India,Bihar,Bihar Sharif,"D M Colony, Bihar Sharif - BSPCB",17-02-2024 00:00:00,25.204762,85.514960,NO2,8,10,9
India,Bihar,Bihar Sharif,"D M Colony, Bihar Sharif - BSPCB",17-02-2024 00:00:00,25.204762,85.514960,OZONE,7,24,13
India,Bihar,Buxar,"Charitra Van, Buxar - BSPCB (Formerly known as Central Jail)",17-02-2024 00:00:00,25.567520,83.966379,CO,38,128,110
India,Bihar,Chhapra,"Darshan Nagar, Chhapra - BSPCB",17-02-2024 00:00:00,25.7808257,84.7446768,PM2.5,63,328,164
India,Bihar,Chhapra,"Darshan Nagar, Chhapra - BSPCB",17-02-2024 00:00:00,25.7808257,84.7446768,OZONE,2,20,10
India,Bihar,Gaya,"Collectorate, Gaya - BSPCB",17-02-2024 00:00:00,24.7955,84.9994,SO2,2,22,9
India,Bihar,Gaya,"Kareemganj, Gaya - BSPCB",17-02-2024 00:00:00,24.792403,84.992416,NO2,25,31,30
India,Bihar,Gaya,"SFTI Kusdihra, Gaya - BSPCB",17-02-2024 00:00:00,24.762518,84.982348,OZONE,3,43,15
India,Bihar,Hajipur,"Industrial Area, Hajipur - BSPCB",17-02-2024 00:00:00,25.697189,85.245900,PM10,77,448,197
India,Bihar,Hajipur,"Industrial Area, Hajipur - BSPCB",17-02-2024 00:00:00,25.697189,85.245900,OZONE,1,4,2
India,Bihar,Katihar,"Mirchaibari, Katihar - BSPCB",17-02-2024 00:00:00,25.560083,87.553265,SO2,19,24,21
India,Bihar,Kishanganj,"SDM Office_Khagra, Kishanganj - BSPCB",17-02-2024 00:00:00,26.0881305,87.93840336,SO2,19,28,24
India,Bihar,Kishanganj,"SDM Office_Khagra, Kishanganj - BSPCB",17-02-2024 00:00:00,26.0881305,87.93840336,OZONE,17,28,17
India,Bihar,Manguraha,"Forest Rest House, Manguraha - BSPCB",17-02-2024 00:00:00,27.308328,84.531742,NO2,11,19,15
India,Bihar,Manguraha,"Forest Rest House, Manguraha - BSPCB",17-02-2024 00:00:00,27.308328,84.531742,NH3,2,3,2
India,Bihar,Manguraha,"Forest Rest House, Manguraha - BSPCB",17-02-2024 00:00:00,27.308328,84.531742,OZONE,38,79,61
India,Bihar,Motihari,"Gandak Colony, Motihari - BSPCB",17-02-2024 00:00:00,26.63086,84.90051,CO,42,76,61
India,Bihar,Motihari,"Gandak Colony, Motihari - BSPCB",17-02-2024 00:00:00,26.63086,84.90051,OZONE,23,82,35
India,Bihar,Muzaffarpur,"Buddha Colony, Muzaffarpur - BSPCB",17-02-2024 00:00:00,26.11442,85.39813,CO,36,73,59
India,Bihar,Muzaffarpur,"MIT-Daudpur Kothi, Muzaffarpur - BSPCB",17-02-2024 00:00:00,26.1403345,85.3650192,OZONE,6,54,20
India,Bihar,Muzaffarpur,"Muzaffarpur Collectorate, Muzaffarpur - BSPCB",17-02-2024 00:00:00,26.1209,85.3647,SO2,5,9,7
India,Bihar,Muzaffarpur,"Muzaffarpur Collectorate, Muzaffarpur - BSPCB",17-02-2024 00:00:00,26.1209,85.3647,OZONE,16,75,40
India,Bihar,Patna,"DRM Office Danapur, Patna - BSPCB",17-02-2024 00:00:00,25.586562,85.043586,PM2.5,71,201,123
India,Bihar,Patna,"DRM Office Danapur, Patna - BSPCB",17-02-2024 00:00:00,25.586562,85.043586,CO,26,108,62
India,Bihar,Patna,"Govt. High School Shikarpur, Patna - BSPCB",17-02-2024 00:00:00,25.592539,85.227158,PM2.5,55,171,105
India,Bihar,Patna,"Govt. High School Shikarpur, Patna - BSPCB",17-02-2024 00:00:00,25.592539,85.227158,NO2,21,40,28
India,Bihar,Patna,"IGSC Planetarium Complex, Patna - BSPCB",17-02-2024 00:00:00,25.610369,85.132568,CO,13,18,13
India,Bihar,Patna,"Rajbansi Nagar, Patna - BSPCB",17-02-2024 00:00:00,25.599486,85.113666,NO2,27,51,37
India,Bihar,Purnia,"Mariam Nagar, Purnia - BSPCB",17-02-2024 00:00:00,25.366336,87.117468,NH3,1,1,1
India,Bihar,Purnia,"Mariam Nagar, Purnia - BSPCB",17-02-2024 00:00:00,25.366336,87.117468,SO2,11,20,17
India,Bihar,Purnia,"Mariam Nagar, Purnia - BSPCB",17-02-2024 00:00:00,25.366336,87.117468,CO,26,62,46
India,Bihar,Rajgir,"Dangi Tola, Rajgir - BSPCB",17-02-2024 00:00:00,25.03280,85.41948,PM10,72,264,129
India,Bihar,Rajgir,"Dangi Tola, Rajgir - BSPCB",17-02-2024 00:00:00,25.03280,85.41948,NH3,1,14,3
India,Bihar,Rajgir,"Dangi Tola, Rajgir - BSPCB",17-02-2024 00:00:00,25.03280,85.41948,SO2,2,5,4
India,Bihar,Samastipur,"DM Office_Kasipur, Samastipur - BSPCB",17-02-2024 00:00:00,25.859655,85.77944,SO2,1,15,8
India,Bihar,Sasaram,"Dada Peer, Sasaram - BSPCB",17-02-2024 00:00:00,24.952822,84.002396,NO2,14,29,19
India,Bihar,Sasaram,"Dada Peer, Sasaram - BSPCB",17-02-2024 00:00:00,24.952822,84.002396,NH3,8,14,11
India,Bihar,Siwan,"Chitragupta Nagar, Siwan - BSPCB",17-02-2024 00:00:00,26.2271665,84.3570427,SO2,27,35,34
India,Bihar,Siwan,"Chitragupta Nagar, Siwan - BSPCB",17-02-2024 00:00:00,26.2271665,84.3570427,CO,56,150,130
India,Chandigarh,Chandigarh,"Sector 22, Chandigarh - CPCC",17-02-2024 00:00:00,30.735567,76.775714,PM2.5,97,326,251
India,Chandigarh,Chandigarh,"Sector 22, Chandigarh - CPCC",17-02-2024 00:00:00,30.735567,76.775714,CO,36,76,54
India,Chandigarh,Chandigarh,"Sector-25, Chandigarh - CPCC",17-02-2024 00:00:00,30.751462,76.762879,NO2,15,57,27
India,Chandigarh,Chandigarh,"Sector-53, Chandigarh - CPCC",17-02-2024 00:00:00,30.719859,76.738637,PM2.5,87,352,270
India,Chhattisgarh,Bhilai,"32Bungalows, Bhilai - CECB",17-02-2024 00:00:00,21.194815,81.314770,NO2,15,27,20
India,Chhattisgarh,Bhilai,"Civic Center, Bhilai - Bhilai Steel Plant",17-02-2024 00:00:00,21.185571,81.343175,PM2.5,33,47,38
India,Chhattisgarh,Bhilai,"Hathkhoj, Bhilai - CECB",17-02-2024 00:00:00,21.224231,81.408350,NO2,28,54,37
India,Chhattisgarh,Bhilai,"Hathkhoj, Bhilai - CECB",17-02-2024 00:00:00,21.224231,81.408350,NH3,7,8,8
India,Chhattisgarh,Bhilai,"Hathkhoj, Bhilai - CECB",17-02-2024 00:00:00,21.224231,81.408350,SO2,14,41,22
India,Chhattisgarh,Bilaspur,"Mangala, Bilaspur - NTPC",17-02-2024 00:00:00,22.08815,82.13737,SO2,1,42,12
India,Chhattisgarh,Korba,"Rampur, Korba - CECB",17-02-2024 00:00:00,22.368195,82.746431,CO,17,37,23
India,Chhattisgarh,Korba,"Urja Nagar, Korba - CECB",17-02-2024 00:00:00,22.348441,82.549611,CO,16,40,29
India,Chhattisgarh,Kunjemura,"OP Jindal School, Kunjemura - CECB",17-02-2024 00:00:00,22.126650,83.483212,PM2.5,43,80,59
India,Chhattisgarh,Raipur,"Bhatagaon New ISBT, Raipur - CECB",17-02-2024 00:00:00,21.219665,81.630094,PM10,52,127,76
India,Chhattisgarh,Raipur,"Krishak Nagar, Raipur - CECB",17-02-2024 00:00:00,21.237755,81.705301,OZONE,NA,NA,NA
India,Chhattisgarh,Raipur,"Siltara Phase-II, Raipur - CECB",17-02-2024 00:00:00,21.371751,81.664929,SO2,7,29,12
India,Chhattisgarh,Tumidih,"OP Jindal Industrial Park, Tumidih - CECB",17-02-2024 00:00:00,22.06631475,83.33820077,NH3,NA,NA,NA
India,Delhi,Delhi,"Alipur, Delhi - DPCC",17-02-2024 00:00:00,28.815329,77.153010,SO2,5,19,9
India,Delhi,Delhi,"Ashok Vihar, Delhi - DPCC",17-02-2024 00:00:00,28.695381,77.181665,PM2.5,49,356,257
India,Delhi,Delhi,"Ashok Vihar, Delhi - DPCC",17-02-2024 00:00:00,28.695381,77.181665,PM10,98,414,226
India,Delhi,Delhi,"Ashok Vihar, Delhi - DPCC",17-02-2024 00:00:00,28.695381,77.181665,OZONE,4,18,8
India,Delhi,Delhi,"Aya Nagar, Delhi - IMD",17-02-2024 00:00:00,28.4706914,77.1099364,PM2.5,NA,NA,NA
India,Delhi,Delhi,"Aya Nagar, Delhi - IMD",17-02-2024 00:00:00,28.4706914,77.1099364,PM10,NA,NA,NA
India,Delhi,Delhi,"Aya Nagar, Delhi - IMD",17-02-2024 00:00:00,28.4706914,77.1099364,CO,44,96,62
India,Delhi,Delhi,"Bawana, Delhi - DPCC",17-02-2024 00:00:00,28.776200,77.051074,SO2,3,13,6
India,Delhi,Delhi,"Bawana, Delhi - DPCC",17-02-2024 00:00:00,28.776200,77.051074,OZONE,3,128,44
India,Delhi,Delhi,"Burari Crossing, Delhi - IMD",17-02-2024 00:00:00,28.7256504,77.2011573,PM10,103,478,248
India,Delhi,Delhi,"Burari Crossing, Delhi - IMD",17-02-2024 00:00:00,28.7256504,77.2011573,CO,94,106,105
India,Delhi,Delhi,"Burari Crossing, Delhi - IMD",17-02-2024 00:00:00,28.7256504,77.2011573,OZONE,23,117,54
India,Delhi,Delhi,"CRRI Mathura Road, Delhi - IMD",17-02-2024 00:00:00,28.5512005,77.2735737,CO,92,115,103
India,Delhi,Delhi,"Dr. Karni Singh Shooting Range, Delhi - DPCC",17-02-2024 00:00:00,28.498571,77.264840,CO,24,123,86
India,Delhi,Delhi,"Dwarka-Sector 8, Delhi - DPCC ",17-02-2024 00:00:00,28.5710274,77.0719006,NO2,6,17,11
India,Delhi,Delhi,"IHBAS, Dilshad Garden, Delhi - CPCB",17-02-2024 00:00:00,28.6811736,77.3025234,PM2.5,98,308,168
India,Delhi,Delhi,"IHBAS, Dilshad Garden, Delhi - CPCB",17-02-2024 00:00:00,28.6811736,77.3025234,PM10,89,182,133
India,Delhi,Delhi,"Jawaharlal Nehru Stadium, Delhi - DPCC",17-02-2024 00:00:00,28.580280,77.233829,PM10,79,274,173
India,Delhi,Delhi,"Jawaharlal Nehru Stadium, Delhi - DPCC",17-02-2024 00:00:00,28.580280,77.233829,OZONE,1,187,43
India,Delhi,Delhi,"Lodhi Road, Delhi - IMD",17-02-2024 00:00:00,28.5918245,77.2273074,PM10,103,233,153
India,Delhi,Delhi,"Major Dhyan Chand National Stadium, Delhi - DPCC",17-02-2024 00:00:00,28.611281,77.237738,NH3,5,12,9
India,Delhi,Delhi,"Mandir Marg, Delhi - DPCC",17-02-2024 00:00:00,28.636429,77.201067,PM10,69,175,133
India,Delhi,Delhi,"Mundka, Delhi - DPCC",17-02-2024 00:00:00,28.684678,77.076574,SO2,3,62,13
India,Delhi,Delhi,"Mundka, Delhi - DPCC",17-02-2024 00:00:00,28.684678,77.076574,OZONE,13,22,20
India,Delhi,Delhi,"Najafgarh, Delhi - DPCC",17-02-2024 00:00:00,28.570173,76.933762,NO2,NA,NA,NA
India,Delhi,Delhi,"Najafgarh, Delhi - DPCC",17-02-2024 00:00:00,28.570173,76.933762,NH3,NA,NA,NA
India,Delhi,Delhi,"Najafgarh, Delhi - DPCC",17-02-2024 00:00:00,28.570173,76.933762,CO,12,51,33
India,Delhi,Delhi,"Narela, Delhi - DPCC",17-02-2024 00:00:00,28.822836,77.101981,SO2,4,35,11
India,Delhi,Delhi,"Narela, Delhi - DPCC",17-02-2024 00:00:00,28.822836,77.101981,CO,28,74,54
India,Delhi,Delhi,"Nehru Nagar, Delhi - DPCC",17-02-2024 00:00:00,28.567890,77.250515,SO2,1,33,12
India,Delhi,Delhi,"Nehru Nagar, Delhi - DPCC",17-02-2024 00:00:00,28.567890,77.250515,CO,22,148,114
India,Delhi,Delhi,"North Campus, DU, Delhi - IMD",17-02-2024 00:00:00,28.6573814,77.1585447,CO,8,50,22
India,Delhi,Delhi,"Okhla Phase-2, Delhi - DPCC",17-02-2024 00:00:00,28.530785,77.271255,NO2,52,269,150
India,Delhi,Delhi,"Patparganj, Delhi - DPCC",17-02-2024 00:00:00,28.623763,77.287209,SO2,7,15,11
India,Delhi,Delhi,"Patparganj, Delhi - DPCC",17-02-2024 00:00:00,28.623763,77.287209,OZONE,1,117,26
India,Delhi,Delhi,"Pusa, Delhi - DPCC",17-02-2024 00:00:00,28.639652,77.146275,SO2,7,31,15
India,Delhi,Delhi,"R K Puram, Delhi - DPCC",17-02-2024 00:00:00,28.563262,77.186937,PM2.5,84,421,293
India,Delhi,Delhi,"R K Puram, Delhi - DPCC",17-02-2024 00:00:00,28.563262,77.186937,SO2,4,31,17
India,Delhi,Delhi,"Rohini, Delhi - DPCC",17-02-2024 00:00:00,28.732528,77.119920,PM10,81,498,249
India,Delhi,Delhi,"Rohini, Delhi - DPCC",17-02-2024 00:00:00,28.732528,77.119920,NO2,25,111,62
India,Delhi,Delhi,"Rohini, Delhi - DPCC",17-02-2024 00:00:00,28.732528,77.119920,OZONE,2,138,39
India,Delhi,Delhi,"Shadipur, Delhi - CPCB",17-02-2024 00:00:00,28.6514781,77.1473105,NO2,43,60,53
India,Delhi,Delhi,"Sirifort, Delhi - CPCB",17-02-2024 00:00:00,28.5504249,77.2159377,SO2,33,43,38
India,Delhi,Delhi,"Sonia Vihar, Delhi - DPCC",17-02-2024 00:00:00,28.710508,77.249485,PM10,91,344,220
India,Delhi,Delhi,"Sri Aurobindo Marg, Delhi - DPCC",17-02-2024 00:00:00,28.531346,77.190156,NO2,22,93,51
India,Delhi,Delhi,"Sri Aurobindo Marg, Delhi - DPCC",17-02-2024 00:00:00,28.531346,77.190156,SO2,8,27,12
India,Delhi,Delhi,"Sri Aurobindo Marg, Delhi - DPCC",17-02-2024 00:00:00,28.531346,77.190156,CO,8,78,31
India,Delhi,Delhi,"Sri Aurobindo Marg, Delhi - DPCC",17-02-2024 00:00:00,28.531346,77.190156,OZONE,1,50,13
India,Delhi,Delhi,"Vivek Vihar, Delhi - DPCC",17-02-2024 00:00:00,28.672342,77.315260,SO2,23,30,25
India,Delhi,Delhi,"Wazirpur, Delhi - DPCC",17-02-2024 00:00:00,28.699793,77.165453,PM2.5,65,395,283
India,Delhi,Delhi,"Wazirpur, Delhi - DPCC",17-02-2024 00:00:00,28.699793,77.165453,SO2,18,58,36
India,Gujarat,Ahmedabad,"Chandkheda, Ahmedabad - IITM",17-02-2024 00:00:00,23.107969,72.574648,PM10,5,36,20
India,Gujarat,Ahmedabad,"Chandkheda, Ahmedabad - IITM",17-02-2024 00:00:00,23.107969,72.574648,NO2,72,162,112
India,Gujarat,Ahmedabad,"Chandkheda, Ahmedabad - IITM",17-02-2024 00:00:00,23.107969,72.574648,SO2,8,18,11
India,Gujarat,Ahmedabad,"Chandkheda, Ahmedabad - IITM",17-02-2024 00:00:00,23.107969,72.574648,OZONE,1,56,24
India,Gujarat,Ahmedabad,"Gyaspur, Ahmedabad - IITM",17-02-2024 00:00:00,22.977134,72.553024,OZONE,20,21,20
India,Gujarat,Ahmedabad,"Maninagar, Ahmedabad - GPCB",17-02-2024 00:00:00,23.002657,72.591912,PM2.5,55,121,78
India,Gujarat,Ahmedabad,"Maninagar, Ahmedabad - GPCB",17-02-2024 00:00:00,23.002657,72.591912,CO,8,96,52
India,Gujarat,Ahmedabad,"Maninagar, Ahmedabad - GPCB",17-02-2024 00:00:00,23.002657,72.591912,OZONE,2,77,36
India,Gujarat,Ahmedabad,"Rakhial, Ahmedabad - IITM",17-02-2024 00:00:00,23.016834,72.625775,PM2.5,76,314,157
India,Gujarat,Ahmedabad,"Rakhial, Ahmedabad - IITM",17-02-2024 00:00:00,23.016834,72.625775,CO,23,71,53
India,Gujarat,Ahmedabad,"SAC ISRO Bopal, Ahmedabad - IITM",17-02-2024 00:00:00,23.041137,72.456691,PM2.5,40,293,144
India,Gujarat,Ahmedabad,"SAC ISRO Bopal, Ahmedabad - IITM",17-02-2024 00:00:00,23.041137,72.456691,CO,33,35,34
India,Gujarat,Ahmedabad,"SAC ISRO Satellite, Ahmedabad - IITM",17-02-2024 00:00:00,23.023389,72.515201,PM10,98,121,111
India,Gujarat,Ahmedabad,"SAC ISRO Satellite, Ahmedabad - IITM",17-02-2024 00:00:00,23.023389,72.515201,NH3,3,3,3
India,Gujarat,Ahmedabad,"SAC ISRO Satellite, Ahmedabad - IITM",17-02-2024 00:00:00,23.023389,72.515201,OZONE,2,15,6
India,Gujarat,Ahmedabad,"SVPI Airport Hansol, Ahmedabad - IITM",17-02-2024 00:00:00,23.076793,72.627874,CO,26,84,48
India,Gujarat,Ankleshwar,"GIDC, Ankleshwar - GPCB",17-02-2024 00:00:00,21.613267,73.010555,PM2.5,91,147,117
India,Gujarat,Ankleshwar,"GIDC, Ankleshwar - GPCB",17-02-2024 00:00:00,21.613267,73.010555,NO2,34,35,34
India,Gujarat,Ankleshwar,"GIDC, Ankleshwar - GPCB",17-02-2024 00:00:00,21.613267,73.010555,NH3,6,7,6
India,Gujarat,Ankleshwar,"GIDC, Ankleshwar - GPCB",17-02-2024 00:00:00,21.613267,73.010555,CO,39,106,68
India,Gujarat,Gandhinagar,"GIFT City, Gandhinagar - IITM",17-02-2024 00:00:00,23.163798,72.677768,PM2.5,63,157,88
India,Gujarat,Gandhinagar,"GIFT City, Gandhinagar - IITM",17-02-2024 00:00:00,23.163798,72.677768,PM10,79,149,107
India,Gujarat,Gandhinagar,"GIFT City, Gandhinagar - IITM",17-02-2024 00:00:00,23.163798,72.677768,NO2,19,21,20
India,Gujarat,Gandhinagar,"GIFT City, Gandhinagar - IITM",17-02-2024 00:00:00,23.163798,72.677768,NH3,6,6,6
India,Gujarat,Gandhinagar,"IIPHG Lekawada, Gandhinagar - IITM",17-02-2024 00:00:00,23.243639,72.68994,CO,12,40,28
India,Gujarat,Gandhinagar,"Sector-10, Gandhinagar - GPCB",17-02-2024 00:00:00,23.221714,72.654328,NH3,1,2,2
India,Gujarat,Surat,"Science Center, Surat - SMC",17-02-2024 00:00:00,21.170046,72.795405,PM10,35,113,72
India,Gujarat,Vapi,"Phase-1 GIDC, Vapi - GPCB",17-02-2024 00:00:00,20.362421,72.918013,PM2.5,55,388,246
India,Gujarat,Vapi,"Phase-1 GIDC, Vapi - GPCB",17-02-2024 00:00:00,20.362421,72.918013,NH3,16,18,17
India,Gujarat,Vapi,"Phase-1 GIDC, Vapi - GPCB",17-02-2024 00:00:00,20.362421,72.918013,CO,1,188,153
India,Gujarat,Vapi,"Phase-1 GIDC, Vapi - GPCB",17-02-2024 00:00:00,20.362421,72.918013,OZONE,58,76,68
India,Gujarat,Vatva,"Phase-4 GIDC, Vatva - GPCB",17-02-2024 00:00:00,22.969611,72.643500,PM10,33,184,64
India,Haryana,Ambala,"Patti Mehar, Ambala - HSPCB",17-02-2024 00:00:00,30.379589,76.778328,NH3,1,4,3
India,Haryana,Ballabgarh,"Nathu Colony, Ballabgarh - HSPCB",17-02-2024 00:00:00,28.3419248,77.319699,PM10,134,282,207
India,Haryana,Ballabgarh,"Nathu Colony, Ballabgarh - HSPCB",17-02-2024 00:00:00,28.3419248,77.319699,CO,7,100,77
India,Haryana,Bhiwani,"H.B. Colony, Bhiwani - HSPCB",17-02-2024 00:00:00,28.806223,76.141105,NO2,8,11,10
India,Haryana,Charkhi Dadri,"Mini Secretariat, Charkhi Dadri - HSPCB",17-02-2024 00:00:00,28.593883,76.270653,PM10,71,287,147
India,Haryana,Dharuhera,"Municipal Corporation Office, Dharuhera -  HSPCB",17-02-2024 00:00:00,28.206800,76.799700,PM2.5,42,346,183
India,Haryana,Faridabad,"New Industrial Town, Faridabad - HSPCB",17-02-2024 00:00:00,28.39072,77.30059,PM2.5,108,322,260
India,Haryana,Faridabad,"New Industrial Town, Faridabad - HSPCB",17-02-2024 00:00:00,28.39072,77.30059,NH3,4,6,5
India,Haryana,Faridabad,"Sector 11, Faridabad - HSPCB",17-02-2024 00:00:00,28.376058,77.315741,PM2.5,NA,NA,NA
India,Haryana,Faridabad,"Sector- 16A, Faridabad - HSPCB",17-02-2024 00:00:00,28.4088421,77.3099081,PM2.5,82,331,261
India,Haryana,Faridabad,"Sector- 16A, Faridabad - HSPCB",17-02-2024 00:00:00,28.4088421,77.3099081,NO2,NA,NA,NA
India,Haryana,Faridabad,"Sector- 16A, Faridabad - HSPCB",17-02-2024 00:00:00,28.4088421,77.3099081,OZONE,14,14,14
India,Haryana,Fatehabad,"Huda Sector, Fatehabad - HSPCB",17-02-2024 00:00:00,29.503664,75.467934,PM2.5,71,218,142
India,Haryana,Fatehabad,"Huda Sector, Fatehabad - HSPCB",17-02-2024 00:00:00,29.503664,75.467934,PM10,78,135,104
India,Haryana,Gurugram,"Teri Gram, Gurugram - HSPCB",17-02-2024 00:00:00,28.4275,77.1465,PM10,154,390,263
India,Haryana,Gurugram,"Teri Gram, Gurugram - HSPCB",17-02-2024 00:00:00,28.4275,77.1465,SO2,4,6,5
India,Haryana,Gurugram,"Teri Gram, Gurugram - HSPCB",17-02-2024 00:00:00,28.4275,77.1465,CO,22,50,33
India,Haryana,Gurugram,"Vikas Sadan, Gurugram - HSPCB",17-02-2024 00:00:00,28.4501238,77.0263051,CO,54,137,100
India,Haryana,Gurugram,"Vikas Sadan, Gurugram - HSPCB",17-02-2024 00:00:00,28.4501238,77.0263051,OZONE,8,68,33
India,Haryana,Jind,"Police Lines, Jind - HSPCB",17-02-2024 00:00:00,29.307814,76.337619,PM2.5,62,261,145
India,Haryana,Jind,"Police Lines, Jind - HSPCB",17-02-2024 00:00:00,29.307814,76.337619,NH3,2,5,4
India,Haryana,Kaithal,"Rishi Nagar, Kaithal - HSPCB",17-02-2024 00:00:00,29.8006,76.4155,PM2.5,61,209,110
India,Haryana,Kaithal,"Rishi Nagar, Kaithal - HSPCB",17-02-2024 00:00:00,29.8006,76.4155,SO2,14,35,21
India,Haryana,Karnal,"Sector-12, Karnal - HSPCB",17-02-2024 00:00:00,29.695300,77.002700,OZONE,28,37,32
India,Haryana,Manesar,"Sector-2 IMT, Manesar - HSPCB",17-02-2024 00:00:00,28.360699,76.936090,PM2.5,58,302,164
India,Haryana,Manesar,"Sector-2 IMT, Manesar - HSPCB",17-02-2024 00:00:00,28.360699,76.936090,NO2,11,28,20
India,Haryana,Manesar,"Sector-2 IMT, Manesar - HSPCB",17-02-2024 00:00:00,28.360699,76.936090,CO,23,101,58
India,Haryana,Narnaul,"Shastri Nagar, Narnaul - HSPCB",17-02-2024 00:00:00,28.060249,76.113115,NH3,5,18,11
India,Haryana,Narnaul,"Shastri Nagar, Narnaul - HSPCB",17-02-2024 00:00:00,28.060249,76.113115,OZONE,12,79,58
India,Haryana,Palwal,"Shyam Nagar, Palwal - HSPCB",17-02-2024 00:00:00,28.1485564,77.3320667,SO2,11,24,18
India,Haryana,Palwal,"Shyam Nagar, Palwal - HSPCB",17-02-2024 00:00:00,28.1485564,77.3320667,OZONE,5,52,39
India,Haryana,Panchkula,"Sector-6, Panchkula - HSPCB ",17-02-2024 00:00:00,30.7057778,76.8531805555555,PM2.5,NA,NA,NA
India,Haryana,Rohtak,"MD University, Rohtak - HSPCB",17-02-2024 00:00:00,28.52123,76.37138,PM2.5,12,284,123
India,Haryana,Rohtak,"MD University, Rohtak - HSPCB",17-02-2024 00:00:00,28.52123,76.37138,CO,2,117,43
India,Haryana,Sirsa,"F-Block, Sirsa - HSPCB",17-02-2024 00:00:00,29.536400,75.015800,SO2,1,16,10
India,Haryana,Yamuna Nagar,"Gobind Pura, Yamuna Nagar - HSPCB",17-02-2024 00:00:00,30.1480566,77.2893471,NO2,4,376,30
India,Haryana,Yamuna Nagar,"Gobind Pura, Yamuna Nagar - HSPCB",17-02-2024 00:00:00,30.1480566,77.2893471,OZONE,19,47,30
India,Jharkhand,Dhanbad,"Kalakusuma, Dhanbad - DMC",17-02-2024 00:00:00,23.811548,86.481238,NO2,NA,NA,NA
India,Jharkhand,Dhanbad,"Kalakusuma, Dhanbad - DMC",17-02-2024 00:00:00,23.811548,86.481238,OZONE,NA,NA,NA
India,Jharkhand,Dhanbad,"Sardar Patel Nagar, Dhanbad - JSPCB",17-02-2024 00:00:00,23.80569,86.44268,PM10,NA,NA,NA
India,Jharkhand,Pathardih,"Mohalbani Ghat, Pathardih - DMC",17-02-2024 00:00:00,23.669880,86.411725,CO,143,172,151
India,Karnataka,Bagalkot,"Vidayagiri, Bagalkot - KSPCB",17-02-2024 00:00:00,16.172806,75.659694,PM2.5,19,37,36
India,Karnataka,Bagalkot,"Vidayagiri, Bagalkot - KSPCB",17-02-2024 00:00:00,16.172806,75.659694,PM10,41,42,42
India,Karnataka,Bagalkot,"Vidayagiri, Bagalkot - KSPCB",17-02-2024 00:00:00,16.172806,75.659694,NO2,9,11,9
India,Karnataka,Belgaum,"Ramteerth Nagar, Belgaum - KSPCB",17-02-2024 00:00:00,15.888653,74.541751,NH3,33,34,34
India,Karnataka,Bengaluru,"BTM Layout, Bengaluru - CPCB",17-02-2024 00:00:00,12.9135218,77.5950804,NH3,5,6,5
India,Karnataka,Bengaluru,"BTM Layout, Bengaluru - CPCB",17-02-2024 00:00:00,12.9135218,77.5950804,OZONE,8,20,16
India,Karnataka,Bengaluru,"Hombegowda Nagar, Bengaluru - KSPCB",17-02-2024 00:00:00,12.938539,77.590100,PM2.5,35,63,47
India,Karnataka,Bengaluru,"Jayanagar 5th Block, Bengaluru - KSPCB",17-02-2024 00:00:00,12.920984,77.584908,NO2,10,12,11
India,Karnataka,Bengaluru,"Jayanagar 5th Block, Bengaluru - KSPCB",17-02-2024 00:00:00,12.920984,77.584908,OZONE,18,19,18
India,Karnataka,Bengaluru,"Jigani, Bengaluru - KSPCB",17-02-2024 00:00:00,12.7816279,77.6299145,SO2,16,16,16
India,Karnataka,Bengaluru,"Jigani, Bengaluru - KSPCB",17-02-2024 00:00:00,12.7816279,77.6299145,OZONE,24,64,35
India,Karnataka,Bengaluru,"Kasturi Nagar, Bengaluru - KSPCB",17-02-2024 00:00:00,13.003872,77.664217,PM2.5,69,125,86
India,Karnataka,Bengaluru,"Kasturi Nagar, Bengaluru - KSPCB",17-02-2024 00:00:00,13.003872,77.664217,OZONE,32,84,64
India,Karnataka,Bengaluru,"Sanegurava Halli, Bengaluru - KSPCB",17-02-2024 00:00:00,12.990328,77.5431385,PM10,26,60,37
India,Karnataka,Bengaluru,"Shivapura_Peenya, Bengaluru - KSPCB",17-02-2024 00:00:00,13.0246342,77.5080115,PM10,63,86,71
India,Karnataka,Bengaluru,"Shivapura_Peenya, Bengaluru - KSPCB",17-02-2024 00:00:00,13.0246342,77.5080115,OZONE,53,56,54
India,Karnataka,Bidar,"Naubad, Bidar - KSPCB",17-02-2024 00:00:00,17.930306,77.482194,PM10,58,100,76
India,Karnataka,Bidar,"Naubad, Bidar - KSPCB",17-02-2024 00:00:00,17.930306,77.482194,NH3,3,3,3
India,Karnataka,Chikkaballapur,"Chikkaballapur Rural, Chikkaballapur - KSPCB",17-02-2024 00:00:00,13.428828,77.731418,CO,NA,NA,NA
India,Karnataka,Chikkamagaluru,"Kalyana Nagara, Chikkamagaluru - KSPCB",17-02-2024 00:00:00,13.328028,75.797056,PM10,19,103,44
India,Karnataka,Chikkamagaluru,"Kalyana Nagara, Chikkamagaluru - KSPCB",17-02-2024 00:00:00,13.328028,75.797056,NH3,3,5,4
India,Karnataka,Chikkamagaluru,"Kalyana Nagara, Chikkamagaluru - KSPCB",17-02-2024 00:00:00,13.328028,75.797056,CO,8,103,22
India,Karnataka,Davanagere,"Devaraj Urs Badavane, Davanagere - KSPCB",17-02-2024 00:00:00,14.475800,75.905200,PM10,38,95,60
India,Karnataka,Davanagere,"Devaraj Urs Badavane, Davanagere - KSPCB",17-02-2024 00:00:00,14.475800,75.905200,SO2,3,5,4
India,Karnataka,Dharwad,"Kalabhavan, Dharwad - KSPCB",17-02-2024 00:00:00,15.459706,75.008381,OZONE,2,48,18
India,Karnataka,Gadag,"Panchal Nagar, Gadag - KSPCB",17-02-2024 00:00:00,15.411456,75.638133,PM10,18,37,28
India,Karnataka,Hassan,"B.Katihalli, Hassan - KSPCB",17-02-2024 00:00:00,13.008556,76.125258,PM2.5,12,87,62
India,Karnataka,Haveri,"Ashwini Nagar, Haveri - KSPCB",17-02-2024 00:00:00,14.791800,75.389600,NO2,21,41,33
India,Karnataka,Haveri,"Ashwini Nagar, Haveri - KSPCB",17-02-2024 00:00:00,14.791800,75.389600,SO2,14,14,14
India,Karnataka,Haveri,"Ashwini Nagar, Haveri - KSPCB",17-02-2024 00:00:00,14.791800,75.389600,CO,32,34,34
India,Karnataka,Hubballi,"Lingaraj Nagar, Hubballi - KSPCB",17-02-2024 00:00:00,15.3714823,75.1160168,OZONE,14,41,34
India,Karnataka,Kalaburagi,"Lal Bahadur Shastri Nagar, Kalaburagi - KSPCB",17-02-2024 00:00:00,17.321993,76.822628,PM2.5,NA,NA,NA
India,Karnataka,Kalaburagi,"Lal Bahadur Shastri Nagar, Kalaburagi - KSPCB",17-02-2024 00:00:00,17.321993,76.822628,PM10,NA,NA,NA
India,Karnataka,Kalaburagi,"Lal Bahadur Shastri Nagar, Kalaburagi - KSPCB",17-02-2024 00:00:00,17.321993,76.822628,CO,37,42,40
India,Karnataka,Kalaburagi,"Mahatma Basaveswar Colony, Kalaburgi - KSPCB",17-02-2024 00:00:00,17.336318,76.847397,NH3,2,4,3
India,Karnataka,Kalaburagi,"Mahatma Basaveswar Colony, Kalaburgi - KSPCB",17-02-2024 00:00:00,17.336318,76.847397,OZONE,4,27,14
India,Karnataka,Karwar,"KHB Colony, Karwar - KSPCB",17-02-2024 00:00:00,14.816666,74.141003,NO2,5,10,7
India,Karnataka,Karwar,"KHB Colony, Karwar - KSPCB",17-02-2024 00:00:00,14.816666,74.141003,CO,7,8,7
India,Karnataka,Koppal,"Diwator Nagar, Koppal - KSPCB",17-02-2024 00:00:00,15.347630,76.181767,PM2.5,10,60,37
India,Karnataka,Koppal,"Diwator Nagar, Koppal - KSPCB",17-02-2024 00:00:00,15.347630,76.181767,PM10,25,86,58
India,Karnataka,Koppal,"Diwator Nagar, Koppal - KSPCB",17-02-2024 00:00:00,15.347630,76.181767,NH3,3,6,5
India,Karnataka,Koppal,"Diwator Nagar, Koppal - KSPCB",17-02-2024 00:00:00,15.347630,76.181767,OZONE,1,40,17
India,Karnataka,Madikeri,"Stuart Hill, Madikeri - KSPCB",17-02-2024 00:00:00,12.415911,75.735050,PM2.5,14,58,40
India,Karnataka,Madikeri,"Stuart Hill, Madikeri - KSPCB",17-02-2024 00:00:00,12.415911,75.735050,NH3,NA,NA,NA
India,Karnataka,Mysuru,"Hebbal 1st Stage, Mysuru - KSPCB",17-02-2024 00:00:00,12.21041,76.37376,PM2.5,NA,NA,NA
India,Karnataka,Mysuru,"Hebbal 1st Stage, Mysuru - KSPCB",17-02-2024 00:00:00,12.21041,76.37376,NO2,NA,NA,NA
India,Karnataka,Raichur,"Haji Colony, Raichur - KSPCB",17-02-2024 00:00:00,16.208139,77.348417,PM2.5,2,47,17
India,Karnataka,Raichur,"Haji Colony, Raichur - KSPCB",17-02-2024 00:00:00,16.208139,77.348417,NO2,13,53,28
India,Karnataka,Raichur,"Haji Colony, Raichur - KSPCB",17-02-2024 00:00:00,16.208139,77.348417,SO2,60,74,65
India,Karnataka,Ramanagara,"Vijay Nagar, Ramanagara - KSPCB",17-02-2024 00:00:00,12.733409,77.298051,PM2.5,32,102,56
India,Karnataka,Shivamogga,"Vinoba Nagara, Shivamogga - KSPCB",17-02-2024 00:00:00,13.940000,75.555917,PM10,50,76,61
India,Karnataka,Tumakuru,"Thimmalapura, Tumakuru - KSPCB",17-02-2024 00:00:00,13.377516,77.099072,OZONE,27,44,36
India,Karnataka,Udupi,"Brahmagiri, Udupi - KSPCB",17-02-2024 00:00:00,13.34194444,74.74694444,PM10,33,78,50
India,Kerala,Kannur,"Thavakkara, Kannur - Kerala PCB",17-02-2024 00:00:00,11.875000,75.373200,CO,28,34,32
India,Kerala,Kochi,"Vyttila, Kochi - Kerala PCB",17-02-2024 00:00:00,9.969447,76.321186,PM2.5,52,189,100
India,Kerala,Kollam,"Polayathode, Kollam - Kerala PCB",17-02-2024 00:00:00,8.8787,76.6073,PM10,61,93,77
India,Kerala,Thiruvananthapuram,"Kariavattom, Thiruvananthapuram - Kerala PCB",17-02-2024 00:00:00,8.563700,76.886500,PM10,76,89,83
India,Kerala,Thiruvananthapuram,"Kariavattom, Thiruvananthapuram - Kerala PCB",17-02-2024 00:00:00,8.563700,76.886500,NH3,1,1,1
India,Kerala,Thiruvananthapuram,"Plammoodu, Thiruvananthapuram - Kerala PCB",17-02-2024 00:00:00,8.5149093,76.9435879,SO2,8,14,10
India,Kerala,Thiruvananthapuram,"Plammoodu, Thiruvananthapuram - Kerala PCB",17-02-2024 00:00:00,8.5149093,76.9435879,OZONE,8,61,18
India,Kerala,Thrissur,"Corporation Ground, Thrissur - Kerala PCB",17-02-2024 00:00:00,10.532400,76.215900,OZONE,NA,NA,NA
India,Madhya Pradesh,Bhopal,"Idgah Hills, Bhopal - MPPCB",17-02-2024 00:00:00,23.264759,77.381568,PM10,98,145,123
India,Madhya Pradesh,Bhopal,"Idgah Hills, Bhopal - MPPCB",17-02-2024 00:00:00,23.264759,77.381568,SO2,2,13,8
India,Madhya Pradesh,Bhopal,"Idgah Hills, Bhopal - MPPCB",17-02-2024 00:00:00,23.264759,77.381568,CO,28,56,42
India,Madhya Pradesh,Bhopal,"Paryavaran Parisar, Bhopal - MPPCB",17-02-2024 00:00:00,23.210494,77.425409,NH3,8,13,10
India,Madhya Pradesh,Bhopal,"T T Nagar, Bhopal - MPPCB",17-02-2024 00:00:00,23.233584,77.400574,PM2.5,82,248,142
India,Madhya Pradesh,Bhopal,"T T Nagar, Bhopal - MPPCB",17-02-2024 00:00:00,23.233584,77.400574,SO2,11,50,30
India,Madhya Pradesh,Bhopal,"T T Nagar, Bhopal - MPPCB",17-02-2024 00:00:00,23.233584,77.400574,OZONE,11,110,48
India,Madhya Pradesh,Dewas,"Bhopal Chauraha, Dewas - MPPCB",17-02-2024 00:00:00,22.9682591,76.064118,NO2,11,13,12
India,Madhya Pradesh,Dewas,"Bhopal Chauraha, Dewas - MPPCB",17-02-2024 00:00:00,22.9682591,76.064118,SO2,22,84,45
India,Madhya Pradesh,Gwalior,"City Center, Gwalior - MPPCB",17-02-2024 00:00:00,26.203442,78.193251,NO2,27,105,55
India,Madhya Pradesh,Gwalior,"City Center, Gwalior - MPPCB",17-02-2024 00:00:00,26.203442,78.193251,OZONE,19,211,92
India,Madhya Pradesh,Gwalior,"Maharaj Bada, Gwalior - MPPCB",17-02-2024 00:00:00,26.200388,78.147714,PM10,101,322,185
India,Madhya Pradesh,Gwalior,"Phool Bagh, Gwalior - Mondelez Ind. Food",17-02-2024 00:00:00,26.210536,78.171,PM2.5,16,354,260
India,Madhya Pradesh,Indore,"Chhoti Gwaltoli, Indore - MPPCB",17-02-2024 00:00:00,22.4310,75.5213,SO2,13,29,18
India,Madhya Pradesh,Indore,"Chhoti Gwaltoli, Indore - MPPCB",17-02-2024 00:00:00,22.4310,75.5213,OZONE,12,108,56
India,Madhya Pradesh,Indore,"Maguda Nagar, Indore - IMC",17-02-2024 00:00:00,22.7524,75.8872,NO2,4,6,5
India,Madhya Pradesh,Indore,"Regional Park, Indore - IMC",17-02-2024 00:00:00,22.6780,75.8559,OZONE,4,10,6
India,Madhya Pradesh,Indore,"Residency Area, Indore - IMC",17-02-2024 00:00:00,22.7084,75.8815,NO2,36,56,42
India,Madhya Pradesh,Indore,"Residency Area, Indore - IMC",17-02-2024 00:00:00,22.7084,75.8815,SO2,22,23,22
India,Madhya Pradesh,Jabalpur,"Govindh Bhavan Colony, Jabalpur - JMC",17-02-2024 00:00:00,23.163174,79.973061,CO,23,52,33
India,Madhya Pradesh,Jabalpur,"Gupteshwar, Jabalpur - JMC",17-02-2024 00:00:00,23.142888,79.916147,PM10,NA,NA,NA
India,Madhya Pradesh,Jabalpur,"Marhatal, Jabalpur - MPPCB",17-02-2024 00:00:00,23.168606,79.932247,PM10,99,263,139
India,Madhya Pradesh,Jabalpur,"Suhagi, Jabalpur - JMC",17-02-2024 00:00:00,23.218135,79.957770,PM10,47,111,78
India,Madhya Pradesh,Jabalpur,"Suhagi, Jabalpur - JMC",17-02-2024 00:00:00,23.218135,79.957770,SO2,7,10,10
India,Madhya Pradesh,Jabalpur,"Suhagi, Jabalpur - JMC",17-02-2024 00:00:00,23.218135,79.957770,CO,4,118,87
India,Madhya Pradesh,Jabalpur,"Suhagi, Jabalpur - JMC",17-02-2024 00:00:00,23.218135,79.957770,OZONE,6,87,27
India,Madhya Pradesh,Maihar,"Sahilara, Maihar - KJS Cements",17-02-2024 00:00:00,24.2613009,80.7231783,PM2.5,27,77,49
India,Madhya Pradesh,Mandideep,"Sector-D Industrial Area, Mandideep - MPPCB",17-02-2024 00:00:00,23.108440,77.511428,PM2.5,114,314,182
India,Madhya Pradesh,Mandideep,"Sector-D Industrial Area, Mandideep - MPPCB",17-02-2024 00:00:00,23.108440,77.511428,PM10,108,216,136
India,Madhya Pradesh,Pithampur,"Sector-2 Industrial Area, Pithampur - MPPCB",17-02-2024 00:00:00,22.624758,75.675238,PM2.5,45,183,107
India,Madhya Pradesh,Pithampur,"Sector-2 Industrial Area, Pithampur - MPPCB",17-02-2024 00:00:00,22.624758,75.675238,NH3,6,7,7
India,Madhya Pradesh,Sagar,"Civil Lines, Sagar - MPPCB",17-02-2024 00:00:00,23.838586,78.759431,PM10,83,134,105
India,Madhya Pradesh,Sagar,"Civil Lines, Sagar - MPPCB",17-02-2024 00:00:00,23.838586,78.759431,NH3,5,12,7
India,Madhya Pradesh,Sagar,"Civil Lines, Sagar - MPPCB",17-02-2024 00:00:00,23.838586,78.759431,OZONE,42,54,43
India,Madhya Pradesh,Sagar,"Deen Dayal Nagar, Sagar - MPPCB",17-02-2024 00:00:00,23.8640158,78.80289321,PM2.5,22,44,36
India,Madhya Pradesh,Sagar,"Deen Dayal Nagar, Sagar - MPPCB",17-02-2024 00:00:00,23.8640158,78.80289321,PM10,21,153,67
India,Madhya Pradesh,Singrauli,"Suryakiran Bhawan NCL, Singrauli - MPPCB",17-02-2024 00:00:00,24.108970,82.645580,OZONE,4,46,22
India,Madhya Pradesh,Ujjain,"Mahakaleshwar Temple, Ujjain - MPPCB",17-02-2024 00:00:00,23.182719 ,75.768218 ,CO,32,72,52
India,Madhya Pradesh,Ujjain,"Mahakaleshwar Temple, Ujjain - MPPCB",17-02-2024 00:00:00,23.182719 ,75.768218 ,OZONE,124,148,138
India,Maharashtra,Ahmednagar,"Tarakpur, Ahmednagar - MPCB",17-02-2024 00:00:00,19.10122,74.73339,PM2.5,4,122,65
India,Maharashtra,Ahmednagar,"Tarakpur, Ahmednagar - MPCB",17-02-2024 00:00:00,19.10122,74.73339,PM10,40,148,104
India,Maharashtra,Ahmednagar,"Tarakpur, Ahmednagar - MPCB",17-02-2024 00:00:00,19.10122,74.73339,OZONE,20,98,54
India,Maharashtra,Amravati,"Shivneri Colony, Amravati - MPCB",17-02-2024 00:00:00,20.9402359,77.7895248,NO2,9,89,34
India,Maharashtra,Amravati,"Shri Shivaji Science College, Amaravati - MPCB",17-02-2024 00:00:00,20.939198,77.765701,CO,40,124,89
India,Maharashtra,Aurangabad,"More Chowk Waluj, Aurangabad - MPCB",17-02-2024 00:00:00,19.8389439,75.244448,SO2,10,11,11
India,Maharashtra,Aurangabad,"More Chowk Waluj, Aurangabad - MPCB",17-02-2024 00:00:00,19.8389439,75.244448,CO,8,74,41
India,Maharashtra,Aurangabad,"Rachnakar Colony, Aurangabad - MPCB",17-02-2024 00:00:00,19.863756,75.321188,NH3,2,2,2
India,Maharashtra,Badlapur,"Katrap, Badlapur - MPCB",17-02-2024 00:00:00,19.16485,73.23409,OZONE,3,212,90
India,Maharashtra,Belapur,"CBD Belapur, Belapur - MPCB",17-02-2024 00:00:00,19.0243902,73.0406721,NH3,21,56,33
India,Maharashtra,Bhiwandi,"Gokul Nagar, Bhiwandi - MPCB",17-02-2024 00:00:00,19.309073,73.057223,PM10,93,213,148
India,Maharashtra,Bhiwandi,"Gokul Nagar, Bhiwandi - MPCB",17-02-2024 00:00:00,19.309073,73.057223,NH3,2,3,2
India,Maharashtra,Boisar,"Khaira, Boisar - MPCB",17-02-2024 00:00:00,19.786089,72.757971,PM2.5,NA,NA,NA
India,Maharashtra,Boisar,"Khaira, Boisar - MPCB",17-02-2024 00:00:00,19.786089,72.757971,NH3,NA,NA,NA
India,Maharashtra,Chandrapur,"Chauhan Colony, Chandrapur - MPCB",17-02-2024 00:00:00,19.962900,79.298714,OZONE,1,7,6
India,Maharashtra,Chandrapur,"MIDC Khutala, Chandrapur - MPCB",17-02-2024 00:00:00,19.9775302,79.2337086,OZONE,1,1,1
India,Maharashtra,Dhule,"Deopur, Dhule - MPCB",17-02-2024 00:00:00,20.918946,74.776388,PM2.5,66,185,108
India,Maharashtra,Jalna,"Old MIDC, Jalna - MPCB",17-02-2024 00:00:00,19.854616,75.905894,PM2.5,NA,NA,NA
India,Maharashtra,Jalna,"Old MIDC, Jalna - MPCB",17-02-2024 00:00:00,19.854616,75.905894,PM10,NA,NA,NA
India,Maharashtra,Kalyan,"Khadakpada, Kalyan - MPCB",17-02-2024 00:00:00,19.25292,73.142019,OZONE,6,48,24
India,Maharashtra,Kolhapur,"Sinchan Bhavan, Kolhapur - MPCB",17-02-2024 00:00:00,16.7143745,74.2426398,PM10,66,406,158
India,Maharashtra,Kolhapur,"Sinchan Bhavan, Kolhapur - MPCB",17-02-2024 00:00:00,16.7143745,74.2426398,SO2,1,14,3
India,Maharashtra,Mahad,"Kamble Tarf Birwadi, Mahad - MPCB",17-02-2024 00:00:00,18.1023399,73.4783687,PM2.5,129,213,167
India,Maharashtra,Mahad,"Kamble Tarf Birwadi, Mahad - MPCB",17-02-2024 00:00:00,18.1023399,73.4783687,OZONE,17,116,63
India,Maharashtra,Malegaon,"Mahesh Nagar, Malegaon - MPCB",17-02-2024 00:00:00,20.555712,74.529236,NH3,2,20,4
India,Maharashtra,Malegaon,"Mahesh Nagar, Malegaon - MPCB",17-02-2024 00:00:00,20.555712,74.529236,OZONE,7,88,39
India,Maharashtra,Mira-Bhayandar,"Bhayandar West, Mira-Bhayandar - MPCB",17-02-2024 00:00:00,19.296481,72.840923,NH3,5,10,6
India,Maharashtra,Mira-Bhayandar,"Bhayandar West, Mira-Bhayandar - MPCB",17-02-2024 00:00:00,19.296481,72.840923,CO,29,86,47
India,Maharashtra,Mumbai,"Bandra Kurla Complex, Mumbai - MPCB",17-02-2024 00:00:00,19.065931,72.862131,PM2.5,NA,NA,NA
India,Maharashtra,Mumbai,"Bandra Kurla Complex, Mumbai - MPCB",17-02-2024 00:00:00,19.065931,72.862131,SO2,NA,NA,NA
India,Maharashtra,Mumbai,"Borivali East, Mumbai - IITM",17-02-2024 00:00:00,19.23241,72.86895,PM10,117,184,154
India,Maharashtra,Mumbai,"Byculla, Mumbai - BMC",17-02-2024 00:00:00,18.9767,72.8380,CO,30,100,50
India,Maharashtra,Mumbai,"Byculla, Mumbai - BMC",17-02-2024 00:00:00,18.9767,72.8380,OZONE,3,242,119
India,Maharashtra,Mumbai,"Chakala-Andheri East, Mumbai - IITM",17-02-2024 00:00:00,19.11074,72.86084,OZONE,1,193,65
India,Maharashtra,Mumbai,"Chembur, Mumbai - MPCB",17-02-2024 00:00:00,19.0364585,72.8954371,SO2,2,80,18
India,Maharashtra,Mumbai,"Chembur, Mumbai - MPCB",17-02-2024 00:00:00,19.0364585,72.8954371,OZONE,5,305,132
India,Maharashtra,Mumbai,"Chhatrapati Shivaji Intl. Airport (T2), Mumbai - MPCB",17-02-2024 00:00:00,19.10078,72.87462,NO2,3,98,51
India,Maharashtra,Mumbai,"Chhatrapati Shivaji Intl. Airport (T2), Mumbai - MPCB",17-02-2024 00:00:00,19.10078,72.87462,OZONE,4,39,15
India,Maharashtra,Mumbai,"Colaba, Mumbai - MPCB",17-02-2024 00:00:00,18.910000,72.820000,NO2,21,35,29
India,Maharashtra,Mumbai,"Colaba, Mumbai - MPCB",17-02-2024 00:00:00,18.910000,72.820000,SO2,12,14,13
India,Maharashtra,Mumbai,"Ghatkopar, Mumbai - BMC",17-02-2024 00:00:00,19.083694,72.920967,PM2.5,NA,NA,NA
India,Maharashtra,Mumbai,"Ghatkopar, Mumbai - BMC",17-02-2024 00:00:00,19.083694,72.920967,SO2,NA,NA,NA
India,Maharashtra,Mumbai,"Ghatkopar, Mumbai - BMC",17-02-2024 00:00:00,19.083694,72.920967,CO,NA,NA,NA
India,Maharashtra,Mumbai,"Kandivali East, Mumbai - MPCB",17-02-2024 00:00:00,19.205800,72.868200,NH3,6,13,8
India,Maharashtra,Mumbai,"Kandivali East, Mumbai - MPCB",17-02-2024 00:00:00,19.205800,72.868200,SO2,65,73,68
India,Maharashtra,Mumbai,"Kandivali West, Mumbai - BMC",17-02-2024 00:00:00,19.215859,72.831718,CO,24,99,46
India,Maharashtra,Mumbai,"Kherwadi_Bandra East, Mumbai - MPCB",17-02-2024 00:00:00,19.0632143,72.8456324,PM10,119,188,147
India,Maharashtra,Mumbai,"Khindipada-Bhandup West, Mumbai - IITM",17-02-2024 00:00:00,19.1653323,72.922099,PM10,88,151,121
India,Maharashtra,Mumbai,"Khindipada-Bhandup West, Mumbai - IITM",17-02-2024 00:00:00,19.1653323,72.922099,NH3,5,15,7
India,Maharashtra,Mumbai,"Kurla, Mumbai - MPCB",17-02-2024 00:00:00,19.0863,72.8888,OZONE,32,55,33
India,Maharashtra,Mumbai,"Malad West, Mumbai - IITM",17-02-2024 00:00:00,19.19709,72.82204,PM10,135,233,169
India,Maharashtra,Mumbai,"Malad West, Mumbai - IITM",17-02-2024 00:00:00,19.19709,72.82204,NH3,1,4,2
India,Maharashtra,Mumbai,"Malad West, Mumbai - IITM",17-02-2024 00:00:00,19.19709,72.82204,CO,58,90,74
India,Maharashtra,Mumbai,"Mazgaon, Mumbai - IITM",17-02-2024 00:00:00,18.96702,72.84214,SO2,1,48,15
India,Maharashtra,Mumbai,"Mazgaon, Mumbai - IITM",17-02-2024 00:00:00,18.96702,72.84214,OZONE,4,227,120
India,Maharashtra,Mumbai,"Mindspace-Malad West, Mumbai - MPCB",17-02-2024 00:00:00,19.1878657,72.8304069,PM10,107,173,147
India,Maharashtra,Mumbai,"Mindspace-Malad West, Mumbai - MPCB",17-02-2024 00:00:00,19.1878657,72.8304069,SO2,5,21,9
India,Maharashtra,Mumbai,"Mindspace-Malad West, Mumbai - MPCB",17-02-2024 00:00:00,19.1878657,72.8304069,OZONE,6,121,41
India,Maharashtra,Mumbai,"Navy Nagar-Colaba, Mumbai - IITM",17-02-2024 00:00:00,18.897756,72.813320,NO2,89,196,139
India,Maharashtra,Mumbai,"Powai, Mumbai - MPCB",17-02-2024 00:00:00,19.137500,72.915056,SO2,6,35,22
India,Maharashtra,Mumbai,"Shivaji Nagar, Mumbai - BMC",17-02-2024 00:00:00,19.060498,72.923356,NO2,71,197,136
India,Maharashtra,Mumbai,"Siddharth Nagar-Worli, Mumbai - IITM",17-02-2024 00:00:00,19.000083,72.813993,PM10,160,412,234
India,Maharashtra,Mumbai,"Siddharth Nagar-Worli, Mumbai - IITM",17-02-2024 00:00:00,19.000083,72.813993,NH3,3,6,5
India,Maharashtra,Mumbai,"Vasai West, Mumbai - MPCB",17-02-2024 00:00:00,19.383200,72.820400,PM2.5,NA,NA,NA
India,Maharashtra,Mumbai,"Vasai West, Mumbai - MPCB",17-02-2024 00:00:00,19.383200,72.820400,NO2,26,28,27
India,Maharashtra,Nagpur,"Ambazari, Nagpur - MPCB",17-02-2024 00:00:00,21.121801,79.04952,NO2,19,146,58
India,Maharashtra,Nagpur,"Ambazari, Nagpur - MPCB",17-02-2024 00:00:00,21.121801,79.04952,NH3,1,9,3
India,Maharashtra,Nagpur,"Mahal, Nagpur - MPCB",17-02-2024 00:00:00,21.14472,79.107595,NO2,7,58,23
India,Maharashtra,Nagpur,"Mahal, Nagpur - MPCB",17-02-2024 00:00:00,21.14472,79.107595,CO,21,131,101
India,Maharashtra,Nagpur,"Ram Nagar, Nagpur - MPCB",17-02-2024 00:00:00,21.143383,79.048912,PM2.5,53,266,107
India,Maharashtra,Nagpur,"Ram Nagar, Nagpur - MPCB",17-02-2024 00:00:00,21.143383,79.048912,PM10,74,251,129
India,Maharashtra,Nagpur,"Ram Nagar, Nagpur - MPCB",17-02-2024 00:00:00,21.143383,79.048912,OZONE,4,103,44
India,Maharashtra,Nanded,"Sneh Nagar, Nanded - MPCB",17-02-2024 00:00:00,19.173852,77.296291,SO2,6,17,10
India,Maharashtra,Nashik,"Gangapur Road, Nashik - MPCB",17-02-2024 00:00:00,20.0073285,73.7762427,SO2,1,11,5
India,Maharashtra,Nashik,"Hirawadi, Nashik - MPCB",17-02-2024 00:00:00,20.021503,73.813844,NO2,9,88,35
India,Maharashtra,Nashik,"MIDC Ambad, Nashik - MPCB",17-02-2024 00:00:00,19.950220,73.731480,OZONE,8,52,46
India,Maharashtra,Navi Mumbai,"Sanpada, Navi Mumbai - MPCB",17-02-2024 00:00:00,19.0575752,73.0151367,OZONE,5,145,75
India,Maharashtra,Navi Mumbai,"Sector-2E Kalamboli, Navi Mumbai - MPCB",17-02-2024 00:00:00,19.02579,73.10297,OZONE,2,311,41
India,Maharashtra,Navi Mumbai,"Tondare-Taloja, Navi Mumbai - MPCB",17-02-2024 00:00:00,19.0630,73.1209,NO2,72,209,129
India,Maharashtra,Parbhani,"Masoom Colony, Parbhani - MPCB",17-02-2024 00:00:00,19.265594,76.761463,NO2,7,51,20
India,Maharashtra,Pimpri-Chinchwad,"Gavalinagar, Pimpri Chinchwad - MPCB",17-02-2024 00:00:00,18.63673,73.82487,CO,22,108,61
India,Maharashtra,Pimpri-Chinchwad,"Park Street Wakad, Pimpri Chinchwad - MPCB",17-02-2024 00:00:00,18.59051,73.77946,PM10,111,245,162
India,Maharashtra,Pimpri-Chinchwad,"Thergaon, Pimpri Chinchwad - MPCB",17-02-2024 00:00:00,18.616318,73.765797,PM10,120,304,159
India,Maharashtra,Pimpri-Chinchwad,"Thergaon, Pimpri Chinchwad - MPCB",17-02-2024 00:00:00,18.616318,73.765797,SO2,4,18,9
India,Maharashtra,Pune,"Alandi, Pune - IITM",17-02-2024 00:00:00,18.675076,73.892743,NO2,NA,NA,NA
India,Maharashtra,Pune,"Karve Road, Pune - MPCB",17-02-2024 00:00:00,18.5011743,73.8165527,PM2.5,2,340,94
India,Maharashtra,Pune,"Katraj Dairy, Pune - MPCB",17-02-2024 00:00:00,18.454450,73.854155,PM10,70,157,115
India,Maharashtra,Pune,"Revenue Colony-Shivajinagar, Pune - IITM",17-02-2024 00:00:00,18.530085,73.849598,NO2,89,196,138
India,Maharashtra,Pune,"Revenue Colony-Shivajinagar, Pune - IITM",17-02-2024 00:00:00,18.530085,73.849598,NH3,11,26,17
India,Maharashtra,Pune,"Revenue Colony-Shivajinagar, Pune - IITM",17-02-2024 00:00:00,18.530085,73.849598,SO2,71,125,102
India,Maharashtra,Pune,"Revenue Colony-Shivajinagar, Pune - IITM",17-02-2024 00:00:00,18.530085,73.849598,CO,98,115,111
India,Maharashtra,Pune,"Savitribai Phule Pune University, Pune - MPCB",17-02-2024 00:00:00,18.547056,73.826908,PM2.5,55,212,124
India,Maharashtra,Pune,"Savitribai Phule Pune University, Pune - MPCB",17-02-2024 00:00:00,18.547056,73.826908,PM10,60,172,128
India,Maharashtra,Pune,"Savitribai Phule Pune University, Pune - MPCB",17-02-2024 00:00:00,18.547056,73.826908,NH3,NA,NA,NA
India,Maharashtra,Pune,"Savitribai Phule Pune University, Pune - MPCB",17-02-2024 00:00:00,18.547056,73.826908,CO,16,106,53
India,Maharashtra,Pune,"Transport Nagar-Nigdi, Pune - IITM",17-02-2024 00:00:00,18.664282,73.763966,CO,46,68,56
India,Maharashtra,Sangli,"Vijay Nagar, Sangli - MPCB",17-02-2024 00:00:00, 16.5038,74.3623,NO2,39,122,74
India,Maharashtra,Sangli,"Vijay Nagar, Sangli - MPCB",17-02-2024 00:00:00, 16.5038,74.3623,CO,16,108,52
India,Maharashtra,Solapur,"Ratandeep Housing Society, Solapur - MPCB",17-02-2024 00:00:00,17.65439,75.90649,NO2,10,115,35
India,Maharashtra,Solapur,"Solapur, Solapur - MPCB",17-02-2024 00:00:00,17.6599188,75.9063906,PM2.5,74,142,97
India,Maharashtra,Thane,"Kasarvadavali, Thane - MPCB",17-02-2024 00:00:00,19.26777,72.97182,SO2,7,39,17
India,Maharashtra,Thane,"Upvan Fort, Thane - MPCB",17-02-2024 00:00:00,19.222279,72.957979,NO2,32,129,58
India,Maharashtra,Thane,"Upvan Fort, Thane - MPCB",17-02-2024 00:00:00,19.222279,72.957979,NH3,9,14,12
India,Maharashtra,Ulhasnagar,"Sidhi Vinayak Nagar, Ulhasnagar - MPCB",17-02-2024 00:00:00,19.235581,73.159121,SO2,12,113,25
India,Maharashtra,Ulhasnagar,"Sidhi Vinayak Nagar, Ulhasnagar - MPCB",17-02-2024 00:00:00,19.235581,73.159121,CO,14,129,69
India,Maharashtra,Ulhasnagar,"Sidhi Vinayak Nagar, Ulhasnagar - MPCB",17-02-2024 00:00:00,19.235581,73.159121,OZONE,1,176,80
India,Maharashtra,Virar,"Bolinj, Virar - MPCB",17-02-2024 00:00:00,19.4458210,72.7988231,NO2,13,76,41
India,Manipur,Imphal,"DM College of Science, Imphal - Manipur PCB",17-02-2024 00:00:00,24.8207389,93.9423085,NH3,2,2,2
India,Manipur,Imphal,"Manipur University, Imphal - Manipur PCB",17-02-2024 00:00:00,24.7524239,93.9286218,SO2,67,73,70
India,Meghalaya,Shillong,"Lumpyngngad, Shillong - Meghalaya PCB",17-02-2024 00:00:00,25.5586,91.8985,NO2,6,7,6
India,Mizoram,Aizawl,"Sikulpuikawn, Aizawl - Mizoram PCB",17-02-2024 00:00:00,23.7176342,92.7192841,CO,13,21,18
India,Nagaland,Kohima,"PWD Juction, Kohima - NPCB",17-02-2024 00:00:00,25.6635413,94.0989878,NH3,1,1,1
India,Nagaland,Kohima,"PWD Juction, Kohima - NPCB",17-02-2024 00:00:00,25.6635413,94.0989878,CO,11,40,28
India,Odisha,Angul,"Hakimapada, Angul - OSPCB",17-02-2024 00:00:00,20.832874,85.104082,NH3,1,2,2
India,Odisha,Angul,"Hakimapada, Angul - OSPCB",17-02-2024 00:00:00,20.832874,85.104082,SO2,23,117,64
India,Odisha,Balasore,"Kalidaspur, Balasore - OSPCB",17-02-2024 00:00:00,21.51161,86.89088,PM10,55,267,145
India,Odisha,Balasore,"Kalidaspur, Balasore - OSPCB",17-02-2024 00:00:00,21.51161,86.89088,NH3,4,9,6
India,Odisha,Barbil,"Forest Office, Barbil - OSPCB",17-02-2024 00:00:00,22.1166054,85.3945546,OZONE,3,109,55
India,Odisha,Bhubaneswar,"Lingraj Mandir, Bhubaneswar - OSPCB",17-02-2024 00:00:00,20.240790,85.836784,PM2.5,97,322,174
India,Odisha,Bhubaneswar,"Lingraj Mandir, Bhubaneswar - OSPCB",17-02-2024 00:00:00,20.240790,85.836784,NO2,1,35,11
India,Odisha,Bhubaneswar,"Patia, Bhubaneswar - OSPCB",17-02-2024 00:00:00,20.34652,85.81630,OZONE,39,153,97
India,Odisha,Bileipada,"Tata Township, Bileipada - OSPCB",17-02-2024 00:00:00,22.06156703,85.47409613,NO2,NA,NA,NA
India,Odisha,Cuttack,"CDA Area, Cuttack - OSPCB",17-02-2024 00:00:00,20.48891     ,85.84768     ,OZONE,32,143,97
India,Odisha,Keonjhar,"Jagamohanpur, Keonjhar - OSPCB",17-02-2024 00:00:00,21.643900,85.599355,PM10,97,142,113
India,Odisha,Keonjhar,"Jagamohanpur, Keonjhar - OSPCB",17-02-2024 00:00:00,21.643900,85.599355,NO2,9,106,51
India,Odisha,Keonjhar,"Jagamohanpur, Keonjhar - OSPCB",17-02-2024 00:00:00,21.643900,85.599355,NH3,10,16,12
India,Odisha,Keonjhar,"Jagamohanpur, Keonjhar - OSPCB",17-02-2024 00:00:00,21.643900,85.599355,CO,12,74,29
India,Odisha,Rourkela,"Raghunathpali, Rourkela - OSPCB",17-02-2024 00:00:00,22.220833,84.809444,NH3,1,3,2
India,Odisha,Suakati,"OMC Colony, Suakati - OSPCB",17-02-2024 00:00:00,21.606865,85.510538,PM2.5,79,264,135
India,Odisha,Suakati,"OMC Colony, Suakati - OSPCB",17-02-2024 00:00:00,21.606865,85.510538,PM10,97,173,123
India,Odisha,Suakati,"OMC Colony, Suakati - OSPCB",17-02-2024 00:00:00,21.606865,85.510538,CO,6,18,9
India,Odisha,Talcher,"Talcher Coalfields,Talcher - OSPCB",17-02-2024 00:00:00,20.9360711,85.1707021,NO2,31,42,36
India,Punjab,Amritsar,"Golden Temple, Amritsar - PPCB",17-02-2024 00:00:00,31.620000,74.876512,NO2,11,51,18
India,Punjab,Bathinda,"Hardev Nagar, Bathinda - PPCB",17-02-2024 00:00:00,30.233011,74.907758,NO2,29,33,32
India,Punjab,Khanna,"Kalal Majra, Khanna - PPCB",17-02-2024 00:00:00,30.736056 ,76.209694,PM2.5,58,293,97
India,Punjab,Khanna,"Kalal Majra, Khanna - PPCB",17-02-2024 00:00:00,30.736056 ,76.209694,SO2,NA,NA,NA
India,Punjab,Khanna,"Kalal Majra, Khanna - PPCB",17-02-2024 00:00:00,30.736056 ,76.209694,CO,9,44,18
India,Punjab,Ludhiana,"Punjab Agricultural University, Ludhiana - PPCB",17-02-2024 00:00:00,30.9028,75.8086,PM10,81,155,117
India,Punjab,Ludhiana,"Punjab Agricultural University, Ludhiana - PPCB",17-02-2024 00:00:00,30.9028,75.8086,SO2,6,25,10
India,Punjab,Mandi Gobindgarh,"RIMT University, Mandi Gobindgarh - PPCB",17-02-2024 00:00:00,30.649961,76.331442,NH3,2,2,2
India,Punjab,Mandi Gobindgarh,"RIMT University, Mandi Gobindgarh - PPCB",17-02-2024 00:00:00,30.649961,76.331442,SO2,2,83,21
India,Punjab,Patiala,"Model Town, Patiala - PPCB",17-02-2024 00:00:00,30.349388,76.366642,PM2.5,64,303,127
India,Punjab,Rupnagar,"Ratanpura, Rupnagar - Ambuja Cements",17-02-2024 00:00:00,31.0325454,76.5623046,PM2.5,42,174,93
India,Rajasthan,Ajmer,"Civil Lines,  Ajmer - RSPCB",17-02-2024 00:00:00,26.470859,74.646594,PM10,53,128,95
India,Rajasthan,Ajmer,"Civil Lines,  Ajmer - RSPCB",17-02-2024 00:00:00,26.470859,74.646594,CO,20,91,51
India,Rajasthan,Alwar,"Moti Doongri, Alwar - RSPCB",17-02-2024 00:00:00,27.554793,76.611536,OZONE,7,32,16
India,Rajasthan,Barmer,"Railway Colony, Barmer - RSPCB",17-02-2024 00:00:00,25.747299,71.393989,PM2.5,48,197,81
India,Rajasthan,Barmer,"Railway Colony, Barmer - RSPCB",17-02-2024 00:00:00,25.747299,71.393989,NO2,11,99,25
India,Rajasthan,Barmer,"Railway Colony, Barmer - RSPCB",17-02-2024 00:00:00,25.747299,71.393989,SO2,6,16,12
India,Rajasthan,Barmer,"Railway Colony, Barmer - RSPCB",17-02-2024 00:00:00,25.747299,71.393989,OZONE,12,160,76
India,Rajasthan,Bharatpur,"Krishna Nagar, Bharatpur - RSPCB",17-02-2024 00:00:00,27.215415,77.50873,PM2.5,27,167,87
India,Rajasthan,Bhiwadi,"RIICO Ind. Area III, Bhiwadi - RSPCB",17-02-2024 00:00:00,28.194909,76.862296,NO2,19,48,33
India,Rajasthan,Bhiwadi,"RIICO Ind. Area III, Bhiwadi - RSPCB",17-02-2024 00:00:00,28.194909,76.862296,SO2,3,37,20
India,Rajasthan,Bikaner,"MM Ground, Bikaner - RSPCB",17-02-2024 00:00:00,28.018792,73.292658,PM2.5,56,298,171
India,Rajasthan,Bundi,"New Colony, Bundi - RSPCB",17-02-2024 00:00:00,25.435774,75.644272,CO,26,102,48
India,Rajasthan,Bundi,"New Colony, Bundi - RSPCB",17-02-2024 00:00:00,25.435774,75.644272,OZONE,12,65,31
India,Rajasthan,Chittorgarh,"Shastri Nagar, Chittorgarh - RSPCB",17-02-2024 00:00:00,24.892047,74.623527,SO2,3,137,32
India,Rajasthan,Chittorgarh,"Shastri Nagar, Chittorgarh - RSPCB",17-02-2024 00:00:00,24.892047,74.623527,OZONE,3,147,93
India,Rajasthan,Churu,"Subash Chowk, Churu - RSPCB",17-02-2024 00:00:00,28.296139,74.961696,SO2,29,49,36
India,Rajasthan,Churu,"Subash Chowk, Churu - RSPCB",17-02-2024 00:00:00,28.296139,74.961696,OZONE,55,144,103
India,Rajasthan,Dausa,"Khatikan Mohalla, Dausa - RSPCB",17-02-2024 00:00:00,26.895552,76.334753,PM2.5,58,351,144
India,Rajasthan,Dausa,"Khatikan Mohalla, Dausa - RSPCB",17-02-2024 00:00:00,26.895552,76.334753,NH3,7,13,9
India,Rajasthan,Dungarpur,"Bhoiwada, Dungarpur - RSPCB",17-02-2024 00:00:00,23.837789,73.714926,SO2,5,14,8
India,Rajasthan,Hanumangarh,"Housing Board, Hanumangarh - RSPCB",17-02-2024 00:00:00,29.610750,74.283608,NO2,19,124,53
India,Rajasthan,Hanumangarh,"Housing Board, Hanumangarh - RSPCB",17-02-2024 00:00:00,29.610750,74.283608,SO2,5,21,11
India,Rajasthan,Jaipur,"Adarsh Nagar, Jaipur - RSPCB",17-02-2024 00:00:00,26.902909,75.836858,PM2.5,68,327,160
India,Rajasthan,Jaipur,"Adarsh Nagar, Jaipur - RSPCB",17-02-2024 00:00:00,26.902909,75.836858,NO2,35,139,57
India,Rajasthan,Jaipur,"Mansarovar Sector-12, Jaipur - RSPCB",17-02-2024 00:00:00,26.843698,75.766894,PM10,NA,NA,NA
India,Rajasthan,Jaipur,"Police Commissionerate, Jaipur - RSPCB",17-02-2024 00:00:00,26.9164092,75.7994901,PM2.5,91,174,117
India,Rajasthan,Jaipur,"Police Commissionerate, Jaipur - RSPCB",17-02-2024 00:00:00,26.9164092,75.7994901,NO2,27,131,66
India,Rajasthan,Jaipur,"Police Commissionerate, Jaipur - RSPCB",17-02-2024 00:00:00,26.9164092,75.7994901,CO,20,104,63
India,Rajasthan,Jaipur,"Police Commissionerate, Jaipur - RSPCB",17-02-2024 00:00:00,26.9164092,75.7994901,OZONE,13,111,50
India,Rajasthan,Jaipur,"RIICO Sitapura, Jaipur - RSPCB",17-02-2024 00:00:00,26.786682,75.827928,PM2.5,87,415,261
India,Rajasthan,Jaipur,"RIICO Sitapura, Jaipur - RSPCB",17-02-2024 00:00:00,26.786682,75.827928,NH3,3,13,5
India,Rajasthan,Jaipur,"Sector-2 Murlipura, Jaipur - RSPCB",17-02-2024 00:00:00,26.960669,75.771817,PM2.5,47,218,100
India,Rajasthan,Jaipur,"Sector-2 Murlipura, Jaipur - RSPCB",17-02-2024 00:00:00,26.960669,75.771817,CO,2,114,50
India,Rajasthan,Jaipur,"Sector-2 Murlipura, Jaipur - RSPCB",17-02-2024 00:00:00,26.960669,75.771817,OZONE,7,176,80
India,Rajasthan,Jaisalmer,"Sadar Bazar, Jaisalmer - RSPCB",17-02-2024 00:00:00,26.912329,70.909168,PM2.5,39,328,135
India,Rajasthan,Jaisalmer,"Sadar Bazar, Jaisalmer - RSPCB",17-02-2024 00:00:00,26.912329,70.909168,NH3,1,17,9
India,Rajasthan,Jalore,"Mudtra Sili, Jalore - RSPCB",17-02-2024 00:00:00,25.344694,72.626208,PM2.5,78,305,171
India,Rajasthan,Jalore,"Mudtra Sili, Jalore - RSPCB",17-02-2024 00:00:00,25.344694,72.626208,PM10,99,224,159
India,Rajasthan,Jalore,"Mudtra Sili, Jalore - RSPCB",17-02-2024 00:00:00,25.344694,72.626208,NH3,6,55,13
India,Rajasthan,Jhalawar,"Rajlaxmi Nagar, Jhalawar - RSPCB",17-02-2024 00:00:00,24.588397,76.172782,PM10,74,155,109
India,Rajasthan,Jhalawar,"Rajlaxmi Nagar, Jhalawar - RSPCB",17-02-2024 00:00:00,24.588397,76.172782,NH3,5,6,5
India,Rajasthan,Jhalawar,"Rajlaxmi Nagar, Jhalawar - RSPCB",17-02-2024 00:00:00,24.588397,76.172782,OZONE,56,113,85
India,Rajasthan,Jhunjhunu,"Indra Nagar, Jhunjhunu - RSPCB",17-02-2024 00:00:00,28.108988,75.386577,OZONE,24,100,51
India,Rajasthan,Jodhpur,"Collectorate, Jodhpur - RSPCB",17-02-2024 00:00:00,26.268249,73.0193853,SO2,1,54,19
India,Rajasthan,Jodhpur,"Collectorate, Jodhpur - RSPCB",17-02-2024 00:00:00,26.268249,73.0193853,CO,26,95,65
India,Rajasthan,Jodhpur,"Digari Kalan, Jodhpur - RSPCB",17-02-2024 00:00:00,26.295810,73.082283,OZONE,14,148,70
India,Rajasthan,Jodhpur,"Jhalamand, Jodhpur - RSPCB",17-02-2024 00:00:00,26.215415,73.070156,NO2,3,67,29
India,Rajasthan,Jodhpur,"Jhalamand, Jodhpur - RSPCB",17-02-2024 00:00:00,26.215415,73.070156,OZONE,28,99,66
India,Rajasthan,Jodhpur,"Mandor, Jodhpur - RSPCB",17-02-2024 00:00:00,26.358805,73.047444,PM2.5,45,258,111
India,Rajasthan,Jodhpur,"Mandor, Jodhpur - RSPCB",17-02-2024 00:00:00,26.358805,73.047444,CO,7,34,15
India,Rajasthan,Jodhpur,"Samrat Ashok Udhyan, Jodhpur - RSPCB",17-02-2024 00:00:00,26.253384,72.976571,PM2.5,37,230,106
India,Rajasthan,Jodhpur,"Samrat Ashok Udhyan, Jodhpur - RSPCB",17-02-2024 00:00:00,26.253384,72.976571,CO,28,104,67
India,Rajasthan,Karauli,"Satyawati Vihar, Karauli - RSPCB",17-02-2024 00:00:00,26.506177,77.025989,PM10,90,261,130
India,Rajasthan,Karauli,"Satyawati Vihar, Karauli - RSPCB",17-02-2024 00:00:00,26.506177,77.025989,NH3,2,10,5
India,Rajasthan,Kota,"Dhanmandi, Kota - RSPCB",17-02-2024 00:00:00,25.164090,75.858137,PM2.5,81,371,235
India,Rajasthan,Kota,"Dhanmandi, Kota - RSPCB",17-02-2024 00:00:00,25.164090,75.858137,NO2,13,137,65
India,Rajasthan,Kota,"Dhanmandi, Kota - RSPCB",17-02-2024 00:00:00,25.164090,75.858137,NH3,4,6,5
India,Rajasthan,Kota,"Dhanmandi, Kota - RSPCB",17-02-2024 00:00:00,25.164090,75.858137,SO2,2,101,18
India,Rajasthan,Kota,"Nayapura, Kota - RSPCB",17-02-2024 00:00:00,25.196024,75.855668,PM10,85,272,149
India,Rajasthan,Kota,"Nayapura, Kota - RSPCB",17-02-2024 00:00:00,25.196024,75.855668,NH3,6,15,8
India,Rajasthan,Kota,"Nayapura, Kota - RSPCB",17-02-2024 00:00:00,25.196024,75.855668,SO2,3,11,5
India,Rajasthan,Kota,"Shrinath Puram, Kota - RSPCB",17-02-2024 00:00:00,25.14389,75.821256,OZONE,37,121,67
India,Rajasthan,Nagaur,"Karni Colony, Nagaur - RSPCB",17-02-2024 00:00:00,27.213494,73.734444,NH3,9,15,12
India,Rajasthan,Nagaur,"Karni Colony, Nagaur - RSPCB",17-02-2024 00:00:00,27.213494,73.734444,SO2,2,7,5
India,Rajasthan,Pali,"Indira Colony Vistar, Pali - RSPCB",17-02-2024 00:00:00,25.771061, 73.340227,OZONE,45,87,64
India,Rajasthan,Pratapgarh,"Pragati Nagar, Pratapgarh - RSPCB",17-02-2024 00:00:00,24.041198,74.780702,OZONE,73,141,107
India,Rajasthan,Rajsamand,"Dhoinda, Rajsamand - RSPCB",17-02-2024 00:00:00,25.036360,73.883502,PM10,76,276,143
India,Rajasthan,Rajsamand,"Dhoinda, Rajsamand - RSPCB",17-02-2024 00:00:00,25.036360,73.883502,NH3,2,16,5
India,Rajasthan,Sawai Madhopur,"Sahu Nagar, Sawai Madhopur - RSPCB",17-02-2024 00:00:00,26.031443,76.359327,PM2.5,57,210,109
India,Rajasthan,Sikar,"Radhakishan Pura, Sikar - RSPCB",17-02-2024 00:00:00,27.608912,75.153302,NH3,5,11,8
India,Rajasthan,Sirohi,"Vedhaynath Colony, Sirohi - RSPCB",17-02-2024 00:00:00,24.885261,72.857549,PM2.5,38,163,91
India,Rajasthan,Sirohi,"Vedhaynath Colony, Sirohi - RSPCB",17-02-2024 00:00:00,24.885261,72.857549,NO2,11,79,30
India,Rajasthan,Sirohi,"Vedhaynath Colony, Sirohi - RSPCB",17-02-2024 00:00:00,24.885261,72.857549,CO,28,90,66
India,Rajasthan,Sri Ganganagar,"Old City, Sri Ganganagar - RSPCB",17-02-2024 00:00:00,29.931624,73.864511,CO,35,148,84
India,Rajasthan,Udaipur,"Ashok Nagar, Udaipur - RSPCB",17-02-2024 00:00:00,24.5886166,73.6321397,OZONE,6,82,29
India,Sikkim,Gangtok,"Zero Point GICI, Gangtok - SSPCB",17-02-2024 00:00:00,27.338530,88.614099,NH3,1,1,1
India,TamilNadu,Ariyalur,"Keelapalur, Ariyalur - TNPCB",17-02-2024 00:00:00,11.06825,79.07033,NO2,10,44,18
India,TamilNadu,Chengalpattu,"Crescent University, Chengalpattu - TNPCB",17-02-2024 00:00:00,12.8777316,80.0834807,PM10,NA,NA,NA
India,TamilNadu,Chennai,"Alandur Bus Depot, Chennai - CPCB",17-02-2024 00:00:00,12.9099161,80.1076538,PM2.5,52,354,136
India,TamilNadu,Chennai,"Kodungaiyur, Chennai - TNPCB",17-02-2024 00:00:00,13.1278,80.2642,PM10,46,107,69
India,TamilNadu,Chennai,"Kodungaiyur, Chennai - TNPCB",17-02-2024 00:00:00,13.1278,80.2642,NH3,3,30,6
India,TamilNadu,Chennai,"Kodungaiyur, Chennai - TNPCB",17-02-2024 00:00:00,13.1278,80.2642,CO,13,107,33
India,TamilNadu,Chennai,"Kodungaiyur, Chennai - TNPCB",17-02-2024 00:00:00,13.1278,80.2642,OZONE,5,6,6
India,TamilNadu,Chennai,"Manali, Chennai - CPCB",17-02-2024 00:00:00,13.164544,80.26285,PM10,62,120,80
India,TamilNadu,Chennai,"Perungudi, Chennai - TNPCB",17-02-2024 00:00:00,12.9533,80.2357,PM2.5,42,147,60
India,TamilNadu,Chennai,"Perungudi, Chennai - TNPCB",17-02-2024 00:00:00,12.9533,80.2357,OZONE,3,10,8
India,TamilNadu,Chennai,"Royapuram, Chennai - TNPCB",17-02-2024 00:00:00,13.1036,80.2909,PM2.5,32,50,41
India,TamilNadu,Chennai,"Royapuram, Chennai - TNPCB",17-02-2024 00:00:00,13.1036,80.2909,SO2,1,3,1
India,TamilNadu,Chennai,"Royapuram, Chennai - TNPCB",17-02-2024 00:00:00,13.1036,80.2909,OZONE,8,10,9
India,TamilNadu,Chennai,"Velachery Res. Area, Chennai - CPCB",17-02-2024 00:00:00,13.0052189,80.2398125,PM2.5,40,111,61
India,TamilNadu,Chennai,"Velachery Res. Area, Chennai - CPCB",17-02-2024 00:00:00,13.0052189,80.2398125,NO2,17,93,26
India,TamilNadu,Coimbatore,"PSG College of Arts and Science, Coimbatore - TNPCB",17-02-2024 00:00:00,11.0328,77.0349,SO2,14,23,17
India,TamilNadu,Cuddalore,"Semmandalam, Cuddalore - TNPCB",17-02-2024 00:00:00,11.7637683,79.7499835,OZONE,1,3,2
India,TamilNadu,Kanchipuram,"Kilambi, Kanchipuram - TNPCB",17-02-2024 00:00:00,12.864618,79.659968,NO2,NA,NA,NA
India,TamilNadu,Ooty,"Bombay Castel, Ooty - TNPCB",17-02-2024 00:00:00,11.4068288,76.7138973,PM10,17,113,39
India,TamilNadu,Ooty,"Bombay Castel, Ooty - TNPCB",17-02-2024 00:00:00,11.4068288,76.7138973,SO2,13,13,13
India,TamilNadu,Palkalaiperur,"Bharathidasan University, Palkalaiperur - TNPCB",17-02-2024 00:00:00,10.681158,78.741746,OZONE,1,1,1
India,TamilNadu,Thoothukudi,"Meelavittan, Thoothukudi - TNPCB",17-02-2024 00:00:00,8.816428 ,78.099039,OZONE,NA,NA,NA
India,TamilNadu,Tirupur,"Kumaran College, Tirupur - TNPCB",17-02-2024 00:00:00,11.0973603,77.3228673,PM10,69,189,109
India,TamilNadu,Tirupur,"Kumaran College, Tirupur - TNPCB",17-02-2024 00:00:00,11.0973603,77.3228673,NO2,9,43,17
India,TamilNadu,Tirupur,"Kumaran College, Tirupur - TNPCB",17-02-2024 00:00:00,11.0973603,77.3228673,SO2,17,18,18
India,TamilNadu,Virudhunagar,"Collectorate Office, Virudhunagar - TNPCB",17-02-2024 00:00:00,9.559382,77.948828,SO2,16,16,16
India,Telangana,Hyderabad,"Bollaram Industrial Area, Hyderabad - TSPCB",17-02-2024 00:00:00,17.540891,78.358528,NH3,2,3,2
India,Telangana,Hyderabad,"Central University, Hyderabad - TSPCB",17-02-2024 00:00:00,17.460103,78.334361,PM2.5,10,41,21
India,Telangana,Hyderabad,"Central University, Hyderabad - TSPCB",17-02-2024 00:00:00,17.460103,78.334361,NO2,11,34,24
India,Telangana,Hyderabad,"ECIL Kapra, Hyderabad - TSPCB",17-02-2024 00:00:00,17.470431,78.566959,PM10,63,81,69
India,Telangana,Hyderabad,"ECIL Kapra, Hyderabad - TSPCB",17-02-2024 00:00:00,17.470431,78.566959,SO2,1,22,7
India,Telangana,Hyderabad,"ICRISAT Patancheru, Hyderabad - TSPCB",17-02-2024 00:00:00,17.518400,78.278777,PM10,23,74,45
India,Telangana,Hyderabad,"Kokapet, Hyderabad - TSPCB",17-02-2024 00:00:00,17.393559,78.339194,NO2,NA,NA,NA
India,Telangana,Hyderabad,"Kokapet, Hyderabad - TSPCB",17-02-2024 00:00:00,17.393559,78.339194,OZONE,NA,NA,NA
India,Telangana,Hyderabad,"New Malakpet, Hyderabad - TSPCB",17-02-2024 00:00:00,17.37206,78.50864,NO2,16,32,23
India,Telangana,Hyderabad,"Ramachandrapuram, Hyderabad - TSPCB",17-02-2024 00:00:00,17.528544,78.286195,CO,1,20,9
India,Telangana,Hyderabad,"Sanathnagar, Hyderabad - TSPCB",17-02-2024 00:00:00,17.4559458,78.4332152,SO2,1,31,9
India,Telangana,Hyderabad,"Somajiguda, Hyderabad - TSPCB",17-02-2024 00:00:00,17.417094,78.457437,NH3,5,5,5
India,Telangana,Hyderabad,"Somajiguda, Hyderabad - TSPCB",17-02-2024 00:00:00,17.417094,78.457437,CO,6,30,18
India,Telangana,Hyderabad,"Zoo Park, Hyderabad - TSPCB",17-02-2024 00:00:00,17.349694,78.451437,NH3,1,1,1
India,Telangana,Hyderabad,"Zoo Park, Hyderabad - TSPCB",17-02-2024 00:00:00,17.349694,78.451437,OZONE,17,35,22
India,Tripura,Agartala,"Bardowali, Agartala - Tripura SPCB",17-02-2024 00:00:00,23.8175497,91.2726974,PM10,152,323,225
India,Tripura,Agartala,"Bardowali, Agartala - Tripura SPCB",17-02-2024 00:00:00,23.8175497,91.2726974,CO,40,103,79
India,Tripura,Agartala,"Bardowali, Agartala - Tripura SPCB",17-02-2024 00:00:00,23.8175497,91.2726974,OZONE,2,11,1
India,Uttar_Pradesh,Agra,"Manoharpur, Agra - UPPCB",17-02-2024 00:00:00,27.23711,78.01936,OZONE,1,55,18
India,Uttar_Pradesh,Agra,"Rohta, Agra - UPPCB",17-02-2024 00:00:00,27.106972,78.000111,PM10,34,137,97
India,Uttar_Pradesh,Agra,"Sanjay Palace, Agra - UPPCB",17-02-2024 00:00:00,27.19865833,78.00598056,CO,14,126,91
India,Uttar_Pradesh,Agra,"Shahjahan Garden, Agra - UPPCB",17-02-2024 00:00:00,27.169338,78.03582,PM2.5,36,179,93
India,Uttar_Pradesh,Agra,"Shahjahan Garden, Agra - UPPCB",17-02-2024 00:00:00,27.169338,78.03582,CO,10,82,32
India,Uttar_Pradesh,Agra,"Shastripuram, Agra - UPPCB",17-02-2024 00:00:00,27.19862,77.92066,CO,10,30,21
India,Uttar_Pradesh,Agra,"Shastripuram, Agra - UPPCB",17-02-2024 00:00:00,27.19862,77.92066,OZONE,2,15,7
India,Uttar_Pradesh,Baghpat,"Sardar Patel Inter College, Baghpat - UPPCB",17-02-2024 00:00:00,28.964949,77.278761,SO2,2,88,26
India,Uttar_Pradesh,Baghpat,"Sardar Patel Inter College, Baghpat - UPPCB",17-02-2024 00:00:00,28.964949,77.278761,OZONE,2,31,12
India,Uttar_Pradesh,Bareilly,"Civil Lines, Bareilly - UPPCB",17-02-2024 00:00:00,28.359581,79.414455,NH3,1,6,2
India,Uttar_Pradesh,Bareilly,"Rajendra Nagar, Bareilly - UPPCB",17-02-2024 00:00:00,28.38910936,79.42963708,PM10,60,164,102
India,Uttar_Pradesh,Bulandshahr,"Yamunapuram, Bulandshahr - UPPCB",17-02-2024 00:00:00,28.406963,77.849831,PM2.5,54,329,161
India,Uttar_Pradesh,Bulandshahr,"Yamunapuram, Bulandshahr - UPPCB",17-02-2024 00:00:00,28.406963,77.849831,OZONE,2,118,55
India,Uttar_Pradesh,Firozabad,"Nagla Bhau, Firozabad - UPPCB",17-02-2024 00:00:00,27.168897,78.376960,PM10,36,130,73
India,Uttar_Pradesh,Firozabad,"Nagla Bhau, Firozabad - UPPCB",17-02-2024 00:00:00,27.168897,78.376960,SO2,18,26,22
India,Uttar_Pradesh,Firozabad,"Nagla Bhau, Firozabad - UPPCB",17-02-2024 00:00:00,27.168897,78.376960,OZONE,23,55,32
India,Uttar_Pradesh,Ghaziabad,"Loni, Ghaziabad - UPPCB",17-02-2024 00:00:00,28.757294,77.278792,PM10,91,220,155
India,Uttar_Pradesh,Ghaziabad,"Loni, Ghaziabad - UPPCB",17-02-2024 00:00:00,28.757294,77.278792,NO2,7,99,36
India,Uttar_Pradesh,Ghaziabad,"Sanjay Nagar, Ghaziabad - UPPCB",17-02-2024 00:00:00,28.685382,77.453839,PM2.5,32,325,174
India,Uttar_Pradesh,Ghaziabad,"Sanjay Nagar, Ghaziabad - UPPCB",17-02-2024 00:00:00,28.685382,77.453839,NH3,7,15,12
India,Uttar_Pradesh,Ghaziabad,"Vasundhara, Ghaziabad - UPPCB",17-02-2024 00:00:00,28.6603346,77.3572563,NH3,7,15,11
India,Uttar_Pradesh,Gorakhpur,"Madan Mohan Malaviya University of Technology, Gorakhpur - UPPCB",17-02-2024 00:00:00,26.730136,83.433859,PM10,54,181,97
India,Uttar_Pradesh,Gorakhpur,"Madan Mohan Malaviya University of Technology, Gorakhpur - UPPCB",17-02-2024 00:00:00,26.730136,83.433859,SO2,41,51,43
India,Uttar_Pradesh,Greater Noida,"Knowledge Park - III, Greater Noida - UPPCB",17-02-2024 00:00:00,28.47272,77.482000,PM10,138,400,272
India,Uttar_Pradesh,Greater Noida,"Knowledge Park - III, Greater Noida - UPPCB",17-02-2024 00:00:00,28.47272,77.482000,NO2,2,44,19
India,Uttar_Pradesh,Greater Noida,"Knowledge Park - III, Greater Noida - UPPCB",17-02-2024 00:00:00,28.47272,77.482000,NH3,1,2,2
India,Uttar_Pradesh,Jhansi,"Shivaji Nagar, Jhansi - UPPCB",17-02-2024 00:00:00,25.4547,78.6039,PM10,85,156,120
India,Uttar_Pradesh,Kanpur,"FTI Kidwai Nagar, Kanpur - UPPCB",17-02-2024 00:00:00,26.428282,80.327067,PM2.5,13,245,143
India,Uttar_Pradesh,Kanpur,"FTI Kidwai Nagar, Kanpur - UPPCB",17-02-2024 00:00:00,26.428282,80.327067,NO2,19,22,19
India,Uttar_Pradesh,Kanpur,"FTI Kidwai Nagar, Kanpur - UPPCB",17-02-2024 00:00:00,26.428282,80.327067,NH3,3,4,3
India,Uttar_Pradesh,Kanpur,"Nehru Nagar, Kanpur - UPPCB",17-02-2024 00:00:00,26.4703136,80.3229863,PM2.5,58,341,131
India,Uttar_Pradesh,Kanpur,"Nehru Nagar, Kanpur - UPPCB",17-02-2024 00:00:00,26.4703136,80.3229863,PM10,51,209,97
India,Uttar_Pradesh,Kanpur,"Nehru Nagar, Kanpur - UPPCB",17-02-2024 00:00:00,26.4703136,80.3229863,SO2,2,30,11
India,Uttar_Pradesh,Kanpur,"Nehru Nagar, Kanpur - UPPCB",17-02-2024 00:00:00,26.4703136,80.3229863,CO,10,116,75
India,Uttar_Pradesh,Kanpur,"Nehru Nagar, Kanpur - UPPCB",17-02-2024 00:00:00,26.4703136,80.3229863,OZONE,5,189,72
India,Uttar_Pradesh,Lucknow,"Kendriya Vidyalaya, Lucknow - CPCB",17-02-2024 00:00:00,26.906111,80.948222,PM2.5,29,166,121
India,Uttar_Pradesh,Lucknow,"Kendriya Vidyalaya, Lucknow - CPCB",17-02-2024 00:00:00,26.906111,80.948222,NO2,14,92,58
India,Uttar_Pradesh,Lucknow,"Kendriya Vidyalaya, Lucknow - CPCB",17-02-2024 00:00:00,26.906111,80.948222,SO2,4,27,11
India,Uttar_Pradesh,Lucknow,"Kendriya Vidyalaya, Lucknow - CPCB",17-02-2024 00:00:00,26.906111,80.948222,CO,22,56,22
India,Uttar_Pradesh,Lucknow,"Kukrail Picnic Spot-1, Lucknow - UPPCB",17-02-2024 00:00:00,26.90723,80.98579,CO,22,42,29
India,Uttar_Pradesh,Lucknow,"Kukrail Picnic Spot-1, Lucknow - UPPCB",17-02-2024 00:00:00,26.90723,80.98579,OZONE,1,77,33
India,Uttar_Pradesh,Lucknow,"Lalbagh, Lucknow - CPCB",17-02-2024 00:00:00,26.8458805,80.9365541,PM10,151,232,190
India,Uttar_Pradesh,Lucknow,"Lalbagh, Lucknow - CPCB",17-02-2024 00:00:00,26.8458805,80.9365541,NO2,32,144,68
India,Uttar_Pradesh,Lucknow,"Talkatora District Industries Center, Lucknow - CPCB",17-02-2024 00:00:00,26.83399722,80.8917361,CO,6,82,37
India,Uttar_Pradesh,Meerut,"Jai Bhim Nagar, Meerut - UPPCB",17-02-2024 00:00:00,28.9535882,77.7622941,NO2,8,64,41
India,Uttar_Pradesh,Meerut,"Pallavpuram Phase 2, Meerut - UPPCB",17-02-2024 00:00:00,29.063510,77.709723,OZONE,27,158,56
India,Uttar_Pradesh,Moradabad,"Buddhi Vihar, Moradabad - UPPCB",17-02-2024 00:00:00,28.83526,78.74460,PM2.5,26,149,94
India,Uttar_Pradesh,Moradabad,"Buddhi Vihar, Moradabad - UPPCB",17-02-2024 00:00:00,28.83526,78.74460,NO2,21,24,23
India,Uttar_Pradesh,Moradabad,"Buddhi Vihar, Moradabad - UPPCB",17-02-2024 00:00:00,28.83526,78.74460,CO,22,52,36
India,Uttar_Pradesh,Moradabad,"Buddhi Vihar, Moradabad - UPPCB",17-02-2024 00:00:00,28.83526,78.74460,OZONE,13,34,20
India,Uttar_Pradesh,Moradabad,"Employment Office, Moradabad - UPPCB",17-02-2024 00:00:00,28.88528,78.73880,PM2.5,44,181,105
India,Uttar_Pradesh,Moradabad,"Jigar Colony, Moradabad - UPPCB",17-02-2024 00:00:00,28.856664,78.772638,PM2.5,34,110,75
India,Uttar_Pradesh,Moradabad,"Jigar Colony, Moradabad - UPPCB",17-02-2024 00:00:00,28.856664,78.772638,PM10,64,145,115
India,Uttar_Pradesh,Moradabad,"Kashiram Nagar, Moradabad - UPPCB",17-02-2024 00:00:00,28.849399,78.742362,NH3,4,4,4
India,Uttar_Pradesh,Moradabad,"Transport Nagar, Moradabad - UPPCB",17-02-2024 00:00:00,28.802625,78.753728,NO2,24,54,34
India,Uttar_Pradesh,Moradabad,"Transport Nagar, Moradabad - UPPCB",17-02-2024 00:00:00,28.802625,78.753728,NH3,6,6,6
India,Uttar_Pradesh,Moradabad,"Transport Nagar, Moradabad - UPPCB",17-02-2024 00:00:00,28.802625,78.753728,CO,40,42,41
India,Uttar_Pradesh,Muzaffarnagar,"New Mandi, Muzaffarnagar - UPPCB",17-02-2024 00:00:00,29.4723508,77.7194031,CO,28,82,51
India,Uttar_Pradesh,Noida,"Sector - 125, Noida - UPPCB",17-02-2024 00:00:00,28.5447608,77.3231257,PM2.5,22,272,160
India,Uttar_Pradesh,Noida,"Sector - 125, Noida - UPPCB",17-02-2024 00:00:00,28.5447608,77.3231257,PM10,60,392,160
India,Uttar_Pradesh,Noida,"Sector - 125, Noida - UPPCB",17-02-2024 00:00:00,28.5447608,77.3231257,NH3,1,12,7
India,Uttar_Pradesh,Noida,"Sector - 62, Noida - IMD",17-02-2024 00:00:00,28.6245479,77.3577104,NO2,10,30,18
India,Uttar_Pradesh,Noida,"Sector-1, Noida - UPPCB",17-02-2024 00:00:00,28.5898,77.3101,PM10,85,362,208
India,Uttar_Pradesh,Noida,"Sector-1, Noida - UPPCB",17-02-2024 00:00:00,28.5898,77.3101,NO2,20,134,81
India,Uttar_Pradesh,Noida,"Sector-116, Noida - UPPCB",17-02-2024 00:00:00,28.569230,77.393848,PM2.5,61,348,234
India,Uttar_Pradesh,Prayagraj,"Jhunsi, Prayagraj - UPPCB",17-02-2024 00:00:00,25.425602,81.917152,PM2.5,31,100,52
India,Uttar_Pradesh,Prayagraj,"Jhunsi, Prayagraj - UPPCB",17-02-2024 00:00:00,25.425602,81.917152,NH3,5,5,5
India,Uttar_Pradesh,Prayagraj,"Motilal Nehru NIT, Prayagraj - UPPCB",17-02-2024 00:00:00,25.494,81.863,PM2.5,26,97,56
India,Uttar_Pradesh,Prayagraj,"Motilal Nehru NIT, Prayagraj - UPPCB",17-02-2024 00:00:00,25.494,81.863,NH3,5,8,6
India,Uttar_Pradesh,Prayagraj,"Nagar Nigam, Prayagraj - UPPCB",17-02-2024 00:00:00,25.44919916 ,81.82735986 ,PM2.5,23,331,89
India,Uttar_Pradesh,Prayagraj,"Nagar Nigam, Prayagraj - UPPCB",17-02-2024 00:00:00,25.44919916 ,81.82735986 ,NH3,7,23,12
India,Uttar_Pradesh,Varanasi,"Maldahiya, Varanasi - UPPCB",17-02-2024 00:00:00,25.32393,82.99687,PM2.5,15,58,32
India,Uttar_Pradesh,Varanasi,"Maldahiya, Varanasi - UPPCB",17-02-2024 00:00:00,25.32393,82.99687,PM10,18,69,38
India,Uttar_Pradesh,Varanasi,"Maldahiya, Varanasi - UPPCB",17-02-2024 00:00:00,25.32393,82.99687,SO2,43,64,57
India,Uttar_Pradesh,Varanasi,"Maldahiya, Varanasi - UPPCB",17-02-2024 00:00:00,25.32393,82.99687,OZONE,NA,NA,NA
India,Uttar_Pradesh,Vrindavan,"Omex Eternity, Vrindavan - UPPCB",17-02-2024 00:00:00,27.5714090,77.6557570,PM2.5,28,209,65
India,Uttar_Pradesh,Vrindavan,"Omex Eternity, Vrindavan - UPPCB",17-02-2024 00:00:00,27.5714090,77.6557570,NO2,2,3,3
India,Uttar_Pradesh,Vrindavan,"Omex Eternity, Vrindavan - UPPCB",17-02-2024 00:00:00,27.5714090,77.6557570,NH3,2,5,3
India,Uttarakhand,Rishikesh,"Shivaji Nagar, Rishikesh - UKPCB",17-02-2024 00:00:00,30.075911,78.2859547,PM10,47,98,77
India,West_Bengal,Asansol,"Asansol Court Area, Asansol - WBPCB",17-02-2024 00:00:00,23.685297,86.945968,PM10,66,170,118
India,West_Bengal,Asansol,"Asansol Court Area, Asansol - WBPCB",17-02-2024 00:00:00,23.685297,86.945968,NH3,6,14,9
India,West_Bengal,Asansol,"Asansol Court Area, Asansol - WBPCB",17-02-2024 00:00:00,23.685297,86.945968,SO2,8,20,11
India,West_Bengal,Barrackpore,"SVSPA Campus, Barrackpore - WBPCB",17-02-2024 00:00:00,22.7605581,88.3617589,NO2,15,52,29
India,West_Bengal,Haldia,"Priyambada Housing Estate, Haldia - WBPCB",17-02-2024 00:00:00,22.06047,88.109737,NO2,18,45,26
India,West_Bengal,Howrah,"Belur Math, Howrah - WBPCB",17-02-2024 00:00:00,22.629801,88.352017,NO2,17,44,31
India,West_Bengal,Howrah,"Belur Math, Howrah - WBPCB",17-02-2024 00:00:00,22.629801,88.352017,SO2,13,16,14
India,West_Bengal,Howrah,"Belur Math, Howrah - WBPCB",17-02-2024 00:00:00,22.629801,88.352017,CO,15,72,40
India,West_Bengal,Howrah,"Ghusuri, Howrah - WBPCB",17-02-2024 00:00:00,22.611968,88.347422,OZONE,11,23,19
India,West_Bengal,Howrah,"Padmapukur, Howrah - WBPCB",17-02-2024 00:00:00,22.5687319,88.2797276,OZONE,4,49,22
India,West_Bengal,Kolkata,"Ballygunge, Kolkata - WBPCB",17-02-2024 00:00:00,22.5367507,88.3638022,PM2.5,99,296,183
India,West_Bengal,Kolkata,"Fort William, Kolkata - WBPCB",17-02-2024 00:00:00,22.556640,88.342674,SO2,5,42,22
India,West_Bengal,Kolkata,"Jadavpur, Kolkata - WBPCB",17-02-2024 00:00:00,22.49929,88.36917,CO,25,81,44
India,West_Bengal,Kolkata,"Rabindra Bharati University, Kolkata - WBPCB",17-02-2024 00:00:00,22.627847,88.380669,NO2,21,24,22
India,West_Bengal,Kolkata,"Rabindra Sarobar, Kolkata - WBPCB",17-02-2024 00:00:00,22.51106,88.35142,NH3,4,17,7
India,West_Bengal,Siliguri,"Ward-32 Bapupara, Siliguri - WBPCB",17-02-2024 00:00:00,26.6879226,88.4152495,CO,16,102,59
India,Andhra_Pradesh,Amaravati,"Secretariat, Amaravati - APPCB",17-02-2024 00:00:00,16.5150833,80.5181667,NH3,3,4,3
India,Andhra_Pradesh,Anantapur,"Gulzarpet, Anantapur - APPCB",17-02-2024 00:00:00,14.675886,77.593027,SO2,2,13,4
India,Andhra_Pradesh,Chittoor,"Gangineni Cheruvu, Chittoor - APPCB",17-02-2024 00:00:00,13.204880,79.097889,PM10,25,100,54
India,Andhra_Pradesh,Chittoor,"Gangineni Cheruvu, Chittoor - APPCB",17-02-2024 00:00:00,13.204880,79.097889,OZONE,7,111,78
India,Andhra_Pradesh,Kadapa,"Yerramukkapalli, Kadapa - APPCB",17-02-2024 00:00:00,14.465052,78.824187,PM10,20,78,43
India,Andhra_Pradesh,Rajamahendravaram,"Anand Kala Kshetram, Rajamahendravaram - APPCB",17-02-2024 00:00:00,16.9872867,81.7363176,OZONE,13,55,25
India,Andhra_Pradesh,Tirupati,"Tirumala, Tirupati - APPCB",17-02-2024 00:00:00,13.67,79.35,PM2.5,44,79,57
India,Andhra_Pradesh,Vijayawada,"HB Colony, Vijayawada - APPCB",17-02-2024 00:00:00,16.536107,80.594233,CO,18,25,25
India,Andhra_Pradesh,Vijayawada,"Kanuru, Vijayawada - APPCB",17-02-2024 00:00:00,16.486692,80.699436,CO,37,74,42
India,Andhra_Pradesh,Vijayawada,"Rajiv Nagar, Vijayawada - APPCB",17-02-2024 00:00:00,16.554731,80.649110,SO2,2,20,12
India,Arunachal_Pradesh,Naharlagun,"Naharlagun, Naharlagun - APSPCB",17-02-2024 00:00:00,27.103358,93.679645,SO2,3,3,3
India,Assam,Byrnihat,"Central Academy for SFS, Byrnihat - PCBA",17-02-2024 00:00:00,26.071318,91.87488,OZONE,12,18,13
India,Assam,Guwahati,"IITG, Guwahati - PCBA",17-02-2024 00:00:00,26.2028636,91.70046436,CO,10,29,19
India,Assam,Guwahati,"LGBI Airport, Guwahati - PCBA",17-02-2024 00:00:00,26.10887,91.589544,NH3,1,7,3
India,Assam,Guwahati,"LGBI Airport, Guwahati - PCBA",17-02-2024 00:00:00,26.10887,91.589544,CO,12,98,47
India,Assam,Guwahati,"Railway Colony, Guwahati - PCBA",17-02-2024 00:00:00,26.181742,91.78063,PM2.5,NA,NA,NA
India,Assam,Nagaon,"Christianpatty, Nagaon - PCBA",17-02-2024 00:00:00,26.349082,92.68449,SO2,2,24,10
India,Assam,Nalbari,"Bata Chowk, Nalbari - PCBA",17-02-2024 00:00:00,26.446912,91.439057,NH3,1,8,1
India,Assam,Silchar,"Tarapur, Silchar - PCBA",17-02-2024 00:00:00,24.82827,92.79525,PM10,42,45,43
India,Assam,Silchar,"Tarapur, Silchar - PCBA",17-02-2024 00:00:00,24.82827,92.79525,CO,20,28,23
India,Assam,Silchar,"Tarapur, Silchar - PCBA",17-02-2024 00:00:00,24.82827,92.79525,OZONE,1,15,6
India,Assam,Sivasagar,"Girls College, Sivasagar - PCBA",17-02-2024 00:00:00,26.987634,94.636574,PM10,NA,NA,NA
India,Assam,Sivasagar,"Girls College, Sivasagar - PCBA",17-02-2024 00:00:00,26.987634,94.636574,CO,15,60,37
India,Assam,Sivasagar,"Girls College, Sivasagar - PCBA",17-02-2024 00:00:00,26.987634,94.636574,OZONE,1,9,2
India,Bihar,Araria,"Kharahiya Basti, Araria - BSPCB",17-02-2024 00:00:00,26.146529,87.454184,PM2.5,86,308,201
India,Bihar,Araria,"Kharahiya Basti, Araria - BSPCB",17-02-2024 00:00:00,26.146529,87.454184,NO2,6,8,7
India,Bihar,Arrah,"New DM Office, Arrah - BSPCB",17-02-2024 00:00:00,25.5626095,84.663264,PM2.5,58,200,103
India,Bihar,Arrah,"New DM Office, Arrah - BSPCB",17-02-2024 00:00:00,25.5626095,84.663264,CO,2,21,10
India,Bihar,Arrah,"New DM Office, Arrah - BSPCB",17-02-2024 00:00:00,25.5626095,84.663264,OZONE,14,43,15
India,Bihar,Aurangabad,"Gurdeo Nagar, Aurangabad - BSPCB",17-02-2024 00:00:00,24.75746,84.366208,PM2.5,63,327,138
India,Bihar,Aurangabad,"Gurdeo Nagar, Aurangabad - BSPCB",17-02-2024 00:00:00,24.75746,84.366208,NH3,6,14,9
India,Bihar,Bettiah,"Kamalnath Nagar, Bettiah - BSPCB",17-02-2024 00:00:00,26.80365,84.51954,PM2.5,13,325,62
India,Bihar,Bettiah,"Kamalnath Nagar, Bettiah - BSPCB",17-02-2024 00:00:00,26.80365,84.51954,NO2,13,19,16
India,Bihar,Bettiah,"Kamalnath Nagar, Bettiah - BSPCB",17-02-2024 00:00:00,26.80365,84.51954,NH3,3,3,3
India,Bihar,Bhagalpur,"Mayaganj, Bhagalpur - BSPCB",17-02-2024 00:00:00,25.265194,87.012947,NO2,4,14,9
India,Bihar,Bhagalpur,"Mayaganj, Bhagalpur - BSPCB",17-02-2024 00:00:00,25.265194,87.012947,SO2,11,13,12
India,Bihar,Buxar,"Charitra Van, Buxar - BSPCB (Formerly known as Central Jail)",17-02-2024 00:00:00,25.567520,83.966379,PM2.5,57,315,170
India,Bihar,Gaya,"Collectorate, Gaya - BSPCB",17-02-2024 00:00:00,24.7955,84.9994,NO2,2,5,3
India,Bihar,Gaya,"Kareemganj, Gaya - BSPCB",17-02-2024 00:00:00,24.792403,84.992416,PM10,33,312,98
India,Bihar,Gaya,"SFTI Kusdihra, Gaya - BSPCB",17-02-2024 00:00:00,24.762518,84.982348,PM2.5,36,105,59
India,Bihar,Katihar,"Mirchaibari, Katihar - BSPCB",17-02-2024 00:00:00,25.560083,87.553265,PM2.5,40,163,80
India,Bihar,Katihar,"Mirchaibari, Katihar - BSPCB",17-02-2024 00:00:00,25.560083,87.553265,NH3,1,3,2
India,Bihar,Katihar,"Mirchaibari, Katihar - BSPCB",17-02-2024 00:00:00,25.560083,87.553265,OZONE,21,26,23
India,Bihar,Kishanganj,"SDM Office_Khagra, Kishanganj - BSPCB",17-02-2024 00:00:00,26.0881305,87.93840336,PM10,130,194,165
India,Bihar,Kishanganj,"SDM Office_Khagra, Kishanganj - BSPCB",17-02-2024 00:00:00,26.0881305,87.93840336,CO,4,12,9
India,Bihar,Manguraha,"Forest Rest House, Manguraha - BSPCB",17-02-2024 00:00:00,27.308328,84.531742,PM2.5,63,213,104
India,Bihar,Munger,"Town Hall, Munger - BSPCB",17-02-2024 00:00:00,25.376776,86.471523,PM2.5,22,180,74
India,Bihar,Muzaffarpur,"Buddha Colony, Muzaffarpur - BSPCB",17-02-2024 00:00:00,26.11442,85.39813,NH3,12,34,17
India,Bihar,Muzaffarpur,"MIT-Daudpur Kothi, Muzaffarpur - BSPCB",17-02-2024 00:00:00,26.1403345,85.3650192,PM10,92,181,147
India,Bihar,Muzaffarpur,"MIT-Daudpur Kothi, Muzaffarpur - BSPCB",17-02-2024 00:00:00,26.1403345,85.3650192,NH3,13,21,16
India,Bihar,Patna,"DRM Office Danapur, Patna - BSPCB",17-02-2024 00:00:00,25.586562,85.043586,PM10,73,189,119
India,Bihar,Patna,"Govt. High School Shikarpur, Patna - BSPCB",17-02-2024 00:00:00,25.592539,85.227158,NH3,3,4,3
India,Bihar,Patna,"Muradpur, Patna - BSPCB",17-02-2024 00:00:00,25.619651,85.147382,OZONE,8,64,29
India,Bihar,Patna,"Rajbansi Nagar, Patna - BSPCB",17-02-2024 00:00:00,25.599486,85.113666,CO,6,53,36
India,Bihar,Patna,"Samanpura, Patna - BSPCB",17-02-2024 00:00:00,25.596727,85.085624,NO2,26,80,42
India,Bihar,Saharsa,"Police Line, Saharsa - BSPCB",17-02-2024 00:00:00,25.892357,86.590325,PM2.5,NA,NA,NA
India,Bihar,Saharsa,"Police Line, Saharsa - BSPCB",17-02-2024 00:00:00,25.892357,86.590325,PM10,NA,NA,NA
India,Bihar,Saharsa,"Police Line, Saharsa - BSPCB",17-02-2024 00:00:00,25.892357,86.590325,NH3,9,9,9
India,Bihar,Saharsa,"Police Line, Saharsa - BSPCB",17-02-2024 00:00:00,25.892357,86.590325,SO2,21,93,44
India,Bihar,Saharsa,"Police Line, Saharsa - BSPCB",17-02-2024 00:00:00,25.892357,86.590325,OZONE,12,56,28
India,Bihar,Sasaram,"Dada Peer, Sasaram - BSPCB",17-02-2024 00:00:00,24.952822,84.002396,PM2.5,8,252,84
India,Bihar,Sasaram,"Dada Peer, Sasaram - BSPCB",17-02-2024 00:00:00,24.952822,84.002396,PM10,15,156,83
India,Bihar,Sasaram,"Dada Peer, Sasaram - BSPCB",17-02-2024 00:00:00,24.952822,84.002396,CO,66,110,99
India,Bihar,Siwan,"Chitragupta Nagar, Siwan - BSPCB",17-02-2024 00:00:00,26.2271665,84.3570427,NO2,11,62,24
India,Bihar,Siwan,"Chitragupta Nagar, Siwan - BSPCB",17-02-2024 00:00:00,26.2271665,84.3570427,NH3,1,8,3
India,Chandigarh,Chandigarh,"Sector 22, Chandigarh - CPCC",17-02-2024 00:00:00,30.735567,76.775714,OZONE,3,191,77
India,Chandigarh,Chandigarh,"Sector-25, Chandigarh - CPCC",17-02-2024 00:00:00,30.751462,76.762879,PM10,132,167,147
India,Chandigarh,Chandigarh,"Sector-25, Chandigarh - CPCC",17-02-2024 00:00:00,30.751462,76.762879,NH3,19,45,28
India,Chhattisgarh,Bhilai,"Civic Center, Bhilai - Bhilai Steel Plant",17-02-2024 00:00:00,21.185571,81.343175,SO2,7,13,10
India,Chhattisgarh,Bhilai,"Hathkhoj, Bhilai - CECB",17-02-2024 00:00:00,21.224231,81.408350,PM2.5,54,98,76
India,Chhattisgarh,Bhilai,"Hathkhoj, Bhilai - CECB",17-02-2024 00:00:00,21.224231,81.408350,OZONE,11,26,19
India,Chhattisgarh,Bilaspur,"Mangala, Bilaspur - NTPC",17-02-2024 00:00:00,22.08815,82.13737,NO2,18,24,20
India,Chhattisgarh,Chhal,"Nawapara SECL Colony, Chhal - CECB",17-02-2024 00:00:00,22.118125,83.140608,PM10,39,146,65
India,Chhattisgarh,Chhal,"Nawapara SECL Colony, Chhal - CECB",17-02-2024 00:00:00,22.118125,83.140608,NO2,12,36,20
India,Chhattisgarh,Korba,"Rampur, Korba - CECB",17-02-2024 00:00:00,22.368195,82.746431,PM2.5,26,50,38
India,Chhattisgarh,Korba,"Rampur, Korba - CECB",17-02-2024 00:00:00,22.368195,82.746431,PM10,29,497,101
India,Chhattisgarh,Korba,"Rampur, Korba - CECB",17-02-2024 00:00:00,22.368195,82.746431,NH3,2,9,4
India,Chhattisgarh,Korba,"Urja Nagar, Korba - CECB",17-02-2024 00:00:00,22.348441,82.549611,PM2.5,33,76,56
India,Chhattisgarh,Korba,"Urja Nagar, Korba - CECB",17-02-2024 00:00:00,22.348441,82.549611,NH3,2,8,6
India,Chhattisgarh,Kunjemura,"OP Jindal School, Kunjemura - CECB",17-02-2024 00:00:00,22.126650,83.483212,NO2,28,140,62
India,Chhattisgarh,Kunjemura,"OP Jindal School, Kunjemura - CECB",17-02-2024 00:00:00,22.126650,83.483212,SO2,6,18,11
India,Chhattisgarh,Kunjemura,"OP Jindal School, Kunjemura - CECB",17-02-2024 00:00:00,22.126650,83.483212,CO,30,64,37
India,Chhattisgarh,Milupara,"Govt. Higher Secondary School, Milupara - CECB",17-02-2024 00:00:00,22.1910172,83.5197009,PM10,NA,NA,NA
India,Chhattisgarh,Milupara,"Govt. Higher Secondary School, Milupara - CECB",17-02-2024 00:00:00,22.1910172,83.5197009,NH3,NA,NA,NA
India,Chhattisgarh,Milupara,"Govt. Higher Secondary School, Milupara - CECB",17-02-2024 00:00:00,22.1910172,83.5197009,OZONE,10,65,31
India,Chhattisgarh,Raipur,"AIIMS, Raipur - CECB",17-02-2024 00:00:00,21.258815,81.578979,CO,35,64,39
India,Chhattisgarh,Raipur,"Bhatagaon New ISBT, Raipur - CECB",17-02-2024 00:00:00,21.219665,81.630094,PM2.5,39,91,55
India,Chhattisgarh,Raipur,"Bhatagaon New ISBT, Raipur - CECB",17-02-2024 00:00:00,21.219665,81.630094,SO2,NA,NA,NA
India,Chhattisgarh,Raipur,"Bhatagaon New ISBT, Raipur - CECB",17-02-2024 00:00:00,21.219665,81.630094,OZONE,3,9,4
India,Chhattisgarh,Raipur,"Krishak Nagar, Raipur - CECB",17-02-2024 00:00:00,21.237755,81.705301,PM2.5,NA,NA,NA
India,Chhattisgarh,Raipur,"Krishak Nagar, Raipur - CECB",17-02-2024 00:00:00,21.237755,81.705301,SO2,NA,NA,NA
India,Chhattisgarh,Raipur,"Siltara Phase-II, Raipur - CECB",17-02-2024 00:00:00,21.371751,81.664929,NH3,2,3,2
India,Chhattisgarh,Raipur,"Siltara Phase-II, Raipur - CECB",17-02-2024 00:00:00,21.371751,81.664929,OZONE,3,24,9
India,Chhattisgarh,Tumidih,"OP Jindal Industrial Park, Tumidih - CECB",17-02-2024 00:00:00,22.06631475,83.33820077,PM2.5,NA,NA,NA
India,Chhattisgarh,Tumidih,"OP Jindal Industrial Park, Tumidih - CECB",17-02-2024 00:00:00,22.06631475,83.33820077,SO2,NA,NA,NA
India,Delhi,Delhi,"Alipur, Delhi - DPCC",17-02-2024 00:00:00,28.815329,77.153010,PM10,56,265,166
India,Delhi,Delhi,"Alipur, Delhi - DPCC",17-02-2024 00:00:00,28.815329,77.153010,NH3,6,13,10
India,Delhi,Delhi,"Alipur, Delhi - DPCC",17-02-2024 00:00:00,28.815329,77.153010,CO,34,84,58
India,Delhi,Delhi,"Anand Vihar, Delhi - DPCC",17-02-2024 00:00:00,28.647622,77.3158090,CO,18,136,117
India,Delhi,Delhi,"Ashok Vihar, Delhi - DPCC",17-02-2024 00:00:00,28.695381,77.181665,SO2,26,56,32
India,Delhi,Delhi,"CRRI Mathura Road, Delhi - IMD",17-02-2024 00:00:00,28.5512005,77.2735737,PM2.5,60,329,224
India,Delhi,Delhi,"DTU, Delhi - CPCB",17-02-2024 00:00:00,28.7500499,77.1112615,PM10,98,395,231
India,Delhi,Delhi,"Dr. Karni Singh Shooting Range, Delhi - DPCC",17-02-2024 00:00:00,28.498571,77.264840,PM2.5,75,338,255
India,Delhi,Delhi,"Dr. Karni Singh Shooting Range, Delhi - DPCC",17-02-2024 00:00:00,28.498571,77.264840,PM10,92,299,195
India,Delhi,Delhi,"Dr. Karni Singh Shooting Range, Delhi - DPCC",17-02-2024 00:00:00,28.498571,77.264840,NH3,5,9,7
India,Delhi,Delhi,"Dwarka-Sector 8, Delhi - DPCC ",17-02-2024 00:00:00,28.5710274,77.0719006,PM10,109,500,275
India,Delhi,Delhi,"IGI Airport (T3), Delhi - IMD",17-02-2024 00:00:00,28.5627763,77.1180053,OZONE,11,72,24
India,Delhi,Delhi,"IHBAS, Dilshad Garden, Delhi - CPCB",17-02-2024 00:00:00,28.6811736,77.3025234,CO,14,69,43
India,Delhi,Delhi,"IHBAS, Dilshad Garden, Delhi - CPCB",17-02-2024 00:00:00,28.6811736,77.3025234,OZONE,11,47,21
India,Delhi,Delhi,"Jahangirpuri, Delhi - DPCC",17-02-2024 00:00:00,28.732820,77.170633,SO2,11,26,17
India,Delhi,Delhi,"Jawaharlal Nehru Stadium, Delhi - DPCC",17-02-2024 00:00:00,28.580280,77.233829,SO2,16,46,25
India,Delhi,Delhi,"Lodhi Road, Delhi - IITM",17-02-2024 00:00:00,28.588333,77.221667,NO2,67,138,92
India,Delhi,Delhi,"Lodhi Road, Delhi - IITM",17-02-2024 00:00:00,28.588333,77.221667,NH3,8,13,10
India,Delhi,Delhi,"Lodhi Road, Delhi - IITM",17-02-2024 00:00:00,28.588333,77.221667,OZONE,15,18,16
India,Delhi,Delhi,"Lodhi Road, Delhi - IMD",17-02-2024 00:00:00,28.5918245,77.2273074,CO,46,101,70
India,Delhi,Delhi,"Mandir Marg, Delhi - DPCC",17-02-2024 00:00:00,28.636429,77.201067,NO2,69,132,111
India,Delhi,Delhi,"Mundka, Delhi - DPCC",17-02-2024 00:00:00,28.684678,77.076574,PM2.5,67,430,295
India,Delhi,Delhi,"NSIT Dwarka, Delhi - CPCB",17-02-2024 00:00:00,28.60909,77.0325413,NO2,44,66,51
India,Delhi,Delhi,"NSIT Dwarka, Delhi - CPCB",17-02-2024 00:00:00,28.60909,77.0325413,SO2,7,15,12
India,Delhi,Delhi,"Najafgarh, Delhi - DPCC",17-02-2024 00:00:00,28.570173,76.933762,OZONE,19,227,97
India,Delhi,Delhi,"Narela, Delhi - DPCC",17-02-2024 00:00:00,28.822836,77.101981,NO2,17,112,50
India,Delhi,Delhi,"Nehru Nagar, Delhi - DPCC",17-02-2024 00:00:00,28.567890,77.250515,OZONE,1,265,53
India,Delhi,Delhi,"New Moti Bagh, Delhi - MHUA",17-02-2024 00:00:00,28.57834,77.18400,CO,18,124,68
India,Delhi,Delhi,"Okhla Phase-2, Delhi - DPCC",17-02-2024 00:00:00,28.530785,77.271255,SO2,3,14,8
India,Delhi,Delhi,"Punjabi Bagh, Delhi - DPCC",17-02-2024 00:00:00,28.674045,77.131023,NO2,46,98,68
India,Delhi,Delhi,"Punjabi Bagh, Delhi - DPCC",17-02-2024 00:00:00,28.674045,77.131023,OZONE,3,36,13
India,Delhi,Delhi,"Pusa, Delhi - DPCC",17-02-2024 00:00:00,28.639652,77.146275,PM10,138,434,251
India,Delhi,Delhi,"Pusa, Delhi - IMD",17-02-2024 00:00:00,28.636110,77.173332,PM2.5,NA,NA,NA
India,Delhi,Delhi,"Pusa, Delhi - IMD",17-02-2024 00:00:00,28.636110,77.173332,CO,62,118,95
India,Delhi,Delhi,"R K Puram, Delhi - DPCC",17-02-2024 00:00:00,28.563262,77.186937,CO,20,149,97
India,Delhi,Delhi,"Rohini, Delhi - DPCC",17-02-2024 00:00:00,28.732528,77.119920,PM2.5,64,403,290
India,Delhi,Delhi,"Sirifort, Delhi - CPCB",17-02-2024 00:00:00,28.5504249,77.2159377,CO,20,115,63
India,Delhi,Delhi,"Sonia Vihar, Delhi - DPCC",17-02-2024 00:00:00,28.710508,77.249485,NH3,4,12,7
India,Gujarat,Ahmedabad,"Gyaspur, Ahmedabad - IITM",17-02-2024 00:00:00,22.977134,72.553024,SO2,3,6,4
India,Gujarat,Ahmedabad,"Gyaspur, Ahmedabad - IITM",17-02-2024 00:00:00,22.977134,72.553024,CO,28,30,29
India,Gujarat,Ahmedabad,"Maninagar, Ahmedabad - GPCB",17-02-2024 00:00:00,23.002657,72.591912,NO2,16,47,23
India,Gujarat,Ahmedabad,"SAC ISRO Bopal, Ahmedabad - IITM",17-02-2024 00:00:00,23.041137,72.456691,OZONE,24,37,30
India,Gujarat,Ahmedabad,"SVPI Airport Hansol, Ahmedabad - IITM",17-02-2024 00:00:00,23.076793,72.627874,OZONE,1,24,12
India,Gujarat,Gandhinagar,"IIPHG Lekawada, Gandhinagar - IITM",17-02-2024 00:00:00,23.243639,72.68994,PM2.5,64,144,92
India,Gujarat,Gandhinagar,"IIPHG Lekawada, Gandhinagar - IITM",17-02-2024 00:00:00,23.243639,72.68994,SO2,13,13,13
India,Gujarat,Gandhinagar,"Sector-10, Gandhinagar - GPCB",17-02-2024 00:00:00,23.221714,72.654328,PM10,74,126,98
India,Gujarat,Vapi,"Phase-1 GIDC, Vapi - GPCB",17-02-2024 00:00:00,20.362421,72.918013,SO2,45,47,46
India,Gujarat,Vatva,"Phase-4 GIDC, Vatva - GPCB",17-02-2024 00:00:00,22.969611,72.643500,PM2.5,35,145,81
India,Gujarat,Vatva,"Phase-4 GIDC, Vatva - GPCB",17-02-2024 00:00:00,22.969611,72.643500,SO2,17,18,17
India,Gujarat,Vatva,"Phase-4 GIDC, Vatva - GPCB",17-02-2024 00:00:00,22.969611,72.643500,OZONE,5,85,6
India,Haryana,Ambala,"Patti Mehar, Ambala - HSPCB",17-02-2024 00:00:00,30.379589,76.778328,PM10,NA,NA,NA
India,Haryana,Bahadurgarh,"Arya Nagar, Bahadurgarh - HSPCB",17-02-2024 00:00:00,28.6701,76.9254,PM2.5,39,306,215
India,Haryana,Bahadurgarh,"Arya Nagar, Bahadurgarh - HSPCB",17-02-2024 00:00:00,28.6701,76.9254,NO2,33,39,36
India,Haryana,Bahadurgarh,"Arya Nagar, Bahadurgarh - HSPCB",17-02-2024 00:00:00,28.6701,76.9254,SO2,5,22,12
India,Haryana,Ballabgarh,"Nathu Colony, Ballabgarh - HSPCB",17-02-2024 00:00:00,28.3419248,77.319699,OZONE,6,30,8
India,Haryana,Bhiwani,"H.B. Colony, Bhiwani - HSPCB",17-02-2024 00:00:00,28.806223,76.141105,CO,25,60,31
India,Haryana,Charkhi Dadri,"Mini Secretariat, Charkhi Dadri - HSPCB",17-02-2024 00:00:00,28.593883,76.270653,NH3,5,8,6
India,Haryana,Faridabad,"New Industrial Town, Faridabad - HSPCB",17-02-2024 00:00:00,28.39072,77.30059,PM10,117,246,189
India,Haryana,Faridabad,"New Industrial Town, Faridabad - HSPCB",17-02-2024 00:00:00,28.39072,77.30059,OZONE,28,237,102
India,Haryana,Faridabad,"Sector 30, Faridabad - HSPCB",17-02-2024 00:00:00,28.4417,77.3217,NH3,9,9,9
India,Haryana,Gurugram,"Teri Gram, Gurugram - HSPCB",17-02-2024 00:00:00,28.4275,77.1465,PM2.5,162,284,206
India,Haryana,Gurugram,"Vikas Sadan, Gurugram - HSPCB",17-02-2024 00:00:00,28.4501238,77.0263051,NO2,5,22,13
India,Haryana,Gurugram,"Vikas Sadan, Gurugram - HSPCB",17-02-2024 00:00:00,28.4501238,77.0263051,SO2,18,33,25
India,Haryana,Hisar,"Urban Estate-II, Hisar - HSPCB",17-02-2024 00:00:00,29.140560,75.744941,OZONE,28,177,89
India,Haryana,Jind,"Police Lines, Jind - HSPCB",17-02-2024 00:00:00,29.307814,76.337619,PM10,76,148,117
India,Haryana,Karnal,"Sector-12, Karnal - HSPCB",17-02-2024 00:00:00,29.695300,77.002700,PM2.5,45,140,78
India,Haryana,Karnal,"Sector-12, Karnal - HSPCB",17-02-2024 00:00:00,29.695300,77.002700,NH3,10,13,11
India,Haryana,Karnal,"Sector-12, Karnal - HSPCB",17-02-2024 00:00:00,29.695300,77.002700,SO2,12,13,12
India,Haryana,Kurukshetra,"Sector-7, Kurukshetra - HSPCB",17-02-2024 00:00:00,29.966942,76.875879,PM2.5,80,212,128
India,Haryana,Kurukshetra,"Sector-7, Kurukshetra - HSPCB",17-02-2024 00:00:00,29.966942,76.875879,CO,13,44,25
India,Haryana,Mandikhera,"General Hospital, Mandikhera - HSPCB",17-02-2024 00:00:00,27.9002,76.9938,NH3,18,21,19
India,Haryana,Mandikhera,"General Hospital, Mandikhera - HSPCB",17-02-2024 00:00:00,27.9002,76.9938,CO,22,162,36
India,Haryana,Manesar,"Sector-2 IMT, Manesar - HSPCB",17-02-2024 00:00:00,28.360699,76.936090,PM10,59,172,118
India,Haryana,Palwal,"Shyam Nagar, Palwal - HSPCB",17-02-2024 00:00:00,28.1485564,77.3320667,NO2,23,24,24
India,Haryana,Palwal,"Shyam Nagar, Palwal - HSPCB",17-02-2024 00:00:00,28.1485564,77.3320667,NH3,8,9,9
India,Haryana,Sirsa,"F-Block, Sirsa - HSPCB",17-02-2024 00:00:00,29.536400,75.015800,PM10,36,97,69
India,Haryana,Sirsa,"F-Block, Sirsa - HSPCB",17-02-2024 00:00:00,29.536400,75.015800,NO2,10,10,10
India,Haryana,Sirsa,"F-Block, Sirsa - HSPCB",17-02-2024 00:00:00,29.536400,75.015800,NH3,12,13,13
India,Haryana,Sirsa,"F-Block, Sirsa - HSPCB",17-02-2024 00:00:00,29.536400,75.015800,OZONE,20,114,60
India,Haryana,Sonipat,"Murthal, Sonipat - HSPCB",17-02-2024 00:00:00,29.027200,77.062100,NO2,37,45,40
India,Haryana,Sonipat,"Murthal, Sonipat - HSPCB",17-02-2024 00:00:00,29.027200,77.062100,NH3,7,10,9
India,Haryana,Sonipat,"Murthal, Sonipat - HSPCB",17-02-2024 00:00:00,29.027200,77.062100,OZONE,17,36,25
India,Haryana,Yamuna Nagar,"Gobind Pura, Yamuna Nagar - HSPCB",17-02-2024 00:00:00,30.1480566,77.2893471,PM2.5,114,404,239
India,Haryana,Yamuna Nagar,"Gobind Pura, Yamuna Nagar - HSPCB",17-02-2024 00:00:00,30.1480566,77.2893471,SO2,3,106,21
India,Jammu_and_Kashmir,Srinagar,"Rajbagh, Srinagar - JKSPCB",17-02-2024 00:00:00,34.066206,74.819820,SO2,NA,NA,NA
India,Jammu_and_Kashmir,Srinagar,"Rajbagh, Srinagar - JKSPCB",17-02-2024 00:00:00,34.066206,74.819820,OZONE,12,12,12
India,Jharkhand,Dhanbad,"Kalakusuma, Dhanbad - DMC",17-02-2024 00:00:00,23.811548,86.481238,SO2,NA,NA,NA
India,Jharkhand,Dhanbad,"Kalakusuma, Dhanbad - DMC",17-02-2024 00:00:00,23.811548,86.481238,CO,NA,NA,NA
India,Jharkhand,Dhanbad,"Sardar Patel Nagar, Dhanbad - JSPCB",17-02-2024 00:00:00,23.80569,86.44268,NO2,2,271,186
India,Jharkhand,Dhanbad,"Sardar Patel Nagar, Dhanbad - JSPCB",17-02-2024 00:00:00,23.80569,86.44268,SO2,7,108,38
India,Karnataka,Bagalkot,"Vidayagiri, Bagalkot - KSPCB",17-02-2024 00:00:00,16.172806,75.659694,SO2,NA,NA,NA
India,Karnataka,Bengaluru,"BTM Layout, Bengaluru - CPCB",17-02-2024 00:00:00,12.9135218,77.5950804,SO2,11,13,12
India,Karnataka,Bengaluru,"Bapuji Nagar, Bengaluru - KSPCB",17-02-2024 00:00:00,12.951913,77.539784,NO2,9,12,11
India,Karnataka,Bengaluru,"City Railway Station, Bengaluru - KSPCB",17-02-2024 00:00:00,12.9756843,77.5660749,CO,56,106,76
India,Karnataka,Bengaluru,"Hebbal, Bengaluru - KSPCB",17-02-2024 00:00:00,13.029152,77.585901,PM10,NA,NA,NA
India,Karnataka,Bengaluru,"Hebbal, Bengaluru - KSPCB",17-02-2024 00:00:00,13.029152,77.585901,NO2,NA,NA,NA
India,Karnataka,Bengaluru,"Hebbal, Bengaluru - KSPCB",17-02-2024 00:00:00,13.029152,77.585901,SO2,NA,NA,NA
India,Karnataka,Bengaluru,"Jayanagar 5th Block, Bengaluru - KSPCB",17-02-2024 00:00:00,12.920984,77.584908,SO2,19,27,24
India,Karnataka,Bengaluru,"Kasturi Nagar, Bengaluru - KSPCB",17-02-2024 00:00:00,13.003872,77.664217,PM10,95,148,116
India,Karnataka,Bengaluru,"Kasturi Nagar, Bengaluru - KSPCB",17-02-2024 00:00:00,13.003872,77.664217,NH3,3,4,4
India,Karnataka,Bengaluru,"Sanegurava Halli, Bengaluru - KSPCB",17-02-2024 00:00:00,12.990328,77.5431385,NO2,21,27,23
India,Karnataka,Bengaluru,"Sanegurava Halli, Bengaluru - KSPCB",17-02-2024 00:00:00,12.990328,77.5431385,CO,10,36,20
India,Karnataka,Bengaluru,"Shivapura_Peenya, Bengaluru - KSPCB",17-02-2024 00:00:00,13.0246342,77.5080115,PM2.5,34,141,64
India,Karnataka,Bengaluru,"Shivapura_Peenya, Bengaluru - KSPCB",17-02-2024 00:00:00,13.0246342,77.5080115,NO2,15,16,16
India,Karnataka,Bengaluru,"Shivapura_Peenya, Bengaluru - KSPCB",17-02-2024 00:00:00,13.0246342,77.5080115,NH3,4,4,4
India,Karnataka,Bengaluru,"Shivapura_Peenya, Bengaluru - KSPCB",17-02-2024 00:00:00,13.0246342,77.5080115,SO2,7,25,13
India,Karnataka,Bengaluru,"Silk Board, Bengaluru - KSPCB",17-02-2024 00:00:00,12.917348,77.622813,PM10,67,112,91
India,Karnataka,Bengaluru,"Silk Board, Bengaluru - KSPCB",17-02-2024 00:00:00,12.917348,77.622813,NO2,23,28,25
India,Karnataka,Bidar,"Naubad, Bidar - KSPCB",17-02-2024 00:00:00,17.930306,77.482194,NO2,7,8,8
India,Karnataka,Bidar,"Naubad, Bidar - KSPCB",17-02-2024 00:00:00,17.930306,77.482194,OZONE,21,57,41
India,Karnataka,Chamarajanagar,"Urban, Chamarajanagar - KSPCB",17-02-2024 00:00:00,11.55358,76.55521,PM2.5,25,51,33
India,Karnataka,Chamarajanagar,"Urban, Chamarajanagar - KSPCB",17-02-2024 00:00:00,11.55358,76.55521,NH3,2,3,2
India,Karnataka,Chamarajanagar,"Urban, Chamarajanagar - KSPCB",17-02-2024 00:00:00,11.55358,76.55521,CO,22,32,24
India,Karnataka,Chikkaballapur,"Chikkaballapur Rural, Chikkaballapur - KSPCB",17-02-2024 00:00:00,13.428828,77.731418,PM2.5,39,92,64
India,Karnataka,Chikkamagaluru,"Kalyana Nagara, Chikkamagaluru - KSPCB",17-02-2024 00:00:00,13.328028,75.797056,NO2,17,31,22
India,Karnataka,Chikkamagaluru,"Kalyana Nagara, Chikkamagaluru - KSPCB",17-02-2024 00:00:00,13.328028,75.797056,SO2,2,5,4
India,Karnataka,Chikkamagaluru,"Kalyana Nagara, Chikkamagaluru - KSPCB",17-02-2024 00:00:00,13.328028,75.797056,OZONE,19,65,46
India,Karnataka,Davanagere,"Devaraj Urs Badavane, Davanagere - KSPCB",17-02-2024 00:00:00,14.475800,75.905200,NO2,9,13,11
India,Karnataka,Davanagere,"Devaraj Urs Badavane, Davanagere - KSPCB",17-02-2024 00:00:00,14.475800,75.905200,NH3,1,1,1
India,Karnataka,Dharwad,"Kalabhavan, Dharwad - KSPCB",17-02-2024 00:00:00,15.459706,75.008381,PM10,54,109,79
India,Karnataka,Dharwad,"Kalabhavan, Dharwad - KSPCB",17-02-2024 00:00:00,15.459706,75.008381,NH3,2,3,3
India,Karnataka,Hassan,"B.Katihalli, Hassan - KSPCB",17-02-2024 00:00:00,13.008556,76.125258,OZONE,5,33,16
