country,state,city,station,last_update,latitude,longitude,pollutant_id,pollutant_min,pollutant_max,pollutant_avg
India,Andhra_Pradesh,Amaravati,"Secretariat, Amaravati - APPCB",12-03-2024 23:00:00,16.5150833,80.5181667,OZONE,15,68,50
India,Andhra_Pradesh,Kadapa,"Yerramukkapalli, Kadapa - APPCB",12-03-2024 23:00:00,14.465052,78.824187,PM10,23,66,47
India,Andhra_Pradesh,Rajamahendravaram,"Anand Kala Kshetram, Rajamahendravaram - APPCB",12-03-2024 23:00:00,16.9872867,81.7363176,PM2.5,38,97,56
India,Andhra_Pradesh,Rajamahendravaram,"Anand Kala Kshetram, Rajamahendravaram - APPCB",12-03-2024 23:00:00,16.9872867,81.7363176,SO2,11,14,12
India,Andhra_Pradesh,Tirupati,"Tirumala, Tirupati - APPCB",12-03-2024 23:00:00,13.67,79.35,PM2.5,48,96,71
India,Andhra_Pradesh,Tirupati,"Tirumala, Tirupati - APPCB",12-03-2024 23:00:00,13.67,79.35,SO2,3,16,10
India,Andhra_Pradesh,Vijayawada,"HB Colony, Vijayawada - APPCB",12-03-2024 23:00:00,16.536107,80.594233,SO2,3,4,4
India,Andhra_Pradesh,Vijayawada,"HB Colony, Vijayawada - APPCB",12-03-2024 23:00:00,16.536107,80.594233,OZONE,11,33,21
India,Andhra_Pradesh,Vijayawada,"Rajiv Gandhi Park, Vijayawada - APPCB",12-03-2024 23:00:00,16.509717,80.612222,PM2.5,44,72,58
India,Andhra_Pradesh,Visakhapatnam,"GVM Corporation, Visakhapatnam - APPCB",12-03-2024 23:00:00,17.72,83.3,NO2,31,74,50
India,Andhra_Pradesh,Visakhapatnam,"GVM Corporation, Visakhapatnam - APPCB",12-03-2024 23:00:00,17.72,83.3,OZONE,8,12,10
India,Arunachal_Pradesh,Naharlagun,"Naharlagun, Naharlagun - APSPCB",12-03-2024 23:00:00,27.103358,93.679645,PM10,NA,NA,NA
India,Assam,Byrnihat,"Central Academy for SFS, Byrnihat - PCBA",12-03-2024 23:00:00,26.071318,91.87488,OZONE,10,15,14
India,Assam,Guwahati,"IITG, Guwahati - PCBA",12-03-2024 23:00:00,26.2028636,91.70046436,PM10,NA,NA,NA
India,Assam,Guwahati,"IITG, Guwahati - PCBA",12-03-2024 23:00:00,26.2028636,91.70046436,NO2,NA,NA,NA
India,Assam,Guwahati,"LGBI Airport, Guwahati - PCBA",12-03-2024 23:00:00,26.10887,91.589544,PM10,135,421,221
India,Assam,Guwahati,"Pan Bazaar, Guwahati - PCBA",12-03-2024 23:00:00,26.187500,91.744194,PM2.5,80,311,208
India,Assam,Guwahati,"Pan Bazaar, Guwahati - PCBA",12-03-2024 23:00:00,26.187500,91.744194,CO,26,86,47
India,Assam,Nagaon,"Christianpatty, Nagaon - PCBA",12-03-2024 23:00:00,26.349082,92.68449,PM10,111,328,146
India,Assam,Nagaon,"Christianpatty, Nagaon - PCBA",12-03-2024 23:00:00,26.349082,92.68449,NO2,19,112,33
India,Assam,Nalbari,"Bata Chowk, Nalbari - PCBA",12-03-2024 23:00:00,26.446912,91.439057,OZONE,1,167,123
India,Assam,Sivasagar,"Girls College, Sivasagar - PCBA",12-03-2024 23:00:00,26.987634,94.636574,CO,24,46,26
India,Assam,Sivasagar,"Girls College, Sivasagar - PCBA",12-03-2024 23:00:00,26.987634,94.636574,OZONE,1,17,7
India,Bihar,Aurangabad,"Gurdeo Nagar, Aurangabad - BSPCB",12-03-2024 23:00:00,24.75746,84.366208,PM2.5,NA,NA,NA
India,Bihar,Bettiah,"Kamalnath Nagar, Bettiah - BSPCB",12-03-2024 23:00:00,26.80365,84.51954,NO2,20,47,41
India,Bihar,Bhagalpur,"Mayaganj, Bhagalpur - BSPCB",12-03-2024 23:00:00,25.265194,87.012947,NH3,6,9,8
India,Bihar,Bihar Sharif,"D M Colony, Bihar Sharif - BSPCB",12-03-2024 23:00:00,25.204762,85.514960,PM2.5,43,304,103
India,Bihar,Bihar Sharif,"D M Colony, Bihar Sharif - BSPCB",12-03-2024 23:00:00,25.204762,85.514960,NH3,2,2,2
India,Bihar,Bihar Sharif,"D M Colony, Bihar Sharif - BSPCB",12-03-2024 23:00:00,25.204762,85.514960,CO,6,53,27
India,Bihar,Buxar,"Charitra Van, Buxar - BSPCB (Formerly known as Central Jail)",12-03-2024 23:00:00,25.567520,83.966379,NH3,1,3,2
India,Bihar,Buxar,"Charitra Van, Buxar - BSPCB (Formerly known as Central Jail)",12-03-2024 23:00:00,25.567520,83.966379,SO2,10,19,17
India,Bihar,Gaya,"Collectorate, Gaya - BSPCB",12-03-2024 23:00:00,24.7955,84.9994,NO2,1,3,2
India,Bihar,Gaya,"Kareemganj, Gaya - BSPCB",12-03-2024 23:00:00,24.792403,84.992416,SO2,6,10,8
India,Bihar,Gaya,"Kareemganj, Gaya - BSPCB",12-03-2024 23:00:00,24.792403,84.992416,CO,8,113,57
India,Bihar,Gaya,"SFTI Kusdihra, Gaya - BSPCB",12-03-2024 23:00:00,24.762518,84.982348,PM2.5,25,139,67
India,Bihar,Katihar,"Mirchaibari, Katihar - BSPCB",12-03-2024 23:00:00,25.560083,87.553265,PM10,79,161,111
India,Bihar,Katihar,"Mirchaibari, Katihar - BSPCB",12-03-2024 23:00:00,25.560083,87.553265,CO,4,88,36
India,Bihar,Katihar,"Mirchaibari, Katihar - BSPCB",12-03-2024 23:00:00,25.560083,87.553265,OZONE,18,25,20
India,Bihar,Kishanganj,"SDM Office_Khagra, Kishanganj - BSPCB",12-03-2024 23:00:00,26.0881305,87.93840336,PM10,93,305,181
India,Bihar,Manguraha,"Forest Rest House, Manguraha - BSPCB",12-03-2024 23:00:00,27.308328,84.531742,PM10,37,165,86
India,Bihar,Manguraha,"Forest Rest House, Manguraha - BSPCB",12-03-2024 23:00:00,27.308328,84.531742,NO2,8,17,12
India,Bihar,Munger,"Town Hall, Munger - BSPCB",12-03-2024 23:00:00,25.376776,86.471523,NO2,7,10,9
India,Bihar,Munger,"Town Hall, Munger - BSPCB",12-03-2024 23:00:00,25.376776,86.471523,NH3,1,2,2
India,Bihar,Munger,"Town Hall, Munger - BSPCB",12-03-2024 23:00:00,25.376776,86.471523,OZONE,9,307,38
India,Bihar,Muzaffarpur,"Buddha Colony, Muzaffarpur - BSPCB",12-03-2024 23:00:00,26.11442,85.39813,CO,15,32,15
India,Bihar,Muzaffarpur,"MIT-Daudpur Kothi, Muzaffarpur - BSPCB",12-03-2024 23:00:00,26.1403345,85.3650192,SO2,18,21,20
India,Bihar,Patna,"DRM Office Danapur, Patna - BSPCB",12-03-2024 23:00:00,25.586562,85.043586,NO2,14,78,41
India,Bihar,Patna,"DRM Office Danapur, Patna - BSPCB",12-03-2024 23:00:00,25.586562,85.043586,NH3,2,3,3
India,Bihar,Patna,"IGSC Planetarium Complex, Patna - BSPCB",12-03-2024 23:00:00,25.610369,85.132568,PM2.5,67,236,139
India,Bihar,Patna,"Muradpur, Patna - BSPCB",12-03-2024 23:00:00,25.619651,85.147382,NO2,6,22,16
India,Bihar,Patna,"Muradpur, Patna - BSPCB",12-03-2024 23:00:00,25.619651,85.147382,NH3,2,5,4
India,Bihar,Patna,"Rajbansi Nagar, Patna - BSPCB",12-03-2024 23:00:00,25.599486,85.113666,PM10,106,165,142
India,Bihar,Patna,"Rajbansi Nagar, Patna - BSPCB",12-03-2024 23:00:00,25.599486,85.113666,SO2,1,16,8
India,Bihar,Patna,"Samanpura, Patna - BSPCB",12-03-2024 23:00:00,25.596727,85.085624,NH3,3,8,5
India,Bihar,Patna,"Samanpura, Patna - BSPCB",12-03-2024 23:00:00,25.596727,85.085624,CO,73,126,100
India,Bihar,Rajgir,"Dangi Tola, Rajgir - BSPCB",12-03-2024 23:00:00,25.03280,85.41948,PM2.5,37,349,74
India,Bihar,Rajgir,"Dangi Tola, Rajgir - BSPCB",12-03-2024 23:00:00,25.03280,85.41948,NO2,1,1,1
India,Bihar,Rajgir,"Dangi Tola, Rajgir - BSPCB",12-03-2024 23:00:00,25.03280,85.41948,CO,10,11,10
India,Bihar,Saharsa,"Police Line, Saharsa - BSPCB",12-03-2024 23:00:00,25.892357,86.590325,PM10,94,163,122
India,Bihar,Saharsa,"Police Line, Saharsa - BSPCB",12-03-2024 23:00:00,25.892357,86.590325,NO2,5,8,7
India,Bihar,Saharsa,"Police Line, Saharsa - BSPCB",12-03-2024 23:00:00,25.892357,86.590325,NH3,NA,NA,NA
India,Bihar,Saharsa,"Police Line, Saharsa - BSPCB",12-03-2024 23:00:00,25.892357,86.590325,SO2,16,17,16
India,Bihar,Saharsa,"Police Line, Saharsa - BSPCB",12-03-2024 23:00:00,25.892357,86.590325,CO,16,36,31
India,Bihar,Samastipur,"DM Office_Kasipur, Samastipur - BSPCB",12-03-2024 23:00:00,25.859655,85.77944,PM10,56,171,90
India,Bihar,Samastipur,"DM Office_Kasipur, Samastipur - BSPCB",12-03-2024 23:00:00,25.859655,85.77944,NO2,2,34,11
India,Bihar,Samastipur,"DM Office_Kasipur, Samastipur - BSPCB",12-03-2024 23:00:00,25.859655,85.77944,SO2,10,16,13
India,Bihar,Samastipur,"DM Office_Kasipur, Samastipur - BSPCB",12-03-2024 23:00:00,25.859655,85.77944,OZONE,9,27,15
India,Bihar,Sasaram,"Dada Peer, Sasaram - BSPCB",12-03-2024 23:00:00,24.952822,84.002396,PM2.5,9,134,50
India,Bihar,Sasaram,"Dada Peer, Sasaram - BSPCB",12-03-2024 23:00:00,24.952822,84.002396,NH3,8,13,9
India,Bihar,Sasaram,"Dada Peer, Sasaram - BSPCB",12-03-2024 23:00:00,24.952822,84.002396,SO2,21,23,22
India,Chandigarh,Chandigarh,"Sector 22, Chandigarh - CPCC",12-03-2024 23:00:00,30.735567,76.775714,OZONE,10,156,92
India,Chandigarh,Chandigarh,"Sector-25, Chandigarh - CPCC",12-03-2024 23:00:00,30.751462,76.762879,NH3,11,21,16
India,Chandigarh,Chandigarh,"Sector-53, Chandigarh - CPCC",12-03-2024 23:00:00,30.719859,76.738637,SO2,11,16,14
India,Chandigarh,Chandigarh,"Sector-53, Chandigarh - CPCC",12-03-2024 23:00:00,30.719859,76.738637,OZONE,7,69,48
India,Chhattisgarh,Bhilai,"32Bungalows, Bhilai - CECB",12-03-2024 23:00:00,21.194815,81.314770,OZONE,4,21,11
India,Chhattisgarh,Bhilai,"Hathkhoj, Bhilai - CECB",12-03-2024 23:00:00,21.224231,81.408350,PM10,51,170,109
India,Chhattisgarh,Bhilai,"Hathkhoj, Bhilai - CECB",12-03-2024 23:00:00,21.224231,81.408350,NO2,16,71,39
India,Chhattisgarh,Bhilai,"Hathkhoj, Bhilai - CECB",12-03-2024 23:00:00,21.224231,81.408350,OZONE,29,46,36
India,Chhattisgarh,Chhal,"Nawapara SECL Colony, Chhal - CECB",12-03-2024 23:00:00,22.118125,83.140608,PM2.5,41,140,90
India,Chhattisgarh,Chhal,"Nawapara SECL Colony, Chhal - CECB",12-03-2024 23:00:00,22.118125,83.140608,NO2,11,42,21
India,Chhattisgarh,Korba,"Rampur, Korba - CECB",12-03-2024 23:00:00,22.368195,82.746431,PM10,NA,NA,NA
India,Chhattisgarh,Korba,"Urja Nagar, Korba - CECB",12-03-2024 23:00:00,22.348441,82.549611,NO2,67,87,76
India,Chhattisgarh,Korba,"Urja Nagar, Korba - CECB",12-03-2024 23:00:00,22.348441,82.549611,CO,20,70,25
India,Chhattisgarh,Milupara,"Govt. Higher Secondary School, Milupara - CECB",12-03-2024 23:00:00,22.1910172,83.5197009,PM2.5,NA,NA,NA
India,Chhattisgarh,Milupara,"Govt. Higher Secondary School, Milupara - CECB",12-03-2024 23:00:00,22.1910172,83.5197009,NH3,NA,NA,NA
India,Chhattisgarh,Raipur,"Bhatagaon New ISBT, Raipur - CECB",12-03-2024 23:00:00,21.219665,81.630094,OZONE,3,7,4
India,Chhattisgarh,Raipur,"Krishak Nagar, Raipur - CECB",12-03-2024 23:00:00,21.237755,81.705301,OZONE,4,20,11
India,Chhattisgarh,Raipur,"Siltara Phase-II, Raipur - CECB",12-03-2024 23:00:00,21.371751,81.664929,OZONE,3,52,24
India,Delhi,Delhi,"Alipur, Delhi - DPCC",12-03-2024 23:00:00,28.815329,77.153010,SO2,NA,NA,NA
India,Delhi,Delhi,"Ashok Vihar, Delhi - DPCC",12-03-2024 23:00:00,28.695381,77.181665,NH3,9,12,11
India,Delhi,Delhi,"Aya Nagar, Delhi - IMD",12-03-2024 23:00:00,28.4706914,77.1099364,NO2,27,80,37
India,Delhi,Delhi,"Bawana, Delhi - DPCC",12-03-2024 23:00:00,28.776200,77.051074,CO,20,64,28
India,Delhi,Delhi,"Bawana, Delhi - DPCC",12-03-2024 23:00:00,28.776200,77.051074,OZONE,4,123,67
India,Delhi,Delhi,"Burari Crossing, Delhi - IMD",12-03-2024 23:00:00,28.7256504,77.2011573,OZONE,3,34,17
India,Delhi,Delhi,"CRRI Mathura Road, Delhi - IMD",12-03-2024 23:00:00,28.5512005,77.2735737,PM10,82,190,138
India,Delhi,Delhi,"CRRI Mathura Road, Delhi - IMD",12-03-2024 23:00:00,28.5512005,77.2735737,NO2,4,22,14
India,Delhi,Delhi,"Chandni Chowk, Delhi - IITM",12-03-2024 23:00:00,28.656756,77.227234,OZONE,13,26,18
India,Delhi,Delhi,"DTU, Delhi - CPCB",12-03-2024 23:00:00,28.7500499,77.1112615,PM2.5,59,322,146
India,Delhi,Delhi,"DTU, Delhi - CPCB",12-03-2024 23:00:00,28.7500499,77.1112615,NH3,9,13,11
India,Delhi,Delhi,"Dr. Karni Singh Shooting Range, Delhi - DPCC",12-03-2024 23:00:00,28.498571,77.264840,PM2.5,52,319,178
India,Delhi,Delhi,"Dr. Karni Singh Shooting Range, Delhi - DPCC",12-03-2024 23:00:00,28.498571,77.264840,NH3,5,25,9
India,Delhi,Delhi,"Dr. Karni Singh Shooting Range, Delhi - DPCC",12-03-2024 23:00:00,28.498571,77.264840,SO2,15,52,26
India,Delhi,Delhi,"Dwarka-Sector 8, Delhi - DPCC ",12-03-2024 23:00:00,28.5710274,77.0719006,NO2,6,50,20
India,Delhi,Delhi,"Dwarka-Sector 8, Delhi - DPCC ",12-03-2024 23:00:00,28.5710274,77.0719006,SO2,3,24,9
India,Delhi,Delhi,"IHBAS, Dilshad Garden, Delhi - CPCB",12-03-2024 23:00:00,28.6811736,77.3025234,NO2,27,86,40
India,Delhi,Delhi,"IHBAS, Dilshad Garden, Delhi - CPCB",12-03-2024 23:00:00,28.6811736,77.3025234,NH3,3,12,7
India,Delhi,Delhi,"ITO, Delhi - CPCB",12-03-2024 23:00:00,28.628624,77.241060,PM2.5,56,357,196
India,Delhi,Delhi,"ITO, Delhi - CPCB",12-03-2024 23:00:00,28.628624,77.241060,NO2,1,123,67
India,Delhi,Delhi,"ITO, Delhi - CPCB",12-03-2024 23:00:00,28.628624,77.241060,OZONE,12,69,41
India,Delhi,Delhi,"Jahangirpuri, Delhi - DPCC",12-03-2024 23:00:00,28.732820,77.170633,CO,40,113,73
India,Delhi,Delhi,"Jawaharlal Nehru Stadium, Delhi - DPCC",12-03-2024 23:00:00,28.580280,77.233829,CO,30,78,42
India,Delhi,Delhi,"Lodhi Road, Delhi - IITM",12-03-2024 23:00:00,28.588333,77.221667,PM2.5,39,286,94
India,Delhi,Delhi,"Lodhi Road, Delhi - IITM",12-03-2024 23:00:00,28.588333,77.221667,SO2,18,34,26
India,Delhi,Delhi,"Lodhi Road, Delhi - IMD",12-03-2024 23:00:00,28.5918245,77.2273074,CO,18,39,24
India,Delhi,Delhi,"Major Dhyan Chand National Stadium, Delhi - DPCC",12-03-2024 23:00:00,28.611281,77.237738,NO2,32,136,85
India,Delhi,Delhi,"Mandir Marg, Delhi - DPCC",12-03-2024 23:00:00,28.636429,77.201067,NH3,10,13,12
India,Delhi,Delhi,"Mandir Marg, Delhi - DPCC",12-03-2024 23:00:00,28.636429,77.201067,SO2,3,15,9
India,Delhi,Delhi,"Mandir Marg, Delhi - DPCC",12-03-2024 23:00:00,28.636429,77.201067,CO,52,90,65
India,Delhi,Delhi,"Mundka, Delhi - DPCC",12-03-2024 23:00:00,28.684678,77.076574,PM2.5,60,403,213
India,Delhi,Delhi,"Mundka, Delhi - DPCC",12-03-2024 23:00:00,28.684678,77.076574,NO2,18,119,55
India,Delhi,Delhi,"Mundka, Delhi - DPCC",12-03-2024 23:00:00,28.684678,77.076574,SO2,8,26,14
India,Delhi,Delhi,"NSIT Dwarka, Delhi - CPCB",12-03-2024 23:00:00,28.60909,77.0325413,PM10,NA,NA,NA
India,Delhi,Delhi,"NSIT Dwarka, Delhi - CPCB",12-03-2024 23:00:00,28.60909,77.0325413,CO,28,99,52
India,Delhi,Delhi,"Najafgarh, Delhi - DPCC",12-03-2024 23:00:00,28.570173,76.933762,CO,5,88,20
India,Delhi,Delhi,"Narela, Delhi - DPCC",12-03-2024 23:00:00,28.822836,77.101981,SO2,7,43,20
India,Delhi,Delhi,"Narela, Delhi - DPCC",12-03-2024 23:00:00,28.822836,77.101981,CO,40,87,62
India,Delhi,Delhi,"Nehru Nagar, Delhi - DPCC",12-03-2024 23:00:00,28.567890,77.250515,PM2.5,53,352,194
India,Delhi,Delhi,"Nehru Nagar, Delhi - DPCC",12-03-2024 23:00:00,28.567890,77.250515,PM10,98,286,155
India,Delhi,Delhi,"Nehru Nagar, Delhi - DPCC",12-03-2024 23:00:00,28.567890,77.250515,SO2,8,26,12
India,Delhi,Delhi,"Okhla Phase-2, Delhi - DPCC",12-03-2024 23:00:00,28.530785,77.271255,PM2.5,52,327,173
India,Delhi,Delhi,"Okhla Phase-2, Delhi - DPCC",12-03-2024 23:00:00,28.530785,77.271255,CO,40,88,63
India,Delhi,Delhi,"Patparganj, Delhi - DPCC",12-03-2024 23:00:00,28.623763,77.287209,NO2,33,77,50
India,Delhi,Delhi,"Punjabi Bagh, Delhi - DPCC",12-03-2024 23:00:00,28.674045,77.131023,NO2,15,29,23
India,Delhi,Delhi,"Pusa, Delhi - DPCC",12-03-2024 23:00:00,28.639652,77.146275,NO2,62,130,103
India,Delhi,Delhi,"Pusa, Delhi - DPCC",12-03-2024 23:00:00,28.639652,77.146275,CO,52,104,73
India,Delhi,Delhi,"R K Puram, Delhi - DPCC",12-03-2024 23:00:00,28.563262,77.186937,CO,20,78,45
India,Delhi,Delhi,"Rohini, Delhi - DPCC",12-03-2024 23:00:00,28.732528,77.119920,PM2.5,45,379,188
India,Delhi,Delhi,"Rohini, Delhi - DPCC",12-03-2024 23:00:00,28.732528,77.119920,PM10,74,341,163
India,Delhi,Delhi,"Rohini, Delhi - DPCC",12-03-2024 23:00:00,28.732528,77.119920,SO2,12,54,23
India,Delhi,Delhi,"Rohini, Delhi - DPCC",12-03-2024 23:00:00,28.732528,77.119920,CO,21,102,33
India,Delhi,Delhi,"Shadipur, Delhi - CPCB",12-03-2024 23:00:00,28.6514781,77.1473105,NH3,1,9,6
India,Delhi,Delhi,"Sirifort, Delhi - CPCB",12-03-2024 23:00:00,28.5504249,77.2159377,NO2,NA,NA,NA
India,Delhi,Delhi,"Sirifort, Delhi - CPCB",12-03-2024 23:00:00,28.5504249,77.2159377,SO2,40,49,43
India,Delhi,Delhi,"Sirifort, Delhi - CPCB",12-03-2024 23:00:00,28.5504249,77.2159377,OZONE,4,89,41
India,Delhi,Delhi,"Sonia Vihar, Delhi - DPCC",12-03-2024 23:00:00,28.710508,77.249485,OZONE,17,173,92
India,Delhi,Delhi,"Sri Aurobindo Marg, Delhi - DPCC",12-03-2024 23:00:00,28.531346,77.190156,PM2.5,52,369,155
India,Delhi,Delhi,"Sri Aurobindo Marg, Delhi - DPCC",12-03-2024 23:00:00,28.531346,77.190156,OZONE,1,50,23
India,Delhi,Delhi,"Vivek Vihar, Delhi - DPCC",12-03-2024 23:00:00,28.672342,77.315260,CO,12,46,27
India,Delhi,Delhi,"Vivek Vihar, Delhi - DPCC",12-03-2024 23:00:00,28.672342,77.315260,OZONE,6,68,24
India,Delhi,Delhi,"Wazirpur, Delhi - DPCC",12-03-2024 23:00:00,28.699793,77.165453,NO2,54,146,105
India,Delhi,Delhi,"Wazirpur, Delhi - DPCC",12-03-2024 23:00:00,28.699793,77.165453,CO,20,104,67
India,Delhi,Delhi,"Wazirpur, Delhi - DPCC",12-03-2024 23:00:00,28.699793,77.165453,OZONE,13,65,36
India,Gujarat,Ahmedabad,"Chandkheda, Ahmedabad - IITM",12-03-2024 23:00:00,23.107969,72.574648,NO2,59,66,63
India,Gujarat,Ahmedabad,"Chandkheda, Ahmedabad - IITM",12-03-2024 23:00:00,23.107969,72.574648,OZONE,5,43,24
India,Gujarat,Ahmedabad,"Maninagar, Ahmedabad - GPCB",12-03-2024 23:00:00,23.002657,72.591912,PM2.5,20,102,45
India,Gujarat,Ahmedabad,"Raikhad, Ahmedabad - IITM",12-03-2024 23:00:00,23.020509,72.579261,SO2,3,8,5
India,Gujarat,Ahmedabad,"Rakhial, Ahmedabad - IITM",12-03-2024 23:00:00,23.016834,72.625775,SO2,3,38,9
India,Gujarat,Ahmedabad,"SAC ISRO Satellite, Ahmedabad - IITM",12-03-2024 23:00:00,23.023389,72.515201,PM2.5,121,156,144
India,Gujarat,Ahmedabad,"SVPI Airport Hansol, Ahmedabad - IITM",12-03-2024 23:00:00,23.076793,72.627874,PM2.5,37,121,64
India,Gujarat,Ahmedabad,"SVPI Airport Hansol, Ahmedabad - IITM",12-03-2024 23:00:00,23.076793,72.627874,SO2,7,7,7
India,Gujarat,Ankleshwar,"GIDC, Ankleshwar - GPCB",12-03-2024 23:00:00,21.613267,73.010555,SO2,2,118,46
India,Gujarat,Ankleshwar,"GIDC, Ankleshwar - GPCB",12-03-2024 23:00:00,21.613267,73.010555,OZONE,21,33,26
India,Gujarat,Gandhinagar,"GIFT City, Gandhinagar - IITM",12-03-2024 23:00:00,23.163798,72.677768,PM10,45,127,80
India,Gujarat,Gandhinagar,"GIFT City, Gandhinagar - IITM",12-03-2024 23:00:00,23.163798,72.677768,OZONE,1,32,19
India,Gujarat,Gandhinagar,"IIPHG Lekawada, Gandhinagar - IITM",12-03-2024 23:00:00,23.243639,72.68994,CO,22,24,23
India,Gujarat,Gandhinagar,"Sector-10, Gandhinagar - GPCB",12-03-2024 23:00:00,23.221714,72.654328,NH3,1,1,1
India,Gujarat,Nandesari,"GIDC, Nandesari - Nandesari Ind. Association",12-03-2024 23:00:00,22.410802,73.097923,PM2.5,51,322,153
India,Gujarat,Nandesari,"GIDC, Nandesari - Nandesari Ind. Association",12-03-2024 23:00:00,22.410802,73.097923,NO2,8,69,28
India,Gujarat,Vapi,"Phase-1 GIDC, Vapi - GPCB",12-03-2024 23:00:00,20.362421,72.918013,NH3,2,21,7
India,Haryana,Ambala,"Patti Mehar, Ambala - HSPCB",12-03-2024 23:00:00,30.379589,76.778328,OZONE,34,56,42
India,Haryana,Bahadurgarh,"Arya Nagar, Bahadurgarh - HSPCB",12-03-2024 23:00:00,28.6701,76.9254,PM2.5,59,330,188
India,Haryana,Bahadurgarh,"Arya Nagar, Bahadurgarh - HSPCB",12-03-2024 23:00:00,28.6701,76.9254,NO2,33,41,36
India,Haryana,Bhiwani,"H.B. Colony, Bhiwani - HSPCB",12-03-2024 23:00:00,28.806223,76.141105,PM2.5,21,132,90
India,Haryana,Charkhi Dadri,"Mini Secretariat, Charkhi Dadri - HSPCB",12-03-2024 23:00:00,28.593883,76.270653,CO,17,22,20
India,Haryana,Charkhi Dadri,"Mini Secretariat, Charkhi Dadri - HSPCB",12-03-2024 23:00:00,28.593883,76.270653,OZONE,14,18,16
India,Haryana,Dharuhera,"Municipal Corporation Office, Dharuhera -  HSPCB",12-03-2024 23:00:00,28.206800,76.799700,PM2.5,42,212,108
India,Haryana,Dharuhera,"Municipal Corporation Office, Dharuhera -  HSPCB",12-03-2024 23:00:00,28.206800,76.799700,NO2,46,111,77
India,Haryana,Faridabad,"Sector 11, Faridabad - HSPCB",12-03-2024 23:00:00,28.376058,77.315741,SO2,1,9,6
India,Haryana,Faridabad,"Sector 30, Faridabad - HSPCB",12-03-2024 23:00:00,28.4417,77.3217,PM2.5,NA,NA,NA
India,Haryana,Faridabad,"Sector 30, Faridabad - HSPCB",12-03-2024 23:00:00,28.4417,77.3217,NO2,NA,NA,NA
India,Haryana,Faridabad,"Sector 30, Faridabad - HSPCB",12-03-2024 23:00:00,28.4417,77.3217,SO2,NA,NA,NA
India,Haryana,Fatehabad,"Huda Sector, Fatehabad - HSPCB",12-03-2024 23:00:00,29.503664,75.467934,NO2,37,80,39
India,Haryana,Gurugram,"Teri Gram, Gurugram - HSPCB",12-03-2024 23:00:00,28.4275,77.1465,PM2.5,63,382,203
India,Haryana,Gurugram,"Teri Gram, Gurugram - HSPCB",12-03-2024 23:00:00,28.4275,77.1465,SO2,3,5,4
India,Haryana,Gurugram,"Vikas Sadan, Gurugram - HSPCB",12-03-2024 23:00:00,28.4501238,77.0263051,CO,54,139,97
India,Haryana,Hisar,"Urban Estate-II, Hisar - HSPCB",12-03-2024 23:00:00,29.140560,75.744941,PM2.5,45,108,71
India,Haryana,Hisar,"Urban Estate-II, Hisar - HSPCB",12-03-2024 23:00:00,29.140560,75.744941,CO,32,105,50
India,Haryana,Jind,"Police Lines, Jind - HSPCB",12-03-2024 23:00:00,29.307814,76.337619,PM2.5,34,96,63
India,Haryana,Jind,"Police Lines, Jind - HSPCB",12-03-2024 23:00:00,29.307814,76.337619,OZONE,10,21,20
India,Haryana,Kaithal,"Rishi Nagar, Kaithal - HSPCB",12-03-2024 23:00:00,29.8006,76.4155,NH3,8,8,8
India,Haryana,Karnal,"Sector-12, Karnal - HSPCB",12-03-2024 23:00:00,29.695300,77.002700,PM2.5,NA,NA,NA
India,Haryana,Karnal,"Sector-12, Karnal - HSPCB",12-03-2024 23:00:00,29.695300,77.002700,PM10,NA,NA,NA
India,Haryana,Karnal,"Sector-12, Karnal - HSPCB",12-03-2024 23:00:00,29.695300,77.002700,NH3,10,13,11
India,Haryana,Karnal,"Sector-12, Karnal - HSPCB",12-03-2024 23:00:00,29.695300,77.002700,SO2,12,22,13
India,Haryana,Karnal,"Sector-12, Karnal - HSPCB",12-03-2024 23:00:00,29.695300,77.002700,CO,12,56,30
India,Haryana,Karnal,"Sector-12, Karnal - HSPCB",12-03-2024 23:00:00,29.695300,77.002700,OZONE,25,37,31
India,Haryana,Kurukshetra,"Sector-7, Kurukshetra - HSPCB",12-03-2024 23:00:00,29.966942,76.875879,NO2,10,25,11
India,Haryana,Mandikhera,"General Hospital, Mandikhera - HSPCB",12-03-2024 23:00:00,27.9002,76.9938,PM10,78,140,111
India,Haryana,Manesar,"Sector-2 IMT, Manesar - HSPCB",12-03-2024 23:00:00,28.360699,76.936090,SO2,6,16,12
India,Haryana,Manesar,"Sector-2 IMT, Manesar - HSPCB",12-03-2024 23:00:00,28.360699,76.936090,CO,8,39,13
India,Haryana,Narnaul,"Shastri Nagar, Narnaul - HSPCB",12-03-2024 23:00:00,28.060249,76.113115,SO2,13,54,20
India,Haryana,Panchkula,"Sector-6, Panchkula - HSPCB ",12-03-2024 23:00:00,30.7057778,76.8531805555555,SO2,11,12,12
India,Haryana,Rohtak,"MD University, Rohtak - HSPCB",12-03-2024 23:00:00,28.52123,76.37138,SO2,5,8,7
India,Haryana,Sirsa,"F-Block, Sirsa - HSPCB",12-03-2024 23:00:00,29.536400,75.015800,SO2,48,62,55
India,Haryana,Yamuna Nagar,"Gobind Pura, Yamuna Nagar - HSPCB",12-03-2024 23:00:00,30.1480566,77.2893471,NH3,1,2,2
India,Jharkhand,Dhanbad,"Kalakusuma, Dhanbad - DMC",12-03-2024 23:00:00,23.811548,86.481238,SO2,16,18,17
India,Jharkhand,Dhanbad,"Kalakusuma, Dhanbad - DMC",12-03-2024 23:00:00,23.811548,86.481238,CO,128,135,132
India,Jharkhand,Pathardih,"Mohalbani Ghat, Pathardih - DMC",12-03-2024 23:00:00,23.669880,86.411725,SO2,NA,NA,NA
India,Karnataka,Bagalkot,"Vidayagiri, Bagalkot - KSPCB",12-03-2024 23:00:00,16.172806,75.659694,NH3,1,2,1
India,Karnataka,Bagalkot,"Vidayagiri, Bagalkot - KSPCB",12-03-2024 23:00:00,16.172806,75.659694,OZONE,2,2,2
India,Karnataka,Belgaum,"Ramteerth Nagar, Belgaum - KSPCB",12-03-2024 23:00:00,15.888653,74.541751,PM2.5,45,72,51
India,Karnataka,Belgaum,"Ramteerth Nagar, Belgaum - KSPCB",12-03-2024 23:00:00,15.888653,74.541751,NO2,24,31,28
India,Karnataka,Bengaluru,"BTM Layout, Bengaluru - CPCB",12-03-2024 23:00:00,12.9135218,77.5950804,SO2,8,10,9
India,Karnataka,Bengaluru,"BTM Layout, Bengaluru - CPCB",12-03-2024 23:00:00,12.9135218,77.5950804,OZONE,53,107,64
India,Karnataka,Bengaluru,"Bapuji Nagar, Bengaluru - KSPCB",12-03-2024 23:00:00,12.951913,77.539784,PM2.5,86,186,133
India,Karnataka,Bengaluru,"Bapuji Nagar, Bengaluru - KSPCB",12-03-2024 23:00:00,12.951913,77.539784,NO2,9,11,10
India,Karnataka,Bengaluru,"Bapuji Nagar, Bengaluru - KSPCB",12-03-2024 23:00:00,12.951913,77.539784,NH3,1,1,1
India,Karnataka,Bengaluru,"Bapuji Nagar, Bengaluru - KSPCB",12-03-2024 23:00:00,12.951913,77.539784,SO2,6,8,7
India,Karnataka,Bengaluru,"Jayanagar 5th Block, Bengaluru - KSPCB",12-03-2024 23:00:00,12.920984,77.584908,PM2.5,72,155,107
India,Karnataka,Bengaluru,"Jayanagar 5th Block, Bengaluru - KSPCB",12-03-2024 23:00:00,12.920984,77.584908,NH3,4,5,4
India,Karnataka,Bengaluru,"Jigani, Bengaluru - KSPCB",12-03-2024 23:00:00,12.7816279,77.6299145,NO2,NA,NA,NA
India,Karnataka,Bengaluru,"Jigani, Bengaluru - KSPCB",12-03-2024 23:00:00,12.7816279,77.6299145,NH3,NA,NA,NA
India,Karnataka,Bengaluru,"Kasturi Nagar, Bengaluru - KSPCB",12-03-2024 23:00:00,13.003872,77.664217,SO2,10,10,10
India,Karnataka,Bengaluru,"Peenya, Bengaluru - CPCB",12-03-2024 23:00:00,13.0270199,77.494094,PM2.5,30,80,46
India,Karnataka,Bengaluru,"Peenya, Bengaluru - CPCB",12-03-2024 23:00:00,13.0270199,77.494094,CO,14,60,45
India,Karnataka,Bengaluru,"RVCE-Mailasandra, Bengaluru - KSPCB",12-03-2024 23:00:00,12.921418,77.502466,OZONE,37,37,37
India,Karnataka,Bengaluru,"Sanegurava Halli, Bengaluru - KSPCB",12-03-2024 23:00:00,12.990328,77.5431385,SO2,NA,NA,NA
India,Karnataka,Bengaluru,"Shivapura_Peenya, Bengaluru - KSPCB",12-03-2024 23:00:00,13.0246342,77.5080115,PM2.5,17,148,75
India,Karnataka,Bengaluru,"Shivapura_Peenya, Bengaluru - KSPCB",12-03-2024 23:00:00,13.0246342,77.5080115,PM10,75,118,91
India,Karnataka,Bengaluru,"Shivapura_Peenya, Bengaluru - KSPCB",12-03-2024 23:00:00,13.0246342,77.5080115,NH3,4,4,4
India,Karnataka,Bengaluru,"Silk Board, Bengaluru - KSPCB",12-03-2024 23:00:00,12.917348,77.622813,CO,13,42,27
India,Karnataka,Bidar,"Naubad, Bidar - KSPCB",12-03-2024 23:00:00,17.930306,77.482194,PM10,83,120,97
India,Karnataka,Bidar,"Naubad, Bidar - KSPCB",12-03-2024 23:00:00,17.930306,77.482194,NH3,3,3,3
India,Karnataka,Chamarajanagar,"Urban, Chamarajanagar - KSPCB",12-03-2024 23:00:00,11.55358,76.55521,NH3,1,2,1
India,Karnataka,Chikkaballapur,"Chikkaballapur Rural, Chikkaballapur - KSPCB",12-03-2024 23:00:00,13.428828,77.731418,PM10,71,156,96
India,Karnataka,Chikkaballapur,"Chikkaballapur Rural, Chikkaballapur - KSPCB",12-03-2024 23:00:00,13.428828,77.731418,CO,18,40,33
India,Karnataka,Chikkaballapur,"Chikkaballapur Rural, Chikkaballapur - KSPCB",12-03-2024 23:00:00,13.428828,77.731418,OZONE,25,27,25
India,Karnataka,Davanagere,"Devaraj Urs Badavane, Davanagere - KSPCB",12-03-2024 23:00:00,14.475800,75.905200,CO,10,22,18
India,Karnataka,Dharwad,"Kalabhavan, Dharwad - KSPCB",12-03-2024 23:00:00,15.459706,75.008381,PM2.5,53,127,73
India,Karnataka,Dharwad,"Kalabhavan, Dharwad - KSPCB",12-03-2024 23:00:00,15.459706,75.008381,PM10,83,152,111
India,Karnataka,Gadag,"Panchal Nagar, Gadag - KSPCB",12-03-2024 23:00:00,15.411456,75.638133,PM10,NA,NA,NA
India,Karnataka,Hassan,"B.Katihalli, Hassan - KSPCB",12-03-2024 23:00:00,13.008556,76.125258,PM10,43,105,69
India,Karnataka,Hassan,"B.Katihalli, Hassan - KSPCB",12-03-2024 23:00:00,13.008556,76.125258,CO,8,16,10
India,Karnataka,Haveri,"Ashwini Nagar, Haveri - KSPCB",12-03-2024 23:00:00,14.791800,75.389600,SO2,14,27,19
India,Karnataka,Haveri,"Ashwini Nagar, Haveri - KSPCB",12-03-2024 23:00:00,14.791800,75.389600,CO,35,81,74
India,Karnataka,Hubballi,"Deshpande Nagar, Hubballi - KSPCB",12-03-2024 23:00:00,15.351773,75.140726,PM10,62,109,90
India,Karnataka,Hubballi,"Deshpande Nagar, Hubballi - KSPCB",12-03-2024 23:00:00,15.351773,75.140726,NH3,4,6,5
India,Karnataka,Kalaburagi,"Lal Bahadur Shastri Nagar, Kalaburagi - KSPCB",12-03-2024 23:00:00,17.321993,76.822628,OZONE,6,74,39
India,Karnataka,Kalaburagi,"Mahatma Basaveswar Colony, Kalaburgi - KSPCB",12-03-2024 23:00:00,17.336318,76.847397,PM2.5,28,94,52
India,Karnataka,Kalaburagi,"Mahatma Basaveswar Colony, Kalaburgi - KSPCB",12-03-2024 23:00:00,17.336318,76.847397,SO2,7,28,12
India,Karnataka,Karwar,"KHB Colony, Karwar - KSPCB",12-03-2024 23:00:00,14.816666,74.141003,PM2.5,48,93,64
India,Karnataka,Karwar,"KHB Colony, Karwar - KSPCB",12-03-2024 23:00:00,14.816666,74.141003,NO2,4,30,9
India,Karnataka,Kolar,"Tamaka Ind. Area, Kolar - KSPCB",12-03-2024 23:00:00,13.1276288,78.1570122,PM10,70,115,92
India,Karnataka,Kolar,"Tamaka Ind. Area, Kolar - KSPCB",12-03-2024 23:00:00,13.1276288,78.1570122,SO2,8,16,12
India,Karnataka,Kolar,"Tamaka Ind. Area, Kolar - KSPCB",12-03-2024 23:00:00,13.1276288,78.1570122,OZONE,7,12,8
India,Karnataka,Koppal,"Diwator Nagar, Koppal - KSPCB",12-03-2024 23:00:00,15.347630,76.181767,PM2.5,19,81,39
India,Karnataka,Koppal,"Diwator Nagar, Koppal - KSPCB",12-03-2024 23:00:00,15.347630,76.181767,PM10,24,84,41
India,Karnataka,Madikeri,"Stuart Hill, Madikeri - KSPCB",12-03-2024 23:00:00,12.415911,75.735050,NH3,NA,NA,NA
India,Karnataka,Madikeri,"Stuart Hill, Madikeri - KSPCB",12-03-2024 23:00:00,12.415911,75.735050,OZONE,23,42,35
India,Karnataka,Mangalore,"Kadri, Mangalore - KSPCB",12-03-2024 23:00:00,12.889250,74.853000,NO2,6,6,6
India,Karnataka,Mysuru,"Hebbal 1st Stage, Mysuru - KSPCB",12-03-2024 23:00:00,12.21041,76.37376,PM2.5,25,67,42
India,Karnataka,Mysuru,"Hebbal 1st Stage, Mysuru - KSPCB",12-03-2024 23:00:00,12.21041,76.37376,NO2,7,40,23
India,Karnataka,Mysuru,"Hebbal 1st Stage, Mysuru - KSPCB",12-03-2024 23:00:00,12.21041,76.37376,NH3,1,3,2
India,Karnataka,Raichur,"Haji Colony, Raichur - KSPCB",12-03-2024 23:00:00,16.208139,77.348417,NO2,19,42,30
India,Karnataka,Raichur,"Haji Colony, Raichur - KSPCB",12-03-2024 23:00:00,16.208139,77.348417,CO,90,110,106
India,Karnataka,Ramanagara,"Vijay Nagar, Ramanagara - KSPCB",12-03-2024 23:00:00,12.733409,77.298051,SO2,18,38,27
India,Karnataka,Shivamogga,"Vinoba Nagara, Shivamogga - KSPCB",12-03-2024 23:00:00,13.940000,75.555917,SO2,2,13,6
India,Karnataka,Shivamogga,"Vinoba Nagara, Shivamogga - KSPCB",12-03-2024 23:00:00,13.940000,75.555917,CO,10,37,33
India,Karnataka,Tumakuru,"Thimmalapura, Tumakuru - KSPCB",12-03-2024 23:00:00,13.377516,77.099072,SO2,8,18,10
India,Karnataka,Vijayapura,"Ibrahimpur, Vijayapura - KSPCB",12-03-2024 23:00:00,16.802639,75.722694,NH3,2,2,2
India,Karnataka,Vijayapura,"Ibrahimpur, Vijayapura - KSPCB",12-03-2024 23:00:00,16.802639,75.722694,OZONE,13,15,15
India,Karnataka,Yadgir,"Collector Office, Yadgir - KSPCB",12-03-2024 23:00:00,16.7602,77.1428,NO2,5,11,6
India,Kerala,Eloor,"Udyogamandal, Eloor - Kerala PCB",12-03-2024 23:00:00,10.073232,76.302765,CO,7,139,98
India,Kerala,Eloor,"Udyogamandal, Eloor - Kerala PCB",12-03-2024 23:00:00,10.073232,76.302765,OZONE,10,20,14
India,Kerala,Kochi,"Vyttila, Kochi - Kerala PCB",12-03-2024 23:00:00,9.969447,76.321186,PM2.5,25,80,51
India,Kerala,Kollam,"Polayathode, Kollam - Kerala PCB",12-03-2024 23:00:00,8.8787,76.6073,PM10,82,124,99
India,Kerala,Kollam,"Polayathode, Kollam - Kerala PCB",12-03-2024 23:00:00,8.8787,76.6073,NH3,1,1,1
India,Kerala,Thiruvananthapuram,"Kariavattom, Thiruvananthapuram - Kerala PCB",12-03-2024 23:00:00,8.563700,76.886500,SO2,3,13,8
India,Kerala,Thiruvananthapuram,"Kariavattom, Thiruvananthapuram - Kerala PCB",12-03-2024 23:00:00,8.563700,76.886500,CO,18,38,22
India,Kerala,Thiruvananthapuram,"Kariavattom, Thiruvananthapuram - Kerala PCB",12-03-2024 23:00:00,8.563700,76.886500,OZONE,27,32,30
India,Kerala,Thiruvananthapuram,"Plammoodu, Thiruvananthapuram - Kerala PCB",12-03-2024 23:00:00,8.5149093,76.9435879,PM10,53,106,71
India,Kerala,Thrissur,"Corporation Ground, Thrissur - Kerala PCB",12-03-2024 23:00:00,10.532400,76.215900,PM10,62,70,65
India,Kerala,Thrissur,"Corporation Ground, Thrissur - Kerala PCB",12-03-2024 23:00:00,10.532400,76.215900,NO2,7,8,8
India,Madhya Pradesh,Bhopal,"Idgah Hills, Bhopal - MPPCB",12-03-2024 23:00:00,23.264759,77.381568,SO2,2,24,13
India,Madhya Pradesh,Bhopal,"Paryavaran Parisar, Bhopal - MPPCB",12-03-2024 23:00:00,23.210494,77.425409,PM10,40,275,115
India,Madhya Pradesh,Bhopal,"T T Nagar, Bhopal - MPPCB",12-03-2024 23:00:00,23.233584,77.400574,NH3,1,6,4
India,Madhya Pradesh,Gwalior,"Deen Dayal Nagar, Gwalior - MPPCB",12-03-2024 23:00:00,26.259242,78.216432,NH3,3,12,6
India,Madhya Pradesh,Gwalior,"Maharaj Bada, Gwalior - MPPCB",12-03-2024 23:00:00,26.200388,78.147714,NO2,13,113,45
India,Madhya Pradesh,Indore,"Chhoti Gwaltoli, Indore - MPPCB",12-03-2024 23:00:00,22.4310,75.5213,NH3,3,5,4
India,Madhya Pradesh,Indore,"Chhoti Gwaltoli, Indore - MPPCB",12-03-2024 23:00:00,22.4310,75.5213,SO2,11,39,18
India,Madhya Pradesh,Indore,"Regional Park, Indore - IMC",12-03-2024 23:00:00,22.6780,75.8559,PM2.5,20,86,46
India,Madhya Pradesh,Indore,"Residency Area, Indore - IMC",12-03-2024 23:00:00,22.7084,75.8815,CO,13,16,14
India,Madhya Pradesh,Jabalpur,"Govindh Bhavan Colony, Jabalpur - JMC",12-03-2024 23:00:00,23.163174,79.973061,OZONE,16,215,56
India,Madhya Pradesh,Jabalpur,"Gupteshwar, Jabalpur - JMC",12-03-2024 23:00:00,23.142888,79.916147,PM10,60,151,81
India,Madhya Pradesh,Jabalpur,"Suhagi, Jabalpur - JMC",12-03-2024 23:00:00,23.218135,79.957770,PM10,28,217,102
India,Madhya Pradesh,Katni,"Gole Bazar, Katni - MPPCB",12-03-2024 23:00:00,23.50016,80.23284,PM10,79,325,134
India,Madhya Pradesh,Katni,"Gole Bazar, Katni - MPPCB",12-03-2024 23:00:00,23.50016,80.23284,CO,12,27,19
India,Madhya Pradesh,Maihar,"Sahilara, Maihar - KJS Cements",12-03-2024 23:00:00,24.2613009,80.7231783,NO2,14,14,14
India,Madhya Pradesh,Maihar,"Sahilara, Maihar - KJS Cements",12-03-2024 23:00:00,24.2613009,80.7231783,SO2,18,47,21
India,Madhya Pradesh,Maihar,"Sahilara, Maihar - KJS Cements",12-03-2024 23:00:00,24.2613009,80.7231783,CO,48,60,52
India,Madhya Pradesh,Mandideep,"Sector-D Industrial Area, Mandideep - MPPCB",12-03-2024 23:00:00,23.108440,77.511428,PM10,NA,NA,NA
India,Madhya Pradesh,Mandideep,"Sector-D Industrial Area, Mandideep - MPPCB",12-03-2024 23:00:00,23.108440,77.511428,NO2,NA,NA,NA
India,Madhya Pradesh,Mandideep,"Sector-D Industrial Area, Mandideep - MPPCB",12-03-2024 23:00:00,23.108440,77.511428,NH3,NA,NA,NA
India,Madhya Pradesh,Sagar,"Civil Lines, Sagar - MPPCB",12-03-2024 23:00:00,23.838586,78.759431,CO,21,45,36
India,Madhya Pradesh,Sagar,"Deen Dayal Nagar, Sagar - MPPCB",12-03-2024 23:00:00,23.8640158,78.80289321,NO2,9,24,23
India,Madhya Pradesh,Sagar,"Deen Dayal Nagar, Sagar - MPPCB",12-03-2024 23:00:00,23.8640158,78.80289321,SO2,11,13,11
India,Madhya Pradesh,Satna,"Bandhavgar Colony, Satna - Birla Cement",12-03-2024 23:00:00,24.58434363,80.8549414,PM10,28,107,68
India,Madhya Pradesh,Ujjain,"Mahakaleshwar Temple, Ujjain - MPPCB",12-03-2024 23:00:00,23.182719 ,75.768218 ,PM10,38,121,71
India,Madhya Pradesh,Ujjain,"Mahakaleshwar Temple, Ujjain - MPPCB",12-03-2024 23:00:00,23.182719 ,75.768218 ,CO,6,107,96
India,Maharashtra,Ahmednagar,"Tarakpur, Ahmednagar - MPCB",12-03-2024 23:00:00,19.10122,74.73339,NH3,2,5,4
India,Maharashtra,Ahmednagar,"Tarakpur, Ahmednagar - MPCB",12-03-2024 23:00:00,19.10122,74.73339,SO2,12,18,14
India,Maharashtra,Akola,"Ramdaspeth, Akola - MPCB",12-03-2024 23:00:00,20.719516,77.000253,SO2,6,46,16
India,Maharashtra,Akola,"Ramdaspeth, Akola - MPCB",12-03-2024 23:00:00,20.719516,77.000253,CO,28,129,71
India,Maharashtra,Amravati,"Shivneri Colony, Amravati - MPCB",12-03-2024 23:00:00,20.9402359,77.7895248,PM2.5,43,88,64
India,Maharashtra,Amravati,"Shivneri Colony, Amravati - MPCB",12-03-2024 23:00:00,20.9402359,77.7895248,NH3,1,2,1
India,Maharashtra,Amravati,"Shivneri Colony, Amravati - MPCB",12-03-2024 23:00:00,20.9402359,77.7895248,CO,14,46,29
India,Maharashtra,Amravati,"Shri Shivaji Science College, Amaravati - MPCB",12-03-2024 23:00:00,20.939198,77.765701,NO2,4,64,18
India,Maharashtra,Aurangabad,"Rachnakar Colony, Aurangabad - MPCB",12-03-2024 23:00:00,19.863756,75.321188,PM2.5,32,152,107
India,Maharashtra,Aurangabad,"Rachnakar Colony, Aurangabad - MPCB",12-03-2024 23:00:00,19.863756,75.321188,PM10,55,398,133
India,Maharashtra,Aurangabad,"Rachnakar Colony, Aurangabad - MPCB",12-03-2024 23:00:00,19.863756,75.321188,SO2,17,56,40
India,Maharashtra,Belapur,"CBD Belapur, Belapur - MPCB",12-03-2024 23:00:00,19.0243902,73.0406721,OZONE,3,165,68
India,Maharashtra,Bhiwandi,"Gokul Nagar, Bhiwandi - MPCB",12-03-2024 23:00:00,19.309073,73.057223,PM10,99,172,131
India,Maharashtra,Bhiwandi,"Gokul Nagar, Bhiwandi - MPCB",12-03-2024 23:00:00,19.309073,73.057223,CO,16,72,26
India,Maharashtra,Chandrapur,"Chauhan Colony, Chandrapur - MPCB",12-03-2024 23:00:00,19.962900,79.298714,PM2.5,77,314,138
India,Maharashtra,Chandrapur,"Chauhan Colony, Chandrapur - MPCB",12-03-2024 23:00:00,19.962900,79.298714,PM10,81,133,102
India,Maharashtra,Chandrapur,"Chauhan Colony, Chandrapur - MPCB",12-03-2024 23:00:00,19.962900,79.298714,NO2,19,45,33
India,Maharashtra,Chandrapur,"Chauhan Colony, Chandrapur - MPCB",12-03-2024 23:00:00,19.962900,79.298714,CO,22,28,24
India,Maharashtra,Jalgaon,"Prabhat Colony, Jalgaon - MPCB",12-03-2024 23:00:00,21.001264,75.565602,SO2,6,36,13
India,Maharashtra,Jalgaon,"Prabhat Colony, Jalgaon - MPCB",12-03-2024 23:00:00,21.001264,75.565602,OZONE,5,93,54
India,Maharashtra,Jalna,"Old MIDC, Jalna - MPCB",12-03-2024 23:00:00,19.854616,75.905894,CO,22,40,31
India,Maharashtra,Kalyan,"Khadakpada, Kalyan - MPCB",12-03-2024 23:00:00,19.25292,73.142019,NO2,32,65,40
India,Maharashtra,Kalyan,"Khadakpada, Kalyan - MPCB",12-03-2024 23:00:00,19.25292,73.142019,CO,18,36,21
India,Maharashtra,Kolhapur,"Shivaji University, Kolhapur - MPCB",12-03-2024 23:00:00,16.6870449,74.2505872,PM2.5,95,182,123
India,Maharashtra,Kolhapur,"Shivaji University, Kolhapur - MPCB",12-03-2024 23:00:00,16.6870449,74.2505872,NO2,24,78,40
India,Maharashtra,Kolhapur,"Shivaji University, Kolhapur - MPCB",12-03-2024 23:00:00,16.6870449,74.2505872,SO2,4,19,11
India,Maharashtra,Kolhapur,"Sinchan Bhavan, Kolhapur - MPCB",12-03-2024 23:00:00,16.7143745,74.2426398,PM2.5,96,303,179
India,Maharashtra,Kolhapur,"Sinchan Bhavan, Kolhapur - MPCB",12-03-2024 23:00:00,16.7143745,74.2426398,NH3,7,8,8
India,Maharashtra,Kolhapur,"Sinchan Bhavan, Kolhapur - MPCB",12-03-2024 23:00:00,16.7143745,74.2426398,CO,28,76,31
India,Maharashtra,Mahad,"Kamble Tarf Birwadi, Mahad - MPCB",12-03-2024 23:00:00,18.1023399,73.4783687,OZONE,13,170,84
India,Maharashtra,Malegaon,"Mahesh Nagar, Malegaon - MPCB",12-03-2024 23:00:00,20.555712,74.529236,OZONE,6,68,47
India,Maharashtra,Mira-Bhayandar,"Bhayandar West, Mira-Bhayandar - MPCB",12-03-2024 23:00:00,19.296481,72.840923,NO2,12,56,27
India,Maharashtra,Mira-Bhayandar,"Bhayandar West, Mira-Bhayandar - MPCB",12-03-2024 23:00:00,19.296481,72.840923,NH3,4,6,5
India,Maharashtra,Mira-Bhayandar,"Bhayandar West, Mira-Bhayandar - MPCB",12-03-2024 23:00:00,19.296481,72.840923,OZONE,14,169,105
India,Maharashtra,Mumbai,"Bandra Kurla Complex, Mumbai - MPCB",12-03-2024 23:00:00,19.065931,72.862131,PM10,101,173,128
India,Maharashtra,Mumbai,"Bandra Kurla Complex, Mumbai - MPCB",12-03-2024 23:00:00,19.065931,72.862131,CO,18,38,25
India,Maharashtra,Mumbai,"Borivali East, Mumbai - MPCB",12-03-2024 23:00:00,19.2243333,72.8658113,PM10,NA,NA,NA
India,Maharashtra,Mumbai,"Byculla, Mumbai - BMC",12-03-2024 23:00:00,18.9767,72.8380,SO2,5,29,13
India,Maharashtra,Mumbai,"Byculla, Mumbai - BMC",12-03-2024 23:00:00,18.9767,72.8380,OZONE,40,147,103
India,Maharashtra,Mumbai,"Chakala-Andheri East, Mumbai - IITM",12-03-2024 23:00:00,19.11074,72.86084,PM2.5,78,132,99
India,Maharashtra,Mumbai,"Chakala-Andheri East, Mumbai - IITM",12-03-2024 23:00:00,19.11074,72.86084,SO2,6,41,19
India,Maharashtra,Mumbai,"Chakala-Andheri East, Mumbai - IITM",12-03-2024 23:00:00,19.11074,72.86084,CO,13,89,47
India,Maharashtra,Mumbai,"Chakala-Andheri East, Mumbai - IITM",12-03-2024 23:00:00,19.11074,72.86084,OZONE,10,106,56
India,Maharashtra,Mumbai,"Chembur, Mumbai - MPCB",12-03-2024 23:00:00,19.0364585,72.8954371,PM2.5,84,170,115
India,Maharashtra,Mumbai,"Chembur, Mumbai - MPCB",12-03-2024 23:00:00,19.0364585,72.8954371,SO2,3,26,10
India,Maharashtra,Mumbai,"Chhatrapati Shivaji Intl. Airport (T2), Mumbai - MPCB",12-03-2024 23:00:00,19.10078,72.87462,PM10,NA,NA,NA
India,Maharashtra,Mumbai,"Kandivali East, Mumbai - MPCB",12-03-2024 23:00:00,19.205800,72.868200,PM10,61,194,119
India,Maharashtra,Mumbai,"Kandivali East, Mumbai - MPCB",12-03-2024 23:00:00,19.205800,72.868200,SO2,81,101,86
India,Maharashtra,Mumbai,"Kandivali East, Mumbai - MPCB",12-03-2024 23:00:00,19.205800,72.868200,CO,77,125,92
India,Maharashtra,Mumbai,"Kandivali West, Mumbai - BMC",12-03-2024 23:00:00,19.215859,72.831718,NO2,NA,NA,NA
India,Maharashtra,Mumbai,"Kherwadi_Bandra East, Mumbai - MPCB",12-03-2024 23:00:00,19.0632143,72.8456324,PM2.5,74,133,97
India,Maharashtra,Mumbai,"Kherwadi_Bandra East, Mumbai - MPCB",12-03-2024 23:00:00,19.0632143,72.8456324,NO2,15,107,50
India,Maharashtra,Mumbai,"Khindipada-Bhandup West, Mumbai - IITM",12-03-2024 23:00:00,19.1653323,72.922099,PM10,62,141,104
India,Maharashtra,Mumbai,"Kurla, Mumbai - MPCB",12-03-2024 23:00:00,19.0863,72.8888,NH3,2,5,3
India,Maharashtra,Mumbai,"Kurla, Mumbai - MPCB",12-03-2024 23:00:00,19.0863,72.8888,CO,10,32,20
India,Maharashtra,Mumbai,"Mazgaon, Mumbai - IITM",12-03-2024 23:00:00,18.96702,72.84214,PM10,82,133,108
India,Maharashtra,Mumbai,"Mulund West, Mumbai - MPCB",12-03-2024 23:00:00,19.1750,72.9419,CO,30,30,30
India,Maharashtra,Mumbai,"Mulund West, Mumbai - MPCB",12-03-2024 23:00:00,19.1750,72.9419,OZONE,7,7,7
India,Maharashtra,Mumbai,"Powai, Mumbai - MPCB",12-03-2024 23:00:00,19.137500,72.915056,CO,30,37,34
India,Maharashtra,Mumbai,"Sewri, Mumbai - BMC",12-03-2024 23:00:00,19.000084,72.856730,NH3,3,10,7
India,Maharashtra,Mumbai,"Sewri, Mumbai - BMC",12-03-2024 23:00:00,19.000084,72.856730,OZONE,7,60,43
India,Maharashtra,Mumbai,"Shivaji Nagar, Mumbai - BMC",12-03-2024 23:00:00,19.060498,72.923356,NO2,37,128,81
India,Maharashtra,Mumbai,"Shivaji Nagar, Mumbai - BMC",12-03-2024 23:00:00,19.060498,72.923356,OZONE,11,118,59
India,Maharashtra,Mumbai,"Siddharth Nagar-Worli, Mumbai - IITM",12-03-2024 23:00:00,19.000083,72.813993,OZONE,NA,NA,NA
India,Maharashtra,Mumbai,"Sion, Mumbai - MPCB",12-03-2024 23:00:00,19.047000,72.874600,PM2.5,30,83,50
India,Maharashtra,Mumbai,"Vasai West, Mumbai - MPCB",12-03-2024 23:00:00,19.383200,72.820400,SO2,15,16,16
India,Maharashtra,Mumbai,"Vile Parle West, Mumbai - MPCB",12-03-2024 23:00:00,19.10861,72.83622,PM10,43,95,71
India,Maharashtra,Mumbai,"Vile Parle West, Mumbai - MPCB",12-03-2024 23:00:00,19.10861,72.83622,NO2,2,23,10
India,Maharashtra,Nagpur,"Ambazari, Nagpur - MPCB",12-03-2024 23:00:00,21.121801,79.04952,NH3,1,5,2
India,Maharashtra,Nagpur,"Ambazari, Nagpur - MPCB",12-03-2024 23:00:00,21.121801,79.04952,SO2,11,67,25
India,Maharashtra,Nagpur,"Mahal, Nagpur - MPCB",12-03-2024 23:00:00,21.14472,79.107595,PM10,101,147,122
India,Maharashtra,Nagpur,"Opp GPO Civil Lines, Nagpur - MPCB",12-03-2024 23:00:00,21.152875,79.0517531,CO,18,115,64
India,Maharashtra,Nagpur,"Ram Nagar, Nagpur - MPCB",12-03-2024 23:00:00,21.143383,79.048912,CO,12,35,21
India,Maharashtra,Nanded,"Sneh Nagar, Nanded - MPCB",12-03-2024 23:00:00,19.173852,77.296291,SO2,NA,NA,NA
India,Maharashtra,Nashik,"Gangapur Road, Nashik - MPCB",12-03-2024 23:00:00,20.0073285,73.7762427,PM10,60,122,89
India,Maharashtra,Nashik,"Hirawadi, Nashik - MPCB",12-03-2024 23:00:00,20.021503,73.813844,OZONE,29,101,64
India,Maharashtra,Nashik,"Pandav Nagari, Nashik - MPCB",12-03-2024 23:00:00,19.9591346,73.7788008,PM10,NA,NA,NA
India,Maharashtra,Navi Mumbai,"Kopripada-Vashi, Navi Mumbai - MPCB",12-03-2024 23:00:00,19.090337,73.014232,PM2.5,48,358,139
India,Maharashtra,Navi Mumbai,"Kopripada-Vashi, Navi Mumbai - MPCB",12-03-2024 23:00:00,19.090337,73.014232,PM10,80,376,162
India,Maharashtra,Navi Mumbai,"Kopripada-Vashi, Navi Mumbai - MPCB",12-03-2024 23:00:00,19.090337,73.014232,NH3,2,49,13
India,Maharashtra,Navi Mumbai,"Mahape, Navi Mumbai - MPCB",12-03-2024 23:00:00,19.1135051,73.008978,NO2,37,41,38
India,Maharashtra,Navi Mumbai,"Nerul, Navi Mumbai - MPCB",12-03-2024 23:00:00,19.008751,73.016620,SO2,16,18,17
India,Maharashtra,Navi Mumbai,"Nerul, Navi Mumbai - MPCB",12-03-2024 23:00:00,19.008751,73.016620,CO,48,76,51
India,Maharashtra,Navi Mumbai,"Sector-19A Nerul, Navi Mumbai - IITM",12-03-2024 23:00:00,19.044,73.0325,PM10,109,500,212
India,Maharashtra,Navi Mumbai,"Sector-19A Nerul, Navi Mumbai - IITM",12-03-2024 23:00:00,19.044,73.0325,CO,34,110,73
India,Maharashtra,Navi Mumbai,"Sector-2E Kalamboli, Navi Mumbai - MPCB",12-03-2024 23:00:00,19.02579,73.10297,PM2.5,48,118,78
India,Maharashtra,Navi Mumbai,"Tondare-Taloja, Navi Mumbai - MPCB",12-03-2024 23:00:00,19.0630,73.1209,NH3,3,9,5
India,Maharashtra,Parbhani,"Masoom Colony, Parbhani - MPCB",12-03-2024 23:00:00,19.265594,76.761463,PM2.5,92,302,212
India,Maharashtra,Pimpri-Chinchwad,"Gavalinagar, Pimpri Chinchwad - MPCB",12-03-2024 23:00:00,18.63673,73.82487,CO,12,86,24
India,Maharashtra,Pimpri-Chinchwad,"Park Street Wakad, Pimpri Chinchwad - MPCB",12-03-2024 23:00:00,18.59051,73.77946,PM10,97,193,153
India,Maharashtra,Pimpri-Chinchwad,"Park Street Wakad, Pimpri Chinchwad - MPCB",12-03-2024 23:00:00,18.59051,73.77946,NO2,55,165,94
India,Maharashtra,Pimpri-Chinchwad,"Thergaon, Pimpri Chinchwad - MPCB",12-03-2024 23:00:00,18.616318,73.765797,PM2.5,169,317,230
India,Maharashtra,Pimpri-Chinchwad,"Thergaon, Pimpri Chinchwad - MPCB",12-03-2024 23:00:00,18.616318,73.765797,NO2,23,158,92
India,Maharashtra,Pimpri-Chinchwad,"Thergaon, Pimpri Chinchwad - MPCB",12-03-2024 23:00:00,18.616318,73.765797,OZONE,3,165,117
India,Maharashtra,Pune,"Bhosari, Pune - IITM",12-03-2024 23:00:00,18.640051,73.848956,PM10,75,186,122
India,Maharashtra,Pune,"Bhosari, Pune - IITM",12-03-2024 23:00:00,18.640051,73.848956,NO2,13,14,14
India,Maharashtra,Pune,"Karve Road, Pune - MPCB",12-03-2024 23:00:00,18.5011743,73.8165527,NO2,2,2,2
India,Maharashtra,Pune,"Karve Road, Pune - MPCB",12-03-2024 23:00:00,18.5011743,73.8165527,SO2,23,23,23
India,Maharashtra,Pune,"Katraj Dairy, Pune - MPCB",12-03-2024 23:00:00,18.454450,73.854155,SO2,NA,NA,NA
India,Maharashtra,Pune,"Revenue Colony-Shivajinagar, Pune - IITM",12-03-2024 23:00:00,18.530085,73.849598,PM2.5,10,226,70
India,Maharashtra,Pune,"Revenue Colony-Shivajinagar, Pune - IITM",12-03-2024 23:00:00,18.530085,73.849598,NO2,86,164,123
India,Maharashtra,Pune,"Revenue Colony-Shivajinagar, Pune - IITM",12-03-2024 23:00:00,18.530085,73.849598,SO2,75,115,97
India,Maharashtra,Pune,"Savitribai Phule Pune University, Pune - MPCB",12-03-2024 23:00:00,18.547056,73.826908,PM2.5,48,208,113
India,Maharashtra,Pune,"Savitribai Phule Pune University, Pune - MPCB",12-03-2024 23:00:00,18.547056,73.826908,NH3,NA,NA,NA
India,Maharashtra,Pune,"Savitribai Phule Pune University, Pune - MPCB",12-03-2024 23:00:00,18.547056,73.826908,CO,14,102,30
India,Maharashtra,Pune,"Savitribai Phule Pune University, Pune - MPCB",12-03-2024 23:00:00,18.547056,73.826908,OZONE,3,281,166
India,Maharashtra,Sangli,"Vijay Nagar, Sangli - MPCB",12-03-2024 23:00:00, 16.5038,74.3623,NH3,1,3,2
India,Maharashtra,Sangli,"Vijay Nagar, Sangli - MPCB",12-03-2024 23:00:00, 16.5038,74.3623,OZONE,51,114,74
India,Maharashtra,Solapur,"Ratandeep Housing Society, Solapur - MPCB",12-03-2024 23:00:00,17.65439,75.90649,OZONE,9,154,80
India,Maharashtra,Thane,"Pimpleshwar Mandir, Thane - MPCB",12-03-2024 23:00:00,19.192056,72.9585188,SO2,11,70,31
India,Maharashtra,Thane,"Pimpleshwar Mandir, Thane - MPCB",12-03-2024 23:00:00,19.192056,72.9585188,CO,2,114,44
India,Maharashtra,Ulhasnagar,"Sidhi Vinayak Nagar, Ulhasnagar - MPCB",12-03-2024 23:00:00,19.235581,73.159121,NO2,7,52,21
India,Maharashtra,Ulhasnagar,"Sidhi Vinayak Nagar, Ulhasnagar - MPCB",12-03-2024 23:00:00,19.235581,73.159121,CO,11,115,50
India,Maharashtra,Virar,"Bolinj, Virar - MPCB",12-03-2024 23:00:00,19.4458210,72.7988231,PM2.5,66,128,92
India,Manipur,Imphal,"Manipur University, Imphal - Manipur PCB",12-03-2024 23:00:00,24.7524239,93.9286218,PM2.5,73,272,138
India,Manipur,Imphal,"Manipur University, Imphal - Manipur PCB",12-03-2024 23:00:00,24.7524239,93.9286218,SO2,73,80,76
India,Meghalaya,Shillong,"Lumpyngngad, Shillong - Meghalaya PCB",12-03-2024 23:00:00,25.5586,91.8985,SO2,38,51,41
India,Mizoram,Aizawl,"Sikulpuikawn, Aizawl - Mizoram PCB",12-03-2024 23:00:00,23.7176342,92.7192841,NO2,1,10,2
India,Nagaland,Kohima,"PWD Juction, Kohima - NPCB",12-03-2024 23:00:00,25.6635413,94.0989878,SO2,29,32,30
India,Nagaland,Kohima,"PWD Juction, Kohima - NPCB",12-03-2024 23:00:00,25.6635413,94.0989878,CO,16,34,30
India,Odisha,Balasore,"Kalidaspur, Balasore - OSPCB",12-03-2024 23:00:00,21.51161,86.89088,PM10,69,157,103
India,Odisha,Balasore,"Kalidaspur, Balasore - OSPCB",12-03-2024 23:00:00,21.51161,86.89088,OZONE,12,172,61
India,Odisha,Barbil,"Forest Office, Barbil - OSPCB",12-03-2024 23:00:00,22.1166054,85.3945546,PM2.5,53,297,123
India,Odisha,Barbil,"Forest Office, Barbil - OSPCB",12-03-2024 23:00:00,22.1166054,85.3945546,NO2,4,11,7
India,Odisha,Baripada,"Meher Colony, Baripada - OSPCB",12-03-2024 23:00:00,21.941841,86.728318,NH3,4,4,4
India,Odisha,Bhubaneswar,"Lingraj Mandir, Bhubaneswar - OSPCB",12-03-2024 23:00:00,20.240790,85.836784,NH3,3,7,5
India,Odisha,Bhubaneswar,"Lingraj Mandir, Bhubaneswar - OSPCB",12-03-2024 23:00:00,20.240790,85.836784,SO2,1,11,4
India,Odisha,Bhubaneswar,"Lingraj Mandir, Bhubaneswar - OSPCB",12-03-2024 23:00:00,20.240790,85.836784,CO,51,103,60
India,Odisha,Bhubaneswar,"Patia, Bhubaneswar - OSPCB",12-03-2024 23:00:00,20.34652,85.81630,PM10,65,179,120
India,Odisha,Bhubaneswar,"Patia, Bhubaneswar - OSPCB",12-03-2024 23:00:00,20.34652,85.81630,NH3,2,6,3
India,Odisha,Bhubaneswar,"Patia, Bhubaneswar - OSPCB",12-03-2024 23:00:00,20.34652,85.81630,CO,65,101,86
India,Odisha,Bileipada,"Tata Township, Bileipada - OSPCB",12-03-2024 23:00:00,22.06156703,85.47409613,SO2,16,58,23
India,Odisha,Bileipada,"Tata Township, Bileipada - OSPCB",12-03-2024 23:00:00,22.06156703,85.47409613,CO,14,36,20
India,Odisha,Brajrajnagar,"GM Office, Brajrajnagar - OSPCB",12-03-2024 23:00:00,21.8004996,83.8396977,SO2,15,15,15
India,Odisha,Brajrajnagar,"GM Office, Brajrajnagar - OSPCB",12-03-2024 23:00:00,21.8004996,83.8396977,OZONE,19,20,19
India,Odisha,Byasanagar,"Ferro Chrome Colony, Byasanagar - OSPCB",12-03-2024 23:00:00,20.94185,86.11510,PM2.5,53,263,97
India,Odisha,Byasanagar,"Ferro Chrome Colony, Byasanagar - OSPCB",12-03-2024 23:00:00,20.94185,86.11510,SO2,3,80,17
India,Odisha,Cuttack,"CDA Area, Cuttack - OSPCB",12-03-2024 23:00:00,20.48891     ,85.84768     ,NH3,NA,NA,NA
India,Odisha,Keonjhar,"Jagamohanpur, Keonjhar - OSPCB",12-03-2024 23:00:00,21.643900,85.599355,SO2,12,35,18
India,Odisha,Keonjhar,"Jagamohanpur, Keonjhar - OSPCB",12-03-2024 23:00:00,21.643900,85.599355,CO,12,66,41
India,Odisha,Keonjhar,"Jagamohanpur, Keonjhar - OSPCB",12-03-2024 23:00:00,21.643900,85.599355,OZONE,2,48,15
India,Odisha,Rairangpur,"Divisional Forest Office, Rairangpur - OSPCB",12-03-2024 23:00:00,22.265816,86.174829,NO2,7,8,7
India,Odisha,Rairangpur,"Divisional Forest Office, Rairangpur - OSPCB",12-03-2024 23:00:00,22.265816,86.174829,OZONE,3,67,36
India,Odisha,Rourkela,"Fertilizer Township, Rourkela - OSPCB",12-03-2024 23:00:00,22.18972222,84.86277778,PM10,93,446,148
India,Odisha,Rourkela,"Raghunathpali, Rourkela - OSPCB",12-03-2024 23:00:00,22.220833,84.809444,NO2,15,176,58
India,Odisha,Suakati,"OMC Colony, Suakati - OSPCB",12-03-2024 23:00:00,21.606865,85.510538,PM2.5,124,207,160
India,Odisha,Suakati,"OMC Colony, Suakati - OSPCB",12-03-2024 23:00:00,21.606865,85.510538,NH3,11,60,26
India,Odisha,Talcher,"Talcher Coalfields,Talcher - OSPCB",12-03-2024 23:00:00,20.9360711,85.1707021,NO2,37,43,40
India,Puducherry,Puducherry,"Jawahar Nagar, Puducherry - PPCC",12-03-2024 23:00:00,11.9309,79.8027,PM10,34,100,56
India,Puducherry,Puducherry,"Jawahar Nagar, Puducherry - PPCC",12-03-2024 23:00:00,11.9309,79.8027,CO,15,54,23
India,Punjab,Amritsar,"Golden Temple, Amritsar - PPCB",12-03-2024 23:00:00,31.620000,74.876512,NO2,8,14,11
India,Punjab,Amritsar,"Golden Temple, Amritsar - PPCB",12-03-2024 23:00:00,31.620000,74.876512,OZONE,50,63,58
India,Punjab,Jalandhar,"Civil Line, Jalandhar - PPCB",12-03-2024 23:00:00,31.321907,75.578914,OZONE,4,140,72
India,Punjab,Khanna,"Kalal Majra, Khanna - PPCB",12-03-2024 23:00:00,30.736056 ,76.209694,PM2.5,37,104,70
India,Punjab,Khanna,"Kalal Majra, Khanna - PPCB",12-03-2024 23:00:00,30.736056 ,76.209694,NH3,14,14,14
India,Punjab,Ludhiana,"Punjab Agricultural University, Ludhiana - PPCB",12-03-2024 23:00:00,30.9028,75.8086,PM10,63,157,116
India,Punjab,Ludhiana,"Punjab Agricultural University, Ludhiana - PPCB",12-03-2024 23:00:00,30.9028,75.8086,NH3,5,6,5
India,Punjab,Mandi Gobindgarh,"RIMT University, Mandi Gobindgarh - PPCB",12-03-2024 23:00:00,30.649961,76.331442,PM2.5,144,333,227
India,Punjab,Mandi Gobindgarh,"RIMT University, Mandi Gobindgarh - PPCB",12-03-2024 23:00:00,30.649961,76.331442,SO2,5,46,18
India,Punjab,Mandi Gobindgarh,"RIMT University, Mandi Gobindgarh - PPCB",12-03-2024 23:00:00,30.649961,76.331442,OZONE,32,67,49
India,Punjab,Rupnagar,"Ratanpura, Rupnagar - Ambuja Cements",12-03-2024 23:00:00,31.0325454,76.5623046,CO,40,54,46
India,Rajasthan,Ajmer,"Civil Lines,  Ajmer - RSPCB",12-03-2024 23:00:00,26.470859,74.646594,OZONE,5,77,46
India,Rajasthan,Alwar,"Moti Doongri, Alwar - RSPCB",12-03-2024 23:00:00,27.554793,76.611536,PM10,69,121,94
India,Rajasthan,Baran,"Bamboliya, Baran - RSPCB",12-03-2024 23:00:00,25.106006,76.469948,NH3,3,31,8
India,Rajasthan,Bharatpur,"Krishna Nagar, Bharatpur - RSPCB",12-03-2024 23:00:00,27.215415,77.50873,SO2,1,9,5
India,Rajasthan,Bhiwadi,"Vasundhara Nagar_UIT, Bhiwadi - RSPCB",12-03-2024 23:00:00,28.207266,76.829265,PM10,95,292,171
India,Rajasthan,Bhiwadi,"Vasundhara Nagar_UIT, Bhiwadi - RSPCB",12-03-2024 23:00:00,28.207266,76.829265,NO2,22,107,61
India,Rajasthan,Bikaner,"MM Ground, Bikaner - RSPCB",12-03-2024 23:00:00,28.018792,73.292658,NH3,9,12,10
India,Rajasthan,Bundi,"New Colony, Bundi - RSPCB",12-03-2024 23:00:00,25.435774,75.644272,OZONE,22,112,77
India,Rajasthan,Chittorgarh,"Shastri Nagar, Chittorgarh - RSPCB",12-03-2024 23:00:00,24.892047,74.623527,PM2.5,29,179,74
India,Rajasthan,Chittorgarh,"Shastri Nagar, Chittorgarh - RSPCB",12-03-2024 23:00:00,24.892047,74.623527,CO,10,68,28
India,Rajasthan,Churu,"Subash Chowk, Churu - RSPCB",12-03-2024 23:00:00,28.296139,74.961696,OZONE,60,163,118
India,Rajasthan,Dausa,"Khatikan Mohalla, Dausa - RSPCB",12-03-2024 23:00:00,26.895552,76.334753,PM2.5,26,209,99
India,Rajasthan,Dausa,"Khatikan Mohalla, Dausa - RSPCB",12-03-2024 23:00:00,26.895552,76.334753,NO2,21,57,37
India,Rajasthan,Dausa,"Khatikan Mohalla, Dausa - RSPCB",12-03-2024 23:00:00,26.895552,76.334753,CO,12,94,88
India,Rajasthan,Dholpur,"Raja Ganj, Dholpur - RSPCB",12-03-2024 23:00:00,26.699557,77.898881,NO2,9,68,27
India,Rajasthan,Dungarpur,"Bhoiwada, Dungarpur - RSPCB",12-03-2024 23:00:00,23.837789,73.714926,PM2.5,18,48,30
India,Rajasthan,Dungarpur,"Bhoiwada, Dungarpur - RSPCB",12-03-2024 23:00:00,23.837789,73.714926,NH3,4,5,5
India,Rajasthan,Dungarpur,"Bhoiwada, Dungarpur - RSPCB",12-03-2024 23:00:00,23.837789,73.714926,SO2,7,10,8
India,Rajasthan,Dungarpur,"Bhoiwada, Dungarpur - RSPCB",12-03-2024 23:00:00,23.837789,73.714926,CO,23,46,27
India,Rajasthan,Hanumangarh,"Housing Board, Hanumangarh - RSPCB",12-03-2024 23:00:00,29.610750,74.283608,PM10,52,407,148
India,Rajasthan,Hanumangarh,"Housing Board, Hanumangarh - RSPCB",12-03-2024 23:00:00,29.610750,74.283608,NH3,NA,NA,NA
India,Rajasthan,Hanumangarh,"Housing Board, Hanumangarh - RSPCB",12-03-2024 23:00:00,29.610750,74.283608,SO2,3,23,7
India,Rajasthan,Jaipur,"Adarsh Nagar, Jaipur - RSPCB",12-03-2024 23:00:00,26.902909,75.836858,SO2,1,13,6
India,Rajasthan,Jaipur,"Mansarovar Sector-12, Jaipur - RSPCB",12-03-2024 23:00:00,26.843698,75.766894,CO,24,34,26
India,Rajasthan,Jaipur,"Police Commissionerate, Jaipur - RSPCB",12-03-2024 23:00:00,26.9164092,75.7994901,NO2,20,110,45
India,Rajasthan,Jaipur,"Police Commissionerate, Jaipur - RSPCB",12-03-2024 23:00:00,26.9164092,75.7994901,SO2,14,23,17
India,Rajasthan,Jaipur,"RIICO Sitapura, Jaipur - RSPCB",12-03-2024 23:00:00,26.786682,75.827928,PM2.5,39,315,148
India,Rajasthan,Jaipur,"RIICO Sitapura, Jaipur - RSPCB",12-03-2024 23:00:00,26.786682,75.827928,PM10,77,190,138
India,Rajasthan,Jaipur,"RIICO Sitapura, Jaipur - RSPCB",12-03-2024 23:00:00,26.786682,75.827928,NH3,2,24,7
India,Rajasthan,Jaipur,"Sector-2 Murlipura, Jaipur - RSPCB",12-03-2024 23:00:00,26.960669,75.771817,PM2.5,33,73,52
India,Rajasthan,Jaipur,"Sector-2 Murlipura, Jaipur - RSPCB",12-03-2024 23:00:00,26.960669,75.771817,PM10,34,114,76
India,Rajasthan,Jaipur,"Shastri Nagar, Jaipur - RSPCB",12-03-2024 23:00:00,26.9502929,75.730943,NH3,1,17,5
India,Rajasthan,Jaipur,"Shastri Nagar, Jaipur - RSPCB",12-03-2024 23:00:00,26.9502929,75.730943,SO2,2,44,22
India,Rajasthan,Jaisalmer,"Sadar Bazar, Jaisalmer - RSPCB",12-03-2024 23:00:00,26.912329,70.909168,PM10,55,150,99
India,Rajasthan,Jaisalmer,"Sadar Bazar, Jaisalmer - RSPCB",12-03-2024 23:00:00,26.912329,70.909168,NH3,4,11,7
India,Rajasthan,Jalore,"Mudtra Sili, Jalore - RSPCB",12-03-2024 23:00:00,25.344694,72.626208,NO2,8,84,33
India,Rajasthan,Jalore,"Mudtra Sili, Jalore - RSPCB",12-03-2024 23:00:00,25.344694,72.626208,SO2,4,8,6
India,Rajasthan,Jalore,"Mudtra Sili, Jalore - RSPCB",12-03-2024 23:00:00,25.344694,72.626208,OZONE,9,99,60
India,Rajasthan,Jhalawar,"Rajlaxmi Nagar, Jhalawar - RSPCB",12-03-2024 23:00:00,24.588397,76.172782,SO2,2,20,9
India,Rajasthan,Jodhpur,"Collectorate, Jodhpur - RSPCB",12-03-2024 23:00:00,26.268249,73.0193853,PM2.5,25,221,108
India,Rajasthan,Jodhpur,"Collectorate, Jodhpur - RSPCB",12-03-2024 23:00:00,26.268249,73.0193853,PM10,5,147,103
India,Rajasthan,Jodhpur,"Digari Kalan, Jodhpur - RSPCB",12-03-2024 23:00:00,26.295810,73.082283,NO2,5,93,28
India,Rajasthan,Jodhpur,"Digari Kalan, Jodhpur - RSPCB",12-03-2024 23:00:00,26.295810,73.082283,CO,19,47,33
India,Rajasthan,Jodhpur,"Jhalamand, Jodhpur - RSPCB",12-03-2024 23:00:00,26.215415,73.070156,PM2.5,27,321,113
India,Rajasthan,Jodhpur,"Jhalamand, Jodhpur - RSPCB",12-03-2024 23:00:00,26.215415,73.070156,CO,10,67,34
India,Rajasthan,Jodhpur,"Mandor, Jodhpur - RSPCB",12-03-2024 23:00:00,26.358805,73.047444,OZONE,56,99,80
India,Rajasthan,Jodhpur,"Samrat Ashok Udhyan, Jodhpur - RSPCB",12-03-2024 23:00:00,26.253384,72.976571,CO,24,64,39
India,Rajasthan,Karauli,"Satyawati Vihar, Karauli - RSPCB",12-03-2024 23:00:00,26.506177,77.025989,NH3,1,6,2
India,Rajasthan,Karauli,"Satyawati Vihar, Karauli - RSPCB",12-03-2024 23:00:00,26.506177,77.025989,CO,26,72,40
India,Rajasthan,Kota,"Dhanmandi, Kota - RSPCB",12-03-2024 23:00:00,25.164090,75.858137,PM10,65,289,132
India,Rajasthan,Kota,"Nayapura, Kota - RSPCB",12-03-2024 23:00:00,25.196024,75.855668,PM10,76,401,141
India,Rajasthan,Kota,"Shrinath Puram, Kota - RSPCB",12-03-2024 23:00:00,25.14389,75.821256,NH3,13,24,17
India,Rajasthan,Kota,"Shrinath Puram, Kota - RSPCB",12-03-2024 23:00:00,25.14389,75.821256,CO,33,98,57
India,Rajasthan,Nagaur,"Karni Colony, Nagaur - RSPCB",12-03-2024 23:00:00,27.213494,73.734444,NH3,NA,NA,NA
India,Rajasthan,Pali,"Indira Colony Vistar, Pali - RSPCB",12-03-2024 23:00:00,25.771061, 73.340227,NO2,24,96,53
India,Rajasthan,Pali,"Indira Colony Vistar, Pali - RSPCB",12-03-2024 23:00:00,25.771061, 73.340227,SO2,1,28,18
India,Rajasthan,Pratapgarh,"Pragati Nagar, Pratapgarh - RSPCB",12-03-2024 23:00:00,24.041198,74.780702,PM2.5,7,77,29
India,Rajasthan,Rajsamand,"Dhoinda, Rajsamand - RSPCB",12-03-2024 23:00:00,25.036360,73.883502,SO2,5,11,7
India,Rajasthan,Sikar,"Radhakishan Pura, Sikar - RSPCB",12-03-2024 23:00:00,27.608912,75.153302,NH3,2,7,5
India,Rajasthan,Sikar,"Radhakishan Pura, Sikar - RSPCB",12-03-2024 23:00:00,27.608912,75.153302,CO,15,101,42
India,Rajasthan,Sikar,"Radhakishan Pura, Sikar - RSPCB",12-03-2024 23:00:00,27.608912,75.153302,OZONE,6,78,45
India,Rajasthan,Sri Ganganagar,"Old City, Sri Ganganagar - RSPCB",12-03-2024 23:00:00,29.931624,73.864511,PM2.5,25,308,143
India,Rajasthan,Sri Ganganagar,"Old City, Sri Ganganagar - RSPCB",12-03-2024 23:00:00,29.931624,73.864511,PM10,88,500,190
India,Rajasthan,Sri Ganganagar,"Old City, Sri Ganganagar - RSPCB",12-03-2024 23:00:00,29.931624,73.864511,SO2,6,22,12
India,Rajasthan,Sri Ganganagar,"Old City, Sri Ganganagar - RSPCB",12-03-2024 23:00:00,29.931624,73.864511,CO,16,107,52
India,Rajasthan,Tonk,"Shastri Nagar, Tonk - RSPCB",12-03-2024 23:00:00,26.159933,75.780517,NH3,5,38,10
India,Sikkim,Gangtok,"Zero Point GICI, Gangtok - SSPCB",12-03-2024 23:00:00,27.338530,88.614099,NO2,1,9,3
India,Sikkim,Gangtok,"Zero Point GICI, Gangtok - SSPCB",12-03-2024 23:00:00,27.338530,88.614099,NH3,1,1,1
India,TamilNadu,Ariyalur,"Keelapalur, Ariyalur - TNPCB",12-03-2024 23:00:00,11.06825,79.07033,PM10,48,82,62
India,TamilNadu,Chengalpattu,"Crescent University, Chengalpattu - TNPCB",12-03-2024 23:00:00,12.8777316,80.0834807,OZONE,6,7,6
India,TamilNadu,Chennai,"Alandur Bus Depot, Chennai - CPCB",12-03-2024 23:00:00,12.9099161,80.1076538,CO,22,102,50
India,TamilNadu,Chennai,"Arumbakkam, Chennai - TNPCB",12-03-2024 23:00:00,13.0664,80.2112 ,PM2.5,28,133,49
India,TamilNadu,Chennai,"Arumbakkam, Chennai - TNPCB",12-03-2024 23:00:00,13.0664,80.2112 ,NO2,9,29,17
India,TamilNadu,Chennai,"Kodungaiyur, Chennai - TNPCB",12-03-2024 23:00:00,13.1278,80.2642,NO2,10,23,15
India,TamilNadu,Chennai,"Kodungaiyur, Chennai - TNPCB",12-03-2024 23:00:00,13.1278,80.2642,SO2,1,12,5
India,TamilNadu,Chennai,"Manali, Chennai - CPCB",12-03-2024 23:00:00,13.164544,80.26285,PM10,42,74,58
India,TamilNadu,Chennai,"Manali, Chennai - CPCB",12-03-2024 23:00:00,13.164544,80.26285,OZONE,7,19,11
India,TamilNadu,Chennai,"Perungudi, Chennai - TNPCB",12-03-2024 23:00:00,12.9533,80.2357,PM2.5,37,78,50
India,TamilNadu,Chennai,"Perungudi, Chennai - TNPCB",12-03-2024 23:00:00,12.9533,80.2357,OZONE,3,11,9
India,TamilNadu,Chennai,"Royapuram, Chennai - TNPCB",12-03-2024 23:00:00,13.1036,80.2909,OZONE,9,11,9
India,TamilNadu,Chennai,"Velachery Res. Area, Chennai - CPCB",12-03-2024 23:00:00,13.0052189,80.2398125,PM10,58,96,82
India,TamilNadu,Chennai,"Velachery Res. Area, Chennai - CPCB",12-03-2024 23:00:00,13.0052189,80.2398125,OZONE,1,16,7
India,TamilNadu,Cuddalore,"Kudikadu, Cuddalore - TNPCB",12-03-2024 23:00:00,11.6829898,79.7532099,PM2.5,43,88,64
India,TamilNadu,Cuddalore,"Kudikadu, Cuddalore - TNPCB",12-03-2024 23:00:00,11.6829898,79.7532099,NO2,23,29,26
India,TamilNadu,Cuddalore,"Kudikadu, Cuddalore - TNPCB",12-03-2024 23:00:00,11.6829898,79.7532099,NH3,5,6,5
India,TamilNadu,Ooty,"Bombay Castel, Ooty - TNPCB",12-03-2024 23:00:00,11.4068288,76.7138973,PM10,NA,NA,NA
India,TamilNadu,Salem,"Sona College of Technology, Salem - TNPCB",12-03-2024 23:00:00,11.679111,78.125052,PM10,NA,NA,NA
India,TamilNadu,Salem,"Sona College of Technology, Salem - TNPCB",12-03-2024 23:00:00,11.679111,78.125052,OZONE,2,3,3
India,TamilNadu,Thoothukudi,"Meelavittan, Thoothukudi - TNPCB",12-03-2024 23:00:00,8.816428 ,78.099039,PM10,40,355,83
India,TamilNadu,Thoothukudi,"Meelavittan, Thoothukudi - TNPCB",12-03-2024 23:00:00,8.816428 ,78.099039,NO2,15,31,20
India,TamilNadu,Thoothukudi,"Meelavittan, Thoothukudi - TNPCB",12-03-2024 23:00:00,8.816428 ,78.099039,CO,2,58,32
India,TamilNadu,Tirupur,"Kumaran College, Tirupur - TNPCB",12-03-2024 23:00:00,11.0973603,77.3228673,NH3,NA,NA,NA
India,TamilNadu,Vellore,"Vasanthapuram, Vellore - TNPCB",12-03-2024 23:00:00,12.909494,79.131861,PM2.5,30,174,72
India,Telangana,Hyderabad,"Bollaram Industrial Area, Hyderabad - TSPCB",12-03-2024 23:00:00,17.540891,78.358528,SO2,2,55,10
India,Telangana,Hyderabad,"Bollaram Industrial Area, Hyderabad - TSPCB",12-03-2024 23:00:00,17.540891,78.358528,OZONE,36,39,37
India,Telangana,Hyderabad,"ECIL Kapra, Hyderabad - TSPCB",12-03-2024 23:00:00,17.470431,78.566959,NO2,7,12,10
India,Telangana,Hyderabad,"ECIL Kapra, Hyderabad - TSPCB",12-03-2024 23:00:00,17.470431,78.566959,NH3,6,8,7
India,Telangana,Hyderabad,"ICRISAT Patancheru, Hyderabad - TSPCB",12-03-2024 23:00:00,17.518400,78.278777,PM2.5,53,101,67
India,Telangana,Hyderabad,"IITH Kandi, Hyderabad - TSPCB",12-03-2024 23:00:00,17.585705,78.126199,PM2.5,NA,NA,NA
India,Telangana,Hyderabad,"Kokapet, Hyderabad - TSPCB",12-03-2024 23:00:00,17.393559,78.339194,PM10,72,101,85
India,Telangana,Hyderabad,"Kokapet, Hyderabad - TSPCB",12-03-2024 23:00:00,17.393559,78.339194,NH3,1,2,1
India,Telangana,Hyderabad,"Nacharam_TSIIC IALA, Hyderabad - TSPCB",12-03-2024 23:00:00,17.429398,78.569354,CO,14,52,16
India,Telangana,Hyderabad,"Ramachandrapuram, Hyderabad - TSPCB",12-03-2024 23:00:00,17.528544,78.286195,PM2.5,NA,NA,NA
India,Telangana,Hyderabad,"Ramachandrapuram, Hyderabad - TSPCB",12-03-2024 23:00:00,17.528544,78.286195,SO2,NA,NA,NA
India,Telangana,Hyderabad,"Ramachandrapuram, Hyderabad - TSPCB",12-03-2024 23:00:00,17.528544,78.286195,CO,21,30,24
India,Telangana,Hyderabad,"Zoo Park, Hyderabad - TSPCB",12-03-2024 23:00:00,17.349694,78.451437,NH3,1,2,1
India,Telangana,Hyderabad,"Zoo Park, Hyderabad - TSPCB",12-03-2024 23:00:00,17.349694,78.451437,OZONE,16,55,31
India,Tripura,Agartala,"Bardowali, Agartala - Tripura SPCB",12-03-2024 23:00:00,23.8175497,91.2726974,NO2,9,20,13
India,Uttar_Pradesh,Agra,"Manoharpur, Agra - UPPCB",12-03-2024 23:00:00,27.23711,78.01936,NH3,1,2,2
India,Uttar_Pradesh,Agra,"Rohta, Agra - UPPCB",12-03-2024 23:00:00,27.106972,78.000111,PM2.5,27,243,89
India,Uttar_Pradesh,Agra,"Rohta, Agra - UPPCB",12-03-2024 23:00:00,27.106972,78.000111,PM10,23,128,68
India,Uttar_Pradesh,Agra,"Rohta, Agra - UPPCB",12-03-2024 23:00:00,27.106972,78.000111,NH3,1,1,1
India,Uttar_Pradesh,Agra,"Rohta, Agra - UPPCB",12-03-2024 23:00:00,27.106972,78.000111,CO,6,22,11
India,Uttar_Pradesh,Agra,"Sanjay Palace, Agra - UPPCB",12-03-2024 23:00:00,27.19865833,78.00598056,PM10,32,78,59
India,Uttar_Pradesh,Agra,"Shastripuram, Agra - UPPCB",12-03-2024 23:00:00,27.19862,77.92066,NO2,26,74,38
India,Uttar_Pradesh,Baghpat,"Sardar Patel Inter College, Baghpat - UPPCB",12-03-2024 23:00:00,28.964949,77.278761,PM10,61,151,102
India,Uttar_Pradesh,Bareilly,"Civil Lines, Bareilly - UPPCB",12-03-2024 23:00:00,28.359581,79.414455,OZONE,7,36,20
India,Uttar_Pradesh,Bareilly,"Rajendra Nagar, Bareilly - UPPCB",12-03-2024 23:00:00,28.38910936,79.42963708,NO2,15,79,34
India,Uttar_Pradesh,Bulandshahr,"Yamunapuram, Bulandshahr - UPPCB",12-03-2024 23:00:00,28.406963,77.849831,SO2,30,105,56
India,Uttar_Pradesh,Firozabad,"Vibhab Nagar, Firozabad - UPPCB",12-03-2024 23:00:00,27.1594,78.3953,PM10,40,106,58
India,Uttar_Pradesh,Firozabad,"Vibhab Nagar, Firozabad - UPPCB",12-03-2024 23:00:00,27.1594,78.3953,CO,22,32,25
India,Uttar_Pradesh,Ghaziabad,"Indirapuram, Ghaziabad - UPPCB",12-03-2024 23:00:00,28.646233,77.358075,PM2.5,30,178,92
India,Uttar_Pradesh,Ghaziabad,"Indirapuram, Ghaziabad - UPPCB",12-03-2024 23:00:00,28.646233,77.358075,PM10,98,222,146
India,Uttar_Pradesh,Ghaziabad,"Indirapuram, Ghaziabad - UPPCB",12-03-2024 23:00:00,28.646233,77.358075,CO,26,57,32
India,Uttar_Pradesh,Ghaziabad,"Loni, Ghaziabad - UPPCB",12-03-2024 23:00:00,28.757294,77.278792,NO2,2,25,12
India,Uttar_Pradesh,Ghaziabad,"Sanjay Nagar, Ghaziabad - UPPCB",12-03-2024 23:00:00,28.685382,77.453839,PM10,72,233,134
India,Uttar_Pradesh,Ghaziabad,"Sanjay Nagar, Ghaziabad - UPPCB",12-03-2024 23:00:00,28.685382,77.453839,SO2,19,69,38
India,Uttar_Pradesh,Ghaziabad,"Vasundhara, Ghaziabad - UPPCB",12-03-2024 23:00:00,28.6603346,77.3572563,NO2,18,122,68
India,Uttar_Pradesh,Gorakhpur,"Madan Mohan Malaviya University of Technology, Gorakhpur - UPPCB",12-03-2024 23:00:00,26.730136,83.433859,SO2,31,39,34
India,Uttar_Pradesh,Jhansi,"Shivaji Nagar, Jhansi - UPPCB",12-03-2024 23:00:00,25.4547,78.6039,OZONE,6,30,19
India,Uttar_Pradesh,Kanpur,"FTI Kidwai Nagar, Kanpur - UPPCB",12-03-2024 23:00:00,26.428282,80.327067,PM10,70,253,122
India,Uttar_Pradesh,Kanpur,"FTI Kidwai Nagar, Kanpur - UPPCB",12-03-2024 23:00:00,26.428282,80.327067,CO,30,56,35
India,Uttar_Pradesh,Kanpur,"NSI Kalyanpur, Kanpur - UPPCB",12-03-2024 23:00:00,26.509954,80.249612,PM2.5,43,146,78
India,Uttar_Pradesh,Kanpur,"NSI Kalyanpur, Kanpur - UPPCB",12-03-2024 23:00:00,26.509954,80.249612,NH3,1,3,1
India,Uttar_Pradesh,Kanpur,"NSI Kalyanpur, Kanpur - UPPCB",12-03-2024 23:00:00,26.509954,80.249612,CO,34,54,39
India,Uttar_Pradesh,Kanpur,"Nehru Nagar, Kanpur - UPPCB",12-03-2024 23:00:00,26.4703136,80.3229863,PM2.5,33,117,74
India,Uttar_Pradesh,Kanpur,"Nehru Nagar, Kanpur - UPPCB",12-03-2024 23:00:00,26.4703136,80.3229863,NO2,1,41,23
India,Uttar_Pradesh,Kanpur,"Nehru Nagar, Kanpur - UPPCB",12-03-2024 23:00:00,26.4703136,80.3229863,SO2,1,10,6
India,Uttar_Pradesh,Kanpur,"Nehru Nagar, Kanpur - UPPCB",12-03-2024 23:00:00,26.4703136,80.3229863,OZONE,37,90,56
India,Uttar_Pradesh,Khurja,"Kalindi Kunj, Khurja - UPPCB",12-03-2024 23:00:00,28.2348927,77.8683002,SO2,26,60,33
India,Uttar_Pradesh,Lucknow,"B R Ambedkar University, Lucknow - UPPCB",12-03-2024 23:00:00,26.766433,80.927299,PM2.5,44,106,73
India,Uttar_Pradesh,Lucknow,"B R Ambedkar University, Lucknow - UPPCB",12-03-2024 23:00:00,26.766433,80.927299,PM10,81,140,102
India,Uttar_Pradesh,Lucknow,"Gomti Nagar, Lucknow - UPPCB",12-03-2024 23:00:00,26.868120,81.005119,PM10,78,134,100
India,Uttar_Pradesh,Lucknow,"Kendriya Vidyalaya, Lucknow - CPCB",12-03-2024 23:00:00,26.906111,80.948222,NO2,12,41,26
India,Uttar_Pradesh,Lucknow,"Kendriya Vidyalaya, Lucknow - CPCB",12-03-2024 23:00:00,26.906111,80.948222,OZONE,16,44,29
India,Uttar_Pradesh,Lucknow,"Kukrail Picnic Spot-1, Lucknow - UPPCB",12-03-2024 23:00:00,26.90723,80.98579,NO2,8,9,8
India,Uttar_Pradesh,Lucknow,"Lalbagh, Lucknow - CPCB",12-03-2024 23:00:00,26.8458805,80.9365541,NH3,6,13,11
India,Uttar_Pradesh,Lucknow,"Talkatora District Industries Center, Lucknow - CPCB",12-03-2024 23:00:00,26.83399722,80.8917361,CO,8,37,27
India,Uttar_Pradesh,Meerut,"Ganga Nagar, Meerut - UPPCB",12-03-2024 23:00:00,28.999264,77.7590354,NH3,5,7,6
India,Uttar_Pradesh,Meerut,"Ganga Nagar, Meerut - UPPCB",12-03-2024 23:00:00,28.999264,77.7590354,CO,17,54,22
India,Uttar_Pradesh,Meerut,"Pallavpuram Phase 2, Meerut - UPPCB",12-03-2024 23:00:00,29.063510,77.709723,CO,10,49,24
India,Uttar_Pradesh,Moradabad,"Eco Herbal Park, Moradabad - UPPCB",12-03-2024 23:00:00,28.840739,78.697531,CO,12,70,31
India,Uttar_Pradesh,Moradabad,"Eco Herbal Park, Moradabad - UPPCB",12-03-2024 23:00:00,28.840739,78.697531,OZONE,4,15,8
India,Uttar_Pradesh,Moradabad,"Employment Office, Moradabad - UPPCB",12-03-2024 23:00:00,28.88528,78.73880,PM2.5,46,142,78
India,Uttar_Pradesh,Moradabad,"Employment Office, Moradabad - UPPCB",12-03-2024 23:00:00,28.88528,78.73880,CO,14,42,19
India,Uttar_Pradesh,Moradabad,"Employment Office, Moradabad - UPPCB",12-03-2024 23:00:00,28.88528,78.73880,OZONE,14,79,40
India,Uttar_Pradesh,Moradabad,"Jigar Colony, Moradabad - UPPCB",12-03-2024 23:00:00,28.856664,78.772638,PM2.5,35,207,80
India,Uttar_Pradesh,Moradabad,"Kashiram Nagar, Moradabad - UPPCB",12-03-2024 23:00:00,28.849399,78.742362,NO2,13,46,26
India,Uttar_Pradesh,Moradabad,"Kashiram Nagar, Moradabad - UPPCB",12-03-2024 23:00:00,28.849399,78.742362,NH3,2,4,4
India,Uttar_Pradesh,Moradabad,"Kashiram Nagar, Moradabad - UPPCB",12-03-2024 23:00:00,28.849399,78.742362,SO2,27,39,32
India,Uttar_Pradesh,Muzaffarnagar,"New Mandi, Muzaffarnagar - UPPCB",12-03-2024 23:00:00,29.4723508,77.7194031,OZONE,31,85,56
India,Uttar_Pradesh,Noida,"Sector - 125, Noida - UPPCB",12-03-2024 23:00:00,28.5447608,77.3231257,PM2.5,40,218,99
India,Uttar_Pradesh,Noida,"Sector - 125, Noida - UPPCB",12-03-2024 23:00:00,28.5447608,77.3231257,OZONE,5,165,67
India,Uttar_Pradesh,Noida,"Sector - 62, Noida - IMD",12-03-2024 23:00:00,28.6245479,77.3577104,OZONE,3,44,25
India,Uttar_Pradesh,Noida,"Sector-1, Noida - UPPCB",12-03-2024 23:00:00,28.5898,77.3101,PM2.5,49,324,184
India,Uttar_Pradesh,Noida,"Sector-1, Noida - UPPCB",12-03-2024 23:00:00,28.5898,77.3101,OZONE,1,159,84
India,Uttar_Pradesh,Noida,"Sector-116, Noida - UPPCB",12-03-2024 23:00:00,28.569230,77.393848,PM10,95,209,139
India,Uttar_Pradesh,Noida,"Sector-116, Noida - UPPCB",12-03-2024 23:00:00,28.569230,77.393848,SO2,18,57,34
India,Uttar_Pradesh,Noida,"Sector-116, Noida - UPPCB",12-03-2024 23:00:00,28.569230,77.393848,CO,10,88,41
India,Uttar_Pradesh,Prayagraj,"Jhunsi, Prayagraj - UPPCB",12-03-2024 23:00:00,25.425602,81.917152,CO,8,44,23
India,Uttar_Pradesh,Prayagraj,"Motilal Nehru NIT, Prayagraj - UPPCB",12-03-2024 23:00:00,25.494,81.863,PM2.5,17,63,42
India,Uttar_Pradesh,Prayagraj,"Motilal Nehru NIT, Prayagraj - UPPCB",12-03-2024 23:00:00,25.494,81.863,NH3,6,8,6
India,Uttar_Pradesh,Prayagraj,"Nagar Nigam, Prayagraj - UPPCB",12-03-2024 23:00:00,25.44919916 ,81.82735986 ,PM2.5,23,197,62
India,Uttar_Pradesh,Prayagraj,"Nagar Nigam, Prayagraj - UPPCB",12-03-2024 23:00:00,25.44919916 ,81.82735986 ,PM10,40,291,107
India,Uttar_Pradesh,Prayagraj,"Nagar Nigam, Prayagraj - UPPCB",12-03-2024 23:00:00,25.44919916 ,81.82735986 ,NO2,5,5,5
India,Uttar_Pradesh,Prayagraj,"Nagar Nigam, Prayagraj - UPPCB",12-03-2024 23:00:00,25.44919916 ,81.82735986 ,NH3,3,11,6
India,Uttar_Pradesh,Varanasi,"Ardhali Bazar, Varanasi - UPPCB",12-03-2024 23:00:00,25.3505986,82.9083074,PM2.5,10,57,30
India,Uttar_Pradesh,Varanasi,"Ardhali Bazar, Varanasi - UPPCB",12-03-2024 23:00:00,25.3505986,82.9083074,CO,8,25,13
India,Uttar_Pradesh,Varanasi,"Ardhali Bazar, Varanasi - UPPCB",12-03-2024 23:00:00,25.3505986,82.9083074,OZONE,22,35,23
India,Uttar_Pradesh,Varanasi,"Bhelupur, Varanasi - UPPCB",12-03-2024 23:00:00,25.301778,82.996789,PM10,21,70,40
India,Uttar_Pradesh,Varanasi,"Bhelupur, Varanasi - UPPCB",12-03-2024 23:00:00,25.301778,82.996789,NO2,7,8,8
India,Uttar_Pradesh,Varanasi,"Bhelupur, Varanasi - UPPCB",12-03-2024 23:00:00,25.301778,82.996789,NH3,1,2,1
India,Uttar_Pradesh,Varanasi,"Bhelupur, Varanasi - UPPCB",12-03-2024 23:00:00,25.301778,82.996789,OZONE,1,43,21
India,Uttar_Pradesh,Varanasi,"IESD Banaras Hindu University, Varanasi - UPPCB",12-03-2024 23:00:00,25.262326,82.995408,PM2.5,6,30,16
India,Uttar_Pradesh,Varanasi,"IESD Banaras Hindu University, Varanasi - UPPCB",12-03-2024 23:00:00,25.262326,82.995408,NO2,2,2,2
India,Uttar_Pradesh,Varanasi,"Maldahiya, Varanasi - UPPCB",12-03-2024 23:00:00,25.32393,82.99687,PM10,16,52,34
India,Uttar_Pradesh,Vrindavan,"Omex Eternity, Vrindavan - UPPCB",12-03-2024 23:00:00,27.5714090,77.6557570,NH3,3,4,3
India,Uttarakhand,Dehradun,"Doon University, Dehradun - UKPCB",12-03-2024 23:00:00,30.269444,78.044167,CO,30,54,35
India,Uttarakhand,Kashipur,"Govt. Girls Inter College, Kashipur - UKPCB",12-03-2024 23:00:00,29.2124114,78.9611753,NH3,4,9,7
India,Uttarakhand,Kashipur,"Govt. Girls Inter College, Kashipur - UKPCB",12-03-2024 23:00:00,29.2124114,78.9611753,OZONE,9,40,31
India,West_Bengal,Asansol,"Asansol Court Area, Asansol - WBPCB",12-03-2024 23:00:00,23.685297,86.945968,NO2,7,202,39
India,West_Bengal,Asansol,"Asansol Court Area, Asansol - WBPCB",12-03-2024 23:00:00,23.685297,86.945968,SO2,12,32,19
India,West_Bengal,Durgapur,"Sidhu Kanhu Indoor Stadium, Durgapur - WBPCB",12-03-2024 23:00:00,23.5404352,87.2892225,PM10,108,169,135
India,West_Bengal,Durgapur,"Sidhu Kanhu Indoor Stadium, Durgapur - WBPCB",12-03-2024 23:00:00,23.5404352,87.2892225,NO2,23,32,26
India,West_Bengal,Howrah,"Padmapukur, Howrah - WBPCB",12-03-2024 23:00:00,22.5687319,88.2797276,PM2.5,58,94,78
India,West_Bengal,Howrah,"Padmapukur, Howrah - WBPCB",12-03-2024 23:00:00,22.5687319,88.2797276,NH3,2,3,2
India,West_Bengal,Howrah,"Padmapukur, Howrah - WBPCB",12-03-2024 23:00:00,22.5687319,88.2797276,CO,22,69,42
India,West_Bengal,Kolkata,"Ballygunge, Kolkata - WBPCB",12-03-2024 23:00:00,22.5367507,88.3638022,OZONE,12,81,47
India,West_Bengal,Kolkata,"Fort William, Kolkata - WBPCB",12-03-2024 23:00:00,22.556640,88.342674,PM2.5,43,148,84
India,West_Bengal,Kolkata,"Fort William, Kolkata - WBPCB",12-03-2024 23:00:00,22.556640,88.342674,NO2,28,68,42
India,West_Bengal,Kolkata,"Fort William, Kolkata - WBPCB",12-03-2024 23:00:00,22.556640,88.342674,NH3,4,6,5
India,West_Bengal,Kolkata,"Fort William, Kolkata - WBPCB",12-03-2024 23:00:00,22.556640,88.342674,OZONE,25,112,68
India,West_Bengal,Kolkata,"Jadavpur, Kolkata - WBPCB",12-03-2024 23:00:00,22.49929,88.36917,PM2.5,58,134,88
India,West_Bengal,Kolkata,"Jadavpur, Kolkata - WBPCB",12-03-2024 23:00:00,22.49929,88.36917,NH3,7,8,8
India,West_Bengal,Kolkata,"Jadavpur, Kolkata - WBPCB",12-03-2024 23:00:00,22.49929,88.36917,OZONE,16,129,65
India,West_Bengal,Kolkata,"Rabindra Bharati University, Kolkata - WBPCB",12-03-2024 23:00:00,22.627847,88.380669,CO,29,41,35
India,West_Bengal,Kolkata,"Rabindra Bharati University, Kolkata - WBPCB",12-03-2024 23:00:00,22.627847,88.380669,OZONE,4,68,38
India,West_Bengal,Kolkata,"Rabindra Sarobar, Kolkata - WBPCB",12-03-2024 23:00:00,22.51106,88.35142,SO2,9,50,23
India,West_Bengal,Siliguri,"Ward-32 Bapupara, Siliguri - WBPCB",12-03-2024 23:00:00,26.6879226,88.4152495,PM10,110,214,149
India,West_Bengal,Siliguri,"Ward-32 Bapupara, Siliguri - WBPCB",12-03-2024 23:00:00,26.6879226,88.4152495,NH3,3,19,11
India,Andhra_Pradesh,Amaravati,"Secretariat, Amaravati - APPCB",12-03-2024 23:00:00,16.5150833,80.5181667,NO2,5,17,11
India,Andhra_Pradesh,Amaravati,"Secretariat, Amaravati - APPCB",12-03-2024 23:00:00,16.5150833,80.5181667,SO2,10,16,14
India,Andhra_Pradesh,Anantapur,"Gulzarpet, Anantapur - APPCB",12-03-2024 23:00:00,14.675886,77.593027,PM10,74,110,92
India,Andhra_Pradesh,Anantapur,"Gulzarpet, Anantapur - APPCB",12-03-2024 23:00:00,14.675886,77.593027,OZONE,12,60,48
India,Andhra_Pradesh,Chittoor,"Gangineni Cheruvu, Chittoor - APPCB",12-03-2024 23:00:00,13.204880,79.097889,NH3,NA,NA,NA
India,Andhra_Pradesh,Chittoor,"Gangineni Cheruvu, Chittoor - APPCB",12-03-2024 23:00:00,13.204880,79.097889,OZONE,58,167,114
India,Andhra_Pradesh,Kadapa,"Yerramukkapalli, Kadapa - APPCB",12-03-2024 23:00:00,14.465052,78.824187,SO2,1,3,2
India,Andhra_Pradesh,Kadapa,"Yerramukkapalli, Kadapa - APPCB",12-03-2024 23:00:00,14.465052,78.824187,OZONE,16,82,71
India,Andhra_Pradesh,Rajamahendravaram,"Anand Kala Kshetram, Rajamahendravaram - APPCB",12-03-2024 23:00:00,16.9872867,81.7363176,CO,14,34,30
India,Andhra_Pradesh,Tirupati,"Vaikuntapuram, Tirupati - APPCB",12-03-2024 23:00:00,13.615387,79.409230,PM2.5,31,177,76
India,Andhra_Pradesh,Vijayawada,"HB Colony, Vijayawada - APPCB",12-03-2024 23:00:00,16.536107,80.594233,PM10,61,82,72
India,Andhra_Pradesh,Vijayawada,"HB Colony, Vijayawada - APPCB",12-03-2024 23:00:00,16.536107,80.594233,NO2,5,14,9
India,Andhra_Pradesh,Vijayawada,"Rajiv Gandhi Park, Vijayawada - APPCB",12-03-2024 23:00:00,16.509717,80.612222,NO2,12,59,35
India,Andhra_Pradesh,Vijayawada,"Rajiv Gandhi Park, Vijayawada - APPCB",12-03-2024 23:00:00,16.509717,80.612222,NH3,4,7,6
India,Andhra_Pradesh,Vijayawada,"Rajiv Gandhi Park, Vijayawada - APPCB",12-03-2024 23:00:00,16.509717,80.612222,CO,30,48,33
India,Andhra_Pradesh,Vijayawada,"Rajiv Gandhi Park, Vijayawada - APPCB",12-03-2024 23:00:00,16.509717,80.612222,OZONE,2,62,35
India,Andhra_Pradesh,Vijayawada,"Rajiv Nagar, Vijayawada - APPCB",12-03-2024 23:00:00,16.554731,80.649110,PM2.5,59,70,61
India,Andhra_Pradesh,Vijayawada,"Rajiv Nagar, Vijayawada - APPCB",12-03-2024 23:00:00,16.554731,80.649110,PM10,69,82,72
India,Andhra_Pradesh,Vijayawada,"Rajiv Nagar, Vijayawada - APPCB",12-03-2024 23:00:00,16.554731,80.649110,NH3,1,2,1
India,Andhra_Pradesh,Vijayawada,"Rajiv Nagar, Vijayawada - APPCB",12-03-2024 23:00:00,16.554731,80.649110,SO2,10,20,14
India,Andhra_Pradesh,Vijayawada,"Rajiv Nagar, Vijayawada - APPCB",12-03-2024 23:00:00,16.554731,80.649110,CO,34,34,34
India,Arunachal_Pradesh,Naharlagun,"Naharlagun, Naharlagun - APSPCB",12-03-2024 23:00:00,27.103358,93.679645,CO,14,42,27
India,Assam,Byrnihat,"Central Academy for SFS, Byrnihat - PCBA",12-03-2024 23:00:00,26.071318,91.87488,PM2.5,NA,NA,NA
India,Assam,Byrnihat,"Central Academy for SFS, Byrnihat - PCBA",12-03-2024 23:00:00,26.071318,91.87488,NH3,5,8,7
India,Assam,Byrnihat,"Central Academy for SFS, Byrnihat - PCBA",12-03-2024 23:00:00,26.071318,91.87488,SO2,11,19,12
India,Assam,Guwahati,"IITG, Guwahati - PCBA",12-03-2024 23:00:00,26.2028636,91.70046436,SO2,NA,NA,NA
India,Assam,Guwahati,"IITG, Guwahati - PCBA",12-03-2024 23:00:00,26.2028636,91.70046436,CO,10,19,16
India,Assam,Guwahati,"Pan Bazaar, Guwahati - PCBA",12-03-2024 23:00:00,26.187500,91.744194,PM10,125,377,218
India,Assam,Guwahati,"Pan Bazaar, Guwahati - PCBA",12-03-2024 23:00:00,26.187500,91.744194,SO2,73,102,86
India,Assam,Guwahati,"Railway Colony, Guwahati - PCBA",12-03-2024 23:00:00,26.181742,91.78063,NO2,3,4,3
India,Assam,Nagaon,"Christianpatty, Nagaon - PCBA",12-03-2024 23:00:00,26.349082,92.68449,SO2,1,20,12
India,Assam,Silchar,"Tarapur, Silchar - PCBA",12-03-2024 23:00:00,24.82827,92.79525,NO2,14,43,31
India,Assam,Silchar,"Tarapur, Silchar - PCBA",12-03-2024 23:00:00,24.82827,92.79525,SO2,6,26,10
India,Assam,Silchar,"Tarapur, Silchar - PCBA",12-03-2024 23:00:00,24.82827,92.79525,CO,13,50,39
India,Assam,Sivasagar,"Girls College, Sivasagar - PCBA",12-03-2024 23:00:00,26.987634,94.636574,PM10,37,91,63
India,Bihar,Araria,"Kharahiya Basti, Araria - BSPCB",12-03-2024 23:00:00,26.146529,87.454184,PM10,90,228,147
India,Bihar,Araria,"Kharahiya Basti, Araria - BSPCB",12-03-2024 23:00:00,26.146529,87.454184,NO2,6,8,7
India,Bihar,Aurangabad,"Gurdeo Nagar, Aurangabad - BSPCB",12-03-2024 23:00:00,24.75746,84.366208,PM10,NA,NA,NA
India,Bihar,Bettiah,"Kamalnath Nagar, Bettiah - BSPCB",12-03-2024 23:00:00,26.80365,84.51954,PM10,91,163,128
India,Bihar,Bettiah,"Kamalnath Nagar, Bettiah - BSPCB",12-03-2024 23:00:00,26.80365,84.51954,NH3,3,6,3
India,Bihar,Bhagalpur,"Mayaganj, Bhagalpur - BSPCB",12-03-2024 23:00:00,25.265194,87.012947,OZONE,20,111,67
India,Bihar,Bihar Sharif,"D M Colony, Bihar Sharif - BSPCB",12-03-2024 23:00:00,25.204762,85.514960,NO2,7,10,9
India,Bihar,Bihar Sharif,"D M Colony, Bihar Sharif - BSPCB",12-03-2024 23:00:00,25.204762,85.514960,SO2,1,12,6
India,Bihar,Buxar,"Charitra Van, Buxar - BSPCB (Formerly known as Central Jail)",12-03-2024 23:00:00,25.567520,83.966379,PM10,NA,NA,NA
India,Bihar,Chhapra,"Darshan Nagar, Chhapra - BSPCB",12-03-2024 23:00:00,25.7808257,84.7446768,NH3,8,13,10
India,Bihar,Gaya,"Kareemganj, Gaya - BSPCB",12-03-2024 23:00:00,24.792403,84.992416,NO2,30,31,30
India,Bihar,Gaya,"Kareemganj, Gaya - BSPCB",12-03-2024 23:00:00,24.792403,84.992416,NH3,1,5,3
India,Bihar,Gaya,"Kareemganj, Gaya - BSPCB",12-03-2024 23:00:00,24.792403,84.992416,OZONE,2,41,12
India,Bihar,Gaya,"SFTI Kusdihra, Gaya - BSPCB",12-03-2024 23:00:00,24.762518,84.982348,OZONE,2,63,26
India,Bihar,Hajipur,"Industrial Area, Hajipur - BSPCB",12-03-2024 23:00:00,25.697189,85.245900,PM10,133,203,171
India,Bihar,Hajipur,"Industrial Area, Hajipur - BSPCB",12-03-2024 23:00:00,25.697189,85.245900,NO2,39,61,49
India,Bihar,Hajipur,"Industrial Area, Hajipur - BSPCB",12-03-2024 23:00:00,25.697189,85.245900,NH3,16,17,17
India,Bihar,Katihar,"Mirchaibari, Katihar - BSPCB",12-03-2024 23:00:00,25.560083,87.553265,PM2.5,77,307,155
India,Bihar,Katihar,"Mirchaibari, Katihar - BSPCB",12-03-2024 23:00:00,25.560083,87.553265,NO2,16,42,26
India,Bihar,Katihar,"Mirchaibari, Katihar - BSPCB",12-03-2024 23:00:00,25.560083,87.553265,NH3,3,5,4
India,Bihar,Katihar,"Mirchaibari, Katihar - BSPCB",12-03-2024 23:00:00,25.560083,87.553265,SO2,16,23,20
India,Bihar,Kishanganj,"SDM Office_Khagra, Kishanganj - BSPCB",12-03-2024 23:00:00,26.0881305,87.93840336,NO2,35,44,39
India,Bihar,Kishanganj,"SDM Office_Khagra, Kishanganj - BSPCB",12-03-2024 23:00:00,26.0881305,87.93840336,CO,1,12,9
India,Bihar,Muzaffarpur,"Buddha Colony, Muzaffarpur - BSPCB",12-03-2024 23:00:00,26.11442,85.39813,SO2,NA,NA,NA
India,Bihar,Muzaffarpur,"Muzaffarpur Collectorate, Muzaffarpur - BSPCB",12-03-2024 23:00:00,26.1209,85.3647,SO2,6,17,9
India,Bihar,Patna,"DRM Office Danapur, Patna - BSPCB",12-03-2024 23:00:00,25.586562,85.043586,SO2,7,9,8
India,Bihar,Patna,"Govt. High School Shikarpur, Patna - BSPCB",12-03-2024 23:00:00,25.592539,85.227158,PM10,NA,NA,NA
India,Bihar,Patna,"Govt. High School Shikarpur, Patna - BSPCB",12-03-2024 23:00:00,25.592539,85.227158,NH3,NA,NA,NA
India,Bihar,Patna,"IGSC Planetarium Complex, Patna - BSPCB",12-03-2024 23:00:00,25.610369,85.132568,CO,12,14,13
India,Bihar,Patna,"IGSC Planetarium Complex, Patna - BSPCB",12-03-2024 23:00:00,25.610369,85.132568,OZONE,13,43,26
India,Bihar,Patna,"Muradpur, Patna - BSPCB",12-03-2024 23:00:00,25.619651,85.147382,CO,15,60,37
India,Bihar,Patna,"Rajbansi Nagar, Patna - BSPCB",12-03-2024 23:00:00,25.599486,85.113666,PM2.5,73,184,123
India,Bihar,Patna,"Rajbansi Nagar, Patna - BSPCB",12-03-2024 23:00:00,25.599486,85.113666,NO2,22,44,30
India,Bihar,Patna,"Samanpura, Patna - BSPCB",12-03-2024 23:00:00,25.596727,85.085624,OZONE,7,27,12
India,Bihar,Rajgir,"Dangi Tola, Rajgir - BSPCB",12-03-2024 23:00:00,25.03280,85.41948,PM10,40,292,77
India,Bihar,Rajgir,"Dangi Tola, Rajgir - BSPCB",12-03-2024 23:00:00,25.03280,85.41948,SO2,4,4,4
India,Bihar,Siwan,"Chitragupta Nagar, Siwan - BSPCB",12-03-2024 23:00:00,26.2271665,84.3570427,PM2.5,45,270,131
India,Chandigarh,Chandigarh,"Sector 22, Chandigarh - CPCC",12-03-2024 23:00:00,30.735567,76.775714,PM10,53,169,121
India,Chandigarh,Chandigarh,"Sector 22, Chandigarh - CPCC",12-03-2024 23:00:00,30.735567,76.775714,SO2,5,76,18
India,Chandigarh,Chandigarh,"Sector 22, Chandigarh - CPCC",12-03-2024 23:00:00,30.735567,76.775714,CO,28,56,36
India,Chandigarh,Chandigarh,"Sector-25, Chandigarh - CPCC",12-03-2024 23:00:00,30.751462,76.762879,SO2,7,22,10
India,Chandigarh,Chandigarh,"Sector-53, Chandigarh - CPCC",12-03-2024 23:00:00,30.719859,76.738637,PM2.5,40,309,187
India,Chandigarh,Chandigarh,"Sector-53, Chandigarh - CPCC",12-03-2024 23:00:00,30.719859,76.738637,PM10,59,197,132
India,Chhattisgarh,Bhilai,"32Bungalows, Bhilai - CECB",12-03-2024 23:00:00,21.194815,81.314770,PM2.5,34,54,45
India,Chhattisgarh,Bilaspur,"Mangala, Bilaspur - NTPC",12-03-2024 23:00:00,22.08815,82.13737,NO2,12,15,13
India,Chhattisgarh,Korba,"Rampur, Korba - CECB",12-03-2024 23:00:00,22.368195,82.746431,NO2,NA,NA,NA
India,Chhattisgarh,Korba,"Rampur, Korba - CECB",12-03-2024 23:00:00,22.368195,82.746431,SO2,NA,NA,NA
India,Chhattisgarh,Korba,"Urja Nagar, Korba - CECB",12-03-2024 23:00:00,22.348441,82.549611,NH3,1,13,5
India,Chhattisgarh,Kunjemura,"OP Jindal School, Kunjemura - CECB",12-03-2024 23:00:00,22.126650,83.483212,NH3,1,4,2
India,Chhattisgarh,Milupara,"Govt. Higher Secondary School, Milupara - CECB",12-03-2024 23:00:00,22.1910172,83.5197009,SO2,NA,NA,NA
India,Chhattisgarh,Milupara,"Govt. Higher Secondary School, Milupara - CECB",12-03-2024 23:00:00,22.1910172,83.5197009,CO,NA,NA,NA
India,Chhattisgarh,Raipur,"AIIMS, Raipur - CECB",12-03-2024 23:00:00,21.258815,81.578979,NO2,49,79,62
India,Chhattisgarh,Raipur,"Bhatagaon New ISBT, Raipur - CECB",12-03-2024 23:00:00,21.219665,81.630094,PM2.5,29,109,48
India,Chhattisgarh,Raipur,"Bhatagaon New ISBT, Raipur - CECB",12-03-2024 23:00:00,21.219665,81.630094,PM10,42,116,71
India,Chhattisgarh,Raipur,"Bhatagaon New ISBT, Raipur - CECB",12-03-2024 23:00:00,21.219665,81.630094,CO,26,64,41
India,Chhattisgarh,Raipur,"Krishak Nagar, Raipur - CECB",12-03-2024 23:00:00,21.237755,81.705301,PM2.5,35,74,59
India,Chhattisgarh,Raipur,"Krishak Nagar, Raipur - CECB",12-03-2024 23:00:00,21.237755,81.705301,PM10,45,105,81
India,Chhattisgarh,Raipur,"Krishak Nagar, Raipur - CECB",12-03-2024 23:00:00,21.237755,81.705301,NO2,24,43,34
India,Chhattisgarh,Raipur,"Krishak Nagar, Raipur - CECB",12-03-2024 23:00:00,21.237755,81.705301,NH3,1,1,1
India,Chhattisgarh,Raipur,"Krishak Nagar, Raipur - CECB",12-03-2024 23:00:00,21.237755,81.705301,CO,24,51,33
India,Chhattisgarh,Tumidih,"OP Jindal Industrial Park, Tumidih - CECB",12-03-2024 23:00:00,22.06631475,83.33820077,OZONE,NA,NA,NA
India,Delhi,Delhi,"Alipur, Delhi - DPCC",12-03-2024 23:00:00,28.815329,77.153010,PM10,NA,NA,NA
India,Delhi,Delhi,"Alipur, Delhi - DPCC",12-03-2024 23:00:00,28.815329,77.153010,OZONE,20,105,58
India,Delhi,Delhi,"Ashok Vihar, Delhi - DPCC",12-03-2024 23:00:00,28.695381,77.181665,PM2.5,38,336,149
India,Delhi,Delhi,"Bawana, Delhi - DPCC",12-03-2024 23:00:00,28.776200,77.051074,NH3,6,9,7
India,Delhi,Delhi,"Burari Crossing, Delhi - IMD",12-03-2024 23:00:00,28.7256504,77.2011573,CO,46,68,51
India,Delhi,Delhi,"CRRI Mathura Road, Delhi - IMD",12-03-2024 23:00:00,28.5512005,77.2735737,PM2.5,29,314,187
India,Delhi,Delhi,"Chandni Chowk, Delhi - IITM",12-03-2024 23:00:00,28.656756,77.227234,PM2.5,158,336,251
India,Delhi,Delhi,"Chandni Chowk, Delhi - IITM",12-03-2024 23:00:00,28.656756,77.227234,NH3,2,22,9
India,Delhi,Delhi,"Chandni Chowk, Delhi - IITM",12-03-2024 23:00:00,28.656756,77.227234,SO2,6,43,27
India,Delhi,Delhi,"DTU, Delhi - CPCB",12-03-2024 23:00:00,28.7500499,77.1112615,PM10,85,365,163
India,Delhi,Delhi,"Dwarka-Sector 8, Delhi - DPCC ",12-03-2024 23:00:00,28.5710274,77.0719006,PM10,100,450,184
India,Delhi,Delhi,"Dwarka-Sector 8, Delhi - DPCC ",12-03-2024 23:00:00,28.5710274,77.0719006,NH3,4,8,5
India,Delhi,Delhi,"Dwarka-Sector 8, Delhi - DPCC ",12-03-2024 23:00:00,28.5710274,77.0719006,OZONE,1,80,49
India,Delhi,Delhi,"IGI Airport (T3), Delhi - IMD",12-03-2024 23:00:00,28.5627763,77.1180053,NO2,22,78,49
India,Delhi,Delhi,"IHBAS, Dilshad Garden, Delhi - CPCB",12-03-2024 23:00:00,28.6811736,77.3025234,PM10,90,187,139
India,Delhi,Delhi,"IHBAS, Dilshad Garden, Delhi - CPCB",12-03-2024 23:00:00,28.6811736,77.3025234,OZONE,9,43,30
India,Delhi,Delhi,"Jahangirpuri, Delhi - DPCC",12-03-2024 23:00:00,28.732820,77.170633,PM2.5,57,404,228
India,Delhi,Delhi,"Jawaharlal Nehru Stadium, Delhi - DPCC",12-03-2024 23:00:00,28.580280,77.233829,PM10,92,247,137
India,Delhi,Delhi,"Jawaharlal Nehru Stadium, Delhi - DPCC",12-03-2024 23:00:00,28.580280,77.233829,NO2,33,122,80
India,Delhi,Delhi,"Major Dhyan Chand National Stadium, Delhi - DPCC",12-03-2024 23:00:00,28.611281,77.237738,PM2.5,47,344,175
India,Delhi,Delhi,"Major Dhyan Chand National Stadium, Delhi - DPCC",12-03-2024 23:00:00,28.611281,77.237738,PM10,61,256,138
India,Delhi,Delhi,"Major Dhyan Chand National Stadium, Delhi - DPCC",12-03-2024 23:00:00,28.611281,77.237738,NH3,7,11,8
India,Delhi,Delhi,"Major Dhyan Chand National Stadium, Delhi - DPCC",12-03-2024 23:00:00,28.611281,77.237738,CO,72,105,86
India,Delhi,Delhi,"Mandir Marg, Delhi - DPCC",12-03-2024 23:00:00,28.636429,77.201067,PM10,62,256,129
India,Delhi,Delhi,"Mundka, Delhi - DPCC",12-03-2024 23:00:00,28.684678,77.076574,OZONE,14,14,14
India,Delhi,Delhi,"NSIT Dwarka, Delhi - CPCB",12-03-2024 23:00:00,28.60909,77.0325413,NO2,38,65,50
India,Delhi,Delhi,"Najafgarh, Delhi - DPCC",12-03-2024 23:00:00,28.570173,76.933762,OZONE,7,169,99
India,Delhi,Delhi,"Nehru Nagar, Delhi - DPCC",12-03-2024 23:00:00,28.567890,77.250515,NO2,11,25,17
India,Delhi,Delhi,"New Moti Bagh, Delhi - MHUA",12-03-2024 23:00:00,28.57834,77.18400,NO2,1,6,3
India,Delhi,Delhi,"New Moti Bagh, Delhi - MHUA",12-03-2024 23:00:00,28.57834,77.18400,CO,22,62,30
India,Delhi,Delhi,"Patparganj, Delhi - DPCC",12-03-2024 23:00:00,28.623763,77.287209,PM2.5,40,200,91
India,Delhi,Delhi,"Punjabi Bagh, Delhi - DPCC",12-03-2024 23:00:00,28.674045,77.131023,PM2.5,47,361,198
India,Delhi,Delhi,"Punjabi Bagh, Delhi - DPCC",12-03-2024 23:00:00,28.674045,77.131023,SO2,NA,NA,NA
India,Delhi,Delhi,"Punjabi Bagh, Delhi - DPCC",12-03-2024 23:00:00,28.674045,77.131023,CO,27,64,39
India,Delhi,Delhi,"Pusa, Delhi - DPCC",12-03-2024 23:00:00,28.639652,77.146275,SO2,8,38,22
India,Delhi,Delhi,"Pusa, Delhi - IMD",12-03-2024 23:00:00,28.636110,77.173332,PM10,NA,NA,NA
India,Delhi,Delhi,"Pusa, Delhi - IMD",12-03-2024 23:00:00,28.636110,77.173332,OZONE,2,47,44
India,Delhi,Delhi,"R K Puram, Delhi - DPCC",12-03-2024 23:00:00,28.563262,77.186937,PM10,117,294,151
India,Delhi,Delhi,"R K Puram, Delhi - DPCC",12-03-2024 23:00:00,28.563262,77.186937,OZONE,9,177,80
India,Delhi,Delhi,"Rohini, Delhi - DPCC",12-03-2024 23:00:00,28.732528,77.119920,OZONE,3,114,62
India,Delhi,Delhi,"Sonia Vihar, Delhi - DPCC",12-03-2024 23:00:00,28.710508,77.249485,PM2.5,59,354,188
India,Delhi,Delhi,"Vivek Vihar, Delhi - DPCC",12-03-2024 23:00:00,28.672342,77.315260,SO2,NA,NA,NA
India,Delhi,Delhi,"Wazirpur, Delhi - DPCC",12-03-2024 23:00:00,28.699793,77.165453,NH3,8,10,9
India,Gujarat,Ahmedabad,"Raikhad, Ahmedabad - IITM",12-03-2024 23:00:00,23.020509,72.579261,CO,4,133,75
India,Gujarat,Ahmedabad,"Rakhial, Ahmedabad - IITM",12-03-2024 23:00:00,23.016834,72.625775,PM10,28,414,124
India,Gujarat,Ahmedabad,"Rakhial, Ahmedabad - IITM",12-03-2024 23:00:00,23.016834,72.625775,NO2,23,103,50
India,Gujarat,Ahmedabad,"Rakhial, Ahmedabad - IITM",12-03-2024 23:00:00,23.016834,72.625775,NH3,7,29,21
India,Gujarat,Ahmedabad,"Sardar Vallabhbhai Patel Stadium, Ahmedabad - IITM",12-03-2024 23:00:00,23.043070,72.562968,PM10,57,145,88
India,Gujarat,Ahmedabad,"Sardar Vallabhbhai Patel Stadium, Ahmedabad - IITM",12-03-2024 23:00:00,23.043070,72.562968,NH3,4,4,4
India,Gujarat,Ahmedabad,"Sardar Vallabhbhai Patel Stadium, Ahmedabad - IITM",12-03-2024 23:00:00,23.043070,72.562968,OZONE,22,31,26
India,Gujarat,Ankleshwar,"GIDC, Ankleshwar - GPCB",12-03-2024 23:00:00,21.613267,73.010555,PM10,33,114,70
India,Gujarat,Gandhinagar,"GIFT City, Gandhinagar - IITM",12-03-2024 23:00:00,23.163798,72.677768,NO2,24,25,25
India,Gujarat,Gandhinagar,"IIPHG Lekawada, Gandhinagar - IITM",12-03-2024 23:00:00,23.243639,72.68994,PM2.5,49,247,128
India,Gujarat,Gandhinagar,"IIPHG Lekawada, Gandhinagar - IITM",12-03-2024 23:00:00,23.243639,72.68994,PM10,39,117,85
India,Gujarat,Gandhinagar,"Sector-10, Gandhinagar - GPCB",12-03-2024 23:00:00,23.221714,72.654328,NO2,9,18,14
India,Gujarat,Nandesari,"GIDC, Nandesari - Nandesari Ind. Association",12-03-2024 23:00:00,22.410802,73.097923,PM10,79,291,147
India,Gujarat,Vapi,"Phase-1 GIDC, Vapi - GPCB",12-03-2024 23:00:00,20.362421,72.918013,PM10,57,162,105
India,Gujarat,Vapi,"Phase-1 GIDC, Vapi - GPCB",12-03-2024 23:00:00,20.362421,72.918013,CO,102,192,137
India,Haryana,Ambala,"Patti Mehar, Ambala - HSPCB",12-03-2024 23:00:00,30.379589,76.778328,PM2.5,39,109,67
India,Haryana,Ambala,"Patti Mehar, Ambala - HSPCB",12-03-2024 23:00:00,30.379589,76.778328,NO2,7,9,8
India,Haryana,Ambala,"Patti Mehar, Ambala - HSPCB",12-03-2024 23:00:00,30.379589,76.778328,NH3,8,8,8
India,Haryana,Ambala,"Patti Mehar, Ambala - HSPCB",12-03-2024 23:00:00,30.379589,76.778328,CO,30,60,40
India,Haryana,Ballabgarh,"Nathu Colony, Ballabgarh - HSPCB",12-03-2024 23:00:00,28.3419248,77.319699,SO2,4,36,17
India,Haryana,Ballabgarh,"Nathu Colony, Ballabgarh - HSPCB",12-03-2024 23:00:00,28.3419248,77.319699,OZONE,1,29,15
India,Haryana,Charkhi Dadri,"Mini Secretariat, Charkhi Dadri - HSPCB",12-03-2024 23:00:00,28.593883,76.270653,SO2,12,15,13
India,Haryana,Dharuhera,"Municipal Corporation Office, Dharuhera -  HSPCB",12-03-2024 23:00:00,28.206800,76.799700,PM10,100,217,164
India,Haryana,Faridabad,"New Industrial Town, Faridabad - HSPCB",12-03-2024 23:00:00,28.39072,77.30059,PM10,140,238,179
India,Haryana,Faridabad,"Sector 11, Faridabad - HSPCB",12-03-2024 23:00:00,28.376058,77.315741,PM2.5,23,281,156
India,Haryana,Faridabad,"Sector 30, Faridabad - HSPCB",12-03-2024 23:00:00,28.4417,77.3217,PM10,NA,NA,NA
India,Haryana,Faridabad,"Sector 30, Faridabad - HSPCB",12-03-2024 23:00:00,28.4417,77.3217,NH3,NA,NA,NA
India,Haryana,Faridabad,"Sector 30, Faridabad - HSPCB",12-03-2024 23:00:00,28.4417,77.3217,CO,54,94,71
India,Haryana,Faridabad,"Sector 30, Faridabad - HSPCB",12-03-2024 23:00:00,28.4417,77.3217,OZONE,6,19,12
India,Haryana,Fatehabad,"Huda Sector, Fatehabad - HSPCB",12-03-2024 23:00:00,29.503664,75.467934,NH3,12,19,13
India,Haryana,Fatehabad,"Huda Sector, Fatehabad - HSPCB",12-03-2024 23:00:00,29.503664,75.467934,SO2,6,12,8
India,Haryana,Fatehabad,"Huda Sector, Fatehabad - HSPCB",12-03-2024 23:00:00,29.503664,75.467934,CO,6,17,9
India,Haryana,Gurugram,"Sector-51, Gurugram - HSPCB",12-03-2024 23:00:00,28.4227,77.0667,NO2,13,29,23
India,Haryana,Gurugram,"Sector-51, Gurugram - HSPCB",12-03-2024 23:00:00,28.4227,77.0667,NH3,7,14,9
India,Haryana,Gurugram,"Sector-51, Gurugram - HSPCB",12-03-2024 23:00:00,28.4227,77.0667,CO,30,70,34
India,Haryana,Gurugram,"Teri Gram, Gurugram - HSPCB",12-03-2024 23:00:00,28.4275,77.1465,NH3,46,87,64
India,Haryana,Gurugram,"Vikas Sadan, Gurugram - HSPCB",12-03-2024 23:00:00,28.4501238,77.0263051,SO2,31,54,42
India,Haryana,Hisar,"Urban Estate-II, Hisar - HSPCB",12-03-2024 23:00:00,29.140560,75.744941,PM10,44,100,68
India,Haryana,Hisar,"Urban Estate-II, Hisar - HSPCB",12-03-2024 23:00:00,29.140560,75.744941,SO2,13,94,58
India,Haryana,Hisar,"Urban Estate-II, Hisar - HSPCB",12-03-2024 23:00:00,29.140560,75.744941,OZONE,41,123,100
India,Haryana,Jind,"Police Lines, Jind - HSPCB",12-03-2024 23:00:00,29.307814,76.337619,SO2,7,28,16
India,Haryana,Kaithal,"Rishi Nagar, Kaithal - HSPCB",12-03-2024 23:00:00,29.8006,76.4155,CO,3,40,5
India,Haryana,Kurukshetra,"Sector-7, Kurukshetra - HSPCB",12-03-2024 23:00:00,29.966942,76.875879,NH3,4,18,5
India,Haryana,Mandikhera,"General Hospital, Mandikhera - HSPCB",12-03-2024 23:00:00,27.9002,76.9938,NO2,17,23,19
India,Haryana,Mandikhera,"General Hospital, Mandikhera - HSPCB",12-03-2024 23:00:00,27.9002,76.9938,CO,12,58,17
India,Haryana,Mandikhera,"General Hospital, Mandikhera - HSPCB",12-03-2024 23:00:00,27.9002,76.9938,OZONE,24,33,29
India,Haryana,Manesar,"Sector-2 IMT, Manesar - HSPCB",12-03-2024 23:00:00,28.360699,76.936090,OZONE,1,51,13
India,Haryana,Palwal,"Shyam Nagar, Palwal - HSPCB",12-03-2024 23:00:00,28.1485564,77.3320667,PM10,107,168,141
India,Haryana,Palwal,"Shyam Nagar, Palwal - HSPCB",12-03-2024 23:00:00,28.1485564,77.3320667,NO2,23,25,24
India,Haryana,Panchkula,"Sector-6, Panchkula - HSPCB ",12-03-2024 23:00:00,30.7057778,76.8531805555555,PM2.5,52,173,95
India,Haryana,Panipat,"Sector-18, Panipat - HSPCB",12-03-2024 23:00:00,29.497973,76.993331,PM2.5,146,153,150
India,Haryana,Panipat,"Sector-18, Panipat - HSPCB",12-03-2024 23:00:00,29.497973,76.993331,PM10,84,86,85
India,Haryana,Panipat,"Sector-18, Panipat - HSPCB",12-03-2024 23:00:00,29.497973,76.993331,NO2,31,32,31
India,Haryana,Panipat,"Sector-18, Panipat - HSPCB",12-03-2024 23:00:00,29.497973,76.993331,NH3,2,3,3
India,Haryana,Panipat,"Sector-18, Panipat - HSPCB",12-03-2024 23:00:00,29.497973,76.993331,OZONE,30,30,30
India,Haryana,Rohtak,"MD University, Rohtak - HSPCB",12-03-2024 23:00:00,28.52123,76.37138,CO,2,60,48
India,Haryana,Sirsa,"F-Block, Sirsa - HSPCB",12-03-2024 23:00:00,29.536400,75.015800,NO2,10,10,10
India,Haryana,Sirsa,"F-Block, Sirsa - HSPCB",12-03-2024 23:00:00,29.536400,75.015800,CO,38,52,40
India,Haryana,Yamuna Nagar,"Gobind Pura, Yamuna Nagar - HSPCB",12-03-2024 23:00:00,30.1480566,77.2893471,NO2,14,14,14
India,Himachal Pradesh,Baddi,"HIMUDA Complex Phase-1, Baddi - HPPCB",12-03-2024 23:00:00,30.943887,76.801991,PM2.5,27,352,210
India,Jharkhand,Dhanbad,"Kalakusuma, Dhanbad - DMC",12-03-2024 23:00:00,23.811548,86.481238,PM10,77,83,79
India,Jharkhand,Dhanbad,"Sardar Patel Nagar, Dhanbad - JSPCB",12-03-2024 23:00:00,23.80569,86.44268,NO2,NA,NA,NA
India,Jharkhand,Pathardih,"Mohalbani Ghat, Pathardih - DMC",12-03-2024 23:00:00,23.669880,86.411725,CO,61,114,95
India,Karnataka,Bengaluru,"Bapuji Nagar, Bengaluru - KSPCB",12-03-2024 23:00:00,12.951913,77.539784,CO,32,48,45
India,Karnataka,Bengaluru,"Bapuji Nagar, Bengaluru - KSPCB",12-03-2024 23:00:00,12.951913,77.539784,OZONE,12,13,13
India,Karnataka,Bengaluru,"Hombegowda Nagar, Bengaluru - KSPCB",12-03-2024 23:00:00,12.938539,77.590100,PM10,79,124,93
India,Karnataka,Bengaluru,"Hombegowda Nagar, Bengaluru - KSPCB",12-03-2024 23:00:00,12.938539,77.590100,NH3,2,3,3
India,Karnataka,Bengaluru,"Hombegowda Nagar, Bengaluru - KSPCB",12-03-2024 23:00:00,12.938539,77.590100,CO,14,21,19
India,Karnataka,Bengaluru,"Hombegowda Nagar, Bengaluru - KSPCB",12-03-2024 23:00:00,12.938539,77.590100,OZONE,4,5,4
India,Karnataka,Bengaluru,"RVCE-Mailasandra, Bengaluru - KSPCB",12-03-2024 23:00:00,12.921418,77.502466,PM10,NA,NA,NA
India,Karnataka,Bengaluru,"Silk Board, Bengaluru - KSPCB",12-03-2024 23:00:00,12.917348,77.622813,PM10,77,124,101
India,Karnataka,Bengaluru,"Silk Board, Bengaluru - KSPCB",12-03-2024 23:00:00,12.917348,77.622813,NO2,13,25,19
India,Karnataka,Bengaluru,"Silk Board, Bengaluru - KSPCB",12-03-2024 23:00:00,12.917348,77.622813,SO2,8,22,13
India,Karnataka,Bengaluru,"Silk Board, Bengaluru - KSPCB",12-03-2024 23:00:00,12.917348,77.622813,OZONE,28,32,30
India,Karnataka,Bidar,"Naubad, Bidar - KSPCB",12-03-2024 23:00:00,17.930306,77.482194,NO2,7,8,8
India,Karnataka,Bidar,"Naubad, Bidar - KSPCB",12-03-2024 23:00:00,17.930306,77.482194,CO,64,77,69
India,Karnataka,Chamarajanagar,"Urban, Chamarajanagar - KSPCB",12-03-2024 23:00:00,11.55358,76.55521,OZONE,14,54,40
India,Karnataka,Dharwad,"Kalabhavan, Dharwad - KSPCB",12-03-2024 23:00:00,15.459706,75.008381,NO2,16,37,21
India,Karnataka,Gadag,"Panchal Nagar, Gadag - KSPCB",12-03-2024 23:00:00,15.411456,75.638133,SO2,14,28,17
India,Karnataka,Hassan,"B.Katihalli, Hassan - KSPCB",12-03-2024 23:00:00,13.008556,76.125258,PM2.5,37,90,58
India,Karnataka,Hassan,"B.Katihalli, Hassan - KSPCB",12-03-2024 23:00:00,13.008556,76.125258,NO2,5,33,17
