country,state,city,station,last_update,latitude,longitude,pollutant_id,pollutant_min,pollutant_max,pollutant_avg
India,Andhra_Pradesh,Amaravati,"Secretariat, Amaravati - APPCB",20-03-2024 17:00:00,16.5150833,80.5181667,PM10,45,111,66
India,Andhra_Pradesh,Amaravati,"Secretariat, Amaravati - APPCB",20-03-2024 17:00:00,16.5150833,80.5181667,CO,15,56,37
India,Andhra_Pradesh,Anantapur,"Gulzarpet, Anantapur - APPCB",20-03-2024 17:00:00,14.675886,77.593027,PM2.5,NA,NA,NA
India,Andhra_Pradesh,Anantapur,"Gulzarpet, Anantapur - APPCB",20-03-2024 17:00:00,14.675886,77.593027,NO2,NA,NA,NA
India,Andhra_Pradesh,Anantapur,"Gulzarpet, Anantapur - APPCB",20-03-2024 17:00:00,14.675886,77.593027,CO,36,86,44
India,Andhra_Pradesh,Chittoor,"Gangineni Cheruvu, Chittoor - APPCB",20-03-2024 17:00:00,13.204880,79.097889,PM10,55,231,93
India,Andhra_Pradesh,Chittoor,"Gangineni Cheruvu, Chittoor - APPCB",20-03-2024 17:00:00,13.204880,79.097889,CO,48,62,56
India,Andhra_Pradesh,Kadapa,"Yerramukkapalli, Kadapa - APPCB",20-03-2024 17:00:00,14.465052,78.824187,NO2,8,8,8
India,Andhra_Pradesh,Kadapa,"Yerramukkapalli, Kadapa - APPCB",20-03-2024 17:00:00,14.465052,78.824187,CO,12,22,16
India,Andhra_Pradesh,Kadapa,"Yerramukkapalli, Kadapa - APPCB",20-03-2024 17:00:00,14.465052,78.824187,OZONE,22,83,64
India,Andhra_Pradesh,Rajamahendravaram,"Anand Kala Kshetram, Rajamahendravaram - APPCB",20-03-2024 17:00:00,16.9872867,81.7363176,PM2.5,45,76,65
India,Andhra_Pradesh,Rajamahendravaram,"Anand Kala Kshetram, Rajamahendravaram - APPCB",20-03-2024 17:00:00,16.9872867,81.7363176,PM10,62,104,82
India,Andhra_Pradesh,Rajamahendravaram,"Anand Kala Kshetram, Rajamahendravaram - APPCB",20-03-2024 17:00:00,16.9872867,81.7363176,NO2,11,27,18
India,Andhra_Pradesh,Rajamahendravaram,"Anand Kala Kshetram, Rajamahendravaram - APPCB",20-03-2024 17:00:00,16.9872867,81.7363176,CO,18,45,28
India,Andhra_Pradesh,Tirupati,"Tirumala, Tirupati - APPCB",20-03-2024 17:00:00,13.67,79.35,PM10,64,118,81
India,Andhra_Pradesh,Tirupati,"Tirumala, Tirupati - APPCB",20-03-2024 17:00:00,13.67,79.35,OZONE,26,62,48
India,Andhra_Pradesh,Tirupati,"Vaikuntapuram, Tirupati - APPCB",20-03-2024 17:00:00,13.615387,79.409230,PM2.5,18,101,56
India,Andhra_Pradesh,Vijayawada,"HB Colony, Vijayawada - APPCB",20-03-2024 17:00:00,16.536107,80.594233,PM10,65,107,86
India,Andhra_Pradesh,Vijayawada,"Kanuru, Vijayawada - APPCB",20-03-2024 17:00:00,16.486692,80.699436,OZONE,28,28,28
India,Andhra_Pradesh,Vijayawada,"Rajiv Gandhi Park, Vijayawada - APPCB",20-03-2024 17:00:00,16.509717,80.612222,PM2.5,54,86,67
India,Andhra_Pradesh,Vijayawada,"Rajiv Gandhi Park, Vijayawada - APPCB",20-03-2024 17:00:00,16.509717,80.612222,CO,36,54,47
India,Andhra_Pradesh,Vijayawada,"Rajiv Nagar, Vijayawada - APPCB",20-03-2024 17:00:00,16.554731,80.649110,PM2.5,44,49,46
India,Andhra_Pradesh,Vijayawada,"Rajiv Nagar, Vijayawada - APPCB",20-03-2024 17:00:00,16.554731,80.649110,CO,37,37,37
India,Arunachal_Pradesh,Naharlagun,"Naharlagun, Naharlagun - APSPCB",20-03-2024 17:00:00,27.103358,93.679645,SO2,4,4,4
India,Assam,Guwahati,"IITG, Guwahati - PCBA",20-03-2024 17:00:00,26.2028636,91.70046436,PM10,124,379,212
India,Assam,Guwahati,"IITG, Guwahati - PCBA",20-03-2024 17:00:00,26.2028636,91.70046436,NH3,5,5,5
India,Assam,Guwahati,"IITG, Guwahati - PCBA",20-03-2024 17:00:00,26.2028636,91.70046436,SO2,12,14,13
India,Assam,Guwahati,"LGBI Airport, Guwahati - PCBA",20-03-2024 17:00:00,26.10887,91.589544,NH3,2,7,4
India,Assam,Guwahati,"LGBI Airport, Guwahati - PCBA",20-03-2024 17:00:00,26.10887,91.589544,SO2,13,14,13
India,Assam,Guwahati,"LGBI Airport, Guwahati - PCBA",20-03-2024 17:00:00,26.10887,91.589544,CO,8,100,27
India,Assam,Guwahati,"LGBI Airport, Guwahati - PCBA",20-03-2024 17:00:00,26.10887,91.589544,OZONE,1,50,10
India,Assam,Guwahati,"Pan Bazaar, Guwahati - PCBA",20-03-2024 17:00:00,26.187500,91.744194,SO2,67,97,80
India,Assam,Guwahati,"Pan Bazaar, Guwahati - PCBA",20-03-2024 17:00:00,26.187500,91.744194,OZONE,18,19,18
India,Assam,Guwahati,"Railway Colony, Guwahati - PCBA",20-03-2024 17:00:00,26.181742,91.78063,NO2,3,4,3
India,Assam,Guwahati,"Railway Colony, Guwahati - PCBA",20-03-2024 17:00:00,26.181742,91.78063,SO2,4,10,7
India,Assam,Guwahati,"Railway Colony, Guwahati - PCBA",20-03-2024 17:00:00,26.181742,91.78063,CO,56,104,69
India,Assam,Nagaon,"Christianpatty, Nagaon - PCBA",20-03-2024 17:00:00,26.349082,92.68449,PM10,23,109,64
India,Assam,Nalbari,"Bata Chowk, Nalbari - PCBA",20-03-2024 17:00:00,26.446912,91.439057,NH3,1,4,2
India,Assam,Sivasagar,"Girls College, Sivasagar - PCBA",20-03-2024 17:00:00,26.987634,94.636574,NO2,17,33,22
India,Assam,Sivasagar,"Girls College, Sivasagar - PCBA",20-03-2024 17:00:00,26.987634,94.636574,NH3,2,2,2
India,Assam,Sivasagar,"Girls College, Sivasagar - PCBA",20-03-2024 17:00:00,26.987634,94.636574,CO,8,36,25
India,Assam,Sivasagar,"Girls College, Sivasagar - PCBA",20-03-2024 17:00:00,26.987634,94.636574,OZONE,1,6,3
India,Bihar,Araria,"Kharahiya Basti, Araria - BSPCB",20-03-2024 17:00:00,26.146529,87.454184,NO2,NA,NA,NA
India,Bihar,Araria,"Kharahiya Basti, Araria - BSPCB",20-03-2024 17:00:00,26.146529,87.454184,CO,15,30,28
India,Bihar,Arrah,"New DM Office, Arrah - BSPCB",20-03-2024 17:00:00,25.5626095,84.663264,PM2.5,18,103,48
India,Bihar,Arrah,"New DM Office, Arrah - BSPCB",20-03-2024 17:00:00,25.5626095,84.663264,PM10,24,143,69
India,Bihar,Bettiah,"Kamalnath Nagar, Bettiah - BSPCB",20-03-2024 17:00:00,26.80365,84.51954,PM10,NA,NA,NA
India,Bihar,Bettiah,"Kamalnath Nagar, Bettiah - BSPCB",20-03-2024 17:00:00,26.80365,84.51954,SO2,11,25,19
India,Bihar,Bhagalpur,"Mayaganj, Bhagalpur - BSPCB",20-03-2024 17:00:00,25.265194,87.012947,PM10,31,247,95
India,Bihar,Bhagalpur,"Mayaganj, Bhagalpur - BSPCB",20-03-2024 17:00:00,25.265194,87.012947,NH3,4,8,6
India,Bihar,Bhagalpur,"Mayaganj, Bhagalpur - BSPCB",20-03-2024 17:00:00,25.265194,87.012947,SO2,11,12,12
India,Bihar,Buxar,"Charitra Van, Buxar - BSPCB (Formerly known as Central Jail)",20-03-2024 17:00:00,25.567520,83.966379,NH3,3,3,3
India,Bihar,Buxar,"Charitra Van, Buxar - BSPCB (Formerly known as Central Jail)",20-03-2024 17:00:00,25.567520,83.966379,OZONE,18,130,41
India,Bihar,Chhapra,"Darshan Nagar, Chhapra - BSPCB",20-03-2024 17:00:00,25.7808257,84.7446768,PM2.5,35,280,124
India,Bihar,Gaya,"Collectorate, Gaya - BSPCB",20-03-2024 17:00:00,24.7955,84.9994,SO2,6,21,11
India,Bihar,Gaya,"Kareemganj, Gaya - BSPCB",20-03-2024 17:00:00,24.792403,84.992416,PM10,15,129,55
India,Bihar,Gaya,"Kareemganj, Gaya - BSPCB",20-03-2024 17:00:00,24.792403,84.992416,NO2,23,31,30
India,Bihar,Gaya,"Kareemganj, Gaya - BSPCB",20-03-2024 17:00:00,24.792403,84.992416,SO2,6,11,9
India,Bihar,Hajipur,"Industrial Area, Hajipur - BSPCB",20-03-2024 17:00:00,25.697189,85.245900,CO,33,49,37
India,Bihar,Kishanganj,"SDM Office_Khagra, Kishanganj - BSPCB",20-03-2024 17:00:00,26.0881305,87.93840336,CO,2,14,3
India,Bihar,Manguraha,"Forest Rest House, Manguraha - BSPCB",20-03-2024 17:00:00,27.308328,84.531742,PM2.5,NA,NA,NA
India,Bihar,Manguraha,"Forest Rest House, Manguraha - BSPCB",20-03-2024 17:00:00,27.308328,84.531742,NH3,NA,NA,NA
India,Bihar,Manguraha,"Forest Rest House, Manguraha - BSPCB",20-03-2024 17:00:00,27.308328,84.531742,SO2,NA,NA,NA
India,Bihar,Motihari,"Gandak Colony, Motihari - BSPCB",20-03-2024 17:00:00,26.63086,84.90051,NO2,33,101,73
India,Bihar,Motihari,"Gandak Colony, Motihari - BSPCB",20-03-2024 17:00:00,26.63086,84.90051,OZONE,23,55,42
India,Bihar,Munger,"Town Hall, Munger - BSPCB",20-03-2024 17:00:00,25.376776,86.471523,PM2.5,17,400,136
India,Bihar,Munger,"Town Hall, Munger - BSPCB",20-03-2024 17:00:00,25.376776,86.471523,SO2,3,36,27
India,Bihar,Munger,"Town Hall, Munger - BSPCB",20-03-2024 17:00:00,25.376776,86.471523,CO,2,16,12
India,Bihar,Muzaffarpur,"Buddha Colony, Muzaffarpur - BSPCB",20-03-2024 17:00:00,26.11442,85.39813,NH3,17,22,18
India,Bihar,Muzaffarpur,"Buddha Colony, Muzaffarpur - BSPCB",20-03-2024 17:00:00,26.11442,85.39813,SO2,1,15,5
India,Bihar,Muzaffarpur,"MIT-Daudpur Kothi, Muzaffarpur - BSPCB",20-03-2024 17:00:00,26.1403345,85.3650192,OZONE,6,45,12
India,Bihar,Muzaffarpur,"Muzaffarpur Collectorate, Muzaffarpur - BSPCB",20-03-2024 17:00:00,26.1209,85.3647,SO2,3,16,7
India,Bihar,Patna,"DRM Office Danapur, Patna - BSPCB",20-03-2024 17:00:00,25.586562,85.043586,NH3,2,3,3
India,Bihar,Patna,"IGSC Planetarium Complex, Patna - BSPCB",20-03-2024 17:00:00,25.610369,85.132568,OZONE,16,52,45
India,Bihar,Patna,"Muradpur, Patna - BSPCB",20-03-2024 17:00:00,25.619651,85.147382,NO2,8,20,15
India,Bihar,Patna,"Rajbansi Nagar, Patna - BSPCB",20-03-2024 17:00:00,25.599486,85.113666,PM10,38,106,81
India,Bihar,Patna,"Rajbansi Nagar, Patna - BSPCB",20-03-2024 17:00:00,25.599486,85.113666,SO2,4,16,10
India,Bihar,Patna,"Rajbansi Nagar, Patna - BSPCB",20-03-2024 17:00:00,25.599486,85.113666,CO,14,98,54
India,Bihar,Patna,"Rajbansi Nagar, Patna - BSPCB",20-03-2024 17:00:00,25.599486,85.113666,OZONE,2,60,21
India,Bihar,Patna,"Samanpura, Patna - BSPCB",20-03-2024 17:00:00,25.596727,85.085624,PM2.5,46,188,83
India,Bihar,Patna,"Samanpura, Patna - BSPCB",20-03-2024 17:00:00,25.596727,85.085624,NH3,10,14,11
India,Bihar,Purnia,"Mariam Nagar, Purnia - BSPCB",20-03-2024 17:00:00,25.366336,87.117468,NH3,1,5,2
India,Bihar,Purnia,"Mariam Nagar, Purnia - BSPCB",20-03-2024 17:00:00,25.366336,87.117468,SO2,NA,NA,NA
India,Bihar,Rajgir,"Dangi Tola, Rajgir - BSPCB",20-03-2024 17:00:00,25.03280,85.41948,CO,10,10,10
India,Bihar,Rajgir,"Dangi Tola, Rajgir - BSPCB",20-03-2024 17:00:00,25.03280,85.41948,OZONE,18,34,27
India,Bihar,Saharsa,"Police Line, Saharsa - BSPCB",20-03-2024 17:00:00,25.892357,86.590325,SO2,NA,NA,NA
India,Bihar,Samastipur,"DM Office_Kasipur, Samastipur - BSPCB",20-03-2024 17:00:00,25.859655,85.77944,SO2,9,15,12
India,Bihar,Sasaram,"Dada Peer, Sasaram - BSPCB",20-03-2024 17:00:00,24.952822,84.002396,PM10,14,130,60
India,Bihar,Siwan,"Chitragupta Nagar, Siwan - BSPCB",20-03-2024 17:00:00,26.2271665,84.3570427,NH3,1,5,2
India,Chandigarh,Chandigarh,"Sector 22, Chandigarh - CPCC",20-03-2024 17:00:00,30.735567,76.775714,PM10,36,163,88
India,Chandigarh,Chandigarh,"Sector 22, Chandigarh - CPCC",20-03-2024 17:00:00,30.735567,76.775714,SO2,6,89,20
India,Chandigarh,Chandigarh,"Sector 22, Chandigarh - CPCC",20-03-2024 17:00:00,30.735567,76.775714,CO,28,70,39
India,Chandigarh,Chandigarh,"Sector-25, Chandigarh - CPCC",20-03-2024 17:00:00,30.751462,76.762879,NO2,7,48,21
India,Chandigarh,Chandigarh,"Sector-25, Chandigarh - CPCC",20-03-2024 17:00:00,30.751462,76.762879,SO2,7,39,12
India,Chandigarh,Chandigarh,"Sector-53, Chandigarh - CPCC",20-03-2024 17:00:00,30.719859,76.738637,SO2,9,54,15
India,Chhattisgarh,Bhilai,"32Bungalows, Bhilai - CECB",20-03-2024 17:00:00,21.194815,81.314770,PM10,17,37,23
India,Chhattisgarh,Bhilai,"32Bungalows, Bhilai - CECB",20-03-2024 17:00:00,21.194815,81.314770,SO2,3,6,5
India,Chhattisgarh,Bhilai,"Civic Center, Bhilai - Bhilai Steel Plant",20-03-2024 17:00:00,21.185571,81.343175,SO2,7,26,12
India,Chhattisgarh,Bhilai,"Hathkhoj, Bhilai - CECB",20-03-2024 17:00:00,21.224231,81.408350,PM2.5,1,32,12
India,Chhattisgarh,Bhilai,"Hathkhoj, Bhilai - CECB",20-03-2024 17:00:00,21.224231,81.408350,PM10,22,86,33
India,Chhattisgarh,Bhilai,"Hathkhoj, Bhilai - CECB",20-03-2024 17:00:00,21.224231,81.408350,NO2,12,32,22
India,Chhattisgarh,Bilaspur,"Mangala, Bilaspur - NTPC",20-03-2024 17:00:00,22.08815,82.13737,NO2,17,20,19
India,Chhattisgarh,Korba,"Rampur, Korba - CECB",20-03-2024 17:00:00,22.368195,82.746431,PM10,12,61,28
India,Chhattisgarh,Korba,"Rampur, Korba - CECB",20-03-2024 17:00:00,22.368195,82.746431,SO2,6,13,8
India,Chhattisgarh,Korba,"Urja Nagar, Korba - CECB",20-03-2024 17:00:00,22.348441,82.549611,SO2,3,31,9
India,Chhattisgarh,Kunjemura,"OP Jindal School, Kunjemura - CECB",20-03-2024 17:00:00,22.126650,83.483212,PM10,9,79,32
India,Chhattisgarh,Kunjemura,"OP Jindal School, Kunjemura - CECB",20-03-2024 17:00:00,22.126650,83.483212,OZONE,12,61,34
India,Chhattisgarh,Milupara,"Govt. Higher Secondary School, Milupara - CECB",20-03-2024 17:00:00,22.1910172,83.5197009,CO,NA,NA,NA
India,Chhattisgarh,Milupara,"Govt. Higher Secondary School, Milupara - CECB",20-03-2024 17:00:00,22.1910172,83.5197009,OZONE,NA,NA,NA
India,Chhattisgarh,Raipur,"AIIMS, Raipur - CECB",20-03-2024 17:00:00,21.258815,81.578979,PM2.5,11,27,18
India,Chhattisgarh,Raipur,"Bhatagaon New ISBT, Raipur - CECB",20-03-2024 17:00:00,21.219665,81.630094,SO2,1,3,2
India,Chhattisgarh,Raipur,"Bhatagaon New ISBT, Raipur - CECB",20-03-2024 17:00:00,21.219665,81.630094,CO,14,27,22
India,Chhattisgarh,Raipur,"Bhatagaon New ISBT, Raipur - CECB",20-03-2024 17:00:00,21.219665,81.630094,OZONE,3,5,4
India,Chhattisgarh,Raipur,"Krishak Nagar, Raipur - CECB",20-03-2024 17:00:00,21.237755,81.705301,SO2,NA,NA,NA
India,Chhattisgarh,Raipur,"Siltara Phase-II, Raipur - CECB",20-03-2024 17:00:00,21.371751,81.664929,NH3,3,3,3
India,Chhattisgarh,Tumidih,"OP Jindal Industrial Park, Tumidih - CECB",20-03-2024 17:00:00,22.06631475,83.33820077,NH3,NA,NA,NA
India,Delhi,Delhi,"Ashok Vihar, Delhi - DPCC",20-03-2024 17:00:00,28.695381,77.181665,PM10,82,309,217
India,Delhi,Delhi,"Ashok Vihar, Delhi - DPCC",20-03-2024 17:00:00,28.695381,77.181665,CO,8,101,25
India,Delhi,Delhi,"Bawana, Delhi - DPCC",20-03-2024 17:00:00,28.776200,77.051074,PM10,120,426,241
India,Delhi,Delhi,"Burari Crossing, Delhi - IMD",20-03-2024 17:00:00,28.7256504,77.2011573,CO,42,73,64
India,Delhi,Delhi,"DTU, Delhi - CPCB",20-03-2024 17:00:00,28.7500499,77.1112615,PM10,78,412,239
India,Delhi,Delhi,"Dr. Karni Singh Shooting Range, Delhi - DPCC",20-03-2024 17:00:00,28.498571,77.264840,PM2.5,60,358,199
India,Delhi,Delhi,"Dr. Karni Singh Shooting Range, Delhi - DPCC",20-03-2024 17:00:00,28.498571,77.264840,CO,26,108,45
India,Delhi,Delhi,"Dwarka-Sector 8, Delhi - DPCC ",20-03-2024 17:00:00,28.5710274,77.0719006,PM10,110,488,310
India,Delhi,Delhi,"Dwarka-Sector 8, Delhi - DPCC ",20-03-2024 17:00:00,28.5710274,77.0719006,NO2,1,33,12
India,Delhi,Delhi,"Dwarka-Sector 8, Delhi - DPCC ",20-03-2024 17:00:00,28.5710274,77.0719006,CO,20,114,43
India,Delhi,Delhi,"Dwarka-Sector 8, Delhi - DPCC ",20-03-2024 17:00:00,28.5710274,77.0719006,OZONE,1,90,57
India,Delhi,Delhi,"IGI Airport (T3), Delhi - IMD",20-03-2024 17:00:00,28.5627763,77.1180053,OZONE,6,60,38
India,Delhi,Delhi,"IHBAS, Dilshad Garden, Delhi - CPCB",20-03-2024 17:00:00,28.6811736,77.3025234,PM10,88,177,138
India,Delhi,Delhi,"IHBAS, Dilshad Garden, Delhi - CPCB",20-03-2024 17:00:00,28.6811736,77.3025234,SO2,3,24,13
India,Delhi,Delhi,"IHBAS, Dilshad Garden, Delhi - CPCB",20-03-2024 17:00:00,28.6811736,77.3025234,CO,46,94,60
India,Delhi,Delhi,"IHBAS, Dilshad Garden, Delhi - CPCB",20-03-2024 17:00:00,28.6811736,77.3025234,OZONE,7,56,37
India,Delhi,Delhi,"Jahangirpuri, Delhi - DPCC",20-03-2024 17:00:00,28.732820,77.170633,PM10,74,483,304
India,Delhi,Delhi,"Jahangirpuri, Delhi - DPCC",20-03-2024 17:00:00,28.732820,77.170633,OZONE,8,65,47
India,Delhi,Delhi,"Jawaharlal Nehru Stadium, Delhi - DPCC",20-03-2024 17:00:00,28.580280,77.233829,PM2.5,39,338,168
India,Delhi,Delhi,"Lodhi Road, Delhi - IITM",20-03-2024 17:00:00,28.588333,77.221667,SO2,19,38,28
India,Delhi,Delhi,"Lodhi Road, Delhi - IITM",20-03-2024 17:00:00,28.588333,77.221667,CO,59,69,61
India,Delhi,Delhi,"Major Dhyan Chand National Stadium, Delhi - DPCC",20-03-2024 17:00:00,28.611281,77.237738,NO2,27,151,99
India,Delhi,Delhi,"Mandir Marg, Delhi - DPCC",20-03-2024 17:00:00,28.636429,77.201067,PM2.5,32,323,179
India,Delhi,Delhi,"Mandir Marg, Delhi - DPCC",20-03-2024 17:00:00,28.636429,77.201067,NH3,6,8,7
India,Delhi,Delhi,"Mundka, Delhi - DPCC",20-03-2024 17:00:00,28.684678,77.076574,PM2.5,52,500,283
India,Delhi,Delhi,"Mundka, Delhi - DPCC",20-03-2024 17:00:00,28.684678,77.076574,NO2,19,103,52
India,Delhi,Delhi,"Mundka, Delhi - DPCC",20-03-2024 17:00:00,28.684678,77.076574,CO,22,88,38
India,Delhi,Delhi,"NSIT Dwarka, Delhi - CPCB",20-03-2024 17:00:00,28.60909,77.0325413,NO2,24,48,36
India,Delhi,Delhi,"NSIT Dwarka, Delhi - CPCB",20-03-2024 17:00:00,28.60909,77.0325413,SO2,4,34,16
India,Delhi,Delhi,"Narela, Delhi - DPCC",20-03-2024 17:00:00,28.822836,77.101981,NO2,15,103,54
India,Delhi,Delhi,"Narela, Delhi - DPCC",20-03-2024 17:00:00,28.822836,77.101981,CO,36,86,57
India,Delhi,Delhi,"Nehru Nagar, Delhi - DPCC",20-03-2024 17:00:00,28.567890,77.250515,NO2,10,36,21
India,Delhi,Delhi,"Nehru Nagar, Delhi - DPCC",20-03-2024 17:00:00,28.567890,77.250515,CO,28,123,72
India,Delhi,Delhi,"New Moti Bagh, Delhi - MHUA",20-03-2024 17:00:00,28.57834,77.18400,PM2.5,35,378,194
India,Delhi,Delhi,"North Campus, DU, Delhi - IMD",20-03-2024 17:00:00,28.6573814,77.1585447,OZONE,2,33,27
India,Delhi,Delhi,"Okhla Phase-2, Delhi - DPCC",20-03-2024 17:00:00,28.530785,77.271255,NH3,7,17,10
India,Delhi,Delhi,"Patparganj, Delhi - DPCC",20-03-2024 17:00:00,28.623763,77.287209,OZONE,4,103,78
India,Delhi,Delhi,"Punjabi Bagh, Delhi - DPCC",20-03-2024 17:00:00,28.674045,77.131023,NO2,18,57,32
India,Delhi,Delhi,"Punjabi Bagh, Delhi - DPCC",20-03-2024 17:00:00,28.674045,77.131023,NH3,1,5,3
India,Delhi,Delhi,"Punjabi Bagh, Delhi - DPCC",20-03-2024 17:00:00,28.674045,77.131023,OZONE,1,73,29
India,Delhi,Delhi,"Pusa, Delhi - DPCC",20-03-2024 17:00:00,28.639652,77.146275,PM2.5,27,339,196
India,Delhi,Delhi,"Pusa, Delhi - IMD",20-03-2024 17:00:00,28.636110,77.173332,PM10,107,311,232
India,Delhi,Delhi,"Pusa, Delhi - IMD",20-03-2024 17:00:00,28.636110,77.173332,NO2,13,44,31
India,Delhi,Delhi,"Pusa, Delhi - IMD",20-03-2024 17:00:00,28.636110,77.173332,CO,74,106,104
India,Delhi,Delhi,"R K Puram, Delhi - DPCC",20-03-2024 17:00:00,28.563262,77.186937,OZONE,9,141,99
India,Delhi,Delhi,"Rohini, Delhi - DPCC",20-03-2024 17:00:00,28.732528,77.119920,SO2,8,85,25
India,Delhi,Delhi,"Shadipur, Delhi - CPCB",20-03-2024 17:00:00,28.6514781,77.1473105,PM2.5,99,345,299
India,Delhi,Delhi,"Shadipur, Delhi - CPCB",20-03-2024 17:00:00,28.6514781,77.1473105,PM10,117,481,282
India,Delhi,Delhi,"Shadipur, Delhi - CPCB",20-03-2024 17:00:00,28.6514781,77.1473105,SO2,10,23,16
India,Delhi,Delhi,"Sirifort, Delhi - CPCB",20-03-2024 17:00:00,28.5504249,77.2159377,NO2,96,192,166
India,Delhi,Delhi,"Sonia Vihar, Delhi - DPCC",20-03-2024 17:00:00,28.710508,77.249485,NH3,5,6,5
India,Delhi,Delhi,"Sri Aurobindo Marg, Delhi - DPCC",20-03-2024 17:00:00,28.531346,77.190156,SO2,11,47,19
India,Delhi,Delhi,"Vivek Vihar, Delhi - DPCC",20-03-2024 17:00:00,28.672342,77.315260,NH3,NA,NA,NA
India,Delhi,Delhi,"Vivek Vihar, Delhi - DPCC",20-03-2024 17:00:00,28.672342,77.315260,CO,7,56,39
India,Delhi,Delhi,"Wazirpur, Delhi - DPCC",20-03-2024 17:00:00,28.699793,77.165453,PM2.5,31,400,239
India,Delhi,Delhi,"Wazirpur, Delhi - DPCC",20-03-2024 17:00:00,28.699793,77.165453,NH3,8,11,10
India,Gujarat,Ahmedabad,"Gyaspur, Ahmedabad - IITM",20-03-2024 17:00:00,22.977134,72.553024,NH3,9,11,10
India,Gujarat,Ahmedabad,"Maninagar, Ahmedabad - GPCB",20-03-2024 17:00:00,23.002657,72.591912,PM10,61,194,109
India,Gujarat,Ahmedabad,"Rakhial, Ahmedabad - IITM",20-03-2024 17:00:00,23.016834,72.625775,PM2.5,96,356,184
India,Gujarat,Ahmedabad,"SAC ISRO Satellite, Ahmedabad - IITM",20-03-2024 17:00:00,23.023389,72.515201,CO,23,42,24
India,Gujarat,Ahmedabad,"SAC ISRO Satellite, Ahmedabad - IITM",20-03-2024 17:00:00,23.023389,72.515201,OZONE,10,20,18
India,Gujarat,Ahmedabad,"Sardar Vallabhbhai Patel Stadium, Ahmedabad - IITM",20-03-2024 17:00:00,23.043070,72.562968,NH3,2,2,2
India,Gujarat,Ankleshwar,"GIDC, Ankleshwar - GPCB",20-03-2024 17:00:00,21.613267,73.010555,PM2.5,43,208,120
India,Gujarat,Gandhinagar,"GIFT City, Gandhinagar - IITM",20-03-2024 17:00:00,23.163798,72.677768,PM10,71,179,120
India,Gujarat,Gandhinagar,"IIPHG Lekawada, Gandhinagar - IITM",20-03-2024 17:00:00,23.243639,72.68994,NO2,37,70,47
India,Gujarat,Gandhinagar,"Sector-10, Gandhinagar - GPCB",20-03-2024 17:00:00,23.221714,72.654328,OZONE,2,28,19
India,Gujarat,Nandesari,"GIDC, Nandesari - Nandesari Ind. Association",20-03-2024 17:00:00,22.410802,73.097923,SO2,5,20,12
India,Gujarat,Surat,"Science Center, Surat - SMC",20-03-2024 17:00:00,21.170046,72.795405,NO2,32,50,40
India,Gujarat,Surat,"Science Center, Surat - SMC",20-03-2024 17:00:00,21.170046,72.795405,SO2,16,30,21
India,Gujarat,Vapi,"Phase-1 GIDC, Vapi - GPCB",20-03-2024 17:00:00,20.362421,72.918013,NO2,6,6,6
India,Gujarat,Vapi,"Phase-1 GIDC, Vapi - GPCB",20-03-2024 17:00:00,20.362421,72.918013,SO2,46,57,50
India,Gujarat,Vapi,"Phase-1 GIDC, Vapi - GPCB",20-03-2024 17:00:00,20.362421,72.918013,OZONE,1,4,2
India,Gujarat,Vatva,"Phase-4 GIDC, Vatva - GPCB",20-03-2024 17:00:00,22.969611,72.643500,OZONE,9,75,46
India,Haryana,Ambala,"Patti Mehar, Ambala - HSPCB",20-03-2024 17:00:00,30.379589,76.778328,PM10,37,85,53
India,Haryana,Ambala,"Patti Mehar, Ambala - HSPCB",20-03-2024 17:00:00,30.379589,76.778328,OZONE,49,67,58
India,Haryana,Bahadurgarh,"Arya Nagar, Bahadurgarh - HSPCB",20-03-2024 17:00:00,28.6701,76.9254,OZONE,38,50,44
India,Haryana,Bhiwani,"H.B. Colony, Bhiwani - HSPCB",20-03-2024 17:00:00,28.806223,76.141105,PM10,58,110,81
India,Haryana,Bhiwani,"H.B. Colony, Bhiwani - HSPCB",20-03-2024 17:00:00,28.806223,76.141105,NH3,6,6,6
India,Haryana,Bhiwani,"H.B. Colony, Bhiwani - HSPCB",20-03-2024 17:00:00,28.806223,76.141105,SO2,1,76,10
India,Haryana,Faridabad,"New Industrial Town, Faridabad - HSPCB",20-03-2024 17:00:00,28.39072,77.30059,SO2,14,16,15
India,Haryana,Faridabad,"New Industrial Town, Faridabad - HSPCB",20-03-2024 17:00:00,28.39072,77.30059,CO,12,46,23
India,Haryana,Faridabad,"New Industrial Town, Faridabad - HSPCB",20-03-2024 17:00:00,28.39072,77.30059,OZONE,7,223,66
India,Haryana,Faridabad,"Sector 11, Faridabad - HSPCB",20-03-2024 17:00:00,28.376058,77.315741,PM2.5,168,328,241
India,Haryana,Faridabad,"Sector 30, Faridabad - HSPCB",20-03-2024 17:00:00,28.4417,77.3217,PM2.5,90,108,96
India,Haryana,Faridabad,"Sector 30, Faridabad - HSPCB",20-03-2024 17:00:00,28.4417,77.3217,PM10,137,152,143
India,Haryana,Faridabad,"Sector 30, Faridabad - HSPCB",20-03-2024 17:00:00,28.4417,77.3217,OZONE,5,89,59
India,Haryana,Faridabad,"Sector- 16A, Faridabad - HSPCB",20-03-2024 17:00:00,28.4088421,77.3099081,PM2.5,68,362,208
India,Haryana,Faridabad,"Sector- 16A, Faridabad - HSPCB",20-03-2024 17:00:00,28.4088421,77.3099081,OZONE,14,14,14
India,Haryana,Fatehabad,"Huda Sector, Fatehabad - HSPCB",20-03-2024 17:00:00,29.503664,75.467934,PM10,68,115,96
India,Haryana,Fatehabad,"Huda Sector, Fatehabad - HSPCB",20-03-2024 17:00:00,29.503664,75.467934,NH3,12,14,13
India,Haryana,Fatehabad,"Huda Sector, Fatehabad - HSPCB",20-03-2024 17:00:00,29.503664,75.467934,CO,5,14,6
India,Haryana,Gurugram,"Sector-51, Gurugram - HSPCB",20-03-2024 17:00:00,28.4227,77.0667,NO2,13,29,23
India,Haryana,Gurugram,"Sector-51, Gurugram - HSPCB",20-03-2024 17:00:00,28.4227,77.0667,NH3,7,14,9
India,Haryana,Gurugram,"Sector-51, Gurugram - HSPCB",20-03-2024 17:00:00,28.4227,77.0667,SO2,3,5,4
India,Haryana,Gurugram,"Teri Gram, Gurugram - HSPCB",20-03-2024 17:00:00,28.4275,77.1465,SO2,3,5,4
India,Haryana,Gurugram,"Vikas Sadan, Gurugram - HSPCB",20-03-2024 17:00:00,28.4501238,77.0263051,SO2,28,56,38
India,Haryana,Gurugram,"Vikas Sadan, Gurugram - HSPCB",20-03-2024 17:00:00,28.4501238,77.0263051,OZONE,8,68,48
India,Haryana,Hisar,"Urban Estate-II, Hisar - HSPCB",20-03-2024 17:00:00,29.140560,75.744941,NH3,8,18,13
India,Haryana,Jind,"Police Lines, Jind - HSPCB",20-03-2024 17:00:00,29.307814,76.337619,PM10,60,103,83
India,Haryana,Jind,"Police Lines, Jind - HSPCB",20-03-2024 17:00:00,29.307814,76.337619,NH3,2,5,4
India,Haryana,Jind,"Police Lines, Jind - HSPCB",20-03-2024 17:00:00,29.307814,76.337619,CO,2,110,43
India,Haryana,Kaithal,"Rishi Nagar, Kaithal - HSPCB",20-03-2024 17:00:00,29.8006,76.4155,CO,2,30,8
India,Haryana,Kurukshetra,"Sector-7, Kurukshetra - HSPCB",20-03-2024 17:00:00,29.966942,76.875879,SO2,1,88,27
India,Haryana,Narnaul,"Shastri Nagar, Narnaul - HSPCB",20-03-2024 17:00:00,28.060249,76.113115,PM2.5,23,111,54
India,Haryana,Narnaul,"Shastri Nagar, Narnaul - HSPCB",20-03-2024 17:00:00,28.060249,76.113115,NO2,12,75,35
India,Haryana,Panipat,"Sector-18, Panipat - HSPCB",20-03-2024 17:00:00,29.497973,76.993331,NO2,31,32,31
India,Haryana,Panipat,"Sector-18, Panipat - HSPCB",20-03-2024 17:00:00,29.497973,76.993331,CO,24,26,25
India,Haryana,Rohtak,"MD University, Rohtak - HSPCB",20-03-2024 17:00:00,28.52123,76.37138,NO2,47,58,51
India,Haryana,Sirsa,"F-Block, Sirsa - HSPCB",20-03-2024 17:00:00,29.536400,75.015800,NH3,11,13,13
India,Haryana,Sonipat,"Murthal, Sonipat - HSPCB",20-03-2024 17:00:00,29.027200,77.062100,PM10,61,98,79
India,Haryana,Sonipat,"Murthal, Sonipat - HSPCB",20-03-2024 17:00:00,29.027200,77.062100,NO2,37,44,40
India,Haryana,Sonipat,"Murthal, Sonipat - HSPCB",20-03-2024 17:00:00,29.027200,77.062100,NH3,6,10,9
India,Haryana,Yamuna Nagar,"Gobind Pura, Yamuna Nagar - HSPCB",20-03-2024 17:00:00,30.1480566,77.2893471,NH3,1,6,4
India,Himachal Pradesh,Baddi,"HIMUDA Complex Phase-1, Baddi - HPPCB",20-03-2024 17:00:00,30.943887,76.801991,NH3,3,5,4
India,Himachal Pradesh,Baddi,"HIMUDA Complex Phase-1, Baddi - HPPCB",20-03-2024 17:00:00,30.943887,76.801991,OZONE,3,158,157
India,Jharkhand,Dhanbad,"Kalakusuma, Dhanbad - DMC",20-03-2024 17:00:00,23.811548,86.481238,SO2,12,138,90
India,Jharkhand,Dhanbad,"Sardar Patel Nagar, Dhanbad - JSPCB",20-03-2024 17:00:00,23.80569,86.44268,OZONE,9,17,13
India,Jharkhand,Pathardih,"Mohalbani Ghat, Pathardih - DMC",20-03-2024 17:00:00,23.669880,86.411725,PM2.5,NA,NA,NA
India,Karnataka,Bengaluru,"Jayanagar 5th Block, Bengaluru - KSPCB",20-03-2024 17:00:00,12.920984,77.584908,PM10,91,151,117
India,Karnataka,Bengaluru,"Kasturi Nagar, Bengaluru - KSPCB",20-03-2024 17:00:00,13.003872,77.664217,PM2.5,93,239,158
India,Karnataka,Bengaluru,"RVCE-Mailasandra, Bengaluru - KSPCB",20-03-2024 17:00:00,12.921418,77.502466,PM10,NA,NA,NA
India,Karnataka,Bengaluru,"RVCE-Mailasandra, Bengaluru - KSPCB",20-03-2024 17:00:00,12.921418,77.502466,SO2,10,22,15
India,Karnataka,Bengaluru,"Silk Board, Bengaluru - KSPCB",20-03-2024 17:00:00,12.917348,77.622813,SO2,10,28,18
India,Karnataka,Bengaluru,"Silk Board, Bengaluru - KSPCB",20-03-2024 17:00:00,12.917348,77.622813,OZONE,29,31,30
India,Karnataka,Chamarajanagar,"Urban, Chamarajanagar - KSPCB",20-03-2024 17:00:00,11.55358,76.55521,CO,22,120,26
India,Karnataka,Chamarajanagar,"Urban, Chamarajanagar - KSPCB",20-03-2024 17:00:00,11.55358,76.55521,OZONE,25,45,35
India,Karnataka,Chikkaballapur,"Chikkaballapur Rural, Chikkaballapur - KSPCB",20-03-2024 17:00:00,13.428828,77.731418,NO2,8,18,11
India,Karnataka,Chikkamagaluru,"Kalyana Nagara, Chikkamagaluru - KSPCB",20-03-2024 17:00:00,13.328028,75.797056,NO2,15,32,21
India,Karnataka,Chikkamagaluru,"Kalyana Nagara, Chikkamagaluru - KSPCB",20-03-2024 17:00:00,13.328028,75.797056,OZONE,14,59,49
India,Karnataka,Davanagere,"Devaraj Urs Badavane, Davanagere - KSPCB",20-03-2024 17:00:00,14.475800,75.905200,PM10,61,190,100
India,Karnataka,Dharwad,"Kalabhavan, Dharwad - KSPCB",20-03-2024 17:00:00,15.459706,75.008381,NH3,3,3,3
India,Karnataka,Dharwad,"Kalabhavan, Dharwad - KSPCB",20-03-2024 17:00:00,15.459706,75.008381,OZONE,18,64,55
India,Karnataka,Gadag,"Panchal Nagar, Gadag - KSPCB",20-03-2024 17:00:00,15.411456,75.638133,CO,43,60,48
India,Karnataka,Hassan,"B.Katihalli, Hassan - KSPCB",20-03-2024 17:00:00,13.008556,76.125258,NO2,8,36,19
India,Karnataka,Hubballi,"Deshpande Nagar, Hubballi - KSPCB",20-03-2024 17:00:00,15.351773,75.140726,CO,69,125,118
India,Karnataka,Hubballi,"Deshpande Nagar, Hubballi - KSPCB",20-03-2024 17:00:00,15.351773,75.140726,OZONE,28,79,68
India,Karnataka,Hubballi,"Lingaraj Nagar, Hubballi - KSPCB",20-03-2024 17:00:00,15.3714823,75.1160168,PM2.5,NA,NA,NA
India,Karnataka,Hubballi,"Lingaraj Nagar, Hubballi - KSPCB",20-03-2024 17:00:00,15.3714823,75.1160168,NO2,NA,NA,NA
India,Karnataka,Hubballi,"Lingaraj Nagar, Hubballi - KSPCB",20-03-2024 17:00:00,15.3714823,75.1160168,CO,6,22,14
India,Karnataka,Kalaburagi,"Lal Bahadur Shastri Nagar, Kalaburagi - KSPCB",20-03-2024 17:00:00,17.321993,76.822628,OZONE,3,90,18
India,Karnataka,Karwar,"KHB Colony, Karwar - KSPCB",20-03-2024 17:00:00,14.816666,74.141003,NH3,2,12,4
India,Karnataka,Karwar,"KHB Colony, Karwar - KSPCB",20-03-2024 17:00:00,14.816666,74.141003,SO2,18,18,18
India,Karnataka,Karwar,"KHB Colony, Karwar - KSPCB",20-03-2024 17:00:00,14.816666,74.141003,CO,7,8,7
India,Karnataka,Karwar,"KHB Colony, Karwar - KSPCB",20-03-2024 17:00:00,14.816666,74.141003,OZONE,21,22,21
India,Karnataka,Kolar,"Tamaka Ind. Area, Kolar - KSPCB",20-03-2024 17:00:00,13.1276288,78.1570122,PM2.5,33,116,60
India,Karnataka,Koppal,"Diwator Nagar, Koppal - KSPCB",20-03-2024 17:00:00,15.347630,76.181767,PM2.5,26,58,40
India,Karnataka,Koppal,"Diwator Nagar, Koppal - KSPCB",20-03-2024 17:00:00,15.347630,76.181767,CO,68,78,72
India,Karnataka,Koppal,"Diwator Nagar, Koppal - KSPCB",20-03-2024 17:00:00,15.347630,76.181767,OZONE,27,67,60
India,Karnataka,Madikeri,"Stuart Hill, Madikeri - KSPCB",20-03-2024 17:00:00,12.415911,75.735050,PM2.5,41,55,47
India,Karnataka,Mangalore,"Kadri, Mangalore - KSPCB",20-03-2024 17:00:00,12.889250,74.853000,CO,44,54,49
India,Karnataka,Ramanagara,"Vijay Nagar, Ramanagara - KSPCB",20-03-2024 17:00:00,12.733409,77.298051,PM2.5,56,185,95
India,Karnataka,Tumakuru,"Thimmalapura, Tumakuru - KSPCB",20-03-2024 17:00:00,13.377516,77.099072,PM2.5,15,26,20
India,Karnataka,Tumakuru,"Thimmalapura, Tumakuru - KSPCB",20-03-2024 17:00:00,13.377516,77.099072,NH3,2,5,3
India,Karnataka,Tumakuru,"Thimmalapura, Tumakuru - KSPCB",20-03-2024 17:00:00,13.377516,77.099072,SO2,8,17,11
India,Karnataka,Tumakuru,"Thimmalapura, Tumakuru - KSPCB",20-03-2024 17:00:00,13.377516,77.099072,OZONE,7,46,34
India,Karnataka,Vijayapura,"Ibrahimpur, Vijayapura - KSPCB",20-03-2024 17:00:00,16.802639,75.722694,PM10,38,41,39
India,Karnataka,Vijayapura,"Ibrahimpur, Vijayapura - KSPCB",20-03-2024 17:00:00,16.802639,75.722694,NO2,17,19,19
India,Karnataka,Yadgir,"Collector Office, Yadgir - KSPCB",20-03-2024 17:00:00,16.7602,77.1428,PM2.5,58,109,70
India,Kerala,Kannur,"Thavakkara, Kannur - Kerala PCB",20-03-2024 17:00:00,11.875000,75.373200,NH3,1,1,1
India,Kerala,Kannur,"Thavakkara, Kannur - Kerala PCB",20-03-2024 17:00:00,11.875000,75.373200,SO2,6,6,6
India,Kerala,Thiruvananthapuram,"Kariavattom, Thiruvananthapuram - Kerala PCB",20-03-2024 17:00:00,8.563700,76.886500,NH3,1,1,1
India,Kerala,Thrissur,"Corporation Ground, Thrissur - Kerala PCB",20-03-2024 17:00:00,10.532400,76.215900,NH3,NA,NA,NA
India,Kerala,Thrissur,"Corporation Ground, Thrissur - Kerala PCB",20-03-2024 17:00:00,10.532400,76.215900,CO,14,36,21
India,Madhya Pradesh,Bhopal,"Paryavaran Parisar, Bhopal - MPPCB",20-03-2024 17:00:00,23.210494,77.425409,PM10,43,134,91
India,Madhya Pradesh,Bhopal,"Paryavaran Parisar, Bhopal - MPPCB",20-03-2024 17:00:00,23.210494,77.425409,SO2,21,51,26
India,Madhya Pradesh,Bhopal,"T T Nagar, Bhopal - MPPCB",20-03-2024 17:00:00,23.233584,77.400574,PM2.5,20,82,45
India,Madhya Pradesh,Bhopal,"T T Nagar, Bhopal - MPPCB",20-03-2024 17:00:00,23.233584,77.400574,OZONE,19,102,89
India,Madhya Pradesh,Dewas,"Bhopal Chauraha, Dewas - MPPCB",20-03-2024 17:00:00,22.9682591,76.064118,NH3,3,3,3
India,Madhya Pradesh,Gwalior,"City Center, Gwalior - MPPCB",20-03-2024 17:00:00,26.203442,78.193251,PM2.5,43,239,119
India,Madhya Pradesh,Gwalior,"City Center, Gwalior - MPPCB",20-03-2024 17:00:00,26.203442,78.193251,PM10,104,178,137
India,Madhya Pradesh,Gwalior,"City Center, Gwalior - MPPCB",20-03-2024 17:00:00,26.203442,78.193251,NO2,20,96,45
India,Madhya Pradesh,Gwalior,"Deen Dayal Nagar, Gwalior - MPPCB",20-03-2024 17:00:00,26.259242,78.216432,NO2,15,72,45
India,Madhya Pradesh,Gwalior,"Maharaj Bada, Gwalior - MPPCB",20-03-2024 17:00:00,26.200388,78.147714,PM2.5,42,160,92
India,Madhya Pradesh,Gwalior,"Maharaj Bada, Gwalior - MPPCB",20-03-2024 17:00:00,26.200388,78.147714,NH3,4,9,5
India,Madhya Pradesh,Indore,"Maguda Nagar, Indore - IMC",20-03-2024 17:00:00,22.7524,75.8872,NO2,NA,NA,NA
India,Madhya Pradesh,Indore,"Regional Park, Indore - IMC",20-03-2024 17:00:00,22.6780,75.8559,PM2.5,33,148,68
India,Madhya Pradesh,Indore,"Regional Park, Indore - IMC",20-03-2024 17:00:00,22.6780,75.8559,SO2,42,46,44
India,Madhya Pradesh,Indore,"Regional Park, Indore - IMC",20-03-2024 17:00:00,22.6780,75.8559,CO,23,44,28
India,Madhya Pradesh,Jabalpur,"Govindh Bhavan Colony, Jabalpur - JMC",20-03-2024 17:00:00,23.163174,79.973061,NH3,7,14,10
India,Madhya Pradesh,Jabalpur,"Gupteshwar, Jabalpur - JMC",20-03-2024 17:00:00,23.142888,79.916147,NO2,2,41,10
India,Madhya Pradesh,Jabalpur,"Marhatal, Jabalpur - MPPCB",20-03-2024 17:00:00,23.168606,79.932247,PM10,24,80,50
India,Madhya Pradesh,Jabalpur,"Suhagi, Jabalpur - JMC",20-03-2024 17:00:00,23.218135,79.957770,CO,16,66,47
India,Madhya Pradesh,Jabalpur,"Suhagi, Jabalpur - JMC",20-03-2024 17:00:00,23.218135,79.957770,OZONE,48,161,113
India,Madhya Pradesh,Katni,"Gole Bazar, Katni - MPPCB",20-03-2024 17:00:00,23.50016,80.23284,PM10,71,166,107
India,Madhya Pradesh,Katni,"Gole Bazar, Katni - MPPCB",20-03-2024 17:00:00,23.50016,80.23284,SO2,10,71,31
India,Madhya Pradesh,Maihar,"Sahilara, Maihar - KJS Cements",20-03-2024 17:00:00,24.2613009,80.7231783,SO2,17,22,19
India,Madhya Pradesh,Pithampur,"Sector-2 Industrial Area, Pithampur - MPPCB",20-03-2024 17:00:00,22.624758,75.675238,NO2,5,28,14
India,Madhya Pradesh,Pithampur,"Sector-2 Industrial Area, Pithampur - MPPCB",20-03-2024 17:00:00,22.624758,75.675238,NH3,6,9,8
India,Madhya Pradesh,Pithampur,"Sector-2 Industrial Area, Pithampur - MPPCB",20-03-2024 17:00:00,22.624758,75.675238,SO2,11,17,14
India,Madhya Pradesh,Ratlam,"Shasthri Nagar, Ratlam - IPCA Lab",20-03-2024 17:00:00,23.331731,75.045981,PM10,91,423,182
India,Madhya Pradesh,Sagar,"Deen Dayal Nagar, Sagar - MPPCB",20-03-2024 17:00:00,23.8640158,78.80289321,PM10,22,60,35
India,Madhya Pradesh,Sagar,"Deen Dayal Nagar, Sagar - MPPCB",20-03-2024 17:00:00,23.8640158,78.80289321,CO,52,92,68
India,Madhya Pradesh,Satna,"Bandhavgar Colony, Satna - Birla Cement",20-03-2024 17:00:00,24.58434363,80.8549414,SO2,1,17,3
India,Madhya Pradesh,Satna,"Bandhavgar Colony, Satna - Birla Cement",20-03-2024 17:00:00,24.58434363,80.8549414,OZONE,58,86,72
India,Madhya Pradesh,Singrauli,"Suryakiran Bhawan NCL, Singrauli - MPPCB",20-03-2024 17:00:00,24.108970,82.645580,PM2.5,21,139,57
India,Madhya Pradesh,Singrauli,"Suryakiran Bhawan NCL, Singrauli - MPPCB",20-03-2024 17:00:00,24.108970,82.645580,SO2,19,126,54
India,Madhya Pradesh,Ujjain,"Mahakaleshwar Temple, Ujjain - MPPCB",20-03-2024 17:00:00,23.182719 ,75.768218 ,PM10,63,177,112
India,Madhya Pradesh,Ujjain,"Mahakaleshwar Temple, Ujjain - MPPCB",20-03-2024 17:00:00,23.182719 ,75.768218 ,NO2,9,90,45
India,Madhya Pradesh,Ujjain,"Mahakaleshwar Temple, Ujjain - MPPCB",20-03-2024 17:00:00,23.182719 ,75.768218 ,NH3,3,10,7
India,Madhya Pradesh,Ujjain,"Mahakaleshwar Temple, Ujjain - MPPCB",20-03-2024 17:00:00,23.182719 ,75.768218 ,SO2,7,18,11
India,Madhya Pradesh,Ujjain,"Mahakaleshwar Temple, Ujjain - MPPCB",20-03-2024 17:00:00,23.182719 ,75.768218 ,CO,6,119,34
India,Madhya Pradesh,Ujjain,"Mahakaleshwar Temple, Ujjain - MPPCB",20-03-2024 17:00:00,23.182719 ,75.768218 ,OZONE,129,165,164
India,Maharashtra,Ahmednagar,"Tarakpur, Ahmednagar - MPCB",20-03-2024 17:00:00,19.10122,74.73339,PM10,83,244,125
India,Maharashtra,Ahmednagar,"Tarakpur, Ahmednagar - MPCB",20-03-2024 17:00:00,19.10122,74.73339,NO2,27,170,68
India,Maharashtra,Amravati,"Shivneri Colony, Amravati - MPCB",20-03-2024 17:00:00,20.9402359,77.7895248,PM10,59,113,87
India,Maharashtra,Amravati,"Shri Shivaji Science College, Amaravati - MPCB",20-03-2024 17:00:00,20.939198,77.765701,NO2,5,30,12
India,Maharashtra,Amravati,"Shri Shivaji Science College, Amaravati - MPCB",20-03-2024 17:00:00,20.939198,77.765701,CO,20,46,27
India,Maharashtra,Aurangabad,"MIDC Chilkalthana, Aurangabad - MPCB",20-03-2024 17:00:00,19.875620,75.387310,SO2,3,22,9
India,Maharashtra,Aurangabad,"More Chowk Waluj, Aurangabad - MPCB",20-03-2024 17:00:00,19.8389439,75.244448,NH3,1,10,4
India,Maharashtra,Aurangabad,"Rachnakar Colony, Aurangabad - MPCB",20-03-2024 17:00:00,19.863756,75.321188,PM2.5,29,350,144
India,Maharashtra,Aurangabad,"Rachnakar Colony, Aurangabad - MPCB",20-03-2024 17:00:00,19.863756,75.321188,CO,10,98,18
India,Maharashtra,Badlapur,"Katrap, Badlapur - MPCB",20-03-2024 17:00:00,19.16485,73.23409,PM2.5,73,311,179
India,Maharashtra,Badlapur,"Katrap, Badlapur - MPCB",20-03-2024 17:00:00,19.16485,73.23409,NO2,1,12,6
India,Maharashtra,Belapur,"CBD Belapur, Belapur - MPCB",20-03-2024 17:00:00,19.0243902,73.0406721,PM10,60,225,119
India,Maharashtra,Belapur,"CBD Belapur, Belapur - MPCB",20-03-2024 17:00:00,19.0243902,73.0406721,OZONE,6,133,80
India,Maharashtra,Bhiwandi,"Gokul Nagar, Bhiwandi - MPCB",20-03-2024 17:00:00,19.309073,73.057223,PM10,54,178,120
India,Maharashtra,Bhiwandi,"Gokul Nagar, Bhiwandi - MPCB",20-03-2024 17:00:00,19.309073,73.057223,NH3,1,6,2
India,Maharashtra,Bhiwandi,"Gokul Nagar, Bhiwandi - MPCB",20-03-2024 17:00:00,19.309073,73.057223,OZONE,4,256,139
India,Maharashtra,Boisar,"Khaira, Boisar - MPCB",20-03-2024 17:00:00,19.786089,72.757971,PM2.5,NA,NA,NA
India,Maharashtra,Boisar,"Khaira, Boisar - MPCB",20-03-2024 17:00:00,19.786089,72.757971,NH3,NA,NA,NA
India,Maharashtra,Boisar,"Khaira, Boisar - MPCB",20-03-2024 17:00:00,19.786089,72.757971,OZONE,13,13,13
India,Maharashtra,Chandrapur,"Chauhan Colony, Chandrapur - MPCB",20-03-2024 17:00:00,19.962900,79.298714,SO2,1,107,8
India,Maharashtra,Chandrapur,"MIDC Khutala, Chandrapur - MPCB",20-03-2024 17:00:00,19.9775302,79.2337086,OZONE,12,55,48
India,Maharashtra,Dhule,"Deopur, Dhule - MPCB",20-03-2024 17:00:00,20.918946,74.776388,PM2.5,74,303,103
India,Maharashtra,Jalgaon,"Prabhat Colony, Jalgaon - MPCB",20-03-2024 17:00:00,21.001264,75.565602,PM2.5,73,240,137
India,Maharashtra,Jalgaon,"Prabhat Colony, Jalgaon - MPCB",20-03-2024 17:00:00,21.001264,75.565602,SO2,6,13,9
India,Maharashtra,Jalgaon,"Prabhat Colony, Jalgaon - MPCB",20-03-2024 17:00:00,21.001264,75.565602,OZONE,12,108,88
India,Maharashtra,Jalna,"Old MIDC, Jalna - MPCB",20-03-2024 17:00:00,19.854616,75.905894,NO2,16,35,28
India,Maharashtra,Kalyan,"Khadakpada, Kalyan - MPCB",20-03-2024 17:00:00,19.25292,73.142019,PM2.5,32,92,57
India,Maharashtra,Kalyan,"Khadakpada, Kalyan - MPCB",20-03-2024 17:00:00,19.25292,73.142019,NO2,28,63,43
India,Maharashtra,Kalyan,"Khadakpada, Kalyan - MPCB",20-03-2024 17:00:00,19.25292,73.142019,SO2,25,55,37
India,Maharashtra,Kolhapur,"Shivaji University, Kolhapur - MPCB",20-03-2024 17:00:00,16.6870449,74.2505872,NH3,4,10,6
India,Maharashtra,Mahad,"Kamble Tarf Birwadi, Mahad - MPCB",20-03-2024 17:00:00,18.1023399,73.4783687,NO2,23,139,40
India,Maharashtra,Mahad,"Kamble Tarf Birwadi, Mahad - MPCB",20-03-2024 17:00:00,18.1023399,73.4783687,OZONE,5,121,65
India,Maharashtra,Mira-Bhayandar,"Bhayandar West, Mira-Bhayandar - MPCB",20-03-2024 17:00:00,19.296481,72.840923,PM10,112,309,163
India,Maharashtra,Mira-Bhayandar,"Bhayandar West, Mira-Bhayandar - MPCB",20-03-2024 17:00:00,19.296481,72.840923,SO2,1,22,6
India,Maharashtra,Mumbai,"Bandra Kurla Complex, Mumbai - MPCB",20-03-2024 17:00:00,19.065931,72.862131,PM2.5,72,208,122
India,Maharashtra,Mumbai,"Bandra Kurla Complex, Mumbai - MPCB",20-03-2024 17:00:00,19.065931,72.862131,NO2,9,48,24
India,Maharashtra,Mumbai,"Borivali East, Mumbai - IITM",20-03-2024 17:00:00,19.23241,72.86895,PM2.5,48,183,78
India,Maharashtra,Mumbai,"Byculla, Mumbai - BMC",20-03-2024 17:00:00,18.9767,72.8380,CO,15,62,37
India,Maharashtra,Mumbai,"Chakala-Andheri East, Mumbai - IITM",20-03-2024 17:00:00,19.11074,72.86084,NO2,73,186,128
India,Maharashtra,Mumbai,"Chembur, Mumbai - MPCB",20-03-2024 17:00:00,19.0364585,72.8954371,PM2.5,77,141,105
India,Maharashtra,Mumbai,"Chhatrapati Shivaji Intl. Airport (T2), Mumbai - MPCB",20-03-2024 17:00:00,19.10078,72.87462,PM2.5,19,61,37
India,Maharashtra,Mumbai,"Ghatkopar, Mumbai - BMC",20-03-2024 17:00:00,19.083694,72.920967,PM2.5,46,129,70
India,Maharashtra,Mumbai,"Ghatkopar, Mumbai - BMC",20-03-2024 17:00:00,19.083694,72.920967,PM10,91,122,106
India,Maharashtra,Mumbai,"Ghatkopar, Mumbai - BMC",20-03-2024 17:00:00,19.083694,72.920967,SO2,2,9,4
India,Maharashtra,Mumbai,"Kandivali East, Mumbai - MPCB",20-03-2024 17:00:00,19.205800,72.868200,SO2,7,104,87
India,Maharashtra,Mumbai,"Kandivali East, Mumbai - MPCB",20-03-2024 17:00:00,19.205800,72.868200,CO,87,115,103
India,Maharashtra,Mumbai,"Kandivali West, Mumbai - BMC",20-03-2024 17:00:00,19.215859,72.831718,PM2.5,55,131,80
India,Maharashtra,Mumbai,"Kandivali West, Mumbai - BMC",20-03-2024 17:00:00,19.215859,72.831718,SO2,1,14,5
India,Maharashtra,Mumbai,"Kherwadi_Bandra East, Mumbai - MPCB",20-03-2024 17:00:00,19.0632143,72.8456324,NO2,13,137,59
India,Maharashtra,Mumbai,"Kherwadi_Bandra East, Mumbai - MPCB",20-03-2024 17:00:00,19.0632143,72.8456324,NH3,4,36,13
India,Maharashtra,Mumbai,"Kurla, Mumbai - MPCB",20-03-2024 17:00:00,19.0863,72.8888,OZONE,28,69,52
India,Maharashtra,Mumbai,"Mazgaon, Mumbai - IITM",20-03-2024 17:00:00,18.96702,72.84214,NO2,54,203,110
India,Maharashtra,Mumbai,"Mulund West, Mumbai - MPCB",20-03-2024 17:00:00,19.1750,72.9419,PM2.5,20,98,41
India,Maharashtra,Mumbai,"Mulund West, Mumbai - MPCB",20-03-2024 17:00:00,19.1750,72.9419,SO2,13,13,13
India,Maharashtra,Mumbai,"Powai, Mumbai - MPCB",20-03-2024 17:00:00,19.137500,72.915056,PM10,76,180,114
India,Maharashtra,Mumbai,"Sewri, Mumbai - BMC",20-03-2024 17:00:00,19.000084,72.856730,NO2,34,106,66
India,Maharashtra,Mumbai,"Sewri, Mumbai - BMC",20-03-2024 17:00:00,19.000084,72.856730,CO,14,62,32
India,Maharashtra,Mumbai,"Sewri, Mumbai - BMC",20-03-2024 17:00:00,19.000084,72.856730,OZONE,1,88,63
India,Maharashtra,Mumbai,"Shivaji Nagar, Mumbai - BMC",20-03-2024 17:00:00,19.060498,72.923356,PM10,104,166,125
India,Maharashtra,Mumbai,"Shivaji Nagar, Mumbai - BMC",20-03-2024 17:00:00,19.060498,72.923356,SO2,4,50,14
India,Maharashtra,Mumbai,"Shivaji Nagar, Mumbai - BMC",20-03-2024 17:00:00,19.060498,72.923356,OZONE,1,114,82
India,Maharashtra,Mumbai,"Siddharth Nagar-Worli, Mumbai - IITM",20-03-2024 17:00:00,19.000083,72.813993,PM2.5,66,344,194
India,Maharashtra,Mumbai,"Sion, Mumbai - MPCB",20-03-2024 17:00:00,19.047000,72.874600,NO2,16,88,48
India,Maharashtra,Mumbai,"Vasai West, Mumbai - MPCB",20-03-2024 17:00:00,19.383200,72.820400,SO2,15,17,16
India,Maharashtra,Mumbai,"Vile Parle West, Mumbai - MPCB",20-03-2024 17:00:00,19.10861,72.83622,PM2.5,42,91,63
India,Maharashtra,Mumbai,"Vile Parle West, Mumbai - MPCB",20-03-2024 17:00:00,19.10861,72.83622,NO2,2,49,8
India,Maharashtra,Mumbai,"Vile Parle West, Mumbai - MPCB",20-03-2024 17:00:00,19.10861,72.83622,OZONE,4,4,4
India,Maharashtra,Mumbai,"Worli, Mumbai - MPCB",20-03-2024 17:00:00,18.9936162,72.8128113,PM2.5,14,31,21
India,Maharashtra,Mumbai,"Worli, Mumbai - MPCB",20-03-2024 17:00:00,18.9936162,72.8128113,CO,28,30,29
India,Maharashtra,Nagpur,"Mahal, Nagpur - MPCB",20-03-2024 17:00:00,21.14472,79.107595,SO2,2,37,15
India,Maharashtra,Nagpur,"Opp GPO Civil Lines, Nagpur - MPCB",20-03-2024 17:00:00,21.152875,79.0517531,PM10,42,113,66
India,Maharashtra,Nashik,"Gangapur Road, Nashik - MPCB",20-03-2024 17:00:00,20.0073285,73.7762427,NH3,1,2,1
India,Maharashtra,Nashik,"Hirawadi, Nashik - MPCB",20-03-2024 17:00:00,20.021503,73.813844,NH3,1,3,2
India,Maharashtra,Navi Mumbai,"Mahape, Navi Mumbai - MPCB",20-03-2024 17:00:00,19.1135051,73.008978,NO2,37,39,38
India,Maharashtra,Navi Mumbai,"Nerul, Navi Mumbai - MPCB",20-03-2024 17:00:00,19.008751,73.016620,NH3,2,6,4
India,Maharashtra,Navi Mumbai,"Sector-2E Kalamboli, Navi Mumbai - MPCB",20-03-2024 17:00:00,19.02579,73.10297,PM10,52,206,116
India,Maharashtra,Navi Mumbai,"Sector-2E Kalamboli, Navi Mumbai - MPCB",20-03-2024 17:00:00,19.02579,73.10297,OZONE,4,80,61
India,Maharashtra,Navi Mumbai,"Tondare-Taloja, Navi Mumbai - MPCB",20-03-2024 17:00:00,19.0630,73.1209,CO,6,56,21
India,Maharashtra,Pimpri-Chinchwad,"Gavalinagar, Pimpri Chinchwad - MPCB",20-03-2024 17:00:00,18.63673,73.82487,NO2,13,108,52
India,Maharashtra,Pimpri-Chinchwad,"Park Street Wakad, Pimpri Chinchwad - MPCB",20-03-2024 17:00:00,18.59051,73.77946,NH3,6,16,11
India,Maharashtra,Pimpri-Chinchwad,"Thergaon, Pimpri Chinchwad - MPCB",20-03-2024 17:00:00,18.616318,73.765797,PM10,79,171,124
India,Maharashtra,Pimpri-Chinchwad,"Thergaon, Pimpri Chinchwad - MPCB",20-03-2024 17:00:00,18.616318,73.765797,NH3,3,21,10
India,Maharashtra,Pimpri-Chinchwad,"Thergaon, Pimpri Chinchwad - MPCB",20-03-2024 17:00:00,18.616318,73.765797,CO,12,92,31
India,Maharashtra,Pune,"Bhosari, Pune - IITM",20-03-2024 17:00:00,18.640051,73.848956,NO2,13,14,14
India,Maharashtra,Pune,"Bhosari, Pune - IITM",20-03-2024 17:00:00,18.640051,73.848956,CO,42,48,43
India,Maharashtra,Pune,"Karve Road, Pune - MPCB",20-03-2024 17:00:00,18.5011743,73.8165527,SO2,20,27,23
India,Maharashtra,Pune,"Mhada Colony, Pune - IITM",20-03-2024 17:00:00,18.573040,73.927715,PM2.5,13,105,65
India,Maharashtra,Pune,"Mhada Colony, Pune - IITM",20-03-2024 17:00:00,18.573040,73.927715,OZONE,12,28,25
India,Maharashtra,Pune,"Transport Nagar-Nigdi, Pune - IITM",20-03-2024 17:00:00,18.664282,73.763966,CO,32,68,52
India,Maharashtra,Solapur,"Dnyaneshwar Nagar, Solapur - MPCB",20-03-2024 17:00:00,17.6336264,75.9132495,PM10,89,316,139
India,Maharashtra,Solapur,"Dnyaneshwar Nagar, Solapur - MPCB",20-03-2024 17:00:00,17.6336264,75.9132495,OZONE,25,109,74
India,Maharashtra,Solapur,"Ratandeep Housing Society, Solapur - MPCB",20-03-2024 17:00:00,17.65439,75.90649,NH3,10,15,11
India,Maharashtra,Solapur,"Solapur, Solapur - MPCB",20-03-2024 17:00:00,17.6599188,75.9063906,NO2,NA,NA,NA
India,Maharashtra,Thane,"Kasarvadavali, Thane - MPCB",20-03-2024 17:00:00,19.26777,72.97182,NH3,5,23,10
India,Maharashtra,Thane,"Kasarvadavali, Thane - MPCB",20-03-2024 17:00:00,19.26777,72.97182,SO2,5,48,12
India,Maharashtra,Thane,"Pimpleshwar Mandir, Thane - MPCB",20-03-2024 17:00:00,19.192056,72.9585188,OZONE,1,52,35
India,Maharashtra,Thane,"Upvan Fort, Thane - MPCB",20-03-2024 17:00:00,19.222279,72.957979,NH3,12,15,14
India,Manipur,Imphal,"DM College of Science, Imphal - Manipur PCB",20-03-2024 17:00:00,24.8207389,93.9423085,CO,6,6,6
India,Manipur,Imphal,"Manipur University, Imphal - Manipur PCB",20-03-2024 17:00:00,24.7524239,93.9286218,NH3,1,1,1
India,Manipur,Imphal,"Manipur University, Imphal - Manipur PCB",20-03-2024 17:00:00,24.7524239,93.9286218,CO,16,36,19
India,Mizoram,Aizawl,"Sikulpuikawn, Aizawl - Mizoram PCB",20-03-2024 17:00:00,23.7176342,92.7192841,NO2,1,10,2
India,Mizoram,Aizawl,"Sikulpuikawn, Aizawl - Mizoram PCB",20-03-2024 17:00:00,23.7176342,92.7192841,NH3,NA,NA,NA
India,Nagaland,Kohima,"PWD Juction, Kohima - NPCB",20-03-2024 17:00:00,25.6635413,94.0989878,NO2,3,4,4
India,Nagaland,Kohima,"PWD Juction, Kohima - NPCB",20-03-2024 17:00:00,25.6635413,94.0989878,CO,18,30,23
India,Odisha,Angul,"Hakimapada, Angul - OSPCB",20-03-2024 17:00:00,20.832874,85.104082,NO2,6,38,16
India,Odisha,Angul,"Hakimapada, Angul - OSPCB",20-03-2024 17:00:00,20.832874,85.104082,SO2,9,110,43
India,Odisha,Angul,"Hakimapada, Angul - OSPCB",20-03-2024 17:00:00,20.832874,85.104082,OZONE,22,92,53
India,Odisha,Balasore,"Kalidaspur, Balasore - OSPCB",20-03-2024 17:00:00,21.51161,86.89088,PM10,11,101,36
India,Odisha,Baripada,"Meher Colony, Baripada - OSPCB",20-03-2024 17:00:00,21.941841,86.728318,PM2.5,25,81,47
India,Odisha,Baripada,"Meher Colony, Baripada - OSPCB",20-03-2024 17:00:00,21.941841,86.728318,CO,16,32,19
India,Odisha,Bileipada,"Tata Township, Bileipada - OSPCB",20-03-2024 17:00:00,22.06156703,85.47409613,PM10,NA,NA,NA
India,Odisha,Bileipada,"Tata Township, Bileipada - OSPCB",20-03-2024 17:00:00,22.06156703,85.47409613,NH3,NA,NA,NA
India,Odisha,Brajrajnagar,"GM Office, Brajrajnagar - OSPCB",20-03-2024 17:00:00,21.8004996,83.8396977,CO,46,99,65
India,Odisha,Byasanagar,"Ferro Chrome Colony, Byasanagar - OSPCB",20-03-2024 17:00:00,20.94185,86.11510,PM10,2,59,31
India,Odisha,Nayagarh,"Dabuna, Nayagarh - OSPCB",20-03-2024 17:00:00,21.847279,85.416905,NH3,3,5,5
India,Odisha,Rairangpur,"Divisional Forest Office, Rairangpur - OSPCB",20-03-2024 17:00:00,22.265816,86.174829,NO2,NA,NA,NA
India,Odisha,Rairangpur,"Divisional Forest Office, Rairangpur - OSPCB",20-03-2024 17:00:00,22.265816,86.174829,SO2,NA,NA,NA
India,Odisha,Rourkela,"Raghunathpali, Rourkela - OSPCB",20-03-2024 17:00:00,22.220833,84.809444,PM10,5,81,38
India,Odisha,Rourkela,"Raghunathpali, Rourkela - OSPCB",20-03-2024 17:00:00,22.220833,84.809444,CO,19,56,25
India,Odisha,Tensa,"Barsua Iron Ore Mines, Tensa - OSPCB",20-03-2024 17:00:00,21.869985,85.167016,SO2,10,19,12
India,Punjab,Bathinda,"Hardev Nagar, Bathinda - PPCB",20-03-2024 17:00:00,30.233011,74.907758,SO2,2,32,17
India,Punjab,Khanna,"Kalal Majra, Khanna - PPCB",20-03-2024 17:00:00,30.736056 ,76.209694,SO2,3,19,12
India,Punjab,Khanna,"Kalal Majra, Khanna - PPCB",20-03-2024 17:00:00,30.736056 ,76.209694,OZONE,5,86,63
India,Punjab,Ludhiana,"Punjab Agricultural University, Ludhiana - PPCB",20-03-2024 17:00:00,30.9028,75.8086,NH3,4,5,4
India,Punjab,Ludhiana,"Punjab Agricultural University, Ludhiana - PPCB",20-03-2024 17:00:00,30.9028,75.8086,SO2,4,48,18
India,Punjab,Ludhiana,"Punjab Agricultural University, Ludhiana - PPCB",20-03-2024 17:00:00,30.9028,75.8086,CO,8,105,57
India,Punjab,Mandi Gobindgarh,"RIMT University, Mandi Gobindgarh - PPCB",20-03-2024 17:00:00,30.649961,76.331442,NO2,NA,NA,NA
India,Punjab,Patiala,"Model Town, Patiala - PPCB",20-03-2024 17:00:00,30.349388,76.366642,PM10,52,129,105
India,Punjab,Rupnagar,"Ratanpura, Rupnagar - Ambuja Cements",20-03-2024 17:00:00,31.0325454,76.5623046,PM10,42,430,169
India,Rajasthan,Alwar,"Moti Doongri, Alwar - RSPCB",20-03-2024 17:00:00,27.554793,76.611536,NO2,30,61,47
India,Rajasthan,Alwar,"Moti Doongri, Alwar - RSPCB",20-03-2024 17:00:00,27.554793,76.611536,NH3,6,9,7
India,Rajasthan,Banswara,"Rati Talai, Banswara - RSPCB",20-03-2024 17:00:00,23.555190,74.440010,PM10,80,325,156
India,Rajasthan,Banswara,"Rati Talai, Banswara - RSPCB",20-03-2024 17:00:00,23.555190,74.440010,SO2,4,74,22
India,Rajasthan,Baran,"Bamboliya, Baran - RSPCB",20-03-2024 17:00:00,25.106006,76.469948,PM2.5,15,199,80
India,Rajasthan,Baran,"Bamboliya, Baran - RSPCB",20-03-2024 17:00:00,25.106006,76.469948,NH3,3,55,12
India,Rajasthan,Baran,"Bamboliya, Baran - RSPCB",20-03-2024 17:00:00,25.106006,76.469948,OZONE,3,149,125
India,Rajasthan,Barmer,"Railway Colony, Barmer - RSPCB",20-03-2024 17:00:00,25.747299,71.393989,PM2.5,8,67,29
India,Rajasthan,Barmer,"Railway Colony, Barmer - RSPCB",20-03-2024 17:00:00,25.747299,71.393989,NH3,5,17,7
India,Rajasthan,Bharatpur,"Krishna Nagar, Bharatpur - RSPCB",20-03-2024 17:00:00,27.215415,77.50873,PM10,110,273,161
India,Rajasthan,Bhilwara,"Pratap Nagar, Bhilwara - RSPCB",20-03-2024 17:00:00,25.339605,74.618883,PM10,26,122,72
India,Rajasthan,Bhilwara,"Pratap Nagar, Bhilwara - RSPCB",20-03-2024 17:00:00,25.339605,74.618883,SO2,3,39,15
India,Rajasthan,Bhilwara,"Pratap Nagar, Bhilwara - RSPCB",20-03-2024 17:00:00,25.339605,74.618883,CO,8,52,24
India,Rajasthan,Bhiwadi,"RIICO Ind. Area III, Bhiwadi - RSPCB",20-03-2024 17:00:00,28.194909,76.862296,PM2.5,71,347,200
India,Rajasthan,Bhiwadi,"Vasundhara Nagar_UIT, Bhiwadi - RSPCB",20-03-2024 17:00:00,28.207266,76.829265,SO2,7,29,17
India,Rajasthan,Bikaner,"MM Ground, Bikaner - RSPCB",20-03-2024 17:00:00,28.018792,73.292658,NO2,18,82,45
India,Rajasthan,Bikaner,"MM Ground, Bikaner - RSPCB",20-03-2024 17:00:00,28.018792,73.292658,NH3,8,11,9
India,Rajasthan,Bundi,"New Colony, Bundi - RSPCB",20-03-2024 17:00:00,25.435774,75.644272,NH3,2,4,3
India,Rajasthan,Chittorgarh,"Shastri Nagar, Chittorgarh - RSPCB",20-03-2024 17:00:00,24.892047,74.623527,NH3,NA,NA,NA
India,Rajasthan,Chittorgarh,"Shastri Nagar, Chittorgarh - RSPCB",20-03-2024 17:00:00,24.892047,74.623527,OZONE,NA,NA,NA
India,Rajasthan,Churu,"Subash Chowk, Churu - RSPCB",20-03-2024 17:00:00,28.296139,74.961696,PM2.5,21,200,69
India,Rajasthan,Churu,"Subash Chowk, Churu - RSPCB",20-03-2024 17:00:00,28.296139,74.961696,SO2,5,35,14
India,Rajasthan,Churu,"Subash Chowk, Churu - RSPCB",20-03-2024 17:00:00,28.296139,74.961696,OZONE,5,179,172
India,Rajasthan,Dholpur,"Raja Ganj, Dholpur - RSPCB",20-03-2024 17:00:00,26.699557,77.898881,PM2.5,NA,NA,NA
India,Rajasthan,Dungarpur,"Bhoiwada, Dungarpur - RSPCB",20-03-2024 17:00:00,23.837789,73.714926,PM10,58,135,83
India,Rajasthan,Dungarpur,"Bhoiwada, Dungarpur - RSPCB",20-03-2024 17:00:00,23.837789,73.714926,NH3,4,5,5
India,Rajasthan,Dungarpur,"Bhoiwada, Dungarpur - RSPCB",20-03-2024 17:00:00,23.837789,73.714926,CO,28,54,35
India,Rajasthan,Hanumangarh,"Housing Board, Hanumangarh - RSPCB",20-03-2024 17:00:00,29.610750,74.283608,NO2,12,87,42
India,Rajasthan,Hanumangarh,"Housing Board, Hanumangarh - RSPCB",20-03-2024 17:00:00,29.610750,74.283608,OZONE,4,76,58
India,Rajasthan,Jaipur,"Adarsh Nagar, Jaipur - RSPCB",20-03-2024 17:00:00,26.902909,75.836858,NO2,30,103,51
India,Rajasthan,Jaipur,"Adarsh Nagar, Jaipur - RSPCB",20-03-2024 17:00:00,26.902909,75.836858,CO,2,44,21
India,Rajasthan,Jaipur,"Mansarovar Sector-12, Jaipur - RSPCB",20-03-2024 17:00:00,26.843698,75.766894,PM10,63,127,90
India,Rajasthan,Jaipur,"Mansarovar Sector-12, Jaipur - RSPCB",20-03-2024 17:00:00,26.843698,75.766894,NH3,4,10,6
India,Rajasthan,Jaipur,"Police Commissionerate, Jaipur - RSPCB",20-03-2024 17:00:00,26.9164092,75.7994901,NO2,14,64,31
India,Rajasthan,Jaipur,"RIICO Sitapura, Jaipur - RSPCB",20-03-2024 17:00:00,26.786682,75.827928,NH3,2,18,5
India,Rajasthan,Jaipur,"RIICO Sitapura, Jaipur - RSPCB",20-03-2024 17:00:00,26.786682,75.827928,OZONE,31,136,110
India,Rajasthan,Jaipur,"Sector-2 Murlipura, Jaipur - RSPCB",20-03-2024 17:00:00,26.960669,75.771817,NO2,4,89,19
India,Rajasthan,Jaipur,"Shastri Nagar, Jaipur - RSPCB",20-03-2024 17:00:00,26.9502929,75.730943,PM2.5,40,213,89
India,Rajasthan,Jaipur,"Shastri Nagar, Jaipur - RSPCB",20-03-2024 17:00:00,26.9502929,75.730943,CO,2,82,33
India,Rajasthan,Jaisalmer,"Sadar Bazar, Jaisalmer - RSPCB",20-03-2024 17:00:00,26.912329,70.909168,NO2,11,46,21
India,Rajasthan,Jaisalmer,"Sadar Bazar, Jaisalmer - RSPCB",20-03-2024 17:00:00,26.912329,70.909168,NH3,3,9,6
India,Rajasthan,Jaisalmer,"Sadar Bazar, Jaisalmer - RSPCB",20-03-2024 17:00:00,26.912329,70.909168,OZONE,58,122,115
India,Rajasthan,Jhalawar,"Rajlaxmi Nagar, Jhalawar - RSPCB",20-03-2024 17:00:00,24.588397,76.172782,PM2.5,8,298,82
India,Rajasthan,Jhalawar,"Rajlaxmi Nagar, Jhalawar - RSPCB",20-03-2024 17:00:00,24.588397,76.172782,NO2,15,60,30
India,Rajasthan,Jhalawar,"Rajlaxmi Nagar, Jhalawar - RSPCB",20-03-2024 17:00:00,24.588397,76.172782,NH3,6,9,8
India,Rajasthan,Jhalawar,"Rajlaxmi Nagar, Jhalawar - RSPCB",20-03-2024 17:00:00,24.588397,76.172782,CO,10,108,38
India,Rajasthan,Jodhpur,"Digari Kalan, Jodhpur - RSPCB",20-03-2024 17:00:00,26.295810,73.082283,PM10,24,140,74
India,Rajasthan,Jodhpur,"Digari Kalan, Jodhpur - RSPCB",20-03-2024 17:00:00,26.295810,73.082283,NO2,7,80,24
India,Rajasthan,Jodhpur,"Digari Kalan, Jodhpur - RSPCB",20-03-2024 17:00:00,26.295810,73.082283,SO2,3,10,5
India,Rajasthan,Jodhpur,"Jhalamand, Jodhpur - RSPCB",20-03-2024 17:00:00,26.215415,73.070156,PM2.5,7,126,36
India,Rajasthan,Jodhpur,"Jhalamand, Jodhpur - RSPCB",20-03-2024 17:00:00,26.215415,73.070156,NH3,2,5,4
India,Rajasthan,Jodhpur,"Samrat Ashok Udhyan, Jodhpur - RSPCB",20-03-2024 17:00:00,26.253384,72.976571,NO2,4,56,19
India,Rajasthan,Jodhpur,"Samrat Ashok Udhyan, Jodhpur - RSPCB",20-03-2024 17:00:00,26.253384,72.976571,OZONE,53,141,128
India,Rajasthan,Karauli,"Satyawati Vihar, Karauli - RSPCB",20-03-2024 17:00:00,26.506177,77.025989,NH3,2,5,3
India,Rajasthan,Kota,"Dhanmandi, Kota - RSPCB",20-03-2024 17:00:00,25.164090,75.858137,PM2.5,16,203,70
India,Rajasthan,Kota,"Dhanmandi, Kota - RSPCB",20-03-2024 17:00:00,25.164090,75.858137,CO,19,91,30
India,Rajasthan,Kota,"Dhanmandi, Kota - RSPCB",20-03-2024 17:00:00,25.164090,75.858137,OZONE,1,177,122
India,Rajasthan,Kota,"Nayapura, Kota - RSPCB",20-03-2024 17:00:00,25.196024,75.855668,PM2.5,17,84,50
India,Rajasthan,Kota,"Nayapura, Kota - RSPCB",20-03-2024 17:00:00,25.196024,75.855668,NO2,24,113,48
India,Rajasthan,Kota,"Nayapura, Kota - RSPCB",20-03-2024 17:00:00,25.196024,75.855668,CO,17,89,24
India,Rajasthan,Kota,"Shrinath Puram, Kota - RSPCB",20-03-2024 17:00:00,25.14389,75.821256,SO2,6,102,24
India,Rajasthan,Nagaur,"Karni Colony, Nagaur - RSPCB",20-03-2024 17:00:00,27.213494,73.734444,PM10,69,171,115
India,Rajasthan,Nagaur,"Karni Colony, Nagaur - RSPCB",20-03-2024 17:00:00,27.213494,73.734444,SO2,1,9,4
India,Rajasthan,Nagaur,"Karni Colony, Nagaur - RSPCB",20-03-2024 17:00:00,27.213494,73.734444,OZONE,22,82,56
India,Rajasthan,Pali,"Indira Colony Vistar, Pali - RSPCB",20-03-2024 17:00:00,25.771061, 73.340227,PM2.5,53,378,172
India,Rajasthan,Pali,"Indira Colony Vistar, Pali - RSPCB",20-03-2024 17:00:00,25.771061, 73.340227,CO,50,103,56
India,Rajasthan,Pratapgarh,"Pragati Nagar, Pratapgarh - RSPCB",20-03-2024 17:00:00,24.041198,74.780702,OZONE,14,109,90
India,Rajasthan,Sawai Madhopur,"Sahu Nagar, Sawai Madhopur - RSPCB",20-03-2024 17:00:00,26.031443,76.359327,PM10,45,186,96
India,Rajasthan,Sawai Madhopur,"Sahu Nagar, Sawai Madhopur - RSPCB",20-03-2024 17:00:00,26.031443,76.359327,OZONE,11,145,123
India,Rajasthan,Sikar,"Radhakishan Pura, Sikar - RSPCB",20-03-2024 17:00:00,27.608912,75.153302,PM10,53,198,99
India,Rajasthan,Sikar,"Radhakishan Pura, Sikar - RSPCB",20-03-2024 17:00:00,27.608912,75.153302,CO,8,40,19
India,Rajasthan,Tonk,"Shastri Nagar, Tonk - RSPCB",20-03-2024 17:00:00,26.159933,75.780517,PM10,61,248,133
India,Rajasthan,Udaipur,"Ashok Nagar, Udaipur - RSPCB",20-03-2024 17:00:00,24.5886166,73.6321397,NH3,8,10,8
India,Sikkim,Gangtok,"Zero Point GICI, Gangtok - SSPCB",20-03-2024 17:00:00,27.338530,88.614099,OZONE,NA,NA,NA
India,TamilNadu,Ariyalur,"Keelapalur, Ariyalur - TNPCB",20-03-2024 17:00:00,11.06825,79.07033,PM2.5,51,210,94
India,TamilNadu,Ariyalur,"Keelapalur, Ariyalur - TNPCB",20-03-2024 17:00:00,11.06825,79.07033,PM10,NA,NA,NA
India,TamilNadu,Chengalpattu,"Crescent University, Chengalpattu - TNPCB",20-03-2024 17:00:00,12.8777316,80.0834807,PM10,38,80,58
India,TamilNadu,Chengalpattu,"Crescent University, Chengalpattu - TNPCB",20-03-2024 17:00:00,12.8777316,80.0834807,OZONE,6,6,6
India,TamilNadu,Chennai,"Alandur Bus Depot, Chennai - CPCB",20-03-2024 17:00:00,12.9099161,80.1076538,PM10,56,96,76
India,TamilNadu,Chennai,"Kodungaiyur, Chennai - TNPCB",20-03-2024 17:00:00,13.1278,80.2642,PM2.5,17,57,32
India,TamilNadu,Chennai,"Kodungaiyur, Chennai - TNPCB",20-03-2024 17:00:00,13.1278,80.2642,PM10,59,148,83
India,TamilNadu,Chennai,"Kodungaiyur, Chennai - TNPCB",20-03-2024 17:00:00,13.1278,80.2642,NO2,8,28,13
India,TamilNadu,Chennai,"Manali, Chennai - CPCB",20-03-2024 17:00:00,13.164544,80.26285,SO2,3,23,8
India,TamilNadu,Chennai,"Perungudi, Chennai - TNPCB",20-03-2024 17:00:00,12.9533,80.2357,CO,21,21,21
India,TamilNadu,Chennai,"Velachery Res. Area, Chennai - CPCB",20-03-2024 17:00:00,13.0052189,80.2398125,PM2.5,59,102,80
India,TamilNadu,Chennai,"Velachery Res. Area, Chennai - CPCB",20-03-2024 17:00:00,13.0052189,80.2398125,SO2,11,11,11
India,TamilNadu,Coimbatore,"PSG College of Arts and Science, Coimbatore - TNPCB",20-03-2024 17:00:00,11.0328,77.0349,NO2,3,9,6
India,TamilNadu,Coimbatore,"PSG College of Arts and Science, Coimbatore - TNPCB",20-03-2024 17:00:00,11.0328,77.0349,SO2,12,27,21
India,TamilNadu,Coimbatore,"PSG College of Arts and Science, Coimbatore - TNPCB",20-03-2024 17:00:00,11.0328,77.0349,CO,5,6,5
India,TamilNadu,Cuddalore,"Kudikadu, Cuddalore - TNPCB",20-03-2024 17:00:00,11.6829898,79.7532099,NO2,22,29,26
India,TamilNadu,Gummidipoondi,"Anthoni Pillai Nagar, Gummidipoondi - TNPCB",20-03-2024 17:00:00,13.4127,80.1081,PM2.5,40,306,116
India,TamilNadu,Gummidipoondi,"Anthoni Pillai Nagar, Gummidipoondi - TNPCB",20-03-2024 17:00:00,13.4127,80.1081,NH3,1,2,2
India,TamilNadu,Kanchipuram,"Kilambi, Kanchipuram - TNPCB",20-03-2024 17:00:00,12.864618,79.659968,PM10,NA,NA,NA
India,TamilNadu,Ooty,"Bombay Castel, Ooty - TNPCB",20-03-2024 17:00:00,11.4068288,76.7138973,SO2,13,13,13
India,TamilNadu,Palkalaiperur,"Bharathidasan University, Palkalaiperur - TNPCB",20-03-2024 17:00:00,10.681158,78.741746,PM2.5,35,66,47
India,TamilNadu,Palkalaiperur,"Bharathidasan University, Palkalaiperur - TNPCB",20-03-2024 17:00:00,10.681158,78.741746,SO2,27,29,28
India,TamilNadu,Palkalaiperur,"Bharathidasan University, Palkalaiperur - TNPCB",20-03-2024 17:00:00,10.681158,78.741746,CO,2,14,8
India,TamilNadu,Ramanathapuram,"Chalai Bazaar, Ramanathapuram - TNPCB",20-03-2024 17:00:00,9.36399,78.831977,PM2.5,51,83,70
India,TamilNadu,Tirupur,"Kumaran College, Tirupur - TNPCB",20-03-2024 17:00:00,11.0973603,77.3228673,CO,NA,NA,NA
India,TamilNadu,Vellore,"Vasanthapuram, Vellore - TNPCB",20-03-2024 17:00:00,12.909494,79.131861,NH3,1,1,1
India,TamilNadu,Virudhunagar,"Collectorate Office, Virudhunagar - TNPCB",20-03-2024 17:00:00,9.559382,77.948828,NO2,NA,NA,NA
India,Telangana,Hyderabad,"Bollaram Industrial Area, Hyderabad - TSPCB",20-03-2024 17:00:00,17.540891,78.358528,NO2,12,23,18
India,Telangana,Hyderabad,"Bollaram Industrial Area, Hyderabad - TSPCB",20-03-2024 17:00:00,17.540891,78.358528,CO,9,42,25
India,Telangana,Hyderabad,"ECIL Kapra, Hyderabad - TSPCB",20-03-2024 17:00:00,17.470431,78.566959,CO,20,30,23
India,Telangana,Hyderabad,"ICRISAT Patancheru, Hyderabad - TSPCB",20-03-2024 17:00:00,17.518400,78.278777,CO,16,61,35
India,Telangana,Hyderabad,"Kokapet, Hyderabad - TSPCB",20-03-2024 17:00:00,17.393559,78.339194,PM10,70,89,77
India,Telangana,Hyderabad,"Kokapet, Hyderabad - TSPCB",20-03-2024 17:00:00,17.393559,78.339194,SO2,9,12,12
India,Telangana,Hyderabad,"Kokapet, Hyderabad - TSPCB",20-03-2024 17:00:00,17.393559,78.339194,OZONE,2,6,3
India,Telangana,Hyderabad,"Kompally Municipal Office, Hyderabad - TSPCB",20-03-2024 17:00:00,17.544899,78.486949,PM10,40,112,65
India,Telangana,Hyderabad,"Kompally Municipal Office, Hyderabad - TSPCB",20-03-2024 17:00:00,17.544899,78.486949,SO2,8,22,11
India,Telangana,Hyderabad,"Nacharam_TSIIC IALA, Hyderabad - TSPCB",20-03-2024 17:00:00,17.429398,78.569354,PM2.5,66,68,67
India,Telangana,Hyderabad,"New Malakpet, Hyderabad - TSPCB",20-03-2024 17:00:00,17.37206,78.50864,PM10,59,94,72
India,Telangana,Hyderabad,"Ramachandrapuram, Hyderabad - TSPCB",20-03-2024 17:00:00,17.528544,78.286195,OZONE,6,47,31
India,Telangana,Hyderabad,"Sanathnagar, Hyderabad - TSPCB",20-03-2024 17:00:00,17.4559458,78.4332152,PM2.5,58,87,74
India,Telangana,Hyderabad,"Sanathnagar, Hyderabad - TSPCB",20-03-2024 17:00:00,17.4559458,78.4332152,OZONE,9,17,15
India,Telangana,Hyderabad,"Somajiguda, Hyderabad - TSPCB",20-03-2024 17:00:00,17.417094,78.457437,PM2.5,NA,NA,NA
India,Telangana,Hyderabad,"Somajiguda, Hyderabad - TSPCB",20-03-2024 17:00:00,17.417094,78.457437,PM10,NA,NA,NA
India,Telangana,Hyderabad,"Somajiguda, Hyderabad - TSPCB",20-03-2024 17:00:00,17.417094,78.457437,NH3,NA,NA,NA
India,Uttar_Pradesh,Agra,"Manoharpur, Agra - UPPCB",20-03-2024 17:00:00,27.23711,78.01936,PM2.5,43,275,127
India,Uttar_Pradesh,Agra,"Manoharpur, Agra - UPPCB",20-03-2024 17:00:00,27.23711,78.01936,SO2,10,14,12
India,Uttar_Pradesh,Agra,"Manoharpur, Agra - UPPCB",20-03-2024 17:00:00,27.23711,78.01936,OZONE,2,46,32
India,Uttar_Pradesh,Agra,"Rohta, Agra - UPPCB",20-03-2024 17:00:00,27.106972,78.000111,NO2,3,3,3
India,Uttar_Pradesh,Agra,"Sanjay Palace, Agra - UPPCB",20-03-2024 17:00:00,27.19865833,78.00598056,PM2.5,14,80,47
India,Uttar_Pradesh,Agra,"Sanjay Palace, Agra - UPPCB",20-03-2024 17:00:00,27.19865833,78.00598056,CO,37,103,64
India,Uttar_Pradesh,Agra,"Sanjay Palace, Agra - UPPCB",20-03-2024 17:00:00,27.19865833,78.00598056,OZONE,29,75,53
India,Uttar_Pradesh,Agra,"Sector-3B Avas Vikas Colony, Agra - UPPCB",20-03-2024 17:00:00,27.19412,77.96237,CO,9,34,18
India,Uttar_Pradesh,Agra,"Shahjahan Garden, Agra - UPPCB",20-03-2024 17:00:00,27.169338,78.03582,OZONE,2,4,2
India,Uttar_Pradesh,Bareilly,"Civil Lines, Bareilly - UPPCB",20-03-2024 17:00:00,28.359581,79.414455,PM2.5,20,69,43
India,Uttar_Pradesh,Bareilly,"Civil Lines, Bareilly - UPPCB",20-03-2024 17:00:00,28.359581,79.414455,SO2,42,45,44
India,Uttar_Pradesh,Bareilly,"Civil Lines, Bareilly - UPPCB",20-03-2024 17:00:00,28.359581,79.414455,OZONE,2,39,28
India,Uttar_Pradesh,Bareilly,"Rajendra Nagar, Bareilly - UPPCB",20-03-2024 17:00:00,28.38910936,79.42963708,NO2,17,57,41
India,Uttar_Pradesh,Bareilly,"Rajendra Nagar, Bareilly - UPPCB",20-03-2024 17:00:00,28.38910936,79.42963708,NH3,1,1,1
India,Uttar_Pradesh,Bulandshahr,"Yamunapuram, Bulandshahr - UPPCB",20-03-2024 17:00:00,28.406963,77.849831,SO2,8,104,38
India,Uttar_Pradesh,Firozabad,"Vibhab Nagar, Firozabad - UPPCB",20-03-2024 17:00:00,27.1594,78.3953,PM2.5,NA,NA,NA
India,Uttar_Pradesh,Firozabad,"Vibhab Nagar, Firozabad - UPPCB",20-03-2024 17:00:00,27.1594,78.3953,PM10,52,101,70
India,Uttar_Pradesh,Firozabad,"Vibhab Nagar, Firozabad - UPPCB",20-03-2024 17:00:00,27.1594,78.3953,NO2,13,14,14
India,Uttar_Pradesh,Firozabad,"Vibhab Nagar, Firozabad - UPPCB",20-03-2024 17:00:00,27.1594,78.3953,SO2,13,35,22
India,Uttar_Pradesh,Ghaziabad,"Loni, Ghaziabad - UPPCB",20-03-2024 17:00:00,28.757294,77.278792,PM2.5,34,287,157
India,Uttar_Pradesh,Ghaziabad,"Loni, Ghaziabad - UPPCB",20-03-2024 17:00:00,28.757294,77.278792,CO,19,91,43
India,Uttar_Pradesh,Ghaziabad,"Loni, Ghaziabad - UPPCB",20-03-2024 17:00:00,28.757294,77.278792,OZONE,2,176,154
India,Uttar_Pradesh,Gorakhpur,"Madan Mohan Malaviya University of Technology, Gorakhpur - UPPCB",20-03-2024 17:00:00,26.730136,83.433859,PM10,91,164,129
India,Uttar_Pradesh,Gorakhpur,"Madan Mohan Malaviya University of Technology, Gorakhpur - UPPCB",20-03-2024 17:00:00,26.730136,83.433859,NO2,2,2,2
India,Uttar_Pradesh,Greater Noida,"Knowledge Park - III, Greater Noida - UPPCB",20-03-2024 17:00:00,28.47272,77.482000,NH3,6,8,7
India,Uttar_Pradesh,Greater Noida,"Knowledge Park - V, Greater Noida - UPPCB",20-03-2024 17:00:00,28.557054,77.453663,NO2,14,48,39
India,Uttar_Pradesh,Hapur,"Anand Vihar, Hapur - UPPCB",20-03-2024 17:00:00,28.725645,77.749675,PM2.5,31,281,149
India,Uttar_Pradesh,Hapur,"Anand Vihar, Hapur - UPPCB",20-03-2024 17:00:00,28.725645,77.749675,NO2,30,143,68
India,Uttar_Pradesh,Hapur,"Anand Vihar, Hapur - UPPCB",20-03-2024 17:00:00,28.725645,77.749675,NH3,8,14,10
India,Uttar_Pradesh,Kanpur,"FTI Kidwai Nagar, Kanpur - UPPCB",20-03-2024 17:00:00,26.428282,80.327067,OZONE,3,11,9
India,Uttar_Pradesh,Kanpur,"NSI Kalyanpur, Kanpur - UPPCB",20-03-2024 17:00:00,26.509954,80.249612,CO,36,60,44
India,Uttar_Pradesh,Kanpur,"NSI Kalyanpur, Kanpur - UPPCB",20-03-2024 17:00:00,26.509954,80.249612,OZONE,35,63,53
India,Uttar_Pradesh,Lucknow,"B R Ambedkar University, Lucknow - UPPCB",20-03-2024 17:00:00,26.766433,80.927299,PM2.5,46,309,174
India,Uttar_Pradesh,Lucknow,"B R Ambedkar University, Lucknow - UPPCB",20-03-2024 17:00:00,26.766433,80.927299,PM10,84,244,159
India,Uttar_Pradesh,Lucknow,"B R Ambedkar University, Lucknow - UPPCB",20-03-2024 17:00:00,26.766433,80.927299,CO,25,70,34
India,Uttar_Pradesh,Lucknow,"Gomti Nagar, Lucknow - UPPCB",20-03-2024 17:00:00,26.868120,81.005119,PM2.5,65,392,191
India,Uttar_Pradesh,Lucknow,"Gomti Nagar, Lucknow - UPPCB",20-03-2024 17:00:00,26.868120,81.005119,PM10,66,322,127
India,Uttar_Pradesh,Lucknow,"Gomti Nagar, Lucknow - UPPCB",20-03-2024 17:00:00,26.868120,81.005119,SO2,2,17,11
India,Uttar_Pradesh,Lucknow,"Kendriya Vidyalaya, Lucknow - CPCB",20-03-2024 17:00:00,26.906111,80.948222,PM2.5,48,305,133
India,Uttar_Pradesh,Lucknow,"Kendriya Vidyalaya, Lucknow - CPCB",20-03-2024 17:00:00,26.906111,80.948222,NO2,10,103,43
India,Uttar_Pradesh,Lucknow,"Kendriya Vidyalaya, Lucknow - CPCB",20-03-2024 17:00:00,26.906111,80.948222,SO2,4,7,6
India,Uttar_Pradesh,Lucknow,"Kendriya Vidyalaya, Lucknow - CPCB",20-03-2024 17:00:00,26.906111,80.948222,CO,26,120,42
India,Uttar_Pradesh,Lucknow,"Kukrail Picnic Spot-1, Lucknow - UPPCB",20-03-2024 17:00:00,26.90723,80.98579,SO2,32,42,36
India,Uttar_Pradesh,Lucknow,"Kukrail Picnic Spot-1, Lucknow - UPPCB",20-03-2024 17:00:00,26.90723,80.98579,CO,16,36,26
India,Uttar_Pradesh,Lucknow,"Lalbagh, Lucknow - CPCB",20-03-2024 17:00:00,26.8458805,80.9365541,PM2.5,70,306,159
India,Uttar_Pradesh,Lucknow,"Lalbagh, Lucknow - CPCB",20-03-2024 17:00:00,26.8458805,80.9365541,NH3,11,17,12
India,Uttar_Pradesh,Lucknow,"Lalbagh, Lucknow - CPCB",20-03-2024 17:00:00,26.8458805,80.9365541,SO2,2,14,9
India,Uttar_Pradesh,Lucknow,"Lalbagh, Lucknow - CPCB",20-03-2024 17:00:00,26.8458805,80.9365541,CO,48,123,79
India,Uttar_Pradesh,Lucknow,"Talkatora District Industries Center, Lucknow - CPCB",20-03-2024 17:00:00,26.83399722,80.8917361,PM2.5,53,305,136
India,Uttar_Pradesh,Lucknow,"Talkatora District Industries Center, Lucknow - CPCB",20-03-2024 17:00:00,26.83399722,80.8917361,PM10,86,426,170
India,Uttar_Pradesh,Lucknow,"Talkatora District Industries Center, Lucknow - CPCB",20-03-2024 17:00:00,26.83399722,80.8917361,NH3,12,41,22
India,Uttar_Pradesh,Lucknow,"Talkatora District Industries Center, Lucknow - CPCB",20-03-2024 17:00:00,26.83399722,80.8917361,OZONE,2,80,48
India,Uttar_Pradesh,Meerut,"Ganga Nagar, Meerut - UPPCB",20-03-2024 17:00:00,28.999264,77.7590354,NO2,20,58,40
India,Uttar_Pradesh,Meerut,"Ganga Nagar, Meerut - UPPCB",20-03-2024 17:00:00,28.999264,77.7590354,OZONE,20,109,83
India,Uttar_Pradesh,Meerut,"Pallavpuram Phase 2, Meerut - UPPCB",20-03-2024 17:00:00,29.063510,77.709723,PM2.5,20,182,112
India,Uttar_Pradesh,Moradabad,"Buddhi Vihar, Moradabad - UPPCB",20-03-2024 17:00:00,28.83526,78.74460,NH3,2,2,2
India,Uttar_Pradesh,Moradabad,"Buddhi Vihar, Moradabad - UPPCB",20-03-2024 17:00:00,28.83526,78.74460,SO2,24,36,28
India,Uttar_Pradesh,Moradabad,"Kashiram Nagar, Moradabad - UPPCB",20-03-2024 17:00:00,28.849399,78.742362,NH3,4,4,4
India,Uttar_Pradesh,Moradabad,"Kashiram Nagar, Moradabad - UPPCB",20-03-2024 17:00:00,28.849399,78.742362,OZONE,15,80,31
India,Uttar_Pradesh,Moradabad,"Transport Nagar, Moradabad - UPPCB",20-03-2024 17:00:00,28.802625,78.753728,PM2.5,33,239,93
India,Uttar_Pradesh,Muzaffarnagar,"New Mandi, Muzaffarnagar - UPPCB",20-03-2024 17:00:00,29.4723508,77.7194031,PM2.5,43,341,178
India,Uttar_Pradesh,Noida,"Sector - 62, Noida - IMD",20-03-2024 17:00:00,28.6245479,77.3577104,PM2.5,44,340,201
India,Uttar_Pradesh,Noida,"Sector - 62, Noida - IMD",20-03-2024 17:00:00,28.6245479,77.3577104,OZONE,4,33,29
India,Uttar_Pradesh,Prayagraj,"Jhunsi, Prayagraj - UPPCB",20-03-2024 17:00:00,25.425602,81.917152,PM2.5,32,97,58
India,Uttar_Pradesh,Prayagraj,"Jhunsi, Prayagraj - UPPCB",20-03-2024 17:00:00,25.425602,81.917152,CO,11,40,16
India,Uttar_Pradesh,Prayagraj,"Jhunsi, Prayagraj - UPPCB",20-03-2024 17:00:00,25.425602,81.917152,OZONE,1,29,17
India,Uttar_Pradesh,Prayagraj,"Motilal Nehru NIT, Prayagraj - UPPCB",20-03-2024 17:00:00,25.494,81.863,PM10,47,254,125
India,Uttar_Pradesh,Prayagraj,"Motilal Nehru NIT, Prayagraj - UPPCB",20-03-2024 17:00:00,25.494,81.863,NH3,5,8,6
India,Uttar_Pradesh,Varanasi,"Ardhali Bazar, Varanasi - UPPCB",20-03-2024 17:00:00,25.3505986,82.9083074,OZONE,23,26,24
India,Uttar_Pradesh,Varanasi,"Bhelupur, Varanasi - UPPCB",20-03-2024 17:00:00,25.301778,82.996789,NO2,8,8,8
India,Uttar_Pradesh,Varanasi,"Bhelupur, Varanasi - UPPCB",20-03-2024 17:00:00,25.301778,82.996789,NH3,1,1,1
India,Uttar_Pradesh,Varanasi,"IESD Banaras Hindu University, Varanasi - UPPCB",20-03-2024 17:00:00,25.262326,82.995408,NO2,2,3,2
India,Uttar_Pradesh,Varanasi,"IESD Banaras Hindu University, Varanasi - UPPCB",20-03-2024 17:00:00,25.262326,82.995408,NH3,1,2,2
India,Uttar_Pradesh,Varanasi,"IESD Banaras Hindu University, Varanasi - UPPCB",20-03-2024 17:00:00,25.262326,82.995408,SO2,13,14,14
India,Uttar_Pradesh,Varanasi,"Maldahiya, Varanasi - UPPCB",20-03-2024 17:00:00,25.32393,82.99687,CO,1,44,15
India,Uttar_Pradesh,Vrindavan,"Omex Eternity, Vrindavan - UPPCB",20-03-2024 17:00:00,27.5714090,77.6557570,PM2.5,23,82,51
India,Uttar_Pradesh,Vrindavan,"Omex Eternity, Vrindavan - UPPCB",20-03-2024 17:00:00,27.5714090,77.6557570,NO2,2,3,3
India,Uttar_Pradesh,Vrindavan,"Omex Eternity, Vrindavan - UPPCB",20-03-2024 17:00:00,27.5714090,77.6557570,CO,33,82,57
India,Uttarakhand,Dehradun,"Doon University, Dehradun - UKPCB",20-03-2024 17:00:00,30.269444,78.044167,PM2.5,NA,NA,NA
India,Uttarakhand,Dehradun,"Doon University, Dehradun - UKPCB",20-03-2024 17:00:00,30.269444,78.044167,SO2,1,4,1
India,Uttarakhand,Kashipur,"Govt. Girls Inter College, Kashipur - UKPCB",20-03-2024 17:00:00,29.2124114,78.9611753,NO2,3,39,11
India,West_Bengal,Barrackpore,"SVSPA Campus, Barrackpore - WBPCB",20-03-2024 17:00:00,22.7605581,88.3617589,PM10,NA,NA,NA
India,West_Bengal,Barrackpore,"SVSPA Campus, Barrackpore - WBPCB",20-03-2024 17:00:00,22.7605581,88.3617589,OZONE,9,51,18
India,West_Bengal,Durgapur,"Sidhu Kanhu Indoor Stadium, Durgapur - WBPCB",20-03-2024 17:00:00,23.5404352,87.2892225,NH3,2,4,3
India,West_Bengal,Haldia,"Priyambada Housing Estate, Haldia - WBPCB",20-03-2024 17:00:00,22.06047,88.109737,PM2.5,15,51,27
India,West_Bengal,Haldia,"Priyambada Housing Estate, Haldia - WBPCB",20-03-2024 17:00:00,22.06047,88.109737,SO2,12,40,19
India,West_Bengal,Howrah,"Belur Math, Howrah - WBPCB",20-03-2024 17:00:00,22.629801,88.352017,PM10,24,99,57
India,West_Bengal,Howrah,"Padmapukur, Howrah - WBPCB",20-03-2024 17:00:00,22.5687319,88.2797276,CO,11,57,37
India,West_Bengal,Kolkata,"Ballygunge, Kolkata - WBPCB",20-03-2024 17:00:00,22.5367507,88.3638022,NO2,4,75,33
India,West_Bengal,Kolkata,"Bidhannagar, Kolkata - WBPCB",20-03-2024 17:00:00,22.58157048,88.41002457,PM10,34,108,65
India,West_Bengal,Kolkata,"Fort William, Kolkata - WBPCB",20-03-2024 17:00:00,22.556640,88.342674,PM2.5,11,58,33
India,West_Bengal,Kolkata,"Fort William, Kolkata - WBPCB",20-03-2024 17:00:00,22.556640,88.342674,OZONE,37,54,45
India,West_Bengal,Kolkata,"Jadavpur, Kolkata - WBPCB",20-03-2024 17:00:00,22.49929,88.36917,PM2.5,19,67,42
India,West_Bengal,Kolkata,"Rabindra Bharati University, Kolkata - WBPCB",20-03-2024 17:00:00,22.627847,88.380669,PM2.5,18,79,45
India,West_Bengal,Kolkata,"Rabindra Sarobar, Kolkata - WBPCB",20-03-2024 17:00:00,22.51106,88.35142,PM2.5,20,64,39
India,West_Bengal,Kolkata,"Rabindra Sarobar, Kolkata - WBPCB",20-03-2024 17:00:00,22.51106,88.35142,PM10,32,61,45
India,West_Bengal,Kolkata,"Victoria, Kolkata - WBPCB",20-03-2024 17:00:00,22.5448082,88.3403691,NO2,8,16,9
India,West_Bengal,Kolkata,"Victoria, Kolkata - WBPCB",20-03-2024 17:00:00,22.5448082,88.3403691,CO,5,40,21
India,Andhra_Pradesh,Amaravati,"Secretariat, Amaravati - APPCB",20-03-2024 17:00:00,16.5150833,80.5181667,NH3,4,5,5
India,Andhra_Pradesh,Amaravati,"Secretariat, Amaravati - APPCB",20-03-2024 17:00:00,16.5150833,80.5181667,SO2,12,18,15
India,Andhra_Pradesh,Chittoor,"Gangineni Cheruvu, Chittoor - APPCB",20-03-2024 17:00:00,13.204880,79.097889,PM2.5,50,330,110
India,Andhra_Pradesh,Kadapa,"Yerramukkapalli, Kadapa - APPCB",20-03-2024 17:00:00,14.465052,78.824187,PM2.5,30,128,59
India,Andhra_Pradesh,Rajamahendravaram,"Anand Kala Kshetram, Rajamahendravaram - APPCB",20-03-2024 17:00:00,16.9872867,81.7363176,SO2,8,12,11
India,Andhra_Pradesh,Tirupati,"Tirumala, Tirupati - APPCB",20-03-2024 17:00:00,13.67,79.35,CO,18,44,30
India,Andhra_Pradesh,Tirupati,"Vaikuntapuram, Tirupati - APPCB",20-03-2024 17:00:00,13.615387,79.409230,PM10,18,101,57
India,Andhra_Pradesh,Vijayawada,"HB Colony, Vijayawada - APPCB",20-03-2024 17:00:00,16.536107,80.594233,NO2,4,17,8
India,Andhra_Pradesh,Vijayawada,"HB Colony, Vijayawada - APPCB",20-03-2024 17:00:00,16.536107,80.594233,OZONE,6,59,40
India,Andhra_Pradesh,Vijayawada,"Kanuru, Vijayawada - APPCB",20-03-2024 17:00:00,16.486692,80.699436,CO,32,73,47
India,Andhra_Pradesh,Vijayawada,"Rajiv Gandhi Park, Vijayawada - APPCB",20-03-2024 17:00:00,16.509717,80.612222,OZONE,6,76,52
India,Andhra_Pradesh,Vijayawada,"Rajiv Nagar, Vijayawada - APPCB",20-03-2024 17:00:00,16.554731,80.649110,NO2,6,9,8
India,Andhra_Pradesh,Vijayawada,"Rajiv Nagar, Vijayawada - APPCB",20-03-2024 17:00:00,16.554731,80.649110,NH3,1,1,1
India,Andhra_Pradesh,Visakhapatnam,"GVM Corporation, Visakhapatnam - APPCB",20-03-2024 17:00:00,17.72,83.3,NO2,3,86,39
India,Andhra_Pradesh,Visakhapatnam,"GVM Corporation, Visakhapatnam - APPCB",20-03-2024 17:00:00,17.72,83.3,OZONE,5,63,26
India,Arunachal_Pradesh,Naharlagun,"Naharlagun, Naharlagun - APSPCB",20-03-2024 17:00:00,27.103358,93.679645,NO2,3,3,3
India,Assam,Byrnihat,"Central Academy for SFS, Byrnihat - PCBA",20-03-2024 17:00:00,26.071318,91.87488,PM2.5,177,443,345
India,Assam,Byrnihat,"Central Academy for SFS, Byrnihat - PCBA",20-03-2024 17:00:00,26.071318,91.87488,CO,12,44,24
India,Assam,Guwahati,"IITG, Guwahati - PCBA",20-03-2024 17:00:00,26.2028636,91.70046436,NO2,3,10,5
India,Assam,Guwahati,"LGBI Airport, Guwahati - PCBA",20-03-2024 17:00:00,26.10887,91.589544,PM10,128,428,268
India,Assam,Nagaon,"Christianpatty, Nagaon - PCBA",20-03-2024 17:00:00,26.349082,92.68449,NH3,14,27,18
India,Assam,Nagaon,"Christianpatty, Nagaon - PCBA",20-03-2024 17:00:00,26.349082,92.68449,CO,9,98,21
India,Assam,Nalbari,"Bata Chowk, Nalbari - PCBA",20-03-2024 17:00:00,26.446912,91.439057,PM2.5,177,359,276
India,Assam,Nalbari,"Bata Chowk, Nalbari - PCBA",20-03-2024 17:00:00,26.446912,91.439057,PM10,108,292,161
India,Assam,Nalbari,"Bata Chowk, Nalbari - PCBA",20-03-2024 17:00:00,26.446912,91.439057,OZONE,18,85,27
India,Assam,Silchar,"Tarapur, Silchar - PCBA",20-03-2024 17:00:00,24.82827,92.79525,PM10,12,100,59
India,Bihar,Araria,"Kharahiya Basti, Araria - BSPCB",20-03-2024 17:00:00,26.146529,87.454184,SO2,NA,NA,NA
India,Bihar,Arrah,"New DM Office, Arrah - BSPCB",20-03-2024 17:00:00,25.5626095,84.663264,CO,2,16,8
India,Bihar,Aurangabad,"Gurdeo Nagar, Aurangabad - BSPCB",20-03-2024 17:00:00,24.75746,84.366208,PM2.5,NA,NA,NA
India,Bihar,Aurangabad,"Gurdeo Nagar, Aurangabad - BSPCB",20-03-2024 17:00:00,24.75746,84.366208,NH3,6,41,9
India,Bihar,Bettiah,"Kamalnath Nagar, Bettiah - BSPCB",20-03-2024 17:00:00,26.80365,84.51954,PM2.5,NA,NA,NA
India,Bihar,Bettiah,"Kamalnath Nagar, Bettiah - BSPCB",20-03-2024 17:00:00,26.80365,84.51954,CO,62,68,64
India,Bihar,Bhagalpur,"DM Office_Kachari Chowk, Bhagalpur - BSPCB",20-03-2024 17:00:00,25.251013,86.989001,CO,31,81,60
India,Bihar,Bhagalpur,"Mayaganj, Bhagalpur - BSPCB",20-03-2024 17:00:00,25.265194,87.012947,PM2.5,42,393,164
India,Bihar,Bihar Sharif,"D M Colony, Bihar Sharif - BSPCB",20-03-2024 17:00:00,25.204762,85.514960,NH3,2,2,2
India,Bihar,Buxar,"Charitra Van, Buxar - BSPCB (Formerly known as Central Jail)",20-03-2024 17:00:00,25.567520,83.966379,CO,18,90,71
India,Bihar,Chhapra,"Darshan Nagar, Chhapra - BSPCB",20-03-2024 17:00:00,25.7808257,84.7446768,SO2,12,35,21
India,Bihar,Gaya,"Kareemganj, Gaya - BSPCB",20-03-2024 17:00:00,24.792403,84.992416,PM2.5,2,83,33
India,Bihar,Gaya,"Kareemganj, Gaya - BSPCB",20-03-2024 17:00:00,24.792403,84.992416,OZONE,3,28,11
India,Bihar,Gaya,"SFTI Kusdihra, Gaya - BSPCB",20-03-2024 17:00:00,24.762518,84.982348,PM2.5,50,198,89
India,Bihar,Gaya,"SFTI Kusdihra, Gaya - BSPCB",20-03-2024 17:00:00,24.762518,84.982348,NO2,NA,NA,NA
India,Bihar,Gaya,"SFTI Kusdihra, Gaya - BSPCB",20-03-2024 17:00:00,24.762518,84.982348,CO,14,51,22
India,Bihar,Hajipur,"Industrial Area, Hajipur - BSPCB",20-03-2024 17:00:00,25.697189,85.245900,PM10,42,159,100
India,Bihar,Hajipur,"Industrial Area, Hajipur - BSPCB",20-03-2024 17:00:00,25.697189,85.245900,NO2,40,70,50
India,Bihar,Katihar,"Mirchaibari, Katihar - BSPCB",20-03-2024 17:00:00,25.560083,87.553265,PM10,22,187,90
India,Bihar,Katihar,"Mirchaibari, Katihar - BSPCB",20-03-2024 17:00:00,25.560083,87.553265,NO2,15,35,22
India,Bihar,Katihar,"Mirchaibari, Katihar - BSPCB",20-03-2024 17:00:00,25.560083,87.553265,CO,104,106,105
India,Bihar,Kishanganj,"SDM Office_Khagra, Kishanganj - BSPCB",20-03-2024 17:00:00,26.0881305,87.93840336,NH3,13,16,13
India,Bihar,Kishanganj,"SDM Office_Khagra, Kishanganj - BSPCB",20-03-2024 17:00:00,26.0881305,87.93840336,OZONE,27,37,28
India,Bihar,Motihari,"Gandak Colony, Motihari - BSPCB",20-03-2024 17:00:00,26.63086,84.90051,NH3,6,16,12
India,Bihar,Munger,"Town Hall, Munger - BSPCB",20-03-2024 17:00:00,25.376776,86.471523,PM10,21,424,116
India,Bihar,Muzaffarpur,"Buddha Colony, Muzaffarpur - BSPCB",20-03-2024 17:00:00,26.11442,85.39813,PM2.5,41,339,217
India,Bihar,Muzaffarpur,"Buddha Colony, Muzaffarpur - BSPCB",20-03-2024 17:00:00,26.11442,85.39813,PM10,44,301,168
India,Bihar,Muzaffarpur,"Buddha Colony, Muzaffarpur - BSPCB",20-03-2024 17:00:00,26.11442,85.39813,NO2,20,53,33
India,Bihar,Muzaffarpur,"Buddha Colony, Muzaffarpur - BSPCB",20-03-2024 17:00:00,26.11442,85.39813,OZONE,52,129,76
India,Bihar,Muzaffarpur,"MIT-Daudpur Kothi, Muzaffarpur - BSPCB",20-03-2024 17:00:00,26.1403345,85.3650192,PM2.5,NA,NA,NA
India,Bihar,Muzaffarpur,"MIT-Daudpur Kothi, Muzaffarpur - BSPCB",20-03-2024 17:00:00,26.1403345,85.3650192,SO2,6,12,9
India,Bihar,Muzaffarpur,"Muzaffarpur Collectorate, Muzaffarpur - BSPCB",20-03-2024 17:00:00,26.1209,85.3647,OZONE,8,55,19
India,Bihar,Patna,"DRM Office Danapur, Patna - BSPCB",20-03-2024 17:00:00,25.586562,85.043586,PM2.5,36,94,57
India,Bihar,Patna,"Govt. High School Shikarpur, Patna - BSPCB",20-03-2024 17:00:00,25.592539,85.227158,CO,14,46,29
India,Bihar,Patna,"Muradpur, Patna - BSPCB",20-03-2024 17:00:00,25.619651,85.147382,PM10,87,157,122
India,Bihar,Patna,"Samanpura, Patna - BSPCB",20-03-2024 17:00:00,25.596727,85.085624,CO,38,99,48
India,Bihar,Patna,"Samanpura, Patna - BSPCB",20-03-2024 17:00:00,25.596727,85.085624,OZONE,25,90,79
India,Bihar,Purnia,"Mariam Nagar, Purnia - BSPCB",20-03-2024 17:00:00,25.366336,87.117468,NO2,5,6,6
India,Bihar,Rajgir,"Dangi Tola, Rajgir - BSPCB",20-03-2024 17:00:00,25.03280,85.41948,PM2.5,NA,NA,NA
India,Bihar,Saharsa,"Police Line, Saharsa - BSPCB",20-03-2024 17:00:00,25.892357,86.590325,OZONE,NA,NA,NA
India,Bihar,Samastipur,"DM Office_Kasipur, Samastipur - BSPCB",20-03-2024 17:00:00,25.859655,85.77944,PM10,38,187,88
India,Bihar,Sasaram,"Dada Peer, Sasaram - BSPCB",20-03-2024 17:00:00,24.952822,84.002396,NO2,10,21,16
India,Bihar,Sasaram,"Dada Peer, Sasaram - BSPCB",20-03-2024 17:00:00,24.952822,84.002396,SO2,20,24,22
India,Bihar,Sasaram,"Dada Peer, Sasaram - BSPCB",20-03-2024 17:00:00,24.952822,84.002396,CO,94,123,112
India,Bihar,Siwan,"Chitragupta Nagar, Siwan - BSPCB",20-03-2024 17:00:00,26.2271665,84.3570427,PM10,NA,NA,NA
India,Chandigarh,Chandigarh,"Sector 22, Chandigarh - CPCC",20-03-2024 17:00:00,30.735567,76.775714,NO2,22,132,57
India,Chandigarh,Chandigarh,"Sector 22, Chandigarh - CPCC",20-03-2024 17:00:00,30.735567,76.775714,OZONE,3,160,155
India,Chandigarh,Chandigarh,"Sector-53, Chandigarh - CPCC",20-03-2024 17:00:00,30.719859,76.738637,CO,36,109,43
India,Chandigarh,Chandigarh,"Sector-53, Chandigarh - CPCC",20-03-2024 17:00:00,30.719859,76.738637,OZONE,5,71,55
India,Chhattisgarh,Bhilai,"32Bungalows, Bhilai - CECB",20-03-2024 17:00:00,21.194815,81.314770,OZONE,4,8,6
India,Chhattisgarh,Bhilai,"Hathkhoj, Bhilai - CECB",20-03-2024 17:00:00,21.224231,81.408350,SO2,10,11,11
India,Chhattisgarh,Bilaspur,"Mangala, Bilaspur - NTPC",20-03-2024 17:00:00,22.08815,82.13737,PM2.5,11,34,20
India,Chhattisgarh,Bilaspur,"Mangala, Bilaspur - NTPC",20-03-2024 17:00:00,22.08815,82.13737,SO2,15,21,18
India,Chhattisgarh,Chhal,"Nawapara SECL Colony, Chhal - CECB",20-03-2024 17:00:00,22.118125,83.140608,NO2,12,34,19
India,Chhattisgarh,Chhal,"Nawapara SECL Colony, Chhal - CECB",20-03-2024 17:00:00,22.118125,83.140608,NH3,2,2,2
India,Chhattisgarh,Chhal,"Nawapara SECL Colony, Chhal - CECB",20-03-2024 17:00:00,22.118125,83.140608,CO,10,36,20
India,Chhattisgarh,Raipur,"AIIMS, Raipur - CECB",20-03-2024 17:00:00,21.258815,81.578979,PM10,12,40,25
India,Chhattisgarh,Raipur,"AIIMS, Raipur - CECB",20-03-2024 17:00:00,21.258815,81.578979,OZONE,1,6,3
India,Chhattisgarh,Raipur,"Krishak Nagar, Raipur - CECB",20-03-2024 17:00:00,21.237755,81.705301,NO2,NA,NA,NA
India,Chhattisgarh,Raipur,"Krishak Nagar, Raipur - CECB",20-03-2024 17:00:00,21.237755,81.705301,OZONE,3,9,6
India,Chhattisgarh,Raipur,"Siltara Phase-II, Raipur - CECB",20-03-2024 17:00:00,21.371751,81.664929,PM10,24,127,58
India,Chhattisgarh,Raipur,"Siltara Phase-II, Raipur - CECB",20-03-2024 17:00:00,21.371751,81.664929,NO2,44,66,57
India,Chhattisgarh,Tumidih,"OP Jindal Industrial Park, Tumidih - CECB",20-03-2024 17:00:00,22.06631475,83.33820077,PM10,NA,NA,NA
India,Chhattisgarh,Tumidih,"OP Jindal Industrial Park, Tumidih - CECB",20-03-2024 17:00:00,22.06631475,83.33820077,NO2,NA,NA,NA
India,Chhattisgarh,Tumidih,"OP Jindal Industrial Park, Tumidih - CECB",20-03-2024 17:00:00,22.06631475,83.33820077,SO2,NA,NA,NA
India,Chhattisgarh,Tumidih,"OP Jindal Industrial Park, Tumidih - CECB",20-03-2024 17:00:00,22.06631475,83.33820077,CO,17,27,22
India,Delhi,Delhi,"Alipur, Delhi - DPCC",20-03-2024 17:00:00,28.815329,77.153010,NO2,7,110,54
India,Delhi,Delhi,"Alipur, Delhi - DPCC",20-03-2024 17:00:00,28.815329,77.153010,SO2,10,36,17
India,Delhi,Delhi,"Alipur, Delhi - DPCC",20-03-2024 17:00:00,28.815329,77.153010,CO,27,65,42
India,Delhi,Delhi,"Alipur, Delhi - DPCC",20-03-2024 17:00:00,28.815329,77.153010,OZONE,3,134,94
India,Delhi,Delhi,"Ashok Vihar, Delhi - DPCC",20-03-2024 17:00:00,28.695381,77.181665,PM2.5,25,349,201
India,Delhi,Delhi,"Ashok Vihar, Delhi - DPCC",20-03-2024 17:00:00,28.695381,77.181665,OZONE,2,19,11
India,Delhi,Delhi,"Aya Nagar, Delhi - IMD",20-03-2024 17:00:00,28.4706914,77.1099364,PM10,93,378,182
India,Delhi,Delhi,"Bawana, Delhi - DPCC",20-03-2024 17:00:00,28.776200,77.051074,PM2.5,65,455,267
India,Delhi,Delhi,"Bawana, Delhi - DPCC",20-03-2024 17:00:00,28.776200,77.051074,NH3,5,7,6
India,Delhi,Delhi,"Bawana, Delhi - DPCC",20-03-2024 17:00:00,28.776200,77.051074,CO,40,84,52
India,Delhi,Delhi,"Burari Crossing, Delhi - IMD",20-03-2024 17:00:00,28.7256504,77.2011573,OZONE,20,50,32
India,Delhi,Delhi,"CRRI Mathura Road, Delhi - IMD",20-03-2024 17:00:00,28.5512005,77.2735737,PM10,73,232,162
India,Delhi,Delhi,"Chandni Chowk, Delhi - IITM",20-03-2024 17:00:00,28.656756,77.227234,NH3,2,57,17
India,Delhi,Delhi,"IGI Airport (T3), Delhi - IMD",20-03-2024 17:00:00,28.5627763,77.1180053,PM2.5,21,377,218
India,Delhi,Delhi,"IGI Airport (T3), Delhi - IMD",20-03-2024 17:00:00,28.5627763,77.1180053,PM10,44,309,182
India,Delhi,Delhi,"ITO, Delhi - CPCB",20-03-2024 17:00:00,28.628624,77.241060,NO2,23,238,99
India,Delhi,Delhi,"ITO, Delhi - CPCB",20-03-2024 17:00:00,28.628624,77.241060,SO2,9,37,16
India,Delhi,Delhi,"ITO, Delhi - CPCB",20-03-2024 17:00:00,28.628624,77.241060,CO,18,111,35
India,Delhi,Delhi,"ITO, Delhi - CPCB",20-03-2024 17:00:00,28.628624,77.241060,OZONE,11,72,53
India,Delhi,Delhi,"Jahangirpuri, Delhi - DPCC",20-03-2024 17:00:00,28.732820,77.170633,PM2.5,37,421,262
India,Delhi,Delhi,"Jawaharlal Nehru Stadium, Delhi - DPCC",20-03-2024 17:00:00,28.580280,77.233829,NO2,27,151,94
India,Delhi,Delhi,"Lodhi Road, Delhi - IITM",20-03-2024 17:00:00,28.588333,77.221667,PM10,75,245,132
India,Delhi,Delhi,"Major Dhyan Chand National Stadium, Delhi - DPCC",20-03-2024 17:00:00,28.611281,77.237738,PM10,80,293,164
India,Delhi,Delhi,"Mundka, Delhi - DPCC",20-03-2024 17:00:00,28.684678,77.076574,PM10,120,448,283
India,Delhi,Delhi,"NSIT Dwarka, Delhi - CPCB",20-03-2024 17:00:00,28.60909,77.0325413,OZONE,7,55,32
India,Delhi,Delhi,"Najafgarh, Delhi - DPCC",20-03-2024 17:00:00,28.570173,76.933762,NO2,4,24,13
India,Delhi,Delhi,"Najafgarh, Delhi - DPCC",20-03-2024 17:00:00,28.570173,76.933762,SO2,8,15,11
India,Delhi,Delhi,"Narela, Delhi - DPCC",20-03-2024 17:00:00,28.822836,77.101981,NH3,5,8,6
India,Delhi,Delhi,"Narela, Delhi - DPCC",20-03-2024 17:00:00,28.822836,77.101981,OZONE,4,185,151
India,Delhi,Delhi,"Nehru Nagar, Delhi - DPCC",20-03-2024 17:00:00,28.567890,77.250515,PM2.5,65,438,259
India,Delhi,Delhi,"Nehru Nagar, Delhi - DPCC",20-03-2024 17:00:00,28.567890,77.250515,OZONE,2,132,87
India,Delhi,Delhi,"North Campus, DU, Delhi - IMD",20-03-2024 17:00:00,28.6573814,77.1585447,PM10,81,294,178
India,Delhi,Delhi,"Okhla Phase-2, Delhi - DPCC",20-03-2024 17:00:00,28.530785,77.271255,PM10,107,338,203
India,Delhi,Delhi,"Okhla Phase-2, Delhi - DPCC",20-03-2024 17:00:00,28.530785,77.271255,OZONE,10,128,122
India,Delhi,Delhi,"Punjabi Bagh, Delhi - DPCC",20-03-2024 17:00:00,28.674045,77.131023,PM2.5,19,404,241
India,Delhi,Delhi,"Punjabi Bagh, Delhi - DPCC",20-03-2024 17:00:00,28.674045,77.131023,PM10,81,349,197
India,Delhi,Delhi,"Punjabi Bagh, Delhi - DPCC",20-03-2024 17:00:00,28.674045,77.131023,SO2,NA,NA,NA
India,Delhi,Delhi,"R K Puram, Delhi - DPCC",20-03-2024 17:00:00,28.563262,77.186937,PM2.5,63,397,236
India,Delhi,Delhi,"R K Puram, Delhi - DPCC",20-03-2024 17:00:00,28.563262,77.186937,NH3,2,4,3
India,Delhi,Delhi,"R K Puram, Delhi - DPCC",20-03-2024 17:00:00,28.563262,77.186937,SO2,6,49,19
India,Delhi,Delhi,"R K Puram, Delhi - DPCC",20-03-2024 17:00:00,28.563262,77.186937,CO,16,118,38
India,Delhi,Delhi,"Shadipur, Delhi - CPCB",20-03-2024 17:00:00,28.6514781,77.1473105,NO2,41,56,49
India,Delhi,Delhi,"Shadipur, Delhi - CPCB",20-03-2024 17:00:00,28.6514781,77.1473105,NH3,1,14,10
India,Delhi,Delhi,"Sirifort, Delhi - CPCB",20-03-2024 17:00:00,28.5504249,77.2159377,PM10,1,343,192
India,Delhi,Delhi,"Sirifort, Delhi - CPCB",20-03-2024 17:00:00,28.5504249,77.2159377,SO2,40,67,46
India,Delhi,Delhi,"Sonia Vihar, Delhi - DPCC",20-03-2024 17:00:00,28.710508,77.249485,SO2,9,35,18
India,Delhi,Delhi,"Sonia Vihar, Delhi - DPCC",20-03-2024 17:00:00,28.710508,77.249485,CO,49,100,67
India,Delhi,Delhi,"Sri Aurobindo Marg, Delhi - DPCC",20-03-2024 17:00:00,28.531346,77.190156,PM2.5,38,353,190
India,Delhi,Delhi,"Vivek Vihar, Delhi - DPCC",20-03-2024 17:00:00,28.672342,77.315260,PM2.5,NA,NA,NA
India,Delhi,Delhi,"Wazirpur, Delhi - DPCC",20-03-2024 17:00:00,28.699793,77.165453,NO2,42,216,130
India,Gujarat,Ahmedabad,"Chandkheda, Ahmedabad - IITM",20-03-2024 17:00:00,23.107969,72.574648,CO,1,108,14
India,Gujarat,Ahmedabad,"Chandkheda, Ahmedabad - IITM",20-03-2024 17:00:00,23.107969,72.574648,OZONE,4,70,46
India,Gujarat,Ahmedabad,"Gyaspur, Ahmedabad - IITM",20-03-2024 17:00:00,22.977134,72.553024,PM2.5,84,338,225
India,Gujarat,Ahmedabad,"Maninagar, Ahmedabad - GPCB",20-03-2024 17:00:00,23.002657,72.591912,PM2.5,27,176,74
India,Gujarat,Ahmedabad,"Raikhad, Ahmedabad - IITM",20-03-2024 17:00:00,23.020509,72.579261,OZONE,13,53,43
India,Gujarat,Ahmedabad,"Rakhial, Ahmedabad - IITM",20-03-2024 17:00:00,23.016834,72.625775,OZONE,3,83,55
India,Gujarat,Ahmedabad,"SVPI Airport Hansol, Ahmedabad - IITM",20-03-2024 17:00:00,23.076793,72.627874,NO2,14,19,17
India,Gujarat,Ahmedabad,"SVPI Airport Hansol, Ahmedabad - IITM",20-03-2024 17:00:00,23.076793,72.627874,NH3,4,5,4
India,Gujarat,Ahmedabad,"SVPI Airport Hansol, Ahmedabad - IITM",20-03-2024 17:00:00,23.076793,72.627874,SO2,2,8,3
India,Gujarat,Ahmedabad,"SVPI Airport Hansol, Ahmedabad - IITM",20-03-2024 17:00:00,23.076793,72.627874,CO,22,109,26
India,Gujarat,Ahmedabad,"Sardar Vallabhbhai Patel Stadium, Ahmedabad - IITM",20-03-2024 17:00:00,23.043070,72.562968,OZONE,18,28,22
India,Gujarat,Ankleshwar,"GIDC, Ankleshwar - GPCB",20-03-2024 17:00:00,21.613267,73.010555,PM10,63,138,101
India,Gujarat,Ankleshwar,"GIDC, Ankleshwar - GPCB",20-03-2024 17:00:00,21.613267,73.010555,OZONE,20,32,30
India,Gujarat,Gandhinagar,"GIFT City, Gandhinagar - IITM",20-03-2024 17:00:00,23.163798,72.677768,PM2.5,64,313,158
India,Gujarat,Gandhinagar,"GIFT City, Gandhinagar - IITM",20-03-2024 17:00:00,23.163798,72.677768,NH3,4,4,4
India,Gujarat,Gandhinagar,"GIFT City, Gandhinagar - IITM",20-03-2024 17:00:00,23.163798,72.677768,SO2,8,11,9
India,Gujarat,Gandhinagar,"IIPHG Lekawada, Gandhinagar - IITM",20-03-2024 17:00:00,23.243639,72.68994,NH3,6,7,7
India,Gujarat,Gandhinagar,"IIPHG Lekawada, Gandhinagar - IITM",20-03-2024 17:00:00,23.243639,72.68994,OZONE,10,51,39
India,Gujarat,Nandesari,"GIDC, Nandesari - Nandesari Ind. Association",20-03-2024 17:00:00,22.410802,73.097923,NO2,1,70,28
India,Gujarat,Surat,"Science Center, Surat - SMC",20-03-2024 17:00:00,21.170046,72.795405,PM2.5,4,126,41
India,Gujarat,Surat,"Science Center, Surat - SMC",20-03-2024 17:00:00,21.170046,72.795405,PM10,16,143,53
India,Gujarat,Vapi,"Phase-1 GIDC, Vapi - GPCB",20-03-2024 17:00:00,20.362421,72.918013,NH3,2,2,2
India,Gujarat,Vatva,"Phase-4 GIDC, Vatva - GPCB",20-03-2024 17:00:00,22.969611,72.643500,PM2.5,50,305,119
India,Gujarat,Vatva,"Phase-4 GIDC, Vatva - GPCB",20-03-2024 17:00:00,22.969611,72.643500,SO2,8,130,44
India,Haryana,Bahadurgarh,"Arya Nagar, Bahadurgarh - HSPCB",20-03-2024 17:00:00,28.6701,76.9254,PM2.5,32,324,177
India,Haryana,Bahadurgarh,"Arya Nagar, Bahadurgarh - HSPCB",20-03-2024 17:00:00,28.6701,76.9254,CO,38,59,50
India,Haryana,Ballabgarh,"Nathu Colony, Ballabgarh - HSPCB",20-03-2024 17:00:00,28.3419248,77.319699,PM10,127,427,218
India,Haryana,Bhiwani,"H.B. Colony, Bhiwani - HSPCB",20-03-2024 17:00:00,28.806223,76.141105,PM2.5,63,148,92
India,Haryana,Bhiwani,"H.B. Colony, Bhiwani - HSPCB",20-03-2024 17:00:00,28.806223,76.141105,OZONE,4,87,17
India,Haryana,Charkhi Dadri,"Mini Secretariat, Charkhi Dadri - HSPCB",20-03-2024 17:00:00,28.593883,76.270653,PM2.5,18,228,140
India,Haryana,Dharuhera,"Municipal Corporation Office, Dharuhera -  HSPCB",20-03-2024 17:00:00,28.206800,76.799700,PM2.5,37,319,165
India,Haryana,Dharuhera,"Municipal Corporation Office, Dharuhera -  HSPCB",20-03-2024 17:00:00,28.206800,76.799700,SO2,16,40,26
India,Haryana,Faridabad,"New Industrial Town, Faridabad - HSPCB",20-03-2024 17:00:00,28.39072,77.30059,PM10,41,366,194
India,Haryana,Faridabad,"New Industrial Town, Faridabad - HSPCB",20-03-2024 17:00:00,28.39072,77.30059,NH3,3,8,5
India,Haryana,Faridabad,"Sector 30, Faridabad - HSPCB",20-03-2024 17:00:00,28.4417,77.3217,NO2,30,33,31
India,Haryana,Faridabad,"Sector- 16A, Faridabad - HSPCB",20-03-2024 17:00:00,28.4088421,77.3099081,NO2,2,17,9
India,Haryana,Faridabad,"Sector- 16A, Faridabad - HSPCB",20-03-2024 17:00:00,28.4088421,77.3099081,CO,4,135,26
India,Haryana,Fatehabad,"Huda Sector, Fatehabad - HSPCB",20-03-2024 17:00:00,29.503664,75.467934,PM2.5,42,97,69
India,Haryana,Gurugram,"Teri Gram, Gurugram - HSPCB",20-03-2024 17:00:00,28.4275,77.1465,OZONE,13,18,15
India,Haryana,Hisar,"Urban Estate-II, Hisar - HSPCB",20-03-2024 17:00:00,29.140560,75.744941,PM2.5,25,117,68
India,Haryana,Hisar,"Urban Estate-II, Hisar - HSPCB",20-03-2024 17:00:00,29.140560,75.744941,SO2,NA,NA,NA
India,Haryana,Jind,"Police Lines, Jind - HSPCB",20-03-2024 17:00:00,29.307814,76.337619,SO2,4,31,19
India,Haryana,Kaithal,"Rishi Nagar, Kaithal - HSPCB",20-03-2024 17:00:00,29.8006,76.4155,PM2.5,50,106,71
India,Haryana,Kaithal,"Rishi Nagar, Kaithal - HSPCB",20-03-2024 17:00:00,29.8006,76.4155,PM10,77,146,114
India,Haryana,Kaithal,"Rishi Nagar, Kaithal - HSPCB",20-03-2024 17:00:00,29.8006,76.4155,NO2,24,26,25
India,Haryana,Karnal,"Sector-12, Karnal - HSPCB",20-03-2024 17:00:00,29.695300,77.002700,PM10,60,121,89
India,Haryana,Karnal,"Sector-12, Karnal - HSPCB",20-03-2024 17:00:00,29.695300,77.002700,OZONE,20,33,22
India,Haryana,Kurukshetra,"Sector-7, Kurukshetra - HSPCB",20-03-2024 17:00:00,29.966942,76.875879,PM2.5,49,101,78
India,Haryana,Kurukshetra,"Sector-7, Kurukshetra - HSPCB",20-03-2024 17:00:00,29.966942,76.875879,NO2,10,11,10
India,Haryana,Mandikhera,"General Hospital, Mandikhera - HSPCB",20-03-2024 17:00:00,27.9002,76.9938,PM10,70,122,94
India,Haryana,Mandikhera,"General Hospital, Mandikhera - HSPCB",20-03-2024 17:00:00,27.9002,76.9938,CO,10,36,28
India,Haryana,Manesar,"Sector-2 IMT, Manesar - HSPCB",20-03-2024 17:00:00,28.360699,76.936090,CO,14,41,26
India,Haryana,Manesar,"Sector-2 IMT, Manesar - HSPCB",20-03-2024 17:00:00,28.360699,76.936090,OZONE,1,56,36
India,Haryana,Narnaul,"Shastri Nagar, Narnaul - HSPCB",20-03-2024 17:00:00,28.060249,76.113115,NH3,4,24,11
India,Haryana,Panchkula,"Sector-6, Panchkula - HSPCB ",20-03-2024 17:00:00,30.7057778,76.8531805555555,PM2.5,7,91,49
India,Haryana,Panchkula,"Sector-6, Panchkula - HSPCB ",20-03-2024 17:00:00,30.7057778,76.8531805555555,SO2,11,12,12
India,Haryana,Panchkula,"Sector-6, Panchkula - HSPCB ",20-03-2024 17:00:00,30.7057778,76.8531805555555,CO,4,12,7
India,Haryana,Panipat,"Sector-18, Panipat - HSPCB",20-03-2024 17:00:00,29.497973,76.993331,SO2,18,19,19
India,Haryana,Panipat,"Sector-18, Panipat - HSPCB",20-03-2024 17:00:00,29.497973,76.993331,OZONE,30,30,30
India,Haryana,Rohtak,"MD University, Rohtak - HSPCB",20-03-2024 17:00:00,28.52123,76.37138,PM2.5,6,360,164
India,Haryana,Rohtak,"MD University, Rohtak - HSPCB",20-03-2024 17:00:00,28.52123,76.37138,CO,NA,NA,NA
India,Haryana,Yamuna Nagar,"Gobind Pura, Yamuna Nagar - HSPCB",20-03-2024 17:00:00,30.1480566,77.2893471,OZONE,15,42,31
India,Jharkhand,Dhanbad,"Sardar Patel Nagar, Dhanbad - JSPCB",20-03-2024 17:00:00,23.80569,86.44268,PM10,NA,NA,NA
India,Jharkhand,Pathardih,"Mohalbani Ghat, Pathardih - DMC",20-03-2024 17:00:00,23.669880,86.411725,OZONE,9,16,11
India,Karnataka,Bagalkot,"Vidayagiri, Bagalkot - KSPCB",20-03-2024 17:00:00,16.172806,75.659694,PM10,45,46,46
India,Karnataka,Bengaluru,"BTM Layout, Bengaluru - CPCB",20-03-2024 17:00:00,12.9135218,77.5950804,PM2.5,42,91,63
India,Karnataka,Bengaluru,"BTM Layout, Bengaluru - CPCB",20-03-2024 17:00:00,12.9135218,77.5950804,CO,48,50,50
India,Karnataka,Bengaluru,"Hombegowda Nagar, Bengaluru - KSPCB",20-03-2024 17:00:00,12.938539,77.590100,NO2,12,31,17
India,Karnataka,Bengaluru,"Jayanagar 5th Block, Bengaluru - KSPCB",20-03-2024 17:00:00,12.920984,77.584908,CO,14,62,24
India,Karnataka,Bengaluru,"Jigani, Bengaluru - KSPCB",20-03-2024 17:00:00,12.7816279,77.6299145,PM2.5,45,259,124
India,Karnataka,Bengaluru,"Jigani, Bengaluru - KSPCB",20-03-2024 17:00:00,12.7816279,77.6299145,PM10,63,141,104
India,Karnataka,Bengaluru,"Jigani, Bengaluru - KSPCB",20-03-2024 17:00:00,12.7816279,77.6299145,NO2,31,32,32
India,Karnataka,Bengaluru,"Jigani, Bengaluru - KSPCB",20-03-2024 17:00:00,12.7816279,77.6299145,OZONE,8,94,72
India,Karnataka,Bengaluru,"Kasturi Nagar, Bengaluru - KSPCB",20-03-2024 17:00:00,13.003872,77.664217,CO,23,26,25
India,Karnataka,Bengaluru,"Peenya, Bengaluru - CPCB",20-03-2024 17:00:00,13.0270199,77.494094,OZONE,25,145,87
India,Karnataka,Bengaluru,"Sanegurava Halli, Bengaluru - KSPCB",20-03-2024 17:00:00,12.990328,77.5431385,NO2,NA,NA,NA
India,Karnataka,Bengaluru,"Shivapura_Peenya, Bengaluru - KSPCB",20-03-2024 17:00:00,13.0246342,77.5080115,PM10,76,116,97
India,Karnataka,Bengaluru,"Shivapura_Peenya, Bengaluru - KSPCB",20-03-2024 17:00:00,13.0246342,77.5080115,SO2,12,41,26
India,Karnataka,Bengaluru,"Silk Board, Bengaluru - KSPCB",20-03-2024 17:00:00,12.917348,77.622813,NO2,18,33,24
India,Karnataka,Bidar,"Naubad, Bidar - KSPCB",20-03-2024 17:00:00,17.930306,77.482194,PM2.5,38,88,69
India,Karnataka,Bidar,"Naubad, Bidar - KSPCB",20-03-2024 17:00:00,17.930306,77.482194,NO2,7,9,8
India,Karnataka,Chamarajanagar,"Urban, Chamarajanagar - KSPCB",20-03-2024 17:00:00,11.55358,76.55521,PM10,44,63,48
India,Karnataka,Chamarajanagar,"Urban, Chamarajanagar - KSPCB",20-03-2024 17:00:00,11.55358,76.55521,NH3,1,2,1
India,Karnataka,Chamarajanagar,"Urban, Chamarajanagar - KSPCB",20-03-2024 17:00:00,11.55358,76.55521,SO2,4,8,5
India,Karnataka,Chikkaballapur,"Chikkaballapur Rural, Chikkaballapur - KSPCB",20-03-2024 17:00:00,13.428828,77.731418,CO,7,14,11
India,Karnataka,Chikkamagaluru,"Kalyana Nagara, Chikkamagaluru - KSPCB",20-03-2024 17:00:00,13.328028,75.797056,CO,11,116,44
India,Karnataka,Davanagere,"Devaraj Urs Badavane, Davanagere - KSPCB",20-03-2024 17:00:00,14.475800,75.905200,CO,16,26,22
India,Karnataka,Dharwad,"Kalabhavan, Dharwad - KSPCB",20-03-2024 17:00:00,15.459706,75.008381,PM2.5,38,67,55
India,Karnataka,Dharwad,"Kalabhavan, Dharwad - KSPCB",20-03-2024 17:00:00,15.459706,75.008381,SO2,3,15,8
India,Karnataka,Gadag,"Panchal Nagar, Gadag - KSPCB",20-03-2024 17:00:00,15.411456,75.638133,PM2.5,22,80,50
India,Karnataka,Hassan,"B.Katihalli, Hassan - KSPCB",20-03-2024 17:00:00,13.008556,76.125258,NH3,2,5,4
India,Karnataka,Hassan,"B.Katihalli, Hassan - KSPCB",20-03-2024 17:00:00,13.008556,76.125258,SO2,6,36,16
India,Karnataka,Hassan,"B.Katihalli, Hassan - KSPCB",20-03-2024 17:00:00,13.008556,76.125258,CO,6,26,11
India,Karnataka,Hassan,"B.Katihalli, Hassan - KSPCB",20-03-2024 17:00:00,13.008556,76.125258,OZONE,4,34,14
India,Karnataka,Haveri,"Ashwini Nagar, Haveri - KSPCB",20-03-2024 17:00:00,14.791800,75.389600,PM10,NA,NA,NA
