country,state,city,station,last_update,latitude,longitude,pollutant_id,pollutant_min,pollutant_max,pollutant_avg
India,Andhra_Pradesh,Anantapur,"Gulzarpet, Anantapur - APPCB",26-01-2024 17:00:00,14.675886,77.593027,PM2.5,30,52,45
India,Andhra_Pradesh,Tirupati,"Tirumala, Tirupati - APPCB",26-01-2024 17:00:00,13.67,79.35,OZONE,6,33,27
India,Andhra_Pradesh,Tirupati,"Vaikuntapuram, Tirupati - APPCB",26-01-2024 17:00:00,13.615387,79.409230,NH3,2,4,3
India,Andhra_Pradesh,Tirupati,"Vaikuntapuram, Tirupati - APPCB",26-01-2024 17:00:00,13.615387,79.409230,OZONE,1,37,22
India,Andhra_Pradesh,Visakhapatnam,"GVM Corporation, Visakhapatnam - APPCB",26-01-2024 17:00:00,17.72,83.3,NH3,2,4,3
India,Arunachal_Pradesh,Naharlagun,"Naharlagun, Naharlagun - APSPCB",26-01-2024 17:00:00,27.103358,93.679645,NO2,2,2,2
India,Assam,Byrnihat,"Central Academy for SFS, Byrnihat - PCBA",26-01-2024 17:00:00,26.071318,91.87488,NO2,31,111,52
India,Assam,Byrnihat,"Central Academy for SFS, Byrnihat - PCBA",26-01-2024 17:00:00,26.071318,91.87488,NH3,1,3,2
India,Assam,Byrnihat,"Central Academy for SFS, Byrnihat - PCBA",26-01-2024 17:00:00,26.071318,91.87488,SO2,7,38,12
India,Assam,Byrnihat,"Central Academy for SFS, Byrnihat - PCBA",26-01-2024 17:00:00,26.071318,91.87488,CO,16,178,170
India,Assam,Guwahati,"IITG, Guwahati - PCBA",26-01-2024 17:00:00,26.2028636,91.70046436,SO2,NA,NA,NA
India,Assam,Guwahati,"LGBI Airport, Guwahati - PCBA",26-01-2024 17:00:00,26.10887,91.589544,PM2.5,130,346,278
India,Assam,Guwahati,"Pan Bazaar, Guwahati - PCBA",26-01-2024 17:00:00,26.187500,91.744194,PM10,100,375,185
India,Assam,Guwahati,"Pan Bazaar, Guwahati - PCBA",26-01-2024 17:00:00,26.187500,91.744194,NO2,1,14,6
India,Assam,Guwahati,"Pan Bazaar, Guwahati - PCBA",26-01-2024 17:00:00,26.187500,91.744194,NH3,4,6,4
India,Assam,Guwahati,"Pan Bazaar, Guwahati - PCBA",26-01-2024 17:00:00,26.187500,91.744194,CO,32,119,45
India,Assam,Nagaon,"Christianpatty, Nagaon - PCBA",26-01-2024 17:00:00,26.349082,92.68449,CO,6,26,18
India,Assam,Nagaon,"Christianpatty, Nagaon - PCBA",26-01-2024 17:00:00,26.349082,92.68449,OZONE,3,94,61
India,Assam,Nalbari,"Bata Chowk, Nalbari - PCBA",26-01-2024 17:00:00,26.446912,91.439057,PM10,69,453,201
India,Assam,Nalbari,"Bata Chowk, Nalbari - PCBA",26-01-2024 17:00:00,26.446912,91.439057,SO2,4,21,9
India,Assam,Silchar,"Tarapur, Silchar - PCBA",26-01-2024 17:00:00,24.82827,92.79525,PM2.5,32,50,39
India,Assam,Silchar,"Tarapur, Silchar - PCBA",26-01-2024 17:00:00,24.82827,92.79525,NH3,1,1,1
India,Assam,Silchar,"Tarapur, Silchar - PCBA",26-01-2024 17:00:00,24.82827,92.79525,SO2,NA,NA,NA
India,Bihar,Araria,"Kharahiya Basti, Araria - BSPCB",26-01-2024 17:00:00,26.146529,87.454184,PM2.5,NA,NA,NA
India,Bihar,Araria,"Kharahiya Basti, Araria - BSPCB",26-01-2024 17:00:00,26.146529,87.454184,PM10,NA,NA,NA
India,Bihar,Aurangabad,"Gurdeo Nagar, Aurangabad - BSPCB",26-01-2024 17:00:00,24.75746,84.366208,NH3,5,25,9
India,Bihar,Bettiah,"Kamalnath Nagar, Bettiah - BSPCB",26-01-2024 17:00:00,26.80365,84.51954,SO2,NA,NA,NA
India,Bihar,Bhagalpur,"Mayaganj, Bhagalpur - BSPCB",26-01-2024 17:00:00,25.265194,87.012947,NO2,3,32,11
India,Bihar,Bihar Sharif,"D M Colony, Bihar Sharif - BSPCB",26-01-2024 17:00:00,25.204762,85.514960,NO2,9,10,10
India,Bihar,Bihar Sharif,"D M Colony, Bihar Sharif - BSPCB",26-01-2024 17:00:00,25.204762,85.514960,NH3,2,2,2
India,Bihar,Gaya,"Collectorate, Gaya - BSPCB",26-01-2024 17:00:00,24.7955,84.9994,PM2.5,206,500,355
India,Bihar,Gaya,"Kareemganj, Gaya - BSPCB",26-01-2024 17:00:00,24.792403,84.992416,NO2,30,31,30
India,Bihar,Gaya,"SFTI Kusdihra, Gaya - BSPCB",26-01-2024 17:00:00,24.762518,84.982348,NO2,22,40,34
India,Bihar,Gaya,"SFTI Kusdihra, Gaya - BSPCB",26-01-2024 17:00:00,24.762518,84.982348,SO2,7,9,8
India,Bihar,Hajipur,"Industrial Area, Hajipur - BSPCB",26-01-2024 17:00:00,25.697189,85.245900,PM10,175,317,224
India,Bihar,Hajipur,"Industrial Area, Hajipur - BSPCB",26-01-2024 17:00:00,25.697189,85.245900,NO2,29,59,42
India,Bihar,Katihar,"Mirchaibari, Katihar - BSPCB",26-01-2024 17:00:00,25.560083,87.553265,PM2.5,68,277,153
India,Bihar,Katihar,"Mirchaibari, Katihar - BSPCB",26-01-2024 17:00:00,25.560083,87.553265,SO2,18,26,23
India,Bihar,Kishanganj,"SDM Office_Khagra, Kishanganj - BSPCB",26-01-2024 17:00:00,26.0881305,87.93840336,NH3,11,15,12
India,Bihar,Kishanganj,"SDM Office_Khagra, Kishanganj - BSPCB",26-01-2024 17:00:00,26.0881305,87.93840336,SO2,2,12,6
India,Bihar,Kishanganj,"SDM Office_Khagra, Kishanganj - BSPCB",26-01-2024 17:00:00,26.0881305,87.93840336,OZONE,40,48,42
India,Bihar,Manguraha,"Forest Rest House, Manguraha - BSPCB",26-01-2024 17:00:00,27.308328,84.531742,NH3,NA,NA,NA
India,Bihar,Motihari,"Gandak Colony, Motihari - BSPCB",26-01-2024 17:00:00,26.63086,84.90051,PM10,67,173,123
India,Bihar,Motihari,"Gandak Colony, Motihari - BSPCB",26-01-2024 17:00:00,26.63086,84.90051,CO,72,102,84
India,Bihar,Motihari,"Gandak Colony, Motihari - BSPCB",26-01-2024 17:00:00,26.63086,84.90051,OZONE,20,80,65
India,Bihar,Muzaffarpur,"Buddha Colony, Muzaffarpur - BSPCB",26-01-2024 17:00:00,26.11442,85.39813,PM2.5,235,453,341
India,Bihar,Muzaffarpur,"MIT-Daudpur Kothi, Muzaffarpur - BSPCB",26-01-2024 17:00:00,26.1403345,85.3650192,PM2.5,NA,NA,NA
India,Bihar,Patna,"DRM Office Danapur, Patna - BSPCB",26-01-2024 17:00:00,25.586562,85.043586,PM2.5,323,429,376
India,Bihar,Patna,"DRM Office Danapur, Patna - BSPCB",26-01-2024 17:00:00,25.586562,85.043586,PM10,217,374,320
India,Bihar,Patna,"Govt. High School Shikarpur, Patna - BSPCB",26-01-2024 17:00:00,25.592539,85.227158,NH3,4,6,5
India,Bihar,Patna,"Govt. High School Shikarpur, Patna - BSPCB",26-01-2024 17:00:00,25.592539,85.227158,SO2,3,7,5
India,Bihar,Patna,"IGSC Planetarium Complex, Patna - BSPCB",26-01-2024 17:00:00,25.610369,85.132568,SO2,6,7,7
India,Bihar,Patna,"IGSC Planetarium Complex, Patna - BSPCB",26-01-2024 17:00:00,25.610369,85.132568,OZONE,5,14,14
India,Bihar,Patna,"Muradpur, Patna - BSPCB",26-01-2024 17:00:00,25.619651,85.147382,PM2.5,240,364,321
India,Bihar,Patna,"Muradpur, Patna - BSPCB",26-01-2024 17:00:00,25.619651,85.147382,SO2,6,12,8
India,Bihar,Patna,"Rajbansi Nagar, Patna - BSPCB",26-01-2024 17:00:00,25.599486,85.113666,NO2,48,276,232
India,Bihar,Patna,"Samanpura, Patna - BSPCB",26-01-2024 17:00:00,25.596727,85.085624,PM10,295,500,416
India,Bihar,Purnia,"Mariam Nagar, Purnia - BSPCB",26-01-2024 17:00:00,25.366336,87.117468,PM2.5,83,314,207
India,Bihar,Purnia,"Mariam Nagar, Purnia - BSPCB",26-01-2024 17:00:00,25.366336,87.117468,NO2,12,13,13
India,Bihar,Purnia,"Mariam Nagar, Purnia - BSPCB",26-01-2024 17:00:00,25.366336,87.117468,NH3,1,1,1
India,Bihar,Rajgir,"Dangi Tola, Rajgir - BSPCB",26-01-2024 17:00:00,25.03280,85.41948,PM10,129,392,189
India,Bihar,Rajgir,"Dangi Tola, Rajgir - BSPCB",26-01-2024 17:00:00,25.03280,85.41948,NH3,1,4,1
India,Bihar,Saharsa,"Police Line, Saharsa - BSPCB",26-01-2024 17:00:00,25.892357,86.590325,NO2,6,8,7
India,Bihar,Saharsa,"Police Line, Saharsa - BSPCB",26-01-2024 17:00:00,25.892357,86.590325,SO2,27,28,28
India,Bihar,Samastipur,"DM Office_Kasipur, Samastipur - BSPCB",26-01-2024 17:00:00,25.859655,85.77944,NO2,2,7,4
India,Bihar,Samastipur,"DM Office_Kasipur, Samastipur - BSPCB",26-01-2024 17:00:00,25.859655,85.77944,NH3,5,5,5
India,Bihar,Sasaram,"Dada Peer, Sasaram - BSPCB",26-01-2024 17:00:00,24.952822,84.002396,PM2.5,140,500,245
India,Bihar,Sasaram,"Dada Peer, Sasaram - BSPCB",26-01-2024 17:00:00,24.952822,84.002396,NO2,3,14,6
India,Bihar,Sasaram,"Dada Peer, Sasaram - BSPCB",26-01-2024 17:00:00,24.952822,84.002396,OZONE,4,5,4
India,Bihar,Siwan,"Chitragupta Nagar, Siwan - BSPCB",26-01-2024 17:00:00,26.2271665,84.3570427,SO2,10,36,29
India,Bihar,Siwan,"Chitragupta Nagar, Siwan - BSPCB",26-01-2024 17:00:00,26.2271665,84.3570427,CO,119,171,141
India,Chandigarh,Chandigarh,"Sector 22, Chandigarh - CPCC",26-01-2024 17:00:00,30.735567,76.775714,NH3,5,12,8
India,Chandigarh,Chandigarh,"Sector-25, Chandigarh - CPCC",26-01-2024 17:00:00,30.751462,76.762879,PM2.5,NA,NA,NA
India,Chhattisgarh,Bhilai,"32Bungalows, Bhilai - CECB",26-01-2024 17:00:00,21.194815,81.314770,PM2.5,55,84,69
India,Chhattisgarh,Bhilai,"32Bungalows, Bhilai - CECB",26-01-2024 17:00:00,21.194815,81.314770,CO,31,50,37
India,Chhattisgarh,Bhilai,"Civic Center, Bhilai - Bhilai Steel Plant",26-01-2024 17:00:00,21.185571,81.343175,PM10,63,115,89
India,Chhattisgarh,Bhilai,"Civic Center, Bhilai - Bhilai Steel Plant",26-01-2024 17:00:00,21.185571,81.343175,NO2,9,21,15
India,Chhattisgarh,Bhilai,"Civic Center, Bhilai - Bhilai Steel Plant",26-01-2024 17:00:00,21.185571,81.343175,OZONE,7,41,28
India,Chhattisgarh,Bhilai,"Hathkhoj, Bhilai - CECB",26-01-2024 17:00:00,21.224231,81.408350,PM10,72,135,102
India,Chhattisgarh,Bhilai,"Hathkhoj, Bhilai - CECB",26-01-2024 17:00:00,21.224231,81.408350,NO2,39,87,57
India,Chhattisgarh,Bhilai,"Hathkhoj, Bhilai - CECB",26-01-2024 17:00:00,21.224231,81.408350,OZONE,9,20,15
India,Chhattisgarh,Bilaspur,"Mangala, Bilaspur - NTPC",26-01-2024 17:00:00,22.08815,82.13737,PM2.5,35,214,82
India,Chhattisgarh,Korba,"Rampur, Korba - CECB",26-01-2024 17:00:00,22.368195,82.746431,PM2.5,NA,NA,NA
India,Chhattisgarh,Korba,"Rampur, Korba - CECB",26-01-2024 17:00:00,22.368195,82.746431,NO2,16,78,39
India,Chhattisgarh,Korba,"Rampur, Korba - CECB",26-01-2024 17:00:00,22.368195,82.746431,OZONE,2,82,29
India,Chhattisgarh,Korba,"Urja Nagar, Korba - CECB",26-01-2024 17:00:00,22.348441,82.549611,CO,23,57,26
India,Chhattisgarh,Kunjemura,"OP Jindal School, Kunjemura - CECB",26-01-2024 17:00:00,22.126650,83.483212,NH3,1,5,2
India,Chhattisgarh,Kunjemura,"OP Jindal School, Kunjemura - CECB",26-01-2024 17:00:00,22.126650,83.483212,OZONE,3,65,42
India,Chhattisgarh,Milupara,"Govt. Higher Secondary School, Milupara - CECB",26-01-2024 17:00:00,22.1910172,83.5197009,PM10,18,59,34
India,Chhattisgarh,Milupara,"Govt. Higher Secondary School, Milupara - CECB",26-01-2024 17:00:00,22.1910172,83.5197009,CO,18,32,23
India,Chhattisgarh,Milupara,"Govt. Higher Secondary School, Milupara - CECB",26-01-2024 17:00:00,22.1910172,83.5197009,OZONE,12,83,66
India,Chhattisgarh,Raipur,"Bhatagaon New ISBT, Raipur - CECB",26-01-2024 17:00:00,21.219665,81.630094,PM2.5,34,93,63
India,Chhattisgarh,Raipur,"Bhatagaon New ISBT, Raipur - CECB",26-01-2024 17:00:00,21.219665,81.630094,NH3,1,4,3
India,Chhattisgarh,Raipur,"Krishak Nagar, Raipur - CECB",26-01-2024 17:00:00,21.237755,81.705301,PM10,44,92,73
India,Chhattisgarh,Raipur,"Krishak Nagar, Raipur - CECB",26-01-2024 17:00:00,21.237755,81.705301,OZONE,3,6,5
India,Chhattisgarh,Tumidih,"OP Jindal Industrial Park, Tumidih - CECB",26-01-2024 17:00:00,22.06631475,83.33820077,PM2.5,NA,NA,NA
India,Chhattisgarh,Tumidih,"OP Jindal Industrial Park, Tumidih - CECB",26-01-2024 17:00:00,22.06631475,83.33820077,NH3,NA,NA,NA
India,Delhi,Delhi,"Alipur, Delhi - DPCC",26-01-2024 17:00:00,28.815329,77.153010,NO2,17,62,37
India,Delhi,Delhi,"Ashok Vihar, Delhi - DPCC",26-01-2024 17:00:00,28.695381,77.181665,NO2,39,130,80
India,Delhi,Delhi,"Ashok Vihar, Delhi - DPCC",26-01-2024 17:00:00,28.695381,77.181665,OZONE,4,20,13
India,Delhi,Delhi,"Aya Nagar, Delhi - IMD",26-01-2024 17:00:00,28.4706914,77.1099364,CO,96,130,111
India,Delhi,Delhi,"Bawana, Delhi - DPCC",26-01-2024 17:00:00,28.776200,77.051074,PM10,166,404,287
India,Delhi,Delhi,"Bawana, Delhi - DPCC",26-01-2024 17:00:00,28.776200,77.051074,CO,52,107,81
India,Delhi,Delhi,"Burari Crossing, Delhi - IMD",26-01-2024 17:00:00,28.7256504,77.2011573,PM2.5,138,394,340
India,Delhi,Delhi,"DTU, Delhi - CPCB",26-01-2024 17:00:00,28.7500499,77.1112615,NO2,4,100,44
India,Delhi,Delhi,"Dr. Karni Singh Shooting Range, Delhi - DPCC",26-01-2024 17:00:00,28.498571,77.264840,NO2,40,208,99
India,Delhi,Delhi,"Dr. Karni Singh Shooting Range, Delhi - DPCC",26-01-2024 17:00:00,28.498571,77.264840,NH3,9,16,12
India,Delhi,Delhi,"Dwarka-Sector 8, Delhi - DPCC ",26-01-2024 17:00:00,28.5710274,77.0719006,NO2,12,44,24
India,Delhi,Delhi,"IGI Airport (T3), Delhi - IMD",26-01-2024 17:00:00,28.5627763,77.1180053,PM10,138,447,347
India,Delhi,Delhi,"IHBAS, Dilshad Garden, Delhi - CPCB",26-01-2024 17:00:00,28.6811736,77.3025234,SO2,2,44,17
India,Delhi,Delhi,"IHBAS, Dilshad Garden, Delhi - CPCB",26-01-2024 17:00:00,28.6811736,77.3025234,CO,22,111,63
India,Delhi,Delhi,"IHBAS, Dilshad Garden, Delhi - CPCB",26-01-2024 17:00:00,28.6811736,77.3025234,OZONE,5,58,42
India,Delhi,Delhi,"ITO, Delhi - CPCB",26-01-2024 17:00:00,28.628624,77.241060,PM2.5,339,500,397
India,Delhi,Delhi,"ITO, Delhi - CPCB",26-01-2024 17:00:00,28.628624,77.241060,SO2,14,34,22
India,Delhi,Delhi,"Jahangirpuri, Delhi - DPCC",26-01-2024 17:00:00,28.732820,77.170633,PM10,224,485,403
India,Delhi,Delhi,"Jahangirpuri, Delhi - DPCC",26-01-2024 17:00:00,28.732820,77.170633,NO2,48,113,82
India,Delhi,Delhi,"Jahangirpuri, Delhi - DPCC",26-01-2024 17:00:00,28.732820,77.170633,NH3,12,20,16
India,Delhi,Delhi,"Jawaharlal Nehru Stadium, Delhi - DPCC",26-01-2024 17:00:00,28.580280,77.233829,PM2.5,412,500,445
India,Delhi,Delhi,"Jawaharlal Nehru Stadium, Delhi - DPCC",26-01-2024 17:00:00,28.580280,77.233829,PM10,361,485,419
India,Delhi,Delhi,"Jawaharlal Nehru Stadium, Delhi - DPCC",26-01-2024 17:00:00,28.580280,77.233829,SO2,1,36,11
India,Delhi,Delhi,"Jawaharlal Nehru Stadium, Delhi - DPCC",26-01-2024 17:00:00,28.580280,77.233829,CO,102,135,107
India,Delhi,Delhi,"Lodhi Road, Delhi - IITM",26-01-2024 17:00:00,28.588333,77.221667,CO,64,70,67
India,Delhi,Delhi,"Major Dhyan Chand National Stadium, Delhi - DPCC",26-01-2024 17:00:00,28.611281,77.237738,PM10,278,472,372
India,Delhi,Delhi,"Mandir Marg, Delhi - DPCC",26-01-2024 17:00:00,28.636429,77.201067,PM2.5,382,499,420
India,Delhi,Delhi,"Mundka, Delhi - DPCC",26-01-2024 17:00:00,28.684678,77.076574,CO,48,126,80
India,Delhi,Delhi,"Najafgarh, Delhi - DPCC",26-01-2024 17:00:00,28.570173,76.933762,NO2,5,31,18
India,Delhi,Delhi,"Narela, Delhi - DPCC",26-01-2024 17:00:00,28.822836,77.101981,OZONE,1,175,162
India,Delhi,Delhi,"Nehru Nagar, Delhi - DPCC",26-01-2024 17:00:00,28.567890,77.250515,NO2,6,95,42
India,Delhi,Delhi,"Nehru Nagar, Delhi - DPCC",26-01-2024 17:00:00,28.567890,77.250515,NH3,11,20,14
India,Delhi,Delhi,"Nehru Nagar, Delhi - DPCC",26-01-2024 17:00:00,28.567890,77.250515,CO,33,130,54
India,Delhi,Delhi,"New Moti Bagh, Delhi - MHUA",26-01-2024 17:00:00,28.57834,77.18400,PM2.5,378,500,433
India,Delhi,Delhi,"North Campus, DU, Delhi - IMD",26-01-2024 17:00:00,28.6573814,77.1585447,CO,49,52,52
India,Delhi,Delhi,"Okhla Phase-2, Delhi - DPCC",26-01-2024 17:00:00,28.530785,77.271255,PM10,324,500,448
India,Delhi,Delhi,"Patparganj, Delhi - DPCC",26-01-2024 17:00:00,28.623763,77.287209,NO2,37,117,70
India,Delhi,Delhi,"Patparganj, Delhi - DPCC",26-01-2024 17:00:00,28.623763,77.287209,OZONE,7,16,12
India,Delhi,Delhi,"Punjabi Bagh, Delhi - DPCC",26-01-2024 17:00:00,28.674045,77.131023,PM2.5,317,500,432
India,Delhi,Delhi,"Punjabi Bagh, Delhi - DPCC",26-01-2024 17:00:00,28.674045,77.131023,CO,38,66,56
India,Delhi,Delhi,"Pusa, Delhi - DPCC",26-01-2024 17:00:00,28.639652,77.146275,OZONE,22,85,55
India,Delhi,Delhi,"Pusa, Delhi - IMD",26-01-2024 17:00:00,28.636110,77.173332,OZONE,13,37,25
India,Delhi,Delhi,"R K Puram, Delhi - DPCC",26-01-2024 17:00:00,28.563262,77.186937,PM10,363,500,438
India,Delhi,Delhi,"R K Puram, Delhi - DPCC",26-01-2024 17:00:00,28.563262,77.186937,OZONE,10,138,64
India,Delhi,Delhi,"Rohini, Delhi - DPCC",26-01-2024 17:00:00,28.732528,77.119920,PM10,148,465,355
India,Delhi,Delhi,"Rohini, Delhi - DPCC",26-01-2024 17:00:00,28.732528,77.119920,OZONE,2,144,75
India,Delhi,Delhi,"Sirifort, Delhi - CPCB",26-01-2024 17:00:00,28.5504249,77.2159377,CO,82,129,103
India,Delhi,Delhi,"Vivek Vihar, Delhi - DPCC",26-01-2024 17:00:00,28.672342,77.315260,SO2,8,8,8
India,Delhi,Delhi,"Wazirpur, Delhi - DPCC",26-01-2024 17:00:00,28.699793,77.165453,NH3,5,18,10
India,Delhi,Delhi,"Wazirpur, Delhi - DPCC",26-01-2024 17:00:00,28.699793,77.165453,OZONE,3,141,75
India,Gujarat,Ahmedabad,"Chandkheda, Ahmedabad - IITM",26-01-2024 17:00:00,23.107969,72.574648,PM10,59,115,87
India,Gujarat,Ahmedabad,"Chandkheda, Ahmedabad - IITM",26-01-2024 17:00:00,23.107969,72.574648,NO2,19,24,22
India,Gujarat,Ahmedabad,"Chandkheda, Ahmedabad - IITM",26-01-2024 17:00:00,23.107969,72.574648,OZONE,22,26,25
India,Gujarat,Ahmedabad,"Raikhad, Ahmedabad - IITM",26-01-2024 17:00:00,23.020509,72.579261,PM10,NA,NA,NA
India,Gujarat,Ahmedabad,"Raikhad, Ahmedabad - IITM",26-01-2024 17:00:00,23.020509,72.579261,SO2,NA,NA,NA
India,Gujarat,Ahmedabad,"Raikhad, Ahmedabad - IITM",26-01-2024 17:00:00,23.020509,72.579261,OZONE,9,14,12
India,Gujarat,Ahmedabad,"Rakhial, Ahmedabad - IITM",26-01-2024 17:00:00,23.016834,72.625775,PM2.5,57,209,92
India,Gujarat,Ahmedabad,"Rakhial, Ahmedabad - IITM",26-01-2024 17:00:00,23.016834,72.625775,NO2,7,52,17
India,Gujarat,Ahmedabad,"SAC ISRO Bopal, Ahmedabad - IITM",26-01-2024 17:00:00,23.041137,72.456691,NH3,3,4,4
India,Gujarat,Ahmedabad,"SAC ISRO Bopal, Ahmedabad - IITM",26-01-2024 17:00:00,23.041137,72.456691,OZONE,7,14,8
India,Gujarat,Ahmedabad,"SAC ISRO Satellite, Ahmedabad - IITM",26-01-2024 17:00:00,23.023389,72.515201,CO,22,50,33
India,Gujarat,Ahmedabad,"SVPI Airport Hansol, Ahmedabad - IITM",26-01-2024 17:00:00,23.076793,72.627874,PM2.5,61,311,147
India,Gujarat,Ahmedabad,"SVPI Airport Hansol, Ahmedabad - IITM",26-01-2024 17:00:00,23.076793,72.627874,SO2,5,15,9
India,Gujarat,Ahmedabad,"SVPI Airport Hansol, Ahmedabad - IITM",26-01-2024 17:00:00,23.076793,72.627874,CO,6,54,23
India,Gujarat,Ahmedabad,"Sardar Vallabhbhai Patel Stadium, Ahmedabad - IITM",26-01-2024 17:00:00,23.043070,72.562968,NO2,11,13,13
India,Gujarat,Ahmedabad,"Sardar Vallabhbhai Patel Stadium, Ahmedabad - IITM",26-01-2024 17:00:00,23.043070,72.562968,SO2,10,12,11
India,Gujarat,Ankleshwar,"GIDC, Ankleshwar - GPCB",26-01-2024 17:00:00,21.613267,73.010555,OZONE,21,31,28
India,Gujarat,Gandhinagar,"IIPHG Lekawada, Gandhinagar - IITM",26-01-2024 17:00:00,23.243639,72.68994,NO2,13,14,14
India,Gujarat,Vapi,"Phase-1 GIDC, Vapi - GPCB",26-01-2024 17:00:00,20.362421,72.918013,PM2.5,60,414,212
India,Gujarat,Vapi,"Phase-1 GIDC, Vapi - GPCB",26-01-2024 17:00:00,20.362421,72.918013,OZONE,1,7,5
India,Gujarat,Vatva,"Phase-4 GIDC, Vatva - GPCB",26-01-2024 17:00:00,22.969611,72.643500,CO,38,40,39
India,Haryana,Ambala,"Patti Mehar, Ambala - HSPCB",26-01-2024 17:00:00,30.379589,76.778328,CO,35,60,45
India,Haryana,Bahadurgarh,"Arya Nagar, Bahadurgarh - HSPCB",26-01-2024 17:00:00,28.6701,76.9254,OZONE,38,49,44
India,Haryana,Bhiwani,"H.B. Colony, Bhiwani - HSPCB",26-01-2024 17:00:00,28.806223,76.141105,PM10,82,149,113
India,Haryana,Bhiwani,"H.B. Colony, Bhiwani - HSPCB",26-01-2024 17:00:00,28.806223,76.141105,NH3,8,8,8
India,Haryana,Charkhi Dadri,"Mini Secretariat, Charkhi Dadri - HSPCB",26-01-2024 17:00:00,28.593883,76.270653,SO2,8,14,10
India,Haryana,Dharuhera,"Municipal Corporation Office, Dharuhera -  HSPCB",26-01-2024 17:00:00,28.206800,76.799700,NO2,44,113,69
India,Haryana,Faridabad,"Sector 11, Faridabad - HSPCB",26-01-2024 17:00:00,28.376058,77.315741,PM2.5,119,356,275
India,Haryana,Faridabad,"Sector 11, Faridabad - HSPCB",26-01-2024 17:00:00,28.376058,77.315741,NH3,6,6,6
India,Haryana,Faridabad,"Sector 11, Faridabad - HSPCB",26-01-2024 17:00:00,28.376058,77.315741,OZONE,3,8,4
India,Haryana,Faridabad,"Sector 30, Faridabad - HSPCB",26-01-2024 17:00:00,28.4417,77.3217,CO,90,134,108
India,Haryana,Faridabad,"Sector- 16A, Faridabad - HSPCB",26-01-2024 17:00:00,28.4088421,77.3099081,OZONE,14,15,14
India,Haryana,Fatehabad,"Huda Sector, Fatehabad - HSPCB",26-01-2024 17:00:00,29.503664,75.467934,SO2,4,13,8
India,Haryana,Gurugram,"NISE Gwal Pahari, Gurugram - IMD",26-01-2024 17:00:00,28.422681,77.148944,NO2,43,44,43
India,Haryana,Gurugram,"NISE Gwal Pahari, Gurugram - IMD",26-01-2024 17:00:00,28.422681,77.148944,CO,28,86,38
India,Haryana,Gurugram,"Sector-51, Gurugram - HSPCB",26-01-2024 17:00:00,28.4227,77.0667,NH3,7,14,9
India,Haryana,Gurugram,"Sector-51, Gurugram - HSPCB",26-01-2024 17:00:00,28.4227,77.0667,CO,82,116,100
India,Haryana,Gurugram,"Sector-51, Gurugram - HSPCB",26-01-2024 17:00:00,28.4227,77.0667,OZONE,27,67,58
India,Haryana,Gurugram,"Teri Gram, Gurugram - HSPCB",26-01-2024 17:00:00,28.4275,77.1465,PM10,NA,NA,NA
India,Haryana,Gurugram,"Vikas Sadan, Gurugram - HSPCB",26-01-2024 17:00:00,28.4501238,77.0263051,SO2,23,48,29
India,Haryana,Gurugram,"Vikas Sadan, Gurugram - HSPCB",26-01-2024 17:00:00,28.4501238,77.0263051,CO,54,140,101
India,Haryana,Kaithal,"Rishi Nagar, Kaithal - HSPCB",26-01-2024 17:00:00,29.8006,76.4155,NO2,24,26,25
India,Haryana,Kaithal,"Rishi Nagar, Kaithal - HSPCB",26-01-2024 17:00:00,29.8006,76.4155,CO,28,126,114
India,Haryana,Kaithal,"Rishi Nagar, Kaithal - HSPCB",26-01-2024 17:00:00,29.8006,76.4155,OZONE,1,15,4
India,Haryana,Karnal,"Sector-12, Karnal - HSPCB",26-01-2024 17:00:00,29.695300,77.002700,PM10,59,149,116
India,Haryana,Kurukshetra,"Sector-7, Kurukshetra - HSPCB",26-01-2024 17:00:00,29.966942,76.875879,PM2.5,93,324,223
India,Haryana,Kurukshetra,"Sector-7, Kurukshetra - HSPCB",26-01-2024 17:00:00,29.966942,76.875879,NO2,10,11,10
India,Haryana,Mandikhera,"General Hospital, Mandikhera - HSPCB",26-01-2024 17:00:00,27.9002,76.9938,NO2,NA,NA,NA
India,Haryana,Mandikhera,"General Hospital, Mandikhera - HSPCB",26-01-2024 17:00:00,27.9002,76.9938,NH3,NA,NA,NA
India,Haryana,Manesar,"Sector-2 IMT, Manesar - HSPCB",26-01-2024 17:00:00,28.360699,76.936090,PM2.5,132,412,301
India,Haryana,Narnaul,"Shastri Nagar, Narnaul - HSPCB",26-01-2024 17:00:00,28.060249,76.113115,OZONE,54,82,77
India,Haryana,Palwal,"Shyam Nagar, Palwal - HSPCB",26-01-2024 17:00:00,28.1485564,77.3320667,PM10,65,124,91
India,Haryana,Panipat,"Sector-18, Panipat - HSPCB",26-01-2024 17:00:00,29.497973,76.993331,PM10,NA,NA,NA
India,Haryana,Panipat,"Sector-18, Panipat - HSPCB",26-01-2024 17:00:00,29.497973,76.993331,SO2,NA,NA,NA
India,Haryana,Sirsa,"F-Block, Sirsa - HSPCB",26-01-2024 17:00:00,29.536400,75.015800,PM10,33,86,54
India,Haryana,Sirsa,"F-Block, Sirsa - HSPCB",26-01-2024 17:00:00,29.536400,75.015800,NO2,10,10,10
India,Haryana,Sirsa,"F-Block, Sirsa - HSPCB",26-01-2024 17:00:00,29.536400,75.015800,NH3,12,13,13
India,Haryana,Sirsa,"F-Block, Sirsa - HSPCB",26-01-2024 17:00:00,29.536400,75.015800,OZONE,17,65,42
India,Haryana,Yamuna Nagar,"Gobind Pura, Yamuna Nagar - HSPCB",26-01-2024 17:00:00,30.1480566,77.2893471,NO2,11,28,18
India,Himachal Pradesh,Baddi,"HIMUDA Complex Phase-1, Baddi - HPPCB",26-01-2024 17:00:00,30.943887,76.801991,NH3,5,9,7
India,Jharkhand,Dhanbad,"Kalakusuma, Dhanbad - DMC",26-01-2024 17:00:00,23.811548,86.481238,PM2.5,7,217,89
India,Jharkhand,Dhanbad,"Kalakusuma, Dhanbad - DMC",26-01-2024 17:00:00,23.811548,86.481238,CO,78,105,99
India,Karnataka,Bagalkot,"Vidayagiri, Bagalkot - KSPCB",26-01-2024 17:00:00,16.172806,75.659694,NO2,10,11,10
India,Karnataka,Bagalkot,"Vidayagiri, Bagalkot - KSPCB",26-01-2024 17:00:00,16.172806,75.659694,NH3,1,2,1
India,Karnataka,Belgaum,"Ramteerth Nagar, Belgaum - KSPCB",26-01-2024 17:00:00,15.888653,74.541751,PM10,55,118,81
India,Karnataka,Bengaluru,"BTM Layout, Bengaluru - CPCB",26-01-2024 17:00:00,12.9135218,77.5950804,NH3,5,5,5
India,Karnataka,Bengaluru,"BTM Layout, Bengaluru - CPCB",26-01-2024 17:00:00,12.9135218,77.5950804,OZONE,20,43,28
India,Karnataka,Bengaluru,"Bapuji Nagar, Bengaluru - KSPCB",26-01-2024 17:00:00,12.951913,77.539784,OZONE,9,11,11
India,Karnataka,Bengaluru,"City Railway Station, Bengaluru - KSPCB",26-01-2024 17:00:00,12.9756843,77.5660749,NO2,21,31,26
India,Karnataka,Bengaluru,"Hebbal, Bengaluru - KSPCB",26-01-2024 17:00:00,13.029152,77.585901,PM2.5,NA,NA,NA
India,Karnataka,Bengaluru,"Hebbal, Bengaluru - KSPCB",26-01-2024 17:00:00,13.029152,77.585901,NO2,NA,NA,NA
India,Karnataka,Bengaluru,"Hombegowda Nagar, Bengaluru - KSPCB",26-01-2024 17:00:00,12.938539,77.590100,NO2,23,32,28
India,Karnataka,Bengaluru,"Jigani, Bengaluru - KSPCB",26-01-2024 17:00:00,12.7816279,77.6299145,PM10,44,121,86
India,Karnataka,Bengaluru,"Jigani, Bengaluru - KSPCB",26-01-2024 17:00:00,12.7816279,77.6299145,NO2,34,37,37
India,Karnataka,Bengaluru,"Jigani, Bengaluru - KSPCB",26-01-2024 17:00:00,12.7816279,77.6299145,NH3,4,4,4
India,Karnataka,Bengaluru,"Peenya, Bengaluru - CPCB",26-01-2024 17:00:00,13.0270199,77.494094,PM10,24,122,70
India,Karnataka,Bengaluru,"Peenya, Bengaluru - CPCB",26-01-2024 17:00:00,13.0270199,77.494094,NH3,5,5,5
India,Karnataka,Bengaluru,"RVCE-Mailasandra, Bengaluru - KSPCB",26-01-2024 17:00:00,12.921418,77.502466,PM2.5,61,194,98
India,Karnataka,Bengaluru,"RVCE-Mailasandra, Bengaluru - KSPCB",26-01-2024 17:00:00,12.921418,77.502466,NH3,4,4,4
India,Karnataka,Bengaluru,"RVCE-Mailasandra, Bengaluru - KSPCB",26-01-2024 17:00:00,12.921418,77.502466,CO,37,70,47
India,Karnataka,Bengaluru,"Sanegurava Halli, Bengaluru - KSPCB",26-01-2024 17:00:00,12.990328,77.5431385,NO2,22,61,29
India,Karnataka,Bidar,"Naubad, Bidar - KSPCB",26-01-2024 17:00:00,17.930306,77.482194,PM2.5,128,208,171
India,Karnataka,Bidar,"Naubad, Bidar - KSPCB",26-01-2024 17:00:00,17.930306,77.482194,NH3,3,3,3
India,Karnataka,Chamarajanagar,"Urban, Chamarajanagar - KSPCB",26-01-2024 17:00:00,11.55358,76.55521,NO2,28,30,29
India,Karnataka,Chamarajanagar,"Urban, Chamarajanagar - KSPCB",26-01-2024 17:00:00,11.55358,76.55521,OZONE,25,27,26
India,Karnataka,Chikkaballapur,"Chikkaballapur Rural, Chikkaballapur - KSPCB",26-01-2024 17:00:00,13.428828,77.731418,PM10,44,160,72
India,Karnataka,Chikkaballapur,"Chikkaballapur Rural, Chikkaballapur - KSPCB",26-01-2024 17:00:00,13.428828,77.731418,CO,1,22,1
India,Karnataka,Chikkamagaluru,"Kalyana Nagara, Chikkamagaluru - KSPCB",26-01-2024 17:00:00,13.328028,75.797056,PM10,36,50,47
India,Karnataka,Chikkamagaluru,"Kalyana Nagara, Chikkamagaluru - KSPCB",26-01-2024 17:00:00,13.328028,75.797056,NO2,24,33,28
India,Karnataka,Chikkamagaluru,"Kalyana Nagara, Chikkamagaluru - KSPCB",26-01-2024 17:00:00,13.328028,75.797056,CO,11,110,39
India,Karnataka,Davanagere,"Devaraj Urs Badavane, Davanagere - KSPCB",26-01-2024 17:00:00,14.475800,75.905200,CO,14,20,16
India,Karnataka,Davanagere,"Devaraj Urs Badavane, Davanagere - KSPCB",26-01-2024 17:00:00,14.475800,75.905200,OZONE,23,27,25
India,Karnataka,Dharwad,"Kalabhavan, Dharwad - KSPCB",26-01-2024 17:00:00,15.459706,75.008381,NO2,4,32,23
India,Karnataka,Gadag,"Panchal Nagar, Gadag - KSPCB",26-01-2024 17:00:00,15.411456,75.638133,SO2,8,12,10
India,Karnataka,Haveri,"Ashwini Nagar, Haveri - KSPCB",26-01-2024 17:00:00,14.791800,75.389600,NH3,3,5,3
India,Karnataka,Hubballi,"Deshpande Nagar, Hubballi - KSPCB",26-01-2024 17:00:00,15.351773,75.140726,PM10,59,208,112
India,Karnataka,Hubballi,"Deshpande Nagar, Hubballi - KSPCB",26-01-2024 17:00:00,15.351773,75.140726,OZONE,9,51,39
India,Karnataka,Hubballi,"Lingaraj Nagar, Hubballi - KSPCB",26-01-2024 17:00:00,15.3714823,75.1160168,PM2.5,NA,NA,NA
India,Karnataka,Hubballi,"Lingaraj Nagar, Hubballi - KSPCB",26-01-2024 17:00:00,15.3714823,75.1160168,OZONE,41,43,42
India,Karnataka,Kalaburagi,"Lal Bahadur Shastri Nagar, Kalaburagi - KSPCB",26-01-2024 17:00:00,17.321993,76.822628,CO,36,78,38
India,Karnataka,Kalaburagi,"Mahatma Basaveswar Colony, Kalaburgi - KSPCB",26-01-2024 17:00:00,17.336318,76.847397,CO,36,90,41
India,Karnataka,Karwar,"KHB Colony, Karwar - KSPCB",26-01-2024 17:00:00,14.816666,74.141003,PM2.5,35,227,89
India,Karnataka,Karwar,"KHB Colony, Karwar - KSPCB",26-01-2024 17:00:00,14.816666,74.141003,NH3,2,3,2
India,Karnataka,Karwar,"KHB Colony, Karwar - KSPCB",26-01-2024 17:00:00,14.816666,74.141003,CO,1,2,2
India,Karnataka,Kolar,"Tamaka Ind. Area, Kolar - KSPCB",26-01-2024 17:00:00,13.1276288,78.1570122,NO2,2,11,5
India,Karnataka,Madikeri,"Stuart Hill, Madikeri - KSPCB",26-01-2024 17:00:00,12.415911,75.735050,NO2,4,9,7
India,Karnataka,Mangalore,"Kadri, Mangalore - KSPCB",26-01-2024 17:00:00,12.889250,74.853000,PM2.5,36,78,51
India,Karnataka,Mangalore,"Kadri, Mangalore - KSPCB",26-01-2024 17:00:00,12.889250,74.853000,NO2,9,11,10
India,Karnataka,Mangalore,"Kadri, Mangalore - KSPCB",26-01-2024 17:00:00,12.889250,74.853000,NH3,3,3,3
India,Karnataka,Mangalore,"Kadri, Mangalore - KSPCB",26-01-2024 17:00:00,12.889250,74.853000,SO2,17,20,19
India,Karnataka,Mysuru,"Hebbal 1st Stage, Mysuru - KSPCB",26-01-2024 17:00:00,12.21041,76.37376,PM10,38,86,64
India,Karnataka,Mysuru,"Hebbal 1st Stage, Mysuru - KSPCB",26-01-2024 17:00:00,12.21041,76.37376,NH3,1,3,2
India,Karnataka,Mysuru,"Hebbal 1st Stage, Mysuru - KSPCB",26-01-2024 17:00:00,12.21041,76.37376,OZONE,4,92,53
India,Karnataka,Shivamogga,"Vinoba Nagara, Shivamogga - KSPCB",26-01-2024 17:00:00,13.940000,75.555917,CO,19,38,31
India,Karnataka,Tumakuru,"Thimmalapura, Tumakuru - KSPCB",26-01-2024 17:00:00,13.377516,77.099072,PM10,75,173,111
India,Karnataka,Udupi,"Brahmagiri, Udupi - KSPCB",26-01-2024 17:00:00,13.34194444,74.74694444,NH3,1,2,2
India,Karnataka,Vijayapura,"Ibrahimpur, Vijayapura - KSPCB",26-01-2024 17:00:00,16.802639,75.722694,OZONE,13,16,15
India,Kerala,Thiruvananthapuram,"Kariavattom, Thiruvananthapuram - Kerala PCB",26-01-2024 17:00:00,8.563700,76.886500,SO2,1,12,8
India,Kerala,Thiruvananthapuram,"Plammoodu, Thiruvananthapuram - Kerala PCB",26-01-2024 17:00:00,8.5149093,76.9435879,PM2.5,22,56,40
India,Kerala,Thiruvananthapuram,"Plammoodu, Thiruvananthapuram - Kerala PCB",26-01-2024 17:00:00,8.5149093,76.9435879,PM10,NA,NA,NA
India,Kerala,Thiruvananthapuram,"Plammoodu, Thiruvananthapuram - Kerala PCB",26-01-2024 17:00:00,8.5149093,76.9435879,OZONE,6,68,15
India,Kerala,Thrissur,"Corporation Ground, Thrissur - Kerala PCB",26-01-2024 17:00:00,10.532400,76.215900,NH3,1,1,1
India,Kerala,Thrissur,"Corporation Ground, Thrissur - Kerala PCB",26-01-2024 17:00:00,10.532400,76.215900,SO2,NA,NA,NA
India,Kerala,Thrissur,"Corporation Ground, Thrissur - Kerala PCB",26-01-2024 17:00:00,10.532400,76.215900,CO,14,140,23
India,Madhya Pradesh,Bhopal,"Idgah Hills, Bhopal - MPPCB",26-01-2024 17:00:00,23.264759,77.381568,CO,23,79,32
India,Madhya Pradesh,Bhopal,"Paryavaran Parisar, Bhopal - MPPCB",26-01-2024 17:00:00,23.210494,77.425409,OZONE,2,84,53
India,Madhya Pradesh,Gwalior,"Deen Dayal Nagar, Gwalior - MPPCB",26-01-2024 17:00:00,26.259242,78.216432,PM10,66,204,142
India,Madhya Pradesh,Gwalior,"Phool Bagh, Gwalior - Mondelez Ind. Food",26-01-2024 17:00:00,26.210536,78.171,PM10,11,130,89
India,Madhya Pradesh,Indore,"Chhoti Gwaltoli, Indore - MPPCB",26-01-2024 17:00:00,22.4310,75.5213,PM2.5,41,397,168
India,Madhya Pradesh,Indore,"Chhoti Gwaltoli, Indore - MPPCB",26-01-2024 17:00:00,22.4310,75.5213,NO2,62,185,106
India,Madhya Pradesh,Indore,"Maguda Nagar, Indore - IMC",26-01-2024 17:00:00,22.7524,75.8872,NH3,1,1,1
India,Madhya Pradesh,Indore,"Maguda Nagar, Indore - IMC",26-01-2024 17:00:00,22.7524,75.8872,SO2,20,27,22
India,Madhya Pradesh,Indore,"Regional Park, Indore - IMC",26-01-2024 17:00:00,22.6780,75.8559,PM2.5,NA,NA,NA
India,Madhya Pradesh,Jabalpur,"Govindh Bhavan Colony, Jabalpur - JMC",26-01-2024 17:00:00,23.163174,79.973061,CO,17,34,25
India,Madhya Pradesh,Jabalpur,"Govindh Bhavan Colony, Jabalpur - JMC",26-01-2024 17:00:00,23.163174,79.973061,OZONE,14,197,121
India,Madhya Pradesh,Jabalpur,"Gupteshwar, Jabalpur - JMC",26-01-2024 17:00:00,23.142888,79.916147,PM10,30,199,64
India,Madhya Pradesh,Jabalpur,"Marhatal, Jabalpur - MPPCB",26-01-2024 17:00:00,23.168606,79.932247,SO2,17,34,19
India,Madhya Pradesh,Jabalpur,"Marhatal, Jabalpur - MPPCB",26-01-2024 17:00:00,23.168606,79.932247,OZONE,4,43,29
India,Madhya Pradesh,Jabalpur,"Suhagi, Jabalpur - JMC",26-01-2024 17:00:00,23.218135,79.957770,OZONE,6,204,179
India,Madhya Pradesh,Katni,"Gole Bazar, Katni - MPPCB",26-01-2024 17:00:00,23.50016,80.23284,PM2.5,22,313,96
India,Madhya Pradesh,Katni,"Gole Bazar, Katni - MPPCB",26-01-2024 17:00:00,23.50016,80.23284,CO,18,134,27
India,Madhya Pradesh,Katni,"Gole Bazar, Katni - MPPCB",26-01-2024 17:00:00,23.50016,80.23284,OZONE,5,102,77
India,Madhya Pradesh,Pithampur,"Sector-2 Industrial Area, Pithampur - MPPCB",26-01-2024 17:00:00,22.624758,75.675238,PM2.5,30,212,90
India,Madhya Pradesh,Pithampur,"Sector-2 Industrial Area, Pithampur - MPPCB",26-01-2024 17:00:00,22.624758,75.675238,NH3,6,9,8
India,Madhya Pradesh,Sagar,"Civil Lines, Sagar - MPPCB",26-01-2024 17:00:00,23.838586,78.759431,NO2,10,19,13
India,Madhya Pradesh,Sagar,"Civil Lines, Sagar - MPPCB",26-01-2024 17:00:00,23.838586,78.759431,SO2,3,5,4
India,Madhya Pradesh,Sagar,"Deen Dayal Nagar, Sagar - MPPCB",26-01-2024 17:00:00,23.8640158,78.80289321,PM10,26,135,74
India,Madhya Pradesh,Satna,"Bandhavgar Colony, Satna - Birla Cement",26-01-2024 17:00:00,24.58434363,80.8549414,PM2.5,3,39,12
India,Madhya Pradesh,Satna,"Bandhavgar Colony, Satna - Birla Cement",26-01-2024 17:00:00,24.58434363,80.8549414,SO2,4,16,7
India,Madhya Pradesh,Satna,"Bandhavgar Colony, Satna - Birla Cement",26-01-2024 17:00:00,24.58434363,80.8549414,OZONE,57,90,78
India,Madhya Pradesh,Singrauli,"Suryakiran Bhawan NCL, Singrauli - MPPCB",26-01-2024 17:00:00,24.108970,82.645580,NO2,3,18,10
India,Madhya Pradesh,Ujjain,"Mahakaleshwar Temple, Ujjain - MPPCB",26-01-2024 17:00:00,23.182719 ,75.768218 ,CO,24,104,37
India,Maharashtra,Ahmednagar,"Tarakpur, Ahmednagar - MPCB",26-01-2024 17:00:00,19.10122,74.73339,NH3,2,4,3
India,Maharashtra,Akola,"Ramdaspeth, Akola - MPCB",26-01-2024 17:00:00,20.719516,77.000253,NO2,16,114,45
India,Maharashtra,Amravati,"Shivneri Colony, Amravati - MPCB",26-01-2024 17:00:00,20.9402359,77.7895248,PM2.5,60,105,89
India,Maharashtra,Amravati,"Shivneri Colony, Amravati - MPCB",26-01-2024 17:00:00,20.9402359,77.7895248,SO2,8,56,26
India,Maharashtra,Amravati,"Shri Shivaji Science College, Amaravati - MPCB",26-01-2024 17:00:00,20.939198,77.765701,PM2.5,54,155,115
India,Maharashtra,Amravati,"Shri Shivaji Science College, Amaravati - MPCB",26-01-2024 17:00:00,20.939198,77.765701,PM10,89,309,164
India,Maharashtra,Amravati,"Shri Shivaji Science College, Amaravati - MPCB",26-01-2024 17:00:00,20.939198,77.765701,NH3,1,7,3
India,Maharashtra,Amravati,"Shri Shivaji Science College, Amaravati - MPCB",26-01-2024 17:00:00,20.939198,77.765701,SO2,18,62,37
India,Maharashtra,Amravati,"Shri Shivaji Science College, Amaravati - MPCB",26-01-2024 17:00:00,20.939198,77.765701,CO,34,117,46
India,Maharashtra,Aurangabad,"MIDC Chilkalthana, Aurangabad - MPCB",26-01-2024 17:00:00,19.875620,75.387310,PM10,70,287,127
India,Maharashtra,Aurangabad,"MIDC Chilkalthana, Aurangabad - MPCB",26-01-2024 17:00:00,19.875620,75.387310,NH3,3,4,4
India,Maharashtra,Aurangabad,"MIDC Chilkalthana, Aurangabad - MPCB",26-01-2024 17:00:00,19.875620,75.387310,CO,51,103,57
India,Maharashtra,Aurangabad,"Rachnakar Colony, Aurangabad - MPCB",26-01-2024 17:00:00,19.863756,75.321188,NH3,1,1,1
India,Maharashtra,Badlapur,"Katrap, Badlapur - MPCB",26-01-2024 17:00:00,19.16485,73.23409,NO2,35,99,58
India,Maharashtra,Badlapur,"Katrap, Badlapur - MPCB",26-01-2024 17:00:00,19.16485,73.23409,NH3,2,4,3
India,Maharashtra,Badlapur,"Katrap, Badlapur - MPCB",26-01-2024 17:00:00,19.16485,73.23409,CO,28,103,41
India,Maharashtra,Chandrapur,"Chauhan Colony, Chandrapur - MPCB",26-01-2024 17:00:00,19.962900,79.298714,NH3,2,2,2
India,Maharashtra,Chandrapur,"Chauhan Colony, Chandrapur - MPCB",26-01-2024 17:00:00,19.962900,79.298714,SO2,8,123,32
India,Maharashtra,Chandrapur,"Chauhan Colony, Chandrapur - MPCB",26-01-2024 17:00:00,19.962900,79.298714,CO,32,42,35
India,Maharashtra,Dhule,"Deopur, Dhule - MPCB",26-01-2024 17:00:00,20.918946,74.776388,NO2,14,37,21
India,Maharashtra,Jalna,"Old MIDC, Jalna - MPCB",26-01-2024 17:00:00,19.854616,75.905894,NO2,23,60,47
India,Maharashtra,Kalyan,"Khadakpada, Kalyan - MPCB",26-01-2024 17:00:00,19.25292,73.142019,PM2.5,24,269,79
India,Maharashtra,Kalyan,"Khadakpada, Kalyan - MPCB",26-01-2024 17:00:00,19.25292,73.142019,PM10,NA,NA,NA
India,Maharashtra,Kolhapur,"Shivaji University, Kolhapur - MPCB",26-01-2024 17:00:00,16.6870449,74.2505872,NO2,11,123,53
India,Maharashtra,Kolhapur,"Shivaji University, Kolhapur - MPCB",26-01-2024 17:00:00,16.6870449,74.2505872,NH3,1,22,8
India,Maharashtra,Latur,"Sawe Wadi, Latur - MPCB",26-01-2024 17:00:00,18.39963,76.57452,PM2.5,77,203,108
India,Maharashtra,Latur,"Sawe Wadi, Latur - MPCB",26-01-2024 17:00:00,18.39963,76.57452,PM10,55,120,85
India,Maharashtra,Latur,"Sawe Wadi, Latur - MPCB",26-01-2024 17:00:00,18.39963,76.57452,NH3,8,8,8
India,Maharashtra,Mahad,"Kamble Tarf Birwadi, Mahad - MPCB",26-01-2024 17:00:00,18.1023399,73.4783687,NH3,5,6,5
India,Maharashtra,Mahad,"Kamble Tarf Birwadi, Mahad - MPCB",26-01-2024 17:00:00,18.1023399,73.4783687,SO2,11,14,13
India,Maharashtra,Malegaon,"Mahesh Nagar, Malegaon - MPCB",26-01-2024 17:00:00,20.555712,74.529236,PM10,72,403,168
India,Maharashtra,Mira-Bhayandar,"Bhayandar West, Mira-Bhayandar - MPCB",26-01-2024 17:00:00,19.296481,72.840923,NH3,4,14,6
India,Maharashtra,Mumbai,"Bandra Kurla Complex, Mumbai - MPCB",26-01-2024 17:00:00,19.065931,72.862131,PM10,64,416,149
India,Maharashtra,Mumbai,"Bandra Kurla Complex, Mumbai - MPCB",26-01-2024 17:00:00,19.065931,72.862131,NO2,14,65,38
India,Maharashtra,Mumbai,"Bandra Kurla Complex, Mumbai - MPCB",26-01-2024 17:00:00,19.065931,72.862131,SO2,2,26,10
India,Maharashtra,Mumbai,"Borivali East, Mumbai - IITM",26-01-2024 17:00:00,19.23241,72.86895,NO2,37,112,63
India,Maharashtra,Mumbai,"Borivali East, Mumbai - IITM",26-01-2024 17:00:00,19.23241,72.86895,OZONE,6,89,59
India,Maharashtra,Mumbai,"Borivali East, Mumbai - MPCB",26-01-2024 17:00:00,19.2243333,72.8658113,PM2.5,28,87,53
India,Maharashtra,Mumbai,"Byculla, Mumbai - BMC",26-01-2024 17:00:00,18.9767,72.8380,PM10,67,138,107
India,Maharashtra,Mumbai,"Byculla, Mumbai - BMC",26-01-2024 17:00:00,18.9767,72.8380,NO2,30,123,73
India,Maharashtra,Mumbai,"Chakala-Andheri East, Mumbai - IITM",26-01-2024 17:00:00,19.11074,72.86084,PM2.5,84,264,185
India,Maharashtra,Mumbai,"Chakala-Andheri East, Mumbai - IITM",26-01-2024 17:00:00,19.11074,72.86084,SO2,20,91,53
India,Maharashtra,Mumbai,"Chhatrapati Shivaji Intl. Airport (T2), Mumbai - MPCB",26-01-2024 17:00:00,19.10078,72.87462,PM10,71,140,101
India,Maharashtra,Mumbai,"Chhatrapati Shivaji Intl. Airport (T2), Mumbai - MPCB",26-01-2024 17:00:00,19.10078,72.87462,NH3,4,9,7
India,Maharashtra,Mumbai,"Colaba, Mumbai - MPCB",26-01-2024 17:00:00,18.910000,72.820000,NH3,1,1,1
India,Maharashtra,Mumbai,"Deonar, Mumbai - IITM",26-01-2024 17:00:00,19.04946,72.9230,NO2,20,45,28
India,Maharashtra,Mumbai,"Deonar, Mumbai - IITM",26-01-2024 17:00:00,19.04946,72.9230,CO,5,105,62
India,Maharashtra,Mumbai,"Khindipada-Bhandup West, Mumbai - IITM",26-01-2024 17:00:00,19.1653323,72.922099,PM10,91,151,116
India,Maharashtra,Mumbai,"Khindipada-Bhandup West, Mumbai - IITM",26-01-2024 17:00:00,19.1653323,72.922099,SO2,1,5,1
India,Maharashtra,Mumbai,"Kurla, Mumbai - MPCB",26-01-2024 17:00:00,19.0863,72.8888,PM2.5,67,167,102
India,Maharashtra,Mumbai,"Kurla, Mumbai - MPCB",26-01-2024 17:00:00,19.0863,72.8888,OZONE,29,42,35
India,Maharashtra,Mumbai,"Malad West, Mumbai - IITM",26-01-2024 17:00:00,19.19709,72.82204,OZONE,1,56,1
India,Maharashtra,Mumbai,"Mazgaon, Mumbai - IITM",26-01-2024 17:00:00,18.96702,72.84214,PM2.5,103,254,181
India,Maharashtra,Mumbai,"Mindspace-Malad West, Mumbai - MPCB",26-01-2024 17:00:00,19.1878657,72.8304069,CO,32,138,62
India,Maharashtra,Mumbai,"Mulund West, Mumbai - MPCB",26-01-2024 17:00:00,19.1750,72.9419,NO2,25,29,26
India,Maharashtra,Mumbai,"Navy Nagar-Colaba, Mumbai - IITM",26-01-2024 17:00:00,18.897756,72.813320,CO,10,81,61
India,Maharashtra,Mumbai,"Sewri, Mumbai - BMC",26-01-2024 17:00:00,19.000084,72.856730,NO2,38,135,90
India,Maharashtra,Mumbai,"Sewri, Mumbai - BMC",26-01-2024 17:00:00,19.000084,72.856730,SO2,6,34,14
India,Maharashtra,Mumbai,"Sewri, Mumbai - BMC",26-01-2024 17:00:00,19.000084,72.856730,CO,16,108,32
India,Maharashtra,Mumbai,"Sewri, Mumbai - BMC",26-01-2024 17:00:00,19.000084,72.856730,OZONE,1,254,254
India,Maharashtra,Mumbai,"Shivaji Nagar, Mumbai - BMC",26-01-2024 17:00:00,19.060498,72.923356,PM10,110,477,178
India,Maharashtra,Mumbai,"Shivaji Nagar, Mumbai - BMC",26-01-2024 17:00:00,19.060498,72.923356,NH3,1,7,5
India,Maharashtra,Mumbai,"Shivaji Nagar, Mumbai - BMC",26-01-2024 17:00:00,19.060498,72.923356,CO,2,122,16
India,Maharashtra,Mumbai,"Siddharth Nagar-Worli, Mumbai - IITM",26-01-2024 17:00:00,19.000083,72.813993,PM2.5,97,293,192
India,Maharashtra,Mumbai,"Siddharth Nagar-Worli, Mumbai - IITM",26-01-2024 17:00:00,19.000083,72.813993,NO2,43,181,88
India,Maharashtra,Mumbai,"Siddharth Nagar-Worli, Mumbai - IITM",26-01-2024 17:00:00,19.000083,72.813993,CO,6,58,31
India,Maharashtra,Mumbai,"Sion, Mumbai - MPCB",26-01-2024 17:00:00,19.047000,72.874600,NH3,1,3,2
India,Maharashtra,Mumbai,"Vasai West, Mumbai - MPCB",26-01-2024 17:00:00,19.383200,72.820400,PM2.5,22,93,49
India,Maharashtra,Mumbai,"Vasai West, Mumbai - MPCB",26-01-2024 17:00:00,19.383200,72.820400,PM10,44,158,92
India,Maharashtra,Mumbai,"Vasai West, Mumbai - MPCB",26-01-2024 17:00:00,19.383200,72.820400,SO2,21,25,23
India,Maharashtra,Mumbai,"Vasai West, Mumbai - MPCB",26-01-2024 17:00:00,19.383200,72.820400,CO,15,42,21
India,Maharashtra,Mumbai,"Worli, Mumbai - MPCB",26-01-2024 17:00:00,18.9936162,72.8128113,PM2.5,32,73,50
India,Maharashtra,Mumbai,"Worli, Mumbai - MPCB",26-01-2024 17:00:00,18.9936162,72.8128113,SO2,10,12,11
India,Maharashtra,Nagpur,"Ambazari, Nagpur - MPCB",26-01-2024 17:00:00,21.121801,79.04952,SO2,11,120,37
India,Maharashtra,Nagpur,"Ambazari, Nagpur - MPCB",26-01-2024 17:00:00,21.121801,79.04952,CO,10,115,18
India,Maharashtra,Nagpur,"Mahal, Nagpur - MPCB",26-01-2024 17:00:00,21.14472,79.107595,NH3,1,4,2
India,Maharashtra,Nagpur,"Opp GPO Civil Lines, Nagpur - MPCB",26-01-2024 17:00:00,21.152875,79.0517531,PM2.5,81,318,193
India,Maharashtra,Nagpur,"Ram Nagar, Nagpur - MPCB",26-01-2024 17:00:00,21.143383,79.048912,CO,19,100,26
India,Maharashtra,Nagpur,"Ram Nagar, Nagpur - MPCB",26-01-2024 17:00:00,21.143383,79.048912,OZONE,4,78,53
India,Maharashtra,Nanded,"Sneh Nagar, Nanded - MPCB",26-01-2024 17:00:00,19.173852,77.296291,CO,32,44,39
India,Maharashtra,Nanded,"Sneh Nagar, Nanded - MPCB",26-01-2024 17:00:00,19.173852,77.296291,OZONE,4,157,157
India,Maharashtra,Nashik,"Hirawadi, Nashik - MPCB",26-01-2024 17:00:00,20.021503,73.813844,NO2,6,123,44
India,Maharashtra,Nashik,"Hirawadi, Nashik - MPCB",26-01-2024 17:00:00,20.021503,73.813844,NH3,1,2,1
India,Maharashtra,Nashik,"MIDC Ambad, Nashik - MPCB",26-01-2024 17:00:00,19.950220,73.731480,SO2,7,43,15
India,Maharashtra,Nashik,"Pandav Nagari, Nashik - MPCB",26-01-2024 17:00:00,19.9591346,73.7788008,NH3,7,20,9
India,Maharashtra,Nashik,"Pandav Nagari, Nashik - MPCB",26-01-2024 17:00:00,19.9591346,73.7788008,OZONE,3,110,73
India,Maharashtra,Navi Mumbai,"Kopripada-Vashi, Navi Mumbai - MPCB",26-01-2024 17:00:00,19.090337,73.014232,PM10,71,165,103
India,Maharashtra,Navi Mumbai,"Kopripada-Vashi, Navi Mumbai - MPCB",26-01-2024 17:00:00,19.090337,73.014232,SO2,22,57,37
India,Maharashtra,Navi Mumbai,"Mahape, Navi Mumbai - MPCB",26-01-2024 17:00:00,19.1135051,73.008978,PM10,57,176,114
India,Maharashtra,Navi Mumbai,"Mahape, Navi Mumbai - MPCB",26-01-2024 17:00:00,19.1135051,73.008978,NH3,3,3,3
India,Maharashtra,Navi Mumbai,"Mahape, Navi Mumbai - MPCB",26-01-2024 17:00:00,19.1135051,73.008978,OZONE,30,75,42
India,Maharashtra,Navi Mumbai,"Nerul, Navi Mumbai - MPCB",26-01-2024 17:00:00,19.008751,73.016620,PM2.5,40,217,99
India,Maharashtra,Navi Mumbai,"Nerul, Navi Mumbai - MPCB",26-01-2024 17:00:00,19.008751,73.016620,SO2,12,13,12
India,Maharashtra,Navi Mumbai,"Nerul, Navi Mumbai - MPCB",26-01-2024 17:00:00,19.008751,73.016620,CO,43,98,78
India,Maharashtra,Navi Mumbai,"Sanpada, Navi Mumbai - MPCB",26-01-2024 17:00:00,19.0575752,73.0151367,PM2.5,41,141,87
India,Maharashtra,Navi Mumbai,"Sector-19A Nerul, Navi Mumbai - IITM",26-01-2024 17:00:00,19.044,73.0325,PM2.5,138,338,257
India,Maharashtra,Navi Mumbai,"Sector-2E Kalamboli, Navi Mumbai - MPCB",26-01-2024 17:00:00,19.02579,73.10297,OZONE,1,104,59
India,Maharashtra,Navi Mumbai,"Tondare-Taloja, Navi Mumbai - MPCB",26-01-2024 17:00:00,19.0630,73.1209,NH3,3,10,6
India,Maharashtra,Parbhani,"Masoom Colony, Parbhani - MPCB",26-01-2024 17:00:00,19.265594,76.761463,NH3,4,4,4
India,Maharashtra,Parbhani,"Masoom Colony, Parbhani - MPCB",26-01-2024 17:00:00,19.265594,76.761463,OZONE,16,141,113
India,Maharashtra,Pimpri-Chinchwad,"Gavalinagar, Pimpri Chinchwad - MPCB",26-01-2024 17:00:00,18.63673,73.82487,CO,20,120,40
India,Maharashtra,Pimpri-Chinchwad,"Park Street Wakad, Pimpri Chinchwad - MPCB",26-01-2024 17:00:00,18.59051,73.77946,NO2,64,180,119
India,Maharashtra,Pimpri-Chinchwad,"Park Street Wakad, Pimpri Chinchwad - MPCB",26-01-2024 17:00:00,18.59051,73.77946,NH3,9,28,17
India,Maharashtra,Pimpri-Chinchwad,"Thergaon, Pimpri Chinchwad - MPCB",26-01-2024 17:00:00,18.616318,73.765797,SO2,4,15,8
India,Maharashtra,Pune,"Bhosari, Pune - IITM",26-01-2024 17:00:00,18.640051,73.848956,PM10,76,291,179
India,Maharashtra,Pune,"Bhosari, Pune - IITM",26-01-2024 17:00:00,18.640051,73.848956,CO,38,56,40
India,Maharashtra,Pune,"Karve Road, Pune - MPCB",26-01-2024 17:00:00,18.5011743,73.8165527,PM2.5,94,96,96
India,Maharashtra,Pune,"Katraj Dairy, Pune - MPCB",26-01-2024 17:00:00,18.454450,73.854155,NO2,31,64,48
India,Maharashtra,Pune,"Katraj Dairy, Pune - MPCB",26-01-2024 17:00:00,18.454450,73.854155,SO2,2,19,10
India,Maharashtra,Pune,"Revenue Colony-Shivajinagar, Pune - IITM",26-01-2024 17:00:00,18.530085,73.849598,PM2.5,66,316,206
India,Maharashtra,Pune,"Revenue Colony-Shivajinagar, Pune - IITM",26-01-2024 17:00:00,18.530085,73.849598,OZONE,6,76,47
India,Maharashtra,Pune,"Savitribai Phule Pune University, Pune - MPCB",26-01-2024 17:00:00,18.547056,73.826908,PM2.5,44,214,155
India,Maharashtra,Sangli,"Vijay Nagar, Sangli - MPCB",26-01-2024 17:00:00, 16.5038,74.3623,PM2.5,68,303,179
India,Maharashtra,Sangli,"Vijay Nagar, Sangli - MPCB",26-01-2024 17:00:00, 16.5038,74.3623,NO2,11,102,41
India,Maharashtra,Sangli,"Vijay Nagar, Sangli - MPCB",26-01-2024 17:00:00, 16.5038,74.3623,OZONE,1,66,50
India,Maharashtra,Solapur,"Dnyaneshwar Nagar, Solapur - MPCB",26-01-2024 17:00:00,17.6336264,75.9132495,PM2.5,82,178,124
India,Maharashtra,Solapur,"Ratandeep Housing Society, Solapur - MPCB",26-01-2024 17:00:00,17.65439,75.90649,OZONE,1,38,35
India,Maharashtra,Solapur,"Solapur, Solapur - MPCB",26-01-2024 17:00:00,17.6599188,75.9063906,PM2.5,NA,NA,NA
India,Maharashtra,Thane,"Kasarvadavali, Thane - MPCB",26-01-2024 17:00:00,19.26777,72.97182,PM10,111,199,162
India,Maharashtra,Thane,"Kasarvadavali, Thane - MPCB",26-01-2024 17:00:00,19.26777,72.97182,NH3,2,10,5
India,Maharashtra,Ulhasnagar,"Sidhi Vinayak Nagar, Ulhasnagar - MPCB",26-01-2024 17:00:00,19.235581,73.159121,PM2.5,56,373,194
India,Maharashtra,Virar,"Bolinj, Virar - MPCB",26-01-2024 17:00:00,19.4458210,72.7988231,PM10,111,440,175
India,Manipur,Imphal,"DM College of Science, Imphal - Manipur PCB",26-01-2024 17:00:00,24.8207389,93.9423085,NO2,7,8,8
India,Manipur,Imphal,"Manipur University, Imphal - Manipur PCB",26-01-2024 17:00:00,24.7524239,93.9286218,OZONE,1,34,22
India,Meghalaya,Shillong,"JN Stadium, Shillong - Meghalaya PCB",26-01-2024 17:00:00,25.5803419,91.8942571,PM10,18,87,43
India,Meghalaya,Shillong,"JN Stadium, Shillong - Meghalaya PCB",26-01-2024 17:00:00,25.5803419,91.8942571,NH3,3,6,4
India,Meghalaya,Shillong,"Lumpyngngad, Shillong - Meghalaya PCB",26-01-2024 17:00:00,25.5586,91.8985,OZONE,63,110,91
India,Mizoram,Aizawl,"Sikulpuikawn, Aizawl - Mizoram PCB",26-01-2024 17:00:00,23.7176342,92.7192841,NO2,1,3,1
India,Nagaland,Kohima,"PWD Juction, Kohima - NPCB",26-01-2024 17:00:00,25.6635413,94.0989878,NO2,3,4,3
India,Nagaland,Kohima,"PWD Juction, Kohima - NPCB",26-01-2024 17:00:00,25.6635413,94.0989878,NH3,1,1,1
India,Odisha,Bhubaneswar,"Lingraj Mandir, Bhubaneswar - OSPCB",26-01-2024 17:00:00,20.240790,85.836784,PM2.5,97,417,267
India,Odisha,Bhubaneswar,"Lingraj Mandir, Bhubaneswar - OSPCB",26-01-2024 17:00:00,20.240790,85.836784,OZONE,60,205,205
India,Odisha,Bhubaneswar,"Patia, Bhubaneswar - OSPCB",26-01-2024 17:00:00,20.34652,85.81630,PM10,88,176,132
India,Odisha,Bhubaneswar,"Patia, Bhubaneswar - OSPCB",26-01-2024 17:00:00,20.34652,85.81630,SO2,7,43,17
India,Odisha,Bileipada,"Tata Township, Bileipada - OSPCB",26-01-2024 17:00:00,22.06156703,85.47409613,SO2,32,102,43
India,Odisha,Brajrajnagar,"GM Office, Brajrajnagar - OSPCB",26-01-2024 17:00:00,21.8004996,83.8396977,PM10,32,149,70
India,Odisha,Brajrajnagar,"GM Office, Brajrajnagar - OSPCB",26-01-2024 17:00:00,21.8004996,83.8396977,NH3,2,4,3
India,Odisha,Byasanagar,"Ferro Chrome Colony, Byasanagar - OSPCB",26-01-2024 17:00:00,20.94185,86.11510,NO2,15,46,23
India,Odisha,Byasanagar,"Ferro Chrome Colony, Byasanagar - OSPCB",26-01-2024 17:00:00,20.94185,86.11510,CO,36,119,84
India,Odisha,Cuttack,"CDA Area, Cuttack - OSPCB",26-01-2024 17:00:00,20.48891     ,85.84768     ,PM2.5,113,337,262
India,Odisha,Cuttack,"CDA Area, Cuttack - OSPCB",26-01-2024 17:00:00,20.48891     ,85.84768     ,CO,38,74,43
India,Odisha,Keonjhar,"Jagamohanpur, Keonjhar - OSPCB",26-01-2024 17:00:00,21.643900,85.599355,OZONE,NA,NA,NA
India,Odisha,Nayagarh,"Dabuna, Nayagarh - OSPCB",26-01-2024 17:00:00,21.847279,85.416905,NH3,4,5,4
India,Odisha,Rairangpur,"Divisional Forest Office, Rairangpur - OSPCB",26-01-2024 17:00:00,22.265816,86.174829,PM10,NA,NA,NA
India,Odisha,Rourkela,"Raghunathpali, Rourkela - OSPCB",26-01-2024 17:00:00,22.220833,84.809444,PM2.5,77,245,139
India,Odisha,Rourkela,"Raghunathpali, Rourkela - OSPCB",26-01-2024 17:00:00,22.220833,84.809444,NO2,25,138,60
India,Odisha,Rourkela,"Sector-2, Rourkela - OSPCB",26-01-2024 17:00:00,22.24500000,84.88111111,PM10,36,73,55
India,Odisha,Talcher,"Talcher Coalfields,Talcher - OSPCB",26-01-2024 17:00:00,20.9360711,85.1707021,PM2.5,20,433,250
India,Odisha,Tensa,"Barsua Iron Ore Mines, Tensa - OSPCB",26-01-2024 17:00:00,21.869985,85.167016,PM2.5,42,115,65
India,Puducherry,Puducherry,"Jawahar Nagar, Puducherry - PPCC",26-01-2024 17:00:00,11.9309,79.8027,CO,36,66,52
India,Punjab,Amritsar,"Golden Temple, Amritsar - PPCB",26-01-2024 17:00:00,31.620000,74.876512,SO2,23,30,25
India,Punjab,Amritsar,"Golden Temple, Amritsar - PPCB",26-01-2024 17:00:00,31.620000,74.876512,OZONE,22,29,26
India,Punjab,Bathinda,"Hardev Nagar, Bathinda - PPCB",26-01-2024 17:00:00,30.233011,74.907758,SO2,2,93,33
India,Punjab,Jalandhar,"Civil Line, Jalandhar - PPCB",26-01-2024 17:00:00,31.321907,75.578914,OZONE,4,63,44
India,Punjab,Ludhiana,"Punjab Agricultural University, Ludhiana - PPCB",26-01-2024 17:00:00,30.9028,75.8086,PM2.5,NA,NA,NA
India,Punjab,Ludhiana,"Punjab Agricultural University, Ludhiana - PPCB",26-01-2024 17:00:00,30.9028,75.8086,NH3,5,11,8
India,Punjab,Patiala,"Model Town, Patiala - PPCB",26-01-2024 17:00:00,30.349388,76.366642,PM10,63,123,98
India,Punjab,Patiala,"Model Town, Patiala - PPCB",26-01-2024 17:00:00,30.349388,76.366642,CO,42,61,54
India,Punjab,Rupnagar,"Ratanpura, Rupnagar - Ambuja Cements",26-01-2024 17:00:00,31.0325454,76.5623046,CO,32,52,42
India,Rajasthan,Ajmer,"Civil Lines,  Ajmer - RSPCB",26-01-2024 17:00:00,26.470859,74.646594,NH3,15,46,30
India,Rajasthan,Ajmer,"Civil Lines,  Ajmer - RSPCB",26-01-2024 17:00:00,26.470859,74.646594,OZONE,3,74,52
India,Rajasthan,Alwar,"Moti Doongri, Alwar - RSPCB",26-01-2024 17:00:00,27.554793,76.611536,PM2.5,64,304,173
India,Rajasthan,Baran,"Bamboliya, Baran - RSPCB",26-01-2024 17:00:00,25.106006,76.469948,CO,26,66,36
India,Rajasthan,Bharatpur,"Krishna Nagar, Bharatpur - RSPCB",26-01-2024 17:00:00,27.215415,77.50873,NO2,43,71,59
India,Rajasthan,Bharatpur,"Krishna Nagar, Bharatpur - RSPCB",26-01-2024 17:00:00,27.215415,77.50873,CO,80,129,122
India,Rajasthan,Bhilwara,"Pratap Nagar, Bhilwara - RSPCB",26-01-2024 17:00:00,25.339605,74.618883,NO2,20,119,50
India,Rajasthan,Bhilwara,"Pratap Nagar, Bhilwara - RSPCB",26-01-2024 17:00:00,25.339605,74.618883,OZONE,4,123,84
India,Rajasthan,Bhiwadi,"RIICO Ind. Area III, Bhiwadi - RSPCB",26-01-2024 17:00:00,28.194909,76.862296,NO2,14,26,21
India,Rajasthan,Bikaner,"MM Ground, Bikaner - RSPCB",26-01-2024 17:00:00,28.018792,73.292658,NH3,12,17,15
India,Rajasthan,Bundi,"New Colony, Bundi - RSPCB",26-01-2024 17:00:00,25.435774,75.644272,NO2,19,103,48
India,Rajasthan,Chittorgarh,"Shastri Nagar, Chittorgarh - RSPCB",26-01-2024 17:00:00,24.892047,74.623527,NO2,17,125,71
India,Rajasthan,Chittorgarh,"Shastri Nagar, Chittorgarh - RSPCB",26-01-2024 17:00:00,24.892047,74.623527,OZONE,2,100,54
India,Rajasthan,Dungarpur,"Bhoiwada, Dungarpur - RSPCB",26-01-2024 17:00:00,23.837789,73.714926,NO2,21,58,37
India,Rajasthan,Jaipur,"Adarsh Nagar, Jaipur - RSPCB",26-01-2024 17:00:00,26.902909,75.836858,NO2,22,132,51
India,Rajasthan,Jaipur,"Mansarovar Sector-12, Jaipur - RSPCB",26-01-2024 17:00:00,26.843698,75.766894,CO,36,117,51
India,Rajasthan,Jaipur,"Police Commissionerate, Jaipur - RSPCB",26-01-2024 17:00:00,26.9164092,75.7994901,CO,33,74,41
India,Rajasthan,Jaipur,"Shastri Nagar, Jaipur - RSPCB",26-01-2024 17:00:00,26.9502929,75.730943,PM10,105,154,127
India,Rajasthan,Jaipur,"Shastri Nagar, Jaipur - RSPCB",26-01-2024 17:00:00,26.9502929,75.730943,NO2,30,141,65
India,Rajasthan,Jaipur,"Shastri Nagar, Jaipur - RSPCB",26-01-2024 17:00:00,26.9502929,75.730943,SO2,13,23,18
India,Rajasthan,Jaisalmer,"Sadar Bazar, Jaisalmer - RSPCB",26-01-2024 17:00:00,26.912329,70.909168,PM10,118,212,163
India,Rajasthan,Jaisalmer,"Sadar Bazar, Jaisalmer - RSPCB",26-01-2024 17:00:00,26.912329,70.909168,NO2,9,70,22
India,Rajasthan,Jalore,"Mudtra Sili, Jalore - RSPCB",26-01-2024 17:00:00,25.344694,72.626208,PM10,83,407,177
India,Rajasthan,Jhalawar,"Rajlaxmi Nagar, Jhalawar - RSPCB",26-01-2024 17:00:00,24.588397,76.172782,NO2,9,61,25
India,Rajasthan,Jhunjhunu,"Indra Nagar, Jhunjhunu - RSPCB",26-01-2024 17:00:00,28.108988,75.386577,PM10,107,444,202
India,Rajasthan,Jhunjhunu,"Indra Nagar, Jhunjhunu - RSPCB",26-01-2024 17:00:00,28.108988,75.386577,SO2,2,13,5
India,Rajasthan,Jodhpur,"Collectorate, Jodhpur - RSPCB",26-01-2024 17:00:00,26.268249,73.0193853,PM2.5,NA,NA,NA
India,Rajasthan,Jodhpur,"Collectorate, Jodhpur - RSPCB",26-01-2024 17:00:00,26.268249,73.0193853,SO2,NA,NA,NA
India,Rajasthan,Jodhpur,"Jhalamand, Jodhpur - RSPCB",26-01-2024 17:00:00,26.215415,73.070156,PM2.5,18,306,112
India,Rajasthan,Jodhpur,"Jhalamand, Jodhpur - RSPCB",26-01-2024 17:00:00,26.215415,73.070156,SO2,3,16,9
India,Rajasthan,Jodhpur,"Jhalamand, Jodhpur - RSPCB",26-01-2024 17:00:00,26.215415,73.070156,OZONE,3,116,86
India,Rajasthan,Jodhpur,"Samrat Ashok Udhyan, Jodhpur - RSPCB",26-01-2024 17:00:00,26.253384,72.976571,PM10,50,500,177
India,Rajasthan,Jodhpur,"Samrat Ashok Udhyan, Jodhpur - RSPCB",26-01-2024 17:00:00,26.253384,72.976571,NO2,11,160,67
India,Rajasthan,Karauli,"Satyawati Vihar, Karauli - RSPCB",26-01-2024 17:00:00,26.506177,77.025989,PM2.5,95,332,225
India,Rajasthan,Karauli,"Satyawati Vihar, Karauli - RSPCB",26-01-2024 17:00:00,26.506177,77.025989,NH3,8,9,9
India,Rajasthan,Kota,"Dhanmandi, Kota - RSPCB",26-01-2024 17:00:00,25.164090,75.858137,PM10,NA,NA,NA
India,Rajasthan,Kota,"Dhanmandi, Kota - RSPCB",26-01-2024 17:00:00,25.164090,75.858137,NH3,NA,NA,NA
India,Rajasthan,Kota,"Nayapura, Kota - RSPCB",26-01-2024 17:00:00,25.196024,75.855668,PM2.5,114,366,237
India,Rajasthan,Kota,"Nayapura, Kota - RSPCB",26-01-2024 17:00:00,25.196024,75.855668,PM10,107,214,145
India,Rajasthan,Kota,"Nayapura, Kota - RSPCB",26-01-2024 17:00:00,25.196024,75.855668,NO2,24,88,50
India,Rajasthan,Kota,"Nayapura, Kota - RSPCB",26-01-2024 17:00:00,25.196024,75.855668,NH3,6,13,9
India,Rajasthan,Kota,"Nayapura, Kota - RSPCB",26-01-2024 17:00:00,25.196024,75.855668,SO2,9,32,13
India,Rajasthan,Kota,"Shrinath Puram, Kota - RSPCB",26-01-2024 17:00:00,25.14389,75.821256,NH3,5,10,8
India,Rajasthan,Pali,"Indira Colony Vistar, Pali - RSPCB",26-01-2024 17:00:00,25.771061, 73.340227,PM2.5,16,354,130
India,Rajasthan,Pali,"Indira Colony Vistar, Pali - RSPCB",26-01-2024 17:00:00,25.771061, 73.340227,PM10,73,251,127
India,Rajasthan,Pali,"Indira Colony Vistar, Pali - RSPCB",26-01-2024 17:00:00,25.771061, 73.340227,NO2,18,70,40
India,Rajasthan,Pali,"Indira Colony Vistar, Pali - RSPCB",26-01-2024 17:00:00,25.771061, 73.340227,NH3,6,17,13
India,Rajasthan,Pratapgarh,"Pragati Nagar, Pratapgarh - RSPCB",26-01-2024 17:00:00,24.041198,74.780702,NO2,12,44,22
India,Rajasthan,Rajsamand,"Dhoinda, Rajsamand - RSPCB",26-01-2024 17:00:00,25.036360,73.883502,SO2,4,10,6
India,Rajasthan,Rajsamand,"Dhoinda, Rajsamand - RSPCB",26-01-2024 17:00:00,25.036360,73.883502,OZONE,1,67,48
India,Rajasthan,Sawai Madhopur,"Sahu Nagar, Sawai Madhopur - RSPCB",26-01-2024 17:00:00,26.031443,76.359327,PM2.5,38,209,93
India,Rajasthan,Sawai Madhopur,"Sahu Nagar, Sawai Madhopur - RSPCB",26-01-2024 17:00:00,26.031443,76.359327,SO2,4,13,9
India,Rajasthan,Sirohi,"Vedhaynath Colony, Sirohi - RSPCB",26-01-2024 17:00:00,24.885261,72.857549,SO2,3,15,7
India,Rajasthan,Sirohi,"Vedhaynath Colony, Sirohi - RSPCB",26-01-2024 17:00:00,24.885261,72.857549,CO,5,76,22
India,Rajasthan,Sirohi,"Vedhaynath Colony, Sirohi - RSPCB",26-01-2024 17:00:00,24.885261,72.857549,OZONE,10,148,108
India,Rajasthan,Tonk,"Shastri Nagar, Tonk - RSPCB",26-01-2024 17:00:00,26.159933,75.780517,NH3,5,23,10
India,Rajasthan,Udaipur,"Ashok Nagar, Udaipur - RSPCB",26-01-2024 17:00:00,24.5886166,73.6321397,OZONE,10,19,13
India,Sikkim,Gangtok,"Zero Point GICI, Gangtok - SSPCB",26-01-2024 17:00:00,27.338530,88.614099,PM10,28,51,39
India,Sikkim,Gangtok,"Zero Point GICI, Gangtok - SSPCB",26-01-2024 17:00:00,27.338530,88.614099,NH3,1,1,1
India,TamilNadu,Ariyalur,"Keelapalur, Ariyalur - TNPCB",26-01-2024 17:00:00,11.06825,79.07033,SO2,21,22,22
India,TamilNadu,Chennai,"Alandur Bus Depot, Chennai - CPCB",26-01-2024 17:00:00,12.9099161,80.1076538,NH3,7,16,10
India,TamilNadu,Chennai,"Alandur Bus Depot, Chennai - CPCB",26-01-2024 17:00:00,12.9099161,80.1076538,SO2,1,3,1
India,TamilNadu,Chennai,"Arumbakkam, Chennai - TNPCB",26-01-2024 17:00:00,13.0664,80.2112 ,PM10,43,125,78
India,TamilNadu,Chennai,"Gandhi Nagar_Ennore, Chennai - TNPCB",26-01-2024 17:00:00,13.218341,80.32027,PM2.5,34,249,72
India,TamilNadu,Chennai,"Gandhi Nagar_Ennore, Chennai - TNPCB",26-01-2024 17:00:00,13.218341,80.32027,NH3,1,3,2
India,TamilNadu,Chennai,"Kodungaiyur, Chennai - TNPCB",26-01-2024 17:00:00,13.1278,80.2642,SO2,3,13,7
India,TamilNadu,Chennai,"Kodungaiyur, Chennai - TNPCB",26-01-2024 17:00:00,13.1278,80.2642,OZONE,6,7,6
India,TamilNadu,Chennai,"Manali, Chennai - CPCB",26-01-2024 17:00:00,13.164544,80.26285,CO,24,111,75
India,TamilNadu,Chennai,"Perungudi, Chennai - TNPCB",26-01-2024 17:00:00,12.9533,80.2357,PM10,58,416,109
India,TamilNadu,Chennai,"Perungudi, Chennai - TNPCB",26-01-2024 17:00:00,12.9533,80.2357,SO2,1,7,2
India,TamilNadu,Chennai,"Perungudi, Chennai - TNPCB",26-01-2024 17:00:00,12.9533,80.2357,CO,20,48,34
India,TamilNadu,Chennai,"Perungudi, Chennai - TNPCB",26-01-2024 17:00:00,12.9533,80.2357,OZONE,4,8,6
India,TamilNadu,Chennai,"Royapuram, Chennai - TNPCB",26-01-2024 17:00:00,13.1036,80.2909,CO,13,60,30
India,TamilNadu,Chennai,"Velachery Res. Area, Chennai - CPCB",26-01-2024 17:00:00,13.0052189,80.2398125,NO2,12,75,31
India,TamilNadu,Chennai,"Velachery Res. Area, Chennai - CPCB",26-01-2024 17:00:00,13.0052189,80.2398125,SO2,11,11,11
India,TamilNadu,Gummidipoondi,"Anthoni Pillai Nagar, Gummidipoondi - TNPCB",26-01-2024 17:00:00,13.4127,80.1081,NH3,2,2,2
India,TamilNadu,Gummidipoondi,"Anthoni Pillai Nagar, Gummidipoondi - TNPCB",26-01-2024 17:00:00,13.4127,80.1081,SO2,2,111,35
India,TamilNadu,Palkalaiperur,"Bharathidasan University, Palkalaiperur - TNPCB",26-01-2024 17:00:00,10.681158,78.741746,PM2.5,NA,NA,NA
India,TamilNadu,Palkalaiperur,"Bharathidasan University, Palkalaiperur - TNPCB",26-01-2024 17:00:00,10.681158,78.741746,OZONE,1,1,1
India,TamilNadu,Ramanathapuram,"Chalai Bazaar, Ramanathapuram - TNPCB",26-01-2024 17:00:00,9.36399,78.831977,OZONE,13,14,14
India,TamilNadu,Thoothukudi,"Meelavittan, Thoothukudi - TNPCB",26-01-2024 17:00:00,8.816428 ,78.099039,NO2,29,50,39
India,TamilNadu,Thoothukudi,"Meelavittan, Thoothukudi - TNPCB",26-01-2024 17:00:00,8.816428 ,78.099039,OZONE,3,93,41
India,TamilNadu,Tirupur,"Kumaran College, Tirupur - TNPCB",26-01-2024 17:00:00,11.0973603,77.3228673,NO2,6,62,21
India,TamilNadu,Tirupur,"Kumaran College, Tirupur - TNPCB",26-01-2024 17:00:00,11.0973603,77.3228673,NH3,NA,NA,NA
India,TamilNadu,Tirupur,"Kumaran College, Tirupur - TNPCB",26-01-2024 17:00:00,11.0973603,77.3228673,OZONE,6,7,7
India,TamilNadu,Vellore,"Vasanthapuram, Vellore - TNPCB",26-01-2024 17:00:00,12.909494,79.131861,PM10,NA,NA,NA
India,TamilNadu,Vellore,"Vasanthapuram, Vellore - TNPCB",26-01-2024 17:00:00,12.909494,79.131861,SO2,NA,NA,NA
India,TamilNadu,Virudhunagar,"Collectorate Office, Virudhunagar - TNPCB",26-01-2024 17:00:00,9.559382,77.948828,NO2,14,45,26
India,TamilNadu,Virudhunagar,"Collectorate Office, Virudhunagar - TNPCB",26-01-2024 17:00:00,9.559382,77.948828,NH3,2,3,2
India,TamilNadu,Virudhunagar,"Collectorate Office, Virudhunagar - TNPCB",26-01-2024 17:00:00,9.559382,77.948828,CO,20,38,27
India,TamilNadu,Virudhunagar,"Collectorate Office, Virudhunagar - TNPCB",26-01-2024 17:00:00,9.559382,77.948828,OZONE,1,4,3
India,Telangana,Hyderabad,"Bollaram Industrial Area, Hyderabad - TSPCB",26-01-2024 17:00:00,17.540891,78.358528,PM10,74,152,112
India,Telangana,Hyderabad,"Bollaram Industrial Area, Hyderabad - TSPCB",26-01-2024 17:00:00,17.540891,78.358528,NH3,2,3,3
India,Telangana,Hyderabad,"Central University, Hyderabad - TSPCB",26-01-2024 17:00:00,17.460103,78.334361,PM2.5,46,82,67
India,Telangana,Hyderabad,"Central University, Hyderabad - TSPCB",26-01-2024 17:00:00,17.460103,78.334361,NO2,19,105,45
India,Telangana,Hyderabad,"Central University, Hyderabad - TSPCB",26-01-2024 17:00:00,17.460103,78.334361,NH3,3,17,7
India,Telangana,Hyderabad,"ICRISAT Patancheru, Hyderabad - TSPCB",26-01-2024 17:00:00,17.518400,78.278777,PM10,68,136,102
India,Telangana,Hyderabad,"IITH Kandi, Hyderabad - TSPCB",26-01-2024 17:00:00,17.585705,78.126199,CO,5,59,38
India,Telangana,Hyderabad,"Kokapet, Hyderabad - TSPCB",26-01-2024 17:00:00,17.393559,78.339194,CO,14,18,14
India,Telangana,Hyderabad,"Kompally Municipal Office, Hyderabad - TSPCB",26-01-2024 17:00:00,17.544899,78.486949,PM2.5,NA,NA,NA
India,Telangana,Hyderabad,"Ramachandrapuram, Hyderabad - TSPCB",26-01-2024 17:00:00,17.528544,78.286195,NH3,2,3,2
India,Telangana,Hyderabad,"Ramachandrapuram, Hyderabad - TSPCB",26-01-2024 17:00:00,17.528544,78.286195,OZONE,30,60,49
India,Telangana,Hyderabad,"Sanathnagar, Hyderabad - TSPCB",26-01-2024 17:00:00,17.4559458,78.4332152,CO,36,46,39
India,Telangana,Hyderabad,"Somajiguda, Hyderabad - TSPCB",26-01-2024 17:00:00,17.417094,78.457437,NO2,18,27,22
India,Telangana,Hyderabad,"Zoo Park, Hyderabad - TSPCB",26-01-2024 17:00:00,17.349694,78.451437,NH3,1,1,1
India,Telangana,Hyderabad,"Zoo Park, Hyderabad - TSPCB",26-01-2024 17:00:00,17.349694,78.451437,SO2,1,5,3
India,Telangana,Hyderabad,"Zoo Park, Hyderabad - TSPCB",26-01-2024 17:00:00,17.349694,78.451437,OZONE,20,29,24
India,Tripura,Agartala,"Bardowali, Agartala - Tripura SPCB",26-01-2024 17:00:00,23.8175497,91.2726974,NH3,2,3,3
India,Tripura,Agartala,"Bardowali, Agartala - Tripura SPCB",26-01-2024 17:00:00,23.8175497,91.2726974,CO,40,86,45
India,Uttar_Pradesh,Agra,"Rohta, Agra - UPPCB",26-01-2024 17:00:00,27.106972,78.000111,PM10,44,152,90
India,Uttar_Pradesh,Agra,"Rohta, Agra - UPPCB",26-01-2024 17:00:00,27.106972,78.000111,NO2,9,9,9
India,Uttar_Pradesh,Agra,"Sanjay Palace, Agra - UPPCB",26-01-2024 17:00:00,27.19865833,78.00598056,OZONE,12,56,37
India,Uttar_Pradesh,Agra,"Sector-3B Avas Vikas Colony, Agra - UPPCB",26-01-2024 17:00:00,27.19412,77.96237,SO2,14,16,15
India,Uttar_Pradesh,Agra,"Sector-3B Avas Vikas Colony, Agra - UPPCB",26-01-2024 17:00:00,27.19412,77.96237,CO,26,44,28
India,Uttar_Pradesh,Agra,"Sector-3B Avas Vikas Colony, Agra - UPPCB",26-01-2024 17:00:00,27.19412,77.96237,OZONE,13,15,14
India,Uttar_Pradesh,Agra,"Shahjahan Garden, Agra - UPPCB",26-01-2024 17:00:00,27.169338,78.03582,PM2.5,55,213,112
India,Uttar_Pradesh,Agra,"Shastripuram, Agra - UPPCB",26-01-2024 17:00:00,27.19862,77.92066,NO2,27,34,32
India,Uttar_Pradesh,Agra,"Shastripuram, Agra - UPPCB",26-01-2024 17:00:00,27.19862,77.92066,SO2,17,22,18
India,Uttar_Pradesh,Agra,"Shastripuram, Agra - UPPCB",26-01-2024 17:00:00,27.19862,77.92066,OZONE,2,12,7
India,Uttar_Pradesh,Baghpat,"Sardar Patel Inter College, Baghpat - UPPCB",26-01-2024 17:00:00,28.964949,77.278761,NO2,36,65,49
India,Uttar_Pradesh,Bareilly,"Civil Lines, Bareilly - UPPCB",26-01-2024 17:00:00,28.359581,79.414455,NO2,22,48,30
India,Uttar_Pradesh,Bareilly,"Civil Lines, Bareilly - UPPCB",26-01-2024 17:00:00,28.359581,79.414455,NH3,1,2,1
India,Uttar_Pradesh,Bareilly,"Rajendra Nagar, Bareilly - UPPCB",26-01-2024 17:00:00,28.38910936,79.42963708,NO2,43,71,54
India,Uttar_Pradesh,Bulandshahr,"Yamunapuram, Bulandshahr - UPPCB",26-01-2024 17:00:00,28.406963,77.849831,PM10,86,236,146
India,Uttar_Pradesh,Bulandshahr,"Yamunapuram, Bulandshahr - UPPCB",26-01-2024 17:00:00,28.406963,77.849831,SO2,7,47,23
India,Uttar_Pradesh,Bulandshahr,"Yamunapuram, Bulandshahr - UPPCB",26-01-2024 17:00:00,28.406963,77.849831,OZONE,1,104,40
India,Uttar_Pradesh,Firozabad,"Nagla Bhau, Firozabad - UPPCB",26-01-2024 17:00:00,27.168897,78.376960,PM10,36,115,66
India,Uttar_Pradesh,Ghaziabad,"Indirapuram, Ghaziabad - UPPCB",26-01-2024 17:00:00,28.646233,77.358075,PM10,255,468,390
India,Uttar_Pradesh,Ghaziabad,"Indirapuram, Ghaziabad - UPPCB",26-01-2024 17:00:00,28.646233,77.358075,OZONE,7,12,9
India,Uttar_Pradesh,Ghaziabad,"Sanjay Nagar, Ghaziabad - UPPCB",26-01-2024 17:00:00,28.685382,77.453839,PM2.5,328,500,399
India,Uttar_Pradesh,Ghaziabad,"Sanjay Nagar, Ghaziabad - UPPCB",26-01-2024 17:00:00,28.685382,77.453839,NO2,39,145,85
India,Uttar_Pradesh,Ghaziabad,"Sanjay Nagar, Ghaziabad - UPPCB",26-01-2024 17:00:00,28.685382,77.453839,CO,10,111,89
India,Uttar_Pradesh,Ghaziabad,"Vasundhara, Ghaziabad - UPPCB",26-01-2024 17:00:00,28.6603346,77.3572563,PM2.5,311,457,388
India,Uttar_Pradesh,Ghaziabad,"Vasundhara, Ghaziabad - UPPCB",26-01-2024 17:00:00,28.6603346,77.3572563,PM10,166,419,283
India,Uttar_Pradesh,Ghaziabad,"Vasundhara, Ghaziabad - UPPCB",26-01-2024 17:00:00,28.6603346,77.3572563,SO2,5,47,25
India,Uttar_Pradesh,Greater Noida,"Knowledge Park - III, Greater Noida - UPPCB",26-01-2024 17:00:00,28.47272,77.482000,PM10,NA,NA,NA
India,Uttar_Pradesh,Greater Noida,"Knowledge Park - III, Greater Noida - UPPCB",26-01-2024 17:00:00,28.47272,77.482000,CO,NA,NA,NA
India,Uttar_Pradesh,Greater Noida,"Knowledge Park - V, Greater Noida - UPPCB",26-01-2024 17:00:00,28.557054,77.453663,CO,26,114,53
India,Uttar_Pradesh,Hapur,"Anand Vihar, Hapur - UPPCB",26-01-2024 17:00:00,28.725645,77.749675,PM10,152,408,252
India,Uttar_Pradesh,Jhansi,"Shivaji Nagar, Jhansi - UPPCB",26-01-2024 17:00:00,25.4547,78.6039,PM10,80,140,113
India,Uttar_Pradesh,Jhansi,"Shivaji Nagar, Jhansi - UPPCB",26-01-2024 17:00:00,25.4547,78.6039,NH3,6,6,6
India,Uttar_Pradesh,Kanpur,"FTI Kidwai Nagar, Kanpur - UPPCB",26-01-2024 17:00:00,26.428282,80.327067,NO2,14,14,14
India,Uttar_Pradesh,Kanpur,"NSI Kalyanpur, Kanpur - UPPCB",26-01-2024 17:00:00,26.509954,80.249612,CO,70,90,79
India,Uttar_Pradesh,Kanpur,"Nehru Nagar, Kanpur - UPPCB",26-01-2024 17:00:00,26.4703136,80.3229863,CO,2,105,53
India,Uttar_Pradesh,Lucknow,"B R Ambedkar University, Lucknow - UPPCB",26-01-2024 17:00:00,26.766433,80.927299,NO2,11,12,12
India,Uttar_Pradesh,Lucknow,"Gomti Nagar, Lucknow - UPPCB",26-01-2024 17:00:00,26.868120,81.005119,PM10,63,148,106
India,Uttar_Pradesh,Lucknow,"Gomti Nagar, Lucknow - UPPCB",26-01-2024 17:00:00,26.868120,81.005119,OZONE,39,56,49
India,Uttar_Pradesh,Lucknow,"Kendriya Vidyalaya, Lucknow - CPCB",26-01-2024 17:00:00,26.906111,80.948222,SO2,3,26,11
India,Uttar_Pradesh,Lucknow,"Kukrail Picnic Spot-1, Lucknow - UPPCB",26-01-2024 17:00:00,26.90723,80.98579,CO,54,68,60
India,Uttar_Pradesh,Meerut,"Jai Bhim Nagar, Meerut - UPPCB",26-01-2024 17:00:00,28.9535882,77.7622941,NO2,23,99,61
India,Uttar_Pradesh,Meerut,"Pallavpuram Phase 2, Meerut - UPPCB",26-01-2024 17:00:00,29.063510,77.709723,NH3,5,11,8
India,Uttar_Pradesh,Moradabad,"Buddhi Vihar, Moradabad - UPPCB",26-01-2024 17:00:00,28.83526,78.74460,PM10,88,236,141
India,Uttar_Pradesh,Moradabad,"Eco Herbal Park, Moradabad - UPPCB",26-01-2024 17:00:00,28.840739,78.697531,NH3,4,47,8
India,Uttar_Pradesh,Moradabad,"Employment Office, Moradabad - UPPCB",26-01-2024 17:00:00,28.88528,78.73880,PM10,NA,NA,NA
India,Uttar_Pradesh,Moradabad,"Employment Office, Moradabad - UPPCB",26-01-2024 17:00:00,28.88528,78.73880,NO2,19,26,25
India,Uttar_Pradesh,Moradabad,"Employment Office, Moradabad - UPPCB",26-01-2024 17:00:00,28.88528,78.73880,OZONE,12,212,16
India,Uttar_Pradesh,Moradabad,"Jigar Colony, Moradabad - UPPCB",26-01-2024 17:00:00,28.856664,78.772638,PM10,104,245,147
India,Uttar_Pradesh,Moradabad,"Jigar Colony, Moradabad - UPPCB",26-01-2024 17:00:00,28.856664,78.772638,SO2,20,27,22
India,Uttar_Pradesh,Moradabad,"Jigar Colony, Moradabad - UPPCB",26-01-2024 17:00:00,28.856664,78.772638,CO,57,96,80
India,Uttar_Pradesh,Moradabad,"Kashiram Nagar, Moradabad - UPPCB",26-01-2024 17:00:00,28.849399,78.742362,SO2,27,31,30
India,Uttar_Pradesh,Moradabad,"Kashiram Nagar, Moradabad - UPPCB",26-01-2024 17:00:00,28.849399,78.742362,CO,54,105,75
India,Uttar_Pradesh,Moradabad,"Transport Nagar, Moradabad - UPPCB",26-01-2024 17:00:00,28.802625,78.753728,PM10,61,155,104
India,Uttar_Pradesh,Moradabad,"Transport Nagar, Moradabad - UPPCB",26-01-2024 17:00:00,28.802625,78.753728,CO,40,42,40
India,Uttar_Pradesh,Muzaffarnagar,"New Mandi, Muzaffarnagar - UPPCB",26-01-2024 17:00:00,29.4723508,77.7194031,SO2,1,19,7
India,Uttar_Pradesh,Muzaffarnagar,"New Mandi, Muzaffarnagar - UPPCB",26-01-2024 17:00:00,29.4723508,77.7194031,CO,52,110,87
India,Uttar_Pradesh,Noida,"Sector - 125, Noida - UPPCB",26-01-2024 17:00:00,28.5447608,77.3231257,NH3,NA,NA,NA
India,Uttar_Pradesh,Noida,"Sector - 62, Noida - IMD",26-01-2024 17:00:00,28.6245479,77.3577104,PM2.5,351,500,411
India,Uttar_Pradesh,Noida,"Sector - 62, Noida - IMD",26-01-2024 17:00:00,28.6245479,77.3577104,CO,102,107,104
India,Uttar_Pradesh,Noida,"Sector-116, Noida - UPPCB",26-01-2024 17:00:00,28.569230,77.393848,PM2.5,310,477,401
India,Uttar_Pradesh,Noida,"Sector-116, Noida - UPPCB",26-01-2024 17:00:00,28.569230,77.393848,SO2,4,31,18
India,Uttar_Pradesh,Noida,"Sector-116, Noida - UPPCB",26-01-2024 17:00:00,28.569230,77.393848,CO,20,140,68
India,Uttar_Pradesh,Prayagraj,"Jhunsi, Prayagraj - UPPCB",26-01-2024 17:00:00,25.425602,81.917152,PM10,57,168,101
India,Uttar_Pradesh,Prayagraj,"Jhunsi, Prayagraj - UPPCB",26-01-2024 17:00:00,25.425602,81.917152,NO2,6,6,6
India,Uttar_Pradesh,Prayagraj,"Motilal Nehru NIT, Prayagraj - UPPCB",26-01-2024 17:00:00,25.494,81.863,PM10,66,146,96
India,Uttar_Pradesh,Prayagraj,"Motilal Nehru NIT, Prayagraj - UPPCB",26-01-2024 17:00:00,25.494,81.863,NO2,12,12,12
India,Uttar_Pradesh,Prayagraj,"Motilal Nehru NIT, Prayagraj - UPPCB",26-01-2024 17:00:00,25.494,81.863,SO2,37,40,39
India,Uttar_Pradesh,Varanasi,"Ardhali Bazar, Varanasi - UPPCB",26-01-2024 17:00:00,25.3505986,82.9083074,NO2,19,42,26
India,Uttar_Pradesh,Varanasi,"Bhelupur, Varanasi - UPPCB",26-01-2024 17:00:00,25.301778,82.996789,CO,4,123,15
India,Uttar_Pradesh,Varanasi,"IESD Banaras Hindu University, Varanasi - UPPCB",26-01-2024 17:00:00,25.262326,82.995408,PM2.5,21,54,32
India,Uttar_Pradesh,Varanasi,"IESD Banaras Hindu University, Varanasi - UPPCB",26-01-2024 17:00:00,25.262326,82.995408,PM10,34,103,66
India,Uttar_Pradesh,Varanasi,"IESD Banaras Hindu University, Varanasi - UPPCB",26-01-2024 17:00:00,25.262326,82.995408,CO,34,62,43
India,Uttar_Pradesh,Vrindavan,"Omex Eternity, Vrindavan - UPPCB",26-01-2024 17:00:00,27.5714090,77.6557570,CO,72,100,94
India,Uttarakhand,Dehradun,"Doon University, Dehradun - UKPCB",26-01-2024 17:00:00,30.269444,78.044167,PM2.5,65,251,142
India,Uttarakhand,Dehradun,"Doon University, Dehradun - UKPCB",26-01-2024 17:00:00,30.269444,78.044167,PM10,66,155,106
India,Uttarakhand,Dehradun,"Doon University, Dehradun - UKPCB",26-01-2024 17:00:00,30.269444,78.044167,OZONE,4,15,10
India,Uttarakhand,Kashipur,"Govt. Girls Inter College, Kashipur - UKPCB",26-01-2024 17:00:00,29.2124114,78.9611753,SO2,7,9,8
India,Uttarakhand,Kashipur,"Govt. Girls Inter College, Kashipur - UKPCB",26-01-2024 17:00:00,29.2124114,78.9611753,OZONE,1,20,8
India,Uttarakhand,Rishikesh,"Shivaji Nagar, Rishikesh - UKPCB",26-01-2024 17:00:00,30.075911,78.2859547,PM2.5,59,96,74
India,Uttarakhand,Rishikesh,"Shivaji Nagar, Rishikesh - UKPCB",26-01-2024 17:00:00,30.075911,78.2859547,CO,28,49,35
India,West_Bengal,Asansol,"Asansol Court Area, Asansol - WBPCB",26-01-2024 17:00:00,23.685297,86.945968,NH3,5,15,8
India,West_Bengal,Asansol,"Asansol Court Area, Asansol - WBPCB",26-01-2024 17:00:00,23.685297,86.945968,CO,3,72,20
India,West_Bengal,Barrackpore,"SVSPA Campus, Barrackpore - WBPCB",26-01-2024 17:00:00,22.7605581,88.3617589,PM2.5,157,327,255
India,West_Bengal,Howrah,"Belur Math, Howrah - WBPCB",26-01-2024 17:00:00,22.629801,88.352017,PM10,117,194,162
India,West_Bengal,Howrah,"Belur Math, Howrah - WBPCB",26-01-2024 17:00:00,22.629801,88.352017,NH3,5,8,6
India,West_Bengal,Howrah,"Ghusuri, Howrah - WBPCB",26-01-2024 17:00:00,22.611968,88.347422,OZONE,9,19,14
India,West_Bengal,Howrah,"Padmapukur, Howrah - WBPCB",26-01-2024 17:00:00,22.5687319,88.2797276,NH3,10,42,24
India,West_Bengal,Howrah,"Padmapukur, Howrah - WBPCB",26-01-2024 17:00:00,22.5687319,88.2797276,CO,20,88,45
India,West_Bengal,Howrah,"Padmapukur, Howrah - WBPCB",26-01-2024 17:00:00,22.5687319,88.2797276,OZONE,2,75,49
India,West_Bengal,Kolkata,"Ballygunge, Kolkata - WBPCB",26-01-2024 17:00:00,22.5367507,88.3638022,PM2.5,164,352,290
India,West_Bengal,Kolkata,"Ballygunge, Kolkata - WBPCB",26-01-2024 17:00:00,22.5367507,88.3638022,NO2,33,160,77
India,West_Bengal,Kolkata,"Ballygunge, Kolkata - WBPCB",26-01-2024 17:00:00,22.5367507,88.3638022,OZONE,5,92,70
India,West_Bengal,Kolkata,"Bidhannagar, Kolkata - WBPCB",26-01-2024 17:00:00,22.58157048,88.41002457,SO2,5,18,11
India,West_Bengal,Kolkata,"Fort William, Kolkata - WBPCB",26-01-2024 17:00:00,22.556640,88.342674,PM2.5,176,333,284
India,West_Bengal,Kolkata,"Fort William, Kolkata - WBPCB",26-01-2024 17:00:00,22.556640,88.342674,NH3,7,14,8
India,West_Bengal,Kolkata,"Jadavpur, Kolkata - WBPCB",26-01-2024 17:00:00,22.49929,88.36917,PM2.5,139,352,278
India,West_Bengal,Kolkata,"Rabindra Bharati University, Kolkata - WBPCB",26-01-2024 17:00:00,22.627847,88.380669,PM2.5,150,318,257
India,West_Bengal,Kolkata,"Rabindra Bharati University, Kolkata - WBPCB",26-01-2024 17:00:00,22.627847,88.380669,SO2,7,34,15
India,West_Bengal,Kolkata,"Victoria, Kolkata - WBPCB",26-01-2024 17:00:00,22.5448082,88.3403691,PM10,123,193,160
India,West_Bengal,Siliguri,"Ward-32 Bapupara, Siliguri - WBPCB",26-01-2024 17:00:00,26.6879226,88.4152495,PM10,101,196,138
India,Andhra_Pradesh,Anantapur,"Gulzarpet, Anantapur - APPCB",26-01-2024 17:00:00,14.675886,77.593027,NH3,2,3,3
India,Andhra_Pradesh,Anantapur,"Gulzarpet, Anantapur - APPCB",26-01-2024 17:00:00,14.675886,77.593027,OZONE,6,50,40
India,Andhra_Pradesh,Tirupati,"Tirumala, Tirupati - APPCB",26-01-2024 17:00:00,13.67,79.35,NH3,1,5,2
India,Andhra_Pradesh,Tirupati,"Vaikuntapuram, Tirupati - APPCB",26-01-2024 17:00:00,13.615387,79.409230,PM10,18,57,29
India,Andhra_Pradesh,Tirupati,"Vaikuntapuram, Tirupati - APPCB",26-01-2024 17:00:00,13.615387,79.409230,SO2,4,5,5
India,Andhra_Pradesh,Vijayawada,"HB Colony, Vijayawada - APPCB",26-01-2024 17:00:00,16.536107,80.594233,PM10,NA,NA,NA
India,Andhra_Pradesh,Vijayawada,"HB Colony, Vijayawada - APPCB",26-01-2024 17:00:00,16.536107,80.594233,NH3,NA,NA,NA
India,Andhra_Pradesh,Visakhapatnam,"GVM Corporation, Visakhapatnam - APPCB",26-01-2024 17:00:00,17.72,83.3,PM10,62,112,90
India,Andhra_Pradesh,Visakhapatnam,"GVM Corporation, Visakhapatnam - APPCB",26-01-2024 17:00:00,17.72,83.3,SO2,5,17,13
India,Andhra_Pradesh,Visakhapatnam,"GVM Corporation, Visakhapatnam - APPCB",26-01-2024 17:00:00,17.72,83.3,CO,36,90,48
India,Arunachal_Pradesh,Naharlagun,"Naharlagun, Naharlagun - APSPCB",26-01-2024 17:00:00,27.103358,93.679645,OZONE,2,2,2
India,Assam,Guwahati,"IITG, Guwahati - PCBA",26-01-2024 17:00:00,26.2028636,91.70046436,PM2.5,NA,NA,NA
India,Assam,Guwahati,"IITG, Guwahati - PCBA",26-01-2024 17:00:00,26.2028636,91.70046436,NO2,NA,NA,NA
India,Assam,Guwahati,"LGBI Airport, Guwahati - PCBA",26-01-2024 17:00:00,26.10887,91.589544,PM10,105,344,208
India,Assam,Guwahati,"LGBI Airport, Guwahati - PCBA",26-01-2024 17:00:00,26.10887,91.589544,NO2,11,90,40
India,Assam,Guwahati,"LGBI Airport, Guwahati - PCBA",26-01-2024 17:00:00,26.10887,91.589544,SO2,9,20,13
India,Assam,Guwahati,"LGBI Airport, Guwahati - PCBA",26-01-2024 17:00:00,26.10887,91.589544,OZONE,1,84,59
India,Assam,Guwahati,"Pan Bazaar, Guwahati - PCBA",26-01-2024 17:00:00,26.187500,91.744194,PM2.5,110,397,291
India,Assam,Guwahati,"Pan Bazaar, Guwahati - PCBA",26-01-2024 17:00:00,26.187500,91.744194,SO2,55,103,67
India,Assam,Guwahati,"Railway Colony, Guwahati - PCBA",26-01-2024 17:00:00,26.181742,91.78063,PM2.5,126,438,292
India,Assam,Guwahati,"Railway Colony, Guwahati - PCBA",26-01-2024 17:00:00,26.181742,91.78063,PM10,96,456,197
India,Assam,Guwahati,"Railway Colony, Guwahati - PCBA",26-01-2024 17:00:00,26.181742,91.78063,SO2,19,30,24
India,Assam,Guwahati,"Railway Colony, Guwahati - PCBA",26-01-2024 17:00:00,26.181742,91.78063,CO,28,118,43
India,Assam,Nalbari,"Bata Chowk, Nalbari - PCBA",26-01-2024 17:00:00,26.446912,91.439057,NO2,12,81,34
India,Assam,Silchar,"Tarapur, Silchar - PCBA",26-01-2024 17:00:00,24.82827,92.79525,NO2,28,52,35
India,Assam,Silchar,"Tarapur, Silchar - PCBA",26-01-2024 17:00:00,24.82827,92.79525,CO,28,46,36
India,Assam,Sivasagar,"Girls College, Sivasagar - PCBA",26-01-2024 17:00:00,26.987634,94.636574,PM2.5,22,48,35
India,Assam,Sivasagar,"Girls College, Sivasagar - PCBA",26-01-2024 17:00:00,26.987634,94.636574,SO2,5,5,5
India,Bihar,Araria,"Kharahiya Basti, Araria - BSPCB",26-01-2024 17:00:00,26.146529,87.454184,NH3,6,7,6
India,Bihar,Araria,"Kharahiya Basti, Araria - BSPCB",26-01-2024 17:00:00,26.146529,87.454184,CO,12,31,22
India,Bihar,Arrah,"New DM Office, Arrah - BSPCB",26-01-2024 17:00:00,25.5626095,84.663264,PM2.5,293,425,336
India,Bihar,Arrah,"New DM Office, Arrah - BSPCB",26-01-2024 17:00:00,25.5626095,84.663264,SO2,15,24,19
India,Bihar,Arrah,"New DM Office, Arrah - BSPCB",26-01-2024 17:00:00,25.5626095,84.663264,CO,5,36,14
India,Bihar,Aurangabad,"Gurdeo Nagar, Aurangabad - BSPCB",26-01-2024 17:00:00,24.75746,84.366208,SO2,1,15,9
India,Bihar,Bettiah,"Kamalnath Nagar, Bettiah - BSPCB",26-01-2024 17:00:00,26.80365,84.51954,PM2.5,NA,NA,NA
India,Bihar,Bhagalpur,"DM Office_Kachari Chowk, Bhagalpur - BSPCB",26-01-2024 17:00:00,25.251013,86.989001,PM10,117,371,200
India,Bihar,Bhagalpur,"Mayaganj, Bhagalpur - BSPCB",26-01-2024 17:00:00,25.265194,87.012947,PM2.5,267,453,358
India,Bihar,Bhagalpur,"Mayaganj, Bhagalpur - BSPCB",26-01-2024 17:00:00,25.265194,87.012947,OZONE,11,59,42
India,Bihar,Bihar Sharif,"D M Colony, Bihar Sharif - BSPCB",26-01-2024 17:00:00,25.204762,85.514960,SO2,2,11,6
India,Bihar,Gaya,"Collectorate, Gaya - BSPCB",26-01-2024 17:00:00,24.7955,84.9994,OZONE,52,80,60
India,Bihar,Gaya,"SFTI Kusdihra, Gaya - BSPCB",26-01-2024 17:00:00,24.762518,84.982348,PM2.5,115,287,205
India,Bihar,Gaya,"SFTI Kusdihra, Gaya - BSPCB",26-01-2024 17:00:00,24.762518,84.982348,NH3,4,6,5
India,Bihar,Hajipur,"Industrial Area, Hajipur - BSPCB",26-01-2024 17:00:00,25.697189,85.245900,CO,62,103,93
India,Bihar,Katihar,"Mirchaibari, Katihar - BSPCB",26-01-2024 17:00:00,25.560083,87.553265,OZONE,21,28,25
India,Bihar,Kishanganj,"SDM Office_Khagra, Kishanganj - BSPCB",26-01-2024 17:00:00,26.0881305,87.93840336,PM10,115,500,240
India,Bihar,Kishanganj,"SDM Office_Khagra, Kishanganj - BSPCB",26-01-2024 17:00:00,26.0881305,87.93840336,CO,4,18,7
India,Bihar,Manguraha,"Forest Rest House, Manguraha - BSPCB",26-01-2024 17:00:00,27.308328,84.531742,PM2.5,NA,NA,NA
India,Bihar,Munger,"Town Hall, Munger - BSPCB",26-01-2024 17:00:00,25.376776,86.471523,OZONE,9,14,12
India,Bihar,Muzaffarpur,"Buddha Colony, Muzaffarpur - BSPCB",26-01-2024 17:00:00,26.11442,85.39813,NH3,16,26,20
India,Bihar,Muzaffarpur,"MIT-Daudpur Kothi, Muzaffarpur - BSPCB",26-01-2024 17:00:00,26.1403345,85.3650192,PM10,89,500,200
India,Bihar,Muzaffarpur,"MIT-Daudpur Kothi, Muzaffarpur - BSPCB",26-01-2024 17:00:00,26.1403345,85.3650192,OZONE,5,37,19
India,Bihar,Muzaffarpur,"Muzaffarpur Collectorate, Muzaffarpur - BSPCB",26-01-2024 17:00:00,26.1209,85.3647,NO2,5,11,9
India,Bihar,Patna,"DRM Office Danapur, Patna - BSPCB",26-01-2024 17:00:00,25.586562,85.043586,NO2,6,78,28
India,Bihar,Patna,"DRM Office Danapur, Patna - BSPCB",26-01-2024 17:00:00,25.586562,85.043586,OZONE,1,49,25
India,Bihar,Patna,"Govt. High School Shikarpur, Patna - BSPCB",26-01-2024 17:00:00,25.592539,85.227158,PM10,16,278,201
India,Bihar,Patna,"Govt. High School Shikarpur, Patna - BSPCB",26-01-2024 17:00:00,25.592539,85.227158,NO2,13,25,17
India,Bihar,Patna,"Govt. High School Shikarpur, Patna - BSPCB",26-01-2024 17:00:00,25.592539,85.227158,OZONE,6,34,24
India,Bihar,Patna,"IGSC Planetarium Complex, Patna - BSPCB",26-01-2024 17:00:00,25.610369,85.132568,NO2,14,15,15
India,Bihar,Patna,"IGSC Planetarium Complex, Patna - BSPCB",26-01-2024 17:00:00,25.610369,85.132568,CO,12,15,13
India,Bihar,Patna,"Rajbansi Nagar, Patna - BSPCB",26-01-2024 17:00:00,25.599486,85.113666,PM2.5,268,361,334
India,Bihar,Patna,"Rajbansi Nagar, Patna - BSPCB",26-01-2024 17:00:00,25.599486,85.113666,OZONE,3,61,29
India,Bihar,Rajgir,"Dangi Tola, Rajgir - BSPCB",26-01-2024 17:00:00,25.03280,85.41948,NO2,1,1,1
India,Bihar,Rajgir,"Dangi Tola, Rajgir - BSPCB",26-01-2024 17:00:00,25.03280,85.41948,SO2,4,4,4
India,Bihar,Samastipur,"DM Office_Kasipur, Samastipur - BSPCB",26-01-2024 17:00:00,25.859655,85.77944,CO,6,28,11
India,Bihar,Samastipur,"DM Office_Kasipur, Samastipur - BSPCB",26-01-2024 17:00:00,25.859655,85.77944,OZONE,10,13,11
India,Bihar,Siwan,"Chitragupta Nagar, Siwan - BSPCB",26-01-2024 17:00:00,26.2271665,84.3570427,PM10,115,197,139
India,Bihar,Siwan,"Chitragupta Nagar, Siwan - BSPCB",26-01-2024 17:00:00,26.2271665,84.3570427,NO2,21,82,32
India,Chandigarh,Chandigarh,"Sector 22, Chandigarh - CPCC",26-01-2024 17:00:00,30.735567,76.775714,NO2,10,30,18
India,Chandigarh,Chandigarh,"Sector 22, Chandigarh - CPCC",26-01-2024 17:00:00,30.735567,76.775714,OZONE,2,147,92
India,Chandigarh,Chandigarh,"Sector-25, Chandigarh - CPCC",26-01-2024 17:00:00,30.751462,76.762879,PM10,NA,NA,NA
India,Chandigarh,Chandigarh,"Sector-25, Chandigarh - CPCC",26-01-2024 17:00:00,30.751462,76.762879,NO2,NA,NA,NA
India,Chandigarh,Chandigarh,"Sector-25, Chandigarh - CPCC",26-01-2024 17:00:00,30.751462,76.762879,OZONE,NA,NA,NA
India,Chandigarh,Chandigarh,"Sector-53, Chandigarh - CPCC",26-01-2024 17:00:00,30.719859,76.738637,PM2.5,NA,NA,NA
India,Chhattisgarh,Bhilai,"32Bungalows, Bhilai - CECB",26-01-2024 17:00:00,21.194815,81.314770,OZONE,4,5,4
India,Chhattisgarh,Bilaspur,"Mangala, Bilaspur - NTPC",26-01-2024 17:00:00,22.08815,82.13737,CO,27,38,31
India,Chhattisgarh,Chhal,"Nawapara SECL Colony, Chhal - CECB",26-01-2024 17:00:00,22.118125,83.140608,PM2.5,20,58,37
India,Chhattisgarh,Chhal,"Nawapara SECL Colony, Chhal - CECB",26-01-2024 17:00:00,22.118125,83.140608,PM10,19,161,56
India,Chhattisgarh,Chhal,"Nawapara SECL Colony, Chhal - CECB",26-01-2024 17:00:00,22.118125,83.140608,CO,37,95,54
India,Chhattisgarh,Korba,"Rampur, Korba - CECB",26-01-2024 17:00:00,22.368195,82.746431,PM10,NA,NA,NA
India,Chhattisgarh,Milupara,"Govt. Higher Secondary School, Milupara - CECB",26-01-2024 17:00:00,22.1910172,83.5197009,NO2,14,47,22
India,Chhattisgarh,Raipur,"AIIMS, Raipur - CECB",26-01-2024 17:00:00,21.258815,81.578979,PM10,42,189,109
India,Chhattisgarh,Raipur,"Krishak Nagar, Raipur - CECB",26-01-2024 17:00:00,21.237755,81.705301,PM2.5,36,80,57
India,Chhattisgarh,Raipur,"Krishak Nagar, Raipur - CECB",26-01-2024 17:00:00,21.237755,81.705301,NO2,23,42,36
India,Chhattisgarh,Raipur,"Siltara Phase-II, Raipur - CECB",26-01-2024 17:00:00,21.371751,81.664929,CO,18,62,30
India,Chhattisgarh,Raipur,"Siltara Phase-II, Raipur - CECB",26-01-2024 17:00:00,21.371751,81.664929,OZONE,3,5,4
India,Chhattisgarh,Tumidih,"OP Jindal Industrial Park, Tumidih - CECB",26-01-2024 17:00:00,22.06631475,83.33820077,NO2,NA,NA,NA
India,Delhi,Delhi,"Anand Vihar, Delhi - DPCC",26-01-2024 17:00:00,28.647622,77.3158090,PM2.5,383,500,465
India,Delhi,Delhi,"Aya Nagar, Delhi - IMD",26-01-2024 17:00:00,28.4706914,77.1099364,PM2.5,145,461,373
India,Delhi,Delhi,"Aya Nagar, Delhi - IMD",26-01-2024 17:00:00,28.4706914,77.1099364,PM10,149,448,350
India,Delhi,Delhi,"Bawana, Delhi - DPCC",26-01-2024 17:00:00,28.776200,77.051074,OZONE,3,107,52
India,Delhi,Delhi,"Burari Crossing, Delhi - IMD",26-01-2024 17:00:00,28.7256504,77.2011573,PM10,168,407,284
India,Delhi,Delhi,"Burari Crossing, Delhi - IMD",26-01-2024 17:00:00,28.7256504,77.2011573,NO2,5,13,9
India,Delhi,Delhi,"CRRI Mathura Road, Delhi - IMD",26-01-2024 17:00:00,28.5512005,77.2735737,PM2.5,332,500,419
India,Delhi,Delhi,"CRRI Mathura Road, Delhi - IMD",26-01-2024 17:00:00,28.5512005,77.2735737,CO,57,119,71
India,Delhi,Delhi,"DTU, Delhi - CPCB",26-01-2024 17:00:00,28.7500499,77.1112615,PM10,168,460,346
India,Delhi,Delhi,"Dr. Karni Singh Shooting Range, Delhi - DPCC",26-01-2024 17:00:00,28.498571,77.264840,PM10,193,492,395
India,Delhi,Delhi,"Dwarka-Sector 8, Delhi - DPCC ",26-01-2024 17:00:00,28.5710274,77.0719006,PM10,151,453,365
India,Delhi,Delhi,"IHBAS, Dilshad Garden, Delhi - CPCB",26-01-2024 17:00:00,28.6811736,77.3025234,PM10,176,474,304
India,Delhi,Delhi,"IHBAS, Dilshad Garden, Delhi - CPCB",26-01-2024 17:00:00,28.6811736,77.3025234,NO2,22,51,36
India,Delhi,Delhi,"IHBAS, Dilshad Garden, Delhi - CPCB",26-01-2024 17:00:00,28.6811736,77.3025234,NH3,1,10,3
India,Delhi,Delhi,"ITO, Delhi - CPCB",26-01-2024 17:00:00,28.628624,77.241060,NH3,7,15,11
India,Delhi,Delhi,"Jahangirpuri, Delhi - DPCC",26-01-2024 17:00:00,28.732820,77.170633,PM2.5,318,474,412
India,Delhi,Delhi,"Lodhi Road, Delhi - IITM",26-01-2024 17:00:00,28.588333,77.221667,SO2,19,31,26
India,Delhi,Delhi,"Mandir Marg, Delhi - DPCC",26-01-2024 17:00:00,28.636429,77.201067,SO2,1,15,9
India,Delhi,Delhi,"Mundka, Delhi - DPCC",26-01-2024 17:00:00,28.684678,77.076574,NO2,38,117,69
India,Delhi,Delhi,"NSIT Dwarka, Delhi - CPCB",26-01-2024 17:00:00,28.60909,77.0325413,SO2,6,30,16
India,Delhi,Delhi,"NSIT Dwarka, Delhi - CPCB",26-01-2024 17:00:00,28.60909,77.0325413,CO,36,107,84
India,Delhi,Delhi,"Najafgarh, Delhi - DPCC",26-01-2024 17:00:00,28.570173,76.933762,PM2.5,253,406,333
India,Delhi,Delhi,"Narela, Delhi - DPCC",26-01-2024 17:00:00,28.822836,77.101981,PM2.5,155,427,366
India,Delhi,Delhi,"Narela, Delhi - DPCC",26-01-2024 17:00:00,28.822836,77.101981,SO2,4,13,7
India,Delhi,Delhi,"Narela, Delhi - DPCC",26-01-2024 17:00:00,28.822836,77.101981,CO,31,118,78
India,Delhi,Delhi,"Nehru Nagar, Delhi - DPCC",26-01-2024 17:00:00,28.567890,77.250515,PM10,417,500,458
India,Delhi,Delhi,"Nehru Nagar, Delhi - DPCC",26-01-2024 17:00:00,28.567890,77.250515,SO2,8,16,12
India,Delhi,Delhi,"New Moti Bagh, Delhi - MHUA",26-01-2024 17:00:00,28.57834,77.18400,CO,98,134,107
India,Delhi,Delhi,"North Campus, DU, Delhi - IMD",26-01-2024 17:00:00,28.6573814,77.1585447,PM2.5,NA,NA,NA
India,Delhi,Delhi,"North Campus, DU, Delhi - IMD",26-01-2024 17:00:00,28.6573814,77.1585447,PM10,NA,NA,NA
India,Delhi,Delhi,"North Campus, DU, Delhi - IMD",26-01-2024 17:00:00,28.6573814,77.1585447,NO2,NA,NA,NA
India,Delhi,Delhi,"North Campus, DU, Delhi - IMD",26-01-2024 17:00:00,28.6573814,77.1585447,OZONE,20,26,20
India,Delhi,Delhi,"Okhla Phase-2, Delhi - DPCC",26-01-2024 17:00:00,28.530785,77.271255,SO2,7,28,14
India,Delhi,Delhi,"Patparganj, Delhi - DPCC",26-01-2024 17:00:00,28.623763,77.287209,PM10,401,480,442
India,Delhi,Delhi,"Patparganj, Delhi - DPCC",26-01-2024 17:00:00,28.623763,77.287209,NH3,8,15,12
India,Delhi,Delhi,"Pusa, Delhi - DPCC",26-01-2024 17:00:00,28.639652,77.146275,PM2.5,339,500,415
India,Delhi,Delhi,"Pusa, Delhi - DPCC",26-01-2024 17:00:00,28.639652,77.146275,PM10,279,480,378
India,Delhi,Delhi,"Pusa, Delhi - DPCC",26-01-2024 17:00:00,28.639652,77.146275,SO2,8,18,12
India,Delhi,Delhi,"Pusa, Delhi - IMD",26-01-2024 17:00:00,28.636110,77.173332,PM2.5,320,465,371
India,Delhi,Delhi,"Rohini, Delhi - DPCC",26-01-2024 17:00:00,28.732528,77.119920,PM2.5,289,500,423
India,Delhi,Delhi,"Rohini, Delhi - DPCC",26-01-2024 17:00:00,28.732528,77.119920,NO2,4,74,41
India,Delhi,Delhi,"Rohini, Delhi - DPCC",26-01-2024 17:00:00,28.732528,77.119920,NH3,6,10,8
India,Delhi,Delhi,"Shadipur, Delhi - CPCB",26-01-2024 17:00:00,28.6514781,77.1473105,CO,37,102,61
India,Delhi,Delhi,"Shadipur, Delhi - CPCB",26-01-2024 17:00:00,28.6514781,77.1473105,OZONE,4,55,22
India,Delhi,Delhi,"Sirifort, Delhi - CPCB",26-01-2024 17:00:00,28.5504249,77.2159377,PM2.5,423,500,459
India,Delhi,Delhi,"Sirifort, Delhi - CPCB",26-01-2024 17:00:00,28.5504249,77.2159377,SO2,29,41,34
India,Delhi,Delhi,"Sonia Vihar, Delhi - DPCC",26-01-2024 17:00:00,28.710508,77.249485,PM10,138,433,307
India,Delhi,Delhi,"Sonia Vihar, Delhi - DPCC",26-01-2024 17:00:00,28.710508,77.249485,CO,48,112,66
India,Delhi,Delhi,"Sri Aurobindo Marg, Delhi - DPCC",26-01-2024 17:00:00,28.531346,77.190156,NO2,15,187,68
India,Delhi,Delhi,"Sri Aurobindo Marg, Delhi - DPCC",26-01-2024 17:00:00,28.531346,77.190156,NH3,8,12,11
India,Delhi,Delhi,"Sri Aurobindo Marg, Delhi - DPCC",26-01-2024 17:00:00,28.531346,77.190156,CO,50,116,92
India,Delhi,Delhi,"Vivek Vihar, Delhi - DPCC",26-01-2024 17:00:00,28.672342,77.315260,NO2,38,142,78
India,Delhi,Delhi,"Wazirpur, Delhi - DPCC",26-01-2024 17:00:00,28.699793,77.165453,PM2.5,322,500,421
India,Delhi,Delhi,"Wazirpur, Delhi - DPCC",26-01-2024 17:00:00,28.699793,77.165453,CO,6,103,42
India,Gujarat,Ahmedabad,"Chandkheda, Ahmedabad - IITM",26-01-2024 17:00:00,23.107969,72.574648,NH3,4,4,4
India,Gujarat,Ahmedabad,"Chandkheda, Ahmedabad - IITM",26-01-2024 17:00:00,23.107969,72.574648,CO,10,52,25
India,Gujarat,Ahmedabad,"Gyaspur, Ahmedabad - IITM",26-01-2024 17:00:00,22.977134,72.553024,PM10,65,166,108
India,Gujarat,Ahmedabad,"Gyaspur, Ahmedabad - IITM",26-01-2024 17:00:00,22.977134,72.553024,NH3,3,5,4
India,Gujarat,Ahmedabad,"Maninagar, Ahmedabad - GPCB",26-01-2024 17:00:00,23.002657,72.591912,PM2.5,33,168,93
India,Gujarat,Ahmedabad,"Maninagar, Ahmedabad - GPCB",26-01-2024 17:00:00,23.002657,72.591912,NO2,12,123,60
India,Gujarat,Ahmedabad,"Raikhad, Ahmedabad - IITM",26-01-2024 17:00:00,23.020509,72.579261,CO,8,90,30
India,Gujarat,Ahmedabad,"Rakhial, Ahmedabad - IITM",26-01-2024 17:00:00,23.016834,72.625775,CO,45,96,63
India,Gujarat,Ahmedabad,"SAC ISRO Bopal, Ahmedabad - IITM",26-01-2024 17:00:00,23.041137,72.456691,CO,20,64,31
India,Gujarat,Ahmedabad,"SAC ISRO Satellite, Ahmedabad - IITM",26-01-2024 17:00:00,23.023389,72.515201,OZONE,2,17,14
India,Gujarat,Ahmedabad,"SVPI Airport Hansol, Ahmedabad - IITM",26-01-2024 17:00:00,23.076793,72.627874,NH3,4,4,4
India,Gujarat,Ahmedabad,"Sardar Vallabhbhai Patel Stadium, Ahmedabad - IITM",26-01-2024 17:00:00,23.043070,72.562968,NH3,3,3,3
India,Gujarat,Ankleshwar,"GIDC, Ankleshwar - GPCB",26-01-2024 17:00:00,21.613267,73.010555,NO2,33,34,34
India,Gujarat,Ankleshwar,"GIDC, Ankleshwar - GPCB",26-01-2024 17:00:00,21.613267,73.010555,NH3,6,6,6
India,Gujarat,Ankleshwar,"GIDC, Ankleshwar - GPCB",26-01-2024 17:00:00,21.613267,73.010555,CO,6,140,30
India,Gujarat,Gandhinagar,"GIFT City, Gandhinagar - IITM",26-01-2024 17:00:00,23.163798,72.677768,PM10,69,130,100
India,Gujarat,Gandhinagar,"GIFT City, Gandhinagar - IITM",26-01-2024 17:00:00,23.163798,72.677768,CO,37,46,40
India,Gujarat,Gandhinagar,"IIPHG Lekawada, Gandhinagar - IITM",26-01-2024 17:00:00,23.243639,72.68994,PM10,59,129,96
India,Gujarat,Gandhinagar,"Sector-10, Gandhinagar - GPCB",26-01-2024 17:00:00,23.221714,72.654328,PM2.5,17,46,34
India,Gujarat,Gandhinagar,"Sector-10, Gandhinagar - GPCB",26-01-2024 17:00:00,23.221714,72.654328,NO2,3,11,6
India,Gujarat,Surat,"Science Center, Surat - SMC",26-01-2024 17:00:00,21.170046,72.795405,PM10,14,105,55
India,Gujarat,Surat,"Science Center, Surat - SMC",26-01-2024 17:00:00,21.170046,72.795405,NO2,24,42,29
India,Gujarat,Vapi,"Phase-1 GIDC, Vapi - GPCB",26-01-2024 17:00:00,20.362421,72.918013,PM10,71,416,185
India,Gujarat,Vatva,"Phase-4 GIDC, Vatva - GPCB",26-01-2024 17:00:00,22.969611,72.643500,PM2.5,45,184,92
India,Haryana,Ambala,"Patti Mehar, Ambala - HSPCB",26-01-2024 17:00:00,30.379589,76.778328,PM2.5,NA,NA,NA
India,Haryana,Ambala,"Patti Mehar, Ambala - HSPCB",26-01-2024 17:00:00,30.379589,76.778328,PM10,NA,NA,NA
India,Haryana,Ambala,"Patti Mehar, Ambala - HSPCB",26-01-2024 17:00:00,30.379589,76.778328,NH3,NA,NA,NA
India,Haryana,Bahadurgarh,"Arya Nagar, Bahadurgarh - HSPCB",26-01-2024 17:00:00,28.6701,76.9254,NO2,34,39,36
India,Haryana,Ballabgarh,"Nathu Colony, Ballabgarh - HSPCB",26-01-2024 17:00:00,28.3419248,77.319699,NH3,1,2,2
India,Haryana,Ballabgarh,"Nathu Colony, Ballabgarh - HSPCB",26-01-2024 17:00:00,28.3419248,77.319699,SO2,2,110,19
India,Haryana,Ballabgarh,"Nathu Colony, Ballabgarh - HSPCB",26-01-2024 17:00:00,28.3419248,77.319699,CO,8,115,48
India,Haryana,Ballabgarh,"Nathu Colony, Ballabgarh - HSPCB",26-01-2024 17:00:00,28.3419248,77.319699,OZONE,1,26,13
India,Haryana,Bhiwani,"H.B. Colony, Bhiwani - HSPCB",26-01-2024 17:00:00,28.806223,76.141105,PM2.5,88,277,164
India,Haryana,Charkhi Dadri,"Mini Secretariat, Charkhi Dadri - HSPCB",26-01-2024 17:00:00,28.593883,76.270653,PM10,54,164,98
India,Haryana,Dharuhera,"Municipal Corporation Office, Dharuhera -  HSPCB",26-01-2024 17:00:00,28.206800,76.799700,SO2,13,18,16
India,Haryana,Faridabad,"Sector- 16A, Faridabad - HSPCB",26-01-2024 17:00:00,28.4088421,77.3099081,SO2,7,25,18
India,Haryana,Fatehabad,"Huda Sector, Fatehabad - HSPCB",26-01-2024 17:00:00,29.503664,75.467934,OZONE,20,28,22
India,Haryana,Gurugram,"NISE Gwal Pahari, Gurugram - IMD",26-01-2024 17:00:00,28.422681,77.148944,PM10,146,427,280
India,Haryana,Gurugram,"NISE Gwal Pahari, Gurugram - IMD",26-01-2024 17:00:00,28.422681,77.148944,OZONE,10,85,53
India,Haryana,Gurugram,"Sector-51, Gurugram - HSPCB",26-01-2024 17:00:00,28.4227,77.0667,PM2.5,254,435,355
India,Haryana,Gurugram,"Sector-51, Gurugram - HSPCB",26-01-2024 17:00:00,28.4227,77.0667,PM10,148,455,279
India,Haryana,Gurugram,"Sector-51, Gurugram - HSPCB",26-01-2024 17:00:00,28.4227,77.0667,NO2,13,29,23
India,Haryana,Gurugram,"Teri Gram, Gurugram - HSPCB",26-01-2024 17:00:00,28.4275,77.1465,PM2.5,NA,NA,NA
India,Haryana,Gurugram,"Teri Gram, Gurugram - HSPCB",26-01-2024 17:00:00,28.4275,77.1465,SO2,NA,NA,NA
India,Haryana,Gurugram,"Teri Gram, Gurugram - HSPCB",26-01-2024 17:00:00,28.4275,77.1465,CO,51,74,63
India,Haryana,Hisar,"Urban Estate-II, Hisar - HSPCB",26-01-2024 17:00:00,29.140560,75.744941,PM10,NA,NA,NA
India,Haryana,Hisar,"Urban Estate-II, Hisar - HSPCB",26-01-2024 17:00:00,29.140560,75.744941,CO,40,90,63
India,Haryana,Jind,"Police Lines, Jind - HSPCB",26-01-2024 17:00:00,29.307814,76.337619,PM10,67,142,115
India,Haryana,Jind,"Police Lines, Jind - HSPCB",26-01-2024 17:00:00,29.307814,76.337619,OZONE,1,22,12
India,Haryana,Kaithal,"Rishi Nagar, Kaithal - HSPCB",26-01-2024 17:00:00,29.8006,76.4155,PM10,82,163,128
India,Haryana,Karnal,"Sector-12, Karnal - HSPCB",26-01-2024 17:00:00,29.695300,77.002700,PM2.5,98,98,98
India,Haryana,Kurukshetra,"Sector-7, Kurukshetra - HSPCB",26-01-2024 17:00:00,29.966942,76.875879,CO,37,98,50
India,Haryana,Mandikhera,"General Hospital, Mandikhera - HSPCB",26-01-2024 17:00:00,27.9002,76.9938,PM2.5,NA,NA,NA
India,Haryana,Mandikhera,"General Hospital, Mandikhera - HSPCB",26-01-2024 17:00:00,27.9002,76.9938,PM10,NA,NA,NA
India,Haryana,Mandikhera,"General Hospital, Mandikhera - HSPCB",26-01-2024 17:00:00,27.9002,76.9938,CO,82,88,85
India,Haryana,Mandikhera,"General Hospital, Mandikhera - HSPCB",26-01-2024 17:00:00,27.9002,76.9938,OZONE,21,29,26
India,Haryana,Manesar,"Sector-2 IMT, Manesar - HSPCB",26-01-2024 17:00:00,28.360699,76.936090,PM10,150,448,259
India,Haryana,Manesar,"Sector-2 IMT, Manesar - HSPCB",26-01-2024 17:00:00,28.360699,76.936090,NO2,17,27,22
India,Haryana,Manesar,"Sector-2 IMT, Manesar - HSPCB",26-01-2024 17:00:00,28.360699,76.936090,SO2,NA,NA,NA
India,Haryana,Manesar,"Sector-2 IMT, Manesar - HSPCB",26-01-2024 17:00:00,28.360699,76.936090,OZONE,5,51,31
India,Haryana,Narnaul,"Shastri Nagar, Narnaul - HSPCB",26-01-2024 17:00:00,28.060249,76.113115,NO2,17,48,33
India,Haryana,Narnaul,"Shastri Nagar, Narnaul - HSPCB",26-01-2024 17:00:00,28.060249,76.113115,SO2,13,36,14
India,Haryana,Palwal,"Shyam Nagar, Palwal - HSPCB",26-01-2024 17:00:00,28.1485564,77.3320667,PM2.5,51,93,66
India,Haryana,Palwal,"Shyam Nagar, Palwal - HSPCB",26-01-2024 17:00:00,28.1485564,77.3320667,SO2,6,20,13
India,Haryana,Palwal,"Shyam Nagar, Palwal - HSPCB",26-01-2024 17:00:00,28.1485564,77.3320667,CO,22,32,25
India,Haryana,Panipat,"Sector-18, Panipat - HSPCB",26-01-2024 17:00:00,29.497973,76.993331,OZONE,30,33,32
India,Haryana,Sirsa,"F-Block, Sirsa - HSPCB",26-01-2024 17:00:00,29.536400,75.015800,PM2.5,16,100,54
India,Haryana,Sirsa,"F-Block, Sirsa - HSPCB",26-01-2024 17:00:00,29.536400,75.015800,SO2,18,30,26
India,Haryana,Sonipat,"Murthal, Sonipat - HSPCB",26-01-2024 17:00:00,29.027200,77.062100,PM10,164,164,164
India,Haryana,Sonipat,"Murthal, Sonipat - HSPCB",26-01-2024 17:00:00,29.027200,77.062100,SO2,13,29,20
India,Haryana,Sonipat,"Murthal, Sonipat - HSPCB",26-01-2024 17:00:00,29.027200,77.062100,CO,10,56,49
India,Haryana,Sonipat,"Murthal, Sonipat - HSPCB",26-01-2024 17:00:00,29.027200,77.062100,OZONE,17,36,32
India,Haryana,Yamuna Nagar,"Gobind Pura, Yamuna Nagar - HSPCB",26-01-2024 17:00:00,30.1480566,77.2893471,NH3,1,6,4
India,Himachal Pradesh,Baddi,"HIMUDA Complex Phase-1, Baddi - HPPCB",26-01-2024 17:00:00,30.943887,76.801991,NO2,28,68,51
India,Jharkhand,Dhanbad,"Kalakusuma, Dhanbad - DMC",26-01-2024 17:00:00,23.811548,86.481238,PM10,24,218,129
India,Jharkhand,Dhanbad,"Kalakusuma, Dhanbad - DMC",26-01-2024 17:00:00,23.811548,86.481238,OZONE,21,39,35
India,Jharkhand,Pathardih,"Mohalbani Ghat, Pathardih - DMC",26-01-2024 17:00:00,23.669880,86.411725,PM2.5,8,267,109
India,Jharkhand,Pathardih,"Mohalbani Ghat, Pathardih - DMC",26-01-2024 17:00:00,23.669880,86.411725,CO,116,144,136
India,Karnataka,Belgaum,"Ramteerth Nagar, Belgaum - KSPCB",26-01-2024 17:00:00,15.888653,74.541751,PM2.5,30,123,71
India,Karnataka,Belgaum,"Ramteerth Nagar, Belgaum - KSPCB",26-01-2024 17:00:00,15.888653,74.541751,SO2,8,9,8
India,Karnataka,Bengaluru,"BTM Layout, Bengaluru - CPCB",26-01-2024 17:00:00,12.9135218,77.5950804,NO2,41,42,41
India,Karnataka,Bengaluru,"Bapuji Nagar, Bengaluru - KSPCB",26-01-2024 17:00:00,12.951913,77.539784,NH3,1,1,1
India,Karnataka,Bengaluru,"Hebbal, Bengaluru - KSPCB",26-01-2024 17:00:00,13.029152,77.585901,PM10,NA,NA,NA
India,Karnataka,Bengaluru,"Hebbal, Bengaluru - KSPCB",26-01-2024 17:00:00,13.029152,77.585901,SO2,NA,NA,NA
India,Karnataka,Bengaluru,"Hebbal, Bengaluru - KSPCB",26-01-2024 17:00:00,13.029152,77.585901,CO,15,38,18
India,Karnataka,Bengaluru,"Hombegowda Nagar, Bengaluru - KSPCB",26-01-2024 17:00:00,12.938539,77.590100,PM2.5,28,131,50
India,Karnataka,Bengaluru,"Hombegowda Nagar, Bengaluru - KSPCB",26-01-2024 17:00:00,12.938539,77.590100,OZONE,2,16,4
India,Karnataka,Bengaluru,"Jayanagar 5th Block, Bengaluru - KSPCB",26-01-2024 17:00:00,12.920984,77.584908,NO2,NA,NA,NA
India,Karnataka,Bengaluru,"Jayanagar 5th Block, Bengaluru - KSPCB",26-01-2024 17:00:00,12.920984,77.584908,NH3,NA,NA,NA
India,Karnataka,Bengaluru,"Jigani, Bengaluru - KSPCB",26-01-2024 17:00:00,12.7816279,77.6299145,PM2.5,9,98,60
India,Karnataka,Bengaluru,"Jigani, Bengaluru - KSPCB",26-01-2024 17:00:00,12.7816279,77.6299145,SO2,13,15,15
India,Karnataka,Bengaluru,"Kasturi Nagar, Bengaluru - KSPCB",26-01-2024 17:00:00,13.003872,77.664217,PM10,65,158,116
India,Karnataka,Bengaluru,"Kasturi Nagar, Bengaluru - KSPCB",26-01-2024 17:00:00,13.003872,77.664217,NO2,16,17,16
India,Karnataka,Bengaluru,"Kasturi Nagar, Bengaluru - KSPCB",26-01-2024 17:00:00,13.003872,77.664217,SO2,10,10,10
