country,state,city,station,last_update,latitude,longitude,pollutant_id,pollutant_min,pollutant_max,pollutant_avg
India,Andhra_Pradesh,Amaravati,"Secretariat, Amaravati - APPCB",27-06-2024 09:00:00,16.5150833,80.5181667,NH3,1,4,4
India,Andhra_Pradesh,Anantapur,"Gulzarpet, Anantapur - APPCB",27-06-2024 09:00:00,14.675886,77.593027,NH3,NA,NA,NA
India,Andhra_Pradesh,Anantapur,"Gulzarpet, Anantapur - APPCB",27-06-2024 09:00:00,14.675886,77.593027,OZONE,NA,NA,NA
India,Andhra_Pradesh,Rajamahendravaram,"Anand Kala Kshetram, Rajamahendravaram - APPCB",27-06-2024 09:00:00,16.9872867,81.7363176,NH3,1,13,3
India,Andhra_Pradesh,Rajamahendravaram,"Anand Kala Kshetram, Rajamahendravaram - APPCB",27-06-2024 09:00:00,16.9872867,81.7363176,SO2,10,12,11
India,Andhra_Pradesh,Rajamahendravaram,"Anand Kala Kshetram, Rajamahendravaram - APPCB",27-06-2024 09:00:00,16.9872867,81.7363176,CO,13,84,31
India,Andhra_Pradesh,Tirupati,"Tirumala, Tirupati - APPCB",27-06-2024 09:00:00,13.67,79.35,SO2,1,14,5
India,Andhra_Pradesh,Tirupati,"Vaikuntapuram, Tirupati - APPCB",27-06-2024 09:00:00,13.615387,79.409230,SO2,7,8,7
India,Andhra_Pradesh,Vijayawada,"HB Colony, Vijayawada - APPCB",27-06-2024 09:00:00,16.536107,80.594233,OZONE,8,22,12
India,Andhra_Pradesh,Vijayawada,"Kanuru, Vijayawada - APPCB",27-06-2024 09:00:00,16.486692,80.699436,PM2.5,41,56,48
India,Andhra_Pradesh,Vijayawada,"Kanuru, Vijayawada - APPCB",27-06-2024 09:00:00,16.486692,80.699436,OZONE,40,40,40
India,Andhra_Pradesh,Vijayawada,"Rajiv Gandhi Park, Vijayawada - APPCB",27-06-2024 09:00:00,16.509717,80.612222,NO2,31,49,37
India,Andhra_Pradesh,Vijayawada,"Rajiv Nagar, Vijayawada - APPCB",27-06-2024 09:00:00,16.554731,80.649110,NH3,1,2,2
India,Andhra_Pradesh,Vijayawada,"Rajiv Nagar, Vijayawada - APPCB",27-06-2024 09:00:00,16.554731,80.649110,CO,38,38,38
India,Andhra_Pradesh,Visakhapatnam,"GVM Corporation, Visakhapatnam - APPCB",27-06-2024 09:00:00,17.72,83.3,OZONE,10,192,12
India,Assam,Guwahati,"LGBI Airport, Guwahati - PCBA",27-06-2024 09:00:00,26.10887,91.589544,PM10,NA,NA,NA
India,Assam,Guwahati,"LGBI Airport, Guwahati - PCBA",27-06-2024 09:00:00,26.10887,91.589544,NH3,NA,NA,NA
India,Assam,Guwahati,"Pan Bazaar, Guwahati - PCBA",27-06-2024 09:00:00,26.187500,91.744194,PM2.5,4,63,31
India,Assam,Guwahati,"Pan Bazaar, Guwahati - PCBA",27-06-2024 09:00:00,26.187500,91.744194,CO,15,39,28
India,Assam,Guwahati,"Railway Colony, Guwahati - PCBA",27-06-2024 09:00:00,26.181742,91.78063,SO2,2,2,2
India,Assam,Guwahati,"Railway Colony, Guwahati - PCBA",27-06-2024 09:00:00,26.181742,91.78063,CO,19,43,30
India,Assam,Nagaon,"Christianpatty, Nagaon - PCBA",27-06-2024 09:00:00,26.349082,92.68449,SO2,10,11,10
India,Assam,Nagaon,"Christianpatty, Nagaon - PCBA",27-06-2024 09:00:00,26.349082,92.68449,CO,37,47,44
India,Assam,Nalbari,"Bata Chowk, Nalbari - PCBA",27-06-2024 09:00:00,26.446912,91.439057,PM10,26,95,54
India,Assam,Nalbari,"Bata Chowk, Nalbari - PCBA",27-06-2024 09:00:00,26.446912,91.439057,NO2,8,25,17
India,Assam,Nalbari,"Bata Chowk, Nalbari - PCBA",27-06-2024 09:00:00,26.446912,91.439057,SO2,4,8,6
India,Assam,Silchar,"Tarapur, Silchar - PCBA",27-06-2024 09:00:00,24.82827,92.79525,NH3,1,1,1
India,Assam,Sivasagar,"Girls College, Sivasagar - PCBA",27-06-2024 09:00:00,26.987634,94.636574,SO2,6,9,8
India,Assam,Sivasagar,"Girls College, Sivasagar - PCBA",27-06-2024 09:00:00,26.987634,94.636574,CO,4,11,6
India,Bihar,Araria,"Kharahiya Basti, Araria - BSPCB",27-06-2024 09:00:00,26.146529,87.454184,PM10,NA,NA,NA
India,Bihar,Arrah,"New DM Office, Arrah - BSPCB",27-06-2024 09:00:00,25.5626095,84.663264,PM10,NA,NA,NA
India,Bihar,Bettiah,"Kamalnath Nagar, Bettiah - BSPCB",27-06-2024 09:00:00,26.80365,84.51954,PM2.5,NA,NA,NA
India,Bihar,Bettiah,"Kamalnath Nagar, Bettiah - BSPCB",27-06-2024 09:00:00,26.80365,84.51954,PM10,NA,NA,NA
India,Bihar,Bettiah,"Kamalnath Nagar, Bettiah - BSPCB",27-06-2024 09:00:00,26.80365,84.51954,SO2,6,28,16
India,Bihar,Bettiah,"Kamalnath Nagar, Bettiah - BSPCB",27-06-2024 09:00:00,26.80365,84.51954,OZONE,1,7,2
India,Bihar,Bhagalpur,"DM Office_Kachari Chowk, Bhagalpur - BSPCB",27-06-2024 09:00:00,25.251013,86.989001,OZONE,44,49,47
India,Bihar,Bhagalpur,"Mayaganj, Bhagalpur - BSPCB",27-06-2024 09:00:00,25.265194,87.012947,OZONE,1,15,1
India,Bihar,Bihar Sharif,"D M Colony, Bihar Sharif - BSPCB",27-06-2024 09:00:00,25.204762,85.514960,PM10,NA,NA,NA
India,Bihar,Bihar Sharif,"D M Colony, Bihar Sharif - BSPCB",27-06-2024 09:00:00,25.204762,85.514960,CO,20,30,28
India,Bihar,Buxar,"Charitra Van, Buxar - BSPCB (Formerly known as Central Jail)",27-06-2024 09:00:00,25.567520,83.966379,PM10,NA,NA,NA
India,Bihar,Buxar,"Charitra Van, Buxar - BSPCB (Formerly known as Central Jail)",27-06-2024 09:00:00,25.567520,83.966379,SO2,3,4,4
India,Bihar,Chhapra,"Darshan Nagar, Chhapra - BSPCB",27-06-2024 09:00:00,25.7808257,84.7446768,PM10,21,75,44
India,Bihar,Chhapra,"Darshan Nagar, Chhapra - BSPCB",27-06-2024 09:00:00,25.7808257,84.7446768,OZONE,1,4,1
India,Bihar,Gaya,"Collectorate, Gaya - BSPCB",27-06-2024 09:00:00,24.7955,84.9994,PM2.5,18,323,128
India,Bihar,Gaya,"Collectorate, Gaya - BSPCB",27-06-2024 09:00:00,24.7955,84.9994,SO2,1,17,8
India,Bihar,Gaya,"Kareemganj, Gaya - BSPCB",27-06-2024 09:00:00,24.792403,84.992416,PM10,28,57,40
India,Bihar,Gaya,"SFTI Kusdihra, Gaya - BSPCB",27-06-2024 09:00:00,24.762518,84.982348,OZONE,36,85,43
India,Bihar,Hajipur,"Industrial Area, Hajipur - BSPCB",27-06-2024 09:00:00,25.697189,85.245900,NO2,7,18,11
India,Bihar,Katihar,"Mirchaibari, Katihar - BSPCB",27-06-2024 09:00:00,25.560083,87.553265,NO2,4,4,4
India,Bihar,Manguraha,"Forest Rest House, Manguraha - BSPCB",27-06-2024 09:00:00,27.308328,84.531742,PM2.5,NA,NA,NA
India,Bihar,Motihari,"Gandak Colony, Motihari - BSPCB",27-06-2024 09:00:00,26.63086,84.90051,NH3,1,4,2
India,Bihar,Munger,"Town Hall, Munger - BSPCB",27-06-2024 09:00:00,25.376776,86.471523,NO2,4,7,5
India,Bihar,Munger,"Town Hall, Munger - BSPCB",27-06-2024 09:00:00,25.376776,86.471523,NH3,2,3,3
India,Bihar,Munger,"Town Hall, Munger - BSPCB",27-06-2024 09:00:00,25.376776,86.471523,SO2,10,31,22
India,Bihar,Munger,"Town Hall, Munger - BSPCB",27-06-2024 09:00:00,25.376776,86.471523,CO,82,104,98
India,Bihar,Munger,"Town Hall, Munger - BSPCB",27-06-2024 09:00:00,25.376776,86.471523,OZONE,2,3,2
India,Bihar,Muzaffarpur,"Buddha Colony, Muzaffarpur - BSPCB",27-06-2024 09:00:00,26.11442,85.39813,PM2.5,35,63,46
India,Bihar,Muzaffarpur,"Buddha Colony, Muzaffarpur - BSPCB",27-06-2024 09:00:00,26.11442,85.39813,PM10,37,72,50
India,Bihar,Muzaffarpur,"Muzaffarpur Collectorate, Muzaffarpur - BSPCB",27-06-2024 09:00:00,26.1209,85.3647,CO,24,56,56
India,Bihar,Patna,"Govt. High School Shikarpur, Patna - BSPCB",27-06-2024 09:00:00,25.592539,85.227158,PM10,52,101,73
India,Bihar,Patna,"Govt. High School Shikarpur, Patna - BSPCB",27-06-2024 09:00:00,25.592539,85.227158,NH3,4,5,5
India,Bihar,Patna,"Govt. High School Shikarpur, Patna - BSPCB",27-06-2024 09:00:00,25.592539,85.227158,CO,32,48,37
India,Bihar,Patna,"Govt. High School Shikarpur, Patna - BSPCB",27-06-2024 09:00:00,25.592539,85.227158,OZONE,1,59,5
India,Bihar,Patna,"Muradpur, Patna - BSPCB",27-06-2024 09:00:00,25.619651,85.147382,NO2,3,19,8
India,Bihar,Patna,"Rajbansi Nagar, Patna - BSPCB",27-06-2024 09:00:00,25.599486,85.113666,PM2.5,45,91,68
India,Bihar,Patna,"Rajbansi Nagar, Patna - BSPCB",27-06-2024 09:00:00,25.599486,85.113666,PM10,63,108,85
India,Bihar,Patna,"Rajbansi Nagar, Patna - BSPCB",27-06-2024 09:00:00,25.599486,85.113666,SO2,1,14,8
India,Bihar,Patna,"Samanpura, Patna - BSPCB",27-06-2024 09:00:00,25.596727,85.085624,PM2.5,52,248,93
India,Bihar,Patna,"Samanpura, Patna - BSPCB",27-06-2024 09:00:00,25.596727,85.085624,NO2,1,35,17
India,Bihar,Rajgir,"Dangi Tola, Rajgir - BSPCB",27-06-2024 09:00:00,25.03280,85.41948,PM2.5,32,500,181
India,Bihar,Saharsa,"Police Line, Saharsa - BSPCB",27-06-2024 09:00:00,25.892357,86.590325,PM2.5,7,42,23
India,Bihar,Samastipur,"DM Office_Kasipur, Samastipur - BSPCB",27-06-2024 09:00:00,25.859655,85.77944,PM10,NA,NA,NA
India,Bihar,Sasaram,"Dada Peer, Sasaram - BSPCB",27-06-2024 09:00:00,24.952822,84.002396,CO,36,76,64
India,Bihar,Siwan,"Chitragupta Nagar, Siwan - BSPCB",27-06-2024 09:00:00,26.2271665,84.3570427,NO2,NA,NA,NA
India,Bihar,Siwan,"Chitragupta Nagar, Siwan - BSPCB",27-06-2024 09:00:00,26.2271665,84.3570427,SO2,NA,NA,NA
India,Bihar,Siwan,"Chitragupta Nagar, Siwan - BSPCB",27-06-2024 09:00:00,26.2271665,84.3570427,OZONE,NA,NA,NA
India,Chandigarh,Chandigarh,"Sector 22, Chandigarh - CPCC",27-06-2024 09:00:00,30.735567,76.775714,SO2,2,82,15
India,Chhattisgarh,Bhilai,"32Bungalows, Bhilai - CECB",27-06-2024 09:00:00,21.194815,81.314770,NO2,4,8,6
India,Chhattisgarh,Bhilai,"Hathkhoj, Bhilai - CECB",27-06-2024 09:00:00,21.224231,81.408350,SO2,10,15,11
India,Chhattisgarh,Bilaspur,"Mangala, Bilaspur - NTPC",27-06-2024 09:00:00,22.08815,82.13737,SO2,11,17,14
India,Chhattisgarh,Chhal,"Nawapara SECL Colony, Chhal - CECB",27-06-2024 09:00:00,22.118125,83.140608,PM2.5,22,71,35
India,Chhattisgarh,Korba,"Urja Nagar, Korba - CECB",27-06-2024 09:00:00,22.348441,82.549611,PM10,23,79,42
India,Chhattisgarh,Korba,"Urja Nagar, Korba - CECB",27-06-2024 09:00:00,22.348441,82.549611,NO2,25,44,32
India,Chhattisgarh,Korba,"Urja Nagar, Korba - CECB",27-06-2024 09:00:00,22.348441,82.549611,SO2,6,14,8
India,Chhattisgarh,Korba,"Urja Nagar, Korba - CECB",27-06-2024 09:00:00,22.348441,82.549611,OZONE,1,19,2
India,Chhattisgarh,Kunjemura,"OP Jindal School, Kunjemura - CECB",27-06-2024 09:00:00,22.126650,83.483212,PM2.5,9,44,24
India,Chhattisgarh,Kunjemura,"OP Jindal School, Kunjemura - CECB",27-06-2024 09:00:00,22.126650,83.483212,NO2,10,54,29
India,Chhattisgarh,Raipur,"AIIMS, Raipur - CECB",27-06-2024 09:00:00,21.258815,81.578979,PM10,NA,NA,NA
India,Chhattisgarh,Raipur,"AIIMS, Raipur - CECB",27-06-2024 09:00:00,21.258815,81.578979,CO,NA,NA,NA
India,Chhattisgarh,Raipur,"Krishak Nagar, Raipur - CECB",27-06-2024 09:00:00,21.237755,81.705301,NO2,5,5,5
India,Chhattisgarh,Raipur,"Krishak Nagar, Raipur - CECB",27-06-2024 09:00:00,21.237755,81.705301,NH3,1,1,1
India,Chhattisgarh,Raipur,"Krishak Nagar, Raipur - CECB",27-06-2024 09:00:00,21.237755,81.705301,OZONE,4,50,7
India,Chhattisgarh,Raipur,"Siltara Phase-II, Raipur - CECB",27-06-2024 09:00:00,21.371751,81.664929,SO2,NA,NA,NA
India,Chhattisgarh,Tumidih,"OP Jindal Industrial Park, Tumidih - CECB",27-06-2024 09:00:00,22.06631475,83.33820077,NO2,11,60,20
India,Chhattisgarh,Tumidih,"OP Jindal Industrial Park, Tumidih - CECB",27-06-2024 09:00:00,22.06631475,83.33820077,SO2,5,7,5
India,Delhi,Delhi,"Alipur, Delhi - DPCC",27-06-2024 09:00:00,28.815329,77.153010,NO2,20,55,33
India,Delhi,Delhi,"Alipur, Delhi - DPCC",27-06-2024 09:00:00,28.815329,77.153010,SO2,9,34,18
India,Delhi,Delhi,"Aya Nagar, Delhi - IMD",27-06-2024 09:00:00,28.4706914,77.1099364,OZONE,12,38,16
India,Delhi,Delhi,"Burari Crossing, Delhi - IMD",27-06-2024 09:00:00,28.7256504,77.2011573,NO2,NA,NA,NA
India,Delhi,Delhi,"CRRI Mathura Road, Delhi - IMD",27-06-2024 09:00:00,28.5512005,77.2735737,NO2,3,4,3
India,Delhi,Delhi,"DTU, Delhi - CPCB",27-06-2024 09:00:00,28.7500499,77.1112615,SO2,41,49,44
India,Delhi,Delhi,"DTU, Delhi - CPCB",27-06-2024 09:00:00,28.7500499,77.1112615,OZONE,29,65,29
India,Delhi,Delhi,"Dr. Karni Singh Shooting Range, Delhi - DPCC",27-06-2024 09:00:00,28.498571,77.264840,PM10,63,139,90
India,Delhi,Delhi,"Dr. Karni Singh Shooting Range, Delhi - DPCC",27-06-2024 09:00:00,28.498571,77.264840,NH3,5,13,10
India,Delhi,Delhi,"Dwarka-Sector 8, Delhi - DPCC ",27-06-2024 09:00:00,28.5710274,77.0719006,PM2.5,48,223,106
India,Delhi,Delhi,"IGI Airport (T3), Delhi - IMD",27-06-2024 09:00:00,28.5627763,77.1180053,OZONE,3,26,3
India,Delhi,Delhi,"IHBAS, Dilshad Garden, Delhi - CPCB",27-06-2024 09:00:00,28.6811736,77.3025234,PM10,37,100,66
India,Delhi,Delhi,"IHBAS, Dilshad Garden, Delhi - CPCB",27-06-2024 09:00:00,28.6811736,77.3025234,CO,8,113,42
India,Delhi,Delhi,"ITO, Delhi - CPCB",27-06-2024 09:00:00,28.628624,77.241060,OZONE,7,25,23
India,Delhi,Delhi,"Jawaharlal Nehru Stadium, Delhi - DPCC",27-06-2024 09:00:00,28.580280,77.233829,SO2,11,19,14
India,Delhi,Delhi,"Major Dhyan Chand National Stadium, Delhi - DPCC",27-06-2024 09:00:00,28.611281,77.237738,NO2,17,55,31
India,Delhi,Delhi,"Mandir Marg, Delhi - DPCC",27-06-2024 09:00:00,28.636429,77.201067,NH3,3,6,4
India,Delhi,Delhi,"Mandir Marg, Delhi - DPCC",27-06-2024 09:00:00,28.636429,77.201067,SO2,9,21,14
India,Delhi,Delhi,"Mandir Marg, Delhi - DPCC",27-06-2024 09:00:00,28.636429,77.201067,CO,32,44,36
India,Delhi,Delhi,"Mundka, Delhi - DPCC",27-06-2024 09:00:00,28.684678,77.076574,NO2,46,127,75
India,Delhi,Delhi,"NSIT Dwarka, Delhi - CPCB",27-06-2024 09:00:00,28.60909,77.0325413,SO2,14,27,19
India,Delhi,Delhi,"Najafgarh, Delhi - DPCC",27-06-2024 09:00:00,28.570173,76.933762,SO2,4,23,14
India,Delhi,Delhi,"New Moti Bagh, Delhi - MHUA",27-06-2024 09:00:00,28.57834,77.18400,PM2.5,3,500,245
India,Delhi,Delhi,"New Moti Bagh, Delhi - MHUA",27-06-2024 09:00:00,28.57834,77.18400,NO2,6,45,10
India,Delhi,Delhi,"North Campus, DU, Delhi - IMD",27-06-2024 09:00:00,28.6573814,77.1585447,PM2.5,30,149,73
India,Delhi,Delhi,"North Campus, DU, Delhi - IMD",27-06-2024 09:00:00,28.6573814,77.1585447,NO2,11,17,14
India,Delhi,Delhi,"North Campus, DU, Delhi - IMD",27-06-2024 09:00:00,28.6573814,77.1585447,OZONE,6,22,8
India,Delhi,Delhi,"Okhla Phase-2, Delhi - DPCC",27-06-2024 09:00:00,28.530785,77.271255,NO2,14,61,27
India,Delhi,Delhi,"Patparganj, Delhi - DPCC",27-06-2024 09:00:00,28.623763,77.287209,NH3,7,11,8
India,Delhi,Delhi,"Punjabi Bagh, Delhi - DPCC",27-06-2024 09:00:00,28.674045,77.131023,SO2,21,36,28
India,Delhi,Delhi,"Pusa, Delhi - DPCC",27-06-2024 09:00:00,28.639652,77.146275,PM2.5,42,157,71
India,Delhi,Delhi,"Pusa, Delhi - IMD",27-06-2024 09:00:00,28.636110,77.173332,PM2.5,21,202,75
India,Delhi,Delhi,"Pusa, Delhi - IMD",27-06-2024 09:00:00,28.636110,77.173332,PM10,33,158,79
India,Delhi,Delhi,"Pusa, Delhi - IMD",27-06-2024 09:00:00,28.636110,77.173332,OZONE,27,33,29
India,Delhi,Delhi,"R K Puram, Delhi - DPCC",27-06-2024 09:00:00,28.563262,77.186937,NH3,4,5,5
India,Delhi,Delhi,"Rohini, Delhi - DPCC",27-06-2024 09:00:00,28.732528,77.119920,NO2,4,37,21
India,Delhi,Delhi,"Sonia Vihar, Delhi - DPCC",27-06-2024 09:00:00,28.710508,77.249485,PM10,33,172,98
India,Delhi,Delhi,"Sri Aurobindo Marg, Delhi - DPCC",27-06-2024 09:00:00,28.531346,77.190156,NH3,7,21,14
India,Delhi,Delhi,"Wazirpur, Delhi - DPCC",27-06-2024 09:00:00,28.699793,77.165453,PM10,67,197,115
India,Gujarat,Ahmedabad,"Chandkheda, Ahmedabad - IITM",27-06-2024 09:00:00,23.107969,72.574648,CO,36,89,55
India,Gujarat,Ahmedabad,"Chandkheda, Ahmedabad - IITM",27-06-2024 09:00:00,23.107969,72.574648,OZONE,14,31,21
India,Gujarat,Ahmedabad,"Gyaspur, Ahmedabad - IITM",27-06-2024 09:00:00,22.977134,72.553024,PM2.5,NA,NA,NA
India,Gujarat,Ahmedabad,"Raikhad, Ahmedabad - IITM",27-06-2024 09:00:00,23.020509,72.579261,OZONE,5,100,13
India,Gujarat,Ahmedabad,"Rakhial, Ahmedabad - IITM",27-06-2024 09:00:00,23.016834,72.625775,PM2.5,4,122,67
India,Gujarat,Ahmedabad,"Rakhial, Ahmedabad - IITM",27-06-2024 09:00:00,23.016834,72.625775,NO2,10,73,27
India,Gujarat,Ahmedabad,"Rakhial, Ahmedabad - IITM",27-06-2024 09:00:00,23.016834,72.625775,SO2,21,28,24
India,Gujarat,Ahmedabad,"Rakhial, Ahmedabad - IITM",27-06-2024 09:00:00,23.016834,72.625775,OZONE,17,77,22
India,Gujarat,Ahmedabad,"SVPI Airport Hansol, Ahmedabad - IITM",27-06-2024 09:00:00,23.076793,72.627874,PM2.5,17,63,35
India,Gujarat,Ahmedabad,"SVPI Airport Hansol, Ahmedabad - IITM",27-06-2024 09:00:00,23.076793,72.627874,CO,7,30,9
India,Gujarat,Ahmedabad,"Sardar Vallabhbhai Patel Stadium, Ahmedabad - IITM",27-06-2024 09:00:00,23.043070,72.562968,SO2,16,19,18
India,Gujarat,Gandhinagar,"GIFT City, Gandhinagar - IITM",27-06-2024 09:00:00,23.163798,72.677768,OZONE,7,33,10
India,Gujarat,Gandhinagar,"Sector-10, Gandhinagar - GPCB",27-06-2024 09:00:00,23.221714,72.654328,OZONE,19,20,19
India,Gujarat,Nandesari,"GIDC, Nandesari - Nandesari Ind. Association",27-06-2024 09:00:00,22.410802,73.097923,NO2,NA,NA,NA
India,Gujarat,Surat,"Science Center, Surat - SMC",27-06-2024 09:00:00,21.170046,72.795405,CO,66,76,68
India,Gujarat,Vapi,"Phase-1 GIDC, Vapi - GPCB",27-06-2024 09:00:00,20.362421,72.918013,SO2,45,51,48
India,Gujarat,Vatva,"Phase-4 GIDC, Vatva - GPCB",27-06-2024 09:00:00,22.969611,72.643500,PM2.5,NA,NA,NA
India,Gujarat,Vatva,"Phase-4 GIDC, Vatva - GPCB",27-06-2024 09:00:00,22.969611,72.643500,PM10,NA,NA,NA
India,Gujarat,Vatva,"Phase-4 GIDC, Vatva - GPCB",27-06-2024 09:00:00,22.969611,72.643500,NH3,NA,NA,NA
India,Haryana,Ambala,"Patti Mehar, Ambala - HSPCB",27-06-2024 09:00:00,30.379589,76.778328,NH3,5,12,8
India,Haryana,Bahadurgarh,"Arya Nagar, Bahadurgarh - HSPCB",27-06-2024 09:00:00,28.6701,76.9254,PM2.5,66,158,91
India,Haryana,Bahadurgarh,"Arya Nagar, Bahadurgarh - HSPCB",27-06-2024 09:00:00,28.6701,76.9254,CO,94,103,98
India,Haryana,Bahadurgarh,"Arya Nagar, Bahadurgarh - HSPCB",27-06-2024 09:00:00,28.6701,76.9254,OZONE,35,42,37
India,Haryana,Ballabgarh,"Nathu Colony, Ballabgarh - HSPCB",27-06-2024 09:00:00,28.3419248,77.319699,CO,20,54,27
India,Haryana,Bhiwani,"H.B. Colony, Bhiwani - HSPCB",27-06-2024 09:00:00,28.806223,76.141105,PM10,31,105,68
India,Haryana,Dharuhera,"Municipal Corporation Office, Dharuhera -  HSPCB",27-06-2024 09:00:00,28.206800,76.799700,PM2.5,NA,NA,NA
India,Haryana,Dharuhera,"Municipal Corporation Office, Dharuhera -  HSPCB",27-06-2024 09:00:00,28.206800,76.799700,NO2,NA,NA,NA
India,Haryana,Faridabad,"Sector 11, Faridabad - HSPCB",27-06-2024 09:00:00,28.376058,77.315741,OZONE,7,31,14
India,Haryana,Faridabad,"Sector 30, Faridabad - HSPCB",27-06-2024 09:00:00,28.4417,77.3217,SO2,NA,NA,NA
India,Haryana,Faridabad,"Sector- 16A, Faridabad - HSPCB",27-06-2024 09:00:00,28.4088421,77.3099081,NO2,30,54,42
India,Haryana,Faridabad,"Sector- 16A, Faridabad - HSPCB",27-06-2024 09:00:00,28.4088421,77.3099081,SO2,23,41,28
India,Haryana,Fatehabad,"Huda Sector, Fatehabad - HSPCB",27-06-2024 09:00:00,29.503664,75.467934,OZONE,10,31,12
India,Haryana,Gurugram,"Sector-51, Gurugram - HSPCB",27-06-2024 09:00:00,28.4227,77.0667,PM10,NA,NA,NA
India,Haryana,Gurugram,"Sector-51, Gurugram - HSPCB",27-06-2024 09:00:00,28.4227,77.0667,NH3,NA,NA,NA
India,Haryana,Gurugram,"Teri Gram, Gurugram - HSPCB",27-06-2024 09:00:00,28.4275,77.1465,PM2.5,45,168,99
India,Haryana,Gurugram,"Teri Gram, Gurugram - HSPCB",27-06-2024 09:00:00,28.4275,77.1465,PM10,110,327,162
India,Haryana,Gurugram,"Teri Gram, Gurugram - HSPCB",27-06-2024 09:00:00,28.4275,77.1465,NH3,9,33,19
India,Haryana,Gurugram,"Vikas Sadan, Gurugram - HSPCB",27-06-2024 09:00:00,28.4501238,77.0263051,SO2,19,49,34
India,Haryana,Gurugram,"Vikas Sadan, Gurugram - HSPCB",27-06-2024 09:00:00,28.4501238,77.0263051,OZONE,8,69,11
India,Haryana,Hisar,"Urban Estate-II, Hisar - HSPCB",27-06-2024 09:00:00,29.140560,75.744941,NH3,3,5,4
India,Haryana,Jind,"Police Lines, Jind - HSPCB",27-06-2024 09:00:00,29.307814,76.337619,PM2.5,17,75,54
India,Haryana,Karnal,"Sector-12, Karnal - HSPCB",27-06-2024 09:00:00,29.695300,77.002700,NO2,7,12,10
India,Haryana,Kurukshetra,"Sector-7, Kurukshetra - HSPCB",27-06-2024 09:00:00,29.966942,76.875879,PM2.5,54,126,73
India,Haryana,Kurukshetra,"Sector-7, Kurukshetra - HSPCB",27-06-2024 09:00:00,29.966942,76.875879,SO2,2,3,2
India,Haryana,Mandikhera,"General Hospital, Mandikhera - HSPCB",27-06-2024 09:00:00,27.9002,76.9938,OZONE,23,34,28
India,Haryana,Manesar,"Sector-2 IMT, Manesar - HSPCB",27-06-2024 09:00:00,28.360699,76.936090,PM2.5,23,228,80
India,Haryana,Narnaul,"Shastri Nagar, Narnaul - HSPCB",27-06-2024 09:00:00,28.060249,76.113115,NO2,15,32,25
India,Haryana,Palwal,"Shyam Nagar, Palwal - HSPCB",27-06-2024 09:00:00,28.1485564,77.3320667,PM10,NA,NA,NA
India,Haryana,Palwal,"Shyam Nagar, Palwal - HSPCB",27-06-2024 09:00:00,28.1485564,77.3320667,NO2,NA,NA,NA
India,Haryana,Palwal,"Shyam Nagar, Palwal - HSPCB",27-06-2024 09:00:00,28.1485564,77.3320667,SO2,NA,NA,NA
India,Haryana,Panchkula,"Sector-6, Panchkula - HSPCB ",27-06-2024 09:00:00,30.7057778,76.8531805555555,NO2,10,12,10
India,Haryana,Panipat,"Sector-18, Panipat - HSPCB",27-06-2024 09:00:00,29.432304,76.972765,PM2.5,90,99,95
India,Haryana,Panipat,"Sector-18, Panipat - HSPCB",27-06-2024 09:00:00,29.432304,76.972765,NO2,31,32,31
India,Haryana,Rohtak,"MD University, Rohtak - HSPCB",27-06-2024 09:00:00,28.52123,76.37138,SO2,6,8,7
India,Haryana,Rohtak,"MD University, Rohtak - HSPCB",27-06-2024 09:00:00,28.52123,76.37138,CO,37,52,42
India,Haryana,Sirsa,"F-Block, Sirsa - HSPCB",27-06-2024 09:00:00,29.536400,75.015800,CO,100,106,103
India,Haryana,Sonipat,"Murthal, Sonipat - HSPCB",27-06-2024 09:00:00,29.027200,77.062100,NH3,2,10,8
India,Haryana,Yamuna Nagar,"Gobind Pura, Yamuna Nagar - HSPCB",27-06-2024 09:00:00,30.1480566,77.2893471,PM10,56,102,74
India,Haryana,Yamuna Nagar,"Gobind Pura, Yamuna Nagar - HSPCB",27-06-2024 09:00:00,30.1480566,77.2893471,OZONE,31,43,32
India,Himachal Pradesh,Baddi,"HIMUDA Complex Phase-1, Baddi - HPPCB",27-06-2024 09:00:00,30.943887,76.801991,SO2,11,56,21
India,Himachal Pradesh,Baddi,"HIMUDA Complex Phase-1, Baddi - HPPCB",27-06-2024 09:00:00,30.943887,76.801991,OZONE,32,111,53
India,Jharkhand,Dhanbad,"Sardar Patel Nagar, Dhanbad - JSPCB",27-06-2024 09:00:00,23.80569,86.44268,SO2,NA,NA,NA
India,Jharkhand,Pathardih,"Mohalbani Ghat, Pathardih - DMC",27-06-2024 09:00:00,23.669880,86.411725,NO2,NA,NA,NA
India,Karnataka,Bagalkot,"Vidayagiri, Bagalkot - KSPCB",27-06-2024 09:00:00,16.172806,75.659694,SO2,1,9,7
India,Karnataka,Belgaum,"Ramteerth Nagar, Belgaum - KSPCB",27-06-2024 09:00:00,15.888653,74.541751,PM10,11,54,28
India,Karnataka,Belgaum,"Ramteerth Nagar, Belgaum - KSPCB",27-06-2024 09:00:00,15.888653,74.541751,SO2,9,9,9
India,Karnataka,Bengaluru,"Bapuji Nagar, Bengaluru - KSPCB",27-06-2024 09:00:00,12.951913,77.539784,SO2,5,8,7
India,Karnataka,Bengaluru,"Hebbal, Bengaluru - KSPCB",27-06-2024 09:00:00,13.029152,77.585901,PM10,8,47,22
India,Karnataka,Bengaluru,"Jigani, Bengaluru - KSPCB",27-06-2024 09:00:00,12.7816279,77.6299145,PM10,27,38,31
India,Karnataka,Bengaluru,"RVCE-Mailasandra, Bengaluru - KSPCB",27-06-2024 09:00:00,12.921418,77.502466,SO2,8,9,9
India,Karnataka,Bengaluru,"Sanegurava Halli, Bengaluru - KSPCB",27-06-2024 09:00:00,12.990328,77.5431385,PM10,34,62,39
India,Karnataka,Bengaluru,"Sanegurava Halli, Bengaluru - KSPCB",27-06-2024 09:00:00,12.990328,77.5431385,CO,11,67,16
India,Karnataka,Bengaluru,"Shivapura_Peenya, Bengaluru - KSPCB",27-06-2024 09:00:00,13.0246342,77.5080115,NH3,4,4,4
India,Karnataka,Bengaluru,"Shivapura_Peenya, Bengaluru - KSPCB",27-06-2024 09:00:00,13.0246342,77.5080115,CO,17,24,19
India,Karnataka,Bidar,"Naubad, Bidar - KSPCB",27-06-2024 09:00:00,17.930306,77.482194,OZONE,NA,NA,NA
India,Karnataka,Chamarajanagar,"Urban, Chamarajanagar - KSPCB",27-06-2024 09:00:00,11.55358,76.55521,NO2,23,29,29
India,Karnataka,Chamarajanagar,"Urban, Chamarajanagar - KSPCB",27-06-2024 09:00:00,11.55358,76.55521,OZONE,20,30,29
India,Karnataka,Chikkaballapur,"Chikkaballapur Rural, Chikkaballapur - KSPCB",27-06-2024 09:00:00,13.428828,77.731418,NO2,4,8,6
India,Karnataka,Davanagere,"Devaraj Urs Badavane, Davanagere - KSPCB",27-06-2024 09:00:00,14.475800,75.905200,NO2,9,11,10
India,Karnataka,Dharwad,"Kalabhavan, Dharwad - KSPCB",27-06-2024 09:00:00,15.459706,75.008381,PM10,5,120,47
India,Karnataka,Dharwad,"Kalabhavan, Dharwad - KSPCB",27-06-2024 09:00:00,15.459706,75.008381,NO2,3,11,7
India,Karnataka,Gadag,"Panchal Nagar, Gadag - KSPCB",27-06-2024 09:00:00,15.411456,75.638133,PM10,25,232,35
India,Karnataka,Gadag,"Panchal Nagar, Gadag - KSPCB",27-06-2024 09:00:00,15.411456,75.638133,NO2,6,23,14
India,Karnataka,Gadag,"Panchal Nagar, Gadag - KSPCB",27-06-2024 09:00:00,15.411456,75.638133,SO2,8,18,13
India,Karnataka,Hassan,"B.Katihalli, Hassan - KSPCB",27-06-2024 09:00:00,13.008556,76.125258,PM10,14,60,42
India,Karnataka,Hassan,"B.Katihalli, Hassan - KSPCB",27-06-2024 09:00:00,13.008556,76.125258,NH3,1,3,2
India,Karnataka,Hassan,"B.Katihalli, Hassan - KSPCB",27-06-2024 09:00:00,13.008556,76.125258,CO,6,24,10
India,Karnataka,Haveri,"Ashwini Nagar, Haveri - KSPCB",27-06-2024 09:00:00,14.791800,75.389600,NH3,2,92,7
India,Karnataka,Hubballi,"Lingaraj Nagar, Hubballi - KSPCB",27-06-2024 09:00:00,15.3714823,75.1160168,NO2,7,15,10
India,Karnataka,Kalaburagi,"Mahatma Basaveswar Colony, Kalaburgi - KSPCB",27-06-2024 09:00:00,17.336318,76.847397,NO2,10,16,13
India,Karnataka,Kalaburagi,"Mahatma Basaveswar Colony, Kalaburgi - KSPCB",27-06-2024 09:00:00,17.336318,76.847397,CO,26,39,27
India,Karnataka,Karwar,"KHB Colony, Karwar - KSPCB",27-06-2024 09:00:00,14.816666,74.141003,PM10,11,51,31
India,Karnataka,Karwar,"KHB Colony, Karwar - KSPCB",27-06-2024 09:00:00,14.816666,74.141003,NO2,NA,NA,NA
India,Karnataka,Koppal,"Diwator Nagar, Koppal - KSPCB",27-06-2024 09:00:00,15.347630,76.181767,CO,4,4,4
India,Karnataka,Madikeri,"Stuart Hill, Madikeri - KSPCB",27-06-2024 09:00:00,12.415911,75.735050,SO2,4,4,4
India,Karnataka,Mangalore,"Kadri, Mangalore - KSPCB",27-06-2024 09:00:00,12.889250,74.853000,OZONE,29,32,31
India,Karnataka,Mysuru,"Hebbal 1st Stage, Mysuru - KSPCB",27-06-2024 09:00:00,12.21041,76.37376,PM2.5,6,46,15
India,Karnataka,Mysuru,"Hebbal 1st Stage, Mysuru - KSPCB",27-06-2024 09:00:00,12.21041,76.37376,NH3,1,3,2
India,Karnataka,Mysuru,"Hebbal 1st Stage, Mysuru - KSPCB",27-06-2024 09:00:00,12.21041,76.37376,CO,6,24,10
India,Karnataka,Raichur,"Haji Colony, Raichur - KSPCB",27-06-2024 09:00:00,16.208139,77.348417,PM2.5,NA,NA,NA
India,Karnataka,Ramanagara,"Vijay Nagar, Ramanagara - KSPCB",27-06-2024 09:00:00,12.733409,77.298051,PM2.5,9,40,16
India,Karnataka,Shivamogga,"Vinoba Nagara, Shivamogga - KSPCB",27-06-2024 09:00:00,13.940000,75.555917,NO2,8,46,24
India,Karnataka,Tumakuru,"Thimmalapura, Tumakuru - KSPCB",27-06-2024 09:00:00,13.377516,77.099072,NO2,16,17,17
India,Karnataka,Tumakuru,"Thimmalapura, Tumakuru - KSPCB",27-06-2024 09:00:00,13.377516,77.099072,CO,28,36,32
India,Karnataka,Udupi,"Brahmagiri, Udupi - KSPCB",27-06-2024 09:00:00,13.34194444,74.74694444,PM2.5,NA,NA,NA
India,Karnataka,Udupi,"Brahmagiri, Udupi - KSPCB",27-06-2024 09:00:00,13.34194444,74.74694444,NH3,NA,NA,NA
India,Karnataka,Yadgir,"Collector Office, Yadgir - KSPCB",27-06-2024 09:00:00,16.7602,77.1428,PM10,21,42,28
India,Karnataka,Yadgir,"Collector Office, Yadgir - KSPCB",27-06-2024 09:00:00,16.7602,77.1428,NO2,7,14,9
India,Kerala,Eloor,"Udyogamandal, Eloor - Kerala PCB",27-06-2024 09:00:00,10.073232,76.302765,PM2.5,17,69,44
India,Kerala,Eloor,"Udyogamandal, Eloor - Kerala PCB",27-06-2024 09:00:00,10.073232,76.302765,PM10,26,57,42
India,Kerala,Eloor,"Udyogamandal, Eloor - Kerala PCB",27-06-2024 09:00:00,10.073232,76.302765,NO2,5,6,5
India,Kerala,Eloor,"Udyogamandal, Eloor - Kerala PCB",27-06-2024 09:00:00,10.073232,76.302765,CO,14,83,27
India,Kerala,Kannur,"Thavakkara, Kannur - Kerala PCB",27-06-2024 09:00:00,11.875000,75.373200,PM2.5,41,49,45
India,Kerala,Kannur,"Thavakkara, Kannur - Kerala PCB",27-06-2024 09:00:00,11.875000,75.373200,CO,64,73,68
India,Kerala,Kollam,"Polayathode, Kollam - Kerala PCB",27-06-2024 09:00:00,8.8787,76.6073,PM10,NA,NA,NA
India,Kerala,Kollam,"Polayathode, Kollam - Kerala PCB",27-06-2024 09:00:00,8.8787,76.6073,NH3,NA,NA,NA
India,Kerala,Kollam,"Polayathode, Kollam - Kerala PCB",27-06-2024 09:00:00,8.8787,76.6073,CO,NA,NA,NA
India,Kerala,Kollam,"Polayathode, Kollam - Kerala PCB",27-06-2024 09:00:00,8.8787,76.6073,OZONE,NA,NA,NA
India,Kerala,Thrissur,"Corporation Ground, Thrissur - Kerala PCB",27-06-2024 09:00:00,10.532400,76.215900,SO2,1,2,1
India,Madhya Pradesh,Bhopal,"T T Nagar, Bhopal - MPPCB",27-06-2024 09:00:00,23.233584,77.400574,CO,14,38,24
India,Madhya Pradesh,Dewas,"Bhopal Chauraha, Dewas - MPPCB",27-06-2024 09:00:00,22.9682591,76.064118,CO,20,40,22
India,Madhya Pradesh,Gwalior,"City Center, Gwalior - MPPCB",27-06-2024 09:00:00,26.203442,78.193251,PM2.5,5,112,30
India,Madhya Pradesh,Gwalior,"City Center, Gwalior - MPPCB",27-06-2024 09:00:00,26.203442,78.193251,PM10,19,118,56
India,Madhya Pradesh,Gwalior,"Deen Dayal Nagar, Gwalior - MPPCB",27-06-2024 09:00:00,26.259242,78.216432,OZONE,8,124,32
India,Madhya Pradesh,Gwalior,"Phool Bagh, Gwalior - Mondelez Ind. Food",27-06-2024 09:00:00,26.210536,78.171,PM2.5,NA,NA,NA
India,Madhya Pradesh,Gwalior,"Phool Bagh, Gwalior - Mondelez Ind. Food",27-06-2024 09:00:00,26.210536,78.171,PM10,NA,NA,NA
India,Madhya Pradesh,Gwalior,"Phool Bagh, Gwalior - Mondelez Ind. Food",27-06-2024 09:00:00,26.210536,78.171,SO2,20,29,23
India,Madhya Pradesh,Gwalior,"Phool Bagh, Gwalior - Mondelez Ind. Food",27-06-2024 09:00:00,26.210536,78.171,CO,60,86,62
India,Madhya Pradesh,Indore,"Chhoti Gwaltoli, Indore - MPPCB",27-06-2024 09:00:00,22.4310,75.5213,PM2.5,20,72,38
India,Madhya Pradesh,Indore,"Chhoti Gwaltoli, Indore - MPPCB",27-06-2024 09:00:00,22.4310,75.5213,NO2,31,72,50
India,Madhya Pradesh,Indore,"Chhoti Gwaltoli, Indore - MPPCB",27-06-2024 09:00:00,22.4310,75.5213,SO2,11,18,14
India,Madhya Pradesh,Indore,"Chhoti Gwaltoli, Indore - MPPCB",27-06-2024 09:00:00,22.4310,75.5213,CO,70,102,84
India,Madhya Pradesh,Indore,"Maguda Nagar, Indore - IMC",27-06-2024 09:00:00,22.7524,75.8872,PM10,NA,NA,NA
India,Madhya Pradesh,Indore,"Maguda Nagar, Indore - IMC",27-06-2024 09:00:00,22.7524,75.8872,NO2,3,3,3
India,Madhya Pradesh,Indore,"Residency Area, Indore - IMC",27-06-2024 09:00:00,22.7084,75.8815,OZONE,10,16,10
India,Madhya Pradesh,Jabalpur,"Govindh Bhavan Colony, Jabalpur - JMC",27-06-2024 09:00:00,23.163174,79.973061,NH3,NA,NA,NA
India,Madhya Pradesh,Jabalpur,"Govindh Bhavan Colony, Jabalpur - JMC",27-06-2024 09:00:00,23.163174,79.973061,CO,NA,NA,NA
India,Madhya Pradesh,Jabalpur,"Govindh Bhavan Colony, Jabalpur - JMC",27-06-2024 09:00:00,23.163174,79.973061,OZONE,NA,NA,NA
India,Madhya Pradesh,Jabalpur,"Gupteshwar, Jabalpur - JMC",27-06-2024 09:00:00,23.142888,79.916147,PM2.5,42,72,52
India,Madhya Pradesh,Jabalpur,"Gupteshwar, Jabalpur - JMC",27-06-2024 09:00:00,23.142888,79.916147,NO2,10,35,18
India,Madhya Pradesh,Jabalpur,"Gupteshwar, Jabalpur - JMC",27-06-2024 09:00:00,23.142888,79.916147,NH3,4,5,4
India,Madhya Pradesh,Katni,"Gole Bazar, Katni - MPPCB",27-06-2024 09:00:00,23.50016,80.23284,SO2,12,39,20
India,Madhya Pradesh,Maihar,"Sahilara, Maihar - KJS Cements",27-06-2024 09:00:00,24.2613009,80.7231783,PM10,14,111,46
India,Madhya Pradesh,Maihar,"Sahilara, Maihar - KJS Cements",27-06-2024 09:00:00,24.2613009,80.7231783,NO2,14,17,15
India,Madhya Pradesh,Mandideep,"Sector-D Industrial Area, Mandideep - MPPCB",27-06-2024 09:00:00,23.108440,77.511428,NO2,18,34,25
India,Madhya Pradesh,Pithampur,"Sector-2 Industrial Area, Pithampur - MPPCB",27-06-2024 09:00:00,22.624758,75.675238,OZONE,25,101,37
India,Madhya Pradesh,Ratlam,"Shasthri Nagar, Ratlam - IPCA Lab",27-06-2024 09:00:00,23.331731,75.045981,PM10,3,266,80
India,Madhya Pradesh,Sagar,"Civil Lines, Sagar - MPPCB",27-06-2024 09:00:00,23.838586,78.759431,NO2,7,43,14
India,Madhya Pradesh,Sagar,"Civil Lines, Sagar - MPPCB",27-06-2024 09:00:00,23.838586,78.759431,CO,12,41,38
India,Madhya Pradesh,Sagar,"Deen Dayal Nagar, Sagar - MPPCB",27-06-2024 09:00:00,23.8640158,78.80289321,CO,46,63,56
India,Madhya Pradesh,Satna,"Bandhavgar Colony, Satna - Birla Cement",27-06-2024 09:00:00,24.58434363,80.8549414,PM2.5,4,23,13
India,Madhya Pradesh,Satna,"Bandhavgar Colony, Satna - Birla Cement",27-06-2024 09:00:00,24.58434363,80.8549414,CO,28,66,50
India,Madhya Pradesh,Singrauli,"Suryakiran Bhawan NCL, Singrauli - MPPCB",27-06-2024 09:00:00,24.108970,82.645580,SO2,32,114,62
India,Madhya Pradesh,Ujjain,"Mahakaleshwar Temple, Ujjain - MPPCB",27-06-2024 09:00:00,23.182719 ,75.768218 ,CO,11,20,12
India,Maharashtra,Ahmednagar,"Tarakpur, Ahmednagar - MPCB",27-06-2024 09:00:00,19.10122,74.73339,OZONE,16,38,20
India,Maharashtra,Akola,"Ramdaspeth, Akola - MPCB",27-06-2024 09:00:00,20.719516,77.000253,NO2,5,101,19
India,Maharashtra,Amravati,"Shivneri Colony, Amravati - MPCB",27-06-2024 09:00:00,20.9402359,77.7895248,PM2.5,8,22,13
India,Maharashtra,Amravati,"Shivneri Colony, Amravati - MPCB",27-06-2024 09:00:00,20.9402359,77.7895248,NO2,3,11,6
India,Maharashtra,Aurangabad,"MIDC Chilkalthana, Aurangabad - MPCB",27-06-2024 09:00:00,19.875620,75.387310,PM2.5,5,26,17
India,Maharashtra,Aurangabad,"MIDC Chilkalthana, Aurangabad - MPCB",27-06-2024 09:00:00,19.875620,75.387310,PM10,11,34,21
India,Maharashtra,Aurangabad,"MIDC Chilkalthana, Aurangabad - MPCB",27-06-2024 09:00:00,19.875620,75.387310,CO,5,27,8
India,Maharashtra,Aurangabad,"More Chowk Waluj, Aurangabad - MPCB",27-06-2024 09:00:00,19.8389439,75.244448,PM10,16,48,24
India,Maharashtra,Aurangabad,"More Chowk Waluj, Aurangabad - MPCB",27-06-2024 09:00:00,19.8389439,75.244448,NH3,2,3,3
India,Maharashtra,Aurangabad,"More Chowk Waluj, Aurangabad - MPCB",27-06-2024 09:00:00,19.8389439,75.244448,SO2,16,20,18
India,Maharashtra,Badlapur,"Katrap, Badlapur - MPCB",27-06-2024 09:00:00,19.16485,73.23409,NO2,11,25,16
India,Maharashtra,Badlapur,"Katrap, Badlapur - MPCB",27-06-2024 09:00:00,19.16485,73.23409,NH3,1,3,2
India,Maharashtra,Badlapur,"Katrap, Badlapur - MPCB",27-06-2024 09:00:00,19.16485,73.23409,OZONE,6,46,16
India,Maharashtra,Belapur,"CBD Belapur, Belapur - MPCB",27-06-2024 09:00:00,19.0243902,73.0406721,NH3,1,2,2
India,Maharashtra,Belapur,"CBD Belapur, Belapur - MPCB",27-06-2024 09:00:00,19.0243902,73.0406721,OZONE,18,195,59
India,Maharashtra,Bhiwandi,"Gokul Nagar, Bhiwandi - MPCB",27-06-2024 09:00:00,19.309073,73.057223,PM10,18,55,43
India,Maharashtra,Boisar,"Khaira, Boisar - MPCB",27-06-2024 09:00:00,19.786089,72.757971,NO2,3,22,8
India,Maharashtra,Chandrapur,"MIDC Khutala, Chandrapur - MPCB",27-06-2024 09:00:00,19.9775302,79.2337086,PM10,NA,NA,NA
India,Maharashtra,Dhule,"Deopur, Dhule - MPCB",27-06-2024 09:00:00,20.918946,74.776388,PM2.5,11,32,21
India,Maharashtra,Dhule,"Deopur, Dhule - MPCB",27-06-2024 09:00:00,20.918946,74.776388,CO,6,21,8
India,Maharashtra,Jalgaon,"Prabhat Colony, Jalgaon - MPCB",27-06-2024 09:00:00,21.001264,75.565602,PM2.5,9,38,20
India,Maharashtra,Jalgaon,"Prabhat Colony, Jalgaon - MPCB",27-06-2024 09:00:00,21.001264,75.565602,NH3,7,19,13
India,Maharashtra,Jalgaon,"Prabhat Colony, Jalgaon - MPCB",27-06-2024 09:00:00,21.001264,75.565602,OZONE,18,62,22
India,Maharashtra,Kalyan,"Khadakpada, Kalyan - MPCB",27-06-2024 09:00:00,19.25292,73.142019,NH3,1,1,1
India,Maharashtra,Kolhapur,"Sinchan Bhavan, Kolhapur - MPCB",27-06-2024 09:00:00,16.7143745,74.2426398,PM10,19,106,50
India,Maharashtra,Kolhapur,"Sinchan Bhavan, Kolhapur - MPCB",27-06-2024 09:00:00,16.7143745,74.2426398,SO2,1,3,1
India,Maharashtra,Mahad,"Kamble Tarf Birwadi, Mahad - MPCB",27-06-2024 09:00:00,18.1023399,73.4783687,SO2,10,28,13
India,Maharashtra,Mahad,"Kamble Tarf Birwadi, Mahad - MPCB",27-06-2024 09:00:00,18.1023399,73.4783687,CO,2,34,14
India,Maharashtra,Mira-Bhayandar,"Bhayandar West, Mira-Bhayandar - MPCB",27-06-2024 09:00:00,19.296481,72.840923,PM2.5,7,27,17
India,Maharashtra,Mira-Bhayandar,"Bhayandar West, Mira-Bhayandar - MPCB",27-06-2024 09:00:00,19.296481,72.840923,OZONE,8,28,16
India,Maharashtra,Mumbai,"Borivali East, Mumbai - MPCB",27-06-2024 09:00:00,19.2243333,72.8658113,NO2,2,6,3
India,Maharashtra,Mumbai,"Borivali East, Mumbai - MPCB",27-06-2024 09:00:00,19.2243333,72.8658113,CO,20,38,22
India,Maharashtra,Mumbai,"Byculla, Mumbai - BMC",27-06-2024 09:00:00,18.9767,72.8380,OZONE,15,38,22
India,Maharashtra,Mumbai,"Chakala-Andheri East, Mumbai - IITM",27-06-2024 09:00:00,19.11074,72.86084,OZONE,14,48,22
India,Maharashtra,Mumbai,"Chembur, Mumbai - MPCB",27-06-2024 09:00:00,19.0364585,72.8954371,PM2.5,1,23,16
India,Maharashtra,Mumbai,"Chembur, Mumbai - MPCB",27-06-2024 09:00:00,19.0364585,72.8954371,NH3,2,4,3
India,Maharashtra,Mumbai,"Chembur, Mumbai - MPCB",27-06-2024 09:00:00,19.0364585,72.8954371,CO,25,38,26
India,Maharashtra,Mumbai,"Chhatrapati Shivaji Intl. Airport (T2), Mumbai - MPCB",27-06-2024 09:00:00,19.10078,72.87462,CO,14,48,17
India,Maharashtra,Mumbai,"Ghatkopar, Mumbai - BMC",27-06-2024 09:00:00,19.083694,72.920967,NO2,11,26,19
India,Maharashtra,Mumbai,"Ghatkopar, Mumbai - BMC",27-06-2024 09:00:00,19.083694,72.920967,CO,4,24,9
India,Maharashtra,Mumbai,"Ghatkopar, Mumbai - BMC",27-06-2024 09:00:00,19.083694,72.920967,OZONE,15,30,19
India,Maharashtra,Mumbai,"Kandivali East, Mumbai - MPCB",27-06-2024 09:00:00,19.205800,72.868200,PM10,NA,NA,NA
India,Maharashtra,Mumbai,"Kandivali East, Mumbai - MPCB",27-06-2024 09:00:00,19.205800,72.868200,CO,NA,NA,NA
India,Maharashtra,Mumbai,"Kandivali West, Mumbai - BMC",27-06-2024 09:00:00,19.215859,72.831718,PM2.5,1,12,5
India,Maharashtra,Mumbai,"Kandivali West, Mumbai - BMC",27-06-2024 09:00:00,19.215859,72.831718,SO2,1,3,1
India,Maharashtra,Mumbai,"Kandivali West, Mumbai - BMC",27-06-2024 09:00:00,19.215859,72.831718,CO,9,26,14
India,Maharashtra,Mumbai,"Kherwadi_Bandra East, Mumbai - MPCB",27-06-2024 09:00:00,19.0632143,72.8456324,PM10,NA,NA,NA
India,Maharashtra,Mumbai,"Kherwadi_Bandra East, Mumbai - MPCB",27-06-2024 09:00:00,19.0632143,72.8456324,NH3,1,4,2
India,Maharashtra,Mumbai,"Khindipada-Bhandup West, Mumbai - IITM",27-06-2024 09:00:00,19.1653323,72.922099,PM2.5,7,24,12
India,Maharashtra,Mumbai,"Khindipada-Bhandup West, Mumbai - IITM",27-06-2024 09:00:00,19.1653323,72.922099,SO2,1,5,2
India,Maharashtra,Mumbai,"Kurla, Mumbai - MPCB",27-06-2024 09:00:00,19.0863,72.8888,PM10,81,91,86
India,Maharashtra,Mumbai,"Kurla, Mumbai - MPCB",27-06-2024 09:00:00,19.0863,72.8888,CO,1,16,6
India,Maharashtra,Mumbai,"Kurla, Mumbai - MPCB",27-06-2024 09:00:00,19.0863,72.8888,OZONE,28,29,28
India,Maharashtra,Mumbai,"Mazgaon, Mumbai - IITM",27-06-2024 09:00:00,18.96702,72.84214,SO2,NA,NA,NA
India,Maharashtra,Mumbai,"Mazgaon, Mumbai - IITM",27-06-2024 09:00:00,18.96702,72.84214,OZONE,11,30,16
India,Maharashtra,Mumbai,"Mindspace-Malad West, Mumbai - MPCB",27-06-2024 09:00:00,19.1878657,72.8304069,PM10,16,37,26
India,Maharashtra,Mumbai,"Mulund West, Mumbai - MPCB",27-06-2024 09:00:00,19.1750,72.9419,NO2,NA,NA,NA
India,Maharashtra,Mumbai,"Mulund West, Mumbai - MPCB",27-06-2024 09:00:00,19.1750,72.9419,OZONE,7,8,7
India,Maharashtra,Mumbai,"Navy Nagar-Colaba, Mumbai - IITM",27-06-2024 09:00:00,18.897756,72.813320,PM10,12,39,29
India,Maharashtra,Mumbai,"Siddharth Nagar-Worli, Mumbai - IITM",27-06-2024 09:00:00,19.000083,72.813993,NH3,NA,NA,NA
India,Maharashtra,Mumbai,"Siddharth Nagar-Worli, Mumbai - IITM",27-06-2024 09:00:00,19.000083,72.813993,CO,46,62,53
India,Maharashtra,Mumbai,"Siddharth Nagar-Worli, Mumbai - IITM",27-06-2024 09:00:00,19.000083,72.813993,OZONE,26,42,34
India,Maharashtra,Mumbai,"Sion, Mumbai - MPCB",27-06-2024 09:00:00,19.047000,72.874600,PM2.5,14,38,28
India,Maharashtra,Mumbai,"Sion, Mumbai - MPCB",27-06-2024 09:00:00,19.047000,72.874600,PM10,22,68,42
India,Maharashtra,Mumbai,"Vasai West, Mumbai - MPCB",27-06-2024 09:00:00,19.383200,72.820400,PM2.5,5,41,13
India,Maharashtra,Mumbai,"Vasai West, Mumbai - MPCB",27-06-2024 09:00:00,19.383200,72.820400,NH3,4,4,4
India,Maharashtra,Mumbai,"Vile Parle West, Mumbai - MPCB",27-06-2024 09:00:00,19.10861,72.83622,SO2,NA,NA,NA
India,Maharashtra,Mumbai,"Vile Parle West, Mumbai - MPCB",27-06-2024 09:00:00,19.10861,72.83622,OZONE,NA,NA,NA
India,Maharashtra,Nagpur,"Ambazari, Nagpur - MPCB",27-06-2024 09:00:00,21.121801,79.04952,NO2,3,52,18
India,Maharashtra,Nagpur,"Ambazari, Nagpur - MPCB",27-06-2024 09:00:00,21.121801,79.04952,OZONE,1,41,15
India,Maharashtra,Nagpur,"Mahal, Nagpur - MPCB",27-06-2024 09:00:00,21.14472,79.107595,NH3,1,5,2
India,Maharashtra,Nagpur,"Mahal, Nagpur - MPCB",27-06-2024 09:00:00,21.14472,79.107595,OZONE,11,60,17
India,Maharashtra,Nagpur,"Opp GPO Civil Lines, Nagpur - MPCB",27-06-2024 09:00:00,21.152875,79.0517531,PM2.5,7,71,27
India,Maharashtra,Nagpur,"Opp GPO Civil Lines, Nagpur - MPCB",27-06-2024 09:00:00,21.152875,79.0517531,PM10,7,59,30
India,Maharashtra,Nagpur,"Opp GPO Civil Lines, Nagpur - MPCB",27-06-2024 09:00:00,21.152875,79.0517531,NH3,2,4,3
India,Maharashtra,Nagpur,"Opp GPO Civil Lines, Nagpur - MPCB",27-06-2024 09:00:00,21.152875,79.0517531,SO2,1,5,2
India,Maharashtra,Nashik,"Gangapur Road, Nashik - MPCB",27-06-2024 09:00:00,20.0073285,73.7762427,NO2,5,11,7
India,Maharashtra,Nashik,"Gangapur Road, Nashik - MPCB",27-06-2024 09:00:00,20.0073285,73.7762427,SO2,4,19,12
India,Maharashtra,Nashik,"Gangapur Road, Nashik - MPCB",27-06-2024 09:00:00,20.0073285,73.7762427,OZONE,11,43,16
India,Maharashtra,Nashik,"Hirawadi, Nashik - MPCB",27-06-2024 09:00:00,20.021503,73.813844,NH3,2,5,3
India,Maharashtra,Nashik,"Hirawadi, Nashik - MPCB",27-06-2024 09:00:00,20.021503,73.813844,CO,8,20,12
India,Maharashtra,Nashik,"MIDC Ambad, Nashik - MPCB",27-06-2024 09:00:00,19.950220,73.731480,OZONE,19,54,22
India,Maharashtra,Nashik,"Pandav Nagari, Nashik - MPCB",27-06-2024 09:00:00,19.9591346,73.7788008,NO2,9,36,22
India,Maharashtra,Nashik,"Pandav Nagari, Nashik - MPCB",27-06-2024 09:00:00,19.9591346,73.7788008,CO,11,14,12
India,Maharashtra,Navi Mumbai,"Kopripada-Vashi, Navi Mumbai - MPCB",27-06-2024 09:00:00,19.090337,73.014232,CO,12,23,14
India,Maharashtra,Navi Mumbai,"Mahape, Navi Mumbai - MPCB",27-06-2024 09:00:00,19.1135051,73.008978,PM2.5,13,33,22
India,Maharashtra,Navi Mumbai,"Mahape, Navi Mumbai - MPCB",27-06-2024 09:00:00,19.1135051,73.008978,SO2,15,15,15
India,Maharashtra,Navi Mumbai,"Nerul, Navi Mumbai - MPCB",27-06-2024 09:00:00,19.008751,73.016620,CO,14,27,25
India,Maharashtra,Navi Mumbai,"Sanpada, Navi Mumbai - MPCB",27-06-2024 09:00:00,19.0575752,73.0151367,NO2,NA,NA,NA
India,Maharashtra,Navi Mumbai,"Sanpada, Navi Mumbai - MPCB",27-06-2024 09:00:00,19.0575752,73.0151367,NH3,NA,NA,NA
India,Maharashtra,Navi Mumbai,"Sector-19A Nerul, Navi Mumbai - IITM",27-06-2024 09:00:00,19.044,73.0325,OZONE,2,11,7
India,Maharashtra,Navi Mumbai,"Sector-2E Kalamboli, Navi Mumbai - MPCB",27-06-2024 09:00:00,19.02579,73.10297,NH3,1,2,1
India,Maharashtra,Navi Mumbai,"Tondare-Taloja, Navi Mumbai - MPCB",27-06-2024 09:00:00,19.0630,73.1209,PM10,19,88,44
India,Maharashtra,Navi Mumbai,"Tondare-Taloja, Navi Mumbai - MPCB",27-06-2024 09:00:00,19.0630,73.1209,NH3,NA,NA,NA
India,Maharashtra,Navi Mumbai,"Tondare-Taloja, Navi Mumbai - MPCB",27-06-2024 09:00:00,19.0630,73.1209,OZONE,2,38,7
India,Maharashtra,Pimpri-Chinchwad,"Gavalinagar, Pimpri Chinchwad - MPCB",27-06-2024 09:00:00,18.63673,73.82487,PM10,8,16,12
India,Maharashtra,Pimpri-Chinchwad,"Gavalinagar, Pimpri Chinchwad - MPCB",27-06-2024 09:00:00,18.63673,73.82487,SO2,1,3,2
India,Maharashtra,Pune,"Bhosari, Pune - IITM",27-06-2024 09:00:00,18.640051,73.848956,CO,35,82,50
India,Maharashtra,Pune,"Bhosari, Pune - IITM",27-06-2024 09:00:00,18.640051,73.848956,OZONE,22,43,31
India,Maharashtra,Pune,"Bhumkar Nagar, Pune - IITM",27-06-2024 09:00:00,18.605770,73.749976,PM10,4,56,11
India,Maharashtra,Pune,"Bhumkar Nagar, Pune - IITM",27-06-2024 09:00:00,18.605770,73.749976,CO,1,105,37
India,Maharashtra,Pune,"Karve Road, Pune - MPCB",27-06-2024 09:00:00,18.5011743,73.8165527,NO2,NA,NA,NA
India,Maharashtra,Pune,"Revenue Colony-Shivajinagar, Pune - IITM",27-06-2024 09:00:00,18.530085,73.849598,PM10,16,51,28
India,Maharashtra,Pune,"Revenue Colony-Shivajinagar, Pune - IITM",27-06-2024 09:00:00,18.530085,73.849598,NO2,21,54,37
India,Maharashtra,Pune,"Revenue Colony-Shivajinagar, Pune - IITM",27-06-2024 09:00:00,18.530085,73.849598,CO,16,40,21
India,Maharashtra,Pune,"Savitribai Phule Pune University, Pune - MPCB",27-06-2024 09:00:00,18.547056,73.826908,CO,8,25,10
India,Maharashtra,Pune,"Transport Nagar-Nigdi, Pune - IITM",27-06-2024 09:00:00,18.664282,73.763966,CO,13,53,44
India,Maharashtra,Sangli,"Vijay Nagar, Sangli - MPCB",27-06-2024 09:00:00, 16.5038,74.3623,NO2,4,9,6
India,Maharashtra,Solapur,"Dnyaneshwar Nagar, Solapur - MPCB",27-06-2024 09:00:00,17.6336264,75.9132495,PM2.5,4,17,9
India,Maharashtra,Solapur,"Dnyaneshwar Nagar, Solapur - MPCB",27-06-2024 09:00:00,17.6336264,75.9132495,PM10,18,56,34
India,Maharashtra,Solapur,"Dnyaneshwar Nagar, Solapur - MPCB",27-06-2024 09:00:00,17.6336264,75.9132495,OZONE,20,46,30
India,Maharashtra,Solapur,"Ratandeep Housing Society, Solapur - MPCB",27-06-2024 09:00:00,17.65439,75.90649,NH3,10,14,13
India,Maharashtra,Solapur,"Solapur, Solapur - MPCB",27-06-2024 09:00:00,17.6599188,75.9063906,PM10,77,82,82
India,Maharashtra,Thane,"Kasarvadavali, Thane - MPCB",27-06-2024 09:00:00,19.26777,72.97182,NO2,7,23,15
India,Maharashtra,Thane,"Kasarvadavali, Thane - MPCB",27-06-2024 09:00:00,19.26777,72.97182,CO,2,30,15
India,Maharashtra,Thane,"Pimpleshwar Mandir, Thane - MPCB",27-06-2024 09:00:00,19.192056,72.9585188,PM10,14,70,32
India,Maharashtra,Thane,"Pimpleshwar Mandir, Thane - MPCB",27-06-2024 09:00:00,19.192056,72.9585188,SO2,1,6,3
India,Maharashtra,Thane,"Upvan Fort, Thane - MPCB",27-06-2024 09:00:00,19.222279,72.957979,PM10,5,33,17
India,Maharashtra,Thane,"Upvan Fort, Thane - MPCB",27-06-2024 09:00:00,19.222279,72.957979,NH3,1,2,2
India,Maharashtra,Ulhasnagar,"Sidhi Vinayak Nagar, Ulhasnagar - MPCB",27-06-2024 09:00:00,19.235581,73.159121,PM2.5,16,42,27
India,Maharashtra,Ulhasnagar,"Sidhi Vinayak Nagar, Ulhasnagar - MPCB",27-06-2024 09:00:00,19.235581,73.159121,OZONE,9,47,19
India,Maharashtra,Virar,"Bolinj, Virar - MPCB",27-06-2024 09:00:00,19.4458210,72.7988231,PM10,12,79,40
India,Maharashtra,Virar,"Bolinj, Virar - MPCB",27-06-2024 09:00:00,19.4458210,72.7988231,OZONE,8,39,13
India,Manipur,Imphal,"DM College of Science, Imphal - Manipur PCB",27-06-2024 09:00:00,24.8207389,93.9423085,CO,6,7,7
India,Meghalaya,Shillong,"Lumpyngngad, Shillong - Meghalaya PCB",27-06-2024 09:00:00,25.5586,91.8985,CO,NA,NA,NA
India,Mizoram,Aizawl,"Sikulpuikawn, Aizawl - Mizoram PCB",27-06-2024 09:00:00,23.7176342,92.7192841,NH3,1,6,2
India,Nagaland,Kohima,"PWD Juction, Kohima - NPCB",27-06-2024 09:00:00,25.6635413,94.0989878,PM10,3,79,31
India,Nagaland,Kohima,"PWD Juction, Kohima - NPCB",27-06-2024 09:00:00,25.6635413,94.0989878,NO2,3,6,3
India,Nagaland,Kohima,"PWD Juction, Kohima - NPCB",27-06-2024 09:00:00,25.6635413,94.0989878,OZONE,3,7,3
India,Odisha,Angul,"Hakimapada, Angul - OSPCB",27-06-2024 09:00:00,20.832874,85.104082,PM10,26,226,97
India,Odisha,Balasore,"Kalidaspur, Balasore - OSPCB",27-06-2024 09:00:00,21.51161,86.89088,OZONE,5,37,8
India,Odisha,Barbil,"Forest Office, Barbil - OSPCB",27-06-2024 09:00:00,22.1166054,85.3945546,PM10,32,124,66
India,Odisha,Barbil,"Forest Office, Barbil - OSPCB",27-06-2024 09:00:00,22.1166054,85.3945546,CO,16,44,34
India,Odisha,Baripada,"Meher Colony, Baripada - OSPCB",27-06-2024 09:00:00,21.941841,86.728318,SO2,1,19,10
India,Odisha,Bhubaneswar,"Patia, Bhubaneswar - OSPCB",27-06-2024 09:00:00,20.34652,85.81630,CO,16,44,19
India,Odisha,Bhubaneswar,"Patia, Bhubaneswar - OSPCB",27-06-2024 09:00:00,20.34652,85.81630,OZONE,9,62,13
India,Odisha,Bileipada,"Tata Township, Bileipada - OSPCB",27-06-2024 09:00:00,22.06156703,85.47409613,PM10,59,108,87
India,Odisha,Bileipada,"Tata Township, Bileipada - OSPCB",27-06-2024 09:00:00,22.06156703,85.47409613,NO2,4,7,5
India,Odisha,Bileipada,"Tata Township, Bileipada - OSPCB",27-06-2024 09:00:00,22.06156703,85.47409613,CO,9,20,10
India,Odisha,Bileipada,"Tata Township, Bileipada - OSPCB",27-06-2024 09:00:00,22.06156703,85.47409613,OZONE,2,95,8
India,Odisha,Byasanagar,"Ferro Chrome Colony, Byasanagar - OSPCB",27-06-2024 09:00:00,20.94185,86.11510,PM10,16,87,42
India,Odisha,Byasanagar,"Ferro Chrome Colony, Byasanagar - OSPCB",27-06-2024 09:00:00,20.94185,86.11510,CO,22,33,25
India,Odisha,Byasanagar,"Ferro Chrome Colony, Byasanagar - OSPCB",27-06-2024 09:00:00,20.94185,86.11510,OZONE,8,158,36
India,Odisha,Cuttack,"CDA Area, Cuttack - OSPCB",27-06-2024 09:00:00,20.48891     ,85.84768     ,PM2.5,8,72,28
India,Odisha,Cuttack,"CDA Area, Cuttack - OSPCB",27-06-2024 09:00:00,20.48891     ,85.84768     ,NH3,NA,NA,NA
India,Odisha,Cuttack,"CDA Area, Cuttack - OSPCB",27-06-2024 09:00:00,20.48891     ,85.84768     ,CO,12,24,15
India,Odisha,Keonjhar,"Jagamohanpur, Keonjhar - OSPCB",27-06-2024 09:00:00,21.643900,85.599355,CO,4,42,15
India,Odisha,Nayagarh,"Dabuna, Nayagarh - OSPCB",27-06-2024 09:00:00,21.847279,85.416905,PM10,NA,NA,NA
India,Odisha,Nayagarh,"Dabuna, Nayagarh - OSPCB",27-06-2024 09:00:00,21.847279,85.416905,NO2,NA,NA,NA
India,Odisha,Rourkela,"Fertilizer Township, Rourkela - OSPCB",27-06-2024 09:00:00,22.18972222,84.86277778,PM2.5,95,159,111
India,Odisha,Rourkela,"Fertilizer Township, Rourkela - OSPCB",27-06-2024 09:00:00,22.18972222,84.86277778,CO,6,25,17
India,Odisha,Suakati,"OMC Colony, Suakati - OSPCB",27-06-2024 09:00:00,21.606865,85.510538,NO2,11,14,12
India,Odisha,Talcher,"Talcher Coalfields,Talcher - OSPCB",27-06-2024 09:00:00,20.9360711,85.1707021,SO2,18,25,20
India,Odisha,Tensa,"Barsua Iron Ore Mines, Tensa - OSPCB",27-06-2024 09:00:00,21.869985,85.167016,PM10,47,95,67
India,Odisha,Tensa,"Barsua Iron Ore Mines, Tensa - OSPCB",27-06-2024 09:00:00,21.869985,85.167016,OZONE,1,35,3
India,Puducherry,Puducherry,"Jawahar Nagar, Puducherry - PPCC",27-06-2024 09:00:00,11.9309,79.8027,SO2,8,15,11
India,Punjab,Bathinda,"Hardev Nagar, Bathinda - PPCB",27-06-2024 09:00:00,30.233011,74.907758,SO2,10,51,24
India,Punjab,Jalandhar,"Civil Line, Jalandhar - PPCB",27-06-2024 09:00:00,31.321907,75.578914,NO2,24,28,27
India,Punjab,Khanna,"Kalal Majra, Khanna - PPCB",27-06-2024 09:00:00,30.736056 ,76.209694,NH3,9,9,9
India,Punjab,Ludhiana,"Punjab Agricultural University, Ludhiana - PPCB",27-06-2024 09:00:00,30.9028,75.8086,NO2,23,26,24
India,Punjab,Ludhiana,"Punjab Agricultural University, Ludhiana - PPCB",27-06-2024 09:00:00,30.9028,75.8086,SO2,8,30,14
India,Punjab,Ludhiana,"Punjab Agricultural University, Ludhiana - PPCB",27-06-2024 09:00:00,30.9028,75.8086,OZONE,7,20,14
India,Punjab,Rupnagar,"Ratanpura, Rupnagar - Ambuja Cements",27-06-2024 09:00:00,31.0325454,76.5623046,PM2.5,4,38,20
India,Punjab,Rupnagar,"Ratanpura, Rupnagar - Ambuja Cements",27-06-2024 09:00:00,31.0325454,76.5623046,PM10,38,72,56
India,Rajasthan,Alwar,"Moti Doongri, Alwar - RSPCB",27-06-2024 09:00:00,27.554793,76.611536,SO2,22,42,31
India,Rajasthan,Banswara,"Rati Talai, Banswara - RSPCB",27-06-2024 09:00:00,23.555190,74.440010,OZONE,14,349,82
India,Rajasthan,Baran,"Bamboliya, Baran - RSPCB",27-06-2024 09:00:00,25.106006,76.469948,PM10,11,57,29
India,Rajasthan,Barmer,"Railway Colony, Barmer - RSPCB",27-06-2024 09:00:00,25.747299,71.393989,PM10,16,112,59
India,Rajasthan,Bharatpur,"Krishna Nagar, Bharatpur - RSPCB",27-06-2024 09:00:00,27.215415,77.50873,NH3,5,11,8
India,Rajasthan,Bharatpur,"Krishna Nagar, Bharatpur - RSPCB",27-06-2024 09:00:00,27.215415,77.50873,SO2,1,2,1
India,Rajasthan,Bhiwadi,"RIICO Ind. Area III, Bhiwadi - RSPCB",27-06-2024 09:00:00,28.194909,76.862296,NH3,2,18,8
India,Rajasthan,Bhiwadi,"RIICO Ind. Area III, Bhiwadi - RSPCB",27-06-2024 09:00:00,28.194909,76.862296,SO2,2,22,11
India,Rajasthan,Bhiwadi,"Vasundhara Nagar_UIT, Bhiwadi - RSPCB",27-06-2024 09:00:00,28.207266,76.829265,PM2.5,49,201,107
India,Rajasthan,Bhiwadi,"Vasundhara Nagar_UIT, Bhiwadi - RSPCB",27-06-2024 09:00:00,28.207266,76.829265,PM10,70,159,105
India,Rajasthan,Bhiwadi,"Vasundhara Nagar_UIT, Bhiwadi - RSPCB",27-06-2024 09:00:00,28.207266,76.829265,NH3,19,32,24
India,Rajasthan,Bikaner,"MM Ground, Bikaner - RSPCB",27-06-2024 09:00:00,28.018792,73.292658,PM10,18,174,80
India,Rajasthan,Bikaner,"MM Ground, Bikaner - RSPCB",27-06-2024 09:00:00,28.018792,73.292658,NO2,13,41,26
India,Rajasthan,Bikaner,"MM Ground, Bikaner - RSPCB",27-06-2024 09:00:00,28.018792,73.292658,NH3,7,29,14
India,Rajasthan,Chittorgarh,"Shastri Nagar, Chittorgarh - RSPCB",27-06-2024 09:00:00,24.892047,74.623527,NO2,NA,NA,NA
India,Rajasthan,Churu,"Subash Chowk, Churu - RSPCB",27-06-2024 09:00:00,28.296139,74.961696,OZONE,14,119,22
India,Rajasthan,Dausa,"Khatikan Mohalla, Dausa - RSPCB",27-06-2024 09:00:00,26.895552,76.334753,NO2,7,43,14
India,Rajasthan,Dholpur,"Raja Ganj, Dholpur - RSPCB",27-06-2024 09:00:00,26.699557,77.898881,PM2.5,15,500,232
India,Rajasthan,Dholpur,"Raja Ganj, Dholpur - RSPCB",27-06-2024 09:00:00,26.699557,77.898881,NO2,2,25,8
India,Rajasthan,Dholpur,"Raja Ganj, Dholpur - RSPCB",27-06-2024 09:00:00,26.699557,77.898881,CO,2,34,12
India,Rajasthan,Dungarpur,"Bhoiwada, Dungarpur - RSPCB",27-06-2024 09:00:00,23.837789,73.714926,NO2,8,18,11
India,Rajasthan,Hanumangarh,"Housing Board, Hanumangarh - RSPCB",27-06-2024 09:00:00,29.610750,74.283608,PM2.5,NA,NA,NA
India,Rajasthan,Jaipur,"Police Commissionerate, Jaipur - RSPCB",27-06-2024 09:00:00,26.9164092,75.7994901,PM10,17,105,61
India,Rajasthan,Jaipur,"RIICO Sitapura, Jaipur - RSPCB",27-06-2024 09:00:00,26.786682,75.827928,NH3,1,2,1
India,Rajasthan,Jaipur,"Sector-2 Murlipura, Jaipur - RSPCB",27-06-2024 09:00:00,26.960669,75.771817,PM10,NA,NA,NA
India,Rajasthan,Jaipur,"Sector-2 Murlipura, Jaipur - RSPCB",27-06-2024 09:00:00,26.960669,75.771817,OZONE,11,52,17
India,Rajasthan,Jaipur,"Shastri Nagar, Jaipur - RSPCB",27-06-2024 09:00:00,26.9502929,75.730943,PM2.5,23,115,58
India,Rajasthan,Jaipur,"Shastri Nagar, Jaipur - RSPCB",27-06-2024 09:00:00,26.9502929,75.730943,SO2,14,49,23
India,Rajasthan,Jaisalmer,"Sadar Bazar, Jaisalmer - RSPCB",27-06-2024 09:00:00,26.912329,70.909168,NO2,7,42,14
India,Rajasthan,Jaisalmer,"Sadar Bazar, Jaisalmer - RSPCB",27-06-2024 09:00:00,26.912329,70.909168,SO2,3,5,4
India,Rajasthan,Jalore,"Mudtra Sili, Jalore - RSPCB",27-06-2024 09:00:00,25.344694,72.626208,NO2,6,37,16
India,Rajasthan,Jhalawar,"Rajlaxmi Nagar, Jhalawar - RSPCB",27-06-2024 09:00:00,24.588397,76.172782,PM2.5,8,44,24
India,Rajasthan,Jhunjhunu,"Indra Nagar, Jhunjhunu - RSPCB",27-06-2024 09:00:00,28.108988,75.386577,CO,23,38,29
India,Rajasthan,Jodhpur,"Collectorate, Jodhpur - RSPCB",27-06-2024 09:00:00,26.268249,73.0193853,PM10,48,258,103
India,Rajasthan,Jodhpur,"Collectorate, Jodhpur - RSPCB",27-06-2024 09:00:00,26.268249,73.0193853,NO2,1,14,6
India,Rajasthan,Jodhpur,"Collectorate, Jodhpur - RSPCB",27-06-2024 09:00:00,26.268249,73.0193853,SO2,2,9,5
India,Rajasthan,Jodhpur,"Collectorate, Jodhpur - RSPCB",27-06-2024 09:00:00,26.268249,73.0193853,CO,3,114,35
India,Rajasthan,Jodhpur,"Collectorate, Jodhpur - RSPCB",27-06-2024 09:00:00,26.268249,73.0193853,OZONE,2,50,9
India,Rajasthan,Jodhpur,"Digari Kalan, Jodhpur - RSPCB",27-06-2024 09:00:00,26.295810,73.082283,NH3,2,14,9
India,Rajasthan,Jodhpur,"Jhalamand, Jodhpur - RSPCB",27-06-2024 09:00:00,26.215415,73.070156,CO,10,31,16
India,Rajasthan,Jodhpur,"Jhalamand, Jodhpur - RSPCB",27-06-2024 09:00:00,26.215415,73.070156,OZONE,20,147,22
India,Rajasthan,Jodhpur,"Mandor, Jodhpur - RSPCB",27-06-2024 09:00:00,26.358805,73.047444,OZONE,22,97,35
India,Rajasthan,Jodhpur,"Samrat Ashok Udhyan, Jodhpur - RSPCB",27-06-2024 09:00:00,26.253384,72.976571,NO2,4,28,12
India,Rajasthan,Jodhpur,"Samrat Ashok Udhyan, Jodhpur - RSPCB",27-06-2024 09:00:00,26.253384,72.976571,OZONE,36,108,40
India,Rajasthan,Karauli,"Satyawati Vihar, Karauli - RSPCB",27-06-2024 09:00:00,26.506177,77.025989,NO2,6,14,9
India,Rajasthan,Karauli,"Satyawati Vihar, Karauli - RSPCB",27-06-2024 09:00:00,26.506177,77.025989,NH3,7,21,12
India,Rajasthan,Kota,"Dhanmandi, Kota - RSPCB",27-06-2024 09:00:00,25.164090,75.858137,PM2.5,2,202,65
India,Rajasthan,Kota,"Dhanmandi, Kota - RSPCB",27-06-2024 09:00:00,25.164090,75.858137,OZONE,3,104,5
India,Rajasthan,Kota,"Nayapura, Kota - RSPCB",27-06-2024 09:00:00,25.196024,75.855668,PM10,12,84,42
India,Rajasthan,Kota,"Nayapura, Kota - RSPCB",27-06-2024 09:00:00,25.196024,75.855668,NO2,8,32,16
India,Rajasthan,Kota,"Nayapura, Kota - RSPCB",27-06-2024 09:00:00,25.196024,75.855668,OZONE,2,119,30
India,Rajasthan,Kota,"Shrinath Puram, Kota - RSPCB",27-06-2024 09:00:00,25.14389,75.821256,NH3,NA,NA,NA
India,Rajasthan,Kota,"Shrinath Puram, Kota - RSPCB",27-06-2024 09:00:00,25.14389,75.821256,OZONE,35,138,45
India,Rajasthan,Nagaur,"Karni Colony, Nagaur - RSPCB",27-06-2024 09:00:00,27.213494,73.734444,PM2.5,NA,NA,NA
India,Rajasthan,Pali,"Indira Colony Vistar, Pali - RSPCB",27-06-2024 09:00:00,25.771061, 73.340227,SO2,4,10,7
India,Rajasthan,Pratapgarh,"Pragati Nagar, Pratapgarh - RSPCB",27-06-2024 09:00:00,24.041198,74.780702,NH3,5,8,6
India,Rajasthan,Rajsamand,"Dhoinda, Rajsamand - RSPCB",27-06-2024 09:00:00,25.036360,73.883502,SO2,NA,NA,NA
India,Rajasthan,Sawai Madhopur,"Sahu Nagar, Sawai Madhopur - RSPCB",27-06-2024 09:00:00,26.031443,76.359327,PM10,8,59,26
India,Rajasthan,Sikar,"Radhakishan Pura, Sikar - RSPCB",27-06-2024 09:00:00,27.608912,75.153302,PM2.5,16,148,61
India,Rajasthan,Sikar,"Radhakishan Pura, Sikar - RSPCB",27-06-2024 09:00:00,27.608912,75.153302,SO2,2,8,5
India,Rajasthan,Sirohi,"Vedhaynath Colony, Sirohi - RSPCB",27-06-2024 09:00:00,24.885261,72.857549,PM10,NA,NA,NA
India,Rajasthan,Sri Ganganagar,"Old City, Sri Ganganagar - RSPCB",27-06-2024 09:00:00,29.931624,73.864511,PM2.5,46,242,151
India,Rajasthan,Sri Ganganagar,"Old City, Sri Ganganagar - RSPCB",27-06-2024 09:00:00,29.931624,73.864511,NO2,4,99,34
India,Rajasthan,Tonk,"Shastri Nagar, Tonk - RSPCB",27-06-2024 09:00:00,26.159933,75.780517,NH3,1,5,2
India,Rajasthan,Udaipur,"Ashok Nagar, Udaipur - RSPCB",27-06-2024 09:00:00,24.5886166,73.6321397,NO2,1,268,49
India,Sikkim,Gangtok,"Zero Point GICI, Gangtok - SSPCB",27-06-2024 09:00:00,27.338530,88.614099,SO2,12,13,12
India,TamilNadu,Ariyalur,"Keelapalur, Ariyalur - TNPCB",27-06-2024 09:00:00,11.06825,79.07033,PM2.5,5,21,13
India,TamilNadu,Ariyalur,"Keelapalur, Ariyalur - TNPCB",27-06-2024 09:00:00,11.06825,79.07033,PM10,6,25,15
India,TamilNadu,Chennai,"Alandur Bus Depot, Chennai - CPCB",27-06-2024 09:00:00,12.9099161,80.1076538,PM2.5,25,25,25
India,TamilNadu,Chennai,"Kodungaiyur, Chennai - TNPCB",27-06-2024 09:00:00,13.1278,80.2642,SO2,1,6,4
India,TamilNadu,Chennai,"Kodungaiyur, Chennai - TNPCB",27-06-2024 09:00:00,13.1278,80.2642,CO,24,48,29
India,TamilNadu,Chennai,"Kodungaiyur, Chennai - TNPCB",27-06-2024 09:00:00,13.1278,80.2642,OZONE,24,49,30
India,TamilNadu,Chennai,"Manali, Chennai - CPCB",27-06-2024 09:00:00,13.164544,80.26285,NO2,6,8,7
India,TamilNadu,Chennai,"Manali, Chennai - CPCB",27-06-2024 09:00:00,13.164544,80.26285,NH3,4,6,5
India,TamilNadu,Chennai,"Perungudi, Chennai - TNPCB",27-06-2024 09:00:00,12.9533,80.2357,SO2,1,9,5
India,TamilNadu,Chennai,"Royapuram, Chennai - TNPCB",27-06-2024 09:00:00,13.1036,80.2909,PM2.5,10,38,21
India,TamilNadu,Chennai,"Royapuram, Chennai - TNPCB",27-06-2024 09:00:00,13.1036,80.2909,NO2,21,47,34
India,TamilNadu,Chennai,"Royapuram, Chennai - TNPCB",27-06-2024 09:00:00,13.1036,80.2909,SO2,1,13,5
India,TamilNadu,Chennai,"Velachery Res. Area, Chennai - CPCB",27-06-2024 09:00:00,13.0052189,80.2398125,NO2,18,25,21
India,TamilNadu,Cuddalore,"Kudikadu, Cuddalore - TNPCB",27-06-2024 09:00:00,11.6829898,79.7532099,PM10,12,50,25
India,TamilNadu,Cuddalore,"Kudikadu, Cuddalore - TNPCB",27-06-2024 09:00:00,11.6829898,79.7532099,NO2,NA,NA,NA
India,TamilNadu,Cuddalore,"Semmandalam, Cuddalore - TNPCB",27-06-2024 09:00:00,11.7637683,79.7499835,PM10,5,63,24
India,TamilNadu,Gummidipoondi,"Anthoni Pillai Nagar, Gummidipoondi - TNPCB",27-06-2024 09:00:00,13.4127,80.1081,SO2,8,59,28
India,TamilNadu,Ooty,"Bombay Castel, Ooty - TNPCB",27-06-2024 09:00:00,11.4068288,76.7138973,CO,NA,NA,NA
India,TamilNadu,Ramanathapuram,"Chalai Bazaar, Ramanathapuram - TNPCB",27-06-2024 09:00:00,9.36399,78.831977,NH3,NA,NA,NA
India,TamilNadu,Ramanathapuram,"Chalai Bazaar, Ramanathapuram - TNPCB",27-06-2024 09:00:00,9.36399,78.831977,OZONE,NA,NA,NA
India,TamilNadu,Thoothukudi,"Meelavittan, Thoothukudi - TNPCB",27-06-2024 09:00:00,8.816428 ,78.099039,NO2,25,43,33
India,TamilNadu,Thoothukudi,"Meelavittan, Thoothukudi - TNPCB",27-06-2024 09:00:00,8.816428 ,78.099039,SO2,NA,NA,NA
India,TamilNadu,Thoothukudi,"Meelavittan, Thoothukudi - TNPCB",27-06-2024 09:00:00,8.816428 ,78.099039,OZONE,NA,NA,NA
India,TamilNadu,Vellore,"Vasanthapuram, Vellore - TNPCB",27-06-2024 09:00:00,12.909494,79.131861,PM2.5,NA,NA,NA
India,TamilNadu,Vellore,"Vasanthapuram, Vellore - TNPCB",27-06-2024 09:00:00,12.909494,79.131861,SO2,NA,NA,NA
India,Telangana,Hyderabad,"Bollaram Industrial Area, Hyderabad - TSPCB",27-06-2024 09:00:00,17.540891,78.358528,PM2.5,NA,NA,NA
India,Telangana,Hyderabad,"Central University, Hyderabad - TSPCB",27-06-2024 09:00:00,17.460103,78.334361,NO2,14,39,23
India,Telangana,Hyderabad,"Central University, Hyderabad - TSPCB",27-06-2024 09:00:00,17.460103,78.334361,SO2,4,11,6
India,Telangana,Hyderabad,"IDA Pashamylaram, Hyderabad - TSPCB",27-06-2024 09:00:00,17.5316895,78.218939,PM2.5,13,32,20
India,Telangana,Hyderabad,"IDA Pashamylaram, Hyderabad - TSPCB",27-06-2024 09:00:00,17.5316895,78.218939,OZONE,8,22,11
India,Telangana,Hyderabad,"Kokapet, Hyderabad - TSPCB",27-06-2024 09:00:00,17.393559,78.339194,PM2.5,49,55,49
India,Telangana,Hyderabad,"Nacharam_TSIIC IALA, Hyderabad - TSPCB",27-06-2024 09:00:00,17.429398,78.569354,CO,21,32,31
India,Telangana,Hyderabad,"Nacharam_TSIIC IALA, Hyderabad - TSPCB",27-06-2024 09:00:00,17.429398,78.569354,OZONE,8,29,8
India,Telangana,Hyderabad,"New Malakpet, Hyderabad - TSPCB",27-06-2024 09:00:00,17.37206,78.50864,PM2.5,22,46,29
India,Telangana,Hyderabad,"New Malakpet, Hyderabad - TSPCB",27-06-2024 09:00:00,17.37206,78.50864,NO2,12,21,14
India,Telangana,Hyderabad,"New Malakpet, Hyderabad - TSPCB",27-06-2024 09:00:00,17.37206,78.50864,CO,9,20,11
India,Telangana,Hyderabad,"Ramachandrapuram, Hyderabad - TSPCB",27-06-2024 09:00:00,17.528544,78.286195,PM10,66,82,78
India,Telangana,Hyderabad,"Sanathnagar, Hyderabad - TSPCB",27-06-2024 09:00:00,17.4559458,78.4332152,PM2.5,19,500,60
India,Telangana,Hyderabad,"Sanathnagar, Hyderabad - TSPCB",27-06-2024 09:00:00,17.4559458,78.4332152,CO,21,29,24
India,Telangana,Hyderabad,"Somajiguda, Hyderabad - TSPCB",27-06-2024 09:00:00,17.417094,78.457437,NH3,5,10,6
India,Telangana,Hyderabad,"Somajiguda, Hyderabad - TSPCB",27-06-2024 09:00:00,17.417094,78.457437,SO2,24,29,28
India,Tripura,Agartala,"Bardowali, Agartala - Tripura SPCB",27-06-2024 09:00:00,23.8175497,91.2726974,PM2.5,11,53,32
India,Tripura,Agartala,"Bardowali, Agartala - Tripura SPCB",27-06-2024 09:00:00,23.8175497,91.2726974,CO,8,30,11
India,Uttar_Pradesh,Agra,"Manoharpur, Agra - UPPCB",27-06-2024 09:00:00,27.23711,78.01936,PM2.5,13,88,48
India,Uttar_Pradesh,Agra,"Manoharpur, Agra - UPPCB",27-06-2024 09:00:00,27.23711,78.01936,PM10,10,65,35
India,Uttar_Pradesh,Agra,"Manoharpur, Agra - UPPCB",27-06-2024 09:00:00,27.23711,78.01936,SO2,17,18,18
India,Uttar_Pradesh,Agra,"Manoharpur, Agra - UPPCB",27-06-2024 09:00:00,27.23711,78.01936,OZONE,37,66,38
India,Uttar_Pradesh,Agra,"Rohta, Agra - UPPCB",27-06-2024 09:00:00,27.106972,78.000111,SO2,NA,NA,NA
India,Uttar_Pradesh,Agra,"Shahjahan Garden, Agra - UPPCB",27-06-2024 09:00:00,27.169338,78.03582,PM2.5,NA,NA,NA
India,Uttar_Pradesh,Baghpat,"Sardar Patel Inter College, Baghpat - UPPCB",27-06-2024 09:00:00,28.964949,77.278761,NO2,6,21,12
India,Uttar_Pradesh,Bareilly,"Civil Lines, Bareilly - UPPCB",27-06-2024 09:00:00,28.359581,79.414455,PM10,11,18,15
India,Uttar_Pradesh,Bulandshahr,"Yamunapuram, Bulandshahr - UPPCB",27-06-2024 09:00:00,28.406963,77.849831,PM2.5,15,160,53
India,Uttar_Pradesh,Bulandshahr,"Yamunapuram, Bulandshahr - UPPCB",27-06-2024 09:00:00,28.406963,77.849831,NO2,4,14,8
India,Uttar_Pradesh,Firozabad,"Nagla Bhau, Firozabad - UPPCB",27-06-2024 09:00:00,27.168897,78.376960,PM10,NA,NA,NA
India,Uttar_Pradesh,Firozabad,"Nagla Bhau, Firozabad - UPPCB",27-06-2024 09:00:00,27.168897,78.376960,NO2,16,17,17
India,Uttar_Pradesh,Firozabad,"Vibhab Nagar, Firozabad - UPPCB",27-06-2024 09:00:00,27.1594,78.3953,PM10,NA,NA,NA
India,Uttar_Pradesh,Firozabad,"Vibhab Nagar, Firozabad - UPPCB",27-06-2024 09:00:00,27.1594,78.3953,CO,16,22,16
India,Uttar_Pradesh,Firozabad,"Vibhab Nagar, Firozabad - UPPCB",27-06-2024 09:00:00,27.1594,78.3953,OZONE,8,23,8
India,Uttar_Pradesh,Ghaziabad,"Indirapuram, Ghaziabad - UPPCB",27-06-2024 09:00:00,28.646233,77.358075,NO2,25,81,36
India,Uttar_Pradesh,Ghaziabad,"Indirapuram, Ghaziabad - UPPCB",27-06-2024 09:00:00,28.646233,77.358075,SO2,13,28,19
India,Uttar_Pradesh,Ghaziabad,"Indirapuram, Ghaziabad - UPPCB",27-06-2024 09:00:00,28.646233,77.358075,CO,18,36,21
India,Uttar_Pradesh,Ghaziabad,"Loni, Ghaziabad - UPPCB",27-06-2024 09:00:00,28.757294,77.278792,CO,18,102,42
India,Uttar_Pradesh,Ghaziabad,"Sanjay Nagar, Ghaziabad - UPPCB",27-06-2024 09:00:00,28.685382,77.453839,OZONE,2,36,6
India,Uttar_Pradesh,Ghaziabad,"Vasundhara, Ghaziabad - UPPCB",27-06-2024 09:00:00,28.6603346,77.3572563,NO2,16,60,28
India,Uttar_Pradesh,Greater Noida,"Knowledge Park - III, Greater Noida - UPPCB",27-06-2024 09:00:00,28.47272,77.482000,PM10,35,113,67
India,Uttar_Pradesh,Hapur,"Anand Vihar, Hapur - UPPCB",27-06-2024 09:00:00,28.725645,77.749675,SO2,8,23,18
India,Uttar_Pradesh,Kanpur,"FTI Kidwai Nagar, Kanpur - UPPCB",27-06-2024 09:00:00,26.428282,80.327067,OZONE,14,59,23
India,Uttar_Pradesh,Kanpur,"NSI Kalyanpur, Kanpur - UPPCB",27-06-2024 09:00:00,26.509954,80.249612,NO2,13,20,16
India,Uttar_Pradesh,Kanpur,"NSI Kalyanpur, Kanpur - UPPCB",27-06-2024 09:00:00,26.509954,80.249612,SO2,16,21,18
India,Uttar_Pradesh,Kanpur,"Nehru Nagar, Kanpur - UPPCB",27-06-2024 09:00:00,26.4703136,80.3229863,OZONE,3,23,4
India,Uttar_Pradesh,Khurja,"Kalindi Kunj, Khurja - UPPCB",27-06-2024 09:00:00,28.2348927,77.8683002,PM2.5,29,142,59
India,Uttar_Pradesh,Khurja,"Kalindi Kunj, Khurja - UPPCB",27-06-2024 09:00:00,28.2348927,77.8683002,SO2,34,76,48
India,Uttar_Pradesh,Lucknow,"B R Ambedkar University, Lucknow - UPPCB",27-06-2024 09:00:00,26.766433,80.927299,PM10,40,62,50
India,Uttar_Pradesh,Lucknow,"B R Ambedkar University, Lucknow - UPPCB",27-06-2024 09:00:00,26.766433,80.927299,NO2,11,12,11
India,Uttar_Pradesh,Lucknow,"B R Ambedkar University, Lucknow - UPPCB",27-06-2024 09:00:00,26.766433,80.927299,NH3,2,18,6
India,Uttar_Pradesh,Lucknow,"Kendriya Vidyalaya, Lucknow - CPCB",27-06-2024 09:00:00,26.906111,80.948222,PM2.5,19,89,57
India,Uttar_Pradesh,Lucknow,"Kukrail Picnic Spot-1, Lucknow - UPPCB",27-06-2024 09:00:00,26.90723,80.98579,PM2.5,13,54,33
India,Uttar_Pradesh,Lucknow,"Kukrail Picnic Spot-1, Lucknow - UPPCB",27-06-2024 09:00:00,26.90723,80.98579,PM10,12,49,30
India,Uttar_Pradesh,Lucknow,"Kukrail Picnic Spot-1, Lucknow - UPPCB",27-06-2024 09:00:00,26.90723,80.98579,NH3,2,3,3
India,Uttar_Pradesh,Lucknow,"Kukrail Picnic Spot-1, Lucknow - UPPCB",27-06-2024 09:00:00,26.90723,80.98579,SO2,25,31,27
India,Uttar_Pradesh,Lucknow,"Kukrail Picnic Spot-1, Lucknow - UPPCB",27-06-2024 09:00:00,26.90723,80.98579,OZONE,10,24,12
India,Uttar_Pradesh,Lucknow,"Lalbagh, Lucknow - CPCB",27-06-2024 09:00:00,26.8458805,80.9365541,NO2,25,27,26
India,Uttar_Pradesh,Lucknow,"Talkatora District Industries Center, Lucknow - CPCB",27-06-2024 09:00:00,26.83399722,80.8917361,SO2,4,20,10
India,Uttar_Pradesh,Meerut,"Ganga Nagar, Meerut - UPPCB",27-06-2024 09:00:00,28.999264,77.7590354,PM10,NA,NA,NA
India,Uttar_Pradesh,Meerut,"Pallavpuram Phase 2, Meerut - UPPCB",27-06-2024 09:00:00,29.063510,77.709723,PM10,8,104,51
India,Uttar_Pradesh,Moradabad,"Buddhi Vihar, Moradabad - UPPCB",27-06-2024 09:00:00,28.83526,78.74460,PM10,19,60,40
India,Uttar_Pradesh,Moradabad,"Eco Herbal Park, Moradabad - UPPCB",27-06-2024 09:00:00,28.840739,78.697531,PM10,4,34,19
India,Uttar_Pradesh,Moradabad,"Jigar Colony, Moradabad - UPPCB",27-06-2024 09:00:00,28.856664,78.772638,NO2,15,18,17
India,Uttar_Pradesh,Moradabad,"Jigar Colony, Moradabad - UPPCB",27-06-2024 09:00:00,28.856664,78.772638,NH3,4,6,4
India,Uttar_Pradesh,Moradabad,"Kashiram Nagar, Moradabad - UPPCB",27-06-2024 09:00:00,28.849399,78.742362,NO2,11,13,12
India,Uttar_Pradesh,Moradabad,"Transport Nagar, Moradabad - UPPCB",27-06-2024 09:00:00,28.802625,78.753728,SO2,25,54,32
India,Uttar_Pradesh,Muzaffarnagar,"New Mandi, Muzaffarnagar - UPPCB",27-06-2024 09:00:00,29.4723508,77.7194031,SO2,5,27,16
India,Uttar_Pradesh,Noida,"Sector - 125, Noida - UPPCB",27-06-2024 09:00:00,28.5447608,77.3231257,PM10,NA,NA,NA
India,Uttar_Pradesh,Noida,"Sector-116, Noida - UPPCB",27-06-2024 09:00:00,28.569230,77.393848,OZONE,9,139,29
India,Uttar_Pradesh,Prayagraj,"Jhunsi, Prayagraj - UPPCB",27-06-2024 09:00:00,25.425602,81.917152,PM2.5,9,35,23
India,Uttar_Pradesh,Prayagraj,"Jhunsi, Prayagraj - UPPCB",27-06-2024 09:00:00,25.425602,81.917152,PM10,22,112,54
India,Uttar_Pradesh,Prayagraj,"Jhunsi, Prayagraj - UPPCB",27-06-2024 09:00:00,25.425602,81.917152,NH3,5,5,5
India,Uttar_Pradesh,Prayagraj,"Jhunsi, Prayagraj - UPPCB",27-06-2024 09:00:00,25.425602,81.917152,CO,11,20,14
India,Uttar_Pradesh,Prayagraj,"Motilal Nehru NIT, Prayagraj - UPPCB",27-06-2024 09:00:00,25.494,81.863,NH3,7,7,7
India,Uttar_Pradesh,Varanasi,"Ardhali Bazar, Varanasi - UPPCB",27-06-2024 09:00:00,25.3505986,82.9083074,PM10,NA,NA,NA
India,Uttar_Pradesh,Varanasi,"IESD Banaras Hindu University, Varanasi - UPPCB",27-06-2024 09:00:00,25.262326,82.995408,PM2.5,NA,NA,NA
India,Uttar_Pradesh,Varanasi,"IESD Banaras Hindu University, Varanasi - UPPCB",27-06-2024 09:00:00,25.262326,82.995408,CO,2,6,3
India,Uttar_Pradesh,Varanasi,"Maldahiya, Varanasi - UPPCB",27-06-2024 09:00:00,25.32393,82.99687,PM2.5,9,42,26
India,Uttar_Pradesh,Varanasi,"Maldahiya, Varanasi - UPPCB",27-06-2024 09:00:00,25.32393,82.99687,PM10,7,34,21
India,Uttar_Pradesh,Varanasi,"Maldahiya, Varanasi - UPPCB",27-06-2024 09:00:00,25.32393,82.99687,NO2,1,15,2
India,Uttar_Pradesh,Varanasi,"Maldahiya, Varanasi - UPPCB",27-06-2024 09:00:00,25.32393,82.99687,OZONE,1,11,1
India,Uttar_Pradesh,Vrindavan,"Omex Eternity, Vrindavan - UPPCB",27-06-2024 09:00:00,27.5714090,77.6557570,CO,24,54,32
India,Uttarakhand,Dehradun,"Doon University, Dehradun - UKPCB",27-06-2024 09:00:00,30.269444,78.044167,PM10,15,85,39
India,Uttarakhand,Dehradun,"Doon University, Dehradun - UKPCB",27-06-2024 09:00:00,30.269444,78.044167,OZONE,3,49,8
India,Uttarakhand,Rishikesh,"Shivaji Nagar, Rishikesh - UKPCB",27-06-2024 09:00:00,30.075911,78.2859547,PM10,21,87,40
India,Uttarakhand,Rishikesh,"Shivaji Nagar, Rishikesh - UKPCB",27-06-2024 09:00:00,30.075911,78.2859547,NO2,6,12,9
India,West_Bengal,Asansol,"Asansol Court Area, Asansol - WBPCB",27-06-2024 09:00:00,23.685297,86.945968,SO2,11,14,12
India,West_Bengal,Asansol,"Asansol Court Area, Asansol - WBPCB",27-06-2024 09:00:00,23.685297,86.945968,CO,12,37,24
India,West_Bengal,Asansol,"Evelyn Lodge, Asansol - WBPCB",27-06-2024 09:00:00,23.6979360,86.9443950,NO2,21,62,29
India,West_Bengal,Asansol,"Evelyn Lodge, Asansol - WBPCB",27-06-2024 09:00:00,23.6979360,86.9443950,SO2,3,20,9
India,West_Bengal,Asansol,"Evelyn Lodge, Asansol - WBPCB",27-06-2024 09:00:00,23.6979360,86.9443950,CO,7,59,11
India,West_Bengal,Asansol,"Mahabir Colliery, Asansol - WBPCB",27-06-2024 09:00:00,23.6181830,87.1057180,PM10,54,105,78
India,West_Bengal,Barrackpore,"SVSPA Campus, Barrackpore - WBPCB",27-06-2024 09:00:00,22.7605581,88.3617589,NO2,4,11,7
India,West_Bengal,Barrackpore,"SVSPA Campus, Barrackpore - WBPCB",27-06-2024 09:00:00,22.7605581,88.3617589,SO2,4,6,5
India,West_Bengal,Barrackpore,"SVSPA Campus, Barrackpore - WBPCB",27-06-2024 09:00:00,22.7605581,88.3617589,OZONE,2,21,4
India,West_Bengal,Durgapur,"PCBL Residential Complex, Durgapur - WBPCB",27-06-2024 09:00:00,23.5087640,87.3544400,NH3,1,2,1
India,West_Bengal,Durgapur,"Sidhu Kanhu Indoor Stadium, Durgapur - WBPCB",27-06-2024 09:00:00,23.5404352,87.2892225,NO2,14,32,21
India,West_Bengal,Haldia,"Priyambada Housing Estate, Haldia - WBPCB",27-06-2024 09:00:00,22.06047,88.109737,NO2,9,13,10
India,West_Bengal,Howrah,"Belur Math, Howrah - WBPCB",27-06-2024 09:00:00,22.629801,88.352017,PM2.5,4,30,17
India,West_Bengal,Howrah,"Belur Math, Howrah - WBPCB",27-06-2024 09:00:00,22.629801,88.352017,NH3,NA,NA,NA
India,West_Bengal,Howrah,"Botanical Garden, Howrah - WBPCB",27-06-2024 09:00:00,22.554954,88.292568,PM2.5,2,31,17
India,West_Bengal,Howrah,"Ghusuri, Howrah - WBPCB",27-06-2024 09:00:00,22.611968,88.347422,NH3,6,6,6
India,West_Bengal,Howrah,"Ghusuri, Howrah - WBPCB",27-06-2024 09:00:00,22.611968,88.347422,CO,14,20,16
India,West_Bengal,Howrah,"Ghusuri, Howrah - WBPCB",27-06-2024 09:00:00,22.611968,88.347422,OZONE,11,18,13
India,West_Bengal,Howrah,"Padmapukur, Howrah - WBPCB",27-06-2024 09:00:00,22.5687319,88.2797276,CO,6,62,18
India,West_Bengal,Howrah,"Padmapukur, Howrah - WBPCB",27-06-2024 09:00:00,22.5687319,88.2797276,OZONE,20,30,21
India,West_Bengal,Kolkata,"Ballygunge, Kolkata - WBPCB",27-06-2024 09:00:00,22.5367507,88.3638022,CO,6,18,8
India,West_Bengal,Kolkata,"Bidhannagar, Kolkata - WBPCB",27-06-2024 09:00:00,22.58157048,88.41002457,OZONE,9,17,13
India,West_Bengal,Kolkata,"Fort William, Kolkata - WBPCB",27-06-2024 09:00:00,22.556640,88.342674,PM2.5,8,16,10
India,West_Bengal,Kolkata,"Rabindra Bharati University, Kolkata - WBPCB",27-06-2024 09:00:00,22.627847,88.380669,CO,19,26,21
India,West_Bengal,Kolkata,"Rabindra Sarobar, Kolkata - WBPCB",27-06-2024 09:00:00,22.51106,88.35142,PM2.5,8,57,18
India,West_Bengal,Kolkata,"Rabindra Sarobar, Kolkata - WBPCB",27-06-2024 09:00:00,22.51106,88.35142,CO,10,22,11
India,West_Bengal,Kolkata,"Victoria, Kolkata - WBPCB",27-06-2024 09:00:00,22.5448082,88.3403691,NO2,24,31,27
India,West_Bengal,Siliguri,"Ward-32 Bapupara, Siliguri - WBPCB",27-06-2024 09:00:00,26.6879226,88.4152495,PM10,22,93,43
India,West_Bengal,Siliguri,"Ward-32 Bapupara, Siliguri - WBPCB",27-06-2024 09:00:00,26.6879226,88.4152495,NO2,21,38,27
India,West_Bengal,Siliguri,"Ward-32 Bapupara, Siliguri - WBPCB",27-06-2024 09:00:00,26.6879226,88.4152495,SO2,7,9,8
India,Andhra_Pradesh,Amaravati,"Secretariat, Amaravati - APPCB",27-06-2024 09:00:00,16.5150833,80.5181667,PM10,12,95,32
India,Andhra_Pradesh,Chittoor,"Gangineni Cheruvu, Chittoor - APPCB",27-06-2024 09:00:00,13.204880,79.097889,NH3,3,4,3
India,Andhra_Pradesh,Kadapa,"Yerramukkapalli, Kadapa - APPCB",27-06-2024 09:00:00,14.465052,78.824187,PM10,39,66,52
India,Andhra_Pradesh,Rajamahendravaram,"Anand Kala Kshetram, Rajamahendravaram - APPCB",27-06-2024 09:00:00,16.9872867,81.7363176,NO2,6,48,16
India,Andhra_Pradesh,Tirupati,"Tirumala, Tirupati - APPCB",27-06-2024 09:00:00,13.67,79.35,PM10,17,40,27
India,Andhra_Pradesh,Tirupati,"Tirumala, Tirupati - APPCB",27-06-2024 09:00:00,13.67,79.35,NO2,13,37,22
India,Andhra_Pradesh,Tirupati,"Vaikuntapuram, Tirupati - APPCB",27-06-2024 09:00:00,13.615387,79.409230,NO2,15,28,20
India,Andhra_Pradesh,Tirupati,"Vaikuntapuram, Tirupati - APPCB",27-06-2024 09:00:00,13.615387,79.409230,NH3,2,3,2
India,Andhra_Pradesh,Vijayawada,"HB Colony, Vijayawada - APPCB",27-06-2024 09:00:00,16.536107,80.594233,NO2,9,21,12
India,Andhra_Pradesh,Vijayawada,"HB Colony, Vijayawada - APPCB",27-06-2024 09:00:00,16.536107,80.594233,NH3,4,4,4
India,Andhra_Pradesh,Vijayawada,"Rajiv Nagar, Vijayawada - APPCB",27-06-2024 09:00:00,16.554731,80.649110,PM10,53,99,58
India,Andhra_Pradesh,Visakhapatnam,"GVM Corporation, Visakhapatnam - APPCB",27-06-2024 09:00:00,17.72,83.3,PM2.5,20,66,38
India,Andhra_Pradesh,Visakhapatnam,"GVM Corporation, Visakhapatnam - APPCB",27-06-2024 09:00:00,17.72,83.3,NH3,3,5,4
India,Andhra_Pradesh,Visakhapatnam,"GVM Corporation, Visakhapatnam - APPCB",27-06-2024 09:00:00,17.72,83.3,SO2,4,15,8
India,Arunachal_Pradesh,Naharlagun,"Naharlagun, Naharlagun - APSPCB",27-06-2024 09:00:00,27.103358,93.679645,NO2,3,3,3
India,Assam,Byrnihat,"Central Academy for SFS, Byrnihat - PCBA",27-06-2024 09:00:00,26.071318,91.87488,NO2,NA,NA,NA
India,Assam,Guwahati,"LGBI Airport, Guwahati - PCBA",27-06-2024 09:00:00,26.10887,91.589544,NO2,NA,NA,NA
India,Assam,Guwahati,"Railway Colony, Guwahati - PCBA",27-06-2024 09:00:00,26.181742,91.78063,OZONE,1,11,1
India,Assam,Silchar,"Tarapur, Silchar - PCBA",27-06-2024 09:00:00,24.82827,92.79525,OZONE,NA,NA,NA
India,Assam,Sivasagar,"Girls College, Sivasagar - PCBA",27-06-2024 09:00:00,26.987634,94.636574,PM2.5,33,39,37
India,Assam,Sivasagar,"Girls College, Sivasagar - PCBA",27-06-2024 09:00:00,26.987634,94.636574,NH3,1,3,2
India,Bihar,Araria,"Kharahiya Basti, Araria - BSPCB",27-06-2024 09:00:00,26.146529,87.454184,OZONE,30,41,31
India,Bihar,Aurangabad,"Gurdeo Nagar, Aurangabad - BSPCB",27-06-2024 09:00:00,24.75746,84.366208,CO,6,22,21
India,Bihar,Bhagalpur,"Mayaganj, Bhagalpur - BSPCB",27-06-2024 09:00:00,25.265194,87.012947,PM2.5,38,351,111
India,Bihar,Bihar Sharif,"D M Colony, Bihar Sharif - BSPCB",27-06-2024 09:00:00,25.204762,85.514960,NO2,8,10,9
India,Bihar,Buxar,"Charitra Van, Buxar - BSPCB (Formerly known as Central Jail)",27-06-2024 09:00:00,25.567520,83.966379,NO2,2,3,2
India,Bihar,Buxar,"Charitra Van, Buxar - BSPCB (Formerly known as Central Jail)",27-06-2024 09:00:00,25.567520,83.966379,NH3,1,1,1
India,Bihar,Buxar,"Charitra Van, Buxar - BSPCB (Formerly known as Central Jail)",27-06-2024 09:00:00,25.567520,83.966379,CO,32,78,38
India,Bihar,Gaya,"Collectorate, Gaya - BSPCB",27-06-2024 09:00:00,24.7955,84.9994,OZONE,62,65,64
India,Bihar,Gaya,"Kareemganj, Gaya - BSPCB",27-06-2024 09:00:00,24.792403,84.992416,NH3,1,6,3
India,Bihar,Gaya,"Kareemganj, Gaya - BSPCB",27-06-2024 09:00:00,24.792403,84.992416,SO2,1,15,8
India,Bihar,Gaya,"Kareemganj, Gaya - BSPCB",27-06-2024 09:00:00,24.792403,84.992416,CO,34,62,43
India,Bihar,Gaya,"Kareemganj, Gaya - BSPCB",27-06-2024 09:00:00,24.792403,84.992416,OZONE,6,46,9
India,Bihar,Hajipur,"Industrial Area, Hajipur - BSPCB",27-06-2024 09:00:00,25.697189,85.245900,SO2,6,9,7
India,Bihar,Hajipur,"Industrial Area, Hajipur - BSPCB",27-06-2024 09:00:00,25.697189,85.245900,OZONE,29,87,35
India,Bihar,Katihar,"Mirchaibari, Katihar - BSPCB",27-06-2024 09:00:00,25.560083,87.553265,NH3,1,2,1
India,Bihar,Katihar,"Mirchaibari, Katihar - BSPCB",27-06-2024 09:00:00,25.560083,87.553265,CO,28,40,33
India,Bihar,Kishanganj,"SDM Office_Khagra, Kishanganj - BSPCB",27-06-2024 09:00:00,26.0881305,87.93840336,CO,5,8,8
India,Bihar,Kishanganj,"SDM Office_Khagra, Kishanganj - BSPCB",27-06-2024 09:00:00,26.0881305,87.93840336,OZONE,15,43,36
India,Bihar,Motihari,"Gandak Colony, Motihari - BSPCB",27-06-2024 09:00:00,26.63086,84.90051,PM10,2,417,125
India,Bihar,Patna,"DRM Office Danapur, Patna - BSPCB",27-06-2024 09:00:00,25.586562,85.043586,SO2,2,6,4
India,Bihar,Patna,"Govt. High School Shikarpur, Patna - BSPCB",27-06-2024 09:00:00,25.592539,85.227158,NO2,33,36,34
India,Bihar,Patna,"Govt. High School Shikarpur, Patna - BSPCB",27-06-2024 09:00:00,25.592539,85.227158,SO2,7,11,9
India,Bihar,Patna,"IGSC Planetarium Complex, Patna - BSPCB",27-06-2024 09:00:00,25.610369,85.132568,CO,14,18,15
India,Bihar,Patna,"Muradpur, Patna - BSPCB",27-06-2024 09:00:00,25.619651,85.147382,PM2.5,57,218,108
India,Bihar,Patna,"Rajbansi Nagar, Patna - BSPCB",27-06-2024 09:00:00,25.599486,85.113666,NH3,5,8,6
India,Bihar,Patna,"Samanpura, Patna - BSPCB",27-06-2024 09:00:00,25.596727,85.085624,PM10,70,327,148
India,Bihar,Purnia,"Mariam Nagar, Purnia - BSPCB",27-06-2024 09:00:00,25.366336,87.117468,PM10,24,76,42
India,Bihar,Purnia,"Mariam Nagar, Purnia - BSPCB",27-06-2024 09:00:00,25.366336,87.117468,NO2,5,6,5
India,Bihar,Purnia,"Mariam Nagar, Purnia - BSPCB",27-06-2024 09:00:00,25.366336,87.117468,NH3,1,1,1
India,Bihar,Purnia,"Mariam Nagar, Purnia - BSPCB",27-06-2024 09:00:00,25.366336,87.117468,SO2,6,11,9
India,Bihar,Rajgir,"Dangi Tola, Rajgir - BSPCB",27-06-2024 09:00:00,25.03280,85.41948,PM10,35,465,138
India,Bihar,Rajgir,"Dangi Tola, Rajgir - BSPCB",27-06-2024 09:00:00,25.03280,85.41948,NH3,2,2,2
India,Bihar,Rajgir,"Dangi Tola, Rajgir - BSPCB",27-06-2024 09:00:00,25.03280,85.41948,SO2,4,4,4
India,Bihar,Saharsa,"Police Line, Saharsa - BSPCB",27-06-2024 09:00:00,25.892357,86.590325,CO,54,56,54
India,Bihar,Sasaram,"Dada Peer, Sasaram - BSPCB",27-06-2024 09:00:00,24.952822,84.002396,PM2.5,10,325,99
India,Bihar,Siwan,"Chitragupta Nagar, Siwan - BSPCB",27-06-2024 09:00:00,26.2271665,84.3570427,CO,NA,NA,NA
India,Chandigarh,Chandigarh,"Sector-25, Chandigarh - CPCC",27-06-2024 09:00:00,30.751462,76.762879,PM10,76,126,104
India,Chandigarh,Chandigarh,"Sector-25, Chandigarh - CPCC",27-06-2024 09:00:00,30.751462,76.762879,OZONE,2,32,16
India,Chhattisgarh,Bhilai,"32Bungalows, Bhilai - CECB",27-06-2024 09:00:00,21.194815,81.314770,PM2.5,13,40,26
India,Chhattisgarh,Bhilai,"32Bungalows, Bhilai - CECB",27-06-2024 09:00:00,21.194815,81.314770,NH3,8,8,8
India,Chhattisgarh,Bhilai,"Civic Center, Bhilai - Bhilai Steel Plant",27-06-2024 09:00:00,21.185571,81.343175,CO,34,47,40
India,Chhattisgarh,Bhilai,"Hathkhoj, Bhilai - CECB",27-06-2024 09:00:00,21.224231,81.408350,PM2.5,8,29,15
India,Chhattisgarh,Bhilai,"Hathkhoj, Bhilai - CECB",27-06-2024 09:00:00,21.224231,81.408350,NO2,5,28,12
India,Chhattisgarh,Bhilai,"Hathkhoj, Bhilai - CECB",27-06-2024 09:00:00,21.224231,81.408350,NH3,9,10,9
India,Chhattisgarh,Bilaspur,"Mangala, Bilaspur - NTPC",27-06-2024 09:00:00,22.08815,82.13737,PM10,14,38,27
India,Chhattisgarh,Bilaspur,"Mangala, Bilaspur - NTPC",27-06-2024 09:00:00,22.08815,82.13737,CO,28,42,36
India,Chhattisgarh,Chhal,"Nawapara SECL Colony, Chhal - CECB",27-06-2024 09:00:00,22.118125,83.140608,PM10,27,92,43
India,Chhattisgarh,Chhal,"Nawapara SECL Colony, Chhal - CECB",27-06-2024 09:00:00,22.118125,83.140608,NO2,6,17,12
India,Chhattisgarh,Chhal,"Nawapara SECL Colony, Chhal - CECB",27-06-2024 09:00:00,22.118125,83.140608,SO2,NA,NA,NA
India,Chhattisgarh,Korba,"Rampur, Korba - CECB",27-06-2024 09:00:00,22.368195,82.746431,NH3,1,1,1
India,Chhattisgarh,Korba,"Rampur, Korba - CECB",27-06-2024 09:00:00,22.368195,82.746431,SO2,3,9,7
India,Chhattisgarh,Kunjemura,"OP Jindal School, Kunjemura - CECB",27-06-2024 09:00:00,22.126650,83.483212,NH3,2,3,2
India,Chhattisgarh,Raipur,"Bhatagaon New ISBT, Raipur - CECB",27-06-2024 09:00:00,21.219665,81.630094,PM10,NA,NA,NA
India,Chhattisgarh,Raipur,"Bhatagaon New ISBT, Raipur - CECB",27-06-2024 09:00:00,21.219665,81.630094,NH3,2,2,2
India,Chhattisgarh,Raipur,"Bhatagaon New ISBT, Raipur - CECB",27-06-2024 09:00:00,21.219665,81.630094,OZONE,3,10,3
India,Chhattisgarh,Tumidih,"OP Jindal Industrial Park, Tumidih - CECB",27-06-2024 09:00:00,22.06631475,83.33820077,PM2.5,27,53,39
India,Delhi,Delhi,"Alipur, Delhi - DPCC",27-06-2024 09:00:00,28.815329,77.153010,PM10,33,143,98
India,Delhi,Delhi,"Ashok Vihar, Delhi - DPCC",27-06-2024 09:00:00,28.695381,77.181665,NH3,8,12,10
India,Delhi,Delhi,"Ashok Vihar, Delhi - DPCC",27-06-2024 09:00:00,28.695381,77.181665,CO,26,68,37
India,Delhi,Delhi,"Aya Nagar, Delhi - IMD",27-06-2024 09:00:00,28.4706914,77.1099364,PM10,46,127,82
India,Delhi,Delhi,"Bawana, Delhi - DPCC",27-06-2024 09:00:00,28.776200,77.051074,OZONE,3,106,40
India,Delhi,Delhi,"Burari Crossing, Delhi - IMD",27-06-2024 09:00:00,28.7256504,77.2011573,PM2.5,NA,NA,NA
India,Delhi,Delhi,"CRRI Mathura Road, Delhi - IMD",27-06-2024 09:00:00,28.5512005,77.2735737,PM2.5,40,117,65
India,Delhi,Delhi,"CRRI Mathura Road, Delhi - IMD",27-06-2024 09:00:00,28.5512005,77.2735737,PM10,47,142,90
India,Delhi,Delhi,"Dr. Karni Singh Shooting Range, Delhi - DPCC",27-06-2024 09:00:00,28.498571,77.264840,PM2.5,54,222,107
India,Delhi,Delhi,"Dr. Karni Singh Shooting Range, Delhi - DPCC",27-06-2024 09:00:00,28.498571,77.264840,NO2,16,26,21
India,Delhi,Delhi,"Dwarka-Sector 8, Delhi - DPCC ",27-06-2024 09:00:00,28.5710274,77.0719006,NH3,7,40,14
India,Delhi,Delhi,"Dwarka-Sector 8, Delhi - DPCC ",27-06-2024 09:00:00,28.5710274,77.0719006,SO2,8,13,10
India,Delhi,Delhi,"Dwarka-Sector 8, Delhi - DPCC ",27-06-2024 09:00:00,28.5710274,77.0719006,OZONE,7,47,11
India,Delhi,Delhi,"IGI Airport (T3), Delhi - IMD",27-06-2024 09:00:00,28.5627763,77.1180053,CO,35,54,43
India,Delhi,Delhi,"IHBAS, Dilshad Garden, Delhi - CPCB",27-06-2024 09:00:00,28.6811736,77.3025234,NH3,3,7,4
India,Delhi,Delhi,"ITO, Delhi - CPCB",27-06-2024 09:00:00,28.628624,77.241060,PM10,32,107,67
India,Delhi,Delhi,"ITO, Delhi - CPCB",27-06-2024 09:00:00,28.628624,77.241060,CO,46,91,53
India,Delhi,Delhi,"Jahangirpuri, Delhi - DPCC",27-06-2024 09:00:00,28.732820,77.170633,NH3,3,4,3
India,Delhi,Delhi,"Jahangirpuri, Delhi - DPCC",27-06-2024 09:00:00,28.732820,77.170633,OZONE,2,43,8
India,Delhi,Delhi,"Jawaharlal Nehru Stadium, Delhi - DPCC",27-06-2024 09:00:00,28.580280,77.233829,CO,39,52,43
India,Delhi,Delhi,"Lodhi Road, Delhi - IMD",27-06-2024 09:00:00,28.5918245,77.2273074,NO2,2,7,3
India,Delhi,Delhi,"Major Dhyan Chand National Stadium, Delhi - DPCC",27-06-2024 09:00:00,28.611281,77.237738,NH3,10,21,14
India,Delhi,Delhi,"Major Dhyan Chand National Stadium, Delhi - DPCC",27-06-2024 09:00:00,28.611281,77.237738,SO2,6,16,10
India,Delhi,Delhi,"Mandir Marg, Delhi - DPCC",27-06-2024 09:00:00,28.636429,77.201067,PM10,45,120,79
India,Delhi,Delhi,"NSIT Dwarka, Delhi - CPCB",27-06-2024 09:00:00,28.60909,77.0325413,PM2.5,53,221,90
India,Delhi,Delhi,"NSIT Dwarka, Delhi - CPCB",27-06-2024 09:00:00,28.60909,77.0325413,PM10,53,234,88
India,Delhi,Delhi,"NSIT Dwarka, Delhi - CPCB",27-06-2024 09:00:00,28.60909,77.0325413,OZONE,7,22,9
India,Delhi,Delhi,"Najafgarh, Delhi - DPCC",27-06-2024 09:00:00,28.570173,76.933762,PM2.5,48,174,96
India,Delhi,Delhi,"Najafgarh, Delhi - DPCC",27-06-2024 09:00:00,28.570173,76.933762,NO2,9,19,13
India,Delhi,Delhi,"Narela, Delhi - DPCC",27-06-2024 09:00:00,28.822836,77.101981,NH3,4,6,5
India,Delhi,Delhi,"Narela, Delhi - DPCC",27-06-2024 09:00:00,28.822836,77.101981,SO2,1,4,2
India,Delhi,Delhi,"Nehru Nagar, Delhi - DPCC",27-06-2024 09:00:00,28.567890,77.250515,OZONE,6,60,22
India,Delhi,Delhi,"New Moti Bagh, Delhi - MHUA",27-06-2024 09:00:00,28.57834,77.18400,CO,22,57,30
India,Delhi,Delhi,"Patparganj, Delhi - DPCC",27-06-2024 09:00:00,28.623763,77.287209,PM2.5,18,87,49
India,Delhi,Delhi,"Patparganj, Delhi - DPCC",27-06-2024 09:00:00,28.623763,77.287209,PM10,67,171,102
India,Delhi,Delhi,"Patparganj, Delhi - DPCC",27-06-2024 09:00:00,28.623763,77.287209,CO,6,102,32
India,Delhi,Delhi,"Punjabi Bagh, Delhi - DPCC",27-06-2024 09:00:00,28.674045,77.131023,PM10,61,135,92
India,Delhi,Delhi,"Pusa, Delhi - DPCC",27-06-2024 09:00:00,28.639652,77.146275,SO2,1,6,4
India,Delhi,Delhi,"Pusa, Delhi - DPCC",27-06-2024 09:00:00,28.639652,77.146275,CO,12,70,25
India,Delhi,Delhi,"Pusa, Delhi - IMD",27-06-2024 09:00:00,28.636110,77.173332,CO,50,64,54
India,Delhi,Delhi,"R K Puram, Delhi - DPCC",27-06-2024 09:00:00,28.563262,77.186937,SO2,7,16,11
India,Delhi,Delhi,"Rohini, Delhi - DPCC",27-06-2024 09:00:00,28.732528,77.119920,PM10,94,159,118
India,Delhi,Delhi,"Sirifort, Delhi - CPCB",27-06-2024 09:00:00,28.5504249,77.2159377,CO,NA,NA,NA
India,Delhi,Delhi,"Sonia Vihar, Delhi - DPCC",27-06-2024 09:00:00,28.710508,77.249485,PM2.5,30,197,94
India,Delhi,Delhi,"Sonia Vihar, Delhi - DPCC",27-06-2024 09:00:00,28.710508,77.249485,NO2,16,61,28
India,Delhi,Delhi,"Sri Aurobindo Marg, Delhi - DPCC",27-06-2024 09:00:00,28.531346,77.190156,PM2.5,47,196,96
India,Delhi,Delhi,"Sri Aurobindo Marg, Delhi - DPCC",27-06-2024 09:00:00,28.531346,77.190156,SO2,6,13,9
India,Delhi,Delhi,"Vivek Vihar, Delhi - DPCC",27-06-2024 09:00:00,28.672342,77.315260,NH3,NA,NA,NA
India,Delhi,Delhi,"Wazirpur, Delhi - DPCC",27-06-2024 09:00:00,28.699793,77.165453,CO,28,49,37
India,Gujarat,Ahmedabad,"Chandkheda, Ahmedabad - IITM",27-06-2024 09:00:00,23.107969,72.574648,SO2,6,15,10
India,Gujarat,Ahmedabad,"Gyaspur, Ahmedabad - IITM",27-06-2024 09:00:00,22.977134,72.553024,PM10,NA,NA,NA
India,Gujarat,Ahmedabad,"Gyaspur, Ahmedabad - IITM",27-06-2024 09:00:00,22.977134,72.553024,SO2,NA,NA,NA
India,Gujarat,Ahmedabad,"Gyaspur, Ahmedabad - IITM",27-06-2024 09:00:00,22.977134,72.553024,OZONE,5,90,30
India,Gujarat,Ahmedabad,"Maninagar, Ahmedabad - GPCB",27-06-2024 09:00:00,23.002657,72.591912,PM10,NA,NA,NA
India,Gujarat,Ahmedabad,"Raikhad, Ahmedabad - IITM",27-06-2024 09:00:00,23.020509,72.579261,PM10,48,110,76
India,Gujarat,Ahmedabad,"Raikhad, Ahmedabad - IITM",27-06-2024 09:00:00,23.020509,72.579261,CO,16,46,21
India,Gujarat,Ahmedabad,"Sardar Vallabhbhai Patel Stadium, Ahmedabad - IITM",27-06-2024 09:00:00,23.043070,72.562968,PM2.5,30,214,73
India,Gujarat,Ahmedabad,"Sardar Vallabhbhai Patel Stadium, Ahmedabad - IITM",27-06-2024 09:00:00,23.043070,72.562968,NO2,18,53,31
India,Gujarat,Ankleshwar,"GIDC, Ankleshwar - GPCB",27-06-2024 09:00:00,21.613267,73.010555,SO2,6,42,24
India,Gujarat,Ankleshwar,"GIDC, Ankleshwar - GPCB",27-06-2024 09:00:00,21.613267,73.010555,OZONE,24,32,26
India,Gujarat,Gandhinagar,"GIFT City, Gandhinagar - IITM",27-06-2024 09:00:00,23.163798,72.677768,SO2,3,9,5
India,Gujarat,Gandhinagar,"Sector-10, Gandhinagar - GPCB",27-06-2024 09:00:00,23.221714,72.654328,CO,20,33,23
India,Gujarat,Nandesari,"GIDC, Nandesari - Nandesari Ind. Association",27-06-2024 09:00:00,22.410802,73.097923,PM2.5,NA,NA,NA
India,Gujarat,Surat,"Science Center, Surat - SMC",27-06-2024 09:00:00,21.170046,72.795405,NO2,24,33,28
India,Gujarat,Vapi,"Phase-1 GIDC, Vapi - GPCB",27-06-2024 09:00:00,20.362421,72.918013,NO2,6,7,6
India,Haryana,Ambala,"Patti Mehar, Ambala - HSPCB",27-06-2024 09:00:00,30.379589,76.778328,SO2,7,36,13
India,Haryana,Ambala,"Patti Mehar, Ambala - HSPCB",27-06-2024 09:00:00,30.379589,76.778328,OZONE,34,57,45
India,Haryana,Bahadurgarh,"Arya Nagar, Bahadurgarh - HSPCB",27-06-2024 09:00:00,28.6701,76.9254,NO2,21,25,22
India,Haryana,Bahadurgarh,"Arya Nagar, Bahadurgarh - HSPCB",27-06-2024 09:00:00,28.6701,76.9254,SO2,1,4,2
India,Haryana,Ballabgarh,"Nathu Colony, Ballabgarh - HSPCB",27-06-2024 09:00:00,28.3419248,77.319699,OZONE,25,120,75
India,Haryana,Bhiwani,"H.B. Colony, Bhiwani - HSPCB",27-06-2024 09:00:00,28.806223,76.141105,PM2.5,30,176,88
India,Haryana,Bhiwani,"H.B. Colony, Bhiwani - HSPCB",27-06-2024 09:00:00,28.806223,76.141105,CO,25,74,56
India,Haryana,Charkhi Dadri,"Mini Secretariat, Charkhi Dadri - HSPCB",27-06-2024 09:00:00,28.593883,76.270653,PM2.5,4,435,147
India,Haryana,Charkhi Dadri,"Mini Secretariat, Charkhi Dadri - HSPCB",27-06-2024 09:00:00,28.593883,76.270653,NO2,15,22,18
India,Haryana,Charkhi Dadri,"Mini Secretariat, Charkhi Dadri - HSPCB",27-06-2024 09:00:00,28.593883,76.270653,NH3,6,8,7
India,Haryana,Charkhi Dadri,"Mini Secretariat, Charkhi Dadri - HSPCB",27-06-2024 09:00:00,28.593883,76.270653,CO,8,95,58
India,Haryana,Dharuhera,"Municipal Corporation Office, Dharuhera -  HSPCB",27-06-2024 09:00:00,28.206800,76.799700,PM10,NA,NA,NA
India,Haryana,Faridabad,"New Industrial Town, Faridabad - HSPCB",27-06-2024 09:00:00,28.39072,77.30059,PM2.5,43,110,71
India,Haryana,Faridabad,"New Industrial Town, Faridabad - HSPCB",27-06-2024 09:00:00,28.39072,77.30059,NH3,2,4,3
India,Haryana,Fatehabad,"Huda Sector, Fatehabad - HSPCB",27-06-2024 09:00:00,29.503664,75.467934,NH3,10,10,10
India,Haryana,Gurugram,"NISE Gwal Pahari, Gurugram - IMD",27-06-2024 09:00:00,28.422681,77.148944,NO2,13,19,15
India,Haryana,Gurugram,"NISE Gwal Pahari, Gurugram - IMD",27-06-2024 09:00:00,28.422681,77.148944,OZONE,8,40,14
India,Haryana,Gurugram,"Teri Gram, Gurugram - HSPCB",27-06-2024 09:00:00,28.4275,77.1465,OZONE,5,215,11
India,Haryana,Hisar,"Urban Estate-II, Hisar - HSPCB",27-06-2024 09:00:00,29.140560,75.744941,NO2,8,16,10
India,Haryana,Jind,"Police Lines, Jind - HSPCB",27-06-2024 09:00:00,29.307814,76.337619,CO,4,109,38
India,Haryana,Kaithal,"Rishi Nagar, Kaithal - HSPCB",27-06-2024 09:00:00,29.8006,76.4155,PM2.5,46,83,58
India,Haryana,Karnal,"Sector-12, Karnal - HSPCB",27-06-2024 09:00:00,29.695300,77.002700,PM2.5,39,66,52
India,Haryana,Kurukshetra,"Sector-7, Kurukshetra - HSPCB",27-06-2024 09:00:00,29.966942,76.875879,CO,12,28,18
India,Haryana,Mandikhera,"General Hospital, Mandikhera - HSPCB",27-06-2024 09:00:00,27.9002,76.9938,NO2,20,25,22
India,Haryana,Manesar,"Sector-2 IMT, Manesar - HSPCB",27-06-2024 09:00:00,28.360699,76.936090,PM10,23,142,74
India,Haryana,Narnaul,"Shastri Nagar, Narnaul - HSPCB",27-06-2024 09:00:00,28.060249,76.113115,PM10,36,138,67
India,Haryana,Palwal,"Shyam Nagar, Palwal - HSPCB",27-06-2024 09:00:00,28.1485564,77.3320667,PM2.5,NA,NA,NA
India,Haryana,Palwal,"Shyam Nagar, Palwal - HSPCB",27-06-2024 09:00:00,28.1485564,77.3320667,NH3,NA,NA,NA
India,Haryana,Palwal,"Shyam Nagar, Palwal - HSPCB",27-06-2024 09:00:00,28.1485564,77.3320667,CO,NA,NA,NA
India,Haryana,Panchkula,"Sector-6, Panchkula - HSPCB ",27-06-2024 09:00:00,30.7057778,76.8531805555555,OZONE,29,42,38
India,Haryana,Panipat,"Sector-18, Panipat - HSPCB",27-06-2024 09:00:00,29.432304,76.972765,CO,24,26,25
India,Haryana,Rohtak,"MD University, Rohtak - HSPCB",27-06-2024 09:00:00,28.52123,76.37138,PM2.5,45,396,218
India,Haryana,Sirsa,"F-Block, Sirsa - HSPCB",27-06-2024 09:00:00,29.536400,75.015800,PM2.5,19,488,107
India,Haryana,Yamuna Nagar,"Gobind Pura, Yamuna Nagar - HSPCB",27-06-2024 09:00:00,30.1480566,77.2893471,PM2.5,42,77,56
India,Himachal Pradesh,Baddi,"HIMUDA Complex Phase-1, Baddi - HPPCB",27-06-2024 09:00:00,30.943887,76.801991,PM2.5,33,97,69
India,Himachal Pradesh,Baddi,"HIMUDA Complex Phase-1, Baddi - HPPCB",27-06-2024 09:00:00,30.943887,76.801991,PM10,49,129,99
India,Jharkhand,Dhanbad,"Kalakusuma, Dhanbad - DMC",27-06-2024 09:00:00,23.811548,86.481238,OZONE,27,31,29
India,Jharkhand,Pathardih,"Mohalbani Ghat, Pathardih - DMC",27-06-2024 09:00:00,23.669880,86.411725,OZONE,NA,NA,NA
India,Karnataka,Bagalkot,"Vidayagiri, Bagalkot - KSPCB",27-06-2024 09:00:00,16.172806,75.659694,PM2.5,25,37,36
India,Karnataka,Bagalkot,"Vidayagiri, Bagalkot - KSPCB",27-06-2024 09:00:00,16.172806,75.659694,PM10,42,46,45
India,Karnataka,Bagalkot,"Vidayagiri, Bagalkot - KSPCB",27-06-2024 09:00:00,16.172806,75.659694,NH3,1,2,1
India,Karnataka,Belgaum,"Ramteerth Nagar, Belgaum - KSPCB",27-06-2024 09:00:00,15.888653,74.541751,NO2,19,49,29
India,Karnataka,Bengaluru,"Bapuji Nagar, Bengaluru - KSPCB",27-06-2024 09:00:00,12.951913,77.539784,NO2,14,16,15
India,Karnataka,Bengaluru,"Bapuji Nagar, Bengaluru - KSPCB",27-06-2024 09:00:00,12.951913,77.539784,NH3,1,1,1
India,Karnataka,Bengaluru,"City Railway Station, Bengaluru - KSPCB",27-06-2024 09:00:00,12.9756843,77.5660749,PM10,62,122,79
India,Karnataka,Bengaluru,"Hebbal, Bengaluru - KSPCB",27-06-2024 09:00:00,13.029152,77.585901,PM2.5,2,21,10
India,Karnataka,Bengaluru,"Hebbal, Bengaluru - KSPCB",27-06-2024 09:00:00,13.029152,77.585901,NO2,5,7,7
India,Karnataka,Bengaluru,"Hebbal, Bengaluru - KSPCB",27-06-2024 09:00:00,13.029152,77.585901,SO2,19,26,24
India,Karnataka,Bengaluru,"Hombegowda Nagar, Bengaluru - KSPCB",27-06-2024 09:00:00,12.938539,77.590100,PM2.5,3,21,12
India,Karnataka,Bengaluru,"Hombegowda Nagar, Bengaluru - KSPCB",27-06-2024 09:00:00,12.938539,77.590100,NO2,6,15,11
India,Karnataka,Bengaluru,"Hombegowda Nagar, Bengaluru - KSPCB",27-06-2024 09:00:00,12.938539,77.590100,OZONE,11,22,17
India,Karnataka,Bengaluru,"Jayanagar 5th Block, Bengaluru - KSPCB",27-06-2024 09:00:00,12.920984,77.584908,CO,20,22,21
India,Karnataka,Bengaluru,"Jigani, Bengaluru - KSPCB",27-06-2024 09:00:00,12.7816279,77.6299145,NO2,35,45,41
India,Karnataka,Bengaluru,"Jigani, Bengaluru - KSPCB",27-06-2024 09:00:00,12.7816279,77.6299145,NH3,2,3,3
India,Karnataka,Bengaluru,"Kasturi Nagar, Bengaluru - KSPCB",27-06-2024 09:00:00,13.003872,77.664217,PM2.5,28,40,34
India,Karnataka,Bengaluru,"Kasturi Nagar, Bengaluru - KSPCB",27-06-2024 09:00:00,13.003872,77.664217,NH3,3,4,4
India,Karnataka,Bengaluru,"RVCE-Mailasandra, Bengaluru - KSPCB",27-06-2024 09:00:00,12.921418,77.502466,PM2.5,NA,NA,NA
India,Karnataka,Bengaluru,"RVCE-Mailasandra, Bengaluru - KSPCB",27-06-2024 09:00:00,12.921418,77.502466,PM10,NA,NA,NA
India,Karnataka,Bengaluru,"RVCE-Mailasandra, Bengaluru - KSPCB",27-06-2024 09:00:00,12.921418,77.502466,CO,35,47,44
India,Karnataka,Bengaluru,"Sanegurava Halli, Bengaluru - KSPCB",27-06-2024 09:00:00,12.990328,77.5431385,NO2,20,27,23
India,Karnataka,Bengaluru,"Silk Board, Bengaluru - KSPCB",27-06-2024 09:00:00,12.917348,77.622813,OZONE,3,71,14
India,Karnataka,Bidar,"Naubad, Bidar - KSPCB",27-06-2024 09:00:00,17.930306,77.482194,SO2,NA,NA,NA
India,Karnataka,Chikkaballapur,"Chikkaballapur Rural, Chikkaballapur - KSPCB",27-06-2024 09:00:00,13.428828,77.731418,OZONE,29,39,29
India,Karnataka,Chikkamagaluru,"Kalyana Nagara, Chikkamagaluru - KSPCB",27-06-2024 09:00:00,13.328028,75.797056,PM2.5,NA,NA,NA
India,Karnataka,Chikkamagaluru,"Kalyana Nagara, Chikkamagaluru - KSPCB",27-06-2024 09:00:00,13.328028,75.797056,NH3,NA,NA,NA
India,Karnataka,Chikkamagaluru,"Kalyana Nagara, Chikkamagaluru - KSPCB",27-06-2024 09:00:00,13.328028,75.797056,SO2,NA,NA,NA
India,Karnataka,Davanagere,"Devaraj Urs Badavane, Davanagere - KSPCB",27-06-2024 09:00:00,14.475800,75.905200,PM10,11,26,17
India,Karnataka,Dharwad,"Kalabhavan, Dharwad - KSPCB",27-06-2024 09:00:00,15.459706,75.008381,OZONE,24,57,28
India,Karnataka,Haveri,"Ashwini Nagar, Haveri - KSPCB",27-06-2024 09:00:00,14.791800,75.389600,CO,36,38,38
India,Karnataka,Kalaburagi,"Lal Bahadur Shastri Nagar, Kalaburagi - KSPCB",27-06-2024 09:00:00,17.321993,76.822628,PM2.5,NA,NA,NA
India,Karnataka,Kalaburagi,"Lal Bahadur Shastri Nagar, Kalaburagi - KSPCB",27-06-2024 09:00:00,17.321993,76.822628,NH3,NA,NA,NA
India,Karnataka,Kalaburagi,"Lal Bahadur Shastri Nagar, Kalaburagi - KSPCB",27-06-2024 09:00:00,17.321993,76.822628,SO2,NA,NA,NA
India,Karnataka,Karwar,"KHB Colony, Karwar - KSPCB",27-06-2024 09:00:00,14.816666,74.141003,SO2,19,22,21
India,Karnataka,Karwar,"KHB Colony, Karwar - KSPCB",27-06-2024 09:00:00,14.816666,74.141003,OZONE,21,22,22
India,Karnataka,Kolar,"Tamaka Ind. Area, Kolar - KSPCB",27-06-2024 09:00:00,13.1276288,78.1570122,OZONE,13,14,13
India,Karnataka,Koppal,"Diwator Nagar, Koppal - KSPCB",27-06-2024 09:00:00,15.347630,76.181767,PM2.5,1,14,7
India,Karnataka,Koppal,"Diwator Nagar, Koppal - KSPCB",27-06-2024 09:00:00,15.347630,76.181767,NH3,6,9,7
India,Karnataka,Koppal,"Diwator Nagar, Koppal - KSPCB",27-06-2024 09:00:00,15.347630,76.181767,SO2,30,30,30
India,Karnataka,Madikeri,"Stuart Hill, Madikeri - KSPCB",27-06-2024 09:00:00,12.415911,75.735050,NH3,NA,NA,NA
India,Karnataka,Madikeri,"Stuart Hill, Madikeri - KSPCB",27-06-2024 09:00:00,12.415911,75.735050,CO,4,38,15
India,Karnataka,Mangalore,"Kadri, Mangalore - KSPCB",27-06-2024 09:00:00,12.889250,74.853000,PM2.5,11,50,25
India,Karnataka,Raichur,"Haji Colony, Raichur - KSPCB",27-06-2024 09:00:00,16.208139,77.348417,CO,NA,NA,NA
India,Karnataka,Ramanagara,"Vijay Nagar, Ramanagara - KSPCB",27-06-2024 09:00:00,12.733409,77.298051,PM10,8,29,19
India,Karnataka,Ramanagara,"Vijay Nagar, Ramanagara - KSPCB",27-06-2024 09:00:00,12.733409,77.298051,NO2,5,15,7
India,Karnataka,Shivamogga,"Vinoba Nagara, Shivamogga - KSPCB",27-06-2024 09:00:00,13.940000,75.555917,NH3,2,6,4
India,Karnataka,Tumakuru,"Thimmalapura, Tumakuru - KSPCB",27-06-2024 09:00:00,13.377516,77.099072,PM2.5,16,48,31
India,Karnataka,Udupi,"Brahmagiri, Udupi - KSPCB",27-06-2024 09:00:00,13.34194444,74.74694444,PM10,NA,NA,NA
India,Karnataka,Vijayapura,"Ibrahimpur, Vijayapura - KSPCB",27-06-2024 09:00:00,16.802639,75.722694,PM10,41,43,42
India,Karnataka,Yadgir,"Collector Office, Yadgir - KSPCB",27-06-2024 09:00:00,16.7602,77.1428,PM2.5,5,22,13
India,Karnataka,Yadgir,"Collector Office, Yadgir - KSPCB",27-06-2024 09:00:00,16.7602,77.1428,NH3,1,2,1
India,Kerala,Kannur,"Thavakkara, Kannur - Kerala PCB",27-06-2024 09:00:00,11.875000,75.373200,NO2,4,6,5
India,Kerala,Kollam,"Polayathode, Kollam - Kerala PCB",27-06-2024 09:00:00,8.8787,76.6073,PM2.5,NA,NA,NA
India,Kerala,Thiruvananthapuram,"Kariavattom, Thiruvananthapuram - Kerala PCB",27-06-2024 09:00:00,8.563700,76.886500,NO2,6,7,7
India,Kerala,Thiruvananthapuram,"Kariavattom, Thiruvananthapuram - Kerala PCB",27-06-2024 09:00:00,8.563700,76.886500,CO,18,68,28
India,Kerala,Thiruvananthapuram,"Kariavattom, Thiruvananthapuram - Kerala PCB",27-06-2024 09:00:00,8.563700,76.886500,OZONE,36,36,36
India,Kerala,Thiruvananthapuram,"Plammoodu, Thiruvananthapuram - Kerala PCB",27-06-2024 09:00:00,8.5149093,76.9435879,NO2,8,11,9
India,Kerala,Thrissur,"Corporation Ground, Thrissur - Kerala PCB",27-06-2024 09:00:00,10.532400,76.215900,PM2.5,45,51,48
India,Kerala,Thrissur,"Corporation Ground, Thrissur - Kerala PCB",27-06-2024 09:00:00,10.532400,76.215900,PM10,61,69,64
India,Kerala,Thrissur,"Corporation Ground, Thrissur - Kerala PCB",27-06-2024 09:00:00,10.532400,76.215900,NO2,7,8,7
India,Kerala,Thrissur,"Corporation Ground, Thrissur - Kerala PCB",27-06-2024 09:00:00,10.532400,76.215900,CO,16,127,60
India,Madhya Pradesh,Bhopal,"Idgah Hills, Bhopal - MPPCB",27-06-2024 09:00:00,23.264759,77.381568,NH3,2,8,4
India,Madhya Pradesh,Bhopal,"Idgah Hills, Bhopal - MPPCB",27-06-2024 09:00:00,23.264759,77.381568,OZONE,20,55,24
