country,state,city,station,last_update,latitude,longitude,pollutant_id,pollutant_min,pollutant_max,pollutant_avg
India,Andhra_Pradesh,Amaravati,"Secretariat, Amaravati - APPCB",18-02-2024 02:00:00,16.5150833,80.5181667,OZONE,2,70,24
India,Andhra_Pradesh,Anantapur,"Gulzarpet, Anantapur - APPCB",18-02-2024 02:00:00,14.675886,77.593027,NH3,2,3,3
India,Andhra_Pradesh,Anantapur,"Gulzarpet, Anantapur - APPCB",18-02-2024 02:00:00,14.675886,77.593027,SO2,1,29,6
India,Andhra_Pradesh,Chittoor,"Gangineni Cheruvu, Chittoor - APPCB",18-02-2024 02:00:00,13.204880,79.097889,SO2,1,56,15
India,Andhra_Pradesh,Kadapa,"Yerramukkapalli, Kadapa - APPCB",18-02-2024 02:00:00,14.465052,78.824187,NO2,8,8,8
India,Andhra_Pradesh,Rajamahendravaram,"Anand Kala Kshetram, Rajamahendravaram - APPCB",18-02-2024 02:00:00,16.9872867,81.7363176,PM10,52,132,94
India,Andhra_Pradesh,Rajamahendravaram,"Anand Kala Kshetram, Rajamahendravaram - APPCB",18-02-2024 02:00:00,16.9872867,81.7363176,NO2,17,52,33
India,Andhra_Pradesh,Rajamahendravaram,"Anand Kala Kshetram, Rajamahendravaram - APPCB",18-02-2024 02:00:00,16.9872867,81.7363176,NH3,3,5,4
India,Andhra_Pradesh,Rajamahendravaram,"Anand Kala Kshetram, Rajamahendravaram - APPCB",18-02-2024 02:00:00,16.9872867,81.7363176,SO2,12,14,13
India,Andhra_Pradesh,Tirupati,"Vaikuntapuram, Tirupati - APPCB",18-02-2024 02:00:00,13.615387,79.409230,PM2.5,NA,NA,NA
India,Andhra_Pradesh,Vijayawada,"HB Colony, Vijayawada - APPCB",18-02-2024 02:00:00,16.536107,80.594233,CO,25,32,28
India,Andhra_Pradesh,Vijayawada,"HB Colony, Vijayawada - APPCB",18-02-2024 02:00:00,16.536107,80.594233,OZONE,1,86,26
India,Andhra_Pradesh,Vijayawada,"Rajiv Gandhi Park, Vijayawada - APPCB",18-02-2024 02:00:00,16.509717,80.612222,PM10,48,81,60
India,Andhra_Pradesh,Vijayawada,"Rajiv Gandhi Park, Vijayawada - APPCB",18-02-2024 02:00:00,16.509717,80.612222,NH3,3,7,6
India,Andhra_Pradesh,Vijayawada,"Rajiv Gandhi Park, Vijayawada - APPCB",18-02-2024 02:00:00,16.509717,80.612222,CO,31,44,36
India,Andhra_Pradesh,Vijayawada,"Rajiv Nagar, Vijayawada - APPCB",18-02-2024 02:00:00,16.554731,80.649110,SO2,6,20,11
India,Andhra_Pradesh,Vijayawada,"Rajiv Nagar, Vijayawada - APPCB",18-02-2024 02:00:00,16.554731,80.649110,OZONE,3,58,19
India,Assam,Byrnihat,"Central Academy for SFS, Byrnihat - PCBA",18-02-2024 02:00:00,26.071318,91.87488,PM10,78,467,229
India,Assam,Byrnihat,"Central Academy for SFS, Byrnihat - PCBA",18-02-2024 02:00:00,26.071318,91.87488,NH3,1,7,5
India,Assam,Guwahati,"LGBI Airport, Guwahati - PCBA",18-02-2024 02:00:00,26.10887,91.589544,SO2,9,14,13
India,Assam,Guwahati,"Pan Bazaar, Guwahati - PCBA",18-02-2024 02:00:00,26.187500,91.744194,PM2.5,120,310,229
India,Assam,Guwahati,"Railway Colony, Guwahati - PCBA",18-02-2024 02:00:00,26.181742,91.78063,PM10,90,325,182
India,Assam,Guwahati,"Railway Colony, Guwahati - PCBA",18-02-2024 02:00:00,26.181742,91.78063,NO2,3,4,3
India,Assam,Nagaon,"Christianpatty, Nagaon - PCBA",18-02-2024 02:00:00,26.349082,92.68449,PM10,108,433,163
India,Assam,Nagaon,"Christianpatty, Nagaon - PCBA",18-02-2024 02:00:00,26.349082,92.68449,OZONE,5,97,23
India,Assam,Silchar,"Tarapur, Silchar - PCBA",18-02-2024 02:00:00,24.82827,92.79525,SO2,6,10,8
India,Assam,Sivasagar,"Girls College, Sivasagar - PCBA",18-02-2024 02:00:00,26.987634,94.636574,PM10,27,92,61
India,Bihar,Araria,"Kharahiya Basti, Araria - BSPCB",18-02-2024 02:00:00,26.146529,87.454184,PM2.5,136,338,247
India,Bihar,Arrah,"New DM Office, Arrah - BSPCB",18-02-2024 02:00:00,25.5626095,84.663264,PM10,80,200,126
India,Bihar,Arrah,"New DM Office, Arrah - BSPCB",18-02-2024 02:00:00,25.5626095,84.663264,NH3,5,8,6
India,Bihar,Aurangabad,"Gurdeo Nagar, Aurangabad - BSPCB",18-02-2024 02:00:00,24.75746,84.366208,NH3,6,11,9
India,Bihar,Aurangabad,"Gurdeo Nagar, Aurangabad - BSPCB",18-02-2024 02:00:00,24.75746,84.366208,CO,2,26,9
India,Bihar,Aurangabad,"Gurdeo Nagar, Aurangabad - BSPCB",18-02-2024 02:00:00,24.75746,84.366208,OZONE,1,55,5
India,Bihar,Bettiah,"Kamalnath Nagar, Bettiah - BSPCB",18-02-2024 02:00:00,26.80365,84.51954,NO2,3,18,14
India,Bihar,Bettiah,"Kamalnath Nagar, Bettiah - BSPCB",18-02-2024 02:00:00,26.80365,84.51954,NH3,3,4,3
India,Bihar,Bettiah,"Kamalnath Nagar, Bettiah - BSPCB",18-02-2024 02:00:00,26.80365,84.51954,OZONE,NA,NA,NA
India,Bihar,Bhagalpur,"DM Office_Kachari Chowk, Bhagalpur - BSPCB",18-02-2024 02:00:00,25.251013,86.989001,PM10,111,238,158
India,Bihar,Bhagalpur,"Mayaganj, Bhagalpur - BSPCB",18-02-2024 02:00:00,25.265194,87.012947,SO2,10,13,12
India,Bihar,Bhagalpur,"Mayaganj, Bhagalpur - BSPCB",18-02-2024 02:00:00,25.265194,87.012947,CO,8,10,9
India,Bihar,Bihar Sharif,"D M Colony, Bihar Sharif - BSPCB",18-02-2024 02:00:00,25.204762,85.514960,OZONE,7,30,12
India,Bihar,Buxar,"Charitra Van, Buxar - BSPCB (Formerly known as Central Jail)",18-02-2024 02:00:00,25.567520,83.966379,CO,52,116,88
India,Bihar,Chhapra,"Darshan Nagar, Chhapra - BSPCB",18-02-2024 02:00:00,25.7808257,84.7446768,SO2,14,108,57
India,Bihar,Gaya,"Collectorate, Gaya - BSPCB",18-02-2024 02:00:00,24.7955,84.9994,PM2.5,81,339,207
India,Bihar,Gaya,"SFTI Kusdihra, Gaya - BSPCB",18-02-2024 02:00:00,24.762518,84.982348,PM2.5,40,157,89
India,Bihar,Gaya,"SFTI Kusdihra, Gaya - BSPCB",18-02-2024 02:00:00,24.762518,84.982348,CO,22,47,32
India,Bihar,Hajipur,"Industrial Area, Hajipur - BSPCB",18-02-2024 02:00:00,25.697189,85.245900,PM2.5,79,314,165
India,Bihar,Hajipur,"Industrial Area, Hajipur - BSPCB",18-02-2024 02:00:00,25.697189,85.245900,OZONE,1,11,7
India,Bihar,Katihar,"Mirchaibari, Katihar - BSPCB",18-02-2024 02:00:00,25.560083,87.553265,OZONE,20,24,22
India,Bihar,Kishanganj,"SDM Office_Khagra, Kishanganj - BSPCB",18-02-2024 02:00:00,26.0881305,87.93840336,SO2,18,26,21
India,Bihar,Kishanganj,"SDM Office_Khagra, Kishanganj - BSPCB",18-02-2024 02:00:00,26.0881305,87.93840336,CO,8,14,11
India,Bihar,Manguraha,"Forest Rest House, Manguraha - BSPCB",18-02-2024 02:00:00,27.308328,84.531742,NH3,2,2,2
India,Bihar,Motihari,"Gandak Colony, Motihari - BSPCB",18-02-2024 02:00:00,26.63086,84.90051,CO,42,61,52
India,Bihar,Munger,"Town Hall, Munger - BSPCB",18-02-2024 02:00:00,25.376776,86.471523,PM2.5,NA,NA,NA
India,Bihar,Munger,"Town Hall, Munger - BSPCB",18-02-2024 02:00:00,25.376776,86.471523,PM10,NA,NA,NA
India,Bihar,Munger,"Town Hall, Munger - BSPCB",18-02-2024 02:00:00,25.376776,86.471523,NH3,1,2,2
India,Bihar,Muzaffarpur,"Buddha Colony, Muzaffarpur - BSPCB",18-02-2024 02:00:00,26.11442,85.39813,PM10,138,234,178
India,Bihar,Muzaffarpur,"Buddha Colony, Muzaffarpur - BSPCB",18-02-2024 02:00:00,26.11442,85.39813,CO,30,78,63
India,Bihar,Muzaffarpur,"MIT-Daudpur Kothi, Muzaffarpur - BSPCB",18-02-2024 02:00:00,26.1403345,85.3650192,NO2,5,12,7
India,Bihar,Muzaffarpur,"MIT-Daudpur Kothi, Muzaffarpur - BSPCB",18-02-2024 02:00:00,26.1403345,85.3650192,NH3,11,20,15
India,Bihar,Muzaffarpur,"Muzaffarpur Collectorate, Muzaffarpur - BSPCB",18-02-2024 02:00:00,26.1209,85.3647,OZONE,10,120,26
India,Bihar,Patna,"DRM Office Danapur, Patna - BSPCB",18-02-2024 02:00:00,25.586562,85.043586,NO2,14,85,38
India,Bihar,Patna,"Govt. High School Shikarpur, Patna - BSPCB",18-02-2024 02:00:00,25.592539,85.227158,PM2.5,94,271,154
India,Bihar,Patna,"Govt. High School Shikarpur, Patna - BSPCB",18-02-2024 02:00:00,25.592539,85.227158,CO,32,96,70
India,Bihar,Patna,"IGSC Planetarium Complex, Patna - BSPCB",18-02-2024 02:00:00,25.610369,85.132568,SO2,7,8,8
India,Bihar,Patna,"Muradpur, Patna - BSPCB",18-02-2024 02:00:00,25.619651,85.147382,PM10,144,418,248
India,Bihar,Patna,"Muradpur, Patna - BSPCB",18-02-2024 02:00:00,25.619651,85.147382,SO2,6,14,9
India,Bihar,Patna,"Samanpura, Patna - BSPCB",18-02-2024 02:00:00,25.596727,85.085624,NO2,NA,NA,NA
India,Bihar,Purnia,"Mariam Nagar, Purnia - BSPCB",18-02-2024 02:00:00,25.366336,87.117468,CO,17,76,59
India,Bihar,Purnia,"Mariam Nagar, Purnia - BSPCB",18-02-2024 02:00:00,25.366336,87.117468,OZONE,10,28,14
India,Bihar,Saharsa,"Police Line, Saharsa - BSPCB",18-02-2024 02:00:00,25.892357,86.590325,PM10,88,139,111
India,Bihar,Saharsa,"Police Line, Saharsa - BSPCB",18-02-2024 02:00:00,25.892357,86.590325,SO2,8,54,30
India,Bihar,Samastipur,"DM Office_Kasipur, Samastipur - BSPCB",18-02-2024 02:00:00,25.859655,85.77944,NO2,1,15,6
India,Bihar,Samastipur,"DM Office_Kasipur, Samastipur - BSPCB",18-02-2024 02:00:00,25.859655,85.77944,OZONE,10,56,22
India,Chandigarh,Chandigarh,"Sector 22, Chandigarh - CPCC",18-02-2024 02:00:00,30.735567,76.775714,NO2,20,54,33
India,Chandigarh,Chandigarh,"Sector-25, Chandigarh - CPCC",18-02-2024 02:00:00,30.751462,76.762879,CO,28,54,45
India,Chandigarh,Chandigarh,"Sector-53, Chandigarh - CPCC",18-02-2024 02:00:00,30.719859,76.738637,NH3,7,11,8
India,Chandigarh,Chandigarh,"Sector-53, Chandigarh - CPCC",18-02-2024 02:00:00,30.719859,76.738637,CO,48,133,82
India,Chandigarh,Chandigarh,"Sector-53, Chandigarh - CPCC",18-02-2024 02:00:00,30.719859,76.738637,OZONE,8,78,29
India,Chhattisgarh,Bhilai,"32Bungalows, Bhilai - CECB",18-02-2024 02:00:00,21.194815,81.314770,PM2.5,45,85,62
India,Chhattisgarh,Bhilai,"32Bungalows, Bhilai - CECB",18-02-2024 02:00:00,21.194815,81.314770,PM10,53,103,74
India,Chhattisgarh,Bhilai,"32Bungalows, Bhilai - CECB",18-02-2024 02:00:00,21.194815,81.314770,SO2,3,8,4
India,Chhattisgarh,Bhilai,"Civic Center, Bhilai - Bhilai Steel Plant",18-02-2024 02:00:00,21.185571,81.343175,OZONE,7,65,19
India,Chhattisgarh,Bhilai,"Hathkhoj, Bhilai - CECB",18-02-2024 02:00:00,21.224231,81.408350,NO2,23,73,43
India,Chhattisgarh,Chhal,"Nawapara SECL Colony, Chhal - CECB",18-02-2024 02:00:00,22.118125,83.140608,PM2.5,50,169,90
India,Chhattisgarh,Chhal,"Nawapara SECL Colony, Chhal - CECB",18-02-2024 02:00:00,22.118125,83.140608,SO2,11,30,17
India,Chhattisgarh,Chhal,"Nawapara SECL Colony, Chhal - CECB",18-02-2024 02:00:00,22.118125,83.140608,OZONE,1,69,11
India,Chhattisgarh,Korba,"Rampur, Korba - CECB",18-02-2024 02:00:00,22.368195,82.746431,PM2.5,29,47,35
India,Chhattisgarh,Korba,"Rampur, Korba - CECB",18-02-2024 02:00:00,22.368195,82.746431,NH3,3,9,4
India,Chhattisgarh,Korba,"Urja Nagar, Korba - CECB",18-02-2024 02:00:00,22.348441,82.549611,PM10,26,144,48
India,Chhattisgarh,Korba,"Urja Nagar, Korba - CECB",18-02-2024 02:00:00,22.348441,82.549611,CO,25,46,39
India,Chhattisgarh,Kunjemura,"OP Jindal School, Kunjemura - CECB",18-02-2024 02:00:00,22.126650,83.483212,PM2.5,37,69,51
India,Chhattisgarh,Kunjemura,"OP Jindal School, Kunjemura - CECB",18-02-2024 02:00:00,22.126650,83.483212,OZONE,4,65,19
India,Chhattisgarh,Milupara,"Govt. Higher Secondary School, Milupara - CECB",18-02-2024 02:00:00,22.1910172,83.5197009,PM10,31,99,52
India,Chhattisgarh,Milupara,"Govt. Higher Secondary School, Milupara - CECB",18-02-2024 02:00:00,22.1910172,83.5197009,SO2,4,42,16
India,Chhattisgarh,Raipur,"AIIMS, Raipur - CECB",18-02-2024 02:00:00,21.258815,81.578979,PM2.5,38,89,61
India,Chhattisgarh,Raipur,"AIIMS, Raipur - CECB",18-02-2024 02:00:00,21.258815,81.578979,PM10,37,140,84
India,Chhattisgarh,Raipur,"Bhatagaon New ISBT, Raipur - CECB",18-02-2024 02:00:00,21.219665,81.630094,PM2.5,36,106,56
India,Chhattisgarh,Raipur,"Bhatagaon New ISBT, Raipur - CECB",18-02-2024 02:00:00,21.219665,81.630094,PM10,45,136,84
India,Chhattisgarh,Raipur,"Krishak Nagar, Raipur - CECB",18-02-2024 02:00:00,21.237755,81.705301,PM10,54,106,79
India,Chhattisgarh,Raipur,"Siltara Phase-II, Raipur - CECB",18-02-2024 02:00:00,21.371751,81.664929,OZONE,3,28,5
India,Chhattisgarh,Tumidih,"OP Jindal Industrial Park, Tumidih - CECB",18-02-2024 02:00:00,22.06631475,83.33820077,NH3,NA,NA,NA
India,Delhi,Delhi,"Alipur, Delhi - DPCC",18-02-2024 02:00:00,28.815329,77.153010,OZONE,4,144,24
India,Delhi,Delhi,"Anand Vihar, Delhi - DPCC",18-02-2024 02:00:00,28.647622,77.3158090,PM10,182,500,349
India,Delhi,Delhi,"Anand Vihar, Delhi - DPCC",18-02-2024 02:00:00,28.647622,77.3158090,NH3,2,16,9
India,Delhi,Delhi,"Ashok Vihar, Delhi - DPCC",18-02-2024 02:00:00,28.695381,77.181665,SO2,21,48,33
India,Delhi,Delhi,"Aya Nagar, Delhi - IMD",18-02-2024 02:00:00,28.4706914,77.1099364,CO,78,104,104
India,Delhi,Delhi,"Bawana, Delhi - DPCC",18-02-2024 02:00:00,28.776200,77.051074,PM2.5,68,433,289
India,Delhi,Delhi,"Burari Crossing, Delhi - IMD",18-02-2024 02:00:00,28.7256504,77.2011573,PM2.5,35,345,256
India,Delhi,Delhi,"CRRI Mathura Road, Delhi - IMD",18-02-2024 02:00:00,28.5512005,77.2735737,PM10,102,359,182
India,Delhi,Delhi,"CRRI Mathura Road, Delhi - IMD",18-02-2024 02:00:00,28.5512005,77.2735737,OZONE,3,60,7
India,Delhi,Delhi,"DTU, Delhi - CPCB",18-02-2024 02:00:00,28.7500499,77.1112615,PM10,106,456,252
India,Delhi,Delhi,"DTU, Delhi - CPCB",18-02-2024 02:00:00,28.7500499,77.1112615,NO2,11,70,52
India,Delhi,Delhi,"Dr. Karni Singh Shooting Range, Delhi - DPCC",18-02-2024 02:00:00,28.498571,77.264840,SO2,3,111,66
India,Delhi,Delhi,"Dr. Karni Singh Shooting Range, Delhi - DPCC",18-02-2024 02:00:00,28.498571,77.264840,OZONE,1,167,29
India,Delhi,Delhi,"Dwarka-Sector 8, Delhi - DPCC ",18-02-2024 02:00:00,28.5710274,77.0719006,PM10,116,500,293
India,Delhi,Delhi,"Dwarka-Sector 8, Delhi - DPCC ",18-02-2024 02:00:00,28.5710274,77.0719006,SO2,5,15,10
India,Delhi,Delhi,"IGI Airport (T3), Delhi - IMD",18-02-2024 02:00:00,28.5627763,77.1180053,PM2.5,61,364,233
India,Delhi,Delhi,"IGI Airport (T3), Delhi - IMD",18-02-2024 02:00:00,28.5627763,77.1180053,NO2,34,131,70
India,Delhi,Delhi,"IHBAS, Dilshad Garden, Delhi - CPCB",18-02-2024 02:00:00,28.6811736,77.3025234,SO2,2,69,21
India,Delhi,Delhi,"ITO, Delhi - CPCB",18-02-2024 02:00:00,28.628624,77.241060,SO2,16,50,28
India,Delhi,Delhi,"Jahangirpuri, Delhi - DPCC",18-02-2024 02:00:00,28.732820,77.170633,CO,40,145,116
India,Delhi,Delhi,"Jahangirpuri, Delhi - DPCC",18-02-2024 02:00:00,28.732820,77.170633,OZONE,1,177,19
India,Delhi,Delhi,"Lodhi Road, Delhi - IITM",18-02-2024 02:00:00,28.588333,77.221667,SO2,20,45,30
India,Delhi,Delhi,"Lodhi Road, Delhi - IMD",18-02-2024 02:00:00,28.5918245,77.2273074,PM10,110,251,148
India,Delhi,Delhi,"Major Dhyan Chand National Stadium, Delhi - DPCC",18-02-2024 02:00:00,28.611281,77.237738,PM2.5,88,340,249
India,Delhi,Delhi,"Major Dhyan Chand National Stadium, Delhi - DPCC",18-02-2024 02:00:00,28.611281,77.237738,OZONE,2,182,13
India,Delhi,Delhi,"Mandir Marg, Delhi - DPCC",18-02-2024 02:00:00,28.636429,77.201067,PM2.5,77,340,241
India,Delhi,Delhi,"Mundka, Delhi - DPCC",18-02-2024 02:00:00,28.684678,77.076574,PM10,160,500,323
India,Delhi,Delhi,"NSIT Dwarka, Delhi - CPCB",18-02-2024 02:00:00,28.60909,77.0325413,SO2,6,14,11
India,Delhi,Delhi,"Najafgarh, Delhi - DPCC",18-02-2024 02:00:00,28.570173,76.933762,PM2.5,75,316,230
India,Delhi,Delhi,"Narela, Delhi - DPCC",18-02-2024 02:00:00,28.822836,77.101981,PM10,86,353,201
India,Delhi,Delhi,"Narela, Delhi - DPCC",18-02-2024 02:00:00,28.822836,77.101981,NO2,15,108,50
India,Delhi,Delhi,"Narela, Delhi - DPCC",18-02-2024 02:00:00,28.822836,77.101981,SO2,3,27,16
India,Delhi,Delhi,"Nehru Nagar, Delhi - DPCC",18-02-2024 02:00:00,28.567890,77.250515,NO2,12,27,20
India,Delhi,Delhi,"New Moti Bagh, Delhi - MHUA",18-02-2024 02:00:00,28.57834,77.18400,PM2.5,98,348,265
India,Delhi,Delhi,"New Moti Bagh, Delhi - MHUA",18-02-2024 02:00:00,28.57834,77.18400,NO2,1,11,5
India,Delhi,Delhi,"North Campus, DU, Delhi - IMD",18-02-2024 02:00:00,28.6573814,77.1585447,CO,10,56,25
India,Delhi,Delhi,"Okhla Phase-2, Delhi - DPCC",18-02-2024 02:00:00,28.530785,77.271255,SO2,4,21,9
India,Delhi,Delhi,"Patparganj, Delhi - DPCC",18-02-2024 02:00:00,28.623763,77.287209,NO2,45,83,59
India,Delhi,Delhi,"Punjabi Bagh, Delhi - DPCC",18-02-2024 02:00:00,28.674045,77.131023,SO2,23,49,35
India,Delhi,Delhi,"Pusa, Delhi - IMD",18-02-2024 02:00:00,28.636110,77.173332,PM2.5,NA,NA,NA
India,Delhi,Delhi,"Pusa, Delhi - IMD",18-02-2024 02:00:00,28.636110,77.173332,PM10,NA,NA,NA
India,Delhi,Delhi,"Pusa, Delhi - IMD",18-02-2024 02:00:00,28.636110,77.173332,NO2,NA,NA,NA
India,Delhi,Delhi,"R K Puram, Delhi - DPCC",18-02-2024 02:00:00,28.563262,77.186937,PM2.5,131,439,289
India,Delhi,Delhi,"R K Puram, Delhi - DPCC",18-02-2024 02:00:00,28.563262,77.186937,CO,22,158,114
India,Delhi,Delhi,"Rohini, Delhi - DPCC",18-02-2024 02:00:00,28.732528,77.119920,PM2.5,71,443,288
India,Delhi,Delhi,"Shadipur, Delhi - CPCB",18-02-2024 02:00:00,28.6514781,77.1473105,PM10,142,428,269
India,Delhi,Delhi,"Shadipur, Delhi - CPCB",18-02-2024 02:00:00,28.6514781,77.1473105,NO2,46,64,53
India,Delhi,Delhi,"Sirifort, Delhi - CPCB",18-02-2024 02:00:00,28.5504249,77.2159377,NH3,9,13,11
India,Delhi,Delhi,"Sonia Vihar, Delhi - DPCC",18-02-2024 02:00:00,28.710508,77.249485,PM2.5,66,342,262
India,Delhi,Delhi,"Sri Aurobindo Marg, Delhi - DPCC",18-02-2024 02:00:00,28.531346,77.190156,OZONE,1,48,8
India,Delhi,Delhi,"Vivek Vihar, Delhi - DPCC",18-02-2024 02:00:00,28.672342,77.315260,PM2.5,NA,NA,NA
India,Delhi,Delhi,"Vivek Vihar, Delhi - DPCC",18-02-2024 02:00:00,28.672342,77.315260,PM10,NA,NA,NA
India,Delhi,Delhi,"Vivek Vihar, Delhi - DPCC",18-02-2024 02:00:00,28.672342,77.315260,OZONE,5,38,12
India,Delhi,Delhi,"Wazirpur, Delhi - DPCC",18-02-2024 02:00:00,28.699793,77.165453,PM2.5,93,463,274
India,Gujarat,Ahmedabad,"Chandkheda, Ahmedabad - IITM",18-02-2024 02:00:00,23.107969,72.574648,NO2,94,258,156
India,Gujarat,Ahmedabad,"Chandkheda, Ahmedabad - IITM",18-02-2024 02:00:00,23.107969,72.574648,CO,2,70,22
India,Gujarat,Ahmedabad,"Gyaspur, Ahmedabad - IITM",18-02-2024 02:00:00,22.977134,72.553024,OZONE,1,46,6
India,Gujarat,Ahmedabad,"Maninagar, Ahmedabad - GPCB",18-02-2024 02:00:00,23.002657,72.591912,PM10,42,129,85
India,Gujarat,Ahmedabad,"Maninagar, Ahmedabad - GPCB",18-02-2024 02:00:00,23.002657,72.591912,NO2,16,33,22
India,Gujarat,Ahmedabad,"Rakhial, Ahmedabad - IITM",18-02-2024 02:00:00,23.016834,72.625775,PM10,84,289,142
India,Gujarat,Ahmedabad,"Rakhial, Ahmedabad - IITM",18-02-2024 02:00:00,23.016834,72.625775,CO,12,75,48
India,Gujarat,Ahmedabad,"SAC ISRO Bopal, Ahmedabad - IITM",18-02-2024 02:00:00,23.041137,72.456691,SO2,11,12,12
India,Gujarat,Ahmedabad,"SAC ISRO Bopal, Ahmedabad - IITM",18-02-2024 02:00:00,23.041137,72.456691,CO,32,35,34
India,Gujarat,Ankleshwar,"GIDC, Ankleshwar - GPCB",18-02-2024 02:00:00,21.613267,73.010555,PM10,57,226,106
India,Gujarat,Gandhinagar,"IIPHG Lekawada, Gandhinagar - IITM",18-02-2024 02:00:00,23.243639,72.68994,PM10,61,124,103
India,Gujarat,Gandhinagar,"IIPHG Lekawada, Gandhinagar - IITM",18-02-2024 02:00:00,23.243639,72.68994,CO,10,56,31
India,Gujarat,Gandhinagar,"Sector-10, Gandhinagar - GPCB",18-02-2024 02:00:00,23.221714,72.654328,PM10,63,141,100
India,Gujarat,Vapi,"Phase-1 GIDC, Vapi - GPCB",18-02-2024 02:00:00,20.362421,72.918013,PM10,117,474,217
India,Gujarat,Vapi,"Phase-1 GIDC, Vapi - GPCB",18-02-2024 02:00:00,20.362421,72.918013,CO,1,192,79
India,Gujarat,Vatva,"Phase-4 GIDC, Vatva - GPCB",18-02-2024 02:00:00,22.969611,72.643500,NO2,29,257,94
India,Gujarat,Vatva,"Phase-4 GIDC, Vatva - GPCB",18-02-2024 02:00:00,22.969611,72.643500,CO,48,50,49
India,Haryana,Ambala,"Patti Mehar, Ambala - HSPCB",18-02-2024 02:00:00,30.379589,76.778328,NO2,96,143,116
India,Haryana,Bahadurgarh,"Arya Nagar, Bahadurgarh - HSPCB",18-02-2024 02:00:00,28.6701,76.9254,NH3,10,12,11
India,Haryana,Ballabgarh,"Nathu Colony, Ballabgarh - HSPCB",18-02-2024 02:00:00,28.3419248,77.319699,SO2,3,29,16
India,Haryana,Charkhi Dadri,"Mini Secretariat, Charkhi Dadri - HSPCB",18-02-2024 02:00:00,28.593883,76.270653,SO2,17,27,20
India,Haryana,Charkhi Dadri,"Mini Secretariat, Charkhi Dadri - HSPCB",18-02-2024 02:00:00,28.593883,76.270653,CO,24,100,60
India,Haryana,Dharuhera,"Municipal Corporation Office, Dharuhera -  HSPCB",18-02-2024 02:00:00,28.206800,76.799700,NH3,9,27,19
India,Haryana,Dharuhera,"Municipal Corporation Office, Dharuhera -  HSPCB",18-02-2024 02:00:00,28.206800,76.799700,CO,22,114,65
India,Haryana,Dharuhera,"Municipal Corporation Office, Dharuhera -  HSPCB",18-02-2024 02:00:00,28.206800,76.799700,OZONE,10,74,23
India,Haryana,Fatehabad,"Huda Sector, Fatehabad - HSPCB",18-02-2024 02:00:00,29.503664,75.467934,PM10,80,139,105
India,Haryana,Fatehabad,"Huda Sector, Fatehabad - HSPCB",18-02-2024 02:00:00,29.503664,75.467934,OZONE,20,34,24
India,Haryana,Gurugram,"Sector-51, Gurugram - HSPCB",18-02-2024 02:00:00,28.4227,77.0667,SO2,3,5,4
India,Haryana,Gurugram,"Teri Gram, Gurugram - HSPCB",18-02-2024 02:00:00,28.4275,77.1465,PM10,171,433,295
India,Haryana,Gurugram,"Teri Gram, Gurugram - HSPCB",18-02-2024 02:00:00,28.4275,77.1465,SO2,3,5,4
India,Haryana,Gurugram,"Teri Gram, Gurugram - HSPCB",18-02-2024 02:00:00,28.4275,77.1465,CO,28,62,34
India,Haryana,Kaithal,"Rishi Nagar, Kaithal - HSPCB",18-02-2024 02:00:00,29.8006,76.4155,NO2,24,26,25
India,Haryana,Karnal,"Sector-12, Karnal - HSPCB",18-02-2024 02:00:00,29.695300,77.002700,SO2,12,13,13
India,Haryana,Mandikhera,"General Hospital, Mandikhera - HSPCB",18-02-2024 02:00:00,27.9002,76.9938,OZONE,23,31,28
India,Haryana,Manesar,"Sector-2 IMT, Manesar - HSPCB",18-02-2024 02:00:00,28.360699,76.936090,NO2,11,29,21
India,Haryana,Manesar,"Sector-2 IMT, Manesar - HSPCB",18-02-2024 02:00:00,28.360699,76.936090,NH3,7,17,10
India,Haryana,Manesar,"Sector-2 IMT, Manesar - HSPCB",18-02-2024 02:00:00,28.360699,76.936090,OZONE,5,54,15
India,Haryana,Narnaul,"Shastri Nagar, Narnaul - HSPCB",18-02-2024 02:00:00,28.060249,76.113115,PM10,32,114,74
India,Haryana,Panchkula,"Sector-6, Panchkula - HSPCB ",18-02-2024 02:00:00,30.7057778,76.8531805555555,NO2,10,31,20
India,Haryana,Panchkula,"Sector-6, Panchkula - HSPCB ",18-02-2024 02:00:00,30.7057778,76.8531805555555,CO,1,110,19
India,Haryana,Rohtak,"MD University, Rohtak - HSPCB",18-02-2024 02:00:00,28.52123,76.37138,OZONE,44,53,49
India,Haryana,Sirsa,"F-Block, Sirsa - HSPCB",18-02-2024 02:00:00,29.536400,75.015800,PM10,41,103,67
India,Haryana,Sonipat,"Murthal, Sonipat - HSPCB",18-02-2024 02:00:00,29.027200,77.062100,NO2,37,44,39
India,Haryana,Sonipat,"Murthal, Sonipat - HSPCB",18-02-2024 02:00:00,29.027200,77.062100,SO2,13,29,20
India,Himachal Pradesh,Baddi,"HIMUDA Complex Phase-1, Baddi - HPPCB",18-02-2024 02:00:00,30.943887,76.801991,PM2.5,133,451,310
India,Himachal Pradesh,Baddi,"HIMUDA Complex Phase-1, Baddi - HPPCB",18-02-2024 02:00:00,30.943887,76.801991,PM10,114,432,226
India,Himachal Pradesh,Baddi,"HIMUDA Complex Phase-1, Baddi - HPPCB",18-02-2024 02:00:00,30.943887,76.801991,NH3,6,12,9
India,Jammu_and_Kashmir,Srinagar,"Rajbagh, Srinagar - JKSPCB",18-02-2024 02:00:00,34.066206,74.819820,PM2.5,NA,NA,NA
India,Jammu_and_Kashmir,Srinagar,"Rajbagh, Srinagar - JKSPCB",18-02-2024 02:00:00,34.066206,74.819820,SO2,NA,NA,NA
India,Jharkhand,Dhanbad,"Kalakusuma, Dhanbad - DMC",18-02-2024 02:00:00,23.811548,86.481238,NO2,NA,NA,NA
India,Jharkhand,Pathardih,"Mohalbani Ghat, Pathardih - DMC",18-02-2024 02:00:00,23.669880,86.411725,NO2,NA,NA,NA
India,Jharkhand,Pathardih,"Mohalbani Ghat, Pathardih - DMC",18-02-2024 02:00:00,23.669880,86.411725,OZONE,8,21,9
India,Karnataka,Bagalkot,"Vidayagiri, Bagalkot - KSPCB",18-02-2024 02:00:00,16.172806,75.659694,NH3,1,2,1
India,Karnataka,Belgaum,"Ramteerth Nagar, Belgaum - KSPCB",18-02-2024 02:00:00,15.888653,74.541751,PM10,28,90,57
India,Karnataka,Belgaum,"Ramteerth Nagar, Belgaum - KSPCB",18-02-2024 02:00:00,15.888653,74.541751,SO2,8,9,8
India,Karnataka,Belgaum,"Ramteerth Nagar, Belgaum - KSPCB",18-02-2024 02:00:00,15.888653,74.541751,OZONE,18,20,19
India,Karnataka,Bengaluru,"BTM Layout, Bengaluru - CPCB",18-02-2024 02:00:00,12.9135218,77.5950804,SO2,NA,NA,NA
India,Karnataka,Bengaluru,"BTM Layout, Bengaluru - CPCB",18-02-2024 02:00:00,12.9135218,77.5950804,CO,41,43,42
India,Karnataka,Bengaluru,"Hebbal, Bengaluru - KSPCB",18-02-2024 02:00:00,13.029152,77.585901,PM2.5,41,73,62
India,Karnataka,Bengaluru,"Hebbal, Bengaluru - KSPCB",18-02-2024 02:00:00,13.029152,77.585901,NO2,5,5,5
India,Karnataka,Bengaluru,"Hebbal, Bengaluru - KSPCB",18-02-2024 02:00:00,13.029152,77.585901,SO2,11,22,18
India,Karnataka,Bengaluru,"Jayanagar 5th Block, Bengaluru - KSPCB",18-02-2024 02:00:00,12.920984,77.584908,PM2.5,43,100,69
India,Karnataka,Bengaluru,"Jayanagar 5th Block, Bengaluru - KSPCB",18-02-2024 02:00:00,12.920984,77.584908,OZONE,18,28,28
India,Karnataka,Bengaluru,"Jigani, Bengaluru - KSPCB",18-02-2024 02:00:00,12.7816279,77.6299145,NO2,31,32,32
India,Karnataka,Bengaluru,"Jigani, Bengaluru - KSPCB",18-02-2024 02:00:00,12.7816279,77.6299145,CO,25,90,50
India,Karnataka,Bengaluru,"Kasturi Nagar, Bengaluru - KSPCB",18-02-2024 02:00:00,13.003872,77.664217,OZONE,26,97,72
India,Karnataka,Bengaluru,"Peenya, Bengaluru - CPCB",18-02-2024 02:00:00,13.0270199,77.494094,OZONE,42,91,68
India,Karnataka,Bengaluru,"Shivapura_Peenya, Bengaluru - KSPCB",18-02-2024 02:00:00,13.0246342,77.5080115,NH3,4,4,4
India,Karnataka,Bengaluru,"Shivapura_Peenya, Bengaluru - KSPCB",18-02-2024 02:00:00,13.0246342,77.5080115,SO2,6,31,11
India,Karnataka,Bengaluru,"Shivapura_Peenya, Bengaluru - KSPCB",18-02-2024 02:00:00,13.0246342,77.5080115,OZONE,53,56,54
India,Karnataka,Bengaluru,"Silk Board, Bengaluru - KSPCB",18-02-2024 02:00:00,12.917348,77.622813,PM2.5,25,64,47
India,Karnataka,Bengaluru,"Silk Board, Bengaluru - KSPCB",18-02-2024 02:00:00,12.917348,77.622813,NH3,1,2,1
India,Karnataka,Bidar,"Naubad, Bidar - KSPCB",18-02-2024 02:00:00,17.930306,77.482194,PM2.5,17,81,51
India,Karnataka,Bidar,"Naubad, Bidar - KSPCB",18-02-2024 02:00:00,17.930306,77.482194,PM10,67,114,84
India,Karnataka,Bidar,"Naubad, Bidar - KSPCB",18-02-2024 02:00:00,17.930306,77.482194,NO2,7,9,8
India,Karnataka,Chikkamagaluru,"Kalyana Nagara, Chikkamagaluru - KSPCB",18-02-2024 02:00:00,13.328028,75.797056,PM2.5,18,59,33
India,Karnataka,Chikkamagaluru,"Kalyana Nagara, Chikkamagaluru - KSPCB",18-02-2024 02:00:00,13.328028,75.797056,PM10,20,66,43
India,Karnataka,Davanagere,"Devaraj Urs Badavane, Davanagere - KSPCB",18-02-2024 02:00:00,14.475800,75.905200,PM10,44,101,72
India,Karnataka,Gadag,"Panchal Nagar, Gadag - KSPCB",18-02-2024 02:00:00,15.411456,75.638133,SO2,10,19,16
India,Karnataka,Gadag,"Panchal Nagar, Gadag - KSPCB",18-02-2024 02:00:00,15.411456,75.638133,OZONE,29,70,50
India,Karnataka,Haveri,"Ashwini Nagar, Haveri - KSPCB",18-02-2024 02:00:00,14.791800,75.389600,SO2,14,14,14
India,Karnataka,Hubballi,"Lingaraj Nagar, Hubballi - KSPCB",18-02-2024 02:00:00,15.3714823,75.1160168,PM10,46,68,58
India,Karnataka,Kalaburagi,"Lal Bahadur Shastri Nagar, Kalaburagi - KSPCB",18-02-2024 02:00:00,17.321993,76.822628,NH3,2,2,2
India,Karnataka,Kalaburagi,"Mahatma Basaveswar Colony, Kalaburgi - KSPCB",18-02-2024 02:00:00,17.336318,76.847397,NO2,15,22,18
India,Karnataka,Karwar,"KHB Colony, Karwar - KSPCB",18-02-2024 02:00:00,14.816666,74.141003,NH3,1,5,2
India,Karnataka,Kolar,"Tamaka Ind. Area, Kolar - KSPCB",18-02-2024 02:00:00,13.1276288,78.1570122,NO2,NA,NA,NA
India,Karnataka,Koppal,"Diwator Nagar, Koppal - KSPCB",18-02-2024 02:00:00,15.347630,76.181767,NO2,2,36,17
India,Karnataka,Mysuru,"Hebbal 1st Stage, Mysuru - KSPCB",18-02-2024 02:00:00,12.21041,76.37376,SO2,1,11,4
India,Karnataka,Raichur,"Haji Colony, Raichur - KSPCB",18-02-2024 02:00:00,16.208139,77.348417,NH3,1,3,2
India,Karnataka,Ramanagara,"Vijay Nagar, Ramanagara - KSPCB",18-02-2024 02:00:00,12.733409,77.298051,OZONE,28,30,29
India,Karnataka,Shivamogga,"Vinoba Nagara, Shivamogga - KSPCB",18-02-2024 02:00:00,13.940000,75.555917,PM10,50,85,64
India,Karnataka,Tumakuru,"Thimmalapura, Tumakuru - KSPCB",18-02-2024 02:00:00,13.377516,77.099072,OZONE,9,51,30
India,Karnataka,Vijayapura,"Ibrahimpur, Vijayapura - KSPCB",18-02-2024 02:00:00,16.802639,75.722694,NH3,2,2,2
India,Karnataka,Yadgir,"Collector Office, Yadgir - KSPCB",18-02-2024 02:00:00,16.7602,77.1428,NH3,1,1,1
India,Kerala,Kannur,"Thavakkara, Kannur - Kerala PCB",18-02-2024 02:00:00,11.875000,75.373200,PM10,66,73,69
India,Kerala,Kannur,"Thavakkara, Kannur - Kerala PCB",18-02-2024 02:00:00,11.875000,75.373200,SO2,6,6,6
India,Kerala,Kannur,"Thavakkara, Kannur - Kerala PCB",18-02-2024 02:00:00,11.875000,75.373200,OZONE,31,36,32
India,Kerala,Kochi,"Vyttila, Kochi - Kerala PCB",18-02-2024 02:00:00,9.969447,76.321186,NO2,2,15,5
India,Kerala,Kochi,"Vyttila, Kochi - Kerala PCB",18-02-2024 02:00:00,9.969447,76.321186,NH3,2,3,3
India,Kerala,Kochi,"Vyttila, Kochi - Kerala PCB",18-02-2024 02:00:00,9.969447,76.321186,CO,64,66,65
India,Kerala,Kollam,"Polayathode, Kollam - Kerala PCB",18-02-2024 02:00:00,8.8787,76.6073,PM2.5,61,130,84
India,Kerala,Thiruvananthapuram,"Kariavattom, Thiruvananthapuram - Kerala PCB",18-02-2024 02:00:00,8.563700,76.886500,NO2,8,10,9
India,Kerala,Thiruvananthapuram,"Plammoodu, Thiruvananthapuram - Kerala PCB",18-02-2024 02:00:00,8.5149093,76.9435879,CO,20,28,26
India,Madhya Pradesh,Bhopal,"Idgah Hills, Bhopal - MPPCB",18-02-2024 02:00:00,23.264759,77.381568,PM10,86,202,118
India,Madhya Pradesh,Bhopal,"Idgah Hills, Bhopal - MPPCB",18-02-2024 02:00:00,23.264759,77.381568,NO2,16,65,34
India,Madhya Pradesh,Bhopal,"Idgah Hills, Bhopal - MPPCB",18-02-2024 02:00:00,23.264759,77.381568,CO,29,87,54
India,Madhya Pradesh,Bhopal,"Paryavaran Parisar, Bhopal - MPPCB",18-02-2024 02:00:00,23.210494,77.425409,SO2,20,26,24
India,Madhya Pradesh,Bhopal,"T T Nagar, Bhopal - MPPCB",18-02-2024 02:00:00,23.233584,77.400574,NH3,3,6,5
India,Madhya Pradesh,Dewas,"Bhopal Chauraha, Dewas - MPPCB",18-02-2024 02:00:00,22.9682591,76.064118,PM10,86,138,110
India,Madhya Pradesh,Gwalior,"City Center, Gwalior - MPPCB",18-02-2024 02:00:00,26.203442,78.193251,PM10,67,274,160
India,Madhya Pradesh,Gwalior,"Deen Dayal Nagar, Gwalior - MPPCB",18-02-2024 02:00:00,26.259242,78.216432,PM2.5,20,356,235
India,Madhya Pradesh,Gwalior,"Deen Dayal Nagar, Gwalior - MPPCB",18-02-2024 02:00:00,26.259242,78.216432,PM10,36,436,210
India,Madhya Pradesh,Gwalior,"Maharaj Bada, Gwalior - MPPCB",18-02-2024 02:00:00,26.200388,78.147714,NO2,19,126,47
India,Madhya Pradesh,Indore,"Chhoti Gwaltoli, Indore - MPPCB",18-02-2024 02:00:00,22.4310,75.5213,CO,48,126,109
India,Madhya Pradesh,Indore,"Regional Park, Indore - IMC",18-02-2024 02:00:00,22.6780,75.8559,SO2,39,41,41
India,Madhya Pradesh,Indore,"Regional Park, Indore - IMC",18-02-2024 02:00:00,22.6780,75.8559,CO,15,48,36
India,Madhya Pradesh,Indore,"Regional Park, Indore - IMC",18-02-2024 02:00:00,22.6780,75.8559,OZONE,4,11,6
India,Madhya Pradesh,Jabalpur,"Govindh Bhavan Colony, Jabalpur - JMC",18-02-2024 02:00:00,23.163174,79.973061,NH3,3,3,3
India,Madhya Pradesh,Jabalpur,"Gupteshwar, Jabalpur - JMC",18-02-2024 02:00:00,23.142888,79.916147,PM10,40,140,78
India,Madhya Pradesh,Jabalpur,"Marhatal, Jabalpur - MPPCB",18-02-2024 02:00:00,23.168606,79.932247,PM2.5,67,324,147
India,Madhya Pradesh,Jabalpur,"Marhatal, Jabalpur - MPPCB",18-02-2024 02:00:00,23.168606,79.932247,NO2,24,111,50
India,Madhya Pradesh,Jabalpur,"Marhatal, Jabalpur - MPPCB",18-02-2024 02:00:00,23.168606,79.932247,NH3,4,5,5
India,Madhya Pradesh,Jabalpur,"Marhatal, Jabalpur - MPPCB",18-02-2024 02:00:00,23.168606,79.932247,CO,46,141,107
India,Madhya Pradesh,Jabalpur,"Suhagi, Jabalpur - JMC",18-02-2024 02:00:00,23.218135,79.957770,NO2,43,50,48
India,Madhya Pradesh,Jabalpur,"Suhagi, Jabalpur - JMC",18-02-2024 02:00:00,23.218135,79.957770,NH3,5,5,5
India,Madhya Pradesh,Jabalpur,"Suhagi, Jabalpur - JMC",18-02-2024 02:00:00,23.218135,79.957770,SO2,9,10,10
India,Madhya Pradesh,Katni,"Gole Bazar, Katni - MPPCB",18-02-2024 02:00:00,23.50016,80.23284,CO,23,23,23
India,Madhya Pradesh,Maihar,"Sahilara, Maihar - KJS Cements",18-02-2024 02:00:00,24.2613009,80.7231783,PM10,21,78,42
India,Madhya Pradesh,Maihar,"Sahilara, Maihar - KJS Cements",18-02-2024 02:00:00,24.2613009,80.7231783,SO2,13,16,14
India,Madhya Pradesh,Mandideep,"Sector-D Industrial Area, Mandideep - MPPCB",18-02-2024 02:00:00,23.108440,77.511428,PM2.5,76,393,230
India,Madhya Pradesh,Mandideep,"Sector-D Industrial Area, Mandideep - MPPCB",18-02-2024 02:00:00,23.108440,77.511428,CO,18,105,73
India,Madhya Pradesh,Sagar,"Civil Lines, Sagar - MPPCB",18-02-2024 02:00:00,23.838586,78.759431,PM10,75,152,99
India,Madhya Pradesh,Sagar,"Deen Dayal Nagar, Sagar - MPPCB",18-02-2024 02:00:00,23.8640158,78.80289321,PM2.5,13,51,31
India,Madhya Pradesh,Singrauli,"Suryakiran Bhawan NCL, Singrauli - MPPCB",18-02-2024 02:00:00,24.108970,82.645580,PM2.5,NA,NA,NA
India,Madhya Pradesh,Ujjain,"Mahakaleshwar Temple, Ujjain - MPPCB",18-02-2024 02:00:00,23.182719 ,75.768218 ,PM10,62,131,95
India,Madhya Pradesh,Ujjain,"Mahakaleshwar Temple, Ujjain - MPPCB",18-02-2024 02:00:00,23.182719 ,75.768218 ,CO,28,103,83
India,Maharashtra,Ahmednagar,"Tarakpur, Ahmednagar - MPCB",18-02-2024 02:00:00,19.10122,74.73339,PM10,48,268,158
India,Maharashtra,Akola,"Ramdaspeth, Akola - MPCB",18-02-2024 02:00:00,20.719516,77.000253,PM2.5,37,259,102
India,Maharashtra,Akola,"Ramdaspeth, Akola - MPCB",18-02-2024 02:00:00,20.719516,77.000253,SO2,3,14,8
India,Maharashtra,Akola,"Ramdaspeth, Akola - MPCB",18-02-2024 02:00:00,20.719516,77.000253,CO,30,138,104
India,Maharashtra,Amravati,"Shivneri Colony, Amravati - MPCB",18-02-2024 02:00:00,20.9402359,77.7895248,SO2,2,21,9
India,Maharashtra,Amravati,"Shri Shivaji Science College, Amaravati - MPCB",18-02-2024 02:00:00,20.939198,77.765701,PM10,57,499,161
India,Maharashtra,Aurangabad,"MIDC Chilkalthana, Aurangabad - MPCB",18-02-2024 02:00:00,19.875620,75.387310,NO2,6,127,38
India,Maharashtra,Aurangabad,"MIDC Chilkalthana, Aurangabad - MPCB",18-02-2024 02:00:00,19.875620,75.387310,NH3,3,4,4
India,Maharashtra,Aurangabad,"MIDC Chilkalthana, Aurangabad - MPCB",18-02-2024 02:00:00,19.875620,75.387310,CO,4,54,36
India,Maharashtra,Aurangabad,"MIDC Chilkalthana, Aurangabad - MPCB",18-02-2024 02:00:00,19.875620,75.387310,OZONE,19,43,39
India,Maharashtra,Aurangabad,"More Chowk Waluj, Aurangabad - MPCB",18-02-2024 02:00:00,19.8389439,75.244448,CO,10,113,78
India,Maharashtra,Aurangabad,"More Chowk Waluj, Aurangabad - MPCB",18-02-2024 02:00:00,19.8389439,75.244448,OZONE,1,4,3
India,Maharashtra,Badlapur,"Katrap, Badlapur - MPCB",18-02-2024 02:00:00,19.16485,73.23409,CO,19,105,66
India,Maharashtra,Belapur,"CBD Belapur, Belapur - MPCB",18-02-2024 02:00:00,19.0243902,73.0406721,NO2,38,108,61
India,Maharashtra,Bhiwandi,"Gokul Nagar, Bhiwandi - MPCB",18-02-2024 02:00:00,19.309073,73.057223,NO2,29,113,72
India,Maharashtra,Bhiwandi,"Gokul Nagar, Bhiwandi - MPCB",18-02-2024 02:00:00,19.309073,73.057223,NH3,1,2,2
India,Maharashtra,Chandrapur,"Chauhan Colony, Chandrapur - MPCB",18-02-2024 02:00:00,19.962900,79.298714,SO2,5,122,34
India,Maharashtra,Chandrapur,"MIDC Khutala, Chandrapur - MPCB",18-02-2024 02:00:00,19.9775302,79.2337086,PM10,NA,NA,NA
India,Maharashtra,Chandrapur,"MIDC Khutala, Chandrapur - MPCB",18-02-2024 02:00:00,19.9775302,79.2337086,NH3,NA,NA,NA
India,Maharashtra,Dhule,"Deopur, Dhule - MPCB",18-02-2024 02:00:00,20.918946,74.776388,NO2,10,77,29
India,Maharashtra,Dhule,"Deopur, Dhule - MPCB",18-02-2024 02:00:00,20.918946,74.776388,CO,14,106,49
India,Maharashtra,Jalna,"Old MIDC, Jalna - MPCB",18-02-2024 02:00:00,19.854616,75.905894,PM10,48,500,185
India,Maharashtra,Kalyan,"Khadakpada, Kalyan - MPCB",18-02-2024 02:00:00,19.25292,73.142019,PM2.5,41,169,79
India,Maharashtra,Kalyan,"Khadakpada, Kalyan - MPCB",18-02-2024 02:00:00,19.25292,73.142019,NH3,1,3,1
India,Maharashtra,Kalyan,"Khadakpada, Kalyan - MPCB",18-02-2024 02:00:00,19.25292,73.142019,SO2,33,88,46
India,Maharashtra,Kalyan,"Khadakpada, Kalyan - MPCB",18-02-2024 02:00:00,19.25292,73.142019,CO,22,57,35
India,Maharashtra,Kalyan,"Khadakpada, Kalyan - MPCB",18-02-2024 02:00:00,19.25292,73.142019,OZONE,7,43,14
India,Maharashtra,Kolhapur,"Shivaji University, Kolhapur - MPCB",18-02-2024 02:00:00,16.6870449,74.2505872,NH3,2,10,4
India,Maharashtra,Kolhapur,"Sinchan Bhavan, Kolhapur - MPCB",18-02-2024 02:00:00,16.7143745,74.2426398,PM2.5,53,356,138
India,Maharashtra,Kolhapur,"Sinchan Bhavan, Kolhapur - MPCB",18-02-2024 02:00:00,16.7143745,74.2426398,NH3,7,8,7
India,Maharashtra,Kolhapur,"Sinchan Bhavan, Kolhapur - MPCB",18-02-2024 02:00:00,16.7143745,74.2426398,CO,15,99,57
India,Maharashtra,Latur,"Sawe Wadi, Latur - MPCB",18-02-2024 02:00:00,18.39963,76.57452,NO2,13,110,38
India,Maharashtra,Latur,"Sawe Wadi, Latur - MPCB",18-02-2024 02:00:00,18.39963,76.57452,NH3,8,8,8
India,Maharashtra,Mahad,"Kamble Tarf Birwadi, Mahad - MPCB",18-02-2024 02:00:00,18.1023399,73.4783687,PM2.5,81,212,163
India,Maharashtra,Mahad,"Kamble Tarf Birwadi, Mahad - MPCB",18-02-2024 02:00:00,18.1023399,73.4783687,SO2,12,70,30
India,Maharashtra,Malegaon,"Mahesh Nagar, Malegaon - MPCB",18-02-2024 02:00:00,20.555712,74.529236,PM10,96,455,193
India,Maharashtra,Malegaon,"Mahesh Nagar, Malegaon - MPCB",18-02-2024 02:00:00,20.555712,74.529236,NO2,6,38,15
India,Maharashtra,Malegaon,"Mahesh Nagar, Malegaon - MPCB",18-02-2024 02:00:00,20.555712,74.529236,NH3,2,13,4
India,Maharashtra,Mira-Bhayandar,"Bhayandar West, Mira-Bhayandar - MPCB",18-02-2024 02:00:00,19.296481,72.840923,PM2.5,166,314,229
India,Maharashtra,Mumbai,"Bandra Kurla Complex, Mumbai - MPCB",18-02-2024 02:00:00,19.065931,72.862131,PM10,NA,NA,NA
India,Maharashtra,Mumbai,"Bandra Kurla Complex, Mumbai - MPCB",18-02-2024 02:00:00,19.065931,72.862131,CO,24,100,63
India,Maharashtra,Mumbai,"Borivali East, Mumbai - IITM",18-02-2024 02:00:00,19.23241,72.86895,NO2,111,193,136
India,Maharashtra,Mumbai,"Byculla, Mumbai - BMC",18-02-2024 02:00:00,18.9767,72.8380,SO2,1,14,4
India,Maharashtra,Mumbai,"Byculla, Mumbai - BMC",18-02-2024 02:00:00,18.9767,72.8380,OZONE,8,267,62
India,Maharashtra,Mumbai,"Chhatrapati Shivaji Intl. Airport (T2), Mumbai - MPCB",18-02-2024 02:00:00,19.10078,72.87462,PM10,84,166,127
India,Maharashtra,Mumbai,"Chhatrapati Shivaji Intl. Airport (T2), Mumbai - MPCB",18-02-2024 02:00:00,19.10078,72.87462,NH3,2,7,4
India,Maharashtra,Mumbai,"Chhatrapati Shivaji Intl. Airport (T2), Mumbai - MPCB",18-02-2024 02:00:00,19.10078,72.87462,CO,68,118,93
India,Maharashtra,Mumbai,"Colaba, Mumbai - MPCB",18-02-2024 02:00:00,18.910000,72.820000,NO2,22,39,29
India,Maharashtra,Mumbai,"Colaba, Mumbai - MPCB",18-02-2024 02:00:00,18.910000,72.820000,NH3,1,1,1
India,Maharashtra,Mumbai,"Ghatkopar, Mumbai - BMC",18-02-2024 02:00:00,19.083694,72.920967,SO2,NA,NA,NA
India,Maharashtra,Mumbai,"Kandivali East, Mumbai - MPCB",18-02-2024 02:00:00,19.205800,72.868200,PM2.5,22,94,51
India,Maharashtra,Mumbai,"Kandivali East, Mumbai - MPCB",18-02-2024 02:00:00,19.205800,72.868200,CO,78,113,101
India,Maharashtra,Mumbai,"Kherwadi_Bandra East, Mumbai - MPCB",18-02-2024 02:00:00,19.0632143,72.8456324,PM2.5,99,289,183
India,Maharashtra,Mumbai,"Kherwadi_Bandra East, Mumbai - MPCB",18-02-2024 02:00:00,19.0632143,72.8456324,PM10,105,195,148
India,Maharashtra,Mumbai,"Kherwadi_Bandra East, Mumbai - MPCB",18-02-2024 02:00:00,19.0632143,72.8456324,CO,16,113,73
India,Maharashtra,Mumbai,"Khindipada-Bhandup West, Mumbai - IITM",18-02-2024 02:00:00,19.1653323,72.922099,OZONE,4,54,22
India,Maharashtra,Mumbai,"Kurla, Mumbai - MPCB",18-02-2024 02:00:00,19.0863,72.8888,PM2.5,100,237,169
India,Maharashtra,Mumbai,"Kurla, Mumbai - MPCB",18-02-2024 02:00:00,19.0863,72.8888,PM10,100,146,123
India,Maharashtra,Mumbai,"Malad West, Mumbai - IITM",18-02-2024 02:00:00,19.19709,72.82204,NO2,1,78,27
India,Maharashtra,Mumbai,"Mazgaon, Mumbai - IITM",18-02-2024 02:00:00,18.96702,72.84214,PM2.5,151,304,217
India,Maharashtra,Mumbai,"Mazgaon, Mumbai - IITM",18-02-2024 02:00:00,18.96702,72.84214,SO2,10,56,23
India,Maharashtra,Mumbai,"Mindspace-Malad West, Mumbai - MPCB",18-02-2024 02:00:00,19.1878657,72.8304069,PM2.5,86,222,171
India,Maharashtra,Mumbai,"Mindspace-Malad West, Mumbai - MPCB",18-02-2024 02:00:00,19.1878657,72.8304069,PM10,102,169,131
India,Maharashtra,Mumbai,"Mulund West, Mumbai - MPCB",18-02-2024 02:00:00,19.1750,72.9419,NH3,9,11,10
India,Maharashtra,Mumbai,"Sewri, Mumbai - BMC",18-02-2024 02:00:00,19.000084,72.856730,PM2.5,96,280,167
India,Maharashtra,Mumbai,"Shivaji Nagar, Mumbai - BMC",18-02-2024 02:00:00,19.060498,72.923356,NO2,78,173,125
India,Maharashtra,Mumbai,"Shivaji Nagar, Mumbai - BMC",18-02-2024 02:00:00,19.060498,72.923356,OZONE,1,114,22
India,Maharashtra,Mumbai,"Siddharth Nagar-Worli, Mumbai - IITM",18-02-2024 02:00:00,19.000083,72.813993,PM2.5,220,353,300
India,Maharashtra,Mumbai,"Siddharth Nagar-Worli, Mumbai - IITM",18-02-2024 02:00:00,19.000083,72.813993,CO,22,105,36
India,Maharashtra,Mumbai,"Sion, Mumbai - MPCB",18-02-2024 02:00:00,19.047000,72.874600,NO2,36,131,85
India,Maharashtra,Mumbai,"Sion, Mumbai - MPCB",18-02-2024 02:00:00,19.047000,72.874600,CO,26,100,53
India,Maharashtra,Mumbai,"Sion, Mumbai - MPCB",18-02-2024 02:00:00,19.047000,72.874600,OZONE,13,35,17
India,Maharashtra,Mumbai,"Vasai West, Mumbai - MPCB",18-02-2024 02:00:00,19.383200,72.820400,NH3,4,4,4
India,Maharashtra,Mumbai,"Vasai West, Mumbai - MPCB",18-02-2024 02:00:00,19.383200,72.820400,CO,32,72,50
India,Maharashtra,Mumbai,"Vile Parle West, Mumbai - MPCB",18-02-2024 02:00:00,19.10861,72.83622,PM2.5,63,129,92
India,Maharashtra,Mumbai,"Vile Parle West, Mumbai - MPCB",18-02-2024 02:00:00,19.10861,72.83622,NO2,2,36,18
India,Maharashtra,Mumbai,"Worli, Mumbai - MPCB",18-02-2024 02:00:00,18.9936162,72.8128113,PM2.5,52,100,73
India,Maharashtra,Mumbai,"Worli, Mumbai - MPCB",18-02-2024 02:00:00,18.9936162,72.8128113,NH3,1,1,1
India,Maharashtra,Mumbai,"Worli, Mumbai - MPCB",18-02-2024 02:00:00,18.9936162,72.8128113,SO2,10,13,12
India,Maharashtra,Nagpur,"Ambazari, Nagpur - MPCB",18-02-2024 02:00:00,21.121801,79.04952,OZONE,2,129,18
India,Maharashtra,Nagpur,"Mahal, Nagpur - MPCB",18-02-2024 02:00:00,21.14472,79.107595,PM2.5,72,162,109
India,Maharashtra,Nagpur,"Mahal, Nagpur - MPCB",18-02-2024 02:00:00,21.14472,79.107595,NH3,5,13,8
India,Maharashtra,Nagpur,"Opp GPO Civil Lines, Nagpur - MPCB",18-02-2024 02:00:00,21.152875,79.0517531,PM2.5,NA,NA,NA
India,Maharashtra,Nagpur,"Ram Nagar, Nagpur - MPCB",18-02-2024 02:00:00,21.143383,79.048912,PM10,109,186,131
India,Maharashtra,Nagpur,"Ram Nagar, Nagpur - MPCB",18-02-2024 02:00:00,21.143383,79.048912,NO2,9,53,25
India,Maharashtra,Nagpur,"Ram Nagar, Nagpur - MPCB",18-02-2024 02:00:00,21.143383,79.048912,CO,14,48,39
India,Maharashtra,Nagpur,"Ram Nagar, Nagpur - MPCB",18-02-2024 02:00:00,21.143383,79.048912,OZONE,15,130,30
India,Maharashtra,Nanded,"Sneh Nagar, Nanded - MPCB",18-02-2024 02:00:00,19.173852,77.296291,SO2,6,16,9
India,Maharashtra,Nanded,"Sneh Nagar, Nanded - MPCB",18-02-2024 02:00:00,19.173852,77.296291,CO,28,48,37
India,Maharashtra,Nashik,"Hirawadi, Nashik - MPCB",18-02-2024 02:00:00,20.021503,73.813844,NH3,NA,NA,NA
India,Maharashtra,Nashik,"Hirawadi, Nashik - MPCB",18-02-2024 02:00:00,20.021503,73.813844,CO,13,60,42
India,Maharashtra,Nashik,"MIDC Ambad, Nashik - MPCB",18-02-2024 02:00:00,19.950220,73.731480,PM10,61,129,89
India,Maharashtra,Nashik,"Pandav Nagari, Nashik - MPCB",18-02-2024 02:00:00,19.9591346,73.7788008,SO2,4,49,13
India,Maharashtra,Navi Mumbai,"Mahape, Navi Mumbai - MPCB",18-02-2024 02:00:00,19.1135051,73.008978,NO2,37,39,38
India,Maharashtra,Navi Mumbai,"Sector-19A Nerul, Navi Mumbai - IITM",18-02-2024 02:00:00,19.044,73.0325,SO2,19,48,34
India,Maharashtra,Navi Mumbai,"Sector-19A Nerul, Navi Mumbai - IITM",18-02-2024 02:00:00,19.044,73.0325,CO,12,97,65
India,Maharashtra,Navi Mumbai,"Sector-2E Kalamboli, Navi Mumbai - MPCB",18-02-2024 02:00:00,19.02579,73.10297,PM10,83,170,123
India,Maharashtra,Navi Mumbai,"Tondare-Taloja, Navi Mumbai - MPCB",18-02-2024 02:00:00,19.0630,73.1209,NH3,5,13,9
India,Maharashtra,Parbhani,"Masoom Colony, Parbhani - MPCB",18-02-2024 02:00:00,19.265594,76.761463,NH3,2,3,3
India,Maharashtra,Parbhani,"Masoom Colony, Parbhani - MPCB",18-02-2024 02:00:00,19.265594,76.761463,SO2,2,59,24
India,Maharashtra,Pimpri-Chinchwad,"Gavalinagar, Pimpri Chinchwad - MPCB",18-02-2024 02:00:00,18.63673,73.82487,OZONE,1,218,60
India,Maharashtra,Pimpri-Chinchwad,"Park Street Wakad, Pimpri Chinchwad - MPCB",18-02-2024 02:00:00,18.59051,73.77946,NO2,66,127,100
India,Maharashtra,Pimpri-Chinchwad,"Park Street Wakad, Pimpri Chinchwad - MPCB",18-02-2024 02:00:00,18.59051,73.77946,OZONE,1,166,50
India,Maharashtra,Pimpri-Chinchwad,"Thergaon, Pimpri Chinchwad - MPCB",18-02-2024 02:00:00,18.616318,73.765797,PM2.5,NA,NA,NA
India,Maharashtra,Pimpri-Chinchwad,"Thergaon, Pimpri Chinchwad - MPCB",18-02-2024 02:00:00,18.616318,73.765797,SO2,NA,NA,NA
India,Maharashtra,Pune,"Alandi, Pune - IITM",18-02-2024 02:00:00,18.675076,73.892743,NO2,NA,NA,NA
India,Maharashtra,Pune,"Karve Road, Pune - MPCB",18-02-2024 02:00:00,18.5011743,73.8165527,SO2,NA,NA,NA
India,Maharashtra,Pune,"Katraj Dairy, Pune - MPCB",18-02-2024 02:00:00,18.454450,73.854155,PM2.5,24,341,100
India,Maharashtra,Pune,"Katraj Dairy, Pune - MPCB",18-02-2024 02:00:00,18.454450,73.854155,PM10,31,347,116
India,Maharashtra,Pune,"Katraj Dairy, Pune - MPCB",18-02-2024 02:00:00,18.454450,73.854155,NO2,32,62,48
India,Maharashtra,Pune,"Katraj Dairy, Pune - MPCB",18-02-2024 02:00:00,18.454450,73.854155,CO,39,106,80
India,Maharashtra,Pune,"Mhada Colony, Pune - IITM",18-02-2024 02:00:00,18.573040,73.927715,CO,22,101,70
India,Maharashtra,Pune,"Revenue Colony-Shivajinagar, Pune - IITM",18-02-2024 02:00:00,18.530085,73.849598,SO2,65,121,98
India,Maharashtra,Pune,"Transport Nagar-Nigdi, Pune - IITM",18-02-2024 02:00:00,18.664282,73.763966,PM10,49,175,102
India,Maharashtra,Sangli,"Vijay Nagar, Sangli - MPCB",18-02-2024 02:00:00, 16.5038,74.3623,CO,10,126,65
India,Maharashtra,Sangli,"Vijay Nagar, Sangli - MPCB",18-02-2024 02:00:00, 16.5038,74.3623,OZONE,NA,NA,NA
India,Maharashtra,Solapur,"Dnyaneshwar Nagar, Solapur - MPCB",18-02-2024 02:00:00,17.6336264,75.9132495,OZONE,12,92,39
India,Maharashtra,Solapur,"Ratandeep Housing Society, Solapur - MPCB",18-02-2024 02:00:00,17.65439,75.90649,NH3,1,9,3
India,Maharashtra,Solapur,"Solapur, Solapur - MPCB",18-02-2024 02:00:00,17.6599188,75.9063906,PM10,97,119,113
India,Maharashtra,Thane,"Upvan Fort, Thane - MPCB",18-02-2024 02:00:00,19.222279,72.957979,OZONE,38,106,69
India,Maharashtra,Virar,"Bolinj, Virar - MPCB",18-02-2024 02:00:00,19.4458210,72.7988231,NO2,17,105,52
India,Maharashtra,Virar,"Bolinj, Virar - MPCB",18-02-2024 02:00:00,19.4458210,72.7988231,NH3,6,10,7
India,Maharashtra,Virar,"Bolinj, Virar - MPCB",18-02-2024 02:00:00,19.4458210,72.7988231,CO,34,126,82
India,Manipur,Imphal,"DM College of Science, Imphal - Manipur PCB",18-02-2024 02:00:00,24.8207389,93.9423085,PM2.5,NA,NA,NA
India,Manipur,Imphal,"DM College of Science, Imphal - Manipur PCB",18-02-2024 02:00:00,24.8207389,93.9423085,PM10,16,52,35
India,Manipur,Imphal,"DM College of Science, Imphal - Manipur PCB",18-02-2024 02:00:00,24.8207389,93.9423085,NO2,7,8,8
India,Manipur,Imphal,"DM College of Science, Imphal - Manipur PCB",18-02-2024 02:00:00,24.8207389,93.9423085,CO,6,6,6
India,Manipur,Imphal,"Manipur University, Imphal - Manipur PCB",18-02-2024 02:00:00,24.7524239,93.9286218,PM2.5,52,183,96
India,Meghalaya,Shillong,"Lumpyngngad, Shillong - Meghalaya PCB",18-02-2024 02:00:00,25.5586,91.8985,OZONE,52,91,63
India,Mizoram,Aizawl,"Sikulpuikawn, Aizawl - Mizoram PCB",18-02-2024 02:00:00,23.7176342,92.7192841,NH3,NA,NA,NA
India,Nagaland,Kohima,"PWD Juction, Kohima - NPCB",18-02-2024 02:00:00,25.6635413,94.0989878,SO2,27,30,28
India,Odisha,Angul,"Hakimapada, Angul - OSPCB",18-02-2024 02:00:00,20.832874,85.104082,OZONE,21,233,58
India,Odisha,Balasore,"Kalidaspur, Balasore - OSPCB",18-02-2024 02:00:00,21.51161,86.89088,OZONE,10,105,61
India,Odisha,Barbil,"Forest Office, Barbil - OSPCB",18-02-2024 02:00:00,22.1166054,85.3945546,NO2,4,12,8
India,Odisha,Baripada,"Meher Colony, Baripada - OSPCB",18-02-2024 02:00:00,21.941841,86.728318,PM10,102,165,132
India,Odisha,Baripada,"Meher Colony, Baripada - OSPCB",18-02-2024 02:00:00,21.941841,86.728318,NO2,1,2,1
India,Odisha,Baripada,"Meher Colony, Baripada - OSPCB",18-02-2024 02:00:00,21.941841,86.728318,CO,28,55,38
India,Odisha,Bhubaneswar,"Lingraj Mandir, Bhubaneswar - OSPCB",18-02-2024 02:00:00,20.240790,85.836784,CO,35,92,60
India,Odisha,Bhubaneswar,"Lingraj Mandir, Bhubaneswar - OSPCB",18-02-2024 02:00:00,20.240790,85.836784,OZONE,32,111,48
India,Odisha,Bhubaneswar,"Patia, Bhubaneswar - OSPCB",18-02-2024 02:00:00,20.34652,85.81630,NH3,4,7,5
India,Odisha,Bhubaneswar,"Patia, Bhubaneswar - OSPCB",18-02-2024 02:00:00,20.34652,85.81630,CO,46,114,76
India,Odisha,Bhubaneswar,"Patia, Bhubaneswar - OSPCB",18-02-2024 02:00:00,20.34652,85.81630,OZONE,7,125,55
India,Odisha,Bileipada,"Tata Township, Bileipada - OSPCB",18-02-2024 02:00:00,22.06156703,85.47409613,NH3,NA,NA,NA
India,Odisha,Bileipada,"Tata Township, Bileipada - OSPCB",18-02-2024 02:00:00,22.06156703,85.47409613,CO,NA,NA,NA
India,Odisha,Bileipada,"Tata Township, Bileipada - OSPCB",18-02-2024 02:00:00,22.06156703,85.47409613,OZONE,NA,NA,NA
India,Odisha,Brajrajnagar,"GM Office, Brajrajnagar - OSPCB",18-02-2024 02:00:00,21.8004996,83.8396977,PM2.5,23,140,63
India,Odisha,Brajrajnagar,"GM Office, Brajrajnagar - OSPCB",18-02-2024 02:00:00,21.8004996,83.8396977,CO,50,104,84
India,Odisha,Byasanagar,"Ferro Chrome Colony, Byasanagar - OSPCB",18-02-2024 02:00:00,20.94185,86.11510,PM2.5,120,335,286
India,Odisha,Byasanagar,"Ferro Chrome Colony, Byasanagar - OSPCB",18-02-2024 02:00:00,20.94185,86.11510,NO2,14,35,22
India,Odisha,Cuttack,"CDA Area, Cuttack - OSPCB",18-02-2024 02:00:00,20.48891     ,85.84768     ,NO2,17,51,28
India,Odisha,Keonjhar,"Jagamohanpur, Keonjhar - OSPCB",18-02-2024 02:00:00,21.643900,85.599355,NH3,10,18,13
India,Odisha,Keonjhar,"Jagamohanpur, Keonjhar - OSPCB",18-02-2024 02:00:00,21.643900,85.599355,OZONE,1,26,2
India,Odisha,Rourkela,"Fertilizer Township, Rourkela - OSPCB",18-02-2024 02:00:00,22.18972222,84.86277778,SO2,11,14,13
India,Odisha,Suakati,"OMC Colony, Suakati - OSPCB",18-02-2024 02:00:00,21.606865,85.510538,SO2,5,42,21
India,Odisha,Talcher,"Talcher Coalfields,Talcher - OSPCB",18-02-2024 02:00:00,20.9360711,85.1707021,CO,6,120,57
India,Odisha,Tensa,"Barsua Iron Ore Mines, Tensa - OSPCB",18-02-2024 02:00:00,21.869985,85.167016,NO2,44,77,59
India,Odisha,Tensa,"Barsua Iron Ore Mines, Tensa - OSPCB",18-02-2024 02:00:00,21.869985,85.167016,SO2,3,22,10
India,Odisha,Tensa,"Barsua Iron Ore Mines, Tensa - OSPCB",18-02-2024 02:00:00,21.869985,85.167016,OZONE,6,34,18
India,Puducherry,Puducherry,"Jawahar Nagar, Puducherry - PPCC",18-02-2024 02:00:00,11.9309,79.8027,PM2.5,36,74,49
India,Punjab,Amritsar,"Golden Temple, Amritsar - PPCB",18-02-2024 02:00:00,31.620000,74.876512,PM2.5,60,227,117
India,Punjab,Bathinda,"Hardev Nagar, Bathinda - PPCB",18-02-2024 02:00:00,30.233011,74.907758,SO2,2,114,31
India,Punjab,Jalandhar,"Civil Line, Jalandhar - PPCB",18-02-2024 02:00:00,31.321907,75.578914,NO2,44,46,45
India,Punjab,Jalandhar,"Civil Line, Jalandhar - PPCB",18-02-2024 02:00:00,31.321907,75.578914,SO2,4,13,7
India,Punjab,Jalandhar,"Civil Line, Jalandhar - PPCB",18-02-2024 02:00:00,31.321907,75.578914,CO,36,104,80
India,Punjab,Khanna,"Kalal Majra, Khanna - PPCB",18-02-2024 02:00:00,30.736056 ,76.209694,PM10,95,180,132
India,Punjab,Khanna,"Kalal Majra, Khanna - PPCB",18-02-2024 02:00:00,30.736056 ,76.209694,OZONE,1,111,21
India,Punjab,Ludhiana,"Punjab Agricultural University, Ludhiana - PPCB",18-02-2024 02:00:00,30.9028,75.8086,CO,20,176,89
India,Punjab,Mandi Gobindgarh,"RIMT University, Mandi Gobindgarh - PPCB",18-02-2024 02:00:00,30.649961,76.331442,NO2,31,31,31
India,Punjab,Patiala,"Model Town, Patiala - PPCB",18-02-2024 02:00:00,30.349388,76.366642,PM10,82,112,95
India,Punjab,Patiala,"Model Town, Patiala - PPCB",18-02-2024 02:00:00,30.349388,76.366642,NH3,2,3,2
India,Punjab,Rupnagar,"Ratanpura, Rupnagar - Ambuja Cements",18-02-2024 02:00:00,31.0325454,76.5623046,PM2.5,63,248,123
India,Punjab,Rupnagar,"Ratanpura, Rupnagar - Ambuja Cements",18-02-2024 02:00:00,31.0325454,76.5623046,SO2,1,9,6
India,Rajasthan,Ajmer,"Civil Lines,  Ajmer - RSPCB",18-02-2024 02:00:00,26.470859,74.646594,SO2,12,18,15
India,Rajasthan,Alwar,"Moti Doongri, Alwar - RSPCB",18-02-2024 02:00:00,27.554793,76.611536,NH3,6,10,8
India,Rajasthan,Alwar,"Moti Doongri, Alwar - RSPCB",18-02-2024 02:00:00,27.554793,76.611536,SO2,14,94,38
India,Rajasthan,Banswara,"Rati Talai, Banswara - RSPCB",18-02-2024 02:00:00,23.555190,74.440010,NO2,6,112,36
India,Rajasthan,Baran,"Bamboliya, Baran - RSPCB",18-02-2024 02:00:00,25.106006,76.469948,PM10,72,157,108
India,Rajasthan,Baran,"Bamboliya, Baran - RSPCB",18-02-2024 02:00:00,25.106006,76.469948,OZONE,8,163,64
India,Rajasthan,Bharatpur,"Krishna Nagar, Bharatpur - RSPCB",18-02-2024 02:00:00,27.215415,77.50873,NO2,41,141,86
India,Rajasthan,Bharatpur,"Krishna Nagar, Bharatpur - RSPCB",18-02-2024 02:00:00,27.215415,77.50873,SO2,1,11,5
India,Rajasthan,Bikaner,"MM Ground, Bikaner - RSPCB",18-02-2024 02:00:00,28.018792,73.292658,CO,48,155,109
India,Rajasthan,Bundi,"New Colony, Bundi - RSPCB",18-02-2024 02:00:00,25.435774,75.644272,PM10,87,373,161
India,Rajasthan,Chittorgarh,"Shastri Nagar, Chittorgarh - RSPCB",18-02-2024 02:00:00,24.892047,74.623527,NH3,3,13,8
India,Rajasthan,Churu,"Subash Chowk, Churu - RSPCB",18-02-2024 02:00:00,28.296139,74.961696,SO2,5,45,14
India,Rajasthan,Dausa,"Khatikan Mohalla, Dausa - RSPCB",18-02-2024 02:00:00,26.895552,76.334753,CO,11,127,91
India,Rajasthan,Dholpur,"Raja Ganj, Dholpur - RSPCB",18-02-2024 02:00:00,26.699557,77.898881,NO2,NA,NA,NA
India,Rajasthan,Dholpur,"Raja Ganj, Dholpur - RSPCB",18-02-2024 02:00:00,26.699557,77.898881,SO2,NA,NA,NA
India,Rajasthan,Dholpur,"Raja Ganj, Dholpur - RSPCB",18-02-2024 02:00:00,26.699557,77.898881,CO,24,121,72
India,Rajasthan,Dungarpur,"Bhoiwada, Dungarpur - RSPCB",18-02-2024 02:00:00,23.837789,73.714926,CO,24,62,45
India,Rajasthan,Jaipur,"Adarsh Nagar, Jaipur - RSPCB",18-02-2024 02:00:00,26.902909,75.836858,PM2.5,46,230,123
India,Rajasthan,Jaipur,"Mansarovar Sector-12, Jaipur - RSPCB",18-02-2024 02:00:00,26.843698,75.766894,PM2.5,30,345,161
India,Rajasthan,Jaipur,"Mansarovar Sector-12, Jaipur - RSPCB",18-02-2024 02:00:00,26.843698,75.766894,PM10,33,279,129
India,Rajasthan,Jaipur,"Mansarovar Sector-12, Jaipur - RSPCB",18-02-2024 02:00:00,26.843698,75.766894,NH3,1,23,6
India,Rajasthan,Jaipur,"Police Commissionerate, Jaipur - RSPCB",18-02-2024 02:00:00,26.9164092,75.7994901,OZONE,11,95,20
India,Rajasthan,Jaipur,"RIICO Sitapura, Jaipur - RSPCB",18-02-2024 02:00:00,26.786682,75.827928,NO2,31,208,99
India,Rajasthan,Jaipur,"Sector-2 Murlipura, Jaipur - RSPCB",18-02-2024 02:00:00,26.960669,75.771817,CO,30,152,85
India,Rajasthan,Jaipur,"Shastri Nagar, Jaipur - RSPCB",18-02-2024 02:00:00,26.9502929,75.730943,PM10,78,176,115
India,Rajasthan,Jaisalmer,"Sadar Bazar, Jaisalmer - RSPCB",18-02-2024 02:00:00,26.912329,70.909168,PM10,57,304,132
India,Rajasthan,Jalore,"Mudtra Sili, Jalore - RSPCB",18-02-2024 02:00:00,25.344694,72.626208,PM2.5,32,298,149
India,Rajasthan,Jalore,"Mudtra Sili, Jalore - RSPCB",18-02-2024 02:00:00,25.344694,72.626208,NO2,15,141,69
India,Rajasthan,Jalore,"Mudtra Sili, Jalore - RSPCB",18-02-2024 02:00:00,25.344694,72.626208,CO,18,122,81
India,Rajasthan,Jhalawar,"Rajlaxmi Nagar, Jhalawar - RSPCB",18-02-2024 02:00:00,24.588397,76.172782,PM2.5,56,299,114
India,Rajasthan,Jhalawar,"Rajlaxmi Nagar, Jhalawar - RSPCB",18-02-2024 02:00:00,24.588397,76.172782,PM10,74,184,108
India,Rajasthan,Jhalawar,"Rajlaxmi Nagar, Jhalawar - RSPCB",18-02-2024 02:00:00,24.588397,76.172782,CO,27,67,49
India,Rajasthan,Jhunjhunu,"Indra Nagar, Jhunjhunu - RSPCB",18-02-2024 02:00:00,28.108988,75.386577,SO2,1,8,4
India,Rajasthan,Jhunjhunu,"Indra Nagar, Jhunjhunu - RSPCB",18-02-2024 02:00:00,28.108988,75.386577,OZONE,7,100,40
India,Rajasthan,Jodhpur,"Collectorate, Jodhpur - RSPCB",18-02-2024 02:00:00,26.268249,73.0193853,NO2,18,38,27
India,Rajasthan,Jodhpur,"Jhalamand, Jodhpur - RSPCB",18-02-2024 02:00:00,26.215415,73.070156,NH3,5,13,9
India,Rajasthan,Jodhpur,"Jhalamand, Jodhpur - RSPCB",18-02-2024 02:00:00,26.215415,73.070156,CO,18,102,70
India,Rajasthan,Jodhpur,"Samrat Ashok Udhyan, Jodhpur - RSPCB",18-02-2024 02:00:00,26.253384,72.976571,NO2,13,182,82
India,Rajasthan,Jodhpur,"Samrat Ashok Udhyan, Jodhpur - RSPCB",18-02-2024 02:00:00,26.253384,72.976571,NH3,3,8,6
India,Rajasthan,Jodhpur,"Samrat Ashok Udhyan, Jodhpur - RSPCB",18-02-2024 02:00:00,26.253384,72.976571,SO2,6,20,11
India,Rajasthan,Karauli,"Satyawati Vihar, Karauli - RSPCB",18-02-2024 02:00:00,26.506177,77.025989,NH3,2,16,6
India,Rajasthan,Kota,"Dhanmandi, Kota - RSPCB",18-02-2024 02:00:00,25.164090,75.858137,PM10,96,379,185
India,Rajasthan,Kota,"Dhanmandi, Kota - RSPCB",18-02-2024 02:00:00,25.164090,75.858137,NH3,5,19,8
India,Rajasthan,Kota,"Nayapura, Kota - RSPCB",18-02-2024 02:00:00,25.196024,75.855668,SO2,3,20,7
India,Rajasthan,Kota,"Shrinath Puram, Kota - RSPCB",18-02-2024 02:00:00,25.14389,75.821256,NO2,40,345,135
India,Rajasthan,Nagaur,"Karni Colony, Nagaur - RSPCB",18-02-2024 02:00:00,27.213494,73.734444,OZONE,12,78,27
India,Rajasthan,Pali,"Indira Colony Vistar, Pali - RSPCB",18-02-2024 02:00:00,25.771061, 73.340227,NO2,19,71,40
India,Rajasthan,Pratapgarh,"Pragati Nagar, Pratapgarh - RSPCB",18-02-2024 02:00:00,24.041198,74.780702,PM2.5,50,362,165
India,Rajasthan,Pratapgarh,"Pragati Nagar, Pratapgarh - RSPCB",18-02-2024 02:00:00,24.041198,74.780702,OZONE,1,98,25
India,Rajasthan,Rajsamand,"Dhoinda, Rajsamand - RSPCB",18-02-2024 02:00:00,25.036360,73.883502,PM2.5,10,290,135
India,Rajasthan,Rajsamand,"Dhoinda, Rajsamand - RSPCB",18-02-2024 02:00:00,25.036360,73.883502,NO2,10,41,26
India,Rajasthan,Rajsamand,"Dhoinda, Rajsamand - RSPCB",18-02-2024 02:00:00,25.036360,73.883502,NH3,2,7,5
India,Rajasthan,Rajsamand,"Dhoinda, Rajsamand - RSPCB",18-02-2024 02:00:00,25.036360,73.883502,OZONE,4,37,24
India,Rajasthan,Sikar,"Radhakishan Pura, Sikar - RSPCB",18-02-2024 02:00:00,27.608912,75.153302,NO2,6,83,30
India,Rajasthan,Sikar,"Radhakishan Pura, Sikar - RSPCB",18-02-2024 02:00:00,27.608912,75.153302,SO2,5,16,9
India,Rajasthan,Sikar,"Radhakishan Pura, Sikar - RSPCB",18-02-2024 02:00:00,27.608912,75.153302,CO,15,103,57
India,Rajasthan,Sirohi,"Vedhaynath Colony, Sirohi - RSPCB",18-02-2024 02:00:00,24.885261,72.857549,PM10,35,184,81
India,Rajasthan,Sirohi,"Vedhaynath Colony, Sirohi - RSPCB",18-02-2024 02:00:00,24.885261,72.857549,CO,26,109,68
India,Rajasthan,Sri Ganganagar,"Old City, Sri Ganganagar - RSPCB",18-02-2024 02:00:00,29.931624,73.864511,NO2,20,163,60
India,Rajasthan,Sri Ganganagar,"Old City, Sri Ganganagar - RSPCB",18-02-2024 02:00:00,29.931624,73.864511,CO,16,136,75
India,Rajasthan,Tonk,"Shastri Nagar, Tonk - RSPCB",18-02-2024 02:00:00,26.159933,75.780517,CO,17,84,44
India,Rajasthan,Udaipur,"Ashok Nagar, Udaipur - RSPCB",18-02-2024 02:00:00,24.5886166,73.6321397,CO,31,114,79
India,TamilNadu,Ariyalur,"Keelapalur, Ariyalur - TNPCB",18-02-2024 02:00:00,11.06825,79.07033,PM2.5,NA,NA,NA
India,TamilNadu,Chengalpattu,"Crescent University, Chengalpattu - TNPCB",18-02-2024 02:00:00,12.8777316,80.0834807,CO,28,32,31
India,TamilNadu,Chengalpattu,"Crescent University, Chengalpattu - TNPCB",18-02-2024 02:00:00,12.8777316,80.0834807,OZONE,6,6,6
India,TamilNadu,Chennai,"Arumbakkam, Chennai - TNPCB",18-02-2024 02:00:00,13.0664,80.2112 ,NH3,2,4,3
India,TamilNadu,Chennai,"Perungudi, Chennai - TNPCB",18-02-2024 02:00:00,12.9533,80.2357,PM2.5,28,118,56
India,TamilNadu,Chennai,"Perungudi, Chennai - TNPCB",18-02-2024 02:00:00,12.9533,80.2357,SO2,1,5,2
India,TamilNadu,Chennai,"Perungudi, Chennai - TNPCB",18-02-2024 02:00:00,12.9533,80.2357,OZONE,3,8,7
India,TamilNadu,Chennai,"Royapuram, Chennai - TNPCB",18-02-2024 02:00:00,13.1036,80.2909,PM2.5,27,148,54
India,TamilNadu,Chennai,"Royapuram, Chennai - TNPCB",18-02-2024 02:00:00,13.1036,80.2909,PM10,32,114,59
India,TamilNadu,Chennai,"Royapuram, Chennai - TNPCB",18-02-2024 02:00:00,13.1036,80.2909,NO2,10,40,18
India,TamilNadu,Chennai,"Royapuram, Chennai - TNPCB",18-02-2024 02:00:00,13.1036,80.2909,SO2,1,5,2
India,TamilNadu,Chennai,"Velachery Res. Area, Chennai - CPCB",18-02-2024 02:00:00,13.0052189,80.2398125,PM10,52,96,65
India,TamilNadu,Chennai,"Velachery Res. Area, Chennai - CPCB",18-02-2024 02:00:00,13.0052189,80.2398125,NO2,19,49,26
India,TamilNadu,Chennai,"Velachery Res. Area, Chennai - CPCB",18-02-2024 02:00:00,13.0052189,80.2398125,OZONE,7,27,15
India,TamilNadu,Cuddalore,"Kudikadu, Cuddalore - TNPCB",18-02-2024 02:00:00,11.6829898,79.7532099,PM2.5,42,79,61
India,TamilNadu,Cuddalore,"Kudikadu, Cuddalore - TNPCB",18-02-2024 02:00:00,11.6829898,79.7532099,NO2,15,22,20
India,TamilNadu,Cuddalore,"Kudikadu, Cuddalore - TNPCB",18-02-2024 02:00:00,11.6829898,79.7532099,NH3,4,5,5
India,TamilNadu,Cuddalore,"Semmandalam, Cuddalore - TNPCB",18-02-2024 02:00:00,11.7637683,79.7499835,PM2.5,25,97,52
India,TamilNadu,Cuddalore,"Semmandalam, Cuddalore - TNPCB",18-02-2024 02:00:00,11.7637683,79.7499835,OZONE,1,2,2
India,TamilNadu,Gummidipoondi,"Anthoni Pillai Nagar, Gummidipoondi - TNPCB",18-02-2024 02:00:00,13.4127,80.1081,PM10,57,413,102
India,TamilNadu,Gummidipoondi,"Anthoni Pillai Nagar, Gummidipoondi - TNPCB",18-02-2024 02:00:00,13.4127,80.1081,SO2,1,107,13
India,TamilNadu,Ooty,"Bombay Castel, Ooty - TNPCB",18-02-2024 02:00:00,11.4068288,76.7138973,NO2,NA,NA,NA
India,TamilNadu,Palkalaiperur,"Bharathidasan University, Palkalaiperur - TNPCB",18-02-2024 02:00:00,10.681158,78.741746,PM2.5,28,43,36
India,TamilNadu,Palkalaiperur,"Bharathidasan University, Palkalaiperur - TNPCB",18-02-2024 02:00:00,10.681158,78.741746,OZONE,1,1,1
India,TamilNadu,Ramanathapuram,"Chalai Bazaar, Ramanathapuram - TNPCB",18-02-2024 02:00:00,9.36399,78.831977,SO2,6,9,7
India,TamilNadu,Thoothukudi,"Meelavittan, Thoothukudi - TNPCB",18-02-2024 02:00:00,8.816428 ,78.099039,OZONE,8,75,38
India,TamilNadu,Tirupur,"Kumaran College, Tirupur - TNPCB",18-02-2024 02:00:00,11.0973603,77.3228673,NH3,NA,NA,NA
India,TamilNadu,Tirupur,"Kumaran College, Tirupur - TNPCB",18-02-2024 02:00:00,11.0973603,77.3228673,CO,23,100,53
India,TamilNadu,Tirupur,"Kumaran College, Tirupur - TNPCB",18-02-2024 02:00:00,11.0973603,77.3228673,OZONE,6,7,7
India,Telangana,Hyderabad,"Bollaram Industrial Area, Hyderabad - TSPCB",18-02-2024 02:00:00,17.540891,78.358528,PM10,27,111,70
India,Telangana,Hyderabad,"Bollaram Industrial Area, Hyderabad - TSPCB",18-02-2024 02:00:00,17.540891,78.358528,NO2,16,65,36
India,Telangana,Hyderabad,"Central University, Hyderabad - TSPCB",18-02-2024 02:00:00,17.460103,78.334361,PM2.5,3,41,21
India,Telangana,Hyderabad,"Central University, Hyderabad - TSPCB",18-02-2024 02:00:00,17.460103,78.334361,SO2,7,13,9
India,Telangana,Hyderabad,"ICRISAT Patancheru, Hyderabad - TSPCB",18-02-2024 02:00:00,17.518400,78.278777,NO2,15,17,16
India,Telangana,Hyderabad,"ICRISAT Patancheru, Hyderabad - TSPCB",18-02-2024 02:00:00,17.518400,78.278777,OZONE,6,55,30
India,Telangana,Hyderabad,"IITH Kandi, Hyderabad - TSPCB",18-02-2024 02:00:00,17.585705,78.126199,PM2.5,NA,NA,NA
India,Telangana,Hyderabad,"IITH Kandi, Hyderabad - TSPCB",18-02-2024 02:00:00,17.585705,78.126199,SO2,NA,NA,NA
India,Telangana,Hyderabad,"Kompally Municipal Office, Hyderabad - TSPCB",18-02-2024 02:00:00,17.544899,78.486949,NO2,NA,NA,NA
India,Telangana,Hyderabad,"Kompally Municipal Office, Hyderabad - TSPCB",18-02-2024 02:00:00,17.544899,78.486949,SO2,NA,NA,NA
India,Telangana,Hyderabad,"Kompally Municipal Office, Hyderabad - TSPCB",18-02-2024 02:00:00,17.544899,78.486949,CO,NA,NA,NA
India,Telangana,Hyderabad,"New Malakpet, Hyderabad - TSPCB",18-02-2024 02:00:00,17.37206,78.50864,PM2.5,18,33,23
India,Telangana,Hyderabad,"New Malakpet, Hyderabad - TSPCB",18-02-2024 02:00:00,17.37206,78.50864,OZONE,1,30,8
India,Telangana,Hyderabad,"Ramachandrapuram, Hyderabad - TSPCB",18-02-2024 02:00:00,17.528544,78.286195,CO,6,38,24
India,Telangana,Hyderabad,"Sanathnagar, Hyderabad - TSPCB",18-02-2024 02:00:00,17.4559458,78.4332152,CO,32,53,43
India,Telangana,Hyderabad,"Sanathnagar, Hyderabad - TSPCB",18-02-2024 02:00:00,17.4559458,78.4332152,OZONE,14,161,48
India,Telangana,Hyderabad,"Zoo Park, Hyderabad - TSPCB",18-02-2024 02:00:00,17.349694,78.451437,PM2.5,20,89,55
India,Tripura,Agartala,"Bardowali, Agartala - Tripura SPCB",18-02-2024 02:00:00,23.8175497,91.2726974,PM2.5,130,330,284
India,Tripura,Agartala,"Bardowali, Agartala - Tripura SPCB",18-02-2024 02:00:00,23.8175497,91.2726974,CO,36,107,89
India,Uttar_Pradesh,Agra,"Manoharpur, Agra - UPPCB",18-02-2024 02:00:00,27.23711,78.01936,OZONE,1,28,9
India,Uttar_Pradesh,Agra,"Rohta, Agra - UPPCB",18-02-2024 02:00:00,27.106972,78.000111,OZONE,21,22,22
India,Uttar_Pradesh,Agra,"Sanjay Palace, Agra - UPPCB",18-02-2024 02:00:00,27.19865833,78.00598056,NO2,55,113,83
India,Uttar_Pradesh,Agra,"Sanjay Palace, Agra - UPPCB",18-02-2024 02:00:00,27.19865833,78.00598056,CO,7,161,128
India,Uttar_Pradesh,Agra,"Sector-3B Avas Vikas Colony, Agra - UPPCB",18-02-2024 02:00:00,27.19412,77.96237,NH3,3,7,5
India,Uttar_Pradesh,Agra,"Sector-3B Avas Vikas Colony, Agra - UPPCB",18-02-2024 02:00:00,27.19412,77.96237,OZONE,NA,NA,NA
India,Uttar_Pradesh,Agra,"Shahjahan Garden, Agra - UPPCB",18-02-2024 02:00:00,27.169338,78.03582,PM2.5,19,234,95
India,Uttar_Pradesh,Agra,"Shahjahan Garden, Agra - UPPCB",18-02-2024 02:00:00,27.169338,78.03582,NO2,29,29,29
India,Uttar_Pradesh,Agra,"Shastripuram, Agra - UPPCB",18-02-2024 02:00:00,27.19862,77.92066,PM2.5,36,214,93
India,Uttar_Pradesh,Agra,"Shastripuram, Agra - UPPCB",18-02-2024 02:00:00,27.19862,77.92066,NH3,NA,NA,NA
India,Uttar_Pradesh,Bareilly,"Civil Lines, Bareilly - UPPCB",18-02-2024 02:00:00,28.359581,79.414455,CO,12,38,28
India,Uttar_Pradesh,Bareilly,"Rajendra Nagar, Bareilly - UPPCB",18-02-2024 02:00:00,28.38910936,79.42963708,PM2.5,27,70,48
India,Uttar_Pradesh,Bareilly,"Rajendra Nagar, Bareilly - UPPCB",18-02-2024 02:00:00,28.38910936,79.42963708,PM10,46,110,76
India,Uttar_Pradesh,Bareilly,"Rajendra Nagar, Bareilly - UPPCB",18-02-2024 02:00:00,28.38910936,79.42963708,CO,8,37,25
India,Uttar_Pradesh,Bareilly,"Rajendra Nagar, Bareilly - UPPCB",18-02-2024 02:00:00,28.38910936,79.42963708,OZONE,10,26,14
India,Uttar_Pradesh,Firozabad,"Vibhab Nagar, Firozabad - UPPCB",18-02-2024 02:00:00,27.1594,78.3953,NO2,14,14,14
India,Uttar_Pradesh,Firozabad,"Vibhab Nagar, Firozabad - UPPCB",18-02-2024 02:00:00,27.1594,78.3953,SO2,12,103,30
India,Uttar_Pradesh,Firozabad,"Vibhab Nagar, Firozabad - UPPCB",18-02-2024 02:00:00,27.1594,78.3953,OZONE,20,229,26
India,Uttar_Pradesh,Ghaziabad,"Indirapuram, Ghaziabad - UPPCB",18-02-2024 02:00:00,28.646233,77.358075,NO2,42,94,65
India,Uttar_Pradesh,Ghaziabad,"Indirapuram, Ghaziabad - UPPCB",18-02-2024 02:00:00,28.646233,77.358075,SO2,11,17,13
India,Uttar_Pradesh,Ghaziabad,"Indirapuram, Ghaziabad - UPPCB",18-02-2024 02:00:00,28.646233,77.358075,OZONE,5,26,10
India,Uttar_Pradesh,Ghaziabad,"Sanjay Nagar, Ghaziabad - UPPCB",18-02-2024 02:00:00,28.685382,77.453839,NO2,43,120,79
India,Uttar_Pradesh,Ghaziabad,"Sanjay Nagar, Ghaziabad - UPPCB",18-02-2024 02:00:00,28.685382,77.453839,SO2,13,35,23
India,Uttar_Pradesh,Ghaziabad,"Sanjay Nagar, Ghaziabad - UPPCB",18-02-2024 02:00:00,28.685382,77.453839,OZONE,4,144,15
India,Uttar_Pradesh,Ghaziabad,"Vasundhara, Ghaziabad - UPPCB",18-02-2024 02:00:00,28.6603346,77.3572563,PM10,80,342,154
India,Uttar_Pradesh,Ghaziabad,"Vasundhara, Ghaziabad - UPPCB",18-02-2024 02:00:00,28.6603346,77.3572563,NH3,7,18,11
India,Uttar_Pradesh,Ghaziabad,"Vasundhara, Ghaziabad - UPPCB",18-02-2024 02:00:00,28.6603346,77.3572563,SO2,4,49,21
India,Uttar_Pradesh,Gorakhpur,"Madan Mohan Malaviya University of Technology, Gorakhpur - UPPCB",18-02-2024 02:00:00,26.730136,83.433859,PM2.5,42,188,126
India,Uttar_Pradesh,Greater Noida,"Knowledge Park - III, Greater Noida - UPPCB",18-02-2024 02:00:00,28.47272,77.482000,PM10,136,500,271
India,Uttar_Pradesh,Greater Noida,"Knowledge Park - III, Greater Noida - UPPCB",18-02-2024 02:00:00,28.47272,77.482000,NH3,1,2,1
India,Uttar_Pradesh,Greater Noida,"Knowledge Park - V, Greater Noida - UPPCB",18-02-2024 02:00:00,28.557054,77.453663,NH3,3,6,4
India,Uttar_Pradesh,Greater Noida,"Knowledge Park - V, Greater Noida - UPPCB",18-02-2024 02:00:00,28.557054,77.453663,CO,36,160,124
India,Uttar_Pradesh,Hapur,"Anand Vihar, Hapur - UPPCB",18-02-2024 02:00:00,28.725645,77.749675,NH3,5,11,6
India,Uttar_Pradesh,Jhansi,"Shivaji Nagar, Jhansi - UPPCB",18-02-2024 02:00:00,25.4547,78.6039,PM10,36,177,106
India,Uttar_Pradesh,Kanpur,"NSI Kalyanpur, Kanpur - UPPCB",18-02-2024 02:00:00,26.509954,80.249612,NO2,13,20,13
India,Uttar_Pradesh,Kanpur,"Nehru Nagar, Kanpur - UPPCB",18-02-2024 02:00:00,26.4703136,80.3229863,CO,4,121,86
India,Uttar_Pradesh,Khurja,"Kalindi Kunj, Khurja - UPPCB",18-02-2024 02:00:00,28.2348927,77.8683002,SO2,29,39,36
India,Uttar_Pradesh,Lucknow,"B R Ambedkar University, Lucknow - UPPCB",18-02-2024 02:00:00,26.766433,80.927299,NH3,6,8,7
India,Uttar_Pradesh,Lucknow,"Kendriya Vidyalaya, Lucknow - CPCB",18-02-2024 02:00:00,26.906111,80.948222,PM10,92,227,150
India,Uttar_Pradesh,Lucknow,"Kendriya Vidyalaya, Lucknow - CPCB",18-02-2024 02:00:00,26.906111,80.948222,NO2,16,107,48
India,Uttar_Pradesh,Lucknow,"Lalbagh, Lucknow - CPCB",18-02-2024 02:00:00,26.8458805,80.9365541,CO,24,124,96
India,Uttar_Pradesh,Lucknow,"Talkatora District Industries Center, Lucknow - CPCB",18-02-2024 02:00:00,26.83399722,80.8917361,NO2,6,41,20
India,Uttar_Pradesh,Lucknow,"Talkatora District Industries Center, Lucknow - CPCB",18-02-2024 02:00:00,26.83399722,80.8917361,NH3,1,24,6
India,Uttar_Pradesh,Meerut,"Jai Bhim Nagar, Meerut - UPPCB",18-02-2024 02:00:00,28.9535882,77.7622941,NH3,7,11,9
India,Uttar_Pradesh,Meerut,"Pallavpuram Phase 2, Meerut - UPPCB",18-02-2024 02:00:00,29.063510,77.709723,PM2.5,62,254,157
India,Uttar_Pradesh,Moradabad,"Buddhi Vihar, Moradabad - UPPCB",18-02-2024 02:00:00,28.83526,78.74460,PM2.5,31,90,60
India,Uttar_Pradesh,Moradabad,"Transport Nagar, Moradabad - UPPCB",18-02-2024 02:00:00,28.802625,78.753728,NO2,15,44,29
India,Uttar_Pradesh,Muzaffarnagar,"New Mandi, Muzaffarnagar - UPPCB",18-02-2024 02:00:00,29.4723508,77.7194031,NH3,3,5,4
India,Uttar_Pradesh,Noida,"Sector - 125, Noida - UPPCB",18-02-2024 02:00:00,28.5447608,77.3231257,NH3,1,16,9
India,Uttar_Pradesh,Noida,"Sector - 62, Noida - IMD",18-02-2024 02:00:00,28.6245479,77.3577104,CO,19,94,57
India,Uttar_Pradesh,Noida,"Sector-1, Noida - UPPCB",18-02-2024 02:00:00,28.5898,77.3101,PM2.5,76,342,248
India,Uttar_Pradesh,Noida,"Sector-1, Noida - UPPCB",18-02-2024 02:00:00,28.5898,77.3101,CO,21,128,102
India,Uttar_Pradesh,Noida,"Sector-116, Noida - UPPCB",18-02-2024 02:00:00,28.569230,77.393848,SO2,11,23,16
India,Uttar_Pradesh,Noida,"Sector-116, Noida - UPPCB",18-02-2024 02:00:00,28.569230,77.393848,CO,20,126,105
India,Uttar_Pradesh,Prayagraj,"Jhunsi, Prayagraj - UPPCB",18-02-2024 02:00:00,25.425602,81.917152,NO2,6,6,6
India,Uttar_Pradesh,Prayagraj,"Jhunsi, Prayagraj - UPPCB",18-02-2024 02:00:00,25.425602,81.917152,OZONE,1,35,8
India,Uttar_Pradesh,Prayagraj,"Nagar Nigam, Prayagraj - UPPCB",18-02-2024 02:00:00,25.44919916 ,81.82735986 ,NH3,7,18,11
India,Uttar_Pradesh,Prayagraj,"Nagar Nigam, Prayagraj - UPPCB",18-02-2024 02:00:00,25.44919916 ,81.82735986 ,SO2,21,104,54
India,Uttar_Pradesh,Varanasi,"Ardhali Bazar, Varanasi - UPPCB",18-02-2024 02:00:00,25.3505986,82.9083074,OZONE,17,33,25
India,Uttar_Pradesh,Varanasi,"Bhelupur, Varanasi - UPPCB",18-02-2024 02:00:00,25.301778,82.996789,OZONE,1,40,18
India,Uttar_Pradesh,Varanasi,"Maldahiya, Varanasi - UPPCB",18-02-2024 02:00:00,25.32393,82.99687,SO2,63,77,70
India,Uttar_Pradesh,Vrindavan,"Omex Eternity, Vrindavan - UPPCB",18-02-2024 02:00:00,27.5714090,77.6557570,PM2.5,22,129,54
India,Uttarakhand,Kashipur,"Govt. Girls Inter College, Kashipur - UKPCB",18-02-2024 02:00:00,29.2124114,78.9611753,NH3,4,9,7
India,Uttarakhand,Kashipur,"Govt. Girls Inter College, Kashipur - UKPCB",18-02-2024 02:00:00,29.2124114,78.9611753,OZONE,4,49,18
India,Uttarakhand,Rishikesh,"Shivaji Nagar, Rishikesh - UKPCB",18-02-2024 02:00:00,30.075911,78.2859547,PM10,59,122,92
India,Uttarakhand,Rishikesh,"Shivaji Nagar, Rishikesh - UKPCB",18-02-2024 02:00:00,30.075911,78.2859547,SO2,4,8,5
India,West_Bengal,Asansol,"Asansol Court Area, Asansol - WBPCB",18-02-2024 02:00:00,23.685297,86.945968,NO2,26,99,50
India,West_Bengal,Barrackpore,"SVSPA Campus, Barrackpore - WBPCB",18-02-2024 02:00:00,22.7605581,88.3617589,PM2.5,63,312,201
India,West_Bengal,Barrackpore,"SVSPA Campus, Barrackpore - WBPCB",18-02-2024 02:00:00,22.7605581,88.3617589,PM10,102,202,147
India,West_Bengal,Barrackpore,"SVSPA Campus, Barrackpore - WBPCB",18-02-2024 02:00:00,22.7605581,88.3617589,OZONE,8,117,23
India,West_Bengal,Haldia,"Priyambada Housing Estate, Haldia - WBPCB",18-02-2024 02:00:00,22.06047,88.109737,SO2,5,22,13
India,West_Bengal,Haldia,"Priyambada Housing Estate, Haldia - WBPCB",18-02-2024 02:00:00,22.06047,88.109737,CO,28,104,37
India,West_Bengal,Howrah,"Belur Math, Howrah - WBPCB",18-02-2024 02:00:00,22.629801,88.352017,PM2.5,78,316,183
India,West_Bengal,Howrah,"Belur Math, Howrah - WBPCB",18-02-2024 02:00:00,22.629801,88.352017,OZONE,7,68,14
India,West_Bengal,Howrah,"Ghusuri, Howrah - WBPCB",18-02-2024 02:00:00,22.611968,88.347422,PM2.5,130,374,257
India,West_Bengal,Howrah,"Ghusuri, Howrah - WBPCB",18-02-2024 02:00:00,22.611968,88.347422,NO2,24,101,44
India,West_Bengal,Howrah,"Padmapukur, Howrah - WBPCB",18-02-2024 02:00:00,22.5687319,88.2797276,OZONE,4,58,11
India,West_Bengal,Kolkata,"Bidhannagar, Kolkata - WBPCB",18-02-2024 02:00:00,22.58157048,88.41002457,PM10,99,188,151
India,West_Bengal,Kolkata,"Bidhannagar, Kolkata - WBPCB",18-02-2024 02:00:00,22.58157048,88.41002457,CO,31,89,50
India,West_Bengal,Kolkata,"Fort William, Kolkata - WBPCB",18-02-2024 02:00:00,22.556640,88.342674,NO2,24,156,76
India,West_Bengal,Kolkata,"Fort William, Kolkata - WBPCB",18-02-2024 02:00:00,22.556640,88.342674,SO2,7,29,18
India,West_Bengal,Kolkata,"Jadavpur, Kolkata - WBPCB",18-02-2024 02:00:00,22.49929,88.36917,PM2.5,101,316,224
India,West_Bengal,Kolkata,"Jadavpur, Kolkata - WBPCB",18-02-2024 02:00:00,22.49929,88.36917,PM10,95,192,149
India,West_Bengal,Kolkata,"Jadavpur, Kolkata - WBPCB",18-02-2024 02:00:00,22.49929,88.36917,SO2,5,10,7
India,West_Bengal,Kolkata,"Jadavpur, Kolkata - WBPCB",18-02-2024 02:00:00,22.49929,88.36917,CO,3,44,19
India,West_Bengal,Kolkata,"Victoria, Kolkata - WBPCB",18-02-2024 02:00:00,22.5448082,88.3403691,NO2,6,42,25
India,West_Bengal,Kolkata,"Victoria, Kolkata - WBPCB",18-02-2024 02:00:00,22.5448082,88.3403691,SO2,6,17,12
India,West_Bengal,Kolkata,"Victoria, Kolkata - WBPCB",18-02-2024 02:00:00,22.5448082,88.3403691,CO,34,116,89
India,West_Bengal,Kolkata,"Victoria, Kolkata - WBPCB",18-02-2024 02:00:00,22.5448082,88.3403691,OZONE,5,104,13
India,West_Bengal,Siliguri,"Ward-32 Bapupara, Siliguri - WBPCB",18-02-2024 02:00:00,26.6879226,88.4152495,PM10,129,206,155
India,Andhra_Pradesh,Amaravati,"Secretariat, Amaravati - APPCB",18-02-2024 02:00:00,16.5150833,80.5181667,NH3,2,4,4
India,Andhra_Pradesh,Amaravati,"Secretariat, Amaravati - APPCB",18-02-2024 02:00:00,16.5150833,80.5181667,CO,4,53,38
India,Andhra_Pradesh,Chittoor,"Gangineni Cheruvu, Chittoor - APPCB",18-02-2024 02:00:00,13.204880,79.097889,NO2,6,33,14
India,Andhra_Pradesh,Rajamahendravaram,"Anand Kala Kshetram, Rajamahendravaram - APPCB",18-02-2024 02:00:00,16.9872867,81.7363176,PM2.5,48,128,80
India,Andhra_Pradesh,Vijayawada,"HB Colony, Vijayawada - APPCB",18-02-2024 02:00:00,16.536107,80.594233,PM10,38,186,83
India,Andhra_Pradesh,Vijayawada,"Kanuru, Vijayawada - APPCB",18-02-2024 02:00:00,16.486692,80.699436,CO,42,91,52
India,Andhra_Pradesh,Vijayawada,"Rajiv Gandhi Park, Vijayawada - APPCB",18-02-2024 02:00:00,16.509717,80.612222,NO2,2,75,31
India,Andhra_Pradesh,Visakhapatnam,"GVM Corporation, Visakhapatnam - APPCB",18-02-2024 02:00:00,17.72,83.3,PM2.5,45,219,97
India,Andhra_Pradesh,Visakhapatnam,"GVM Corporation, Visakhapatnam - APPCB",18-02-2024 02:00:00,17.72,83.3,PM10,68,325,134
India,Arunachal_Pradesh,Naharlagun,"Naharlagun, Naharlagun - APSPCB",18-02-2024 02:00:00,27.103358,93.679645,PM2.5,30,220,83
India,Arunachal_Pradesh,Naharlagun,"Naharlagun, Naharlagun - APSPCB",18-02-2024 02:00:00,27.103358,93.679645,PM10,31,137,69
India,Assam,Guwahati,"IITG, Guwahati - PCBA",18-02-2024 02:00:00,26.2028636,91.70046436,NH3,5,5,5
India,Assam,Guwahati,"IITG, Guwahati - PCBA",18-02-2024 02:00:00,26.2028636,91.70046436,CO,11,28,19
India,Assam,Guwahati,"Pan Bazaar, Guwahati - PCBA",18-02-2024 02:00:00,26.187500,91.744194,SO2,61,85,71
India,Assam,Guwahati,"Pan Bazaar, Guwahati - PCBA",18-02-2024 02:00:00,26.187500,91.744194,OZONE,17,18,18
India,Assam,Nalbari,"Bata Chowk, Nalbari - PCBA",18-02-2024 02:00:00,26.446912,91.439057,NH3,1,4,1
India,Assam,Sivasagar,"Girls College, Sivasagar - PCBA",18-02-2024 02:00:00,26.987634,94.636574,PM2.5,30,53,36
India,Bihar,Araria,"Kharahiya Basti, Araria - BSPCB",18-02-2024 02:00:00,26.146529,87.454184,CO,28,30,28
India,Bihar,Arrah,"New DM Office, Arrah - BSPCB",18-02-2024 02:00:00,25.5626095,84.663264,CO,4,18,10
India,Bihar,Aurangabad,"Gurdeo Nagar, Aurangabad - BSPCB",18-02-2024 02:00:00,24.75746,84.366208,NO2,2,3,2
India,Bihar,Aurangabad,"Gurdeo Nagar, Aurangabad - BSPCB",18-02-2024 02:00:00,24.75746,84.366208,SO2,1,15,10
India,Bihar,Bettiah,"Kamalnath Nagar, Bettiah - BSPCB",18-02-2024 02:00:00,26.80365,84.51954,CO,64,70,67
India,Bihar,Bhagalpur,"Mayaganj, Bhagalpur - BSPCB",18-02-2024 02:00:00,25.265194,87.012947,NH3,7,9,8
India,Bihar,Bhagalpur,"Mayaganj, Bhagalpur - BSPCB",18-02-2024 02:00:00,25.265194,87.012947,OZONE,15,100,39
India,Bihar,Bihar Sharif,"D M Colony, Bihar Sharif - BSPCB",18-02-2024 02:00:00,25.204762,85.514960,PM2.5,23,213,73
India,Bihar,Bihar Sharif,"D M Colony, Bihar Sharif - BSPCB",18-02-2024 02:00:00,25.204762,85.514960,NH3,2,2,2
India,Bihar,Bihar Sharif,"D M Colony, Bihar Sharif - BSPCB",18-02-2024 02:00:00,25.204762,85.514960,SO2,3,12,6
India,Bihar,Bihar Sharif,"D M Colony, Bihar Sharif - BSPCB",18-02-2024 02:00:00,25.204762,85.514960,CO,14,50,28
India,Bihar,Buxar,"Charitra Van, Buxar - BSPCB (Formerly known as Central Jail)",18-02-2024 02:00:00,25.567520,83.966379,PM10,136,415,206
India,Bihar,Chhapra,"Darshan Nagar, Chhapra - BSPCB",18-02-2024 02:00:00,25.7808257,84.7446768,PM10,114,348,167
India,Bihar,Chhapra,"Darshan Nagar, Chhapra - BSPCB",18-02-2024 02:00:00,25.7808257,84.7446768,CO,22,49,38
India,Bihar,Chhapra,"Darshan Nagar, Chhapra - BSPCB",18-02-2024 02:00:00,25.7808257,84.7446768,OZONE,2,33,6
India,Bihar,Gaya,"Collectorate, Gaya - BSPCB",18-02-2024 02:00:00,24.7955,84.9994,OZONE,52,82,67
India,Bihar,Gaya,"Kareemganj, Gaya - BSPCB",18-02-2024 02:00:00,24.792403,84.992416,PM2.5,22,315,119
India,Bihar,Gaya,"Kareemganj, Gaya - BSPCB",18-02-2024 02:00:00,24.792403,84.992416,PM10,61,398,158
India,Bihar,Hajipur,"Industrial Area, Hajipur - BSPCB",18-02-2024 02:00:00,25.697189,85.245900,CO,14,49,39
India,Bihar,Katihar,"Mirchaibari, Katihar - BSPCB",18-02-2024 02:00:00,25.560083,87.553265,CO,NA,NA,NA
India,Bihar,Kishanganj,"SDM Office_Khagra, Kishanganj - BSPCB",18-02-2024 02:00:00,26.0881305,87.93840336,PM2.5,10,277,106
India,Bihar,Kishanganj,"SDM Office_Khagra, Kishanganj - BSPCB",18-02-2024 02:00:00,26.0881305,87.93840336,NO2,36,44,40
India,Bihar,Kishanganj,"SDM Office_Khagra, Kishanganj - BSPCB",18-02-2024 02:00:00,26.0881305,87.93840336,NH3,11,12,12
India,Bihar,Kishanganj,"SDM Office_Khagra, Kishanganj - BSPCB",18-02-2024 02:00:00,26.0881305,87.93840336,OZONE,17,27,17
India,Bihar,Manguraha,"Forest Rest House, Manguraha - BSPCB",18-02-2024 02:00:00,27.308328,84.531742,PM2.5,NA,NA,NA
India,Bihar,Motihari,"Gandak Colony, Motihari - BSPCB",18-02-2024 02:00:00,26.63086,84.90051,PM2.5,68,247,140
India,Bihar,Motihari,"Gandak Colony, Motihari - BSPCB",18-02-2024 02:00:00,26.63086,84.90051,SO2,1,5,2
India,Bihar,Munger,"Town Hall, Munger - BSPCB",18-02-2024 02:00:00,25.376776,86.471523,SO2,29,49,40
India,Bihar,Munger,"Town Hall, Munger - BSPCB",18-02-2024 02:00:00,25.376776,86.471523,OZONE,10,85,11
India,Bihar,Muzaffarpur,"Buddha Colony, Muzaffarpur - BSPCB",18-02-2024 02:00:00,26.11442,85.39813,SO2,1,3,1
India,Bihar,Muzaffarpur,"MIT-Daudpur Kothi, Muzaffarpur - BSPCB",18-02-2024 02:00:00,26.1403345,85.3650192,SO2,7,11,9
India,Bihar,Muzaffarpur,"Muzaffarpur Collectorate, Muzaffarpur - BSPCB",18-02-2024 02:00:00,26.1209,85.3647,CO,12,44,20
India,Bihar,Patna,"Govt. High School Shikarpur, Patna - BSPCB",18-02-2024 02:00:00,25.592539,85.227158,NO2,13,34,27
India,Bihar,Patna,"Govt. High School Shikarpur, Patna - BSPCB",18-02-2024 02:00:00,25.592539,85.227158,OZONE,8,52,15
India,Bihar,Patna,"IGSC Planetarium Complex, Patna - BSPCB",18-02-2024 02:00:00,25.610369,85.132568,PM2.5,97,301,184
India,Bihar,Patna,"IGSC Planetarium Complex, Patna - BSPCB",18-02-2024 02:00:00,25.610369,85.132568,CO,16,18,16
India,Bihar,Patna,"Rajbansi Nagar, Patna - BSPCB",18-02-2024 02:00:00,25.599486,85.113666,NH3,2,3,3
India,Bihar,Patna,"Rajbansi Nagar, Patna - BSPCB",18-02-2024 02:00:00,25.599486,85.113666,CO,2,76,56
India,Bihar,Patna,"Samanpura, Patna - BSPCB",18-02-2024 02:00:00,25.596727,85.085624,PM10,NA,NA,NA
India,Bihar,Patna,"Samanpura, Patna - BSPCB",18-02-2024 02:00:00,25.596727,85.085624,SO2,NA,NA,NA
India,Bihar,Patna,"Samanpura, Patna - BSPCB",18-02-2024 02:00:00,25.596727,85.085624,OZONE,39,55,44
India,Bihar,Purnia,"Mariam Nagar, Purnia - BSPCB",18-02-2024 02:00:00,25.366336,87.117468,PM10,105,177,134
India,Bihar,Purnia,"Mariam Nagar, Purnia - BSPCB",18-02-2024 02:00:00,25.366336,87.117468,NO2,12,14,13
India,Bihar,Rajgir,"Dangi Tola, Rajgir - BSPCB",18-02-2024 02:00:00,25.03280,85.41948,NO2,1,1,1
India,Bihar,Rajgir,"Dangi Tola, Rajgir - BSPCB",18-02-2024 02:00:00,25.03280,85.41948,CO,7,12,10
India,Bihar,Rajgir,"Dangi Tola, Rajgir - BSPCB",18-02-2024 02:00:00,25.03280,85.41948,OZONE,22,30,23
India,Bihar,Saharsa,"Police Line, Saharsa - BSPCB",18-02-2024 02:00:00,25.892357,86.590325,OZONE,12,85,35
India,Bihar,Samastipur,"DM Office_Kasipur, Samastipur - BSPCB",18-02-2024 02:00:00,25.859655,85.77944,PM2.5,72,270,150
India,Bihar,Sasaram,"Dada Peer, Sasaram - BSPCB",18-02-2024 02:00:00,24.952822,84.002396,NO2,12,23,17
India,Bihar,Sasaram,"Dada Peer, Sasaram - BSPCB",18-02-2024 02:00:00,24.952822,84.002396,CO,96,105,104
India,Bihar,Sasaram,"Dada Peer, Sasaram - BSPCB",18-02-2024 02:00:00,24.952822,84.002396,OZONE,9,77,20
India,Bihar,Siwan,"Chitragupta Nagar, Siwan - BSPCB",18-02-2024 02:00:00,26.2271665,84.3570427,CO,48,162,123
India,Chandigarh,Chandigarh,"Sector 22, Chandigarh - CPCC",18-02-2024 02:00:00,30.735567,76.775714,NH3,7,7,7
India,Chandigarh,Chandigarh,"Sector-25, Chandigarh - CPCC",18-02-2024 02:00:00,30.751462,76.762879,PM10,137,188,156
India,Chandigarh,Chandigarh,"Sector-53, Chandigarh - CPCC",18-02-2024 02:00:00,30.719859,76.738637,PM2.5,177,370,311
India,Chandigarh,Chandigarh,"Sector-53, Chandigarh - CPCC",18-02-2024 02:00:00,30.719859,76.738637,PM10,129,288,189
India,Chandigarh,Chandigarh,"Sector-53, Chandigarh - CPCC",18-02-2024 02:00:00,30.719859,76.738637,NO2,28,91,52
India,Chhattisgarh,Bhilai,"32Bungalows, Bhilai - CECB",18-02-2024 02:00:00,21.194815,81.314770,OZONE,4,16,5
India,Chhattisgarh,Bhilai,"Civic Center, Bhilai - Bhilai Steel Plant",18-02-2024 02:00:00,21.185571,81.343175,NO2,8,191,52
India,Chhattisgarh,Bhilai,"Hathkhoj, Bhilai - CECB",18-02-2024 02:00:00,21.224231,81.408350,NH3,6,8,7
India,Chhattisgarh,Bhilai,"Hathkhoj, Bhilai - CECB",18-02-2024 02:00:00,21.224231,81.408350,OZONE,8,27,13
India,Chhattisgarh,Bilaspur,"Mangala, Bilaspur - NTPC",18-02-2024 02:00:00,22.08815,82.13737,PM2.5,33,89,60
India,Chhattisgarh,Chhal,"Nawapara SECL Colony, Chhal - CECB",18-02-2024 02:00:00,22.118125,83.140608,PM10,39,188,93
India,Chhattisgarh,Korba,"Rampur, Korba - CECB",18-02-2024 02:00:00,22.368195,82.746431,CO,18,52,26
India,Chhattisgarh,Korba,"Urja Nagar, Korba - CECB",18-02-2024 02:00:00,22.348441,82.549611,PM2.5,25,95,49
India,Chhattisgarh,Raipur,"AIIMS, Raipur - CECB",18-02-2024 02:00:00,21.258815,81.578979,SO2,5,14,8
India,Chhattisgarh,Raipur,"Bhatagaon New ISBT, Raipur - CECB",18-02-2024 02:00:00,21.219665,81.630094,NO2,60,104,75
India,Chhattisgarh,Raipur,"Bhatagaon New ISBT, Raipur - CECB",18-02-2024 02:00:00,21.219665,81.630094,NH3,1,2,2
India,Chhattisgarh,Raipur,"Bhatagaon New ISBT, Raipur - CECB",18-02-2024 02:00:00,21.219665,81.630094,CO,22,73,60
India,Chhattisgarh,Raipur,"Krishak Nagar, Raipur - CECB",18-02-2024 02:00:00,21.237755,81.705301,PM2.5,37,72,57
India,Chhattisgarh,Raipur,"Krishak Nagar, Raipur - CECB",18-02-2024 02:00:00,21.237755,81.705301,NO2,19,35,26
India,Chhattisgarh,Raipur,"Siltara Phase-II, Raipur - CECB",18-02-2024 02:00:00,21.371751,81.664929,PM2.5,37,293,129
India,Chhattisgarh,Raipur,"Siltara Phase-II, Raipur - CECB",18-02-2024 02:00:00,21.371751,81.664929,NH3,2,3,3
India,Chhattisgarh,Raipur,"Siltara Phase-II, Raipur - CECB",18-02-2024 02:00:00,21.371751,81.664929,SO2,7,39,15
India,Delhi,Delhi,"Alipur, Delhi - DPCC",18-02-2024 02:00:00,28.815329,77.153010,PM2.5,29,342,211
India,Delhi,Delhi,"Alipur, Delhi - DPCC",18-02-2024 02:00:00,28.815329,77.153010,NH3,6,14,9
India,Delhi,Delhi,"Bawana, Delhi - DPCC",18-02-2024 02:00:00,28.776200,77.051074,PM10,97,468,257
India,Delhi,Delhi,"Bawana, Delhi - DPCC",18-02-2024 02:00:00,28.776200,77.051074,SO2,3,22,10
India,Delhi,Delhi,"Bawana, Delhi - DPCC",18-02-2024 02:00:00,28.776200,77.051074,OZONE,3,109,17
India,Delhi,Delhi,"CRRI Mathura Road, Delhi - IMD",18-02-2024 02:00:00,28.5512005,77.2735737,NO2,30,63,52
India,Delhi,Delhi,"DTU, Delhi - CPCB",18-02-2024 02:00:00,28.7500499,77.1112615,CO,16,108,56
India,Delhi,Delhi,"Dr. Karni Singh Shooting Range, Delhi - DPCC",18-02-2024 02:00:00,28.498571,77.264840,PM10,102,378,191
India,Delhi,Delhi,"Dwarka-Sector 8, Delhi - DPCC ",18-02-2024 02:00:00,28.5710274,77.0719006,NO2,7,19,12
India,Delhi,Delhi,"IGI Airport (T3), Delhi - IMD",18-02-2024 02:00:00,28.5627763,77.1180053,PM10,92,500,223
India,Delhi,Delhi,"IHBAS, Dilshad Garden, Delhi - CPCB",18-02-2024 02:00:00,28.6811736,77.3025234,NO2,7,28,18
India,Delhi,Delhi,"IHBAS, Dilshad Garden, Delhi - CPCB",18-02-2024 02:00:00,28.6811736,77.3025234,NH3,2,18,14
India,Delhi,Delhi,"ITO, Delhi - CPCB",18-02-2024 02:00:00,28.628624,77.241060,PM10,98,252,174
India,Delhi,Delhi,"ITO, Delhi - CPCB",18-02-2024 02:00:00,28.628624,77.241060,CO,32,150,111
India,Delhi,Delhi,"Jahangirpuri, Delhi - DPCC",18-02-2024 02:00:00,28.732820,77.170633,NO2,NA,NA,NA
India,Delhi,Delhi,"Jahangirpuri, Delhi - DPCC",18-02-2024 02:00:00,28.732820,77.170633,SO2,18,37,25
India,Delhi,Delhi,"Jawaharlal Nehru Stadium, Delhi - DPCC",18-02-2024 02:00:00,28.580280,77.233829,PM2.5,95,364,238
India,Delhi,Delhi,"Jawaharlal Nehru Stadium, Delhi - DPCC",18-02-2024 02:00:00,28.580280,77.233829,PM10,120,353,192
India,Delhi,Delhi,"Jawaharlal Nehru Stadium, Delhi - DPCC",18-02-2024 02:00:00,28.580280,77.233829,NH3,7,13,10
India,Delhi,Delhi,"Lodhi Road, Delhi - IMD",18-02-2024 02:00:00,28.5918245,77.2273074,PM2.5,91,321,187
India,Delhi,Delhi,"Lodhi Road, Delhi - IMD",18-02-2024 02:00:00,28.5918245,77.2273074,OZONE,14,125,43
India,Delhi,Delhi,"Mandir Marg, Delhi - DPCC",18-02-2024 02:00:00,28.636429,77.201067,CO,4,118,98
India,Delhi,Delhi,"NSIT Dwarka, Delhi - CPCB",18-02-2024 02:00:00,28.60909,77.0325413,NO2,43,54,49
India,Delhi,Delhi,"NSIT Dwarka, Delhi - CPCB",18-02-2024 02:00:00,28.60909,77.0325413,OZONE,17,110,33
India,Delhi,Delhi,"Najafgarh, Delhi - DPCC",18-02-2024 02:00:00,28.570173,76.933762,NH3,1,1,1
India,Delhi,Delhi,"Najafgarh, Delhi - DPCC",18-02-2024 02:00:00,28.570173,76.933762,OZONE,13,194,50
India,Delhi,Delhi,"Nehru Nagar, Delhi - DPCC",18-02-2024 02:00:00,28.567890,77.250515,NH3,7,19,13
India,Delhi,Delhi,"Nehru Nagar, Delhi - DPCC",18-02-2024 02:00:00,28.567890,77.250515,CO,16,139,122
India,Delhi,Delhi,"Patparganj, Delhi - DPCC",18-02-2024 02:00:00,28.623763,77.287209,PM10,123,357,218
India,Delhi,Delhi,"Patparganj, Delhi - DPCC",18-02-2024 02:00:00,28.623763,77.287209,SO2,5,15,9
India,Delhi,Delhi,"Patparganj, Delhi - DPCC",18-02-2024 02:00:00,28.623763,77.287209,CO,19,115,85
India,Delhi,Delhi,"Punjabi Bagh, Delhi - DPCC",18-02-2024 02:00:00,28.674045,77.131023,PM10,117,455,224
India,Delhi,Delhi,"Punjabi Bagh, Delhi - DPCC",18-02-2024 02:00:00,28.674045,77.131023,CO,24,145,86
India,Delhi,Delhi,"R K Puram, Delhi - DPCC",18-02-2024 02:00:00,28.563262,77.186937,NO2,15,81,45
India,Delhi,Delhi,"Shadipur, Delhi - CPCB",18-02-2024 02:00:00,28.6514781,77.1473105,PM2.5,98,352,277
India,Delhi,Delhi,"Shadipur, Delhi - CPCB",18-02-2024 02:00:00,28.6514781,77.1473105,SO2,4,34,15
India,Delhi,Delhi,"Shadipur, Delhi - CPCB",18-02-2024 02:00:00,28.6514781,77.1473105,CO,40,91,67
India,Delhi,Delhi,"Shadipur, Delhi - CPCB",18-02-2024 02:00:00,28.6514781,77.1473105,OZONE,1,32,22
India,Delhi,Delhi,"Sirifort, Delhi - CPCB",18-02-2024 02:00:00,28.5504249,77.2159377,PM10,44,195,89
India,Delhi,Delhi,"Sirifort, Delhi - CPCB",18-02-2024 02:00:00,28.5504249,77.2159377,SO2,32,48,38
India,Delhi,Delhi,"Sirifort, Delhi - CPCB",18-02-2024 02:00:00,28.5504249,77.2159377,OZONE,3,16,16
India,Delhi,Delhi,"Sonia Vihar, Delhi - DPCC",18-02-2024 02:00:00,28.710508,77.249485,NH3,5,11,6
India,Delhi,Delhi,"Sri Aurobindo Marg, Delhi - DPCC",18-02-2024 02:00:00,28.531346,77.190156,NH3,6,10,7
India,Delhi,Delhi,"Vivek Vihar, Delhi - DPCC",18-02-2024 02:00:00,28.672342,77.315260,CO,19,170,170
India,Gujarat,Ahmedabad,"Gyaspur, Ahmedabad - IITM",18-02-2024 02:00:00,22.977134,72.553024,NH3,3,4,4
India,Gujarat,Ahmedabad,"Gyaspur, Ahmedabad - IITM",18-02-2024 02:00:00,22.977134,72.553024,SO2,3,8,5
India,Gujarat,Ahmedabad,"Maninagar, Ahmedabad - GPCB",18-02-2024 02:00:00,23.002657,72.591912,PM2.5,39,91,72
India,Gujarat,Ahmedabad,"Maninagar, Ahmedabad - GPCB",18-02-2024 02:00:00,23.002657,72.591912,SO2,NA,NA,NA
India,Gujarat,Ahmedabad,"Maninagar, Ahmedabad - GPCB",18-02-2024 02:00:00,23.002657,72.591912,CO,12,70,42
India,Gujarat,Ahmedabad,"SAC ISRO Bopal, Ahmedabad - IITM",18-02-2024 02:00:00,23.041137,72.456691,OZONE,15,44,23
India,Gujarat,Ahmedabad,"SAC ISRO Satellite, Ahmedabad - IITM",18-02-2024 02:00:00,23.023389,72.515201,PM2.5,125,132,128
India,Gujarat,Ahmedabad,"SAC ISRO Satellite, Ahmedabad - IITM",18-02-2024 02:00:00,23.023389,72.515201,PM10,98,100,99
India,Gujarat,Ahmedabad,"SAC ISRO Satellite, Ahmedabad - IITM",18-02-2024 02:00:00,23.023389,72.515201,NH3,3,3,3
India,Gujarat,Ahmedabad,"SAC ISRO Satellite, Ahmedabad - IITM",18-02-2024 02:00:00,23.023389,72.515201,OZONE,2,12,4
India,Gujarat,Ahmedabad,"SVPI Airport Hansol, Ahmedabad - IITM",18-02-2024 02:00:00,23.076793,72.627874,PM2.5,44,191,86
India,Gujarat,Ahmedabad,"SVPI Airport Hansol, Ahmedabad - IITM",18-02-2024 02:00:00,23.076793,72.627874,PM10,92,251,139
India,Gujarat,Ahmedabad,"Sardar Vallabhbhai Patel Stadium, Ahmedabad - IITM",18-02-2024 02:00:00,23.043070,72.562968,PM2.5,75,225,133
India,Gujarat,Ahmedabad,"Sardar Vallabhbhai Patel Stadium, Ahmedabad - IITM",18-02-2024 02:00:00,23.043070,72.562968,OZONE,1,13,2
India,Gujarat,Ankleshwar,"GIDC, Ankleshwar - GPCB",18-02-2024 02:00:00,21.613267,73.010555,NO2,34,35,34
India,Gujarat,Ankleshwar,"GIDC, Ankleshwar - GPCB",18-02-2024 02:00:00,21.613267,73.010555,NH3,6,7,6
India,Gujarat,Ankleshwar,"GIDC, Ankleshwar - GPCB",18-02-2024 02:00:00,21.613267,73.010555,SO2,37,139,89
India,Gujarat,Gandhinagar,"IIPHG Lekawada, Gandhinagar - IITM",18-02-2024 02:00:00,23.243639,72.68994,NH3,3,3,3
India,Gujarat,Gandhinagar,"Sector-10, Gandhinagar - GPCB",18-02-2024 02:00:00,23.221714,72.654328,NH3,1,2,2
India,Gujarat,Surat,"Science Center, Surat - SMC",18-02-2024 02:00:00,21.170046,72.795405,PM10,56,138,95
India,Gujarat,Surat,"Science Center, Surat - SMC",18-02-2024 02:00:00,21.170046,72.795405,CO,65,103,90
India,Gujarat,Vatva,"Phase-4 GIDC, Vatva - GPCB",18-02-2024 02:00:00,22.969611,72.643500,PM2.5,58,306,119
India,Haryana,Bahadurgarh,"Arya Nagar, Bahadurgarh - HSPCB",18-02-2024 02:00:00,28.6701,76.9254,CO,41,64,49
India,Haryana,Bahadurgarh,"Arya Nagar, Bahadurgarh - HSPCB",18-02-2024 02:00:00,28.6701,76.9254,OZONE,39,53,44
India,Haryana,Ballabgarh,"Nathu Colony, Ballabgarh - HSPCB",18-02-2024 02:00:00,28.3419248,77.319699,OZONE,7,31,14
India,Haryana,Bhiwani,"H.B. Colony, Bhiwani - HSPCB",18-02-2024 02:00:00,28.806223,76.141105,PM10,74,312,124
India,Haryana,Bhiwani,"H.B. Colony, Bhiwani - HSPCB",18-02-2024 02:00:00,28.806223,76.141105,NH3,5,6,6
India,Haryana,Bhiwani,"H.B. Colony, Bhiwani - HSPCB",18-02-2024 02:00:00,28.806223,76.141105,CO,28,50,45
India,Haryana,Charkhi Dadri,"Mini Secretariat, Charkhi Dadri - HSPCB",18-02-2024 02:00:00,28.593883,76.270653,PM2.5,74,304,183
India,Haryana,Charkhi Dadri,"Mini Secretariat, Charkhi Dadri - HSPCB",18-02-2024 02:00:00,28.593883,76.270653,PM10,74,172,125
India,Haryana,Faridabad,"New Industrial Town, Faridabad - HSPCB",18-02-2024 02:00:00,28.39072,77.30059,NO2,3,21,11
India,Haryana,Faridabad,"Sector 11, Faridabad - HSPCB",18-02-2024 02:00:00,28.376058,77.315741,PM10,93,359,167
India,Haryana,Faridabad,"Sector 11, Faridabad - HSPCB",18-02-2024 02:00:00,28.376058,77.315741,NH3,6,6,6
India,Haryana,Faridabad,"Sector 11, Faridabad - HSPCB",18-02-2024 02:00:00,28.376058,77.315741,SO2,8,24,14
India,Haryana,Faridabad,"Sector 30, Faridabad - HSPCB",18-02-2024 02:00:00,28.4417,77.3217,OZONE,8,37,19
India,Haryana,Faridabad,"Sector- 16A, Faridabad - HSPCB",18-02-2024 02:00:00,28.4088421,77.3099081,OZONE,14,14,14
India,Haryana,Fatehabad,"Huda Sector, Fatehabad - HSPCB",18-02-2024 02:00:00,29.503664,75.467934,PM2.5,54,252,134
India,Haryana,Fatehabad,"Huda Sector, Fatehabad - HSPCB",18-02-2024 02:00:00,29.503664,75.467934,NO2,18,34,25
India,Haryana,Fatehabad,"Huda Sector, Fatehabad - HSPCB",18-02-2024 02:00:00,29.503664,75.467934,NH3,5,12,9
India,Haryana,Fatehabad,"Huda Sector, Fatehabad - HSPCB",18-02-2024 02:00:00,29.503664,75.467934,SO2,4,10,7
India,Haryana,Gurugram,"Sector-51, Gurugram - HSPCB",18-02-2024 02:00:00,28.4227,77.0667,PM10,117,500,235
India,Haryana,Gurugram,"Teri Gram, Gurugram - HSPCB",18-02-2024 02:00:00,28.4275,77.1465,NO2,8,52,36
India,Haryana,Gurugram,"Vikas Sadan, Gurugram - HSPCB",18-02-2024 02:00:00,28.4501238,77.0263051,OZONE,7,68,19
India,Haryana,Hisar,"Urban Estate-II, Hisar - HSPCB",18-02-2024 02:00:00,29.140560,75.744941,PM10,51,192,123
India,Haryana,Hisar,"Urban Estate-II, Hisar - HSPCB",18-02-2024 02:00:00,29.140560,75.744941,NH3,3,12,4
India,Haryana,Jind,"Police Lines, Jind - HSPCB",18-02-2024 02:00:00,29.307814,76.337619,PM2.5,51,238,157
India,Haryana,Jind,"Police Lines, Jind - HSPCB",18-02-2024 02:00:00,29.307814,76.337619,NH3,2,6,4
India,Haryana,Jind,"Police Lines, Jind - HSPCB",18-02-2024 02:00:00,29.307814,76.337619,OZONE,4,21,11
India,Haryana,Kaithal,"Rishi Nagar, Kaithal - HSPCB",18-02-2024 02:00:00,29.8006,76.4155,SO2,8,33,19
India,Haryana,Kaithal,"Rishi Nagar, Kaithal - HSPCB",18-02-2024 02:00:00,29.8006,76.4155,CO,6,33,25
India,Haryana,Karnal,"Sector-12, Karnal - HSPCB",18-02-2024 02:00:00,29.695300,77.002700,PM10,NA,NA,NA
India,Haryana,Karnal,"Sector-12, Karnal - HSPCB",18-02-2024 02:00:00,29.695300,77.002700,NO2,7,12,10
India,Haryana,Karnal,"Sector-12, Karnal - HSPCB",18-02-2024 02:00:00,29.695300,77.002700,NH3,10,13,11
India,Haryana,Karnal,"Sector-12, Karnal - HSPCB",18-02-2024 02:00:00,29.695300,77.002700,CO,30,62,47
India,Haryana,Kurukshetra,"Sector-7, Kurukshetra - HSPCB",18-02-2024 02:00:00,29.966942,76.875879,PM2.5,84,167,109
India,Haryana,Mandikhera,"General Hospital, Mandikhera - HSPCB",18-02-2024 02:00:00,27.9002,76.9938,PM2.5,44,121,79
India,Haryana,Mandikhera,"General Hospital, Mandikhera - HSPCB",18-02-2024 02:00:00,27.9002,76.9938,PM10,60,156,113
India,Haryana,Mandikhera,"General Hospital, Mandikhera - HSPCB",18-02-2024 02:00:00,27.9002,76.9938,CO,18,48,33
India,Haryana,Manesar,"Sector-2 IMT, Manesar - HSPCB",18-02-2024 02:00:00,28.360699,76.936090,SO2,6,38,21
India,Haryana,Palwal,"Shyam Nagar, Palwal - HSPCB",18-02-2024 02:00:00,28.1485564,77.3320667,CO,8,18,12
India,Haryana,Panchkula,"Sector-6, Panchkula - HSPCB ",18-02-2024 02:00:00,30.7057778,76.8531805555555,PM2.5,32,102,81
India,Haryana,Rohtak,"MD University, Rohtak - HSPCB",18-02-2024 02:00:00,28.52123,76.37138,NO2,47,57,52
India,Haryana,Rohtak,"MD University, Rohtak - HSPCB",18-02-2024 02:00:00,28.52123,76.37138,SO2,5,8,7
India,Haryana,Sirsa,"F-Block, Sirsa - HSPCB",18-02-2024 02:00:00,29.536400,75.015800,PM2.5,40,158,75
India,Haryana,Sirsa,"F-Block, Sirsa - HSPCB",18-02-2024 02:00:00,29.536400,75.015800,SO2,1,16,10
India,Haryana,Sirsa,"F-Block, Sirsa - HSPCB",18-02-2024 02:00:00,29.536400,75.015800,CO,48,75,55
India,Haryana,Sonipat,"Murthal, Sonipat - HSPCB",18-02-2024 02:00:00,29.027200,77.062100,CO,16,30,22
India,Haryana,Yamuna Nagar,"Gobind Pura, Yamuna Nagar - HSPCB",18-02-2024 02:00:00,30.1480566,77.2893471,NO2,8,20,15
India,Haryana,Yamuna Nagar,"Gobind Pura, Yamuna Nagar - HSPCB",18-02-2024 02:00:00,30.1480566,77.2893471,NH3,1,4,2
India,Haryana,Yamuna Nagar,"Gobind Pura, Yamuna Nagar - HSPCB",18-02-2024 02:00:00,30.1480566,77.2893471,CO,28,56,48
India,Himachal Pradesh,Baddi,"HIMUDA Complex Phase-1, Baddi - HPPCB",18-02-2024 02:00:00,30.943887,76.801991,SO2,18,94,47
India,Jharkhand,Dhanbad,"Sardar Patel Nagar, Dhanbad - JSPCB",18-02-2024 02:00:00,23.80569,86.44268,NO2,NA,NA,NA
India,Karnataka,Bagalkot,"Vidayagiri, Bagalkot - KSPCB",18-02-2024 02:00:00,16.172806,75.659694,PM2.5,25,37,36
India,Karnataka,Belgaum,"Ramteerth Nagar, Belgaum - KSPCB",18-02-2024 02:00:00,15.888653,74.541751,PM2.5,17,93,43
India,Karnataka,Belgaum,"Ramteerth Nagar, Belgaum - KSPCB",18-02-2024 02:00:00,15.888653,74.541751,NH3,33,34,34
India,Karnataka,Bengaluru,"Bapuji Nagar, Bengaluru - KSPCB",18-02-2024 02:00:00,12.951913,77.539784,PM10,76,121,97
India,Karnataka,Bengaluru,"Bapuji Nagar, Bengaluru - KSPCB",18-02-2024 02:00:00,12.951913,77.539784,SO2,4,8,6
India,Karnataka,Bengaluru,"Bapuji Nagar, Bengaluru - KSPCB",18-02-2024 02:00:00,12.951913,77.539784,CO,26,44,30
India,Karnataka,Bengaluru,"Bapuji Nagar, Bengaluru - KSPCB",18-02-2024 02:00:00,12.951913,77.539784,OZONE,10,39,11
India,Karnataka,Bengaluru,"City Railway Station, Bengaluru - KSPCB",18-02-2024 02:00:00,12.9756843,77.5660749,NO2,22,34,28
India,Karnataka,Bengaluru,"City Railway Station, Bengaluru - KSPCB",18-02-2024 02:00:00,12.9756843,77.5660749,SO2,13,13,13
India,Karnataka,Bengaluru,"Hebbal, Bengaluru - KSPCB",18-02-2024 02:00:00,13.029152,77.585901,NH3,1,1,1
India,Karnataka,Bengaluru,"Hombegowda Nagar, Bengaluru - KSPCB",18-02-2024 02:00:00,12.938539,77.590100,PM10,51,140,75
India,Karnataka,Bengaluru,"Hombegowda Nagar, Bengaluru - KSPCB",18-02-2024 02:00:00,12.938539,77.590100,NH3,2,4,2
India,Karnataka,Bengaluru,"Hombegowda Nagar, Bengaluru - KSPCB",18-02-2024 02:00:00,12.938539,77.590100,SO2,3,6,5
India,Karnataka,Bengaluru,"Jayanagar 5th Block, Bengaluru - KSPCB",18-02-2024 02:00:00,12.920984,77.584908,NH3,2,3,3
India,Karnataka,Bengaluru,"Jigani, Bengaluru - KSPCB",18-02-2024 02:00:00,12.7816279,77.6299145,PM2.5,NA,NA,NA
India,Karnataka,Bengaluru,"Jigani, Bengaluru - KSPCB",18-02-2024 02:00:00,12.7816279,77.6299145,PM10,NA,NA,NA
India,Karnataka,Bengaluru,"Kasturi Nagar, Bengaluru - KSPCB",18-02-2024 02:00:00,13.003872,77.664217,PM10,101,138,114
India,Karnataka,Bengaluru,"Kasturi Nagar, Bengaluru - KSPCB",18-02-2024 02:00:00,13.003872,77.664217,NO2,16,17,17
India,Karnataka,Bengaluru,"Kasturi Nagar, Bengaluru - KSPCB",18-02-2024 02:00:00,13.003872,77.664217,SO2,10,10,10
India,Karnataka,Bengaluru,"Peenya, Bengaluru - CPCB",18-02-2024 02:00:00,13.0270199,77.494094,PM10,43,76,63
India,Karnataka,Bengaluru,"Peenya, Bengaluru - CPCB",18-02-2024 02:00:00,13.0270199,77.494094,SO2,12,20,16
India,Karnataka,Bengaluru,"Sanegurava Halli, Bengaluru - KSPCB",18-02-2024 02:00:00,12.990328,77.5431385,NO2,21,32,24
India,Karnataka,Bengaluru,"Silk Board, Bengaluru - KSPCB",18-02-2024 02:00:00,12.917348,77.622813,PM10,69,108,86
India,Karnataka,Bengaluru,"Silk Board, Bengaluru - KSPCB",18-02-2024 02:00:00,12.917348,77.622813,OZONE,28,32,30
India,Karnataka,Chamarajanagar,"Urban, Chamarajanagar - KSPCB",18-02-2024 02:00:00,11.55358,76.55521,PM2.5,21,52,31
India,Karnataka,Chamarajanagar,"Urban, Chamarajanagar - KSPCB",18-02-2024 02:00:00,11.55358,76.55521,PM10,35,61,45
India,Karnataka,Chamarajanagar,"Urban, Chamarajanagar - KSPCB",18-02-2024 02:00:00,11.55358,76.55521,OZONE,15,42,21
India,Karnataka,Chikkaballapur,"Chikkaballapur Rural, Chikkaballapur - KSPCB",18-02-2024 02:00:00,13.428828,77.731418,NO2,2,10,4
India,Karnataka,Chikkaballapur,"Chikkaballapur Rural, Chikkaballapur - KSPCB",18-02-2024 02:00:00,13.428828,77.731418,CO,10,16,13
India,Karnataka,Chikkaballapur,"Chikkaballapur Rural, Chikkaballapur - KSPCB",18-02-2024 02:00:00,13.428828,77.731418,OZONE,24,25,25
