country,state,city,station,last_update,latitude,longitude,pollutant_id,pollutant_min,pollutant_max,pollutant_avg
India,Andhra_Pradesh,Amaravati,"Secretariat, Amaravati - APPCB",28-03-2024 14:00:00,16.5150833,80.5181667,PM2.5,2,34,23
India,Andhra_Pradesh,Chittoor,"Gangineni Cheruvu, Chittoor - APPCB",28-03-2024 14:00:00,13.204880,79.097889,PM10,27,110,59
India,Andhra_Pradesh,Chittoor,"Gangineni Cheruvu, Chittoor - APPCB",28-03-2024 14:00:00,13.204880,79.097889,SO2,4,11,7
India,Andhra_Pradesh,Kadapa,"Yerramukkapalli, Kadapa - APPCB",28-03-2024 14:00:00,14.465052,78.824187,SO2,2,6,2
India,Andhra_Pradesh,Rajamahendravaram,"Anand Kala Kshetram, Rajamahendravaram - APPCB",28-03-2024 14:00:00,16.9872867,81.7363176,SO2,4,42,12
India,Andhra_Pradesh,Tirupati,"Tirumala, Tirupati - APPCB",28-03-2024 14:00:00,13.67,79.35,PM2.5,15,71,34
India,Andhra_Pradesh,Tirupati,"Tirumala, Tirupati - APPCB",28-03-2024 14:00:00,13.67,79.35,NH3,1,2,1
India,Andhra_Pradesh,Tirupati,"Tirumala, Tirupati - APPCB",28-03-2024 14:00:00,13.67,79.35,OZONE,3,53,22
India,Andhra_Pradesh,Tirupati,"Vaikuntapuram, Tirupati - APPCB",28-03-2024 14:00:00,13.615387,79.409230,NH3,2,4,3
India,Andhra_Pradesh,Vijayawada,"Rajiv Gandhi Park, Vijayawada - APPCB",28-03-2024 14:00:00,16.509717,80.612222,NO2,4,58,31
India,Andhra_Pradesh,Vijayawada,"Rajiv Gandhi Park, Vijayawada - APPCB",28-03-2024 14:00:00,16.509717,80.612222,NH3,3,7,6
India,Andhra_Pradesh,Vijayawada,"Rajiv Nagar, Vijayawada - APPCB",28-03-2024 14:00:00,16.554731,80.649110,PM2.5,44,46,45
India,Andhra_Pradesh,Vijayawada,"Rajiv Nagar, Vijayawada - APPCB",28-03-2024 14:00:00,16.554731,80.649110,NO2,NA,NA,NA
India,Andhra_Pradesh,Vijayawada,"Rajiv Nagar, Vijayawada - APPCB",28-03-2024 14:00:00,16.554731,80.649110,OZONE,5,26,13
India,Andhra_Pradesh,Visakhapatnam,"GVM Corporation, Visakhapatnam - APPCB",28-03-2024 14:00:00,17.72,83.3,OZONE,4,71,39
India,Arunachal_Pradesh,Naharlagun,"Naharlagun, Naharlagun - APSPCB",28-03-2024 14:00:00,27.103358,93.679645,CO,8,25,10
India,Assam,Byrnihat,"Central Academy for SFS, Byrnihat - PCBA",28-03-2024 14:00:00,26.071318,91.87488,PM10,22,322,125
India,Assam,Byrnihat,"Central Academy for SFS, Byrnihat - PCBA",28-03-2024 14:00:00,26.071318,91.87488,CO,33,86,66
India,Assam,Guwahati,"IITG, Guwahati - PCBA",28-03-2024 14:00:00,26.2028636,91.70046436,PM10,34,81,60
India,Assam,Guwahati,"IITG, Guwahati - PCBA",28-03-2024 14:00:00,26.2028636,91.70046436,SO2,11,12,12
India,Assam,Guwahati,"IITG, Guwahati - PCBA",28-03-2024 14:00:00,26.2028636,91.70046436,OZONE,4,33,17
India,Assam,Guwahati,"LGBI Airport, Guwahati - PCBA",28-03-2024 14:00:00,26.10887,91.589544,NH3,1,5,3
India,Assam,Guwahati,"Pan Bazaar, Guwahati - PCBA",28-03-2024 14:00:00,26.187500,91.744194,PM2.5,NA,NA,NA
India,Assam,Guwahati,"Pan Bazaar, Guwahati - PCBA",28-03-2024 14:00:00,26.187500,91.744194,OZONE,15,17,16
India,Assam,Guwahati,"Railway Colony, Guwahati - PCBA",28-03-2024 14:00:00,26.181742,91.78063,PM2.5,1,183,80
India,Assam,Guwahati,"Railway Colony, Guwahati - PCBA",28-03-2024 14:00:00,26.181742,91.78063,PM10,40,131,84
India,Assam,Nalbari,"Bata Chowk, Nalbari - PCBA",28-03-2024 14:00:00,26.446912,91.439057,PM10,39,173,101
India,Assam,Nalbari,"Bata Chowk, Nalbari - PCBA",28-03-2024 14:00:00,26.446912,91.439057,CO,38,155,141
India,Assam,Silchar,"Tarapur, Silchar - PCBA",28-03-2024 14:00:00,24.82827,92.79525,NO2,13,17,13
India,Assam,Silchar,"Tarapur, Silchar - PCBA",28-03-2024 14:00:00,24.82827,92.79525,NH3,1,1,1
India,Assam,Sivasagar,"Girls College, Sivasagar - PCBA",28-03-2024 14:00:00,26.987634,94.636574,PM10,49,76,63
India,Bihar,Arrah,"New DM Office, Arrah - BSPCB",28-03-2024 14:00:00,25.5626095,84.663264,NH3,4,6,5
India,Bihar,Arrah,"New DM Office, Arrah - BSPCB",28-03-2024 14:00:00,25.5626095,84.663264,OZONE,10,45,19
India,Bihar,Aurangabad,"Gurdeo Nagar, Aurangabad - BSPCB",28-03-2024 14:00:00,24.75746,84.366208,OZONE,1,66,37
India,Bihar,Bettiah,"Kamalnath Nagar, Bettiah - BSPCB",28-03-2024 14:00:00,26.80365,84.51954,NO2,8,8,8
India,Bihar,Bettiah,"Kamalnath Nagar, Bettiah - BSPCB",28-03-2024 14:00:00,26.80365,84.51954,NH3,3,6,3
India,Bihar,Bhagalpur,"DM Office_Kachari Chowk, Bhagalpur - BSPCB",28-03-2024 14:00:00,25.251013,86.989001,CO,32,66,49
India,Bihar,Bhagalpur,"Mayaganj, Bhagalpur - BSPCB",28-03-2024 14:00:00,25.265194,87.012947,PM2.5,93,273,154
India,Bihar,Bhagalpur,"Mayaganj, Bhagalpur - BSPCB",28-03-2024 14:00:00,25.265194,87.012947,CO,8,10,9
India,Bihar,Bihar Sharif,"D M Colony, Bihar Sharif - BSPCB",28-03-2024 14:00:00,25.204762,85.514960,PM10,33,99,64
India,Bihar,Bihar Sharif,"D M Colony, Bihar Sharif - BSPCB",28-03-2024 14:00:00,25.204762,85.514960,SO2,2,12,6
India,Bihar,Buxar,"Charitra Van, Buxar - BSPCB (Formerly known as Central Jail)",28-03-2024 14:00:00,25.567520,83.966379,CO,44,104,64
India,Bihar,Buxar,"Charitra Van, Buxar - BSPCB (Formerly known as Central Jail)",28-03-2024 14:00:00,25.567520,83.966379,OZONE,23,166,166
India,Bihar,Chhapra,"Darshan Nagar, Chhapra - BSPCB",28-03-2024 14:00:00,25.7808257,84.7446768,PM10,55,148,92
India,Bihar,Chhapra,"Darshan Nagar, Chhapra - BSPCB",28-03-2024 14:00:00,25.7808257,84.7446768,NO2,16,26,21
India,Bihar,Chhapra,"Darshan Nagar, Chhapra - BSPCB",28-03-2024 14:00:00,25.7808257,84.7446768,SO2,4,30,11
India,Bihar,Gaya,"Collectorate, Gaya - BSPCB",28-03-2024 14:00:00,24.7955,84.9994,CO,17,76,31
India,Bihar,Gaya,"Kareemganj, Gaya - BSPCB",28-03-2024 14:00:00,24.792403,84.992416,NO2,30,31,30
India,Bihar,Gaya,"Kareemganj, Gaya - BSPCB",28-03-2024 14:00:00,24.792403,84.992416,NH3,1,6,3
India,Bihar,Gaya,"Kareemganj, Gaya - BSPCB",28-03-2024 14:00:00,24.792403,84.992416,SO2,7,10,9
India,Bihar,Gaya,"SFTI Kusdihra, Gaya - BSPCB",28-03-2024 14:00:00,24.762518,84.982348,SO2,6,10,8
India,Bihar,Gaya,"SFTI Kusdihra, Gaya - BSPCB",28-03-2024 14:00:00,24.762518,84.982348,CO,14,38,30
India,Bihar,Gaya,"SFTI Kusdihra, Gaya - BSPCB",28-03-2024 14:00:00,24.762518,84.982348,OZONE,15,100,57
India,Bihar,Hajipur,"Industrial Area, Hajipur - BSPCB",28-03-2024 14:00:00,25.697189,85.245900,PM10,53,142,87
India,Bihar,Hajipur,"Industrial Area, Hajipur - BSPCB",28-03-2024 14:00:00,25.697189,85.245900,NO2,11,23,17
India,Bihar,Hajipur,"Industrial Area, Hajipur - BSPCB",28-03-2024 14:00:00,25.697189,85.245900,CO,28,42,29
India,Bihar,Katihar,"Mirchaibari, Katihar - BSPCB",28-03-2024 14:00:00,25.560083,87.553265,CO,49,54,52
India,Bihar,Kishanganj,"SDM Office_Khagra, Kishanganj - BSPCB",28-03-2024 14:00:00,26.0881305,87.93840336,PM10,NA,NA,NA
India,Bihar,Kishanganj,"SDM Office_Khagra, Kishanganj - BSPCB",28-03-2024 14:00:00,26.0881305,87.93840336,SO2,37,44,40
India,Bihar,Kishanganj,"SDM Office_Khagra, Kishanganj - BSPCB",28-03-2024 14:00:00,26.0881305,87.93840336,OZONE,18,47,22
India,Bihar,Manguraha,"Forest Rest House, Manguraha - BSPCB",28-03-2024 14:00:00,27.308328,84.531742,NO2,7,19,16
India,Bihar,Motihari,"Gandak Colony, Motihari - BSPCB",28-03-2024 14:00:00,26.63086,84.90051,CO,8,21,12
India,Bihar,Motihari,"Gandak Colony, Motihari - BSPCB",28-03-2024 14:00:00,26.63086,84.90051,OZONE,18,42,29
India,Bihar,Muzaffarpur,"Buddha Colony, Muzaffarpur - BSPCB",28-03-2024 14:00:00,26.11442,85.39813,PM2.5,51,99,72
India,Bihar,Muzaffarpur,"Buddha Colony, Muzaffarpur - BSPCB",28-03-2024 14:00:00,26.11442,85.39813,NO2,10,38,17
India,Bihar,Muzaffarpur,"Buddha Colony, Muzaffarpur - BSPCB",28-03-2024 14:00:00,26.11442,85.39813,NH3,14,28,18
India,Bihar,Muzaffarpur,"Buddha Colony, Muzaffarpur - BSPCB",28-03-2024 14:00:00,26.11442,85.39813,SO2,7,25,12
India,Bihar,Muzaffarpur,"Buddha Colony, Muzaffarpur - BSPCB",28-03-2024 14:00:00,26.11442,85.39813,CO,10,24,13
India,Bihar,Muzaffarpur,"MIT-Daudpur Kothi, Muzaffarpur - BSPCB",28-03-2024 14:00:00,26.1403345,85.3650192,PM2.5,43,133,64
India,Bihar,Muzaffarpur,"MIT-Daudpur Kothi, Muzaffarpur - BSPCB",28-03-2024 14:00:00,26.1403345,85.3650192,NO2,5,7,7
India,Bihar,Muzaffarpur,"MIT-Daudpur Kothi, Muzaffarpur - BSPCB",28-03-2024 14:00:00,26.1403345,85.3650192,NH3,2,6,3
India,Bihar,Muzaffarpur,"Muzaffarpur Collectorate, Muzaffarpur - BSPCB",28-03-2024 14:00:00,26.1209,85.3647,PM2.5,31,147,56
India,Bihar,Patna,"DRM Office Danapur, Patna - BSPCB",28-03-2024 14:00:00,25.586562,85.043586,NH3,3,3,3
India,Bihar,Patna,"DRM Office Danapur, Patna - BSPCB",28-03-2024 14:00:00,25.586562,85.043586,OZONE,15,61,30
India,Bihar,Patna,"Govt. High School Shikarpur, Patna - BSPCB",28-03-2024 14:00:00,25.592539,85.227158,NO2,19,22,20
India,Bihar,Patna,"Govt. High School Shikarpur, Patna - BSPCB",28-03-2024 14:00:00,25.592539,85.227158,CO,34,64,43
India,Bihar,Patna,"IGSC Planetarium Complex, Patna - BSPCB",28-03-2024 14:00:00,25.610369,85.132568,SO2,5,5,5
India,Bihar,Patna,"Muradpur, Patna - BSPCB",28-03-2024 14:00:00,25.619651,85.147382,CO,20,58,30
India,Bihar,Patna,"Muradpur, Patna - BSPCB",28-03-2024 14:00:00,25.619651,85.147382,OZONE,5,28,12
India,Bihar,Patna,"Rajbansi Nagar, Patna - BSPCB",28-03-2024 14:00:00,25.599486,85.113666,CO,4,70,32
India,Bihar,Patna,"Samanpura, Patna - BSPCB",28-03-2024 14:00:00,25.596727,85.085624,PM2.5,51,181,107
India,Bihar,Patna,"Samanpura, Patna - BSPCB",28-03-2024 14:00:00,25.596727,85.085624,SO2,6,7,7
India,Bihar,Patna,"Samanpura, Patna - BSPCB",28-03-2024 14:00:00,25.596727,85.085624,CO,42,81,57
India,Bihar,Purnia,"Mariam Nagar, Purnia - BSPCB",28-03-2024 14:00:00,25.366336,87.117468,SO2,6,10,8
India,Bihar,Rajgir,"Dangi Tola, Rajgir - BSPCB",28-03-2024 14:00:00,25.03280,85.41948,NO2,1,1,1
India,Bihar,Rajgir,"Dangi Tola, Rajgir - BSPCB",28-03-2024 14:00:00,25.03280,85.41948,CO,9,11,10
India,Bihar,Saharsa,"Police Line, Saharsa - BSPCB",28-03-2024 14:00:00,25.892357,86.590325,OZONE,8,45,24
India,Bihar,Samastipur,"DM Office_Kasipur, Samastipur - BSPCB",28-03-2024 14:00:00,25.859655,85.77944,PM2.5,32,113,55
India,Bihar,Sasaram,"Dada Peer, Sasaram - BSPCB",28-03-2024 14:00:00,24.952822,84.002396,NH3,7,15,10
India,Bihar,Sasaram,"Dada Peer, Sasaram - BSPCB",28-03-2024 14:00:00,24.952822,84.002396,OZONE,4,82,46
India,Bihar,Siwan,"Chitragupta Nagar, Siwan - BSPCB",28-03-2024 14:00:00,26.2271665,84.3570427,PM10,36,107,66
India,Bihar,Siwan,"Chitragupta Nagar, Siwan - BSPCB",28-03-2024 14:00:00,26.2271665,84.3570427,NO2,7,25,14
India,Chandigarh,Chandigarh,"Sector 22, Chandigarh - CPCC",28-03-2024 14:00:00,30.735567,76.775714,CO,28,52,45
India,Chandigarh,Chandigarh,"Sector-25, Chandigarh - CPCC",28-03-2024 14:00:00,30.751462,76.762879,PM2.5,92,152,126
India,Chandigarh,Chandigarh,"Sector-25, Chandigarh - CPCC",28-03-2024 14:00:00,30.751462,76.762879,NH3,13,18,16
India,Chandigarh,Chandigarh,"Sector-25, Chandigarh - CPCC",28-03-2024 14:00:00,30.751462,76.762879,SO2,4,37,11
India,Chandigarh,Chandigarh,"Sector-25, Chandigarh - CPCC",28-03-2024 14:00:00,30.751462,76.762879,CO,12,34,23
India,Chandigarh,Chandigarh,"Sector-53, Chandigarh - CPCC",28-03-2024 14:00:00,30.719859,76.738637,NH3,5,8,6
India,Chhattisgarh,Bhilai,"32Bungalows, Bhilai - CECB",28-03-2024 14:00:00,21.194815,81.314770,SO2,5,8,6
India,Chhattisgarh,Bhilai,"Civic Center, Bhilai - Bhilai Steel Plant",28-03-2024 14:00:00,21.185571,81.343175,NO2,15,17,16
India,Chhattisgarh,Bilaspur,"Mangala, Bilaspur - NTPC",28-03-2024 14:00:00,22.08815,82.13737,PM10,48,101,69
India,Chhattisgarh,Korba,"Rampur, Korba - CECB",28-03-2024 14:00:00,22.368195,82.746431,NH3,2,3,2
India,Chhattisgarh,Korba,"Rampur, Korba - CECB",28-03-2024 14:00:00,22.368195,82.746431,CO,24,36,33
India,Chhattisgarh,Korba,"Urja Nagar, Korba - CECB",28-03-2024 14:00:00,22.348441,82.549611,CO,14,61,52
India,Chhattisgarh,Kunjemura,"OP Jindal School, Kunjemura - CECB",28-03-2024 14:00:00,22.126650,83.483212,CO,26,72,58
India,Chhattisgarh,Raipur,"AIIMS, Raipur - CECB",28-03-2024 14:00:00,21.258815,81.578979,PM2.5,35,60,46
India,Chhattisgarh,Raipur,"AIIMS, Raipur - CECB",28-03-2024 14:00:00,21.258815,81.578979,CO,26,53,43
India,Chhattisgarh,Raipur,"AIIMS, Raipur - CECB",28-03-2024 14:00:00,21.258815,81.578979,OZONE,2,50,11
India,Chhattisgarh,Raipur,"Bhatagaon New ISBT, Raipur - CECB",28-03-2024 14:00:00,21.219665,81.630094,SO2,2,4,2
India,Chhattisgarh,Raipur,"Krishak Nagar, Raipur - CECB",28-03-2024 14:00:00,21.237755,81.705301,NO2,22,29,26
India,Chhattisgarh,Raipur,"Krishak Nagar, Raipur - CECB",28-03-2024 14:00:00,21.237755,81.705301,SO2,10,28,15
India,Chhattisgarh,Raipur,"Krishak Nagar, Raipur - CECB",28-03-2024 14:00:00,21.237755,81.705301,OZONE,3,29,9
India,Chhattisgarh,Raipur,"Siltara Phase-II, Raipur - CECB",28-03-2024 14:00:00,21.371751,81.664929,PM10,56,164,114
India,Chhattisgarh,Tumidih,"OP Jindal Industrial Park, Tumidih - CECB",28-03-2024 14:00:00,22.06631475,83.33820077,CO,NA,NA,NA
India,Delhi,Delhi,"Alipur, Delhi - DPCC",28-03-2024 14:00:00,28.815329,77.153010,PM2.5,31,296,120
India,Delhi,Delhi,"Aya Nagar, Delhi - IMD",28-03-2024 14:00:00,28.4706914,77.1099364,PM2.5,29,270,133
India,Delhi,Delhi,"Aya Nagar, Delhi - IMD",28-03-2024 14:00:00,28.4706914,77.1099364,PM10,96,196,141
India,Delhi,Delhi,"Burari Crossing, Delhi - IMD",28-03-2024 14:00:00,28.7256504,77.2011573,PM10,81,182,145
India,Delhi,Delhi,"Burari Crossing, Delhi - IMD",28-03-2024 14:00:00,28.7256504,77.2011573,NO2,5,21,8
India,Delhi,Delhi,"Burari Crossing, Delhi - IMD",28-03-2024 14:00:00,28.7256504,77.2011573,CO,46,57,53
India,Delhi,Delhi,"CRRI Mathura Road, Delhi - IMD",28-03-2024 14:00:00,28.5512005,77.2735737,PM2.5,45,178,94
India,Delhi,Delhi,"CRRI Mathura Road, Delhi - IMD",28-03-2024 14:00:00,28.5512005,77.2735737,OZONE,2,73,3
India,Delhi,Delhi,"DTU, Delhi - CPCB",28-03-2024 14:00:00,28.7500499,77.1112615,PM2.5,49,299,136
India,Delhi,Delhi,"Dr. Karni Singh Shooting Range, Delhi - DPCC",28-03-2024 14:00:00,28.498571,77.264840,PM2.5,38,160,78
India,Delhi,Delhi,"Dr. Karni Singh Shooting Range, Delhi - DPCC",28-03-2024 14:00:00,28.498571,77.264840,SO2,18,32,24
India,Delhi,Delhi,"Dwarka-Sector 8, Delhi - DPCC ",28-03-2024 14:00:00,28.5710274,77.0719006,NO2,12,52,28
India,Delhi,Delhi,"Dwarka-Sector 8, Delhi - DPCC ",28-03-2024 14:00:00,28.5710274,77.0719006,NH3,6,9,8
India,Delhi,Delhi,"IGI Airport (T3), Delhi - IMD",28-03-2024 14:00:00,28.5627763,77.1180053,OZONE,1,61,20
India,Delhi,Delhi,"IHBAS, Dilshad Garden, Delhi - CPCB",28-03-2024 14:00:00,28.6811736,77.3025234,PM2.5,80,224,129
India,Delhi,Delhi,"IHBAS, Dilshad Garden, Delhi - CPCB",28-03-2024 14:00:00,28.6811736,77.3025234,PM10,107,158,132
India,Delhi,Delhi,"IHBAS, Dilshad Garden, Delhi - CPCB",28-03-2024 14:00:00,28.6811736,77.3025234,CO,27,109,43
India,Delhi,Delhi,"IHBAS, Dilshad Garden, Delhi - CPCB",28-03-2024 14:00:00,28.6811736,77.3025234,OZONE,10,70,28
India,Delhi,Delhi,"ITO, Delhi - CPCB",28-03-2024 14:00:00,28.628624,77.241060,PM10,22,172,109
India,Delhi,Delhi,"ITO, Delhi - CPCB",28-03-2024 14:00:00,28.628624,77.241060,SO2,7,40,24
India,Delhi,Delhi,"ITO, Delhi - CPCB",28-03-2024 14:00:00,28.628624,77.241060,CO,18,76,44
India,Delhi,Delhi,"Jawaharlal Nehru Stadium, Delhi - DPCC",28-03-2024 14:00:00,28.580280,77.233829,SO2,19,53,35
India,Delhi,Delhi,"Major Dhyan Chand National Stadium, Delhi - DPCC",28-03-2024 14:00:00,28.611281,77.237738,SO2,9,31,18
India,Delhi,Delhi,"Major Dhyan Chand National Stadium, Delhi - DPCC",28-03-2024 14:00:00,28.611281,77.237738,CO,32,66,47
India,Delhi,Delhi,"Mandir Marg, Delhi - DPCC",28-03-2024 14:00:00,28.636429,77.201067,PM10,65,135,100
India,Delhi,Delhi,"Mandir Marg, Delhi - DPCC",28-03-2024 14:00:00,28.636429,77.201067,NH3,7,8,7
India,Delhi,Delhi,"Mandir Marg, Delhi - DPCC",28-03-2024 14:00:00,28.636429,77.201067,OZONE,1,36,17
India,Delhi,Delhi,"NSIT Dwarka, Delhi - CPCB",28-03-2024 14:00:00,28.60909,77.0325413,NH3,9,14,11
India,Delhi,Delhi,"NSIT Dwarka, Delhi - CPCB",28-03-2024 14:00:00,28.60909,77.0325413,CO,27,85,40
India,Delhi,Delhi,"Najafgarh, Delhi - DPCC",28-03-2024 14:00:00,28.570173,76.933762,PM2.5,23,319,133
India,Delhi,Delhi,"Najafgarh, Delhi - DPCC",28-03-2024 14:00:00,28.570173,76.933762,CO,18,86,56
India,Delhi,Delhi,"Narela, Delhi - DPCC",28-03-2024 14:00:00,28.822836,77.101981,PM2.5,28,339,144
India,Delhi,Delhi,"Narela, Delhi - DPCC",28-03-2024 14:00:00,28.822836,77.101981,SO2,12,72,27
India,Delhi,Delhi,"Narela, Delhi - DPCC",28-03-2024 14:00:00,28.822836,77.101981,CO,46,75,62
India,Delhi,Delhi,"Okhla Phase-2, Delhi - DPCC",28-03-2024 14:00:00,28.530785,77.271255,NH3,5,23,10
India,Delhi,Delhi,"Patparganj, Delhi - DPCC",28-03-2024 14:00:00,28.623763,77.287209,NO2,28,46,37
India,Delhi,Delhi,"Patparganj, Delhi - DPCC",28-03-2024 14:00:00,28.623763,77.287209,CO,19,60,35
India,Delhi,Delhi,"Punjabi Bagh, Delhi - DPCC",28-03-2024 14:00:00,28.674045,77.131023,PM10,97,195,128
India,Delhi,Delhi,"Punjabi Bagh, Delhi - DPCC",28-03-2024 14:00:00,28.674045,77.131023,NO2,33,59,47
India,Delhi,Delhi,"Punjabi Bagh, Delhi - DPCC",28-03-2024 14:00:00,28.674045,77.131023,OZONE,1,46,22
India,Delhi,Delhi,"Pusa, Delhi - DPCC",28-03-2024 14:00:00,28.639652,77.146275,CO,2,117,65
India,Delhi,Delhi,"Pusa, Delhi - IMD",28-03-2024 14:00:00,28.636110,77.173332,PM2.5,NA,NA,NA
India,Delhi,Delhi,"Pusa, Delhi - IMD",28-03-2024 14:00:00,28.636110,77.173332,NO2,NA,NA,NA
India,Delhi,Delhi,"Rohini, Delhi - DPCC",28-03-2024 14:00:00,28.732528,77.119920,NH3,7,11,9
India,Delhi,Delhi,"Rohini, Delhi - DPCC",28-03-2024 14:00:00,28.732528,77.119920,SO2,10,52,21
India,Delhi,Delhi,"Shadipur, Delhi - CPCB",28-03-2024 14:00:00,28.6514781,77.1473105,PM2.5,78,356,239
India,Delhi,Delhi,"Shadipur, Delhi - CPCB",28-03-2024 14:00:00,28.6514781,77.1473105,NH3,5,8,6
India,Delhi,Delhi,"Sirifort, Delhi - CPCB",28-03-2024 14:00:00,28.5504249,77.2159377,NO2,NA,NA,NA
India,Delhi,Delhi,"Sirifort, Delhi - CPCB",28-03-2024 14:00:00,28.5504249,77.2159377,SO2,24,50,41
India,Delhi,Delhi,"Sonia Vihar, Delhi - DPCC",28-03-2024 14:00:00,28.710508,77.249485,NO2,20,78,38
India,Delhi,Delhi,"Sonia Vihar, Delhi - DPCC",28-03-2024 14:00:00,28.710508,77.249485,SO2,13,41,20
India,Delhi,Delhi,"Sonia Vihar, Delhi - DPCC",28-03-2024 14:00:00,28.710508,77.249485,CO,50,83,65
India,Delhi,Delhi,"Sri Aurobindo Marg, Delhi - DPCC",28-03-2024 14:00:00,28.531346,77.190156,NH3,7,9,8
India,Delhi,Delhi,"Vivek Vihar, Delhi - DPCC",28-03-2024 14:00:00,28.672342,77.315260,PM2.5,42,240,108
India,Delhi,Delhi,"Vivek Vihar, Delhi - DPCC",28-03-2024 14:00:00,28.672342,77.315260,NH3,15,15,15
India,Delhi,Delhi,"Wazirpur, Delhi - DPCC",28-03-2024 14:00:00,28.699793,77.165453,NO2,56,149,93
India,Delhi,Delhi,"Wazirpur, Delhi - DPCC",28-03-2024 14:00:00,28.699793,77.165453,NH3,9,10,10
India,Gujarat,Ahmedabad,"Chandkheda, Ahmedabad - IITM",28-03-2024 14:00:00,23.107969,72.574648,PM2.5,89,143,128
India,Gujarat,Ahmedabad,"Gyaspur, Ahmedabad - IITM",28-03-2024 14:00:00,22.977134,72.553024,PM2.5,66,411,211
India,Gujarat,Ahmedabad,"Gyaspur, Ahmedabad - IITM",28-03-2024 14:00:00,22.977134,72.553024,NO2,17,40,31
India,Gujarat,Ahmedabad,"Gyaspur, Ahmedabad - IITM",28-03-2024 14:00:00,22.977134,72.553024,SO2,4,6,4
India,Gujarat,Ahmedabad,"Rakhial, Ahmedabad - IITM",28-03-2024 14:00:00,23.016834,72.625775,NH3,2,26,20
India,Gujarat,Ahmedabad,"Rakhial, Ahmedabad - IITM",28-03-2024 14:00:00,23.016834,72.625775,CO,4,76,17
India,Gujarat,Ahmedabad,"SVPI Airport Hansol, Ahmedabad - IITM",28-03-2024 14:00:00,23.076793,72.627874,SO2,7,8,8
India,Gujarat,Ahmedabad,"Sardar Vallabhbhai Patel Stadium, Ahmedabad - IITM",28-03-2024 14:00:00,23.043070,72.562968,PM10,82,188,105
India,Gujarat,Ankleshwar,"GIDC, Ankleshwar - GPCB",28-03-2024 14:00:00,21.613267,73.010555,PM2.5,61,82,69
India,Gujarat,Gandhinagar,"GIFT City, Gandhinagar - IITM",28-03-2024 14:00:00,23.163798,72.677768,NO2,13,21,15
India,Gujarat,Gandhinagar,"GIFT City, Gandhinagar - IITM",28-03-2024 14:00:00,23.163798,72.677768,NH3,4,9,4
India,Gujarat,Gandhinagar,"GIFT City, Gandhinagar - IITM",28-03-2024 14:00:00,23.163798,72.677768,CO,6,24,11
India,Gujarat,Gandhinagar,"IIPHG Lekawada, Gandhinagar - IITM",28-03-2024 14:00:00,23.243639,72.68994,CO,22,25,23
India,Gujarat,Gandhinagar,"IIPHG Lekawada, Gandhinagar - IITM",28-03-2024 14:00:00,23.243639,72.68994,OZONE,11,56,23
India,Gujarat,Nandesari,"GIDC, Nandesari - Nandesari Ind. Association",28-03-2024 14:00:00,22.410802,73.097923,SO2,7,18,12
India,Gujarat,Surat,"Science Center, Surat - SMC",28-03-2024 14:00:00,21.170046,72.795405,CO,46,81,48
India,Gujarat,Vapi,"Phase-1 GIDC, Vapi - GPCB",28-03-2024 14:00:00,20.362421,72.918013,PM10,50,106,71
India,Gujarat,Vapi,"Phase-1 GIDC, Vapi - GPCB",28-03-2024 14:00:00,20.362421,72.918013,SO2,49,52,51
India,Gujarat,Vapi,"Phase-1 GIDC, Vapi - GPCB",28-03-2024 14:00:00,20.362421,72.918013,OZONE,NA,NA,NA
India,Gujarat,Vatva,"Phase-4 GIDC, Vatva - GPCB",28-03-2024 14:00:00,22.969611,72.643500,SO2,12,72,30
India,Haryana,Ambala,"Patti Mehar, Ambala - HSPCB",28-03-2024 14:00:00,30.379589,76.778328,NO2,7,22,14
India,Haryana,Ambala,"Patti Mehar, Ambala - HSPCB",28-03-2024 14:00:00,30.379589,76.778328,NH3,5,12,8
India,Haryana,Ambala,"Patti Mehar, Ambala - HSPCB",28-03-2024 14:00:00,30.379589,76.778328,SO2,5,25,15
India,Haryana,Ambala,"Patti Mehar, Ambala - HSPCB",28-03-2024 14:00:00,30.379589,76.778328,OZONE,18,33,22
India,Haryana,Bahadurgarh,"Arya Nagar, Bahadurgarh - HSPCB",28-03-2024 14:00:00,28.6701,76.9254,NH3,10,12,12
India,Haryana,Bhiwani,"H.B. Colony, Bhiwani - HSPCB",28-03-2024 14:00:00,28.806223,76.141105,NH3,6,6,6
India,Haryana,Bhiwani,"H.B. Colony, Bhiwani - HSPCB",28-03-2024 14:00:00,28.806223,76.141105,OZONE,10,86,17
India,Haryana,Charkhi Dadri,"Mini Secretariat, Charkhi Dadri - HSPCB",28-03-2024 14:00:00,28.593883,76.270653,NH3,6,8,7
India,Haryana,Charkhi Dadri,"Mini Secretariat, Charkhi Dadri - HSPCB",28-03-2024 14:00:00,28.593883,76.270653,CO,14,46,35
India,Haryana,Faridabad,"New Industrial Town, Faridabad - HSPCB",28-03-2024 14:00:00,28.39072,77.30059,PM2.5,NA,NA,NA
India,Haryana,Faridabad,"Sector 11, Faridabad - HSPCB",28-03-2024 14:00:00,28.376058,77.315741,NH3,6,6,6
India,Haryana,Faridabad,"Sector 11, Faridabad - HSPCB",28-03-2024 14:00:00,28.376058,77.315741,CO,34,58,41
India,Haryana,Faridabad,"Sector 30, Faridabad - HSPCB",28-03-2024 14:00:00,28.4417,77.3217,NH3,9,9,9
India,Haryana,Fatehabad,"Huda Sector, Fatehabad - HSPCB",28-03-2024 14:00:00,29.503664,75.467934,PM10,38,53,48
India,Haryana,Fatehabad,"Huda Sector, Fatehabad - HSPCB",28-03-2024 14:00:00,29.503664,75.467934,NO2,34,47,38
India,Haryana,Fatehabad,"Huda Sector, Fatehabad - HSPCB",28-03-2024 14:00:00,29.503664,75.467934,SO2,10,11,11
India,Haryana,Fatehabad,"Huda Sector, Fatehabad - HSPCB",28-03-2024 14:00:00,29.503664,75.467934,OZONE,82,121,97
India,Haryana,Gurugram,"Sector-51, Gurugram - HSPCB",28-03-2024 14:00:00,28.4227,77.0667,PM2.5,32,310,118
India,Haryana,Gurugram,"Vikas Sadan, Gurugram - HSPCB",28-03-2024 14:00:00,28.4501238,77.0263051,SO2,32,54,42
India,Haryana,Hisar,"Urban Estate-II, Hisar - HSPCB",28-03-2024 14:00:00,29.140560,75.744941,PM10,61,89,77
India,Haryana,Jind,"Police Lines, Jind - HSPCB",28-03-2024 14:00:00,29.307814,76.337619,PM10,45,75,60
India,Haryana,Jind,"Police Lines, Jind - HSPCB",28-03-2024 14:00:00,29.307814,76.337619,NO2,7,16,11
India,Haryana,Jind,"Police Lines, Jind - HSPCB",28-03-2024 14:00:00,29.307814,76.337619,SO2,3,10,6
India,Haryana,Kaithal,"Rishi Nagar, Kaithal - HSPCB",28-03-2024 14:00:00,29.8006,76.4155,PM2.5,36,68,53
India,Haryana,Kaithal,"Rishi Nagar, Kaithal - HSPCB",28-03-2024 14:00:00,29.8006,76.4155,PM10,66,90,76
India,Haryana,Kaithal,"Rishi Nagar, Kaithal - HSPCB",28-03-2024 14:00:00,29.8006,76.4155,CO,8,26,21
India,Haryana,Karnal,"Sector-12, Karnal - HSPCB",28-03-2024 14:00:00,29.695300,77.002700,PM2.5,58,74,65
India,Haryana,Karnal,"Sector-12, Karnal - HSPCB",28-03-2024 14:00:00,29.695300,77.002700,OZONE,19,22,20
India,Haryana,Kurukshetra,"Sector-7, Kurukshetra - HSPCB",28-03-2024 14:00:00,29.966942,76.875879,PM2.5,41,63,51
India,Haryana,Kurukshetra,"Sector-7, Kurukshetra - HSPCB",28-03-2024 14:00:00,29.966942,76.875879,NO2,10,20,10
India,Haryana,Mandikhera,"General Hospital, Mandikhera - HSPCB",28-03-2024 14:00:00,27.9002,76.9938,OZONE,22,38,29
India,Haryana,Narnaul,"Shastri Nagar, Narnaul - HSPCB",28-03-2024 14:00:00,28.060249,76.113115,PM10,34,66,44
India,Haryana,Narnaul,"Shastri Nagar, Narnaul - HSPCB",28-03-2024 14:00:00,28.060249,76.113115,NO2,12,75,35
India,Haryana,Narnaul,"Shastri Nagar, Narnaul - HSPCB",28-03-2024 14:00:00,28.060249,76.113115,OZONE,35,56,39
India,Haryana,Panchkula,"Sector-6, Panchkula - HSPCB ",28-03-2024 14:00:00,30.7057778,76.8531805555555,OZONE,50,50,50
India,Haryana,Panipat,"Sector-18, Panipat - HSPCB",28-03-2024 14:00:00,29.497973,76.993331,PM10,NA,NA,NA
India,Haryana,Panipat,"Sector-18, Panipat - HSPCB",28-03-2024 14:00:00,29.497973,76.993331,CO,24,26,25
India,Haryana,Rohtak,"MD University, Rohtak - HSPCB",28-03-2024 14:00:00,28.52123,76.37138,PM2.5,1,26,7
India,Haryana,Rohtak,"MD University, Rohtak - HSPCB",28-03-2024 14:00:00,28.52123,76.37138,OZONE,46,53,48
India,Haryana,Sirsa,"F-Block, Sirsa - HSPCB",28-03-2024 14:00:00,29.536400,75.015800,PM2.5,NA,NA,NA
India,Haryana,Sirsa,"F-Block, Sirsa - HSPCB",28-03-2024 14:00:00,29.536400,75.015800,PM10,NA,NA,NA
India,Haryana,Sirsa,"F-Block, Sirsa - HSPCB",28-03-2024 14:00:00,29.536400,75.015800,CO,25,44,38
India,Haryana,Sonipat,"Murthal, Sonipat - HSPCB",28-03-2024 14:00:00,29.027200,77.062100,PM2.5,11,38,19
India,Haryana,Sonipat,"Murthal, Sonipat - HSPCB",28-03-2024 14:00:00,29.027200,77.062100,OZONE,17,36,28
India,Haryana,Yamuna Nagar,"Gobind Pura, Yamuna Nagar - HSPCB",28-03-2024 14:00:00,30.1480566,77.2893471,NH3,5,5,5
India,Himachal Pradesh,Baddi,"HIMUDA Complex Phase-1, Baddi - HPPCB",28-03-2024 14:00:00,30.943887,76.801991,OZONE,25,100,64
India,Jharkhand,Dhanbad,"Sardar Patel Nagar, Dhanbad - JSPCB",28-03-2024 14:00:00,23.80569,86.44268,NO2,NA,NA,NA
India,Karnataka,Bagalkot,"Vidayagiri, Bagalkot - KSPCB",28-03-2024 14:00:00,16.172806,75.659694,PM2.5,25,38,36
India,Karnataka,Bengaluru,"BTM Layout, Bengaluru - CPCB",28-03-2024 14:00:00,12.9135218,77.5950804,PM10,39,84,63
India,Karnataka,Bengaluru,"BTM Layout, Bengaluru - CPCB",28-03-2024 14:00:00,12.9135218,77.5950804,CO,43,44,44
India,Karnataka,Bengaluru,"BTM Layout, Bengaluru - CPCB",28-03-2024 14:00:00,12.9135218,77.5950804,OZONE,21,114,93
India,Karnataka,Bengaluru,"Bapuji Nagar, Bengaluru - KSPCB",28-03-2024 14:00:00,12.951913,77.539784,OZONE,4,29,16
India,Karnataka,Bengaluru,"Hebbal, Bengaluru - KSPCB",28-03-2024 14:00:00,13.029152,77.585901,PM2.5,33,130,71
India,Karnataka,Bengaluru,"Hebbal, Bengaluru - KSPCB",28-03-2024 14:00:00,13.029152,77.585901,SO2,12,19,15
India,Karnataka,Bengaluru,"Hombegowda Nagar, Bengaluru - KSPCB",28-03-2024 14:00:00,12.938539,77.590100,NO2,12,22,17
India,Karnataka,Bengaluru,"Jayanagar 5th Block, Bengaluru - KSPCB",28-03-2024 14:00:00,12.920984,77.584908,PM2.5,48,127,77
India,Karnataka,Bengaluru,"Jayanagar 5th Block, Bengaluru - KSPCB",28-03-2024 14:00:00,12.920984,77.584908,PM10,71,154,96
India,Karnataka,Bengaluru,"Jayanagar 5th Block, Bengaluru - KSPCB",28-03-2024 14:00:00,12.920984,77.584908,CO,30,58,52
India,Karnataka,Bengaluru,"Jigani, Bengaluru - KSPCB",28-03-2024 14:00:00,12.7816279,77.6299145,OZONE,43,63,55
India,Karnataka,Bengaluru,"Kasturi Nagar, Bengaluru - KSPCB",28-03-2024 14:00:00,13.003872,77.664217,PM2.5,89,136,108
India,Karnataka,Bengaluru,"Kasturi Nagar, Bengaluru - KSPCB",28-03-2024 14:00:00,13.003872,77.664217,SO2,10,10,10
India,Karnataka,Bengaluru,"Peenya, Bengaluru - CPCB",28-03-2024 14:00:00,13.0270199,77.494094,NH3,2,4,3
India,Karnataka,Bengaluru,"Peenya, Bengaluru - CPCB",28-03-2024 14:00:00,13.0270199,77.494094,CO,6,48,32
India,Karnataka,Bengaluru,"RVCE-Mailasandra, Bengaluru - KSPCB",28-03-2024 14:00:00,12.921418,77.502466,PM2.5,16,302,120
India,Karnataka,Bengaluru,"RVCE-Mailasandra, Bengaluru - KSPCB",28-03-2024 14:00:00,12.921418,77.502466,OZONE,10,10,10
India,Karnataka,Bengaluru,"Shivapura_Peenya, Bengaluru - KSPCB",28-03-2024 14:00:00,13.0246342,77.5080115,PM10,61,110,79
India,Karnataka,Bengaluru,"Silk Board, Bengaluru - KSPCB",28-03-2024 14:00:00,12.917348,77.622813,NO2,20,24,23
India,Karnataka,Bengaluru,"Silk Board, Bengaluru - KSPCB",28-03-2024 14:00:00,12.917348,77.622813,NH3,6,8,7
India,Karnataka,Bengaluru,"Silk Board, Bengaluru - KSPCB",28-03-2024 14:00:00,12.917348,77.622813,OZONE,29,30,30
India,Karnataka,Bidar,"Naubad, Bidar - KSPCB",28-03-2024 14:00:00,17.930306,77.482194,PM10,75,114,97
India,Karnataka,Bidar,"Naubad, Bidar - KSPCB",28-03-2024 14:00:00,17.930306,77.482194,SO2,14,20,17
India,Karnataka,Chikkaballapur,"Chikkaballapur Rural, Chikkaballapur - KSPCB",28-03-2024 14:00:00,13.428828,77.731418,OZONE,25,27,26
India,Karnataka,Davanagere,"Devaraj Urs Badavane, Davanagere - KSPCB",28-03-2024 14:00:00,14.475800,75.905200,CO,17,20,18
India,Karnataka,Dharwad,"Kalabhavan, Dharwad - KSPCB",28-03-2024 14:00:00,15.459706,75.008381,PM10,31,61,40
India,Karnataka,Dharwad,"Kalabhavan, Dharwad - KSPCB",28-03-2024 14:00:00,15.459706,75.008381,SO2,1,6,2
India,Karnataka,Dharwad,"Kalabhavan, Dharwad - KSPCB",28-03-2024 14:00:00,15.459706,75.008381,OZONE,2,35,6
India,Karnataka,Gadag,"Panchal Nagar, Gadag - KSPCB",28-03-2024 14:00:00,15.411456,75.638133,PM10,39,61,51
India,Karnataka,Gadag,"Panchal Nagar, Gadag - KSPCB",28-03-2024 14:00:00,15.411456,75.638133,SO2,11,20,15
India,Karnataka,Gadag,"Panchal Nagar, Gadag - KSPCB",28-03-2024 14:00:00,15.411456,75.638133,OZONE,17,123,43
India,Karnataka,Hubballi,"Deshpande Nagar, Hubballi - KSPCB",28-03-2024 14:00:00,15.351773,75.140726,SO2,1,2,1
India,Karnataka,Hubballi,"Deshpande Nagar, Hubballi - KSPCB",28-03-2024 14:00:00,15.351773,75.140726,CO,2,86,20
India,Karnataka,Hubballi,"Lingaraj Nagar, Hubballi - KSPCB",28-03-2024 14:00:00,15.3714823,75.1160168,PM10,44,76,56
India,Karnataka,Hubballi,"Lingaraj Nagar, Hubballi - KSPCB",28-03-2024 14:00:00,15.3714823,75.1160168,OZONE,8,46,22
India,Karnataka,Kalaburagi,"Lal Bahadur Shastri Nagar, Kalaburagi - KSPCB",28-03-2024 14:00:00,17.321993,76.822628,OZONE,22,98,47
India,Karnataka,Kalaburagi,"Mahatma Basaveswar Colony, Kalaburgi - KSPCB",28-03-2024 14:00:00,17.336318,76.847397,PM2.5,28,73,44
India,Karnataka,Kalaburagi,"Mahatma Basaveswar Colony, Kalaburgi - KSPCB",28-03-2024 14:00:00,17.336318,76.847397,PM10,32,92,54
India,Karnataka,Kalaburagi,"Mahatma Basaveswar Colony, Kalaburgi - KSPCB",28-03-2024 14:00:00,17.336318,76.847397,CO,36,49,41
India,Karnataka,Kolar,"Tamaka Ind. Area, Kolar - KSPCB",28-03-2024 14:00:00,13.1276288,78.1570122,NH3,1,24,10
India,Karnataka,Madikeri,"Stuart Hill, Madikeri - KSPCB",28-03-2024 14:00:00,12.415911,75.735050,PM2.5,28,61,44
India,Karnataka,Mangalore,"Kadri, Mangalore - KSPCB",28-03-2024 14:00:00,12.889250,74.853000,NO2,5,6,6
India,Karnataka,Mangalore,"Kadri, Mangalore - KSPCB",28-03-2024 14:00:00,12.889250,74.853000,NH3,1,2,2
India,Karnataka,Mysuru,"Hebbal 1st Stage, Mysuru - KSPCB",28-03-2024 14:00:00,12.21041,76.37376,CO,6,30,18
India,Karnataka,Raichur,"Haji Colony, Raichur - KSPCB",28-03-2024 14:00:00,16.208139,77.348417,SO2,68,86,76
India,Karnataka,Shivamogga,"Vinoba Nagara, Shivamogga - KSPCB",28-03-2024 14:00:00,13.940000,75.555917,PM2.5,36,46,43
India,Karnataka,Shivamogga,"Vinoba Nagara, Shivamogga - KSPCB",28-03-2024 14:00:00,13.940000,75.555917,PM10,53,70,66
India,Karnataka,Shivamogga,"Vinoba Nagara, Shivamogga - KSPCB",28-03-2024 14:00:00,13.940000,75.555917,SO2,4,12,10
India,Karnataka,Udupi,"Brahmagiri, Udupi - KSPCB",28-03-2024 14:00:00,13.34194444,74.74694444,SO2,12,18,14
India,Karnataka,Udupi,"Brahmagiri, Udupi - KSPCB",28-03-2024 14:00:00,13.34194444,74.74694444,CO,46,50,48
India,Karnataka,Udupi,"Brahmagiri, Udupi - KSPCB",28-03-2024 14:00:00,13.34194444,74.74694444,OZONE,23,24,23
India,Kerala,Eloor,"Udyogamandal, Eloor - Kerala PCB",28-03-2024 14:00:00,10.073232,76.302765,PM2.5,39,60,46
India,Kerala,Eloor,"Udyogamandal, Eloor - Kerala PCB",28-03-2024 14:00:00,10.073232,76.302765,PM10,39,51,42
India,Kerala,Kannur,"Thavakkara, Kannur - Kerala PCB",28-03-2024 14:00:00,11.875000,75.373200,PM2.5,48,62,56
India,Kerala,Kannur,"Thavakkara, Kannur - Kerala PCB",28-03-2024 14:00:00,11.875000,75.373200,PM10,61,76,69
India,Kerala,Kollam,"Polayathode, Kollam - Kerala PCB",28-03-2024 14:00:00,8.8787,76.6073,PM10,64,192,87
India,Kerala,Kollam,"Polayathode, Kollam - Kerala PCB",28-03-2024 14:00:00,8.8787,76.6073,NO2,8,9,8
India,Kerala,Kollam,"Polayathode, Kollam - Kerala PCB",28-03-2024 14:00:00,8.8787,76.6073,NH3,1,1,1
India,Kerala,Kollam,"Polayathode, Kollam - Kerala PCB",28-03-2024 14:00:00,8.8787,76.6073,CO,6,36,20
India,Kerala,Thiruvananthapuram,"Kariavattom, Thiruvananthapuram - Kerala PCB",28-03-2024 14:00:00,8.563700,76.886500,OZONE,28,32,29
India,Kerala,Thiruvananthapuram,"Plammoodu, Thiruvananthapuram - Kerala PCB",28-03-2024 14:00:00,8.5149093,76.9435879,PM2.5,32,59,45
India,Kerala,Thiruvananthapuram,"Plammoodu, Thiruvananthapuram - Kerala PCB",28-03-2024 14:00:00,8.5149093,76.9435879,SO2,6,14,9
India,Kerala,Thiruvananthapuram,"Plammoodu, Thiruvananthapuram - Kerala PCB",28-03-2024 14:00:00,8.5149093,76.9435879,OZONE,15,66,21
India,Kerala,Thrissur,"Corporation Ground, Thrissur - Kerala PCB",28-03-2024 14:00:00,10.532400,76.215900,PM10,59,70,65
India,Kerala,Thrissur,"Corporation Ground, Thrissur - Kerala PCB",28-03-2024 14:00:00,10.532400,76.215900,NH3,NA,NA,NA
India,Madhya Pradesh,Bhopal,"Idgah Hills, Bhopal - MPPCB",28-03-2024 14:00:00,23.264759,77.381568,PM10,79,215,132
India,Madhya Pradesh,Bhopal,"Idgah Hills, Bhopal - MPPCB",28-03-2024 14:00:00,23.264759,77.381568,NH3,5,10,7
India,Madhya Pradesh,Bhopal,"Idgah Hills, Bhopal - MPPCB",28-03-2024 14:00:00,23.264759,77.381568,SO2,18,21,20
India,Madhya Pradesh,Bhopal,"Paryavaran Parisar, Bhopal - MPPCB",28-03-2024 14:00:00,23.210494,77.425409,NH3,7,13,10
India,Madhya Pradesh,Bhopal,"T T Nagar, Bhopal - MPPCB",28-03-2024 14:00:00,23.233584,77.400574,PM10,92,236,148
India,Madhya Pradesh,Bhopal,"T T Nagar, Bhopal - MPPCB",28-03-2024 14:00:00,23.233584,77.400574,SO2,15,36,23
India,Madhya Pradesh,Bhopal,"T T Nagar, Bhopal - MPPCB",28-03-2024 14:00:00,23.233584,77.400574,OZONE,4,174,99
India,Madhya Pradesh,Dewas,"Bhopal Chauraha, Dewas - MPPCB",28-03-2024 14:00:00,22.9682591,76.064118,PM10,94,245,141
India,Madhya Pradesh,Dewas,"Bhopal Chauraha, Dewas - MPPCB",28-03-2024 14:00:00,22.9682591,76.064118,NH3,3,3,3
India,Madhya Pradesh,Dewas,"Bhopal Chauraha, Dewas - MPPCB",28-03-2024 14:00:00,22.9682591,76.064118,OZONE,28,112,62
India,Madhya Pradesh,Gwalior,"City Center, Gwalior - MPPCB",28-03-2024 14:00:00,26.203442,78.193251,SO2,10,54,32
India,Madhya Pradesh,Gwalior,"City Center, Gwalior - MPPCB",28-03-2024 14:00:00,26.203442,78.193251,CO,16,120,47
India,Madhya Pradesh,Indore,"Chhoti Gwaltoli, Indore - MPPCB",28-03-2024 14:00:00,22.4310,75.5213,NH3,5,10,7
India,Madhya Pradesh,Jabalpur,"Govindh Bhavan Colony, Jabalpur - JMC",28-03-2024 14:00:00,23.163174,79.973061,PM10,54,117,74
India,Madhya Pradesh,Jabalpur,"Govindh Bhavan Colony, Jabalpur - JMC",28-03-2024 14:00:00,23.163174,79.973061,CO,9,24,17
India,Madhya Pradesh,Jabalpur,"Marhatal, Jabalpur - MPPCB",28-03-2024 14:00:00,23.168606,79.932247,SO2,8,34,13
India,Madhya Pradesh,Jabalpur,"Suhagi, Jabalpur - JMC",28-03-2024 14:00:00,23.218135,79.957770,CO,36,134,66
India,Madhya Pradesh,Katni,"Gole Bazar, Katni - MPPCB",28-03-2024 14:00:00,23.50016,80.23284,OZONE,3,112,64
India,Madhya Pradesh,Mandideep,"Sector-D Industrial Area, Mandideep - MPPCB",28-03-2024 14:00:00,23.108440,77.511428,NH3,2,4,3
India,Madhya Pradesh,Mandideep,"Sector-D Industrial Area, Mandideep - MPPCB",28-03-2024 14:00:00,23.108440,77.511428,OZONE,8,67,35
India,Madhya Pradesh,Pithampur,"Sector-2 Industrial Area, Pithampur - MPPCB",28-03-2024 14:00:00,22.624758,75.675238,PM10,94,230,135
India,Madhya Pradesh,Sagar,"Civil Lines, Sagar - MPPCB",28-03-2024 14:00:00,23.838586,78.759431,SO2,7,67,14
India,Madhya Pradesh,Ujjain,"Mahakaleshwar Temple, Ujjain - MPPCB",28-03-2024 14:00:00,23.182719 ,75.768218 ,CO,10,104,62
India,Madhya Pradesh,Ujjain,"Mahakaleshwar Temple, Ujjain - MPPCB",28-03-2024 14:00:00,23.182719 ,75.768218 ,OZONE,118,144,126
India,Maharashtra,Ahmednagar,"Tarakpur, Ahmednagar - MPCB",28-03-2024 14:00:00,19.10122,74.73339,NO2,23,103,56
India,Maharashtra,Akola,"Ramdaspeth, Akola - MPCB",28-03-2024 14:00:00,20.719516,77.000253,NO2,10,118,38
India,Maharashtra,Akola,"Ramdaspeth, Akola - MPCB",28-03-2024 14:00:00,20.719516,77.000253,CO,24,162,39
India,Maharashtra,Akola,"Ramdaspeth, Akola - MPCB",28-03-2024 14:00:00,20.719516,77.000253,OZONE,4,137,80
India,Maharashtra,Amravati,"Shivneri Colony, Amravati - MPCB",28-03-2024 14:00:00,20.9402359,77.7895248,NH3,1,3,2
India,Maharashtra,Amravati,"Shivneri Colony, Amravati - MPCB",28-03-2024 14:00:00,20.9402359,77.7895248,SO2,22,23,22
India,Maharashtra,Aurangabad,"MIDC Chilkalthana, Aurangabad - MPCB",28-03-2024 14:00:00,19.875620,75.387310,NO2,7,151,37
India,Maharashtra,Aurangabad,"MIDC Chilkalthana, Aurangabad - MPCB",28-03-2024 14:00:00,19.875620,75.387310,CO,2,122,85
India,Maharashtra,Aurangabad,"More Chowk Waluj, Aurangabad - MPCB",28-03-2024 14:00:00,19.8389439,75.244448,PM10,88,181,125
India,Maharashtra,Aurangabad,"Rachnakar Colony, Aurangabad - MPCB",28-03-2024 14:00:00,19.863756,75.321188,NH3,1,1,1
India,Maharashtra,Badlapur,"Katrap, Badlapur - MPCB",28-03-2024 14:00:00,19.16485,73.23409,CO,16,99,51
India,Maharashtra,Belapur,"CBD Belapur, Belapur - MPCB",28-03-2024 14:00:00,19.0243902,73.0406721,PM2.5,39,142,69
India,Maharashtra,Belapur,"CBD Belapur, Belapur - MPCB",28-03-2024 14:00:00,19.0243902,73.0406721,NO2,15,35,22
India,Maharashtra,Belapur,"CBD Belapur, Belapur - MPCB",28-03-2024 14:00:00,19.0243902,73.0406721,OZONE,5,88,32
India,Maharashtra,Boisar,"Khaira, Boisar - MPCB",28-03-2024 14:00:00,19.786089,72.757971,NH3,1,19,5
India,Maharashtra,Chandrapur,"Chauhan Colony, Chandrapur - MPCB",28-03-2024 14:00:00,19.962900,79.298714,PM2.5,42,112,71
India,Maharashtra,Chandrapur,"Chauhan Colony, Chandrapur - MPCB",28-03-2024 14:00:00,19.962900,79.298714,NO2,11,37,19
India,Maharashtra,Jalgaon,"Prabhat Colony, Jalgaon - MPCB",28-03-2024 14:00:00,21.001264,75.565602,NH3,3,10,7
India,Maharashtra,Jalna,"Old MIDC, Jalna - MPCB",28-03-2024 14:00:00,19.854616,75.905894,PM10,125,352,173
India,Maharashtra,Jalna,"Old MIDC, Jalna - MPCB",28-03-2024 14:00:00,19.854616,75.905894,CO,28,44,35
India,Maharashtra,Kalyan,"Khadakpada, Kalyan - MPCB",28-03-2024 14:00:00,19.25292,73.142019,SO2,29,36,32
India,Maharashtra,Kolhapur,"Shivaji University, Kolhapur - MPCB",28-03-2024 14:00:00,16.6870449,74.2505872,CO,36,82,59
India,Maharashtra,Kolhapur,"Shivaji University, Kolhapur - MPCB",28-03-2024 14:00:00,16.6870449,74.2505872,OZONE,1,76,18
India,Maharashtra,Kolhapur,"Sinchan Bhavan, Kolhapur - MPCB",28-03-2024 14:00:00,16.7143745,74.2426398,PM10,61,112,87
India,Maharashtra,Kolhapur,"Sinchan Bhavan, Kolhapur - MPCB",28-03-2024 14:00:00,16.7143745,74.2426398,NO2,14,48,23
India,Maharashtra,Kolhapur,"Sinchan Bhavan, Kolhapur - MPCB",28-03-2024 14:00:00,16.7143745,74.2426398,SO2,1,18,5
India,Maharashtra,Latur,"Sawe Wadi, Latur - MPCB",28-03-2024 14:00:00,18.39963,76.57452,OZONE,6,79,40
India,Maharashtra,Mahad,"Kamble Tarf Birwadi, Mahad - MPCB",28-03-2024 14:00:00,18.1023399,73.4783687,PM10,51,93,73
India,Maharashtra,Mahad,"Kamble Tarf Birwadi, Mahad - MPCB",28-03-2024 14:00:00,18.1023399,73.4783687,NO2,17,82,30
India,Maharashtra,Mahad,"Kamble Tarf Birwadi, Mahad - MPCB",28-03-2024 14:00:00,18.1023399,73.4783687,NH3,10,10,10
India,Maharashtra,Mahad,"Kamble Tarf Birwadi, Mahad - MPCB",28-03-2024 14:00:00,18.1023399,73.4783687,CO,10,73,20
India,Maharashtra,Mira-Bhayandar,"Bhayandar West, Mira-Bhayandar - MPCB",28-03-2024 14:00:00,19.296481,72.840923,PM2.5,31,69,48
India,Maharashtra,Mira-Bhayandar,"Bhayandar West, Mira-Bhayandar - MPCB",28-03-2024 14:00:00,19.296481,72.840923,NO2,4,24,11
India,Maharashtra,Mumbai,"Bandra Kurla Complex, Mumbai - MPCB",28-03-2024 14:00:00,19.065931,72.862131,NO2,NA,NA,NA
India,Maharashtra,Mumbai,"Bandra Kurla Complex, Mumbai - MPCB",28-03-2024 14:00:00,19.065931,72.862131,CO,14,40,33
India,Maharashtra,Mumbai,"Borivali East, Mumbai - MPCB",28-03-2024 14:00:00,19.2243333,72.8658113,NO2,5,36,11
India,Maharashtra,Mumbai,"Borivali East, Mumbai - MPCB",28-03-2024 14:00:00,19.2243333,72.8658113,NH3,1,2,1
India,Maharashtra,Mumbai,"Borivali East, Mumbai - MPCB",28-03-2024 14:00:00,19.2243333,72.8658113,SO2,5,9,7
India,Maharashtra,Mumbai,"Borivali East, Mumbai - MPCB",28-03-2024 14:00:00,19.2243333,72.8658113,OZONE,15,15,15
India,Maharashtra,Mumbai,"Byculla, Mumbai - BMC",28-03-2024 14:00:00,18.9767,72.8380,PM10,26,52,38
India,Maharashtra,Mumbai,"Byculla, Mumbai - BMC",28-03-2024 14:00:00,18.9767,72.8380,SO2,1,6,3
India,Maharashtra,Mumbai,"Byculla, Mumbai - BMC",28-03-2024 14:00:00,18.9767,72.8380,OZONE,5,40,23
India,Maharashtra,Mumbai,"Chakala-Andheri East, Mumbai - IITM",28-03-2024 14:00:00,19.11074,72.86084,PM10,41,239,80
India,Maharashtra,Mumbai,"Chakala-Andheri East, Mumbai - IITM",28-03-2024 14:00:00,19.11074,72.86084,SO2,15,64,31
India,Maharashtra,Mumbai,"Chakala-Andheri East, Mumbai - IITM",28-03-2024 14:00:00,19.11074,72.86084,OZONE,12,58,29
India,Maharashtra,Mumbai,"Chembur, Mumbai - MPCB",28-03-2024 14:00:00,19.0364585,72.8954371,NH3,3,4,3
India,Maharashtra,Mumbai,"Chhatrapati Shivaji Intl. Airport (T2), Mumbai - MPCB",28-03-2024 14:00:00,19.10078,72.87462,SO2,20,28,23
India,Maharashtra,Mumbai,"Chhatrapati Shivaji Intl. Airport (T2), Mumbai - MPCB",28-03-2024 14:00:00,19.10078,72.87462,CO,36,73,68
India,Maharashtra,Mumbai,"Chhatrapati Shivaji Intl. Airport (T2), Mumbai - MPCB",28-03-2024 14:00:00,19.10078,72.87462,OZONE,4,6,4
India,Maharashtra,Mumbai,"Ghatkopar, Mumbai - BMC",28-03-2024 14:00:00,19.083694,72.920967,CO,1,32,19
India,Maharashtra,Mumbai,"Kandivali East, Mumbai - MPCB",28-03-2024 14:00:00,19.205800,72.868200,PM10,73,225,109
India,Maharashtra,Mumbai,"Kandivali East, Mumbai - MPCB",28-03-2024 14:00:00,19.205800,72.868200,NO2,15,251,41
India,Maharashtra,Mumbai,"Kandivali East, Mumbai - MPCB",28-03-2024 14:00:00,19.205800,72.868200,SO2,20,115,80
India,Maharashtra,Mumbai,"Kandivali West, Mumbai - BMC",28-03-2024 14:00:00,19.215859,72.831718,PM2.5,3,41,25
India,Maharashtra,Mumbai,"Kandivali West, Mumbai - BMC",28-03-2024 14:00:00,19.215859,72.831718,NO2,9,49,17
India,Maharashtra,Mumbai,"Kherwadi_Bandra East, Mumbai - MPCB",28-03-2024 14:00:00,19.0632143,72.8456324,PM2.5,20,61,42
India,Maharashtra,Mumbai,"Kherwadi_Bandra East, Mumbai - MPCB",28-03-2024 14:00:00,19.0632143,72.8456324,NH3,4,10,6
India,Maharashtra,Mumbai,"Khindipada-Bhandup West, Mumbai - IITM",28-03-2024 14:00:00,19.1653323,72.922099,SO2,2,6,5
India,Maharashtra,Mumbai,"Khindipada-Bhandup West, Mumbai - IITM",28-03-2024 14:00:00,19.1653323,72.922099,CO,2,61,22
India,Maharashtra,Mumbai,"Kurla, Mumbai - MPCB",28-03-2024 14:00:00,19.0863,72.8888,NO2,13,29,19
India,Maharashtra,Mumbai,"Kurla, Mumbai - MPCB",28-03-2024 14:00:00,19.0863,72.8888,CO,6,26,21
India,Maharashtra,Mumbai,"Mazgaon, Mumbai - IITM",28-03-2024 14:00:00,18.96702,72.84214,OZONE,12,73,31
India,Maharashtra,Mumbai,"Mindspace-Malad West, Mumbai - MPCB",28-03-2024 14:00:00,19.1878657,72.8304069,SO2,1,5,1
India,Maharashtra,Mumbai,"Mindspace-Malad West, Mumbai - MPCB",28-03-2024 14:00:00,19.1878657,72.8304069,CO,10,30,19
India,Maharashtra,Mumbai,"Mulund West, Mumbai - MPCB",28-03-2024 14:00:00,19.1750,72.9419,CO,35,36,35
India,Maharashtra,Mumbai,"Navy Nagar-Colaba, Mumbai - IITM",28-03-2024 14:00:00,18.897756,72.813320,PM10,37,70,59
India,Maharashtra,Mumbai,"Navy Nagar-Colaba, Mumbai - IITM",28-03-2024 14:00:00,18.897756,72.813320,CO,17,41,26
India,Maharashtra,Mumbai,"Navy Nagar-Colaba, Mumbai - IITM",28-03-2024 14:00:00,18.897756,72.813320,OZONE,29,71,39
India,Maharashtra,Mumbai,"Sewri, Mumbai - BMC",28-03-2024 14:00:00,19.000084,72.856730,NH3,3,8,6
India,Maharashtra,Mumbai,"Sewri, Mumbai - BMC",28-03-2024 14:00:00,19.000084,72.856730,OZONE,1,25,12
India,Maharashtra,Mumbai,"Sion, Mumbai - MPCB",28-03-2024 14:00:00,19.047000,72.874600,PM2.5,38,87,58
India,Maharashtra,Mumbai,"Sion, Mumbai - MPCB",28-03-2024 14:00:00,19.047000,72.874600,NH3,1,1,1
India,Maharashtra,Mumbai,"Sion, Mumbai - MPCB",28-03-2024 14:00:00,19.047000,72.874600,SO2,34,39,36
India,Maharashtra,Mumbai,"Vasai West, Mumbai - MPCB",28-03-2024 14:00:00,19.383200,72.820400,OZONE,8,25,15
India,Maharashtra,Nagpur,"Mahal, Nagpur - MPCB",28-03-2024 14:00:00,21.14472,79.107595,PM10,NA,NA,NA
India,Maharashtra,Nagpur,"Mahal, Nagpur - MPCB",28-03-2024 14:00:00,21.14472,79.107595,NH3,NA,NA,NA
India,Maharashtra,Nagpur,"Mahal, Nagpur - MPCB",28-03-2024 14:00:00,21.14472,79.107595,OZONE,42,82,62
India,Maharashtra,Nagpur,"Opp GPO Civil Lines, Nagpur - MPCB",28-03-2024 14:00:00,21.152875,79.0517531,SO2,2,40,18
India,Maharashtra,Nagpur,"Ram Nagar, Nagpur - MPCB",28-03-2024 14:00:00,21.143383,79.048912,PM10,72,153,114
India,Maharashtra,Nagpur,"Ram Nagar, Nagpur - MPCB",28-03-2024 14:00:00,21.143383,79.048912,OZONE,4,123,55
India,Maharashtra,Nanded,"Sneh Nagar, Nanded - MPCB",28-03-2024 14:00:00,19.173852,77.296291,PM2.5,64,260,105
India,Maharashtra,Nashik,"Gangapur Road, Nashik - MPCB",28-03-2024 14:00:00,20.0073285,73.7762427,PM10,51,132,88
India,Maharashtra,Nashik,"Gangapur Road, Nashik - MPCB",28-03-2024 14:00:00,20.0073285,73.7762427,CO,22,24,22
India,Maharashtra,Nashik,"Hirawadi, Nashik - MPCB",28-03-2024 14:00:00,20.021503,73.813844,NO2,7,40,17
India,Maharashtra,Nashik,"MIDC Ambad, Nashik - MPCB",28-03-2024 14:00:00,19.950220,73.731480,PM10,55,89,71
India,Maharashtra,Nashik,"MIDC Ambad, Nashik - MPCB",28-03-2024 14:00:00,19.950220,73.731480,NH3,2,2,2
India,Maharashtra,Nashik,"Pandav Nagari, Nashik - MPCB",28-03-2024 14:00:00,19.9591346,73.7788008,PM2.5,55,80,65
India,Maharashtra,Navi Mumbai,"Kopripada-Vashi, Navi Mumbai - MPCB",28-03-2024 14:00:00,19.090337,73.014232,PM2.5,42,320,127
India,Maharashtra,Navi Mumbai,"Kopripada-Vashi, Navi Mumbai - MPCB",28-03-2024 14:00:00,19.090337,73.014232,PM10,67,278,138
India,Maharashtra,Navi Mumbai,"Nerul, Navi Mumbai - MPCB",28-03-2024 14:00:00,19.008751,73.016620,NO2,12,24,18
India,Maharashtra,Pimpri-Chinchwad,"Gavalinagar, Pimpri Chinchwad - MPCB",28-03-2024 14:00:00,18.63673,73.82487,OZONE,9,254,230
India,Maharashtra,Pune,"Bhosari, Pune - IITM",28-03-2024 14:00:00,18.640051,73.848956,PM10,74,120,94
India,Maharashtra,Pune,"Karve Road, Pune - MPCB",28-03-2024 14:00:00,18.5011743,73.8165527,NO2,2,2,2
India,Maharashtra,Pune,"Katraj Dairy, Pune - MPCB",28-03-2024 14:00:00,18.454450,73.854155,NH3,1,6,3
India,Maharashtra,Pune,"Mhada Colony, Pune - IITM",28-03-2024 14:00:00,18.573040,73.927715,PM2.5,36,108,69
India,Maharashtra,Pune,"Mhada Colony, Pune - IITM",28-03-2024 14:00:00,18.573040,73.927715,NO2,2,21,13
India,Maharashtra,Pune,"Revenue Colony-Shivajinagar, Pune - IITM",28-03-2024 14:00:00,18.530085,73.849598,OZONE,3,62,25
India,Maharashtra,Pune,"Transport Nagar-Nigdi, Pune - IITM",28-03-2024 14:00:00,18.664282,73.763966,PM2.5,28,84,50
India,Maharashtra,Sangli,"Vijay Nagar, Sangli - MPCB",28-03-2024 14:00:00, 16.5038,74.3623,PM10,80,144,103
India,Maharashtra,Sangli,"Vijay Nagar, Sangli - MPCB",28-03-2024 14:00:00, 16.5038,74.3623,SO2,4,40,14
India,Maharashtra,Sangli,"Vijay Nagar, Sangli - MPCB",28-03-2024 14:00:00, 16.5038,74.3623,CO,18,92,50
India,Maharashtra,Solapur,"Dnyaneshwar Nagar, Solapur - MPCB",28-03-2024 14:00:00,17.6336264,75.9132495,OZONE,32,91,56
India,Maharashtra,Solapur,"Ratandeep Housing Society, Solapur - MPCB",28-03-2024 14:00:00,17.65439,75.90649,SO2,6,55,16
India,Maharashtra,Solapur,"Ratandeep Housing Society, Solapur - MPCB",28-03-2024 14:00:00,17.65439,75.90649,CO,18,39,30
India,Maharashtra,Solapur,"Ratandeep Housing Society, Solapur - MPCB",28-03-2024 14:00:00,17.65439,75.90649,OZONE,58,163,96
India,Maharashtra,Thane,"Pimpleshwar Mandir, Thane - MPCB",28-03-2024 14:00:00,19.192056,72.9585188,CO,38,147,99
India,Maharashtra,Thane,"Upvan Fort, Thane - MPCB",28-03-2024 14:00:00,19.222279,72.957979,SO2,3,92,18
India,Maharashtra,Thane,"Upvan Fort, Thane - MPCB",28-03-2024 14:00:00,19.222279,72.957979,CO,2,52,29
India,Maharashtra,Ulhasnagar,"Sidhi Vinayak Nagar, Ulhasnagar - MPCB",28-03-2024 14:00:00,19.235581,73.159121,NO2,9,20,14
India,Maharashtra,Virar,"Bolinj, Virar - MPCB",28-03-2024 14:00:00,19.4458210,72.7988231,CO,10,120,61
India,Manipur,Imphal,"Manipur University, Imphal - Manipur PCB",28-03-2024 14:00:00,24.7524239,93.9286218,PM2.5,41,329,107
India,Manipur,Imphal,"Manipur University, Imphal - Manipur PCB",28-03-2024 14:00:00,24.7524239,93.9286218,NO2,7,36,13
India,Manipur,Imphal,"Manipur University, Imphal - Manipur PCB",28-03-2024 14:00:00,24.7524239,93.9286218,CO,10,52,17
India,Meghalaya,Shillong,"Lumpyngngad, Shillong - Meghalaya PCB",28-03-2024 14:00:00,25.5586,91.8985,CO,8,24,17
India,Mizoram,Aizawl,"Sikulpuikawn, Aizawl - Mizoram PCB",28-03-2024 14:00:00,23.7176342,92.7192841,PM2.5,42,88,69
India,Mizoram,Aizawl,"Sikulpuikawn, Aizawl - Mizoram PCB",28-03-2024 14:00:00,23.7176342,92.7192841,SO2,2,2,2
India,Mizoram,Aizawl,"Sikulpuikawn, Aizawl - Mizoram PCB",28-03-2024 14:00:00,23.7176342,92.7192841,CO,15,22,17
India,Nagaland,Kohima,"PWD Juction, Kohima - NPCB",28-03-2024 14:00:00,25.6635413,94.0989878,SO2,30,31,31
India,Nagaland,Kohima,"PWD Juction, Kohima - NPCB",28-03-2024 14:00:00,25.6635413,94.0989878,CO,8,26,17
India,Nagaland,Kohima,"PWD Juction, Kohima - NPCB",28-03-2024 14:00:00,25.6635413,94.0989878,OZONE,12,39,22
India,Odisha,Angul,"Hakimapada, Angul - OSPCB",28-03-2024 14:00:00,20.832874,85.104082,CO,14,125,77
India,Odisha,Angul,"Hakimapada, Angul - OSPCB",28-03-2024 14:00:00,20.832874,85.104082,OZONE,4,302,302
India,Odisha,Balasore,"Kalidaspur, Balasore - OSPCB",28-03-2024 14:00:00,21.51161,86.89088,NO2,9,32,16
India,Odisha,Balasore,"Kalidaspur, Balasore - OSPCB",28-03-2024 14:00:00,21.51161,86.89088,CO,30,101,96
India,Odisha,Barbil,"Forest Office, Barbil - OSPCB",28-03-2024 14:00:00,22.1166054,85.3945546,NO2,5,15,8
India,Odisha,Bhubaneswar,"Lingraj Mandir, Bhubaneswar - OSPCB",28-03-2024 14:00:00,20.240790,85.836784,SO2,1,13,5
India,Odisha,Bhubaneswar,"Lingraj Mandir, Bhubaneswar - OSPCB",28-03-2024 14:00:00,20.240790,85.836784,OZONE,12,125,55
India,Odisha,Bhubaneswar,"Patia, Bhubaneswar - OSPCB",28-03-2024 14:00:00,20.34652,85.81630,PM10,6,171,70
India,Odisha,Bhubaneswar,"Patia, Bhubaneswar - OSPCB",28-03-2024 14:00:00,20.34652,85.81630,OZONE,11,186,186
India,Odisha,Bileipada,"Tata Township, Bileipada - OSPCB",28-03-2024 14:00:00,22.06156703,85.47409613,PM2.5,124,260,208
India,Odisha,Bileipada,"Tata Township, Bileipada - OSPCB",28-03-2024 14:00:00,22.06156703,85.47409613,PM10,161,372,275
India,Odisha,Brajrajnagar,"GM Office, Brajrajnagar - OSPCB",28-03-2024 14:00:00,21.8004996,83.8396977,PM10,65,195,125
India,Odisha,Brajrajnagar,"GM Office, Brajrajnagar - OSPCB",28-03-2024 14:00:00,21.8004996,83.8396977,NO2,15,17,16
India,Odisha,Cuttack,"CDA Area, Cuttack - OSPCB",28-03-2024 14:00:00,20.48891     ,85.84768     ,SO2,1,26,3
India,Odisha,Cuttack,"CDA Area, Cuttack - OSPCB",28-03-2024 14:00:00,20.48891     ,85.84768     ,OZONE,6,159,159
India,Odisha,Keonjhar,"Jagamohanpur, Keonjhar - OSPCB",28-03-2024 14:00:00,21.643900,85.599355,CO,12,84,31
India,Odisha,Rairangpur,"Divisional Forest Office, Rairangpur - OSPCB",28-03-2024 14:00:00,22.265816,86.174829,PM10,93,127,111
India,Odisha,Rourkela,"Raghunathpali, Rourkela - OSPCB",28-03-2024 14:00:00,22.220833,84.809444,PM10,119,241,158
India,Odisha,Rourkela,"Sector-2, Rourkela - OSPCB",28-03-2024 14:00:00,22.24500000,84.88111111,PM10,121,199,155
India,Odisha,Rourkela,"Sector-2, Rourkela - OSPCB",28-03-2024 14:00:00,22.24500000,84.88111111,CO,30,110,47
India,Odisha,Suakati,"OMC Colony, Suakati - OSPCB",28-03-2024 14:00:00,21.606865,85.510538,NH3,NA,NA,NA
India,Odisha,Suakati,"OMC Colony, Suakati - OSPCB",28-03-2024 14:00:00,21.606865,85.510538,SO2,10,60,23
India,Odisha,Talcher,"Talcher Coalfields,Talcher - OSPCB",28-03-2024 14:00:00,20.9360711,85.1707021,PM2.5,9,236,102
India,Odisha,Tensa,"Barsua Iron Ore Mines, Tensa - OSPCB",28-03-2024 14:00:00,21.869985,85.167016,PM10,20,134,111
India,Odisha,Tensa,"Barsua Iron Ore Mines, Tensa - OSPCB",28-03-2024 14:00:00,21.869985,85.167016,CO,16,28,22
India,Punjab,Amritsar,"Golden Temple, Amritsar - PPCB",28-03-2024 14:00:00,31.620000,74.876512,PM2.5,19,153,49
India,Punjab,Amritsar,"Golden Temple, Amritsar - PPCB",28-03-2024 14:00:00,31.620000,74.876512,OZONE,46,72,58
India,Punjab,Jalandhar,"Civil Line, Jalandhar - PPCB",28-03-2024 14:00:00,31.321907,75.578914,PM2.5,33,94,58
India,Punjab,Jalandhar,"Civil Line, Jalandhar - PPCB",28-03-2024 14:00:00,31.321907,75.578914,CO,17,64,31
India,Punjab,Khanna,"Kalal Majra, Khanna - PPCB",28-03-2024 14:00:00,30.736056 ,76.209694,PM2.5,45,66,54
India,Punjab,Khanna,"Kalal Majra, Khanna - PPCB",28-03-2024 14:00:00,30.736056 ,76.209694,CO,20,24,21
India,Punjab,Khanna,"Kalal Majra, Khanna - PPCB",28-03-2024 14:00:00,30.736056 ,76.209694,OZONE,20,81,23
India,Punjab,Ludhiana,"Punjab Agricultural University, Ludhiana - PPCB",28-03-2024 14:00:00,30.9028,75.8086,SO2,9,16,13
India,Punjab,Mandi Gobindgarh,"RIMT University, Mandi Gobindgarh - PPCB",28-03-2024 14:00:00,30.649961,76.331442,PM2.5,41,342,152
India,Punjab,Mandi Gobindgarh,"RIMT University, Mandi Gobindgarh - PPCB",28-03-2024 14:00:00,30.649961,76.331442,NO2,23,24,23
India,Punjab,Mandi Gobindgarh,"RIMT University, Mandi Gobindgarh - PPCB",28-03-2024 14:00:00,30.649961,76.331442,NH3,3,3,3
India,Punjab,Mandi Gobindgarh,"RIMT University, Mandi Gobindgarh - PPCB",28-03-2024 14:00:00,30.649961,76.331442,SO2,6,53,16
India,Punjab,Patiala,"Model Town, Patiala - PPCB",28-03-2024 14:00:00,30.349388,76.366642,PM10,59,130,91
India,Punjab,Patiala,"Model Town, Patiala - PPCB",28-03-2024 14:00:00,30.349388,76.366642,SO2,2,29,10
India,Punjab,Rupnagar,"Ratanpura, Rupnagar - Ambuja Cements",28-03-2024 14:00:00,31.0325454,76.5623046,PM2.5,61,303,132
India,Rajasthan,Ajmer,"Civil Lines,  Ajmer - RSPCB",28-03-2024 14:00:00,26.470859,74.646594,CO,6,108,24
India,Rajasthan,Alwar,"Moti Doongri, Alwar - RSPCB",28-03-2024 14:00:00,27.554793,76.611536,PM10,61,130,93
India,Rajasthan,Banswara,"Rati Talai, Banswara - RSPCB",28-03-2024 14:00:00,23.555190,74.440010,NH3,3,13,7
India,Rajasthan,Banswara,"Rati Talai, Banswara - RSPCB",28-03-2024 14:00:00,23.555190,74.440010,SO2,14,103,53
India,Rajasthan,Baran,"Bamboliya, Baran - RSPCB",28-03-2024 14:00:00,25.106006,76.469948,PM2.5,44,104,66
India,Rajasthan,Baran,"Bamboliya, Baran - RSPCB",28-03-2024 14:00:00,25.106006,76.469948,PM10,58,125,98
India,Rajasthan,Baran,"Bamboliya, Baran - RSPCB",28-03-2024 14:00:00,25.106006,76.469948,NO2,7,45,19
India,Rajasthan,Bhilwara,"Pratap Nagar, Bhilwara - RSPCB",28-03-2024 14:00:00,25.339605,74.618883,CO,18,78,28
India,Rajasthan,Bhiwadi,"Vasundhara Nagar_UIT, Bhiwadi - RSPCB",28-03-2024 14:00:00,28.207266,76.829265,PM10,81,194,132
India,Rajasthan,Bikaner,"MM Ground, Bikaner - RSPCB",28-03-2024 14:00:00,28.018792,73.292658,CO,19,140,35
India,Rajasthan,Bikaner,"MM Ground, Bikaner - RSPCB",28-03-2024 14:00:00,28.018792,73.292658,OZONE,4,70,46
India,Rajasthan,Bundi,"New Colony, Bundi - RSPCB",28-03-2024 14:00:00,25.435774,75.644272,PM10,78,382,163
India,Rajasthan,Bundi,"New Colony, Bundi - RSPCB",28-03-2024 14:00:00,25.435774,75.644272,NH3,3,4,3
India,Rajasthan,Bundi,"New Colony, Bundi - RSPCB",28-03-2024 14:00:00,25.435774,75.644272,SO2,6,37,12
India,Rajasthan,Bundi,"New Colony, Bundi - RSPCB",28-03-2024 14:00:00,25.435774,75.644272,OZONE,5,127,68
India,Rajasthan,Chittorgarh,"Shastri Nagar, Chittorgarh - RSPCB",28-03-2024 14:00:00,24.892047,74.623527,PM2.5,3,163,63
India,Rajasthan,Churu,"Subash Chowk, Churu - RSPCB",28-03-2024 14:00:00,28.296139,74.961696,NO2,NA,NA,NA
India,Rajasthan,Dausa,"Khatikan Mohalla, Dausa - RSPCB",28-03-2024 14:00:00,26.895552,76.334753,PM2.5,37,140,68
India,Rajasthan,Dausa,"Khatikan Mohalla, Dausa - RSPCB",28-03-2024 14:00:00,26.895552,76.334753,PM10,112,215,145
India,Rajasthan,Dausa,"Khatikan Mohalla, Dausa - RSPCB",28-03-2024 14:00:00,26.895552,76.334753,NO2,18,126,32
India,Rajasthan,Dausa,"Khatikan Mohalla, Dausa - RSPCB",28-03-2024 14:00:00,26.895552,76.334753,CO,1,118,27
India,Rajasthan,Dholpur,"Raja Ganj, Dholpur - RSPCB",28-03-2024 14:00:00,26.699557,77.898881,PM2.5,27,315,121
India,Rajasthan,Dholpur,"Raja Ganj, Dholpur - RSPCB",28-03-2024 14:00:00,26.699557,77.898881,NH3,10,18,13
India,Rajasthan,Dungarpur,"Bhoiwada, Dungarpur - RSPCB",28-03-2024 14:00:00,23.837789,73.714926,PM2.5,37,60,48
India,Rajasthan,Dungarpur,"Bhoiwada, Dungarpur - RSPCB",28-03-2024 14:00:00,23.837789,73.714926,OZONE,14,82,38
India,Rajasthan,Jaipur,"Adarsh Nagar, Jaipur - RSPCB",28-03-2024 14:00:00,26.902909,75.836858,PM2.5,7,111,71
India,Rajasthan,Jaipur,"Adarsh Nagar, Jaipur - RSPCB",28-03-2024 14:00:00,26.902909,75.836858,NO2,17,77,30
India,Rajasthan,Jaipur,"Mansarovar Sector-12, Jaipur - RSPCB",28-03-2024 14:00:00,26.843698,75.766894,NO2,8,112,36
India,Rajasthan,Jaipur,"Mansarovar Sector-12, Jaipur - RSPCB",28-03-2024 14:00:00,26.843698,75.766894,CO,13,58,40
India,Rajasthan,Jaipur,"Police Commissionerate, Jaipur - RSPCB",28-03-2024 14:00:00,26.9164092,75.7994901,NH3,8,11,10
India,Rajasthan,Jaisalmer,"Sadar Bazar, Jaisalmer - RSPCB",28-03-2024 14:00:00,26.912329,70.909168,NO2,14,57,32
India,Rajasthan,Jaisalmer,"Sadar Bazar, Jaisalmer - RSPCB",28-03-2024 14:00:00,26.912329,70.909168,NH3,5,16,9
India,Rajasthan,Jalore,"Mudtra Sili, Jalore - RSPCB",28-03-2024 14:00:00,25.344694,72.626208,PM2.5,32,88,48
India,Rajasthan,Jalore,"Mudtra Sili, Jalore - RSPCB",28-03-2024 14:00:00,25.344694,72.626208,PM10,69,301,103
India,Rajasthan,Jhalawar,"Rajlaxmi Nagar, Jhalawar - RSPCB",28-03-2024 14:00:00,24.588397,76.172782,NO2,21,82,40
India,Rajasthan,Jodhpur,"Collectorate, Jodhpur - RSPCB",28-03-2024 14:00:00,26.268249,73.0193853,PM10,57,171,107
India,Rajasthan,Jodhpur,"Digari Kalan, Jodhpur - RSPCB",28-03-2024 14:00:00,26.295810,73.082283,PM10,58,212,108
India,Rajasthan,Jodhpur,"Digari Kalan, Jodhpur - RSPCB",28-03-2024 14:00:00,26.295810,73.082283,NO2,4,29,14
India,Rajasthan,Jodhpur,"Digari Kalan, Jodhpur - RSPCB",28-03-2024 14:00:00,26.295810,73.082283,NH3,3,10,5
India,Rajasthan,Jodhpur,"Mandor, Jodhpur - RSPCB",28-03-2024 14:00:00,26.358805,73.047444,NO2,18,41,30
India,Rajasthan,Jodhpur,"Mandor, Jodhpur - RSPCB",28-03-2024 14:00:00,26.358805,73.047444,CO,12,28,18
India,Rajasthan,Jodhpur,"Samrat Ashok Udhyan, Jodhpur - RSPCB",28-03-2024 14:00:00,26.253384,72.976571,OZONE,43,93,58
India,Rajasthan,Karauli,"Satyawati Vihar, Karauli - RSPCB",28-03-2024 14:00:00,26.506177,77.025989,PM2.5,NA,NA,NA
India,Rajasthan,Karauli,"Satyawati Vihar, Karauli - RSPCB",28-03-2024 14:00:00,26.506177,77.025989,NO2,NA,NA,NA
India,Rajasthan,Karauli,"Satyawati Vihar, Karauli - RSPCB",28-03-2024 14:00:00,26.506177,77.025989,OZONE,NA,NA,NA
India,Rajasthan,Kota,"Dhanmandi, Kota - RSPCB",28-03-2024 14:00:00,25.164090,75.858137,NO2,17,144,65
India,Rajasthan,Kota,"Dhanmandi, Kota - RSPCB",28-03-2024 14:00:00,25.164090,75.858137,SO2,3,101,26
India,Rajasthan,Kota,"Nayapura, Kota - RSPCB",28-03-2024 14:00:00,25.196024,75.855668,PM10,100,266,152
India,Rajasthan,Kota,"Shrinath Puram, Kota - RSPCB",28-03-2024 14:00:00,25.14389,75.821256,OZONE,6,95,48
India,Rajasthan,Pali,"Indira Colony Vistar, Pali - RSPCB",28-03-2024 14:00:00,25.771061, 73.340227,OZONE,29,73,49
India,Rajasthan,Rajsamand,"Dhoinda, Rajsamand - RSPCB",28-03-2024 14:00:00,25.036360,73.883502,NO2,NA,NA,NA
India,Rajasthan,Rajsamand,"Dhoinda, Rajsamand - RSPCB",28-03-2024 14:00:00,25.036360,73.883502,SO2,NA,NA,NA
India,Rajasthan,Sawai Madhopur,"Sahu Nagar, Sawai Madhopur - RSPCB",28-03-2024 14:00:00,26.031443,76.359327,PM2.5,63,312,103
India,Rajasthan,Sawai Madhopur,"Sahu Nagar, Sawai Madhopur - RSPCB",28-03-2024 14:00:00,26.031443,76.359327,NH3,2,13,8
India,Rajasthan,Sikar,"Radhakishan Pura, Sikar - RSPCB",28-03-2024 14:00:00,27.608912,75.153302,PM10,72,382,123
India,Rajasthan,Sirohi,"Vedhaynath Colony, Sirohi - RSPCB",28-03-2024 14:00:00,24.885261,72.857549,PM2.5,36,79,50
India,Rajasthan,Udaipur,"Ashok Nagar, Udaipur - RSPCB",28-03-2024 14:00:00,24.5886166,73.6321397,SO2,7,20,10
India,Sikkim,Gangtok,"Zero Point GICI, Gangtok - SSPCB",28-03-2024 14:00:00,27.338530,88.614099,PM2.5,1,24,17
India,Sikkim,Gangtok,"Zero Point GICI, Gangtok - SSPCB",28-03-2024 14:00:00,27.338530,88.614099,PM10,17,40,25
India,Sikkim,Gangtok,"Zero Point GICI, Gangtok - SSPCB",28-03-2024 14:00:00,27.338530,88.614099,SO2,9,10,10
India,TamilNadu,Chengalpattu,"Crescent University, Chengalpattu - TNPCB",28-03-2024 14:00:00,12.8777316,80.0834807,PM2.5,7,74,36
India,TamilNadu,Chengalpattu,"Crescent University, Chengalpattu - TNPCB",28-03-2024 14:00:00,12.8777316,80.0834807,PM10,6,61,30
India,TamilNadu,Chengalpattu,"Crescent University, Chengalpattu - TNPCB",28-03-2024 14:00:00,12.8777316,80.0834807,SO2,16,23,20
India,TamilNadu,Chengalpattu,"Crescent University, Chengalpattu - TNPCB",28-03-2024 14:00:00,12.8777316,80.0834807,OZONE,6,6,6
India,TamilNadu,Chennai,"Arumbakkam, Chennai - TNPCB",28-03-2024 14:00:00,13.0664,80.2112 ,SO2,1,7,3
India,TamilNadu,Chennai,"Kodungaiyur, Chennai - TNPCB",28-03-2024 14:00:00,13.1278,80.2642,CO,19,39,30
India,TamilNadu,Chennai,"Kodungaiyur, Chennai - TNPCB",28-03-2024 14:00:00,13.1278,80.2642,OZONE,5,6,6
India,TamilNadu,Chennai,"Manali, Chennai - CPCB",28-03-2024 14:00:00,13.164544,80.26285,PM10,38,147,70
India,TamilNadu,Chennai,"Manali, Chennai - CPCB",28-03-2024 14:00:00,13.164544,80.26285,SO2,5,45,12
India,TamilNadu,Chennai,"Manali, Chennai - CPCB",28-03-2024 14:00:00,13.164544,80.26285,OZONE,6,22,14
India,TamilNadu,Chennai,"Perungudi, Chennai - TNPCB",28-03-2024 14:00:00,12.9533,80.2357,PM2.5,17,83,41
India,TamilNadu,Chennai,"Royapuram, Chennai - TNPCB",28-03-2024 14:00:00,13.1036,80.2909,NO2,9,23,14
India,TamilNadu,Chennai,"Royapuram, Chennai - TNPCB",28-03-2024 14:00:00,13.1036,80.2909,SO2,1,4,2
India,TamilNadu,Chennai,"Velachery Res. Area, Chennai - CPCB",28-03-2024 14:00:00,13.0052189,80.2398125,CO,6,105,67
India,TamilNadu,Chennai,"Velachery Res. Area, Chennai - CPCB",28-03-2024 14:00:00,13.0052189,80.2398125,OZONE,2,23,11
India,TamilNadu,Coimbatore,"PSG College of Arts and Science, Coimbatore - TNPCB",28-03-2024 14:00:00,11.0328,77.0349,NO2,2,21,7
India,TamilNadu,Cuddalore,"Kudikadu, Cuddalore - TNPCB",28-03-2024 14:00:00,11.6829898,79.7532099,NO2,10,30,24
India,TamilNadu,Cuddalore,"Semmandalam, Cuddalore - TNPCB",28-03-2024 14:00:00,11.7637683,79.7499835,NO2,5,21,12
India,TamilNadu,Gummidipoondi,"Anthoni Pillai Nagar, Gummidipoondi - TNPCB",28-03-2024 14:00:00,13.4127,80.1081,NO2,10,21,13
India,TamilNadu,Kanchipuram,"Kilambi, Kanchipuram - TNPCB",28-03-2024 14:00:00,12.864618,79.659968,PM2.5,NA,NA,NA
India,TamilNadu,Kanchipuram,"Kilambi, Kanchipuram - TNPCB",28-03-2024 14:00:00,12.864618,79.659968,OZONE,34,46,40
India,TamilNadu,Ooty,"Bombay Castel, Ooty - TNPCB",28-03-2024 14:00:00,11.4068288,76.7138973,OZONE,4,6,5
India,TamilNadu,Salem,"Sona College of Technology, Salem - TNPCB",28-03-2024 14:00:00,11.679111,78.125052,NH3,NA,NA,NA
India,TamilNadu,Salem,"Sona College of Technology, Salem - TNPCB",28-03-2024 14:00:00,11.679111,78.125052,SO2,NA,NA,NA
India,TamilNadu,Salem,"Sona College of Technology, Salem - TNPCB",28-03-2024 14:00:00,11.679111,78.125052,OZONE,3,3,3
India,Telangana,Hyderabad,"ECIL Kapra, Hyderabad - TSPCB",28-03-2024 14:00:00,17.470431,78.566959,PM2.5,52,122,66
India,Telangana,Hyderabad,"Kokapet, Hyderabad - TSPCB",28-03-2024 14:00:00,17.393559,78.339194,PM10,71,90,80
India,Telangana,Hyderabad,"Kompally Municipal Office, Hyderabad - TSPCB",28-03-2024 14:00:00,17.544899,78.486949,CO,11,42,28
India,Telangana,Hyderabad,"Kompally Municipal Office, Hyderabad - TSPCB",28-03-2024 14:00:00,17.544899,78.486949,OZONE,5,103,54
India,Telangana,Hyderabad,"Nacharam_TSIIC IALA, Hyderabad - TSPCB",28-03-2024 14:00:00,17.429398,78.569354,PM10,66,84,74
India,Telangana,Hyderabad,"Nacharam_TSIIC IALA, Hyderabad - TSPCB",28-03-2024 14:00:00,17.429398,78.569354,NO2,9,13,12
India,Telangana,Hyderabad,"New Malakpet, Hyderabad - TSPCB",28-03-2024 14:00:00,17.37206,78.50864,PM2.5,23,128,65
India,Telangana,Hyderabad,"New Malakpet, Hyderabad - TSPCB",28-03-2024 14:00:00,17.37206,78.50864,SO2,6,22,13
India,Telangana,Hyderabad,"Sanathnagar, Hyderabad - TSPCB",28-03-2024 14:00:00,17.4559458,78.4332152,NO2,NA,NA,NA
India,Telangana,Hyderabad,"Zoo Park, Hyderabad - TSPCB",28-03-2024 14:00:00,17.349694,78.451437,PM2.5,37,119,63
India,Telangana,Hyderabad,"Zoo Park, Hyderabad - TSPCB",28-03-2024 14:00:00,17.349694,78.451437,NH3,1,1,1
India,Telangana,Hyderabad,"Zoo Park, Hyderabad - TSPCB",28-03-2024 14:00:00,17.349694,78.451437,SO2,1,8,4
India,Tripura,Agartala,"Bardowali, Agartala - Tripura SPCB",28-03-2024 14:00:00,23.8175497,91.2726974,PM2.5,57,188,108
India,Tripura,Agartala,"Bardowali, Agartala - Tripura SPCB",28-03-2024 14:00:00,23.8175497,91.2726974,SO2,27,29,28
India,Tripura,Agartala,"Bardowali, Agartala - Tripura SPCB",28-03-2024 14:00:00,23.8175497,91.2726974,CO,16,60,18
India,Uttar_Pradesh,Agra,"Manoharpur, Agra - UPPCB",28-03-2024 14:00:00,27.23711,78.01936,PM10,24,83,52
India,Uttar_Pradesh,Agra,"Manoharpur, Agra - UPPCB",28-03-2024 14:00:00,27.23711,78.01936,NH3,1,2,1
India,Uttar_Pradesh,Agra,"Rohta, Agra - UPPCB",28-03-2024 14:00:00,27.106972,78.000111,NO2,2,2,2
India,Uttar_Pradesh,Agra,"Sanjay Palace, Agra - UPPCB",28-03-2024 14:00:00,27.19865833,78.00598056,SO2,6,10,8
India,Uttar_Pradesh,Agra,"Sanjay Palace, Agra - UPPCB",28-03-2024 14:00:00,27.19865833,78.00598056,CO,14,116,50
India,Uttar_Pradesh,Agra,"Sector-3B Avas Vikas Colony, Agra - UPPCB",28-03-2024 14:00:00,27.19412,77.96237,NO2,24,29,28
India,Uttar_Pradesh,Agra,"Sector-3B Avas Vikas Colony, Agra - UPPCB",28-03-2024 14:00:00,27.19412,77.96237,NH3,3,8,5
India,Uttar_Pradesh,Agra,"Sector-3B Avas Vikas Colony, Agra - UPPCB",28-03-2024 14:00:00,27.19412,77.96237,OZONE,2,12,5
India,Uttar_Pradesh,Agra,"Shastripuram, Agra - UPPCB",28-03-2024 14:00:00,27.19862,77.92066,PM10,18,176,110
India,Uttar_Pradesh,Agra,"Shastripuram, Agra - UPPCB",28-03-2024 14:00:00,27.19862,77.92066,OZONE,1,13,5
India,Uttar_Pradesh,Bareilly,"Rajendra Nagar, Bareilly - UPPCB",28-03-2024 14:00:00,28.38910936,79.42963708,CO,8,34,31
India,Uttar_Pradesh,Bulandshahr,"Yamunapuram, Bulandshahr - UPPCB",28-03-2024 14:00:00,28.406963,77.849831,PM10,70,110,94
India,Uttar_Pradesh,Bulandshahr,"Yamunapuram, Bulandshahr - UPPCB",28-03-2024 14:00:00,28.406963,77.849831,CO,24,44,33
India,Uttar_Pradesh,Firozabad,"Nagla Bhau, Firozabad - UPPCB",28-03-2024 14:00:00,27.168897,78.376960,PM10,16,96,54
India,Uttar_Pradesh,Firozabad,"Nagla Bhau, Firozabad - UPPCB",28-03-2024 14:00:00,27.168897,78.376960,NH3,2,2,2
India,Uttar_Pradesh,Firozabad,"Nagla Bhau, Firozabad - UPPCB",28-03-2024 14:00:00,27.168897,78.376960,OZONE,16,23,18
India,Uttar_Pradesh,Ghaziabad,"Indirapuram, Ghaziabad - UPPCB",28-03-2024 14:00:00,28.646233,77.358075,OZONE,1,62,26
India,Uttar_Pradesh,Ghaziabad,"Loni, Ghaziabad - UPPCB",28-03-2024 14:00:00,28.757294,77.278792,PM2.5,16,122,66
India,Uttar_Pradesh,Ghaziabad,"Sanjay Nagar, Ghaziabad - UPPCB",28-03-2024 14:00:00,28.685382,77.453839,OZONE,7,85,43
India,Uttar_Pradesh,Ghaziabad,"Vasundhara, Ghaziabad - UPPCB",28-03-2024 14:00:00,28.6603346,77.3572563,PM10,82,133,110
India,Uttar_Pradesh,Ghaziabad,"Vasundhara, Ghaziabad - UPPCB",28-03-2024 14:00:00,28.6603346,77.3572563,CO,6,58,24
India,Uttar_Pradesh,Greater Noida,"Knowledge Park - III, Greater Noida - UPPCB",28-03-2024 14:00:00,28.47272,77.482000,PM10,127,204,161
India,Uttar_Pradesh,Greater Noida,"Knowledge Park - V, Greater Noida - UPPCB",28-03-2024 14:00:00,28.557054,77.453663,NO2,44,58,52
India,Uttar_Pradesh,Greater Noida,"Knowledge Park - V, Greater Noida - UPPCB",28-03-2024 14:00:00,28.557054,77.453663,CO,49,100,64
India,Uttar_Pradesh,Hapur,"Anand Vihar, Hapur - UPPCB",28-03-2024 14:00:00,28.725645,77.749675,NO2,24,136,51
India,Uttar_Pradesh,Hapur,"Anand Vihar, Hapur - UPPCB",28-03-2024 14:00:00,28.725645,77.749675,NH3,7,9,8
India,Uttar_Pradesh,Jhansi,"Shivaji Nagar, Jhansi - UPPCB",28-03-2024 14:00:00,25.4547,78.6039,NO2,10,66,27
India,Uttar_Pradesh,Jhansi,"Shivaji Nagar, Jhansi - UPPCB",28-03-2024 14:00:00,25.4547,78.6039,OZONE,2,28,20
India,Uttar_Pradesh,Kanpur,"FTI Kidwai Nagar, Kanpur - UPPCB",28-03-2024 14:00:00,26.428282,80.327067,OZONE,2,14,6
India,Uttar_Pradesh,Kanpur,"NSI Kalyanpur, Kanpur - UPPCB",28-03-2024 14:00:00,26.509954,80.249612,OZONE,12,62,47
India,Uttar_Pradesh,Kanpur,"Nehru Nagar, Kanpur - UPPCB",28-03-2024 14:00:00,26.4703136,80.3229863,PM10,21,119,70
India,Uttar_Pradesh,Kanpur,"Nehru Nagar, Kanpur - UPPCB",28-03-2024 14:00:00,26.4703136,80.3229863,CO,5,66,38
India,Uttar_Pradesh,Khurja,"Kalindi Kunj, Khurja - UPPCB",28-03-2024 14:00:00,28.2348927,77.8683002,PM10,36,138,74
India,Uttar_Pradesh,Lucknow,"Gomti Nagar, Lucknow - UPPCB",28-03-2024 14:00:00,26.868120,81.005119,SO2,4,17,10
India,Uttar_Pradesh,Lucknow,"Gomti Nagar, Lucknow - UPPCB",28-03-2024 14:00:00,26.868120,81.005119,CO,46,54,49
India,Uttar_Pradesh,Lucknow,"Gomti Nagar, Lucknow - UPPCB",28-03-2024 14:00:00,26.868120,81.005119,OZONE,44,54,48
India,Uttar_Pradesh,Lucknow,"Kendriya Vidyalaya, Lucknow - CPCB",28-03-2024 14:00:00,26.906111,80.948222,SO2,4,8,5
India,Uttar_Pradesh,Lucknow,"Kukrail Picnic Spot-1, Lucknow - UPPCB",28-03-2024 14:00:00,26.90723,80.98579,NH3,2,2,2
India,Uttar_Pradesh,Lucknow,"Lalbagh, Lucknow - CPCB",28-03-2024 14:00:00,26.8458805,80.9365541,NH3,11,14,12
India,Uttar_Pradesh,Lucknow,"Talkatora District Industries Center, Lucknow - CPCB",28-03-2024 14:00:00,26.83399722,80.8917361,OZONE,2,80,28
India,Uttar_Pradesh,Meerut,"Ganga Nagar, Meerut - UPPCB",28-03-2024 14:00:00,28.999264,77.7590354,PM2.5,30,94,54
India,Uttar_Pradesh,Meerut,"Pallavpuram Phase 2, Meerut - UPPCB",28-03-2024 14:00:00,29.063510,77.709723,SO2,13,46,33
India,Uttar_Pradesh,Meerut,"Pallavpuram Phase 2, Meerut - UPPCB",28-03-2024 14:00:00,29.063510,77.709723,OZONE,5,89,47
India,Uttar_Pradesh,Moradabad,"Buddhi Vihar, Moradabad - UPPCB",28-03-2024 14:00:00,28.83526,78.74460,NO2,17,24,23
India,Uttar_Pradesh,Moradabad,"Buddhi Vihar, Moradabad - UPPCB",28-03-2024 14:00:00,28.83526,78.74460,SO2,25,41,30
India,Uttar_Pradesh,Moradabad,"Eco Herbal Park, Moradabad - UPPCB",28-03-2024 14:00:00,28.840739,78.697531,CO,38,102,50
India,Uttar_Pradesh,Moradabad,"Employment Office, Moradabad - UPPCB",28-03-2024 14:00:00,28.88528,78.73880,PM10,75,152,113
India,Uttar_Pradesh,Moradabad,"Jigar Colony, Moradabad - UPPCB",28-03-2024 14:00:00,28.856664,78.772638,CO,16,45,39
India,Uttar_Pradesh,Moradabad,"Jigar Colony, Moradabad - UPPCB",28-03-2024 14:00:00,28.856664,78.772638,OZONE,17,59,22
India,Uttar_Pradesh,Moradabad,"Kashiram Nagar, Moradabad - UPPCB",28-03-2024 14:00:00,28.849399,78.742362,NH3,4,4,4
India,Uttar_Pradesh,Moradabad,"Transport Nagar, Moradabad - UPPCB",28-03-2024 14:00:00,28.802625,78.753728,NO2,12,23,17
India,Uttar_Pradesh,Muzaffarnagar,"New Mandi, Muzaffarnagar - UPPCB",28-03-2024 14:00:00,29.4723508,77.7194031,NO2,2,47,20
India,Uttar_Pradesh,Noida,"Sector - 125, Noida - UPPCB",28-03-2024 14:00:00,28.5447608,77.3231257,PM10,64,147,97
India,Uttar_Pradesh,Noida,"Sector - 125, Noida - UPPCB",28-03-2024 14:00:00,28.5447608,77.3231257,NO2,6,152,86
India,Uttar_Pradesh,Noida,"Sector - 125, Noida - UPPCB",28-03-2024 14:00:00,28.5447608,77.3231257,NH3,5,13,9
India,Uttar_Pradesh,Noida,"Sector - 125, Noida - UPPCB",28-03-2024 14:00:00,28.5447608,77.3231257,OZONE,5,249,249
India,Uttar_Pradesh,Noida,"Sector-1, Noida - UPPCB",28-03-2024 14:00:00,28.5898,77.3101,CO,6,82,32
India,Uttar_Pradesh,Prayagraj,"Jhunsi, Prayagraj - UPPCB",28-03-2024 14:00:00,25.425602,81.917152,SO2,30,32,31
India,Uttar_Pradesh,Prayagraj,"Motilal Nehru NIT, Prayagraj - UPPCB",28-03-2024 14:00:00,25.494,81.863,NH3,6,7,7
India,Uttar_Pradesh,Prayagraj,"Motilal Nehru NIT, Prayagraj - UPPCB",28-03-2024 14:00:00,25.494,81.863,SO2,23,28,25
India,Uttar_Pradesh,Prayagraj,"Nagar Nigam, Prayagraj - UPPCB",28-03-2024 14:00:00,25.44919916 ,81.82735986 ,PM2.5,22,115,55
India,Uttar_Pradesh,Prayagraj,"Nagar Nigam, Prayagraj - UPPCB",28-03-2024 14:00:00,25.44919916 ,81.82735986 ,NO2,5,5,5
India,Uttar_Pradesh,Prayagraj,"Nagar Nigam, Prayagraj - UPPCB",28-03-2024 14:00:00,25.44919916 ,81.82735986 ,SO2,22,107,62
India,Uttar_Pradesh,Varanasi,"Ardhali Bazar, Varanasi - UPPCB",28-03-2024 14:00:00,25.3505986,82.9083074,OZONE,22,44,25
India,Uttar_Pradesh,Varanasi,"Bhelupur, Varanasi - UPPCB",28-03-2024 14:00:00,25.301778,82.996789,PM2.5,4,22,14
India,Uttar_Pradesh,Varanasi,"Bhelupur, Varanasi - UPPCB",28-03-2024 14:00:00,25.301778,82.996789,NO2,7,8,8
India,Uttar_Pradesh,Varanasi,"IESD Banaras Hindu University, Varanasi - UPPCB",28-03-2024 14:00:00,25.262326,82.995408,PM10,15,82,39
India,Uttar_Pradesh,Varanasi,"IESD Banaras Hindu University, Varanasi - UPPCB",28-03-2024 14:00:00,25.262326,82.995408,NH3,1,4,2
India,Uttar_Pradesh,Varanasi,"IESD Banaras Hindu University, Varanasi - UPPCB",28-03-2024 14:00:00,25.262326,82.995408,CO,6,22,18
India,Uttar_Pradesh,Varanasi,"Maldahiya, Varanasi - UPPCB",28-03-2024 14:00:00,25.32393,82.99687,NH3,1,2,1
India,Uttar_Pradesh,Varanasi,"Maldahiya, Varanasi - UPPCB",28-03-2024 14:00:00,25.32393,82.99687,CO,12,114,29
India,Uttar_Pradesh,Vrindavan,"Omex Eternity, Vrindavan - UPPCB",28-03-2024 14:00:00,27.5714090,77.6557570,PM2.5,18,95,44
India,Uttar_Pradesh,Vrindavan,"Omex Eternity, Vrindavan - UPPCB",28-03-2024 14:00:00,27.5714090,77.6557570,NO2,2,3,3
India,Uttarakhand,Dehradun,"Doon University, Dehradun - UKPCB",28-03-2024 14:00:00,30.269444,78.044167,PM2.5,34,122,76
India,Uttarakhand,Dehradun,"Doon University, Dehradun - UKPCB",28-03-2024 14:00:00,30.269444,78.044167,NO2,1,7,3
India,Uttarakhand,Dehradun,"Doon University, Dehradun - UKPCB",28-03-2024 14:00:00,30.269444,78.044167,SO2,2,6,3
India,Uttarakhand,Kashipur,"Govt. Girls Inter College, Kashipur - UKPCB",28-03-2024 14:00:00,29.2124114,78.9611753,NO2,6,12,7
India,Uttarakhand,Kashipur,"Govt. Girls Inter College, Kashipur - UKPCB",28-03-2024 14:00:00,29.2124114,78.9611753,SO2,7,9,8
India,Uttarakhand,Rishikesh,"Shivaji Nagar, Rishikesh - UKPCB",28-03-2024 14:00:00,30.075911,78.2859547,NO2,8,50,17
India,West_Bengal,Asansol,"Asansol Court Area, Asansol - WBPCB",28-03-2024 14:00:00,23.685297,86.945968,OZONE,15,37,23
India,West_Bengal,Barrackpore,"SVSPA Campus, Barrackpore - WBPCB",28-03-2024 14:00:00,22.7605581,88.3617589,PM2.5,NA,NA,NA
India,West_Bengal,Barrackpore,"SVSPA Campus, Barrackpore - WBPCB",28-03-2024 14:00:00,22.7605581,88.3617589,NH3,NA,NA,NA
India,West_Bengal,Barrackpore,"SVSPA Campus, Barrackpore - WBPCB",28-03-2024 14:00:00,22.7605581,88.3617589,SO2,NA,NA,NA
India,West_Bengal,Howrah,"Belur Math, Howrah - WBPCB",28-03-2024 14:00:00,22.629801,88.352017,PM2.5,43,75,59
India,West_Bengal,Howrah,"Belur Math, Howrah - WBPCB",28-03-2024 14:00:00,22.629801,88.352017,PM10,43,98,74
India,West_Bengal,Howrah,"Belur Math, Howrah - WBPCB",28-03-2024 14:00:00,22.629801,88.352017,SO2,4,10,8
India,West_Bengal,Howrah,"Ghusuri, Howrah - WBPCB",28-03-2024 14:00:00,22.611968,88.347422,PM10,53,150,94
India,West_Bengal,Kolkata,"Ballygunge, Kolkata - WBPCB",28-03-2024 14:00:00,22.5367507,88.3638022,PM2.5,40,89,59
India,West_Bengal,Kolkata,"Jadavpur, Kolkata - WBPCB",28-03-2024 14:00:00,22.49929,88.36917,NH3,2,3,2
India,West_Bengal,Kolkata,"Rabindra Bharati University, Kolkata - WBPCB",28-03-2024 14:00:00,22.627847,88.380669,PM2.5,29,92,59
India,West_Bengal,Kolkata,"Rabindra Bharati University, Kolkata - WBPCB",28-03-2024 14:00:00,22.627847,88.380669,NO2,18,23,23
India,West_Bengal,Kolkata,"Rabindra Bharati University, Kolkata - WBPCB",28-03-2024 14:00:00,22.627847,88.380669,SO2,1,43,10
India,West_Bengal,Kolkata,"Victoria, Kolkata - WBPCB",28-03-2024 14:00:00,22.5448082,88.3403691,CO,15,34,26
India,Andhra_Pradesh,Anantapur,"Gulzarpet, Anantapur - APPCB",28-03-2024 14:00:00,14.675886,77.593027,PM2.5,29,89,56
India,Andhra_Pradesh,Anantapur,"Gulzarpet, Anantapur - APPCB",28-03-2024 14:00:00,14.675886,77.593027,OZONE,2,60,25
India,Andhra_Pradesh,Chittoor,"Gangineni Cheruvu, Chittoor - APPCB",28-03-2024 14:00:00,13.204880,79.097889,NO2,2,7,4
India,Andhra_Pradesh,Chittoor,"Gangineni Cheruvu, Chittoor - APPCB",28-03-2024 14:00:00,13.204880,79.097889,NH3,1,1,1
India,Andhra_Pradesh,Kadapa,"Yerramukkapalli, Kadapa - APPCB",28-03-2024 14:00:00,14.465052,78.824187,PM2.5,13,49,29
India,Andhra_Pradesh,Kadapa,"Yerramukkapalli, Kadapa - APPCB",28-03-2024 14:00:00,14.465052,78.824187,CO,10,26,18
India,Andhra_Pradesh,Tirupati,"Tirumala, Tirupati - APPCB",28-03-2024 14:00:00,13.67,79.35,NO2,18,33,26
India,Andhra_Pradesh,Tirupati,"Tirumala, Tirupati - APPCB",28-03-2024 14:00:00,13.67,79.35,CO,14,47,27
India,Andhra_Pradesh,Tirupati,"Vaikuntapuram, Tirupati - APPCB",28-03-2024 14:00:00,13.615387,79.409230,PM10,13,127,48
India,Andhra_Pradesh,Tirupati,"Vaikuntapuram, Tirupati - APPCB",28-03-2024 14:00:00,13.615387,79.409230,CO,10,15,13
India,Andhra_Pradesh,Vijayawada,"HB Colony, Vijayawada - APPCB",28-03-2024 14:00:00,16.536107,80.594233,NO2,5,12,8
India,Andhra_Pradesh,Vijayawada,"Kanuru, Vijayawada - APPCB",28-03-2024 14:00:00,16.486692,80.699436,PM10,54,69,62
India,Andhra_Pradesh,Vijayawada,"Kanuru, Vijayawada - APPCB",28-03-2024 14:00:00,16.486692,80.699436,CO,24,62,43
India,Andhra_Pradesh,Vijayawada,"Kanuru, Vijayawada - APPCB",28-03-2024 14:00:00,16.486692,80.699436,OZONE,28,28,28
India,Andhra_Pradesh,Vijayawada,"Rajiv Nagar, Vijayawada - APPCB",28-03-2024 14:00:00,16.554731,80.649110,SO2,13,20,16
India,Andhra_Pradesh,Vijayawada,"Rajiv Nagar, Vijayawada - APPCB",28-03-2024 14:00:00,16.554731,80.649110,CO,37,37,37
India,Assam,Byrnihat,"Central Academy for SFS, Byrnihat - PCBA",28-03-2024 14:00:00,26.071318,91.87488,PM2.5,25,396,182
India,Assam,Byrnihat,"Central Academy for SFS, Byrnihat - PCBA",28-03-2024 14:00:00,26.071318,91.87488,NO2,45,112,71
India,Assam,Guwahati,"LGBI Airport, Guwahati - PCBA",28-03-2024 14:00:00,26.10887,91.589544,PM2.5,53,358,176
India,Assam,Guwahati,"Pan Bazaar, Guwahati - PCBA",28-03-2024 14:00:00,26.187500,91.744194,PM10,NA,NA,NA
India,Assam,Guwahati,"Pan Bazaar, Guwahati - PCBA",28-03-2024 14:00:00,26.187500,91.744194,NO2,NA,NA,NA
India,Assam,Nagaon,"Christianpatty, Nagaon - PCBA",28-03-2024 14:00:00,26.349082,92.68449,NO2,8,47,19
India,Assam,Nagaon,"Christianpatty, Nagaon - PCBA",28-03-2024 14:00:00,26.349082,92.68449,SO2,27,112,52
India,Assam,Nalbari,"Bata Chowk, Nalbari - PCBA",28-03-2024 14:00:00,26.446912,91.439057,NO2,6,25,14
India,Assam,Nalbari,"Bata Chowk, Nalbari - PCBA",28-03-2024 14:00:00,26.446912,91.439057,OZONE,19,99,63
India,Assam,Silchar,"Tarapur, Silchar - PCBA",28-03-2024 14:00:00,24.82827,92.79525,PM10,34,85,64
India,Assam,Silchar,"Tarapur, Silchar - PCBA",28-03-2024 14:00:00,24.82827,92.79525,SO2,2,18,8
India,Assam,Silchar,"Tarapur, Silchar - PCBA",28-03-2024 14:00:00,24.82827,92.79525,OZONE,1,13,2
India,Bihar,Arrah,"New DM Office, Arrah - BSPCB",28-03-2024 14:00:00,25.5626095,84.663264,PM2.5,30,82,51
India,Bihar,Aurangabad,"Gurdeo Nagar, Aurangabad - BSPCB",28-03-2024 14:00:00,24.75746,84.366208,NO2,3,5,5
India,Bihar,Aurangabad,"Gurdeo Nagar, Aurangabad - BSPCB",28-03-2024 14:00:00,24.75746,84.366208,SO2,3,12,8
India,Bihar,Bettiah,"Kamalnath Nagar, Bettiah - BSPCB",28-03-2024 14:00:00,26.80365,84.51954,SO2,11,19,16
India,Bihar,Bettiah,"Kamalnath Nagar, Bettiah - BSPCB",28-03-2024 14:00:00,26.80365,84.51954,OZONE,3,11,6
India,Bihar,Bhagalpur,"DM Office_Kachari Chowk, Bhagalpur - BSPCB",28-03-2024 14:00:00,25.251013,86.989001,NO2,NA,NA,NA
India,Bihar,Bhagalpur,"Mayaganj, Bhagalpur - BSPCB",28-03-2024 14:00:00,25.265194,87.012947,NH3,6,8,7
India,Bihar,Gaya,"Collectorate, Gaya - BSPCB",28-03-2024 14:00:00,24.7955,84.9994,NO2,1,4,3
India,Bihar,Gaya,"Collectorate, Gaya - BSPCB",28-03-2024 14:00:00,24.7955,84.9994,SO2,6,18,11
India,Bihar,Gaya,"Kareemganj, Gaya - BSPCB",28-03-2024 14:00:00,24.792403,84.992416,PM10,39,124,66
India,Bihar,Gaya,"SFTI Kusdihra, Gaya - BSPCB",28-03-2024 14:00:00,24.762518,84.982348,PM2.5,20,96,61
India,Bihar,Katihar,"Mirchaibari, Katihar - BSPCB",28-03-2024 14:00:00,25.560083,87.553265,PM10,44,113,81
India,Bihar,Kishanganj,"SDM Office_Khagra, Kishanganj - BSPCB",28-03-2024 14:00:00,26.0881305,87.93840336,NO2,35,40,37
India,Bihar,Kishanganj,"SDM Office_Khagra, Kishanganj - BSPCB",28-03-2024 14:00:00,26.0881305,87.93840336,CO,4,6,4
India,Bihar,Manguraha,"Forest Rest House, Manguraha - BSPCB",28-03-2024 14:00:00,27.308328,84.531742,PM10,26,79,48
India,Bihar,Motihari,"Gandak Colony, Motihari - BSPCB",28-03-2024 14:00:00,26.63086,84.90051,PM2.5,13,40,26
India,Bihar,Motihari,"Gandak Colony, Motihari - BSPCB",28-03-2024 14:00:00,26.63086,84.90051,NH3,8,11,10
India,Bihar,Munger,"Town Hall, Munger - BSPCB",28-03-2024 14:00:00,25.376776,86.471523,NH3,1,2,2
India,Bihar,Muzaffarpur,"Muzaffarpur Collectorate, Muzaffarpur - BSPCB",28-03-2024 14:00:00,26.1209,85.3647,SO2,4,15,8
India,Bihar,Patna,"DRM Office Danapur, Patna - BSPCB",28-03-2024 14:00:00,25.586562,85.043586,PM10,70,115,92
India,Bihar,Patna,"Govt. High School Shikarpur, Patna - BSPCB",28-03-2024 14:00:00,25.592539,85.227158,PM2.5,42,169,73
India,Bihar,Patna,"Govt. High School Shikarpur, Patna - BSPCB",28-03-2024 14:00:00,25.592539,85.227158,NH3,5,5,5
India,Bihar,Patna,"Govt. High School Shikarpur, Patna - BSPCB",28-03-2024 14:00:00,25.592539,85.227158,SO2,7,12,9
India,Bihar,Patna,"IGSC Planetarium Complex, Patna - BSPCB",28-03-2024 14:00:00,25.610369,85.132568,NO2,14,14,14
India,Bihar,Patna,"IGSC Planetarium Complex, Patna - BSPCB",28-03-2024 14:00:00,25.610369,85.132568,CO,12,13,12
India,Bihar,Patna,"Muradpur, Patna - BSPCB",28-03-2024 14:00:00,25.619651,85.147382,PM2.5,79,307,149
India,Bihar,Patna,"Muradpur, Patna - BSPCB",28-03-2024 14:00:00,25.619651,85.147382,SO2,8,12,9
India,Bihar,Patna,"Rajbansi Nagar, Patna - BSPCB",28-03-2024 14:00:00,25.599486,85.113666,PM2.5,56,157,100
India,Bihar,Patna,"Rajbansi Nagar, Patna - BSPCB",28-03-2024 14:00:00,25.599486,85.113666,PM10,85,153,108
India,Bihar,Patna,"Rajbansi Nagar, Patna - BSPCB",28-03-2024 14:00:00,25.599486,85.113666,NH3,4,10,5
India,Bihar,Patna,"Samanpura, Patna - BSPCB",28-03-2024 14:00:00,25.596727,85.085624,NO2,13,39,31
India,Bihar,Purnia,"Mariam Nagar, Purnia - BSPCB",28-03-2024 14:00:00,25.366336,87.117468,PM10,36,135,83
India,Bihar,Purnia,"Mariam Nagar, Purnia - BSPCB",28-03-2024 14:00:00,25.366336,87.117468,NH3,2,2,2
India,Bihar,Purnia,"Mariam Nagar, Purnia - BSPCB",28-03-2024 14:00:00,25.366336,87.117468,OZONE,4,18,7
India,Bihar,Rajgir,"Dangi Tola, Rajgir - BSPCB",28-03-2024 14:00:00,25.03280,85.41948,PM10,41,222,111
India,Bihar,Rajgir,"Dangi Tola, Rajgir - BSPCB",28-03-2024 14:00:00,25.03280,85.41948,SO2,4,4,4
India,Bihar,Saharsa,"Police Line, Saharsa - BSPCB",28-03-2024 14:00:00,25.892357,86.590325,NH3,9,9,9
India,Bihar,Saharsa,"Police Line, Saharsa - BSPCB",28-03-2024 14:00:00,25.892357,86.590325,SO2,16,16,16
India,Bihar,Samastipur,"DM Office_Kasipur, Samastipur - BSPCB",28-03-2024 14:00:00,25.859655,85.77944,NO2,26,41,36
India,Bihar,Sasaram,"Dada Peer, Sasaram - BSPCB",28-03-2024 14:00:00,24.952822,84.002396,CO,86,118,105
India,Chandigarh,Chandigarh,"Sector 22, Chandigarh - CPCC",28-03-2024 14:00:00,30.735567,76.775714,SO2,6,23,15
India,Chandigarh,Chandigarh,"Sector 22, Chandigarh - CPCC",28-03-2024 14:00:00,30.735567,76.775714,OZONE,27,98,55
India,Chhattisgarh,Bhilai,"32Bungalows, Bhilai - CECB",28-03-2024 14:00:00,21.194815,81.314770,PM10,45,76,62
India,Chhattisgarh,Bhilai,"32Bungalows, Bhilai - CECB",28-03-2024 14:00:00,21.194815,81.314770,NH3,6,7,6
India,Chhattisgarh,Bhilai,"32Bungalows, Bhilai - CECB",28-03-2024 14:00:00,21.194815,81.314770,CO,23,48,42
India,Chhattisgarh,Bhilai,"Civic Center, Bhilai - Bhilai Steel Plant",28-03-2024 14:00:00,21.185571,81.343175,NH3,5,5,5
India,Chhattisgarh,Bhilai,"Civic Center, Bhilai - Bhilai Steel Plant",28-03-2024 14:00:00,21.185571,81.343175,CO,14,112,74
India,Chhattisgarh,Bhilai,"Civic Center, Bhilai - Bhilai Steel Plant",28-03-2024 14:00:00,21.185571,81.343175,OZONE,10,73,42
India,Chhattisgarh,Bhilai,"Hathkhoj, Bhilai - CECB",28-03-2024 14:00:00,21.224231,81.408350,PM10,75,141,114
India,Chhattisgarh,Bhilai,"Hathkhoj, Bhilai - CECB",28-03-2024 14:00:00,21.224231,81.408350,NO2,17,74,35
India,Chhattisgarh,Bhilai,"Hathkhoj, Bhilai - CECB",28-03-2024 14:00:00,21.224231,81.408350,SO2,12,26,15
India,Chhattisgarh,Bilaspur,"Mangala, Bilaspur - NTPC",28-03-2024 14:00:00,22.08815,82.13737,PM2.5,47,110,72
India,Chhattisgarh,Chhal,"Nawapara SECL Colony, Chhal - CECB",28-03-2024 14:00:00,22.118125,83.140608,NO2,21,50,30
India,Chhattisgarh,Chhal,"Nawapara SECL Colony, Chhal - CECB",28-03-2024 14:00:00,22.118125,83.140608,SO2,1,14,10
India,Chhattisgarh,Kunjemura,"OP Jindal School, Kunjemura - CECB",28-03-2024 14:00:00,22.126650,83.483212,PM10,82,261,145
India,Chhattisgarh,Kunjemura,"OP Jindal School, Kunjemura - CECB",28-03-2024 14:00:00,22.126650,83.483212,SO2,2,24,10
India,Chhattisgarh,Kunjemura,"OP Jindal School, Kunjemura - CECB",28-03-2024 14:00:00,22.126650,83.483212,OZONE,4,105,27
India,Chhattisgarh,Milupara,"Govt. Higher Secondary School, Milupara - CECB",28-03-2024 14:00:00,22.1910172,83.5197009,OZONE,2,36,35
India,Chhattisgarh,Raipur,"AIIMS, Raipur - CECB",28-03-2024 14:00:00,21.258815,81.578979,PM10,46,81,60
India,Chhattisgarh,Raipur,"Bhatagaon New ISBT, Raipur - CECB",28-03-2024 14:00:00,21.219665,81.630094,NH3,2,3,3
India,Chhattisgarh,Raipur,"Siltara Phase-II, Raipur - CECB",28-03-2024 14:00:00,21.371751,81.664929,NH3,3,3,3
India,Chhattisgarh,Tumidih,"OP Jindal Industrial Park, Tumidih - CECB",28-03-2024 14:00:00,22.06631475,83.33820077,PM2.5,NA,NA,NA
India,Chhattisgarh,Tumidih,"OP Jindal Industrial Park, Tumidih - CECB",28-03-2024 14:00:00,22.06631475,83.33820077,PM10,NA,NA,NA
India,Chhattisgarh,Tumidih,"OP Jindal Industrial Park, Tumidih - CECB",28-03-2024 14:00:00,22.06631475,83.33820077,OZONE,NA,NA,NA
India,Delhi,Delhi,"Alipur, Delhi - DPCC",28-03-2024 14:00:00,28.815329,77.153010,NH3,5,8,6
India,Delhi,Delhi,"Anand Vihar, Delhi - DPCC",28-03-2024 14:00:00,28.647622,77.3158090,NO2,28,133,79
India,Delhi,Delhi,"Anand Vihar, Delhi - DPCC",28-03-2024 14:00:00,28.647622,77.3158090,OZONE,5,121,96
India,Delhi,Delhi,"Ashok Vihar, Delhi - DPCC",28-03-2024 14:00:00,28.695381,77.181665,SO2,21,55,30
India,Delhi,Delhi,"Bawana, Delhi - DPCC",28-03-2024 14:00:00,28.776200,77.051074,NO2,14,41,24
India,Delhi,Delhi,"Bawana, Delhi - DPCC",28-03-2024 14:00:00,28.776200,77.051074,CO,34,61,53
India,Delhi,Delhi,"Chandni Chowk, Delhi - IITM",28-03-2024 14:00:00,28.656756,77.227234,PM2.5,148,229,192
India,Delhi,Delhi,"Chandni Chowk, Delhi - IITM",28-03-2024 14:00:00,28.656756,77.227234,NH3,2,54,18
India,Delhi,Delhi,"Chandni Chowk, Delhi - IITM",28-03-2024 14:00:00,28.656756,77.227234,CO,88,108,97
India,Delhi,Delhi,"DTU, Delhi - CPCB",28-03-2024 14:00:00,28.7500499,77.1112615,NH3,8,14,10
India,Delhi,Delhi,"DTU, Delhi - CPCB",28-03-2024 14:00:00,28.7500499,77.1112615,OZONE,27,153,153
India,Delhi,Delhi,"Dwarka-Sector 8, Delhi - DPCC ",28-03-2024 14:00:00,28.5710274,77.0719006,OZONE,2,107,45
India,Delhi,Delhi,"IGI Airport (T3), Delhi - IMD",28-03-2024 14:00:00,28.5627763,77.1180053,PM10,62,167,108
India,Delhi,Delhi,"IGI Airport (T3), Delhi - IMD",28-03-2024 14:00:00,28.5627763,77.1180053,CO,14,48,29
India,Delhi,Delhi,"ITO, Delhi - CPCB",28-03-2024 14:00:00,28.628624,77.241060,PM2.5,17,300,114
India,Delhi,Delhi,"Jahangirpuri, Delhi - DPCC",28-03-2024 14:00:00,28.732820,77.170633,SO2,8,58,23
India,Delhi,Delhi,"Lodhi Road, Delhi - IITM",28-03-2024 14:00:00,28.588333,77.221667,OZONE,16,29,18
India,Delhi,Delhi,"Lodhi Road, Delhi - IMD",28-03-2024 14:00:00,28.5918245,77.2273074,NO2,2,8,5
India,Delhi,Delhi,"Major Dhyan Chand National Stadium, Delhi - DPCC",28-03-2024 14:00:00,28.611281,77.237738,NO2,33,107,67
India,Delhi,Delhi,"Najafgarh, Delhi - DPCC",28-03-2024 14:00:00,28.570173,76.933762,NO2,3,19,9
India,Delhi,Delhi,"Narela, Delhi - DPCC",28-03-2024 14:00:00,28.822836,77.101981,NH3,6,15,8
India,Delhi,Delhi,"Nehru Nagar, Delhi - DPCC",28-03-2024 14:00:00,28.567890,77.250515,SO2,9,34,17
India,Delhi,Delhi,"Nehru Nagar, Delhi - DPCC",28-03-2024 14:00:00,28.567890,77.250515,OZONE,2,183,183
India,Delhi,Delhi,"North Campus, DU, Delhi - IMD",28-03-2024 14:00:00,28.6573814,77.1585447,PM10,72,171,132
India,Delhi,Delhi,"North Campus, DU, Delhi - IMD",28-03-2024 14:00:00,28.6573814,77.1585447,NO2,15,32,25
India,Delhi,Delhi,"Okhla Phase-2, Delhi - DPCC",28-03-2024 14:00:00,28.530785,77.271255,PM10,108,176,137
India,Delhi,Delhi,"Okhla Phase-2, Delhi - DPCC",28-03-2024 14:00:00,28.530785,77.271255,CO,41,99,69
India,Delhi,Delhi,"Patparganj, Delhi - DPCC",28-03-2024 14:00:00,28.623763,77.287209,PM2.5,30,180,61
India,Delhi,Delhi,"Patparganj, Delhi - DPCC",28-03-2024 14:00:00,28.623763,77.287209,PM10,103,182,144
India,Delhi,Delhi,"Patparganj, Delhi - DPCC",28-03-2024 14:00:00,28.623763,77.287209,SO2,1,20,18
India,Delhi,Delhi,"Punjabi Bagh, Delhi - DPCC",28-03-2024 14:00:00,28.674045,77.131023,NH3,4,5,5
India,Delhi,Delhi,"Pusa, Delhi - DPCC",28-03-2024 14:00:00,28.639652,77.146275,PM10,111,295,163
India,Delhi,Delhi,"R K Puram, Delhi - DPCC",28-03-2024 14:00:00,28.563262,77.186937,NO2,12,35,23
India,Delhi,Delhi,"R K Puram, Delhi - DPCC",28-03-2024 14:00:00,28.563262,77.186937,NH3,1,2,2
India,Delhi,Delhi,"R K Puram, Delhi - DPCC",28-03-2024 14:00:00,28.563262,77.186937,CO,17,66,41
India,Delhi,Delhi,"Rohini, Delhi - DPCC",28-03-2024 14:00:00,28.732528,77.119920,CO,15,70,33
India,Delhi,Delhi,"Shadipur, Delhi - CPCB",28-03-2024 14:00:00,28.6514781,77.1473105,NO2,34,45,39
India,Delhi,Delhi,"Shadipur, Delhi - CPCB",28-03-2024 14:00:00,28.6514781,77.1473105,SO2,9,26,17
India,Delhi,Delhi,"Shadipur, Delhi - CPCB",28-03-2024 14:00:00,28.6514781,77.1473105,CO,28,112,42
India,Delhi,Delhi,"Shadipur, Delhi - CPCB",28-03-2024 14:00:00,28.6514781,77.1473105,OZONE,15,55,27
India,Delhi,Delhi,"Sirifort, Delhi - CPCB",28-03-2024 14:00:00,28.5504249,77.2159377,CO,17,52,29
India,Delhi,Delhi,"Sonia Vihar, Delhi - DPCC",28-03-2024 14:00:00,28.710508,77.249485,PM2.5,34,222,105
India,Delhi,Delhi,"Sonia Vihar, Delhi - DPCC",28-03-2024 14:00:00,28.710508,77.249485,NH3,6,8,7
India,Delhi,Delhi,"Sonia Vihar, Delhi - DPCC",28-03-2024 14:00:00,28.710508,77.249485,OZONE,8,75,29
India,Delhi,Delhi,"Sri Aurobindo Marg, Delhi - DPCC",28-03-2024 14:00:00,28.531346,77.190156,OZONE,1,60,22
India,Delhi,Delhi,"Wazirpur, Delhi - DPCC",28-03-2024 14:00:00,28.699793,77.165453,PM2.5,29,301,125
India,Gujarat,Ahmedabad,"Gyaspur, Ahmedabad - IITM",28-03-2024 14:00:00,22.977134,72.553024,NH3,10,11,10
India,Gujarat,Ahmedabad,"Maninagar, Ahmedabad - GPCB",28-03-2024 14:00:00,23.002657,72.591912,PM10,20,326,117
India,Gujarat,Ahmedabad,"Raikhad, Ahmedabad - IITM",28-03-2024 14:00:00,23.020509,72.579261,NO2,16,134,50
India,Gujarat,Ahmedabad,"Raikhad, Ahmedabad - IITM",28-03-2024 14:00:00,23.020509,72.579261,NH3,3,6,5
India,Gujarat,Ahmedabad,"Raikhad, Ahmedabad - IITM",28-03-2024 14:00:00,23.020509,72.579261,OZONE,7,53,16
India,Gujarat,Ahmedabad,"Rakhial, Ahmedabad - IITM",28-03-2024 14:00:00,23.016834,72.625775,NO2,14,105,35
India,Gujarat,Ahmedabad,"Rakhial, Ahmedabad - IITM",28-03-2024 14:00:00,23.016834,72.625775,SO2,5,41,12
India,Gujarat,Ahmedabad,"SAC ISRO Satellite, Ahmedabad - IITM",28-03-2024 14:00:00,23.023389,72.515201,PM2.5,138,143,140
India,Gujarat,Ahmedabad,"SAC ISRO Satellite, Ahmedabad - IITM",28-03-2024 14:00:00,23.023389,72.515201,NO2,17,17,17
India,Gujarat,Ahmedabad,"SAC ISRO Satellite, Ahmedabad - IITM",28-03-2024 14:00:00,23.023389,72.515201,SO2,3,8,5
India,Gujarat,Ahmedabad,"SAC ISRO Satellite, Ahmedabad - IITM",28-03-2024 14:00:00,23.023389,72.515201,CO,26,28,28
India,Gujarat,Ahmedabad,"SVPI Airport Hansol, Ahmedabad - IITM",28-03-2024 14:00:00,23.076793,72.627874,PM2.5,51,140,80
India,Gujarat,Ahmedabad,"SVPI Airport Hansol, Ahmedabad - IITM",28-03-2024 14:00:00,23.076793,72.627874,NO2,14,19,17
India,Gujarat,Ahmedabad,"Sardar Vallabhbhai Patel Stadium, Ahmedabad - IITM",28-03-2024 14:00:00,23.043070,72.562968,SO2,1,49,8
India,Gujarat,Ankleshwar,"GIDC, Ankleshwar - GPCB",28-03-2024 14:00:00,21.613267,73.010555,NO2,34,35,35
India,Gujarat,Ankleshwar,"GIDC, Ankleshwar - GPCB",28-03-2024 14:00:00,21.613267,73.010555,OZONE,21,43,27
India,Gujarat,Gandhinagar,"IIPHG Lekawada, Gandhinagar - IITM",28-03-2024 14:00:00,23.243639,72.68994,NH3,6,7,7
India,Gujarat,Gandhinagar,"Sector-10, Gandhinagar - GPCB",28-03-2024 14:00:00,23.221714,72.654328,PM2.5,20,49,33
India,Gujarat,Gandhinagar,"Sector-10, Gandhinagar - GPCB",28-03-2024 14:00:00,23.221714,72.654328,PM10,53,82,66
India,Gujarat,Gandhinagar,"Sector-10, Gandhinagar - GPCB",28-03-2024 14:00:00,23.221714,72.654328,NH3,1,2,1
India,Gujarat,Gandhinagar,"Sector-10, Gandhinagar - GPCB",28-03-2024 14:00:00,23.221714,72.654328,OZONE,2,22,8
India,Gujarat,Nandesari,"GIDC, Nandesari - Nandesari Ind. Association",28-03-2024 14:00:00,22.410802,73.097923,PM10,117,436,229
India,Gujarat,Surat,"Science Center, Surat - SMC",28-03-2024 14:00:00,21.170046,72.795405,PM2.5,7,62,25
India,Gujarat,Vatva,"Phase-4 GIDC, Vatva - GPCB",28-03-2024 14:00:00,22.969611,72.643500,OZONE,7,74,15
India,Haryana,Ambala,"Patti Mehar, Ambala - HSPCB",28-03-2024 14:00:00,30.379589,76.778328,PM2.5,31,67,53
India,Haryana,Ambala,"Patti Mehar, Ambala - HSPCB",28-03-2024 14:00:00,30.379589,76.778328,PM10,38,59,47
India,Haryana,Ballabgarh,"Nathu Colony, Ballabgarh - HSPCB",28-03-2024 14:00:00,28.3419248,77.319699,NH3,1,3,2
India,Haryana,Ballabgarh,"Nathu Colony, Ballabgarh - HSPCB",28-03-2024 14:00:00,28.3419248,77.319699,SO2,12,44,25
India,Haryana,Bhiwani,"H.B. Colony, Bhiwani - HSPCB",28-03-2024 14:00:00,28.806223,76.141105,PM2.5,61,500,108
India,Haryana,Bhiwani,"H.B. Colony, Bhiwani - HSPCB",28-03-2024 14:00:00,28.806223,76.141105,PM10,56,114,78
India,Haryana,Bhiwani,"H.B. Colony, Bhiwani - HSPCB",28-03-2024 14:00:00,28.806223,76.141105,SO2,1,85,12
India,Haryana,Charkhi Dadri,"Mini Secretariat, Charkhi Dadri - HSPCB",28-03-2024 14:00:00,28.593883,76.270653,NO2,15,24,18
India,Haryana,Dharuhera,"Municipal Corporation Office, Dharuhera -  HSPCB",28-03-2024 14:00:00,28.206800,76.799700,NO2,45,111,70
India,Haryana,Faridabad,"New Industrial Town, Faridabad - HSPCB",28-03-2024 14:00:00,28.39072,77.30059,NO2,NA,NA,NA
India,Haryana,Faridabad,"New Industrial Town, Faridabad - HSPCB",28-03-2024 14:00:00,28.39072,77.30059,SO2,NA,NA,NA
India,Haryana,Faridabad,"New Industrial Town, Faridabad - HSPCB",28-03-2024 14:00:00,28.39072,77.30059,OZONE,23,60,58
India,Haryana,Faridabad,"Sector 11, Faridabad - HSPCB",28-03-2024 14:00:00,28.376058,77.315741,OZONE,4,23,7
India,Haryana,Faridabad,"Sector 30, Faridabad - HSPCB",28-03-2024 14:00:00,28.4417,77.3217,SO2,3,14,7
India,Haryana,Gurugram,"Sector-51, Gurugram - HSPCB",28-03-2024 14:00:00,28.4227,77.0667,NH3,6,14,8
India,Haryana,Gurugram,"Teri Gram, Gurugram - HSPCB",28-03-2024 14:00:00,28.4275,77.1465,PM2.5,58,303,148
India,Haryana,Gurugram,"Teri Gram, Gurugram - HSPCB",28-03-2024 14:00:00,28.4275,77.1465,PM10,137,217,177
India,Haryana,Gurugram,"Teri Gram, Gurugram - HSPCB",28-03-2024 14:00:00,28.4275,77.1465,NH3,49,78,64
India,Haryana,Gurugram,"Vikas Sadan, Gurugram - HSPCB",28-03-2024 14:00:00,28.4501238,77.0263051,NO2,5,25,14
India,Haryana,Hisar,"Urban Estate-II, Hisar - HSPCB",28-03-2024 14:00:00,29.140560,75.744941,CO,40,57,50
India,Haryana,Karnal,"Sector-12, Karnal - HSPCB",28-03-2024 14:00:00,29.695300,77.002700,PM10,44,74,59
India,Haryana,Kurukshetra,"Sector-7, Kurukshetra - HSPCB",28-03-2024 14:00:00,29.966942,76.875879,CO,6,30,20
India,Haryana,Mandikhera,"General Hospital, Mandikhera - HSPCB",28-03-2024 14:00:00,27.9002,76.9938,NO2,16,24,21
India,Haryana,Mandikhera,"General Hospital, Mandikhera - HSPCB",28-03-2024 14:00:00,27.9002,76.9938,SO2,30,39,34
India,Haryana,Mandikhera,"General Hospital, Mandikhera - HSPCB",28-03-2024 14:00:00,27.9002,76.9938,CO,12,33,25
India,Haryana,Manesar,"Sector-2 IMT, Manesar - HSPCB",28-03-2024 14:00:00,28.360699,76.936090,PM10,42,86,64
India,Haryana,Manesar,"Sector-2 IMT, Manesar - HSPCB",28-03-2024 14:00:00,28.360699,76.936090,NO2,18,26,22
India,Haryana,Manesar,"Sector-2 IMT, Manesar - HSPCB",28-03-2024 14:00:00,28.360699,76.936090,SO2,3,16,9
India,Haryana,Palwal,"Shyam Nagar, Palwal - HSPCB",28-03-2024 14:00:00,28.1485564,77.3320667,PM10,58,115,91
India,Haryana,Palwal,"Shyam Nagar, Palwal - HSPCB",28-03-2024 14:00:00,28.1485564,77.3320667,NO2,23,24,24
India,Haryana,Palwal,"Shyam Nagar, Palwal - HSPCB",28-03-2024 14:00:00,28.1485564,77.3320667,OZONE,4,58,35
India,Haryana,Panipat,"Sector-18, Panipat - HSPCB",28-03-2024 14:00:00,29.497973,76.993331,NO2,NA,NA,NA
India,Haryana,Panipat,"Sector-18, Panipat - HSPCB",28-03-2024 14:00:00,29.497973,76.993331,NH3,NA,NA,NA
India,Haryana,Sirsa,"F-Block, Sirsa - HSPCB",28-03-2024 14:00:00,29.536400,75.015800,NH3,9,13,13
India,Haryana,Sonipat,"Murthal, Sonipat - HSPCB",28-03-2024 14:00:00,29.027200,77.062100,PM10,14,48,24
India,Haryana,Sonipat,"Murthal, Sonipat - HSPCB",28-03-2024 14:00:00,29.027200,77.062100,SO2,13,29,20
India,Haryana,Yamuna Nagar,"Gobind Pura, Yamuna Nagar - HSPCB",28-03-2024 14:00:00,30.1480566,77.2893471,NO2,3,4,4
India,Haryana,Yamuna Nagar,"Gobind Pura, Yamuna Nagar - HSPCB",28-03-2024 14:00:00,30.1480566,77.2893471,OZONE,22,36,27
India,Himachal Pradesh,Baddi,"HIMUDA Complex Phase-1, Baddi - HPPCB",28-03-2024 14:00:00,30.943887,76.801991,PM2.5,8,157,72
India,Himachal Pradesh,Baddi,"HIMUDA Complex Phase-1, Baddi - HPPCB",28-03-2024 14:00:00,30.943887,76.801991,NO2,10,35,21
India,Jharkhand,Dhanbad,"Sardar Patel Nagar, Dhanbad - JSPCB",28-03-2024 14:00:00,23.80569,86.44268,PM2.5,NA,NA,NA
India,Jharkhand,Dhanbad,"Sardar Patel Nagar, Dhanbad - JSPCB",28-03-2024 14:00:00,23.80569,86.44268,PM10,NA,NA,NA
India,Karnataka,Bagalkot,"Vidayagiri, Bagalkot - KSPCB",28-03-2024 14:00:00,16.172806,75.659694,PM10,45,46,46
India,Karnataka,Bengaluru,"Bapuji Nagar, Bengaluru - KSPCB",28-03-2024 14:00:00,12.951913,77.539784,PM10,75,110,92
India,Karnataka,Bengaluru,"Bapuji Nagar, Bengaluru - KSPCB",28-03-2024 14:00:00,12.951913,77.539784,CO,24,62,35
India,Karnataka,Bengaluru,"Hebbal, Bengaluru - KSPCB",28-03-2024 14:00:00,13.029152,77.585901,PM10,50,148,97
India,Karnataka,Bengaluru,"Hombegowda Nagar, Bengaluru - KSPCB",28-03-2024 14:00:00,12.938539,77.590100,SO2,4,4,4
India,Karnataka,Bengaluru,"Kasturi Nagar, Bengaluru - KSPCB",28-03-2024 14:00:00,13.003872,77.664217,CO,22,25,24
India,Karnataka,Bengaluru,"Peenya, Bengaluru - CPCB",28-03-2024 14:00:00,13.0270199,77.494094,PM10,51,70,60
India,Karnataka,Bengaluru,"Sanegurava Halli, Bengaluru - KSPCB",28-03-2024 14:00:00,12.990328,77.5431385,SO2,2,3,3
India,Karnataka,Bengaluru,"Shivapura_Peenya, Bengaluru - KSPCB",28-03-2024 14:00:00,13.0246342,77.5080115,OZONE,53,56,54
India,Karnataka,Bidar,"Naubad, Bidar - KSPCB",28-03-2024 14:00:00,17.930306,77.482194,CO,57,88,72
India,Karnataka,Chamarajanagar,"Urban, Chamarajanagar - KSPCB",28-03-2024 14:00:00,11.55358,76.55521,NO2,23,40,30
India,Karnataka,Chikkamagaluru,"Kalyana Nagara, Chikkamagaluru - KSPCB",28-03-2024 14:00:00,13.328028,75.797056,PM2.5,5,85,39
India,Karnataka,Dharwad,"Kalabhavan, Dharwad - KSPCB",28-03-2024 14:00:00,15.459706,75.008381,NH3,2,3,3
India,Karnataka,Gadag,"Panchal Nagar, Gadag - KSPCB",28-03-2024 14:00:00,15.411456,75.638133,PM2.5,24,66,41
India,Karnataka,Gadag,"Panchal Nagar, Gadag - KSPCB",28-03-2024 14:00:00,15.411456,75.638133,CO,44,60,47
India,Karnataka,Hassan,"B.Katihalli, Hassan - KSPCB",28-03-2024 14:00:00,13.008556,76.125258,PM2.5,40,88,60
India,Karnataka,Hassan,"B.Katihalli, Hassan - KSPCB",28-03-2024 14:00:00,13.008556,76.125258,OZONE,4,34,25
India,Karnataka,Haveri,"Ashwini Nagar, Haveri - KSPCB",28-03-2024 14:00:00,14.791800,75.389600,PM2.5,34,137,59
India,Karnataka,Haveri,"Ashwini Nagar, Haveri - KSPCB",28-03-2024 14:00:00,14.791800,75.389600,CO,36,38,36
India,Karnataka,Hubballi,"Deshpande Nagar, Hubballi - KSPCB",28-03-2024 14:00:00,15.351773,75.140726,NO2,26,27,27
India,Karnataka,Hubballi,"Lingaraj Nagar, Hubballi - KSPCB",28-03-2024 14:00:00,15.3714823,75.1160168,CO,10,38,25
