country,state,city,station,last_update,latitude,longitude,pollutant_id,pollutant_min,pollutant_max,pollutant_avg
India,Andhra_Pradesh,Amaravati,"Secretariat, Amaravati - APPCB",12-03-2024 02:00:00,16.5150833,80.5181667,NO2,6,19,11
India,Andhra_Pradesh,Amaravati,"Secretariat, Amaravati - APPCB",12-03-2024 02:00:00,16.5150833,80.5181667,SO2,10,16,12
India,Andhra_Pradesh,Amaravati,"Secretariat, Amaravati - APPCB",12-03-2024 02:00:00,16.5150833,80.5181667,OZONE,1,62,35
India,Andhra_Pradesh,Anantapur,"Gulzarpet, Anantapur - APPCB",12-03-2024 02:00:00,14.675886,77.593027,SO2,4,16,7
India,Andhra_Pradesh,Anantapur,"Gulzarpet, Anantapur - APPCB",12-03-2024 02:00:00,14.675886,77.593027,OZONE,8,57,36
India,Andhra_Pradesh,Chittoor,"Gangineni Cheruvu, Chittoor - APPCB",12-03-2024 02:00:00,13.204880,79.097889,PM2.5,NA,NA,NA
India,Andhra_Pradesh,Chittoor,"Gangineni Cheruvu, Chittoor - APPCB",12-03-2024 02:00:00,13.204880,79.097889,NH3,NA,NA,NA
India,Andhra_Pradesh,Tirupati,"Tirumala, Tirupati - APPCB",12-03-2024 02:00:00,13.67,79.35,NH3,1,2,1
India,Andhra_Pradesh,Tirupati,"Tirumala, Tirupati - APPCB",12-03-2024 02:00:00,13.67,79.35,SO2,3,8,5
India,Andhra_Pradesh,Tirupati,"Tirumala, Tirupati - APPCB",12-03-2024 02:00:00,13.67,79.35,CO,20,43,26
India,Andhra_Pradesh,Tirupati,"Tirumala, Tirupati - APPCB",12-03-2024 02:00:00,13.67,79.35,OZONE,14,47,29
India,Andhra_Pradesh,Tirupati,"Vaikuntapuram, Tirupati - APPCB",12-03-2024 02:00:00,13.615387,79.409230,NH3,2,3,3
India,Andhra_Pradesh,Vijayawada,"Kanuru, Vijayawada - APPCB",12-03-2024 02:00:00,16.486692,80.699436,NH3,1,1,1
India,Andhra_Pradesh,Vijayawada,"Kanuru, Vijayawada - APPCB",12-03-2024 02:00:00,16.486692,80.699436,SO2,5,11,6
India,Andhra_Pradesh,Vijayawada,"Rajiv Gandhi Park, Vijayawada - APPCB",12-03-2024 02:00:00,16.509717,80.612222,NO2,5,58,28
India,Andhra_Pradesh,Vijayawada,"Rajiv Nagar, Vijayawada - APPCB",12-03-2024 02:00:00,16.554731,80.649110,NO2,5,10,7
India,Andhra_Pradesh,Vijayawada,"Rajiv Nagar, Vijayawada - APPCB",12-03-2024 02:00:00,16.554731,80.649110,SO2,11,20,14
India,Andhra_Pradesh,Vijayawada,"Rajiv Nagar, Vijayawada - APPCB",12-03-2024 02:00:00,16.554731,80.649110,CO,34,34,34
India,Andhra_Pradesh,Vijayawada,"Rajiv Nagar, Vijayawada - APPCB",12-03-2024 02:00:00,16.554731,80.649110,OZONE,6,35,18
India,Andhra_Pradesh,Visakhapatnam,"GVM Corporation, Visakhapatnam - APPCB",12-03-2024 02:00:00,17.72,83.3,NO2,28,70,46
India,Assam,Byrnihat,"Central Academy for SFS, Byrnihat - PCBA",12-03-2024 02:00:00,26.071318,91.87488,NO2,40,114,63
India,Assam,Byrnihat,"Central Academy for SFS, Byrnihat - PCBA",12-03-2024 02:00:00,26.071318,91.87488,CO,30,86,39
India,Assam,Guwahati,"LGBI Airport, Guwahati - PCBA",12-03-2024 02:00:00,26.10887,91.589544,NO2,9,71,30
India,Assam,Guwahati,"LGBI Airport, Guwahati - PCBA",12-03-2024 02:00:00,26.10887,91.589544,CO,20,70,55
India,Assam,Guwahati,"Pan Bazaar, Guwahati - PCBA",12-03-2024 02:00:00,26.187500,91.744194,PM10,127,347,213
India,Assam,Guwahati,"Railway Colony, Guwahati - PCBA",12-03-2024 02:00:00,26.181742,91.78063,CO,24,134,105
India,Assam,Guwahati,"Railway Colony, Guwahati - PCBA",12-03-2024 02:00:00,26.181742,91.78063,OZONE,2,28,19
India,Assam,Nagaon,"Christianpatty, Nagaon - PCBA",12-03-2024 02:00:00,26.349082,92.68449,NO2,17,90,41
India,Assam,Nagaon,"Christianpatty, Nagaon - PCBA",12-03-2024 02:00:00,26.349082,92.68449,CO,2,79,56
India,Assam,Nagaon,"Christianpatty, Nagaon - PCBA",12-03-2024 02:00:00,26.349082,92.68449,OZONE,11,143,42
India,Assam,Nalbari,"Bata Chowk, Nalbari - PCBA",12-03-2024 02:00:00,26.446912,91.439057,SO2,3,8,5
India,Assam,Nalbari,"Bata Chowk, Nalbari - PCBA",12-03-2024 02:00:00,26.446912,91.439057,CO,32,128,117
India,Assam,Sivasagar,"Girls College, Sivasagar - PCBA",12-03-2024 02:00:00,26.987634,94.636574,OZONE,1,16,2
India,Bihar,Araria,"Kharahiya Basti, Araria - BSPCB",12-03-2024 02:00:00,26.146529,87.454184,NO2,6,8,7
India,Bihar,Arrah,"New DM Office, Arrah - BSPCB",12-03-2024 02:00:00,25.5626095,84.663264,PM2.5,NA,NA,NA
India,Bihar,Arrah,"New DM Office, Arrah - BSPCB",12-03-2024 02:00:00,25.5626095,84.663264,NH3,NA,NA,NA
India,Bihar,Arrah,"New DM Office, Arrah - BSPCB",12-03-2024 02:00:00,25.5626095,84.663264,SO2,NA,NA,NA
India,Bihar,Aurangabad,"Gurdeo Nagar, Aurangabad - BSPCB",12-03-2024 02:00:00,24.75746,84.366208,PM10,61,122,87
India,Bihar,Aurangabad,"Gurdeo Nagar, Aurangabad - BSPCB",12-03-2024 02:00:00,24.75746,84.366208,OZONE,4,87,21
India,Bihar,Bettiah,"Kamalnath Nagar, Bettiah - BSPCB",12-03-2024 02:00:00,26.80365,84.51954,NO2,33,47,42
India,Bihar,Bhagalpur,"Mayaganj, Bhagalpur - BSPCB",12-03-2024 02:00:00,25.265194,87.012947,NH3,6,9,7
India,Bihar,Bihar Sharif,"D M Colony, Bihar Sharif - BSPCB",12-03-2024 02:00:00,25.204762,85.514960,NO2,NA,NA,NA
India,Bihar,Bihar Sharif,"D M Colony, Bihar Sharif - BSPCB",12-03-2024 02:00:00,25.204762,85.514960,SO2,NA,NA,NA
India,Bihar,Bihar Sharif,"D M Colony, Bihar Sharif - BSPCB",12-03-2024 02:00:00,25.204762,85.514960,OZONE,NA,NA,NA
India,Bihar,Buxar,"Charitra Van, Buxar - BSPCB (Formerly known as Central Jail)",12-03-2024 02:00:00,25.567520,83.966379,OZONE,2,185,34
India,Bihar,Chhapra,"Darshan Nagar, Chhapra - BSPCB",12-03-2024 02:00:00,25.7808257,84.7446768,NH3,7,12,9
India,Bihar,Gaya,"Collectorate, Gaya - BSPCB",12-03-2024 02:00:00,24.7955,84.9994,NO2,1,4,2
India,Bihar,Gaya,"Collectorate, Gaya - BSPCB",12-03-2024 02:00:00,24.7955,84.9994,OZONE,51,78,61
India,Bihar,Gaya,"SFTI Kusdihra, Gaya - BSPCB",12-03-2024 02:00:00,24.762518,84.982348,PM10,52,97,71
India,Bihar,Gaya,"SFTI Kusdihra, Gaya - BSPCB",12-03-2024 02:00:00,24.762518,84.982348,NO2,20,66,36
India,Bihar,Hajipur,"Industrial Area, Hajipur - BSPCB",12-03-2024 02:00:00,25.697189,85.245900,CO,30,86,43
India,Bihar,Katihar,"Mirchaibari, Katihar - BSPCB",12-03-2024 02:00:00,25.560083,87.553265,PM2.5,68,344,199
India,Bihar,Katihar,"Mirchaibari, Katihar - BSPCB",12-03-2024 02:00:00,25.560083,87.553265,NH3,3,6,4
India,Bihar,Kishanganj,"SDM Office_Khagra, Kishanganj - BSPCB",12-03-2024 02:00:00,26.0881305,87.93840336,PM2.5,25,416,100
India,Bihar,Kishanganj,"SDM Office_Khagra, Kishanganj - BSPCB",12-03-2024 02:00:00,26.0881305,87.93840336,CO,4,12,8
India,Bihar,Kishanganj,"SDM Office_Khagra, Kishanganj - BSPCB",12-03-2024 02:00:00,26.0881305,87.93840336,OZONE,28,40,40
India,Bihar,Motihari,"Gandak Colony, Motihari - BSPCB",12-03-2024 02:00:00,26.63086,84.90051,NO2,NA,NA,NA
India,Bihar,Motihari,"Gandak Colony, Motihari - BSPCB",12-03-2024 02:00:00,26.63086,84.90051,SO2,NA,NA,NA
India,Bihar,Motihari,"Gandak Colony, Motihari - BSPCB",12-03-2024 02:00:00,26.63086,84.90051,OZONE,NA,NA,NA
India,Bihar,Munger,"Town Hall, Munger - BSPCB",12-03-2024 02:00:00,25.376776,86.471523,CO,4,14,9
India,Bihar,Muzaffarpur,"MIT-Daudpur Kothi, Muzaffarpur - BSPCB",12-03-2024 02:00:00,26.1403345,85.3650192,PM2.5,75,310,175
India,Bihar,Muzaffarpur,"MIT-Daudpur Kothi, Muzaffarpur - BSPCB",12-03-2024 02:00:00,26.1403345,85.3650192,NH3,1,3,1
India,Bihar,Muzaffarpur,"MIT-Daudpur Kothi, Muzaffarpur - BSPCB",12-03-2024 02:00:00,26.1403345,85.3650192,SO2,18,20,19
India,Bihar,Muzaffarpur,"MIT-Daudpur Kothi, Muzaffarpur - BSPCB",12-03-2024 02:00:00,26.1403345,85.3650192,CO,6,113,76
India,Bihar,Muzaffarpur,"Muzaffarpur Collectorate, Muzaffarpur - BSPCB",12-03-2024 02:00:00,26.1209,85.3647,SO2,7,19,9
India,Bihar,Patna,"DRM Office Danapur, Patna - BSPCB",12-03-2024 02:00:00,25.586562,85.043586,PM2.5,92,174,114
India,Bihar,Patna,"DRM Office Danapur, Patna - BSPCB",12-03-2024 02:00:00,25.586562,85.043586,OZONE,1,62,9
India,Bihar,Patna,"IGSC Planetarium Complex, Patna - BSPCB",12-03-2024 02:00:00,25.610369,85.132568,SO2,5,8,6
India,Bihar,Patna,"IGSC Planetarium Complex, Patna - BSPCB",12-03-2024 02:00:00,25.610369,85.132568,OZONE,6,43,34
India,Bihar,Patna,"Muradpur, Patna - BSPCB",12-03-2024 02:00:00,25.619651,85.147382,PM2.5,71,335,231
India,Bihar,Patna,"Rajbansi Nagar, Patna - BSPCB",12-03-2024 02:00:00,25.599486,85.113666,NH3,2,3,3
India,Bihar,Patna,"Samanpura, Patna - BSPCB",12-03-2024 02:00:00,25.596727,85.085624,NO2,30,87,60
India,Bihar,Purnia,"Mariam Nagar, Purnia - BSPCB",12-03-2024 02:00:00,25.366336,87.117468,PM2.5,25,293,129
India,Bihar,Rajgir,"Dangi Tola, Rajgir - BSPCB",12-03-2024 02:00:00,25.03280,85.41948,PM10,31,292,87
India,Bihar,Rajgir,"Dangi Tola, Rajgir - BSPCB",12-03-2024 02:00:00,25.03280,85.41948,NH3,1,2,1
India,Bihar,Saharsa,"Police Line, Saharsa - BSPCB",12-03-2024 02:00:00,25.892357,86.590325,SO2,16,17,16
India,Bihar,Samastipur,"DM Office_Kasipur, Samastipur - BSPCB",12-03-2024 02:00:00,25.859655,85.77944,PM2.5,38,210,102
India,Bihar,Samastipur,"DM Office_Kasipur, Samastipur - BSPCB",12-03-2024 02:00:00,25.859655,85.77944,CO,16,34,26
India,Bihar,Sasaram,"Dada Peer, Sasaram - BSPCB",12-03-2024 02:00:00,24.952822,84.002396,OZONE,4,101,36
India,Bihar,Siwan,"Chitragupta Nagar, Siwan - BSPCB",12-03-2024 02:00:00,26.2271665,84.3570427,PM2.5,47,307,170
India,Bihar,Siwan,"Chitragupta Nagar, Siwan - BSPCB",12-03-2024 02:00:00,26.2271665,84.3570427,PM10,70,154,122
India,Bihar,Siwan,"Chitragupta Nagar, Siwan - BSPCB",12-03-2024 02:00:00,26.2271665,84.3570427,NO2,12,82,26
India,Chandigarh,Chandigarh,"Sector 22, Chandigarh - CPCC",12-03-2024 02:00:00,30.735567,76.775714,SO2,17,51,27
India,Chandigarh,Chandigarh,"Sector 22, Chandigarh - CPCC",12-03-2024 02:00:00,30.735567,76.775714,OZONE,17,269,84
India,Chandigarh,Chandigarh,"Sector-53, Chandigarh - CPCC",12-03-2024 02:00:00,30.719859,76.738637,SO2,12,30,18
India,Chhattisgarh,Bhilai,"32Bungalows, Bhilai - CECB",12-03-2024 02:00:00,21.194815,81.314770,CO,17,50,31
India,Chhattisgarh,Bhilai,"Hathkhoj, Bhilai - CECB",12-03-2024 02:00:00,21.224231,81.408350,NH3,7,8,8
India,Chhattisgarh,Bhilai,"Hathkhoj, Bhilai - CECB",12-03-2024 02:00:00,21.224231,81.408350,SO2,14,40,21
India,Chhattisgarh,Bhilai,"Hathkhoj, Bhilai - CECB",12-03-2024 02:00:00,21.224231,81.408350,CO,18,84,55
India,Chhattisgarh,Chhal,"Nawapara SECL Colony, Chhal - CECB",12-03-2024 02:00:00,22.118125,83.140608,SO2,12,34,19
India,Chhattisgarh,Chhal,"Nawapara SECL Colony, Chhal - CECB",12-03-2024 02:00:00,22.118125,83.140608,OZONE,3,43,11
India,Chhattisgarh,Korba,"Urja Nagar, Korba - CECB",12-03-2024 02:00:00,22.348441,82.549611,PM10,70,485,175
India,Chhattisgarh,Korba,"Urja Nagar, Korba - CECB",12-03-2024 02:00:00,22.348441,82.549611,NO2,72,87,80
India,Chhattisgarh,Kunjemura,"OP Jindal School, Kunjemura - CECB",12-03-2024 02:00:00,22.126650,83.483212,PM10,49,410,168
India,Chhattisgarh,Kunjemura,"OP Jindal School, Kunjemura - CECB",12-03-2024 02:00:00,22.126650,83.483212,OZONE,4,95,33
India,Chhattisgarh,Milupara,"Govt. Higher Secondary School, Milupara - CECB",12-03-2024 02:00:00,22.1910172,83.5197009,PM2.5,NA,NA,NA
India,Chhattisgarh,Milupara,"Govt. Higher Secondary School, Milupara - CECB",12-03-2024 02:00:00,22.1910172,83.5197009,OZONE,1,51,11
India,Chhattisgarh,Raipur,"AIIMS, Raipur - CECB",12-03-2024 02:00:00,21.258815,81.578979,PM2.5,31,224,77
India,Chhattisgarh,Raipur,"Bhatagaon New ISBT, Raipur - CECB",12-03-2024 02:00:00,21.219665,81.630094,PM2.5,1,122,41
India,Chhattisgarh,Raipur,"Bhatagaon New ISBT, Raipur - CECB",12-03-2024 02:00:00,21.219665,81.630094,SO2,3,5,5
India,Chhattisgarh,Raipur,"Bhatagaon New ISBT, Raipur - CECB",12-03-2024 02:00:00,21.219665,81.630094,CO,24,58,45
India,Chhattisgarh,Raipur,"Bhatagaon New ISBT, Raipur - CECB",12-03-2024 02:00:00,21.219665,81.630094,OZONE,3,8,4
India,Chhattisgarh,Raipur,"Krishak Nagar, Raipur - CECB",12-03-2024 02:00:00,21.237755,81.705301,NH3,1,1,1
India,Chhattisgarh,Raipur,"Siltara Phase-II, Raipur - CECB",12-03-2024 02:00:00,21.371751,81.664929,NO2,41,78,58
India,Chhattisgarh,Raipur,"Siltara Phase-II, Raipur - CECB",12-03-2024 02:00:00,21.371751,81.664929,OZONE,3,45,8
India,Chhattisgarh,Tumidih,"OP Jindal Industrial Park, Tumidih - CECB",12-03-2024 02:00:00,22.06631475,83.33820077,SO2,5,18,9
India,Delhi,Delhi,"Alipur, Delhi - DPCC",12-03-2024 02:00:00,28.815329,77.153010,CO,28,76,55
India,Delhi,Delhi,"Aya Nagar, Delhi - IMD",12-03-2024 02:00:00,28.4706914,77.1099364,PM10,119,269,161
India,Delhi,Delhi,"Aya Nagar, Delhi - IMD",12-03-2024 02:00:00,28.4706914,77.1099364,OZONE,1,69,27
India,Delhi,Delhi,"Bawana, Delhi - DPCC",12-03-2024 02:00:00,28.776200,77.051074,NH3,5,8,6
India,Delhi,Delhi,"Chandni Chowk, Delhi - IITM",12-03-2024 02:00:00,28.656756,77.227234,PM2.5,163,332,257
India,Delhi,Delhi,"DTU, Delhi - CPCB",12-03-2024 02:00:00,28.7500499,77.1112615,NH3,9,17,12
India,Delhi,Delhi,"Dr. Karni Singh Shooting Range, Delhi - DPCC",12-03-2024 02:00:00,28.498571,77.264840,CO,23,106,63
India,Delhi,Delhi,"Dr. Karni Singh Shooting Range, Delhi - DPCC",12-03-2024 02:00:00,28.498571,77.264840,OZONE,1,235,49
India,Delhi,Delhi,"Dwarka-Sector 8, Delhi - DPCC ",12-03-2024 02:00:00,28.5710274,77.0719006,PM2.5,78,323,177
India,Delhi,Delhi,"Dwarka-Sector 8, Delhi - DPCC ",12-03-2024 02:00:00,28.5710274,77.0719006,CO,24,108,55
India,Delhi,Delhi,"Dwarka-Sector 8, Delhi - DPCC ",12-03-2024 02:00:00,28.5710274,77.0719006,OZONE,1,97,37
India,Delhi,Delhi,"IGI Airport (T3), Delhi - IMD",12-03-2024 02:00:00,28.5627763,77.1180053,PM10,80,182,124
India,Delhi,Delhi,"IHBAS, Dilshad Garden, Delhi - CPCB",12-03-2024 02:00:00,28.6811736,77.3025234,PM2.5,45,291,160
India,Delhi,Delhi,"IHBAS, Dilshad Garden, Delhi - CPCB",12-03-2024 02:00:00,28.6811736,77.3025234,SO2,8,26,17
India,Delhi,Delhi,"ITO, Delhi - CPCB",12-03-2024 02:00:00,28.628624,77.241060,PM10,98,234,140
India,Delhi,Delhi,"Jawaharlal Nehru Stadium, Delhi - DPCC",12-03-2024 02:00:00,28.580280,77.233829,OZONE,1,271,41
India,Delhi,Delhi,"Lodhi Road, Delhi - IITM",12-03-2024 02:00:00,28.588333,77.221667,PM2.5,NA,NA,NA
India,Delhi,Delhi,"Lodhi Road, Delhi - IMD",12-03-2024 02:00:00,28.5918245,77.2273074,CO,10,50,24
India,Delhi,Delhi,"Lodhi Road, Delhi - IMD",12-03-2024 02:00:00,28.5918245,77.2273074,OZONE,6,141,30
India,Delhi,Delhi,"Major Dhyan Chand National Stadium, Delhi - DPCC",12-03-2024 02:00:00,28.611281,77.237738,PM10,96,193,141
India,Delhi,Delhi,"Major Dhyan Chand National Stadium, Delhi - DPCC",12-03-2024 02:00:00,28.611281,77.237738,NO2,36,146,89
India,Delhi,Delhi,"Major Dhyan Chand National Stadium, Delhi - DPCC",12-03-2024 02:00:00,28.611281,77.237738,CO,78,115,100
India,Delhi,Delhi,"Mandir Marg, Delhi - DPCC",12-03-2024 02:00:00,28.636429,77.201067,NH3,10,13,12
India,Delhi,Delhi,"Mandir Marg, Delhi - DPCC",12-03-2024 02:00:00,28.636429,77.201067,CO,56,97,75
India,Delhi,Delhi,"Mundka, Delhi - DPCC",12-03-2024 02:00:00,28.684678,77.076574,PM10,131,341,204
India,Delhi,Delhi,"Mundka, Delhi - DPCC",12-03-2024 02:00:00,28.684678,77.076574,NH3,5,8,6
India,Delhi,Delhi,"NSIT Dwarka, Delhi - CPCB",12-03-2024 02:00:00,28.60909,77.0325413,NO2,30,60,48
India,Delhi,Delhi,"NSIT Dwarka, Delhi - CPCB",12-03-2024 02:00:00,28.60909,77.0325413,CO,28,99,59
India,Delhi,Delhi,"NSIT Dwarka, Delhi - CPCB",12-03-2024 02:00:00,28.60909,77.0325413,OZONE,13,139,57
India,Delhi,Delhi,"Najafgarh, Delhi - DPCC",12-03-2024 02:00:00,28.570173,76.933762,CO,8,65,51
India,Delhi,Delhi,"Najafgarh, Delhi - DPCC",12-03-2024 02:00:00,28.570173,76.933762,OZONE,2,245,88
India,Delhi,Delhi,"Narela, Delhi - DPCC",12-03-2024 02:00:00,28.822836,77.101981,PM10,91,381,191
India,Delhi,Delhi,"Narela, Delhi - DPCC",12-03-2024 02:00:00,28.822836,77.101981,CO,33,99,64
India,Delhi,Delhi,"Nehru Nagar, Delhi - DPCC",12-03-2024 02:00:00,28.567890,77.250515,PM2.5,73,354,200
India,Delhi,Delhi,"Nehru Nagar, Delhi - DPCC",12-03-2024 02:00:00,28.567890,77.250515,NH3,5,10,8
India,Delhi,Delhi,"New Moti Bagh, Delhi - MHUA",12-03-2024 02:00:00,28.57834,77.18400,NO2,1,5,2
India,Delhi,Delhi,"North Campus, DU, Delhi - IMD",12-03-2024 02:00:00,28.6573814,77.1585447,PM2.5,94,312,204
India,Delhi,Delhi,"North Campus, DU, Delhi - IMD",12-03-2024 02:00:00,28.6573814,77.1585447,PM10,120,229,153
India,Delhi,Delhi,"North Campus, DU, Delhi - IMD",12-03-2024 02:00:00,28.6573814,77.1585447,CO,44,103,48
India,Delhi,Delhi,"Okhla Phase-2, Delhi - DPCC",12-03-2024 02:00:00,28.530785,77.271255,OZONE,10,179,55
India,Delhi,Delhi,"Patparganj, Delhi - DPCC",12-03-2024 02:00:00,28.623763,77.287209,PM2.5,52,224,111
India,Delhi,Delhi,"Patparganj, Delhi - DPCC",12-03-2024 02:00:00,28.623763,77.287209,PM10,126,276,186
India,Delhi,Delhi,"Patparganj, Delhi - DPCC",12-03-2024 02:00:00,28.623763,77.287209,NH3,6,14,9
India,Delhi,Delhi,"Punjabi Bagh, Delhi - DPCC",12-03-2024 02:00:00,28.674045,77.131023,NO2,12,35,24
India,Delhi,Delhi,"Pusa, Delhi - DPCC",12-03-2024 02:00:00,28.639652,77.146275,CO,42,123,67
India,Delhi,Delhi,"Pusa, Delhi - IMD",12-03-2024 02:00:00,28.636110,77.173332,OZONE,1,21,17
India,Delhi,Delhi,"Rohini, Delhi - DPCC",12-03-2024 02:00:00,28.732528,77.119920,PM2.5,55,336,193
India,Delhi,Delhi,"Rohini, Delhi - DPCC",12-03-2024 02:00:00,28.732528,77.119920,CO,22,100,38
India,Delhi,Delhi,"Shadipur, Delhi - CPCB",12-03-2024 02:00:00,28.6514781,77.1473105,NH3,1,7,5
India,Delhi,Delhi,"Shadipur, Delhi - CPCB",12-03-2024 02:00:00,28.6514781,77.1473105,SO2,6,27,17
India,Delhi,Delhi,"Sirifort, Delhi - CPCB",12-03-2024 02:00:00,28.5504249,77.2159377,NO2,136,227,185
India,Delhi,Delhi,"Sirifort, Delhi - CPCB",12-03-2024 02:00:00,28.5504249,77.2159377,SO2,40,46,42
India,Delhi,Delhi,"Sirifort, Delhi - CPCB",12-03-2024 02:00:00,28.5504249,77.2159377,OZONE,5,129,23
India,Delhi,Delhi,"Sonia Vihar, Delhi - DPCC",12-03-2024 02:00:00,28.710508,77.249485,PM10,107,401,170
India,Delhi,Delhi,"Sonia Vihar, Delhi - DPCC",12-03-2024 02:00:00,28.710508,77.249485,CO,51,107,68
India,Delhi,Delhi,"Sri Aurobindo Marg, Delhi - DPCC",12-03-2024 02:00:00,28.531346,77.190156,OZONE,1,57,12
India,Delhi,Delhi,"Wazirpur, Delhi - DPCC",12-03-2024 02:00:00,28.699793,77.165453,SO2,21,55,34
India,Gujarat,Ahmedabad,"Chandkheda, Ahmedabad - IITM",12-03-2024 02:00:00,23.107969,72.574648,PM10,64,150,109
India,Gujarat,Ahmedabad,"Chandkheda, Ahmedabad - IITM",12-03-2024 02:00:00,23.107969,72.574648,SO2,6,19,10
India,Gujarat,Ahmedabad,"Chandkheda, Ahmedabad - IITM",12-03-2024 02:00:00,23.107969,72.574648,OZONE,5,62,18
India,Gujarat,Ahmedabad,"Raikhad, Ahmedabad - IITM",12-03-2024 02:00:00,23.020509,72.579261,NH3,1,1,1
India,Gujarat,Ahmedabad,"Rakhial, Ahmedabad - IITM",12-03-2024 02:00:00,23.016834,72.625775,PM10,40,500,155
India,Gujarat,Ahmedabad,"Rakhial, Ahmedabad - IITM",12-03-2024 02:00:00,23.016834,72.625775,CO,1,48,19
India,Gujarat,Ahmedabad,"SAC ISRO Satellite, Ahmedabad - IITM",12-03-2024 02:00:00,23.023389,72.515201,NO2,17,18,17
India,Gujarat,Ahmedabad,"SAC ISRO Satellite, Ahmedabad - IITM",12-03-2024 02:00:00,23.023389,72.515201,SO2,1,8,4
India,Gujarat,Ahmedabad,"SAC ISRO Satellite, Ahmedabad - IITM",12-03-2024 02:00:00,23.023389,72.515201,CO,20,21,20
India,Gujarat,Ahmedabad,"SVPI Airport Hansol, Ahmedabad - IITM",12-03-2024 02:00:00,23.076793,72.627874,CO,26,75,39
India,Gujarat,Ahmedabad,"Sardar Vallabhbhai Patel Stadium, Ahmedabad - IITM",12-03-2024 02:00:00,23.043070,72.562968,NO2,1,17,8
India,Gujarat,Ahmedabad,"Sardar Vallabhbhai Patel Stadium, Ahmedabad - IITM",12-03-2024 02:00:00,23.043070,72.562968,NH3,1,4,3
India,Gujarat,Ahmedabad,"Sardar Vallabhbhai Patel Stadium, Ahmedabad - IITM",12-03-2024 02:00:00,23.043070,72.562968,OZONE,12,34,24
India,Gujarat,Gandhinagar,"GIFT City, Gandhinagar - IITM",12-03-2024 02:00:00,23.163798,72.677768,SO2,6,8,7
India,Gujarat,Gandhinagar,"IIPHG Lekawada, Gandhinagar - IITM",12-03-2024 02:00:00,23.243639,72.68994,CO,22,24,23
India,Gujarat,Gandhinagar,"Sector-10, Gandhinagar - GPCB",12-03-2024 02:00:00,23.221714,72.654328,PM10,29,115,76
India,Gujarat,Nandesari,"GIDC, Nandesari - Nandesari Ind. Association",12-03-2024 02:00:00,22.410802,73.097923,PM2.5,65,388,238
India,Gujarat,Surat,"Science Center, Surat - SMC",12-03-2024 02:00:00,21.170046,72.795405,PM2.5,25,104,48
India,Gujarat,Vapi,"Phase-1 GIDC, Vapi - GPCB",12-03-2024 02:00:00,20.362421,72.918013,PM2.5,50,308,114
India,Gujarat,Vapi,"Phase-1 GIDC, Vapi - GPCB",12-03-2024 02:00:00,20.362421,72.918013,PM10,78,266,121
India,Haryana,Ambala,"Patti Mehar, Ambala - HSPCB",12-03-2024 02:00:00,30.379589,76.778328,OZONE,34,46,41
India,Haryana,Bahadurgarh,"Arya Nagar, Bahadurgarh - HSPCB",12-03-2024 02:00:00,28.6701,76.9254,PM2.5,63,322,194
India,Haryana,Bahadurgarh,"Arya Nagar, Bahadurgarh - HSPCB",12-03-2024 02:00:00,28.6701,76.9254,OZONE,36,51,43
India,Haryana,Ballabgarh,"Nathu Colony, Ballabgarh - HSPCB",12-03-2024 02:00:00,28.3419248,77.319699,NH3,1,2,2
India,Haryana,Bhiwani,"H.B. Colony, Bhiwani - HSPCB",12-03-2024 02:00:00,28.806223,76.141105,NH3,5,6,6
India,Haryana,Bhiwani,"H.B. Colony, Bhiwani - HSPCB",12-03-2024 02:00:00,28.806223,76.141105,SO2,4,55,10
India,Haryana,Dharuhera,"Municipal Corporation Office, Dharuhera -  HSPCB",12-03-2024 02:00:00,28.206800,76.799700,NO2,45,113,70
India,Haryana,Dharuhera,"Municipal Corporation Office, Dharuhera -  HSPCB",12-03-2024 02:00:00,28.206800,76.799700,NH3,9,26,19
India,Haryana,Dharuhera,"Municipal Corporation Office, Dharuhera -  HSPCB",12-03-2024 02:00:00,28.206800,76.799700,CO,20,78,40
India,Haryana,Faridabad,"New Industrial Town, Faridabad - HSPCB",12-03-2024 02:00:00,28.39072,77.30059,PM2.5,8,398,208
India,Haryana,Faridabad,"New Industrial Town, Faridabad - HSPCB",12-03-2024 02:00:00,28.39072,77.30059,SO2,21,28,24
India,Haryana,Faridabad,"Sector 11, Faridabad - HSPCB",12-03-2024 02:00:00,28.376058,77.315741,NO2,29,33,31
India,Haryana,Faridabad,"Sector 11, Faridabad - HSPCB",12-03-2024 02:00:00,28.376058,77.315741,CO,6,50,22
India,Haryana,Fatehabad,"Huda Sector, Fatehabad - HSPCB",12-03-2024 02:00:00,29.503664,75.467934,PM2.5,40,192,79
India,Haryana,Fatehabad,"Huda Sector, Fatehabad - HSPCB",12-03-2024 02:00:00,29.503664,75.467934,OZONE,82,95,91
India,Haryana,Gurugram,"Sector-51, Gurugram - HSPCB",12-03-2024 02:00:00,28.4227,77.0667,PM2.5,155,356,255
India,Haryana,Gurugram,"Sector-51, Gurugram - HSPCB",12-03-2024 02:00:00,28.4227,77.0667,PM10,104,361,187
India,Haryana,Gurugram,"Sector-51, Gurugram - HSPCB",12-03-2024 02:00:00,28.4227,77.0667,NO2,13,29,23
India,Haryana,Gurugram,"Sector-51, Gurugram - HSPCB",12-03-2024 02:00:00,28.4227,77.0667,CO,33,100,42
India,Haryana,Gurugram,"Teri Gram, Gurugram - HSPCB",12-03-2024 02:00:00,28.4275,77.1465,PM2.5,39,350,189
India,Haryana,Gurugram,"Teri Gram, Gurugram - HSPCB",12-03-2024 02:00:00,28.4275,77.1465,NH3,19,49,31
India,Haryana,Gurugram,"Vikas Sadan, Gurugram - HSPCB",12-03-2024 02:00:00,28.4501238,77.0263051,NO2,5,26,14
India,Haryana,Gurugram,"Vikas Sadan, Gurugram - HSPCB",12-03-2024 02:00:00,28.4501238,77.0263051,OZONE,7,68,19
India,Haryana,Hisar,"Urban Estate-II, Hisar - HSPCB",12-03-2024 02:00:00,29.140560,75.744941,NO2,21,67,30
India,Haryana,Hisar,"Urban Estate-II, Hisar - HSPCB",12-03-2024 02:00:00,29.140560,75.744941,NH3,9,27,12
India,Haryana,Hisar,"Urban Estate-II, Hisar - HSPCB",12-03-2024 02:00:00,29.140560,75.744941,SO2,5,93,41
India,Haryana,Kaithal,"Rishi Nagar, Kaithal - HSPCB",12-03-2024 02:00:00,29.8006,76.4155,OZONE,11,22,15
India,Haryana,Karnal,"Sector-12, Karnal - HSPCB",12-03-2024 02:00:00,29.695300,77.002700,PM10,60,104,75
India,Haryana,Kurukshetra,"Sector-7, Kurukshetra - HSPCB",12-03-2024 02:00:00,29.966942,76.875879,NH3,4,5,5
India,Haryana,Kurukshetra,"Sector-7, Kurukshetra - HSPCB",12-03-2024 02:00:00,29.966942,76.875879,SO2,1,73,34
India,Haryana,Manesar,"Sector-2 IMT, Manesar - HSPCB",12-03-2024 02:00:00,28.360699,76.936090,PM2.5,49,193,100
India,Haryana,Manesar,"Sector-2 IMT, Manesar - HSPCB",12-03-2024 02:00:00,28.360699,76.936090,NH3,2,4,3
India,Haryana,Narnaul,"Shastri Nagar, Narnaul - HSPCB",12-03-2024 02:00:00,28.060249,76.113115,NH3,5,18,11
India,Haryana,Panchkula,"Sector-6, Panchkula - HSPCB ",12-03-2024 02:00:00,30.7057778,76.8531805555555,CO,5,16,14
India,Haryana,Panipat,"Sector-18, Panipat - HSPCB",12-03-2024 02:00:00,29.497973,76.993331,CO,24,26,25
India,Haryana,Rohtak,"MD University, Rohtak - HSPCB",12-03-2024 02:00:00,28.52123,76.37138,OZONE,43,54,49
India,Haryana,Yamuna Nagar,"Gobind Pura, Yamuna Nagar - HSPCB",12-03-2024 02:00:00,30.1480566,77.2893471,NH3,1,6,3
India,Himachal Pradesh,Baddi,"HIMUDA Complex Phase-1, Baddi - HPPCB",12-03-2024 02:00:00,30.943887,76.801991,NO2,15,54,29
India,Jharkhand,Dhanbad,"Kalakusuma, Dhanbad - DMC",12-03-2024 02:00:00,23.811548,86.481238,SO2,13,128,23
India,Jharkhand,Dhanbad,"Sardar Patel Nagar, Dhanbad - JSPCB",12-03-2024 02:00:00,23.80569,86.44268,PM10,NA,NA,NA
India,Jharkhand,Pathardih,"Mohalbani Ghat, Pathardih - DMC",12-03-2024 02:00:00,23.669880,86.411725,CO,142,159,149
India,Karnataka,Bagalkot,"Vidayagiri, Bagalkot - KSPCB",12-03-2024 02:00:00,16.172806,75.659694,CO,13,50,36
India,Karnataka,Bengaluru,"BTM Layout, Bengaluru - CPCB",12-03-2024 02:00:00,12.9135218,77.5950804,PM2.5,37,73,49
India,Karnataka,Bengaluru,"BTM Layout, Bengaluru - CPCB",12-03-2024 02:00:00,12.9135218,77.5950804,OZONE,28,86,66
India,Karnataka,Bengaluru,"Bapuji Nagar, Bengaluru - KSPCB",12-03-2024 02:00:00,12.951913,77.539784,NH3,1,1,1
India,Karnataka,Bengaluru,"Bapuji Nagar, Bengaluru - KSPCB",12-03-2024 02:00:00,12.951913,77.539784,CO,37,50,45
India,Karnataka,Bengaluru,"Hebbal, Bengaluru - KSPCB",12-03-2024 02:00:00,13.029152,77.585901,PM2.5,50,92,76
India,Karnataka,Bengaluru,"Hombegowda Nagar, Bengaluru - KSPCB",12-03-2024 02:00:00,12.938539,77.590100,PM2.5,65,132,80
India,Karnataka,Bengaluru,"Jayanagar 5th Block, Bengaluru - KSPCB",12-03-2024 02:00:00,12.920984,77.584908,PM10,73,132,104
India,Karnataka,Bengaluru,"Jayanagar 5th Block, Bengaluru - KSPCB",12-03-2024 02:00:00,12.920984,77.584908,CO,7,42,28
India,Karnataka,Bengaluru,"Jigani, Bengaluru - KSPCB",12-03-2024 02:00:00,12.7816279,77.6299145,SO2,NA,NA,NA
India,Karnataka,Bengaluru,"Jigani, Bengaluru - KSPCB",12-03-2024 02:00:00,12.7816279,77.6299145,OZONE,NA,NA,NA
India,Karnataka,Bengaluru,"Kasturi Nagar, Bengaluru - KSPCB",12-03-2024 02:00:00,13.003872,77.664217,PM10,113,150,132
India,Karnataka,Bengaluru,"Kasturi Nagar, Bengaluru - KSPCB",12-03-2024 02:00:00,13.003872,77.664217,OZONE,27,117,68
India,Karnataka,Bengaluru,"Peenya, Bengaluru - CPCB",12-03-2024 02:00:00,13.0270199,77.494094,OZONE,28,115,65
India,Karnataka,Bengaluru,"RVCE-Mailasandra, Bengaluru - KSPCB",12-03-2024 02:00:00,12.921418,77.502466,PM10,NA,NA,NA
India,Karnataka,Bengaluru,"RVCE-Mailasandra, Bengaluru - KSPCB",12-03-2024 02:00:00,12.921418,77.502466,NO2,34,99,79
India,Karnataka,Bengaluru,"Shivapura_Peenya, Bengaluru - KSPCB",12-03-2024 02:00:00,13.0246342,77.5080115,PM2.5,36,202,87
India,Karnataka,Bengaluru,"Silk Board, Bengaluru - KSPCB",12-03-2024 02:00:00,12.917348,77.622813,NH3,2,2,2
India,Karnataka,Bidar,"Naubad, Bidar - KSPCB",12-03-2024 02:00:00,17.930306,77.482194,NO2,7,8,8
India,Karnataka,Bidar,"Naubad, Bidar - KSPCB",12-03-2024 02:00:00,17.930306,77.482194,OZONE,10,40,29
India,Karnataka,Chamarajanagar,"Urban, Chamarajanagar - KSPCB",12-03-2024 02:00:00,11.55358,76.55521,PM2.5,21,54,31
India,Karnataka,Chamarajanagar,"Urban, Chamarajanagar - KSPCB",12-03-2024 02:00:00,11.55358,76.55521,NO2,23,53,34
India,Karnataka,Chikkaballapur,"Chikkaballapur Rural, Chikkaballapur - KSPCB",12-03-2024 02:00:00,13.428828,77.731418,PM10,55,131,83
India,Karnataka,Chikkaballapur,"Chikkaballapur Rural, Chikkaballapur - KSPCB",12-03-2024 02:00:00,13.428828,77.731418,OZONE,24,26,25
India,Karnataka,Chikkamagaluru,"Kalyana Nagara, Chikkamagaluru - KSPCB",12-03-2024 02:00:00,13.328028,75.797056,PM10,NA,NA,NA
India,Karnataka,Davanagere,"Devaraj Urs Badavane, Davanagere - KSPCB",12-03-2024 02:00:00,14.475800,75.905200,SO2,1,7,4
India,Karnataka,Gadag,"Panchal Nagar, Gadag - KSPCB",12-03-2024 02:00:00,15.411456,75.638133,NH3,1,3,2
India,Karnataka,Gadag,"Panchal Nagar, Gadag - KSPCB",12-03-2024 02:00:00,15.411456,75.638133,SO2,10,19,16
India,Karnataka,Hassan,"B.Katihalli, Hassan - KSPCB",12-03-2024 02:00:00,13.008556,76.125258,PM2.5,NA,NA,NA
India,Karnataka,Haveri,"Ashwini Nagar, Haveri - KSPCB",12-03-2024 02:00:00,14.791800,75.389600,NO2,28,39,33
India,Karnataka,Haveri,"Ashwini Nagar, Haveri - KSPCB",12-03-2024 02:00:00,14.791800,75.389600,OZONE,18,19,19
India,Karnataka,Hubballi,"Deshpande Nagar, Hubballi - KSPCB",12-03-2024 02:00:00,15.351773,75.140726,NO2,26,27,27
India,Karnataka,Hubballi,"Deshpande Nagar, Hubballi - KSPCB",12-03-2024 02:00:00,15.351773,75.140726,NH3,5,8,6
India,Karnataka,Hubballi,"Lingaraj Nagar, Hubballi - KSPCB",12-03-2024 02:00:00,15.3714823,75.1160168,NH3,2,2,2
India,Karnataka,Kalaburagi,"Mahatma Basaveswar Colony, Kalaburgi - KSPCB",12-03-2024 02:00:00,17.336318,76.847397,NO2,9,31,19
India,Karnataka,Kalaburagi,"Mahatma Basaveswar Colony, Kalaburgi - KSPCB",12-03-2024 02:00:00,17.336318,76.847397,NH3,2,4,3
India,Karnataka,Karwar,"KHB Colony, Karwar - KSPCB",12-03-2024 02:00:00,14.816666,74.141003,NH3,1,4,2
India,Karnataka,Kolar,"Tamaka Ind. Area, Kolar - KSPCB",12-03-2024 02:00:00,13.1276288,78.1570122,CO,14,27,27
India,Karnataka,Koppal,"Diwator Nagar, Koppal - KSPCB",12-03-2024 02:00:00,15.347630,76.181767,PM2.5,21,86,45
India,Karnataka,Madikeri,"Stuart Hill, Madikeri - KSPCB",12-03-2024 02:00:00,12.415911,75.735050,PM2.5,30,55,43
India,Karnataka,Madikeri,"Stuart Hill, Madikeri - KSPCB",12-03-2024 02:00:00,12.415911,75.735050,NH3,NA,NA,NA
India,Karnataka,Mangalore,"Kadri, Mangalore - KSPCB",12-03-2024 02:00:00,12.889250,74.853000,NO2,5,7,6
India,Karnataka,Mysuru,"Hebbal 1st Stage, Mysuru - KSPCB",12-03-2024 02:00:00,12.21041,76.37376,OZONE,10,117,24
India,Karnataka,Raichur,"Haji Colony, Raichur - KSPCB",12-03-2024 02:00:00,16.208139,77.348417,NH3,1,3,2
India,Karnataka,Raichur,"Haji Colony, Raichur - KSPCB",12-03-2024 02:00:00,16.208139,77.348417,SO2,65,81,72
India,Karnataka,Ramanagara,"Vijay Nagar, Ramanagara - KSPCB",12-03-2024 02:00:00,12.733409,77.298051,NH3,1,1,1
India,Karnataka,Tumakuru,"Thimmalapura, Tumakuru - KSPCB",12-03-2024 02:00:00,13.377516,77.099072,PM10,NA,NA,NA
India,Karnataka,Tumakuru,"Thimmalapura, Tumakuru - KSPCB",12-03-2024 02:00:00,13.377516,77.099072,NH3,NA,NA,NA
India,Karnataka,Tumakuru,"Thimmalapura, Tumakuru - KSPCB",12-03-2024 02:00:00,13.377516,77.099072,SO2,NA,NA,NA
India,Karnataka,Vijayapura,"Ibrahimpur, Vijayapura - KSPCB",12-03-2024 02:00:00,16.802639,75.722694,OZONE,13,16,15
India,Karnataka,Yadgir,"Collector Office, Yadgir - KSPCB",12-03-2024 02:00:00,16.7602,77.1428,PM10,42,91,71
India,Karnataka,Yadgir,"Collector Office, Yadgir - KSPCB",12-03-2024 02:00:00,16.7602,77.1428,NO2,5,6,5
India,Karnataka,Yadgir,"Collector Office, Yadgir - KSPCB",12-03-2024 02:00:00,16.7602,77.1428,SO2,6,51,22
India,Karnataka,Yadgir,"Collector Office, Yadgir - KSPCB",12-03-2024 02:00:00,16.7602,77.1428,OZONE,18,20,19
India,Kerala,Eloor,"Udyogamandal, Eloor - Kerala PCB",12-03-2024 02:00:00,10.073232,76.302765,PM2.5,26,41,32
India,Kerala,Kannur,"Thavakkara, Kannur - Kerala PCB",12-03-2024 02:00:00,11.875000,75.373200,PM10,65,77,70
India,Kerala,Kochi,"Vyttila, Kochi - Kerala PCB",12-03-2024 02:00:00,9.969447,76.321186,CO,56,73,63
India,Kerala,Thiruvananthapuram,"Kariavattom, Thiruvananthapuram - Kerala PCB",12-03-2024 02:00:00,8.563700,76.886500,NO2,8,9,9
India,Kerala,Thiruvananthapuram,"Plammoodu, Thiruvananthapuram - Kerala PCB",12-03-2024 02:00:00,8.5149093,76.9435879,OZONE,7,59,21
India,Madhya Pradesh,Bhopal,"Idgah Hills, Bhopal - MPPCB",12-03-2024 02:00:00,23.264759,77.381568,SO2,1,24,16
India,Madhya Pradesh,Bhopal,"Paryavaran Parisar, Bhopal - MPPCB",12-03-2024 02:00:00,23.210494,77.425409,NH3,7,15,10
India,Madhya Pradesh,Bhopal,"Paryavaran Parisar, Bhopal - MPPCB",12-03-2024 02:00:00,23.210494,77.425409,SO2,20,26,23
India,Madhya Pradesh,Bhopal,"T T Nagar, Bhopal - MPPCB",12-03-2024 02:00:00,23.233584,77.400574,CO,17,119,80
India,Madhya Pradesh,Dewas,"Bhopal Chauraha, Dewas - MPPCB",12-03-2024 02:00:00,22.9682591,76.064118,PM2.5,NA,NA,NA
India,Madhya Pradesh,Dewas,"Bhopal Chauraha, Dewas - MPPCB",12-03-2024 02:00:00,22.9682591,76.064118,PM10,NA,NA,NA
India,Madhya Pradesh,Dewas,"Bhopal Chauraha, Dewas - MPPCB",12-03-2024 02:00:00,22.9682591,76.064118,OZONE,NA,NA,NA
India,Madhya Pradesh,Gwalior,"Deen Dayal Nagar, Gwalior - MPPCB",12-03-2024 02:00:00,26.259242,78.216432,PM10,93,330,164
India,Madhya Pradesh,Gwalior,"Deen Dayal Nagar, Gwalior - MPPCB",12-03-2024 02:00:00,26.259242,78.216432,NH3,3,14,7
India,Madhya Pradesh,Gwalior,"Deen Dayal Nagar, Gwalior - MPPCB",12-03-2024 02:00:00,26.259242,78.216432,SO2,14,22,17
India,Madhya Pradesh,Gwalior,"Deen Dayal Nagar, Gwalior - MPPCB",12-03-2024 02:00:00,26.259242,78.216432,OZONE,20,185,71
India,Madhya Pradesh,Gwalior,"Maharaj Bada, Gwalior - MPPCB",12-03-2024 02:00:00,26.200388,78.147714,PM2.5,43,200,91
India,Madhya Pradesh,Gwalior,"Maharaj Bada, Gwalior - MPPCB",12-03-2024 02:00:00,26.200388,78.147714,PM10,55,233,143
India,Madhya Pradesh,Gwalior,"Maharaj Bada, Gwalior - MPPCB",12-03-2024 02:00:00,26.200388,78.147714,SO2,13,58,20
India,Madhya Pradesh,Indore,"Chhoti Gwaltoli, Indore - MPPCB",12-03-2024 02:00:00,22.4310,75.5213,PM2.5,37,162,72
India,Madhya Pradesh,Indore,"Chhoti Gwaltoli, Indore - MPPCB",12-03-2024 02:00:00,22.4310,75.5213,OZONE,24,115,42
India,Madhya Pradesh,Indore,"Residency Area, Indore - IMC",12-03-2024 02:00:00,22.7084,75.8815,PM10,41,111,69
India,Madhya Pradesh,Jabalpur,"Gupteshwar, Jabalpur - JMC",12-03-2024 02:00:00,23.142888,79.916147,PM10,54,147,85
India,Madhya Pradesh,Jabalpur,"Marhatal, Jabalpur - MPPCB",12-03-2024 02:00:00,23.168606,79.932247,NH3,3,5,4
India,Madhya Pradesh,Jabalpur,"Marhatal, Jabalpur - MPPCB",12-03-2024 02:00:00,23.168606,79.932247,CO,22,118,74
India,Madhya Pradesh,Jabalpur,"Marhatal, Jabalpur - MPPCB",12-03-2024 02:00:00,23.168606,79.932247,OZONE,17,92,45
India,Madhya Pradesh,Jabalpur,"Suhagi, Jabalpur - JMC",12-03-2024 02:00:00,23.218135,79.957770,PM10,24,154,89
India,Madhya Pradesh,Katni,"Gole Bazar, Katni - MPPCB",12-03-2024 02:00:00,23.50016,80.23284,CO,16,47,26
India,Madhya Pradesh,Mandideep,"Sector-D Industrial Area, Mandideep - MPPCB",12-03-2024 02:00:00,23.108440,77.511428,PM2.5,NA,NA,NA
India,Madhya Pradesh,Pithampur,"Sector-2 Industrial Area, Pithampur - MPPCB",12-03-2024 02:00:00,22.624758,75.675238,CO,54,62,57
India,Madhya Pradesh,Ratlam,"Shasthri Nagar, Ratlam - IPCA Lab",12-03-2024 02:00:00,23.331731,75.045981,NO2,16,80,45
India,Madhya Pradesh,Sagar,"Civil Lines, Sagar - MPPCB",12-03-2024 02:00:00,23.838586,78.759431,PM2.5,50,85,61
India,Madhya Pradesh,Sagar,"Deen Dayal Nagar, Sagar - MPPCB",12-03-2024 02:00:00,23.8640158,78.80289321,PM10,21,83,51
India,Madhya Pradesh,Satna,"Bandhavgar Colony, Satna - Birla Cement",12-03-2024 02:00:00,24.58434363,80.8549414,NO2,29,76,46
India,Madhya Pradesh,Singrauli,"Suryakiran Bhawan NCL, Singrauli - MPPCB",12-03-2024 02:00:00,24.108970,82.645580,PM2.5,50,302,93
India,Madhya Pradesh,Singrauli,"Suryakiran Bhawan NCL, Singrauli - MPPCB",12-03-2024 02:00:00,24.108970,82.645580,NO2,36,96,57
India,Madhya Pradesh,Singrauli,"Suryakiran Bhawan NCL, Singrauli - MPPCB",12-03-2024 02:00:00,24.108970,82.645580,CO,81,168,139
India,Madhya Pradesh,Ujjain,"Mahakaleshwar Temple, Ujjain - MPPCB",12-03-2024 02:00:00,23.182719 ,75.768218 ,NO2,8,40,24
India,Maharashtra,Ahmednagar,"Tarakpur, Ahmednagar - MPCB",12-03-2024 02:00:00,19.10122,74.73339,NO2,24,147,60
India,Maharashtra,Ahmednagar,"Tarakpur, Ahmednagar - MPCB",12-03-2024 02:00:00,19.10122,74.73339,CO,22,136,78
India,Maharashtra,Akola,"Ramdaspeth, Akola - MPCB",12-03-2024 02:00:00,20.719516,77.000253,PM10,49,158,95
India,Maharashtra,Akola,"Ramdaspeth, Akola - MPCB",12-03-2024 02:00:00,20.719516,77.000253,NO2,12,81,32
India,Maharashtra,Amravati,"Shivneri Colony, Amravati - MPCB",12-03-2024 02:00:00,20.9402359,77.7895248,CO,13,44,30
India,Maharashtra,Amravati,"Shivneri Colony, Amravati - MPCB",12-03-2024 02:00:00,20.9402359,77.7895248,OZONE,2,158,36
India,Maharashtra,Amravati,"Shri Shivaji Science College, Amaravati - MPCB",12-03-2024 02:00:00,20.939198,77.765701,NO2,5,44,16
India,Maharashtra,Aurangabad,"MIDC Chilkalthana, Aurangabad - MPCB",12-03-2024 02:00:00,19.875620,75.387310,NH3,3,4,4
India,Maharashtra,Aurangabad,"More Chowk Waluj, Aurangabad - MPCB",12-03-2024 02:00:00,19.8389439,75.244448,CO,6,63,38
India,Maharashtra,Aurangabad,"Rachnakar Colony, Aurangabad - MPCB",12-03-2024 02:00:00,19.863756,75.321188,SO2,NA,NA,NA
India,Maharashtra,Badlapur,"Katrap, Badlapur - MPCB",12-03-2024 02:00:00,19.16485,73.23409,NO2,6,23,12
India,Maharashtra,Badlapur,"Katrap, Badlapur - MPCB",12-03-2024 02:00:00,19.16485,73.23409,SO2,9,61,27
India,Maharashtra,Belapur,"CBD Belapur, Belapur - MPCB",12-03-2024 02:00:00,19.0243902,73.0406721,PM2.5,12,173,80
India,Maharashtra,Bhiwandi,"Gokul Nagar, Bhiwandi - MPCB",12-03-2024 02:00:00,19.309073,73.057223,NO2,18,93,49
India,Maharashtra,Bhiwandi,"Gokul Nagar, Bhiwandi - MPCB",12-03-2024 02:00:00,19.309073,73.057223,SO2,2,46,12
India,Maharashtra,Boisar,"Khaira, Boisar - MPCB",12-03-2024 02:00:00,19.786089,72.757971,PM10,NA,NA,NA
India,Maharashtra,Boisar,"Khaira, Boisar - MPCB",12-03-2024 02:00:00,19.786089,72.757971,NO2,NA,NA,NA
India,Maharashtra,Chandrapur,"Chauhan Colony, Chandrapur - MPCB",12-03-2024 02:00:00,19.962900,79.298714,SO2,2,108,33
India,Maharashtra,Chandrapur,"MIDC Khutala, Chandrapur - MPCB",12-03-2024 02:00:00,19.9775302,79.2337086,NH3,NA,NA,NA
India,Maharashtra,Chandrapur,"MIDC Khutala, Chandrapur - MPCB",12-03-2024 02:00:00,19.9775302,79.2337086,CO,NA,NA,NA
India,Maharashtra,Dhule,"Deopur, Dhule - MPCB",12-03-2024 02:00:00,20.918946,74.776388,PM2.5,54,271,153
India,Maharashtra,Jalgaon,"Prabhat Colony, Jalgaon - MPCB",12-03-2024 02:00:00,21.001264,75.565602,NH3,5,44,13
India,Maharashtra,Jalna,"Old MIDC, Jalna - MPCB",12-03-2024 02:00:00,19.854616,75.905894,PM2.5,63,316,169
India,Maharashtra,Jalna,"Old MIDC, Jalna - MPCB",12-03-2024 02:00:00,19.854616,75.905894,NO2,5,32,20
India,Maharashtra,Jalna,"Old MIDC, Jalna - MPCB",12-03-2024 02:00:00,19.854616,75.905894,NH3,6,7,7
India,Maharashtra,Kolhapur,"Shivaji University, Kolhapur - MPCB",12-03-2024 02:00:00,16.6870449,74.2505872,SO2,2,21,9
India,Maharashtra,Kolhapur,"Shivaji University, Kolhapur - MPCB",12-03-2024 02:00:00,16.6870449,74.2505872,OZONE,6,131,74
India,Maharashtra,Kolhapur,"Sinchan Bhavan, Kolhapur - MPCB",12-03-2024 02:00:00,16.7143745,74.2426398,PM2.5,NA,NA,NA
India,Maharashtra,Kolhapur,"Sinchan Bhavan, Kolhapur - MPCB",12-03-2024 02:00:00,16.7143745,74.2426398,NH3,NA,NA,NA
India,Maharashtra,Kolhapur,"Sinchan Bhavan, Kolhapur - MPCB",12-03-2024 02:00:00,16.7143745,74.2426398,OZONE,NA,NA,NA
India,Maharashtra,Latur,"Sawe Wadi, Latur - MPCB",12-03-2024 02:00:00,18.39963,76.57452,PM2.5,60,99,82
India,Maharashtra,Latur,"Sawe Wadi, Latur - MPCB",12-03-2024 02:00:00,18.39963,76.57452,SO2,5,16,9
India,Maharashtra,Mahad,"Kamble Tarf Birwadi, Mahad - MPCB",12-03-2024 02:00:00,18.1023399,73.4783687,PM2.5,83,237,171
India,Maharashtra,Mahad,"Kamble Tarf Birwadi, Mahad - MPCB",12-03-2024 02:00:00,18.1023399,73.4783687,PM10,104,175,129
India,Maharashtra,Mahad,"Kamble Tarf Birwadi, Mahad - MPCB",12-03-2024 02:00:00,18.1023399,73.4783687,NH3,10,23,15
India,Maharashtra,Mahad,"Kamble Tarf Birwadi, Mahad - MPCB",12-03-2024 02:00:00,18.1023399,73.4783687,CO,23,82,33
India,Maharashtra,Malegaon,"Mahesh Nagar, Malegaon - MPCB",12-03-2024 02:00:00,20.555712,74.529236,OZONE,14,104,30
India,Maharashtra,Mira-Bhayandar,"Bhayandar West, Mira-Bhayandar - MPCB",12-03-2024 02:00:00,19.296481,72.840923,NH3,4,9,5
India,Maharashtra,Mira-Bhayandar,"Bhayandar West, Mira-Bhayandar - MPCB",12-03-2024 02:00:00,19.296481,72.840923,SO2,4,26,13
India,Maharashtra,Mumbai,"Bandra Kurla Complex, Mumbai - MPCB",12-03-2024 02:00:00,19.065931,72.862131,PM2.5,62,104,77
India,Maharashtra,Mumbai,"Bandra Kurla Complex, Mumbai - MPCB",12-03-2024 02:00:00,19.065931,72.862131,NO2,11,52,27
India,Maharashtra,Mumbai,"Bandra Kurla Complex, Mumbai - MPCB",12-03-2024 02:00:00,19.065931,72.862131,NH3,7,11,9
India,Maharashtra,Mumbai,"Bandra Kurla Complex, Mumbai - MPCB",12-03-2024 02:00:00,19.065931,72.862131,SO2,1,18,8
India,Maharashtra,Mumbai,"Borivali East, Mumbai - IITM",12-03-2024 02:00:00,19.23241,72.86895,NO2,67,141,95
India,Maharashtra,Mumbai,"Byculla, Mumbai - BMC",12-03-2024 02:00:00,18.9767,72.8380,NH3,6,7,6
India,Maharashtra,Mumbai,"Byculla, Mumbai - BMC",12-03-2024 02:00:00,18.9767,72.8380,CO,18,39,22
India,Maharashtra,Mumbai,"Chembur, Mumbai - MPCB",12-03-2024 02:00:00,19.0364585,72.8954371,PM10,NA,NA,NA
India,Maharashtra,Mumbai,"Chhatrapati Shivaji Intl. Airport (T2), Mumbai - MPCB",12-03-2024 02:00:00,19.10078,72.87462,SO2,23,32,27
India,Maharashtra,Mumbai,"Chhatrapati Shivaji Intl. Airport (T2), Mumbai - MPCB",12-03-2024 02:00:00,19.10078,72.87462,CO,61,102,78
India,Maharashtra,Mumbai,"Colaba, Mumbai - MPCB",12-03-2024 02:00:00,18.910000,72.820000,OZONE,5,11,8
India,Maharashtra,Mumbai,"Ghatkopar, Mumbai - BMC",12-03-2024 02:00:00,19.083694,72.920967,CO,10,40,21
India,Maharashtra,Mumbai,"Ghatkopar, Mumbai - BMC",12-03-2024 02:00:00,19.083694,72.920967,OZONE,1,48,11
India,Maharashtra,Mumbai,"Kandivali East, Mumbai - MPCB",12-03-2024 02:00:00,19.205800,72.868200,PM10,52,166,113
India,Maharashtra,Mumbai,"Kandivali East, Mumbai - MPCB",12-03-2024 02:00:00,19.205800,72.868200,OZONE,29,31,30
India,Maharashtra,Mumbai,"Kherwadi_Bandra East, Mumbai - MPCB",12-03-2024 02:00:00,19.0632143,72.8456324,PM10,86,219,144
India,Maharashtra,Mumbai,"Kherwadi_Bandra East, Mumbai - MPCB",12-03-2024 02:00:00,19.0632143,72.8456324,NO2,16,133,60
India,Maharashtra,Mumbai,"Kherwadi_Bandra East, Mumbai - MPCB",12-03-2024 02:00:00,19.0632143,72.8456324,OZONE,1,133,55
India,Maharashtra,Mumbai,"Kurla, Mumbai - MPCB",12-03-2024 02:00:00,19.0863,72.8888,CO,18,46,26
India,Maharashtra,Mumbai,"Kurla, Mumbai - MPCB",12-03-2024 02:00:00,19.0863,72.8888,OZONE,28,68,38
India,Maharashtra,Mumbai,"Mulund West, Mumbai - MPCB",12-03-2024 02:00:00,19.1750,72.9419,NO2,23,29,25
India,Maharashtra,Mumbai,"Navy Nagar-Colaba, Mumbai - IITM",12-03-2024 02:00:00,18.897756,72.813320,PM10,NA,NA,NA
India,Maharashtra,Mumbai,"Navy Nagar-Colaba, Mumbai - IITM",12-03-2024 02:00:00,18.897756,72.813320,NH3,NA,NA,NA
India,Maharashtra,Mumbai,"Powai, Mumbai - MPCB",12-03-2024 02:00:00,19.137500,72.915056,PM2.5,25,86,48
India,Maharashtra,Mumbai,"Powai, Mumbai - MPCB",12-03-2024 02:00:00,19.137500,72.915056,OZONE,24,135,77
India,Maharashtra,Mumbai,"Sion, Mumbai - MPCB",12-03-2024 02:00:00,19.047000,72.874600,PM2.5,46,109,60
India,Maharashtra,Mumbai,"Vile Parle West, Mumbai - MPCB",12-03-2024 02:00:00,19.10861,72.83622,NO2,1,34,10
India,Maharashtra,Mumbai,"Vile Parle West, Mumbai - MPCB",12-03-2024 02:00:00,19.10861,72.83622,NH3,4,10,9
India,Maharashtra,Mumbai,"Vile Parle West, Mumbai - MPCB",12-03-2024 02:00:00,19.10861,72.83622,OZONE,4,5,4
India,Maharashtra,Mumbai,"Worli, Mumbai - MPCB",12-03-2024 02:00:00,18.9936162,72.8128113,NH3,1,1,1
India,Maharashtra,Nagpur,"Ambazari, Nagpur - MPCB",12-03-2024 02:00:00,21.121801,79.04952,OZONE,13,117,45
India,Maharashtra,Nagpur,"Mahal, Nagpur - MPCB",12-03-2024 02:00:00,21.14472,79.107595,SO2,12,64,34
India,Maharashtra,Nagpur,"Mahal, Nagpur - MPCB",12-03-2024 02:00:00,21.14472,79.107595,CO,22,133,89
India,Maharashtra,Nagpur,"Mahal, Nagpur - MPCB",12-03-2024 02:00:00,21.14472,79.107595,OZONE,1,106,26
India,Maharashtra,Nagpur,"Opp GPO Civil Lines, Nagpur - MPCB",12-03-2024 02:00:00,21.152875,79.0517531,CO,19,126,78
India,Maharashtra,Nagpur,"Ram Nagar, Nagpur - MPCB",12-03-2024 02:00:00,21.143383,79.048912,PM2.5,44,153,94
India,Maharashtra,Nashik,"Gangapur Road, Nashik - MPCB",12-03-2024 02:00:00,20.0073285,73.7762427,SO2,1,6,3
India,Maharashtra,Nashik,"Gangapur Road, Nashik - MPCB",12-03-2024 02:00:00,20.0073285,73.7762427,OZONE,8,80,25
India,Maharashtra,Nashik,"Hirawadi, Nashik - MPCB",12-03-2024 02:00:00,20.021503,73.813844,PM2.5,36,80,57
India,Maharashtra,Nashik,"Hirawadi, Nashik - MPCB",12-03-2024 02:00:00,20.021503,73.813844,NH3,1,1,1
India,Maharashtra,Nashik,"Hirawadi, Nashik - MPCB",12-03-2024 02:00:00,20.021503,73.813844,CO,3,44,20
India,Maharashtra,Nashik,"MIDC Ambad, Nashik - MPCB",12-03-2024 02:00:00,19.950220,73.731480,PM2.5,34,82,59
India,Maharashtra,Navi Mumbai,"Kopripada-Vashi, Navi Mumbai - MPCB",12-03-2024 02:00:00,19.090337,73.014232,CO,12,106,60
India,Maharashtra,Navi Mumbai,"Mahape, Navi Mumbai - MPCB",12-03-2024 02:00:00,19.1135051,73.008978,NO2,38,40,38
India,Maharashtra,Navi Mumbai,"Mahape, Navi Mumbai - MPCB",12-03-2024 02:00:00,19.1135051,73.008978,CO,34,68,53
India,Maharashtra,Navi Mumbai,"Sanpada, Navi Mumbai - MPCB",12-03-2024 02:00:00,19.0575752,73.0151367,PM2.5,NA,NA,NA
India,Maharashtra,Navi Mumbai,"Sanpada, Navi Mumbai - MPCB",12-03-2024 02:00:00,19.0575752,73.0151367,NO2,NA,NA,NA
India,Maharashtra,Navi Mumbai,"Sector-19A Nerul, Navi Mumbai - IITM",12-03-2024 02:00:00,19.044,73.0325,NO2,35,116,76
India,Maharashtra,Navi Mumbai,"Sector-2E Kalamboli, Navi Mumbai - MPCB",12-03-2024 02:00:00,19.02579,73.10297,NO2,3,107,45
India,Maharashtra,Navi Mumbai,"Sector-2E Kalamboli, Navi Mumbai - MPCB",12-03-2024 02:00:00,19.02579,73.10297,OZONE,1,79,1
India,Maharashtra,Navi Mumbai,"Tondare-Taloja, Navi Mumbai - MPCB",12-03-2024 02:00:00,19.0630,73.1209,PM2.5,22,313,174
India,Maharashtra,Parbhani,"Masoom Colony, Parbhani - MPCB",12-03-2024 02:00:00,19.265594,76.761463,PM2.5,NA,NA,NA
India,Maharashtra,Parbhani,"Masoom Colony, Parbhani - MPCB",12-03-2024 02:00:00,19.265594,76.761463,SO2,NA,NA,NA
India,Maharashtra,Parbhani,"Masoom Colony, Parbhani - MPCB",12-03-2024 02:00:00,19.265594,76.761463,OZONE,16,171,86
India,Maharashtra,Pimpri-Chinchwad,"Gavalinagar, Pimpri Chinchwad - MPCB",12-03-2024 02:00:00,18.63673,73.82487,SO2,5,38,18
India,Maharashtra,Pimpri-Chinchwad,"Gavalinagar, Pimpri Chinchwad - MPCB",12-03-2024 02:00:00,18.63673,73.82487,CO,12,102,36
India,Maharashtra,Pimpri-Chinchwad,"Park Street Wakad, Pimpri Chinchwad - MPCB",12-03-2024 02:00:00,18.59051,73.77946,NO2,56,165,97
India,Maharashtra,Pimpri-Chinchwad,"Park Street Wakad, Pimpri Chinchwad - MPCB",12-03-2024 02:00:00,18.59051,73.77946,SO2,3,27,13
India,Maharashtra,Pimpri-Chinchwad,"Thergaon, Pimpri Chinchwad - MPCB",12-03-2024 02:00:00,18.616318,73.765797,SO2,4,4,4
India,Maharashtra,Pimpri-Chinchwad,"Thergaon, Pimpri Chinchwad - MPCB",12-03-2024 02:00:00,18.616318,73.765797,CO,16,76,52
India,Maharashtra,Pune,"Bhosari, Pune - IITM",12-03-2024 02:00:00,18.640051,73.848956,PM10,65,182,113
India,Maharashtra,Pune,"Revenue Colony-Shivajinagar, Pune - IITM",12-03-2024 02:00:00,18.530085,73.849598,PM10,32,127,67
India,Maharashtra,Pune,"Revenue Colony-Shivajinagar, Pune - IITM",12-03-2024 02:00:00,18.530085,73.849598,NO2,76,156,118
India,Maharashtra,Pune,"Savitribai Phule Pune University, Pune - MPCB",12-03-2024 02:00:00,18.547056,73.826908,OZONE,2,235,78
India,Maharashtra,Pune,"Transport Nagar-Nigdi, Pune - IITM",12-03-2024 02:00:00,18.664282,73.763966,PM10,48,146,93
India,Maharashtra,Pune,"Transport Nagar-Nigdi, Pune - IITM",12-03-2024 02:00:00,18.664282,73.763966,CO,46,77,59
India,Maharashtra,Solapur,"Dnyaneshwar Nagar, Solapur - MPCB",12-03-2024 02:00:00,17.6336264,75.9132495,PM10,NA,NA,NA
India,Maharashtra,Solapur,"Dnyaneshwar Nagar, Solapur - MPCB",12-03-2024 02:00:00,17.6336264,75.9132495,NO2,NA,NA,NA
India,Maharashtra,Solapur,"Ratandeep Housing Society, Solapur - MPCB",12-03-2024 02:00:00,17.65439,75.90649,PM2.5,NA,NA,NA
India,Maharashtra,Solapur,"Ratandeep Housing Society, Solapur - MPCB",12-03-2024 02:00:00,17.65439,75.90649,NH3,NA,NA,NA
India,Maharashtra,Solapur,"Solapur, Solapur - MPCB",12-03-2024 02:00:00,17.6599188,75.9063906,SO2,NA,NA,NA
India,Maharashtra,Thane,"Kasarvadavali, Thane - MPCB",12-03-2024 02:00:00,19.26777,72.97182,NH3,6,18,9
India,Maharashtra,Thane,"Kasarvadavali, Thane - MPCB",12-03-2024 02:00:00,19.26777,72.97182,OZONE,2,177,94
India,Maharashtra,Thane,"Pimpleshwar Mandir, Thane - MPCB",12-03-2024 02:00:00,19.192056,72.9585188,CO,4,111,100
India,Maharashtra,Thane,"Upvan Fort, Thane - MPCB",12-03-2024 02:00:00,19.222279,72.957979,CO,8,63,22
India,Maharashtra,Thane,"Upvan Fort, Thane - MPCB",12-03-2024 02:00:00,19.222279,72.957979,OZONE,12,125,74
India,Maharashtra,Ulhasnagar,"Sidhi Vinayak Nagar, Ulhasnagar - MPCB",12-03-2024 02:00:00,19.235581,73.159121,NO2,6,53,27
India,Maharashtra,Ulhasnagar,"Sidhi Vinayak Nagar, Ulhasnagar - MPCB",12-03-2024 02:00:00,19.235581,73.159121,SO2,7,69,21
India,Maharashtra,Ulhasnagar,"Sidhi Vinayak Nagar, Ulhasnagar - MPCB",12-03-2024 02:00:00,19.235581,73.159121,OZONE,2,150,46
India,Maharashtra,Virar,"Bolinj, Virar - MPCB",12-03-2024 02:00:00,19.4458210,72.7988231,PM10,100,175,125
India,Maharashtra,Virar,"Bolinj, Virar - MPCB",12-03-2024 02:00:00,19.4458210,72.7988231,OZONE,4,124,70
India,Manipur,Imphal,"DM College of Science, Imphal - Manipur PCB",12-03-2024 02:00:00,24.8207389,93.9423085,PM2.5,NA,NA,NA
India,Manipur,Imphal,"DM College of Science, Imphal - Manipur PCB",12-03-2024 02:00:00,24.8207389,93.9423085,NO2,NA,NA,NA
India,Manipur,Imphal,"Manipur University, Imphal - Manipur PCB",12-03-2024 02:00:00,24.7524239,93.9286218,NH3,NA,NA,NA
India,Mizoram,Aizawl,"Sikulpuikawn, Aizawl - Mizoram PCB",12-03-2024 02:00:00,23.7176342,92.7192841,NH3,1,5,2
India,Nagaland,Kohima,"PWD Juction, Kohima - NPCB",12-03-2024 02:00:00,25.6635413,94.0989878,PM10,77,154,115
India,Odisha,Angul,"Hakimapada, Angul - OSPCB",12-03-2024 02:00:00,20.832874,85.104082,NH3,1,1,1
India,Odisha,Angul,"Hakimapada, Angul - OSPCB",12-03-2024 02:00:00,20.832874,85.104082,SO2,4,110,33
India,Odisha,Balasore,"Kalidaspur, Balasore - OSPCB",12-03-2024 02:00:00,21.51161,86.89088,PM10,69,159,110
India,Odisha,Balasore,"Kalidaspur, Balasore - OSPCB",12-03-2024 02:00:00,21.51161,86.89088,SO2,15,54,23
India,Odisha,Baripada,"Meher Colony, Baripada - OSPCB",12-03-2024 02:00:00,21.941841,86.728318,NO2,1,2,1
India,Odisha,Baripada,"Meher Colony, Baripada - OSPCB",12-03-2024 02:00:00,21.941841,86.728318,CO,19,32,22
India,Odisha,Bhubaneswar,"Lingraj Mandir, Bhubaneswar - OSPCB",12-03-2024 02:00:00,20.240790,85.836784,CO,52,72,61
India,Odisha,Bileipada,"Tata Township, Bileipada - OSPCB",12-03-2024 02:00:00,22.06156703,85.47409613,PM2.5,93,186,129
India,Odisha,Bileipada,"Tata Township, Bileipada - OSPCB",12-03-2024 02:00:00,22.06156703,85.47409613,PM10,113,362,184
India,Odisha,Bileipada,"Tata Township, Bileipada - OSPCB",12-03-2024 02:00:00,22.06156703,85.47409613,NH3,11,11,11
India,Odisha,Bileipada,"Tata Township, Bileipada - OSPCB",12-03-2024 02:00:00,22.06156703,85.47409613,OZONE,19,27,21
India,Odisha,Byasanagar,"Ferro Chrome Colony, Byasanagar - OSPCB",12-03-2024 02:00:00,20.94185,86.11510,NH3,2,4,3
India,Odisha,Nayagarh,"Dabuna, Nayagarh - OSPCB",12-03-2024 02:00:00,21.847279,85.416905,PM2.5,93,211,139
India,Odisha,Rairangpur,"Divisional Forest Office, Rairangpur - OSPCB",12-03-2024 02:00:00,22.265816,86.174829,CO,16,48,31
India,Odisha,Rourkela,"Fertilizer Township, Rourkela - OSPCB",12-03-2024 02:00:00,22.18972222,84.86277778,PM2.5,23,334,134
India,Odisha,Rourkela,"Fertilizer Township, Rourkela - OSPCB",12-03-2024 02:00:00,22.18972222,84.86277778,CO,16,26,21
India,Odisha,Rourkela,"Raghunathpali, Rourkela - OSPCB",12-03-2024 02:00:00,22.220833,84.809444,CO,22,60,45
India,Odisha,Rourkela,"Sector-2, Rourkela - OSPCB",12-03-2024 02:00:00,22.24500000,84.88111111,PM2.5,NA,NA,NA
India,Odisha,Suakati,"OMC Colony, Suakati - OSPCB",12-03-2024 02:00:00,21.606865,85.510538,CO,12,27,13
India,Odisha,Talcher,"Talcher Coalfields,Talcher - OSPCB",12-03-2024 02:00:00,20.9360711,85.1707021,NH3,7,7,7
India,Odisha,Talcher,"Talcher Coalfields,Talcher - OSPCB",12-03-2024 02:00:00,20.9360711,85.1707021,CO,12,45,30
India,Odisha,Tensa,"Barsua Iron Ore Mines, Tensa - OSPCB",12-03-2024 02:00:00,21.869985,85.167016,NH3,7,9,7
India,Odisha,Tensa,"Barsua Iron Ore Mines, Tensa - OSPCB",12-03-2024 02:00:00,21.869985,85.167016,SO2,NA,NA,NA
India,Puducherry,Puducherry,"Jawahar Nagar, Puducherry - PPCC",12-03-2024 02:00:00,11.9309,79.8027,NH3,2,4,3
India,Punjab,Bathinda,"Hardev Nagar, Bathinda - PPCB",12-03-2024 02:00:00,30.233011,74.907758,PM2.5,13,129,71
India,Punjab,Bathinda,"Hardev Nagar, Bathinda - PPCB",12-03-2024 02:00:00,30.233011,74.907758,NO2,29,31,30
India,Punjab,Bathinda,"Hardev Nagar, Bathinda - PPCB",12-03-2024 02:00:00,30.233011,74.907758,SO2,1,24,9
India,Punjab,Khanna,"Kalal Majra, Khanna - PPCB",12-03-2024 02:00:00,30.736056 ,76.209694,PM10,55,104,74
India,Punjab,Ludhiana,"Punjab Agricultural University, Ludhiana - PPCB",12-03-2024 02:00:00,30.9028,75.8086,PM10,80,132,107
India,Punjab,Mandi Gobindgarh,"RIMT University, Mandi Gobindgarh - PPCB",12-03-2024 02:00:00,30.649961,76.331442,PM2.5,79,303,170
India,Punjab,Mandi Gobindgarh,"RIMT University, Mandi Gobindgarh - PPCB",12-03-2024 02:00:00,30.649961,76.331442,OZONE,32,33,32
India,Punjab,Rupnagar,"Ratanpura, Rupnagar - Ambuja Cements",12-03-2024 02:00:00,31.0325454,76.5623046,CO,35,56,48
India,Rajasthan,Ajmer,"Civil Lines,  Ajmer - RSPCB",12-03-2024 02:00:00,26.470859,74.646594,SO2,NA,NA,NA
India,Rajasthan,Ajmer,"Civil Lines,  Ajmer - RSPCB",12-03-2024 02:00:00,26.470859,74.646594,CO,21,102,64
India,Rajasthan,Alwar,"Moti Doongri, Alwar - RSPCB",12-03-2024 02:00:00,27.554793,76.611536,PM2.5,46,98,67
India,Rajasthan,Alwar,"Moti Doongri, Alwar - RSPCB",12-03-2024 02:00:00,27.554793,76.611536,NO2,38,61,47
India,Rajasthan,Banswara,"Rati Talai, Banswara - RSPCB",12-03-2024 02:00:00,23.555190,74.440010,NH3,3,6,4
India,Rajasthan,Baran,"Bamboliya, Baran - RSPCB",12-03-2024 02:00:00,25.106006,76.469948,PM10,NA,NA,NA
India,Rajasthan,Barmer,"Railway Colony, Barmer - RSPCB",12-03-2024 02:00:00,25.747299,71.393989,NH3,4,9,6
India,Rajasthan,Bharatpur,"Krishna Nagar, Bharatpur - RSPCB",12-03-2024 02:00:00,27.215415,77.50873,NH3,11,22,14
India,Rajasthan,Bhilwara,"Pratap Nagar, Bhilwara - RSPCB",12-03-2024 02:00:00,25.339605,74.618883,PM10,30,200,84
India,Rajasthan,Bhilwara,"Pratap Nagar, Bhilwara - RSPCB",12-03-2024 02:00:00,25.339605,74.618883,OZONE,8,79,33
India,Rajasthan,Bhiwadi,"RIICO Ind. Area III, Bhiwadi - RSPCB",12-03-2024 02:00:00,28.194909,76.862296,NO2,20,33,25
India,Rajasthan,Bhiwadi,"RIICO Ind. Area III, Bhiwadi - RSPCB",12-03-2024 02:00:00,28.194909,76.862296,SO2,5,24,15
India,Rajasthan,Bikaner,"MM Ground, Bikaner - RSPCB",12-03-2024 02:00:00,28.018792,73.292658,NO2,22,105,46
India,Rajasthan,Bikaner,"MM Ground, Bikaner - RSPCB",12-03-2024 02:00:00,28.018792,73.292658,NH3,9,23,11
India,Rajasthan,Bikaner,"MM Ground, Bikaner - RSPCB",12-03-2024 02:00:00,28.018792,73.292658,SO2,2,10,6
India,Rajasthan,Bikaner,"MM Ground, Bikaner - RSPCB",12-03-2024 02:00:00,28.018792,73.292658,CO,17,71,28
India,Rajasthan,Bikaner,"MM Ground, Bikaner - RSPCB",12-03-2024 02:00:00,28.018792,73.292658,OZONE,41,91,79
India,Rajasthan,Churu,"Subash Chowk, Churu - RSPCB",12-03-2024 02:00:00,28.296139,74.961696,NO2,4,51,19
India,Rajasthan,Churu,"Subash Chowk, Churu - RSPCB",12-03-2024 02:00:00,28.296139,74.961696,SO2,4,26,12
India,Rajasthan,Dausa,"Khatikan Mohalla, Dausa - RSPCB",12-03-2024 02:00:00,26.895552,76.334753,NO2,26,75,43
India,Rajasthan,Dausa,"Khatikan Mohalla, Dausa - RSPCB",12-03-2024 02:00:00,26.895552,76.334753,NH3,7,9,8
India,Rajasthan,Dholpur,"Raja Ganj, Dholpur - RSPCB",12-03-2024 02:00:00,26.699557,77.898881,OZONE,16,196,93
India,Rajasthan,Dungarpur,"Bhoiwada, Dungarpur - RSPCB",12-03-2024 02:00:00,23.837789,73.714926,SO2,9,19,11
India,Rajasthan,Dungarpur,"Bhoiwada, Dungarpur - RSPCB",12-03-2024 02:00:00,23.837789,73.714926,CO,29,57,31
India,Rajasthan,Hanumangarh,"Housing Board, Hanumangarh - RSPCB",12-03-2024 02:00:00,29.610750,74.283608,OZONE,11,46,19
India,Rajasthan,Jaipur,"Adarsh Nagar, Jaipur - RSPCB",12-03-2024 02:00:00,26.902909,75.836858,PM2.5,9,96,60
India,Rajasthan,Jaipur,"Adarsh Nagar, Jaipur - RSPCB",12-03-2024 02:00:00,26.902909,75.836858,SO2,1,23,12
India,Rajasthan,Jaipur,"Adarsh Nagar, Jaipur - RSPCB",12-03-2024 02:00:00,26.902909,75.836858,CO,12,46,20
India,Rajasthan,Jaipur,"Mansarovar Sector-12, Jaipur - RSPCB",12-03-2024 02:00:00,26.843698,75.766894,NH3,5,19,8
India,Rajasthan,Jaipur,"Mansarovar Sector-12, Jaipur - RSPCB",12-03-2024 02:00:00,26.843698,75.766894,SO2,2,6,4
India,Rajasthan,Jaipur,"Police Commissionerate, Jaipur - RSPCB",12-03-2024 02:00:00,26.9164092,75.7994901,PM10,81,173,116
India,Rajasthan,Jaipur,"Police Commissionerate, Jaipur - RSPCB",12-03-2024 02:00:00,26.9164092,75.7994901,CO,24,200,56
India,Rajasthan,Jaipur,"Police Commissionerate, Jaipur - RSPCB",12-03-2024 02:00:00,26.9164092,75.7994901,OZONE,12,107,38
India,Rajasthan,Jaipur,"RIICO Sitapura, Jaipur - RSPCB",12-03-2024 02:00:00,26.786682,75.827928,NH3,NA,NA,NA
India,Rajasthan,Jaipur,"Sector-2 Murlipura, Jaipur - RSPCB",12-03-2024 02:00:00,26.960669,75.771817,PM10,26,132,74
India,Rajasthan,Jaipur,"Shastri Nagar, Jaipur - RSPCB",12-03-2024 02:00:00,26.9502929,75.730943,NH3,1,20,7
India,Rajasthan,Jaipur,"Shastri Nagar, Jaipur - RSPCB",12-03-2024 02:00:00,26.9502929,75.730943,CO,1,118,76
India,Rajasthan,Jaisalmer,"Sadar Bazar, Jaisalmer - RSPCB",12-03-2024 02:00:00,26.912329,70.909168,PM2.5,18,124,58
India,Rajasthan,Jalore,"Mudtra Sili, Jalore - RSPCB",12-03-2024 02:00:00,25.344694,72.626208,PM2.5,22,334,61
India,Rajasthan,Jalore,"Mudtra Sili, Jalore - RSPCB",12-03-2024 02:00:00,25.344694,72.626208,NO2,8,122,36
India,Rajasthan,Jhalawar,"Rajlaxmi Nagar, Jhalawar - RSPCB",12-03-2024 02:00:00,24.588397,76.172782,SO2,4,23,8
India,Rajasthan,Jhalawar,"Rajlaxmi Nagar, Jhalawar - RSPCB",12-03-2024 02:00:00,24.588397,76.172782,OZONE,22,108,66
India,Rajasthan,Jhunjhunu,"Indra Nagar, Jhunjhunu - RSPCB",12-03-2024 02:00:00,28.108988,75.386577,NH3,12,33,16
India,Rajasthan,Jodhpur,"Collectorate, Jodhpur - RSPCB",12-03-2024 02:00:00,26.268249,73.0193853,PM10,21,197,120
India,Rajasthan,Jodhpur,"Collectorate, Jodhpur - RSPCB",12-03-2024 02:00:00,26.268249,73.0193853,NO2,16,40,36
India,Rajasthan,Jodhpur,"Collectorate, Jodhpur - RSPCB",12-03-2024 02:00:00,26.268249,73.0193853,OZONE,33,118,67
India,Rajasthan,Jodhpur,"Digari Kalan, Jodhpur - RSPCB",12-03-2024 02:00:00,26.295810,73.082283,CO,16,83,39
India,Rajasthan,Jodhpur,"Jhalamand, Jodhpur - RSPCB",12-03-2024 02:00:00,26.215415,73.070156,SO2,4,25,9
India,Rajasthan,Jodhpur,"Jhalamand, Jodhpur - RSPCB",12-03-2024 02:00:00,26.215415,73.070156,OZONE,16,83,44
India,Rajasthan,Jodhpur,"Mandor, Jodhpur - RSPCB",12-03-2024 02:00:00,26.358805,73.047444,OZONE,53,123,73
India,Rajasthan,Jodhpur,"Samrat Ashok Udhyan, Jodhpur - RSPCB",12-03-2024 02:00:00,26.253384,72.976571,NO2,4,94,28
India,Rajasthan,Jodhpur,"Samrat Ashok Udhyan, Jodhpur - RSPCB",12-03-2024 02:00:00,26.253384,72.976571,SO2,2,24,5
India,Rajasthan,Kota,"Dhanmandi, Kota - RSPCB",12-03-2024 02:00:00,25.164090,75.858137,PM2.5,53,321,144
India,Rajasthan,Kota,"Dhanmandi, Kota - RSPCB",12-03-2024 02:00:00,25.164090,75.858137,NO2,51,148,87
India,Rajasthan,Kota,"Nayapura, Kota - RSPCB",12-03-2024 02:00:00,25.196024,75.855668,NO2,19,124,55
India,Rajasthan,Kota,"Shrinath Puram, Kota - RSPCB",12-03-2024 02:00:00,25.14389,75.821256,PM10,90,210,139
India,Rajasthan,Kota,"Shrinath Puram, Kota - RSPCB",12-03-2024 02:00:00,25.14389,75.821256,CO,42,113,76
India,Rajasthan,Kota,"Shrinath Puram, Kota - RSPCB",12-03-2024 02:00:00,25.14389,75.821256,OZONE,8,97,32
India,Rajasthan,Pali,"Indira Colony Vistar, Pali - RSPCB",12-03-2024 02:00:00,25.771061, 73.340227,PM10,66,151,106
India,Rajasthan,Pali,"Indira Colony Vistar, Pali - RSPCB",12-03-2024 02:00:00,25.771061, 73.340227,SO2,12,35,17
India,Rajasthan,Pratapgarh,"Pragati Nagar, Pratapgarh - RSPCB",12-03-2024 02:00:00,24.041198,74.780702,OZONE,12,130,45
India,Rajasthan,Sawai Madhopur,"Sahu Nagar, Sawai Madhopur - RSPCB",12-03-2024 02:00:00,26.031443,76.359327,CO,16,69,52
India,Rajasthan,Sikar,"Radhakishan Pura, Sikar - RSPCB",12-03-2024 02:00:00,27.608912,75.153302,PM2.5,45,161,74
India,Rajasthan,Sri Ganganagar,"Old City, Sri Ganganagar - RSPCB",12-03-2024 02:00:00,29.931624,73.864511,PM2.5,52,308,157
India,Rajasthan,Tonk,"Shastri Nagar, Tonk - RSPCB",12-03-2024 02:00:00,26.159933,75.780517,NH3,6,32,11
India,Rajasthan,Tonk,"Shastri Nagar, Tonk - RSPCB",12-03-2024 02:00:00,26.159933,75.780517,OZONE,4,41,16
India,Sikkim,Gangtok,"Zero Point GICI, Gangtok - SSPCB",12-03-2024 02:00:00,27.338530,88.614099,OZONE,23,118,59
India,TamilNadu,Chennai,"Alandur Bus Depot, Chennai - CPCB",12-03-2024 02:00:00,12.9099161,80.1076538,NH3,8,14,10
India,TamilNadu,Chennai,"Arumbakkam, Chennai - TNPCB",12-03-2024 02:00:00,13.0664,80.2112 ,NH3,NA,NA,NA
India,TamilNadu,Chennai,"Kodungaiyur, Chennai - TNPCB",12-03-2024 02:00:00,13.1278,80.2642,PM10,49,94,76
India,TamilNadu,Chennai,"Kodungaiyur, Chennai - TNPCB",12-03-2024 02:00:00,13.1278,80.2642,NH3,3,5,3
India,TamilNadu,Chennai,"Perungudi, Chennai - TNPCB",12-03-2024 02:00:00,12.9533,80.2357,NH3,2,3,2
India,TamilNadu,Chennai,"Perungudi, Chennai - TNPCB",12-03-2024 02:00:00,12.9533,80.2357,SO2,1,6,3
India,TamilNadu,Chennai,"Royapuram, Chennai - TNPCB",12-03-2024 02:00:00,13.1036,80.2909,NH3,1,1,1
India,TamilNadu,Chennai,"Velachery Res. Area, Chennai - CPCB",12-03-2024 02:00:00,13.0052189,80.2398125,PM10,68,108,81
India,TamilNadu,Chennai,"Velachery Res. Area, Chennai - CPCB",12-03-2024 02:00:00,13.0052189,80.2398125,CO,2,152,56
India,TamilNadu,Coimbatore,"PSG College of Arts and Science, Coimbatore - TNPCB",12-03-2024 02:00:00,11.0328,77.0349,NO2,3,8,5
India,TamilNadu,Coimbatore,"PSG College of Arts and Science, Coimbatore - TNPCB",12-03-2024 02:00:00,11.0328,77.0349,SO2,12,30,21
India,TamilNadu,Coimbatore,"PSG College of Arts and Science, Coimbatore - TNPCB",12-03-2024 02:00:00,11.0328,77.0349,CO,5,5,5
India,TamilNadu,Cuddalore,"Kudikadu, Cuddalore - TNPCB",12-03-2024 02:00:00,11.6829898,79.7532099,PM2.5,43,97,67
India,TamilNadu,Cuddalore,"Kudikadu, Cuddalore - TNPCB",12-03-2024 02:00:00,11.6829898,79.7532099,PM10,52,109,80
India,TamilNadu,Cuddalore,"Kudikadu, Cuddalore - TNPCB",12-03-2024 02:00:00,11.6829898,79.7532099,NH3,5,6,5
India,TamilNadu,Cuddalore,"Semmandalam, Cuddalore - TNPCB",12-03-2024 02:00:00,11.7637683,79.7499835,NH3,1,3,2
India,TamilNadu,Gummidipoondi,"Anthoni Pillai Nagar, Gummidipoondi - TNPCB",12-03-2024 02:00:00,13.4127,80.1081,PM10,69,148,106
India,TamilNadu,Kanchipuram,"Kilambi, Kanchipuram - TNPCB",12-03-2024 02:00:00,12.864618,79.659968,PM2.5,NA,NA,NA
India,TamilNadu,Kanchipuram,"Kilambi, Kanchipuram - TNPCB",12-03-2024 02:00:00,12.864618,79.659968,NH3,NA,NA,NA
India,TamilNadu,Kanchipuram,"Kilambi, Kanchipuram - TNPCB",12-03-2024 02:00:00,12.864618,79.659968,OZONE,16,50,27
India,TamilNadu,Ooty,"Bombay Castel, Ooty - TNPCB",12-03-2024 02:00:00,11.4068288,76.7138973,PM2.5,NA,NA,NA
India,TamilNadu,Palkalaiperur,"Bharathidasan University, Palkalaiperur - TNPCB",12-03-2024 02:00:00,10.681158,78.741746,PM2.5,37,53,45
India,TamilNadu,Palkalaiperur,"Bharathidasan University, Palkalaiperur - TNPCB",12-03-2024 02:00:00,10.681158,78.741746,OZONE,1,1,1
India,TamilNadu,Ramanathapuram,"Chalai Bazaar, Ramanathapuram - TNPCB",12-03-2024 02:00:00,9.36399,78.831977,NH3,NA,NA,NA
India,TamilNadu,Ramanathapuram,"Chalai Bazaar, Ramanathapuram - TNPCB",12-03-2024 02:00:00,9.36399,78.831977,CO,NA,NA,NA
India,TamilNadu,Thoothukudi,"Meelavittan, Thoothukudi - TNPCB",12-03-2024 02:00:00,8.816428 ,78.099039,NO2,15,22,18
India,TamilNadu,Tirupur,"Kumaran College, Tirupur - TNPCB",12-03-2024 02:00:00,11.0973603,77.3228673,CO,22,101,50
India,TamilNadu,Tirupur,"Kumaran College, Tirupur - TNPCB",12-03-2024 02:00:00,11.0973603,77.3228673,OZONE,6,7,7
India,Telangana,Hyderabad,"Central University, Hyderabad - TSPCB",12-03-2024 02:00:00,17.460103,78.334361,NO2,13,39,26
India,Telangana,Hyderabad,"Central University, Hyderabad - TSPCB",12-03-2024 02:00:00,17.460103,78.334361,SO2,4,11,7
India,Telangana,Hyderabad,"ECIL Kapra, Hyderabad - TSPCB",12-03-2024 02:00:00,17.470431,78.566959,PM10,57,83,67
India,Telangana,Hyderabad,"ECIL Kapra, Hyderabad - TSPCB",12-03-2024 02:00:00,17.470431,78.566959,SO2,1,23,8
India,Telangana,Hyderabad,"ECIL Kapra, Hyderabad - TSPCB",12-03-2024 02:00:00,17.470431,78.566959,CO,23,55,28
India,Telangana,Hyderabad,"ICRISAT Patancheru, Hyderabad - TSPCB",12-03-2024 02:00:00,17.518400,78.278777,PM2.5,30,75,48
India,Telangana,Hyderabad,"ICRISAT Patancheru, Hyderabad - TSPCB",12-03-2024 02:00:00,17.518400,78.278777,NH3,2,2,2
India,Telangana,Hyderabad,"ICRISAT Patancheru, Hyderabad - TSPCB",12-03-2024 02:00:00,17.518400,78.278777,SO2,14,25,19
India,Telangana,Hyderabad,"ICRISAT Patancheru, Hyderabad - TSPCB",12-03-2024 02:00:00,17.518400,78.278777,OZONE,30,117,64
India,Telangana,Hyderabad,"IITH Kandi, Hyderabad - TSPCB",12-03-2024 02:00:00,17.585705,78.126199,OZONE,34,34,34
India,Telangana,Hyderabad,"Kokapet, Hyderabad - TSPCB",12-03-2024 02:00:00,17.393559,78.339194,PM10,NA,NA,NA
India,Telangana,Hyderabad,"Kompally Municipal Office, Hyderabad - TSPCB",12-03-2024 02:00:00,17.544899,78.486949,PM2.5,NA,NA,NA
India,Telangana,Hyderabad,"Kompally Municipal Office, Hyderabad - TSPCB",12-03-2024 02:00:00,17.544899,78.486949,NH3,NA,NA,NA
India,Telangana,Hyderabad,"Nacharam_TSIIC IALA, Hyderabad - TSPCB",12-03-2024 02:00:00,17.429398,78.569354,CO,16,52,24
India,Telangana,Hyderabad,"New Malakpet, Hyderabad - TSPCB",12-03-2024 02:00:00,17.37206,78.50864,NO2,18,27,22
India,Telangana,Hyderabad,"New Malakpet, Hyderabad - TSPCB",12-03-2024 02:00:00,17.37206,78.50864,OZONE,1,22,9
India,Telangana,Hyderabad,"Somajiguda, Hyderabad - TSPCB",12-03-2024 02:00:00,17.417094,78.457437,NH3,NA,NA,NA
India,Telangana,Hyderabad,"Somajiguda, Hyderabad - TSPCB",12-03-2024 02:00:00,17.417094,78.457437,CO,NA,NA,NA
India,Telangana,Hyderabad,"Zoo Park, Hyderabad - TSPCB",12-03-2024 02:00:00,17.349694,78.451437,PM2.5,33,93,56
India,Telangana,Hyderabad,"Zoo Park, Hyderabad - TSPCB",12-03-2024 02:00:00,17.349694,78.451437,PM10,48,157,99
India,Tripura,Agartala,"Bardowali, Agartala - Tripura SPCB",12-03-2024 02:00:00,23.8175497,91.2726974,PM10,NA,NA,NA
India,Tripura,Agartala,"Bardowali, Agartala - Tripura SPCB",12-03-2024 02:00:00,23.8175497,91.2726974,CO,23,100,79
India,Uttar_Pradesh,Agra,"Manoharpur, Agra - UPPCB",12-03-2024 02:00:00,27.23711,78.01936,NO2,19,20,19
India,Uttar_Pradesh,Agra,"Rohta, Agra - UPPCB",12-03-2024 02:00:00,27.106972,78.000111,PM2.5,25,161,68
India,Uttar_Pradesh,Agra,"Rohta, Agra - UPPCB",12-03-2024 02:00:00,27.106972,78.000111,NO2,2,3,3
India,Uttar_Pradesh,Agra,"Sanjay Palace, Agra - UPPCB",12-03-2024 02:00:00,27.19865833,78.00598056,PM2.5,15,66,38
India,Uttar_Pradesh,Agra,"Sanjay Palace, Agra - UPPCB",12-03-2024 02:00:00,27.19865833,78.00598056,NO2,39,75,51
India,Uttar_Pradesh,Agra,"Sanjay Palace, Agra - UPPCB",12-03-2024 02:00:00,27.19865833,78.00598056,CO,30,76,53
India,Uttar_Pradesh,Agra,"Sector-3B Avas Vikas Colony, Agra - UPPCB",12-03-2024 02:00:00,27.19412,77.96237,PM2.5,20,62,34
India,Uttar_Pradesh,Agra,"Sector-3B Avas Vikas Colony, Agra - UPPCB",12-03-2024 02:00:00,27.19412,77.96237,NO2,8,37,21
India,Uttar_Pradesh,Agra,"Sector-3B Avas Vikas Colony, Agra - UPPCB",12-03-2024 02:00:00,27.19412,77.96237,NH3,3,7,5
India,Uttar_Pradesh,Agra,"Shahjahan Garden, Agra - UPPCB",12-03-2024 02:00:00,27.169338,78.03582,PM2.5,NA,NA,NA
India,Uttar_Pradesh,Agra,"Shastripuram, Agra - UPPCB",12-03-2024 02:00:00,27.19862,77.92066,NH3,1,3,1
India,Uttar_Pradesh,Baghpat,"Sardar Patel Inter College, Baghpat - UPPCB",12-03-2024 02:00:00,28.964949,77.278761,SO2,19,87,51
India,Uttar_Pradesh,Bareilly,"Civil Lines, Bareilly - UPPCB",12-03-2024 02:00:00,28.359581,79.414455,PM10,37,160,93
India,Uttar_Pradesh,Bareilly,"Rajendra Nagar, Bareilly - UPPCB",12-03-2024 02:00:00,28.38910936,79.42963708,PM10,39,119,82
India,Uttar_Pradesh,Bareilly,"Rajendra Nagar, Bareilly - UPPCB",12-03-2024 02:00:00,28.38910936,79.42963708,NO2,18,81,47
India,Uttar_Pradesh,Bulandshahr,"Yamunapuram, Bulandshahr - UPPCB",12-03-2024 02:00:00,28.406963,77.849831,PM10,77,150,111
India,Uttar_Pradesh,Firozabad,"Nagla Bhau, Firozabad - UPPCB",12-03-2024 02:00:00,27.168897,78.376960,SO2,23,36,30
India,Uttar_Pradesh,Firozabad,"Vibhab Nagar, Firozabad - UPPCB",12-03-2024 02:00:00,27.1594,78.3953,PM10,36,88,53
India,Uttar_Pradesh,Firozabad,"Vibhab Nagar, Firozabad - UPPCB",12-03-2024 02:00:00,27.1594,78.3953,NO2,13,20,14
India,Uttar_Pradesh,Firozabad,"Vibhab Nagar, Firozabad - UPPCB",12-03-2024 02:00:00,27.1594,78.3953,CO,22,32,27
India,Uttar_Pradesh,Ghaziabad,"Indirapuram, Ghaziabad - UPPCB",12-03-2024 02:00:00,28.646233,77.358075,SO2,13,21,17
India,Uttar_Pradesh,Ghaziabad,"Indirapuram, Ghaziabad - UPPCB",12-03-2024 02:00:00,28.646233,77.358075,CO,20,71,35
India,Uttar_Pradesh,Ghaziabad,"Loni, Ghaziabad - UPPCB",12-03-2024 02:00:00,28.757294,77.278792,PM2.5,36,328,152
India,Uttar_Pradesh,Ghaziabad,"Loni, Ghaziabad - UPPCB",12-03-2024 02:00:00,28.757294,77.278792,PM10,90,290,147
India,Uttar_Pradesh,Ghaziabad,"Sanjay Nagar, Ghaziabad - UPPCB",12-03-2024 02:00:00,28.685382,77.453839,SO2,20,64,33
India,Uttar_Pradesh,Ghaziabad,"Vasundhara, Ghaziabad - UPPCB",12-03-2024 02:00:00,28.6603346,77.3572563,PM10,93,167,122
India,Uttar_Pradesh,Ghaziabad,"Vasundhara, Ghaziabad - UPPCB",12-03-2024 02:00:00,28.6603346,77.3572563,OZONE,15,157,38
India,Uttar_Pradesh,Gorakhpur,"Madan Mohan Malaviya University of Technology, Gorakhpur - UPPCB",12-03-2024 02:00:00,26.730136,83.433859,NH3,1,2,2
India,Uttar_Pradesh,Greater Noida,"Knowledge Park - III, Greater Noida - UPPCB",12-03-2024 02:00:00,28.47272,77.482000,PM2.5,90,374,252
India,Uttar_Pradesh,Greater Noida,"Knowledge Park - III, Greater Noida - UPPCB",12-03-2024 02:00:00,28.47272,77.482000,NH3,4,9,6
India,Uttar_Pradesh,Greater Noida,"Knowledge Park - III, Greater Noida - UPPCB",12-03-2024 02:00:00,28.47272,77.482000,OZONE,2,265,61
India,Uttar_Pradesh,Hapur,"Anand Vihar, Hapur - UPPCB",12-03-2024 02:00:00,28.725645,77.749675,OZONE,2,239,63
India,Uttar_Pradesh,Jhansi,"Shivaji Nagar, Jhansi - UPPCB",12-03-2024 02:00:00,25.4547,78.6039,NO2,5,31,14
India,Uttar_Pradesh,Jhansi,"Shivaji Nagar, Jhansi - UPPCB",12-03-2024 02:00:00,25.4547,78.6039,SO2,11,13,12
India,Uttar_Pradesh,Kanpur,"FTI Kidwai Nagar, Kanpur - UPPCB",12-03-2024 02:00:00,26.428282,80.327067,NO2,17,21,19
India,Uttar_Pradesh,Kanpur,"NSI Kalyanpur, Kanpur - UPPCB",12-03-2024 02:00:00,26.509954,80.249612,NO2,16,16,16
India,Uttar_Pradesh,Kanpur,"Nehru Nagar, Kanpur - UPPCB",12-03-2024 02:00:00,26.4703136,80.3229863,PM10,37,122,75
India,Uttar_Pradesh,Khurja,"Kalindi Kunj, Khurja - UPPCB",12-03-2024 02:00:00,28.2348927,77.8683002,NH3,1,2,1
India,Uttar_Pradesh,Khurja,"Kalindi Kunj, Khurja - UPPCB",12-03-2024 02:00:00,28.2348927,77.8683002,SO2,26,59,33
India,Uttar_Pradesh,Lucknow,"B R Ambedkar University, Lucknow - UPPCB",12-03-2024 02:00:00,26.766433,80.927299,PM2.5,32,178,82
India,Uttar_Pradesh,Lucknow,"Gomti Nagar, Lucknow - UPPCB",12-03-2024 02:00:00,26.868120,81.005119,SO2,2,17,10
India,Uttar_Pradesh,Lucknow,"Gomti Nagar, Lucknow - UPPCB",12-03-2024 02:00:00,26.868120,81.005119,CO,36,44,40
India,Uttar_Pradesh,Lucknow,"Kukrail Picnic Spot-1, Lucknow - UPPCB",12-03-2024 02:00:00,26.90723,80.98579,OZONE,1,96,23
India,Uttar_Pradesh,Lucknow,"Lalbagh, Lucknow - CPCB",12-03-2024 02:00:00,26.8458805,80.9365541,PM2.5,48,350,144
India,Uttar_Pradesh,Lucknow,"Lalbagh, Lucknow - CPCB",12-03-2024 02:00:00,26.8458805,80.9365541,CO,10,90,52
India,Uttar_Pradesh,Lucknow,"Talkatora District Industries Center, Lucknow - CPCB",12-03-2024 02:00:00,26.83399722,80.8917361,PM2.5,7,308,151
India,Uttar_Pradesh,Lucknow,"Talkatora District Industries Center, Lucknow - CPCB",12-03-2024 02:00:00,26.83399722,80.8917361,PM10,96,218,147
India,Uttar_Pradesh,Lucknow,"Talkatora District Industries Center, Lucknow - CPCB",12-03-2024 02:00:00,26.83399722,80.8917361,NO2,38,82,60
India,Uttar_Pradesh,Lucknow,"Talkatora District Industries Center, Lucknow - CPCB",12-03-2024 02:00:00,26.83399722,80.8917361,CO,4,42,25
India,Uttar_Pradesh,Meerut,"Ganga Nagar, Meerut - UPPCB",12-03-2024 02:00:00,28.999264,77.7590354,NO2,17,60,34
India,Uttar_Pradesh,Meerut,"Pallavpuram Phase 2, Meerut - UPPCB",12-03-2024 02:00:00,29.063510,77.709723,PM2.5,37,218,107
India,Uttar_Pradesh,Meerut,"Pallavpuram Phase 2, Meerut - UPPCB",12-03-2024 02:00:00,29.063510,77.709723,NO2,17,115,57
India,Uttar_Pradesh,Meerut,"Pallavpuram Phase 2, Meerut - UPPCB",12-03-2024 02:00:00,29.063510,77.709723,SO2,10,34,23
India,Uttar_Pradesh,Moradabad,"Buddhi Vihar, Moradabad - UPPCB",12-03-2024 02:00:00,28.83526,78.74460,NH3,2,2,2
India,Uttar_Pradesh,Moradabad,"Buddhi Vihar, Moradabad - UPPCB",12-03-2024 02:00:00,28.83526,78.74460,CO,26,48,34
India,Uttar_Pradesh,Moradabad,"Eco Herbal Park, Moradabad - UPPCB",12-03-2024 02:00:00,28.840739,78.697531,PM2.5,NA,NA,NA
India,Uttar_Pradesh,Moradabad,"Eco Herbal Park, Moradabad - UPPCB",12-03-2024 02:00:00,28.840739,78.697531,NO2,13,75,38
India,Uttar_Pradesh,Moradabad,"Employment Office, Moradabad - UPPCB",12-03-2024 02:00:00,28.88528,78.73880,NO2,15,16,15
India,Uttar_Pradesh,Moradabad,"Jigar Colony, Moradabad - UPPCB",12-03-2024 02:00:00,28.856664,78.772638,CO,30,58,32
India,Uttar_Pradesh,Moradabad,"Jigar Colony, Moradabad - UPPCB",12-03-2024 02:00:00,28.856664,78.772638,OZONE,18,37,25
India,Uttar_Pradesh,Moradabad,"Kashiram Nagar, Moradabad - UPPCB",12-03-2024 02:00:00,28.849399,78.742362,SO2,28,40,33
India,Uttar_Pradesh,Moradabad,"Kashiram Nagar, Moradabad - UPPCB",12-03-2024 02:00:00,28.849399,78.742362,OZONE,15,73,32
India,Uttar_Pradesh,Moradabad,"Transport Nagar, Moradabad - UPPCB",12-03-2024 02:00:00,28.802625,78.753728,OZONE,13,29,18
India,Uttar_Pradesh,Noida,"Sector - 125, Noida - UPPCB",12-03-2024 02:00:00,28.5447608,77.3231257,PM2.5,43,247,102
India,Uttar_Pradesh,Noida,"Sector - 62, Noida - IMD",12-03-2024 02:00:00,28.6245479,77.3577104,PM2.5,72,284,155
India,Uttar_Pradesh,Noida,"Sector - 62, Noida - IMD",12-03-2024 02:00:00,28.6245479,77.3577104,PM10,127,245,162
India,Uttar_Pradesh,Noida,"Sector-1, Noida - UPPCB",12-03-2024 02:00:00,28.5898,77.3101,PM10,118,244,172
India,Uttar_Pradesh,Noida,"Sector-1, Noida - UPPCB",12-03-2024 02:00:00,28.5898,77.3101,OZONE,9,250,70
India,Uttar_Pradesh,Prayagraj,"Jhunsi, Prayagraj - UPPCB",12-03-2024 02:00:00,25.425602,81.917152,NO2,6,6,6
India,Uttar_Pradesh,Prayagraj,"Jhunsi, Prayagraj - UPPCB",12-03-2024 02:00:00,25.425602,81.917152,SO2,30,32,31
India,Uttar_Pradesh,Prayagraj,"Motilal Nehru NIT, Prayagraj - UPPCB",12-03-2024 02:00:00,25.494,81.863,PM10,39,156,93
India,Uttar_Pradesh,Varanasi,"Ardhali Bazar, Varanasi - UPPCB",12-03-2024 02:00:00,25.3505986,82.9083074,NO2,10,42,18
India,Uttar_Pradesh,Varanasi,"Bhelupur, Varanasi - UPPCB",12-03-2024 02:00:00,25.301778,82.996789,NO2,7,8,8
India,Uttar_Pradesh,Varanasi,"Bhelupur, Varanasi - UPPCB",12-03-2024 02:00:00,25.301778,82.996789,SO2,24,25,25
India,Uttar_Pradesh,Varanasi,"Bhelupur, Varanasi - UPPCB",12-03-2024 02:00:00,25.301778,82.996789,OZONE,1,68,20
India,Uttar_Pradesh,Varanasi,"Maldahiya, Varanasi - UPPCB",12-03-2024 02:00:00,25.32393,82.99687,NO2,1,13,2
India,Uttar_Pradesh,Varanasi,"Maldahiya, Varanasi - UPPCB",12-03-2024 02:00:00,25.32393,82.99687,CO,14,103,73
India,Uttar_Pradesh,Varanasi,"Maldahiya, Varanasi - UPPCB",12-03-2024 02:00:00,25.32393,82.99687,OZONE,1,41,3
India,Uttarakhand,Dehradun,"Doon University, Dehradun - UKPCB",12-03-2024 02:00:00,30.269444,78.044167,SO2,1,4,2
India,West_Bengal,Asansol,"Asansol Court Area, Asansol - WBPCB",12-03-2024 02:00:00,23.685297,86.945968,PM2.5,88,319,186
India,West_Bengal,Barrackpore,"SVSPA Campus, Barrackpore - WBPCB",12-03-2024 02:00:00,22.7605581,88.3617589,PM10,107,168,130
India,West_Bengal,Howrah,"Belur Math, Howrah - WBPCB",12-03-2024 02:00:00,22.629801,88.352017,OZONE,4,99,17
India,West_Bengal,Howrah,"Ghusuri, Howrah - WBPCB",12-03-2024 02:00:00,22.611968,88.347422,NH3,NA,NA,NA
India,West_Bengal,Howrah,"Padmapukur, Howrah - WBPCB",12-03-2024 02:00:00,22.5687319,88.2797276,SO2,11,98,40
India,West_Bengal,Howrah,"Padmapukur, Howrah - WBPCB",12-03-2024 02:00:00,22.5687319,88.2797276,OZONE,5,99,35
India,West_Bengal,Kolkata,"Ballygunge, Kolkata - WBPCB",12-03-2024 02:00:00,22.5367507,88.3638022,PM2.5,NA,NA,NA
India,West_Bengal,Kolkata,"Ballygunge, Kolkata - WBPCB",12-03-2024 02:00:00,22.5367507,88.3638022,OZONE,6,78,32
India,West_Bengal,Kolkata,"Fort William, Kolkata - WBPCB",12-03-2024 02:00:00,22.556640,88.342674,NH3,5,12,6
India,West_Bengal,Kolkata,"Fort William, Kolkata - WBPCB",12-03-2024 02:00:00,22.556640,88.342674,OZONE,25,137,46
India,West_Bengal,Kolkata,"Jadavpur, Kolkata - WBPCB",12-03-2024 02:00:00,22.49929,88.36917,PM2.5,80,162,120
India,West_Bengal,Kolkata,"Jadavpur, Kolkata - WBPCB",12-03-2024 02:00:00,22.49929,88.36917,NO2,1,7,4
India,West_Bengal,Kolkata,"Jadavpur, Kolkata - WBPCB",12-03-2024 02:00:00,22.49929,88.36917,NH3,7,9,8
India,West_Bengal,Siliguri,"Ward-32 Bapupara, Siliguri - WBPCB",12-03-2024 02:00:00,26.6879226,88.4152495,SO2,12,19,14
India,West_Bengal,Siliguri,"Ward-32 Bapupara, Siliguri - WBPCB",12-03-2024 02:00:00,26.6879226,88.4152495,OZONE,9,82,29
India,Andhra_Pradesh,Kadapa,"Yerramukkapalli, Kadapa - APPCB",12-03-2024 02:00:00,14.465052,78.824187,CO,8,26,15
India,Andhra_Pradesh,Vijayawada,"HB Colony, Vijayawada - APPCB",12-03-2024 02:00:00,16.536107,80.594233,PM10,64,84,76
India,Andhra_Pradesh,Vijayawada,"HB Colony, Vijayawada - APPCB",12-03-2024 02:00:00,16.536107,80.594233,NO2,4,12,8
India,Andhra_Pradesh,Vijayawada,"HB Colony, Vijayawada - APPCB",12-03-2024 02:00:00,16.536107,80.594233,CO,28,46,28
India,Andhra_Pradesh,Vijayawada,"Rajiv Gandhi Park, Vijayawada - APPCB",12-03-2024 02:00:00,16.509717,80.612222,OZONE,2,60,25
India,Assam,Byrnihat,"Central Academy for SFS, Byrnihat - PCBA",12-03-2024 02:00:00,26.071318,91.87488,PM2.5,72,443,310
India,Assam,Byrnihat,"Central Academy for SFS, Byrnihat - PCBA",12-03-2024 02:00:00,26.071318,91.87488,OZONE,6,16,14
India,Assam,Guwahati,"IITG, Guwahati - PCBA",12-03-2024 02:00:00,26.2028636,91.70046436,PM2.5,NA,NA,NA
India,Assam,Guwahati,"IITG, Guwahati - PCBA",12-03-2024 02:00:00,26.2028636,91.70046436,OZONE,NA,NA,NA
India,Assam,Guwahati,"LGBI Airport, Guwahati - PCBA",12-03-2024 02:00:00,26.10887,91.589544,PM10,118,259,183
India,Assam,Guwahati,"LGBI Airport, Guwahati - PCBA",12-03-2024 02:00:00,26.10887,91.589544,NH3,1,6,3
India,Assam,Guwahati,"Pan Bazaar, Guwahati - PCBA",12-03-2024 02:00:00,26.187500,91.744194,NO2,3,18,10
India,Assam,Nagaon,"Christianpatty, Nagaon - PCBA",12-03-2024 02:00:00,26.349082,92.68449,SO2,2,32,17
India,Assam,Nalbari,"Bata Chowk, Nalbari - PCBA",12-03-2024 02:00:00,26.446912,91.439057,PM2.5,150,347,282
India,Assam,Silchar,"Tarapur, Silchar - PCBA",12-03-2024 02:00:00,24.82827,92.79525,PM2.5,41,64,52
India,Assam,Silchar,"Tarapur, Silchar - PCBA",12-03-2024 02:00:00,24.82827,92.79525,SO2,1,15,9
India,Assam,Silchar,"Tarapur, Silchar - PCBA",12-03-2024 02:00:00,24.82827,92.79525,OZONE,1,29,3
India,Assam,Sivasagar,"Girls College, Sivasagar - PCBA",12-03-2024 02:00:00,26.987634,94.636574,PM2.5,43,63,53
India,Assam,Sivasagar,"Girls College, Sivasagar - PCBA",12-03-2024 02:00:00,26.987634,94.636574,SO2,5,11,9
India,Bihar,Araria,"Kharahiya Basti, Araria - BSPCB",12-03-2024 02:00:00,26.146529,87.454184,PM2.5,49,234,142
India,Bihar,Araria,"Kharahiya Basti, Araria - BSPCB",12-03-2024 02:00:00,26.146529,87.454184,PM10,80,211,140
India,Bihar,Araria,"Kharahiya Basti, Araria - BSPCB",12-03-2024 02:00:00,26.146529,87.454184,OZONE,8,10,8
India,Bihar,Arrah,"New DM Office, Arrah - BSPCB",12-03-2024 02:00:00,25.5626095,84.663264,NO2,NA,NA,NA
India,Bihar,Aurangabad,"Gurdeo Nagar, Aurangabad - BSPCB",12-03-2024 02:00:00,24.75746,84.366208,NH3,6,12,8
India,Bihar,Bhagalpur,"DM Office_Kachari Chowk, Bhagalpur - BSPCB",12-03-2024 02:00:00,25.251013,86.989001,PM2.5,37,345,186
India,Bihar,Bhagalpur,"DM Office_Kachari Chowk, Bhagalpur - BSPCB",12-03-2024 02:00:00,25.251013,86.989001,PM10,84,420,177
India,Bihar,Bhagalpur,"DM Office_Kachari Chowk, Bhagalpur - BSPCB",12-03-2024 02:00:00,25.251013,86.989001,NO2,33,156,67
India,Bihar,Bhagalpur,"Mayaganj, Bhagalpur - BSPCB",12-03-2024 02:00:00,25.265194,87.012947,PM10,37,179,116
India,Bihar,Buxar,"Charitra Van, Buxar - BSPCB (Formerly known as Central Jail)",12-03-2024 02:00:00,25.567520,83.966379,SO2,17,18,17
India,Bihar,Chhapra,"Darshan Nagar, Chhapra - BSPCB",12-03-2024 02:00:00,25.7808257,84.7446768,PM10,63,251,121
India,Bihar,Chhapra,"Darshan Nagar, Chhapra - BSPCB",12-03-2024 02:00:00,25.7808257,84.7446768,NO2,21,30,26
India,Bihar,Gaya,"Collectorate, Gaya - BSPCB",12-03-2024 02:00:00,24.7955,84.9994,PM2.5,60,294,159
India,Bihar,Gaya,"Kareemganj, Gaya - BSPCB",12-03-2024 02:00:00,24.792403,84.992416,NH3,1,6,3
India,Bihar,Gaya,"Kareemganj, Gaya - BSPCB",12-03-2024 02:00:00,24.792403,84.992416,CO,11,106,41
India,Bihar,Gaya,"SFTI Kusdihra, Gaya - BSPCB",12-03-2024 02:00:00,24.762518,84.982348,CO,24,60,33
India,Bihar,Gaya,"SFTI Kusdihra, Gaya - BSPCB",12-03-2024 02:00:00,24.762518,84.982348,OZONE,1,77,15
India,Bihar,Hajipur,"Industrial Area, Hajipur - BSPCB",12-03-2024 02:00:00,25.697189,85.245900,PM10,102,403,185
India,Bihar,Hajipur,"Industrial Area, Hajipur - BSPCB",12-03-2024 02:00:00,25.697189,85.245900,NH3,12,19,16
India,Bihar,Manguraha,"Forest Rest House, Manguraha - BSPCB",12-03-2024 02:00:00,27.308328,84.531742,PM10,NA,NA,NA
India,Bihar,Manguraha,"Forest Rest House, Manguraha - BSPCB",12-03-2024 02:00:00,27.308328,84.531742,SO2,2,3,3
India,Bihar,Manguraha,"Forest Rest House, Manguraha - BSPCB",12-03-2024 02:00:00,27.308328,84.531742,CO,18,80,57
India,Bihar,Motihari,"Gandak Colony, Motihari - BSPCB",12-03-2024 02:00:00,26.63086,84.90051,PM2.5,NA,NA,NA
India,Bihar,Motihari,"Gandak Colony, Motihari - BSPCB",12-03-2024 02:00:00,26.63086,84.90051,PM10,NA,NA,NA
India,Bihar,Munger,"Town Hall, Munger - BSPCB",12-03-2024 02:00:00,25.376776,86.471523,NH3,1,2,2
India,Bihar,Munger,"Town Hall, Munger - BSPCB",12-03-2024 02:00:00,25.376776,86.471523,OZONE,10,17,12
India,Bihar,Muzaffarpur,"Buddha Colony, Muzaffarpur - BSPCB",12-03-2024 02:00:00,26.11442,85.39813,PM2.5,NA,NA,NA
India,Bihar,Muzaffarpur,"Muzaffarpur Collectorate, Muzaffarpur - BSPCB",12-03-2024 02:00:00,26.1209,85.3647,NO2,8,25,13
India,Bihar,Patna,"DRM Office Danapur, Patna - BSPCB",12-03-2024 02:00:00,25.586562,85.043586,NO2,14,108,55
India,Bihar,Patna,"Govt. High School Shikarpur, Patna - BSPCB",12-03-2024 02:00:00,25.592539,85.227158,PM2.5,NA,NA,NA
India,Bihar,Patna,"Govt. High School Shikarpur, Patna - BSPCB",12-03-2024 02:00:00,25.592539,85.227158,PM10,NA,NA,NA
India,Bihar,Patna,"Govt. High School Shikarpur, Patna - BSPCB",12-03-2024 02:00:00,25.592539,85.227158,NH3,NA,NA,NA
India,Bihar,Patna,"Govt. High School Shikarpur, Patna - BSPCB",12-03-2024 02:00:00,25.592539,85.227158,SO2,NA,NA,NA
India,Bihar,Patna,"IGSC Planetarium Complex, Patna - BSPCB",12-03-2024 02:00:00,25.610369,85.132568,PM2.5,57,309,185
India,Bihar,Patna,"Rajbansi Nagar, Patna - BSPCB",12-03-2024 02:00:00,25.599486,85.113666,NO2,29,53,36
India,Bihar,Patna,"Rajbansi Nagar, Patna - BSPCB",12-03-2024 02:00:00,25.599486,85.113666,CO,55,102,92
India,Bihar,Purnia,"Mariam Nagar, Purnia - BSPCB",12-03-2024 02:00:00,25.366336,87.117468,PM10,70,165,115
India,Bihar,Rajgir,"Dangi Tola, Rajgir - BSPCB",12-03-2024 02:00:00,25.03280,85.41948,PM2.5,28,349,87
India,Bihar,Saharsa,"Police Line, Saharsa - BSPCB",12-03-2024 02:00:00,25.892357,86.590325,PM2.5,33,260,138
India,Bihar,Saharsa,"Police Line, Saharsa - BSPCB",12-03-2024 02:00:00,25.892357,86.590325,CO,2,52,37
India,Bihar,Samastipur,"DM Office_Kasipur, Samastipur - BSPCB",12-03-2024 02:00:00,25.859655,85.77944,PM10,49,135,99
India,Bihar,Samastipur,"DM Office_Kasipur, Samastipur - BSPCB",12-03-2024 02:00:00,25.859655,85.77944,SO2,7,16,13
India,Bihar,Samastipur,"DM Office_Kasipur, Samastipur - BSPCB",12-03-2024 02:00:00,25.859655,85.77944,OZONE,9,21,10
India,Bihar,Siwan,"Chitragupta Nagar, Siwan - BSPCB",12-03-2024 02:00:00,26.2271665,84.3570427,NH3,1,9,3
India,Bihar,Siwan,"Chitragupta Nagar, Siwan - BSPCB",12-03-2024 02:00:00,26.2271665,84.3570427,CO,38,148,114
India,Chandigarh,Chandigarh,"Sector 22, Chandigarh - CPCC",12-03-2024 02:00:00,30.735567,76.775714,NO2,17,66,35
India,Chandigarh,Chandigarh,"Sector 22, Chandigarh - CPCC",12-03-2024 02:00:00,30.735567,76.775714,NH3,6,8,7
India,Chandigarh,Chandigarh,"Sector 22, Chandigarh - CPCC",12-03-2024 02:00:00,30.735567,76.775714,CO,33,56,49
India,Chandigarh,Chandigarh,"Sector-25, Chandigarh - CPCC",12-03-2024 02:00:00,30.751462,76.762879,PM10,118,153,136
India,Chandigarh,Chandigarh,"Sector-25, Chandigarh - CPCC",12-03-2024 02:00:00,30.751462,76.762879,NH3,13,26,18
India,Chandigarh,Chandigarh,"Sector-25, Chandigarh - CPCC",12-03-2024 02:00:00,30.751462,76.762879,SO2,8,21,12
India,Chandigarh,Chandigarh,"Sector-25, Chandigarh - CPCC",12-03-2024 02:00:00,30.751462,76.762879,CO,19,42,33
India,Chandigarh,Chandigarh,"Sector-53, Chandigarh - CPCC",12-03-2024 02:00:00,30.719859,76.738637,PM2.5,88,308,212
India,Chhattisgarh,Bhilai,"Hathkhoj, Bhilai - CECB",12-03-2024 02:00:00,21.224231,81.408350,NO2,16,71,36
India,Chhattisgarh,Bilaspur,"Mangala, Bilaspur - NTPC",12-03-2024 02:00:00,22.08815,82.13737,PM2.5,26,58,41
India,Chhattisgarh,Bilaspur,"Mangala, Bilaspur - NTPC",12-03-2024 02:00:00,22.08815,82.13737,SO2,8,22,14
India,Chhattisgarh,Chhal,"Nawapara SECL Colony, Chhal - CECB",12-03-2024 02:00:00,22.118125,83.140608,CO,34,52,43
India,Chhattisgarh,Korba,"Urja Nagar, Korba - CECB",12-03-2024 02:00:00,22.348441,82.549611,PM2.5,36,221,91
India,Chhattisgarh,Korba,"Urja Nagar, Korba - CECB",12-03-2024 02:00:00,22.348441,82.549611,OZONE,NA,NA,NA
India,Chhattisgarh,Kunjemura,"OP Jindal School, Kunjemura - CECB",12-03-2024 02:00:00,22.126650,83.483212,PM2.5,51,116,77
India,Chhattisgarh,Kunjemura,"OP Jindal School, Kunjemura - CECB",12-03-2024 02:00:00,22.126650,83.483212,NO2,23,133,59
India,Chhattisgarh,Kunjemura,"OP Jindal School, Kunjemura - CECB",12-03-2024 02:00:00,22.126650,83.483212,SO2,4,82,20
India,Chhattisgarh,Raipur,"AIIMS, Raipur - CECB",12-03-2024 02:00:00,21.258815,81.578979,PM10,48,179,93
India,Chhattisgarh,Raipur,"AIIMS, Raipur - CECB",12-03-2024 02:00:00,21.258815,81.578979,SO2,7,21,11
India,Chhattisgarh,Raipur,"AIIMS, Raipur - CECB",12-03-2024 02:00:00,21.258815,81.578979,OZONE,1,23,10
India,Chhattisgarh,Raipur,"Krishak Nagar, Raipur - CECB",12-03-2024 02:00:00,21.237755,81.705301,PM2.5,39,85,57
India,Chhattisgarh,Raipur,"Krishak Nagar, Raipur - CECB",12-03-2024 02:00:00,21.237755,81.705301,PM10,47,148,78
India,Chhattisgarh,Raipur,"Siltara Phase-II, Raipur - CECB",12-03-2024 02:00:00,21.371751,81.664929,PM2.5,59,323,131
India,Chhattisgarh,Raipur,"Siltara Phase-II, Raipur - CECB",12-03-2024 02:00:00,21.371751,81.664929,SO2,15,60,30
India,Delhi,Delhi,"Ashok Vihar, Delhi - DPCC",12-03-2024 02:00:00,28.695381,77.181665,NH3,9,11,10
India,Delhi,Delhi,"Ashok Vihar, Delhi - DPCC",12-03-2024 02:00:00,28.695381,77.181665,SO2,27,47,32
India,Delhi,Delhi,"Aya Nagar, Delhi - IMD",12-03-2024 02:00:00,28.4706914,77.1099364,PM2.5,95,360,235
India,Delhi,Delhi,"Bawana, Delhi - DPCC",12-03-2024 02:00:00,28.776200,77.051074,NO2,12,69,40
India,Delhi,Delhi,"Bawana, Delhi - DPCC",12-03-2024 02:00:00,28.776200,77.051074,CO,16,64,33
India,Delhi,Delhi,"Chandni Chowk, Delhi - IITM",12-03-2024 02:00:00,28.656756,77.227234,OZONE,11,78,19
India,Delhi,Delhi,"DTU, Delhi - CPCB",12-03-2024 02:00:00,28.7500499,77.1112615,CO,24,60,30
India,Delhi,Delhi,"DTU, Delhi - CPCB",12-03-2024 02:00:00,28.7500499,77.1112615,OZONE,26,68,39
India,Delhi,Delhi,"Dr. Karni Singh Shooting Range, Delhi - DPCC",12-03-2024 02:00:00,28.498571,77.264840,NH3,6,25,13
India,Delhi,Delhi,"Dwarka-Sector 8, Delhi - DPCC ",12-03-2024 02:00:00,28.5710274,77.0719006,PM10,139,500,222
India,Delhi,Delhi,"Dwarka-Sector 8, Delhi - DPCC ",12-03-2024 02:00:00,28.5710274,77.0719006,NH3,4,8,5
India,Delhi,Delhi,"IGI Airport (T3), Delhi - IMD",12-03-2024 02:00:00,28.5627763,77.1180053,CO,32,100,45
India,Delhi,Delhi,"ITO, Delhi - CPCB",12-03-2024 02:00:00,28.628624,77.241060,PM2.5,70,327,198
India,Delhi,Delhi,"ITO, Delhi - CPCB",12-03-2024 02:00:00,28.628624,77.241060,NH3,1,10,5
India,Delhi,Delhi,"ITO, Delhi - CPCB",12-03-2024 02:00:00,28.628624,77.241060,OZONE,13,98,22
India,Delhi,Delhi,"Jahangirpuri, Delhi - DPCC",12-03-2024 02:00:00,28.732820,77.170633,NO2,19,67,43
India,Delhi,Delhi,"Jahangirpuri, Delhi - DPCC",12-03-2024 02:00:00,28.732820,77.170633,CO,42,110,81
India,Delhi,Delhi,"Jawaharlal Nehru Stadium, Delhi - DPCC",12-03-2024 02:00:00,28.580280,77.233829,PM2.5,NA,NA,NA
India,Delhi,Delhi,"Lodhi Road, Delhi - IITM",12-03-2024 02:00:00,28.588333,77.221667,NH3,NA,NA,NA
India,Delhi,Delhi,"Lodhi Road, Delhi - IITM",12-03-2024 02:00:00,28.588333,77.221667,CO,62,68,64
India,Delhi,Delhi,"Lodhi Road, Delhi - IMD",12-03-2024 02:00:00,28.5918245,77.2273074,PM2.5,46,282,161
India,Delhi,Delhi,"Major Dhyan Chand National Stadium, Delhi - DPCC",12-03-2024 02:00:00,28.611281,77.237738,PM2.5,78,314,186
India,Delhi,Delhi,"Major Dhyan Chand National Stadium, Delhi - DPCC",12-03-2024 02:00:00,28.611281,77.237738,OZONE,2,261,38
India,Delhi,Delhi,"Mundka, Delhi - DPCC",12-03-2024 02:00:00,28.684678,77.076574,NO2,21,119,61
India,Delhi,Delhi,"Mundka, Delhi - DPCC",12-03-2024 02:00:00,28.684678,77.076574,SO2,8,24,13
India,Delhi,Delhi,"NSIT Dwarka, Delhi - CPCB",12-03-2024 02:00:00,28.60909,77.0325413,SO2,17,30,21
India,Delhi,Delhi,"Najafgarh, Delhi - DPCC",12-03-2024 02:00:00,28.570173,76.933762,NO2,7,27,16
India,Delhi,Delhi,"Najafgarh, Delhi - DPCC",12-03-2024 02:00:00,28.570173,76.933762,NH3,10,12,12
India,Delhi,Delhi,"Narela, Delhi - DPCC",12-03-2024 02:00:00,28.822836,77.101981,NO2,14,84,47
India,Delhi,Delhi,"New Moti Bagh, Delhi - MHUA",12-03-2024 02:00:00,28.57834,77.18400,CO,18,94,37
India,Delhi,Delhi,"Okhla Phase-2, Delhi - DPCC",12-03-2024 02:00:00,28.530785,77.271255,PM2.5,61,313,192
India,Delhi,Delhi,"Patparganj, Delhi - DPCC",12-03-2024 02:00:00,28.623763,77.287209,SO2,14,19,17
India,Delhi,Delhi,"Patparganj, Delhi - DPCC",12-03-2024 02:00:00,28.623763,77.287209,OZONE,6,273,52
India,Delhi,Delhi,"Punjabi Bagh, Delhi - DPCC",12-03-2024 02:00:00,28.674045,77.131023,PM10,114,238,162
India,Delhi,Delhi,"Punjabi Bagh, Delhi - DPCC",12-03-2024 02:00:00,28.674045,77.131023,NH3,1,2,2
India,Delhi,Delhi,"Punjabi Bagh, Delhi - DPCC",12-03-2024 02:00:00,28.674045,77.131023,CO,26,64,45
India,Delhi,Delhi,"Punjabi Bagh, Delhi - DPCC",12-03-2024 02:00:00,28.674045,77.131023,OZONE,6,64,20
India,Delhi,Delhi,"Pusa, Delhi - IMD",12-03-2024 02:00:00,28.636110,77.173332,CO,68,102,74
India,Delhi,Delhi,"R K Puram, Delhi - DPCC",12-03-2024 02:00:00,28.563262,77.186937,PM2.5,75,367,194
India,Delhi,Delhi,"Rohini, Delhi - DPCC",12-03-2024 02:00:00,28.732528,77.119920,PM10,108,396,182
India,Delhi,Delhi,"Rohini, Delhi - DPCC",12-03-2024 02:00:00,28.732528,77.119920,SO2,11,36,19
India,Delhi,Delhi,"Rohini, Delhi - DPCC",12-03-2024 02:00:00,28.732528,77.119920,OZONE,3,187,60
India,Delhi,Delhi,"Shadipur, Delhi - CPCB",12-03-2024 02:00:00,28.6514781,77.1473105,PM2.5,91,332,219
India,Delhi,Delhi,"Sirifort, Delhi - CPCB",12-03-2024 02:00:00,28.5504249,77.2159377,CO,14,78,34
India,Delhi,Delhi,"Sonia Vihar, Delhi - DPCC",12-03-2024 02:00:00,28.710508,77.249485,NH3,5,6,6
India,Delhi,Delhi,"Sri Aurobindo Marg, Delhi - DPCC",12-03-2024 02:00:00,28.531346,77.190156,SO2,10,28,17
India,Delhi,Delhi,"Vivek Vihar, Delhi - DPCC",12-03-2024 02:00:00,28.672342,77.315260,NO2,44,98,65
India,Delhi,Delhi,"Wazirpur, Delhi - DPCC",12-03-2024 02:00:00,28.699793,77.165453,PM2.5,73,362,189
India,Delhi,Delhi,"Wazirpur, Delhi - DPCC",12-03-2024 02:00:00,28.699793,77.165453,PM10,131,368,183
India,Gujarat,Ahmedabad,"Chandkheda, Ahmedabad - IITM",12-03-2024 02:00:00,23.107969,72.574648,CO,11,66,44
India,Gujarat,Ahmedabad,"Gyaspur, Ahmedabad - IITM",12-03-2024 02:00:00,22.977134,72.553024,NO2,21,22,21
India,Gujarat,Ahmedabad,"Maninagar, Ahmedabad - GPCB",12-03-2024 02:00:00,23.002657,72.591912,PM10,69,146,103
India,Gujarat,Ahmedabad,"Maninagar, Ahmedabad - GPCB",12-03-2024 02:00:00,23.002657,72.591912,SO2,22,127,77
India,Gujarat,Ahmedabad,"Raikhad, Ahmedabad - IITM",12-03-2024 02:00:00,23.020509,72.579261,PM2.5,14,57,31
India,Gujarat,Ahmedabad,"SAC ISRO Satellite, Ahmedabad - IITM",12-03-2024 02:00:00,23.023389,72.515201,PM2.5,126,178,165
India,Gujarat,Ahmedabad,"SAC ISRO Satellite, Ahmedabad - IITM",12-03-2024 02:00:00,23.023389,72.515201,NH3,3,3,3
India,Gujarat,Ahmedabad,"SAC ISRO Satellite, Ahmedabad - IITM",12-03-2024 02:00:00,23.023389,72.515201,OZONE,12,22,15
India,Gujarat,Ahmedabad,"SVPI Airport Hansol, Ahmedabad - IITM",12-03-2024 02:00:00,23.076793,72.627874,NO2,14,19,17
India,Gujarat,Ahmedabad,"SVPI Airport Hansol, Ahmedabad - IITM",12-03-2024 02:00:00,23.076793,72.627874,SO2,7,9,8
India,Gujarat,Ahmedabad,"Sardar Vallabhbhai Patel Stadium, Ahmedabad - IITM",12-03-2024 02:00:00,23.043070,72.562968,PM2.5,68,362,147
India,Gujarat,Ahmedabad,"Sardar Vallabhbhai Patel Stadium, Ahmedabad - IITM",12-03-2024 02:00:00,23.043070,72.562968,PM10,94,361,139
India,Gujarat,Ahmedabad,"Sardar Vallabhbhai Patel Stadium, Ahmedabad - IITM",12-03-2024 02:00:00,23.043070,72.562968,CO,30,59,47
India,Gujarat,Ankleshwar,"GIDC, Ankleshwar - GPCB",12-03-2024 02:00:00,21.613267,73.010555,CO,30,110,85
India,Gujarat,Gandhinagar,"GIFT City, Gandhinagar - IITM",12-03-2024 02:00:00,23.163798,72.677768,NO2,25,25,25
India,Gujarat,Gandhinagar,"GIFT City, Gandhinagar - IITM",12-03-2024 02:00:00,23.163798,72.677768,NH3,3,3,3
India,Gujarat,Gandhinagar,"GIFT City, Gandhinagar - IITM",12-03-2024 02:00:00,23.163798,72.677768,CO,26,42,30
India,Gujarat,Gandhinagar,"IIPHG Lekawada, Gandhinagar - IITM",12-03-2024 02:00:00,23.243639,72.68994,NO2,29,31,30
India,Gujarat,Gandhinagar,"Sector-10, Gandhinagar - GPCB",12-03-2024 02:00:00,23.221714,72.654328,NO2,5,17,13
India,Gujarat,Vapi,"Phase-1 GIDC, Vapi - GPCB",12-03-2024 02:00:00,20.362421,72.918013,SO2,47,48,47
India,Haryana,Ambala,"Patti Mehar, Ambala - HSPCB",12-03-2024 02:00:00,30.379589,76.778328,CO,30,60,40
India,Haryana,Bahadurgarh,"Arya Nagar, Bahadurgarh - HSPCB",12-03-2024 02:00:00,28.6701,76.9254,PM10,97,217,140
India,Haryana,Bahadurgarh,"Arya Nagar, Bahadurgarh - HSPCB",12-03-2024 02:00:00,28.6701,76.9254,SO2,13,17,15
India,Haryana,Ballabgarh,"Nathu Colony, Ballabgarh - HSPCB",12-03-2024 02:00:00,28.3419248,77.319699,PM10,109,259,162
India,Haryana,Ballabgarh,"Nathu Colony, Ballabgarh - HSPCB",12-03-2024 02:00:00,28.3419248,77.319699,NO2,12,13,13
India,Haryana,Ballabgarh,"Nathu Colony, Ballabgarh - HSPCB",12-03-2024 02:00:00,28.3419248,77.319699,OZONE,1,27,16
India,Haryana,Bhiwani,"H.B. Colony, Bhiwani - HSPCB",12-03-2024 02:00:00,28.806223,76.141105,PM10,19,340,84
India,Haryana,Bhiwani,"H.B. Colony, Bhiwani - HSPCB",12-03-2024 02:00:00,28.806223,76.141105,CO,2,46,13
India,Haryana,Charkhi Dadri,"Mini Secretariat, Charkhi Dadri - HSPCB",12-03-2024 02:00:00,28.593883,76.270653,PM10,75,236,119
India,Haryana,Charkhi Dadri,"Mini Secretariat, Charkhi Dadri - HSPCB",12-03-2024 02:00:00,28.593883,76.270653,NO2,11,17,14
India,Haryana,Charkhi Dadri,"Mini Secretariat, Charkhi Dadri - HSPCB",12-03-2024 02:00:00,28.593883,76.270653,SO2,12,15,14
India,Haryana,Charkhi Dadri,"Mini Secretariat, Charkhi Dadri - HSPCB",12-03-2024 02:00:00,28.593883,76.270653,CO,17,30,19
India,Haryana,Dharuhera,"Municipal Corporation Office, Dharuhera -  HSPCB",12-03-2024 02:00:00,28.206800,76.799700,PM2.5,30,265,110
India,Haryana,Dharuhera,"Municipal Corporation Office, Dharuhera -  HSPCB",12-03-2024 02:00:00,28.206800,76.799700,SO2,31,46,36
India,Haryana,Dharuhera,"Municipal Corporation Office, Dharuhera -  HSPCB",12-03-2024 02:00:00,28.206800,76.799700,OZONE,10,69,24
India,Haryana,Faridabad,"New Industrial Town, Faridabad - HSPCB",12-03-2024 02:00:00,28.39072,77.30059,NH3,3,10,6
India,Haryana,Faridabad,"Sector 11, Faridabad - HSPCB",12-03-2024 02:00:00,28.376058,77.315741,PM2.5,200,361,269
India,Haryana,Faridabad,"Sector 11, Faridabad - HSPCB",12-03-2024 02:00:00,28.376058,77.315741,NH3,6,7,6
India,Haryana,Faridabad,"Sector 30, Faridabad - HSPCB",12-03-2024 02:00:00,28.4417,77.3217,PM2.5,95,145,117
India,Haryana,Faridabad,"Sector 30, Faridabad - HSPCB",12-03-2024 02:00:00,28.4417,77.3217,PM10,98,202,114
India,Haryana,Faridabad,"Sector 30, Faridabad - HSPCB",12-03-2024 02:00:00,28.4417,77.3217,CO,26,90,65
India,Haryana,Faridabad,"Sector 30, Faridabad - HSPCB",12-03-2024 02:00:00,28.4417,77.3217,OZONE,8,51,20
India,Haryana,Fatehabad,"Huda Sector, Fatehabad - HSPCB",12-03-2024 02:00:00,29.503664,75.467934,NH3,13,13,13
India,Haryana,Fatehabad,"Huda Sector, Fatehabad - HSPCB",12-03-2024 02:00:00,29.503664,75.467934,SO2,6,12,9
India,Haryana,Gurugram,"Sector-51, Gurugram - HSPCB",12-03-2024 02:00:00,28.4227,77.0667,NH3,7,14,9
India,Haryana,Hisar,"Urban Estate-II, Hisar - HSPCB",12-03-2024 02:00:00,29.140560,75.744941,PM2.5,18,241,91
India,Haryana,Jind,"Police Lines, Jind - HSPCB",12-03-2024 02:00:00,29.307814,76.337619,PM10,64,104,80
India,Haryana,Jind,"Police Lines, Jind - HSPCB",12-03-2024 02:00:00,29.307814,76.337619,NH3,2,5,3
India,Haryana,Karnal,"Sector-12, Karnal - HSPCB",12-03-2024 02:00:00,29.695300,77.002700,NO2,7,12,10
India,Haryana,Karnal,"Sector-12, Karnal - HSPCB",12-03-2024 02:00:00,29.695300,77.002700,SO2,12,13,12
India,Haryana,Kurukshetra,"Sector-7, Kurukshetra - HSPCB",12-03-2024 02:00:00,29.966942,76.875879,CO,6,34,21
India,Haryana,Manesar,"Sector-2 IMT, Manesar - HSPCB",12-03-2024 02:00:00,28.360699,76.936090,OZONE,1,69,20
India,Haryana,Palwal,"Shyam Nagar, Palwal - HSPCB",12-03-2024 02:00:00,28.1485564,77.3320667,PM10,100,185,136
India,Haryana,Palwal,"Shyam Nagar, Palwal - HSPCB",12-03-2024 02:00:00,28.1485564,77.3320667,CO,26,44,34
India,Haryana,Palwal,"Shyam Nagar, Palwal - HSPCB",12-03-2024 02:00:00,28.1485564,77.3320667,OZONE,9,44,21
India,Haryana,Panipat,"Sector-18, Panipat - HSPCB",12-03-2024 02:00:00,29.497973,76.993331,OZONE,30,30,30
India,Haryana,Sirsa,"F-Block, Sirsa - HSPCB",12-03-2024 02:00:00,29.536400,75.015800,PM2.5,NA,NA,NA
India,Haryana,Yamuna Nagar,"Gobind Pura, Yamuna Nagar - HSPCB",12-03-2024 02:00:00,30.1480566,77.2893471,PM2.5,10,167,87
India,Haryana,Yamuna Nagar,"Gobind Pura, Yamuna Nagar - HSPCB",12-03-2024 02:00:00,30.1480566,77.2893471,SO2,2,104,12
India,Haryana,Yamuna Nagar,"Gobind Pura, Yamuna Nagar - HSPCB",12-03-2024 02:00:00,30.1480566,77.2893471,OZONE,21,35,29
India,Himachal Pradesh,Baddi,"HIMUDA Complex Phase-1, Baddi - HPPCB",12-03-2024 02:00:00,30.943887,76.801991,PM10,109,416,184
India,Himachal Pradesh,Baddi,"HIMUDA Complex Phase-1, Baddi - HPPCB",12-03-2024 02:00:00,30.943887,76.801991,SO2,20,130,57
India,Jharkhand,Dhanbad,"Kalakusuma, Dhanbad - DMC",12-03-2024 02:00:00,23.811548,86.481238,PM2.5,4,89,27
India,Jharkhand,Dhanbad,"Sardar Patel Nagar, Dhanbad - JSPCB",12-03-2024 02:00:00,23.80569,86.44268,OZONE,11,52,16
India,Jharkhand,Pathardih,"Mohalbani Ghat, Pathardih - DMC",12-03-2024 02:00:00,23.669880,86.411725,PM10,NA,NA,NA
India,Karnataka,Bagalkot,"Vidayagiri, Bagalkot - KSPCB",12-03-2024 02:00:00,16.172806,75.659694,NO2,9,11,9
India,Karnataka,Belgaum,"Ramteerth Nagar, Belgaum - KSPCB",12-03-2024 02:00:00,15.888653,74.541751,PM2.5,28,62,44
India,Karnataka,Belgaum,"Ramteerth Nagar, Belgaum - KSPCB",12-03-2024 02:00:00,15.888653,74.541751,CO,33,47,40
India,Karnataka,Belgaum,"Ramteerth Nagar, Belgaum - KSPCB",12-03-2024 02:00:00,15.888653,74.541751,OZONE,17,20,19
India,Karnataka,Bengaluru,"BTM Layout, Bengaluru - CPCB",12-03-2024 02:00:00,12.9135218,77.5950804,CO,44,46,44
India,Karnataka,Bengaluru,"Bapuji Nagar, Bengaluru - KSPCB",12-03-2024 02:00:00,12.951913,77.539784,PM10,60,112,86
India,Karnataka,Bengaluru,"Hebbal, Bengaluru - KSPCB",12-03-2024 02:00:00,13.029152,77.585901,CO,9,51,26
India,Karnataka,Bengaluru,"Hombegowda Nagar, Bengaluru - KSPCB",12-03-2024 02:00:00,12.938539,77.590100,SO2,3,4,3
India,Karnataka,Bengaluru,"Jayanagar 5th Block, Bengaluru - KSPCB",12-03-2024 02:00:00,12.920984,77.584908,PM2.5,65,130,90
India,Karnataka,Bengaluru,"Jayanagar 5th Block, Bengaluru - KSPCB",12-03-2024 02:00:00,12.920984,77.584908,OZONE,28,28,28
India,Karnataka,Bengaluru,"Kasturi Nagar, Bengaluru - KSPCB",12-03-2024 02:00:00,13.003872,77.664217,CO,23,28,26
India,Karnataka,Bengaluru,"Peenya, Bengaluru - CPCB",12-03-2024 02:00:00,13.0270199,77.494094,NH3,2,4,3
India,Karnataka,Bengaluru,"RVCE-Mailasandra, Bengaluru - KSPCB",12-03-2024 02:00:00,12.921418,77.502466,PM2.5,179,323,277
