country,state,city,station,last_update,latitude,longitude,pollutant_id,pollutant_min,pollutant_max,pollutant_avg
India,Andhra_Pradesh,Amaravati,"Secretariat, Amaravati - APPCB",11-05-2024 06:00:00,16.5150833,80.5181667,NO2,5,31,15
India,Andhra_Pradesh,Amaravati,"Secretariat, Amaravati - APPCB",11-05-2024 06:00:00,16.5150833,80.5181667,NH3,1,4,3
India,Andhra_Pradesh,Amaravati,"Secretariat, Amaravati - APPCB",11-05-2024 06:00:00,16.5150833,80.5181667,SO2,6,17,14
India,Andhra_Pradesh,Chittoor,"Gangineni Cheruvu, Chittoor - APPCB",11-05-2024 06:00:00,13.204880,79.097889,OZONE,NA,NA,NA
India,Andhra_Pradesh,Kadapa,"Yerramukkapalli, Kadapa - APPCB",11-05-2024 06:00:00,14.465052,78.824187,OZONE,2,69,14
India,Andhra_Pradesh,Rajamahendravaram,"Anand Kala Kshetram, Rajamahendravaram - APPCB",11-05-2024 06:00:00,16.9872867,81.7363176,PM10,8,70,29
India,Andhra_Pradesh,Rajamahendravaram,"Anand Kala Kshetram, Rajamahendravaram - APPCB",11-05-2024 06:00:00,16.9872867,81.7363176,NO2,8,38,22
India,Andhra_Pradesh,Rajamahendravaram,"Anand Kala Kshetram, Rajamahendravaram - APPCB",11-05-2024 06:00:00,16.9872867,81.7363176,CO,22,34,26
India,Andhra_Pradesh,Tirupati,"Vaikuntapuram, Tirupati - APPCB",11-05-2024 06:00:00,13.615387,79.409230,CO,10,18,15
India,Andhra_Pradesh,Vijayawada,"HB Colony, Vijayawada - APPCB",11-05-2024 06:00:00,16.536107,80.594233,PM2.5,35,168,54
India,Andhra_Pradesh,Vijayawada,"HB Colony, Vijayawada - APPCB",11-05-2024 06:00:00,16.536107,80.594233,SO2,5,8,6
India,Andhra_Pradesh,Vijayawada,"Kanuru, Vijayawada - APPCB",11-05-2024 06:00:00,16.486692,80.699436,NO2,49,54,51
India,Andhra_Pradesh,Vijayawada,"Kanuru, Vijayawada - APPCB",11-05-2024 06:00:00,16.486692,80.699436,CO,39,39,39
India,Andhra_Pradesh,Vijayawada,"Kanuru, Vijayawada - APPCB",11-05-2024 06:00:00,16.486692,80.699436,OZONE,29,29,29
India,Andhra_Pradesh,Vijayawada,"Rajiv Gandhi Park, Vijayawada - APPCB",11-05-2024 06:00:00,16.509717,80.612222,PM10,28,99,56
India,Andhra_Pradesh,Vijayawada,"Rajiv Gandhi Park, Vijayawada - APPCB",11-05-2024 06:00:00,16.509717,80.612222,NH3,2,5,3
India,Andhra_Pradesh,Vijayawada,"Rajiv Gandhi Park, Vijayawada - APPCB",11-05-2024 06:00:00,16.509717,80.612222,SO2,5,12,8
India,Andhra_Pradesh,Vijayawada,"Rajiv Nagar, Vijayawada - APPCB",11-05-2024 06:00:00,16.554731,80.649110,PM2.5,43,60,44
India,Andhra_Pradesh,Vijayawada,"Rajiv Nagar, Vijayawada - APPCB",11-05-2024 06:00:00,16.554731,80.649110,NH3,2,3,2
India,Arunachal_Pradesh,Naharlagun,"Naharlagun, Naharlagun - APSPCB",11-05-2024 06:00:00,27.103358,93.679645,PM10,10,42,28
India,Assam,Byrnihat,"Central Academy for SFS, Byrnihat - PCBA",11-05-2024 06:00:00,26.071318,91.87488,PM10,28,408,174
India,Assam,Byrnihat,"Central Academy for SFS, Byrnihat - PCBA",11-05-2024 06:00:00,26.071318,91.87488,CO,15,48,16
India,Assam,Guwahati,"IITG, Guwahati - PCBA",11-05-2024 06:00:00,26.2028636,91.70046436,SO2,12,13,13
India,Assam,Guwahati,"Pan Bazaar, Guwahati - PCBA",11-05-2024 06:00:00,26.187500,91.744194,PM2.5,14,39,26
India,Assam,Guwahati,"Pan Bazaar, Guwahati - PCBA",11-05-2024 06:00:00,26.187500,91.744194,NO2,NA,NA,NA
India,Assam,Guwahati,"Pan Bazaar, Guwahati - PCBA",11-05-2024 06:00:00,26.187500,91.744194,SO2,25,34,29
India,Assam,Guwahati,"Railway Colony, Guwahati - PCBA",11-05-2024 06:00:00,26.181742,91.78063,PM10,28,128,53
India,Assam,Guwahati,"Railway Colony, Guwahati - PCBA",11-05-2024 06:00:00,26.181742,91.78063,NO2,3,4,3
India,Assam,Nalbari,"Bata Chowk, Nalbari - PCBA",11-05-2024 06:00:00,26.446912,91.439057,PM10,26,140,73
India,Assam,Silchar,"Tarapur, Silchar - PCBA",11-05-2024 06:00:00,24.82827,92.79525,NO2,14,16,15
India,Assam,Sivasagar,"Girls College, Sivasagar - PCBA",11-05-2024 06:00:00,26.987634,94.636574,PM2.5,26,28,26
India,Assam,Sivasagar,"Girls College, Sivasagar - PCBA",11-05-2024 06:00:00,26.987634,94.636574,NO2,10,21,15
India,Assam,Sivasagar,"Girls College, Sivasagar - PCBA",11-05-2024 06:00:00,26.987634,94.636574,SO2,7,9,8
India,Bihar,Araria,"Kharahiya Basti, Araria - BSPCB",11-05-2024 06:00:00,26.146529,87.454184,PM2.5,9,49,32
India,Bihar,Arrah,"New DM Office, Arrah - BSPCB",11-05-2024 06:00:00,25.5626095,84.663264,NO2,NA,NA,NA
India,Bihar,Arrah,"New DM Office, Arrah - BSPCB",11-05-2024 06:00:00,25.5626095,84.663264,NH3,8,11,9
India,Bihar,Arrah,"New DM Office, Arrah - BSPCB",11-05-2024 06:00:00,25.5626095,84.663264,SO2,2,29,18
India,Bihar,Aurangabad,"Gurdeo Nagar, Aurangabad - BSPCB",11-05-2024 06:00:00,24.75746,84.366208,OZONE,42,165,61
India,Bihar,Bettiah,"Kamalnath Nagar, Bettiah - BSPCB",11-05-2024 06:00:00,26.80365,84.51954,PM2.5,43,290,138
India,Bihar,Bettiah,"Kamalnath Nagar, Bettiah - BSPCB",11-05-2024 06:00:00,26.80365,84.51954,PM10,48,179,115
India,Bihar,Bhagalpur,"DM Office_Kachari Chowk, Bhagalpur - BSPCB",11-05-2024 06:00:00,25.251013,86.989001,PM2.5,72,203,117
India,Bihar,Bhagalpur,"DM Office_Kachari Chowk, Bhagalpur - BSPCB",11-05-2024 06:00:00,25.251013,86.989001,NO2,39,70,57
India,Bihar,Bhagalpur,"DM Office_Kachari Chowk, Bhagalpur - BSPCB",11-05-2024 06:00:00,25.251013,86.989001,NH3,5,9,7
India,Bihar,Bhagalpur,"DM Office_Kachari Chowk, Bhagalpur - BSPCB",11-05-2024 06:00:00,25.251013,86.989001,SO2,13,72,26
India,Bihar,Bhagalpur,"DM Office_Kachari Chowk, Bhagalpur - BSPCB",11-05-2024 06:00:00,25.251013,86.989001,OZONE,45,60,47
India,Bihar,Bihar Sharif,"D M Colony, Bihar Sharif - BSPCB",11-05-2024 06:00:00,25.204762,85.514960,PM10,24,89,58
India,Bihar,Bihar Sharif,"D M Colony, Bihar Sharif - BSPCB",11-05-2024 06:00:00,25.204762,85.514960,CO,52,68,60
India,Bihar,Buxar,"Charitra Van, Buxar - BSPCB (Formerly known as Central Jail)",11-05-2024 06:00:00,25.567520,83.966379,CO,53,92,60
India,Bihar,Chhapra,"Darshan Nagar, Chhapra - BSPCB",11-05-2024 06:00:00,25.7808257,84.7446768,OZONE,1,14,2
India,Bihar,Gaya,"Kareemganj, Gaya - BSPCB",11-05-2024 06:00:00,24.792403,84.992416,NH3,2,6,4
India,Bihar,Gaya,"SFTI Kusdihra, Gaya - BSPCB",11-05-2024 06:00:00,24.762518,84.982348,PM2.5,16,96,53
India,Bihar,Gaya,"SFTI Kusdihra, Gaya - BSPCB",11-05-2024 06:00:00,24.762518,84.982348,NO2,19,47,34
India,Bihar,Hajipur,"Industrial Area, Hajipur - BSPCB",11-05-2024 06:00:00,25.697189,85.245900,NO2,9,62,35
India,Bihar,Katihar,"Mirchaibari, Katihar - BSPCB",11-05-2024 06:00:00,25.560083,87.553265,NO2,6,38,18
India,Bihar,Manguraha,"Forest Rest House, Manguraha - BSPCB",11-05-2024 06:00:00,27.308328,84.531742,SO2,NA,NA,NA
India,Bihar,Manguraha,"Forest Rest House, Manguraha - BSPCB",11-05-2024 06:00:00,27.308328,84.531742,CO,18,28,26
India,Bihar,Motihari,"Gandak Colony, Motihari - BSPCB",11-05-2024 06:00:00,26.63086,84.90051,PM10,NA,NA,NA
India,Bihar,Motihari,"Gandak Colony, Motihari - BSPCB",11-05-2024 06:00:00,26.63086,84.90051,NO2,NA,NA,NA
India,Bihar,Motihari,"Gandak Colony, Motihari - BSPCB",11-05-2024 06:00:00,26.63086,84.90051,SO2,NA,NA,NA
India,Bihar,Motihari,"Gandak Colony, Motihari - BSPCB",11-05-2024 06:00:00,26.63086,84.90051,CO,NA,NA,NA
India,Bihar,Munger,"Town Hall, Munger - BSPCB",11-05-2024 06:00:00,25.376776,86.471523,CO,43,101,63
India,Bihar,Muzaffarpur,"Buddha Colony, Muzaffarpur - BSPCB",11-05-2024 06:00:00,26.11442,85.39813,PM2.5,46,108,71
India,Bihar,Muzaffarpur,"Buddha Colony, Muzaffarpur - BSPCB",11-05-2024 06:00:00,26.11442,85.39813,NO2,8,24,14
India,Bihar,Muzaffarpur,"Buddha Colony, Muzaffarpur - BSPCB",11-05-2024 06:00:00,26.11442,85.39813,CO,20,44,31
India,Bihar,Muzaffarpur,"MIT-Daudpur Kothi, Muzaffarpur - BSPCB",11-05-2024 06:00:00,26.1403345,85.3650192,SO2,7,7,7
India,Bihar,Muzaffarpur,"MIT-Daudpur Kothi, Muzaffarpur - BSPCB",11-05-2024 06:00:00,26.1403345,85.3650192,CO,14,110,37
India,Bihar,Muzaffarpur,"MIT-Daudpur Kothi, Muzaffarpur - BSPCB",11-05-2024 06:00:00,26.1403345,85.3650192,OZONE,8,32,15
India,Bihar,Muzaffarpur,"Muzaffarpur Collectorate, Muzaffarpur - BSPCB",11-05-2024 06:00:00,26.1209,85.3647,OZONE,43,88,47
India,Bihar,Patna,"DRM Office Danapur, Patna - BSPCB",11-05-2024 06:00:00,25.586562,85.043586,PM10,47,107,82
India,Bihar,Patna,"Muradpur, Patna - BSPCB",11-05-2024 06:00:00,25.619651,85.147382,PM10,117,187,155
India,Bihar,Patna,"Muradpur, Patna - BSPCB",11-05-2024 06:00:00,25.619651,85.147382,NO2,4,71,36
India,Bihar,Patna,"Rajbansi Nagar, Patna - BSPCB",11-05-2024 06:00:00,25.599486,85.113666,PM10,73,126,102
India,Bihar,Patna,"Samanpura, Patna - BSPCB",11-05-2024 06:00:00,25.596727,85.085624,OZONE,30,139,48
India,Bihar,Rajgir,"Dangi Tola, Rajgir - BSPCB",11-05-2024 06:00:00,25.03280,85.41948,NO2,16,20,18
India,Bihar,Saharsa,"Police Line, Saharsa - BSPCB",11-05-2024 06:00:00,25.892357,86.590325,PM10,21,157,65
India,Bihar,Saharsa,"Police Line, Saharsa - BSPCB",11-05-2024 06:00:00,25.892357,86.590325,SO2,16,17,16
India,Bihar,Saharsa,"Police Line, Saharsa - BSPCB",11-05-2024 06:00:00,25.892357,86.590325,CO,54,55,54
India,Bihar,Samastipur,"DM Office_Kasipur, Samastipur - BSPCB",11-05-2024 06:00:00,25.859655,85.77944,PM10,71,217,117
India,Bihar,Samastipur,"DM Office_Kasipur, Samastipur - BSPCB",11-05-2024 06:00:00,25.859655,85.77944,CO,14,122,49
India,Bihar,Siwan,"Chitragupta Nagar, Siwan - BSPCB",11-05-2024 06:00:00,26.2271665,84.3570427,PM2.5,NA,NA,NA
India,Bihar,Siwan,"Chitragupta Nagar, Siwan - BSPCB",11-05-2024 06:00:00,26.2271665,84.3570427,NH3,1,3,2
India,Chandigarh,Chandigarh,"Sector 22, Chandigarh - CPCC",11-05-2024 06:00:00,30.735567,76.775714,NO2,11,57,28
India,Chandigarh,Chandigarh,"Sector 22, Chandigarh - CPCC",11-05-2024 06:00:00,30.735567,76.775714,OZONE,89,266,104
India,Chandigarh,Chandigarh,"Sector-25, Chandigarh - CPCC",11-05-2024 06:00:00,30.751462,76.762879,PM2.5,96,307,164
India,Chandigarh,Chandigarh,"Sector-25, Chandigarh - CPCC",11-05-2024 06:00:00,30.751462,76.762879,PM10,118,500,208
India,Chandigarh,Chandigarh,"Sector-25, Chandigarh - CPCC",11-05-2024 06:00:00,30.751462,76.762879,NH3,10,18,12
India,Chandigarh,Chandigarh,"Sector-53, Chandigarh - CPCC",11-05-2024 06:00:00,30.719859,76.738637,OZONE,36,77,40
India,Chhattisgarh,Bhilai,"32Bungalows, Bhilai - CECB",11-05-2024 06:00:00,21.194815,81.314770,PM10,31,125,59
India,Chhattisgarh,Bhilai,"32Bungalows, Bhilai - CECB",11-05-2024 06:00:00,21.194815,81.314770,NO2,17,28,23
India,Chhattisgarh,Bhilai,"Civic Center, Bhilai - Bhilai Steel Plant",11-05-2024 06:00:00,21.185571,81.343175,PM10,19,93,42
India,Chhattisgarh,Bhilai,"Civic Center, Bhilai - Bhilai Steel Plant",11-05-2024 06:00:00,21.185571,81.343175,SO2,8,11,10
India,Chhattisgarh,Bhilai,"Hathkhoj, Bhilai - CECB",11-05-2024 06:00:00,21.224231,81.408350,CO,13,46,26
India,Chhattisgarh,Chhal,"Nawapara SECL Colony, Chhal - CECB",11-05-2024 06:00:00,22.118125,83.140608,NO2,12,33,21
India,Chhattisgarh,Chhal,"Nawapara SECL Colony, Chhal - CECB",11-05-2024 06:00:00,22.118125,83.140608,OZONE,23,106,41
India,Chhattisgarh,Korba,"Rampur, Korba - CECB",11-05-2024 06:00:00,22.368195,82.746431,PM2.5,15,37,26
India,Chhattisgarh,Korba,"Rampur, Korba - CECB",11-05-2024 06:00:00,22.368195,82.746431,CO,15,27,18
India,Chhattisgarh,Korba,"Rampur, Korba - CECB",11-05-2024 06:00:00,22.368195,82.746431,OZONE,9,38,9
India,Chhattisgarh,Korba,"Urja Nagar, Korba - CECB",11-05-2024 06:00:00,22.348441,82.549611,CO,24,125,62
India,Chhattisgarh,Kunjemura,"OP Jindal School, Kunjemura - CECB",11-05-2024 06:00:00,22.126650,83.483212,PM2.5,31,77,47
India,Chhattisgarh,Milupara,"Govt. Higher Secondary School, Milupara - CECB",11-05-2024 06:00:00,22.1910172,83.5197009,NO2,12,82,42
India,Chhattisgarh,Raipur,"Bhatagaon New ISBT, Raipur - CECB",11-05-2024 06:00:00,21.219665,81.630094,PM10,19,108,48
India,Chhattisgarh,Raipur,"Bhatagaon New ISBT, Raipur - CECB",11-05-2024 06:00:00,21.219665,81.630094,CO,13,39,32
India,Chhattisgarh,Raipur,"Bhatagaon New ISBT, Raipur - CECB",11-05-2024 06:00:00,21.219665,81.630094,OZONE,3,23,4
India,Chhattisgarh,Tumidih,"OP Jindal Industrial Park, Tumidih - CECB",11-05-2024 06:00:00,22.06631475,83.33820077,NH3,1,2,1
India,Chhattisgarh,Tumidih,"OP Jindal Industrial Park, Tumidih - CECB",11-05-2024 06:00:00,22.06631475,83.33820077,CO,17,70,46
India,Delhi,Delhi,"Alipur, Delhi - DPCC",11-05-2024 06:00:00,28.815329,77.153010,NO2,14,28,21
India,Delhi,Delhi,"Alipur, Delhi - DPCC",11-05-2024 06:00:00,28.815329,77.153010,OZONE,48,221,76
India,Delhi,Delhi,"Anand Vihar, Delhi - DPCC",11-05-2024 06:00:00,28.647622,77.3158090,OZONE,5,127,32
India,Delhi,Delhi,"Aya Nagar, Delhi - IMD",11-05-2024 06:00:00,28.4706914,77.1099364,NO2,NA,NA,NA
India,Delhi,Delhi,"Bawana, Delhi - DPCC",11-05-2024 06:00:00,28.776200,77.051074,NO2,13,48,27
India,Delhi,Delhi,"Bawana, Delhi - DPCC",11-05-2024 06:00:00,28.776200,77.051074,SO2,6,22,13
India,Delhi,Delhi,"Burari Crossing, Delhi - IMD",11-05-2024 06:00:00,28.7256504,77.2011573,NO2,9,11,10
India,Delhi,Delhi,"CRRI Mathura Road, Delhi - IMD",11-05-2024 06:00:00,28.5512005,77.2735737,PM2.5,43,248,129
India,Delhi,Delhi,"CRRI Mathura Road, Delhi - IMD",11-05-2024 06:00:00,28.5512005,77.2735737,NO2,3,12,5
India,Delhi,Delhi,"CRRI Mathura Road, Delhi - IMD",11-05-2024 06:00:00,28.5512005,77.2735737,CO,8,16,11
India,Delhi,Delhi,"Chandni Chowk, Delhi - IITM",11-05-2024 06:00:00,28.656756,77.227234,SO2,2,39,10
India,Delhi,Delhi,"DTU, Delhi - CPCB",11-05-2024 06:00:00,28.7500499,77.1112615,PM10,25,500,228
India,Delhi,Delhi,"DTU, Delhi - CPCB",11-05-2024 06:00:00,28.7500499,77.1112615,NO2,6,24,14
India,Delhi,Delhi,"DTU, Delhi - CPCB",11-05-2024 06:00:00,28.7500499,77.1112615,OZONE,36,262,116
India,Delhi,Delhi,"Dr. Karni Singh Shooting Range, Delhi - DPCC",11-05-2024 06:00:00,28.498571,77.264840,PM2.5,22,303,115
India,Delhi,Delhi,"Dwarka-Sector 8, Delhi - DPCC ",11-05-2024 06:00:00,28.5710274,77.0719006,PM10,78,500,232
India,Delhi,Delhi,"Dwarka-Sector 8, Delhi - DPCC ",11-05-2024 06:00:00,28.5710274,77.0719006,NO2,1,62,26
India,Delhi,Delhi,"IGI Airport (T3), Delhi - IMD",11-05-2024 06:00:00,28.5627763,77.1180053,CO,30,46,33
India,Delhi,Delhi,"IGI Airport (T3), Delhi - IMD",11-05-2024 06:00:00,28.5627763,77.1180053,OZONE,10,58,24
India,Delhi,Delhi,"IHBAS, Dilshad Garden, Delhi - CPCB",11-05-2024 06:00:00,28.6811736,77.3025234,PM2.5,NA,NA,NA
India,Delhi,Delhi,"IHBAS, Dilshad Garden, Delhi - CPCB",11-05-2024 06:00:00,28.6811736,77.3025234,PM10,NA,NA,NA
India,Delhi,Delhi,"IHBAS, Dilshad Garden, Delhi - CPCB",11-05-2024 06:00:00,28.6811736,77.3025234,NO2,NA,NA,NA
India,Delhi,Delhi,"IHBAS, Dilshad Garden, Delhi - CPCB",11-05-2024 06:00:00,28.6811736,77.3025234,NH3,NA,NA,NA
India,Delhi,Delhi,"IHBAS, Dilshad Garden, Delhi - CPCB",11-05-2024 06:00:00,28.6811736,77.3025234,CO,NA,NA,NA
India,Delhi,Delhi,"Jahangirpuri, Delhi - DPCC",11-05-2024 06:00:00,28.732820,77.170633,CO,36,105,49
India,Delhi,Delhi,"Jawaharlal Nehru Stadium, Delhi - DPCC",11-05-2024 06:00:00,28.580280,77.233829,PM10,25,287,143
India,Delhi,Delhi,"Jawaharlal Nehru Stadium, Delhi - DPCC",11-05-2024 06:00:00,28.580280,77.233829,NO2,27,118,59
India,Delhi,Delhi,"Lodhi Road, Delhi - IITM",11-05-2024 06:00:00,28.588333,77.221667,PM10,56,500,132
India,Delhi,Delhi,"Lodhi Road, Delhi - IMD",11-05-2024 06:00:00,28.5918245,77.2273074,OZONE,28,65,47
India,Delhi,Delhi,"Major Dhyan Chand National Stadium, Delhi - DPCC",11-05-2024 06:00:00,28.611281,77.237738,NH3,9,11,10
India,Delhi,Delhi,"Mundka, Delhi - DPCC",11-05-2024 06:00:00,28.684678,77.076574,PM10,50,451,186
India,Delhi,Delhi,"Mundka, Delhi - DPCC",11-05-2024 06:00:00,28.684678,77.076574,NO2,13,61,36
India,Delhi,Delhi,"NSIT Dwarka, Delhi - CPCB",11-05-2024 06:00:00,28.60909,77.0325413,PM10,NA,NA,NA
India,Delhi,Delhi,"Najafgarh, Delhi - DPCC",11-05-2024 06:00:00,28.570173,76.933762,SO2,10,19,13
India,Delhi,Delhi,"Najafgarh, Delhi - DPCC",11-05-2024 06:00:00,28.570173,76.933762,CO,36,52,36
India,Delhi,Delhi,"Nehru Nagar, Delhi - DPCC",11-05-2024 06:00:00,28.567890,77.250515,PM2.5,22,279,135
India,Delhi,Delhi,"Nehru Nagar, Delhi - DPCC",11-05-2024 06:00:00,28.567890,77.250515,PM10,30,271,154
India,Delhi,Delhi,"Okhla Phase-2, Delhi - DPCC",11-05-2024 06:00:00,28.530785,77.271255,PM10,49,290,164
India,Delhi,Delhi,"Okhla Phase-2, Delhi - DPCC",11-05-2024 06:00:00,28.530785,77.271255,CO,54,102,67
India,Delhi,Delhi,"Patparganj, Delhi - DPCC",11-05-2024 06:00:00,28.623763,77.287209,SO2,3,6,5
India,Delhi,Delhi,"Patparganj, Delhi - DPCC",11-05-2024 06:00:00,28.623763,77.287209,OZONE,24,136,58
India,Delhi,Delhi,"Punjabi Bagh, Delhi - DPCC",11-05-2024 06:00:00,28.674045,77.131023,NO2,29,51,42
India,Delhi,Delhi,"Punjabi Bagh, Delhi - DPCC",11-05-2024 06:00:00,28.674045,77.131023,NH3,3,4,4
India,Delhi,Delhi,"Punjabi Bagh, Delhi - DPCC",11-05-2024 06:00:00,28.674045,77.131023,CO,29,57,40
India,Delhi,Delhi,"Pusa, Delhi - DPCC",11-05-2024 06:00:00,28.639652,77.146275,PM10,61,500,189
India,Delhi,Delhi,"R K Puram, Delhi - DPCC",11-05-2024 06:00:00,28.563262,77.186937,SO2,22,47,33
India,Delhi,Delhi,"R K Puram, Delhi - DPCC",11-05-2024 06:00:00,28.563262,77.186937,OZONE,62,219,62
India,Delhi,Delhi,"Shadipur, Delhi - CPCB",11-05-2024 06:00:00,28.6514781,77.1473105,PM2.5,78,500,267
India,Delhi,Delhi,"Shadipur, Delhi - CPCB",11-05-2024 06:00:00,28.6514781,77.1473105,SO2,6,21,14
India,Delhi,Delhi,"Sirifort, Delhi - CPCB",11-05-2024 06:00:00,28.5504249,77.2159377,SO2,75,77,76
India,Delhi,Delhi,"Sonia Vihar, Delhi - DPCC",11-05-2024 06:00:00,28.710508,77.249485,SO2,5,38,18
India,Delhi,Delhi,"Sonia Vihar, Delhi - DPCC",11-05-2024 06:00:00,28.710508,77.249485,CO,36,88,45
India,Delhi,Delhi,"Sri Aurobindo Marg, Delhi - DPCC",11-05-2024 06:00:00,28.531346,77.190156,PM10,49,469,178
India,Delhi,Delhi,"Vivek Vihar, Delhi - DPCC",11-05-2024 06:00:00,28.672342,77.315260,PM2.5,103,292,139
India,Delhi,Delhi,"Vivek Vihar, Delhi - DPCC",11-05-2024 06:00:00,28.672342,77.315260,PM10,145,185,163
India,Delhi,Delhi,"Wazirpur, Delhi - DPCC",11-05-2024 06:00:00,28.699793,77.165453,PM10,72,500,220
India,Gujarat,Ahmedabad,"Chandkheda, Ahmedabad - IITM",11-05-2024 06:00:00,23.107969,72.574648,NH3,1,1,1
India,Gujarat,Ahmedabad,"Gyaspur, Ahmedabad - IITM",11-05-2024 06:00:00,22.977134,72.553024,PM10,55,164,98
India,Gujarat,Ahmedabad,"Gyaspur, Ahmedabad - IITM",11-05-2024 06:00:00,22.977134,72.553024,NO2,39,51,46
India,Gujarat,Ahmedabad,"Gyaspur, Ahmedabad - IITM",11-05-2024 06:00:00,22.977134,72.553024,CO,38,51,44
India,Gujarat,Ahmedabad,"Raikhad, Ahmedabad - IITM",11-05-2024 06:00:00,23.020509,72.579261,NO2,25,35,31
India,Gujarat,Ahmedabad,"Raikhad, Ahmedabad - IITM",11-05-2024 06:00:00,23.020509,72.579261,OZONE,8,86,13
India,Gujarat,Ahmedabad,"Rakhial, Ahmedabad - IITM",11-05-2024 06:00:00,23.016834,72.625775,OZONE,14,102,20
India,Gujarat,Ahmedabad,"SVPI Airport Hansol, Ahmedabad - IITM",11-05-2024 06:00:00,23.076793,72.627874,SO2,4,10,6
India,Gujarat,Ahmedabad,"Sardar Vallabhbhai Patel Stadium, Ahmedabad - IITM",11-05-2024 06:00:00,23.043070,72.562968,NO2,56,68,67
India,Gujarat,Ankleshwar,"GIDC, Ankleshwar - GPCB",11-05-2024 06:00:00,21.613267,73.010555,PM10,38,61,51
India,Gujarat,Gandhinagar,"Sector-10, Gandhinagar - GPCB",11-05-2024 06:00:00,23.221714,72.654328,PM2.5,28,48,38
India,Gujarat,Gandhinagar,"Sector-10, Gandhinagar - GPCB",11-05-2024 06:00:00,23.221714,72.654328,OZONE,8,45,19
India,Gujarat,Surat,"Science Center, Surat - SMC",11-05-2024 06:00:00,21.170046,72.795405,PM10,NA,NA,NA
India,Gujarat,Vapi,"Phase-1 GIDC, Vapi - GPCB",11-05-2024 06:00:00,20.362421,72.918013,PM2.5,NA,NA,NA
India,Haryana,Ambala,"Patti Mehar, Ambala - HSPCB",11-05-2024 06:00:00,30.379589,76.778328,CO,30,60,45
India,Haryana,Bahadurgarh,"Arya Nagar, Bahadurgarh - HSPCB",11-05-2024 06:00:00,28.6701,76.9254,NH3,8,10,9
India,Haryana,Ballabgarh,"Nathu Colony, Ballabgarh - HSPCB",11-05-2024 06:00:00,28.3419248,77.319699,NO2,7,13,12
India,Haryana,Bhiwani,"H.B. Colony, Bhiwani - HSPCB",11-05-2024 06:00:00,28.806223,76.141105,PM10,47,374,144
India,Haryana,Bhiwani,"H.B. Colony, Bhiwani - HSPCB",11-05-2024 06:00:00,28.806223,76.141105,SO2,1,86,14
India,Haryana,Charkhi Dadri,"Mini Secretariat, Charkhi Dadri - HSPCB",11-05-2024 06:00:00,28.593883,76.270653,NO2,14,24,18
India,Haryana,Charkhi Dadri,"Mini Secretariat, Charkhi Dadri - HSPCB",11-05-2024 06:00:00,28.593883,76.270653,SO2,5,139,26
India,Haryana,Dharuhera,"Municipal Corporation Office, Dharuhera -  HSPCB",11-05-2024 06:00:00,28.206800,76.799700,SO2,3,96,13
India,Haryana,Dharuhera,"Municipal Corporation Office, Dharuhera -  HSPCB",11-05-2024 06:00:00,28.206800,76.799700,CO,18,56,18
India,Haryana,Faridabad,"New Industrial Town, Faridabad - HSPCB",11-05-2024 06:00:00,28.39072,77.30059,PM2.5,204,500,450
India,Haryana,Faridabad,"New Industrial Town, Faridabad - HSPCB",11-05-2024 06:00:00,28.39072,77.30059,PM10,NA,NA,NA
India,Haryana,Faridabad,"Sector 30, Faridabad - HSPCB",11-05-2024 06:00:00,28.4417,77.3217,OZONE,57,62,61
India,Haryana,Fatehabad,"Huda Sector, Fatehabad - HSPCB",11-05-2024 06:00:00,29.503664,75.467934,NO2,NA,NA,NA
India,Haryana,Gurugram,"NISE Gwal Pahari, Gurugram - IMD",11-05-2024 06:00:00,28.422681,77.148944,CO,NA,NA,NA
India,Haryana,Gurugram,"Sector-51, Gurugram - HSPCB",11-05-2024 06:00:00,28.4227,77.0667,PM2.5,2,414,184
India,Haryana,Gurugram,"Sector-51, Gurugram - HSPCB",11-05-2024 06:00:00,28.4227,77.0667,OZONE,27,67,41
India,Haryana,Gurugram,"Teri Gram, Gurugram - HSPCB",11-05-2024 06:00:00,28.4275,77.1465,SO2,5,7,6
India,Haryana,Hisar,"Urban Estate-II, Hisar - HSPCB",11-05-2024 06:00:00,29.140560,75.744941,NO2,19,35,24
India,Haryana,Jind,"Police Lines, Jind - HSPCB",11-05-2024 06:00:00,29.307814,76.337619,NO2,NA,NA,NA
India,Haryana,Jind,"Police Lines, Jind - HSPCB",11-05-2024 06:00:00,29.307814,76.337619,SO2,NA,NA,NA
India,Haryana,Kaithal,"Rishi Nagar, Kaithal - HSPCB",11-05-2024 06:00:00,29.8006,76.4155,NH3,NA,NA,NA
India,Haryana,Karnal,"Sector-12, Karnal - HSPCB",11-05-2024 06:00:00,29.695300,77.002700,SO2,12,13,12
India,Haryana,Kurukshetra,"Sector-7, Kurukshetra - HSPCB",11-05-2024 06:00:00,29.966942,76.875879,PM2.5,36,385,95
India,Haryana,Kurukshetra,"Sector-7, Kurukshetra - HSPCB",11-05-2024 06:00:00,29.966942,76.875879,PM10,37,404,133
India,Haryana,Mandikhera,"General Hospital, Mandikhera - HSPCB",11-05-2024 06:00:00,27.9002,76.9938,NH3,13,19,18
India,Haryana,Narnaul,"Shastri Nagar, Narnaul - HSPCB",11-05-2024 06:00:00,28.060249,76.113115,NO2,14,75,49
India,Haryana,Narnaul,"Shastri Nagar, Narnaul - HSPCB",11-05-2024 06:00:00,28.060249,76.113115,OZONE,17,53,46
India,Haryana,Palwal,"Shyam Nagar, Palwal - HSPCB",11-05-2024 06:00:00,28.1485564,77.3320667,CO,23,36,25
India,Haryana,Palwal,"Shyam Nagar, Palwal - HSPCB",11-05-2024 06:00:00,28.1485564,77.3320667,OZONE,10,38,21
India,Haryana,Panchkula,"Sector-6, Panchkula - HSPCB ",11-05-2024 06:00:00,30.7057778,76.8531805555555,NO2,9,11,10
India,Haryana,Panipat,"Sector-18, Panipat - HSPCB",11-05-2024 06:00:00,29.497973,76.993331,PM2.5,NA,NA,NA
India,Haryana,Panipat,"Sector-18, Panipat - HSPCB",11-05-2024 06:00:00,29.497973,76.993331,CO,NA,NA,NA
India,Haryana,Sirsa,"F-Block, Sirsa - HSPCB",11-05-2024 06:00:00,29.536400,75.015800,PM10,39,418,150
India,Haryana,Sirsa,"F-Block, Sirsa - HSPCB",11-05-2024 06:00:00,29.536400,75.015800,NO2,9,18,10
India,Haryana,Sirsa,"F-Block, Sirsa - HSPCB",11-05-2024 06:00:00,29.536400,75.015800,CO,56,88,66
India,Haryana,Yamuna Nagar,"Gobind Pura, Yamuna Nagar - HSPCB",11-05-2024 06:00:00,30.1480566,77.2893471,PM2.5,NA,NA,NA
India,Himachal Pradesh,Baddi,"HIMUDA Complex Phase-1, Baddi - HPPCB",11-05-2024 06:00:00,30.943887,76.801991,PM2.5,40,304,114
India,Himachal Pradesh,Baddi,"HIMUDA Complex Phase-1, Baddi - HPPCB",11-05-2024 06:00:00,30.943887,76.801991,NO2,11,38,20
India,Jammu_and_Kashmir,Srinagar,"Rajbagh, Srinagar - JKSPCB",11-05-2024 06:00:00,34.066206,74.819820,PM2.5,28,46,36
India,Jammu_and_Kashmir,Srinagar,"Rajbagh, Srinagar - JKSPCB",11-05-2024 06:00:00,34.066206,74.819820,PM10,49,82,64
India,Jammu_and_Kashmir,Srinagar,"Rajbagh, Srinagar - JKSPCB",11-05-2024 06:00:00,34.066206,74.819820,OZONE,12,21,12
India,Jharkhand,Dhanbad,"Sardar Patel Nagar, Dhanbad - JSPCB",11-05-2024 06:00:00,23.80569,86.44268,CO,NA,NA,NA
India,Karnataka,Bengaluru,"Bapuji Nagar, Bengaluru - KSPCB",11-05-2024 06:00:00,12.951913,77.539784,PM2.5,60,155,85
India,Karnataka,Bengaluru,"Bapuji Nagar, Bengaluru - KSPCB",11-05-2024 06:00:00,12.951913,77.539784,NH3,1,1,1
India,Karnataka,Bengaluru,"Hebbal, Bengaluru - KSPCB",11-05-2024 06:00:00,13.029152,77.585901,PM2.5,13,94,56
India,Karnataka,Bengaluru,"Hebbal, Bengaluru - KSPCB",11-05-2024 06:00:00,13.029152,77.585901,SO2,18,27,23
India,Karnataka,Bengaluru,"Jayanagar 5th Block, Bengaluru - KSPCB",11-05-2024 06:00:00,12.920984,77.584908,NO2,11,37,16
India,Karnataka,Bengaluru,"Kasturi Nagar, Bengaluru - KSPCB",11-05-2024 06:00:00,13.003872,77.664217,NH3,3,4,4
India,Karnataka,Bengaluru,"Kasturi Nagar, Bengaluru - KSPCB",11-05-2024 06:00:00,13.003872,77.664217,SO2,10,10,10
India,Karnataka,Bengaluru,"Kasturi Nagar, Bengaluru - KSPCB",11-05-2024 06:00:00,13.003872,77.664217,OZONE,10,108,32
India,Karnataka,Bengaluru,"Peenya, Bengaluru - CPCB",11-05-2024 06:00:00,13.0270199,77.494094,NH3,3,4,3
India,Karnataka,Bengaluru,"Peenya, Bengaluru - CPCB",11-05-2024 06:00:00,13.0270199,77.494094,CO,30,51,33
India,Karnataka,Bengaluru,"Sanegurava Halli, Bengaluru - KSPCB",11-05-2024 06:00:00,12.990328,77.5431385,SO2,2,3,2
India,Karnataka,Bengaluru,"Shivapura_Peenya, Bengaluru - KSPCB",11-05-2024 06:00:00,13.0246342,77.5080115,NO2,15,16,15
India,Karnataka,Bengaluru,"Silk Board, Bengaluru - KSPCB",11-05-2024 06:00:00,12.917348,77.622813,PM2.5,26,258,78
India,Karnataka,Bengaluru,"Silk Board, Bengaluru - KSPCB",11-05-2024 06:00:00,12.917348,77.622813,PM10,37,206,94
India,Karnataka,Bidar,"Naubad, Bidar - KSPCB",11-05-2024 06:00:00,17.930306,77.482194,NO2,7,9,8
India,Karnataka,Bidar,"Naubad, Bidar - KSPCB",11-05-2024 06:00:00,17.930306,77.482194,NH3,2,3,3
India,Karnataka,Chikkamagaluru,"Kalyana Nagara, Chikkamagaluru - KSPCB",11-05-2024 06:00:00,13.328028,75.797056,SO2,NA,NA,NA
India,Karnataka,Davanagere,"Devaraj Urs Badavane, Davanagere - KSPCB",11-05-2024 06:00:00,14.475800,75.905200,PM2.5,18,51,32
India,Karnataka,Davanagere,"Devaraj Urs Badavane, Davanagere - KSPCB",11-05-2024 06:00:00,14.475800,75.905200,NO2,11,18,14
India,Karnataka,Dharwad,"Kalabhavan, Dharwad - KSPCB",11-05-2024 06:00:00,15.459706,75.008381,PM2.5,27,142,62
India,Karnataka,Dharwad,"Kalabhavan, Dharwad - KSPCB",11-05-2024 06:00:00,15.459706,75.008381,SO2,3,7,4
India,Karnataka,Hassan,"B.Katihalli, Hassan - KSPCB",11-05-2024 06:00:00,13.008556,76.125258,NH3,4,5,4
India,Karnataka,Haveri,"Ashwini Nagar, Haveri - KSPCB",11-05-2024 06:00:00,14.791800,75.389600,SO2,14,14,14
India,Karnataka,Hubballi,"Deshpande Nagar, Hubballi - KSPCB",11-05-2024 06:00:00,15.351773,75.140726,PM2.5,16,47,30
India,Karnataka,Hubballi,"Deshpande Nagar, Hubballi - KSPCB",11-05-2024 06:00:00,15.351773,75.140726,PM10,51,77,67
India,Karnataka,Hubballi,"Lingaraj Nagar, Hubballi - KSPCB",11-05-2024 06:00:00,15.3714823,75.1160168,SO2,1,20,3
India,Karnataka,Kalaburagi,"Mahatma Basaveswar Colony, Kalaburgi - KSPCB",11-05-2024 06:00:00,17.336318,76.847397,OZONE,5,31,11
India,Karnataka,Kolar,"Tamaka Ind. Area, Kolar - KSPCB",11-05-2024 06:00:00,13.1276288,78.1570122,NO2,19,42,24
India,Karnataka,Koppal,"Diwator Nagar, Koppal - KSPCB",11-05-2024 06:00:00,15.347630,76.181767,PM10,8,44,24
India,Karnataka,Koppal,"Diwator Nagar, Koppal - KSPCB",11-05-2024 06:00:00,15.347630,76.181767,NH3,5,9,7
India,Karnataka,Koppal,"Diwator Nagar, Koppal - KSPCB",11-05-2024 06:00:00,15.347630,76.181767,SO2,28,30,28
India,Karnataka,Koppal,"Diwator Nagar, Koppal - KSPCB",11-05-2024 06:00:00,15.347630,76.181767,CO,56,57,56
India,Karnataka,Madikeri,"Stuart Hill, Madikeri - KSPCB",11-05-2024 06:00:00,12.415911,75.735050,PM2.5,8,54,26
India,Karnataka,Madikeri,"Stuart Hill, Madikeri - KSPCB",11-05-2024 06:00:00,12.415911,75.735050,SO2,4,4,4
India,Karnataka,Mangalore,"Kadri, Mangalore - KSPCB",11-05-2024 06:00:00,12.889250,74.853000,PM10,44,53,48
India,Karnataka,Mangalore,"Kadri, Mangalore - KSPCB",11-05-2024 06:00:00,12.889250,74.853000,NH3,2,2,2
India,Karnataka,Mangalore,"Kadri, Mangalore - KSPCB",11-05-2024 06:00:00,12.889250,74.853000,CO,36,40,39
India,Karnataka,Raichur,"Haji Colony, Raichur - KSPCB",11-05-2024 06:00:00,16.208139,77.348417,NO2,23,49,36
India,Karnataka,Ramanagara,"Vijay Nagar, Ramanagara - KSPCB",11-05-2024 06:00:00,12.733409,77.298051,PM2.5,12,56,36
India,Karnataka,Ramanagara,"Vijay Nagar, Ramanagara - KSPCB",11-05-2024 06:00:00,12.733409,77.298051,SO2,27,62,50
India,Karnataka,Shivamogga,"Vinoba Nagara, Shivamogga - KSPCB",11-05-2024 06:00:00,13.940000,75.555917,NO2,9,17,12
India,Karnataka,Shivamogga,"Vinoba Nagara, Shivamogga - KSPCB",11-05-2024 06:00:00,13.940000,75.555917,NH3,2,4,3
India,Karnataka,Shivamogga,"Vinoba Nagara, Shivamogga - KSPCB",11-05-2024 06:00:00,13.940000,75.555917,OZONE,15,67,29
India,Karnataka,Tumakuru,"Thimmalapura, Tumakuru - KSPCB",11-05-2024 06:00:00,13.377516,77.099072,PM10,105,131,115
India,Karnataka,Tumakuru,"Thimmalapura, Tumakuru - KSPCB",11-05-2024 06:00:00,13.377516,77.099072,CO,30,35,32
India,Karnataka,Udupi,"Brahmagiri, Udupi - KSPCB",11-05-2024 06:00:00,13.34194444,74.74694444,NO2,28,30,29
India,Karnataka,Udupi,"Brahmagiri, Udupi - KSPCB",11-05-2024 06:00:00,13.34194444,74.74694444,NH3,1,1,1
India,Karnataka,Udupi,"Brahmagiri, Udupi - KSPCB",11-05-2024 06:00:00,13.34194444,74.74694444,SO2,10,12,11
India,Karnataka,Vijayapura,"Ibrahimpur, Vijayapura - KSPCB",11-05-2024 06:00:00,16.802639,75.722694,NO2,17,19,19
India,Karnataka,Yadgir,"Collector Office, Yadgir - KSPCB",11-05-2024 06:00:00,16.7602,77.1428,CO,14,24,16
India,Kerala,Eloor,"Udyogamandal, Eloor - Kerala PCB",11-05-2024 06:00:00,10.073232,76.302765,NH3,1,1,1
India,Kerala,Kannur,"Thavakkara, Kannur - Kerala PCB",11-05-2024 06:00:00,11.875000,75.373200,PM10,63,75,70
India,Kerala,Kollam,"Polayathode, Kollam - Kerala PCB",11-05-2024 06:00:00,8.8787,76.6073,PM2.5,38,201,102
India,Kerala,Kollam,"Polayathode, Kollam - Kerala PCB",11-05-2024 06:00:00,8.8787,76.6073,NO2,8,9,8
India,Kerala,Thiruvananthapuram,"Plammoodu, Thiruvananthapuram - Kerala PCB",11-05-2024 06:00:00,8.5149093,76.9435879,PM10,NA,NA,NA
India,Kerala,Thiruvananthapuram,"Plammoodu, Thiruvananthapuram - Kerala PCB",11-05-2024 06:00:00,8.5149093,76.9435879,NO2,NA,NA,NA
India,Kerala,Thrissur,"Corporation Ground, Thrissur - Kerala PCB",11-05-2024 06:00:00,10.532400,76.215900,OZONE,27,31,30
India,Madhya Pradesh,Bhopal,"Idgah Hills, Bhopal - MPPCB",11-05-2024 06:00:00,23.264759,77.381568,NO2,13,36,23
India,Madhya Pradesh,Bhopal,"Paryavaran Parisar, Bhopal - MPPCB",11-05-2024 06:00:00,23.210494,77.425409,NO2,11,39,18
India,Madhya Pradesh,Bhopal,"T T Nagar, Bhopal - MPPCB",11-05-2024 06:00:00,23.233584,77.400574,PM10,33,177,90
India,Madhya Pradesh,Gwalior,"City Center, Gwalior - MPPCB",11-05-2024 06:00:00,26.203442,78.193251,NO2,8,23,12
India,Madhya Pradesh,Gwalior,"City Center, Gwalior - MPPCB",11-05-2024 06:00:00,26.203442,78.193251,SO2,2,25,14
India,Madhya Pradesh,Gwalior,"Maharaj Bada, Gwalior - MPPCB",11-05-2024 06:00:00,26.200388,78.147714,OZONE,77,214,107
India,Madhya Pradesh,Gwalior,"Phool Bagh, Gwalior - Mondelez Ind. Food",11-05-2024 06:00:00,26.210536,78.171,CO,62,83,71
India,Madhya Pradesh,Indore,"Chhoti Gwaltoli, Indore - MPPCB",11-05-2024 06:00:00,22.4310,75.5213,PM2.5,33,60,44
India,Madhya Pradesh,Indore,"Chhoti Gwaltoli, Indore - MPPCB",11-05-2024 06:00:00,22.4310,75.5213,NO2,44,62,52
India,Madhya Pradesh,Indore,"Chhoti Gwaltoli, Indore - MPPCB",11-05-2024 06:00:00,22.4310,75.5213,OZONE,38,96,69
India,Madhya Pradesh,Indore,"Maguda Nagar, Indore - IMC",11-05-2024 06:00:00,22.7524,75.8872,CO,NA,NA,NA
India,Madhya Pradesh,Indore,"Maguda Nagar, Indore - IMC",11-05-2024 06:00:00,22.7524,75.8872,OZONE,NA,NA,NA
India,Madhya Pradesh,Indore,"Residency Area, Indore - IMC",11-05-2024 06:00:00,22.7084,75.8815,OZONE,10,23,12
India,Madhya Pradesh,Jabalpur,"Govindh Bhavan Colony, Jabalpur - JMC",11-05-2024 06:00:00,23.163174,79.973061,PM10,34,88,61
India,Madhya Pradesh,Jabalpur,"Govindh Bhavan Colony, Jabalpur - JMC",11-05-2024 06:00:00,23.163174,79.973061,NH3,14,23,17
India,Madhya Pradesh,Jabalpur,"Marhatal, Jabalpur - MPPCB",11-05-2024 06:00:00,23.168606,79.932247,PM2.5,20,98,48
India,Madhya Pradesh,Jabalpur,"Marhatal, Jabalpur - MPPCB",11-05-2024 06:00:00,23.168606,79.932247,PM10,26,185,96
India,Madhya Pradesh,Jabalpur,"Marhatal, Jabalpur - MPPCB",11-05-2024 06:00:00,23.168606,79.932247,SO2,2,42,11
India,Madhya Pradesh,Jabalpur,"Suhagi, Jabalpur - JMC",11-05-2024 06:00:00,23.218135,79.957770,NO2,38,46,42
India,Madhya Pradesh,Jabalpur,"Suhagi, Jabalpur - JMC",11-05-2024 06:00:00,23.218135,79.957770,OZONE,6,139,16
India,Madhya Pradesh,Katni,"Gole Bazar, Katni - MPPCB",11-05-2024 06:00:00,23.50016,80.23284,PM10,43,171,96
India,Madhya Pradesh,Katni,"Gole Bazar, Katni - MPPCB",11-05-2024 06:00:00,23.50016,80.23284,NO2,35,139,74
India,Madhya Pradesh,Mandideep,"Sector-D Industrial Area, Mandideep - MPPCB",11-05-2024 06:00:00,23.108440,77.511428,PM10,36,406,92
India,Madhya Pradesh,Pithampur,"Sector-2 Industrial Area, Pithampur - MPPCB",11-05-2024 06:00:00,22.624758,75.675238,NH3,1,3,3
India,Madhya Pradesh,Pithampur,"Sector-2 Industrial Area, Pithampur - MPPCB",11-05-2024 06:00:00,22.624758,75.675238,CO,38,48,45
India,Madhya Pradesh,Ratlam,"Shasthri Nagar, Ratlam - IPCA Lab",11-05-2024 06:00:00,23.331731,75.045981,PM2.5,7,69,41
India,Madhya Pradesh,Sagar,"Civil Lines, Sagar - MPPCB",11-05-2024 06:00:00,23.838586,78.759431,NO2,8,23,13
India,Madhya Pradesh,Satna,"Bandhavgar Colony, Satna - Birla Cement",11-05-2024 06:00:00,24.58434363,80.8549414,SO2,3,3,3
India,Madhya Pradesh,Singrauli,"Suryakiran Bhawan NCL, Singrauli - MPPCB",11-05-2024 06:00:00,24.108970,82.645580,CO,28,114,95
India,Maharashtra,Ahmednagar,"Tarakpur, Ahmednagar - MPCB",11-05-2024 06:00:00,19.10122,74.73339,NH3,NA,NA,NA
India,Maharashtra,Ahmednagar,"Tarakpur, Ahmednagar - MPCB",11-05-2024 06:00:00,19.10122,74.73339,SO2,NA,NA,NA
India,Maharashtra,Ahmednagar,"Tarakpur, Ahmednagar - MPCB",11-05-2024 06:00:00,19.10122,74.73339,CO,NA,NA,NA
India,Maharashtra,Akola,"Ramdaspeth, Akola - MPCB",11-05-2024 06:00:00,20.719516,77.000253,SO2,9,24,12
India,Maharashtra,Amravati,"Shivneri Colony, Amravati - MPCB",11-05-2024 06:00:00,20.9402359,77.7895248,CO,10,62,20
India,Maharashtra,Amravati,"Shri Shivaji Science College, Amaravati - MPCB",11-05-2024 06:00:00,20.939198,77.765701,NO2,5,96,17
India,Maharashtra,Amravati,"Shri Shivaji Science College, Amaravati - MPCB",11-05-2024 06:00:00,20.939198,77.765701,OZONE,20,103,60
India,Maharashtra,Aurangabad,"MIDC Chilkalthana, Aurangabad - MPCB",11-05-2024 06:00:00,19.875620,75.387310,CO,36,72,46
India,Maharashtra,Aurangabad,"Rachnakar Colony, Aurangabad - MPCB",11-05-2024 06:00:00,19.863756,75.321188,PM2.5,75,183,108
India,Maharashtra,Belapur,"CBD Belapur, Belapur - MPCB",11-05-2024 06:00:00,19.0243902,73.0406721,PM10,43,89,68
India,Maharashtra,Bhiwandi,"Gokul Nagar, Bhiwandi - MPCB",11-05-2024 06:00:00,19.309073,73.057223,PM2.5,56,91,71
India,Maharashtra,Bhiwandi,"Gokul Nagar, Bhiwandi - MPCB",11-05-2024 06:00:00,19.309073,73.057223,NH3,1,4,2
India,Maharashtra,Boisar,"Khaira, Boisar - MPCB",11-05-2024 06:00:00,19.786089,72.757971,NO2,12,33,24
India,Maharashtra,Boisar,"Khaira, Boisar - MPCB",11-05-2024 06:00:00,19.786089,72.757971,SO2,1,14,7
India,Maharashtra,Boisar,"Khaira, Boisar - MPCB",11-05-2024 06:00:00,19.786089,72.757971,CO,12,32,25
India,Maharashtra,Chandrapur,"Chauhan Colony, Chandrapur - MPCB",11-05-2024 06:00:00,19.962900,79.298714,PM2.5,20,102,52
India,Maharashtra,Chandrapur,"Chauhan Colony, Chandrapur - MPCB",11-05-2024 06:00:00,19.962900,79.298714,OZONE,11,11,11
India,Maharashtra,Dhule,"Deopur, Dhule - MPCB",11-05-2024 06:00:00,20.918946,74.776388,PM10,80,117,98
India,Maharashtra,Jalgaon,"Prabhat Colony, Jalgaon - MPCB",11-05-2024 06:00:00,21.001264,75.565602,NH3,1,25,9
India,Maharashtra,Jalna,"Old MIDC, Jalna - MPCB",11-05-2024 06:00:00,19.854616,75.905894,NO2,6,16,11
India,Maharashtra,Jalna,"Old MIDC, Jalna - MPCB",11-05-2024 06:00:00,19.854616,75.905894,OZONE,5,126,23
India,Maharashtra,Kalyan,"Khadakpada, Kalyan - MPCB",11-05-2024 06:00:00,19.25292,73.142019,CO,14,20,18
India,Maharashtra,Kolhapur,"Shivaji University, Kolhapur - MPCB",11-05-2024 06:00:00,16.6870449,74.2505872,PM10,81,375,127
India,Maharashtra,Malegaon,"Mahesh Nagar, Malegaon - MPCB",11-05-2024 06:00:00,20.555712,74.529236,NO2,5,19,11
India,Maharashtra,Mira-Bhayandar,"Bhayandar West, Mira-Bhayandar - MPCB",11-05-2024 06:00:00,19.296481,72.840923,PM2.5,23,59,38
India,Maharashtra,Mira-Bhayandar,"Bhayandar West, Mira-Bhayandar - MPCB",11-05-2024 06:00:00,19.296481,72.840923,SO2,2,4,3
India,Maharashtra,Mira-Bhayandar,"Bhayandar West, Mira-Bhayandar - MPCB",11-05-2024 06:00:00,19.296481,72.840923,OZONE,1,32,4
India,Maharashtra,Mumbai,"Bandra Kurla Complex, Mumbai - MPCB",11-05-2024 06:00:00,19.065931,72.862131,OZONE,5,51,17
India,Maharashtra,Mumbai,"Borivali East, Mumbai - MPCB",11-05-2024 06:00:00,19.2243333,72.8658113,PM10,21,80,42
India,Maharashtra,Mumbai,"Borivali East, Mumbai - MPCB",11-05-2024 06:00:00,19.2243333,72.8658113,CO,25,38,32
India,Maharashtra,Mumbai,"Borivali East, Mumbai - MPCB",11-05-2024 06:00:00,19.2243333,72.8658113,OZONE,15,16,15
India,Maharashtra,Mumbai,"Byculla, Mumbai - BMC",11-05-2024 06:00:00,18.9767,72.8380,NH3,2,3,2
India,Maharashtra,Mumbai,"Byculla, Mumbai - BMC",11-05-2024 06:00:00,18.9767,72.8380,OZONE,10,44,23
India,Maharashtra,Mumbai,"Chakala-Andheri East, Mumbai - IITM",11-05-2024 06:00:00,19.11074,72.86084,PM2.5,18,162,73
India,Maharashtra,Mumbai,"Chakala-Andheri East, Mumbai - IITM",11-05-2024 06:00:00,19.11074,72.86084,PM10,NA,NA,NA
India,Maharashtra,Mumbai,"Chakala-Andheri East, Mumbai - IITM",11-05-2024 06:00:00,19.11074,72.86084,NO2,NA,NA,NA
India,Maharashtra,Mumbai,"Chakala-Andheri East, Mumbai - IITM",11-05-2024 06:00:00,19.11074,72.86084,OZONE,NA,NA,NA
India,Maharashtra,Mumbai,"Chembur, Mumbai - MPCB",11-05-2024 06:00:00,19.0364585,72.8954371,PM2.5,30,52,39
India,Maharashtra,Mumbai,"Chembur, Mumbai - MPCB",11-05-2024 06:00:00,19.0364585,72.8954371,SO2,1,1,1
India,Maharashtra,Mumbai,"Chhatrapati Shivaji Intl. Airport (T2), Mumbai - MPCB",11-05-2024 06:00:00,19.10078,72.87462,NO2,NA,NA,NA
India,Maharashtra,Mumbai,"Chhatrapati Shivaji Intl. Airport (T2), Mumbai - MPCB",11-05-2024 06:00:00,19.10078,72.87462,NH3,1,11,3
India,Maharashtra,Mumbai,"Deonar, Mumbai - IITM",11-05-2024 06:00:00,19.04946,72.9230,PM10,59,99,80
India,Maharashtra,Mumbai,"Ghatkopar, Mumbai - BMC",11-05-2024 06:00:00,19.083694,72.920967,PM10,24,48,34
India,Maharashtra,Mumbai,"Ghatkopar, Mumbai - BMC",11-05-2024 06:00:00,19.083694,72.920967,NH3,1,11,3
India,Maharashtra,Mumbai,"Ghatkopar, Mumbai - BMC",11-05-2024 06:00:00,19.083694,72.920967,SO2,1,2,1
India,Maharashtra,Mumbai,"Ghatkopar, Mumbai - BMC",11-05-2024 06:00:00,19.083694,72.920967,CO,3,14,9
India,Maharashtra,Mumbai,"Kandivali East, Mumbai - MPCB",11-05-2024 06:00:00,19.205800,72.868200,PM10,34,160,74
India,Maharashtra,Mumbai,"Kandivali East, Mumbai - MPCB",11-05-2024 06:00:00,19.205800,72.868200,NO2,18,50,33
India,Maharashtra,Mumbai,"Kandivali East, Mumbai - MPCB",11-05-2024 06:00:00,19.205800,72.868200,NH3,7,39,13
India,Maharashtra,Mumbai,"Kandivali East, Mumbai - MPCB",11-05-2024 06:00:00,19.205800,72.868200,SO2,8,9,8
India,Maharashtra,Mumbai,"Kandivali East, Mumbai - MPCB",11-05-2024 06:00:00,19.205800,72.868200,OZONE,29,31,30
India,Maharashtra,Mumbai,"Kandivali West, Mumbai - BMC",11-05-2024 06:00:00,19.215859,72.831718,PM10,NA,NA,NA
India,Maharashtra,Mumbai,"Kherwadi_Bandra East, Mumbai - MPCB",11-05-2024 06:00:00,19.0632143,72.8456324,PM10,38,78,59
India,Maharashtra,Mumbai,"Kherwadi_Bandra East, Mumbai - MPCB",11-05-2024 06:00:00,19.0632143,72.8456324,SO2,4,8,6
India,Maharashtra,Mumbai,"Kherwadi_Bandra East, Mumbai - MPCB",11-05-2024 06:00:00,19.0632143,72.8456324,CO,6,20,10
India,Maharashtra,Mumbai,"Khindipada-Bhandup West, Mumbai - IITM",11-05-2024 06:00:00,19.1653323,72.922099,PM10,16,64,38
India,Maharashtra,Mumbai,"Kurla, Mumbai - MPCB",11-05-2024 06:00:00,19.0863,72.8888,NO2,10,16,14
India,Maharashtra,Mumbai,"Kurla, Mumbai - MPCB",11-05-2024 06:00:00,19.0863,72.8888,CO,2,12,8
India,Maharashtra,Mumbai,"Kurla, Mumbai - MPCB",11-05-2024 06:00:00,19.0863,72.8888,OZONE,27,28,28
India,Maharashtra,Mumbai,"Mindspace-Malad West, Mumbai - MPCB",11-05-2024 06:00:00,19.1878657,72.8304069,PM2.5,15,86,53
India,Maharashtra,Mumbai,"Mindspace-Malad West, Mumbai - MPCB",11-05-2024 06:00:00,19.1878657,72.8304069,CO,6,32,26
India,Maharashtra,Mumbai,"Mulund West, Mumbai - MPCB",11-05-2024 06:00:00,19.1750,72.9419,NO2,15,16,15
India,Maharashtra,Mumbai,"Siddharth Nagar-Worli, Mumbai - IITM",11-05-2024 06:00:00,19.000083,72.813993,PM2.5,36,57,47
India,Maharashtra,Mumbai,"Sion, Mumbai - MPCB",11-05-2024 06:00:00,19.047000,72.874600,PM2.5,21,44,35
India,Maharashtra,Mumbai,"Sion, Mumbai - MPCB",11-05-2024 06:00:00,19.047000,72.874600,NO2,103,109,106
India,Maharashtra,Mumbai,"Sion, Mumbai - MPCB",11-05-2024 06:00:00,19.047000,72.874600,NH3,2,2,2
India,Maharashtra,Mumbai,"Sion, Mumbai - MPCB",11-05-2024 06:00:00,19.047000,72.874600,OZONE,78,109,96
India,Maharashtra,Mumbai,"Vasai West, Mumbai - MPCB",11-05-2024 06:00:00,19.383200,72.820400,NO2,23,28,26
India,Maharashtra,Mumbai,"Vasai West, Mumbai - MPCB",11-05-2024 06:00:00,19.383200,72.820400,OZONE,11,36,12
India,Maharashtra,Mumbai,"Worli, Mumbai - MPCB",11-05-2024 06:00:00,18.9936162,72.8128113,NO2,14,15,15
India,Maharashtra,Nagpur,"Ambazari, Nagpur - MPCB",11-05-2024 06:00:00,21.121801,79.04952,PM10,41,106,75
India,Maharashtra,Nagpur,"Ambazari, Nagpur - MPCB",11-05-2024 06:00:00,21.121801,79.04952,NO2,6,79,24
India,Maharashtra,Nagpur,"Mahal, Nagpur - MPCB",11-05-2024 06:00:00,21.14472,79.107595,NO2,7,54,25
India,Maharashtra,Nagpur,"Mahal, Nagpur - MPCB",11-05-2024 06:00:00,21.14472,79.107595,SO2,6,37,17
India,Maharashtra,Nagpur,"Opp GPO Civil Lines, Nagpur - MPCB",11-05-2024 06:00:00,21.152875,79.0517531,CO,12,108,28
India,Maharashtra,Nashik,"Gangapur Road, Nashik - MPCB",11-05-2024 06:00:00,20.0073285,73.7762427,SO2,2,10,6
India,Maharashtra,Nashik,"Hirawadi, Nashik - MPCB",11-05-2024 06:00:00,20.021503,73.813844,NO2,13,74,22
India,Maharashtra,Nashik,"MIDC Ambad, Nashik - MPCB",11-05-2024 06:00:00,19.950220,73.731480,PM2.5,NA,NA,NA
India,Maharashtra,Nashik,"Pandav Nagari, Nashik - MPCB",11-05-2024 06:00:00,19.9591346,73.7788008,CO,12,28,21
India,Maharashtra,Navi Mumbai,"Kopripada-Vashi, Navi Mumbai - MPCB",11-05-2024 06:00:00,19.090337,73.014232,CO,3,23,15
India,Maharashtra,Navi Mumbai,"Mahape, Navi Mumbai - MPCB",11-05-2024 06:00:00,19.1135051,73.008978,OZONE,44,58,48
India,Maharashtra,Navi Mumbai,"Nerul, Navi Mumbai - MPCB",11-05-2024 06:00:00,19.008751,73.016620,SO2,17,18,18
India,Maharashtra,Navi Mumbai,"Sanpada, Navi Mumbai - MPCB",11-05-2024 06:00:00,19.0575752,73.0151367,OZONE,2,32,4
India,Maharashtra,Navi Mumbai,"Sector-2E Kalamboli, Navi Mumbai - MPCB",11-05-2024 06:00:00,19.02579,73.10297,PM10,NA,NA,NA
India,Maharashtra,Navi Mumbai,"Sector-2E Kalamboli, Navi Mumbai - MPCB",11-05-2024 06:00:00,19.02579,73.10297,CO,NA,NA,NA
India,Maharashtra,Navi Mumbai,"Tondare-Taloja, Navi Mumbai - MPCB",11-05-2024 06:00:00,19.0630,73.1209,NH3,NA,NA,NA
India,Maharashtra,Parbhani,"Masoom Colony, Parbhani - MPCB",11-05-2024 06:00:00,19.265594,76.761463,SO2,6,9,8
India,Maharashtra,Parbhani,"Masoom Colony, Parbhani - MPCB",11-05-2024 06:00:00,19.265594,76.761463,CO,18,54,28
India,Maharashtra,Pimpri-Chinchwad,"Gavalinagar, Pimpri Chinchwad - MPCB",11-05-2024 06:00:00,18.63673,73.82487,NO2,NA,NA,NA
India,Maharashtra,Pimpri-Chinchwad,"Park Street Wakad, Pimpri Chinchwad - MPCB",11-05-2024 06:00:00,18.59051,73.77946,NO2,29,118,56
India,Maharashtra,Pimpri-Chinchwad,"Park Street Wakad, Pimpri Chinchwad - MPCB",11-05-2024 06:00:00,18.59051,73.77946,NH3,3,14,7
India,Maharashtra,Pimpri-Chinchwad,"Park Street Wakad, Pimpri Chinchwad - MPCB",11-05-2024 06:00:00,18.59051,73.77946,SO2,1,4,4
India,Maharashtra,Pimpri-Chinchwad,"Thergaon, Pimpri Chinchwad - MPCB",11-05-2024 06:00:00,18.616318,73.765797,NO2,NA,NA,NA
India,Maharashtra,Pimpri-Chinchwad,"Thergaon, Pimpri Chinchwad - MPCB",11-05-2024 06:00:00,18.616318,73.765797,NH3,NA,NA,NA
India,Maharashtra,Pimpri-Chinchwad,"Thergaon, Pimpri Chinchwad - MPCB",11-05-2024 06:00:00,18.616318,73.765797,SO2,NA,NA,NA
India,Maharashtra,Pune,"Alandi, Pune - IITM",11-05-2024 06:00:00,18.675076,73.892743,CO,32,75,44
India,Maharashtra,Pune,"Bhosari, Pune - IITM",11-05-2024 06:00:00,18.640051,73.848956,OZONE,1,128,4
India,Maharashtra,Pune,"Katraj Dairy, Pune - MPCB",11-05-2024 06:00:00,18.454450,73.854155,PM2.5,27,57,43
India,Maharashtra,Pune,"Katraj Dairy, Pune - MPCB",11-05-2024 06:00:00,18.454450,73.854155,NH3,1,6,2
India,Maharashtra,Pune,"Mhada Colony, Pune - IITM",11-05-2024 06:00:00,18.573040,73.927715,PM2.5,30,71,48
India,Maharashtra,Pune,"Revenue Colony-Shivajinagar, Pune - IITM",11-05-2024 06:00:00,18.530085,73.849598,OZONE,2,96,4
India,Maharashtra,Pune,"Savitribai Phule Pune University, Pune - MPCB",11-05-2024 06:00:00,18.547056,73.826908,NH3,NA,NA,NA
India,Maharashtra,Pune,"Transport Nagar-Nigdi, Pune - IITM",11-05-2024 06:00:00,18.664282,73.763966,NO2,6,28,14
India,Maharashtra,Sangli,"Vijay Nagar, Sangli - MPCB",11-05-2024 06:00:00, 16.5038,74.3623,PM2.5,26,52,39
India,Maharashtra,Solapur,"Dnyaneshwar Nagar, Solapur - MPCB",11-05-2024 06:00:00,17.6336264,75.9132495,OZONE,23,76,34
India,Maharashtra,Solapur,"Solapur, Solapur - MPCB",11-05-2024 06:00:00,17.6599188,75.9063906,PM2.5,44,91,68
India,Maharashtra,Thane,"Kasarvadavali, Thane - MPCB",11-05-2024 06:00:00,19.26777,72.97182,NO2,15,39,25
India,Maharashtra,Thane,"Kasarvadavali, Thane - MPCB",11-05-2024 06:00:00,19.26777,72.97182,SO2,NA,NA,NA
India,Maharashtra,Thane,"Pimpleshwar Mandir, Thane - MPCB",11-05-2024 06:00:00,19.192056,72.9585188,NH3,1,3,2
India,Maharashtra,Ulhasnagar,"Sidhi Vinayak Nagar, Ulhasnagar - MPCB",11-05-2024 06:00:00,19.235581,73.159121,SO2,8,10,9
India,Manipur,Imphal,"DM College of Science, Imphal - Manipur PCB",11-05-2024 06:00:00,24.8207389,93.9423085,NO2,NA,NA,NA
India,Meghalaya,Shillong,"Lumpyngngad, Shillong - Meghalaya PCB",11-05-2024 06:00:00,25.5586,91.8985,PM2.5,NA,NA,NA
India,Meghalaya,Shillong,"Lumpyngngad, Shillong - Meghalaya PCB",11-05-2024 06:00:00,25.5586,91.8985,PM10,NA,NA,NA
India,Meghalaya,Shillong,"Lumpyngngad, Shillong - Meghalaya PCB",11-05-2024 06:00:00,25.5586,91.8985,OZONE,2,2,2
India,Mizoram,Aizawl,"Sikulpuikawn, Aizawl - Mizoram PCB",11-05-2024 06:00:00,23.7176342,92.7192841,SO2,2,3,2
India,Nagaland,Kohima,"PWD Juction, Kohima - NPCB",11-05-2024 06:00:00,25.6635413,94.0989878,PM2.5,41,157,64
India,Nagaland,Kohima,"PWD Juction, Kohima - NPCB",11-05-2024 06:00:00,25.6635413,94.0989878,CO,10,20,13
India,Odisha,Angul,"Hakimapada, Angul - OSPCB",11-05-2024 06:00:00,20.832874,85.104082,CO,6,75,35
India,Odisha,Balasore,"Kalidaspur, Balasore - OSPCB",11-05-2024 06:00:00,21.51161,86.89088,SO2,14,18,15
India,Odisha,Barbil,"Forest Office, Barbil - OSPCB",11-05-2024 06:00:00,22.1166054,85.3945546,CO,17,68,39
India,Odisha,Barbil,"Forest Office, Barbil - OSPCB",11-05-2024 06:00:00,22.1166054,85.3945546,OZONE,4,181,39
India,Odisha,Baripada,"Meher Colony, Baripada - OSPCB",11-05-2024 06:00:00,21.941841,86.728318,PM2.5,10,37,21
India,Odisha,Baripada,"Meher Colony, Baripada - OSPCB",11-05-2024 06:00:00,21.941841,86.728318,NH3,3,5,4
India,Odisha,Baripada,"Meher Colony, Baripada - OSPCB",11-05-2024 06:00:00,21.941841,86.728318,CO,8,40,14
India,Odisha,Bhubaneswar,"Lingraj Mandir, Bhubaneswar - OSPCB",11-05-2024 06:00:00,20.240790,85.836784,PM2.5,15,57,31
India,Odisha,Bhubaneswar,"Lingraj Mandir, Bhubaneswar - OSPCB",11-05-2024 06:00:00,20.240790,85.836784,PM10,18,64,35
India,Odisha,Bileipada,"Tata Township, Bileipada - OSPCB",11-05-2024 06:00:00,22.06156703,85.47409613,PM10,73,138,94
India,Odisha,Bileipada,"Tata Township, Bileipada - OSPCB",11-05-2024 06:00:00,22.06156703,85.47409613,NH3,11,12,12
India,Odisha,Brajrajnagar,"GM Office, Brajrajnagar - OSPCB",11-05-2024 06:00:00,21.8004996,83.8396977,CO,88,94,89
India,Odisha,Brajrajnagar,"GM Office, Brajrajnagar - OSPCB",11-05-2024 06:00:00,21.8004996,83.8396977,OZONE,1,59,9
India,Odisha,Byasanagar,"Ferro Chrome Colony, Byasanagar - OSPCB",11-05-2024 06:00:00,20.94185,86.11510,NO2,8,37,17
India,Odisha,Keonjhar,"Jagamohanpur, Keonjhar - OSPCB",11-05-2024 06:00:00,21.643900,85.599355,CO,52,80,73
India,Odisha,Keonjhar,"Jagamohanpur, Keonjhar - OSPCB",11-05-2024 06:00:00,21.643900,85.599355,OZONE,14,14,14
India,Odisha,Rairangpur,"Divisional Forest Office, Rairangpur - OSPCB",11-05-2024 06:00:00,22.265816,86.174829,PM2.5,13,44,30
India,Odisha,Rourkela,"Raghunathpali, Rourkela - OSPCB",11-05-2024 06:00:00,22.220833,84.809444,NH3,2,5,4
India,Odisha,Rourkela,"Sector-2, Rourkela - OSPCB",11-05-2024 06:00:00,22.24500000,84.88111111,PM10,57,123,88
India,Odisha,Suakati,"OMC Colony, Suakati - OSPCB",11-05-2024 06:00:00,21.606865,85.510538,OZONE,16,81,26
India,Odisha,Talcher,"Talcher Coalfields,Talcher - OSPCB",11-05-2024 06:00:00,20.9360711,85.1707021,CO,29,95,43
India,Odisha,Tensa,"Barsua Iron Ore Mines, Tensa - OSPCB",11-05-2024 06:00:00,21.869985,85.167016,SO2,1,19,7
India,Puducherry,Puducherry,"Jawahar Nagar, Puducherry - PPCC",11-05-2024 06:00:00,11.9309,79.8027,SO2,1,14,7
India,Puducherry,Puducherry,"Jawahar Nagar, Puducherry - PPCC",11-05-2024 06:00:00,11.9309,79.8027,CO,14,38,23
India,Puducherry,Puducherry,"Jawahar Nagar, Puducherry - PPCC",11-05-2024 06:00:00,11.9309,79.8027,OZONE,14,63,42
India,Punjab,Bathinda,"Hardev Nagar, Bathinda - PPCB",11-05-2024 06:00:00,30.233011,74.907758,PM2.5,16,336,113
India,Punjab,Jalandhar,"Civil Line, Jalandhar - PPCB",11-05-2024 06:00:00,31.321907,75.578914,NO2,37,45,42
India,Punjab,Jalandhar,"Civil Line, Jalandhar - PPCB",11-05-2024 06:00:00,31.321907,75.578914,NH3,2,5,3
India,Punjab,Khanna,"Kalal Majra, Khanna - PPCB",11-05-2024 06:00:00,30.736056 ,76.209694,NO2,21,39,26
India,Punjab,Ludhiana,"Punjab Agricultural University, Ludhiana - PPCB",11-05-2024 06:00:00,30.9028,75.8086,PM2.5,27,323,140
India,Punjab,Ludhiana,"Punjab Agricultural University, Ludhiana - PPCB",11-05-2024 06:00:00,30.9028,75.8086,PM10,115,279,148
India,Punjab,Ludhiana,"Punjab Agricultural University, Ludhiana - PPCB",11-05-2024 06:00:00,30.9028,75.8086,CO,32,115,77
India,Punjab,Mandi Gobindgarh,"RIMT University, Mandi Gobindgarh - PPCB",11-05-2024 06:00:00,30.649961,76.331442,NO2,16,28,27
India,Punjab,Rupnagar,"Ratanpura, Rupnagar - Ambuja Cements",11-05-2024 06:00:00,31.0325454,76.5623046,SO2,4,9,6
India,Rajasthan,Ajmer,"Civil Lines,  Ajmer - RSPCB",11-05-2024 06:00:00,26.470859,74.646594,PM10,79,288,131
India,Rajasthan,Ajmer,"Civil Lines,  Ajmer - RSPCB",11-05-2024 06:00:00,26.470859,74.646594,NH3,8,9,8
India,Rajasthan,Alwar,"Moti Doongri, Alwar - RSPCB",11-05-2024 06:00:00,27.554793,76.611536,PM2.5,46,244,101
India,Rajasthan,Alwar,"Moti Doongri, Alwar - RSPCB",11-05-2024 06:00:00,27.554793,76.611536,NO2,29,47,38
India,Rajasthan,Alwar,"Moti Doongri, Alwar - RSPCB",11-05-2024 06:00:00,27.554793,76.611536,OZONE,15,51,19
India,Rajasthan,Banswara,"Rati Talai, Banswara - RSPCB",11-05-2024 06:00:00,23.555190,74.440010,PM10,83,315,117
India,Rajasthan,Banswara,"Rati Talai, Banswara - RSPCB",11-05-2024 06:00:00,23.555190,74.440010,NO2,9,55,20
India,Rajasthan,Banswara,"Rati Talai, Banswara - RSPCB",11-05-2024 06:00:00,23.555190,74.440010,CO,27,48,39
India,Rajasthan,Barmer,"Railway Colony, Barmer - RSPCB",11-05-2024 06:00:00,25.747299,71.393989,PM10,NA,NA,NA
India,Rajasthan,Bharatpur,"Krishna Nagar, Bharatpur - RSPCB",11-05-2024 06:00:00,27.215415,77.50873,SO2,4,8,6
India,Rajasthan,Bhilwara,"Pratap Nagar, Bhilwara - RSPCB",11-05-2024 06:00:00,25.339605,74.618883,PM10,25,88,48
India,Rajasthan,Bhiwadi,"RIICO Ind. Area III, Bhiwadi - RSPCB",11-05-2024 06:00:00,28.194909,76.862296,SO2,10,40,21
India,Rajasthan,Bhiwadi,"Vasundhara Nagar_UIT, Bhiwadi - RSPCB",11-05-2024 06:00:00,28.207266,76.829265,PM2.5,48,486,144
India,Rajasthan,Bhiwadi,"Vasundhara Nagar_UIT, Bhiwadi - RSPCB",11-05-2024 06:00:00,28.207266,76.829265,NO2,16,71,29
India,Rajasthan,Bhiwadi,"Vasundhara Nagar_UIT, Bhiwadi - RSPCB",11-05-2024 06:00:00,28.207266,76.829265,NH3,8,21,14
India,Rajasthan,Bhiwadi,"Vasundhara Nagar_UIT, Bhiwadi - RSPCB",11-05-2024 06:00:00,28.207266,76.829265,SO2,1,70,13
India,Rajasthan,Bikaner,"MM Ground, Bikaner - RSPCB",11-05-2024 06:00:00,28.018792,73.292658,PM10,117,454,213
India,Rajasthan,Bikaner,"MM Ground, Bikaner - RSPCB",11-05-2024 06:00:00,28.018792,73.292658,NH3,9,14,11
India,Rajasthan,Bundi,"New Colony, Bundi - RSPCB",11-05-2024 06:00:00,25.435774,75.644272,PM2.5,18,78,41
India,Rajasthan,Bundi,"New Colony, Bundi - RSPCB",11-05-2024 06:00:00,25.435774,75.644272,NO2,6,29,12
India,Rajasthan,Chittorgarh,"Shastri Nagar, Chittorgarh - RSPCB",11-05-2024 06:00:00,24.892047,74.623527,PM2.5,17,163,76
India,Rajasthan,Chittorgarh,"Shastri Nagar, Chittorgarh - RSPCB",11-05-2024 06:00:00,24.892047,74.623527,PM10,60,446,111
India,Rajasthan,Chittorgarh,"Shastri Nagar, Chittorgarh - RSPCB",11-05-2024 06:00:00,24.892047,74.623527,NH3,NA,NA,NA
India,Rajasthan,Chittorgarh,"Shastri Nagar, Chittorgarh - RSPCB",11-05-2024 06:00:00,24.892047,74.623527,CO,10,35,21
India,Rajasthan,Dausa,"Khatikan Mohalla, Dausa - RSPCB",11-05-2024 06:00:00,26.895552,76.334753,NH3,2,6,4
India,Rajasthan,Dausa,"Khatikan Mohalla, Dausa - RSPCB",11-05-2024 06:00:00,26.895552,76.334753,CO,2,66,28
India,Rajasthan,Dungarpur,"Bhoiwada, Dungarpur - RSPCB",11-05-2024 06:00:00,23.837789,73.714926,PM10,76,107,92
India,Rajasthan,Dungarpur,"Bhoiwada, Dungarpur - RSPCB",11-05-2024 06:00:00,23.837789,73.714926,SO2,1,12,6
India,Rajasthan,Hanumangarh,"Housing Board, Hanumangarh - RSPCB",11-05-2024 06:00:00,29.610750,74.283608,PM10,119,500,228
India,Rajasthan,Hanumangarh,"Housing Board, Hanumangarh - RSPCB",11-05-2024 06:00:00,29.610750,74.283608,NO2,10,55,23
India,Rajasthan,Hanumangarh,"Housing Board, Hanumangarh - RSPCB",11-05-2024 06:00:00,29.610750,74.283608,CO,26,68,46
India,Rajasthan,Jaipur,"Mansarovar Sector-12, Jaipur - RSPCB",11-05-2024 06:00:00,26.843698,75.766894,CO,12,39,18
India,Rajasthan,Jaipur,"Police Commissionerate, Jaipur - RSPCB",11-05-2024 06:00:00,26.9164092,75.7994901,CO,18,74,36
India,Rajasthan,Jaipur,"RIICO Sitapura, Jaipur - RSPCB",11-05-2024 06:00:00,26.786682,75.827928,PM10,72,492,188
India,Rajasthan,Jaipur,"RIICO Sitapura, Jaipur - RSPCB",11-05-2024 06:00:00,26.786682,75.827928,OZONE,10,152,38
India,Rajasthan,Jaipur,"Sector-2 Murlipura, Jaipur - RSPCB",11-05-2024 06:00:00,26.960669,75.771817,PM10,75,500,176
India,Rajasthan,Jaipur,"Shastri Nagar, Jaipur - RSPCB",11-05-2024 06:00:00,26.9502929,75.730943,PM10,97,336,165
India,Rajasthan,Jaipur,"Shastri Nagar, Jaipur - RSPCB",11-05-2024 06:00:00,26.9502929,75.730943,OZONE,23,78,51
India,Rajasthan,Jalore,"Mudtra Sili, Jalore - RSPCB",11-05-2024 06:00:00,25.344694,72.626208,PM2.5,25,69,45
India,Rajasthan,Jalore,"Mudtra Sili, Jalore - RSPCB",11-05-2024 06:00:00,25.344694,72.626208,PM10,59,109,92
India,Rajasthan,Jalore,"Mudtra Sili, Jalore - RSPCB",11-05-2024 06:00:00,25.344694,72.626208,SO2,7,32,14
India,Rajasthan,Jalore,"Mudtra Sili, Jalore - RSPCB",11-05-2024 06:00:00,25.344694,72.626208,CO,8,24,10
India,Rajasthan,Jhalawar,"Rajlaxmi Nagar, Jhalawar - RSPCB",11-05-2024 06:00:00,24.588397,76.172782,NH3,1,2,2
India,Rajasthan,Jhalawar,"Rajlaxmi Nagar, Jhalawar - RSPCB",11-05-2024 06:00:00,24.588397,76.172782,SO2,4,26,8
India,Rajasthan,Jhalawar,"Rajlaxmi Nagar, Jhalawar - RSPCB",11-05-2024 06:00:00,24.588397,76.172782,CO,12,27,19
India,Rajasthan,Jhunjhunu,"Indra Nagar, Jhunjhunu - RSPCB",11-05-2024 06:00:00,28.108988,75.386577,NO2,16,37,25
India,Rajasthan,Jodhpur,"Digari Kalan, Jodhpur - RSPCB",11-05-2024 06:00:00,26.295810,73.082283,PM10,55,144,93
India,Rajasthan,Jodhpur,"Digari Kalan, Jodhpur - RSPCB",11-05-2024 06:00:00,26.295810,73.082283,NH3,2,6,4
India,Rajasthan,Jodhpur,"Jhalamand, Jodhpur - RSPCB",11-05-2024 06:00:00,26.215415,73.070156,NO2,2,19,8
India,Rajasthan,Kota,"Dhanmandi, Kota - RSPCB",11-05-2024 06:00:00,25.164090,75.858137,SO2,4,18,8
India,Rajasthan,Kota,"Dhanmandi, Kota - RSPCB",11-05-2024 06:00:00,25.164090,75.858137,CO,2,117,34
India,Rajasthan,Kota,"Nayapura, Kota - RSPCB",11-05-2024 06:00:00,25.196024,75.855668,CO,7,62,15
India,Rajasthan,Kota,"Shrinath Puram, Kota - RSPCB",11-05-2024 06:00:00,25.14389,75.821256,NO2,12,66,33
India,Rajasthan,Pali,"Indira Colony Vistar, Pali - RSPCB",11-05-2024 06:00:00,25.771061, 73.340227,PM10,93,141,115
India,Rajasthan,Pali,"Indira Colony Vistar, Pali - RSPCB",11-05-2024 06:00:00,25.771061, 73.340227,NH3,5,16,11
India,Rajasthan,Pali,"Indira Colony Vistar, Pali - RSPCB",11-05-2024 06:00:00,25.771061, 73.340227,SO2,7,10,8
India,Rajasthan,Pratapgarh,"Pragati Nagar, Pratapgarh - RSPCB",11-05-2024 06:00:00,24.041198,74.780702,PM10,24,200,75
India,Rajasthan,Pratapgarh,"Pragati Nagar, Pratapgarh - RSPCB",11-05-2024 06:00:00,24.041198,74.780702,NH3,5,8,7
India,Rajasthan,Pratapgarh,"Pragati Nagar, Pratapgarh - RSPCB",11-05-2024 06:00:00,24.041198,74.780702,CO,8,24,14
India,Rajasthan,Pratapgarh,"Pragati Nagar, Pratapgarh - RSPCB",11-05-2024 06:00:00,24.041198,74.780702,OZONE,27,100,61
India,Rajasthan,Sikar,"Radhakishan Pura, Sikar - RSPCB",11-05-2024 06:00:00,27.608912,75.153302,PM10,72,500,188
India,Rajasthan,Sri Ganganagar,"Old City, Sri Ganganagar - RSPCB",11-05-2024 06:00:00,29.931624,73.864511,PM2.5,33,416,237
India,Rajasthan,Sri Ganganagar,"Old City, Sri Ganganagar - RSPCB",11-05-2024 06:00:00,29.931624,73.864511,PM10,NA,NA,NA
India,Rajasthan,Sri Ganganagar,"Old City, Sri Ganganagar - RSPCB",11-05-2024 06:00:00,29.931624,73.864511,CO,2,110,26
India,Rajasthan,Tonk,"Shastri Nagar, Tonk - RSPCB",11-05-2024 06:00:00,26.159933,75.780517,NO2,2,35,15
India,Rajasthan,Tonk,"Shastri Nagar, Tonk - RSPCB",11-05-2024 06:00:00,26.159933,75.780517,NH3,1,9,4
India,Rajasthan,Udaipur,"Ashok Nagar, Udaipur - RSPCB",11-05-2024 06:00:00,24.5886166,73.6321397,PM2.5,30,140,72
India,Rajasthan,Udaipur,"Ashok Nagar, Udaipur - RSPCB",11-05-2024 06:00:00,24.5886166,73.6321397,SO2,3,20,9
India,Sikkim,Gangtok,"Zero Point GICI, Gangtok - SSPCB",11-05-2024 06:00:00,27.338530,88.614099,PM2.5,10,22,16
India,Sikkim,Gangtok,"Zero Point GICI, Gangtok - SSPCB",11-05-2024 06:00:00,27.338530,88.614099,PM10,11,33,20
India,TamilNadu,Ariyalur,"Keelapalur, Ariyalur - TNPCB",11-05-2024 06:00:00,11.06825,79.07033,PM2.5,17,34,23
India,TamilNadu,Chengalpattu,"Crescent University, Chengalpattu - TNPCB",11-05-2024 06:00:00,12.8777316,80.0834807,NH3,23,24,24
India,TamilNadu,Chennai,"Arumbakkam, Chennai - TNPCB",11-05-2024 06:00:00,13.0664,80.2112 ,SO2,1,15,6
India,TamilNadu,Chennai,"Kodungaiyur, Chennai - TNPCB",11-05-2024 06:00:00,13.1278,80.2642,NH3,2,4,3
India,TamilNadu,Chennai,"Manali, Chennai - CPCB",11-05-2024 06:00:00,13.164544,80.26285,PM2.5,2,31,12
India,TamilNadu,Chennai,"Manali, Chennai - CPCB",11-05-2024 06:00:00,13.164544,80.26285,NO2,9,10,9
India,TamilNadu,Chennai,"Manali, Chennai - CPCB",11-05-2024 06:00:00,13.164544,80.26285,OZONE,11,18,14
India,TamilNadu,Chennai,"Royapuram, Chennai - TNPCB",11-05-2024 06:00:00,13.1036,80.2909,NO2,6,22,15
India,TamilNadu,Chennai,"Royapuram, Chennai - TNPCB",11-05-2024 06:00:00,13.1036,80.2909,SO2,2,9,4
India,TamilNadu,Chennai,"Velachery Res. Area, Chennai - CPCB",11-05-2024 06:00:00,13.0052189,80.2398125,NO2,15,23,18
India,TamilNadu,Coimbatore,"PSG College of Arts and Science, Coimbatore - TNPCB",11-05-2024 06:00:00,11.0328,77.0349,PM2.5,NA,NA,NA
India,TamilNadu,Ooty,"Bombay Castel, Ooty - TNPCB",11-05-2024 06:00:00,11.4068288,76.7138973,PM2.5,37,92,61
India,TamilNadu,Ooty,"Bombay Castel, Ooty - TNPCB",11-05-2024 06:00:00,11.4068288,76.7138973,OZONE,5,5,5
India,TamilNadu,Thoothukudi,"Meelavittan, Thoothukudi - TNPCB",11-05-2024 06:00:00,8.816428 ,78.099039,PM10,31,121,58
India,TamilNadu,Thoothukudi,"Meelavittan, Thoothukudi - TNPCB",11-05-2024 06:00:00,8.816428 ,78.099039,CO,10,88,34
India,TamilNadu,Thoothukudi,"Meelavittan, Thoothukudi - TNPCB",11-05-2024 06:00:00,8.816428 ,78.099039,OZONE,5,90,30
India,TamilNadu,Tirupur,"Kumaran College, Tirupur - TNPCB",11-05-2024 06:00:00,11.0973603,77.3228673,PM2.5,6,32,17
India,TamilNadu,Tirupur,"Kumaran College, Tirupur - TNPCB",11-05-2024 06:00:00,11.0973603,77.3228673,SO2,23,25,24
India,Telangana,Hyderabad,"Bollaram Industrial Area, Hyderabad - TSPCB",11-05-2024 06:00:00,17.540891,78.358528,NH3,4,7,5
India,Telangana,Hyderabad,"Central University, Hyderabad - TSPCB",11-05-2024 06:00:00,17.460103,78.334361,SO2,3,9,7
India,Telangana,Hyderabad,"ECIL Kapra, Hyderabad - TSPCB",11-05-2024 06:00:00,17.470431,78.566959,PM10,61,82,69
India,Telangana,Hyderabad,"ICRISAT Patancheru, Hyderabad - TSPCB",11-05-2024 06:00:00,17.518400,78.278777,PM2.5,8,75,33
India,Telangana,Hyderabad,"IITH Kandi, Hyderabad - TSPCB",11-05-2024 06:00:00,17.585705,78.126199,SO2,NA,NA,NA
India,Telangana,Hyderabad,"Kokapet, Hyderabad - TSPCB",11-05-2024 06:00:00,17.393559,78.339194,NO2,NA,NA,NA
India,Telangana,Hyderabad,"Kompally Municipal Office, Hyderabad - TSPCB",11-05-2024 06:00:00,17.544899,78.486949,NO2,NA,NA,NA
India,Telangana,Hyderabad,"Nacharam_TSIIC IALA, Hyderabad - TSPCB",11-05-2024 06:00:00,17.429398,78.569354,PM10,NA,NA,NA
India,Telangana,Hyderabad,"Nacharam_TSIIC IALA, Hyderabad - TSPCB",11-05-2024 06:00:00,17.429398,78.569354,NO2,NA,NA,NA
India,Telangana,Hyderabad,"Nacharam_TSIIC IALA, Hyderabad - TSPCB",11-05-2024 06:00:00,17.429398,78.569354,CO,34,44,42
India,Telangana,Hyderabad,"Ramachandrapuram, Hyderabad - TSPCB",11-05-2024 06:00:00,17.528544,78.286195,NH3,3,3,3
India,Telangana,Hyderabad,"Zoo Park, Hyderabad - TSPCB",11-05-2024 06:00:00,17.349694,78.451437,NO2,22,37,29
India,Telangana,Hyderabad,"Zoo Park, Hyderabad - TSPCB",11-05-2024 06:00:00,17.349694,78.451437,NH3,NA,NA,NA
India,Telangana,Hyderabad,"Zoo Park, Hyderabad - TSPCB",11-05-2024 06:00:00,17.349694,78.451437,SO2,1,8,2
India,Tripura,Agartala,"Bardowali, Agartala - Tripura SPCB",11-05-2024 06:00:00,23.8175497,91.2726974,PM10,71,142,99
India,Tripura,Agartala,"Bardowali, Agartala - Tripura SPCB",11-05-2024 06:00:00,23.8175497,91.2726974,SO2,30,31,31
India,Tripura,Agartala,"Bardowali, Agartala - Tripura SPCB",11-05-2024 06:00:00,23.8175497,91.2726974,CO,16,64,25
India,Uttar_Pradesh,Agra,"Manoharpur, Agra - UPPCB",11-05-2024 06:00:00,27.23711,78.01936,PM2.5,41,154,65
India,Uttar_Pradesh,Agra,"Manoharpur, Agra - UPPCB",11-05-2024 06:00:00,27.23711,78.01936,PM10,30,93,46
India,Uttar_Pradesh,Agra,"Manoharpur, Agra - UPPCB",11-05-2024 06:00:00,27.23711,78.01936,OZONE,6,69,20
India,Uttar_Pradesh,Agra,"Rohta, Agra - UPPCB",11-05-2024 06:00:00,27.106972,78.000111,NH3,2,3,3
India,Uttar_Pradesh,Agra,"Rohta, Agra - UPPCB",11-05-2024 06:00:00,27.106972,78.000111,CO,3,15,11
India,Uttar_Pradesh,Agra,"Sanjay Palace, Agra - UPPCB",11-05-2024 06:00:00,27.19865833,78.00598056,SO2,2,54,10
India,Uttar_Pradesh,Agra,"Sector-3B Avas Vikas Colony, Agra - UPPCB",11-05-2024 06:00:00,27.19412,77.96237,PM10,49,296,92
India,Uttar_Pradesh,Agra,"Sector-3B Avas Vikas Colony, Agra - UPPCB",11-05-2024 06:00:00,27.19412,77.96237,NO2,47,60,56
India,Uttar_Pradesh,Agra,"Shahjahan Garden, Agra - UPPCB",11-05-2024 06:00:00,27.169338,78.03582,NO2,NA,NA,NA
India,Uttar_Pradesh,Agra,"Shahjahan Garden, Agra - UPPCB",11-05-2024 06:00:00,27.169338,78.03582,SO2,NA,NA,NA
India,Uttar_Pradesh,Agra,"Shahjahan Garden, Agra - UPPCB",11-05-2024 06:00:00,27.169338,78.03582,CO,NA,NA,NA
India,Uttar_Pradesh,Agra,"Shastripuram, Agra - UPPCB",11-05-2024 06:00:00,27.19862,77.92066,PM2.5,7,264,83
India,Uttar_Pradesh,Agra,"Shastripuram, Agra - UPPCB",11-05-2024 06:00:00,27.19862,77.92066,PM10,31,500,200
India,Uttar_Pradesh,Agra,"Shastripuram, Agra - UPPCB",11-05-2024 06:00:00,27.19862,77.92066,SO2,13,14,14
India,Uttar_Pradesh,Baghpat,"Sardar Patel Inter College, Baghpat - UPPCB",11-05-2024 06:00:00,28.964949,77.278761,OZONE,40,114,52
India,Uttar_Pradesh,Bareilly,"Civil Lines, Bareilly - UPPCB",11-05-2024 06:00:00,28.359581,79.414455,OZONE,1,13,5
India,Uttar_Pradesh,Bareilly,"Rajendra Nagar, Bareilly - UPPCB",11-05-2024 06:00:00,28.38910936,79.42963708,NO2,2,2,2
India,Uttar_Pradesh,Bareilly,"Rajendra Nagar, Bareilly - UPPCB",11-05-2024 06:00:00,28.38910936,79.42963708,SO2,45,62,48
India,Uttar_Pradesh,Bareilly,"Rajendra Nagar, Bareilly - UPPCB",11-05-2024 06:00:00,28.38910936,79.42963708,CO,9,29,24
India,Uttar_Pradesh,Bulandshahr,"Yamunapuram, Bulandshahr - UPPCB",11-05-2024 06:00:00,28.406963,77.849831,SO2,7,23,11
India,Uttar_Pradesh,Bulandshahr,"Yamunapuram, Bulandshahr - UPPCB",11-05-2024 06:00:00,28.406963,77.849831,CO,24,57,34
India,Uttar_Pradesh,Firozabad,"Nagla Bhau, Firozabad - UPPCB",11-05-2024 06:00:00,27.168897,78.376960,PM2.5,29,99,42
India,Uttar_Pradesh,Firozabad,"Nagla Bhau, Firozabad - UPPCB",11-05-2024 06:00:00,27.168897,78.376960,CO,15,28,25
India,Uttar_Pradesh,Firozabad,"Nagla Bhau, Firozabad - UPPCB",11-05-2024 06:00:00,27.168897,78.376960,OZONE,18,24,19
India,Uttar_Pradesh,Firozabad,"Vibhab Nagar, Firozabad - UPPCB",11-05-2024 06:00:00,27.1594,78.3953,OZONE,8,27,15
India,Uttar_Pradesh,Ghaziabad,"Indirapuram, Ghaziabad - UPPCB",11-05-2024 06:00:00,28.646233,77.358075,PM2.5,15,419,86
India,Uttar_Pradesh,Ghaziabad,"Indirapuram, Ghaziabad - UPPCB",11-05-2024 06:00:00,28.646233,77.358075,SO2,4,19,7
India,Uttar_Pradesh,Ghaziabad,"Loni, Ghaziabad - UPPCB",11-05-2024 06:00:00,28.757294,77.278792,NO2,11,44,25
India,Uttar_Pradesh,Ghaziabad,"Sanjay Nagar, Ghaziabad - UPPCB",11-05-2024 06:00:00,28.685382,77.453839,PM10,94,145,119
India,Uttar_Pradesh,Ghaziabad,"Sanjay Nagar, Ghaziabad - UPPCB",11-05-2024 06:00:00,28.685382,77.453839,NH3,6,18,11
India,Uttar_Pradesh,Ghaziabad,"Sanjay Nagar, Ghaziabad - UPPCB",11-05-2024 06:00:00,28.685382,77.453839,SO2,15,46,28
India,Uttar_Pradesh,Ghaziabad,"Vasundhara, Ghaziabad - UPPCB",11-05-2024 06:00:00,28.6603346,77.3572563,PM2.5,26,96,55
India,Uttar_Pradesh,Ghaziabad,"Vasundhara, Ghaziabad - UPPCB",11-05-2024 06:00:00,28.6603346,77.3572563,NO2,17,73,32
India,Uttar_Pradesh,Gorakhpur,"Madan Mohan Malaviya University of Technology, Gorakhpur - UPPCB",11-05-2024 06:00:00,26.730136,83.433859,NH3,1,2,2
India,Uttar_Pradesh,Gorakhpur,"Madan Mohan Malaviya University of Technology, Gorakhpur - UPPCB",11-05-2024 06:00:00,26.730136,83.433859,CO,6,20,11
India,Uttar_Pradesh,Greater Noida,"Knowledge Park - III, Greater Noida - UPPCB",11-05-2024 06:00:00,28.47272,77.482000,SO2,2,17,11
India,Uttar_Pradesh,Hapur,"Anand Vihar, Hapur - UPPCB",11-05-2024 06:00:00,28.725645,77.749675,NH3,4,24,9
India,Uttar_Pradesh,Jhansi,"Shivaji Nagar, Jhansi - UPPCB",11-05-2024 06:00:00,25.4547,78.6039,SO2,15,20,17
India,Uttar_Pradesh,Kanpur,"FTI Kidwai Nagar, Kanpur - UPPCB",11-05-2024 06:00:00,26.428282,80.327067,SO2,25,26,26
India,Uttar_Pradesh,Kanpur,"NSI Kalyanpur, Kanpur - UPPCB",11-05-2024 06:00:00,26.509954,80.249612,PM10,80,125,102
India,Uttar_Pradesh,Kanpur,"NSI Kalyanpur, Kanpur - UPPCB",11-05-2024 06:00:00,26.509954,80.249612,SO2,22,28,25
India,Uttar_Pradesh,Khurja,"Kalindi Kunj, Khurja - UPPCB",11-05-2024 06:00:00,28.2348927,77.8683002,PM2.5,41,382,86
India,Uttar_Pradesh,Khurja,"Kalindi Kunj, Khurja - UPPCB",11-05-2024 06:00:00,28.2348927,77.8683002,NO2,3,4,3
India,Uttar_Pradesh,Khurja,"Kalindi Kunj, Khurja - UPPCB",11-05-2024 06:00:00,28.2348927,77.8683002,NH3,1,1,1
India,Uttar_Pradesh,Khurja,"Kalindi Kunj, Khurja - UPPCB",11-05-2024 06:00:00,28.2348927,77.8683002,SO2,51,72,61
India,Uttar_Pradesh,Lucknow,"B R Ambedkar University, Lucknow - UPPCB",11-05-2024 06:00:00,26.766433,80.927299,CO,26,34,32
India,Uttar_Pradesh,Lucknow,"Gomti Nagar, Lucknow - UPPCB",11-05-2024 06:00:00,26.868120,81.005119,SO2,8,12,11
India,Uttar_Pradesh,Lucknow,"Kendriya Vidyalaya, Lucknow - CPCB",11-05-2024 06:00:00,26.906111,80.948222,PM2.5,48,205,115
India,Uttar_Pradesh,Lucknow,"Kendriya Vidyalaya, Lucknow - CPCB",11-05-2024 06:00:00,26.906111,80.948222,NH3,3,20,14
India,Uttar_Pradesh,Lucknow,"Kendriya Vidyalaya, Lucknow - CPCB",11-05-2024 06:00:00,26.906111,80.948222,OZONE,57,164,64
India,Uttar_Pradesh,Lucknow,"Lalbagh, Lucknow - CPCB",11-05-2024 06:00:00,26.8458805,80.9365541,PM10,83,129,104
India,Uttar_Pradesh,Lucknow,"Talkatora District Industries Center, Lucknow - CPCB",11-05-2024 06:00:00,26.83399722,80.8917361,SO2,2,15,7
India,Uttar_Pradesh,Meerut,"Ganga Nagar, Meerut - UPPCB",11-05-2024 06:00:00,28.999264,77.7590354,PM10,36,185,115
India,Uttar_Pradesh,Meerut,"Ganga Nagar, Meerut - UPPCB",11-05-2024 06:00:00,28.999264,77.7590354,NH3,6,22,11
India,Uttar_Pradesh,Meerut,"Ganga Nagar, Meerut - UPPCB",11-05-2024 06:00:00,28.999264,77.7590354,SO2,6,24,12
India,Uttar_Pradesh,Meerut,"Jai Bhim Nagar, Meerut - UPPCB",11-05-2024 06:00:00,28.9535882,77.7622941,PM2.5,7,225,86
India,Uttar_Pradesh,Meerut,"Jai Bhim Nagar, Meerut - UPPCB",11-05-2024 06:00:00,28.9535882,77.7622941,CO,16,71,29
India,Uttar_Pradesh,Meerut,"Jai Bhim Nagar, Meerut - UPPCB",11-05-2024 06:00:00,28.9535882,77.7622941,OZONE,30,178,70
India,Uttar_Pradesh,Moradabad,"Employment Office, Moradabad - UPPCB",11-05-2024 06:00:00,28.88528,78.73880,NO2,15,17,17
India,Uttar_Pradesh,Moradabad,"Employment Office, Moradabad - UPPCB",11-05-2024 06:00:00,28.88528,78.73880,NH3,4,4,4
India,Uttar_Pradesh,Moradabad,"Employment Office, Moradabad - UPPCB",11-05-2024 06:00:00,28.88528,78.73880,CO,15,46,36
India,Uttar_Pradesh,Moradabad,"Jigar Colony, Moradabad - UPPCB",11-05-2024 06:00:00,28.856664,78.772638,NH3,7,11,7
India,Uttar_Pradesh,Moradabad,"Kashiram Nagar, Moradabad - UPPCB",11-05-2024 06:00:00,28.849399,78.742362,NO2,3,4,4
India,Uttar_Pradesh,Moradabad,"Kashiram Nagar, Moradabad - UPPCB",11-05-2024 06:00:00,28.849399,78.742362,NH3,4,4,4
India,Uttar_Pradesh,Moradabad,"Transport Nagar, Moradabad - UPPCB",11-05-2024 06:00:00,28.802625,78.753728,NH3,5,5,5
India,Uttar_Pradesh,Moradabad,"Transport Nagar, Moradabad - UPPCB",11-05-2024 06:00:00,28.802625,78.753728,OZONE,36,300,64
India,Uttar_Pradesh,Muzaffarnagar,"New Mandi, Muzaffarnagar - UPPCB",11-05-2024 06:00:00,29.4723508,77.7194031,SO2,8,47,18
India,Uttar_Pradesh,Muzaffarnagar,"New Mandi, Muzaffarnagar - UPPCB",11-05-2024 06:00:00,29.4723508,77.7194031,CO,22,66,35
India,Uttar_Pradesh,Noida,"Sector - 125, Noida - UPPCB",11-05-2024 06:00:00,28.5447608,77.3231257,SO2,12,20,17
India,Uttar_Pradesh,Noida,"Sector-1, Noida - UPPCB",11-05-2024 06:00:00,28.5898,77.3101,PM2.5,23,146,85
India,Uttar_Pradesh,Noida,"Sector-1, Noida - UPPCB",11-05-2024 06:00:00,28.5898,77.3101,NO2,12,79,32
India,Uttar_Pradesh,Noida,"Sector-116, Noida - UPPCB",11-05-2024 06:00:00,28.569230,77.393848,NO2,17,83,32
India,Uttar_Pradesh,Noida,"Sector-116, Noida - UPPCB",11-05-2024 06:00:00,28.569230,77.393848,NH3,8,15,11
India,Uttar_Pradesh,Noida,"Sector-116, Noida - UPPCB",11-05-2024 06:00:00,28.569230,77.393848,OZONE,42,124,54
India,Uttar_Pradesh,Prayagraj,"Jhunsi, Prayagraj - UPPCB",11-05-2024 06:00:00,25.425602,81.917152,CO,10,22,18
India,Uttar_Pradesh,Prayagraj,"Motilal Nehru NIT, Prayagraj - UPPCB",11-05-2024 06:00:00,25.494,81.863,NO2,11,12,12
India,Uttar_Pradesh,Prayagraj,"Motilal Nehru NIT, Prayagraj - UPPCB",11-05-2024 06:00:00,25.494,81.863,NH3,7,7,7
India,Uttar_Pradesh,Prayagraj,"Motilal Nehru NIT, Prayagraj - UPPCB",11-05-2024 06:00:00,25.494,81.863,CO,7,22,21
India,Uttar_Pradesh,Prayagraj,"Nagar Nigam, Prayagraj - UPPCB",11-05-2024 06:00:00,25.44919916 ,81.82735986 ,CO,14,31,25
India,Uttar_Pradesh,Varanasi,"Ardhali Bazar, Varanasi - UPPCB",11-05-2024 06:00:00,25.3505986,82.9083074,NO2,11,15,13
India,Uttar_Pradesh,Varanasi,"IESD Banaras Hindu University, Varanasi - UPPCB",11-05-2024 06:00:00,25.262326,82.995408,PM2.5,NA,NA,NA
India,Uttar_Pradesh,Varanasi,"IESD Banaras Hindu University, Varanasi - UPPCB",11-05-2024 06:00:00,25.262326,82.995408,SO2,17,20,18
India,Uttarakhand,Dehradun,"Doon University, Dehradun - UKPCB",11-05-2024 06:00:00,30.269444,78.044167,PM2.5,43,92,74
India,Uttarakhand,Dehradun,"Doon University, Dehradun - UKPCB",11-05-2024 06:00:00,30.269444,78.044167,NO2,1,4,2
India,Uttarakhand,Dehradun,"Doon University, Dehradun - UKPCB",11-05-2024 06:00:00,30.269444,78.044167,OZONE,23,96,53
India,Uttarakhand,Rishikesh,"Shivaji Nagar, Rishikesh - UKPCB",11-05-2024 06:00:00,30.075911,78.2859547,NH3,1,6,3
India,West_Bengal,Barrackpore,"SVSPA Campus, Barrackpore - WBPCB",11-05-2024 06:00:00,22.7605581,88.3617589,PM2.5,17,55,39
India,West_Bengal,Barrackpore,"SVSPA Campus, Barrackpore - WBPCB",11-05-2024 06:00:00,22.7605581,88.3617589,CO,18,32,24
India,West_Bengal,Durgapur,"PCBL Residential Complex, Durgapur - WBPCB",11-05-2024 06:00:00,23.5087640,87.3544400,NO2,16,77,40
India,West_Bengal,Haldia,"Priyambada Housing Estate, Haldia - WBPCB",11-05-2024 06:00:00,22.06047,88.109737,PM10,19,80,35
India,West_Bengal,Howrah,"Belur Math, Howrah - WBPCB",11-05-2024 06:00:00,22.629801,88.352017,NH3,1,2,1
India,West_Bengal,Howrah,"Belur Math, Howrah - WBPCB",11-05-2024 06:00:00,22.629801,88.352017,SO2,7,8,8
India,West_Bengal,Howrah,"Ghusuri, Howrah - WBPCB",11-05-2024 06:00:00,22.611968,88.347422,NO2,14,21,18
India,West_Bengal,Howrah,"Ghusuri, Howrah - WBPCB",11-05-2024 06:00:00,22.611968,88.347422,OZONE,12,20,14
India,West_Bengal,Howrah,"Padmapukur, Howrah - WBPCB",11-05-2024 06:00:00,22.5687319,88.2797276,PM2.5,16,40,29
India,West_Bengal,Howrah,"Padmapukur, Howrah - WBPCB",11-05-2024 06:00:00,22.5687319,88.2797276,PM10,54,83,65
India,West_Bengal,Howrah,"Padmapukur, Howrah - WBPCB",11-05-2024 06:00:00,22.5687319,88.2797276,NO2,19,48,30
India,West_Bengal,Howrah,"Padmapukur, Howrah - WBPCB",11-05-2024 06:00:00,22.5687319,88.2797276,NH3,7,11,8
India,West_Bengal,Howrah,"Padmapukur, Howrah - WBPCB",11-05-2024 06:00:00,22.5687319,88.2797276,SO2,6,57,18
India,West_Bengal,Kolkata,"Ballygunge, Kolkata - WBPCB",11-05-2024 06:00:00,22.5367507,88.3638022,SO2,6,17,12
India,West_Bengal,Kolkata,"Ballygunge, Kolkata - WBPCB",11-05-2024 06:00:00,22.5367507,88.3638022,CO,13,40,21
India,West_Bengal,Kolkata,"Jadavpur, Kolkata - WBPCB",11-05-2024 06:00:00,22.49929,88.36917,SO2,4,6,5
India,West_Bengal,Kolkata,"Jadavpur, Kolkata - WBPCB",11-05-2024 06:00:00,22.49929,88.36917,CO,18,44,23
India,West_Bengal,Kolkata,"Rabindra Sarobar, Kolkata - WBPCB",11-05-2024 06:00:00,22.51106,88.35142,PM10,38,52,45
India,West_Bengal,Kolkata,"Rabindra Sarobar, Kolkata - WBPCB",11-05-2024 06:00:00,22.51106,88.35142,NH3,5,9,7
India,West_Bengal,Kolkata,"Victoria, Kolkata - WBPCB",11-05-2024 06:00:00,22.5448082,88.3403691,PM2.5,25,51,38
India,West_Bengal,Kolkata,"Victoria, Kolkata - WBPCB",11-05-2024 06:00:00,22.5448082,88.3403691,OZONE,8,46,17
India,West_Bengal,Siliguri,"Ward-32 Bapupara, Siliguri - WBPCB",11-05-2024 06:00:00,26.6879226,88.4152495,NH3,7,12,9
India,West_Bengal,Siliguri,"Ward-32 Bapupara, Siliguri - WBPCB",11-05-2024 06:00:00,26.6879226,88.4152495,OZONE,27,52,33
India,Andhra_Pradesh,Anantapur,"Gulzarpet, Anantapur - APPCB",11-05-2024 06:00:00,14.675886,77.593027,PM2.5,29,39,33
India,Andhra_Pradesh,Anantapur,"Gulzarpet, Anantapur - APPCB",11-05-2024 06:00:00,14.675886,77.593027,PM10,54,487,85
India,Andhra_Pradesh,Anantapur,"Gulzarpet, Anantapur - APPCB",11-05-2024 06:00:00,14.675886,77.593027,NH3,4,4,4
India,Andhra_Pradesh,Anantapur,"Gulzarpet, Anantapur - APPCB",11-05-2024 06:00:00,14.675886,77.593027,OZONE,13,62,22
India,Andhra_Pradesh,Chittoor,"Gangineni Cheruvu, Chittoor - APPCB",11-05-2024 06:00:00,13.204880,79.097889,NH3,NA,NA,NA
India,Andhra_Pradesh,Kadapa,"Yerramukkapalli, Kadapa - APPCB",11-05-2024 06:00:00,14.465052,78.824187,SO2,2,2,2
India,Andhra_Pradesh,Rajamahendravaram,"Anand Kala Kshetram, Rajamahendravaram - APPCB",11-05-2024 06:00:00,16.9872867,81.7363176,SO2,12,12,12
India,Andhra_Pradesh,Tirupati,"Tirumala, Tirupati - APPCB",11-05-2024 06:00:00,13.67,79.35,PM10,10,126,38
India,Andhra_Pradesh,Tirupati,"Tirumala, Tirupati - APPCB",11-05-2024 06:00:00,13.67,79.35,NH3,1,1,1
India,Andhra_Pradesh,Tirupati,"Vaikuntapuram, Tirupati - APPCB",11-05-2024 06:00:00,13.615387,79.409230,PM10,NA,NA,NA
India,Andhra_Pradesh,Tirupati,"Vaikuntapuram, Tirupati - APPCB",11-05-2024 06:00:00,13.615387,79.409230,NH3,NA,NA,NA
India,Andhra_Pradesh,Vijayawada,"HB Colony, Vijayawada - APPCB",11-05-2024 06:00:00,16.536107,80.594233,NO2,8,23,13
India,Andhra_Pradesh,Vijayawada,"Kanuru, Vijayawada - APPCB",11-05-2024 06:00:00,16.486692,80.699436,PM2.5,46,64,56
India,Andhra_Pradesh,Vijayawada,"Kanuru, Vijayawada - APPCB",11-05-2024 06:00:00,16.486692,80.699436,NH3,1,1,1
India,Andhra_Pradesh,Vijayawada,"Rajiv Gandhi Park, Vijayawada - APPCB",11-05-2024 06:00:00,16.509717,80.612222,NO2,39,74,57
India,Andhra_Pradesh,Vijayawada,"Rajiv Nagar, Vijayawada - APPCB",11-05-2024 06:00:00,16.554731,80.649110,SO2,13,21,16
India,Andhra_Pradesh,Vijayawada,"Rajiv Nagar, Vijayawada - APPCB",11-05-2024 06:00:00,16.554731,80.649110,OZONE,15,28,17
India,Andhra_Pradesh,Visakhapatnam,"GVM Corporation, Visakhapatnam - APPCB",11-05-2024 06:00:00,17.72,83.3,CO,6,54,35
India,Assam,Byrnihat,"Central Academy for SFS, Byrnihat - PCBA",11-05-2024 06:00:00,26.071318,91.87488,NO2,1,64,30
India,Assam,Guwahati,"IITG, Guwahati - PCBA",11-05-2024 06:00:00,26.2028636,91.70046436,PM2.5,13,79,35
India,Assam,Guwahati,"IITG, Guwahati - PCBA",11-05-2024 06:00:00,26.2028636,91.70046436,PM10,22,84,49
India,Assam,Guwahati,"LGBI Airport, Guwahati - PCBA",11-05-2024 06:00:00,26.10887,91.589544,PM2.5,12,500,108
India,Assam,Guwahati,"LGBI Airport, Guwahati - PCBA",11-05-2024 06:00:00,26.10887,91.589544,OZONE,1,77,50
India,Assam,Guwahati,"Railway Colony, Guwahati - PCBA",11-05-2024 06:00:00,26.181742,91.78063,PM2.5,26,147,49
India,Assam,Nagaon,"Christianpatty, Nagaon - PCBA",11-05-2024 06:00:00,26.349082,92.68449,SO2,NA,NA,NA
India,Assam,Nagaon,"Christianpatty, Nagaon - PCBA",11-05-2024 06:00:00,26.349082,92.68449,OZONE,19,78,46
India,Assam,Nalbari,"Bata Chowk, Nalbari - PCBA",11-05-2024 06:00:00,26.446912,91.439057,NH3,1,1,1
India,Assam,Silchar,"Tarapur, Silchar - PCBA",11-05-2024 06:00:00,24.82827,92.79525,PM10,37,60,50
India,Assam,Silchar,"Tarapur, Silchar - PCBA",11-05-2024 06:00:00,24.82827,92.79525,NH3,1,1,1
India,Assam,Sivasagar,"Girls College, Sivasagar - PCBA",11-05-2024 06:00:00,26.987634,94.636574,OZONE,1,7,1
India,Bihar,Araria,"Kharahiya Basti, Araria - BSPCB",11-05-2024 06:00:00,26.146529,87.454184,CO,9,31,23
India,Bihar,Arrah,"New DM Office, Arrah - BSPCB",11-05-2024 06:00:00,25.5626095,84.663264,PM10,52,83,65
India,Bihar,Aurangabad,"Gurdeo Nagar, Aurangabad - BSPCB",11-05-2024 06:00:00,24.75746,84.366208,PM2.5,45,78,61
India,Bihar,Bettiah,"Kamalnath Nagar, Bettiah - BSPCB",11-05-2024 06:00:00,26.80365,84.51954,NH3,3,8,6
India,Bihar,Bettiah,"Kamalnath Nagar, Bettiah - BSPCB",11-05-2024 06:00:00,26.80365,84.51954,CO,61,88,73
India,Bihar,Bhagalpur,"Mayaganj, Bhagalpur - BSPCB",11-05-2024 06:00:00,25.265194,87.012947,NO2,3,12,7
India,Bihar,Bhagalpur,"Mayaganj, Bhagalpur - BSPCB",11-05-2024 06:00:00,25.265194,87.012947,SO2,3,12,12
India,Bihar,Bihar Sharif,"D M Colony, Bihar Sharif - BSPCB",11-05-2024 06:00:00,25.204762,85.514960,NO2,7,10,9
India,Bihar,Bihar Sharif,"D M Colony, Bihar Sharif - BSPCB",11-05-2024 06:00:00,25.204762,85.514960,NH3,2,2,2
India,Bihar,Bihar Sharif,"D M Colony, Bihar Sharif - BSPCB",11-05-2024 06:00:00,25.204762,85.514960,OZONE,16,75,60
India,Bihar,Buxar,"Charitra Van, Buxar - BSPCB (Formerly known as Central Jail)",11-05-2024 06:00:00,25.567520,83.966379,SO2,8,13,9
India,Bihar,Chhapra,"Darshan Nagar, Chhapra - BSPCB",11-05-2024 06:00:00,25.7808257,84.7446768,NH3,7,17,12
India,Bihar,Gaya,"Kareemganj, Gaya - BSPCB",11-05-2024 06:00:00,24.792403,84.992416,NO2,30,31,30
India,Bihar,Gaya,"Kareemganj, Gaya - BSPCB",11-05-2024 06:00:00,24.792403,84.992416,SO2,6,11,9
India,Bihar,Gaya,"Kareemganj, Gaya - BSPCB",11-05-2024 06:00:00,24.792403,84.992416,CO,14,26,20
India,Bihar,Hajipur,"Industrial Area, Hajipur - BSPCB",11-05-2024 06:00:00,25.697189,85.245900,CO,20,43,39
India,Bihar,Katihar,"Mirchaibari, Katihar - BSPCB",11-05-2024 06:00:00,25.560083,87.553265,PM2.5,25,53,39
India,Bihar,Kishanganj,"SDM Office_Khagra, Kishanganj - BSPCB",11-05-2024 06:00:00,26.0881305,87.93840336,OZONE,28,65,29
India,Bihar,Manguraha,"Forest Rest House, Manguraha - BSPCB",11-05-2024 06:00:00,27.308328,84.531742,NO2,14,26,23
India,Bihar,Motihari,"Gandak Colony, Motihari - BSPCB",11-05-2024 06:00:00,26.63086,84.90051,NH3,NA,NA,NA
India,Bihar,Muzaffarpur,"Buddha Colony, Muzaffarpur - BSPCB",11-05-2024 06:00:00,26.11442,85.39813,OZONE,16,48,24
India,Bihar,Muzaffarpur,"MIT-Daudpur Kothi, Muzaffarpur - BSPCB",11-05-2024 06:00:00,26.1403345,85.3650192,PM2.5,57,173,95
India,Bihar,Muzaffarpur,"MIT-Daudpur Kothi, Muzaffarpur - BSPCB",11-05-2024 06:00:00,26.1403345,85.3650192,PM10,57,143,83
India,Bihar,Muzaffarpur,"MIT-Daudpur Kothi, Muzaffarpur - BSPCB",11-05-2024 06:00:00,26.1403345,85.3650192,NO2,3,6,5
India,Bihar,Muzaffarpur,"Muzaffarpur Collectorate, Muzaffarpur - BSPCB",11-05-2024 06:00:00,26.1209,85.3647,PM2.5,51,192,81
India,Bihar,Patna,"DRM Office Danapur, Patna - BSPCB",11-05-2024 06:00:00,25.586562,85.043586,OZONE,13,45,22
India,Bihar,Patna,"IGSC Planetarium Complex, Patna - BSPCB",11-05-2024 06:00:00,25.610369,85.132568,CO,NA,NA,NA
India,Bihar,Patna,"Muradpur, Patna - BSPCB",11-05-2024 06:00:00,25.619651,85.147382,CO,46,78,58
India,Bihar,Patna,"Rajbansi Nagar, Patna - BSPCB",11-05-2024 06:00:00,25.599486,85.113666,CO,13,61,44
India,Bihar,Purnia,"Mariam Nagar, Purnia - BSPCB",11-05-2024 06:00:00,25.366336,87.117468,SO2,6,21,12
India,Bihar,Rajgir,"Dangi Tola, Rajgir - BSPCB",11-05-2024 06:00:00,25.03280,85.41948,PM10,14,67,46
India,Bihar,Rajgir,"Dangi Tola, Rajgir - BSPCB",11-05-2024 06:00:00,25.03280,85.41948,SO2,3,5,4
India,Bihar,Samastipur,"DM Office_Kasipur, Samastipur - BSPCB",11-05-2024 06:00:00,25.859655,85.77944,NO2,3,5,4
India,Bihar,Sasaram,"Dada Peer, Sasaram - BSPCB",11-05-2024 06:00:00,24.952822,84.002396,NO2,19,71,40
India,Bihar,Sasaram,"Dada Peer, Sasaram - BSPCB",11-05-2024 06:00:00,24.952822,84.002396,NH3,1,21,13
India,Bihar,Sasaram,"Dada Peer, Sasaram - BSPCB",11-05-2024 06:00:00,24.952822,84.002396,SO2,22,23,23
India,Bihar,Siwan,"Chitragupta Nagar, Siwan - BSPCB",11-05-2024 06:00:00,26.2271665,84.3570427,NO2,13,34,21
India,Bihar,Siwan,"Chitragupta Nagar, Siwan - BSPCB",11-05-2024 06:00:00,26.2271665,84.3570427,SO2,6,34,29
India,Chandigarh,Chandigarh,"Sector-25, Chandigarh - CPCC",11-05-2024 06:00:00,30.751462,76.762879,NO2,6,19,11
India,Chandigarh,Chandigarh,"Sector-25, Chandigarh - CPCC",11-05-2024 06:00:00,30.751462,76.762879,CO,22,30,25
India,Chandigarh,Chandigarh,"Sector-53, Chandigarh - CPCC",11-05-2024 06:00:00,30.719859,76.738637,PM2.5,65,233,127
India,Chandigarh,Chandigarh,"Sector-53, Chandigarh - CPCC",11-05-2024 06:00:00,30.719859,76.738637,NO2,12,47,23
India,Chhattisgarh,Bhilai,"32Bungalows, Bhilai - CECB",11-05-2024 06:00:00,21.194815,81.314770,OZONE,6,36,8
India,Chhattisgarh,Bhilai,"Civic Center, Bhilai - Bhilai Steel Plant",11-05-2024 06:00:00,21.185571,81.343175,PM2.5,17,44,29
India,Chhattisgarh,Bhilai,"Civic Center, Bhilai - Bhilai Steel Plant",11-05-2024 06:00:00,21.185571,81.343175,NH3,4,7,5
India,Chhattisgarh,Bhilai,"Civic Center, Bhilai - Bhilai Steel Plant",11-05-2024 06:00:00,21.185571,81.343175,OZONE,12,57,19
India,Chhattisgarh,Bilaspur,"Mangala, Bilaspur - NTPC",11-05-2024 06:00:00,22.08815,82.13737,SO2,9,15,12
India,Chhattisgarh,Chhal,"Nawapara SECL Colony, Chhal - CECB",11-05-2024 06:00:00,22.118125,83.140608,PM10,38,92,52
India,Chhattisgarh,Korba,"Rampur, Korba - CECB",11-05-2024 06:00:00,22.368195,82.746431,PM10,16,68,46
India,Chhattisgarh,Kunjemura,"OP Jindal School, Kunjemura - CECB",11-05-2024 06:00:00,22.126650,83.483212,NO2,18,138,63
India,Chhattisgarh,Kunjemura,"OP Jindal School, Kunjemura - CECB",11-05-2024 06:00:00,22.126650,83.483212,NH3,1,4,2
India,Chhattisgarh,Kunjemura,"OP Jindal School, Kunjemura - CECB",11-05-2024 06:00:00,22.126650,83.483212,SO2,1,11,5
India,Chhattisgarh,Kunjemura,"OP Jindal School, Kunjemura - CECB",11-05-2024 06:00:00,22.126650,83.483212,CO,22,63,36
India,Chhattisgarh,Milupara,"Govt. Higher Secondary School, Milupara - CECB",11-05-2024 06:00:00,22.1910172,83.5197009,PM2.5,19,50,33
India,Chhattisgarh,Milupara,"Govt. Higher Secondary School, Milupara - CECB",11-05-2024 06:00:00,22.1910172,83.5197009,OZONE,5,24,10
India,Chhattisgarh,Raipur,"AIIMS, Raipur - CECB",11-05-2024 06:00:00,21.258815,81.578979,PM10,NA,NA,NA
India,Chhattisgarh,Raipur,"AIIMS, Raipur - CECB",11-05-2024 06:00:00,21.258815,81.578979,SO2,NA,NA,NA
India,Chhattisgarh,Raipur,"AIIMS, Raipur - CECB",11-05-2024 06:00:00,21.258815,81.578979,CO,NA,NA,NA
India,Chhattisgarh,Raipur,"Krishak Nagar, Raipur - CECB",11-05-2024 06:00:00,21.237755,81.705301,CO,20,28,25
India,Chhattisgarh,Raipur,"Siltara Phase-II, Raipur - CECB",11-05-2024 06:00:00,21.371751,81.664929,PM2.5,33,94,54
India,Chhattisgarh,Raipur,"Siltara Phase-II, Raipur - CECB",11-05-2024 06:00:00,21.371751,81.664929,NH3,3,3,3
India,Chhattisgarh,Raipur,"Siltara Phase-II, Raipur - CECB",11-05-2024 06:00:00,21.371751,81.664929,CO,22,66,44
India,Delhi,Delhi,"Anand Vihar, Delhi - DPCC",11-05-2024 06:00:00,28.647622,77.3158090,CO,23,64,35
India,Delhi,Delhi,"Ashok Vihar, Delhi - DPCC",11-05-2024 06:00:00,28.695381,77.181665,NO2,17,74,33
India,Delhi,Delhi,"Aya Nagar, Delhi - IMD",11-05-2024 06:00:00,28.4706914,77.1099364,PM2.5,NA,NA,NA
India,Delhi,Delhi,"Aya Nagar, Delhi - IMD",11-05-2024 06:00:00,28.4706914,77.1099364,OZONE,28,73,35
India,Delhi,Delhi,"Burari Crossing, Delhi - IMD",11-05-2024 06:00:00,28.7256504,77.2011573,PM2.5,15,390,90
India,Delhi,Delhi,"Burari Crossing, Delhi - IMD",11-05-2024 06:00:00,28.7256504,77.2011573,CO,32,47,35
India,Delhi,Delhi,"CRRI Mathura Road, Delhi - IMD",11-05-2024 06:00:00,28.5512005,77.2735737,PM10,43,438,159
India,Delhi,Delhi,"Chandni Chowk, Delhi - IITM",11-05-2024 06:00:00,28.656756,77.227234,CO,28,71,46
India,Delhi,Delhi,"DTU, Delhi - CPCB",11-05-2024 06:00:00,28.7500499,77.1112615,CO,3,112,10
India,Delhi,Delhi,"Dr. Karni Singh Shooting Range, Delhi - DPCC",11-05-2024 06:00:00,28.498571,77.264840,NO2,17,55,28
India,Delhi,Delhi,"Dr. Karni Singh Shooting Range, Delhi - DPCC",11-05-2024 06:00:00,28.498571,77.264840,NH3,7,12,9
India,Delhi,Delhi,"Dr. Karni Singh Shooting Range, Delhi - DPCC",11-05-2024 06:00:00,28.498571,77.264840,CO,20,64,31
India,Delhi,Delhi,"Dr. Karni Singh Shooting Range, Delhi - DPCC",11-05-2024 06:00:00,28.498571,77.264840,OZONE,91,272,129
India,Delhi,Delhi,"IGI Airport (T3), Delhi - IMD",11-05-2024 06:00:00,28.5627763,77.1180053,PM2.5,14,175,85
India,Delhi,Delhi,"IGI Airport (T3), Delhi - IMD",11-05-2024 06:00:00,28.5627763,77.1180053,PM10,55,401,155
India,Delhi,Delhi,"IGI Airport (T3), Delhi - IMD",11-05-2024 06:00:00,28.5627763,77.1180053,NO2,25,89,41
India,Delhi,Delhi,"ITO, Delhi - CPCB",11-05-2024 06:00:00,28.628624,77.241060,PM2.5,12,500,174
India,Delhi,Delhi,"ITO, Delhi - CPCB",11-05-2024 06:00:00,28.628624,77.241060,OZONE,18,87,58
India,Delhi,Delhi,"Jahangirpuri, Delhi - DPCC",11-05-2024 06:00:00,28.732820,77.170633,NO2,58,146,85
India,Delhi,Delhi,"Jahangirpuri, Delhi - DPCC",11-05-2024 06:00:00,28.732820,77.170633,SO2,17,45,34
India,Delhi,Delhi,"Jahangirpuri, Delhi - DPCC",11-05-2024 06:00:00,28.732820,77.170633,OZONE,30,134,48
India,Delhi,Delhi,"Jawaharlal Nehru Stadium, Delhi - DPCC",11-05-2024 06:00:00,28.580280,77.233829,CO,21,94,40
India,Delhi,Delhi,"Jawaharlal Nehru Stadium, Delhi - DPCC",11-05-2024 06:00:00,28.580280,77.233829,OZONE,50,249,89
India,Delhi,Delhi,"Lodhi Road, Delhi - IITM",11-05-2024 06:00:00,28.588333,77.221667,NO2,9,50,20
India,Delhi,Delhi,"Major Dhyan Chand National Stadium, Delhi - DPCC",11-05-2024 06:00:00,28.611281,77.237738,PM2.5,21,276,130
India,Delhi,Delhi,"Mundka, Delhi - DPCC",11-05-2024 06:00:00,28.684678,77.076574,PM2.5,15,420,137
India,Delhi,Delhi,"Mundka, Delhi - DPCC",11-05-2024 06:00:00,28.684678,77.076574,SO2,7,15,10
India,Delhi,Delhi,"Mundka, Delhi - DPCC",11-05-2024 06:00:00,28.684678,77.076574,CO,32,70,43
India,Delhi,Delhi,"Mundka, Delhi - DPCC",11-05-2024 06:00:00,28.684678,77.076574,OZONE,13,228,55
India,Delhi,Delhi,"NSIT Dwarka, Delhi - CPCB",11-05-2024 06:00:00,28.60909,77.0325413,CO,22,76,62
India,Delhi,Delhi,"Narela, Delhi - DPCC",11-05-2024 06:00:00,28.822836,77.101981,NO2,10,50,29
India,Delhi,Delhi,"Nehru Nagar, Delhi - DPCC",11-05-2024 06:00:00,28.567890,77.250515,NH3,2,3,2
India,Delhi,Delhi,"North Campus, DU, Delhi - IMD",11-05-2024 06:00:00,28.6573814,77.1585447,NO2,NA,NA,NA
India,Delhi,Delhi,"Okhla Phase-2, Delhi - DPCC",11-05-2024 06:00:00,28.530785,77.271255,PM2.5,17,273,102
India,Delhi,Delhi,"Okhla Phase-2, Delhi - DPCC",11-05-2024 06:00:00,28.530785,77.271255,NH3,9,18,13
India,Delhi,Delhi,"Okhla Phase-2, Delhi - DPCC",11-05-2024 06:00:00,28.530785,77.271255,SO2,9,15,12
India,Delhi,Delhi,"Patparganj, Delhi - DPCC",11-05-2024 06:00:00,28.623763,77.287209,NH3,6,8,7
India,Delhi,Delhi,"Patparganj, Delhi - DPCC",11-05-2024 06:00:00,28.623763,77.287209,CO,44,99,57
India,Delhi,Delhi,"Pusa, Delhi - DPCC",11-05-2024 06:00:00,28.639652,77.146275,SO2,5,16,11
India,Delhi,Delhi,"Pusa, Delhi - IMD",11-05-2024 06:00:00,28.636110,77.173332,PM2.5,NA,NA,NA
India,Delhi,Delhi,"Pusa, Delhi - IMD",11-05-2024 06:00:00,28.636110,77.173332,PM10,NA,NA,NA
India,Delhi,Delhi,"Pusa, Delhi - IMD",11-05-2024 06:00:00,28.636110,77.173332,NO2,NA,NA,NA
India,Delhi,Delhi,"R K Puram, Delhi - DPCC",11-05-2024 06:00:00,28.563262,77.186937,PM10,NA,NA,NA
India,Delhi,Delhi,"Shadipur, Delhi - CPCB",11-05-2024 06:00:00,28.6514781,77.1473105,NH3,8,10,9
India,Delhi,Delhi,"Sirifort, Delhi - CPCB",11-05-2024 06:00:00,28.5504249,77.2159377,NO2,47,54,51
India,Delhi,Delhi,"Sirifort, Delhi - CPCB",11-05-2024 06:00:00,28.5504249,77.2159377,NH3,21,22,22
India,Delhi,Delhi,"Sirifort, Delhi - CPCB",11-05-2024 06:00:00,28.5504249,77.2159377,CO,3,70,17
India,Delhi,Delhi,"Sirifort, Delhi - CPCB",11-05-2024 06:00:00,28.5504249,77.2159377,OZONE,9,52,14
India,Delhi,Delhi,"Sonia Vihar, Delhi - DPCC",11-05-2024 06:00:00,28.710508,77.249485,PM2.5,15,192,106
India,Delhi,Delhi,"Sonia Vihar, Delhi - DPCC",11-05-2024 06:00:00,28.710508,77.249485,PM10,30,264,152
India,Delhi,Delhi,"Sonia Vihar, Delhi - DPCC",11-05-2024 06:00:00,28.710508,77.249485,OZONE,40,174,58
India,Delhi,Delhi,"Sri Aurobindo Marg, Delhi - DPCC",11-05-2024 06:00:00,28.531346,77.190156,NH3,8,11,10
India,Delhi,Delhi,"Sri Aurobindo Marg, Delhi - DPCC",11-05-2024 06:00:00,28.531346,77.190156,OZONE,25,87,42
India,Delhi,Delhi,"Vivek Vihar, Delhi - DPCC",11-05-2024 06:00:00,28.672342,77.315260,NH3,15,16,15
India,Gujarat,Ahmedabad,"Chandkheda, Ahmedabad - IITM",11-05-2024 06:00:00,23.107969,72.574648,PM2.5,45,174,70
India,Gujarat,Ahmedabad,"Chandkheda, Ahmedabad - IITM",11-05-2024 06:00:00,23.107969,72.574648,PM10,46,130,70
India,Gujarat,Ahmedabad,"Chandkheda, Ahmedabad - IITM",11-05-2024 06:00:00,23.107969,72.574648,CO,18,51,33
India,Gujarat,Ahmedabad,"Maninagar, Ahmedabad - GPCB",11-05-2024 06:00:00,23.002657,72.591912,PM2.5,23,84,52
India,Gujarat,Ahmedabad,"Rakhial, Ahmedabad - IITM",11-05-2024 06:00:00,23.016834,72.625775,NO2,32,91,56
India,Gujarat,Ahmedabad,"Rakhial, Ahmedabad - IITM",11-05-2024 06:00:00,23.016834,72.625775,NH3,8,20,15
India,Gujarat,Ahmedabad,"Rakhial, Ahmedabad - IITM",11-05-2024 06:00:00,23.016834,72.625775,CO,82,120,96
India,Gujarat,Ahmedabad,"Sardar Vallabhbhai Patel Stadium, Ahmedabad - IITM",11-05-2024 06:00:00,23.043070,72.562968,PM2.5,44,114,75
India,Gujarat,Ahmedabad,"Sardar Vallabhbhai Patel Stadium, Ahmedabad - IITM",11-05-2024 06:00:00,23.043070,72.562968,NH3,6,6,6
India,Gujarat,Ahmedabad,"Sardar Vallabhbhai Patel Stadium, Ahmedabad - IITM",11-05-2024 06:00:00,23.043070,72.562968,OZONE,23,55,28
India,Gujarat,Ankleshwar,"GIDC, Ankleshwar - GPCB",11-05-2024 06:00:00,21.613267,73.010555,OZONE,19,38,21
India,Gujarat,Gandhinagar,"Sector-10, Gandhinagar - GPCB",11-05-2024 06:00:00,23.221714,72.654328,PM10,25,91,55
India,Gujarat,Nandesari,"GIDC, Nandesari - Nandesari Ind. Association",11-05-2024 06:00:00,22.410802,73.097923,PM10,78,176,119
India,Gujarat,Surat,"Science Center, Surat - SMC",11-05-2024 06:00:00,21.170046,72.795405,PM2.5,NA,NA,NA
India,Gujarat,Vapi,"Phase-1 GIDC, Vapi - GPCB",11-05-2024 06:00:00,20.362421,72.918013,NO2,NA,NA,NA
India,Gujarat,Vapi,"Phase-1 GIDC, Vapi - GPCB",11-05-2024 06:00:00,20.362421,72.918013,SO2,NA,NA,NA
India,Gujarat,Vatva,"Phase-4 GIDC, Vatva - GPCB",11-05-2024 06:00:00,22.969611,72.643500,SO2,NA,NA,NA
India,Haryana,Ambala,"Patti Mehar, Ambala - HSPCB",11-05-2024 06:00:00,30.379589,76.778328,PM2.5,34,110,57
India,Haryana,Ambala,"Patti Mehar, Ambala - HSPCB",11-05-2024 06:00:00,30.379589,76.778328,NO2,8,21,14
India,Haryana,Ambala,"Patti Mehar, Ambala - HSPCB",11-05-2024 06:00:00,30.379589,76.778328,NH3,5,12,8
India,Haryana,Bahadurgarh,"Arya Nagar, Bahadurgarh - HSPCB",11-05-2024 06:00:00,28.6701,76.9254,OZONE,34,46,38
India,Haryana,Ballabgarh,"Nathu Colony, Ballabgarh - HSPCB",11-05-2024 06:00:00,28.3419248,77.319699,NH3,1,2,1
India,Haryana,Bhiwani,"H.B. Colony, Bhiwani - HSPCB",11-05-2024 06:00:00,28.806223,76.141105,PM2.5,54,190,135
India,Haryana,Bhiwani,"H.B. Colony, Bhiwani - HSPCB",11-05-2024 06:00:00,28.806223,76.141105,NH3,4,6,6
India,Haryana,Dharuhera,"Municipal Corporation Office, Dharuhera -  HSPCB",11-05-2024 06:00:00,28.206800,76.799700,PM2.5,32,156,104
India,Haryana,Faridabad,"New Industrial Town, Faridabad - HSPCB",11-05-2024 06:00:00,28.39072,77.30059,NH3,3,4,4
India,Haryana,Faridabad,"New Industrial Town, Faridabad - HSPCB",11-05-2024 06:00:00,28.39072,77.30059,OZONE,37,158,44
India,Haryana,Faridabad,"Sector 11, Faridabad - HSPCB",11-05-2024 06:00:00,28.376058,77.315741,PM2.5,77,283,161
India,Haryana,Faridabad,"Sector 11, Faridabad - HSPCB",11-05-2024 06:00:00,28.376058,77.315741,NH3,6,6,6
India,Haryana,Faridabad,"Sector 11, Faridabad - HSPCB",11-05-2024 06:00:00,28.376058,77.315741,SO2,1,113,15
India,Haryana,Faridabad,"Sector 30, Faridabad - HSPCB",11-05-2024 06:00:00,28.4417,77.3217,PM2.5,NA,NA,NA
India,Haryana,Faridabad,"Sector 30, Faridabad - HSPCB",11-05-2024 06:00:00,28.4417,77.3217,NO2,NA,NA,NA
India,Haryana,Faridabad,"Sector 30, Faridabad - HSPCB",11-05-2024 06:00:00,28.4417,77.3217,SO2,NA,NA,NA
India,Haryana,Faridabad,"Sector- 16A, Faridabad - HSPCB",11-05-2024 06:00:00,28.4088421,77.3099081,NO2,NA,NA,NA
India,Haryana,Faridabad,"Sector- 16A, Faridabad - HSPCB",11-05-2024 06:00:00,28.4088421,77.3099081,SO2,NA,NA,NA
India,Haryana,Faridabad,"Sector- 16A, Faridabad - HSPCB",11-05-2024 06:00:00,28.4088421,77.3099081,CO,NA,NA,NA
India,Haryana,Fatehabad,"Huda Sector, Fatehabad - HSPCB",11-05-2024 06:00:00,29.503664,75.467934,SO2,NA,NA,NA
India,Haryana,Fatehabad,"Huda Sector, Fatehabad - HSPCB",11-05-2024 06:00:00,29.503664,75.467934,OZONE,39,70,68
India,Haryana,Gurugram,"NISE Gwal Pahari, Gurugram - IMD",11-05-2024 06:00:00,28.422681,77.148944,PM10,NA,NA,NA
India,Haryana,Gurugram,"NISE Gwal Pahari, Gurugram - IMD",11-05-2024 06:00:00,28.422681,77.148944,OZONE,NA,NA,NA
India,Haryana,Gurugram,"Sector-51, Gurugram - HSPCB",11-05-2024 06:00:00,28.4227,77.0667,PM10,2,489,187
India,Haryana,Gurugram,"Sector-51, Gurugram - HSPCB",11-05-2024 06:00:00,28.4227,77.0667,NO2,13,29,24
India,Haryana,Gurugram,"Teri Gram, Gurugram - HSPCB",11-05-2024 06:00:00,28.4275,77.1465,PM2.5,199,500,320
India,Haryana,Gurugram,"Teri Gram, Gurugram - HSPCB",11-05-2024 06:00:00,28.4275,77.1465,NH3,22,33,26
India,Haryana,Hisar,"Urban Estate-II, Hisar - HSPCB",11-05-2024 06:00:00,29.140560,75.744941,CO,20,37,27
India,Haryana,Jind,"Police Lines, Jind - HSPCB",11-05-2024 06:00:00,29.307814,76.337619,PM10,NA,NA,NA
India,Haryana,Jind,"Police Lines, Jind - HSPCB",11-05-2024 06:00:00,29.307814,76.337619,NH3,NA,NA,NA
India,Haryana,Kaithal,"Rishi Nagar, Kaithal - HSPCB",11-05-2024 06:00:00,29.8006,76.4155,PM10,NA,NA,NA
India,Haryana,Kaithal,"Rishi Nagar, Kaithal - HSPCB",11-05-2024 06:00:00,29.8006,76.4155,CO,6,107,16
India,Haryana,Karnal,"Sector-12, Karnal - HSPCB",11-05-2024 06:00:00,29.695300,77.002700,NO2,7,12,10
India,Haryana,Kurukshetra,"Sector-7, Kurukshetra - HSPCB",11-05-2024 06:00:00,29.966942,76.875879,SO2,2,3,2
India,Haryana,Kurukshetra,"Sector-7, Kurukshetra - HSPCB",11-05-2024 06:00:00,29.966942,76.875879,OZONE,20,64,41
India,Haryana,Manesar,"Sector-2 IMT, Manesar - HSPCB",11-05-2024 06:00:00,28.360699,76.936090,PM10,94,134,108
India,Haryana,Narnaul,"Shastri Nagar, Narnaul - HSPCB",11-05-2024 06:00:00,28.060249,76.113115,NH3,4,24,16
India,Haryana,Panchkula,"Sector-6, Panchkula - HSPCB ",11-05-2024 06:00:00,30.7057778,76.8531805555555,PM2.5,115,342,246
India,Haryana,Panchkula,"Sector-6, Panchkula - HSPCB ",11-05-2024 06:00:00,30.7057778,76.8531805555555,SO2,2,42,6
India,Haryana,Panipat,"Sector-18, Panipat - HSPCB",11-05-2024 06:00:00,29.497973,76.993331,NH3,NA,NA,NA
India,Haryana,Rohtak,"MD University, Rohtak - HSPCB",11-05-2024 06:00:00,28.52123,76.37138,SO2,6,8,7
India,Haryana,Rohtak,"MD University, Rohtak - HSPCB",11-05-2024 06:00:00,28.52123,76.37138,CO,19,68,26
India,Haryana,Sirsa,"F-Block, Sirsa - HSPCB",11-05-2024 06:00:00,29.536400,75.015800,SO2,1,86,47
India,Haryana,Sonipat,"Murthal, Sonipat - HSPCB",11-05-2024 06:00:00,29.027200,77.062100,NO2,37,44,38
India,Haryana,Yamuna Nagar,"Gobind Pura, Yamuna Nagar - HSPCB",11-05-2024 06:00:00,30.1480566,77.2893471,PM10,NA,NA,NA
India,Himachal Pradesh,Baddi,"HIMUDA Complex Phase-1, Baddi - HPPCB",11-05-2024 06:00:00,30.943887,76.801991,PM10,84,457,211
India,Jharkhand,Dhanbad,"Kalakusuma, Dhanbad - DMC",11-05-2024 06:00:00,23.811548,86.481238,PM2.5,NA,NA,NA
India,Jharkhand,Dhanbad,"Sardar Patel Nagar, Dhanbad - JSPCB",11-05-2024 06:00:00,23.80569,86.44268,PM10,NA,NA,NA
India,Jharkhand,Dhanbad,"Sardar Patel Nagar, Dhanbad - JSPCB",11-05-2024 06:00:00,23.80569,86.44268,OZONE,NA,NA,NA
India,Karnataka,Belgaum,"Ramteerth Nagar, Belgaum - KSPCB",11-05-2024 06:00:00,15.888653,74.541751,NO2,1,64,21
India,Karnataka,Bengaluru,"Bapuji Nagar, Bengaluru - KSPCB",11-05-2024 06:00:00,12.951913,77.539784,SO2,5,8,6
India,Karnataka,Bengaluru,"Hombegowda Nagar, Bengaluru - KSPCB",11-05-2024 06:00:00,12.938539,77.590100,NH3,2,3,2
India,Karnataka,Bengaluru,"Jayanagar 5th Block, Bengaluru - KSPCB",11-05-2024 06:00:00,12.920984,77.584908,PM2.5,17,80,53
India,Karnataka,Bengaluru,"RVCE-Mailasandra, Bengaluru - KSPCB",11-05-2024 06:00:00,12.921418,77.502466,NO2,16,17,17
India,Karnataka,Bengaluru,"RVCE-Mailasandra, Bengaluru - KSPCB",11-05-2024 06:00:00,12.921418,77.502466,CO,30,62,38
India,Karnataka,Bengaluru,"Shivapura_Peenya, Bengaluru - KSPCB",11-05-2024 06:00:00,13.0246342,77.5080115,OZONE,53,55,54
India,Karnataka,Bengaluru,"Silk Board, Bengaluru - KSPCB",11-05-2024 06:00:00,12.917348,77.622813,SO2,6,11,8
India,Karnataka,Bengaluru,"Silk Board, Bengaluru - KSPCB",11-05-2024 06:00:00,12.917348,77.622813,CO,7,12,12
India,Karnataka,Bidar,"Naubad, Bidar - KSPCB",11-05-2024 06:00:00,17.930306,77.482194,PM2.5,37,66,57
India,Karnataka,Bidar,"Naubad, Bidar - KSPCB",11-05-2024 06:00:00,17.930306,77.482194,OZONE,11,51,25
India,Karnataka,Chamarajanagar,"Urban, Chamarajanagar - KSPCB",11-05-2024 06:00:00,11.55358,76.55521,PM10,35,55,45
India,Karnataka,Chikkaballapur,"Chikkaballapur Rural, Chikkaballapur - KSPCB",11-05-2024 06:00:00,13.428828,77.731418,NH3,1,1,1
India,Karnataka,Chikkamagaluru,"Kalyana Nagara, Chikkamagaluru - KSPCB",11-05-2024 06:00:00,13.328028,75.797056,OZONE,15,22,18
India,Karnataka,Davanagere,"Devaraj Urs Badavane, Davanagere - KSPCB",11-05-2024 06:00:00,14.475800,75.905200,NH3,1,2,2
India,Karnataka,Davanagere,"Devaraj Urs Badavane, Davanagere - KSPCB",11-05-2024 06:00:00,14.475800,75.905200,SO2,4,6,5
India,Karnataka,Davanagere,"Devaraj Urs Badavane, Davanagere - KSPCB",11-05-2024 06:00:00,14.475800,75.905200,CO,14,24,19
India,Karnataka,Davanagere,"Devaraj Urs Badavane, Davanagere - KSPCB",11-05-2024 06:00:00,14.475800,75.905200,OZONE,16,20,19
India,Karnataka,Dharwad,"Kalabhavan, Dharwad - KSPCB",11-05-2024 06:00:00,15.459706,75.008381,NH3,2,3,3
India,Karnataka,Gadag,"Panchal Nagar, Gadag - KSPCB",11-05-2024 06:00:00,15.411456,75.638133,PM10,29,42,35
India,Karnataka,Gadag,"Panchal Nagar, Gadag - KSPCB",11-05-2024 06:00:00,15.411456,75.638133,NH3,2,3,2
