country,state,city,station,last_update,latitude,longitude,pollutant_id,pollutant_min,pollutant_max,pollutant_avg
India,Andhra_Pradesh,Amaravati,"Secretariat, Amaravati - APPCB",12-03-2024 08:00:00,16.5150833,80.5181667,NO2,6,17,11
India,Andhra_Pradesh,Amaravati,"Secretariat, Amaravati - APPCB",12-03-2024 08:00:00,16.5150833,80.5181667,OZONE,15,62,20
India,Andhra_Pradesh,Chittoor,"Gangineni Cheruvu, Chittoor - APPCB",12-03-2024 08:00:00,13.204880,79.097889,SO2,NA,NA,NA
India,Andhra_Pradesh,Kadapa,"Yerramukkapalli, Kadapa - APPCB",12-03-2024 08:00:00,14.465052,78.824187,CO,11,28,17
India,Andhra_Pradesh,Tirupati,"Tirumala, Tirupati - APPCB",12-03-2024 08:00:00,13.67,79.35,PM10,48,118,80
India,Andhra_Pradesh,Tirupati,"Vaikuntapuram, Tirupati - APPCB",12-03-2024 08:00:00,13.615387,79.409230,NH3,2,3,3
India,Andhra_Pradesh,Tirupati,"Vaikuntapuram, Tirupati - APPCB",12-03-2024 08:00:00,13.615387,79.409230,CO,10,15,12
India,Andhra_Pradesh,Vijayawada,"HB Colony, Vijayawada - APPCB",12-03-2024 08:00:00,16.536107,80.594233,SO2,3,5,4
India,Andhra_Pradesh,Vijayawada,"HB Colony, Vijayawada - APPCB",12-03-2024 08:00:00,16.536107,80.594233,OZONE,11,32,13
India,Andhra_Pradesh,Vijayawada,"Rajiv Gandhi Park, Vijayawada - APPCB",12-03-2024 08:00:00,16.509717,80.612222,SO2,5,9,7
India,Andhra_Pradesh,Vijayawada,"Rajiv Gandhi Park, Vijayawada - APPCB",12-03-2024 08:00:00,16.509717,80.612222,CO,32,48,33
India,Andhra_Pradesh,Vijayawada,"Rajiv Nagar, Vijayawada - APPCB",12-03-2024 08:00:00,16.554731,80.649110,PM2.5,59,176,72
India,Andhra_Pradesh,Vijayawada,"Rajiv Nagar, Vijayawada - APPCB",12-03-2024 08:00:00,16.554731,80.649110,NO2,5,10,7
India,Andhra_Pradesh,Vijayawada,"Rajiv Nagar, Vijayawada - APPCB",12-03-2024 08:00:00,16.554731,80.649110,SO2,10,20,14
India,Andhra_Pradesh,Visakhapatnam,"GVM Corporation, Visakhapatnam - APPCB",12-03-2024 08:00:00,17.72,83.3,SO2,9,13,12
India,Assam,Guwahati,"LGBI Airport, Guwahati - PCBA",12-03-2024 08:00:00,26.10887,91.589544,PM2.5,177,345,290
India,Assam,Guwahati,"Pan Bazaar, Guwahati - PCBA",12-03-2024 08:00:00,26.187500,91.744194,NH3,6,7,7
India,Assam,Guwahati,"Pan Bazaar, Guwahati - PCBA",12-03-2024 08:00:00,26.187500,91.744194,SO2,73,90,85
India,Assam,Nagaon,"Christianpatty, Nagaon - PCBA",12-03-2024 08:00:00,26.349082,92.68449,NO2,17,90,39
India,Assam,Nagaon,"Christianpatty, Nagaon - PCBA",12-03-2024 08:00:00,26.349082,92.68449,NH3,2,9,4
India,Assam,Nagaon,"Christianpatty, Nagaon - PCBA",12-03-2024 08:00:00,26.349082,92.68449,CO,2,79,22
India,Assam,Nalbari,"Bata Chowk, Nalbari - PCBA",12-03-2024 08:00:00,26.446912,91.439057,PM2.5,150,347,286
India,Assam,Nalbari,"Bata Chowk, Nalbari - PCBA",12-03-2024 08:00:00,26.446912,91.439057,PM10,127,443,211
India,Assam,Silchar,"Tarapur, Silchar - PCBA",12-03-2024 08:00:00,24.82827,92.79525,PM2.5,41,64,53
India,Assam,Silchar,"Tarapur, Silchar - PCBA",12-03-2024 08:00:00,24.82827,92.79525,PM10,51,58,55
India,Assam,Sivasagar,"Girls College, Sivasagar - PCBA",12-03-2024 08:00:00,26.987634,94.636574,CO,24,46,32
India,Bihar,Arrah,"New DM Office, Arrah - BSPCB",12-03-2024 08:00:00,25.5626095,84.663264,NH3,NA,NA,NA
India,Bihar,Aurangabad,"Gurdeo Nagar, Aurangabad - BSPCB",12-03-2024 08:00:00,24.75746,84.366208,NO2,3,6,5
India,Bihar,Aurangabad,"Gurdeo Nagar, Aurangabad - BSPCB",12-03-2024 08:00:00,24.75746,84.366208,NH3,5,12,8
India,Bihar,Bhagalpur,"DM Office_Kachari Chowk, Bhagalpur - BSPCB",12-03-2024 08:00:00,25.251013,86.989001,CO,42,108,60
India,Bihar,Bhagalpur,"Mayaganj, Bhagalpur - BSPCB",12-03-2024 08:00:00,25.265194,87.012947,OZONE,20,68,35
India,Bihar,Bihar Sharif,"D M Colony, Bihar Sharif - BSPCB",12-03-2024 08:00:00,25.204762,85.514960,NH3,1,2,2
India,Bihar,Bihar Sharif,"D M Colony, Bihar Sharif - BSPCB",12-03-2024 08:00:00,25.204762,85.514960,OZONE,NA,NA,NA
India,Bihar,Chhapra,"Darshan Nagar, Chhapra - BSPCB",12-03-2024 08:00:00,25.7808257,84.7446768,PM2.5,65,350,170
India,Bihar,Gaya,"Kareemganj, Gaya - BSPCB",12-03-2024 08:00:00,24.792403,84.992416,PM10,56,213,110
India,Bihar,Katihar,"Mirchaibari, Katihar - BSPCB",12-03-2024 08:00:00,25.560083,87.553265,PM2.5,68,344,206
India,Bihar,Kishanganj,"SDM Office_Khagra, Kishanganj - BSPCB",12-03-2024 08:00:00,26.0881305,87.93840336,CO,4,12,8
India,Bihar,Manguraha,"Forest Rest House, Manguraha - BSPCB",12-03-2024 08:00:00,27.308328,84.531742,NO2,8,17,12
India,Bihar,Manguraha,"Forest Rest House, Manguraha - BSPCB",12-03-2024 08:00:00,27.308328,84.531742,SO2,2,3,3
India,Bihar,Motihari,"Gandak Colony, Motihari - BSPCB",12-03-2024 08:00:00,26.63086,84.90051,PM10,NA,NA,NA
India,Bihar,Muzaffarpur,"Buddha Colony, Muzaffarpur - BSPCB",12-03-2024 08:00:00,26.11442,85.39813,SO2,NA,NA,NA
India,Bihar,Muzaffarpur,"Buddha Colony, Muzaffarpur - BSPCB",12-03-2024 08:00:00,26.11442,85.39813,CO,NA,NA,NA
India,Bihar,Muzaffarpur,"MIT-Daudpur Kothi, Muzaffarpur - BSPCB",12-03-2024 08:00:00,26.1403345,85.3650192,PM10,NA,NA,NA
India,Bihar,Muzaffarpur,"Muzaffarpur Collectorate, Muzaffarpur - BSPCB",12-03-2024 08:00:00,26.1209,85.3647,SO2,7,19,9
India,Bihar,Patna,"DRM Office Danapur, Patna - BSPCB",12-03-2024 08:00:00,25.586562,85.043586,PM10,104,199,156
India,Bihar,Patna,"DRM Office Danapur, Patna - BSPCB",12-03-2024 08:00:00,25.586562,85.043586,SO2,7,10,8
India,Bihar,Patna,"DRM Office Danapur, Patna - BSPCB",12-03-2024 08:00:00,25.586562,85.043586,OZONE,1,62,6
India,Bihar,Patna,"Govt. High School Shikarpur, Patna - BSPCB",12-03-2024 08:00:00,25.592539,85.227158,PM2.5,NA,NA,NA
India,Bihar,Patna,"Govt. High School Shikarpur, Patna - BSPCB",12-03-2024 08:00:00,25.592539,85.227158,PM10,NA,NA,NA
India,Bihar,Patna,"Govt. High School Shikarpur, Patna - BSPCB",12-03-2024 08:00:00,25.592539,85.227158,NH3,NA,NA,NA
India,Bihar,Patna,"Govt. High School Shikarpur, Patna - BSPCB",12-03-2024 08:00:00,25.592539,85.227158,SO2,NA,NA,NA
India,Bihar,Patna,"Govt. High School Shikarpur, Patna - BSPCB",12-03-2024 08:00:00,25.592539,85.227158,OZONE,NA,NA,NA
India,Bihar,Patna,"IGSC Planetarium Complex, Patna - BSPCB",12-03-2024 08:00:00,25.610369,85.132568,NO2,14,14,14
India,Bihar,Patna,"Muradpur, Patna - BSPCB",12-03-2024 08:00:00,25.619651,85.147382,CO,5,82,37
India,Bihar,Patna,"Rajbansi Nagar, Patna - BSPCB",12-03-2024 08:00:00,25.599486,85.113666,NH3,2,4,3
India,Bihar,Patna,"Rajbansi Nagar, Patna - BSPCB",12-03-2024 08:00:00,25.599486,85.113666,CO,46,102,72
India,Bihar,Patna,"Samanpura, Patna - BSPCB",12-03-2024 08:00:00,25.596727,85.085624,SO2,15,16,16
India,Bihar,Patna,"Samanpura, Patna - BSPCB",12-03-2024 08:00:00,25.596727,85.085624,CO,69,132,113
India,Bihar,Rajgir,"Dangi Tola, Rajgir - BSPCB",12-03-2024 08:00:00,25.03280,85.41948,PM10,31,292,83
India,Bihar,Rajgir,"Dangi Tola, Rajgir - BSPCB",12-03-2024 08:00:00,25.03280,85.41948,SO2,4,4,4
India,Bihar,Saharsa,"Police Line, Saharsa - BSPCB",12-03-2024 08:00:00,25.892357,86.590325,NH3,NA,NA,NA
India,Bihar,Samastipur,"DM Office_Kasipur, Samastipur - BSPCB",12-03-2024 08:00:00,25.859655,85.77944,PM2.5,38,187,82
India,Bihar,Samastipur,"DM Office_Kasipur, Samastipur - BSPCB",12-03-2024 08:00:00,25.859655,85.77944,NO2,3,43,26
India,Bihar,Samastipur,"DM Office_Kasipur, Samastipur - BSPCB",12-03-2024 08:00:00,25.859655,85.77944,OZONE,9,21,10
India,Bihar,Sasaram,"Dada Peer, Sasaram - BSPCB",12-03-2024 08:00:00,24.952822,84.002396,PM2.5,43,152,70
India,Bihar,Siwan,"Chitragupta Nagar, Siwan - BSPCB",12-03-2024 08:00:00,26.2271665,84.3570427,PM2.5,47,307,149
India,Chandigarh,Chandigarh,"Sector 22, Chandigarh - CPCC",12-03-2024 08:00:00,30.735567,76.775714,PM2.5,98,303,206
India,Chandigarh,Chandigarh,"Sector-25, Chandigarh - CPCC",12-03-2024 08:00:00,30.751462,76.762879,PM2.5,135,186,164
India,Chandigarh,Chandigarh,"Sector-25, Chandigarh - CPCC",12-03-2024 08:00:00,30.751462,76.762879,CO,19,42,34
India,Chandigarh,Chandigarh,"Sector-53, Chandigarh - CPCC",12-03-2024 08:00:00,30.719859,76.738637,SO2,11,30,18
India,Chhattisgarh,Bhilai,"32Bungalows, Bhilai - CECB",12-03-2024 08:00:00,21.194815,81.314770,CO,17,43,38
India,Chhattisgarh,Bhilai,"Hathkhoj, Bhilai - CECB",12-03-2024 08:00:00,21.224231,81.408350,NH3,7,8,8
India,Chhattisgarh,Bhilai,"Hathkhoj, Bhilai - CECB",12-03-2024 08:00:00,21.224231,81.408350,OZONE,30,45,34
India,Chhattisgarh,Bilaspur,"Mangala, Bilaspur - NTPC",12-03-2024 08:00:00,22.08815,82.13737,NO2,11,22,14
India,Chhattisgarh,Korba,"Urja Nagar, Korba - CECB",12-03-2024 08:00:00,22.348441,82.549611,PM2.5,26,221,88
India,Chhattisgarh,Korba,"Urja Nagar, Korba - CECB",12-03-2024 08:00:00,22.348441,82.549611,NO2,72,87,80
India,Chhattisgarh,Korba,"Urja Nagar, Korba - CECB",12-03-2024 08:00:00,22.348441,82.549611,OZONE,1,6,1
India,Chhattisgarh,Kunjemura,"OP Jindal School, Kunjemura - CECB",12-03-2024 08:00:00,22.126650,83.483212,PM10,49,410,175
India,Chhattisgarh,Kunjemura,"OP Jindal School, Kunjemura - CECB",12-03-2024 08:00:00,22.126650,83.483212,NO2,23,133,63
India,Chhattisgarh,Kunjemura,"OP Jindal School, Kunjemura - CECB",12-03-2024 08:00:00,22.126650,83.483212,CO,32,56,41
India,Chhattisgarh,Milupara,"Govt. Higher Secondary School, Milupara - CECB",12-03-2024 08:00:00,22.1910172,83.5197009,NO2,NA,NA,NA
India,Chhattisgarh,Milupara,"Govt. Higher Secondary School, Milupara - CECB",12-03-2024 08:00:00,22.1910172,83.5197009,CO,24,52,31
India,Chhattisgarh,Raipur,"AIIMS, Raipur - CECB",12-03-2024 08:00:00,21.258815,81.578979,PM2.5,31,224,69
India,Chhattisgarh,Raipur,"AIIMS, Raipur - CECB",12-03-2024 08:00:00,21.258815,81.578979,PM10,48,173,79
India,Chhattisgarh,Raipur,"Bhatagaon New ISBT, Raipur - CECB",12-03-2024 08:00:00,21.219665,81.630094,PM2.5,1,109,37
India,Chhattisgarh,Raipur,"Bhatagaon New ISBT, Raipur - CECB",12-03-2024 08:00:00,21.219665,81.630094,NO2,36,59,44
India,Chhattisgarh,Raipur,"Siltara Phase-II, Raipur - CECB",12-03-2024 08:00:00,21.371751,81.664929,NH3,3,3,3
India,Chhattisgarh,Tumidih,"OP Jindal Industrial Park, Tumidih - CECB",12-03-2024 08:00:00,22.06631475,83.33820077,PM10,NA,NA,NA
India,Chhattisgarh,Tumidih,"OP Jindal Industrial Park, Tumidih - CECB",12-03-2024 08:00:00,22.06631475,83.33820077,SO2,NA,NA,NA
India,Delhi,Delhi,"Alipur, Delhi - DPCC",12-03-2024 08:00:00,28.815329,77.153010,PM2.5,NA,NA,NA
India,Delhi,Delhi,"Aya Nagar, Delhi - IMD",12-03-2024 08:00:00,28.4706914,77.1099364,PM10,119,226,148
India,Delhi,Delhi,"Aya Nagar, Delhi - IMD",12-03-2024 08:00:00,28.4706914,77.1099364,NO2,27,52,34
India,Delhi,Delhi,"CRRI Mathura Road, Delhi - IMD",12-03-2024 08:00:00,28.5512005,77.2735737,PM10,89,231,135
India,Delhi,Delhi,"CRRI Mathura Road, Delhi - IMD",12-03-2024 08:00:00,28.5512005,77.2735737,NO2,4,36,17
India,Delhi,Delhi,"CRRI Mathura Road, Delhi - IMD",12-03-2024 08:00:00,28.5512005,77.2735737,OZONE,4,102,10
India,Delhi,Delhi,"Chandni Chowk, Delhi - IITM",12-03-2024 08:00:00,28.656756,77.227234,NO2,4,37,21
India,Delhi,Delhi,"Chandni Chowk, Delhi - IITM",12-03-2024 08:00:00,28.656756,77.227234,NH3,4,19,10
India,Delhi,Delhi,"Chandni Chowk, Delhi - IITM",12-03-2024 08:00:00,28.656756,77.227234,SO2,10,45,31
India,Delhi,Delhi,"Chandni Chowk, Delhi - IITM",12-03-2024 08:00:00,28.656756,77.227234,CO,115,136,130
India,Delhi,Delhi,"DTU, Delhi - CPCB",12-03-2024 08:00:00,28.7500499,77.1112615,NO2,31,71,42
India,Delhi,Delhi,"Dr. Karni Singh Shooting Range, Delhi - DPCC",12-03-2024 08:00:00,28.498571,77.264840,CO,23,106,56
India,Delhi,Delhi,"Dwarka-Sector 8, Delhi - DPCC ",12-03-2024 08:00:00,28.5710274,77.0719006,SO2,3,14,6
India,Delhi,Delhi,"Dwarka-Sector 8, Delhi - DPCC ",12-03-2024 08:00:00,28.5710274,77.0719006,OZONE,1,97,13
India,Delhi,Delhi,"IGI Airport (T3), Delhi - IMD",12-03-2024 08:00:00,28.5627763,77.1180053,CO,32,80,59
India,Delhi,Delhi,"IHBAS, Dilshad Garden, Delhi - CPCB",12-03-2024 08:00:00,28.6811736,77.3025234,NH3,3,9,7
India,Delhi,Delhi,"ITO, Delhi - CPCB",12-03-2024 08:00:00,28.628624,77.241060,PM2.5,70,327,196
India,Delhi,Delhi,"Jahangirpuri, Delhi - DPCC",12-03-2024 08:00:00,28.732820,77.170633,PM2.5,71,375,221
India,Delhi,Delhi,"Jahangirpuri, Delhi - DPCC",12-03-2024 08:00:00,28.732820,77.170633,NH3,8,13,9
India,Delhi,Delhi,"Jahangirpuri, Delhi - DPCC",12-03-2024 08:00:00,28.732820,77.170633,SO2,2,57,15
India,Delhi,Delhi,"Jawaharlal Nehru Stadium, Delhi - DPCC",12-03-2024 08:00:00,28.580280,77.233829,CO,22,86,67
India,Delhi,Delhi,"Lodhi Road, Delhi - IITM",12-03-2024 08:00:00,28.588333,77.221667,PM2.5,38,143,77
India,Delhi,Delhi,"Lodhi Road, Delhi - IITM",12-03-2024 08:00:00,28.588333,77.221667,PM10,70,112,90
India,Delhi,Delhi,"Lodhi Road, Delhi - IITM",12-03-2024 08:00:00,28.588333,77.221667,NO2,81,120,91
India,Delhi,Delhi,"Lodhi Road, Delhi - IMD",12-03-2024 08:00:00,28.5918245,77.2273074,PM2.5,46,277,129
India,Delhi,Delhi,"Major Dhyan Chand National Stadium, Delhi - DPCC",12-03-2024 08:00:00,28.611281,77.237738,NO2,36,146,91
India,Delhi,Delhi,"Major Dhyan Chand National Stadium, Delhi - DPCC",12-03-2024 08:00:00,28.611281,77.237738,CO,78,110,102
India,Delhi,Delhi,"Major Dhyan Chand National Stadium, Delhi - DPCC",12-03-2024 08:00:00,28.611281,77.237738,OZONE,2,261,8
India,Delhi,Delhi,"Mandir Marg, Delhi - DPCC",12-03-2024 08:00:00,28.636429,77.201067,NH3,10,13,11
India,Delhi,Delhi,"Mandir Marg, Delhi - DPCC",12-03-2024 08:00:00,28.636429,77.201067,CO,56,97,79
India,Delhi,Delhi,"Mundka, Delhi - DPCC",12-03-2024 08:00:00,28.684678,77.076574,PM10,131,402,224
India,Delhi,Delhi,"NSIT Dwarka, Delhi - CPCB",12-03-2024 08:00:00,28.60909,77.0325413,PM10,131,221,165
India,Delhi,Delhi,"Najafgarh, Delhi - DPCC",12-03-2024 08:00:00,28.570173,76.933762,CO,8,88,48
India,Delhi,Delhi,"Narela, Delhi - DPCC",12-03-2024 08:00:00,28.822836,77.101981,NH3,5,8,7
India,Delhi,Delhi,"Nehru Nagar, Delhi - DPCC",12-03-2024 08:00:00,28.567890,77.250515,NH3,5,10,8
India,Delhi,Delhi,"Nehru Nagar, Delhi - DPCC",12-03-2024 08:00:00,28.567890,77.250515,OZONE,3,183,6
India,Delhi,Delhi,"New Moti Bagh, Delhi - MHUA",12-03-2024 08:00:00,28.57834,77.18400,CO,18,64,46
India,Delhi,Delhi,"Patparganj, Delhi - DPCC",12-03-2024 08:00:00,28.623763,77.287209,NO2,35,69,51
India,Delhi,Delhi,"Punjabi Bagh, Delhi - DPCC",12-03-2024 08:00:00,28.674045,77.131023,PM10,114,267,163
India,Delhi,Delhi,"Pusa, Delhi - IMD",12-03-2024 08:00:00,28.636110,77.173332,PM10,NA,NA,NA
India,Delhi,Delhi,"Pusa, Delhi - IMD",12-03-2024 08:00:00,28.636110,77.173332,OZONE,1,21,10
India,Delhi,Delhi,"R K Puram, Delhi - DPCC",12-03-2024 08:00:00,28.563262,77.186937,PM10,117,284,154
India,Delhi,Delhi,"Rohini, Delhi - DPCC",12-03-2024 08:00:00,28.732528,77.119920,SO2,11,54,20
India,Delhi,Delhi,"Shadipur, Delhi - CPCB",12-03-2024 08:00:00,28.6514781,77.1473105,OZONE,17,39,22
India,Delhi,Delhi,"Sonia Vihar, Delhi - DPCC",12-03-2024 08:00:00,28.710508,77.249485,PM2.5,54,352,195
India,Delhi,Delhi,"Sonia Vihar, Delhi - DPCC",12-03-2024 08:00:00,28.710508,77.249485,CO,51,107,79
India,Delhi,Delhi,"Sri Aurobindo Marg, Delhi - DPCC",12-03-2024 08:00:00,28.531346,77.190156,PM2.5,60,311,144
India,Delhi,Delhi,"Wazirpur, Delhi - DPCC",12-03-2024 08:00:00,28.699793,77.165453,NO2,63,146,109
India,Gujarat,Ahmedabad,"Chandkheda, Ahmedabad - IITM",12-03-2024 08:00:00,23.107969,72.574648,CO,11,66,31
India,Gujarat,Ahmedabad,"Chandkheda, Ahmedabad - IITM",12-03-2024 08:00:00,23.107969,72.574648,OZONE,5,62,15
India,Gujarat,Ahmedabad,"Gyaspur, Ahmedabad - IITM",12-03-2024 08:00:00,22.977134,72.553024,PM10,89,143,110
India,Gujarat,Ahmedabad,"Gyaspur, Ahmedabad - IITM",12-03-2024 08:00:00,22.977134,72.553024,SO2,4,6,6
India,Gujarat,Ahmedabad,"Raikhad, Ahmedabad - IITM",12-03-2024 08:00:00,23.020509,72.579261,SO2,4,10,6
India,Gujarat,Ahmedabad,"Rakhial, Ahmedabad - IITM",12-03-2024 08:00:00,23.016834,72.625775,SO2,3,36,9
India,Gujarat,Ahmedabad,"SAC ISRO Satellite, Ahmedabad - IITM",12-03-2024 08:00:00,23.023389,72.515201,PM2.5,121,176,151
India,Gujarat,Ahmedabad,"SVPI Airport Hansol, Ahmedabad - IITM",12-03-2024 08:00:00,23.076793,72.627874,OZONE,NA,NA,NA
India,Gujarat,Ahmedabad,"Sardar Vallabhbhai Patel Stadium, Ahmedabad - IITM",12-03-2024 08:00:00,23.043070,72.562968,OZONE,14,34,26
India,Gujarat,Ankleshwar,"GIDC, Ankleshwar - GPCB",12-03-2024 08:00:00,21.613267,73.010555,NO2,37,37,37
India,Gujarat,Ankleshwar,"GIDC, Ankleshwar - GPCB",12-03-2024 08:00:00,21.613267,73.010555,NH3,7,7,7
India,Gujarat,Gandhinagar,"GIFT City, Gandhinagar - IITM",12-03-2024 08:00:00,23.163798,72.677768,PM10,59,127,93
India,Gujarat,Gandhinagar,"GIFT City, Gandhinagar - IITM",12-03-2024 08:00:00,23.163798,72.677768,SO2,6,8,7
India,Gujarat,Gandhinagar,"IIPHG Lekawada, Gandhinagar - IITM",12-03-2024 08:00:00,23.243639,72.68994,NH3,7,8,8
India,Gujarat,Gandhinagar,"IIPHG Lekawada, Gandhinagar - IITM",12-03-2024 08:00:00,23.243639,72.68994,CO,22,24,23
India,Gujarat,Gandhinagar,"Sector-10, Gandhinagar - GPCB",12-03-2024 08:00:00,23.221714,72.654328,SO2,4,16,6
India,Gujarat,Surat,"Science Center, Surat - SMC",12-03-2024 08:00:00,21.170046,72.795405,PM10,30,91,47
India,Gujarat,Surat,"Science Center, Surat - SMC",12-03-2024 08:00:00,21.170046,72.795405,CO,48,102,64
India,Gujarat,Vapi,"Phase-1 GIDC, Vapi - GPCB",12-03-2024 08:00:00,20.362421,72.918013,PM2.5,50,308,96
India,Gujarat,Vapi,"Phase-1 GIDC, Vapi - GPCB",12-03-2024 08:00:00,20.362421,72.918013,PM10,78,266,114
India,Gujarat,Vapi,"Phase-1 GIDC, Vapi - GPCB",12-03-2024 08:00:00,20.362421,72.918013,CO,1,192,121
India,Haryana,Ambala,"Patti Mehar, Ambala - HSPCB",12-03-2024 08:00:00,30.379589,76.778328,CO,30,60,47
India,Haryana,Ambala,"Patti Mehar, Ambala - HSPCB",12-03-2024 08:00:00,30.379589,76.778328,OZONE,34,46,41
India,Haryana,Bahadurgarh,"Arya Nagar, Bahadurgarh - HSPCB",12-03-2024 08:00:00,28.6701,76.9254,PM2.5,63,330,184
India,Haryana,Ballabgarh,"Nathu Colony, Ballabgarh - HSPCB",12-03-2024 08:00:00,28.3419248,77.319699,PM10,109,259,161
India,Haryana,Ballabgarh,"Nathu Colony, Ballabgarh - HSPCB",12-03-2024 08:00:00,28.3419248,77.319699,NH3,1,2,2
India,Haryana,Bhiwani,"H.B. Colony, Bhiwani - HSPCB",12-03-2024 08:00:00,28.806223,76.141105,NO2,4,12,8
India,Haryana,Bhiwani,"H.B. Colony, Bhiwani - HSPCB",12-03-2024 08:00:00,28.806223,76.141105,SO2,4,55,10
India,Haryana,Charkhi Dadri,"Mini Secretariat, Charkhi Dadri - HSPCB",12-03-2024 08:00:00,28.593883,76.270653,PM10,75,236,111
India,Haryana,Dharuhera,"Municipal Corporation Office, Dharuhera -  HSPCB",12-03-2024 08:00:00,28.206800,76.799700,CO,20,78,52
India,Haryana,Faridabad,"New Industrial Town, Faridabad - HSPCB",12-03-2024 08:00:00,28.39072,77.30059,PM10,16,377,176
India,Haryana,Faridabad,"Sector 11, Faridabad - HSPCB",12-03-2024 08:00:00,28.376058,77.315741,CO,6,50,27
India,Haryana,Gurugram,"Sector-51, Gurugram - HSPCB",12-03-2024 08:00:00,28.4227,77.0667,SO2,3,4,4
India,Haryana,Gurugram,"Teri Gram, Gurugram - HSPCB",12-03-2024 08:00:00,28.4275,77.1465,PM10,124,380,209
India,Haryana,Gurugram,"Teri Gram, Gurugram - HSPCB",12-03-2024 08:00:00,28.4275,77.1465,NO2,22,50,40
India,Haryana,Gurugram,"Vikas Sadan, Gurugram - HSPCB",12-03-2024 08:00:00,28.4501238,77.0263051,NO2,5,26,14
India,Haryana,Hisar,"Urban Estate-II, Hisar - HSPCB",12-03-2024 08:00:00,29.140560,75.744941,NO2,21,67,29
India,Haryana,Kaithal,"Rishi Nagar, Kaithal - HSPCB",12-03-2024 08:00:00,29.8006,76.4155,PM2.5,33,213,71
India,Haryana,Kurukshetra,"Sector-7, Kurukshetra - HSPCB",12-03-2024 08:00:00,29.966942,76.875879,NO2,10,25,11
India,Haryana,Kurukshetra,"Sector-7, Kurukshetra - HSPCB",12-03-2024 08:00:00,29.966942,76.875879,CO,6,34,23
India,Haryana,Mandikhera,"General Hospital, Mandikhera - HSPCB",12-03-2024 08:00:00,27.9002,76.9938,PM2.5,31,80,50
India,Haryana,Manesar,"Sector-2 IMT, Manesar - HSPCB",12-03-2024 08:00:00,28.360699,76.936090,PM10,49,132,88
India,Haryana,Narnaul,"Shastri Nagar, Narnaul - HSPCB",12-03-2024 08:00:00,28.060249,76.113115,PM2.5,38,155,70
India,Haryana,Panchkula,"Sector-6, Panchkula - HSPCB ",12-03-2024 08:00:00,30.7057778,76.8531805555555,PM2.5,26,444,107
India,Haryana,Panchkula,"Sector-6, Panchkula - HSPCB ",12-03-2024 08:00:00,30.7057778,76.8531805555555,NO2,28,30,29
India,Haryana,Panipat,"Sector-18, Panipat - HSPCB",12-03-2024 08:00:00,29.497973,76.993331,NO2,31,32,31
India,Haryana,Rohtak,"MD University, Rohtak - HSPCB",12-03-2024 08:00:00,28.52123,76.37138,PM2.5,11,371,179
India,Jharkhand,Dhanbad,"Kalakusuma, Dhanbad - DMC",12-03-2024 08:00:00,23.811548,86.481238,OZONE,21,62,22
India,Jharkhand,Dhanbad,"Sardar Patel Nagar, Dhanbad - JSPCB",12-03-2024 08:00:00,23.80569,86.44268,PM2.5,NA,NA,NA
India,Jharkhand,Pathardih,"Mohalbani Ghat, Pathardih - DMC",12-03-2024 08:00:00,23.669880,86.411725,CO,NA,NA,NA
India,Karnataka,Bagalkot,"Vidayagiri, Bagalkot - KSPCB",12-03-2024 08:00:00,16.172806,75.659694,PM10,46,46,46
India,Karnataka,Bagalkot,"Vidayagiri, Bagalkot - KSPCB",12-03-2024 08:00:00,16.172806,75.659694,NO2,9,11,9
India,Karnataka,Bagalkot,"Vidayagiri, Bagalkot - KSPCB",12-03-2024 08:00:00,16.172806,75.659694,NH3,1,2,1
India,Karnataka,Belgaum,"Ramteerth Nagar, Belgaum - KSPCB",12-03-2024 08:00:00,15.888653,74.541751,CO,33,49,45
India,Karnataka,Bengaluru,"Bapuji Nagar, Bengaluru - KSPCB",12-03-2024 08:00:00,12.951913,77.539784,PM2.5,86,170,122
India,Karnataka,Bengaluru,"Bapuji Nagar, Bengaluru - KSPCB",12-03-2024 08:00:00,12.951913,77.539784,PM10,60,112,90
India,Karnataka,Bengaluru,"Bapuji Nagar, Bengaluru - KSPCB",12-03-2024 08:00:00,12.951913,77.539784,NO2,7,11,10
India,Karnataka,Bengaluru,"Bapuji Nagar, Bengaluru - KSPCB",12-03-2024 08:00:00,12.951913,77.539784,SO2,6,9,8
India,Karnataka,Bengaluru,"Hebbal, Bengaluru - KSPCB",12-03-2024 08:00:00,13.029152,77.585901,SO2,6,25,16
India,Karnataka,Bengaluru,"Jayanagar 5th Block, Bengaluru - KSPCB",12-03-2024 08:00:00,12.920984,77.584908,PM2.5,77,147,98
India,Karnataka,Bengaluru,"Jayanagar 5th Block, Bengaluru - KSPCB",12-03-2024 08:00:00,12.920984,77.584908,OZONE,28,28,28
India,Karnataka,Bengaluru,"Kasturi Nagar, Bengaluru - KSPCB",12-03-2024 08:00:00,13.003872,77.664217,NH3,3,4,4
India,Karnataka,Bengaluru,"Kasturi Nagar, Bengaluru - KSPCB",12-03-2024 08:00:00,13.003872,77.664217,CO,22,28,24
India,Karnataka,Bengaluru,"Peenya, Bengaluru - CPCB",12-03-2024 08:00:00,13.0270199,77.494094,NH3,2,4,3
India,Karnataka,Bengaluru,"Peenya, Bengaluru - CPCB",12-03-2024 08:00:00,13.0270199,77.494094,CO,14,62,26
India,Karnataka,Bengaluru,"RVCE-Mailasandra, Bengaluru - KSPCB",12-03-2024 08:00:00,12.921418,77.502466,SO2,8,18,12
India,Karnataka,Bengaluru,"Silk Board, Bengaluru - KSPCB",12-03-2024 08:00:00,12.917348,77.622813,CO,10,40,19
India,Karnataka,Bengaluru,"Silk Board, Bengaluru - KSPCB",12-03-2024 08:00:00,12.917348,77.622813,OZONE,28,32,30
India,Karnataka,Chikkaballapur,"Chikkaballapur Rural, Chikkaballapur - KSPCB",12-03-2024 08:00:00,13.428828,77.731418,NO2,6,21,9
India,Karnataka,Chikkaballapur,"Chikkaballapur Rural, Chikkaballapur - KSPCB",12-03-2024 08:00:00,13.428828,77.731418,CO,18,26,25
India,Karnataka,Chikkamagaluru,"Kalyana Nagara, Chikkamagaluru - KSPCB",12-03-2024 08:00:00,13.328028,75.797056,PM10,NA,NA,NA
India,Karnataka,Chikkamagaluru,"Kalyana Nagara, Chikkamagaluru - KSPCB",12-03-2024 08:00:00,13.328028,75.797056,NH3,NA,NA,NA
India,Karnataka,Chikkamagaluru,"Kalyana Nagara, Chikkamagaluru - KSPCB",12-03-2024 08:00:00,13.328028,75.797056,OZONE,NA,NA,NA
India,Karnataka,Dharwad,"Kalabhavan, Dharwad - KSPCB",12-03-2024 08:00:00,15.459706,75.008381,NO2,16,16,16
India,Karnataka,Gadag,"Panchal Nagar, Gadag - KSPCB",12-03-2024 08:00:00,15.411456,75.638133,CO,42,54,45
India,Karnataka,Hassan,"B.Katihalli, Hassan - KSPCB",12-03-2024 08:00:00,13.008556,76.125258,SO2,13,23,17
India,Karnataka,Haveri,"Ashwini Nagar, Haveri - KSPCB",12-03-2024 08:00:00,14.791800,75.389600,NO2,28,37,32
India,Karnataka,Haveri,"Ashwini Nagar, Haveri - KSPCB",12-03-2024 08:00:00,14.791800,75.389600,OZONE,18,19,19
India,Karnataka,Hubballi,"Deshpande Nagar, Hubballi - KSPCB",12-03-2024 08:00:00,15.351773,75.140726,NH3,5,8,6
India,Karnataka,Hubballi,"Deshpande Nagar, Hubballi - KSPCB",12-03-2024 08:00:00,15.351773,75.140726,CO,47,109,65
India,Karnataka,Hubballi,"Deshpande Nagar, Hubballi - KSPCB",12-03-2024 08:00:00,15.351773,75.140726,OZONE,19,55,27
India,Karnataka,Hubballi,"Lingaraj Nagar, Hubballi - KSPCB",12-03-2024 08:00:00,15.3714823,75.1160168,NH3,2,2,2
India,Karnataka,Kalaburagi,"Mahatma Basaveswar Colony, Kalaburgi - KSPCB",12-03-2024 08:00:00,17.336318,76.847397,PM2.5,29,69,46
India,Karnataka,Kalaburagi,"Mahatma Basaveswar Colony, Kalaburgi - KSPCB",12-03-2024 08:00:00,17.336318,76.847397,PM10,33,84,56
India,Karnataka,Kalaburagi,"Mahatma Basaveswar Colony, Kalaburgi - KSPCB",12-03-2024 08:00:00,17.336318,76.847397,OZONE,5,17,10
India,Karnataka,Karwar,"KHB Colony, Karwar - KSPCB",12-03-2024 08:00:00,14.816666,74.141003,SO2,18,18,18
India,Karnataka,Kolar,"Tamaka Ind. Area, Kolar - KSPCB",12-03-2024 08:00:00,13.1276288,78.1570122,PM2.5,43,79,57
India,Karnataka,Koppal,"Diwator Nagar, Koppal - KSPCB",12-03-2024 08:00:00,15.347630,76.181767,PM10,24,82,46
India,Karnataka,Mangalore,"Kadri, Mangalore - KSPCB",12-03-2024 08:00:00,12.889250,74.853000,NO2,5,6,6
India,Karnataka,Raichur,"Haji Colony, Raichur - KSPCB",12-03-2024 08:00:00,16.208139,77.348417,PM10,78,140,101
India,Karnataka,Raichur,"Haji Colony, Raichur - KSPCB",12-03-2024 08:00:00,16.208139,77.348417,NO2,19,47,32
India,Karnataka,Raichur,"Haji Colony, Raichur - KSPCB",12-03-2024 08:00:00,16.208139,77.348417,OZONE,5,156,46
India,Karnataka,Shivamogga,"Vinoba Nagara, Shivamogga - KSPCB",12-03-2024 08:00:00,13.940000,75.555917,NH3,2,4,3
India,Karnataka,Tumakuru,"Thimmalapura, Tumakuru - KSPCB",12-03-2024 08:00:00,13.377516,77.099072,NO2,NA,NA,NA
India,Karnataka,Tumakuru,"Thimmalapura, Tumakuru - KSPCB",12-03-2024 08:00:00,13.377516,77.099072,NH3,NA,NA,NA
India,Karnataka,Udupi,"Brahmagiri, Udupi - KSPCB",12-03-2024 08:00:00,13.34194444,74.74694444,PM2.5,30,89,46
India,Karnataka,Udupi,"Brahmagiri, Udupi - KSPCB",12-03-2024 08:00:00,13.34194444,74.74694444,NH3,1,1,1
India,Karnataka,Udupi,"Brahmagiri, Udupi - KSPCB",12-03-2024 08:00:00,13.34194444,74.74694444,SO2,14,18,16
India,Karnataka,Udupi,"Brahmagiri, Udupi - KSPCB",12-03-2024 08:00:00,13.34194444,74.74694444,CO,44,52,46
India,Karnataka,Vijayapura,"Ibrahimpur, Vijayapura - KSPCB",12-03-2024 08:00:00,16.802639,75.722694,PM2.5,26,31,30
India,Karnataka,Vijayapura,"Ibrahimpur, Vijayapura - KSPCB",12-03-2024 08:00:00,16.802639,75.722694,SO2,3,121,48
India,Karnataka,Vijayapura,"Ibrahimpur, Vijayapura - KSPCB",12-03-2024 08:00:00,16.802639,75.722694,CO,23,64,46
India,Karnataka,Yadgir,"Collector Office, Yadgir - KSPCB",12-03-2024 08:00:00,16.7602,77.1428,PM2.5,55,77,68
India,Karnataka,Yadgir,"Collector Office, Yadgir - KSPCB",12-03-2024 08:00:00,16.7602,77.1428,PM10,60,91,78
India,Karnataka,Yadgir,"Collector Office, Yadgir - KSPCB",12-03-2024 08:00:00,16.7602,77.1428,NO2,5,6,5
India,Kerala,Eloor,"Udyogamandal, Eloor - Kerala PCB",12-03-2024 08:00:00,10.073232,76.302765,NH3,1,1,1
India,Kerala,Eloor,"Udyogamandal, Eloor - Kerala PCB",12-03-2024 08:00:00,10.073232,76.302765,CO,7,114,26
India,Kerala,Kochi,"Vyttila, Kochi - Kerala PCB",12-03-2024 08:00:00,9.969447,76.321186,CO,56,73,62
India,Kerala,Kollam,"Polayathode, Kollam - Kerala PCB",12-03-2024 08:00:00,8.8787,76.6073,PM2.5,100,205,139
India,Kerala,Thiruvananthapuram,"Plammoodu, Thiruvananthapuram - Kerala PCB",12-03-2024 08:00:00,8.5149093,76.9435879,PM2.5,42,86,62
India,Kerala,Thiruvananthapuram,"Plammoodu, Thiruvananthapuram - Kerala PCB",12-03-2024 08:00:00,8.5149093,76.9435879,NH3,2,2,2
India,Kerala,Thrissur,"Corporation Ground, Thrissur - Kerala PCB",12-03-2024 08:00:00,10.532400,76.215900,PM10,59,69,65
India,Kerala,Thrissur,"Corporation Ground, Thrissur - Kerala PCB",12-03-2024 08:00:00,10.532400,76.215900,NO2,7,8,7
India,Kerala,Thrissur,"Corporation Ground, Thrissur - Kerala PCB",12-03-2024 08:00:00,10.532400,76.215900,SO2,1,26,5
India,Kerala,Thrissur,"Corporation Ground, Thrissur - Kerala PCB",12-03-2024 08:00:00,10.532400,76.215900,CO,14,56,38
India,Kerala,Thrissur,"Corporation Ground, Thrissur - Kerala PCB",12-03-2024 08:00:00,10.532400,76.215900,OZONE,27,31,30
India,Madhya Pradesh,Bhopal,"Idgah Hills, Bhopal - MPPCB",12-03-2024 08:00:00,23.264759,77.381568,CO,28,109,41
India,Madhya Pradesh,Bhopal,"Paryavaran Parisar, Bhopal - MPPCB",12-03-2024 08:00:00,23.210494,77.425409,SO2,20,26,23
India,Madhya Pradesh,Bhopal,"T T Nagar, Bhopal - MPPCB",12-03-2024 08:00:00,23.233584,77.400574,OZONE,2,134,25
India,Madhya Pradesh,Gwalior,"City Center, Gwalior - MPPCB",12-03-2024 08:00:00,26.203442,78.193251,CO,6,111,29
India,Madhya Pradesh,Gwalior,"Deen Dayal Nagar, Gwalior - MPPCB",12-03-2024 08:00:00,26.259242,78.216432,SO2,14,22,18
India,Madhya Pradesh,Gwalior,"Maharaj Bada, Gwalior - MPPCB",12-03-2024 08:00:00,26.200388,78.147714,PM10,101,233,149
India,Madhya Pradesh,Gwalior,"Maharaj Bada, Gwalior - MPPCB",12-03-2024 08:00:00,26.200388,78.147714,NH3,8,16,11
India,Madhya Pradesh,Gwalior,"Maharaj Bada, Gwalior - MPPCB",12-03-2024 08:00:00,26.200388,78.147714,CO,5,114,30
India,Madhya Pradesh,Indore,"Residency Area, Indore - IMC",12-03-2024 08:00:00,22.7084,75.8815,PM10,41,111,66
India,Madhya Pradesh,Jabalpur,"Govindh Bhavan Colony, Jabalpur - JMC",12-03-2024 08:00:00,23.163174,79.973061,NO2,10,42,21
India,Madhya Pradesh,Jabalpur,"Gupteshwar, Jabalpur - JMC",12-03-2024 08:00:00,23.142888,79.916147,PM10,54,147,87
India,Madhya Pradesh,Jabalpur,"Gupteshwar, Jabalpur - JMC",12-03-2024 08:00:00,23.142888,79.916147,NH3,6,12,8
India,Madhya Pradesh,Jabalpur,"Gupteshwar, Jabalpur - JMC",12-03-2024 08:00:00,23.142888,79.916147,SO2,2,47,10
India,Madhya Pradesh,Jabalpur,"Suhagi, Jabalpur - JMC",12-03-2024 08:00:00,23.218135,79.957770,CO,36,129,74
India,Madhya Pradesh,Maihar,"Sahilara, Maihar - KJS Cements",12-03-2024 08:00:00,24.2613009,80.7231783,PM2.5,23,56,37
India,Madhya Pradesh,Mandideep,"Sector-D Industrial Area, Mandideep - MPPCB",12-03-2024 08:00:00,23.108440,77.511428,OZONE,NA,NA,NA
India,Madhya Pradesh,Pithampur,"Sector-2 Industrial Area, Pithampur - MPPCB",12-03-2024 08:00:00,22.624758,75.675238,OZONE,37,76,45
India,Madhya Pradesh,Ratlam,"Shasthri Nagar, Ratlam - IPCA Lab",12-03-2024 08:00:00,23.331731,75.045981,SO2,36,42,37
India,Madhya Pradesh,Sagar,"Civil Lines, Sagar - MPPCB",12-03-2024 08:00:00,23.838586,78.759431,NO2,14,33,17
India,Madhya Pradesh,Singrauli,"Suryakiran Bhawan NCL, Singrauli - MPPCB",12-03-2024 08:00:00,24.108970,82.645580,PM10,112,227,146
India,Madhya Pradesh,Singrauli,"Suryakiran Bhawan NCL, Singrauli - MPPCB",12-03-2024 08:00:00,24.108970,82.645580,NO2,36,78,55
India,Madhya Pradesh,Singrauli,"Suryakiran Bhawan NCL, Singrauli - MPPCB",12-03-2024 08:00:00,24.108970,82.645580,SO2,29,132,59
India,Madhya Pradesh,Singrauli,"Suryakiran Bhawan NCL, Singrauli - MPPCB",12-03-2024 08:00:00,24.108970,82.645580,OZONE,1,73,13
India,Madhya Pradesh,Ujjain,"Mahakaleshwar Temple, Ujjain - MPPCB",12-03-2024 08:00:00,23.182719 ,75.768218 ,NH3,5,7,6
India,Maharashtra,Ahmednagar,"Tarakpur, Ahmednagar - MPCB",12-03-2024 08:00:00,19.10122,74.73339,PM2.5,55,256,122
India,Maharashtra,Akola,"Ramdaspeth, Akola - MPCB",12-03-2024 08:00:00,20.719516,77.000253,PM2.5,52,154,82
India,Maharashtra,Amravati,"Shivneri Colony, Amravati - MPCB",12-03-2024 08:00:00,20.9402359,77.7895248,NO2,13,60,33
India,Maharashtra,Amravati,"Shri Shivaji Science College, Amaravati - MPCB",12-03-2024 08:00:00,20.939198,77.765701,PM2.5,55,128,85
India,Maharashtra,Aurangabad,"MIDC Chilkalthana, Aurangabad - MPCB",12-03-2024 08:00:00,19.875620,75.387310,OZONE,8,47,10
India,Maharashtra,Aurangabad,"More Chowk Waluj, Aurangabad - MPCB",12-03-2024 08:00:00,19.8389439,75.244448,NH3,1,1,1
India,Maharashtra,Aurangabad,"More Chowk Waluj, Aurangabad - MPCB",12-03-2024 08:00:00,19.8389439,75.244448,OZONE,7,21,15
India,Maharashtra,Aurangabad,"Rachnakar Colony, Aurangabad - MPCB",12-03-2024 08:00:00,19.863756,75.321188,NH3,1,2,1
India,Maharashtra,Aurangabad,"Rachnakar Colony, Aurangabad - MPCB",12-03-2024 08:00:00,19.863756,75.321188,SO2,17,52,33
India,Maharashtra,Aurangabad,"Rachnakar Colony, Aurangabad - MPCB",12-03-2024 08:00:00,19.863756,75.321188,CO,10,91,28
India,Maharashtra,Badlapur,"Katrap, Badlapur - MPCB",12-03-2024 08:00:00,19.16485,73.23409,NH3,1,4,1
India,Maharashtra,Belapur,"CBD Belapur, Belapur - MPCB",12-03-2024 08:00:00,19.0243902,73.0406721,CO,18,80,37
India,Maharashtra,Bhiwandi,"Gokul Nagar, Bhiwandi - MPCB",12-03-2024 08:00:00,19.309073,73.057223,OZONE,13,116,32
India,Maharashtra,Boisar,"Khaira, Boisar - MPCB",12-03-2024 08:00:00,19.786089,72.757971,NO2,12,39,19
India,Maharashtra,Chandrapur,"MIDC Khutala, Chandrapur - MPCB",12-03-2024 08:00:00,19.9775302,79.2337086,NH3,NA,NA,NA
India,Maharashtra,Dhule,"Deopur, Dhule - MPCB",12-03-2024 08:00:00,20.918946,74.776388,NH3,2,14,5
India,Maharashtra,Dhule,"Deopur, Dhule - MPCB",12-03-2024 08:00:00,20.918946,74.776388,SO2,8,36,19
India,Maharashtra,Jalgaon,"Prabhat Colony, Jalgaon - MPCB",12-03-2024 08:00:00,21.001264,75.565602,PM10,79,152,114
India,Maharashtra,Jalna,"Old MIDC, Jalna - MPCB",12-03-2024 08:00:00,19.854616,75.905894,NH3,6,8,7
India,Maharashtra,Kolhapur,"Shivaji University, Kolhapur - MPCB",12-03-2024 08:00:00,16.6870449,74.2505872,OZONE,13,131,33
India,Maharashtra,Kolhapur,"Sinchan Bhavan, Kolhapur - MPCB",12-03-2024 08:00:00,16.7143745,74.2426398,CO,26,76,49
India,Maharashtra,Latur,"Sawe Wadi, Latur - MPCB",12-03-2024 08:00:00,18.39963,76.57452,NO2,10,74,26
India,Maharashtra,Latur,"Sawe Wadi, Latur - MPCB",12-03-2024 08:00:00,18.39963,76.57452,CO,15,51,33
India,Maharashtra,Latur,"Sawe Wadi, Latur - MPCB",12-03-2024 08:00:00,18.39963,76.57452,OZONE,12,72,35
India,Maharashtra,Mahad,"Kamble Tarf Birwadi, Mahad - MPCB",12-03-2024 08:00:00,18.1023399,73.4783687,NH3,10,23,12
India,Maharashtra,Mahad,"Kamble Tarf Birwadi, Mahad - MPCB",12-03-2024 08:00:00,18.1023399,73.4783687,SO2,11,60,32
India,Maharashtra,Malegaon,"Mahesh Nagar, Malegaon - MPCB",12-03-2024 08:00:00,20.555712,74.529236,PM10,98,214,141
India,Maharashtra,Malegaon,"Mahesh Nagar, Malegaon - MPCB",12-03-2024 08:00:00,20.555712,74.529236,NO2,3,17,8
India,Maharashtra,Malegaon,"Mahesh Nagar, Malegaon - MPCB",12-03-2024 08:00:00,20.555712,74.529236,NH3,4,17,5
India,Maharashtra,Malegaon,"Mahesh Nagar, Malegaon - MPCB",12-03-2024 08:00:00,20.555712,74.529236,OZONE,6,104,16
India,Maharashtra,Mira-Bhayandar,"Bhayandar West, Mira-Bhayandar - MPCB",12-03-2024 08:00:00,19.296481,72.840923,PM2.5,135,247,191
India,Maharashtra,Mira-Bhayandar,"Bhayandar West, Mira-Bhayandar - MPCB",12-03-2024 08:00:00,19.296481,72.840923,NO2,14,72,32
India,Maharashtra,Mira-Bhayandar,"Bhayandar West, Mira-Bhayandar - MPCB",12-03-2024 08:00:00,19.296481,72.840923,SO2,5,26,13
India,Maharashtra,Mumbai,"Bandra Kurla Complex, Mumbai - MPCB",12-03-2024 08:00:00,19.065931,72.862131,PM2.5,63,104,80
India,Maharashtra,Mumbai,"Bandra Kurla Complex, Mumbai - MPCB",12-03-2024 08:00:00,19.065931,72.862131,OZONE,2,86,12
India,Maharashtra,Mumbai,"Borivali East, Mumbai - IITM",12-03-2024 08:00:00,19.23241,72.86895,NH3,1,3,2
India,Maharashtra,Mumbai,"Borivali East, Mumbai - IITM",12-03-2024 08:00:00,19.23241,72.86895,CO,35,97,61
India,Maharashtra,Mumbai,"Borivali East, Mumbai - MPCB",12-03-2024 08:00:00,19.2243333,72.8658113,PM2.5,NA,NA,NA
India,Maharashtra,Mumbai,"Borivali East, Mumbai - MPCB",12-03-2024 08:00:00,19.2243333,72.8658113,NO2,NA,NA,NA
India,Maharashtra,Mumbai,"Borivali East, Mumbai - MPCB",12-03-2024 08:00:00,19.2243333,72.8658113,CO,NA,NA,NA
India,Maharashtra,Mumbai,"Byculla, Mumbai - BMC",12-03-2024 08:00:00,18.9767,72.8380,SO2,5,62,15
India,Maharashtra,Mumbai,"Byculla, Mumbai - BMC",12-03-2024 08:00:00,18.9767,72.8380,CO,17,39,19
India,Maharashtra,Mumbai,"Chembur, Mumbai - MPCB",12-03-2024 08:00:00,19.0364585,72.8954371,CO,17,62,29
India,Maharashtra,Mumbai,"Chhatrapati Shivaji Intl. Airport (T2), Mumbai - MPCB",12-03-2024 08:00:00,19.10078,72.87462,PM2.5,28,58,42
India,Maharashtra,Mumbai,"Chhatrapati Shivaji Intl. Airport (T2), Mumbai - MPCB",12-03-2024 08:00:00,19.10078,72.87462,PM10,NA,NA,NA
India,Maharashtra,Mumbai,"Colaba, Mumbai - MPCB",12-03-2024 08:00:00,18.910000,72.820000,NO2,20,28,23
India,Maharashtra,Mumbai,"Ghatkopar, Mumbai - BMC",12-03-2024 08:00:00,19.083694,72.920967,CO,10,40,17
India,Maharashtra,Mumbai,"Kandivali East, Mumbai - MPCB",12-03-2024 08:00:00,19.205800,72.868200,SO2,80,95,84
India,Maharashtra,Mumbai,"Kandivali East, Mumbai - MPCB",12-03-2024 08:00:00,19.205800,72.868200,CO,77,125,94
India,Maharashtra,Mumbai,"Kandivali West, Mumbai - BMC",12-03-2024 08:00:00,19.215859,72.831718,OZONE,NA,NA,NA
India,Maharashtra,Mumbai,"Kherwadi_Bandra East, Mumbai - MPCB",12-03-2024 08:00:00,19.0632143,72.8456324,PM2.5,74,190,117
India,Maharashtra,Mumbai,"Kherwadi_Bandra East, Mumbai - MPCB",12-03-2024 08:00:00,19.0632143,72.8456324,CO,8,82,37
India,Maharashtra,Mumbai,"Khindipada-Bhandup West, Mumbai - IITM",12-03-2024 08:00:00,19.1653323,72.922099,PM2.5,53,198,119
India,Maharashtra,Mumbai,"Kurla, Mumbai - MPCB",12-03-2024 08:00:00,19.0863,72.8888,PM10,37,119,82
India,Maharashtra,Mumbai,"Mulund West, Mumbai - MPCB",12-03-2024 08:00:00,19.1750,72.9419,NH3,10,11,10
India,Maharashtra,Mumbai,"Mulund West, Mumbai - MPCB",12-03-2024 08:00:00,19.1750,72.9419,SO2,13,13,13
India,Maharashtra,Mumbai,"Mulund West, Mumbai - MPCB",12-03-2024 08:00:00,19.1750,72.9419,OZONE,7,7,7
India,Maharashtra,Mumbai,"Navy Nagar-Colaba, Mumbai - IITM",12-03-2024 08:00:00,18.897756,72.813320,PM2.5,134,302,220
India,Maharashtra,Mumbai,"Navy Nagar-Colaba, Mumbai - IITM",12-03-2024 08:00:00,18.897756,72.813320,NO2,47,162,67
India,Maharashtra,Mumbai,"Navy Nagar-Colaba, Mumbai - IITM",12-03-2024 08:00:00,18.897756,72.813320,CO,2,26,6
India,Maharashtra,Mumbai,"Shivaji Nagar, Mumbai - BMC",12-03-2024 08:00:00,19.060498,72.923356,OZONE,19,131,42
India,Maharashtra,Mumbai,"Siddharth Nagar-Worli, Mumbai - IITM",12-03-2024 08:00:00,19.000083,72.813993,OZONE,16,179,70
India,Maharashtra,Mumbai,"Vasai West, Mumbai - MPCB",12-03-2024 08:00:00,19.383200,72.820400,PM10,NA,NA,NA
India,Maharashtra,Mumbai,"Vasai West, Mumbai - MPCB",12-03-2024 08:00:00,19.383200,72.820400,NO2,26,28,27
India,Maharashtra,Mumbai,"Vasai West, Mumbai - MPCB",12-03-2024 08:00:00,19.383200,72.820400,SO2,16,30,20
India,Maharashtra,Mumbai,"Vasai West, Mumbai - MPCB",12-03-2024 08:00:00,19.383200,72.820400,OZONE,13,138,21
India,Maharashtra,Mumbai,"Vile Parle West, Mumbai - MPCB",12-03-2024 08:00:00,19.10861,72.83622,PM2.5,35,58,47
India,Maharashtra,Mumbai,"Vile Parle West, Mumbai - MPCB",12-03-2024 08:00:00,19.10861,72.83622,PM10,43,124,75
India,Maharashtra,Mumbai,"Vile Parle West, Mumbai - MPCB",12-03-2024 08:00:00,19.10861,72.83622,NH3,4,11,10
India,Maharashtra,Mumbai,"Vile Parle West, Mumbai - MPCB",12-03-2024 08:00:00,19.10861,72.83622,CO,72,76,73
India,Maharashtra,Mumbai,"Worli, Mumbai - MPCB",12-03-2024 08:00:00,18.9936162,72.8128113,PM2.5,38,84,56
India,Maharashtra,Mumbai,"Worli, Mumbai - MPCB",12-03-2024 08:00:00,18.9936162,72.8128113,NH3,1,1,1
India,Maharashtra,Nagpur,"Ambazari, Nagpur - MPCB",12-03-2024 08:00:00,21.121801,79.04952,NO2,18,80,33
India,Maharashtra,Nagpur,"Mahal, Nagpur - MPCB",12-03-2024 08:00:00,21.14472,79.107595,PM10,99,166,127
India,Maharashtra,Nagpur,"Mahal, Nagpur - MPCB",12-03-2024 08:00:00,21.14472,79.107595,NH3,1,7,3
India,Maharashtra,Nagpur,"Opp GPO Civil Lines, Nagpur - MPCB",12-03-2024 08:00:00,21.152875,79.0517531,PM10,77,146,107
India,Maharashtra,Nagpur,"Opp GPO Civil Lines, Nagpur - MPCB",12-03-2024 08:00:00,21.152875,79.0517531,OZONE,2,55,8
India,Maharashtra,Nagpur,"Ram Nagar, Nagpur - MPCB",12-03-2024 08:00:00,21.143383,79.048912,PM2.5,44,139,77
India,Maharashtra,Nagpur,"Ram Nagar, Nagpur - MPCB",12-03-2024 08:00:00,21.143383,79.048912,NO2,7,41,20
India,Maharashtra,Nagpur,"Ram Nagar, Nagpur - MPCB",12-03-2024 08:00:00,21.143383,79.048912,OZONE,9,151,13
India,Maharashtra,Nanded,"Sneh Nagar, Nanded - MPCB",12-03-2024 08:00:00,19.173852,77.296291,SO2,NA,NA,NA
India,Maharashtra,Nanded,"Sneh Nagar, Nanded - MPCB",12-03-2024 08:00:00,19.173852,77.296291,CO,NA,NA,NA
India,Maharashtra,Nashik,"Gangapur Road, Nashik - MPCB",12-03-2024 08:00:00,20.0073285,73.7762427,OZONE,12,80,23
India,Maharashtra,Nashik,"MIDC Ambad, Nashik - MPCB",12-03-2024 08:00:00,19.950220,73.731480,SO2,6,24,13
India,Maharashtra,Navi Mumbai,"Kopripada-Vashi, Navi Mumbai - MPCB",12-03-2024 08:00:00,19.090337,73.014232,PM2.5,43,358,134
India,Maharashtra,Navi Mumbai,"Kopripada-Vashi, Navi Mumbai - MPCB",12-03-2024 08:00:00,19.090337,73.014232,PM10,63,376,148
India,Maharashtra,Navi Mumbai,"Mahape, Navi Mumbai - MPCB",12-03-2024 08:00:00,19.1135051,73.008978,NO2,37,40,38
India,Maharashtra,Navi Mumbai,"Nerul, Navi Mumbai - MPCB",12-03-2024 08:00:00,19.008751,73.016620,CO,51,90,71
India,Maharashtra,Navi Mumbai,"Sanpada, Navi Mumbai - MPCB",12-03-2024 08:00:00,19.0575752,73.0151367,PM10,107,196,138
India,Maharashtra,Navi Mumbai,"Sanpada, Navi Mumbai - MPCB",12-03-2024 08:00:00,19.0575752,73.0151367,CO,2,106,35
India,Maharashtra,Navi Mumbai,"Sector-19A Nerul, Navi Mumbai - IITM",12-03-2024 08:00:00,19.044,73.0325,SO2,23,52,38
India,Maharashtra,Navi Mumbai,"Sector-19A Nerul, Navi Mumbai - IITM",12-03-2024 08:00:00,19.044,73.0325,CO,1,110,97
India,Maharashtra,Navi Mumbai,"Tondare-Taloja, Navi Mumbai - MPCB",12-03-2024 08:00:00,19.0630,73.1209,PM2.5,22,313,168
India,Maharashtra,Navi Mumbai,"Tondare-Taloja, Navi Mumbai - MPCB",12-03-2024 08:00:00,19.0630,73.1209,OZONE,2,153,14
India,Maharashtra,Parbhani,"Masoom Colony, Parbhani - MPCB",12-03-2024 08:00:00,19.265594,76.761463,NH3,5,13,10
India,Maharashtra,Pimpri-Chinchwad,"Gavalinagar, Pimpri Chinchwad - MPCB",12-03-2024 08:00:00,18.63673,73.82487,NH3,1,14,5
India,Maharashtra,Pimpri-Chinchwad,"Gavalinagar, Pimpri Chinchwad - MPCB",12-03-2024 08:00:00,18.63673,73.82487,CO,12,86,52
India,Maharashtra,Pimpri-Chinchwad,"Park Street Wakad, Pimpri Chinchwad - MPCB",12-03-2024 08:00:00,18.59051,73.77946,NH3,6,20,11
India,Maharashtra,Pimpri-Chinchwad,"Park Street Wakad, Pimpri Chinchwad - MPCB",12-03-2024 08:00:00,18.59051,73.77946,OZONE,1,82,17
India,Maharashtra,Pimpri-Chinchwad,"Thergaon, Pimpri Chinchwad - MPCB",12-03-2024 08:00:00,18.616318,73.765797,NO2,40,157,104
India,Maharashtra,Pimpri-Chinchwad,"Thergaon, Pimpri Chinchwad - MPCB",12-03-2024 08:00:00,18.616318,73.765797,SO2,4,4,4
India,Maharashtra,Pimpri-Chinchwad,"Thergaon, Pimpri Chinchwad - MPCB",12-03-2024 08:00:00,18.616318,73.765797,OZONE,3,130,17
India,Maharashtra,Pune,"Karve Road, Pune - MPCB",12-03-2024 08:00:00,18.5011743,73.8165527,SO2,23,29,24
India,Maharashtra,Pune,"Katraj Dairy, Pune - MPCB",12-03-2024 08:00:00,18.454450,73.854155,PM2.5,39,260,96
India,Maharashtra,Pune,"Katraj Dairy, Pune - MPCB",12-03-2024 08:00:00,18.454450,73.854155,NO2,18,21,19
India,Maharashtra,Pune,"Revenue Colony-Shivajinagar, Pune - IITM",12-03-2024 08:00:00,18.530085,73.849598,SO2,49,122,94
India,Maharashtra,Pune,"Revenue Colony-Shivajinagar, Pune - IITM",12-03-2024 08:00:00,18.530085,73.849598,OZONE,1,46,8
India,Maharashtra,Pune,"Transport Nagar-Nigdi, Pune - IITM",12-03-2024 08:00:00,18.664282,73.763966,PM10,48,146,94
India,Maharashtra,Sangli,"Vijay Nagar, Sangli - MPCB",12-03-2024 08:00:00, 16.5038,74.3623,SO2,12,44,26
India,Maharashtra,Solapur,"Dnyaneshwar Nagar, Solapur - MPCB",12-03-2024 08:00:00,17.6336264,75.9132495,NO2,NA,NA,NA
India,Maharashtra,Solapur,"Dnyaneshwar Nagar, Solapur - MPCB",12-03-2024 08:00:00,17.6336264,75.9132495,NH3,NA,NA,NA
India,Maharashtra,Solapur,"Ratandeep Housing Society, Solapur - MPCB",12-03-2024 08:00:00,17.65439,75.90649,PM2.5,88,285,151
India,Maharashtra,Solapur,"Solapur, Solapur - MPCB",12-03-2024 08:00:00,17.6599188,75.9063906,PM2.5,NA,NA,NA
India,Maharashtra,Solapur,"Solapur, Solapur - MPCB",12-03-2024 08:00:00,17.6599188,75.9063906,PM10,NA,NA,NA
India,Maharashtra,Solapur,"Solapur, Solapur - MPCB",12-03-2024 08:00:00,17.6599188,75.9063906,NO2,NA,NA,NA
India,Maharashtra,Solapur,"Solapur, Solapur - MPCB",12-03-2024 08:00:00,17.6599188,75.9063906,SO2,NA,NA,NA
India,Maharashtra,Thane,"Kasarvadavali, Thane - MPCB",12-03-2024 08:00:00,19.26777,72.97182,CO,14,65,25
India,Maharashtra,Thane,"Pimpleshwar Mandir, Thane - MPCB",12-03-2024 08:00:00,19.192056,72.9585188,OZONE,1,67,5
India,Maharashtra,Thane,"Upvan Fort, Thane - MPCB",12-03-2024 08:00:00,19.222279,72.957979,PM10,80,157,120
India,Maharashtra,Ulhasnagar,"Sidhi Vinayak Nagar, Ulhasnagar - MPCB",12-03-2024 08:00:00,19.235581,73.159121,NO2,6,53,25
India,Maharashtra,Ulhasnagar,"Sidhi Vinayak Nagar, Ulhasnagar - MPCB",12-03-2024 08:00:00,19.235581,73.159121,SO2,7,50,18
India,Maharashtra,Virar,"Bolinj, Virar - MPCB",12-03-2024 08:00:00,19.4458210,72.7988231,PM2.5,66,298,135
India,Manipur,Imphal,"Manipur University, Imphal - Manipur PCB",12-03-2024 08:00:00,24.7524239,93.9286218,PM2.5,43,303,122
India,Manipur,Imphal,"Manipur University, Imphal - Manipur PCB",12-03-2024 08:00:00,24.7524239,93.9286218,NH3,NA,NA,NA
India,Manipur,Imphal,"Manipur University, Imphal - Manipur PCB",12-03-2024 08:00:00,24.7524239,93.9286218,SO2,72,79,76
India,Meghalaya,Shillong,"Lumpyngngad, Shillong - Meghalaya PCB",12-03-2024 08:00:00,25.5586,91.8985,PM2.5,NA,NA,NA
India,Meghalaya,Shillong,"Lumpyngngad, Shillong - Meghalaya PCB",12-03-2024 08:00:00,25.5586,91.8985,NH3,NA,NA,NA
India,Meghalaya,Shillong,"Lumpyngngad, Shillong - Meghalaya PCB",12-03-2024 08:00:00,25.5586,91.8985,OZONE,55,151,117
India,Mizoram,Aizawl,"Sikulpuikawn, Aizawl - Mizoram PCB",12-03-2024 08:00:00,23.7176342,92.7192841,SO2,2,2,2
India,Mizoram,Aizawl,"Sikulpuikawn, Aizawl - Mizoram PCB",12-03-2024 08:00:00,23.7176342,92.7192841,CO,12,22,19
India,Nagaland,Kohima,"PWD Juction, Kohima - NPCB",12-03-2024 08:00:00,25.6635413,94.0989878,PM10,66,154,111
India,Nagaland,Kohima,"PWD Juction, Kohima - NPCB",12-03-2024 08:00:00,25.6635413,94.0989878,NH3,1,1,1
India,Nagaland,Kohima,"PWD Juction, Kohima - NPCB",12-03-2024 08:00:00,25.6635413,94.0989878,OZONE,12,30,14
India,Odisha,Angul,"Hakimapada, Angul - OSPCB",12-03-2024 08:00:00,20.832874,85.104082,SO2,4,110,39
India,Odisha,Balasore,"Kalidaspur, Balasore - OSPCB",12-03-2024 08:00:00,21.51161,86.89088,PM2.5,37,150,64
India,Odisha,Balasore,"Kalidaspur, Balasore - OSPCB",12-03-2024 08:00:00,21.51161,86.89088,NO2,1,16,4
India,Odisha,Barbil,"Forest Office, Barbil - OSPCB",12-03-2024 08:00:00,22.1166054,85.3945546,SO2,2,11,6
India,Odisha,Barbil,"Forest Office, Barbil - OSPCB",12-03-2024 08:00:00,22.1166054,85.3945546,CO,2,108,64
India,Odisha,Bhubaneswar,"Lingraj Mandir, Bhubaneswar - OSPCB",12-03-2024 08:00:00,20.240790,85.836784,NH3,3,7,5
India,Odisha,Bhubaneswar,"Patia, Bhubaneswar - OSPCB",12-03-2024 08:00:00,20.34652,85.81630,PM10,65,179,99
India,Odisha,Bhubaneswar,"Patia, Bhubaneswar - OSPCB",12-03-2024 08:00:00,20.34652,85.81630,OZONE,35,103,44
India,Odisha,Bileipada,"Tata Township, Bileipada - OSPCB",12-03-2024 08:00:00,22.06156703,85.47409613,SO2,14,28,20
India,Odisha,Byasanagar,"Ferro Chrome Colony, Byasanagar - OSPCB",12-03-2024 08:00:00,20.94185,86.11510,PM10,58,134,90
India,Odisha,Byasanagar,"Ferro Chrome Colony, Byasanagar - OSPCB",12-03-2024 08:00:00,20.94185,86.11510,NO2,8,17,12
India,Odisha,Keonjhar,"Jagamohanpur, Keonjhar - OSPCB",12-03-2024 08:00:00,21.643900,85.599355,SO2,12,16,14
India,Odisha,Nayagarh,"Dabuna, Nayagarh - OSPCB",12-03-2024 08:00:00,21.847279,85.416905,OZONE,1,16,2
India,Odisha,Rairangpur,"Divisional Forest Office, Rairangpur - OSPCB",12-03-2024 08:00:00,22.265816,86.174829,PM2.5,15,108,75
India,Odisha,Rairangpur,"Divisional Forest Office, Rairangpur - OSPCB",12-03-2024 08:00:00,22.265816,86.174829,NO2,7,8,7
India,Odisha,Rairangpur,"Divisional Forest Office, Rairangpur - OSPCB",12-03-2024 08:00:00,22.265816,86.174829,SO2,2,4,3
India,Odisha,Rourkela,"Raghunathpali, Rourkela - OSPCB",12-03-2024 08:00:00,22.220833,84.809444,SO2,1,11,4
India,Odisha,Rourkela,"Raghunathpali, Rourkela - OSPCB",12-03-2024 08:00:00,22.220833,84.809444,OZONE,24,137,30
India,Odisha,Talcher,"Talcher Coalfields,Talcher - OSPCB",12-03-2024 08:00:00,20.9360711,85.1707021,PM2.5,25,324,104
India,Odisha,Talcher,"Talcher Coalfields,Talcher - OSPCB",12-03-2024 08:00:00,20.9360711,85.1707021,SO2,12,38,19
India,Odisha,Talcher,"Talcher Coalfields,Talcher - OSPCB",12-03-2024 08:00:00,20.9360711,85.1707021,CO,16,45,24
India,Odisha,Tensa,"Barsua Iron Ore Mines, Tensa - OSPCB",12-03-2024 08:00:00,21.869985,85.167016,PM2.5,52,114,83
India,Odisha,Tensa,"Barsua Iron Ore Mines, Tensa - OSPCB",12-03-2024 08:00:00,21.869985,85.167016,NO2,29,57,44
India,Odisha,Tensa,"Barsua Iron Ore Mines, Tensa - OSPCB",12-03-2024 08:00:00,21.869985,85.167016,NH3,6,9,7
India,Puducherry,Puducherry,"Jawahar Nagar, Puducherry - PPCC",12-03-2024 08:00:00,11.9309,79.8027,NH3,2,4,3
India,Punjab,Amritsar,"Golden Temple, Amritsar - PPCB",12-03-2024 08:00:00,31.620000,74.876512,PM10,NA,NA,NA
India,Punjab,Amritsar,"Golden Temple, Amritsar - PPCB",12-03-2024 08:00:00,31.620000,74.876512,NO2,6,24,12
India,Punjab,Amritsar,"Golden Temple, Amritsar - PPCB",12-03-2024 08:00:00,31.620000,74.876512,SO2,1,39,17
India,Punjab,Amritsar,"Golden Temple, Amritsar - PPCB",12-03-2024 08:00:00,31.620000,74.876512,OZONE,17,66,58
India,Punjab,Bathinda,"Hardev Nagar, Bathinda - PPCB",12-03-2024 08:00:00,30.233011,74.907758,SO2,1,22,9
India,Punjab,Jalandhar,"Civil Line, Jalandhar - PPCB",12-03-2024 08:00:00,31.321907,75.578914,PM10,51,135,98
India,Punjab,Khanna,"Kalal Majra, Khanna - PPCB",12-03-2024 08:00:00,30.736056 ,76.209694,PM2.5,53,147,83
India,Punjab,Khanna,"Kalal Majra, Khanna - PPCB",12-03-2024 08:00:00,30.736056 ,76.209694,PM10,55,104,72
India,Punjab,Khanna,"Kalal Majra, Khanna - PPCB",12-03-2024 08:00:00,30.736056 ,76.209694,NO2,27,31,28
India,Punjab,Khanna,"Kalal Majra, Khanna - PPCB",12-03-2024 08:00:00,30.736056 ,76.209694,NH3,14,15,14
India,Punjab,Khanna,"Kalal Majra, Khanna - PPCB",12-03-2024 08:00:00,30.736056 ,76.209694,SO2,10,29,16
India,Punjab,Mandi Gobindgarh,"RIMT University, Mandi Gobindgarh - PPCB",12-03-2024 08:00:00,30.649961,76.331442,NO2,17,32,20
India,Punjab,Patiala,"Model Town, Patiala - PPCB",12-03-2024 08:00:00,30.349388,76.366642,PM2.5,65,185,113
India,Rajasthan,Ajmer,"Civil Lines,  Ajmer - RSPCB",12-03-2024 08:00:00,26.470859,74.646594,PM2.5,54,186,99
India,Rajasthan,Ajmer,"Civil Lines,  Ajmer - RSPCB",12-03-2024 08:00:00,26.470859,74.646594,SO2,14,31,20
India,Rajasthan,Alwar,"Moti Doongri, Alwar - RSPCB",12-03-2024 08:00:00,27.554793,76.611536,PM10,67,130,97
India,Rajasthan,Alwar,"Moti Doongri, Alwar - RSPCB",12-03-2024 08:00:00,27.554793,76.611536,CO,3,102,54
India,Rajasthan,Alwar,"Moti Doongri, Alwar - RSPCB",12-03-2024 08:00:00,27.554793,76.611536,OZONE,17,31,21
India,Rajasthan,Bhilwara,"Pratap Nagar, Bhilwara - RSPCB",12-03-2024 08:00:00,25.339605,74.618883,CO,12,81,28
India,Rajasthan,Bhiwadi,"RIICO Ind. Area III, Bhiwadi - RSPCB",12-03-2024 08:00:00,28.194909,76.862296,PM2.5,77,114,104
India,Rajasthan,Bhiwadi,"Vasundhara Nagar_UIT, Bhiwadi - RSPCB",12-03-2024 08:00:00,28.207266,76.829265,PM10,90,402,195
India,Rajasthan,Bhiwadi,"Vasundhara Nagar_UIT, Bhiwadi - RSPCB",12-03-2024 08:00:00,28.207266,76.829265,NH3,5,29,14
India,Rajasthan,Bhiwadi,"Vasundhara Nagar_UIT, Bhiwadi - RSPCB",12-03-2024 08:00:00,28.207266,76.829265,CO,16,64,44
India,Rajasthan,Bikaner,"MM Ground, Bikaner - RSPCB",12-03-2024 08:00:00,28.018792,73.292658,OZONE,34,91,69
India,Rajasthan,Chittorgarh,"Shastri Nagar, Chittorgarh - RSPCB",12-03-2024 08:00:00,24.892047,74.623527,PM2.5,47,332,90
India,Rajasthan,Churu,"Subash Chowk, Churu - RSPCB",12-03-2024 08:00:00,28.296139,74.961696,PM2.5,27,298,81
India,Rajasthan,Churu,"Subash Chowk, Churu - RSPCB",12-03-2024 08:00:00,28.296139,74.961696,CO,20,52,33
India,Rajasthan,Dausa,"Khatikan Mohalla, Dausa - RSPCB",12-03-2024 08:00:00,26.895552,76.334753,NH3,7,9,8
India,Rajasthan,Dausa,"Khatikan Mohalla, Dausa - RSPCB",12-03-2024 08:00:00,26.895552,76.334753,CO,12,103,25
India,Rajasthan,Dholpur,"Raja Ganj, Dholpur - RSPCB",12-03-2024 08:00:00,26.699557,77.898881,PM2.5,NA,NA,NA
India,Rajasthan,Dholpur,"Raja Ganj, Dholpur - RSPCB",12-03-2024 08:00:00,26.699557,77.898881,NO2,7,68,24
India,Rajasthan,Dungarpur,"Bhoiwada, Dungarpur - RSPCB",12-03-2024 08:00:00,23.837789,73.714926,PM10,38,500,94
India,Rajasthan,Dungarpur,"Bhoiwada, Dungarpur - RSPCB",12-03-2024 08:00:00,23.837789,73.714926,NO2,13,29,18
India,Rajasthan,Hanumangarh,"Housing Board, Hanumangarh - RSPCB",12-03-2024 08:00:00,29.610750,74.283608,OZONE,6,46,12
India,Rajasthan,Jaipur,"Adarsh Nagar, Jaipur - RSPCB",12-03-2024 08:00:00,26.902909,75.836858,PM10,42,108,86
India,Rajasthan,Jaipur,"Mansarovar Sector-12, Jaipur - RSPCB",12-03-2024 08:00:00,26.843698,75.766894,SO2,3,6,5
India,Rajasthan,Jaipur,"RIICO Sitapura, Jaipur - RSPCB",12-03-2024 08:00:00,26.786682,75.827928,PM10,76,286,154
India,Rajasthan,Jaipur,"RIICO Sitapura, Jaipur - RSPCB",12-03-2024 08:00:00,26.786682,75.827928,OZONE,3,105,53
India,Rajasthan,Jaipur,"Sector-2 Murlipura, Jaipur - RSPCB",12-03-2024 08:00:00,26.960669,75.771817,CO,6,105,24
India,Rajasthan,Jaipur,"Sector-2 Murlipura, Jaipur - RSPCB",12-03-2024 08:00:00,26.960669,75.771817,OZONE,8,136,88
India,Rajasthan,Jaipur,"Shastri Nagar, Jaipur - RSPCB",12-03-2024 08:00:00,26.9502929,75.730943,PM2.5,57,149,100
India,Rajasthan,Jaipur,"Shastri Nagar, Jaipur - RSPCB",12-03-2024 08:00:00,26.9502929,75.730943,NH3,1,20,7
India,Rajasthan,Jaipur,"Shastri Nagar, Jaipur - RSPCB",12-03-2024 08:00:00,26.9502929,75.730943,OZONE,37,84,59
India,Rajasthan,Jaisalmer,"Sadar Bazar, Jaisalmer - RSPCB",12-03-2024 08:00:00,26.912329,70.909168,PM10,55,178,96
India,Rajasthan,Jalore,"Mudtra Sili, Jalore - RSPCB",12-03-2024 08:00:00,25.344694,72.626208,PM2.5,21,334,58
India,Rajasthan,Jalore,"Mudtra Sili, Jalore - RSPCB",12-03-2024 08:00:00,25.344694,72.626208,NH3,5,10,7
India,Rajasthan,Jalore,"Mudtra Sili, Jalore - RSPCB",12-03-2024 08:00:00,25.344694,72.626208,SO2,2,11,5
India,Rajasthan,Jhalawar,"Rajlaxmi Nagar, Jhalawar - RSPCB",12-03-2024 08:00:00,24.588397,76.172782,PM2.5,31,239,82
India,Rajasthan,Jhunjhunu,"Indra Nagar, Jhunjhunu - RSPCB",12-03-2024 08:00:00,28.108988,75.386577,NH3,12,35,21
India,Rajasthan,Jodhpur,"Collectorate, Jodhpur - RSPCB",12-03-2024 08:00:00,26.268249,73.0193853,PM2.5,15,240,105
India,Rajasthan,Jodhpur,"Collectorate, Jodhpur - RSPCB",12-03-2024 08:00:00,26.268249,73.0193853,CO,24,91,65
India,Rajasthan,Jodhpur,"Jhalamand, Jodhpur - RSPCB",12-03-2024 08:00:00,26.215415,73.070156,OZONE,16,83,50
India,Rajasthan,Jodhpur,"Mandor, Jodhpur - RSPCB",12-03-2024 08:00:00,26.358805,73.047444,PM2.5,17,83,43
India,Rajasthan,Jodhpur,"Mandor, Jodhpur - RSPCB",12-03-2024 08:00:00,26.358805,73.047444,PM10,38,122,71
India,Rajasthan,Karauli,"Satyawati Vihar, Karauli - RSPCB",12-03-2024 08:00:00,26.506177,77.025989,PM10,61,118,84
India,Rajasthan,Karauli,"Satyawati Vihar, Karauli - RSPCB",12-03-2024 08:00:00,26.506177,77.025989,SO2,6,15,9
India,Rajasthan,Kota,"Dhanmandi, Kota - RSPCB",12-03-2024 08:00:00,25.164090,75.858137,NH3,4,6,5
India,Rajasthan,Kota,"Nayapura, Kota - RSPCB",12-03-2024 08:00:00,25.196024,75.855668,CO,40,111,67
India,Rajasthan,Kota,"Shrinath Puram, Kota - RSPCB",12-03-2024 08:00:00,25.14389,75.821256,CO,40,113,52
India,Rajasthan,Nagaur,"Karni Colony, Nagaur - RSPCB",12-03-2024 08:00:00,27.213494,73.734444,PM10,NA,NA,NA
India,Rajasthan,Pali,"Indira Colony Vistar, Pali - RSPCB",12-03-2024 08:00:00,25.771061, 73.340227,PM10,66,151,104
India,Rajasthan,Pali,"Indira Colony Vistar, Pali - RSPCB",12-03-2024 08:00:00,25.771061, 73.340227,SO2,12,35,18
India,Rajasthan,Pratapgarh,"Pragati Nagar, Pratapgarh - RSPCB",12-03-2024 08:00:00,24.041198,74.780702,NH3,4,9,6
India,Rajasthan,Rajsamand,"Dhoinda, Rajsamand - RSPCB",12-03-2024 08:00:00,25.036360,73.883502,NH3,4,5,4
India,Rajasthan,Sawai Madhopur,"Sahu Nagar, Sawai Madhopur - RSPCB",12-03-2024 08:00:00,26.031443,76.359327,PM2.5,57,247,126
India,Rajasthan,Sawai Madhopur,"Sahu Nagar, Sawai Madhopur - RSPCB",12-03-2024 08:00:00,26.031443,76.359327,PM10,60,154,95
India,Rajasthan,Sawai Madhopur,"Sahu Nagar, Sawai Madhopur - RSPCB",12-03-2024 08:00:00,26.031443,76.359327,CO,16,69,45
India,Rajasthan,Sikar,"Radhakishan Pura, Sikar - RSPCB",12-03-2024 08:00:00,27.608912,75.153302,PM2.5,45,161,72
India,Rajasthan,Sri Ganganagar,"Old City, Sri Ganganagar - RSPCB",12-03-2024 08:00:00,29.931624,73.864511,CO,1,120,27
India,Rajasthan,Tonk,"Shastri Nagar, Tonk - RSPCB",12-03-2024 08:00:00,26.159933,75.780517,PM10,94,500,173
India,Rajasthan,Tonk,"Shastri Nagar, Tonk - RSPCB",12-03-2024 08:00:00,26.159933,75.780517,NH3,6,32,11
India,Rajasthan,Tonk,"Shastri Nagar, Tonk - RSPCB",12-03-2024 08:00:00,26.159933,75.780517,CO,18,122,27
India,Rajasthan,Udaipur,"Ashok Nagar, Udaipur - RSPCB",12-03-2024 08:00:00,24.5886166,73.6321397,PM2.5,44,235,88
India,Rajasthan,Udaipur,"Ashok Nagar, Udaipur - RSPCB",12-03-2024 08:00:00,24.5886166,73.6321397,NH3,9,11,10
India,Sikkim,Gangtok,"Zero Point GICI, Gangtok - SSPCB",12-03-2024 08:00:00,27.338530,88.614099,PM2.5,24,68,46
India,Sikkim,Gangtok,"Zero Point GICI, Gangtok - SSPCB",12-03-2024 08:00:00,27.338530,88.614099,PM10,33,100,73
India,Sikkim,Gangtok,"Zero Point GICI, Gangtok - SSPCB",12-03-2024 08:00:00,27.338530,88.614099,CO,18,48,37
India,TamilNadu,Chengalpattu,"Crescent University, Chengalpattu - TNPCB",12-03-2024 08:00:00,12.8777316,80.0834807,PM10,27,66,44
India,TamilNadu,Chennai,"Alandur Bus Depot, Chennai - CPCB",12-03-2024 08:00:00,12.9099161,80.1076538,NO2,12,89,20
India,TamilNadu,Chennai,"Alandur Bus Depot, Chennai - CPCB",12-03-2024 08:00:00,12.9099161,80.1076538,SO2,2,17,7
India,TamilNadu,Chennai,"Manali, Chennai - CPCB",12-03-2024 08:00:00,13.164544,80.26285,NH3,4,5,4
India,TamilNadu,Chennai,"Manali, Chennai - CPCB",12-03-2024 08:00:00,13.164544,80.26285,SO2,4,24,9
India,TamilNadu,Chennai,"Perungudi, Chennai - TNPCB",12-03-2024 08:00:00,12.9533,80.2357,PM10,45,99,72
India,TamilNadu,Chennai,"Perungudi, Chennai - TNPCB",12-03-2024 08:00:00,12.9533,80.2357,SO2,1,8,4
India,TamilNadu,Chennai,"Perungudi, Chennai - TNPCB",12-03-2024 08:00:00,12.9533,80.2357,CO,4,74,18
India,TamilNadu,Chennai,"Royapuram, Chennai - TNPCB",12-03-2024 08:00:00,13.1036,80.2909,OZONE,9,11,9
India,TamilNadu,Coimbatore,"PSG College of Arts and Science, Coimbatore - TNPCB",12-03-2024 08:00:00,11.0328,77.0349,PM2.5,52,133,81
India,TamilNadu,Coimbatore,"PSG College of Arts and Science, Coimbatore - TNPCB",12-03-2024 08:00:00,11.0328,77.0349,NO2,4,10,5
India,TamilNadu,Coimbatore,"PSG College of Arts and Science, Coimbatore - TNPCB",12-03-2024 08:00:00,11.0328,77.0349,CO,5,5,5
India,TamilNadu,Cuddalore,"Kudikadu, Cuddalore - TNPCB",12-03-2024 08:00:00,11.6829898,79.7532099,NO2,22,30,26
India,TamilNadu,Cuddalore,"Kudikadu, Cuddalore - TNPCB",12-03-2024 08:00:00,11.6829898,79.7532099,SO2,11,13,12
India,TamilNadu,Gummidipoondi,"Anthoni Pillai Nagar, Gummidipoondi - TNPCB",12-03-2024 08:00:00,13.4127,80.1081,PM2.5,53,216,101
India,TamilNadu,Gummidipoondi,"Anthoni Pillai Nagar, Gummidipoondi - TNPCB",12-03-2024 08:00:00,13.4127,80.1081,NO2,9,20,13
India,TamilNadu,Kanchipuram,"Kilambi, Kanchipuram - TNPCB",12-03-2024 08:00:00,12.864618,79.659968,PM10,NA,NA,NA
India,TamilNadu,Kanchipuram,"Kilambi, Kanchipuram - TNPCB",12-03-2024 08:00:00,12.864618,79.659968,NH3,NA,NA,NA
India,TamilNadu,Ooty,"Bombay Castel, Ooty - TNPCB",12-03-2024 08:00:00,11.4068288,76.7138973,NO2,NA,NA,NA
India,TamilNadu,Palkalaiperur,"Bharathidasan University, Palkalaiperur - TNPCB",12-03-2024 08:00:00,10.681158,78.741746,PM2.5,32,53,44
India,TamilNadu,Palkalaiperur,"Bharathidasan University, Palkalaiperur - TNPCB",12-03-2024 08:00:00,10.681158,78.741746,PM10,40,67,56
India,TamilNadu,Palkalaiperur,"Bharathidasan University, Palkalaiperur - TNPCB",12-03-2024 08:00:00,10.681158,78.741746,SO2,27,29,28
India,TamilNadu,Palkalaiperur,"Bharathidasan University, Palkalaiperur - TNPCB",12-03-2024 08:00:00,10.681158,78.741746,OZONE,1,1,1
India,TamilNadu,Ramanathapuram,"Chalai Bazaar, Ramanathapuram - TNPCB",12-03-2024 08:00:00,9.36399,78.831977,PM2.5,NA,NA,NA
India,TamilNadu,Ramanathapuram,"Chalai Bazaar, Ramanathapuram - TNPCB",12-03-2024 08:00:00,9.36399,78.831977,SO2,NA,NA,NA
India,TamilNadu,Thoothukudi,"Meelavittan, Thoothukudi - TNPCB",12-03-2024 08:00:00,8.816428 ,78.099039,NO2,15,22,18
India,TamilNadu,Thoothukudi,"Meelavittan, Thoothukudi - TNPCB",12-03-2024 08:00:00,8.816428 ,78.099039,SO2,NA,NA,NA
India,TamilNadu,Thoothukudi,"Meelavittan, Thoothukudi - TNPCB",12-03-2024 08:00:00,8.816428 ,78.099039,OZONE,3,10,6
India,Telangana,Hyderabad,"Bollaram Industrial Area, Hyderabad - TSPCB",12-03-2024 08:00:00,17.540891,78.358528,OZONE,36,39,37
India,Telangana,Hyderabad,"Central University, Hyderabad - TSPCB",12-03-2024 08:00:00,17.460103,78.334361,PM10,70,106,84
India,Telangana,Hyderabad,"ECIL Kapra, Hyderabad - TSPCB",12-03-2024 08:00:00,17.470431,78.566959,OZONE,3,50,7
India,Telangana,Hyderabad,"Kokapet, Hyderabad - TSPCB",12-03-2024 08:00:00,17.393559,78.339194,NH3,NA,NA,NA
India,Telangana,Hyderabad,"Kokapet, Hyderabad - TSPCB",12-03-2024 08:00:00,17.393559,78.339194,SO2,NA,NA,NA
India,Telangana,Hyderabad,"Kompally Municipal Office, Hyderabad - TSPCB",12-03-2024 08:00:00,17.544899,78.486949,PM10,42,51,46
India,Telangana,Hyderabad,"Kompally Municipal Office, Hyderabad - TSPCB",12-03-2024 08:00:00,17.544899,78.486949,NO2,12,12,12
India,Telangana,Hyderabad,"Kompally Municipal Office, Hyderabad - TSPCB",12-03-2024 08:00:00,17.544899,78.486949,OZONE,3,118,13
India,Telangana,Hyderabad,"Nacharam_TSIIC IALA, Hyderabad - TSPCB",12-03-2024 08:00:00,17.429398,78.569354,SO2,4,39,17
India,Telangana,Hyderabad,"Nacharam_TSIIC IALA, Hyderabad - TSPCB",12-03-2024 08:00:00,17.429398,78.569354,OZONE,12,57,14
India,Telangana,Hyderabad,"New Malakpet, Hyderabad - TSPCB",12-03-2024 08:00:00,17.37206,78.50864,NH3,4,4,4
India,Telangana,Hyderabad,"Sanathnagar, Hyderabad - TSPCB",12-03-2024 08:00:00,17.4559458,78.4332152,CO,32,51,45
India,Telangana,Hyderabad,"Sanathnagar, Hyderabad - TSPCB",12-03-2024 08:00:00,17.4559458,78.4332152,OZONE,14,16,15
India,Telangana,Hyderabad,"Zoo Park, Hyderabad - TSPCB",12-03-2024 08:00:00,17.349694,78.451437,PM10,48,157,100
India,Tripura,Agartala,"Bardowali, Agartala - Tripura SPCB",12-03-2024 08:00:00,23.8175497,91.2726974,NH3,2,4,3
India,Uttar_Pradesh,Agra,"Manoharpur, Agra - UPPCB",12-03-2024 08:00:00,27.23711,78.01936,NO2,19,20,19
India,Uttar_Pradesh,Agra,"Sanjay Palace, Agra - UPPCB",12-03-2024 08:00:00,27.19865833,78.00598056,OZONE,28,70,48
India,Uttar_Pradesh,Agra,"Shahjahan Garden, Agra - UPPCB",12-03-2024 08:00:00,27.169338,78.03582,NH3,NA,NA,NA
India,Uttar_Pradesh,Agra,"Shahjahan Garden, Agra - UPPCB",12-03-2024 08:00:00,27.169338,78.03582,CO,NA,NA,NA
India,Uttar_Pradesh,Agra,"Shastripuram, Agra - UPPCB",12-03-2024 08:00:00,27.19862,77.92066,CO,10,22,19
India,Uttar_Pradesh,Bareilly,"Rajendra Nagar, Bareilly - UPPCB",12-03-2024 08:00:00,28.38910936,79.42963708,PM2.5,22,55,43
India,Uttar_Pradesh,Firozabad,"Nagla Bhau, Firozabad - UPPCB",12-03-2024 08:00:00,27.168897,78.376960,CO,20,28,27
India,Uttar_Pradesh,Firozabad,"Vibhab Nagar, Firozabad - UPPCB",12-03-2024 08:00:00,27.1594,78.3953,PM2.5,48,138,78
India,Uttar_Pradesh,Firozabad,"Vibhab Nagar, Firozabad - UPPCB",12-03-2024 08:00:00,27.1594,78.3953,NH3,2,2,2
India,Uttar_Pradesh,Firozabad,"Vibhab Nagar, Firozabad - UPPCB",12-03-2024 08:00:00,27.1594,78.3953,SO2,12,23,16
India,Uttar_Pradesh,Ghaziabad,"Indirapuram, Ghaziabad - UPPCB",12-03-2024 08:00:00,28.646233,77.358075,NO2,42,91,65
India,Uttar_Pradesh,Ghaziabad,"Indirapuram, Ghaziabad - UPPCB",12-03-2024 08:00:00,28.646233,77.358075,SO2,10,21,17
India,Uttar_Pradesh,Ghaziabad,"Loni, Ghaziabad - UPPCB",12-03-2024 08:00:00,28.757294,77.278792,PM2.5,36,328,151
India,Uttar_Pradesh,Ghaziabad,"Loni, Ghaziabad - UPPCB",12-03-2024 08:00:00,28.757294,77.278792,PM10,90,290,148
India,Uttar_Pradesh,Ghaziabad,"Vasundhara, Ghaziabad - UPPCB",12-03-2024 08:00:00,28.6603346,77.3572563,PM2.5,55,276,129
India,Uttar_Pradesh,Ghaziabad,"Vasundhara, Ghaziabad - UPPCB",12-03-2024 08:00:00,28.6603346,77.3572563,OZONE,6,157,23
India,Uttar_Pradesh,Gorakhpur,"Madan Mohan Malaviya University of Technology, Gorakhpur - UPPCB",12-03-2024 08:00:00,26.730136,83.433859,PM10,78,195,132
India,Uttar_Pradesh,Gorakhpur,"Madan Mohan Malaviya University of Technology, Gorakhpur - UPPCB",12-03-2024 08:00:00,26.730136,83.433859,SO2,30,50,36
India,Uttar_Pradesh,Greater Noida,"Knowledge Park - V, Greater Noida - UPPCB",12-03-2024 08:00:00,28.557054,77.453663,NO2,18,49,34
India,Uttar_Pradesh,Greater Noida,"Knowledge Park - V, Greater Noida - UPPCB",12-03-2024 08:00:00,28.557054,77.453663,SO2,18,34,23
India,Uttar_Pradesh,Hapur,"Anand Vihar, Hapur - UPPCB",12-03-2024 08:00:00,28.725645,77.749675,PM2.5,44,314,127
India,Uttar_Pradesh,Jhansi,"Shivaji Nagar, Jhansi - UPPCB",12-03-2024 08:00:00,25.4547,78.6039,NH3,6,6,6
India,Uttar_Pradesh,Jhansi,"Shivaji Nagar, Jhansi - UPPCB",12-03-2024 08:00:00,25.4547,78.6039,OZONE,6,33,10
India,Uttar_Pradesh,Kanpur,"Nehru Nagar, Kanpur - UPPCB",12-03-2024 08:00:00,26.4703136,80.3229863,PM2.5,41,175,84
India,Uttar_Pradesh,Khurja,"Kalindi Kunj, Khurja - UPPCB",12-03-2024 08:00:00,28.2348927,77.8683002,PM2.5,10,312,114
India,Uttar_Pradesh,Lucknow,"B R Ambedkar University, Lucknow - UPPCB",12-03-2024 08:00:00,26.766433,80.927299,SO2,27,33,30
India,Uttar_Pradesh,Lucknow,"B R Ambedkar University, Lucknow - UPPCB",12-03-2024 08:00:00,26.766433,80.927299,CO,26,44,35
India,Uttar_Pradesh,Lucknow,"Gomti Nagar, Lucknow - UPPCB",12-03-2024 08:00:00,26.868120,81.005119,SO2,2,14,9
India,Uttar_Pradesh,Lucknow,"Kukrail Picnic Spot-1, Lucknow - UPPCB",12-03-2024 08:00:00,26.90723,80.98579,NH3,2,2,2
India,Uttar_Pradesh,Lucknow,"Lalbagh, Lucknow - CPCB",12-03-2024 08:00:00,26.8458805,80.9365541,NH3,5,11,8
India,Uttar_Pradesh,Lucknow,"Talkatora District Industries Center, Lucknow - CPCB",12-03-2024 08:00:00,26.83399722,80.8917361,PM2.5,7,301,124
India,Uttar_Pradesh,Lucknow,"Talkatora District Industries Center, Lucknow - CPCB",12-03-2024 08:00:00,26.83399722,80.8917361,CO,4,42,25
India,Uttar_Pradesh,Lucknow,"Talkatora District Industries Center, Lucknow - CPCB",12-03-2024 08:00:00,26.83399722,80.8917361,OZONE,2,59,5
India,Uttar_Pradesh,Meerut,"Jai Bhim Nagar, Meerut - UPPCB",12-03-2024 08:00:00,28.9535882,77.7622941,NH3,4,8,6
India,Uttar_Pradesh,Meerut,"Jai Bhim Nagar, Meerut - UPPCB",12-03-2024 08:00:00,28.9535882,77.7622941,SO2,16,42,27
India,Uttar_Pradesh,Moradabad,"Buddhi Vihar, Moradabad - UPPCB",12-03-2024 08:00:00,28.83526,78.74460,PM2.5,43,300,117
India,Uttar_Pradesh,Moradabad,"Buddhi Vihar, Moradabad - UPPCB",12-03-2024 08:00:00,28.83526,78.74460,PM10,72,162,111
India,Uttar_Pradesh,Moradabad,"Buddhi Vihar, Moradabad - UPPCB",12-03-2024 08:00:00,28.83526,78.74460,CO,26,45,36
India,Uttar_Pradesh,Moradabad,"Eco Herbal Park, Moradabad - UPPCB",12-03-2024 08:00:00,28.840739,78.697531,NH3,NA,NA,NA
India,Uttar_Pradesh,Moradabad,"Eco Herbal Park, Moradabad - UPPCB",12-03-2024 08:00:00,28.840739,78.697531,CO,NA,NA,NA
India,Uttar_Pradesh,Moradabad,"Jigar Colony, Moradabad - UPPCB",12-03-2024 08:00:00,28.856664,78.772638,NH3,5,5,5
India,Uttar_Pradesh,Moradabad,"Jigar Colony, Moradabad - UPPCB",12-03-2024 08:00:00,28.856664,78.772638,CO,30,58,37
India,Uttar_Pradesh,Moradabad,"Transport Nagar, Moradabad - UPPCB",12-03-2024 08:00:00,28.802625,78.753728,NH3,5,6,6
India,Uttar_Pradesh,Muzaffarnagar,"New Mandi, Muzaffarnagar - UPPCB",12-03-2024 08:00:00,29.4723508,77.7194031,NO2,9,10,9
India,Uttar_Pradesh,Muzaffarnagar,"New Mandi, Muzaffarnagar - UPPCB",12-03-2024 08:00:00,29.4723508,77.7194031,NH3,4,4,4
India,Uttar_Pradesh,Noida,"Sector-1, Noida - UPPCB",12-03-2024 08:00:00,28.5898,77.3101,PM2.5,60,313,188
India,Uttar_Pradesh,Noida,"Sector-116, Noida - UPPCB",12-03-2024 08:00:00,28.569230,77.393848,OZONE,2,40,5
India,Uttar_Pradesh,Prayagraj,"Jhunsi, Prayagraj - UPPCB",12-03-2024 08:00:00,25.425602,81.917152,PM2.5,27,78,45
India,Uttar_Pradesh,Prayagraj,"Jhunsi, Prayagraj - UPPCB",12-03-2024 08:00:00,25.425602,81.917152,PM10,42,226,99
India,Uttar_Pradesh,Prayagraj,"Motilal Nehru NIT, Prayagraj - UPPCB",12-03-2024 08:00:00,25.494,81.863,CO,14,50,41
India,Uttar_Pradesh,Prayagraj,"Nagar Nigam, Prayagraj - UPPCB",12-03-2024 08:00:00,25.44919916 ,81.82735986 ,NO2,5,5,5
India,Uttar_Pradesh,Prayagraj,"Nagar Nigam, Prayagraj - UPPCB",12-03-2024 08:00:00,25.44919916 ,81.82735986 ,NH3,3,8,6
India,Uttar_Pradesh,Varanasi,"Ardhali Bazar, Varanasi - UPPCB",12-03-2024 08:00:00,25.3505986,82.9083074,PM2.5,13,57,29
India,Uttar_Pradesh,Varanasi,"Ardhali Bazar, Varanasi - UPPCB",12-03-2024 08:00:00,25.3505986,82.9083074,PM10,17,71,37
India,Uttar_Pradesh,Varanasi,"Ardhali Bazar, Varanasi - UPPCB",12-03-2024 08:00:00,25.3505986,82.9083074,CO,8,25,18
India,Uttar_Pradesh,Varanasi,"Bhelupur, Varanasi - UPPCB",12-03-2024 08:00:00,25.301778,82.996789,PM10,27,70,42
India,Uttar_Pradesh,Varanasi,"Bhelupur, Varanasi - UPPCB",12-03-2024 08:00:00,25.301778,82.996789,NO2,7,8,8
India,Uttar_Pradesh,Varanasi,"Bhelupur, Varanasi - UPPCB",12-03-2024 08:00:00,25.301778,82.996789,OZONE,NA,NA,NA
India,Uttar_Pradesh,Varanasi,"IESD Banaras Hindu University, Varanasi - UPPCB",12-03-2024 08:00:00,25.262326,82.995408,SO2,17,17,17
India,Uttar_Pradesh,Varanasi,"Maldahiya, Varanasi - UPPCB",12-03-2024 08:00:00,25.32393,82.99687,OZONE,1,41,1
India,Uttar_Pradesh,Vrindavan,"Omex Eternity, Vrindavan - UPPCB",12-03-2024 08:00:00,27.5714090,77.6557570,NO2,2,3,2
India,Uttar_Pradesh,Vrindavan,"Omex Eternity, Vrindavan - UPPCB",12-03-2024 08:00:00,27.5714090,77.6557570,CO,36,80,67
India,Uttar_Pradesh,Vrindavan,"Omex Eternity, Vrindavan - UPPCB",12-03-2024 08:00:00,27.5714090,77.6557570,OZONE,30,34,32
India,Uttarakhand,Dehradun,"Doon University, Dehradun - UKPCB",12-03-2024 08:00:00,30.269444,78.044167,PM2.5,42,209,121
India,West_Bengal,Asansol,"Asansol Court Area, Asansol - WBPCB",12-03-2024 08:00:00,23.685297,86.945968,PM2.5,88,319,212
India,West_Bengal,Barrackpore,"SVSPA Campus, Barrackpore - WBPCB",12-03-2024 08:00:00,22.7605581,88.3617589,PM10,NA,NA,NA
India,West_Bengal,Barrackpore,"SVSPA Campus, Barrackpore - WBPCB",12-03-2024 08:00:00,22.7605581,88.3617589,NO2,12,59,28
India,West_Bengal,Barrackpore,"SVSPA Campus, Barrackpore - WBPCB",12-03-2024 08:00:00,22.7605581,88.3617589,OZONE,NA,NA,NA
India,West_Bengal,Durgapur,"Sidhu Kanhu Indoor Stadium, Durgapur - WBPCB",12-03-2024 08:00:00,23.5404352,87.2892225,PM2.5,95,256,165
India,West_Bengal,Haldia,"Priyambada Housing Estate, Haldia - WBPCB",12-03-2024 08:00:00,22.06047,88.109737,PM10,33,148,87
India,West_Bengal,Haldia,"Priyambada Housing Estate, Haldia - WBPCB",12-03-2024 08:00:00,22.06047,88.109737,CO,19,38,21
India,West_Bengal,Howrah,"Belur Math, Howrah - WBPCB",12-03-2024 08:00:00,22.629801,88.352017,NO2,21,41,31
India,West_Bengal,Howrah,"Ghusuri, Howrah - WBPCB",12-03-2024 08:00:00,22.611968,88.347422,NH3,NA,NA,NA
India,West_Bengal,Howrah,"Padmapukur, Howrah - WBPCB",12-03-2024 08:00:00,22.5687319,88.2797276,CO,28,77,35
India,West_Bengal,Howrah,"Padmapukur, Howrah - WBPCB",12-03-2024 08:00:00,22.5687319,88.2797276,OZONE,7,99,14
India,West_Bengal,Kolkata,"Ballygunge, Kolkata - WBPCB",12-03-2024 08:00:00,22.5367507,88.3638022,NH3,NA,NA,NA
India,West_Bengal,Kolkata,"Fort William, Kolkata - WBPCB",12-03-2024 08:00:00,22.556640,88.342674,SO2,4,85,29
India,West_Bengal,Kolkata,"Jadavpur, Kolkata - WBPCB",12-03-2024 08:00:00,22.49929,88.36917,PM2.5,62,154,98
India,West_Bengal,Kolkata,"Jadavpur, Kolkata - WBPCB",12-03-2024 08:00:00,22.49929,88.36917,SO2,6,71,20
India,West_Bengal,Kolkata,"Jadavpur, Kolkata - WBPCB",12-03-2024 08:00:00,22.49929,88.36917,OZONE,17,152,25
India,West_Bengal,Kolkata,"Rabindra Sarobar, Kolkata - WBPCB",12-03-2024 08:00:00,22.51106,88.35142,PM10,43,107,78
India,West_Bengal,Siliguri,"Ward-32 Bapupara, Siliguri - WBPCB",12-03-2024 08:00:00,26.6879226,88.4152495,PM2.5,71,213,151
India,Andhra_Pradesh,Amaravati,"Secretariat, Amaravati - APPCB",12-03-2024 08:00:00,16.5150833,80.5181667,PM2.5,42,62,50
India,Andhra_Pradesh,Amaravati,"Secretariat, Amaravati - APPCB",12-03-2024 08:00:00,16.5150833,80.5181667,PM10,58,86,67
India,Andhra_Pradesh,Amaravati,"Secretariat, Amaravati - APPCB",12-03-2024 08:00:00,16.5150833,80.5181667,SO2,10,16,12
India,Andhra_Pradesh,Anantapur,"Gulzarpet, Anantapur - APPCB",12-03-2024 08:00:00,14.675886,77.593027,OZONE,11,57,21
India,Andhra_Pradesh,Chittoor,"Gangineni Cheruvu, Chittoor - APPCB",12-03-2024 08:00:00,13.204880,79.097889,PM10,NA,NA,NA
India,Andhra_Pradesh,Chittoor,"Gangineni Cheruvu, Chittoor - APPCB",12-03-2024 08:00:00,13.204880,79.097889,NO2,NA,NA,NA
India,Andhra_Pradesh,Kadapa,"Yerramukkapalli, Kadapa - APPCB",12-03-2024 08:00:00,14.465052,78.824187,NO2,8,8,8
India,Andhra_Pradesh,Kadapa,"Yerramukkapalli, Kadapa - APPCB",12-03-2024 08:00:00,14.465052,78.824187,SO2,2,3,2
India,Andhra_Pradesh,Rajamahendravaram,"Anand Kala Kshetram, Rajamahendravaram - APPCB",12-03-2024 08:00:00,16.9872867,81.7363176,NO2,7,39,15
India,Andhra_Pradesh,Rajamahendravaram,"Anand Kala Kshetram, Rajamahendravaram - APPCB",12-03-2024 08:00:00,16.9872867,81.7363176,OZONE,16,34,21
India,Andhra_Pradesh,Tirupati,"Tirumala, Tirupati - APPCB",12-03-2024 08:00:00,13.67,79.35,NO2,17,47,28
India,Andhra_Pradesh,Tirupati,"Tirumala, Tirupati - APPCB",12-03-2024 08:00:00,13.67,79.35,SO2,3,8,5
India,Andhra_Pradesh,Tirupati,"Tirumala, Tirupati - APPCB",12-03-2024 08:00:00,13.67,79.35,CO,20,43,21
India,Andhra_Pradesh,Tirupati,"Vaikuntapuram, Tirupati - APPCB",12-03-2024 08:00:00,13.615387,79.409230,PM10,19,127,68
India,Andhra_Pradesh,Tirupati,"Vaikuntapuram, Tirupati - APPCB",12-03-2024 08:00:00,13.615387,79.409230,NO2,17,27,20
India,Andhra_Pradesh,Tirupati,"Vaikuntapuram, Tirupati - APPCB",12-03-2024 08:00:00,13.615387,79.409230,SO2,4,5,5
India,Andhra_Pradesh,Vijayawada,"HB Colony, Vijayawada - APPCB",12-03-2024 08:00:00,16.536107,80.594233,NO2,4,14,9
India,Andhra_Pradesh,Vijayawada,"Kanuru, Vijayawada - APPCB",12-03-2024 08:00:00,16.486692,80.699436,SO2,5,11,7
India,Andhra_Pradesh,Vijayawada,"Rajiv Gandhi Park, Vijayawada - APPCB",12-03-2024 08:00:00,16.509717,80.612222,PM2.5,47,76,61
India,Andhra_Pradesh,Vijayawada,"Rajiv Gandhi Park, Vijayawada - APPCB",12-03-2024 08:00:00,16.509717,80.612222,NO2,5,59,31
India,Andhra_Pradesh,Vijayawada,"Rajiv Nagar, Vijayawada - APPCB",12-03-2024 08:00:00,16.554731,80.649110,PM10,69,143,80
India,Andhra_Pradesh,Vijayawada,"Rajiv Nagar, Vijayawada - APPCB",12-03-2024 08:00:00,16.554731,80.649110,CO,34,34,34
India,Andhra_Pradesh,Visakhapatnam,"GVM Corporation, Visakhapatnam - APPCB",12-03-2024 08:00:00,17.72,83.3,OZONE,9,11,10
India,Assam,Byrnihat,"Central Academy for SFS, Byrnihat - PCBA",12-03-2024 08:00:00,26.071318,91.87488,NH3,4,8,7
India,Assam,Guwahati,"IITG, Guwahati - PCBA",12-03-2024 08:00:00,26.2028636,91.70046436,PM10,NA,NA,NA
India,Assam,Guwahati,"IITG, Guwahati - PCBA",12-03-2024 08:00:00,26.2028636,91.70046436,CO,NA,NA,NA
India,Assam,Guwahati,"IITG, Guwahati - PCBA",12-03-2024 08:00:00,26.2028636,91.70046436,OZONE,NA,NA,NA
India,Assam,Guwahati,"LGBI Airport, Guwahati - PCBA",12-03-2024 08:00:00,26.10887,91.589544,NO2,9,71,28
India,Assam,Guwahati,"LGBI Airport, Guwahati - PCBA",12-03-2024 08:00:00,26.10887,91.589544,NH3,1,6,3
India,Assam,Guwahati,"Railway Colony, Guwahati - PCBA",12-03-2024 08:00:00,26.181742,91.78063,CO,24,134,80
India,Assam,Nalbari,"Bata Chowk, Nalbari - PCBA",12-03-2024 08:00:00,26.446912,91.439057,OZONE,32,167,46
India,Assam,Silchar,"Tarapur, Silchar - PCBA",12-03-2024 08:00:00,24.82827,92.79525,SO2,1,15,9
India,Bihar,Araria,"Kharahiya Basti, Araria - BSPCB",12-03-2024 08:00:00,26.146529,87.454184,PM2.5,49,212,142
India,Bihar,Araria,"Kharahiya Basti, Araria - BSPCB",12-03-2024 08:00:00,26.146529,87.454184,NO2,6,8,7
India,Bihar,Araria,"Kharahiya Basti, Araria - BSPCB",12-03-2024 08:00:00,26.146529,87.454184,NH3,7,8,8
India,Bihar,Arrah,"New DM Office, Arrah - BSPCB",12-03-2024 08:00:00,25.5626095,84.663264,NO2,NA,NA,NA
India,Bihar,Arrah,"New DM Office, Arrah - BSPCB",12-03-2024 08:00:00,25.5626095,84.663264,OZONE,NA,NA,NA
India,Bihar,Aurangabad,"Gurdeo Nagar, Aurangabad - BSPCB",12-03-2024 08:00:00,24.75746,84.366208,PM2.5,NA,NA,NA
India,Bihar,Bettiah,"Kamalnath Nagar, Bettiah - BSPCB",12-03-2024 08:00:00,26.80365,84.51954,PM2.5,47,397,175
India,Bihar,Bettiah,"Kamalnath Nagar, Bettiah - BSPCB",12-03-2024 08:00:00,26.80365,84.51954,NH3,3,3,3
India,Bihar,Bhagalpur,"DM Office_Kachari Chowk, Bhagalpur - BSPCB",12-03-2024 08:00:00,25.251013,86.989001,NO2,33,156,62
India,Bihar,Buxar,"Charitra Van, Buxar - BSPCB (Formerly known as Central Jail)",12-03-2024 08:00:00,25.567520,83.966379,OZONE,2,185,33
India,Bihar,Chhapra,"Darshan Nagar, Chhapra - BSPCB",12-03-2024 08:00:00,25.7808257,84.7446768,SO2,NA,NA,NA
India,Bihar,Gaya,"SFTI Kusdihra, Gaya - BSPCB",12-03-2024 08:00:00,24.762518,84.982348,OZONE,2,77,7
India,Bihar,Hajipur,"Industrial Area, Hajipur - BSPCB",12-03-2024 08:00:00,25.697189,85.245900,PM2.5,59,163,96
India,Bihar,Hajipur,"Industrial Area, Hajipur - BSPCB",12-03-2024 08:00:00,25.697189,85.245900,PM10,102,403,177
India,Bihar,Katihar,"Mirchaibari, Katihar - BSPCB",12-03-2024 08:00:00,25.560083,87.553265,SO2,19,23,21
India,Bihar,Motihari,"Gandak Colony, Motihari - BSPCB",12-03-2024 08:00:00,26.63086,84.90051,NH3,NA,NA,NA
India,Bihar,Motihari,"Gandak Colony, Motihari - BSPCB",12-03-2024 08:00:00,26.63086,84.90051,OZONE,12,99,78
India,Bihar,Muzaffarpur,"Buddha Colony, Muzaffarpur - BSPCB",12-03-2024 08:00:00,26.11442,85.39813,NH3,NA,NA,NA
India,Bihar,Muzaffarpur,"MIT-Daudpur Kothi, Muzaffarpur - BSPCB",12-03-2024 08:00:00,26.1403345,85.3650192,NO2,4,10,7
India,Bihar,Muzaffarpur,"MIT-Daudpur Kothi, Muzaffarpur - BSPCB",12-03-2024 08:00:00,26.1403345,85.3650192,OZONE,16,67,24
India,Bihar,Muzaffarpur,"Muzaffarpur Collectorate, Muzaffarpur - BSPCB",12-03-2024 08:00:00,26.1209,85.3647,NO2,8,25,12
India,Bihar,Patna,"DRM Office Danapur, Patna - BSPCB",12-03-2024 08:00:00,25.586562,85.043586,PM2.5,92,174,118
India,Bihar,Patna,"IGSC Planetarium Complex, Patna - BSPCB",12-03-2024 08:00:00,25.610369,85.132568,OZONE,6,43,27
India,Bihar,Patna,"Muradpur, Patna - BSPCB",12-03-2024 08:00:00,25.619651,85.147382,NO2,4,20,10
India,Bihar,Patna,"Muradpur, Patna - BSPCB",12-03-2024 08:00:00,25.619651,85.147382,SO2,8,13,10
India,Bihar,Patna,"Samanpura, Patna - BSPCB",12-03-2024 08:00:00,25.596727,85.085624,PM10,127,422,253
India,Bihar,Purnia,"Mariam Nagar, Purnia - BSPCB",12-03-2024 08:00:00,25.366336,87.117468,NH3,1,1,1
India,Bihar,Purnia,"Mariam Nagar, Purnia - BSPCB",12-03-2024 08:00:00,25.366336,87.117468,CO,8,68,41
India,Bihar,Purnia,"Mariam Nagar, Purnia - BSPCB",12-03-2024 08:00:00,25.366336,87.117468,OZONE,11,191,18
India,Bihar,Rajgir,"Dangi Tola, Rajgir - BSPCB",12-03-2024 08:00:00,25.03280,85.41948,NH3,1,4,1
India,Bihar,Saharsa,"Police Line, Saharsa - BSPCB",12-03-2024 08:00:00,25.892357,86.590325,SO2,16,17,16
India,Bihar,Saharsa,"Police Line, Saharsa - BSPCB",12-03-2024 08:00:00,25.892357,86.590325,CO,2,52,25
India,Bihar,Samastipur,"DM Office_Kasipur, Samastipur - BSPCB",12-03-2024 08:00:00,25.859655,85.77944,PM10,49,133,86
India,Bihar,Sasaram,"Dada Peer, Sasaram - BSPCB",12-03-2024 08:00:00,24.952822,84.002396,PM10,41,122,73
India,Bihar,Siwan,"Chitragupta Nagar, Siwan - BSPCB",12-03-2024 08:00:00,26.2271665,84.3570427,CO,71,148,88
India,Chandigarh,Chandigarh,"Sector 22, Chandigarh - CPCC",12-03-2024 08:00:00,30.735567,76.775714,SO2,17,51,25
India,Chandigarh,Chandigarh,"Sector-53, Chandigarh - CPCC",12-03-2024 08:00:00,30.719859,76.738637,CO,40,78,59
India,Chandigarh,Chandigarh,"Sector-53, Chandigarh - CPCC",12-03-2024 08:00:00,30.719859,76.738637,OZONE,7,90,23
India,Chhattisgarh,Bhilai,"32Bungalows, Bhilai - CECB",12-03-2024 08:00:00,21.194815,81.314770,PM10,49,101,69
India,Chhattisgarh,Bhilai,"32Bungalows, Bhilai - CECB",12-03-2024 08:00:00,21.194815,81.314770,SO2,5,14,8
India,Chhattisgarh,Bhilai,"Hathkhoj, Bhilai - CECB",12-03-2024 08:00:00,21.224231,81.408350,PM2.5,45,143,91
India,Chhattisgarh,Bilaspur,"Mangala, Bilaspur - NTPC",12-03-2024 08:00:00,22.08815,82.13737,PM10,41,93,62
India,Chhattisgarh,Bilaspur,"Mangala, Bilaspur - NTPC",12-03-2024 08:00:00,22.08815,82.13737,SO2,8,22,12
India,Chhattisgarh,Chhal,"Nawapara SECL Colony, Chhal - CECB",12-03-2024 08:00:00,22.118125,83.140608,SO2,12,34,19
India,Chhattisgarh,Chhal,"Nawapara SECL Colony, Chhal - CECB",12-03-2024 08:00:00,22.118125,83.140608,OZONE,NA,NA,NA
India,Chhattisgarh,Korba,"Urja Nagar, Korba - CECB",12-03-2024 08:00:00,22.348441,82.549611,CO,30,70,58
India,Chhattisgarh,Kunjemura,"OP Jindal School, Kunjemura - CECB",12-03-2024 08:00:00,22.126650,83.483212,PM2.5,51,134,82
India,Chhattisgarh,Kunjemura,"OP Jindal School, Kunjemura - CECB",12-03-2024 08:00:00,22.126650,83.483212,SO2,2,82,19
India,Chhattisgarh,Milupara,"Govt. Higher Secondary School, Milupara - CECB",12-03-2024 08:00:00,22.1910172,83.5197009,SO2,NA,NA,NA
India,Chhattisgarh,Raipur,"AIIMS, Raipur - CECB",12-03-2024 08:00:00,21.258815,81.578979,SO2,5,21,11
India,Chhattisgarh,Raipur,"AIIMS, Raipur - CECB",12-03-2024 08:00:00,21.258815,81.578979,CO,27,66,34
India,Chhattisgarh,Raipur,"Bhatagaon New ISBT, Raipur - CECB",12-03-2024 08:00:00,21.219665,81.630094,CO,24,58,45
India,Chhattisgarh,Raipur,"Bhatagaon New ISBT, Raipur - CECB",12-03-2024 08:00:00,21.219665,81.630094,OZONE,3,8,3
India,Chhattisgarh,Raipur,"Krishak Nagar, Raipur - CECB",12-03-2024 08:00:00,21.237755,81.705301,SO2,9,21,14
India,Chhattisgarh,Tumidih,"OP Jindal Industrial Park, Tumidih - CECB",12-03-2024 08:00:00,22.06631475,83.33820077,OZONE,NA,NA,NA
India,Delhi,Delhi,"Alipur, Delhi - DPCC",12-03-2024 08:00:00,28.815329,77.153010,PM10,NA,NA,NA
India,Delhi,Delhi,"Alipur, Delhi - DPCC",12-03-2024 08:00:00,28.815329,77.153010,NH3,NA,NA,NA
India,Delhi,Delhi,"Alipur, Delhi - DPCC",12-03-2024 08:00:00,28.815329,77.153010,CO,NA,NA,NA
India,Delhi,Delhi,"Ashok Vihar, Delhi - DPCC",12-03-2024 08:00:00,28.695381,77.181665,PM10,134,267,175
India,Delhi,Delhi,"Ashok Vihar, Delhi - DPCC",12-03-2024 08:00:00,28.695381,77.181665,NO2,20,89,51
India,Delhi,Delhi,"Aya Nagar, Delhi - IMD",12-03-2024 08:00:00,28.4706914,77.1099364,OZONE,1,69,12
India,Delhi,Delhi,"Bawana, Delhi - DPCC",12-03-2024 08:00:00,28.776200,77.051074,OZONE,4,164,27
India,Delhi,Delhi,"Burari Crossing, Delhi - IMD",12-03-2024 08:00:00,28.7256504,77.2011573,NO2,11,14,12
India,Delhi,Delhi,"Burari Crossing, Delhi - IMD",12-03-2024 08:00:00,28.7256504,77.2011573,OZONE,4,84,8
India,Delhi,Delhi,"CRRI Mathura Road, Delhi - IMD",12-03-2024 08:00:00,28.5512005,77.2735737,CO,18,105,61
India,Delhi,Delhi,"Chandni Chowk, Delhi - IITM",12-03-2024 08:00:00,28.656756,77.227234,PM10,96,140,116
India,Delhi,Delhi,"DTU, Delhi - CPCB",12-03-2024 08:00:00,28.7500499,77.1112615,PM2.5,76,316,155
India,Delhi,Delhi,"DTU, Delhi - CPCB",12-03-2024 08:00:00,28.7500499,77.1112615,CO,24,60,36
India,Delhi,Delhi,"Dwarka-Sector 8, Delhi - DPCC ",12-03-2024 08:00:00,28.5710274,77.0719006,PM2.5,78,328,174
India,Delhi,Delhi,"Dwarka-Sector 8, Delhi - DPCC ",12-03-2024 08:00:00,28.5710274,77.0719006,NO2,13,58,30
India,Delhi,Delhi,"Dwarka-Sector 8, Delhi - DPCC ",12-03-2024 08:00:00,28.5710274,77.0719006,NH3,4,8,5
India,Delhi,Delhi,"IHBAS, Dilshad Garden, Delhi - CPCB",12-03-2024 08:00:00,28.6811736,77.3025234,NO2,23,47,34
India,Delhi,Delhi,"IHBAS, Dilshad Garden, Delhi - CPCB",12-03-2024 08:00:00,28.6811736,77.3025234,OZONE,9,42,16
India,Delhi,Delhi,"Jahangirpuri, Delhi - DPCC",12-03-2024 08:00:00,28.732820,77.170633,CO,42,113,90
India,Delhi,Delhi,"Jawaharlal Nehru Stadium, Delhi - DPCC",12-03-2024 08:00:00,28.580280,77.233829,PM10,100,213,138
India,Delhi,Delhi,"Jawaharlal Nehru Stadium, Delhi - DPCC",12-03-2024 08:00:00,28.580280,77.233829,NO2,32,126,88
India,Delhi,Delhi,"Lodhi Road, Delhi - IMD",12-03-2024 08:00:00,28.5918245,77.2273074,CO,10,50,33
India,Delhi,Delhi,"Mandir Marg, Delhi - DPCC",12-03-2024 08:00:00,28.636429,77.201067,NO2,162,206,183
India,Delhi,Delhi,"Mandir Marg, Delhi - DPCC",12-03-2024 08:00:00,28.636429,77.201067,OZONE,10,10,10
India,Delhi,Delhi,"Mundka, Delhi - DPCC",12-03-2024 08:00:00,28.684678,77.076574,CO,22,78,60
India,Delhi,Delhi,"NSIT Dwarka, Delhi - CPCB",12-03-2024 08:00:00,28.60909,77.0325413,SO2,17,30,21
India,Delhi,Delhi,"Najafgarh, Delhi - DPCC",12-03-2024 08:00:00,28.570173,76.933762,PM2.5,67,372,165
India,Delhi,Delhi,"Najafgarh, Delhi - DPCC",12-03-2024 08:00:00,28.570173,76.933762,SO2,8,14,12
India,Delhi,Delhi,"Narela, Delhi - DPCC",12-03-2024 08:00:00,28.822836,77.101981,CO,33,94,68
India,Delhi,Delhi,"Narela, Delhi - DPCC",12-03-2024 08:00:00,28.822836,77.101981,OZONE,9,206,29
India,Delhi,Delhi,"Nehru Nagar, Delhi - DPCC",12-03-2024 08:00:00,28.567890,77.250515,NO2,11,42,20
India,Delhi,Delhi,"Nehru Nagar, Delhi - DPCC",12-03-2024 08:00:00,28.567890,77.250515,SO2,8,21,12
India,Delhi,Delhi,"North Campus, DU, Delhi - IMD",12-03-2024 08:00:00,28.6573814,77.1585447,CO,NA,NA,NA
India,Delhi,Delhi,"Okhla Phase-2, Delhi - DPCC",12-03-2024 08:00:00,28.530785,77.271255,OZONE,9,179,22
India,Delhi,Delhi,"Patparganj, Delhi - DPCC",12-03-2024 08:00:00,28.623763,77.287209,CO,16,60,39
India,Delhi,Delhi,"Patparganj, Delhi - DPCC",12-03-2024 08:00:00,28.623763,77.287209,OZONE,4,273,21
India,Delhi,Delhi,"Pusa, Delhi - DPCC",12-03-2024 08:00:00,28.639652,77.146275,SO2,8,38,20
India,Delhi,Delhi,"R K Puram, Delhi - DPCC",12-03-2024 08:00:00,28.563262,77.186937,NO2,4,61,30
India,Delhi,Delhi,"R K Puram, Delhi - DPCC",12-03-2024 08:00:00,28.563262,77.186937,NH3,1,3,2
India,Delhi,Delhi,"R K Puram, Delhi - DPCC",12-03-2024 08:00:00,28.563262,77.186937,OZONE,9,230,16
India,Delhi,Delhi,"Rohini, Delhi - DPCC",12-03-2024 08:00:00,28.732528,77.119920,PM10,108,396,190
India,Delhi,Delhi,"Shadipur, Delhi - CPCB",12-03-2024 08:00:00,28.6514781,77.1473105,PM10,110,413,197
India,Delhi,Delhi,"Shadipur, Delhi - CPCB",12-03-2024 08:00:00,28.6514781,77.1473105,CO,28,72,48
India,Delhi,Delhi,"Sirifort, Delhi - CPCB",12-03-2024 08:00:00,28.5504249,77.2159377,PM10,108,287,146
India,Delhi,Delhi,"Sirifort, Delhi - CPCB",12-03-2024 08:00:00,28.5504249,77.2159377,NH3,NA,NA,NA
India,Delhi,Delhi,"Sonia Vihar, Delhi - DPCC",12-03-2024 08:00:00,28.710508,77.249485,PM10,107,401,177
India,Delhi,Delhi,"Sri Aurobindo Marg, Delhi - DPCC",12-03-2024 08:00:00,28.531346,77.190156,NH3,6,9,7
India,Delhi,Delhi,"Sri Aurobindo Marg, Delhi - DPCC",12-03-2024 08:00:00,28.531346,77.190156,CO,4,54,43
India,Delhi,Delhi,"Vivek Vihar, Delhi - DPCC",12-03-2024 08:00:00,28.672342,77.315260,PM2.5,NA,NA,NA
India,Delhi,Delhi,"Vivek Vihar, Delhi - DPCC",12-03-2024 08:00:00,28.672342,77.315260,PM10,NA,NA,NA
India,Delhi,Delhi,"Vivek Vihar, Delhi - DPCC",12-03-2024 08:00:00,28.672342,77.315260,SO2,NA,NA,NA
India,Delhi,Delhi,"Vivek Vihar, Delhi - DPCC",12-03-2024 08:00:00,28.672342,77.315260,CO,NA,NA,NA
India,Delhi,Delhi,"Vivek Vihar, Delhi - DPCC",12-03-2024 08:00:00,28.672342,77.315260,OZONE,NA,NA,NA
India,Delhi,Delhi,"Wazirpur, Delhi - DPCC",12-03-2024 08:00:00,28.699793,77.165453,PM10,131,368,186
India,Delhi,Delhi,"Wazirpur, Delhi - DPCC",12-03-2024 08:00:00,28.699793,77.165453,SO2,21,55,33
India,Gujarat,Ahmedabad,"Chandkheda, Ahmedabad - IITM",12-03-2024 08:00:00,23.107969,72.574648,SO2,5,15,8
India,Gujarat,Ahmedabad,"Maninagar, Ahmedabad - GPCB",12-03-2024 08:00:00,23.002657,72.591912,CO,12,86,36
India,Gujarat,Ahmedabad,"Raikhad, Ahmedabad - IITM",12-03-2024 08:00:00,23.020509,72.579261,PM2.5,14,39,25
India,Gujarat,Ahmedabad,"Raikhad, Ahmedabad - IITM",12-03-2024 08:00:00,23.020509,72.579261,NO2,50,171,85
India,Gujarat,Ahmedabad,"SAC ISRO Satellite, Ahmedabad - IITM",12-03-2024 08:00:00,23.023389,72.515201,NH3,3,3,3
India,Gujarat,Ahmedabad,"SAC ISRO Satellite, Ahmedabad - IITM",12-03-2024 08:00:00,23.023389,72.515201,OZONE,12,22,16
India,Gujarat,Ahmedabad,"SVPI Airport Hansol, Ahmedabad - IITM",12-03-2024 08:00:00,23.076793,72.627874,PM2.5,37,145,87
India,Gujarat,Ahmedabad,"SVPI Airport Hansol, Ahmedabad - IITM",12-03-2024 08:00:00,23.076793,72.627874,PM10,42,138,96
India,Gujarat,Ahmedabad,"Sardar Vallabhbhai Patel Stadium, Ahmedabad - IITM",12-03-2024 08:00:00,23.043070,72.562968,NH3,1,4,3
India,Gujarat,Ankleshwar,"GIDC, Ankleshwar - GPCB",12-03-2024 08:00:00,21.613267,73.010555,SO2,10,122,57
India,Gujarat,Gandhinagar,"Sector-10, Gandhinagar - GPCB",12-03-2024 08:00:00,23.221714,72.654328,PM10,24,115,66
India,Gujarat,Gandhinagar,"Sector-10, Gandhinagar - GPCB",12-03-2024 08:00:00,23.221714,72.654328,NO2,5,17,13
India,Gujarat,Nandesari,"GIDC, Nandesari - Nandesari Ind. Association",12-03-2024 08:00:00,22.410802,73.097923,PM10,93,409,186
India,Gujarat,Nandesari,"GIDC, Nandesari - Nandesari Ind. Association",12-03-2024 08:00:00,22.410802,73.097923,NO2,6,69,29
India,Gujarat,Vapi,"Phase-1 GIDC, Vapi - GPCB",12-03-2024 08:00:00,20.362421,72.918013,NH3,8,9,9
India,Gujarat,Vapi,"Phase-1 GIDC, Vapi - GPCB",12-03-2024 08:00:00,20.362421,72.918013,SO2,47,48,47
India,Haryana,Ambala,"Patti Mehar, Ambala - HSPCB",12-03-2024 08:00:00,30.379589,76.778328,PM2.5,62,117,79
India,Haryana,Bahadurgarh,"Arya Nagar, Bahadurgarh - HSPCB",12-03-2024 08:00:00,28.6701,76.9254,NH3,10,12,12
India,Haryana,Ballabgarh,"Nathu Colony, Ballabgarh - HSPCB",12-03-2024 08:00:00,28.3419248,77.319699,CO,1,60,36
India,Haryana,Faridabad,"New Industrial Town, Faridabad - HSPCB",12-03-2024 08:00:00,28.39072,77.30059,SO2,20,28,23
India,Haryana,Faridabad,"Sector 11, Faridabad - HSPCB",12-03-2024 08:00:00,28.376058,77.315741,PM2.5,198,361,247
India,Haryana,Faridabad,"Sector 11, Faridabad - HSPCB",12-03-2024 08:00:00,28.376058,77.315741,PM10,102,311,167
India,Haryana,Faridabad,"Sector 30, Faridabad - HSPCB",12-03-2024 08:00:00,28.4417,77.3217,PM2.5,95,145,120
India,Haryana,Faridabad,"Sector 30, Faridabad - HSPCB",12-03-2024 08:00:00,28.4417,77.3217,PM10,98,202,113
India,Haryana,Faridabad,"Sector 30, Faridabad - HSPCB",12-03-2024 08:00:00,28.4417,77.3217,NH3,9,9,9
India,Haryana,Fatehabad,"Huda Sector, Fatehabad - HSPCB",12-03-2024 08:00:00,29.503664,75.467934,PM2.5,40,192,78
India,Haryana,Fatehabad,"Huda Sector, Fatehabad - HSPCB",12-03-2024 08:00:00,29.503664,75.467934,OZONE,82,96,93
India,Haryana,Gurugram,"Teri Gram, Gurugram - HSPCB",12-03-2024 08:00:00,28.4275,77.1465,PM2.5,39,350,169
India,Haryana,Gurugram,"Teri Gram, Gurugram - HSPCB",12-03-2024 08:00:00,28.4275,77.1465,NH3,20,87,48
India,Haryana,Gurugram,"Teri Gram, Gurugram - HSPCB",12-03-2024 08:00:00,28.4275,77.1465,OZONE,10,33,13
India,Haryana,Gurugram,"Vikas Sadan, Gurugram - HSPCB",12-03-2024 08:00:00,28.4501238,77.0263051,PM2.5,23,269,131
India,Haryana,Gurugram,"Vikas Sadan, Gurugram - HSPCB",12-03-2024 08:00:00,28.4501238,77.0263051,SO2,21,48,38
India,Haryana,Hisar,"Urban Estate-II, Hisar - HSPCB",12-03-2024 08:00:00,29.140560,75.744941,PM2.5,18,241,86
India,Haryana,Jind,"Police Lines, Jind - HSPCB",12-03-2024 08:00:00,29.307814,76.337619,PM10,64,104,83
India,Haryana,Jind,"Police Lines, Jind - HSPCB",12-03-2024 08:00:00,29.307814,76.337619,NO2,6,19,11
India,Haryana,Jind,"Police Lines, Jind - HSPCB",12-03-2024 08:00:00,29.307814,76.337619,CO,2,104,16
India,Haryana,Kaithal,"Rishi Nagar, Kaithal - HSPCB",12-03-2024 08:00:00,29.8006,76.4155,OZONE,10,22,15
India,Haryana,Karnal,"Sector-12, Karnal - HSPCB",12-03-2024 08:00:00,29.695300,77.002700,SO2,12,13,12
India,Haryana,Mandikhera,"General Hospital, Mandikhera - HSPCB",12-03-2024 08:00:00,27.9002,76.9938,PM10,91,147,119
India,Haryana,Mandikhera,"General Hospital, Mandikhera - HSPCB",12-03-2024 08:00:00,27.9002,76.9938,NO2,17,21,19
India,Haryana,Manesar,"Sector-2 IMT, Manesar - HSPCB",12-03-2024 08:00:00,28.360699,76.936090,CO,16,54,31
India,Haryana,Palwal,"Shyam Nagar, Palwal - HSPCB",12-03-2024 08:00:00,28.1485564,77.3320667,NH3,8,9,9
India,Haryana,Palwal,"Shyam Nagar, Palwal - HSPCB",12-03-2024 08:00:00,28.1485564,77.3320667,SO2,9,23,16
India,Haryana,Panchkula,"Sector-6, Panchkula - HSPCB ",12-03-2024 08:00:00,30.7057778,76.8531805555555,SO2,11,12,12
India,Haryana,Panchkula,"Sector-6, Panchkula - HSPCB ",12-03-2024 08:00:00,30.7057778,76.8531805555555,CO,5,18,14
India,Haryana,Panipat,"Sector-18, Panipat - HSPCB",12-03-2024 08:00:00,29.497973,76.993331,PM2.5,146,156,150
India,Haryana,Panipat,"Sector-18, Panipat - HSPCB",12-03-2024 08:00:00,29.497973,76.993331,OZONE,30,30,30
India,Haryana,Sirsa,"F-Block, Sirsa - HSPCB",12-03-2024 08:00:00,29.536400,75.015800,PM2.5,NA,NA,NA
India,Haryana,Yamuna Nagar,"Gobind Pura, Yamuna Nagar - HSPCB",12-03-2024 08:00:00,30.1480566,77.2893471,CO,36,107,56
India,Himachal Pradesh,Baddi,"HIMUDA Complex Phase-1, Baddi - HPPCB",12-03-2024 08:00:00,30.943887,76.801991,NH3,5,9,7
India,Himachal Pradesh,Baddi,"HIMUDA Complex Phase-1, Baddi - HPPCB",12-03-2024 08:00:00,30.943887,76.801991,OZONE,22,222,46
India,Jharkhand,Dhanbad,"Kalakusuma, Dhanbad - DMC",12-03-2024 08:00:00,23.811548,86.481238,PM10,77,150,89
India,Jharkhand,Dhanbad,"Sardar Patel Nagar, Dhanbad - JSPCB",12-03-2024 08:00:00,23.80569,86.44268,NO2,NA,NA,NA
India,Jharkhand,Dhanbad,"Sardar Patel Nagar, Dhanbad - JSPCB",12-03-2024 08:00:00,23.80569,86.44268,CO,NA,NA,NA
India,Jharkhand,Pathardih,"Mohalbani Ghat, Pathardih - DMC",12-03-2024 08:00:00,23.669880,86.411725,NO2,NA,NA,NA
India,Jharkhand,Pathardih,"Mohalbani Ghat, Pathardih - DMC",12-03-2024 08:00:00,23.669880,86.411725,SO2,NA,NA,NA
India,Jharkhand,Pathardih,"Mohalbani Ghat, Pathardih - DMC",12-03-2024 08:00:00,23.669880,86.411725,OZONE,NA,NA,NA
India,Karnataka,Belgaum,"Ramteerth Nagar, Belgaum - KSPCB",12-03-2024 08:00:00,15.888653,74.541751,PM10,43,92,67
India,Karnataka,Belgaum,"Ramteerth Nagar, Belgaum - KSPCB",12-03-2024 08:00:00,15.888653,74.541751,OZONE,18,20,20
India,Karnataka,Bengaluru,"BTM Layout, Bengaluru - CPCB",12-03-2024 08:00:00,12.9135218,77.5950804,PM10,56,77,67
India,Karnataka,Bengaluru,"BTM Layout, Bengaluru - CPCB",12-03-2024 08:00:00,12.9135218,77.5950804,NO2,27,28,28
India,Karnataka,Bengaluru,"BTM Layout, Bengaluru - CPCB",12-03-2024 08:00:00,12.9135218,77.5950804,SO2,10,10,10
India,Karnataka,Bengaluru,"Bapuji Nagar, Bengaluru - KSPCB",12-03-2024 08:00:00,12.951913,77.539784,NH3,1,1,1
India,Karnataka,Bengaluru,"Hombegowda Nagar, Bengaluru - KSPCB",12-03-2024 08:00:00,12.938539,77.590100,PM2.5,65,118,83
India,Karnataka,Bengaluru,"Hombegowda Nagar, Bengaluru - KSPCB",12-03-2024 08:00:00,12.938539,77.590100,NH3,2,3,3
India,Karnataka,Bengaluru,"Jigani, Bengaluru - KSPCB",12-03-2024 08:00:00,12.7816279,77.6299145,NO2,NA,NA,NA
India,Karnataka,Bengaluru,"Kasturi Nagar, Bengaluru - KSPCB",12-03-2024 08:00:00,13.003872,77.664217,NO2,16,17,17
India,Karnataka,Bengaluru,"Peenya, Bengaluru - CPCB",12-03-2024 08:00:00,13.0270199,77.494094,SO2,13,19,16
India,Karnataka,Bengaluru,"Peenya, Bengaluru - CPCB",12-03-2024 08:00:00,13.0270199,77.494094,OZONE,38,115,61
India,Karnataka,Bengaluru,"RVCE-Mailasandra, Bengaluru - KSPCB",12-03-2024 08:00:00,12.921418,77.502466,NO2,34,99,95
India,Karnataka,Bengaluru,"Silk Board, Bengaluru - KSPCB",12-03-2024 08:00:00,12.917348,77.622813,PM10,90,132,108
India,Karnataka,Bengaluru,"Silk Board, Bengaluru - KSPCB",12-03-2024 08:00:00,12.917348,77.622813,NH3,2,3,2
India,Karnataka,Bengaluru,"Silk Board, Bengaluru - KSPCB",12-03-2024 08:00:00,12.917348,77.622813,SO2,7,22,12
India,Karnataka,Chamarajanagar,"Urban, Chamarajanagar - KSPCB",12-03-2024 08:00:00,11.55358,76.55521,PM2.5,21,54,33
India,Karnataka,Chamarajanagar,"Urban, Chamarajanagar - KSPCB",12-03-2024 08:00:00,11.55358,76.55521,NH3,1,2,2
India,Karnataka,Chamarajanagar,"Urban, Chamarajanagar - KSPCB",12-03-2024 08:00:00,11.55358,76.55521,SO2,2,9,4
India,Karnataka,Chikkaballapur,"Chikkaballapur Rural, Chikkaballapur - KSPCB",12-03-2024 08:00:00,13.428828,77.731418,PM2.5,62,115,80
India,Karnataka,Chikkaballapur,"Chikkaballapur Rural, Chikkaballapur - KSPCB",12-03-2024 08:00:00,13.428828,77.731418,OZONE,24,27,26
India,Karnataka,Davanagere,"Devaraj Urs Badavane, Davanagere - KSPCB",12-03-2024 08:00:00,14.475800,75.905200,NH3,1,1,1
India,Karnataka,Davanagere,"Devaraj Urs Badavane, Davanagere - KSPCB",12-03-2024 08:00:00,14.475800,75.905200,SO2,1,7,5
India,Karnataka,Dharwad,"Kalabhavan, Dharwad - KSPCB",12-03-2024 08:00:00,15.459706,75.008381,PM10,69,125,100
India,Karnataka,Gadag,"Panchal Nagar, Gadag - KSPCB",12-03-2024 08:00:00,15.411456,75.638133,PM10,43,66,50
India,Karnataka,Hassan,"B.Katihalli, Hassan - KSPCB",12-03-2024 08:00:00,13.008556,76.125258,NH3,1,6,3
India,Karnataka,Hubballi,"Deshpande Nagar, Hubballi - KSPCB",12-03-2024 08:00:00,15.351773,75.140726,PM2.5,51,87,71
India,Karnataka,Hubballi,"Lingaraj Nagar, Hubballi - KSPCB",12-03-2024 08:00:00,15.3714823,75.1160168,PM2.5,33,81,47
India,Karnataka,Hubballi,"Lingaraj Nagar, Hubballi - KSPCB",12-03-2024 08:00:00,15.3714823,75.1160168,CO,73,108,29
India,Karnataka,Kalaburagi,"Lal Bahadur Shastri Nagar, Kalaburagi - KSPCB",12-03-2024 08:00:00,17.321993,76.822628,PM10,53,108,75
India,Karnataka,Kalaburagi,"Lal Bahadur Shastri Nagar, Kalaburagi - KSPCB",12-03-2024 08:00:00,17.321993,76.822628,NO2,12,12,12
India,Karnataka,Kalaburagi,"Lal Bahadur Shastri Nagar, Kalaburagi - KSPCB",12-03-2024 08:00:00,17.321993,76.822628,SO2,13,17,14
India,Karnataka,Kalaburagi,"Mahatma Basaveswar Colony, Kalaburgi - KSPCB",12-03-2024 08:00:00,17.336318,76.847397,CO,36,64,53
India,Karnataka,Karwar,"KHB Colony, Karwar - KSPCB",12-03-2024 08:00:00,14.816666,74.141003,NO2,4,11,6
India,Karnataka,Karwar,"KHB Colony, Karwar - KSPCB",12-03-2024 08:00:00,14.816666,74.141003,NH3,1,4,2
India,Karnataka,Karwar,"KHB Colony, Karwar - KSPCB",12-03-2024 08:00:00,14.816666,74.141003,OZONE,21,22,22
India,Karnataka,Kolar,"Tamaka Ind. Area, Kolar - KSPCB",12-03-2024 08:00:00,13.1276288,78.1570122,CO,14,27,27
India,Karnataka,Kolar,"Tamaka Ind. Area, Kolar - KSPCB",12-03-2024 08:00:00,13.1276288,78.1570122,OZONE,7,12,11
India,Karnataka,Koppal,"Diwator Nagar, Koppal - KSPCB",12-03-2024 08:00:00,15.347630,76.181767,NH3,3,8,5
India,Karnataka,Madikeri,"Stuart Hill, Madikeri - KSPCB",12-03-2024 08:00:00,12.415911,75.735050,PM10,20,63,48
India,Karnataka,Madikeri,"Stuart Hill, Madikeri - KSPCB",12-03-2024 08:00:00,12.415911,75.735050,NH3,NA,NA,NA
India,Karnataka,Madikeri,"Stuart Hill, Madikeri - KSPCB",12-03-2024 08:00:00,12.415911,75.735050,SO2,4,4,4
India,Karnataka,Madikeri,"Stuart Hill, Madikeri - KSPCB",12-03-2024 08:00:00,12.415911,75.735050,OZONE,23,53,30
India,Karnataka,Mangalore,"Kadri, Mangalore - KSPCB",12-03-2024 08:00:00,12.889250,74.853000,PM2.5,44,82,56
India,Karnataka,Mysuru,"Hebbal 1st Stage, Mysuru - KSPCB",12-03-2024 08:00:00,12.21041,76.37376,CO,2,62,13
India,Karnataka,Mysuru,"Hebbal 1st Stage, Mysuru - KSPCB",12-03-2024 08:00:00,12.21041,76.37376,OZONE,10,117,19
India,Karnataka,Raichur,"Haji Colony, Raichur - KSPCB",12-03-2024 08:00:00,16.208139,77.348417,CO,90,108,98
India,Karnataka,Ramanagara,"Vijay Nagar, Ramanagara - KSPCB",12-03-2024 08:00:00,12.733409,77.298051,NO2,4,16,6
India,Karnataka,Udupi,"Brahmagiri, Udupi - KSPCB",12-03-2024 08:00:00,13.34194444,74.74694444,OZONE,23,24,23
India,Karnataka,Yadgir,"Collector Office, Yadgir - KSPCB",12-03-2024 08:00:00,16.7602,77.1428,CO,13,18,16
India,Karnataka,Yadgir,"Collector Office, Yadgir - KSPCB",12-03-2024 08:00:00,16.7602,77.1428,OZONE,18,20,19
India,Kerala,Kochi,"Vyttila, Kochi - Kerala PCB",12-03-2024 08:00:00,9.969447,76.321186,PM2.5,25,82,43
India,Kerala,Kochi,"Vyttila, Kochi - Kerala PCB",12-03-2024 08:00:00,9.969447,76.321186,PM10,56,56,56
India,Kerala,Kollam,"Polayathode, Kollam - Kerala PCB",12-03-2024 08:00:00,8.8787,76.6073,OZONE,31,38,32
India,Kerala,Thiruvananthapuram,"Kariavattom, Thiruvananthapuram - Kerala PCB",12-03-2024 08:00:00,8.563700,76.886500,PM2.5,69,83,77
India,Madhya Pradesh,Bhopal,"Idgah Hills, Bhopal - MPPCB",12-03-2024 08:00:00,23.264759,77.381568,PM2.5,35,110,58
India,Madhya Pradesh,Bhopal,"Idgah Hills, Bhopal - MPPCB",12-03-2024 08:00:00,23.264759,77.381568,NO2,12,110,37
India,Madhya Pradesh,Bhopal,"Idgah Hills, Bhopal - MPPCB",12-03-2024 08:00:00,23.264759,77.381568,SO2,1,24,15
India,Madhya Pradesh,Bhopal,"Idgah Hills, Bhopal - MPPCB",12-03-2024 08:00:00,23.264759,77.381568,OZONE,16,114,45
India,Madhya Pradesh,Bhopal,"Paryavaran Parisar, Bhopal - MPPCB",12-03-2024 08:00:00,23.210494,77.425409,CO,10,116,29
India,Madhya Pradesh,Bhopal,"T T Nagar, Bhopal - MPPCB",12-03-2024 08:00:00,23.233584,77.400574,NO2,33,108,62
