country,state,city,station,last_update,latitude,longitude,pollutant_id,pollutant_min,pollutant_max,pollutant_avg
India,Andhra_Pradesh,Amaravati,"Secretariat, Amaravati - APPCB",05-04-2024 18:00:00,16.5150833,80.5181667,OZONE,1,69,46
India,Andhra_Pradesh,Chittoor,"Gangineni Cheruvu, Chittoor - APPCB",05-04-2024 18:00:00,13.204880,79.097889,NH3,1,2,1
India,Andhra_Pradesh,Rajamahendravaram,"Anand Kala Kshetram, Rajamahendravaram - APPCB",05-04-2024 18:00:00,16.9872867,81.7363176,SO2,11,13,12
India,Andhra_Pradesh,Rajamahendravaram,"Anand Kala Kshetram, Rajamahendravaram - APPCB",05-04-2024 18:00:00,16.9872867,81.7363176,CO,22,34,27
India,Andhra_Pradesh,Tirupati,"Tirumala, Tirupati - APPCB",05-04-2024 18:00:00,13.67,79.35,PM10,26,96,53
India,Andhra_Pradesh,Tirupati,"Tirumala, Tirupati - APPCB",05-04-2024 18:00:00,13.67,79.35,NH3,1,1,1
India,Andhra_Pradesh,Tirupati,"Tirumala, Tirupati - APPCB",05-04-2024 18:00:00,13.67,79.35,SO2,1,12,6
India,Andhra_Pradesh,Tirupati,"Vaikuntapuram, Tirupati - APPCB",05-04-2024 18:00:00,13.615387,79.409230,PM2.5,14,249,77
India,Andhra_Pradesh,Tirupati,"Vaikuntapuram, Tirupati - APPCB",05-04-2024 18:00:00,13.615387,79.409230,NO2,15,54,27
India,Andhra_Pradesh,Vijayawada,"HB Colony, Vijayawada - APPCB",05-04-2024 18:00:00,16.536107,80.594233,SO2,3,5,4
India,Andhra_Pradesh,Vijayawada,"Kanuru, Vijayawada - APPCB",05-04-2024 18:00:00,16.486692,80.699436,SO2,NA,NA,NA
India,Andhra_Pradesh,Vijayawada,"Kanuru, Vijayawada - APPCB",05-04-2024 18:00:00,16.486692,80.699436,CO,22,70,22
India,Andhra_Pradesh,Vijayawada,"Rajiv Gandhi Park, Vijayawada - APPCB",05-04-2024 18:00:00,16.509717,80.612222,NO2,2,56,25
India,Andhra_Pradesh,Vijayawada,"Rajiv Gandhi Park, Vijayawada - APPCB",05-04-2024 18:00:00,16.509717,80.612222,NH3,5,7,6
India,Andhra_Pradesh,Vijayawada,"Rajiv Nagar, Vijayawada - APPCB",05-04-2024 18:00:00,16.554731,80.649110,OZONE,6,44,25
India,Andhra_Pradesh,Visakhapatnam,"GVM Corporation, Visakhapatnam - APPCB",05-04-2024 18:00:00,17.72,83.3,PM10,65,161,109
India,Arunachal_Pradesh,Naharlagun,"Naharlagun, Naharlagun - APSPCB",05-04-2024 18:00:00,27.103358,93.679645,PM2.5,2,104,61
India,Arunachal_Pradesh,Naharlagun,"Naharlagun, Naharlagun - APSPCB",05-04-2024 18:00:00,27.103358,93.679645,NO2,3,3,3
India,Assam,Guwahati,"IITG, Guwahati - PCBA",05-04-2024 18:00:00,26.2028636,91.70046436,PM10,65,500,180
India,Assam,Guwahati,"IITG, Guwahati - PCBA",05-04-2024 18:00:00,26.2028636,91.70046436,CO,8,10,10
India,Assam,Guwahati,"LGBI Airport, Guwahati - PCBA",05-04-2024 18:00:00,26.10887,91.589544,PM2.5,33,290,91
India,Assam,Guwahati,"LGBI Airport, Guwahati - PCBA",05-04-2024 18:00:00,26.10887,91.589544,SO2,1,22,13
India,Assam,Guwahati,"LGBI Airport, Guwahati - PCBA",05-04-2024 18:00:00,26.10887,91.589544,CO,44,57,52
India,Assam,Guwahati,"Pan Bazaar, Guwahati - PCBA",05-04-2024 18:00:00,26.187500,91.744194,PM10,45,500,180
India,Assam,Guwahati,"Pan Bazaar, Guwahati - PCBA",05-04-2024 18:00:00,26.187500,91.744194,NO2,1,2,1
India,Assam,Guwahati,"Pan Bazaar, Guwahati - PCBA",05-04-2024 18:00:00,26.187500,91.744194,NH3,3,4,3
India,Assam,Guwahati,"Pan Bazaar, Guwahati - PCBA",05-04-2024 18:00:00,26.187500,91.744194,CO,21,30,28
India,Assam,Guwahati,"Railway Colony, Guwahati - PCBA",05-04-2024 18:00:00,26.181742,91.78063,PM10,56,500,173
India,Assam,Guwahati,"Railway Colony, Guwahati - PCBA",05-04-2024 18:00:00,26.181742,91.78063,NO2,3,4,3
India,Assam,Guwahati,"Railway Colony, Guwahati - PCBA",05-04-2024 18:00:00,26.181742,91.78063,SO2,48,55,51
India,Assam,Nagaon,"Christianpatty, Nagaon - PCBA",05-04-2024 18:00:00,26.349082,92.68449,SO2,1,110,24
India,Assam,Nalbari,"Bata Chowk, Nalbari - PCBA",05-04-2024 18:00:00,26.446912,91.439057,NH3,1,2,2
India,Assam,Nalbari,"Bata Chowk, Nalbari - PCBA",05-04-2024 18:00:00,26.446912,91.439057,CO,6,109,93
India,Bihar,Araria,"Kharahiya Basti, Araria - BSPCB",05-04-2024 18:00:00,26.146529,87.454184,PM10,66,248,117
India,Bihar,Araria,"Kharahiya Basti, Araria - BSPCB",05-04-2024 18:00:00,26.146529,87.454184,SO2,7,17,14
India,Bihar,Arrah,"New DM Office, Arrah - BSPCB",05-04-2024 18:00:00,25.5626095,84.663264,PM2.5,NA,NA,NA
India,Bihar,Arrah,"New DM Office, Arrah - BSPCB",05-04-2024 18:00:00,25.5626095,84.663264,NO2,NA,NA,NA
India,Bihar,Arrah,"New DM Office, Arrah - BSPCB",05-04-2024 18:00:00,25.5626095,84.663264,CO,4,18,8
India,Bihar,Aurangabad,"Gurdeo Nagar, Aurangabad - BSPCB",05-04-2024 18:00:00,24.75746,84.366208,NO2,4,5,5
India,Bihar,Aurangabad,"Gurdeo Nagar, Aurangabad - BSPCB",05-04-2024 18:00:00,24.75746,84.366208,OZONE,6,84,67
India,Bihar,Bettiah,"Kamalnath Nagar, Bettiah - BSPCB",05-04-2024 18:00:00,26.80365,84.51954,PM2.5,57,110,80
India,Bihar,Bettiah,"Kamalnath Nagar, Bettiah - BSPCB",05-04-2024 18:00:00,26.80365,84.51954,CO,62,70,65
India,Bihar,Bhagalpur,"DM Office_Kachari Chowk, Bhagalpur - BSPCB",05-04-2024 18:00:00,25.251013,86.989001,PM10,137,281,198
India,Bihar,Bhagalpur,"DM Office_Kachari Chowk, Bhagalpur - BSPCB",05-04-2024 18:00:00,25.251013,86.989001,SO2,15,48,24
India,Bihar,Bhagalpur,"Mayaganj, Bhagalpur - BSPCB",05-04-2024 18:00:00,25.265194,87.012947,PM2.5,73,429,266
India,Bihar,Bihar Sharif,"D M Colony, Bihar Sharif - BSPCB",05-04-2024 18:00:00,25.204762,85.514960,NH3,2,2,2
India,Bihar,Buxar,"Charitra Van, Buxar - BSPCB (Formerly known as Central Jail)",05-04-2024 18:00:00,25.567520,83.966379,OZONE,6,152,106
India,Bihar,Chhapra,"Darshan Nagar, Chhapra - BSPCB",05-04-2024 18:00:00,25.7808257,84.7446768,PM10,111,170,144
India,Bihar,Chhapra,"Darshan Nagar, Chhapra - BSPCB",05-04-2024 18:00:00,25.7808257,84.7446768,NH3,8,14,11
India,Bihar,Chhapra,"Darshan Nagar, Chhapra - BSPCB",05-04-2024 18:00:00,25.7808257,84.7446768,CO,34,72,54
India,Bihar,Gaya,"Collectorate, Gaya - BSPCB",05-04-2024 18:00:00,24.7955,84.9994,SO2,4,39,18
India,Bihar,Gaya,"Kareemganj, Gaya - BSPCB",05-04-2024 18:00:00,24.792403,84.992416,PM10,66,189,120
India,Bihar,Hajipur,"Industrial Area, Hajipur - BSPCB",05-04-2024 18:00:00,25.697189,85.245900,PM2.5,43,169,99
India,Bihar,Kishanganj,"SDM Office_Khagra, Kishanganj - BSPCB",05-04-2024 18:00:00,26.0881305,87.93840336,NO2,27,33,29
India,Bihar,Muzaffarpur,"Buddha Colony, Muzaffarpur - BSPCB",05-04-2024 18:00:00,26.11442,85.39813,NO2,16,83,48
India,Bihar,Muzaffarpur,"Buddha Colony, Muzaffarpur - BSPCB",05-04-2024 18:00:00,26.11442,85.39813,NH3,5,8,6
India,Bihar,Muzaffarpur,"MIT-Daudpur Kothi, Muzaffarpur - BSPCB",05-04-2024 18:00:00,26.1403345,85.3650192,SO2,10,19,14
India,Bihar,Patna,"DRM Office Danapur, Patna - BSPCB",05-04-2024 18:00:00,25.586562,85.043586,PM2.5,NA,NA,NA
India,Bihar,Patna,"DRM Office Danapur, Patna - BSPCB",05-04-2024 18:00:00,25.586562,85.043586,PM10,NA,NA,NA
India,Bihar,Patna,"DRM Office Danapur, Patna - BSPCB",05-04-2024 18:00:00,25.586562,85.043586,NO2,NA,NA,NA
India,Bihar,Patna,"DRM Office Danapur, Patna - BSPCB",05-04-2024 18:00:00,25.586562,85.043586,SO2,NA,NA,NA
India,Bihar,Patna,"DRM Office Danapur, Patna - BSPCB",05-04-2024 18:00:00,25.586562,85.043586,OZONE,33,55,49
India,Bihar,Patna,"Muradpur, Patna - BSPCB",05-04-2024 18:00:00,25.619651,85.147382,NO2,NA,NA,NA
India,Bihar,Patna,"Muradpur, Patna - BSPCB",05-04-2024 18:00:00,25.619651,85.147382,CO,14,110,15
India,Bihar,Patna,"Muradpur, Patna - BSPCB",05-04-2024 18:00:00,25.619651,85.147382,OZONE,1,76,65
India,Bihar,Patna,"Rajbansi Nagar, Patna - BSPCB",05-04-2024 18:00:00,25.599486,85.113666,PM2.5,109,315,239
India,Bihar,Patna,"Rajbansi Nagar, Patna - BSPCB",05-04-2024 18:00:00,25.599486,85.113666,OZONE,5,84,66
India,Bihar,Patna,"Samanpura, Patna - BSPCB",05-04-2024 18:00:00,25.596727,85.085624,NO2,13,97,43
India,Bihar,Patna,"Samanpura, Patna - BSPCB",05-04-2024 18:00:00,25.596727,85.085624,OZONE,140,154,148
India,Bihar,Purnia,"Mariam Nagar, Purnia - BSPCB",05-04-2024 18:00:00,25.366336,87.117468,PM10,117,261,161
India,Bihar,Rajgir,"Dangi Tola, Rajgir - BSPCB",05-04-2024 18:00:00,25.03280,85.41948,NO2,1,5,1
India,Bihar,Rajgir,"Dangi Tola, Rajgir - BSPCB",05-04-2024 18:00:00,25.03280,85.41948,CO,8,66,30
India,Bihar,Saharsa,"Police Line, Saharsa - BSPCB",05-04-2024 18:00:00,25.892357,86.590325,PM10,95,175,133
India,Bihar,Saharsa,"Police Line, Saharsa - BSPCB",05-04-2024 18:00:00,25.892357,86.590325,NO2,6,8,7
India,Bihar,Saharsa,"Police Line, Saharsa - BSPCB",05-04-2024 18:00:00,25.892357,86.590325,OZONE,4,56,37
India,Bihar,Samastipur,"DM Office_Kasipur, Samastipur - BSPCB",05-04-2024 18:00:00,25.859655,85.77944,PM10,75,203,143
India,Bihar,Sasaram,"Dada Peer, Sasaram - BSPCB",05-04-2024 18:00:00,24.952822,84.002396,PM2.5,5,82,40
India,Bihar,Sasaram,"Dada Peer, Sasaram - BSPCB",05-04-2024 18:00:00,24.952822,84.002396,NH3,7,11,9
India,Bihar,Sasaram,"Dada Peer, Sasaram - BSPCB",05-04-2024 18:00:00,24.952822,84.002396,OZONE,10,77,70
India,Bihar,Siwan,"Chitragupta Nagar, Siwan - BSPCB",05-04-2024 18:00:00,26.2271665,84.3570427,PM2.5,17,107,64
India,Bihar,Siwan,"Chitragupta Nagar, Siwan - BSPCB",05-04-2024 18:00:00,26.2271665,84.3570427,NH3,1,15,3
India,Bihar,Siwan,"Chitragupta Nagar, Siwan - BSPCB",05-04-2024 18:00:00,26.2271665,84.3570427,SO2,3,35,31
India,Chandigarh,Chandigarh,"Sector 22, Chandigarh - CPCC",05-04-2024 18:00:00,30.735567,76.775714,NO2,19,79,39
India,Chandigarh,Chandigarh,"Sector-53, Chandigarh - CPCC",05-04-2024 18:00:00,30.719859,76.738637,NO2,3,65,30
India,Chandigarh,Chandigarh,"Sector-53, Chandigarh - CPCC",05-04-2024 18:00:00,30.719859,76.738637,OZONE,14,58,51
India,Chhattisgarh,Bhilai,"32Bungalows, Bhilai - CECB",05-04-2024 18:00:00,21.194815,81.314770,NH3,6,7,7
India,Chhattisgarh,Bhilai,"Civic Center, Bhilai - Bhilai Steel Plant",05-04-2024 18:00:00,21.185571,81.343175,CO,27,56,37
India,Chhattisgarh,Bilaspur,"Mangala, Bilaspur - NTPC",05-04-2024 18:00:00,22.08815,82.13737,PM10,48,414,105
India,Chhattisgarh,Bilaspur,"Mangala, Bilaspur - NTPC",05-04-2024 18:00:00,22.08815,82.13737,NO2,17,22,19
India,Chhattisgarh,Bilaspur,"Mangala, Bilaspur - NTPC",05-04-2024 18:00:00,22.08815,82.13737,SO2,5,16,11
India,Chhattisgarh,Chhal,"Nawapara SECL Colony, Chhal - CECB",05-04-2024 18:00:00,22.118125,83.140608,PM2.5,102,306,206
India,Chhattisgarh,Chhal,"Nawapara SECL Colony, Chhal - CECB",05-04-2024 18:00:00,22.118125,83.140608,PM10,70,228,136
India,Chhattisgarh,Korba,"Rampur, Korba - CECB",05-04-2024 18:00:00,22.368195,82.746431,SO2,5,15,9
India,Chhattisgarh,Korba,"Rampur, Korba - CECB",05-04-2024 18:00:00,22.368195,82.746431,CO,12,52,26
India,Chhattisgarh,Kunjemura,"OP Jindal School, Kunjemura - CECB",05-04-2024 18:00:00,22.126650,83.483212,PM2.5,70,241,140
India,Chhattisgarh,Milupara,"Govt. Higher Secondary School, Milupara - CECB",05-04-2024 18:00:00,22.1910172,83.5197009,NO2,17,77,44
India,Chhattisgarh,Milupara,"Govt. Higher Secondary School, Milupara - CECB",05-04-2024 18:00:00,22.1910172,83.5197009,OZONE,1,25,23
India,Chhattisgarh,Raipur,"AIIMS, Raipur - CECB",05-04-2024 18:00:00,21.258815,81.578979,CO,24,44,29
India,Chhattisgarh,Raipur,"AIIMS, Raipur - CECB",05-04-2024 18:00:00,21.258815,81.578979,OZONE,3,44,25
India,Chhattisgarh,Raipur,"Bhatagaon New ISBT, Raipur - CECB",05-04-2024 18:00:00,21.219665,81.630094,NO2,57,84,68
India,Chhattisgarh,Raipur,"Krishak Nagar, Raipur - CECB",05-04-2024 18:00:00,21.237755,81.705301,CO,28,58,39
India,Chhattisgarh,Raipur,"Siltara Phase-II, Raipur - CECB",05-04-2024 18:00:00,21.371751,81.664929,NH3,3,3,3
India,Chhattisgarh,Tumidih,"OP Jindal Industrial Park, Tumidih - CECB",05-04-2024 18:00:00,22.06631475,83.33820077,PM2.5,NA,NA,NA
India,Delhi,Delhi,"Alipur, Delhi - DPCC",05-04-2024 18:00:00,28.815329,77.153010,PM10,84,413,151
India,Delhi,Delhi,"Alipur, Delhi - DPCC",05-04-2024 18:00:00,28.815329,77.153010,CO,32,100,42
India,Delhi,Delhi,"Anand Vihar, Delhi - DPCC",05-04-2024 18:00:00,28.647622,77.3158090,PM2.5,5,329,147
India,Delhi,Delhi,"Anand Vihar, Delhi - DPCC",05-04-2024 18:00:00,28.647622,77.3158090,PM10,116,432,244
India,Delhi,Delhi,"Anand Vihar, Delhi - DPCC",05-04-2024 18:00:00,28.647622,77.3158090,NO2,27,185,92
India,Delhi,Delhi,"Anand Vihar, Delhi - DPCC",05-04-2024 18:00:00,28.647622,77.3158090,NH3,1,5,2
India,Delhi,Delhi,"Anand Vihar, Delhi - DPCC",05-04-2024 18:00:00,28.647622,77.3158090,OZONE,3,54,40
India,Delhi,Delhi,"Ashok Vihar, Delhi - DPCC",05-04-2024 18:00:00,28.695381,77.181665,NO2,15,142,60
India,Delhi,Delhi,"Ashok Vihar, Delhi - DPCC",05-04-2024 18:00:00,28.695381,77.181665,NH3,1,9,6
India,Delhi,Delhi,"Aya Nagar, Delhi - IMD",05-04-2024 18:00:00,28.4706914,77.1099364,PM2.5,62,260,144
India,Delhi,Delhi,"Aya Nagar, Delhi - IMD",05-04-2024 18:00:00,28.4706914,77.1099364,NO2,19,111,61
India,Delhi,Delhi,"Bawana, Delhi - DPCC",05-04-2024 18:00:00,28.776200,77.051074,NO2,12,108,36
India,Delhi,Delhi,"Bawana, Delhi - DPCC",05-04-2024 18:00:00,28.776200,77.051074,NH3,5,8,6
India,Delhi,Delhi,"CRRI Mathura Road, Delhi - IMD",05-04-2024 18:00:00,28.5512005,77.2735737,OZONE,2,35,25
India,Delhi,Delhi,"DTU, Delhi - CPCB",05-04-2024 18:00:00,28.7500499,77.1112615,PM2.5,72,304,135
India,Delhi,Delhi,"DTU, Delhi - CPCB",05-04-2024 18:00:00,28.7500499,77.1112615,NO2,9,22,15
India,Delhi,Delhi,"DTU, Delhi - CPCB",05-04-2024 18:00:00,28.7500499,77.1112615,CO,18,57,24
India,Delhi,Delhi,"Dwarka-Sector 8, Delhi - DPCC ",05-04-2024 18:00:00,28.5710274,77.0719006,PM2.5,42,309,133
India,Delhi,Delhi,"Dwarka-Sector 8, Delhi - DPCC ",05-04-2024 18:00:00,28.5710274,77.0719006,PM10,105,490,214
India,Delhi,Delhi,"Dwarka-Sector 8, Delhi - DPCC ",05-04-2024 18:00:00,28.5710274,77.0719006,CO,40,132,47
India,Delhi,Delhi,"Dwarka-Sector 8, Delhi - DPCC ",05-04-2024 18:00:00,28.5710274,77.0719006,OZONE,2,54,48
India,Delhi,Delhi,"IGI Airport (T3), Delhi - IMD",05-04-2024 18:00:00,28.5627763,77.1180053,NO2,24,75,48
India,Delhi,Delhi,"IHBAS, Dilshad Garden, Delhi - CPCB",05-04-2024 18:00:00,28.6811736,77.3025234,CO,10,102,20
India,Delhi,Delhi,"Jahangirpuri, Delhi - DPCC",05-04-2024 18:00:00,28.732820,77.170633,NO2,15,142,69
India,Delhi,Delhi,"Jahangirpuri, Delhi - DPCC",05-04-2024 18:00:00,28.732820,77.170633,OZONE,4,50,43
India,Delhi,Delhi,"Jawaharlal Nehru Stadium, Delhi - DPCC",05-04-2024 18:00:00,28.580280,77.233829,OZONE,1,131,112
India,Delhi,Delhi,"Lodhi Road, Delhi - IITM",05-04-2024 18:00:00,28.588333,77.221667,PM2.5,190,458,332
India,Delhi,Delhi,"Lodhi Road, Delhi - IMD",05-04-2024 18:00:00,28.5918245,77.2273074,NO2,1,9,3
India,Delhi,Delhi,"Major Dhyan Chand National Stadium, Delhi - DPCC",05-04-2024 18:00:00,28.611281,77.237738,SO2,12,33,21
India,Delhi,Delhi,"Major Dhyan Chand National Stadium, Delhi - DPCC",05-04-2024 18:00:00,28.611281,77.237738,CO,12,118,18
India,Delhi,Delhi,"Mandir Marg, Delhi - DPCC",05-04-2024 18:00:00,28.636429,77.201067,PM10,64,146,111
India,Delhi,Delhi,"Mundka, Delhi - DPCC",05-04-2024 18:00:00,28.684678,77.076574,NH3,5,7,6
India,Delhi,Delhi,"Mundka, Delhi - DPCC",05-04-2024 18:00:00,28.684678,77.076574,CO,27,78,32
India,Delhi,Delhi,"NSIT Dwarka, Delhi - CPCB",05-04-2024 18:00:00,28.60909,77.0325413,PM10,107,232,157
India,Delhi,Delhi,"Najafgarh, Delhi - DPCC",05-04-2024 18:00:00,28.570173,76.933762,NO2,13,85,45
India,Delhi,Delhi,"Najafgarh, Delhi - DPCC",05-04-2024 18:00:00,28.570173,76.933762,CO,8,72,39
India,Delhi,Delhi,"Narela, Delhi - DPCC",05-04-2024 18:00:00,28.822836,77.101981,PM2.5,30,346,118
India,Delhi,Delhi,"Narela, Delhi - DPCC",05-04-2024 18:00:00,28.822836,77.101981,NO2,10,91,38
India,Delhi,Delhi,"New Moti Bagh, Delhi - MHUA",05-04-2024 18:00:00,28.57834,77.18400,NO2,6,35,14
India,Delhi,Delhi,"Patparganj, Delhi - DPCC",05-04-2024 18:00:00,28.623763,77.287209,PM2.5,32,197,94
India,Delhi,Delhi,"Patparganj, Delhi - DPCC",05-04-2024 18:00:00,28.623763,77.287209,PM10,113,300,171
India,Delhi,Delhi,"Patparganj, Delhi - DPCC",05-04-2024 18:00:00,28.623763,77.287209,CO,4,102,18
India,Delhi,Delhi,"Patparganj, Delhi - DPCC",05-04-2024 18:00:00,28.623763,77.287209,OZONE,5,87,74
India,Delhi,Delhi,"Punjabi Bagh, Delhi - DPCC",05-04-2024 18:00:00,28.674045,77.131023,PM2.5,45,243,107
India,Delhi,Delhi,"Punjabi Bagh, Delhi - DPCC",05-04-2024 18:00:00,28.674045,77.131023,PM10,96,215,140
India,Delhi,Delhi,"Punjabi Bagh, Delhi - DPCC",05-04-2024 18:00:00,28.674045,77.131023,NO2,40,83,58
India,Delhi,Delhi,"Punjabi Bagh, Delhi - DPCC",05-04-2024 18:00:00,28.674045,77.131023,OZONE,1,27,23
India,Delhi,Delhi,"Pusa, Delhi - DPCC",05-04-2024 18:00:00,28.639652,77.146275,PM10,100,262,169
India,Delhi,Delhi,"Pusa, Delhi - IMD",05-04-2024 18:00:00,28.636110,77.173332,NO2,13,45,24
India,Delhi,Delhi,"R K Puram, Delhi - DPCC",05-04-2024 18:00:00,28.563262,77.186937,PM2.5,52,336,148
India,Delhi,Delhi,"Rohini, Delhi - DPCC",05-04-2024 18:00:00,28.732528,77.119920,PM10,98,442,172
India,Delhi,Delhi,"Rohini, Delhi - DPCC",05-04-2024 18:00:00,28.732528,77.119920,NH3,7,12,9
India,Delhi,Delhi,"Rohini, Delhi - DPCC",05-04-2024 18:00:00,28.732528,77.119920,SO2,7,31,15
India,Delhi,Delhi,"Shadipur, Delhi - CPCB",05-04-2024 18:00:00,28.6514781,77.1473105,NO2,55,93,72
India,Delhi,Delhi,"Shadipur, Delhi - CPCB",05-04-2024 18:00:00,28.6514781,77.1473105,OZONE,7,67,27
India,Delhi,Delhi,"Sonia Vihar, Delhi - DPCC",05-04-2024 18:00:00,28.710508,77.249485,PM2.5,30,240,99
India,Delhi,Delhi,"Sri Aurobindo Marg, Delhi - DPCC",05-04-2024 18:00:00,28.531346,77.190156,NO2,10,104,50
India,Delhi,Delhi,"Sri Aurobindo Marg, Delhi - DPCC",05-04-2024 18:00:00,28.531346,77.190156,OZONE,9,78,75
India,Delhi,Delhi,"Wazirpur, Delhi - DPCC",05-04-2024 18:00:00,28.699793,77.165453,CO,4,118,15
India,Gujarat,Ahmedabad,"Chandkheda, Ahmedabad - IITM",05-04-2024 18:00:00,23.107969,72.574648,PM2.5,54,196,104
India,Gujarat,Ahmedabad,"Gyaspur, Ahmedabad - IITM",05-04-2024 18:00:00,22.977134,72.553024,NO2,17,79,51
India,Gujarat,Ahmedabad,"Gyaspur, Ahmedabad - IITM",05-04-2024 18:00:00,22.977134,72.553024,SO2,3,5,3
India,Gujarat,Ahmedabad,"Gyaspur, Ahmedabad - IITM",05-04-2024 18:00:00,22.977134,72.553024,CO,5,32,11
India,Gujarat,Ahmedabad,"Gyaspur, Ahmedabad - IITM",05-04-2024 18:00:00,22.977134,72.553024,OZONE,1,19,4
India,Gujarat,Ahmedabad,"Maninagar, Ahmedabad - GPCB",05-04-2024 18:00:00,23.002657,72.591912,PM10,37,196,101
India,Gujarat,Ahmedabad,"Raikhad, Ahmedabad - IITM",05-04-2024 18:00:00,23.020509,72.579261,NH3,2,5,4
India,Gujarat,Ahmedabad,"SAC ISRO Satellite, Ahmedabad - IITM",05-04-2024 18:00:00,23.023389,72.515201,PM10,98,109,104
India,Gujarat,Ahmedabad,"SAC ISRO Satellite, Ahmedabad - IITM",05-04-2024 18:00:00,23.023389,72.515201,NH3,3,4,3
India,Gujarat,Ahmedabad,"SAC ISRO Satellite, Ahmedabad - IITM",05-04-2024 18:00:00,23.023389,72.515201,OZONE,11,20,19
India,Gujarat,Ahmedabad,"SVPI Airport Hansol, Ahmedabad - IITM",05-04-2024 18:00:00,23.076793,72.627874,NH3,4,5,4
India,Gujarat,Ahmedabad,"Sardar Vallabhbhai Patel Stadium, Ahmedabad - IITM",05-04-2024 18:00:00,23.043070,72.562968,PM2.5,47,95,73
India,Gujarat,Ahmedabad,"Sardar Vallabhbhai Patel Stadium, Ahmedabad - IITM",05-04-2024 18:00:00,23.043070,72.562968,NH3,7,7,7
India,Gujarat,Ankleshwar,"GIDC, Ankleshwar - GPCB",05-04-2024 18:00:00,21.613267,73.010555,NO2,35,35,35
India,Gujarat,Ankleshwar,"GIDC, Ankleshwar - GPCB",05-04-2024 18:00:00,21.613267,73.010555,SO2,10,84,25
India,Gujarat,Gandhinagar,"Sector-10, Gandhinagar - GPCB",05-04-2024 18:00:00,23.221714,72.654328,PM2.5,24,61,38
India,Gujarat,Nandesari,"GIDC, Nandesari - Nandesari Ind. Association",05-04-2024 18:00:00,22.410802,73.097923,PM10,100,403,190
India,Gujarat,Nandesari,"GIDC, Nandesari - Nandesari Ind. Association",05-04-2024 18:00:00,22.410802,73.097923,NO2,9,134,33
India,Gujarat,Vatva,"Phase-4 GIDC, Vatva - GPCB",05-04-2024 18:00:00,22.969611,72.643500,PM2.5,32,117,58
India,Gujarat,Vatva,"Phase-4 GIDC, Vatva - GPCB",05-04-2024 18:00:00,22.969611,72.643500,PM10,57,122,86
India,Gujarat,Vatva,"Phase-4 GIDC, Vatva - GPCB",05-04-2024 18:00:00,22.969611,72.643500,SO2,4,71,22
India,Haryana,Ambala,"Patti Mehar, Ambala - HSPCB",05-04-2024 18:00:00,30.379589,76.778328,PM2.5,27,57,43
India,Haryana,Ambala,"Patti Mehar, Ambala - HSPCB",05-04-2024 18:00:00,30.379589,76.778328,NO2,7,21,14
India,Haryana,Ambala,"Patti Mehar, Ambala - HSPCB",05-04-2024 18:00:00,30.379589,76.778328,SO2,NA,NA,NA
India,Haryana,Ambala,"Patti Mehar, Ambala - HSPCB",05-04-2024 18:00:00,30.379589,76.778328,OZONE,34,51,40
India,Haryana,Bahadurgarh,"Arya Nagar, Bahadurgarh - HSPCB",05-04-2024 18:00:00,28.6701,76.9254,PM2.5,10,78,44
India,Haryana,Bahadurgarh,"Arya Nagar, Bahadurgarh - HSPCB",05-04-2024 18:00:00,28.6701,76.9254,PM10,80,185,142
India,Haryana,Ballabgarh,"Nathu Colony, Ballabgarh - HSPCB",05-04-2024 18:00:00,28.3419248,77.319699,PM10,125,228,177
India,Haryana,Ballabgarh,"Nathu Colony, Ballabgarh - HSPCB",05-04-2024 18:00:00,28.3419248,77.319699,NO2,11,13,12
India,Haryana,Bhiwani,"H.B. Colony, Bhiwani - HSPCB",05-04-2024 18:00:00,28.806223,76.141105,OZONE,6,31,21
India,Haryana,Charkhi Dadri,"Mini Secretariat, Charkhi Dadri - HSPCB",05-04-2024 18:00:00,28.593883,76.270653,CO,22,97,27
India,Haryana,Dharuhera,"Municipal Corporation Office, Dharuhera -  HSPCB",05-04-2024 18:00:00,28.206800,76.799700,CO,10,104,32
India,Haryana,Faridabad,"New Industrial Town, Faridabad - HSPCB",05-04-2024 18:00:00,28.39072,77.30059,OZONE,14,185,90
India,Haryana,Faridabad,"Sector 11, Faridabad - HSPCB",05-04-2024 18:00:00,28.376058,77.315741,PM2.5,65,332,250
India,Haryana,Faridabad,"Sector 11, Faridabad - HSPCB",05-04-2024 18:00:00,28.376058,77.315741,CO,29,72,34
India,Haryana,Faridabad,"Sector- 16A, Faridabad - HSPCB",05-04-2024 18:00:00,28.4088421,77.3099081,SO2,1,25,18
India,Haryana,Gurugram,"Teri Gram, Gurugram - HSPCB",05-04-2024 18:00:00,28.4275,77.1465,PM2.5,152,318,248
India,Haryana,Gurugram,"Vikas Sadan, Gurugram - HSPCB",05-04-2024 18:00:00,28.4501238,77.0263051,PM2.5,58,344,196
India,Haryana,Hisar,"Urban Estate-II, Hisar - HSPCB",05-04-2024 18:00:00,29.140560,75.744941,CO,2,74,25
India,Haryana,Jind,"Police Lines, Jind - HSPCB",05-04-2024 18:00:00,29.307814,76.337619,PM10,49,103,67
India,Haryana,Jind,"Police Lines, Jind - HSPCB",05-04-2024 18:00:00,29.307814,76.337619,NO2,7,16,12
India,Haryana,Kurukshetra,"Sector-7, Kurukshetra - HSPCB",05-04-2024 18:00:00,29.966942,76.875879,PM10,63,102,84
India,Haryana,Kurukshetra,"Sector-7, Kurukshetra - HSPCB",05-04-2024 18:00:00,29.966942,76.875879,NO2,10,10,10
India,Haryana,Kurukshetra,"Sector-7, Kurukshetra - HSPCB",05-04-2024 18:00:00,29.966942,76.875879,NH3,5,5,5
India,Haryana,Kurukshetra,"Sector-7, Kurukshetra - HSPCB",05-04-2024 18:00:00,29.966942,76.875879,OZONE,27,89,76
India,Haryana,Mandikhera,"General Hospital, Mandikhera - HSPCB",05-04-2024 18:00:00,27.9002,76.9938,PM2.5,14,50,31
India,Haryana,Mandikhera,"General Hospital, Mandikhera - HSPCB",05-04-2024 18:00:00,27.9002,76.9938,PM10,60,132,102
India,Haryana,Mandikhera,"General Hospital, Mandikhera - HSPCB",05-04-2024 18:00:00,27.9002,76.9938,NO2,20,25,22
India,Haryana,Mandikhera,"General Hospital, Mandikhera - HSPCB",05-04-2024 18:00:00,27.9002,76.9938,SO2,32,37,34
India,Haryana,Manesar,"Sector-2 IMT, Manesar - HSPCB",05-04-2024 18:00:00,28.360699,76.936090,PM2.5,39,108,80
India,Haryana,Manesar,"Sector-2 IMT, Manesar - HSPCB",05-04-2024 18:00:00,28.360699,76.936090,NO2,23,29,27
India,Haryana,Manesar,"Sector-2 IMT, Manesar - HSPCB",05-04-2024 18:00:00,28.360699,76.936090,NH3,1,3,2
India,Haryana,Narnaul,"Shastri Nagar, Narnaul - HSPCB",05-04-2024 18:00:00,28.060249,76.113115,NH3,4,24,11
India,Haryana,Narnaul,"Shastri Nagar, Narnaul - HSPCB",05-04-2024 18:00:00,28.060249,76.113115,OZONE,38,52,44
India,Haryana,Palwal,"Shyam Nagar, Palwal - HSPCB",05-04-2024 18:00:00,28.1485564,77.3320667,NH3,8,9,9
India,Haryana,Palwal,"Shyam Nagar, Palwal - HSPCB",05-04-2024 18:00:00,28.1485564,77.3320667,OZONE,9,56,41
India,Haryana,Panchkula,"Sector-6, Panchkula - HSPCB ",05-04-2024 18:00:00,30.7057778,76.8531805555555,CO,2,24,15
India,Haryana,Rohtak,"MD University, Rohtak - HSPCB",05-04-2024 18:00:00,28.52123,76.37138,PM2.5,1,355,42
India,Haryana,Rohtak,"MD University, Rohtak - HSPCB",05-04-2024 18:00:00,28.52123,76.37138,CO,17,106,44
India,Haryana,Rohtak,"MD University, Rohtak - HSPCB",05-04-2024 18:00:00,28.52123,76.37138,OZONE,44,56,50
India,Haryana,Sirsa,"F-Block, Sirsa - HSPCB",05-04-2024 18:00:00,29.536400,75.015800,NH3,12,13,13
India,Haryana,Sirsa,"F-Block, Sirsa - HSPCB",05-04-2024 18:00:00,29.536400,75.015800,CO,34,42,38
India,Haryana,Sirsa,"F-Block, Sirsa - HSPCB",05-04-2024 18:00:00,29.536400,75.015800,OZONE,52,135,111
India,Haryana,Sonipat,"Murthal, Sonipat - HSPCB",05-04-2024 18:00:00,29.027200,77.062100,CO,4,60,25
India,Haryana,Yamuna Nagar,"Gobind Pura, Yamuna Nagar - HSPCB",05-04-2024 18:00:00,30.1480566,77.2893471,PM10,60,108,84
India,Haryana,Yamuna Nagar,"Gobind Pura, Yamuna Nagar - HSPCB",05-04-2024 18:00:00,30.1480566,77.2893471,NH3,1,6,4
India,Himachal Pradesh,Baddi,"HIMUDA Complex Phase-1, Baddi - HPPCB",05-04-2024 18:00:00,30.943887,76.801991,NO2,14,50,24
India,Jharkhand,Dhanbad,"Kalakusuma, Dhanbad - DMC",05-04-2024 18:00:00,23.811548,86.481238,OZONE,18,40,26
India,Jharkhand,Dhanbad,"Sardar Patel Nagar, Dhanbad - JSPCB",05-04-2024 18:00:00,23.80569,86.44268,PM2.5,4,311,104
India,Jharkhand,Dhanbad,"Sardar Patel Nagar, Dhanbad - JSPCB",05-04-2024 18:00:00,23.80569,86.44268,OZONE,13,30,19
India,Jharkhand,Pathardih,"Mohalbani Ghat, Pathardih - DMC",05-04-2024 18:00:00,23.669880,86.411725,PM2.5,NA,NA,NA
India,Karnataka,Bagalkot,"Vidayagiri, Bagalkot - KSPCB",05-04-2024 18:00:00,16.172806,75.659694,PM10,49,50,50
India,Karnataka,Bagalkot,"Vidayagiri, Bagalkot - KSPCB",05-04-2024 18:00:00,16.172806,75.659694,CO,26,55,36
India,Karnataka,Bagalkot,"Vidayagiri, Bagalkot - KSPCB",05-04-2024 18:00:00,16.172806,75.659694,OZONE,NA,NA,NA
India,Karnataka,Belgaum,"Ramteerth Nagar, Belgaum - KSPCB",05-04-2024 18:00:00,15.888653,74.541751,CO,58,80,65
India,Karnataka,Bengaluru,"BTM Layout, Bengaluru - CPCB",05-04-2024 18:00:00,12.9135218,77.5950804,PM10,32,213,62
India,Karnataka,Bengaluru,"Bapuji Nagar, Bengaluru - KSPCB",05-04-2024 18:00:00,12.951913,77.539784,PM2.5,41,123,82
India,Karnataka,Bengaluru,"Bapuji Nagar, Bengaluru - KSPCB",05-04-2024 18:00:00,12.951913,77.539784,NH3,1,1,1
India,Karnataka,Bengaluru,"Bapuji Nagar, Bengaluru - KSPCB",05-04-2024 18:00:00,12.951913,77.539784,OZONE,1,25,9
India,Karnataka,Bengaluru,"Hebbal, Bengaluru - KSPCB",05-04-2024 18:00:00,13.029152,77.585901,PM10,NA,NA,NA
India,Karnataka,Bengaluru,"Hombegowda Nagar, Bengaluru - KSPCB",05-04-2024 18:00:00,12.938539,77.590100,PM10,48,102,70
India,Karnataka,Bengaluru,"Hombegowda Nagar, Bengaluru - KSPCB",05-04-2024 18:00:00,12.938539,77.590100,NO2,10,32,17
India,Karnataka,Bengaluru,"Jayanagar 5th Block, Bengaluru - KSPCB",05-04-2024 18:00:00,12.920984,77.584908,CO,14,26,16
India,Karnataka,Bengaluru,"Jigani, Bengaluru - KSPCB",05-04-2024 18:00:00,12.7816279,77.6299145,CO,NA,NA,NA
India,Karnataka,Bengaluru,"Kasturi Nagar, Bengaluru - KSPCB",05-04-2024 18:00:00,13.003872,77.664217,PM10,77,129,101
India,Karnataka,Bengaluru,"Peenya, Bengaluru - CPCB",05-04-2024 18:00:00,13.0270199,77.494094,PM10,NA,NA,NA
India,Karnataka,Bengaluru,"Peenya, Bengaluru - CPCB",05-04-2024 18:00:00,13.0270199,77.494094,OZONE,16,58,40
India,Karnataka,Bengaluru,"RVCE-Mailasandra, Bengaluru - KSPCB",05-04-2024 18:00:00,12.921418,77.502466,PM2.5,61,133,89
India,Karnataka,Bengaluru,"RVCE-Mailasandra, Bengaluru - KSPCB",05-04-2024 18:00:00,12.921418,77.502466,PM10,73,116,101
India,Karnataka,Bengaluru,"Sanegurava Halli, Bengaluru - KSPCB",05-04-2024 18:00:00,12.990328,77.5431385,PM10,35,85,57
India,Karnataka,Bengaluru,"Shivapura_Peenya, Bengaluru - KSPCB",05-04-2024 18:00:00,13.0246342,77.5080115,NH3,4,4,4
India,Karnataka,Bengaluru,"Silk Board, Bengaluru - KSPCB",05-04-2024 18:00:00,12.917348,77.622813,SO2,1,15,9
India,Karnataka,Bengaluru,"Silk Board, Bengaluru - KSPCB",05-04-2024 18:00:00,12.917348,77.622813,CO,4,40,20
India,Karnataka,Bidar,"Naubad, Bidar - KSPCB",05-04-2024 18:00:00,17.930306,77.482194,PM10,NA,NA,NA
India,Karnataka,Chamarajanagar,"Urban, Chamarajanagar - KSPCB",05-04-2024 18:00:00,11.55358,76.55521,PM2.5,20,37,25
India,Karnataka,Chamarajanagar,"Urban, Chamarajanagar - KSPCB",05-04-2024 18:00:00,11.55358,76.55521,SO2,2,7,4
India,Karnataka,Chikkaballapur,"Chikkaballapur Rural, Chikkaballapur - KSPCB",05-04-2024 18:00:00,13.428828,77.731418,SO2,12,26,17
India,Karnataka,Chikkamagaluru,"Kalyana Nagara, Chikkamagaluru - KSPCB",05-04-2024 18:00:00,13.328028,75.797056,PM10,38,166,64
India,Karnataka,Chikkamagaluru,"Kalyana Nagara, Chikkamagaluru - KSPCB",05-04-2024 18:00:00,13.328028,75.797056,OZONE,10,66,58
India,Karnataka,Davanagere,"Devaraj Urs Badavane, Davanagere - KSPCB",05-04-2024 18:00:00,14.475800,75.905200,NH3,NA,NA,NA
India,Karnataka,Davanagere,"Devaraj Urs Badavane, Davanagere - KSPCB",05-04-2024 18:00:00,14.475800,75.905200,SO2,NA,NA,NA
India,Karnataka,Davanagere,"Devaraj Urs Badavane, Davanagere - KSPCB",05-04-2024 18:00:00,14.475800,75.905200,CO,6,19,17
India,Karnataka,Dharwad,"Kalabhavan, Dharwad - KSPCB",05-04-2024 18:00:00,15.459706,75.008381,PM2.5,57,147,68
India,Karnataka,Dharwad,"Kalabhavan, Dharwad - KSPCB",05-04-2024 18:00:00,15.459706,75.008381,PM10,70,146,85
India,Karnataka,Dharwad,"Kalabhavan, Dharwad - KSPCB",05-04-2024 18:00:00,15.459706,75.008381,CO,56,95,75
India,Karnataka,Gadag,"Panchal Nagar, Gadag - KSPCB",05-04-2024 18:00:00,15.411456,75.638133,PM10,37,66,52
India,Karnataka,Gadag,"Panchal Nagar, Gadag - KSPCB",05-04-2024 18:00:00,15.411456,75.638133,CO,44,50,46
India,Karnataka,Gadag,"Panchal Nagar, Gadag - KSPCB",05-04-2024 18:00:00,15.411456,75.638133,OZONE,37,85,74
India,Karnataka,Hassan,"B.Katihalli, Hassan - KSPCB",05-04-2024 18:00:00,13.008556,76.125258,PM10,70,105,86
India,Karnataka,Hubballi,"Deshpande Nagar, Hubballi - KSPCB",05-04-2024 18:00:00,15.351773,75.140726,NO2,NA,NA,NA
India,Karnataka,Hubballi,"Lingaraj Nagar, Hubballi - KSPCB",05-04-2024 18:00:00,15.3714823,75.1160168,NH3,2,3,3
India,Karnataka,Kalaburagi,"Lal Bahadur Shastri Nagar, Kalaburagi - KSPCB",05-04-2024 18:00:00,17.321993,76.822628,NO2,12,12,12
India,Karnataka,Kalaburagi,"Lal Bahadur Shastri Nagar, Kalaburagi - KSPCB",05-04-2024 18:00:00,17.321993,76.822628,OZONE,8,92,81
India,Karnataka,Kalaburagi,"Mahatma Basaveswar Colony, Kalaburgi - KSPCB",05-04-2024 18:00:00,17.336318,76.847397,OZONE,3,17,14
India,Karnataka,Karwar,"KHB Colony, Karwar - KSPCB",05-04-2024 18:00:00,14.816666,74.141003,PM10,34,83,56
India,Karnataka,Karwar,"KHB Colony, Karwar - KSPCB",05-04-2024 18:00:00,14.816666,74.141003,NO2,1,14,5
India,Karnataka,Karwar,"KHB Colony, Karwar - KSPCB",05-04-2024 18:00:00,14.816666,74.141003,SO2,18,20,19
India,Karnataka,Kolar,"Tamaka Ind. Area, Kolar - KSPCB",05-04-2024 18:00:00,13.1276288,78.1570122,SO2,12,20,15
India,Karnataka,Kolar,"Tamaka Ind. Area, Kolar - KSPCB",05-04-2024 18:00:00,13.1276288,78.1570122,CO,5,6,6
India,Karnataka,Koppal,"Diwator Nagar, Koppal - KSPCB",05-04-2024 18:00:00,15.347630,76.181767,NH3,6,10,8
India,Karnataka,Koppal,"Diwator Nagar, Koppal - KSPCB",05-04-2024 18:00:00,15.347630,76.181767,OZONE,30,88,66
India,Karnataka,Mangalore,"Kadri, Mangalore - KSPCB",05-04-2024 18:00:00,12.889250,74.853000,OZONE,31,49,34
India,Karnataka,Mysuru,"Hebbal 1st Stage, Mysuru - KSPCB",05-04-2024 18:00:00,12.21041,76.37376,NH3,1,4,2
India,Karnataka,Ramanagara,"Vijay Nagar, Ramanagara - KSPCB",05-04-2024 18:00:00,12.733409,77.298051,OZONE,27,30,29
India,Karnataka,Shivamogga,"Vinoba Nagara, Shivamogga - KSPCB",05-04-2024 18:00:00,13.940000,75.555917,NO2,9,16,13
India,Karnataka,Shivamogga,"Vinoba Nagara, Shivamogga - KSPCB",05-04-2024 18:00:00,13.940000,75.555917,CO,8,42,16
India,Karnataka,Tumakuru,"Thimmalapura, Tumakuru - KSPCB",05-04-2024 18:00:00,13.377516,77.099072,SO2,6,22,10
India,Kerala,Eloor,"Udyogamandal, Eloor - Kerala PCB",05-04-2024 18:00:00,10.073232,76.302765,PM10,33,48,39
India,Kerala,Thiruvananthapuram,"Kariavattom, Thiruvananthapuram - Kerala PCB",05-04-2024 18:00:00,8.563700,76.886500,NH3,1,1,1
India,Kerala,Thiruvananthapuram,"Plammoodu, Thiruvananthapuram - Kerala PCB",05-04-2024 18:00:00,8.5149093,76.9435879,SO2,8,15,10
India,Kerala,Thiruvananthapuram,"Plammoodu, Thiruvananthapuram - Kerala PCB",05-04-2024 18:00:00,8.5149093,76.9435879,CO,18,32,23
India,Kerala,Thrissur,"Corporation Ground, Thrissur - Kerala PCB",05-04-2024 18:00:00,10.532400,76.215900,NO2,7,8,7
India,Madhya Pradesh,Bhopal,"T T Nagar, Bhopal - MPPCB",05-04-2024 18:00:00,23.233584,77.400574,CO,20,82,26
India,Madhya Pradesh,Dewas,"Bhopal Chauraha, Dewas - MPPCB",05-04-2024 18:00:00,22.9682591,76.064118,PM10,107,180,132
India,Madhya Pradesh,Dewas,"Bhopal Chauraha, Dewas - MPPCB",05-04-2024 18:00:00,22.9682591,76.064118,NO2,12,15,13
India,Madhya Pradesh,Gwalior,"City Center, Gwalior - MPPCB",05-04-2024 18:00:00,26.203442,78.193251,PM2.5,36,328,103
India,Madhya Pradesh,Gwalior,"City Center, Gwalior - MPPCB",05-04-2024 18:00:00,26.203442,78.193251,CO,24,128,41
India,Madhya Pradesh,Gwalior,"Deen Dayal Nagar, Gwalior - MPPCB",05-04-2024 18:00:00,26.259242,78.216432,PM2.5,47,312,121
India,Madhya Pradesh,Gwalior,"Maharaj Bada, Gwalior - MPPCB",05-04-2024 18:00:00,26.200388,78.147714,PM10,58,207,118
India,Madhya Pradesh,Indore,"Chhoti Gwaltoli, Indore - MPPCB",05-04-2024 18:00:00,22.4310,75.5213,PM2.5,48,353,115
India,Madhya Pradesh,Indore,"Chhoti Gwaltoli, Indore - MPPCB",05-04-2024 18:00:00,22.4310,75.5213,PM10,88,202,128
India,Madhya Pradesh,Indore,"Chhoti Gwaltoli, Indore - MPPCB",05-04-2024 18:00:00,22.4310,75.5213,CO,26,92,61
India,Madhya Pradesh,Indore,"Maguda Nagar, Indore - IMC",05-04-2024 18:00:00,22.7524,75.8872,PM10,42,130,65
India,Madhya Pradesh,Indore,"Maguda Nagar, Indore - IMC",05-04-2024 18:00:00,22.7524,75.8872,CO,24,38,24
India,Madhya Pradesh,Indore,"Regional Park, Indore - IMC",05-04-2024 18:00:00,22.6780,75.8559,PM2.5,46,233,81
India,Madhya Pradesh,Indore,"Residency Area, Indore - IMC",05-04-2024 18:00:00,22.7084,75.8815,PM2.5,41,171,71
India,Madhya Pradesh,Indore,"Residency Area, Indore - IMC",05-04-2024 18:00:00,22.7084,75.8815,OZONE,10,16,14
India,Madhya Pradesh,Jabalpur,"Gupteshwar, Jabalpur - JMC",05-04-2024 18:00:00,23.142888,79.916147,PM10,57,148,93
India,Madhya Pradesh,Jabalpur,"Gupteshwar, Jabalpur - JMC",05-04-2024 18:00:00,23.142888,79.916147,CO,22,68,25
India,Madhya Pradesh,Jabalpur,"Marhatal, Jabalpur - MPPCB",05-04-2024 18:00:00,23.168606,79.932247,SO2,8,22,13
India,Madhya Pradesh,Katni,"Gole Bazar, Katni - MPPCB",05-04-2024 18:00:00,23.50016,80.23284,PM2.5,22,283,114
India,Madhya Pradesh,Katni,"Gole Bazar, Katni - MPPCB",05-04-2024 18:00:00,23.50016,80.23284,PM10,74,300,162
India,Madhya Pradesh,Maihar,"Sahilara, Maihar - KJS Cements",05-04-2024 18:00:00,24.2613009,80.7231783,PM2.5,3,167,37
India,Madhya Pradesh,Maihar,"Sahilara, Maihar - KJS Cements",05-04-2024 18:00:00,24.2613009,80.7231783,PM10,35,160,65
India,Madhya Pradesh,Maihar,"Sahilara, Maihar - KJS Cements",05-04-2024 18:00:00,24.2613009,80.7231783,NO2,23,30,27
India,Madhya Pradesh,Mandideep,"Sector-D Industrial Area, Mandideep - MPPCB",05-04-2024 18:00:00,23.108440,77.511428,NH3,5,6,5
India,Madhya Pradesh,Sagar,"Civil Lines, Sagar - MPPCB",05-04-2024 18:00:00,23.838586,78.759431,PM2.5,28,99,58
India,Madhya Pradesh,Sagar,"Civil Lines, Sagar - MPPCB",05-04-2024 18:00:00,23.838586,78.759431,NH3,3,7,5
India,Madhya Pradesh,Sagar,"Civil Lines, Sagar - MPPCB",05-04-2024 18:00:00,23.838586,78.759431,CO,10,46,22
India,Madhya Pradesh,Sagar,"Civil Lines, Sagar - MPPCB",05-04-2024 18:00:00,23.838586,78.759431,OZONE,2,127,100
India,Madhya Pradesh,Singrauli,"Suryakiran Bhawan NCL, Singrauli - MPPCB",05-04-2024 18:00:00,24.108970,82.645580,NO2,8,99,44
India,Madhya Pradesh,Singrauli,"Suryakiran Bhawan NCL, Singrauli - MPPCB",05-04-2024 18:00:00,24.108970,82.645580,CO,28,53,43
India,Madhya Pradesh,Ujjain,"Mahakaleshwar Temple, Ujjain - MPPCB",05-04-2024 18:00:00,23.182719 ,75.768218 ,PM2.5,15,500,56
India,Madhya Pradesh,Ujjain,"Mahakaleshwar Temple, Ujjain - MPPCB",05-04-2024 18:00:00,23.182719 ,75.768218 ,PM10,68,146,104
India,Madhya Pradesh,Ujjain,"Mahakaleshwar Temple, Ujjain - MPPCB",05-04-2024 18:00:00,23.182719 ,75.768218 ,NO2,10,49,22
India,Madhya Pradesh,Ujjain,"Mahakaleshwar Temple, Ujjain - MPPCB",05-04-2024 18:00:00,23.182719 ,75.768218 ,CO,8,74,24
India,Maharashtra,Ahmednagar,"Tarakpur, Ahmednagar - MPCB",05-04-2024 18:00:00,19.10122,74.73339,NO2,20,139,59
India,Maharashtra,Akola,"Ramdaspeth, Akola - MPCB",05-04-2024 18:00:00,20.719516,77.000253,PM10,53,129,92
India,Maharashtra,Amravati,"Shri Shivaji Science College, Amaravati - MPCB",05-04-2024 18:00:00,20.939198,77.765701,CO,28,89,33
India,Maharashtra,Amravati,"Shri Shivaji Science College, Amaravati - MPCB",05-04-2024 18:00:00,20.939198,77.765701,OZONE,11,81,74
India,Maharashtra,Aurangabad,"MIDC Chilkalthana, Aurangabad - MPCB",05-04-2024 18:00:00,19.875620,75.387310,PM10,93,159,119
India,Maharashtra,Aurangabad,"More Chowk Waluj, Aurangabad - MPCB",05-04-2024 18:00:00,19.8389439,75.244448,NH3,9,10,9
India,Maharashtra,Aurangabad,"More Chowk Waluj, Aurangabad - MPCB",05-04-2024 18:00:00,19.8389439,75.244448,OZONE,28,75,46
India,Maharashtra,Aurangabad,"Rachnakar Colony, Aurangabad - MPCB",05-04-2024 18:00:00,19.863756,75.321188,CO,6,78,11
India,Maharashtra,Aurangabad,"Rachnakar Colony, Aurangabad - MPCB",05-04-2024 18:00:00,19.863756,75.321188,OZONE,14,123,109
India,Maharashtra,Badlapur,"Katrap, Badlapur - MPCB",05-04-2024 18:00:00,19.16485,73.23409,NO2,8,25,16
India,Maharashtra,Badlapur,"Katrap, Badlapur - MPCB",05-04-2024 18:00:00,19.16485,73.23409,CO,13,76,25
India,Maharashtra,Bhiwandi,"Gokul Nagar, Bhiwandi - MPCB",05-04-2024 18:00:00,19.309073,73.057223,SO2,2,10,5
India,Maharashtra,Bhiwandi,"Gokul Nagar, Bhiwandi - MPCB",05-04-2024 18:00:00,19.309073,73.057223,CO,10,82,15
India,Maharashtra,Chandrapur,"Chauhan Colony, Chandrapur - MPCB",05-04-2024 18:00:00,19.962900,79.298714,PM2.5,61,302,150
India,Maharashtra,Chandrapur,"Chauhan Colony, Chandrapur - MPCB",05-04-2024 18:00:00,19.962900,79.298714,PM10,51,148,98
India,Maharashtra,Chandrapur,"Chauhan Colony, Chandrapur - MPCB",05-04-2024 18:00:00,19.962900,79.298714,NO2,19,94,44
India,Maharashtra,Chandrapur,"MIDC Khutala, Chandrapur - MPCB",05-04-2024 18:00:00,19.9775302,79.2337086,SO2,18,23,21
India,Maharashtra,Dhule,"Deopur, Dhule - MPCB",05-04-2024 18:00:00,20.918946,74.776388,SO2,5,9,7
India,Maharashtra,Jalna,"Old MIDC, Jalna - MPCB",05-04-2024 18:00:00,19.854616,75.905894,CO,9,36,23
India,Maharashtra,Kalyan,"Khadakpada, Kalyan - MPCB",05-04-2024 18:00:00,19.25292,73.142019,SO2,26,36,30
India,Maharashtra,Kolhapur,"Shivaji University, Kolhapur - MPCB",05-04-2024 18:00:00,16.6870449,74.2505872,PM2.5,73,311,142
India,Maharashtra,Kolhapur,"Shivaji University, Kolhapur - MPCB",05-04-2024 18:00:00,16.6870449,74.2505872,OZONE,10,117,99
India,Maharashtra,Latur,"Sawe Wadi, Latur - MPCB",05-04-2024 18:00:00,18.39963,76.57452,SO2,5,14,10
India,Maharashtra,Mahad,"Kamble Tarf Birwadi, Mahad - MPCB",05-04-2024 18:00:00,18.1023399,73.4783687,NO2,21,45,27
India,Maharashtra,Mahad,"Kamble Tarf Birwadi, Mahad - MPCB",05-04-2024 18:00:00,18.1023399,73.4783687,NH3,8,8,8
India,Maharashtra,Malegaon,"Mahesh Nagar, Malegaon - MPCB",05-04-2024 18:00:00,20.555712,74.529236,PM10,73,120,92
India,Maharashtra,Malegaon,"Mahesh Nagar, Malegaon - MPCB",05-04-2024 18:00:00,20.555712,74.529236,NO2,7,78,30
India,Maharashtra,Malegaon,"Mahesh Nagar, Malegaon - MPCB",05-04-2024 18:00:00,20.555712,74.529236,NH3,4,6,5
India,Maharashtra,Mira-Bhayandar,"Bhayandar West, Mira-Bhayandar - MPCB",05-04-2024 18:00:00,19.296481,72.840923,PM10,NA,NA,NA
India,Maharashtra,Mumbai,"Bandra Kurla Complex, Mumbai - MPCB",05-04-2024 18:00:00,19.065931,72.862131,NH3,2,5,4
India,Maharashtra,Mumbai,"Borivali East, Mumbai - IITM",05-04-2024 18:00:00,19.23241,72.86895,CO,18,48,24
India,Maharashtra,Mumbai,"Borivali East, Mumbai - MPCB",05-04-2024 18:00:00,19.2243333,72.8658113,NO2,3,23,12
India,Maharashtra,Mumbai,"Borivali East, Mumbai - MPCB",05-04-2024 18:00:00,19.2243333,72.8658113,CO,1,38,35
India,Maharashtra,Mumbai,"Chembur, Mumbai - MPCB",05-04-2024 18:00:00,19.0364585,72.8954371,PM2.5,42,91,60
India,Maharashtra,Mumbai,"Chembur, Mumbai - MPCB",05-04-2024 18:00:00,19.0364585,72.8954371,OZONE,1,122,89
India,Maharashtra,Mumbai,"Chhatrapati Shivaji Intl. Airport (T2), Mumbai - MPCB",05-04-2024 18:00:00,19.10078,72.87462,PM2.5,43,95,64
India,Maharashtra,Mumbai,"Chhatrapati Shivaji Intl. Airport (T2), Mumbai - MPCB",05-04-2024 18:00:00,19.10078,72.87462,OZONE,4,10,7
India,Maharashtra,Mumbai,"Ghatkopar, Mumbai - BMC",05-04-2024 18:00:00,19.083694,72.920967,PM10,53,104,77
India,Maharashtra,Mumbai,"Kandivali East, Mumbai - MPCB",05-04-2024 18:00:00,19.205800,72.868200,PM10,46,246,102
India,Maharashtra,Mumbai,"Kandivali East, Mumbai - MPCB",05-04-2024 18:00:00,19.205800,72.868200,CO,24,28,25
India,Maharashtra,Mumbai,"Kandivali West, Mumbai - BMC",05-04-2024 18:00:00,19.215859,72.831718,PM2.5,28,77,44
India,Maharashtra,Mumbai,"Kandivali West, Mumbai - BMC",05-04-2024 18:00:00,19.215859,72.831718,NO2,8,41,19
India,Maharashtra,Mumbai,"Kandivali West, Mumbai - BMC",05-04-2024 18:00:00,19.215859,72.831718,SO2,1,36,3
India,Maharashtra,Mumbai,"Kandivali West, Mumbai - BMC",05-04-2024 18:00:00,19.215859,72.831718,CO,6,26,14
India,Maharashtra,Mumbai,"Kherwadi_Bandra East, Mumbai - MPCB",05-04-2024 18:00:00,19.0632143,72.8456324,PM2.5,36,71,46
India,Maharashtra,Mumbai,"Kherwadi_Bandra East, Mumbai - MPCB",05-04-2024 18:00:00,19.0632143,72.8456324,NH3,4,14,6
India,Maharashtra,Mumbai,"Kherwadi_Bandra East, Mumbai - MPCB",05-04-2024 18:00:00,19.0632143,72.8456324,SO2,4,31,7
India,Maharashtra,Mumbai,"Kherwadi_Bandra East, Mumbai - MPCB",05-04-2024 18:00:00,19.0632143,72.8456324,CO,10,50,19
India,Maharashtra,Mumbai,"Khindipada-Bhandup West, Mumbai - IITM",05-04-2024 18:00:00,19.1653323,72.922099,NH3,1,15,3
India,Maharashtra,Mumbai,"Navy Nagar-Colaba, Mumbai - IITM",05-04-2024 18:00:00,18.897756,72.813320,PM10,62,118,95
India,Maharashtra,Mumbai,"Navy Nagar-Colaba, Mumbai - IITM",05-04-2024 18:00:00,18.897756,72.813320,NO2,11,31,16
India,Maharashtra,Mumbai,"Navy Nagar-Colaba, Mumbai - IITM",05-04-2024 18:00:00,18.897756,72.813320,NH3,9,16,12
India,Maharashtra,Mumbai,"Navy Nagar-Colaba, Mumbai - IITM",05-04-2024 18:00:00,18.897756,72.813320,SO2,2,4,1
India,Maharashtra,Mumbai,"Powai, Mumbai - MPCB",05-04-2024 18:00:00,19.137500,72.915056,PM2.5,26,63,42
India,Maharashtra,Mumbai,"Powai, Mumbai - MPCB",05-04-2024 18:00:00,19.137500,72.915056,OZONE,27,104,62
India,Maharashtra,Mumbai,"Sewri, Mumbai - BMC",05-04-2024 18:00:00,19.000084,72.856730,NH3,NA,NA,NA
India,Maharashtra,Mumbai,"Siddharth Nagar-Worli, Mumbai - IITM",05-04-2024 18:00:00,19.000083,72.813993,NH3,4,6,5
India,Maharashtra,Mumbai,"Siddharth Nagar-Worli, Mumbai - IITM",05-04-2024 18:00:00,19.000083,72.813993,OZONE,28,107,82
India,Maharashtra,Mumbai,"Vasai West, Mumbai - MPCB",05-04-2024 18:00:00,19.383200,72.820400,PM2.5,40,194,74
India,Maharashtra,Mumbai,"Vile Parle West, Mumbai - MPCB",05-04-2024 18:00:00,19.10861,72.83622,CO,42,50,46
India,Maharashtra,Mumbai,"Vile Parle West, Mumbai - MPCB",05-04-2024 18:00:00,19.10861,72.83622,OZONE,2,3,3
India,Maharashtra,Mumbai,"Worli, Mumbai - MPCB",05-04-2024 18:00:00,18.9936162,72.8128113,PM10,61,126,84
India,Maharashtra,Mumbai,"Worli, Mumbai - MPCB",05-04-2024 18:00:00,18.9936162,72.8128113,NO2,14,14,14
India,Maharashtra,Nagpur,"Opp GPO Civil Lines, Nagpur - MPCB",05-04-2024 18:00:00,21.152875,79.0517531,PM2.5,53,123,76
India,Maharashtra,Nagpur,"Opp GPO Civil Lines, Nagpur - MPCB",05-04-2024 18:00:00,21.152875,79.0517531,NH3,3,16,6
India,Maharashtra,Nagpur,"Opp GPO Civil Lines, Nagpur - MPCB",05-04-2024 18:00:00,21.152875,79.0517531,OZONE,3,82,71
India,Maharashtra,Nanded,"Sneh Nagar, Nanded - MPCB",05-04-2024 18:00:00,19.173852,77.296291,PM2.5,45,323,149
India,Maharashtra,Nanded,"Sneh Nagar, Nanded - MPCB",05-04-2024 18:00:00,19.173852,77.296291,PM10,49,220,119
India,Maharashtra,Nanded,"Sneh Nagar, Nanded - MPCB",05-04-2024 18:00:00,19.173852,77.296291,NO2,11,49,20
India,Maharashtra,Nanded,"Sneh Nagar, Nanded - MPCB",05-04-2024 18:00:00,19.173852,77.296291,CO,26,40,33
India,Maharashtra,Nashik,"Hirawadi, Nashik - MPCB",05-04-2024 18:00:00,20.021503,73.813844,SO2,6,14,10
India,Maharashtra,Nashik,"Hirawadi, Nashik - MPCB",05-04-2024 18:00:00,20.021503,73.813844,CO,6,43,9
India,Maharashtra,Nashik,"MIDC Ambad, Nashik - MPCB",05-04-2024 18:00:00,19.950220,73.731480,NH3,2,3,2
India,Maharashtra,Nashik,"MIDC Ambad, Nashik - MPCB",05-04-2024 18:00:00,19.950220,73.731480,OZONE,11,88,67
India,Maharashtra,Nashik,"Pandav Nagari, Nashik - MPCB",05-04-2024 18:00:00,19.9591346,73.7788008,NH3,4,6,5
India,Maharashtra,Nashik,"Pandav Nagari, Nashik - MPCB",05-04-2024 18:00:00,19.9591346,73.7788008,CO,10,43,15
India,Maharashtra,Nashik,"Pandav Nagari, Nashik - MPCB",05-04-2024 18:00:00,19.9591346,73.7788008,OZONE,7,81,76
India,Maharashtra,Navi Mumbai,"Kopripada-Vashi, Navi Mumbai - MPCB",05-04-2024 18:00:00,19.090337,73.014232,NH3,5,15,8
India,Maharashtra,Navi Mumbai,"Nerul, Navi Mumbai - MPCB",05-04-2024 18:00:00,19.008751,73.016620,SO2,18,19,19
India,Maharashtra,Navi Mumbai,"Sector-19A Nerul, Navi Mumbai - IITM",05-04-2024 18:00:00,19.044,73.0325,PM2.5,41,119,80
India,Maharashtra,Navi Mumbai,"Sector-19A Nerul, Navi Mumbai - IITM",05-04-2024 18:00:00,19.044,73.0325,PM10,49,121,93
India,Maharashtra,Navi Mumbai,"Sector-19A Nerul, Navi Mumbai - IITM",05-04-2024 18:00:00,19.044,73.0325,NO2,29,86,53
India,Maharashtra,Navi Mumbai,"Sector-2E Kalamboli, Navi Mumbai - MPCB",05-04-2024 18:00:00,19.02579,73.10297,NO2,21,72,42
India,Maharashtra,Parbhani,"Masoom Colony, Parbhani - MPCB",05-04-2024 18:00:00,19.265594,76.761463,PM10,84,147,122
India,Maharashtra,Parbhani,"Masoom Colony, Parbhani - MPCB",05-04-2024 18:00:00,19.265594,76.761463,OZONE,24,97,91
India,Maharashtra,Pimpri-Chinchwad,"Gavalinagar, Pimpri Chinchwad - MPCB",05-04-2024 18:00:00,18.63673,73.82487,PM10,53,132,96
India,Maharashtra,Pimpri-Chinchwad,"Park Street Wakad, Pimpri Chinchwad - MPCB",05-04-2024 18:00:00,18.59051,73.77946,PM2.5,139,348,264
India,Maharashtra,Pimpri-Chinchwad,"Park Street Wakad, Pimpri Chinchwad - MPCB",05-04-2024 18:00:00,18.59051,73.77946,NO2,54,127,91
India,Maharashtra,Pimpri-Chinchwad,"Park Street Wakad, Pimpri Chinchwad - MPCB",05-04-2024 18:00:00,18.59051,73.77946,SO2,3,19,12
India,Maharashtra,Pimpri-Chinchwad,"Thergaon, Pimpri Chinchwad - MPCB",05-04-2024 18:00:00,18.616318,73.765797,PM10,74,125,104
India,Maharashtra,Pimpri-Chinchwad,"Thergaon, Pimpri Chinchwad - MPCB",05-04-2024 18:00:00,18.616318,73.765797,NO2,29,138,67
India,Maharashtra,Pimpri-Chinchwad,"Thergaon, Pimpri Chinchwad - MPCB",05-04-2024 18:00:00,18.616318,73.765797,CO,13,70,26
India,Maharashtra,Pimpri-Chinchwad,"Thergaon, Pimpri Chinchwad - MPCB",05-04-2024 18:00:00,18.616318,73.765797,OZONE,5,225,131
India,Maharashtra,Pune,"Bhosari, Pune - IITM",05-04-2024 18:00:00,18.640051,73.848956,OZONE,2,105,72
India,Maharashtra,Pune,"Karve Road, Pune - MPCB",05-04-2024 18:00:00,18.5011743,73.8165527,PM2.5,88,88,88
India,Maharashtra,Pune,"Karve Road, Pune - MPCB",05-04-2024 18:00:00,18.5011743,73.8165527,PM10,135,135,135
India,Maharashtra,Pune,"Karve Road, Pune - MPCB",05-04-2024 18:00:00,18.5011743,73.8165527,OZONE,7,7,7
India,Maharashtra,Pune,"Katraj Dairy, Pune - MPCB",05-04-2024 18:00:00,18.454450,73.854155,PM10,59,138,92
India,Maharashtra,Pune,"Katraj Dairy, Pune - MPCB",05-04-2024 18:00:00,18.454450,73.854155,SO2,1,4,2
India,Maharashtra,Pune,"Savitribai Phule Pune University, Pune - MPCB",05-04-2024 18:00:00,18.547056,73.826908,NO2,6,36,20
India,Maharashtra,Solapur,"Dnyaneshwar Nagar, Solapur - MPCB",05-04-2024 18:00:00,17.6336264,75.9132495,PM10,89,188,123
India,Maharashtra,Solapur,"Dnyaneshwar Nagar, Solapur - MPCB",05-04-2024 18:00:00,17.6336264,75.9132495,NH3,11,78,18
India,Maharashtra,Solapur,"Dnyaneshwar Nagar, Solapur - MPCB",05-04-2024 18:00:00,17.6336264,75.9132495,SO2,5,18,10
India,Maharashtra,Solapur,"Dnyaneshwar Nagar, Solapur - MPCB",05-04-2024 18:00:00,17.6336264,75.9132495,OZONE,20,94,82
India,Maharashtra,Solapur,"Ratandeep Housing Society, Solapur - MPCB",05-04-2024 18:00:00,17.65439,75.90649,PM10,82,165,109
India,Maharashtra,Thane,"Kasarvadavali, Thane - MPCB",05-04-2024 18:00:00,19.26777,72.97182,PM2.5,44,95,61
India,Maharashtra,Thane,"Kasarvadavali, Thane - MPCB",05-04-2024 18:00:00,19.26777,72.97182,SO2,2,25,7
India,Maharashtra,Thane,"Kasarvadavali, Thane - MPCB",05-04-2024 18:00:00,19.26777,72.97182,CO,5,23,11
India,Maharashtra,Thane,"Pimpleshwar Mandir, Thane - MPCB",05-04-2024 18:00:00,19.192056,72.9585188,PM10,101,140,117
India,Maharashtra,Thane,"Pimpleshwar Mandir, Thane - MPCB",05-04-2024 18:00:00,19.192056,72.9585188,SO2,6,94,21
India,Maharashtra,Thane,"Upvan Fort, Thane - MPCB",05-04-2024 18:00:00,19.222279,72.957979,PM10,57,116,82
India,Maharashtra,Ulhasnagar,"Sidhi Vinayak Nagar, Ulhasnagar - MPCB",05-04-2024 18:00:00,19.235581,73.159121,PM2.5,82,119,98
India,Maharashtra,Ulhasnagar,"Sidhi Vinayak Nagar, Ulhasnagar - MPCB",05-04-2024 18:00:00,19.235581,73.159121,NH3,2,2,2
India,Maharashtra,Virar,"Bolinj, Virar - MPCB",05-04-2024 18:00:00,19.4458210,72.7988231,NH3,7,9,7
India,Maharashtra,Virar,"Bolinj, Virar - MPCB",05-04-2024 18:00:00,19.4458210,72.7988231,OZONE,5,159,108
India,Manipur,Imphal,"DM College of Science, Imphal - Manipur PCB",05-04-2024 18:00:00,24.8207389,93.9423085,PM10,22,112,51
India,Manipur,Imphal,"Manipur University, Imphal - Manipur PCB",05-04-2024 18:00:00,24.7524239,93.9286218,PM2.5,60,133,87
India,Manipur,Imphal,"Manipur University, Imphal - Manipur PCB",05-04-2024 18:00:00,24.7524239,93.9286218,CO,12,23,15
India,Meghalaya,Shillong,"Lumpyngngad, Shillong - Meghalaya PCB",05-04-2024 18:00:00,25.5586,91.8985,NO2,1,1,1
India,Meghalaya,Shillong,"Lumpyngngad, Shillong - Meghalaya PCB",05-04-2024 18:00:00,25.5586,91.8985,OZONE,131,195,167
India,Mizoram,Aizawl,"Sikulpuikawn, Aizawl - Mizoram PCB",05-04-2024 18:00:00,23.7176342,92.7192841,NH3,2,6,4
India,Nagaland,Kohima,"PWD Juction, Kohima - NPCB",05-04-2024 18:00:00,25.6635413,94.0989878,NH3,1,1,1
India,Odisha,Barbil,"Forest Office, Barbil - OSPCB",05-04-2024 18:00:00,22.1166054,85.3945546,OZONE,51,254,155
India,Odisha,Bhubaneswar,"Lingraj Mandir, Bhubaneswar - OSPCB",05-04-2024 18:00:00,20.240790,85.836784,OZONE,8,140,103
India,Odisha,Bhubaneswar,"Patia, Bhubaneswar - OSPCB",05-04-2024 18:00:00,20.34652,85.81630,PM2.5,2,183,60
India,Odisha,Bhubaneswar,"Patia, Bhubaneswar - OSPCB",05-04-2024 18:00:00,20.34652,85.81630,SO2,2,71,12
India,Odisha,Bileipada,"Tata Township, Bileipada - OSPCB",05-04-2024 18:00:00,22.06156703,85.47409613,PM10,145,303,219
India,Odisha,Bileipada,"Tata Township, Bileipada - OSPCB",05-04-2024 18:00:00,22.06156703,85.47409613,SO2,1,49,13
India,Odisha,Brajrajnagar,"GM Office, Brajrajnagar - OSPCB",05-04-2024 18:00:00,21.8004996,83.8396977,SO2,21,21,21
India,Odisha,Byasanagar,"Ferro Chrome Colony, Byasanagar - OSPCB",05-04-2024 18:00:00,20.94185,86.11510,SO2,3,92,20
India,Odisha,Byasanagar,"Ferro Chrome Colony, Byasanagar - OSPCB",05-04-2024 18:00:00,20.94185,86.11510,CO,80,102,92
India,Odisha,Keonjhar,"Jagamohanpur, Keonjhar - OSPCB",05-04-2024 18:00:00,21.643900,85.599355,PM10,107,130,119
India,Odisha,Keonjhar,"Jagamohanpur, Keonjhar - OSPCB",05-04-2024 18:00:00,21.643900,85.599355,CO,12,69,40
India,Odisha,Nayagarh,"Dabuna, Nayagarh - OSPCB",05-04-2024 18:00:00,21.847279,85.416905,NH3,5,5,5
India,Odisha,Rairangpur,"Divisional Forest Office, Rairangpur - OSPCB",05-04-2024 18:00:00,22.265816,86.174829,SO2,3,14,6
India,Odisha,Rourkela,"Raghunathpali, Rourkela - OSPCB",05-04-2024 18:00:00,22.220833,84.809444,PM2.5,69,347,241
India,Odisha,Rourkela,"Raghunathpali, Rourkela - OSPCB",05-04-2024 18:00:00,22.220833,84.809444,NO2,22,240,93
India,Odisha,Rourkela,"Sector-2, Rourkela - OSPCB",05-04-2024 18:00:00,22.24500000,84.88111111,PM10,84,267,181
India,Odisha,Suakati,"OMC Colony, Suakati - OSPCB",05-04-2024 18:00:00,21.606865,85.510538,PM2.5,77,251,192
India,Odisha,Suakati,"OMC Colony, Suakati - OSPCB",05-04-2024 18:00:00,21.606865,85.510538,PM10,120,302,157
India,Odisha,Suakati,"OMC Colony, Suakati - OSPCB",05-04-2024 18:00:00,21.606865,85.510538,NH3,1,5,4
India,Odisha,Suakati,"OMC Colony, Suakati - OSPCB",05-04-2024 18:00:00,21.606865,85.510538,OZONE,20,294,213
India,Odisha,Talcher,"Talcher Coalfields,Talcher - OSPCB",05-04-2024 18:00:00,20.9360711,85.1707021,PM2.5,24,436,168
India,Odisha,Talcher,"Talcher Coalfields,Talcher - OSPCB",05-04-2024 18:00:00,20.9360711,85.1707021,PM10,35,404,141
India,Odisha,Talcher,"Talcher Coalfields,Talcher - OSPCB",05-04-2024 18:00:00,20.9360711,85.1707021,NH3,3,4,4
India,Odisha,Tensa,"Barsua Iron Ore Mines, Tensa - OSPCB",05-04-2024 18:00:00,21.869985,85.167016,PM2.5,16,272,123
India,Puducherry,Puducherry,"Jawahar Nagar, Puducherry - PPCC",05-04-2024 18:00:00,11.9309,79.8027,NH3,2,5,3
India,Puducherry,Puducherry,"Jawahar Nagar, Puducherry - PPCC",05-04-2024 18:00:00,11.9309,79.8027,OZONE,5,192,35
India,Punjab,Amritsar,"Golden Temple, Amritsar - PPCB",05-04-2024 18:00:00,31.620000,74.876512,PM2.5,33,99,55
India,Punjab,Amritsar,"Golden Temple, Amritsar - PPCB",05-04-2024 18:00:00,31.620000,74.876512,CO,28,84,45
India,Punjab,Jalandhar,"Civil Line, Jalandhar - PPCB",05-04-2024 18:00:00,31.321907,75.578914,CO,12,58,27
India,Punjab,Jalandhar,"Civil Line, Jalandhar - PPCB",05-04-2024 18:00:00,31.321907,75.578914,OZONE,6,109,80
India,Punjab,Khanna,"Kalal Majra, Khanna - PPCB",05-04-2024 18:00:00,30.736056 ,76.209694,PM2.5,35,73,51
India,Punjab,Khanna,"Kalal Majra, Khanna - PPCB",05-04-2024 18:00:00,30.736056 ,76.209694,NH3,16,16,16
India,Punjab,Ludhiana,"Punjab Agricultural University, Ludhiana - PPCB",05-04-2024 18:00:00,30.9028,75.8086,PM2.5,31,97,58
India,Punjab,Ludhiana,"Punjab Agricultural University, Ludhiana - PPCB",05-04-2024 18:00:00,30.9028,75.8086,SO2,9,15,13
India,Punjab,Mandi Gobindgarh,"RIMT University, Mandi Gobindgarh - PPCB",05-04-2024 18:00:00,30.649961,76.331442,SO2,7,79,21
India,Punjab,Patiala,"Model Town, Patiala - PPCB",05-04-2024 18:00:00,30.349388,76.366642,PM10,77,139,106
India,Punjab,Rupnagar,"Ratanpura, Rupnagar - Ambuja Cements",05-04-2024 18:00:00,31.0325454,76.5623046,SO2,9,13,11
India,Rajasthan,Ajmer,"Civil Lines,  Ajmer - RSPCB",05-04-2024 18:00:00,26.470859,74.646594,OZONE,25,90,70
India,Rajasthan,Banswara,"Rati Talai, Banswara - RSPCB",05-04-2024 18:00:00,23.555190,74.440010,NH3,4,6,5
India,Rajasthan,Banswara,"Rati Talai, Banswara - RSPCB",05-04-2024 18:00:00,23.555190,74.440010,CO,4,35,16
India,Rajasthan,Baran,"Bamboliya, Baran - RSPCB",05-04-2024 18:00:00,25.106006,76.469948,PM2.5,54,184,86
India,Rajasthan,Baran,"Bamboliya, Baran - RSPCB",05-04-2024 18:00:00,25.106006,76.469948,NH3,3,14,5
India,Rajasthan,Barmer,"Railway Colony, Barmer - RSPCB",05-04-2024 18:00:00,25.747299,71.393989,PM10,67,116,100
India,Rajasthan,Barmer,"Railway Colony, Barmer - RSPCB",05-04-2024 18:00:00,25.747299,71.393989,NO2,9,22,14
India,Rajasthan,Bharatpur,"Krishna Nagar, Bharatpur - RSPCB",05-04-2024 18:00:00,27.215415,77.50873,OZONE,2,145,108
India,Rajasthan,Bhilwara,"Pratap Nagar, Bhilwara - RSPCB",05-04-2024 18:00:00,25.339605,74.618883,NO2,12,43,21
India,Rajasthan,Bhilwara,"Pratap Nagar, Bhilwara - RSPCB",05-04-2024 18:00:00,25.339605,74.618883,NH3,3,5,4
India,Rajasthan,Bhilwara,"Pratap Nagar, Bhilwara - RSPCB",05-04-2024 18:00:00,25.339605,74.618883,OZONE,27,67,60
India,Rajasthan,Bhiwadi,"RIICO Ind. Area III, Bhiwadi - RSPCB",05-04-2024 18:00:00,28.194909,76.862296,PM2.5,68,309,193
India,Rajasthan,Bhiwadi,"RIICO Ind. Area III, Bhiwadi - RSPCB",05-04-2024 18:00:00,28.194909,76.862296,NH3,13,21,18
India,Rajasthan,Bhiwadi,"Vasundhara Nagar_UIT, Bhiwadi - RSPCB",05-04-2024 18:00:00,28.207266,76.829265,NO2,14,84,42
India,Rajasthan,Bhiwadi,"Vasundhara Nagar_UIT, Bhiwadi - RSPCB",05-04-2024 18:00:00,28.207266,76.829265,OZONE,8,79,66
India,Rajasthan,Bikaner,"MM Ground, Bikaner - RSPCB",05-04-2024 18:00:00,28.018792,73.292658,PM10,94,236,151
India,Rajasthan,Bikaner,"MM Ground, Bikaner - RSPCB",05-04-2024 18:00:00,28.018792,73.292658,SO2,6,17,11
India,Rajasthan,Bundi,"New Colony, Bundi - RSPCB",05-04-2024 18:00:00,25.435774,75.644272,PM2.5,26,266,62
India,Rajasthan,Bundi,"New Colony, Bundi - RSPCB",05-04-2024 18:00:00,25.435774,75.644272,NO2,6,108,27
India,Rajasthan,Churu,"Subash Chowk, Churu - RSPCB",05-04-2024 18:00:00,28.296139,74.961696,NO2,16,72,29
India,Rajasthan,Dausa,"Khatikan Mohalla, Dausa - RSPCB",05-04-2024 18:00:00,26.895552,76.334753,PM10,96,447,172
India,Rajasthan,Dholpur,"Raja Ganj, Dholpur - RSPCB",05-04-2024 18:00:00,26.699557,77.898881,PM2.5,48,273,102
India,Rajasthan,Dungarpur,"Bhoiwada, Dungarpur - RSPCB",05-04-2024 18:00:00,23.837789,73.714926,PM2.5,27,78,49
India,Rajasthan,Hanumangarh,"Housing Board, Hanumangarh - RSPCB",05-04-2024 18:00:00,29.610750,74.283608,NO2,13,45,23
India,Rajasthan,Hanumangarh,"Housing Board, Hanumangarh - RSPCB",05-04-2024 18:00:00,29.610750,74.283608,SO2,6,26,11
India,Rajasthan,Jaipur,"Adarsh Nagar, Jaipur - RSPCB",05-04-2024 18:00:00,26.902909,75.836858,NO2,31,127,70
India,Rajasthan,Jaipur,"Mansarovar Sector-12, Jaipur - RSPCB",05-04-2024 18:00:00,26.843698,75.766894,NH3,2,41,13
India,Rajasthan,Jaipur,"Mansarovar Sector-12, Jaipur - RSPCB",05-04-2024 18:00:00,26.843698,75.766894,CO,24,61,43
India,Rajasthan,Jaipur,"Police Commissionerate, Jaipur - RSPCB",05-04-2024 18:00:00,26.9164092,75.7994901,PM2.5,53,253,116
India,Rajasthan,Jaipur,"Police Commissionerate, Jaipur - RSPCB",05-04-2024 18:00:00,26.9164092,75.7994901,NO2,13,103,60
India,Rajasthan,Jaipur,"RIICO Sitapura, Jaipur - RSPCB",05-04-2024 18:00:00,26.786682,75.827928,PM2.5,33,309,127
India,Rajasthan,Jaipur,"RIICO Sitapura, Jaipur - RSPCB",05-04-2024 18:00:00,26.786682,75.827928,PM10,88,371,191
India,Rajasthan,Jaipur,"RIICO Sitapura, Jaipur - RSPCB",05-04-2024 18:00:00,26.786682,75.827928,SO2,13,25,18
India,Rajasthan,Jaipur,"RIICO Sitapura, Jaipur - RSPCB",05-04-2024 18:00:00,26.786682,75.827928,CO,26,122,36
India,Rajasthan,Jaisalmer,"Sadar Bazar, Jaisalmer - RSPCB",05-04-2024 18:00:00,26.912329,70.909168,NO2,13,56,25
India,Rajasthan,Jaisalmer,"Sadar Bazar, Jaisalmer - RSPCB",05-04-2024 18:00:00,26.912329,70.909168,SO2,3,8,5
India,Rajasthan,Jaisalmer,"Sadar Bazar, Jaisalmer - RSPCB",05-04-2024 18:00:00,26.912329,70.909168,OZONE,22,111,91
India,Rajasthan,Jalore,"Mudtra Sili, Jalore - RSPCB",05-04-2024 18:00:00,25.344694,72.626208,PM2.5,27,74,53
India,Rajasthan,Jalore,"Mudtra Sili, Jalore - RSPCB",05-04-2024 18:00:00,25.344694,72.626208,NH3,1,5,4
India,Rajasthan,Jhalawar,"Rajlaxmi Nagar, Jhalawar - RSPCB",05-04-2024 18:00:00,24.588397,76.172782,PM10,82,152,116
India,Rajasthan,Jhalawar,"Rajlaxmi Nagar, Jhalawar - RSPCB",05-04-2024 18:00:00,24.588397,76.172782,NO2,21,28,24
India,Rajasthan,Jodhpur,"Collectorate, Jodhpur - RSPCB",05-04-2024 18:00:00,26.268249,73.0193853,PM10,30,200,151
India,Rajasthan,Jodhpur,"Digari Kalan, Jodhpur - RSPCB",05-04-2024 18:00:00,26.295810,73.082283,NH3,3,6,5
India,Rajasthan,Jodhpur,"Digari Kalan, Jodhpur - RSPCB",05-04-2024 18:00:00,26.295810,73.082283,SO2,4,9,6
India,Rajasthan,Jodhpur,"Digari Kalan, Jodhpur - RSPCB",05-04-2024 18:00:00,26.295810,73.082283,CO,13,44,22
India,Rajasthan,Jodhpur,"Jhalamand, Jodhpur - RSPCB",05-04-2024 18:00:00,26.215415,73.070156,PM2.5,28,95,52
India,Rajasthan,Jodhpur,"Mandor, Jodhpur - RSPCB",05-04-2024 18:00:00,26.358805,73.047444,SO2,2,3,3
India,Rajasthan,Jodhpur,"Samrat Ashok Udhyan, Jodhpur - RSPCB",05-04-2024 18:00:00,26.253384,72.976571,NH3,4,21,6
India,Rajasthan,Karauli,"Satyawati Vihar, Karauli - RSPCB",05-04-2024 18:00:00,26.506177,77.025989,PM10,69,196,110
India,Rajasthan,Karauli,"Satyawati Vihar, Karauli - RSPCB",05-04-2024 18:00:00,26.506177,77.025989,CO,4,48,21
India,Rajasthan,Kota,"Dhanmandi, Kota - RSPCB",05-04-2024 18:00:00,25.164090,75.858137,CO,12,84,16
India,Rajasthan,Kota,"Nayapura, Kota - RSPCB",05-04-2024 18:00:00,25.196024,75.855668,SO2,3,33,9
India,Rajasthan,Kota,"Shrinath Puram, Kota - RSPCB",05-04-2024 18:00:00,25.14389,75.821256,PM2.5,22,197,86
India,Rajasthan,Nagaur,"Karni Colony, Nagaur - RSPCB",05-04-2024 18:00:00,27.213494,73.734444,PM2.5,19,61,41
India,Rajasthan,Nagaur,"Karni Colony, Nagaur - RSPCB",05-04-2024 18:00:00,27.213494,73.734444,PM10,119,206,149
India,Rajasthan,Pali,"Indira Colony Vistar, Pali - RSPCB",05-04-2024 18:00:00,25.771061, 73.340227,NO2,18,35,25
India,Rajasthan,Pratapgarh,"Pragati Nagar, Pratapgarh - RSPCB",05-04-2024 18:00:00,24.041198,74.780702,PM2.5,25,64,42
India,Rajasthan,Pratapgarh,"Pragati Nagar, Pratapgarh - RSPCB",05-04-2024 18:00:00,24.041198,74.780702,CO,10,23,14
India,Rajasthan,Rajsamand,"Dhoinda, Rajsamand - RSPCB",05-04-2024 18:00:00,25.036360,73.883502,PM2.5,15,113,52
India,Rajasthan,Rajsamand,"Dhoinda, Rajsamand - RSPCB",05-04-2024 18:00:00,25.036360,73.883502,PM10,38,115,67
India,Rajasthan,Sawai Madhopur,"Sahu Nagar, Sawai Madhopur - RSPCB",05-04-2024 18:00:00,26.031443,76.359327,NO2,7,78,25
India,Rajasthan,Sikar,"Radhakishan Pura, Sikar - RSPCB",05-04-2024 18:00:00,27.608912,75.153302,PM10,89,295,145
India,Rajasthan,Sikar,"Radhakishan Pura, Sikar - RSPCB",05-04-2024 18:00:00,27.608912,75.153302,NH3,5,8,7
India,Rajasthan,Sikar,"Radhakishan Pura, Sikar - RSPCB",05-04-2024 18:00:00,27.608912,75.153302,OZONE,38,119,104
India,Rajasthan,Sri Ganganagar,"Old City, Sri Ganganagar - RSPCB",05-04-2024 18:00:00,29.931624,73.864511,NH3,5,16,9
India,Rajasthan,Tonk,"Shastri Nagar, Tonk - RSPCB",05-04-2024 18:00:00,26.159933,75.780517,PM10,86,428,160
India,Rajasthan,Tonk,"Shastri Nagar, Tonk - RSPCB",05-04-2024 18:00:00,26.159933,75.780517,NH3,3,28,7
India,Rajasthan,Udaipur,"Ashok Nagar, Udaipur - RSPCB",05-04-2024 18:00:00,24.5886166,73.6321397,PM2.5,71,140,96
India,Sikkim,Gangtok,"Zero Point GICI, Gangtok - SSPCB",05-04-2024 18:00:00,27.338530,88.614099,CO,20,30,22
India,TamilNadu,Ariyalur,"Keelapalur, Ariyalur - TNPCB",05-04-2024 18:00:00,11.06825,79.07033,PM10,9,39,24
India,TamilNadu,Chengalpattu,"Crescent University, Chengalpattu - TNPCB",05-04-2024 18:00:00,12.8777316,80.0834807,PM2.5,NA,NA,NA
India,TamilNadu,Chengalpattu,"Crescent University, Chengalpattu - TNPCB",05-04-2024 18:00:00,12.8777316,80.0834807,NH3,NA,NA,NA
India,TamilNadu,Chennai,"Alandur Bus Depot, Chennai - CPCB",05-04-2024 18:00:00,12.9099161,80.1076538,NH3,1,15,4
India,TamilNadu,Chennai,"Arumbakkam, Chennai - TNPCB",05-04-2024 18:00:00,13.0664,80.2112 ,PM10,10,52,33
India,TamilNadu,Chennai,"Kodungaiyur, Chennai - TNPCB",05-04-2024 18:00:00,13.1278,80.2642,NH3,2,5,3
India,TamilNadu,Chennai,"Kodungaiyur, Chennai - TNPCB",05-04-2024 18:00:00,13.1278,80.2642,SO2,2,11,6
India,TamilNadu,Chennai,"Manali, Chennai - CPCB",05-04-2024 18:00:00,13.164544,80.26285,NO2,7,9,8
India,TamilNadu,Chennai,"Manali, Chennai - CPCB",05-04-2024 18:00:00,13.164544,80.26285,SO2,1,9,5
India,TamilNadu,Chennai,"Manali, Chennai - CPCB",05-04-2024 18:00:00,13.164544,80.26285,CO,88,106,98
India,TamilNadu,Chennai,"Manali, Chennai - CPCB",05-04-2024 18:00:00,13.164544,80.26285,OZONE,13,24,16
India,TamilNadu,Chennai,"Perungudi, Chennai - TNPCB",05-04-2024 18:00:00,12.9533,80.2357,PM2.5,2,32,13
India,TamilNadu,Chennai,"Royapuram, Chennai - TNPCB",05-04-2024 18:00:00,13.1036,80.2909,PM10,8,48,24
India,TamilNadu,Chennai,"Velachery Res. Area, Chennai - CPCB",05-04-2024 18:00:00,13.0052189,80.2398125,PM2.5,19,43,30
India,TamilNadu,Chennai,"Velachery Res. Area, Chennai - CPCB",05-04-2024 18:00:00,13.0052189,80.2398125,PM10,19,43,30
India,TamilNadu,Chennai,"Velachery Res. Area, Chennai - CPCB",05-04-2024 18:00:00,13.0052189,80.2398125,NO2,9,21,15
India,TamilNadu,Cuddalore,"Kudikadu, Cuddalore - TNPCB",05-04-2024 18:00:00,11.6829898,79.7532099,PM2.5,152,500,354
India,TamilNadu,Cuddalore,"Semmandalam, Cuddalore - TNPCB",05-04-2024 18:00:00,11.7637683,79.7499835,PM10,NA,NA,NA
India,TamilNadu,Kanchipuram,"Kilambi, Kanchipuram - TNPCB",05-04-2024 18:00:00,12.864618,79.659968,NO2,NA,NA,NA
India,TamilNadu,Kanchipuram,"Kilambi, Kanchipuram - TNPCB",05-04-2024 18:00:00,12.864618,79.659968,CO,21,21,21
India,TamilNadu,Kanchipuram,"Kilambi, Kanchipuram - TNPCB",05-04-2024 18:00:00,12.864618,79.659968,OZONE,91,91,91
India,TamilNadu,Ooty,"Bombay Castel, Ooty - TNPCB",05-04-2024 18:00:00,11.4068288,76.7138973,PM10,NA,NA,NA
India,TamilNadu,Palkalaiperur,"Bharathidasan University, Palkalaiperur - TNPCB",05-04-2024 18:00:00,10.681158,78.741746,PM2.5,8,42,19
India,TamilNadu,Ramanathapuram,"Chalai Bazaar, Ramanathapuram - TNPCB",05-04-2024 18:00:00,9.36399,78.831977,SO2,6,12,8
India,TamilNadu,Salem,"Sona College of Technology, Salem - TNPCB",05-04-2024 18:00:00,11.679111,78.125052,NO2,NA,NA,NA
India,TamilNadu,Thoothukudi,"Meelavittan, Thoothukudi - TNPCB",05-04-2024 18:00:00,8.816428 ,78.099039,SO2,NA,NA,NA
India,TamilNadu,Thoothukudi,"Meelavittan, Thoothukudi - TNPCB",05-04-2024 18:00:00,8.816428 ,78.099039,CO,4,67,30
India,TamilNadu,Thoothukudi,"Meelavittan, Thoothukudi - TNPCB",05-04-2024 18:00:00,8.816428 ,78.099039,OZONE,1,61,17
India,TamilNadu,Tirupur,"Kumaran College, Tirupur - TNPCB",05-04-2024 18:00:00,11.0973603,77.3228673,NO2,NA,NA,NA
India,TamilNadu,Vellore,"Vasanthapuram, Vellore - TNPCB",05-04-2024 18:00:00,12.909494,79.131861,PM2.5,2,91,41
India,TamilNadu,Virudhunagar,"Collectorate Office, Virudhunagar - TNPCB",05-04-2024 18:00:00,9.559382,77.948828,NO2,2,18,7
India,TamilNadu,Virudhunagar,"Collectorate Office, Virudhunagar - TNPCB",05-04-2024 18:00:00,9.559382,77.948828,NH3,6,7,6
India,TamilNadu,Virudhunagar,"Collectorate Office, Virudhunagar - TNPCB",05-04-2024 18:00:00,9.559382,77.948828,SO2,5,32,9
India,Telangana,Hyderabad,"Bollaram Industrial Area, Hyderabad - TSPCB",05-04-2024 18:00:00,17.540891,78.358528,PM2.5,49,177,75
India,Telangana,Hyderabad,"Bollaram Industrial Area, Hyderabad - TSPCB",05-04-2024 18:00:00,17.540891,78.358528,NH3,2,4,3
India,Telangana,Hyderabad,"Bollaram Industrial Area, Hyderabad - TSPCB",05-04-2024 18:00:00,17.540891,78.358528,OZONE,34,37,36
India,Telangana,Hyderabad,"ECIL Kapra, Hyderabad - TSPCB",05-04-2024 18:00:00,17.470431,78.566959,PM10,75,88,81
India,Telangana,Hyderabad,"ECIL Kapra, Hyderabad - TSPCB",05-04-2024 18:00:00,17.470431,78.566959,CO,24,69,36
India,Telangana,Hyderabad,"IITH Kandi, Hyderabad - TSPCB",05-04-2024 18:00:00,17.585705,78.126199,PM2.5,NA,NA,NA
India,Telangana,Hyderabad,"IITH Kandi, Hyderabad - TSPCB",05-04-2024 18:00:00,17.585705,78.126199,NO2,NA,NA,NA
India,Telangana,Hyderabad,"IITH Kandi, Hyderabad - TSPCB",05-04-2024 18:00:00,17.585705,78.126199,NH3,NA,NA,NA
India,Telangana,Hyderabad,"New Malakpet, Hyderabad - TSPCB",05-04-2024 18:00:00,17.37206,78.50864,CO,10,50,18
India,Telangana,Hyderabad,"New Malakpet, Hyderabad - TSPCB",05-04-2024 18:00:00,17.37206,78.50864,OZONE,4,72,57
India,Telangana,Hyderabad,"Ramachandrapuram, Hyderabad - TSPCB",05-04-2024 18:00:00,17.528544,78.286195,SO2,1,25,15
India,Telangana,Hyderabad,"Sanathnagar, Hyderabad - TSPCB",05-04-2024 18:00:00,17.4559458,78.4332152,SO2,3,10,7
India,Telangana,Hyderabad,"Sanathnagar, Hyderabad - TSPCB",05-04-2024 18:00:00,17.4559458,78.4332152,CO,36,56,38
India,Telangana,Hyderabad,"Zoo Park, Hyderabad - TSPCB",05-04-2024 18:00:00,17.349694,78.451437,NO2,8,47,28
India,Tripura,Agartala,"Bardowali, Agartala - Tripura SPCB",05-04-2024 18:00:00,23.8175497,91.2726974,SO2,28,29,29
India,Uttar_Pradesh,Agra,"Rohta, Agra - UPPCB",05-04-2024 18:00:00,27.106972,78.000111,CO,6,32,12
India,Uttar_Pradesh,Agra,"Sanjay Palace, Agra - UPPCB",05-04-2024 18:00:00,27.19865833,78.00598056,NO2,32,64,45
India,Uttar_Pradesh,Agra,"Shahjahan Garden, Agra - UPPCB",05-04-2024 18:00:00,27.169338,78.03582,PM10,51,189,114
India,Uttar_Pradesh,Agra,"Shahjahan Garden, Agra - UPPCB",05-04-2024 18:00:00,27.169338,78.03582,SO2,10,37,23
India,Uttar_Pradesh,Agra,"Shastripuram, Agra - UPPCB",05-04-2024 18:00:00,27.19862,77.92066,OZONE,1,14,10
India,Uttar_Pradesh,Baghpat,"Sardar Patel Inter College, Baghpat - UPPCB",05-04-2024 18:00:00,28.964949,77.278761,PM2.5,25,132,65
India,Uttar_Pradesh,Baghpat,"Sardar Patel Inter College, Baghpat - UPPCB",05-04-2024 18:00:00,28.964949,77.278761,CO,4,89,19
India,Uttar_Pradesh,Bareilly,"Rajendra Nagar, Bareilly - UPPCB",05-04-2024 18:00:00,28.38910936,79.42963708,PM2.5,15,53,31
India,Uttar_Pradesh,Bareilly,"Rajendra Nagar, Bareilly - UPPCB",05-04-2024 18:00:00,28.38910936,79.42963708,PM10,44,107,69
India,Uttar_Pradesh,Bulandshahr,"Yamunapuram, Bulandshahr - UPPCB",05-04-2024 18:00:00,28.406963,77.849831,OZONE,6,97,81
India,Uttar_Pradesh,Firozabad,"Nagla Bhau, Firozabad - UPPCB",05-04-2024 18:00:00,27.168897,78.376960,PM10,NA,NA,NA
India,Uttar_Pradesh,Firozabad,"Vibhab Nagar, Firozabad - UPPCB",05-04-2024 18:00:00,27.1594,78.3953,PM2.5,40,128,66
India,Uttar_Pradesh,Ghaziabad,"Indirapuram, Ghaziabad - UPPCB",05-04-2024 18:00:00,28.646233,77.358075,PM2.5,34,330,136
India,Uttar_Pradesh,Ghaziabad,"Indirapuram, Ghaziabad - UPPCB",05-04-2024 18:00:00,28.646233,77.358075,CO,20,116,30
India,Uttar_Pradesh,Ghaziabad,"Loni, Ghaziabad - UPPCB",05-04-2024 18:00:00,28.757294,77.278792,SO2,NA,NA,NA
India,Uttar_Pradesh,Ghaziabad,"Loni, Ghaziabad - UPPCB",05-04-2024 18:00:00,28.757294,77.278792,CO,30,96,36
India,Uttar_Pradesh,Ghaziabad,"Sanjay Nagar, Ghaziabad - UPPCB",05-04-2024 18:00:00,28.685382,77.453839,SO2,11,57,35
India,Uttar_Pradesh,Ghaziabad,"Sanjay Nagar, Ghaziabad - UPPCB",05-04-2024 18:00:00,28.685382,77.453839,OZONE,3,85,72
India,Uttar_Pradesh,Ghaziabad,"Vasundhara, Ghaziabad - UPPCB",05-04-2024 18:00:00,28.6603346,77.3572563,PM2.5,27,266,94
India,Uttar_Pradesh,Greater Noida,"Knowledge Park - V, Greater Noida - UPPCB",05-04-2024 18:00:00,28.557054,77.453663,PM2.5,41,313,134
India,Uttar_Pradesh,Jhansi,"Shivaji Nagar, Jhansi - UPPCB",05-04-2024 18:00:00,25.4547,78.6039,SO2,13,20,15
India,Uttar_Pradesh,Kanpur,"FTI Kidwai Nagar, Kanpur - UPPCB",05-04-2024 18:00:00,26.428282,80.327067,PM2.5,47,295,102
India,Uttar_Pradesh,Kanpur,"FTI Kidwai Nagar, Kanpur - UPPCB",05-04-2024 18:00:00,26.428282,80.327067,NH3,2,4,3
India,Uttar_Pradesh,Kanpur,"NSI Kalyanpur, Kanpur - UPPCB",05-04-2024 18:00:00,26.509954,80.249612,PM2.5,26,175,76
India,Uttar_Pradesh,Kanpur,"NSI Kalyanpur, Kanpur - UPPCB",05-04-2024 18:00:00,26.509954,80.249612,SO2,19,22,20
India,Uttar_Pradesh,Kanpur,"Nehru Nagar, Kanpur - UPPCB",05-04-2024 18:00:00,26.4703136,80.3229863,PM10,26,106,55
India,Uttar_Pradesh,Khurja,"Kalindi Kunj, Khurja - UPPCB",05-04-2024 18:00:00,28.2348927,77.8683002,OZONE,32,42,37
India,Uttar_Pradesh,Lucknow,"B R Ambedkar University, Lucknow - UPPCB",05-04-2024 18:00:00,26.766433,80.927299,PM2.5,29,159,77
India,Uttar_Pradesh,Lucknow,"Gomti Nagar, Lucknow - UPPCB",05-04-2024 18:00:00,26.868120,81.005119,CO,38,46,45
India,Uttar_Pradesh,Lucknow,"Kendriya Vidyalaya, Lucknow - CPCB",05-04-2024 18:00:00,26.906111,80.948222,OZONE,28,55,46
India,Uttar_Pradesh,Lucknow,"Kukrail Picnic Spot-1, Lucknow - UPPCB",05-04-2024 18:00:00,26.90723,80.98579,NO2,8,8,8
India,Uttar_Pradesh,Lucknow,"Kukrail Picnic Spot-1, Lucknow - UPPCB",05-04-2024 18:00:00,26.90723,80.98579,CO,10,25,13
India,Uttar_Pradesh,Lucknow,"Lalbagh, Lucknow - CPCB",05-04-2024 18:00:00,26.8458805,80.9365541,PM2.5,42,221,108
India,Uttar_Pradesh,Lucknow,"Lalbagh, Lucknow - CPCB",05-04-2024 18:00:00,26.8458805,80.9365541,NO2,3,19,9
India,Uttar_Pradesh,Lucknow,"Lalbagh, Lucknow - CPCB",05-04-2024 18:00:00,26.8458805,80.9365541,CO,33,101,49
India,Uttar_Pradesh,Lucknow,"Talkatora District Industries Center, Lucknow - CPCB",05-04-2024 18:00:00,26.83399722,80.8917361,NO2,30,70,52
India,Uttar_Pradesh,Meerut,"Ganga Nagar, Meerut - UPPCB",05-04-2024 18:00:00,28.999264,77.7590354,PM10,77,172,117
India,Uttar_Pradesh,Meerut,"Pallavpuram Phase 2, Meerut - UPPCB",05-04-2024 18:00:00,29.063510,77.709723,PM10,86,188,126
India,Uttar_Pradesh,Meerut,"Pallavpuram Phase 2, Meerut - UPPCB",05-04-2024 18:00:00,29.063510,77.709723,OZONE,18,99,77
India,Uttar_Pradesh,Moradabad,"Eco Herbal Park, Moradabad - UPPCB",05-04-2024 18:00:00,28.840739,78.697531,PM10,56,120,92
India,Uttar_Pradesh,Moradabad,"Eco Herbal Park, Moradabad - UPPCB",05-04-2024 18:00:00,28.840739,78.697531,NO2,2,34,18
India,Uttar_Pradesh,Moradabad,"Employment Office, Moradabad - UPPCB",05-04-2024 18:00:00,28.88528,78.73880,NH3,3,4,4
India,Uttar_Pradesh,Moradabad,"Jigar Colony, Moradabad - UPPCB",05-04-2024 18:00:00,28.856664,78.772638,NH3,4,4,4
India,Uttar_Pradesh,Moradabad,"Kashiram Nagar, Moradabad - UPPCB",05-04-2024 18:00:00,28.849399,78.742362,PM2.5,16,153,82
India,Uttar_Pradesh,Moradabad,"Kashiram Nagar, Moradabad - UPPCB",05-04-2024 18:00:00,28.849399,78.742362,CO,26,50,31
India,Uttar_Pradesh,Moradabad,"Transport Nagar, Moradabad - UPPCB",05-04-2024 18:00:00,28.802625,78.753728,NO2,11,33,22
India,Uttar_Pradesh,Noida,"Sector - 125, Noida - UPPCB",05-04-2024 18:00:00,28.5447608,77.3231257,PM10,84,205,129
India,Uttar_Pradesh,Noida,"Sector - 125, Noida - UPPCB",05-04-2024 18:00:00,28.5447608,77.3231257,SO2,7,46,21
India,Uttar_Pradesh,Noida,"Sector - 62, Noida - IMD",05-04-2024 18:00:00,28.6245479,77.3577104,NO2,16,38,24
India,Uttar_Pradesh,Noida,"Sector-1, Noida - UPPCB",05-04-2024 18:00:00,28.5898,77.3101,PM2.5,29,179,81
India,Uttar_Pradesh,Noida,"Sector-1, Noida - UPPCB",05-04-2024 18:00:00,28.5898,77.3101,NO2,26,101,50
India,Uttar_Pradesh,Noida,"Sector-1, Noida - UPPCB",05-04-2024 18:00:00,28.5898,77.3101,SO2,4,32,13
India,Uttar_Pradesh,Noida,"Sector-1, Noida - UPPCB",05-04-2024 18:00:00,28.5898,77.3101,OZONE,1,107,91
India,Uttar_Pradesh,Prayagraj,"Motilal Nehru NIT, Prayagraj - UPPCB",05-04-2024 18:00:00,25.494,81.863,PM2.5,14,55,37
India,Uttar_Pradesh,Prayagraj,"Motilal Nehru NIT, Prayagraj - UPPCB",05-04-2024 18:00:00,25.494,81.863,SO2,24,38,28
India,Uttar_Pradesh,Prayagraj,"Motilal Nehru NIT, Prayagraj - UPPCB",05-04-2024 18:00:00,25.494,81.863,OZONE,7,32,26
India,Uttar_Pradesh,Varanasi,"Ardhali Bazar, Varanasi - UPPCB",05-04-2024 18:00:00,25.3505986,82.9083074,CO,2,22,7
India,Uttar_Pradesh,Varanasi,"Bhelupur, Varanasi - UPPCB",05-04-2024 18:00:00,25.301778,82.996789,NO2,8,8,8
India,Uttar_Pradesh,Varanasi,"IESD Banaras Hindu University, Varanasi - UPPCB",05-04-2024 18:00:00,25.262326,82.995408,SO2,15,16,15
India,Uttar_Pradesh,Varanasi,"Maldahiya, Varanasi - UPPCB",05-04-2024 18:00:00,25.32393,82.99687,PM10,17,57,38
India,Uttar_Pradesh,Varanasi,"Maldahiya, Varanasi - UPPCB",05-04-2024 18:00:00,25.32393,82.99687,SO2,25,29,26
India,Uttar_Pradesh,Vrindavan,"Omex Eternity, Vrindavan - UPPCB",05-04-2024 18:00:00,27.5714090,77.6557570,SO2,39,50,44
India,Uttarakhand,Kashipur,"Govt. Girls Inter College, Kashipur - UKPCB",05-04-2024 18:00:00,29.2124114,78.9611753,PM2.5,34,96,65
India,Uttarakhand,Kashipur,"Govt. Girls Inter College, Kashipur - UKPCB",05-04-2024 18:00:00,29.2124114,78.9611753,OZONE,17,65,51
India,Uttarakhand,Rishikesh,"Shivaji Nagar, Rishikesh - UKPCB",05-04-2024 18:00:00,30.075911,78.2859547,SO2,4,5,4
India,West_Bengal,Asansol,"Asansol Court Area, Asansol - WBPCB",05-04-2024 18:00:00,23.685297,86.945968,PM2.5,173,314,236
India,West_Bengal,Asansol,"Asansol Court Area, Asansol - WBPCB",05-04-2024 18:00:00,23.685297,86.945968,CO,22,108,33
India,West_Bengal,Barrackpore,"SVSPA Campus, Barrackpore - WBPCB",05-04-2024 18:00:00,22.7605581,88.3617589,NO2,10,24,14
India,West_Bengal,Durgapur,"PCBL Residential Complex, Durgapur - WBPCB",05-04-2024 18:00:00,23.5087640,87.3544400,NH3,1,3,2
India,West_Bengal,Durgapur,"PCBL Residential Complex, Durgapur - WBPCB",05-04-2024 18:00:00,23.5087640,87.3544400,SO2,4,15,6
India,West_Bengal,Durgapur,"PCBL Residential Complex, Durgapur - WBPCB",05-04-2024 18:00:00,23.5087640,87.3544400,OZONE,10,105,86
India,West_Bengal,Haldia,"Priyambada Housing Estate, Haldia - WBPCB",05-04-2024 18:00:00,22.06047,88.109737,OZONE,19,136,60
India,West_Bengal,Howrah,"Belur Math, Howrah - WBPCB",05-04-2024 18:00:00,22.629801,88.352017,NH3,2,3,2
India,West_Bengal,Howrah,"Belur Math, Howrah - WBPCB",05-04-2024 18:00:00,22.629801,88.352017,OZONE,9,79,50
India,West_Bengal,Howrah,"Ghusuri, Howrah - WBPCB",05-04-2024 18:00:00,22.611968,88.347422,NO2,11,27,16
India,West_Bengal,Howrah,"Ghusuri, Howrah - WBPCB",05-04-2024 18:00:00,22.611968,88.347422,OZONE,14,37,31
India,West_Bengal,Howrah,"Padmapukur, Howrah - WBPCB",05-04-2024 18:00:00,22.5687319,88.2797276,NO2,5,9,7
India,West_Bengal,Howrah,"Padmapukur, Howrah - WBPCB",05-04-2024 18:00:00,22.5687319,88.2797276,CO,10,53,23
India,West_Bengal,Kolkata,"Bidhannagar, Kolkata - WBPCB",05-04-2024 18:00:00,22.58157048,88.41002457,NH3,7,9,8
India,West_Bengal,Kolkata,"Bidhannagar, Kolkata - WBPCB",05-04-2024 18:00:00,22.58157048,88.41002457,SO2,4,9,7
India,West_Bengal,Kolkata,"Bidhannagar, Kolkata - WBPCB",05-04-2024 18:00:00,22.58157048,88.41002457,CO,14,44,37
India,West_Bengal,Kolkata,"Fort William, Kolkata - WBPCB",05-04-2024 18:00:00,22.556640,88.342674,CO,12,40,34
India,West_Bengal,Kolkata,"Fort William, Kolkata - WBPCB",05-04-2024 18:00:00,22.556640,88.342674,OZONE,22,53,46
India,West_Bengal,Kolkata,"Rabindra Bharati University, Kolkata - WBPCB",05-04-2024 18:00:00,22.627847,88.380669,OZONE,13,85,68
India,West_Bengal,Kolkata,"Rabindra Sarobar, Kolkata - WBPCB",05-04-2024 18:00:00,22.51106,88.35142,SO2,6,9,7
India,West_Bengal,Kolkata,"Rabindra Sarobar, Kolkata - WBPCB",05-04-2024 18:00:00,22.51106,88.35142,CO,8,32,26
India,West_Bengal,Kolkata,"Victoria, Kolkata - WBPCB",05-04-2024 18:00:00,22.5448082,88.3403691,NH3,2,2,2
India,West_Bengal,Kolkata,"Victoria, Kolkata - WBPCB",05-04-2024 18:00:00,22.5448082,88.3403691,CO,27,66,57
India,West_Bengal,Kolkata,"Victoria, Kolkata - WBPCB",05-04-2024 18:00:00,22.5448082,88.3403691,OZONE,10,63,46
India,West_Bengal,Siliguri,"Ward-32 Bapupara, Siliguri - WBPCB",05-04-2024 18:00:00,26.6879226,88.4152495,SO2,6,10,8
India,Andhra_Pradesh,Amaravati,"Secretariat, Amaravati - APPCB",05-04-2024 18:00:00,16.5150833,80.5181667,NH3,4,5,5
India,Andhra_Pradesh,Kadapa,"Yerramukkapalli, Kadapa - APPCB",05-04-2024 18:00:00,14.465052,78.824187,PM10,28,53,38
India,Andhra_Pradesh,Kadapa,"Yerramukkapalli, Kadapa - APPCB",05-04-2024 18:00:00,14.465052,78.824187,SO2,1,3,2
India,Andhra_Pradesh,Rajamahendravaram,"Anand Kala Kshetram, Rajamahendravaram - APPCB",05-04-2024 18:00:00,16.9872867,81.7363176,PM2.5,2,28,15
India,Andhra_Pradesh,Rajamahendravaram,"Anand Kala Kshetram, Rajamahendravaram - APPCB",05-04-2024 18:00:00,16.9872867,81.7363176,PM10,14,51,34
India,Andhra_Pradesh,Tirupati,"Tirumala, Tirupati - APPCB",05-04-2024 18:00:00,13.67,79.35,CO,2,29,21
India,Andhra_Pradesh,Tirupati,"Vaikuntapuram, Tirupati - APPCB",05-04-2024 18:00:00,13.615387,79.409230,PM10,14,151,70
India,Andhra_Pradesh,Tirupati,"Vaikuntapuram, Tirupati - APPCB",05-04-2024 18:00:00,13.615387,79.409230,SO2,5,5,5
India,Andhra_Pradesh,Tirupati,"Vaikuntapuram, Tirupati - APPCB",05-04-2024 18:00:00,13.615387,79.409230,CO,10,16,14
India,Andhra_Pradesh,Tirupati,"Vaikuntapuram, Tirupati - APPCB",05-04-2024 18:00:00,13.615387,79.409230,OZONE,4,45,40
India,Andhra_Pradesh,Vijayawada,"HB Colony, Vijayawada - APPCB",05-04-2024 18:00:00,16.536107,80.594233,PM2.5,40,55,45
India,Andhra_Pradesh,Vijayawada,"Kanuru, Vijayawada - APPCB",05-04-2024 18:00:00,16.486692,80.699436,PM2.5,NA,NA,NA
India,Andhra_Pradesh,Vijayawada,"Kanuru, Vijayawada - APPCB",05-04-2024 18:00:00,16.486692,80.699436,PM10,NA,NA,NA
India,Andhra_Pradesh,Vijayawada,"Kanuru, Vijayawada - APPCB",05-04-2024 18:00:00,16.486692,80.699436,NH3,NA,NA,NA
India,Andhra_Pradesh,Vijayawada,"Rajiv Nagar, Vijayawada - APPCB",05-04-2024 18:00:00,16.554731,80.649110,PM2.5,42,81,47
India,Andhra_Pradesh,Vijayawada,"Rajiv Nagar, Vijayawada - APPCB",05-04-2024 18:00:00,16.554731,80.649110,PM10,59,104,65
India,Arunachal_Pradesh,Naharlagun,"Naharlagun, Naharlagun - APSPCB",05-04-2024 18:00:00,27.103358,93.679645,SO2,4,4,4
India,Assam,Byrnihat,"Central Academy for SFS, Byrnihat - PCBA",05-04-2024 18:00:00,26.071318,91.87488,PM10,43,153,90
India,Assam,Byrnihat,"Central Academy for SFS, Byrnihat - PCBA",05-04-2024 18:00:00,26.071318,91.87488,SO2,7,17,13
India,Assam,Guwahati,"IITG, Guwahati - PCBA",05-04-2024 18:00:00,26.2028636,91.70046436,NH3,5,5,5
India,Assam,Guwahati,"IITG, Guwahati - PCBA",05-04-2024 18:00:00,26.2028636,91.70046436,OZONE,13,37,29
India,Assam,Guwahati,"Pan Bazaar, Guwahati - PCBA",05-04-2024 18:00:00,26.187500,91.744194,PM2.5,23,64,46
India,Assam,Guwahati,"Railway Colony, Guwahati - PCBA",05-04-2024 18:00:00,26.181742,91.78063,CO,12,25,20
India,Assam,Guwahati,"Railway Colony, Guwahati - PCBA",05-04-2024 18:00:00,26.181742,91.78063,OZONE,1,39,18
India,Assam,Nagaon,"Christianpatty, Nagaon - PCBA",05-04-2024 18:00:00,26.349082,92.68449,PM2.5,63,100,77
India,Assam,Nagaon,"Christianpatty, Nagaon - PCBA",05-04-2024 18:00:00,26.349082,92.68449,NO2,3,22,8
India,Assam,Nagaon,"Christianpatty, Nagaon - PCBA",05-04-2024 18:00:00,26.349082,92.68449,CO,43,68,58
India,Assam,Nalbari,"Bata Chowk, Nalbari - PCBA",05-04-2024 18:00:00,26.446912,91.439057,PM2.5,37,78,61
India,Assam,Silchar,"Tarapur, Silchar - PCBA",05-04-2024 18:00:00,24.82827,92.79525,NH3,1,1,1
India,Assam,Sivasagar,"Girls College, Sivasagar - PCBA",05-04-2024 18:00:00,26.987634,94.636574,SO2,3,5,4
India,Bihar,Arrah,"New DM Office, Arrah - BSPCB",05-04-2024 18:00:00,25.5626095,84.663264,SO2,NA,NA,NA
India,Bihar,Arrah,"New DM Office, Arrah - BSPCB",05-04-2024 18:00:00,25.5626095,84.663264,OZONE,15,39,20
India,Bihar,Aurangabad,"Gurdeo Nagar, Aurangabad - BSPCB",05-04-2024 18:00:00,24.75746,84.366208,NH3,3,8,6
India,Bihar,Bhagalpur,"Mayaganj, Bhagalpur - BSPCB",05-04-2024 18:00:00,25.265194,87.012947,PM10,87,458,209
India,Bihar,Bhagalpur,"Mayaganj, Bhagalpur - BSPCB",05-04-2024 18:00:00,25.265194,87.012947,NH3,6,8,7
India,Bihar,Bhagalpur,"Mayaganj, Bhagalpur - BSPCB",05-04-2024 18:00:00,25.265194,87.012947,OZONE,10,52,36
India,Bihar,Buxar,"Charitra Van, Buxar - BSPCB (Formerly known as Central Jail)",05-04-2024 18:00:00,25.567520,83.966379,PM2.5,NA,NA,NA
India,Bihar,Buxar,"Charitra Van, Buxar - BSPCB (Formerly known as Central Jail)",05-04-2024 18:00:00,25.567520,83.966379,NH3,NA,NA,NA
India,Bihar,Gaya,"Collectorate, Gaya - BSPCB",05-04-2024 18:00:00,24.7955,84.9994,NO2,1,5,2
India,Bihar,Hajipur,"Industrial Area, Hajipur - BSPCB",05-04-2024 18:00:00,25.697189,85.245900,NH3,3,8,5
India,Bihar,Hajipur,"Industrial Area, Hajipur - BSPCB",05-04-2024 18:00:00,25.697189,85.245900,SO2,7,8,7
India,Bihar,Hajipur,"Industrial Area, Hajipur - BSPCB",05-04-2024 18:00:00,25.697189,85.245900,CO,17,84,32
India,Bihar,Kishanganj,"SDM Office_Khagra, Kishanganj - BSPCB",05-04-2024 18:00:00,26.0881305,87.93840336,CO,2,16,3
India,Bihar,Manguraha,"Forest Rest House, Manguraha - BSPCB",05-04-2024 18:00:00,27.308328,84.531742,NO2,12,30,18
India,Bihar,Manguraha,"Forest Rest House, Manguraha - BSPCB",05-04-2024 18:00:00,27.308328,84.531742,SO2,NA,NA,NA
India,Bihar,Manguraha,"Forest Rest House, Manguraha - BSPCB",05-04-2024 18:00:00,27.308328,84.531742,CO,9,72,18
India,Bihar,Motihari,"Gandak Colony, Motihari - BSPCB",05-04-2024 18:00:00,26.63086,84.90051,PM10,33,71,49
India,Bihar,Motihari,"Gandak Colony, Motihari - BSPCB",05-04-2024 18:00:00,26.63086,84.90051,CO,2,38,10
India,Bihar,Munger,"Town Hall, Munger - BSPCB",05-04-2024 18:00:00,25.376776,86.471523,NO2,8,10,9
India,Bihar,Muzaffarpur,"Buddha Colony, Muzaffarpur - BSPCB",05-04-2024 18:00:00,26.11442,85.39813,PM10,158,266,214
India,Bihar,Muzaffarpur,"Buddha Colony, Muzaffarpur - BSPCB",05-04-2024 18:00:00,26.11442,85.39813,CO,25,78,34
India,Bihar,Muzaffarpur,"Buddha Colony, Muzaffarpur - BSPCB",05-04-2024 18:00:00,26.11442,85.39813,OZONE,26,54,42
India,Bihar,Muzaffarpur,"MIT-Daudpur Kothi, Muzaffarpur - BSPCB",05-04-2024 18:00:00,26.1403345,85.3650192,PM2.5,95,358,258
India,Bihar,Muzaffarpur,"MIT-Daudpur Kothi, Muzaffarpur - BSPCB",05-04-2024 18:00:00,26.1403345,85.3650192,NH3,2,4,4
India,Bihar,Muzaffarpur,"MIT-Daudpur Kothi, Muzaffarpur - BSPCB",05-04-2024 18:00:00,26.1403345,85.3650192,CO,20,88,51
India,Bihar,Muzaffarpur,"MIT-Daudpur Kothi, Muzaffarpur - BSPCB",05-04-2024 18:00:00,26.1403345,85.3650192,OZONE,6,81,66
India,Bihar,Muzaffarpur,"Muzaffarpur Collectorate, Muzaffarpur - BSPCB",05-04-2024 18:00:00,26.1209,85.3647,PM2.5,46,308,181
India,Bihar,Muzaffarpur,"Muzaffarpur Collectorate, Muzaffarpur - BSPCB",05-04-2024 18:00:00,26.1209,85.3647,NO2,7,230,41
India,Bihar,Patna,"Govt. High School Shikarpur, Patna - BSPCB",05-04-2024 18:00:00,25.592539,85.227158,NO2,17,26,22
India,Bihar,Patna,"Govt. High School Shikarpur, Patna - BSPCB",05-04-2024 18:00:00,25.592539,85.227158,NH3,4,5,5
India,Bihar,Patna,"IGSC Planetarium Complex, Patna - BSPCB",05-04-2024 18:00:00,25.610369,85.132568,SO2,5,6,5
India,Bihar,Patna,"IGSC Planetarium Complex, Patna - BSPCB",05-04-2024 18:00:00,25.610369,85.132568,CO,12,14,13
India,Bihar,Patna,"Rajbansi Nagar, Patna - BSPCB",05-04-2024 18:00:00,25.599486,85.113666,CO,17,104,30
India,Bihar,Patna,"Samanpura, Patna - BSPCB",05-04-2024 18:00:00,25.596727,85.085624,PM2.5,22,424,193
India,Bihar,Patna,"Samanpura, Patna - BSPCB",05-04-2024 18:00:00,25.596727,85.085624,CO,25,123,36
India,Bihar,Purnia,"Mariam Nagar, Purnia - BSPCB",05-04-2024 18:00:00,25.366336,87.117468,PM2.5,42,177,83
India,Bihar,Purnia,"Mariam Nagar, Purnia - BSPCB",05-04-2024 18:00:00,25.366336,87.117468,OZONE,7,53,24
India,Bihar,Rajgir,"Dangi Tola, Rajgir - BSPCB",05-04-2024 18:00:00,25.03280,85.41948,SO2,3,4,4
India,Bihar,Saharsa,"Police Line, Saharsa - BSPCB",05-04-2024 18:00:00,25.892357,86.590325,PM2.5,37,325,148
India,Bihar,Samastipur,"DM Office_Kasipur, Samastipur - BSPCB",05-04-2024 18:00:00,25.859655,85.77944,PM2.5,50,314,179
India,Bihar,Samastipur,"DM Office_Kasipur, Samastipur - BSPCB",05-04-2024 18:00:00,25.859655,85.77944,CO,2,38,14
India,Bihar,Samastipur,"DM Office_Kasipur, Samastipur - BSPCB",05-04-2024 18:00:00,25.859655,85.77944,OZONE,9,16,11
India,Bihar,Sasaram,"Dada Peer, Sasaram - BSPCB",05-04-2024 18:00:00,24.952822,84.002396,NO2,9,26,15
India,Bihar,Sasaram,"Dada Peer, Sasaram - BSPCB",05-04-2024 18:00:00,24.952822,84.002396,CO,45,132,96
India,Bihar,Siwan,"Chitragupta Nagar, Siwan - BSPCB",05-04-2024 18:00:00,26.2271665,84.3570427,PM10,70,129,99
India,Bihar,Siwan,"Chitragupta Nagar, Siwan - BSPCB",05-04-2024 18:00:00,26.2271665,84.3570427,OZONE,19,137,101
India,Chandigarh,Chandigarh,"Sector 22, Chandigarh - CPCC",05-04-2024 18:00:00,30.735567,76.775714,CO,29,52,36
India,Chandigarh,Chandigarh,"Sector-25, Chandigarh - CPCC",05-04-2024 18:00:00,30.751462,76.762879,NO2,4,25,14
India,Chhattisgarh,Bhilai,"32Bungalows, Bhilai - CECB",05-04-2024 18:00:00,21.194815,81.314770,PM2.5,39,65,56
India,Chhattisgarh,Bhilai,"32Bungalows, Bhilai - CECB",05-04-2024 18:00:00,21.194815,81.314770,CO,16,42,23
India,Chhattisgarh,Bhilai,"32Bungalows, Bhilai - CECB",05-04-2024 18:00:00,21.194815,81.314770,OZONE,4,85,52
India,Chhattisgarh,Bhilai,"Civic Center, Bhilai - Bhilai Steel Plant",05-04-2024 18:00:00,21.185571,81.343175,SO2,1,12,9
India,Chhattisgarh,Bilaspur,"Mangala, Bilaspur - NTPC",05-04-2024 18:00:00,22.08815,82.13737,PM2.5,21,237,99
India,Chhattisgarh,Chhal,"Nawapara SECL Colony, Chhal - CECB",05-04-2024 18:00:00,22.118125,83.140608,NH3,2,2,2
India,Chhattisgarh,Korba,"Rampur, Korba - CECB",05-04-2024 18:00:00,22.368195,82.746431,PM10,52,208,110
India,Chhattisgarh,Kunjemura,"OP Jindal School, Kunjemura - CECB",05-04-2024 18:00:00,22.126650,83.483212,CO,12,102,25
India,Chhattisgarh,Milupara,"Govt. Higher Secondary School, Milupara - CECB",05-04-2024 18:00:00,22.1910172,83.5197009,PM2.5,44,167,112
India,Chhattisgarh,Milupara,"Govt. Higher Secondary School, Milupara - CECB",05-04-2024 18:00:00,22.1910172,83.5197009,PM10,55,189,102
India,Chhattisgarh,Raipur,"Bhatagaon New ISBT, Raipur - CECB",05-04-2024 18:00:00,21.219665,81.630094,NH3,2,2,2
India,Chhattisgarh,Raipur,"Krishak Nagar, Raipur - CECB",05-04-2024 18:00:00,21.237755,81.705301,NH3,1,1,1
India,Delhi,Delhi,"Alipur, Delhi - DPCC",05-04-2024 18:00:00,28.815329,77.153010,OZONE,3,105,90
India,Delhi,Delhi,"Ashok Vihar, Delhi - DPCC",05-04-2024 18:00:00,28.695381,77.181665,SO2,16,59,33
India,Delhi,Delhi,"Ashok Vihar, Delhi - DPCC",05-04-2024 18:00:00,28.695381,77.181665,OZONE,2,14,13
India,Delhi,Delhi,"Bawana, Delhi - DPCC",05-04-2024 18:00:00,28.776200,77.051074,PM10,114,427,197
India,Delhi,Delhi,"CRRI Mathura Road, Delhi - IMD",05-04-2024 18:00:00,28.5512005,77.2735737,PM10,116,347,194
India,Delhi,Delhi,"CRRI Mathura Road, Delhi - IMD",05-04-2024 18:00:00,28.5512005,77.2735737,CO,28,111,39
India,Delhi,Delhi,"DTU, Delhi - CPCB",05-04-2024 18:00:00,28.7500499,77.1112615,NH3,13,20,15
India,Delhi,Delhi,"Dr. Karni Singh Shooting Range, Delhi - DPCC",05-04-2024 18:00:00,28.498571,77.264840,PM2.5,23,217,87
India,Delhi,Delhi,"Dr. Karni Singh Shooting Range, Delhi - DPCC",05-04-2024 18:00:00,28.498571,77.264840,NH3,6,8,7
India,Delhi,Delhi,"Dr. Karni Singh Shooting Range, Delhi - DPCC",05-04-2024 18:00:00,28.498571,77.264840,SO2,18,39,26
India,Delhi,Delhi,"Dwarka-Sector 8, Delhi - DPCC ",05-04-2024 18:00:00,28.5710274,77.0719006,SO2,7,24,16
India,Delhi,Delhi,"IGI Airport (T3), Delhi - IMD",05-04-2024 18:00:00,28.5627763,77.1180053,PM2.5,24,263,108
India,Delhi,Delhi,"IGI Airport (T3), Delhi - IMD",05-04-2024 18:00:00,28.5627763,77.1180053,OZONE,1,28,22
India,Delhi,Delhi,"IHBAS, Dilshad Garden, Delhi - CPCB",05-04-2024 18:00:00,28.6811736,77.3025234,PM10,103,183,147
India,Delhi,Delhi,"IHBAS, Dilshad Garden, Delhi - CPCB",05-04-2024 18:00:00,28.6811736,77.3025234,OZONE,6,59,46
India,Delhi,Delhi,"ITO, Delhi - CPCB",05-04-2024 18:00:00,28.628624,77.241060,NH3,2,8,4
India,Delhi,Delhi,"Jahangirpuri, Delhi - DPCC",05-04-2024 18:00:00,28.732820,77.170633,NH3,1,19,13
India,Delhi,Delhi,"Jawaharlal Nehru Stadium, Delhi - DPCC",05-04-2024 18:00:00,28.580280,77.233829,SO2,2,45,19
India,Delhi,Delhi,"Lodhi Road, Delhi - IITM",05-04-2024 18:00:00,28.588333,77.221667,NH3,7,12,9
India,Delhi,Delhi,"Lodhi Road, Delhi - IMD",05-04-2024 18:00:00,28.5918245,77.2273074,PM2.5,32,144,71
India,Delhi,Delhi,"Major Dhyan Chand National Stadium, Delhi - DPCC",05-04-2024 18:00:00,28.611281,77.237738,NO2,22,182,81
India,Delhi,Delhi,"Mandir Marg, Delhi - DPCC",05-04-2024 18:00:00,28.636429,77.201067,NH3,5,6,6
India,Delhi,Delhi,"Mandir Marg, Delhi - DPCC",05-04-2024 18:00:00,28.636429,77.201067,OZONE,7,34,25
India,Delhi,Delhi,"Mundka, Delhi - DPCC",05-04-2024 18:00:00,28.684678,77.076574,PM2.5,33,388,150
India,Delhi,Delhi,"NSIT Dwarka, Delhi - CPCB",05-04-2024 18:00:00,28.60909,77.0325413,NO2,51,71,59
India,Delhi,Delhi,"NSIT Dwarka, Delhi - CPCB",05-04-2024 18:00:00,28.60909,77.0325413,NH3,6,12,9
India,Delhi,Delhi,"NSIT Dwarka, Delhi - CPCB",05-04-2024 18:00:00,28.60909,77.0325413,SO2,2,57,24
India,Delhi,Delhi,"NSIT Dwarka, Delhi - CPCB",05-04-2024 18:00:00,28.60909,77.0325413,OZONE,6,61,53
India,Delhi,Delhi,"Najafgarh, Delhi - DPCC",05-04-2024 18:00:00,28.570173,76.933762,OZONE,25,114,85
India,Delhi,Delhi,"Nehru Nagar, Delhi - DPCC",05-04-2024 18:00:00,28.567890,77.250515,NH3,7,11,8
India,Delhi,Delhi,"Nehru Nagar, Delhi - DPCC",05-04-2024 18:00:00,28.567890,77.250515,CO,43,132,68
India,Delhi,Delhi,"North Campus, DU, Delhi - IMD",05-04-2024 18:00:00,28.6573814,77.1585447,PM10,NA,NA,NA
India,Delhi,Delhi,"North Campus, DU, Delhi - IMD",05-04-2024 18:00:00,28.6573814,77.1585447,NO2,NA,NA,NA
India,Delhi,Delhi,"North Campus, DU, Delhi - IMD",05-04-2024 18:00:00,28.6573814,77.1585447,OZONE,NA,NA,NA
India,Delhi,Delhi,"Punjabi Bagh, Delhi - DPCC",05-04-2024 18:00:00,28.674045,77.131023,CO,38,102,42
India,Delhi,Delhi,"Pusa, Delhi - IMD",05-04-2024 18:00:00,28.636110,77.173332,PM2.5,82,310,186
India,Delhi,Delhi,"R K Puram, Delhi - DPCC",05-04-2024 18:00:00,28.563262,77.186937,OZONE,7,118,104
India,Delhi,Delhi,"Rohini, Delhi - DPCC",05-04-2024 18:00:00,28.732528,77.119920,CO,16,119,23
India,Delhi,Delhi,"Rohini, Delhi - DPCC",05-04-2024 18:00:00,28.732528,77.119920,OZONE,3,94,80
India,Delhi,Delhi,"Shadipur, Delhi - CPCB",05-04-2024 18:00:00,28.6514781,77.1473105,NH3,4,7,6
India,Delhi,Delhi,"Shadipur, Delhi - CPCB",05-04-2024 18:00:00,28.6514781,77.1473105,SO2,6,33,17
India,Delhi,Delhi,"Sirifort, Delhi - CPCB",05-04-2024 18:00:00,28.5504249,77.2159377,PM10,96,500,169
India,Delhi,Delhi,"Sonia Vihar, Delhi - DPCC",05-04-2024 18:00:00,28.710508,77.249485,NO2,16,106,49
India,Delhi,Delhi,"Sonia Vihar, Delhi - DPCC",05-04-2024 18:00:00,28.710508,77.249485,SO2,10,30,18
India,Delhi,Delhi,"Sri Aurobindo Marg, Delhi - DPCC",05-04-2024 18:00:00,28.531346,77.190156,NH3,5,9,7
India,Delhi,Delhi,"Vivek Vihar, Delhi - DPCC",05-04-2024 18:00:00,28.672342,77.315260,PM2.5,32,311,118
India,Delhi,Delhi,"Wazirpur, Delhi - DPCC",05-04-2024 18:00:00,28.699793,77.165453,SO2,14,98,39
India,Gujarat,Ahmedabad,"Chandkheda, Ahmedabad - IITM",05-04-2024 18:00:00,23.107969,72.574648,OZONE,4,40,35
India,Gujarat,Ahmedabad,"Maninagar, Ahmedabad - GPCB",05-04-2024 18:00:00,23.002657,72.591912,PM2.5,20,239,92
India,Gujarat,Ahmedabad,"Maninagar, Ahmedabad - GPCB",05-04-2024 18:00:00,23.002657,72.591912,CO,40,84,56
India,Gujarat,Ahmedabad,"Raikhad, Ahmedabad - IITM",05-04-2024 18:00:00,23.020509,72.579261,PM2.5,58,189,122
India,Gujarat,Ahmedabad,"Raikhad, Ahmedabad - IITM",05-04-2024 18:00:00,23.020509,72.579261,NO2,32,113,53
India,Gujarat,Ahmedabad,"Rakhial, Ahmedabad - IITM",05-04-2024 18:00:00,23.016834,72.625775,PM10,71,127,98
India,Gujarat,Ahmedabad,"Rakhial, Ahmedabad - IITM",05-04-2024 18:00:00,23.016834,72.625775,SO2,2,13,8
India,Gujarat,Ahmedabad,"SAC ISRO Satellite, Ahmedabad - IITM",05-04-2024 18:00:00,23.023389,72.515201,NO2,17,17,17
India,Gujarat,Ahmedabad,"SVPI Airport Hansol, Ahmedabad - IITM",05-04-2024 18:00:00,23.076793,72.627874,CO,29,63,32
India,Gujarat,Ahmedabad,"Sardar Vallabhbhai Patel Stadium, Ahmedabad - IITM",05-04-2024 18:00:00,23.043070,72.562968,SO2,4,17,9
India,Gujarat,Ankleshwar,"GIDC, Ankleshwar - GPCB",05-04-2024 18:00:00,21.613267,73.010555,CO,18,59,44
India,Gujarat,Ankleshwar,"GIDC, Ankleshwar - GPCB",05-04-2024 18:00:00,21.613267,73.010555,OZONE,21,38,31
India,Gujarat,Gandhinagar,"Sector-10, Gandhinagar - GPCB",05-04-2024 18:00:00,23.221714,72.654328,OZONE,22,23,22
India,Gujarat,Nandesari,"GIDC, Nandesari - Nandesari Ind. Association",05-04-2024 18:00:00,22.410802,73.097923,PM2.5,68,352,197
India,Gujarat,Vapi,"Phase-1 GIDC, Vapi - GPCB",05-04-2024 18:00:00,20.362421,72.918013,OZONE,1,3,2
India,Gujarat,Vatva,"Phase-4 GIDC, Vatva - GPCB",05-04-2024 18:00:00,22.969611,72.643500,CO,17,18,18
India,Haryana,Bahadurgarh,"Arya Nagar, Bahadurgarh - HSPCB",05-04-2024 18:00:00,28.6701,76.9254,NH3,11,12,11
India,Haryana,Ballabgarh,"Nathu Colony, Ballabgarh - HSPCB",05-04-2024 18:00:00,28.3419248,77.319699,NH3,1,2,2
India,Haryana,Bhiwani,"H.B. Colony, Bhiwani - HSPCB",05-04-2024 18:00:00,28.806223,76.141105,PM2.5,15,461,152
India,Haryana,Bhiwani,"H.B. Colony, Bhiwani - HSPCB",05-04-2024 18:00:00,28.806223,76.141105,CO,10,128,45
India,Haryana,Dharuhera,"Municipal Corporation Office, Dharuhera -  HSPCB",05-04-2024 18:00:00,28.206800,76.799700,NH3,9,26,19
India,Haryana,Dharuhera,"Municipal Corporation Office, Dharuhera -  HSPCB",05-04-2024 18:00:00,28.206800,76.799700,SO2,10,80,32
India,Haryana,Faridabad,"Sector 11, Faridabad - HSPCB",05-04-2024 18:00:00,28.376058,77.315741,NH3,6,6,6
India,Haryana,Faridabad,"Sector 11, Faridabad - HSPCB",05-04-2024 18:00:00,28.376058,77.315741,SO2,8,9,8
India,Haryana,Faridabad,"Sector 30, Faridabad - HSPCB",05-04-2024 18:00:00,28.4417,77.3217,PM2.5,91,103,96
India,Haryana,Faridabad,"Sector 30, Faridabad - HSPCB",05-04-2024 18:00:00,28.4417,77.3217,CO,56,63,61
India,Haryana,Faridabad,"Sector- 16A, Faridabad - HSPCB",05-04-2024 18:00:00,28.4088421,77.3099081,NO2,16,68,42
India,Haryana,Fatehabad,"Huda Sector, Fatehabad - HSPCB",05-04-2024 18:00:00,29.503664,75.467934,NO2,37,38,38
India,Haryana,Gurugram,"Sector-51, Gurugram - HSPCB",05-04-2024 18:00:00,28.4227,77.0667,PM2.5,153,374,288
India,Haryana,Gurugram,"Sector-51, Gurugram - HSPCB",05-04-2024 18:00:00,28.4227,77.0667,NH3,6,14,9
India,Haryana,Gurugram,"Sector-51, Gurugram - HSPCB",05-04-2024 18:00:00,28.4227,77.0667,CO,22,81,30
India,Haryana,Gurugram,"Teri Gram, Gurugram - HSPCB",05-04-2024 18:00:00,28.4275,77.1465,OZONE,46,77,59
India,Haryana,Gurugram,"Vikas Sadan, Gurugram - HSPCB",05-04-2024 18:00:00,28.4501238,77.0263051,SO2,9,73,40
India,Haryana,Gurugram,"Vikas Sadan, Gurugram - HSPCB",05-04-2024 18:00:00,28.4501238,77.0263051,CO,55,148,119
India,Haryana,Hisar,"Urban Estate-II, Hisar - HSPCB",05-04-2024 18:00:00,29.140560,75.744941,PM2.5,40,73,57
India,Haryana,Hisar,"Urban Estate-II, Hisar - HSPCB",05-04-2024 18:00:00,29.140560,75.744941,SO2,8,63,37
India,Haryana,Hisar,"Urban Estate-II, Hisar - HSPCB",05-04-2024 18:00:00,29.140560,75.744941,OZONE,66,156,132
India,Haryana,Kaithal,"Rishi Nagar, Kaithal - HSPCB",05-04-2024 18:00:00,29.8006,76.4155,PM2.5,37,79,55
India,Haryana,Karnal,"Sector-12, Karnal - HSPCB",05-04-2024 18:00:00,29.695300,77.002700,NO2,7,12,10
India,Haryana,Karnal,"Sector-12, Karnal - HSPCB",05-04-2024 18:00:00,29.695300,77.002700,NH3,10,13,11
India,Haryana,Karnal,"Sector-12, Karnal - HSPCB",05-04-2024 18:00:00,29.695300,77.002700,OZONE,28,36,31
India,Haryana,Kurukshetra,"Sector-7, Kurukshetra - HSPCB",05-04-2024 18:00:00,29.966942,76.875879,PM2.5,54,128,80
India,Haryana,Mandikhera,"General Hospital, Mandikhera - HSPCB",05-04-2024 18:00:00,27.9002,76.9938,CO,6,26,14
India,Haryana,Manesar,"Sector-2 IMT, Manesar - HSPCB",05-04-2024 18:00:00,28.360699,76.936090,OZONE,9,99,60
India,Haryana,Palwal,"Shyam Nagar, Palwal - HSPCB",05-04-2024 18:00:00,28.1485564,77.3320667,PM10,83,159,120
India,Haryana,Panipat,"Sector-18, Panipat - HSPCB",05-04-2024 18:00:00,29.497973,76.993331,PM2.5,49,50,50
India,Haryana,Panipat,"Sector-18, Panipat - HSPCB",05-04-2024 18:00:00,29.497973,76.993331,NO2,31,32,31
India,Haryana,Panipat,"Sector-18, Panipat - HSPCB",05-04-2024 18:00:00,29.497973,76.993331,NH3,2,3,3
India,Haryana,Sirsa,"F-Block, Sirsa - HSPCB",05-04-2024 18:00:00,29.536400,75.015800,PM2.5,25,72,52
India,Haryana,Sirsa,"F-Block, Sirsa - HSPCB",05-04-2024 18:00:00,29.536400,75.015800,PM10,42,107,66
India,Haryana,Sonipat,"Murthal, Sonipat - HSPCB",05-04-2024 18:00:00,29.027200,77.062100,NH3,6,10,9
India,Himachal Pradesh,Baddi,"HIMUDA Complex Phase-1, Baddi - HPPCB",05-04-2024 18:00:00,30.943887,76.801991,PM10,72,159,101
India,Himachal Pradesh,Baddi,"HIMUDA Complex Phase-1, Baddi - HPPCB",05-04-2024 18:00:00,30.943887,76.801991,NH3,2,5,3
India,Jharkhand,Pathardih,"Mohalbani Ghat, Pathardih - DMC",05-04-2024 18:00:00,23.669880,86.411725,NO2,NA,NA,NA
India,Jharkhand,Pathardih,"Mohalbani Ghat, Pathardih - DMC",05-04-2024 18:00:00,23.669880,86.411725,SO2,NA,NA,NA
India,Karnataka,Belgaum,"Ramteerth Nagar, Belgaum - KSPCB",05-04-2024 18:00:00,15.888653,74.541751,PM2.5,28,75,40
India,Karnataka,Belgaum,"Ramteerth Nagar, Belgaum - KSPCB",05-04-2024 18:00:00,15.888653,74.541751,NH3,34,34,34
India,Karnataka,Belgaum,"Ramteerth Nagar, Belgaum - KSPCB",05-04-2024 18:00:00,15.888653,74.541751,SO2,9,11,9
India,Karnataka,Bengaluru,"BTM Layout, Bengaluru - CPCB",05-04-2024 18:00:00,12.9135218,77.5950804,NH3,NA,NA,NA
India,Karnataka,Bengaluru,"BTM Layout, Bengaluru - CPCB",05-04-2024 18:00:00,12.9135218,77.5950804,SO2,9,10,10
India,Karnataka,Bengaluru,"Bapuji Nagar, Bengaluru - KSPCB",05-04-2024 18:00:00,12.951913,77.539784,NO2,8,14,11
India,Karnataka,Bengaluru,"Jayanagar 5th Block, Bengaluru - KSPCB",05-04-2024 18:00:00,12.920984,77.584908,PM2.5,38,84,63
India,Karnataka,Bengaluru,"Jigani, Bengaluru - KSPCB",05-04-2024 18:00:00,12.7816279,77.6299145,PM10,47,115,80
India,Karnataka,Bengaluru,"Jigani, Bengaluru - KSPCB",05-04-2024 18:00:00,12.7816279,77.6299145,NO2,31,32,32
India,Karnataka,Bengaluru,"Jigani, Bengaluru - KSPCB",05-04-2024 18:00:00,12.7816279,77.6299145,SO2,16,16,16
India,Karnataka,Bengaluru,"Peenya, Bengaluru - CPCB",05-04-2024 18:00:00,13.0270199,77.494094,NO2,30,51,38
India,Karnataka,Bengaluru,"RVCE-Mailasandra, Bengaluru - KSPCB",05-04-2024 18:00:00,12.921418,77.502466,CO,28,68,38
India,Karnataka,Bengaluru,"Shivapura_Peenya, Bengaluru - KSPCB",05-04-2024 18:00:00,13.0246342,77.5080115,PM2.5,1,180,43
India,Karnataka,Bengaluru,"Silk Board, Bengaluru - KSPCB",05-04-2024 18:00:00,12.917348,77.622813,NO2,20,25,22
