country,state,city,station,last_update,latitude,longitude,pollutant_id,pollutant_min,pollutant_max,pollutant_avg
India,Andhra_Pradesh,Amaravati,"Secretariat, Amaravati - APPCB",22-04-2024 17:00:00,16.5150833,80.5181667,CO,17,38,28
India,Andhra_Pradesh,Amaravati,"Secretariat, Amaravati - APPCB",22-04-2024 17:00:00,16.5150833,80.5181667,OZONE,10,59,34
India,Andhra_Pradesh,Rajamahendravaram,"Anand Kala Kshetram, Rajamahendravaram - APPCB",22-04-2024 17:00:00,16.9872867,81.7363176,PM10,16,64,35
India,Andhra_Pradesh,Rajamahendravaram,"Anand Kala Kshetram, Rajamahendravaram - APPCB",22-04-2024 17:00:00,16.9872867,81.7363176,OZONE,14,27,24
India,Andhra_Pradesh,Tirupati,"Tirumala, Tirupati - APPCB",22-04-2024 17:00:00,13.67,79.35,PM2.5,30,106,49
India,Andhra_Pradesh,Tirupati,"Tirumala, Tirupati - APPCB",22-04-2024 17:00:00,13.67,79.35,NO2,17,36,25
India,Andhra_Pradesh,Vijayawada,"HB Colony, Vijayawada - APPCB",22-04-2024 17:00:00,16.536107,80.594233,CO,31,31,31
India,Andhra_Pradesh,Vijayawada,"Rajiv Nagar, Vijayawada - APPCB",22-04-2024 17:00:00,16.554731,80.649110,PM10,NA,NA,NA
India,Andhra_Pradesh,Vijayawada,"Rajiv Nagar, Vijayawada - APPCB",22-04-2024 17:00:00,16.554731,80.649110,SO2,NA,NA,NA
India,Andhra_Pradesh,Vijayawada,"Rajiv Nagar, Vijayawada - APPCB",22-04-2024 17:00:00,16.554731,80.649110,CO,40,40,40
India,Andhra_Pradesh,Vijayawada,"Rajiv Nagar, Vijayawada - APPCB",22-04-2024 17:00:00,16.554731,80.649110,OZONE,15,36,24
India,Andhra_Pradesh,Visakhapatnam,"GVM Corporation, Visakhapatnam - APPCB",22-04-2024 17:00:00,17.72,83.3,NH3,3,5,4
India,Andhra_Pradesh,Visakhapatnam,"GVM Corporation, Visakhapatnam - APPCB",22-04-2024 17:00:00,17.72,83.3,SO2,11,17,14
India,Andhra_Pradesh,Visakhapatnam,"GVM Corporation, Visakhapatnam - APPCB",22-04-2024 17:00:00,17.72,83.3,CO,14,88,34
India,Arunachal_Pradesh,Naharlagun,"Naharlagun, Naharlagun - APSPCB",22-04-2024 17:00:00,27.103358,93.679645,NO2,NA,NA,NA
India,Assam,Byrnihat,"Central Academy for SFS, Byrnihat - PCBA",22-04-2024 17:00:00,26.071318,91.87488,NH3,7,9,8
India,Assam,Byrnihat,"Central Academy for SFS, Byrnihat - PCBA",22-04-2024 17:00:00,26.071318,91.87488,SO2,7,11,9
India,Assam,Guwahati,"IITG, Guwahati - PCBA",22-04-2024 17:00:00,26.2028636,91.70046436,PM2.5,12,106,54
India,Assam,Guwahati,"LGBI Airport, Guwahati - PCBA",22-04-2024 17:00:00,26.10887,91.589544,SO2,8,13,11
India,Assam,Guwahati,"Railway Colony, Guwahati - PCBA",22-04-2024 17:00:00,26.181742,91.78063,OZONE,2,37,19
India,Assam,Nagaon,"Christianpatty, Nagaon - PCBA",22-04-2024 17:00:00,26.349082,92.68449,NO2,1,27,7
India,Assam,Nagaon,"Christianpatty, Nagaon - PCBA",22-04-2024 17:00:00,26.349082,92.68449,NH3,3,4,3
India,Assam,Nalbari,"Bata Chowk, Nalbari - PCBA",22-04-2024 17:00:00,26.446912,91.439057,CO,22,85,59
India,Assam,Silchar,"Tarapur, Silchar - PCBA",22-04-2024 17:00:00,24.82827,92.79525,NO2,13,13,13
India,Assam,Silchar,"Tarapur, Silchar - PCBA",22-04-2024 17:00:00,24.82827,92.79525,NH3,1,1,1
India,Assam,Silchar,"Tarapur, Silchar - PCBA",22-04-2024 17:00:00,24.82827,92.79525,CO,28,44,32
India,Assam,Silchar,"Tarapur, Silchar - PCBA",22-04-2024 17:00:00,24.82827,92.79525,OZONE,1,16,6
India,Assam,Sivasagar,"Girls College, Sivasagar - PCBA",22-04-2024 17:00:00,26.987634,94.636574,PM2.5,22,35,28
India,Bihar,Araria,"Kharahiya Basti, Araria - BSPCB",22-04-2024 17:00:00,26.146529,87.454184,NH3,6,7,7
India,Bihar,Arrah,"New DM Office, Arrah - BSPCB",22-04-2024 17:00:00,25.5626095,84.663264,NO2,NA,NA,NA
India,Bihar,Aurangabad,"Gurdeo Nagar, Aurangabad - BSPCB",22-04-2024 17:00:00,24.75746,84.366208,PM2.5,NA,NA,NA
India,Bihar,Aurangabad,"Gurdeo Nagar, Aurangabad - BSPCB",22-04-2024 17:00:00,24.75746,84.366208,NH3,12,24,19
India,Bihar,Bettiah,"Kamalnath Nagar, Bettiah - BSPCB",22-04-2024 17:00:00,26.80365,84.51954,PM2.5,78,404,165
India,Bihar,Bettiah,"Kamalnath Nagar, Bettiah - BSPCB",22-04-2024 17:00:00,26.80365,84.51954,OZONE,4,15,13
India,Bihar,Bhagalpur,"DM Office_Kachari Chowk, Bhagalpur - BSPCB",22-04-2024 17:00:00,25.251013,86.989001,OZONE,45,51,47
India,Bihar,Bhagalpur,"Mayaganj, Bhagalpur - BSPCB",22-04-2024 17:00:00,25.265194,87.012947,PM2.5,62,95,76
India,Bihar,Bihar Sharif,"D M Colony, Bihar Sharif - BSPCB",22-04-2024 17:00:00,25.204762,85.514960,PM10,67,108,80
India,Bihar,Bihar Sharif,"D M Colony, Bihar Sharif - BSPCB",22-04-2024 17:00:00,25.204762,85.514960,NH3,2,2,2
India,Bihar,Bihar Sharif,"D M Colony, Bihar Sharif - BSPCB",22-04-2024 17:00:00,25.204762,85.514960,SO2,2,16,11
India,Bihar,Bihar Sharif,"D M Colony, Bihar Sharif - BSPCB",22-04-2024 17:00:00,25.204762,85.514960,CO,48,64,58
India,Bihar,Chhapra,"Darshan Nagar, Chhapra - BSPCB",22-04-2024 17:00:00,25.7808257,84.7446768,PM10,108,175,127
India,Bihar,Chhapra,"Darshan Nagar, Chhapra - BSPCB",22-04-2024 17:00:00,25.7808257,84.7446768,OZONE,1,7,4
India,Bihar,Gaya,"Kareemganj, Gaya - BSPCB",22-04-2024 17:00:00,24.792403,84.992416,SO2,6,10,8
India,Bihar,Gaya,"SFTI Kusdihra, Gaya - BSPCB",22-04-2024 17:00:00,24.762518,84.982348,PM10,88,117,102
India,Bihar,Hajipur,"Industrial Area, Hajipur - BSPCB",22-04-2024 17:00:00,25.697189,85.245900,PM2.5,62,123,88
India,Bihar,Hajipur,"Industrial Area, Hajipur - BSPCB",22-04-2024 17:00:00,25.697189,85.245900,PM10,231,460,271
India,Bihar,Hajipur,"Industrial Area, Hajipur - BSPCB",22-04-2024 17:00:00,25.697189,85.245900,NO2,49,67,59
India,Bihar,Katihar,"Mirchaibari, Katihar - BSPCB",22-04-2024 17:00:00,25.560083,87.553265,PM10,NA,NA,NA
India,Bihar,Kishanganj,"SDM Office_Khagra, Kishanganj - BSPCB",22-04-2024 17:00:00,26.0881305,87.93840336,PM10,178,310,207
India,Bihar,Kishanganj,"SDM Office_Khagra, Kishanganj - BSPCB",22-04-2024 17:00:00,26.0881305,87.93840336,NH3,9,9,9
India,Bihar,Kishanganj,"SDM Office_Khagra, Kishanganj - BSPCB",22-04-2024 17:00:00,26.0881305,87.93840336,SO2,NA,NA,NA
India,Bihar,Kishanganj,"SDM Office_Khagra, Kishanganj - BSPCB",22-04-2024 17:00:00,26.0881305,87.93840336,CO,2,8,6
India,Bihar,Motihari,"Gandak Colony, Motihari - BSPCB",22-04-2024 17:00:00,26.63086,84.90051,PM10,31,133,77
India,Bihar,Motihari,"Gandak Colony, Motihari - BSPCB",22-04-2024 17:00:00,26.63086,84.90051,NH3,8,17,12
India,Bihar,Muzaffarpur,"Buddha Colony, Muzaffarpur - BSPCB",22-04-2024 17:00:00,26.11442,85.39813,SO2,7,31,11
India,Bihar,Muzaffarpur,"Muzaffarpur Collectorate, Muzaffarpur - BSPCB",22-04-2024 17:00:00,26.1209,85.3647,CO,34,80,61
India,Bihar,Muzaffarpur,"Muzaffarpur Collectorate, Muzaffarpur - BSPCB",22-04-2024 17:00:00,26.1209,85.3647,OZONE,59,88,74
India,Bihar,Patna,"IGSC Planetarium Complex, Patna - BSPCB",22-04-2024 17:00:00,25.610369,85.132568,SO2,5,5,5
India,Bihar,Patna,"Muradpur, Patna - BSPCB",22-04-2024 17:00:00,25.619651,85.147382,NO2,8,22,14
India,Bihar,Patna,"Rajbansi Nagar, Patna - BSPCB",22-04-2024 17:00:00,25.599486,85.113666,PM2.5,262,350,319
India,Bihar,Patna,"Rajbansi Nagar, Patna - BSPCB",22-04-2024 17:00:00,25.599486,85.113666,PM10,159,296,194
India,Bihar,Patna,"Rajbansi Nagar, Patna - BSPCB",22-04-2024 17:00:00,25.599486,85.113666,NO2,15,40,22
India,Bihar,Patna,"Rajbansi Nagar, Patna - BSPCB",22-04-2024 17:00:00,25.599486,85.113666,SO2,4,17,11
India,Bihar,Patna,"Rajbansi Nagar, Patna - BSPCB",22-04-2024 17:00:00,25.599486,85.113666,OZONE,25,125,102
India,Bihar,Rajgir,"Dangi Tola, Rajgir - BSPCB",22-04-2024 17:00:00,25.03280,85.41948,PM2.5,47,110,70
India,Bihar,Rajgir,"Dangi Tola, Rajgir - BSPCB",22-04-2024 17:00:00,25.03280,85.41948,NO2,18,23,20
India,Bihar,Saharsa,"Police Line, Saharsa - BSPCB",22-04-2024 17:00:00,25.892357,86.590325,PM2.5,28,65,47
India,Bihar,Saharsa,"Police Line, Saharsa - BSPCB",22-04-2024 17:00:00,25.892357,86.590325,NH3,9,9,9
India,Bihar,Samastipur,"DM Office_Kasipur, Samastipur - BSPCB",22-04-2024 17:00:00,25.859655,85.77944,NO2,NA,NA,NA
India,Bihar,Sasaram,"Dada Peer, Sasaram - BSPCB",22-04-2024 17:00:00,24.952822,84.002396,PM10,56,140,107
India,Bihar,Sasaram,"Dada Peer, Sasaram - BSPCB",22-04-2024 17:00:00,24.952822,84.002396,NO2,8,20,13
India,Bihar,Sasaram,"Dada Peer, Sasaram - BSPCB",22-04-2024 17:00:00,24.952822,84.002396,NH3,6,11,9
India,Bihar,Sasaram,"Dada Peer, Sasaram - BSPCB",22-04-2024 17:00:00,24.952822,84.002396,SO2,21,23,22
India,Bihar,Siwan,"Chitragupta Nagar, Siwan - BSPCB",22-04-2024 17:00:00,26.2271665,84.3570427,PM10,NA,NA,NA
India,Bihar,Siwan,"Chitragupta Nagar, Siwan - BSPCB",22-04-2024 17:00:00,26.2271665,84.3570427,NO2,NA,NA,NA
India,Chandigarh,Chandigarh,"Sector 22, Chandigarh - CPCC",22-04-2024 17:00:00,30.735567,76.775714,NH3,NA,NA,NA
India,Chandigarh,Chandigarh,"Sector 22, Chandigarh - CPCC",22-04-2024 17:00:00,30.735567,76.775714,OZONE,90,187,115
India,Chandigarh,Chandigarh,"Sector-25, Chandigarh - CPCC",22-04-2024 17:00:00,30.751462,76.762879,OZONE,1,46,36
India,Chandigarh,Chandigarh,"Sector-53, Chandigarh - CPCC",22-04-2024 17:00:00,30.719859,76.738637,PM10,NA,NA,NA
India,Chhattisgarh,Bhilai,"32Bungalows, Bhilai - CECB",22-04-2024 17:00:00,21.194815,81.314770,PM2.5,11,59,38
India,Chhattisgarh,Bhilai,"Civic Center, Bhilai - Bhilai Steel Plant",22-04-2024 17:00:00,21.185571,81.343175,NO2,11,18,15
India,Chhattisgarh,Bhilai,"Civic Center, Bhilai - Bhilai Steel Plant",22-04-2024 17:00:00,21.185571,81.343175,CO,18,72,35
India,Chhattisgarh,Korba,"Urja Nagar, Korba - CECB",22-04-2024 17:00:00,22.348441,82.549611,PM2.5,13,273,56
India,Chhattisgarh,Milupara,"Govt. Higher Secondary School, Milupara - CECB",22-04-2024 17:00:00,22.1910172,83.5197009,NO2,NA,NA,NA
India,Chhattisgarh,Raipur,"AIIMS, Raipur - CECB",22-04-2024 17:00:00,21.258815,81.578979,PM2.5,NA,NA,NA
India,Chhattisgarh,Raipur,"Bhatagaon New ISBT, Raipur - CECB",22-04-2024 17:00:00,21.219665,81.630094,PM10,25,67,44
India,Chhattisgarh,Raipur,"Bhatagaon New ISBT, Raipur - CECB",22-04-2024 17:00:00,21.219665,81.630094,NO2,32,51,41
India,Chhattisgarh,Raipur,"Krishak Nagar, Raipur - CECB",22-04-2024 17:00:00,21.237755,81.705301,PM10,27,64,45
India,Chhattisgarh,Raipur,"Krishak Nagar, Raipur - CECB",22-04-2024 17:00:00,21.237755,81.705301,NO2,16,17,17
India,Chhattisgarh,Tumidih,"OP Jindal Industrial Park, Tumidih - CECB",22-04-2024 17:00:00,22.06631475,83.33820077,OZONE,11,52,32
India,Delhi,Delhi,"Anand Vihar, Delhi - DPCC",22-04-2024 17:00:00,28.647622,77.3158090,NH3,NA,NA,NA
India,Delhi,Delhi,"Anand Vihar, Delhi - DPCC",22-04-2024 17:00:00,28.647622,77.3158090,CO,50,78,63
India,Delhi,Delhi,"Ashok Vihar, Delhi - DPCC",22-04-2024 17:00:00,28.695381,77.181665,SO2,18,33,25
India,Delhi,Delhi,"Aya Nagar, Delhi - IMD",22-04-2024 17:00:00,28.4706914,77.1099364,PM10,7,201,103
India,Delhi,Delhi,"Bawana, Delhi - DPCC",22-04-2024 17:00:00,28.776200,77.051074,SO2,6,32,13
India,Delhi,Delhi,"Bawana, Delhi - DPCC",22-04-2024 17:00:00,28.776200,77.051074,OZONE,33,119,89
India,Delhi,Delhi,"Burari Crossing, Delhi - IMD",22-04-2024 17:00:00,28.7256504,77.2011573,CO,2,42,7
India,Delhi,Delhi,"CRRI Mathura Road, Delhi - IMD",22-04-2024 17:00:00,28.5512005,77.2735737,CO,26,110,40
India,Delhi,Delhi,"Chandni Chowk, Delhi - IITM",22-04-2024 17:00:00,28.656756,77.227234,SO2,13,58,34
India,Delhi,Delhi,"Chandni Chowk, Delhi - IITM",22-04-2024 17:00:00,28.656756,77.227234,OZONE,3,7,6
India,Delhi,Delhi,"DTU, Delhi - CPCB",22-04-2024 17:00:00,28.7500499,77.1112615,PM2.5,13,152,67
India,Delhi,Delhi,"DTU, Delhi - CPCB",22-04-2024 17:00:00,28.7500499,77.1112615,PM10,18,326,100
India,Delhi,Delhi,"DTU, Delhi - CPCB",22-04-2024 17:00:00,28.7500499,77.1112615,SO2,33,39,35
India,Delhi,Delhi,"Dr. Karni Singh Shooting Range, Delhi - DPCC",22-04-2024 17:00:00,28.498571,77.264840,PM10,30,165,101
India,Delhi,Delhi,"Dwarka-Sector 8, Delhi - DPCC ",22-04-2024 17:00:00,28.5710274,77.0719006,NO2,5,84,34
India,Delhi,Delhi,"IHBAS, Dilshad Garden, Delhi - CPCB",22-04-2024 17:00:00,28.6811736,77.3025234,NH3,NA,NA,NA
India,Delhi,Delhi,"ITO, Delhi - CPCB",22-04-2024 17:00:00,28.628624,77.241060,NO2,28,124,69
India,Delhi,Delhi,"ITO, Delhi - CPCB",22-04-2024 17:00:00,28.628624,77.241060,NH3,1,4,2
India,Delhi,Delhi,"ITO, Delhi - CPCB",22-04-2024 17:00:00,28.628624,77.241060,SO2,8,22,15
India,Delhi,Delhi,"ITO, Delhi - CPCB",22-04-2024 17:00:00,28.628624,77.241060,OZONE,8,68,52
India,Delhi,Delhi,"Jahangirpuri, Delhi - DPCC",22-04-2024 17:00:00,28.732820,77.170633,NO2,26,167,81
India,Delhi,Delhi,"Jawaharlal Nehru Stadium, Delhi - DPCC",22-04-2024 17:00:00,28.580280,77.233829,SO2,1,37,12
India,Delhi,Delhi,"Jawaharlal Nehru Stadium, Delhi - DPCC",22-04-2024 17:00:00,28.580280,77.233829,OZONE,1,184,155
India,Delhi,Delhi,"Lodhi Road, Delhi - IITM",22-04-2024 17:00:00,28.588333,77.221667,NO2,79,120,98
India,Delhi,Delhi,"Lodhi Road, Delhi - IMD",22-04-2024 17:00:00,28.5918245,77.2273074,OZONE,37,93,81
India,Delhi,Delhi,"Major Dhyan Chand National Stadium, Delhi - DPCC",22-04-2024 17:00:00,28.611281,77.237738,PM10,33,154,77
India,Delhi,Delhi,"Mandir Marg, Delhi - DPCC",22-04-2024 17:00:00,28.636429,77.201067,PM2.5,18,90,47
India,Delhi,Delhi,"Mandir Marg, Delhi - DPCC",22-04-2024 17:00:00,28.636429,77.201067,SO2,1,15,6
India,Delhi,Delhi,"NSIT Dwarka, Delhi - CPCB",22-04-2024 17:00:00,28.60909,77.0325413,PM10,64,325,174
India,Delhi,Delhi,"Narela, Delhi - DPCC",22-04-2024 17:00:00,28.822836,77.101981,OZONE,31,134,104
India,Delhi,Delhi,"Nehru Nagar, Delhi - DPCC",22-04-2024 17:00:00,28.567890,77.250515,PM2.5,7,101,46
India,Delhi,Delhi,"Nehru Nagar, Delhi - DPCC",22-04-2024 17:00:00,28.567890,77.250515,NH3,2,3,2
India,Delhi,Delhi,"Okhla Phase-2, Delhi - DPCC",22-04-2024 17:00:00,28.530785,77.271255,NO2,32,131,71
India,Delhi,Delhi,"Patparganj, Delhi - DPCC",22-04-2024 17:00:00,28.623763,77.287209,CO,38,102,59
India,Delhi,Delhi,"Patparganj, Delhi - DPCC",22-04-2024 17:00:00,28.623763,77.287209,OZONE,26,124,91
India,Delhi,Delhi,"Punjabi Bagh, Delhi - DPCC",22-04-2024 17:00:00,28.674045,77.131023,PM2.5,8,191,76
India,Delhi,Delhi,"Punjabi Bagh, Delhi - DPCC",22-04-2024 17:00:00,28.674045,77.131023,OZONE,3,33,24
India,Delhi,Delhi,"Pusa, Delhi - IMD",22-04-2024 17:00:00,28.636110,77.173332,PM10,70,276,129
India,Delhi,Delhi,"Pusa, Delhi - IMD",22-04-2024 17:00:00,28.636110,77.173332,NO2,10,40,19
India,Delhi,Delhi,"R K Puram, Delhi - DPCC",22-04-2024 17:00:00,28.563262,77.186937,PM2.5,21,335,88
India,Delhi,Delhi,"R K Puram, Delhi - DPCC",22-04-2024 17:00:00,28.563262,77.186937,CO,10,137,24
India,Delhi,Delhi,"Rohini, Delhi - DPCC",22-04-2024 17:00:00,28.732528,77.119920,PM10,26,214,113
India,Delhi,Delhi,"Rohini, Delhi - DPCC",22-04-2024 17:00:00,28.732528,77.119920,NO2,9,78,36
India,Delhi,Delhi,"Shadipur, Delhi - CPCB",22-04-2024 17:00:00,28.6514781,77.1473105,PM10,37,499,194
India,Delhi,Delhi,"Sirifort, Delhi - CPCB",22-04-2024 17:00:00,28.5504249,77.2159377,SO2,25,31,27
India,Delhi,Delhi,"Sirifort, Delhi - CPCB",22-04-2024 17:00:00,28.5504249,77.2159377,OZONE,7,42,22
India,Delhi,Delhi,"Sonia Vihar, Delhi - DPCC",22-04-2024 17:00:00,28.710508,77.249485,PM2.5,15,117,50
India,Delhi,Delhi,"Sonia Vihar, Delhi - DPCC",22-04-2024 17:00:00,28.710508,77.249485,PM10,23,334,107
India,Delhi,Delhi,"Sonia Vihar, Delhi - DPCC",22-04-2024 17:00:00,28.710508,77.249485,OZONE,8,121,93
India,Delhi,Delhi,"Sri Aurobindo Marg, Delhi - DPCC",22-04-2024 17:00:00,28.531346,77.190156,PM10,21,218,87
India,Delhi,Delhi,"Wazirpur, Delhi - DPCC",22-04-2024 17:00:00,28.699793,77.165453,SO2,4,17,11
India,Delhi,Delhi,"Wazirpur, Delhi - DPCC",22-04-2024 17:00:00,28.699793,77.165453,OZONE,5,99,80
India,Gujarat,Ahmedabad,"Chandkheda, Ahmedabad - IITM",22-04-2024 17:00:00,23.107969,72.574648,SO2,3,13,9
India,Gujarat,Ahmedabad,"Gyaspur, Ahmedabad - IITM",22-04-2024 17:00:00,22.977134,72.553024,NO2,23,68,39
India,Gujarat,Ahmedabad,"Gyaspur, Ahmedabad - IITM",22-04-2024 17:00:00,22.977134,72.553024,NH3,2,3,2
India,Gujarat,Ahmedabad,"Maninagar, Ahmedabad - GPCB",22-04-2024 17:00:00,23.002657,72.591912,NO2,23,64,34
India,Gujarat,Ahmedabad,"Maninagar, Ahmedabad - GPCB",22-04-2024 17:00:00,23.002657,72.591912,OZONE,21,51,44
India,Gujarat,Ahmedabad,"Raikhad, Ahmedabad - IITM",22-04-2024 17:00:00,23.020509,72.579261,PM2.5,29,189,63
India,Gujarat,Ahmedabad,"Raikhad, Ahmedabad - IITM",22-04-2024 17:00:00,23.020509,72.579261,PM10,28,126,60
India,Gujarat,Ahmedabad,"Raikhad, Ahmedabad - IITM",22-04-2024 17:00:00,23.020509,72.579261,NH3,5,6,5
India,Gujarat,Ahmedabad,"Raikhad, Ahmedabad - IITM",22-04-2024 17:00:00,23.020509,72.579261,OZONE,12,30,23
India,Gujarat,Ahmedabad,"Rakhial, Ahmedabad - IITM",22-04-2024 17:00:00,23.016834,72.625775,PM10,69,124,95
India,Gujarat,Ahmedabad,"Rakhial, Ahmedabad - IITM",22-04-2024 17:00:00,23.016834,72.625775,SO2,5,40,12
India,Gujarat,Ahmedabad,"Rakhial, Ahmedabad - IITM",22-04-2024 17:00:00,23.016834,72.625775,CO,30,102,55
India,Gujarat,Ahmedabad,"Rakhial, Ahmedabad - IITM",22-04-2024 17:00:00,23.016834,72.625775,OZONE,21,29,21
India,Gujarat,Ahmedabad,"SAC ISRO Satellite, Ahmedabad - IITM",22-04-2024 17:00:00,23.023389,72.515201,PM2.5,116,120,117
India,Gujarat,Ahmedabad,"Sardar Vallabhbhai Patel Stadium, Ahmedabad - IITM",22-04-2024 17:00:00,23.043070,72.562968,NH3,7,7,7
India,Gujarat,Ahmedabad,"Sardar Vallabhbhai Patel Stadium, Ahmedabad - IITM",22-04-2024 17:00:00,23.043070,72.562968,SO2,5,18,11
India,Gujarat,Ankleshwar,"GIDC, Ankleshwar - GPCB",22-04-2024 17:00:00,21.613267,73.010555,NO2,32,33,32
India,Gujarat,Ankleshwar,"GIDC, Ankleshwar - GPCB",22-04-2024 17:00:00,21.613267,73.010555,SO2,9,44,21
India,Gujarat,Gandhinagar,"Sector-10, Gandhinagar - GPCB",22-04-2024 17:00:00,23.221714,72.654328,PM2.5,14,46,33
India,Gujarat,Gandhinagar,"Sector-10, Gandhinagar - GPCB",22-04-2024 17:00:00,23.221714,72.654328,OZONE,14,43,37
India,Gujarat,Nandesari,"GIDC, Nandesari - Nandesari Ind. Association",22-04-2024 17:00:00,22.410802,73.097923,PM10,77,176,127
India,Gujarat,Nandesari,"GIDC, Nandesari - Nandesari Ind. Association",22-04-2024 17:00:00,22.410802,73.097923,NO2,7,30,16
India,Gujarat,Surat,"Science Center, Surat - SMC",22-04-2024 17:00:00,21.170046,72.795405,CO,23,46,25
India,Gujarat,Vapi,"Phase-1 GIDC, Vapi - GPCB",22-04-2024 17:00:00,20.362421,72.918013,SO2,51,54,53
India,Gujarat,Vatva,"Phase-4 GIDC, Vatva - GPCB",22-04-2024 17:00:00,22.969611,72.643500,PM2.5,24,58,39
India,Gujarat,Vatva,"Phase-4 GIDC, Vatva - GPCB",22-04-2024 17:00:00,22.969611,72.643500,OZONE,17,37,28
India,Haryana,Ambala,"Patti Mehar, Ambala - HSPCB",22-04-2024 17:00:00,30.379589,76.778328,PM2.5,20,54,40
India,Haryana,Bahadurgarh,"Arya Nagar, Bahadurgarh - HSPCB",22-04-2024 17:00:00,28.6701,76.9254,CO,93,102,99
India,Haryana,Bahadurgarh,"Arya Nagar, Bahadurgarh - HSPCB",22-04-2024 17:00:00,28.6701,76.9254,OZONE,34,42,37
India,Haryana,Ballabgarh,"Nathu Colony, Ballabgarh - HSPCB",22-04-2024 17:00:00,28.3419248,77.319699,NH3,1,2,2
India,Haryana,Bhiwani,"H.B. Colony, Bhiwani - HSPCB",22-04-2024 17:00:00,28.806223,76.141105,PM2.5,34,147,68
India,Haryana,Bhiwani,"H.B. Colony, Bhiwani - HSPCB",22-04-2024 17:00:00,28.806223,76.141105,SO2,NA,NA,NA
India,Haryana,Charkhi Dadri,"Mini Secretariat, Charkhi Dadri - HSPCB",22-04-2024 17:00:00,28.593883,76.270653,SO2,4,27,12
India,Haryana,Charkhi Dadri,"Mini Secretariat, Charkhi Dadri - HSPCB",22-04-2024 17:00:00,28.593883,76.270653,OZONE,12,18,15
India,Haryana,Dharuhera,"Municipal Corporation Office, Dharuhera -  HSPCB",22-04-2024 17:00:00,28.206800,76.799700,PM2.5,33,129,68
India,Haryana,Dharuhera,"Municipal Corporation Office, Dharuhera -  HSPCB",22-04-2024 17:00:00,28.206800,76.799700,NH3,9,26,19
India,Haryana,Faridabad,"New Industrial Town, Faridabad - HSPCB",22-04-2024 17:00:00,28.39072,77.30059,NH3,1,6,3
India,Haryana,Faridabad,"New Industrial Town, Faridabad - HSPCB",22-04-2024 17:00:00,28.39072,77.30059,CO,4,44,10
India,Haryana,Faridabad,"Sector 11, Faridabad - HSPCB",22-04-2024 17:00:00,28.376058,77.315741,OZONE,3,16,12
India,Haryana,Faridabad,"Sector 30, Faridabad - HSPCB",22-04-2024 17:00:00,28.4417,77.3217,PM2.5,88,100,95
India,Haryana,Faridabad,"Sector 30, Faridabad - HSPCB",22-04-2024 17:00:00,28.4417,77.3217,NH3,9,9,9
India,Haryana,Fatehabad,"Huda Sector, Fatehabad - HSPCB",22-04-2024 17:00:00,29.503664,75.467934,PM2.5,4,68,43
India,Haryana,Gurugram,"Teri Gram, Gurugram - HSPCB",22-04-2024 17:00:00,28.4275,77.1465,PM10,84,243,147
India,Haryana,Gurugram,"Teri Gram, Gurugram - HSPCB",22-04-2024 17:00:00,28.4275,77.1465,NO2,27,74,41
India,Haryana,Gurugram,"Teri Gram, Gurugram - HSPCB",22-04-2024 17:00:00,28.4275,77.1465,CO,8,45,13
India,Haryana,Gurugram,"Teri Gram, Gurugram - HSPCB",22-04-2024 17:00:00,28.4275,77.1465,OZONE,26,76,48
India,Haryana,Hisar,"Urban Estate-II, Hisar - HSPCB",22-04-2024 17:00:00,29.140560,75.744941,NO2,NA,NA,NA
India,Haryana,Hisar,"Urban Estate-II, Hisar - HSPCB",22-04-2024 17:00:00,29.140560,75.744941,OZONE,41,153,112
India,Haryana,Kaithal,"Rishi Nagar, Kaithal - HSPCB",22-04-2024 17:00:00,29.8006,76.4155,PM10,71,257,145
India,Haryana,Kaithal,"Rishi Nagar, Kaithal - HSPCB",22-04-2024 17:00:00,29.8006,76.4155,NO2,24,26,25
India,Haryana,Manesar,"Sector-2 IMT, Manesar - HSPCB",22-04-2024 17:00:00,28.360699,76.936090,SO2,4,16,9
India,Haryana,Narnaul,"Shastri Nagar, Narnaul - HSPCB",22-04-2024 17:00:00,28.060249,76.113115,PM2.5,32,88,55
India,Haryana,Narnaul,"Shastri Nagar, Narnaul - HSPCB",22-04-2024 17:00:00,28.060249,76.113115,NH3,5,27,16
India,Haryana,Palwal,"Shyam Nagar, Palwal - HSPCB",22-04-2024 17:00:00,28.1485564,77.3320667,NO2,23,24,24
India,Haryana,Panipat,"Sector-18, Panipat - HSPCB",22-04-2024 17:00:00,29.497973,76.993331,NH3,2,3,2
India,Haryana,Rohtak,"MD University, Rohtak - HSPCB",22-04-2024 17:00:00,28.52123,76.37138,NO2,45,55,51
India,Haryana,Sirsa,"F-Block, Sirsa - HSPCB",22-04-2024 17:00:00,29.536400,75.015800,PM2.5,39,94,74
India,Haryana,Sonipat,"Murthal, Sonipat - HSPCB",22-04-2024 17:00:00,29.027200,77.062100,NH3,4,10,9
India,Haryana,Yamuna Nagar,"Gobind Pura, Yamuna Nagar - HSPCB",22-04-2024 17:00:00,30.1480566,77.2893471,CO,6,66,38
India,Himachal Pradesh,Baddi,"HIMUDA Complex Phase-1, Baddi - HPPCB",22-04-2024 17:00:00,30.943887,76.801991,SO2,9,67,27
India,Jharkhand,Dhanbad,"Kalakusuma, Dhanbad - DMC",22-04-2024 17:00:00,23.811548,86.481238,OZONE,36,39,38
India,Jharkhand,Dhanbad,"Sardar Patel Nagar, Dhanbad - JSPCB",22-04-2024 17:00:00,23.80569,86.44268,PM2.5,NA,NA,NA
India,Jharkhand,Dhanbad,"Sardar Patel Nagar, Dhanbad - JSPCB",22-04-2024 17:00:00,23.80569,86.44268,SO2,NA,NA,NA
India,Jharkhand,Dhanbad,"Sardar Patel Nagar, Dhanbad - JSPCB",22-04-2024 17:00:00,23.80569,86.44268,OZONE,19,20,20
India,Karnataka,Belgaum,"Ramteerth Nagar, Belgaum - KSPCB",22-04-2024 17:00:00,15.888653,74.541751,PM2.5,17,32,22
India,Karnataka,Belgaum,"Ramteerth Nagar, Belgaum - KSPCB",22-04-2024 17:00:00,15.888653,74.541751,SO2,8,9,9
India,Karnataka,Bengaluru,"BTM Layout, Bengaluru - CPCB",22-04-2024 17:00:00,12.9135218,77.5950804,NH3,4,5,5
India,Karnataka,Bengaluru,"Bapuji Nagar, Bengaluru - KSPCB",22-04-2024 17:00:00,12.951913,77.539784,PM10,45,97,69
India,Karnataka,Bengaluru,"Bapuji Nagar, Bengaluru - KSPCB",22-04-2024 17:00:00,12.951913,77.539784,CO,29,46,41
India,Karnataka,Bengaluru,"Hebbal, Bengaluru - KSPCB",22-04-2024 17:00:00,13.029152,77.585901,SO2,17,23,20
India,Karnataka,Bengaluru,"Hombegowda Nagar, Bengaluru - KSPCB",22-04-2024 17:00:00,12.938539,77.590100,NH3,1,2,1
India,Karnataka,Bengaluru,"Jayanagar 5th Block, Bengaluru - KSPCB",22-04-2024 17:00:00,12.920984,77.584908,PM10,56,162,83
India,Karnataka,Bengaluru,"Kasturi Nagar, Bengaluru - KSPCB",22-04-2024 17:00:00,13.003872,77.664217,CO,21,27,24
India,Karnataka,Bengaluru,"RVCE-Mailasandra, Bengaluru - KSPCB",22-04-2024 17:00:00,12.921418,77.502466,CO,29,40,35
India,Karnataka,Bengaluru,"Sanegurava Halli, Bengaluru - KSPCB",22-04-2024 17:00:00,12.990328,77.5431385,SO2,2,3,3
India,Karnataka,Bengaluru,"Sanegurava Halli, Bengaluru - KSPCB",22-04-2024 17:00:00,12.990328,77.5431385,CO,6,24,18
India,Karnataka,Bengaluru,"Shivapura_Peenya, Bengaluru - KSPCB",22-04-2024 17:00:00,13.0246342,77.5080115,NH3,4,4,4
India,Karnataka,Bengaluru,"Shivapura_Peenya, Bengaluru - KSPCB",22-04-2024 17:00:00,13.0246342,77.5080115,CO,19,42,33
India,Karnataka,Bengaluru,"Silk Board, Bengaluru - KSPCB",22-04-2024 17:00:00,12.917348,77.622813,PM2.5,53,500,120
India,Karnataka,Bengaluru,"Silk Board, Bengaluru - KSPCB",22-04-2024 17:00:00,12.917348,77.622813,PM10,73,105,90
India,Karnataka,Chamarajanagar,"Urban, Chamarajanagar - KSPCB",22-04-2024 17:00:00,11.55358,76.55521,PM10,35,56,52
India,Karnataka,Chikkaballapur,"Chikkaballapur Rural, Chikkaballapur - KSPCB",22-04-2024 17:00:00,13.428828,77.731418,OZONE,25,26,26
India,Karnataka,Chikkamagaluru,"Kalyana Nagara, Chikkamagaluru - KSPCB",22-04-2024 17:00:00,13.328028,75.797056,CO,4,30,12
India,Karnataka,Davanagere,"Devaraj Urs Badavane, Davanagere - KSPCB",22-04-2024 17:00:00,14.475800,75.905200,PM2.5,35,80,57
India,Karnataka,Dharwad,"Kalabhavan, Dharwad - KSPCB",22-04-2024 17:00:00,15.459706,75.008381,PM10,37,153,99
India,Karnataka,Gadag,"Panchal Nagar, Gadag - KSPCB",22-04-2024 17:00:00,15.411456,75.638133,NH3,NA,NA,NA
India,Karnataka,Hassan,"B.Katihalli, Hassan - KSPCB",22-04-2024 17:00:00,13.008556,76.125258,PM2.5,NA,NA,NA
India,Karnataka,Hassan,"B.Katihalli, Hassan - KSPCB",22-04-2024 17:00:00,13.008556,76.125258,NH3,NA,NA,NA
India,Karnataka,Hassan,"B.Katihalli, Hassan - KSPCB",22-04-2024 17:00:00,13.008556,76.125258,SO2,NA,NA,NA
India,Karnataka,Hassan,"B.Katihalli, Hassan - KSPCB",22-04-2024 17:00:00,13.008556,76.125258,OZONE,4,4,4
India,Karnataka,Hubballi,"Deshpande Nagar, Hubballi - KSPCB",22-04-2024 17:00:00,15.351773,75.140726,NO2,NA,NA,NA
India,Karnataka,Kalaburagi,"Lal Bahadur Shastri Nagar, Kalaburagi - KSPCB",22-04-2024 17:00:00,17.321993,76.822628,PM10,10,173,60
India,Karnataka,Kalaburagi,"Mahatma Basaveswar Colony, Kalaburgi - KSPCB",22-04-2024 17:00:00,17.336318,76.847397,NO2,9,16,12
India,Karnataka,Kalaburagi,"Mahatma Basaveswar Colony, Kalaburgi - KSPCB",22-04-2024 17:00:00,17.336318,76.847397,NH3,2,4,3
India,Karnataka,Karwar,"KHB Colony, Karwar - KSPCB",22-04-2024 17:00:00,14.816666,74.141003,PM10,NA,NA,NA
India,Karnataka,Karwar,"KHB Colony, Karwar - KSPCB",22-04-2024 17:00:00,14.816666,74.141003,CO,14,15,14
India,Karnataka,Kolar,"Tamaka Ind. Area, Kolar - KSPCB",22-04-2024 17:00:00,13.1276288,78.1570122,NO2,19,47,28
India,Karnataka,Kolar,"Tamaka Ind. Area, Kolar - KSPCB",22-04-2024 17:00:00,13.1276288,78.1570122,CO,5,6,6
India,Karnataka,Madikeri,"Stuart Hill, Madikeri - KSPCB",22-04-2024 17:00:00,12.415911,75.735050,NH3,1,1,1
India,Karnataka,Mangalore,"Kadri, Mangalore - KSPCB",22-04-2024 17:00:00,12.889250,74.853000,NH3,1,2,2
India,Karnataka,Mangalore,"Kadri, Mangalore - KSPCB",22-04-2024 17:00:00,12.889250,74.853000,SO2,14,19,17
India,Karnataka,Mangalore,"Kadri, Mangalore - KSPCB",22-04-2024 17:00:00,12.889250,74.853000,CO,36,41,38
India,Karnataka,Mysuru,"Hebbal 1st Stage, Mysuru - KSPCB",22-04-2024 17:00:00,12.21041,76.37376,NO2,12,29,20
India,Karnataka,Mysuru,"Hebbal 1st Stage, Mysuru - KSPCB",22-04-2024 17:00:00,12.21041,76.37376,OZONE,3,116,66
India,Karnataka,Ramanagara,"Vijay Nagar, Ramanagara - KSPCB",22-04-2024 17:00:00,12.733409,77.298051,NH3,1,1,1
India,Karnataka,Ramanagara,"Vijay Nagar, Ramanagara - KSPCB",22-04-2024 17:00:00,12.733409,77.298051,CO,6,26,21
India,Karnataka,Ramanagara,"Vijay Nagar, Ramanagara - KSPCB",22-04-2024 17:00:00,12.733409,77.298051,OZONE,27,31,28
India,Karnataka,Shivamogga,"Vinoba Nagara, Shivamogga - KSPCB",22-04-2024 17:00:00,13.940000,75.555917,NO2,7,21,13
India,Karnataka,Shivamogga,"Vinoba Nagara, Shivamogga - KSPCB",22-04-2024 17:00:00,13.940000,75.555917,NH3,1,5,3
India,Karnataka,Shivamogga,"Vinoba Nagara, Shivamogga - KSPCB",22-04-2024 17:00:00,13.940000,75.555917,OZONE,40,98,67
India,Karnataka,Tumakuru,"Thimmalapura, Tumakuru - KSPCB",22-04-2024 17:00:00,13.377516,77.099072,PM2.5,48,288,116
India,Karnataka,Tumakuru,"Thimmalapura, Tumakuru - KSPCB",22-04-2024 17:00:00,13.377516,77.099072,NH3,NA,NA,NA
India,Karnataka,Vijayapura,"Ibrahimpur, Vijayapura - KSPCB",22-04-2024 17:00:00,16.802639,75.722694,PM2.5,26,31,30
India,Karnataka,Vijayapura,"Ibrahimpur, Vijayapura - KSPCB",22-04-2024 17:00:00,16.802639,75.722694,NH3,2,2,2
India,Karnataka,Vijayapura,"Ibrahimpur, Vijayapura - KSPCB",22-04-2024 17:00:00,16.802639,75.722694,SO2,3,18,9
India,Karnataka,Yadgir,"Collector Office, Yadgir - KSPCB",22-04-2024 17:00:00,16.7602,77.1428,NO2,6,11,7
India,Karnataka,Yadgir,"Collector Office, Yadgir - KSPCB",22-04-2024 17:00:00,16.7602,77.1428,NH3,NA,NA,NA
India,Kerala,Eloor,"Udyogamandal, Eloor - Kerala PCB",22-04-2024 17:00:00,10.073232,76.302765,PM10,33,39,36
India,Kerala,Eloor,"Udyogamandal, Eloor - Kerala PCB",22-04-2024 17:00:00,10.073232,76.302765,NH3,1,1,1
India,Kerala,Kollam,"Polayathode, Kollam - Kerala PCB",22-04-2024 17:00:00,8.8787,76.6073,NH3,1,1,1
India,Kerala,Thiruvananthapuram,"Kariavattom, Thiruvananthapuram - Kerala PCB",22-04-2024 17:00:00,8.563700,76.886500,SO2,1,14,8
India,Kerala,Thrissur,"Corporation Ground, Thrissur - Kerala PCB",22-04-2024 17:00:00,10.532400,76.215900,NH3,1,1,1
India,Madhya Pradesh,Bhopal,"Idgah Hills, Bhopal - MPPCB",22-04-2024 17:00:00,23.264759,77.381568,PM10,40,94,64
India,Madhya Pradesh,Bhopal,"Idgah Hills, Bhopal - MPPCB",22-04-2024 17:00:00,23.264759,77.381568,NH3,4,6,5
India,Madhya Pradesh,Bhopal,"Idgah Hills, Bhopal - MPPCB",22-04-2024 17:00:00,23.264759,77.381568,CO,19,56,34
India,Madhya Pradesh,Bhopal,"Paryavaran Parisar, Bhopal - MPPCB",22-04-2024 17:00:00,23.210494,77.425409,NH3,6,9,8
India,Madhya Pradesh,Bhopal,"Paryavaran Parisar, Bhopal - MPPCB",22-04-2024 17:00:00,23.210494,77.425409,CO,12,78,24
India,Madhya Pradesh,Dewas,"Bhopal Chauraha, Dewas - MPPCB",22-04-2024 17:00:00,22.9682591,76.064118,SO2,NA,NA,NA
India,Madhya Pradesh,Dewas,"Bhopal Chauraha, Dewas - MPPCB",22-04-2024 17:00:00,22.9682591,76.064118,CO,11,31,24
India,Madhya Pradesh,Gwalior,"City Center, Gwalior - MPPCB",22-04-2024 17:00:00,26.203442,78.193251,PM2.5,2,142,59
India,Madhya Pradesh,Gwalior,"City Center, Gwalior - MPPCB",22-04-2024 17:00:00,26.203442,78.193251,SO2,11,78,25
India,Madhya Pradesh,Gwalior,"Deen Dayal Nagar, Gwalior - MPPCB",22-04-2024 17:00:00,26.259242,78.216432,PM10,47,160,99
India,Madhya Pradesh,Gwalior,"Deen Dayal Nagar, Gwalior - MPPCB",22-04-2024 17:00:00,26.259242,78.216432,SO2,13,21,15
India,Madhya Pradesh,Gwalior,"Deen Dayal Nagar, Gwalior - MPPCB",22-04-2024 17:00:00,26.259242,78.216432,OZONE,23,188,187
India,Madhya Pradesh,Gwalior,"Maharaj Bada, Gwalior - MPPCB",22-04-2024 17:00:00,26.200388,78.147714,NO2,13,66,34
India,Madhya Pradesh,Gwalior,"Phool Bagh, Gwalior - Mondelez Ind. Food",22-04-2024 17:00:00,26.210536,78.171,PM10,14,50,32
India,Madhya Pradesh,Gwalior,"Phool Bagh, Gwalior - Mondelez Ind. Food",22-04-2024 17:00:00,26.210536,78.171,NO2,4,5,4
India,Madhya Pradesh,Indore,"Maguda Nagar, Indore - IMC",22-04-2024 17:00:00,22.7524,75.8872,OZONE,36,41,40
India,Madhya Pradesh,Indore,"Regional Park, Indore - IMC",22-04-2024 17:00:00,22.6780,75.8559,OZONE,18,21,19
India,Madhya Pradesh,Indore,"Residency Area, Indore - IMC",22-04-2024 17:00:00,22.7084,75.8815,PM10,36,80,58
India,Madhya Pradesh,Indore,"Residency Area, Indore - IMC",22-04-2024 17:00:00,22.7084,75.8815,SO2,24,31,27
India,Madhya Pradesh,Jabalpur,"Gupteshwar, Jabalpur - JMC",22-04-2024 17:00:00,23.142888,79.916147,SO2,5,15,8
India,Madhya Pradesh,Jabalpur,"Suhagi, Jabalpur - JMC",22-04-2024 17:00:00,23.218135,79.957770,SO2,7,63,17
India,Madhya Pradesh,Jabalpur,"Suhagi, Jabalpur - JMC",22-04-2024 17:00:00,23.218135,79.957770,OZONE,52,155,150
India,Madhya Pradesh,Katni,"Gole Bazar, Katni - MPPCB",22-04-2024 17:00:00,23.50016,80.23284,CO,29,119,54
India,Madhya Pradesh,Maihar,"Sahilara, Maihar - KJS Cements",22-04-2024 17:00:00,24.2613009,80.7231783,NO2,19,23,21
India,Madhya Pradesh,Maihar,"Sahilara, Maihar - KJS Cements",22-04-2024 17:00:00,24.2613009,80.7231783,CO,52,64,62
India,Madhya Pradesh,Mandideep,"Sector-D Industrial Area, Mandideep - MPPCB",22-04-2024 17:00:00,23.108440,77.511428,NO2,11,59,36
India,Madhya Pradesh,Pithampur,"Sector-2 Industrial Area, Pithampur - MPPCB",22-04-2024 17:00:00,22.624758,75.675238,NO2,6,19,13
India,Madhya Pradesh,Pithampur,"Sector-2 Industrial Area, Pithampur - MPPCB",22-04-2024 17:00:00,22.624758,75.675238,SO2,9,13,11
India,Madhya Pradesh,Pithampur,"Sector-2 Industrial Area, Pithampur - MPPCB",22-04-2024 17:00:00,22.624758,75.675238,OZONE,30,64,53
India,Madhya Pradesh,Sagar,"Civil Lines, Sagar - MPPCB",22-04-2024 17:00:00,23.838586,78.759431,NO2,NA,NA,NA
India,Madhya Pradesh,Sagar,"Civil Lines, Sagar - MPPCB",22-04-2024 17:00:00,23.838586,78.759431,SO2,NA,NA,NA
India,Madhya Pradesh,Sagar,"Deen Dayal Nagar, Sagar - MPPCB",22-04-2024 17:00:00,23.8640158,78.80289321,PM10,14,158,41
India,Madhya Pradesh,Sagar,"Deen Dayal Nagar, Sagar - MPPCB",22-04-2024 17:00:00,23.8640158,78.80289321,CO,32,78,64
India,Madhya Pradesh,Satna,"Bandhavgar Colony, Satna - Birla Cement",22-04-2024 17:00:00,24.58434363,80.8549414,NO2,30,47,43
India,Madhya Pradesh,Satna,"Bandhavgar Colony, Satna - Birla Cement",22-04-2024 17:00:00,24.58434363,80.8549414,SO2,3,4,4
India,Madhya Pradesh,Ujjain,"Mahakaleshwar Temple, Ujjain - MPPCB",22-04-2024 17:00:00,23.182719 ,75.768218 ,PM10,NA,NA,NA
India,Maharashtra,Ahmednagar,"Tarakpur, Ahmednagar - MPCB",22-04-2024 17:00:00,19.10122,74.73339,PM10,55,124,90
India,Maharashtra,Ahmednagar,"Tarakpur, Ahmednagar - MPCB",22-04-2024 17:00:00,19.10122,74.73339,NO2,21,55,37
India,Maharashtra,Ahmednagar,"Tarakpur, Ahmednagar - MPCB",22-04-2024 17:00:00,19.10122,74.73339,OZONE,20,134,95
India,Maharashtra,Amravati,"Shivneri Colony, Amravati - MPCB",22-04-2024 17:00:00,20.9402359,77.7895248,PM10,55,109,80
India,Maharashtra,Amravati,"Shivneri Colony, Amravati - MPCB",22-04-2024 17:00:00,20.9402359,77.7895248,CO,11,56,24
India,Maharashtra,Amravati,"Shri Shivaji Science College, Amaravati - MPCB",22-04-2024 17:00:00,20.939198,77.765701,PM2.5,36,89,56
India,Maharashtra,Amravati,"Shri Shivaji Science College, Amaravati - MPCB",22-04-2024 17:00:00,20.939198,77.765701,NO2,5,104,20
India,Maharashtra,Amravati,"Shri Shivaji Science College, Amaravati - MPCB",22-04-2024 17:00:00,20.939198,77.765701,NH3,1,3,2
India,Maharashtra,Aurangabad,"More Chowk Waluj, Aurangabad - MPCB",22-04-2024 17:00:00,19.8389439,75.244448,NO2,40,48,44
India,Maharashtra,Aurangabad,"More Chowk Waluj, Aurangabad - MPCB",22-04-2024 17:00:00,19.8389439,75.244448,NH3,9,10,9
India,Maharashtra,Aurangabad,"More Chowk Waluj, Aurangabad - MPCB",22-04-2024 17:00:00,19.8389439,75.244448,SO2,6,9,8
India,Maharashtra,Badlapur,"Katrap, Badlapur - MPCB",22-04-2024 17:00:00,19.16485,73.23409,NH3,2,3,2
India,Maharashtra,Belapur,"CBD Belapur, Belapur - MPCB",22-04-2024 17:00:00,19.0243902,73.0406721,PM2.5,49,75,63
India,Maharashtra,Bhiwandi,"Gokul Nagar, Bhiwandi - MPCB",22-04-2024 17:00:00,19.309073,73.057223,SO2,19,28,22
India,Maharashtra,Boisar,"Khaira, Boisar - MPCB",22-04-2024 17:00:00,19.786089,72.757971,PM10,57,103,85
India,Maharashtra,Boisar,"Khaira, Boisar - MPCB",22-04-2024 17:00:00,19.786089,72.757971,NH3,6,11,9
India,Maharashtra,Boisar,"Khaira, Boisar - MPCB",22-04-2024 17:00:00,19.786089,72.757971,CO,12,40,17
India,Maharashtra,Chandrapur,"MIDC Khutala, Chandrapur - MPCB",22-04-2024 17:00:00,19.9775302,79.2337086,SO2,NA,NA,NA
India,Maharashtra,Dhule,"Deopur, Dhule - MPCB",22-04-2024 17:00:00,20.918946,74.776388,PM2.5,55,93,71
India,Maharashtra,Dhule,"Deopur, Dhule - MPCB",22-04-2024 17:00:00,20.918946,74.776388,PM10,74,128,101
India,Maharashtra,Dhule,"Deopur, Dhule - MPCB",22-04-2024 17:00:00,20.918946,74.776388,SO2,10,20,14
India,Maharashtra,Dhule,"Deopur, Dhule - MPCB",22-04-2024 17:00:00,20.918946,74.776388,OZONE,18,89,71
India,Maharashtra,Jalgaon,"Prabhat Colony, Jalgaon - MPCB",22-04-2024 17:00:00,21.001264,75.565602,PM10,74,141,99
India,Maharashtra,Jalna,"Old MIDC, Jalna - MPCB",22-04-2024 17:00:00,19.854616,75.905894,NO2,1,24,10
India,Maharashtra,Kalyan,"Khadakpada, Kalyan - MPCB",22-04-2024 17:00:00,19.25292,73.142019,PM2.5,22,47,33
India,Maharashtra,Kalyan,"Khadakpada, Kalyan - MPCB",22-04-2024 17:00:00,19.25292,73.142019,NO2,28,37,33
India,Maharashtra,Kolhapur,"Shivaji University, Kolhapur - MPCB",22-04-2024 17:00:00,16.6870449,74.2505872,PM2.5,50,228,104
India,Maharashtra,Kolhapur,"Shivaji University, Kolhapur - MPCB",22-04-2024 17:00:00,16.6870449,74.2505872,SO2,3,19,6
India,Maharashtra,Kolhapur,"Sinchan Bhavan, Kolhapur - MPCB",22-04-2024 17:00:00,16.7143745,74.2426398,OZONE,19,173,155
India,Maharashtra,Latur,"Sawe Wadi, Latur - MPCB",22-04-2024 17:00:00,18.39963,76.57452,PM2.5,61,204,104
India,Maharashtra,Latur,"Sawe Wadi, Latur - MPCB",22-04-2024 17:00:00,18.39963,76.57452,PM10,54,254,91
India,Maharashtra,Latur,"Sawe Wadi, Latur - MPCB",22-04-2024 17:00:00,18.39963,76.57452,SO2,1,7,4
India,Maharashtra,Latur,"Sawe Wadi, Latur - MPCB",22-04-2024 17:00:00,18.39963,76.57452,CO,4,152,14
India,Maharashtra,Latur,"Sawe Wadi, Latur - MPCB",22-04-2024 17:00:00,18.39963,76.57452,OZONE,5,148,97
India,Maharashtra,Malegaon,"Mahesh Nagar, Malegaon - MPCB",22-04-2024 17:00:00,20.555712,74.529236,PM2.5,84,253,138
India,Maharashtra,Malegaon,"Mahesh Nagar, Malegaon - MPCB",22-04-2024 17:00:00,20.555712,74.529236,PM10,107,159,126
India,Maharashtra,Mira-Bhayandar,"Bhayandar West, Mira-Bhayandar - MPCB",22-04-2024 17:00:00,19.296481,72.840923,NO2,6,26,12
India,Maharashtra,Mumbai,"Bandra Kurla Complex, Mumbai - MPCB",22-04-2024 17:00:00,19.065931,72.862131,NH3,3,7,5
India,Maharashtra,Mumbai,"Bandra Kurla Complex, Mumbai - MPCB",22-04-2024 17:00:00,19.065931,72.862131,SO2,1,2,1
India,Maharashtra,Mumbai,"Bandra Kurla Complex, Mumbai - MPCB",22-04-2024 17:00:00,19.065931,72.862131,CO,16,26,20
India,Maharashtra,Mumbai,"Borivali East, Mumbai - MPCB",22-04-2024 17:00:00,19.2243333,72.8658113,PM10,24,94,49
India,Maharashtra,Mumbai,"Byculla, Mumbai - BMC",22-04-2024 17:00:00,18.9767,72.8380,NO2,8,11,9
India,Maharashtra,Mumbai,"Byculla, Mumbai - BMC",22-04-2024 17:00:00,18.9767,72.8380,CO,8,12,11
India,Maharashtra,Mumbai,"Byculla, Mumbai - BMC",22-04-2024 17:00:00,18.9767,72.8380,OZONE,52,86,68
India,Maharashtra,Mumbai,"Chakala-Andheri East, Mumbai - IITM",22-04-2024 17:00:00,19.11074,72.86084,NH3,6,21,13
India,Maharashtra,Mumbai,"Chembur, Mumbai - MPCB",22-04-2024 17:00:00,19.0364585,72.8954371,PM2.5,30,54,41
India,Maharashtra,Mumbai,"Chembur, Mumbai - MPCB",22-04-2024 17:00:00,19.0364585,72.8954371,CO,17,33,23
India,Maharashtra,Mumbai,"Chhatrapati Shivaji Intl. Airport (T2), Mumbai - MPCB",22-04-2024 17:00:00,19.10078,72.87462,PM2.5,22,53,39
India,Maharashtra,Mumbai,"Chhatrapati Shivaji Intl. Airport (T2), Mumbai - MPCB",22-04-2024 17:00:00,19.10078,72.87462,NH3,1,5,1
India,Maharashtra,Mumbai,"Ghatkopar, Mumbai - BMC",22-04-2024 17:00:00,19.083694,72.920967,PM10,23,66,47
India,Maharashtra,Mumbai,"Ghatkopar, Mumbai - BMC",22-04-2024 17:00:00,19.083694,72.920967,OZONE,12,49,33
India,Maharashtra,Mumbai,"Kandivali East, Mumbai - MPCB",22-04-2024 17:00:00,19.205800,72.868200,NH3,4,16,6
India,Maharashtra,Mumbai,"Kandivali West, Mumbai - BMC",22-04-2024 17:00:00,19.215859,72.831718,PM2.5,16,30,24
India,Maharashtra,Mumbai,"Kandivali West, Mumbai - BMC",22-04-2024 17:00:00,19.215859,72.831718,NO2,8,33,15
India,Maharashtra,Mumbai,"Kandivali West, Mumbai - BMC",22-04-2024 17:00:00,19.215859,72.831718,NH3,1,3,2
India,Maharashtra,Mumbai,"Kandivali West, Mumbai - BMC",22-04-2024 17:00:00,19.215859,72.831718,SO2,1,3,2
India,Maharashtra,Mumbai,"Kherwadi_Bandra East, Mumbai - MPCB",22-04-2024 17:00:00,19.0632143,72.8456324,NH3,5,8,6
India,Maharashtra,Mumbai,"Kherwadi_Bandra East, Mumbai - MPCB",22-04-2024 17:00:00,19.0632143,72.8456324,CO,8,16,10
India,Maharashtra,Mumbai,"Kurla, Mumbai - MPCB",22-04-2024 17:00:00,19.0863,72.8888,CO,6,22,8
India,Maharashtra,Mumbai,"Mazgaon, Mumbai - IITM",22-04-2024 17:00:00,18.96702,72.84214,PM10,NA,NA,NA
India,Maharashtra,Mumbai,"Mazgaon, Mumbai - IITM",22-04-2024 17:00:00,18.96702,72.84214,OZONE,38,81,59
India,Maharashtra,Mumbai,"Mindspace-Malad West, Mumbai - MPCB",22-04-2024 17:00:00,19.1878657,72.8304069,PM2.5,18,53,34
India,Maharashtra,Mumbai,"Mindspace-Malad West, Mumbai - MPCB",22-04-2024 17:00:00,19.1878657,72.8304069,NO2,12,61,27
India,Maharashtra,Mumbai,"Mindspace-Malad West, Mumbai - MPCB",22-04-2024 17:00:00,19.1878657,72.8304069,NH3,7,9,9
India,Maharashtra,Mumbai,"Mulund West, Mumbai - MPCB",22-04-2024 17:00:00,19.1750,72.9419,PM10,29,87,55
India,Maharashtra,Mumbai,"Powai, Mumbai - MPCB",22-04-2024 17:00:00,19.137500,72.915056,PM10,43,105,61
India,Maharashtra,Mumbai,"Powai, Mumbai - MPCB",22-04-2024 17:00:00,19.137500,72.915056,NH3,1,2,1
India,Maharashtra,Mumbai,"Powai, Mumbai - MPCB",22-04-2024 17:00:00,19.137500,72.915056,OZONE,43,83,65
India,Maharashtra,Mumbai,"Sewri, Mumbai - BMC",22-04-2024 17:00:00,19.000084,72.856730,NO2,19,61,34
India,Maharashtra,Mumbai,"Sewri, Mumbai - BMC",22-04-2024 17:00:00,19.000084,72.856730,NH3,1,5,4
India,Maharashtra,Mumbai,"Sewri, Mumbai - BMC",22-04-2024 17:00:00,19.000084,72.856730,SO2,2,5,3
India,Maharashtra,Mumbai,"Vasai West, Mumbai - MPCB",22-04-2024 17:00:00,19.383200,72.820400,NH3,4,4,4
India,Maharashtra,Nagpur,"Opp GPO Civil Lines, Nagpur - MPCB",22-04-2024 17:00:00,21.152875,79.0517531,NH3,3,7,5
India,Maharashtra,Nagpur,"Opp GPO Civil Lines, Nagpur - MPCB",22-04-2024 17:00:00,21.152875,79.0517531,CO,14,105,26
India,Maharashtra,Nanded,"Sneh Nagar, Nanded - MPCB",22-04-2024 17:00:00,19.173852,77.296291,NH3,1,2,1
India,Maharashtra,Nashik,"Gangapur Road, Nashik - MPCB",22-04-2024 17:00:00,20.0073285,73.7762427,PM10,41,98,62
India,Maharashtra,Nashik,"Gangapur Road, Nashik - MPCB",22-04-2024 17:00:00,20.0073285,73.7762427,SO2,2,9,5
India,Maharashtra,Nashik,"Hirawadi, Nashik - MPCB",22-04-2024 17:00:00,20.021503,73.813844,SO2,4,16,9
India,Maharashtra,Nashik,"Hirawadi, Nashik - MPCB",22-04-2024 17:00:00,20.021503,73.813844,CO,7,24,12
India,Maharashtra,Nashik,"MIDC Ambad, Nashik - MPCB",22-04-2024 17:00:00,19.950220,73.731480,PM10,33,65,47
India,Maharashtra,Nashik,"MIDC Ambad, Nashik - MPCB",22-04-2024 17:00:00,19.950220,73.731480,OZONE,11,85,49
India,Maharashtra,Nashik,"Pandav Nagari, Nashik - MPCB",22-04-2024 17:00:00,19.9591346,73.7788008,OZONE,13,85,60
India,Maharashtra,Navi Mumbai,"Kopripada-Vashi, Navi Mumbai - MPCB",22-04-2024 17:00:00,19.090337,73.014232,NH3,4,16,6
India,Maharashtra,Navi Mumbai,"Kopripada-Vashi, Navi Mumbai - MPCB",22-04-2024 17:00:00,19.090337,73.014232,SO2,5,12,8
India,Maharashtra,Navi Mumbai,"Kopripada-Vashi, Navi Mumbai - MPCB",22-04-2024 17:00:00,19.090337,73.014232,OZONE,115,151,138
India,Maharashtra,Navi Mumbai,"Mahape, Navi Mumbai - MPCB",22-04-2024 17:00:00,19.1135051,73.008978,NO2,84,91,86
India,Maharashtra,Navi Mumbai,"Sanpada, Navi Mumbai - MPCB",22-04-2024 17:00:00,19.0575752,73.0151367,NO2,10,40,21
India,Maharashtra,Navi Mumbai,"Sector-19A Nerul, Navi Mumbai - IITM",22-04-2024 17:00:00,19.044,73.0325,NH3,4,9,7
India,Maharashtra,Navi Mumbai,"Sector-19A Nerul, Navi Mumbai - IITM",22-04-2024 17:00:00,19.044,73.0325,OZONE,10,126,88
India,Maharashtra,Navi Mumbai,"Tondare-Taloja, Navi Mumbai - MPCB",22-04-2024 17:00:00,19.0630,73.1209,PM10,61,108,81
India,Maharashtra,Pimpri-Chinchwad,"Gavalinagar, Pimpri Chinchwad - MPCB",22-04-2024 17:00:00,18.63673,73.82487,SO2,5,11,8
India,Maharashtra,Pimpri-Chinchwad,"Gavalinagar, Pimpri Chinchwad - MPCB",22-04-2024 17:00:00,18.63673,73.82487,CO,13,50,24
India,Maharashtra,Pimpri-Chinchwad,"Thergaon, Pimpri Chinchwad - MPCB",22-04-2024 17:00:00,18.616318,73.765797,NH3,NA,NA,NA
India,Maharashtra,Pune,"Bhosari, Pune - IITM",22-04-2024 17:00:00,18.640051,73.848956,PM2.5,NA,NA,NA
India,Maharashtra,Pune,"Karve Road, Pune - MPCB",22-04-2024 17:00:00,18.5011743,73.8165527,NO2,5,19,11
India,Maharashtra,Pune,"Karve Road, Pune - MPCB",22-04-2024 17:00:00,18.5011743,73.8165527,SO2,8,29,17
India,Maharashtra,Pune,"Karve Road, Pune - MPCB",22-04-2024 17:00:00,18.5011743,73.8165527,OZONE,43,196,102
India,Maharashtra,Pune,"Katraj Dairy, Pune - MPCB",22-04-2024 17:00:00,18.454450,73.854155,PM10,NA,NA,NA
India,Maharashtra,Pune,"Mhada Colony, Pune - IITM",22-04-2024 17:00:00,18.573040,73.927715,NO2,11,42,24
India,Maharashtra,Pune,"Revenue Colony-Shivajinagar, Pune - IITM",22-04-2024 17:00:00,18.530085,73.849598,PM10,15,53,28
India,Maharashtra,Pune,"Revenue Colony-Shivajinagar, Pune - IITM",22-04-2024 17:00:00,18.530085,73.849598,SO2,62,101,83
India,Maharashtra,Pune,"Transport Nagar-Nigdi, Pune - IITM",22-04-2024 17:00:00,18.664282,73.763966,PM10,43,90,64
India,Maharashtra,Sangli,"Vijay Nagar, Sangli - MPCB",22-04-2024 17:00:00, 16.5038,74.3623,SO2,4,15,8
India,Maharashtra,Solapur,"Dnyaneshwar Nagar, Solapur - MPCB",22-04-2024 17:00:00,17.6336264,75.9132495,SO2,2,5,3
India,Maharashtra,Thane,"Kasarvadavali, Thane - MPCB",22-04-2024 17:00:00,19.26777,72.97182,PM10,44,101,68
India,Maharashtra,Thane,"Pimpleshwar Mandir, Thane - MPCB",22-04-2024 17:00:00,19.192056,72.9585188,OZONE,15,57,41
India,Maharashtra,Thane,"Upvan Fort, Thane - MPCB",22-04-2024 17:00:00,19.222279,72.957979,NO2,7,29,14
India,Maharashtra,Virar,"Bolinj, Virar - MPCB",22-04-2024 17:00:00,19.4458210,72.7988231,NO2,6,18,9
India,Manipur,Imphal,"DM College of Science, Imphal - Manipur PCB",22-04-2024 17:00:00,24.8207389,93.9423085,PM10,10,48,25
India,Manipur,Imphal,"DM College of Science, Imphal - Manipur PCB",22-04-2024 17:00:00,24.8207389,93.9423085,SO2,95,101,98
India,Meghalaya,Shillong,"Lumpyngngad, Shillong - Meghalaya PCB",22-04-2024 17:00:00,25.5586,91.8985,PM2.5,47,211,65
India,Meghalaya,Shillong,"Lumpyngngad, Shillong - Meghalaya PCB",22-04-2024 17:00:00,25.5586,91.8985,PM10,NA,NA,NA
India,Meghalaya,Shillong,"Lumpyngngad, Shillong - Meghalaya PCB",22-04-2024 17:00:00,25.5586,91.8985,SO2,38,41,39
India,Mizoram,Aizawl,"Sikulpuikawn, Aizawl - Mizoram PCB",22-04-2024 17:00:00,23.7176342,92.7192841,PM2.5,7,40,23
India,Mizoram,Aizawl,"Sikulpuikawn, Aizawl - Mizoram PCB",22-04-2024 17:00:00,23.7176342,92.7192841,NO2,1,6,1
India,Nagaland,Kohima,"PWD Juction, Kohima - NPCB",22-04-2024 17:00:00,25.6635413,94.0989878,NO2,3,4,3
India,Odisha,Barbil,"Forest Office, Barbil - OSPCB",22-04-2024 17:00:00,22.1166054,85.3945546,PM10,105,346,187
India,Odisha,Barbil,"Forest Office, Barbil - OSPCB",22-04-2024 17:00:00,22.1166054,85.3945546,SO2,9,38,21
India,Odisha,Baripada,"Meher Colony, Baripada - OSPCB",22-04-2024 17:00:00,21.941841,86.728318,SO2,4,8,5
India,Odisha,Bhubaneswar,"Lingraj Mandir, Bhubaneswar - OSPCB",22-04-2024 17:00:00,20.240790,85.836784,OZONE,35,302,302
India,Odisha,Bhubaneswar,"Patia, Bhubaneswar - OSPCB",22-04-2024 17:00:00,20.34652,85.81630,PM2.5,17,240,97
India,Odisha,Brajrajnagar,"GM Office, Brajrajnagar - OSPCB",22-04-2024 17:00:00,21.8004996,83.8396977,PM2.5,20,198,66
India,Odisha,Brajrajnagar,"GM Office, Brajrajnagar - OSPCB",22-04-2024 17:00:00,21.8004996,83.8396977,NH3,1,2,1
India,Odisha,Brajrajnagar,"GM Office, Brajrajnagar - OSPCB",22-04-2024 17:00:00,21.8004996,83.8396977,OZONE,19,20,19
India,Odisha,Byasanagar,"Ferro Chrome Colony, Byasanagar - OSPCB",22-04-2024 17:00:00,20.94185,86.11510,PM2.5,53,223,105
India,Odisha,Byasanagar,"Ferro Chrome Colony, Byasanagar - OSPCB",22-04-2024 17:00:00,20.94185,86.11510,NO2,11,35,16
India,Odisha,Byasanagar,"Ferro Chrome Colony, Byasanagar - OSPCB",22-04-2024 17:00:00,20.94185,86.11510,NH3,2,5,3
India,Odisha,Cuttack,"CDA Area, Cuttack - OSPCB",22-04-2024 17:00:00,20.48891     ,85.84768     ,PM2.5,27,253,102
India,Odisha,Cuttack,"CDA Area, Cuttack - OSPCB",22-04-2024 17:00:00,20.48891     ,85.84768     ,SO2,1,74,14
India,Odisha,Keonjhar,"Jagamohanpur, Keonjhar - OSPCB",22-04-2024 17:00:00,21.643900,85.599355,SO2,3,10,5
India,Odisha,Rairangpur,"Divisional Forest Office, Rairangpur - OSPCB",22-04-2024 17:00:00,22.265816,86.174829,CO,4,45,27
India,Odisha,Rourkela,"Fertilizer Township, Rourkela - OSPCB",22-04-2024 17:00:00,22.18972222,84.86277778,CO,10,26,19
India,Odisha,Rourkela,"Raghunathpali, Rourkela - OSPCB",22-04-2024 17:00:00,22.220833,84.809444,OZONE,17,100,54
India,Odisha,Rourkela,"Sector-2, Rourkela - OSPCB",22-04-2024 17:00:00,22.24500000,84.88111111,PM10,NA,NA,NA
India,Odisha,Talcher,"Talcher Coalfields,Talcher - OSPCB",22-04-2024 17:00:00,20.9360711,85.1707021,PM10,107,380,158
India,Odisha,Talcher,"Talcher Coalfields,Talcher - OSPCB",22-04-2024 17:00:00,20.9360711,85.1707021,NO2,18,23,20
India,Odisha,Talcher,"Talcher Coalfields,Talcher - OSPCB",22-04-2024 17:00:00,20.9360711,85.1707021,SO2,91,108,101
India,Odisha,Talcher,"Talcher Coalfields,Talcher - OSPCB",22-04-2024 17:00:00,20.9360711,85.1707021,CO,22,104,57
India,Odisha,Tensa,"Barsua Iron Ore Mines, Tensa - OSPCB",22-04-2024 17:00:00,21.869985,85.167016,PM2.5,36,71,55
India,Punjab,Amritsar,"Golden Temple, Amritsar - PPCB",22-04-2024 17:00:00,31.620000,74.876512,NH3,5,7,6
India,Punjab,Bathinda,"Hardev Nagar, Bathinda - PPCB",22-04-2024 17:00:00,30.233011,74.907758,PM10,NA,NA,NA
India,Punjab,Bathinda,"Hardev Nagar, Bathinda - PPCB",22-04-2024 17:00:00,30.233011,74.907758,CO,1,36,11
India,Punjab,Jalandhar,"Civil Line, Jalandhar - PPCB",22-04-2024 17:00:00,31.321907,75.578914,OZONE,5,53,41
India,Punjab,Ludhiana,"Punjab Agricultural University, Ludhiana - PPCB",22-04-2024 17:00:00,30.9028,75.8086,NH3,3,5,4
India,Punjab,Mandi Gobindgarh,"RIMT University, Mandi Gobindgarh - PPCB",22-04-2024 17:00:00,30.649961,76.331442,NH3,6,6,6
India,Punjab,Patiala,"Model Town, Patiala - PPCB",22-04-2024 17:00:00,30.349388,76.366642,NH3,6,7,6
India,Punjab,Rupnagar,"Ratanpura, Rupnagar - Ambuja Cements",22-04-2024 17:00:00,31.0325454,76.5623046,PM10,18,71,48
India,Punjab,Rupnagar,"Ratanpura, Rupnagar - Ambuja Cements",22-04-2024 17:00:00,31.0325454,76.5623046,SO2,9,12,11
India,Rajasthan,Alwar,"Moti Doongri, Alwar - RSPCB",22-04-2024 17:00:00,27.554793,76.611536,CO,27,100,35
India,Rajasthan,Baran,"Bamboliya, Baran - RSPCB",22-04-2024 17:00:00,25.106006,76.469948,PM10,60,116,88
India,Rajasthan,Baran,"Bamboliya, Baran - RSPCB",22-04-2024 17:00:00,25.106006,76.469948,CO,10,36,18
India,Rajasthan,Barmer,"Railway Colony, Barmer - RSPCB",22-04-2024 17:00:00,25.747299,71.393989,PM2.5,12,33,22
India,Rajasthan,Barmer,"Railway Colony, Barmer - RSPCB",22-04-2024 17:00:00,25.747299,71.393989,NO2,7,26,13
India,Rajasthan,Barmer,"Railway Colony, Barmer - RSPCB",22-04-2024 17:00:00,25.747299,71.393989,NH3,9,18,12
India,Rajasthan,Bharatpur,"Krishna Nagar, Bharatpur - RSPCB",22-04-2024 17:00:00,27.215415,77.50873,NH3,1,3,1
India,Rajasthan,Bhilwara,"Pratap Nagar, Bhilwara - RSPCB",22-04-2024 17:00:00,25.339605,74.618883,PM2.5,18,46,30
India,Rajasthan,Bhilwara,"Pratap Nagar, Bhilwara - RSPCB",22-04-2024 17:00:00,25.339605,74.618883,PM10,20,50,34
India,Rajasthan,Bhilwara,"Pratap Nagar, Bhilwara - RSPCB",22-04-2024 17:00:00,25.339605,74.618883,NH3,2,3,2
India,Rajasthan,Bhilwara,"Pratap Nagar, Bhilwara - RSPCB",22-04-2024 17:00:00,25.339605,74.618883,CO,16,29,18
India,Rajasthan,Bhiwadi,"Vasundhara Nagar_UIT, Bhiwadi - RSPCB",22-04-2024 17:00:00,28.207266,76.829265,PM2.5,NA,NA,NA
India,Rajasthan,Bhiwadi,"Vasundhara Nagar_UIT, Bhiwadi - RSPCB",22-04-2024 17:00:00,28.207266,76.829265,PM10,NA,NA,NA
India,Rajasthan,Bhiwadi,"Vasundhara Nagar_UIT, Bhiwadi - RSPCB",22-04-2024 17:00:00,28.207266,76.829265,OZONE,96,131,114
India,Rajasthan,Bikaner,"MM Ground, Bikaner - RSPCB",22-04-2024 17:00:00,28.018792,73.292658,CO,8,102,26
India,Rajasthan,Bundi,"New Colony, Bundi - RSPCB",22-04-2024 17:00:00,25.435774,75.644272,PM10,36,270,110
India,Rajasthan,Chittorgarh,"Shastri Nagar, Chittorgarh - RSPCB",22-04-2024 17:00:00,24.892047,74.623527,PM10,56,133,85
India,Rajasthan,Chittorgarh,"Shastri Nagar, Chittorgarh - RSPCB",22-04-2024 17:00:00,24.892047,74.623527,NO2,15,64,28
India,Rajasthan,Churu,"Subash Chowk, Churu - RSPCB",22-04-2024 17:00:00,28.296139,74.961696,PM2.5,14,38,25
India,Rajasthan,Churu,"Subash Chowk, Churu - RSPCB",22-04-2024 17:00:00,28.296139,74.961696,SO2,4,10,6
India,Rajasthan,Dausa,"Khatikan Mohalla, Dausa - RSPCB",22-04-2024 17:00:00,26.895552,76.334753,PM10,81,149,118
India,Rajasthan,Dausa,"Khatikan Mohalla, Dausa - RSPCB",22-04-2024 17:00:00,26.895552,76.334753,NO2,25,103,57
India,Rajasthan,Dungarpur,"Bhoiwada, Dungarpur - RSPCB",22-04-2024 17:00:00,23.837789,73.714926,NH3,6,6,6
India,Rajasthan,Dungarpur,"Bhoiwada, Dungarpur - RSPCB",22-04-2024 17:00:00,23.837789,73.714926,SO2,8,13,10
India,Rajasthan,Hanumangarh,"Housing Board, Hanumangarh - RSPCB",22-04-2024 17:00:00,29.610750,74.283608,PM10,76,445,184
India,Rajasthan,Hanumangarh,"Housing Board, Hanumangarh - RSPCB",22-04-2024 17:00:00,29.610750,74.283608,CO,5,106,52
India,Rajasthan,Jaipur,"Police Commissionerate, Jaipur - RSPCB",22-04-2024 17:00:00,26.9164092,75.7994901,PM2.5,31,79,58
India,Rajasthan,Jaipur,"Police Commissionerate, Jaipur - RSPCB",22-04-2024 17:00:00,26.9164092,75.7994901,NO2,15,93,37
India,Rajasthan,Jaipur,"RIICO Sitapura, Jaipur - RSPCB",22-04-2024 17:00:00,26.786682,75.827928,SO2,12,20,14
India,Rajasthan,Jaipur,"RIICO Sitapura, Jaipur - RSPCB",22-04-2024 17:00:00,26.786682,75.827928,CO,15,42,23
India,Rajasthan,Jaisalmer,"Sadar Bazar, Jaisalmer - RSPCB",22-04-2024 17:00:00,26.912329,70.909168,PM2.5,10,92,32
India,Rajasthan,Jaisalmer,"Sadar Bazar, Jaisalmer - RSPCB",22-04-2024 17:00:00,26.912329,70.909168,SO2,4,26,6
India,Rajasthan,Jaisalmer,"Sadar Bazar, Jaisalmer - RSPCB",22-04-2024 17:00:00,26.912329,70.909168,OZONE,31,136,124
India,Rajasthan,Jhalawar,"Rajlaxmi Nagar, Jhalawar - RSPCB",22-04-2024 17:00:00,24.588397,76.172782,PM2.5,2,69,30
India,Rajasthan,Jhalawar,"Rajlaxmi Nagar, Jhalawar - RSPCB",22-04-2024 17:00:00,24.588397,76.172782,NH3,2,4,3
India,Rajasthan,Jhalawar,"Rajlaxmi Nagar, Jhalawar - RSPCB",22-04-2024 17:00:00,24.588397,76.172782,SO2,1,12,4
India,Rajasthan,Jhunjhunu,"Indra Nagar, Jhunjhunu - RSPCB",22-04-2024 17:00:00,28.108988,75.386577,PM2.5,11,207,42
India,Rajasthan,Jodhpur,"Digari Kalan, Jodhpur - RSPCB",22-04-2024 17:00:00,26.295810,73.082283,PM2.5,6,45,23
India,Rajasthan,Jodhpur,"Digari Kalan, Jodhpur - RSPCB",22-04-2024 17:00:00,26.295810,73.082283,PM10,50,157,86
India,Rajasthan,Jodhpur,"Jhalamand, Jodhpur - RSPCB",22-04-2024 17:00:00,26.215415,73.070156,PM2.5,8,60,23
India,Rajasthan,Jodhpur,"Mandor, Jodhpur - RSPCB",22-04-2024 17:00:00,26.358805,73.047444,NH3,5,8,7
India,Rajasthan,Karauli,"Satyawati Vihar, Karauli - RSPCB",22-04-2024 17:00:00,26.506177,77.025989,NO2,8,57,26
India,Rajasthan,Kota,"Dhanmandi, Kota - RSPCB",22-04-2024 17:00:00,25.164090,75.858137,OZONE,2,94,75
India,Rajasthan,Kota,"Shrinath Puram, Kota - RSPCB",22-04-2024 17:00:00,25.14389,75.821256,PM10,56,133,83
India,Rajasthan,Kota,"Shrinath Puram, Kota - RSPCB",22-04-2024 17:00:00,25.14389,75.821256,SO2,8,16,11
India,Rajasthan,Pali,"Indira Colony Vistar, Pali - RSPCB",22-04-2024 17:00:00,25.771061, 73.340227,PM10,96,170,132
India,Rajasthan,Pali,"Indira Colony Vistar, Pali - RSPCB",22-04-2024 17:00:00,25.771061, 73.340227,NO2,14,36,23
India,Rajasthan,Pali,"Indira Colony Vistar, Pali - RSPCB",22-04-2024 17:00:00,25.771061, 73.340227,OZONE,34,137,74
India,Rajasthan,Sawai Madhopur,"Sahu Nagar, Sawai Madhopur - RSPCB",22-04-2024 17:00:00,26.031443,76.359327,PM10,57,404,120
India,Rajasthan,Tonk,"Shastri Nagar, Tonk - RSPCB",22-04-2024 17:00:00,26.159933,75.780517,NO2,9,83,27
India,Rajasthan,Tonk,"Shastri Nagar, Tonk - RSPCB",22-04-2024 17:00:00,26.159933,75.780517,OZONE,26,97,88
India,Rajasthan,Udaipur,"Ashok Nagar, Udaipur - RSPCB",22-04-2024 17:00:00,24.5886166,73.6321397,NH3,7,12,9
India,Rajasthan,Udaipur,"Ashok Nagar, Udaipur - RSPCB",22-04-2024 17:00:00,24.5886166,73.6321397,OZONE,11,58,50
India,Sikkim,Gangtok,"Zero Point GICI, Gangtok - SSPCB",22-04-2024 17:00:00,27.338530,88.614099,PM2.5,23,31,26
India,Sikkim,Gangtok,"Zero Point GICI, Gangtok - SSPCB",22-04-2024 17:00:00,27.338530,88.614099,PM10,45,81,57
India,Sikkim,Gangtok,"Zero Point GICI, Gangtok - SSPCB",22-04-2024 17:00:00,27.338530,88.614099,OZONE,30,94,76
India,TamilNadu,Chengalpattu,"Crescent University, Chengalpattu - TNPCB",22-04-2024 17:00:00,12.8777316,80.0834807,PM2.5,NA,NA,NA
India,TamilNadu,Chengalpattu,"Crescent University, Chengalpattu - TNPCB",22-04-2024 17:00:00,12.8777316,80.0834807,PM10,NA,NA,NA
India,TamilNadu,Chengalpattu,"Crescent University, Chengalpattu - TNPCB",22-04-2024 17:00:00,12.8777316,80.0834807,CO,28,29,28
India,TamilNadu,Chennai,"Alandur Bus Depot, Chennai - CPCB",22-04-2024 17:00:00,12.9099161,80.1076538,PM10,30,60,43
India,TamilNadu,Chennai,"Kodungaiyur, Chennai - TNPCB",22-04-2024 17:00:00,13.1278,80.2642,NH3,NA,NA,NA
India,TamilNadu,Chennai,"Manali, Chennai - CPCB",22-04-2024 17:00:00,13.164544,80.26285,NH3,4,4,4
India,TamilNadu,Chennai,"Royapuram, Chennai - TNPCB",22-04-2024 17:00:00,13.1036,80.2909,CO,16,30,23
India,TamilNadu,Chennai,"Velachery Res. Area, Chennai - CPCB",22-04-2024 17:00:00,13.0052189,80.2398125,PM2.5,16,42,26
India,TamilNadu,Chennai,"Velachery Res. Area, Chennai - CPCB",22-04-2024 17:00:00,13.0052189,80.2398125,PM10,16,42,26
India,TamilNadu,Cuddalore,"Kudikadu, Cuddalore - TNPCB",22-04-2024 17:00:00,11.6829898,79.7532099,NH3,3,4,4
India,TamilNadu,Cuddalore,"Kudikadu, Cuddalore - TNPCB",22-04-2024 17:00:00,11.6829898,79.7532099,SO2,8,8,8
India,TamilNadu,Cuddalore,"Semmandalam, Cuddalore - TNPCB",22-04-2024 17:00:00,11.7637683,79.7499835,PM2.5,NA,NA,NA
India,TamilNadu,Cuddalore,"Semmandalam, Cuddalore - TNPCB",22-04-2024 17:00:00,11.7637683,79.7499835,NO2,NA,NA,NA
India,TamilNadu,Gummidipoondi,"Anthoni Pillai Nagar, Gummidipoondi - TNPCB",22-04-2024 17:00:00,13.4127,80.1081,PM2.5,12,95,37
India,TamilNadu,Gummidipoondi,"Anthoni Pillai Nagar, Gummidipoondi - TNPCB",22-04-2024 17:00:00,13.4127,80.1081,PM10,32,96,60
India,TamilNadu,Kanchipuram,"Kilambi, Kanchipuram - TNPCB",22-04-2024 17:00:00,12.864618,79.659968,PM2.5,NA,NA,NA
India,TamilNadu,Kanchipuram,"Kilambi, Kanchipuram - TNPCB",22-04-2024 17:00:00,12.864618,79.659968,NH3,NA,NA,NA
India,TamilNadu,Kanchipuram,"Kilambi, Kanchipuram - TNPCB",22-04-2024 17:00:00,12.864618,79.659968,SO2,NA,NA,NA
India,TamilNadu,Ooty,"Bombay Castel, Ooty - TNPCB",22-04-2024 17:00:00,11.4068288,76.7138973,SO2,13,13,13
India,TamilNadu,Ooty,"Bombay Castel, Ooty - TNPCB",22-04-2024 17:00:00,11.4068288,76.7138973,OZONE,5,6,5
India,TamilNadu,Palkalaiperur,"Bharathidasan University, Palkalaiperur - TNPCB",22-04-2024 17:00:00,10.681158,78.741746,PM2.5,NA,NA,NA
India,TamilNadu,Palkalaiperur,"Bharathidasan University, Palkalaiperur - TNPCB",22-04-2024 17:00:00,10.681158,78.741746,SO2,NA,NA,NA
India,TamilNadu,Salem,"Sona College of Technology, Salem - TNPCB",22-04-2024 17:00:00,11.679111,78.125052,PM2.5,NA,NA,NA
India,TamilNadu,Salem,"Sona College of Technology, Salem - TNPCB",22-04-2024 17:00:00,11.679111,78.125052,SO2,NA,NA,NA
India,TamilNadu,Salem,"Sona College of Technology, Salem - TNPCB",22-04-2024 17:00:00,11.679111,78.125052,OZONE,3,3,3
India,TamilNadu,Thoothukudi,"Meelavittan, Thoothukudi - TNPCB",22-04-2024 17:00:00,8.816428 ,78.099039,PM10,52,157,86
India,TamilNadu,Thoothukudi,"Meelavittan, Thoothukudi - TNPCB",22-04-2024 17:00:00,8.816428 ,78.099039,SO2,NA,NA,NA
India,TamilNadu,Tirupur,"Kumaran College, Tirupur - TNPCB",22-04-2024 17:00:00,11.0973603,77.3228673,OZONE,6,7,7
India,TamilNadu,Vellore,"Vasanthapuram, Vellore - TNPCB",22-04-2024 17:00:00,12.909494,79.131861,NH3,NA,NA,NA
India,TamilNadu,Virudhunagar,"Collectorate Office, Virudhunagar - TNPCB",22-04-2024 17:00:00,9.559382,77.948828,PM10,NA,NA,NA
India,TamilNadu,Virudhunagar,"Collectorate Office, Virudhunagar - TNPCB",22-04-2024 17:00:00,9.559382,77.948828,CO,28,28,28
India,TamilNadu,Virudhunagar,"Collectorate Office, Virudhunagar - TNPCB",22-04-2024 17:00:00,9.559382,77.948828,OZONE,7,7,7
India,Telangana,Hyderabad,"Bollaram Industrial Area, Hyderabad - TSPCB",22-04-2024 17:00:00,17.540891,78.358528,PM10,28,155,90
India,Telangana,Hyderabad,"Bollaram Industrial Area, Hyderabad - TSPCB",22-04-2024 17:00:00,17.540891,78.358528,NH3,2,8,4
India,Telangana,Hyderabad,"Bollaram Industrial Area, Hyderabad - TSPCB",22-04-2024 17:00:00,17.540891,78.358528,SO2,11,52,27
India,Telangana,Hyderabad,"Central University, Hyderabad - TSPCB",22-04-2024 17:00:00,17.460103,78.334361,SO2,5,11,8
India,Telangana,Hyderabad,"Central University, Hyderabad - TSPCB",22-04-2024 17:00:00,17.460103,78.334361,CO,16,107,19
India,Telangana,Hyderabad,"ECIL Kapra, Hyderabad - TSPCB",22-04-2024 17:00:00,17.470431,78.566959,PM2.5,46,73,58
India,Telangana,Hyderabad,"ECIL Kapra, Hyderabad - TSPCB",22-04-2024 17:00:00,17.470431,78.566959,NO2,10,12,12
India,Telangana,Hyderabad,"ICRISAT Patancheru, Hyderabad - TSPCB",22-04-2024 17:00:00,17.518400,78.278777,SO2,10,34,20
India,Telangana,Hyderabad,"IITH Kandi, Hyderabad - TSPCB",22-04-2024 17:00:00,17.585705,78.126199,PM2.5,22,49,33
India,Telangana,Hyderabad,"IITH Kandi, Hyderabad - TSPCB",22-04-2024 17:00:00,17.585705,78.126199,NO2,5,8,6
India,Telangana,Hyderabad,"IITH Kandi, Hyderabad - TSPCB",22-04-2024 17:00:00,17.585705,78.126199,NH3,4,6,6
India,Telangana,Hyderabad,"Kokapet, Hyderabad - TSPCB",22-04-2024 17:00:00,17.393559,78.339194,NH3,2,2,2
India,Telangana,Hyderabad,"Kokapet, Hyderabad - TSPCB",22-04-2024 17:00:00,17.393559,78.339194,SO2,8,9,8
India,Telangana,Hyderabad,"Kompally Municipal Office, Hyderabad - TSPCB",22-04-2024 17:00:00,17.544899,78.486949,PM10,NA,NA,NA
India,Telangana,Hyderabad,"Kompally Municipal Office, Hyderabad - TSPCB",22-04-2024 17:00:00,17.544899,78.486949,CO,24,40,31
India,Telangana,Hyderabad,"Nacharam_TSIIC IALA, Hyderabad - TSPCB",22-04-2024 17:00:00,17.429398,78.569354,PM2.5,60,74,63
India,Telangana,Hyderabad,"Nacharam_TSIIC IALA, Hyderabad - TSPCB",22-04-2024 17:00:00,17.429398,78.569354,CO,28,39,32
India,Telangana,Hyderabad,"New Malakpet, Hyderabad - TSPCB",22-04-2024 17:00:00,17.37206,78.50864,PM10,71,92,81
India,Telangana,Hyderabad,"Ramachandrapuram, Hyderabad - TSPCB",22-04-2024 17:00:00,17.528544,78.286195,NH3,NA,NA,NA
India,Telangana,Hyderabad,"Ramachandrapuram, Hyderabad - TSPCB",22-04-2024 17:00:00,17.528544,78.286195,CO,35,36,36
India,Telangana,Hyderabad,"Sanathnagar, Hyderabad - TSPCB",22-04-2024 17:00:00,17.4559458,78.4332152,CO,35,82,38
India,Telangana,Hyderabad,"Somajiguda, Hyderabad - TSPCB",22-04-2024 17:00:00,17.417094,78.457437,PM2.5,36,70,51
India,Telangana,Hyderabad,"Somajiguda, Hyderabad - TSPCB",22-04-2024 17:00:00,17.417094,78.457437,NH3,5,8,7
India,Telangana,Hyderabad,"Somajiguda, Hyderabad - TSPCB",22-04-2024 17:00:00,17.417094,78.457437,OZONE,10,42,29
India,Telangana,Hyderabad,"Zoo Park, Hyderabad - TSPCB",22-04-2024 17:00:00,17.349694,78.451437,NO2,21,44,30
India,Tripura,Agartala,"Bardowali, Agartala - Tripura SPCB",22-04-2024 17:00:00,23.8175497,91.2726974,NO2,4,8,6
India,Tripura,Agartala,"Bardowali, Agartala - Tripura SPCB",22-04-2024 17:00:00,23.8175497,91.2726974,CO,13,26,19
India,Uttar_Pradesh,Agra,"Manoharpur, Agra - UPPCB",22-04-2024 17:00:00,27.23711,78.01936,NO2,31,32,31
India,Uttar_Pradesh,Agra,"Manoharpur, Agra - UPPCB",22-04-2024 17:00:00,27.23711,78.01936,OZONE,1,62,47
India,Uttar_Pradesh,Agra,"Rohta, Agra - UPPCB",22-04-2024 17:00:00,27.106972,78.000111,PM10,13,80,37
India,Uttar_Pradesh,Agra,"Sanjay Palace, Agra - UPPCB",22-04-2024 17:00:00,27.19865833,78.00598056,SO2,7,62,11
India,Uttar_Pradesh,Agra,"Sanjay Palace, Agra - UPPCB",22-04-2024 17:00:00,27.19865833,78.00598056,OZONE,35,53,50
India,Uttar_Pradesh,Agra,"Sector-3B Avas Vikas Colony, Agra - UPPCB",22-04-2024 17:00:00,27.19412,77.96237,OZONE,1,9,7
India,Uttar_Pradesh,Agra,"Shahjahan Garden, Agra - UPPCB",22-04-2024 17:00:00,27.169338,78.03582,PM2.5,19,71,38
India,Uttar_Pradesh,Agra,"Shahjahan Garden, Agra - UPPCB",22-04-2024 17:00:00,27.169338,78.03582,NO2,24,27,25
India,Uttar_Pradesh,Agra,"Shastripuram, Agra - UPPCB",22-04-2024 17:00:00,27.19862,77.92066,PM10,18,154,91
India,Uttar_Pradesh,Baghpat,"Sardar Patel Inter College, Baghpat - UPPCB",22-04-2024 17:00:00,28.964949,77.278761,PM10,36,244,121
India,Uttar_Pradesh,Baghpat,"Sardar Patel Inter College, Baghpat - UPPCB",22-04-2024 17:00:00,28.964949,77.278761,NH3,1,8,3
India,Uttar_Pradesh,Baghpat,"Sardar Patel Inter College, Baghpat - UPPCB",22-04-2024 17:00:00,28.964949,77.278761,SO2,18,72,43
India,Uttar_Pradesh,Bulandshahr,"Yamunapuram, Bulandshahr - UPPCB",22-04-2024 17:00:00,28.406963,77.849831,NH3,7,13,10
India,Uttar_Pradesh,Bulandshahr,"Yamunapuram, Bulandshahr - UPPCB",22-04-2024 17:00:00,28.406963,77.849831,OZONE,3,141,100
India,Uttar_Pradesh,Firozabad,"Nagla Bhau, Firozabad - UPPCB",22-04-2024 17:00:00,27.168897,78.376960,PM10,24,102,61
India,Uttar_Pradesh,Firozabad,"Nagla Bhau, Firozabad - UPPCB",22-04-2024 17:00:00,27.168897,78.376960,NO2,15,17,17
India,Uttar_Pradesh,Ghaziabad,"Loni, Ghaziabad - UPPCB",22-04-2024 17:00:00,28.757294,77.278792,PM2.5,10,110,46
India,Uttar_Pradesh,Ghaziabad,"Loni, Ghaziabad - UPPCB",22-04-2024 17:00:00,28.757294,77.278792,NH3,1,5,3
India,Uttar_Pradesh,Ghaziabad,"Sanjay Nagar, Ghaziabad - UPPCB",22-04-2024 17:00:00,28.685382,77.453839,OZONE,13,139,94
India,Uttar_Pradesh,Gorakhpur,"Madan Mohan Malaviya University of Technology, Gorakhpur - UPPCB",22-04-2024 17:00:00,26.730136,83.433859,PM2.5,27,105,67
India,Uttar_Pradesh,Gorakhpur,"Madan Mohan Malaviya University of Technology, Gorakhpur - UPPCB",22-04-2024 17:00:00,26.730136,83.433859,PM10,51,136,98
India,Uttar_Pradesh,Greater Noida,"Knowledge Park - III, Greater Noida - UPPCB",22-04-2024 17:00:00,28.47272,77.482000,SO2,8,26,15
India,Uttar_Pradesh,Greater Noida,"Knowledge Park - V, Greater Noida - UPPCB",22-04-2024 17:00:00,28.557054,77.453663,PM10,86,464,178
India,Uttar_Pradesh,Hapur,"Anand Vihar, Hapur - UPPCB",22-04-2024 17:00:00,28.725645,77.749675,NO2,3,70,22
India,Uttar_Pradesh,Kanpur,"FTI Kidwai Nagar, Kanpur - UPPCB",22-04-2024 17:00:00,26.428282,80.327067,PM10,70,223,123
India,Uttar_Pradesh,Kanpur,"FTI Kidwai Nagar, Kanpur - UPPCB",22-04-2024 17:00:00,26.428282,80.327067,NH3,2,5,3
India,Uttar_Pradesh,Kanpur,"NSI Kalyanpur, Kanpur - UPPCB",22-04-2024 17:00:00,26.509954,80.249612,CO,31,52,39
India,Uttar_Pradesh,Kanpur,"NSI Kalyanpur, Kanpur - UPPCB",22-04-2024 17:00:00,26.509954,80.249612,OZONE,29,58,38
India,Uttar_Pradesh,Kanpur,"Nehru Nagar, Kanpur - UPPCB",22-04-2024 17:00:00,26.4703136,80.3229863,SO2,3,9,7
India,Uttar_Pradesh,Lucknow,"B R Ambedkar University, Lucknow - UPPCB",22-04-2024 17:00:00,26.766433,80.927299,NO2,11,12,11
India,Uttar_Pradesh,Lucknow,"B R Ambedkar University, Lucknow - UPPCB",22-04-2024 17:00:00,26.766433,80.927299,SO2,31,38,34
India,Uttar_Pradesh,Lucknow,"Gomti Nagar, Lucknow - UPPCB",22-04-2024 17:00:00,26.868120,81.005119,CO,39,46,45
India,Uttar_Pradesh,Lucknow,"Kendriya Vidyalaya, Lucknow - CPCB",22-04-2024 17:00:00,26.906111,80.948222,NH3,4,25,16
India,Uttar_Pradesh,Lucknow,"Kendriya Vidyalaya, Lucknow - CPCB",22-04-2024 17:00:00,26.906111,80.948222,OZONE,2,77,24
India,Uttar_Pradesh,Lucknow,"Kukrail Picnic Spot-1, Lucknow - UPPCB",22-04-2024 17:00:00,26.90723,80.98579,PM2.5,35,97,63
India,Uttar_Pradesh,Lucknow,"Kukrail Picnic Spot-1, Lucknow - UPPCB",22-04-2024 17:00:00,26.90723,80.98579,NO2,8,8,8
India,Uttar_Pradesh,Lucknow,"Lalbagh, Lucknow - CPCB",22-04-2024 17:00:00,26.8458805,80.9365541,PM10,105,169,131
India,Uttar_Pradesh,Lucknow,"Lalbagh, Lucknow - CPCB",22-04-2024 17:00:00,26.8458805,80.9365541,NO2,13,32,20
India,Uttar_Pradesh,Lucknow,"Lalbagh, Lucknow - CPCB",22-04-2024 17:00:00,26.8458805,80.9365541,CO,18,60,28
India,Uttar_Pradesh,Lucknow,"Talkatora District Industries Center, Lucknow - CPCB",22-04-2024 17:00:00,26.83399722,80.8917361,PM10,105,141,123
India,Uttar_Pradesh,Lucknow,"Talkatora District Industries Center, Lucknow - CPCB",22-04-2024 17:00:00,26.83399722,80.8917361,NH3,10,20,14
India,Uttar_Pradesh,Lucknow,"Talkatora District Industries Center, Lucknow - CPCB",22-04-2024 17:00:00,26.83399722,80.8917361,CO,16,34,24
India,Uttar_Pradesh,Meerut,"Ganga Nagar, Meerut - UPPCB",22-04-2024 17:00:00,28.999264,77.7590354,NH3,5,8,6
India,Uttar_Pradesh,Meerut,"Ganga Nagar, Meerut - UPPCB",22-04-2024 17:00:00,28.999264,77.7590354,SO2,5,33,14
India,Uttar_Pradesh,Meerut,"Jai Bhim Nagar, Meerut - UPPCB",22-04-2024 17:00:00,28.9535882,77.7622941,PM10,24,137,76
India,Uttar_Pradesh,Meerut,"Jai Bhim Nagar, Meerut - UPPCB",22-04-2024 17:00:00,28.9535882,77.7622941,NH3,5,9,7
India,Uttar_Pradesh,Meerut,"Jai Bhim Nagar, Meerut - UPPCB",22-04-2024 17:00:00,28.9535882,77.7622941,SO2,7,37,15
India,Uttar_Pradesh,Meerut,"Jai Bhim Nagar, Meerut - UPPCB",22-04-2024 17:00:00,28.9535882,77.7622941,CO,27,63,39
India,Uttar_Pradesh,Moradabad,"Buddhi Vihar, Moradabad - UPPCB",22-04-2024 17:00:00,28.83526,78.74460,PM10,43,154,107
India,Uttar_Pradesh,Moradabad,"Employment Office, Moradabad - UPPCB",22-04-2024 17:00:00,28.88528,78.73880,NH3,3,4,4
India,Uttar_Pradesh,Moradabad,"Jigar Colony, Moradabad - UPPCB",22-04-2024 17:00:00,28.856664,78.772638,OZONE,40,68,60
India,Uttar_Pradesh,Moradabad,"Kashiram Nagar, Moradabad - UPPCB",22-04-2024 17:00:00,28.849399,78.742362,NO2,3,4,4
India,Uttar_Pradesh,Moradabad,"Transport Nagar, Moradabad - UPPCB",22-04-2024 17:00:00,28.802625,78.753728,SO2,46,52,48
India,Uttar_Pradesh,Muzaffarnagar,"New Mandi, Muzaffarnagar - UPPCB",22-04-2024 17:00:00,29.4723508,77.7194031,PM2.5,37,147,78
India,Uttar_Pradesh,Noida,"Sector - 125, Noida - UPPCB",22-04-2024 17:00:00,28.5447608,77.3231257,PM10,26,244,84
India,Uttar_Pradesh,Noida,"Sector - 125, Noida - UPPCB",22-04-2024 17:00:00,28.5447608,77.3231257,OZONE,5,153,117
India,Uttar_Pradesh,Noida,"Sector - 62, Noida - IMD",22-04-2024 17:00:00,28.6245479,77.3577104,PM10,23,349,126
India,Uttar_Pradesh,Noida,"Sector-1, Noida - UPPCB",22-04-2024 17:00:00,28.5898,77.3101,PM10,39,254,124
India,Uttar_Pradesh,Noida,"Sector-116, Noida - UPPCB",22-04-2024 17:00:00,28.569230,77.393848,NO2,17,116,43
India,Uttar_Pradesh,Varanasi,"Ardhali Bazar, Varanasi - UPPCB",22-04-2024 17:00:00,25.3505986,82.9083074,SO2,13,23,18
India,Uttar_Pradesh,Varanasi,"Ardhali Bazar, Varanasi - UPPCB",22-04-2024 17:00:00,25.3505986,82.9083074,OZONE,13,15,14
India,Uttar_Pradesh,Varanasi,"Bhelupur, Varanasi - UPPCB",22-04-2024 17:00:00,25.301778,82.996789,NO2,8,8,8
India,Uttar_Pradesh,Varanasi,"Bhelupur, Varanasi - UPPCB",22-04-2024 17:00:00,25.301778,82.996789,NH3,1,2,1
India,Uttar_Pradesh,Varanasi,"Maldahiya, Varanasi - UPPCB",22-04-2024 17:00:00,25.32393,82.99687,PM10,14,54,34
India,Uttar_Pradesh,Varanasi,"Maldahiya, Varanasi - UPPCB",22-04-2024 17:00:00,25.32393,82.99687,NO2,1,2,2
India,Uttar_Pradesh,Vrindavan,"Omex Eternity, Vrindavan - UPPCB",22-04-2024 17:00:00,27.5714090,77.6557570,OZONE,26,33,30
India,Uttarakhand,Dehradun,"Doon University, Dehradun - UKPCB",22-04-2024 17:00:00,30.269444,78.044167,OZONE,39,137,115
India,Uttarakhand,Rishikesh,"Shivaji Nagar, Rishikesh - UKPCB",22-04-2024 17:00:00,30.075911,78.2859547,NO2,8,36,18
India,West_Bengal,Barrackpore,"SVSPA Campus, Barrackpore - WBPCB",22-04-2024 17:00:00,22.7605581,88.3617589,NH3,NA,NA,NA
India,West_Bengal,Durgapur,"PCBL Residential Complex, Durgapur - WBPCB",22-04-2024 17:00:00,23.5087640,87.3544400,CO,18,30,25
India,West_Bengal,Durgapur,"Sidhu Kanhu Indoor Stadium, Durgapur - WBPCB",22-04-2024 17:00:00,23.5404352,87.2892225,CO,13,116,68
India,West_Bengal,Durgapur,"Sidhu Kanhu Indoor Stadium, Durgapur - WBPCB",22-04-2024 17:00:00,23.5404352,87.2892225,OZONE,2,99,72
India,West_Bengal,Haldia,"Priyambada Housing Estate, Haldia - WBPCB",22-04-2024 17:00:00,22.06047,88.109737,PM2.5,20,67,39
India,West_Bengal,Haldia,"Priyambada Housing Estate, Haldia - WBPCB",22-04-2024 17:00:00,22.06047,88.109737,NH3,3,7,4
India,West_Bengal,Howrah,"Belur Math, Howrah - WBPCB",22-04-2024 17:00:00,22.629801,88.352017,PM2.5,54,91,69
India,West_Bengal,Howrah,"Belur Math, Howrah - WBPCB",22-04-2024 17:00:00,22.629801,88.352017,NO2,9,18,14
India,West_Bengal,Howrah,"Ghusuri, Howrah - WBPCB",22-04-2024 17:00:00,22.611968,88.347422,OZONE,15,25,22
India,West_Bengal,Howrah,"Padmapukur, Howrah - WBPCB",22-04-2024 17:00:00,22.5687319,88.2797276,PM2.5,24,309,85
India,West_Bengal,Kolkata,"Ballygunge, Kolkata - WBPCB",22-04-2024 17:00:00,22.5367507,88.3638022,NO2,12,39,17
India,West_Bengal,Kolkata,"Ballygunge, Kolkata - WBPCB",22-04-2024 17:00:00,22.5367507,88.3638022,NH3,5,7,5
India,West_Bengal,Kolkata,"Ballygunge, Kolkata - WBPCB",22-04-2024 17:00:00,22.5367507,88.3638022,CO,6,28,17
India,West_Bengal,Kolkata,"Bidhannagar, Kolkata - WBPCB",22-04-2024 17:00:00,22.58157048,88.41002457,SO2,1,18,7
India,West_Bengal,Kolkata,"Rabindra Sarobar, Kolkata - WBPCB",22-04-2024 17:00:00,22.51106,88.35142,PM10,68,117,91
India,West_Bengal,Kolkata,"Victoria, Kolkata - WBPCB",22-04-2024 17:00:00,22.5448082,88.3403691,PM2.5,36,79,61
India,West_Bengal,Kolkata,"Victoria, Kolkata - WBPCB",22-04-2024 17:00:00,22.5448082,88.3403691,NH3,1,2,1
India,West_Bengal,Siliguri,"Ward-32 Bapupara, Siliguri - WBPCB",22-04-2024 17:00:00,26.6879226,88.4152495,PM2.5,50,83,63
India,Andhra_Pradesh,Anantapur,"Gulzarpet, Anantapur - APPCB",22-04-2024 17:00:00,14.675886,77.593027,PM2.5,33,53,41
India,Andhra_Pradesh,Rajamahendravaram,"Anand Kala Kshetram, Rajamahendravaram - APPCB",22-04-2024 17:00:00,16.9872867,81.7363176,CO,18,32,29
India,Andhra_Pradesh,Tirupati,"Tirumala, Tirupati - APPCB",22-04-2024 17:00:00,13.67,79.35,NH3,1,2,1
India,Andhra_Pradesh,Vijayawada,"Rajiv Gandhi Park, Vijayawada - APPCB",22-04-2024 17:00:00,16.509717,80.612222,PM10,NA,NA,NA
India,Andhra_Pradesh,Vijayawada,"Rajiv Gandhi Park, Vijayawada - APPCB",22-04-2024 17:00:00,16.509717,80.612222,CO,33,33,33
India,Assam,Guwahati,"IITG, Guwahati - PCBA",22-04-2024 17:00:00,26.2028636,91.70046436,PM10,41,116,70
India,Assam,Guwahati,"IITG, Guwahati - PCBA",22-04-2024 17:00:00,26.2028636,91.70046436,SO2,11,15,14
India,Assam,Guwahati,"LGBI Airport, Guwahati - PCBA",22-04-2024 17:00:00,26.10887,91.589544,NO2,30,90,57
India,Assam,Guwahati,"LGBI Airport, Guwahati - PCBA",22-04-2024 17:00:00,26.10887,91.589544,CO,36,74,43
India,Assam,Guwahati,"LGBI Airport, Guwahati - PCBA",22-04-2024 17:00:00,26.10887,91.589544,OZONE,2,83,37
India,Assam,Guwahati,"Railway Colony, Guwahati - PCBA",22-04-2024 17:00:00,26.181742,91.78063,PM2.5,1,99,21
India,Assam,Guwahati,"Railway Colony, Guwahati - PCBA",22-04-2024 17:00:00,26.181742,91.78063,NO2,3,3,3
India,Assam,Guwahati,"Railway Colony, Guwahati - PCBA",22-04-2024 17:00:00,26.181742,91.78063,CO,12,80,16
India,Assam,Nagaon,"Christianpatty, Nagaon - PCBA",22-04-2024 17:00:00,26.349082,92.68449,PM10,55,100,80
India,Assam,Nalbari,"Bata Chowk, Nalbari - PCBA",22-04-2024 17:00:00,26.446912,91.439057,NH3,1,2,2
India,Assam,Nalbari,"Bata Chowk, Nalbari - PCBA",22-04-2024 17:00:00,26.446912,91.439057,OZONE,28,99,83
India,Assam,Silchar,"Tarapur, Silchar - PCBA",22-04-2024 17:00:00,24.82827,92.79525,PM10,27,49,39
India,Assam,Sivasagar,"Girls College, Sivasagar - PCBA",22-04-2024 17:00:00,26.987634,94.636574,PM10,45,58,52
India,Assam,Sivasagar,"Girls College, Sivasagar - PCBA",22-04-2024 17:00:00,26.987634,94.636574,NO2,11,19,15
India,Assam,Sivasagar,"Girls College, Sivasagar - PCBA",22-04-2024 17:00:00,26.987634,94.636574,NH3,1,1,1
India,Assam,Sivasagar,"Girls College, Sivasagar - PCBA",22-04-2024 17:00:00,26.987634,94.636574,CO,16,20,17
India,Bihar,Araria,"Kharahiya Basti, Araria - BSPCB",22-04-2024 17:00:00,26.146529,87.454184,PM2.5,58,216,105
India,Bihar,Araria,"Kharahiya Basti, Araria - BSPCB",22-04-2024 17:00:00,26.146529,87.454184,PM10,80,286,146
India,Bihar,Araria,"Kharahiya Basti, Araria - BSPCB",22-04-2024 17:00:00,26.146529,87.454184,NO2,6,10,8
India,Bihar,Araria,"Kharahiya Basti, Araria - BSPCB",22-04-2024 17:00:00,26.146529,87.454184,CO,20,29,25
India,Bihar,Arrah,"New DM Office, Arrah - BSPCB",22-04-2024 17:00:00,25.5626095,84.663264,SO2,NA,NA,NA
India,Bihar,Arrah,"New DM Office, Arrah - BSPCB",22-04-2024 17:00:00,25.5626095,84.663264,OZONE,13,23,19
India,Bihar,Aurangabad,"Gurdeo Nagar, Aurangabad - BSPCB",22-04-2024 17:00:00,24.75746,84.366208,CO,24,38,26
India,Bihar,Bettiah,"Kamalnath Nagar, Bettiah - BSPCB",22-04-2024 17:00:00,26.80365,84.51954,PM10,88,417,140
India,Bihar,Bettiah,"Kamalnath Nagar, Bettiah - BSPCB",22-04-2024 17:00:00,26.80365,84.51954,NH3,3,3,3
India,Bihar,Bhagalpur,"DM Office_Kachari Chowk, Bhagalpur - BSPCB",22-04-2024 17:00:00,25.251013,86.989001,PM10,134,247,173
India,Bihar,Bhagalpur,"Mayaganj, Bhagalpur - BSPCB",22-04-2024 17:00:00,25.265194,87.012947,OZONE,43,117,84
India,Bihar,Chhapra,"Darshan Nagar, Chhapra - BSPCB",22-04-2024 17:00:00,25.7808257,84.7446768,NO2,19,31,25
India,Bihar,Gaya,"Collectorate, Gaya - BSPCB",22-04-2024 17:00:00,24.7955,84.9994,PM2.5,45,191,83
India,Bihar,Gaya,"Kareemganj, Gaya - BSPCB",22-04-2024 17:00:00,24.792403,84.992416,PM2.5,15,70,43
India,Bihar,Gaya,"SFTI Kusdihra, Gaya - BSPCB",22-04-2024 17:00:00,24.762518,84.982348,PM2.5,46,141,94
India,Bihar,Gaya,"SFTI Kusdihra, Gaya - BSPCB",22-04-2024 17:00:00,24.762518,84.982348,SO2,8,11,9
India,Bihar,Hajipur,"Industrial Area, Hajipur - BSPCB",22-04-2024 17:00:00,25.697189,85.245900,NH3,6,8,7
India,Bihar,Hajipur,"Industrial Area, Hajipur - BSPCB",22-04-2024 17:00:00,25.697189,85.245900,CO,20,48,40
India,Bihar,Katihar,"Mirchaibari, Katihar - BSPCB",22-04-2024 17:00:00,25.560083,87.553265,NO2,23,38,28
India,Bihar,Katihar,"Mirchaibari, Katihar - BSPCB",22-04-2024 17:00:00,25.560083,87.553265,CO,44,66,52
India,Bihar,Kishanganj,"SDM Office_Khagra, Kishanganj - BSPCB",22-04-2024 17:00:00,26.0881305,87.93840336,NO2,28,33,30
India,Bihar,Motihari,"Gandak Colony, Motihari - BSPCB",22-04-2024 17:00:00,26.63086,84.90051,SO2,1,7,3
India,Bihar,Motihari,"Gandak Colony, Motihari - BSPCB",22-04-2024 17:00:00,26.63086,84.90051,OZONE,33,148,109
India,Bihar,Munger,"Town Hall, Munger - BSPCB",22-04-2024 17:00:00,25.376776,86.471523,PM10,100,195,135
India,Bihar,Muzaffarpur,"Buddha Colony, Muzaffarpur - BSPCB",22-04-2024 17:00:00,26.11442,85.39813,NO2,39,69,52
India,Bihar,Muzaffarpur,"Buddha Colony, Muzaffarpur - BSPCB",22-04-2024 17:00:00,26.11442,85.39813,NH3,14,20,18
India,Bihar,Patna,"DRM Office Danapur, Patna - BSPCB",22-04-2024 17:00:00,25.586562,85.043586,PM2.5,123,209,167
India,Bihar,Patna,"DRM Office Danapur, Patna - BSPCB",22-04-2024 17:00:00,25.586562,85.043586,NH3,3,3,3
India,Bihar,Patna,"Govt. High School Shikarpur, Patna - BSPCB",22-04-2024 17:00:00,25.592539,85.227158,NH3,5,5,5
India,Bihar,Patna,"Govt. High School Shikarpur, Patna - BSPCB",22-04-2024 17:00:00,25.592539,85.227158,OZONE,1,59,49
India,Bihar,Patna,"IGSC Planetarium Complex, Patna - BSPCB",22-04-2024 17:00:00,25.610369,85.132568,PM2.5,71,300,169
India,Bihar,Patna,"IGSC Planetarium Complex, Patna - BSPCB",22-04-2024 17:00:00,25.610369,85.132568,NO2,11,11,11
India,Bihar,Patna,"IGSC Planetarium Complex, Patna - BSPCB",22-04-2024 17:00:00,25.610369,85.132568,CO,12,12,12
India,Bihar,Patna,"Muradpur, Patna - BSPCB",22-04-2024 17:00:00,25.619651,85.147382,PM10,129,493,319
India,Bihar,Patna,"Samanpura, Patna - BSPCB",22-04-2024 17:00:00,25.596727,85.085624,PM10,183,356,239
India,Bihar,Patna,"Samanpura, Patna - BSPCB",22-04-2024 17:00:00,25.596727,85.085624,NH3,11,23,16
India,Bihar,Purnia,"Mariam Nagar, Purnia - BSPCB",22-04-2024 17:00:00,25.366336,87.117468,PM2.5,20,78,40
India,Bihar,Purnia,"Mariam Nagar, Purnia - BSPCB",22-04-2024 17:00:00,25.366336,87.117468,SO2,5,11,7
India,Bihar,Rajgir,"Dangi Tola, Rajgir - BSPCB",22-04-2024 17:00:00,25.03280,85.41948,PM10,53,111,78
India,Bihar,Saharsa,"Police Line, Saharsa - BSPCB",22-04-2024 17:00:00,25.892357,86.590325,NO2,6,8,7
India,Bihar,Samastipur,"DM Office_Kasipur, Samastipur - BSPCB",22-04-2024 17:00:00,25.859655,85.77944,PM2.5,NA,NA,NA
India,Bihar,Sasaram,"Dada Peer, Sasaram - BSPCB",22-04-2024 17:00:00,24.952822,84.002396,PM2.5,12,68,36
India,Chandigarh,Chandigarh,"Sector-25, Chandigarh - CPCC",22-04-2024 17:00:00,30.751462,76.762879,PM2.5,87,173,138
India,Chandigarh,Chandigarh,"Sector-25, Chandigarh - CPCC",22-04-2024 17:00:00,30.751462,76.762879,NO2,4,41,17
India,Chhattisgarh,Bhilai,"32Bungalows, Bhilai - CECB",22-04-2024 17:00:00,21.194815,81.314770,PM10,NA,NA,NA
India,Chhattisgarh,Bhilai,"32Bungalows, Bhilai - CECB",22-04-2024 17:00:00,21.194815,81.314770,NO2,17,30,25
India,Chhattisgarh,Bhilai,"32Bungalows, Bhilai - CECB",22-04-2024 17:00:00,21.194815,81.314770,SO2,3,9,4
India,Chhattisgarh,Bhilai,"32Bungalows, Bhilai - CECB",22-04-2024 17:00:00,21.194815,81.314770,CO,12,34,15
India,Chhattisgarh,Chhal,"Nawapara SECL Colony, Chhal - CECB",22-04-2024 17:00:00,22.118125,83.140608,CO,18,80,28
India,Chhattisgarh,Korba,"Rampur, Korba - CECB",22-04-2024 17:00:00,22.368195,82.746431,NO2,37,53,46
India,Chhattisgarh,Korba,"Rampur, Korba - CECB",22-04-2024 17:00:00,22.368195,82.746431,SO2,12,24,18
India,Chhattisgarh,Korba,"Rampur, Korba - CECB",22-04-2024 17:00:00,22.368195,82.746431,OZONE,9,13,10
India,Chhattisgarh,Raipur,"AIIMS, Raipur - CECB",22-04-2024 17:00:00,21.258815,81.578979,PM10,NA,NA,NA
India,Delhi,Delhi,"Alipur, Delhi - DPCC",22-04-2024 17:00:00,28.815329,77.153010,PM2.5,14,193,59
India,Delhi,Delhi,"Alipur, Delhi - DPCC",22-04-2024 17:00:00,28.815329,77.153010,CO,36,61,41
India,Delhi,Delhi,"Ashok Vihar, Delhi - DPCC",22-04-2024 17:00:00,28.695381,77.181665,NO2,6,112,38
India,Delhi,Delhi,"Ashok Vihar, Delhi - DPCC",22-04-2024 17:00:00,28.695381,77.181665,NH3,9,19,16
India,Delhi,Delhi,"Aya Nagar, Delhi - IMD",22-04-2024 17:00:00,28.4706914,77.1099364,NO2,31,45,38
India,Delhi,Delhi,"Aya Nagar, Delhi - IMD",22-04-2024 17:00:00,28.4706914,77.1099364,CO,37,88,54
India,Delhi,Delhi,"Aya Nagar, Delhi - IMD",22-04-2024 17:00:00,28.4706914,77.1099364,OZONE,3,36,32
India,Delhi,Delhi,"Bawana, Delhi - DPCC",22-04-2024 17:00:00,28.776200,77.051074,NH3,4,8,6
India,Delhi,Delhi,"Chandni Chowk, Delhi - IITM",22-04-2024 17:00:00,28.656756,77.227234,CO,38,50,49
India,Delhi,Delhi,"DTU, Delhi - CPCB",22-04-2024 17:00:00,28.7500499,77.1112615,NH3,11,13,12
India,Delhi,Delhi,"Dr. Karni Singh Shooting Range, Delhi - DPCC",22-04-2024 17:00:00,28.498571,77.264840,OZONE,1,256,198
India,Delhi,Delhi,"Dwarka-Sector 8, Delhi - DPCC ",22-04-2024 17:00:00,28.5710274,77.0719006,PM10,42,271,148
India,Delhi,Delhi,"IHBAS, Dilshad Garden, Delhi - CPCB",22-04-2024 17:00:00,28.6811736,77.3025234,PM10,NA,NA,NA
India,Delhi,Delhi,"ITO, Delhi - CPCB",22-04-2024 17:00:00,28.628624,77.241060,CO,30,101,50
India,Delhi,Delhi,"Jawaharlal Nehru Stadium, Delhi - DPCC",22-04-2024 17:00:00,28.580280,77.233829,NO2,24,146,64
India,Delhi,Delhi,"Lodhi Road, Delhi - IITM",22-04-2024 17:00:00,28.588333,77.221667,PM2.5,12,339,112
India,Delhi,Delhi,"Lodhi Road, Delhi - IITM",22-04-2024 17:00:00,28.588333,77.221667,PM10,41,407,131
India,Delhi,Delhi,"Lodhi Road, Delhi - IMD",22-04-2024 17:00:00,28.5918245,77.2273074,CO,8,21,10
India,Delhi,Delhi,"Major Dhyan Chand National Stadium, Delhi - DPCC",22-04-2024 17:00:00,28.611281,77.237738,NO2,20,164,66
India,Delhi,Delhi,"Major Dhyan Chand National Stadium, Delhi - DPCC",22-04-2024 17:00:00,28.611281,77.237738,CO,18,107,25
India,Delhi,Delhi,"Mandir Marg, Delhi - DPCC",22-04-2024 17:00:00,28.636429,77.201067,NH3,3,6,4
India,Delhi,Delhi,"Mandir Marg, Delhi - DPCC",22-04-2024 17:00:00,28.636429,77.201067,CO,18,95,38
India,Delhi,Delhi,"Mundka, Delhi - DPCC",22-04-2024 17:00:00,28.684678,77.076574,PM2.5,12,341,100
India,Delhi,Delhi,"Mundka, Delhi - DPCC",22-04-2024 17:00:00,28.684678,77.076574,PM10,19,356,149
India,Delhi,Delhi,"Mundka, Delhi - DPCC",22-04-2024 17:00:00,28.684678,77.076574,NO2,12,116,38
India,Delhi,Delhi,"NSIT Dwarka, Delhi - CPCB",22-04-2024 17:00:00,28.60909,77.0325413,NH3,8,14,11
India,Delhi,Delhi,"NSIT Dwarka, Delhi - CPCB",22-04-2024 17:00:00,28.60909,77.0325413,SO2,11,64,22
India,Delhi,Delhi,"Najafgarh, Delhi - DPCC",22-04-2024 17:00:00,28.570173,76.933762,PM2.5,13,252,55
India,Delhi,Delhi,"Narela, Delhi - DPCC",22-04-2024 17:00:00,28.822836,77.101981,SO2,6,37,14
India,Delhi,Delhi,"Nehru Nagar, Delhi - DPCC",22-04-2024 17:00:00,28.567890,77.250515,NO2,8,13,10
India,Delhi,Delhi,"North Campus, DU, Delhi - IMD",22-04-2024 17:00:00,28.6573814,77.1585447,PM2.5,42,317,125
India,Delhi,Delhi,"North Campus, DU, Delhi - IMD",22-04-2024 17:00:00,28.6573814,77.1585447,CO,64,121,94
India,Delhi,Delhi,"Okhla Phase-2, Delhi - DPCC",22-04-2024 17:00:00,28.530785,77.271255,NH3,5,12,8
India,Delhi,Delhi,"Okhla Phase-2, Delhi - DPCC",22-04-2024 17:00:00,28.530785,77.271255,SO2,3,22,14
India,Delhi,Delhi,"Patparganj, Delhi - DPCC",22-04-2024 17:00:00,28.623763,77.287209,PM2.5,15,85,46
India,Delhi,Delhi,"Patparganj, Delhi - DPCC",22-04-2024 17:00:00,28.623763,77.287209,NO2,28,74,48
India,Delhi,Delhi,"Patparganj, Delhi - DPCC",22-04-2024 17:00:00,28.623763,77.287209,NH3,8,10,8
India,Delhi,Delhi,"Punjabi Bagh, Delhi - DPCC",22-04-2024 17:00:00,28.674045,77.131023,NO2,31,79,49
India,Delhi,Delhi,"Punjabi Bagh, Delhi - DPCC",22-04-2024 17:00:00,28.674045,77.131023,NH3,4,5,4
India,Delhi,Delhi,"Punjabi Bagh, Delhi - DPCC",22-04-2024 17:00:00,28.674045,77.131023,CO,28,71,40
India,Delhi,Delhi,"Pusa, Delhi - DPCC",22-04-2024 17:00:00,28.639652,77.146275,NH3,2,7,5
India,Delhi,Delhi,"Pusa, Delhi - DPCC",22-04-2024 17:00:00,28.639652,77.146275,SO2,4,28,14
India,Delhi,Delhi,"Pusa, Delhi - DPCC",22-04-2024 17:00:00,28.639652,77.146275,CO,8,100,41
India,Delhi,Delhi,"Pusa, Delhi - DPCC",22-04-2024 17:00:00,28.639652,77.146275,OZONE,9,77,57
India,Delhi,Delhi,"Pusa, Delhi - IMD",22-04-2024 17:00:00,28.636110,77.173332,PM2.5,34,254,120
India,Delhi,Delhi,"Pusa, Delhi - IMD",22-04-2024 17:00:00,28.636110,77.173332,OZONE,5,42,35
India,Delhi,Delhi,"R K Puram, Delhi - DPCC",22-04-2024 17:00:00,28.563262,77.186937,NH3,2,6,4
India,Delhi,Delhi,"Rohini, Delhi - DPCC",22-04-2024 17:00:00,28.732528,77.119920,NH3,7,10,8
India,Delhi,Delhi,"Rohini, Delhi - DPCC",22-04-2024 17:00:00,28.732528,77.119920,SO2,6,26,12
India,Delhi,Delhi,"Rohini, Delhi - DPCC",22-04-2024 17:00:00,28.732528,77.119920,OZONE,7,141,100
India,Delhi,Delhi,"Shadipur, Delhi - CPCB",22-04-2024 17:00:00,28.6514781,77.1473105,PM2.5,34,435,181
India,Delhi,Delhi,"Sirifort, Delhi - CPCB",22-04-2024 17:00:00,28.5504249,77.2159377,NH3,14,20,16
India,Delhi,Delhi,"Sirifort, Delhi - CPCB",22-04-2024 17:00:00,28.5504249,77.2159377,CO,8,104,31
India,Delhi,Delhi,"Sonia Vihar, Delhi - DPCC",22-04-2024 17:00:00,28.710508,77.249485,NO2,12,95,37
India,Delhi,Delhi,"Sonia Vihar, Delhi - DPCC",22-04-2024 17:00:00,28.710508,77.249485,NH3,4,6,5
India,Delhi,Delhi,"Sri Aurobindo Marg, Delhi - DPCC",22-04-2024 17:00:00,28.531346,77.190156,NO2,11,90,33
India,Delhi,Delhi,"Sri Aurobindo Marg, Delhi - DPCC",22-04-2024 17:00:00,28.531346,77.190156,SO2,10,19,14
India,Delhi,Delhi,"Sri Aurobindo Marg, Delhi - DPCC",22-04-2024 17:00:00,28.531346,77.190156,CO,8,64,13
India,Delhi,Delhi,"Vivek Vihar, Delhi - DPCC",22-04-2024 17:00:00,28.672342,77.315260,NH3,15,16,16
India,Delhi,Delhi,"Vivek Vihar, Delhi - DPCC",22-04-2024 17:00:00,28.672342,77.315260,OZONE,14,98,82
India,Delhi,Delhi,"Wazirpur, Delhi - DPCC",22-04-2024 17:00:00,28.699793,77.165453,NO2,15,82,37
India,Delhi,Delhi,"Wazirpur, Delhi - DPCC",22-04-2024 17:00:00,28.699793,77.165453,NH3,12,13,12
India,Gujarat,Ahmedabad,"Chandkheda, Ahmedabad - IITM",22-04-2024 17:00:00,23.107969,72.574648,PM10,42,136,77
India,Gujarat,Ahmedabad,"Chandkheda, Ahmedabad - IITM",22-04-2024 17:00:00,23.107969,72.574648,NO2,17,43,39
India,Gujarat,Ahmedabad,"Gyaspur, Ahmedabad - IITM",22-04-2024 17:00:00,22.977134,72.553024,PM10,41,78,61
India,Gujarat,Ahmedabad,"Maninagar, Ahmedabad - GPCB",22-04-2024 17:00:00,23.002657,72.591912,PM2.5,NA,NA,NA
India,Gujarat,Ahmedabad,"Maninagar, Ahmedabad - GPCB",22-04-2024 17:00:00,23.002657,72.591912,PM10,NA,NA,NA
India,Gujarat,Ahmedabad,"Maninagar, Ahmedabad - GPCB",22-04-2024 17:00:00,23.002657,72.591912,SO2,33,130,71
India,Gujarat,Ahmedabad,"Maninagar, Ahmedabad - GPCB",22-04-2024 17:00:00,23.002657,72.591912,CO,44,93,79
India,Gujarat,Ahmedabad,"Raikhad, Ahmedabad - IITM",22-04-2024 17:00:00,23.020509,72.579261,CO,8,90,25
India,Gujarat,Ahmedabad,"SAC ISRO Satellite, Ahmedabad - IITM",22-04-2024 17:00:00,23.023389,72.515201,PM10,92,93,92
India,Gujarat,Ahmedabad,"SAC ISRO Satellite, Ahmedabad - IITM",22-04-2024 17:00:00,23.023389,72.515201,NH3,3,4,3
India,Gujarat,Ahmedabad,"SAC ISRO Satellite, Ahmedabad - IITM",22-04-2024 17:00:00,23.023389,72.515201,CO,25,28,26
India,Gujarat,Ahmedabad,"SVPI Airport Hansol, Ahmedabad - IITM",22-04-2024 17:00:00,23.076793,72.627874,CO,10,16,11
India,Gujarat,Ahmedabad,"Sardar Vallabhbhai Patel Stadium, Ahmedabad - IITM",22-04-2024 17:00:00,23.043070,72.562968,CO,21,50,35
India,Gujarat,Ankleshwar,"GIDC, Ankleshwar - GPCB",22-04-2024 17:00:00,21.613267,73.010555,PM2.5,22,50,36
India,Gujarat,Gandhinagar,"IIPHG Lekawada, Gandhinagar - IITM",22-04-2024 17:00:00,23.243639,72.68994,NO2,25,44,34
India,Gujarat,Gandhinagar,"IIPHG Lekawada, Gandhinagar - IITM",22-04-2024 17:00:00,23.243639,72.68994,CO,27,44,34
India,Gujarat,Gandhinagar,"Sector-10, Gandhinagar - GPCB",22-04-2024 17:00:00,23.221714,72.654328,PM10,NA,NA,NA
India,Gujarat,Gandhinagar,"Sector-10, Gandhinagar - GPCB",22-04-2024 17:00:00,23.221714,72.654328,SO2,5,6,5
India,Gujarat,Surat,"Science Center, Surat - SMC",22-04-2024 17:00:00,21.170046,72.795405,PM10,2,34,15
India,Gujarat,Surat,"Science Center, Surat - SMC",22-04-2024 17:00:00,21.170046,72.795405,NO2,28,48,39
India,Gujarat,Vapi,"Phase-1 GIDC, Vapi - GPCB",22-04-2024 17:00:00,20.362421,72.918013,OZONE,6,8,7
India,Gujarat,Vatva,"Phase-4 GIDC, Vatva - GPCB",22-04-2024 17:00:00,22.969611,72.643500,CO,34,36,36
India,Haryana,Ambala,"Patti Mehar, Ambala - HSPCB",22-04-2024 17:00:00,30.379589,76.778328,PM10,41,86,63
India,Haryana,Ambala,"Patti Mehar, Ambala - HSPCB",22-04-2024 17:00:00,30.379589,76.778328,NH3,8,8,8
India,Haryana,Ambala,"Patti Mehar, Ambala - HSPCB",22-04-2024 17:00:00,30.379589,76.778328,OZONE,26,39,32
India,Haryana,Bahadurgarh,"Arya Nagar, Bahadurgarh - HSPCB",22-04-2024 17:00:00,28.6701,76.9254,NO2,20,26,23
India,Haryana,Ballabgarh,"Nathu Colony, Ballabgarh - HSPCB",22-04-2024 17:00:00,28.3419248,77.319699,OZONE,1,22,21
India,Haryana,Bhiwani,"H.B. Colony, Bhiwani - HSPCB",22-04-2024 17:00:00,28.806223,76.141105,NH3,5,6,6
India,Haryana,Bhiwani,"H.B. Colony, Bhiwani - HSPCB",22-04-2024 17:00:00,28.806223,76.141105,CO,18,64,29
India,Haryana,Charkhi Dadri,"Mini Secretariat, Charkhi Dadri - HSPCB",22-04-2024 17:00:00,28.593883,76.270653,NH3,6,8,7
India,Haryana,Charkhi Dadri,"Mini Secretariat, Charkhi Dadri - HSPCB",22-04-2024 17:00:00,28.593883,76.270653,CO,15,60,26
India,Haryana,Dharuhera,"Municipal Corporation Office, Dharuhera -  HSPCB",22-04-2024 17:00:00,28.206800,76.799700,SO2,5,39,16
India,Haryana,Faridabad,"New Industrial Town, Faridabad - HSPCB",22-04-2024 17:00:00,28.39072,77.30059,PM2.5,19,253,120
India,Haryana,Faridabad,"New Industrial Town, Faridabad - HSPCB",22-04-2024 17:00:00,28.39072,77.30059,NO2,1,15,8
India,Haryana,Faridabad,"Sector 30, Faridabad - HSPCB",22-04-2024 17:00:00,28.4417,77.3217,SO2,6,6,6
India,Haryana,Faridabad,"Sector 30, Faridabad - HSPCB",22-04-2024 17:00:00,28.4417,77.3217,OZONE,5,65,57
India,Haryana,Faridabad,"Sector- 16A, Faridabad - HSPCB",22-04-2024 17:00:00,28.4088421,77.3099081,NO2,7,49,24
India,Haryana,Faridabad,"Sector- 16A, Faridabad - HSPCB",22-04-2024 17:00:00,28.4088421,77.3099081,OZONE,14,14,14
India,Haryana,Fatehabad,"Huda Sector, Fatehabad - HSPCB",22-04-2024 17:00:00,29.503664,75.467934,NO2,29,32,30
India,Haryana,Fatehabad,"Huda Sector, Fatehabad - HSPCB",22-04-2024 17:00:00,29.503664,75.467934,OZONE,39,61,49
India,Haryana,Gurugram,"Sector-51, Gurugram - HSPCB",22-04-2024 17:00:00,28.4227,77.0667,CO,26,101,33
India,Haryana,Gurugram,"Vikas Sadan, Gurugram - HSPCB",22-04-2024 17:00:00,28.4501238,77.0263051,OZONE,8,68,47
India,Haryana,Hisar,"Urban Estate-II, Hisar - HSPCB",22-04-2024 17:00:00,29.140560,75.744941,PM10,NA,NA,NA
India,Haryana,Hisar,"Urban Estate-II, Hisar - HSPCB",22-04-2024 17:00:00,29.140560,75.744941,NH3,NA,NA,NA
India,Haryana,Hisar,"Urban Estate-II, Hisar - HSPCB",22-04-2024 17:00:00,29.140560,75.744941,SO2,NA,NA,NA
India,Haryana,Jind,"Police Lines, Jind - HSPCB",22-04-2024 17:00:00,29.307814,76.337619,NH3,2,6,4
India,Haryana,Jind,"Police Lines, Jind - HSPCB",22-04-2024 17:00:00,29.307814,76.337619,SO2,1,31,10
India,Haryana,Karnal,"Sector-12, Karnal - HSPCB",22-04-2024 17:00:00,29.695300,77.002700,NH3,10,13,11
India,Haryana,Karnal,"Sector-12, Karnal - HSPCB",22-04-2024 17:00:00,29.695300,77.002700,OZONE,29,38,33
India,Haryana,Kurukshetra,"Sector-7, Kurukshetra - HSPCB",22-04-2024 17:00:00,29.966942,76.875879,PM2.5,39,98,63
India,Haryana,Kurukshetra,"Sector-7, Kurukshetra - HSPCB",22-04-2024 17:00:00,29.966942,76.875879,NO2,9,10,10
India,Haryana,Kurukshetra,"Sector-7, Kurukshetra - HSPCB",22-04-2024 17:00:00,29.966942,76.875879,OZONE,26,78,58
India,Haryana,Mandikhera,"General Hospital, Mandikhera - HSPCB",22-04-2024 17:00:00,27.9002,76.9938,PM2.5,10,79,34
India,Haryana,Mandikhera,"General Hospital, Mandikhera - HSPCB",22-04-2024 17:00:00,27.9002,76.9938,NO2,18,23,22
India,Haryana,Mandikhera,"General Hospital, Mandikhera - HSPCB",22-04-2024 17:00:00,27.9002,76.9938,NH3,16,19,18
India,Haryana,Narnaul,"Shastri Nagar, Narnaul - HSPCB",22-04-2024 17:00:00,28.060249,76.113115,NO2,15,85,48
India,Haryana,Narnaul,"Shastri Nagar, Narnaul - HSPCB",22-04-2024 17:00:00,28.060249,76.113115,OZONE,35,61,56
India,Haryana,Palwal,"Shyam Nagar, Palwal - HSPCB",22-04-2024 17:00:00,28.1485564,77.3320667,OZONE,13,53,29
India,Haryana,Panchkula,"Sector-6, Panchkula - HSPCB ",22-04-2024 17:00:00,30.7057778,76.8531805555555,CO,1,17,9
India,Haryana,Panipat,"Sector-18, Panipat - HSPCB",22-04-2024 17:00:00,29.497973,76.993331,PM2.5,108,114,110
India,Haryana,Panipat,"Sector-18, Panipat - HSPCB",22-04-2024 17:00:00,29.497973,76.993331,SO2,18,19,19
India,Haryana,Panipat,"Sector-18, Panipat - HSPCB",22-04-2024 17:00:00,29.497973,76.993331,CO,24,26,25
India,Haryana,Sonipat,"Murthal, Sonipat - HSPCB",22-04-2024 17:00:00,29.027200,77.062100,NO2,37,44,40
India,Haryana,Yamuna Nagar,"Gobind Pura, Yamuna Nagar - HSPCB",22-04-2024 17:00:00,30.1480566,77.2893471,PM10,63,128,103
India,Himachal Pradesh,Baddi,"HIMUDA Complex Phase-1, Baddi - HPPCB",22-04-2024 17:00:00,30.943887,76.801991,PM10,42,189,97
India,Himachal Pradesh,Baddi,"HIMUDA Complex Phase-1, Baddi - HPPCB",22-04-2024 17:00:00,30.943887,76.801991,CO,16,70,25
India,Jharkhand,Dhanbad,"Kalakusuma, Dhanbad - DMC",22-04-2024 17:00:00,23.811548,86.481238,PM10,98,102,100
India,Jharkhand,Dhanbad,"Kalakusuma, Dhanbad - DMC",22-04-2024 17:00:00,23.811548,86.481238,SO2,22,22,22
India,Karnataka,Bagalkot,"Vidayagiri, Bagalkot - KSPCB",22-04-2024 17:00:00,16.172806,75.659694,PM10,45,46,46
India,Karnataka,Bagalkot,"Vidayagiri, Bagalkot - KSPCB",22-04-2024 17:00:00,16.172806,75.659694,CO,12,54,34
India,Karnataka,Bengaluru,"BTM Layout, Bengaluru - CPCB",22-04-2024 17:00:00,12.9135218,77.5950804,SO2,6,12,8
India,Karnataka,Bengaluru,"BTM Layout, Bengaluru - CPCB",22-04-2024 17:00:00,12.9135218,77.5950804,CO,23,30,28
India,Karnataka,Bengaluru,"Hebbal, Bengaluru - KSPCB",22-04-2024 17:00:00,13.029152,77.585901,OZONE,7,69,32
India,Karnataka,Bengaluru,"Hombegowda Nagar, Bengaluru - KSPCB",22-04-2024 17:00:00,12.938539,77.590100,PM10,NA,NA,NA
India,Karnataka,Bengaluru,"Hombegowda Nagar, Bengaluru - KSPCB",22-04-2024 17:00:00,12.938539,77.590100,NO2,9,22,14
India,Karnataka,Bengaluru,"Jayanagar 5th Block, Bengaluru - KSPCB",22-04-2024 17:00:00,12.920984,77.584908,SO2,12,25,19
India,Karnataka,Bengaluru,"Kasturi Nagar, Bengaluru - KSPCB",22-04-2024 17:00:00,13.003872,77.664217,SO2,10,10,10
India,Karnataka,Bengaluru,"RVCE-Mailasandra, Bengaluru - KSPCB",22-04-2024 17:00:00,12.921418,77.502466,PM2.5,NA,NA,NA
India,Karnataka,Bengaluru,"Sanegurava Halli, Bengaluru - KSPCB",22-04-2024 17:00:00,12.990328,77.5431385,PM10,35,68,46
India,Karnataka,Bengaluru,"Shivapura_Peenya, Bengaluru - KSPCB",22-04-2024 17:00:00,13.0246342,77.5080115,PM10,44,82,61
India,Karnataka,Bengaluru,"Shivapura_Peenya, Bengaluru - KSPCB",22-04-2024 17:00:00,13.0246342,77.5080115,SO2,1,10,7
India,Karnataka,Bengaluru,"Silk Board, Bengaluru - KSPCB",22-04-2024 17:00:00,12.917348,77.622813,NO2,7,18,12
India,Karnataka,Bengaluru,"Silk Board, Bengaluru - KSPCB",22-04-2024 17:00:00,12.917348,77.622813,CO,3,18,15
India,Karnataka,Chamarajanagar,"Urban, Chamarajanagar - KSPCB",22-04-2024 17:00:00,11.55358,76.55521,SO2,3,9,7
India,Karnataka,Chamarajanagar,"Urban, Chamarajanagar - KSPCB",22-04-2024 17:00:00,11.55358,76.55521,CO,22,121,24
India,Karnataka,Chikkaballapur,"Chikkaballapur Rural, Chikkaballapur - KSPCB",22-04-2024 17:00:00,13.428828,77.731418,PM2.5,39,84,68
India,Karnataka,Chikkaballapur,"Chikkaballapur Rural, Chikkaballapur - KSPCB",22-04-2024 17:00:00,13.428828,77.731418,NH3,1,1,1
India,Karnataka,Davanagere,"Devaraj Urs Badavane, Davanagere - KSPCB",22-04-2024 17:00:00,14.475800,75.905200,SO2,5,7,6
India,Karnataka,Dharwad,"Kalabhavan, Dharwad - KSPCB",22-04-2024 17:00:00,15.459706,75.008381,NO2,NA,NA,NA
India,Karnataka,Dharwad,"Kalabhavan, Dharwad - KSPCB",22-04-2024 17:00:00,15.459706,75.008381,CO,32,140,77
India,Karnataka,Gadag,"Panchal Nagar, Gadag - KSPCB",22-04-2024 17:00:00,15.411456,75.638133,PM10,NA,NA,NA
India,Karnataka,Gadag,"Panchal Nagar, Gadag - KSPCB",22-04-2024 17:00:00,15.411456,75.638133,CO,50,52,52
India,Karnataka,Hassan,"B.Katihalli, Hassan - KSPCB",22-04-2024 17:00:00,13.008556,76.125258,CO,12,16,14
India,Karnataka,Haveri,"Ashwini Nagar, Haveri - KSPCB",22-04-2024 17:00:00,14.791800,75.389600,OZONE,18,21,20
India,Karnataka,Hubballi,"Deshpande Nagar, Hubballi - KSPCB",22-04-2024 17:00:00,15.351773,75.140726,NH3,NA,NA,NA
India,Karnataka,Kalaburagi,"Lal Bahadur Shastri Nagar, Kalaburagi - KSPCB",22-04-2024 17:00:00,17.321993,76.822628,PM2.5,3,298,61
India,Karnataka,Kalaburagi,"Lal Bahadur Shastri Nagar, Kalaburagi - KSPCB",22-04-2024 17:00:00,17.321993,76.822628,SO2,14,19,17
India,Karnataka,Karwar,"KHB Colony, Karwar - KSPCB",22-04-2024 17:00:00,14.816666,74.141003,SO2,NA,NA,NA
India,Karnataka,Koppal,"Diwator Nagar, Koppal - KSPCB",22-04-2024 17:00:00,15.347630,76.181767,CO,130,131,130
India,Karnataka,Koppal,"Diwator Nagar, Koppal - KSPCB",22-04-2024 17:00:00,15.347630,76.181767,OZONE,60,113,94
India,Karnataka,Madikeri,"Stuart Hill, Madikeri - KSPCB",22-04-2024 17:00:00,12.415911,75.735050,PM2.5,27,68,49
India,Karnataka,Madikeri,"Stuart Hill, Madikeri - KSPCB",22-04-2024 17:00:00,12.415911,75.735050,PM10,20,96,46
India,Karnataka,Madikeri,"Stuart Hill, Madikeri - KSPCB",22-04-2024 17:00:00,12.415911,75.735050,NO2,2,11,5
India,Karnataka,Madikeri,"Stuart Hill, Madikeri - KSPCB",22-04-2024 17:00:00,12.415911,75.735050,OZONE,32,47,41
India,Karnataka,Mangalore,"Kadri, Mangalore - KSPCB",22-04-2024 17:00:00,12.889250,74.853000,PM10,36,103,73
India,Karnataka,Tumakuru,"Thimmalapura, Tumakuru - KSPCB",22-04-2024 17:00:00,13.377516,77.099072,SO2,7,11,9
India,Karnataka,Vijayapura,"Ibrahimpur, Vijayapura - KSPCB",22-04-2024 17:00:00,16.802639,75.722694,OZONE,13,16,15
India,Kerala,Eloor,"Udyogamandal, Eloor - Kerala PCB",22-04-2024 17:00:00,10.073232,76.302765,NO2,4,4,4
India,Kerala,Kannur,"Thavakkara, Kannur - Kerala PCB",22-04-2024 17:00:00,11.875000,75.373200,CO,29,37,33
India,Kerala,Kannur,"Thavakkara, Kannur - Kerala PCB",22-04-2024 17:00:00,11.875000,75.373200,OZONE,32,36,34
India,Kerala,Kollam,"Polayathode, Kollam - Kerala PCB",22-04-2024 17:00:00,8.8787,76.6073,PM10,80,93,86
India,Kerala,Kollam,"Polayathode, Kollam - Kerala PCB",22-04-2024 17:00:00,8.8787,76.6073,SO2,5,6,6
India,Kerala,Kollam,"Polayathode, Kollam - Kerala PCB",22-04-2024 17:00:00,8.8787,76.6073,CO,37,40,39
India,Kerala,Kollam,"Polayathode, Kollam - Kerala PCB",22-04-2024 17:00:00,8.8787,76.6073,OZONE,31,38,37
India,Kerala,Thiruvananthapuram,"Kariavattom, Thiruvananthapuram - Kerala PCB",22-04-2024 17:00:00,8.563700,76.886500,PM10,78,96,86
India,Kerala,Thiruvananthapuram,"Kariavattom, Thiruvananthapuram - Kerala PCB",22-04-2024 17:00:00,8.563700,76.886500,NO2,8,10,9
India,Kerala,Thiruvananthapuram,"Kariavattom, Thiruvananthapuram - Kerala PCB",22-04-2024 17:00:00,8.563700,76.886500,OZONE,27,33,30
India,Kerala,Thiruvananthapuram,"Plammoodu, Thiruvananthapuram - Kerala PCB",22-04-2024 17:00:00,8.5149093,76.9435879,PM2.5,8,56,22
India,Kerala,Thiruvananthapuram,"Plammoodu, Thiruvananthapuram - Kerala PCB",22-04-2024 17:00:00,8.5149093,76.9435879,NH3,1,1,1
