country,state,city,station,last_update,latitude,longitude,pollutant_id,pollutant_min,pollutant_max,pollutant_avg
India,Andhra_Pradesh,Amaravati,"Secretariat, Amaravati - APPCB",04-04-2024 06:00:00,16.5150833,80.5181667,PM2.5,7,33,21
India,Andhra_Pradesh,Amaravati,"Secretariat, Amaravati - APPCB",04-04-2024 06:00:00,16.5150833,80.5181667,NO2,3,10,6
India,Andhra_Pradesh,Amaravati,"Secretariat, Amaravati - APPCB",04-04-2024 06:00:00,16.5150833,80.5181667,CO,11,38,27
India,Andhra_Pradesh,Amaravati,"Secretariat, Amaravati - APPCB",04-04-2024 06:00:00,16.5150833,80.5181667,OZONE,1,36,5
India,Andhra_Pradesh,Anantapur,"Gulzarpet, Anantapur - APPCB",04-04-2024 06:00:00,14.675886,77.593027,PM2.5,22,56,37
India,Andhra_Pradesh,Chittoor,"Gangineni Cheruvu, Chittoor - APPCB",04-04-2024 06:00:00,13.204880,79.097889,SO2,1,91,15
India,Andhra_Pradesh,Kadapa,"Yerramukkapalli, Kadapa - APPCB",04-04-2024 06:00:00,14.465052,78.824187,PM10,27,63,38
India,Andhra_Pradesh,Rajamahendravaram,"Anand Kala Kshetram, Rajamahendravaram - APPCB",04-04-2024 06:00:00,16.9872867,81.7363176,PM10,14,44,29
India,Andhra_Pradesh,Rajamahendravaram,"Anand Kala Kshetram, Rajamahendravaram - APPCB",04-04-2024 06:00:00,16.9872867,81.7363176,SO2,11,12,11
India,Andhra_Pradesh,Tirupati,"Tirumala, Tirupati - APPCB",04-04-2024 06:00:00,13.67,79.35,CO,10,53,20
India,Andhra_Pradesh,Tirupati,"Vaikuntapuram, Tirupati - APPCB",04-04-2024 06:00:00,13.615387,79.409230,SO2,NA,NA,NA
India,Andhra_Pradesh,Vijayawada,"HB Colony, Vijayawada - APPCB",04-04-2024 06:00:00,16.536107,80.594233,NH3,4,4,4
India,Andhra_Pradesh,Vijayawada,"Kanuru, Vijayawada - APPCB",04-04-2024 06:00:00,16.486692,80.699436,PM10,NA,NA,NA
India,Andhra_Pradesh,Vijayawada,"Kanuru, Vijayawada - APPCB",04-04-2024 06:00:00,16.486692,80.699436,CO,NA,NA,NA
India,Andhra_Pradesh,Vijayawada,"Rajiv Gandhi Park, Vijayawada - APPCB",04-04-2024 06:00:00,16.509717,80.612222,NO2,4,50,22
India,Andhra_Pradesh,Vijayawada,"Rajiv Gandhi Park, Vijayawada - APPCB",04-04-2024 06:00:00,16.509717,80.612222,SO2,5,7,6
India,Andhra_Pradesh,Vijayawada,"Rajiv Nagar, Vijayawada - APPCB",04-04-2024 06:00:00,16.554731,80.649110,PM10,59,74,60
India,Andhra_Pradesh,Vijayawada,"Rajiv Nagar, Vijayawada - APPCB",04-04-2024 06:00:00,16.554731,80.649110,SO2,11,22,16
India,Andhra_Pradesh,Visakhapatnam,"GVM Corporation, Visakhapatnam - APPCB",04-04-2024 06:00:00,17.72,83.3,OZONE,8,16,10
India,Assam,Byrnihat,"Central Academy for SFS, Byrnihat - PCBA",04-04-2024 06:00:00,26.071318,91.87488,CO,17,103,37
India,Assam,Guwahati,"IITG, Guwahati - PCBA",04-04-2024 06:00:00,26.2028636,91.70046436,NO2,1,3,1
India,Assam,Guwahati,"LGBI Airport, Guwahati - PCBA",04-04-2024 06:00:00,26.10887,91.589544,NH3,2,8,6
India,Assam,Guwahati,"LGBI Airport, Guwahati - PCBA",04-04-2024 06:00:00,26.10887,91.589544,CO,24,52,44
India,Assam,Guwahati,"Pan Bazaar, Guwahati - PCBA",04-04-2024 06:00:00,26.187500,91.744194,NH3,3,6,4
India,Assam,Guwahati,"Pan Bazaar, Guwahati - PCBA",04-04-2024 06:00:00,26.187500,91.744194,CO,21,29,24
India,Assam,Nagaon,"Christianpatty, Nagaon - PCBA",04-04-2024 06:00:00,26.349082,92.68449,NH3,8,12,10
India,Assam,Nalbari,"Bata Chowk, Nalbari - PCBA",04-04-2024 06:00:00,26.446912,91.439057,PM10,68,197,128
India,Assam,Silchar,"Tarapur, Silchar - PCBA",04-04-2024 06:00:00,24.82827,92.79525,PM2.5,26,52,35
India,Assam,Silchar,"Tarapur, Silchar - PCBA",04-04-2024 06:00:00,24.82827,92.79525,NH3,1,1,1
India,Assam,Sivasagar,"Girls College, Sivasagar - PCBA",04-04-2024 06:00:00,26.987634,94.636574,OZONE,1,52,2
India,Bihar,Araria,"Kharahiya Basti, Araria - BSPCB",04-04-2024 06:00:00,26.146529,87.454184,PM10,73,352,168
India,Bihar,Araria,"Kharahiya Basti, Araria - BSPCB",04-04-2024 06:00:00,26.146529,87.454184,NO2,6,22,8
India,Bihar,Araria,"Kharahiya Basti, Araria - BSPCB",04-04-2024 06:00:00,26.146529,87.454184,CO,16,40,21
India,Bihar,Arrah,"New DM Office, Arrah - BSPCB",04-04-2024 06:00:00,25.5626095,84.663264,PM10,65,171,101
India,Bihar,Aurangabad,"Gurdeo Nagar, Aurangabad - BSPCB",04-04-2024 06:00:00,24.75746,84.366208,PM2.5,20,123,73
India,Bihar,Aurangabad,"Gurdeo Nagar, Aurangabad - BSPCB",04-04-2024 06:00:00,24.75746,84.366208,OZONE,10,83,31
India,Bihar,Bettiah,"Kamalnath Nagar, Bettiah - BSPCB",04-04-2024 06:00:00,26.80365,84.51954,NH3,NA,NA,NA
India,Bihar,Bhagalpur,"Mayaganj, Bhagalpur - BSPCB",04-04-2024 06:00:00,25.265194,87.012947,CO,6,12,9
India,Bihar,Bhagalpur,"Mayaganj, Bhagalpur - BSPCB",04-04-2024 06:00:00,25.265194,87.012947,OZONE,9,145,13
India,Bihar,Bihar Sharif,"D M Colony, Bihar Sharif - BSPCB",04-04-2024 06:00:00,25.204762,85.514960,PM2.5,45,117,82
India,Bihar,Chhapra,"Darshan Nagar, Chhapra - BSPCB",04-04-2024 06:00:00,25.7808257,84.7446768,CO,33,68,51
India,Bihar,Gaya,"SFTI Kusdihra, Gaya - BSPCB",04-04-2024 06:00:00,24.762518,84.982348,PM10,NA,NA,NA
India,Bihar,Hajipur,"Industrial Area, Hajipur - BSPCB",04-04-2024 06:00:00,25.697189,85.245900,NH3,1,3,2
India,Bihar,Katihar,"Mirchaibari, Katihar - BSPCB",04-04-2024 06:00:00,25.560083,87.553265,PM2.5,NA,NA,NA
India,Bihar,Katihar,"Mirchaibari, Katihar - BSPCB",04-04-2024 06:00:00,25.560083,87.553265,SO2,NA,NA,NA
India,Bihar,Manguraha,"Forest Rest House, Manguraha - BSPCB",04-04-2024 06:00:00,27.308328,84.531742,SO2,NA,NA,NA
India,Bihar,Manguraha,"Forest Rest House, Manguraha - BSPCB",04-04-2024 06:00:00,27.308328,84.531742,CO,26,72,34
India,Bihar,Motihari,"Gandak Colony, Motihari - BSPCB",04-04-2024 06:00:00,26.63086,84.90051,NH3,7,14,11
India,Bihar,Munger,"Town Hall, Munger - BSPCB",04-04-2024 06:00:00,25.376776,86.471523,NH3,1,2,2
India,Bihar,Munger,"Town Hall, Munger - BSPCB",04-04-2024 06:00:00,25.376776,86.471523,CO,5,8,6
India,Bihar,Muzaffarpur,"MIT-Daudpur Kothi, Muzaffarpur - BSPCB",04-04-2024 06:00:00,26.1403345,85.3650192,PM2.5,78,322,159
India,Bihar,Muzaffarpur,"Muzaffarpur Collectorate, Muzaffarpur - BSPCB",04-04-2024 06:00:00,26.1209,85.3647,OZONE,43,126,49
India,Bihar,Patna,"DRM Office Danapur, Patna - BSPCB",04-04-2024 06:00:00,25.586562,85.043586,PM10,NA,NA,NA
India,Bihar,Patna,"DRM Office Danapur, Patna - BSPCB",04-04-2024 06:00:00,25.586562,85.043586,NO2,NA,NA,NA
India,Bihar,Patna,"Govt. High School Shikarpur, Patna - BSPCB",04-04-2024 06:00:00,25.592539,85.227158,PM2.5,100,302,184
India,Bihar,Patna,"Govt. High School Shikarpur, Patna - BSPCB",04-04-2024 06:00:00,25.592539,85.227158,SO2,8,13,10
India,Bihar,Patna,"Govt. High School Shikarpur, Patna - BSPCB",04-04-2024 06:00:00,25.592539,85.227158,CO,32,64,47
India,Bihar,Patna,"IGSC Planetarium Complex, Patna - BSPCB",04-04-2024 06:00:00,25.610369,85.132568,CO,12,13,12
India,Bihar,Patna,"Muradpur, Patna - BSPCB",04-04-2024 06:00:00,25.619651,85.147382,PM2.5,119,373,290
India,Bihar,Patna,"Rajbansi Nagar, Patna - BSPCB",04-04-2024 06:00:00,25.599486,85.113666,NO2,22,44,29
India,Bihar,Patna,"Rajbansi Nagar, Patna - BSPCB",04-04-2024 06:00:00,25.599486,85.113666,SO2,4,24,12
India,Bihar,Patna,"Rajbansi Nagar, Patna - BSPCB",04-04-2024 06:00:00,25.599486,85.113666,OZONE,2,93,8
India,Bihar,Patna,"Samanpura, Patna - BSPCB",04-04-2024 06:00:00,25.596727,85.085624,NO2,24,70,43
India,Bihar,Patna,"Samanpura, Patna - BSPCB",04-04-2024 06:00:00,25.596727,85.085624,NH3,23,47,37
India,Bihar,Patna,"Samanpura, Patna - BSPCB",04-04-2024 06:00:00,25.596727,85.085624,OZONE,28,33,32
India,Bihar,Purnia,"Mariam Nagar, Purnia - BSPCB",04-04-2024 06:00:00,25.366336,87.117468,PM10,102,407,184
India,Bihar,Purnia,"Mariam Nagar, Purnia - BSPCB",04-04-2024 06:00:00,25.366336,87.117468,OZONE,5,25,9
India,Bihar,Rajgir,"Dangi Tola, Rajgir - BSPCB",04-04-2024 06:00:00,25.03280,85.41948,PM2.5,18,58,31
India,Bihar,Saharsa,"Police Line, Saharsa - BSPCB",04-04-2024 06:00:00,25.892357,86.590325,PM2.5,10,220,85
India,Bihar,Samastipur,"DM Office_Kasipur, Samastipur - BSPCB",04-04-2024 06:00:00,25.859655,85.77944,PM2.5,37,325,127
India,Bihar,Samastipur,"DM Office_Kasipur, Samastipur - BSPCB",04-04-2024 06:00:00,25.859655,85.77944,PM10,54,232,125
India,Bihar,Samastipur,"DM Office_Kasipur, Samastipur - BSPCB",04-04-2024 06:00:00,25.859655,85.77944,NO2,5,31,14
India,Bihar,Samastipur,"DM Office_Kasipur, Samastipur - BSPCB",04-04-2024 06:00:00,25.859655,85.77944,SO2,2,16,11
India,Bihar,Sasaram,"Dada Peer, Sasaram - BSPCB",04-04-2024 06:00:00,24.952822,84.002396,PM2.5,13,69,35
India,Bihar,Sasaram,"Dada Peer, Sasaram - BSPCB",04-04-2024 06:00:00,24.952822,84.002396,NH3,7,13,9
India,Bihar,Sasaram,"Dada Peer, Sasaram - BSPCB",04-04-2024 06:00:00,24.952822,84.002396,CO,47,130,114
India,Chandigarh,Chandigarh,"Sector 22, Chandigarh - CPCC",04-04-2024 06:00:00,30.735567,76.775714,NO2,22,122,53
India,Chandigarh,Chandigarh,"Sector 22, Chandigarh - CPCC",04-04-2024 06:00:00,30.735567,76.775714,OZONE,7,182,59
India,Chandigarh,Chandigarh,"Sector-25, Chandigarh - CPCC",04-04-2024 06:00:00,30.751462,76.762879,NO2,6,50,20
India,Chandigarh,Chandigarh,"Sector-53, Chandigarh - CPCC",04-04-2024 06:00:00,30.719859,76.738637,PM2.5,27,290,111
India,Chandigarh,Chandigarh,"Sector-53, Chandigarh - CPCC",04-04-2024 06:00:00,30.719859,76.738637,PM10,40,191,114
India,Chandigarh,Chandigarh,"Sector-53, Chandigarh - CPCC",04-04-2024 06:00:00,30.719859,76.738637,SO2,14,51,28
India,Chhattisgarh,Bhilai,"32Bungalows, Bhilai - CECB",04-04-2024 06:00:00,21.194815,81.314770,SO2,4,20,10
India,Chhattisgarh,Bhilai,"Hathkhoj, Bhilai - CECB",04-04-2024 06:00:00,21.224231,81.408350,CO,8,90,41
India,Chhattisgarh,Bilaspur,"Mangala, Bilaspur - NTPC",04-04-2024 06:00:00,22.08815,82.13737,PM2.5,58,112,83
India,Chhattisgarh,Korba,"Rampur, Korba - CECB",04-04-2024 06:00:00,22.368195,82.746431,OZONE,2,12,3
India,Chhattisgarh,Korba,"Urja Nagar, Korba - CECB",04-04-2024 06:00:00,22.348441,82.549611,PM2.5,NA,NA,NA
India,Chhattisgarh,Kunjemura,"OP Jindal School, Kunjemura - CECB",04-04-2024 06:00:00,22.126650,83.483212,PM2.5,70,316,180
India,Chhattisgarh,Kunjemura,"OP Jindal School, Kunjemura - CECB",04-04-2024 06:00:00,22.126650,83.483212,SO2,10,76,30
India,Chhattisgarh,Raipur,"AIIMS, Raipur - CECB",04-04-2024 06:00:00,21.258815,81.578979,NH3,5,6,6
India,Chhattisgarh,Raipur,"Krishak Nagar, Raipur - CECB",04-04-2024 06:00:00,21.237755,81.705301,NO2,24,45,33
India,Chhattisgarh,Raipur,"Krishak Nagar, Raipur - CECB",04-04-2024 06:00:00,21.237755,81.705301,SO2,13,50,26
India,Chhattisgarh,Raipur,"Krishak Nagar, Raipur - CECB",04-04-2024 06:00:00,21.237755,81.705301,OZONE,2,55,11
India,Chhattisgarh,Raipur,"Siltara Phase-II, Raipur - CECB",04-04-2024 06:00:00,21.371751,81.664929,PM2.5,57,232,96
India,Chhattisgarh,Raipur,"Siltara Phase-II, Raipur - CECB",04-04-2024 06:00:00,21.371751,81.664929,NO2,37,78,57
India,Chhattisgarh,Tumidih,"OP Jindal Industrial Park, Tumidih - CECB",04-04-2024 06:00:00,22.06631475,83.33820077,PM10,65,430,156
India,Chhattisgarh,Tumidih,"OP Jindal Industrial Park, Tumidih - CECB",04-04-2024 06:00:00,22.06631475,83.33820077,OZONE,10,132,28
India,Delhi,Delhi,"Alipur, Delhi - DPCC",04-04-2024 06:00:00,28.815329,77.153010,NH3,3,6,4
India,Delhi,Delhi,"Ashok Vihar, Delhi - DPCC",04-04-2024 06:00:00,28.695381,77.181665,PM10,78,315,194
India,Delhi,Delhi,"Burari Crossing, Delhi - IMD",04-04-2024 06:00:00,28.7256504,77.2011573,PM10,NA,NA,NA
India,Delhi,Delhi,"CRRI Mathura Road, Delhi - IMD",04-04-2024 06:00:00,28.5512005,77.2735737,OZONE,1,157,31
India,Delhi,Delhi,"Chandni Chowk, Delhi - IITM",04-04-2024 06:00:00,28.656756,77.227234,NO2,NA,NA,NA
India,Delhi,Delhi,"DTU, Delhi - CPCB",04-04-2024 06:00:00,28.7500499,77.1112615,NO2,11,30,19
India,Delhi,Delhi,"Dr. Karni Singh Shooting Range, Delhi - DPCC",04-04-2024 06:00:00,28.498571,77.264840,PM2.5,45,308,143
India,Delhi,Delhi,"Dr. Karni Singh Shooting Range, Delhi - DPCC",04-04-2024 06:00:00,28.498571,77.264840,NH3,5,7,6
India,Delhi,Delhi,"IGI Airport (T3), Delhi - IMD",04-04-2024 06:00:00,28.5627763,77.1180053,PM2.5,NA,NA,NA
India,Delhi,Delhi,"IGI Airport (T3), Delhi - IMD",04-04-2024 06:00:00,28.5627763,77.1180053,PM10,NA,NA,NA
India,Delhi,Delhi,"IHBAS, Dilshad Garden, Delhi - CPCB",04-04-2024 06:00:00,28.6811736,77.3025234,PM10,118,299,177
India,Delhi,Delhi,"ITO, Delhi - CPCB",04-04-2024 06:00:00,28.628624,77.241060,PM10,36,123,69
India,Delhi,Delhi,"ITO, Delhi - CPCB",04-04-2024 06:00:00,28.628624,77.241060,CO,20,108,66
India,Delhi,Delhi,"ITO, Delhi - CPCB",04-04-2024 06:00:00,28.628624,77.241060,OZONE,12,115,18
India,Delhi,Delhi,"Jahangirpuri, Delhi - DPCC",04-04-2024 06:00:00,28.732820,77.170633,PM10,104,407,209
India,Delhi,Delhi,"Jahangirpuri, Delhi - DPCC",04-04-2024 06:00:00,28.732820,77.170633,NH3,1,18,13
India,Delhi,Delhi,"Jawaharlal Nehru Stadium, Delhi - DPCC",04-04-2024 06:00:00,28.580280,77.233829,NH3,4,8,6
India,Delhi,Delhi,"Lodhi Road, Delhi - IITM",04-04-2024 06:00:00,28.588333,77.221667,PM10,137,500,277
India,Delhi,Delhi,"Lodhi Road, Delhi - IITM",04-04-2024 06:00:00,28.588333,77.221667,NH3,7,13,10
India,Delhi,Delhi,"Lodhi Road, Delhi - IITM",04-04-2024 06:00:00,28.588333,77.221667,CO,60,67,65
India,Delhi,Delhi,"Major Dhyan Chand National Stadium, Delhi - DPCC",04-04-2024 06:00:00,28.611281,77.237738,PM10,61,197,136
India,Delhi,Delhi,"Major Dhyan Chand National Stadium, Delhi - DPCC",04-04-2024 06:00:00,28.611281,77.237738,NO2,34,174,93
India,Delhi,Delhi,"Major Dhyan Chand National Stadium, Delhi - DPCC",04-04-2024 06:00:00,28.611281,77.237738,SO2,17,28,21
India,Delhi,Delhi,"NSIT Dwarka, Delhi - CPCB",04-04-2024 06:00:00,28.60909,77.0325413,CO,28,86,47
India,Delhi,Delhi,"Najafgarh, Delhi - DPCC",04-04-2024 06:00:00,28.570173,76.933762,NH3,1,5,3
India,Delhi,Delhi,"Nehru Nagar, Delhi - DPCC",04-04-2024 06:00:00,28.567890,77.250515,PM10,69,277,161
India,Delhi,Delhi,"New Moti Bagh, Delhi - MHUA",04-04-2024 06:00:00,28.57834,77.18400,NO2,1,28,9
India,Delhi,Delhi,"Okhla Phase-2, Delhi - DPCC",04-04-2024 06:00:00,28.530785,77.271255,SO2,11,21,15
India,Delhi,Delhi,"Okhla Phase-2, Delhi - DPCC",04-04-2024 06:00:00,28.530785,77.271255,CO,10,139,70
India,Delhi,Delhi,"Patparganj, Delhi - DPCC",04-04-2024 06:00:00,28.623763,77.287209,PM2.5,37,342,142
India,Delhi,Delhi,"Patparganj, Delhi - DPCC",04-04-2024 06:00:00,28.623763,77.287209,CO,4,102,47
India,Delhi,Delhi,"Patparganj, Delhi - DPCC",04-04-2024 06:00:00,28.623763,77.287209,OZONE,5,219,22
India,Delhi,Delhi,"Punjabi Bagh, Delhi - DPCC",04-04-2024 06:00:00,28.674045,77.131023,PM10,64,376,181
India,Delhi,Delhi,"Punjabi Bagh, Delhi - DPCC",04-04-2024 06:00:00,28.674045,77.131023,NH3,4,5,5
India,Delhi,Delhi,"Pusa, Delhi - DPCC",04-04-2024 06:00:00,28.639652,77.146275,NH3,3,10,7
India,Delhi,Delhi,"Pusa, Delhi - IMD",04-04-2024 06:00:00,28.636110,77.173332,CO,56,99,90
India,Delhi,Delhi,"R K Puram, Delhi - DPCC",04-04-2024 06:00:00,28.563262,77.186937,PM10,72,315,167
India,Delhi,Delhi,"Rohini, Delhi - DPCC",04-04-2024 06:00:00,28.732528,77.119920,PM10,86,271,177
India,Delhi,Delhi,"Rohini, Delhi - DPCC",04-04-2024 06:00:00,28.732528,77.119920,NO2,13,110,60
India,Delhi,Delhi,"Shadipur, Delhi - CPCB",04-04-2024 06:00:00,28.6514781,77.1473105,OZONE,15,42,26
India,Delhi,Delhi,"Sirifort, Delhi - CPCB",04-04-2024 06:00:00,28.5504249,77.2159377,CO,15,108,80
India,Delhi,Delhi,"Sirifort, Delhi - CPCB",04-04-2024 06:00:00,28.5504249,77.2159377,OZONE,2,65,3
India,Delhi,Delhi,"Sonia Vihar, Delhi - DPCC",04-04-2024 06:00:00,28.710508,77.249485,SO2,15,37,24
India,Delhi,Delhi,"Sri Aurobindo Marg, Delhi - DPCC",04-04-2024 06:00:00,28.531346,77.190156,OZONE,4,26,7
India,Delhi,Delhi,"Vivek Vihar, Delhi - DPCC",04-04-2024 06:00:00,28.672342,77.315260,OZONE,4,138,16
India,Delhi,Delhi,"Wazirpur, Delhi - DPCC",04-04-2024 06:00:00,28.699793,77.165453,PM2.5,51,315,152
India,Delhi,Delhi,"Wazirpur, Delhi - DPCC",04-04-2024 06:00:00,28.699793,77.165453,PM10,117,284,192
India,Delhi,Delhi,"Wazirpur, Delhi - DPCC",04-04-2024 06:00:00,28.699793,77.165453,NO2,65,207,130
India,Delhi,Delhi,"Wazirpur, Delhi - DPCC",04-04-2024 06:00:00,28.699793,77.165453,CO,3,104,41
India,Gujarat,Ahmedabad,"Chandkheda, Ahmedabad - IITM",04-04-2024 06:00:00,23.107969,72.574648,CO,48,80,71
India,Gujarat,Ahmedabad,"Gyaspur, Ahmedabad - IITM",04-04-2024 06:00:00,22.977134,72.553024,SO2,3,5,4
India,Gujarat,Ahmedabad,"Gyaspur, Ahmedabad - IITM",04-04-2024 06:00:00,22.977134,72.553024,OZONE,5,30,9
India,Gujarat,Ahmedabad,"Raikhad, Ahmedabad - IITM",04-04-2024 06:00:00,23.020509,72.579261,SO2,6,21,10
India,Gujarat,Ahmedabad,"Raikhad, Ahmedabad - IITM",04-04-2024 06:00:00,23.020509,72.579261,CO,24,74,41
India,Gujarat,Ahmedabad,"Rakhial, Ahmedabad - IITM",04-04-2024 06:00:00,23.016834,72.625775,NH3,10,21,18
India,Gujarat,Ahmedabad,"Rakhial, Ahmedabad - IITM",04-04-2024 06:00:00,23.016834,72.625775,OZONE,9,38,12
India,Gujarat,Ahmedabad,"SAC ISRO Satellite, Ahmedabad - IITM",04-04-2024 06:00:00,23.023389,72.515201,NH3,3,3,3
India,Gujarat,Ankleshwar,"GIDC, Ankleshwar - GPCB",04-04-2024 06:00:00,21.613267,73.010555,PM10,67,114,85
India,Gujarat,Gandhinagar,"IIPHG Lekawada, Gandhinagar - IITM",04-04-2024 06:00:00,23.243639,72.68994,NH3,6,7,7
India,Gujarat,Surat,"Science Center, Surat - SMC",04-04-2024 06:00:00,21.170046,72.795405,NO2,33,59,42
India,Gujarat,Surat,"Science Center, Surat - SMC",04-04-2024 06:00:00,21.170046,72.795405,SO2,2,9,5
India,Gujarat,Vapi,"Phase-1 GIDC, Vapi - GPCB",04-04-2024 06:00:00,20.362421,72.918013,PM2.5,43,110,67
India,Gujarat,Vapi,"Phase-1 GIDC, Vapi - GPCB",04-04-2024 06:00:00,20.362421,72.918013,NO2,6,7,6
India,Gujarat,Vatva,"Phase-4 GIDC, Vatva - GPCB",04-04-2024 06:00:00,22.969611,72.643500,NH3,1,9,5
India,Gujarat,Vatva,"Phase-4 GIDC, Vatva - GPCB",04-04-2024 06:00:00,22.969611,72.643500,SO2,5,91,35
India,Gujarat,Vatva,"Phase-4 GIDC, Vatva - GPCB",04-04-2024 06:00:00,22.969611,72.643500,OZONE,8,37,13
India,Haryana,Bahadurgarh,"Arya Nagar, Bahadurgarh - HSPCB",04-04-2024 06:00:00,28.6701,76.9254,SO2,5,92,28
India,Haryana,Charkhi Dadri,"Mini Secretariat, Charkhi Dadri - HSPCB",04-04-2024 06:00:00,28.593883,76.270653,CO,28,105,45
India,Haryana,Faridabad,"New Industrial Town, Faridabad - HSPCB",04-04-2024 06:00:00,28.39072,77.30059,PM10,123,465,243
India,Haryana,Faridabad,"New Industrial Town, Faridabad - HSPCB",04-04-2024 06:00:00,28.39072,77.30059,OZONE,5,149,15
India,Haryana,Faridabad,"Sector 30, Faridabad - HSPCB",04-04-2024 06:00:00,28.4417,77.3217,CO,40,83,60
India,Haryana,Fatehabad,"Huda Sector, Fatehabad - HSPCB",04-04-2024 06:00:00,29.503664,75.467934,SO2,11,11,11
India,Haryana,Gurugram,"Teri Gram, Gurugram - HSPCB",04-04-2024 06:00:00,28.4275,77.1465,PM2.5,64,385,223
India,Haryana,Gurugram,"Vikas Sadan, Gurugram - HSPCB",04-04-2024 06:00:00,28.4501238,77.0263051,OZONE,7,67,10
India,Haryana,Hisar,"Urban Estate-II, Hisar - HSPCB",04-04-2024 06:00:00,29.140560,75.744941,NO2,NA,NA,NA
India,Haryana,Jind,"Police Lines, Jind - HSPCB",04-04-2024 06:00:00,29.307814,76.337619,PM10,34,127,78
India,Haryana,Jind,"Police Lines, Jind - HSPCB",04-04-2024 06:00:00,29.307814,76.337619,NH3,2,6,4
India,Haryana,Jind,"Police Lines, Jind - HSPCB",04-04-2024 06:00:00,29.307814,76.337619,SO2,1,44,15
India,Haryana,Kaithal,"Rishi Nagar, Kaithal - HSPCB",04-04-2024 06:00:00,29.8006,76.4155,SO2,18,121,51
India,Haryana,Kurukshetra,"Sector-7, Kurukshetra - HSPCB",04-04-2024 06:00:00,29.966942,76.875879,PM10,64,123,92
India,Haryana,Mandikhera,"General Hospital, Mandikhera - HSPCB",04-04-2024 06:00:00,27.9002,76.9938,CO,13,36,29
India,Haryana,Manesar,"Sector-2 IMT, Manesar - HSPCB",04-04-2024 06:00:00,28.360699,76.936090,NH3,1,3,2
India,Haryana,Manesar,"Sector-2 IMT, Manesar - HSPCB",04-04-2024 06:00:00,28.360699,76.936090,SO2,1,16,6
India,Haryana,Narnaul,"Shastri Nagar, Narnaul - HSPCB",04-04-2024 06:00:00,28.060249,76.113115,SO2,13,39,15
India,Haryana,Narnaul,"Shastri Nagar, Narnaul - HSPCB",04-04-2024 06:00:00,28.060249,76.113115,CO,16,42,28
India,Haryana,Narnaul,"Shastri Nagar, Narnaul - HSPCB",04-04-2024 06:00:00,28.060249,76.113115,OZONE,39,56,43
India,Haryana,Palwal,"Shyam Nagar, Palwal - HSPCB",04-04-2024 06:00:00,28.1485564,77.3320667,PM2.5,56,86,69
India,Haryana,Palwal,"Shyam Nagar, Palwal - HSPCB",04-04-2024 06:00:00,28.1485564,77.3320667,NH3,8,9,9
India,Haryana,Sirsa,"F-Block, Sirsa - HSPCB",04-04-2024 06:00:00,29.536400,75.015800,CO,30,48,38
India,Haryana,Sonipat,"Murthal, Sonipat - HSPCB",04-04-2024 06:00:00,29.027200,77.062100,PM2.5,69,125,74
India,Haryana,Yamuna Nagar,"Gobind Pura, Yamuna Nagar - HSPCB",04-04-2024 06:00:00,30.1480566,77.2893471,PM10,72,151,104
India,Haryana,Yamuna Nagar,"Gobind Pura, Yamuna Nagar - HSPCB",04-04-2024 06:00:00,30.1480566,77.2893471,OZONE,19,42,27
India,Himachal Pradesh,Baddi,"HIMUDA Complex Phase-1, Baddi - HPPCB",04-04-2024 06:00:00,30.943887,76.801991,NO2,8,47,26
India,Himachal Pradesh,Baddi,"HIMUDA Complex Phase-1, Baddi - HPPCB",04-04-2024 06:00:00,30.943887,76.801991,CO,4,47,25
India,Jharkhand,Dhanbad,"Kalakusuma, Dhanbad - DMC",04-04-2024 06:00:00,23.811548,86.481238,PM2.5,1,148,53
India,Karnataka,Bagalkot,"Vidayagiri, Bagalkot - KSPCB",04-04-2024 06:00:00,16.172806,75.659694,PM2.5,27,41,39
India,Karnataka,Bagalkot,"Vidayagiri, Bagalkot - KSPCB",04-04-2024 06:00:00,16.172806,75.659694,PM10,49,50,50
India,Karnataka,Belgaum,"Ramteerth Nagar, Belgaum - KSPCB",04-04-2024 06:00:00,15.888653,74.541751,NO2,NA,NA,NA
India,Karnataka,Belgaum,"Ramteerth Nagar, Belgaum - KSPCB",04-04-2024 06:00:00,15.888653,74.541751,OZONE,17,19,18
India,Karnataka,Bengaluru,"BTM Layout, Bengaluru - CPCB",04-04-2024 06:00:00,12.9135218,77.5950804,CO,44,44,44
India,Karnataka,Bengaluru,"Bapuji Nagar, Bengaluru - KSPCB",04-04-2024 06:00:00,12.951913,77.539784,OZONE,5,26,19
India,Karnataka,Bengaluru,"Hebbal, Bengaluru - KSPCB",04-04-2024 06:00:00,13.029152,77.585901,NO2,NA,NA,NA
India,Karnataka,Bengaluru,"Jigani, Bengaluru - KSPCB",04-04-2024 06:00:00,12.7816279,77.6299145,PM2.5,11,179,46
India,Karnataka,Bengaluru,"Kasturi Nagar, Bengaluru - KSPCB",04-04-2024 06:00:00,13.003872,77.664217,SO2,9,10,10
India,Karnataka,Bengaluru,"RVCE-Mailasandra, Bengaluru - KSPCB",04-04-2024 06:00:00,12.921418,77.502466,PM2.5,44,137,86
India,Karnataka,Bengaluru,"Sanegurava Halli, Bengaluru - KSPCB",04-04-2024 06:00:00,12.990328,77.5431385,SO2,2,3,3
India,Karnataka,Bengaluru,"Sanegurava Halli, Bengaluru - KSPCB",04-04-2024 06:00:00,12.990328,77.5431385,CO,6,50,12
India,Karnataka,Bengaluru,"Shivapura_Peenya, Bengaluru - KSPCB",04-04-2024 06:00:00,13.0246342,77.5080115,PM2.5,1,92,32
India,Karnataka,Bengaluru,"Shivapura_Peenya, Bengaluru - KSPCB",04-04-2024 06:00:00,13.0246342,77.5080115,PM10,35,87,63
India,Karnataka,Bengaluru,"Silk Board, Bengaluru - KSPCB",04-04-2024 06:00:00,12.917348,77.622813,NO2,19,26,22
India,Karnataka,Chamarajanagar,"Urban, Chamarajanagar - KSPCB",04-04-2024 06:00:00,11.55358,76.55521,NO2,22,35,29
India,Karnataka,Chamarajanagar,"Urban, Chamarajanagar - KSPCB",04-04-2024 06:00:00,11.55358,76.55521,OZONE,14,52,16
India,Karnataka,Chikkamagaluru,"Kalyana Nagara, Chikkamagaluru - KSPCB",04-04-2024 06:00:00,13.328028,75.797056,CO,11,123,21
India,Karnataka,Dharwad,"Kalabhavan, Dharwad - KSPCB",04-04-2024 06:00:00,15.459706,75.008381,PM10,66,81,71
India,Karnataka,Dharwad,"Kalabhavan, Dharwad - KSPCB",04-04-2024 06:00:00,15.459706,75.008381,OZONE,2,30,5
India,Karnataka,Gadag,"Panchal Nagar, Gadag - KSPCB",04-04-2024 06:00:00,15.411456,75.638133,OZONE,32,75,41
India,Karnataka,Hassan,"B.Katihalli, Hassan - KSPCB",04-04-2024 06:00:00,13.008556,76.125258,PM10,62,155,107
India,Karnataka,Hassan,"B.Katihalli, Hassan - KSPCB",04-04-2024 06:00:00,13.008556,76.125258,NH3,3,4,3
India,Karnataka,Hassan,"B.Katihalli, Hassan - KSPCB",04-04-2024 06:00:00,13.008556,76.125258,CO,2,4,3
India,Karnataka,Kalaburagi,"Lal Bahadur Shastri Nagar, Kalaburagi - KSPCB",04-04-2024 06:00:00,17.321993,76.822628,PM2.5,34,132,75
India,Karnataka,Kalaburagi,"Lal Bahadur Shastri Nagar, Kalaburagi - KSPCB",04-04-2024 06:00:00,17.321993,76.822628,OZONE,22,97,36
India,Karnataka,Kalaburagi,"Mahatma Basaveswar Colony, Kalaburgi - KSPCB",04-04-2024 06:00:00,17.336318,76.847397,PM10,40,119,57
India,Karnataka,Kalaburagi,"Mahatma Basaveswar Colony, Kalaburgi - KSPCB",04-04-2024 06:00:00,17.336318,76.847397,NH3,2,4,3
India,Karnataka,Kalaburagi,"Mahatma Basaveswar Colony, Kalaburgi - KSPCB",04-04-2024 06:00:00,17.336318,76.847397,CO,37,80,50
India,Karnataka,Kalaburagi,"Mahatma Basaveswar Colony, Kalaburgi - KSPCB",04-04-2024 06:00:00,17.336318,76.847397,OZONE,4,20,8
India,Karnataka,Karwar,"KHB Colony, Karwar - KSPCB",04-04-2024 06:00:00,14.816666,74.141003,SO2,18,19,19
India,Karnataka,Kolar,"Tamaka Ind. Area, Kolar - KSPCB",04-04-2024 06:00:00,13.1276288,78.1570122,NO2,20,44,28
India,Karnataka,Kolar,"Tamaka Ind. Area, Kolar - KSPCB",04-04-2024 06:00:00,13.1276288,78.1570122,CO,6,6,6
India,Karnataka,Koppal,"Diwator Nagar, Koppal - KSPCB",04-04-2024 06:00:00,15.347630,76.181767,PM2.5,21,48,37
India,Karnataka,Koppal,"Diwator Nagar, Koppal - KSPCB",04-04-2024 06:00:00,15.347630,76.181767,NO2,2,79,42
India,Karnataka,Koppal,"Diwator Nagar, Koppal - KSPCB",04-04-2024 06:00:00,15.347630,76.181767,OZONE,22,66,36
India,Karnataka,Mysuru,"Hebbal 1st Stage, Mysuru - KSPCB",04-04-2024 06:00:00,12.21041,76.37376,OZONE,8,104,13
India,Karnataka,Raichur,"Haji Colony, Raichur - KSPCB",04-04-2024 06:00:00,16.208139,77.348417,PM2.5,19,61,35
India,Karnataka,Raichur,"Haji Colony, Raichur - KSPCB",04-04-2024 06:00:00,16.208139,77.348417,NH3,1,3,2
India,Karnataka,Raichur,"Haji Colony, Raichur - KSPCB",04-04-2024 06:00:00,16.208139,77.348417,CO,96,117,107
India,Karnataka,Ramanagara,"Vijay Nagar, Ramanagara - KSPCB",04-04-2024 06:00:00,12.733409,77.298051,OZONE,27,31,29
India,Karnataka,Shivamogga,"Vinoba Nagara, Shivamogga - KSPCB",04-04-2024 06:00:00,13.940000,75.555917,PM10,46,83,55
India,Karnataka,Shivamogga,"Vinoba Nagara, Shivamogga - KSPCB",04-04-2024 06:00:00,13.940000,75.555917,NH3,2,3,3
India,Karnataka,Shivamogga,"Vinoba Nagara, Shivamogga - KSPCB",04-04-2024 06:00:00,13.940000,75.555917,SO2,1,12,6
India,Karnataka,Tumakuru,"Thimmalapura, Tumakuru - KSPCB",04-04-2024 06:00:00,13.377516,77.099072,NO2,NA,NA,NA
India,Karnataka,Udupi,"Brahmagiri, Udupi - KSPCB",04-04-2024 06:00:00,13.34194444,74.74694444,CO,23,48,36
India,Karnataka,Vijayapura,"Ibrahimpur, Vijayapura - KSPCB",04-04-2024 06:00:00,16.802639,75.722694,PM10,41,43,42
India,Karnataka,Vijayapura,"Ibrahimpur, Vijayapura - KSPCB",04-04-2024 06:00:00,16.802639,75.722694,NO2,17,19,19
India,Kerala,Eloor,"Udyogamandal, Eloor - Kerala PCB",04-04-2024 06:00:00,10.073232,76.302765,SO2,1,3,2
India,Kerala,Kollam,"Polayathode, Kollam - Kerala PCB",04-04-2024 06:00:00,8.8787,76.6073,PM2.5,16,69,36
India,Kerala,Kollam,"Polayathode, Kollam - Kerala PCB",04-04-2024 06:00:00,8.8787,76.6073,PM10,32,64,44
India,Kerala,Kollam,"Polayathode, Kollam - Kerala PCB",04-04-2024 06:00:00,8.8787,76.6073,NO2,8,9,8
India,Kerala,Thiruvananthapuram,"Kariavattom, Thiruvananthapuram - Kerala PCB",04-04-2024 06:00:00,8.563700,76.886500,PM2.5,73,89,82
India,Kerala,Thiruvananthapuram,"Plammoodu, Thiruvananthapuram - Kerala PCB",04-04-2024 06:00:00,8.5149093,76.9435879,NH3,1,1,1
India,Kerala,Thrissur,"Corporation Ground, Thrissur - Kerala PCB",04-04-2024 06:00:00,10.532400,76.215900,PM2.5,44,50,47
India,Kerala,Thrissur,"Corporation Ground, Thrissur - Kerala PCB",04-04-2024 06:00:00,10.532400,76.215900,PM10,60,68,64
India,Kerala,Thrissur,"Corporation Ground, Thrissur - Kerala PCB",04-04-2024 06:00:00,10.532400,76.215900,NH3,NA,NA,NA
India,Madhya Pradesh,Bhopal,"Idgah Hills, Bhopal - MPPCB",04-04-2024 06:00:00,23.264759,77.381568,PM2.5,22,117,65
India,Madhya Pradesh,Bhopal,"Idgah Hills, Bhopal - MPPCB",04-04-2024 06:00:00,23.264759,77.381568,NH3,5,7,6
India,Madhya Pradesh,Bhopal,"Paryavaran Parisar, Bhopal - MPPCB",04-04-2024 06:00:00,23.210494,77.425409,CO,8,72,25
India,Madhya Pradesh,Bhopal,"T T Nagar, Bhopal - MPPCB",04-04-2024 06:00:00,23.233584,77.400574,CO,24,74,35
India,Madhya Pradesh,Dewas,"Bhopal Chauraha, Dewas - MPPCB",04-04-2024 06:00:00,22.9682591,76.064118,PM2.5,66,323,174
India,Madhya Pradesh,Dewas,"Bhopal Chauraha, Dewas - MPPCB",04-04-2024 06:00:00,22.9682591,76.064118,SO2,4,31,23
India,Madhya Pradesh,Dewas,"Bhopal Chauraha, Dewas - MPPCB",04-04-2024 06:00:00,22.9682591,76.064118,OZONE,31,96,43
India,Madhya Pradesh,Gwalior,"City Center, Gwalior - MPPCB",04-04-2024 06:00:00,26.203442,78.193251,NH3,6,8,7
India,Madhya Pradesh,Gwalior,"City Center, Gwalior - MPPCB",04-04-2024 06:00:00,26.203442,78.193251,CO,31,100,66
India,Madhya Pradesh,Indore,"Maguda Nagar, Indore - IMC",04-04-2024 06:00:00,22.7524,75.8872,PM2.5,55,206,102
India,Madhya Pradesh,Indore,"Maguda Nagar, Indore - IMC",04-04-2024 06:00:00,22.7524,75.8872,NO2,4,6,5
India,Madhya Pradesh,Indore,"Maguda Nagar, Indore - IMC",04-04-2024 06:00:00,22.7524,75.8872,CO,26,33,31
India,Madhya Pradesh,Indore,"Residency Area, Indore - IMC",04-04-2024 06:00:00,22.7084,75.8815,OZONE,11,19,12
India,Madhya Pradesh,Jabalpur,"Gupteshwar, Jabalpur - JMC",04-04-2024 06:00:00,23.142888,79.916147,PM10,69,143,106
India,Madhya Pradesh,Jabalpur,"Gupteshwar, Jabalpur - JMC",04-04-2024 06:00:00,23.142888,79.916147,NO2,14,74,40
India,Madhya Pradesh,Jabalpur,"Gupteshwar, Jabalpur - JMC",04-04-2024 06:00:00,23.142888,79.916147,CO,22,90,58
India,Madhya Pradesh,Jabalpur,"Marhatal, Jabalpur - MPPCB",04-04-2024 06:00:00,23.168606,79.932247,OZONE,9,143,21
India,Madhya Pradesh,Jabalpur,"Suhagi, Jabalpur - JMC",04-04-2024 06:00:00,23.218135,79.957770,CO,16,85,74
India,Madhya Pradesh,Mandideep,"Sector-D Industrial Area, Mandideep - MPPCB",04-04-2024 06:00:00,23.108440,77.511428,NH3,4,6,5
India,Madhya Pradesh,Pithampur,"Sector-2 Industrial Area, Pithampur - MPPCB",04-04-2024 06:00:00,22.624758,75.675238,PM10,101,190,139
India,Madhya Pradesh,Sagar,"Civil Lines, Sagar - MPPCB",04-04-2024 06:00:00,23.838586,78.759431,PM10,87,172,112
India,Madhya Pradesh,Sagar,"Civil Lines, Sagar - MPPCB",04-04-2024 06:00:00,23.838586,78.759431,NO2,8,67,26
India,Madhya Pradesh,Sagar,"Deen Dayal Nagar, Sagar - MPPCB",04-04-2024 06:00:00,23.8640158,78.80289321,NO2,13,101,36
India,Madhya Pradesh,Sagar,"Deen Dayal Nagar, Sagar - MPPCB",04-04-2024 06:00:00,23.8640158,78.80289321,CO,2,92,54
India,Madhya Pradesh,Satna,"Bandhavgar Colony, Satna - Birla Cement",04-04-2024 06:00:00,24.58434363,80.8549414,PM10,NA,NA,NA
India,Madhya Pradesh,Satna,"Bandhavgar Colony, Satna - Birla Cement",04-04-2024 06:00:00,24.58434363,80.8549414,OZONE,57,86,63
India,Madhya Pradesh,Ujjain,"Mahakaleshwar Temple, Ujjain - MPPCB",04-04-2024 06:00:00,23.182719 ,75.768218 ,CO,8,103,51
India,Madhya Pradesh,Ujjain,"Mahakaleshwar Temple, Ujjain - MPPCB",04-04-2024 06:00:00,23.182719 ,75.768218 ,OZONE,125,154,135
India,Maharashtra,Ahmednagar,"Tarakpur, Ahmednagar - MPCB",04-04-2024 06:00:00,19.10122,74.73339,NH3,3,5,4
India,Maharashtra,Ahmednagar,"Tarakpur, Ahmednagar - MPCB",04-04-2024 06:00:00,19.10122,74.73339,OZONE,30,144,99
India,Maharashtra,Amravati,"Shivneri Colony, Amravati - MPCB",04-04-2024 06:00:00,20.9402359,77.7895248,PM2.5,64,128,95
India,Maharashtra,Amravati,"Shivneri Colony, Amravati - MPCB",04-04-2024 06:00:00,20.9402359,77.7895248,NO2,12,79,37
India,Maharashtra,Amravati,"Shivneri Colony, Amravati - MPCB",04-04-2024 06:00:00,20.9402359,77.7895248,NH3,1,3,2
India,Maharashtra,Amravati,"Shivneri Colony, Amravati - MPCB",04-04-2024 06:00:00,20.9402359,77.7895248,SO2,22,23,22
India,Maharashtra,Amravati,"Shivneri Colony, Amravati - MPCB",04-04-2024 06:00:00,20.9402359,77.7895248,CO,14,84,28
India,Maharashtra,Amravati,"Shivneri Colony, Amravati - MPCB",04-04-2024 06:00:00,20.9402359,77.7895248,OZONE,3,123,23
India,Maharashtra,Aurangabad,"MIDC Chilkalthana, Aurangabad - MPCB",04-04-2024 06:00:00,19.875620,75.387310,NH3,3,4,4
India,Maharashtra,Aurangabad,"MIDC Chilkalthana, Aurangabad - MPCB",04-04-2024 06:00:00,19.875620,75.387310,CO,16,66,28
India,Maharashtra,Aurangabad,"More Chowk Waluj, Aurangabad - MPCB",04-04-2024 06:00:00,19.8389439,75.244448,OZONE,29,92,54
India,Maharashtra,Aurangabad,"Rachnakar Colony, Aurangabad - MPCB",04-04-2024 06:00:00,19.863756,75.321188,PM10,NA,NA,NA
India,Maharashtra,Aurangabad,"Rachnakar Colony, Aurangabad - MPCB",04-04-2024 06:00:00,19.863756,75.321188,NH3,NA,NA,NA
India,Maharashtra,Belapur,"CBD Belapur, Belapur - MPCB",04-04-2024 06:00:00,19.0243902,73.0406721,PM2.5,33,171,77
India,Maharashtra,Belapur,"CBD Belapur, Belapur - MPCB",04-04-2024 06:00:00,19.0243902,73.0406721,NH3,9,20,12
India,Maharashtra,Bhiwandi,"Gokul Nagar, Bhiwandi - MPCB",04-04-2024 06:00:00,19.309073,73.057223,OZONE,12,161,33
India,Maharashtra,Boisar,"Khaira, Boisar - MPCB",04-04-2024 06:00:00,19.786089,72.757971,PM10,NA,NA,NA
India,Maharashtra,Chandrapur,"Chauhan Colony, Chandrapur - MPCB",04-04-2024 06:00:00,19.962900,79.298714,PM10,72,149,103
India,Maharashtra,Chandrapur,"Chauhan Colony, Chandrapur - MPCB",04-04-2024 06:00:00,19.962900,79.298714,NH3,2,8,5
India,Maharashtra,Chandrapur,"MIDC Khutala, Chandrapur - MPCB",04-04-2024 06:00:00,19.9775302,79.2337086,NO2,27,76,51
India,Maharashtra,Chandrapur,"MIDC Khutala, Chandrapur - MPCB",04-04-2024 06:00:00,19.9775302,79.2337086,SO2,20,23,22
India,Maharashtra,Chandrapur,"MIDC Khutala, Chandrapur - MPCB",04-04-2024 06:00:00,19.9775302,79.2337086,OZONE,4,90,16
India,Maharashtra,Jalna,"Old MIDC, Jalna - MPCB",04-04-2024 06:00:00,19.854616,75.905894,PM2.5,55,79,68
India,Maharashtra,Jalna,"Old MIDC, Jalna - MPCB",04-04-2024 06:00:00,19.854616,75.905894,PM10,75,111,94
India,Maharashtra,Jalna,"Old MIDC, Jalna - MPCB",04-04-2024 06:00:00,19.854616,75.905894,SO2,2,8,3
India,Maharashtra,Kalyan,"Khadakpada, Kalyan - MPCB",04-04-2024 06:00:00,19.25292,73.142019,NH3,1,1,1
India,Maharashtra,Kalyan,"Khadakpada, Kalyan - MPCB",04-04-2024 06:00:00,19.25292,73.142019,CO,18,21,20
India,Maharashtra,Kolhapur,"Shivaji University, Kolhapur - MPCB",04-04-2024 06:00:00,16.6870449,74.2505872,NO2,14,27,21
India,Maharashtra,Kolhapur,"Sinchan Bhavan, Kolhapur - MPCB",04-04-2024 06:00:00,16.7143745,74.2426398,PM2.5,NA,NA,NA
India,Maharashtra,Kolhapur,"Sinchan Bhavan, Kolhapur - MPCB",04-04-2024 06:00:00,16.7143745,74.2426398,NO2,10,35,19
India,Maharashtra,Latur,"Sawe Wadi, Latur - MPCB",04-04-2024 06:00:00,18.39963,76.57452,PM10,84,133,102
India,Maharashtra,Latur,"Sawe Wadi, Latur - MPCB",04-04-2024 06:00:00,18.39963,76.57452,CO,8,173,21
India,Maharashtra,Latur,"Sawe Wadi, Latur - MPCB",04-04-2024 06:00:00,18.39963,76.57452,OZONE,30,83,80
India,Maharashtra,Mahad,"Kamble Tarf Birwadi, Mahad - MPCB",04-04-2024 06:00:00,18.1023399,73.4783687,NH3,8,10,10
India,Maharashtra,Mahad,"Kamble Tarf Birwadi, Mahad - MPCB",04-04-2024 06:00:00,18.1023399,73.4783687,SO2,11,27,16
India,Maharashtra,Malegaon,"Mahesh Nagar, Malegaon - MPCB",04-04-2024 06:00:00,20.555712,74.529236,NH3,5,7,6
India,Maharashtra,Mira-Bhayandar,"Bhayandar West, Mira-Bhayandar - MPCB",04-04-2024 06:00:00,19.296481,72.840923,NO2,6,31,15
India,Maharashtra,Mira-Bhayandar,"Bhayandar West, Mira-Bhayandar - MPCB",04-04-2024 06:00:00,19.296481,72.840923,CO,19,40,24
India,Maharashtra,Mumbai,"Bandra Kurla Complex, Mumbai - MPCB",04-04-2024 06:00:00,19.065931,72.862131,PM10,89,183,129
India,Maharashtra,Mumbai,"Borivali East, Mumbai - IITM",04-04-2024 06:00:00,19.23241,72.86895,PM10,53,136,101
India,Maharashtra,Mumbai,"Borivali East, Mumbai - IITM",04-04-2024 06:00:00,19.23241,72.86895,NH3,NA,NA,NA
India,Maharashtra,Mumbai,"Borivali East, Mumbai - MPCB",04-04-2024 06:00:00,19.2243333,72.8658113,OZONE,14,15,15
India,Maharashtra,Mumbai,"Byculla, Mumbai - BMC",04-04-2024 06:00:00,18.9767,72.8380,PM10,38,123,67
India,Maharashtra,Mumbai,"Chakala-Andheri East, Mumbai - IITM",04-04-2024 06:00:00,19.11074,72.86084,NH3,7,19,10
India,Maharashtra,Mumbai,"Chakala-Andheri East, Mumbai - IITM",04-04-2024 06:00:00,19.11074,72.86084,SO2,22,105,53
India,Maharashtra,Mumbai,"Chhatrapati Shivaji Intl. Airport (T2), Mumbai - MPCB",04-04-2024 06:00:00,19.10078,72.87462,SO2,18,25,22
India,Maharashtra,Mumbai,"Colaba, Mumbai - MPCB",04-04-2024 06:00:00,18.910000,72.820000,SO2,10,15,11
India,Maharashtra,Mumbai,"Kandivali West, Mumbai - BMC",04-04-2024 06:00:00,19.215859,72.831718,PM2.5,23,59,43
India,Maharashtra,Mumbai,"Kandivali West, Mumbai - BMC",04-04-2024 06:00:00,19.215859,72.831718,CO,9,42,12
India,Maharashtra,Mumbai,"Kherwadi_Bandra East, Mumbai - MPCB",04-04-2024 06:00:00,19.0632143,72.8456324,OZONE,1,81,23
India,Maharashtra,Mumbai,"Khindipada-Bhandup West, Mumbai - IITM",04-04-2024 06:00:00,19.1653323,72.922099,OZONE,6,38,9
India,Maharashtra,Mumbai,"Kurla, Mumbai - MPCB",04-04-2024 06:00:00,19.0863,72.8888,SO2,32,32,32
India,Maharashtra,Mumbai,"Mindspace-Malad West, Mumbai - MPCB",04-04-2024 06:00:00,19.1878657,72.8304069,NH3,3,5,4
India,Maharashtra,Mumbai,"Mulund West, Mumbai - MPCB",04-04-2024 06:00:00,19.1750,72.9419,OZONE,7,7,7
India,Maharashtra,Mumbai,"Navy Nagar-Colaba, Mumbai - IITM",04-04-2024 06:00:00,18.897756,72.813320,NO2,NA,NA,NA
India,Maharashtra,Mumbai,"Powai, Mumbai - MPCB",04-04-2024 06:00:00,19.137500,72.915056,OZONE,28,87,37
India,Maharashtra,Mumbai,"Sewri, Mumbai - BMC",04-04-2024 06:00:00,19.000084,72.856730,SO2,3,30,9
India,Maharashtra,Mumbai,"Shivaji Nagar, Mumbai - BMC",04-04-2024 06:00:00,19.060498,72.923356,CO,2,100,39
India,Maharashtra,Mumbai,"Siddharth Nagar-Worli, Mumbai - IITM",04-04-2024 06:00:00,19.000083,72.813993,NO2,23,76,36
India,Maharashtra,Mumbai,"Siddharth Nagar-Worli, Mumbai - IITM",04-04-2024 06:00:00,19.000083,72.813993,NH3,4,7,5
India,Maharashtra,Mumbai,"Sion, Mumbai - MPCB",04-04-2024 06:00:00,19.047000,72.874600,PM2.5,47,159,78
India,Maharashtra,Mumbai,"Sion, Mumbai - MPCB",04-04-2024 06:00:00,19.047000,72.874600,NO2,11,47,28
India,Maharashtra,Mumbai,"Sion, Mumbai - MPCB",04-04-2024 06:00:00,19.047000,72.874600,NH3,1,1,1
India,Maharashtra,Mumbai,"Sion, Mumbai - MPCB",04-04-2024 06:00:00,19.047000,72.874600,CO,8,32,21
India,Maharashtra,Mumbai,"Vasai West, Mumbai - MPCB",04-04-2024 06:00:00,19.383200,72.820400,SO2,16,16,16
India,Maharashtra,Mumbai,"Vasai West, Mumbai - MPCB",04-04-2024 06:00:00,19.383200,72.820400,OZONE,15,59,20
India,Maharashtra,Mumbai,"Vile Parle West, Mumbai - MPCB",04-04-2024 06:00:00,19.10861,72.83622,PM2.5,28,88,48
India,Maharashtra,Mumbai,"Vile Parle West, Mumbai - MPCB",04-04-2024 06:00:00,19.10861,72.83622,NO2,9,16,11
India,Maharashtra,Nagpur,"Mahal, Nagpur - MPCB",04-04-2024 06:00:00,21.14472,79.107595,NO2,13,74,33
India,Maharashtra,Nagpur,"Mahal, Nagpur - MPCB",04-04-2024 06:00:00,21.14472,79.107595,CO,38,164,97
India,Maharashtra,Nagpur,"Mahal, Nagpur - MPCB",04-04-2024 06:00:00,21.14472,79.107595,OZONE,1,169,12
India,Maharashtra,Nagpur,"Ram Nagar, Nagpur - MPCB",04-04-2024 06:00:00,21.143383,79.048912,PM10,2,186,137
India,Maharashtra,Nagpur,"Ram Nagar, Nagpur - MPCB",04-04-2024 06:00:00,21.143383,79.048912,NH3,3,10,5
India,Maharashtra,Nagpur,"Ram Nagar, Nagpur - MPCB",04-04-2024 06:00:00,21.143383,79.048912,SO2,8,118,36
India,Maharashtra,Nagpur,"Ram Nagar, Nagpur - MPCB",04-04-2024 06:00:00,21.143383,79.048912,OZONE,5,142,13
India,Maharashtra,Nanded,"Sneh Nagar, Nanded - MPCB",04-04-2024 06:00:00,19.173852,77.296291,PM10,70,282,139
India,Maharashtra,Nanded,"Sneh Nagar, Nanded - MPCB",04-04-2024 06:00:00,19.173852,77.296291,SO2,3,10,6
India,Maharashtra,Nanded,"Sneh Nagar, Nanded - MPCB",04-04-2024 06:00:00,19.173852,77.296291,CO,29,42,34
India,Maharashtra,Nanded,"Sneh Nagar, Nanded - MPCB",04-04-2024 06:00:00,19.173852,77.296291,OZONE,27,135,54
India,Maharashtra,Nashik,"Hirawadi, Nashik - MPCB",04-04-2024 06:00:00,20.021503,73.813844,SO2,2,101,15
India,Maharashtra,Nashik,"Pandav Nagari, Nashik - MPCB",04-04-2024 06:00:00,19.9591346,73.7788008,SO2,8,42,17
India,Maharashtra,Nashik,"Pandav Nagari, Nashik - MPCB",04-04-2024 06:00:00,19.9591346,73.7788008,CO,10,43,16
India,Maharashtra,Nashik,"Pandav Nagari, Nashik - MPCB",04-04-2024 06:00:00,19.9591346,73.7788008,OZONE,8,126,10
India,Maharashtra,Navi Mumbai,"Kopripada-Vashi, Navi Mumbai - MPCB",04-04-2024 06:00:00,19.090337,73.014232,PM10,54,454,211
India,Maharashtra,Navi Mumbai,"Mahape, Navi Mumbai - MPCB",04-04-2024 06:00:00,19.1135051,73.008978,PM10,81,456,186
India,Maharashtra,Navi Mumbai,"Nerul, Navi Mumbai - MPCB",04-04-2024 06:00:00,19.008751,73.016620,NH3,2,4,3
India,Maharashtra,Navi Mumbai,"Sanpada, Navi Mumbai - MPCB",04-04-2024 06:00:00,19.0575752,73.0151367,OZONE,3,170,12
India,Maharashtra,Navi Mumbai,"Sector-19A Nerul, Navi Mumbai - IITM",04-04-2024 06:00:00,19.044,73.0325,PM2.5,61,221,127
India,Maharashtra,Navi Mumbai,"Sector-19A Nerul, Navi Mumbai - IITM",04-04-2024 06:00:00,19.044,73.0325,NO2,29,77,54
India,Maharashtra,Navi Mumbai,"Sector-2E Kalamboli, Navi Mumbai - MPCB",04-04-2024 06:00:00,19.02579,73.10297,PM10,91,120,109
India,Maharashtra,Navi Mumbai,"Sector-2E Kalamboli, Navi Mumbai - MPCB",04-04-2024 06:00:00,19.02579,73.10297,NH3,2,4,3
India,Maharashtra,Navi Mumbai,"Sector-2E Kalamboli, Navi Mumbai - MPCB",04-04-2024 06:00:00,19.02579,73.10297,SO2,4,28,14
India,Maharashtra,Parbhani,"Masoom Colony, Parbhani - MPCB",04-04-2024 06:00:00,19.265594,76.761463,SO2,5,71,17
India,Maharashtra,Parbhani,"Masoom Colony, Parbhani - MPCB",04-04-2024 06:00:00,19.265594,76.761463,OZONE,32,116,56
India,Maharashtra,Pimpri-Chinchwad,"Gavalinagar, Pimpri Chinchwad - MPCB",04-04-2024 06:00:00,18.63673,73.82487,PM2.5,72,121,87
India,Maharashtra,Pimpri-Chinchwad,"Gavalinagar, Pimpri Chinchwad - MPCB",04-04-2024 06:00:00,18.63673,73.82487,NH3,1,6,3
India,Maharashtra,Pimpri-Chinchwad,"Gavalinagar, Pimpri Chinchwad - MPCB",04-04-2024 06:00:00,18.63673,73.82487,SO2,8,20,13
India,Maharashtra,Pimpri-Chinchwad,"Gavalinagar, Pimpri Chinchwad - MPCB",04-04-2024 06:00:00,18.63673,73.82487,OZONE,25,212,63
India,Maharashtra,Pimpri-Chinchwad,"Park Street Wakad, Pimpri Chinchwad - MPCB",04-04-2024 06:00:00,18.59051,73.77946,NO2,47,96,64
India,Maharashtra,Pimpri-Chinchwad,"Park Street Wakad, Pimpri Chinchwad - MPCB",04-04-2024 06:00:00,18.59051,73.77946,SO2,8,22,13
India,Maharashtra,Pimpri-Chinchwad,"Thergaon, Pimpri Chinchwad - MPCB",04-04-2024 06:00:00,18.616318,73.765797,PM10,79,132,102
India,Maharashtra,Pune,"Karve Road, Pune - MPCB",04-04-2024 06:00:00,18.5011743,73.8165527,PM2.5,86,86,86
India,Maharashtra,Pune,"Karve Road, Pune - MPCB",04-04-2024 06:00:00,18.5011743,73.8165527,NO2,2,2,2
India,Maharashtra,Pune,"Katraj Dairy, Pune - MPCB",04-04-2024 06:00:00,18.454450,73.854155,PM2.5,53,89,70
India,Maharashtra,Pune,"Katraj Dairy, Pune - MPCB",04-04-2024 06:00:00,18.454450,73.854155,SO2,1,7,2
India,Maharashtra,Pune,"Mhada Colony, Pune - IITM",04-04-2024 06:00:00,18.573040,73.927715,PM10,57,89,74
India,Maharashtra,Pune,"Revenue Colony-Shivajinagar, Pune - IITM",04-04-2024 06:00:00,18.530085,73.849598,PM2.5,17,81,39
India,Maharashtra,Pune,"Revenue Colony-Shivajinagar, Pune - IITM",04-04-2024 06:00:00,18.530085,73.849598,PM10,16,79,40
India,Maharashtra,Pune,"Revenue Colony-Shivajinagar, Pune - IITM",04-04-2024 06:00:00,18.530085,73.849598,NO2,77,170,125
India,Maharashtra,Pune,"Revenue Colony-Shivajinagar, Pune - IITM",04-04-2024 06:00:00,18.530085,73.849598,OZONE,1,60,24
India,Maharashtra,Pune,"Savitribai Phule Pune University, Pune - MPCB",04-04-2024 06:00:00,18.547056,73.826908,NO2,9,30,17
India,Maharashtra,Pune,"Savitribai Phule Pune University, Pune - MPCB",04-04-2024 06:00:00,18.547056,73.826908,CO,16,64,24
India,Maharashtra,Pune,"Transport Nagar-Nigdi, Pune - IITM",04-04-2024 06:00:00,18.664282,73.763966,PM10,43,100,75
India,Maharashtra,Pune,"Transport Nagar-Nigdi, Pune - IITM",04-04-2024 06:00:00,18.664282,73.763966,NO2,16,19,17
India,Maharashtra,Sangli,"Vijay Nagar, Sangli - MPCB",04-04-2024 06:00:00, 16.5038,74.3623,PM2.5,51,103,76
India,Maharashtra,Sangli,"Vijay Nagar, Sangli - MPCB",04-04-2024 06:00:00, 16.5038,74.3623,OZONE,7,89,30
India,Maharashtra,Solapur,"Ratandeep Housing Society, Solapur - MPCB",04-04-2024 06:00:00,17.65439,75.90649,PM10,99,129,116
India,Maharashtra,Thane,"Kasarvadavali, Thane - MPCB",04-04-2024 06:00:00,19.26777,72.97182,OZONE,3,104,16
India,Maharashtra,Thane,"Pimpleshwar Mandir, Thane - MPCB",04-04-2024 06:00:00,19.192056,72.9585188,PM10,69,310,128
India,Maharashtra,Thane,"Upvan Fort, Thane - MPCB",04-04-2024 06:00:00,19.222279,72.957979,PM10,50,154,120
India,Maharashtra,Ulhasnagar,"Sidhi Vinayak Nagar, Ulhasnagar - MPCB",04-04-2024 06:00:00,19.235581,73.159121,NO2,7,26,13
India,Maharashtra,Virar,"Bolinj, Virar - MPCB",04-04-2024 06:00:00,19.4458210,72.7988231,NO2,6,66,28
India,Maharashtra,Virar,"Bolinj, Virar - MPCB",04-04-2024 06:00:00,19.4458210,72.7988231,SO2,3,9,6
India,Maharashtra,Virar,"Bolinj, Virar - MPCB",04-04-2024 06:00:00,19.4458210,72.7988231,OZONE,2,130,36
India,Manipur,Imphal,"DM College of Science, Imphal - Manipur PCB",04-04-2024 06:00:00,24.8207389,93.9423085,NH3,2,2,2
India,Meghalaya,Shillong,"Lumpyngngad, Shillong - Meghalaya PCB",04-04-2024 06:00:00,25.5586,91.8985,PM10,37,184,69
India,Mizoram,Aizawl,"Sikulpuikawn, Aizawl - Mizoram PCB",04-04-2024 06:00:00,23.7176342,92.7192841,PM2.5,33,98,71
India,Nagaland,Kohima,"PWD Juction, Kohima - NPCB",04-04-2024 06:00:00,25.6635413,94.0989878,PM2.5,82,207,122
India,Nagaland,Kohima,"PWD Juction, Kohima - NPCB",04-04-2024 06:00:00,25.6635413,94.0989878,CO,8,26,12
India,Odisha,Angul,"Hakimapada, Angul - OSPCB",04-04-2024 06:00:00,20.832874,85.104082,CO,9,129,75
India,Odisha,Balasore,"Kalidaspur, Balasore - OSPCB",04-04-2024 06:00:00,21.51161,86.89088,NO2,8,43,22
India,Odisha,Barbil,"Forest Office, Barbil - OSPCB",04-04-2024 06:00:00,22.1166054,85.3945546,NO2,1,2,2
India,Odisha,Baripada,"Meher Colony, Baripada - OSPCB",04-04-2024 06:00:00,21.941841,86.728318,PM10,10,151,110
India,Odisha,Bhubaneswar,"Lingraj Mandir, Bhubaneswar - OSPCB",04-04-2024 06:00:00,20.240790,85.836784,NH3,2,3,2
India,Odisha,Bhubaneswar,"Patia, Bhubaneswar - OSPCB",04-04-2024 06:00:00,20.34652,85.81630,PM2.5,8,65,34
India,Odisha,Bhubaneswar,"Patia, Bhubaneswar - OSPCB",04-04-2024 06:00:00,20.34652,85.81630,PM10,NA,NA,NA
India,Odisha,Bhubaneswar,"Patia, Bhubaneswar - OSPCB",04-04-2024 06:00:00,20.34652,85.81630,OZONE,4,95,15
India,Odisha,Bileipada,"Tata Township, Bileipada - OSPCB",04-04-2024 06:00:00,22.06156703,85.47409613,NH3,11,11,11
India,Odisha,Keonjhar,"Jagamohanpur, Keonjhar - OSPCB",04-04-2024 06:00:00,21.643900,85.599355,PM10,NA,NA,NA
India,Odisha,Nayagarh,"Dabuna, Nayagarh - OSPCB",04-04-2024 06:00:00,21.847279,85.416905,NH3,5,5,5
India,Odisha,Rairangpur,"Divisional Forest Office, Rairangpur - OSPCB",04-04-2024 06:00:00,22.265816,86.174829,NH3,5,5,5
India,Odisha,Rourkela,"Raghunathpali, Rourkela - OSPCB",04-04-2024 06:00:00,22.220833,84.809444,NO2,23,191,74
India,Odisha,Talcher,"Talcher Coalfields,Talcher - OSPCB",04-04-2024 06:00:00,20.9360711,85.1707021,NH3,3,4,3
India,Odisha,Talcher,"Talcher Coalfields,Talcher - OSPCB",04-04-2024 06:00:00,20.9360711,85.1707021,CO,8,90,25
India,Puducherry,Puducherry,"Jawahar Nagar, Puducherry - PPCC",04-04-2024 06:00:00,11.9309,79.8027,NH3,2,5,3
India,Punjab,Jalandhar,"Civil Line, Jalandhar - PPCB",04-04-2024 06:00:00,31.321907,75.578914,CO,18,109,43
India,Punjab,Khanna,"Kalal Majra, Khanna - PPCB",04-04-2024 06:00:00,30.736056 ,76.209694,CO,18,25,22
India,Punjab,Khanna,"Kalal Majra, Khanna - PPCB",04-04-2024 06:00:00,30.736056 ,76.209694,OZONE,6,95,20
India,Punjab,Patiala,"Model Town, Patiala - PPCB",04-04-2024 06:00:00,30.349388,76.366642,SO2,4,19,9
India,Punjab,Rupnagar,"Ratanpura, Rupnagar - Ambuja Cements",04-04-2024 06:00:00,31.0325454,76.5623046,SO2,6,14,10
India,Rajasthan,Ajmer,"Civil Lines,  Ajmer - RSPCB",04-04-2024 06:00:00,26.470859,74.646594,SO2,11,16,13
India,Rajasthan,Alwar,"Moti Doongri, Alwar - RSPCB",04-04-2024 06:00:00,27.554793,76.611536,NH3,4,8,6
India,Rajasthan,Alwar,"Moti Doongri, Alwar - RSPCB",04-04-2024 06:00:00,27.554793,76.611536,OZONE,15,41,32
India,Rajasthan,Banswara,"Rati Talai, Banswara - RSPCB",04-04-2024 06:00:00,23.555190,74.440010,NO2,4,60,22
India,Rajasthan,Banswara,"Rati Talai, Banswara - RSPCB",04-04-2024 06:00:00,23.555190,74.440010,CO,7,82,20
India,Rajasthan,Baran,"Bamboliya, Baran - RSPCB",04-04-2024 06:00:00,25.106006,76.469948,NO2,10,70,25
India,Rajasthan,Barmer,"Railway Colony, Barmer - RSPCB",04-04-2024 06:00:00,25.747299,71.393989,NO2,9,33,15
India,Rajasthan,Barmer,"Railway Colony, Barmer - RSPCB",04-04-2024 06:00:00,25.747299,71.393989,OZONE,35,83,63
India,Rajasthan,Bharatpur,"Krishna Nagar, Bharatpur - RSPCB",04-04-2024 06:00:00,27.215415,77.50873,NH3,2,6,4
India,Rajasthan,Bhilwara,"Pratap Nagar, Bhilwara - RSPCB",04-04-2024 06:00:00,25.339605,74.618883,NH3,3,6,4
India,Rajasthan,Bhilwara,"Pratap Nagar, Bhilwara - RSPCB",04-04-2024 06:00:00,25.339605,74.618883,CO,15,46,24
India,Rajasthan,Bhiwadi,"RIICO Ind. Area III, Bhiwadi - RSPCB",04-04-2024 06:00:00,28.194909,76.862296,SO2,2,74,20
India,Rajasthan,Bhiwadi,"Vasundhara Nagar_UIT, Bhiwadi - RSPCB",04-04-2024 06:00:00,28.207266,76.829265,NO2,20,96,52
India,Rajasthan,Bikaner,"MM Ground, Bikaner - RSPCB",04-04-2024 06:00:00,28.018792,73.292658,NH3,8,12,10
India,Rajasthan,Bundi,"New Colony, Bundi - RSPCB",04-04-2024 06:00:00,25.435774,75.644272,NO2,5,98,20
India,Rajasthan,Chittorgarh,"Shastri Nagar, Chittorgarh - RSPCB",04-04-2024 06:00:00,24.892047,74.623527,PM2.5,NA,NA,NA
India,Rajasthan,Chittorgarh,"Shastri Nagar, Chittorgarh - RSPCB",04-04-2024 06:00:00,24.892047,74.623527,PM10,NA,NA,NA
India,Rajasthan,Chittorgarh,"Shastri Nagar, Chittorgarh - RSPCB",04-04-2024 06:00:00,24.892047,74.623527,OZONE,NA,NA,NA
India,Rajasthan,Dungarpur,"Bhoiwada, Dungarpur - RSPCB",04-04-2024 06:00:00,23.837789,73.714926,PM2.5,38,78,50
India,Rajasthan,Dungarpur,"Bhoiwada, Dungarpur - RSPCB",04-04-2024 06:00:00,23.837789,73.714926,NH3,2,3,2
India,Rajasthan,Dungarpur,"Bhoiwada, Dungarpur - RSPCB",04-04-2024 06:00:00,23.837789,73.714926,SO2,9,12,10
India,Rajasthan,Hanumangarh,"Housing Board, Hanumangarh - RSPCB",04-04-2024 06:00:00,29.610750,74.283608,NH3,6,9,7
India,Rajasthan,Hanumangarh,"Housing Board, Hanumangarh - RSPCB",04-04-2024 06:00:00,29.610750,74.283608,SO2,6,14,10
India,Rajasthan,Hanumangarh,"Housing Board, Hanumangarh - RSPCB",04-04-2024 06:00:00,29.610750,74.283608,CO,20,77,52
India,Rajasthan,Jaipur,"Adarsh Nagar, Jaipur - RSPCB",04-04-2024 06:00:00,26.902909,75.836858,NH3,2,14,6
India,Rajasthan,Jaipur,"Police Commissionerate, Jaipur - RSPCB",04-04-2024 06:00:00,26.9164092,75.7994901,OZONE,14,105,38
India,Rajasthan,Jaipur,"RIICO Sitapura, Jaipur - RSPCB",04-04-2024 06:00:00,26.786682,75.827928,NH3,NA,NA,NA
India,Rajasthan,Jaipur,"Sector-2 Murlipura, Jaipur - RSPCB",04-04-2024 06:00:00,26.960669,75.771817,SO2,9,83,23
India,Rajasthan,Jaipur,"Sector-2 Murlipura, Jaipur - RSPCB",04-04-2024 06:00:00,26.960669,75.771817,OZONE,2,85,19
India,Rajasthan,Jaipur,"Shastri Nagar, Jaipur - RSPCB",04-04-2024 06:00:00,26.9502929,75.730943,CO,12,70,47
India,Rajasthan,Jaisalmer,"Sadar Bazar, Jaisalmer - RSPCB",04-04-2024 06:00:00,26.912329,70.909168,PM2.5,27,98,46
India,Rajasthan,Jalore,"Mudtra Sili, Jalore - RSPCB",04-04-2024 06:00:00,25.344694,72.626208,NO2,4,43,14
India,Rajasthan,Jalore,"Mudtra Sili, Jalore - RSPCB",04-04-2024 06:00:00,25.344694,72.626208,CO,10,24,13
India,Rajasthan,Jhalawar,"Rajlaxmi Nagar, Jhalawar - RSPCB",04-04-2024 06:00:00,24.588397,76.172782,PM2.5,13,104,44
India,Rajasthan,Jhalawar,"Rajlaxmi Nagar, Jhalawar - RSPCB",04-04-2024 06:00:00,24.588397,76.172782,NO2,19,38,25
India,Rajasthan,Jhalawar,"Rajlaxmi Nagar, Jhalawar - RSPCB",04-04-2024 06:00:00,24.588397,76.172782,CO,16,50,22
India,Rajasthan,Jhalawar,"Rajlaxmi Nagar, Jhalawar - RSPCB",04-04-2024 06:00:00,24.588397,76.172782,OZONE,13,72,48
India,Rajasthan,Jhunjhunu,"Indra Nagar, Jhunjhunu - RSPCB",04-04-2024 06:00:00,28.108988,75.386577,CO,16,40,27
India,Rajasthan,Jhunjhunu,"Indra Nagar, Jhunjhunu - RSPCB",04-04-2024 06:00:00,28.108988,75.386577,OZONE,28,74,40
India,Rajasthan,Jodhpur,"Jhalamand, Jodhpur - RSPCB",04-04-2024 06:00:00,26.215415,73.070156,NO2,29,42,34
India,Rajasthan,Jodhpur,"Jhalamand, Jodhpur - RSPCB",04-04-2024 06:00:00,26.215415,73.070156,SO2,1,12,4
India,Rajasthan,Jodhpur,"Jhalamand, Jodhpur - RSPCB",04-04-2024 06:00:00,26.215415,73.070156,OZONE,30,72,38
India,Rajasthan,Jodhpur,"Mandor, Jodhpur - RSPCB",04-04-2024 06:00:00,26.358805,73.047444,OZONE,22,66,43
India,Rajasthan,Jodhpur,"Samrat Ashok Udhyan, Jodhpur - RSPCB",04-04-2024 06:00:00,26.253384,72.976571,PM10,61,235,123
India,Rajasthan,Jodhpur,"Samrat Ashok Udhyan, Jodhpur - RSPCB",04-04-2024 06:00:00,26.253384,72.976571,NO2,3,90,16
India,Rajasthan,Karauli,"Satyawati Vihar, Karauli - RSPCB",04-04-2024 06:00:00,26.506177,77.025989,PM10,75,135,96
India,Rajasthan,Karauli,"Satyawati Vihar, Karauli - RSPCB",04-04-2024 06:00:00,26.506177,77.025989,CO,2,106,55
India,Rajasthan,Kota,"Nayapura, Kota - RSPCB",04-04-2024 06:00:00,25.196024,75.855668,NH3,5,12,7
India,Rajasthan,Kota,"Shrinath Puram, Kota - RSPCB",04-04-2024 06:00:00,25.14389,75.821256,SO2,8,15,11
India,Rajasthan,Nagaur,"Karni Colony, Nagaur - RSPCB",04-04-2024 06:00:00,27.213494,73.734444,SO2,3,18,8
India,Rajasthan,Pali,"Indira Colony Vistar, Pali - RSPCB",04-04-2024 06:00:00,25.771061, 73.340227,NH3,1,4,2
India,Rajasthan,Pratapgarh,"Pragati Nagar, Pratapgarh - RSPCB",04-04-2024 06:00:00,24.041198,74.780702,OZONE,40,104,50
India,Rajasthan,Rajsamand,"Dhoinda, Rajsamand - RSPCB",04-04-2024 06:00:00,25.036360,73.883502,PM2.5,17,213,47
India,Rajasthan,Rajsamand,"Dhoinda, Rajsamand - RSPCB",04-04-2024 06:00:00,25.036360,73.883502,NO2,5,20,11
India,Rajasthan,Rajsamand,"Dhoinda, Rajsamand - RSPCB",04-04-2024 06:00:00,25.036360,73.883502,CO,46,76,56
India,Rajasthan,Sikar,"Radhakishan Pura, Sikar - RSPCB",04-04-2024 06:00:00,27.608912,75.153302,NH3,5,7,6
India,Rajasthan,Sikar,"Radhakishan Pura, Sikar - RSPCB",04-04-2024 06:00:00,27.608912,75.153302,CO,24,35,32
India,Rajasthan,Sri Ganganagar,"Old City, Sri Ganganagar - RSPCB",04-04-2024 06:00:00,29.931624,73.864511,OZONE,17,68,35
India,Sikkim,Gangtok,"Zero Point GICI, Gangtok - SSPCB",04-04-2024 06:00:00,27.338530,88.614099,PM2.5,31,42,36
India,Sikkim,Gangtok,"Zero Point GICI, Gangtok - SSPCB",04-04-2024 06:00:00,27.338530,88.614099,CO,17,26,19
India,TamilNadu,Chengalpattu,"Crescent University, Chengalpattu - TNPCB",04-04-2024 06:00:00,12.8777316,80.0834807,OZONE,NA,NA,NA
India,TamilNadu,Chennai,"Alandur Bus Depot, Chennai - CPCB",04-04-2024 06:00:00,12.9099161,80.1076538,PM2.5,24,72,46
India,TamilNadu,Chennai,"Alandur Bus Depot, Chennai - CPCB",04-04-2024 06:00:00,12.9099161,80.1076538,PM10,24,72,46
India,TamilNadu,Chennai,"Alandur Bus Depot, Chennai - CPCB",04-04-2024 06:00:00,12.9099161,80.1076538,SO2,3,14,6
India,TamilNadu,Chennai,"Kodungaiyur, Chennai - TNPCB",04-04-2024 06:00:00,13.1278,80.2642,PM10,3,116,42
India,TamilNadu,Chennai,"Kodungaiyur, Chennai - TNPCB",04-04-2024 06:00:00,13.1278,80.2642,NH3,3,4,3
India,TamilNadu,Chennai,"Kodungaiyur, Chennai - TNPCB",04-04-2024 06:00:00,13.1278,80.2642,CO,14,62,31
India,TamilNadu,Chennai,"Manali, Chennai - CPCB",04-04-2024 06:00:00,13.164544,80.26285,PM2.5,18,90,56
India,TamilNadu,Chennai,"Perungudi, Chennai - TNPCB",04-04-2024 06:00:00,12.9533,80.2357,PM2.5,11,40,20
India,TamilNadu,Chennai,"Royapuram, Chennai - TNPCB",04-04-2024 06:00:00,13.1036,80.2909,PM2.5,2,33,14
India,TamilNadu,Chennai,"Royapuram, Chennai - TNPCB",04-04-2024 06:00:00,13.1036,80.2909,OZONE,9,11,9
India,TamilNadu,Chennai,"Velachery Res. Area, Chennai - CPCB",04-04-2024 06:00:00,13.0052189,80.2398125,PM10,21,43,32
India,TamilNadu,Chennai,"Velachery Res. Area, Chennai - CPCB",04-04-2024 06:00:00,13.0052189,80.2398125,NH3,9,15,12
India,TamilNadu,Coimbatore,"PSG College of Arts and Science, Coimbatore - TNPCB",04-04-2024 06:00:00,11.0328,77.0349,SO2,NA,NA,NA
India,TamilNadu,Coimbatore,"PSG College of Arts and Science, Coimbatore - TNPCB",04-04-2024 06:00:00,11.0328,77.0349,OZONE,3,5,4
India,TamilNadu,Cuddalore,"Kudikadu, Cuddalore - TNPCB",04-04-2024 06:00:00,11.6829898,79.7532099,PM2.5,NA,NA,NA
India,TamilNadu,Cuddalore,"Kudikadu, Cuddalore - TNPCB",04-04-2024 06:00:00,11.6829898,79.7532099,NO2,NA,NA,NA
India,TamilNadu,Cuddalore,"Semmandalam, Cuddalore - TNPCB",04-04-2024 06:00:00,11.7637683,79.7499835,NO2,2,11,6
India,TamilNadu,Gummidipoondi,"Anthoni Pillai Nagar, Gummidipoondi - TNPCB",04-04-2024 06:00:00,13.4127,80.1081,PM2.5,18,155,52
India,TamilNadu,Kanchipuram,"Kilambi, Kanchipuram - TNPCB",04-04-2024 06:00:00,12.864618,79.659968,PM2.5,NA,NA,NA
India,TamilNadu,Kanchipuram,"Kilambi, Kanchipuram - TNPCB",04-04-2024 06:00:00,12.864618,79.659968,CO,NA,NA,NA
India,TamilNadu,Ooty,"Bombay Castel, Ooty - TNPCB",04-04-2024 06:00:00,11.4068288,76.7138973,OZONE,4,5,5
India,TamilNadu,Palkalaiperur,"Bharathidasan University, Palkalaiperur - TNPCB",04-04-2024 06:00:00,10.681158,78.741746,PM10,NA,NA,NA
India,TamilNadu,Salem,"Sona College of Technology, Salem - TNPCB",04-04-2024 06:00:00,11.679111,78.125052,PM10,NA,NA,NA
India,TamilNadu,Salem,"Sona College of Technology, Salem - TNPCB",04-04-2024 06:00:00,11.679111,78.125052,NH3,NA,NA,NA
India,TamilNadu,Tirupur,"Kumaran College, Tirupur - TNPCB",04-04-2024 06:00:00,11.0973603,77.3228673,PM2.5,18,52,27
India,TamilNadu,Tirupur,"Kumaran College, Tirupur - TNPCB",04-04-2024 06:00:00,11.0973603,77.3228673,SO2,16,112,27
India,TamilNadu,Tirupur,"Kumaran College, Tirupur - TNPCB",04-04-2024 06:00:00,11.0973603,77.3228673,CO,30,99,38
India,TamilNadu,Vellore,"Vasanthapuram, Vellore - TNPCB",04-04-2024 06:00:00,12.909494,79.131861,PM10,17,93,51
India,TamilNadu,Vellore,"Vasanthapuram, Vellore - TNPCB",04-04-2024 06:00:00,12.909494,79.131861,SO2,NA,NA,NA
India,TamilNadu,Virudhunagar,"Collectorate Office, Virudhunagar - TNPCB",04-04-2024 06:00:00,9.559382,77.948828,PM2.5,30,74,42
India,TamilNadu,Virudhunagar,"Collectorate Office, Virudhunagar - TNPCB",04-04-2024 06:00:00,9.559382,77.948828,CO,26,28,28
India,Telangana,Hyderabad,"Bollaram Industrial Area, Hyderabad - TSPCB",04-04-2024 06:00:00,17.540891,78.358528,SO2,7,118,19
India,Telangana,Hyderabad,"Bollaram Industrial Area, Hyderabad - TSPCB",04-04-2024 06:00:00,17.540891,78.358528,CO,2,39,33
India,Telangana,Hyderabad,"Central University, Hyderabad - TSPCB",04-04-2024 06:00:00,17.460103,78.334361,NO2,20,44,29
India,Telangana,Hyderabad,"Central University, Hyderabad - TSPCB",04-04-2024 06:00:00,17.460103,78.334361,NH3,3,7,5
India,Telangana,Hyderabad,"ECIL Kapra, Hyderabad - TSPCB",04-04-2024 06:00:00,17.470431,78.566959,PM10,68,124,89
India,Telangana,Hyderabad,"ECIL Kapra, Hyderabad - TSPCB",04-04-2024 06:00:00,17.470431,78.566959,SO2,13,25,20
India,Telangana,Hyderabad,"ICRISAT Patancheru, Hyderabad - TSPCB",04-04-2024 06:00:00,17.518400,78.278777,PM10,52,121,74
India,Telangana,Hyderabad,"IITH Kandi, Hyderabad - TSPCB",04-04-2024 06:00:00,17.585705,78.126199,PM2.5,29,48,39
India,Telangana,Hyderabad,"IITH Kandi, Hyderabad - TSPCB",04-04-2024 06:00:00,17.585705,78.126199,NO2,8,12,10
India,Telangana,Hyderabad,"IITH Kandi, Hyderabad - TSPCB",04-04-2024 06:00:00,17.585705,78.126199,NH3,5,7,6
India,Telangana,Hyderabad,"Kokapet, Hyderabad - TSPCB",04-04-2024 06:00:00,17.393559,78.339194,NH3,NA,NA,NA
India,Telangana,Hyderabad,"Kompally Municipal Office, Hyderabad - TSPCB",04-04-2024 06:00:00,17.544899,78.486949,NH3,6,7,7
India,Telangana,Hyderabad,"Nacharam_TSIIC IALA, Hyderabad - TSPCB",04-04-2024 06:00:00,17.429398,78.569354,PM10,44,87,73
India,Telangana,Hyderabad,"Nacharam_TSIIC IALA, Hyderabad - TSPCB",04-04-2024 06:00:00,17.429398,78.569354,SO2,5,33,20
India,Telangana,Hyderabad,"Nacharam_TSIIC IALA, Hyderabad - TSPCB",04-04-2024 06:00:00,17.429398,78.569354,CO,28,43,42
India,Telangana,Hyderabad,"New Malakpet, Hyderabad - TSPCB",04-04-2024 06:00:00,17.37206,78.50864,SO2,2,7,4
India,Telangana,Hyderabad,"Sanathnagar, Hyderabad - TSPCB",04-04-2024 06:00:00,17.4559458,78.4332152,PM2.5,50,88,68
India,Tripura,Agartala,"Bardowali, Agartala - Tripura SPCB",04-04-2024 06:00:00,23.8175497,91.2726974,CO,15,26,18
India,Uttar_Pradesh,Agra,"Manoharpur, Agra - UPPCB",04-04-2024 06:00:00,27.23711,78.01936,NH3,1,3,2
India,Uttar_Pradesh,Agra,"Rohta, Agra - UPPCB",04-04-2024 06:00:00,27.106972,78.000111,NH3,1,1,1
India,Uttar_Pradesh,Agra,"Sanjay Palace, Agra - UPPCB",04-04-2024 06:00:00,27.19865833,78.00598056,SO2,6,9,8
India,Uttar_Pradesh,Agra,"Sector-3B Avas Vikas Colony, Agra - UPPCB",04-04-2024 06:00:00,27.19412,77.96237,NH3,3,9,5
India,Uttar_Pradesh,Agra,"Sector-3B Avas Vikas Colony, Agra - UPPCB",04-04-2024 06:00:00,27.19412,77.96237,CO,10,20,15
India,Uttar_Pradesh,Agra,"Sector-3B Avas Vikas Colony, Agra - UPPCB",04-04-2024 06:00:00,27.19412,77.96237,OZONE,2,10,5
India,Uttar_Pradesh,Agra,"Shastripuram, Agra - UPPCB",04-04-2024 06:00:00,27.19862,77.92066,CO,9,16,12
India,Uttar_Pradesh,Agra,"Shastripuram, Agra - UPPCB",04-04-2024 06:00:00,27.19862,77.92066,OZONE,1,14,2
India,Uttar_Pradesh,Baghpat,"Sardar Patel Inter College, Baghpat - UPPCB",04-04-2024 06:00:00,28.964949,77.278761,SO2,7,105,47
India,Uttar_Pradesh,Bulandshahr,"Yamunapuram, Bulandshahr - UPPCB",04-04-2024 06:00:00,28.406963,77.849831,OZONE,9,148,27
India,Uttar_Pradesh,Firozabad,"Nagla Bhau, Firozabad - UPPCB",04-04-2024 06:00:00,27.168897,78.376960,CO,27,41,35
India,Uttar_Pradesh,Ghaziabad,"Indirapuram, Ghaziabad - UPPCB",04-04-2024 06:00:00,28.646233,77.358075,CO,24,103,63
India,Uttar_Pradesh,Ghaziabad,"Loni, Ghaziabad - UPPCB",04-04-2024 06:00:00,28.757294,77.278792,PM10,70,292,178
India,Uttar_Pradesh,Ghaziabad,"Loni, Ghaziabad - UPPCB",04-04-2024 06:00:00,28.757294,77.278792,NO2,28,100,57
India,Uttar_Pradesh,Ghaziabad,"Sanjay Nagar, Ghaziabad - UPPCB",04-04-2024 06:00:00,28.685382,77.453839,SO2,9,67,45
India,Uttar_Pradesh,Ghaziabad,"Sanjay Nagar, Ghaziabad - UPPCB",04-04-2024 06:00:00,28.685382,77.453839,CO,12,101,39
India,Uttar_Pradesh,Ghaziabad,"Vasundhara, Ghaziabad - UPPCB",04-04-2024 06:00:00,28.6603346,77.3572563,SO2,16,120,55
India,Uttar_Pradesh,Ghaziabad,"Vasundhara, Ghaziabad - UPPCB",04-04-2024 06:00:00,28.6603346,77.3572563,OZONE,7,214,74
India,Uttar_Pradesh,Gorakhpur,"Madan Mohan Malaviya University of Technology, Gorakhpur - UPPCB",04-04-2024 06:00:00,26.730136,83.433859,NO2,2,2,2
India,Uttar_Pradesh,Hapur,"Anand Vihar, Hapur - UPPCB",04-04-2024 06:00:00,28.725645,77.749675,PM10,36,150,95
India,Uttar_Pradesh,Jhansi,"Shivaji Nagar, Jhansi - UPPCB",04-04-2024 06:00:00,25.4547,78.6039,NO2,4,97,25
India,Uttar_Pradesh,Kanpur,"FTI Kidwai Nagar, Kanpur - UPPCB",04-04-2024 06:00:00,26.428282,80.327067,OZONE,3,11,3
India,Uttar_Pradesh,Kanpur,"NSI Kalyanpur, Kanpur - UPPCB",04-04-2024 06:00:00,26.509954,80.249612,NH3,2,3,2
India,Uttar_Pradesh,Kanpur,"NSI Kalyanpur, Kanpur - UPPCB",04-04-2024 06:00:00,26.509954,80.249612,SO2,18,22,20
India,Uttar_Pradesh,Kanpur,"Nehru Nagar, Kanpur - UPPCB",04-04-2024 06:00:00,26.4703136,80.3229863,PM10,18,118,58
India,Uttar_Pradesh,Khurja,"Kalindi Kunj, Khurja - UPPCB",04-04-2024 06:00:00,28.2348927,77.8683002,OZONE,31,39,32
India,Uttar_Pradesh,Lucknow,"Gomti Nagar, Lucknow - UPPCB",04-04-2024 06:00:00,26.868120,81.005119,PM10,51,142,93
India,Uttar_Pradesh,Lucknow,"Gomti Nagar, Lucknow - UPPCB",04-04-2024 06:00:00,26.868120,81.005119,NO2,9,11,10
India,Uttar_Pradesh,Lucknow,"Kendriya Vidyalaya, Lucknow - CPCB",04-04-2024 06:00:00,26.906111,80.948222,NH3,3,17,11
India,Uttar_Pradesh,Lucknow,"Kendriya Vidyalaya, Lucknow - CPCB",04-04-2024 06:00:00,26.906111,80.948222,CO,6,90,55
India,Uttar_Pradesh,Lucknow,"Kendriya Vidyalaya, Lucknow - CPCB",04-04-2024 06:00:00,26.906111,80.948222,OZONE,6,66,24
India,Uttar_Pradesh,Lucknow,"Kukrail Picnic Spot-1, Lucknow - UPPCB",04-04-2024 06:00:00,26.90723,80.98579,PM10,52,138,98
India,Uttar_Pradesh,Lucknow,"Kukrail Picnic Spot-1, Lucknow - UPPCB",04-04-2024 06:00:00,26.90723,80.98579,NH3,2,2,2
India,Uttar_Pradesh,Lucknow,"Kukrail Picnic Spot-1, Lucknow - UPPCB",04-04-2024 06:00:00,26.90723,80.98579,OZONE,2,41,9
India,Uttar_Pradesh,Lucknow,"Lalbagh, Lucknow - CPCB",04-04-2024 06:00:00,26.8458805,80.9365541,PM2.5,47,226,108
India,Uttar_Pradesh,Lucknow,"Lalbagh, Lucknow - CPCB",04-04-2024 06:00:00,26.8458805,80.9365541,NH3,21,26,22
India,Uttar_Pradesh,Lucknow,"Talkatora District Industries Center, Lucknow - CPCB",04-04-2024 06:00:00,26.83399722,80.8917361,CO,3,46,20
India,Uttar_Pradesh,Meerut,"Jai Bhim Nagar, Meerut - UPPCB",04-04-2024 06:00:00,28.9535882,77.7622941,NO2,4,59,24
India,Uttar_Pradesh,Meerut,"Pallavpuram Phase 2, Meerut - UPPCB",04-04-2024 06:00:00,29.063510,77.709723,PM10,50,246,128
India,Uttar_Pradesh,Meerut,"Pallavpuram Phase 2, Meerut - UPPCB",04-04-2024 06:00:00,29.063510,77.709723,NO2,17,158,59
India,Uttar_Pradesh,Meerut,"Pallavpuram Phase 2, Meerut - UPPCB",04-04-2024 06:00:00,29.063510,77.709723,NH3,7,12,9
India,Uttar_Pradesh,Meerut,"Pallavpuram Phase 2, Meerut - UPPCB",04-04-2024 06:00:00,29.063510,77.709723,SO2,NA,NA,NA
India,Uttar_Pradesh,Moradabad,"Buddhi Vihar, Moradabad - UPPCB",04-04-2024 06:00:00,28.83526,78.74460,PM10,46,152,102
India,Uttar_Pradesh,Moradabad,"Eco Herbal Park, Moradabad - UPPCB",04-04-2024 06:00:00,28.840739,78.697531,PM2.5,14,135,63
India,Uttar_Pradesh,Moradabad,"Eco Herbal Park, Moradabad - UPPCB",04-04-2024 06:00:00,28.840739,78.697531,CO,30,107,53
India,Uttar_Pradesh,Moradabad,"Employment Office, Moradabad - UPPCB",04-04-2024 06:00:00,28.88528,78.73880,PM10,50,146,103
India,Uttar_Pradesh,Moradabad,"Employment Office, Moradabad - UPPCB",04-04-2024 06:00:00,28.88528,78.73880,OZONE,13,88,22
India,Uttar_Pradesh,Moradabad,"Jigar Colony, Moradabad - UPPCB",04-04-2024 06:00:00,28.856664,78.772638,OZONE,19,67,20
India,Uttar_Pradesh,Moradabad,"Kashiram Nagar, Moradabad - UPPCB",04-04-2024 06:00:00,28.849399,78.742362,PM10,51,181,114
India,Uttar_Pradesh,Moradabad,"Kashiram Nagar, Moradabad - UPPCB",04-04-2024 06:00:00,28.849399,78.742362,OZONE,12,67,28
India,Uttar_Pradesh,Moradabad,"Transport Nagar, Moradabad - UPPCB",04-04-2024 06:00:00,28.802625,78.753728,PM10,36,130,85
India,Uttar_Pradesh,Moradabad,"Transport Nagar, Moradabad - UPPCB",04-04-2024 06:00:00,28.802625,78.753728,SO2,45,54,49
India,Uttar_Pradesh,Moradabad,"Transport Nagar, Moradabad - UPPCB",04-04-2024 06:00:00,28.802625,78.753728,OZONE,14,43,17
India,Uttar_Pradesh,Muzaffarnagar,"New Mandi, Muzaffarnagar - UPPCB",04-04-2024 06:00:00,29.4723508,77.7194031,PM10,93,356,195
India,Uttar_Pradesh,Muzaffarnagar,"New Mandi, Muzaffarnagar - UPPCB",04-04-2024 06:00:00,29.4723508,77.7194031,SO2,11,101,37
India,Uttar_Pradesh,Noida,"Sector - 125, Noida - UPPCB",04-04-2024 06:00:00,28.5447608,77.3231257,SO2,7,111,29
India,Uttar_Pradesh,Noida,"Sector - 125, Noida - UPPCB",04-04-2024 06:00:00,28.5447608,77.3231257,CO,16,110,65
India,Uttar_Pradesh,Noida,"Sector - 62, Noida - IMD",04-04-2024 06:00:00,28.6245479,77.3577104,NO2,19,51,28
India,Uttar_Pradesh,Noida,"Sector-1, Noida - UPPCB",04-04-2024 06:00:00,28.5898,77.3101,PM2.5,30,311,151
India,Uttar_Pradesh,Noida,"Sector-116, Noida - UPPCB",04-04-2024 06:00:00,28.569230,77.393848,PM2.5,36,257,134
India,Uttar_Pradesh,Noida,"Sector-116, Noida - UPPCB",04-04-2024 06:00:00,28.569230,77.393848,SO2,22,69,36
India,Uttar_Pradesh,Noida,"Sector-116, Noida - UPPCB",04-04-2024 06:00:00,28.569230,77.393848,OZONE,1,98,6
India,Uttar_Pradesh,Prayagraj,"Motilal Nehru NIT, Prayagraj - UPPCB",04-04-2024 06:00:00,25.494,81.863,NO2,NA,NA,NA
India,Uttar_Pradesh,Varanasi,"Bhelupur, Varanasi - UPPCB",04-04-2024 06:00:00,25.301778,82.996789,PM2.5,4,18,10
India,Uttar_Pradesh,Varanasi,"Bhelupur, Varanasi - UPPCB",04-04-2024 06:00:00,25.301778,82.996789,NO2,8,8,8
India,Uttar_Pradesh,Varanasi,"Bhelupur, Varanasi - UPPCB",04-04-2024 06:00:00,25.301778,82.996789,SO2,26,30,28
India,Uttar_Pradesh,Varanasi,"Bhelupur, Varanasi - UPPCB",04-04-2024 06:00:00,25.301778,82.996789,OZONE,NA,NA,NA
India,Uttar_Pradesh,Varanasi,"Maldahiya, Varanasi - UPPCB",04-04-2024 06:00:00,25.32393,82.99687,SO2,25,26,26
India,Uttarakhand,Dehradun,"Doon University, Dehradun - UKPCB",04-04-2024 06:00:00,30.269444,78.044167,SO2,2,4,2
India,Uttarakhand,Kashipur,"Govt. Girls Inter College, Kashipur - UKPCB",04-04-2024 06:00:00,29.2124114,78.9611753,CO,21,72,46
India,Uttarakhand,Rishikesh,"Shivaji Nagar, Rishikesh - UKPCB",04-04-2024 06:00:00,30.075911,78.2859547,NO2,7,36,18
India,West_Bengal,Asansol,"Asansol Court Area, Asansol - WBPCB",04-04-2024 06:00:00,23.685297,86.945968,NO2,23,70,39
India,West_Bengal,Barrackpore,"SVSPA Campus, Barrackpore - WBPCB",04-04-2024 06:00:00,22.7605581,88.3617589,NO2,6,21,14
India,West_Bengal,Durgapur,"PCBL Residential Complex, Durgapur - WBPCB",04-04-2024 06:00:00,23.5087640,87.3544400,SO2,NA,NA,NA
India,West_Bengal,Durgapur,"Sidhu Kanhu Indoor Stadium, Durgapur - WBPCB",04-04-2024 06:00:00,23.5404352,87.2892225,NO2,21,41,26
India,West_Bengal,Durgapur,"Sidhu Kanhu Indoor Stadium, Durgapur - WBPCB",04-04-2024 06:00:00,23.5404352,87.2892225,SO2,10,73,30
India,West_Bengal,Howrah,"Belur Math, Howrah - WBPCB",04-04-2024 06:00:00,22.629801,88.352017,PM2.5,42,103,64
India,West_Bengal,Howrah,"Belur Math, Howrah - WBPCB",04-04-2024 06:00:00,22.629801,88.352017,PM10,54,122,89
India,West_Bengal,Howrah,"Ghusuri, Howrah - WBPCB",04-04-2024 06:00:00,22.611968,88.347422,PM10,63,138,103
India,West_Bengal,Howrah,"Ghusuri, Howrah - WBPCB",04-04-2024 06:00:00,22.611968,88.347422,SO2,4,6,5
India,West_Bengal,Kolkata,"Ballygunge, Kolkata - WBPCB",04-04-2024 06:00:00,22.5367507,88.3638022,PM2.5,46,105,70
India,West_Bengal,Kolkata,"Ballygunge, Kolkata - WBPCB",04-04-2024 06:00:00,22.5367507,88.3638022,PM10,46,128,83
India,West_Bengal,Kolkata,"Bidhannagar, Kolkata - WBPCB",04-04-2024 06:00:00,22.58157048,88.41002457,SO2,2,14,7
India,West_Bengal,Kolkata,"Fort William, Kolkata - WBPCB",04-04-2024 06:00:00,22.556640,88.342674,NH3,3,4,3
India,West_Bengal,Kolkata,"Fort William, Kolkata - WBPCB",04-04-2024 06:00:00,22.556640,88.342674,OZONE,30,53,38
India,West_Bengal,Kolkata,"Jadavpur, Kolkata - WBPCB",04-04-2024 06:00:00,22.49929,88.36917,NH3,2,2,2
India,West_Bengal,Kolkata,"Rabindra Sarobar, Kolkata - WBPCB",04-04-2024 06:00:00,22.51106,88.35142,PM2.5,28,94,57
India,West_Bengal,Kolkata,"Rabindra Sarobar, Kolkata - WBPCB",04-04-2024 06:00:00,22.51106,88.35142,SO2,8,43,19
India,West_Bengal,Kolkata,"Rabindra Sarobar, Kolkata - WBPCB",04-04-2024 06:00:00,22.51106,88.35142,CO,6,27,8
India,West_Bengal,Siliguri,"Ward-32 Bapupara, Siliguri - WBPCB",04-04-2024 06:00:00,26.6879226,88.4152495,SO2,7,12,10
India,West_Bengal,Siliguri,"Ward-32 Bapupara, Siliguri - WBPCB",04-04-2024 06:00:00,26.6879226,88.4152495,OZONE,8,63,15
India,Andhra_Pradesh,Amaravati,"Secretariat, Amaravati - APPCB",04-04-2024 06:00:00,16.5150833,80.5181667,PM10,24,52,38
India,Andhra_Pradesh,Amaravati,"Secretariat, Amaravati - APPCB",04-04-2024 06:00:00,16.5150833,80.5181667,SO2,13,18,16
India,Andhra_Pradesh,Anantapur,"Gulzarpet, Anantapur - APPCB",04-04-2024 06:00:00,14.675886,77.593027,PM10,67,105,79
India,Andhra_Pradesh,Anantapur,"Gulzarpet, Anantapur - APPCB",04-04-2024 06:00:00,14.675886,77.593027,SO2,4,16,7
India,Andhra_Pradesh,Anantapur,"Gulzarpet, Anantapur - APPCB",04-04-2024 06:00:00,14.675886,77.593027,OZONE,7,63,23
India,Andhra_Pradesh,Kadapa,"Yerramukkapalli, Kadapa - APPCB",04-04-2024 06:00:00,14.465052,78.824187,NO2,8,8,8
India,Andhra_Pradesh,Kadapa,"Yerramukkapalli, Kadapa - APPCB",04-04-2024 06:00:00,14.465052,78.824187,SO2,2,2,2
India,Andhra_Pradesh,Kadapa,"Yerramukkapalli, Kadapa - APPCB",04-04-2024 06:00:00,14.465052,78.824187,CO,8,24,11
India,Andhra_Pradesh,Rajamahendravaram,"Anand Kala Kshetram, Rajamahendravaram - APPCB",04-04-2024 06:00:00,16.9872867,81.7363176,CO,2,84,21
India,Andhra_Pradesh,Tirupati,"Vaikuntapuram, Tirupati - APPCB",04-04-2024 06:00:00,13.615387,79.409230,PM2.5,NA,NA,NA
India,Andhra_Pradesh,Tirupati,"Vaikuntapuram, Tirupati - APPCB",04-04-2024 06:00:00,13.615387,79.409230,NO2,NA,NA,NA
India,Andhra_Pradesh,Tirupati,"Vaikuntapuram, Tirupati - APPCB",04-04-2024 06:00:00,13.615387,79.409230,CO,10,15,12
India,Andhra_Pradesh,Vijayawada,"HB Colony, Vijayawada - APPCB",04-04-2024 06:00:00,16.536107,80.594233,CO,26,38,38
India,Andhra_Pradesh,Vijayawada,"Kanuru, Vijayawada - APPCB",04-04-2024 06:00:00,16.486692,80.699436,NO2,NA,NA,NA
India,Andhra_Pradesh,Vijayawada,"Kanuru, Vijayawada - APPCB",04-04-2024 06:00:00,16.486692,80.699436,NH3,NA,NA,NA
India,Andhra_Pradesh,Vijayawada,"Kanuru, Vijayawada - APPCB",04-04-2024 06:00:00,16.486692,80.699436,OZONE,NA,NA,NA
India,Andhra_Pradesh,Vijayawada,"Rajiv Gandhi Park, Vijayawada - APPCB",04-04-2024 06:00:00,16.509717,80.612222,PM10,31,65,48
India,Andhra_Pradesh,Vijayawada,"Rajiv Gandhi Park, Vijayawada - APPCB",04-04-2024 06:00:00,16.509717,80.612222,NH3,4,7,6
India,Andhra_Pradesh,Visakhapatnam,"GVM Corporation, Visakhapatnam - APPCB",04-04-2024 06:00:00,17.72,83.3,NO2,34,43,38
India,Arunachal_Pradesh,Naharlagun,"Naharlagun, Naharlagun - APSPCB",04-04-2024 06:00:00,27.103358,93.679645,SO2,4,4,4
India,Arunachal_Pradesh,Naharlagun,"Naharlagun, Naharlagun - APSPCB",04-04-2024 06:00:00,27.103358,93.679645,CO,8,26,18
India,Assam,Byrnihat,"Central Academy for SFS, Byrnihat - PCBA",04-04-2024 06:00:00,26.071318,91.87488,PM2.5,15,404,155
India,Assam,Byrnihat,"Central Academy for SFS, Byrnihat - PCBA",04-04-2024 06:00:00,26.071318,91.87488,NO2,23,140,70
India,Assam,Guwahati,"IITG, Guwahati - PCBA",04-04-2024 06:00:00,26.2028636,91.70046436,PM2.5,37,112,66
India,Assam,Guwahati,"IITG, Guwahati - PCBA",04-04-2024 06:00:00,26.2028636,91.70046436,PM10,88,302,171
India,Assam,Guwahati,"IITG, Guwahati - PCBA",04-04-2024 06:00:00,26.2028636,91.70046436,CO,8,12,10
India,Assam,Guwahati,"Pan Bazaar, Guwahati - PCBA",04-04-2024 06:00:00,26.187500,91.744194,PM2.5,29,65,42
India,Assam,Guwahati,"Pan Bazaar, Guwahati - PCBA",04-04-2024 06:00:00,26.187500,91.744194,SO2,35,57,43
India,Assam,Guwahati,"Railway Colony, Guwahati - PCBA",04-04-2024 06:00:00,26.181742,91.78063,PM10,NA,NA,NA
India,Assam,Nagaon,"Christianpatty, Nagaon - PCBA",04-04-2024 06:00:00,26.349082,92.68449,PM10,56,126,84
India,Assam,Nagaon,"Christianpatty, Nagaon - PCBA",04-04-2024 06:00:00,26.349082,92.68449,OZONE,33,100,52
India,Assam,Silchar,"Tarapur, Silchar - PCBA",04-04-2024 06:00:00,24.82827,92.79525,SO2,1,14,5
India,Assam,Sivasagar,"Girls College, Sivasagar - PCBA",04-04-2024 06:00:00,26.987634,94.636574,PM10,50,75,60
India,Bihar,Araria,"Kharahiya Basti, Araria - BSPCB",04-04-2024 06:00:00,26.146529,87.454184,NH3,7,8,7
India,Bihar,Arrah,"New DM Office, Arrah - BSPCB",04-04-2024 06:00:00,25.5626095,84.663264,OZONE,12,59,18
India,Bihar,Aurangabad,"Gurdeo Nagar, Aurangabad - BSPCB",04-04-2024 06:00:00,24.75746,84.366208,NH3,3,6,5
India,Bihar,Aurangabad,"Gurdeo Nagar, Aurangabad - BSPCB",04-04-2024 06:00:00,24.75746,84.366208,CO,16,86,66
India,Bihar,Bettiah,"Kamalnath Nagar, Bettiah - BSPCB",04-04-2024 06:00:00,26.80365,84.51954,OZONE,NA,NA,NA
India,Bihar,Bhagalpur,"DM Office_Kachari Chowk, Bhagalpur - BSPCB",04-04-2024 06:00:00,25.251013,86.989001,NH3,6,8,7
India,Bihar,Bhagalpur,"DM Office_Kachari Chowk, Bhagalpur - BSPCB",04-04-2024 06:00:00,25.251013,86.989001,CO,11,102,52
India,Bihar,Bhagalpur,"Mayaganj, Bhagalpur - BSPCB",04-04-2024 06:00:00,25.265194,87.012947,PM10,26,256,120
India,Bihar,Bhagalpur,"Mayaganj, Bhagalpur - BSPCB",04-04-2024 06:00:00,25.265194,87.012947,NO2,4,26,9
India,Bihar,Buxar,"Charitra Van, Buxar - BSPCB (Formerly known as Central Jail)",04-04-2024 06:00:00,25.567520,83.966379,PM2.5,NA,NA,NA
India,Bihar,Buxar,"Charitra Van, Buxar - BSPCB (Formerly known as Central Jail)",04-04-2024 06:00:00,25.567520,83.966379,PM10,NA,NA,NA
India,Bihar,Buxar,"Charitra Van, Buxar - BSPCB (Formerly known as Central Jail)",04-04-2024 06:00:00,25.567520,83.966379,NO2,36,136,76
India,Bihar,Chhapra,"Darshan Nagar, Chhapra - BSPCB",04-04-2024 06:00:00,25.7808257,84.7446768,NH3,7,14,10
India,Bihar,Gaya,"Collectorate, Gaya - BSPCB",04-04-2024 06:00:00,24.7955,84.9994,PM2.5,5,177,95
India,Bihar,Gaya,"Collectorate, Gaya - BSPCB",04-04-2024 06:00:00,24.7955,84.9994,CO,16,70,28
India,Bihar,Gaya,"Collectorate, Gaya - BSPCB",04-04-2024 06:00:00,24.7955,84.9994,OZONE,50,81,70
India,Bihar,Gaya,"Kareemganj, Gaya - BSPCB",04-04-2024 06:00:00,24.792403,84.992416,PM2.5,7,190,70
India,Bihar,Gaya,"SFTI Kusdihra, Gaya - BSPCB",04-04-2024 06:00:00,24.762518,84.982348,NO2,NA,NA,NA
India,Bihar,Katihar,"Mirchaibari, Katihar - BSPCB",04-04-2024 06:00:00,25.560083,87.553265,NH3,NA,NA,NA
India,Bihar,Kishanganj,"SDM Office_Khagra, Kishanganj - BSPCB",04-04-2024 06:00:00,26.0881305,87.93840336,PM10,151,500,283
India,Bihar,Kishanganj,"SDM Office_Khagra, Kishanganj - BSPCB",04-04-2024 06:00:00,26.0881305,87.93840336,SO2,30,108,56
India,Bihar,Manguraha,"Forest Rest House, Manguraha - BSPCB",04-04-2024 06:00:00,27.308328,84.531742,PM2.5,NA,NA,NA
India,Bihar,Manguraha,"Forest Rest House, Manguraha - BSPCB",04-04-2024 06:00:00,27.308328,84.531742,PM10,41,139,74
India,Bihar,Manguraha,"Forest Rest House, Manguraha - BSPCB",04-04-2024 06:00:00,27.308328,84.531742,NO2,12,18,14
India,Bihar,Motihari,"Gandak Colony, Motihari - BSPCB",04-04-2024 06:00:00,26.63086,84.90051,NO2,44,87,70
India,Bihar,Motihari,"Gandak Colony, Motihari - BSPCB",04-04-2024 06:00:00,26.63086,84.90051,OZONE,33,173,58
India,Bihar,Munger,"Town Hall, Munger - BSPCB",04-04-2024 06:00:00,25.376776,86.471523,PM2.5,83,243,131
India,Bihar,Munger,"Town Hall, Munger - BSPCB",04-04-2024 06:00:00,25.376776,86.471523,PM10,100,171,124
India,Bihar,Muzaffarpur,"Buddha Colony, Muzaffarpur - BSPCB",04-04-2024 06:00:00,26.11442,85.39813,SO2,10,25,15
India,Bihar,Muzaffarpur,"MIT-Daudpur Kothi, Muzaffarpur - BSPCB",04-04-2024 06:00:00,26.1403345,85.3650192,NH3,1,4,2
India,Bihar,Patna,"DRM Office Danapur, Patna - BSPCB",04-04-2024 06:00:00,25.586562,85.043586,PM2.5,NA,NA,NA
India,Bihar,Patna,"IGSC Planetarium Complex, Patna - BSPCB",04-04-2024 06:00:00,25.610369,85.132568,PM2.5,45,238,134
India,Bihar,Patna,"Muradpur, Patna - BSPCB",04-04-2024 06:00:00,25.619651,85.147382,OZONE,1,42,1
India,Bihar,Patna,"Rajbansi Nagar, Patna - BSPCB",04-04-2024 06:00:00,25.599486,85.113666,PM2.5,129,315,211
India,Bihar,Patna,"Samanpura, Patna - BSPCB",04-04-2024 06:00:00,25.596727,85.085624,SO2,6,7,6
India,Bihar,Rajgir,"Dangi Tola, Rajgir - BSPCB",04-04-2024 06:00:00,25.03280,85.41948,NH3,1,1,1
India,Bihar,Rajgir,"Dangi Tola, Rajgir - BSPCB",04-04-2024 06:00:00,25.03280,85.41948,SO2,4,4,4
India,Bihar,Saharsa,"Police Line, Saharsa - BSPCB",04-04-2024 06:00:00,25.892357,86.590325,PM10,73,139,103
India,Bihar,Saharsa,"Police Line, Saharsa - BSPCB",04-04-2024 06:00:00,25.892357,86.590325,SO2,16,16,16
India,Bihar,Saharsa,"Police Line, Saharsa - BSPCB",04-04-2024 06:00:00,25.892357,86.590325,CO,6,105,27
India,Bihar,Samastipur,"DM Office_Kasipur, Samastipur - BSPCB",04-04-2024 06:00:00,25.859655,85.77944,NH3,4,5,4
India,Bihar,Samastipur,"DM Office_Kasipur, Samastipur - BSPCB",04-04-2024 06:00:00,25.859655,85.77944,CO,4,35,29
India,Bihar,Sasaram,"Dada Peer, Sasaram - BSPCB",04-04-2024 06:00:00,24.952822,84.002396,PM10,66,167,110
India,Bihar,Sasaram,"Dada Peer, Sasaram - BSPCB",04-04-2024 06:00:00,24.952822,84.002396,SO2,17,23,22
India,Bihar,Siwan,"Chitragupta Nagar, Siwan - BSPCB",04-04-2024 06:00:00,26.2271665,84.3570427,PM2.5,NA,NA,NA
India,Bihar,Siwan,"Chitragupta Nagar, Siwan - BSPCB",04-04-2024 06:00:00,26.2271665,84.3570427,CO,63,129,83
India,Chandigarh,Chandigarh,"Sector 22, Chandigarh - CPCC",04-04-2024 06:00:00,30.735567,76.775714,NH3,6,10,8
India,Chandigarh,Chandigarh,"Sector-25, Chandigarh - CPCC",04-04-2024 06:00:00,30.751462,76.762879,NH3,11,24,17
India,Chandigarh,Chandigarh,"Sector-25, Chandigarh - CPCC",04-04-2024 06:00:00,30.751462,76.762879,SO2,7,51,12
India,Chandigarh,Chandigarh,"Sector-53, Chandigarh - CPCC",04-04-2024 06:00:00,30.719859,76.738637,CO,31,103,57
India,Chhattisgarh,Bhilai,"32Bungalows, Bhilai - CECB",04-04-2024 06:00:00,21.194815,81.314770,NH3,6,7,7
India,Chhattisgarh,Bhilai,"Civic Center, Bhilai - Bhilai Steel Plant",04-04-2024 06:00:00,21.185571,81.343175,PM2.5,39,125,63
India,Chhattisgarh,Bhilai,"Civic Center, Bhilai - Bhilai Steel Plant",04-04-2024 06:00:00,21.185571,81.343175,NH3,5,5,5
India,Chhattisgarh,Bhilai,"Hathkhoj, Bhilai - CECB",04-04-2024 06:00:00,21.224231,81.408350,NO2,12,49,30
India,Chhattisgarh,Bhilai,"Hathkhoj, Bhilai - CECB",04-04-2024 06:00:00,21.224231,81.408350,SO2,5,36,16
India,Chhattisgarh,Bilaspur,"Mangala, Bilaspur - NTPC",04-04-2024 06:00:00,22.08815,82.13737,NO2,20,23,22
India,Chhattisgarh,Chhal,"Nawapara SECL Colony, Chhal - CECB",04-04-2024 06:00:00,22.118125,83.140608,NO2,16,75,42
India,Chhattisgarh,Korba,"Rampur, Korba - CECB",04-04-2024 06:00:00,22.368195,82.746431,PM2.5,47,92,66
India,Chhattisgarh,Korba,"Rampur, Korba - CECB",04-04-2024 06:00:00,22.368195,82.746431,PM10,68,184,126
India,Chhattisgarh,Korba,"Rampur, Korba - CECB",04-04-2024 06:00:00,22.368195,82.746431,CO,26,56,50
India,Chhattisgarh,Korba,"Urja Nagar, Korba - CECB",04-04-2024 06:00:00,22.348441,82.549611,NO2,51,82,64
India,Chhattisgarh,Korba,"Urja Nagar, Korba - CECB",04-04-2024 06:00:00,22.348441,82.549611,SO2,3,15,7
India,Chhattisgarh,Kunjemura,"OP Jindal School, Kunjemura - CECB",04-04-2024 06:00:00,22.126650,83.483212,CO,22,115,112
India,Chhattisgarh,Milupara,"Govt. Higher Secondary School, Milupara - CECB",04-04-2024 06:00:00,22.1910172,83.5197009,PM2.5,44,226,124
India,Chhattisgarh,Raipur,"AIIMS, Raipur - CECB",04-04-2024 06:00:00,21.258815,81.578979,PM10,68,120,90
India,Chhattisgarh,Raipur,"AIIMS, Raipur - CECB",04-04-2024 06:00:00,21.258815,81.578979,OZONE,6,109,12
India,Chhattisgarh,Raipur,"Bhatagaon New ISBT, Raipur - CECB",04-04-2024 06:00:00,21.219665,81.630094,PM10,40,175,103
India,Chhattisgarh,Raipur,"Bhatagaon New ISBT, Raipur - CECB",04-04-2024 06:00:00,21.219665,81.630094,SO2,1,4,2
India,Chhattisgarh,Raipur,"Bhatagaon New ISBT, Raipur - CECB",04-04-2024 06:00:00,21.219665,81.630094,CO,28,79,48
India,Chhattisgarh,Raipur,"Bhatagaon New ISBT, Raipur - CECB",04-04-2024 06:00:00,21.219665,81.630094,OZONE,3,17,4
India,Chhattisgarh,Raipur,"Krishak Nagar, Raipur - CECB",04-04-2024 06:00:00,21.237755,81.705301,PM10,42,140,100
India,Chhattisgarh,Raipur,"Krishak Nagar, Raipur - CECB",04-04-2024 06:00:00,21.237755,81.705301,NH3,1,1,1
India,Chhattisgarh,Raipur,"Siltara Phase-II, Raipur - CECB",04-04-2024 06:00:00,21.371751,81.664929,NH3,3,3,3
India,Delhi,Delhi,"Alipur, Delhi - DPCC",04-04-2024 06:00:00,28.815329,77.153010,NO2,6,84,29
India,Delhi,Delhi,"Anand Vihar, Delhi - DPCC",04-04-2024 06:00:00,28.647622,77.3158090,PM2.5,28,405,198
India,Delhi,Delhi,"Ashok Vihar, Delhi - DPCC",04-04-2024 06:00:00,28.695381,77.181665,CO,7,90,39
India,Delhi,Delhi,"Ashok Vihar, Delhi - DPCC",04-04-2024 06:00:00,28.695381,77.181665,OZONE,2,77,4
India,Delhi,Delhi,"Aya Nagar, Delhi - IMD",04-04-2024 06:00:00,28.4706914,77.1099364,PM2.5,51,240,146
India,Delhi,Delhi,"Aya Nagar, Delhi - IMD",04-04-2024 06:00:00,28.4706914,77.1099364,PM10,89,230,156
India,Delhi,Delhi,"Bawana, Delhi - DPCC",04-04-2024 06:00:00,28.776200,77.051074,PM2.5,58,311,155
India,Delhi,Delhi,"Bawana, Delhi - DPCC",04-04-2024 06:00:00,28.776200,77.051074,PM10,68,414,180
India,Delhi,Delhi,"Chandni Chowk, Delhi - IITM",04-04-2024 06:00:00,28.656756,77.227234,SO2,NA,NA,NA
India,Delhi,Delhi,"DTU, Delhi - CPCB",04-04-2024 06:00:00,28.7500499,77.1112615,NH3,13,24,17
India,Delhi,Delhi,"Dr. Karni Singh Shooting Range, Delhi - DPCC",04-04-2024 06:00:00,28.498571,77.264840,CO,22,115,76
India,Delhi,Delhi,"Dwarka-Sector 8, Delhi - DPCC ",04-04-2024 06:00:00,28.5710274,77.0719006,PM2.5,33,316,156
India,Delhi,Delhi,"Dwarka-Sector 8, Delhi - DPCC ",04-04-2024 06:00:00,28.5710274,77.0719006,NH3,3,6,5
India,Delhi,Delhi,"IGI Airport (T3), Delhi - IMD",04-04-2024 06:00:00,28.5627763,77.1180053,OZONE,1,76,2
India,Delhi,Delhi,"IHBAS, Dilshad Garden, Delhi - CPCB",04-04-2024 06:00:00,28.6811736,77.3025234,NO2,32,51,42
India,Delhi,Delhi,"IHBAS, Dilshad Garden, Delhi - CPCB",04-04-2024 06:00:00,28.6811736,77.3025234,SO2,3,39,24
India,Delhi,Delhi,"ITO, Delhi - CPCB",04-04-2024 06:00:00,28.628624,77.241060,NH3,1,10,5
India,Delhi,Delhi,"Jahangirpuri, Delhi - DPCC",04-04-2024 06:00:00,28.732820,77.170633,OZONE,4,92,9
India,Delhi,Delhi,"Jawaharlal Nehru Stadium, Delhi - DPCC",04-04-2024 06:00:00,28.580280,77.233829,PM2.5,27,185,87
India,Delhi,Delhi,"Lodhi Road, Delhi - IITM",04-04-2024 06:00:00,28.588333,77.221667,SO2,19,36,27
India,Delhi,Delhi,"Lodhi Road, Delhi - IMD",04-04-2024 06:00:00,28.5918245,77.2273074,PM2.5,53,197,96
India,Delhi,Delhi,"Lodhi Road, Delhi - IMD",04-04-2024 06:00:00,28.5918245,77.2273074,PM10,64,167,124
India,Delhi,Delhi,"Major Dhyan Chand National Stadium, Delhi - DPCC",04-04-2024 06:00:00,28.611281,77.237738,OZONE,2,249,26
India,Delhi,Delhi,"Mandir Marg, Delhi - DPCC",04-04-2024 06:00:00,28.636429,77.201067,SO2,6,10,8
India,Delhi,Delhi,"Mandir Marg, Delhi - DPCC",04-04-2024 06:00:00,28.636429,77.201067,OZONE,4,32,8
India,Delhi,Delhi,"Mundka, Delhi - DPCC",04-04-2024 06:00:00,28.684678,77.076574,NH3,4,9,5
India,Delhi,Delhi,"NSIT Dwarka, Delhi - CPCB",04-04-2024 06:00:00,28.60909,77.0325413,PM10,134,258,184
India,Delhi,Delhi,"NSIT Dwarka, Delhi - CPCB",04-04-2024 06:00:00,28.60909,77.0325413,NO2,50,86,66
India,Delhi,Delhi,"Najafgarh, Delhi - DPCC",04-04-2024 06:00:00,28.570173,76.933762,PM10,57,228,130
India,Delhi,Delhi,"Najafgarh, Delhi - DPCC",04-04-2024 06:00:00,28.570173,76.933762,SO2,8,35,24
India,Delhi,Delhi,"Narela, Delhi - DPCC",04-04-2024 06:00:00,28.822836,77.101981,PM10,88,300,169
India,Delhi,Delhi,"Narela, Delhi - DPCC",04-04-2024 06:00:00,28.822836,77.101981,OZONE,9,244,46
India,Delhi,Delhi,"Nehru Nagar, Delhi - DPCC",04-04-2024 06:00:00,28.567890,77.250515,NO2,29,57,39
India,Delhi,Delhi,"Nehru Nagar, Delhi - DPCC",04-04-2024 06:00:00,28.567890,77.250515,NH3,8,10,9
India,Delhi,Delhi,"New Moti Bagh, Delhi - MHUA",04-04-2024 06:00:00,28.57834,77.18400,CO,11,100,62
India,Delhi,Delhi,"Punjabi Bagh, Delhi - DPCC",04-04-2024 06:00:00,28.674045,77.131023,SO2,6,23,14
India,Delhi,Delhi,"Punjabi Bagh, Delhi - DPCC",04-04-2024 06:00:00,28.674045,77.131023,OZONE,1,56,4
India,Delhi,Delhi,"Pusa, Delhi - DPCC",04-04-2024 06:00:00,28.639652,77.146275,CO,12,105,68
India,Delhi,Delhi,"Pusa, Delhi - IMD",04-04-2024 06:00:00,28.636110,77.173332,NO2,17,30,24
India,Delhi,Delhi,"R K Puram, Delhi - DPCC",04-04-2024 06:00:00,28.563262,77.186937,PM2.5,37,323,157
India,Delhi,Delhi,"Rohini, Delhi - DPCC",04-04-2024 06:00:00,28.732528,77.119920,SO2,9,44,20
India,Delhi,Delhi,"Rohini, Delhi - DPCC",04-04-2024 06:00:00,28.732528,77.119920,OZONE,3,238,23
India,Delhi,Delhi,"Shadipur, Delhi - CPCB",04-04-2024 06:00:00,28.6514781,77.1473105,SO2,11,30,20
India,Delhi,Delhi,"Sonia Vihar, Delhi - DPCC",04-04-2024 06:00:00,28.710508,77.249485,PM2.5,49,305,150
India,Delhi,Delhi,"Vivek Vihar, Delhi - DPCC",04-04-2024 06:00:00,28.672342,77.315260,SO2,34,107,54
India,Delhi,Delhi,"Wazirpur, Delhi - DPCC",04-04-2024 06:00:00,28.699793,77.165453,NH3,8,10,9
India,Delhi,Delhi,"Wazirpur, Delhi - DPCC",04-04-2024 06:00:00,28.699793,77.165453,SO2,4,105,38
India,Gujarat,Ahmedabad,"Chandkheda, Ahmedabad - IITM",04-04-2024 06:00:00,23.107969,72.574648,PM2.5,34,192,88
India,Gujarat,Ahmedabad,"Chandkheda, Ahmedabad - IITM",04-04-2024 06:00:00,23.107969,72.574648,NH3,3,5,4
India,Gujarat,Ahmedabad,"Chandkheda, Ahmedabad - IITM",04-04-2024 06:00:00,23.107969,72.574648,OZONE,5,41,16
India,Gujarat,Ahmedabad,"Gyaspur, Ahmedabad - IITM",04-04-2024 06:00:00,22.977134,72.553024,PM10,73,175,109
India,Gujarat,Ahmedabad,"Gyaspur, Ahmedabad - IITM",04-04-2024 06:00:00,22.977134,72.553024,NO2,28,61,47
India,Gujarat,Ahmedabad,"Maninagar, Ahmedabad - GPCB",04-04-2024 06:00:00,23.002657,72.591912,PM10,56,186,98
India,Gujarat,Ahmedabad,"Maninagar, Ahmedabad - GPCB",04-04-2024 06:00:00,23.002657,72.591912,SO2,NA,NA,NA
India,Gujarat,Ahmedabad,"Raikhad, Ahmedabad - IITM",04-04-2024 06:00:00,23.020509,72.579261,OZONE,10,32,15
India,Gujarat,Ahmedabad,"Rakhial, Ahmedabad - IITM",04-04-2024 06:00:00,23.016834,72.625775,PM2.5,62,135,81
India,Gujarat,Ahmedabad,"Rakhial, Ahmedabad - IITM",04-04-2024 06:00:00,23.016834,72.625775,NO2,16,58,28
India,Gujarat,Ahmedabad,"Rakhial, Ahmedabad - IITM",04-04-2024 06:00:00,23.016834,72.625775,SO2,4,33,10
India,Gujarat,Ahmedabad,"SAC ISRO Satellite, Ahmedabad - IITM",04-04-2024 06:00:00,23.023389,72.515201,NO2,17,17,17
India,Gujarat,Ahmedabad,"SVPI Airport Hansol, Ahmedabad - IITM",04-04-2024 06:00:00,23.076793,72.627874,PM2.5,26,80,49
India,Gujarat,Ahmedabad,"Sardar Vallabhbhai Patel Stadium, Ahmedabad - IITM",04-04-2024 06:00:00,23.043070,72.562968,PM10,51,101,74
India,Gujarat,Gandhinagar,"IIPHG Lekawada, Gandhinagar - IITM",04-04-2024 06:00:00,23.243639,72.68994,OZONE,12,38,17
India,Gujarat,Gandhinagar,"Sector-10, Gandhinagar - GPCB",04-04-2024 06:00:00,23.221714,72.654328,NO2,18,23,20
India,Gujarat,Nandesari,"GIDC, Nandesari - Nandesari Ind. Association",04-04-2024 06:00:00,22.410802,73.097923,NO2,3,93,22
India,Gujarat,Surat,"Science Center, Surat - SMC",04-04-2024 06:00:00,21.170046,72.795405,CO,24,36,26
India,Gujarat,Vapi,"Phase-1 GIDC, Vapi - GPCB",04-04-2024 06:00:00,20.362421,72.918013,OZONE,1,2,1
India,Gujarat,Vatva,"Phase-4 GIDC, Vatva - GPCB",04-04-2024 06:00:00,22.969611,72.643500,NO2,32,136,80
India,Haryana,Bahadurgarh,"Arya Nagar, Bahadurgarh - HSPCB",04-04-2024 06:00:00,28.6701,76.9254,PM2.5,14,100,52
India,Haryana,Bahadurgarh,"Arya Nagar, Bahadurgarh - HSPCB",04-04-2024 06:00:00,28.6701,76.9254,PM10,75,431,156
India,Haryana,Ballabgarh,"Nathu Colony, Ballabgarh - HSPCB",04-04-2024 06:00:00,28.3419248,77.319699,NH3,1,2,2
India,Haryana,Ballabgarh,"Nathu Colony, Ballabgarh - HSPCB",04-04-2024 06:00:00,28.3419248,77.319699,CO,14,88,57
India,Haryana,Bhiwani,"H.B. Colony, Bhiwani - HSPCB",04-04-2024 06:00:00,28.806223,76.141105,OZONE,7,31,14
India,Haryana,Charkhi Dadri,"Mini Secretariat, Charkhi Dadri - HSPCB",04-04-2024 06:00:00,28.593883,76.270653,PM10,63,169,108
India,Haryana,Dharuhera,"Municipal Corporation Office, Dharuhera -  HSPCB",04-04-2024 06:00:00,28.206800,76.799700,PM10,NA,NA,NA
India,Haryana,Faridabad,"Sector 11, Faridabad - HSPCB",04-04-2024 06:00:00,28.376058,77.315741,PM2.5,172,412,293
India,Haryana,Faridabad,"Sector 11, Faridabad - HSPCB",04-04-2024 06:00:00,28.376058,77.315741,NH3,6,6,6
India,Haryana,Faridabad,"Sector 11, Faridabad - HSPCB",04-04-2024 06:00:00,28.376058,77.315741,SO2,6,117,15
India,Haryana,Faridabad,"Sector 30, Faridabad - HSPCB",04-04-2024 06:00:00,28.4417,77.3217,NO2,29,33,31
India,Haryana,Faridabad,"Sector 30, Faridabad - HSPCB",04-04-2024 06:00:00,28.4417,77.3217,NH3,9,9,9
India,Haryana,Fatehabad,"Huda Sector, Fatehabad - HSPCB",04-04-2024 06:00:00,29.503664,75.467934,NH3,12,23,14
India,Haryana,Gurugram,"Sector-51, Gurugram - HSPCB",04-04-2024 06:00:00,28.4227,77.0667,PM2.5,165,411,308
India,Haryana,Gurugram,"Sector-51, Gurugram - HSPCB",04-04-2024 06:00:00,28.4227,77.0667,PM10,109,341,180
India,Haryana,Gurugram,"Sector-51, Gurugram - HSPCB",04-04-2024 06:00:00,28.4227,77.0667,NO2,13,29,23
India,Haryana,Gurugram,"Sector-51, Gurugram - HSPCB",04-04-2024 06:00:00,28.4227,77.0667,NH3,7,14,9
India,Haryana,Gurugram,"Sector-51, Gurugram - HSPCB",04-04-2024 06:00:00,28.4227,77.0667,SO2,3,4,4
India,Haryana,Gurugram,"Sector-51, Gurugram - HSPCB",04-04-2024 06:00:00,28.4227,77.0667,OZONE,27,67,42
India,Haryana,Gurugram,"Vikas Sadan, Gurugram - HSPCB",04-04-2024 06:00:00,28.4501238,77.0263051,NO2,5,26,14
India,Haryana,Gurugram,"Vikas Sadan, Gurugram - HSPCB",04-04-2024 06:00:00,28.4501238,77.0263051,SO2,31,70,44
India,Haryana,Hisar,"Urban Estate-II, Hisar - HSPCB",04-04-2024 06:00:00,29.140560,75.744941,OZONE,NA,NA,NA
India,Haryana,Kaithal,"Rishi Nagar, Kaithal - HSPCB",04-04-2024 06:00:00,29.8006,76.4155,PM10,70,130,97
India,Haryana,Kaithal,"Rishi Nagar, Kaithal - HSPCB",04-04-2024 06:00:00,29.8006,76.4155,NO2,24,25,25
India,Haryana,Karnal,"Sector-12, Karnal - HSPCB",04-04-2024 06:00:00,29.695300,77.002700,PM10,53,131,88
India,Haryana,Mandikhera,"General Hospital, Mandikhera - HSPCB",04-04-2024 06:00:00,27.9002,76.9938,PM2.5,19,77,47
India,Haryana,Mandikhera,"General Hospital, Mandikhera - HSPCB",04-04-2024 06:00:00,27.9002,76.9938,PM10,94,188,137
India,Haryana,Mandikhera,"General Hospital, Mandikhera - HSPCB",04-04-2024 06:00:00,27.9002,76.9938,SO2,31,39,34
India,Haryana,Manesar,"Sector-2 IMT, Manesar - HSPCB",04-04-2024 06:00:00,28.360699,76.936090,PM2.5,71,278,152
India,Haryana,Manesar,"Sector-2 IMT, Manesar - HSPCB",04-04-2024 06:00:00,28.360699,76.936090,OZONE,1,52,3
India,Haryana,Narnaul,"Shastri Nagar, Narnaul - HSPCB",04-04-2024 06:00:00,28.060249,76.113115,PM2.5,7,318,72
India,Haryana,Palwal,"Shyam Nagar, Palwal - HSPCB",04-04-2024 06:00:00,28.1485564,77.3320667,SO2,6,22,15
India,Haryana,Palwal,"Shyam Nagar, Palwal - HSPCB",04-04-2024 06:00:00,28.1485564,77.3320667,CO,18,40,32
India,Haryana,Panipat,"Sector-18, Panipat - HSPCB",04-04-2024 06:00:00,29.497973,76.993331,CO,24,26,25
India,Haryana,Sirsa,"F-Block, Sirsa - HSPCB",04-04-2024 06:00:00,29.536400,75.015800,PM10,42,328,109
India,Haryana,Sonipat,"Murthal, Sonipat - HSPCB",04-04-2024 06:00:00,29.027200,77.062100,PM10,104,130,108
India,Haryana,Sonipat,"Murthal, Sonipat - HSPCB",04-04-2024 06:00:00,29.027200,77.062100,SO2,12,29,20
India,Himachal Pradesh,Baddi,"HIMUDA Complex Phase-1, Baddi - HPPCB",04-04-2024 06:00:00,30.943887,76.801991,PM2.5,13,308,99
India,Himachal Pradesh,Baddi,"HIMUDA Complex Phase-1, Baddi - HPPCB",04-04-2024 06:00:00,30.943887,76.801991,SO2,8,117,46
India,Jharkhand,Dhanbad,"Kalakusuma, Dhanbad - DMC",04-04-2024 06:00:00,23.811548,86.481238,SO2,NA,NA,NA
India,Jharkhand,Dhanbad,"Sardar Patel Nagar, Dhanbad - JSPCB",04-04-2024 06:00:00,23.80569,86.44268,NO2,1,160,61
India,Jharkhand,Dhanbad,"Sardar Patel Nagar, Dhanbad - JSPCB",04-04-2024 06:00:00,23.80569,86.44268,CO,1,172,12
India,Karnataka,Bagalkot,"Vidayagiri, Bagalkot - KSPCB",04-04-2024 06:00:00,16.172806,75.659694,NH3,1,2,1
India,Karnataka,Bagalkot,"Vidayagiri, Bagalkot - KSPCB",04-04-2024 06:00:00,16.172806,75.659694,CO,16,56,33
India,Karnataka,Belgaum,"Ramteerth Nagar, Belgaum - KSPCB",04-04-2024 06:00:00,15.888653,74.541751,NH3,NA,NA,NA
India,Karnataka,Belgaum,"Ramteerth Nagar, Belgaum - KSPCB",04-04-2024 06:00:00,15.888653,74.541751,SO2,NA,NA,NA
India,Karnataka,Bengaluru,"BTM Layout, Bengaluru - CPCB",04-04-2024 06:00:00,12.9135218,77.5950804,NO2,33,37,35
India,Karnataka,Bengaluru,"BTM Layout, Bengaluru - CPCB",04-04-2024 06:00:00,12.9135218,77.5950804,NH3,5,6,5
India,Karnataka,Bengaluru,"BTM Layout, Bengaluru - CPCB",04-04-2024 06:00:00,12.9135218,77.5950804,OZONE,22,110,70
India,Karnataka,Bengaluru,"Bapuji Nagar, Bengaluru - KSPCB",04-04-2024 06:00:00,12.951913,77.539784,NO2,8,13,10
India,Karnataka,Bengaluru,"Hebbal, Bengaluru - KSPCB",04-04-2024 06:00:00,13.029152,77.585901,PM10,NA,NA,NA
India,Karnataka,Bengaluru,"Hombegowda Nagar, Bengaluru - KSPCB",04-04-2024 06:00:00,12.938539,77.590100,NH3,1,2,1
India,Karnataka,Bengaluru,"Hombegowda Nagar, Bengaluru - KSPCB",04-04-2024 06:00:00,12.938539,77.590100,SO2,3,4,3
India,Karnataka,Bengaluru,"Jayanagar 5th Block, Bengaluru - KSPCB",04-04-2024 06:00:00,12.920984,77.584908,PM2.5,40,86,64
India,Karnataka,Bengaluru,"Jigani, Bengaluru - KSPCB",04-04-2024 06:00:00,12.7816279,77.6299145,PM10,31,154,82
India,Karnataka,Bengaluru,"Jigani, Bengaluru - KSPCB",04-04-2024 06:00:00,12.7816279,77.6299145,SO2,16,16,16
India,Karnataka,Bengaluru,"Kasturi Nagar, Bengaluru - KSPCB",04-04-2024 06:00:00,13.003872,77.664217,PM10,91,387,142
India,Karnataka,Bengaluru,"RVCE-Mailasandra, Bengaluru - KSPCB",04-04-2024 06:00:00,12.921418,77.502466,SO2,5,11,8
India,Karnataka,Bengaluru,"Silk Board, Bengaluru - KSPCB",04-04-2024 06:00:00,12.917348,77.622813,PM10,32,95,61
India,Karnataka,Bengaluru,"Silk Board, Bengaluru - KSPCB",04-04-2024 06:00:00,12.917348,77.622813,NH3,4,6,5
India,Karnataka,Bengaluru,"Silk Board, Bengaluru - KSPCB",04-04-2024 06:00:00,12.917348,77.622813,OZONE,19,27,22
India,Karnataka,Chamarajanagar,"Urban, Chamarajanagar - KSPCB",04-04-2024 06:00:00,11.55358,76.55521,PM2.5,20,51,33
India,Karnataka,Chikkaballapur,"Chikkaballapur Rural, Chikkaballapur - KSPCB",04-04-2024 06:00:00,13.428828,77.731418,PM10,52,113,79
India,Karnataka,Chikkaballapur,"Chikkaballapur Rural, Chikkaballapur - KSPCB",04-04-2024 06:00:00,13.428828,77.731418,NH3,1,1,1
India,Karnataka,Chikkamagaluru,"Kalyana Nagara, Chikkamagaluru - KSPCB",04-04-2024 06:00:00,13.328028,75.797056,NO2,13,34,20
India,Karnataka,Dharwad,"Kalabhavan, Dharwad - KSPCB",04-04-2024 06:00:00,15.459706,75.008381,PM2.5,56,67,61
India,Karnataka,Gadag,"Panchal Nagar, Gadag - KSPCB",04-04-2024 06:00:00,15.411456,75.638133,PM2.5,38,347,69
India,Karnataka,Gadag,"Panchal Nagar, Gadag - KSPCB",04-04-2024 06:00:00,15.411456,75.638133,SO2,11,16,14
India,Karnataka,Haveri,"Ashwini Nagar, Haveri - KSPCB",04-04-2024 06:00:00,14.791800,75.389600,NH3,2,4,3
India,Karnataka,Haveri,"Ashwini Nagar, Haveri - KSPCB",04-04-2024 06:00:00,14.791800,75.389600,CO,36,38,36
India,Karnataka,Hubballi,"Lingaraj Nagar, Hubballi - KSPCB",04-04-2024 06:00:00,15.3714823,75.1160168,NO2,10,20,15
India,Karnataka,Kalaburagi,"Lal Bahadur Shastri Nagar, Kalaburagi - KSPCB",04-04-2024 06:00:00,17.321993,76.822628,NO2,11,12,12
India,Karnataka,Karwar,"KHB Colony, Karwar - KSPCB",04-04-2024 06:00:00,14.816666,74.141003,CO,8,8,8
India,Karnataka,Karwar,"KHB Colony, Karwar - KSPCB",04-04-2024 06:00:00,14.816666,74.141003,OZONE,21,22,21
India,Karnataka,Kolar,"Tamaka Ind. Area, Kolar - KSPCB",04-04-2024 06:00:00,13.1276288,78.1570122,OZONE,13,16,14
India,Karnataka,Koppal,"Diwator Nagar, Koppal - KSPCB",04-04-2024 06:00:00,15.347630,76.181767,CO,85,102,101
India,Karnataka,Madikeri,"Stuart Hill, Madikeri - KSPCB",04-04-2024 06:00:00,12.415911,75.735050,NH3,1,2,1
India,Karnataka,Madikeri,"Stuart Hill, Madikeri - KSPCB",04-04-2024 06:00:00,12.415911,75.735050,SO2,4,4,4
India,Karnataka,Madikeri,"Stuart Hill, Madikeri - KSPCB",04-04-2024 06:00:00,12.415911,75.735050,CO,7,194,56
India,Karnataka,Mangalore,"Kadri, Mangalore - KSPCB",04-04-2024 06:00:00,12.889250,74.853000,PM10,65,205,131
India,Karnataka,Ramanagara,"Vijay Nagar, Ramanagara - KSPCB",04-04-2024 06:00:00,12.733409,77.298051,PM2.5,32,80,52
India,Karnataka,Ramanagara,"Vijay Nagar, Ramanagara - KSPCB",04-04-2024 06:00:00,12.733409,77.298051,NH3,1,2,1
India,Karnataka,Ramanagara,"Vijay Nagar, Ramanagara - KSPCB",04-04-2024 06:00:00,12.733409,77.298051,CO,6,30,17
India,Karnataka,Shivamogga,"Vinoba Nagara, Shivamogga - KSPCB",04-04-2024 06:00:00,13.940000,75.555917,PM2.5,25,63,37
India,Karnataka,Shivamogga,"Vinoba Nagara, Shivamogga - KSPCB",04-04-2024 06:00:00,13.940000,75.555917,OZONE,28,85,40
India,Karnataka,Tumakuru,"Thimmalapura, Tumakuru - KSPCB",04-04-2024 06:00:00,13.377516,77.099072,NH3,NA,NA,NA
India,Karnataka,Udupi,"Brahmagiri, Udupi - KSPCB",04-04-2024 06:00:00,13.34194444,74.74694444,SO2,12,19,16
India,Karnataka,Vijayapura,"Ibrahimpur, Vijayapura - KSPCB",04-04-2024 06:00:00,16.802639,75.722694,CO,23,23,23
India,Karnataka,Yadgir,"Collector Office, Yadgir - KSPCB",04-04-2024 06:00:00,16.7602,77.1428,PM10,62,107,87
India,Karnataka,Yadgir,"Collector Office, Yadgir - KSPCB",04-04-2024 06:00:00,16.7602,77.1428,CO,8,30,15
India,Kerala,Eloor,"Udyogamandal, Eloor - Kerala PCB",04-04-2024 06:00:00,10.073232,76.302765,PM2.5,31,52,40
India,Kerala,Eloor,"Udyogamandal, Eloor - Kerala PCB",04-04-2024 06:00:00,10.073232,76.302765,NO2,4,5,4
India,Kerala,Thiruvananthapuram,"Kariavattom, Thiruvananthapuram - Kerala PCB",04-04-2024 06:00:00,8.563700,76.886500,PM10,90,104,98
India,Kerala,Thiruvananthapuram,"Kariavattom, Thiruvananthapuram - Kerala PCB",04-04-2024 06:00:00,8.563700,76.886500,NH3,1,1,1
India,Kerala,Thrissur,"Corporation Ground, Thrissur - Kerala PCB",04-04-2024 06:00:00,10.532400,76.215900,OZONE,27,31,29
India,Madhya Pradesh,Bhopal,"Idgah Hills, Bhopal - MPPCB",04-04-2024 06:00:00,23.264759,77.381568,NO2,29,52,39
India,Madhya Pradesh,Bhopal,"Paryavaran Parisar, Bhopal - MPPCB",04-04-2024 06:00:00,23.210494,77.425409,SO2,3,14,7
India,Madhya Pradesh,Dewas,"Bhopal Chauraha, Dewas - MPPCB",04-04-2024 06:00:00,22.9682591,76.064118,PM10,108,222,162
India,Madhya Pradesh,Dewas,"Bhopal Chauraha, Dewas - MPPCB",04-04-2024 06:00:00,22.9682591,76.064118,NO2,12,14,13
India,Madhya Pradesh,Gwalior,"City Center, Gwalior - MPPCB",04-04-2024 06:00:00,26.203442,78.193251,NO2,8,53,22
