country,state,city,station,last_update,latitude,longitude,pollutant_id,pollutant_min,pollutant_max,pollutant_avg
India,Andhra_Pradesh,Amaravati,"Secretariat, Amaravati - APPCB",11-03-2024 11:00:00,16.5150833,80.5181667,CO,8,121,63
India,Andhra_Pradesh,Amaravati,"Secretariat, Amaravati - APPCB",11-03-2024 11:00:00,16.5150833,80.5181667,OZONE,1,49,15
India,Andhra_Pradesh,Anantapur,"Gulzarpet, Anantapur - APPCB",11-03-2024 11:00:00,14.675886,77.593027,PM2.5,21,69,42
India,Andhra_Pradesh,Anantapur,"Gulzarpet, Anantapur - APPCB",11-03-2024 11:00:00,14.675886,77.593027,OZONE,8,50,14
India,Andhra_Pradesh,Chittoor,"Gangineni Cheruvu, Chittoor - APPCB",11-03-2024 11:00:00,13.204880,79.097889,PM2.5,NA,NA,NA
India,Andhra_Pradesh,Chittoor,"Gangineni Cheruvu, Chittoor - APPCB",11-03-2024 11:00:00,13.204880,79.097889,OZONE,NA,NA,NA
India,Andhra_Pradesh,Tirupati,"Tirumala, Tirupati - APPCB",11-03-2024 11:00:00,13.67,79.35,PM2.5,47,93,69
India,Andhra_Pradesh,Tirupati,"Tirumala, Tirupati - APPCB",11-03-2024 11:00:00,13.67,79.35,SO2,3,16,8
India,Andhra_Pradesh,Tirupati,"Vaikuntapuram, Tirupati - APPCB",11-03-2024 11:00:00,13.615387,79.409230,SO2,4,5,5
India,Andhra_Pradesh,Tirupati,"Vaikuntapuram, Tirupati - APPCB",11-03-2024 11:00:00,13.615387,79.409230,CO,10,16,13
India,Andhra_Pradesh,Vijayawada,"HB Colony, Vijayawada - APPCB",11-03-2024 11:00:00,16.536107,80.594233,PM10,64,84,75
India,Andhra_Pradesh,Vijayawada,"HB Colony, Vijayawada - APPCB",11-03-2024 11:00:00,16.536107,80.594233,CO,31,46,35
India,Andhra_Pradesh,Vijayawada,"HB Colony, Vijayawada - APPCB",11-03-2024 11:00:00,16.536107,80.594233,OZONE,2,22,9
India,Andhra_Pradesh,Vijayawada,"Kanuru, Vijayawada - APPCB",11-03-2024 11:00:00,16.486692,80.699436,CO,32,62,40
India,Andhra_Pradesh,Vijayawada,"Rajiv Nagar, Vijayawada - APPCB",11-03-2024 11:00:00,16.554731,80.649110,SO2,4,19,10
India,Andhra_Pradesh,Vijayawada,"Rajiv Nagar, Vijayawada - APPCB",11-03-2024 11:00:00,16.554731,80.649110,CO,34,34,34
India,Andhra_Pradesh,Visakhapatnam,"GVM Corporation, Visakhapatnam - APPCB",11-03-2024 11:00:00,17.72,83.3,CO,8,86,31
India,Arunachal_Pradesh,Naharlagun,"Naharlagun, Naharlagun - APSPCB",11-03-2024 11:00:00,27.103358,93.679645,PM10,NA,NA,NA
India,Assam,Byrnihat,"Central Academy for SFS, Byrnihat - PCBA",11-03-2024 11:00:00,26.071318,91.87488,PM10,90,475,320
India,Assam,Byrnihat,"Central Academy for SFS, Byrnihat - PCBA",11-03-2024 11:00:00,26.071318,91.87488,OZONE,6,18,13
India,Assam,Guwahati,"Pan Bazaar, Guwahati - PCBA",11-03-2024 11:00:00,26.187500,91.744194,NH3,5,8,6
India,Assam,Guwahati,"Pan Bazaar, Guwahati - PCBA",11-03-2024 11:00:00,26.187500,91.744194,OZONE,18,19,18
India,Assam,Nagaon,"Christianpatty, Nagaon - PCBA",11-03-2024 11:00:00,26.349082,92.68449,OZONE,10,139,49
India,Assam,Nalbari,"Bata Chowk, Nalbari - PCBA",11-03-2024 11:00:00,26.446912,91.439057,SO2,3,7,4
India,Assam,Silchar,"Tarapur, Silchar - PCBA",11-03-2024 11:00:00,24.82827,92.79525,PM2.5,29,62,44
India,Assam,Sivasagar,"Girls College, Sivasagar - PCBA",11-03-2024 11:00:00,26.987634,94.636574,NH3,2,3,3
India,Bihar,Araria,"Kharahiya Basti, Araria - BSPCB",11-03-2024 11:00:00,26.146529,87.454184,PM2.5,60,307,189
India,Bihar,Araria,"Kharahiya Basti, Araria - BSPCB",11-03-2024 11:00:00,26.146529,87.454184,NO2,6,16,8
India,Bihar,Araria,"Kharahiya Basti, Araria - BSPCB",11-03-2024 11:00:00,26.146529,87.454184,NH3,7,9,8
India,Bihar,Arrah,"New DM Office, Arrah - BSPCB",11-03-2024 11:00:00,25.5626095,84.663264,PM2.5,42,220,108
India,Bihar,Arrah,"New DM Office, Arrah - BSPCB",11-03-2024 11:00:00,25.5626095,84.663264,PM10,59,173,106
India,Bihar,Arrah,"New DM Office, Arrah - BSPCB",11-03-2024 11:00:00,25.5626095,84.663264,OZONE,14,49,19
India,Bihar,Aurangabad,"Gurdeo Nagar, Aurangabad - BSPCB",11-03-2024 11:00:00,24.75746,84.366208,PM2.5,13,227,61
India,Bihar,Aurangabad,"Gurdeo Nagar, Aurangabad - BSPCB",11-03-2024 11:00:00,24.75746,84.366208,NH3,4,8,7
India,Bihar,Aurangabad,"Gurdeo Nagar, Aurangabad - BSPCB",11-03-2024 11:00:00,24.75746,84.366208,SO2,3,12,8
India,Bihar,Bettiah,"Kamalnath Nagar, Bettiah - BSPCB",11-03-2024 11:00:00,26.80365,84.51954,NO2,33,46,42
India,Bihar,Bettiah,"Kamalnath Nagar, Bettiah - BSPCB",11-03-2024 11:00:00,26.80365,84.51954,SO2,11,15,14
India,Bihar,Bettiah,"Kamalnath Nagar, Bettiah - BSPCB",11-03-2024 11:00:00,26.80365,84.51954,CO,62,64,63
India,Bihar,Bhagalpur,"DM Office_Kachari Chowk, Bhagalpur - BSPCB",11-03-2024 11:00:00,25.251013,86.989001,PM2.5,50,344,163
India,Bihar,Bhagalpur,"DM Office_Kachari Chowk, Bhagalpur - BSPCB",11-03-2024 11:00:00,25.251013,86.989001,NH3,7,11,9
India,Bihar,Bhagalpur,"Mayaganj, Bhagalpur - BSPCB",11-03-2024 11:00:00,25.265194,87.012947,OZONE,12,76,30
India,Bihar,Bihar Sharif,"D M Colony, Bihar Sharif - BSPCB",11-03-2024 11:00:00,25.204762,85.514960,PM2.5,NA,NA,NA
India,Bihar,Bihar Sharif,"D M Colony, Bihar Sharif - BSPCB",11-03-2024 11:00:00,25.204762,85.514960,NO2,NA,NA,NA
India,Bihar,Buxar,"Charitra Van, Buxar - BSPCB (Formerly known as Central Jail)",11-03-2024 11:00:00,25.567520,83.966379,PM2.5,52,306,151
India,Bihar,Buxar,"Charitra Van, Buxar - BSPCB (Formerly known as Central Jail)",11-03-2024 11:00:00,25.567520,83.966379,SO2,17,18,17
India,Bihar,Buxar,"Charitra Van, Buxar - BSPCB (Formerly known as Central Jail)",11-03-2024 11:00:00,25.567520,83.966379,CO,40,72,40
India,Bihar,Gaya,"Collectorate, Gaya - BSPCB",11-03-2024 11:00:00,24.7955,84.9994,PM2.5,54,308,146
India,Bihar,Gaya,"SFTI Kusdihra, Gaya - BSPCB",11-03-2024 11:00:00,24.762518,84.982348,PM2.5,20,114,66
India,Bihar,Gaya,"SFTI Kusdihra, Gaya - BSPCB",11-03-2024 11:00:00,24.762518,84.982348,SO2,6,8,7
India,Bihar,Gaya,"SFTI Kusdihra, Gaya - BSPCB",11-03-2024 11:00:00,24.762518,84.982348,CO,12,60,38
India,Bihar,Hajipur,"Industrial Area, Hajipur - BSPCB",11-03-2024 11:00:00,25.697189,85.245900,PM2.5,46,258,127
India,Bihar,Hajipur,"Industrial Area, Hajipur - BSPCB",11-03-2024 11:00:00,25.697189,85.245900,NO2,35,75,48
India,Bihar,Hajipur,"Industrial Area, Hajipur - BSPCB",11-03-2024 11:00:00,25.697189,85.245900,SO2,7,9,8
India,Bihar,Katihar,"Mirchaibari, Katihar - BSPCB",11-03-2024 11:00:00,25.560083,87.553265,SO2,19,23,21
India,Bihar,Kishanganj,"SDM Office_Khagra, Kishanganj - BSPCB",11-03-2024 11:00:00,26.0881305,87.93840336,PM10,103,280,191
India,Bihar,Kishanganj,"SDM Office_Khagra, Kishanganj - BSPCB",11-03-2024 11:00:00,26.0881305,87.93840336,NO2,35,46,41
India,Bihar,Kishanganj,"SDM Office_Khagra, Kishanganj - BSPCB",11-03-2024 11:00:00,26.0881305,87.93840336,CO,1,16,9
India,Bihar,Kishanganj,"SDM Office_Khagra, Kishanganj - BSPCB",11-03-2024 11:00:00,26.0881305,87.93840336,OZONE,27,39,29
India,Bihar,Manguraha,"Forest Rest House, Manguraha - BSPCB",11-03-2024 11:00:00,27.308328,84.531742,NO2,8,18,13
India,Bihar,Motihari,"Gandak Colony, Motihari - BSPCB",11-03-2024 11:00:00,26.63086,84.90051,SO2,2,8,5
India,Bihar,Motihari,"Gandak Colony, Motihari - BSPCB",11-03-2024 11:00:00,26.63086,84.90051,OZONE,12,146,57
India,Bihar,Munger,"Town Hall, Munger - BSPCB",11-03-2024 11:00:00,25.376776,86.471523,NH3,1,2,2
India,Bihar,Muzaffarpur,"MIT-Daudpur Kothi, Muzaffarpur - BSPCB",11-03-2024 11:00:00,26.1403345,85.3650192,SO2,18,20,20
India,Bihar,Muzaffarpur,"Muzaffarpur Collectorate, Muzaffarpur - BSPCB",11-03-2024 11:00:00,26.1209,85.3647,SO2,4,9,7
India,Bihar,Patna,"DRM Office Danapur, Patna - BSPCB",11-03-2024 11:00:00,25.586562,85.043586,PM2.5,82,142,106
India,Bihar,Patna,"Govt. High School Shikarpur, Patna - BSPCB",11-03-2024 11:00:00,25.592539,85.227158,PM2.5,87,219,142
India,Bihar,Patna,"Muradpur, Patna - BSPCB",11-03-2024 11:00:00,25.619651,85.147382,CO,10,134,49
India,Bihar,Patna,"Samanpura, Patna - BSPCB",11-03-2024 11:00:00,25.596727,85.085624,SO2,15,16,15
India,Bihar,Patna,"Samanpura, Patna - BSPCB",11-03-2024 11:00:00,25.596727,85.085624,CO,72,146,122
India,Bihar,Patna,"Samanpura, Patna - BSPCB",11-03-2024 11:00:00,25.596727,85.085624,OZONE,15,35,21
India,Bihar,Purnia,"Mariam Nagar, Purnia - BSPCB",11-03-2024 11:00:00,25.366336,87.117468,PM10,58,165,112
India,Bihar,Purnia,"Mariam Nagar, Purnia - BSPCB",11-03-2024 11:00:00,25.366336,87.117468,OZONE,15,82,33
India,Bihar,Rajgir,"Dangi Tola, Rajgir - BSPCB",11-03-2024 11:00:00,25.03280,85.41948,PM2.5,30,137,74
India,Bihar,Rajgir,"Dangi Tola, Rajgir - BSPCB",11-03-2024 11:00:00,25.03280,85.41948,SO2,4,4,4
India,Bihar,Rajgir,"Dangi Tola, Rajgir - BSPCB",11-03-2024 11:00:00,25.03280,85.41948,CO,10,11,10
India,Bihar,Saharsa,"Police Line, Saharsa - BSPCB",11-03-2024 11:00:00,25.892357,86.590325,SO2,16,17,16
India,Bihar,Samastipur,"DM Office_Kasipur, Samastipur - BSPCB",11-03-2024 11:00:00,25.859655,85.77944,PM10,32,209,110
India,Bihar,Samastipur,"DM Office_Kasipur, Samastipur - BSPCB",11-03-2024 11:00:00,25.859655,85.77944,NO2,17,75,43
India,Bihar,Samastipur,"DM Office_Kasipur, Samastipur - BSPCB",11-03-2024 11:00:00,25.859655,85.77944,OZONE,9,20,11
India,Bihar,Sasaram,"Dada Peer, Sasaram - BSPCB",11-03-2024 11:00:00,24.952822,84.002396,NO2,10,32,21
India,Bihar,Sasaram,"Dada Peer, Sasaram - BSPCB",11-03-2024 11:00:00,24.952822,84.002396,NH3,8,17,11
India,Bihar,Sasaram,"Dada Peer, Sasaram - BSPCB",11-03-2024 11:00:00,24.952822,84.002396,SO2,20,23,22
India,Bihar,Siwan,"Chitragupta Nagar, Siwan - BSPCB",11-03-2024 11:00:00,26.2271665,84.3570427,NH3,1,6,3
India,Bihar,Siwan,"Chitragupta Nagar, Siwan - BSPCB",11-03-2024 11:00:00,26.2271665,84.3570427,OZONE,10,142,51
India,Chandigarh,Chandigarh,"Sector-25, Chandigarh - CPCC",11-03-2024 11:00:00,30.751462,76.762879,SO2,7,17,10
India,Chandigarh,Chandigarh,"Sector-25, Chandigarh - CPCC",11-03-2024 11:00:00,30.751462,76.762879,OZONE,1,43,5
India,Chandigarh,Chandigarh,"Sector-53, Chandigarh - CPCC",11-03-2024 11:00:00,30.719859,76.738637,OZONE,3,73,16
India,Chhattisgarh,Bhilai,"32Bungalows, Bhilai - CECB",11-03-2024 11:00:00,21.194815,81.314770,OZONE,4,21,6
India,Chhattisgarh,Bhilai,"Hathkhoj, Bhilai - CECB",11-03-2024 11:00:00,21.224231,81.408350,NH3,8,8,8
India,Chhattisgarh,Bilaspur,"Mangala, Bilaspur - NTPC",11-03-2024 11:00:00,22.08815,82.13737,PM10,52,91,67
India,Chhattisgarh,Chhal,"Nawapara SECL Colony, Chhal - CECB",11-03-2024 11:00:00,22.118125,83.140608,PM2.5,53,147,92
India,Chhattisgarh,Chhal,"Nawapara SECL Colony, Chhal - CECB",11-03-2024 11:00:00,22.118125,83.140608,NH3,2,2,2
India,Chhattisgarh,Chhal,"Nawapara SECL Colony, Chhal - CECB",11-03-2024 11:00:00,22.118125,83.140608,CO,28,44,38
India,Chhattisgarh,Korba,"Rampur, Korba - CECB",11-03-2024 11:00:00,22.368195,82.746431,NO2,NA,NA,NA
India,Chhattisgarh,Korba,"Urja Nagar, Korba - CECB",11-03-2024 11:00:00,22.348441,82.549611,NO2,69,87,79
India,Chhattisgarh,Korba,"Urja Nagar, Korba - CECB",11-03-2024 11:00:00,22.348441,82.549611,SO2,4,9,6
India,Chhattisgarh,Kunjemura,"OP Jindal School, Kunjemura - CECB",11-03-2024 11:00:00,22.126650,83.483212,PM2.5,31,110,71
India,Chhattisgarh,Kunjemura,"OP Jindal School, Kunjemura - CECB",11-03-2024 11:00:00,22.126650,83.483212,OZONE,4,109,22
India,Chhattisgarh,Raipur,"AIIMS, Raipur - CECB",11-03-2024 11:00:00,21.258815,81.578979,NH3,NA,NA,NA
India,Chhattisgarh,Raipur,"Bhatagaon New ISBT, Raipur - CECB",11-03-2024 11:00:00,21.219665,81.630094,PM10,52,106,77
India,Chhattisgarh,Raipur,"Siltara Phase-II, Raipur - CECB",11-03-2024 11:00:00,21.371751,81.664929,OZONE,3,64,4
India,Chhattisgarh,Tumidih,"OP Jindal Industrial Park, Tumidih - CECB",11-03-2024 11:00:00,22.06631475,83.33820077,SO2,5,11,7
India,Delhi,Delhi,"Ashok Vihar, Delhi - DPCC",11-03-2024 11:00:00,28.695381,77.181665,NO2,15,100,54
India,Delhi,Delhi,"Ashok Vihar, Delhi - DPCC",11-03-2024 11:00:00,28.695381,77.181665,SO2,27,47,33
India,Delhi,Delhi,"Burari Crossing, Delhi - IMD",11-03-2024 11:00:00,28.7256504,77.2011573,PM2.5,43,373,152
India,Delhi,Delhi,"CRRI Mathura Road, Delhi - IMD",11-03-2024 11:00:00,28.5512005,77.2735737,PM10,73,231,142
India,Delhi,Delhi,"Chandni Chowk, Delhi - IITM",11-03-2024 11:00:00,28.656756,77.227234,SO2,8,47,30
India,Delhi,Delhi,"DTU, Delhi - CPCB",11-03-2024 11:00:00,28.7500499,77.1112615,PM2.5,46,267,150
India,Delhi,Delhi,"Dr. Karni Singh Shooting Range, Delhi - DPCC",11-03-2024 11:00:00,28.498571,77.264840,SO2,3,49,25
India,Delhi,Delhi,"Dwarka-Sector 8, Delhi - DPCC ",11-03-2024 11:00:00,28.5710274,77.0719006,PM10,113,500,237
India,Delhi,Delhi,"Dwarka-Sector 8, Delhi - DPCC ",11-03-2024 11:00:00,28.5710274,77.0719006,CO,22,113,65
India,Delhi,Delhi,"IGI Airport (T3), Delhi - IMD",11-03-2024 11:00:00,28.5627763,77.1180053,PM10,64,182,123
India,Delhi,Delhi,"IGI Airport (T3), Delhi - IMD",11-03-2024 11:00:00,28.5627763,77.1180053,OZONE,1,56,9
India,Delhi,Delhi,"IHBAS, Dilshad Garden, Delhi - CPCB",11-03-2024 11:00:00,28.6811736,77.3025234,PM2.5,56,317,157
India,Delhi,Delhi,"IHBAS, Dilshad Garden, Delhi - CPCB",11-03-2024 11:00:00,28.6811736,77.3025234,SO2,11,25,17
India,Delhi,Delhi,"ITO, Delhi - CPCB",11-03-2024 11:00:00,28.628624,77.241060,PM2.5,74,327,209
India,Delhi,Delhi,"Jahangirpuri, Delhi - DPCC",11-03-2024 11:00:00,28.732820,77.170633,PM10,109,404,197
India,Delhi,Delhi,"Jahangirpuri, Delhi - DPCC",11-03-2024 11:00:00,28.732820,77.170633,NO2,25,67,49
India,Delhi,Delhi,"Jawaharlal Nehru Stadium, Delhi - DPCC",11-03-2024 11:00:00,28.580280,77.233829,PM2.5,NA,NA,NA
India,Delhi,Delhi,"Lodhi Road, Delhi - IMD",11-03-2024 11:00:00,28.5918245,77.2273074,NO2,3,17,9
India,Delhi,Delhi,"Major Dhyan Chand National Stadium, Delhi - DPCC",11-03-2024 11:00:00,28.611281,77.237738,PM10,80,202,143
India,Delhi,Delhi,"Mandir Marg, Delhi - DPCC",11-03-2024 11:00:00,28.636429,77.201067,SO2,10,17,13
India,Delhi,Delhi,"Najafgarh, Delhi - DPCC",11-03-2024 11:00:00,28.570173,76.933762,OZONE,2,163,157
India,Delhi,Delhi,"Nehru Nagar, Delhi - DPCC",11-03-2024 11:00:00,28.567890,77.250515,PM10,106,235,174
India,Delhi,Delhi,"Nehru Nagar, Delhi - DPCC",11-03-2024 11:00:00,28.567890,77.250515,CO,40,101,60
India,Delhi,Delhi,"North Campus, DU, Delhi - IMD",11-03-2024 11:00:00,28.6573814,77.1585447,NO2,9,44,27
India,Delhi,Delhi,"Okhla Phase-2, Delhi - DPCC",11-03-2024 11:00:00,28.530785,77.271255,NH3,6,10,8
India,Delhi,Delhi,"Okhla Phase-2, Delhi - DPCC",11-03-2024 11:00:00,28.530785,77.271255,CO,40,108,65
India,Delhi,Delhi,"Patparganj, Delhi - DPCC",11-03-2024 11:00:00,28.623763,77.287209,PM10,123,279,190
India,Delhi,Delhi,"Patparganj, Delhi - DPCC",11-03-2024 11:00:00,28.623763,77.287209,NO2,32,77,52
India,Delhi,Delhi,"Patparganj, Delhi - DPCC",11-03-2024 11:00:00,28.623763,77.287209,OZONE,6,210,31
India,Delhi,Delhi,"Punjabi Bagh, Delhi - DPCC",11-03-2024 11:00:00,28.674045,77.131023,PM2.5,68,317,214
India,Delhi,Delhi,"Punjabi Bagh, Delhi - DPCC",11-03-2024 11:00:00,28.674045,77.131023,PM10,100,238,161
India,Delhi,Delhi,"Punjabi Bagh, Delhi - DPCC",11-03-2024 11:00:00,28.674045,77.131023,NO2,12,38,25
India,Delhi,Delhi,"Pusa, Delhi - DPCC",11-03-2024 11:00:00,28.639652,77.146275,PM10,121,214,165
India,Delhi,Delhi,"Pusa, Delhi - DPCC",11-03-2024 11:00:00,28.639652,77.146275,NO2,58,163,107
India,Delhi,Delhi,"Pusa, Delhi - DPCC",11-03-2024 11:00:00,28.639652,77.146275,OZONE,10,88,18
India,Delhi,Delhi,"Pusa, Delhi - IMD",11-03-2024 11:00:00,28.636110,77.173332,PM2.5,17,274,144
India,Delhi,Delhi,"Pusa, Delhi - IMD",11-03-2024 11:00:00,28.636110,77.173332,OZONE,1,28,3
India,Delhi,Delhi,"R K Puram, Delhi - DPCC",11-03-2024 11:00:00,28.563262,77.186937,CO,22,117,81
India,Delhi,Delhi,"Rohini, Delhi - DPCC",11-03-2024 11:00:00,28.732528,77.119920,SO2,10,36,17
India,Delhi,Delhi,"Shadipur, Delhi - CPCB",11-03-2024 11:00:00,28.6514781,77.1473105,PM2.5,140,332,262
India,Delhi,Delhi,"Shadipur, Delhi - CPCB",11-03-2024 11:00:00,28.6514781,77.1473105,PM10,132,427,230
India,Delhi,Delhi,"Sirifort, Delhi - CPCB",11-03-2024 11:00:00,28.5504249,77.2159377,PM10,94,287,164
India,Delhi,Delhi,"Sirifort, Delhi - CPCB",11-03-2024 11:00:00,28.5504249,77.2159377,NO2,195,240,219
India,Delhi,Delhi,"Sirifort, Delhi - CPCB",11-03-2024 11:00:00,28.5504249,77.2159377,OZONE,13,119,19
India,Delhi,Delhi,"Sonia Vihar, Delhi - DPCC",11-03-2024 11:00:00,28.710508,77.249485,PM2.5,56,352,192
India,Delhi,Delhi,"Sonia Vihar, Delhi - DPCC",11-03-2024 11:00:00,28.710508,77.249485,NO2,22,111,51
India,Delhi,Delhi,"Sri Aurobindo Marg, Delhi - DPCC",11-03-2024 11:00:00,28.531346,77.190156,PM2.5,57,311,174
India,Delhi,Delhi,"Sri Aurobindo Marg, Delhi - DPCC",11-03-2024 11:00:00,28.531346,77.190156,NO2,25,119,63
India,Delhi,Delhi,"Vivek Vihar, Delhi - DPCC",11-03-2024 11:00:00,28.672342,77.315260,NH3,5,8,6
India,Gujarat,Ahmedabad,"Chandkheda, Ahmedabad - IITM",11-03-2024 11:00:00,23.107969,72.574648,OZONE,7,82,26
India,Gujarat,Ahmedabad,"Gyaspur, Ahmedabad - IITM",11-03-2024 11:00:00,22.977134,72.553024,PM2.5,63,362,161
India,Gujarat,Ahmedabad,"Gyaspur, Ahmedabad - IITM",11-03-2024 11:00:00,22.977134,72.553024,NH3,4,4,4
India,Gujarat,Ahmedabad,"Raikhad, Ahmedabad - IITM",11-03-2024 11:00:00,23.020509,72.579261,OZONE,4,55,19
India,Gujarat,Ahmedabad,"Rakhial, Ahmedabad - IITM",11-03-2024 11:00:00,23.016834,72.625775,SO2,4,30,9
India,Gujarat,Ahmedabad,"SAC ISRO Satellite, Ahmedabad - IITM",11-03-2024 11:00:00,23.023389,72.515201,PM2.5,145,205,173
India,Gujarat,Ahmedabad,"SAC ISRO Satellite, Ahmedabad - IITM",11-03-2024 11:00:00,23.023389,72.515201,CO,19,36,20
India,Gujarat,Ahmedabad,"SVPI Airport Hansol, Ahmedabad - IITM",11-03-2024 11:00:00,23.076793,72.627874,SO2,7,9,8
India,Gujarat,Ahmedabad,"Sardar Vallabhbhai Patel Stadium, Ahmedabad - IITM",11-03-2024 11:00:00,23.043070,72.562968,PM2.5,93,362,170
India,Gujarat,Gandhinagar,"GIFT City, Gandhinagar - IITM",11-03-2024 11:00:00,23.163798,72.677768,PM2.5,62,237,137
India,Gujarat,Gandhinagar,"GIFT City, Gandhinagar - IITM",11-03-2024 11:00:00,23.163798,72.677768,PM10,62,126,98
India,Gujarat,Gandhinagar,"GIFT City, Gandhinagar - IITM",11-03-2024 11:00:00,23.163798,72.677768,NH3,3,3,3
India,Gujarat,Gandhinagar,"IIPHG Lekawada, Gandhinagar - IITM",11-03-2024 11:00:00,23.243639,72.68994,NH3,7,8,8
India,Gujarat,Gandhinagar,"IIPHG Lekawada, Gandhinagar - IITM",11-03-2024 11:00:00,23.243639,72.68994,CO,22,24,23
India,Gujarat,Gandhinagar,"Sector-10, Gandhinagar - GPCB",11-03-2024 11:00:00,23.221714,72.654328,CO,42,108,65
India,Gujarat,Surat,"Science Center, Surat - SMC",11-03-2024 11:00:00,21.170046,72.795405,PM2.5,9,104,42
India,Gujarat,Surat,"Science Center, Surat - SMC",11-03-2024 11:00:00,21.170046,72.795405,NO2,31,44,38
India,Gujarat,Vapi,"Phase-1 GIDC, Vapi - GPCB",11-03-2024 11:00:00,20.362421,72.918013,PM10,58,266,112
India,Gujarat,Vapi,"Phase-1 GIDC, Vapi - GPCB",11-03-2024 11:00:00,20.362421,72.918013,NH3,8,10,9
India,Haryana,Bahadurgarh,"Arya Nagar, Bahadurgarh - HSPCB",11-03-2024 11:00:00,28.6701,76.9254,SO2,12,44,18
India,Haryana,Ballabgarh,"Nathu Colony, Ballabgarh - HSPCB",11-03-2024 11:00:00,28.3419248,77.319699,SO2,NA,NA,NA
India,Haryana,Ballabgarh,"Nathu Colony, Ballabgarh - HSPCB",11-03-2024 11:00:00,28.3419248,77.319699,CO,1,132,50
India,Haryana,Bhiwani,"H.B. Colony, Bhiwani - HSPCB",11-03-2024 11:00:00,28.806223,76.141105,PM2.5,39,217,92
India,Haryana,Bhiwani,"H.B. Colony, Bhiwani - HSPCB",11-03-2024 11:00:00,28.806223,76.141105,PM10,36,131,82
India,Haryana,Bhiwani,"H.B. Colony, Bhiwani - HSPCB",11-03-2024 11:00:00,28.806223,76.141105,NO2,5,12,9
India,Haryana,Dharuhera,"Municipal Corporation Office, Dharuhera -  HSPCB",11-03-2024 11:00:00,28.206800,76.799700,NH3,9,27,19
India,Haryana,Dharuhera,"Municipal Corporation Office, Dharuhera -  HSPCB",11-03-2024 11:00:00,28.206800,76.799700,OZONE,10,74,13
India,Haryana,Faridabad,"New Industrial Town, Faridabad - HSPCB",11-03-2024 11:00:00,28.39072,77.30059,CO,12,92,54
India,Haryana,Faridabad,"Sector 30, Faridabad - HSPCB",11-03-2024 11:00:00,28.4417,77.3217,SO2,NA,NA,NA
India,Haryana,Fatehabad,"Huda Sector, Fatehabad - HSPCB",11-03-2024 11:00:00,29.503664,75.467934,SO2,8,17,11
India,Haryana,Fatehabad,"Huda Sector, Fatehabad - HSPCB",11-03-2024 11:00:00,29.503664,75.467934,OZONE,87,96,91
India,Haryana,Gurugram,"Sector-51, Gurugram - HSPCB",11-03-2024 11:00:00,28.4227,77.0667,CO,28,100,91
India,Haryana,Hisar,"Urban Estate-II, Hisar - HSPCB",11-03-2024 11:00:00,29.140560,75.744941,NO2,21,28,23
India,Haryana,Hisar,"Urban Estate-II, Hisar - HSPCB",11-03-2024 11:00:00,29.140560,75.744941,OZONE,25,163,53
India,Haryana,Jind,"Police Lines, Jind - HSPCB",11-03-2024 11:00:00,29.307814,76.337619,OZONE,7,22,13
India,Haryana,Kaithal,"Rishi Nagar, Kaithal - HSPCB",11-03-2024 11:00:00,29.8006,76.4155,PM10,54,146,94
India,Haryana,Kaithal,"Rishi Nagar, Kaithal - HSPCB",11-03-2024 11:00:00,29.8006,76.4155,OZONE,6,18,14
India,Haryana,Karnal,"Sector-12, Karnal - HSPCB",11-03-2024 11:00:00,29.695300,77.002700,NH3,10,13,11
India,Haryana,Mandikhera,"General Hospital, Mandikhera - HSPCB",11-03-2024 11:00:00,27.9002,76.9938,PM2.5,12,70,42
India,Haryana,Mandikhera,"General Hospital, Mandikhera - HSPCB",11-03-2024 11:00:00,27.9002,76.9938,PM10,48,147,106
India,Haryana,Manesar,"Sector-2 IMT, Manesar - HSPCB",11-03-2024 11:00:00,28.360699,76.936090,PM2.5,NA,NA,NA
India,Haryana,Manesar,"Sector-2 IMT, Manesar - HSPCB",11-03-2024 11:00:00,28.360699,76.936090,OZONE,1,51,12
India,Haryana,Narnaul,"Shastri Nagar, Narnaul - HSPCB",11-03-2024 11:00:00,28.060249,76.113115,PM10,24,277,81
India,Haryana,Palwal,"Shyam Nagar, Palwal - HSPCB",11-03-2024 11:00:00,28.1485564,77.3320667,PM10,60,185,117
India,Haryana,Palwal,"Shyam Nagar, Palwal - HSPCB",11-03-2024 11:00:00,28.1485564,77.3320667,NH3,8,9,9
India,Haryana,Panipat,"Sector-18, Panipat - HSPCB",11-03-2024 11:00:00,29.497973,76.993331,PM10,83,86,85
India,Haryana,Panipat,"Sector-18, Panipat - HSPCB",11-03-2024 11:00:00,29.497973,76.993331,NH3,2,3,3
India,Haryana,Sirsa,"F-Block, Sirsa - HSPCB",11-03-2024 11:00:00,29.536400,75.015800,NO2,10,10,10
India,Haryana,Yamuna Nagar,"Gobind Pura, Yamuna Nagar - HSPCB",11-03-2024 11:00:00,30.1480566,77.2893471,PM10,66,152,97
India,Haryana,Yamuna Nagar,"Gobind Pura, Yamuna Nagar - HSPCB",11-03-2024 11:00:00,30.1480566,77.2893471,NH3,1,6,4
India,Haryana,Yamuna Nagar,"Gobind Pura, Yamuna Nagar - HSPCB",11-03-2024 11:00:00,30.1480566,77.2893471,SO2,2,104,13
India,Himachal Pradesh,Baddi,"HIMUDA Complex Phase-1, Baddi - HPPCB",11-03-2024 11:00:00,30.943887,76.801991,PM2.5,60,441,211
India,Jharkhand,Dhanbad,"Sardar Patel Nagar, Dhanbad - JSPCB",11-03-2024 11:00:00,23.80569,86.44268,PM10,NA,NA,NA
India,Jharkhand,Pathardih,"Mohalbani Ghat, Pathardih - DMC",11-03-2024 11:00:00,23.669880,86.411725,NO2,NA,NA,NA
India,Karnataka,Bagalkot,"Vidayagiri, Bagalkot - KSPCB",11-03-2024 11:00:00,16.172806,75.659694,NO2,9,10,9
India,Karnataka,Bagalkot,"Vidayagiri, Bagalkot - KSPCB",11-03-2024 11:00:00,16.172806,75.659694,CO,19,52,37
India,Karnataka,Belgaum,"Ramteerth Nagar, Belgaum - KSPCB",11-03-2024 11:00:00,15.888653,74.541751,PM2.5,28,62,42
India,Karnataka,Belgaum,"Ramteerth Nagar, Belgaum - KSPCB",11-03-2024 11:00:00,15.888653,74.541751,NH3,33,34,34
India,Karnataka,Belgaum,"Ramteerth Nagar, Belgaum - KSPCB",11-03-2024 11:00:00,15.888653,74.541751,SO2,8,9,8
India,Karnataka,Bengaluru,"Bapuji Nagar, Bengaluru - KSPCB",11-03-2024 11:00:00,12.951913,77.539784,NO2,10,12,10
India,Karnataka,Bengaluru,"Bapuji Nagar, Bengaluru - KSPCB",11-03-2024 11:00:00,12.951913,77.539784,SO2,5,9,7
India,Karnataka,Bengaluru,"Bapuji Nagar, Bengaluru - KSPCB",11-03-2024 11:00:00,12.951913,77.539784,OZONE,12,14,12
India,Karnataka,Bengaluru,"Hombegowda Nagar, Bengaluru - KSPCB",11-03-2024 11:00:00,12.938539,77.590100,PM10,63,118,91
India,Karnataka,Bengaluru,"Hombegowda Nagar, Bengaluru - KSPCB",11-03-2024 11:00:00,12.938539,77.590100,NH3,2,3,3
India,Karnataka,Bengaluru,"Jayanagar 5th Block, Bengaluru - KSPCB",11-03-2024 11:00:00,12.920984,77.584908,PM10,73,189,122
India,Karnataka,Bengaluru,"Jayanagar 5th Block, Bengaluru - KSPCB",11-03-2024 11:00:00,12.920984,77.584908,NH3,3,4,4
India,Karnataka,Bengaluru,"Jayanagar 5th Block, Bengaluru - KSPCB",11-03-2024 11:00:00,12.920984,77.584908,OZONE,28,29,28
India,Karnataka,Bengaluru,"Jigani, Bengaluru - KSPCB",11-03-2024 11:00:00,12.7816279,77.6299145,PM2.5,12,171,90
India,Karnataka,Bengaluru,"Jigani, Bengaluru - KSPCB",11-03-2024 11:00:00,12.7816279,77.6299145,NO2,31,32,32
India,Karnataka,Bengaluru,"Jigani, Bengaluru - KSPCB",11-03-2024 11:00:00,12.7816279,77.6299145,NH3,4,4,4
India,Karnataka,Bengaluru,"Jigani, Bengaluru - KSPCB",11-03-2024 11:00:00,12.7816279,77.6299145,OZONE,14,72,30
India,Karnataka,Bengaluru,"Peenya, Bengaluru - CPCB",11-03-2024 11:00:00,13.0270199,77.494094,OZONE,28,102,53
India,Karnataka,Bengaluru,"RVCE-Mailasandra, Bengaluru - KSPCB",11-03-2024 11:00:00,12.921418,77.502466,PM2.5,110,320,240
India,Karnataka,Bengaluru,"Shivapura_Peenya, Bengaluru - KSPCB",11-03-2024 11:00:00,13.0246342,77.5080115,PM2.5,5,202,59
India,Karnataka,Bengaluru,"Shivapura_Peenya, Bengaluru - KSPCB",11-03-2024 11:00:00,13.0246342,77.5080115,NH3,4,4,4
India,Karnataka,Bengaluru,"Silk Board, Bengaluru - KSPCB",11-03-2024 11:00:00,12.917348,77.622813,PM2.5,47,159,75
India,Karnataka,Bengaluru,"Silk Board, Bengaluru - KSPCB",11-03-2024 11:00:00,12.917348,77.622813,NH3,2,2,2
India,Karnataka,Bidar,"Naubad, Bidar - KSPCB",11-03-2024 11:00:00,17.930306,77.482194,PM10,71,106,86
India,Karnataka,Chikkaballapur,"Chikkaballapur Rural, Chikkaballapur - KSPCB",11-03-2024 11:00:00,13.428828,77.731418,PM2.5,60,128,78
India,Karnataka,Chikkamagaluru,"Kalyana Nagara, Chikkamagaluru - KSPCB",11-03-2024 11:00:00,13.328028,75.797056,PM10,NA,NA,NA
India,Karnataka,Chikkamagaluru,"Kalyana Nagara, Chikkamagaluru - KSPCB",11-03-2024 11:00:00,13.328028,75.797056,OZONE,20,38,32
India,Karnataka,Davanagere,"Devaraj Urs Badavane, Davanagere - KSPCB",11-03-2024 11:00:00,14.475800,75.905200,NO2,12,18,13
India,Karnataka,Dharwad,"Kalabhavan, Dharwad - KSPCB",11-03-2024 11:00:00,15.459706,75.008381,PM2.5,47,74,59
India,Karnataka,Dharwad,"Kalabhavan, Dharwad - KSPCB",11-03-2024 11:00:00,15.459706,75.008381,PM10,59,101,75
India,Karnataka,Gadag,"Panchal Nagar, Gadag - KSPCB",11-03-2024 11:00:00,15.411456,75.638133,PM10,40,66,49
India,Karnataka,Gadag,"Panchal Nagar, Gadag - KSPCB",11-03-2024 11:00:00,15.411456,75.638133,NO2,2,22,13
India,Karnataka,Haveri,"Ashwini Nagar, Haveri - KSPCB",11-03-2024 11:00:00,14.791800,75.389600,NO2,NA,NA,NA
India,Karnataka,Haveri,"Ashwini Nagar, Haveri - KSPCB",11-03-2024 11:00:00,14.791800,75.389600,NH3,NA,NA,NA
India,Karnataka,Hubballi,"Deshpande Nagar, Hubballi - KSPCB",11-03-2024 11:00:00,15.351773,75.140726,PM2.5,NA,NA,NA
India,Karnataka,Hubballi,"Deshpande Nagar, Hubballi - KSPCB",11-03-2024 11:00:00,15.351773,75.140726,PM10,NA,NA,NA
India,Karnataka,Hubballi,"Deshpande Nagar, Hubballi - KSPCB",11-03-2024 11:00:00,15.351773,75.140726,OZONE,4,35,12
India,Karnataka,Kalaburagi,"Lal Bahadur Shastri Nagar, Kalaburagi - KSPCB",11-03-2024 11:00:00,17.321993,76.822628,PM2.5,17,149,61
India,Karnataka,Kalaburagi,"Lal Bahadur Shastri Nagar, Kalaburagi - KSPCB",11-03-2024 11:00:00,17.321993,76.822628,OZONE,2,71,19
India,Karnataka,Kalaburagi,"Mahatma Basaveswar Colony, Kalaburgi - KSPCB",11-03-2024 11:00:00,17.336318,76.847397,NO2,9,30,20
India,Karnataka,Karwar,"KHB Colony, Karwar - KSPCB",11-03-2024 11:00:00,14.816666,74.141003,NO2,4,11,7
India,Karnataka,Kolar,"Tamaka Ind. Area, Kolar - KSPCB",11-03-2024 11:00:00,13.1276288,78.1570122,OZONE,9,13,13
India,Karnataka,Koppal,"Diwator Nagar, Koppal - KSPCB",11-03-2024 11:00:00,15.347630,76.181767,NH3,4,9,6
India,Karnataka,Koppal,"Diwator Nagar, Koppal - KSPCB",11-03-2024 11:00:00,15.347630,76.181767,CO,53,60,54
India,Karnataka,Madikeri,"Stuart Hill, Madikeri - KSPCB",11-03-2024 11:00:00,12.415911,75.735050,SO2,4,4,4
India,Karnataka,Madikeri,"Stuart Hill, Madikeri - KSPCB",11-03-2024 11:00:00,12.415911,75.735050,OZONE,26,44,38
India,Karnataka,Mangalore,"Kadri, Mangalore - KSPCB",11-03-2024 11:00:00,12.889250,74.853000,NO2,5,7,6
India,Karnataka,Mysuru,"Hebbal 1st Stage, Mysuru - KSPCB",11-03-2024 11:00:00,12.21041,76.37376,PM10,45,76,62
India,Karnataka,Mysuru,"Hebbal 1st Stage, Mysuru - KSPCB",11-03-2024 11:00:00,12.21041,76.37376,SO2,1,5,3
India,Karnataka,Mysuru,"Hebbal 1st Stage, Mysuru - KSPCB",11-03-2024 11:00:00,12.21041,76.37376,CO,8,31,17
India,Karnataka,Raichur,"Haji Colony, Raichur - KSPCB",11-03-2024 11:00:00,16.208139,77.348417,NH3,1,3,2
India,Karnataka,Raichur,"Haji Colony, Raichur - KSPCB",11-03-2024 11:00:00,16.208139,77.348417,SO2,65,81,73
India,Karnataka,Tumakuru,"Thimmalapura, Tumakuru - KSPCB",11-03-2024 11:00:00,13.377516,77.099072,NH3,2,3,3
India,Karnataka,Udupi,"Brahmagiri, Udupi - KSPCB",11-03-2024 11:00:00,13.34194444,74.74694444,PM10,53,128,83
India,Karnataka,Udupi,"Brahmagiri, Udupi - KSPCB",11-03-2024 11:00:00,13.34194444,74.74694444,NO2,28,32,30
India,Karnataka,Udupi,"Brahmagiri, Udupi - KSPCB",11-03-2024 11:00:00,13.34194444,74.74694444,OZONE,23,24,23
India,Karnataka,Vijayapura,"Ibrahimpur, Vijayapura - KSPCB",11-03-2024 11:00:00,16.802639,75.722694,PM10,37,40,39
India,Karnataka,Vijayapura,"Ibrahimpur, Vijayapura - KSPCB",11-03-2024 11:00:00,16.802639,75.722694,SO2,NA,NA,NA
India,Karnataka,Vijayapura,"Ibrahimpur, Vijayapura - KSPCB",11-03-2024 11:00:00,16.802639,75.722694,OZONE,14,16,15
India,Karnataka,Yadgir,"Collector Office, Yadgir - KSPCB",11-03-2024 11:00:00,16.7602,77.1428,PM2.5,43,89,66
India,Karnataka,Yadgir,"Collector Office, Yadgir - KSPCB",11-03-2024 11:00:00,16.7602,77.1428,PM10,42,91,70
India,Kerala,Eloor,"Udyogamandal, Eloor - Kerala PCB",11-03-2024 11:00:00,10.073232,76.302765,NO2,4,4,4
India,Kerala,Eloor,"Udyogamandal, Eloor - Kerala PCB",11-03-2024 11:00:00,10.073232,76.302765,OZONE,11,19,13
India,Kerala,Kannur,"Thavakkara, Kannur - Kerala PCB",11-03-2024 11:00:00,11.875000,75.373200,SO2,6,7,6
India,Kerala,Kochi,"Vyttila, Kochi - Kerala PCB",11-03-2024 11:00:00,9.969447,76.321186,PM2.5,28,83,53
India,Kerala,Kochi,"Vyttila, Kochi - Kerala PCB",11-03-2024 11:00:00,9.969447,76.321186,NH3,3,3,3
India,Kerala,Kollam,"Polayathode, Kollam - Kerala PCB",11-03-2024 11:00:00,8.8787,76.6073,CO,9,33,23
India,Kerala,Thiruvananthapuram,"Kariavattom, Thiruvananthapuram - Kerala PCB",11-03-2024 11:00:00,8.563700,76.886500,NO2,8,9,9
India,Kerala,Thrissur,"Corporation Ground, Thrissur - Kerala PCB",11-03-2024 11:00:00,10.532400,76.215900,NO2,7,8,7
India,Kerala,Thrissur,"Corporation Ground, Thrissur - Kerala PCB",11-03-2024 11:00:00,10.532400,76.215900,NH3,NA,NA,NA
India,Madhya Pradesh,Bhopal,"Idgah Hills, Bhopal - MPPCB",11-03-2024 11:00:00,23.264759,77.381568,OZONE,27,124,57
India,Madhya Pradesh,Bhopal,"Paryavaran Parisar, Bhopal - MPPCB",11-03-2024 11:00:00,23.210494,77.425409,SO2,21,29,24
India,Madhya Pradesh,Bhopal,"Paryavaran Parisar, Bhopal - MPPCB",11-03-2024 11:00:00,23.210494,77.425409,OZONE,23,89,44
India,Madhya Pradesh,Dewas,"Bhopal Chauraha, Dewas - MPPCB",11-03-2024 11:00:00,22.9682591,76.064118,PM2.5,25,95,55
India,Madhya Pradesh,Dewas,"Bhopal Chauraha, Dewas - MPPCB",11-03-2024 11:00:00,22.9682591,76.064118,NO2,10,12,11
India,Madhya Pradesh,Gwalior,"City Center, Gwalior - MPPCB",11-03-2024 11:00:00,26.203442,78.193251,PM10,69,184,109
India,Madhya Pradesh,Gwalior,"City Center, Gwalior - MPPCB",11-03-2024 11:00:00,26.203442,78.193251,SO2,1,41,25
India,Madhya Pradesh,Gwalior,"Deen Dayal Nagar, Gwalior - MPPCB",11-03-2024 11:00:00,26.259242,78.216432,PM10,88,279,152
India,Madhya Pradesh,Gwalior,"Maharaj Bada, Gwalior - MPPCB",11-03-2024 11:00:00,26.200388,78.147714,PM10,55,209,138
India,Madhya Pradesh,Gwalior,"Maharaj Bada, Gwalior - MPPCB",11-03-2024 11:00:00,26.200388,78.147714,CO,2,130,7
India,Madhya Pradesh,Indore,"Chhoti Gwaltoli, Indore - MPPCB",11-03-2024 11:00:00,22.4310,75.5213,OZONE,21,106,65
India,Madhya Pradesh,Indore,"Regional Park, Indore - IMC",11-03-2024 11:00:00,22.6780,75.8559,OZONE,12,32,19
India,Madhya Pradesh,Jabalpur,"Govindh Bhavan Colony, Jabalpur - JMC",11-03-2024 11:00:00,23.163174,79.973061,PM2.5,NA,NA,NA
India,Madhya Pradesh,Jabalpur,"Govindh Bhavan Colony, Jabalpur - JMC",11-03-2024 11:00:00,23.163174,79.973061,PM10,NA,NA,NA
India,Madhya Pradesh,Jabalpur,"Govindh Bhavan Colony, Jabalpur - JMC",11-03-2024 11:00:00,23.163174,79.973061,NH3,NA,NA,NA
India,Madhya Pradesh,Jabalpur,"Gupteshwar, Jabalpur - JMC",11-03-2024 11:00:00,23.142888,79.916147,NO2,4,107,31
India,Madhya Pradesh,Jabalpur,"Marhatal, Jabalpur - MPPCB",11-03-2024 11:00:00,23.168606,79.932247,PM10,71,173,113
India,Madhya Pradesh,Jabalpur,"Marhatal, Jabalpur - MPPCB",11-03-2024 11:00:00,23.168606,79.932247,NH3,3,5,4
India,Madhya Pradesh,Jabalpur,"Suhagi, Jabalpur - JMC",11-03-2024 11:00:00,23.218135,79.957770,PM10,24,129,79
India,Madhya Pradesh,Jabalpur,"Suhagi, Jabalpur - JMC",11-03-2024 11:00:00,23.218135,79.957770,NO2,33,40,38
India,Madhya Pradesh,Katni,"Gole Bazar, Katni - MPPCB",11-03-2024 11:00:00,23.50016,80.23284,PM10,63,123,91
India,Madhya Pradesh,Katni,"Gole Bazar, Katni - MPPCB",11-03-2024 11:00:00,23.50016,80.23284,SO2,19,45,25
India,Madhya Pradesh,Maihar,"Sahilara, Maihar - KJS Cements",11-03-2024 11:00:00,24.2613009,80.7231783,CO,48,57,53
India,Madhya Pradesh,Mandideep,"Sector-D Industrial Area, Mandideep - MPPCB",11-03-2024 11:00:00,23.108440,77.511428,SO2,7,129,50
India,Madhya Pradesh,Pithampur,"Sector-2 Industrial Area, Pithampur - MPPCB",11-03-2024 11:00:00,22.624758,75.675238,PM2.5,28,112,69
India,Madhya Pradesh,Pithampur,"Sector-2 Industrial Area, Pithampur - MPPCB",11-03-2024 11:00:00,22.624758,75.675238,NH3,7,8,7
India,Madhya Pradesh,Pithampur,"Sector-2 Industrial Area, Pithampur - MPPCB",11-03-2024 11:00:00,22.624758,75.675238,OZONE,46,85,57
India,Madhya Pradesh,Sagar,"Deen Dayal Nagar, Sagar - MPPCB",11-03-2024 11:00:00,23.8640158,78.80289321,CO,40,88,60
India,Madhya Pradesh,Satna,"Bandhavgar Colony, Satna - Birla Cement",11-03-2024 11:00:00,24.58434363,80.8549414,PM10,27,77,46
India,Madhya Pradesh,Singrauli,"Suryakiran Bhawan NCL, Singrauli - MPPCB",11-03-2024 11:00:00,24.108970,82.645580,PM2.5,46,302,88
India,Maharashtra,Ahmednagar,"Tarakpur, Ahmednagar - MPCB",11-03-2024 11:00:00,19.10122,74.73339,OZONE,11,146,67
India,Maharashtra,Akola,"Ramdaspeth, Akola - MPCB",11-03-2024 11:00:00,20.719516,77.000253,PM10,49,330,114
India,Maharashtra,Amravati,"Shivneri Colony, Amravati - MPCB",11-03-2024 11:00:00,20.9402359,77.7895248,PM2.5,59,98,79
India,Maharashtra,Amravati,"Shivneri Colony, Amravati - MPCB",11-03-2024 11:00:00,20.9402359,77.7895248,PM10,82,119,101
India,Maharashtra,Amravati,"Shivneri Colony, Amravati - MPCB",11-03-2024 11:00:00,20.9402359,77.7895248,NH3,1,2,1
India,Maharashtra,Amravati,"Shivneri Colony, Amravati - MPCB",11-03-2024 11:00:00,20.9402359,77.7895248,SO2,5,34,11
India,Maharashtra,Amravati,"Shri Shivaji Science College, Amaravati - MPCB",11-03-2024 11:00:00,20.939198,77.765701,SO2,1,27,7
India,Maharashtra,Aurangabad,"MIDC Chilkalthana, Aurangabad - MPCB",11-03-2024 11:00:00,19.875620,75.387310,OZONE,21,41,25
India,Maharashtra,Aurangabad,"More Chowk Waluj, Aurangabad - MPCB",11-03-2024 11:00:00,19.8389439,75.244448,NO2,2,14,6
India,Maharashtra,Aurangabad,"More Chowk Waluj, Aurangabad - MPCB",11-03-2024 11:00:00,19.8389439,75.244448,NH3,1,2,1
India,Maharashtra,Aurangabad,"More Chowk Waluj, Aurangabad - MPCB",11-03-2024 11:00:00,19.8389439,75.244448,OZONE,4,55,13
India,Maharashtra,Aurangabad,"Rachnakar Colony, Aurangabad - MPCB",11-03-2024 11:00:00,19.863756,75.321188,CO,16,22,22
India,Maharashtra,Badlapur,"Katrap, Badlapur - MPCB",11-03-2024 11:00:00,19.16485,73.23409,PM2.5,56,249,128
India,Maharashtra,Belapur,"CBD Belapur, Belapur - MPCB",11-03-2024 11:00:00,19.0243902,73.0406721,PM2.5,45,179,93
India,Maharashtra,Belapur,"CBD Belapur, Belapur - MPCB",11-03-2024 11:00:00,19.0243902,73.0406721,NO2,21,66,44
India,Maharashtra,Belapur,"CBD Belapur, Belapur - MPCB",11-03-2024 11:00:00,19.0243902,73.0406721,SO2,4,14,7
India,Maharashtra,Bhiwandi,"Gokul Nagar, Bhiwandi - MPCB",11-03-2024 11:00:00,19.309073,73.057223,CO,20,115,80
India,Maharashtra,Chandrapur,"Chauhan Colony, Chandrapur - MPCB",11-03-2024 11:00:00,19.962900,79.298714,NO2,11,50,24
India,Maharashtra,Chandrapur,"MIDC Khutala, Chandrapur - MPCB",11-03-2024 11:00:00,19.9775302,79.2337086,NH3,NA,NA,NA
India,Maharashtra,Chandrapur,"MIDC Khutala, Chandrapur - MPCB",11-03-2024 11:00:00,19.9775302,79.2337086,OZONE,1,2,1
India,Maharashtra,Dhule,"Deopur, Dhule - MPCB",11-03-2024 11:00:00,20.918946,74.776388,NO2,6,43,13
India,Maharashtra,Jalgaon,"Prabhat Colony, Jalgaon - MPCB",11-03-2024 11:00:00,21.001264,75.565602,NO2,12,52,31
India,Maharashtra,Jalgaon,"Prabhat Colony, Jalgaon - MPCB",11-03-2024 11:00:00,21.001264,75.565602,SO2,14,29,20
India,Maharashtra,Jalna,"Old MIDC, Jalna - MPCB",11-03-2024 11:00:00,19.854616,75.905894,NH3,6,8,7
India,Maharashtra,Latur,"Sawe Wadi, Latur - MPCB",11-03-2024 11:00:00,18.39963,76.57452,NH3,NA,NA,NA
India,Maharashtra,Mahad,"Kamble Tarf Birwadi, Mahad - MPCB",11-03-2024 11:00:00,18.1023399,73.4783687,PM2.5,51,237,143
India,Maharashtra,Mumbai,"Borivali East, Mumbai - MPCB",11-03-2024 11:00:00,19.2243333,72.8658113,NH3,1,2,2
India,Maharashtra,Mumbai,"Borivali East, Mumbai - MPCB",11-03-2024 11:00:00,19.2243333,72.8658113,CO,1,76,9
India,Maharashtra,Mumbai,"Byculla, Mumbai - BMC",11-03-2024 11:00:00,18.9767,72.8380,CO,12,39,29
India,Maharashtra,Mumbai,"Chakala-Andheri East, Mumbai - IITM",11-03-2024 11:00:00,19.11074,72.86084,PM10,62,180,103
India,Maharashtra,Mumbai,"Chhatrapati Shivaji Intl. Airport (T2), Mumbai - MPCB",11-03-2024 11:00:00,19.10078,72.87462,SO2,19,26,23
India,Maharashtra,Mumbai,"Colaba, Mumbai - MPCB",11-03-2024 11:00:00,18.910000,72.820000,PM2.5,24,63,36
India,Maharashtra,Mumbai,"Colaba, Mumbai - MPCB",11-03-2024 11:00:00,18.910000,72.820000,CO,12,24,16
India,Maharashtra,Mumbai,"Colaba, Mumbai - MPCB",11-03-2024 11:00:00,18.910000,72.820000,OZONE,7,11,10
India,Maharashtra,Mumbai,"Kandivali East, Mumbai - MPCB",11-03-2024 11:00:00,19.205800,72.868200,NH3,6,12,8
India,Maharashtra,Mumbai,"Kandivali East, Mumbai - MPCB",11-03-2024 11:00:00,19.205800,72.868200,CO,73,107,94
India,Maharashtra,Mumbai,"Kherwadi_Bandra East, Mumbai - MPCB",11-03-2024 11:00:00,19.0632143,72.8456324,PM2.5,55,186,86
India,Maharashtra,Mumbai,"Kherwadi_Bandra East, Mumbai - MPCB",11-03-2024 11:00:00,19.0632143,72.8456324,OZONE,1,101,12
India,Maharashtra,Mumbai,"Khindipada-Bhandup West, Mumbai - IITM",11-03-2024 11:00:00,19.1653323,72.922099,NH3,14,24,18
India,Maharashtra,Mumbai,"Khindipada-Bhandup West, Mumbai - IITM",11-03-2024 11:00:00,19.1653323,72.922099,CO,12,42,18
India,Maharashtra,Mumbai,"Mazgaon, Mumbai - IITM",11-03-2024 11:00:00,18.96702,72.84214,NH3,19,36,26
India,Maharashtra,Mumbai,"Mulund West, Mumbai - MPCB",11-03-2024 11:00:00,19.1750,72.9419,PM10,47,137,74
India,Maharashtra,Mumbai,"Mulund West, Mumbai - MPCB",11-03-2024 11:00:00,19.1750,72.9419,NH3,10,11,10
India,Maharashtra,Mumbai,"Mulund West, Mumbai - MPCB",11-03-2024 11:00:00,19.1750,72.9419,SO2,13,13,13
India,Maharashtra,Mumbai,"Powai, Mumbai - MPCB",11-03-2024 11:00:00,19.137500,72.915056,CO,28,41,31
India,Maharashtra,Mumbai,"Sewri, Mumbai - BMC",11-03-2024 11:00:00,19.000084,72.856730,SO2,7,76,18
India,Maharashtra,Mumbai,"Sewri, Mumbai - BMC",11-03-2024 11:00:00,19.000084,72.856730,CO,16,80,42
India,Maharashtra,Mumbai,"Sion, Mumbai - MPCB",11-03-2024 11:00:00,19.047000,72.874600,PM10,94,254,142
India,Maharashtra,Mumbai,"Sion, Mumbai - MPCB",11-03-2024 11:00:00,19.047000,72.874600,SO2,36,42,38
India,Maharashtra,Mumbai,"Vile Parle West, Mumbai - MPCB",11-03-2024 11:00:00,19.10861,72.83622,PM10,50,124,66
India,Maharashtra,Mumbai,"Vile Parle West, Mumbai - MPCB",11-03-2024 11:00:00,19.10861,72.83622,NO2,1,34,7
India,Maharashtra,Mumbai,"Vile Parle West, Mumbai - MPCB",11-03-2024 11:00:00,19.10861,72.83622,SO2,13,14,13
India,Maharashtra,Mumbai,"Worli, Mumbai - MPCB",11-03-2024 11:00:00,18.9936162,72.8128113,SO2,11,11,11
India,Maharashtra,Mumbai,"Worli, Mumbai - MPCB",11-03-2024 11:00:00,18.9936162,72.8128113,CO,32,34,32
India,Maharashtra,Nagpur,"Ambazari, Nagpur - MPCB",11-03-2024 11:00:00,21.121801,79.04952,PM2.5,93,285,142
India,Maharashtra,Nagpur,"Ambazari, Nagpur - MPCB",11-03-2024 11:00:00,21.121801,79.04952,NH3,1,12,3
India,Maharashtra,Nagpur,"Ambazari, Nagpur - MPCB",11-03-2024 11:00:00,21.121801,79.04952,CO,14,115,24
India,Maharashtra,Nagpur,"Mahal, Nagpur - MPCB",11-03-2024 11:00:00,21.14472,79.107595,NH3,2,15,5
India,Maharashtra,Nagpur,"Opp GPO Civil Lines, Nagpur - MPCB",11-03-2024 11:00:00,21.152875,79.0517531,NO2,19,98,68
India,Maharashtra,Nagpur,"Ram Nagar, Nagpur - MPCB",11-03-2024 11:00:00,21.143383,79.048912,NH3,3,7,4
India,Maharashtra,Nagpur,"Ram Nagar, Nagpur - MPCB",11-03-2024 11:00:00,21.143383,79.048912,OZONE,11,128,33
India,Maharashtra,Nashik,"Gangapur Road, Nashik - MPCB",11-03-2024 11:00:00,20.0073285,73.7762427,SO2,1,6,3
India,Maharashtra,Nashik,"MIDC Ambad, Nashik - MPCB",11-03-2024 11:00:00,19.950220,73.731480,PM10,NA,NA,NA
India,Maharashtra,Nashik,"MIDC Ambad, Nashik - MPCB",11-03-2024 11:00:00,19.950220,73.731480,SO2,3,24,12
India,Maharashtra,Navi Mumbai,"Kopripada-Vashi, Navi Mumbai - MPCB",11-03-2024 11:00:00,19.090337,73.014232,SO2,14,77,33
India,Maharashtra,Navi Mumbai,"Mahape, Navi Mumbai - MPCB",11-03-2024 11:00:00,19.1135051,73.008978,PM2.5,19,178,67
India,Maharashtra,Navi Mumbai,"Mahape, Navi Mumbai - MPCB",11-03-2024 11:00:00,19.1135051,73.008978,NO2,38,38,38
India,Maharashtra,Navi Mumbai,"Mahape, Navi Mumbai - MPCB",11-03-2024 11:00:00,19.1135051,73.008978,CO,38,68,57
India,Maharashtra,Navi Mumbai,"Nerul, Navi Mumbai - MPCB",11-03-2024 11:00:00,19.008751,73.016620,NO2,26,46,35
India,Maharashtra,Navi Mumbai,"Nerul, Navi Mumbai - MPCB",11-03-2024 11:00:00,19.008751,73.016620,SO2,18,20,20
India,Maharashtra,Navi Mumbai,"Sanpada, Navi Mumbai - MPCB",11-03-2024 11:00:00,19.0575752,73.0151367,SO2,NA,NA,NA
India,Maharashtra,Navi Mumbai,"Sanpada, Navi Mumbai - MPCB",11-03-2024 11:00:00,19.0575752,73.0151367,CO,NA,NA,NA
India,Maharashtra,Navi Mumbai,"Sector-19A Nerul, Navi Mumbai - IITM",11-03-2024 11:00:00,19.044,73.0325,PM2.5,81,319,185
India,Maharashtra,Navi Mumbai,"Sector-2E Kalamboli, Navi Mumbai - MPCB",11-03-2024 11:00:00,19.02579,73.10297,PM2.5,NA,NA,NA
India,Maharashtra,Navi Mumbai,"Sector-2E Kalamboli, Navi Mumbai - MPCB",11-03-2024 11:00:00,19.02579,73.10297,SO2,11,95,29
India,Maharashtra,Navi Mumbai,"Tondare-Taloja, Navi Mumbai - MPCB",11-03-2024 11:00:00,19.0630,73.1209,SO2,17,93,46
India,Maharashtra,Navi Mumbai,"Tondare-Taloja, Navi Mumbai - MPCB",11-03-2024 11:00:00,19.0630,73.1209,CO,6,102,50
India,Maharashtra,Parbhani,"Masoom Colony, Parbhani - MPCB",11-03-2024 11:00:00,19.265594,76.761463,PM2.5,NA,NA,NA
India,Maharashtra,Parbhani,"Masoom Colony, Parbhani - MPCB",11-03-2024 11:00:00,19.265594,76.761463,NH3,NA,NA,NA
India,Maharashtra,Parbhani,"Masoom Colony, Parbhani - MPCB",11-03-2024 11:00:00,19.265594,76.761463,CO,9,104,63
India,Maharashtra,Pimpri-Chinchwad,"Gavalinagar, Pimpri Chinchwad - MPCB",11-03-2024 11:00:00,18.63673,73.82487,PM2.5,61,292,126
India,Maharashtra,Pimpri-Chinchwad,"Thergaon, Pimpri Chinchwad - MPCB",11-03-2024 11:00:00,18.616318,73.765797,PM2.5,103,313,166
India,Maharashtra,Pimpri-Chinchwad,"Thergaon, Pimpri Chinchwad - MPCB",11-03-2024 11:00:00,18.616318,73.765797,NO2,23,139,80
India,Maharashtra,Pune,"Bhosari, Pune - IITM",11-03-2024 11:00:00,18.640051,73.848956,PM2.5,20,229,76
India,Maharashtra,Pune,"Bhosari, Pune - IITM",11-03-2024 11:00:00,18.640051,73.848956,PM10,56,182,108
India,Maharashtra,Pune,"Karve Road, Pune - MPCB",11-03-2024 11:00:00,18.5011743,73.8165527,CO,12,89,88
India,Maharashtra,Pune,"Katraj Dairy, Pune - MPCB",11-03-2024 11:00:00,18.454450,73.854155,CO,34,105,51
India,Maharashtra,Pune,"Mhada Colony, Pune - IITM",11-03-2024 11:00:00,18.573040,73.927715,OZONE,NA,NA,NA
India,Maharashtra,Pune,"Revenue Colony-Shivajinagar, Pune - IITM",11-03-2024 11:00:00,18.530085,73.849598,NH3,8,20,13
India,Maharashtra,Pune,"Revenue Colony-Shivajinagar, Pune - IITM",11-03-2024 11:00:00,18.530085,73.849598,CO,107,116,109
India,Maharashtra,Pune,"Savitribai Phule Pune University, Pune - MPCB",11-03-2024 11:00:00,18.547056,73.826908,SO2,7,20,13
India,Maharashtra,Pune,"Transport Nagar-Nigdi, Pune - IITM",11-03-2024 11:00:00,18.664282,73.763966,PM2.5,20,157,70
India,Maharashtra,Sangli,"Vijay Nagar, Sangli - MPCB",11-03-2024 11:00:00, 16.5038,74.3623,NO2,14,66,40
India,Maharashtra,Sangli,"Vijay Nagar, Sangli - MPCB",11-03-2024 11:00:00, 16.5038,74.3623,SO2,12,44,22
India,Maharashtra,Solapur,"Ratandeep Housing Society, Solapur - MPCB",11-03-2024 11:00:00,17.65439,75.90649,SO2,NA,NA,NA
India,Maharashtra,Solapur,"Ratandeep Housing Society, Solapur - MPCB",11-03-2024 11:00:00,17.65439,75.90649,OZONE,68,68,68
India,Maharashtra,Thane,"Kasarvadavali, Thane - MPCB",11-03-2024 11:00:00,19.26777,72.97182,PM10,80,127,93
India,Maharashtra,Thane,"Kasarvadavali, Thane - MPCB",11-03-2024 11:00:00,19.26777,72.97182,NH3,5,18,9
India,Maharashtra,Thane,"Kasarvadavali, Thane - MPCB",11-03-2024 11:00:00,19.26777,72.97182,OZONE,2,179,37
India,Maharashtra,Thane,"Pimpleshwar Mandir, Thane - MPCB",11-03-2024 11:00:00,19.192056,72.9585188,NH3,3,3,3
India,Maharashtra,Thane,"Pimpleshwar Mandir, Thane - MPCB",11-03-2024 11:00:00,19.192056,72.9585188,CO,26,114,104
India,Maharashtra,Thane,"Pimpleshwar Mandir, Thane - MPCB",11-03-2024 11:00:00,19.192056,72.9585188,OZONE,1,67,6
India,Maharashtra,Thane,"Upvan Fort, Thane - MPCB",11-03-2024 11:00:00,19.222279,72.957979,SO2,9,70,16
India,Maharashtra,Ulhasnagar,"Sidhi Vinayak Nagar, Ulhasnagar - MPCB",11-03-2024 11:00:00,19.235581,73.159121,PM2.5,78,245,152
India,Maharashtra,Virar,"Bolinj, Virar - MPCB",11-03-2024 11:00:00,19.4458210,72.7988231,CO,18,124,61
India,Maharashtra,Virar,"Bolinj, Virar - MPCB",11-03-2024 11:00:00,19.4458210,72.7988231,OZONE,4,95,18
India,Manipur,Imphal,"DM College of Science, Imphal - Manipur PCB",11-03-2024 11:00:00,24.8207389,93.9423085,PM10,27,84,45
India,Manipur,Imphal,"Manipur University, Imphal - Manipur PCB",11-03-2024 11:00:00,24.7524239,93.9286218,OZONE,1,51,13
India,Meghalaya,Shillong,"Lumpyngngad, Shillong - Meghalaya PCB",11-03-2024 11:00:00,25.5586,91.8985,PM2.5,80,257,152
India,Meghalaya,Shillong,"Lumpyngngad, Shillong - Meghalaya PCB",11-03-2024 11:00:00,25.5586,91.8985,SO2,45,51,47
India,Mizoram,Aizawl,"Sikulpuikawn, Aizawl - Mizoram PCB",11-03-2024 11:00:00,23.7176342,92.7192841,PM10,55,89,73
India,Nagaland,Kohima,"PWD Juction, Kohima - NPCB",11-03-2024 11:00:00,25.6635413,94.0989878,SO2,29,30,29
India,Odisha,Angul,"Hakimapada, Angul - OSPCB",11-03-2024 11:00:00,20.832874,85.104082,NH3,1,1,1
India,Odisha,Balasore,"Kalidaspur, Balasore - OSPCB",11-03-2024 11:00:00,21.51161,86.89088,NO2,1,43,12
India,Odisha,Balasore,"Kalidaspur, Balasore - OSPCB",11-03-2024 11:00:00,21.51161,86.89088,CO,58,107,87
India,Odisha,Barbil,"Forest Office, Barbil - OSPCB",11-03-2024 11:00:00,22.1166054,85.3945546,OZONE,3,180,29
India,Odisha,Baripada,"Meher Colony, Baripada - OSPCB",11-03-2024 11:00:00,21.941841,86.728318,NH3,4,4,4
India,Odisha,Baripada,"Meher Colony, Baripada - OSPCB",11-03-2024 11:00:00,21.941841,86.728318,SO2,6,7,6
India,Odisha,Bhubaneswar,"Patia, Bhubaneswar - OSPCB",11-03-2024 11:00:00,20.34652,85.81630,CO,56,103,87
India,Odisha,Bhubaneswar,"Patia, Bhubaneswar - OSPCB",11-03-2024 11:00:00,20.34652,85.81630,OZONE,12,135,49
India,Odisha,Bileipada,"Tata Township, Bileipada - OSPCB",11-03-2024 11:00:00,22.06156703,85.47409613,NO2,7,10,8
India,Odisha,Bileipada,"Tata Township, Bileipada - OSPCB",11-03-2024 11:00:00,22.06156703,85.47409613,SO2,11,24,16
India,Odisha,Byasanagar,"Ferro Chrome Colony, Byasanagar - OSPCB",11-03-2024 11:00:00,20.94185,86.11510,PM10,72,113,91
India,Odisha,Byasanagar,"Ferro Chrome Colony, Byasanagar - OSPCB",11-03-2024 11:00:00,20.94185,86.11510,SO2,4,16,9
India,Odisha,Cuttack,"CDA Area, Cuttack - OSPCB",11-03-2024 11:00:00,20.48891     ,85.84768     ,SO2,3,9,5
India,Odisha,Cuttack,"CDA Area, Cuttack - OSPCB",11-03-2024 11:00:00,20.48891     ,85.84768     ,OZONE,24,161,60
India,Odisha,Keonjhar,"Jagamohanpur, Keonjhar - OSPCB",11-03-2024 11:00:00,21.643900,85.599355,CO,12,61,17
India,Odisha,Keonjhar,"Jagamohanpur, Keonjhar - OSPCB",11-03-2024 11:00:00,21.643900,85.599355,OZONE,1,22,8
India,Odisha,Nayagarh,"Dabuna, Nayagarh - OSPCB",11-03-2024 11:00:00,21.847279,85.416905,SO2,4,10,5
India,Odisha,Nayagarh,"Dabuna, Nayagarh - OSPCB",11-03-2024 11:00:00,21.847279,85.416905,OZONE,1,17,4
India,Odisha,Rairangpur,"Divisional Forest Office, Rairangpur - OSPCB",11-03-2024 11:00:00,22.265816,86.174829,NH3,5,5,5
India,Odisha,Rourkela,"Raghunathpali, Rourkela - OSPCB",11-03-2024 11:00:00,22.220833,84.809444,OZONE,19,151,39
India,Odisha,Rourkela,"Sector-2, Rourkela - OSPCB",11-03-2024 11:00:00,22.24500000,84.88111111,CO,15,40,19
India,Odisha,Suakati,"OMC Colony, Suakati - OSPCB",11-03-2024 11:00:00,21.606865,85.510538,NO2,NA,NA,NA
India,Odisha,Suakati,"OMC Colony, Suakati - OSPCB",11-03-2024 11:00:00,21.606865,85.510538,NH3,NA,NA,NA
India,Odisha,Talcher,"Talcher Coalfields,Talcher - OSPCB",11-03-2024 11:00:00,20.9360711,85.1707021,PM2.5,31,322,105
India,Odisha,Tensa,"Barsua Iron Ore Mines, Tensa - OSPCB",11-03-2024 11:00:00,21.869985,85.167016,NO2,40,68,55
India,Odisha,Tensa,"Barsua Iron Ore Mines, Tensa - OSPCB",11-03-2024 11:00:00,21.869985,85.167016,NH3,7,9,7
India,Puducherry,Puducherry,"Jawahar Nagar, Puducherry - PPCC",11-03-2024 11:00:00,11.9309,79.8027,PM2.5,28,220,60
India,Puducherry,Puducherry,"Jawahar Nagar, Puducherry - PPCC",11-03-2024 11:00:00,11.9309,79.8027,NH3,2,4,3
India,Puducherry,Puducherry,"Jawahar Nagar, Puducherry - PPCC",11-03-2024 11:00:00,11.9309,79.8027,CO,16,42,30
India,Punjab,Khanna,"Kalal Majra, Khanna - PPCB",11-03-2024 11:00:00,30.736056 ,76.209694,NO2,31,34,31
India,Punjab,Ludhiana,"Punjab Agricultural University, Ludhiana - PPCB",11-03-2024 11:00:00,30.9028,75.8086,PM10,44,118,84
India,Punjab,Ludhiana,"Punjab Agricultural University, Ludhiana - PPCB",11-03-2024 11:00:00,30.9028,75.8086,NH3,4,4,4
India,Punjab,Ludhiana,"Punjab Agricultural University, Ludhiana - PPCB",11-03-2024 11:00:00,30.9028,75.8086,OZONE,9,33,14
India,Punjab,Patiala,"Model Town, Patiala - PPCB",11-03-2024 11:00:00,30.349388,76.366642,PM2.5,43,185,80
India,Punjab,Patiala,"Model Town, Patiala - PPCB",11-03-2024 11:00:00,30.349388,76.366642,PM10,49,154,91
India,Rajasthan,Alwar,"Moti Doongri, Alwar - RSPCB",11-03-2024 11:00:00,27.554793,76.611536,CO,18,74,44
India,Rajasthan,Bhilwara,"Pratap Nagar, Bhilwara - RSPCB",11-03-2024 11:00:00,25.339605,74.618883,PM10,39,237,108
India,Rajasthan,Bhilwara,"Pratap Nagar, Bhilwara - RSPCB",11-03-2024 11:00:00,25.339605,74.618883,NO2,17,139,68
India,Rajasthan,Bhilwara,"Pratap Nagar, Bhilwara - RSPCB",11-03-2024 11:00:00,25.339605,74.618883,CO,17,111,59
India,Rajasthan,Bhiwadi,"RIICO Ind. Area III, Bhiwadi - RSPCB",11-03-2024 11:00:00,28.194909,76.862296,CO,13,108,61
India,Rajasthan,Bhiwadi,"RIICO Ind. Area III, Bhiwadi - RSPCB",11-03-2024 11:00:00,28.194909,76.862296,OZONE,1,54,6
India,Rajasthan,Bhiwadi,"Vasundhara Nagar_UIT, Bhiwadi - RSPCB",11-03-2024 11:00:00,28.207266,76.829265,SO2,6,91,23
India,Rajasthan,Bhiwadi,"Vasundhara Nagar_UIT, Bhiwadi - RSPCB",11-03-2024 11:00:00,28.207266,76.829265,CO,15,77,60
India,Rajasthan,Bikaner,"MM Ground, Bikaner - RSPCB",11-03-2024 11:00:00,28.018792,73.292658,PM2.5,21,164,67
India,Rajasthan,Bikaner,"MM Ground, Bikaner - RSPCB",11-03-2024 11:00:00,28.018792,73.292658,PM10,59,259,135
India,Rajasthan,Bikaner,"MM Ground, Bikaner - RSPCB",11-03-2024 11:00:00,28.018792,73.292658,NH3,7,11,9
India,Rajasthan,Bikaner,"MM Ground, Bikaner - RSPCB",11-03-2024 11:00:00,28.018792,73.292658,CO,19,78,40
India,Rajasthan,Chittorgarh,"Shastri Nagar, Chittorgarh - RSPCB",11-03-2024 11:00:00,24.892047,74.623527,PM10,73,196,122
India,Rajasthan,Chittorgarh,"Shastri Nagar, Chittorgarh - RSPCB",11-03-2024 11:00:00,24.892047,74.623527,OZONE,1,181,27
India,Rajasthan,Churu,"Subash Chowk, Churu - RSPCB",11-03-2024 11:00:00,28.296139,74.961696,NO2,14,51,24
India,Rajasthan,Churu,"Subash Chowk, Churu - RSPCB",11-03-2024 11:00:00,28.296139,74.961696,SO2,4,26,14
India,Rajasthan,Churu,"Subash Chowk, Churu - RSPCB",11-03-2024 11:00:00,28.296139,74.961696,CO,19,52,37
India,Rajasthan,Dausa,"Khatikan Mohalla, Dausa - RSPCB",11-03-2024 11:00:00,26.895552,76.334753,NH3,8,9,8
India,Rajasthan,Dholpur,"Raja Ganj, Dholpur - RSPCB",11-03-2024 11:00:00,26.699557,77.898881,OZONE,16,167,70
India,Rajasthan,Dungarpur,"Bhoiwada, Dungarpur - RSPCB",11-03-2024 11:00:00,23.837789,73.714926,PM10,58,147,91
India,Rajasthan,Dungarpur,"Bhoiwada, Dungarpur - RSPCB",11-03-2024 11:00:00,23.837789,73.714926,NH3,4,5,5
India,Rajasthan,Hanumangarh,"Housing Board, Hanumangarh - RSPCB",11-03-2024 11:00:00,29.610750,74.283608,OZONE,5,53,19
India,Rajasthan,Jaipur,"Adarsh Nagar, Jaipur - RSPCB",11-03-2024 11:00:00,26.902909,75.836858,NH3,3,11,5
India,Rajasthan,Jaipur,"Mansarovar Sector-12, Jaipur - RSPCB",11-03-2024 11:00:00,26.843698,75.766894,SO2,2,5,3
India,Rajasthan,Jaipur,"Police Commissionerate, Jaipur - RSPCB",11-03-2024 11:00:00,26.9164092,75.7994901,PM10,70,184,110
India,Rajasthan,Jaipur,"Police Commissionerate, Jaipur - RSPCB",11-03-2024 11:00:00,26.9164092,75.7994901,NO2,15,107,38
India,Rajasthan,Jaipur,"Police Commissionerate, Jaipur - RSPCB",11-03-2024 11:00:00,26.9164092,75.7994901,SO2,15,25,18
India,Rajasthan,Jaipur,"Police Commissionerate, Jaipur - RSPCB",11-03-2024 11:00:00,26.9164092,75.7994901,OZONE,16,117,73
India,Rajasthan,Jaipur,"Sector-2 Murlipura, Jaipur - RSPCB",11-03-2024 11:00:00,26.960669,75.771817,CO,2,68,11
India,Rajasthan,Jaipur,"Sector-2 Murlipura, Jaipur - RSPCB",11-03-2024 11:00:00,26.960669,75.771817,OZONE,41,151,111
India,Rajasthan,Jaipur,"Shastri Nagar, Jaipur - RSPCB",11-03-2024 11:00:00,26.9502929,75.730943,PM2.5,65,158,94
India,Rajasthan,Jaisalmer,"Sadar Bazar, Jaisalmer - RSPCB",11-03-2024 11:00:00,26.912329,70.909168,PM10,32,174,104
India,Rajasthan,Jaisalmer,"Sadar Bazar, Jaisalmer - RSPCB",11-03-2024 11:00:00,26.912329,70.909168,NO2,17,53,32
India,Rajasthan,Jaisalmer,"Sadar Bazar, Jaisalmer - RSPCB",11-03-2024 11:00:00,26.912329,70.909168,NH3,3,8,5
India,Rajasthan,Jaisalmer,"Sadar Bazar, Jaisalmer - RSPCB",11-03-2024 11:00:00,26.912329,70.909168,OZONE,22,125,59
India,Rajasthan,Jalore,"Mudtra Sili, Jalore - RSPCB",11-03-2024 11:00:00,25.344694,72.626208,NH3,4,7,6
India,Rajasthan,Jalore,"Mudtra Sili, Jalore - RSPCB",11-03-2024 11:00:00,25.344694,72.626208,SO2,3,12,8
India,Rajasthan,Jhunjhunu,"Indra Nagar, Jhunjhunu - RSPCB",11-03-2024 11:00:00,28.108988,75.386577,PM2.5,22,303,106
India,Rajasthan,Jhunjhunu,"Indra Nagar, Jhunjhunu - RSPCB",11-03-2024 11:00:00,28.108988,75.386577,CO,18,78,39
India,Rajasthan,Jhunjhunu,"Indra Nagar, Jhunjhunu - RSPCB",11-03-2024 11:00:00,28.108988,75.386577,OZONE,22,129,66
India,Rajasthan,Jodhpur,"Collectorate, Jodhpur - RSPCB",11-03-2024 11:00:00,26.268249,73.0193853,SO2,2,56,19
India,Rajasthan,Jodhpur,"Digari Kalan, Jodhpur - RSPCB",11-03-2024 11:00:00,26.295810,73.082283,SO2,2,9,5
India,Rajasthan,Jodhpur,"Digari Kalan, Jodhpur - RSPCB",11-03-2024 11:00:00,26.295810,73.082283,CO,16,54,25
India,Rajasthan,Jodhpur,"Jhalamand, Jodhpur - RSPCB",11-03-2024 11:00:00,26.215415,73.070156,PM10,45,144,78
India,Rajasthan,Jodhpur,"Jhalamand, Jodhpur - RSPCB",11-03-2024 11:00:00,26.215415,73.070156,NH3,2,6,3
India,Rajasthan,Jodhpur,"Jhalamand, Jodhpur - RSPCB",11-03-2024 11:00:00,26.215415,73.070156,OZONE,44,93,61
India,Rajasthan,Jodhpur,"Mandor, Jodhpur - RSPCB",11-03-2024 11:00:00,26.358805,73.047444,PM10,45,91,62
India,Rajasthan,Jodhpur,"Mandor, Jodhpur - RSPCB",11-03-2024 11:00:00,26.358805,73.047444,NO2,18,49,32
India,Rajasthan,Jodhpur,"Mandor, Jodhpur - RSPCB",11-03-2024 11:00:00,26.358805,73.047444,NH3,4,6,5
India,Rajasthan,Jodhpur,"Mandor, Jodhpur - RSPCB",11-03-2024 11:00:00,26.358805,73.047444,SO2,2,11,5
India,Rajasthan,Jodhpur,"Samrat Ashok Udhyan, Jodhpur - RSPCB",11-03-2024 11:00:00,26.253384,72.976571,PM2.5,27,89,43
India,Rajasthan,Jodhpur,"Samrat Ashok Udhyan, Jodhpur - RSPCB",11-03-2024 11:00:00,26.253384,72.976571,PM10,49,148,89
India,Rajasthan,Jodhpur,"Samrat Ashok Udhyan, Jodhpur - RSPCB",11-03-2024 11:00:00,26.253384,72.976571,NH3,3,6,4
India,Rajasthan,Jodhpur,"Samrat Ashok Udhyan, Jodhpur - RSPCB",11-03-2024 11:00:00,26.253384,72.976571,CO,24,54,34
India,Rajasthan,Karauli,"Satyawati Vihar, Karauli - RSPCB",11-03-2024 11:00:00,26.506177,77.025989,PM10,57,133,79
India,Rajasthan,Karauli,"Satyawati Vihar, Karauli - RSPCB",11-03-2024 11:00:00,26.506177,77.025989,SO2,5,13,8
India,Rajasthan,Kota,"Dhanmandi, Kota - RSPCB",11-03-2024 11:00:00,25.164090,75.858137,PM2.5,37,199,90
India,Rajasthan,Kota,"Dhanmandi, Kota - RSPCB",11-03-2024 11:00:00,25.164090,75.858137,NH3,4,6,5
India,Rajasthan,Kota,"Dhanmandi, Kota - RSPCB",11-03-2024 11:00:00,25.164090,75.858137,SO2,6,97,17
India,Rajasthan,Kota,"Nayapura, Kota - RSPCB",11-03-2024 11:00:00,25.196024,75.855668,CO,16,103,48
India,Rajasthan,Kota,"Shrinath Puram, Kota - RSPCB",11-03-2024 11:00:00,25.14389,75.821256,PM2.5,95,312,204
India,Rajasthan,Kota,"Shrinath Puram, Kota - RSPCB",11-03-2024 11:00:00,25.14389,75.821256,NO2,5,89,31
India,Rajasthan,Kota,"Shrinath Puram, Kota - RSPCB",11-03-2024 11:00:00,25.14389,75.821256,NH3,13,26,18
India,Rajasthan,Nagaur,"Karni Colony, Nagaur - RSPCB",11-03-2024 11:00:00,27.213494,73.734444,PM2.5,23,102,44
India,Rajasthan,Nagaur,"Karni Colony, Nagaur - RSPCB",11-03-2024 11:00:00,27.213494,73.734444,NH3,5,8,6
India,Rajasthan,Pali,"Indira Colony Vistar, Pali - RSPCB",11-03-2024 11:00:00,25.771061, 73.340227,PM2.5,75,155,96
India,Rajasthan,Pali,"Indira Colony Vistar, Pali - RSPCB",11-03-2024 11:00:00,25.771061, 73.340227,PM10,67,143,100
India,Rajasthan,Pratapgarh,"Pragati Nagar, Pratapgarh - RSPCB",11-03-2024 11:00:00,24.041198,74.780702,PM10,61,166,98
India,Rajasthan,Pratapgarh,"Pragati Nagar, Pratapgarh - RSPCB",11-03-2024 11:00:00,24.041198,74.780702,NO2,8,46,22
India,Rajasthan,Rajsamand,"Dhoinda, Rajsamand - RSPCB",11-03-2024 11:00:00,25.036360,73.883502,OZONE,41,96,52
India,Rajasthan,Sawai Madhopur,"Sahu Nagar, Sawai Madhopur - RSPCB",11-03-2024 11:00:00,26.031443,76.359327,SO2,2,16,6
India,Rajasthan,Sirohi,"Vedhaynath Colony, Sirohi - RSPCB",11-03-2024 11:00:00,24.885261,72.857549,NO2,8,69,31
India,Rajasthan,Sirohi,"Vedhaynath Colony, Sirohi - RSPCB",11-03-2024 11:00:00,24.885261,72.857549,SO2,8,25,14
India,Rajasthan,Tonk,"Shastri Nagar, Tonk - RSPCB",11-03-2024 11:00:00,26.159933,75.780517,PM10,80,151,112
India,Rajasthan,Udaipur,"Ashok Nagar, Udaipur - RSPCB",11-03-2024 11:00:00,24.5886166,73.6321397,PM2.5,64,235,110
India,Rajasthan,Udaipur,"Ashok Nagar, Udaipur - RSPCB",11-03-2024 11:00:00,24.5886166,73.6321397,NO2,75,131,98
India,Rajasthan,Udaipur,"Ashok Nagar, Udaipur - RSPCB",11-03-2024 11:00:00,24.5886166,73.6321397,OZONE,3,74,23
India,Sikkim,Gangtok,"Zero Point GICI, Gangtok - SSPCB",11-03-2024 11:00:00,27.338530,88.614099,OZONE,23,99,41
India,TamilNadu,Ariyalur,"Keelapalur, Ariyalur - TNPCB",11-03-2024 11:00:00,11.06825,79.07033,PM10,36,59,50
India,TamilNadu,Chengalpattu,"Crescent University, Chengalpattu - TNPCB",11-03-2024 11:00:00,12.8777316,80.0834807,CO,28,32,30
India,TamilNadu,Chengalpattu,"Crescent University, Chengalpattu - TNPCB",11-03-2024 11:00:00,12.8777316,80.0834807,OZONE,6,7,7
India,TamilNadu,Chennai,"Alandur Bus Depot, Chennai - CPCB",11-03-2024 11:00:00,12.9099161,80.1076538,NO2,13,39,17
India,TamilNadu,Chennai,"Manali, Chennai - CPCB",11-03-2024 11:00:00,13.164544,80.26285,PM2.5,33,76,54
India,TamilNadu,Chennai,"Manali, Chennai - CPCB",11-03-2024 11:00:00,13.164544,80.26285,SO2,5,12,8
India,TamilNadu,Chennai,"Perungudi, Chennai - TNPCB",11-03-2024 11:00:00,12.9533,80.2357,OZONE,6,10,9
India,TamilNadu,Chennai,"Royapuram, Chennai - TNPCB",11-03-2024 11:00:00,13.1036,80.2909,PM10,36,59,47
India,TamilNadu,Chennai,"Royapuram, Chennai - TNPCB",11-03-2024 11:00:00,13.1036,80.2909,NO2,6,17,11
India,TamilNadu,Chennai,"Velachery Res. Area, Chennai - CPCB",11-03-2024 11:00:00,13.0052189,80.2398125,PM2.5,76,111,92
India,TamilNadu,Chennai,"Velachery Res. Area, Chennai - CPCB",11-03-2024 11:00:00,13.0052189,80.2398125,OZONE,3,10,7
India,TamilNadu,Coimbatore,"PSG College of Arts and Science, Coimbatore - TNPCB",11-03-2024 11:00:00,11.0328,77.0349,OZONE,3,5,4
India,TamilNadu,Cuddalore,"Kudikadu, Cuddalore - TNPCB",11-03-2024 11:00:00,11.6829898,79.7532099,NH3,5,5,5
India,TamilNadu,Thoothukudi,"Meelavittan, Thoothukudi - TNPCB",11-03-2024 11:00:00,8.816428 ,78.099039,SO2,NA,NA,NA
India,TamilNadu,Tirupur,"Kumaran College, Tirupur - TNPCB",11-03-2024 11:00:00,11.0973603,77.3228673,PM2.5,21,403,52
India,TamilNadu,Tirupur,"Kumaran College, Tirupur - TNPCB",11-03-2024 11:00:00,11.0973603,77.3228673,CO,22,66,40
India,TamilNadu,Vellore,"Vasanthapuram, Vellore - TNPCB",11-03-2024 11:00:00,12.909494,79.131861,OZONE,1,2,1
India,Telangana,Hyderabad,"Bollaram Industrial Area, Hyderabad - TSPCB",11-03-2024 11:00:00,17.540891,78.358528,SO2,7,52,11
India,Telangana,Hyderabad,"Bollaram Industrial Area, Hyderabad - TSPCB",11-03-2024 11:00:00,17.540891,78.358528,OZONE,36,39,37
India,Telangana,Hyderabad,"Central University, Hyderabad - TSPCB",11-03-2024 11:00:00,17.460103,78.334361,PM10,53,86,67
India,Telangana,Hyderabad,"Central University, Hyderabad - TSPCB",11-03-2024 11:00:00,17.460103,78.334361,OZONE,3,4,3
India,Telangana,Hyderabad,"ECIL Kapra, Hyderabad - TSPCB",11-03-2024 11:00:00,17.470431,78.566959,CO,15,55,32
India,Telangana,Hyderabad,"ICRISAT Patancheru, Hyderabad - TSPCB",11-03-2024 11:00:00,17.518400,78.278777,CO,22,53,31
India,Telangana,Hyderabad,"IITH Kandi, Hyderabad - TSPCB",11-03-2024 11:00:00,17.585705,78.126199,SO2,12,12,12
India,Telangana,Hyderabad,"Kokapet, Hyderabad - TSPCB",11-03-2024 11:00:00,17.393559,78.339194,PM2.5,48,66,55
India,Telangana,Hyderabad,"Kokapet, Hyderabad - TSPCB",11-03-2024 11:00:00,17.393559,78.339194,CO,19,24,24
India,Telangana,Hyderabad,"Kompally Municipal Office, Hyderabad - TSPCB",11-03-2024 11:00:00,17.544899,78.486949,NO2,NA,NA,NA
India,Telangana,Hyderabad,"Kompally Municipal Office, Hyderabad - TSPCB",11-03-2024 11:00:00,17.544899,78.486949,CO,NA,NA,NA
India,Telangana,Hyderabad,"Kompally Municipal Office, Hyderabad - TSPCB",11-03-2024 11:00:00,17.544899,78.486949,OZONE,NA,NA,NA
India,Telangana,Hyderabad,"Nacharam_TSIIC IALA, Hyderabad - TSPCB",11-03-2024 11:00:00,17.429398,78.569354,CO,18,30,23
India,Telangana,Hyderabad,"Nacharam_TSIIC IALA, Hyderabad - TSPCB",11-03-2024 11:00:00,17.429398,78.569354,OZONE,21,28,22
India,Telangana,Hyderabad,"New Malakpet, Hyderabad - TSPCB",11-03-2024 11:00:00,17.37206,78.50864,NH3,4,5,4
India,Telangana,Hyderabad,"Zoo Park, Hyderabad - TSPCB",11-03-2024 11:00:00,17.349694,78.451437,CO,24,66,29
India,Telangana,Hyderabad,"Zoo Park, Hyderabad - TSPCB",11-03-2024 11:00:00,17.349694,78.451437,OZONE,17,24,19
India,Tripura,Agartala,"Bardowali, Agartala - Tripura SPCB",11-03-2024 11:00:00,23.8175497,91.2726974,PM2.5,NA,NA,NA
India,Tripura,Agartala,"Bardowali, Agartala - Tripura SPCB",11-03-2024 11:00:00,23.8175497,91.2726974,PM10,NA,NA,NA
India,Uttar_Pradesh,Agra,"Manoharpur, Agra - UPPCB",11-03-2024 11:00:00,27.23711,78.01936,CO,5,20,13
India,Uttar_Pradesh,Agra,"Sanjay Palace, Agra - UPPCB",11-03-2024 11:00:00,27.19865833,78.00598056,PM10,22,88,51
India,Uttar_Pradesh,Agra,"Sanjay Palace, Agra - UPPCB",11-03-2024 11:00:00,27.19865833,78.00598056,NO2,39,61,51
India,Uttar_Pradesh,Agra,"Sanjay Palace, Agra - UPPCB",11-03-2024 11:00:00,27.19865833,78.00598056,SO2,2,10,8
India,Uttar_Pradesh,Agra,"Shahjahan Garden, Agra - UPPCB",11-03-2024 11:00:00,27.169338,78.03582,OZONE,1,2,1
India,Uttar_Pradesh,Agra,"Shastripuram, Agra - UPPCB",11-03-2024 11:00:00,27.19862,77.92066,NO2,22,84,34
India,Uttar_Pradesh,Agra,"Shastripuram, Agra - UPPCB",11-03-2024 11:00:00,27.19862,77.92066,OZONE,2,24,11
India,Uttar_Pradesh,Bareilly,"Rajendra Nagar, Bareilly - UPPCB",11-03-2024 11:00:00,28.38910936,79.42963708,NH3,1,1,1
India,Uttar_Pradesh,Bareilly,"Rajendra Nagar, Bareilly - UPPCB",11-03-2024 11:00:00,28.38910936,79.42963708,CO,10,54,45
India,Uttar_Pradesh,Bulandshahr,"Yamunapuram, Bulandshahr - UPPCB",11-03-2024 11:00:00,28.406963,77.849831,NO2,29,201,83
India,Uttar_Pradesh,Bulandshahr,"Yamunapuram, Bulandshahr - UPPCB",11-03-2024 11:00:00,28.406963,77.849831,OZONE,2,202,24
India,Uttar_Pradesh,Firozabad,"Nagla Bhau, Firozabad - UPPCB",11-03-2024 11:00:00,27.168897,78.376960,NH3,2,2,2
India,Uttar_Pradesh,Firozabad,"Vibhab Nagar, Firozabad - UPPCB",11-03-2024 11:00:00,27.1594,78.3953,PM10,26,88,44
India,Uttar_Pradesh,Firozabad,"Vibhab Nagar, Firozabad - UPPCB",11-03-2024 11:00:00,27.1594,78.3953,NH3,2,2,2
India,Uttar_Pradesh,Firozabad,"Vibhab Nagar, Firozabad - UPPCB",11-03-2024 11:00:00,27.1594,78.3953,SO2,12,34,18
India,Uttar_Pradesh,Firozabad,"Vibhab Nagar, Firozabad - UPPCB",11-03-2024 11:00:00,27.1594,78.3953,OZONE,20,55,22
India,Uttar_Pradesh,Ghaziabad,"Loni, Ghaziabad - UPPCB",11-03-2024 11:00:00,28.757294,77.278792,PM10,84,290,148
India,Uttar_Pradesh,Ghaziabad,"Loni, Ghaziabad - UPPCB",11-03-2024 11:00:00,28.757294,77.278792,NO2,13,99,35
India,Uttar_Pradesh,Ghaziabad,"Vasundhara, Ghaziabad - UPPCB",11-03-2024 11:00:00,28.6603346,77.3572563,NH3,4,16,8
India,Uttar_Pradesh,Ghaziabad,"Vasundhara, Ghaziabad - UPPCB",11-03-2024 11:00:00,28.6603346,77.3572563,SO2,7,31,18
India,Uttar_Pradesh,Gorakhpur,"Madan Mohan Malaviya University of Technology, Gorakhpur - UPPCB",11-03-2024 11:00:00,26.730136,83.433859,PM2.5,54,305,146
India,Uttar_Pradesh,Gorakhpur,"Madan Mohan Malaviya University of Technology, Gorakhpur - UPPCB",11-03-2024 11:00:00,26.730136,83.433859,PM10,66,168,108
India,Uttar_Pradesh,Greater Noida,"Knowledge Park - V, Greater Noida - UPPCB",11-03-2024 11:00:00,28.557054,77.453663,PM2.5,64,338,225
India,Uttar_Pradesh,Jhansi,"Shivaji Nagar, Jhansi - UPPCB",11-03-2024 11:00:00,25.4547,78.6039,NH3,6,6,6
India,Uttar_Pradesh,Khurja,"Kalindi Kunj, Khurja - UPPCB",11-03-2024 11:00:00,28.2348927,77.8683002,PM2.5,46,202,90
India,Uttar_Pradesh,Lucknow,"B R Ambedkar University, Lucknow - UPPCB",11-03-2024 11:00:00,26.766433,80.927299,PM2.5,27,178,86
India,Uttar_Pradesh,Lucknow,"Gomti Nagar, Lucknow - UPPCB",11-03-2024 11:00:00,26.868120,81.005119,OZONE,29,39,31
India,Uttar_Pradesh,Lucknow,"Kendriya Vidyalaya, Lucknow - CPCB",11-03-2024 11:00:00,26.906111,80.948222,SO2,4,10,7
India,Uttar_Pradesh,Lucknow,"Kukrail Picnic Spot-1, Lucknow - UPPCB",11-03-2024 11:00:00,26.90723,80.98579,PM10,39,104,61
India,Uttar_Pradesh,Lucknow,"Kukrail Picnic Spot-1, Lucknow - UPPCB",11-03-2024 11:00:00,26.90723,80.98579,NO2,8,9,8
India,Uttar_Pradesh,Lucknow,"Lalbagh, Lucknow - CPCB",11-03-2024 11:00:00,26.8458805,80.9365541,NO2,5,28,14
India,Uttar_Pradesh,Lucknow,"Talkatora District Industries Center, Lucknow - CPCB",11-03-2024 11:00:00,26.83399722,80.8917361,PM2.5,48,323,184
India,Uttar_Pradesh,Meerut,"Jai Bhim Nagar, Meerut - UPPCB",11-03-2024 11:00:00,28.9535882,77.7622941,PM2.5,29,251,113
India,Uttar_Pradesh,Meerut,"Pallavpuram Phase 2, Meerut - UPPCB",11-03-2024 11:00:00,29.063510,77.709723,NH3,10,13,11
India,Uttar_Pradesh,Moradabad,"Buddhi Vihar, Moradabad - UPPCB",11-03-2024 11:00:00,28.83526,78.74460,PM10,29,162,96
India,Uttar_Pradesh,Moradabad,"Buddhi Vihar, Moradabad - UPPCB",11-03-2024 11:00:00,28.83526,78.74460,NO2,23,23,23
India,Uttar_Pradesh,Moradabad,"Eco Herbal Park, Moradabad - UPPCB",11-03-2024 11:00:00,28.840739,78.697531,PM10,42,147,102
India,Uttar_Pradesh,Moradabad,"Eco Herbal Park, Moradabad - UPPCB",11-03-2024 11:00:00,28.840739,78.697531,NO2,16,85,51
India,Uttar_Pradesh,Moradabad,"Eco Herbal Park, Moradabad - UPPCB",11-03-2024 11:00:00,28.840739,78.697531,NH3,4,53,10
India,Uttar_Pradesh,Moradabad,"Eco Herbal Park, Moradabad - UPPCB",11-03-2024 11:00:00,28.840739,78.697531,SO2,2,42,15
India,Uttar_Pradesh,Moradabad,"Eco Herbal Park, Moradabad - UPPCB",11-03-2024 11:00:00,28.840739,78.697531,OZONE,5,20,16
India,Uttar_Pradesh,Moradabad,"Employment Office, Moradabad - UPPCB",11-03-2024 11:00:00,28.88528,78.73880,NH3,3,4,4
India,Uttar_Pradesh,Moradabad,"Jigar Colony, Moradabad - UPPCB",11-03-2024 11:00:00,28.856664,78.772638,SO2,20,26,22
India,Uttar_Pradesh,Moradabad,"Transport Nagar, Moradabad - UPPCB",11-03-2024 11:00:00,28.802625,78.753728,PM2.5,19,144,81
India,Uttar_Pradesh,Moradabad,"Transport Nagar, Moradabad - UPPCB",11-03-2024 11:00:00,28.802625,78.753728,NO2,14,42,29
India,Uttar_Pradesh,Muzaffarnagar,"New Mandi, Muzaffarnagar - UPPCB",11-03-2024 11:00:00,29.4723508,77.7194031,SO2,22,77,46
India,Uttar_Pradesh,Noida,"Sector - 125, Noida - UPPCB",11-03-2024 11:00:00,28.5447608,77.3231257,NO2,20,208,93
India,Uttar_Pradesh,Noida,"Sector - 125, Noida - UPPCB",11-03-2024 11:00:00,28.5447608,77.3231257,OZONE,6,197,19
India,Uttar_Pradesh,Noida,"Sector - 62, Noida - IMD",11-03-2024 11:00:00,28.6245479,77.3577104,PM10,113,245,156
India,Uttar_Pradesh,Noida,"Sector-1, Noida - UPPCB",11-03-2024 11:00:00,28.5898,77.3101,PM2.5,62,316,180
India,Uttar_Pradesh,Noida,"Sector-1, Noida - UPPCB",11-03-2024 11:00:00,28.5898,77.3101,PM10,108,244,169
India,Uttar_Pradesh,Noida,"Sector-1, Noida - UPPCB",11-03-2024 11:00:00,28.5898,77.3101,SO2,12,34,17
India,Uttar_Pradesh,Noida,"Sector-116, Noida - UPPCB",11-03-2024 11:00:00,28.569230,77.393848,CO,5,102,34
India,Uttar_Pradesh,Prayagraj,"Jhunsi, Prayagraj - UPPCB",11-03-2024 11:00:00,25.425602,81.917152,NH3,5,5,5
India,Uttar_Pradesh,Prayagraj,"Jhunsi, Prayagraj - UPPCB",11-03-2024 11:00:00,25.425602,81.917152,SO2,30,31,30
India,Uttar_Pradesh,Prayagraj,"Motilal Nehru NIT, Prayagraj - UPPCB",11-03-2024 11:00:00,25.494,81.863,PM10,30,141,77
India,Uttar_Pradesh,Prayagraj,"Motilal Nehru NIT, Prayagraj - UPPCB",11-03-2024 11:00:00,25.494,81.863,CO,10,34,31
India,Uttar_Pradesh,Prayagraj,"Nagar Nigam, Prayagraj - UPPCB",11-03-2024 11:00:00,25.44919916 ,81.82735986 ,NO2,5,5,5
India,Uttar_Pradesh,Varanasi,"Ardhali Bazar, Varanasi - UPPCB",11-03-2024 11:00:00,25.3505986,82.9083074,PM2.5,9,41,24
India,Uttar_Pradesh,Varanasi,"Ardhali Bazar, Varanasi - UPPCB",11-03-2024 11:00:00,25.3505986,82.9083074,NO2,8,37,19
India,Uttar_Pradesh,Varanasi,"Ardhali Bazar, Varanasi - UPPCB",11-03-2024 11:00:00,25.3505986,82.9083074,OZONE,22,25,23
India,Uttar_Pradesh,Varanasi,"Bhelupur, Varanasi - UPPCB",11-03-2024 11:00:00,25.301778,82.996789,PM2.5,5,19,12
India,Uttar_Pradesh,Varanasi,"Bhelupur, Varanasi - UPPCB",11-03-2024 11:00:00,25.301778,82.996789,NH3,1,2,2
India,Uttar_Pradesh,Varanasi,"Bhelupur, Varanasi - UPPCB",11-03-2024 11:00:00,25.301778,82.996789,CO,14,105,29
India,Uttar_Pradesh,Varanasi,"IESD Banaras Hindu University, Varanasi - UPPCB",11-03-2024 11:00:00,25.262326,82.995408,PM10,17,55,35
India,Uttar_Pradesh,Varanasi,"IESD Banaras Hindu University, Varanasi - UPPCB",11-03-2024 11:00:00,25.262326,82.995408,SO2,17,17,17
India,Uttarakhand,Dehradun,"Doon University, Dehradun - UKPCB",11-03-2024 11:00:00,30.269444,78.044167,PM10,44,141,97
India,Uttarakhand,Kashipur,"Govt. Girls Inter College, Kashipur - UKPCB",11-03-2024 11:00:00,29.2124114,78.9611753,PM10,97,166,115
India,Uttarakhand,Kashipur,"Govt. Girls Inter College, Kashipur - UKPCB",11-03-2024 11:00:00,29.2124114,78.9611753,NO2,NA,NA,NA
India,Uttarakhand,Rishikesh,"Shivaji Nagar, Rishikesh - UKPCB",11-03-2024 11:00:00,30.075911,78.2859547,PM10,57,99,83
India,Uttarakhand,Rishikesh,"Shivaji Nagar, Rishikesh - UKPCB",11-03-2024 11:00:00,30.075911,78.2859547,NO2,11,40,21
India,West_Bengal,Asansol,"Asansol Court Area, Asansol - WBPCB",11-03-2024 11:00:00,23.685297,86.945968,PM2.5,60,236,130
India,West_Bengal,Asansol,"Asansol Court Area, Asansol - WBPCB",11-03-2024 11:00:00,23.685297,86.945968,CO,6,72,36
India,West_Bengal,Asansol,"Asansol Court Area, Asansol - WBPCB",11-03-2024 11:00:00,23.685297,86.945968,OZONE,8,34,19
India,West_Bengal,Barrackpore,"SVSPA Campus, Barrackpore - WBPCB",11-03-2024 11:00:00,22.7605581,88.3617589,PM10,89,168,128
India,West_Bengal,Barrackpore,"SVSPA Campus, Barrackpore - WBPCB",11-03-2024 11:00:00,22.7605581,88.3617589,OZONE,7,8,8
India,West_Bengal,Haldia,"Priyambada Housing Estate, Haldia - WBPCB",11-03-2024 11:00:00,22.06047,88.109737,NH3,3,5,4
India,West_Bengal,Howrah,"Belur Math, Howrah - WBPCB",11-03-2024 11:00:00,22.629801,88.352017,CO,2,40,18
India,West_Bengal,Kolkata,"Ballygunge, Kolkata - WBPCB",11-03-2024 11:00:00,22.5367507,88.3638022,CO,12,83,52
India,West_Bengal,Kolkata,"Bidhannagar, Kolkata - WBPCB",11-03-2024 11:00:00,22.58157048,88.41002457,NO2,13,28,21
India,West_Bengal,Kolkata,"Fort William, Kolkata - WBPCB",11-03-2024 11:00:00,22.556640,88.342674,PM10,98,168,125
India,West_Bengal,Kolkata,"Fort William, Kolkata - WBPCB",11-03-2024 11:00:00,22.556640,88.342674,SO2,10,38,19
India,West_Bengal,Kolkata,"Fort William, Kolkata - WBPCB",11-03-2024 11:00:00,22.556640,88.342674,CO,19,86,65
India,West_Bengal,Kolkata,"Jadavpur, Kolkata - WBPCB",11-03-2024 11:00:00,22.49929,88.36917,PM2.5,50,178,116
India,West_Bengal,Kolkata,"Jadavpur, Kolkata - WBPCB",11-03-2024 11:00:00,22.49929,88.36917,NO2,1,10,4
India,West_Bengal,Siliguri,"Ward-32 Bapupara, Siliguri - WBPCB",11-03-2024 11:00:00,26.6879226,88.4152495,NH3,6,17,12
India,Andhra_Pradesh,Amaravati,"Secretariat, Amaravati - APPCB",11-03-2024 11:00:00,16.5150833,80.5181667,PM10,44,79,60
India,Andhra_Pradesh,Amaravati,"Secretariat, Amaravati - APPCB",11-03-2024 11:00:00,16.5150833,80.5181667,SO2,13,16,14
India,Andhra_Pradesh,Anantapur,"Gulzarpet, Anantapur - APPCB",11-03-2024 11:00:00,14.675886,77.593027,NO2,NA,NA,NA
India,Andhra_Pradesh,Anantapur,"Gulzarpet, Anantapur - APPCB",11-03-2024 11:00:00,14.675886,77.593027,NH3,NA,NA,NA
India,Andhra_Pradesh,Anantapur,"Gulzarpet, Anantapur - APPCB",11-03-2024 11:00:00,14.675886,77.593027,CO,27,50,38
India,Andhra_Pradesh,Chittoor,"Gangineni Cheruvu, Chittoor - APPCB",11-03-2024 11:00:00,13.204880,79.097889,NO2,NA,NA,NA
India,Andhra_Pradesh,Kadapa,"Yerramukkapalli, Kadapa - APPCB",11-03-2024 11:00:00,14.465052,78.824187,SO2,2,2,2
India,Andhra_Pradesh,Kadapa,"Yerramukkapalli, Kadapa - APPCB",11-03-2024 11:00:00,14.465052,78.824187,OZONE,15,66,23
India,Andhra_Pradesh,Rajamahendravaram,"Anand Kala Kshetram, Rajamahendravaram - APPCB",11-03-2024 11:00:00,16.9872867,81.7363176,PM2.5,50,94,74
India,Andhra_Pradesh,Rajamahendravaram,"Anand Kala Kshetram, Rajamahendravaram - APPCB",11-03-2024 11:00:00,16.9872867,81.7363176,PM10,64,110,79
India,Andhra_Pradesh,Rajamahendravaram,"Anand Kala Kshetram, Rajamahendravaram - APPCB",11-03-2024 11:00:00,16.9872867,81.7363176,NO2,6,31,15
India,Andhra_Pradesh,Tirupati,"Vaikuntapuram, Tirupati - APPCB",11-03-2024 11:00:00,13.615387,79.409230,PM2.5,13,319,64
India,Andhra_Pradesh,Tirupati,"Vaikuntapuram, Tirupati - APPCB",11-03-2024 11:00:00,13.615387,79.409230,NO2,16,26,20
India,Andhra_Pradesh,Vijayawada,"HB Colony, Vijayawada - APPCB",11-03-2024 11:00:00,16.536107,80.594233,NO2,4,12,8
India,Andhra_Pradesh,Vijayawada,"HB Colony, Vijayawada - APPCB",11-03-2024 11:00:00,16.536107,80.594233,NH3,4,4,4
India,Andhra_Pradesh,Vijayawada,"Kanuru, Vijayawada - APPCB",11-03-2024 11:00:00,16.486692,80.699436,NH3,1,1,1
India,Andhra_Pradesh,Vijayawada,"Kanuru, Vijayawada - APPCB",11-03-2024 11:00:00,16.486692,80.699436,OZONE,33,33,33
India,Andhra_Pradesh,Vijayawada,"Rajiv Gandhi Park, Vijayawada - APPCB",11-03-2024 11:00:00,16.509717,80.612222,PM2.5,41,72,57
India,Andhra_Pradesh,Vijayawada,"Rajiv Gandhi Park, Vijayawada - APPCB",11-03-2024 11:00:00,16.509717,80.612222,PM10,41,75,59
India,Andhra_Pradesh,Vijayawada,"Rajiv Gandhi Park, Vijayawada - APPCB",11-03-2024 11:00:00,16.509717,80.612222,NO2,8,53,28
India,Andhra_Pradesh,Vijayawada,"Rajiv Gandhi Park, Vijayawada - APPCB",11-03-2024 11:00:00,16.509717,80.612222,SO2,5,7,6
India,Andhra_Pradesh,Vijayawada,"Rajiv Nagar, Vijayawada - APPCB",11-03-2024 11:00:00,16.554731,80.649110,NO2,5,9,6
India,Andhra_Pradesh,Vijayawada,"Rajiv Nagar, Vijayawada - APPCB",11-03-2024 11:00:00,16.554731,80.649110,NH3,NA,NA,NA
India,Arunachal_Pradesh,Naharlagun,"Naharlagun, Naharlagun - APSPCB",11-03-2024 11:00:00,27.103358,93.679645,PM2.5,NA,NA,NA
India,Arunachal_Pradesh,Naharlagun,"Naharlagun, Naharlagun - APSPCB",11-03-2024 11:00:00,27.103358,93.679645,CO,16,38,19
India,Arunachal_Pradesh,Naharlagun,"Naharlagun, Naharlagun - APSPCB",11-03-2024 11:00:00,27.103358,93.679645,OZONE,NA,NA,NA
India,Assam,Byrnihat,"Central Academy for SFS, Byrnihat - PCBA",11-03-2024 11:00:00,26.071318,91.87488,PM2.5,92,443,352
India,Assam,Byrnihat,"Central Academy for SFS, Byrnihat - PCBA",11-03-2024 11:00:00,26.071318,91.87488,NO2,40,101,55
India,Assam,Byrnihat,"Central Academy for SFS, Byrnihat - PCBA",11-03-2024 11:00:00,26.071318,91.87488,SO2,9,16,11
India,Assam,Guwahati,"Pan Bazaar, Guwahati - PCBA",11-03-2024 11:00:00,26.187500,91.744194,PM10,129,419,210
India,Assam,Guwahati,"Railway Colony, Guwahati - PCBA",11-03-2024 11:00:00,26.181742,91.78063,NO2,3,4,3
India,Assam,Guwahati,"Railway Colony, Guwahati - PCBA",11-03-2024 11:00:00,26.181742,91.78063,CO,23,109,61
India,Assam,Nagaon,"Christianpatty, Nagaon - PCBA",11-03-2024 11:00:00,26.349082,92.68449,NH3,2,15,5
India,Assam,Nalbari,"Bata Chowk, Nalbari - PCBA",11-03-2024 11:00:00,26.446912,91.439057,PM2.5,97,391,252
India,Assam,Nalbari,"Bata Chowk, Nalbari - PCBA",11-03-2024 11:00:00,26.446912,91.439057,PM10,110,470,228
India,Assam,Silchar,"Tarapur, Silchar - PCBA",11-03-2024 11:00:00,24.82827,92.79525,SO2,NA,NA,NA
India,Assam,Sivasagar,"Girls College, Sivasagar - PCBA",11-03-2024 11:00:00,26.987634,94.636574,PM2.5,38,71,51
India,Assam,Sivasagar,"Girls College, Sivasagar - PCBA",11-03-2024 11:00:00,26.987634,94.636574,PM10,36,80,59
India,Assam,Sivasagar,"Girls College, Sivasagar - PCBA",11-03-2024 11:00:00,26.987634,94.636574,NO2,16,37,24
India,Bihar,Arrah,"New DM Office, Arrah - BSPCB",11-03-2024 11:00:00,25.5626095,84.663264,NO2,4,45,23
India,Bihar,Aurangabad,"Gurdeo Nagar, Aurangabad - BSPCB",11-03-2024 11:00:00,24.75746,84.366208,CO,23,77,69
India,Bihar,Aurangabad,"Gurdeo Nagar, Aurangabad - BSPCB",11-03-2024 11:00:00,24.75746,84.366208,OZONE,4,87,21
India,Bihar,Bettiah,"Kamalnath Nagar, Bettiah - BSPCB",11-03-2024 11:00:00,26.80365,84.51954,PM2.5,43,397,229
India,Bihar,Bettiah,"Kamalnath Nagar, Bettiah - BSPCB",11-03-2024 11:00:00,26.80365,84.51954,PM10,73,269,146
India,Bihar,Bettiah,"Kamalnath Nagar, Bettiah - BSPCB",11-03-2024 11:00:00,26.80365,84.51954,OZONE,1,21,5
India,Bihar,Bhagalpur,"DM Office_Kachari Chowk, Bhagalpur - BSPCB",11-03-2024 11:00:00,25.251013,86.989001,CO,47,102,75
India,Bihar,Bhagalpur,"Mayaganj, Bhagalpur - BSPCB",11-03-2024 11:00:00,25.265194,87.012947,NO2,3,16,10
India,Bihar,Bhagalpur,"Mayaganj, Bhagalpur - BSPCB",11-03-2024 11:00:00,25.265194,87.012947,NH3,7,9,8
India,Bihar,Bihar Sharif,"D M Colony, Bihar Sharif - BSPCB",11-03-2024 11:00:00,25.204762,85.514960,SO2,NA,NA,NA
India,Bihar,Chhapra,"Darshan Nagar, Chhapra - BSPCB",11-03-2024 11:00:00,25.7808257,84.7446768,PM10,NA,NA,NA
India,Bihar,Chhapra,"Darshan Nagar, Chhapra - BSPCB",11-03-2024 11:00:00,25.7808257,84.7446768,NH3,NA,NA,NA
India,Bihar,Chhapra,"Darshan Nagar, Chhapra - BSPCB",11-03-2024 11:00:00,25.7808257,84.7446768,SO2,NA,NA,NA
India,Bihar,Gaya,"Kareemganj, Gaya - BSPCB",11-03-2024 11:00:00,24.792403,84.992416,OZONE,2,30,16
India,Bihar,Gaya,"SFTI Kusdihra, Gaya - BSPCB",11-03-2024 11:00:00,24.762518,84.982348,OZONE,1,65,12
India,Bihar,Hajipur,"Industrial Area, Hajipur - BSPCB",11-03-2024 11:00:00,25.697189,85.245900,OZONE,5,60,15
India,Bihar,Katihar,"Mirchaibari, Katihar - BSPCB",11-03-2024 11:00:00,25.560083,87.553265,NO2,12,32,23
India,Bihar,Katihar,"Mirchaibari, Katihar - BSPCB",11-03-2024 11:00:00,25.560083,87.553265,CO,7,95,59
India,Bihar,Katihar,"Mirchaibari, Katihar - BSPCB",11-03-2024 11:00:00,25.560083,87.553265,OZONE,21,25,24
India,Bihar,Manguraha,"Forest Rest House, Manguraha - BSPCB",11-03-2024 11:00:00,27.308328,84.531742,PM2.5,52,180,77
India,Bihar,Manguraha,"Forest Rest House, Manguraha - BSPCB",11-03-2024 11:00:00,27.308328,84.531742,CO,18,64,29
India,Bihar,Motihari,"Gandak Colony, Motihari - BSPCB",11-03-2024 11:00:00,26.63086,84.90051,PM2.5,35,335,168
India,Bihar,Motihari,"Gandak Colony, Motihari - BSPCB",11-03-2024 11:00:00,26.63086,84.90051,NH3,11,15,13
India,Bihar,Munger,"Town Hall, Munger - BSPCB",11-03-2024 11:00:00,25.376776,86.471523,PM10,69,479,175
India,Bihar,Munger,"Town Hall, Munger - BSPCB",11-03-2024 11:00:00,25.376776,86.471523,NO2,8,9,8
India,Bihar,Muzaffarpur,"Buddha Colony, Muzaffarpur - BSPCB",11-03-2024 11:00:00,26.11442,85.39813,PM10,172,372,244
India,Bihar,Muzaffarpur,"Buddha Colony, Muzaffarpur - BSPCB",11-03-2024 11:00:00,26.11442,85.39813,NO2,48,133,83
India,Bihar,Muzaffarpur,"Buddha Colony, Muzaffarpur - BSPCB",11-03-2024 11:00:00,26.11442,85.39813,NH3,4,13,10
India,Bihar,Muzaffarpur,"Muzaffarpur Collectorate, Muzaffarpur - BSPCB",11-03-2024 11:00:00,26.1209,85.3647,PM2.5,45,333,178
India,Bihar,Patna,"DRM Office Danapur, Patna - BSPCB",11-03-2024 11:00:00,25.586562,85.043586,PM10,89,251,160
India,Bihar,Patna,"Govt. High School Shikarpur, Patna - BSPCB",11-03-2024 11:00:00,25.592539,85.227158,PM10,109,196,149
India,Bihar,Patna,"Govt. High School Shikarpur, Patna - BSPCB",11-03-2024 11:00:00,25.592539,85.227158,NH3,3,6,6
India,Bihar,Patna,"Govt. High School Shikarpur, Patna - BSPCB",11-03-2024 11:00:00,25.592539,85.227158,OZONE,6,67,6
India,Bihar,Patna,"IGSC Planetarium Complex, Patna - BSPCB",11-03-2024 11:00:00,25.610369,85.132568,OZONE,6,47,20
India,Bihar,Patna,"Muradpur, Patna - BSPCB",11-03-2024 11:00:00,25.619651,85.147382,PM2.5,92,349,242
India,Bihar,Patna,"Muradpur, Patna - BSPCB",11-03-2024 11:00:00,25.619651,85.147382,NH3,2,6,3
India,Bihar,Patna,"Rajbansi Nagar, Patna - BSPCB",11-03-2024 11:00:00,25.599486,85.113666,NH3,2,4,3
India,Bihar,Patna,"Samanpura, Patna - BSPCB",11-03-2024 11:00:00,25.596727,85.085624,PM2.5,59,441,259
India,Bihar,Patna,"Samanpura, Patna - BSPCB",11-03-2024 11:00:00,25.596727,85.085624,NH3,3,8,5
India,Bihar,Rajgir,"Dangi Tola, Rajgir - BSPCB",11-03-2024 11:00:00,25.03280,85.41948,PM10,34,121,79
India,Bihar,Rajgir,"Dangi Tola, Rajgir - BSPCB",11-03-2024 11:00:00,25.03280,85.41948,NH3,1,2,1
India,Bihar,Rajgir,"Dangi Tola, Rajgir - BSPCB",11-03-2024 11:00:00,25.03280,85.41948,OZONE,21,25,22
India,Bihar,Saharsa,"Police Line, Saharsa - BSPCB",11-03-2024 11:00:00,25.892357,86.590325,NO2,5,8,7
India,Bihar,Saharsa,"Police Line, Saharsa - BSPCB",11-03-2024 11:00:00,25.892357,86.590325,CO,2,62,22
India,Bihar,Saharsa,"Police Line, Saharsa - BSPCB",11-03-2024 11:00:00,25.892357,86.590325,OZONE,14,56,27
India,Bihar,Samastipur,"DM Office_Kasipur, Samastipur - BSPCB",11-03-2024 11:00:00,25.859655,85.77944,PM2.5,25,308,130
India,Bihar,Samastipur,"DM Office_Kasipur, Samastipur - BSPCB",11-03-2024 11:00:00,25.859655,85.77944,SO2,5,15,10
India,Bihar,Sasaram,"Dada Peer, Sasaram - BSPCB",11-03-2024 11:00:00,24.952822,84.002396,PM2.5,36,222,89
India,Bihar,Sasaram,"Dada Peer, Sasaram - BSPCB",11-03-2024 11:00:00,24.952822,84.002396,PM10,42,130,81
India,Bihar,Siwan,"Chitragupta Nagar, Siwan - BSPCB",11-03-2024 11:00:00,26.2271665,84.3570427,SO2,24,35,33
India,Chandigarh,Chandigarh,"Sector 22, Chandigarh - CPCC",11-03-2024 11:00:00,30.735567,76.775714,PM2.5,47,303,152
India,Chandigarh,Chandigarh,"Sector 22, Chandigarh - CPCC",11-03-2024 11:00:00,30.735567,76.775714,NO2,14,106,47
India,Chandigarh,Chandigarh,"Sector 22, Chandigarh - CPCC",11-03-2024 11:00:00,30.735567,76.775714,NH3,5,8,6
India,Chandigarh,Chandigarh,"Sector 22, Chandigarh - CPCC",11-03-2024 11:00:00,30.735567,76.775714,SO2,10,28,14
India,Chandigarh,Chandigarh,"Sector 22, Chandigarh - CPCC",11-03-2024 11:00:00,30.735567,76.775714,OZONE,3,170,70
India,Chandigarh,Chandigarh,"Sector-25, Chandigarh - CPCC",11-03-2024 11:00:00,30.751462,76.762879,NO2,7,48,20
India,Chandigarh,Chandigarh,"Sector-25, Chandigarh - CPCC",11-03-2024 11:00:00,30.751462,76.762879,CO,20,82,36
India,Chandigarh,Chandigarh,"Sector-53, Chandigarh - CPCC",11-03-2024 11:00:00,30.719859,76.738637,CO,40,118,57
India,Chhattisgarh,Bhilai,"32Bungalows, Bhilai - CECB",11-03-2024 11:00:00,21.194815,81.314770,NO2,28,36,33
India,Chhattisgarh,Bhilai,"Hathkhoj, Bhilai - CECB",11-03-2024 11:00:00,21.224231,81.408350,PM10,101,122,111
India,Chhattisgarh,Bilaspur,"Mangala, Bilaspur - NTPC",11-03-2024 11:00:00,22.08815,82.13737,PM2.5,22,51,36
India,Chhattisgarh,Bilaspur,"Mangala, Bilaspur - NTPC",11-03-2024 11:00:00,22.08815,82.13737,NO2,16,22,21
India,Chhattisgarh,Chhal,"Nawapara SECL Colony, Chhal - CECB",11-03-2024 11:00:00,22.118125,83.140608,NO2,17,48,28
India,Chhattisgarh,Chhal,"Nawapara SECL Colony, Chhal - CECB",11-03-2024 11:00:00,22.118125,83.140608,OZONE,2,53,11
India,Chhattisgarh,Korba,"Rampur, Korba - CECB",11-03-2024 11:00:00,22.368195,82.746431,CO,NA,NA,NA
India,Chhattisgarh,Korba,"Urja Nagar, Korba - CECB",11-03-2024 11:00:00,22.348441,82.549611,PM2.5,32,301,85
India,Chhattisgarh,Kunjemura,"OP Jindal School, Kunjemura - CECB",11-03-2024 11:00:00,22.126650,83.483212,PM10,42,389,160
India,Chhattisgarh,Kunjemura,"OP Jindal School, Kunjemura - CECB",11-03-2024 11:00:00,22.126650,83.483212,NO2,22,131,58
India,Chhattisgarh,Kunjemura,"OP Jindal School, Kunjemura - CECB",11-03-2024 11:00:00,22.126650,83.483212,NH3,1,5,2
India,Chhattisgarh,Kunjemura,"OP Jindal School, Kunjemura - CECB",11-03-2024 11:00:00,22.126650,83.483212,SO2,4,64,24
India,Chhattisgarh,Raipur,"AIIMS, Raipur - CECB",11-03-2024 11:00:00,21.258815,81.578979,PM10,48,179,94
India,Chhattisgarh,Raipur,"AIIMS, Raipur - CECB",11-03-2024 11:00:00,21.258815,81.578979,NO2,53,84,64
India,Chhattisgarh,Raipur,"AIIMS, Raipur - CECB",11-03-2024 11:00:00,21.258815,81.578979,CO,30,66,50
India,Chhattisgarh,Raipur,"Bhatagaon New ISBT, Raipur - CECB",11-03-2024 11:00:00,21.219665,81.630094,NO2,42,60,50
India,Chhattisgarh,Raipur,"Krishak Nagar, Raipur - CECB",11-03-2024 11:00:00,21.237755,81.705301,PM2.5,26,97,60
India,Chhattisgarh,Raipur,"Krishak Nagar, Raipur - CECB",11-03-2024 11:00:00,21.237755,81.705301,PM10,49,148,84
India,Chhattisgarh,Raipur,"Krishak Nagar, Raipur - CECB",11-03-2024 11:00:00,21.237755,81.705301,NO2,24,42,32
India,Chhattisgarh,Raipur,"Krishak Nagar, Raipur - CECB",11-03-2024 11:00:00,21.237755,81.705301,NH3,1,1,1
India,Chhattisgarh,Raipur,"Krishak Nagar, Raipur - CECB",11-03-2024 11:00:00,21.237755,81.705301,CO,18,40,34
India,Chhattisgarh,Raipur,"Siltara Phase-II, Raipur - CECB",11-03-2024 11:00:00,21.371751,81.664929,NH3,3,3,3
India,Chhattisgarh,Tumidih,"OP Jindal Industrial Park, Tumidih - CECB",11-03-2024 11:00:00,22.06631475,83.33820077,CO,28,54,36
India,Delhi,Delhi,"Alipur, Delhi - DPCC",11-03-2024 11:00:00,28.815329,77.153010,PM2.5,52,326,192
India,Delhi,Delhi,"Alipur, Delhi - DPCC",11-03-2024 11:00:00,28.815329,77.153010,NO2,15,55,34
India,Delhi,Delhi,"Alipur, Delhi - DPCC",11-03-2024 11:00:00,28.815329,77.153010,NH3,5,9,7
India,Delhi,Delhi,"Alipur, Delhi - DPCC",11-03-2024 11:00:00,28.815329,77.153010,SO2,5,27,15
India,Delhi,Delhi,"Alipur, Delhi - DPCC",11-03-2024 11:00:00,28.815329,77.153010,OZONE,4,132,26
India,Delhi,Delhi,"Anand Vihar, Delhi - DPCC",11-03-2024 11:00:00,28.647622,77.3158090,NO2,NA,NA,NA
India,Delhi,Delhi,"Anand Vihar, Delhi - DPCC",11-03-2024 11:00:00,28.647622,77.3158090,SO2,NA,NA,NA
India,Delhi,Delhi,"Ashok Vihar, Delhi - DPCC",11-03-2024 11:00:00,28.695381,77.181665,OZONE,5,19,6
India,Delhi,Delhi,"Bawana, Delhi - DPCC",11-03-2024 11:00:00,28.776200,77.051074,PM10,91,276,176
India,Delhi,Delhi,"Burari Crossing, Delhi - IMD",11-03-2024 11:00:00,28.7256504,77.2011573,PM10,79,413,159
India,Delhi,Delhi,"Burari Crossing, Delhi - IMD",11-03-2024 11:00:00,28.7256504,77.2011573,NO2,11,14,12
India,Delhi,Delhi,"DTU, Delhi - CPCB",11-03-2024 11:00:00,28.7500499,77.1112615,PM10,84,280,163
India,Delhi,Delhi,"DTU, Delhi - CPCB",11-03-2024 11:00:00,28.7500499,77.1112615,NO2,27,71,40
India,Delhi,Delhi,"Dr. Karni Singh Shooting Range, Delhi - DPCC",11-03-2024 11:00:00,28.498571,77.264840,PM10,94,264,172
India,Delhi,Delhi,"Dwarka-Sector 8, Delhi - DPCC ",11-03-2024 11:00:00,28.5710274,77.0719006,PM2.5,65,323,186
India,Delhi,Delhi,"Dwarka-Sector 8, Delhi - DPCC ",11-03-2024 11:00:00,28.5710274,77.0719006,NH3,4,8,5
India,Delhi,Delhi,"Dwarka-Sector 8, Delhi - DPCC ",11-03-2024 11:00:00,28.5710274,77.0719006,SO2,1,20,8
India,Delhi,Delhi,"IGI Airport (T3), Delhi - IMD",11-03-2024 11:00:00,28.5627763,77.1180053,PM2.5,20,303,127
India,Delhi,Delhi,"Jahangirpuri, Delhi - DPCC",11-03-2024 11:00:00,28.732820,77.170633,NH3,12,16,13
India,Delhi,Delhi,"Lodhi Road, Delhi - IITM",11-03-2024 11:00:00,28.588333,77.221667,NO2,NA,NA,NA
India,Delhi,Delhi,"Lodhi Road, Delhi - IITM",11-03-2024 11:00:00,28.588333,77.221667,SO2,NA,NA,NA
India,Delhi,Delhi,"Lodhi Road, Delhi - IMD",11-03-2024 11:00:00,28.5918245,77.2273074,OZONE,6,117,13
India,Delhi,Delhi,"Major Dhyan Chand National Stadium, Delhi - DPCC",11-03-2024 11:00:00,28.611281,77.237738,PM2.5,74,314,192
India,Delhi,Delhi,"Major Dhyan Chand National Stadium, Delhi - DPCC",11-03-2024 11:00:00,28.611281,77.237738,SO2,10,33,18
India,Delhi,Delhi,"Mandir Marg, Delhi - DPCC",11-03-2024 11:00:00,28.636429,77.201067,PM2.5,76,313,164
India,Delhi,Delhi,"Mandir Marg, Delhi - DPCC",11-03-2024 11:00:00,28.636429,77.201067,NO2,157,196,176
India,Delhi,Delhi,"Mandir Marg, Delhi - DPCC",11-03-2024 11:00:00,28.636429,77.201067,CO,54,104,86
India,Delhi,Delhi,"Mundka, Delhi - DPCC",11-03-2024 11:00:00,28.684678,77.076574,CO,18,78,61
India,Delhi,Delhi,"NSIT Dwarka, Delhi - CPCB",11-03-2024 11:00:00,28.60909,77.0325413,NO2,40,70,52
India,Delhi,Delhi,"Najafgarh, Delhi - DPCC",11-03-2024 11:00:00,28.570173,76.933762,NO2,6,27,17
India,Delhi,Delhi,"Najafgarh, Delhi - DPCC",11-03-2024 11:00:00,28.570173,76.933762,CO,4,49,34
India,Delhi,Delhi,"Nehru Nagar, Delhi - DPCC",11-03-2024 11:00:00,28.567890,77.250515,NH3,5,10,8
India,Delhi,Delhi,"New Moti Bagh, Delhi - MHUA",11-03-2024 11:00:00,28.57834,77.18400,PM2.5,59,315,193
India,Delhi,Delhi,"Okhla Phase-2, Delhi - DPCC",11-03-2024 11:00:00,28.530785,77.271255,PM2.5,48,313,189
India,Delhi,Delhi,"Okhla Phase-2, Delhi - DPCC",11-03-2024 11:00:00,28.530785,77.271255,OZONE,9,147,21
India,Delhi,Delhi,"Patparganj, Delhi - DPCC",11-03-2024 11:00:00,28.623763,77.287209,CO,20,64,38
India,Delhi,Delhi,"Pusa, Delhi - DPCC",11-03-2024 11:00:00,28.639652,77.146275,NH3,8,11,9
India,Delhi,Delhi,"Pusa, Delhi - DPCC",11-03-2024 11:00:00,28.639652,77.146275,SO2,10,38,20
India,Delhi,Delhi,"Pusa, Delhi - IMD",11-03-2024 11:00:00,28.636110,77.173332,CO,60,102,92
India,Delhi,Delhi,"R K Puram, Delhi - DPCC",11-03-2024 11:00:00,28.563262,77.186937,PM10,106,284,173
India,Delhi,Delhi,"R K Puram, Delhi - DPCC",11-03-2024 11:00:00,28.563262,77.186937,NO2,16,77,43
India,Delhi,Delhi,"R K Puram, Delhi - DPCC",11-03-2024 11:00:00,28.563262,77.186937,OZONE,9,223,24
India,Delhi,Delhi,"Rohini, Delhi - DPCC",11-03-2024 11:00:00,28.732528,77.119920,PM2.5,51,336,198
India,Delhi,Delhi,"Rohini, Delhi - DPCC",11-03-2024 11:00:00,28.732528,77.119920,PM10,84,396,185
India,Delhi,Delhi,"Rohini, Delhi - DPCC",11-03-2024 11:00:00,28.732528,77.119920,NO2,16,101,56
India,Delhi,Delhi,"Shadipur, Delhi - CPCB",11-03-2024 11:00:00,28.6514781,77.1473105,SO2,10,27,19
India,Delhi,Delhi,"Sirifort, Delhi - CPCB",11-03-2024 11:00:00,28.5504249,77.2159377,SO2,41,46,42
India,Delhi,Delhi,"Vivek Vihar, Delhi - DPCC",11-03-2024 11:00:00,28.672342,77.315260,SO2,29,54,39
India,Gujarat,Ahmedabad,"Chandkheda, Ahmedabad - IITM",11-03-2024 11:00:00,23.107969,72.574648,NO2,66,78,70
India,Gujarat,Ahmedabad,"Maninagar, Ahmedabad - GPCB",11-03-2024 11:00:00,23.002657,72.591912,PM10,69,173,117
India,Gujarat,Ahmedabad,"Maninagar, Ahmedabad - GPCB",11-03-2024 11:00:00,23.002657,72.591912,NO2,42,42,42
India,Gujarat,Ahmedabad,"Raikhad, Ahmedabad - IITM",11-03-2024 11:00:00,23.020509,72.579261,PM2.5,29,89,52
India,Gujarat,Ahmedabad,"Raikhad, Ahmedabad - IITM",11-03-2024 11:00:00,23.020509,72.579261,PM10,28,74,45
India,Gujarat,Ahmedabad,"Raikhad, Ahmedabad - IITM",11-03-2024 11:00:00,23.020509,72.579261,CO,16,113,50
India,Gujarat,Ahmedabad,"Rakhial, Ahmedabad - IITM",11-03-2024 11:00:00,23.016834,72.625775,NH3,1,25,18
India,Gujarat,Ahmedabad,"Rakhial, Ahmedabad - IITM",11-03-2024 11:00:00,23.016834,72.625775,CO,11,65,23
India,Gujarat,Ahmedabad,"Rakhial, Ahmedabad - IITM",11-03-2024 11:00:00,23.016834,72.625775,OZONE,1,76,16
India,Gujarat,Ahmedabad,"SAC ISRO Satellite, Ahmedabad - IITM",11-03-2024 11:00:00,23.023389,72.515201,PM10,99,120,104
India,Gujarat,Ahmedabad,"SAC ISRO Satellite, Ahmedabad - IITM",11-03-2024 11:00:00,23.023389,72.515201,SO2,3,8,4
India,Gujarat,Ahmedabad,"SVPI Airport Hansol, Ahmedabad - IITM",11-03-2024 11:00:00,23.076793,72.627874,NO2,15,18,16
India,Gujarat,Ahmedabad,"SVPI Airport Hansol, Ahmedabad - IITM",11-03-2024 11:00:00,23.076793,72.627874,CO,28,102,46
India,Gujarat,Ahmedabad,"Sardar Vallabhbhai Patel Stadium, Ahmedabad - IITM",11-03-2024 11:00:00,23.043070,72.562968,NO2,1,2,1
India,Gujarat,Ankleshwar,"GIDC, Ankleshwar - GPCB",11-03-2024 11:00:00,21.613267,73.010555,PM2.5,32,115,74
India,Gujarat,Ankleshwar,"GIDC, Ankleshwar - GPCB",11-03-2024 11:00:00,21.613267,73.010555,OZONE,20,33,23
India,Gujarat,Gandhinagar,"GIFT City, Gandhinagar - IITM",11-03-2024 11:00:00,23.163798,72.677768,SO2,6,8,7
India,Gujarat,Gandhinagar,"GIFT City, Gandhinagar - IITM",11-03-2024 11:00:00,23.163798,72.677768,OZONE,2,55,15
India,Gujarat,Gandhinagar,"IIPHG Lekawada, Gandhinagar - IITM",11-03-2024 11:00:00,23.243639,72.68994,NO2,28,33,30
India,Gujarat,Gandhinagar,"Sector-10, Gandhinagar - GPCB",11-03-2024 11:00:00,23.221714,72.654328,PM10,34,117,81
India,Gujarat,Nandesari,"GIDC, Nandesari - Nandesari Ind. Association",11-03-2024 11:00:00,22.410802,73.097923,SO2,2,14,8
India,Gujarat,Surat,"Science Center, Surat - SMC",11-03-2024 11:00:00,21.170046,72.795405,SO2,18,31,24
India,Gujarat,Vapi,"Phase-1 GIDC, Vapi - GPCB",11-03-2024 11:00:00,20.362421,72.918013,CO,1,194,12
India,Haryana,Ambala,"Patti Mehar, Ambala - HSPCB",11-03-2024 11:00:00,30.379589,76.778328,PM2.5,47,109,67
India,Haryana,Bahadurgarh,"Arya Nagar, Bahadurgarh - HSPCB",11-03-2024 11:00:00,28.6701,76.9254,PM10,64,217,134
India,Haryana,Bahadurgarh,"Arya Nagar, Bahadurgarh - HSPCB",11-03-2024 11:00:00,28.6701,76.9254,CO,36,60,43
India,Haryana,Bahadurgarh,"Arya Nagar, Bahadurgarh - HSPCB",11-03-2024 11:00:00,28.6701,76.9254,OZONE,37,51,41
India,Haryana,Ballabgarh,"Nathu Colony, Ballabgarh - HSPCB",11-03-2024 11:00:00,28.3419248,77.319699,NH3,1,2,2
India,Haryana,Ballabgarh,"Nathu Colony, Ballabgarh - HSPCB",11-03-2024 11:00:00,28.3419248,77.319699,OZONE,1,25,5
India,Haryana,Bhiwani,"H.B. Colony, Bhiwani - HSPCB",11-03-2024 11:00:00,28.806223,76.141105,SO2,5,14,10
India,Haryana,Bhiwani,"H.B. Colony, Bhiwani - HSPCB",11-03-2024 11:00:00,28.806223,76.141105,OZONE,3,18,7
India,Haryana,Charkhi Dadri,"Mini Secretariat, Charkhi Dadri - HSPCB",11-03-2024 11:00:00,28.593883,76.270653,PM10,51,236,110
India,Haryana,Charkhi Dadri,"Mini Secretariat, Charkhi Dadri - HSPCB",11-03-2024 11:00:00,28.593883,76.270653,NH3,6,7,6
India,Haryana,Charkhi Dadri,"Mini Secretariat, Charkhi Dadri - HSPCB",11-03-2024 11:00:00,28.593883,76.270653,CO,15,30,26
India,Haryana,Charkhi Dadri,"Mini Secretariat, Charkhi Dadri - HSPCB",11-03-2024 11:00:00,28.593883,76.270653,OZONE,14,17,15
India,Haryana,Dharuhera,"Municipal Corporation Office, Dharuhera -  HSPCB",11-03-2024 11:00:00,28.206800,76.799700,NO2,45,110,70
India,Haryana,Faridabad,"New Industrial Town, Faridabad - HSPCB",11-03-2024 11:00:00,28.39072,77.30059,PM10,5,136,17
India,Haryana,Faridabad,"New Industrial Town, Faridabad - HSPCB",11-03-2024 11:00:00,28.39072,77.30059,NO2,14,43,20
India,Haryana,Faridabad,"Sector 11, Faridabad - HSPCB",11-03-2024 11:00:00,28.376058,77.315741,PM2.5,224,361,295
India,Haryana,Faridabad,"Sector 11, Faridabad - HSPCB",11-03-2024 11:00:00,28.376058,77.315741,NO2,30,33,31
India,Haryana,Faridabad,"Sector 30, Faridabad - HSPCB",11-03-2024 11:00:00,28.4417,77.3217,PM2.5,NA,NA,NA
India,Haryana,Fatehabad,"Huda Sector, Fatehabad - HSPCB",11-03-2024 11:00:00,29.503664,75.467934,PM2.5,32,192,76
India,Haryana,Gurugram,"Teri Gram, Gurugram - HSPCB",11-03-2024 11:00:00,28.4275,77.1465,PM2.5,284,370,317
India,Haryana,Gurugram,"Vikas Sadan, Gurugram - HSPCB",11-03-2024 11:00:00,28.4501238,77.0263051,NO2,5,25,14
India,Haryana,Jind,"Police Lines, Jind - HSPCB",11-03-2024 11:00:00,29.307814,76.337619,NO2,7,15,12
India,Haryana,Jind,"Police Lines, Jind - HSPCB",11-03-2024 11:00:00,29.307814,76.337619,NH3,2,5,4
India,Haryana,Kaithal,"Rishi Nagar, Kaithal - HSPCB",11-03-2024 11:00:00,29.8006,76.4155,PM2.5,42,213,84
India,Haryana,Kurukshetra,"Sector-7, Kurukshetra - HSPCB",11-03-2024 11:00:00,29.966942,76.875879,PM10,57,126,91
India,Haryana,Kurukshetra,"Sector-7, Kurukshetra - HSPCB",11-03-2024 11:00:00,29.966942,76.875879,NH3,4,9,5
India,Haryana,Mandikhera,"General Hospital, Mandikhera - HSPCB",11-03-2024 11:00:00,27.9002,76.9938,NH3,18,22,20
India,Haryana,Manesar,"Sector-2 IMT, Manesar - HSPCB",11-03-2024 11:00:00,28.360699,76.936090,NH3,NA,NA,NA
India,Haryana,Palwal,"Shyam Nagar, Palwal - HSPCB",11-03-2024 11:00:00,28.1485564,77.3320667,CO,24,44,35
India,Haryana,Panipat,"Sector-18, Panipat - HSPCB",11-03-2024 11:00:00,29.497973,76.993331,NO2,31,32,31
India,Haryana,Panipat,"Sector-18, Panipat - HSPCB",11-03-2024 11:00:00,29.497973,76.993331,OZONE,30,30,30
India,Haryana,Sirsa,"F-Block, Sirsa - HSPCB",11-03-2024 11:00:00,29.536400,75.015800,SO2,35,50,45
India,Haryana,Sirsa,"F-Block, Sirsa - HSPCB",11-03-2024 11:00:00,29.536400,75.015800,OZONE,42,112,59
India,Haryana,Yamuna Nagar,"Gobind Pura, Yamuna Nagar - HSPCB",11-03-2024 11:00:00,30.1480566,77.2893471,NO2,11,28,18
India,Himachal Pradesh,Baddi,"HIMUDA Complex Phase-1, Baddi - HPPCB",11-03-2024 11:00:00,30.943887,76.801991,NH3,4,8,6
India,Himachal Pradesh,Baddi,"HIMUDA Complex Phase-1, Baddi - HPPCB",11-03-2024 11:00:00,30.943887,76.801991,CO,24,48,39
India,Jharkhand,Dhanbad,"Kalakusuma, Dhanbad - DMC",11-03-2024 11:00:00,23.811548,86.481238,CO,129,134,130
India,Jharkhand,Dhanbad,"Kalakusuma, Dhanbad - DMC",11-03-2024 11:00:00,23.811548,86.481238,OZONE,21,41,37
India,Jharkhand,Pathardih,"Mohalbani Ghat, Pathardih - DMC",11-03-2024 11:00:00,23.669880,86.411725,SO2,NA,NA,NA
India,Karnataka,Belgaum,"Ramteerth Nagar, Belgaum - KSPCB",11-03-2024 11:00:00,15.888653,74.541751,PM10,26,99,53
India,Karnataka,Belgaum,"Ramteerth Nagar, Belgaum - KSPCB",11-03-2024 11:00:00,15.888653,74.541751,CO,34,47,44
India,Karnataka,Bengaluru,"BTM Layout, Bengaluru - CPCB",11-03-2024 11:00:00,12.9135218,77.5950804,PM2.5,37,81,51
India,Karnataka,Bengaluru,"BTM Layout, Bengaluru - CPCB",11-03-2024 11:00:00,12.9135218,77.5950804,NH3,4,4,4
India,Karnataka,Bengaluru,"BTM Layout, Bengaluru - CPCB",11-03-2024 11:00:00,12.9135218,77.5950804,CO,44,44,44
India,Karnataka,Bengaluru,"BTM Layout, Bengaluru - CPCB",11-03-2024 11:00:00,12.9135218,77.5950804,OZONE,18,75,44
India,Karnataka,Bengaluru,"Bapuji Nagar, Bengaluru - KSPCB",11-03-2024 11:00:00,12.951913,77.539784,PM10,60,117,85
India,Karnataka,Bengaluru,"Bapuji Nagar, Bengaluru - KSPCB",11-03-2024 11:00:00,12.951913,77.539784,NH3,1,1,1
India,Karnataka,Bengaluru,"Bapuji Nagar, Bengaluru - KSPCB",11-03-2024 11:00:00,12.951913,77.539784,CO,30,49,44
India,Karnataka,Bengaluru,"Hombegowda Nagar, Bengaluru - KSPCB",11-03-2024 11:00:00,12.938539,77.590100,NO2,24,36,33
India,Karnataka,Bengaluru,"Jayanagar 5th Block, Bengaluru - KSPCB",11-03-2024 11:00:00,12.920984,77.584908,NO2,9,17,11
India,Karnataka,Bengaluru,"Jayanagar 5th Block, Bengaluru - KSPCB",11-03-2024 11:00:00,12.920984,77.584908,CO,7,42,26
India,Karnataka,Bengaluru,"Silk Board, Bengaluru - KSPCB",11-03-2024 11:00:00,12.917348,77.622813,NO2,12,15,14
India,Karnataka,Bidar,"Naubad, Bidar - KSPCB",11-03-2024 11:00:00,17.930306,77.482194,SO2,13,18,16
India,Karnataka,Bidar,"Naubad, Bidar - KSPCB",11-03-2024 11:00:00,17.930306,77.482194,CO,56,84,71
India,Karnataka,Chamarajanagar,"Urban, Chamarajanagar - KSPCB",11-03-2024 11:00:00,11.55358,76.55521,NH3,1,2,1
India,Karnataka,Chamarajanagar,"Urban, Chamarajanagar - KSPCB",11-03-2024 11:00:00,11.55358,76.55521,SO2,2,8,5
India,Karnataka,Chikkamagaluru,"Kalyana Nagara, Chikkamagaluru - KSPCB",11-03-2024 11:00:00,13.328028,75.797056,CO,11,39,11
