country,state,city,station,last_update,latitude,longitude,pollutant_id,pollutant_min,pollutant_max,pollutant_avg
India,Andhra_Pradesh,Amaravati,"Secretariat, Amaravati - APPCB",30-04-2024 09:00:00,16.5150833,80.5181667,SO2,11,14,12
India,Andhra_Pradesh,Anantapur,"Gulzarpet, Anantapur - APPCB",30-04-2024 09:00:00,14.675886,77.593027,PM2.5,28,71,47
India,Andhra_Pradesh,Anantapur,"Gulzarpet, Anantapur - APPCB",30-04-2024 09:00:00,14.675886,77.593027,NO2,12,13,12
India,Andhra_Pradesh,Anantapur,"Gulzarpet, Anantapur - APPCB",30-04-2024 09:00:00,14.675886,77.593027,SO2,NA,NA,NA
India,Andhra_Pradesh,Kadapa,"Yerramukkapalli, Kadapa - APPCB",30-04-2024 09:00:00,14.465052,78.824187,CO,5,26,15
India,Andhra_Pradesh,Rajamahendravaram,"Anand Kala Kshetram, Rajamahendravaram - APPCB",30-04-2024 09:00:00,16.9872867,81.7363176,OZONE,10,17,14
India,Andhra_Pradesh,Tirupati,"Vaikuntapuram, Tirupati - APPCB",30-04-2024 09:00:00,13.615387,79.409230,SO2,4,5,5
India,Andhra_Pradesh,Vijayawada,"HB Colony, Vijayawada - APPCB",30-04-2024 09:00:00,16.536107,80.594233,PM10,NA,NA,NA
India,Andhra_Pradesh,Vijayawada,"Kanuru, Vijayawada - APPCB",30-04-2024 09:00:00,16.486692,80.699436,NO2,NA,NA,NA
India,Andhra_Pradesh,Vijayawada,"Kanuru, Vijayawada - APPCB",30-04-2024 09:00:00,16.486692,80.699436,NH3,NA,NA,NA
India,Andhra_Pradesh,Vijayawada,"Rajiv Gandhi Park, Vijayawada - APPCB",30-04-2024 09:00:00,16.509717,80.612222,PM2.5,35,91,59
India,Andhra_Pradesh,Visakhapatnam,"GVM Corporation, Visakhapatnam - APPCB",30-04-2024 09:00:00,17.72,83.3,NO2,33,71,53
India,Arunachal_Pradesh,Naharlagun,"Naharlagun, Naharlagun - APSPCB",30-04-2024 09:00:00,27.103358,93.679645,PM2.5,NA,NA,NA
India,Assam,Byrnihat,"Central Academy for SFS, Byrnihat - PCBA",30-04-2024 09:00:00,26.071318,91.87488,PM2.5,40,475,148
India,Assam,Byrnihat,"Central Academy for SFS, Byrnihat - PCBA",30-04-2024 09:00:00,26.071318,91.87488,NO2,43,111,66
India,Assam,Guwahati,"LGBI Airport, Guwahati - PCBA",30-04-2024 09:00:00,26.10887,91.589544,PM2.5,7,98,49
India,Assam,Guwahati,"Pan Bazaar, Guwahati - PCBA",30-04-2024 09:00:00,26.187500,91.744194,CO,21,30,23
India,Assam,Guwahati,"Railway Colony, Guwahati - PCBA",30-04-2024 09:00:00,26.181742,91.78063,PM2.5,34,183,63
India,Assam,Nagaon,"Christianpatty, Nagaon - PCBA",30-04-2024 09:00:00,26.349082,92.68449,CO,44,66,46
India,Assam,Nalbari,"Bata Chowk, Nalbari - PCBA",30-04-2024 09:00:00,26.446912,91.439057,PM2.5,25,160,48
India,Assam,Silchar,"Tarapur, Silchar - PCBA",30-04-2024 09:00:00,24.82827,92.79525,CO,20,30,30
India,Assam,Sivasagar,"Girls College, Sivasagar - PCBA",30-04-2024 09:00:00,26.987634,94.636574,SO2,6,9,8
India,Bihar,Araria,"Kharahiya Basti, Araria - BSPCB",30-04-2024 09:00:00,26.146529,87.454184,PM2.5,51,315,101
India,Bihar,Araria,"Kharahiya Basti, Araria - BSPCB",30-04-2024 09:00:00,26.146529,87.454184,SO2,13,17,15
India,Bihar,Arrah,"New DM Office, Arrah - BSPCB",30-04-2024 09:00:00,25.5626095,84.663264,OZONE,9,34,17
India,Bihar,Aurangabad,"Gurdeo Nagar, Aurangabad - BSPCB",30-04-2024 09:00:00,24.75746,84.366208,PM2.5,NA,NA,NA
India,Bihar,Bettiah,"Kamalnath Nagar, Bettiah - BSPCB",30-04-2024 09:00:00,26.80365,84.51954,NO2,28,30,28
India,Bihar,Bettiah,"Kamalnath Nagar, Bettiah - BSPCB",30-04-2024 09:00:00,26.80365,84.51954,NH3,3,8,5
India,Bihar,Bettiah,"Kamalnath Nagar, Bettiah - BSPCB",30-04-2024 09:00:00,26.80365,84.51954,CO,62,66,63
India,Bihar,Bhagalpur,"DM Office_Kachari Chowk, Bhagalpur - BSPCB",30-04-2024 09:00:00,25.251013,86.989001,PM10,123,350,195
India,Bihar,Bihar Sharif,"D M Colony, Bihar Sharif - BSPCB",30-04-2024 09:00:00,25.204762,85.514960,PM2.5,43,82,61
India,Bihar,Bihar Sharif,"D M Colony, Bihar Sharif - BSPCB",30-04-2024 09:00:00,25.204762,85.514960,CO,37,71,55
India,Bihar,Buxar,"Charitra Van, Buxar - BSPCB (Formerly known as Central Jail)",30-04-2024 09:00:00,25.567520,83.966379,CO,40,106,81
India,Bihar,Chhapra,"Darshan Nagar, Chhapra - BSPCB",30-04-2024 09:00:00,25.7808257,84.7446768,PM2.5,82,207,133
India,Bihar,Chhapra,"Darshan Nagar, Chhapra - BSPCB",30-04-2024 09:00:00,25.7808257,84.7446768,PM10,104,167,134
India,Bihar,Gaya,"Kareemganj, Gaya - BSPCB",30-04-2024 09:00:00,24.792403,84.992416,OZONE,3,17,11
India,Bihar,Gaya,"SFTI Kusdihra, Gaya - BSPCB",30-04-2024 09:00:00,24.762518,84.982348,PM10,58,190,95
India,Bihar,Hajipur,"Industrial Area, Hajipur - BSPCB",30-04-2024 09:00:00,25.697189,85.245900,SO2,6,9,7
India,Bihar,Katihar,"Mirchaibari, Katihar - BSPCB",30-04-2024 09:00:00,25.560083,87.553265,NO2,19,33,23
India,Bihar,Kishanganj,"SDM Office_Khagra, Kishanganj - BSPCB",30-04-2024 09:00:00,26.0881305,87.93840336,PM10,114,500,222
India,Bihar,Kishanganj,"SDM Office_Khagra, Kishanganj - BSPCB",30-04-2024 09:00:00,26.0881305,87.93840336,SO2,2,4,3
India,Bihar,Motihari,"Gandak Colony, Motihari - BSPCB",30-04-2024 09:00:00,26.63086,84.90051,OZONE,32,245,72
India,Bihar,Munger,"Town Hall, Munger - BSPCB",30-04-2024 09:00:00,25.376776,86.471523,NO2,4,6,5
India,Bihar,Munger,"Town Hall, Munger - BSPCB",30-04-2024 09:00:00,25.376776,86.471523,OZONE,26,163,29
India,Bihar,Muzaffarpur,"Buddha Colony, Muzaffarpur - BSPCB",30-04-2024 09:00:00,26.11442,85.39813,PM2.5,216,344,297
India,Bihar,Muzaffarpur,"Buddha Colony, Muzaffarpur - BSPCB",30-04-2024 09:00:00,26.11442,85.39813,NH3,14,19,17
India,Bihar,Muzaffarpur,"MIT-Daudpur Kothi, Muzaffarpur - BSPCB",30-04-2024 09:00:00,26.1403345,85.3650192,CO,9,112,61
India,Bihar,Muzaffarpur,"Muzaffarpur Collectorate, Muzaffarpur - BSPCB",30-04-2024 09:00:00,26.1209,85.3647,NO2,11,259,45
India,Bihar,Muzaffarpur,"Muzaffarpur Collectorate, Muzaffarpur - BSPCB",30-04-2024 09:00:00,26.1209,85.3647,SO2,7,20,10
India,Bihar,Patna,"DRM Office Danapur, Patna - BSPCB",30-04-2024 09:00:00,25.586562,85.043586,CO,13,95,59
India,Bihar,Patna,"Govt. High School Shikarpur, Patna - BSPCB",30-04-2024 09:00:00,25.592539,85.227158,NH3,5,5,5
India,Bihar,Patna,"IGSC Planetarium Complex, Patna - BSPCB",30-04-2024 09:00:00,25.610369,85.132568,CO,12,13,12
India,Bihar,Patna,"Muradpur, Patna - BSPCB",30-04-2024 09:00:00,25.619651,85.147382,SO2,7,16,12
India,Bihar,Patna,"Rajbansi Nagar, Patna - BSPCB",30-04-2024 09:00:00,25.599486,85.113666,NO2,27,75,42
India,Bihar,Patna,"Rajbansi Nagar, Patna - BSPCB",30-04-2024 09:00:00,25.599486,85.113666,CO,26,91,49
India,Bihar,Patna,"Samanpura, Patna - BSPCB",30-04-2024 09:00:00,25.596727,85.085624,PM10,212,427,322
India,Bihar,Patna,"Samanpura, Patna - BSPCB",30-04-2024 09:00:00,25.596727,85.085624,NO2,8,68,38
India,Bihar,Patna,"Samanpura, Patna - BSPCB",30-04-2024 09:00:00,25.596727,85.085624,CO,34,122,97
India,Bihar,Patna,"Samanpura, Patna - BSPCB",30-04-2024 09:00:00,25.596727,85.085624,OZONE,1,133,33
India,Bihar,Purnia,"Mariam Nagar, Purnia - BSPCB",30-04-2024 09:00:00,25.366336,87.117468,PM10,9,97,29
India,Bihar,Rajgir,"Dangi Tola, Rajgir - BSPCB",30-04-2024 09:00:00,25.03280,85.41948,PM2.5,40,100,65
India,Bihar,Rajgir,"Dangi Tola, Rajgir - BSPCB",30-04-2024 09:00:00,25.03280,85.41948,CO,27,60,37
India,Bihar,Saharsa,"Police Line, Saharsa - BSPCB",30-04-2024 09:00:00,25.892357,86.590325,PM10,NA,NA,NA
India,Bihar,Saharsa,"Police Line, Saharsa - BSPCB",30-04-2024 09:00:00,25.892357,86.590325,CO,54,56,54
India,Bihar,Sasaram,"Dada Peer, Sasaram - BSPCB",30-04-2024 09:00:00,24.952822,84.002396,NO2,2,90,43
India,Bihar,Siwan,"Chitragupta Nagar, Siwan - BSPCB",30-04-2024 09:00:00,26.2271665,84.3570427,PM2.5,23,177,67
India,Chandigarh,Chandigarh,"Sector-25, Chandigarh - CPCC",30-04-2024 09:00:00,30.751462,76.762879,PM10,54,417,134
India,Chandigarh,Chandigarh,"Sector-25, Chandigarh - CPCC",30-04-2024 09:00:00,30.751462,76.762879,NO2,5,31,11
India,Chandigarh,Chandigarh,"Sector-25, Chandigarh - CPCC",30-04-2024 09:00:00,30.751462,76.762879,OZONE,2,42,11
India,Chandigarh,Chandigarh,"Sector-53, Chandigarh - CPCC",30-04-2024 09:00:00,30.719859,76.738637,NO2,12,64,22
India,Chhattisgarh,Bhilai,"32Bungalows, Bhilai - CECB",30-04-2024 09:00:00,21.194815,81.314770,NO2,18,29,24
India,Chhattisgarh,Bhilai,"Civic Center, Bhilai - Bhilai Steel Plant",30-04-2024 09:00:00,21.185571,81.343175,NO2,11,20,14
India,Chhattisgarh,Bhilai,"Hathkhoj, Bhilai - CECB",30-04-2024 09:00:00,21.224231,81.408350,PM10,55,147,101
India,Chhattisgarh,Bhilai,"Hathkhoj, Bhilai - CECB",30-04-2024 09:00:00,21.224231,81.408350,CO,12,52,30
India,Chhattisgarh,Chhal,"Nawapara SECL Colony, Chhal - CECB",30-04-2024 09:00:00,22.118125,83.140608,CO,25,76,60
India,Chhattisgarh,Chhal,"Nawapara SECL Colony, Chhal - CECB",30-04-2024 09:00:00,22.118125,83.140608,OZONE,8,122,34
India,Chhattisgarh,Korba,"Rampur, Korba - CECB",30-04-2024 09:00:00,22.368195,82.746431,NO2,19,50,40
India,Chhattisgarh,Korba,"Urja Nagar, Korba - CECB",30-04-2024 09:00:00,22.348441,82.549611,PM10,47,249,93
India,Chhattisgarh,Korba,"Urja Nagar, Korba - CECB",30-04-2024 09:00:00,22.348441,82.549611,NO2,72,93,80
India,Chhattisgarh,Korba,"Urja Nagar, Korba - CECB",30-04-2024 09:00:00,22.348441,82.549611,NH3,2,14,6
India,Chhattisgarh,Korba,"Urja Nagar, Korba - CECB",30-04-2024 09:00:00,22.348441,82.549611,CO,32,115,73
India,Chhattisgarh,Kunjemura,"OP Jindal School, Kunjemura - CECB",30-04-2024 09:00:00,22.126650,83.483212,PM10,80,424,215
India,Chhattisgarh,Milupara,"Govt. Higher Secondary School, Milupara - CECB",30-04-2024 09:00:00,22.1910172,83.5197009,PM2.5,NA,NA,NA
India,Chhattisgarh,Milupara,"Govt. Higher Secondary School, Milupara - CECB",30-04-2024 09:00:00,22.1910172,83.5197009,NO2,NA,NA,NA
India,Chhattisgarh,Milupara,"Govt. Higher Secondary School, Milupara - CECB",30-04-2024 09:00:00,22.1910172,83.5197009,SO2,NA,NA,NA
India,Chhattisgarh,Raipur,"AIIMS, Raipur - CECB",30-04-2024 09:00:00,21.258815,81.578979,PM10,42,84,60
India,Chhattisgarh,Raipur,"AIIMS, Raipur - CECB",30-04-2024 09:00:00,21.258815,81.578979,SO2,5,24,10
India,Chhattisgarh,Raipur,"Bhatagaon New ISBT, Raipur - CECB",30-04-2024 09:00:00,21.219665,81.630094,NH3,2,2,2
India,Chhattisgarh,Raipur,"Krishak Nagar, Raipur - CECB",30-04-2024 09:00:00,21.237755,81.705301,NO2,16,17,16
India,Chhattisgarh,Raipur,"Siltara Phase-II, Raipur - CECB",30-04-2024 09:00:00,21.371751,81.664929,NO2,35,73,47
India,Chhattisgarh,Raipur,"Siltara Phase-II, Raipur - CECB",30-04-2024 09:00:00,21.371751,81.664929,NH3,3,3,3
India,Delhi,Delhi,"Anand Vihar, Delhi - DPCC",30-04-2024 09:00:00,28.647622,77.3158090,SO2,18,80,36
India,Delhi,Delhi,"Ashok Vihar, Delhi - DPCC",30-04-2024 09:00:00,28.695381,77.181665,NO2,10,58,28
India,Delhi,Delhi,"Aya Nagar, Delhi - IMD",30-04-2024 09:00:00,28.4706914,77.1099364,PM10,126,393,190
India,Delhi,Delhi,"Aya Nagar, Delhi - IMD",30-04-2024 09:00:00,28.4706914,77.1099364,OZONE,17,102,23
India,Delhi,Delhi,"Chandni Chowk, Delhi - IITM",30-04-2024 09:00:00,28.656756,77.227234,NO2,192,414,301
India,Delhi,Delhi,"Chandni Chowk, Delhi - IITM",30-04-2024 09:00:00,28.656756,77.227234,CO,31,88,42
India,Delhi,Delhi,"Chandni Chowk, Delhi - IITM",30-04-2024 09:00:00,28.656756,77.227234,OZONE,5,10,7
India,Delhi,Delhi,"DTU, Delhi - CPCB",30-04-2024 09:00:00,28.7500499,77.1112615,PM10,121,358,177
India,Delhi,Delhi,"DTU, Delhi - CPCB",30-04-2024 09:00:00,28.7500499,77.1112615,CO,17,42,30
India,Delhi,Delhi,"DTU, Delhi - CPCB",30-04-2024 09:00:00,28.7500499,77.1112615,OZONE,29,261,48
India,Delhi,Delhi,"Dr. Karni Singh Shooting Range, Delhi - DPCC",30-04-2024 09:00:00,28.498571,77.264840,PM10,118,417,187
India,Delhi,Delhi,"Dr. Karni Singh Shooting Range, Delhi - DPCC",30-04-2024 09:00:00,28.498571,77.264840,OZONE,29,171,52
India,Delhi,Delhi,"Dwarka-Sector 8, Delhi - DPCC ",30-04-2024 09:00:00,28.5710274,77.0719006,PM10,128,422,211
India,Delhi,Delhi,"IHBAS, Dilshad Garden, Delhi - CPCB",30-04-2024 09:00:00,28.6811736,77.3025234,CO,14,54,42
India,Delhi,Delhi,"ITO, Delhi - CPCB",30-04-2024 09:00:00,28.628624,77.241060,PM10,88,219,132
India,Delhi,Delhi,"Jahangirpuri, Delhi - DPCC",30-04-2024 09:00:00,28.732820,77.170633,NO2,35,96,67
India,Delhi,Delhi,"Lodhi Road, Delhi - IITM",30-04-2024 09:00:00,28.588333,77.221667,NO2,NA,NA,NA
India,Delhi,Delhi,"Lodhi Road, Delhi - IITM",30-04-2024 09:00:00,28.588333,77.221667,NH3,NA,NA,NA
India,Delhi,Delhi,"Lodhi Road, Delhi - IMD",30-04-2024 09:00:00,28.5918245,77.2273074,NO2,1,22,7
India,Delhi,Delhi,"Lodhi Road, Delhi - IMD",30-04-2024 09:00:00,28.5918245,77.2273074,OZONE,10,85,21
India,Delhi,Delhi,"Mandir Marg, Delhi - DPCC",30-04-2024 09:00:00,28.636429,77.201067,PM2.5,28,315,90
India,Delhi,Delhi,"Mandir Marg, Delhi - DPCC",30-04-2024 09:00:00,28.636429,77.201067,PM10,90,219,132
India,Delhi,Delhi,"Mandir Marg, Delhi - DPCC",30-04-2024 09:00:00,28.636429,77.201067,NH3,4,5,4
India,Delhi,Delhi,"Mundka, Delhi - DPCC",30-04-2024 09:00:00,28.684678,77.076574,NH3,4,6,5
India,Delhi,Delhi,"Mundka, Delhi - DPCC",30-04-2024 09:00:00,28.684678,77.076574,OZONE,28,250,43
India,Delhi,Delhi,"NSIT Dwarka, Delhi - CPCB",30-04-2024 09:00:00,28.60909,77.0325413,PM10,167,437,243
India,Delhi,Delhi,"NSIT Dwarka, Delhi - CPCB",30-04-2024 09:00:00,28.60909,77.0325413,SO2,3,24,14
India,Delhi,Delhi,"Narela, Delhi - DPCC",30-04-2024 09:00:00,28.822836,77.101981,PM2.5,49,309,100
India,Delhi,Delhi,"Narela, Delhi - DPCC",30-04-2024 09:00:00,28.822836,77.101981,OZONE,19,155,35
India,Delhi,Delhi,"New Moti Bagh, Delhi - MHUA",30-04-2024 09:00:00,28.57834,77.18400,NO2,7,18,11
India,Delhi,Delhi,"Okhla Phase-2, Delhi - DPCC",30-04-2024 09:00:00,28.530785,77.271255,PM10,116,421,188
India,Delhi,Delhi,"Patparganj, Delhi - DPCC",30-04-2024 09:00:00,28.623763,77.287209,PM2.5,45,243,81
India,Delhi,Delhi,"Patparganj, Delhi - DPCC",30-04-2024 09:00:00,28.623763,77.287209,NO2,19,55,31
India,Delhi,Delhi,"Pusa, Delhi - DPCC",30-04-2024 09:00:00,28.639652,77.146275,PM10,133,408,197
India,Delhi,Delhi,"Pusa, Delhi - DPCC",30-04-2024 09:00:00,28.639652,77.146275,SO2,7,65,28
India,Delhi,Delhi,"Rohini, Delhi - DPCC",30-04-2024 09:00:00,28.732528,77.119920,NH3,7,14,10
India,Delhi,Delhi,"Sirifort, Delhi - CPCB",30-04-2024 09:00:00,28.5504249,77.2159377,PM10,115,354,170
India,Delhi,Delhi,"Sonia Vihar, Delhi - DPCC",30-04-2024 09:00:00,28.710508,77.249485,PM10,121,429,187
India,Delhi,Delhi,"Sri Aurobindo Marg, Delhi - DPCC",30-04-2024 09:00:00,28.531346,77.190156,PM2.5,50,321,117
India,Delhi,Delhi,"Sri Aurobindo Marg, Delhi - DPCC",30-04-2024 09:00:00,28.531346,77.190156,PM10,123,405,189
India,Delhi,Delhi,"Sri Aurobindo Marg, Delhi - DPCC",30-04-2024 09:00:00,28.531346,77.190156,SO2,14,73,30
India,Delhi,Delhi,"Sri Aurobindo Marg, Delhi - DPCC",30-04-2024 09:00:00,28.531346,77.190156,OZONE,12,123,24
India,Delhi,Delhi,"Vivek Vihar, Delhi - DPCC",30-04-2024 09:00:00,28.672342,77.315260,NH3,16,16,16
India,Delhi,Delhi,"Wazirpur, Delhi - DPCC",30-04-2024 09:00:00,28.699793,77.165453,NO2,8,19,12
India,Gujarat,Ahmedabad,"Chandkheda, Ahmedabad - IITM",30-04-2024 09:00:00,23.107969,72.574648,NO2,29,33,31
India,Gujarat,Ahmedabad,"Gyaspur, Ahmedabad - IITM",30-04-2024 09:00:00,22.977134,72.553024,CO,16,46,23
India,Gujarat,Ahmedabad,"Raikhad, Ahmedabad - IITM",30-04-2024 09:00:00,23.020509,72.579261,NH3,5,5,5
India,Gujarat,Ahmedabad,"Rakhial, Ahmedabad - IITM",30-04-2024 09:00:00,23.016834,72.625775,PM10,86,148,118
India,Gujarat,Ahmedabad,"SAC ISRO Satellite, Ahmedabad - IITM",30-04-2024 09:00:00,23.023389,72.515201,PM2.5,83,111,92
India,Gujarat,Ahmedabad,"SAC ISRO Satellite, Ahmedabad - IITM",30-04-2024 09:00:00,23.023389,72.515201,OZONE,8,41,17
India,Gujarat,Ahmedabad,"SVPI Airport Hansol, Ahmedabad - IITM",30-04-2024 09:00:00,23.076793,72.627874,CO,NA,NA,NA
India,Gujarat,Ahmedabad,"Sardar Vallabhbhai Patel Stadium, Ahmedabad - IITM",30-04-2024 09:00:00,23.043070,72.562968,PM2.5,64,88,71
India,Gujarat,Ahmedabad,"Sardar Vallabhbhai Patel Stadium, Ahmedabad - IITM",30-04-2024 09:00:00,23.043070,72.562968,PM10,67,104,78
India,Gujarat,Ahmedabad,"Sardar Vallabhbhai Patel Stadium, Ahmedabad - IITM",30-04-2024 09:00:00,23.043070,72.562968,SO2,3,13,6
India,Gujarat,Ahmedabad,"Sardar Vallabhbhai Patel Stadium, Ahmedabad - IITM",30-04-2024 09:00:00,23.043070,72.562968,CO,31,111,33
India,Gujarat,Nandesari,"GIDC, Nandesari - Nandesari Ind. Association",30-04-2024 09:00:00,22.410802,73.097923,NO2,4,114,31
India,Gujarat,Vatva,"Phase-4 GIDC, Vatva - GPCB",30-04-2024 09:00:00,22.969611,72.643500,PM2.5,19,45,31
India,Gujarat,Vatva,"Phase-4 GIDC, Vatva - GPCB",30-04-2024 09:00:00,22.969611,72.643500,PM10,54,89,70
India,Gujarat,Vatva,"Phase-4 GIDC, Vatva - GPCB",30-04-2024 09:00:00,22.969611,72.643500,NH3,7,11,9
India,Gujarat,Vatva,"Phase-4 GIDC, Vatva - GPCB",30-04-2024 09:00:00,22.969611,72.643500,SO2,1,40,12
India,Gujarat,Vatva,"Phase-4 GIDC, Vatva - GPCB",30-04-2024 09:00:00,22.969611,72.643500,CO,34,36,36
India,Haryana,Ambala,"Patti Mehar, Ambala - HSPCB",30-04-2024 09:00:00,30.379589,76.778328,SO2,24,29,26
India,Haryana,Ambala,"Patti Mehar, Ambala - HSPCB",30-04-2024 09:00:00,30.379589,76.778328,CO,30,60,50
India,Haryana,Bahadurgarh,"Arya Nagar, Bahadurgarh - HSPCB",30-04-2024 09:00:00,28.6701,76.9254,NH3,8,10,9
India,Haryana,Bahadurgarh,"Arya Nagar, Bahadurgarh - HSPCB",30-04-2024 09:00:00,28.6701,76.9254,SO2,23,47,32
India,Haryana,Bahadurgarh,"Arya Nagar, Bahadurgarh - HSPCB",30-04-2024 09:00:00,28.6701,76.9254,CO,88,103,99
India,Haryana,Ballabgarh,"Nathu Colony, Ballabgarh - HSPCB",30-04-2024 09:00:00,28.3419248,77.319699,NO2,11,13,13
India,Haryana,Ballabgarh,"Nathu Colony, Ballabgarh - HSPCB",30-04-2024 09:00:00,28.3419248,77.319699,NH3,1,2,2
India,Haryana,Bhiwani,"H.B. Colony, Bhiwani - HSPCB",30-04-2024 09:00:00,28.806223,76.141105,PM10,65,241,101
India,Haryana,Charkhi Dadri,"Mini Secretariat, Charkhi Dadri - HSPCB",30-04-2024 09:00:00,28.593883,76.270653,NO2,15,26,18
India,Haryana,Dharuhera,"Municipal Corporation Office, Dharuhera -  HSPCB",30-04-2024 09:00:00,28.206800,76.799700,NH3,NA,NA,NA
India,Haryana,Dharuhera,"Municipal Corporation Office, Dharuhera -  HSPCB",30-04-2024 09:00:00,28.206800,76.799700,SO2,NA,NA,NA
India,Haryana,Faridabad,"New Industrial Town, Faridabad - HSPCB",30-04-2024 09:00:00,28.39072,77.30059,PM2.5,75,425,253
India,Haryana,Faridabad,"New Industrial Town, Faridabad - HSPCB",30-04-2024 09:00:00,28.39072,77.30059,PM10,75,419,182
India,Haryana,Faridabad,"New Industrial Town, Faridabad - HSPCB",30-04-2024 09:00:00,28.39072,77.30059,NH3,3,4,4
India,Haryana,Faridabad,"Sector 11, Faridabad - HSPCB",30-04-2024 09:00:00,28.376058,77.315741,SO2,1,3,2
India,Haryana,Faridabad,"Sector 30, Faridabad - HSPCB",30-04-2024 09:00:00,28.4417,77.3217,PM2.5,NA,NA,NA
India,Haryana,Faridabad,"Sector 30, Faridabad - HSPCB",30-04-2024 09:00:00,28.4417,77.3217,NO2,NA,NA,NA
India,Haryana,Faridabad,"Sector 30, Faridabad - HSPCB",30-04-2024 09:00:00,28.4417,77.3217,NH3,NA,NA,NA
India,Haryana,Faridabad,"Sector 30, Faridabad - HSPCB",30-04-2024 09:00:00,28.4417,77.3217,CO,NA,NA,NA
India,Haryana,Gurugram,"Sector-51, Gurugram - HSPCB",30-04-2024 09:00:00,28.4227,77.0667,PM2.5,242,409,332
India,Haryana,Gurugram,"Sector-51, Gurugram - HSPCB",30-04-2024 09:00:00,28.4227,77.0667,PM10,131,337,202
India,Haryana,Hisar,"Urban Estate-II, Hisar - HSPCB",30-04-2024 09:00:00,29.140560,75.744941,PM10,55,131,108
India,Haryana,Kaithal,"Rishi Nagar, Kaithal - HSPCB",30-04-2024 09:00:00,29.8006,76.4155,SO2,30,73,44
India,Haryana,Kurukshetra,"Sector-7, Kurukshetra - HSPCB",30-04-2024 09:00:00,29.966942,76.875879,NO2,10,10,10
India,Haryana,Kurukshetra,"Sector-7, Kurukshetra - HSPCB",30-04-2024 09:00:00,29.966942,76.875879,OZONE,20,49,25
India,Haryana,Palwal,"Shyam Nagar, Palwal - HSPCB",30-04-2024 09:00:00,28.1485564,77.3320667,NO2,23,25,24
India,Haryana,Palwal,"Shyam Nagar, Palwal - HSPCB",30-04-2024 09:00:00,28.1485564,77.3320667,CO,14,36,26
India,Haryana,Panchkula,"Sector-6, Panchkula - HSPCB ",30-04-2024 09:00:00,30.7057778,76.8531805555555,SO2,2,52,24
India,Haryana,Panipat,"Sector-18, Panipat - HSPCB",30-04-2024 09:00:00,29.497973,76.993331,PM10,86,88,87
India,Haryana,Panipat,"Sector-18, Panipat - HSPCB",30-04-2024 09:00:00,29.497973,76.993331,CO,24,26,25
India,Haryana,Sonipat,"Murthal, Sonipat - HSPCB",30-04-2024 09:00:00,29.027200,77.062100,PM2.5,25,26,26
India,Haryana,Sonipat,"Murthal, Sonipat - HSPCB",30-04-2024 09:00:00,29.027200,77.062100,CO,4,26,14
India,Haryana,Yamuna Nagar,"Gobind Pura, Yamuna Nagar - HSPCB",30-04-2024 09:00:00,30.1480566,77.2893471,PM2.5,53,88,68
India,Haryana,Yamuna Nagar,"Gobind Pura, Yamuna Nagar - HSPCB",30-04-2024 09:00:00,30.1480566,77.2893471,OZONE,18,35,19
India,Himachal Pradesh,Baddi,"HIMUDA Complex Phase-1, Baddi - HPPCB",30-04-2024 09:00:00,30.943887,76.801991,NO2,6,38,17
India,Himachal Pradesh,Baddi,"HIMUDA Complex Phase-1, Baddi - HPPCB",30-04-2024 09:00:00,30.943887,76.801991,OZONE,26,100,57
India,Jharkhand,Dhanbad,"Sardar Patel Nagar, Dhanbad - JSPCB",30-04-2024 09:00:00,23.80569,86.44268,NO2,NA,NA,NA
India,Jharkhand,Dhanbad,"Sardar Patel Nagar, Dhanbad - JSPCB",30-04-2024 09:00:00,23.80569,86.44268,OZONE,NA,NA,NA
India,Jharkhand,Pathardih,"Mohalbani Ghat, Pathardih - DMC",30-04-2024 09:00:00,23.669880,86.411725,PM10,NA,NA,NA
India,Karnataka,Belgaum,"Ramteerth Nagar, Belgaum - KSPCB",30-04-2024 09:00:00,15.888653,74.541751,PM2.5,24,40,32
India,Karnataka,Belgaum,"Ramteerth Nagar, Belgaum - KSPCB",30-04-2024 09:00:00,15.888653,74.541751,PM10,46,89,67
India,Karnataka,Bengaluru,"BTM Layout, Bengaluru - CPCB",30-04-2024 09:00:00,12.9135218,77.5950804,NO2,26,48,36
India,Karnataka,Bengaluru,"Bapuji Nagar, Bengaluru - KSPCB",30-04-2024 09:00:00,12.951913,77.539784,PM2.5,47,91,68
India,Karnataka,Bengaluru,"Bapuji Nagar, Bengaluru - KSPCB",30-04-2024 09:00:00,12.951913,77.539784,NO2,10,11,11
India,Karnataka,Bengaluru,"Bapuji Nagar, Bengaluru - KSPCB",30-04-2024 09:00:00,12.951913,77.539784,NH3,1,1,1
India,Karnataka,Bengaluru,"Hebbal, Bengaluru - KSPCB",30-04-2024 09:00:00,13.029152,77.585901,PM2.5,26,72,43
India,Karnataka,Bengaluru,"Hombegowda Nagar, Bengaluru - KSPCB",30-04-2024 09:00:00,12.938539,77.590100,PM2.5,30,85,41
India,Karnataka,Bengaluru,"Hombegowda Nagar, Bengaluru - KSPCB",30-04-2024 09:00:00,12.938539,77.590100,NH3,1,1,1
India,Karnataka,Bengaluru,"Kasturi Nagar, Bengaluru - KSPCB",30-04-2024 09:00:00,13.003872,77.664217,CO,22,28,24
India,Karnataka,Bengaluru,"Kasturi Nagar, Bengaluru - KSPCB",30-04-2024 09:00:00,13.003872,77.664217,OZONE,10,105,30
India,Karnataka,Bengaluru,"Peenya, Bengaluru - CPCB",30-04-2024 09:00:00,13.0270199,77.494094,NO2,11,33,21
India,Karnataka,Bengaluru,"RVCE-Mailasandra, Bengaluru - KSPCB",30-04-2024 09:00:00,12.921418,77.502466,SO2,9,11,10
India,Karnataka,Bengaluru,"Shivapura_Peenya, Bengaluru - KSPCB",30-04-2024 09:00:00,13.0246342,77.5080115,NO2,15,16,15
India,Karnataka,Bengaluru,"Shivapura_Peenya, Bengaluru - KSPCB",30-04-2024 09:00:00,13.0246342,77.5080115,SO2,4,22,9
India,Karnataka,Bidar,"Naubad, Bidar - KSPCB",30-04-2024 09:00:00,17.930306,77.482194,OZONE,25,47,28
India,Karnataka,Chamarajanagar,"Urban, Chamarajanagar - KSPCB",30-04-2024 09:00:00,11.55358,76.55521,NO2,19,29,23
India,Karnataka,Chamarajanagar,"Urban, Chamarajanagar - KSPCB",30-04-2024 09:00:00,11.55358,76.55521,NH3,2,2,2
India,Karnataka,Chikkaballapur,"Chikkaballapur Rural, Chikkaballapur - KSPCB",30-04-2024 09:00:00,13.428828,77.731418,CO,15,23,17
India,Karnataka,Chikkamagaluru,"Kalyana Nagara, Chikkamagaluru - KSPCB",30-04-2024 09:00:00,13.328028,75.797056,NO2,17,35,23
India,Karnataka,Chikkamagaluru,"Kalyana Nagara, Chikkamagaluru - KSPCB",30-04-2024 09:00:00,13.328028,75.797056,NH3,2,4,3
India,Karnataka,Davanagere,"Devaraj Urs Badavane, Davanagere - KSPCB",30-04-2024 09:00:00,14.475800,75.905200,SO2,NA,NA,NA
India,Karnataka,Dharwad,"Kalabhavan, Dharwad - KSPCB",30-04-2024 09:00:00,15.459706,75.008381,NH3,3,3,3
India,Karnataka,Gadag,"Panchal Nagar, Gadag - KSPCB",30-04-2024 09:00:00,15.411456,75.638133,NO2,4,30,14
India,Karnataka,Gadag,"Panchal Nagar, Gadag - KSPCB",30-04-2024 09:00:00,15.411456,75.638133,SO2,11,17,14
India,Karnataka,Hassan,"B.Katihalli, Hassan - KSPCB",30-04-2024 09:00:00,13.008556,76.125258,PM10,68,107,87
India,Karnataka,Haveri,"Ashwini Nagar, Haveri - KSPCB",30-04-2024 09:00:00,14.791800,75.389600,NO2,27,40,32
India,Karnataka,Haveri,"Ashwini Nagar, Haveri - KSPCB",30-04-2024 09:00:00,14.791800,75.389600,SO2,14,14,14
India,Karnataka,Hubballi,"Deshpande Nagar, Hubballi - KSPCB",30-04-2024 09:00:00,15.351773,75.140726,PM2.5,NA,NA,NA
India,Karnataka,Hubballi,"Deshpande Nagar, Hubballi - KSPCB",30-04-2024 09:00:00,15.351773,75.140726,CO,NA,NA,NA
India,Karnataka,Hubballi,"Deshpande Nagar, Hubballi - KSPCB",30-04-2024 09:00:00,15.351773,75.140726,OZONE,NA,NA,NA
India,Karnataka,Hubballi,"Lingaraj Nagar, Hubballi - KSPCB",30-04-2024 09:00:00,15.3714823,75.1160168,CO,2,36,27
India,Karnataka,Hubballi,"Lingaraj Nagar, Hubballi - KSPCB",30-04-2024 09:00:00,15.3714823,75.1160168,OZONE,16,84,20
India,Karnataka,Kalaburagi,"Lal Bahadur Shastri Nagar, Kalaburagi - KSPCB",30-04-2024 09:00:00,17.321993,76.822628,OZONE,2,81,32
India,Karnataka,Kalaburagi,"Mahatma Basaveswar Colony, Kalaburgi - KSPCB",30-04-2024 09:00:00,17.336318,76.847397,PM10,43,98,57
India,Karnataka,Kalaburagi,"Mahatma Basaveswar Colony, Kalaburgi - KSPCB",30-04-2024 09:00:00,17.336318,76.847397,SO2,4,5,4
India,Karnataka,Kalaburagi,"Mahatma Basaveswar Colony, Kalaburgi - KSPCB",30-04-2024 09:00:00,17.336318,76.847397,CO,38,82,42
India,Karnataka,Kolar,"Tamaka Ind. Area, Kolar - KSPCB",30-04-2024 09:00:00,13.1276288,78.1570122,PM10,NA,NA,NA
India,Karnataka,Koppal,"Diwator Nagar, Koppal - KSPCB",30-04-2024 09:00:00,15.347630,76.181767,NO2,25,62,45
India,Karnataka,Madikeri,"Stuart Hill, Madikeri - KSPCB",30-04-2024 09:00:00,12.415911,75.735050,PM2.5,27,51,39
India,Karnataka,Madikeri,"Stuart Hill, Madikeri - KSPCB",30-04-2024 09:00:00,12.415911,75.735050,NO2,1,26,6
India,Karnataka,Mysuru,"Hebbal 1st Stage, Mysuru - KSPCB",30-04-2024 09:00:00,12.21041,76.37376,PM10,34,56,44
India,Karnataka,Raichur,"Haji Colony, Raichur - KSPCB",30-04-2024 09:00:00,16.208139,77.348417,PM10,NA,NA,NA
India,Karnataka,Shivamogga,"Vinoba Nagara, Shivamogga - KSPCB",30-04-2024 09:00:00,13.940000,75.555917,NO2,10,24,14
India,Karnataka,Tumakuru,"Thimmalapura, Tumakuru - KSPCB",30-04-2024 09:00:00,13.377516,77.099072,PM10,95,181,127
India,Karnataka,Vijayapura,"Ibrahimpur, Vijayapura - KSPCB",30-04-2024 09:00:00,16.802639,75.722694,PM2.5,26,31,30
India,Karnataka,Vijayapura,"Ibrahimpur, Vijayapura - KSPCB",30-04-2024 09:00:00,16.802639,75.722694,PM10,42,43,42
India,Karnataka,Yadgir,"Collector Office, Yadgir - KSPCB",30-04-2024 09:00:00,16.7602,77.1428,OZONE,18,19,19
India,Kerala,Eloor,"Udyogamandal, Eloor - Kerala PCB",30-04-2024 09:00:00,10.073232,76.302765,NO2,4,4,4
India,Kerala,Thiruvananthapuram,"Plammoodu, Thiruvananthapuram - Kerala PCB",30-04-2024 09:00:00,8.5149093,76.9435879,CO,8,28,23
India,Kerala,Thiruvananthapuram,"Plammoodu, Thiruvananthapuram - Kerala PCB",30-04-2024 09:00:00,8.5149093,76.9435879,OZONE,9,55,22
India,Kerala,Thrissur,"Corporation Ground, Thrissur - Kerala PCB",30-04-2024 09:00:00,10.532400,76.215900,PM10,60,68,64
India,Kerala,Thrissur,"Corporation Ground, Thrissur - Kerala PCB",30-04-2024 09:00:00,10.532400,76.215900,OZONE,27,32,29
India,Madhya Pradesh,Bhopal,"Idgah Hills, Bhopal - MPPCB",30-04-2024 09:00:00,23.264759,77.381568,PM2.5,25,67,38
India,Madhya Pradesh,Bhopal,"Idgah Hills, Bhopal - MPPCB",30-04-2024 09:00:00,23.264759,77.381568,NO2,20,61,32
India,Madhya Pradesh,Bhopal,"Paryavaran Parisar, Bhopal - MPPCB",30-04-2024 09:00:00,23.210494,77.425409,NH3,5,7,6
India,Madhya Pradesh,Bhopal,"T T Nagar, Bhopal - MPPCB",30-04-2024 09:00:00,23.233584,77.400574,SO2,13,32,22
India,Madhya Pradesh,Dewas,"Bhopal Chauraha, Dewas - MPPCB",30-04-2024 09:00:00,22.9682591,76.064118,PM10,37,57,46
India,Madhya Pradesh,Dewas,"Bhopal Chauraha, Dewas - MPPCB",30-04-2024 09:00:00,22.9682591,76.064118,CO,13,29,16
India,Madhya Pradesh,Gwalior,"City Center, Gwalior - MPPCB",30-04-2024 09:00:00,26.203442,78.193251,NH3,NA,NA,NA
India,Madhya Pradesh,Gwalior,"City Center, Gwalior - MPPCB",30-04-2024 09:00:00,26.203442,78.193251,SO2,NA,NA,NA
India,Madhya Pradesh,Gwalior,"Deen Dayal Nagar, Gwalior - MPPCB",30-04-2024 09:00:00,26.259242,78.216432,OZONE,42,137,83
India,Madhya Pradesh,Gwalior,"Maharaj Bada, Gwalior - MPPCB",30-04-2024 09:00:00,26.200388,78.147714,PM10,25,256,56
India,Madhya Pradesh,Gwalior,"Maharaj Bada, Gwalior - MPPCB",30-04-2024 09:00:00,26.200388,78.147714,NH3,2,17,4
India,Madhya Pradesh,Gwalior,"Phool Bagh, Gwalior - Mondelez Ind. Food",30-04-2024 09:00:00,26.210536,78.171,PM2.5,48,198,104
India,Madhya Pradesh,Indore,"Chhoti Gwaltoli, Indore - MPPCB",30-04-2024 09:00:00,22.4310,75.5213,PM2.5,30,87,50
India,Madhya Pradesh,Indore,"Maguda Nagar, Indore - IMC",30-04-2024 09:00:00,22.7524,75.8872,PM10,NA,NA,NA
India,Madhya Pradesh,Indore,"Regional Park, Indore - IMC",30-04-2024 09:00:00,22.6780,75.8559,CO,24,32,28
India,Madhya Pradesh,Indore,"Residency Area, Indore - IMC",30-04-2024 09:00:00,22.7084,75.8815,CO,12,16,13
India,Madhya Pradesh,Jabalpur,"Marhatal, Jabalpur - MPPCB",30-04-2024 09:00:00,23.168606,79.932247,NH3,2,6,4
India,Madhya Pradesh,Jabalpur,"Marhatal, Jabalpur - MPPCB",30-04-2024 09:00:00,23.168606,79.932247,SO2,1,21,14
India,Madhya Pradesh,Jabalpur,"Suhagi, Jabalpur - JMC",30-04-2024 09:00:00,23.218135,79.957770,OZONE,50,173,71
India,Madhya Pradesh,Katni,"Gole Bazar, Katni - MPPCB",30-04-2024 09:00:00,23.50016,80.23284,PM10,91,177,118
India,Madhya Pradesh,Katni,"Gole Bazar, Katni - MPPCB",30-04-2024 09:00:00,23.50016,80.23284,NO2,33,109,64
India,Madhya Pradesh,Mandideep,"Sector-D Industrial Area, Mandideep - MPPCB",30-04-2024 09:00:00,23.108440,77.511428,PM2.5,22,71,41
India,Madhya Pradesh,Mandideep,"Sector-D Industrial Area, Mandideep - MPPCB",30-04-2024 09:00:00,23.108440,77.511428,NO2,5,36,14
India,Madhya Pradesh,Mandideep,"Sector-D Industrial Area, Mandideep - MPPCB",30-04-2024 09:00:00,23.108440,77.511428,CO,10,88,27
India,Madhya Pradesh,Sagar,"Civil Lines, Sagar - MPPCB",30-04-2024 09:00:00,23.838586,78.759431,PM10,32,116,71
India,Madhya Pradesh,Sagar,"Civil Lines, Sagar - MPPCB",30-04-2024 09:00:00,23.838586,78.759431,CO,14,54,27
India,Madhya Pradesh,Satna,"Bandhavgar Colony, Satna - Birla Cement",30-04-2024 09:00:00,24.58434363,80.8549414,PM10,60,111,80
India,Madhya Pradesh,Satna,"Bandhavgar Colony, Satna - Birla Cement",30-04-2024 09:00:00,24.58434363,80.8549414,SO2,4,5,4
India,Madhya Pradesh,Satna,"Bandhavgar Colony, Satna - Birla Cement",30-04-2024 09:00:00,24.58434363,80.8549414,CO,27,103,52
India,Madhya Pradesh,Ujjain,"Mahakaleshwar Temple, Ujjain - MPPCB",30-04-2024 09:00:00,23.182719 ,75.768218 ,PM10,54,138,76
India,Madhya Pradesh,Ujjain,"Mahakaleshwar Temple, Ujjain - MPPCB",30-04-2024 09:00:00,23.182719 ,75.768218 ,SO2,9,37,14
India,Madhya Pradesh,Ujjain,"Mahakaleshwar Temple, Ujjain - MPPCB",30-04-2024 09:00:00,23.182719 ,75.768218 ,CO,24,98,29
India,Madhya Pradesh,Ujjain,"Mahakaleshwar Temple, Ujjain - MPPCB",30-04-2024 09:00:00,23.182719 ,75.768218 ,OZONE,114,147,138
India,Maharashtra,Ahmednagar,"Tarakpur, Ahmednagar - MPCB",30-04-2024 09:00:00,19.10122,74.73339,PM2.5,31,116,58
India,Maharashtra,Ahmednagar,"Tarakpur, Ahmednagar - MPCB",30-04-2024 09:00:00,19.10122,74.73339,PM10,108,188,134
India,Maharashtra,Ahmednagar,"Tarakpur, Ahmednagar - MPCB",30-04-2024 09:00:00,19.10122,74.73339,NO2,17,151,52
India,Maharashtra,Ahmednagar,"Tarakpur, Ahmednagar - MPCB",30-04-2024 09:00:00,19.10122,74.73339,NH3,2,4,4
India,Maharashtra,Ahmednagar,"Tarakpur, Ahmednagar - MPCB",30-04-2024 09:00:00,19.10122,74.73339,OZONE,17,146,75
India,Maharashtra,Akola,"Ramdaspeth, Akola - MPCB",30-04-2024 09:00:00,20.719516,77.000253,PM10,65,132,98
India,Maharashtra,Akola,"Ramdaspeth, Akola - MPCB",30-04-2024 09:00:00,20.719516,77.000253,CO,24,162,38
India,Maharashtra,Amravati,"Shivneri Colony, Amravati - MPCB",30-04-2024 09:00:00,20.9402359,77.7895248,NH3,1,4,2
India,Maharashtra,Amravati,"Shri Shivaji Science College, Amaravati - MPCB",30-04-2024 09:00:00,20.939198,77.765701,NO2,6,183,33
India,Maharashtra,Aurangabad,"MIDC Chilkalthana, Aurangabad - MPCB",30-04-2024 09:00:00,19.875620,75.387310,NO2,8,53,18
India,Maharashtra,Aurangabad,"MIDC Chilkalthana, Aurangabad - MPCB",30-04-2024 09:00:00,19.875620,75.387310,NH3,3,4,3
India,Maharashtra,Aurangabad,"MIDC Chilkalthana, Aurangabad - MPCB",30-04-2024 09:00:00,19.875620,75.387310,SO2,27,80,41
India,Maharashtra,Aurangabad,"MIDC Chilkalthana, Aurangabad - MPCB",30-04-2024 09:00:00,19.875620,75.387310,OZONE,47,218,86
India,Maharashtra,Aurangabad,"Rachnakar Colony, Aurangabad - MPCB",30-04-2024 09:00:00,19.863756,75.321188,PM2.5,55,181,99
India,Maharashtra,Aurangabad,"Rachnakar Colony, Aurangabad - MPCB",30-04-2024 09:00:00,19.863756,75.321188,SO2,10,50,26
India,Maharashtra,Badlapur,"Katrap, Badlapur - MPCB",30-04-2024 09:00:00,19.16485,73.23409,PM10,71,321,122
India,Maharashtra,Badlapur,"Katrap, Badlapur - MPCB",30-04-2024 09:00:00,19.16485,73.23409,NH3,1,3,2
India,Maharashtra,Badlapur,"Katrap, Badlapur - MPCB",30-04-2024 09:00:00,19.16485,73.23409,CO,16,105,52
India,Maharashtra,Badlapur,"Katrap, Badlapur - MPCB",30-04-2024 09:00:00,19.16485,73.23409,OZONE,5,115,18
India,Maharashtra,Belapur,"CBD Belapur, Belapur - MPCB",30-04-2024 09:00:00,19.0243902,73.0406721,PM2.5,87,243,157
India,Maharashtra,Bhiwandi,"Gokul Nagar, Bhiwandi - MPCB",30-04-2024 09:00:00,19.309073,73.057223,PM2.5,34,241,77
India,Maharashtra,Bhiwandi,"Gokul Nagar, Bhiwandi - MPCB",30-04-2024 09:00:00,19.309073,73.057223,SO2,22,46,28
India,Maharashtra,Chandrapur,"Chauhan Colony, Chandrapur - MPCB",30-04-2024 09:00:00,19.962900,79.298714,CO,24,26,25
India,Maharashtra,Dhule,"Deopur, Dhule - MPCB",30-04-2024 09:00:00,20.918946,74.776388,CO,9,22,17
India,Maharashtra,Jalgaon,"Prabhat Colony, Jalgaon - MPCB",30-04-2024 09:00:00,21.001264,75.565602,SO2,6,49,17
India,Maharashtra,Jalna,"Old MIDC, Jalna - MPCB",30-04-2024 09:00:00,19.854616,75.905894,PM10,NA,NA,NA
India,Maharashtra,Jalna,"Old MIDC, Jalna - MPCB",30-04-2024 09:00:00,19.854616,75.905894,NH3,6,9,7
India,Maharashtra,Kalyan,"Khadakpada, Kalyan - MPCB",30-04-2024 09:00:00,19.25292,73.142019,NH3,1,2,1
India,Maharashtra,Kalyan,"Khadakpada, Kalyan - MPCB",30-04-2024 09:00:00,19.25292,73.142019,OZONE,6,30,10
India,Maharashtra,Kolhapur,"Shivaji University, Kolhapur - MPCB",30-04-2024 09:00:00,16.6870449,74.2505872,PM10,116,164,142
India,Maharashtra,Kolhapur,"Shivaji University, Kolhapur - MPCB",30-04-2024 09:00:00,16.6870449,74.2505872,CO,53,79,60
India,Maharashtra,Kolhapur,"Sinchan Bhavan, Kolhapur - MPCB",30-04-2024 09:00:00,16.7143745,74.2426398,PM10,NA,NA,NA
India,Maharashtra,Kolhapur,"Sinchan Bhavan, Kolhapur - MPCB",30-04-2024 09:00:00,16.7143745,74.2426398,NO2,6,52,14
India,Maharashtra,Kolhapur,"Sinchan Bhavan, Kolhapur - MPCB",30-04-2024 09:00:00,16.7143745,74.2426398,SO2,NA,NA,NA
India,Maharashtra,Kolhapur,"Sinchan Bhavan, Kolhapur - MPCB",30-04-2024 09:00:00,16.7143745,74.2426398,OZONE,34,144,46
India,Maharashtra,Latur,"Sawe Wadi, Latur - MPCB",30-04-2024 09:00:00,18.39963,76.57452,PM10,55,103,77
India,Maharashtra,Latur,"Sawe Wadi, Latur - MPCB",30-04-2024 09:00:00,18.39963,76.57452,NH3,NA,NA,NA
India,Maharashtra,Latur,"Sawe Wadi, Latur - MPCB",30-04-2024 09:00:00,18.39963,76.57452,CO,NA,NA,NA
India,Maharashtra,Latur,"Sawe Wadi, Latur - MPCB",30-04-2024 09:00:00,18.39963,76.57452,OZONE,21,134,50
India,Maharashtra,Malegaon,"Mahesh Nagar, Malegaon - MPCB",30-04-2024 09:00:00,20.555712,74.529236,PM2.5,80,250,112
India,Maharashtra,Malegaon,"Mahesh Nagar, Malegaon - MPCB",30-04-2024 09:00:00,20.555712,74.529236,SO2,7,43,18
India,Maharashtra,Mira-Bhayandar,"Bhayandar West, Mira-Bhayandar - MPCB",30-04-2024 09:00:00,19.296481,72.840923,PM2.5,62,124,80
India,Maharashtra,Mira-Bhayandar,"Bhayandar West, Mira-Bhayandar - MPCB",30-04-2024 09:00:00,19.296481,72.840923,SO2,2,17,6
India,Maharashtra,Mumbai,"Bandra Kurla Complex, Mumbai - MPCB",30-04-2024 09:00:00,19.065931,72.862131,PM10,NA,NA,NA
India,Maharashtra,Mumbai,"Bandra Kurla Complex, Mumbai - MPCB",30-04-2024 09:00:00,19.065931,72.862131,CO,15,36,22
India,Maharashtra,Mumbai,"Borivali East, Mumbai - MPCB",30-04-2024 09:00:00,19.2243333,72.8658113,PM10,43,161,92
India,Maharashtra,Mumbai,"Borivali East, Mumbai - MPCB",30-04-2024 09:00:00,19.2243333,72.8658113,NH3,1,2,2
India,Maharashtra,Mumbai,"Chakala-Andheri East, Mumbai - IITM",30-04-2024 09:00:00,19.11074,72.86084,NH3,8,25,16
India,Maharashtra,Mumbai,"Chembur, Mumbai - MPCB",30-04-2024 09:00:00,19.0364585,72.8954371,CO,29,70,35
India,Maharashtra,Mumbai,"Chembur, Mumbai - MPCB",30-04-2024 09:00:00,19.0364585,72.8954371,OZONE,2,132,24
India,Maharashtra,Mumbai,"Colaba, Mumbai - MPCB",30-04-2024 09:00:00,18.910000,72.820000,NO2,21,25,22
India,Maharashtra,Mumbai,"Colaba, Mumbai - MPCB",30-04-2024 09:00:00,18.910000,72.820000,SO2,11,13,12
India,Maharashtra,Mumbai,"Colaba, Mumbai - MPCB",30-04-2024 09:00:00,18.910000,72.820000,CO,14,16,14
India,Maharashtra,Mumbai,"Deonar, Mumbai - IITM",30-04-2024 09:00:00,19.04946,72.9230,NO2,5,25,13
India,Maharashtra,Mumbai,"Ghatkopar, Mumbai - BMC",30-04-2024 09:00:00,19.083694,72.920967,PM2.5,26,55,40
India,Maharashtra,Mumbai,"Kandivali East, Mumbai - MPCB",30-04-2024 09:00:00,19.205800,72.868200,PM10,64,404,147
India,Maharashtra,Mumbai,"Kandivali East, Mumbai - MPCB",30-04-2024 09:00:00,19.205800,72.868200,CO,28,33,29
India,Maharashtra,Mumbai,"Kandivali West, Mumbai - BMC",30-04-2024 09:00:00,19.215859,72.831718,PM2.5,39,85,58
India,Maharashtra,Mumbai,"Kandivali West, Mumbai - BMC",30-04-2024 09:00:00,19.215859,72.831718,PM10,53,86,67
India,Maharashtra,Mumbai,"Kandivali West, Mumbai - BMC",30-04-2024 09:00:00,19.215859,72.831718,NH3,1,2,2
India,Maharashtra,Mumbai,"Kandivali West, Mumbai - BMC",30-04-2024 09:00:00,19.215859,72.831718,CO,8,21,10
India,Maharashtra,Mumbai,"Kandivali West, Mumbai - BMC",30-04-2024 09:00:00,19.215859,72.831718,OZONE,22,184,44
India,Maharashtra,Mumbai,"Khindipada-Bhandup West, Mumbai - IITM",30-04-2024 09:00:00,19.1653323,72.922099,PM2.5,48,96,68
India,Maharashtra,Mumbai,"Kurla, Mumbai - MPCB",30-04-2024 09:00:00,19.0863,72.8888,NO2,15,20,17
India,Maharashtra,Mumbai,"Kurla, Mumbai - MPCB",30-04-2024 09:00:00,19.0863,72.8888,NH3,1,3,2
India,Maharashtra,Mumbai,"Kurla, Mumbai - MPCB",30-04-2024 09:00:00,19.0863,72.8888,OZONE,28,50,31
India,Maharashtra,Mumbai,"Mazgaon, Mumbai - IITM",30-04-2024 09:00:00,18.96702,72.84214,NO2,27,84,48
India,Maharashtra,Mumbai,"Mindspace-Malad West, Mumbai - MPCB",30-04-2024 09:00:00,19.1878657,72.8304069,NO2,17,64,35
India,Maharashtra,Mumbai,"Mindspace-Malad West, Mumbai - MPCB",30-04-2024 09:00:00,19.1878657,72.8304069,CO,7,26,10
India,Maharashtra,Mumbai,"Mulund West, Mumbai - MPCB",30-04-2024 09:00:00,19.1750,72.9419,NO2,15,16,16
India,Maharashtra,Mumbai,"Mulund West, Mumbai - MPCB",30-04-2024 09:00:00,19.1750,72.9419,NH3,11,11,11
India,Maharashtra,Mumbai,"Navy Nagar-Colaba, Mumbai - IITM",30-04-2024 09:00:00,18.897756,72.813320,NO2,53,88,67
India,Maharashtra,Mumbai,"Navy Nagar-Colaba, Mumbai - IITM",30-04-2024 09:00:00,18.897756,72.813320,OZONE,47,161,80
India,Maharashtra,Mumbai,"Powai, Mumbai - MPCB",30-04-2024 09:00:00,19.137500,72.915056,NO2,20,45,26
India,Maharashtra,Mumbai,"Sewri, Mumbai - BMC",30-04-2024 09:00:00,19.000084,72.856730,PM2.5,3,18,7
India,Maharashtra,Mumbai,"Sewri, Mumbai - BMC",30-04-2024 09:00:00,19.000084,72.856730,PM10,10,118,57
India,Maharashtra,Mumbai,"Sewri, Mumbai - BMC",30-04-2024 09:00:00,19.000084,72.856730,NO2,24,70,40
India,Maharashtra,Mumbai,"Shivaji Nagar, Mumbai - BMC",30-04-2024 09:00:00,19.060498,72.923356,SO2,1,26,11
India,Maharashtra,Mumbai,"Shivaji Nagar, Mumbai - BMC",30-04-2024 09:00:00,19.060498,72.923356,OZONE,5,146,39
India,Maharashtra,Mumbai,"Siddharth Nagar-Worli, Mumbai - IITM",30-04-2024 09:00:00,19.000083,72.813993,NO2,25,38,30
India,Maharashtra,Mumbai,"Siddharth Nagar-Worli, Mumbai - IITM",30-04-2024 09:00:00,19.000083,72.813993,OZONE,36,132,58
India,Maharashtra,Mumbai,"Vasai West, Mumbai - MPCB",30-04-2024 09:00:00,19.383200,72.820400,PM10,111,202,146
India,Maharashtra,Mumbai,"Vasai West, Mumbai - MPCB",30-04-2024 09:00:00,19.383200,72.820400,NO2,25,28,27
India,Maharashtra,Mumbai,"Vasai West, Mumbai - MPCB",30-04-2024 09:00:00,19.383200,72.820400,CO,30,50,33
India,Maharashtra,Mumbai,"Vasai West, Mumbai - MPCB",30-04-2024 09:00:00,19.383200,72.820400,OZONE,7,62,15
India,Maharashtra,Mumbai,"Vile Parle West, Mumbai - MPCB",30-04-2024 09:00:00,19.10861,72.83622,NO2,8,13,10
India,Maharashtra,Mumbai,"Worli, Mumbai - MPCB",30-04-2024 09:00:00,18.9936162,72.8128113,CO,29,30,30
India,Maharashtra,Mumbai,"Worli, Mumbai - MPCB",30-04-2024 09:00:00,18.9936162,72.8128113,OZONE,5,12,9
India,Maharashtra,Nagpur,"Ambazari, Nagpur - MPCB",30-04-2024 09:00:00,21.121801,79.04952,OZONE,8,118,36
India,Maharashtra,Nagpur,"Mahal, Nagpur - MPCB",30-04-2024 09:00:00,21.14472,79.107595,SO2,24,97,52
India,Maharashtra,Nagpur,"Opp GPO Civil Lines, Nagpur - MPCB",30-04-2024 09:00:00,21.152875,79.0517531,PM10,59,189,101
India,Maharashtra,Nanded,"Sneh Nagar, Nanded - MPCB",30-04-2024 09:00:00,19.173852,77.296291,PM2.5,43,123,76
India,Maharashtra,Nanded,"Sneh Nagar, Nanded - MPCB",30-04-2024 09:00:00,19.173852,77.296291,NO2,14,89,26
India,Maharashtra,Nashik,"Gangapur Road, Nashik - MPCB",30-04-2024 09:00:00,20.0073285,73.7762427,PM2.5,66,99,79
India,Maharashtra,Nashik,"Gangapur Road, Nashik - MPCB",30-04-2024 09:00:00,20.0073285,73.7762427,OZONE,24,76,34
India,Maharashtra,Nashik,"Hirawadi, Nashik - MPCB",30-04-2024 09:00:00,20.021503,73.813844,SO2,4,19,14
India,Maharashtra,Nashik,"Hirawadi, Nashik - MPCB",30-04-2024 09:00:00,20.021503,73.813844,OZONE,9,101,17
India,Maharashtra,Nashik,"Pandav Nagari, Nashik - MPCB",30-04-2024 09:00:00,19.9591346,73.7788008,CO,11,30,17
India,Maharashtra,Nashik,"Pandav Nagari, Nashik - MPCB",30-04-2024 09:00:00,19.9591346,73.7788008,OZONE,12,107,18
India,Maharashtra,Navi Mumbai,"Kopripada-Vashi, Navi Mumbai - MPCB",30-04-2024 09:00:00,19.090337,73.014232,SO2,13,36,22
India,Maharashtra,Navi Mumbai,"Kopripada-Vashi, Navi Mumbai - MPCB",30-04-2024 09:00:00,19.090337,73.014232,OZONE,5,302,23
India,Maharashtra,Navi Mumbai,"Mahape, Navi Mumbai - MPCB",30-04-2024 09:00:00,19.1135051,73.008978,NO2,83,96,86
India,Maharashtra,Navi Mumbai,"Mahape, Navi Mumbai - MPCB",30-04-2024 09:00:00,19.1135051,73.008978,NH3,1,7,2
India,Maharashtra,Navi Mumbai,"Nerul, Navi Mumbai - MPCB",30-04-2024 09:00:00,19.008751,73.016620,PM2.5,36,174,85
India,Maharashtra,Navi Mumbai,"Nerul, Navi Mumbai - MPCB",30-04-2024 09:00:00,19.008751,73.016620,SO2,14,16,15
India,Maharashtra,Navi Mumbai,"Nerul, Navi Mumbai - MPCB",30-04-2024 09:00:00,19.008751,73.016620,CO,24,52,44
India,Maharashtra,Navi Mumbai,"Nerul, Navi Mumbai - MPCB",30-04-2024 09:00:00,19.008751,73.016620,OZONE,32,71,60
India,Maharashtra,Navi Mumbai,"Sanpada, Navi Mumbai - MPCB",30-04-2024 09:00:00,19.0575752,73.0151367,SO2,1,16,5
India,Maharashtra,Navi Mumbai,"Sector-19A Nerul, Navi Mumbai - IITM",30-04-2024 09:00:00,19.044,73.0325,NO2,22,71,48
India,Maharashtra,Navi Mumbai,"Sector-2E Kalamboli, Navi Mumbai - MPCB",30-04-2024 09:00:00,19.02579,73.10297,PM10,79,212,132
India,Maharashtra,Navi Mumbai,"Sector-2E Kalamboli, Navi Mumbai - MPCB",30-04-2024 09:00:00,19.02579,73.10297,OZONE,3,92,7
India,Maharashtra,Pimpri-Chinchwad,"Gavalinagar, Pimpri Chinchwad - MPCB",30-04-2024 09:00:00,18.63673,73.82487,PM10,88,122,108
India,Maharashtra,Pimpri-Chinchwad,"Gavalinagar, Pimpri Chinchwad - MPCB",30-04-2024 09:00:00,18.63673,73.82487,NO2,14,57,33
India,Maharashtra,Pimpri-Chinchwad,"Park Street Wakad, Pimpri Chinchwad - MPCB",30-04-2024 09:00:00,18.59051,73.77946,NO2,NA,NA,NA
India,Maharashtra,Pimpri-Chinchwad,"Thergaon, Pimpri Chinchwad - MPCB",30-04-2024 09:00:00,18.616318,73.765797,NO2,24,81,51
India,Maharashtra,Pimpri-Chinchwad,"Thergaon, Pimpri Chinchwad - MPCB",30-04-2024 09:00:00,18.616318,73.765797,CO,11,64,35
India,Maharashtra,Pune,"Alandi, Pune - IITM",30-04-2024 09:00:00,18.675076,73.892743,NO2,8,32,16
India,Maharashtra,Pune,"Karve Road, Pune - MPCB",30-04-2024 09:00:00,18.5011743,73.8165527,CO,42,113,65
India,Maharashtra,Pune,"Katraj Dairy, Pune - MPCB",30-04-2024 09:00:00,18.454450,73.854155,PM2.5,45,113,72
India,Maharashtra,Pune,"Katraj Dairy, Pune - MPCB",30-04-2024 09:00:00,18.454450,73.854155,SO2,7,18,10
India,Maharashtra,Pune,"Savitribai Phule Pune University, Pune - MPCB",30-04-2024 09:00:00,18.547056,73.826908,PM2.5,67,130,85
India,Maharashtra,Pune,"Transport Nagar-Nigdi, Pune - IITM",30-04-2024 09:00:00,18.664282,73.763966,CO,28,39,35
India,Maharashtra,Sangli,"Vijay Nagar, Sangli - MPCB",30-04-2024 09:00:00, 16.5038,74.3623,PM2.5,58,91,71
India,Maharashtra,Sangli,"Vijay Nagar, Sangli - MPCB",30-04-2024 09:00:00, 16.5038,74.3623,PM10,80,109,95
India,Maharashtra,Sangli,"Vijay Nagar, Sangli - MPCB",30-04-2024 09:00:00, 16.5038,74.3623,CO,15,35,26
India,Maharashtra,Solapur,"Dnyaneshwar Nagar, Solapur - MPCB",30-04-2024 09:00:00,17.6336264,75.9132495,PM2.5,53,99,79
India,Maharashtra,Solapur,"Ratandeep Housing Society, Solapur - MPCB",30-04-2024 09:00:00,17.65439,75.90649,SO2,2,19,10
India,Maharashtra,Thane,"Kasarvadavali, Thane - MPCB",30-04-2024 09:00:00,19.26777,72.97182,PM10,72,138,105
India,Maharashtra,Thane,"Kasarvadavali, Thane - MPCB",30-04-2024 09:00:00,19.26777,72.97182,NO2,22,101,42
India,Maharashtra,Thane,"Upvan Fort, Thane - MPCB",30-04-2024 09:00:00,19.222279,72.957979,SO2,9,46,27
India,Maharashtra,Thane,"Upvan Fort, Thane - MPCB",30-04-2024 09:00:00,19.222279,72.957979,OZONE,25,148,48
India,Maharashtra,Ulhasnagar,"Sidhi Vinayak Nagar, Ulhasnagar - MPCB",30-04-2024 09:00:00,19.235581,73.159121,PM2.5,79,303,139
India,Maharashtra,Ulhasnagar,"Sidhi Vinayak Nagar, Ulhasnagar - MPCB",30-04-2024 09:00:00,19.235581,73.159121,PM10,96,177,122
India,Maharashtra,Virar,"Bolinj, Virar - MPCB",30-04-2024 09:00:00,19.4458210,72.7988231,PM2.5,39,127,63
India,Maharashtra,Virar,"Bolinj, Virar - MPCB",30-04-2024 09:00:00,19.4458210,72.7988231,NO2,8,28,14
India,Manipur,Imphal,"Manipur University, Imphal - Manipur PCB",30-04-2024 09:00:00,24.7524239,93.9286218,NH3,1,2,1
India,Manipur,Imphal,"Manipur University, Imphal - Manipur PCB",30-04-2024 09:00:00,24.7524239,93.9286218,SO2,83,101,96
India,Mizoram,Aizawl,"Sikulpuikawn, Aizawl - Mizoram PCB",30-04-2024 09:00:00,23.7176342,92.7192841,PM2.5,25,46,34
India,Mizoram,Aizawl,"Sikulpuikawn, Aizawl - Mizoram PCB",30-04-2024 09:00:00,23.7176342,92.7192841,PM10,69,125,97
India,Mizoram,Aizawl,"Sikulpuikawn, Aizawl - Mizoram PCB",30-04-2024 09:00:00,23.7176342,92.7192841,NH3,NA,NA,NA
India,Nagaland,Kohima,"PWD Juction, Kohima - NPCB",30-04-2024 09:00:00,25.6635413,94.0989878,PM10,107,144,124
India,Nagaland,Kohima,"PWD Juction, Kohima - NPCB",30-04-2024 09:00:00,25.6635413,94.0989878,OZONE,13,48,27
India,Odisha,Barbil,"Forest Office, Barbil - OSPCB",30-04-2024 09:00:00,22.1166054,85.3945546,PM2.5,43,253,104
India,Odisha,Barbil,"Forest Office, Barbil - OSPCB",30-04-2024 09:00:00,22.1166054,85.3945546,SO2,13,60,26
India,Odisha,Baripada,"Meher Colony, Baripada - OSPCB",30-04-2024 09:00:00,21.941841,86.728318,NO2,NA,NA,NA
India,Odisha,Baripada,"Meher Colony, Baripada - OSPCB",30-04-2024 09:00:00,21.941841,86.728318,NH3,NA,NA,NA
India,Odisha,Baripada,"Meher Colony, Baripada - OSPCB",30-04-2024 09:00:00,21.941841,86.728318,CO,32,64,45
India,Odisha,Bhubaneswar,"Patia, Bhubaneswar - OSPCB",30-04-2024 09:00:00,20.34652,85.81630,SO2,4,42,12
India,Odisha,Bileipada,"Tata Township, Bileipada - OSPCB",30-04-2024 09:00:00,22.06156703,85.47409613,PM2.5,58,202,109
India,Odisha,Brajrajnagar,"GM Office, Brajrajnagar - OSPCB",30-04-2024 09:00:00,21.8004996,83.8396977,CO,NA,NA,NA
India,Odisha,Brajrajnagar,"GM Office, Brajrajnagar - OSPCB",30-04-2024 09:00:00,21.8004996,83.8396977,OZONE,NA,NA,NA
India,Odisha,Byasanagar,"Ferro Chrome Colony, Byasanagar - OSPCB",30-04-2024 09:00:00,20.94185,86.11510,OZONE,51,303,63
India,Odisha,Keonjhar,"Jagamohanpur, Keonjhar - OSPCB",30-04-2024 09:00:00,21.643900,85.599355,NO2,NA,NA,NA
India,Odisha,Nayagarh,"Dabuna, Nayagarh - OSPCB",30-04-2024 09:00:00,21.847279,85.416905,PM10,61,195,106
India,Odisha,Nayagarh,"Dabuna, Nayagarh - OSPCB",30-04-2024 09:00:00,21.847279,85.416905,CO,6,41,19
India,Odisha,Rairangpur,"Divisional Forest Office, Rairangpur - OSPCB",30-04-2024 09:00:00,22.265816,86.174829,SO2,13,22,15
India,Odisha,Rairangpur,"Divisional Forest Office, Rairangpur - OSPCB",30-04-2024 09:00:00,22.265816,86.174829,OZONE,6,56,16
India,Odisha,Rourkela,"Fertilizer Township, Rourkela - OSPCB",30-04-2024 09:00:00,22.18972222,84.86277778,CO,NA,NA,NA
India,Odisha,Rourkela,"Raghunathpali, Rourkela - OSPCB",30-04-2024 09:00:00,22.220833,84.809444,PM10,79,168,122
India,Odisha,Suakati,"OMC Colony, Suakati - OSPCB",30-04-2024 09:00:00,21.606865,85.510538,NH3,5,7,6
India,Odisha,Talcher,"Talcher Coalfields,Talcher - OSPCB",30-04-2024 09:00:00,20.9360711,85.1707021,PM2.5,77,383,200
India,Odisha,Talcher,"Talcher Coalfields,Talcher - OSPCB",30-04-2024 09:00:00,20.9360711,85.1707021,OZONE,25,33,28
India,Odisha,Tensa,"Barsua Iron Ore Mines, Tensa - OSPCB",30-04-2024 09:00:00,21.869985,85.167016,SO2,NA,NA,NA
India,Odisha,Tensa,"Barsua Iron Ore Mines, Tensa - OSPCB",30-04-2024 09:00:00,21.869985,85.167016,OZONE,41,97,48
India,Puducherry,Puducherry,"Jawahar Nagar, Puducherry - PPCC",30-04-2024 09:00:00,11.9309,79.8027,PM10,12,57,26
India,Puducherry,Puducherry,"Jawahar Nagar, Puducherry - PPCC",30-04-2024 09:00:00,11.9309,79.8027,CO,16,42,28
India,Punjab,Amritsar,"Golden Temple, Amritsar - PPCB",30-04-2024 09:00:00,31.620000,74.876512,NH3,5,8,6
India,Punjab,Bathinda,"Hardev Nagar, Bathinda - PPCB",30-04-2024 09:00:00,30.233011,74.907758,NO2,31,33,32
India,Punjab,Bathinda,"Hardev Nagar, Bathinda - PPCB",30-04-2024 09:00:00,30.233011,74.907758,SO2,1,42,8
India,Punjab,Jalandhar,"Civil Line, Jalandhar - PPCB",30-04-2024 09:00:00,31.321907,75.578914,SO2,8,11,9
India,Punjab,Khanna,"Kalal Majra, Khanna - PPCB",30-04-2024 09:00:00,30.736056 ,76.209694,CO,6,16,11
India,Punjab,Ludhiana,"Punjab Agricultural University, Ludhiana - PPCB",30-04-2024 09:00:00,30.9028,75.8086,PM2.5,8,58,27
India,Punjab,Ludhiana,"Punjab Agricultural University, Ludhiana - PPCB",30-04-2024 09:00:00,30.9028,75.8086,OZONE,11,26,15
India,Punjab,Mandi Gobindgarh,"RIMT University, Mandi Gobindgarh - PPCB",30-04-2024 09:00:00,30.649961,76.331442,NO2,NA,NA,NA
India,Punjab,Mandi Gobindgarh,"RIMT University, Mandi Gobindgarh - PPCB",30-04-2024 09:00:00,30.649961,76.331442,NH3,NA,NA,NA
India,Punjab,Patiala,"Model Town, Patiala - PPCB",30-04-2024 09:00:00,30.349388,76.366642,PM10,35,119,67
India,Punjab,Patiala,"Model Town, Patiala - PPCB",30-04-2024 09:00:00,30.349388,76.366642,OZONE,16,54,18
India,Rajasthan,Ajmer,"Civil Lines,  Ajmer - RSPCB",30-04-2024 09:00:00,26.470859,74.646594,PM2.5,55,142,93
India,Rajasthan,Alwar,"Moti Doongri, Alwar - RSPCB",30-04-2024 09:00:00,27.554793,76.611536,NH3,3,6,4
India,Rajasthan,Alwar,"Moti Doongri, Alwar - RSPCB",30-04-2024 09:00:00,27.554793,76.611536,OZONE,15,51,16
India,Rajasthan,Banswara,"Rati Talai, Banswara - RSPCB",30-04-2024 09:00:00,23.555190,74.440010,NH3,1,7,3
India,Rajasthan,Baran,"Bamboliya, Baran - RSPCB",30-04-2024 09:00:00,25.106006,76.469948,PM2.5,22,104,53
India,Rajasthan,Barmer,"Railway Colony, Barmer - RSPCB",30-04-2024 09:00:00,25.747299,71.393989,NO2,6,17,9
India,Rajasthan,Barmer,"Railway Colony, Barmer - RSPCB",30-04-2024 09:00:00,25.747299,71.393989,CO,67,83,69
India,Rajasthan,Bharatpur,"Krishna Nagar, Bharatpur - RSPCB",30-04-2024 09:00:00,27.215415,77.50873,PM10,111,308,166
India,Rajasthan,Bharatpur,"Krishna Nagar, Bharatpur - RSPCB",30-04-2024 09:00:00,27.215415,77.50873,NH3,2,6,4
India,Rajasthan,Bharatpur,"Krishna Nagar, Bharatpur - RSPCB",30-04-2024 09:00:00,27.215415,77.50873,SO2,2,15,7
India,Rajasthan,Bharatpur,"Krishna Nagar, Bharatpur - RSPCB",30-04-2024 09:00:00,27.215415,77.50873,CO,11,39,30
India,Rajasthan,Bhiwadi,"RIICO Ind. Area III, Bhiwadi - RSPCB",30-04-2024 09:00:00,28.194909,76.862296,PM2.5,101,337,204
India,Rajasthan,Bhiwadi,"Vasundhara Nagar_UIT, Bhiwadi - RSPCB",30-04-2024 09:00:00,28.207266,76.829265,PM2.5,48,372,137
India,Rajasthan,Bundi,"New Colony, Bundi - RSPCB",30-04-2024 09:00:00,25.435774,75.644272,OZONE,66,103,76
India,Rajasthan,Dholpur,"Raja Ganj, Dholpur - RSPCB",30-04-2024 09:00:00,26.699557,77.898881,OZONE,81,124,97
India,Rajasthan,Hanumangarh,"Housing Board, Hanumangarh - RSPCB",30-04-2024 09:00:00,29.610750,74.283608,PM2.5,25,210,67
India,Rajasthan,Jaipur,"Adarsh Nagar, Jaipur - RSPCB",30-04-2024 09:00:00,26.902909,75.836858,CO,5,52,24
India,Rajasthan,Jaipur,"Mansarovar Sector-12, Jaipur - RSPCB",30-04-2024 09:00:00,26.843698,75.766894,NH3,3,7,5
India,Rajasthan,Jaipur,"Police Commissionerate, Jaipur - RSPCB",30-04-2024 09:00:00,26.9164092,75.7994901,PM2.5,23,293,135
India,Rajasthan,Jaipur,"RIICO Sitapura, Jaipur - RSPCB",30-04-2024 09:00:00,26.786682,75.827928,PM2.5,24,109,58
India,Rajasthan,Jaipur,"RIICO Sitapura, Jaipur - RSPCB",30-04-2024 09:00:00,26.786682,75.827928,NO2,10,67,28
India,Rajasthan,Jaipur,"RIICO Sitapura, Jaipur - RSPCB",30-04-2024 09:00:00,26.786682,75.827928,OZONE,28,76,52
India,Rajasthan,Jaipur,"Sector-2 Murlipura, Jaipur - RSPCB",30-04-2024 09:00:00,26.960669,75.771817,PM10,167,429,240
India,Rajasthan,Jaipur,"Sector-2 Murlipura, Jaipur - RSPCB",30-04-2024 09:00:00,26.960669,75.771817,NH3,2,13,6
India,Rajasthan,Jaipur,"Shastri Nagar, Jaipur - RSPCB",30-04-2024 09:00:00,26.9502929,75.730943,NH3,5,13,8
India,Rajasthan,Jaisalmer,"Sadar Bazar, Jaisalmer - RSPCB",30-04-2024 09:00:00,26.912329,70.909168,CO,2,59,13
India,Rajasthan,Jalore,"Mudtra Sili, Jalore - RSPCB",30-04-2024 09:00:00,25.344694,72.626208,NH3,3,17,4
India,Rajasthan,Jhalawar,"Rajlaxmi Nagar, Jhalawar - RSPCB",30-04-2024 09:00:00,24.588397,76.172782,CO,12,28,21
India,Rajasthan,Jhalawar,"Rajlaxmi Nagar, Jhalawar - RSPCB",30-04-2024 09:00:00,24.588397,76.172782,OZONE,29,79,45
India,Rajasthan,Jhunjhunu,"Indra Nagar, Jhunjhunu - RSPCB",30-04-2024 09:00:00,28.108988,75.386577,PM10,96,436,163
India,Rajasthan,Jhunjhunu,"Indra Nagar, Jhunjhunu - RSPCB",30-04-2024 09:00:00,28.108988,75.386577,NH3,5,8,7
India,Rajasthan,Jodhpur,"Digari Kalan, Jodhpur - RSPCB",30-04-2024 09:00:00,26.295810,73.082283,OZONE,32,102,63
India,Rajasthan,Jodhpur,"Jhalamand, Jodhpur - RSPCB",30-04-2024 09:00:00,26.215415,73.070156,PM10,117,285,152
India,Rajasthan,Jodhpur,"Jhalamand, Jodhpur - RSPCB",30-04-2024 09:00:00,26.215415,73.070156,OZONE,61,98,74
India,Rajasthan,Jodhpur,"Mandor, Jodhpur - RSPCB",30-04-2024 09:00:00,26.358805,73.047444,PM2.5,28,94,59
India,Rajasthan,Jodhpur,"Mandor, Jodhpur - RSPCB",30-04-2024 09:00:00,26.358805,73.047444,PM10,107,231,165
India,Rajasthan,Jodhpur,"Mandor, Jodhpur - RSPCB",30-04-2024 09:00:00,26.358805,73.047444,CO,9,22,15
India,Rajasthan,Jodhpur,"Mandor, Jodhpur - RSPCB",30-04-2024 09:00:00,26.358805,73.047444,OZONE,33,95,66
India,Rajasthan,Jodhpur,"Samrat Ashok Udhyan, Jodhpur - RSPCB",30-04-2024 09:00:00,26.253384,72.976571,PM2.5,19,93,43
India,Rajasthan,Karauli,"Satyawati Vihar, Karauli - RSPCB",30-04-2024 09:00:00,26.506177,77.025989,CO,2,24,4
India,Rajasthan,Kota,"Dhanmandi, Kota - RSPCB",30-04-2024 09:00:00,25.164090,75.858137,PM2.5,7,91,38
India,Rajasthan,Kota,"Dhanmandi, Kota - RSPCB",30-04-2024 09:00:00,25.164090,75.858137,NH3,4,26,8
India,Rajasthan,Kota,"Dhanmandi, Kota - RSPCB",30-04-2024 09:00:00,25.164090,75.858137,CO,4,42,16
India,Rajasthan,Kota,"Dhanmandi, Kota - RSPCB",30-04-2024 09:00:00,25.164090,75.858137,OZONE,26,216,52
India,Rajasthan,Kota,"Shrinath Puram, Kota - RSPCB",30-04-2024 09:00:00,25.14389,75.821256,PM2.5,18,118,60
India,Rajasthan,Pali,"Indira Colony Vistar, Pali - RSPCB",30-04-2024 09:00:00,25.771061, 73.340227,PM10,93,231,170
India,Rajasthan,Pali,"Indira Colony Vistar, Pali - RSPCB",30-04-2024 09:00:00,25.771061, 73.340227,OZONE,22,110,38
India,Rajasthan,Rajsamand,"Dhoinda, Rajsamand - RSPCB",30-04-2024 09:00:00,25.036360,73.883502,PM2.5,18,150,46
India,Rajasthan,Rajsamand,"Dhoinda, Rajsamand - RSPCB",30-04-2024 09:00:00,25.036360,73.883502,NH3,1,5,2
India,Rajasthan,Sawai Madhopur,"Sahu Nagar, Sawai Madhopur - RSPCB",30-04-2024 09:00:00,26.031443,76.359327,NO2,7,22,12
India,Rajasthan,Sirohi,"Vedhaynath Colony, Sirohi - RSPCB",30-04-2024 09:00:00,24.885261,72.857549,NO2,6,55,22
India,Rajasthan,Sri Ganganagar,"Old City, Sri Ganganagar - RSPCB",30-04-2024 09:00:00,29.931624,73.864511,PM2.5,43,315,125
India,Rajasthan,Sri Ganganagar,"Old City, Sri Ganganagar - RSPCB",30-04-2024 09:00:00,29.931624,73.864511,NO2,22,83,46
India,Rajasthan,Sri Ganganagar,"Old City, Sri Ganganagar - RSPCB",30-04-2024 09:00:00,29.931624,73.864511,SO2,1,5,3
India,Rajasthan,Tonk,"Shastri Nagar, Tonk - RSPCB",30-04-2024 09:00:00,26.159933,75.780517,PM2.5,15,97,32
India,Rajasthan,Tonk,"Shastri Nagar, Tonk - RSPCB",30-04-2024 09:00:00,26.159933,75.780517,NH3,2,13,5
India,Rajasthan,Tonk,"Shastri Nagar, Tonk - RSPCB",30-04-2024 09:00:00,26.159933,75.780517,CO,4,26,12
India,Rajasthan,Tonk,"Shastri Nagar, Tonk - RSPCB",30-04-2024 09:00:00,26.159933,75.780517,OZONE,36,82,51
India,Rajasthan,Udaipur,"Ashok Nagar, Udaipur - RSPCB",30-04-2024 09:00:00,24.5886166,73.6321397,NO2,31,57,44
India,Sikkim,Gangtok,"Zero Point GICI, Gangtok - SSPCB",30-04-2024 09:00:00,27.338530,88.614099,PM10,51,90,67
India,Sikkim,Gangtok,"Zero Point GICI, Gangtok - SSPCB",30-04-2024 09:00:00,27.338530,88.614099,NO2,1,4,1
India,TamilNadu,Ariyalur,"Keelapalur, Ariyalur - TNPCB",30-04-2024 09:00:00,11.06825,79.07033,NO2,5,7,6
India,TamilNadu,Ariyalur,"Keelapalur, Ariyalur - TNPCB",30-04-2024 09:00:00,11.06825,79.07033,SO2,27,30,28
India,TamilNadu,Chennai,"Alandur Bus Depot, Chennai - CPCB",30-04-2024 09:00:00,12.9099161,80.1076538,PM10,28,68,42
India,TamilNadu,Chennai,"Alandur Bus Depot, Chennai - CPCB",30-04-2024 09:00:00,12.9099161,80.1076538,CO,46,102,95
India,TamilNadu,Chennai,"Arumbakkam, Chennai - TNPCB",30-04-2024 09:00:00,13.0664,80.2112 ,PM10,7,50,31
India,TamilNadu,Chennai,"Kodungaiyur, Chennai - TNPCB",30-04-2024 09:00:00,13.1278,80.2642,SO2,1,11,5
India,TamilNadu,Chennai,"Kodungaiyur, Chennai - TNPCB",30-04-2024 09:00:00,13.1278,80.2642,OZONE,2,9,5
India,TamilNadu,Chennai,"Manali, Chennai - CPCB",30-04-2024 09:00:00,13.164544,80.26285,PM2.5,16,64,40
India,TamilNadu,Chennai,"Perungudi, Chennai - TNPCB",30-04-2024 09:00:00,12.9533,80.2357,NO2,2,8,4
India,TamilNadu,Chennai,"Royapuram, Chennai - TNPCB",30-04-2024 09:00:00,13.1036,80.2909,NO2,9,20,14
India,TamilNadu,Chennai,"Velachery Res. Area, Chennai - CPCB",30-04-2024 09:00:00,13.0052189,80.2398125,PM2.5,12,38,25
India,TamilNadu,Chennai,"Velachery Res. Area, Chennai - CPCB",30-04-2024 09:00:00,13.0052189,80.2398125,NH3,10,16,12
India,TamilNadu,Coimbatore,"PSG College of Arts and Science, Coimbatore - TNPCB",30-04-2024 09:00:00,11.0328,77.0349,PM2.5,NA,NA,NA
India,TamilNadu,Coimbatore,"PSG College of Arts and Science, Coimbatore - TNPCB",30-04-2024 09:00:00,11.0328,77.0349,SO2,NA,NA,NA
India,TamilNadu,Cuddalore,"Semmandalam, Cuddalore - TNPCB",30-04-2024 09:00:00,11.7637683,79.7499835,NH3,NA,NA,NA
India,TamilNadu,Gummidipoondi,"Anthoni Pillai Nagar, Gummidipoondi - TNPCB",30-04-2024 09:00:00,13.4127,80.1081,PM2.5,17,303,50
India,TamilNadu,Ooty,"Bombay Castel, Ooty - TNPCB",30-04-2024 09:00:00,11.4068288,76.7138973,NO2,2,81,39
India,TamilNadu,Palkalaiperur,"Bharathidasan University, Palkalaiperur - TNPCB",30-04-2024 09:00:00,10.681158,78.741746,OZONE,1,2,1
India,TamilNadu,Ramanathapuram,"Chalai Bazaar, Ramanathapuram - TNPCB",30-04-2024 09:00:00,9.36399,78.831977,PM10,8,50,29
India,TamilNadu,Ramanathapuram,"Chalai Bazaar, Ramanathapuram - TNPCB",30-04-2024 09:00:00,9.36399,78.831977,SO2,7,10,8
India,TamilNadu,Ramanathapuram,"Chalai Bazaar, Ramanathapuram - TNPCB",30-04-2024 09:00:00,9.36399,78.831977,CO,2,6,5
India,TamilNadu,Salem,"Sona College of Technology, Salem - TNPCB",30-04-2024 09:00:00,11.679111,78.125052,PM2.5,NA,NA,NA
India,TamilNadu,Salem,"Sona College of Technology, Salem - TNPCB",30-04-2024 09:00:00,11.679111,78.125052,PM10,24,64,47
India,TamilNadu,Salem,"Sona College of Technology, Salem - TNPCB",30-04-2024 09:00:00,11.679111,78.125052,NO2,7,10,8
India,TamilNadu,Salem,"Sona College of Technology, Salem - TNPCB",30-04-2024 09:00:00,11.679111,78.125052,SO2,47,103,68
India,TamilNadu,Tirupur,"Kumaran College, Tirupur - TNPCB",30-04-2024 09:00:00,11.0973603,77.3228673,PM10,33,133,68
India,TamilNadu,Tirupur,"Kumaran College, Tirupur - TNPCB",30-04-2024 09:00:00,11.0973603,77.3228673,SO2,23,25,24
India,TamilNadu,Virudhunagar,"Collectorate Office, Virudhunagar - TNPCB",30-04-2024 09:00:00,9.559382,77.948828,NO2,3,17,8
India,TamilNadu,Virudhunagar,"Collectorate Office, Virudhunagar - TNPCB",30-04-2024 09:00:00,9.559382,77.948828,OZONE,6,6,6
India,Telangana,Hyderabad,"Bollaram Industrial Area, Hyderabad - TSPCB",30-04-2024 09:00:00,17.540891,78.358528,PM10,54,143,100
India,Telangana,Hyderabad,"Bollaram Industrial Area, Hyderabad - TSPCB",30-04-2024 09:00:00,17.540891,78.358528,NO2,13,45,27
India,Telangana,Hyderabad,"Central University, Hyderabad - TSPCB",30-04-2024 09:00:00,17.460103,78.334361,PM2.5,25,54,39
India,Telangana,Hyderabad,"ECIL Kapra, Hyderabad - TSPCB",30-04-2024 09:00:00,17.470431,78.566959,PM2.5,46,75,58
India,Telangana,Hyderabad,"ECIL Kapra, Hyderabad - TSPCB",30-04-2024 09:00:00,17.470431,78.566959,CO,7,36,14
India,Telangana,Hyderabad,"ECIL Kapra, Hyderabad - TSPCB",30-04-2024 09:00:00,17.470431,78.566959,OZONE,3,47,9
India,Telangana,Hyderabad,"ICRISAT Patancheru, Hyderabad - TSPCB",30-04-2024 09:00:00,17.518400,78.278777,SO2,16,38,24
India,Telangana,Hyderabad,"Kokapet, Hyderabad - TSPCB",30-04-2024 09:00:00,17.393559,78.339194,PM10,70,90,78
India,Telangana,Hyderabad,"Kokapet, Hyderabad - TSPCB",30-04-2024 09:00:00,17.393559,78.339194,NO2,9,9,9
India,Telangana,Hyderabad,"Kokapet, Hyderabad - TSPCB",30-04-2024 09:00:00,17.393559,78.339194,NH3,1,2,1
India,Telangana,Hyderabad,"Kokapet, Hyderabad - TSPCB",30-04-2024 09:00:00,17.393559,78.339194,OZONE,4,9,5
India,Telangana,Hyderabad,"Nacharam_TSIIC IALA, Hyderabad - TSPCB",30-04-2024 09:00:00,17.429398,78.569354,NO2,14,15,15
India,Telangana,Hyderabad,"Nacharam_TSIIC IALA, Hyderabad - TSPCB",30-04-2024 09:00:00,17.429398,78.569354,OZONE,21,66,33
India,Telangana,Hyderabad,"New Malakpet, Hyderabad - TSPCB",30-04-2024 09:00:00,17.37206,78.50864,NO2,17,35,21
India,Telangana,Hyderabad,"Sanathnagar, Hyderabad - TSPCB",30-04-2024 09:00:00,17.4559458,78.4332152,PM2.5,45,500,123
India,Telangana,Hyderabad,"Sanathnagar, Hyderabad - TSPCB",30-04-2024 09:00:00,17.4559458,78.4332152,SO2,1,59,10
India,Telangana,Hyderabad,"Somajiguda, Hyderabad - TSPCB",30-04-2024 09:00:00,17.417094,78.457437,CO,16,58,36
India,Tripura,Agartala,"Bardowali, Agartala - Tripura SPCB",30-04-2024 09:00:00,23.8175497,91.2726974,PM2.5,70,137,95
India,Tripura,Agartala,"Bardowali, Agartala - Tripura SPCB",30-04-2024 09:00:00,23.8175497,91.2726974,PM10,89,143,117
India,Tripura,Agartala,"Bardowali, Agartala - Tripura SPCB",30-04-2024 09:00:00,23.8175497,91.2726974,SO2,30,31,31
India,Uttar_Pradesh,Agra,"Manoharpur, Agra - UPPCB",30-04-2024 09:00:00,27.23711,78.01936,NH3,2,3,3
India,Uttar_Pradesh,Agra,"Manoharpur, Agra - UPPCB",30-04-2024 09:00:00,27.23711,78.01936,SO2,1,20,5
India,Uttar_Pradesh,Agra,"Manoharpur, Agra - UPPCB",30-04-2024 09:00:00,27.23711,78.01936,CO,6,16,10
India,Uttar_Pradesh,Agra,"Rohta, Agra - UPPCB",30-04-2024 09:00:00,27.106972,78.000111,CO,6,18,11
India,Uttar_Pradesh,Agra,"Sector-3B Avas Vikas Colony, Agra - UPPCB",30-04-2024 09:00:00,27.19412,77.96237,NO2,24,35,32
India,Uttar_Pradesh,Agra,"Shahjahan Garden, Agra - UPPCB",30-04-2024 09:00:00,27.169338,78.03582,PM2.5,17,68,39
India,Uttar_Pradesh,Agra,"Shahjahan Garden, Agra - UPPCB",30-04-2024 09:00:00,27.169338,78.03582,PM10,53,158,98
India,Uttar_Pradesh,Agra,"Shahjahan Garden, Agra - UPPCB",30-04-2024 09:00:00,27.169338,78.03582,CO,13,27,17
India,Uttar_Pradesh,Agra,"Shahjahan Garden, Agra - UPPCB",30-04-2024 09:00:00,27.169338,78.03582,OZONE,1,13,3
India,Uttar_Pradesh,Bareilly,"Civil Lines, Bareilly - UPPCB",30-04-2024 09:00:00,28.359581,79.414455,PM2.5,4,13,8
India,Uttar_Pradesh,Bareilly,"Civil Lines, Bareilly - UPPCB",30-04-2024 09:00:00,28.359581,79.414455,PM10,5,63,13
India,Uttar_Pradesh,Bareilly,"Rajendra Nagar, Bareilly - UPPCB",30-04-2024 09:00:00,28.38910936,79.42963708,NH3,1,1,1
India,Uttar_Pradesh,Bareilly,"Rajendra Nagar, Bareilly - UPPCB",30-04-2024 09:00:00,28.38910936,79.42963708,SO2,45,76,50
India,Uttar_Pradesh,Bareilly,"Rajendra Nagar, Bareilly - UPPCB",30-04-2024 09:00:00,28.38910936,79.42963708,CO,2,30,17
India,Uttar_Pradesh,Bareilly,"Rajendra Nagar, Bareilly - UPPCB",30-04-2024 09:00:00,28.38910936,79.42963708,OZONE,1,123,4
India,Uttar_Pradesh,Bulandshahr,"Yamunapuram, Bulandshahr - UPPCB",30-04-2024 09:00:00,28.406963,77.849831,PM2.5,50,249,83
India,Uttar_Pradesh,Bulandshahr,"Yamunapuram, Bulandshahr - UPPCB",30-04-2024 09:00:00,28.406963,77.849831,NH3,12,19,15
India,Uttar_Pradesh,Firozabad,"Nagla Bhau, Firozabad - UPPCB",30-04-2024 09:00:00,27.168897,78.376960,PM2.5,NA,NA,NA
India,Uttar_Pradesh,Firozabad,"Nagla Bhau, Firozabad - UPPCB",30-04-2024 09:00:00,27.168897,78.376960,NH3,NA,NA,NA
India,Uttar_Pradesh,Firozabad,"Vibhab Nagar, Firozabad - UPPCB",30-04-2024 09:00:00,27.1594,78.3953,SO2,NA,NA,NA
India,Uttar_Pradesh,Firozabad,"Vibhab Nagar, Firozabad - UPPCB",30-04-2024 09:00:00,27.1594,78.3953,CO,8,34,14
India,Uttar_Pradesh,Ghaziabad,"Indirapuram, Ghaziabad - UPPCB",30-04-2024 09:00:00,28.646233,77.358075,NO2,30,68,47
India,Uttar_Pradesh,Ghaziabad,"Indirapuram, Ghaziabad - UPPCB",30-04-2024 09:00:00,28.646233,77.358075,NH3,6,8,7
India,Uttar_Pradesh,Ghaziabad,"Loni, Ghaziabad - UPPCB",30-04-2024 09:00:00,28.757294,77.278792,NH3,2,5,3
India,Uttar_Pradesh,Ghaziabad,"Sanjay Nagar, Ghaziabad - UPPCB",30-04-2024 09:00:00,28.685382,77.453839,NH3,7,12,8
India,Uttar_Pradesh,Ghaziabad,"Vasundhara, Ghaziabad - UPPCB",30-04-2024 09:00:00,28.6603346,77.3572563,NH3,4,6,4
India,Uttar_Pradesh,Ghaziabad,"Vasundhara, Ghaziabad - UPPCB",30-04-2024 09:00:00,28.6603346,77.3572563,CO,6,54,37
India,Uttar_Pradesh,Gorakhpur,"Madan Mohan Malaviya University of Technology, Gorakhpur - UPPCB",30-04-2024 09:00:00,26.730136,83.433859,PM2.5,51,344,171
India,Uttar_Pradesh,Gorakhpur,"Madan Mohan Malaviya University of Technology, Gorakhpur - UPPCB",30-04-2024 09:00:00,26.730136,83.433859,PM10,132,294,180
India,Uttar_Pradesh,Greater Noida,"Knowledge Park - III, Greater Noida - UPPCB",30-04-2024 09:00:00,28.47272,77.482000,NO2,26,89,49
India,Uttar_Pradesh,Greater Noida,"Knowledge Park - III, Greater Noida - UPPCB",30-04-2024 09:00:00,28.47272,77.482000,OZONE,34,269,54
India,Uttar_Pradesh,Greater Noida,"Knowledge Park - V, Greater Noida - UPPCB",30-04-2024 09:00:00,28.557054,77.453663,PM2.5,45,346,111
India,Uttar_Pradesh,Greater Noida,"Knowledge Park - V, Greater Noida - UPPCB",30-04-2024 09:00:00,28.557054,77.453663,OZONE,28,266,56
India,Uttar_Pradesh,Hapur,"Anand Vihar, Hapur - UPPCB",30-04-2024 09:00:00,28.725645,77.749675,PM10,108,189,136
India,Uttar_Pradesh,Hapur,"Anand Vihar, Hapur - UPPCB",30-04-2024 09:00:00,28.725645,77.749675,NH3,4,5,4
India,Uttar_Pradesh,Hapur,"Anand Vihar, Hapur - UPPCB",30-04-2024 09:00:00,28.725645,77.749675,SO2,29,69,46
India,Uttar_Pradesh,Jhansi,"Shivaji Nagar, Jhansi - UPPCB",30-04-2024 09:00:00,25.4547,78.6039,PM2.5,11,272,41
India,Uttar_Pradesh,Jhansi,"Shivaji Nagar, Jhansi - UPPCB",30-04-2024 09:00:00,25.4547,78.6039,PM10,11,159,36
India,Uttar_Pradesh,Jhansi,"Shivaji Nagar, Jhansi - UPPCB",30-04-2024 09:00:00,25.4547,78.6039,NO2,3,77,18
India,Uttar_Pradesh,Jhansi,"Shivaji Nagar, Jhansi - UPPCB",30-04-2024 09:00:00,25.4547,78.6039,NH3,6,6,6
India,Uttar_Pradesh,Kanpur,"FTI Kidwai Nagar, Kanpur - UPPCB",30-04-2024 09:00:00,26.428282,80.327067,PM2.5,52,318,124
India,Uttar_Pradesh,Kanpur,"FTI Kidwai Nagar, Kanpur - UPPCB",30-04-2024 09:00:00,26.428282,80.327067,OZONE,7,31,10
India,Uttar_Pradesh,Kanpur,"Nehru Nagar, Kanpur - UPPCB",30-04-2024 09:00:00,26.4703136,80.3229863,PM2.5,58,244,118
India,Uttar_Pradesh,Kanpur,"Nehru Nagar, Kanpur - UPPCB",30-04-2024 09:00:00,26.4703136,80.3229863,PM10,52,137,90
India,Uttar_Pradesh,Kanpur,"Nehru Nagar, Kanpur - UPPCB",30-04-2024 09:00:00,26.4703136,80.3229863,NO2,3,55,33
India,Uttar_Pradesh,Lucknow,"B R Ambedkar University, Lucknow - UPPCB",30-04-2024 09:00:00,26.766433,80.927299,PM10,103,237,152
India,Uttar_Pradesh,Lucknow,"Gomti Nagar, Lucknow - UPPCB",30-04-2024 09:00:00,26.868120,81.005119,PM10,96,159,121
India,Uttar_Pradesh,Lucknow,"Kukrail Picnic Spot-1, Lucknow - UPPCB",30-04-2024 09:00:00,26.90723,80.98579,CO,11,34,32
India,Uttar_Pradesh,Lucknow,"Lalbagh, Lucknow - CPCB",30-04-2024 09:00:00,26.8458805,80.9365541,NO2,12,85,35
India,Uttar_Pradesh,Lucknow,"Talkatora District Industries Center, Lucknow - CPCB",30-04-2024 09:00:00,26.83399722,80.8917361,PM2.5,177,370,270
India,Uttar_Pradesh,Meerut,"Ganga Nagar, Meerut - UPPCB",30-04-2024 09:00:00,28.999264,77.7590354,CO,22,40,30
India,Uttar_Pradesh,Meerut,"Jai Bhim Nagar, Meerut - UPPCB",30-04-2024 09:00:00,28.9535882,77.7622941,PM2.5,NA,NA,NA
India,Uttar_Pradesh,Meerut,"Pallavpuram Phase 2, Meerut - UPPCB",30-04-2024 09:00:00,29.063510,77.709723,PM2.5,20,210,61
India,Uttar_Pradesh,Moradabad,"Buddhi Vihar, Moradabad - UPPCB",30-04-2024 09:00:00,28.83526,78.74460,NO2,23,23,23
India,Uttar_Pradesh,Moradabad,"Buddhi Vihar, Moradabad - UPPCB",30-04-2024 09:00:00,28.83526,78.74460,CO,20,30,22
India,Uttar_Pradesh,Moradabad,"Eco Herbal Park, Moradabad - UPPCB",30-04-2024 09:00:00,28.840739,78.697531,NO2,11,36,19
India,Uttar_Pradesh,Moradabad,"Eco Herbal Park, Moradabad - UPPCB",30-04-2024 09:00:00,28.840739,78.697531,SO2,4,31,12
India,Uttar_Pradesh,Moradabad,"Eco Herbal Park, Moradabad - UPPCB",30-04-2024 09:00:00,28.840739,78.697531,CO,8,60,27
India,Uttar_Pradesh,Moradabad,"Eco Herbal Park, Moradabad - UPPCB",30-04-2024 09:00:00,28.840739,78.697531,OZONE,46,200,77
India,Uttar_Pradesh,Moradabad,"Employment Office, Moradabad - UPPCB",30-04-2024 09:00:00,28.88528,78.73880,PM10,53,257,113
India,Uttar_Pradesh,Moradabad,"Jigar Colony, Moradabad - UPPCB",30-04-2024 09:00:00,28.856664,78.772638,PM10,69,185,107
India,Uttar_Pradesh,Moradabad,"Jigar Colony, Moradabad - UPPCB",30-04-2024 09:00:00,28.856664,78.772638,NO2,17,19,18
India,Uttar_Pradesh,Moradabad,"Kashiram Nagar, Moradabad - UPPCB",30-04-2024 09:00:00,28.849399,78.742362,PM10,57,168,106
India,Uttar_Pradesh,Moradabad,"Kashiram Nagar, Moradabad - UPPCB",30-04-2024 09:00:00,28.849399,78.742362,NO2,3,4,4
India,Uttar_Pradesh,Moradabad,"Kashiram Nagar, Moradabad - UPPCB",30-04-2024 09:00:00,28.849399,78.742362,NH3,2,4,4
India,Uttar_Pradesh,Moradabad,"Transport Nagar, Moradabad - UPPCB",30-04-2024 09:00:00,28.802625,78.753728,PM2.5,21,70,36
India,Uttar_Pradesh,Moradabad,"Transport Nagar, Moradabad - UPPCB",30-04-2024 09:00:00,28.802625,78.753728,CO,40,44,42
India,Uttar_Pradesh,Moradabad,"Transport Nagar, Moradabad - UPPCB",30-04-2024 09:00:00,28.802625,78.753728,OZONE,11,41,20
India,Uttar_Pradesh,Muzaffarnagar,"New Mandi, Muzaffarnagar - UPPCB",30-04-2024 09:00:00,29.4723508,77.7194031,PM2.5,43,148,88
India,Uttar_Pradesh,Muzaffarnagar,"New Mandi, Muzaffarnagar - UPPCB",30-04-2024 09:00:00,29.4723508,77.7194031,CO,28,54,35
India,Uttar_Pradesh,Muzaffarnagar,"New Mandi, Muzaffarnagar - UPPCB",30-04-2024 09:00:00,29.4723508,77.7194031,OZONE,17,79,29
India,Uttar_Pradesh,Noida,"Sector - 125, Noida - UPPCB",30-04-2024 09:00:00,28.5447608,77.3231257,PM2.5,NA,NA,NA
India,Uttar_Pradesh,Noida,"Sector - 125, Noida - UPPCB",30-04-2024 09:00:00,28.5447608,77.3231257,CO,NA,NA,NA
India,Uttar_Pradesh,Noida,"Sector - 62, Noida - IMD",30-04-2024 09:00:00,28.6245479,77.3577104,NO2,8,17,11
India,Uttar_Pradesh,Noida,"Sector - 62, Noida - IMD",30-04-2024 09:00:00,28.6245479,77.3577104,OZONE,12,55,18
India,Uttar_Pradesh,Noida,"Sector-1, Noida - UPPCB",30-04-2024 09:00:00,28.5898,77.3101,SO2,10,49,21
India,Uttar_Pradesh,Noida,"Sector-1, Noida - UPPCB",30-04-2024 09:00:00,28.5898,77.3101,OZONE,20,272,39
India,Uttar_Pradesh,Noida,"Sector-116, Noida - UPPCB",30-04-2024 09:00:00,28.569230,77.393848,PM2.5,45,306,99
India,Uttar_Pradesh,Prayagraj,"Jhunsi, Prayagraj - UPPCB",30-04-2024 09:00:00,25.425602,81.917152,PM10,31,124,74
India,Uttar_Pradesh,Prayagraj,"Jhunsi, Prayagraj - UPPCB",30-04-2024 09:00:00,25.425602,81.917152,SO2,30,32,31
India,Uttar_Pradesh,Prayagraj,"Jhunsi, Prayagraj - UPPCB",30-04-2024 09:00:00,25.425602,81.917152,OZONE,6,99,18
India,Uttar_Pradesh,Prayagraj,"Motilal Nehru NIT, Prayagraj - UPPCB",30-04-2024 09:00:00,25.494,81.863,PM10,51,116,72
India,Uttar_Pradesh,Prayagraj,"Motilal Nehru NIT, Prayagraj - UPPCB",30-04-2024 09:00:00,25.494,81.863,SO2,28,61,36
India,Uttar_Pradesh,Prayagraj,"Nagar Nigam, Prayagraj - UPPCB",30-04-2024 09:00:00,25.44919916 ,81.82735986 ,PM10,36,417,101
India,Uttar_Pradesh,Varanasi,"Ardhali Bazar, Varanasi - UPPCB",30-04-2024 09:00:00,25.3505986,82.9083074,NO2,17,45,25
India,Uttar_Pradesh,Varanasi,"Ardhali Bazar, Varanasi - UPPCB",30-04-2024 09:00:00,25.3505986,82.9083074,SO2,20,53,30
India,Uttar_Pradesh,Varanasi,"Ardhali Bazar, Varanasi - UPPCB",30-04-2024 09:00:00,25.3505986,82.9083074,CO,8,52,33
India,Uttar_Pradesh,Varanasi,"Bhelupur, Varanasi - UPPCB",30-04-2024 09:00:00,25.301778,82.996789,PM10,24,80,42
India,Uttar_Pradesh,Vrindavan,"Omex Eternity, Vrindavan - UPPCB",30-04-2024 09:00:00,27.5714090,77.6557570,CO,23,50,42
India,Uttarakhand,Dehradun,"Doon University, Dehradun - UKPCB",30-04-2024 09:00:00,30.269444,78.044167,NO2,1,6,2
India,Uttarakhand,Kashipur,"Govt. Girls Inter College, Kashipur - UKPCB",30-04-2024 09:00:00,29.2124114,78.9611753,NO2,12,56,38
India,West_Bengal,Asansol,"Asansol Court Area, Asansol - WBPCB",30-04-2024 09:00:00,23.685297,86.945968,PM10,122,405,183
India,West_Bengal,Asansol,"Asansol Court Area, Asansol - WBPCB",30-04-2024 09:00:00,23.685297,86.945968,OZONE,20,38,30
India,West_Bengal,Barrackpore,"SVSPA Campus, Barrackpore - WBPCB",30-04-2024 09:00:00,22.7605581,88.3617589,OZONE,2,96,17
India,West_Bengal,Durgapur,"PCBL Residential Complex, Durgapur - WBPCB",30-04-2024 09:00:00,23.5087640,87.3544400,OZONE,4,107,39
India,West_Bengal,Haldia,"Priyambada Housing Estate, Haldia - WBPCB",30-04-2024 09:00:00,22.06047,88.109737,NO2,12,27,16
India,West_Bengal,Howrah,"Belur Math, Howrah - WBPCB",30-04-2024 09:00:00,22.629801,88.352017,NO2,8,43,19
India,West_Bengal,Howrah,"Ghusuri, Howrah - WBPCB",30-04-2024 09:00:00,22.611968,88.347422,PM2.5,62,301,189
India,West_Bengal,Howrah,"Ghusuri, Howrah - WBPCB",30-04-2024 09:00:00,22.611968,88.347422,NO2,16,20,18
India,West_Bengal,Kolkata,"Ballygunge, Kolkata - WBPCB",30-04-2024 09:00:00,22.5367507,88.3638022,PM2.5,39,194,83
India,West_Bengal,Kolkata,"Ballygunge, Kolkata - WBPCB",30-04-2024 09:00:00,22.5367507,88.3638022,NO2,13,25,16
India,West_Bengal,Kolkata,"Ballygunge, Kolkata - WBPCB",30-04-2024 09:00:00,22.5367507,88.3638022,SO2,10,41,23
India,West_Bengal,Kolkata,"Ballygunge, Kolkata - WBPCB",30-04-2024 09:00:00,22.5367507,88.3638022,OZONE,54,164,64
India,West_Bengal,Kolkata,"Bidhannagar, Kolkata - WBPCB",30-04-2024 09:00:00,22.58157048,88.41002457,PM2.5,37,150,72
India,West_Bengal,Kolkata,"Bidhannagar, Kolkata - WBPCB",30-04-2024 09:00:00,22.58157048,88.41002457,SO2,1,23,12
India,West_Bengal,Kolkata,"Fort William, Kolkata - WBPCB",30-04-2024 09:00:00,22.556640,88.342674,SO2,12,64,28
India,West_Bengal,Kolkata,"Fort William, Kolkata - WBPCB",30-04-2024 09:00:00,22.556640,88.342674,CO,14,39,16
India,West_Bengal,Kolkata,"Fort William, Kolkata - WBPCB",30-04-2024 09:00:00,22.556640,88.342674,OZONE,15,160,23
India,West_Bengal,Kolkata,"Jadavpur, Kolkata - WBPCB",30-04-2024 09:00:00,22.49929,88.36917,PM10,50,110,78
India,West_Bengal,Kolkata,"Rabindra Bharati University, Kolkata - WBPCB",30-04-2024 09:00:00,22.627847,88.380669,OZONE,15,153,29
India,West_Bengal,Kolkata,"Rabindra Sarobar, Kolkata - WBPCB",30-04-2024 09:00:00,22.51106,88.35142,OZONE,26,146,30
India,Andhra_Pradesh,Amaravati,"Secretariat, Amaravati - APPCB",30-04-2024 09:00:00,16.5150833,80.5181667,PM10,12,55,27
India,Andhra_Pradesh,Amaravati,"Secretariat, Amaravati - APPCB",30-04-2024 09:00:00,16.5150833,80.5181667,CO,1,106,17
India,Andhra_Pradesh,Anantapur,"Gulzarpet, Anantapur - APPCB",30-04-2024 09:00:00,14.675886,77.593027,PM10,96,411,145
India,Andhra_Pradesh,Chittoor,"Gangineni Cheruvu, Chittoor - APPCB",30-04-2024 09:00:00,13.204880,79.097889,NH3,NA,NA,NA
India,Andhra_Pradesh,Chittoor,"Gangineni Cheruvu, Chittoor - APPCB",30-04-2024 09:00:00,13.204880,79.097889,CO,NA,NA,NA
India,Andhra_Pradesh,Kadapa,"Yerramukkapalli, Kadapa - APPCB",30-04-2024 09:00:00,14.465052,78.824187,PM2.5,5,241,52
India,Andhra_Pradesh,Kadapa,"Yerramukkapalli, Kadapa - APPCB",30-04-2024 09:00:00,14.465052,78.824187,NO2,NA,NA,NA
India,Andhra_Pradesh,Kadapa,"Yerramukkapalli, Kadapa - APPCB",30-04-2024 09:00:00,14.465052,78.824187,SO2,2,3,2
India,Andhra_Pradesh,Rajamahendravaram,"Anand Kala Kshetram, Rajamahendravaram - APPCB",30-04-2024 09:00:00,16.9872867,81.7363176,CO,20,34,32
India,Andhra_Pradesh,Tirupati,"Tirumala, Tirupati - APPCB",30-04-2024 09:00:00,13.67,79.35,NH3,1,1,1
India,Andhra_Pradesh,Tirupati,"Tirumala, Tirupati - APPCB",30-04-2024 09:00:00,13.67,79.35,CO,31,46,39
India,Andhra_Pradesh,Tirupati,"Vaikuntapuram, Tirupati - APPCB",30-04-2024 09:00:00,13.615387,79.409230,PM2.5,13,322,70
India,Andhra_Pradesh,Tirupati,"Vaikuntapuram, Tirupati - APPCB",30-04-2024 09:00:00,13.615387,79.409230,NH3,2,3,2
India,Andhra_Pradesh,Vijayawada,"HB Colony, Vijayawada - APPCB",30-04-2024 09:00:00,16.536107,80.594233,NH3,NA,NA,NA
India,Andhra_Pradesh,Vijayawada,"HB Colony, Vijayawada - APPCB",30-04-2024 09:00:00,16.536107,80.594233,SO2,NA,NA,NA
India,Andhra_Pradesh,Vijayawada,"Kanuru, Vijayawada - APPCB",30-04-2024 09:00:00,16.486692,80.699436,PM10,NA,NA,NA
India,Andhra_Pradesh,Vijayawada,"Kanuru, Vijayawada - APPCB",30-04-2024 09:00:00,16.486692,80.699436,CO,NA,NA,NA
India,Andhra_Pradesh,Vijayawada,"Rajiv Gandhi Park, Vijayawada - APPCB",30-04-2024 09:00:00,16.509717,80.612222,CO,36,52,37
India,Andhra_Pradesh,Vijayawada,"Rajiv Nagar, Vijayawada - APPCB",30-04-2024 09:00:00,16.554731,80.649110,CO,40,40,40
India,Andhra_Pradesh,Vijayawada,"Rajiv Nagar, Vijayawada - APPCB",30-04-2024 09:00:00,16.554731,80.649110,OZONE,3,344,6
India,Arunachal_Pradesh,Naharlagun,"Naharlagun, Naharlagun - APSPCB",30-04-2024 09:00:00,27.103358,93.679645,SO2,NA,NA,NA
India,Arunachal_Pradesh,Naharlagun,"Naharlagun, Naharlagun - APSPCB",30-04-2024 09:00:00,27.103358,93.679645,CO,NA,NA,NA
India,Assam,Byrnihat,"Central Academy for SFS, Byrnihat - PCBA",30-04-2024 09:00:00,26.071318,91.87488,OZONE,23,123,34
India,Assam,Guwahati,"IITG, Guwahati - PCBA",30-04-2024 09:00:00,26.2028636,91.70046436,PM10,33,100,58
India,Assam,Guwahati,"IITG, Guwahati - PCBA",30-04-2024 09:00:00,26.2028636,91.70046436,CO,9,12,9
India,Assam,Guwahati,"LGBI Airport, Guwahati - PCBA",30-04-2024 09:00:00,26.10887,91.589544,PM10,35,197,93
India,Assam,Guwahati,"LGBI Airport, Guwahati - PCBA",30-04-2024 09:00:00,26.10887,91.589544,CO,46,62,49
India,Assam,Guwahati,"Pan Bazaar, Guwahati - PCBA",30-04-2024 09:00:00,26.187500,91.744194,PM10,28,82,52
India,Assam,Guwahati,"Pan Bazaar, Guwahati - PCBA",30-04-2024 09:00:00,26.187500,91.744194,SO2,35,59,44
India,Assam,Guwahati,"Railway Colony, Guwahati - PCBA",30-04-2024 09:00:00,26.181742,91.78063,SO2,10,17,13
India,Assam,Nagaon,"Christianpatty, Nagaon - PCBA",30-04-2024 09:00:00,26.349082,92.68449,PM10,66,100,76
India,Assam,Nalbari,"Bata Chowk, Nalbari - PCBA",30-04-2024 09:00:00,26.446912,91.439057,SO2,10,13,11
India,Assam,Silchar,"Tarapur, Silchar - PCBA",30-04-2024 09:00:00,24.82827,92.79525,NO2,12,13,13
India,Assam,Silchar,"Tarapur, Silchar - PCBA",30-04-2024 09:00:00,24.82827,92.79525,OZONE,1,18,1
India,Assam,Sivasagar,"Girls College, Sivasagar - PCBA",30-04-2024 09:00:00,26.987634,94.636574,PM2.5,29,37,33
India,Assam,Sivasagar,"Girls College, Sivasagar - PCBA",30-04-2024 09:00:00,26.987634,94.636574,NO2,9,15,12
India,Bihar,Araria,"Kharahiya Basti, Araria - BSPCB",30-04-2024 09:00:00,26.146529,87.454184,CO,22,30,29
India,Bihar,Aurangabad,"Gurdeo Nagar, Aurangabad - BSPCB",30-04-2024 09:00:00,24.75746,84.366208,CO,1,20,10
India,Bihar,Bettiah,"Kamalnath Nagar, Bettiah - BSPCB",30-04-2024 09:00:00,26.80365,84.51954,PM10,98,226,133
India,Bihar,Bhagalpur,"DM Office_Kachari Chowk, Bhagalpur - BSPCB",30-04-2024 09:00:00,25.251013,86.989001,SO2,16,17,16
India,Bihar,Buxar,"Charitra Van, Buxar - BSPCB (Formerly known as Central Jail)",30-04-2024 09:00:00,25.567520,83.966379,PM2.5,73,403,237
India,Bihar,Buxar,"Charitra Van, Buxar - BSPCB (Formerly known as Central Jail)",30-04-2024 09:00:00,25.567520,83.966379,PM10,137,288,204
India,Bihar,Buxar,"Charitra Van, Buxar - BSPCB (Formerly known as Central Jail)",30-04-2024 09:00:00,25.567520,83.966379,NO2,1,1,1
India,Bihar,Buxar,"Charitra Van, Buxar - BSPCB (Formerly known as Central Jail)",30-04-2024 09:00:00,25.567520,83.966379,OZONE,4,246,57
India,Bihar,Gaya,"Collectorate, Gaya - BSPCB",30-04-2024 09:00:00,24.7955,84.9994,NO2,1,3,2
India,Bihar,Gaya,"Collectorate, Gaya - BSPCB",30-04-2024 09:00:00,24.7955,84.9994,SO2,7,29,19
India,Bihar,Gaya,"Collectorate, Gaya - BSPCB",30-04-2024 09:00:00,24.7955,84.9994,CO,26,63,39
India,Bihar,Gaya,"Kareemganj, Gaya - BSPCB",30-04-2024 09:00:00,24.792403,84.992416,PM10,51,145,85
India,Bihar,Gaya,"Kareemganj, Gaya - BSPCB",30-04-2024 09:00:00,24.792403,84.992416,NO2,30,31,30
India,Bihar,Gaya,"Kareemganj, Gaya - BSPCB",30-04-2024 09:00:00,24.792403,84.992416,CO,10,24,22
India,Bihar,Gaya,"SFTI Kusdihra, Gaya - BSPCB",30-04-2024 09:00:00,24.762518,84.982348,OZONE,11,112,26
India,Bihar,Hajipur,"Industrial Area, Hajipur - BSPCB",30-04-2024 09:00:00,25.697189,85.245900,PM10,192,410,293
India,Bihar,Hajipur,"Industrial Area, Hajipur - BSPCB",30-04-2024 09:00:00,25.697189,85.245900,NO2,39,72,62
India,Bihar,Hajipur,"Industrial Area, Hajipur - BSPCB",30-04-2024 09:00:00,25.697189,85.245900,NH3,6,9,8
India,Bihar,Katihar,"Mirchaibari, Katihar - BSPCB",30-04-2024 09:00:00,25.560083,87.553265,CO,44,68,60
India,Bihar,Katihar,"Mirchaibari, Katihar - BSPCB",30-04-2024 09:00:00,25.560083,87.553265,OZONE,12,23,13
India,Bihar,Motihari,"Gandak Colony, Motihari - BSPCB",30-04-2024 09:00:00,26.63086,84.90051,CO,2,46,24
India,Bihar,Muzaffarpur,"MIT-Daudpur Kothi, Muzaffarpur - BSPCB",30-04-2024 09:00:00,26.1403345,85.3650192,PM2.5,67,423,108
India,Bihar,Muzaffarpur,"MIT-Daudpur Kothi, Muzaffarpur - BSPCB",30-04-2024 09:00:00,26.1403345,85.3650192,PM10,91,296,159
India,Bihar,Patna,"DRM Office Danapur, Patna - BSPCB",30-04-2024 09:00:00,25.586562,85.043586,NO2,7,75,40
India,Bihar,Patna,"DRM Office Danapur, Patna - BSPCB",30-04-2024 09:00:00,25.586562,85.043586,OZONE,32,59,38
India,Bihar,Patna,"Govt. High School Shikarpur, Patna - BSPCB",30-04-2024 09:00:00,25.592539,85.227158,PM2.5,198,343,272
India,Bihar,Patna,"Govt. High School Shikarpur, Patna - BSPCB",30-04-2024 09:00:00,25.592539,85.227158,OZONE,1,59,5
India,Bihar,Patna,"Muradpur, Patna - BSPCB",30-04-2024 09:00:00,25.619651,85.147382,PM2.5,257,352,308
India,Bihar,Patna,"Muradpur, Patna - BSPCB",30-04-2024 09:00:00,25.619651,85.147382,CO,13,105,81
India,Bihar,Patna,"Samanpura, Patna - BSPCB",30-04-2024 09:00:00,25.596727,85.085624,NH3,11,20,15
India,Bihar,Patna,"Samanpura, Patna - BSPCB",30-04-2024 09:00:00,25.596727,85.085624,SO2,7,21,12
India,Bihar,Purnia,"Mariam Nagar, Purnia - BSPCB",30-04-2024 09:00:00,25.366336,87.117468,NO2,4,12,8
India,Bihar,Samastipur,"DM Office_Kasipur, Samastipur - BSPCB",30-04-2024 09:00:00,25.859655,85.77944,OZONE,16,61,28
India,Bihar,Sasaram,"Dada Peer, Sasaram - BSPCB",30-04-2024 09:00:00,24.952822,84.002396,PM10,49,141,92
India,Bihar,Sasaram,"Dada Peer, Sasaram - BSPCB",30-04-2024 09:00:00,24.952822,84.002396,NH3,6,24,14
India,Bihar,Sasaram,"Dada Peer, Sasaram - BSPCB",30-04-2024 09:00:00,24.952822,84.002396,SO2,21,23,23
India,Chandigarh,Chandigarh,"Sector 22, Chandigarh - CPCC",30-04-2024 09:00:00,30.735567,76.775714,NO2,15,84,30
India,Chandigarh,Chandigarh,"Sector-53, Chandigarh - CPCC",30-04-2024 09:00:00,30.719859,76.738637,PM10,45,124,75
India,Chandigarh,Chandigarh,"Sector-53, Chandigarh - CPCC",30-04-2024 09:00:00,30.719859,76.738637,CO,32,86,39
India,Chhattisgarh,Bhilai,"32Bungalows, Bhilai - CECB",30-04-2024 09:00:00,21.194815,81.314770,SO2,15,24,18
India,Chhattisgarh,Bhilai,"Civic Center, Bhilai - Bhilai Steel Plant",30-04-2024 09:00:00,21.185571,81.343175,NH3,3,5,4
India,Chhattisgarh,Bhilai,"Hathkhoj, Bhilai - CECB",30-04-2024 09:00:00,21.224231,81.408350,NO2,9,45,24
India,Chhattisgarh,Bhilai,"Hathkhoj, Bhilai - CECB",30-04-2024 09:00:00,21.224231,81.408350,OZONE,17,32,23
India,Chhattisgarh,Bilaspur,"Mangala, Bilaspur - NTPC",30-04-2024 09:00:00,22.08815,82.13737,PM2.5,34,74,57
India,Chhattisgarh,Bilaspur,"Mangala, Bilaspur - NTPC",30-04-2024 09:00:00,22.08815,82.13737,NO2,15,16,15
India,Chhattisgarh,Bilaspur,"Mangala, Bilaspur - NTPC",30-04-2024 09:00:00,22.08815,82.13737,SO2,NA,NA,NA
India,Chhattisgarh,Chhal,"Nawapara SECL Colony, Chhal - CECB",30-04-2024 09:00:00,22.118125,83.140608,NO2,1,8,3
India,Chhattisgarh,Korba,"Rampur, Korba - CECB",30-04-2024 09:00:00,22.368195,82.746431,PM2.5,30,52,43
India,Chhattisgarh,Korba,"Rampur, Korba - CECB",30-04-2024 09:00:00,22.368195,82.746431,PM10,48,83,63
India,Chhattisgarh,Korba,"Rampur, Korba - CECB",30-04-2024 09:00:00,22.368195,82.746431,NH3,1,1,1
India,Chhattisgarh,Kunjemura,"OP Jindal School, Kunjemura - CECB",30-04-2024 09:00:00,22.126650,83.483212,NO2,13,126,77
India,Chhattisgarh,Raipur,"AIIMS, Raipur - CECB",30-04-2024 09:00:00,21.258815,81.578979,PM2.5,15,65,44
India,Chhattisgarh,Raipur,"AIIMS, Raipur - CECB",30-04-2024 09:00:00,21.258815,81.578979,NO2,15,38,22
India,Chhattisgarh,Raipur,"AIIMS, Raipur - CECB",30-04-2024 09:00:00,21.258815,81.578979,CO,24,40,25
India,Chhattisgarh,Raipur,"Bhatagaon New ISBT, Raipur - CECB",30-04-2024 09:00:00,21.219665,81.630094,NO2,19,78,35
India,Chhattisgarh,Raipur,"Bhatagaon New ISBT, Raipur - CECB",30-04-2024 09:00:00,21.219665,81.630094,SO2,1,6,3
India,Chhattisgarh,Raipur,"Bhatagaon New ISBT, Raipur - CECB",30-04-2024 09:00:00,21.219665,81.630094,OZONE,4,22,4
India,Chhattisgarh,Raipur,"Krishak Nagar, Raipur - CECB",30-04-2024 09:00:00,21.237755,81.705301,SO2,13,41,21
India,Delhi,Delhi,"Alipur, Delhi - DPCC",30-04-2024 09:00:00,28.815329,77.153010,OZONE,14,149,29
India,Delhi,Delhi,"Anand Vihar, Delhi - DPCC",30-04-2024 09:00:00,28.647622,77.3158090,NO2,37,106,75
India,Delhi,Delhi,"Anand Vihar, Delhi - DPCC",30-04-2024 09:00:00,28.647622,77.3158090,NH3,5,14,9
India,Delhi,Delhi,"Ashok Vihar, Delhi - DPCC",30-04-2024 09:00:00,28.695381,77.181665,PM2.5,46,280,97
India,Delhi,Delhi,"Aya Nagar, Delhi - IMD",30-04-2024 09:00:00,28.4706914,77.1099364,CO,52,94,58
India,Delhi,Delhi,"Bawana, Delhi - DPCC",30-04-2024 09:00:00,28.776200,77.051074,PM2.5,23,365,143
India,Delhi,Delhi,"Bawana, Delhi - DPCC",30-04-2024 09:00:00,28.776200,77.051074,NO2,16,38,26
India,Delhi,Delhi,"Bawana, Delhi - DPCC",30-04-2024 09:00:00,28.776200,77.051074,NH3,5,8,6
India,Delhi,Delhi,"Bawana, Delhi - DPCC",30-04-2024 09:00:00,28.776200,77.051074,CO,4,35,27
India,Delhi,Delhi,"Bawana, Delhi - DPCC",30-04-2024 09:00:00,28.776200,77.051074,OZONE,10,167,29
India,Delhi,Delhi,"Dr. Karni Singh Shooting Range, Delhi - DPCC",30-04-2024 09:00:00,28.498571,77.264840,NO2,42,115,61
India,Delhi,Delhi,"Dwarka-Sector 8, Delhi - DPCC ",30-04-2024 09:00:00,28.5710274,77.0719006,CO,40,82,53
India,Delhi,Delhi,"IHBAS, Dilshad Garden, Delhi - CPCB",30-04-2024 09:00:00,28.6811736,77.3025234,NO2,37,53,46
India,Delhi,Delhi,"IHBAS, Dilshad Garden, Delhi - CPCB",30-04-2024 09:00:00,28.6811736,77.3025234,NH3,8,10,10
India,Delhi,Delhi,"ITO, Delhi - CPCB",30-04-2024 09:00:00,28.628624,77.241060,PM2.5,59,311,101
India,Delhi,Delhi,"ITO, Delhi - CPCB",30-04-2024 09:00:00,28.628624,77.241060,NO2,1,113,61
India,Delhi,Delhi,"ITO, Delhi - CPCB",30-04-2024 09:00:00,28.628624,77.241060,OZONE,15,145,29
India,Delhi,Delhi,"Jawaharlal Nehru Stadium, Delhi - DPCC",30-04-2024 09:00:00,28.580280,77.233829,PM10,102,290,152
India,Delhi,Delhi,"Jawaharlal Nehru Stadium, Delhi - DPCC",30-04-2024 09:00:00,28.580280,77.233829,SO2,9,62,27
India,Delhi,Delhi,"Jawaharlal Nehru Stadium, Delhi - DPCC",30-04-2024 09:00:00,28.580280,77.233829,OZONE,20,236,53
India,Delhi,Delhi,"Lodhi Road, Delhi - IMD",30-04-2024 09:00:00,28.5918245,77.2273074,PM2.5,23,285,95
India,Delhi,Delhi,"Lodhi Road, Delhi - IMD",30-04-2024 09:00:00,28.5918245,77.2273074,CO,12,32,14
India,Delhi,Delhi,"Mundka, Delhi - DPCC",30-04-2024 09:00:00,28.684678,77.076574,PM2.5,47,354,141
India,Delhi,Delhi,"Mundka, Delhi - DPCC",30-04-2024 09:00:00,28.684678,77.076574,PM10,145,426,205
India,Delhi,Delhi,"Mundka, Delhi - DPCC",30-04-2024 09:00:00,28.684678,77.076574,NO2,19,43,31
India,Delhi,Delhi,"Mundka, Delhi - DPCC",30-04-2024 09:00:00,28.684678,77.076574,CO,36,57,48
India,Delhi,Delhi,"Najafgarh, Delhi - DPCC",30-04-2024 09:00:00,28.570173,76.933762,PM2.5,32,310,99
India,Delhi,Delhi,"Najafgarh, Delhi - DPCC",30-04-2024 09:00:00,28.570173,76.933762,OZONE,26,218,41
India,Delhi,Delhi,"Narela, Delhi - DPCC",30-04-2024 09:00:00,28.822836,77.101981,NH3,5,11,7
India,Delhi,Delhi,"Narela, Delhi - DPCC",30-04-2024 09:00:00,28.822836,77.101981,CO,17,49,40
India,Delhi,Delhi,"Nehru Nagar, Delhi - DPCC",30-04-2024 09:00:00,28.567890,77.250515,PM10,94,402,169
India,Delhi,Delhi,"North Campus, DU, Delhi - IMD",30-04-2024 09:00:00,28.6573814,77.1585447,PM10,NA,NA,NA
India,Delhi,Delhi,"Okhla Phase-2, Delhi - DPCC",30-04-2024 09:00:00,28.530785,77.271255,NO2,38,87,58
India,Delhi,Delhi,"Patparganj, Delhi - DPCC",30-04-2024 09:00:00,28.623763,77.287209,OZONE,10,177,30
India,Delhi,Delhi,"Punjabi Bagh, Delhi - DPCC",30-04-2024 09:00:00,28.674045,77.131023,PM10,133,299,177
India,Delhi,Delhi,"Pusa, Delhi - DPCC",30-04-2024 09:00:00,28.639652,77.146275,NO2,27,84,52
India,Delhi,Delhi,"Pusa, Delhi - DPCC",30-04-2024 09:00:00,28.639652,77.146275,CO,7,50,34
India,Delhi,Delhi,"Pusa, Delhi - IMD",30-04-2024 09:00:00,28.636110,77.173332,PM10,150,366,206
India,Delhi,Delhi,"R K Puram, Delhi - DPCC",30-04-2024 09:00:00,28.563262,77.186937,SO2,24,62,39
India,Delhi,Delhi,"R K Puram, Delhi - DPCC",30-04-2024 09:00:00,28.563262,77.186937,OZONE,15,215,39
India,Delhi,Delhi,"Rohini, Delhi - DPCC",30-04-2024 09:00:00,28.732528,77.119920,OZONE,12,222,32
India,Delhi,Delhi,"Shadipur, Delhi - CPCB",30-04-2024 09:00:00,28.6514781,77.1473105,CO,11,107,71
India,Delhi,Delhi,"Shadipur, Delhi - CPCB",30-04-2024 09:00:00,28.6514781,77.1473105,OZONE,15,49,22
India,Delhi,Delhi,"Sirifort, Delhi - CPCB",30-04-2024 09:00:00,28.5504249,77.2159377,NO2,55,70,60
India,Delhi,Delhi,"Sirifort, Delhi - CPCB",30-04-2024 09:00:00,28.5504249,77.2159377,SO2,8,15,11
India,Delhi,Delhi,"Sirifort, Delhi - CPCB",30-04-2024 09:00:00,28.5504249,77.2159377,OZONE,13,85,17
India,Delhi,Delhi,"Sonia Vihar, Delhi - DPCC",30-04-2024 09:00:00,28.710508,77.249485,NO2,14,64,29
India,Delhi,Delhi,"Sonia Vihar, Delhi - DPCC",30-04-2024 09:00:00,28.710508,77.249485,NH3,5,7,5
India,Delhi,Delhi,"Sonia Vihar, Delhi - DPCC",30-04-2024 09:00:00,28.710508,77.249485,SO2,12,53,24
India,Delhi,Delhi,"Sri Aurobindo Marg, Delhi - DPCC",30-04-2024 09:00:00,28.531346,77.190156,NO2,20,63,39
India,Delhi,Delhi,"Vivek Vihar, Delhi - DPCC",30-04-2024 09:00:00,28.672342,77.315260,SO2,31,70,44
India,Delhi,Delhi,"Wazirpur, Delhi - DPCC",30-04-2024 09:00:00,28.699793,77.165453,NH3,12,14,13
India,Gujarat,Ahmedabad,"Chandkheda, Ahmedabad - IITM",30-04-2024 09:00:00,23.107969,72.574648,SO2,2,15,7
India,Gujarat,Ahmedabad,"Chandkheda, Ahmedabad - IITM",30-04-2024 09:00:00,23.107969,72.574648,OZONE,16,43,25
India,Gujarat,Ahmedabad,"Gyaspur, Ahmedabad - IITM",30-04-2024 09:00:00,22.977134,72.553024,OZONE,6,31,15
India,Gujarat,Ahmedabad,"Maninagar, Ahmedabad - GPCB",30-04-2024 09:00:00,23.002657,72.591912,PM2.5,15,55,32
India,Gujarat,Ahmedabad,"Maninagar, Ahmedabad - GPCB",30-04-2024 09:00:00,23.002657,72.591912,PM10,53,105,83
India,Gujarat,Ahmedabad,"Maninagar, Ahmedabad - GPCB",30-04-2024 09:00:00,23.002657,72.591912,NO2,22,71,36
India,Gujarat,Ahmedabad,"Maninagar, Ahmedabad - GPCB",30-04-2024 09:00:00,23.002657,72.591912,OZONE,14,38,23
India,Gujarat,Ahmedabad,"Rakhial, Ahmedabad - IITM",30-04-2024 09:00:00,23.016834,72.625775,NO2,67,101,87
India,Gujarat,Ahmedabad,"Rakhial, Ahmedabad - IITM",30-04-2024 09:00:00,23.016834,72.625775,CO,11,75,24
India,Gujarat,Ahmedabad,"Rakhial, Ahmedabad - IITM",30-04-2024 09:00:00,23.016834,72.625775,OZONE,4,39,21
India,Gujarat,Ahmedabad,"SAC ISRO Satellite, Ahmedabad - IITM",30-04-2024 09:00:00,23.023389,72.515201,CO,38,41,40
India,Gujarat,Gandhinagar,"Sector-10, Gandhinagar - GPCB",30-04-2024 09:00:00,23.221714,72.654328,OZONE,7,39,16
India,Gujarat,Nandesari,"GIDC, Nandesari - Nandesari Ind. Association",30-04-2024 09:00:00,22.410802,73.097923,PM2.5,40,428,238
India,Gujarat,Nandesari,"GIDC, Nandesari - Nandesari Ind. Association",30-04-2024 09:00:00,22.410802,73.097923,SO2,NA,NA,NA
India,Gujarat,Surat,"Science Center, Surat - SMC",30-04-2024 09:00:00,21.170046,72.795405,PM10,NA,NA,NA
India,Gujarat,Vapi,"Phase-1 GIDC, Vapi - GPCB",30-04-2024 09:00:00,20.362421,72.918013,PM2.5,37,199,67
India,Gujarat,Vapi,"Phase-1 GIDC, Vapi - GPCB",30-04-2024 09:00:00,20.362421,72.918013,PM10,57,168,93
India,Gujarat,Vapi,"Phase-1 GIDC, Vapi - GPCB",30-04-2024 09:00:00,20.362421,72.918013,NO2,6,7,6
India,Gujarat,Vapi,"Phase-1 GIDC, Vapi - GPCB",30-04-2024 09:00:00,20.362421,72.918013,OZONE,88,112,105
India,Haryana,Ambala,"Patti Mehar, Ambala - HSPCB",30-04-2024 09:00:00,30.379589,76.778328,NO2,3,4,4
India,Haryana,Bahadurgarh,"Arya Nagar, Bahadurgarh - HSPCB",30-04-2024 09:00:00,28.6701,76.9254,OZONE,32,42,38
India,Haryana,Ballabgarh,"Nathu Colony, Ballabgarh - HSPCB",30-04-2024 09:00:00,28.3419248,77.319699,CO,6,90,35
India,Haryana,Bhiwani,"H.B. Colony, Bhiwani - HSPCB",30-04-2024 09:00:00,28.806223,76.141105,PM2.5,48,98,77
India,Haryana,Charkhi Dadri,"Mini Secretariat, Charkhi Dadri - HSPCB",30-04-2024 09:00:00,28.593883,76.270653,PM10,86,154,112
India,Haryana,Dharuhera,"Municipal Corporation Office, Dharuhera -  HSPCB",30-04-2024 09:00:00,28.206800,76.799700,NO2,NA,NA,NA
India,Haryana,Faridabad,"Sector 30, Faridabad - HSPCB",30-04-2024 09:00:00,28.4417,77.3217,SO2,NA,NA,NA
India,Haryana,Fatehabad,"Huda Sector, Fatehabad - HSPCB",30-04-2024 09:00:00,29.503664,75.467934,SO2,10,11,11
India,Haryana,Gurugram,"Sector-51, Gurugram - HSPCB",30-04-2024 09:00:00,28.4227,77.0667,NO2,13,29,23
India,Haryana,Gurugram,"Sector-51, Gurugram - HSPCB",30-04-2024 09:00:00,28.4227,77.0667,CO,26,96,29
India,Haryana,Gurugram,"Teri Gram, Gurugram - HSPCB",30-04-2024 09:00:00,28.4275,77.1465,SO2,2,7,4
India,Haryana,Gurugram,"Vikas Sadan, Gurugram - HSPCB",30-04-2024 09:00:00,28.4501238,77.0263051,SO2,27,66,35
India,Haryana,Hisar,"Urban Estate-II, Hisar - HSPCB",30-04-2024 09:00:00,29.140560,75.744941,NH3,8,12,10
India,Haryana,Jind,"Police Lines, Jind - HSPCB",30-04-2024 09:00:00,29.307814,76.337619,PM10,62,107,87
India,Haryana,Jind,"Police Lines, Jind - HSPCB",30-04-2024 09:00:00,29.307814,76.337619,OZONE,13,39,15
India,Haryana,Kaithal,"Rishi Nagar, Kaithal - HSPCB",30-04-2024 09:00:00,29.8006,76.4155,CO,12,32,15
India,Haryana,Kaithal,"Rishi Nagar, Kaithal - HSPCB",30-04-2024 09:00:00,29.8006,76.4155,OZONE,8,14,9
India,Haryana,Karnal,"Sector-12, Karnal - HSPCB",30-04-2024 09:00:00,29.695300,77.002700,NH3,10,12,11
India,Haryana,Karnal,"Sector-12, Karnal - HSPCB",30-04-2024 09:00:00,29.695300,77.002700,OZONE,30,34,32
India,Haryana,Kurukshetra,"Sector-7, Kurukshetra - HSPCB",30-04-2024 09:00:00,29.966942,76.875879,SO2,2,3,2
India,Haryana,Mandikhera,"General Hospital, Mandikhera - HSPCB",30-04-2024 09:00:00,27.9002,76.9938,NH3,17,20,18
India,Haryana,Mandikhera,"General Hospital, Mandikhera - HSPCB",30-04-2024 09:00:00,27.9002,76.9938,OZONE,21,32,27
India,Haryana,Manesar,"Sector-2 IMT, Manesar - HSPCB",30-04-2024 09:00:00,28.360699,76.936090,OZONE,7,183,22
India,Haryana,Narnaul,"Shastri Nagar, Narnaul - HSPCB",30-04-2024 09:00:00,28.060249,76.113115,OZONE,29,48,38
India,Haryana,Palwal,"Shyam Nagar, Palwal - HSPCB",30-04-2024 09:00:00,28.1485564,77.3320667,SO2,2,109,15
India,Haryana,Panchkula,"Sector-6, Panchkula - HSPCB ",30-04-2024 09:00:00,30.7057778,76.8531805555555,OZONE,30,45,36
India,Haryana,Panipat,"Sector-18, Panipat - HSPCB",30-04-2024 09:00:00,29.497973,76.993331,NO2,31,32,31
India,Haryana,Panipat,"Sector-18, Panipat - HSPCB",30-04-2024 09:00:00,29.497973,76.993331,NH3,2,3,3
India,Haryana,Sirsa,"F-Block, Sirsa - HSPCB",30-04-2024 09:00:00,29.536400,75.015800,PM10,22,162,75
India,Haryana,Sirsa,"F-Block, Sirsa - HSPCB",30-04-2024 09:00:00,29.536400,75.015800,NH3,12,14,13
India,Haryana,Sirsa,"F-Block, Sirsa - HSPCB",30-04-2024 09:00:00,29.536400,75.015800,OZONE,48,104,67
India,Haryana,Sonipat,"Murthal, Sonipat - HSPCB",30-04-2024 09:00:00,29.027200,77.062100,PM10,80,82,81
India,Haryana,Sonipat,"Murthal, Sonipat - HSPCB",30-04-2024 09:00:00,29.027200,77.062100,NO2,37,44,40
India,Haryana,Sonipat,"Murthal, Sonipat - HSPCB",30-04-2024 09:00:00,29.027200,77.062100,NH3,7,10,9
India,Haryana,Sonipat,"Murthal, Sonipat - HSPCB",30-04-2024 09:00:00,29.027200,77.062100,SO2,12,29,20
India,Haryana,Sonipat,"Murthal, Sonipat - HSPCB",30-04-2024 09:00:00,29.027200,77.062100,OZONE,17,35,20
India,Haryana,Yamuna Nagar,"Gobind Pura, Yamuna Nagar - HSPCB",30-04-2024 09:00:00,30.1480566,77.2893471,SO2,2,107,17
India,Jharkhand,Dhanbad,"Kalakusuma, Dhanbad - DMC",30-04-2024 09:00:00,23.811548,86.481238,PM2.5,NA,NA,NA
India,Jharkhand,Dhanbad,"Kalakusuma, Dhanbad - DMC",30-04-2024 09:00:00,23.811548,86.481238,SO2,NA,NA,NA
India,Jharkhand,Dhanbad,"Sardar Patel Nagar, Dhanbad - JSPCB",30-04-2024 09:00:00,23.80569,86.44268,PM2.5,NA,NA,NA
India,Jharkhand,Dhanbad,"Sardar Patel Nagar, Dhanbad - JSPCB",30-04-2024 09:00:00,23.80569,86.44268,PM10,NA,NA,NA
India,Jharkhand,Dhanbad,"Sardar Patel Nagar, Dhanbad - JSPCB",30-04-2024 09:00:00,23.80569,86.44268,SO2,NA,NA,NA
India,Jharkhand,Pathardih,"Mohalbani Ghat, Pathardih - DMC",30-04-2024 09:00:00,23.669880,86.411725,CO,NA,NA,NA
India,Karnataka,Bagalkot,"Vidayagiri, Bagalkot - KSPCB",30-04-2024 09:00:00,16.172806,75.659694,SO2,9,10,9
India,Karnataka,Bagalkot,"Vidayagiri, Bagalkot - KSPCB",30-04-2024 09:00:00,16.172806,75.659694,CO,12,50,37
India,Karnataka,Belgaum,"Ramteerth Nagar, Belgaum - KSPCB",30-04-2024 09:00:00,15.888653,74.541751,NO2,2,96,38
India,Karnataka,Belgaum,"Ramteerth Nagar, Belgaum - KSPCB",30-04-2024 09:00:00,15.888653,74.541751,SO2,8,9,9
India,Karnataka,Belgaum,"Ramteerth Nagar, Belgaum - KSPCB",30-04-2024 09:00:00,15.888653,74.541751,CO,22,42,40
India,Karnataka,Bengaluru,"BTM Layout, Bengaluru - CPCB",30-04-2024 09:00:00,12.9135218,77.5950804,PM10,29,66,47
India,Karnataka,Bengaluru,"BTM Layout, Bengaluru - CPCB",30-04-2024 09:00:00,12.9135218,77.5950804,OZONE,3,92,6
India,Karnataka,Bengaluru,"Bapuji Nagar, Bengaluru - KSPCB",30-04-2024 09:00:00,12.951913,77.539784,PM10,33,94,65
India,Karnataka,Bengaluru,"Hebbal, Bengaluru - KSPCB",30-04-2024 09:00:00,13.029152,77.585901,CO,9,49,16
India,Karnataka,Bengaluru,"Jayanagar 5th Block, Bengaluru - KSPCB",30-04-2024 09:00:00,12.920984,77.584908,NO2,NA,NA,NA
India,Karnataka,Bengaluru,"Kasturi Nagar, Bengaluru - KSPCB",30-04-2024 09:00:00,13.003872,77.664217,PM2.5,47,260,88
India,Karnataka,Bengaluru,"Kasturi Nagar, Bengaluru - KSPCB",30-04-2024 09:00:00,13.003872,77.664217,PM10,60,183,100
India,Karnataka,Bengaluru,"Peenya, Bengaluru - CPCB",30-04-2024 09:00:00,13.0270199,77.494094,NH3,3,5,4
India,Karnataka,Bengaluru,"Peenya, Bengaluru - CPCB",30-04-2024 09:00:00,13.0270199,77.494094,SO2,9,12,10
India,Karnataka,Bengaluru,"RVCE-Mailasandra, Bengaluru - KSPCB",30-04-2024 09:00:00,12.921418,77.502466,CO,34,74,41
India,Karnataka,Bengaluru,"Shivapura_Peenya, Bengaluru - KSPCB",30-04-2024 09:00:00,13.0246342,77.5080115,PM10,33,104,62
India,Karnataka,Bengaluru,"Silk Board, Bengaluru - KSPCB",30-04-2024 09:00:00,12.917348,77.622813,NO2,7,17,13
