country,state,city,station,last_update,latitude,longitude,pollutant_id,pollutant_min,pollutant_max,pollutant_avg
India,Andhra_Pradesh,Amaravati,"Secretariat, Amaravati - APPCB",03-05-2024 03:00:00,16.5150833,80.5181667,PM2.5,2,69,29
India,Andhra_Pradesh,Amaravati,"Secretariat, Amaravati - APPCB",03-05-2024 03:00:00,16.5150833,80.5181667,NH3,3,4,4
India,Andhra_Pradesh,Amaravati,"Secretariat, Amaravati - APPCB",03-05-2024 03:00:00,16.5150833,80.5181667,CO,2,30,20
India,Andhra_Pradesh,Amaravati,"Secretariat, Amaravati - APPCB",03-05-2024 03:00:00,16.5150833,80.5181667,OZONE,12,68,30
India,Andhra_Pradesh,Anantapur,"Gulzarpet, Anantapur - APPCB",03-05-2024 03:00:00,14.675886,77.593027,PM2.5,68,78,74
India,Andhra_Pradesh,Anantapur,"Gulzarpet, Anantapur - APPCB",03-05-2024 03:00:00,14.675886,77.593027,NH3,4,4,4
India,Andhra_Pradesh,Chittoor,"Gangineni Cheruvu, Chittoor - APPCB",03-05-2024 03:00:00,13.204880,79.097889,NH3,NA,NA,NA
India,Andhra_Pradesh,Kadapa,"Yerramukkapalli, Kadapa - APPCB",03-05-2024 03:00:00,14.465052,78.824187,NO2,12,13,12
India,Andhra_Pradesh,Kadapa,"Yerramukkapalli, Kadapa - APPCB",03-05-2024 03:00:00,14.465052,78.824187,CO,2,44,20
India,Andhra_Pradesh,Tirupati,"Tirumala, Tirupati - APPCB",03-05-2024 03:00:00,13.67,79.35,OZONE,21,64,36
India,Andhra_Pradesh,Tirupati,"Vaikuntapuram, Tirupati - APPCB",03-05-2024 03:00:00,13.615387,79.409230,NO2,NA,NA,NA
India,Andhra_Pradesh,Vijayawada,"HB Colony, Vijayawada - APPCB",03-05-2024 03:00:00,16.536107,80.594233,SO2,5,8,6
India,Andhra_Pradesh,Vijayawada,"Kanuru, Vijayawada - APPCB",03-05-2024 03:00:00,16.486692,80.699436,PM10,51,83,64
India,Andhra_Pradesh,Vijayawada,"Kanuru, Vijayawada - APPCB",03-05-2024 03:00:00,16.486692,80.699436,NO2,14,76,33
India,Andhra_Pradesh,Vijayawada,"Kanuru, Vijayawada - APPCB",03-05-2024 03:00:00,16.486692,80.699436,OZONE,28,28,28
India,Andhra_Pradesh,Vijayawada,"Rajiv Gandhi Park, Vijayawada - APPCB",03-05-2024 03:00:00,16.509717,80.612222,PM10,31,105,61
India,Andhra_Pradesh,Vijayawada,"Rajiv Gandhi Park, Vijayawada - APPCB",03-05-2024 03:00:00,16.509717,80.612222,NH3,1,3,2
India,Andhra_Pradesh,Vijayawada,"Rajiv Nagar, Vijayawada - APPCB",03-05-2024 03:00:00,16.554731,80.649110,PM2.5,42,61,46
India,Andhra_Pradesh,Visakhapatnam,"GVM Corporation, Visakhapatnam - APPCB",03-05-2024 03:00:00,17.72,83.3,PM2.5,12,56,37
India,Andhra_Pradesh,Visakhapatnam,"GVM Corporation, Visakhapatnam - APPCB",03-05-2024 03:00:00,17.72,83.3,CO,8,62,33
India,Arunachal_Pradesh,Naharlagun,"Naharlagun, Naharlagun - APSPCB",03-05-2024 03:00:00,27.103358,93.679645,PM10,37,96,62
India,Arunachal_Pradesh,Naharlagun,"Naharlagun, Naharlagun - APSPCB",03-05-2024 03:00:00,27.103358,93.679645,SO2,4,4,4
India,Arunachal_Pradesh,Naharlagun,"Naharlagun, Naharlagun - APSPCB",03-05-2024 03:00:00,27.103358,93.679645,CO,12,24,20
India,Assam,Byrnihat,"Central Academy for SFS, Byrnihat - PCBA",03-05-2024 03:00:00,26.071318,91.87488,PM10,113,500,217
India,Assam,Byrnihat,"Central Academy for SFS, Byrnihat - PCBA",03-05-2024 03:00:00,26.071318,91.87488,NO2,44,93,71
India,Assam,Guwahati,"LGBI Airport, Guwahati - PCBA",03-05-2024 03:00:00,26.10887,91.589544,PM10,110,500,185
India,Assam,Guwahati,"LGBI Airport, Guwahati - PCBA",03-05-2024 03:00:00,26.10887,91.589544,SO2,5,13,10
India,Assam,Nagaon,"Christianpatty, Nagaon - PCBA",03-05-2024 03:00:00,26.349082,92.68449,NH3,2,6,3
India,Assam,Nagaon,"Christianpatty, Nagaon - PCBA",03-05-2024 03:00:00,26.349082,92.68449,SO2,2,29,13
India,Assam,Silchar,"Tarapur, Silchar - PCBA",03-05-2024 03:00:00,24.82827,92.79525,NO2,13,13,13
India,Assam,Silchar,"Tarapur, Silchar - PCBA",03-05-2024 03:00:00,24.82827,92.79525,SO2,7,15,9
India,Assam,Sivasagar,"Girls College, Sivasagar - PCBA",03-05-2024 03:00:00,26.987634,94.636574,NO2,9,19,13
India,Assam,Sivasagar,"Girls College, Sivasagar - PCBA",03-05-2024 03:00:00,26.987634,94.636574,NH3,1,2,2
India,Assam,Sivasagar,"Girls College, Sivasagar - PCBA",03-05-2024 03:00:00,26.987634,94.636574,OZONE,1,20,6
India,Bihar,Araria,"Kharahiya Basti, Araria - BSPCB",03-05-2024 03:00:00,26.146529,87.454184,PM10,102,173,140
India,Bihar,Araria,"Kharahiya Basti, Araria - BSPCB",03-05-2024 03:00:00,26.146529,87.454184,NO2,3,11,8
India,Bihar,Arrah,"New DM Office, Arrah - BSPCB",03-05-2024 03:00:00,25.5626095,84.663264,SO2,NA,NA,NA
India,Bihar,Arrah,"New DM Office, Arrah - BSPCB",03-05-2024 03:00:00,25.5626095,84.663264,CO,NA,NA,NA
India,Bihar,Arrah,"New DM Office, Arrah - BSPCB",03-05-2024 03:00:00,25.5626095,84.663264,OZONE,NA,NA,NA
India,Bihar,Aurangabad,"Gurdeo Nagar, Aurangabad - BSPCB",03-05-2024 03:00:00,24.75746,84.366208,CO,4,28,17
India,Bihar,Bhagalpur,"DM Office_Kachari Chowk, Bhagalpur - BSPCB",03-05-2024 03:00:00,25.251013,86.989001,NO2,43,111,81
India,Bihar,Bhagalpur,"Mayaganj, Bhagalpur - BSPCB",03-05-2024 03:00:00,25.265194,87.012947,PM2.5,47,153,81
India,Bihar,Bhagalpur,"Mayaganj, Bhagalpur - BSPCB",03-05-2024 03:00:00,25.265194,87.012947,CO,8,10,9
India,Bihar,Bihar Sharif,"D M Colony, Bihar Sharif - BSPCB",03-05-2024 03:00:00,25.204762,85.514960,NH3,2,2,2
India,Bihar,Buxar,"Charitra Van, Buxar - BSPCB (Formerly known as Central Jail)",03-05-2024 03:00:00,25.567520,83.966379,PM2.5,NA,NA,NA
India,Bihar,Buxar,"Charitra Van, Buxar - BSPCB (Formerly known as Central Jail)",03-05-2024 03:00:00,25.567520,83.966379,PM10,NA,NA,NA
India,Bihar,Buxar,"Charitra Van, Buxar - BSPCB (Formerly known as Central Jail)",03-05-2024 03:00:00,25.567520,83.966379,CO,20,123,106
India,Bihar,Gaya,"Collectorate, Gaya - BSPCB",03-05-2024 03:00:00,24.7955,84.9994,NO2,1,4,2
India,Bihar,Gaya,"Kareemganj, Gaya - BSPCB",03-05-2024 03:00:00,24.792403,84.992416,NO2,22,31,30
India,Bihar,Gaya,"Kareemganj, Gaya - BSPCB",03-05-2024 03:00:00,24.792403,84.992416,NH3,2,5,3
India,Bihar,Gaya,"Kareemganj, Gaya - BSPCB",03-05-2024 03:00:00,24.792403,84.992416,CO,2,22,10
India,Bihar,Gaya,"SFTI Kusdihra, Gaya - BSPCB",03-05-2024 03:00:00,24.762518,84.982348,NO2,15,64,29
India,Bihar,Hajipur,"Industrial Area, Hajipur - BSPCB",03-05-2024 03:00:00,25.697189,85.245900,NH3,NA,NA,NA
India,Bihar,Katihar,"Mirchaibari, Katihar - BSPCB",03-05-2024 03:00:00,25.560083,87.553265,CO,44,62,62
India,Bihar,Kishanganj,"SDM Office_Khagra, Kishanganj - BSPCB",03-05-2024 03:00:00,26.0881305,87.93840336,SO2,NA,NA,NA
India,Bihar,Manguraha,"Forest Rest House, Manguraha - BSPCB",03-05-2024 03:00:00,27.308328,84.531742,CO,11,92,65
India,Bihar,Motihari,"Gandak Colony, Motihari - BSPCB",03-05-2024 03:00:00,26.63086,84.90051,NH3,NA,NA,NA
India,Bihar,Motihari,"Gandak Colony, Motihari - BSPCB",03-05-2024 03:00:00,26.63086,84.90051,CO,NA,NA,NA
India,Bihar,Munger,"Town Hall, Munger - BSPCB",03-05-2024 03:00:00,25.376776,86.471523,OZONE,26,159,30
India,Bihar,Muzaffarpur,"Buddha Colony, Muzaffarpur - BSPCB",03-05-2024 03:00:00,26.11442,85.39813,NO2,21,51,29
India,Bihar,Muzaffarpur,"MIT-Daudpur Kothi, Muzaffarpur - BSPCB",03-05-2024 03:00:00,26.1403345,85.3650192,CO,10,105,50
India,Bihar,Muzaffarpur,"Muzaffarpur Collectorate, Muzaffarpur - BSPCB",03-05-2024 03:00:00,26.1209,85.3647,SO2,8,13,10
India,Bihar,Muzaffarpur,"Muzaffarpur Collectorate, Muzaffarpur - BSPCB",03-05-2024 03:00:00,26.1209,85.3647,CO,27,60,31
India,Bihar,Patna,"DRM Office Danapur, Patna - BSPCB",03-05-2024 03:00:00,25.586562,85.043586,PM10,106,197,169
India,Bihar,Patna,"DRM Office Danapur, Patna - BSPCB",03-05-2024 03:00:00,25.586562,85.043586,SO2,6,41,21
India,Bihar,Patna,"Govt. High School Shikarpur, Patna - BSPCB",03-05-2024 03:00:00,25.592539,85.227158,SO2,9,11,10
India,Bihar,Patna,"IGSC Planetarium Complex, Patna - BSPCB",03-05-2024 03:00:00,25.610369,85.132568,PM2.5,80,441,181
India,Bihar,Patna,"IGSC Planetarium Complex, Patna - BSPCB",03-05-2024 03:00:00,25.610369,85.132568,CO,12,15,12
India,Bihar,Patna,"Muradpur, Patna - BSPCB",03-05-2024 03:00:00,25.619651,85.147382,PM10,207,466,282
India,Bihar,Patna,"Samanpura, Patna - BSPCB",03-05-2024 03:00:00,25.596727,85.085624,CO,29,128,87
India,Bihar,Purnia,"Mariam Nagar, Purnia - BSPCB",03-05-2024 03:00:00,25.366336,87.117468,PM10,52,63,57
India,Bihar,Purnia,"Mariam Nagar, Purnia - BSPCB",03-05-2024 03:00:00,25.366336,87.117468,NH3,6,8,7
India,Bihar,Purnia,"Mariam Nagar, Purnia - BSPCB",03-05-2024 03:00:00,25.366336,87.117468,CO,6,63,35
India,Bihar,Rajgir,"Dangi Tola, Rajgir - BSPCB",03-05-2024 03:00:00,25.03280,85.41948,PM2.5,33,177,81
India,Bihar,Saharsa,"Police Line, Saharsa - BSPCB",03-05-2024 03:00:00,25.892357,86.590325,PM2.5,NA,NA,NA
India,Bihar,Saharsa,"Police Line, Saharsa - BSPCB",03-05-2024 03:00:00,25.892357,86.590325,SO2,16,17,16
India,Bihar,Samastipur,"DM Office_Kasipur, Samastipur - BSPCB",03-05-2024 03:00:00,25.859655,85.77944,PM10,71,160,114
India,Chandigarh,Chandigarh,"Sector 22, Chandigarh - CPCC",03-05-2024 03:00:00,30.735567,76.775714,PM2.5,33,120,60
India,Chandigarh,Chandigarh,"Sector 22, Chandigarh - CPCC",03-05-2024 03:00:00,30.735567,76.775714,NO2,16,65,29
India,Chandigarh,Chandigarh,"Sector 22, Chandigarh - CPCC",03-05-2024 03:00:00,30.735567,76.775714,SO2,7,34,16
India,Chandigarh,Chandigarh,"Sector 22, Chandigarh - CPCC",03-05-2024 03:00:00,30.735567,76.775714,CO,22,56,42
India,Chandigarh,Chandigarh,"Sector-25, Chandigarh - CPCC",03-05-2024 03:00:00,30.751462,76.762879,PM2.5,41,154,74
India,Chandigarh,Chandigarh,"Sector-25, Chandigarh - CPCC",03-05-2024 03:00:00,30.751462,76.762879,PM10,56,153,96
India,Chandigarh,Chandigarh,"Sector-25, Chandigarh - CPCC",03-05-2024 03:00:00,30.751462,76.762879,NO2,3,26,11
India,Chandigarh,Chandigarh,"Sector-53, Chandigarh - CPCC",03-05-2024 03:00:00,30.719859,76.738637,SO2,12,45,19
India,Chhattisgarh,Bhilai,"32Bungalows, Bhilai - CECB",03-05-2024 03:00:00,21.194815,81.314770,PM2.5,44,71,58
India,Chhattisgarh,Bhilai,"Civic Center, Bhilai - Bhilai Steel Plant",03-05-2024 03:00:00,21.185571,81.343175,NO2,9,16,13
India,Chhattisgarh,Bhilai,"Civic Center, Bhilai - Bhilai Steel Plant",03-05-2024 03:00:00,21.185571,81.343175,NH3,3,6,4
India,Chhattisgarh,Bhilai,"Hathkhoj, Bhilai - CECB",03-05-2024 03:00:00,21.224231,81.408350,NH3,7,9,8
India,Chhattisgarh,Bhilai,"Hathkhoj, Bhilai - CECB",03-05-2024 03:00:00,21.224231,81.408350,SO2,14,94,36
India,Chhattisgarh,Bilaspur,"Mangala, Bilaspur - NTPC",03-05-2024 03:00:00,22.08815,82.13737,SO2,14,21,17
India,Chhattisgarh,Bilaspur,"Mangala, Bilaspur - NTPC",03-05-2024 03:00:00,22.08815,82.13737,CO,38,44,43
India,Chhattisgarh,Korba,"Rampur, Korba - CECB",03-05-2024 03:00:00,22.368195,82.746431,PM10,43,81,69
India,Chhattisgarh,Korba,"Urja Nagar, Korba - CECB",03-05-2024 03:00:00,22.348441,82.549611,PM2.5,6,56,11
India,Chhattisgarh,Korba,"Urja Nagar, Korba - CECB",03-05-2024 03:00:00,22.348441,82.549611,OZONE,1,7,1
India,Chhattisgarh,Kunjemura,"OP Jindal School, Kunjemura - CECB",03-05-2024 03:00:00,22.126650,83.483212,NO2,15,114,52
India,Chhattisgarh,Milupara,"Govt. Higher Secondary School, Milupara - CECB",03-05-2024 03:00:00,22.1910172,83.5197009,NO2,14,58,33
India,Chhattisgarh,Raipur,"AIIMS, Raipur - CECB",03-05-2024 03:00:00,21.258815,81.578979,PM10,62,135,86
India,Chhattisgarh,Raipur,"Bhatagaon New ISBT, Raipur - CECB",03-05-2024 03:00:00,21.219665,81.630094,NH3,2,2,2
India,Chhattisgarh,Raipur,"Bhatagaon New ISBT, Raipur - CECB",03-05-2024 03:00:00,21.219665,81.630094,CO,18,40,34
India,Chhattisgarh,Raipur,"Krishak Nagar, Raipur - CECB",03-05-2024 03:00:00,21.237755,81.705301,SO2,15,54,30
India,Chhattisgarh,Raipur,"Siltara Phase-II, Raipur - CECB",03-05-2024 03:00:00,21.371751,81.664929,NO2,33,66,46
India,Chhattisgarh,Raipur,"Siltara Phase-II, Raipur - CECB",03-05-2024 03:00:00,21.371751,81.664929,SO2,7,85,44
India,Chhattisgarh,Raipur,"Siltara Phase-II, Raipur - CECB",03-05-2024 03:00:00,21.371751,81.664929,CO,8,58,49
India,Chhattisgarh,Tumidih,"OP Jindal Industrial Park, Tumidih - CECB",03-05-2024 03:00:00,22.06631475,83.33820077,CO,16,55,37
India,Chhattisgarh,Tumidih,"OP Jindal Industrial Park, Tumidih - CECB",03-05-2024 03:00:00,22.06631475,83.33820077,OZONE,14,90,30
India,Delhi,Delhi,"Alipur, Delhi - DPCC",03-05-2024 03:00:00,28.815329,77.153010,SO2,8,71,27
India,Delhi,Delhi,"Aya Nagar, Delhi - IMD",03-05-2024 03:00:00,28.4706914,77.1099364,OZONE,19,67,33
India,Delhi,Delhi,"Bawana, Delhi - DPCC",03-05-2024 03:00:00,28.776200,77.051074,PM2.5,87,443,269
India,Delhi,Delhi,"Bawana, Delhi - DPCC",03-05-2024 03:00:00,28.776200,77.051074,PM10,149,500,287
India,Delhi,Delhi,"Bawana, Delhi - DPCC",03-05-2024 03:00:00,28.776200,77.051074,NH3,4,7,5
India,Delhi,Delhi,"Bawana, Delhi - DPCC",03-05-2024 03:00:00,28.776200,77.051074,CO,11,103,64
India,Delhi,Delhi,"Burari Crossing, Delhi - IMD",03-05-2024 03:00:00,28.7256504,77.2011573,PM2.5,73,385,210
India,Delhi,Delhi,"CRRI Mathura Road, Delhi - IMD",03-05-2024 03:00:00,28.5512005,77.2735737,PM2.5,44,356,184
India,Delhi,Delhi,"Chandni Chowk, Delhi - IITM",03-05-2024 03:00:00,28.656756,77.227234,PM2.5,160,337,222
India,Delhi,Delhi,"DTU, Delhi - CPCB",03-05-2024 03:00:00,28.7500499,77.1112615,PM2.5,90,352,214
India,Delhi,Delhi,"IGI Airport (T3), Delhi - IMD",03-05-2024 03:00:00,28.5627763,77.1180053,PM10,100,489,212
India,Delhi,Delhi,"IHBAS, Dilshad Garden, Delhi - CPCB",03-05-2024 03:00:00,28.6811736,77.3025234,NH3,8,11,10
India,Delhi,Delhi,"IHBAS, Dilshad Garden, Delhi - CPCB",03-05-2024 03:00:00,28.6811736,77.3025234,CO,10,65,43
India,Delhi,Delhi,"ITO, Delhi - CPCB",03-05-2024 03:00:00,28.628624,77.241060,PM2.5,53,301,131
India,Delhi,Delhi,"ITO, Delhi - CPCB",03-05-2024 03:00:00,28.628624,77.241060,NH3,1,5,3
India,Delhi,Delhi,"ITO, Delhi - CPCB",03-05-2024 03:00:00,28.628624,77.241060,CO,30,108,65
India,Delhi,Delhi,"Jawaharlal Nehru Stadium, Delhi - DPCC",03-05-2024 03:00:00,28.580280,77.233829,PM10,110,226,157
India,Delhi,Delhi,"Jawaharlal Nehru Stadium, Delhi - DPCC",03-05-2024 03:00:00,28.580280,77.233829,NO2,27,178,88
India,Delhi,Delhi,"Mandir Marg, Delhi - DPCC",03-05-2024 03:00:00,28.636429,77.201067,NH3,NA,NA,NA
India,Delhi,Delhi,"Mundka, Delhi - DPCC",03-05-2024 03:00:00,28.684678,77.076574,PM10,143,411,276
India,Delhi,Delhi,"NSIT Dwarka, Delhi - CPCB",03-05-2024 03:00:00,28.60909,77.0325413,PM10,162,444,268
India,Delhi,Delhi,"NSIT Dwarka, Delhi - CPCB",03-05-2024 03:00:00,28.60909,77.0325413,OZONE,10,105,23
India,Delhi,Delhi,"Najafgarh, Delhi - DPCC",03-05-2024 03:00:00,28.570173,76.933762,NH3,5,14,9
India,Delhi,Delhi,"Najafgarh, Delhi - DPCC",03-05-2024 03:00:00,28.570173,76.933762,SO2,10,29,17
India,Delhi,Delhi,"Narela, Delhi - DPCC",03-05-2024 03:00:00,28.822836,77.101981,OZONE,24,176,53
India,Delhi,Delhi,"New Moti Bagh, Delhi - MHUA",03-05-2024 03:00:00,28.57834,77.18400,PM2.5,48,335,200
India,Delhi,Delhi,"Okhla Phase-2, Delhi - DPCC",03-05-2024 03:00:00,28.530785,77.271255,PM10,135,319,186
India,Delhi,Delhi,"Okhla Phase-2, Delhi - DPCC",03-05-2024 03:00:00,28.530785,77.271255,NH3,5,9,7
India,Delhi,Delhi,"Patparganj, Delhi - DPCC",03-05-2024 03:00:00,28.623763,77.287209,PM2.5,42,325,133
India,Delhi,Delhi,"Patparganj, Delhi - DPCC",03-05-2024 03:00:00,28.623763,77.287209,NH3,6,7,6
India,Delhi,Delhi,"Punjabi Bagh, Delhi - DPCC",03-05-2024 03:00:00,28.674045,77.131023,CO,34,102,69
India,Delhi,Delhi,"Pusa, Delhi - DPCC",03-05-2024 03:00:00,28.639652,77.146275,PM2.5,47,315,173
India,Delhi,Delhi,"Pusa, Delhi - DPCC",03-05-2024 03:00:00,28.639652,77.146275,NO2,50,183,96
India,Delhi,Delhi,"R K Puram, Delhi - DPCC",03-05-2024 03:00:00,28.563262,77.186937,PM10,146,381,220
India,Delhi,Delhi,"R K Puram, Delhi - DPCC",03-05-2024 03:00:00,28.563262,77.186937,NO2,6,48,24
India,Delhi,Delhi,"R K Puram, Delhi - DPCC",03-05-2024 03:00:00,28.563262,77.186937,CO,6,112,89
India,Delhi,Delhi,"Rohini, Delhi - DPCC",03-05-2024 03:00:00,28.732528,77.119920,PM10,132,448,255
India,Delhi,Delhi,"Rohini, Delhi - DPCC",03-05-2024 03:00:00,28.732528,77.119920,NH3,5,11,8
India,Delhi,Delhi,"Shadipur, Delhi - CPCB",03-05-2024 03:00:00,28.6514781,77.1473105,PM10,152,500,226
India,Delhi,Delhi,"Sirifort, Delhi - CPCB",03-05-2024 03:00:00,28.5504249,77.2159377,NH3,24,34,28
India,Delhi,Delhi,"Sonia Vihar, Delhi - DPCC",03-05-2024 03:00:00,28.710508,77.249485,OZONE,4,140,41
India,Delhi,Delhi,"Sri Aurobindo Marg, Delhi - DPCC",03-05-2024 03:00:00,28.531346,77.190156,PM10,122,302,162
India,Delhi,Delhi,"Sri Aurobindo Marg, Delhi - DPCC",03-05-2024 03:00:00,28.531346,77.190156,OZONE,9,83,21
India,Delhi,Delhi,"Vivek Vihar, Delhi - DPCC",03-05-2024 03:00:00,28.672342,77.315260,SO2,28,65,39
India,Delhi,Delhi,"Wazirpur, Delhi - DPCC",03-05-2024 03:00:00,28.699793,77.165453,PM2.5,56,403,202
India,Delhi,Delhi,"Wazirpur, Delhi - DPCC",03-05-2024 03:00:00,28.699793,77.165453,NO2,7,133,56
India,Delhi,Delhi,"Wazirpur, Delhi - DPCC",03-05-2024 03:00:00,28.699793,77.165453,NH3,6,14,12
India,Gujarat,Ahmedabad,"Chandkheda, Ahmedabad - IITM",03-05-2024 03:00:00,23.107969,72.574648,SO2,3,26,11
India,Gujarat,Ahmedabad,"Gyaspur, Ahmedabad - IITM",03-05-2024 03:00:00,22.977134,72.553024,NH3,3,22,13
India,Gujarat,Ahmedabad,"Raikhad, Ahmedabad - IITM",03-05-2024 03:00:00,23.020509,72.579261,NO2,NA,NA,NA
India,Gujarat,Ahmedabad,"Raikhad, Ahmedabad - IITM",03-05-2024 03:00:00,23.020509,72.579261,OZONE,5,75,16
India,Gujarat,Ahmedabad,"Rakhial, Ahmedabad - IITM",03-05-2024 03:00:00,23.016834,72.625775,CO,9,84,48
India,Gujarat,Ahmedabad,"SAC ISRO Satellite, Ahmedabad - IITM",03-05-2024 03:00:00,23.023389,72.515201,NH3,3,3,3
India,Gujarat,Ahmedabad,"SVPI Airport Hansol, Ahmedabad - IITM",03-05-2024 03:00:00,23.076793,72.627874,PM2.5,66,309,119
India,Gujarat,Ahmedabad,"Sardar Vallabhbhai Patel Stadium, Ahmedabad - IITM",03-05-2024 03:00:00,23.043070,72.562968,SO2,6,22,11
India,Gujarat,Ankleshwar,"GIDC, Ankleshwar - GPCB",03-05-2024 03:00:00,21.613267,73.010555,NO2,32,36,35
India,Gujarat,Ankleshwar,"GIDC, Ankleshwar - GPCB",03-05-2024 03:00:00,21.613267,73.010555,SO2,3,55,20
India,Gujarat,Gandhinagar,"Sector-10, Gandhinagar - GPCB",03-05-2024 03:00:00,23.221714,72.654328,NO2,18,22,20
India,Gujarat,Gandhinagar,"Sector-10, Gandhinagar - GPCB",03-05-2024 03:00:00,23.221714,72.654328,SO2,6,17,9
India,Gujarat,Nandesari,"GIDC, Nandesari - Nandesari Ind. Association",03-05-2024 03:00:00,22.410802,73.097923,PM10,NA,NA,NA
India,Gujarat,Nandesari,"GIDC, Nandesari - Nandesari Ind. Association",03-05-2024 03:00:00,22.410802,73.097923,NO2,NA,NA,NA
India,Gujarat,Surat,"Science Center, Surat - SMC",03-05-2024 03:00:00,21.170046,72.795405,PM2.5,2,31,12
India,Gujarat,Vapi,"Phase-1 GIDC, Vapi - GPCB",03-05-2024 03:00:00,20.362421,72.918013,SO2,53,55,54
India,Gujarat,Vatva,"Phase-4 GIDC, Vatva - GPCB",03-05-2024 03:00:00,22.969611,72.643500,OZONE,10,75,19
India,Haryana,Ambala,"Patti Mehar, Ambala - HSPCB",03-05-2024 03:00:00,30.379589,76.778328,NO2,3,4,4
India,Haryana,Ambala,"Patti Mehar, Ambala - HSPCB",03-05-2024 03:00:00,30.379589,76.778328,CO,30,60,41
India,Haryana,Ambala,"Patti Mehar, Ambala - HSPCB",03-05-2024 03:00:00,30.379589,76.778328,OZONE,29,55,35
India,Haryana,Bahadurgarh,"Arya Nagar, Bahadurgarh - HSPCB",03-05-2024 03:00:00,28.6701,76.9254,NO2,19,24,22
India,Haryana,Bahadurgarh,"Arya Nagar, Bahadurgarh - HSPCB",03-05-2024 03:00:00,28.6701,76.9254,SO2,13,78,29
India,Haryana,Ballabgarh,"Nathu Colony, Ballabgarh - HSPCB",03-05-2024 03:00:00,28.3419248,77.319699,NO2,12,13,12
India,Haryana,Ballabgarh,"Nathu Colony, Ballabgarh - HSPCB",03-05-2024 03:00:00,28.3419248,77.319699,CO,20,109,72
India,Haryana,Ballabgarh,"Nathu Colony, Ballabgarh - HSPCB",03-05-2024 03:00:00,28.3419248,77.319699,OZONE,1,22,5
India,Haryana,Bhiwani,"H.B. Colony, Bhiwani - HSPCB",03-05-2024 03:00:00,28.806223,76.141105,NH3,6,6,6
India,Haryana,Charkhi Dadri,"Mini Secretariat, Charkhi Dadri - HSPCB",03-05-2024 03:00:00,28.593883,76.270653,NH3,6,8,7
India,Haryana,Charkhi Dadri,"Mini Secretariat, Charkhi Dadri - HSPCB",03-05-2024 03:00:00,28.593883,76.270653,CO,34,90,53
India,Haryana,Dharuhera,"Municipal Corporation Office, Dharuhera -  HSPCB",03-05-2024 03:00:00,28.206800,76.799700,PM2.5,78,258,141
India,Haryana,Dharuhera,"Municipal Corporation Office, Dharuhera -  HSPCB",03-05-2024 03:00:00,28.206800,76.799700,NH3,9,26,19
India,Haryana,Faridabad,"New Industrial Town, Faridabad - HSPCB",03-05-2024 03:00:00,28.39072,77.30059,PM2.5,113,291,193
India,Haryana,Faridabad,"New Industrial Town, Faridabad - HSPCB",03-05-2024 03:00:00,28.39072,77.30059,OZONE,30,261,74
India,Haryana,Faridabad,"Sector 11, Faridabad - HSPCB",03-05-2024 03:00:00,28.376058,77.315741,CO,32,60,51
India,Haryana,Faridabad,"Sector 30, Faridabad - HSPCB",03-05-2024 03:00:00,28.4417,77.3217,CO,36,63,51
India,Haryana,Faridabad,"Sector- 16A, Faridabad - HSPCB",03-05-2024 03:00:00,28.4088421,77.3099081,PM2.5,NA,NA,NA
India,Haryana,Faridabad,"Sector- 16A, Faridabad - HSPCB",03-05-2024 03:00:00,28.4088421,77.3099081,SO2,NA,NA,NA
India,Haryana,Gurugram,"Sector-51, Gurugram - HSPCB",03-05-2024 03:00:00,28.4227,77.0667,SO2,2,4,3
India,Haryana,Gurugram,"Vikas Sadan, Gurugram - HSPCB",03-05-2024 03:00:00,28.4501238,77.0263051,OZONE,7,68,16
India,Haryana,Hisar,"Urban Estate-II, Hisar - HSPCB",03-05-2024 03:00:00,29.140560,75.744941,CO,NA,NA,NA
India,Haryana,Jind,"Police Lines, Jind - HSPCB",03-05-2024 03:00:00,29.307814,76.337619,OZONE,8,23,11
India,Haryana,Kaithal,"Rishi Nagar, Kaithal - HSPCB",03-05-2024 03:00:00,29.8006,76.4155,PM10,136,384,175
India,Haryana,Kaithal,"Rishi Nagar, Kaithal - HSPCB",03-05-2024 03:00:00,29.8006,76.4155,NO2,24,26,25
India,Haryana,Karnal,"Sector-12, Karnal - HSPCB",03-05-2024 03:00:00,29.695300,77.002700,PM10,95,142,113
India,Haryana,Kurukshetra,"Sector-7, Kurukshetra - HSPCB",03-05-2024 03:00:00,29.966942,76.875879,PM2.5,48,117,86
India,Haryana,Kurukshetra,"Sector-7, Kurukshetra - HSPCB",03-05-2024 03:00:00,29.966942,76.875879,PM10,61,139,113
India,Haryana,Kurukshetra,"Sector-7, Kurukshetra - HSPCB",03-05-2024 03:00:00,29.966942,76.875879,NH3,3,5,5
India,Haryana,Mandikhera,"General Hospital, Mandikhera - HSPCB",03-05-2024 03:00:00,27.9002,76.9938,OZONE,24,34,29
India,Haryana,Manesar,"Sector-2 IMT, Manesar - HSPCB",03-05-2024 03:00:00,28.360699,76.936090,CO,20,50,40
India,Haryana,Narnaul,"Shastri Nagar, Narnaul - HSPCB",03-05-2024 03:00:00,28.060249,76.113115,PM10,64,129,97
India,Haryana,Palwal,"Shyam Nagar, Palwal - HSPCB",03-05-2024 03:00:00,28.1485564,77.3320667,PM2.5,51,79,68
India,Haryana,Palwal,"Shyam Nagar, Palwal - HSPCB",03-05-2024 03:00:00,28.1485564,77.3320667,NH3,8,9,9
India,Haryana,Palwal,"Shyam Nagar, Palwal - HSPCB",03-05-2024 03:00:00,28.1485564,77.3320667,CO,15,32,28
India,Haryana,Palwal,"Shyam Nagar, Palwal - HSPCB",03-05-2024 03:00:00,28.1485564,77.3320667,OZONE,5,30,13
India,Haryana,Panipat,"Sector-18, Panipat - HSPCB",03-05-2024 03:00:00,29.497973,76.993331,PM2.5,129,191,171
India,Haryana,Panipat,"Sector-18, Panipat - HSPCB",03-05-2024 03:00:00,29.497973,76.993331,NO2,31,32,31
India,Haryana,Rohtak,"MD University, Rohtak - HSPCB",03-05-2024 03:00:00,28.52123,76.37138,NO2,47,57,51
India,Haryana,Sirsa,"F-Block, Sirsa - HSPCB",03-05-2024 03:00:00,29.536400,75.015800,PM10,52,101,79
India,Haryana,Sirsa,"F-Block, Sirsa - HSPCB",03-05-2024 03:00:00,29.536400,75.015800,NH3,12,13,12
India,Haryana,Sirsa,"F-Block, Sirsa - HSPCB",03-05-2024 03:00:00,29.536400,75.015800,CO,58,76,69
India,Haryana,Sirsa,"F-Block, Sirsa - HSPCB",03-05-2024 03:00:00,29.536400,75.015800,OZONE,20,137,23
India,Haryana,Sonipat,"Murthal, Sonipat - HSPCB",03-05-2024 03:00:00,29.027200,77.062100,PM2.5,26,34,31
India,Haryana,Sonipat,"Murthal, Sonipat - HSPCB",03-05-2024 03:00:00,29.027200,77.062100,SO2,13,29,20
India,Haryana,Yamuna Nagar,"Gobind Pura, Yamuna Nagar - HSPCB",03-05-2024 03:00:00,30.1480566,77.2893471,NH3,1,6,4
India,Haryana,Yamuna Nagar,"Gobind Pura, Yamuna Nagar - HSPCB",03-05-2024 03:00:00,30.1480566,77.2893471,SO2,3,109,15
India,Haryana,Yamuna Nagar,"Gobind Pura, Yamuna Nagar - HSPCB",03-05-2024 03:00:00,30.1480566,77.2893471,OZONE,17,35,23
India,Himachal Pradesh,Baddi,"HIMUDA Complex Phase-1, Baddi - HPPCB",03-05-2024 03:00:00,30.943887,76.801991,PM10,80,230,137
India,Jammu_and_Kashmir,Srinagar,"Rajbagh, Srinagar - JKSPCB",03-05-2024 03:00:00,34.066206,74.819820,CO,22,22,22
India,Jammu_and_Kashmir,Srinagar,"Rajbagh, Srinagar - JKSPCB",03-05-2024 03:00:00,34.066206,74.819820,OZONE,6,7,6
India,Jharkhand,Dhanbad,"Kalakusuma, Dhanbad - DMC",03-05-2024 03:00:00,23.811548,86.481238,CO,128,136,132
India,Jharkhand,Pathardih,"Mohalbani Ghat, Pathardih - DMC",03-05-2024 03:00:00,23.669880,86.411725,OZONE,NA,NA,NA
India,Karnataka,Belgaum,"Ramteerth Nagar, Belgaum - KSPCB",03-05-2024 03:00:00,15.888653,74.541751,PM10,15,99,50
India,Karnataka,Belgaum,"Ramteerth Nagar, Belgaum - KSPCB",03-05-2024 03:00:00,15.888653,74.541751,NH3,2,6,4
India,Karnataka,Belgaum,"Ramteerth Nagar, Belgaum - KSPCB",03-05-2024 03:00:00,15.888653,74.541751,SO2,8,9,8
India,Karnataka,Bengaluru,"BTM Layout, Bengaluru - CPCB",03-05-2024 03:00:00,12.9135218,77.5950804,NO2,35,47,39
India,Karnataka,Bengaluru,"Bapuji Nagar, Bengaluru - KSPCB",03-05-2024 03:00:00,12.951913,77.539784,NH3,1,1,1
India,Karnataka,Bengaluru,"Bapuji Nagar, Bengaluru - KSPCB",03-05-2024 03:00:00,12.951913,77.539784,OZONE,24,38,27
India,Karnataka,Bengaluru,"Hombegowda Nagar, Bengaluru - KSPCB",03-05-2024 03:00:00,12.938539,77.590100,PM2.5,40,168,62
India,Karnataka,Bengaluru,"Hombegowda Nagar, Bengaluru - KSPCB",03-05-2024 03:00:00,12.938539,77.590100,PM10,60,167,89
India,Karnataka,Bengaluru,"Jayanagar 5th Block, Bengaluru - KSPCB",03-05-2024 03:00:00,12.920984,77.584908,PM2.5,56,203,86
India,Karnataka,Bengaluru,"Jayanagar 5th Block, Bengaluru - KSPCB",03-05-2024 03:00:00,12.920984,77.584908,NH3,NA,NA,NA
India,Karnataka,Bengaluru,"Kasturi Nagar, Bengaluru - KSPCB",03-05-2024 03:00:00,13.003872,77.664217,PM10,10,446,116
India,Karnataka,Bengaluru,"RVCE-Mailasandra, Bengaluru - KSPCB",03-05-2024 03:00:00,12.921418,77.502466,PM10,29,145,99
India,Karnataka,Bengaluru,"RVCE-Mailasandra, Bengaluru - KSPCB",03-05-2024 03:00:00,12.921418,77.502466,NO2,16,17,17
India,Karnataka,Bengaluru,"Sanegurava Halli, Bengaluru - KSPCB",03-05-2024 03:00:00,12.990328,77.5431385,SO2,2,3,3
India,Karnataka,Bengaluru,"Shivapura_Peenya, Bengaluru - KSPCB",03-05-2024 03:00:00,13.0246342,77.5080115,NO2,15,16,15
India,Karnataka,Bengaluru,"Silk Board, Bengaluru - KSPCB",03-05-2024 03:00:00,12.917348,77.622813,PM2.5,64,287,114
India,Karnataka,Bengaluru,"Silk Board, Bengaluru - KSPCB",03-05-2024 03:00:00,12.917348,77.622813,NO2,NA,NA,NA
India,Karnataka,Bidar,"Naubad, Bidar - KSPCB",03-05-2024 03:00:00,17.930306,77.482194,NO2,7,11,8
India,Karnataka,Bidar,"Naubad, Bidar - KSPCB",03-05-2024 03:00:00,17.930306,77.482194,SO2,13,22,18
India,Karnataka,Bidar,"Naubad, Bidar - KSPCB",03-05-2024 03:00:00,17.930306,77.482194,OZONE,8,49,18
India,Karnataka,Chamarajanagar,"Urban, Chamarajanagar - KSPCB",03-05-2024 03:00:00,11.55358,76.55521,PM2.5,35,46,43
India,Karnataka,Chikkaballapur,"Chikkaballapur Rural, Chikkaballapur - KSPCB",03-05-2024 03:00:00,13.428828,77.731418,PM2.5,53,75,66
India,Karnataka,Chikkamagaluru,"Kalyana Nagara, Chikkamagaluru - KSPCB",03-05-2024 03:00:00,13.328028,75.797056,NH3,2,4,3
India,Karnataka,Chikkamagaluru,"Kalyana Nagara, Chikkamagaluru - KSPCB",03-05-2024 03:00:00,13.328028,75.797056,CO,11,114,41
India,Karnataka,Dharwad,"Kalabhavan, Dharwad - KSPCB",03-05-2024 03:00:00,15.459706,75.008381,NH3,3,3,3
India,Karnataka,Gadag,"Panchal Nagar, Gadag - KSPCB",03-05-2024 03:00:00,15.411456,75.638133,PM2.5,18,67,34
India,Karnataka,Gadag,"Panchal Nagar, Gadag - KSPCB",03-05-2024 03:00:00,15.411456,75.638133,NO2,6,26,15
India,Karnataka,Hassan,"B.Katihalli, Hassan - KSPCB",03-05-2024 03:00:00,13.008556,76.125258,NH3,4,6,5
India,Karnataka,Hassan,"B.Katihalli, Hassan - KSPCB",03-05-2024 03:00:00,13.008556,76.125258,SO2,NA,NA,NA
India,Karnataka,Haveri,"Ashwini Nagar, Haveri - KSPCB",03-05-2024 03:00:00,14.791800,75.389600,CO,32,38,38
India,Karnataka,Hubballi,"Lingaraj Nagar, Hubballi - KSPCB",03-05-2024 03:00:00,15.3714823,75.1160168,SO2,1,11,2
India,Karnataka,Kalaburagi,"Mahatma Basaveswar Colony, Kalaburgi - KSPCB",03-05-2024 03:00:00,17.336318,76.847397,NO2,10,18,14
India,Karnataka,Kalaburagi,"Mahatma Basaveswar Colony, Kalaburgi - KSPCB",03-05-2024 03:00:00,17.336318,76.847397,OZONE,11,38,21
India,Karnataka,Karwar,"KHB Colony, Karwar - KSPCB",03-05-2024 03:00:00,14.816666,74.141003,PM2.5,24,58,38
India,Karnataka,Karwar,"KHB Colony, Karwar - KSPCB",03-05-2024 03:00:00,14.816666,74.141003,SO2,22,22,22
India,Karnataka,Kolar,"Tamaka Ind. Area, Kolar - KSPCB",03-05-2024 03:00:00,13.1276288,78.1570122,PM2.5,39,70,49
India,Karnataka,Koppal,"Diwator Nagar, Koppal - KSPCB",03-05-2024 03:00:00,15.347630,76.181767,NO2,29,59,47
India,Karnataka,Koppal,"Diwator Nagar, Koppal - KSPCB",03-05-2024 03:00:00,15.347630,76.181767,SO2,28,31,28
India,Karnataka,Madikeri,"Stuart Hill, Madikeri - KSPCB",03-05-2024 03:00:00,12.415911,75.735050,OZONE,18,34,26
India,Karnataka,Mangalore,"Kadri, Mangalore - KSPCB",03-05-2024 03:00:00,12.889250,74.853000,PM2.5,39,68,53
India,Karnataka,Mangalore,"Kadri, Mangalore - KSPCB",03-05-2024 03:00:00,12.889250,74.853000,PM10,61,88,75
India,Karnataka,Mangalore,"Kadri, Mangalore - KSPCB",03-05-2024 03:00:00,12.889250,74.853000,NH3,2,2,2
India,Karnataka,Mysuru,"Hebbal 1st Stage, Mysuru - KSPCB",03-05-2024 03:00:00,12.21041,76.37376,PM2.5,27,67,42
India,Karnataka,Mysuru,"Hebbal 1st Stage, Mysuru - KSPCB",03-05-2024 03:00:00,12.21041,76.37376,NO2,7,34,20
India,Karnataka,Ramanagara,"Vijay Nagar, Ramanagara - KSPCB",03-05-2024 03:00:00,12.733409,77.298051,PM2.5,51,137,75
India,Karnataka,Ramanagara,"Vijay Nagar, Ramanagara - KSPCB",03-05-2024 03:00:00,12.733409,77.298051,PM10,46,113,66
India,Karnataka,Ramanagara,"Vijay Nagar, Ramanagara - KSPCB",03-05-2024 03:00:00,12.733409,77.298051,CO,6,101,16
India,Karnataka,Ramanagara,"Vijay Nagar, Ramanagara - KSPCB",03-05-2024 03:00:00,12.733409,77.298051,OZONE,25,39,29
India,Karnataka,Shivamogga,"Vinoba Nagara, Shivamogga - KSPCB",03-05-2024 03:00:00,13.940000,75.555917,PM10,50,80,66
India,Karnataka,Shivamogga,"Vinoba Nagara, Shivamogga - KSPCB",03-05-2024 03:00:00,13.940000,75.555917,NH3,2,3,3
India,Karnataka,Tumakuru,"Thimmalapura, Tumakuru - KSPCB",03-05-2024 03:00:00,13.377516,77.099072,PM10,69,266,152
India,Karnataka,Tumakuru,"Thimmalapura, Tumakuru - KSPCB",03-05-2024 03:00:00,13.377516,77.099072,NO2,36,327,97
India,Karnataka,Tumakuru,"Thimmalapura, Tumakuru - KSPCB",03-05-2024 03:00:00,13.377516,77.099072,NH3,2,7,3
India,Karnataka,Tumakuru,"Thimmalapura, Tumakuru - KSPCB",03-05-2024 03:00:00,13.377516,77.099072,OZONE,9,41,23
India,Karnataka,Vijayapura,"Ibrahimpur, Vijayapura - KSPCB",03-05-2024 03:00:00,16.802639,75.722694,PM10,41,43,42
India,Karnataka,Yadgir,"Collector Office, Yadgir - KSPCB",03-05-2024 03:00:00,16.7602,77.1428,NH3,NA,NA,NA
India,Karnataka,Yadgir,"Collector Office, Yadgir - KSPCB",03-05-2024 03:00:00,16.7602,77.1428,CO,4,38,14
India,Kerala,Eloor,"Udyogamandal, Eloor - Kerala PCB",03-05-2024 03:00:00,10.073232,76.302765,PM2.5,26,46,37
India,Kerala,Eloor,"Udyogamandal, Eloor - Kerala PCB",03-05-2024 03:00:00,10.073232,76.302765,NH3,1,1,1
India,Kerala,Kannur,"Thavakkara, Kannur - Kerala PCB",03-05-2024 03:00:00,11.875000,75.373200,PM2.5,64,78,73
India,Kerala,Kannur,"Thavakkara, Kannur - Kerala PCB",03-05-2024 03:00:00,11.875000,75.373200,NH3,1,1,1
India,Kerala,Kannur,"Thavakkara, Kannur - Kerala PCB",03-05-2024 03:00:00,11.875000,75.373200,CO,28,35,33
India,Kerala,Kannur,"Thavakkara, Kannur - Kerala PCB",03-05-2024 03:00:00,11.875000,75.373200,OZONE,31,36,31
India,Kerala,Kollam,"Polayathode, Kollam - Kerala PCB",03-05-2024 03:00:00,8.8787,76.6073,PM10,72,119,96
India,Kerala,Kollam,"Polayathode, Kollam - Kerala PCB",03-05-2024 03:00:00,8.8787,76.6073,SO2,1,9,2
India,Kerala,Thiruvananthapuram,"Kariavattom, Thiruvananthapuram - Kerala PCB",03-05-2024 03:00:00,8.563700,76.886500,PM10,78,91,84
India,Kerala,Thiruvananthapuram,"Kariavattom, Thiruvananthapuram - Kerala PCB",03-05-2024 03:00:00,8.563700,76.886500,OZONE,27,32,29
India,Kerala,Thrissur,"Corporation Ground, Thrissur - Kerala PCB",03-05-2024 03:00:00,10.532400,76.215900,CO,14,140,22
India,Madhya Pradesh,Bhopal,"Paryavaran Parisar, Bhopal - MPPCB",03-05-2024 03:00:00,23.210494,77.425409,NO2,13,108,47
India,Madhya Pradesh,Bhopal,"Paryavaran Parisar, Bhopal - MPPCB",03-05-2024 03:00:00,23.210494,77.425409,CO,3,140,54
India,Madhya Pradesh,Bhopal,"T T Nagar, Bhopal - MPPCB",03-05-2024 03:00:00,23.233584,77.400574,NO2,15,46,29
India,Madhya Pradesh,Dewas,"Bhopal Chauraha, Dewas - MPPCB",03-05-2024 03:00:00,22.9682591,76.064118,CO,14,63,41
India,Madhya Pradesh,Gwalior,"City Center, Gwalior - MPPCB",03-05-2024 03:00:00,26.203442,78.193251,PM2.5,22,158,69
India,Madhya Pradesh,Gwalior,"Deen Dayal Nagar, Gwalior - MPPCB",03-05-2024 03:00:00,26.259242,78.216432,PM2.5,25,302,118
India,Madhya Pradesh,Gwalior,"Maharaj Bada, Gwalior - MPPCB",03-05-2024 03:00:00,26.200388,78.147714,SO2,11,22,16
India,Madhya Pradesh,Gwalior,"Maharaj Bada, Gwalior - MPPCB",03-05-2024 03:00:00,26.200388,78.147714,CO,1,117,71
India,Madhya Pradesh,Indore,"Chhoti Gwaltoli, Indore - MPPCB",03-05-2024 03:00:00,22.4310,75.5213,NH3,1,8,4
India,Madhya Pradesh,Indore,"Chhoti Gwaltoli, Indore - MPPCB",03-05-2024 03:00:00,22.4310,75.5213,OZONE,10,149,22
India,Madhya Pradesh,Indore,"Maguda Nagar, Indore - IMC",03-05-2024 03:00:00,22.7524,75.8872,PM10,50,186,88
India,Madhya Pradesh,Indore,"Maguda Nagar, Indore - IMC",03-05-2024 03:00:00,22.7524,75.8872,NH3,NA,NA,NA
India,Madhya Pradesh,Indore,"Maguda Nagar, Indore - IMC",03-05-2024 03:00:00,22.7524,75.8872,SO2,33,65,38
India,Madhya Pradesh,Indore,"Regional Park, Indore - IMC",03-05-2024 03:00:00,22.6780,75.8559,NO2,NA,NA,NA
India,Madhya Pradesh,Indore,"Regional Park, Indore - IMC",03-05-2024 03:00:00,22.6780,75.8559,NH3,NA,NA,NA
India,Madhya Pradesh,Indore,"Regional Park, Indore - IMC",03-05-2024 03:00:00,22.6780,75.8559,OZONE,11,23,13
India,Madhya Pradesh,Jabalpur,"Gupteshwar, Jabalpur - JMC",03-05-2024 03:00:00,23.142888,79.916147,NH3,7,9,8
India,Madhya Pradesh,Jabalpur,"Gupteshwar, Jabalpur - JMC",03-05-2024 03:00:00,23.142888,79.916147,CO,19,124,92
India,Madhya Pradesh,Jabalpur,"Marhatal, Jabalpur - MPPCB",03-05-2024 03:00:00,23.168606,79.932247,PM2.5,27,293,108
India,Madhya Pradesh,Jabalpur,"Marhatal, Jabalpur - MPPCB",03-05-2024 03:00:00,23.168606,79.932247,NO2,7,151,53
India,Madhya Pradesh,Jabalpur,"Marhatal, Jabalpur - MPPCB",03-05-2024 03:00:00,23.168606,79.932247,NH3,2,3,2
India,Madhya Pradesh,Katni,"Gole Bazar, Katni - MPPCB",03-05-2024 03:00:00,23.50016,80.23284,SO2,17,111,34
India,Madhya Pradesh,Pithampur,"Sector-2 Industrial Area, Pithampur - MPPCB",03-05-2024 03:00:00,22.624758,75.675238,CO,36,48,44
India,Madhya Pradesh,Pithampur,"Sector-2 Industrial Area, Pithampur - MPPCB",03-05-2024 03:00:00,22.624758,75.675238,OZONE,27,64,33
India,Madhya Pradesh,Ratlam,"Shasthri Nagar, Ratlam - IPCA Lab",03-05-2024 03:00:00,23.331731,75.045981,NO2,7,76,32
India,Madhya Pradesh,Sagar,"Civil Lines, Sagar - MPPCB",03-05-2024 03:00:00,23.838586,78.759431,SO2,3,10,7
India,Madhya Pradesh,Sagar,"Civil Lines, Sagar - MPPCB",03-05-2024 03:00:00,23.838586,78.759431,CO,9,101,43
India,Madhya Pradesh,Satna,"Bandhavgar Colony, Satna - Birla Cement",03-05-2024 03:00:00,24.58434363,80.8549414,PM2.5,1,38,4
India,Madhya Pradesh,Satna,"Bandhavgar Colony, Satna - Birla Cement",03-05-2024 03:00:00,24.58434363,80.8549414,PM10,62,104,86
India,Madhya Pradesh,Ujjain,"Mahakaleshwar Temple, Ujjain - MPPCB",03-05-2024 03:00:00,23.182719 ,75.768218 ,PM10,NA,NA,NA
India,Maharashtra,Ahmednagar,"Tarakpur, Ahmednagar - MPCB",03-05-2024 03:00:00,19.10122,74.73339,CO,26,98,48
India,Maharashtra,Ahmednagar,"Tarakpur, Ahmednagar - MPCB",03-05-2024 03:00:00,19.10122,74.73339,OZONE,6,119,58
India,Maharashtra,Akola,"Ramdaspeth, Akola - MPCB",03-05-2024 03:00:00,20.719516,77.000253,PM2.5,44,124,63
India,Maharashtra,Akola,"Ramdaspeth, Akola - MPCB",03-05-2024 03:00:00,20.719516,77.000253,SO2,10,26,15
India,Maharashtra,Akola,"Ramdaspeth, Akola - MPCB",03-05-2024 03:00:00,20.719516,77.000253,OZONE,1,81,27
India,Maharashtra,Amravati,"Shivneri Colony, Amravati - MPCB",03-05-2024 03:00:00,20.9402359,77.7895248,CO,8,50,26
India,Maharashtra,Aurangabad,"MIDC Chilkalthana, Aurangabad - MPCB",03-05-2024 03:00:00,19.875620,75.387310,PM2.5,NA,NA,NA
India,Maharashtra,Aurangabad,"More Chowk Waluj, Aurangabad - MPCB",03-05-2024 03:00:00,19.8389439,75.244448,SO2,9,16,12
India,Maharashtra,Aurangabad,"More Chowk Waluj, Aurangabad - MPCB",03-05-2024 03:00:00,19.8389439,75.244448,CO,2,66,39
India,Maharashtra,Aurangabad,"Rachnakar Colony, Aurangabad - MPCB",03-05-2024 03:00:00,19.863756,75.321188,PM2.5,69,227,131
India,Maharashtra,Aurangabad,"Rachnakar Colony, Aurangabad - MPCB",03-05-2024 03:00:00,19.863756,75.321188,PM10,125,368,188
India,Maharashtra,Aurangabad,"Rachnakar Colony, Aurangabad - MPCB",03-05-2024 03:00:00,19.863756,75.321188,NH3,1,1,1
India,Maharashtra,Aurangabad,"Rachnakar Colony, Aurangabad - MPCB",03-05-2024 03:00:00,19.863756,75.321188,CO,8,106,60
India,Maharashtra,Badlapur,"Katrap, Badlapur - MPCB",03-05-2024 03:00:00,19.16485,73.23409,PM2.5,63,145,85
India,Maharashtra,Badlapur,"Katrap, Badlapur - MPCB",03-05-2024 03:00:00,19.16485,73.23409,NH3,1,2,1
India,Maharashtra,Badlapur,"Katrap, Badlapur - MPCB",03-05-2024 03:00:00,19.16485,73.23409,CO,18,90,30
India,Maharashtra,Belapur,"CBD Belapur, Belapur - MPCB",03-05-2024 03:00:00,19.0243902,73.0406721,SO2,2,16,5
India,Maharashtra,Bhiwandi,"Gokul Nagar, Bhiwandi - MPCB",03-05-2024 03:00:00,19.309073,73.057223,PM10,80,125,105
India,Maharashtra,Bhiwandi,"Gokul Nagar, Bhiwandi - MPCB",03-05-2024 03:00:00,19.309073,73.057223,SO2,19,24,20
India,Maharashtra,Boisar,"Khaira, Boisar - MPCB",03-05-2024 03:00:00,19.786089,72.757971,NO2,2,47,12
India,Maharashtra,Boisar,"Khaira, Boisar - MPCB",03-05-2024 03:00:00,19.786089,72.757971,NH3,5,10,6
India,Maharashtra,Boisar,"Khaira, Boisar - MPCB",03-05-2024 03:00:00,19.786089,72.757971,CO,10,58,26
India,Maharashtra,Chandrapur,"Chauhan Colony, Chandrapur - MPCB",03-05-2024 03:00:00,19.962900,79.298714,OZONE,59,87,81
India,Maharashtra,Jalgaon,"Prabhat Colony, Jalgaon - MPCB",03-05-2024 03:00:00,21.001264,75.565602,CO,13,57,33
India,Maharashtra,Jalna,"Old MIDC, Jalna - MPCB",03-05-2024 03:00:00,19.854616,75.905894,CO,21,42,37
India,Maharashtra,Kalyan,"Khadakpada, Kalyan - MPCB",03-05-2024 03:00:00,19.25292,73.142019,PM10,76,177,135
India,Maharashtra,Kalyan,"Khadakpada, Kalyan - MPCB",03-05-2024 03:00:00,19.25292,73.142019,SO2,23,33,27
India,Maharashtra,Kolhapur,"Shivaji University, Kolhapur - MPCB",03-05-2024 03:00:00,16.6870449,74.2505872,PM10,92,132,115
India,Maharashtra,Kolhapur,"Shivaji University, Kolhapur - MPCB",03-05-2024 03:00:00,16.6870449,74.2505872,NH3,3,8,5
India,Maharashtra,Kolhapur,"Shivaji University, Kolhapur - MPCB",03-05-2024 03:00:00,16.6870449,74.2505872,CO,38,80,53
India,Maharashtra,Kolhapur,"Sinchan Bhavan, Kolhapur - MPCB",03-05-2024 03:00:00,16.7143745,74.2426398,PM2.5,26,64,43
India,Maharashtra,Kolhapur,"Sinchan Bhavan, Kolhapur - MPCB",03-05-2024 03:00:00,16.7143745,74.2426398,NH3,7,8,7
India,Maharashtra,Latur,"Sawe Wadi, Latur - MPCB",03-05-2024 03:00:00,18.39963,76.57452,CO,1,110,39
India,Maharashtra,Malegaon,"Mahesh Nagar, Malegaon - MPCB",03-05-2024 03:00:00,20.555712,74.529236,NO2,10,44,23
India,Maharashtra,Malegaon,"Mahesh Nagar, Malegaon - MPCB",03-05-2024 03:00:00,20.555712,74.529236,SO2,6,26,11
India,Maharashtra,Mumbai,"Bandra Kurla Complex, Mumbai - MPCB",03-05-2024 03:00:00,19.065931,72.862131,CO,34,61,40
India,Maharashtra,Mumbai,"Borivali East, Mumbai - IITM",03-05-2024 03:00:00,19.23241,72.86895,OZONE,31,105,57
India,Maharashtra,Mumbai,"Borivali East, Mumbai - MPCB",03-05-2024 03:00:00,19.2243333,72.8658113,PM2.5,13,48,28
India,Maharashtra,Mumbai,"Byculla, Mumbai - BMC",03-05-2024 03:00:00,18.9767,72.8380,SO2,2,5,3
India,Maharashtra,Mumbai,"Chakala-Andheri East, Mumbai - IITM",03-05-2024 03:00:00,19.11074,72.86084,PM2.5,22,206,137
India,Maharashtra,Mumbai,"Chembur, Mumbai - MPCB",03-05-2024 03:00:00,19.0364585,72.8954371,SO2,1,2,1
India,Maharashtra,Mumbai,"Chhatrapati Shivaji Intl. Airport (T2), Mumbai - MPCB",03-05-2024 03:00:00,19.10078,72.87462,CO,24,53,47
India,Maharashtra,Mumbai,"Colaba, Mumbai - MPCB",03-05-2024 03:00:00,18.910000,72.820000,PM10,66,149,104
India,Maharashtra,Mumbai,"Colaba, Mumbai - MPCB",03-05-2024 03:00:00,18.910000,72.820000,CO,12,16,14
India,Maharashtra,Mumbai,"Deonar, Mumbai - IITM",03-05-2024 03:00:00,19.04946,72.9230,PM10,87,169,132
India,Maharashtra,Mumbai,"Ghatkopar, Mumbai - BMC",03-05-2024 03:00:00,19.083694,72.920967,OZONE,1,41,12
India,Maharashtra,Mumbai,"Kandivali East, Mumbai - MPCB",03-05-2024 03:00:00,19.205800,72.868200,NO2,18,53,34
India,Maharashtra,Mumbai,"Kandivali East, Mumbai - MPCB",03-05-2024 03:00:00,19.205800,72.868200,SO2,7,8,8
India,Maharashtra,Mumbai,"Kandivali East, Mumbai - MPCB",03-05-2024 03:00:00,19.205800,72.868200,CO,28,32,31
India,Maharashtra,Mumbai,"Kandivali West, Mumbai - BMC",03-05-2024 03:00:00,19.215859,72.831718,PM2.5,17,64,42
India,Maharashtra,Mumbai,"Kandivali West, Mumbai - BMC",03-05-2024 03:00:00,19.215859,72.831718,NH3,1,3,2
India,Maharashtra,Mumbai,"Kandivali West, Mumbai - BMC",03-05-2024 03:00:00,19.215859,72.831718,SO2,1,3,2
India,Maharashtra,Mumbai,"Kherwadi_Bandra East, Mumbai - MPCB",03-05-2024 03:00:00,19.0632143,72.8456324,NO2,5,23,14
India,Maharashtra,Mumbai,"Kherwadi_Bandra East, Mumbai - MPCB",03-05-2024 03:00:00,19.0632143,72.8456324,SO2,14,16,15
India,Maharashtra,Mumbai,"Kherwadi_Bandra East, Mumbai - MPCB",03-05-2024 03:00:00,19.0632143,72.8456324,OZONE,47,81,65
India,Maharashtra,Mumbai,"Khindipada-Bhandup West, Mumbai - IITM",03-05-2024 03:00:00,19.1653323,72.922099,NO2,4,12,8
India,Maharashtra,Mumbai,"Khindipada-Bhandup West, Mumbai - IITM",03-05-2024 03:00:00,19.1653323,72.922099,NH3,1,5,2
India,Maharashtra,Mumbai,"Kurla, Mumbai - MPCB",03-05-2024 03:00:00,19.0863,72.8888,SO2,32,32,32
India,Maharashtra,Mumbai,"Mazgaon, Mumbai - IITM",03-05-2024 03:00:00,18.96702,72.84214,PM10,73,192,124
India,Maharashtra,Mumbai,"Mazgaon, Mumbai - IITM",03-05-2024 03:00:00,18.96702,72.84214,NH3,15,22,18
India,Maharashtra,Mumbai,"Powai, Mumbai - MPCB",03-05-2024 03:00:00,19.137500,72.915056,OZONE,23,81,37
India,Maharashtra,Mumbai,"Siddharth Nagar-Worli, Mumbai - IITM",03-05-2024 03:00:00,19.000083,72.813993,NH3,3,5,4
India,Maharashtra,Mumbai,"Vasai West, Mumbai - MPCB",03-05-2024 03:00:00,19.383200,72.820400,PM10,NA,NA,NA
India,Maharashtra,Mumbai,"Vile Parle West, Mumbai - MPCB",03-05-2024 03:00:00,19.10861,72.83622,CO,NA,NA,NA
India,Maharashtra,Mumbai,"Worli, Mumbai - MPCB",03-05-2024 03:00:00,18.9936162,72.8128113,PM2.5,24,49,34
India,Maharashtra,Mumbai,"Worli, Mumbai - MPCB",03-05-2024 03:00:00,18.9936162,72.8128113,SO2,11,12,12
India,Maharashtra,Mumbai,"Worli, Mumbai - MPCB",03-05-2024 03:00:00,18.9936162,72.8128113,CO,28,30,28
India,Maharashtra,Nagpur,"Ambazari, Nagpur - MPCB",03-05-2024 03:00:00,21.121801,79.04952,PM10,85,122,103
India,Maharashtra,Nagpur,"Mahal, Nagpur - MPCB",03-05-2024 03:00:00,21.14472,79.107595,PM2.5,41,134,66
India,Maharashtra,Nagpur,"Mahal, Nagpur - MPCB",03-05-2024 03:00:00,21.14472,79.107595,NO2,13,128,48
India,Maharashtra,Nagpur,"Opp GPO Civil Lines, Nagpur - MPCB",03-05-2024 03:00:00,21.152875,79.0517531,PM10,69,132,96
India,Maharashtra,Nanded,"Sneh Nagar, Nanded - MPCB",03-05-2024 03:00:00,19.173852,77.296291,PM2.5,38,156,83
India,Maharashtra,Nanded,"Sneh Nagar, Nanded - MPCB",03-05-2024 03:00:00,19.173852,77.296291,PM10,101,207,131
India,Maharashtra,Nanded,"Sneh Nagar, Nanded - MPCB",03-05-2024 03:00:00,19.173852,77.296291,NH3,1,2,1
India,Maharashtra,Nashik,"Hirawadi, Nashik - MPCB",03-05-2024 03:00:00,20.021503,73.813844,SO2,7,20,14
India,Maharashtra,Nashik,"Hirawadi, Nashik - MPCB",03-05-2024 03:00:00,20.021503,73.813844,CO,12,56,39
India,Maharashtra,Nashik,"MIDC Ambad, Nashik - MPCB",03-05-2024 03:00:00,19.950220,73.731480,PM2.5,30,63,47
India,Maharashtra,Nashik,"MIDC Ambad, Nashik - MPCB",03-05-2024 03:00:00,19.950220,73.731480,NH3,2,11,5
India,Maharashtra,Nashik,"Pandav Nagari, Nashik - MPCB",03-05-2024 03:00:00,19.9591346,73.7788008,SO2,13,28,19
India,Maharashtra,Nashik,"Pandav Nagari, Nashik - MPCB",03-05-2024 03:00:00,19.9591346,73.7788008,CO,10,30,20
India,Maharashtra,Navi Mumbai,"Kopripada-Vashi, Navi Mumbai - MPCB",03-05-2024 03:00:00,19.090337,73.014232,NO2,23,71,40
India,Maharashtra,Navi Mumbai,"Kopripada-Vashi, Navi Mumbai - MPCB",03-05-2024 03:00:00,19.090337,73.014232,CO,8,31,23
India,Maharashtra,Navi Mumbai,"Mahape, Navi Mumbai - MPCB",03-05-2024 03:00:00,19.1135051,73.008978,SO2,22,23,23
India,Maharashtra,Navi Mumbai,"Nerul, Navi Mumbai - MPCB",03-05-2024 03:00:00,19.008751,73.016620,SO2,16,16,16
India,Maharashtra,Navi Mumbai,"Sanpada, Navi Mumbai - MPCB",03-05-2024 03:00:00,19.0575752,73.0151367,NH3,1,8,4
India,Maharashtra,Navi Mumbai,"Sector-19A Nerul, Navi Mumbai - IITM",03-05-2024 03:00:00,19.044,73.0325,NH3,1,5,5
India,Maharashtra,Navi Mumbai,"Sector-2E Kalamboli, Navi Mumbai - MPCB",03-05-2024 03:00:00,19.02579,73.10297,PM10,58,135,100
India,Maharashtra,Navi Mumbai,"Sector-2E Kalamboli, Navi Mumbai - MPCB",03-05-2024 03:00:00,19.02579,73.10297,NO2,21,60,38
India,Maharashtra,Navi Mumbai,"Sector-2E Kalamboli, Navi Mumbai - MPCB",03-05-2024 03:00:00,19.02579,73.10297,CO,4,24,17
India,Maharashtra,Pimpri-Chinchwad,"Park Street Wakad, Pimpri Chinchwad - MPCB",03-05-2024 03:00:00,18.59051,73.77946,OZONE,4,103,42
India,Maharashtra,Pimpri-Chinchwad,"Thergaon, Pimpri Chinchwad - MPCB",03-05-2024 03:00:00,18.616318,73.765797,CO,8,29,19
India,Maharashtra,Pune,"Alandi, Pune - IITM",03-05-2024 03:00:00,18.675076,73.892743,PM2.5,5,76,43
India,Maharashtra,Pune,"Alandi, Pune - IITM",03-05-2024 03:00:00,18.675076,73.892743,PM10,40,116,91
India,Maharashtra,Pune,"Alandi, Pune - IITM",03-05-2024 03:00:00,18.675076,73.892743,CO,24,43,35
India,Maharashtra,Pune,"Bhosari, Pune - IITM",03-05-2024 03:00:00,18.640051,73.848956,PM2.5,25,52,38
India,Maharashtra,Pune,"Bhosari, Pune - IITM",03-05-2024 03:00:00,18.640051,73.848956,PM10,48,102,79
India,Maharashtra,Pune,"Bhosari, Pune - IITM",03-05-2024 03:00:00,18.640051,73.848956,CO,16,56,24
India,Maharashtra,Pune,"Karve Road, Pune - MPCB",03-05-2024 03:00:00,18.5011743,73.8165527,PM2.5,24,86,57
India,Maharashtra,Pune,"Katraj Dairy, Pune - MPCB",03-05-2024 03:00:00,18.454450,73.854155,NO2,13,37,24
India,Maharashtra,Pune,"Katraj Dairy, Pune - MPCB",03-05-2024 03:00:00,18.454450,73.854155,SO2,3,10,5
India,Maharashtra,Pune,"Katraj Dairy, Pune - MPCB",03-05-2024 03:00:00,18.454450,73.854155,CO,15,72,50
India,Maharashtra,Pune,"Katraj Dairy, Pune - MPCB",03-05-2024 03:00:00,18.454450,73.854155,OZONE,34,58,42
India,Maharashtra,Pune,"Mhada Colony, Pune - IITM",03-05-2024 03:00:00,18.573040,73.927715,PM10,58,110,84
India,Maharashtra,Pune,"Savitribai Phule Pune University, Pune - MPCB",03-05-2024 03:00:00,18.547056,73.826908,PM10,68,112,87
India,Maharashtra,Pune,"Savitribai Phule Pune University, Pune - MPCB",03-05-2024 03:00:00,18.547056,73.826908,NH3,2,3,3
India,Maharashtra,Pune,"Transport Nagar-Nigdi, Pune - IITM",03-05-2024 03:00:00,18.664282,73.763966,PM2.5,61,61,61
India,Maharashtra,Sangli,"Vijay Nagar, Sangli - MPCB",03-05-2024 03:00:00, 16.5038,74.3623,NH3,1,3,2
India,Maharashtra,Solapur,"Ratandeep Housing Society, Solapur - MPCB",03-05-2024 03:00:00,17.65439,75.90649,PM10,79,154,110
India,Maharashtra,Thane,"Kasarvadavali, Thane - MPCB",03-05-2024 03:00:00,19.26777,72.97182,SO2,1,12,7
India,Maharashtra,Thane,"Pimpleshwar Mandir, Thane - MPCB",03-05-2024 03:00:00,19.192056,72.9585188,OZONE,5,89,21
India,Maharashtra,Thane,"Upvan Fort, Thane - MPCB",03-05-2024 03:00:00,19.222279,72.957979,NO2,9,54,23
India,Maharashtra,Thane,"Upvan Fort, Thane - MPCB",03-05-2024 03:00:00,19.222279,72.957979,NH3,3,5,4
India,Maharashtra,Virar,"Bolinj, Virar - MPCB",03-05-2024 03:00:00,19.4458210,72.7988231,NO2,6,51,25
India,Manipur,Imphal,"DM College of Science, Imphal - Manipur PCB",03-05-2024 03:00:00,24.8207389,93.9423085,PM2.5,13,26,17
India,Manipur,Imphal,"DM College of Science, Imphal - Manipur PCB",03-05-2024 03:00:00,24.8207389,93.9423085,NH3,2,2,2
India,Manipur,Imphal,"DM College of Science, Imphal - Manipur PCB",03-05-2024 03:00:00,24.8207389,93.9423085,CO,6,7,6
India,Manipur,Imphal,"Manipur University, Imphal - Manipur PCB",03-05-2024 03:00:00,24.7524239,93.9286218,NO2,NA,NA,NA
India,Manipur,Imphal,"Manipur University, Imphal - Manipur PCB",03-05-2024 03:00:00,24.7524239,93.9286218,SO2,NA,NA,NA
India,Meghalaya,Shillong,"Lumpyngngad, Shillong - Meghalaya PCB",03-05-2024 03:00:00,25.5586,91.8985,SO2,39,42,40
India,Mizoram,Aizawl,"Sikulpuikawn, Aizawl - Mizoram PCB",03-05-2024 03:00:00,23.7176342,92.7192841,CO,8,12,10
India,Nagaland,Kohima,"PWD Juction, Kohima - NPCB",03-05-2024 03:00:00,25.6635413,94.0989878,CO,6,26,14
India,Odisha,Angul,"Hakimapada, Angul - OSPCB",03-05-2024 03:00:00,20.832874,85.104082,PM2.5,43,486,150
India,Odisha,Angul,"Hakimapada, Angul - OSPCB",03-05-2024 03:00:00,20.832874,85.104082,OZONE,6,157,50
India,Odisha,Balasore,"Kalidaspur, Balasore - OSPCB",03-05-2024 03:00:00,21.51161,86.89088,PM2.5,18,83,45
India,Odisha,Barbil,"Forest Office, Barbil - OSPCB",03-05-2024 03:00:00,22.1166054,85.3945546,NH3,1,1,1
India,Odisha,Barbil,"Forest Office, Barbil - OSPCB",03-05-2024 03:00:00,22.1166054,85.3945546,CO,18,66,57
India,Odisha,Baripada,"Meher Colony, Baripada - OSPCB",03-05-2024 03:00:00,21.941841,86.728318,SO2,4,17,11
India,Odisha,Bhubaneswar,"Lingraj Mandir, Bhubaneswar - OSPCB",03-05-2024 03:00:00,20.240790,85.836784,PM10,13,87,43
India,Odisha,Bhubaneswar,"Lingraj Mandir, Bhubaneswar - OSPCB",03-05-2024 03:00:00,20.240790,85.836784,CO,26,111,52
India,Odisha,Bileipada,"Tata Township, Bileipada - OSPCB",03-05-2024 03:00:00,22.06156703,85.47409613,NO2,9,16,13
India,Odisha,Bileipada,"Tata Township, Bileipada - OSPCB",03-05-2024 03:00:00,22.06156703,85.47409613,CO,16,75,58
India,Odisha,Brajrajnagar,"GM Office, Brajrajnagar - OSPCB",03-05-2024 03:00:00,21.8004996,83.8396977,SO2,23,31,26
India,Odisha,Byasanagar,"Ferro Chrome Colony, Byasanagar - OSPCB",03-05-2024 03:00:00,20.94185,86.11510,PM2.5,12,107,49
India,Odisha,Byasanagar,"Ferro Chrome Colony, Byasanagar - OSPCB",03-05-2024 03:00:00,20.94185,86.11510,NH3,1,3,2
India,Odisha,Cuttack,"CDA Area, Cuttack - OSPCB",03-05-2024 03:00:00,20.48891     ,85.84768     ,PM2.5,2,57,27
India,Odisha,Cuttack,"CDA Area, Cuttack - OSPCB",03-05-2024 03:00:00,20.48891     ,85.84768     ,CO,16,26,17
India,Odisha,Cuttack,"CDA Area, Cuttack - OSPCB",03-05-2024 03:00:00,20.48891     ,85.84768     ,OZONE,2,87,14
India,Odisha,Keonjhar,"Jagamohanpur, Keonjhar - OSPCB",03-05-2024 03:00:00,21.643900,85.599355,PM2.5,69,154,102
India,Odisha,Keonjhar,"Jagamohanpur, Keonjhar - OSPCB",03-05-2024 03:00:00,21.643900,85.599355,NO2,4,53,21
India,Odisha,Nayagarh,"Dabuna, Nayagarh - OSPCB",03-05-2024 03:00:00,21.847279,85.416905,PM2.5,100,241,150
India,Odisha,Nayagarh,"Dabuna, Nayagarh - OSPCB",03-05-2024 03:00:00,21.847279,85.416905,SO2,2,17,8
India,Odisha,Rourkela,"Fertilizer Township, Rourkela - OSPCB",03-05-2024 03:00:00,22.18972222,84.86277778,PM2.5,98,136,107
India,Odisha,Rourkela,"Fertilizer Township, Rourkela - OSPCB",03-05-2024 03:00:00,22.18972222,84.86277778,SO2,4,21,12
India,Odisha,Talcher,"Talcher Coalfields,Talcher - OSPCB",03-05-2024 03:00:00,20.9360711,85.1707021,OZONE,11,38,29
India,Odisha,Tensa,"Barsua Iron Ore Mines, Tensa - OSPCB",03-05-2024 03:00:00,21.869985,85.167016,PM2.5,42,73,62
India,Puducherry,Puducherry,"Jawahar Nagar, Puducherry - PPCC",03-05-2024 03:00:00,11.9309,79.8027,PM10,13,75,40
India,Puducherry,Puducherry,"Jawahar Nagar, Puducherry - PPCC",03-05-2024 03:00:00,11.9309,79.8027,NH3,2,5,3
India,Puducherry,Puducherry,"Jawahar Nagar, Puducherry - PPCC",03-05-2024 03:00:00,11.9309,79.8027,SO2,2,13,7
India,Punjab,Bathinda,"Hardev Nagar, Bathinda - PPCB",03-05-2024 03:00:00,30.233011,74.907758,CO,3,120,14
India,Punjab,Khanna,"Kalal Majra, Khanna - PPCB",03-05-2024 03:00:00,30.736056 ,76.209694,CO,18,46,44
India,Punjab,Mandi Gobindgarh,"RIMT University, Mandi Gobindgarh - PPCB",03-05-2024 03:00:00,30.649961,76.331442,SO2,3,40,16
India,Punjab,Rupnagar,"Ratanpura, Rupnagar - Ambuja Cements",03-05-2024 03:00:00,31.0325454,76.5623046,SO2,7,10,9
India,Punjab,Rupnagar,"Ratanpura, Rupnagar - Ambuja Cements",03-05-2024 03:00:00,31.0325454,76.5623046,CO,22,38,30
India,Rajasthan,Ajmer,"Civil Lines,  Ajmer - RSPCB",03-05-2024 03:00:00,26.470859,74.646594,PM2.5,53,157,79
India,Rajasthan,Alwar,"Moti Doongri, Alwar - RSPCB",03-05-2024 03:00:00,27.554793,76.611536,PM10,56,111,79
India,Rajasthan,Alwar,"Moti Doongri, Alwar - RSPCB",03-05-2024 03:00:00,27.554793,76.611536,NH3,4,8,5
India,Rajasthan,Alwar,"Moti Doongri, Alwar - RSPCB",03-05-2024 03:00:00,27.554793,76.611536,SO2,3,65,20
India,Rajasthan,Alwar,"Moti Doongri, Alwar - RSPCB",03-05-2024 03:00:00,27.554793,76.611536,CO,8,82,58
India,Rajasthan,Banswara,"Rati Talai, Banswara - RSPCB",03-05-2024 03:00:00,23.555190,74.440010,SO2,1,19,9
India,Rajasthan,Barmer,"Railway Colony, Barmer - RSPCB",03-05-2024 03:00:00,25.747299,71.393989,NH3,6,21,10
India,Rajasthan,Barmer,"Railway Colony, Barmer - RSPCB",03-05-2024 03:00:00,25.747299,71.393989,OZONE,21,122,65
India,Rajasthan,Bharatpur,"Krishna Nagar, Bharatpur - RSPCB",03-05-2024 03:00:00,27.215415,77.50873,PM2.5,78,337,192
India,Rajasthan,Bhilwara,"Pratap Nagar, Bhilwara - RSPCB",03-05-2024 03:00:00,25.339605,74.618883,NO2,9,112,35
India,Rajasthan,Bhiwadi,"RIICO Ind. Area III, Bhiwadi - RSPCB",03-05-2024 03:00:00,28.194909,76.862296,SO2,14,43,24
India,Rajasthan,Bikaner,"MM Ground, Bikaner - RSPCB",03-05-2024 03:00:00,28.018792,73.292658,PM10,62,411,164
India,Rajasthan,Bundi,"New Colony, Bundi - RSPCB",03-05-2024 03:00:00,25.435774,75.644272,PM10,75,176,124
India,Rajasthan,Bundi,"New Colony, Bundi - RSPCB",03-05-2024 03:00:00,25.435774,75.644272,NH3,3,4,3
India,Rajasthan,Bundi,"New Colony, Bundi - RSPCB",03-05-2024 03:00:00,25.435774,75.644272,CO,12,44,31
India,Rajasthan,Bundi,"New Colony, Bundi - RSPCB",03-05-2024 03:00:00,25.435774,75.644272,OZONE,45,159,86
India,Rajasthan,Chittorgarh,"Shastri Nagar, Chittorgarh - RSPCB",03-05-2024 03:00:00,24.892047,74.623527,PM10,123,408,196
India,Rajasthan,Chittorgarh,"Shastri Nagar, Chittorgarh - RSPCB",03-05-2024 03:00:00,24.892047,74.623527,CO,3,84,48
India,Rajasthan,Dholpur,"Raja Ganj, Dholpur - RSPCB",03-05-2024 03:00:00,26.699557,77.898881,OZONE,87,157,90
India,Rajasthan,Dungarpur,"Bhoiwada, Dungarpur - RSPCB",03-05-2024 03:00:00,23.837789,73.714926,PM2.5,15,93,39
India,Rajasthan,Dungarpur,"Bhoiwada, Dungarpur - RSPCB",03-05-2024 03:00:00,23.837789,73.714926,CO,13,38,21
India,Rajasthan,Hanumangarh,"Housing Board, Hanumangarh - RSPCB",03-05-2024 03:00:00,29.610750,74.283608,NO2,10,111,41
India,Rajasthan,Jaipur,"Adarsh Nagar, Jaipur - RSPCB",03-05-2024 03:00:00,26.902909,75.836858,NO2,28,133,57
India,Rajasthan,Jaipur,"Adarsh Nagar, Jaipur - RSPCB",03-05-2024 03:00:00,26.902909,75.836858,SO2,6,19,12
India,Rajasthan,Jaipur,"Police Commissionerate, Jaipur - RSPCB",03-05-2024 03:00:00,26.9164092,75.7994901,PM10,66,147,112
India,Rajasthan,Jaipur,"Police Commissionerate, Jaipur - RSPCB",03-05-2024 03:00:00,26.9164092,75.7994901,NH3,4,5,4
India,Rajasthan,Jaipur,"Police Commissionerate, Jaipur - RSPCB",03-05-2024 03:00:00,26.9164092,75.7994901,CO,26,60,48
India,Rajasthan,Jaipur,"Sector-2 Murlipura, Jaipur - RSPCB",03-05-2024 03:00:00,26.960669,75.771817,NH3,2,15,8
India,Rajasthan,Jaisalmer,"Sadar Bazar, Jaisalmer - RSPCB",03-05-2024 03:00:00,26.912329,70.909168,PM2.5,26,102,43
India,Rajasthan,Jaisalmer,"Sadar Bazar, Jaisalmer - RSPCB",03-05-2024 03:00:00,26.912329,70.909168,NO2,23,51,33
India,Rajasthan,Jhalawar,"Rajlaxmi Nagar, Jhalawar - RSPCB",03-05-2024 03:00:00,24.588397,76.172782,CO,18,56,41
India,Rajasthan,Jhunjhunu,"Indra Nagar, Jhunjhunu - RSPCB",03-05-2024 03:00:00,28.108988,75.386577,CO,13,45,27
India,Rajasthan,Jodhpur,"Digari Kalan, Jodhpur - RSPCB",03-05-2024 03:00:00,26.295810,73.082283,SO2,2,8,5
India,Rajasthan,Karauli,"Satyawati Vihar, Karauli - RSPCB",03-05-2024 03:00:00,26.506177,77.025989,PM2.5,15,88,44
India,Rajasthan,Karauli,"Satyawati Vihar, Karauli - RSPCB",03-05-2024 03:00:00,26.506177,77.025989,CO,76,105,99
India,Rajasthan,Kota,"Dhanmandi, Kota - RSPCB",03-05-2024 03:00:00,25.164090,75.858137,NO2,14,98,41
India,Rajasthan,Kota,"Dhanmandi, Kota - RSPCB",03-05-2024 03:00:00,25.164090,75.858137,OZONE,2,155,18
India,Rajasthan,Kota,"Nayapura, Kota - RSPCB",03-05-2024 03:00:00,25.196024,75.855668,NH3,5,16,10
India,Rajasthan,Kota,"Shrinath Puram, Kota - RSPCB",03-05-2024 03:00:00,25.14389,75.821256,NO2,16,84,40
India,Rajasthan,Kota,"Shrinath Puram, Kota - RSPCB",03-05-2024 03:00:00,25.14389,75.821256,NH3,4,15,8
India,Rajasthan,Nagaur,"Karni Colony, Nagaur - RSPCB",03-05-2024 03:00:00,27.213494,73.734444,NH3,5,12,8
India,Rajasthan,Pali,"Indira Colony Vistar, Pali - RSPCB",03-05-2024 03:00:00,25.771061, 73.340227,PM10,90,172,136
India,Rajasthan,Pali,"Indira Colony Vistar, Pali - RSPCB",03-05-2024 03:00:00,25.771061, 73.340227,NO2,18,60,29
India,Rajasthan,Pali,"Indira Colony Vistar, Pali - RSPCB",03-05-2024 03:00:00,25.771061, 73.340227,SO2,6,10,8
India,Rajasthan,Pratapgarh,"Pragati Nagar, Pratapgarh - RSPCB",03-05-2024 03:00:00,24.041198,74.780702,PM10,NA,NA,NA
India,Rajasthan,Pratapgarh,"Pragati Nagar, Pratapgarh - RSPCB",03-05-2024 03:00:00,24.041198,74.780702,SO2,NA,NA,NA
India,Rajasthan,Rajsamand,"Dhoinda, Rajsamand - RSPCB",03-05-2024 03:00:00,25.036360,73.883502,OZONE,47,102,61
India,Rajasthan,Sawai Madhopur,"Sahu Nagar, Sawai Madhopur - RSPCB",03-05-2024 03:00:00,26.031443,76.359327,PM10,77,183,116
India,Rajasthan,Sawai Madhopur,"Sahu Nagar, Sawai Madhopur - RSPCB",03-05-2024 03:00:00,26.031443,76.359327,SO2,1,13,3
India,Rajasthan,Sawai Madhopur,"Sahu Nagar, Sawai Madhopur - RSPCB",03-05-2024 03:00:00,26.031443,76.359327,CO,2,48,16
India,Rajasthan,Sikar,"Radhakishan Pura, Sikar - RSPCB",03-05-2024 03:00:00,27.608912,75.153302,PM2.5,22,272,80
India,Rajasthan,Sikar,"Radhakishan Pura, Sikar - RSPCB",03-05-2024 03:00:00,27.608912,75.153302,CO,7,114,78
India,Rajasthan,Sirohi,"Vedhaynath Colony, Sirohi - RSPCB",03-05-2024 03:00:00,24.885261,72.857549,PM10,60,197,95
India,Rajasthan,Sirohi,"Vedhaynath Colony, Sirohi - RSPCB",03-05-2024 03:00:00,24.885261,72.857549,NH3,2,13,4
India,Rajasthan,Tonk,"Shastri Nagar, Tonk - RSPCB",03-05-2024 03:00:00,26.159933,75.780517,OZONE,27,129,58
India,Sikkim,Gangtok,"Zero Point GICI, Gangtok - SSPCB",03-05-2024 03:00:00,27.338530,88.614099,CO,9,23,18
India,TamilNadu,Ariyalur,"Keelapalur, Ariyalur - TNPCB",03-05-2024 03:00:00,11.06825,79.07033,NO2,5,7,6
India,TamilNadu,Ariyalur,"Keelapalur, Ariyalur - TNPCB",03-05-2024 03:00:00,11.06825,79.07033,NH3,1,2,2
India,TamilNadu,Chennai,"Arumbakkam, Chennai - TNPCB",03-05-2024 03:00:00,13.0664,80.2112 ,PM10,8,92,48
India,TamilNadu,Chennai,"Kodungaiyur, Chennai - TNPCB",03-05-2024 03:00:00,13.1278,80.2642,OZONE,38,88,70
India,TamilNadu,Chennai,"Manali, Chennai - CPCB",03-05-2024 03:00:00,13.164544,80.26285,PM2.5,16,320,71
India,TamilNadu,Chennai,"Manali, Chennai - CPCB",03-05-2024 03:00:00,13.164544,80.26285,PM10,16,199,63
India,TamilNadu,Chennai,"Manali, Chennai - CPCB",03-05-2024 03:00:00,13.164544,80.26285,CO,87,113,102
India,TamilNadu,Chennai,"Royapuram, Chennai - TNPCB",03-05-2024 03:00:00,13.1036,80.2909,PM10,10,118,44
India,TamilNadu,Chennai,"Royapuram, Chennai - TNPCB",03-05-2024 03:00:00,13.1036,80.2909,SO2,2,12,4
India,TamilNadu,Chennai,"Velachery Res. Area, Chennai - CPCB",03-05-2024 03:00:00,13.0052189,80.2398125,PM10,14,27,21
India,TamilNadu,Chennai,"Velachery Res. Area, Chennai - CPCB",03-05-2024 03:00:00,13.0052189,80.2398125,NO2,11,21,17
India,TamilNadu,Chennai,"Velachery Res. Area, Chennai - CPCB",03-05-2024 03:00:00,13.0052189,80.2398125,SO2,11,11,11
India,TamilNadu,Coimbatore,"PSG College of Arts and Science, Coimbatore - TNPCB",03-05-2024 03:00:00,11.0328,77.0349,PM2.5,NA,NA,NA
India,TamilNadu,Coimbatore,"PSG College of Arts and Science, Coimbatore - TNPCB",03-05-2024 03:00:00,11.0328,77.0349,NO2,NA,NA,NA
India,TamilNadu,Cuddalore,"Kudikadu, Cuddalore - TNPCB",03-05-2024 03:00:00,11.6829898,79.7532099,PM2.5,24,145,60
India,TamilNadu,Cuddalore,"Kudikadu, Cuddalore - TNPCB",03-05-2024 03:00:00,11.6829898,79.7532099,PM10,29,131,69
India,TamilNadu,Cuddalore,"Semmandalam, Cuddalore - TNPCB",03-05-2024 03:00:00,11.7637683,79.7499835,PM10,9,82,25
India,TamilNadu,Cuddalore,"Semmandalam, Cuddalore - TNPCB",03-05-2024 03:00:00,11.7637683,79.7499835,NH3,1,3,3
India,TamilNadu,Gummidipoondi,"Anthoni Pillai Nagar, Gummidipoondi - TNPCB",03-05-2024 03:00:00,13.4127,80.1081,PM10,30,124,87
India,TamilNadu,Ooty,"Bombay Castel, Ooty - TNPCB",03-05-2024 03:00:00,11.4068288,76.7138973,PM10,46,111,79
India,TamilNadu,Ooty,"Bombay Castel, Ooty - TNPCB",03-05-2024 03:00:00,11.4068288,76.7138973,CO,22,23,22
India,TamilNadu,Ooty,"Bombay Castel, Ooty - TNPCB",03-05-2024 03:00:00,11.4068288,76.7138973,OZONE,5,6,5
India,TamilNadu,Palkalaiperur,"Bharathidasan University, Palkalaiperur - TNPCB",03-05-2024 03:00:00,10.681158,78.741746,PM10,NA,NA,NA
India,TamilNadu,Palkalaiperur,"Bharathidasan University, Palkalaiperur - TNPCB",03-05-2024 03:00:00,10.681158,78.741746,CO,2,8,4
India,TamilNadu,Salem,"Sona College of Technology, Salem - TNPCB",03-05-2024 03:00:00,11.679111,78.125052,OZONE,3,4,3
India,TamilNadu,Thoothukudi,"Meelavittan, Thoothukudi - TNPCB",03-05-2024 03:00:00,8.816428 ,78.099039,NO2,29,55,37
India,TamilNadu,Virudhunagar,"Collectorate Office, Virudhunagar - TNPCB",03-05-2024 03:00:00,9.559382,77.948828,PM2.5,NA,NA,NA
India,TamilNadu,Virudhunagar,"Collectorate Office, Virudhunagar - TNPCB",03-05-2024 03:00:00,9.559382,77.948828,NH3,NA,NA,NA
India,Telangana,Hyderabad,"Bollaram Industrial Area, Hyderabad - TSPCB",03-05-2024 03:00:00,17.540891,78.358528,NH3,2,7,3
India,Telangana,Hyderabad,"Bollaram Industrial Area, Hyderabad - TSPCB",03-05-2024 03:00:00,17.540891,78.358528,CO,8,74,54
India,Telangana,Hyderabad,"Central University, Hyderabad - TSPCB",03-05-2024 03:00:00,17.460103,78.334361,OZONE,3,4,4
India,Telangana,Hyderabad,"ECIL Kapra, Hyderabad - TSPCB",03-05-2024 03:00:00,17.470431,78.566959,PM2.5,40,399,84
India,Telangana,Hyderabad,"ECIL Kapra, Hyderabad - TSPCB",03-05-2024 03:00:00,17.470431,78.566959,PM10,62,438,94
India,Telangana,Hyderabad,"ECIL Kapra, Hyderabad - TSPCB",03-05-2024 03:00:00,17.470431,78.566959,OZONE,14,66,22
India,Telangana,Hyderabad,"IITH Kandi, Hyderabad - TSPCB",03-05-2024 03:00:00,17.585705,78.126199,NO2,9,14,12
India,Telangana,Hyderabad,"Kokapet, Hyderabad - TSPCB",03-05-2024 03:00:00,17.393559,78.339194,NO2,9,9,9
India,Telangana,Hyderabad,"Kokapet, Hyderabad - TSPCB",03-05-2024 03:00:00,17.393559,78.339194,CO,23,26,24
India,Telangana,Hyderabad,"Ramachandrapuram, Hyderabad - TSPCB",03-05-2024 03:00:00,17.528544,78.286195,PM10,62,73,68
India,Telangana,Hyderabad,"Ramachandrapuram, Hyderabad - TSPCB",03-05-2024 03:00:00,17.528544,78.286195,CO,14,88,16
India,Telangana,Hyderabad,"Sanathnagar, Hyderabad - TSPCB",03-05-2024 03:00:00,17.4559458,78.4332152,NO2,19,32,29
India,Tripura,Agartala,"Bardowali, Agartala - Tripura SPCB",03-05-2024 03:00:00,23.8175497,91.2726974,NH3,1,3,2
India,Tripura,Agartala,"Bardowali, Agartala - Tripura SPCB",03-05-2024 03:00:00,23.8175497,91.2726974,SO2,30,32,31
India,Uttar_Pradesh,Agra,"Manoharpur, Agra - UPPCB",03-05-2024 03:00:00,27.23711,78.01936,PM10,23,82,48
India,Uttar_Pradesh,Agra,"Rohta, Agra - UPPCB",03-05-2024 03:00:00,27.106972,78.000111,NO2,1,4,2
India,Uttar_Pradesh,Agra,"Sanjay Palace, Agra - UPPCB",03-05-2024 03:00:00,27.19865833,78.00598056,PM10,24,103,51
India,Uttar_Pradesh,Agra,"Shahjahan Garden, Agra - UPPCB",03-05-2024 03:00:00,27.169338,78.03582,PM2.5,25,129,70
India,Uttar_Pradesh,Agra,"Shahjahan Garden, Agra - UPPCB",03-05-2024 03:00:00,27.169338,78.03582,NO2,22,23,22
India,Uttar_Pradesh,Agra,"Shastripuram, Agra - UPPCB",03-05-2024 03:00:00,27.19862,77.92066,NH3,NA,NA,NA
India,Uttar_Pradesh,Agra,"Shastripuram, Agra - UPPCB",03-05-2024 03:00:00,27.19862,77.92066,SO2,14,18,15
India,Uttar_Pradesh,Baghpat,"Sardar Patel Inter College, Baghpat - UPPCB",03-05-2024 03:00:00,28.964949,77.278761,PM2.5,43,213,119
India,Uttar_Pradesh,Bareilly,"Rajendra Nagar, Bareilly - UPPCB",03-05-2024 03:00:00,28.38910936,79.42963708,PM10,48,101,69
India,Uttar_Pradesh,Bareilly,"Rajendra Nagar, Bareilly - UPPCB",03-05-2024 03:00:00,28.38910936,79.42963708,NH3,1,1,1
India,Uttar_Pradesh,Bulandshahr,"Yamunapuram, Bulandshahr - UPPCB",03-05-2024 03:00:00,28.406963,77.849831,PM2.5,38,309,166
India,Uttar_Pradesh,Bulandshahr,"Yamunapuram, Bulandshahr - UPPCB",03-05-2024 03:00:00,28.406963,77.849831,NO2,14,142,72
India,Uttar_Pradesh,Bulandshahr,"Yamunapuram, Bulandshahr - UPPCB",03-05-2024 03:00:00,28.406963,77.849831,OZONE,2,148,23
India,Uttar_Pradesh,Firozabad,"Nagla Bhau, Firozabad - UPPCB",03-05-2024 03:00:00,27.168897,78.376960,PM10,39,148,80
India,Uttar_Pradesh,Firozabad,"Nagla Bhau, Firozabad - UPPCB",03-05-2024 03:00:00,27.168897,78.376960,SO2,21,34,26
India,Uttar_Pradesh,Firozabad,"Vibhab Nagar, Firozabad - UPPCB",03-05-2024 03:00:00,27.1594,78.3953,PM2.5,47,187,88
India,Uttar_Pradesh,Firozabad,"Vibhab Nagar, Firozabad - UPPCB",03-05-2024 03:00:00,27.1594,78.3953,PM10,35,105,60
India,Uttar_Pradesh,Ghaziabad,"Indirapuram, Ghaziabad - UPPCB",03-05-2024 03:00:00,28.646233,77.358075,NH3,5,7,6
India,Uttar_Pradesh,Ghaziabad,"Sanjay Nagar, Ghaziabad - UPPCB",03-05-2024 03:00:00,28.685382,77.453839,PM2.5,40,258,122
India,Uttar_Pradesh,Ghaziabad,"Sanjay Nagar, Ghaziabad - UPPCB",03-05-2024 03:00:00,28.685382,77.453839,PM10,116,226,153
India,Uttar_Pradesh,Ghaziabad,"Vasundhara, Ghaziabad - UPPCB",03-05-2024 03:00:00,28.6603346,77.3572563,NH3,5,9,6
India,Uttar_Pradesh,Ghaziabad,"Vasundhara, Ghaziabad - UPPCB",03-05-2024 03:00:00,28.6603346,77.3572563,SO2,5,114,26
India,Uttar_Pradesh,Gorakhpur,"Madan Mohan Malaviya University of Technology, Gorakhpur - UPPCB",03-05-2024 03:00:00,26.730136,83.433859,OZONE,29,64,38
India,Uttar_Pradesh,Greater Noida,"Knowledge Park - III, Greater Noida - UPPCB",03-05-2024 03:00:00,28.47272,77.482000,PM10,137,270,194
India,Uttar_Pradesh,Greater Noida,"Knowledge Park - III, Greater Noida - UPPCB",03-05-2024 03:00:00,28.47272,77.482000,SO2,8,36,17
India,Uttar_Pradesh,Greater Noida,"Knowledge Park - V, Greater Noida - UPPCB",03-05-2024 03:00:00,28.557054,77.453663,NH3,3,5,4
India,Uttar_Pradesh,Hapur,"Anand Vihar, Hapur - UPPCB",03-05-2024 03:00:00,28.725645,77.749675,PM10,92,218,152
India,Uttar_Pradesh,Hapur,"Anand Vihar, Hapur - UPPCB",03-05-2024 03:00:00,28.725645,77.749675,NH3,3,5,4
India,Uttar_Pradesh,Jhansi,"Shivaji Nagar, Jhansi - UPPCB",03-05-2024 03:00:00,25.4547,78.6039,SO2,14,19,16
India,Uttar_Pradesh,Kanpur,"FTI Kidwai Nagar, Kanpur - UPPCB",03-05-2024 03:00:00,26.428282,80.327067,NH3,2,3,2
India,Uttar_Pradesh,Kanpur,"FTI Kidwai Nagar, Kanpur - UPPCB",03-05-2024 03:00:00,26.428282,80.327067,OZONE,9,16,10
India,Uttar_Pradesh,Kanpur,"NSI Kalyanpur, Kanpur - UPPCB",03-05-2024 03:00:00,26.509954,80.249612,NH3,1,3,2
India,Uttar_Pradesh,Khurja,"Kalindi Kunj, Khurja - UPPCB",03-05-2024 03:00:00,28.2348927,77.8683002,CO,30,66,49
India,Uttar_Pradesh,Lucknow,"B R Ambedkar University, Lucknow - UPPCB",03-05-2024 03:00:00,26.766433,80.927299,NH3,4,5,5
India,Uttar_Pradesh,Lucknow,"B R Ambedkar University, Lucknow - UPPCB",03-05-2024 03:00:00,26.766433,80.927299,CO,20,30,27
India,Uttar_Pradesh,Lucknow,"Gomti Nagar, Lucknow - UPPCB",03-05-2024 03:00:00,26.868120,81.005119,PM10,79,130,105
India,Uttar_Pradesh,Lucknow,"Kendriya Vidyalaya, Lucknow - CPCB",03-05-2024 03:00:00,26.906111,80.948222,PM2.5,82,157,114
India,Uttar_Pradesh,Lucknow,"Kendriya Vidyalaya, Lucknow - CPCB",03-05-2024 03:00:00,26.906111,80.948222,OZONE,56,167,110
India,Uttar_Pradesh,Lucknow,"Kukrail Picnic Spot-1, Lucknow - UPPCB",03-05-2024 03:00:00,26.90723,80.98579,PM2.5,46,96,69
India,Uttar_Pradesh,Lucknow,"Lalbagh, Lucknow - CPCB",03-05-2024 03:00:00,26.8458805,80.9365541,SO2,3,17,11
India,Uttar_Pradesh,Lucknow,"Talkatora District Industries Center, Lucknow - CPCB",03-05-2024 03:00:00,26.83399722,80.8917361,PM2.5,179,306,262
India,Uttar_Pradesh,Lucknow,"Talkatora District Industries Center, Lucknow - CPCB",03-05-2024 03:00:00,26.83399722,80.8917361,CO,8,62,34
India,Uttar_Pradesh,Meerut,"Ganga Nagar, Meerut - UPPCB",03-05-2024 03:00:00,28.999264,77.7590354,PM10,120,194,153
India,Uttar_Pradesh,Meerut,"Pallavpuram Phase 2, Meerut - UPPCB",03-05-2024 03:00:00,29.063510,77.709723,SO2,13,52,31
India,Uttar_Pradesh,Moradabad,"Buddhi Vihar, Moradabad - UPPCB",03-05-2024 03:00:00,28.83526,78.74460,PM10,94,167,119
India,Uttar_Pradesh,Moradabad,"Eco Herbal Park, Moradabad - UPPCB",03-05-2024 03:00:00,28.840739,78.697531,SO2,4,50,22
India,Uttar_Pradesh,Moradabad,"Eco Herbal Park, Moradabad - UPPCB",03-05-2024 03:00:00,28.840739,78.697531,CO,8,96,12
India,Uttar_Pradesh,Moradabad,"Employment Office, Moradabad - UPPCB",03-05-2024 03:00:00,28.88528,78.73880,PM10,84,134,108
India,Uttar_Pradesh,Moradabad,"Jigar Colony, Moradabad - UPPCB",03-05-2024 03:00:00,28.856664,78.772638,NH3,6,6,6
India,Uttar_Pradesh,Moradabad,"Kashiram Nagar, Moradabad - UPPCB",03-05-2024 03:00:00,28.849399,78.742362,PM2.5,45,243,78
India,Uttar_Pradesh,Moradabad,"Transport Nagar, Moradabad - UPPCB",03-05-2024 03:00:00,28.802625,78.753728,PM2.5,27,86,51
India,Uttar_Pradesh,Muzaffarnagar,"New Mandi, Muzaffarnagar - UPPCB",03-05-2024 03:00:00,29.4723508,77.7194031,PM2.5,58,306,171
India,Uttar_Pradesh,Muzaffarnagar,"New Mandi, Muzaffarnagar - UPPCB",03-05-2024 03:00:00,29.4723508,77.7194031,SO2,12,56,30
India,Uttar_Pradesh,Noida,"Sector - 125, Noida - UPPCB",03-05-2024 03:00:00,28.5447608,77.3231257,NO2,12,128,67
India,Uttar_Pradesh,Noida,"Sector-116, Noida - UPPCB",03-05-2024 03:00:00,28.569230,77.393848,PM2.5,52,310,125
India,Uttar_Pradesh,Prayagraj,"Jhunsi, Prayagraj - UPPCB",03-05-2024 03:00:00,25.425602,81.917152,NO2,6,6,6
India,Uttar_Pradesh,Prayagraj,"Nagar Nigam, Prayagraj - UPPCB",03-05-2024 03:00:00,25.44919916 ,81.82735986 ,PM10,48,201,96
India,Uttar_Pradesh,Varanasi,"IESD Banaras Hindu University, Varanasi - UPPCB",03-05-2024 03:00:00,25.262326,82.995408,PM10,28,71,42
India,Uttar_Pradesh,Varanasi,"Maldahiya, Varanasi - UPPCB",03-05-2024 03:00:00,25.32393,82.99687,SO2,25,26,26
India,Uttar_Pradesh,Varanasi,"Maldahiya, Varanasi - UPPCB",03-05-2024 03:00:00,25.32393,82.99687,OZONE,3,27,7
India,Uttar_Pradesh,Vrindavan,"Omex Eternity, Vrindavan - UPPCB",03-05-2024 03:00:00,27.5714090,77.6557570,OZONE,24,36,28
India,Uttarakhand,Dehradun,"Doon University, Dehradun - UKPCB",03-05-2024 03:00:00,30.269444,78.044167,PM2.5,55,104,73
India,Uttarakhand,Dehradun,"Doon University, Dehradun - UKPCB",03-05-2024 03:00:00,30.269444,78.044167,CO,17,28,23
India,Uttarakhand,Kashipur,"Govt. Girls Inter College, Kashipur - UKPCB",03-05-2024 03:00:00,29.2124114,78.9611753,PM10,81,122,103
India,West_Bengal,Asansol,"Asansol Court Area, Asansol - WBPCB",03-05-2024 03:00:00,23.685297,86.945968,PM2.5,78,394,270
India,West_Bengal,Asansol,"Asansol Court Area, Asansol - WBPCB",03-05-2024 03:00:00,23.685297,86.945968,SO2,5,16,9
India,West_Bengal,Barrackpore,"SVSPA Campus, Barrackpore - WBPCB",03-05-2024 03:00:00,22.7605581,88.3617589,PM10,60,155,102
India,West_Bengal,Barrackpore,"SVSPA Campus, Barrackpore - WBPCB",03-05-2024 03:00:00,22.7605581,88.3617589,NO2,9,26,16
India,West_Bengal,Durgapur,"PCBL Residential Complex, Durgapur - WBPCB",03-05-2024 03:00:00,23.5087640,87.3544400,PM2.5,95,331,203
India,West_Bengal,Durgapur,"Sidhu Kanhu Indoor Stadium, Durgapur - WBPCB",03-05-2024 03:00:00,23.5404352,87.2892225,PM2.5,147,309,222
India,West_Bengal,Durgapur,"Sidhu Kanhu Indoor Stadium, Durgapur - WBPCB",03-05-2024 03:00:00,23.5404352,87.2892225,SO2,14,68,30
India,West_Bengal,Durgapur,"Sidhu Kanhu Indoor Stadium, Durgapur - WBPCB",03-05-2024 03:00:00,23.5404352,87.2892225,CO,22,108,58
India,West_Bengal,Howrah,"Belur Math, Howrah - WBPCB",03-05-2024 03:00:00,22.629801,88.352017,NH3,1,2,1
India,West_Bengal,Howrah,"Ghusuri, Howrah - WBPCB",03-05-2024 03:00:00,22.611968,88.347422,OZONE,13,30,17
India,West_Bengal,Howrah,"Padmapukur, Howrah - WBPCB",03-05-2024 03:00:00,22.5687319,88.2797276,PM2.5,34,161,80
India,West_Bengal,Howrah,"Padmapukur, Howrah - WBPCB",03-05-2024 03:00:00,22.5687319,88.2797276,CO,6,52,29
India,West_Bengal,Kolkata,"Bidhannagar, Kolkata - WBPCB",03-05-2024 03:00:00,22.58157048,88.41002457,PM10,41,127,79
India,West_Bengal,Kolkata,"Bidhannagar, Kolkata - WBPCB",03-05-2024 03:00:00,22.58157048,88.41002457,NH3,9,10,10
India,West_Bengal,Kolkata,"Fort William, Kolkata - WBPCB",03-05-2024 03:00:00,22.556640,88.342674,PM2.5,40,96,61
India,West_Bengal,Kolkata,"Fort William, Kolkata - WBPCB",03-05-2024 03:00:00,22.556640,88.342674,PM10,54,118,80
India,West_Bengal,Kolkata,"Jadavpur, Kolkata - WBPCB",03-05-2024 03:00:00,22.49929,88.36917,PM2.5,25,87,46
India,West_Bengal,Kolkata,"Jadavpur, Kolkata - WBPCB",03-05-2024 03:00:00,22.49929,88.36917,PM10,37,99,63
India,West_Bengal,Kolkata,"Jadavpur, Kolkata - WBPCB",03-05-2024 03:00:00,22.49929,88.36917,NO2,19,30,24
India,West_Bengal,Kolkata,"Jadavpur, Kolkata - WBPCB",03-05-2024 03:00:00,22.49929,88.36917,CO,3,16,7
India,West_Bengal,Kolkata,"Rabindra Bharati University, Kolkata - WBPCB",03-05-2024 03:00:00,22.627847,88.380669,PM10,49,107,73
India,West_Bengal,Kolkata,"Rabindra Bharati University, Kolkata - WBPCB",03-05-2024 03:00:00,22.627847,88.380669,NO2,23,39,29
India,West_Bengal,Kolkata,"Rabindra Bharati University, Kolkata - WBPCB",03-05-2024 03:00:00,22.627847,88.380669,SO2,6,174,33
India,West_Bengal,Kolkata,"Rabindra Bharati University, Kolkata - WBPCB",03-05-2024 03:00:00,22.627847,88.380669,CO,24,40,31
India,West_Bengal,Kolkata,"Rabindra Sarobar, Kolkata - WBPCB",03-05-2024 03:00:00,22.51106,88.35142,PM10,49,116,71
India,West_Bengal,Kolkata,"Rabindra Sarobar, Kolkata - WBPCB",03-05-2024 03:00:00,22.51106,88.35142,NH3,7,12,10
India,West_Bengal,Kolkata,"Victoria, Kolkata - WBPCB",03-05-2024 03:00:00,22.5448082,88.3403691,PM2.5,25,110,59
India,West_Bengal,Kolkata,"Victoria, Kolkata - WBPCB",03-05-2024 03:00:00,22.5448082,88.3403691,NH3,4,7,5
India,West_Bengal,Kolkata,"Victoria, Kolkata - WBPCB",03-05-2024 03:00:00,22.5448082,88.3403691,CO,32,62,38
India,West_Bengal,Siliguri,"Ward-32 Bapupara, Siliguri - WBPCB",03-05-2024 03:00:00,26.6879226,88.4152495,PM10,100,167,128
India,West_Bengal,Siliguri,"Ward-32 Bapupara, Siliguri - WBPCB",03-05-2024 03:00:00,26.6879226,88.4152495,NH3,1,13,9
India,Andhra_Pradesh,Amaravati,"Secretariat, Amaravati - APPCB",03-05-2024 03:00:00,16.5150833,80.5181667,NO2,3,11,6
India,Andhra_Pradesh,Amaravati,"Secretariat, Amaravati - APPCB",03-05-2024 03:00:00,16.5150833,80.5181667,SO2,7,12,9
India,Andhra_Pradesh,Anantapur,"Gulzarpet, Anantapur - APPCB",03-05-2024 03:00:00,14.675886,77.593027,PM10,78,151,109
India,Andhra_Pradesh,Anantapur,"Gulzarpet, Anantapur - APPCB",03-05-2024 03:00:00,14.675886,77.593027,OZONE,3,66,19
India,Andhra_Pradesh,Chittoor,"Gangineni Cheruvu, Chittoor - APPCB",03-05-2024 03:00:00,13.204880,79.097889,PM2.5,NA,NA,NA
India,Andhra_Pradesh,Chittoor,"Gangineni Cheruvu, Chittoor - APPCB",03-05-2024 03:00:00,13.204880,79.097889,OZONE,NA,NA,NA
India,Andhra_Pradesh,Tirupati,"Tirumala, Tirupati - APPCB",03-05-2024 03:00:00,13.67,79.35,CO,36,59,41
India,Andhra_Pradesh,Tirupati,"Vaikuntapuram, Tirupati - APPCB",03-05-2024 03:00:00,13.615387,79.409230,OZONE,10,13,12
India,Andhra_Pradesh,Vijayawada,"HB Colony, Vijayawada - APPCB",03-05-2024 03:00:00,16.536107,80.594233,PM10,38,102,62
India,Andhra_Pradesh,Vijayawada,"Kanuru, Vijayawada - APPCB",03-05-2024 03:00:00,16.486692,80.699436,CO,38,38,38
India,Andhra_Pradesh,Vijayawada,"Rajiv Gandhi Park, Vijayawada - APPCB",03-05-2024 03:00:00,16.509717,80.612222,PM2.5,35,147,73
India,Andhra_Pradesh,Vijayawada,"Rajiv Gandhi Park, Vijayawada - APPCB",03-05-2024 03:00:00,16.509717,80.612222,CO,36,40,36
India,Andhra_Pradesh,Vijayawada,"Rajiv Nagar, Vijayawada - APPCB",03-05-2024 03:00:00,16.554731,80.649110,PM10,59,82,64
India,Andhra_Pradesh,Vijayawada,"Rajiv Nagar, Vijayawada - APPCB",03-05-2024 03:00:00,16.554731,80.649110,CO,40,40,40
India,Andhra_Pradesh,Visakhapatnam,"GVM Corporation, Visakhapatnam - APPCB",03-05-2024 03:00:00,17.72,83.3,NO2,21,40,29
India,Assam,Byrnihat,"Central Academy for SFS, Byrnihat - PCBA",03-05-2024 03:00:00,26.071318,91.87488,PM2.5,130,500,279
India,Assam,Byrnihat,"Central Academy for SFS, Byrnihat - PCBA",03-05-2024 03:00:00,26.071318,91.87488,OZONE,23,27,23
India,Assam,Guwahati,"Pan Bazaar, Guwahati - PCBA",03-05-2024 03:00:00,26.187500,91.744194,NH3,2,4,3
India,Assam,Guwahati,"Pan Bazaar, Guwahati - PCBA",03-05-2024 03:00:00,26.187500,91.744194,CO,18,51,33
India,Assam,Nagaon,"Christianpatty, Nagaon - PCBA",03-05-2024 03:00:00,26.349082,92.68449,OZONE,16,136,69
India,Assam,Nalbari,"Bata Chowk, Nalbari - PCBA",03-05-2024 03:00:00,26.446912,91.439057,PM2.5,62,173,95
India,Bihar,Araria,"Kharahiya Basti, Araria - BSPCB",03-05-2024 03:00:00,26.146529,87.454184,PM2.5,54,108,86
India,Bihar,Araria,"Kharahiya Basti, Araria - BSPCB",03-05-2024 03:00:00,26.146529,87.454184,SO2,9,18,14
India,Bihar,Araria,"Kharahiya Basti, Araria - BSPCB",03-05-2024 03:00:00,26.146529,87.454184,CO,16,30,21
India,Bihar,Arrah,"New DM Office, Arrah - BSPCB",03-05-2024 03:00:00,25.5626095,84.663264,PM2.5,NA,NA,NA
India,Bihar,Aurangabad,"Gurdeo Nagar, Aurangabad - BSPCB",03-05-2024 03:00:00,24.75746,84.366208,NO2,2,12,5
India,Bihar,Bettiah,"Kamalnath Nagar, Bettiah - BSPCB",03-05-2024 03:00:00,26.80365,84.51954,PM2.5,82,321,187
India,Bihar,Bhagalpur,"DM Office_Kachari Chowk, Bhagalpur - BSPCB",03-05-2024 03:00:00,25.251013,86.989001,CO,24,88,39
India,Bihar,Bihar Sharif,"D M Colony, Bihar Sharif - BSPCB",03-05-2024 03:00:00,25.204762,85.514960,NO2,9,10,9
India,Bihar,Bihar Sharif,"D M Colony, Bihar Sharif - BSPCB",03-05-2024 03:00:00,25.204762,85.514960,OZONE,15,49,40
India,Bihar,Buxar,"Charitra Van, Buxar - BSPCB (Formerly known as Central Jail)",03-05-2024 03:00:00,25.567520,83.966379,NO2,1,2,1
India,Bihar,Chhapra,"Darshan Nagar, Chhapra - BSPCB",03-05-2024 03:00:00,25.7808257,84.7446768,PM2.5,93,197,124
India,Bihar,Gaya,"Collectorate, Gaya - BSPCB",03-05-2024 03:00:00,24.7955,84.9994,PM2.5,37,336,137
India,Bihar,Gaya,"Collectorate, Gaya - BSPCB",03-05-2024 03:00:00,24.7955,84.9994,SO2,4,25,16
India,Bihar,Gaya,"Kareemganj, Gaya - BSPCB",03-05-2024 03:00:00,24.792403,84.992416,PM10,64,120,93
India,Bihar,Gaya,"SFTI Kusdihra, Gaya - BSPCB",03-05-2024 03:00:00,24.762518,84.982348,OZONE,7,73,14
India,Bihar,Hajipur,"Industrial Area, Hajipur - BSPCB",03-05-2024 03:00:00,25.697189,85.245900,PM2.5,62,208,102
India,Bihar,Hajipur,"Industrial Area, Hajipur - BSPCB",03-05-2024 03:00:00,25.697189,85.245900,CO,16,56,39
India,Bihar,Katihar,"Mirchaibari, Katihar - BSPCB",03-05-2024 03:00:00,25.560083,87.553265,NH3,3,9,6
India,Bihar,Katihar,"Mirchaibari, Katihar - BSPCB",03-05-2024 03:00:00,25.560083,87.553265,OZONE,12,28,19
India,Bihar,Kishanganj,"SDM Office_Khagra, Kishanganj - BSPCB",03-05-2024 03:00:00,26.0881305,87.93840336,PM2.5,67,213,138
India,Bihar,Kishanganj,"SDM Office_Khagra, Kishanganj - BSPCB",03-05-2024 03:00:00,26.0881305,87.93840336,PM10,131,435,234
India,Bihar,Manguraha,"Forest Rest House, Manguraha - BSPCB",03-05-2024 03:00:00,27.308328,84.531742,NO2,9,22,17
India,Bihar,Manguraha,"Forest Rest House, Manguraha - BSPCB",03-05-2024 03:00:00,27.308328,84.531742,SO2,1,7,4
India,Bihar,Munger,"Town Hall, Munger - BSPCB",03-05-2024 03:00:00,25.376776,86.471523,NO2,4,6,5
India,Bihar,Muzaffarpur,"Buddha Colony, Muzaffarpur - BSPCB",03-05-2024 03:00:00,26.11442,85.39813,PM10,141,310,211
India,Bihar,Muzaffarpur,"Buddha Colony, Muzaffarpur - BSPCB",03-05-2024 03:00:00,26.11442,85.39813,CO,10,42,31
India,Bihar,Muzaffarpur,"MIT-Daudpur Kothi, Muzaffarpur - BSPCB",03-05-2024 03:00:00,26.1403345,85.3650192,PM2.5,111,313,224
India,Bihar,Muzaffarpur,"MIT-Daudpur Kothi, Muzaffarpur - BSPCB",03-05-2024 03:00:00,26.1403345,85.3650192,OZONE,9,82,46
India,Bihar,Muzaffarpur,"Muzaffarpur Collectorate, Muzaffarpur - BSPCB",03-05-2024 03:00:00,26.1209,85.3647,NO2,18,88,40
India,Bihar,Patna,"Govt. High School Shikarpur, Patna - BSPCB",03-05-2024 03:00:00,25.592539,85.227158,PM2.5,135,301,241
India,Bihar,Patna,"Govt. High School Shikarpur, Patna - BSPCB",03-05-2024 03:00:00,25.592539,85.227158,PM10,112,257,180
India,Bihar,Patna,"Govt. High School Shikarpur, Patna - BSPCB",03-05-2024 03:00:00,25.592539,85.227158,NH3,5,6,5
India,Bihar,Patna,"Govt. High School Shikarpur, Patna - BSPCB",03-05-2024 03:00:00,25.592539,85.227158,CO,26,66,50
India,Bihar,Patna,"Govt. High School Shikarpur, Patna - BSPCB",03-05-2024 03:00:00,25.592539,85.227158,OZONE,1,59,5
India,Bihar,Patna,"Muradpur, Patna - BSPCB",03-05-2024 03:00:00,25.619651,85.147382,SO2,6,17,10
India,Bihar,Patna,"Muradpur, Patna - BSPCB",03-05-2024 03:00:00,25.619651,85.147382,CO,14,110,71
India,Bihar,Patna,"Rajbansi Nagar, Patna - BSPCB",03-05-2024 03:00:00,25.599486,85.113666,PM10,139,223,175
India,Bihar,Patna,"Rajbansi Nagar, Patna - BSPCB",03-05-2024 03:00:00,25.599486,85.113666,OZONE,14,144,42
India,Bihar,Purnia,"Mariam Nagar, Purnia - BSPCB",03-05-2024 03:00:00,25.366336,87.117468,NO2,NA,NA,NA
India,Bihar,Rajgir,"Dangi Tola, Rajgir - BSPCB",03-05-2024 03:00:00,25.03280,85.41948,OZONE,31,37,34
India,Bihar,Samastipur,"DM Office_Kasipur, Samastipur - BSPCB",03-05-2024 03:00:00,25.859655,85.77944,PM2.5,47,193,99
India,Bihar,Samastipur,"DM Office_Kasipur, Samastipur - BSPCB",03-05-2024 03:00:00,25.859655,85.77944,SO2,10,10,10
India,Bihar,Sasaram,"Dada Peer, Sasaram - BSPCB",03-05-2024 03:00:00,24.952822,84.002396,PM10,93,154,117
India,Bihar,Sasaram,"Dada Peer, Sasaram - BSPCB",03-05-2024 03:00:00,24.952822,84.002396,SO2,20,23,23
India,Chandigarh,Chandigarh,"Sector-25, Chandigarh - CPCC",03-05-2024 03:00:00,30.751462,76.762879,NH3,8,22,12
India,Chandigarh,Chandigarh,"Sector-25, Chandigarh - CPCC",03-05-2024 03:00:00,30.751462,76.762879,SO2,5,106,15
India,Chandigarh,Chandigarh,"Sector-53, Chandigarh - CPCC",03-05-2024 03:00:00,30.719859,76.738637,NO2,8,33,21
India,Chhattisgarh,Bhilai,"32Bungalows, Bhilai - CECB",03-05-2024 03:00:00,21.194815,81.314770,NH3,6,6,6
India,Chhattisgarh,Bhilai,"32Bungalows, Bhilai - CECB",03-05-2024 03:00:00,21.194815,81.314770,SO2,15,18,16
India,Chhattisgarh,Bhilai,"Hathkhoj, Bhilai - CECB",03-05-2024 03:00:00,21.224231,81.408350,CO,12,35,23
India,Chhattisgarh,Bhilai,"Hathkhoj, Bhilai - CECB",03-05-2024 03:00:00,21.224231,81.408350,OZONE,21,31,23
India,Chhattisgarh,Bilaspur,"Mangala, Bilaspur - NTPC",03-05-2024 03:00:00,22.08815,82.13737,PM10,42,98,70
India,Chhattisgarh,Chhal,"Nawapara SECL Colony, Chhal - CECB",03-05-2024 03:00:00,22.118125,83.140608,PM10,49,93,74
India,Chhattisgarh,Korba,"Rampur, Korba - CECB",03-05-2024 03:00:00,22.368195,82.746431,NO2,20,46,36
India,Chhattisgarh,Korba,"Urja Nagar, Korba - CECB",03-05-2024 03:00:00,22.348441,82.549611,NO2,54,76,65
India,Chhattisgarh,Korba,"Urja Nagar, Korba - CECB",03-05-2024 03:00:00,22.348441,82.549611,NH3,3,6,5
India,Chhattisgarh,Milupara,"Govt. Higher Secondary School, Milupara - CECB",03-05-2024 03:00:00,22.1910172,83.5197009,NH3,1,1,1
India,Chhattisgarh,Milupara,"Govt. Higher Secondary School, Milupara - CECB",03-05-2024 03:00:00,22.1910172,83.5197009,OZONE,7,18,10
India,Chhattisgarh,Raipur,"AIIMS, Raipur - CECB",03-05-2024 03:00:00,21.258815,81.578979,OZONE,7,53,23
India,Chhattisgarh,Raipur,"Krishak Nagar, Raipur - CECB",03-05-2024 03:00:00,21.237755,81.705301,NO2,16,17,16
India,Chhattisgarh,Raipur,"Krishak Nagar, Raipur - CECB",03-05-2024 03:00:00,21.237755,81.705301,CO,25,45,36
India,Chhattisgarh,Raipur,"Krishak Nagar, Raipur - CECB",03-05-2024 03:00:00,21.237755,81.705301,OZONE,1,53,13
India,Chhattisgarh,Raipur,"Siltara Phase-II, Raipur - CECB",03-05-2024 03:00:00,21.371751,81.664929,PM10,80,182,126
India,Chhattisgarh,Tumidih,"OP Jindal Industrial Park, Tumidih - CECB",03-05-2024 03:00:00,22.06631475,83.33820077,NO2,13,98,34
India,Delhi,Delhi,"Alipur, Delhi - DPCC",03-05-2024 03:00:00,28.815329,77.153010,OZONE,4,168,49
India,Delhi,Delhi,"Anand Vihar, Delhi - DPCC",03-05-2024 03:00:00,28.647622,77.3158090,SO2,20,69,39
India,Delhi,Delhi,"Anand Vihar, Delhi - DPCC",03-05-2024 03:00:00,28.647622,77.3158090,CO,1,104,80
India,Delhi,Delhi,"Ashok Vihar, Delhi - DPCC",03-05-2024 03:00:00,28.695381,77.181665,OZONE,3,39,9
India,Delhi,Delhi,"Bawana, Delhi - DPCC",03-05-2024 03:00:00,28.776200,77.051074,NO2,14,123,46
India,Delhi,Delhi,"Burari Crossing, Delhi - IMD",03-05-2024 03:00:00,28.7256504,77.2011573,NO2,14,16,15
India,Delhi,Delhi,"CRRI Mathura Road, Delhi - IMD",03-05-2024 03:00:00,28.5512005,77.2735737,PM10,119,356,193
India,Delhi,Delhi,"CRRI Mathura Road, Delhi - IMD",03-05-2024 03:00:00,28.5512005,77.2735737,OZONE,3,90,9
India,Delhi,Delhi,"Chandni Chowk, Delhi - IITM",03-05-2024 03:00:00,28.656756,77.227234,PM10,137,270,180
India,Delhi,Delhi,"Chandni Chowk, Delhi - IITM",03-05-2024 03:00:00,28.656756,77.227234,NH3,17,45,29
India,Delhi,Delhi,"Chandni Chowk, Delhi - IITM",03-05-2024 03:00:00,28.656756,77.227234,SO2,NA,NA,NA
India,Delhi,Delhi,"DTU, Delhi - CPCB",03-05-2024 03:00:00,28.7500499,77.1112615,CO,21,71,53
India,Delhi,Delhi,"Dwarka-Sector 8, Delhi - DPCC ",03-05-2024 03:00:00,28.5710274,77.0719006,PM10,140,452,259
India,Delhi,Delhi,"Dwarka-Sector 8, Delhi - DPCC ",03-05-2024 03:00:00,28.5710274,77.0719006,CO,40,107,95
India,Delhi,Delhi,"Dwarka-Sector 8, Delhi - DPCC ",03-05-2024 03:00:00,28.5710274,77.0719006,OZONE,1,82,13
India,Delhi,Delhi,"IGI Airport (T3), Delhi - IMD",03-05-2024 03:00:00,28.5627763,77.1180053,NO2,42,128,84
India,Delhi,Delhi,"IGI Airport (T3), Delhi - IMD",03-05-2024 03:00:00,28.5627763,77.1180053,CO,30,84,65
India,Delhi,Delhi,"IHBAS, Dilshad Garden, Delhi - CPCB",03-05-2024 03:00:00,28.6811736,77.3025234,SO2,8,15,11
India,Delhi,Delhi,"ITO, Delhi - CPCB",03-05-2024 03:00:00,28.628624,77.241060,PM10,76,165,115
India,Delhi,Delhi,"Jahangirpuri, Delhi - DPCC",03-05-2024 03:00:00,28.732820,77.170633,CO,42,108,92
India,Delhi,Delhi,"Jawaharlal Nehru Stadium, Delhi - DPCC",03-05-2024 03:00:00,28.580280,77.233829,PM2.5,31,258,106
India,Delhi,Delhi,"Lodhi Road, Delhi - IMD",03-05-2024 03:00:00,28.5918245,77.2273074,OZONE,6,67,14
India,Delhi,Delhi,"Major Dhyan Chand National Stadium, Delhi - DPCC",03-05-2024 03:00:00,28.611281,77.237738,PM10,107,248,150
India,Delhi,Delhi,"Major Dhyan Chand National Stadium, Delhi - DPCC",03-05-2024 03:00:00,28.611281,77.237738,NH3,5,7,6
India,Delhi,Delhi,"Major Dhyan Chand National Stadium, Delhi - DPCC",03-05-2024 03:00:00,28.611281,77.237738,CO,25,122,93
India,Delhi,Delhi,"Mandir Marg, Delhi - DPCC",03-05-2024 03:00:00,28.636429,77.201067,NO2,NA,NA,NA
India,Delhi,Delhi,"Mundka, Delhi - DPCC",03-05-2024 03:00:00,28.684678,77.076574,PM2.5,48,411,228
India,Delhi,Delhi,"Mundka, Delhi - DPCC",03-05-2024 03:00:00,28.684678,77.076574,NO2,16,97,45
India,Delhi,Delhi,"NSIT Dwarka, Delhi - CPCB",03-05-2024 03:00:00,28.60909,77.0325413,PM2.5,98,423,312
India,Delhi,Delhi,"Narela, Delhi - DPCC",03-05-2024 03:00:00,28.822836,77.101981,PM10,137,445,259
India,Delhi,Delhi,"Nehru Nagar, Delhi - DPCC",03-05-2024 03:00:00,28.567890,77.250515,PM2.5,49,329,165
India,Delhi,Delhi,"Nehru Nagar, Delhi - DPCC",03-05-2024 03:00:00,28.567890,77.250515,PM10,126,252,169
India,Delhi,Delhi,"Nehru Nagar, Delhi - DPCC",03-05-2024 03:00:00,28.567890,77.250515,SO2,4,11,7
India,Delhi,Delhi,"North Campus, DU, Delhi - IMD",03-05-2024 03:00:00,28.6573814,77.1585447,PM10,111,368,189
India,Delhi,Delhi,"North Campus, DU, Delhi - IMD",03-05-2024 03:00:00,28.6573814,77.1585447,NO2,11,62,30
India,Delhi,Delhi,"North Campus, DU, Delhi - IMD",03-05-2024 03:00:00,28.6573814,77.1585447,CO,62,117,106
India,Delhi,Delhi,"North Campus, DU, Delhi - IMD",03-05-2024 03:00:00,28.6573814,77.1585447,OZONE,5,60,14
India,Delhi,Delhi,"Patparganj, Delhi - DPCC",03-05-2024 03:00:00,28.623763,77.287209,SO2,3,8,5
India,Delhi,Delhi,"Punjabi Bagh, Delhi - DPCC",03-05-2024 03:00:00,28.674045,77.131023,PM10,129,481,220
India,Delhi,Delhi,"Punjabi Bagh, Delhi - DPCC",03-05-2024 03:00:00,28.674045,77.131023,SO2,2,36,18
India,Delhi,Delhi,"Pusa, Delhi - IMD",03-05-2024 03:00:00,28.636110,77.173332,CO,32,78,58
India,Delhi,Delhi,"R K Puram, Delhi - DPCC",03-05-2024 03:00:00,28.563262,77.186937,SO2,25,78,39
India,Delhi,Delhi,"Shadipur, Delhi - CPCB",03-05-2024 03:00:00,28.6514781,77.1473105,PM2.5,91,467,272
India,Delhi,Delhi,"Shadipur, Delhi - CPCB",03-05-2024 03:00:00,28.6514781,77.1473105,CO,28,88,63
India,Delhi,Delhi,"Sirifort, Delhi - CPCB",03-05-2024 03:00:00,28.5504249,77.2159377,PM10,115,347,190
India,Delhi,Delhi,"Sirifort, Delhi - CPCB",03-05-2024 03:00:00,28.5504249,77.2159377,NO2,55,82,70
India,Delhi,Delhi,"Sonia Vihar, Delhi - DPCC",03-05-2024 03:00:00,28.710508,77.249485,PM10,116,382,189
India,Delhi,Delhi,"Sonia Vihar, Delhi - DPCC",03-05-2024 03:00:00,28.710508,77.249485,SO2,6,46,19
India,Delhi,Delhi,"Sri Aurobindo Marg, Delhi - DPCC",03-05-2024 03:00:00,28.531346,77.190156,SO2,11,62,20
India,Delhi,Delhi,"Vivek Vihar, Delhi - DPCC",03-05-2024 03:00:00,28.672342,77.315260,NO2,28,127,58
India,Gujarat,Ahmedabad,"Chandkheda, Ahmedabad - IITM",03-05-2024 03:00:00,23.107969,72.574648,PM10,118,365,172
India,Gujarat,Ahmedabad,"Chandkheda, Ahmedabad - IITM",03-05-2024 03:00:00,23.107969,72.574648,CO,13,108,56
India,Gujarat,Ahmedabad,"Chandkheda, Ahmedabad - IITM",03-05-2024 03:00:00,23.107969,72.574648,OZONE,8,77,26
India,Gujarat,Ahmedabad,"Gyaspur, Ahmedabad - IITM",03-05-2024 03:00:00,22.977134,72.553024,PM10,103,397,169
India,Gujarat,Ahmedabad,"Maninagar, Ahmedabad - GPCB",03-05-2024 03:00:00,23.002657,72.591912,PM2.5,54,189,96
India,Gujarat,Ahmedabad,"Maninagar, Ahmedabad - GPCB",03-05-2024 03:00:00,23.002657,72.591912,CO,56,104,86
India,Gujarat,Ahmedabad,"Raikhad, Ahmedabad - IITM",03-05-2024 03:00:00,23.020509,72.579261,NH3,NA,NA,NA
India,Gujarat,Ahmedabad,"Rakhial, Ahmedabad - IITM",03-05-2024 03:00:00,23.016834,72.625775,NH3,2,10,6
India,Gujarat,Ahmedabad,"SAC ISRO Satellite, Ahmedabad - IITM",03-05-2024 03:00:00,23.023389,72.515201,NO2,32,33,32
India,Gujarat,Ahmedabad,"SVPI Airport Hansol, Ahmedabad - IITM",03-05-2024 03:00:00,23.076793,72.627874,NO2,NA,NA,NA
India,Gujarat,Ahmedabad,"Sardar Vallabhbhai Patel Stadium, Ahmedabad - IITM",03-05-2024 03:00:00,23.043070,72.562968,PM10,121,363,164
India,Gujarat,Ahmedabad,"Sardar Vallabhbhai Patel Stadium, Ahmedabad - IITM",03-05-2024 03:00:00,23.043070,72.562968,NO2,6,18,15
India,Gujarat,Nandesari,"GIDC, Nandesari - Nandesari Ind. Association",03-05-2024 03:00:00,22.410802,73.097923,PM2.5,NA,NA,NA
India,Gujarat,Surat,"Science Center, Surat - SMC",03-05-2024 03:00:00,21.170046,72.795405,SO2,1,5,3
India,Gujarat,Surat,"Science Center, Surat - SMC",03-05-2024 03:00:00,21.170046,72.795405,CO,17,49,35
India,Gujarat,Vapi,"Phase-1 GIDC, Vapi - GPCB",03-05-2024 03:00:00,20.362421,72.918013,PM2.5,34,84,57
India,Gujarat,Vapi,"Phase-1 GIDC, Vapi - GPCB",03-05-2024 03:00:00,20.362421,72.918013,PM10,55,119,92
India,Gujarat,Vatva,"Phase-4 GIDC, Vatva - GPCB",03-05-2024 03:00:00,22.969611,72.643500,PM2.5,32,86,60
India,Gujarat,Vatva,"Phase-4 GIDC, Vatva - GPCB",03-05-2024 03:00:00,22.969611,72.643500,PM10,93,93,93
India,Haryana,Ambala,"Patti Mehar, Ambala - HSPCB",03-05-2024 03:00:00,30.379589,76.778328,NH3,8,8,8
India,Haryana,Bahadurgarh,"Arya Nagar, Bahadurgarh - HSPCB",03-05-2024 03:00:00,28.6701,76.9254,NH3,8,10,9
India,Haryana,Ballabgarh,"Nathu Colony, Ballabgarh - HSPCB",03-05-2024 03:00:00,28.3419248,77.319699,PM10,145,280,198
India,Haryana,Ballabgarh,"Nathu Colony, Ballabgarh - HSPCB",03-05-2024 03:00:00,28.3419248,77.319699,NH3,1,2,1
India,Haryana,Bhiwani,"H.B. Colony, Bhiwani - HSPCB",03-05-2024 03:00:00,28.806223,76.141105,PM10,74,145,114
India,Haryana,Dharuhera,"Municipal Corporation Office, Dharuhera -  HSPCB",03-05-2024 03:00:00,28.206800,76.799700,OZONE,5,41,11
India,Haryana,Faridabad,"Sector 30, Faridabad - HSPCB",03-05-2024 03:00:00,28.4417,77.3217,NH3,9,9,9
India,Haryana,Fatehabad,"Huda Sector, Fatehabad - HSPCB",03-05-2024 03:00:00,29.503664,75.467934,CO,5,24,9
India,Haryana,Gurugram,"Sector-51, Gurugram - HSPCB",03-05-2024 03:00:00,28.4227,77.0667,NO2,13,29,23
India,Haryana,Gurugram,"Sector-51, Gurugram - HSPCB",03-05-2024 03:00:00,28.4227,77.0667,OZONE,27,67,50
India,Haryana,Gurugram,"Vikas Sadan, Gurugram - HSPCB",03-05-2024 03:00:00,28.4501238,77.0263051,PM2.5,205,500,324
India,Haryana,Hisar,"Urban Estate-II, Hisar - HSPCB",03-05-2024 03:00:00,29.140560,75.744941,PM2.5,NA,NA,NA
India,Haryana,Jind,"Police Lines, Jind - HSPCB",03-05-2024 03:00:00,29.307814,76.337619,PM10,92,167,126
India,Haryana,Kaithal,"Rishi Nagar, Kaithal - HSPCB",03-05-2024 03:00:00,29.8006,76.4155,SO2,30,60,45
India,Haryana,Karnal,"Sector-12, Karnal - HSPCB",03-05-2024 03:00:00,29.695300,77.002700,CO,22,32,30
India,Haryana,Manesar,"Sector-2 IMT, Manesar - HSPCB",03-05-2024 03:00:00,28.360699,76.936090,PM2.5,74,275,158
India,Haryana,Manesar,"Sector-2 IMT, Manesar - HSPCB",03-05-2024 03:00:00,28.360699,76.936090,PM10,73,157,116
India,Haryana,Manesar,"Sector-2 IMT, Manesar - HSPCB",03-05-2024 03:00:00,28.360699,76.936090,SO2,6,38,12
India,Haryana,Narnaul,"Shastri Nagar, Narnaul - HSPCB",03-05-2024 03:00:00,28.060249,76.113115,PM2.5,54,141,87
India,Haryana,Narnaul,"Shastri Nagar, Narnaul - HSPCB",03-05-2024 03:00:00,28.060249,76.113115,NO2,15,83,47
India,Haryana,Palwal,"Shyam Nagar, Palwal - HSPCB",03-05-2024 03:00:00,28.1485564,77.3320667,SO2,7,17,12
India,Haryana,Panchkula,"Sector-6, Panchkula - HSPCB ",03-05-2024 03:00:00,30.7057778,76.8531805555555,NO2,NA,NA,NA
India,Haryana,Panipat,"Sector-18, Panipat - HSPCB",03-05-2024 03:00:00,29.497973,76.993331,PM10,87,107,100
India,Haryana,Panipat,"Sector-18, Panipat - HSPCB",03-05-2024 03:00:00,29.497973,76.993331,NH3,2,3,3
India,Haryana,Panipat,"Sector-18, Panipat - HSPCB",03-05-2024 03:00:00,29.497973,76.993331,SO2,18,19,19
India,Haryana,Sirsa,"F-Block, Sirsa - HSPCB",03-05-2024 03:00:00,29.536400,75.015800,PM2.5,47,160,100
India,Haryana,Yamuna Nagar,"Gobind Pura, Yamuna Nagar - HSPCB",03-05-2024 03:00:00,30.1480566,77.2893471,PM2.5,64,135,95
India,Himachal Pradesh,Baddi,"HIMUDA Complex Phase-1, Baddi - HPPCB",03-05-2024 03:00:00,30.943887,76.801991,NH3,3,5,4
India,Himachal Pradesh,Baddi,"HIMUDA Complex Phase-1, Baddi - HPPCB",03-05-2024 03:00:00,30.943887,76.801991,SO2,10,73,30
India,Himachal Pradesh,Baddi,"HIMUDA Complex Phase-1, Baddi - HPPCB",03-05-2024 03:00:00,30.943887,76.801991,CO,24,59,45
India,Jammu_and_Kashmir,Srinagar,"Rajbagh, Srinagar - JKSPCB",03-05-2024 03:00:00,34.066206,74.819820,PM2.5,NA,NA,NA
India,Jharkhand,Dhanbad,"Kalakusuma, Dhanbad - DMC",03-05-2024 03:00:00,23.811548,86.481238,PM2.5,NA,NA,NA
India,Jharkhand,Dhanbad,"Kalakusuma, Dhanbad - DMC",03-05-2024 03:00:00,23.811548,86.481238,PM10,12,112,68
India,Karnataka,Bagalkot,"Vidayagiri, Bagalkot - KSPCB",03-05-2024 03:00:00,16.172806,75.659694,PM10,46,50,48
India,Karnataka,Belgaum,"Ramteerth Nagar, Belgaum - KSPCB",03-05-2024 03:00:00,15.888653,74.541751,NO2,1,65,30
India,Karnataka,Belgaum,"Ramteerth Nagar, Belgaum - KSPCB",03-05-2024 03:00:00,15.888653,74.541751,CO,36,52,41
India,Karnataka,Belgaum,"Ramteerth Nagar, Belgaum - KSPCB",03-05-2024 03:00:00,15.888653,74.541751,OZONE,19,20,19
India,Karnataka,Bengaluru,"BTM Layout, Bengaluru - CPCB",03-05-2024 03:00:00,12.9135218,77.5950804,PM2.5,33,52,36
India,Karnataka,Bengaluru,"BTM Layout, Bengaluru - CPCB",03-05-2024 03:00:00,12.9135218,77.5950804,NH3,5,6,5
India,Karnataka,Bengaluru,"BTM Layout, Bengaluru - CPCB",03-05-2024 03:00:00,12.9135218,77.5950804,SO2,NA,NA,NA
India,Karnataka,Bengaluru,"Bapuji Nagar, Bengaluru - KSPCB",03-05-2024 03:00:00,12.951913,77.539784,PM2.5,61,176,116
India,Karnataka,Bengaluru,"Bapuji Nagar, Bengaluru - KSPCB",03-05-2024 03:00:00,12.951913,77.539784,NO2,10,11,11
India,Karnataka,Bengaluru,"Bapuji Nagar, Bengaluru - KSPCB",03-05-2024 03:00:00,12.951913,77.539784,SO2,4,8,6
India,Karnataka,Bengaluru,"Hebbal, Bengaluru - KSPCB",03-05-2024 03:00:00,13.029152,77.585901,OZONE,9,110,16
India,Karnataka,Bengaluru,"Hombegowda Nagar, Bengaluru - KSPCB",03-05-2024 03:00:00,12.938539,77.590100,NO2,7,30,15
India,Karnataka,Bengaluru,"Hombegowda Nagar, Bengaluru - KSPCB",03-05-2024 03:00:00,12.938539,77.590100,SO2,2,4,3
India,Karnataka,Bengaluru,"Kasturi Nagar, Bengaluru - KSPCB",03-05-2024 03:00:00,13.003872,77.664217,PM2.5,7,500,112
India,Karnataka,Bengaluru,"Kasturi Nagar, Bengaluru - KSPCB",03-05-2024 03:00:00,13.003872,77.664217,NH3,3,4,4
India,Karnataka,Bengaluru,"Peenya, Bengaluru - CPCB",03-05-2024 03:00:00,13.0270199,77.494094,PM2.5,39,80,57
India,Karnataka,Bengaluru,"Peenya, Bengaluru - CPCB",03-05-2024 03:00:00,13.0270199,77.494094,NH3,3,6,4
India,Karnataka,Bengaluru,"Peenya, Bengaluru - CPCB",03-05-2024 03:00:00,13.0270199,77.494094,SO2,2,15,10
India,Karnataka,Bengaluru,"Peenya, Bengaluru - CPCB",03-05-2024 03:00:00,13.0270199,77.494094,CO,28,44,41
India,Karnataka,Bengaluru,"RVCE-Mailasandra, Bengaluru - KSPCB",03-05-2024 03:00:00,12.921418,77.502466,OZONE,39,39,39
India,Karnataka,Bengaluru,"Shivapura_Peenya, Bengaluru - KSPCB",03-05-2024 03:00:00,13.0246342,77.5080115,SO2,2,12,6
India,Karnataka,Bengaluru,"Silk Board, Bengaluru - KSPCB",03-05-2024 03:00:00,12.917348,77.622813,PM10,87,214,125
India,Karnataka,Bengaluru,"Silk Board, Bengaluru - KSPCB",03-05-2024 03:00:00,12.917348,77.622813,NH3,NA,NA,NA
India,Karnataka,Bidar,"Naubad, Bidar - KSPCB",03-05-2024 03:00:00,17.930306,77.482194,PM2.5,39,180,66
India,Karnataka,Bidar,"Naubad, Bidar - KSPCB",03-05-2024 03:00:00,17.930306,77.482194,NH3,2,3,3
India,Karnataka,Chikkaballapur,"Chikkaballapur Rural, Chikkaballapur - KSPCB",03-05-2024 03:00:00,13.428828,77.731418,PM10,58,129,88
India,Karnataka,Chikkamagaluru,"Kalyana Nagara, Chikkamagaluru - KSPCB",03-05-2024 03:00:00,13.328028,75.797056,SO2,2,7,5
India,Karnataka,Chikkamagaluru,"Kalyana Nagara, Chikkamagaluru - KSPCB",03-05-2024 03:00:00,13.328028,75.797056,OZONE,11,61,19
India,Karnataka,Davanagere,"Devaraj Urs Badavane, Davanagere - KSPCB",03-05-2024 03:00:00,14.475800,75.905200,PM2.5,42,264,74
India,Karnataka,Davanagere,"Devaraj Urs Badavane, Davanagere - KSPCB",03-05-2024 03:00:00,14.475800,75.905200,NH3,1,2,2
India,Karnataka,Davanagere,"Devaraj Urs Badavane, Davanagere - KSPCB",03-05-2024 03:00:00,14.475800,75.905200,OZONE,20,22,20
India,Karnataka,Dharwad,"Kalabhavan, Dharwad - KSPCB",03-05-2024 03:00:00,15.459706,75.008381,PM2.5,52,121,77
India,Karnataka,Dharwad,"Kalabhavan, Dharwad - KSPCB",03-05-2024 03:00:00,15.459706,75.008381,CO,14,101,53
India,Karnataka,Gadag,"Panchal Nagar, Gadag - KSPCB",03-05-2024 03:00:00,15.411456,75.638133,NH3,2,3,2
India,Karnataka,Gadag,"Panchal Nagar, Gadag - KSPCB",03-05-2024 03:00:00,15.411456,75.638133,OZONE,29,70,47
India,Karnataka,Haveri,"Ashwini Nagar, Haveri - KSPCB",03-05-2024 03:00:00,14.791800,75.389600,PM10,50,111,86
India,Karnataka,Haveri,"Ashwini Nagar, Haveri - KSPCB",03-05-2024 03:00:00,14.791800,75.389600,OZONE,18,20,19
India,Karnataka,Hubballi,"Deshpande Nagar, Hubballi - KSPCB",03-05-2024 03:00:00,15.351773,75.140726,PM2.5,27,67,45
India,Karnataka,Hubballi,"Lingaraj Nagar, Hubballi - KSPCB",03-05-2024 03:00:00,15.3714823,75.1160168,PM10,59,82,68
India,Karnataka,Hubballi,"Lingaraj Nagar, Hubballi - KSPCB",03-05-2024 03:00:00,15.3714823,75.1160168,NO2,7,8,8
India,Karnataka,Hubballi,"Lingaraj Nagar, Hubballi - KSPCB",03-05-2024 03:00:00,15.3714823,75.1160168,CO,1,37,28
India,Karnataka,Kalaburagi,"Mahatma Basaveswar Colony, Kalaburgi - KSPCB",03-05-2024 03:00:00,17.336318,76.847397,PM10,34,91,58
India,Karnataka,Kalaburagi,"Mahatma Basaveswar Colony, Kalaburgi - KSPCB",03-05-2024 03:00:00,17.336318,76.847397,NH3,2,4,3
India,Karnataka,Kolar,"Tamaka Ind. Area, Kolar - KSPCB",03-05-2024 03:00:00,13.1276288,78.1570122,PM10,63,108,79
India,Karnataka,Kolar,"Tamaka Ind. Area, Kolar - KSPCB",03-05-2024 03:00:00,13.1276288,78.1570122,NH3,4,8,6
