country,state,city,station,last_update,latitude,longitude,pollutant_id,pollutant_min,pollutant_max,pollutant_avg
India,Andhra_Pradesh,Anantapur,"Gulzarpet, Anantapur - APPCB",21-01-2024 17:00:00,14.675886,77.593027,OZONE,4,60,47
India,Andhra_Pradesh,Chittoor,"Gangineni Cheruvu, Chittoor - APPCB",21-01-2024 17:00:00,13.204880,79.097889,PM2.5,25,93,48
India,Andhra_Pradesh,Chittoor,"Gangineni Cheruvu, Chittoor - APPCB",21-01-2024 17:00:00,13.204880,79.097889,CO,16,68,37
India,Andhra_Pradesh,Kadapa,"Yerramukkapalli, Kadapa - APPCB",21-01-2024 17:00:00,14.465052,78.824187,OZONE,16,51,35
India,Andhra_Pradesh,Rajamahendravaram,"Anand Kala Kshetram, Rajamahendravaram - APPCB",21-01-2024 17:00:00,16.9872867,81.7363176,PM10,62,89,75
India,Andhra_Pradesh,Tirupati,"Tirumala, Tirupati - APPCB",21-01-2024 17:00:00,13.67,79.35,PM10,35,73,53
India,Andhra_Pradesh,Tirupati,"Vaikuntapuram, Tirupati - APPCB",21-01-2024 17:00:00,13.615387,79.409230,PM2.5,20,70,35
India,Andhra_Pradesh,Tirupati,"Vaikuntapuram, Tirupati - APPCB",21-01-2024 17:00:00,13.615387,79.409230,PM10,17,62,31
India,Andhra_Pradesh,Visakhapatnam,"GVM Corporation, Visakhapatnam - APPCB",21-01-2024 17:00:00,17.72,83.3,PM2.5,61,260,146
India,Andhra_Pradesh,Visakhapatnam,"GVM Corporation, Visakhapatnam - APPCB",21-01-2024 17:00:00,17.72,83.3,PM10,74,350,148
India,Andhra_Pradesh,Visakhapatnam,"GVM Corporation, Visakhapatnam - APPCB",21-01-2024 17:00:00,17.72,83.3,NH3,2,5,4
India,Andhra_Pradesh,Visakhapatnam,"GVM Corporation, Visakhapatnam - APPCB",21-01-2024 17:00:00,17.72,83.3,SO2,11,17,13
India,Andhra_Pradesh,Visakhapatnam,"GVM Corporation, Visakhapatnam - APPCB",21-01-2024 17:00:00,17.72,83.3,CO,28,76,56
India,Assam,Byrnihat,"Central Academy for SFS, Byrnihat - PCBA",21-01-2024 17:00:00,26.071318,91.87488,NH3,1,2,2
India,Assam,Byrnihat,"Central Academy for SFS, Byrnihat - PCBA",21-01-2024 17:00:00,26.071318,91.87488,CO,1,110,92
India,Assam,Guwahati,"IITG, Guwahati - PCBA",21-01-2024 17:00:00,26.2028636,91.70046436,NO2,NA,NA,NA
India,Assam,Guwahati,"LGBI Airport, Guwahati - PCBA",21-01-2024 17:00:00,26.10887,91.589544,NO2,8,66,28
India,Assam,Guwahati,"Pan Bazaar, Guwahati - PCBA",21-01-2024 17:00:00,26.187500,91.744194,PM10,118,337,175
India,Assam,Guwahati,"Pan Bazaar, Guwahati - PCBA",21-01-2024 17:00:00,26.187500,91.744194,CO,44,114,49
India,Assam,Guwahati,"Railway Colony, Guwahati - PCBA",21-01-2024 17:00:00,26.181742,91.78063,SO2,24,37,27
India,Assam,Guwahati,"Railway Colony, Guwahati - PCBA",21-01-2024 17:00:00,26.181742,91.78063,CO,47,113,57
India,Assam,Silchar,"Tarapur, Silchar - PCBA",21-01-2024 17:00:00,24.82827,92.79525,NO2,29,43,34
India,Assam,Silchar,"Tarapur, Silchar - PCBA",21-01-2024 17:00:00,24.82827,92.79525,NH3,1,1,1
India,Assam,Silchar,"Tarapur, Silchar - PCBA",21-01-2024 17:00:00,24.82827,92.79525,SO2,NA,NA,NA
India,Assam,Silchar,"Tarapur, Silchar - PCBA",21-01-2024 17:00:00,24.82827,92.79525,OZONE,NA,NA,NA
India,Assam,Sivasagar,"Girls College, Sivasagar - PCBA",21-01-2024 17:00:00,26.987634,94.636574,PM10,26,89,45
India,Assam,Sivasagar,"Girls College, Sivasagar - PCBA",21-01-2024 17:00:00,26.987634,94.636574,OZONE,1,3,2
India,Bihar,Araria,"Kharahiya Basti, Araria - BSPCB",21-01-2024 17:00:00,26.146529,87.454184,NH3,6,8,6
India,Bihar,Arrah,"New DM Office, Arrah - BSPCB",21-01-2024 17:00:00,25.5626095,84.663264,PM2.5,302,410,333
India,Bihar,Aurangabad,"Gurdeo Nagar, Aurangabad - BSPCB",21-01-2024 17:00:00,24.75746,84.366208,PM2.5,120,267,196
India,Bihar,Bettiah,"Kamalnath Nagar, Bettiah - BSPCB",21-01-2024 17:00:00,26.80365,84.51954,PM10,NA,NA,NA
India,Bihar,Bettiah,"Kamalnath Nagar, Bettiah - BSPCB",21-01-2024 17:00:00,26.80365,84.51954,NO2,1,5,2
India,Bihar,Bhagalpur,"DM Office_Kachari Chowk, Bhagalpur - BSPCB",21-01-2024 17:00:00,25.251013,86.989001,PM2.5,337,405,365
India,Bihar,Bhagalpur,"DM Office_Kachari Chowk, Bhagalpur - BSPCB",21-01-2024 17:00:00,25.251013,86.989001,PM10,182,272,219
India,Bihar,Bhagalpur,"Mayaganj, Bhagalpur - BSPCB",21-01-2024 17:00:00,25.265194,87.012947,OZONE,39,66,56
India,Bihar,Bihar Sharif,"D M Colony, Bihar Sharif - BSPCB",21-01-2024 17:00:00,25.204762,85.514960,SO2,1,13,7
India,Bihar,Chhapra,"Darshan Nagar, Chhapra - BSPCB",21-01-2024 17:00:00,25.7808257,84.7446768,NH3,10,15,12
India,Bihar,Gaya,"Collectorate, Gaya - BSPCB",21-01-2024 17:00:00,24.7955,84.9994,NO2,16,21,18
India,Bihar,Gaya,"Collectorate, Gaya - BSPCB",21-01-2024 17:00:00,24.7955,84.9994,OZONE,45,75,60
India,Bihar,Gaya,"Kareemganj, Gaya - BSPCB",21-01-2024 17:00:00,24.792403,84.992416,NH3,1,5,3
India,Bihar,Gaya,"Kareemganj, Gaya - BSPCB",21-01-2024 17:00:00,24.792403,84.992416,OZONE,5,32,18
India,Bihar,Hajipur,"Industrial Area, Hajipur - BSPCB",21-01-2024 17:00:00,25.697189,85.245900,SO2,NA,NA,NA
India,Bihar,Kishanganj,"SDM Office_Khagra, Kishanganj - BSPCB",21-01-2024 17:00:00,26.0881305,87.93840336,PM10,151,416,218
India,Bihar,Kishanganj,"SDM Office_Khagra, Kishanganj - BSPCB",21-01-2024 17:00:00,26.0881305,87.93840336,NH3,10,12,10
India,Bihar,Kishanganj,"SDM Office_Khagra, Kishanganj - BSPCB",21-01-2024 17:00:00,26.0881305,87.93840336,CO,1,22,2
India,Bihar,Manguraha,"Forest Rest House, Manguraha - BSPCB",21-01-2024 17:00:00,27.308328,84.531742,PM2.5,NA,NA,NA
India,Bihar,Manguraha,"Forest Rest House, Manguraha - BSPCB",21-01-2024 17:00:00,27.308328,84.531742,SO2,NA,NA,NA
India,Bihar,Motihari,"Gandak Colony, Motihari - BSPCB",21-01-2024 17:00:00,26.63086,84.90051,CO,12,109,56
India,Bihar,Muzaffarpur,"Buddha Colony, Muzaffarpur - BSPCB",21-01-2024 17:00:00,26.11442,85.39813,PM2.5,135,357,254
India,Bihar,Muzaffarpur,"Muzaffarpur Collectorate, Muzaffarpur - BSPCB",21-01-2024 17:00:00,26.1209,85.3647,NO2,4,41,14
India,Bihar,Muzaffarpur,"Muzaffarpur Collectorate, Muzaffarpur - BSPCB",21-01-2024 17:00:00,26.1209,85.3647,CO,17,68,40
India,Bihar,Patna,"DRM Office Danapur, Patna - BSPCB",21-01-2024 17:00:00,25.586562,85.043586,NH3,4,5,4
India,Bihar,Patna,"Govt. High School Shikarpur, Patna - BSPCB",21-01-2024 17:00:00,25.592539,85.227158,NH3,2,5,4
India,Bihar,Patna,"Govt. High School Shikarpur, Patna - BSPCB",21-01-2024 17:00:00,25.592539,85.227158,SO2,1,4,3
India,Bihar,Patna,"Muradpur, Patna - BSPCB",21-01-2024 17:00:00,25.619651,85.147382,PM2.5,146,336,256
India,Bihar,Patna,"Muradpur, Patna - BSPCB",21-01-2024 17:00:00,25.619651,85.147382,SO2,3,5,4
India,Bihar,Patna,"Rajbansi Nagar, Patna - BSPCB",21-01-2024 17:00:00,25.599486,85.113666,PM2.5,162,332,263
India,Bihar,Patna,"Rajbansi Nagar, Patna - BSPCB",21-01-2024 17:00:00,25.599486,85.113666,NH3,6,7,6
India,Bihar,Patna,"Samanpura, Patna - BSPCB",21-01-2024 17:00:00,25.596727,85.085624,PM10,212,500,345
India,Bihar,Patna,"Samanpura, Patna - BSPCB",21-01-2024 17:00:00,25.596727,85.085624,NH3,3,3,3
India,Bihar,Purnia,"Mariam Nagar, Purnia - BSPCB",21-01-2024 17:00:00,25.366336,87.117468,NH3,1,1,1
India,Bihar,Rajgir,"Dangi Tola, Rajgir - BSPCB",21-01-2024 17:00:00,25.03280,85.41948,PM2.5,250,380,329
India,Bihar,Rajgir,"Dangi Tola, Rajgir - BSPCB",21-01-2024 17:00:00,25.03280,85.41948,CO,9,24,20
India,Bihar,Saharsa,"Police Line, Saharsa - BSPCB",21-01-2024 17:00:00,25.892357,86.590325,PM2.5,316,418,355
India,Bihar,Samastipur,"DM Office_Kasipur, Samastipur - BSPCB",21-01-2024 17:00:00,25.859655,85.77944,NO2,1,7,5
India,Bihar,Samastipur,"DM Office_Kasipur, Samastipur - BSPCB",21-01-2024 17:00:00,25.859655,85.77944,SO2,7,13,11
India,Bihar,Sasaram,"Dada Peer, Sasaram - BSPCB",21-01-2024 17:00:00,24.952822,84.002396,OZONE,4,8,5
India,Chandigarh,Chandigarh,"Sector 22, Chandigarh - CPCC",21-01-2024 17:00:00,30.735567,76.775714,PM10,109,380,238
India,Chandigarh,Chandigarh,"Sector 22, Chandigarh - CPCC",21-01-2024 17:00:00,30.735567,76.775714,NO2,7,37,16
India,Chandigarh,Chandigarh,"Sector 22, Chandigarh - CPCC",21-01-2024 17:00:00,30.735567,76.775714,SO2,4,11,6
India,Chandigarh,Chandigarh,"Sector 22, Chandigarh - CPCC",21-01-2024 17:00:00,30.735567,76.775714,CO,NA,NA,NA
India,Chandigarh,Chandigarh,"Sector 22, Chandigarh - CPCC",21-01-2024 17:00:00,30.735567,76.775714,OZONE,2,18,14
India,Chandigarh,Chandigarh,"Sector-53, Chandigarh - CPCC",21-01-2024 17:00:00,30.719859,76.738637,PM2.5,NA,NA,NA
India,Chhattisgarh,Bhilai,"Civic Center, Bhilai - Bhilai Steel Plant",21-01-2024 17:00:00,21.185571,81.343175,SO2,NA,NA,NA
India,Chhattisgarh,Bhilai,"Civic Center, Bhilai - Bhilai Steel Plant",21-01-2024 17:00:00,21.185571,81.343175,CO,30,46,40
India,Chhattisgarh,Bhilai,"Hathkhoj, Bhilai - CECB",21-01-2024 17:00:00,21.224231,81.408350,CO,21,42,32
India,Chhattisgarh,Chhal,"Nawapara SECL Colony, Chhal - CECB",21-01-2024 17:00:00,22.118125,83.140608,SO2,11,55,19
India,Chhattisgarh,Korba,"Urja Nagar, Korba - CECB",21-01-2024 17:00:00,22.348441,82.549611,PM2.5,16,40,29
India,Chhattisgarh,Korba,"Urja Nagar, Korba - CECB",21-01-2024 17:00:00,22.348441,82.549611,NO2,60,73,66
India,Chhattisgarh,Milupara,"Govt. Higher Secondary School, Milupara - CECB",21-01-2024 17:00:00,22.1910172,83.5197009,PM10,28,81,42
India,Chhattisgarh,Milupara,"Govt. Higher Secondary School, Milupara - CECB",21-01-2024 17:00:00,22.1910172,83.5197009,NH3,1,2,2
India,Chhattisgarh,Milupara,"Govt. Higher Secondary School, Milupara - CECB",21-01-2024 17:00:00,22.1910172,83.5197009,OZONE,11,69,48
India,Chhattisgarh,Raipur,"Bhatagaon New ISBT, Raipur - CECB",21-01-2024 17:00:00,21.219665,81.630094,PM2.5,55,76,66
India,Chhattisgarh,Raipur,"Bhatagaon New ISBT, Raipur - CECB",21-01-2024 17:00:00,21.219665,81.630094,PM10,53,104,84
India,Chhattisgarh,Raipur,"Krishak Nagar, Raipur - CECB",21-01-2024 17:00:00,21.237755,81.705301,CO,41,60,44
India,Chhattisgarh,Raipur,"Siltara Phase-II, Raipur - CECB",21-01-2024 17:00:00,21.371751,81.664929,NO2,47,85,59
India,Chhattisgarh,Tumidih,"OP Jindal Industrial Park, Tumidih - CECB",21-01-2024 17:00:00,22.06631475,83.33820077,CO,24,56,28
India,Delhi,Delhi,"Anand Vihar, Delhi - DPCC",21-01-2024 17:00:00,28.647622,77.3158090,SO2,NA,NA,NA
India,Delhi,Delhi,"Aya Nagar, Delhi - IMD",21-01-2024 17:00:00,28.4706914,77.1099364,PM10,133,415,224
India,Delhi,Delhi,"Aya Nagar, Delhi - IMD",21-01-2024 17:00:00,28.4706914,77.1099364,OZONE,6,27,16
India,Delhi,Delhi,"Bawana, Delhi - DPCC",21-01-2024 17:00:00,28.776200,77.051074,SO2,4,8,5
India,Delhi,Delhi,"Burari Crossing, Delhi - IMD",21-01-2024 17:00:00,28.7256504,77.2011573,PM2.5,87,467,359
India,Delhi,Delhi,"Burari Crossing, Delhi - IMD",21-01-2024 17:00:00,28.7256504,77.2011573,CO,94,104,97
India,Delhi,Delhi,"CRRI Mathura Road, Delhi - IMD",21-01-2024 17:00:00,28.5512005,77.2735737,CO,66,108,67
India,Delhi,Delhi,"DTU, Delhi - CPCB",21-01-2024 17:00:00,28.7500499,77.1112615,PM2.5,77,310,180
India,Delhi,Delhi,"DTU, Delhi - CPCB",21-01-2024 17:00:00,28.7500499,77.1112615,NO2,30,59,40
India,Delhi,Delhi,"DTU, Delhi - CPCB",21-01-2024 17:00:00,28.7500499,77.1112615,OZONE,27,29,28
India,Delhi,Delhi,"Dr. Karni Singh Shooting Range, Delhi - DPCC",21-01-2024 17:00:00,28.498571,77.264840,CO,64,117,83
India,Delhi,Delhi,"Dwarka-Sector 8, Delhi - DPCC ",21-01-2024 17:00:00,28.5710274,77.0719006,NH3,3,7,4
India,Delhi,Delhi,"Dwarka-Sector 8, Delhi - DPCC ",21-01-2024 17:00:00,28.5710274,77.0719006,CO,52,97,61
India,Delhi,Delhi,"IHBAS, Dilshad Garden, Delhi - CPCB",21-01-2024 17:00:00,28.6811736,77.3025234,PM10,129,249,192
India,Delhi,Delhi,"IHBAS, Dilshad Garden, Delhi - CPCB",21-01-2024 17:00:00,28.6811736,77.3025234,OZONE,10,35,22
India,Delhi,Delhi,"ITO, Delhi - CPCB",21-01-2024 17:00:00,28.628624,77.241060,PM2.5,190,422,333
India,Delhi,Delhi,"ITO, Delhi - CPCB",21-01-2024 17:00:00,28.628624,77.241060,OZONE,26,49,34
India,Delhi,Delhi,"Jahangirpuri, Delhi - DPCC",21-01-2024 17:00:00,28.732820,77.170633,PM2.5,316,500,399
India,Delhi,Delhi,"Jawaharlal Nehru Stadium, Delhi - DPCC",21-01-2024 17:00:00,28.580280,77.233829,PM2.5,298,424,360
India,Delhi,Delhi,"Lodhi Road, Delhi - IMD",21-01-2024 17:00:00,28.5918245,77.2273074,NO2,5,9,6
India,Delhi,Delhi,"Major Dhyan Chand National Stadium, Delhi - DPCC",21-01-2024 17:00:00,28.611281,77.237738,NH3,12,14,13
India,Delhi,Delhi,"Major Dhyan Chand National Stadium, Delhi - DPCC",21-01-2024 17:00:00,28.611281,77.237738,SO2,8,34,17
India,Delhi,Delhi,"Mandir Marg, Delhi - DPCC",21-01-2024 17:00:00,28.636429,77.201067,NO2,94,124,106
India,Delhi,Delhi,"NSIT Dwarka, Delhi - CPCB",21-01-2024 17:00:00,28.60909,77.0325413,NO2,30,57,42
India,Delhi,Delhi,"Najafgarh, Delhi - DPCC",21-01-2024 17:00:00,28.570173,76.933762,NO2,15,39,27
India,Delhi,Delhi,"Najafgarh, Delhi - DPCC",21-01-2024 17:00:00,28.570173,76.933762,CO,28,120,32
India,Delhi,Delhi,"Narela, Delhi - DPCC",21-01-2024 17:00:00,28.822836,77.101981,PM10,117,428,235
India,Delhi,Delhi,"Narela, Delhi - DPCC",21-01-2024 17:00:00,28.822836,77.101981,SO2,5,12,7
India,Delhi,Delhi,"Nehru Nagar, Delhi - DPCC",21-01-2024 17:00:00,28.567890,77.250515,SO2,5,14,10
India,Delhi,Delhi,"North Campus, DU, Delhi - IMD",21-01-2024 17:00:00,28.6573814,77.1585447,PM2.5,293,436,355
India,Delhi,Delhi,"North Campus, DU, Delhi - IMD",21-01-2024 17:00:00,28.6573814,77.1585447,CO,45,105,50
India,Delhi,Delhi,"North Campus, DU, Delhi - IMD",21-01-2024 17:00:00,28.6573814,77.1585447,OZONE,26,45,31
India,Delhi,Delhi,"Okhla Phase-2, Delhi - DPCC",21-01-2024 17:00:00,28.530785,77.271255,NH3,13,17,15
India,Delhi,Delhi,"Punjabi Bagh, Delhi - DPCC",21-01-2024 17:00:00,28.674045,77.131023,PM2.5,320,480,390
India,Delhi,Delhi,"Punjabi Bagh, Delhi - DPCC",21-01-2024 17:00:00,28.674045,77.131023,PM10,166,432,280
India,Delhi,Delhi,"Punjabi Bagh, Delhi - DPCC",21-01-2024 17:00:00,28.674045,77.131023,CO,57,71,68
India,Delhi,Delhi,"Pusa, Delhi - DPCC",21-01-2024 17:00:00,28.639652,77.146275,NH3,21,29,24
India,Delhi,Delhi,"Pusa, Delhi - DPCC",21-01-2024 17:00:00,28.639652,77.146275,CO,8,110,78
India,Delhi,Delhi,"Pusa, Delhi - DPCC",21-01-2024 17:00:00,28.639652,77.146275,OZONE,11,33,26
India,Delhi,Delhi,"Pusa, Delhi - IMD",21-01-2024 17:00:00,28.636110,77.173332,PM2.5,195,370,306
India,Delhi,Delhi,"Pusa, Delhi - IMD",21-01-2024 17:00:00,28.636110,77.173332,PM10,123,288,182
India,Delhi,Delhi,"R K Puram, Delhi - DPCC",21-01-2024 17:00:00,28.563262,77.186937,CO,70,144,86
India,Delhi,Delhi,"Sirifort, Delhi - CPCB",21-01-2024 17:00:00,28.5504249,77.2159377,PM10,174,420,296
India,Delhi,Delhi,"Sonia Vihar, Delhi - DPCC",21-01-2024 17:00:00,28.710508,77.249485,PM2.5,NA,NA,NA
India,Delhi,Delhi,"Sonia Vihar, Delhi - DPCC",21-01-2024 17:00:00,28.710508,77.249485,CO,64,73,68
India,Delhi,Delhi,"Vivek Vihar, Delhi - DPCC",21-01-2024 17:00:00,28.672342,77.315260,PM10,193,422,299
India,Delhi,Delhi,"Vivek Vihar, Delhi - DPCC",21-01-2024 17:00:00,28.672342,77.315260,NH3,5,9,7
India,Delhi,Delhi,"Wazirpur, Delhi - DPCC",21-01-2024 17:00:00,28.699793,77.165453,PM2.5,322,482,391
India,Delhi,Delhi,"Wazirpur, Delhi - DPCC",21-01-2024 17:00:00,28.699793,77.165453,PM10,181,480,332
India,Gujarat,Ahmedabad,"Gyaspur, Ahmedabad - IITM",21-01-2024 17:00:00,22.977134,72.553024,PM10,81,160,112
India,Gujarat,Ahmedabad,"Maninagar, Ahmedabad - GPCB",21-01-2024 17:00:00,23.002657,72.591912,PM2.5,35,252,80
India,Gujarat,Ahmedabad,"Maninagar, Ahmedabad - GPCB",21-01-2024 17:00:00,23.002657,72.591912,NO2,11,109,41
India,Gujarat,Ahmedabad,"Maninagar, Ahmedabad - GPCB",21-01-2024 17:00:00,23.002657,72.591912,CO,20,46,25
India,Gujarat,Ahmedabad,"Rakhial, Ahmedabad - IITM",21-01-2024 17:00:00,23.016834,72.625775,PM2.5,49,156,82
India,Gujarat,Ahmedabad,"Rakhial, Ahmedabad - IITM",21-01-2024 17:00:00,23.016834,72.625775,NH3,2,5,5
India,Gujarat,Ahmedabad,"Rakhial, Ahmedabad - IITM",21-01-2024 17:00:00,23.016834,72.625775,CO,28,102,36
India,Gujarat,Ahmedabad,"Rakhial, Ahmedabad - IITM",21-01-2024 17:00:00,23.016834,72.625775,OZONE,1,51,33
India,Gujarat,Ahmedabad,"SAC ISRO Bopal, Ahmedabad - IITM",21-01-2024 17:00:00,23.041137,72.456691,PM2.5,68,156,95
India,Gujarat,Ahmedabad,"SAC ISRO Bopal, Ahmedabad - IITM",21-01-2024 17:00:00,23.041137,72.456691,PM10,62,109,84
India,Gujarat,Ahmedabad,"SAC ISRO Bopal, Ahmedabad - IITM",21-01-2024 17:00:00,23.041137,72.456691,OZONE,12,15,15
India,Gujarat,Ahmedabad,"SAC ISRO Satellite, Ahmedabad - IITM",21-01-2024 17:00:00,23.023389,72.515201,PM2.5,97,129,122
India,Gujarat,Ahmedabad,"SVPI Airport Hansol, Ahmedabad - IITM",21-01-2024 17:00:00,23.076793,72.627874,NO2,14,15,14
India,Gujarat,Ahmedabad,"Sardar Vallabhbhai Patel Stadium, Ahmedabad - IITM",21-01-2024 17:00:00,23.043070,72.562968,PM2.5,60,117,81
India,Gujarat,Ahmedabad,"Sardar Vallabhbhai Patel Stadium, Ahmedabad - IITM",21-01-2024 17:00:00,23.043070,72.562968,PM10,71,118,95
India,Gujarat,Gandhinagar,"IIPHG Lekawada, Gandhinagar - IITM",21-01-2024 17:00:00,23.243639,72.68994,NH3,3,4,3
India,Gujarat,Gandhinagar,"Sector-10, Gandhinagar - GPCB",21-01-2024 17:00:00,23.221714,72.654328,PM2.5,NA,NA,NA
India,Gujarat,Vatva,"Phase-4 GIDC, Vatva - GPCB",21-01-2024 17:00:00,22.969611,72.643500,NO2,17,180,48
India,Haryana,Ambala,"Patti Mehar, Ambala - HSPCB",21-01-2024 17:00:00,30.379589,76.778328,PM10,46,111,82
India,Haryana,Ambala,"Patti Mehar, Ambala - HSPCB",21-01-2024 17:00:00,30.379589,76.778328,SO2,1,31,7
India,Haryana,Bahadurgarh,"Arya Nagar, Bahadurgarh - HSPCB",21-01-2024 17:00:00,28.6701,76.9254,PM2.5,91,335,199
India,Haryana,Ballabgarh,"Nathu Colony, Ballabgarh - HSPCB",21-01-2024 17:00:00,28.3419248,77.319699,PM10,157,264,203
India,Haryana,Ballabgarh,"Nathu Colony, Ballabgarh - HSPCB",21-01-2024 17:00:00,28.3419248,77.319699,OZONE,2,24,15
India,Haryana,Bhiwani,"H.B. Colony, Bhiwani - HSPCB",21-01-2024 17:00:00,28.806223,76.141105,SO2,8,15,12
India,Haryana,Charkhi Dadri,"Mini Secretariat, Charkhi Dadri - HSPCB",21-01-2024 17:00:00,28.593883,76.270653,NH3,5,6,5
India,Haryana,Charkhi Dadri,"Mini Secretariat, Charkhi Dadri - HSPCB",21-01-2024 17:00:00,28.593883,76.270653,OZONE,13,16,14
India,Haryana,Dharuhera,"Municipal Corporation Office, Dharuhera -  HSPCB",21-01-2024 17:00:00,28.206800,76.799700,PM10,87,334,177
India,Haryana,Dharuhera,"Municipal Corporation Office, Dharuhera -  HSPCB",21-01-2024 17:00:00,28.206800,76.799700,SO2,13,18,16
India,Haryana,Dharuhera,"Municipal Corporation Office, Dharuhera -  HSPCB",21-01-2024 17:00:00,28.206800,76.799700,CO,46,113,54
India,Haryana,Dharuhera,"Municipal Corporation Office, Dharuhera -  HSPCB",21-01-2024 17:00:00,28.206800,76.799700,OZONE,1,31,15
India,Haryana,Faridabad,"New Industrial Town, Faridabad - HSPCB",21-01-2024 17:00:00,28.39072,77.30059,NO2,1,11,5
India,Haryana,Faridabad,"Sector 11, Faridabad - HSPCB",21-01-2024 17:00:00,28.376058,77.315741,PM2.5,230,364,314
India,Haryana,Faridabad,"Sector 11, Faridabad - HSPCB",21-01-2024 17:00:00,28.376058,77.315741,PM10,113,500,241
India,Haryana,Faridabad,"Sector 30, Faridabad - HSPCB",21-01-2024 17:00:00,28.4417,77.3217,PM10,132,144,136
India,Haryana,Faridabad,"Sector 30, Faridabad - HSPCB",21-01-2024 17:00:00,28.4417,77.3217,NO2,30,32,31
India,Haryana,Faridabad,"Sector- 16A, Faridabad - HSPCB",21-01-2024 17:00:00,28.4088421,77.3099081,NO2,14,70,38
India,Haryana,Fatehabad,"Huda Sector, Fatehabad - HSPCB",21-01-2024 17:00:00,29.503664,75.467934,PM10,55,143,98
India,Haryana,Fatehabad,"Huda Sector, Fatehabad - HSPCB",21-01-2024 17:00:00,29.503664,75.467934,OZONE,20,27,22
India,Haryana,Gurugram,"NISE Gwal Pahari, Gurugram - IMD",21-01-2024 17:00:00,28.422681,77.148944,PM2.5,132,319,239
India,Haryana,Gurugram,"NISE Gwal Pahari, Gurugram - IMD",21-01-2024 17:00:00,28.422681,77.148944,NO2,11,22,16
India,Haryana,Gurugram,"Sector-51, Gurugram - HSPCB",21-01-2024 17:00:00,28.4227,77.0667,PM10,175,485,298
India,Haryana,Gurugram,"Sector-51, Gurugram - HSPCB",21-01-2024 17:00:00,28.4227,77.0667,SO2,3,5,4
India,Haryana,Gurugram,"Sector-51, Gurugram - HSPCB",21-01-2024 17:00:00,28.4227,77.0667,CO,61,123,71
India,Haryana,Gurugram,"Teri Gram, Gurugram - HSPCB",21-01-2024 17:00:00,28.4275,77.1465,NO2,24,45,34
India,Haryana,Gurugram,"Teri Gram, Gurugram - HSPCB",21-01-2024 17:00:00,28.4275,77.1465,NH3,38,51,46
India,Haryana,Gurugram,"Teri Gram, Gurugram - HSPCB",21-01-2024 17:00:00,28.4275,77.1465,OZONE,10,14,11
India,Haryana,Gurugram,"Vikas Sadan, Gurugram - HSPCB",21-01-2024 17:00:00,28.4501238,77.0263051,OZONE,8,67,52
India,Haryana,Jind,"Police Lines, Jind - HSPCB",21-01-2024 17:00:00,29.307814,76.337619,NO2,5,17,13
India,Haryana,Kaithal,"Rishi Nagar, Kaithal - HSPCB",21-01-2024 17:00:00,29.8006,76.4155,OZONE,6,33,29
India,Haryana,Karnal,"Sector-12, Karnal - HSPCB",21-01-2024 17:00:00,29.695300,77.002700,NH3,10,13,11
India,Haryana,Kurukshetra,"Sector-7, Kurukshetra - HSPCB",21-01-2024 17:00:00,29.966942,76.875879,CO,2,51,8
India,Haryana,Manesar,"Sector-2 IMT, Manesar - HSPCB",21-01-2024 17:00:00,28.360699,76.936090,PM10,NA,NA,NA
India,Haryana,Manesar,"Sector-2 IMT, Manesar - HSPCB",21-01-2024 17:00:00,28.360699,76.936090,NH3,4,13,8
India,Haryana,Manesar,"Sector-2 IMT, Manesar - HSPCB",21-01-2024 17:00:00,28.360699,76.936090,CO,32,97,34
India,Haryana,Narnaul,"Shastri Nagar, Narnaul - HSPCB",21-01-2024 17:00:00,28.060249,76.113115,OZONE,37,84,60
India,Haryana,Panchkula,"Sector-6, Panchkula - HSPCB ",21-01-2024 17:00:00,30.7057778,76.8531805555555,OZONE,35,58,41
India,Haryana,Panipat,"Sector-18, Panipat - HSPCB",21-01-2024 17:00:00,29.497973,76.993331,PM2.5,NA,NA,NA
India,Haryana,Panipat,"Sector-18, Panipat - HSPCB",21-01-2024 17:00:00,29.497973,76.993331,NO2,NA,NA,NA
India,Haryana,Rohtak,"MD University, Rohtak - HSPCB",21-01-2024 17:00:00,28.52123,76.37138,OZONE,96,103,100
India,Haryana,Sirsa,"F-Block, Sirsa - HSPCB",21-01-2024 17:00:00,29.536400,75.015800,PM2.5,73,302,141
India,Haryana,Sirsa,"F-Block, Sirsa - HSPCB",21-01-2024 17:00:00,29.536400,75.015800,SO2,12,24,20
India,Haryana,Sonipat,"Murthal, Sonipat - HSPCB",21-01-2024 17:00:00,29.027200,77.062100,OZONE,17,35,32
India,Haryana,Yamuna Nagar,"Gobind Pura, Yamuna Nagar - HSPCB",21-01-2024 17:00:00,30.1480566,77.2893471,OZONE,5,10,9
India,Himachal Pradesh,Baddi,"HIMUDA Complex Phase-1, Baddi - HPPCB",21-01-2024 17:00:00,30.943887,76.801991,PM10,70,455,205
India,Jharkhand,Dhanbad,"Kalakusuma, Dhanbad - DMC",21-01-2024 17:00:00,23.811548,86.481238,CO,84,106,103
India,Jharkhand,Dhanbad,"Sardar Patel Nagar, Dhanbad - JSPCB",21-01-2024 17:00:00,23.80569,86.44268,PM2.5,NA,NA,NA
India,Jharkhand,Pathardih,"Mohalbani Ghat, Pathardih - DMC",21-01-2024 17:00:00,23.669880,86.411725,OZONE,NA,NA,NA
India,Karnataka,Belgaum,"Ramteerth Nagar, Belgaum - KSPCB",21-01-2024 17:00:00,15.888653,74.541751,PM10,21,83,52
India,Karnataka,Bengaluru,"Bapuji Nagar, Bengaluru - KSPCB",21-01-2024 17:00:00,12.951913,77.539784,OZONE,10,12,11
India,Karnataka,Bengaluru,"City Railway Station, Bengaluru - KSPCB",21-01-2024 17:00:00,12.9756843,77.5660749,PM10,69,85,78
India,Karnataka,Bengaluru,"City Railway Station, Bengaluru - KSPCB",21-01-2024 17:00:00,12.9756843,77.5660749,SO2,15,16,15
India,Karnataka,Bengaluru,"Hombegowda Nagar, Bengaluru - KSPCB",21-01-2024 17:00:00,12.938539,77.590100,PM2.5,42,93,52
India,Karnataka,Bengaluru,"Hombegowda Nagar, Bengaluru - KSPCB",21-01-2024 17:00:00,12.938539,77.590100,PM10,62,127,77
India,Karnataka,Bengaluru,"Jayanagar 5th Block, Bengaluru - KSPCB",21-01-2024 17:00:00,12.920984,77.584908,PM10,69,227,121
India,Karnataka,Bengaluru,"Jigani, Bengaluru - KSPCB",21-01-2024 17:00:00,12.7816279,77.6299145,CO,50,76,55
India,Karnataka,Bengaluru,"Kasturi Nagar, Bengaluru - KSPCB",21-01-2024 17:00:00,13.003872,77.664217,OZONE,45,156,156
India,Karnataka,Bengaluru,"Peenya, Bengaluru - CPCB",21-01-2024 17:00:00,13.0270199,77.494094,NO2,20,31,25
India,Karnataka,Bengaluru,"Peenya, Bengaluru - CPCB",21-01-2024 17:00:00,13.0270199,77.494094,NH3,5,6,5
India,Karnataka,Bengaluru,"RVCE-Mailasandra, Bengaluru - KSPCB",21-01-2024 17:00:00,12.921418,77.502466,CO,44,60,54
India,Karnataka,Bengaluru,"Silk Board, Bengaluru - KSPCB",21-01-2024 17:00:00,12.917348,77.622813,NO2,20,28,23
India,Karnataka,Bengaluru,"Silk Board, Bengaluru - KSPCB",21-01-2024 17:00:00,12.917348,77.622813,NH3,4,7,5
India,Karnataka,Bengaluru,"Silk Board, Bengaluru - KSPCB",21-01-2024 17:00:00,12.917348,77.622813,OZONE,27,30,30
India,Karnataka,Bidar,"Naubad, Bidar - KSPCB",21-01-2024 17:00:00,17.930306,77.482194,PM2.5,68,160,96
India,Karnataka,Bidar,"Naubad, Bidar - KSPCB",21-01-2024 17:00:00,17.930306,77.482194,NO2,7,8,8
India,Karnataka,Bidar,"Naubad, Bidar - KSPCB",21-01-2024 17:00:00,17.930306,77.482194,CO,47,77,54
India,Karnataka,Chamarajanagar,"Urban, Chamarajanagar - KSPCB",21-01-2024 17:00:00,11.55358,76.55521,SO2,4,8,5
India,Karnataka,Chikkaballapur,"Chikkaballapur Rural, Chikkaballapur - KSPCB",21-01-2024 17:00:00,13.428828,77.731418,PM10,53,267,81
India,Karnataka,Chikkamagaluru,"Kalyana Nagara, Chikkamagaluru - KSPCB",21-01-2024 17:00:00,13.328028,75.797056,PM10,57,71,69
India,Karnataka,Chikkamagaluru,"Kalyana Nagara, Chikkamagaluru - KSPCB",21-01-2024 17:00:00,13.328028,75.797056,SO2,1,7,3
India,Karnataka,Davanagere,"Devaraj Urs Badavane, Davanagere - KSPCB",21-01-2024 17:00:00,14.475800,75.905200,PM10,42,154,82
India,Karnataka,Dharwad,"Kalabhavan, Dharwad - KSPCB",21-01-2024 17:00:00,15.459706,75.008381,PM2.5,48,68,61
India,Karnataka,Dharwad,"Kalabhavan, Dharwad - KSPCB",21-01-2024 17:00:00,15.459706,75.008381,SO2,2,13,4
India,Karnataka,Gadag,"Panchal Nagar, Gadag - KSPCB",21-01-2024 17:00:00,15.411456,75.638133,PM10,NA,NA,NA
India,Karnataka,Haveri,"Ashwini Nagar, Haveri - KSPCB",21-01-2024 17:00:00,14.791800,75.389600,PM2.5,51,89,72
India,Karnataka,Hubballi,"Deshpande Nagar, Hubballi - KSPCB",21-01-2024 17:00:00,15.351773,75.140726,PM2.5,67,159,100
India,Karnataka,Hubballi,"Lingaraj Nagar, Hubballi - KSPCB",21-01-2024 17:00:00,15.3714823,75.1160168,PM2.5,24,64,39
India,Karnataka,Hubballi,"Lingaraj Nagar, Hubballi - KSPCB",21-01-2024 17:00:00,15.3714823,75.1160168,NO2,16,16,16
India,Karnataka,Hubballi,"Lingaraj Nagar, Hubballi - KSPCB",21-01-2024 17:00:00,15.3714823,75.1160168,NH3,2,2,2
India,Karnataka,Hubballi,"Lingaraj Nagar, Hubballi - KSPCB",21-01-2024 17:00:00,15.3714823,75.1160168,SO2,2,7,4
India,Karnataka,Kalaburagi,"Mahatma Basaveswar Colony, Kalaburgi - KSPCB",21-01-2024 17:00:00,17.336318,76.847397,PM10,29,65,48
India,Karnataka,Kalaburagi,"Mahatma Basaveswar Colony, Kalaburgi - KSPCB",21-01-2024 17:00:00,17.336318,76.847397,NH3,2,4,3
India,Karnataka,Koppal,"Diwator Nagar, Koppal - KSPCB",21-01-2024 17:00:00,15.347630,76.181767,PM2.5,27,71,45
India,Karnataka,Madikeri,"Stuart Hill, Madikeri - KSPCB",21-01-2024 17:00:00,12.415911,75.735050,PM2.5,25,47,34
India,Karnataka,Mangalore,"Kadri, Mangalore - KSPCB",21-01-2024 17:00:00,12.889250,74.853000,NO2,9,11,10
India,Karnataka,Mangalore,"Kadri, Mangalore - KSPCB",21-01-2024 17:00:00,12.889250,74.853000,CO,34,44,37
India,Karnataka,Mangalore,"Kadri, Mangalore - KSPCB",21-01-2024 17:00:00,12.889250,74.853000,OZONE,31,31,31
India,Karnataka,Mysuru,"Hebbal 1st Stage, Mysuru - KSPCB",21-01-2024 17:00:00,12.21041,76.37376,NH3,1,3,2
India,Karnataka,Mysuru,"Hebbal 1st Stage, Mysuru - KSPCB",21-01-2024 17:00:00,12.21041,76.37376,SO2,2,4,3
India,Karnataka,Mysuru,"Hebbal 1st Stage, Mysuru - KSPCB",21-01-2024 17:00:00,12.21041,76.37376,CO,2,54,12
India,Karnataka,Ramanagara,"Vijay Nagar, Ramanagara - KSPCB",21-01-2024 17:00:00,12.733409,77.298051,NO2,2,16,7
India,Karnataka,Ramanagara,"Vijay Nagar, Ramanagara - KSPCB",21-01-2024 17:00:00,12.733409,77.298051,SO2,24,32,28
India,Karnataka,Shivamogga,"Vinoba Nagara, Shivamogga - KSPCB",21-01-2024 17:00:00,13.940000,75.555917,PM10,64,85,70
India,Karnataka,Tumakuru,"Thimmalapura, Tumakuru - KSPCB",21-01-2024 17:00:00,13.377516,77.099072,PM10,80,416,151
India,Karnataka,Udupi,"Brahmagiri, Udupi - KSPCB",21-01-2024 17:00:00,13.34194444,74.74694444,PM10,18,54,35
India,Karnataka,Udupi,"Brahmagiri, Udupi - KSPCB",21-01-2024 17:00:00,13.34194444,74.74694444,NO2,13,14,14
India,Karnataka,Udupi,"Brahmagiri, Udupi - KSPCB",21-01-2024 17:00:00,13.34194444,74.74694444,SO2,19,21,20
India,Karnataka,Yadgir,"Collector Office, Yadgir - KSPCB",21-01-2024 17:00:00,16.7602,77.1428,NO2,5,7,6
India,Karnataka,Yadgir,"Collector Office, Yadgir - KSPCB",21-01-2024 17:00:00,16.7602,77.1428,OZONE,18,20,19
India,Kerala,Eloor,"Udyogamandal, Eloor - Kerala PCB",21-01-2024 17:00:00,10.073232,76.302765,NO2,4,4,4
India,Kerala,Kollam,"Polayathode, Kollam - Kerala PCB",21-01-2024 17:00:00,8.8787,76.6073,PM10,60,87,73
India,Kerala,Thiruvananthapuram,"Kariavattom, Thiruvananthapuram - Kerala PCB",21-01-2024 17:00:00,8.563700,76.886500,PM10,72,82,77
India,Kerala,Thiruvananthapuram,"Kariavattom, Thiruvananthapuram - Kerala PCB",21-01-2024 17:00:00,8.563700,76.886500,NO2,8,9,9
India,Kerala,Thiruvananthapuram,"Plammoodu, Thiruvananthapuram - Kerala PCB",21-01-2024 17:00:00,8.5149093,76.9435879,PM10,32,72,53
India,Kerala,Thrissur,"Corporation Ground, Thrissur - Kerala PCB",21-01-2024 17:00:00,10.532400,76.215900,SO2,NA,NA,NA
India,Kerala,Thrissur,"Corporation Ground, Thrissur - Kerala PCB",21-01-2024 17:00:00,10.532400,76.215900,OZONE,21,32,29
India,Madhya Pradesh,Bhopal,"Idgah Hills, Bhopal - MPPCB",21-01-2024 17:00:00,23.264759,77.381568,PM10,70,240,169
India,Madhya Pradesh,Bhopal,"Idgah Hills, Bhopal - MPPCB",21-01-2024 17:00:00,23.264759,77.381568,SO2,5,15,10
India,Madhya Pradesh,Bhopal,"Idgah Hills, Bhopal - MPPCB",21-01-2024 17:00:00,23.264759,77.381568,CO,18,84,40
India,Madhya Pradesh,Bhopal,"Idgah Hills, Bhopal - MPPCB",21-01-2024 17:00:00,23.264759,77.381568,OZONE,22,96,69
India,Madhya Pradesh,Bhopal,"T T Nagar, Bhopal - MPPCB",21-01-2024 17:00:00,23.233584,77.400574,NO2,39,64,50
India,Madhya Pradesh,Bhopal,"T T Nagar, Bhopal - MPPCB",21-01-2024 17:00:00,23.233584,77.400574,NH3,5,7,6
India,Madhya Pradesh,Gwalior,"City Center, Gwalior - MPPCB",21-01-2024 17:00:00,26.203442,78.193251,SO2,22,42,35
India,Madhya Pradesh,Gwalior,"City Center, Gwalior - MPPCB",21-01-2024 17:00:00,26.203442,78.193251,CO,22,104,36
India,Madhya Pradesh,Gwalior,"Deen Dayal Nagar, Gwalior - MPPCB",21-01-2024 17:00:00,26.259242,78.216432,NH3,10,13,11
India,Madhya Pradesh,Gwalior,"Deen Dayal Nagar, Gwalior - MPPCB",21-01-2024 17:00:00,26.259242,78.216432,OZONE,8,185,185
India,Madhya Pradesh,Gwalior,"Maharaj Bada, Gwalior - MPPCB",21-01-2024 17:00:00,26.200388,78.147714,PM2.5,85,366,244
India,Madhya Pradesh,Gwalior,"Maharaj Bada, Gwalior - MPPCB",21-01-2024 17:00:00,26.200388,78.147714,PM10,112,408,221
India,Madhya Pradesh,Gwalior,"Maharaj Bada, Gwalior - MPPCB",21-01-2024 17:00:00,26.200388,78.147714,SO2,9,23,14
India,Madhya Pradesh,Gwalior,"Maharaj Bada, Gwalior - MPPCB",21-01-2024 17:00:00,26.200388,78.147714,CO,34,120,60
India,Madhya Pradesh,Gwalior,"Phool Bagh, Gwalior - Mondelez Ind. Food",21-01-2024 17:00:00,26.210536,78.171,CO,32,42,34
India,Madhya Pradesh,Indore,"Chhoti Gwaltoli, Indore - MPPCB",21-01-2024 17:00:00,22.4310,75.5213,OZONE,12,104,78
India,Madhya Pradesh,Indore,"Residency Area, Indore - IMC",21-01-2024 17:00:00,22.7084,75.8815,NO2,33,56,43
India,Madhya Pradesh,Indore,"Residency Area, Indore - IMC",21-01-2024 17:00:00,22.7084,75.8815,NH3,NA,NA,NA
India,Madhya Pradesh,Jabalpur,"Govindh Bhavan Colony, Jabalpur - JMC",21-01-2024 17:00:00,23.163174,79.973061,PM2.5,110,324,262
India,Madhya Pradesh,Jabalpur,"Govindh Bhavan Colony, Jabalpur - JMC",21-01-2024 17:00:00,23.163174,79.973061,OZONE,7,238,238
India,Madhya Pradesh,Jabalpur,"Gupteshwar, Jabalpur - JMC",21-01-2024 17:00:00,23.142888,79.916147,PM10,72,211,126
India,Madhya Pradesh,Jabalpur,"Suhagi, Jabalpur - JMC",21-01-2024 17:00:00,23.218135,79.957770,NO2,37,42,40
India,Madhya Pradesh,Katni,"Gole Bazar, Katni - MPPCB",21-01-2024 17:00:00,23.50016,80.23284,SO2,10,31,16
India,Madhya Pradesh,Mandideep,"Sector-D Industrial Area, Mandideep - MPPCB",21-01-2024 17:00:00,23.108440,77.511428,NO2,37,96,74
India,Madhya Pradesh,Mandideep,"Sector-D Industrial Area, Mandideep - MPPCB",21-01-2024 17:00:00,23.108440,77.511428,SO2,51,136,110
India,Madhya Pradesh,Pithampur,"Sector-2 Industrial Area, Pithampur - MPPCB",21-01-2024 17:00:00,22.624758,75.675238,PM10,118,207,163
India,Madhya Pradesh,Pithampur,"Sector-2 Industrial Area, Pithampur - MPPCB",21-01-2024 17:00:00,22.624758,75.675238,NO2,7,22,13
India,Madhya Pradesh,Pithampur,"Sector-2 Industrial Area, Pithampur - MPPCB",21-01-2024 17:00:00,22.624758,75.675238,CO,45,88,60
India,Madhya Pradesh,Ratlam,"Shasthri Nagar, Ratlam - IPCA Lab",21-01-2024 17:00:00,23.331731,75.045981,PM10,89,153,118
India,Madhya Pradesh,Ratlam,"Shasthri Nagar, Ratlam - IPCA Lab",21-01-2024 17:00:00,23.331731,75.045981,SO2,12,15,14
India,Madhya Pradesh,Sagar,"Civil Lines, Sagar - MPPCB",21-01-2024 17:00:00,23.838586,78.759431,OZONE,38,46,43
India,Madhya Pradesh,Sagar,"Deen Dayal Nagar, Sagar - MPPCB",21-01-2024 17:00:00,23.8640158,78.80289321,PM10,37,147,100
India,Madhya Pradesh,Satna,"Bandhavgar Colony, Satna - Birla Cement",21-01-2024 17:00:00,24.58434363,80.8549414,PM2.5,1,9,4
India,Madhya Pradesh,Satna,"Bandhavgar Colony, Satna - Birla Cement",21-01-2024 17:00:00,24.58434363,80.8549414,CO,26,68,33
India,Madhya Pradesh,Singrauli,"Suryakiran Bhawan NCL, Singrauli - MPPCB",21-01-2024 17:00:00,24.108970,82.645580,PM10,183,259,214
India,Madhya Pradesh,Singrauli,"Suryakiran Bhawan NCL, Singrauli - MPPCB",21-01-2024 17:00:00,24.108970,82.645580,NH3,1,2,2
India,Madhya Pradesh,Singrauli,"Suryakiran Bhawan NCL, Singrauli - MPPCB",21-01-2024 17:00:00,24.108970,82.645580,OZONE,18,19,19
India,Madhya Pradesh,Ujjain,"Mahakaleshwar Temple, Ujjain - MPPCB",21-01-2024 17:00:00,23.182719 ,75.768218 ,PM10,55,121,100
India,Madhya Pradesh,Ujjain,"Mahakaleshwar Temple, Ujjain - MPPCB",21-01-2024 17:00:00,23.182719 ,75.768218 ,NO2,9,47,20
India,Madhya Pradesh,Ujjain,"Mahakaleshwar Temple, Ujjain - MPPCB",21-01-2024 17:00:00,23.182719 ,75.768218 ,CO,30,90,44
India,Maharashtra,Ahmednagar,"Tarakpur, Ahmednagar - MPCB",21-01-2024 17:00:00,19.10122,74.73339,PM10,NA,NA,NA
India,Maharashtra,Ahmednagar,"Tarakpur, Ahmednagar - MPCB",21-01-2024 17:00:00,19.10122,74.73339,OZONE,11,136,108
India,Maharashtra,Akola,"Ramdaspeth, Akola - MPCB",21-01-2024 17:00:00,20.719516,77.000253,CO,24,55,38
India,Maharashtra,Amravati,"Shivneri Colony, Amravati - MPCB",21-01-2024 17:00:00,20.9402359,77.7895248,CO,16,54,22
India,Maharashtra,Amravati,"Shri Shivaji Science College, Amaravati - MPCB",21-01-2024 17:00:00,20.939198,77.765701,PM10,96,194,142
India,Maharashtra,Amravati,"Shri Shivaji Science College, Amaravati - MPCB",21-01-2024 17:00:00,20.939198,77.765701,NO2,8,102,26
India,Maharashtra,Aurangabad,"MIDC Chilkalthana, Aurangabad - MPCB",21-01-2024 17:00:00,19.875620,75.387310,PM10,83,133,106
India,Maharashtra,Aurangabad,"MIDC Chilkalthana, Aurangabad - MPCB",21-01-2024 17:00:00,19.875620,75.387310,NO2,6,64,16
India,Maharashtra,Aurangabad,"Rachnakar Colony, Aurangabad - MPCB",21-01-2024 17:00:00,19.863756,75.321188,PM10,106,169,131
India,Maharashtra,Aurangabad,"Rachnakar Colony, Aurangabad - MPCB",21-01-2024 17:00:00,19.863756,75.321188,NH3,1,1,1
India,Maharashtra,Badlapur,"Katrap, Badlapur - MPCB",21-01-2024 17:00:00,19.16485,73.23409,SO2,18,58,30
India,Maharashtra,Belapur,"CBD Belapur, Belapur - MPCB",21-01-2024 17:00:00,19.0243902,73.0406721,SO2,2,6,4
India,Maharashtra,Bhiwandi,"Gokul Nagar, Bhiwandi - MPCB",21-01-2024 17:00:00,19.309073,73.057223,NH3,2,3,2
India,Maharashtra,Boisar,"Khaira, Boisar - MPCB",21-01-2024 17:00:00,19.786089,72.757971,PM10,86,125,108
India,Maharashtra,Boisar,"Khaira, Boisar - MPCB",21-01-2024 17:00:00,19.786089,72.757971,NH3,7,11,9
India,Maharashtra,Boisar,"Khaira, Boisar - MPCB",21-01-2024 17:00:00,19.786089,72.757971,OZONE,68,74,71
India,Maharashtra,Chandrapur,"Chauhan Colony, Chandrapur - MPCB",21-01-2024 17:00:00,19.962900,79.298714,PM10,82,134,102
India,Maharashtra,Chandrapur,"Chauhan Colony, Chandrapur - MPCB",21-01-2024 17:00:00,19.962900,79.298714,NH3,2,2,2
India,Maharashtra,Chandrapur,"MIDC Khutala, Chandrapur - MPCB",21-01-2024 17:00:00,19.9775302,79.2337086,SO2,NA,NA,NA
India,Maharashtra,Dhule,"Deopur, Dhule - MPCB",21-01-2024 17:00:00,20.918946,74.776388,PM2.5,81,186,113
India,Maharashtra,Dhule,"Deopur, Dhule - MPCB",21-01-2024 17:00:00,20.918946,74.776388,SO2,2,52,18
India,Maharashtra,Dhule,"Deopur, Dhule - MPCB",21-01-2024 17:00:00,20.918946,74.776388,CO,8,31,27
India,Maharashtra,Dhule,"Deopur, Dhule - MPCB",21-01-2024 17:00:00,20.918946,74.776388,OZONE,9,75,54
India,Maharashtra,Jalgaon,"Prabhat Colony, Jalgaon - MPCB",21-01-2024 17:00:00,21.001264,75.565602,PM2.5,NA,NA,NA
India,Maharashtra,Jalgaon,"Prabhat Colony, Jalgaon - MPCB",21-01-2024 17:00:00,21.001264,75.565602,PM10,NA,NA,NA
India,Maharashtra,Jalna,"Old MIDC, Jalna - MPCB",21-01-2024 17:00:00,19.854616,75.905894,PM10,102,185,123
India,Maharashtra,Jalna,"Old MIDC, Jalna - MPCB",21-01-2024 17:00:00,19.854616,75.905894,NH3,6,8,7
India,Maharashtra,Kalyan,"Khadakpada, Kalyan - MPCB",21-01-2024 17:00:00,19.25292,73.142019,NH3,1,1,1
India,Maharashtra,Kalyan,"Khadakpada, Kalyan - MPCB",21-01-2024 17:00:00,19.25292,73.142019,SO2,15,35,24
India,Maharashtra,Kolhapur,"Shivaji University, Kolhapur - MPCB",21-01-2024 17:00:00,16.6870449,74.2505872,PM10,56,193,90
India,Maharashtra,Kolhapur,"Shivaji University, Kolhapur - MPCB",21-01-2024 17:00:00,16.6870449,74.2505872,CO,88,111,102
India,Maharashtra,Kolhapur,"Shivaji University, Kolhapur - MPCB",21-01-2024 17:00:00,16.6870449,74.2505872,OZONE,1,34,21
India,Maharashtra,Kolhapur,"Sinchan Bhavan, Kolhapur - MPCB",21-01-2024 17:00:00,16.7143745,74.2426398,OZONE,1,125,67
India,Maharashtra,Latur,"Sawe Wadi, Latur - MPCB",21-01-2024 17:00:00,18.39963,76.57452,NO2,9,150,40
India,Maharashtra,Latur,"Sawe Wadi, Latur - MPCB",21-01-2024 17:00:00,18.39963,76.57452,CO,8,138,17
India,Maharashtra,Mahad,"Kamble Tarf Birwadi, Mahad - MPCB",21-01-2024 17:00:00,18.1023399,73.4783687,PM2.5,73,257,108
India,Maharashtra,Mahad,"Kamble Tarf Birwadi, Mahad - MPCB",21-01-2024 17:00:00,18.1023399,73.4783687,OZONE,13,50,37
India,Maharashtra,Malegaon,"Mahesh Nagar, Malegaon - MPCB",21-01-2024 17:00:00,20.555712,74.529236,PM10,51,429,174
India,Maharashtra,Malegaon,"Mahesh Nagar, Malegaon - MPCB",21-01-2024 17:00:00,20.555712,74.529236,NO2,4,51,19
India,Maharashtra,Mira-Bhayandar,"Bhayandar West, Mira-Bhayandar - MPCB",21-01-2024 17:00:00,19.296481,72.840923,CO,18,55,26
India,Maharashtra,Mumbai,"Bandra Kurla Complex, Mumbai - MPCB",21-01-2024 17:00:00,19.065931,72.862131,PM2.5,84,196,132
India,Maharashtra,Mumbai,"Bandra Kurla Complex, Mumbai - MPCB",21-01-2024 17:00:00,19.065931,72.862131,NO2,32,58,44
India,Maharashtra,Mumbai,"Bandra Kurla Complex, Mumbai - MPCB",21-01-2024 17:00:00,19.065931,72.862131,OZONE,1,38,13
India,Maharashtra,Mumbai,"Borivali East, Mumbai - IITM",21-01-2024 17:00:00,19.23241,72.86895,PM2.5,51,124,76
India,Maharashtra,Mumbai,"Borivali East, Mumbai - MPCB",21-01-2024 17:00:00,19.2243333,72.8658113,CO,2,105,10
India,Maharashtra,Mumbai,"Byculla, Mumbai - BMC",21-01-2024 17:00:00,18.9767,72.8380,PM2.5,70,148,100
India,Maharashtra,Mumbai,"Byculla, Mumbai - BMC",21-01-2024 17:00:00,18.9767,72.8380,NH3,2,7,4
India,Maharashtra,Mumbai,"Byculla, Mumbai - BMC",21-01-2024 17:00:00,18.9767,72.8380,SO2,1,19,5
India,Maharashtra,Mumbai,"Chembur, Mumbai - MPCB",21-01-2024 17:00:00,19.0364585,72.8954371,NO2,19,121,63
India,Maharashtra,Mumbai,"Chembur, Mumbai - MPCB",21-01-2024 17:00:00,19.0364585,72.8954371,SO2,1,10,5
India,Maharashtra,Mumbai,"Colaba, Mumbai - MPCB",21-01-2024 17:00:00,18.910000,72.820000,PM10,75,123,99
India,Maharashtra,Mumbai,"Colaba, Mumbai - MPCB",21-01-2024 17:00:00,18.910000,72.820000,NH3,1,1,1
India,Maharashtra,Mumbai,"Ghatkopar, Mumbai - BMC",21-01-2024 17:00:00,19.083694,72.920967,NH3,NA,NA,NA
India,Maharashtra,Mumbai,"Kandivali East, Mumbai - MPCB",21-01-2024 17:00:00,19.205800,72.868200,PM10,80,244,116
India,Maharashtra,Mumbai,"Kandivali East, Mumbai - MPCB",21-01-2024 17:00:00,19.205800,72.868200,NH3,6,10,8
India,Maharashtra,Mumbai,"Kherwadi_Bandra East, Mumbai - MPCB",21-01-2024 17:00:00,19.0632143,72.8456324,PM2.5,70,99,85
India,Maharashtra,Mumbai,"Kherwadi_Bandra East, Mumbai - MPCB",21-01-2024 17:00:00,19.0632143,72.8456324,PM10,77,122,102
India,Maharashtra,Mumbai,"Kherwadi_Bandra East, Mumbai - MPCB",21-01-2024 17:00:00,19.0632143,72.8456324,NH3,4,7,5
India,Maharashtra,Mumbai,"Kherwadi_Bandra East, Mumbai - MPCB",21-01-2024 17:00:00,19.0632143,72.8456324,SO2,1,36,16
India,Maharashtra,Mumbai,"Kherwadi_Bandra East, Mumbai - MPCB",21-01-2024 17:00:00,19.0632143,72.8456324,CO,18,76,32
India,Maharashtra,Mumbai,"Kherwadi_Bandra East, Mumbai - MPCB",21-01-2024 17:00:00,19.0632143,72.8456324,OZONE,3,54,36
India,Maharashtra,Mumbai,"Khindipada-Bhandup West, Mumbai - IITM",21-01-2024 17:00:00,19.1653323,72.922099,PM2.5,54,170,105
India,Maharashtra,Mumbai,"Khindipada-Bhandup West, Mumbai - IITM",21-01-2024 17:00:00,19.1653323,72.922099,SO2,1,27,6
India,Maharashtra,Mumbai,"Kurla, Mumbai - MPCB",21-01-2024 17:00:00,19.0863,72.8888,CO,26,41,33
India,Maharashtra,Mumbai,"Kurla, Mumbai - MPCB",21-01-2024 17:00:00,19.0863,72.8888,OZONE,29,55,41
India,Maharashtra,Mumbai,"Mazgaon, Mumbai - IITM",21-01-2024 17:00:00,18.96702,72.84214,SO2,10,38,20
India,Maharashtra,Mumbai,"Mazgaon, Mumbai - IITM",21-01-2024 17:00:00,18.96702,72.84214,OZONE,34,150,107
India,Maharashtra,Mumbai,"Mindspace-Malad West, Mumbai - MPCB",21-01-2024 17:00:00,19.1878657,72.8304069,CO,22,77,39
India,Maharashtra,Mumbai,"Mulund West, Mumbai - MPCB",21-01-2024 17:00:00,19.1750,72.9419,SO2,14,15,15
India,Maharashtra,Mumbai,"Navy Nagar-Colaba, Mumbai - IITM",21-01-2024 17:00:00,18.897756,72.813320,PM10,66,122,87
India,Maharashtra,Mumbai,"Sewri, Mumbai - BMC",21-01-2024 17:00:00,19.000084,72.856730,CO,24,72,33
India,Maharashtra,Mumbai,"Sewri, Mumbai - BMC",21-01-2024 17:00:00,19.000084,72.856730,OZONE,1,159,91
India,Maharashtra,Mumbai,"Shivaji Nagar, Mumbai - BMC",21-01-2024 17:00:00,19.060498,72.923356,PM10,79,246,124
India,Maharashtra,Mumbai,"Shivaji Nagar, Mumbai - BMC",21-01-2024 17:00:00,19.060498,72.923356,SO2,9,28,16
India,Maharashtra,Mumbai,"Sion, Mumbai - MPCB",21-01-2024 17:00:00,19.047000,72.874600,NO2,31,86,54
India,Maharashtra,Mumbai,"Sion, Mumbai - MPCB",21-01-2024 17:00:00,19.047000,72.874600,NH3,1,2,1
India,Maharashtra,Mumbai,"Vasai West, Mumbai - MPCB",21-01-2024 17:00:00,19.383200,72.820400,CO,12,28,18
India,Maharashtra,Mumbai,"Vile Parle West, Mumbai - MPCB",21-01-2024 17:00:00,19.10861,72.83622,NO2,5,64,21
India,Maharashtra,Mumbai,"Worli, Mumbai - MPCB",21-01-2024 17:00:00,18.9936162,72.8128113,SO2,10,11,10
India,Maharashtra,Nagpur,"Opp GPO Civil Lines, Nagpur - MPCB",21-01-2024 17:00:00,21.152875,79.0517531,PM10,100,155,124
India,Maharashtra,Nagpur,"Opp GPO Civil Lines, Nagpur - MPCB",21-01-2024 17:00:00,21.152875,79.0517531,CO,20,131,36
India,Maharashtra,Nagpur,"Ram Nagar, Nagpur - MPCB",21-01-2024 17:00:00,21.143383,79.048912,PM2.5,152,305,214
India,Maharashtra,Nagpur,"Ram Nagar, Nagpur - MPCB",21-01-2024 17:00:00,21.143383,79.048912,SO2,16,93,37
India,Maharashtra,Nagpur,"Ram Nagar, Nagpur - MPCB",21-01-2024 17:00:00,21.143383,79.048912,CO,24,103,37
India,Maharashtra,Nanded,"Sneh Nagar, Nanded - MPCB",21-01-2024 17:00:00,19.173852,77.296291,PM10,92,139,113
India,Maharashtra,Nanded,"Sneh Nagar, Nanded - MPCB",21-01-2024 17:00:00,19.173852,77.296291,NO2,30,89,44
India,Maharashtra,Nanded,"Sneh Nagar, Nanded - MPCB",21-01-2024 17:00:00,19.173852,77.296291,SO2,4,11,7
India,Maharashtra,Nanded,"Sneh Nagar, Nanded - MPCB",21-01-2024 17:00:00,19.173852,77.296291,CO,35,42,41
India,Maharashtra,Nashik,"Gangapur Road, Nashik - MPCB",21-01-2024 17:00:00,20.0073285,73.7762427,CO,18,18,18
India,Maharashtra,Nashik,"Gangapur Road, Nashik - MPCB",21-01-2024 17:00:00,20.0073285,73.7762427,OZONE,1,68,50
India,Maharashtra,Nashik,"Hirawadi, Nashik - MPCB",21-01-2024 17:00:00,20.021503,73.813844,NO2,7,71,27
India,Maharashtra,Nashik,"Hirawadi, Nashik - MPCB",21-01-2024 17:00:00,20.021503,73.813844,NH3,1,2,1
India,Maharashtra,Nashik,"Hirawadi, Nashik - MPCB",21-01-2024 17:00:00,20.021503,73.813844,SO2,5,7,6
India,Maharashtra,Nashik,"MIDC Ambad, Nashik - MPCB",21-01-2024 17:00:00,19.950220,73.731480,NH3,2,2,2
India,Maharashtra,Nashik,"Pandav Nagari, Nashik - MPCB",21-01-2024 17:00:00,19.9591346,73.7788008,NO2,26,63,38
India,Maharashtra,Navi Mumbai,"Mahape, Navi Mumbai - MPCB",21-01-2024 17:00:00,19.1135051,73.008978,NO2,37,38,38
India,Maharashtra,Navi Mumbai,"Nerul, Navi Mumbai - MPCB",21-01-2024 17:00:00,19.008751,73.016620,NO2,23,35,30
India,Maharashtra,Navi Mumbai,"Nerul, Navi Mumbai - MPCB",21-01-2024 17:00:00,19.008751,73.016620,CO,44,66,52
India,Maharashtra,Navi Mumbai,"Sector-19A Nerul, Navi Mumbai - IITM",21-01-2024 17:00:00,19.044,73.0325,SO2,13,47,26
India,Maharashtra,Navi Mumbai,"Sector-19A Nerul, Navi Mumbai - IITM",21-01-2024 17:00:00,19.044,73.0325,OZONE,1,183,177
India,Maharashtra,Navi Mumbai,"Sector-2E Kalamboli, Navi Mumbai - MPCB",21-01-2024 17:00:00,19.02579,73.10297,NH3,NA,NA,NA
India,Maharashtra,Parbhani,"Masoom Colony, Parbhani - MPCB",21-01-2024 17:00:00,19.265594,76.761463,PM2.5,84,155,108
India,Maharashtra,Parbhani,"Masoom Colony, Parbhani - MPCB",21-01-2024 17:00:00,19.265594,76.761463,NO2,11,80,21
India,Maharashtra,Pimpri-Chinchwad,"Gavalinagar, Pimpri Chinchwad - MPCB",21-01-2024 17:00:00,18.63673,73.82487,NO2,20,137,62
India,Maharashtra,Pimpri-Chinchwad,"Gavalinagar, Pimpri Chinchwad - MPCB",21-01-2024 17:00:00,18.63673,73.82487,SO2,4,17,9
India,Maharashtra,Pimpri-Chinchwad,"Gavalinagar, Pimpri Chinchwad - MPCB",21-01-2024 17:00:00,18.63673,73.82487,OZONE,1,180,180
India,Maharashtra,Pimpri-Chinchwad,"Park Street Wakad, Pimpri Chinchwad - MPCB",21-01-2024 17:00:00,18.59051,73.77946,SO2,3,18,9
India,Maharashtra,Pimpri-Chinchwad,"Park Street Wakad, Pimpri Chinchwad - MPCB",21-01-2024 17:00:00,18.59051,73.77946,OZONE,2,148,100
India,Maharashtra,Pimpri-Chinchwad,"Thergaon, Pimpri Chinchwad - MPCB",21-01-2024 17:00:00,18.616318,73.765797,PM10,108,191,136
India,Maharashtra,Pimpri-Chinchwad,"Thergaon, Pimpri Chinchwad - MPCB",21-01-2024 17:00:00,18.616318,73.765797,NO2,41,138,71
India,Maharashtra,Pimpri-Chinchwad,"Thergaon, Pimpri Chinchwad - MPCB",21-01-2024 17:00:00,18.616318,73.765797,SO2,3,9,5
India,Maharashtra,Pune,"Bhosari, Pune - IITM",21-01-2024 17:00:00,18.640051,73.848956,PM2.5,31,264,126
India,Maharashtra,Pune,"Bhosari, Pune - IITM",21-01-2024 17:00:00,18.640051,73.848956,NO2,7,27,18
India,Maharashtra,Pune,"Karve Road, Pune - MPCB",21-01-2024 17:00:00,18.5011743,73.8165527,PM10,130,130,130
India,Maharashtra,Pune,"Katraj Dairy, Pune - MPCB",21-01-2024 17:00:00,18.454450,73.854155,NH3,1,7,3
India,Maharashtra,Pune,"Katraj Dairy, Pune - MPCB",21-01-2024 17:00:00,18.454450,73.854155,SO2,2,17,9
India,Maharashtra,Pune,"Savitribai Phule Pune University, Pune - MPCB",21-01-2024 17:00:00,18.547056,73.826908,SO2,2,6,4
India,Maharashtra,Pune,"Transport Nagar-Nigdi, Pune - IITM",21-01-2024 17:00:00,18.664282,73.763966,NO2,26,36,29
India,Maharashtra,Sangli,"Vijay Nagar, Sangli - MPCB",21-01-2024 17:00:00, 16.5038,74.3623,PM2.5,51,303,142
India,Maharashtra,Solapur,"Dnyaneshwar Nagar, Solapur - MPCB",21-01-2024 17:00:00,17.6336264,75.9132495,PM2.5,70,221,114
India,Maharashtra,Solapur,"Dnyaneshwar Nagar, Solapur - MPCB",21-01-2024 17:00:00,17.6336264,75.9132495,OZONE,10,94,80
India,Maharashtra,Solapur,"Solapur, Solapur - MPCB",21-01-2024 17:00:00,17.6599188,75.9063906,PM10,86,155,113
India,Maharashtra,Solapur,"Solapur, Solapur - MPCB",21-01-2024 17:00:00,17.6599188,75.9063906,NO2,46,57,50
India,Maharashtra,Thane,"Kasarvadavali, Thane - MPCB",21-01-2024 17:00:00,19.26777,72.97182,CO,18,45,29
India,Maharashtra,Thane,"Upvan Fort, Thane - MPCB",21-01-2024 17:00:00,19.222279,72.957979,CO,8,41,26
India,Maharashtra,Ulhasnagar,"Sidhi Vinayak Nagar, Ulhasnagar - MPCB",21-01-2024 17:00:00,19.235581,73.159121,PM2.5,98,310,172
India,Maharashtra,Ulhasnagar,"Sidhi Vinayak Nagar, Ulhasnagar - MPCB",21-01-2024 17:00:00,19.235581,73.159121,PM10,99,165,122
India,Maharashtra,Ulhasnagar,"Sidhi Vinayak Nagar, Ulhasnagar - MPCB",21-01-2024 17:00:00,19.235581,73.159121,CO,22,70,34
India,Maharashtra,Virar,"Bolinj, Virar - MPCB",21-01-2024 17:00:00,19.4458210,72.7988231,PM2.5,76,98,85
India,Manipur,Imphal,"DM College of Science, Imphal - Manipur PCB",21-01-2024 17:00:00,24.8207389,93.9423085,PM2.5,13,294,61
India,Meghalaya,Shillong,"JN Stadium, Shillong - Meghalaya PCB",21-01-2024 17:00:00,25.5803419,91.8942571,NO2,11,63,28
India,Mizoram,Aizawl,"Sikulpuikawn, Aizawl - Mizoram PCB",21-01-2024 17:00:00,23.7176342,92.7192841,PM2.5,17,63,35
India,Mizoram,Aizawl,"Sikulpuikawn, Aizawl - Mizoram PCB",21-01-2024 17:00:00,23.7176342,92.7192841,SO2,2,2,2
India,Nagaland,Kohima,"PWD Juction, Kohima - NPCB",21-01-2024 17:00:00,25.6635413,94.0989878,NO2,3,4,3
India,Odisha,Angul,"Hakimapada, Angul - OSPCB",21-01-2024 17:00:00,20.832874,85.104082,OZONE,22,81,48
India,Odisha,Baripada,"Meher Colony, Baripada - OSPCB",21-01-2024 17:00:00,21.941841,86.728318,PM2.5,98,289,168
India,Odisha,Baripada,"Meher Colony, Baripada - OSPCB",21-01-2024 17:00:00,21.941841,86.728318,PM10,136,193,159
India,Odisha,Baripada,"Meher Colony, Baripada - OSPCB",21-01-2024 17:00:00,21.941841,86.728318,NH3,4,4,4
India,Odisha,Baripada,"Meher Colony, Baripada - OSPCB",21-01-2024 17:00:00,21.941841,86.728318,CO,57,80,59
India,Odisha,Bhubaneswar,"Lingraj Mandir, Bhubaneswar - OSPCB",21-01-2024 17:00:00,20.240790,85.836784,PM2.5,270,323,297
India,Odisha,Bhubaneswar,"Lingraj Mandir, Bhubaneswar - OSPCB",21-01-2024 17:00:00,20.240790,85.836784,NO2,22,45,29
India,Odisha,Bhubaneswar,"Patia, Bhubaneswar - OSPCB",21-01-2024 17:00:00,20.34652,85.81630,PM2.5,227,308,280
India,Odisha,Bhubaneswar,"Patia, Bhubaneswar - OSPCB",21-01-2024 17:00:00,20.34652,85.81630,PM10,127,176,145
India,Odisha,Bhubaneswar,"Patia, Bhubaneswar - OSPCB",21-01-2024 17:00:00,20.34652,85.81630,SO2,10,25,15
India,Odisha,Bileipada,"Tata Township, Bileipada - OSPCB",21-01-2024 17:00:00,22.06156703,85.47409613,PM2.5,137,302,228
India,Odisha,Bileipada,"Tata Township, Bileipada - OSPCB",21-01-2024 17:00:00,22.06156703,85.47409613,CO,46,55,47
India,Odisha,Byasanagar,"Ferro Chrome Colony, Byasanagar - OSPCB",21-01-2024 17:00:00,20.94185,86.11510,PM10,107,186,148
India,Odisha,Byasanagar,"Ferro Chrome Colony, Byasanagar - OSPCB",21-01-2024 17:00:00,20.94185,86.11510,SO2,4,13,8
India,Odisha,Cuttack,"CDA Area, Cuttack - OSPCB",21-01-2024 17:00:00,20.48891     ,85.84768     ,NO2,24,43,31
India,Odisha,Cuttack,"CDA Area, Cuttack - OSPCB",21-01-2024 17:00:00,20.48891     ,85.84768     ,NH3,2,3,2
India,Odisha,Keonjhar,"Jagamohanpur, Keonjhar - OSPCB",21-01-2024 17:00:00,21.643900,85.599355,OZONE,1,16,3
India,Odisha,Nayagarh,"Dabuna, Nayagarh - OSPCB",21-01-2024 17:00:00,21.847279,85.416905,PM2.5,87,241,153
India,Odisha,Nayagarh,"Dabuna, Nayagarh - OSPCB",21-01-2024 17:00:00,21.847279,85.416905,PM10,58,157,104
India,Odisha,Nayagarh,"Dabuna, Nayagarh - OSPCB",21-01-2024 17:00:00,21.847279,85.416905,OZONE,2,7,6
India,Odisha,Rourkela,"Fertilizer Township, Rourkela - OSPCB",21-01-2024 17:00:00,22.18972222,84.86277778,SO2,12,14,13
India,Odisha,Rourkela,"Raghunathpali, Rourkela - OSPCB",21-01-2024 17:00:00,22.220833,84.809444,PM10,NA,NA,NA
India,Odisha,Rourkela,"Raghunathpali, Rourkela - OSPCB",21-01-2024 17:00:00,22.220833,84.809444,OZONE,21,62,44
India,Odisha,Talcher,"Talcher Coalfields,Talcher - OSPCB",21-01-2024 17:00:00,20.9360711,85.1707021,OZONE,1,5,2
India,Odisha,Tensa,"Barsua Iron Ore Mines, Tensa - OSPCB",21-01-2024 17:00:00,21.869985,85.167016,PM2.5,54,101,77
India,Odisha,Tensa,"Barsua Iron Ore Mines, Tensa - OSPCB",21-01-2024 17:00:00,21.869985,85.167016,CO,26,62,54
India,Puducherry,Puducherry,"Jawahar Nagar, Puducherry - PPCC",21-01-2024 17:00:00,11.9309,79.8027,NH3,1,2,2
India,Punjab,Bathinda,"Hardev Nagar, Bathinda - PPCB",21-01-2024 17:00:00,30.233011,74.907758,PM10,45,142,72
India,Punjab,Jalandhar,"Civil Line, Jalandhar - PPCB",21-01-2024 17:00:00,31.321907,75.578914,PM10,101,159,121
India,Punjab,Jalandhar,"Civil Line, Jalandhar - PPCB",21-01-2024 17:00:00,31.321907,75.578914,NH3,4,4,4
India,Punjab,Khanna,"Kalal Majra, Khanna - PPCB",21-01-2024 17:00:00,30.736056 ,76.209694,NO2,29,34,33
India,Punjab,Khanna,"Kalal Majra, Khanna - PPCB",21-01-2024 17:00:00,30.736056 ,76.209694,OZONE,22,28,27
India,Punjab,Ludhiana,"Punjab Agricultural University, Ludhiana - PPCB",21-01-2024 17:00:00,30.9028,75.8086,NO2,26,29,27
India,Punjab,Ludhiana,"Punjab Agricultural University, Ludhiana - PPCB",21-01-2024 17:00:00,30.9028,75.8086,CO,20,106,68
India,Punjab,Mandi Gobindgarh,"RIMT University, Mandi Gobindgarh - PPCB",21-01-2024 17:00:00,30.649961,76.331442,NO2,30,32,31
India,Punjab,Mandi Gobindgarh,"RIMT University, Mandi Gobindgarh - PPCB",21-01-2024 17:00:00,30.649961,76.331442,NH3,2,2,2
India,Punjab,Patiala,"Model Town, Patiala - PPCB",21-01-2024 17:00:00,30.349388,76.366642,PM10,88,175,128
India,Punjab,Patiala,"Model Town, Patiala - PPCB",21-01-2024 17:00:00,30.349388,76.366642,NO2,23,27,25
India,Punjab,Patiala,"Model Town, Patiala - PPCB",21-01-2024 17:00:00,30.349388,76.366642,CO,57,97,59
India,Rajasthan,Ajmer,"Civil Lines,  Ajmer - RSPCB",21-01-2024 17:00:00,26.470859,74.646594,CO,14,97,36
India,Rajasthan,Alwar,"Moti Doongri, Alwar - RSPCB",21-01-2024 17:00:00,27.554793,76.611536,PM10,75,153,118
India,Rajasthan,Alwar,"Moti Doongri, Alwar - RSPCB",21-01-2024 17:00:00,27.554793,76.611536,SO2,3,49,24
India,Rajasthan,Alwar,"Moti Doongri, Alwar - RSPCB",21-01-2024 17:00:00,27.554793,76.611536,OZONE,7,24,16
India,Rajasthan,Banswara,"Rati Talai, Banswara - RSPCB",21-01-2024 17:00:00,23.555190,74.440010,PM2.5,68,247,138
India,Rajasthan,Banswara,"Rati Talai, Banswara - RSPCB",21-01-2024 17:00:00,23.555190,74.440010,CO,39,88,46
India,Rajasthan,Barmer,"Railway Colony, Barmer - RSPCB",21-01-2024 17:00:00,25.747299,71.393989,PM2.5,28,196,93
India,Rajasthan,Barmer,"Railway Colony, Barmer - RSPCB",21-01-2024 17:00:00,25.747299,71.393989,SO2,5,50,13
India,Rajasthan,Barmer,"Railway Colony, Barmer - RSPCB",21-01-2024 17:00:00,25.747299,71.393989,CO,5,93,15
India,Rajasthan,Bhilwara,"Pratap Nagar, Bhilwara - RSPCB",21-01-2024 17:00:00,25.339605,74.618883,PM10,24,278,164
India,Rajasthan,Bhilwara,"Pratap Nagar, Bhilwara - RSPCB",21-01-2024 17:00:00,25.339605,74.618883,NO2,18,106,55
India,Rajasthan,Bhilwara,"Pratap Nagar, Bhilwara - RSPCB",21-01-2024 17:00:00,25.339605,74.618883,CO,23,108,45
India,Rajasthan,Bhiwadi,"RIICO Ind. Area III, Bhiwadi - RSPCB",21-01-2024 17:00:00,28.194909,76.862296,NO2,9,30,17
India,Rajasthan,Bhiwadi,"RIICO Ind. Area III, Bhiwadi - RSPCB",21-01-2024 17:00:00,28.194909,76.862296,SO2,5,16,12
India,Rajasthan,Bhiwadi,"RIICO Ind. Area III, Bhiwadi - RSPCB",21-01-2024 17:00:00,28.194909,76.862296,CO,34,138,80
India,Rajasthan,Bikaner,"MM Ground, Bikaner - RSPCB",21-01-2024 17:00:00,28.018792,73.292658,PM10,129,424,243
India,Rajasthan,Bundi,"New Colony, Bundi - RSPCB",21-01-2024 17:00:00,25.435774,75.644272,NO2,18,63,35
India,Rajasthan,Bundi,"New Colony, Bundi - RSPCB",21-01-2024 17:00:00,25.435774,75.644272,NH3,4,4,4
India,Rajasthan,Bundi,"New Colony, Bundi - RSPCB",21-01-2024 17:00:00,25.435774,75.644272,CO,24,104,36
India,Rajasthan,Chittorgarh,"Shastri Nagar, Chittorgarh - RSPCB",21-01-2024 17:00:00,24.892047,74.623527,PM10,107,322,165
India,Rajasthan,Chittorgarh,"Shastri Nagar, Chittorgarh - RSPCB",21-01-2024 17:00:00,24.892047,74.623527,NO2,26,97,52
India,Rajasthan,Chittorgarh,"Shastri Nagar, Chittorgarh - RSPCB",21-01-2024 17:00:00,24.892047,74.623527,NH3,5,12,8
India,Rajasthan,Dausa,"Khatikan Mohalla, Dausa - RSPCB",21-01-2024 17:00:00,26.895552,76.334753,PM2.5,40,271,171
India,Rajasthan,Dausa,"Khatikan Mohalla, Dausa - RSPCB",21-01-2024 17:00:00,26.895552,76.334753,NH3,9,35,13
India,Rajasthan,Dholpur,"Raja Ganj, Dholpur - RSPCB",21-01-2024 17:00:00,26.699557,77.898881,SO2,3,30,17
India,Rajasthan,Dholpur,"Raja Ganj, Dholpur - RSPCB",21-01-2024 17:00:00,26.699557,77.898881,CO,37,98,56
India,Rajasthan,Dholpur,"Raja Ganj, Dholpur - RSPCB",21-01-2024 17:00:00,26.699557,77.898881,OZONE,1,125,59
India,Rajasthan,Dungarpur,"Bhoiwada, Dungarpur - RSPCB",21-01-2024 17:00:00,23.837789,73.714926,PM10,51,206,120
India,Rajasthan,Dungarpur,"Bhoiwada, Dungarpur - RSPCB",21-01-2024 17:00:00,23.837789,73.714926,NO2,21,47,35
India,Rajasthan,Dungarpur,"Bhoiwada, Dungarpur - RSPCB",21-01-2024 17:00:00,23.837789,73.714926,NH3,7,8,8
India,Rajasthan,Jaipur,"Adarsh Nagar, Jaipur - RSPCB",21-01-2024 17:00:00,26.902909,75.836858,CO,20,96,39
India,Rajasthan,Jaipur,"Mansarovar Sector-12, Jaipur - RSPCB",21-01-2024 17:00:00,26.843698,75.766894,SO2,1,5,3
India,Rajasthan,Jaipur,"Police Commissionerate, Jaipur - RSPCB",21-01-2024 17:00:00,26.9164092,75.7994901,PM10,107,380,205
India,Rajasthan,Jaipur,"RIICO Sitapura, Jaipur - RSPCB",21-01-2024 17:00:00,26.786682,75.827928,SO2,10,16,12
India,Rajasthan,Jaipur,"Sector-2 Murlipura, Jaipur - RSPCB",21-01-2024 17:00:00,26.960669,75.771817,OZONE,6,150,89
India,Rajasthan,Jaipur,"Shastri Nagar, Jaipur - RSPCB",21-01-2024 17:00:00,26.9502929,75.730943,OZONE,8,59,46
India,Rajasthan,Jalore,"Mudtra Sili, Jalore - RSPCB",21-01-2024 17:00:00,25.344694,72.626208,PM10,63,246,157
India,Rajasthan,Jalore,"Mudtra Sili, Jalore - RSPCB",21-01-2024 17:00:00,25.344694,72.626208,CO,30,132,46
India,Rajasthan,Jhalawar,"Rajlaxmi Nagar, Jhalawar - RSPCB",21-01-2024 17:00:00,24.588397,76.172782,PM2.5,54,293,143
India,Rajasthan,Jhalawar,"Rajlaxmi Nagar, Jhalawar - RSPCB",21-01-2024 17:00:00,24.588397,76.172782,OZONE,7,97,56
India,Rajasthan,Jhunjhunu,"Indra Nagar, Jhunjhunu - RSPCB",21-01-2024 17:00:00,28.108988,75.386577,PM10,91,231,156
India,Rajasthan,Jhunjhunu,"Indra Nagar, Jhunjhunu - RSPCB",21-01-2024 17:00:00,28.108988,75.386577,CO,46,104,68
India,Rajasthan,Jodhpur,"Collectorate, Jodhpur - RSPCB",21-01-2024 17:00:00,26.268249,73.0193853,NO2,21,24,22
India,Rajasthan,Jodhpur,"Digari Kalan, Jodhpur - RSPCB",21-01-2024 17:00:00,26.295810,73.082283,NO2,16,92,45
India,Rajasthan,Jodhpur,"Digari Kalan, Jodhpur - RSPCB",21-01-2024 17:00:00,26.295810,73.082283,SO2,3,8,5
India,Rajasthan,Jodhpur,"Digari Kalan, Jodhpur - RSPCB",21-01-2024 17:00:00,26.295810,73.082283,CO,16,94,32
India,Rajasthan,Jodhpur,"Jhalamand, Jodhpur - RSPCB",21-01-2024 17:00:00,26.215415,73.070156,PM10,64,315,146
India,Rajasthan,Jodhpur,"Jhalamand, Jodhpur - RSPCB",21-01-2024 17:00:00,26.215415,73.070156,CO,12,100,32
India,Rajasthan,Jodhpur,"Jhalamand, Jodhpur - RSPCB",21-01-2024 17:00:00,26.215415,73.070156,OZONE,3,127,77
India,Rajasthan,Jodhpur,"Mandor, Jodhpur - RSPCB",21-01-2024 17:00:00,26.358805,73.047444,NH3,4,13,6
India,Rajasthan,Jodhpur,"Mandor, Jodhpur - RSPCB",21-01-2024 17:00:00,26.358805,73.047444,SO2,1,16,4
India,Rajasthan,Jodhpur,"Samrat Ashok Udhyan, Jodhpur - RSPCB",21-01-2024 17:00:00,26.253384,72.976571,PM2.5,48,299,113
India,Rajasthan,Jodhpur,"Samrat Ashok Udhyan, Jodhpur - RSPCB",21-01-2024 17:00:00,26.253384,72.976571,PM10,98,191,131
India,Rajasthan,Jodhpur,"Samrat Ashok Udhyan, Jodhpur - RSPCB",21-01-2024 17:00:00,26.253384,72.976571,CO,33,90,55
India,Rajasthan,Kota,"Dhanmandi, Kota - RSPCB",21-01-2024 17:00:00,25.164090,75.858137,PM10,103,385,185
India,Rajasthan,Kota,"Dhanmandi, Kota - RSPCB",21-01-2024 17:00:00,25.164090,75.858137,NO2,23,93,47
India,Rajasthan,Kota,"Dhanmandi, Kota - RSPCB",21-01-2024 17:00:00,25.164090,75.858137,NH3,5,13,7
India,Rajasthan,Kota,"Nayapura, Kota - RSPCB",21-01-2024 17:00:00,25.196024,75.855668,OZONE,1,122,62
India,Rajasthan,Kota,"Shrinath Puram, Kota - RSPCB",21-01-2024 17:00:00,25.14389,75.821256,SO2,6,108,17
India,Rajasthan,Nagaur,"Karni Colony, Nagaur - RSPCB",21-01-2024 17:00:00,27.213494,73.734444,PM2.5,43,329,192
India,Rajasthan,Nagaur,"Karni Colony, Nagaur - RSPCB",21-01-2024 17:00:00,27.213494,73.734444,PM10,96,333,170
India,Rajasthan,Pali,"Indira Colony Vistar, Pali - RSPCB",21-01-2024 17:00:00,25.771061, 73.340227,SO2,5,21,14
India,Rajasthan,Pali,"Indira Colony Vistar, Pali - RSPCB",21-01-2024 17:00:00,25.771061, 73.340227,OZONE,4,79,35
India,Rajasthan,Pratapgarh,"Pragati Nagar, Pratapgarh - RSPCB",21-01-2024 17:00:00,24.041198,74.780702,NO2,15,50,23
India,Rajasthan,Rajsamand,"Dhoinda, Rajsamand - RSPCB",21-01-2024 17:00:00,25.036360,73.883502,NH3,2,8,4
India,Rajasthan,Sawai Madhopur,"Sahu Nagar, Sawai Madhopur - RSPCB",21-01-2024 17:00:00,26.031443,76.359327,PM2.5,47,214,99
India,Rajasthan,Sawai Madhopur,"Sahu Nagar, Sawai Madhopur - RSPCB",21-01-2024 17:00:00,26.031443,76.359327,SO2,6,21,10
India,Rajasthan,Sawai Madhopur,"Sahu Nagar, Sawai Madhopur - RSPCB",21-01-2024 17:00:00,26.031443,76.359327,CO,20,87,38
India,Rajasthan,Sikar,"Radhakishan Pura, Sikar - RSPCB",21-01-2024 17:00:00,27.608912,75.153302,PM2.5,72,389,283
India,Rajasthan,Sikar,"Radhakishan Pura, Sikar - RSPCB",21-01-2024 17:00:00,27.608912,75.153302,SO2,3,7,5
India,Rajasthan,Sirohi,"Vedhaynath Colony, Sirohi - RSPCB",21-01-2024 17:00:00,24.885261,72.857549,NO2,9,80,45
India,Rajasthan,Sri Ganganagar,"Old City, Sri Ganganagar - RSPCB",21-01-2024 17:00:00,29.931624,73.864511,PM10,171,407,238
India,Rajasthan,Sri Ganganagar,"Old City, Sri Ganganagar - RSPCB",21-01-2024 17:00:00,29.931624,73.864511,CO,36,95,50
India,Rajasthan,Tonk,"Shastri Nagar, Tonk - RSPCB",21-01-2024 17:00:00,26.159933,75.780517,NO2,16,90,38
India,Rajasthan,Tonk,"Shastri Nagar, Tonk - RSPCB",21-01-2024 17:00:00,26.159933,75.780517,NH3,4,30,12
India,Rajasthan,Udaipur,"Ashok Nagar, Udaipur - RSPCB",21-01-2024 17:00:00,24.5886166,73.6321397,PM10,63,158,109
India,Rajasthan,Udaipur,"Ashok Nagar, Udaipur - RSPCB",21-01-2024 17:00:00,24.5886166,73.6321397,NO2,37,128,68
India,Rajasthan,Udaipur,"Ashok Nagar, Udaipur - RSPCB",21-01-2024 17:00:00,24.5886166,73.6321397,NH3,5,14,7
India,Rajasthan,Udaipur,"Ashok Nagar, Udaipur - RSPCB",21-01-2024 17:00:00,24.5886166,73.6321397,CO,28,104,46
India,Sikkim,Gangtok,"Zero Point GICI, Gangtok - SSPCB",21-01-2024 17:00:00,27.338530,88.614099,PM2.5,20,32,27
India,Sikkim,Gangtok,"Zero Point GICI, Gangtok - SSPCB",21-01-2024 17:00:00,27.338530,88.614099,NH3,1,1,1
India,Sikkim,Gangtok,"Zero Point GICI, Gangtok - SSPCB",21-01-2024 17:00:00,27.338530,88.614099,OZONE,19,62,40
India,TamilNadu,Chennai,"Alandur Bus Depot, Chennai - CPCB",21-01-2024 17:00:00,12.9099161,80.1076538,PM2.5,64,97,83
India,TamilNadu,Chennai,"Alandur Bus Depot, Chennai - CPCB",21-01-2024 17:00:00,12.9099161,80.1076538,CO,8,121,39
India,TamilNadu,Chennai,"Kodungaiyur, Chennai - TNPCB",21-01-2024 17:00:00,13.1278,80.2642,PM2.5,10,62,28
India,TamilNadu,Chennai,"Kodungaiyur, Chennai - TNPCB",21-01-2024 17:00:00,13.1278,80.2642,NH3,3,4,4
India,TamilNadu,Chennai,"Manali, Chennai - CPCB",21-01-2024 17:00:00,13.164544,80.26285,NH3,2,10,5
India,TamilNadu,Chennai,"Perungudi, Chennai - TNPCB",21-01-2024 17:00:00,12.9533,80.2357,PM2.5,17,188,60
India,TamilNadu,Chennai,"Perungudi, Chennai - TNPCB",21-01-2024 17:00:00,12.9533,80.2357,NO2,3,15,7
India,TamilNadu,Chennai,"Perungudi, Chennai - TNPCB",21-01-2024 17:00:00,12.9533,80.2357,SO2,1,10,4
India,TamilNadu,Chennai,"Perungudi, Chennai - TNPCB",21-01-2024 17:00:00,12.9533,80.2357,CO,6,52,31
India,TamilNadu,Chennai,"Royapuram, Chennai - TNPCB",21-01-2024 17:00:00,13.1036,80.2909,PM10,21,124,50
India,TamilNadu,Chennai,"Royapuram, Chennai - TNPCB",21-01-2024 17:00:00,13.1036,80.2909,SO2,1,5,2
India,TamilNadu,Chennai,"Velachery Res. Area, Chennai - CPCB",21-01-2024 17:00:00,13.0052189,80.2398125,PM2.5,25,54,39
India,TamilNadu,Chennai,"Velachery Res. Area, Chennai - CPCB",21-01-2024 17:00:00,13.0052189,80.2398125,PM10,38,74,52
India,TamilNadu,Chennai,"Velachery Res. Area, Chennai - CPCB",21-01-2024 17:00:00,13.0052189,80.2398125,NO2,8,83,29
India,TamilNadu,Chennai,"Velachery Res. Area, Chennai - CPCB",21-01-2024 17:00:00,13.0052189,80.2398125,SO2,10,11,11
India,TamilNadu,Chennai,"Velachery Res. Area, Chennai - CPCB",21-01-2024 17:00:00,13.0052189,80.2398125,CO,16,74,65
India,TamilNadu,Coimbatore,"PSG College of Arts and Science, Coimbatore - TNPCB",21-01-2024 17:00:00,11.0328,77.0349,NH3,1,1,1
India,TamilNadu,Cuddalore,"Semmandalam, Cuddalore - TNPCB",21-01-2024 17:00:00,11.7637683,79.7499835,NO2,6,24,14
India,TamilNadu,Gummidipoondi,"Anthoni Pillai Nagar, Gummidipoondi - TNPCB",21-01-2024 17:00:00,13.4127,80.1081,PM2.5,24,452,144
India,TamilNadu,Ramanathapuram,"Chalai Bazaar, Ramanathapuram - TNPCB",21-01-2024 17:00:00,9.36399,78.831977,PM2.5,27,92,43
India,TamilNadu,Tirupur,"Kumaran College, Tirupur - TNPCB",21-01-2024 17:00:00,11.0973603,77.3228673,OZONE,6,7,7
India,Telangana,Hyderabad,"Bollaram Industrial Area, Hyderabad - TSPCB",21-01-2024 17:00:00,17.540891,78.358528,PM2.5,54,83,65
India,Telangana,Hyderabad,"Bollaram Industrial Area, Hyderabad - TSPCB",21-01-2024 17:00:00,17.540891,78.358528,OZONE,37,39,38
India,Telangana,Hyderabad,"IITH Kandi, Hyderabad - TSPCB",21-01-2024 17:00:00,17.585705,78.126199,SO2,12,12,12
India,Telangana,Hyderabad,"Kompally Municipal Office, Hyderabad - TSPCB",21-01-2024 17:00:00,17.544899,78.486949,NO2,NA,NA,NA
India,Telangana,Hyderabad,"Kompally Municipal Office, Hyderabad - TSPCB",21-01-2024 17:00:00,17.544899,78.486949,SO2,NA,NA,NA
India,Telangana,Hyderabad,"Nacharam_TSIIC IALA, Hyderabad - TSPCB",21-01-2024 17:00:00,17.429398,78.569354,SO2,6,18,12
India,Telangana,Hyderabad,"Nacharam_TSIIC IALA, Hyderabad - TSPCB",21-01-2024 17:00:00,17.429398,78.569354,OZONE,26,51,36
India,Telangana,Hyderabad,"Ramachandrapuram, Hyderabad - TSPCB",21-01-2024 17:00:00,17.528544,78.286195,PM10,71,75,73
India,Telangana,Hyderabad,"Ramachandrapuram, Hyderabad - TSPCB",21-01-2024 17:00:00,17.528544,78.286195,CO,24,26,24
India,Telangana,Hyderabad,"Ramachandrapuram, Hyderabad - TSPCB",21-01-2024 17:00:00,17.528544,78.286195,OZONE,9,45,34
India,Telangana,Hyderabad,"Somajiguda, Hyderabad - TSPCB",21-01-2024 17:00:00,17.417094,78.457437,PM2.5,NA,NA,NA
India,Telangana,Hyderabad,"Somajiguda, Hyderabad - TSPCB",21-01-2024 17:00:00,17.417094,78.457437,PM10,NA,NA,NA
India,Telangana,Hyderabad,"Zoo Park, Hyderabad - TSPCB",21-01-2024 17:00:00,17.349694,78.451437,PM10,38,136,69
India,Uttar_Pradesh,Agra,"Manoharpur, Agra - UPPCB",21-01-2024 17:00:00,27.23711,78.01936,PM2.5,33,117,64
India,Uttar_Pradesh,Agra,"Manoharpur, Agra - UPPCB",21-01-2024 17:00:00,27.23711,78.01936,NH3,NA,NA,NA
India,Uttar_Pradesh,Agra,"Manoharpur, Agra - UPPCB",21-01-2024 17:00:00,27.23711,78.01936,SO2,22,23,22
India,Uttar_Pradesh,Agra,"Manoharpur, Agra - UPPCB",21-01-2024 17:00:00,27.23711,78.01936,CO,18,28,24
India,Uttar_Pradesh,Agra,"Rohta, Agra - UPPCB",21-01-2024 17:00:00,27.106972,78.000111,PM10,52,138,89
India,Uttar_Pradesh,Agra,"Sanjay Palace, Agra - UPPCB",21-01-2024 17:00:00,27.19865833,78.00598056,PM2.5,71,161,108
India,Uttar_Pradesh,Agra,"Sanjay Palace, Agra - UPPCB",21-01-2024 17:00:00,27.19865833,78.00598056,CO,38,108,73
India,Uttar_Pradesh,Agra,"Sanjay Palace, Agra - UPPCB",21-01-2024 17:00:00,27.19865833,78.00598056,OZONE,2,52,22
India,Uttar_Pradesh,Agra,"Sector-3B Avas Vikas Colony, Agra - UPPCB",21-01-2024 17:00:00,27.19412,77.96237,NO2,27,52,36
India,Uttar_Pradesh,Agra,"Shahjahan Garden, Agra - UPPCB",21-01-2024 17:00:00,27.169338,78.03582,PM2.5,80,211,109
India,Uttar_Pradesh,Agra,"Shahjahan Garden, Agra - UPPCB",21-01-2024 17:00:00,27.169338,78.03582,PM10,71,126,90
India,Uttar_Pradesh,Agra,"Shahjahan Garden, Agra - UPPCB",21-01-2024 17:00:00,27.169338,78.03582,OZONE,NA,NA,NA
India,Uttar_Pradesh,Agra,"Shastripuram, Agra - UPPCB",21-01-2024 17:00:00,27.19862,77.92066,PM2.5,36,255,109
India,Uttar_Pradesh,Agra,"Shastripuram, Agra - UPPCB",21-01-2024 17:00:00,27.19862,77.92066,SO2,17,22,18
India,Uttar_Pradesh,Baghpat,"Sardar Patel Inter College, Baghpat - UPPCB",21-01-2024 17:00:00,28.964949,77.278761,NO2,39,78,53
India,Uttar_Pradesh,Baghpat,"Sardar Patel Inter College, Baghpat - UPPCB",21-01-2024 17:00:00,28.964949,77.278761,SO2,2,29,11
India,Uttar_Pradesh,Bareilly,"Rajendra Nagar, Bareilly - UPPCB",21-01-2024 17:00:00,28.38910936,79.42963708,CO,55,112,61
India,Uttar_Pradesh,Bareilly,"Rajendra Nagar, Bareilly - UPPCB",21-01-2024 17:00:00,28.38910936,79.42963708,OZONE,8,13,10
India,Uttar_Pradesh,Bulandshahr,"Yamunapuram, Bulandshahr - UPPCB",21-01-2024 17:00:00,28.406963,77.849831,PM10,122,351,195
India,Uttar_Pradesh,Bulandshahr,"Yamunapuram, Bulandshahr - UPPCB",21-01-2024 17:00:00,28.406963,77.849831,NO2,67,120,83
India,Uttar_Pradesh,Bulandshahr,"Yamunapuram, Bulandshahr - UPPCB",21-01-2024 17:00:00,28.406963,77.849831,NH3,14,17,15
India,Uttar_Pradesh,Firozabad,"Nagla Bhau, Firozabad - UPPCB",21-01-2024 17:00:00,27.168897,78.376960,NO2,11,17,17
India,Uttar_Pradesh,Firozabad,"Vibhab Nagar, Firozabad - UPPCB",21-01-2024 17:00:00,27.1594,78.3953,CO,36,49,42
India,Uttar_Pradesh,Ghaziabad,"Indirapuram, Ghaziabad - UPPCB",21-01-2024 17:00:00,28.646233,77.358075,NO2,91,230,120
India,Uttar_Pradesh,Ghaziabad,"Indirapuram, Ghaziabad - UPPCB",21-01-2024 17:00:00,28.646233,77.358075,OZONE,6,7,7
India,Uttar_Pradesh,Ghaziabad,"Loni, Ghaziabad - UPPCB",21-01-2024 17:00:00,28.757294,77.278792,OZONE,1,41,25
India,Uttar_Pradesh,Ghaziabad,"Sanjay Nagar, Ghaziabad - UPPCB",21-01-2024 17:00:00,28.685382,77.453839,PM10,127,442,253
India,Uttar_Pradesh,Ghaziabad,"Sanjay Nagar, Ghaziabad - UPPCB",21-01-2024 17:00:00,28.685382,77.453839,NO2,61,103,72
India,Uttar_Pradesh,Ghaziabad,"Vasundhara, Ghaziabad - UPPCB",21-01-2024 17:00:00,28.6603346,77.3572563,NH3,12,16,13
India,Uttar_Pradesh,Ghaziabad,"Vasundhara, Ghaziabad - UPPCB",21-01-2024 17:00:00,28.6603346,77.3572563,OZONE,2,35,15
India,Uttar_Pradesh,Gorakhpur,"Madan Mohan Malaviya University of Technology, Gorakhpur - UPPCB",21-01-2024 17:00:00,26.730136,83.433859,PM10,62,112,83
India,Uttar_Pradesh,Gorakhpur,"Madan Mohan Malaviya University of Technology, Gorakhpur - UPPCB",21-01-2024 17:00:00,26.730136,83.433859,OZONE,9,24,14
India,Uttar_Pradesh,Greater Noida,"Knowledge Park - III, Greater Noida - UPPCB",21-01-2024 17:00:00,28.47272,77.482000,PM2.5,247,348,309
India,Uttar_Pradesh,Greater Noida,"Knowledge Park - III, Greater Noida - UPPCB",21-01-2024 17:00:00,28.47272,77.482000,NO2,42,97,63
India,Uttar_Pradesh,Greater Noida,"Knowledge Park - III, Greater Noida - UPPCB",21-01-2024 17:00:00,28.47272,77.482000,OZONE,1,151,77
India,Uttar_Pradesh,Greater Noida,"Knowledge Park - V, Greater Noida - UPPCB",21-01-2024 17:00:00,28.557054,77.453663,SO2,12,17,14
India,Uttar_Pradesh,Hapur,"Anand Vihar, Hapur - UPPCB",21-01-2024 17:00:00,28.725645,77.749675,PM10,110,274,166
India,Uttar_Pradesh,Hapur,"Anand Vihar, Hapur - UPPCB",21-01-2024 17:00:00,28.725645,77.749675,NO2,11,102,43
India,Uttar_Pradesh,Hapur,"Anand Vihar, Hapur - UPPCB",21-01-2024 17:00:00,28.725645,77.749675,SO2,21,79,46
India,Uttar_Pradesh,Jhansi,"Shivaji Nagar, Jhansi - UPPCB",21-01-2024 17:00:00,25.4547,78.6039,NO2,17,33,21
India,Uttar_Pradesh,Kanpur,"FTI Kidwai Nagar, Kanpur - UPPCB",21-01-2024 17:00:00,26.428282,80.327067,NO2,NA,NA,NA
India,Uttar_Pradesh,Kanpur,"FTI Kidwai Nagar, Kanpur - UPPCB",21-01-2024 17:00:00,26.428282,80.327067,SO2,NA,NA,NA
India,Uttar_Pradesh,Kanpur,"NSI Kalyanpur, Kanpur - UPPCB",21-01-2024 17:00:00,26.509954,80.249612,PM2.5,58,96,81
India,Uttar_Pradesh,Kanpur,"NSI Kalyanpur, Kanpur - UPPCB",21-01-2024 17:00:00,26.509954,80.249612,SO2,23,24,23
India,Uttar_Pradesh,Kanpur,"NSI Kalyanpur, Kanpur - UPPCB",21-01-2024 17:00:00,26.509954,80.249612,OZONE,12,18,16
India,Uttar_Pradesh,Kanpur,"Nehru Nagar, Kanpur - UPPCB",21-01-2024 17:00:00,26.4703136,80.3229863,PM10,90,176,119
India,Uttar_Pradesh,Khurja,"Kalindi Kunj, Khurja - UPPCB",21-01-2024 17:00:00,28.2348927,77.8683002,OZONE,21,44,27
India,Uttar_Pradesh,Lucknow,"B R Ambedkar University, Lucknow - UPPCB",21-01-2024 17:00:00,26.766433,80.927299,PM2.5,51,179,86
India,Uttar_Pradesh,Lucknow,"Gomti Nagar, Lucknow - UPPCB",21-01-2024 17:00:00,26.868120,81.005119,SO2,5,16,9
India,Uttar_Pradesh,Lucknow,"Gomti Nagar, Lucknow - UPPCB",21-01-2024 17:00:00,26.868120,81.005119,OZONE,37,46,42
India,Uttar_Pradesh,Lucknow,"Kendriya Vidyalaya, Lucknow - CPCB",21-01-2024 17:00:00,26.906111,80.948222,NH3,3,20,14
India,Uttar_Pradesh,Lucknow,"Kukrail Picnic Spot-1, Lucknow - UPPCB",21-01-2024 17:00:00,26.90723,80.98579,OZONE,9,25,19
India,Uttar_Pradesh,Lucknow,"Lalbagh, Lucknow - CPCB",21-01-2024 17:00:00,26.8458805,80.9365541,SO2,3,27,10
India,Uttar_Pradesh,Lucknow,"Talkatora District Industries Center, Lucknow - CPCB",21-01-2024 17:00:00,26.83399722,80.8917361,CO,22,47,31
India,Uttar_Pradesh,Lucknow,"Talkatora District Industries Center, Lucknow - CPCB",21-01-2024 17:00:00,26.83399722,80.8917361,OZONE,2,80,48
India,Uttar_Pradesh,Meerut,"Ganga Nagar, Meerut - UPPCB",21-01-2024 17:00:00,28.999264,77.7590354,PM2.5,NA,NA,NA
India,Uttar_Pradesh,Meerut,"Jai Bhim Nagar, Meerut - UPPCB",21-01-2024 17:00:00,28.9535882,77.7622941,PM10,102,358,180
India,Uttar_Pradesh,Meerut,"Pallavpuram Phase 2, Meerut - UPPCB",21-01-2024 17:00:00,29.063510,77.709723,PM2.5,106,352,245
India,Uttar_Pradesh,Meerut,"Pallavpuram Phase 2, Meerut - UPPCB",21-01-2024 17:00:00,29.063510,77.709723,SO2,3,4,4
India,Uttar_Pradesh,Moradabad,"Buddhi Vihar, Moradabad - UPPCB",21-01-2024 17:00:00,28.83526,78.74460,PM2.5,67,267,127
India,Uttar_Pradesh,Moradabad,"Buddhi Vihar, Moradabad - UPPCB",21-01-2024 17:00:00,28.83526,78.74460,PM10,80,219,132
India,Uttar_Pradesh,Moradabad,"Eco Herbal Park, Moradabad - UPPCB",21-01-2024 17:00:00,28.840739,78.697531,PM2.5,97,281,186
India,Uttar_Pradesh,Moradabad,"Employment Office, Moradabad - UPPCB",21-01-2024 17:00:00,28.88528,78.73880,CO,47,82,54
India,Uttar_Pradesh,Moradabad,"Employment Office, Moradabad - UPPCB",21-01-2024 17:00:00,28.88528,78.73880,OZONE,13,18,15
India,Uttar_Pradesh,Moradabad,"Jigar Colony, Moradabad - UPPCB",21-01-2024 17:00:00,28.856664,78.772638,NH3,5,5,5
India,Uttar_Pradesh,Moradabad,"Transport Nagar, Moradabad - UPPCB",21-01-2024 17:00:00,28.802625,78.753728,PM2.5,67,334,156
India,Uttar_Pradesh,Moradabad,"Transport Nagar, Moradabad - UPPCB",21-01-2024 17:00:00,28.802625,78.753728,PM10,64,185,105
India,Uttar_Pradesh,Noida,"Sector - 125, Noida - UPPCB",21-01-2024 17:00:00,28.5447608,77.3231257,NO2,76,194,117
India,Uttar_Pradesh,Noida,"Sector-1, Noida - UPPCB",21-01-2024 17:00:00,28.5898,77.3101,NO2,54,89,72
India,Uttar_Pradesh,Noida,"Sector-1, Noida - UPPCB",21-01-2024 17:00:00,28.5898,77.3101,NH3,5,13,8
India,Uttar_Pradesh,Noida,"Sector-116, Noida - UPPCB",21-01-2024 17:00:00,28.569230,77.393848,PM2.5,307,383,344
India,Uttar_Pradesh,Noida,"Sector-116, Noida - UPPCB",21-01-2024 17:00:00,28.569230,77.393848,PM10,156,354,232
India,Uttar_Pradesh,Noida,"Sector-116, Noida - UPPCB",21-01-2024 17:00:00,28.569230,77.393848,NH3,6,14,8
India,Uttar_Pradesh,Noida,"Sector-116, Noida - UPPCB",21-01-2024 17:00:00,28.569230,77.393848,CO,24,122,59
India,Uttar_Pradesh,Prayagraj,"Jhunsi, Prayagraj - UPPCB",21-01-2024 17:00:00,25.425602,81.917152,SO2,30,33,31
India,Uttar_Pradesh,Prayagraj,"Motilal Nehru NIT, Prayagraj - UPPCB",21-01-2024 17:00:00,25.494,81.863,NO2,12,12,12
India,Uttar_Pradesh,Prayagraj,"Motilal Nehru NIT, Prayagraj - UPPCB",21-01-2024 17:00:00,25.494,81.863,OZONE,7,19,13
India,Uttar_Pradesh,Prayagraj,"Nagar Nigam, Prayagraj - UPPCB",21-01-2024 17:00:00,25.44919916 ,81.82735986 ,CO,1,14,3
India,Uttar_Pradesh,Varanasi,"Bhelupur, Varanasi - UPPCB",21-01-2024 17:00:00,25.301778,82.996789,NO2,14,44,24
India,Uttar_Pradesh,Varanasi,"Bhelupur, Varanasi - UPPCB",21-01-2024 17:00:00,25.301778,82.996789,NH3,2,3,2
India,Uttar_Pradesh,Varanasi,"IESD Banaras Hindu University, Varanasi - UPPCB",21-01-2024 17:00:00,25.262326,82.995408,PM2.5,12,29,21
India,Uttar_Pradesh,Varanasi,"IESD Banaras Hindu University, Varanasi - UPPCB",21-01-2024 17:00:00,25.262326,82.995408,PM10,24,55,39
India,Uttar_Pradesh,Varanasi,"Maldahiya, Varanasi - UPPCB",21-01-2024 17:00:00,25.32393,82.99687,PM10,39,89,59
India,Uttar_Pradesh,Varanasi,"Maldahiya, Varanasi - UPPCB",21-01-2024 17:00:00,25.32393,82.99687,CO,2,38,1
India,Uttar_Pradesh,Vrindavan,"Omex Eternity, Vrindavan - UPPCB",21-01-2024 17:00:00,27.5714090,77.6557570,PM2.5,25,108,52
India,Uttar_Pradesh,Vrindavan,"Omex Eternity, Vrindavan - UPPCB",21-01-2024 17:00:00,27.5714090,77.6557570,SO2,35,36,35
India,Uttarakhand,Dehradun,"Doon University, Dehradun - UKPCB",21-01-2024 17:00:00,30.269444,78.044167,PM10,100,167,127
India,Uttarakhand,Dehradun,"Doon University, Dehradun - UKPCB",21-01-2024 17:00:00,30.269444,78.044167,CO,27,54,41
India,Uttarakhand,Kashipur,"Govt. Girls Inter College, Kashipur - UKPCB",21-01-2024 17:00:00,29.2124114,78.9611753,NO2,23,94,52
India,Uttarakhand,Kashipur,"Govt. Girls Inter College, Kashipur - UKPCB",21-01-2024 17:00:00,29.2124114,78.9611753,OZONE,1,4,2
India,Uttarakhand,Rishikesh,"Shivaji Nagar, Rishikesh - UKPCB",21-01-2024 17:00:00,30.075911,78.2859547,SO2,3,5,4
India,Uttarakhand,Rishikesh,"Shivaji Nagar, Rishikesh - UKPCB",21-01-2024 17:00:00,30.075911,78.2859547,OZONE,2,11,8
India,West_Bengal,Asansol,"Asansol Court Area, Asansol - WBPCB",21-01-2024 17:00:00,23.685297,86.945968,CO,4,107,29
India,West_Bengal,Barrackpore,"SVSPA Campus, Barrackpore - WBPCB",21-01-2024 17:00:00,22.7605581,88.3617589,PM2.5,244,398,316
India,West_Bengal,Barrackpore,"SVSPA Campus, Barrackpore - WBPCB",21-01-2024 17:00:00,22.7605581,88.3617589,NH3,2,5,4
India,West_Bengal,Howrah,"Belur Math, Howrah - WBPCB",21-01-2024 17:00:00,22.629801,88.352017,CO,15,86,21
India,West_Bengal,Howrah,"Ghusuri, Howrah - WBPCB",21-01-2024 17:00:00,22.611968,88.347422,SO2,6,9,7
India,West_Bengal,Howrah,"Ghusuri, Howrah - WBPCB",21-01-2024 17:00:00,22.611968,88.347422,CO,34,103,40
India,West_Bengal,Howrah,"Padmapukur, Howrah - WBPCB",21-01-2024 17:00:00,22.5687319,88.2797276,PM2.5,207,322,267
India,West_Bengal,Howrah,"Padmapukur, Howrah - WBPCB",21-01-2024 17:00:00,22.5687319,88.2797276,NH3,12,49,25
India,West_Bengal,Kolkata,"Ballygunge, Kolkata - WBPCB",21-01-2024 17:00:00,22.5367507,88.3638022,PM2.5,302,356,320
India,West_Bengal,Kolkata,"Bidhannagar, Kolkata - WBPCB",21-01-2024 17:00:00,22.58157048,88.41002457,CO,71,102,75
India,West_Bengal,Kolkata,"Bidhannagar, Kolkata - WBPCB",21-01-2024 17:00:00,22.58157048,88.41002457,OZONE,5,9,8
India,West_Bengal,Kolkata,"Fort William, Kolkata - WBPCB",21-01-2024 17:00:00,22.556640,88.342674,SO2,8,43,18
India,West_Bengal,Kolkata,"Fort William, Kolkata - WBPCB",21-01-2024 17:00:00,22.556640,88.342674,OZONE,15,85,63
India,West_Bengal,Kolkata,"Victoria, Kolkata - WBPCB",21-01-2024 17:00:00,22.5448082,88.3403691,NH3,1,3,2
India,West_Bengal,Kolkata,"Victoria, Kolkata - WBPCB",21-01-2024 17:00:00,22.5448082,88.3403691,SO2,23,42,33
India,West_Bengal,Kolkata,"Victoria, Kolkata - WBPCB",21-01-2024 17:00:00,22.5448082,88.3403691,OZONE,4,70,56
India,West_Bengal,Siliguri,"Ward-32 Bapupara, Siliguri - WBPCB",21-01-2024 17:00:00,26.6879226,88.4152495,NO2,19,40,28
India,Andhra_Pradesh,Chittoor,"Gangineni Cheruvu, Chittoor - APPCB",21-01-2024 17:00:00,13.204880,79.097889,SO2,1,27,9
India,Andhra_Pradesh,Chittoor,"Gangineni Cheruvu, Chittoor - APPCB",21-01-2024 17:00:00,13.204880,79.097889,OZONE,7,89,57
India,Andhra_Pradesh,Kadapa,"Yerramukkapalli, Kadapa - APPCB",21-01-2024 17:00:00,14.465052,78.824187,PM10,25,38,32
India,Andhra_Pradesh,Rajamahendravaram,"Anand Kala Kshetram, Rajamahendravaram - APPCB",21-01-2024 17:00:00,16.9872867,81.7363176,SO2,16,25,20
India,Andhra_Pradesh,Rajamahendravaram,"Anand Kala Kshetram, Rajamahendravaram - APPCB",21-01-2024 17:00:00,16.9872867,81.7363176,OZONE,1,7,5
India,Andhra_Pradesh,Tirupati,"Tirumala, Tirupati - APPCB",21-01-2024 17:00:00,13.67,79.35,PM2.5,39,80,59
India,Andhra_Pradesh,Tirupati,"Tirumala, Tirupati - APPCB",21-01-2024 17:00:00,13.67,79.35,OZONE,4,56,39
India,Andhra_Pradesh,Visakhapatnam,"GVM Corporation, Visakhapatnam - APPCB",21-01-2024 17:00:00,17.72,83.3,NO2,28,70,44
India,Assam,Byrnihat,"Central Academy for SFS, Byrnihat - PCBA",21-01-2024 17:00:00,26.071318,91.87488,PM2.5,127,419,317
India,Assam,Guwahati,"IITG, Guwahati - PCBA",21-01-2024 17:00:00,26.2028636,91.70046436,PM2.5,NA,NA,NA
India,Assam,Guwahati,"IITG, Guwahati - PCBA",21-01-2024 17:00:00,26.2028636,91.70046436,SO2,NA,NA,NA
India,Assam,Guwahati,"LGBI Airport, Guwahati - PCBA",21-01-2024 17:00:00,26.10887,91.589544,PM2.5,173,401,276
India,Assam,Guwahati,"LGBI Airport, Guwahati - PCBA",21-01-2024 17:00:00,26.10887,91.589544,OZONE,1,72,49
India,Assam,Guwahati,"Pan Bazaar, Guwahati - PCBA",21-01-2024 17:00:00,26.187500,91.744194,NO2,1,7,4
India,Assam,Guwahati,"Railway Colony, Guwahati - PCBA",21-01-2024 17:00:00,26.181742,91.78063,OZONE,10,37,24
India,Assam,Nagaon,"Christianpatty, Nagaon - PCBA",21-01-2024 17:00:00,26.349082,92.68449,NH3,1,1,1
India,Assam,Nagaon,"Christianpatty, Nagaon - PCBA",21-01-2024 17:00:00,26.349082,92.68449,SO2,9,12,11
India,Assam,Nalbari,"Bata Chowk, Nalbari - PCBA",21-01-2024 17:00:00,26.446912,91.439057,NO2,20,42,27
India,Assam,Nalbari,"Bata Chowk, Nalbari - PCBA",21-01-2024 17:00:00,26.446912,91.439057,CO,2,141,9
India,Assam,Nalbari,"Bata Chowk, Nalbari - PCBA",21-01-2024 17:00:00,26.446912,91.439057,OZONE,8,99,66
India,Assam,Silchar,"Tarapur, Silchar - PCBA",21-01-2024 17:00:00,24.82827,92.79525,PM2.5,32,38,35
India,Assam,Silchar,"Tarapur, Silchar - PCBA",21-01-2024 17:00:00,24.82827,92.79525,CO,26,35,29
India,Assam,Sivasagar,"Girls College, Sivasagar - PCBA",21-01-2024 17:00:00,26.987634,94.636574,SO2,1,6,5
India,Bihar,Araria,"Kharahiya Basti, Araria - BSPCB",21-01-2024 17:00:00,26.146529,87.454184,NO2,6,8,7
India,Bihar,Araria,"Kharahiya Basti, Araria - BSPCB",21-01-2024 17:00:00,26.146529,87.454184,SO2,16,17,17
India,Bihar,Aurangabad,"Gurdeo Nagar, Aurangabad - BSPCB",21-01-2024 17:00:00,24.75746,84.366208,PM10,102,145,125
India,Bihar,Aurangabad,"Gurdeo Nagar, Aurangabad - BSPCB",21-01-2024 17:00:00,24.75746,84.366208,OZONE,4,77,40
India,Bihar,Bhagalpur,"DM Office_Kachari Chowk, Bhagalpur - BSPCB",21-01-2024 17:00:00,25.251013,86.989001,NH3,3,6,4
India,Bihar,Bhagalpur,"DM Office_Kachari Chowk, Bhagalpur - BSPCB",21-01-2024 17:00:00,25.251013,86.989001,SO2,14,32,25
India,Bihar,Bhagalpur,"DM Office_Kachari Chowk, Bhagalpur - BSPCB",21-01-2024 17:00:00,25.251013,86.989001,CO,30,74,36
India,Bihar,Bhagalpur,"Mayaganj, Bhagalpur - BSPCB",21-01-2024 17:00:00,25.265194,87.012947,PM10,176,288,224
India,Bihar,Bhagalpur,"Mayaganj, Bhagalpur - BSPCB",21-01-2024 17:00:00,25.265194,87.012947,NO2,5,39,11
India,Bihar,Bhagalpur,"Mayaganj, Bhagalpur - BSPCB",21-01-2024 17:00:00,25.265194,87.012947,CO,8,12,9
India,Bihar,Bihar Sharif,"D M Colony, Bihar Sharif - BSPCB",21-01-2024 17:00:00,25.204762,85.514960,PM2.5,37,60,44
India,Bihar,Bihar Sharif,"D M Colony, Bihar Sharif - BSPCB",21-01-2024 17:00:00,25.204762,85.514960,PM10,105,171,138
India,Bihar,Bihar Sharif,"D M Colony, Bihar Sharif - BSPCB",21-01-2024 17:00:00,25.204762,85.514960,NO2,9,10,9
India,Bihar,Bihar Sharif,"D M Colony, Bihar Sharif - BSPCB",21-01-2024 17:00:00,25.204762,85.514960,OZONE,7,17,14
India,Bihar,Chhapra,"Darshan Nagar, Chhapra - BSPCB",21-01-2024 17:00:00,25.7808257,84.7446768,PM2.5,203,375,292
India,Bihar,Chhapra,"Darshan Nagar, Chhapra - BSPCB",21-01-2024 17:00:00,25.7808257,84.7446768,NO2,21,30,24
India,Bihar,Gaya,"Kareemganj, Gaya - BSPCB",21-01-2024 17:00:00,24.792403,84.992416,PM10,133,191,155
India,Bihar,Gaya,"SFTI Kusdihra, Gaya - BSPCB",21-01-2024 17:00:00,24.762518,84.982348,NO2,17,59,37
India,Bihar,Gaya,"SFTI Kusdihra, Gaya - BSPCB",21-01-2024 17:00:00,24.762518,84.982348,NH3,2,6,6
India,Bihar,Hajipur,"Industrial Area, Hajipur - BSPCB",21-01-2024 17:00:00,25.697189,85.245900,NO2,NA,NA,NA
India,Bihar,Hajipur,"Industrial Area, Hajipur - BSPCB",21-01-2024 17:00:00,25.697189,85.245900,OZONE,17,17,17
India,Bihar,Katihar,"Mirchaibari, Katihar - BSPCB",21-01-2024 17:00:00,25.560083,87.553265,PM10,130,420,173
India,Bihar,Katihar,"Mirchaibari, Katihar - BSPCB",21-01-2024 17:00:00,25.560083,87.553265,NO2,18,30,23
India,Bihar,Katihar,"Mirchaibari, Katihar - BSPCB",21-01-2024 17:00:00,25.560083,87.553265,OZONE,18,30,23
India,Bihar,Manguraha,"Forest Rest House, Manguraha - BSPCB",21-01-2024 17:00:00,27.308328,84.531742,NO2,NA,NA,NA
India,Bihar,Motihari,"Gandak Colony, Motihari - BSPCB",21-01-2024 17:00:00,26.63086,84.90051,SO2,1,11,5
India,Bihar,Munger,"Town Hall, Munger - BSPCB",21-01-2024 17:00:00,25.376776,86.471523,NO2,8,10,9
India,Bihar,Muzaffarpur,"Buddha Colony, Muzaffarpur - BSPCB",21-01-2024 17:00:00,26.11442,85.39813,NO2,21,76,34
India,Bihar,Patna,"DRM Office Danapur, Patna - BSPCB",21-01-2024 17:00:00,25.586562,85.043586,PM2.5,NA,NA,NA
India,Bihar,Patna,"Govt. High School Shikarpur, Patna - BSPCB",21-01-2024 17:00:00,25.592539,85.227158,PM10,120,150,126
India,Bihar,Patna,"Muradpur, Patna - BSPCB",21-01-2024 17:00:00,25.619651,85.147382,NO2,1,10,4
India,Bihar,Patna,"Muradpur, Patna - BSPCB",21-01-2024 17:00:00,25.619651,85.147382,NH3,1,2,1
India,Bihar,Patna,"Muradpur, Patna - BSPCB",21-01-2024 17:00:00,25.619651,85.147382,CO,42,117,56
India,Bihar,Patna,"Rajbansi Nagar, Patna - BSPCB",21-01-2024 17:00:00,25.599486,85.113666,PM10,152,371,225
India,Bihar,Purnia,"Mariam Nagar, Purnia - BSPCB",21-01-2024 17:00:00,25.366336,87.117468,OZONE,10,17,16
India,Bihar,Rajgir,"Dangi Tola, Rajgir - BSPCB",21-01-2024 17:00:00,25.03280,85.41948,SO2,4,10,6
India,Bihar,Saharsa,"Police Line, Saharsa - BSPCB",21-01-2024 17:00:00,25.892357,86.590325,CO,1,36,3
India,Bihar,Saharsa,"Police Line, Saharsa - BSPCB",21-01-2024 17:00:00,25.892357,86.590325,OZONE,12,35,29
India,Bihar,Sasaram,"Dada Peer, Sasaram - BSPCB",21-01-2024 17:00:00,24.952822,84.002396,NH3,4,7,5
India,Bihar,Sasaram,"Dada Peer, Sasaram - BSPCB",21-01-2024 17:00:00,24.952822,84.002396,SO2,20,23,22
India,Bihar,Siwan,"Chitragupta Nagar, Siwan - BSPCB",21-01-2024 17:00:00,26.2271665,84.3570427,PM10,53,145,79
India,Bihar,Siwan,"Chitragupta Nagar, Siwan - BSPCB",21-01-2024 17:00:00,26.2271665,84.3570427,NH3,1,6,2
India,Chandigarh,Chandigarh,"Sector-53, Chandigarh - CPCC",21-01-2024 17:00:00,30.719859,76.738637,SO2,NA,NA,NA
India,Chhattisgarh,Bhilai,"32Bungalows, Bhilai - CECB",21-01-2024 17:00:00,21.194815,81.314770,SO2,9,12,11
India,Chhattisgarh,Bhilai,"32Bungalows, Bhilai - CECB",21-01-2024 17:00:00,21.194815,81.314770,CO,40,54,47
India,Chhattisgarh,Bhilai,"32Bungalows, Bhilai - CECB",21-01-2024 17:00:00,21.194815,81.314770,OZONE,4,5,4
India,Chhattisgarh,Bhilai,"Civic Center, Bhilai - Bhilai Steel Plant",21-01-2024 17:00:00,21.185571,81.343175,PM10,NA,NA,NA
India,Chhattisgarh,Bhilai,"Hathkhoj, Bhilai - CECB",21-01-2024 17:00:00,21.224231,81.408350,NO2,NA,NA,NA
India,Chhattisgarh,Bhilai,"Hathkhoj, Bhilai - CECB",21-01-2024 17:00:00,21.224231,81.408350,NH3,6,8,8
India,Chhattisgarh,Bhilai,"Hathkhoj, Bhilai - CECB",21-01-2024 17:00:00,21.224231,81.408350,OZONE,14,29,19
India,Chhattisgarh,Chhal,"Nawapara SECL Colony, Chhal - CECB",21-01-2024 17:00:00,22.118125,83.140608,PM2.5,50,92,71
India,Chhattisgarh,Korba,"Rampur, Korba - CECB",21-01-2024 17:00:00,22.368195,82.746431,NH3,4,10,5
India,Chhattisgarh,Korba,"Rampur, Korba - CECB",21-01-2024 17:00:00,22.368195,82.746431,SO2,9,83,17
India,Chhattisgarh,Kunjemura,"OP Jindal School, Kunjemura - CECB",21-01-2024 17:00:00,22.126650,83.483212,NO2,12,151,42
India,Chhattisgarh,Kunjemura,"OP Jindal School, Kunjemura - CECB",21-01-2024 17:00:00,22.126650,83.483212,NH3,1,3,2
India,Chhattisgarh,Kunjemura,"OP Jindal School, Kunjemura - CECB",21-01-2024 17:00:00,22.126650,83.483212,OZONE,6,40,26
India,Chhattisgarh,Raipur,"AIIMS, Raipur - CECB",21-01-2024 17:00:00,21.258815,81.578979,CO,38,60,39
India,Chhattisgarh,Raipur,"Bhatagaon New ISBT, Raipur - CECB",21-01-2024 17:00:00,21.219665,81.630094,NO2,56,85,69
India,Chhattisgarh,Raipur,"Krishak Nagar, Raipur - CECB",21-01-2024 17:00:00,21.237755,81.705301,NO2,29,41,34
India,Chhattisgarh,Raipur,"Krishak Nagar, Raipur - CECB",21-01-2024 17:00:00,21.237755,81.705301,NH3,1,1,1
India,Chhattisgarh,Raipur,"Siltara Phase-II, Raipur - CECB",21-01-2024 17:00:00,21.371751,81.664929,PM10,44,148,99
India,Chhattisgarh,Raipur,"Siltara Phase-II, Raipur - CECB",21-01-2024 17:00:00,21.371751,81.664929,CO,27,57,34
India,Chhattisgarh,Tumidih,"OP Jindal Industrial Park, Tumidih - CECB",21-01-2024 17:00:00,22.06631475,83.33820077,NO2,7,20,11
India,Delhi,Delhi,"Alipur, Delhi - DPCC",21-01-2024 17:00:00,28.815329,77.153010,PM10,102,436,217
India,Delhi,Delhi,"Alipur, Delhi - DPCC",21-01-2024 17:00:00,28.815329,77.153010,SO2,6,14,9
India,Delhi,Delhi,"Anand Vihar, Delhi - DPCC",21-01-2024 17:00:00,28.647622,77.3158090,PM2.5,319,451,392
India,Delhi,Delhi,"Anand Vihar, Delhi - DPCC",21-01-2024 17:00:00,28.647622,77.3158090,NO2,87,171,113
India,Delhi,Delhi,"Ashok Vihar, Delhi - DPCC",21-01-2024 17:00:00,28.695381,77.181665,PM10,177,480,302
India,Delhi,Delhi,"Aya Nagar, Delhi - IMD",21-01-2024 17:00:00,28.4706914,77.1099364,CO,83,119,92
India,Delhi,Delhi,"Bawana, Delhi - DPCC",21-01-2024 17:00:00,28.776200,77.051074,CO,60,95,67
India,Delhi,Delhi,"CRRI Mathura Road, Delhi - IMD",21-01-2024 17:00:00,28.5512005,77.2735737,NO2,16,16,16
India,Delhi,Delhi,"DTU, Delhi - CPCB",21-01-2024 17:00:00,28.7500499,77.1112615,PM10,122,433,259
India,Delhi,Delhi,"DTU, Delhi - CPCB",21-01-2024 17:00:00,28.7500499,77.1112615,NH3,13,19,15
India,Delhi,Delhi,"IGI Airport (T3), Delhi - IMD",21-01-2024 17:00:00,28.5627763,77.1180053,OZONE,11,29,19
India,Delhi,Delhi,"IHBAS, Dilshad Garden, Delhi - CPCB",21-01-2024 17:00:00,28.6811736,77.3025234,NH3,1,6,4
India,Delhi,Delhi,"ITO, Delhi - CPCB",21-01-2024 17:00:00,28.628624,77.241060,NO2,21,184,84
India,Delhi,Delhi,"ITO, Delhi - CPCB",21-01-2024 17:00:00,28.628624,77.241060,NH3,5,12,8
India,Delhi,Delhi,"ITO, Delhi - CPCB",21-01-2024 17:00:00,28.628624,77.241060,SO2,13,26,21
India,Delhi,Delhi,"Jahangirpuri, Delhi - DPCC",21-01-2024 17:00:00,28.732820,77.170633,PM10,190,500,344
India,Delhi,Delhi,"Major Dhyan Chand National Stadium, Delhi - DPCC",21-01-2024 17:00:00,28.611281,77.237738,PM2.5,324,414,367
India,Delhi,Delhi,"Major Dhyan Chand National Stadium, Delhi - DPCC",21-01-2024 17:00:00,28.611281,77.237738,NO2,55,107,75
India,Delhi,Delhi,"Mandir Marg, Delhi - DPCC",21-01-2024 17:00:00,28.636429,77.201067,PM2.5,311,391,356
India,Delhi,Delhi,"Mandir Marg, Delhi - DPCC",21-01-2024 17:00:00,28.636429,77.201067,NH3,15,16,16
India,Delhi,Delhi,"Mandir Marg, Delhi - DPCC",21-01-2024 17:00:00,28.636429,77.201067,OZONE,1,9,5
India,Delhi,Delhi,"Mundka, Delhi - DPCC",21-01-2024 17:00:00,28.684678,77.076574,NH3,6,21,10
India,Delhi,Delhi,"Mundka, Delhi - DPCC",21-01-2024 17:00:00,28.684678,77.076574,SO2,1,14,5
India,Delhi,Delhi,"Mundka, Delhi - DPCC",21-01-2024 17:00:00,28.684678,77.076574,OZONE,2,11,6
India,Delhi,Delhi,"NSIT Dwarka, Delhi - CPCB",21-01-2024 17:00:00,28.60909,77.0325413,PM10,178,414,273
India,Delhi,Delhi,"Narela, Delhi - DPCC",21-01-2024 17:00:00,28.822836,77.101981,NH3,7,12,10
India,Delhi,Delhi,"Narela, Delhi - DPCC",21-01-2024 17:00:00,28.822836,77.101981,CO,82,108,87
India,Delhi,Delhi,"Nehru Nagar, Delhi - DPCC",21-01-2024 17:00:00,28.567890,77.250515,NH3,NA,NA,NA
India,Delhi,Delhi,"New Moti Bagh, Delhi - MHUA",21-01-2024 17:00:00,28.57834,77.18400,PM2.5,278,427,351
India,Delhi,Delhi,"New Moti Bagh, Delhi - MHUA",21-01-2024 17:00:00,28.57834,77.18400,NO2,2,6,3
India,Delhi,Delhi,"Okhla Phase-2, Delhi - DPCC",21-01-2024 17:00:00,28.530785,77.271255,OZONE,9,66,37
India,Delhi,Delhi,"Patparganj, Delhi - DPCC",21-01-2024 17:00:00,28.623763,77.287209,NH3,8,14,10
India,Delhi,Delhi,"Pusa, Delhi - DPCC",21-01-2024 17:00:00,28.639652,77.146275,PM2.5,320,415,358
India,Delhi,Delhi,"Pusa, Delhi - IMD",21-01-2024 17:00:00,28.636110,77.173332,NO2,30,81,44
India,Delhi,Delhi,"Pusa, Delhi - IMD",21-01-2024 17:00:00,28.636110,77.173332,CO,94,116,100
India,Delhi,Delhi,"R K Puram, Delhi - DPCC",21-01-2024 17:00:00,28.563262,77.186937,PM2.5,303,433,371
India,Delhi,Delhi,"R K Puram, Delhi - DPCC",21-01-2024 17:00:00,28.563262,77.186937,PM10,166,398,261
India,Delhi,Delhi,"R K Puram, Delhi - DPCC",21-01-2024 17:00:00,28.563262,77.186937,NO2,34,67,46
India,Delhi,Delhi,"R K Puram, Delhi - DPCC",21-01-2024 17:00:00,28.563262,77.186937,SO2,7,46,23
India,Delhi,Delhi,"R K Puram, Delhi - DPCC",21-01-2024 17:00:00,28.563262,77.186937,OZONE,9,69,37
India,Delhi,Delhi,"Shadipur, Delhi - CPCB",21-01-2024 17:00:00,28.6514781,77.1473105,PM10,194,500,331
India,Delhi,Delhi,"Shadipur, Delhi - CPCB",21-01-2024 17:00:00,28.6514781,77.1473105,OZONE,6,23,19
India,Delhi,Delhi,"Sirifort, Delhi - CPCB",21-01-2024 17:00:00,28.5504249,77.2159377,CO,45,114,50
India,Delhi,Delhi,"Sonia Vihar, Delhi - DPCC",21-01-2024 17:00:00,28.710508,77.249485,PM10,NA,NA,NA
India,Delhi,Delhi,"Sonia Vihar, Delhi - DPCC",21-01-2024 17:00:00,28.710508,77.249485,SO2,NA,NA,NA
India,Delhi,Delhi,"Sri Aurobindo Marg, Delhi - DPCC",21-01-2024 17:00:00,28.531346,77.190156,CO,36,114,48
India,Delhi,Delhi,"Vivek Vihar, Delhi - DPCC",21-01-2024 17:00:00,28.672342,77.315260,SO2,7,8,8
India,Delhi,Delhi,"Wazirpur, Delhi - DPCC",21-01-2024 17:00:00,28.699793,77.165453,NO2,116,338,181
India,Delhi,Delhi,"Wazirpur, Delhi - DPCC",21-01-2024 17:00:00,28.699793,77.165453,SO2,11,38,24
India,Delhi,Delhi,"Wazirpur, Delhi - DPCC",21-01-2024 17:00:00,28.699793,77.165453,CO,6,108,48
India,Gujarat,Ahmedabad,"Chandkheda, Ahmedabad - IITM",21-01-2024 17:00:00,23.107969,72.574648,SO2,4,9,5
India,Gujarat,Ahmedabad,"Raikhad, Ahmedabad - IITM",21-01-2024 17:00:00,23.020509,72.579261,PM10,NA,NA,NA
India,Gujarat,Ahmedabad,"Raikhad, Ahmedabad - IITM",21-01-2024 17:00:00,23.020509,72.579261,NH3,NA,NA,NA
India,Gujarat,Ahmedabad,"Raikhad, Ahmedabad - IITM",21-01-2024 17:00:00,23.020509,72.579261,SO2,NA,NA,NA
India,Gujarat,Ahmedabad,"Rakhial, Ahmedabad - IITM",21-01-2024 17:00:00,23.016834,72.625775,SO2,3,18,7
India,Gujarat,Ahmedabad,"SAC ISRO Bopal, Ahmedabad - IITM",21-01-2024 17:00:00,23.041137,72.456691,NO2,10,11,10
India,Gujarat,Ahmedabad,"SAC ISRO Bopal, Ahmedabad - IITM",21-01-2024 17:00:00,23.041137,72.456691,SO2,7,10,8
India,Gujarat,Ahmedabad,"SVPI Airport Hansol, Ahmedabad - IITM",21-01-2024 17:00:00,23.076793,72.627874,PM2.5,78,145,108
India,Gujarat,Ahmedabad,"Sardar Vallabhbhai Patel Stadium, Ahmedabad - IITM",21-01-2024 17:00:00,23.043070,72.562968,CO,5,44,12
India,Gujarat,Ankleshwar,"GIDC, Ankleshwar - GPCB",21-01-2024 17:00:00,21.613267,73.010555,PM10,62,123,94
India,Gujarat,Ankleshwar,"GIDC, Ankleshwar - GPCB",21-01-2024 17:00:00,21.613267,73.010555,NH3,6,6,6
India,Gujarat,Ankleshwar,"GIDC, Ankleshwar - GPCB",21-01-2024 17:00:00,21.613267,73.010555,OZONE,21,29,25
India,Gujarat,Gandhinagar,"GIFT City, Gandhinagar - IITM",21-01-2024 17:00:00,23.163798,72.677768,PM10,60,118,74
India,Gujarat,Gandhinagar,"GIFT City, Gandhinagar - IITM",21-01-2024 17:00:00,23.163798,72.677768,SO2,5,7,6
India,Gujarat,Gandhinagar,"GIFT City, Gandhinagar - IITM",21-01-2024 17:00:00,23.163798,72.677768,CO,4,12,7
India,Gujarat,Gandhinagar,"IIPHG Lekawada, Gandhinagar - IITM",21-01-2024 17:00:00,23.243639,72.68994,PM2.5,77,290,165
India,Gujarat,Gandhinagar,"IIPHG Lekawada, Gandhinagar - IITM",21-01-2024 17:00:00,23.243639,72.68994,SO2,5,9,7
India,Gujarat,Gandhinagar,"IIPHG Lekawada, Gandhinagar - IITM",21-01-2024 17:00:00,23.243639,72.68994,CO,40,67,49
India,Gujarat,Surat,"Science Center, Surat - SMC",21-01-2024 17:00:00,21.170046,72.795405,PM10,15,72,46
India,Gujarat,Surat,"Science Center, Surat - SMC",21-01-2024 17:00:00,21.170046,72.795405,CO,41,64,50
India,Gujarat,Vapi,"Phase-1 GIDC, Vapi - GPCB",21-01-2024 17:00:00,20.362421,72.918013,PM10,82,410,162
India,Gujarat,Vapi,"Phase-1 GIDC, Vapi - GPCB",21-01-2024 17:00:00,20.362421,72.918013,OZONE,1,3,2
India,Haryana,Ambala,"Patti Mehar, Ambala - HSPCB",21-01-2024 17:00:00,30.379589,76.778328,NO2,8,21,14
India,Haryana,Ambala,"Patti Mehar, Ambala - HSPCB",21-01-2024 17:00:00,30.379589,76.778328,CO,30,60,47
India,Haryana,Ambala,"Patti Mehar, Ambala - HSPCB",21-01-2024 17:00:00,30.379589,76.778328,OZONE,22,40,30
India,Haryana,Bahadurgarh,"Arya Nagar, Bahadurgarh - HSPCB",21-01-2024 17:00:00,28.6701,76.9254,CO,34,58,47
India,Haryana,Bahadurgarh,"Arya Nagar, Bahadurgarh - HSPCB",21-01-2024 17:00:00,28.6701,76.9254,OZONE,35,49,43
India,Haryana,Ballabgarh,"Nathu Colony, Ballabgarh - HSPCB",21-01-2024 17:00:00,28.3419248,77.319699,NH3,1,2,2
India,Haryana,Ballabgarh,"Nathu Colony, Ballabgarh - HSPCB",21-01-2024 17:00:00,28.3419248,77.319699,CO,25,106,35
India,Haryana,Bhiwani,"H.B. Colony, Bhiwani - HSPCB",21-01-2024 17:00:00,28.806223,76.141105,CO,38,89,52
India,Haryana,Charkhi Dadri,"Mini Secretariat, Charkhi Dadri - HSPCB",21-01-2024 17:00:00,28.593883,76.270653,NO2,7,15,10
India,Haryana,Charkhi Dadri,"Mini Secretariat, Charkhi Dadri - HSPCB",21-01-2024 17:00:00,28.593883,76.270653,SO2,8,15,11
India,Haryana,Faridabad,"New Industrial Town, Faridabad - HSPCB",21-01-2024 17:00:00,28.39072,77.30059,OZONE,36,80,57
India,Haryana,Faridabad,"Sector 30, Faridabad - HSPCB",21-01-2024 17:00:00,28.4417,77.3217,NH3,14,14,14
India,Haryana,Faridabad,"Sector 30, Faridabad - HSPCB",21-01-2024 17:00:00,28.4417,77.3217,CO,86,125,102
India,Haryana,Faridabad,"Sector 30, Faridabad - HSPCB",21-01-2024 17:00:00,28.4417,77.3217,OZONE,3,14,8
India,Haryana,Faridabad,"Sector- 16A, Faridabad - HSPCB",21-01-2024 17:00:00,28.4088421,77.3099081,OZONE,14,14,14
India,Haryana,Gurugram,"Sector-51, Gurugram - HSPCB",21-01-2024 17:00:00,28.4227,77.0667,NO2,13,29,23
India,Haryana,Gurugram,"Teri Gram, Gurugram - HSPCB",21-01-2024 17:00:00,28.4275,77.1465,PM2.5,93,319,177
India,Haryana,Gurugram,"Vikas Sadan, Gurugram - HSPCB",21-01-2024 17:00:00,28.4501238,77.0263051,PM2.5,57,289,152
India,Haryana,Gurugram,"Vikas Sadan, Gurugram - HSPCB",21-01-2024 17:00:00,28.4501238,77.0263051,CO,54,138,107
India,Haryana,Hisar,"Urban Estate-II, Hisar - HSPCB",21-01-2024 17:00:00,29.140560,75.744941,NO2,6,21,9
India,Haryana,Hisar,"Urban Estate-II, Hisar - HSPCB",21-01-2024 17:00:00,29.140560,75.744941,NH3,2,8,4
India,Haryana,Hisar,"Urban Estate-II, Hisar - HSPCB",21-01-2024 17:00:00,29.140560,75.744941,SO2,4,49,28
India,Haryana,Kaithal,"Rishi Nagar, Kaithal - HSPCB",21-01-2024 17:00:00,29.8006,76.4155,PM10,113,290,183
India,Haryana,Kaithal,"Rishi Nagar, Kaithal - HSPCB",21-01-2024 17:00:00,29.8006,76.4155,NO2,24,26,25
India,Haryana,Karnal,"Sector-12, Karnal - HSPCB",21-01-2024 17:00:00,29.695300,77.002700,PM10,75,140,101
India,Haryana,Karnal,"Sector-12, Karnal - HSPCB",21-01-2024 17:00:00,29.695300,77.002700,NO2,7,12,10
India,Haryana,Karnal,"Sector-12, Karnal - HSPCB",21-01-2024 17:00:00,29.695300,77.002700,SO2,12,13,13
India,Haryana,Karnal,"Sector-12, Karnal - HSPCB",21-01-2024 17:00:00,29.695300,77.002700,CO,26,71,40
India,Haryana,Kurukshetra,"Sector-7, Kurukshetra - HSPCB",21-01-2024 17:00:00,29.966942,76.875879,SO2,NA,NA,NA
India,Haryana,Mandikhera,"General Hospital, Mandikhera - HSPCB",21-01-2024 17:00:00,27.9002,76.9938,NH3,18,20,19
India,Haryana,Mandikhera,"General Hospital, Mandikhera - HSPCB",21-01-2024 17:00:00,27.9002,76.9938,SO2,30,37,34
India,Haryana,Manesar,"Sector-2 IMT, Manesar - HSPCB",21-01-2024 17:00:00,28.360699,76.936090,PM2.5,NA,NA,NA
India,Haryana,Manesar,"Sector-2 IMT, Manesar - HSPCB",21-01-2024 17:00:00,28.360699,76.936090,OZONE,5,17,10
India,Haryana,Narnaul,"Shastri Nagar, Narnaul - HSPCB",21-01-2024 17:00:00,28.060249,76.113115,PM2.5,62,137,90
India,Haryana,Narnaul,"Shastri Nagar, Narnaul - HSPCB",21-01-2024 17:00:00,28.060249,76.113115,NO2,17,46,32
India,Haryana,Panchkula,"Sector-6, Panchkula - HSPCB ",21-01-2024 17:00:00,30.7057778,76.8531805555555,NO2,28,31,30
India,Haryana,Panipat,"Sector-18, Panipat - HSPCB",21-01-2024 17:00:00,29.497973,76.993331,CO,NA,NA,NA
India,Haryana,Panipat,"Sector-18, Panipat - HSPCB",21-01-2024 17:00:00,29.497973,76.993331,OZONE,NA,NA,NA
India,Haryana,Sonipat,"Murthal, Sonipat - HSPCB",21-01-2024 17:00:00,29.027200,77.062100,PM2.5,92,309,181
India,Haryana,Sonipat,"Murthal, Sonipat - HSPCB",21-01-2024 17:00:00,29.027200,77.062100,SO2,12,29,19
India,Haryana,Yamuna Nagar,"Gobind Pura, Yamuna Nagar - HSPCB",21-01-2024 17:00:00,30.1480566,77.2893471,PM2.5,64,281,141
India,Himachal Pradesh,Baddi,"HIMUDA Complex Phase-1, Baddi - HPPCB",21-01-2024 17:00:00,30.943887,76.801991,PM2.5,55,357,195
India,Jharkhand,Dhanbad,"Kalakusuma, Dhanbad - DMC",21-01-2024 17:00:00,23.811548,86.481238,PM2.5,180,317,301
India,Jharkhand,Dhanbad,"Kalakusuma, Dhanbad - DMC",21-01-2024 17:00:00,23.811548,86.481238,PM10,162,395,373
