country,state,city,station,last_update,latitude,longitude,pollutant_id,pollutant_min,pollutant_max,pollutant_avg
India,Andhra_Pradesh,Amaravati,"Secretariat, Amaravati - APPCB",19-03-2024 10:00:00,16.5150833,80.5181667,OZONE,1,50,6
India,Andhra_Pradesh,Anantapur,"Gulzarpet, Anantapur - APPCB",19-03-2024 10:00:00,14.675886,77.593027,PM10,66,109,85
India,Andhra_Pradesh,Anantapur,"Gulzarpet, Anantapur - APPCB",19-03-2024 10:00:00,14.675886,77.593027,NH3,NA,NA,NA
India,Andhra_Pradesh,Anantapur,"Gulzarpet, Anantapur - APPCB",19-03-2024 10:00:00,14.675886,77.593027,SO2,3,20,8
India,Andhra_Pradesh,Chittoor,"Gangineni Cheruvu, Chittoor - APPCB",19-03-2024 10:00:00,13.204880,79.097889,PM2.5,NA,NA,NA
India,Andhra_Pradesh,Chittoor,"Gangineni Cheruvu, Chittoor - APPCB",19-03-2024 10:00:00,13.204880,79.097889,OZONE,26,131,26
India,Andhra_Pradesh,Kadapa,"Yerramukkapalli, Kadapa - APPCB",19-03-2024 10:00:00,14.465052,78.824187,NO2,8,8,8
India,Andhra_Pradesh,Kadapa,"Yerramukkapalli, Kadapa - APPCB",19-03-2024 10:00:00,14.465052,78.824187,SO2,2,3,2
India,Andhra_Pradesh,Rajamahendravaram,"Anand Kala Kshetram, Rajamahendravaram - APPCB",19-03-2024 10:00:00,16.9872867,81.7363176,PM10,29,104,55
India,Andhra_Pradesh,Rajamahendravaram,"Anand Kala Kshetram, Rajamahendravaram - APPCB",19-03-2024 10:00:00,16.9872867,81.7363176,SO2,10,12,11
India,Andhra_Pradesh,Tirupati,"Tirumala, Tirupati - APPCB",19-03-2024 10:00:00,13.67,79.35,NH3,1,2,1
India,Andhra_Pradesh,Vijayawada,"HB Colony, Vijayawada - APPCB",19-03-2024 10:00:00,16.536107,80.594233,OZONE,4,37,7
India,Andhra_Pradesh,Vijayawada,"Kanuru, Vijayawada - APPCB",19-03-2024 10:00:00,16.486692,80.699436,SO2,7,12,9
India,Andhra_Pradesh,Vijayawada,"Rajiv Gandhi Park, Vijayawada - APPCB",19-03-2024 10:00:00,16.509717,80.612222,NO2,4,50,30
India,Andhra_Pradesh,Vijayawada,"Rajiv Gandhi Park, Vijayawada - APPCB",19-03-2024 10:00:00,16.509717,80.612222,NH3,4,7,6
India,Andhra_Pradesh,Vijayawada,"Rajiv Gandhi Park, Vijayawada - APPCB",19-03-2024 10:00:00,16.509717,80.612222,CO,33,54,33
India,Andhra_Pradesh,Vijayawada,"Rajiv Nagar, Vijayawada - APPCB",19-03-2024 10:00:00,16.554731,80.649110,PM2.5,60,62,61
India,Andhra_Pradesh,Visakhapatnam,"GVM Corporation, Visakhapatnam - APPCB",19-03-2024 10:00:00,17.72,83.3,PM2.5,28,78,49
India,Andhra_Pradesh,Visakhapatnam,"GVM Corporation, Visakhapatnam - APPCB",19-03-2024 10:00:00,17.72,83.3,NH3,3,7,4
India,Andhra_Pradesh,Visakhapatnam,"GVM Corporation, Visakhapatnam - APPCB",19-03-2024 10:00:00,17.72,83.3,CO,12,102,29
India,Andhra_Pradesh,Visakhapatnam,"GVM Corporation, Visakhapatnam - APPCB",19-03-2024 10:00:00,17.72,83.3,OZONE,3,42,22
India,Assam,Byrnihat,"Central Academy for SFS, Byrnihat - PCBA",19-03-2024 10:00:00,26.071318,91.87488,CO,36,64,43
India,Assam,Guwahati,"IITG, Guwahati - PCBA",19-03-2024 10:00:00,26.2028636,91.70046436,NO2,1,14,6
India,Assam,Guwahati,"LGBI Airport, Guwahati - PCBA",19-03-2024 10:00:00,26.10887,91.589544,PM2.5,100,406,277
India,Assam,Guwahati,"LGBI Airport, Guwahati - PCBA",19-03-2024 10:00:00,26.10887,91.589544,SO2,5,13,11
India,Assam,Guwahati,"LGBI Airport, Guwahati - PCBA",19-03-2024 10:00:00,26.10887,91.589544,OZONE,1,83,7
India,Assam,Guwahati,"Pan Bazaar, Guwahati - PCBA",19-03-2024 10:00:00,26.187500,91.744194,NH3,6,8,7
India,Assam,Guwahati,"Pan Bazaar, Guwahati - PCBA",19-03-2024 10:00:00,26.187500,91.744194,CO,30,108,78
India,Assam,Guwahati,"Railway Colony, Guwahati - PCBA",19-03-2024 10:00:00,26.181742,91.78063,PM10,113,479,298
India,Assam,Nalbari,"Bata Chowk, Nalbari - PCBA",19-03-2024 10:00:00,26.446912,91.439057,CO,33,137,94
India,Assam,Sivasagar,"Girls College, Sivasagar - PCBA",19-03-2024 10:00:00,26.987634,94.636574,SO2,3,9,6
India,Assam,Sivasagar,"Girls College, Sivasagar - PCBA",19-03-2024 10:00:00,26.987634,94.636574,CO,28,46,31
India,Bihar,Araria,"Kharahiya Basti, Araria - BSPCB",19-03-2024 10:00:00,26.146529,87.454184,PM10,84,474,193
India,Bihar,Araria,"Kharahiya Basti, Araria - BSPCB",19-03-2024 10:00:00,26.146529,87.454184,SO2,15,18,16
India,Bihar,Arrah,"New DM Office, Arrah - BSPCB",19-03-2024 10:00:00,25.5626095,84.663264,NO2,10,55,27
India,Bihar,Arrah,"New DM Office, Arrah - BSPCB",19-03-2024 10:00:00,25.5626095,84.663264,NH3,5,7,6
India,Bihar,Aurangabad,"Gurdeo Nagar, Aurangabad - BSPCB",19-03-2024 10:00:00,24.75746,84.366208,NO2,3,5,5
India,Bihar,Bhagalpur,"DM Office_Kachari Chowk, Bhagalpur - BSPCB",19-03-2024 10:00:00,25.251013,86.989001,SO2,8,59,22
India,Bihar,Bhagalpur,"DM Office_Kachari Chowk, Bhagalpur - BSPCB",19-03-2024 10:00:00,25.251013,86.989001,OZONE,37,59,49
India,Bihar,Bihar Sharif,"D M Colony, Bihar Sharif - BSPCB",19-03-2024 10:00:00,25.204762,85.514960,CO,10,50,28
India,Bihar,Bihar Sharif,"D M Colony, Bihar Sharif - BSPCB",19-03-2024 10:00:00,25.204762,85.514960,OZONE,NA,NA,NA
India,Bihar,Buxar,"Charitra Van, Buxar - BSPCB (Formerly known as Central Jail)",19-03-2024 10:00:00,25.567520,83.966379,NO2,NA,NA,NA
India,Bihar,Buxar,"Charitra Van, Buxar - BSPCB (Formerly known as Central Jail)",19-03-2024 10:00:00,25.567520,83.966379,NH3,NA,NA,NA
India,Bihar,Buxar,"Charitra Van, Buxar - BSPCB (Formerly known as Central Jail)",19-03-2024 10:00:00,25.567520,83.966379,OZONE,7,169,27
India,Bihar,Chhapra,"Darshan Nagar, Chhapra - BSPCB",19-03-2024 10:00:00,25.7808257,84.7446768,SO2,9,72,32
India,Bihar,Gaya,"Collectorate, Gaya - BSPCB",19-03-2024 10:00:00,24.7955,84.9994,OZONE,40,81,55
India,Bihar,Gaya,"Kareemganj, Gaya - BSPCB",19-03-2024 10:00:00,24.792403,84.992416,NH3,1,6,3
India,Bihar,Gaya,"Kareemganj, Gaya - BSPCB",19-03-2024 10:00:00,24.792403,84.992416,SO2,9,12,11
India,Bihar,Gaya,"Kareemganj, Gaya - BSPCB",19-03-2024 10:00:00,24.792403,84.992416,OZONE,1,41,19
India,Bihar,Gaya,"SFTI Kusdihra, Gaya - BSPCB",19-03-2024 10:00:00,24.762518,84.982348,PM10,50,118,85
India,Bihar,Hajipur,"Industrial Area, Hajipur - BSPCB",19-03-2024 10:00:00,25.697189,85.245900,NO2,50,73,59
India,Bihar,Katihar,"Mirchaibari, Katihar - BSPCB",19-03-2024 10:00:00,25.560083,87.553265,CO,8,107,106
India,Bihar,Katihar,"Mirchaibari, Katihar - BSPCB",19-03-2024 10:00:00,25.560083,87.553265,OZONE,19,25,23
India,Bihar,Kishanganj,"SDM Office_Khagra, Kishanganj - BSPCB",19-03-2024 10:00:00,26.0881305,87.93840336,CO,2,26,3
India,Bihar,Manguraha,"Forest Rest House, Manguraha - BSPCB",19-03-2024 10:00:00,27.308328,84.531742,NH3,1,2,1
India,Bihar,Manguraha,"Forest Rest House, Manguraha - BSPCB",19-03-2024 10:00:00,27.308328,84.531742,CO,58,107,76
India,Bihar,Motihari,"Gandak Colony, Motihari - BSPCB",19-03-2024 10:00:00,26.63086,84.90051,PM2.5,35,250,139
India,Bihar,Munger,"Town Hall, Munger - BSPCB",19-03-2024 10:00:00,25.376776,86.471523,PM10,102,500,194
India,Bihar,Muzaffarpur,"Buddha Colony, Muzaffarpur - BSPCB",19-03-2024 10:00:00,26.11442,85.39813,NH3,12,25,18
India,Bihar,Muzaffarpur,"Buddha Colony, Muzaffarpur - BSPCB",19-03-2024 10:00:00,26.11442,85.39813,SO2,2,17,9
India,Bihar,Muzaffarpur,"MIT-Daudpur Kothi, Muzaffarpur - BSPCB",19-03-2024 10:00:00,26.1403345,85.3650192,NO2,6,10,7
India,Bihar,Muzaffarpur,"MIT-Daudpur Kothi, Muzaffarpur - BSPCB",19-03-2024 10:00:00,26.1403345,85.3650192,OZONE,8,94,21
India,Bihar,Muzaffarpur,"Muzaffarpur Collectorate, Muzaffarpur - BSPCB",19-03-2024 10:00:00,26.1209,85.3647,PM2.5,78,333,241
India,Bihar,Patna,"Govt. High School Shikarpur, Patna - BSPCB",19-03-2024 10:00:00,25.592539,85.227158,PM2.5,170,324,271
India,Bihar,Patna,"Govt. High School Shikarpur, Patna - BSPCB",19-03-2024 10:00:00,25.592539,85.227158,NO2,18,25,22
India,Bihar,Patna,"Govt. High School Shikarpur, Patna - BSPCB",19-03-2024 10:00:00,25.592539,85.227158,CO,28,87,63
India,Bihar,Patna,"Muradpur, Patna - BSPCB",19-03-2024 10:00:00,25.619651,85.147382,NO2,8,21,15
India,Bihar,Patna,"Muradpur, Patna - BSPCB",19-03-2024 10:00:00,25.619651,85.147382,NH3,3,5,4
India,Bihar,Patna,"Rajbansi Nagar, Patna - BSPCB",19-03-2024 10:00:00,25.599486,85.113666,NO2,21,57,33
India,Bihar,Patna,"Rajbansi Nagar, Patna - BSPCB",19-03-2024 10:00:00,25.599486,85.113666,CO,28,118,52
India,Bihar,Patna,"Rajbansi Nagar, Patna - BSPCB",19-03-2024 10:00:00,25.599486,85.113666,OZONE,4,153,11
India,Bihar,Rajgir,"Dangi Tola, Rajgir - BSPCB",19-03-2024 10:00:00,25.03280,85.41948,PM10,11,155,66
India,Bihar,Rajgir,"Dangi Tola, Rajgir - BSPCB",19-03-2024 10:00:00,25.03280,85.41948,CO,9,12,10
India,Bihar,Saharsa,"Police Line, Saharsa - BSPCB",19-03-2024 10:00:00,25.892357,86.590325,OZONE,7,47,19
India,Bihar,Samastipur,"DM Office_Kasipur, Samastipur - BSPCB",19-03-2024 10:00:00,25.859655,85.77944,SO2,11,13,12
India,Bihar,Sasaram,"Dada Peer, Sasaram - BSPCB",19-03-2024 10:00:00,24.952822,84.002396,PM10,60,126,91
India,Bihar,Sasaram,"Dada Peer, Sasaram - BSPCB",19-03-2024 10:00:00,24.952822,84.002396,OZONE,5,89,21
India,Chandigarh,Chandigarh,"Sector 22, Chandigarh - CPCC",19-03-2024 10:00:00,30.735567,76.775714,CO,34,100,48
India,Chandigarh,Chandigarh,"Sector-25, Chandigarh - CPCC",19-03-2024 10:00:00,30.751462,76.762879,PM10,110,165,133
India,Chhattisgarh,Bhilai,"Civic Center, Bhilai - Bhilai Steel Plant",19-03-2024 10:00:00,21.185571,81.343175,SO2,NA,NA,NA
India,Chhattisgarh,Bhilai,"Civic Center, Bhilai - Bhilai Steel Plant",19-03-2024 10:00:00,21.185571,81.343175,CO,30,49,42
India,Chhattisgarh,Bilaspur,"Mangala, Bilaspur - NTPC",19-03-2024 10:00:00,22.08815,82.13737,NO2,NA,NA,NA
India,Chhattisgarh,Chhal,"Nawapara SECL Colony, Chhal - CECB",19-03-2024 10:00:00,22.118125,83.140608,NO2,NA,NA,NA
India,Chhattisgarh,Chhal,"Nawapara SECL Colony, Chhal - CECB",19-03-2024 10:00:00,22.118125,83.140608,CO,NA,NA,NA
India,Chhattisgarh,Korba,"Rampur, Korba - CECB",19-03-2024 10:00:00,22.368195,82.746431,CO,16,27,19
India,Chhattisgarh,Korba,"Urja Nagar, Korba - CECB",19-03-2024 10:00:00,22.348441,82.549611,PM2.5,3,23,10
India,Chhattisgarh,Korba,"Urja Nagar, Korba - CECB",19-03-2024 10:00:00,22.348441,82.549611,NO2,70,80,73
India,Chhattisgarh,Korba,"Urja Nagar, Korba - CECB",19-03-2024 10:00:00,22.348441,82.549611,SO2,3,10,6
India,Chhattisgarh,Kunjemura,"OP Jindal School, Kunjemura - CECB",19-03-2024 10:00:00,22.126650,83.483212,CO,20,60,44
India,Chhattisgarh,Kunjemura,"OP Jindal School, Kunjemura - CECB",19-03-2024 10:00:00,22.126650,83.483212,OZONE,12,62,21
India,Chhattisgarh,Raipur,"AIIMS, Raipur - CECB",19-03-2024 10:00:00,21.258815,81.578979,CO,22,36,25
India,Chhattisgarh,Raipur,"Bhatagaon New ISBT, Raipur - CECB",19-03-2024 10:00:00,21.219665,81.630094,SO2,NA,NA,NA
India,Chhattisgarh,Raipur,"Bhatagaon New ISBT, Raipur - CECB",19-03-2024 10:00:00,21.219665,81.630094,CO,NA,NA,NA
India,Chhattisgarh,Raipur,"Krishak Nagar, Raipur - CECB",19-03-2024 10:00:00,21.237755,81.705301,PM2.5,NA,NA,NA
India,Chhattisgarh,Raipur,"Krishak Nagar, Raipur - CECB",19-03-2024 10:00:00,21.237755,81.705301,NH3,NA,NA,NA
India,Chhattisgarh,Raipur,"Siltara Phase-II, Raipur - CECB",19-03-2024 10:00:00,21.371751,81.664929,NO2,50,69,58
India,Chhattisgarh,Tumidih,"OP Jindal Industrial Park, Tumidih - CECB",19-03-2024 10:00:00,22.06631475,83.33820077,CO,NA,NA,NA
India,Delhi,Delhi,"Alipur, Delhi - DPCC",19-03-2024 10:00:00,28.815329,77.153010,SO2,6,101,27
India,Delhi,Delhi,"Alipur, Delhi - DPCC",19-03-2024 10:00:00,28.815329,77.153010,CO,12,104,78
India,Delhi,Delhi,"Alipur, Delhi - DPCC",19-03-2024 10:00:00,28.815329,77.153010,OZONE,4,127,13
India,Delhi,Delhi,"Ashok Vihar, Delhi - DPCC",19-03-2024 10:00:00,28.695381,77.181665,NO2,16,126,67
India,Delhi,Delhi,"Ashok Vihar, Delhi - DPCC",19-03-2024 10:00:00,28.695381,77.181665,CO,14,103,61
India,Delhi,Delhi,"Ashok Vihar, Delhi - DPCC",19-03-2024 10:00:00,28.695381,77.181665,OZONE,1,14,2
India,Delhi,Delhi,"Bawana, Delhi - DPCC",19-03-2024 10:00:00,28.776200,77.051074,PM2.5,57,440,303
India,Delhi,Delhi,"Bawana, Delhi - DPCC",19-03-2024 10:00:00,28.776200,77.051074,OZONE,3,95,8
India,Delhi,Delhi,"Burari Crossing, Delhi - IMD",19-03-2024 10:00:00,28.7256504,77.2011573,OZONE,20,57,27
India,Delhi,Delhi,"CRRI Mathura Road, Delhi - IMD",19-03-2024 10:00:00,28.5512005,77.2735737,PM10,52,250,147
India,Delhi,Delhi,"Chandni Chowk, Delhi - IITM",19-03-2024 10:00:00,28.656756,77.227234,PM10,108,270,158
India,Delhi,Delhi,"Chandni Chowk, Delhi - IITM",19-03-2024 10:00:00,28.656756,77.227234,NH3,2,64,16
India,Delhi,Delhi,"Dr. Karni Singh Shooting Range, Delhi - DPCC",19-03-2024 10:00:00,28.498571,77.264840,PM10,92,345,172
India,Delhi,Delhi,"Dr. Karni Singh Shooting Range, Delhi - DPCC",19-03-2024 10:00:00,28.498571,77.264840,NO2,30,145,91
India,Delhi,Delhi,"Dr. Karni Singh Shooting Range, Delhi - DPCC",19-03-2024 10:00:00,28.498571,77.264840,CO,24,107,71
India,Delhi,Delhi,"IGI Airport (T3), Delhi - IMD",19-03-2024 10:00:00,28.5627763,77.1180053,PM2.5,7,386,182
India,Delhi,Delhi,"IHBAS, Dilshad Garden, Delhi - CPCB",19-03-2024 10:00:00,28.6811736,77.3025234,PM2.5,44,78,56
India,Delhi,Delhi,"ITO, Delhi - CPCB",19-03-2024 10:00:00,28.628624,77.241060,OZONE,11,74,14
India,Delhi,Delhi,"Jawaharlal Nehru Stadium, Delhi - DPCC",19-03-2024 10:00:00,28.580280,77.233829,SO2,14,73,38
India,Delhi,Delhi,"Lodhi Road, Delhi - IITM",19-03-2024 10:00:00,28.588333,77.221667,NO2,68,120,90
India,Delhi,Delhi,"Major Dhyan Chand National Stadium, Delhi - DPCC",19-03-2024 10:00:00,28.611281,77.237738,OZONE,2,161,10
India,Delhi,Delhi,"Mandir Marg, Delhi - DPCC",19-03-2024 10:00:00,28.636429,77.201067,SO2,6,12,8
India,Delhi,Delhi,"Najafgarh, Delhi - DPCC",19-03-2024 10:00:00,28.570173,76.933762,NH3,10,13,12
India,Delhi,Delhi,"Najafgarh, Delhi - DPCC",19-03-2024 10:00:00,28.570173,76.933762,SO2,10,14,12
India,Delhi,Delhi,"Najafgarh, Delhi - DPCC",19-03-2024 10:00:00,28.570173,76.933762,OZONE,5,150,24
India,Delhi,Delhi,"Nehru Nagar, Delhi - DPCC",19-03-2024 10:00:00,28.567890,77.250515,PM10,95,351,211
India,Delhi,Delhi,"Nehru Nagar, Delhi - DPCC",19-03-2024 10:00:00,28.567890,77.250515,NO2,11,37,20
India,Delhi,Delhi,"New Moti Bagh, Delhi - MHUA",19-03-2024 10:00:00,28.57834,77.18400,CO,15,103,80
India,Delhi,Delhi,"North Campus, DU, Delhi - IMD",19-03-2024 10:00:00,28.6573814,77.1585447,PM2.5,69,388,202
India,Delhi,Delhi,"Okhla Phase-2, Delhi - DPCC",19-03-2024 10:00:00,28.530785,77.271255,PM2.5,33,356,175
India,Delhi,Delhi,"Okhla Phase-2, Delhi - DPCC",19-03-2024 10:00:00,28.530785,77.271255,PM10,97,404,205
India,Delhi,Delhi,"Okhla Phase-2, Delhi - DPCC",19-03-2024 10:00:00,28.530785,77.271255,SO2,10,18,14
India,Delhi,Delhi,"Punjabi Bagh, Delhi - DPCC",19-03-2024 10:00:00,28.674045,77.131023,PM2.5,40,442,241
India,Delhi,Delhi,"Punjabi Bagh, Delhi - DPCC",19-03-2024 10:00:00,28.674045,77.131023,PM10,85,406,208
India,Delhi,Delhi,"Pusa, Delhi - DPCC",19-03-2024 10:00:00,28.639652,77.146275,OZONE,9,68,14
India,Delhi,Delhi,"R K Puram, Delhi - DPCC",19-03-2024 10:00:00,28.563262,77.186937,PM2.5,55,394,227
India,Delhi,Delhi,"Shadipur, Delhi - CPCB",19-03-2024 10:00:00,28.6514781,77.1473105,OZONE,12,179,44
India,Delhi,Delhi,"Sirifort, Delhi - CPCB",19-03-2024 10:00:00,28.5504249,77.2159377,NO2,NA,NA,NA
India,Delhi,Delhi,"Sri Aurobindo Marg, Delhi - DPCC",19-03-2024 10:00:00,28.531346,77.190156,NO2,20,105,49
India,Delhi,Delhi,"Vivek Vihar, Delhi - DPCC",19-03-2024 10:00:00,28.672342,77.315260,PM2.5,55,389,186
India,Delhi,Delhi,"Vivek Vihar, Delhi - DPCC",19-03-2024 10:00:00,28.672342,77.315260,SO2,30,48,37
India,Gujarat,Ahmedabad,"Chandkheda, Ahmedabad - IITM",19-03-2024 10:00:00,23.107969,72.574648,OZONE,9,65,16
India,Gujarat,Ahmedabad,"Maninagar, Ahmedabad - GPCB",19-03-2024 10:00:00,23.002657,72.591912,CO,36,85,53
India,Gujarat,Ahmedabad,"Raikhad, Ahmedabad - IITM",19-03-2024 10:00:00,23.020509,72.579261,PM2.5,16,149,90
India,Gujarat,Ahmedabad,"Raikhad, Ahmedabad - IITM",19-03-2024 10:00:00,23.020509,72.579261,NO2,19,177,67
India,Gujarat,Ahmedabad,"Raikhad, Ahmedabad - IITM",19-03-2024 10:00:00,23.020509,72.579261,NH3,NA,NA,NA
India,Gujarat,Ahmedabad,"Rakhial, Ahmedabad - IITM",19-03-2024 10:00:00,23.016834,72.625775,SO2,1,53,10
India,Gujarat,Ahmedabad,"SAC ISRO Satellite, Ahmedabad - IITM",19-03-2024 10:00:00,23.023389,72.515201,PM2.5,111,159,148
India,Gujarat,Ahmedabad,"SAC ISRO Satellite, Ahmedabad - IITM",19-03-2024 10:00:00,23.023389,72.515201,CO,27,43,42
India,Gujarat,Ahmedabad,"SVPI Airport Hansol, Ahmedabad - IITM",19-03-2024 10:00:00,23.076793,72.627874,NH3,4,5,4
India,Gujarat,Ahmedabad,"SVPI Airport Hansol, Ahmedabad - IITM",19-03-2024 10:00:00,23.076793,72.627874,OZONE,1,33,8
India,Gujarat,Ahmedabad,"Sardar Vallabhbhai Patel Stadium, Ahmedabad - IITM",19-03-2024 10:00:00,23.043070,72.562968,PM2.5,62,200,101
India,Gujarat,Ankleshwar,"GIDC, Ankleshwar - GPCB",19-03-2024 10:00:00,21.613267,73.010555,SO2,2,83,23
India,Gujarat,Ankleshwar,"GIDC, Ankleshwar - GPCB",19-03-2024 10:00:00,21.613267,73.010555,CO,30,107,104
India,Gujarat,Ankleshwar,"GIDC, Ankleshwar - GPCB",19-03-2024 10:00:00,21.613267,73.010555,OZONE,20,37,22
India,Gujarat,Gandhinagar,"GIFT City, Gandhinagar - IITM",19-03-2024 10:00:00,23.163798,72.677768,SO2,4,8,5
India,Gujarat,Gandhinagar,"GIFT City, Gandhinagar - IITM",19-03-2024 10:00:00,23.163798,72.677768,OZONE,9,42,17
India,Gujarat,Gandhinagar,"IIPHG Lekawada, Gandhinagar - IITM",19-03-2024 10:00:00,23.243639,72.68994,PM2.5,31,157,75
India,Gujarat,Gandhinagar,"IIPHG Lekawada, Gandhinagar - IITM",19-03-2024 10:00:00,23.243639,72.68994,OZONE,10,54,15
India,Gujarat,Gandhinagar,"Sector-10, Gandhinagar - GPCB",19-03-2024 10:00:00,23.221714,72.654328,SO2,3,11,6
India,Gujarat,Nandesari,"GIDC, Nandesari - Nandesari Ind. Association",19-03-2024 10:00:00,22.410802,73.097923,PM2.5,67,369,172
India,Gujarat,Nandesari,"GIDC, Nandesari - Nandesari Ind. Association",19-03-2024 10:00:00,22.410802,73.097923,SO2,2,14,9
India,Gujarat,Surat,"Science Center, Surat - SMC",19-03-2024 10:00:00,21.170046,72.795405,PM2.5,7,62,34
India,Gujarat,Vapi,"Phase-1 GIDC, Vapi - GPCB",19-03-2024 10:00:00,20.362421,72.918013,OZONE,1,4,1
India,Gujarat,Vatva,"Phase-4 GIDC, Vatva - GPCB",19-03-2024 10:00:00,22.969611,72.643500,OZONE,7,53,15
India,Haryana,Ambala,"Patti Mehar, Ambala - HSPCB",19-03-2024 10:00:00,30.379589,76.778328,PM2.5,39,89,66
India,Haryana,Ambala,"Patti Mehar, Ambala - HSPCB",19-03-2024 10:00:00,30.379589,76.778328,SO2,NA,NA,NA
India,Haryana,Bahadurgarh,"Arya Nagar, Bahadurgarh - HSPCB",19-03-2024 10:00:00,28.6701,76.9254,NH3,10,13,12
India,Haryana,Ballabgarh,"Nathu Colony, Ballabgarh - HSPCB",19-03-2024 10:00:00,28.3419248,77.319699,NH3,1,2,1
India,Haryana,Bhiwani,"H.B. Colony, Bhiwani - HSPCB",19-03-2024 10:00:00,28.806223,76.141105,PM2.5,2,43,20
India,Haryana,Bhiwani,"H.B. Colony, Bhiwani - HSPCB",19-03-2024 10:00:00,28.806223,76.141105,SO2,5,67,18
India,Haryana,Charkhi Dadri,"Mini Secretariat, Charkhi Dadri - HSPCB",19-03-2024 10:00:00,28.593883,76.270653,PM10,58,179,108
India,Haryana,Charkhi Dadri,"Mini Secretariat, Charkhi Dadri - HSPCB",19-03-2024 10:00:00,28.593883,76.270653,NO2,14,23,18
India,Haryana,Faridabad,"New Industrial Town, Faridabad - HSPCB",19-03-2024 10:00:00,28.39072,77.30059,PM2.5,129,394,277
India,Haryana,Faridabad,"Sector 11, Faridabad - HSPCB",19-03-2024 10:00:00,28.376058,77.315741,PM2.5,76,370,181
India,Haryana,Faridabad,"Sector 11, Faridabad - HSPCB",19-03-2024 10:00:00,28.376058,77.315741,PM10,101,458,180
India,Haryana,Faridabad,"Sector 11, Faridabad - HSPCB",19-03-2024 10:00:00,28.376058,77.315741,CO,26,74,54
India,Haryana,Faridabad,"Sector 30, Faridabad - HSPCB",19-03-2024 10:00:00,28.4417,77.3217,NH3,9,9,9
India,Haryana,Faridabad,"Sector 30, Faridabad - HSPCB",19-03-2024 10:00:00,28.4417,77.3217,SO2,2,8,5
India,Haryana,Fatehabad,"Huda Sector, Fatehabad - HSPCB",19-03-2024 10:00:00,29.503664,75.467934,NO2,37,38,37
India,Haryana,Gurugram,"Sector-51, Gurugram - HSPCB",19-03-2024 10:00:00,28.4227,77.0667,NH3,7,14,9
India,Haryana,Gurugram,"Vikas Sadan, Gurugram - HSPCB",19-03-2024 10:00:00,28.4501238,77.0263051,SO2,12,61,42
India,Haryana,Hisar,"Urban Estate-II, Hisar - HSPCB",19-03-2024 10:00:00,29.140560,75.744941,NH3,8,11,9
India,Haryana,Jind,"Police Lines, Jind - HSPCB",19-03-2024 10:00:00,29.307814,76.337619,PM10,58,130,106
India,Haryana,Jind,"Police Lines, Jind - HSPCB",19-03-2024 10:00:00,29.307814,76.337619,NO2,8,15,12
India,Haryana,Kaithal,"Rishi Nagar, Kaithal - HSPCB",19-03-2024 10:00:00,29.8006,76.4155,NO2,24,26,25
India,Haryana,Kurukshetra,"Sector-7, Kurukshetra - HSPCB",19-03-2024 10:00:00,29.966942,76.875879,PM10,58,147,91
India,Haryana,Kurukshetra,"Sector-7, Kurukshetra - HSPCB",19-03-2024 10:00:00,29.966942,76.875879,NO2,10,11,10
India,Haryana,Mandikhera,"General Hospital, Mandikhera - HSPCB",19-03-2024 10:00:00,27.9002,76.9938,PM10,53,145,86
India,Haryana,Manesar,"Sector-2 IMT, Manesar - HSPCB",19-03-2024 10:00:00,28.360699,76.936090,PM10,36,133,87
India,Haryana,Narnaul,"Shastri Nagar, Narnaul - HSPCB",19-03-2024 10:00:00,28.060249,76.113115,NO2,12,75,34
India,Haryana,Narnaul,"Shastri Nagar, Narnaul - HSPCB",19-03-2024 10:00:00,28.060249,76.113115,OZONE,36,62,57
India,Haryana,Rohtak,"MD University, Rohtak - HSPCB",19-03-2024 10:00:00,28.52123,76.37138,NO2,47,54,51
India,Haryana,Rohtak,"MD University, Rohtak - HSPCB",19-03-2024 10:00:00,28.52123,76.37138,SO2,6,7,7
India,Haryana,Sirsa,"F-Block, Sirsa - HSPCB",19-03-2024 10:00:00,29.536400,75.015800,PM2.5,60,294,109
India,Haryana,Sirsa,"F-Block, Sirsa - HSPCB",19-03-2024 10:00:00,29.536400,75.015800,SO2,1,106,84
India,Haryana,Sirsa,"F-Block, Sirsa - HSPCB",19-03-2024 10:00:00,29.536400,75.015800,OZONE,10,85,78
India,Haryana,Sonipat,"Murthal, Sonipat - HSPCB",19-03-2024 10:00:00,29.027200,77.062100,SO2,13,29,20
India,Haryana,Sonipat,"Murthal, Sonipat - HSPCB",19-03-2024 10:00:00,29.027200,77.062100,OZONE,16,36,20
India,Haryana,Yamuna Nagar,"Gobind Pura, Yamuna Nagar - HSPCB",19-03-2024 10:00:00,30.1480566,77.2893471,PM2.5,57,199,97
India,Himachal Pradesh,Baddi,"HIMUDA Complex Phase-1, Baddi - HPPCB",19-03-2024 10:00:00,30.943887,76.801991,PM2.5,3,183,61
India,Himachal Pradesh,Baddi,"HIMUDA Complex Phase-1, Baddi - HPPCB",19-03-2024 10:00:00,30.943887,76.801991,NH3,3,6,4
India,Himachal Pradesh,Baddi,"HIMUDA Complex Phase-1, Baddi - HPPCB",19-03-2024 10:00:00,30.943887,76.801991,SO2,11,51,25
India,Himachal Pradesh,Baddi,"HIMUDA Complex Phase-1, Baddi - HPPCB",19-03-2024 10:00:00,30.943887,76.801991,CO,14,57,17
India,Jharkhand,Dhanbad,"Kalakusuma, Dhanbad - DMC",19-03-2024 10:00:00,23.811548,86.481238,PM2.5,50,83,58
India,Jharkhand,Dhanbad,"Kalakusuma, Dhanbad - DMC",19-03-2024 10:00:00,23.811548,86.481238,NO2,13,14,14
India,Jharkhand,Dhanbad,"Kalakusuma, Dhanbad - DMC",19-03-2024 10:00:00,23.811548,86.481238,SO2,20,20,20
India,Jharkhand,Dhanbad,"Sardar Patel Nagar, Dhanbad - JSPCB",19-03-2024 10:00:00,23.80569,86.44268,PM2.5,16,118,51
India,Jharkhand,Dhanbad,"Sardar Patel Nagar, Dhanbad - JSPCB",19-03-2024 10:00:00,23.80569,86.44268,SO2,6,11,10
India,Jharkhand,Pathardih,"Mohalbani Ghat, Pathardih - DMC",19-03-2024 10:00:00,23.669880,86.411725,NO2,14,295,111
India,Jharkhand,Pathardih,"Mohalbani Ghat, Pathardih - DMC",19-03-2024 10:00:00,23.669880,86.411725,SO2,16,22,20
India,Jharkhand,Pathardih,"Mohalbani Ghat, Pathardih - DMC",19-03-2024 10:00:00,23.669880,86.411725,CO,142,171,150
India,Karnataka,Bagalkot,"Vidayagiri, Bagalkot - KSPCB",19-03-2024 10:00:00,16.172806,75.659694,PM2.5,19,37,36
India,Karnataka,Bagalkot,"Vidayagiri, Bagalkot - KSPCB",19-03-2024 10:00:00,16.172806,75.659694,SO2,NA,NA,NA
India,Karnataka,Bagalkot,"Vidayagiri, Bagalkot - KSPCB",19-03-2024 10:00:00,16.172806,75.659694,OZONE,NA,NA,NA
India,Karnataka,Bengaluru,"BTM Layout, Bengaluru - CPCB",19-03-2024 10:00:00,12.9135218,77.5950804,PM10,62,99,76
India,Karnataka,Bengaluru,"Bapuji Nagar, Bengaluru - KSPCB",19-03-2024 10:00:00,12.951913,77.539784,PM10,82,117,102
India,Karnataka,Bengaluru,"Bapuji Nagar, Bengaluru - KSPCB",19-03-2024 10:00:00,12.951913,77.539784,NO2,7,15,11
India,Karnataka,Bengaluru,"Hombegowda Nagar, Bengaluru - KSPCB",19-03-2024 10:00:00,12.938539,77.590100,NO2,11,20,15
India,Karnataka,Bengaluru,"Hombegowda Nagar, Bengaluru - KSPCB",19-03-2024 10:00:00,12.938539,77.590100,SO2,4,4,4
India,Karnataka,Bengaluru,"Jayanagar 5th Block, Bengaluru - KSPCB",19-03-2024 10:00:00,12.920984,77.584908,PM2.5,63,231,108
India,Karnataka,Bengaluru,"Jigani, Bengaluru - KSPCB",19-03-2024 10:00:00,12.7816279,77.6299145,PM10,NA,NA,NA
India,Karnataka,Bengaluru,"Jigani, Bengaluru - KSPCB",19-03-2024 10:00:00,12.7816279,77.6299145,NH3,NA,NA,NA
India,Karnataka,Bengaluru,"Jigani, Bengaluru - KSPCB",19-03-2024 10:00:00,12.7816279,77.6299145,SO2,NA,NA,NA
India,Karnataka,Bengaluru,"Kasturi Nagar, Bengaluru - KSPCB",19-03-2024 10:00:00,13.003872,77.664217,NO2,16,17,17
India,Karnataka,Bengaluru,"Kasturi Nagar, Bengaluru - KSPCB",19-03-2024 10:00:00,13.003872,77.664217,SO2,10,10,10
India,Karnataka,Bengaluru,"Kasturi Nagar, Bengaluru - KSPCB",19-03-2024 10:00:00,13.003872,77.664217,OZONE,14,149,54
India,Karnataka,Bengaluru,"Peenya, Bengaluru - CPCB",19-03-2024 10:00:00,13.0270199,77.494094,PM10,58,90,74
India,Karnataka,Bengaluru,"Peenya, Bengaluru - CPCB",19-03-2024 10:00:00,13.0270199,77.494094,NO2,8,19,13
India,Karnataka,Bengaluru,"RVCE-Mailasandra, Bengaluru - KSPCB",19-03-2024 10:00:00,12.921418,77.502466,PM2.5,205,373,301
India,Karnataka,Bengaluru,"RVCE-Mailasandra, Bengaluru - KSPCB",19-03-2024 10:00:00,12.921418,77.502466,NO2,16,17,17
India,Karnataka,Bengaluru,"Shivapura_Peenya, Bengaluru - KSPCB",19-03-2024 10:00:00,13.0246342,77.5080115,PM2.5,7,194,59
India,Karnataka,Bengaluru,"Shivapura_Peenya, Bengaluru - KSPCB",19-03-2024 10:00:00,13.0246342,77.5080115,NO2,15,16,16
India,Karnataka,Bengaluru,"Shivapura_Peenya, Bengaluru - KSPCB",19-03-2024 10:00:00,13.0246342,77.5080115,SO2,4,98,25
India,Karnataka,Bengaluru,"Silk Board, Bengaluru - KSPCB",19-03-2024 10:00:00,12.917348,77.622813,SO2,7,66,20
India,Karnataka,Chamarajanagar,"Urban, Chamarajanagar - KSPCB",19-03-2024 10:00:00,11.55358,76.55521,NH3,1,2,1
India,Karnataka,Chikkaballapur,"Chikkaballapur Rural, Chikkaballapur - KSPCB",19-03-2024 10:00:00,13.428828,77.731418,PM10,71,146,101
India,Karnataka,Chikkaballapur,"Chikkaballapur Rural, Chikkaballapur - KSPCB",19-03-2024 10:00:00,13.428828,77.731418,CO,12,28,21
India,Karnataka,Chikkamagaluru,"Kalyana Nagara, Chikkamagaluru - KSPCB",19-03-2024 10:00:00,13.328028,75.797056,NH3,3,4,4
India,Karnataka,Chikkamagaluru,"Kalyana Nagara, Chikkamagaluru - KSPCB",19-03-2024 10:00:00,13.328028,75.797056,SO2,1,7,2
India,Karnataka,Dharwad,"Kalabhavan, Dharwad - KSPCB",19-03-2024 10:00:00,15.459706,75.008381,OZONE,2,39,19
India,Karnataka,Gadag,"Panchal Nagar, Gadag - KSPCB",19-03-2024 10:00:00,15.411456,75.638133,PM2.5,15,117,44
India,Karnataka,Gadag,"Panchal Nagar, Gadag - KSPCB",19-03-2024 10:00:00,15.411456,75.638133,PM10,35,80,52
India,Karnataka,Gadag,"Panchal Nagar, Gadag - KSPCB",19-03-2024 10:00:00,15.411456,75.638133,CO,40,60,48
India,Karnataka,Hassan,"B.Katihalli, Hassan - KSPCB",19-03-2024 10:00:00,13.008556,76.125258,NH3,NA,NA,NA
India,Karnataka,Haveri,"Ashwini Nagar, Haveri - KSPCB",19-03-2024 10:00:00,14.791800,75.389600,PM2.5,44,69,56
India,Karnataka,Haveri,"Ashwini Nagar, Haveri - KSPCB",19-03-2024 10:00:00,14.791800,75.389600,PM10,64,91,81
India,Karnataka,Haveri,"Ashwini Nagar, Haveri - KSPCB",19-03-2024 10:00:00,14.791800,75.389600,NH3,3,3,3
India,Karnataka,Haveri,"Ashwini Nagar, Haveri - KSPCB",19-03-2024 10:00:00,14.791800,75.389600,CO,35,36,36
India,Karnataka,Hubballi,"Deshpande Nagar, Hubballi - KSPCB",19-03-2024 10:00:00,15.351773,75.140726,PM2.5,40,90,66
India,Karnataka,Hubballi,"Deshpande Nagar, Hubballi - KSPCB",19-03-2024 10:00:00,15.351773,75.140726,PM10,46,133,95
India,Karnataka,Hubballi,"Deshpande Nagar, Hubballi - KSPCB",19-03-2024 10:00:00,15.351773,75.140726,OZONE,4,59,27
India,Karnataka,Hubballi,"Lingaraj Nagar, Hubballi - KSPCB",19-03-2024 10:00:00,15.3714823,75.1160168,CO,NA,NA,NA
India,Karnataka,Kalaburagi,"Lal Bahadur Shastri Nagar, Kalaburagi - KSPCB",19-03-2024 10:00:00,17.321993,76.822628,NO2,11,12,11
India,Karnataka,Kalaburagi,"Mahatma Basaveswar Colony, Kalaburgi - KSPCB",19-03-2024 10:00:00,17.336318,76.847397,NH3,2,4,4
India,Karnataka,Kalaburagi,"Mahatma Basaveswar Colony, Kalaburgi - KSPCB",19-03-2024 10:00:00,17.336318,76.847397,OZONE,7,27,11
India,Karnataka,Karwar,"KHB Colony, Karwar - KSPCB",19-03-2024 10:00:00,14.816666,74.141003,PM2.5,40,157,57
India,Karnataka,Karwar,"KHB Colony, Karwar - KSPCB",19-03-2024 10:00:00,14.816666,74.141003,NH3,1,17,4
India,Karnataka,Koppal,"Diwator Nagar, Koppal - KSPCB",19-03-2024 10:00:00,15.347630,76.181767,PM2.5,27,51,37
India,Karnataka,Koppal,"Diwator Nagar, Koppal - KSPCB",19-03-2024 10:00:00,15.347630,76.181767,NH3,5,7,5
India,Karnataka,Koppal,"Diwator Nagar, Koppal - KSPCB",19-03-2024 10:00:00,15.347630,76.181767,SO2,67,69,69
India,Karnataka,Madikeri,"Stuart Hill, Madikeri - KSPCB",19-03-2024 10:00:00,12.415911,75.735050,PM10,30,76,54
India,Karnataka,Madikeri,"Stuart Hill, Madikeri - KSPCB",19-03-2024 10:00:00,12.415911,75.735050,NO2,2,12,5
India,Karnataka,Madikeri,"Stuart Hill, Madikeri - KSPCB",19-03-2024 10:00:00,12.415911,75.735050,SO2,4,5,4
India,Karnataka,Mangalore,"Kadri, Mangalore - KSPCB",19-03-2024 10:00:00,12.889250,74.853000,PM10,44,84,62
India,Karnataka,Mangalore,"Kadri, Mangalore - KSPCB",19-03-2024 10:00:00,12.889250,74.853000,CO,39,46,41
India,Karnataka,Mysuru,"Hebbal 1st Stage, Mysuru - KSPCB",19-03-2024 10:00:00,12.21041,76.37376,PM2.5,27,57,34
India,Karnataka,Mysuru,"Hebbal 1st Stage, Mysuru - KSPCB",19-03-2024 10:00:00,12.21041,76.37376,NO2,9,37,22
India,Karnataka,Mysuru,"Hebbal 1st Stage, Mysuru - KSPCB",19-03-2024 10:00:00,12.21041,76.37376,NH3,1,3,2
India,Karnataka,Raichur,"Haji Colony, Raichur - KSPCB",19-03-2024 10:00:00,16.208139,77.348417,NO2,NA,NA,NA
India,Karnataka,Ramanagara,"Vijay Nagar, Ramanagara - KSPCB",19-03-2024 10:00:00,12.733409,77.298051,PM2.5,NA,NA,NA
India,Karnataka,Ramanagara,"Vijay Nagar, Ramanagara - KSPCB",19-03-2024 10:00:00,12.733409,77.298051,NO2,NA,NA,NA
India,Karnataka,Ramanagara,"Vijay Nagar, Ramanagara - KSPCB",19-03-2024 10:00:00,12.733409,77.298051,CO,4,48,48
India,Karnataka,Shivamogga,"Vinoba Nagara, Shivamogga - KSPCB",19-03-2024 10:00:00,13.940000,75.555917,CO,12,56,39
India,Karnataka,Tumakuru,"Thimmalapura, Tumakuru - KSPCB",19-03-2024 10:00:00,13.377516,77.099072,PM10,NA,NA,NA
India,Karnataka,Udupi,"Brahmagiri, Udupi - KSPCB",19-03-2024 10:00:00,13.34194444,74.74694444,NH3,1,2,1
India,Kerala,Kannur,"Thavakkara, Kannur - Kerala PCB",19-03-2024 10:00:00,11.875000,75.373200,PM10,65,76,69
India,Kerala,Kannur,"Thavakkara, Kannur - Kerala PCB",19-03-2024 10:00:00,11.875000,75.373200,NH3,1,1,1
India,Kerala,Thiruvananthapuram,"Kariavattom, Thiruvananthapuram - Kerala PCB",19-03-2024 10:00:00,8.563700,76.886500,PM10,90,105,97
India,Kerala,Thiruvananthapuram,"Plammoodu, Thiruvananthapuram - Kerala PCB",19-03-2024 10:00:00,8.5149093,76.9435879,PM10,35,78,55
India,Kerala,Thiruvananthapuram,"Plammoodu, Thiruvananthapuram - Kerala PCB",19-03-2024 10:00:00,8.5149093,76.9435879,NH3,2,2,2
India,Kerala,Thrissur,"Corporation Ground, Thrissur - Kerala PCB",19-03-2024 10:00:00,10.532400,76.215900,NO2,7,8,7
India,Kerala,Thrissur,"Corporation Ground, Thrissur - Kerala PCB",19-03-2024 10:00:00,10.532400,76.215900,CO,14,68,21
India,Kerala,Thrissur,"Corporation Ground, Thrissur - Kerala PCB",19-03-2024 10:00:00,10.532400,76.215900,OZONE,28,32,30
India,Madhya Pradesh,Bhopal,"Idgah Hills, Bhopal - MPPCB",19-03-2024 10:00:00,23.264759,77.381568,PM10,81,121,102
India,Madhya Pradesh,Bhopal,"Paryavaran Parisar, Bhopal - MPPCB",19-03-2024 10:00:00,23.210494,77.425409,OZONE,39,85,57
India,Madhya Pradesh,Bhopal,"T T Nagar, Bhopal - MPPCB",19-03-2024 10:00:00,23.233584,77.400574,NH3,4,7,5
India,Madhya Pradesh,Bhopal,"T T Nagar, Bhopal - MPPCB",19-03-2024 10:00:00,23.233584,77.400574,CO,14,71,27
India,Madhya Pradesh,Dewas,"Bhopal Chauraha, Dewas - MPPCB",19-03-2024 10:00:00,22.9682591,76.064118,NO2,NA,NA,NA
India,Madhya Pradesh,Gwalior,"City Center, Gwalior - MPPCB",19-03-2024 10:00:00,26.203442,78.193251,PM10,98,182,137
India,Madhya Pradesh,Gwalior,"City Center, Gwalior - MPPCB",19-03-2024 10:00:00,26.203442,78.193251,CO,42,110,59
India,Madhya Pradesh,Gwalior,"Deen Dayal Nagar, Gwalior - MPPCB",19-03-2024 10:00:00,26.259242,78.216432,PM2.5,38,325,141
India,Madhya Pradesh,Gwalior,"Deen Dayal Nagar, Gwalior - MPPCB",19-03-2024 10:00:00,26.259242,78.216432,SO2,16,22,18
India,Madhya Pradesh,Gwalior,"Deen Dayal Nagar, Gwalior - MPPCB",19-03-2024 10:00:00,26.259242,78.216432,OZONE,14,189,69
India,Madhya Pradesh,Indore,"Chhoti Gwaltoli, Indore - MPPCB",19-03-2024 10:00:00,22.4310,75.5213,NH3,4,6,5
India,Madhya Pradesh,Indore,"Chhoti Gwaltoli, Indore - MPPCB",19-03-2024 10:00:00,22.4310,75.5213,OZONE,31,120,71
India,Madhya Pradesh,Indore,"Maguda Nagar, Indore - IMC",19-03-2024 10:00:00,22.7524,75.8872,OZONE,36,43,38
India,Madhya Pradesh,Indore,"Regional Park, Indore - IMC",19-03-2024 10:00:00,22.6780,75.8559,PM10,46,115,67
India,Madhya Pradesh,Indore,"Regional Park, Indore - IMC",19-03-2024 10:00:00,22.6780,75.8559,NH3,1,1,1
India,Madhya Pradesh,Indore,"Residency Area, Indore - IMC",19-03-2024 10:00:00,22.7084,75.8815,OZONE,NA,NA,NA
India,Madhya Pradesh,Jabalpur,"Gupteshwar, Jabalpur - JMC",19-03-2024 10:00:00,23.142888,79.916147,PM2.5,52,190,75
India,Madhya Pradesh,Jabalpur,"Marhatal, Jabalpur - MPPCB",19-03-2024 10:00:00,23.168606,79.932247,SO2,6,15,11
India,Madhya Pradesh,Jabalpur,"Marhatal, Jabalpur - MPPCB",19-03-2024 10:00:00,23.168606,79.932247,CO,32,68,41
India,Madhya Pradesh,Katni,"Gole Bazar, Katni - MPPCB",19-03-2024 10:00:00,23.50016,80.23284,SO2,8,34,24
India,Madhya Pradesh,Mandideep,"Sector-D Industrial Area, Mandideep - MPPCB",19-03-2024 10:00:00,23.108440,77.511428,PM2.5,62,269,121
India,Madhya Pradesh,Mandideep,"Sector-D Industrial Area, Mandideep - MPPCB",19-03-2024 10:00:00,23.108440,77.511428,OZONE,27,81,38
India,Madhya Pradesh,Pithampur,"Sector-2 Industrial Area, Pithampur - MPPCB",19-03-2024 10:00:00,22.624758,75.675238,NH3,6,9,8
India,Madhya Pradesh,Ratlam,"Shasthri Nagar, Ratlam - IPCA Lab",19-03-2024 10:00:00,23.331731,75.045981,PM2.5,32,163,65
India,Madhya Pradesh,Ratlam,"Shasthri Nagar, Ratlam - IPCA Lab",19-03-2024 10:00:00,23.331731,75.045981,PM10,118,267,149
India,Madhya Pradesh,Ratlam,"Shasthri Nagar, Ratlam - IPCA Lab",19-03-2024 10:00:00,23.331731,75.045981,NO2,22,122,53
India,Madhya Pradesh,Sagar,"Civil Lines, Sagar - MPPCB",19-03-2024 10:00:00,23.838586,78.759431,OZONE,51,140,66
India,Madhya Pradesh,Satna,"Bandhavgar Colony, Satna - Birla Cement",19-03-2024 10:00:00,24.58434363,80.8549414,SO2,1,3,2
India,Madhya Pradesh,Satna,"Bandhavgar Colony, Satna - Birla Cement",19-03-2024 10:00:00,24.58434363,80.8549414,OZONE,59,79,67
India,Madhya Pradesh,Singrauli,"Suryakiran Bhawan NCL, Singrauli - MPPCB",19-03-2024 10:00:00,24.108970,82.645580,PM2.5,28,248,85
India,Madhya Pradesh,Singrauli,"Suryakiran Bhawan NCL, Singrauli - MPPCB",19-03-2024 10:00:00,24.108970,82.645580,NO2,16,101,37
India,Madhya Pradesh,Singrauli,"Suryakiran Bhawan NCL, Singrauli - MPPCB",19-03-2024 10:00:00,24.108970,82.645580,SO2,21,140,49
India,Madhya Pradesh,Ujjain,"Mahakaleshwar Temple, Ujjain - MPPCB",19-03-2024 10:00:00,23.182719 ,75.768218 ,PM2.5,39,155,66
India,Madhya Pradesh,Ujjain,"Mahakaleshwar Temple, Ujjain - MPPCB",19-03-2024 10:00:00,23.182719 ,75.768218 ,PM10,72,142,107
India,Maharashtra,Ahmednagar,"Tarakpur, Ahmednagar - MPCB",19-03-2024 10:00:00,19.10122,74.73339,SO2,11,18,14
India,Maharashtra,Amravati,"Shivneri Colony, Amravati - MPCB",19-03-2024 10:00:00,20.9402359,77.7895248,PM10,59,109,90
India,Maharashtra,Amravati,"Shri Shivaji Science College, Amaravati - MPCB",19-03-2024 10:00:00,20.939198,77.765701,OZONE,15,86,27
India,Maharashtra,Aurangabad,"MIDC Chilkalthana, Aurangabad - MPCB",19-03-2024 10:00:00,19.875620,75.387310,CO,52,95,58
India,Maharashtra,Aurangabad,"More Chowk Waluj, Aurangabad - MPCB",19-03-2024 10:00:00,19.8389439,75.244448,NH3,NA,NA,NA
India,Maharashtra,Aurangabad,"More Chowk Waluj, Aurangabad - MPCB",19-03-2024 10:00:00,19.8389439,75.244448,SO2,NA,NA,NA
India,Maharashtra,Aurangabad,"Rachnakar Colony, Aurangabad - MPCB",19-03-2024 10:00:00,19.863756,75.321188,NH3,1,2,1
India,Maharashtra,Aurangabad,"Rachnakar Colony, Aurangabad - MPCB",19-03-2024 10:00:00,19.863756,75.321188,SO2,17,86,49
India,Maharashtra,Aurangabad,"Rachnakar Colony, Aurangabad - MPCB",19-03-2024 10:00:00,19.863756,75.321188,CO,11,66,24
India,Maharashtra,Badlapur,"Katrap, Badlapur - MPCB",19-03-2024 10:00:00,19.16485,73.23409,PM10,53,152,109
India,Maharashtra,Badlapur,"Katrap, Badlapur - MPCB",19-03-2024 10:00:00,19.16485,73.23409,NH3,1,4,3
India,Maharashtra,Badlapur,"Katrap, Badlapur - MPCB",19-03-2024 10:00:00,19.16485,73.23409,SO2,2,14,8
India,Maharashtra,Bhiwandi,"Gokul Nagar, Bhiwandi - MPCB",19-03-2024 10:00:00,19.309073,73.057223,SO2,1,14,5
India,Maharashtra,Chandrapur,"Chauhan Colony, Chandrapur - MPCB",19-03-2024 10:00:00,19.962900,79.298714,PM2.5,44,119,68
India,Maharashtra,Chandrapur,"Chauhan Colony, Chandrapur - MPCB",19-03-2024 10:00:00,19.962900,79.298714,SO2,1,23,5
India,Maharashtra,Chandrapur,"MIDC Khutala, Chandrapur - MPCB",19-03-2024 10:00:00,19.9775302,79.2337086,NO2,23,62,36
India,Maharashtra,Chandrapur,"MIDC Khutala, Chandrapur - MPCB",19-03-2024 10:00:00,19.9775302,79.2337086,CO,18,74,49
India,Maharashtra,Dhule,"Deopur, Dhule - MPCB",19-03-2024 10:00:00,20.918946,74.776388,SO2,16,29,21
India,Maharashtra,Dhule,"Deopur, Dhule - MPCB",19-03-2024 10:00:00,20.918946,74.776388,CO,18,42,25
India,Maharashtra,Jalgaon,"Prabhat Colony, Jalgaon - MPCB",19-03-2024 10:00:00,21.001264,75.565602,PM2.5,71,183,111
India,Maharashtra,Jalna,"Old MIDC, Jalna - MPCB",19-03-2024 10:00:00,19.854616,75.905894,PM2.5,122,352,245
India,Maharashtra,Jalna,"Old MIDC, Jalna - MPCB",19-03-2024 10:00:00,19.854616,75.905894,CO,24,48,32
India,Maharashtra,Kalyan,"Khadakpada, Kalyan - MPCB",19-03-2024 10:00:00,19.25292,73.142019,PM2.5,45,72,53
India,Maharashtra,Kalyan,"Khadakpada, Kalyan - MPCB",19-03-2024 10:00:00,19.25292,73.142019,NH3,1,1,1
India,Maharashtra,Kolhapur,"Shivaji University, Kolhapur - MPCB",19-03-2024 10:00:00,16.6870449,74.2505872,PM10,86,182,119
India,Maharashtra,Kolhapur,"Shivaji University, Kolhapur - MPCB",19-03-2024 10:00:00,16.6870449,74.2505872,NO2,19,67,40
India,Maharashtra,Kolhapur,"Shivaji University, Kolhapur - MPCB",19-03-2024 10:00:00,16.6870449,74.2505872,NH3,3,9,6
India,Maharashtra,Kolhapur,"Sinchan Bhavan, Kolhapur - MPCB",19-03-2024 10:00:00,16.7143745,74.2426398,SO2,1,16,4
India,Maharashtra,Latur,"Sawe Wadi, Latur - MPCB",19-03-2024 10:00:00,18.39963,76.57452,PM2.5,61,129,84
India,Maharashtra,Latur,"Sawe Wadi, Latur - MPCB",19-03-2024 10:00:00,18.39963,76.57452,NO2,8,48,18
India,Maharashtra,Latur,"Sawe Wadi, Latur - MPCB",19-03-2024 10:00:00,18.39963,76.57452,SO2,NA,NA,NA
India,Maharashtra,Mahad,"Kamble Tarf Birwadi, Mahad - MPCB",19-03-2024 10:00:00,18.1023399,73.4783687,PM2.5,65,316,104
India,Maharashtra,Malegaon,"Mahesh Nagar, Malegaon - MPCB",19-03-2024 10:00:00,20.555712,74.529236,SO2,NA,NA,NA
India,Maharashtra,Malegaon,"Mahesh Nagar, Malegaon - MPCB",19-03-2024 10:00:00,20.555712,74.529236,OZONE,31,115,38
India,Maharashtra,Mira-Bhayandar,"Bhayandar West, Mira-Bhayandar - MPCB",19-03-2024 10:00:00,19.296481,72.840923,NO2,5,47,22
India,Maharashtra,Mira-Bhayandar,"Bhayandar West, Mira-Bhayandar - MPCB",19-03-2024 10:00:00,19.296481,72.840923,NH3,3,7,5
India,Maharashtra,Mira-Bhayandar,"Bhayandar West, Mira-Bhayandar - MPCB",19-03-2024 10:00:00,19.296481,72.840923,OZONE,4,92,21
India,Maharashtra,Mumbai,"Borivali East, Mumbai - MPCB",19-03-2024 10:00:00,19.2243333,72.8658113,NO2,3,21,11
India,Maharashtra,Mumbai,"Byculla, Mumbai - BMC",19-03-2024 10:00:00,18.9767,72.8380,PM10,64,100,80
India,Maharashtra,Mumbai,"Byculla, Mumbai - BMC",19-03-2024 10:00:00,18.9767,72.8380,SO2,2,9,4
India,Maharashtra,Mumbai,"Chakala-Andheri East, Mumbai - IITM",19-03-2024 10:00:00,19.11074,72.86084,NH3,NA,NA,NA
India,Maharashtra,Mumbai,"Chembur, Mumbai - MPCB",19-03-2024 10:00:00,19.0364585,72.8954371,PM2.5,76,166,105
India,Maharashtra,Mumbai,"Chembur, Mumbai - MPCB",19-03-2024 10:00:00,19.0364585,72.8954371,NO2,24,53,37
India,Maharashtra,Mumbai,"Colaba, Mumbai - MPCB",19-03-2024 10:00:00,18.910000,72.820000,OZONE,7,12,9
India,Maharashtra,Mumbai,"Ghatkopar, Mumbai - BMC",19-03-2024 10:00:00,19.083694,72.920967,SO2,NA,NA,NA
India,Maharashtra,Mumbai,"Ghatkopar, Mumbai - BMC",19-03-2024 10:00:00,19.083694,72.920967,OZONE,1,39,2
India,Maharashtra,Mumbai,"Kandivali East, Mumbai - MPCB",19-03-2024 10:00:00,19.205800,72.868200,OZONE,30,31,30
India,Maharashtra,Mumbai,"Kherwadi_Bandra East, Mumbai - MPCB",19-03-2024 10:00:00,19.0632143,72.8456324,NH3,5,22,8
India,Maharashtra,Mumbai,"Khindipada-Bhandup West, Mumbai - IITM",19-03-2024 10:00:00,19.1653323,72.922099,PM2.5,NA,NA,NA
India,Maharashtra,Mumbai,"Khindipada-Bhandup West, Mumbai - IITM",19-03-2024 10:00:00,19.1653323,72.922099,SO2,NA,NA,NA
India,Maharashtra,Mumbai,"Kurla, Mumbai - MPCB",19-03-2024 10:00:00,19.0863,72.8888,NO2,14,34,23
India,Maharashtra,Mumbai,"Kurla, Mumbai - MPCB",19-03-2024 10:00:00,19.0863,72.8888,NH3,2,6,3
India,Maharashtra,Mumbai,"Mazgaon, Mumbai - IITM",19-03-2024 10:00:00,18.96702,72.84214,PM10,82,131,108
India,Maharashtra,Mumbai,"Powai, Mumbai - MPCB",19-03-2024 10:00:00,19.137500,72.915056,NO2,19,36,26
India,Maharashtra,Mumbai,"Sewri, Mumbai - BMC",19-03-2024 10:00:00,19.000084,72.856730,NH3,5,9,8
India,Maharashtra,Mumbai,"Sewri, Mumbai - BMC",19-03-2024 10:00:00,19.000084,72.856730,SO2,4,25,10
India,Maharashtra,Mumbai,"Sion, Mumbai - MPCB",19-03-2024 10:00:00,19.047000,72.874600,NH3,1,1,1
India,Maharashtra,Mumbai,"Vasai West, Mumbai - MPCB",19-03-2024 10:00:00,19.383200,72.820400,CO,51,78,68
India,Maharashtra,Mumbai,"Vile Parle West, Mumbai - MPCB",19-03-2024 10:00:00,19.10861,72.83622,SO2,13,15,13
India,Maharashtra,Mumbai,"Vile Parle West, Mumbai - MPCB",19-03-2024 10:00:00,19.10861,72.83622,CO,42,43,42
India,Maharashtra,Nagpur,"Ambazari, Nagpur - MPCB",19-03-2024 10:00:00,21.121801,79.04952,PM10,45,115,80
India,Maharashtra,Nagpur,"Ambazari, Nagpur - MPCB",19-03-2024 10:00:00,21.121801,79.04952,SO2,9,46,21
India,Maharashtra,Nagpur,"Ambazari, Nagpur - MPCB",19-03-2024 10:00:00,21.121801,79.04952,OZONE,10,90,40
India,Maharashtra,Nagpur,"Mahal, Nagpur - MPCB",19-03-2024 10:00:00,21.14472,79.107595,PM2.5,54,93,74
India,Maharashtra,Nagpur,"Opp GPO Civil Lines, Nagpur - MPCB",19-03-2024 10:00:00,21.152875,79.0517531,NH3,4,10,6
India,Maharashtra,Nanded,"Sneh Nagar, Nanded - MPCB",19-03-2024 10:00:00,19.173852,77.296291,PM2.5,98,226,157
India,Maharashtra,Nashik,"Gangapur Road, Nashik - MPCB",19-03-2024 10:00:00,20.0073285,73.7762427,NO2,11,25,16
India,Maharashtra,Nashik,"Gangapur Road, Nashik - MPCB",19-03-2024 10:00:00,20.0073285,73.7762427,NH3,1,3,1
India,Maharashtra,Nashik,"Gangapur Road, Nashik - MPCB",19-03-2024 10:00:00,20.0073285,73.7762427,SO2,2,9,4
India,Maharashtra,Nashik,"Gangapur Road, Nashik - MPCB",19-03-2024 10:00:00,20.0073285,73.7762427,CO,22,23,23
India,Maharashtra,Nashik,"Hirawadi, Nashik - MPCB",19-03-2024 10:00:00,20.021503,73.813844,NH3,1,2,1
India,Maharashtra,Nashik,"Hirawadi, Nashik - MPCB",19-03-2024 10:00:00,20.021503,73.813844,CO,6,28,19
India,Maharashtra,Nashik,"Pandav Nagari, Nashik - MPCB",19-03-2024 10:00:00,19.9591346,73.7788008,NH3,3,4,3
India,Maharashtra,Nashik,"Pandav Nagari, Nashik - MPCB",19-03-2024 10:00:00,19.9591346,73.7788008,SO2,8,33,16
India,Maharashtra,Nashik,"Pandav Nagari, Nashik - MPCB",19-03-2024 10:00:00,19.9591346,73.7788008,OZONE,13,92,20
India,Maharashtra,Navi Mumbai,"Kopripada-Vashi, Navi Mumbai - MPCB",19-03-2024 10:00:00,19.090337,73.014232,CO,12,48,31
India,Maharashtra,Navi Mumbai,"Kopripada-Vashi, Navi Mumbai - MPCB",19-03-2024 10:00:00,19.090337,73.014232,OZONE,19,117,28
India,Maharashtra,Navi Mumbai,"Mahape, Navi Mumbai - MPCB",19-03-2024 10:00:00,19.1135051,73.008978,SO2,26,27,26
India,Maharashtra,Navi Mumbai,"Nerul, Navi Mumbai - MPCB",19-03-2024 10:00:00,19.008751,73.016620,PM2.5,71,147,97
India,Maharashtra,Navi Mumbai,"Nerul, Navi Mumbai - MPCB",19-03-2024 10:00:00,19.008751,73.016620,NH3,2,3,2
India,Maharashtra,Navi Mumbai,"Sanpada, Navi Mumbai - MPCB",19-03-2024 10:00:00,19.0575752,73.0151367,SO2,1,36,11
India,Maharashtra,Navi Mumbai,"Sanpada, Navi Mumbai - MPCB",19-03-2024 10:00:00,19.0575752,73.0151367,OZONE,4,39,13
India,Maharashtra,Navi Mumbai,"Sector-2E Kalamboli, Navi Mumbai - MPCB",19-03-2024 10:00:00,19.02579,73.10297,NO2,23,62,41
India,Maharashtra,Navi Mumbai,"Sector-2E Kalamboli, Navi Mumbai - MPCB",19-03-2024 10:00:00,19.02579,73.10297,OZONE,NA,NA,NA
India,Maharashtra,Navi Mumbai,"Tondare-Taloja, Navi Mumbai - MPCB",19-03-2024 10:00:00,19.0630,73.1209,SO2,1,58,27
India,Maharashtra,Navi Mumbai,"Tondare-Taloja, Navi Mumbai - MPCB",19-03-2024 10:00:00,19.0630,73.1209,CO,10,37,21
India,Maharashtra,Parbhani,"Masoom Colony, Parbhani - MPCB",19-03-2024 10:00:00,19.265594,76.761463,PM2.5,19,298,154
India,Maharashtra,Parbhani,"Masoom Colony, Parbhani - MPCB",19-03-2024 10:00:00,19.265594,76.761463,NO2,14,50,26
India,Maharashtra,Pimpri-Chinchwad,"Gavalinagar, Pimpri Chinchwad - MPCB",19-03-2024 10:00:00,18.63673,73.82487,SO2,6,21,12
India,Maharashtra,Pimpri-Chinchwad,"Park Street Wakad, Pimpri Chinchwad - MPCB",19-03-2024 10:00:00,18.59051,73.77946,PM2.5,NA,NA,NA
India,Maharashtra,Pune,"Karve Road, Pune - MPCB",19-03-2024 10:00:00,18.5011743,73.8165527,PM10,107,111,111
India,Maharashtra,Pune,"Katraj Dairy, Pune - MPCB",19-03-2024 10:00:00,18.454450,73.854155,NO2,15,47,29
India,Maharashtra,Pune,"Katraj Dairy, Pune - MPCB",19-03-2024 10:00:00,18.454450,73.854155,NH3,5,7,6
India,Maharashtra,Pune,"Katraj Dairy, Pune - MPCB",19-03-2024 10:00:00,18.454450,73.854155,SO2,2,13,5
India,Maharashtra,Pune,"Katraj Dairy, Pune - MPCB",19-03-2024 10:00:00,18.454450,73.854155,OZONE,26,59,38
India,Maharashtra,Pune,"Revenue Colony-Shivajinagar, Pune - IITM",19-03-2024 10:00:00,18.530085,73.849598,PM2.5,36,105,66
India,Maharashtra,Pune,"Revenue Colony-Shivajinagar, Pune - IITM",19-03-2024 10:00:00,18.530085,73.849598,OZONE,2,54,17
India,Maharashtra,Pune,"Savitribai Phule Pune University, Pune - MPCB",19-03-2024 10:00:00,18.547056,73.826908,NO2,1,18,2
India,Maharashtra,Sangli,"Vijay Nagar, Sangli - MPCB",19-03-2024 10:00:00, 16.5038,74.3623,PM2.5,58,218,98
India,Maharashtra,Sangli,"Vijay Nagar, Sangli - MPCB",19-03-2024 10:00:00, 16.5038,74.3623,NO2,19,52,34
India,Maharashtra,Sangli,"Vijay Nagar, Sangli - MPCB",19-03-2024 10:00:00, 16.5038,74.3623,NH3,1,3,2
India,Maharashtra,Solapur,"Ratandeep Housing Society, Solapur - MPCB",19-03-2024 10:00:00,17.65439,75.90649,SO2,1,10,4
India,Maharashtra,Solapur,"Ratandeep Housing Society, Solapur - MPCB",19-03-2024 10:00:00,17.65439,75.90649,CO,18,94,26
India,Maharashtra,Ulhasnagar,"Sidhi Vinayak Nagar, Ulhasnagar - MPCB",19-03-2024 10:00:00,19.235581,73.159121,PM10,106,133,119
India,Maharashtra,Ulhasnagar,"Sidhi Vinayak Nagar, Ulhasnagar - MPCB",19-03-2024 10:00:00,19.235581,73.159121,NH3,2,4,2
India,Maharashtra,Virar,"Bolinj, Virar - MPCB",19-03-2024 10:00:00,19.4458210,72.7988231,PM2.5,69,216,107
India,Manipur,Imphal,"DM College of Science, Imphal - Manipur PCB",19-03-2024 10:00:00,24.8207389,93.9423085,NH3,2,2,2
India,Manipur,Imphal,"Manipur University, Imphal - Manipur PCB",19-03-2024 10:00:00,24.7524239,93.9286218,OZONE,1,68,6
India,Meghalaya,Shillong,"Lumpyngngad, Shillong - Meghalaya PCB",19-03-2024 10:00:00,25.5586,91.8985,SO2,39,44,41
India,Mizoram,Aizawl,"Sikulpuikawn, Aizawl - Mizoram PCB",19-03-2024 10:00:00,23.7176342,92.7192841,PM2.5,44,105,67
India,Mizoram,Aizawl,"Sikulpuikawn, Aizawl - Mizoram PCB",19-03-2024 10:00:00,23.7176342,92.7192841,NO2,1,9,3
India,Mizoram,Aizawl,"Sikulpuikawn, Aizawl - Mizoram PCB",19-03-2024 10:00:00,23.7176342,92.7192841,NH3,NA,NA,NA
India,Mizoram,Aizawl,"Sikulpuikawn, Aizawl - Mizoram PCB",19-03-2024 10:00:00,23.7176342,92.7192841,SO2,2,2,2
India,Mizoram,Aizawl,"Sikulpuikawn, Aizawl - Mizoram PCB",19-03-2024 10:00:00,23.7176342,92.7192841,OZONE,NA,NA,NA
India,Nagaland,Kohima,"PWD Juction, Kohima - NPCB",19-03-2024 10:00:00,25.6635413,94.0989878,NO2,3,4,4
India,Nagaland,Kohima,"PWD Juction, Kohima - NPCB",19-03-2024 10:00:00,25.6635413,94.0989878,NH3,1,1,1
India,Nagaland,Kohima,"PWD Juction, Kohima - NPCB",19-03-2024 10:00:00,25.6635413,94.0989878,SO2,30,31,30
India,Nagaland,Kohima,"PWD Juction, Kohima - NPCB",19-03-2024 10:00:00,25.6635413,94.0989878,OZONE,14,41,20
India,Odisha,Barbil,"Forest Office, Barbil - OSPCB",19-03-2024 10:00:00,22.1166054,85.3945546,NO2,4,9,6
India,Odisha,Barbil,"Forest Office, Barbil - OSPCB",19-03-2024 10:00:00,22.1166054,85.3945546,OZONE,26,92,59
India,Odisha,Baripada,"Meher Colony, Baripada - OSPCB",19-03-2024 10:00:00,21.941841,86.728318,SO2,NA,NA,NA
India,Odisha,Baripada,"Meher Colony, Baripada - OSPCB",19-03-2024 10:00:00,21.941841,86.728318,OZONE,NA,NA,NA
India,Odisha,Bhubaneswar,"Lingraj Mandir, Bhubaneswar - OSPCB",19-03-2024 10:00:00,20.240790,85.836784,SO2,1,15,7
India,Odisha,Bhubaneswar,"Patia, Bhubaneswar - OSPCB",19-03-2024 10:00:00,20.34652,85.81630,PM10,20,128,83
India,Odisha,Bileipada,"Tata Township, Bileipada - OSPCB",19-03-2024 10:00:00,22.06156703,85.47409613,PM10,68,130,99
India,Odisha,Bileipada,"Tata Township, Bileipada - OSPCB",19-03-2024 10:00:00,22.06156703,85.47409613,NH3,11,11,11
India,Odisha,Brajrajnagar,"GM Office, Brajrajnagar - OSPCB",19-03-2024 10:00:00,21.8004996,83.8396977,PM2.5,3,118,33
India,Odisha,Byasanagar,"Ferro Chrome Colony, Byasanagar - OSPCB",19-03-2024 10:00:00,20.94185,86.11510,NO2,10,36,18
India,Odisha,Byasanagar,"Ferro Chrome Colony, Byasanagar - OSPCB",19-03-2024 10:00:00,20.94185,86.11510,CO,66,102,82
India,Odisha,Cuttack,"CDA Area, Cuttack - OSPCB",19-03-2024 10:00:00,20.48891     ,85.84768     ,SO2,1,34,7
India,Odisha,Cuttack,"CDA Area, Cuttack - OSPCB",19-03-2024 10:00:00,20.48891     ,85.84768     ,CO,20,62,25
India,Odisha,Nayagarh,"Dabuna, Nayagarh - OSPCB",19-03-2024 10:00:00,21.847279,85.416905,PM2.5,29,94,54
India,Odisha,Rairangpur,"Divisional Forest Office, Rairangpur - OSPCB",19-03-2024 10:00:00,22.265816,86.174829,OZONE,11,32,17
India,Odisha,Rourkela,"Sector-2, Rourkela - OSPCB",19-03-2024 10:00:00,22.24500000,84.88111111,PM10,47,115,75
India,Odisha,Talcher,"Talcher Coalfields,Talcher - OSPCB",19-03-2024 10:00:00,20.9360711,85.1707021,NO2,36,60,43
India,Odisha,Talcher,"Talcher Coalfields,Talcher - OSPCB",19-03-2024 10:00:00,20.9360711,85.1707021,NH3,6,7,7
India,Odisha,Talcher,"Talcher Coalfields,Talcher - OSPCB",19-03-2024 10:00:00,20.9360711,85.1707021,OZONE,2,23,5
India,Punjab,Amritsar,"Golden Temple, Amritsar - PPCB",19-03-2024 10:00:00,31.620000,74.876512,SO2,6,57,21
India,Punjab,Amritsar,"Golden Temple, Amritsar - PPCB",19-03-2024 10:00:00,31.620000,74.876512,OZONE,45,68,56
India,Punjab,Bathinda,"Hardev Nagar, Bathinda - PPCB",19-03-2024 10:00:00,30.233011,74.907758,SO2,3,22,13
India,Punjab,Bathinda,"Hardev Nagar, Bathinda - PPCB",19-03-2024 10:00:00,30.233011,74.907758,CO,2,78,25
India,Punjab,Jalandhar,"Civil Line, Jalandhar - PPCB",19-03-2024 10:00:00,31.321907,75.578914,PM2.5,71,189,124
India,Punjab,Jalandhar,"Civil Line, Jalandhar - PPCB",19-03-2024 10:00:00,31.321907,75.578914,NO2,32,35,33
India,Punjab,Jalandhar,"Civil Line, Jalandhar - PPCB",19-03-2024 10:00:00,31.321907,75.578914,SO2,8,24,13
India,Punjab,Jalandhar,"Civil Line, Jalandhar - PPCB",19-03-2024 10:00:00,31.321907,75.578914,CO,14,116,48
India,Punjab,Ludhiana,"Punjab Agricultural University, Ludhiana - PPCB",19-03-2024 10:00:00,30.9028,75.8086,NO2,22,23,23
India,Punjab,Mandi Gobindgarh,"RIMT University, Mandi Gobindgarh - PPCB",19-03-2024 10:00:00,30.649961,76.331442,SO2,4,45,16
India,Punjab,Mandi Gobindgarh,"RIMT University, Mandi Gobindgarh - PPCB",19-03-2024 10:00:00,30.649961,76.331442,CO,15,39,31
India,Punjab,Patiala,"Model Town, Patiala - PPCB",19-03-2024 10:00:00,30.349388,76.366642,PM10,67,319,107
India,Punjab,Patiala,"Model Town, Patiala - PPCB",19-03-2024 10:00:00,30.349388,76.366642,NO2,24,29,26
India,Punjab,Patiala,"Model Town, Patiala - PPCB",19-03-2024 10:00:00,30.349388,76.366642,NH3,6,6,6
India,Punjab,Patiala,"Model Town, Patiala - PPCB",19-03-2024 10:00:00,30.349388,76.366642,OZONE,21,103,34
India,Punjab,Rupnagar,"Ratanpura, Rupnagar - Ambuja Cements",19-03-2024 10:00:00,31.0325454,76.5623046,PM10,37,402,162
India,Punjab,Rupnagar,"Ratanpura, Rupnagar - Ambuja Cements",19-03-2024 10:00:00,31.0325454,76.5623046,SO2,7,11,9
India,Rajasthan,Ajmer,"Civil Lines,  Ajmer - RSPCB",19-03-2024 10:00:00,26.470859,74.646594,OZONE,17,84,31
India,Rajasthan,Alwar,"Moti Doongri, Alwar - RSPCB",19-03-2024 10:00:00,27.554793,76.611536,NO2,40,55,47
India,Rajasthan,Alwar,"Moti Doongri, Alwar - RSPCB",19-03-2024 10:00:00,27.554793,76.611536,OZONE,15,27,21
India,Rajasthan,Banswara,"Rati Talai, Banswara - RSPCB",19-03-2024 10:00:00,23.555190,74.440010,SO2,12,52,29
India,Rajasthan,Banswara,"Rati Talai, Banswara - RSPCB",19-03-2024 10:00:00,23.555190,74.440010,CO,16,81,27
India,Rajasthan,Baran,"Bamboliya, Baran - RSPCB",19-03-2024 10:00:00,25.106006,76.469948,SO2,8,16,11
India,Rajasthan,Bharatpur,"Krishna Nagar, Bharatpur - RSPCB",19-03-2024 10:00:00,27.215415,77.50873,PM2.5,40,211,108
India,Rajasthan,Bhilwara,"Pratap Nagar, Bhilwara - RSPCB",19-03-2024 10:00:00,25.339605,74.618883,PM2.5,42,337,157
India,Rajasthan,Bhilwara,"Pratap Nagar, Bhilwara - RSPCB",19-03-2024 10:00:00,25.339605,74.618883,NO2,16,102,46
India,Rajasthan,Bhilwara,"Pratap Nagar, Bhilwara - RSPCB",19-03-2024 10:00:00,25.339605,74.618883,OZONE,4,86,22
India,Rajasthan,Bhiwadi,"RIICO Ind. Area III, Bhiwadi - RSPCB",19-03-2024 10:00:00,28.194909,76.862296,PM2.5,44,327,198
India,Rajasthan,Bhiwadi,"RIICO Ind. Area III, Bhiwadi - RSPCB",19-03-2024 10:00:00,28.194909,76.862296,NO2,11,35,22
India,Rajasthan,Bhiwadi,"RIICO Ind. Area III, Bhiwadi - RSPCB",19-03-2024 10:00:00,28.194909,76.862296,NH3,3,10,6
India,Rajasthan,Bhiwadi,"Vasundhara Nagar_UIT, Bhiwadi - RSPCB",19-03-2024 10:00:00,28.207266,76.829265,CO,16,54,49
India,Rajasthan,Bikaner,"MM Ground, Bikaner - RSPCB",19-03-2024 10:00:00,28.018792,73.292658,NO2,16,107,50
India,Rajasthan,Bikaner,"MM Ground, Bikaner - RSPCB",19-03-2024 10:00:00,28.018792,73.292658,CO,16,138,37
India,Rajasthan,Bundi,"New Colony, Bundi - RSPCB",19-03-2024 10:00:00,25.435774,75.644272,SO2,3,14,6
India,Rajasthan,Bundi,"New Colony, Bundi - RSPCB",19-03-2024 10:00:00,25.435774,75.644272,CO,9,83,17
India,Rajasthan,Chittorgarh,"Shastri Nagar, Chittorgarh - RSPCB",19-03-2024 10:00:00,24.892047,74.623527,SO2,4,112,24
India,Rajasthan,Chittorgarh,"Shastri Nagar, Chittorgarh - RSPCB",19-03-2024 10:00:00,24.892047,74.623527,CO,12,78,41
India,Rajasthan,Churu,"Subash Chowk, Churu - RSPCB",19-03-2024 10:00:00,28.296139,74.961696,PM10,59,174,95
India,Rajasthan,Churu,"Subash Chowk, Churu - RSPCB",19-03-2024 10:00:00,28.296139,74.961696,NO2,2,41,18
India,Rajasthan,Dausa,"Khatikan Mohalla, Dausa - RSPCB",19-03-2024 10:00:00,26.895552,76.334753,PM10,80,436,144
India,Rajasthan,Dholpur,"Raja Ganj, Dholpur - RSPCB",19-03-2024 10:00:00,26.699557,77.898881,CO,14,50,33
India,Rajasthan,Dungarpur,"Bhoiwada, Dungarpur - RSPCB",19-03-2024 10:00:00,23.837789,73.714926,OZONE,6,96,27
India,Rajasthan,Hanumangarh,"Housing Board, Hanumangarh - RSPCB",19-03-2024 10:00:00,29.610750,74.283608,SO2,5,83,16
India,Rajasthan,Jaipur,"Mansarovar Sector-12, Jaipur - RSPCB",19-03-2024 10:00:00,26.843698,75.766894,PM2.5,12,178,67
India,Rajasthan,Jaipur,"Mansarovar Sector-12, Jaipur - RSPCB",19-03-2024 10:00:00,26.843698,75.766894,NO2,29,114,52
India,Rajasthan,Jaipur,"Mansarovar Sector-12, Jaipur - RSPCB",19-03-2024 10:00:00,26.843698,75.766894,NH3,5,19,9
India,Rajasthan,Jaipur,"Mansarovar Sector-12, Jaipur - RSPCB",19-03-2024 10:00:00,26.843698,75.766894,OZONE,2,12,7
India,Rajasthan,Jaipur,"Sector-2 Murlipura, Jaipur - RSPCB",19-03-2024 10:00:00,26.960669,75.771817,OZONE,13,100,52
India,Rajasthan,Jaisalmer,"Sadar Bazar, Jaisalmer - RSPCB",19-03-2024 10:00:00,26.912329,70.909168,PM2.5,11,286,73
India,Rajasthan,Jaisalmer,"Sadar Bazar, Jaisalmer - RSPCB",19-03-2024 10:00:00,26.912329,70.909168,NO2,16,117,48
India,Rajasthan,Jalore,"Mudtra Sili, Jalore - RSPCB",19-03-2024 10:00:00,25.344694,72.626208,PM2.5,21,306,86
India,Rajasthan,Jalore,"Mudtra Sili, Jalore - RSPCB",19-03-2024 10:00:00,25.344694,72.626208,SO2,4,10,6
India,Rajasthan,Jhalawar,"Rajlaxmi Nagar, Jhalawar - RSPCB",19-03-2024 10:00:00,24.588397,76.172782,PM10,79,165,108
India,Rajasthan,Jhunjhunu,"Indra Nagar, Jhunjhunu - RSPCB",19-03-2024 10:00:00,28.108988,75.386577,PM2.5,13,237,67
India,Rajasthan,Jodhpur,"Digari Kalan, Jodhpur - RSPCB",19-03-2024 10:00:00,26.295810,73.082283,NH3,6,19,10
India,Rajasthan,Jodhpur,"Digari Kalan, Jodhpur - RSPCB",19-03-2024 10:00:00,26.295810,73.082283,OZONE,1,124,17
India,Rajasthan,Jodhpur,"Samrat Ashok Udhyan, Jodhpur - RSPCB",19-03-2024 10:00:00,26.253384,72.976571,NO2,4,130,69
India,Rajasthan,Jodhpur,"Samrat Ashok Udhyan, Jodhpur - RSPCB",19-03-2024 10:00:00,26.253384,72.976571,NH3,3,28,8
India,Rajasthan,Jodhpur,"Samrat Ashok Udhyan, Jodhpur - RSPCB",19-03-2024 10:00:00,26.253384,72.976571,CO,16,122,85
India,Rajasthan,Karauli,"Satyawati Vihar, Karauli - RSPCB",19-03-2024 10:00:00,26.506177,77.025989,PM2.5,8,57,30
India,Rajasthan,Karauli,"Satyawati Vihar, Karauli - RSPCB",19-03-2024 10:00:00,26.506177,77.025989,NO2,11,46,24
India,Rajasthan,Karauli,"Satyawati Vihar, Karauli - RSPCB",19-03-2024 10:00:00,26.506177,77.025989,NH3,2,7,4
India,Rajasthan,Kota,"Dhanmandi, Kota - RSPCB",19-03-2024 10:00:00,25.164090,75.858137,PM10,70,259,135
India,Rajasthan,Kota,"Dhanmandi, Kota - RSPCB",19-03-2024 10:00:00,25.164090,75.858137,NO2,17,166,74
India,Rajasthan,Kota,"Dhanmandi, Kota - RSPCB",19-03-2024 10:00:00,25.164090,75.858137,CO,22,142,51
India,Rajasthan,Kota,"Shrinath Puram, Kota - RSPCB",19-03-2024 10:00:00,25.14389,75.821256,PM10,52,167,103
India,Rajasthan,Kota,"Shrinath Puram, Kota - RSPCB",19-03-2024 10:00:00,25.14389,75.821256,NO2,3,113,41
India,Rajasthan,Nagaur,"Karni Colony, Nagaur - RSPCB",19-03-2024 10:00:00,27.213494,73.734444,CO,15,40,26
India,Rajasthan,Pali,"Indira Colony Vistar, Pali - RSPCB",19-03-2024 10:00:00,25.771061, 73.340227,NH3,1,12,6
India,Rajasthan,Pali,"Indira Colony Vistar, Pali - RSPCB",19-03-2024 10:00:00,25.771061, 73.340227,SO2,6,13,9
India,Rajasthan,Pratapgarh,"Pragati Nagar, Pratapgarh - RSPCB",19-03-2024 10:00:00,24.041198,74.780702,NO2,9,40,18
India,Rajasthan,Rajsamand,"Dhoinda, Rajsamand - RSPCB",19-03-2024 10:00:00,25.036360,73.883502,PM10,30,172,65
India,Rajasthan,Rajsamand,"Dhoinda, Rajsamand - RSPCB",19-03-2024 10:00:00,25.036360,73.883502,OZONE,30,75,51
India,Rajasthan,Sawai Madhopur,"Sahu Nagar, Sawai Madhopur - RSPCB",19-03-2024 10:00:00,26.031443,76.359327,NO2,1,80,22
India,Rajasthan,Sikar,"Radhakishan Pura, Sikar - RSPCB",19-03-2024 10:00:00,27.608912,75.153302,PM2.5,27,307,98
India,Rajasthan,Sikar,"Radhakishan Pura, Sikar - RSPCB",19-03-2024 10:00:00,27.608912,75.153302,PM10,59,430,135
India,Rajasthan,Sirohi,"Vedhaynath Colony, Sirohi - RSPCB",19-03-2024 10:00:00,24.885261,72.857549,CO,16,97,40
India,Rajasthan,Tonk,"Shastri Nagar, Tonk - RSPCB",19-03-2024 10:00:00,26.159933,75.780517,PM10,50,421,153
India,Rajasthan,Tonk,"Shastri Nagar, Tonk - RSPCB",19-03-2024 10:00:00,26.159933,75.780517,SO2,3,10,6
India,Rajasthan,Udaipur,"Ashok Nagar, Udaipur - RSPCB",19-03-2024 10:00:00,24.5886166,73.6321397,NH3,7,10,8
India,TamilNadu,Ariyalur,"Keelapalur, Ariyalur - TNPCB",19-03-2024 10:00:00,11.06825,79.07033,SO2,34,37,36
India,TamilNadu,Chennai,"Alandur Bus Depot, Chennai - CPCB",19-03-2024 10:00:00,12.9099161,80.1076538,CO,90,105,102
India,TamilNadu,Chennai,"Arumbakkam, Chennai - TNPCB",19-03-2024 10:00:00,13.0664,80.2112 ,NO2,6,28,14
India,TamilNadu,Chennai,"Arumbakkam, Chennai - TNPCB",19-03-2024 10:00:00,13.0664,80.2112 ,SO2,1,6,4
India,TamilNadu,Chennai,"Kodungaiyur, Chennai - TNPCB",19-03-2024 10:00:00,13.1278,80.2642,PM2.5,6,36,17
India,TamilNadu,Chennai,"Kodungaiyur, Chennai - TNPCB",19-03-2024 10:00:00,13.1278,80.2642,NH3,2,4,3
India,TamilNadu,Chennai,"Kodungaiyur, Chennai - TNPCB",19-03-2024 10:00:00,13.1278,80.2642,SO2,1,9,5
India,TamilNadu,Chennai,"Manali, Chennai - CPCB",19-03-2024 10:00:00,13.164544,80.26285,NO2,7,11,8
India,TamilNadu,Chennai,"Perungudi, Chennai - TNPCB",19-03-2024 10:00:00,12.9533,80.2357,OZONE,3,6,4
India,TamilNadu,Chennai,"Royapuram, Chennai - TNPCB",19-03-2024 10:00:00,13.1036,80.2909,NO2,18,25,22
India,TamilNadu,Chennai,"Royapuram, Chennai - TNPCB",19-03-2024 10:00:00,13.1036,80.2909,NH3,NA,NA,NA
India,TamilNadu,Chennai,"Velachery Res. Area, Chennai - CPCB",19-03-2024 10:00:00,13.0052189,80.2398125,OZONE,4,9,7
India,TamilNadu,Cuddalore,"Kudikadu, Cuddalore - TNPCB",19-03-2024 10:00:00,11.6829898,79.7532099,SO2,11,14,13
India,TamilNadu,Gummidipoondi,"Anthoni Pillai Nagar, Gummidipoondi - TNPCB",19-03-2024 10:00:00,13.4127,80.1081,PM2.5,10,141,53
India,TamilNadu,Gummidipoondi,"Anthoni Pillai Nagar, Gummidipoondi - TNPCB",19-03-2024 10:00:00,13.4127,80.1081,NH3,1,2,2
India,TamilNadu,Ooty,"Bombay Castel, Ooty - TNPCB",19-03-2024 10:00:00,11.4068288,76.7138973,PM2.5,12,177,50
India,TamilNadu,Ooty,"Bombay Castel, Ooty - TNPCB",19-03-2024 10:00:00,11.4068288,76.7138973,NH3,NA,NA,NA
India,TamilNadu,Ooty,"Bombay Castel, Ooty - TNPCB",19-03-2024 10:00:00,11.4068288,76.7138973,CO,17,22,22
India,TamilNadu,Ooty,"Bombay Castel, Ooty - TNPCB",19-03-2024 10:00:00,11.4068288,76.7138973,OZONE,5,6,5
India,TamilNadu,Palkalaiperur,"Bharathidasan University, Palkalaiperur - TNPCB",19-03-2024 10:00:00,10.681158,78.741746,SO2,NA,NA,NA
India,TamilNadu,Palkalaiperur,"Bharathidasan University, Palkalaiperur - TNPCB",19-03-2024 10:00:00,10.681158,78.741746,CO,NA,NA,NA
India,TamilNadu,Ramanathapuram,"Chalai Bazaar, Ramanathapuram - TNPCB",19-03-2024 10:00:00,9.36399,78.831977,SO2,NA,NA,NA
India,TamilNadu,Thoothukudi,"Meelavittan, Thoothukudi - TNPCB",19-03-2024 10:00:00,8.816428 ,78.099039,CO,1,92,16
India,TamilNadu,Tirupur,"Kumaran College, Tirupur - TNPCB",19-03-2024 10:00:00,11.0973603,77.3228673,CO,32,101,44
India,TamilNadu,Vellore,"Vasanthapuram, Vellore - TNPCB",19-03-2024 10:00:00,12.909494,79.131861,NO2,2,12,7
India,Telangana,Hyderabad,"Bollaram Industrial Area, Hyderabad - TSPCB",19-03-2024 10:00:00,17.540891,78.358528,OZONE,35,39,36
India,Telangana,Hyderabad,"ECIL Kapra, Hyderabad - TSPCB",19-03-2024 10:00:00,17.470431,78.566959,NO2,9,10,9
India,Telangana,Hyderabad,"ICRISAT Patancheru, Hyderabad - TSPCB",19-03-2024 10:00:00,17.518400,78.278777,NO2,16,18,16
India,Telangana,Hyderabad,"ICRISAT Patancheru, Hyderabad - TSPCB",19-03-2024 10:00:00,17.518400,78.278777,SO2,15,35,22
India,Telangana,Hyderabad,"IITH Kandi, Hyderabad - TSPCB",19-03-2024 10:00:00,17.585705,78.126199,SO2,NA,NA,NA
India,Telangana,Hyderabad,"Nacharam_TSIIC IALA, Hyderabad - TSPCB",19-03-2024 10:00:00,17.429398,78.569354,PM2.5,65,73,67
India,Telangana,Hyderabad,"Nacharam_TSIIC IALA, Hyderabad - TSPCB",19-03-2024 10:00:00,17.429398,78.569354,PM10,58,78,66
India,Telangana,Hyderabad,"Nacharam_TSIIC IALA, Hyderabad - TSPCB",19-03-2024 10:00:00,17.429398,78.569354,CO,13,26,26
India,Telangana,Hyderabad,"New Malakpet, Hyderabad - TSPCB",19-03-2024 10:00:00,17.37206,78.50864,PM2.5,17,58,37
India,Telangana,Hyderabad,"New Malakpet, Hyderabad - TSPCB",19-03-2024 10:00:00,17.37206,78.50864,PM10,57,80,68
India,Telangana,Hyderabad,"Ramachandrapuram, Hyderabad - TSPCB",19-03-2024 10:00:00,17.528544,78.286195,NO2,11,12,12
India,Telangana,Hyderabad,"Ramachandrapuram, Hyderabad - TSPCB",19-03-2024 10:00:00,17.528544,78.286195,CO,10,50,34
India,Telangana,Hyderabad,"Somajiguda, Hyderabad - TSPCB",19-03-2024 10:00:00,17.417094,78.457437,OZONE,10,25,13
India,Tripura,Agartala,"Bardowali, Agartala - Tripura SPCB",19-03-2024 10:00:00,23.8175497,91.2726974,NO2,7,14,10
India,Uttar_Pradesh,Agra,"Sanjay Palace, Agra - UPPCB",19-03-2024 10:00:00,27.19865833,78.00598056,PM10,28,80,56
India,Uttar_Pradesh,Agra,"Sector-3B Avas Vikas Colony, Agra - UPPCB",19-03-2024 10:00:00,27.19412,77.96237,NO2,6,24,15
India,Uttar_Pradesh,Agra,"Sector-3B Avas Vikas Colony, Agra - UPPCB",19-03-2024 10:00:00,27.19412,77.96237,NH3,3,7,4
India,Uttar_Pradesh,Agra,"Sector-3B Avas Vikas Colony, Agra - UPPCB",19-03-2024 10:00:00,27.19412,77.96237,OZONE,2,7,3
India,Uttar_Pradesh,Agra,"Shastripuram, Agra - UPPCB",19-03-2024 10:00:00,27.19862,77.92066,NH3,NA,NA,NA
India,Uttar_Pradesh,Agra,"Shastripuram, Agra - UPPCB",19-03-2024 10:00:00,27.19862,77.92066,SO2,15,18,16
India,Uttar_Pradesh,Baghpat,"Sardar Patel Inter College, Baghpat - UPPCB",19-03-2024 10:00:00,28.964949,77.278761,NH3,3,19,14
India,Uttar_Pradesh,Baghpat,"Sardar Patel Inter College, Baghpat - UPPCB",19-03-2024 10:00:00,28.964949,77.278761,SO2,18,117,51
India,Uttar_Pradesh,Baghpat,"Sardar Patel Inter College, Baghpat - UPPCB",19-03-2024 10:00:00,28.964949,77.278761,OZONE,1,70,24
India,Uttar_Pradesh,Bareilly,"Civil Lines, Bareilly - UPPCB",19-03-2024 10:00:00,28.359581,79.414455,NO2,13,47,20
India,Uttar_Pradesh,Bareilly,"Civil Lines, Bareilly - UPPCB",19-03-2024 10:00:00,28.359581,79.414455,SO2,43,45,44
India,Uttar_Pradesh,Firozabad,"Nagla Bhau, Firozabad - UPPCB",19-03-2024 10:00:00,27.168897,78.376960,SO2,28,36,32
India,Uttar_Pradesh,Ghaziabad,"Indirapuram, Ghaziabad - UPPCB",19-03-2024 10:00:00,28.646233,77.358075,PM10,90,330,181
India,Uttar_Pradesh,Ghaziabad,"Indirapuram, Ghaziabad - UPPCB",19-03-2024 10:00:00,28.646233,77.358075,NO2,50,108,77
India,Uttar_Pradesh,Ghaziabad,"Loni, Ghaziabad - UPPCB",19-03-2024 10:00:00,28.757294,77.278792,NO2,14,66,42
India,Uttar_Pradesh,Ghaziabad,"Loni, Ghaziabad - UPPCB",19-03-2024 10:00:00,28.757294,77.278792,OZONE,2,180,13
India,Uttar_Pradesh,Ghaziabad,"Vasundhara, Ghaziabad - UPPCB",19-03-2024 10:00:00,28.6603346,77.3572563,PM10,66,230,134
India,Uttar_Pradesh,Gorakhpur,"Madan Mohan Malaviya University of Technology, Gorakhpur - UPPCB",19-03-2024 10:00:00,26.730136,83.433859,CO,18,40,39
India,Uttar_Pradesh,Greater Noida,"Knowledge Park - III, Greater Noida - UPPCB",19-03-2024 10:00:00,28.47272,77.482000,NH3,7,10,8
India,Uttar_Pradesh,Greater Noida,"Knowledge Park - V, Greater Noida - UPPCB",19-03-2024 10:00:00,28.557054,77.453663,PM2.5,62,376,182
India,Uttar_Pradesh,Greater Noida,"Knowledge Park - V, Greater Noida - UPPCB",19-03-2024 10:00:00,28.557054,77.453663,SO2,14,54,26
India,Uttar_Pradesh,Greater Noida,"Knowledge Park - V, Greater Noida - UPPCB",19-03-2024 10:00:00,28.557054,77.453663,CO,4,69,43
India,Uttar_Pradesh,Hapur,"Anand Vihar, Hapur - UPPCB",19-03-2024 10:00:00,28.725645,77.749675,SO2,17,134,77
India,Uttar_Pradesh,Hapur,"Anand Vihar, Hapur - UPPCB",19-03-2024 10:00:00,28.725645,77.749675,CO,1,103,87
India,Uttar_Pradesh,Hapur,"Anand Vihar, Hapur - UPPCB",19-03-2024 10:00:00,28.725645,77.749675,OZONE,8,141,24
India,Uttar_Pradesh,Jhansi,"Shivaji Nagar, Jhansi - UPPCB",19-03-2024 10:00:00,25.4547,78.6039,PM10,23,500,70
India,Uttar_Pradesh,Jhansi,"Shivaji Nagar, Jhansi - UPPCB",19-03-2024 10:00:00,25.4547,78.6039,NH3,6,6,6
India,Uttar_Pradesh,Kanpur,"FTI Kidwai Nagar, Kanpur - UPPCB",19-03-2024 10:00:00,26.428282,80.327067,CO,28,69,60
India,Uttar_Pradesh,Kanpur,"NSI Kalyanpur, Kanpur - UPPCB",19-03-2024 10:00:00,26.509954,80.249612,NO2,12,14,14
India,Uttar_Pradesh,Kanpur,"NSI Kalyanpur, Kanpur - UPPCB",19-03-2024 10:00:00,26.509954,80.249612,CO,38,70,55
India,Uttar_Pradesh,Kanpur,"Nehru Nagar, Kanpur - UPPCB",19-03-2024 10:00:00,26.4703136,80.3229863,CO,26,64,40
India,Uttar_Pradesh,Khurja,"Kalindi Kunj, Khurja - UPPCB",19-03-2024 10:00:00,28.2348927,77.8683002,NO2,3,4,3
India,Uttar_Pradesh,Khurja,"Kalindi Kunj, Khurja - UPPCB",19-03-2024 10:00:00,28.2348927,77.8683002,OZONE,19,24,19
India,Uttar_Pradesh,Lucknow,"B R Ambedkar University, Lucknow - UPPCB",19-03-2024 10:00:00,26.766433,80.927299,PM2.5,44,318,161
India,Uttar_Pradesh,Lucknow,"B R Ambedkar University, Lucknow - UPPCB",19-03-2024 10:00:00,26.766433,80.927299,CO,24,49,41
India,Uttar_Pradesh,Lucknow,"Kendriya Vidyalaya, Lucknow - CPCB",19-03-2024 10:00:00,26.906111,80.948222,SO2,4,8,6
India,Uttar_Pradesh,Lucknow,"Lalbagh, Lucknow - CPCB",19-03-2024 10:00:00,26.8458805,80.9365541,NH3,11,16,13
India,Uttar_Pradesh,Lucknow,"Lalbagh, Lucknow - CPCB",19-03-2024 10:00:00,26.8458805,80.9365541,SO2,1,23,11
India,Uttar_Pradesh,Lucknow,"Lalbagh, Lucknow - CPCB",19-03-2024 10:00:00,26.8458805,80.9365541,OZONE,13,96,29
India,Uttar_Pradesh,Lucknow,"Talkatora District Industries Center, Lucknow - CPCB",19-03-2024 10:00:00,26.83399722,80.8917361,PM10,107,220,145
India,Uttar_Pradesh,Lucknow,"Talkatora District Industries Center, Lucknow - CPCB",19-03-2024 10:00:00,26.83399722,80.8917361,NO2,45,109,70
India,Uttar_Pradesh,Lucknow,"Talkatora District Industries Center, Lucknow - CPCB",19-03-2024 10:00:00,26.83399722,80.8917361,SO2,2,28,10
India,Uttar_Pradesh,Lucknow,"Talkatora District Industries Center, Lucknow - CPCB",19-03-2024 10:00:00,26.83399722,80.8917361,CO,12,98,36
India,Uttar_Pradesh,Meerut,"Ganga Nagar, Meerut - UPPCB",19-03-2024 10:00:00,28.999264,77.7590354,PM10,66,161,112
India,Uttar_Pradesh,Meerut,"Ganga Nagar, Meerut - UPPCB",19-03-2024 10:00:00,28.999264,77.7590354,SO2,24,45,33
India,Uttar_Pradesh,Meerut,"Pallavpuram Phase 2, Meerut - UPPCB",19-03-2024 10:00:00,29.063510,77.709723,NO2,17,94,51
India,Uttar_Pradesh,Meerut,"Pallavpuram Phase 2, Meerut - UPPCB",19-03-2024 10:00:00,29.063510,77.709723,CO,36,99,82
India,Uttar_Pradesh,Moradabad,"Buddhi Vihar, Moradabad - UPPCB",19-03-2024 10:00:00,28.83526,78.74460,PM2.5,24,260,105
India,Uttar_Pradesh,Moradabad,"Buddhi Vihar, Moradabad - UPPCB",19-03-2024 10:00:00,28.83526,78.74460,PM10,54,167,112
India,Uttar_Pradesh,Moradabad,"Buddhi Vihar, Moradabad - UPPCB",19-03-2024 10:00:00,28.83526,78.74460,NH3,2,2,2
India,Uttar_Pradesh,Moradabad,"Buddhi Vihar, Moradabad - UPPCB",19-03-2024 10:00:00,28.83526,78.74460,OZONE,14,37,16
India,Uttar_Pradesh,Moradabad,"Employment Office, Moradabad - UPPCB",19-03-2024 10:00:00,28.88528,78.73880,PM2.5,35,126,70
India,Uttar_Pradesh,Moradabad,"Employment Office, Moradabad - UPPCB",19-03-2024 10:00:00,28.88528,78.73880,NO2,19,20,19
India,Uttar_Pradesh,Moradabad,"Employment Office, Moradabad - UPPCB",19-03-2024 10:00:00,28.88528,78.73880,SO2,27,30,28
India,Uttar_Pradesh,Moradabad,"Kashiram Nagar, Moradabad - UPPCB",19-03-2024 10:00:00,28.849399,78.742362,PM10,63,185,120
India,Uttar_Pradesh,Moradabad,"Kashiram Nagar, Moradabad - UPPCB",19-03-2024 10:00:00,28.849399,78.742362,CO,28,46,42
India,Uttar_Pradesh,Muzaffarnagar,"New Mandi, Muzaffarnagar - UPPCB",19-03-2024 10:00:00,29.4723508,77.7194031,PM2.5,60,331,200
India,Uttar_Pradesh,Muzaffarnagar,"New Mandi, Muzaffarnagar - UPPCB",19-03-2024 10:00:00,29.4723508,77.7194031,NO2,7,62,47
India,Uttar_Pradesh,Noida,"Sector - 62, Noida - IMD",19-03-2024 10:00:00,28.6245479,77.3577104,PM10,113,434,228
India,Uttar_Pradesh,Noida,"Sector-1, Noida - UPPCB",19-03-2024 10:00:00,28.5898,77.3101,OZONE,1,190,9
India,Uttar_Pradesh,Noida,"Sector-116, Noida - UPPCB",19-03-2024 10:00:00,28.569230,77.393848,PM10,110,300,169
India,Uttar_Pradesh,Noida,"Sector-116, Noida - UPPCB",19-03-2024 10:00:00,28.569230,77.393848,OZONE,3,36,5
India,Uttar_Pradesh,Prayagraj,"Jhunsi, Prayagraj - UPPCB",19-03-2024 10:00:00,25.425602,81.917152,OZONE,1,35,3
India,Uttar_Pradesh,Prayagraj,"Motilal Nehru NIT, Prayagraj - UPPCB",19-03-2024 10:00:00,25.494,81.863,PM10,49,254,124
India,Uttar_Pradesh,Prayagraj,"Motilal Nehru NIT, Prayagraj - UPPCB",19-03-2024 10:00:00,25.494,81.863,CO,16,76,49
India,Uttar_Pradesh,Varanasi,"Bhelupur, Varanasi - UPPCB",19-03-2024 10:00:00,25.301778,82.996789,PM2.5,9,30,18
India,Uttar_Pradesh,Varanasi,"Bhelupur, Varanasi - UPPCB",19-03-2024 10:00:00,25.301778,82.996789,PM10,29,77,51
India,Uttar_Pradesh,Varanasi,"Bhelupur, Varanasi - UPPCB",19-03-2024 10:00:00,25.301778,82.996789,NH3,1,2,2
India,Uttar_Pradesh,Varanasi,"IESD Banaras Hindu University, Varanasi - UPPCB",19-03-2024 10:00:00,25.262326,82.995408,NH3,2,3,3
India,Uttar_Pradesh,Varanasi,"IESD Banaras Hindu University, Varanasi - UPPCB",19-03-2024 10:00:00,25.262326,82.995408,CO,24,40,34
India,Uttar_Pradesh,Varanasi,"Maldahiya, Varanasi - UPPCB",19-03-2024 10:00:00,25.32393,82.99687,PM2.5,NA,NA,NA
India,Uttar_Pradesh,Varanasi,"Maldahiya, Varanasi - UPPCB",19-03-2024 10:00:00,25.32393,82.99687,PM10,NA,NA,NA
India,Uttar_Pradesh,Varanasi,"Maldahiya, Varanasi - UPPCB",19-03-2024 10:00:00,25.32393,82.99687,NO2,NA,NA,NA
India,Uttar_Pradesh,Vrindavan,"Omex Eternity, Vrindavan - UPPCB",19-03-2024 10:00:00,27.5714090,77.6557570,NH3,1,4,2
India,Uttarakhand,Dehradun,"Doon University, Dehradun - UKPCB",19-03-2024 10:00:00,30.269444,78.044167,SO2,1,7,2
India,Uttarakhand,Dehradun,"Doon University, Dehradun - UKPCB",19-03-2024 10:00:00,30.269444,78.044167,OZONE,38,158,52
India,Uttarakhand,Kashipur,"Govt. Girls Inter College, Kashipur - UKPCB",19-03-2024 10:00:00,29.2124114,78.9611753,NO2,5,22,11
India,Uttarakhand,Rishikesh,"Shivaji Nagar, Rishikesh - UKPCB",19-03-2024 10:00:00,30.075911,78.2859547,PM2.5,12,81,54
India,Uttarakhand,Rishikesh,"Shivaji Nagar, Rishikesh - UKPCB",19-03-2024 10:00:00,30.075911,78.2859547,SO2,4,6,5
India,Uttarakhand,Rishikesh,"Shivaji Nagar, Rishikesh - UKPCB",19-03-2024 10:00:00,30.075911,78.2859547,CO,9,56,21
India,West_Bengal,Durgapur,"Sidhu Kanhu Indoor Stadium, Durgapur - WBPCB",19-03-2024 10:00:00,23.5404352,87.2892225,PM2.5,73,307,151
India,West_Bengal,Durgapur,"Sidhu Kanhu Indoor Stadium, Durgapur - WBPCB",19-03-2024 10:00:00,23.5404352,87.2892225,NH3,3,4,4
India,West_Bengal,Haldia,"Priyambada Housing Estate, Haldia - WBPCB",19-03-2024 10:00:00,22.06047,88.109737,NO2,16,61,32
India,West_Bengal,Haldia,"Priyambada Housing Estate, Haldia - WBPCB",19-03-2024 10:00:00,22.06047,88.109737,SO2,7,29,16
India,West_Bengal,Haldia,"Priyambada Housing Estate, Haldia - WBPCB",19-03-2024 10:00:00,22.06047,88.109737,OZONE,15,217,17
India,West_Bengal,Howrah,"Belur Math, Howrah - WBPCB",19-03-2024 10:00:00,22.629801,88.352017,PM2.5,58,218,111
India,West_Bengal,Howrah,"Ghusuri, Howrah - WBPCB",19-03-2024 10:00:00,22.611968,88.347422,PM10,88,235,139
India,West_Bengal,Howrah,"Padmapukur, Howrah - WBPCB",19-03-2024 10:00:00,22.5687319,88.2797276,SO2,15,70,29
India,West_Bengal,Howrah,"Padmapukur, Howrah - WBPCB",19-03-2024 10:00:00,22.5687319,88.2797276,CO,18,62,28
India,West_Bengal,Kolkata,"Bidhannagar, Kolkata - WBPCB",19-03-2024 10:00:00,22.58157048,88.41002457,NH3,9,15,11
India,West_Bengal,Kolkata,"Fort William, Kolkata - WBPCB",19-03-2024 10:00:00,22.556640,88.342674,PM10,57,142,107
India,West_Bengal,Kolkata,"Fort William, Kolkata - WBPCB",19-03-2024 10:00:00,22.556640,88.342674,OZONE,20,68,35
India,West_Bengal,Kolkata,"Jadavpur, Kolkata - WBPCB",19-03-2024 10:00:00,22.49929,88.36917,PM2.5,56,94,76
India,West_Bengal,Kolkata,"Rabindra Bharati University, Kolkata - WBPCB",19-03-2024 10:00:00,22.627847,88.380669,PM2.5,44,106,70
India,West_Bengal,Kolkata,"Rabindra Bharati University, Kolkata - WBPCB",19-03-2024 10:00:00,22.627847,88.380669,NO2,1,11,7
India,West_Bengal,Kolkata,"Rabindra Bharati University, Kolkata - WBPCB",19-03-2024 10:00:00,22.627847,88.380669,SO2,15,45,23
India,West_Bengal,Kolkata,"Rabindra Bharati University, Kolkata - WBPCB",19-03-2024 10:00:00,22.627847,88.380669,CO,30,90,37
India,West_Bengal,Kolkata,"Rabindra Sarobar, Kolkata - WBPCB",19-03-2024 10:00:00,22.51106,88.35142,OZONE,3,92,14
India,West_Bengal,Siliguri,"Ward-32 Bapupara, Siliguri - WBPCB",19-03-2024 10:00:00,26.6879226,88.4152495,PM2.5,83,409,225
India,West_Bengal,Siliguri,"Ward-32 Bapupara, Siliguri - WBPCB",19-03-2024 10:00:00,26.6879226,88.4152495,PM10,105,415,188
India,West_Bengal,Siliguri,"Ward-32 Bapupara, Siliguri - WBPCB",19-03-2024 10:00:00,26.6879226,88.4152495,SO2,13,25,18
India,Andhra_Pradesh,Amaravati,"Secretariat, Amaravati - APPCB",19-03-2024 10:00:00,16.5150833,80.5181667,PM10,14,70,30
India,Andhra_Pradesh,Amaravati,"Secretariat, Amaravati - APPCB",19-03-2024 10:00:00,16.5150833,80.5181667,NO2,6,17,8
India,Andhra_Pradesh,Amaravati,"Secretariat, Amaravati - APPCB",19-03-2024 10:00:00,16.5150833,80.5181667,SO2,12,21,16
India,Andhra_Pradesh,Anantapur,"Gulzarpet, Anantapur - APPCB",19-03-2024 10:00:00,14.675886,77.593027,CO,24,47,33
India,Andhra_Pradesh,Chittoor,"Gangineni Cheruvu, Chittoor - APPCB",19-03-2024 10:00:00,13.204880,79.097889,NO2,NA,NA,NA
India,Andhra_Pradesh,Chittoor,"Gangineni Cheruvu, Chittoor - APPCB",19-03-2024 10:00:00,13.204880,79.097889,NH3,NA,NA,NA
India,Andhra_Pradesh,Chittoor,"Gangineni Cheruvu, Chittoor - APPCB",19-03-2024 10:00:00,13.204880,79.097889,SO2,NA,NA,NA
India,Andhra_Pradesh,Kadapa,"Yerramukkapalli, Kadapa - APPCB",19-03-2024 10:00:00,14.465052,78.824187,CO,12,27,19
India,Andhra_Pradesh,Rajamahendravaram,"Anand Kala Kshetram, Rajamahendravaram - APPCB",19-03-2024 10:00:00,16.9872867,81.7363176,NO2,10,57,21
India,Andhra_Pradesh,Rajamahendravaram,"Anand Kala Kshetram, Rajamahendravaram - APPCB",19-03-2024 10:00:00,16.9872867,81.7363176,CO,18,44,26
India,Andhra_Pradesh,Tirupati,"Tirumala, Tirupati - APPCB",19-03-2024 10:00:00,13.67,79.35,NO2,21,48,32
India,Andhra_Pradesh,Tirupati,"Vaikuntapuram, Tirupati - APPCB",19-03-2024 10:00:00,13.615387,79.409230,OZONE,8,39,13
India,Andhra_Pradesh,Vijayawada,"HB Colony, Vijayawada - APPCB",19-03-2024 10:00:00,16.536107,80.594233,PM2.5,49,67,60
India,Andhra_Pradesh,Vijayawada,"HB Colony, Vijayawada - APPCB",19-03-2024 10:00:00,16.536107,80.594233,NH3,4,4,4
India,Andhra_Pradesh,Vijayawada,"HB Colony, Vijayawada - APPCB",19-03-2024 10:00:00,16.536107,80.594233,CO,28,42,28
India,Andhra_Pradesh,Vijayawada,"Kanuru, Vijayawada - APPCB",19-03-2024 10:00:00,16.486692,80.699436,PM10,50,69,60
India,Andhra_Pradesh,Vijayawada,"Kanuru, Vijayawada - APPCB",19-03-2024 10:00:00,16.486692,80.699436,CO,34,72,51
India,Andhra_Pradesh,Vijayawada,"Kanuru, Vijayawada - APPCB",19-03-2024 10:00:00,16.486692,80.699436,OZONE,33,33,33
India,Andhra_Pradesh,Vijayawada,"Rajiv Gandhi Park, Vijayawada - APPCB",19-03-2024 10:00:00,16.509717,80.612222,PM2.5,28,54,41
India,Andhra_Pradesh,Vijayawada,"Rajiv Gandhi Park, Vijayawada - APPCB",19-03-2024 10:00:00,16.509717,80.612222,OZONE,5,60,11
India,Arunachal_Pradesh,Naharlagun,"Naharlagun, Naharlagun - APSPCB",19-03-2024 10:00:00,27.103358,93.679645,PM2.5,44,320,128
India,Arunachal_Pradesh,Naharlagun,"Naharlagun, Naharlagun - APSPCB",19-03-2024 10:00:00,27.103358,93.679645,OZONE,2,2,2
India,Assam,Guwahati,"IITG, Guwahati - PCBA",19-03-2024 10:00:00,26.2028636,91.70046436,NH3,5,5,5
India,Assam,Guwahati,"Pan Bazaar, Guwahati - PCBA",19-03-2024 10:00:00,26.187500,91.744194,PM2.5,81,348,262
India,Assam,Guwahati,"Pan Bazaar, Guwahati - PCBA",19-03-2024 10:00:00,26.187500,91.744194,NO2,2,21,8
India,Assam,Guwahati,"Pan Bazaar, Guwahati - PCBA",19-03-2024 10:00:00,26.187500,91.744194,OZONE,18,19,18
India,Assam,Guwahati,"Railway Colony, Guwahati - PCBA",19-03-2024 10:00:00,26.181742,91.78063,OZONE,4,32,24
India,Assam,Nagaon,"Christianpatty, Nagaon - PCBA",19-03-2024 10:00:00,26.349082,92.68449,PM10,46,142,80
India,Assam,Nagaon,"Christianpatty, Nagaon - PCBA",19-03-2024 10:00:00,26.349082,92.68449,SO2,3,21,10
India,Assam,Nagaon,"Christianpatty, Nagaon - PCBA",19-03-2024 10:00:00,26.349082,92.68449,CO,8,112,16
India,Assam,Nagaon,"Christianpatty, Nagaon - PCBA",19-03-2024 10:00:00,26.349082,92.68449,OZONE,4,110,29
India,Assam,Nalbari,"Bata Chowk, Nalbari - PCBA",19-03-2024 10:00:00,26.446912,91.439057,OZONE,7,143,41
India,Assam,Silchar,"Tarapur, Silchar - PCBA",19-03-2024 10:00:00,24.82827,92.79525,PM2.5,26,57,39
India,Assam,Silchar,"Tarapur, Silchar - PCBA",19-03-2024 10:00:00,24.82827,92.79525,NH3,1,1,1
India,Assam,Silchar,"Tarapur, Silchar - PCBA",19-03-2024 10:00:00,24.82827,92.79525,CO,27,40,32
India,Assam,Sivasagar,"Girls College, Sivasagar - PCBA",19-03-2024 10:00:00,26.987634,94.636574,PM2.5,40,51,46
India,Assam,Sivasagar,"Girls College, Sivasagar - PCBA",19-03-2024 10:00:00,26.987634,94.636574,PM10,43,94,63
India,Assam,Sivasagar,"Girls College, Sivasagar - PCBA",19-03-2024 10:00:00,26.987634,94.636574,NH3,2,2,2
India,Bihar,Araria,"Kharahiya Basti, Araria - BSPCB",19-03-2024 10:00:00,26.146529,87.454184,NO2,6,8,7
India,Bihar,Aurangabad,"Gurdeo Nagar, Aurangabad - BSPCB",19-03-2024 10:00:00,24.75746,84.366208,PM2.5,NA,NA,NA
India,Bihar,Aurangabad,"Gurdeo Nagar, Aurangabad - BSPCB",19-03-2024 10:00:00,24.75746,84.366208,SO2,1,12,7
India,Bihar,Aurangabad,"Gurdeo Nagar, Aurangabad - BSPCB",19-03-2024 10:00:00,24.75746,84.366208,CO,54,76,68
India,Bihar,Bhagalpur,"Mayaganj, Bhagalpur - BSPCB",19-03-2024 10:00:00,25.265194,87.012947,PM10,70,231,108
India,Bihar,Bihar Sharif,"D M Colony, Bihar Sharif - BSPCB",19-03-2024 10:00:00,25.204762,85.514960,PM2.5,62,170,95
India,Bihar,Bihar Sharif,"D M Colony, Bihar Sharif - BSPCB",19-03-2024 10:00:00,25.204762,85.514960,PM10,49,119,78
India,Bihar,Buxar,"Charitra Van, Buxar - BSPCB (Formerly known as Central Jail)",19-03-2024 10:00:00,25.567520,83.966379,SO2,14,19,17
India,Bihar,Chhapra,"Darshan Nagar, Chhapra - BSPCB",19-03-2024 10:00:00,25.7808257,84.7446768,OZONE,4,29,8
India,Bihar,Gaya,"Kareemganj, Gaya - BSPCB",19-03-2024 10:00:00,24.792403,84.992416,PM10,31,156,82
India,Bihar,Gaya,"SFTI Kusdihra, Gaya - BSPCB",19-03-2024 10:00:00,24.762518,84.982348,SO2,7,9,8
India,Bihar,Hajipur,"Industrial Area, Hajipur - BSPCB",19-03-2024 10:00:00,25.697189,85.245900,OZONE,6,60,10
India,Bihar,Katihar,"Mirchaibari, Katihar - BSPCB",19-03-2024 10:00:00,25.560083,87.553265,PM2.5,45,304,128
India,Bihar,Kishanganj,"SDM Office_Khagra, Kishanganj - BSPCB",19-03-2024 10:00:00,26.0881305,87.93840336,PM2.5,25,446,125
India,Bihar,Manguraha,"Forest Rest House, Manguraha - BSPCB",19-03-2024 10:00:00,27.308328,84.531742,PM2.5,35,183,58
India,Bihar,Manguraha,"Forest Rest House, Manguraha - BSPCB",19-03-2024 10:00:00,27.308328,84.531742,PM10,55,155,79
India,Bihar,Manguraha,"Forest Rest House, Manguraha - BSPCB",19-03-2024 10:00:00,27.308328,84.531742,SO2,3,3,3
India,Bihar,Motihari,"Gandak Colony, Motihari - BSPCB",19-03-2024 10:00:00,26.63086,84.90051,PM10,34,146,98
India,Bihar,Motihari,"Gandak Colony, Motihari - BSPCB",19-03-2024 10:00:00,26.63086,84.90051,SO2,NA,NA,NA
India,Bihar,Munger,"Town Hall, Munger - BSPCB",19-03-2024 10:00:00,25.376776,86.471523,NH3,1,2,2
India,Bihar,Munger,"Town Hall, Munger - BSPCB",19-03-2024 10:00:00,25.376776,86.471523,SO2,16,40,27
India,Bihar,Munger,"Town Hall, Munger - BSPCB",19-03-2024 10:00:00,25.376776,86.471523,OZONE,4,19,10
India,Bihar,Muzaffarpur,"Buddha Colony, Muzaffarpur - BSPCB",19-03-2024 10:00:00,26.11442,85.39813,PM2.5,6,399,283
India,Bihar,Muzaffarpur,"Buddha Colony, Muzaffarpur - BSPCB",19-03-2024 10:00:00,26.11442,85.39813,NO2,31,94,46
India,Bihar,Muzaffarpur,"Muzaffarpur Collectorate, Muzaffarpur - BSPCB",19-03-2024 10:00:00,26.1209,85.3647,OZONE,14,80,19
India,Bihar,Patna,"Govt. High School Shikarpur, Patna - BSPCB",19-03-2024 10:00:00,25.592539,85.227158,SO2,14,19,17
India,Bihar,Patna,"IGSC Planetarium Complex, Patna - BSPCB",19-03-2024 10:00:00,25.610369,85.132568,NO2,14,14,14
India,Bihar,Patna,"IGSC Planetarium Complex, Patna - BSPCB",19-03-2024 10:00:00,25.610369,85.132568,CO,8,10,9
India,Bihar,Patna,"IGSC Planetarium Complex, Patna - BSPCB",19-03-2024 10:00:00,25.610369,85.132568,OZONE,28,65,53
India,Bihar,Patna,"Muradpur, Patna - BSPCB",19-03-2024 10:00:00,25.619651,85.147382,OZONE,NA,NA,NA
India,Bihar,Patna,"Samanpura, Patna - BSPCB",19-03-2024 10:00:00,25.596727,85.085624,PM2.5,55,467,271
India,Bihar,Patna,"Samanpura, Patna - BSPCB",19-03-2024 10:00:00,25.596727,85.085624,CO,34,173,101
India,Bihar,Purnia,"Mariam Nagar, Purnia - BSPCB",19-03-2024 10:00:00,25.366336,87.117468,PM10,89,232,151
India,Bihar,Rajgir,"Dangi Tola, Rajgir - BSPCB",19-03-2024 10:00:00,25.03280,85.41948,NO2,1,1,1
India,Bihar,Rajgir,"Dangi Tola, Rajgir - BSPCB",19-03-2024 10:00:00,25.03280,85.41948,NH3,1,1,1
India,Bihar,Rajgir,"Dangi Tola, Rajgir - BSPCB",19-03-2024 10:00:00,25.03280,85.41948,OZONE,22,25,23
India,Bihar,Saharsa,"Police Line, Saharsa - BSPCB",19-03-2024 10:00:00,25.892357,86.590325,PM10,90,267,158
India,Bihar,Saharsa,"Police Line, Saharsa - BSPCB",19-03-2024 10:00:00,25.892357,86.590325,SO2,16,16,16
India,Bihar,Samastipur,"DM Office_Kasipur, Samastipur - BSPCB",19-03-2024 10:00:00,25.859655,85.77944,PM2.5,35,317,183
India,Bihar,Samastipur,"DM Office_Kasipur, Samastipur - BSPCB",19-03-2024 10:00:00,25.859655,85.77944,PM10,55,206,138
India,Bihar,Samastipur,"DM Office_Kasipur, Samastipur - BSPCB",19-03-2024 10:00:00,25.859655,85.77944,NO2,25,68,47
India,Bihar,Samastipur,"DM Office_Kasipur, Samastipur - BSPCB",19-03-2024 10:00:00,25.859655,85.77944,OZONE,9,13,10
India,Bihar,Sasaram,"Dada Peer, Sasaram - BSPCB",19-03-2024 10:00:00,24.952822,84.002396,PM2.5,28,81,48
India,Bihar,Sasaram,"Dada Peer, Sasaram - BSPCB",19-03-2024 10:00:00,24.952822,84.002396,CO,102,106,102
India,Bihar,Siwan,"Chitragupta Nagar, Siwan - BSPCB",19-03-2024 10:00:00,26.2271665,84.3570427,PM2.5,67,344,208
India,Bihar,Siwan,"Chitragupta Nagar, Siwan - BSPCB",19-03-2024 10:00:00,26.2271665,84.3570427,NH3,2,12,3
India,Bihar,Siwan,"Chitragupta Nagar, Siwan - BSPCB",19-03-2024 10:00:00,26.2271665,84.3570427,SO2,28,36,32
India,Bihar,Siwan,"Chitragupta Nagar, Siwan - BSPCB",19-03-2024 10:00:00,26.2271665,84.3570427,CO,46,133,114
India,Chandigarh,Chandigarh,"Sector 22, Chandigarh - CPCC",19-03-2024 10:00:00,30.735567,76.775714,OZONE,3,208,29
India,Chandigarh,Chandigarh,"Sector-25, Chandigarh - CPCC",19-03-2024 10:00:00,30.751462,76.762879,SO2,5,32,11
India,Chandigarh,Chandigarh,"Sector-25, Chandigarh - CPCC",19-03-2024 10:00:00,30.751462,76.762879,CO,12,58,28
India,Chandigarh,Chandigarh,"Sector-53, Chandigarh - CPCC",19-03-2024 10:00:00,30.719859,76.738637,PM2.5,58,247,143
India,Chandigarh,Chandigarh,"Sector-53, Chandigarh - CPCC",19-03-2024 10:00:00,30.719859,76.738637,NO2,30,98,63
India,Chhattisgarh,Bhilai,"32Bungalows, Bhilai - CECB",19-03-2024 10:00:00,21.194815,81.314770,NO2,30,39,35
India,Chhattisgarh,Bhilai,"32Bungalows, Bhilai - CECB",19-03-2024 10:00:00,21.194815,81.314770,NH3,6,6,6
India,Chhattisgarh,Bhilai,"32Bungalows, Bhilai - CECB",19-03-2024 10:00:00,21.194815,81.314770,CO,16,44,32
India,Chhattisgarh,Bhilai,"Hathkhoj, Bhilai - CECB",19-03-2024 10:00:00,21.224231,81.408350,PM2.5,7,39,22
India,Chhattisgarh,Bhilai,"Hathkhoj, Bhilai - CECB",19-03-2024 10:00:00,21.224231,81.408350,OZONE,31,44,34
India,Chhattisgarh,Bilaspur,"Mangala, Bilaspur - NTPC",19-03-2024 10:00:00,22.08815,82.13737,PM10,NA,NA,NA
India,Chhattisgarh,Korba,"Urja Nagar, Korba - CECB",19-03-2024 10:00:00,22.348441,82.549611,NH3,6,9,7
India,Chhattisgarh,Milupara,"Govt. Higher Secondary School, Milupara - CECB",19-03-2024 10:00:00,22.1910172,83.5197009,PM10,NA,NA,NA
India,Chhattisgarh,Milupara,"Govt. Higher Secondary School, Milupara - CECB",19-03-2024 10:00:00,22.1910172,83.5197009,NO2,NA,NA,NA
India,Chhattisgarh,Raipur,"AIIMS, Raipur - CECB",19-03-2024 10:00:00,21.258815,81.578979,NO2,22,58,43
India,Chhattisgarh,Raipur,"Bhatagaon New ISBT, Raipur - CECB",19-03-2024 10:00:00,21.219665,81.630094,NO2,NA,NA,NA
India,Chhattisgarh,Raipur,"Krishak Nagar, Raipur - CECB",19-03-2024 10:00:00,21.237755,81.705301,PM10,NA,NA,NA
India,Chhattisgarh,Raipur,"Krishak Nagar, Raipur - CECB",19-03-2024 10:00:00,21.237755,81.705301,OZONE,NA,NA,NA
India,Chhattisgarh,Raipur,"Siltara Phase-II, Raipur - CECB",19-03-2024 10:00:00,21.371751,81.664929,NH3,3,3,3
India,Chhattisgarh,Tumidih,"OP Jindal Industrial Park, Tumidih - CECB",19-03-2024 10:00:00,22.06631475,83.33820077,NH3,NA,NA,NA
India,Delhi,Delhi,"Alipur, Delhi - DPCC",19-03-2024 10:00:00,28.815329,77.153010,NH3,3,14,7
India,Delhi,Delhi,"Ashok Vihar, Delhi - DPCC",19-03-2024 10:00:00,28.695381,77.181665,PM10,108,406,233
India,Delhi,Delhi,"Burari Crossing, Delhi - IMD",19-03-2024 10:00:00,28.7256504,77.2011573,NO2,4,5,4
India,Delhi,Delhi,"CRRI Mathura Road, Delhi - IMD",19-03-2024 10:00:00,28.5512005,77.2735737,NO2,19,67,36
India,Delhi,Delhi,"CRRI Mathura Road, Delhi - IMD",19-03-2024 10:00:00,28.5512005,77.2735737,CO,45,132,117
India,Delhi,Delhi,"Chandni Chowk, Delhi - IITM",19-03-2024 10:00:00,28.656756,77.227234,NO2,17,135,48
India,Delhi,Delhi,"Chandni Chowk, Delhi - IITM",19-03-2024 10:00:00,28.656756,77.227234,OZONE,10,86,45
India,Delhi,Delhi,"DTU, Delhi - CPCB",19-03-2024 10:00:00,28.7500499,77.1112615,SO2,27,30,28
India,Delhi,Delhi,"DTU, Delhi - CPCB",19-03-2024 10:00:00,28.7500499,77.1112615,CO,20,75,63
India,Delhi,Delhi,"Dr. Karni Singh Shooting Range, Delhi - DPCC",19-03-2024 10:00:00,28.498571,77.264840,PM2.5,48,358,173
India,Delhi,Delhi,"Dr. Karni Singh Shooting Range, Delhi - DPCC",19-03-2024 10:00:00,28.498571,77.264840,NH3,6,9,8
India,Delhi,Delhi,"Dwarka-Sector 8, Delhi - DPCC ",19-03-2024 10:00:00,28.5710274,77.0719006,PM10,126,497,316
India,Delhi,Delhi,"IGI Airport (T3), Delhi - IMD",19-03-2024 10:00:00,28.5627763,77.1180053,PM10,78,363,183
India,Delhi,Delhi,"IGI Airport (T3), Delhi - IMD",19-03-2024 10:00:00,28.5627763,77.1180053,NO2,25,72,49
India,Delhi,Delhi,"IGI Airport (T3), Delhi - IMD",19-03-2024 10:00:00,28.5627763,77.1180053,OZONE,5,49,10
India,Delhi,Delhi,"IHBAS, Dilshad Garden, Delhi - CPCB",19-03-2024 10:00:00,28.6811736,77.3025234,PM10,86,159,125
India,Delhi,Delhi,"IHBAS, Dilshad Garden, Delhi - CPCB",19-03-2024 10:00:00,28.6811736,77.3025234,CO,44,89,72
India,Delhi,Delhi,"IHBAS, Dilshad Garden, Delhi - CPCB",19-03-2024 10:00:00,28.6811736,77.3025234,OZONE,7,33,12
India,Delhi,Delhi,"ITO, Delhi - CPCB",19-03-2024 10:00:00,28.628624,77.241060,PM2.5,48,407,192
India,Delhi,Delhi,"ITO, Delhi - CPCB",19-03-2024 10:00:00,28.628624,77.241060,NO2,16,165,81
India,Delhi,Delhi,"ITO, Delhi - CPCB",19-03-2024 10:00:00,28.628624,77.241060,NH3,2,9,6
India,Delhi,Delhi,"ITO, Delhi - CPCB",19-03-2024 10:00:00,28.628624,77.241060,CO,28,105,80
India,Delhi,Delhi,"Jahangirpuri, Delhi - DPCC",19-03-2024 10:00:00,28.732820,77.170633,NH3,7,18,12
India,Delhi,Delhi,"Jawaharlal Nehru Stadium, Delhi - DPCC",19-03-2024 10:00:00,28.580280,77.233829,PM10,85,278,160
India,Delhi,Delhi,"Lodhi Road, Delhi - IITM",19-03-2024 10:00:00,28.588333,77.221667,NH3,8,11,9
India,Delhi,Delhi,"Lodhi Road, Delhi - IITM",19-03-2024 10:00:00,28.588333,77.221667,CO,60,70,68
India,Delhi,Delhi,"Lodhi Road, Delhi - IMD",19-03-2024 10:00:00,28.5918245,77.2273074,PM10,74,194,106
India,Delhi,Delhi,"Mandir Marg, Delhi - DPCC",19-03-2024 10:00:00,28.636429,77.201067,PM2.5,37,353,177
India,Delhi,Delhi,"Mandir Marg, Delhi - DPCC",19-03-2024 10:00:00,28.636429,77.201067,NO2,163,194,178
India,Delhi,Delhi,"Mundka, Delhi - DPCC",19-03-2024 10:00:00,28.684678,77.076574,NH3,3,6,5
India,Delhi,Delhi,"Mundka, Delhi - DPCC",19-03-2024 10:00:00,28.684678,77.076574,OZONE,14,14,14
India,Delhi,Delhi,"NSIT Dwarka, Delhi - CPCB",19-03-2024 10:00:00,28.60909,77.0325413,PM10,121,449,237
India,Delhi,Delhi,"NSIT Dwarka, Delhi - CPCB",19-03-2024 10:00:00,28.60909,77.0325413,OZONE,5,52,10
India,Delhi,Delhi,"Narela, Delhi - DPCC",19-03-2024 10:00:00,28.822836,77.101981,PM2.5,47,441,245
India,Delhi,Delhi,"Narela, Delhi - DPCC",19-03-2024 10:00:00,28.822836,77.101981,CO,40,91,78
India,Delhi,Delhi,"Narela, Delhi - DPCC",19-03-2024 10:00:00,28.822836,77.101981,OZONE,2,132,20
India,Delhi,Delhi,"New Moti Bagh, Delhi - MHUA",19-03-2024 10:00:00,28.57834,77.18400,NO2,1,7,4
India,Delhi,Delhi,"North Campus, DU, Delhi - IMD",19-03-2024 10:00:00,28.6573814,77.1585447,CO,3,94,73
India,Delhi,Delhi,"Okhla Phase-2, Delhi - DPCC",19-03-2024 10:00:00,28.530785,77.271255,OZONE,10,160,14
India,Delhi,Delhi,"Patparganj, Delhi - DPCC",19-03-2024 10:00:00,28.623763,77.287209,PM10,112,405,218
India,Delhi,Delhi,"Punjabi Bagh, Delhi - DPCC",19-03-2024 10:00:00,28.674045,77.131023,CO,22,78,43
India,Delhi,Delhi,"Pusa, Delhi - DPCC",19-03-2024 10:00:00,28.639652,77.146275,PM2.5,37,358,161
India,Delhi,Delhi,"Pusa, Delhi - IMD",19-03-2024 10:00:00,28.636110,77.173332,NO2,12,43,32
India,Delhi,Delhi,"Rohini, Delhi - DPCC",19-03-2024 10:00:00,28.732528,77.119920,NO2,15,85,50
India,Delhi,Delhi,"Shadipur, Delhi - CPCB",19-03-2024 10:00:00,28.6514781,77.1473105,CO,22,76,55
India,Delhi,Delhi,"Sonia Vihar, Delhi - DPCC",19-03-2024 10:00:00,28.710508,77.249485,PM2.5,46,369,203
India,Delhi,Delhi,"Vivek Vihar, Delhi - DPCC",19-03-2024 10:00:00,28.672342,77.315260,CO,10,92,72
India,Delhi,Delhi,"Wazirpur, Delhi - DPCC",19-03-2024 10:00:00,28.699793,77.165453,SO2,28,118,74
India,Gujarat,Ahmedabad,"Chandkheda, Ahmedabad - IITM",19-03-2024 10:00:00,23.107969,72.574648,NH3,15,15,15
India,Gujarat,Ahmedabad,"Chandkheda, Ahmedabad - IITM",19-03-2024 10:00:00,23.107969,72.574648,CO,6,55,34
India,Gujarat,Ahmedabad,"Gyaspur, Ahmedabad - IITM",19-03-2024 10:00:00,22.977134,72.553024,PM10,41,168,114
India,Gujarat,Ahmedabad,"Gyaspur, Ahmedabad - IITM",19-03-2024 10:00:00,22.977134,72.553024,NO2,34,77,61
India,Gujarat,Ahmedabad,"Gyaspur, Ahmedabad - IITM",19-03-2024 10:00:00,22.977134,72.553024,SO2,6,18,10
India,Gujarat,Ahmedabad,"Gyaspur, Ahmedabad - IITM",19-03-2024 10:00:00,22.977134,72.553024,CO,12,48,22
India,Gujarat,Ahmedabad,"Gyaspur, Ahmedabad - IITM",19-03-2024 10:00:00,22.977134,72.553024,OZONE,8,62,12
India,Gujarat,Ahmedabad,"Maninagar, Ahmedabad - GPCB",19-03-2024 10:00:00,23.002657,72.591912,SO2,9,34,15
India,Gujarat,Ahmedabad,"Raikhad, Ahmedabad - IITM",19-03-2024 10:00:00,23.020509,72.579261,PM10,20,107,75
India,Gujarat,Ahmedabad,"Raikhad, Ahmedabad - IITM",19-03-2024 10:00:00,23.020509,72.579261,CO,6,113,38
India,Gujarat,Ahmedabad,"Raikhad, Ahmedabad - IITM",19-03-2024 10:00:00,23.020509,72.579261,OZONE,13,52,20
India,Gujarat,Ankleshwar,"GIDC, Ankleshwar - GPCB",19-03-2024 10:00:00,21.613267,73.010555,PM10,60,118,90
India,Gujarat,Ankleshwar,"GIDC, Ankleshwar - GPCB",19-03-2024 10:00:00,21.613267,73.010555,NH3,7,7,7
India,Gujarat,Gandhinagar,"GIFT City, Gandhinagar - IITM",19-03-2024 10:00:00,23.163798,72.677768,CO,10,28,26
India,Gujarat,Gandhinagar,"IIPHG Lekawada, Gandhinagar - IITM",19-03-2024 10:00:00,23.243639,72.68994,PM10,41,126,86
India,Gujarat,Gandhinagar,"IIPHG Lekawada, Gandhinagar - IITM",19-03-2024 10:00:00,23.243639,72.68994,CO,22,24,23
India,Gujarat,Gandhinagar,"Sector-10, Gandhinagar - GPCB",19-03-2024 10:00:00,23.221714,72.654328,PM2.5,19,65,36
India,Gujarat,Gandhinagar,"Sector-10, Gandhinagar - GPCB",19-03-2024 10:00:00,23.221714,72.654328,NO2,9,17,14
India,Gujarat,Vapi,"Phase-1 GIDC, Vapi - GPCB",19-03-2024 10:00:00,20.362421,72.918013,NH3,2,2,2
India,Gujarat,Vatva,"Phase-4 GIDC, Vatva - GPCB",19-03-2024 10:00:00,22.969611,72.643500,PM10,57,143,88
India,Haryana,Ambala,"Patti Mehar, Ambala - HSPCB",19-03-2024 10:00:00,30.379589,76.778328,PM10,42,285,76
India,Haryana,Bahadurgarh,"Arya Nagar, Bahadurgarh - HSPCB",19-03-2024 10:00:00,28.6701,76.9254,PM10,41,223,128
India,Haryana,Bahadurgarh,"Arya Nagar, Bahadurgarh - HSPCB",19-03-2024 10:00:00,28.6701,76.9254,NO2,32,40,36
India,Haryana,Bahadurgarh,"Arya Nagar, Bahadurgarh - HSPCB",19-03-2024 10:00:00,28.6701,76.9254,CO,25,62,46
India,Haryana,Ballabgarh,"Nathu Colony, Ballabgarh - HSPCB",19-03-2024 10:00:00,28.3419248,77.319699,PM2.5,81,367,236
India,Haryana,Ballabgarh,"Nathu Colony, Ballabgarh - HSPCB",19-03-2024 10:00:00,28.3419248,77.319699,PM10,104,388,227
India,Haryana,Ballabgarh,"Nathu Colony, Ballabgarh - HSPCB",19-03-2024 10:00:00,28.3419248,77.319699,SO2,7,34,19
India,Haryana,Bhiwani,"H.B. Colony, Bhiwani - HSPCB",19-03-2024 10:00:00,28.806223,76.141105,PM10,2,39,18
India,Haryana,Bhiwani,"H.B. Colony, Bhiwani - HSPCB",19-03-2024 10:00:00,28.806223,76.141105,OZONE,4,27,6
India,Haryana,Charkhi Dadri,"Mini Secretariat, Charkhi Dadri - HSPCB",19-03-2024 10:00:00,28.593883,76.270653,CO,23,77,43
India,Haryana,Dharuhera,"Municipal Corporation Office, Dharuhera -  HSPCB",19-03-2024 10:00:00,28.206800,76.799700,PM2.5,70,324,199
India,Haryana,Dharuhera,"Municipal Corporation Office, Dharuhera -  HSPCB",19-03-2024 10:00:00,28.206800,76.799700,SO2,14,83,27
India,Haryana,Faridabad,"New Industrial Town, Faridabad - HSPCB",19-03-2024 10:00:00,28.39072,77.30059,CO,8,51,39
India,Haryana,Faridabad,"Sector 11, Faridabad - HSPCB",19-03-2024 10:00:00,28.376058,77.315741,SO2,5,7,6
India,Haryana,Faridabad,"Sector- 16A, Faridabad - HSPCB",19-03-2024 10:00:00,28.4088421,77.3099081,SO2,5,26,19
India,Haryana,Faridabad,"Sector- 16A, Faridabad - HSPCB",19-03-2024 10:00:00,28.4088421,77.3099081,OZONE,14,14,14
India,Haryana,Gurugram,"Sector-51, Gurugram - HSPCB",19-03-2024 10:00:00,28.4227,77.0667,NO2,13,29,23
India,Haryana,Gurugram,"Sector-51, Gurugram - HSPCB",19-03-2024 10:00:00,28.4227,77.0667,CO,32,105,99
India,Haryana,Gurugram,"Teri Gram, Gurugram - HSPCB",19-03-2024 10:00:00,28.4275,77.1465,NH3,51,110,72
India,Haryana,Gurugram,"Teri Gram, Gurugram - HSPCB",19-03-2024 10:00:00,28.4275,77.1465,OZONE,13,24,15
India,Haryana,Hisar,"Urban Estate-II, Hisar - HSPCB",19-03-2024 10:00:00,29.140560,75.744941,PM10,73,143,115
India,Haryana,Hisar,"Urban Estate-II, Hisar - HSPCB",19-03-2024 10:00:00,29.140560,75.744941,SO2,12,90,55
India,Haryana,Hisar,"Urban Estate-II, Hisar - HSPCB",19-03-2024 10:00:00,29.140560,75.744941,CO,40,98,45
India,Haryana,Jind,"Police Lines, Jind - HSPCB",19-03-2024 10:00:00,29.307814,76.337619,NH3,2,5,4
India,Haryana,Jind,"Police Lines, Jind - HSPCB",19-03-2024 10:00:00,29.307814,76.337619,OZONE,2,22,12
India,Haryana,Kaithal,"Rishi Nagar, Kaithal - HSPCB",19-03-2024 10:00:00,29.8006,76.4155,OZONE,13,24,19
India,Haryana,Kurukshetra,"Sector-7, Kurukshetra - HSPCB",19-03-2024 10:00:00,29.966942,76.875879,NH3,5,5,5
India,Haryana,Kurukshetra,"Sector-7, Kurukshetra - HSPCB",19-03-2024 10:00:00,29.966942,76.875879,SO2,2,91,26
India,Haryana,Mandikhera,"General Hospital, Mandikhera - HSPCB",19-03-2024 10:00:00,27.9002,76.9938,NH3,18,21,20
India,Haryana,Mandikhera,"General Hospital, Mandikhera - HSPCB",19-03-2024 10:00:00,27.9002,76.9938,OZONE,23,31,28
India,Haryana,Manesar,"Sector-2 IMT, Manesar - HSPCB",19-03-2024 10:00:00,28.360699,76.936090,PM2.5,36,198,102
India,Haryana,Manesar,"Sector-2 IMT, Manesar - HSPCB",19-03-2024 10:00:00,28.360699,76.936090,CO,12,42,39
India,Haryana,Narnaul,"Shastri Nagar, Narnaul - HSPCB",19-03-2024 10:00:00,28.060249,76.113115,SO2,13,30,14
India,Haryana,Palwal,"Shyam Nagar, Palwal - HSPCB",19-03-2024 10:00:00,28.1485564,77.3320667,SO2,4,107,21
India,Haryana,Panchkula,"Sector-6, Panchkula - HSPCB ",19-03-2024 10:00:00,30.7057778,76.8531805555555,SO2,11,12,12
India,Haryana,Panchkula,"Sector-6, Panchkula - HSPCB ",19-03-2024 10:00:00,30.7057778,76.8531805555555,CO,4,14,10
India,Haryana,Panipat,"Sector-18, Panipat - HSPCB",19-03-2024 10:00:00,29.497973,76.993331,NH3,2,3,3
India,Haryana,Panipat,"Sector-18, Panipat - HSPCB",19-03-2024 10:00:00,29.497973,76.993331,SO2,18,19,19
India,Haryana,Rohtak,"MD University, Rohtak - HSPCB",19-03-2024 10:00:00,28.52123,76.37138,PM2.5,4,359,204
India,Haryana,Rohtak,"MD University, Rohtak - HSPCB",19-03-2024 10:00:00,28.52123,76.37138,OZONE,41,54,48
India,Haryana,Sirsa,"F-Block, Sirsa - HSPCB",19-03-2024 10:00:00,29.536400,75.015800,CO,25,106,44
India,Haryana,Sonipat,"Murthal, Sonipat - HSPCB",19-03-2024 10:00:00,29.027200,77.062100,PM10,50,109,81
India,Haryana,Sonipat,"Murthal, Sonipat - HSPCB",19-03-2024 10:00:00,29.027200,77.062100,CO,2,25,19
India,Jharkhand,Pathardih,"Mohalbani Ghat, Pathardih - DMC",19-03-2024 10:00:00,23.669880,86.411725,OZONE,8,43,10
India,Karnataka,Bagalkot,"Vidayagiri, Bagalkot - KSPCB",19-03-2024 10:00:00,16.172806,75.659694,CO,18,55,37
India,Karnataka,Bengaluru,"BTM Layout, Bengaluru - CPCB",19-03-2024 10:00:00,12.9135218,77.5950804,NO2,27,28,27
India,Karnataka,Bengaluru,"BTM Layout, Bengaluru - CPCB",19-03-2024 10:00:00,12.9135218,77.5950804,CO,42,44,43
India,Karnataka,Bengaluru,"Bapuji Nagar, Bengaluru - KSPCB",19-03-2024 10:00:00,12.951913,77.539784,SO2,3,8,6
India,Karnataka,Bengaluru,"Hebbal, Bengaluru - KSPCB",19-03-2024 10:00:00,13.029152,77.585901,SO2,NA,NA,NA
India,Karnataka,Bengaluru,"Hebbal, Bengaluru - KSPCB",19-03-2024 10:00:00,13.029152,77.585901,CO,16,52,22
India,Karnataka,Bengaluru,"Hombegowda Nagar, Bengaluru - KSPCB",19-03-2024 10:00:00,12.938539,77.590100,PM10,69,143,96
