country,state,city,station,last_update,latitude,longitude,pollutant_id,pollutant_min,pollutant_max,pollutant_avg
India,Andhra_Pradesh,Amaravati,"Secretariat, Amaravati - APPCB",03-05-2024 08:00:00,16.5150833,80.5181667,PM2.5,9,69,30
India,Andhra_Pradesh,Amaravati,"Secretariat, Amaravati - APPCB",03-05-2024 08:00:00,16.5150833,80.5181667,PM10,29,96,59
India,Andhra_Pradesh,Amaravati,"Secretariat, Amaravati - APPCB",03-05-2024 08:00:00,16.5150833,80.5181667,NO2,3,11,6
India,Andhra_Pradesh,Amaravati,"Secretariat, Amaravati - APPCB",03-05-2024 08:00:00,16.5150833,80.5181667,CO,2,32,24
India,Andhra_Pradesh,Anantapur,"Gulzarpet, Anantapur - APPCB",03-05-2024 08:00:00,14.675886,77.593027,PM10,78,151,112
India,Andhra_Pradesh,Anantapur,"Gulzarpet, Anantapur - APPCB",03-05-2024 08:00:00,14.675886,77.593027,SO2,3,13,8
India,Andhra_Pradesh,Tirupati,"Tirumala, Tirupati - APPCB",03-05-2024 08:00:00,13.67,79.35,PM2.5,27,76,51
India,Andhra_Pradesh,Tirupati,"Tirumala, Tirupati - APPCB",03-05-2024 08:00:00,13.67,79.35,NO2,8,31,17
India,Andhra_Pradesh,Tirupati,"Vaikuntapuram, Tirupati - APPCB",03-05-2024 08:00:00,13.615387,79.409230,NO2,NA,NA,NA
India,Andhra_Pradesh,Vijayawada,"HB Colony, Vijayawada - APPCB",03-05-2024 08:00:00,16.536107,80.594233,PM10,38,102,59
India,Andhra_Pradesh,Vijayawada,"Kanuru, Vijayawada - APPCB",03-05-2024 08:00:00,16.486692,80.699436,OZONE,28,28,28
India,Andhra_Pradesh,Vijayawada,"Rajiv Gandhi Park, Vijayawada - APPCB",03-05-2024 08:00:00,16.509717,80.612222,PM10,31,105,59
India,Andhra_Pradesh,Vijayawada,"Rajiv Gandhi Park, Vijayawada - APPCB",03-05-2024 08:00:00,16.509717,80.612222,CO,36,40,36
India,Andhra_Pradesh,Vijayawada,"Rajiv Nagar, Vijayawada - APPCB",03-05-2024 08:00:00,16.554731,80.649110,PM2.5,42,61,45
India,Andhra_Pradesh,Vijayawada,"Rajiv Nagar, Vijayawada - APPCB",03-05-2024 08:00:00,16.554731,80.649110,NH3,2,3,2
India,Arunachal_Pradesh,Naharlagun,"Naharlagun, Naharlagun - APSPCB",03-05-2024 08:00:00,27.103358,93.679645,PM2.5,28,98,59
India,Arunachal_Pradesh,Naharlagun,"Naharlagun, Naharlagun - APSPCB",03-05-2024 08:00:00,27.103358,93.679645,PM10,28,96,58
India,Assam,Byrnihat,"Central Academy for SFS, Byrnihat - PCBA",03-05-2024 08:00:00,26.071318,91.87488,CO,38,69,43
India,Assam,Byrnihat,"Central Academy for SFS, Byrnihat - PCBA",03-05-2024 08:00:00,26.071318,91.87488,OZONE,23,121,34
India,Assam,Guwahati,"IITG, Guwahati - PCBA",03-05-2024 08:00:00,26.2028636,91.70046436,NO2,1,4,2
India,Assam,Guwahati,"IITG, Guwahati - PCBA",03-05-2024 08:00:00,26.2028636,91.70046436,NH3,5,5,5
India,Assam,Guwahati,"IITG, Guwahati - PCBA",03-05-2024 08:00:00,26.2028636,91.70046436,CO,8,15,12
India,Assam,Guwahati,"LGBI Airport, Guwahati - PCBA",03-05-2024 08:00:00,26.10887,91.589544,PM2.5,50,227,105
India,Assam,Guwahati,"LGBI Airport, Guwahati - PCBA",03-05-2024 08:00:00,26.10887,91.589544,PM10,127,500,190
India,Assam,Guwahati,"Pan Bazaar, Guwahati - PCBA",03-05-2024 08:00:00,26.187500,91.744194,PM2.5,37,98,65
India,Assam,Guwahati,"Pan Bazaar, Guwahati - PCBA",03-05-2024 08:00:00,26.187500,91.744194,CO,18,46,30
India,Assam,Nagaon,"Christianpatty, Nagaon - PCBA",03-05-2024 08:00:00,26.349082,92.68449,NH3,2,6,3
India,Assam,Nalbari,"Bata Chowk, Nalbari - PCBA",03-05-2024 08:00:00,26.446912,91.439057,PM2.5,62,173,90
India,Assam,Nalbari,"Bata Chowk, Nalbari - PCBA",03-05-2024 08:00:00,26.446912,91.439057,NH3,1,1,1
India,Assam,Silchar,"Tarapur, Silchar - PCBA",03-05-2024 08:00:00,24.82827,92.79525,PM10,35,50,41
India,Assam,Sivasagar,"Girls College, Sivasagar - PCBA",03-05-2024 08:00:00,26.987634,94.636574,CO,12,22,14
India,Bihar,Araria,"Kharahiya Basti, Araria - BSPCB",03-05-2024 08:00:00,26.146529,87.454184,NO2,3,11,8
India,Bihar,Araria,"Kharahiya Basti, Araria - BSPCB",03-05-2024 08:00:00,26.146529,87.454184,SO2,9,18,14
India,Bihar,Araria,"Kharahiya Basti, Araria - BSPCB",03-05-2024 08:00:00,26.146529,87.454184,OZONE,6,10,9
India,Bihar,Arrah,"New DM Office, Arrah - BSPCB",03-05-2024 08:00:00,25.5626095,84.663264,SO2,NA,NA,NA
India,Bihar,Arrah,"New DM Office, Arrah - BSPCB",03-05-2024 08:00:00,25.5626095,84.663264,CO,NA,NA,NA
India,Bihar,Bettiah,"Kamalnath Nagar, Bettiah - BSPCB",03-05-2024 08:00:00,26.80365,84.51954,OZONE,2,25,9
India,Bihar,Bhagalpur,"DM Office_Kachari Chowk, Bhagalpur - BSPCB",03-05-2024 08:00:00,25.251013,86.989001,SO2,NA,NA,NA
India,Bihar,Bhagalpur,"Mayaganj, Bhagalpur - BSPCB",03-05-2024 08:00:00,25.265194,87.012947,PM2.5,47,263,96
India,Bihar,Bhagalpur,"Mayaganj, Bhagalpur - BSPCB",03-05-2024 08:00:00,25.265194,87.012947,NH3,7,10,10
India,Bihar,Bhagalpur,"Mayaganj, Bhagalpur - BSPCB",03-05-2024 08:00:00,25.265194,87.012947,CO,8,10,9
India,Bihar,Buxar,"Charitra Van, Buxar - BSPCB (Formerly known as Central Jail)",03-05-2024 08:00:00,25.567520,83.966379,OZONE,23,219,45
India,Bihar,Chhapra,"Darshan Nagar, Chhapra - BSPCB",03-05-2024 08:00:00,25.7808257,84.7446768,PM10,115,188,137
India,Bihar,Gaya,"Collectorate, Gaya - BSPCB",03-05-2024 08:00:00,24.7955,84.9994,PM2.5,37,308,132
India,Bihar,Gaya,"SFTI Kusdihra, Gaya - BSPCB",03-05-2024 08:00:00,24.762518,84.982348,PM10,67,125,90
India,Bihar,Katihar,"Mirchaibari, Katihar - BSPCB",03-05-2024 08:00:00,25.560083,87.553265,PM10,NA,NA,NA
India,Bihar,Kishanganj,"SDM Office_Khagra, Kishanganj - BSPCB",03-05-2024 08:00:00,26.0881305,87.93840336,PM10,140,435,235
India,Bihar,Manguraha,"Forest Rest House, Manguraha - BSPCB",03-05-2024 08:00:00,27.308328,84.531742,PM2.5,NA,NA,NA
India,Bihar,Munger,"Town Hall, Munger - BSPCB",03-05-2024 08:00:00,25.376776,86.471523,NH3,2,3,3
India,Bihar,Muzaffarpur,"Buddha Colony, Muzaffarpur - BSPCB",03-05-2024 08:00:00,26.11442,85.39813,PM2.5,212,341,290
India,Bihar,Muzaffarpur,"Buddha Colony, Muzaffarpur - BSPCB",03-05-2024 08:00:00,26.11442,85.39813,PM10,160,310,215
India,Bihar,Muzaffarpur,"Buddha Colony, Muzaffarpur - BSPCB",03-05-2024 08:00:00,26.11442,85.39813,NO2,21,51,31
India,Bihar,Muzaffarpur,"Buddha Colony, Muzaffarpur - BSPCB",03-05-2024 08:00:00,26.11442,85.39813,SO2,4,19,10
India,Bihar,Muzaffarpur,"Buddha Colony, Muzaffarpur - BSPCB",03-05-2024 08:00:00,26.11442,85.39813,OZONE,13,26,17
India,Bihar,Patna,"DRM Office Danapur, Patna - BSPCB",03-05-2024 08:00:00,25.586562,85.043586,NH3,3,3,3
India,Bihar,Patna,"Govt. High School Shikarpur, Patna - BSPCB",03-05-2024 08:00:00,25.592539,85.227158,CO,26,78,60
India,Bihar,Patna,"IGSC Planetarium Complex, Patna - BSPCB",03-05-2024 08:00:00,25.610369,85.132568,NO2,11,11,11
India,Bihar,Patna,"Muradpur, Patna - BSPCB",03-05-2024 08:00:00,25.619651,85.147382,PM10,214,466,293
India,Bihar,Patna,"Muradpur, Patna - BSPCB",03-05-2024 08:00:00,25.619651,85.147382,OZONE,3,84,18
India,Bihar,Rajgir,"Dangi Tola, Rajgir - BSPCB",03-05-2024 08:00:00,25.03280,85.41948,SO2,3,5,4
India,Bihar,Saharsa,"Police Line, Saharsa - BSPCB",03-05-2024 08:00:00,25.892357,86.590325,PM2.5,NA,NA,NA
India,Bihar,Saharsa,"Police Line, Saharsa - BSPCB",03-05-2024 08:00:00,25.892357,86.590325,PM10,NA,NA,NA
India,Bihar,Samastipur,"DM Office_Kasipur, Samastipur - BSPCB",03-05-2024 08:00:00,25.859655,85.77944,NH3,2,4,3
India,Bihar,Sasaram,"Dada Peer, Sasaram - BSPCB",03-05-2024 08:00:00,24.952822,84.002396,NO2,9,76,39
India,Chhattisgarh,Bhilai,"Civic Center, Bhilai - Bhilai Steel Plant",03-05-2024 08:00:00,21.185571,81.343175,OZONE,15,74,19
India,Chhattisgarh,Bhilai,"Hathkhoj, Bhilai - CECB",03-05-2024 08:00:00,21.224231,81.408350,NH3,8,9,9
India,Chhattisgarh,Bilaspur,"Mangala, Bilaspur - NTPC",03-05-2024 08:00:00,22.08815,82.13737,NO2,10,13,10
India,Chhattisgarh,Chhal,"Nawapara SECL Colony, Chhal - CECB",03-05-2024 08:00:00,22.118125,83.140608,PM2.5,58,97,81
India,Chhattisgarh,Chhal,"Nawapara SECL Colony, Chhal - CECB",03-05-2024 08:00:00,22.118125,83.140608,PM10,63,101,79
India,Chhattisgarh,Chhal,"Nawapara SECL Colony, Chhal - CECB",03-05-2024 08:00:00,22.118125,83.140608,NO2,19,43,28
India,Chhattisgarh,Korba,"Rampur, Korba - CECB",03-05-2024 08:00:00,22.368195,82.746431,CO,13,44,30
India,Chhattisgarh,Raipur,"AIIMS, Raipur - CECB",03-05-2024 08:00:00,21.258815,81.578979,PM2.5,39,90,61
India,Chhattisgarh,Raipur,"Bhatagaon New ISBT, Raipur - CECB",03-05-2024 08:00:00,21.219665,81.630094,NH3,2,2,2
India,Chhattisgarh,Raipur,"Bhatagaon New ISBT, Raipur - CECB",03-05-2024 08:00:00,21.219665,81.630094,OZONE,3,15,4
India,Chhattisgarh,Raipur,"Krishak Nagar, Raipur - CECB",03-05-2024 08:00:00,21.237755,81.705301,NO2,16,17,16
India,Chhattisgarh,Raipur,"Krishak Nagar, Raipur - CECB",03-05-2024 08:00:00,21.237755,81.705301,CO,25,45,34
India,Chhattisgarh,Raipur,"Siltara Phase-II, Raipur - CECB",03-05-2024 08:00:00,21.371751,81.664929,SO2,5,85,35
India,Chhattisgarh,Raipur,"Siltara Phase-II, Raipur - CECB",03-05-2024 08:00:00,21.371751,81.664929,CO,8,58,51
India,Delhi,Delhi,"Alipur, Delhi - DPCC",03-05-2024 08:00:00,28.815329,77.153010,PM2.5,38,392,188
India,Delhi,Delhi,"Alipur, Delhi - DPCC",03-05-2024 08:00:00,28.815329,77.153010,NH3,4,10,6
India,Delhi,Delhi,"Anand Vihar, Delhi - DPCC",03-05-2024 08:00:00,28.647622,77.3158090,PM2.5,52,355,210
India,Delhi,Delhi,"Anand Vihar, Delhi - DPCC",03-05-2024 08:00:00,28.647622,77.3158090,OZONE,5,118,15
India,Delhi,Delhi,"Ashok Vihar, Delhi - DPCC",03-05-2024 08:00:00,28.695381,77.181665,CO,22,101,57
India,Delhi,Delhi,"Bawana, Delhi - DPCC",03-05-2024 08:00:00,28.776200,77.051074,NH3,4,7,5
India,Delhi,Delhi,"Bawana, Delhi - DPCC",03-05-2024 08:00:00,28.776200,77.051074,SO2,7,107,41
India,Delhi,Delhi,"Chandni Chowk, Delhi - IITM",03-05-2024 08:00:00,28.656756,77.227234,NH3,17,45,28
India,Delhi,Delhi,"Chandni Chowk, Delhi - IITM",03-05-2024 08:00:00,28.656756,77.227234,OZONE,8,66,11
India,Delhi,Delhi,"DTU, Delhi - CPCB",03-05-2024 08:00:00,28.7500499,77.1112615,PM2.5,90,352,228
India,Delhi,Delhi,"Dwarka-Sector 8, Delhi - DPCC ",03-05-2024 08:00:00,28.5710274,77.0719006,PM10,140,495,289
India,Delhi,Delhi,"Dwarka-Sector 8, Delhi - DPCC ",03-05-2024 08:00:00,28.5710274,77.0719006,CO,40,107,100
India,Delhi,Delhi,"IGI Airport (T3), Delhi - IMD",03-05-2024 08:00:00,28.5627763,77.1180053,PM2.5,27,451,210
India,Delhi,Delhi,"IGI Airport (T3), Delhi - IMD",03-05-2024 08:00:00,28.5627763,77.1180053,CO,30,98,85
India,Delhi,Delhi,"IHBAS, Dilshad Garden, Delhi - CPCB",03-05-2024 08:00:00,28.6811736,77.3025234,PM10,106,196,140
India,Delhi,Delhi,"IHBAS, Dilshad Garden, Delhi - CPCB",03-05-2024 08:00:00,28.6811736,77.3025234,NH3,8,11,10
India,Delhi,Delhi,"Jahangirpuri, Delhi - DPCC",03-05-2024 08:00:00,28.732820,77.170633,PM10,149,500,318
India,Delhi,Delhi,"Jahangirpuri, Delhi - DPCC",03-05-2024 08:00:00,28.732820,77.170633,NH3,9,70,26
India,Delhi,Delhi,"Jawaharlal Nehru Stadium, Delhi - DPCC",03-05-2024 08:00:00,28.580280,77.233829,PM10,110,325,179
India,Delhi,Delhi,"Jawaharlal Nehru Stadium, Delhi - DPCC",03-05-2024 08:00:00,28.580280,77.233829,OZONE,1,241,6
India,Delhi,Delhi,"Lodhi Road, Delhi - IITM",03-05-2024 08:00:00,28.588333,77.221667,PM2.5,74,399,204
India,Delhi,Delhi,"Major Dhyan Chand National Stadium, Delhi - DPCC",03-05-2024 08:00:00,28.611281,77.237738,NH3,5,7,6
India,Delhi,Delhi,"Major Dhyan Chand National Stadium, Delhi - DPCC",03-05-2024 08:00:00,28.611281,77.237738,CO,1,122,32
India,Delhi,Delhi,"Mandir Marg, Delhi - DPCC",03-05-2024 08:00:00,28.636429,77.201067,PM10,NA,NA,NA
India,Delhi,Delhi,"Mandir Marg, Delhi - DPCC",03-05-2024 08:00:00,28.636429,77.201067,SO2,NA,NA,NA
India,Delhi,Delhi,"Mundka, Delhi - DPCC",03-05-2024 08:00:00,28.684678,77.076574,NO2,16,105,54
India,Delhi,Delhi,"NSIT Dwarka, Delhi - CPCB",03-05-2024 08:00:00,28.60909,77.0325413,PM2.5,98,500,331
India,Delhi,Delhi,"NSIT Dwarka, Delhi - CPCB",03-05-2024 08:00:00,28.60909,77.0325413,NO2,24,57,41
India,Delhi,Delhi,"NSIT Dwarka, Delhi - CPCB",03-05-2024 08:00:00,28.60909,77.0325413,SO2,3,56,18
India,Delhi,Delhi,"NSIT Dwarka, Delhi - CPCB",03-05-2024 08:00:00,28.60909,77.0325413,OZONE,10,105,12
India,Delhi,Delhi,"Narela, Delhi - DPCC",03-05-2024 08:00:00,28.822836,77.101981,PM10,137,445,284
India,Delhi,Delhi,"Nehru Nagar, Delhi - DPCC",03-05-2024 08:00:00,28.567890,77.250515,PM2.5,49,370,195
India,Delhi,Delhi,"Nehru Nagar, Delhi - DPCC",03-05-2024 08:00:00,28.567890,77.250515,NH3,2,3,2
India,Delhi,Delhi,"Nehru Nagar, Delhi - DPCC",03-05-2024 08:00:00,28.567890,77.250515,OZONE,1,172,6
India,Delhi,Delhi,"New Moti Bagh, Delhi - MHUA",03-05-2024 08:00:00,28.57834,77.18400,NO2,5,47,13
India,Delhi,Delhi,"New Moti Bagh, Delhi - MHUA",03-05-2024 08:00:00,28.57834,77.18400,CO,22,109,97
India,Delhi,Delhi,"North Campus, DU, Delhi - IMD",03-05-2024 08:00:00,28.6573814,77.1585447,PM10,111,368,203
India,Delhi,Delhi,"Okhla Phase-2, Delhi - DPCC",03-05-2024 08:00:00,28.530785,77.271255,NO2,33,158,95
India,Delhi,Delhi,"Punjabi Bagh, Delhi - DPCC",03-05-2024 08:00:00,28.674045,77.131023,CO,34,102,47
India,Delhi,Delhi,"Pusa, Delhi - DPCC",03-05-2024 08:00:00,28.639652,77.146275,SO2,6,51,18
India,Delhi,Delhi,"Pusa, Delhi - DPCC",03-05-2024 08:00:00,28.639652,77.146275,CO,16,110,49
India,Delhi,Delhi,"Pusa, Delhi - DPCC",03-05-2024 08:00:00,28.639652,77.146275,OZONE,7,121,8
India,Delhi,Delhi,"Pusa, Delhi - IMD",03-05-2024 08:00:00,28.636110,77.173332,PM10,153,298,213
India,Delhi,Delhi,"R K Puram, Delhi - DPCC",03-05-2024 08:00:00,28.563262,77.186937,NO2,6,57,26
India,Delhi,Delhi,"Rohini, Delhi - DPCC",03-05-2024 08:00:00,28.732528,77.119920,NO2,9,111,48
India,Delhi,Delhi,"Rohini, Delhi - DPCC",03-05-2024 08:00:00,28.732528,77.119920,NH3,5,11,8
India,Delhi,Delhi,"Rohini, Delhi - DPCC",03-05-2024 08:00:00,28.732528,77.119920,CO,16,82,69
India,Delhi,Delhi,"Rohini, Delhi - DPCC",03-05-2024 08:00:00,28.732528,77.119920,OZONE,4,217,8
India,Delhi,Delhi,"Shadipur, Delhi - CPCB",03-05-2024 08:00:00,28.6514781,77.1473105,NH3,10,12,11
India,Delhi,Delhi,"Shadipur, Delhi - CPCB",03-05-2024 08:00:00,28.6514781,77.1473105,SO2,16,39,24
India,Delhi,Delhi,"Sirifort, Delhi - CPCB",03-05-2024 08:00:00,28.5504249,77.2159377,NH3,24,31,28
India,Delhi,Delhi,"Sonia Vihar, Delhi - DPCC",03-05-2024 08:00:00,28.710508,77.249485,PM2.5,39,356,181
India,Delhi,Delhi,"Sonia Vihar, Delhi - DPCC",03-05-2024 08:00:00,28.710508,77.249485,NH3,4,6,4
India,Delhi,Delhi,"Vivek Vihar, Delhi - DPCC",03-05-2024 08:00:00,28.672342,77.315260,CO,12,96,46
India,Delhi,Delhi,"Wazirpur, Delhi - DPCC",03-05-2024 08:00:00,28.699793,77.165453,NO2,7,133,73
India,Delhi,Delhi,"Wazirpur, Delhi - DPCC",03-05-2024 08:00:00,28.699793,77.165453,NH3,6,14,11
India,Delhi,Delhi,"Wazirpur, Delhi - DPCC",03-05-2024 08:00:00,28.699793,77.165453,CO,34,99,65
India,Gujarat,Ahmedabad,"Chandkheda, Ahmedabad - IITM",03-05-2024 08:00:00,23.107969,72.574648,PM10,95,365,166
India,Gujarat,Ahmedabad,"Gyaspur, Ahmedabad - IITM",03-05-2024 08:00:00,22.977134,72.553024,NO2,NA,NA,NA
India,Gujarat,Ahmedabad,"Raikhad, Ahmedabad - IITM",03-05-2024 08:00:00,23.020509,72.579261,CO,22,102,32
India,Gujarat,Ahmedabad,"Rakhial, Ahmedabad - IITM",03-05-2024 08:00:00,23.016834,72.625775,PM2.5,146,247,199
India,Gujarat,Ahmedabad,"Rakhial, Ahmedabad - IITM",03-05-2024 08:00:00,23.016834,72.625775,OZONE,8,92,18
India,Gujarat,Ahmedabad,"SAC ISRO Satellite, Ahmedabad - IITM",03-05-2024 08:00:00,23.023389,72.515201,PM10,90,90,90
India,Gujarat,Ahmedabad,"SVPI Airport Hansol, Ahmedabad - IITM",03-05-2024 08:00:00,23.076793,72.627874,PM2.5,66,309,119
India,Gujarat,Ahmedabad,"SVPI Airport Hansol, Ahmedabad - IITM",03-05-2024 08:00:00,23.076793,72.627874,PM10,85,154,124
India,Gujarat,Ahmedabad,"SVPI Airport Hansol, Ahmedabad - IITM",03-05-2024 08:00:00,23.076793,72.627874,OZONE,25,60,29
India,Gujarat,Ahmedabad,"Sardar Vallabhbhai Patel Stadium, Ahmedabad - IITM",03-05-2024 08:00:00,23.043070,72.562968,PM2.5,86,363,197
India,Gujarat,Ahmedabad,"Sardar Vallabhbhai Patel Stadium, Ahmedabad - IITM",03-05-2024 08:00:00,23.043070,72.562968,CO,26,111,32
India,Gujarat,Ankleshwar,"GIDC, Ankleshwar - GPCB",03-05-2024 08:00:00,21.613267,73.010555,NH3,6,7,6
India,Gujarat,Ankleshwar,"GIDC, Ankleshwar - GPCB",03-05-2024 08:00:00,21.613267,73.010555,OZONE,18,35,24
India,Gujarat,Nandesari,"GIDC, Nandesari - Nandesari Ind. Association",03-05-2024 08:00:00,22.410802,73.097923,PM2.5,NA,NA,NA
India,Gujarat,Vatva,"Phase-4 GIDC, Vatva - GPCB",03-05-2024 08:00:00,22.969611,72.643500,PM10,93,93,93
India,Haryana,Bahadurgarh,"Arya Nagar, Bahadurgarh - HSPCB",03-05-2024 08:00:00,28.6701,76.9254,PM2.5,36,362,182
India,Haryana,Bahadurgarh,"Arya Nagar, Bahadurgarh - HSPCB",03-05-2024 08:00:00,28.6701,76.9254,PM10,117,288,176
India,Haryana,Bahadurgarh,"Arya Nagar, Bahadurgarh - HSPCB",03-05-2024 08:00:00,28.6701,76.9254,OZONE,34,42,39
India,Haryana,Ballabgarh,"Nathu Colony, Ballabgarh - HSPCB",03-05-2024 08:00:00,28.3419248,77.319699,PM2.5,93,418,247
India,Haryana,Ballabgarh,"Nathu Colony, Ballabgarh - HSPCB",03-05-2024 08:00:00,28.3419248,77.319699,NH3,1,2,1
India,Haryana,Ballabgarh,"Nathu Colony, Ballabgarh - HSPCB",03-05-2024 08:00:00,28.3419248,77.319699,SO2,1,93,21
India,Haryana,Bhiwani,"H.B. Colony, Bhiwani - HSPCB",03-05-2024 08:00:00,28.806223,76.141105,PM2.5,83,331,198
India,Haryana,Charkhi Dadri,"Mini Secretariat, Charkhi Dadri - HSPCB",03-05-2024 08:00:00,28.593883,76.270653,PM2.5,2,389,176
India,Haryana,Charkhi Dadri,"Mini Secretariat, Charkhi Dadri - HSPCB",03-05-2024 08:00:00,28.593883,76.270653,NO2,14,22,18
India,Haryana,Charkhi Dadri,"Mini Secretariat, Charkhi Dadri - HSPCB",03-05-2024 08:00:00,28.593883,76.270653,CO,34,90,56
India,Haryana,Dharuhera,"Municipal Corporation Office, Dharuhera -  HSPCB",03-05-2024 08:00:00,28.206800,76.799700,NO2,45,115,70
India,Haryana,Faridabad,"New Industrial Town, Faridabad - HSPCB",03-05-2024 08:00:00,28.39072,77.30059,PM2.5,113,500,220
India,Haryana,Faridabad,"New Industrial Town, Faridabad - HSPCB",03-05-2024 08:00:00,28.39072,77.30059,SO2,4,7,6
India,Haryana,Faridabad,"New Industrial Town, Faridabad - HSPCB",03-05-2024 08:00:00,28.39072,77.30059,OZONE,17,261,36
India,Haryana,Faridabad,"Sector 11, Faridabad - HSPCB",03-05-2024 08:00:00,28.376058,77.315741,OZONE,4,24,4
India,Haryana,Faridabad,"Sector 30, Faridabad - HSPCB",03-05-2024 08:00:00,28.4417,77.3217,PM10,NA,NA,NA
India,Haryana,Faridabad,"Sector 30, Faridabad - HSPCB",03-05-2024 08:00:00,28.4417,77.3217,CO,36,62,54
India,Haryana,Fatehabad,"Huda Sector, Fatehabad - HSPCB",03-05-2024 08:00:00,29.503664,75.467934,SO2,11,11,11
India,Haryana,Gurugram,"Sector-51, Gurugram - HSPCB",03-05-2024 08:00:00,28.4227,77.0667,SO2,2,4,3
India,Haryana,Gurugram,"Sector-51, Gurugram - HSPCB",03-05-2024 08:00:00,28.4227,77.0667,CO,27,96,88
India,Haryana,Gurugram,"Teri Gram, Gurugram - HSPCB",03-05-2024 08:00:00,28.4275,77.1465,CO,8,32,31
India,Haryana,Gurugram,"Vikas Sadan, Gurugram - HSPCB",03-05-2024 08:00:00,28.4501238,77.0263051,SO2,21,70,40
India,Haryana,Gurugram,"Vikas Sadan, Gurugram - HSPCB",03-05-2024 08:00:00,28.4501238,77.0263051,CO,54,150,105
India,Haryana,Hisar,"Urban Estate-II, Hisar - HSPCB",03-05-2024 08:00:00,29.140560,75.744941,OZONE,NA,NA,NA
India,Haryana,Jind,"Police Lines, Jind - HSPCB",03-05-2024 08:00:00,29.307814,76.337619,SO2,3,36,18
India,Haryana,Kaithal,"Rishi Nagar, Kaithal - HSPCB",03-05-2024 08:00:00,29.8006,76.4155,PM2.5,48,97,75
India,Haryana,Karnal,"Sector-12, Karnal - HSPCB",03-05-2024 08:00:00,29.695300,77.002700,NH3,10,13,11
India,Haryana,Karnal,"Sector-12, Karnal - HSPCB",03-05-2024 08:00:00,29.695300,77.002700,OZONE,29,36,35
India,Haryana,Kurukshetra,"Sector-7, Kurukshetra - HSPCB",03-05-2024 08:00:00,29.966942,76.875879,PM10,61,139,117
India,Haryana,Mandikhera,"General Hospital, Mandikhera - HSPCB",03-05-2024 08:00:00,27.9002,76.9938,OZONE,23,35,30
India,Haryana,Manesar,"Sector-2 IMT, Manesar - HSPCB",03-05-2024 08:00:00,28.360699,76.936090,PM10,73,163,120
India,Haryana,Narnaul,"Shastri Nagar, Narnaul - HSPCB",03-05-2024 08:00:00,28.060249,76.113115,NH3,5,27,15
India,Haryana,Panipat,"Sector-18, Panipat - HSPCB",03-05-2024 08:00:00,29.497973,76.993331,CO,24,26,25
India,Haryana,Rohtak,"MD University, Rohtak - HSPCB",03-05-2024 08:00:00,28.52123,76.37138,PM2.5,4,346,135
India,Haryana,Rohtak,"MD University, Rohtak - HSPCB",03-05-2024 08:00:00,28.52123,76.37138,SO2,5,9,7
India,Haryana,Rohtak,"MD University, Rohtak - HSPCB",03-05-2024 08:00:00,28.52123,76.37138,CO,16,94,43
India,Haryana,Sirsa,"F-Block, Sirsa - HSPCB",03-05-2024 08:00:00,29.536400,75.015800,PM10,52,101,79
India,Haryana,Sirsa,"F-Block, Sirsa - HSPCB",03-05-2024 08:00:00,29.536400,75.015800,NO2,10,11,10
India,Haryana,Sonipat,"Murthal, Sonipat - HSPCB",03-05-2024 08:00:00,29.027200,77.062100,NH3,7,10,9
India,Haryana,Sonipat,"Murthal, Sonipat - HSPCB",03-05-2024 08:00:00,29.027200,77.062100,CO,7,30,27
India,Haryana,Yamuna Nagar,"Gobind Pura, Yamuna Nagar - HSPCB",03-05-2024 08:00:00,30.1480566,77.2893471,PM10,85,137,116
India,Haryana,Yamuna Nagar,"Gobind Pura, Yamuna Nagar - HSPCB",03-05-2024 08:00:00,30.1480566,77.2893471,SO2,3,109,15
India,Himachal Pradesh,Baddi,"HIMUDA Complex Phase-1, Baddi - HPPCB",03-05-2024 08:00:00,30.943887,76.801991,PM2.5,17,305,129
India,Himachal Pradesh,Baddi,"HIMUDA Complex Phase-1, Baddi - HPPCB",03-05-2024 08:00:00,30.943887,76.801991,NH3,3,5,4
India,Jammu_and_Kashmir,Srinagar,"Rajbagh, Srinagar - JKSPCB",03-05-2024 08:00:00,34.066206,74.819820,PM2.5,NA,NA,NA
India,Jharkhand,Dhanbad,"Kalakusuma, Dhanbad - DMC",03-05-2024 08:00:00,23.811548,86.481238,OZONE,34,57,34
India,Jharkhand,Pathardih,"Mohalbani Ghat, Pathardih - DMC",03-05-2024 08:00:00,23.669880,86.411725,PM10,NA,NA,NA
India,Karnataka,Belgaum,"Ramteerth Nagar, Belgaum - KSPCB",03-05-2024 08:00:00,15.888653,74.541751,PM2.5,10,69,28
India,Karnataka,Belgaum,"Ramteerth Nagar, Belgaum - KSPCB",03-05-2024 08:00:00,15.888653,74.541751,NH3,2,6,4
India,Karnataka,Bengaluru,"BTM Layout, Bengaluru - CPCB",03-05-2024 08:00:00,12.9135218,77.5950804,NO2,NA,NA,NA
India,Karnataka,Bengaluru,"Bapuji Nagar, Bengaluru - KSPCB",03-05-2024 08:00:00,12.951913,77.539784,PM10,79,162,108
India,Karnataka,Bengaluru,"Hebbal, Bengaluru - KSPCB",03-05-2024 08:00:00,13.029152,77.585901,CO,10,42,22
India,Karnataka,Bengaluru,"Hombegowda Nagar, Bengaluru - KSPCB",03-05-2024 08:00:00,12.938539,77.590100,CO,24,103,29
India,Karnataka,Bengaluru,"Jayanagar 5th Block, Bengaluru - KSPCB",03-05-2024 08:00:00,12.920984,77.584908,NO2,NA,NA,NA
India,Karnataka,Bengaluru,"Jayanagar 5th Block, Bengaluru - KSPCB",03-05-2024 08:00:00,12.920984,77.584908,SO2,3,67,21
India,Karnataka,Bengaluru,"Jayanagar 5th Block, Bengaluru - KSPCB",03-05-2024 08:00:00,12.920984,77.584908,OZONE,28,34,33
India,Karnataka,Bengaluru,"Kasturi Nagar, Bengaluru - KSPCB",03-05-2024 08:00:00,13.003872,77.664217,PM2.5,7,500,115
India,Karnataka,Bengaluru,"Kasturi Nagar, Bengaluru - KSPCB",03-05-2024 08:00:00,13.003872,77.664217,CO,22,28,24
India,Karnataka,Bengaluru,"Peenya, Bengaluru - CPCB",03-05-2024 08:00:00,13.0270199,77.494094,PM2.5,39,82,59
India,Karnataka,Bengaluru,"RVCE-Mailasandra, Bengaluru - KSPCB",03-05-2024 08:00:00,12.921418,77.502466,PM2.5,27,163,86
India,Karnataka,Bengaluru,"Shivapura_Peenya, Bengaluru - KSPCB",03-05-2024 08:00:00,13.0246342,77.5080115,PM10,39,128,68
India,Karnataka,Bengaluru,"Silk Board, Bengaluru - KSPCB",03-05-2024 08:00:00,12.917348,77.622813,SO2,NA,NA,NA
India,Karnataka,Bidar,"Naubad, Bidar - KSPCB",03-05-2024 08:00:00,17.930306,77.482194,PM2.5,39,180,71
India,Karnataka,Bidar,"Naubad, Bidar - KSPCB",03-05-2024 08:00:00,17.930306,77.482194,OZONE,8,49,24
India,Karnataka,Chikkaballapur,"Chikkaballapur Rural, Chikkaballapur - KSPCB",03-05-2024 08:00:00,13.428828,77.731418,OZONE,25,25,25
India,Karnataka,Chikkamagaluru,"Kalyana Nagara, Chikkamagaluru - KSPCB",03-05-2024 08:00:00,13.328028,75.797056,PM10,41,476,136
India,Karnataka,Chikkamagaluru,"Kalyana Nagara, Chikkamagaluru - KSPCB",03-05-2024 08:00:00,13.328028,75.797056,NO2,14,26,19
India,Karnataka,Davanagere,"Devaraj Urs Badavane, Davanagere - KSPCB",03-05-2024 08:00:00,14.475800,75.905200,PM2.5,42,264,71
India,Karnataka,Davanagere,"Devaraj Urs Badavane, Davanagere - KSPCB",03-05-2024 08:00:00,14.475800,75.905200,SO2,4,7,5
India,Karnataka,Davanagere,"Devaraj Urs Badavane, Davanagere - KSPCB",03-05-2024 08:00:00,14.475800,75.905200,CO,18,22,18
India,Karnataka,Dharwad,"Kalabhavan, Dharwad - KSPCB",03-05-2024 08:00:00,15.459706,75.008381,CO,14,101,30
India,Karnataka,Gadag,"Panchal Nagar, Gadag - KSPCB",03-05-2024 08:00:00,15.411456,75.638133,PM2.5,18,67,35
India,Karnataka,Hassan,"B.Katihalli, Hassan - KSPCB",03-05-2024 08:00:00,13.008556,76.125258,NO2,10,14,12
India,Karnataka,Hassan,"B.Katihalli, Hassan - KSPCB",03-05-2024 08:00:00,13.008556,76.125258,CO,2,2,2
India,Karnataka,Haveri,"Ashwini Nagar, Haveri - KSPCB",03-05-2024 08:00:00,14.791800,75.389600,PM2.5,35,87,59
India,Karnataka,Haveri,"Ashwini Nagar, Haveri - KSPCB",03-05-2024 08:00:00,14.791800,75.389600,CO,36,38,38
India,Karnataka,Haveri,"Ashwini Nagar, Haveri - KSPCB",03-05-2024 08:00:00,14.791800,75.389600,OZONE,18,20,19
India,Karnataka,Hubballi,"Deshpande Nagar, Hubballi - KSPCB",03-05-2024 08:00:00,15.351773,75.140726,PM2.5,27,70,45
India,Karnataka,Hubballi,"Deshpande Nagar, Hubballi - KSPCB",03-05-2024 08:00:00,15.351773,75.140726,NO2,25,27,27
India,Karnataka,Hubballi,"Deshpande Nagar, Hubballi - KSPCB",03-05-2024 08:00:00,15.351773,75.140726,OZONE,2,15,6
India,Karnataka,Hubballi,"Lingaraj Nagar, Hubballi - KSPCB",03-05-2024 08:00:00,15.3714823,75.1160168,NO2,7,8,8
India,Karnataka,Hubballi,"Lingaraj Nagar, Hubballi - KSPCB",03-05-2024 08:00:00,15.3714823,75.1160168,SO2,1,11,3
India,Karnataka,Kalaburagi,"Lal Bahadur Shastri Nagar, Kalaburagi - KSPCB",03-05-2024 08:00:00,17.321993,76.822628,OZONE,17,79,38
India,Karnataka,Karwar,"KHB Colony, Karwar - KSPCB",03-05-2024 08:00:00,14.816666,74.141003,PM10,29,68,44
India,Karnataka,Karwar,"KHB Colony, Karwar - KSPCB",03-05-2024 08:00:00,14.816666,74.141003,NH3,1,6,1
India,Karnataka,Karwar,"KHB Colony, Karwar - KSPCB",03-05-2024 08:00:00,14.816666,74.141003,SO2,22,23,22
India,Karnataka,Kolar,"Tamaka Ind. Area, Kolar - KSPCB",03-05-2024 08:00:00,13.1276288,78.1570122,PM10,63,108,81
India,Karnataka,Madikeri,"Stuart Hill, Madikeri - KSPCB",03-05-2024 08:00:00,12.415911,75.735050,PM10,37,70,52
India,Karnataka,Madikeri,"Stuart Hill, Madikeri - KSPCB",03-05-2024 08:00:00,12.415911,75.735050,NH3,NA,NA,NA
India,Karnataka,Mangalore,"Kadri, Mangalore - KSPCB",03-05-2024 08:00:00,12.889250,74.853000,SO2,16,17,17
India,Karnataka,Mysuru,"Hebbal 1st Stage, Mysuru - KSPCB",03-05-2024 08:00:00,12.21041,76.37376,PM2.5,27,67,41
India,Karnataka,Mysuru,"Hebbal 1st Stage, Mysuru - KSPCB",03-05-2024 08:00:00,12.21041,76.37376,SO2,1,5,2
India,Karnataka,Shivamogga,"Vinoba Nagara, Shivamogga - KSPCB",03-05-2024 08:00:00,13.940000,75.555917,PM2.5,30,59,46
India,Karnataka,Tumakuru,"Thimmalapura, Tumakuru - KSPCB",03-05-2024 08:00:00,13.377516,77.099072,NH3,2,7,3
India,Karnataka,Vijayapura,"Ibrahimpur, Vijayapura - KSPCB",03-05-2024 08:00:00,16.802639,75.722694,PM10,41,43,42
India,Karnataka,Yadgir,"Collector Office, Yadgir - KSPCB",03-05-2024 08:00:00,16.7602,77.1428,NO2,6,13,7
India,Karnataka,Yadgir,"Collector Office, Yadgir - KSPCB",03-05-2024 08:00:00,16.7602,77.1428,NH3,NA,NA,NA
India,Kerala,Kollam,"Polayathode, Kollam - Kerala PCB",03-05-2024 08:00:00,8.8787,76.6073,PM2.5,74,254,150
India,Kerala,Thiruvananthapuram,"Kariavattom, Thiruvananthapuram - Kerala PCB",03-05-2024 08:00:00,8.563700,76.886500,NO2,8,10,9
India,Kerala,Thiruvananthapuram,"Kariavattom, Thiruvananthapuram - Kerala PCB",03-05-2024 08:00:00,8.563700,76.886500,NH3,1,1,1
India,Kerala,Thiruvananthapuram,"Plammoodu, Thiruvananthapuram - Kerala PCB",03-05-2024 08:00:00,8.5149093,76.9435879,NH3,1,1,1
India,Kerala,Thiruvananthapuram,"Plammoodu, Thiruvananthapuram - Kerala PCB",03-05-2024 08:00:00,8.5149093,76.9435879,SO2,9,12,11
India,Kerala,Thiruvananthapuram,"Plammoodu, Thiruvananthapuram - Kerala PCB",03-05-2024 08:00:00,8.5149093,76.9435879,CO,18,26,23
India,Kerala,Thrissur,"Corporation Ground, Thrissur - Kerala PCB",03-05-2024 08:00:00,10.532400,76.215900,PM2.5,43,51,48
India,Kerala,Thrissur,"Corporation Ground, Thrissur - Kerala PCB",03-05-2024 08:00:00,10.532400,76.215900,NO2,7,8,7
India,Madhya Pradesh,Bhopal,"Idgah Hills, Bhopal - MPPCB",03-05-2024 08:00:00,23.264759,77.381568,PM10,91,143,118
India,Madhya Pradesh,Bhopal,"Idgah Hills, Bhopal - MPPCB",03-05-2024 08:00:00,23.264759,77.381568,NO2,19,41,27
India,Madhya Pradesh,Bhopal,"Paryavaran Parisar, Bhopal - MPPCB",03-05-2024 08:00:00,23.210494,77.425409,PM10,103,178,131
India,Madhya Pradesh,Bhopal,"Paryavaran Parisar, Bhopal - MPPCB",03-05-2024 08:00:00,23.210494,77.425409,NH3,6,9,7
India,Madhya Pradesh,Bhopal,"Paryavaran Parisar, Bhopal - MPPCB",03-05-2024 08:00:00,23.210494,77.425409,CO,3,140,36
India,Madhya Pradesh,Bhopal,"Paryavaran Parisar, Bhopal - MPPCB",03-05-2024 08:00:00,23.210494,77.425409,OZONE,7,138,29
India,Madhya Pradesh,Gwalior,"City Center, Gwalior - MPPCB",03-05-2024 08:00:00,26.203442,78.193251,NO2,8,109,30
India,Madhya Pradesh,Gwalior,"City Center, Gwalior - MPPCB",03-05-2024 08:00:00,26.203442,78.193251,NH3,2,10,6
India,Madhya Pradesh,Gwalior,"City Center, Gwalior - MPPCB",03-05-2024 08:00:00,26.203442,78.193251,OZONE,19,73,31
India,Madhya Pradesh,Gwalior,"Maharaj Bada, Gwalior - MPPCB",03-05-2024 08:00:00,26.200388,78.147714,NO2,11,105,32
India,Madhya Pradesh,Gwalior,"Phool Bagh, Gwalior - Mondelez Ind. Food",03-05-2024 08:00:00,26.210536,78.171,PM2.5,8,269,140
India,Madhya Pradesh,Gwalior,"Phool Bagh, Gwalior - Mondelez Ind. Food",03-05-2024 08:00:00,26.210536,78.171,SO2,20,34,27
India,Madhya Pradesh,Indore,"Chhoti Gwaltoli, Indore - MPPCB",03-05-2024 08:00:00,22.4310,75.5213,OZONE,10,149,36
India,Madhya Pradesh,Indore,"Maguda Nagar, Indore - IMC",03-05-2024 08:00:00,22.7524,75.8872,NO2,6,8,7
India,Madhya Pradesh,Indore,"Regional Park, Indore - IMC",03-05-2024 08:00:00,22.6780,75.8559,SO2,51,55,53
India,Madhya Pradesh,Jabalpur,"Govindh Bhavan Colony, Jabalpur - JMC",03-05-2024 08:00:00,23.163174,79.973061,SO2,9,19,13
India,Madhya Pradesh,Jabalpur,"Gupteshwar, Jabalpur - JMC",03-05-2024 08:00:00,23.142888,79.916147,NO2,16,125,45
India,Madhya Pradesh,Jabalpur,"Gupteshwar, Jabalpur - JMC",03-05-2024 08:00:00,23.142888,79.916147,CO,19,124,64
India,Madhya Pradesh,Jabalpur,"Marhatal, Jabalpur - MPPCB",03-05-2024 08:00:00,23.168606,79.932247,PM10,112,358,173
India,Madhya Pradesh,Jabalpur,"Marhatal, Jabalpur - MPPCB",03-05-2024 08:00:00,23.168606,79.932247,NO2,12,151,55
India,Madhya Pradesh,Katni,"Gole Bazar, Katni - MPPCB",03-05-2024 08:00:00,23.50016,80.23284,NH3,2,5,3
India,Madhya Pradesh,Katni,"Gole Bazar, Katni - MPPCB",03-05-2024 08:00:00,23.50016,80.23284,CO,18,115,80
India,Madhya Pradesh,Katni,"Gole Bazar, Katni - MPPCB",03-05-2024 08:00:00,23.50016,80.23284,OZONE,8,174,22
India,Madhya Pradesh,Mandideep,"Sector-D Industrial Area, Mandideep - MPPCB",03-05-2024 08:00:00,23.108440,77.511428,CO,2,107,81
India,Madhya Pradesh,Pithampur,"Sector-2 Industrial Area, Pithampur - MPPCB",03-05-2024 08:00:00,22.624758,75.675238,NO2,7,24,12
India,Madhya Pradesh,Sagar,"Civil Lines, Sagar - MPPCB",03-05-2024 08:00:00,23.838586,78.759431,PM2.5,24,179,60
India,Madhya Pradesh,Sagar,"Deen Dayal Nagar, Sagar - MPPCB",03-05-2024 08:00:00,23.8640158,78.80289321,PM10,63,297,154
India,Madhya Pradesh,Sagar,"Deen Dayal Nagar, Sagar - MPPCB",03-05-2024 08:00:00,23.8640158,78.80289321,SO2,8,13,9
India,Madhya Pradesh,Satna,"Bandhavgar Colony, Satna - Birla Cement",03-05-2024 08:00:00,24.58434363,80.8549414,OZONE,11,24,13
India,Madhya Pradesh,Ujjain,"Mahakaleshwar Temple, Ujjain - MPPCB",03-05-2024 08:00:00,23.182719 ,75.768218 ,PM10,NA,NA,NA
India,Maharashtra,Ahmednagar,"Tarakpur, Ahmednagar - MPCB",03-05-2024 08:00:00,19.10122,74.73339,NO2,23,123,51
India,Maharashtra,Ahmednagar,"Tarakpur, Ahmednagar - MPCB",03-05-2024 08:00:00,19.10122,74.73339,SO2,6,13,10
India,Maharashtra,Akola,"Ramdaspeth, Akola - MPCB",03-05-2024 08:00:00,20.719516,77.000253,NH3,2,13,7
India,Maharashtra,Akola,"Ramdaspeth, Akola - MPCB",03-05-2024 08:00:00,20.719516,77.000253,CO,15,92,32
India,Maharashtra,Amravati,"Shivneri Colony, Amravati - MPCB",03-05-2024 08:00:00,20.9402359,77.7895248,SO2,2,4,3
India,Maharashtra,Aurangabad,"MIDC Chilkalthana, Aurangabad - MPCB",03-05-2024 08:00:00,19.875620,75.387310,NH3,NA,NA,NA
India,Maharashtra,Aurangabad,"Rachnakar Colony, Aurangabad - MPCB",03-05-2024 08:00:00,19.863756,75.321188,PM10,127,368,199
India,Maharashtra,Aurangabad,"Rachnakar Colony, Aurangabad - MPCB",03-05-2024 08:00:00,19.863756,75.321188,SO2,17,54,34
India,Maharashtra,Badlapur,"Katrap, Badlapur - MPCB",03-05-2024 08:00:00,19.16485,73.23409,PM10,108,147,126
India,Maharashtra,Badlapur,"Katrap, Badlapur - MPCB",03-05-2024 08:00:00,19.16485,73.23409,NO2,14,44,29
India,Maharashtra,Belapur,"CBD Belapur, Belapur - MPCB",03-05-2024 08:00:00,19.0243902,73.0406721,PM2.5,65,199,136
India,Maharashtra,Belapur,"CBD Belapur, Belapur - MPCB",03-05-2024 08:00:00,19.0243902,73.0406721,SO2,2,16,5
India,Maharashtra,Bhiwandi,"Gokul Nagar, Bhiwandi - MPCB",03-05-2024 08:00:00,19.309073,73.057223,PM2.5,35,79,55
India,Maharashtra,Bhiwandi,"Gokul Nagar, Bhiwandi - MPCB",03-05-2024 08:00:00,19.309073,73.057223,NH3,1,4,3
India,Maharashtra,Bhiwandi,"Gokul Nagar, Bhiwandi - MPCB",03-05-2024 08:00:00,19.309073,73.057223,SO2,19,25,21
India,Maharashtra,Bhiwandi,"Gokul Nagar, Bhiwandi - MPCB",03-05-2024 08:00:00,19.309073,73.057223,CO,14,102,54
India,Maharashtra,Boisar,"Khaira, Boisar - MPCB",03-05-2024 08:00:00,19.786089,72.757971,NO2,2,25,6
India,Maharashtra,Chandrapur,"Chauhan Colony, Chandrapur - MPCB",03-05-2024 08:00:00,19.962900,79.298714,PM2.5,51,196,103
India,Maharashtra,Chandrapur,"Chauhan Colony, Chandrapur - MPCB",03-05-2024 08:00:00,19.962900,79.298714,PM10,59,135,97
India,Maharashtra,Dhule,"Deopur, Dhule - MPCB",03-05-2024 08:00:00,20.918946,74.776388,PM2.5,56,108,77
India,Maharashtra,Dhule,"Deopur, Dhule - MPCB",03-05-2024 08:00:00,20.918946,74.776388,PM10,119,148,130
India,Maharashtra,Jalgaon,"Prabhat Colony, Jalgaon - MPCB",03-05-2024 08:00:00,21.001264,75.565602,PM10,83,188,124
India,Maharashtra,Jalgaon,"Prabhat Colony, Jalgaon - MPCB",03-05-2024 08:00:00,21.001264,75.565602,SO2,5,25,14
India,Maharashtra,Jalna,"Old MIDC, Jalna - MPCB",03-05-2024 08:00:00,19.854616,75.905894,NH3,NA,NA,NA
India,Maharashtra,Kalyan,"Khadakpada, Kalyan - MPCB",03-05-2024 08:00:00,19.25292,73.142019,NO2,28,38,32
India,Maharashtra,Kalyan,"Khadakpada, Kalyan - MPCB",03-05-2024 08:00:00,19.25292,73.142019,NH3,1,1,1
India,Maharashtra,Kolhapur,"Shivaji University, Kolhapur - MPCB",03-05-2024 08:00:00,16.6870449,74.2505872,CO,36,76,51
India,Maharashtra,Kolhapur,"Shivaji University, Kolhapur - MPCB",03-05-2024 08:00:00,16.6870449,74.2505872,OZONE,24,111,39
India,Maharashtra,Kolhapur,"Sinchan Bhavan, Kolhapur - MPCB",03-05-2024 08:00:00,16.7143745,74.2426398,PM2.5,32,64,45
India,Maharashtra,Kolhapur,"Sinchan Bhavan, Kolhapur - MPCB",03-05-2024 08:00:00,16.7143745,74.2426398,NH3,7,8,8
India,Maharashtra,Kolhapur,"Sinchan Bhavan, Kolhapur - MPCB",03-05-2024 08:00:00,16.7143745,74.2426398,SO2,1,7,3
India,Maharashtra,Latur,"Sawe Wadi, Latur - MPCB",03-05-2024 08:00:00,18.39963,76.57452,NH3,8,10,9
India,Maharashtra,Mahad,"Kamble Tarf Birwadi, Mahad - MPCB",03-05-2024 08:00:00,18.1023399,73.4783687,PM2.5,44,163,75
India,Maharashtra,Mahad,"Kamble Tarf Birwadi, Mahad - MPCB",03-05-2024 08:00:00,18.1023399,73.4783687,PM10,90,133,108
India,Maharashtra,Malegaon,"Mahesh Nagar, Malegaon - MPCB",03-05-2024 08:00:00,20.555712,74.529236,PM2.5,57,87,74
India,Maharashtra,Malegaon,"Mahesh Nagar, Malegaon - MPCB",03-05-2024 08:00:00,20.555712,74.529236,NO2,10,44,22
India,Maharashtra,Mira-Bhayandar,"Bhayandar West, Mira-Bhayandar - MPCB",03-05-2024 08:00:00,19.296481,72.840923,OZONE,4,75,13
India,Maharashtra,Mumbai,"Bandra Kurla Complex, Mumbai - MPCB",03-05-2024 08:00:00,19.065931,72.862131,NO2,4,14,7
India,Maharashtra,Mumbai,"Bandra Kurla Complex, Mumbai - MPCB",03-05-2024 08:00:00,19.065931,72.862131,OZONE,24,84,55
India,Maharashtra,Mumbai,"Borivali East, Mumbai - IITM",03-05-2024 08:00:00,19.23241,72.86895,NH3,2,15,6
India,Maharashtra,Mumbai,"Borivali East, Mumbai - MPCB",03-05-2024 08:00:00,19.2243333,72.8658113,PM2.5,13,48,30
India,Maharashtra,Mumbai,"Byculla, Mumbai - BMC",03-05-2024 08:00:00,18.9767,72.8380,NH3,2,3,2
India,Maharashtra,Mumbai,"Chakala-Andheri East, Mumbai - IITM",03-05-2024 08:00:00,19.11074,72.86084,OZONE,23,58,37
India,Maharashtra,Mumbai,"Chhatrapati Shivaji Intl. Airport (T2), Mumbai - MPCB",03-05-2024 08:00:00,19.10078,72.87462,OZONE,4,8,5
India,Maharashtra,Mumbai,"Kandivali West, Mumbai - BMC",03-05-2024 08:00:00,19.215859,72.831718,NO2,7,30,15
India,Maharashtra,Mumbai,"Khindipada-Bhandup West, Mumbai - IITM",03-05-2024 08:00:00,19.1653323,72.922099,NO2,4,12,8
India,Maharashtra,Mumbai,"Khindipada-Bhandup West, Mumbai - IITM",03-05-2024 08:00:00,19.1653323,72.922099,SO2,4,10,7
India,Maharashtra,Mumbai,"Khindipada-Bhandup West, Mumbai - IITM",03-05-2024 08:00:00,19.1653323,72.922099,CO,36,62,41
India,Maharashtra,Mumbai,"Kurla, Mumbai - MPCB",03-05-2024 08:00:00,19.0863,72.8888,NO2,13,18,16
India,Maharashtra,Mumbai,"Kurla, Mumbai - MPCB",03-05-2024 08:00:00,19.0863,72.8888,SO2,32,32,32
India,Maharashtra,Mumbai,"Kurla, Mumbai - MPCB",03-05-2024 08:00:00,19.0863,72.8888,OZONE,27,31,28
India,Maharashtra,Mumbai,"Mazgaon, Mumbai - IITM",03-05-2024 08:00:00,18.96702,72.84214,NH3,15,22,17
India,Maharashtra,Mumbai,"Mindspace-Malad West, Mumbai - MPCB",03-05-2024 08:00:00,19.1878657,72.8304069,PM10,62,112,88
India,Maharashtra,Mumbai,"Mulund West, Mumbai - MPCB",03-05-2024 08:00:00,19.1750,72.9419,NO2,15,16,15
India,Maharashtra,Mumbai,"Navy Nagar-Colaba, Mumbai - IITM",03-05-2024 08:00:00,18.897756,72.813320,NH3,4,6,5
India,Maharashtra,Mumbai,"Navy Nagar-Colaba, Mumbai - IITM",03-05-2024 08:00:00,18.897756,72.813320,OZONE,64,121,77
India,Maharashtra,Mumbai,"Powai, Mumbai - MPCB",03-05-2024 08:00:00,19.137500,72.915056,OZONE,26,81,29
India,Maharashtra,Mumbai,"Sewri, Mumbai - BMC",03-05-2024 08:00:00,19.000084,72.856730,CO,4,32,10
India,Maharashtra,Mumbai,"Sion, Mumbai - MPCB",03-05-2024 08:00:00,19.047000,72.874600,NO2,90,99,95
India,Maharashtra,Mumbai,"Sion, Mumbai - MPCB",03-05-2024 08:00:00,19.047000,72.874600,SO2,33,36,34
India,Maharashtra,Mumbai,"Sion, Mumbai - MPCB",03-05-2024 08:00:00,19.047000,72.874600,CO,62,68,68
India,Maharashtra,Mumbai,"Vasai West, Mumbai - MPCB",03-05-2024 08:00:00,19.383200,72.820400,PM2.5,39,181,73
India,Maharashtra,Mumbai,"Vile Parle West, Mumbai - MPCB",03-05-2024 08:00:00,19.10861,72.83622,PM2.5,27,78,48
India,Maharashtra,Mumbai,"Worli, Mumbai - MPCB",03-05-2024 08:00:00,18.9936162,72.8128113,PM10,112,219,147
India,Maharashtra,Mumbai,"Worli, Mumbai - MPCB",03-05-2024 08:00:00,18.9936162,72.8128113,CO,28,30,28
India,Maharashtra,Nagpur,"Ambazari, Nagpur - MPCB",03-05-2024 08:00:00,21.121801,79.04952,PM10,85,116,102
India,Maharashtra,Nagpur,"Ambazari, Nagpur - MPCB",03-05-2024 08:00:00,21.121801,79.04952,NH3,2,13,4
India,Maharashtra,Nagpur,"Ambazari, Nagpur - MPCB",03-05-2024 08:00:00,21.121801,79.04952,SO2,8,112,26
India,Maharashtra,Nagpur,"Ambazari, Nagpur - MPCB",03-05-2024 08:00:00,21.121801,79.04952,CO,8,111,12
India,Maharashtra,Nagpur,"Mahal, Nagpur - MPCB",03-05-2024 08:00:00,21.14472,79.107595,CO,25,172,38
India,Maharashtra,Nanded,"Sneh Nagar, Nanded - MPCB",03-05-2024 08:00:00,19.173852,77.296291,PM10,101,207,135
India,Maharashtra,Nashik,"Gangapur Road, Nashik - MPCB",03-05-2024 08:00:00,20.0073285,73.7762427,NH3,1,2,2
India,Maharashtra,Nashik,"Gangapur Road, Nashik - MPCB",03-05-2024 08:00:00,20.0073285,73.7762427,SO2,4,18,10
India,Maharashtra,Nashik,"Gangapur Road, Nashik - MPCB",03-05-2024 08:00:00,20.0073285,73.7762427,CO,20,75,51
India,Maharashtra,Nashik,"Hirawadi, Nashik - MPCB",03-05-2024 08:00:00,20.021503,73.813844,NO2,6,43,15
India,Maharashtra,Nashik,"Hirawadi, Nashik - MPCB",03-05-2024 08:00:00,20.021503,73.813844,CO,12,58,53
India,Maharashtra,Navi Mumbai,"Kopripada-Vashi, Navi Mumbai - MPCB",03-05-2024 08:00:00,19.090337,73.014232,PM2.5,31,160,75
India,Maharashtra,Navi Mumbai,"Mahape, Navi Mumbai - MPCB",03-05-2024 08:00:00,19.1135051,73.008978,NO2,83,86,85
India,Maharashtra,Navi Mumbai,"Mahape, Navi Mumbai - MPCB",03-05-2024 08:00:00,19.1135051,73.008978,NH3,1,2,1
India,Maharashtra,Navi Mumbai,"Nerul, Navi Mumbai - MPCB",03-05-2024 08:00:00,19.008751,73.016620,PM2.5,48,107,81
India,Maharashtra,Navi Mumbai,"Sanpada, Navi Mumbai - MPCB",03-05-2024 08:00:00,19.0575752,73.0151367,NH3,1,8,4
India,Maharashtra,Navi Mumbai,"Sector-19A Nerul, Navi Mumbai - IITM",03-05-2024 08:00:00,19.044,73.0325,PM10,104,156,120
India,Maharashtra,Navi Mumbai,"Sector-19A Nerul, Navi Mumbai - IITM",03-05-2024 08:00:00,19.044,73.0325,SO2,NA,NA,NA
India,Maharashtra,Navi Mumbai,"Sector-2E Kalamboli, Navi Mumbai - MPCB",03-05-2024 08:00:00,19.02579,73.10297,PM2.5,31,106,73
India,Maharashtra,Navi Mumbai,"Sector-2E Kalamboli, Navi Mumbai - MPCB",03-05-2024 08:00:00,19.02579,73.10297,PM10,67,135,109
India,Maharashtra,Parbhani,"Masoom Colony, Parbhani - MPCB",03-05-2024 08:00:00,19.265594,76.761463,PM2.5,15,374,105
India,Maharashtra,Pimpri-Chinchwad,"Gavalinagar, Pimpri Chinchwad - MPCB",03-05-2024 08:00:00,18.63673,73.82487,PM10,70,106,87
India,Maharashtra,Pimpri-Chinchwad,"Gavalinagar, Pimpri Chinchwad - MPCB",03-05-2024 08:00:00,18.63673,73.82487,SO2,6,36,11
India,Maharashtra,Pimpri-Chinchwad,"Thergaon, Pimpri Chinchwad - MPCB",03-05-2024 08:00:00,18.616318,73.765797,NO2,23,72,39
India,Maharashtra,Pune,"Bhosari, Pune - IITM",03-05-2024 08:00:00,18.640051,73.848956,PM10,68,104,86
India,Maharashtra,Pune,"Bhosari, Pune - IITM",03-05-2024 08:00:00,18.640051,73.848956,OZONE,17,92,35
India,Maharashtra,Pune,"Katraj Dairy, Pune - MPCB",03-05-2024 08:00:00,18.454450,73.854155,PM2.5,44,66,52
India,Maharashtra,Pune,"Katraj Dairy, Pune - MPCB",03-05-2024 08:00:00,18.454450,73.854155,NH3,1,4,3
India,Maharashtra,Pune,"Katraj Dairy, Pune - MPCB",03-05-2024 08:00:00,18.454450,73.854155,SO2,3,10,5
India,Maharashtra,Pune,"Revenue Colony-Shivajinagar, Pune - IITM",03-05-2024 08:00:00,18.530085,73.849598,CO,108,118,109
India,Maharashtra,Pune,"Savitribai Phule Pune University, Pune - MPCB",03-05-2024 08:00:00,18.547056,73.826908,CO,12,26,20
India,Maharashtra,Sangli,"Vijay Nagar, Sangli - MPCB",03-05-2024 08:00:00, 16.5038,74.3623,PM2.5,24,50,37
India,Maharashtra,Sangli,"Vijay Nagar, Sangli - MPCB",03-05-2024 08:00:00, 16.5038,74.3623,NH3,1,3,2
India,Maharashtra,Sangli,"Vijay Nagar, Sangli - MPCB",03-05-2024 08:00:00, 16.5038,74.3623,SO2,7,20,12
India,Maharashtra,Sangli,"Vijay Nagar, Sangli - MPCB",03-05-2024 08:00:00, 16.5038,74.3623,OZONE,11,114,35
India,Maharashtra,Solapur,"Dnyaneshwar Nagar, Solapur - MPCB",03-05-2024 08:00:00,17.6336264,75.9132495,NO2,6,125,36
India,Maharashtra,Solapur,"Dnyaneshwar Nagar, Solapur - MPCB",03-05-2024 08:00:00,17.6336264,75.9132495,NH3,12,85,24
India,Maharashtra,Solapur,"Dnyaneshwar Nagar, Solapur - MPCB",03-05-2024 08:00:00,17.6336264,75.9132495,SO2,4,15,8
India,Maharashtra,Solapur,"Ratandeep Housing Society, Solapur - MPCB",03-05-2024 08:00:00,17.65439,75.90649,SO2,2,17,7
India,Maharashtra,Solapur,"Ratandeep Housing Society, Solapur - MPCB",03-05-2024 08:00:00,17.65439,75.90649,OZONE,2,113,61
India,Maharashtra,Solapur,"Solapur, Solapur - MPCB",03-05-2024 08:00:00,17.6599188,75.9063906,PM10,NA,NA,NA
India,Maharashtra,Solapur,"Solapur, Solapur - MPCB",03-05-2024 08:00:00,17.6599188,75.9063906,SO2,NA,NA,NA
India,Maharashtra,Thane,"Kasarvadavali, Thane - MPCB",03-05-2024 08:00:00,19.26777,72.97182,PM10,80,126,104
India,Maharashtra,Thane,"Pimpleshwar Mandir, Thane - MPCB",03-05-2024 08:00:00,19.192056,72.9585188,PM10,84,409,149
India,Maharashtra,Thane,"Upvan Fort, Thane - MPCB",03-05-2024 08:00:00,19.222279,72.957979,CO,5,28,21
India,Maharashtra,Ulhasnagar,"Sidhi Vinayak Nagar, Ulhasnagar - MPCB",03-05-2024 08:00:00,19.235581,73.159121,PM2.5,57,112,90
India,Maharashtra,Ulhasnagar,"Sidhi Vinayak Nagar, Ulhasnagar - MPCB",03-05-2024 08:00:00,19.235581,73.159121,NH3,1,2,2
India,Maharashtra,Virar,"Bolinj, Virar - MPCB",03-05-2024 08:00:00,19.4458210,72.7988231,CO,7,108,55
India,Manipur,Imphal,"DM College of Science, Imphal - Manipur PCB",03-05-2024 08:00:00,24.8207389,93.9423085,NH3,2,2,2
India,Meghalaya,Shillong,"Lumpyngngad, Shillong - Meghalaya PCB",03-05-2024 08:00:00,25.5586,91.8985,NO2,1,2,1
India,Mizoram,Aizawl,"Sikulpuikawn, Aizawl - Mizoram PCB",03-05-2024 08:00:00,23.7176342,92.7192841,OZONE,1,25,7
India,Nagaland,Kohima,"PWD Juction, Kohima - NPCB",03-05-2024 08:00:00,25.6635413,94.0989878,NH3,1,1,1
India,Odisha,Angul,"Hakimapada, Angul - OSPCB",03-05-2024 08:00:00,20.832874,85.104082,OZONE,6,157,22
India,Odisha,Barbil,"Forest Office, Barbil - OSPCB",03-05-2024 08:00:00,22.1166054,85.3945546,PM10,126,290,179
India,Odisha,Baripada,"Meher Colony, Baripada - OSPCB",03-05-2024 08:00:00,21.941841,86.728318,NO2,18,43,27
India,Odisha,Baripada,"Meher Colony, Baripada - OSPCB",03-05-2024 08:00:00,21.941841,86.728318,NH3,1,9,3
India,Odisha,Bhubaneswar,"Lingraj Mandir, Bhubaneswar - OSPCB",03-05-2024 08:00:00,20.240790,85.836784,NO2,3,11,6
India,Odisha,Bhubaneswar,"Lingraj Mandir, Bhubaneswar - OSPCB",03-05-2024 08:00:00,20.240790,85.836784,CO,26,111,50
India,Odisha,Bhubaneswar,"Patia, Bhubaneswar - OSPCB",03-05-2024 08:00:00,20.34652,85.81630,PM2.5,3,55,24
India,Odisha,Bhubaneswar,"Patia, Bhubaneswar - OSPCB",03-05-2024 08:00:00,20.34652,85.81630,OZONE,12,90,21
India,Odisha,Bileipada,"Tata Township, Bileipada - OSPCB",03-05-2024 08:00:00,22.06156703,85.47409613,PM2.5,102,286,187
India,Odisha,Bileipada,"Tata Township, Bileipada - OSPCB",03-05-2024 08:00:00,22.06156703,85.47409613,PM10,158,407,262
India,Odisha,Bileipada,"Tata Township, Bileipada - OSPCB",03-05-2024 08:00:00,22.06156703,85.47409613,CO,16,78,66
India,Odisha,Cuttack,"CDA Area, Cuttack - OSPCB",03-05-2024 08:00:00,20.48891     ,85.84768     ,NO2,11,24,17
India,Odisha,Keonjhar,"Jagamohanpur, Keonjhar - OSPCB",03-05-2024 08:00:00,21.643900,85.599355,PM10,104,142,122
India,Odisha,Keonjhar,"Jagamohanpur, Keonjhar - OSPCB",03-05-2024 08:00:00,21.643900,85.599355,NO2,5,53,28
India,Odisha,Keonjhar,"Jagamohanpur, Keonjhar - OSPCB",03-05-2024 08:00:00,21.643900,85.599355,OZONE,9,46,10
India,Odisha,Nayagarh,"Dabuna, Nayagarh - OSPCB",03-05-2024 08:00:00,21.847279,85.416905,NO2,3,3,3
India,Odisha,Nayagarh,"Dabuna, Nayagarh - OSPCB",03-05-2024 08:00:00,21.847279,85.416905,SO2,2,17,8
India,Odisha,Nayagarh,"Dabuna, Nayagarh - OSPCB",03-05-2024 08:00:00,21.847279,85.416905,OZONE,2,37,6
India,Odisha,Rairangpur,"Divisional Forest Office, Rairangpur - OSPCB",03-05-2024 08:00:00,22.265816,86.174829,NH3,3,3,3
India,Odisha,Rairangpur,"Divisional Forest Office, Rairangpur - OSPCB",03-05-2024 08:00:00,22.265816,86.174829,OZONE,5,68,11
India,Odisha,Rourkela,"Sector-2, Rourkela - OSPCB",03-05-2024 08:00:00,22.24500000,84.88111111,PM10,67,108,82
India,Odisha,Talcher,"Talcher Coalfields,Talcher - OSPCB",03-05-2024 08:00:00,20.9360711,85.1707021,PM10,44,415,157
India,Odisha,Tensa,"Barsua Iron Ore Mines, Tensa - OSPCB",03-05-2024 08:00:00,21.869985,85.167016,PM10,127,176,146
India,Puducherry,Puducherry,"Jawahar Nagar, Puducherry - PPCC",03-05-2024 08:00:00,11.9309,79.8027,NH3,2,5,3
India,Puducherry,Puducherry,"Jawahar Nagar, Puducherry - PPCC",03-05-2024 08:00:00,11.9309,79.8027,CO,16,28,22
India,Punjab,Amritsar,"Golden Temple, Amritsar - PPCB",03-05-2024 08:00:00,31.620000,74.876512,PM10,28,85,38
India,Punjab,Amritsar,"Golden Temple, Amritsar - PPCB",03-05-2024 08:00:00,31.620000,74.876512,NO2,12,77,17
India,Punjab,Bathinda,"Hardev Nagar, Bathinda - PPCB",03-05-2024 08:00:00,30.233011,74.907758,SO2,1,34,10
India,Punjab,Jalandhar,"Civil Line, Jalandhar - PPCB",03-05-2024 08:00:00,31.321907,75.578914,PM2.5,41,98,71
India,Punjab,Jalandhar,"Civil Line, Jalandhar - PPCB",03-05-2024 08:00:00,31.321907,75.578914,OZONE,32,66,32
India,Punjab,Khanna,"Kalal Majra, Khanna - PPCB",03-05-2024 08:00:00,30.736056 ,76.209694,PM2.5,49,243,129
India,Punjab,Khanna,"Kalal Majra, Khanna - PPCB",03-05-2024 08:00:00,30.736056 ,76.209694,NH3,15,21,17
India,Punjab,Ludhiana,"Punjab Agricultural University, Ludhiana - PPCB",03-05-2024 08:00:00,30.9028,75.8086,PM2.5,84,248,140
India,Punjab,Mandi Gobindgarh,"RIMT University, Mandi Gobindgarh - PPCB",03-05-2024 08:00:00,30.649961,76.331442,SO2,3,71,24
India,Punjab,Mandi Gobindgarh,"RIMT University, Mandi Gobindgarh - PPCB",03-05-2024 08:00:00,30.649961,76.331442,OZONE,48,50,49
India,Punjab,Patiala,"Model Town, Patiala - PPCB",03-05-2024 08:00:00,30.349388,76.366642,PM2.5,62,151,96
India,Punjab,Patiala,"Model Town, Patiala - PPCB",03-05-2024 08:00:00,30.349388,76.366642,NO2,22,27,24
India,Punjab,Rupnagar,"Ratanpura, Rupnagar - Ambuja Cements",03-05-2024 08:00:00,31.0325454,76.5623046,SO2,7,10,9
India,Rajasthan,Ajmer,"Civil Lines,  Ajmer - RSPCB",03-05-2024 08:00:00,26.470859,74.646594,SO2,10,14,12
India,Rajasthan,Alwar,"Moti Doongri, Alwar - RSPCB",03-05-2024 08:00:00,27.554793,76.611536,CO,8,82,53
India,Rajasthan,Banswara,"Rati Talai, Banswara - RSPCB",03-05-2024 08:00:00,23.555190,74.440010,OZONE,9,155,55
India,Rajasthan,Baran,"Bamboliya, Baran - RSPCB",03-05-2024 08:00:00,25.106006,76.469948,NO2,10,79,33
India,Rajasthan,Barmer,"Railway Colony, Barmer - RSPCB",03-05-2024 08:00:00,25.747299,71.393989,NH3,7,21,10
India,Rajasthan,Barmer,"Railway Colony, Barmer - RSPCB",03-05-2024 08:00:00,25.747299,71.393989,SO2,4,13,5
India,Rajasthan,Bharatpur,"Krishna Nagar, Bharatpur - RSPCB",03-05-2024 08:00:00,27.215415,77.50873,PM2.5,78,337,192
India,Rajasthan,Bhiwadi,"RIICO Ind. Area III, Bhiwadi - RSPCB",03-05-2024 08:00:00,28.194909,76.862296,CO,15,126,87
India,Rajasthan,Bhiwadi,"Vasundhara Nagar_UIT, Bhiwadi - RSPCB",03-05-2024 08:00:00,28.207266,76.829265,NO2,19,107,61
India,Rajasthan,Bhiwadi,"Vasundhara Nagar_UIT, Bhiwadi - RSPCB",03-05-2024 08:00:00,28.207266,76.829265,CO,12,67,47
India,Rajasthan,Bikaner,"MM Ground, Bikaner - RSPCB",03-05-2024 08:00:00,28.018792,73.292658,PM10,62,348,147
India,Rajasthan,Bikaner,"MM Ground, Bikaner - RSPCB",03-05-2024 08:00:00,28.018792,73.292658,NO2,21,137,57
India,Rajasthan,Bikaner,"MM Ground, Bikaner - RSPCB",03-05-2024 08:00:00,28.018792,73.292658,CO,17,132,26
India,Rajasthan,Chittorgarh,"Shastri Nagar, Chittorgarh - RSPCB",03-05-2024 08:00:00,24.892047,74.623527,PM2.5,7,237,99
India,Rajasthan,Chittorgarh,"Shastri Nagar, Chittorgarh - RSPCB",03-05-2024 08:00:00,24.892047,74.623527,PM10,123,408,192
India,Rajasthan,Chittorgarh,"Shastri Nagar, Chittorgarh - RSPCB",03-05-2024 08:00:00,24.892047,74.623527,CO,3,84,40
India,Rajasthan,Dholpur,"Raja Ganj, Dholpur - RSPCB",03-05-2024 08:00:00,26.699557,77.898881,PM10,NA,NA,NA
India,Rajasthan,Dholpur,"Raja Ganj, Dholpur - RSPCB",03-05-2024 08:00:00,26.699557,77.898881,NO2,NA,NA,NA
India,Rajasthan,Dholpur,"Raja Ganj, Dholpur - RSPCB",03-05-2024 08:00:00,26.699557,77.898881,CO,13,50,28
India,Rajasthan,Dholpur,"Raja Ganj, Dholpur - RSPCB",03-05-2024 08:00:00,26.699557,77.898881,OZONE,86,157,86
India,Rajasthan,Dungarpur,"Bhoiwada, Dungarpur - RSPCB",03-05-2024 08:00:00,23.837789,73.714926,PM2.5,15,93,44
India,Rajasthan,Dungarpur,"Bhoiwada, Dungarpur - RSPCB",03-05-2024 08:00:00,23.837789,73.714926,NO2,13,25,17
India,Rajasthan,Hanumangarh,"Housing Board, Hanumangarh - RSPCB",03-05-2024 08:00:00,29.610750,74.283608,PM10,74,335,169
India,Rajasthan,Jaipur,"Adarsh Nagar, Jaipur - RSPCB",03-05-2024 08:00:00,26.902909,75.836858,NH3,3,19,6
India,Rajasthan,Jaipur,"Adarsh Nagar, Jaipur - RSPCB",03-05-2024 08:00:00,26.902909,75.836858,CO,20,61,37
India,Rajasthan,Jaipur,"Police Commissionerate, Jaipur - RSPCB",03-05-2024 08:00:00,26.9164092,75.7994901,CO,30,78,48
India,Rajasthan,Jaipur,"RIICO Sitapura, Jaipur - RSPCB",03-05-2024 08:00:00,26.786682,75.827928,NO2,11,182,87
India,Rajasthan,Jaipur,"Sector-2 Murlipura, Jaipur - RSPCB",03-05-2024 08:00:00,26.960669,75.771817,SO2,6,70,24
India,Rajasthan,Jaipur,"Sector-2 Murlipura, Jaipur - RSPCB",03-05-2024 08:00:00,26.960669,75.771817,CO,26,86,57
India,Rajasthan,Jaipur,"Shastri Nagar, Jaipur - RSPCB",03-05-2024 08:00:00,26.9502929,75.730943,PM2.5,44,116,74
India,Rajasthan,Jaipur,"Shastri Nagar, Jaipur - RSPCB",03-05-2024 08:00:00,26.9502929,75.730943,OZONE,17,71,48
India,Rajasthan,Jhalawar,"Rajlaxmi Nagar, Jhalawar - RSPCB",03-05-2024 08:00:00,24.588397,76.172782,NH3,2,2,2
India,Rajasthan,Jhunjhunu,"Indra Nagar, Jhunjhunu - RSPCB",03-05-2024 08:00:00,28.108988,75.386577,NH3,17,33,25
India,Rajasthan,Jhunjhunu,"Indra Nagar, Jhunjhunu - RSPCB",03-05-2024 08:00:00,28.108988,75.386577,SO2,2,13,5
India,Rajasthan,Jodhpur,"Digari Kalan, Jodhpur - RSPCB",03-05-2024 08:00:00,26.295810,73.082283,NO2,4,130,46
India,Rajasthan,Jodhpur,"Jhalamand, Jodhpur - RSPCB",03-05-2024 08:00:00,26.215415,73.070156,NO2,2,106,43
India,Rajasthan,Jodhpur,"Jhalamand, Jodhpur - RSPCB",03-05-2024 08:00:00,26.215415,73.070156,SO2,3,15,6
India,Rajasthan,Jodhpur,"Samrat Ashok Udhyan, Jodhpur - RSPCB",03-05-2024 08:00:00,26.253384,72.976571,NH3,2,5,4
India,Rajasthan,Jodhpur,"Samrat Ashok Udhyan, Jodhpur - RSPCB",03-05-2024 08:00:00,26.253384,72.976571,SO2,4,30,8
India,Rajasthan,Jodhpur,"Samrat Ashok Udhyan, Jodhpur - RSPCB",03-05-2024 08:00:00,26.253384,72.976571,OZONE,30,155,33
India,Rajasthan,Kota,"Nayapura, Kota - RSPCB",03-05-2024 08:00:00,25.196024,75.855668,CO,1,102,57
India,Rajasthan,Kota,"Shrinath Puram, Kota - RSPCB",03-05-2024 08:00:00,25.14389,75.821256,PM2.5,55,173,95
India,Rajasthan,Nagaur,"Karni Colony, Nagaur - RSPCB",03-05-2024 08:00:00,27.213494,73.734444,SO2,1,34,9
India,Rajasthan,Nagaur,"Karni Colony, Nagaur - RSPCB",03-05-2024 08:00:00,27.213494,73.734444,CO,12,63,48
India,Rajasthan,Pali,"Indira Colony Vistar, Pali - RSPCB",03-05-2024 08:00:00,25.771061, 73.340227,PM2.5,61,195,116
India,Rajasthan,Rajsamand,"Dhoinda, Rajsamand - RSPCB",03-05-2024 08:00:00,25.036360,73.883502,SO2,11,92,37
India,Rajasthan,Sawai Madhopur,"Sahu Nagar, Sawai Madhopur - RSPCB",03-05-2024 08:00:00,26.031443,76.359327,PM10,71,183,113
India,Rajasthan,Sikar,"Radhakishan Pura, Sikar - RSPCB",03-05-2024 08:00:00,27.608912,75.153302,PM2.5,22,272,87
India,Rajasthan,Sikar,"Radhakishan Pura, Sikar - RSPCB",03-05-2024 08:00:00,27.608912,75.153302,SO2,1,5,3
India,Rajasthan,Sirohi,"Vedhaynath Colony, Sirohi - RSPCB",03-05-2024 08:00:00,24.885261,72.857549,SO2,3,9,6
India,Rajasthan,Sri Ganganagar,"Old City, Sri Ganganagar - RSPCB",03-05-2024 08:00:00,29.931624,73.864511,PM10,139,500,299
India,Rajasthan,Sri Ganganagar,"Old City, Sri Ganganagar - RSPCB",03-05-2024 08:00:00,29.931624,73.864511,OZONE,1,92,3
India,Rajasthan,Tonk,"Shastri Nagar, Tonk - RSPCB",03-05-2024 08:00:00,26.159933,75.780517,NH3,3,26,8
India,Sikkim,Gangtok,"Zero Point GICI, Gangtok - SSPCB",03-05-2024 08:00:00,27.338530,88.614099,SO2,11,13,12
India,TamilNadu,Ariyalur,"Keelapalur, Ariyalur - TNPCB",03-05-2024 08:00:00,11.06825,79.07033,PM2.5,33,51,42
India,TamilNadu,Chennai,"Alandur Bus Depot, Chennai - CPCB",03-05-2024 08:00:00,12.9099161,80.1076538,PM10,30,78,46
India,TamilNadu,Chennai,"Alandur Bus Depot, Chennai - CPCB",03-05-2024 08:00:00,12.9099161,80.1076538,OZONE,4,30,7
India,TamilNadu,Chennai,"Arumbakkam, Chennai - TNPCB",03-05-2024 08:00:00,13.0664,80.2112 ,PM2.5,7,30,17
India,TamilNadu,Chennai,"Arumbakkam, Chennai - TNPCB",03-05-2024 08:00:00,13.0664,80.2112 ,SO2,2,18,5
India,TamilNadu,Chennai,"Kodungaiyur, Chennai - TNPCB",03-05-2024 08:00:00,13.1278,80.2642,PM10,18,100,42
India,TamilNadu,Chennai,"Kodungaiyur, Chennai - TNPCB",03-05-2024 08:00:00,13.1278,80.2642,SO2,2,12,5
India,TamilNadu,Chennai,"Kodungaiyur, Chennai - TNPCB",03-05-2024 08:00:00,13.1278,80.2642,OZONE,38,105,77
India,TamilNadu,Chennai,"Manali, Chennai - CPCB",03-05-2024 08:00:00,13.164544,80.26285,PM10,21,199,69
India,TamilNadu,Chennai,"Perungudi, Chennai - TNPCB",03-05-2024 08:00:00,12.9533,80.2357,NO2,2,6,4
India,TamilNadu,Chennai,"Perungudi, Chennai - TNPCB",03-05-2024 08:00:00,12.9533,80.2357,NH3,2,3,2
India,TamilNadu,Chennai,"Perungudi, Chennai - TNPCB",03-05-2024 08:00:00,12.9533,80.2357,SO2,1,7,3
India,TamilNadu,Chennai,"Royapuram, Chennai - TNPCB",03-05-2024 08:00:00,13.1036,80.2909,PM2.5,12,28,19
India,TamilNadu,Chennai,"Royapuram, Chennai - TNPCB",03-05-2024 08:00:00,13.1036,80.2909,NO2,2,14,8
India,TamilNadu,Chennai,"Royapuram, Chennai - TNPCB",03-05-2024 08:00:00,13.1036,80.2909,OZONE,9,40,9
India,TamilNadu,Chennai,"Velachery Res. Area, Chennai - CPCB",03-05-2024 08:00:00,13.0052189,80.2398125,PM10,14,31,22
India,TamilNadu,Chennai,"Velachery Res. Area, Chennai - CPCB",03-05-2024 08:00:00,13.0052189,80.2398125,NO2,13,21,17
India,TamilNadu,Chennai,"Velachery Res. Area, Chennai - CPCB",03-05-2024 08:00:00,13.0052189,80.2398125,CO,1,133,15
India,TamilNadu,Ooty,"Bombay Castel, Ooty - TNPCB",03-05-2024 08:00:00,11.4068288,76.7138973,NO2,12,64,33
India,TamilNadu,Ooty,"Bombay Castel, Ooty - TNPCB",03-05-2024 08:00:00,11.4068288,76.7138973,CO,22,23,22
India,TamilNadu,Palkalaiperur,"Bharathidasan University, Palkalaiperur - TNPCB",03-05-2024 08:00:00,10.681158,78.741746,PM2.5,24,48,33
India,TamilNadu,Palkalaiperur,"Bharathidasan University, Palkalaiperur - TNPCB",03-05-2024 08:00:00,10.681158,78.741746,PM10,29,60,41
India,TamilNadu,Palkalaiperur,"Bharathidasan University, Palkalaiperur - TNPCB",03-05-2024 08:00:00,10.681158,78.741746,SO2,27,29,28
India,TamilNadu,Ramanathapuram,"Chalai Bazaar, Ramanathapuram - TNPCB",03-05-2024 08:00:00,9.36399,78.831977,NH3,1,1,1
India,TamilNadu,Salem,"Sona College of Technology, Salem - TNPCB",03-05-2024 08:00:00,11.679111,78.125052,PM10,32,96,60
India,TamilNadu,Thoothukudi,"Meelavittan, Thoothukudi - TNPCB",03-05-2024 08:00:00,8.816428 ,78.099039,SO2,NA,NA,NA
India,TamilNadu,Thoothukudi,"Meelavittan, Thoothukudi - TNPCB",03-05-2024 08:00:00,8.816428 ,78.099039,CO,4,124,59
India,TamilNadu,Virudhunagar,"Collectorate Office, Virudhunagar - TNPCB",03-05-2024 08:00:00,9.559382,77.948828,PM10,NA,NA,NA
India,Telangana,Hyderabad,"Bollaram Industrial Area, Hyderabad - TSPCB",03-05-2024 08:00:00,17.540891,78.358528,PM2.5,50,147,75
India,Telangana,Hyderabad,"Bollaram Industrial Area, Hyderabad - TSPCB",03-05-2024 08:00:00,17.540891,78.358528,NH3,2,19,4
India,Telangana,Hyderabad,"Bollaram Industrial Area, Hyderabad - TSPCB",03-05-2024 08:00:00,17.540891,78.358528,CO,8,101,65
India,Telangana,Hyderabad,"Central University, Hyderabad - TSPCB",03-05-2024 08:00:00,17.460103,78.334361,NH3,4,19,9
India,Telangana,Hyderabad,"ECIL Kapra, Hyderabad - TSPCB",03-05-2024 08:00:00,17.470431,78.566959,NO2,12,22,18
India,Telangana,Hyderabad,"ECIL Kapra, Hyderabad - TSPCB",03-05-2024 08:00:00,17.470431,78.566959,SO2,9,30,17
India,Telangana,Hyderabad,"ICRISAT Patancheru, Hyderabad - TSPCB",03-05-2024 08:00:00,17.518400,78.278777,NH3,2,2,2
India,Telangana,Hyderabad,"Kokapet, Hyderabad - TSPCB",03-05-2024 08:00:00,17.393559,78.339194,NH3,NA,NA,NA
India,Telangana,Hyderabad,"Nacharam_TSIIC IALA, Hyderabad - TSPCB",03-05-2024 08:00:00,17.429398,78.569354,PM10,NA,NA,NA
India,Telangana,Hyderabad,"New Malakpet, Hyderabad - TSPCB",03-05-2024 08:00:00,17.37206,78.50864,PM2.5,58,169,75
India,Telangana,Hyderabad,"Sanathnagar, Hyderabad - TSPCB",03-05-2024 08:00:00,17.4559458,78.4332152,PM2.5,45,220,103
India,Telangana,Hyderabad,"Sanathnagar, Hyderabad - TSPCB",03-05-2024 08:00:00,17.4559458,78.4332152,SO2,17,108,37
India,Telangana,Hyderabad,"Somajiguda, Hyderabad - TSPCB",03-05-2024 08:00:00,17.417094,78.457437,NO2,28,89,49
India,Telangana,Hyderabad,"Somajiguda, Hyderabad - TSPCB",03-05-2024 08:00:00,17.417094,78.457437,SO2,18,31,23
India,Telangana,Hyderabad,"Somajiguda, Hyderabad - TSPCB",03-05-2024 08:00:00,17.417094,78.457437,OZONE,10,27,10
India,Telangana,Hyderabad,"Zoo Park, Hyderabad - TSPCB",03-05-2024 08:00:00,17.349694,78.451437,PM2.5,28,174,90
India,Tripura,Agartala,"Bardowali, Agartala - Tripura SPCB",03-05-2024 08:00:00,23.8175497,91.2726974,PM2.5,43,107,72
India,Tripura,Agartala,"Bardowali, Agartala - Tripura SPCB",03-05-2024 08:00:00,23.8175497,91.2726974,CO,8,21,12
India,Uttar_Pradesh,Agra,"Manoharpur, Agra - UPPCB",03-05-2024 08:00:00,27.23711,78.01936,PM10,23,82,47
India,Uttar_Pradesh,Agra,"Rohta, Agra - UPPCB",03-05-2024 08:00:00,27.106972,78.000111,NH3,1,2,1
India,Uttar_Pradesh,Agra,"Rohta, Agra - UPPCB",03-05-2024 08:00:00,27.106972,78.000111,SO2,4,21,9
India,Uttar_Pradesh,Agra,"Sector-3B Avas Vikas Colony, Agra - UPPCB",03-05-2024 08:00:00,27.19412,77.96237,PM10,46,131,79
India,Uttar_Pradesh,Agra,"Shahjahan Garden, Agra - UPPCB",03-05-2024 08:00:00,27.169338,78.03582,PM10,88,189,120
India,Uttar_Pradesh,Agra,"Shastripuram, Agra - UPPCB",03-05-2024 08:00:00,27.19862,77.92066,PM2.5,23,117,62
India,Uttar_Pradesh,Agra,"Shastripuram, Agra - UPPCB",03-05-2024 08:00:00,27.19862,77.92066,NH3,NA,NA,NA
India,Uttar_Pradesh,Agra,"Shastripuram, Agra - UPPCB",03-05-2024 08:00:00,27.19862,77.92066,OZONE,4,21,6
India,Uttar_Pradesh,Baghpat,"Sardar Patel Inter College, Baghpat - UPPCB",03-05-2024 08:00:00,28.964949,77.278761,NO2,18,76,42
India,Uttar_Pradesh,Baghpat,"Sardar Patel Inter College, Baghpat - UPPCB",03-05-2024 08:00:00,28.964949,77.278761,CO,15,98,82
India,Uttar_Pradesh,Bareilly,"Civil Lines, Bareilly - UPPCB",03-05-2024 08:00:00,28.359581,79.414455,PM2.5,7,38,24
India,Uttar_Pradesh,Bareilly,"Civil Lines, Bareilly - UPPCB",03-05-2024 08:00:00,28.359581,79.414455,PM10,10,25,20
India,Uttar_Pradesh,Bareilly,"Civil Lines, Bareilly - UPPCB",03-05-2024 08:00:00,28.359581,79.414455,OZONE,1,12,2
India,Uttar_Pradesh,Bareilly,"Rajendra Nagar, Bareilly - UPPCB",03-05-2024 08:00:00,28.38910936,79.42963708,PM2.5,18,44,29
India,Uttar_Pradesh,Bulandshahr,"Yamunapuram, Bulandshahr - UPPCB",03-05-2024 08:00:00,28.406963,77.849831,PM2.5,38,311,171
India,Uttar_Pradesh,Bulandshahr,"Yamunapuram, Bulandshahr - UPPCB",03-05-2024 08:00:00,28.406963,77.849831,NO2,14,143,83
India,Uttar_Pradesh,Bulandshahr,"Yamunapuram, Bulandshahr - UPPCB",03-05-2024 08:00:00,28.406963,77.849831,SO2,19,52,34
India,Uttar_Pradesh,Bulandshahr,"Yamunapuram, Bulandshahr - UPPCB",03-05-2024 08:00:00,28.406963,77.849831,CO,22,82,73
India,Uttar_Pradesh,Firozabad,"Nagla Bhau, Firozabad - UPPCB",03-05-2024 08:00:00,27.168897,78.376960,OZONE,16,18,17
India,Uttar_Pradesh,Ghaziabad,"Indirapuram, Ghaziabad - UPPCB",03-05-2024 08:00:00,28.646233,77.358075,PM10,139,296,206
India,Uttar_Pradesh,Ghaziabad,"Loni, Ghaziabad - UPPCB",03-05-2024 08:00:00,28.757294,77.278792,PM2.5,49,328,172
India,Uttar_Pradesh,Ghaziabad,"Loni, Ghaziabad - UPPCB",03-05-2024 08:00:00,28.757294,77.278792,PM10,127,284,197
India,Uttar_Pradesh,Ghaziabad,"Loni, Ghaziabad - UPPCB",03-05-2024 08:00:00,28.757294,77.278792,CO,20,95,69
India,Uttar_Pradesh,Ghaziabad,"Sanjay Nagar, Ghaziabad - UPPCB",03-05-2024 08:00:00,28.685382,77.453839,NO2,21,115,47
India,Uttar_Pradesh,Ghaziabad,"Sanjay Nagar, Ghaziabad - UPPCB",03-05-2024 08:00:00,28.685382,77.453839,SO2,19,55,33
India,Uttar_Pradesh,Ghaziabad,"Vasundhara, Ghaziabad - UPPCB",03-05-2024 08:00:00,28.6603346,77.3572563,PM2.5,35,208,88
India,Uttar_Pradesh,Ghaziabad,"Vasundhara, Ghaziabad - UPPCB",03-05-2024 08:00:00,28.6603346,77.3572563,NH3,5,9,7
India,Uttar_Pradesh,Ghaziabad,"Vasundhara, Ghaziabad - UPPCB",03-05-2024 08:00:00,28.6603346,77.3572563,SO2,5,114,20
India,Uttar_Pradesh,Ghaziabad,"Vasundhara, Ghaziabad - UPPCB",03-05-2024 08:00:00,28.6603346,77.3572563,OZONE,25,262,73
India,Uttar_Pradesh,Gorakhpur,"Madan Mohan Malaviya University of Technology, Gorakhpur - UPPCB",03-05-2024 08:00:00,26.730136,83.433859,NO2,11,12,11
India,Uttar_Pradesh,Gorakhpur,"Madan Mohan Malaviya University of Technology, Gorakhpur - UPPCB",03-05-2024 08:00:00,26.730136,83.433859,OZONE,27,64,32
India,Uttar_Pradesh,Greater Noida,"Knowledge Park - III, Greater Noida - UPPCB",03-05-2024 08:00:00,28.47272,77.482000,NO2,24,160,87
India,Uttar_Pradesh,Greater Noida,"Knowledge Park - III, Greater Noida - UPPCB",03-05-2024 08:00:00,28.47272,77.482000,NH3,NA,NA,NA
India,Uttar_Pradesh,Greater Noida,"Knowledge Park - V, Greater Noida - UPPCB",03-05-2024 08:00:00,28.557054,77.453663,NO2,28,58,40
India,Uttar_Pradesh,Greater Noida,"Knowledge Park - V, Greater Noida - UPPCB",03-05-2024 08:00:00,28.557054,77.453663,NH3,3,5,4
India,Uttar_Pradesh,Greater Noida,"Knowledge Park - V, Greater Noida - UPPCB",03-05-2024 08:00:00,28.557054,77.453663,SO2,2,79,26
India,Uttar_Pradesh,Jhansi,"Shivaji Nagar, Jhansi - UPPCB",03-05-2024 08:00:00,25.4547,78.6039,PM10,24,103,51
India,Uttar_Pradesh,Jhansi,"Shivaji Nagar, Jhansi - UPPCB",03-05-2024 08:00:00,25.4547,78.6039,NO2,1,36,13
India,Uttar_Pradesh,Kanpur,"FTI Kidwai Nagar, Kanpur - UPPCB",03-05-2024 08:00:00,26.428282,80.327067,PM2.5,49,230,119
India,Uttar_Pradesh,Kanpur,"NSI Kalyanpur, Kanpur - UPPCB",03-05-2024 08:00:00,26.509954,80.249612,PM2.5,49,142,86
India,Uttar_Pradesh,Kanpur,"NSI Kalyanpur, Kanpur - UPPCB",03-05-2024 08:00:00,26.509954,80.249612,CO,34,62,46
India,Uttar_Pradesh,Kanpur,"Nehru Nagar, Kanpur - UPPCB",03-05-2024 08:00:00,26.4703136,80.3229863,NO2,24,46,35
India,Uttar_Pradesh,Kanpur,"Nehru Nagar, Kanpur - UPPCB",03-05-2024 08:00:00,26.4703136,80.3229863,CO,41,77,53
India,Uttar_Pradesh,Kanpur,"Nehru Nagar, Kanpur - UPPCB",03-05-2024 08:00:00,26.4703136,80.3229863,OZONE,34,242,40
India,Uttar_Pradesh,Khurja,"Kalindi Kunj, Khurja - UPPCB",03-05-2024 08:00:00,28.2348927,77.8683002,PM10,48,132,91
India,Uttar_Pradesh,Khurja,"Kalindi Kunj, Khurja - UPPCB",03-05-2024 08:00:00,28.2348927,77.8683002,SO2,49,64,56
India,Uttar_Pradesh,Lucknow,"B R Ambedkar University, Lucknow - UPPCB",03-05-2024 08:00:00,26.766433,80.927299,PM2.5,67,146,102
India,Uttar_Pradesh,Lucknow,"Gomti Nagar, Lucknow - UPPCB",03-05-2024 08:00:00,26.868120,81.005119,PM2.5,71,156,103
India,Uttar_Pradesh,Lucknow,"Gomti Nagar, Lucknow - UPPCB",03-05-2024 08:00:00,26.868120,81.005119,NO2,9,11,10
India,Uttar_Pradesh,Lucknow,"Gomti Nagar, Lucknow - UPPCB",03-05-2024 08:00:00,26.868120,81.005119,SO2,7,16,11
India,Uttar_Pradesh,Lucknow,"Kendriya Vidyalaya, Lucknow - CPCB",03-05-2024 08:00:00,26.906111,80.948222,PM10,117,141,129
India,Uttar_Pradesh,Lucknow,"Kendriya Vidyalaya, Lucknow - CPCB",03-05-2024 08:00:00,26.906111,80.948222,NO2,2,20,8
India,Uttar_Pradesh,Lucknow,"Lalbagh, Lucknow - CPCB",03-05-2024 08:00:00,26.8458805,80.9365541,CO,52,152,76
India,Uttar_Pradesh,Lucknow,"Talkatora District Industries Center, Lucknow - CPCB",03-05-2024 08:00:00,26.83399722,80.8917361,SO2,2,11,6
India,Uttar_Pradesh,Meerut,"Ganga Nagar, Meerut - UPPCB",03-05-2024 08:00:00,28.999264,77.7590354,NH3,5,13,7
India,Uttar_Pradesh,Meerut,"Ganga Nagar, Meerut - UPPCB",03-05-2024 08:00:00,28.999264,77.7590354,OZONE,48,161,59
India,Uttar_Pradesh,Meerut,"Jai Bhim Nagar, Meerut - UPPCB",03-05-2024 08:00:00,28.9535882,77.7622941,PM10,101,158,124
India,Uttar_Pradesh,Meerut,"Jai Bhim Nagar, Meerut - UPPCB",03-05-2024 08:00:00,28.9535882,77.7622941,OZONE,55,121,59
India,Uttar_Pradesh,Meerut,"Pallavpuram Phase 2, Meerut - UPPCB",03-05-2024 08:00:00,29.063510,77.709723,CO,10,57,47
India,Uttar_Pradesh,Moradabad,"Buddhi Vihar, Moradabad - UPPCB",03-05-2024 08:00:00,28.83526,78.74460,SO2,16,18,17
India,Uttar_Pradesh,Moradabad,"Eco Herbal Park, Moradabad - UPPCB",03-05-2024 08:00:00,28.840739,78.697531,NO2,NA,NA,NA
India,Uttar_Pradesh,Moradabad,"Employment Office, Moradabad - UPPCB",03-05-2024 08:00:00,28.88528,78.73880,NO2,17,17,17
India,Uttar_Pradesh,Moradabad,"Employment Office, Moradabad - UPPCB",03-05-2024 08:00:00,28.88528,78.73880,OZONE,8,136,13
India,Uttar_Pradesh,Moradabad,"Jigar Colony, Moradabad - UPPCB",03-05-2024 08:00:00,28.856664,78.772638,PM10,99,138,117
India,Uttar_Pradesh,Moradabad,"Jigar Colony, Moradabad - UPPCB",03-05-2024 08:00:00,28.856664,78.772638,NO2,18,19,18
India,Uttar_Pradesh,Moradabad,"Jigar Colony, Moradabad - UPPCB",03-05-2024 08:00:00,28.856664,78.772638,CO,30,49,42
India,Uttar_Pradesh,Moradabad,"Transport Nagar, Moradabad - UPPCB",03-05-2024 08:00:00,28.802625,78.753728,PM2.5,27,106,54
India,Uttar_Pradesh,Moradabad,"Transport Nagar, Moradabad - UPPCB",03-05-2024 08:00:00,28.802625,78.753728,OZONE,15,65,21
India,Uttar_Pradesh,Muzaffarnagar,"New Mandi, Muzaffarnagar - UPPCB",03-05-2024 08:00:00,29.4723508,77.7194031,NO2,20,44,28
India,Uttar_Pradesh,Muzaffarnagar,"New Mandi, Muzaffarnagar - UPPCB",03-05-2024 08:00:00,29.4723508,77.7194031,CO,24,66,36
India,Uttar_Pradesh,Noida,"Sector - 125, Noida - UPPCB",03-05-2024 08:00:00,28.5447608,77.3231257,PM10,97,357,166
India,Uttar_Pradesh,Noida,"Sector - 62, Noida - IMD",03-05-2024 08:00:00,28.6245479,77.3577104,PM2.5,45,313,148
India,Uttar_Pradesh,Noida,"Sector - 62, Noida - IMD",03-05-2024 08:00:00,28.6245479,77.3577104,PM10,122,325,200
India,Uttar_Pradesh,Noida,"Sector-1, Noida - UPPCB",03-05-2024 08:00:00,28.5898,77.3101,PM2.5,40,351,167
India,Uttar_Pradesh,Noida,"Sector-1, Noida - UPPCB",03-05-2024 08:00:00,28.5898,77.3101,NO2,30,156,90
India,Uttar_Pradesh,Noida,"Sector-116, Noida - UPPCB",03-05-2024 08:00:00,28.569230,77.393848,SO2,16,52,30
India,Uttar_Pradesh,Prayagraj,"Jhunsi, Prayagraj - UPPCB",03-05-2024 08:00:00,25.425602,81.917152,PM10,59,148,99
India,Uttar_Pradesh,Prayagraj,"Jhunsi, Prayagraj - UPPCB",03-05-2024 08:00:00,25.425602,81.917152,NO2,6,6,6
India,Uttar_Pradesh,Prayagraj,"Motilal Nehru NIT, Prayagraj - UPPCB",03-05-2024 08:00:00,25.494,81.863,PM10,65,154,97
India,Uttar_Pradesh,Prayagraj,"Nagar Nigam, Prayagraj - UPPCB",03-05-2024 08:00:00,25.44919916 ,81.82735986 ,NH3,2,8,5
India,Uttar_Pradesh,Prayagraj,"Nagar Nigam, Prayagraj - UPPCB",03-05-2024 08:00:00,25.44919916 ,81.82735986 ,SO2,7,77,39
India,Uttar_Pradesh,Varanasi,"Ardhali Bazar, Varanasi - UPPCB",03-05-2024 08:00:00,25.3505986,82.9083074,PM2.5,10,62,34
India,Uttar_Pradesh,Varanasi,"Ardhali Bazar, Varanasi - UPPCB",03-05-2024 08:00:00,25.3505986,82.9083074,OZONE,31,38,36
India,Uttar_Pradesh,Varanasi,"Bhelupur, Varanasi - UPPCB",03-05-2024 08:00:00,25.301778,82.996789,PM2.5,5,19,11
India,Uttar_Pradesh,Varanasi,"Bhelupur, Varanasi - UPPCB",03-05-2024 08:00:00,25.301778,82.996789,PM10,43,98,62
India,Uttar_Pradesh,Varanasi,"IESD Banaras Hindu University, Varanasi - UPPCB",03-05-2024 08:00:00,25.262326,82.995408,NH3,1,3,2
India,Uttar_Pradesh,Varanasi,"IESD Banaras Hindu University, Varanasi - UPPCB",03-05-2024 08:00:00,25.262326,82.995408,OZONE,NA,NA,NA
India,Uttar_Pradesh,Varanasi,"Maldahiya, Varanasi - UPPCB",03-05-2024 08:00:00,25.32393,82.99687,PM2.5,22,42,32
India,Uttar_Pradesh,Varanasi,"Maldahiya, Varanasi - UPPCB",03-05-2024 08:00:00,25.32393,82.99687,NO2,1,2,2
India,Uttar_Pradesh,Vrindavan,"Omex Eternity, Vrindavan - UPPCB",03-05-2024 08:00:00,27.5714090,77.6557570,NO2,2,3,2
India,Uttarakhand,Kashipur,"Govt. Girls Inter College, Kashipur - UKPCB",03-05-2024 08:00:00,29.2124114,78.9611753,PM10,81,127,109
India,West_Bengal,Asansol,"Asansol Court Area, Asansol - WBPCB",03-05-2024 08:00:00,23.685297,86.945968,NO2,22,71,40
India,West_Bengal,Asansol,"Asansol Court Area, Asansol - WBPCB",03-05-2024 08:00:00,23.685297,86.945968,OZONE,25,176,59
India,West_Bengal,Barrackpore,"SVSPA Campus, Barrackpore - WBPCB",03-05-2024 08:00:00,22.7605581,88.3617589,PM2.5,4,158,71
India,West_Bengal,Haldia,"Priyambada Housing Estate, Haldia - WBPCB",03-05-2024 08:00:00,22.06047,88.109737,NO2,11,33,16
India,West_Bengal,Haldia,"Priyambada Housing Estate, Haldia - WBPCB",03-05-2024 08:00:00,22.06047,88.109737,OZONE,19,47,22
India,West_Bengal,Howrah,"Belur Math, Howrah - WBPCB",03-05-2024 08:00:00,22.629801,88.352017,PM2.5,36,99,60
India,West_Bengal,Howrah,"Belur Math, Howrah - WBPCB",03-05-2024 08:00:00,22.629801,88.352017,PM10,56,118,84
India,West_Bengal,Howrah,"Belur Math, Howrah - WBPCB",03-05-2024 08:00:00,22.629801,88.352017,NO2,7,22,13
India,West_Bengal,Howrah,"Belur Math, Howrah - WBPCB",03-05-2024 08:00:00,22.629801,88.352017,NH3,1,2,1
India,West_Bengal,Howrah,"Ghusuri, Howrah - WBPCB",03-05-2024 08:00:00,22.611968,88.347422,PM2.5,44,237,100
India,West_Bengal,Howrah,"Ghusuri, Howrah - WBPCB",03-05-2024 08:00:00,22.611968,88.347422,SO2,4,6,5
India,West_Bengal,Howrah,"Padmapukur, Howrah - WBPCB",03-05-2024 08:00:00,22.5687319,88.2797276,NO2,17,33,22
India,West_Bengal,Howrah,"Padmapukur, Howrah - WBPCB",03-05-2024 08:00:00,22.5687319,88.2797276,SO2,15,96,37
India,West_Bengal,Kolkata,"Ballygunge, Kolkata - WBPCB",03-05-2024 08:00:00,22.5367507,88.3638022,SO2,2,30,16
India,West_Bengal,Kolkata,"Bidhannagar, Kolkata - WBPCB",03-05-2024 08:00:00,22.58157048,88.41002457,CO,22,34,25
India,West_Bengal,Kolkata,"Jadavpur, Kolkata - WBPCB",03-05-2024 08:00:00,22.49929,88.36917,OZONE,6,162,11
India,West_Bengal,Kolkata,"Rabindra Bharati University, Kolkata - WBPCB",03-05-2024 08:00:00,22.627847,88.380669,NO2,23,39,26
India,West_Bengal,Kolkata,"Rabindra Sarobar, Kolkata - WBPCB",03-05-2024 08:00:00,22.51106,88.35142,NO2,24,47,35
India,West_Bengal,Kolkata,"Rabindra Sarobar, Kolkata - WBPCB",03-05-2024 08:00:00,22.51106,88.35142,NH3,7,12,10
India,West_Bengal,Siliguri,"Ward-32 Bapupara, Siliguri - WBPCB",03-05-2024 08:00:00,26.6879226,88.4152495,NO2,25,147,60
India,West_Bengal,Siliguri,"Ward-32 Bapupara, Siliguri - WBPCB",03-05-2024 08:00:00,26.6879226,88.4152495,NH3,1,20,10
India,West_Bengal,Siliguri,"Ward-32 Bapupara, Siliguri - WBPCB",03-05-2024 08:00:00,26.6879226,88.4152495,CO,11,51,35
India,Andhra_Pradesh,Amaravati,"Secretariat, Amaravati - APPCB",03-05-2024 08:00:00,16.5150833,80.5181667,SO2,7,12,9
India,Andhra_Pradesh,Amaravati,"Secretariat, Amaravati - APPCB",03-05-2024 08:00:00,16.5150833,80.5181667,OZONE,14,68,21
India,Andhra_Pradesh,Anantapur,"Gulzarpet, Anantapur - APPCB",03-05-2024 08:00:00,14.675886,77.593027,PM2.5,68,78,74
India,Andhra_Pradesh,Anantapur,"Gulzarpet, Anantapur - APPCB",03-05-2024 08:00:00,14.675886,77.593027,NH3,4,4,4
India,Andhra_Pradesh,Chittoor,"Gangineni Cheruvu, Chittoor - APPCB",03-05-2024 08:00:00,13.204880,79.097889,PM2.5,NA,NA,NA
India,Andhra_Pradesh,Chittoor,"Gangineni Cheruvu, Chittoor - APPCB",03-05-2024 08:00:00,13.204880,79.097889,PM10,NA,NA,NA
India,Andhra_Pradesh,Kadapa,"Yerramukkapalli, Kadapa - APPCB",03-05-2024 08:00:00,14.465052,78.824187,PM2.5,29,80,47
India,Andhra_Pradesh,Kadapa,"Yerramukkapalli, Kadapa - APPCB",03-05-2024 08:00:00,14.465052,78.824187,NO2,12,13,13
India,Andhra_Pradesh,Kadapa,"Yerramukkapalli, Kadapa - APPCB",03-05-2024 08:00:00,14.465052,78.824187,SO2,2,3,2
India,Andhra_Pradesh,Tirupati,"Tirumala, Tirupati - APPCB",03-05-2024 08:00:00,13.67,79.35,SO2,2,11,6
India,Andhra_Pradesh,Tirupati,"Tirumala, Tirupati - APPCB",03-05-2024 08:00:00,13.67,79.35,CO,36,59,39
India,Andhra_Pradesh,Tirupati,"Vaikuntapuram, Tirupati - APPCB",03-05-2024 08:00:00,13.615387,79.409230,NH3,NA,NA,NA
India,Andhra_Pradesh,Vijayawada,"HB Colony, Vijayawada - APPCB",03-05-2024 08:00:00,16.536107,80.594233,NO2,6,13,9
India,Andhra_Pradesh,Vijayawada,"HB Colony, Vijayawada - APPCB",03-05-2024 08:00:00,16.536107,80.594233,CO,34,34,34
India,Andhra_Pradesh,Vijayawada,"Kanuru, Vijayawada - APPCB",03-05-2024 08:00:00,16.486692,80.699436,SO2,2,10,5
India,Andhra_Pradesh,Vijayawada,"Rajiv Gandhi Park, Vijayawada - APPCB",03-05-2024 08:00:00,16.509717,80.612222,OZONE,16,111,20
India,Andhra_Pradesh,Vijayawada,"Rajiv Nagar, Vijayawada - APPCB",03-05-2024 08:00:00,16.554731,80.649110,PM10,59,82,63
India,Andhra_Pradesh,Vijayawada,"Rajiv Nagar, Vijayawada - APPCB",03-05-2024 08:00:00,16.554731,80.649110,OZONE,4,192,17
India,Andhra_Pradesh,Visakhapatnam,"GVM Corporation, Visakhapatnam - APPCB",03-05-2024 08:00:00,17.72,83.3,PM2.5,12,64,38
India,Andhra_Pradesh,Visakhapatnam,"GVM Corporation, Visakhapatnam - APPCB",03-05-2024 08:00:00,17.72,83.3,PM10,58,187,104
India,Andhra_Pradesh,Visakhapatnam,"GVM Corporation, Visakhapatnam - APPCB",03-05-2024 08:00:00,17.72,83.3,NH3,3,4,3
India,Arunachal_Pradesh,Naharlagun,"Naharlagun, Naharlagun - APSPCB",03-05-2024 08:00:00,27.103358,93.679645,CO,10,24,14
India,Arunachal_Pradesh,Naharlagun,"Naharlagun, Naharlagun - APSPCB",03-05-2024 08:00:00,27.103358,93.679645,OZONE,2,3,3
India,Assam,Byrnihat,"Central Academy for SFS, Byrnihat - PCBA",03-05-2024 08:00:00,26.071318,91.87488,NO2,51,93,69
India,Assam,Byrnihat,"Central Academy for SFS, Byrnihat - PCBA",03-05-2024 08:00:00,26.071318,91.87488,NH3,10,13,11
India,Assam,Byrnihat,"Central Academy for SFS, Byrnihat - PCBA",03-05-2024 08:00:00,26.071318,91.87488,SO2,6,10,7
India,Assam,Guwahati,"IITG, Guwahati - PCBA",03-05-2024 08:00:00,26.2028636,91.70046436,PM2.5,58,192,110
India,Assam,Guwahati,"IITG, Guwahati - PCBA",03-05-2024 08:00:00,26.2028636,91.70046436,PM10,107,375,165
India,Assam,Guwahati,"LGBI Airport, Guwahati - PCBA",03-05-2024 08:00:00,26.10887,91.589544,NH3,2,15,5
India,Assam,Guwahati,"Pan Bazaar, Guwahati - PCBA",03-05-2024 08:00:00,26.187500,91.744194,NH3,3,4,3
India,Assam,Guwahati,"Pan Bazaar, Guwahati - PCBA",03-05-2024 08:00:00,26.187500,91.744194,SO2,39,67,53
India,Assam,Guwahati,"Pan Bazaar, Guwahati - PCBA",03-05-2024 08:00:00,26.187500,91.744194,OZONE,17,18,17
India,Assam,Guwahati,"Railway Colony, Guwahati - PCBA",03-05-2024 08:00:00,26.181742,91.78063,SO2,11,16,13
India,Assam,Nagaon,"Christianpatty, Nagaon - PCBA",03-05-2024 08:00:00,26.349082,92.68449,PM2.5,73,180,95
India,Assam,Nagaon,"Christianpatty, Nagaon - PCBA",03-05-2024 08:00:00,26.349082,92.68449,PM10,78,125,94
India,Assam,Nagaon,"Christianpatty, Nagaon - PCBA",03-05-2024 08:00:00,26.349082,92.68449,NO2,1,44,10
India,Assam,Nalbari,"Bata Chowk, Nalbari - PCBA",03-05-2024 08:00:00,26.446912,91.439057,OZONE,12,29,14
India,Assam,Silchar,"Tarapur, Silchar - PCBA",03-05-2024 08:00:00,24.82827,92.79525,PM2.5,17,21,18
India,Assam,Silchar,"Tarapur, Silchar - PCBA",03-05-2024 08:00:00,24.82827,92.79525,OZONE,NA,NA,NA
India,Assam,Sivasagar,"Girls College, Sivasagar - PCBA",03-05-2024 08:00:00,26.987634,94.636574,PM2.5,28,53,39
India,Assam,Sivasagar,"Girls College, Sivasagar - PCBA",03-05-2024 08:00:00,26.987634,94.636574,NO2,9,19,14
India,Assam,Sivasagar,"Girls College, Sivasagar - PCBA",03-05-2024 08:00:00,26.987634,94.636574,NH3,1,2,2
India,Assam,Sivasagar,"Girls College, Sivasagar - PCBA",03-05-2024 08:00:00,26.987634,94.636574,OZONE,3,20,11
India,Bihar,Araria,"Kharahiya Basti, Araria - BSPCB",03-05-2024 08:00:00,26.146529,87.454184,PM2.5,54,157,92
India,Bihar,Araria,"Kharahiya Basti, Araria - BSPCB",03-05-2024 08:00:00,26.146529,87.454184,PM10,100,178,138
India,Bihar,Arrah,"New DM Office, Arrah - BSPCB",03-05-2024 08:00:00,25.5626095,84.663264,NO2,NA,NA,NA
India,Bihar,Arrah,"New DM Office, Arrah - BSPCB",03-05-2024 08:00:00,25.5626095,84.663264,OZONE,NA,NA,NA
India,Bihar,Aurangabad,"Gurdeo Nagar, Aurangabad - BSPCB",03-05-2024 08:00:00,24.75746,84.366208,NH3,6,26,16
India,Bihar,Aurangabad,"Gurdeo Nagar, Aurangabad - BSPCB",03-05-2024 08:00:00,24.75746,84.366208,SO2,NA,NA,NA
India,Bihar,Aurangabad,"Gurdeo Nagar, Aurangabad - BSPCB",03-05-2024 08:00:00,24.75746,84.366208,CO,4,28,26
India,Bihar,Bettiah,"Kamalnath Nagar, Bettiah - BSPCB",03-05-2024 08:00:00,26.80365,84.51954,PM10,91,205,146
India,Bihar,Bettiah,"Kamalnath Nagar, Bettiah - BSPCB",03-05-2024 08:00:00,26.80365,84.51954,NO2,27,30,28
India,Bihar,Bhagalpur,"DM Office_Kachari Chowk, Bhagalpur - BSPCB",03-05-2024 08:00:00,25.251013,86.989001,PM2.5,NA,NA,NA
India,Bihar,Bhagalpur,"DM Office_Kachari Chowk, Bhagalpur - BSPCB",03-05-2024 08:00:00,25.251013,86.989001,PM10,NA,NA,NA
India,Bihar,Bhagalpur,"DM Office_Kachari Chowk, Bhagalpur - BSPCB",03-05-2024 08:00:00,25.251013,86.989001,OZONE,46,49,47
India,Bihar,Bhagalpur,"Mayaganj, Bhagalpur - BSPCB",03-05-2024 08:00:00,25.265194,87.012947,SO2,3,12,12
India,Bihar,Bihar Sharif,"D M Colony, Bihar Sharif - BSPCB",03-05-2024 08:00:00,25.204762,85.514960,NH3,2,2,2
India,Bihar,Bihar Sharif,"D M Colony, Bihar Sharif - BSPCB",03-05-2024 08:00:00,25.204762,85.514960,SO2,1,16,9
India,Bihar,Gaya,"Collectorate, Gaya - BSPCB",03-05-2024 08:00:00,24.7955,84.9994,OZONE,53,79,64
India,Bihar,Gaya,"Kareemganj, Gaya - BSPCB",03-05-2024 08:00:00,24.792403,84.992416,CO,2,22,16
India,Bihar,Gaya,"Kareemganj, Gaya - BSPCB",03-05-2024 08:00:00,24.792403,84.992416,OZONE,3,16,13
India,Bihar,Gaya,"SFTI Kusdihra, Gaya - BSPCB",03-05-2024 08:00:00,24.762518,84.982348,PM2.5,30,181,107
India,Bihar,Gaya,"SFTI Kusdihra, Gaya - BSPCB",03-05-2024 08:00:00,24.762518,84.982348,OZONE,5,73,8
India,Bihar,Hajipur,"Industrial Area, Hajipur - BSPCB",03-05-2024 08:00:00,25.697189,85.245900,PM10,184,369,261
India,Bihar,Hajipur,"Industrial Area, Hajipur - BSPCB",03-05-2024 08:00:00,25.697189,85.245900,NH3,NA,NA,NA
India,Bihar,Hajipur,"Industrial Area, Hajipur - BSPCB",03-05-2024 08:00:00,25.697189,85.245900,CO,16,56,48
India,Bihar,Katihar,"Mirchaibari, Katihar - BSPCB",03-05-2024 08:00:00,25.560083,87.553265,SO2,NA,NA,NA
India,Bihar,Kishanganj,"SDM Office_Khagra, Kishanganj - BSPCB",03-05-2024 08:00:00,26.0881305,87.93840336,OZONE,26,33,27
India,Bihar,Manguraha,"Forest Rest House, Manguraha - BSPCB",03-05-2024 08:00:00,27.308328,84.531742,NH3,1,3,2
India,Bihar,Manguraha,"Forest Rest House, Manguraha - BSPCB",03-05-2024 08:00:00,27.308328,84.531742,SO2,1,7,4
India,Bihar,Motihari,"Gandak Colony, Motihari - BSPCB",03-05-2024 08:00:00,26.63086,84.90051,PM10,NA,NA,NA
India,Bihar,Munger,"Town Hall, Munger - BSPCB",03-05-2024 08:00:00,25.376776,86.471523,PM10,111,155,135
India,Bihar,Munger,"Town Hall, Munger - BSPCB",03-05-2024 08:00:00,25.376776,86.471523,NO2,4,6,5
India,Bihar,Munger,"Town Hall, Munger - BSPCB",03-05-2024 08:00:00,25.376776,86.471523,CO,42,73,62
India,Bihar,Muzaffarpur,"Buddha Colony, Muzaffarpur - BSPCB",03-05-2024 08:00:00,26.11442,85.39813,NH3,17,22,19
India,Bihar,Muzaffarpur,"MIT-Daudpur Kothi, Muzaffarpur - BSPCB",03-05-2024 08:00:00,26.1403345,85.3650192,PM2.5,164,313,240
India,Bihar,Muzaffarpur,"MIT-Daudpur Kothi, Muzaffarpur - BSPCB",03-05-2024 08:00:00,26.1403345,85.3650192,OZONE,9,82,44
India,Bihar,Patna,"DRM Office Danapur, Patna - BSPCB",03-05-2024 08:00:00,25.586562,85.043586,PM10,106,256,177
India,Bihar,Patna,"Govt. High School Shikarpur, Patna - BSPCB",03-05-2024 08:00:00,25.592539,85.227158,PM2.5,172,322,259
India,Bihar,Patna,"Govt. High School Shikarpur, Patna - BSPCB",03-05-2024 08:00:00,25.592539,85.227158,NH3,5,6,5
India,Bihar,Patna,"Govt. High School Shikarpur, Patna - BSPCB",03-05-2024 08:00:00,25.592539,85.227158,SO2,9,12,10
India,Bihar,Patna,"Muradpur, Patna - BSPCB",03-05-2024 08:00:00,25.619651,85.147382,SO2,6,16,10
India,Bihar,Patna,"Rajbansi Nagar, Patna - BSPCB",03-05-2024 08:00:00,25.599486,85.113666,NO2,26,73,44
India,Bihar,Patna,"Rajbansi Nagar, Patna - BSPCB",03-05-2024 08:00:00,25.599486,85.113666,CO,22,81,43
India,Bihar,Patna,"Rajbansi Nagar, Patna - BSPCB",03-05-2024 08:00:00,25.599486,85.113666,OZONE,6,144,36
India,Bihar,Purnia,"Mariam Nagar, Purnia - BSPCB",03-05-2024 08:00:00,25.366336,87.117468,PM2.5,53,58,57
India,Bihar,Rajgir,"Dangi Tola, Rajgir - BSPCB",03-05-2024 08:00:00,25.03280,85.41948,PM2.5,33,177,79
India,Bihar,Rajgir,"Dangi Tola, Rajgir - BSPCB",03-05-2024 08:00:00,25.03280,85.41948,CO,11,62,34
India,Bihar,Rajgir,"Dangi Tola, Rajgir - BSPCB",03-05-2024 08:00:00,25.03280,85.41948,OZONE,31,37,34
India,Bihar,Saharsa,"Police Line, Saharsa - BSPCB",03-05-2024 08:00:00,25.892357,86.590325,CO,53,55,54
India,Bihar,Samastipur,"DM Office_Kasipur, Samastipur - BSPCB",03-05-2024 08:00:00,25.859655,85.77944,PM10,70,160,114
India,Bihar,Samastipur,"DM Office_Kasipur, Samastipur - BSPCB",03-05-2024 08:00:00,25.859655,85.77944,NO2,3,28,11
India,Bihar,Samastipur,"DM Office_Kasipur, Samastipur - BSPCB",03-05-2024 08:00:00,25.859655,85.77944,CO,20,22,22
India,Bihar,Samastipur,"DM Office_Kasipur, Samastipur - BSPCB",03-05-2024 08:00:00,25.859655,85.77944,OZONE,27,63,32
India,Bihar,Sasaram,"Dada Peer, Sasaram - BSPCB",03-05-2024 08:00:00,24.952822,84.002396,PM2.5,30,73,45
India,Bihar,Sasaram,"Dada Peer, Sasaram - BSPCB",03-05-2024 08:00:00,24.952822,84.002396,PM10,84,171,115
India,Bihar,Sasaram,"Dada Peer, Sasaram - BSPCB",03-05-2024 08:00:00,24.952822,84.002396,NH3,7,22,13
India,Bihar,Siwan,"Chitragupta Nagar, Siwan - BSPCB",03-05-2024 08:00:00,26.2271665,84.3570427,NH3,2,4,3
India,Chandigarh,Chandigarh,"Sector 22, Chandigarh - CPCC",03-05-2024 08:00:00,30.735567,76.775714,PM2.5,33,120,65
India,Chandigarh,Chandigarh,"Sector 22, Chandigarh - CPCC",03-05-2024 08:00:00,30.735567,76.775714,SO2,7,34,18
India,Chandigarh,Chandigarh,"Sector-25, Chandigarh - CPCC",03-05-2024 08:00:00,30.751462,76.762879,OZONE,6,137,13
India,Chhattisgarh,Bhilai,"32Bungalows, Bhilai - CECB",03-05-2024 08:00:00,21.194815,81.314770,CO,16,24,23
India,Chhattisgarh,Bhilai,"Civic Center, Bhilai - Bhilai Steel Plant",03-05-2024 08:00:00,21.185571,81.343175,SO2,9,12,10
India,Chhattisgarh,Bhilai,"Hathkhoj, Bhilai - CECB",03-05-2024 08:00:00,21.224231,81.408350,PM10,92,131,112
India,Chhattisgarh,Bilaspur,"Mangala, Bilaspur - NTPC",03-05-2024 08:00:00,22.08815,82.13737,PM10,60,98,73
India,Chhattisgarh,Chhal,"Nawapara SECL Colony, Chhal - CECB",03-05-2024 08:00:00,22.118125,83.140608,CO,20,62,40
India,Chhattisgarh,Korba,"Rampur, Korba - CECB",03-05-2024 08:00:00,22.368195,82.746431,PM2.5,16,57,33
India,Chhattisgarh,Korba,"Rampur, Korba - CECB",03-05-2024 08:00:00,22.368195,82.746431,NO2,20,47,37
India,Chhattisgarh,Korba,"Rampur, Korba - CECB",03-05-2024 08:00:00,22.368195,82.746431,OZONE,9,39,9
India,Chhattisgarh,Korba,"Urja Nagar, Korba - CECB",03-05-2024 08:00:00,22.348441,82.549611,OZONE,1,7,2
India,Chhattisgarh,Kunjemura,"OP Jindal School, Kunjemura - CECB",03-05-2024 08:00:00,22.126650,83.483212,NH3,1,6,2
India,Chhattisgarh,Milupara,"Govt. Higher Secondary School, Milupara - CECB",03-05-2024 08:00:00,22.1910172,83.5197009,PM2.5,30,71,40
India,Chhattisgarh,Milupara,"Govt. Higher Secondary School, Milupara - CECB",03-05-2024 08:00:00,22.1910172,83.5197009,NH3,1,1,1
India,Chhattisgarh,Milupara,"Govt. Higher Secondary School, Milupara - CECB",03-05-2024 08:00:00,22.1910172,83.5197009,CO,5,38,21
India,Chhattisgarh,Raipur,"AIIMS, Raipur - CECB",03-05-2024 08:00:00,21.258815,81.578979,CO,23,35,27
India,Chhattisgarh,Raipur,"Bhatagaon New ISBT, Raipur - CECB",03-05-2024 08:00:00,21.219665,81.630094,NO2,37,73,51
India,Chhattisgarh,Raipur,"Bhatagaon New ISBT, Raipur - CECB",03-05-2024 08:00:00,21.219665,81.630094,SO2,1,5,3
India,Chhattisgarh,Raipur,"Krishak Nagar, Raipur - CECB",03-05-2024 08:00:00,21.237755,81.705301,PM10,80,107,91
India,Chhattisgarh,Raipur,"Siltara Phase-II, Raipur - CECB",03-05-2024 08:00:00,21.371751,81.664929,PM10,64,182,127
India,Chhattisgarh,Tumidih,"OP Jindal Industrial Park, Tumidih - CECB",03-05-2024 08:00:00,22.06631475,83.33820077,NH3,1,2,2
India,Chhattisgarh,Tumidih,"OP Jindal Industrial Park, Tumidih - CECB",03-05-2024 08:00:00,22.06631475,83.33820077,SO2,5,8,6
India,Delhi,Delhi,"Anand Vihar, Delhi - DPCC",03-05-2024 08:00:00,28.647622,77.3158090,PM10,142,402,255
India,Delhi,Delhi,"Ashok Vihar, Delhi - DPCC",03-05-2024 08:00:00,28.695381,77.181665,NO2,10,135,67
India,Delhi,Delhi,"Ashok Vihar, Delhi - DPCC",03-05-2024 08:00:00,28.695381,77.181665,OZONE,3,39,5
India,Delhi,Delhi,"Aya Nagar, Delhi - IMD",03-05-2024 08:00:00,28.4706914,77.1099364,CO,47,100,87
India,Delhi,Delhi,"Bawana, Delhi - DPCC",03-05-2024 08:00:00,28.776200,77.051074,OZONE,2,162,18
India,Delhi,Delhi,"Burari Crossing, Delhi - IMD",03-05-2024 08:00:00,28.7256504,77.2011573,PM10,130,415,248
India,Delhi,Delhi,"Burari Crossing, Delhi - IMD",03-05-2024 08:00:00,28.7256504,77.2011573,CO,17,52,43
India,Delhi,Delhi,"Burari Crossing, Delhi - IMD",03-05-2024 08:00:00,28.7256504,77.2011573,OZONE,10,78,14
India,Delhi,Delhi,"CRRI Mathura Road, Delhi - IMD",03-05-2024 08:00:00,28.5512005,77.2735737,NO2,3,18,11
India,Delhi,Delhi,"Dr. Karni Singh Shooting Range, Delhi - DPCC",03-05-2024 08:00:00,28.498571,77.264840,PM10,126,404,215
India,Delhi,Delhi,"Dr. Karni Singh Shooting Range, Delhi - DPCC",03-05-2024 08:00:00,28.498571,77.264840,NO2,25,176,88
India,Delhi,Delhi,"ITO, Delhi - CPCB",03-05-2024 08:00:00,28.628624,77.241060,PM10,76,175,124
India,Delhi,Delhi,"Jahangirpuri, Delhi - DPCC",03-05-2024 08:00:00,28.732820,77.170633,NO2,40,179,109
India,Delhi,Delhi,"Jahangirpuri, Delhi - DPCC",03-05-2024 08:00:00,28.732820,77.170633,OZONE,5,88,9
India,Delhi,Delhi,"Lodhi Road, Delhi - IITM",03-05-2024 08:00:00,28.588333,77.221667,SO2,20,41,29
India,Delhi,Delhi,"Lodhi Road, Delhi - IITM",03-05-2024 08:00:00,28.588333,77.221667,OZONE,15,20,15
India,Delhi,Delhi,"Lodhi Road, Delhi - IMD",03-05-2024 08:00:00,28.5918245,77.2273074,OZONE,6,67,8
India,Delhi,Delhi,"Major Dhyan Chand National Stadium, Delhi - DPCC",03-05-2024 08:00:00,28.611281,77.237738,SO2,18,54,29
India,Delhi,Delhi,"Major Dhyan Chand National Stadium, Delhi - DPCC",03-05-2024 08:00:00,28.611281,77.237738,OZONE,2,198,4
India,Delhi,Delhi,"Mandir Marg, Delhi - DPCC",03-05-2024 08:00:00,28.636429,77.201067,CO,NA,NA,NA
India,Delhi,Delhi,"Mundka, Delhi - DPCC",03-05-2024 08:00:00,28.684678,77.076574,PM10,143,467,296
India,Delhi,Delhi,"NSIT Dwarka, Delhi - CPCB",03-05-2024 08:00:00,28.60909,77.0325413,NH3,11,18,14
India,Delhi,Delhi,"Najafgarh, Delhi - DPCC",03-05-2024 08:00:00,28.570173,76.933762,OZONE,14,158,22
India,Delhi,Delhi,"Narela, Delhi - DPCC",03-05-2024 08:00:00,28.822836,77.101981,NH3,4,6,5
India,Delhi,Delhi,"North Campus, DU, Delhi - IMD",03-05-2024 08:00:00,28.6573814,77.1585447,NO2,11,62,31
India,Delhi,Delhi,"Okhla Phase-2, Delhi - DPCC",03-05-2024 08:00:00,28.530785,77.271255,PM10,135,423,231
India,Delhi,Delhi,"Okhla Phase-2, Delhi - DPCC",03-05-2024 08:00:00,28.530785,77.271255,NH3,5,10,7
India,Delhi,Delhi,"Patparganj, Delhi - DPCC",03-05-2024 08:00:00,28.623763,77.287209,PM2.5,42,333,172
India,Delhi,Delhi,"Patparganj, Delhi - DPCC",03-05-2024 08:00:00,28.623763,77.287209,SO2,3,7,5
India,Delhi,Delhi,"Punjabi Bagh, Delhi - DPCC",03-05-2024 08:00:00,28.674045,77.131023,NH3,4,5,4
India,Delhi,Delhi,"R K Puram, Delhi - DPCC",03-05-2024 08:00:00,28.563262,77.186937,SO2,25,91,40
India,Delhi,Delhi,"Rohini, Delhi - DPCC",03-05-2024 08:00:00,28.732528,77.119920,PM10,132,470,289
India,Delhi,Delhi,"Shadipur, Delhi - CPCB",03-05-2024 08:00:00,28.6514781,77.1473105,PM10,152,500,241
India,Delhi,Delhi,"Shadipur, Delhi - CPCB",03-05-2024 08:00:00,28.6514781,77.1473105,NO2,50,96,81
India,Delhi,Delhi,"Sonia Vihar, Delhi - DPCC",03-05-2024 08:00:00,28.710508,77.249485,PM10,116,382,205
India,Delhi,Delhi,"Sonia Vihar, Delhi - DPCC",03-05-2024 08:00:00,28.710508,77.249485,CO,55,105,88
India,Delhi,Delhi,"Sri Aurobindo Marg, Delhi - DPCC",03-05-2024 08:00:00,28.531346,77.190156,SO2,11,58,21
India,Delhi,Delhi,"Vivek Vihar, Delhi - DPCC",03-05-2024 08:00:00,28.672342,77.315260,NO2,28,127,60
India,Delhi,Delhi,"Vivek Vihar, Delhi - DPCC",03-05-2024 08:00:00,28.672342,77.315260,OZONE,6,105,39
India,Delhi,Delhi,"Wazirpur, Delhi - DPCC",03-05-2024 08:00:00,28.699793,77.165453,PM10,146,411,266
India,Gujarat,Ahmedabad,"Chandkheda, Ahmedabad - IITM",03-05-2024 08:00:00,23.107969,72.574648,NH3,3,3,3
India,Gujarat,Ahmedabad,"Gyaspur, Ahmedabad - IITM",03-05-2024 08:00:00,22.977134,72.553024,SO2,9,36,16
India,Gujarat,Ahmedabad,"Maninagar, Ahmedabad - GPCB",03-05-2024 08:00:00,23.002657,72.591912,PM10,102,178,135
India,Gujarat,Ahmedabad,"Raikhad, Ahmedabad - IITM",03-05-2024 08:00:00,23.020509,72.579261,PM10,107,277,158
India,Gujarat,Ahmedabad,"Raikhad, Ahmedabad - IITM",03-05-2024 08:00:00,23.020509,72.579261,NO2,NA,NA,NA
India,Gujarat,Ahmedabad,"Raikhad, Ahmedabad - IITM",03-05-2024 08:00:00,23.020509,72.579261,SO2,6,34,10
India,Gujarat,Ahmedabad,"Raikhad, Ahmedabad - IITM",03-05-2024 08:00:00,23.020509,72.579261,OZONE,6,75,15
India,Gujarat,Ahmedabad,"Rakhial, Ahmedabad - IITM",03-05-2024 08:00:00,23.016834,72.625775,PM10,135,177,157
India,Gujarat,Ahmedabad,"SAC ISRO Satellite, Ahmedabad - IITM",03-05-2024 08:00:00,23.023389,72.515201,PM2.5,83,84,84
India,Gujarat,Ahmedabad,"SVPI Airport Hansol, Ahmedabad - IITM",03-05-2024 08:00:00,23.076793,72.627874,NO2,16,24,21
India,Gujarat,Ahmedabad,"SVPI Airport Hansol, Ahmedabad - IITM",03-05-2024 08:00:00,23.076793,72.627874,NH3,4,8,7
India,Gujarat,Ankleshwar,"GIDC, Ankleshwar - GPCB",03-05-2024 08:00:00,21.613267,73.010555,SO2,2,55,19
India,Gujarat,Ankleshwar,"GIDC, Ankleshwar - GPCB",03-05-2024 08:00:00,21.613267,73.010555,CO,28,84,78
India,Gujarat,Gandhinagar,"Sector-10, Gandhinagar - GPCB",03-05-2024 08:00:00,23.221714,72.654328,PM2.5,38,94,60
India,Gujarat,Surat,"Science Center, Surat - SMC",03-05-2024 08:00:00,21.170046,72.795405,NO2,29,59,43
India,Gujarat,Vapi,"Phase-1 GIDC, Vapi - GPCB",03-05-2024 08:00:00,20.362421,72.918013,OZONE,NA,NA,NA
India,Haryana,Ambala,"Patti Mehar, Ambala - HSPCB",03-05-2024 08:00:00,30.379589,76.778328,NO2,3,4,4
India,Haryana,Ambala,"Patti Mehar, Ambala - HSPCB",03-05-2024 08:00:00,30.379589,76.778328,SO2,6,32,20
India,Haryana,Ambala,"Patti Mehar, Ambala - HSPCB",03-05-2024 08:00:00,30.379589,76.778328,CO,30,60,48
India,Haryana,Bhiwani,"H.B. Colony, Bhiwani - HSPCB",03-05-2024 08:00:00,28.806223,76.141105,OZONE,22,27,23
India,Haryana,Charkhi Dadri,"Mini Secretariat, Charkhi Dadri - HSPCB",03-05-2024 08:00:00,28.593883,76.270653,PM10,2,353,126
India,Haryana,Dharuhera,"Municipal Corporation Office, Dharuhera -  HSPCB",03-05-2024 08:00:00,28.206800,76.799700,NH3,9,26,19
India,Haryana,Faridabad,"Sector 30, Faridabad - HSPCB",03-05-2024 08:00:00,28.4417,77.3217,OZONE,10,62,61
India,Haryana,Faridabad,"Sector- 16A, Faridabad - HSPCB",03-05-2024 08:00:00,28.4088421,77.3099081,PM2.5,58,378,172
India,Haryana,Gurugram,"Sector-51, Gurugram - HSPCB",03-05-2024 08:00:00,28.4227,77.0667,PM2.5,186,456,344
India,Haryana,Gurugram,"Sector-51, Gurugram - HSPCB",03-05-2024 08:00:00,28.4227,77.0667,NO2,13,29,23
India,Haryana,Gurugram,"Teri Gram, Gurugram - HSPCB",03-05-2024 08:00:00,28.4275,77.1465,PM10,171,448,279
India,Haryana,Hisar,"Urban Estate-II, Hisar - HSPCB",03-05-2024 08:00:00,29.140560,75.744941,PM10,NA,NA,NA
India,Haryana,Hisar,"Urban Estate-II, Hisar - HSPCB",03-05-2024 08:00:00,29.140560,75.744941,SO2,NA,NA,NA
India,Haryana,Jind,"Police Lines, Jind - HSPCB",03-05-2024 08:00:00,29.307814,76.337619,PM10,92,167,127
India,Haryana,Jind,"Police Lines, Jind - HSPCB",03-05-2024 08:00:00,29.307814,76.337619,NO2,7,18,12
India,Haryana,Jind,"Police Lines, Jind - HSPCB",03-05-2024 08:00:00,29.307814,76.337619,OZONE,8,23,10
India,Haryana,Kaithal,"Rishi Nagar, Kaithal - HSPCB",03-05-2024 08:00:00,29.8006,76.4155,NO2,24,26,25
India,Haryana,Kaithal,"Rishi Nagar, Kaithal - HSPCB",03-05-2024 08:00:00,29.8006,76.4155,NH3,8,8,8
India,Haryana,Kaithal,"Rishi Nagar, Kaithal - HSPCB",03-05-2024 08:00:00,29.8006,76.4155,SO2,30,55,44
India,Haryana,Kurukshetra,"Sector-7, Kurukshetra - HSPCB",03-05-2024 08:00:00,29.966942,76.875879,NO2,10,10,10
India,Haryana,Kurukshetra,"Sector-7, Kurukshetra - HSPCB",03-05-2024 08:00:00,29.966942,76.875879,NH3,3,5,5
India,Haryana,Manesar,"Sector-2 IMT, Manesar - HSPCB",03-05-2024 08:00:00,28.360699,76.936090,CO,20,50,47
India,Haryana,Panipat,"Sector-18, Panipat - HSPCB",03-05-2024 08:00:00,29.497973,76.993331,PM2.5,129,191,183
India,Haryana,Sonipat,"Murthal, Sonipat - HSPCB",03-05-2024 08:00:00,29.027200,77.062100,PM10,81,88,87
India,Haryana,Sonipat,"Murthal, Sonipat - HSPCB",03-05-2024 08:00:00,29.027200,77.062100,SO2,13,29,20
India,Haryana,Yamuna Nagar,"Gobind Pura, Yamuna Nagar - HSPCB",03-05-2024 08:00:00,30.1480566,77.2893471,CO,38,66,48
India,Himachal Pradesh,Baddi,"HIMUDA Complex Phase-1, Baddi - HPPCB",03-05-2024 08:00:00,30.943887,76.801991,CO,24,59,45
India,Himachal Pradesh,Baddi,"HIMUDA Complex Phase-1, Baddi - HPPCB",03-05-2024 08:00:00,30.943887,76.801991,OZONE,32,165,49
India,Jammu_and_Kashmir,Srinagar,"Rajbagh, Srinagar - JKSPCB",03-05-2024 08:00:00,34.066206,74.819820,OZONE,6,7,6
India,Jharkhand,Dhanbad,"Kalakusuma, Dhanbad - DMC",03-05-2024 08:00:00,23.811548,86.481238,PM10,13,112,87
India,Jharkhand,Dhanbad,"Kalakusuma, Dhanbad - DMC",03-05-2024 08:00:00,23.811548,86.481238,CO,128,136,132
India,Jharkhand,Dhanbad,"Sardar Patel Nagar, Dhanbad - JSPCB",03-05-2024 08:00:00,23.80569,86.44268,PM2.5,NA,NA,NA
India,Karnataka,Bagalkot,"Vidayagiri, Bagalkot - KSPCB",03-05-2024 08:00:00,16.172806,75.659694,NH3,1,2,1
India,Karnataka,Belgaum,"Ramteerth Nagar, Belgaum - KSPCB",03-05-2024 08:00:00,15.888653,74.541751,NO2,1,65,30
India,Karnataka,Bengaluru,"BTM Layout, Bengaluru - CPCB",03-05-2024 08:00:00,12.9135218,77.5950804,PM2.5,NA,NA,NA
India,Karnataka,Bengaluru,"BTM Layout, Bengaluru - CPCB",03-05-2024 08:00:00,12.9135218,77.5950804,PM10,NA,NA,NA
India,Karnataka,Bengaluru,"BTM Layout, Bengaluru - CPCB",03-05-2024 08:00:00,12.9135218,77.5950804,OZONE,NA,NA,NA
India,Karnataka,Bengaluru,"Bapuji Nagar, Bengaluru - KSPCB",03-05-2024 08:00:00,12.951913,77.539784,NO2,10,11,10
India,Karnataka,Bengaluru,"Hombegowda Nagar, Bengaluru - KSPCB",03-05-2024 08:00:00,12.938539,77.590100,PM10,62,167,89
India,Karnataka,Bengaluru,"Hombegowda Nagar, Bengaluru - KSPCB",03-05-2024 08:00:00,12.938539,77.590100,NH3,1,1,1
India,Karnataka,Bengaluru,"Hombegowda Nagar, Bengaluru - KSPCB",03-05-2024 08:00:00,12.938539,77.590100,SO2,1,4,3
India,Karnataka,Bengaluru,"Jayanagar 5th Block, Bengaluru - KSPCB",03-05-2024 08:00:00,12.920984,77.584908,PM2.5,53,203,84
India,Karnataka,Bengaluru,"Jayanagar 5th Block, Bengaluru - KSPCB",03-05-2024 08:00:00,12.920984,77.584908,NH3,NA,NA,NA
India,Karnataka,Bengaluru,"Jayanagar 5th Block, Bengaluru - KSPCB",03-05-2024 08:00:00,12.920984,77.584908,CO,5,6,5
India,Karnataka,Bengaluru,"Kasturi Nagar, Bengaluru - KSPCB",03-05-2024 08:00:00,13.003872,77.664217,PM10,10,446,118
India,Karnataka,Bengaluru,"Kasturi Nagar, Bengaluru - KSPCB",03-05-2024 08:00:00,13.003872,77.664217,NH3,3,4,4
India,Karnataka,Bengaluru,"Peenya, Bengaluru - CPCB",03-05-2024 08:00:00,13.0270199,77.494094,NO2,9,51,24
India,Karnataka,Bengaluru,"Peenya, Bengaluru - CPCB",03-05-2024 08:00:00,13.0270199,77.494094,SO2,8,15,11
India,Karnataka,Bengaluru,"Peenya, Bengaluru - CPCB",03-05-2024 08:00:00,13.0270199,77.494094,CO,28,44,37
India,Karnataka,Bengaluru,"Peenya, Bengaluru - CPCB",03-05-2024 08:00:00,13.0270199,77.494094,OZONE,9,56,18
India,Karnataka,Bengaluru,"RVCE-Mailasandra, Bengaluru - KSPCB",03-05-2024 08:00:00,12.921418,77.502466,OZONE,39,39,39
India,Karnataka,Bengaluru,"Sanegurava Halli, Bengaluru - KSPCB",03-05-2024 08:00:00,12.990328,77.5431385,PM10,35,76,42
India,Karnataka,Bengaluru,"Shivapura_Peenya, Bengaluru - KSPCB",03-05-2024 08:00:00,13.0246342,77.5080115,OZONE,53,55,54
India,Karnataka,Bengaluru,"Silk Board, Bengaluru - KSPCB",03-05-2024 08:00:00,12.917348,77.622813,PM2.5,65,287,127
India,Karnataka,Bidar,"Naubad, Bidar - KSPCB",03-05-2024 08:00:00,17.930306,77.482194,SO2,13,22,18
India,Karnataka,Chamarajanagar,"Urban, Chamarajanagar - KSPCB",03-05-2024 08:00:00,11.55358,76.55521,NO2,25,35,34
India,Karnataka,Chikkaballapur,"Chikkaballapur Rural, Chikkaballapur - KSPCB",03-05-2024 08:00:00,13.428828,77.731418,SO2,21,32,29
India,Karnataka,Chikkaballapur,"Chikkaballapur Rural, Chikkaballapur - KSPCB",03-05-2024 08:00:00,13.428828,77.731418,CO,10,27,22
India,Karnataka,Davanagere,"Devaraj Urs Badavane, Davanagere - KSPCB",03-05-2024 08:00:00,14.475800,75.905200,PM10,63,172,84
India,Karnataka,Davanagere,"Devaraj Urs Badavane, Davanagere - KSPCB",03-05-2024 08:00:00,14.475800,75.905200,OZONE,20,22,20
India,Karnataka,Dharwad,"Kalabhavan, Dharwad - KSPCB",03-05-2024 08:00:00,15.459706,75.008381,PM2.5,48,121,77
India,Karnataka,Dharwad,"Kalabhavan, Dharwad - KSPCB",03-05-2024 08:00:00,15.459706,75.008381,NH3,3,3,3
India,Karnataka,Dharwad,"Kalabhavan, Dharwad - KSPCB",03-05-2024 08:00:00,15.459706,75.008381,OZONE,2,12,4
India,Karnataka,Gadag,"Panchal Nagar, Gadag - KSPCB",03-05-2024 08:00:00,15.411456,75.638133,PM10,34,55,42
India,Karnataka,Hassan,"B.Katihalli, Hassan - KSPCB",03-05-2024 08:00:00,13.008556,76.125258,PM10,67,131,95
India,Karnataka,Hubballi,"Deshpande Nagar, Hubballi - KSPCB",03-05-2024 08:00:00,15.351773,75.140726,CO,5,37,15
India,Karnataka,Kalaburagi,"Mahatma Basaveswar Colony, Kalaburgi - KSPCB",03-05-2024 08:00:00,17.336318,76.847397,SO2,5,8,6
India,Karnataka,Kalaburagi,"Mahatma Basaveswar Colony, Kalaburgi - KSPCB",03-05-2024 08:00:00,17.336318,76.847397,OZONE,11,38,20
India,Karnataka,Karwar,"KHB Colony, Karwar - KSPCB",03-05-2024 08:00:00,14.816666,74.141003,OZONE,21,22,22
