country,state,city,station,last_update,latitude,longitude,pollutant_id,pollutant_min,pollutant_max,pollutant_avg
India,Andhra_Pradesh,Anantapur,"Gulzarpet, Anantapur - APPCB",21-03-2024 22:00:00,14.675886,77.593027,CO,30,50,37
India,Andhra_Pradesh,Anantapur,"Gulzarpet, Anantapur - APPCB",21-03-2024 22:00:00,14.675886,77.593027,OZONE,5,42,34
India,Andhra_Pradesh,Tirupati,"Tirumala, Tirupati - APPCB",21-03-2024 22:00:00,13.67,79.35,PM2.5,18,57,45
India,Andhra_Pradesh,Tirupati,"Tirumala, Tirupati - APPCB",21-03-2024 22:00:00,13.67,79.35,NH3,1,1,1
India,Andhra_Pradesh,Tirupati,"Tirumala, Tirupati - APPCB",21-03-2024 22:00:00,13.67,79.35,SO2,3,9,6
India,Andhra_Pradesh,Tirupati,"Vaikuntapuram, Tirupati - APPCB",21-03-2024 22:00:00,13.615387,79.409230,NO2,11,22,17
India,Andhra_Pradesh,Tirupati,"Vaikuntapuram, Tirupati - APPCB",21-03-2024 22:00:00,13.615387,79.409230,NH3,2,4,3
India,Andhra_Pradesh,Tirupati,"Vaikuntapuram, Tirupati - APPCB",21-03-2024 22:00:00,13.615387,79.409230,OZONE,2,25,16
India,Andhra_Pradesh,Vijayawada,"HB Colony, Vijayawada - APPCB",21-03-2024 22:00:00,16.536107,80.594233,NH3,4,4,4
India,Andhra_Pradesh,Vijayawada,"Kanuru, Vijayawada - APPCB",21-03-2024 22:00:00,16.486692,80.699436,PM10,NA,NA,NA
India,Andhra_Pradesh,Vijayawada,"Kanuru, Vijayawada - APPCB",21-03-2024 22:00:00,16.486692,80.699436,CO,28,62,36
India,Andhra_Pradesh,Vijayawada,"Rajiv Gandhi Park, Vijayawada - APPCB",21-03-2024 22:00:00,16.509717,80.612222,CO,38,50,41
India,Andhra_Pradesh,Vijayawada,"Rajiv Nagar, Vijayawada - APPCB",21-03-2024 22:00:00,16.554731,80.649110,PM10,59,102,66
India,Andhra_Pradesh,Vijayawada,"Rajiv Nagar, Vijayawada - APPCB",21-03-2024 22:00:00,16.554731,80.649110,OZONE,15,43,32
India,Arunachal_Pradesh,Naharlagun,"Naharlagun, Naharlagun - APSPCB",21-03-2024 22:00:00,27.103358,93.679645,PM10,33,99,63
India,Assam,Guwahati,"LGBI Airport, Guwahati - PCBA",21-03-2024 22:00:00,26.10887,91.589544,PM10,54,214,118
India,Assam,Guwahati,"LGBI Airport, Guwahati - PCBA",21-03-2024 22:00:00,26.10887,91.589544,NO2,8,48,18
India,Assam,Guwahati,"Pan Bazaar, Guwahati - PCBA",21-03-2024 22:00:00,26.187500,91.744194,PM10,43,127,95
India,Assam,Nagaon,"Christianpatty, Nagaon - PCBA",21-03-2024 22:00:00,26.349082,92.68449,PM2.5,10,82,38
India,Assam,Nagaon,"Christianpatty, Nagaon - PCBA",21-03-2024 22:00:00,26.349082,92.68449,PM10,9,74,35
India,Assam,Nagaon,"Christianpatty, Nagaon - PCBA",21-03-2024 22:00:00,26.349082,92.68449,SO2,4,14,11
India,Assam,Nagaon,"Christianpatty, Nagaon - PCBA",21-03-2024 22:00:00,26.349082,92.68449,CO,10,38,17
India,Assam,Nagaon,"Christianpatty, Nagaon - PCBA",21-03-2024 22:00:00,26.349082,92.68449,OZONE,7,46,30
India,Assam,Silchar,"Tarapur, Silchar - PCBA",21-03-2024 22:00:00,24.82827,92.79525,NO2,18,18,18
India,Assam,Sivasagar,"Girls College, Sivasagar - PCBA",21-03-2024 22:00:00,26.987634,94.636574,PM10,39,85,61
India,Assam,Sivasagar,"Girls College, Sivasagar - PCBA",21-03-2024 22:00:00,26.987634,94.636574,NH3,2,2,2
India,Bihar,Araria,"Kharahiya Basti, Araria - BSPCB",21-03-2024 22:00:00,26.146529,87.454184,PM10,NA,NA,NA
India,Bihar,Arrah,"New DM Office, Arrah - BSPCB",21-03-2024 22:00:00,25.5626095,84.663264,NH3,4,6,4
India,Bihar,Arrah,"New DM Office, Arrah - BSPCB",21-03-2024 22:00:00,25.5626095,84.663264,SO2,16,20,18
India,Bihar,Aurangabad,"Gurdeo Nagar, Aurangabad - BSPCB",21-03-2024 22:00:00,24.75746,84.366208,PM10,NA,NA,NA
India,Bihar,Aurangabad,"Gurdeo Nagar, Aurangabad - BSPCB",21-03-2024 22:00:00,24.75746,84.366208,NH3,8,12,9
India,Bihar,Aurangabad,"Gurdeo Nagar, Aurangabad - BSPCB",21-03-2024 22:00:00,24.75746,84.366208,SO2,6,8,7
India,Bihar,Bettiah,"Kamalnath Nagar, Bettiah - BSPCB",21-03-2024 22:00:00,26.80365,84.51954,PM2.5,NA,NA,NA
India,Bihar,Bhagalpur,"DM Office_Kachari Chowk, Bhagalpur - BSPCB",21-03-2024 22:00:00,25.251013,86.989001,PM10,14,123,58
India,Bihar,Bhagalpur,"DM Office_Kachari Chowk, Bhagalpur - BSPCB",21-03-2024 22:00:00,25.251013,86.989001,NO2,46,89,74
India,Bihar,Bhagalpur,"DM Office_Kachari Chowk, Bhagalpur - BSPCB",21-03-2024 22:00:00,25.251013,86.989001,CO,39,69,59
India,Bihar,Bhagalpur,"Mayaganj, Bhagalpur - BSPCB",21-03-2024 22:00:00,25.265194,87.012947,OZONE,9,17,11
India,Bihar,Bihar Sharif,"D M Colony, Bihar Sharif - BSPCB",21-03-2024 22:00:00,25.204762,85.514960,NH3,2,2,2
India,Bihar,Gaya,"Collectorate, Gaya - BSPCB",21-03-2024 22:00:00,24.7955,84.9994,PM2.5,NA,NA,NA
India,Bihar,Gaya,"SFTI Kusdihra, Gaya - BSPCB",21-03-2024 22:00:00,24.762518,84.982348,PM10,36,89,60
India,Bihar,Hajipur,"Industrial Area, Hajipur - BSPCB",21-03-2024 22:00:00,25.697189,85.245900,CO,25,55,36
India,Bihar,Katihar,"Mirchaibari, Katihar - BSPCB",21-03-2024 22:00:00,25.560083,87.553265,NO2,7,21,17
India,Bihar,Manguraha,"Forest Rest House, Manguraha - BSPCB",21-03-2024 22:00:00,27.308328,84.531742,SO2,NA,NA,NA
India,Bihar,Motihari,"Gandak Colony, Motihari - BSPCB",21-03-2024 22:00:00,26.63086,84.90051,NH3,1,7,5
India,Bihar,Motihari,"Gandak Colony, Motihari - BSPCB",21-03-2024 22:00:00,26.63086,84.90051,CO,110,143,118
India,Bihar,Munger,"Town Hall, Munger - BSPCB",21-03-2024 22:00:00,25.376776,86.471523,NO2,NA,NA,NA
India,Bihar,Munger,"Town Hall, Munger - BSPCB",21-03-2024 22:00:00,25.376776,86.471523,NH3,NA,NA,NA
India,Bihar,Munger,"Town Hall, Munger - BSPCB",21-03-2024 22:00:00,25.376776,86.471523,SO2,NA,NA,NA
India,Bihar,Muzaffarpur,"Buddha Colony, Muzaffarpur - BSPCB",21-03-2024 22:00:00,26.11442,85.39813,PM10,NA,NA,NA
India,Bihar,Muzaffarpur,"MIT-Daudpur Kothi, Muzaffarpur - BSPCB",21-03-2024 22:00:00,26.1403345,85.3650192,PM10,NA,NA,NA
India,Bihar,Muzaffarpur,"MIT-Daudpur Kothi, Muzaffarpur - BSPCB",21-03-2024 22:00:00,26.1403345,85.3650192,NO2,NA,NA,NA
India,Bihar,Muzaffarpur,"MIT-Daudpur Kothi, Muzaffarpur - BSPCB",21-03-2024 22:00:00,26.1403345,85.3650192,OZONE,6,30,17
India,Bihar,Patna,"DRM Office Danapur, Patna - BSPCB",21-03-2024 22:00:00,25.586562,85.043586,NO2,6,68,17
India,Bihar,Patna,"Govt. High School Shikarpur, Patna - BSPCB",21-03-2024 22:00:00,25.592539,85.227158,PM10,57,161,90
India,Bihar,Patna,"Govt. High School Shikarpur, Patna - BSPCB",21-03-2024 22:00:00,25.592539,85.227158,NH3,5,5,5
India,Bihar,Patna,"Govt. High School Shikarpur, Patna - BSPCB",21-03-2024 22:00:00,25.592539,85.227158,SO2,15,19,18
India,Bihar,Patna,"IGSC Planetarium Complex, Patna - BSPCB",21-03-2024 22:00:00,25.610369,85.132568,NO2,14,14,14
India,Bihar,Patna,"Muradpur, Patna - BSPCB",21-03-2024 22:00:00,25.619651,85.147382,SO2,6,21,10
India,Bihar,Patna,"Muradpur, Patna - BSPCB",21-03-2024 22:00:00,25.619651,85.147382,CO,20,99,43
India,Bihar,Patna,"Rajbansi Nagar, Patna - BSPCB",21-03-2024 22:00:00,25.599486,85.113666,PM10,31,142,62
India,Bihar,Patna,"Rajbansi Nagar, Patna - BSPCB",21-03-2024 22:00:00,25.599486,85.113666,NH3,2,4,4
India,Bihar,Patna,"Rajbansi Nagar, Patna - BSPCB",21-03-2024 22:00:00,25.599486,85.113666,SO2,7,31,13
India,Bihar,Patna,"Rajbansi Nagar, Patna - BSPCB",21-03-2024 22:00:00,25.599486,85.113666,CO,18,106,61
India,Bihar,Patna,"Rajbansi Nagar, Patna - BSPCB",21-03-2024 22:00:00,25.599486,85.113666,OZONE,3,72,33
India,Bihar,Patna,"Samanpura, Patna - BSPCB",21-03-2024 22:00:00,25.596727,85.085624,NH3,6,15,11
India,Bihar,Patna,"Samanpura, Patna - BSPCB",21-03-2024 22:00:00,25.596727,85.085624,SO2,15,16,15
India,Bihar,Purnia,"Mariam Nagar, Purnia - BSPCB",21-03-2024 22:00:00,25.366336,87.117468,SO2,NA,NA,NA
India,Bihar,Rajgir,"Dangi Tola, Rajgir - BSPCB",21-03-2024 22:00:00,25.03280,85.41948,CO,8,11,10
India,Bihar,Saharsa,"Police Line, Saharsa - BSPCB",21-03-2024 22:00:00,25.892357,86.590325,NH3,NA,NA,NA
India,Bihar,Saharsa,"Police Line, Saharsa - BSPCB",21-03-2024 22:00:00,25.892357,86.590325,OZONE,7,45,27
India,Bihar,Samastipur,"DM Office_Kasipur, Samastipur - BSPCB",21-03-2024 22:00:00,25.859655,85.77944,SO2,1,13,7
India,Bihar,Sasaram,"Dada Peer, Sasaram - BSPCB",21-03-2024 22:00:00,24.952822,84.002396,PM2.5,19,89,36
India,Bihar,Siwan,"Chitragupta Nagar, Siwan - BSPCB",21-03-2024 22:00:00,26.2271665,84.3570427,PM10,NA,NA,NA
India,Chandigarh,Chandigarh,"Sector-25, Chandigarh - CPCC",21-03-2024 22:00:00,30.751462,76.762879,PM2.5,107,225,150
India,Chandigarh,Chandigarh,"Sector-25, Chandigarh - CPCC",21-03-2024 22:00:00,30.751462,76.762879,OZONE,3,39,26
India,Chandigarh,Chandigarh,"Sector-53, Chandigarh - CPCC",21-03-2024 22:00:00,30.719859,76.738637,SO2,8,30,14
India,Chandigarh,Chandigarh,"Sector-53, Chandigarh - CPCC",21-03-2024 22:00:00,30.719859,76.738637,OZONE,13,60,43
India,Chhattisgarh,Bhilai,"32Bungalows, Bhilai - CECB",21-03-2024 22:00:00,21.194815,81.314770,NO2,27,36,33
India,Chhattisgarh,Bhilai,"32Bungalows, Bhilai - CECB",21-03-2024 22:00:00,21.194815,81.314770,SO2,5,7,6
India,Chhattisgarh,Bhilai,"Civic Center, Bhilai - Bhilai Steel Plant",21-03-2024 22:00:00,21.185571,81.343175,CO,NA,NA,NA
India,Chhattisgarh,Bhilai,"Hathkhoj, Bhilai - CECB",21-03-2024 22:00:00,21.224231,81.408350,PM2.5,7,108,33
India,Chhattisgarh,Bhilai,"Hathkhoj, Bhilai - CECB",21-03-2024 22:00:00,21.224231,81.408350,SO2,12,20,15
India,Chhattisgarh,Bilaspur,"Mangala, Bilaspur - NTPC",21-03-2024 22:00:00,22.08815,82.13737,PM2.5,16,89,34
India,Chhattisgarh,Chhal,"Nawapara SECL Colony, Chhal - CECB",21-03-2024 22:00:00,22.118125,83.140608,PM2.5,16,85,38
India,Chhattisgarh,Chhal,"Nawapara SECL Colony, Chhal - CECB",21-03-2024 22:00:00,22.118125,83.140608,NO2,14,57,28
India,Chhattisgarh,Chhal,"Nawapara SECL Colony, Chhal - CECB",21-03-2024 22:00:00,22.118125,83.140608,CO,10,59,41
India,Chhattisgarh,Korba,"Rampur, Korba - CECB",21-03-2024 22:00:00,22.368195,82.746431,NH3,2,5,3
India,Chhattisgarh,Korba,"Urja Nagar, Korba - CECB",21-03-2024 22:00:00,22.348441,82.549611,NO2,64,75,69
India,Chhattisgarh,Korba,"Urja Nagar, Korba - CECB",21-03-2024 22:00:00,22.348441,82.549611,SO2,3,7,5
India,Chhattisgarh,Kunjemura,"OP Jindal School, Kunjemura - CECB",21-03-2024 22:00:00,22.126650,83.483212,PM2.5,14,49,34
India,Chhattisgarh,Raipur,"Bhatagaon New ISBT, Raipur - CECB",21-03-2024 22:00:00,21.219665,81.630094,NO2,54,83,65
India,Chhattisgarh,Raipur,"Bhatagaon New ISBT, Raipur - CECB",21-03-2024 22:00:00,21.219665,81.630094,NH3,3,3,3
India,Chhattisgarh,Raipur,"Bhatagaon New ISBT, Raipur - CECB",21-03-2024 22:00:00,21.219665,81.630094,CO,15,71,40
India,Chhattisgarh,Raipur,"Siltara Phase-II, Raipur - CECB",21-03-2024 22:00:00,21.371751,81.664929,PM2.5,NA,NA,NA
India,Chhattisgarh,Raipur,"Siltara Phase-II, Raipur - CECB",21-03-2024 22:00:00,21.371751,81.664929,OZONE,3,17,13
India,Delhi,Delhi,"Alipur, Delhi - DPCC",21-03-2024 22:00:00,28.815329,77.153010,NH3,5,9,8
India,Delhi,Delhi,"Alipur, Delhi - DPCC",21-03-2024 22:00:00,28.815329,77.153010,SO2,12,22,17
India,Delhi,Delhi,"Anand Vihar, Delhi - DPCC",21-03-2024 22:00:00,28.647622,77.3158090,CO,43,61,53
India,Delhi,Delhi,"Ashok Vihar, Delhi - DPCC",21-03-2024 22:00:00,28.695381,77.181665,PM2.5,76,284,126
India,Delhi,Delhi,"Ashok Vihar, Delhi - DPCC",21-03-2024 22:00:00,28.695381,77.181665,NH3,13,16,14
India,Delhi,Delhi,"Ashok Vihar, Delhi - DPCC",21-03-2024 22:00:00,28.695381,77.181665,SO2,16,38,27
India,Delhi,Delhi,"Ashok Vihar, Delhi - DPCC",21-03-2024 22:00:00,28.695381,77.181665,OZONE,2,15,10
India,Delhi,Delhi,"Aya Nagar, Delhi - IMD",21-03-2024 22:00:00,28.4706914,77.1099364,OZONE,4,32,25
India,Delhi,Delhi,"Burari Crossing, Delhi - IMD",21-03-2024 22:00:00,28.7256504,77.2011573,NO2,2,10,4
India,Delhi,Delhi,"Burari Crossing, Delhi - IMD",21-03-2024 22:00:00,28.7256504,77.2011573,OZONE,15,74,47
India,Delhi,Delhi,"CRRI Mathura Road, Delhi - IMD",21-03-2024 22:00:00,28.5512005,77.2735737,PM2.5,69,300,128
India,Delhi,Delhi,"CRRI Mathura Road, Delhi - IMD",21-03-2024 22:00:00,28.5512005,77.2735737,OZONE,2,44,27
India,Delhi,Delhi,"Chandni Chowk, Delhi - IITM",21-03-2024 22:00:00,28.656756,77.227234,PM10,135,391,184
India,Delhi,Delhi,"Chandni Chowk, Delhi - IITM",21-03-2024 22:00:00,28.656756,77.227234,NO2,10,118,47
India,Delhi,Delhi,"Chandni Chowk, Delhi - IITM",21-03-2024 22:00:00,28.656756,77.227234,OZONE,13,22,19
India,Delhi,Delhi,"DTU, Delhi - CPCB",21-03-2024 22:00:00,28.7500499,77.1112615,NO2,34,63,43
India,Delhi,Delhi,"DTU, Delhi - CPCB",21-03-2024 22:00:00,28.7500499,77.1112615,SO2,28,29,28
India,Delhi,Delhi,"Dr. Karni Singh Shooting Range, Delhi - DPCC",21-03-2024 22:00:00,28.498571,77.264840,PM2.5,80,236,121
India,Delhi,Delhi,"IGI Airport (T3), Delhi - IMD",21-03-2024 22:00:00,28.5627763,77.1180053,PM10,90,316,149
India,Delhi,Delhi,"IHBAS, Dilshad Garden, Delhi - CPCB",21-03-2024 22:00:00,28.6811736,77.3025234,NH3,2,9,5
India,Delhi,Delhi,"ITO, Delhi - CPCB",21-03-2024 22:00:00,28.628624,77.241060,SO2,2,36,14
India,Delhi,Delhi,"Jahangirpuri, Delhi - DPCC",21-03-2024 22:00:00,28.732820,77.170633,NO2,32,134,62
India,Delhi,Delhi,"Jahangirpuri, Delhi - DPCC",21-03-2024 22:00:00,28.732820,77.170633,CO,44,102,76
India,Delhi,Delhi,"Jawaharlal Nehru Stadium, Delhi - DPCC",21-03-2024 22:00:00,28.580280,77.233829,CO,12,113,60
India,Delhi,Delhi,"Mandir Marg, Delhi - DPCC",21-03-2024 22:00:00,28.636429,77.201067,PM10,83,164,114
India,Delhi,Delhi,"Mandir Marg, Delhi - DPCC",21-03-2024 22:00:00,28.636429,77.201067,CO,54,101,76
India,Delhi,Delhi,"Mundka, Delhi - DPCC",21-03-2024 22:00:00,28.684678,77.076574,PM2.5,89,397,187
India,Delhi,Delhi,"Mundka, Delhi - DPCC",21-03-2024 22:00:00,28.684678,77.076574,OZONE,14,14,14
India,Delhi,Delhi,"Najafgarh, Delhi - DPCC",21-03-2024 22:00:00,28.570173,76.933762,SO2,9,15,12
India,Delhi,Delhi,"Najafgarh, Delhi - DPCC",21-03-2024 22:00:00,28.570173,76.933762,OZONE,12,182,133
India,Delhi,Delhi,"Narela, Delhi - DPCC",21-03-2024 22:00:00,28.822836,77.101981,PM10,133,305,192
India,Delhi,Delhi,"Nehru Nagar, Delhi - DPCC",21-03-2024 22:00:00,28.567890,77.250515,SO2,3,17,11
India,Delhi,Delhi,"New Moti Bagh, Delhi - MHUA",21-03-2024 22:00:00,28.57834,77.18400,CO,21,112,32
India,Delhi,Delhi,"Patparganj, Delhi - DPCC",21-03-2024 22:00:00,28.623763,77.287209,SO2,15,19,17
India,Delhi,Delhi,"Punjabi Bagh, Delhi - DPCC",21-03-2024 22:00:00,28.674045,77.131023,CO,20,104,42
India,Delhi,Delhi,"Pusa, Delhi - DPCC",21-03-2024 22:00:00,28.639652,77.146275,PM10,102,321,151
India,Delhi,Delhi,"Pusa, Delhi - DPCC",21-03-2024 22:00:00,28.639652,77.146275,NH3,9,13,10
India,Delhi,Delhi,"Pusa, Delhi - IMD",21-03-2024 22:00:00,28.636110,77.173332,PM10,NA,NA,NA
India,Delhi,Delhi,"Rohini, Delhi - DPCC",21-03-2024 22:00:00,28.732528,77.119920,NO2,27,70,44
India,Delhi,Delhi,"Rohini, Delhi - DPCC",21-03-2024 22:00:00,28.732528,77.119920,CO,28,66,49
India,Delhi,Delhi,"Shadipur, Delhi - CPCB",21-03-2024 22:00:00,28.6514781,77.1473105,OZONE,12,274,39
India,Delhi,Delhi,"Sonia Vihar, Delhi - DPCC",21-03-2024 22:00:00,28.710508,77.249485,OZONE,15,77,57
India,Delhi,Delhi,"Sri Aurobindo Marg, Delhi - DPCC",21-03-2024 22:00:00,28.531346,77.190156,PM2.5,70,257,132
India,Delhi,Delhi,"Sri Aurobindo Marg, Delhi - DPCC",21-03-2024 22:00:00,28.531346,77.190156,CO,14,94,34
India,Delhi,Delhi,"Vivek Vihar, Delhi - DPCC",21-03-2024 22:00:00,28.672342,77.315260,PM10,107,282,158
India,Delhi,Delhi,"Vivek Vihar, Delhi - DPCC",21-03-2024 22:00:00,28.672342,77.315260,OZONE,1,47,30
India,Gujarat,Ahmedabad,"Chandkheda, Ahmedabad - IITM",21-03-2024 22:00:00,23.107969,72.574648,NH3,10,15,13
India,Gujarat,Ahmedabad,"Chandkheda, Ahmedabad - IITM",21-03-2024 22:00:00,23.107969,72.574648,CO,4,106,47
India,Gujarat,Ahmedabad,"Maninagar, Ahmedabad - GPCB",21-03-2024 22:00:00,23.002657,72.591912,CO,34,109,67
India,Gujarat,Ahmedabad,"Raikhad, Ahmedabad - IITM",21-03-2024 22:00:00,23.020509,72.579261,NO2,28,204,76
India,Gujarat,Ahmedabad,"Rakhial, Ahmedabad - IITM",21-03-2024 22:00:00,23.016834,72.625775,PM10,135,280,171
India,Gujarat,Ahmedabad,"Rakhial, Ahmedabad - IITM",21-03-2024 22:00:00,23.016834,72.625775,NO2,23,103,50
India,Gujarat,Ahmedabad,"Rakhial, Ahmedabad - IITM",21-03-2024 22:00:00,23.016834,72.625775,NH3,1,23,18
India,Gujarat,Ahmedabad,"Rakhial, Ahmedabad - IITM",21-03-2024 22:00:00,23.016834,72.625775,SO2,4,20,10
India,Gujarat,Ahmedabad,"SVPI Airport Hansol, Ahmedabad - IITM",21-03-2024 22:00:00,23.076793,72.627874,OZONE,1,57,28
India,Gujarat,Ankleshwar,"GIDC, Ankleshwar - GPCB",21-03-2024 22:00:00,21.613267,73.010555,CO,2,115,40
India,Gujarat,Gandhinagar,"IIPHG Lekawada, Gandhinagar - IITM",21-03-2024 22:00:00,23.243639,72.68994,OZONE,10,67,45
India,Gujarat,Gandhinagar,"Sector-10, Gandhinagar - GPCB",21-03-2024 22:00:00,23.221714,72.654328,PM2.5,21,56,41
India,Gujarat,Gandhinagar,"Sector-10, Gandhinagar - GPCB",21-03-2024 22:00:00,23.221714,72.654328,NO2,8,18,13
India,Gujarat,Nandesari,"GIDC, Nandesari - Nandesari Ind. Association",21-03-2024 22:00:00,22.410802,73.097923,SO2,3,20,10
India,Gujarat,Surat,"Science Center, Surat - SMC",21-03-2024 22:00:00,21.170046,72.795405,NO2,35,59,44
India,Gujarat,Vapi,"Phase-1 GIDC, Vapi - GPCB",21-03-2024 22:00:00,20.362421,72.918013,NH3,2,2,2
India,Gujarat,Vatva,"Phase-4 GIDC, Vatva - GPCB",21-03-2024 22:00:00,22.969611,72.643500,PM10,92,299,131
India,Gujarat,Vatva,"Phase-4 GIDC, Vatva - GPCB",21-03-2024 22:00:00,22.969611,72.643500,OZONE,8,81,51
India,Haryana,Ambala,"Patti Mehar, Ambala - HSPCB",21-03-2024 22:00:00,30.379589,76.778328,PM2.5,NA,NA,NA
India,Haryana,Ambala,"Patti Mehar, Ambala - HSPCB",21-03-2024 22:00:00,30.379589,76.778328,NH3,NA,NA,NA
India,Haryana,Bahadurgarh,"Arya Nagar, Bahadurgarh - HSPCB",21-03-2024 22:00:00,28.6701,76.9254,PM2.5,84,305,181
India,Haryana,Bahadurgarh,"Arya Nagar, Bahadurgarh - HSPCB",21-03-2024 22:00:00,28.6701,76.9254,SO2,14,37,21
India,Haryana,Ballabgarh,"Nathu Colony, Ballabgarh - HSPCB",21-03-2024 22:00:00,28.3419248,77.319699,PM2.5,NA,NA,NA
India,Haryana,Ballabgarh,"Nathu Colony, Ballabgarh - HSPCB",21-03-2024 22:00:00,28.3419248,77.319699,SO2,NA,NA,NA
India,Haryana,Ballabgarh,"Nathu Colony, Ballabgarh - HSPCB",21-03-2024 22:00:00,28.3419248,77.319699,CO,72,100,83
India,Haryana,Bhiwani,"H.B. Colony, Bhiwani - HSPCB",21-03-2024 22:00:00,28.806223,76.141105,NH3,6,6,6
India,Haryana,Bhiwani,"H.B. Colony, Bhiwani - HSPCB",21-03-2024 22:00:00,28.806223,76.141105,OZONE,14,33,24
India,Haryana,Charkhi Dadri,"Mini Secretariat, Charkhi Dadri - HSPCB",21-03-2024 22:00:00,28.593883,76.270653,PM2.5,116,263,170
India,Haryana,Charkhi Dadri,"Mini Secretariat, Charkhi Dadri - HSPCB",21-03-2024 22:00:00,28.593883,76.270653,NH3,6,8,7
India,Haryana,Charkhi Dadri,"Mini Secretariat, Charkhi Dadri - HSPCB",21-03-2024 22:00:00,28.593883,76.270653,SO2,28,100,46
India,Haryana,Dharuhera,"Municipal Corporation Office, Dharuhera -  HSPCB",21-03-2024 22:00:00,28.206800,76.799700,PM10,NA,NA,NA
India,Haryana,Faridabad,"New Industrial Town, Faridabad - HSPCB",21-03-2024 22:00:00,28.39072,77.30059,PM2.5,115,500,264
India,Haryana,Faridabad,"New Industrial Town, Faridabad - HSPCB",21-03-2024 22:00:00,28.39072,77.30059,PM10,105,500,191
India,Haryana,Faridabad,"New Industrial Town, Faridabad - HSPCB",21-03-2024 22:00:00,28.39072,77.30059,NO2,10,26,15
India,Haryana,Faridabad,"New Industrial Town, Faridabad - HSPCB",21-03-2024 22:00:00,28.39072,77.30059,SO2,15,18,16
India,Haryana,Faridabad,"New Industrial Town, Faridabad - HSPCB",21-03-2024 22:00:00,28.39072,77.30059,CO,8,81,21
India,Haryana,Faridabad,"Sector 30, Faridabad - HSPCB",21-03-2024 22:00:00,28.4417,77.3217,NH3,NA,NA,NA
India,Haryana,Faridabad,"Sector 30, Faridabad - HSPCB",21-03-2024 22:00:00,28.4417,77.3217,CO,32,68,50
India,Haryana,Faridabad,"Sector- 16A, Faridabad - HSPCB",21-03-2024 22:00:00,28.4088421,77.3099081,PM2.5,109,314,177
India,Haryana,Faridabad,"Sector- 16A, Faridabad - HSPCB",21-03-2024 22:00:00,28.4088421,77.3099081,SO2,12,27,22
India,Haryana,Fatehabad,"Huda Sector, Fatehabad - HSPCB",21-03-2024 22:00:00,29.503664,75.467934,PM2.5,54,201,108
India,Haryana,Fatehabad,"Huda Sector, Fatehabad - HSPCB",21-03-2024 22:00:00,29.503664,75.467934,NH3,12,14,13
India,Haryana,Fatehabad,"Huda Sector, Fatehabad - HSPCB",21-03-2024 22:00:00,29.503664,75.467934,SO2,5,11,8
India,Haryana,Gurugram,"Sector-51, Gurugram - HSPCB",21-03-2024 22:00:00,28.4227,77.0667,PM10,140,455,197
India,Haryana,Gurugram,"Sector-51, Gurugram - HSPCB",21-03-2024 22:00:00,28.4227,77.0667,NH3,6,11,8
India,Haryana,Gurugram,"Teri Gram, Gurugram - HSPCB",21-03-2024 22:00:00,28.4275,77.1465,PM2.5,92,344,187
India,Haryana,Gurugram,"Vikas Sadan, Gurugram - HSPCB",21-03-2024 22:00:00,28.4501238,77.0263051,CO,54,146,114
India,Haryana,Jind,"Police Lines, Jind - HSPCB",21-03-2024 22:00:00,29.307814,76.337619,NO2,5,16,11
India,Haryana,Jind,"Police Lines, Jind - HSPCB",21-03-2024 22:00:00,29.307814,76.337619,NH3,2,7,4
India,Haryana,Kaithal,"Rishi Nagar, Kaithal - HSPCB",21-03-2024 22:00:00,29.8006,76.4155,NO2,24,26,25
India,Haryana,Kaithal,"Rishi Nagar, Kaithal - HSPCB",21-03-2024 22:00:00,29.8006,76.4155,SO2,4,103,25
India,Haryana,Karnal,"Sector-12, Karnal - HSPCB",21-03-2024 22:00:00,29.695300,77.002700,OZONE,19,22,21
India,Haryana,Kurukshetra,"Sector-7, Kurukshetra - HSPCB",21-03-2024 22:00:00,29.966942,76.875879,PM2.5,48,83,62
India,Haryana,Kurukshetra,"Sector-7, Kurukshetra - HSPCB",21-03-2024 22:00:00,29.966942,76.875879,CO,12,42,33
India,Haryana,Mandikhera,"General Hospital, Mandikhera - HSPCB",21-03-2024 22:00:00,27.9002,76.9938,PM10,86,136,118
India,Haryana,Mandikhera,"General Hospital, Mandikhera - HSPCB",21-03-2024 22:00:00,27.9002,76.9938,NO2,20,24,22
India,Haryana,Manesar,"Sector-2 IMT, Manesar - HSPCB",21-03-2024 22:00:00,28.360699,76.936090,PM10,55,130,80
India,Haryana,Manesar,"Sector-2 IMT, Manesar - HSPCB",21-03-2024 22:00:00,28.360699,76.936090,CO,17,42,19
India,Haryana,Narnaul,"Shastri Nagar, Narnaul - HSPCB",21-03-2024 22:00:00,28.060249,76.113115,NO2,12,75,35
India,Haryana,Narnaul,"Shastri Nagar, Narnaul - HSPCB",21-03-2024 22:00:00,28.060249,76.113115,SO2,12,46,21
India,Haryana,Palwal,"Shyam Nagar, Palwal - HSPCB",21-03-2024 22:00:00,28.1485564,77.3320667,NO2,23,24,24
India,Haryana,Panchkula,"Sector-6, Panchkula - HSPCB ",21-03-2024 22:00:00,30.7057778,76.8531805555555,CO,2,13,6
India,Haryana,Panipat,"Sector-18, Panipat - HSPCB",21-03-2024 22:00:00,29.497973,76.993331,SO2,18,19,19
India,Haryana,Rohtak,"MD University, Rohtak - HSPCB",21-03-2024 22:00:00,28.52123,76.37138,NO2,46,56,51
India,Haryana,Sirsa,"F-Block, Sirsa - HSPCB",21-03-2024 22:00:00,29.536400,75.015800,SO2,1,57,15
India,Haryana,Sonipat,"Murthal, Sonipat - HSPCB",21-03-2024 22:00:00,29.027200,77.062100,NO2,37,44,40
India,Haryana,Sonipat,"Murthal, Sonipat - HSPCB",21-03-2024 22:00:00,29.027200,77.062100,OZONE,17,35,35
India,Haryana,Yamuna Nagar,"Gobind Pura, Yamuna Nagar - HSPCB",21-03-2024 22:00:00,30.1480566,77.2893471,PM2.5,57,129,80
India,Haryana,Yamuna Nagar,"Gobind Pura, Yamuna Nagar - HSPCB",21-03-2024 22:00:00,30.1480566,77.2893471,CO,5,102,55
India,Jharkhand,Dhanbad,"Kalakusuma, Dhanbad - DMC",21-03-2024 22:00:00,23.811548,86.481238,NO2,109,111,109
India,Jharkhand,Dhanbad,"Sardar Patel Nagar, Dhanbad - JSPCB",21-03-2024 22:00:00,23.80569,86.44268,NO2,NA,NA,NA
India,Jharkhand,Pathardih,"Mohalbani Ghat, Pathardih - DMC",21-03-2024 22:00:00,23.669880,86.411725,CO,18,154,104
India,Karnataka,Bagalkot,"Vidayagiri, Bagalkot - KSPCB",21-03-2024 22:00:00,16.172806,75.659694,PM2.5,36,37,37
India,Karnataka,Bagalkot,"Vidayagiri, Bagalkot - KSPCB",21-03-2024 22:00:00,16.172806,75.659694,NO2,9,9,9
India,Karnataka,Bengaluru,"BTM Layout, Bengaluru - CPCB",21-03-2024 22:00:00,12.9135218,77.5950804,PM2.5,NA,NA,NA
India,Karnataka,Bengaluru,"Bapuji Nagar, Bengaluru - KSPCB",21-03-2024 22:00:00,12.951913,77.539784,PM10,64,114,89
India,Karnataka,Bengaluru,"Hebbal, Bengaluru - KSPCB",21-03-2024 22:00:00,13.029152,77.585901,PM2.5,NA,NA,NA
India,Karnataka,Bengaluru,"Hombegowda Nagar, Bengaluru - KSPCB",21-03-2024 22:00:00,12.938539,77.590100,NO2,9,24,15
India,Karnataka,Bengaluru,"Jayanagar 5th Block, Bengaluru - KSPCB",21-03-2024 22:00:00,12.920984,77.584908,PM2.5,42,116,66
India,Karnataka,Bengaluru,"Jayanagar 5th Block, Bengaluru - KSPCB",21-03-2024 22:00:00,12.920984,77.584908,PM10,52,153,88
India,Karnataka,Bengaluru,"Jayanagar 5th Block, Bengaluru - KSPCB",21-03-2024 22:00:00,12.920984,77.584908,CO,9,103,91
India,Karnataka,Bengaluru,"Jigani, Bengaluru - KSPCB",21-03-2024 22:00:00,12.7816279,77.6299145,NO2,31,32,32
India,Karnataka,Bengaluru,"Jigani, Bengaluru - KSPCB",21-03-2024 22:00:00,12.7816279,77.6299145,CO,29,62,44
India,Karnataka,Bengaluru,"Kasturi Nagar, Bengaluru - KSPCB",21-03-2024 22:00:00,13.003872,77.664217,NO2,16,17,17
India,Karnataka,Bengaluru,"Kasturi Nagar, Bengaluru - KSPCB",21-03-2024 22:00:00,13.003872,77.664217,CO,24,26,25
India,Karnataka,Bengaluru,"RVCE-Mailasandra, Bengaluru - KSPCB",21-03-2024 22:00:00,12.921418,77.502466,OZONE,10,10,10
India,Karnataka,Bengaluru,"Sanegurava Halli, Bengaluru - KSPCB",21-03-2024 22:00:00,12.990328,77.5431385,CO,8,28,17
India,Karnataka,Bengaluru,"Shivapura_Peenya, Bengaluru - KSPCB",21-03-2024 22:00:00,13.0246342,77.5080115,NO2,15,16,15
India,Karnataka,Bengaluru,"Shivapura_Peenya, Bengaluru - KSPCB",21-03-2024 22:00:00,13.0246342,77.5080115,NH3,4,4,4
India,Karnataka,Bengaluru,"Silk Board, Bengaluru - KSPCB",21-03-2024 22:00:00,12.917348,77.622813,PM2.5,27,86,44
India,Karnataka,Bengaluru,"Silk Board, Bengaluru - KSPCB",21-03-2024 22:00:00,12.917348,77.622813,CO,10,33,23
India,Karnataka,Bidar,"Naubad, Bidar - KSPCB",21-03-2024 22:00:00,17.930306,77.482194,PM2.5,31,90,57
India,Karnataka,Bidar,"Naubad, Bidar - KSPCB",21-03-2024 22:00:00,17.930306,77.482194,PM10,70,102,86
India,Karnataka,Chamarajanagar,"Urban, Chamarajanagar - KSPCB",21-03-2024 22:00:00,11.55358,76.55521,NO2,28,48,33
India,Karnataka,Chamarajanagar,"Urban, Chamarajanagar - KSPCB",21-03-2024 22:00:00,11.55358,76.55521,SO2,4,10,5
India,Karnataka,Chikkamagaluru,"Kalyana Nagara, Chikkamagaluru - KSPCB",21-03-2024 22:00:00,13.328028,75.797056,NH3,2,4,3
India,Karnataka,Chikkamagaluru,"Kalyana Nagara, Chikkamagaluru - KSPCB",21-03-2024 22:00:00,13.328028,75.797056,SO2,1,7,4
India,Karnataka,Gadag,"Panchal Nagar, Gadag - KSPCB",21-03-2024 22:00:00,15.411456,75.638133,PM10,48,69,60
India,Karnataka,Gadag,"Panchal Nagar, Gadag - KSPCB",21-03-2024 22:00:00,15.411456,75.638133,NO2,4,28,12
India,Karnataka,Hassan,"B.Katihalli, Hassan - KSPCB",21-03-2024 22:00:00,13.008556,76.125258,OZONE,5,33,21
India,Karnataka,Hubballi,"Deshpande Nagar, Hubballi - KSPCB",21-03-2024 22:00:00,15.351773,75.140726,PM2.5,NA,NA,NA
India,Karnataka,Hubballi,"Deshpande Nagar, Hubballi - KSPCB",21-03-2024 22:00:00,15.351773,75.140726,NH3,NA,NA,NA
India,Karnataka,Hubballi,"Lingaraj Nagar, Hubballi - KSPCB",21-03-2024 22:00:00,15.3714823,75.1160168,NO2,16,16,16
India,Karnataka,Hubballi,"Lingaraj Nagar, Hubballi - KSPCB",21-03-2024 22:00:00,15.3714823,75.1160168,CO,10,190,190
India,Karnataka,Kalaburagi,"Lal Bahadur Shastri Nagar, Kalaburagi - KSPCB",21-03-2024 22:00:00,17.321993,76.822628,CO,40,45,43
India,Karnataka,Karwar,"KHB Colony, Karwar - KSPCB",21-03-2024 22:00:00,14.816666,74.141003,PM2.5,57,287,101
India,Karnataka,Karwar,"KHB Colony, Karwar - KSPCB",21-03-2024 22:00:00,14.816666,74.141003,PM10,66,178,102
India,Karnataka,Kolar,"Tamaka Ind. Area, Kolar - KSPCB",21-03-2024 22:00:00,13.1276288,78.1570122,PM10,NA,NA,NA
India,Karnataka,Kolar,"Tamaka Ind. Area, Kolar - KSPCB",21-03-2024 22:00:00,13.1276288,78.1570122,CO,NA,NA,NA
India,Karnataka,Koppal,"Diwator Nagar, Koppal - KSPCB",21-03-2024 22:00:00,15.347630,76.181767,NO2,2,40,11
India,Karnataka,Madikeri,"Stuart Hill, Madikeri - KSPCB",21-03-2024 22:00:00,12.415911,75.735050,NH3,1,1,1
India,Karnataka,Mangalore,"Kadri, Mangalore - KSPCB",21-03-2024 22:00:00,12.889250,74.853000,PM10,53,79,62
India,Karnataka,Mangalore,"Kadri, Mangalore - KSPCB",21-03-2024 22:00:00,12.889250,74.853000,SO2,20,23,22
India,Karnataka,Mangalore,"Kadri, Mangalore - KSPCB",21-03-2024 22:00:00,12.889250,74.853000,OZONE,30,32,31
India,Karnataka,Mysuru,"Hebbal 1st Stage, Mysuru - KSPCB",21-03-2024 22:00:00,12.21041,76.37376,NO2,10,37,24
India,Karnataka,Mysuru,"Hebbal 1st Stage, Mysuru - KSPCB",21-03-2024 22:00:00,12.21041,76.37376,OZONE,15,72,45
India,Karnataka,Raichur,"Haji Colony, Raichur - KSPCB",21-03-2024 22:00:00,16.208139,77.348417,SO2,66,81,72
India,Karnataka,Raichur,"Haji Colony, Raichur - KSPCB",21-03-2024 22:00:00,16.208139,77.348417,OZONE,3,218,103
India,Karnataka,Shivamogga,"Vinoba Nagara, Shivamogga - KSPCB",21-03-2024 22:00:00,13.940000,75.555917,PM2.5,24,52,39
India,Karnataka,Shivamogga,"Vinoba Nagara, Shivamogga - KSPCB",21-03-2024 22:00:00,13.940000,75.555917,NH3,2,4,3
India,Karnataka,Tumakuru,"Thimmalapura, Tumakuru - KSPCB",21-03-2024 22:00:00,13.377516,77.099072,NH3,1,3,2
India,Karnataka,Udupi,"Brahmagiri, Udupi - KSPCB",21-03-2024 22:00:00,13.34194444,74.74694444,PM10,63,127,101
India,Karnataka,Udupi,"Brahmagiri, Udupi - KSPCB",21-03-2024 22:00:00,13.34194444,74.74694444,NH3,1,2,1
India,Karnataka,Udupi,"Brahmagiri, Udupi - KSPCB",21-03-2024 22:00:00,13.34194444,74.74694444,SO2,12,20,15
India,Karnataka,Vijayapura,"Ibrahimpur, Vijayapura - KSPCB",21-03-2024 22:00:00,16.802639,75.722694,NO2,19,19,19
India,Karnataka,Vijayapura,"Ibrahimpur, Vijayapura - KSPCB",21-03-2024 22:00:00,16.802639,75.722694,SO2,2,25,12
India,Kerala,Kannur,"Thavakkara, Kannur - Kerala PCB",21-03-2024 22:00:00,11.875000,75.373200,NH3,1,1,1
India,Kerala,Kannur,"Thavakkara, Kannur - Kerala PCB",21-03-2024 22:00:00,11.875000,75.373200,CO,29,34,32
India,Kerala,Kollam,"Polayathode, Kollam - Kerala PCB",21-03-2024 22:00:00,8.8787,76.6073,OZONE,31,40,35
India,Kerala,Thiruvananthapuram,"Kariavattom, Thiruvananthapuram - Kerala PCB",21-03-2024 22:00:00,8.563700,76.886500,PM2.5,75,87,81
India,Kerala,Thiruvananthapuram,"Kariavattom, Thiruvananthapuram - Kerala PCB",21-03-2024 22:00:00,8.563700,76.886500,SO2,4,18,8
India,Kerala,Thiruvananthapuram,"Plammoodu, Thiruvananthapuram - Kerala PCB",21-03-2024 22:00:00,8.5149093,76.9435879,SO2,3,16,8
India,Kerala,Thrissur,"Corporation Ground, Thrissur - Kerala PCB",21-03-2024 22:00:00,10.532400,76.215900,NO2,7,8,7
India,Madhya Pradesh,Bhopal,"Idgah Hills, Bhopal - MPPCB",21-03-2024 22:00:00,23.264759,77.381568,OZONE,41,122,99
India,Madhya Pradesh,Bhopal,"Paryavaran Parisar, Bhopal - MPPCB",21-03-2024 22:00:00,23.210494,77.425409,PM10,60,132,98
India,Madhya Pradesh,Bhopal,"T T Nagar, Bhopal - MPPCB",21-03-2024 22:00:00,23.233584,77.400574,PM10,72,136,99
India,Madhya Pradesh,Bhopal,"T T Nagar, Bhopal - MPPCB",21-03-2024 22:00:00,23.233584,77.400574,NO2,32,74,44
India,Madhya Pradesh,Bhopal,"T T Nagar, Bhopal - MPPCB",21-03-2024 22:00:00,23.233584,77.400574,SO2,24,57,34
India,Madhya Pradesh,Dewas,"Bhopal Chauraha, Dewas - MPPCB",21-03-2024 22:00:00,22.9682591,76.064118,NO2,11,14,13
India,Madhya Pradesh,Dewas,"Bhopal Chauraha, Dewas - MPPCB",21-03-2024 22:00:00,22.9682591,76.064118,SO2,36,47,43
India,Madhya Pradesh,Gwalior,"City Center, Gwalior - MPPCB",21-03-2024 22:00:00,26.203442,78.193251,SO2,26,41,34
India,Madhya Pradesh,Gwalior,"City Center, Gwalior - MPPCB",21-03-2024 22:00:00,26.203442,78.193251,CO,12,85,58
India,Madhya Pradesh,Gwalior,"Deen Dayal Nagar, Gwalior - MPPCB",21-03-2024 22:00:00,26.259242,78.216432,PM2.5,64,315,102
India,Madhya Pradesh,Gwalior,"Deen Dayal Nagar, Gwalior - MPPCB",21-03-2024 22:00:00,26.259242,78.216432,OZONE,47,170,133
India,Madhya Pradesh,Gwalior,"Maharaj Bada, Gwalior - MPPCB",21-03-2024 22:00:00,26.200388,78.147714,PM10,113,315,146
India,Madhya Pradesh,Indore,"Chhoti Gwaltoli, Indore - MPPCB",21-03-2024 22:00:00,22.4310,75.5213,PM10,68,240,117
India,Madhya Pradesh,Indore,"Maguda Nagar, Indore - IMC",21-03-2024 22:00:00,22.7524,75.8872,PM2.5,29,272,68
India,Madhya Pradesh,Indore,"Regional Park, Indore - IMC",21-03-2024 22:00:00,22.6780,75.8559,NO2,NA,NA,NA
India,Madhya Pradesh,Jabalpur,"Gupteshwar, Jabalpur - JMC",21-03-2024 22:00:00,23.142888,79.916147,PM2.5,53,322,97
India,Madhya Pradesh,Jabalpur,"Gupteshwar, Jabalpur - JMC",21-03-2024 22:00:00,23.142888,79.916147,PM10,47,173,73
India,Madhya Pradesh,Jabalpur,"Gupteshwar, Jabalpur - JMC",21-03-2024 22:00:00,23.142888,79.916147,NH3,4,12,8
India,Madhya Pradesh,Jabalpur,"Marhatal, Jabalpur - MPPCB",21-03-2024 22:00:00,23.168606,79.932247,NH3,2,4,3
India,Madhya Pradesh,Jabalpur,"Suhagi, Jabalpur - JMC",21-03-2024 22:00:00,23.218135,79.957770,NH3,4,4,4
India,Madhya Pradesh,Mandideep,"Sector-D Industrial Area, Mandideep - MPPCB",21-03-2024 22:00:00,23.108440,77.511428,OZONE,11,59,39
India,Madhya Pradesh,Pithampur,"Sector-2 Industrial Area, Pithampur - MPPCB",21-03-2024 22:00:00,22.624758,75.675238,PM10,76,222,132
India,Madhya Pradesh,Pithampur,"Sector-2 Industrial Area, Pithampur - MPPCB",21-03-2024 22:00:00,22.624758,75.675238,SO2,12,17,14
India,Madhya Pradesh,Pithampur,"Sector-2 Industrial Area, Pithampur - MPPCB",21-03-2024 22:00:00,22.624758,75.675238,CO,42,61,46
India,Madhya Pradesh,Sagar,"Civil Lines, Sagar - MPPCB",21-03-2024 22:00:00,23.838586,78.759431,NO2,9,46,20
India,Madhya Pradesh,Sagar,"Deen Dayal Nagar, Sagar - MPPCB",21-03-2024 22:00:00,23.8640158,78.80289321,PM10,30,140,56
India,Madhya Pradesh,Singrauli,"Suryakiran Bhawan NCL, Singrauli - MPPCB",21-03-2024 22:00:00,24.108970,82.645580,SO2,31,60,44
India,Madhya Pradesh,Singrauli,"Suryakiran Bhawan NCL, Singrauli - MPPCB",21-03-2024 22:00:00,24.108970,82.645580,CO,32,94,57
India,Madhya Pradesh,Ujjain,"Mahakaleshwar Temple, Ujjain - MPPCB",21-03-2024 22:00:00,23.182719 ,75.768218 ,NO2,12,110,34
India,Maharashtra,Ahmednagar,"Tarakpur, Ahmednagar - MPCB",21-03-2024 22:00:00,19.10122,74.73339,PM2.5,NA,NA,NA
India,Maharashtra,Akola,"Ramdaspeth, Akola - MPCB",21-03-2024 22:00:00,20.719516,77.000253,NH3,4,12,7
India,Maharashtra,Amravati,"Shivneri Colony, Amravati - MPCB",21-03-2024 22:00:00,20.9402359,77.7895248,PM2.5,41,86,61
India,Maharashtra,Amravati,"Shivneri Colony, Amravati - MPCB",21-03-2024 22:00:00,20.9402359,77.7895248,PM10,61,132,87
India,Maharashtra,Amravati,"Shivneri Colony, Amravati - MPCB",21-03-2024 22:00:00,20.9402359,77.7895248,CO,12,64,31
India,Maharashtra,Amravati,"Shri Shivaji Science College, Amaravati - MPCB",21-03-2024 22:00:00,20.939198,77.765701,OZONE,9,123,87
India,Maharashtra,Aurangabad,"More Chowk Waluj, Aurangabad - MPCB",21-03-2024 22:00:00,19.8389439,75.244448,NH3,9,10,9
India,Maharashtra,Badlapur,"Katrap, Badlapur - MPCB",21-03-2024 22:00:00,19.16485,73.23409,CO,17,119,47
India,Maharashtra,Belapur,"CBD Belapur, Belapur - MPCB",21-03-2024 22:00:00,19.0243902,73.0406721,NH3,13,81,36
India,Maharashtra,Belapur,"CBD Belapur, Belapur - MPCB",21-03-2024 22:00:00,19.0243902,73.0406721,CO,23,100,35
India,Maharashtra,Bhiwandi,"Gokul Nagar, Bhiwandi - MPCB",21-03-2024 22:00:00,19.309073,73.057223,SO2,3,32,12
India,Maharashtra,Boisar,"Khaira, Boisar - MPCB",21-03-2024 22:00:00,19.786089,72.757971,PM2.5,NA,NA,NA
India,Maharashtra,Chandrapur,"Chauhan Colony, Chandrapur - MPCB",21-03-2024 22:00:00,19.962900,79.298714,PM2.5,55,500,130
India,Maharashtra,Chandrapur,"Chauhan Colony, Chandrapur - MPCB",21-03-2024 22:00:00,19.962900,79.298714,PM10,51,158,83
India,Maharashtra,Chandrapur,"Chauhan Colony, Chandrapur - MPCB",21-03-2024 22:00:00,19.962900,79.298714,NH3,1,4,3
India,Maharashtra,Chandrapur,"MIDC Khutala, Chandrapur - MPCB",21-03-2024 22:00:00,19.9775302,79.2337086,NO2,NA,NA,NA
India,Maharashtra,Dhule,"Deopur, Dhule - MPCB",21-03-2024 22:00:00,20.918946,74.776388,PM2.5,51,276,105
India,Maharashtra,Jalna,"Old MIDC, Jalna - MPCB",21-03-2024 22:00:00,19.854616,75.905894,NO2,18,53,40
India,Maharashtra,Jalna,"Old MIDC, Jalna - MPCB",21-03-2024 22:00:00,19.854616,75.905894,NH3,6,8,7
India,Maharashtra,Jalna,"Old MIDC, Jalna - MPCB",21-03-2024 22:00:00,19.854616,75.905894,OZONE,1,231,87
India,Maharashtra,Kalyan,"Khadakpada, Kalyan - MPCB",21-03-2024 22:00:00,19.25292,73.142019,NH3,1,2,1
India,Maharashtra,Kalyan,"Khadakpada, Kalyan - MPCB",21-03-2024 22:00:00,19.25292,73.142019,OZONE,7,48,35
India,Maharashtra,Mahad,"Kamble Tarf Birwadi, Mahad - MPCB",21-03-2024 22:00:00,18.1023399,73.4783687,NH3,NA,NA,NA
India,Maharashtra,Malegaon,"Mahesh Nagar, Malegaon - MPCB",21-03-2024 22:00:00,20.555712,74.529236,PM2.5,10,323,138
India,Maharashtra,Mira-Bhayandar,"Bhayandar West, Mira-Bhayandar - MPCB",21-03-2024 22:00:00,19.296481,72.840923,CO,10,62,17
India,Maharashtra,Mumbai,"Bandra Kurla Complex, Mumbai - MPCB",21-03-2024 22:00:00,19.065931,72.862131,NO2,14,56,31
India,Maharashtra,Mumbai,"Borivali East, Mumbai - IITM",21-03-2024 22:00:00,19.23241,72.86895,PM2.5,53,202,92
India,Maharashtra,Mumbai,"Borivali East, Mumbai - IITM",21-03-2024 22:00:00,19.23241,72.86895,NO2,42,103,68
India,Maharashtra,Mumbai,"Borivali East, Mumbai - IITM",21-03-2024 22:00:00,19.23241,72.86895,CO,3,78,25
India,Maharashtra,Mumbai,"Borivali East, Mumbai - MPCB",21-03-2024 22:00:00,19.2243333,72.8658113,NH3,NA,NA,NA
India,Maharashtra,Mumbai,"Chakala-Andheri East, Mumbai - IITM",21-03-2024 22:00:00,19.11074,72.86084,PM10,62,129,99
India,Maharashtra,Mumbai,"Chakala-Andheri East, Mumbai - IITM",21-03-2024 22:00:00,19.11074,72.86084,OZONE,10,153,81
India,Maharashtra,Mumbai,"Chembur, Mumbai - MPCB",21-03-2024 22:00:00,19.0364585,72.8954371,PM2.5,74,253,144
India,Maharashtra,Mumbai,"Colaba, Mumbai - MPCB",21-03-2024 22:00:00,18.910000,72.820000,NO2,20,37,28
India,Maharashtra,Mumbai,"Ghatkopar, Mumbai - BMC",21-03-2024 22:00:00,19.083694,72.920967,PM10,93,145,118
India,Maharashtra,Mumbai,"Ghatkopar, Mumbai - BMC",21-03-2024 22:00:00,19.083694,72.920967,NO2,NA,NA,NA
India,Maharashtra,Mumbai,"Ghatkopar, Mumbai - BMC",21-03-2024 22:00:00,19.083694,72.920967,NH3,NA,NA,NA
India,Maharashtra,Mumbai,"Kherwadi_Bandra East, Mumbai - MPCB",21-03-2024 22:00:00,19.0632143,72.8456324,PM10,118,220,151
India,Maharashtra,Mumbai,"Kherwadi_Bandra East, Mumbai - MPCB",21-03-2024 22:00:00,19.0632143,72.8456324,NO2,24,141,85
India,Maharashtra,Mumbai,"Kherwadi_Bandra East, Mumbai - MPCB",21-03-2024 22:00:00,19.0632143,72.8456324,NH3,5,48,20
India,Maharashtra,Mumbai,"Kurla, Mumbai - MPCB",21-03-2024 22:00:00,19.0863,72.8888,NH3,2,8,5
India,Maharashtra,Mumbai,"Kurla, Mumbai - MPCB",21-03-2024 22:00:00,19.0863,72.8888,OZONE,28,49,30
India,Maharashtra,Mumbai,"Mazgaon, Mumbai - IITM",21-03-2024 22:00:00,18.96702,72.84214,OZONE,6,132,99
India,Maharashtra,Mumbai,"Mindspace-Malad West, Mumbai - MPCB",21-03-2024 22:00:00,19.1878657,72.8304069,CO,20,54,29
India,Maharashtra,Mumbai,"Mulund West, Mumbai - MPCB",21-03-2024 22:00:00,19.1750,72.9419,NH3,10,11,11
India,Maharashtra,Mumbai,"Navy Nagar-Colaba, Mumbai - IITM",21-03-2024 22:00:00,18.897756,72.813320,PM2.5,61,262,134
India,Maharashtra,Mumbai,"Powai, Mumbai - MPCB",21-03-2024 22:00:00,19.137500,72.915056,CO,34,56,44
India,Maharashtra,Mumbai,"Sewri, Mumbai - BMC",21-03-2024 22:00:00,19.000084,72.856730,SO2,12,53,21
India,Maharashtra,Mumbai,"Siddharth Nagar-Worli, Mumbai - IITM",21-03-2024 22:00:00,19.000083,72.813993,CO,4,92,25
India,Maharashtra,Mumbai,"Sion, Mumbai - MPCB",21-03-2024 22:00:00,19.047000,72.874600,NH3,1,2,1
India,Maharashtra,Mumbai,"Sion, Mumbai - MPCB",21-03-2024 22:00:00,19.047000,72.874600,CO,14,56,19
India,Maharashtra,Mumbai,"Vasai West, Mumbai - MPCB",21-03-2024 22:00:00,19.383200,72.820400,CO,64,106,70
India,Maharashtra,Mumbai,"Worli, Mumbai - MPCB",21-03-2024 22:00:00,18.9936162,72.8128113,OZONE,7,13,8
India,Maharashtra,Nagpur,"Ambazari, Nagpur - MPCB",21-03-2024 22:00:00,21.121801,79.04952,NH3,3,13,6
India,Maharashtra,Nagpur,"Mahal, Nagpur - MPCB",21-03-2024 22:00:00,21.14472,79.107595,CO,26,146,93
India,Maharashtra,Nagpur,"Ram Nagar, Nagpur - MPCB",21-03-2024 22:00:00,21.143383,79.048912,PM2.5,34,85,65
India,Maharashtra,Nagpur,"Ram Nagar, Nagpur - MPCB",21-03-2024 22:00:00,21.143383,79.048912,OZONE,1,106,63
India,Maharashtra,Nashik,"Gangapur Road, Nashik - MPCB",21-03-2024 22:00:00,20.0073285,73.7762427,NO2,12,34,19
India,Maharashtra,Nashik,"Gangapur Road, Nashik - MPCB",21-03-2024 22:00:00,20.0073285,73.7762427,SO2,1,9,4
India,Maharashtra,Nashik,"Hirawadi, Nashik - MPCB",21-03-2024 22:00:00,20.021503,73.813844,PM2.5,47,88,62
India,Maharashtra,Nashik,"Hirawadi, Nashik - MPCB",21-03-2024 22:00:00,20.021503,73.813844,PM10,56,120,89
India,Maharashtra,Nashik,"Hirawadi, Nashik - MPCB",21-03-2024 22:00:00,20.021503,73.813844,NO2,4,97,36
India,Maharashtra,Nashik,"Pandav Nagari, Nashik - MPCB",21-03-2024 22:00:00,19.9591346,73.7788008,OZONE,4,87,57
India,Maharashtra,Navi Mumbai,"Kopripada-Vashi, Navi Mumbai - MPCB",21-03-2024 22:00:00,19.090337,73.014232,CO,13,103,42
India,Maharashtra,Navi Mumbai,"Mahape, Navi Mumbai - MPCB",21-03-2024 22:00:00,19.1135051,73.008978,PM10,106,257,155
India,Maharashtra,Navi Mumbai,"Nerul, Navi Mumbai - MPCB",21-03-2024 22:00:00,19.008751,73.016620,PM2.5,72,340,183
India,Maharashtra,Navi Mumbai,"Sanpada, Navi Mumbai - MPCB",21-03-2024 22:00:00,19.0575752,73.0151367,PM2.5,72,172,120
India,Maharashtra,Navi Mumbai,"Sanpada, Navi Mumbai - MPCB",21-03-2024 22:00:00,19.0575752,73.0151367,PM10,85,209,146
India,Maharashtra,Navi Mumbai,"Sector-19A Nerul, Navi Mumbai - IITM",21-03-2024 22:00:00,19.044,73.0325,PM2.5,82,319,173
India,Maharashtra,Navi Mumbai,"Sector-19A Nerul, Navi Mumbai - IITM",21-03-2024 22:00:00,19.044,73.0325,NH3,14,21,16
India,Maharashtra,Navi Mumbai,"Sector-2E Kalamboli, Navi Mumbai - MPCB",21-03-2024 22:00:00,19.02579,73.10297,PM2.5,51,175,99
India,Maharashtra,Navi Mumbai,"Sector-2E Kalamboli, Navi Mumbai - MPCB",21-03-2024 22:00:00,19.02579,73.10297,NO2,4,130,58
India,Maharashtra,Navi Mumbai,"Sector-2E Kalamboli, Navi Mumbai - MPCB",21-03-2024 22:00:00,19.02579,73.10297,NH3,2,6,3
India,Maharashtra,Navi Mumbai,"Tondare-Taloja, Navi Mumbai - MPCB",21-03-2024 22:00:00,19.0630,73.1209,NO2,36,131,78
India,Maharashtra,Parbhani,"Masoom Colony, Parbhani - MPCB",21-03-2024 22:00:00,19.265594,76.761463,PM2.5,90,316,239
India,Maharashtra,Pimpri-Chinchwad,"Gavalinagar, Pimpri Chinchwad - MPCB",21-03-2024 22:00:00,18.63673,73.82487,OZONE,1,230,157
India,Maharashtra,Pimpri-Chinchwad,"Thergaon, Pimpri Chinchwad - MPCB",21-03-2024 22:00:00,18.616318,73.765797,PM10,111,348,178
India,Maharashtra,Pimpri-Chinchwad,"Thergaon, Pimpri Chinchwad - MPCB",21-03-2024 22:00:00,18.616318,73.765797,CO,16,106,36
India,Maharashtra,Pune,"Katraj Dairy, Pune - MPCB",21-03-2024 22:00:00,18.454450,73.854155,NO2,19,59,38
India,Maharashtra,Pune,"Mhada Colony, Pune - IITM",21-03-2024 22:00:00,18.573040,73.927715,PM2.5,55,189,112
India,Maharashtra,Pune,"Mhada Colony, Pune - IITM",21-03-2024 22:00:00,18.573040,73.927715,NO2,NA,NA,NA
India,Maharashtra,Pune,"Mhada Colony, Pune - IITM",21-03-2024 22:00:00,18.573040,73.927715,CO,22,105,65
India,Maharashtra,Pune,"Revenue Colony-Shivajinagar, Pune - IITM",21-03-2024 22:00:00,18.530085,73.849598,SO2,72,110,92
India,Maharashtra,Pune,"Revenue Colony-Shivajinagar, Pune - IITM",21-03-2024 22:00:00,18.530085,73.849598,CO,103,116,114
India,Maharashtra,Pune,"Savitribai Phule Pune University, Pune - MPCB",21-03-2024 22:00:00,18.547056,73.826908,NH3,1,3,1
India,Maharashtra,Pune,"Transport Nagar-Nigdi, Pune - IITM",21-03-2024 22:00:00,18.664282,73.763966,OZONE,3,85,64
India,Maharashtra,Sangli,"Vijay Nagar, Sangli - MPCB",21-03-2024 22:00:00, 16.5038,74.3623,PM2.5,44,229,99
India,Maharashtra,Sangli,"Vijay Nagar, Sangli - MPCB",21-03-2024 22:00:00, 16.5038,74.3623,PM10,63,278,109
India,Maharashtra,Sangli,"Vijay Nagar, Sangli - MPCB",21-03-2024 22:00:00, 16.5038,74.3623,CO,14,114,35
India,Maharashtra,Solapur,"Dnyaneshwar Nagar, Solapur - MPCB",21-03-2024 22:00:00,17.6336264,75.9132495,PM2.5,78,153,96
India,Maharashtra,Solapur,"Ratandeep Housing Society, Solapur - MPCB",21-03-2024 22:00:00,17.65439,75.90649,PM10,75,146,100
India,Maharashtra,Solapur,"Ratandeep Housing Society, Solapur - MPCB",21-03-2024 22:00:00,17.65439,75.90649,SO2,1,59,17
India,Maharashtra,Thane,"Pimpleshwar Mandir, Thane - MPCB",21-03-2024 22:00:00,19.192056,72.9585188,CO,2,129,70
India,Maharashtra,Thane,"Upvan Fort, Thane - MPCB",21-03-2024 22:00:00,19.222279,72.957979,CO,11,58,27
India,Maharashtra,Thane,"Upvan Fort, Thane - MPCB",21-03-2024 22:00:00,19.222279,72.957979,OZONE,16,277,147
India,Maharashtra,Ulhasnagar,"Sidhi Vinayak Nagar, Ulhasnagar - MPCB",21-03-2024 22:00:00,19.235581,73.159121,PM10,90,247,149
India,Manipur,Imphal,"DM College of Science, Imphal - Manipur PCB",21-03-2024 22:00:00,24.8207389,93.9423085,SO2,NA,NA,NA
India,Meghalaya,Shillong,"Lumpyngngad, Shillong - Meghalaya PCB",21-03-2024 22:00:00,25.5586,91.8985,PM10,18,58,40
India,Meghalaya,Shillong,"Lumpyngngad, Shillong - Meghalaya PCB",21-03-2024 22:00:00,25.5586,91.8985,CO,10,16,13
India,Mizoram,Aizawl,"Sikulpuikawn, Aizawl - Mizoram PCB",21-03-2024 22:00:00,23.7176342,92.7192841,NO2,1,2,1
India,Mizoram,Aizawl,"Sikulpuikawn, Aizawl - Mizoram PCB",21-03-2024 22:00:00,23.7176342,92.7192841,NH3,NA,NA,NA
India,Mizoram,Aizawl,"Sikulpuikawn, Aizawl - Mizoram PCB",21-03-2024 22:00:00,23.7176342,92.7192841,SO2,2,2,2
India,Mizoram,Aizawl,"Sikulpuikawn, Aizawl - Mizoram PCB",21-03-2024 22:00:00,23.7176342,92.7192841,CO,10,20,12
India,Nagaland,Kohima,"PWD Juction, Kohima - NPCB",21-03-2024 22:00:00,25.6635413,94.0989878,NO2,3,4,3
India,Odisha,Angul,"Hakimapada, Angul - OSPCB",21-03-2024 22:00:00,20.832874,85.104082,PM2.5,35,396,175
India,Odisha,Angul,"Hakimapada, Angul - OSPCB",21-03-2024 22:00:00,20.832874,85.104082,SO2,13,134,70
India,Odisha,Angul,"Hakimapada, Angul - OSPCB",21-03-2024 22:00:00,20.832874,85.104082,OZONE,12,110,72
India,Odisha,Barbil,"Forest Office, Barbil - OSPCB",21-03-2024 22:00:00,22.1166054,85.3945546,PM10,26,191,108
India,Odisha,Baripada,"Meher Colony, Baripada - OSPCB",21-03-2024 22:00:00,21.941841,86.728318,SO2,4,6,6
India,Odisha,Baripada,"Meher Colony, Baripada - OSPCB",21-03-2024 22:00:00,21.941841,86.728318,CO,22,58,39
India,Odisha,Bhubaneswar,"Lingraj Mandir, Bhubaneswar - OSPCB",21-03-2024 22:00:00,20.240790,85.836784,SO2,1,19,5
India,Odisha,Bhubaneswar,"Lingraj Mandir, Bhubaneswar - OSPCB",21-03-2024 22:00:00,20.240790,85.836784,CO,45,79,63
India,Odisha,Bhubaneswar,"Patia, Bhubaneswar - OSPCB",21-03-2024 22:00:00,20.34652,85.81630,CO,66,102,79
India,Odisha,Bileipada,"Tata Township, Bileipada - OSPCB",21-03-2024 22:00:00,22.06156703,85.47409613,NO2,5,11,8
India,Odisha,Brajrajnagar,"GM Office, Brajrajnagar - OSPCB",21-03-2024 22:00:00,21.8004996,83.8396977,PM2.5,13,195,45
India,Odisha,Brajrajnagar,"GM Office, Brajrajnagar - OSPCB",21-03-2024 22:00:00,21.8004996,83.8396977,CO,35,128,75
India,Odisha,Byasanagar,"Ferro Chrome Colony, Byasanagar - OSPCB",21-03-2024 22:00:00,20.94185,86.11510,NH3,2,3,2
India,Odisha,Keonjhar,"Jagamohanpur, Keonjhar - OSPCB",21-03-2024 22:00:00,21.643900,85.599355,PM10,46,71,60
India,Odisha,Nayagarh,"Dabuna, Nayagarh - OSPCB",21-03-2024 22:00:00,21.847279,85.416905,NO2,3,6,4
India,Odisha,Rairangpur,"Divisional Forest Office, Rairangpur - OSPCB",21-03-2024 22:00:00,22.265816,86.174829,PM2.5,17,67,32
India,Odisha,Rourkela,"Fertilizer Township, Rourkela - OSPCB",21-03-2024 22:00:00,22.18972222,84.86277778,SO2,NA,NA,NA
India,Odisha,Rourkela,"Fertilizer Township, Rourkela - OSPCB",21-03-2024 22:00:00,22.18972222,84.86277778,CO,19,23,21
India,Odisha,Rourkela,"Raghunathpali, Rourkela - OSPCB",21-03-2024 22:00:00,22.220833,84.809444,SO2,1,68,29
India,Odisha,Rourkela,"Sector-2, Rourkela - OSPCB",21-03-2024 22:00:00,22.24500000,84.88111111,PM10,41,141,84
India,Odisha,Talcher,"Talcher Coalfields,Talcher - OSPCB",21-03-2024 22:00:00,20.9360711,85.1707021,PM2.5,31,412,167
India,Odisha,Talcher,"Talcher Coalfields,Talcher - OSPCB",21-03-2024 22:00:00,20.9360711,85.1707021,NO2,18,25,22
India,Odisha,Tensa,"Barsua Iron Ore Mines, Tensa - OSPCB",21-03-2024 22:00:00,21.869985,85.167016,NH3,9,12,11
India,Odisha,Tensa,"Barsua Iron Ore Mines, Tensa - OSPCB",21-03-2024 22:00:00,21.869985,85.167016,SO2,12,20,17
India,Odisha,Tensa,"Barsua Iron Ore Mines, Tensa - OSPCB",21-03-2024 22:00:00,21.869985,85.167016,CO,5,40,11
India,Puducherry,Puducherry,"Jawahar Nagar, Puducherry - PPCC",21-03-2024 22:00:00,11.9309,79.8027,SO2,3,10,6
India,Puducherry,Puducherry,"Jawahar Nagar, Puducherry - PPCC",21-03-2024 22:00:00,11.9309,79.8027,CO,13,44,33
India,Punjab,Amritsar,"Golden Temple, Amritsar - PPCB",21-03-2024 22:00:00,31.620000,74.876512,NH3,4,5,5
India,Punjab,Amritsar,"Golden Temple, Amritsar - PPCB",21-03-2024 22:00:00,31.620000,74.876512,SO2,6,56,26
India,Punjab,Jalandhar,"Civil Line, Jalandhar - PPCB",21-03-2024 22:00:00,31.321907,75.578914,OZONE,15,81,50
India,Punjab,Khanna,"Kalal Majra, Khanna - PPCB",21-03-2024 22:00:00,30.736056 ,76.209694,PM2.5,70,126,87
India,Punjab,Khanna,"Kalal Majra, Khanna - PPCB",21-03-2024 22:00:00,30.736056 ,76.209694,PM10,73,148,113
India,Punjab,Khanna,"Kalal Majra, Khanna - PPCB",21-03-2024 22:00:00,30.736056 ,76.209694,NO2,32,36,34
India,Punjab,Ludhiana,"Punjab Agricultural University, Ludhiana - PPCB",21-03-2024 22:00:00,30.9028,75.8086,NH3,4,5,4
India,Punjab,Mandi Gobindgarh,"RIMT University, Mandi Gobindgarh - PPCB",21-03-2024 22:00:00,30.649961,76.331442,OZONE,47,59,51
India,Punjab,Patiala,"Model Town, Patiala - PPCB",21-03-2024 22:00:00,30.349388,76.366642,PM10,99,126,109
India,Punjab,Rupnagar,"Ratanpura, Rupnagar - Ambuja Cements",21-03-2024 22:00:00,31.0325454,76.5623046,PM10,95,315,152
India,Rajasthan,Ajmer,"Civil Lines,  Ajmer - RSPCB",21-03-2024 22:00:00,26.470859,74.646594,PM10,54,150,107
India,Rajasthan,Ajmer,"Civil Lines,  Ajmer - RSPCB",21-03-2024 22:00:00,26.470859,74.646594,NO2,11,13,12
India,Rajasthan,Ajmer,"Civil Lines,  Ajmer - RSPCB",21-03-2024 22:00:00,26.470859,74.646594,OZONE,16,120,73
India,Rajasthan,Banswara,"Rati Talai, Banswara - RSPCB",21-03-2024 22:00:00,23.555190,74.440010,PM2.5,16,179,65
India,Rajasthan,Baran,"Bamboliya, Baran - RSPCB",21-03-2024 22:00:00,25.106006,76.469948,NH3,3,21,6
India,Rajasthan,Bharatpur,"Krishna Nagar, Bharatpur - RSPCB",21-03-2024 22:00:00,27.215415,77.50873,PM10,106,153,128
India,Rajasthan,Bhilwara,"Pratap Nagar, Bhilwara - RSPCB",21-03-2024 22:00:00,25.339605,74.618883,PM10,NA,NA,NA
India,Rajasthan,Bhilwara,"Pratap Nagar, Bhilwara - RSPCB",21-03-2024 22:00:00,25.339605,74.618883,CO,22,102,45
India,Rajasthan,Bhiwadi,"RIICO Ind. Area III, Bhiwadi - RSPCB",21-03-2024 22:00:00,28.194909,76.862296,NO2,6,23,14
India,Rajasthan,Bhiwadi,"Vasundhara Nagar_UIT, Bhiwadi - RSPCB",21-03-2024 22:00:00,28.207266,76.829265,OZONE,9,89,68
India,Rajasthan,Bundi,"New Colony, Bundi - RSPCB",21-03-2024 22:00:00,25.435774,75.644272,SO2,8,40,13
India,Rajasthan,Chittorgarh,"Shastri Nagar, Chittorgarh - RSPCB",21-03-2024 22:00:00,24.892047,74.623527,NO2,12,122,55
India,Rajasthan,Chittorgarh,"Shastri Nagar, Chittorgarh - RSPCB",21-03-2024 22:00:00,24.892047,74.623527,SO2,7,21,15
India,Rajasthan,Chittorgarh,"Shastri Nagar, Chittorgarh - RSPCB",21-03-2024 22:00:00,24.892047,74.623527,OZONE,1,175,99
India,Rajasthan,Churu,"Subash Chowk, Churu - RSPCB",21-03-2024 22:00:00,28.296139,74.961696,PM2.5,33,113,67
India,Rajasthan,Dholpur,"Raja Ganj, Dholpur - RSPCB",21-03-2024 22:00:00,26.699557,77.898881,NH3,10,14,13
India,Rajasthan,Jaipur,"Adarsh Nagar, Jaipur - RSPCB",21-03-2024 22:00:00,26.902909,75.836858,NH3,4,14,5
India,Rajasthan,Jaipur,"Adarsh Nagar, Jaipur - RSPCB",21-03-2024 22:00:00,26.902909,75.836858,CO,14,58,27
India,Rajasthan,Jaipur,"Mansarovar Sector-12, Jaipur - RSPCB",21-03-2024 22:00:00,26.843698,75.766894,NO2,41,171,121
India,Rajasthan,Jaipur,"Mansarovar Sector-12, Jaipur - RSPCB",21-03-2024 22:00:00,26.843698,75.766894,OZONE,13,88,20
India,Rajasthan,Jaipur,"Police Commissionerate, Jaipur - RSPCB",21-03-2024 22:00:00,26.9164092,75.7994901,SO2,15,23,19
India,Rajasthan,Jaipur,"RIICO Sitapura, Jaipur - RSPCB",21-03-2024 22:00:00,26.786682,75.827928,PM2.5,46,340,185
India,Rajasthan,Jaipur,"Sector-2 Murlipura, Jaipur - RSPCB",21-03-2024 22:00:00,26.960669,75.771817,PM10,31,105,68
India,Rajasthan,Jaipur,"Sector-2 Murlipura, Jaipur - RSPCB",21-03-2024 22:00:00,26.960669,75.771817,NH3,2,30,8
India,Rajasthan,Jaipur,"Shastri Nagar, Jaipur - RSPCB",21-03-2024 22:00:00,26.9502929,75.730943,NO2,5,124,39
India,Rajasthan,Jaipur,"Shastri Nagar, Jaipur - RSPCB",21-03-2024 22:00:00,26.9502929,75.730943,NH3,2,20,7
India,Rajasthan,Jaisalmer,"Sadar Bazar, Jaisalmer - RSPCB",21-03-2024 22:00:00,26.912329,70.909168,PM10,33,131,84
India,Rajasthan,Jaisalmer,"Sadar Bazar, Jaisalmer - RSPCB",21-03-2024 22:00:00,26.912329,70.909168,NH3,2,10,4
India,Rajasthan,Jalore,"Mudtra Sili, Jalore - RSPCB",21-03-2024 22:00:00,25.344694,72.626208,NH3,5,8,6
India,Rajasthan,Jalore,"Mudtra Sili, Jalore - RSPCB",21-03-2024 22:00:00,25.344694,72.626208,SO2,4,10,6
India,Rajasthan,Jhunjhunu,"Indra Nagar, Jhunjhunu - RSPCB",21-03-2024 22:00:00,28.108988,75.386577,NH3,27,42,36
India,Rajasthan,Jodhpur,"Jhalamand, Jodhpur - RSPCB",21-03-2024 22:00:00,26.215415,73.070156,PM2.5,15,254,57
India,Rajasthan,Jodhpur,"Mandor, Jodhpur - RSPCB",21-03-2024 22:00:00,26.358805,73.047444,NO2,18,120,62
India,Rajasthan,Jodhpur,"Mandor, Jodhpur - RSPCB",21-03-2024 22:00:00,26.358805,73.047444,NH3,5,14,9
India,Rajasthan,Jodhpur,"Samrat Ashok Udhyan, Jodhpur - RSPCB",21-03-2024 22:00:00,26.253384,72.976571,PM10,50,426,123
India,Rajasthan,Jodhpur,"Samrat Ashok Udhyan, Jodhpur - RSPCB",21-03-2024 22:00:00,26.253384,72.976571,NO2,6,167,55
India,Rajasthan,Karauli,"Satyawati Vihar, Karauli - RSPCB",21-03-2024 22:00:00,26.506177,77.025989,NO2,12,33,23
India,Rajasthan,Kota,"Nayapura, Kota - RSPCB",21-03-2024 22:00:00,25.196024,75.855668,PM10,77,204,125
India,Rajasthan,Kota,"Nayapura, Kota - RSPCB",21-03-2024 22:00:00,25.196024,75.855668,NO2,17,125,58
India,Rajasthan,Kota,"Nayapura, Kota - RSPCB",21-03-2024 22:00:00,25.196024,75.855668,NH3,6,9,7
India,Rajasthan,Kota,"Nayapura, Kota - RSPCB",21-03-2024 22:00:00,25.196024,75.855668,OZONE,5,181,95
India,Rajasthan,Kota,"Shrinath Puram, Kota - RSPCB",21-03-2024 22:00:00,25.14389,75.821256,SO2,8,56,17
India,Rajasthan,Nagaur,"Karni Colony, Nagaur - RSPCB",21-03-2024 22:00:00,27.213494,73.734444,CO,16,86,40
India,Rajasthan,Pali,"Indira Colony Vistar, Pali - RSPCB",21-03-2024 22:00:00,25.771061, 73.340227,PM2.5,23,244,111
India,Rajasthan,Pali,"Indira Colony Vistar, Pali - RSPCB",21-03-2024 22:00:00,25.771061, 73.340227,OZONE,29,168,76
India,Rajasthan,Pratapgarh,"Pragati Nagar, Pratapgarh - RSPCB",21-03-2024 22:00:00,24.041198,74.780702,SO2,4,10,6
India,Rajasthan,Rajsamand,"Dhoinda, Rajsamand - RSPCB",21-03-2024 22:00:00,25.036360,73.883502,NO2,9,45,20
India,Rajasthan,Sawai Madhopur,"Sahu Nagar, Sawai Madhopur - RSPCB",21-03-2024 22:00:00,26.031443,76.359327,PM2.5,55,329,147
India,Rajasthan,Sawai Madhopur,"Sahu Nagar, Sawai Madhopur - RSPCB",21-03-2024 22:00:00,26.031443,76.359327,CO,26,94,60
India,Rajasthan,Sikar,"Radhakishan Pura, Sikar - RSPCB",21-03-2024 22:00:00,27.608912,75.153302,CO,16,60,27
India,Rajasthan,Sirohi,"Vedhaynath Colony, Sirohi - RSPCB",21-03-2024 22:00:00,24.885261,72.857549,OZONE,40,128,94
India,Rajasthan,Udaipur,"Ashok Nagar, Udaipur - RSPCB",21-03-2024 22:00:00,24.5886166,73.6321397,OZONE,3,76,42
India,TamilNadu,Ariyalur,"Keelapalur, Ariyalur - TNPCB",21-03-2024 22:00:00,11.06825,79.07033,NH3,NA,NA,NA
India,TamilNadu,Chengalpattu,"Crescent University, Chengalpattu - TNPCB",21-03-2024 22:00:00,12.8777316,80.0834807,PM10,12,48,34
India,TamilNadu,Chengalpattu,"Crescent University, Chengalpattu - TNPCB",21-03-2024 22:00:00,12.8777316,80.0834807,CO,26,30,29
India,TamilNadu,Chennai,"Alandur Bus Depot, Chennai - CPCB",21-03-2024 22:00:00,12.9099161,80.1076538,NO2,4,21,9
India,TamilNadu,Chennai,"Alandur Bus Depot, Chennai - CPCB",21-03-2024 22:00:00,12.9099161,80.1076538,OZONE,4,9,8
India,TamilNadu,Chennai,"Arumbakkam, Chennai - TNPCB",21-03-2024 22:00:00,13.0664,80.2112 ,NH3,4,5,4
India,TamilNadu,Chennai,"Kodungaiyur, Chennai - TNPCB",21-03-2024 22:00:00,13.1278,80.2642,PM10,22,70,50
India,TamilNadu,Chennai,"Kodungaiyur, Chennai - TNPCB",21-03-2024 22:00:00,13.1278,80.2642,NH3,3,4,3
India,TamilNadu,Chennai,"Manali, Chennai - CPCB",21-03-2024 22:00:00,13.164544,80.26285,NO2,9,9,9
India,TamilNadu,Chennai,"Perungudi, Chennai - TNPCB",21-03-2024 22:00:00,12.9533,80.2357,PM2.5,NA,NA,NA
India,TamilNadu,Chennai,"Perungudi, Chennai - TNPCB",21-03-2024 22:00:00,12.9533,80.2357,CO,15,18,17
India,TamilNadu,Chennai,"Royapuram, Chennai - TNPCB",21-03-2024 22:00:00,13.1036,80.2909,NO2,12,27,19
India,TamilNadu,Chennai,"Royapuram, Chennai - TNPCB",21-03-2024 22:00:00,13.1036,80.2909,CO,14,27,21
India,TamilNadu,Chennai,"Velachery Res. Area, Chennai - CPCB",21-03-2024 22:00:00,13.0052189,80.2398125,NO2,5,10,8
India,TamilNadu,Coimbatore,"PSG College of Arts and Science, Coimbatore - TNPCB",21-03-2024 22:00:00,11.0328,77.0349,NO2,4,11,5
India,TamilNadu,Coimbatore,"PSG College of Arts and Science, Coimbatore - TNPCB",21-03-2024 22:00:00,11.0328,77.0349,NH3,1,1,1
India,TamilNadu,Coimbatore,"PSG College of Arts and Science, Coimbatore - TNPCB",21-03-2024 22:00:00,11.0328,77.0349,OZONE,3,4,4
India,TamilNadu,Cuddalore,"Semmandalam, Cuddalore - TNPCB",21-03-2024 22:00:00,11.7637683,79.7499835,PM2.5,17,80,39
India,TamilNadu,Kanchipuram,"Kilambi, Kanchipuram - TNPCB",21-03-2024 22:00:00,12.864618,79.659968,PM10,41,104,79
India,TamilNadu,Palkalaiperur,"Bharathidasan University, Palkalaiperur - TNPCB",21-03-2024 22:00:00,10.681158,78.741746,SO2,NA,NA,NA
India,TamilNadu,Palkalaiperur,"Bharathidasan University, Palkalaiperur - TNPCB",21-03-2024 22:00:00,10.681158,78.741746,CO,2,10,3
India,TamilNadu,Thoothukudi,"Meelavittan, Thoothukudi - TNPCB",21-03-2024 22:00:00,8.816428 ,78.099039,NO2,12,21,16
India,TamilNadu,Thoothukudi,"Meelavittan, Thoothukudi - TNPCB",21-03-2024 22:00:00,8.816428 ,78.099039,SO2,5,18,12
India,TamilNadu,Virudhunagar,"Collectorate Office, Virudhunagar - TNPCB",21-03-2024 22:00:00,9.559382,77.948828,NH3,6,7,6
India,Telangana,Hyderabad,"Bollaram Industrial Area, Hyderabad - TSPCB",21-03-2024 22:00:00,17.540891,78.358528,SO2,5,53,14
India,Telangana,Hyderabad,"Central University, Hyderabad - TSPCB",21-03-2024 22:00:00,17.460103,78.334361,CO,4,64,23
India,Telangana,Hyderabad,"ECIL Kapra, Hyderabad - TSPCB",21-03-2024 22:00:00,17.470431,78.566959,PM2.5,51,62,54
India,Telangana,Hyderabad,"ECIL Kapra, Hyderabad - TSPCB",21-03-2024 22:00:00,17.470431,78.566959,NO2,9,13,11
India,Telangana,Hyderabad,"ICRISAT Patancheru, Hyderabad - TSPCB",21-03-2024 22:00:00,17.518400,78.278777,CO,20,86,42
India,Telangana,Hyderabad,"IITH Kandi, Hyderabad - TSPCB",21-03-2024 22:00:00,17.585705,78.126199,PM10,NA,NA,NA
India,Telangana,Hyderabad,"Kompally Municipal Office, Hyderabad - TSPCB",21-03-2024 22:00:00,17.544899,78.486949,NO2,NA,NA,NA
India,Telangana,Hyderabad,"Kompally Municipal Office, Hyderabad - TSPCB",21-03-2024 22:00:00,17.544899,78.486949,NH3,NA,NA,NA
India,Telangana,Hyderabad,"New Malakpet, Hyderabad - TSPCB",21-03-2024 22:00:00,17.37206,78.50864,NO2,9,32,16
India,Telangana,Hyderabad,"Ramachandrapuram, Hyderabad - TSPCB",21-03-2024 22:00:00,17.528544,78.286195,SO2,NA,NA,NA
India,Telangana,Hyderabad,"Somajiguda, Hyderabad - TSPCB",21-03-2024 22:00:00,17.417094,78.457437,SO2,NA,NA,NA
India,Telangana,Hyderabad,"Somajiguda, Hyderabad - TSPCB",21-03-2024 22:00:00,17.417094,78.457437,CO,11,34,23
India,Telangana,Hyderabad,"Somajiguda, Hyderabad - TSPCB",21-03-2024 22:00:00,17.417094,78.457437,OZONE,8,35,21
India,Tripura,Agartala,"Bardowali, Agartala - Tripura SPCB",21-03-2024 22:00:00,23.8175497,91.2726974,PM10,94,135,112
India,Tripura,Agartala,"Bardowali, Agartala - Tripura SPCB",21-03-2024 22:00:00,23.8175497,91.2726974,CO,20,45,27
India,Uttar_Pradesh,Agra,"Manoharpur, Agra - UPPCB",21-03-2024 22:00:00,27.23711,78.01936,SO2,9,12,11
India,Uttar_Pradesh,Agra,"Manoharpur, Agra - UPPCB",21-03-2024 22:00:00,27.23711,78.01936,OZONE,1,41,26
India,Uttar_Pradesh,Agra,"Rohta, Agra - UPPCB",21-03-2024 22:00:00,27.106972,78.000111,NH3,NA,NA,NA
India,Uttar_Pradesh,Agra,"Sanjay Palace, Agra - UPPCB",21-03-2024 22:00:00,27.19865833,78.00598056,SO2,8,10,8
India,Uttar_Pradesh,Agra,"Sector-3B Avas Vikas Colony, Agra - UPPCB",21-03-2024 22:00:00,27.19412,77.96237,CO,10,38,13
India,Uttar_Pradesh,Agra,"Sector-3B Avas Vikas Colony, Agra - UPPCB",21-03-2024 22:00:00,27.19412,77.96237,OZONE,2,8,5
India,Uttar_Pradesh,Agra,"Shahjahan Garden, Agra - UPPCB",21-03-2024 22:00:00,27.169338,78.03582,PM2.5,31,63,44
India,Uttar_Pradesh,Agra,"Shastripuram, Agra - UPPCB",21-03-2024 22:00:00,27.19862,77.92066,PM10,16,171,98
India,Uttar_Pradesh,Agra,"Shastripuram, Agra - UPPCB",21-03-2024 22:00:00,27.19862,77.92066,SO2,13,14,13
India,Uttar_Pradesh,Baghpat,"Sardar Patel Inter College, Baghpat - UPPCB",21-03-2024 22:00:00,28.964949,77.278761,SO2,24,54,34
India,Uttar_Pradesh,Bareilly,"Civil Lines, Bareilly - UPPCB",21-03-2024 22:00:00,28.359581,79.414455,OZONE,6,44,18
India,Uttar_Pradesh,Bareilly,"Rajendra Nagar, Bareilly - UPPCB",21-03-2024 22:00:00,28.38910936,79.42963708,PM2.5,19,43,25
India,Uttar_Pradesh,Bareilly,"Rajendra Nagar, Bareilly - UPPCB",21-03-2024 22:00:00,28.38910936,79.42963708,NH3,1,1,1
India,Uttar_Pradesh,Bareilly,"Rajendra Nagar, Bareilly - UPPCB",21-03-2024 22:00:00,28.38910936,79.42963708,OZONE,12,21,18
India,Uttar_Pradesh,Bulandshahr,"Yamunapuram, Bulandshahr - UPPCB",21-03-2024 22:00:00,28.406963,77.849831,NH3,9,15,12
India,Uttar_Pradesh,Bulandshahr,"Yamunapuram, Bulandshahr - UPPCB",21-03-2024 22:00:00,28.406963,77.849831,SO2,8,17,13
India,Uttar_Pradesh,Bulandshahr,"Yamunapuram, Bulandshahr - UPPCB",21-03-2024 22:00:00,28.406963,77.849831,CO,18,53,29
India,Uttar_Pradesh,Firozabad,"Nagla Bhau, Firozabad - UPPCB",21-03-2024 22:00:00,27.168897,78.376960,OZONE,17,22,20
India,Uttar_Pradesh,Firozabad,"Vibhab Nagar, Firozabad - UPPCB",21-03-2024 22:00:00,27.1594,78.3953,NO2,14,14,14
India,Uttar_Pradesh,Firozabad,"Vibhab Nagar, Firozabad - UPPCB",21-03-2024 22:00:00,27.1594,78.3953,NH3,2,2,2
India,Uttar_Pradesh,Firozabad,"Vibhab Nagar, Firozabad - UPPCB",21-03-2024 22:00:00,27.1594,78.3953,CO,14,44,23
India,Uttar_Pradesh,Ghaziabad,"Indirapuram, Ghaziabad - UPPCB",21-03-2024 22:00:00,28.646233,77.358075,SO2,4,9,7
India,Uttar_Pradesh,Ghaziabad,"Sanjay Nagar, Ghaziabad - UPPCB",21-03-2024 22:00:00,28.685382,77.453839,OZONE,1,73,47
India,Uttar_Pradesh,Ghaziabad,"Vasundhara, Ghaziabad - UPPCB",21-03-2024 22:00:00,28.6603346,77.3572563,SO2,1,22,6
India,Uttar_Pradesh,Greater Noida,"Knowledge Park - III, Greater Noida - UPPCB",21-03-2024 22:00:00,28.47272,77.482000,NO2,7,91,23
India,Uttar_Pradesh,Greater Noida,"Knowledge Park - III, Greater Noida - UPPCB",21-03-2024 22:00:00,28.47272,77.482000,OZONE,7,78,60
India,Uttar_Pradesh,Greater Noida,"Knowledge Park - V, Greater Noida - UPPCB",21-03-2024 22:00:00,28.557054,77.453663,SO2,12,27,21
India,Uttar_Pradesh,Hapur,"Anand Vihar, Hapur - UPPCB",21-03-2024 22:00:00,28.725645,77.749675,NH3,8,15,10
India,Uttar_Pradesh,Hapur,"Anand Vihar, Hapur - UPPCB",21-03-2024 22:00:00,28.725645,77.749675,SO2,15,59,27
India,Uttar_Pradesh,Jhansi,"Shivaji Nagar, Jhansi - UPPCB",21-03-2024 22:00:00,25.4547,78.6039,PM10,33,50,41
India,Uttar_Pradesh,Khurja,"Kalindi Kunj, Khurja - UPPCB",21-03-2024 22:00:00,28.2348927,77.8683002,NH3,1,2,1
India,Uttar_Pradesh,Lucknow,"B R Ambedkar University, Lucknow - UPPCB",21-03-2024 22:00:00,26.766433,80.927299,CO,27,32,30
India,Uttar_Pradesh,Lucknow,"Gomti Nagar, Lucknow - UPPCB",21-03-2024 22:00:00,26.868120,81.005119,PM10,15,109,55
India,Uttar_Pradesh,Lucknow,"Gomti Nagar, Lucknow - UPPCB",21-03-2024 22:00:00,26.868120,81.005119,NO2,16,21,19
India,Uttar_Pradesh,Lucknow,"Kendriya Vidyalaya, Lucknow - CPCB",21-03-2024 22:00:00,26.906111,80.948222,CO,27,54,40
India,Uttar_Pradesh,Lucknow,"Kukrail Picnic Spot-1, Lucknow - UPPCB",21-03-2024 22:00:00,26.90723,80.98579,NO2,NA,NA,NA
India,Uttar_Pradesh,Lucknow,"Kukrail Picnic Spot-1, Lucknow - UPPCB",21-03-2024 22:00:00,26.90723,80.98579,CO,7,21,19
India,Uttar_Pradesh,Lucknow,"Lalbagh, Lucknow - CPCB",21-03-2024 22:00:00,26.8458805,80.9365541,PM10,54,114,90
India,Uttar_Pradesh,Lucknow,"Talkatora District Industries Center, Lucknow - CPCB",21-03-2024 22:00:00,26.83399722,80.8917361,NH3,13,21,16
India,Uttar_Pradesh,Lucknow,"Talkatora District Industries Center, Lucknow - CPCB",21-03-2024 22:00:00,26.83399722,80.8917361,OZONE,5,81,40
India,Uttar_Pradesh,Meerut,"Ganga Nagar, Meerut - UPPCB",21-03-2024 22:00:00,28.999264,77.7590354,PM2.5,NA,NA,NA
India,Uttar_Pradesh,Meerut,"Ganga Nagar, Meerut - UPPCB",21-03-2024 22:00:00,28.999264,77.7590354,CO,27,64,38
India,Uttar_Pradesh,Meerut,"Pallavpuram Phase 2, Meerut - UPPCB",21-03-2024 22:00:00,29.063510,77.709723,NO2,4,97,23
India,Uttar_Pradesh,Moradabad,"Buddhi Vihar, Moradabad - UPPCB",21-03-2024 22:00:00,28.83526,78.74460,NH3,2,2,2
India,Uttar_Pradesh,Moradabad,"Buddhi Vihar, Moradabad - UPPCB",21-03-2024 22:00:00,28.83526,78.74460,SO2,24,33,27
India,Uttar_Pradesh,Moradabad,"Buddhi Vihar, Moradabad - UPPCB",21-03-2024 22:00:00,28.83526,78.74460,OZONE,18,35,25
India,Uttar_Pradesh,Moradabad,"Employment Office, Moradabad - UPPCB",21-03-2024 22:00:00,28.88528,78.73880,SO2,26,28,27
India,Uttar_Pradesh,Moradabad,"Jigar Colony, Moradabad - UPPCB",21-03-2024 22:00:00,28.856664,78.772638,PM2.5,24,91,39
India,Uttar_Pradesh,Moradabad,"Jigar Colony, Moradabad - UPPCB",21-03-2024 22:00:00,28.856664,78.772638,NO2,19,24,22
India,Uttar_Pradesh,Moradabad,"Jigar Colony, Moradabad - UPPCB",21-03-2024 22:00:00,28.856664,78.772638,NH3,5,7,5
India,Uttar_Pradesh,Moradabad,"Kashiram Nagar, Moradabad - UPPCB",21-03-2024 22:00:00,28.849399,78.742362,PM2.5,27,182,61
India,Uttar_Pradesh,Moradabad,"Kashiram Nagar, Moradabad - UPPCB",21-03-2024 22:00:00,28.849399,78.742362,NO2,12,40,18
India,Uttar_Pradesh,Muzaffarnagar,"New Mandi, Muzaffarnagar - UPPCB",21-03-2024 22:00:00,29.4723508,77.7194031,PM10,76,248,132
India,Uttar_Pradesh,Muzaffarnagar,"New Mandi, Muzaffarnagar - UPPCB",21-03-2024 22:00:00,29.4723508,77.7194031,SO2,15,38,20
India,Uttar_Pradesh,Noida,"Sector - 62, Noida - IMD",21-03-2024 22:00:00,28.6245479,77.3577104,PM2.5,73,271,119
India,Uttar_Pradesh,Noida,"Sector - 62, Noida - IMD",21-03-2024 22:00:00,28.6245479,77.3577104,PM10,114,303,165
India,Uttar_Pradesh,Noida,"Sector - 62, Noida - IMD",21-03-2024 22:00:00,28.6245479,77.3577104,CO,20,46,25
India,Uttar_Pradesh,Noida,"Sector-1, Noida - UPPCB",21-03-2024 22:00:00,28.5898,77.3101,PM2.5,73,270,121
India,Uttar_Pradesh,Noida,"Sector-1, Noida - UPPCB",21-03-2024 22:00:00,28.5898,77.3101,NO2,29,110,47
India,Uttar_Pradesh,Noida,"Sector-1, Noida - UPPCB",21-03-2024 22:00:00,28.5898,77.3101,CO,2,104,32
India,Uttar_Pradesh,Noida,"Sector-116, Noida - UPPCB",21-03-2024 22:00:00,28.569230,77.393848,SO2,10,27,16
India,Uttar_Pradesh,Prayagraj,"Jhunsi, Prayagraj - UPPCB",21-03-2024 22:00:00,25.425602,81.917152,SO2,30,32,31
India,Uttar_Pradesh,Prayagraj,"Jhunsi, Prayagraj - UPPCB",21-03-2024 22:00:00,25.425602,81.917152,CO,10,20,13
India,Uttar_Pradesh,Prayagraj,"Motilal Nehru NIT, Prayagraj - UPPCB",21-03-2024 22:00:00,25.494,81.863,PM2.5,12,56,27
India,Uttar_Pradesh,Prayagraj,"Motilal Nehru NIT, Prayagraj - UPPCB",21-03-2024 22:00:00,25.494,81.863,NO2,12,12,12
India,Uttar_Pradesh,Prayagraj,"Nagar Nigam, Prayagraj - UPPCB",21-03-2024 22:00:00,25.44919916 ,81.82735986 ,PM2.5,19,64,38
India,Uttar_Pradesh,Prayagraj,"Nagar Nigam, Prayagraj - UPPCB",21-03-2024 22:00:00,25.44919916 ,81.82735986 ,NO2,5,5,5
India,Uttar_Pradesh,Prayagraj,"Nagar Nigam, Prayagraj - UPPCB",21-03-2024 22:00:00,25.44919916 ,81.82735986 ,NH3,4,9,6
India,Uttar_Pradesh,Prayagraj,"Nagar Nigam, Prayagraj - UPPCB",21-03-2024 22:00:00,25.44919916 ,81.82735986 ,CO,11,34,21
India,Uttar_Pradesh,Varanasi,"Ardhali Bazar, Varanasi - UPPCB",21-03-2024 22:00:00,25.3505986,82.9083074,SO2,1,17,4
India,Uttar_Pradesh,Varanasi,"Bhelupur, Varanasi - UPPCB",21-03-2024 22:00:00,25.301778,82.996789,NO2,8,8,8
India,Uttar_Pradesh,Varanasi,"IESD Banaras Hindu University, Varanasi - UPPCB",21-03-2024 22:00:00,25.262326,82.995408,SO2,13,14,14
India,Uttar_Pradesh,Varanasi,"Maldahiya, Varanasi - UPPCB",21-03-2024 22:00:00,25.32393,82.99687,PM2.5,10,19,12
India,Uttar_Pradesh,Varanasi,"Maldahiya, Varanasi - UPPCB",21-03-2024 22:00:00,25.32393,82.99687,NO2,1,2,2
India,Uttar_Pradesh,Vrindavan,"Omex Eternity, Vrindavan - UPPCB",21-03-2024 22:00:00,27.5714090,77.6557570,PM10,19,193,99
India,Uttar_Pradesh,Vrindavan,"Omex Eternity, Vrindavan - UPPCB",21-03-2024 22:00:00,27.5714090,77.6557570,SO2,39,44,40
India,Uttarakhand,Dehradun,"Doon University, Dehradun - UKPCB",21-03-2024 22:00:00,30.269444,78.044167,PM10,71,166,112
India,Uttarakhand,Kashipur,"Govt. Girls Inter College, Kashipur - UKPCB",21-03-2024 22:00:00,29.2124114,78.9611753,PM10,28,259,81
India,Uttarakhand,Kashipur,"Govt. Girls Inter College, Kashipur - UKPCB",21-03-2024 22:00:00,29.2124114,78.9611753,NH3,5,10,7
India,Uttarakhand,Kashipur,"Govt. Girls Inter College, Kashipur - UKPCB",21-03-2024 22:00:00,29.2124114,78.9611753,SO2,6,8,8
India,Uttarakhand,Kashipur,"Govt. Girls Inter College, Kashipur - UKPCB",21-03-2024 22:00:00,29.2124114,78.9611753,CO,15,47,32
India,Uttarakhand,Rishikesh,"Shivaji Nagar, Rishikesh - UKPCB",21-03-2024 22:00:00,30.075911,78.2859547,CO,18,53,30
India,West_Bengal,Asansol,"Asansol Court Area, Asansol - WBPCB",21-03-2024 22:00:00,23.685297,86.945968,NO2,18,36,29
India,West_Bengal,Asansol,"Asansol Court Area, Asansol - WBPCB",21-03-2024 22:00:00,23.685297,86.945968,OZONE,9,20,13
India,West_Bengal,Barrackpore,"SVSPA Campus, Barrackpore - WBPCB",21-03-2024 22:00:00,22.7605581,88.3617589,OZONE,1,82,35
India,West_Bengal,Durgapur,"Sidhu Kanhu Indoor Stadium, Durgapur - WBPCB",21-03-2024 22:00:00,23.5404352,87.2892225,PM2.5,45,136,96
India,West_Bengal,Durgapur,"Sidhu Kanhu Indoor Stadium, Durgapur - WBPCB",21-03-2024 22:00:00,23.5404352,87.2892225,PM10,66,135,108
India,West_Bengal,Durgapur,"Sidhu Kanhu Indoor Stadium, Durgapur - WBPCB",21-03-2024 22:00:00,23.5404352,87.2892225,SO2,16,41,28
India,West_Bengal,Haldia,"Priyambada Housing Estate, Haldia - WBPCB",21-03-2024 22:00:00,22.06047,88.109737,NO2,13,67,25
India,West_Bengal,Haldia,"Priyambada Housing Estate, Haldia - WBPCB",21-03-2024 22:00:00,22.06047,88.109737,SO2,5,60,20
India,West_Bengal,Haldia,"Priyambada Housing Estate, Haldia - WBPCB",21-03-2024 22:00:00,22.06047,88.109737,CO,16,40,27
India,West_Bengal,Howrah,"Ghusuri, Howrah - WBPCB",21-03-2024 22:00:00,22.611968,88.347422,OZONE,11,27,18
India,West_Bengal,Howrah,"Padmapukur, Howrah - WBPCB",21-03-2024 22:00:00,22.5687319,88.2797276,NO2,6,7,7
India,West_Bengal,Kolkata,"Ballygunge, Kolkata - WBPCB",21-03-2024 22:00:00,22.5367507,88.3638022,PM2.5,9,64,42
India,West_Bengal,Kolkata,"Bidhannagar, Kolkata - WBPCB",21-03-2024 22:00:00,22.58157048,88.41002457,PM2.5,17,50,33
India,West_Bengal,Kolkata,"Bidhannagar, Kolkata - WBPCB",21-03-2024 22:00:00,22.58157048,88.41002457,PM10,44,68,57
India,West_Bengal,Kolkata,"Bidhannagar, Kolkata - WBPCB",21-03-2024 22:00:00,22.58157048,88.41002457,OZONE,1,102,52
India,West_Bengal,Kolkata,"Fort William, Kolkata - WBPCB",21-03-2024 22:00:00,22.556640,88.342674,NH3,4,6,5
India,West_Bengal,Kolkata,"Jadavpur, Kolkata - WBPCB",21-03-2024 22:00:00,22.49929,88.36917,PM10,30,61,49
India,West_Bengal,Kolkata,"Jadavpur, Kolkata - WBPCB",21-03-2024 22:00:00,22.49929,88.36917,CO,20,30,24
India,West_Bengal,Kolkata,"Rabindra Bharati University, Kolkata - WBPCB",21-03-2024 22:00:00,22.627847,88.380669,NO2,16,21,19
India,West_Bengal,Kolkata,"Rabindra Sarobar, Kolkata - WBPCB",21-03-2024 22:00:00,22.51106,88.35142,NO2,27,63,45
India,West_Bengal,Kolkata,"Victoria, Kolkata - WBPCB",21-03-2024 22:00:00,22.5448082,88.3403691,NO2,9,11,10
India,West_Bengal,Kolkata,"Victoria, Kolkata - WBPCB",21-03-2024 22:00:00,22.5448082,88.3403691,NH3,1,2,2
India,West_Bengal,Kolkata,"Victoria, Kolkata - WBPCB",21-03-2024 22:00:00,22.5448082,88.3403691,CO,20,53,32
India,West_Bengal,Siliguri,"Ward-32 Bapupara, Siliguri - WBPCB",21-03-2024 22:00:00,26.6879226,88.4152495,NO2,42,77,55
India,Andhra_Pradesh,Anantapur,"Gulzarpet, Anantapur - APPCB",21-03-2024 22:00:00,14.675886,77.593027,NO2,NA,NA,NA
India,Andhra_Pradesh,Chittoor,"Gangineni Cheruvu, Chittoor - APPCB",21-03-2024 22:00:00,13.204880,79.097889,NH3,NA,NA,NA
India,Andhra_Pradesh,Kadapa,"Yerramukkapalli, Kadapa - APPCB",21-03-2024 22:00:00,14.465052,78.824187,NO2,8,8,8
India,Andhra_Pradesh,Kadapa,"Yerramukkapalli, Kadapa - APPCB",21-03-2024 22:00:00,14.465052,78.824187,SO2,2,3,2
India,Andhra_Pradesh,Rajamahendravaram,"Anand Kala Kshetram, Rajamahendravaram - APPCB",21-03-2024 22:00:00,16.9872867,81.7363176,PM10,35,87,53
India,Andhra_Pradesh,Tirupati,"Tirumala, Tirupati - APPCB",21-03-2024 22:00:00,13.67,79.35,OZONE,15,42,30
India,Andhra_Pradesh,Vijayawada,"HB Colony, Vijayawada - APPCB",21-03-2024 22:00:00,16.536107,80.594233,PM2.5,56,82,66
India,Andhra_Pradesh,Vijayawada,"HB Colony, Vijayawada - APPCB",21-03-2024 22:00:00,16.536107,80.594233,NO2,6,13,8
India,Andhra_Pradesh,Vijayawada,"Kanuru, Vijayawada - APPCB",21-03-2024 22:00:00,16.486692,80.699436,PM2.5,NA,NA,NA
India,Andhra_Pradesh,Vijayawada,"Rajiv Gandhi Park, Vijayawada - APPCB",21-03-2024 22:00:00,16.509717,80.612222,NO2,17,52,31
India,Andhra_Pradesh,Vijayawada,"Rajiv Nagar, Vijayawada - APPCB",21-03-2024 22:00:00,16.554731,80.649110,NH3,1,1,1
India,Andhra_Pradesh,Vijayawada,"Rajiv Nagar, Vijayawada - APPCB",21-03-2024 22:00:00,16.554731,80.649110,CO,37,37,37
India,Andhra_Pradesh,Visakhapatnam,"GVM Corporation, Visakhapatnam - APPCB",21-03-2024 22:00:00,17.72,83.3,NO2,30,69,48
India,Arunachal_Pradesh,Naharlagun,"Naharlagun, Naharlagun - APSPCB",21-03-2024 22:00:00,27.103358,93.679645,NO2,3,3,3
India,Assam,Byrnihat,"Central Academy for SFS, Byrnihat - PCBA",21-03-2024 22:00:00,26.071318,91.87488,SO2,6,22,13
India,Assam,Byrnihat,"Central Academy for SFS, Byrnihat - PCBA",21-03-2024 22:00:00,26.071318,91.87488,CO,26,68,36
India,Assam,Guwahati,"Pan Bazaar, Guwahati - PCBA",21-03-2024 22:00:00,26.187500,91.744194,CO,31,56,36
India,Assam,Guwahati,"Railway Colony, Guwahati - PCBA",21-03-2024 22:00:00,26.181742,91.78063,PM2.5,1,146,85
India,Assam,Nagaon,"Christianpatty, Nagaon - PCBA",21-03-2024 22:00:00,26.349082,92.68449,NO2,15,32,23
India,Assam,Nagaon,"Christianpatty, Nagaon - PCBA",21-03-2024 22:00:00,26.349082,92.68449,NH3,11,17,14
India,Assam,Nalbari,"Bata Chowk, Nalbari - PCBA",21-03-2024 22:00:00,26.446912,91.439057,NH3,1,2,1
India,Assam,Nalbari,"Bata Chowk, Nalbari - PCBA",21-03-2024 22:00:00,26.446912,91.439057,SO2,12,16,13
India,Assam,Nalbari,"Bata Chowk, Nalbari - PCBA",21-03-2024 22:00:00,26.446912,91.439057,CO,25,124,118
India,Assam,Silchar,"Tarapur, Silchar - PCBA",21-03-2024 22:00:00,24.82827,92.79525,PM10,38,81,63
India,Assam,Sivasagar,"Girls College, Sivasagar - PCBA",21-03-2024 22:00:00,26.987634,94.636574,NO2,14,22,17
India,Bihar,Araria,"Kharahiya Basti, Araria - BSPCB",21-03-2024 22:00:00,26.146529,87.454184,PM2.5,NA,NA,NA
India,Bihar,Araria,"Kharahiya Basti, Araria - BSPCB",21-03-2024 22:00:00,26.146529,87.454184,NO2,3,46,10
India,Bihar,Araria,"Kharahiya Basti, Araria - BSPCB",21-03-2024 22:00:00,26.146529,87.454184,CO,15,28,24
India,Bihar,Arrah,"New DM Office, Arrah - BSPCB",21-03-2024 22:00:00,25.5626095,84.663264,PM2.5,18,127,33
India,Bihar,Aurangabad,"Gurdeo Nagar, Aurangabad - BSPCB",21-03-2024 22:00:00,24.75746,84.366208,PM2.5,NA,NA,NA
India,Bihar,Bettiah,"Kamalnath Nagar, Bettiah - BSPCB",21-03-2024 22:00:00,26.80365,84.51954,PM10,NA,NA,NA
India,Bihar,Bihar Sharif,"D M Colony, Bihar Sharif - BSPCB",21-03-2024 22:00:00,25.204762,85.514960,PM2.5,NA,NA,NA
India,Bihar,Buxar,"Charitra Van, Buxar - BSPCB (Formerly known as Central Jail)",21-03-2024 22:00:00,25.567520,83.966379,PM2.5,NA,NA,NA
India,Bihar,Buxar,"Charitra Van, Buxar - BSPCB (Formerly known as Central Jail)",21-03-2024 22:00:00,25.567520,83.966379,PM10,NA,NA,NA
India,Bihar,Buxar,"Charitra Van, Buxar - BSPCB (Formerly known as Central Jail)",21-03-2024 22:00:00,25.567520,83.966379,NO2,NA,NA,NA
India,Bihar,Buxar,"Charitra Van, Buxar - BSPCB (Formerly known as Central Jail)",21-03-2024 22:00:00,25.567520,83.966379,CO,26,116,76
India,Bihar,Chhapra,"Darshan Nagar, Chhapra - BSPCB",21-03-2024 22:00:00,25.7808257,84.7446768,NH3,7,16,10
India,Bihar,Gaya,"Collectorate, Gaya - BSPCB",21-03-2024 22:00:00,24.7955,84.9994,NO2,NA,NA,NA
India,Bihar,Gaya,"Kareemganj, Gaya - BSPCB",21-03-2024 22:00:00,24.792403,84.992416,NO2,30,31,30
India,Bihar,Gaya,"Kareemganj, Gaya - BSPCB",21-03-2024 22:00:00,24.792403,84.992416,NH3,1,6,3
India,Bihar,Gaya,"Kareemganj, Gaya - BSPCB",21-03-2024 22:00:00,24.792403,84.992416,OZONE,3,40,15
India,Bihar,Gaya,"SFTI Kusdihra, Gaya - BSPCB",21-03-2024 22:00:00,24.762518,84.982348,NO2,10,36,26
India,Bihar,Gaya,"SFTI Kusdihra, Gaya - BSPCB",21-03-2024 22:00:00,24.762518,84.982348,OZONE,3,62,48
India,Bihar,Hajipur,"Industrial Area, Hajipur - BSPCB",21-03-2024 22:00:00,25.697189,85.245900,PM10,17,143,43
India,Bihar,Hajipur,"Industrial Area, Hajipur - BSPCB",21-03-2024 22:00:00,25.697189,85.245900,SO2,6,10,7
India,Bihar,Manguraha,"Forest Rest House, Manguraha - BSPCB",21-03-2024 22:00:00,27.308328,84.531742,CO,NA,NA,NA
India,Bihar,Motihari,"Gandak Colony, Motihari - BSPCB",21-03-2024 22:00:00,26.63086,84.90051,OZONE,14,24,19
India,Bihar,Muzaffarpur,"Buddha Colony, Muzaffarpur - BSPCB",21-03-2024 22:00:00,26.11442,85.39813,NO2,NA,NA,NA
India,Bihar,Muzaffarpur,"Buddha Colony, Muzaffarpur - BSPCB",21-03-2024 22:00:00,26.11442,85.39813,NH3,NA,NA,NA
India,Bihar,Muzaffarpur,"MIT-Daudpur Kothi, Muzaffarpur - BSPCB",21-03-2024 22:00:00,26.1403345,85.3650192,NH3,1,2,1
India,Bihar,Muzaffarpur,"MIT-Daudpur Kothi, Muzaffarpur - BSPCB",21-03-2024 22:00:00,26.1403345,85.3650192,SO2,NA,NA,NA
India,Bihar,Muzaffarpur,"Muzaffarpur Collectorate, Muzaffarpur - BSPCB",21-03-2024 22:00:00,26.1209,85.3647,OZONE,19,76,63
India,Bihar,Patna,"DRM Office Danapur, Patna - BSPCB",21-03-2024 22:00:00,25.586562,85.043586,NH3,3,3,3
India,Bihar,Patna,"Govt. High School Shikarpur, Patna - BSPCB",21-03-2024 22:00:00,25.592539,85.227158,CO,14,90,36
India,Bihar,Patna,"Govt. High School Shikarpur, Patna - BSPCB",21-03-2024 22:00:00,25.592539,85.227158,OZONE,1,59,33
India,Bihar,Patna,"IGSC Planetarium Complex, Patna - BSPCB",21-03-2024 22:00:00,25.610369,85.132568,PM2.5,32,300,82
India,Bihar,Patna,"IGSC Planetarium Complex, Patna - BSPCB",21-03-2024 22:00:00,25.610369,85.132568,OZONE,19,68,39
India,Bihar,Patna,"Muradpur, Patna - BSPCB",21-03-2024 22:00:00,25.619651,85.147382,PM10,51,179,91
India,Bihar,Patna,"Rajbansi Nagar, Patna - BSPCB",21-03-2024 22:00:00,25.599486,85.113666,NO2,12,41,19
India,Bihar,Purnia,"Mariam Nagar, Purnia - BSPCB",21-03-2024 22:00:00,25.366336,87.117468,PM2.5,NA,NA,NA
India,Bihar,Purnia,"Mariam Nagar, Purnia - BSPCB",21-03-2024 22:00:00,25.366336,87.117468,PM10,NA,NA,NA
India,Bihar,Purnia,"Mariam Nagar, Purnia - BSPCB",21-03-2024 22:00:00,25.366336,87.117468,NO2,NA,NA,NA
India,Bihar,Rajgir,"Dangi Tola, Rajgir - BSPCB",21-03-2024 22:00:00,25.03280,85.41948,NO2,1,1,1
India,Bihar,Saharsa,"Police Line, Saharsa - BSPCB",21-03-2024 22:00:00,25.892357,86.590325,PM2.5,NA,NA,NA
India,Bihar,Samastipur,"DM Office_Kasipur, Samastipur - BSPCB",21-03-2024 22:00:00,25.859655,85.77944,PM10,NA,NA,NA
India,Bihar,Samastipur,"DM Office_Kasipur, Samastipur - BSPCB",21-03-2024 22:00:00,25.859655,85.77944,CO,2,26,18
India,Bihar,Sasaram,"Dada Peer, Sasaram - BSPCB",21-03-2024 22:00:00,24.952822,84.002396,PM10,29,143,58
India,Bihar,Siwan,"Chitragupta Nagar, Siwan - BSPCB",21-03-2024 22:00:00,26.2271665,84.3570427,PM2.5,NA,NA,NA
India,Chandigarh,Chandigarh,"Sector 22, Chandigarh - CPCC",21-03-2024 22:00:00,30.735567,76.775714,PM10,104,233,134
India,Chandigarh,Chandigarh,"Sector-25, Chandigarh - CPCC",21-03-2024 22:00:00,30.751462,76.762879,PM10,138,174,150
India,Chandigarh,Chandigarh,"Sector-25, Chandigarh - CPCC",21-03-2024 22:00:00,30.751462,76.762879,NO2,11,51,21
India,Chandigarh,Chandigarh,"Sector-25, Chandigarh - CPCC",21-03-2024 22:00:00,30.751462,76.762879,CO,20,52,32
India,Chandigarh,Chandigarh,"Sector-53, Chandigarh - CPCC",21-03-2024 22:00:00,30.719859,76.738637,NH3,4,7,5
India,Chhattisgarh,Bhilai,"32Bungalows, Bhilai - CECB",21-03-2024 22:00:00,21.194815,81.314770,NH3,6,6,6
India,Chhattisgarh,Bhilai,"Civic Center, Bhilai - Bhilai Steel Plant",21-03-2024 22:00:00,21.185571,81.343175,NO2,NA,NA,NA
India,Chhattisgarh,Bhilai,"Civic Center, Bhilai - Bhilai Steel Plant",21-03-2024 22:00:00,21.185571,81.343175,NH3,NA,NA,NA
India,Chhattisgarh,Bhilai,"Civic Center, Bhilai - Bhilai Steel Plant",21-03-2024 22:00:00,21.185571,81.343175,OZONE,NA,NA,NA
India,Chhattisgarh,Bilaspur,"Mangala, Bilaspur - NTPC",21-03-2024 22:00:00,22.08815,82.13737,NO2,16,18,17
India,Chhattisgarh,Chhal,"Nawapara SECL Colony, Chhal - CECB",21-03-2024 22:00:00,22.118125,83.140608,OZONE,1,25,18
India,Chhattisgarh,Korba,"Rampur, Korba - CECB",21-03-2024 22:00:00,22.368195,82.746431,NO2,30,58,39
India,Chhattisgarh,Korba,"Rampur, Korba - CECB",21-03-2024 22:00:00,22.368195,82.746431,SO2,6,43,14
India,Chhattisgarh,Korba,"Urja Nagar, Korba - CECB",21-03-2024 22:00:00,22.348441,82.549611,PM10,30,103,51
India,Chhattisgarh,Korba,"Urja Nagar, Korba - CECB",21-03-2024 22:00:00,22.348441,82.549611,CO,26,69,31
India,Chhattisgarh,Kunjemura,"OP Jindal School, Kunjemura - CECB",21-03-2024 22:00:00,22.126650,83.483212,PM10,44,163,84
India,Chhattisgarh,Kunjemura,"OP Jindal School, Kunjemura - CECB",21-03-2024 22:00:00,22.126650,83.483212,NO2,13,85,34
India,Chhattisgarh,Milupara,"Govt. Higher Secondary School, Milupara - CECB",21-03-2024 22:00:00,22.1910172,83.5197009,PM10,NA,NA,NA
India,Chhattisgarh,Raipur,"AIIMS, Raipur - CECB",21-03-2024 22:00:00,21.258815,81.578979,PM2.5,NA,NA,NA
India,Chhattisgarh,Raipur,"Bhatagaon New ISBT, Raipur - CECB",21-03-2024 22:00:00,21.219665,81.630094,PM2.5,8,56,25
India,Chhattisgarh,Raipur,"Krishak Nagar, Raipur - CECB",21-03-2024 22:00:00,21.237755,81.705301,PM2.5,8,42,25
India,Chhattisgarh,Raipur,"Krishak Nagar, Raipur - CECB",21-03-2024 22:00:00,21.237755,81.705301,NO2,22,41,29
India,Chhattisgarh,Raipur,"Krishak Nagar, Raipur - CECB",21-03-2024 22:00:00,21.237755,81.705301,NH3,1,1,1
India,Chhattisgarh,Raipur,"Krishak Nagar, Raipur - CECB",21-03-2024 22:00:00,21.237755,81.705301,OZONE,3,35,15
India,Chhattisgarh,Raipur,"Siltara Phase-II, Raipur - CECB",21-03-2024 22:00:00,21.371751,81.664929,CO,10,30,24
India,Delhi,Delhi,"Anand Vihar, Delhi - DPCC",21-03-2024 22:00:00,28.647622,77.3158090,OZONE,5,59,32
India,Delhi,Delhi,"Ashok Vihar, Delhi - DPCC",21-03-2024 22:00:00,28.695381,77.181665,PM10,122,276,184
India,Delhi,Delhi,"Ashok Vihar, Delhi - DPCC",21-03-2024 22:00:00,28.695381,77.181665,CO,22,85,44
India,Delhi,Delhi,"Aya Nagar, Delhi - IMD",21-03-2024 22:00:00,28.4706914,77.1099364,CO,57,102,60
India,Delhi,Delhi,"Bawana, Delhi - DPCC",21-03-2024 22:00:00,28.776200,77.051074,PM10,128,309,202
India,Delhi,Delhi,"Burari Crossing, Delhi - IMD",21-03-2024 22:00:00,28.7256504,77.2011573,PM2.5,59,300,172
India,Delhi,Delhi,"Burari Crossing, Delhi - IMD",21-03-2024 22:00:00,28.7256504,77.2011573,CO,41,68,43
India,Delhi,Delhi,"CRRI Mathura Road, Delhi - IMD",21-03-2024 22:00:00,28.5512005,77.2735737,CO,28,118,32
India,Delhi,Delhi,"Chandni Chowk, Delhi - IITM",21-03-2024 22:00:00,28.656756,77.227234,CO,88,106,100
India,Delhi,Delhi,"Dr. Karni Singh Shooting Range, Delhi - DPCC",21-03-2024 22:00:00,28.498571,77.264840,OZONE,1,196,143
India,Delhi,Delhi,"Dwarka-Sector 8, Delhi - DPCC ",21-03-2024 22:00:00,28.5710274,77.0719006,NO2,5,74,18
India,Delhi,Delhi,"Dwarka-Sector 8, Delhi - DPCC ",21-03-2024 22:00:00,28.5710274,77.0719006,NH3,2,6,4
India,Delhi,Delhi,"Dwarka-Sector 8, Delhi - DPCC ",21-03-2024 22:00:00,28.5710274,77.0719006,OZONE,1,73,49
India,Delhi,Delhi,"IHBAS, Dilshad Garden, Delhi - CPCB",21-03-2024 22:00:00,28.6811736,77.3025234,PM2.5,22,109,68
India,Delhi,Delhi,"IHBAS, Dilshad Garden, Delhi - CPCB",21-03-2024 22:00:00,28.6811736,77.3025234,PM10,98,155,121
India,Delhi,Delhi,"IHBAS, Dilshad Garden, Delhi - CPCB",21-03-2024 22:00:00,28.6811736,77.3025234,SO2,8,25,18
India,Delhi,Delhi,"IHBAS, Dilshad Garden, Delhi - CPCB",21-03-2024 22:00:00,28.6811736,77.3025234,OZONE,12,48,38
India,Delhi,Delhi,"ITO, Delhi - CPCB",21-03-2024 22:00:00,28.628624,77.241060,NH3,2,15,6
India,Delhi,Delhi,"Jahangirpuri, Delhi - DPCC",21-03-2024 22:00:00,28.732820,77.170633,OZONE,8,58,34
India,Delhi,Delhi,"Jawaharlal Nehru Stadium, Delhi - DPCC",21-03-2024 22:00:00,28.580280,77.233829,PM10,112,199,144
India,Delhi,Delhi,"Jawaharlal Nehru Stadium, Delhi - DPCC",21-03-2024 22:00:00,28.580280,77.233829,NH3,5,11,9
India,Delhi,Delhi,"Jawaharlal Nehru Stadium, Delhi - DPCC",21-03-2024 22:00:00,28.580280,77.233829,SO2,19,66,28
India,Delhi,Delhi,"Lodhi Road, Delhi - IITM",21-03-2024 22:00:00,28.588333,77.221667,NH3,8,14,9
India,Delhi,Delhi,"Lodhi Road, Delhi - IITM",21-03-2024 22:00:00,28.588333,77.221667,CO,60,68,63
India,Delhi,Delhi,"Major Dhyan Chand National Stadium, Delhi - DPCC",21-03-2024 22:00:00,28.611281,77.237738,NO2,32,159,62
India,Delhi,Delhi,"Mandir Marg, Delhi - DPCC",21-03-2024 22:00:00,28.636429,77.201067,NO2,115,138,128
India,Delhi,Delhi,"Mandir Marg, Delhi - DPCC",21-03-2024 22:00:00,28.636429,77.201067,SO2,5,15,8
India,Delhi,Delhi,"Mundka, Delhi - DPCC",21-03-2024 22:00:00,28.684678,77.076574,CO,27,76,57
India,Delhi,Delhi,"NSIT Dwarka, Delhi - CPCB",21-03-2024 22:00:00,28.60909,77.0325413,NH3,9,17,11
India,Delhi,Delhi,"Najafgarh, Delhi - DPCC",21-03-2024 22:00:00,28.570173,76.933762,NH3,10,13,12
India,Delhi,Delhi,"Narela, Delhi - DPCC",21-03-2024 22:00:00,28.822836,77.101981,SO2,12,33,21
India,Delhi,Delhi,"Narela, Delhi - DPCC",21-03-2024 22:00:00,28.822836,77.101981,CO,42,84,67
India,Delhi,Delhi,"Narela, Delhi - DPCC",21-03-2024 22:00:00,28.822836,77.101981,OZONE,6,178,110
India,Delhi,Delhi,"New Moti Bagh, Delhi - MHUA",21-03-2024 22:00:00,28.57834,77.18400,PM2.5,99,273,152
India,Delhi,Delhi,"North Campus, DU, Delhi - IMD",21-03-2024 22:00:00,28.6573814,77.1585447,OZONE,NA,NA,NA
India,Delhi,Delhi,"Okhla Phase-2, Delhi - DPCC",21-03-2024 22:00:00,28.530785,77.271255,NH3,9,11,10
India,Delhi,Delhi,"Punjabi Bagh, Delhi - DPCC",21-03-2024 22:00:00,28.674045,77.131023,OZONE,11,221,36
India,Delhi,Delhi,"Pusa, Delhi - DPCC",21-03-2024 22:00:00,28.639652,77.146275,SO2,9,26,18
India,Delhi,Delhi,"Pusa, Delhi - IMD",21-03-2024 22:00:00,28.636110,77.173332,CO,77,98,79
India,Delhi,Delhi,"Pusa, Delhi - IMD",21-03-2024 22:00:00,28.636110,77.173332,OZONE,2,8,8
India,Delhi,Delhi,"R K Puram, Delhi - DPCC",21-03-2024 22:00:00,28.563262,77.186937,SO2,1,62,29
India,Delhi,Delhi,"Rohini, Delhi - DPCC",21-03-2024 22:00:00,28.732528,77.119920,PM2.5,90,319,164
India,Delhi,Delhi,"Rohini, Delhi - DPCC",21-03-2024 22:00:00,28.732528,77.119920,PM10,128,260,179
India,Delhi,Delhi,"Rohini, Delhi - DPCC",21-03-2024 22:00:00,28.732528,77.119920,SO2,11,23,16
India,Delhi,Delhi,"Shadipur, Delhi - CPCB",21-03-2024 22:00:00,28.6514781,77.1473105,PM10,102,434,198
India,Delhi,Delhi,"Sirifort, Delhi - CPCB",21-03-2024 22:00:00,28.5504249,77.2159377,CO,12,112,21
India,Delhi,Delhi,"Sirifort, Delhi - CPCB",21-03-2024 22:00:00,28.5504249,77.2159377,OZONE,6,77,30
India,Delhi,Delhi,"Wazirpur, Delhi - DPCC",21-03-2024 22:00:00,28.699793,77.165453,NH3,8,10,10
India,Gujarat,Ahmedabad,"Chandkheda, Ahmedabad - IITM",21-03-2024 22:00:00,23.107969,72.574648,PM2.5,77,208,129
India,Gujarat,Ahmedabad,"Gyaspur, Ahmedabad - IITM",21-03-2024 22:00:00,22.977134,72.553024,PM10,122,444,200
India,Gujarat,Ahmedabad,"Gyaspur, Ahmedabad - IITM",21-03-2024 22:00:00,22.977134,72.553024,NH3,9,11,10
India,Gujarat,Ahmedabad,"Gyaspur, Ahmedabad - IITM",21-03-2024 22:00:00,22.977134,72.553024,SO2,4,107,18
India,Gujarat,Ahmedabad,"Maninagar, Ahmedabad - GPCB",21-03-2024 22:00:00,23.002657,72.591912,SO2,3,49,18
India,Gujarat,Ahmedabad,"Raikhad, Ahmedabad - IITM",21-03-2024 22:00:00,23.020509,72.579261,PM10,149,404,278
India,Gujarat,Ahmedabad,"SAC ISRO Satellite, Ahmedabad - IITM",21-03-2024 22:00:00,23.023389,72.515201,SO2,2,35,8
India,Gujarat,Ahmedabad,"SAC ISRO Satellite, Ahmedabad - IITM",21-03-2024 22:00:00,23.023389,72.515201,CO,22,32,26
India,Gujarat,Ahmedabad,"SVPI Airport Hansol, Ahmedabad - IITM",21-03-2024 22:00:00,23.076793,72.627874,NH3,4,5,4
India,Gujarat,Ahmedabad,"SVPI Airport Hansol, Ahmedabad - IITM",21-03-2024 22:00:00,23.076793,72.627874,SO2,2,11,5
India,Gujarat,Ahmedabad,"Sardar Vallabhbhai Patel Stadium, Ahmedabad - IITM",21-03-2024 22:00:00,23.043070,72.562968,PM10,96,187,137
India,Gujarat,Ahmedabad,"Sardar Vallabhbhai Patel Stadium, Ahmedabad - IITM",21-03-2024 22:00:00,23.043070,72.562968,CO,32,109,57
India,Gujarat,Ankleshwar,"GIDC, Ankleshwar - GPCB",21-03-2024 22:00:00,21.613267,73.010555,NO2,36,38,37
India,Gujarat,Ankleshwar,"GIDC, Ankleshwar - GPCB",21-03-2024 22:00:00,21.613267,73.010555,NH3,7,7,7
India,Gujarat,Gandhinagar,"GIFT City, Gandhinagar - IITM",21-03-2024 22:00:00,23.163798,72.677768,SO2,7,13,10
India,Gujarat,Gandhinagar,"IIPHG Lekawada, Gandhinagar - IITM",21-03-2024 22:00:00,23.243639,72.68994,NO2,38,57,44
India,Gujarat,Nandesari,"GIDC, Nandesari - Nandesari Ind. Association",21-03-2024 22:00:00,22.410802,73.097923,PM10,103,423,234
India,Gujarat,Surat,"Science Center, Surat - SMC",21-03-2024 22:00:00,21.170046,72.795405,PM2.5,22,105,47
India,Gujarat,Surat,"Science Center, Surat - SMC",21-03-2024 22:00:00,21.170046,72.795405,SO2,18,40,23
India,Gujarat,Vapi,"Phase-1 GIDC, Vapi - GPCB",21-03-2024 22:00:00,20.362421,72.918013,NO2,6,6,6
India,Gujarat,Vapi,"Phase-1 GIDC, Vapi - GPCB",21-03-2024 22:00:00,20.362421,72.918013,SO2,50,51,51
India,Gujarat,Vatva,"Phase-4 GIDC, Vatva - GPCB",21-03-2024 22:00:00,22.969611,72.643500,CO,22,159,159
India,Haryana,Ambala,"Patti Mehar, Ambala - HSPCB",21-03-2024 22:00:00,30.379589,76.778328,NO2,NA,NA,NA
India,Haryana,Ambala,"Patti Mehar, Ambala - HSPCB",21-03-2024 22:00:00,30.379589,76.778328,OZONE,50,61,57
India,Haryana,Bahadurgarh,"Arya Nagar, Bahadurgarh - HSPCB",21-03-2024 22:00:00,28.6701,76.9254,NO2,34,38,36
India,Haryana,Bahadurgarh,"Arya Nagar, Bahadurgarh - HSPCB",21-03-2024 22:00:00,28.6701,76.9254,CO,36,60,47
India,Haryana,Ballabgarh,"Nathu Colony, Ballabgarh - HSPCB",21-03-2024 22:00:00,28.3419248,77.319699,OZONE,15,49,27
India,Haryana,Bhiwani,"H.B. Colony, Bhiwani - HSPCB",21-03-2024 22:00:00,28.806223,76.141105,PM2.5,101,232,149
India,Haryana,Charkhi Dadri,"Mini Secretariat, Charkhi Dadri - HSPCB",21-03-2024 22:00:00,28.593883,76.270653,NO2,15,25,19
India,Haryana,Charkhi Dadri,"Mini Secretariat, Charkhi Dadri - HSPCB",21-03-2024 22:00:00,28.593883,76.270653,OZONE,13,17,15
India,Haryana,Dharuhera,"Municipal Corporation Office, Dharuhera -  HSPCB",21-03-2024 22:00:00,28.206800,76.799700,PM2.5,NA,NA,NA
India,Haryana,Dharuhera,"Municipal Corporation Office, Dharuhera -  HSPCB",21-03-2024 22:00:00,28.206800,76.799700,CO,97,133,98
India,Haryana,Faridabad,"Sector 11, Faridabad - HSPCB",21-03-2024 22:00:00,28.376058,77.315741,NO2,30,32,31
India,Haryana,Faridabad,"Sector 11, Faridabad - HSPCB",21-03-2024 22:00:00,28.376058,77.315741,SO2,5,7,6
India,Haryana,Faridabad,"Sector 11, Faridabad - HSPCB",21-03-2024 22:00:00,28.376058,77.315741,CO,35,85,43
India,Haryana,Faridabad,"Sector- 16A, Faridabad - HSPCB",21-03-2024 22:00:00,28.4088421,77.3099081,OZONE,14,14,14
India,Haryana,Gurugram,"Sector-51, Gurugram - HSPCB",21-03-2024 22:00:00,28.4227,77.0667,PM2.5,148,332,225
India,Haryana,Gurugram,"Sector-51, Gurugram - HSPCB",21-03-2024 22:00:00,28.4227,77.0667,SO2,4,5,4
India,Haryana,Gurugram,"Teri Gram, Gurugram - HSPCB",21-03-2024 22:00:00,28.4275,77.1465,PM10,186,229,203
India,Haryana,Gurugram,"Teri Gram, Gurugram - HSPCB",21-03-2024 22:00:00,28.4275,77.1465,NO2,32,52,42
India,Haryana,Gurugram,"Teri Gram, Gurugram - HSPCB",21-03-2024 22:00:00,28.4275,77.1465,OZONE,15,15,15
India,Haryana,Hisar,"Urban Estate-II, Hisar - HSPCB",21-03-2024 22:00:00,29.140560,75.744941,CO,40,80,46
India,Haryana,Kaithal,"Rishi Nagar, Kaithal - HSPCB",21-03-2024 22:00:00,29.8006,76.4155,PM2.5,63,135,86
India,Haryana,Kaithal,"Rishi Nagar, Kaithal - HSPCB",21-03-2024 22:00:00,29.8006,76.4155,OZONE,12,31,27
India,Haryana,Mandikhera,"General Hospital, Mandikhera - HSPCB",21-03-2024 22:00:00,27.9002,76.9938,SO2,29,37,34
India,Haryana,Mandikhera,"General Hospital, Mandikhera - HSPCB",21-03-2024 22:00:00,27.9002,76.9938,CO,30,50,39
India,Haryana,Manesar,"Sector-2 IMT, Manesar - HSPCB",21-03-2024 22:00:00,28.360699,76.936090,NH3,2,4,3
India,Haryana,Manesar,"Sector-2 IMT, Manesar - HSPCB",21-03-2024 22:00:00,28.360699,76.936090,OZONE,1,39,34
India,Haryana,Narnaul,"Shastri Nagar, Narnaul - HSPCB",21-03-2024 22:00:00,28.060249,76.113115,PM10,13,109,62
India,Haryana,Narnaul,"Shastri Nagar, Narnaul - HSPCB",21-03-2024 22:00:00,28.060249,76.113115,OZONE,23,62,44
India,Haryana,Palwal,"Shyam Nagar, Palwal - HSPCB",21-03-2024 22:00:00,28.1485564,77.3320667,PM10,79,157,105
India,Haryana,Palwal,"Shyam Nagar, Palwal - HSPCB",21-03-2024 22:00:00,28.1485564,77.3320667,NH3,9,9,9
India,Haryana,Panchkula,"Sector-6, Panchkula - HSPCB ",21-03-2024 22:00:00,30.7057778,76.8531805555555,PM2.5,11,147,61
India,Haryana,Panchkula,"Sector-6, Panchkula - HSPCB ",21-03-2024 22:00:00,30.7057778,76.8531805555555,SO2,11,13,12
India,Haryana,Panipat,"Sector-18, Panipat - HSPCB",21-03-2024 22:00:00,29.497973,76.993331,NH3,2,3,2
India,Haryana,Panipat,"Sector-18, Panipat - HSPCB",21-03-2024 22:00:00,29.497973,76.993331,CO,24,26,25
India,Haryana,Rohtak,"MD University, Rohtak - HSPCB",21-03-2024 22:00:00,28.52123,76.37138,CO,18,62,50
India,Haryana,Rohtak,"MD University, Rohtak - HSPCB",21-03-2024 22:00:00,28.52123,76.37138,OZONE,46,54,49
India,Haryana,Sirsa,"F-Block, Sirsa - HSPCB",21-03-2024 22:00:00,29.536400,75.015800,PM10,50,157,98
India,Haryana,Sirsa,"F-Block, Sirsa - HSPCB",21-03-2024 22:00:00,29.536400,75.015800,NO2,10,86,13
India,Haryana,Sirsa,"F-Block, Sirsa - HSPCB",21-03-2024 22:00:00,29.536400,75.015800,NH3,12,13,12
India,Haryana,Yamuna Nagar,"Gobind Pura, Yamuna Nagar - HSPCB",21-03-2024 22:00:00,30.1480566,77.2893471,NH3,1,6,4
India,Jharkhand,Dhanbad,"Kalakusuma, Dhanbad - DMC",21-03-2024 22:00:00,23.811548,86.481238,PM2.5,3,54,11
India,Jharkhand,Dhanbad,"Kalakusuma, Dhanbad - DMC",21-03-2024 22:00:00,23.811548,86.481238,OZONE,10,11,10
India,Jharkhand,Pathardih,"Mohalbani Ghat, Pathardih - DMC",21-03-2024 22:00:00,23.669880,86.411725,NO2,47,202,120
India,Karnataka,Bengaluru,"BTM Layout, Bengaluru - CPCB",21-03-2024 22:00:00,12.9135218,77.5950804,PM10,NA,NA,NA
India,Karnataka,Bengaluru,"Bapuji Nagar, Bengaluru - KSPCB",21-03-2024 22:00:00,12.951913,77.539784,CO,16,43,16
India,Karnataka,Bengaluru,"Bapuji Nagar, Bengaluru - KSPCB",21-03-2024 22:00:00,12.951913,77.539784,OZONE,NA,NA,NA
India,Karnataka,Bengaluru,"Hebbal, Bengaluru - KSPCB",21-03-2024 22:00:00,13.029152,77.585901,SO2,NA,NA,NA
India,Karnataka,Bengaluru,"Hebbal, Bengaluru - KSPCB",21-03-2024 22:00:00,13.029152,77.585901,OZONE,11,38,30
India,Karnataka,Bengaluru,"Hombegowda Nagar, Bengaluru - KSPCB",21-03-2024 22:00:00,12.938539,77.590100,SO2,3,4,4
India,Karnataka,Bengaluru,"Jayanagar 5th Block, Bengaluru - KSPCB",21-03-2024 22:00:00,12.920984,77.584908,NH3,3,4,4
India,Karnataka,Bengaluru,"Jayanagar 5th Block, Bengaluru - KSPCB",21-03-2024 22:00:00,12.920984,77.584908,SO2,13,32,21
India,Karnataka,Bengaluru,"Peenya, Bengaluru - CPCB",21-03-2024 22:00:00,13.0270199,77.494094,NO2,9,22,14
India,Karnataka,Bengaluru,"Peenya, Bengaluru - CPCB",21-03-2024 22:00:00,13.0270199,77.494094,CO,17,38,35
India,Karnataka,Bengaluru,"RVCE-Mailasandra, Bengaluru - KSPCB",21-03-2024 22:00:00,12.921418,77.502466,PM10,NA,NA,NA
India,Karnataka,Bengaluru,"RVCE-Mailasandra, Bengaluru - KSPCB",21-03-2024 22:00:00,12.921418,77.502466,NO2,16,17,17
India,Karnataka,Bengaluru,"RVCE-Mailasandra, Bengaluru - KSPCB",21-03-2024 22:00:00,12.921418,77.502466,SO2,7,16,9
India,Karnataka,Bengaluru,"RVCE-Mailasandra, Bengaluru - KSPCB",21-03-2024 22:00:00,12.921418,77.502466,CO,32,54,46
India,Karnataka,Bengaluru,"Sanegurava Halli, Bengaluru - KSPCB",21-03-2024 22:00:00,12.990328,77.5431385,NO2,NA,NA,NA
India,Karnataka,Bengaluru,"Shivapura_Peenya, Bengaluru - KSPCB",21-03-2024 22:00:00,13.0246342,77.5080115,CO,25,62,39
India,Karnataka,Bengaluru,"Shivapura_Peenya, Bengaluru - KSPCB",21-03-2024 22:00:00,13.0246342,77.5080115,OZONE,53,55,54
India,Karnataka,Bengaluru,"Silk Board, Bengaluru - KSPCB",21-03-2024 22:00:00,12.917348,77.622813,NH3,6,8,7
India,Karnataka,Bidar,"Naubad, Bidar - KSPCB",21-03-2024 22:00:00,17.930306,77.482194,NH3,3,3,3
India,Karnataka,Bidar,"Naubad, Bidar - KSPCB",21-03-2024 22:00:00,17.930306,77.482194,CO,44,83,51
India,Karnataka,Chikkaballapur,"Chikkaballapur Rural, Chikkaballapur - KSPCB",21-03-2024 22:00:00,13.428828,77.731418,PM10,32,112,63
India,Karnataka,Chikkamagaluru,"Kalyana Nagara, Chikkamagaluru - KSPCB",21-03-2024 22:00:00,13.328028,75.797056,CO,11,117,25
India,Karnataka,Davanagere,"Devaraj Urs Badavane, Davanagere - KSPCB",21-03-2024 22:00:00,14.475800,75.905200,PM10,66,144,90
India,Karnataka,Dharwad,"Kalabhavan, Dharwad - KSPCB",21-03-2024 22:00:00,15.459706,75.008381,PM2.5,19,73,49
India,Karnataka,Dharwad,"Kalabhavan, Dharwad - KSPCB",21-03-2024 22:00:00,15.459706,75.008381,PM10,25,91,61
India,Karnataka,Dharwad,"Kalabhavan, Dharwad - KSPCB",21-03-2024 22:00:00,15.459706,75.008381,NO2,2,33,19
India,Karnataka,Gadag,"Panchal Nagar, Gadag - KSPCB",21-03-2024 22:00:00,15.411456,75.638133,NH3,1,3,2
India,Karnataka,Hassan,"B.Katihalli, Hassan - KSPCB",21-03-2024 22:00:00,13.008556,76.125258,NO2,10,33,19
India,Karnataka,Hassan,"B.Katihalli, Hassan - KSPCB",21-03-2024 22:00:00,13.008556,76.125258,CO,6,30,17
India,Karnataka,Haveri,"Ashwini Nagar, Haveri - KSPCB",21-03-2024 22:00:00,14.791800,75.389600,PM10,68,129,106
India,Karnataka,Haveri,"Ashwini Nagar, Haveri - KSPCB",21-03-2024 22:00:00,14.791800,75.389600,NO2,27,39,32
India,Karnataka,Kalaburagi,"Lal Bahadur Shastri Nagar, Kalaburagi - KSPCB",21-03-2024 22:00:00,17.321993,76.822628,SO2,9,15,12
India,Karnataka,Kalaburagi,"Lal Bahadur Shastri Nagar, Kalaburagi - KSPCB",21-03-2024 22:00:00,17.321993,76.822628,OZONE,2,69,53
India,Karnataka,Kalaburagi,"Mahatma Basaveswar Colony, Kalaburgi - KSPCB",21-03-2024 22:00:00,17.336318,76.847397,SO2,4,42,7
India,Karnataka,Karwar,"KHB Colony, Karwar - KSPCB",21-03-2024 22:00:00,14.816666,74.141003,NH3,1,4,2
India,Karnataka,Karwar,"KHB Colony, Karwar - KSPCB",21-03-2024 22:00:00,14.816666,74.141003,SO2,18,19,18
India,Karnataka,Kolar,"Tamaka Ind. Area, Kolar - KSPCB",21-03-2024 22:00:00,13.1276288,78.1570122,PM2.5,NA,NA,NA
India,Karnataka,Madikeri,"Stuart Hill, Madikeri - KSPCB",21-03-2024 22:00:00,12.415911,75.735050,SO2,4,4,4
India,Karnataka,Madikeri,"Stuart Hill, Madikeri - KSPCB",21-03-2024 22:00:00,12.415911,75.735050,OZONE,31,56,46
India,Karnataka,Mangalore,"Kadri, Mangalore - KSPCB",21-03-2024 22:00:00,12.889250,74.853000,PM2.5,63,109,81
India,Karnataka,Raichur,"Haji Colony, Raichur - KSPCB",21-03-2024 22:00:00,16.208139,77.348417,PM2.5,13,60,29
India,Karnataka,Ramanagara,"Vijay Nagar, Ramanagara - KSPCB",21-03-2024 22:00:00,12.733409,77.298051,NO2,1,6,4
India,Karnataka,Shivamogga,"Vinoba Nagara, Shivamogga - KSPCB",21-03-2024 22:00:00,13.940000,75.555917,CO,10,46,32
India,Karnataka,Tumakuru,"Thimmalapura, Tumakuru - KSPCB",21-03-2024 22:00:00,13.377516,77.099072,SO2,7,16,9
India,Karnataka,Tumakuru,"Thimmalapura, Tumakuru - KSPCB",21-03-2024 22:00:00,13.377516,77.099072,OZONE,10,36,25
India,Karnataka,Udupi,"Brahmagiri, Udupi - KSPCB",21-03-2024 22:00:00,13.34194444,74.74694444,PM2.5,39,87,66
India,Karnataka,Udupi,"Brahmagiri, Udupi - KSPCB",21-03-2024 22:00:00,13.34194444,74.74694444,CO,46,50,46
India,Karnataka,Udupi,"Brahmagiri, Udupi - KSPCB",21-03-2024 22:00:00,13.34194444,74.74694444,OZONE,23,24,23
India,Karnataka,Yadgir,"Collector Office, Yadgir - KSPCB",21-03-2024 22:00:00,16.7602,77.1428,NO2,5,9,6
India,Kerala,Kollam,"Polayathode, Kollam - Kerala PCB",21-03-2024 22:00:00,8.8787,76.6073,PM10,54,120,81
India,Kerala,Thiruvananthapuram,"Kariavattom, Thiruvananthapuram - Kerala PCB",21-03-2024 22:00:00,8.563700,76.886500,CO,18,44,24
India,Kerala,Thiruvananthapuram,"Plammoodu, Thiruvananthapuram - Kerala PCB",21-03-2024 22:00:00,8.5149093,76.9435879,NH3,2,2,2
India,Kerala,Thrissur,"Corporation Ground, Thrissur - Kerala PCB",21-03-2024 22:00:00,10.532400,76.215900,PM2.5,44,50,47
India,Kerala,Thrissur,"Corporation Ground, Thrissur - Kerala PCB",21-03-2024 22:00:00,10.532400,76.215900,OZONE,27,31,29
