country,state,city,station,last_update,latitude,longitude,pollutant_id,pollutant_min,pollutant_max,pollutant_avg
India,Andhra_Pradesh,Amaravati,"Secretariat, Amaravati - APPCB",16-04-2024 16:00:00,16.5150833,80.5181667,PM10,33,69,48
India,Andhra_Pradesh,Amaravati,"Secretariat, Amaravati - APPCB",16-04-2024 16:00:00,16.5150833,80.5181667,NO2,4,14,8
India,Andhra_Pradesh,Amaravati,"Secretariat, Amaravati - APPCB",16-04-2024 16:00:00,16.5150833,80.5181667,NH3,3,4,4
India,Andhra_Pradesh,Amaravati,"Secretariat, Amaravati - APPCB",16-04-2024 16:00:00,16.5150833,80.5181667,CO,23,50,37
India,Andhra_Pradesh,Anantapur,"Gulzarpet, Anantapur - APPCB",16-04-2024 16:00:00,14.675886,77.593027,PM10,52,97,71
India,Andhra_Pradesh,Kadapa,"Yerramukkapalli, Kadapa - APPCB",16-04-2024 16:00:00,14.465052,78.824187,NO2,8,8,8
India,Andhra_Pradesh,Tirupati,"Tirumala, Tirupati - APPCB",16-04-2024 16:00:00,13.67,79.35,PM10,33,112,55
India,Andhra_Pradesh,Tirupati,"Tirumala, Tirupati - APPCB",16-04-2024 16:00:00,13.67,79.35,NH3,1,2,1
India,Andhra_Pradesh,Tirupati,"Vaikuntapuram, Tirupati - APPCB",16-04-2024 16:00:00,13.615387,79.409230,PM10,23,89,49
India,Andhra_Pradesh,Tirupati,"Vaikuntapuram, Tirupati - APPCB",16-04-2024 16:00:00,13.615387,79.409230,NH3,2,3,3
India,Andhra_Pradesh,Vijayawada,"HB Colony, Vijayawada - APPCB",16-04-2024 16:00:00,16.536107,80.594233,NO2,6,11,8
India,Andhra_Pradesh,Visakhapatnam,"GVM Corporation, Visakhapatnam - APPCB",16-04-2024 16:00:00,17.72,83.3,NH3,3,5,4
India,Arunachal_Pradesh,Naharlagun,"Naharlagun, Naharlagun - APSPCB",16-04-2024 16:00:00,27.103358,93.679645,PM2.5,NA,NA,NA
India,Arunachal_Pradesh,Naharlagun,"Naharlagun, Naharlagun - APSPCB",16-04-2024 16:00:00,27.103358,93.679645,PM10,NA,NA,NA
India,Arunachal_Pradesh,Naharlagun,"Naharlagun, Naharlagun - APSPCB",16-04-2024 16:00:00,27.103358,93.679645,SO2,NA,NA,NA
India,Arunachal_Pradesh,Naharlagun,"Naharlagun, Naharlagun - APSPCB",16-04-2024 16:00:00,27.103358,93.679645,CO,20,24,22
India,Assam,Byrnihat,"Central Academy for SFS, Byrnihat - PCBA",16-04-2024 16:00:00,26.071318,91.87488,PM10,57,475,204
India,Assam,Guwahati,"IITG, Guwahati - PCBA",16-04-2024 16:00:00,26.2028636,91.70046436,NH3,NA,NA,NA
India,Assam,Guwahati,"IITG, Guwahati - PCBA",16-04-2024 16:00:00,26.2028636,91.70046436,CO,14,17,15
India,Assam,Guwahati,"LGBI Airport, Guwahati - PCBA",16-04-2024 16:00:00,26.10887,91.589544,PM2.5,43,378,227
India,Assam,Guwahati,"LGBI Airport, Guwahati - PCBA",16-04-2024 16:00:00,26.10887,91.589544,NO2,30,118,70
India,Assam,Guwahati,"LGBI Airport, Guwahati - PCBA",16-04-2024 16:00:00,26.10887,91.589544,OZONE,6,26,12
India,Assam,Guwahati,"Railway Colony, Guwahati - PCBA",16-04-2024 16:00:00,26.181742,91.78063,OZONE,1,23,18
India,Assam,Nagaon,"Christianpatty, Nagaon - PCBA",16-04-2024 16:00:00,26.349082,92.68449,PM2.5,70,167,96
India,Assam,Nagaon,"Christianpatty, Nagaon - PCBA",16-04-2024 16:00:00,26.349082,92.68449,OZONE,32,106,55
India,Assam,Nalbari,"Bata Chowk, Nalbari - PCBA",16-04-2024 16:00:00,26.446912,91.439057,CO,27,80,64
India,Assam,Silchar,"Tarapur, Silchar - PCBA",16-04-2024 16:00:00,24.82827,92.79525,NH3,1,1,1
India,Assam,Silchar,"Tarapur, Silchar - PCBA",16-04-2024 16:00:00,24.82827,92.79525,CO,28,30,29
India,Assam,Sivasagar,"Girls College, Sivasagar - PCBA",16-04-2024 16:00:00,26.987634,94.636574,PM2.5,39,57,48
India,Assam,Sivasagar,"Girls College, Sivasagar - PCBA",16-04-2024 16:00:00,26.987634,94.636574,NO2,13,24,16
India,Assam,Sivasagar,"Girls College, Sivasagar - PCBA",16-04-2024 16:00:00,26.987634,94.636574,SO2,4,4,4
India,Assam,Sivasagar,"Girls College, Sivasagar - PCBA",16-04-2024 16:00:00,26.987634,94.636574,CO,9,19,10
India,Bihar,Araria,"Kharahiya Basti, Araria - BSPCB",16-04-2024 16:00:00,26.146529,87.454184,SO2,1,20,13
India,Bihar,Aurangabad,"Gurdeo Nagar, Aurangabad - BSPCB",16-04-2024 16:00:00,24.75746,84.366208,NH3,5,8,6
India,Bihar,Bettiah,"Kamalnath Nagar, Bettiah - BSPCB",16-04-2024 16:00:00,26.80365,84.51954,NH3,3,7,4
India,Bihar,Bhagalpur,"DM Office_Kachari Chowk, Bhagalpur - BSPCB",16-04-2024 16:00:00,25.251013,86.989001,PM10,129,276,161
India,Bihar,Bhagalpur,"DM Office_Kachari Chowk, Bhagalpur - BSPCB",16-04-2024 16:00:00,25.251013,86.989001,SO2,1,39,18
India,Bihar,Bhagalpur,"Mayaganj, Bhagalpur - BSPCB",16-04-2024 16:00:00,25.265194,87.012947,SO2,3,12,11
India,Bihar,Bihar Sharif,"D M Colony, Bihar Sharif - BSPCB",16-04-2024 16:00:00,25.204762,85.514960,PM2.5,37,120,60
India,Bihar,Bihar Sharif,"D M Colony, Bihar Sharif - BSPCB",16-04-2024 16:00:00,25.204762,85.514960,CO,48,71,51
India,Bihar,Bihar Sharif,"D M Colony, Bihar Sharif - BSPCB",16-04-2024 16:00:00,25.204762,85.514960,OZONE,17,63,32
India,Bihar,Chhapra,"Darshan Nagar, Chhapra - BSPCB",16-04-2024 16:00:00,25.7808257,84.7446768,SO2,9,119,31
India,Bihar,Gaya,"Collectorate, Gaya - BSPCB",16-04-2024 16:00:00,24.7955,84.9994,PM2.5,61,338,157
India,Bihar,Gaya,"SFTI Kusdihra, Gaya - BSPCB",16-04-2024 16:00:00,24.762518,84.982348,NH3,4,6,5
India,Bihar,Hajipur,"Industrial Area, Hajipur - BSPCB",16-04-2024 16:00:00,25.697189,85.245900,NO2,44,68,57
India,Bihar,Hajipur,"Industrial Area, Hajipur - BSPCB",16-04-2024 16:00:00,25.697189,85.245900,CO,10,80,34
India,Bihar,Katihar,"Mirchaibari, Katihar - BSPCB",16-04-2024 16:00:00,25.560083,87.553265,NO2,26,39,31
India,Bihar,Munger,"Town Hall, Munger - BSPCB",16-04-2024 16:00:00,25.376776,86.471523,NH3,2,2,2
India,Bihar,Munger,"Town Hall, Munger - BSPCB",16-04-2024 16:00:00,25.376776,86.471523,CO,2,117,44
India,Bihar,Muzaffarpur,"Buddha Colony, Muzaffarpur - BSPCB",16-04-2024 16:00:00,26.11442,85.39813,NH3,19,25,23
India,Bihar,Muzaffarpur,"MIT-Daudpur Kothi, Muzaffarpur - BSPCB",16-04-2024 16:00:00,26.1403345,85.3650192,OZONE,17,51,39
India,Bihar,Muzaffarpur,"Muzaffarpur Collectorate, Muzaffarpur - BSPCB",16-04-2024 16:00:00,26.1209,85.3647,PM2.5,75,272,166
India,Bihar,Muzaffarpur,"Muzaffarpur Collectorate, Muzaffarpur - BSPCB",16-04-2024 16:00:00,26.1209,85.3647,SO2,7,16,10
India,Bihar,Muzaffarpur,"Muzaffarpur Collectorate, Muzaffarpur - BSPCB",16-04-2024 16:00:00,26.1209,85.3647,CO,21,76,40
India,Bihar,Muzaffarpur,"Muzaffarpur Collectorate, Muzaffarpur - BSPCB",16-04-2024 16:00:00,26.1209,85.3647,OZONE,44,139,80
India,Bihar,Patna,"DRM Office Danapur, Patna - BSPCB",16-04-2024 16:00:00,25.586562,85.043586,NH3,3,3,3
India,Bihar,Patna,"Muradpur, Patna - BSPCB",16-04-2024 16:00:00,25.619651,85.147382,SO2,6,12,8
India,Bihar,Patna,"Rajbansi Nagar, Patna - BSPCB",16-04-2024 16:00:00,25.599486,85.113666,PM10,152,384,185
India,Bihar,Patna,"Rajbansi Nagar, Patna - BSPCB",16-04-2024 16:00:00,25.599486,85.113666,SO2,4,20,11
India,Bihar,Patna,"Rajbansi Nagar, Patna - BSPCB",16-04-2024 16:00:00,25.599486,85.113666,CO,18,106,32
India,Bihar,Patna,"Samanpura, Patna - BSPCB",16-04-2024 16:00:00,25.596727,85.085624,OZONE,48,126,97
India,Bihar,Purnia,"Mariam Nagar, Purnia - BSPCB",16-04-2024 16:00:00,25.366336,87.117468,CO,12,75,22
India,Bihar,Rajgir,"Dangi Tola, Rajgir - BSPCB",16-04-2024 16:00:00,25.03280,85.41948,CO,17,44,28
India,Bihar,Saharsa,"Police Line, Saharsa - BSPCB",16-04-2024 16:00:00,25.892357,86.590325,PM2.5,20,240,133
India,Bihar,Sasaram,"Dada Peer, Sasaram - BSPCB",16-04-2024 16:00:00,24.952822,84.002396,PM2.5,19,197,49
India,Bihar,Sasaram,"Dada Peer, Sasaram - BSPCB",16-04-2024 16:00:00,24.952822,84.002396,PM10,65,187,111
India,Bihar,Siwan,"Chitragupta Nagar, Siwan - BSPCB",16-04-2024 16:00:00,26.2271665,84.3570427,OZONE,28,85,71
India,Chandigarh,Chandigarh,"Sector 22, Chandigarh - CPCC",16-04-2024 16:00:00,30.735567,76.775714,CO,30,66,37
India,Chandigarh,Chandigarh,"Sector-25, Chandigarh - CPCC",16-04-2024 16:00:00,30.751462,76.762879,NO2,3,63,20
India,Chandigarh,Chandigarh,"Sector-53, Chandigarh - CPCC",16-04-2024 16:00:00,30.719859,76.738637,PM2.5,27,312,135
India,Chandigarh,Chandigarh,"Sector-53, Chandigarh - CPCC",16-04-2024 16:00:00,30.719859,76.738637,CO,22,146,40
India,Chhattisgarh,Bhilai,"32Bungalows, Bhilai - CECB",16-04-2024 16:00:00,21.194815,81.314770,PM10,20,30,26
India,Chhattisgarh,Bhilai,"32Bungalows, Bhilai - CECB",16-04-2024 16:00:00,21.194815,81.314770,SO2,4,7,6
India,Chhattisgarh,Bhilai,"Civic Center, Bhilai - Bhilai Steel Plant",16-04-2024 16:00:00,21.185571,81.343175,PM2.5,24,45,37
India,Chhattisgarh,Bhilai,"Civic Center, Bhilai - Bhilai Steel Plant",16-04-2024 16:00:00,21.185571,81.343175,NO2,16,17,16
India,Chhattisgarh,Bhilai,"Civic Center, Bhilai - Bhilai Steel Plant",16-04-2024 16:00:00,21.185571,81.343175,SO2,8,15,10
India,Chhattisgarh,Bhilai,"Civic Center, Bhilai - Bhilai Steel Plant",16-04-2024 16:00:00,21.185571,81.343175,CO,21,101,37
India,Chhattisgarh,Bhilai,"Hathkhoj, Bhilai - CECB",16-04-2024 16:00:00,21.224231,81.408350,SO2,9,11,10
India,Chhattisgarh,Chhal,"Nawapara SECL Colony, Chhal - CECB",16-04-2024 16:00:00,22.118125,83.140608,NO2,13,55,25
India,Chhattisgarh,Chhal,"Nawapara SECL Colony, Chhal - CECB",16-04-2024 16:00:00,22.118125,83.140608,CO,18,118,56
India,Chhattisgarh,Chhal,"Nawapara SECL Colony, Chhal - CECB",16-04-2024 16:00:00,22.118125,83.140608,OZONE,12,116,72
India,Chhattisgarh,Korba,"Urja Nagar, Korba - CECB",16-04-2024 16:00:00,22.348441,82.549611,NO2,50,68,59
India,Chhattisgarh,Korba,"Urja Nagar, Korba - CECB",16-04-2024 16:00:00,22.348441,82.549611,SO2,1,3,2
India,Chhattisgarh,Raipur,"Bhatagaon New ISBT, Raipur - CECB",16-04-2024 16:00:00,21.219665,81.630094,NO2,24,37,30
India,Chhattisgarh,Raipur,"Bhatagaon New ISBT, Raipur - CECB",16-04-2024 16:00:00,21.219665,81.630094,SO2,1,3,2
India,Chhattisgarh,Raipur,"Krishak Nagar, Raipur - CECB",16-04-2024 16:00:00,21.237755,81.705301,NO2,1,30,11
India,Chhattisgarh,Raipur,"Siltara Phase-II, Raipur - CECB",16-04-2024 16:00:00,21.371751,81.664929,PM10,57,198,129
India,Chhattisgarh,Tumidih,"OP Jindal Industrial Park, Tumidih - CECB",16-04-2024 16:00:00,22.06631475,83.33820077,PM2.5,NA,NA,NA
India,Delhi,Delhi,"Alipur, Delhi - DPCC",16-04-2024 16:00:00,28.815329,77.153010,PM10,69,424,195
India,Delhi,Delhi,"Alipur, Delhi - DPCC",16-04-2024 16:00:00,28.815329,77.153010,SO2,9,51,23
India,Delhi,Delhi,"Ashok Vihar, Delhi - DPCC",16-04-2024 16:00:00,28.695381,77.181665,NO2,12,126,68
India,Delhi,Delhi,"Ashok Vihar, Delhi - DPCC",16-04-2024 16:00:00,28.695381,77.181665,NH3,10,19,15
India,Delhi,Delhi,"Bawana, Delhi - DPCC",16-04-2024 16:00:00,28.776200,77.051074,OZONE,3,86,35
India,Delhi,Delhi,"Chandni Chowk, Delhi - IITM",16-04-2024 16:00:00,28.656756,77.227234,PM2.5,184,361,290
India,Delhi,Delhi,"Chandni Chowk, Delhi - IITM",16-04-2024 16:00:00,28.656756,77.227234,SO2,13,52,32
India,Delhi,Delhi,"DTU, Delhi - CPCB",16-04-2024 16:00:00,28.7500499,77.1112615,PM2.5,58,380,237
India,Delhi,Delhi,"DTU, Delhi - CPCB",16-04-2024 16:00:00,28.7500499,77.1112615,SO2,34,36,35
India,Delhi,Delhi,"DTU, Delhi - CPCB",16-04-2024 16:00:00,28.7500499,77.1112615,CO,24,105,59
India,Delhi,Delhi,"Dr. Karni Singh Shooting Range, Delhi - DPCC",16-04-2024 16:00:00,28.498571,77.264840,OZONE,2,168,151
India,Delhi,Delhi,"Dwarka-Sector 8, Delhi - DPCC ",16-04-2024 16:00:00,28.5710274,77.0719006,CO,37,132,62
India,Delhi,Delhi,"Dwarka-Sector 8, Delhi - DPCC ",16-04-2024 16:00:00,28.5710274,77.0719006,OZONE,2,48,24
India,Delhi,Delhi,"IHBAS, Dilshad Garden, Delhi - CPCB",16-04-2024 16:00:00,28.6811736,77.3025234,PM2.5,33,195,98
India,Delhi,Delhi,"IHBAS, Dilshad Garden, Delhi - CPCB",16-04-2024 16:00:00,28.6811736,77.3025234,NO2,28,112,61
India,Delhi,Delhi,"ITO, Delhi - CPCB",16-04-2024 16:00:00,28.628624,77.241060,NO2,25,217,100
India,Delhi,Delhi,"Jahangirpuri, Delhi - DPCC",16-04-2024 16:00:00,28.732820,77.170633,CO,35,139,62
India,Delhi,Delhi,"Jawaharlal Nehru Stadium, Delhi - DPCC",16-04-2024 16:00:00,28.580280,77.233829,PM2.5,30,324,158
India,Delhi,Delhi,"Jawaharlal Nehru Stadium, Delhi - DPCC",16-04-2024 16:00:00,28.580280,77.233829,CO,21,126,34
India,Delhi,Delhi,"Lodhi Road, Delhi - IITM",16-04-2024 16:00:00,28.588333,77.221667,PM2.5,NA,NA,NA
India,Delhi,Delhi,"Lodhi Road, Delhi - IITM",16-04-2024 16:00:00,28.588333,77.221667,NO2,NA,NA,NA
India,Delhi,Delhi,"Lodhi Road, Delhi - IITM",16-04-2024 16:00:00,28.588333,77.221667,NH3,NA,NA,NA
India,Delhi,Delhi,"Lodhi Road, Delhi - IITM",16-04-2024 16:00:00,28.588333,77.221667,OZONE,16,19,17
India,Delhi,Delhi,"Major Dhyan Chand National Stadium, Delhi - DPCC",16-04-2024 16:00:00,28.611281,77.237738,PM10,59,248,153
India,Delhi,Delhi,"Major Dhyan Chand National Stadium, Delhi - DPCC",16-04-2024 16:00:00,28.611281,77.237738,SO2,3,16,8
India,Delhi,Delhi,"Major Dhyan Chand National Stadium, Delhi - DPCC",16-04-2024 16:00:00,28.611281,77.237738,CO,22,139,41
India,Delhi,Delhi,"Mandir Marg, Delhi - DPCC",16-04-2024 16:00:00,28.636429,77.201067,PM2.5,26,338,161
India,Delhi,Delhi,"NSIT Dwarka, Delhi - CPCB",16-04-2024 16:00:00,28.60909,77.0325413,NO2,10,69,44
India,Delhi,Delhi,"NSIT Dwarka, Delhi - CPCB",16-04-2024 16:00:00,28.60909,77.0325413,NH3,4,31,18
India,Delhi,Delhi,"Najafgarh, Delhi - DPCC",16-04-2024 16:00:00,28.570173,76.933762,NO2,8,73,33
India,Delhi,Delhi,"Narela, Delhi - DPCC",16-04-2024 16:00:00,28.822836,77.101981,PM10,107,472,270
India,Delhi,Delhi,"Narela, Delhi - DPCC",16-04-2024 16:00:00,28.822836,77.101981,OZONE,3,104,51
India,Delhi,Delhi,"Nehru Nagar, Delhi - DPCC",16-04-2024 16:00:00,28.567890,77.250515,PM2.5,33,338,193
India,Delhi,Delhi,"Nehru Nagar, Delhi - DPCC",16-04-2024 16:00:00,28.567890,77.250515,SO2,4,8,6
India,Delhi,Delhi,"New Moti Bagh, Delhi - MHUA",16-04-2024 16:00:00,28.57834,77.18400,PM2.5,38,333,199
India,Delhi,Delhi,"New Moti Bagh, Delhi - MHUA",16-04-2024 16:00:00,28.57834,77.18400,NO2,5,40,19
India,Delhi,Delhi,"Patparganj, Delhi - DPCC",16-04-2024 16:00:00,28.623763,77.287209,PM2.5,27,354,187
India,Delhi,Delhi,"Punjabi Bagh, Delhi - DPCC",16-04-2024 16:00:00,28.674045,77.131023,NO2,29,69,45
India,Delhi,Delhi,"Punjabi Bagh, Delhi - DPCC",16-04-2024 16:00:00,28.674045,77.131023,NH3,4,6,5
India,Delhi,Delhi,"Punjabi Bagh, Delhi - DPCC",16-04-2024 16:00:00,28.674045,77.131023,CO,6,127,28
India,Delhi,Delhi,"Pusa, Delhi - DPCC",16-04-2024 16:00:00,28.639652,77.146275,SO2,9,51,21
India,Delhi,Delhi,"Pusa, Delhi - DPCC",16-04-2024 16:00:00,28.639652,77.146275,CO,19,90,33
India,Delhi,Delhi,"R K Puram, Delhi - DPCC",16-04-2024 16:00:00,28.563262,77.186937,NO2,22,158,91
India,Delhi,Delhi,"R K Puram, Delhi - DPCC",16-04-2024 16:00:00,28.563262,77.186937,NH3,10,16,13
India,Delhi,Delhi,"R K Puram, Delhi - DPCC",16-04-2024 16:00:00,28.563262,77.186937,CO,24,152,37
India,Delhi,Delhi,"Rohini, Delhi - DPCC",16-04-2024 16:00:00,28.732528,77.119920,PM2.5,28,464,245
India,Delhi,Delhi,"Rohini, Delhi - DPCC",16-04-2024 16:00:00,28.732528,77.119920,SO2,4,49,21
India,Delhi,Delhi,"Shadipur, Delhi - CPCB",16-04-2024 16:00:00,28.6514781,77.1473105,PM10,NA,NA,NA
India,Delhi,Delhi,"Shadipur, Delhi - CPCB",16-04-2024 16:00:00,28.6514781,77.1473105,OZONE,32,159,159
India,Delhi,Delhi,"Sirifort, Delhi - CPCB",16-04-2024 16:00:00,28.5504249,77.2159377,SO2,24,32,29
India,Delhi,Delhi,"Sri Aurobindo Marg, Delhi - DPCC",16-04-2024 16:00:00,28.531346,77.190156,PM2.5,34,329,167
India,Delhi,Delhi,"Sri Aurobindo Marg, Delhi - DPCC",16-04-2024 16:00:00,28.531346,77.190156,PM10,79,250,164
India,Delhi,Delhi,"Wazirpur, Delhi - DPCC",16-04-2024 16:00:00,28.699793,77.165453,PM2.5,44,438,264
India,Delhi,Delhi,"Wazirpur, Delhi - DPCC",16-04-2024 16:00:00,28.699793,77.165453,SO2,10,56,22
India,Gujarat,Ahmedabad,"Chandkheda, Ahmedabad - IITM",16-04-2024 16:00:00,23.107969,72.574648,NH3,4,5,5
India,Gujarat,Ahmedabad,"Gyaspur, Ahmedabad - IITM",16-04-2024 16:00:00,22.977134,72.553024,PM10,61,102,82
India,Gujarat,Ahmedabad,"Maninagar, Ahmedabad - GPCB",16-04-2024 16:00:00,23.002657,72.591912,SO2,25,129,58
India,Gujarat,Ahmedabad,"Raikhad, Ahmedabad - IITM",16-04-2024 16:00:00,23.020509,72.579261,NO2,48,102,64
India,Gujarat,Ahmedabad,"Raikhad, Ahmedabad - IITM",16-04-2024 16:00:00,23.020509,72.579261,NH3,NA,NA,NA
India,Gujarat,Ahmedabad,"Rakhial, Ahmedabad - IITM",16-04-2024 16:00:00,23.016834,72.625775,NH3,2,3,2
India,Gujarat,Ahmedabad,"SAC ISRO Satellite, Ahmedabad - IITM",16-04-2024 16:00:00,23.023389,72.515201,SO2,2,10,6
India,Gujarat,Ahmedabad,"SVPI Airport Hansol, Ahmedabad - IITM",16-04-2024 16:00:00,23.076793,72.627874,NH3,NA,NA,NA
India,Gujarat,Ahmedabad,"SVPI Airport Hansol, Ahmedabad - IITM",16-04-2024 16:00:00,23.076793,72.627874,OZONE,27,32,30
India,Gujarat,Ahmedabad,"Sardar Vallabhbhai Patel Stadium, Ahmedabad - IITM",16-04-2024 16:00:00,23.043070,72.562968,PM10,48,108,80
India,Gujarat,Gandhinagar,"IIPHG Lekawada, Gandhinagar - IITM",16-04-2024 16:00:00,23.243639,72.68994,CO,9,21,14
India,Gujarat,Surat,"Science Center, Surat - SMC",16-04-2024 16:00:00,21.170046,72.795405,PM10,6,45,25
India,Gujarat,Vatva,"Phase-4 GIDC, Vatva - GPCB",16-04-2024 16:00:00,22.969611,72.643500,NO2,22,58,39
India,Haryana,Ambala,"Patti Mehar, Ambala - HSPCB",16-04-2024 16:00:00,30.379589,76.778328,NH3,8,8,8
India,Haryana,Ambala,"Patti Mehar, Ambala - HSPCB",16-04-2024 16:00:00,30.379589,76.778328,OZONE,33,51,38
India,Haryana,Bahadurgarh,"Arya Nagar, Bahadurgarh - HSPCB",16-04-2024 16:00:00,28.6701,76.9254,NH3,11,12,11
India,Haryana,Ballabgarh,"Nathu Colony, Ballabgarh - HSPCB",16-04-2024 16:00:00,28.3419248,77.319699,PM2.5,89,335,226
India,Haryana,Ballabgarh,"Nathu Colony, Ballabgarh - HSPCB",16-04-2024 16:00:00,28.3419248,77.319699,PM10,147,403,205
India,Haryana,Ballabgarh,"Nathu Colony, Ballabgarh - HSPCB",16-04-2024 16:00:00,28.3419248,77.319699,OZONE,5,23,18
India,Haryana,Bhiwani,"H.B. Colony, Bhiwani - HSPCB",16-04-2024 16:00:00,28.806223,76.141105,OZONE,6,28,16
India,Haryana,Charkhi Dadri,"Mini Secretariat, Charkhi Dadri - HSPCB",16-04-2024 16:00:00,28.593883,76.270653,NO2,14,25,18
India,Haryana,Dharuhera,"Municipal Corporation Office, Dharuhera -  HSPCB",16-04-2024 16:00:00,28.206800,76.799700,PM2.5,29,230,112
India,Haryana,Dharuhera,"Municipal Corporation Office, Dharuhera -  HSPCB",16-04-2024 16:00:00,28.206800,76.799700,PM10,102,332,176
India,Haryana,Dharuhera,"Municipal Corporation Office, Dharuhera -  HSPCB",16-04-2024 16:00:00,28.206800,76.799700,NO2,46,110,72
India,Haryana,Dharuhera,"Municipal Corporation Office, Dharuhera -  HSPCB",16-04-2024 16:00:00,28.206800,76.799700,SO2,10,16,12
India,Haryana,Faridabad,"New Industrial Town, Faridabad - HSPCB",16-04-2024 16:00:00,28.39072,77.30059,CO,1,64,10
India,Haryana,Faridabad,"New Industrial Town, Faridabad - HSPCB",16-04-2024 16:00:00,28.39072,77.30059,OZONE,20,64,36
India,Haryana,Faridabad,"Sector 11, Faridabad - HSPCB",16-04-2024 16:00:00,28.376058,77.315741,SO2,5,62,12
India,Haryana,Faridabad,"Sector- 16A, Faridabad - HSPCB",16-04-2024 16:00:00,28.4088421,77.3099081,PM2.5,NA,NA,NA
India,Haryana,Fatehabad,"Huda Sector, Fatehabad - HSPCB",16-04-2024 16:00:00,29.503664,75.467934,NH3,9,11,10
India,Haryana,Gurugram,"Vikas Sadan, Gurugram - HSPCB",16-04-2024 16:00:00,28.4501238,77.0263051,NO2,6,26,14
India,Haryana,Gurugram,"Vikas Sadan, Gurugram - HSPCB",16-04-2024 16:00:00,28.4501238,77.0263051,CO,54,149,113
India,Haryana,Gurugram,"Vikas Sadan, Gurugram - HSPCB",16-04-2024 16:00:00,28.4501238,77.0263051,OZONE,8,68,40
India,Haryana,Hisar,"Urban Estate-II, Hisar - HSPCB",16-04-2024 16:00:00,29.140560,75.744941,PM2.5,25,68,48
India,Haryana,Jind,"Police Lines, Jind - HSPCB",16-04-2024 16:00:00,29.307814,76.337619,PM2.5,36,96,64
India,Haryana,Jind,"Police Lines, Jind - HSPCB",16-04-2024 16:00:00,29.307814,76.337619,PM10,57,131,90
India,Haryana,Kaithal,"Rishi Nagar, Kaithal - HSPCB",16-04-2024 16:00:00,29.8006,76.4155,SO2,3,99,14
India,Haryana,Kaithal,"Rishi Nagar, Kaithal - HSPCB",16-04-2024 16:00:00,29.8006,76.4155,OZONE,14,37,18
India,Haryana,Kurukshetra,"Sector-7, Kurukshetra - HSPCB",16-04-2024 16:00:00,29.966942,76.875879,PM2.5,54,141,92
India,Haryana,Kurukshetra,"Sector-7, Kurukshetra - HSPCB",16-04-2024 16:00:00,29.966942,76.875879,OZONE,19,62,41
India,Haryana,Mandikhera,"General Hospital, Mandikhera - HSPCB",16-04-2024 16:00:00,27.9002,76.9938,CO,12,42,15
India,Haryana,Mandikhera,"General Hospital, Mandikhera - HSPCB",16-04-2024 16:00:00,27.9002,76.9938,OZONE,22,31,27
India,Haryana,Manesar,"Sector-2 IMT, Manesar - HSPCB",16-04-2024 16:00:00,28.360699,76.936090,PM10,43,145,91
India,Haryana,Manesar,"Sector-2 IMT, Manesar - HSPCB",16-04-2024 16:00:00,28.360699,76.936090,CO,14,62,29
India,Haryana,Narnaul,"Shastri Nagar, Narnaul - HSPCB",16-04-2024 16:00:00,28.060249,76.113115,NH3,NA,NA,NA
India,Haryana,Palwal,"Shyam Nagar, Palwal - HSPCB",16-04-2024 16:00:00,28.1485564,77.3320667,PM10,122,161,136
India,Haryana,Palwal,"Shyam Nagar, Palwal - HSPCB",16-04-2024 16:00:00,28.1485564,77.3320667,OZONE,7,47,34
India,Haryana,Rohtak,"MD University, Rohtak - HSPCB",16-04-2024 16:00:00,28.52123,76.37138,PM2.5,4,242,126
India,Haryana,Sirsa,"F-Block, Sirsa - HSPCB",16-04-2024 16:00:00,29.536400,75.015800,SO2,2,36,22
India,Haryana,Sirsa,"F-Block, Sirsa - HSPCB",16-04-2024 16:00:00,29.536400,75.015800,OZONE,28,91,73
India,Haryana,Sonipat,"Murthal, Sonipat - HSPCB",16-04-2024 16:00:00,29.027200,77.062100,CO,6,39,24
India,Haryana,Yamuna Nagar,"Gobind Pura, Yamuna Nagar - HSPCB",16-04-2024 16:00:00,30.1480566,77.2893471,NO2,4,29,8
India,Haryana,Yamuna Nagar,"Gobind Pura, Yamuna Nagar - HSPCB",16-04-2024 16:00:00,30.1480566,77.2893471,OZONE,18,31,26
India,Himachal Pradesh,Baddi,"HIMUDA Complex Phase-1, Baddi - HPPCB",16-04-2024 16:00:00,30.943887,76.801991,PM2.5,27,217,78
India,Jharkhand,Dhanbad,"Sardar Patel Nagar, Dhanbad - JSPCB",16-04-2024 16:00:00,23.80569,86.44268,PM2.5,6,244,63
India,Jharkhand,Dhanbad,"Sardar Patel Nagar, Dhanbad - JSPCB",16-04-2024 16:00:00,23.80569,86.44268,PM10,81,377,128
India,Karnataka,Bagalkot,"Vidayagiri, Bagalkot - KSPCB",16-04-2024 16:00:00,16.172806,75.659694,CO,18,56,44
India,Karnataka,Bagalkot,"Vidayagiri, Bagalkot - KSPCB",16-04-2024 16:00:00,16.172806,75.659694,OZONE,NA,NA,NA
India,Karnataka,Bengaluru,"Bapuji Nagar, Bengaluru - KSPCB",16-04-2024 16:00:00,12.951913,77.539784,PM10,NA,NA,NA
India,Karnataka,Bengaluru,"Bapuji Nagar, Bengaluru - KSPCB",16-04-2024 16:00:00,12.951913,77.539784,CO,37,49,44
India,Karnataka,Bengaluru,"Hebbal, Bengaluru - KSPCB",16-04-2024 16:00:00,13.029152,77.585901,PM2.5,17,49,35
India,Karnataka,Bengaluru,"Hebbal, Bengaluru - KSPCB",16-04-2024 16:00:00,13.029152,77.585901,PM10,44,94,66
India,Karnataka,Bengaluru,"RVCE-Mailasandra, Bengaluru - KSPCB",16-04-2024 16:00:00,12.921418,77.502466,PM2.5,37,103,72
India,Karnataka,Bengaluru,"Shivapura_Peenya, Bengaluru - KSPCB",16-04-2024 16:00:00,13.0246342,77.5080115,PM2.5,10,81,35
India,Karnataka,Bengaluru,"Shivapura_Peenya, Bengaluru - KSPCB",16-04-2024 16:00:00,13.0246342,77.5080115,NO2,15,16,16
India,Karnataka,Bengaluru,"Shivapura_Peenya, Bengaluru - KSPCB",16-04-2024 16:00:00,13.0246342,77.5080115,NH3,4,4,4
India,Karnataka,Bengaluru,"Silk Board, Bengaluru - KSPCB",16-04-2024 16:00:00,12.917348,77.622813,PM2.5,23,61,34
India,Karnataka,Bidar,"Naubad, Bidar - KSPCB",16-04-2024 16:00:00,17.930306,77.482194,NO2,7,10,8
India,Karnataka,Bidar,"Naubad, Bidar - KSPCB",16-04-2024 16:00:00,17.930306,77.482194,SO2,13,21,17
India,Karnataka,Chamarajanagar,"Urban, Chamarajanagar - KSPCB",16-04-2024 16:00:00,11.55358,76.55521,PM10,34,58,44
India,Karnataka,Chamarajanagar,"Urban, Chamarajanagar - KSPCB",16-04-2024 16:00:00,11.55358,76.55521,CO,19,28,24
India,Karnataka,Chikkaballapur,"Chikkaballapur Rural, Chikkaballapur - KSPCB",16-04-2024 16:00:00,13.428828,77.731418,NO2,6,17,8
India,Karnataka,Chikkamagaluru,"Kalyana Nagara, Chikkamagaluru - KSPCB",16-04-2024 16:00:00,13.328028,75.797056,NH3,2,4,3
India,Karnataka,Chikkamagaluru,"Kalyana Nagara, Chikkamagaluru - KSPCB",16-04-2024 16:00:00,13.328028,75.797056,SO2,3,8,5
India,Karnataka,Chikkamagaluru,"Kalyana Nagara, Chikkamagaluru - KSPCB",16-04-2024 16:00:00,13.328028,75.797056,CO,11,73,11
India,Karnataka,Davanagere,"Devaraj Urs Badavane, Davanagere - KSPCB",16-04-2024 16:00:00,14.475800,75.905200,PM2.5,28,68,43
India,Karnataka,Gadag,"Panchal Nagar, Gadag - KSPCB",16-04-2024 16:00:00,15.411456,75.638133,PM2.5,26,396,60
India,Karnataka,Gadag,"Panchal Nagar, Gadag - KSPCB",16-04-2024 16:00:00,15.411456,75.638133,OZONE,28,99,54
India,Karnataka,Hassan,"B.Katihalli, Hassan - KSPCB",16-04-2024 16:00:00,13.008556,76.125258,NO2,NA,NA,NA
India,Karnataka,Hassan,"B.Katihalli, Hassan - KSPCB",16-04-2024 16:00:00,13.008556,76.125258,CO,12,15,13
India,Karnataka,Haveri,"Ashwini Nagar, Haveri - KSPCB",16-04-2024 16:00:00,14.791800,75.389600,OZONE,18,20,19
India,Karnataka,Kalaburagi,"Lal Bahadur Shastri Nagar, Kalaburagi - KSPCB",16-04-2024 16:00:00,17.321993,76.822628,PM2.5,13,152,38
India,Karnataka,Kalaburagi,"Lal Bahadur Shastri Nagar, Kalaburagi - KSPCB",16-04-2024 16:00:00,17.321993,76.822628,SO2,9,11,10
India,Karnataka,Kalaburagi,"Lal Bahadur Shastri Nagar, Kalaburagi - KSPCB",16-04-2024 16:00:00,17.321993,76.822628,CO,43,64,44
India,Karnataka,Kalaburagi,"Mahatma Basaveswar Colony, Kalaburgi - KSPCB",16-04-2024 16:00:00,17.336318,76.847397,NH3,3,4,3
India,Karnataka,Karwar,"KHB Colony, Karwar - KSPCB",16-04-2024 16:00:00,14.816666,74.141003,SO2,19,20,19
India,Karnataka,Kolar,"Tamaka Ind. Area, Kolar - KSPCB",16-04-2024 16:00:00,13.1276288,78.1570122,PM2.5,24,302,54
India,Karnataka,Koppal,"Diwator Nagar, Koppal - KSPCB",16-04-2024 16:00:00,15.347630,76.181767,OZONE,26,83,61
India,Karnataka,Madikeri,"Stuart Hill, Madikeri - KSPCB",16-04-2024 16:00:00,12.415911,75.735050,PM10,29,58,39
India,Karnataka,Madikeri,"Stuart Hill, Madikeri - KSPCB",16-04-2024 16:00:00,12.415911,75.735050,NO2,2,7,5
India,Karnataka,Madikeri,"Stuart Hill, Madikeri - KSPCB",16-04-2024 16:00:00,12.415911,75.735050,NH3,1,1,1
India,Karnataka,Mangalore,"Kadri, Mangalore - KSPCB",16-04-2024 16:00:00,12.889250,74.853000,NO2,5,6,6
India,Karnataka,Mysuru,"Hebbal 1st Stage, Mysuru - KSPCB",16-04-2024 16:00:00,12.21041,76.37376,PM2.5,23,57,37
India,Karnataka,Mysuru,"Hebbal 1st Stage, Mysuru - KSPCB",16-04-2024 16:00:00,12.21041,76.37376,SO2,1,6,3
India,Karnataka,Mysuru,"Hebbal 1st Stage, Mysuru - KSPCB",16-04-2024 16:00:00,12.21041,76.37376,CO,2,36,23
India,Karnataka,Ramanagara,"Vijay Nagar, Ramanagara - KSPCB",16-04-2024 16:00:00,12.733409,77.298051,NO2,2,11,4
India,Karnataka,Shivamogga,"Vinoba Nagara, Shivamogga - KSPCB",16-04-2024 16:00:00,13.940000,75.555917,CO,14,50,26
India,Karnataka,Tumakuru,"Thimmalapura, Tumakuru - KSPCB",16-04-2024 16:00:00,13.377516,77.099072,PM2.5,NA,NA,NA
India,Karnataka,Tumakuru,"Thimmalapura, Tumakuru - KSPCB",16-04-2024 16:00:00,13.377516,77.099072,SO2,7,12,8
India,Karnataka,Tumakuru,"Thimmalapura, Tumakuru - KSPCB",16-04-2024 16:00:00,13.377516,77.099072,OZONE,8,55,37
India,Karnataka,Vijayapura,"Ibrahimpur, Vijayapura - KSPCB",16-04-2024 16:00:00,16.802639,75.722694,SO2,22,80,38
India,Karnataka,Yadgir,"Collector Office, Yadgir - KSPCB",16-04-2024 16:00:00,16.7602,77.1428,PM2.5,NA,NA,NA
India,Kerala,Eloor,"Udyogamandal, Eloor - Kerala PCB",16-04-2024 16:00:00,10.073232,76.302765,OZONE,12,28,18
India,Kerala,Kollam,"Polayathode, Kollam - Kerala PCB",16-04-2024 16:00:00,8.8787,76.6073,NH3,1,1,1
India,Kerala,Thiruvananthapuram,"Plammoodu, Thiruvananthapuram - Kerala PCB",16-04-2024 16:00:00,8.5149093,76.9435879,SO2,7,11,9
India,Kerala,Thiruvananthapuram,"Plammoodu, Thiruvananthapuram - Kerala PCB",16-04-2024 16:00:00,8.5149093,76.9435879,CO,14,24,18
India,Madhya Pradesh,Bhopal,"Idgah Hills, Bhopal - MPPCB",16-04-2024 16:00:00,23.264759,77.381568,PM10,48,131,78
India,Madhya Pradesh,Bhopal,"Idgah Hills, Bhopal - MPPCB",16-04-2024 16:00:00,23.264759,77.381568,CO,24,68,36
India,Madhya Pradesh,Bhopal,"Paryavaran Parisar, Bhopal - MPPCB",16-04-2024 16:00:00,23.210494,77.425409,NH3,7,8,8
India,Madhya Pradesh,Bhopal,"Paryavaran Parisar, Bhopal - MPPCB",16-04-2024 16:00:00,23.210494,77.425409,OZONE,7,97,67
India,Madhya Pradesh,Bhopal,"T T Nagar, Bhopal - MPPCB",16-04-2024 16:00:00,23.233584,77.400574,NH3,5,8,7
India,Madhya Pradesh,Dewas,"Bhopal Chauraha, Dewas - MPPCB",16-04-2024 16:00:00,22.9682591,76.064118,NH3,3,3,3
India,Madhya Pradesh,Dewas,"Bhopal Chauraha, Dewas - MPPCB",16-04-2024 16:00:00,22.9682591,76.064118,OZONE,10,47,24
India,Madhya Pradesh,Gwalior,"Deen Dayal Nagar, Gwalior - MPPCB",16-04-2024 16:00:00,26.259242,78.216432,PM2.5,22,259,91
India,Madhya Pradesh,Gwalior,"Deen Dayal Nagar, Gwalior - MPPCB",16-04-2024 16:00:00,26.259242,78.216432,SO2,10,14,12
India,Madhya Pradesh,Gwalior,"Maharaj Bada, Gwalior - MPPCB",16-04-2024 16:00:00,26.200388,78.147714,PM2.5,33,120,60
India,Madhya Pradesh,Gwalior,"Maharaj Bada, Gwalior - MPPCB",16-04-2024 16:00:00,26.200388,78.147714,NO2,16,44,26
India,Madhya Pradesh,Gwalior,"Maharaj Bada, Gwalior - MPPCB",16-04-2024 16:00:00,26.200388,78.147714,NH3,4,17,9
India,Madhya Pradesh,Indore,"Chhoti Gwaltoli, Indore - MPPCB",16-04-2024 16:00:00,22.4310,75.5213,PM2.5,14,296,146
India,Madhya Pradesh,Indore,"Chhoti Gwaltoli, Indore - MPPCB",16-04-2024 16:00:00,22.4310,75.5213,SO2,10,101,40
India,Madhya Pradesh,Indore,"Maguda Nagar, Indore - IMC",16-04-2024 16:00:00,22.7524,75.8872,PM2.5,NA,NA,NA
India,Madhya Pradesh,Indore,"Maguda Nagar, Indore - IMC",16-04-2024 16:00:00,22.7524,75.8872,PM10,NA,NA,NA
India,Madhya Pradesh,Indore,"Maguda Nagar, Indore - IMC",16-04-2024 16:00:00,22.7524,75.8872,SO2,NA,NA,NA
India,Madhya Pradesh,Indore,"Maguda Nagar, Indore - IMC",16-04-2024 16:00:00,22.7524,75.8872,OZONE,36,42,39
India,Madhya Pradesh,Indore,"Regional Park, Indore - IMC",16-04-2024 16:00:00,22.6780,75.8559,PM10,16,90,55
India,Madhya Pradesh,Indore,"Residency Area, Indore - IMC",16-04-2024 16:00:00,22.7084,75.8815,CO,13,24,16
India,Madhya Pradesh,Indore,"Residency Area, Indore - IMC",16-04-2024 16:00:00,22.7084,75.8815,OZONE,10,16,13
India,Madhya Pradesh,Jabalpur,"Govindh Bhavan Colony, Jabalpur - JMC",16-04-2024 16:00:00,23.163174,79.973061,OZONE,5,98,66
India,Madhya Pradesh,Jabalpur,"Gupteshwar, Jabalpur - JMC",16-04-2024 16:00:00,23.142888,79.916147,NH3,6,7,6
India,Madhya Pradesh,Jabalpur,"Gupteshwar, Jabalpur - JMC",16-04-2024 16:00:00,23.142888,79.916147,SO2,4,11,6
India,Madhya Pradesh,Jabalpur,"Marhatal, Jabalpur - MPPCB",16-04-2024 16:00:00,23.168606,79.932247,PM2.5,28,87,49
India,Madhya Pradesh,Jabalpur,"Marhatal, Jabalpur - MPPCB",16-04-2024 16:00:00,23.168606,79.932247,NH3,3,4,3
India,Madhya Pradesh,Jabalpur,"Marhatal, Jabalpur - MPPCB",16-04-2024 16:00:00,23.168606,79.932247,OZONE,22,90,69
India,Madhya Pradesh,Jabalpur,"Suhagi, Jabalpur - JMC",16-04-2024 16:00:00,23.218135,79.957770,SO2,NA,NA,NA
India,Madhya Pradesh,Maihar,"Sahilara, Maihar - KJS Cements",16-04-2024 16:00:00,24.2613009,80.7231783,PM10,16,111,45
India,Madhya Pradesh,Maihar,"Sahilara, Maihar - KJS Cements",16-04-2024 16:00:00,24.2613009,80.7231783,CO,65,79,71
India,Madhya Pradesh,Mandideep,"Sector-D Industrial Area, Mandideep - MPPCB",16-04-2024 16:00:00,23.108440,77.511428,SO2,5,119,55
India,Madhya Pradesh,Mandideep,"Sector-D Industrial Area, Mandideep - MPPCB",16-04-2024 16:00:00,23.108440,77.511428,CO,11,60,29
India,Madhya Pradesh,Pithampur,"Sector-2 Industrial Area, Pithampur - MPPCB",16-04-2024 16:00:00,22.624758,75.675238,PM2.5,11,163,71
India,Madhya Pradesh,Sagar,"Civil Lines, Sagar - MPPCB",16-04-2024 16:00:00,23.838586,78.759431,SO2,1,6,3
India,Madhya Pradesh,Sagar,"Civil Lines, Sagar - MPPCB",16-04-2024 16:00:00,23.838586,78.759431,OZONE,16,102,78
India,Madhya Pradesh,Sagar,"Deen Dayal Nagar, Sagar - MPPCB",16-04-2024 16:00:00,23.8640158,78.80289321,PM2.5,12,33,21
India,Madhya Pradesh,Sagar,"Deen Dayal Nagar, Sagar - MPPCB",16-04-2024 16:00:00,23.8640158,78.80289321,PM10,16,94,42
India,Madhya Pradesh,Sagar,"Deen Dayal Nagar, Sagar - MPPCB",16-04-2024 16:00:00,23.8640158,78.80289321,NO2,23,24,24
India,Madhya Pradesh,Satna,"Bandhavgar Colony, Satna - Birla Cement",16-04-2024 16:00:00,24.58434363,80.8549414,PM10,5,90,44
India,Madhya Pradesh,Satna,"Bandhavgar Colony, Satna - Birla Cement",16-04-2024 16:00:00,24.58434363,80.8549414,NO2,24,66,34
India,Madhya Pradesh,Singrauli,"Suryakiran Bhawan NCL, Singrauli - MPPCB",16-04-2024 16:00:00,24.108970,82.645580,NH3,3,5,4
India,Madhya Pradesh,Singrauli,"Suryakiran Bhawan NCL, Singrauli - MPPCB",16-04-2024 16:00:00,24.108970,82.645580,CO,33,54,45
India,Madhya Pradesh,Singrauli,"Suryakiran Bhawan NCL, Singrauli - MPPCB",16-04-2024 16:00:00,24.108970,82.645580,OZONE,5,70,48
India,Madhya Pradesh,Ujjain,"Mahakaleshwar Temple, Ujjain - MPPCB",16-04-2024 16:00:00,23.182719 ,75.768218 ,NH3,5,11,7
India,Madhya Pradesh,Ujjain,"Mahakaleshwar Temple, Ujjain - MPPCB",16-04-2024 16:00:00,23.182719 ,75.768218 ,SO2,11,36,19
India,Maharashtra,Ahmednagar,"Tarakpur, Ahmednagar - MPCB",16-04-2024 16:00:00,19.10122,74.73339,PM2.5,33,123,68
India,Maharashtra,Ahmednagar,"Tarakpur, Ahmednagar - MPCB",16-04-2024 16:00:00,19.10122,74.73339,NO2,20,85,41
India,Maharashtra,Akola,"Ramdaspeth, Akola - MPCB",16-04-2024 16:00:00,20.719516,77.000253,CO,17,66,23
India,Maharashtra,Amravati,"Shivneri Colony, Amravati - MPCB",16-04-2024 16:00:00,20.9402359,77.7895248,PM10,41,101,62
India,Maharashtra,Amravati,"Shivneri Colony, Amravati - MPCB",16-04-2024 16:00:00,20.9402359,77.7895248,OZONE,2,83,49
India,Maharashtra,Amravati,"Shri Shivaji Science College, Amaravati - MPCB",16-04-2024 16:00:00,20.939198,77.765701,NO2,6,28,14
India,Maharashtra,Aurangabad,"More Chowk Waluj, Aurangabad - MPCB",16-04-2024 16:00:00,19.8389439,75.244448,SO2,1,3,1
India,Maharashtra,Aurangabad,"More Chowk Waluj, Aurangabad - MPCB",16-04-2024 16:00:00,19.8389439,75.244448,OZONE,15,100,72
India,Maharashtra,Belapur,"CBD Belapur, Belapur - MPCB",16-04-2024 16:00:00,19.0243902,73.0406721,NH3,2,5,3
India,Maharashtra,Bhiwandi,"Gokul Nagar, Bhiwandi - MPCB",16-04-2024 16:00:00,19.309073,73.057223,NO2,19,80,42
India,Maharashtra,Bhiwandi,"Gokul Nagar, Bhiwandi - MPCB",16-04-2024 16:00:00,19.309073,73.057223,OZONE,18,208,171
India,Maharashtra,Boisar,"Khaira, Boisar - MPCB",16-04-2024 16:00:00,19.786089,72.757971,PM2.5,13,301,111
India,Maharashtra,Chandrapur,"MIDC Khutala, Chandrapur - MPCB",16-04-2024 16:00:00,19.9775302,79.2337086,NO2,23,79,43
India,Maharashtra,Chandrapur,"MIDC Khutala, Chandrapur - MPCB",16-04-2024 16:00:00,19.9775302,79.2337086,SO2,20,22,21
India,Maharashtra,Chandrapur,"MIDC Khutala, Chandrapur - MPCB",16-04-2024 16:00:00,19.9775302,79.2337086,CO,16,112,50
India,Maharashtra,Dhule,"Deopur, Dhule - MPCB",16-04-2024 16:00:00,20.918946,74.776388,PM2.5,54,94,79
India,Maharashtra,Dhule,"Deopur, Dhule - MPCB",16-04-2024 16:00:00,20.918946,74.776388,NH3,3,5,4
India,Maharashtra,Jalgaon,"Prabhat Colony, Jalgaon - MPCB",16-04-2024 16:00:00,21.001264,75.565602,PM10,82,287,145
India,Maharashtra,Jalna,"Old MIDC, Jalna - MPCB",16-04-2024 16:00:00,19.854616,75.905894,NO2,1,17,14
India,Maharashtra,Kalyan,"Khadakpada, Kalyan - MPCB",16-04-2024 16:00:00,19.25292,73.142019,PM2.5,80,324,186
India,Maharashtra,Kolhapur,"Shivaji University, Kolhapur - MPCB",16-04-2024 16:00:00,16.6870449,74.2505872,PM2.5,75,235,120
India,Maharashtra,Kolhapur,"Shivaji University, Kolhapur - MPCB",16-04-2024 16:00:00,16.6870449,74.2505872,NO2,14,25,19
India,Maharashtra,Kolhapur,"Shivaji University, Kolhapur - MPCB",16-04-2024 16:00:00,16.6870449,74.2505872,CO,34,76,58
India,Maharashtra,Latur,"Sawe Wadi, Latur - MPCB",16-04-2024 16:00:00,18.39963,76.57452,NH3,1,9,2
India,Maharashtra,Mahad,"Kamble Tarf Birwadi, Mahad - MPCB",16-04-2024 16:00:00,18.1023399,73.4783687,PM2.5,69,151,83
India,Maharashtra,Mahad,"Kamble Tarf Birwadi, Mahad - MPCB",16-04-2024 16:00:00,18.1023399,73.4783687,NO2,24,83,54
India,Maharashtra,Mahad,"Kamble Tarf Birwadi, Mahad - MPCB",16-04-2024 16:00:00,18.1023399,73.4783687,CO,22,74,44
India,Maharashtra,Malegaon,"Mahesh Nagar, Malegaon - MPCB",16-04-2024 16:00:00,20.555712,74.529236,PM2.5,91,194,136
India,Maharashtra,Malegaon,"Mahesh Nagar, Malegaon - MPCB",16-04-2024 16:00:00,20.555712,74.529236,OZONE,15,114,82
India,Maharashtra,Mira-Bhayandar,"Bhayandar West, Mira-Bhayandar - MPCB",16-04-2024 16:00:00,19.296481,72.840923,CO,8,60,18
India,Maharashtra,Mumbai,"Borivali East, Mumbai - IITM",16-04-2024 16:00:00,19.23241,72.86895,NH3,1,3,1
India,Maharashtra,Mumbai,"Borivali East, Mumbai - IITM",16-04-2024 16:00:00,19.23241,72.86895,OZONE,34,189,189
India,Maharashtra,Mumbai,"Byculla, Mumbai - BMC",16-04-2024 16:00:00,18.9767,72.8380,PM10,47,100,77
India,Maharashtra,Mumbai,"Chakala-Andheri East, Mumbai - IITM",16-04-2024 16:00:00,19.11074,72.86084,PM10,52,164,114
India,Maharashtra,Mumbai,"Chakala-Andheri East, Mumbai - IITM",16-04-2024 16:00:00,19.11074,72.86084,SO2,40,101,65
India,Maharashtra,Mumbai,"Chakala-Andheri East, Mumbai - IITM",16-04-2024 16:00:00,19.11074,72.86084,OZONE,10,142,65
India,Maharashtra,Mumbai,"Chembur, Mumbai - MPCB",16-04-2024 16:00:00,19.0364585,72.8954371,PM2.5,87,204,148
India,Maharashtra,Mumbai,"Chembur, Mumbai - MPCB",16-04-2024 16:00:00,19.0364585,72.8954371,NO2,19,92,46
India,Maharashtra,Mumbai,"Chembur, Mumbai - MPCB",16-04-2024 16:00:00,19.0364585,72.8954371,NH3,4,5,4
India,Maharashtra,Mumbai,"Chembur, Mumbai - MPCB",16-04-2024 16:00:00,19.0364585,72.8954371,CO,22,66,42
India,Maharashtra,Mumbai,"Chembur, Mumbai - MPCB",16-04-2024 16:00:00,19.0364585,72.8954371,OZONE,6,179,94
India,Maharashtra,Mumbai,"Chhatrapati Shivaji Intl. Airport (T2), Mumbai - MPCB",16-04-2024 16:00:00,19.10078,72.87462,PM10,83,194,137
India,Maharashtra,Mumbai,"Chhatrapati Shivaji Intl. Airport (T2), Mumbai - MPCB",16-04-2024 16:00:00,19.10078,72.87462,OZONE,3,13,8
India,Maharashtra,Mumbai,"Colaba, Mumbai - MPCB",16-04-2024 16:00:00,18.910000,72.820000,PM2.5,42,146,89
India,Maharashtra,Mumbai,"Colaba, Mumbai - MPCB",16-04-2024 16:00:00,18.910000,72.820000,OZONE,10,11,11
India,Maharashtra,Mumbai,"Ghatkopar, Mumbai - BMC",16-04-2024 16:00:00,19.083694,72.920967,PM2.5,NA,NA,NA
India,Maharashtra,Mumbai,"Ghatkopar, Mumbai - BMC",16-04-2024 16:00:00,19.083694,72.920967,PM10,NA,NA,NA
India,Maharashtra,Mumbai,"Ghatkopar, Mumbai - BMC",16-04-2024 16:00:00,19.083694,72.920967,SO2,1,5,2
India,Maharashtra,Mumbai,"Kandivali East, Mumbai - MPCB",16-04-2024 16:00:00,19.205800,72.868200,PM2.5,37,435,114
India,Maharashtra,Mumbai,"Kandivali East, Mumbai - MPCB",16-04-2024 16:00:00,19.205800,72.868200,PM10,66,426,164
India,Maharashtra,Mumbai,"Kandivali West, Mumbai - BMC",16-04-2024 16:00:00,19.215859,72.831718,NH3,1,2,2
India,Maharashtra,Mumbai,"Kandivali West, Mumbai - BMC",16-04-2024 16:00:00,19.215859,72.831718,OZONE,3,144,81
India,Maharashtra,Mumbai,"Kherwadi_Bandra East, Mumbai - MPCB",16-04-2024 16:00:00,19.0632143,72.8456324,PM2.5,59,178,99
India,Maharashtra,Mumbai,"Kherwadi_Bandra East, Mumbai - MPCB",16-04-2024 16:00:00,19.0632143,72.8456324,PM10,75,162,123
India,Maharashtra,Mumbai,"Kherwadi_Bandra East, Mumbai - MPCB",16-04-2024 16:00:00,19.0632143,72.8456324,NO2,13,108,38
India,Maharashtra,Mumbai,"Kherwadi_Bandra East, Mumbai - MPCB",16-04-2024 16:00:00,19.0632143,72.8456324,SO2,4,18,8
India,Maharashtra,Mumbai,"Kherwadi_Bandra East, Mumbai - MPCB",16-04-2024 16:00:00,19.0632143,72.8456324,OZONE,5,194,194
India,Maharashtra,Mumbai,"Khindipada-Bhandup West, Mumbai - IITM",16-04-2024 16:00:00,19.1653323,72.922099,NO2,8,29,15
India,Maharashtra,Mumbai,"Khindipada-Bhandup West, Mumbai - IITM",16-04-2024 16:00:00,19.1653323,72.922099,NH3,6,18,9
India,Maharashtra,Mumbai,"Mindspace-Malad West, Mumbai - MPCB",16-04-2024 16:00:00,19.1878657,72.8304069,PM2.5,60,150,105
India,Maharashtra,Mumbai,"Mindspace-Malad West, Mumbai - MPCB",16-04-2024 16:00:00,19.1878657,72.8304069,SO2,3,10,7
India,Maharashtra,Mumbai,"Mindspace-Malad West, Mumbai - MPCB",16-04-2024 16:00:00,19.1878657,72.8304069,CO,14,57,26
India,Maharashtra,Mumbai,"Mulund West, Mumbai - MPCB",16-04-2024 16:00:00,19.1750,72.9419,NH3,10,11,10
India,Maharashtra,Mumbai,"Mulund West, Mumbai - MPCB",16-04-2024 16:00:00,19.1750,72.9419,CO,35,36,36
India,Maharashtra,Mumbai,"Navy Nagar-Colaba, Mumbai - IITM",16-04-2024 16:00:00,18.897756,72.813320,PM2.5,36,99,71
India,Maharashtra,Mumbai,"Navy Nagar-Colaba, Mumbai - IITM",16-04-2024 16:00:00,18.897756,72.813320,NO2,15,52,22
India,Maharashtra,Mumbai,"Navy Nagar-Colaba, Mumbai - IITM",16-04-2024 16:00:00,18.897756,72.813320,NH3,10,17,11
India,Maharashtra,Mumbai,"Navy Nagar-Colaba, Mumbai - IITM",16-04-2024 16:00:00,18.897756,72.813320,OZONE,46,248,178
India,Maharashtra,Mumbai,"Sewri, Mumbai - BMC",16-04-2024 16:00:00,19.000084,72.856730,NO2,28,106,56
India,Maharashtra,Mumbai,"Shivaji Nagar, Mumbai - BMC",16-04-2024 16:00:00,19.060498,72.923356,NH3,4,9,6
India,Maharashtra,Mumbai,"Shivaji Nagar, Mumbai - BMC",16-04-2024 16:00:00,19.060498,72.923356,OZONE,2,120,72
India,Maharashtra,Mumbai,"Sion, Mumbai - MPCB",16-04-2024 16:00:00,19.047000,72.874600,PM2.5,57,249,106
India,Maharashtra,Mumbai,"Sion, Mumbai - MPCB",16-04-2024 16:00:00,19.047000,72.874600,NH3,1,2,1
India,Maharashtra,Mumbai,"Vasai West, Mumbai - MPCB",16-04-2024 16:00:00,19.383200,72.820400,PM2.5,NA,NA,NA
India,Maharashtra,Mumbai,"Vasai West, Mumbai - MPCB",16-04-2024 16:00:00,19.383200,72.820400,PM10,NA,NA,NA
India,Maharashtra,Mumbai,"Vile Parle West, Mumbai - MPCB",16-04-2024 16:00:00,19.10861,72.83622,NO2,7,16,11
India,Maharashtra,Nagpur,"Mahal, Nagpur - MPCB",16-04-2024 16:00:00,21.14472,79.107595,NO2,9,34,17
India,Maharashtra,Nanded,"Sneh Nagar, Nanded - MPCB",16-04-2024 16:00:00,19.173852,77.296291,PM10,78,359,132
India,Maharashtra,Nashik,"Gangapur Road, Nashik - MPCB",16-04-2024 16:00:00,20.0073285,73.7762427,PM2.5,44,79,56
India,Maharashtra,Nashik,"Gangapur Road, Nashik - MPCB",16-04-2024 16:00:00,20.0073285,73.7762427,OZONE,12,79,51
India,Maharashtra,Nashik,"MIDC Ambad, Nashik - MPCB",16-04-2024 16:00:00,19.950220,73.731480,PM10,51,83,66
India,Maharashtra,Nashik,"Pandav Nagari, Nashik - MPCB",16-04-2024 16:00:00,19.9591346,73.7788008,PM2.5,57,97,76
India,Maharashtra,Nashik,"Pandav Nagari, Nashik - MPCB",16-04-2024 16:00:00,19.9591346,73.7788008,CO,14,35,20
India,Maharashtra,Navi Mumbai,"Mahape, Navi Mumbai - MPCB",16-04-2024 16:00:00,19.1135051,73.008978,NO2,84,89,86
India,Maharashtra,Navi Mumbai,"Nerul, Navi Mumbai - MPCB",16-04-2024 16:00:00,19.008751,73.016620,PM10,122,256,176
India,Maharashtra,Navi Mumbai,"Nerul, Navi Mumbai - MPCB",16-04-2024 16:00:00,19.008751,73.016620,NH3,5,7,5
India,Maharashtra,Navi Mumbai,"Sanpada, Navi Mumbai - MPCB",16-04-2024 16:00:00,19.0575752,73.0151367,NO2,NA,NA,NA
India,Maharashtra,Navi Mumbai,"Sanpada, Navi Mumbai - MPCB",16-04-2024 16:00:00,19.0575752,73.0151367,NH3,NA,NA,NA
India,Maharashtra,Navi Mumbai,"Tondare-Taloja, Navi Mumbai - MPCB",16-04-2024 16:00:00,19.0630,73.1209,NH3,3,6,4
India,Maharashtra,Navi Mumbai,"Tondare-Taloja, Navi Mumbai - MPCB",16-04-2024 16:00:00,19.0630,73.1209,OZONE,3,120,63
India,Maharashtra,Parbhani,"Masoom Colony, Parbhani - MPCB",16-04-2024 16:00:00,19.265594,76.761463,PM10,85,335,154
India,Maharashtra,Parbhani,"Masoom Colony, Parbhani - MPCB",16-04-2024 16:00:00,19.265594,76.761463,NH3,1,5,3
India,Maharashtra,Pimpri-Chinchwad,"Park Street Wakad, Pimpri Chinchwad - MPCB",16-04-2024 16:00:00,18.59051,73.77946,NO2,62,109,78
India,Maharashtra,Pimpri-Chinchwad,"Park Street Wakad, Pimpri Chinchwad - MPCB",16-04-2024 16:00:00,18.59051,73.77946,NH3,7,13,9
India,Maharashtra,Pimpri-Chinchwad,"Park Street Wakad, Pimpri Chinchwad - MPCB",16-04-2024 16:00:00,18.59051,73.77946,SO2,6,15,9
India,Maharashtra,Pimpri-Chinchwad,"Park Street Wakad, Pimpri Chinchwad - MPCB",16-04-2024 16:00:00,18.59051,73.77946,CO,14,60,37
India,Maharashtra,Pimpri-Chinchwad,"Thergaon, Pimpri Chinchwad - MPCB",16-04-2024 16:00:00,18.616318,73.765797,PM2.5,NA,NA,NA
India,Maharashtra,Pimpri-Chinchwad,"Thergaon, Pimpri Chinchwad - MPCB",16-04-2024 16:00:00,18.616318,73.765797,NH3,NA,NA,NA
India,Maharashtra,Pimpri-Chinchwad,"Thergaon, Pimpri Chinchwad - MPCB",16-04-2024 16:00:00,18.616318,73.765797,OZONE,25,137,78
India,Maharashtra,Pune,"Bhosari, Pune - IITM",16-04-2024 16:00:00,18.640051,73.848956,NO2,11,16,14
India,Maharashtra,Pune,"Karve Road, Pune - MPCB",16-04-2024 16:00:00,18.5011743,73.8165527,SO2,NA,NA,NA
India,Maharashtra,Pune,"Revenue Colony-Shivajinagar, Pune - IITM",16-04-2024 16:00:00,18.530085,73.849598,PM2.5,36,87,60
India,Maharashtra,Pune,"Revenue Colony-Shivajinagar, Pune - IITM",16-04-2024 16:00:00,18.530085,73.849598,PM10,39,97,67
India,Maharashtra,Pune,"Revenue Colony-Shivajinagar, Pune - IITM",16-04-2024 16:00:00,18.530085,73.849598,OZONE,4,45,25
India,Maharashtra,Pune,"Savitribai Phule Pune University, Pune - MPCB",16-04-2024 16:00:00,18.547056,73.826908,PM10,65,117,88
India,Maharashtra,Pune,"Savitribai Phule Pune University, Pune - MPCB",16-04-2024 16:00:00,18.547056,73.826908,CO,16,57,28
India,Maharashtra,Sangli,"Vijay Nagar, Sangli - MPCB",16-04-2024 16:00:00, 16.5038,74.3623,NH3,1,3,2
India,Maharashtra,Sangli,"Vijay Nagar, Sangli - MPCB",16-04-2024 16:00:00, 16.5038,74.3623,CO,15,46,27
India,Maharashtra,Sangli,"Vijay Nagar, Sangli - MPCB",16-04-2024 16:00:00, 16.5038,74.3623,OZONE,13,137,95
India,Maharashtra,Solapur,"Ratandeep Housing Society, Solapur - MPCB",16-04-2024 16:00:00,17.65439,75.90649,PM2.5,36,90,57
India,Maharashtra,Solapur,"Solapur, Solapur - MPCB",16-04-2024 16:00:00,17.6599188,75.9063906,PM2.5,79,104,82
India,Maharashtra,Solapur,"Solapur, Solapur - MPCB",16-04-2024 16:00:00,17.6599188,75.9063906,NO2,54,55,54
India,Maharashtra,Thane,"Kasarvadavali, Thane - MPCB",16-04-2024 16:00:00,19.26777,72.97182,SO2,1,21,7
India,Maharashtra,Virar,"Bolinj, Virar - MPCB",16-04-2024 16:00:00,19.4458210,72.7988231,CO,13,102,24
India,Meghalaya,Shillong,"Lumpyngngad, Shillong - Meghalaya PCB",16-04-2024 16:00:00,25.5586,91.8985,CO,13,16,14
India,Mizoram,Aizawl,"Sikulpuikawn, Aizawl - Mizoram PCB",16-04-2024 16:00:00,23.7176342,92.7192841,NH3,1,3,2
India,Mizoram,Aizawl,"Sikulpuikawn, Aizawl - Mizoram PCB",16-04-2024 16:00:00,23.7176342,92.7192841,CO,20,28,22
India,Odisha,Angul,"Hakimapada, Angul - OSPCB",16-04-2024 16:00:00,20.832874,85.104082,CO,10,88,43
India,Odisha,Barbil,"Forest Office, Barbil - OSPCB",16-04-2024 16:00:00,22.1166054,85.3945546,PM10,102,231,147
India,Odisha,Barbil,"Forest Office, Barbil - OSPCB",16-04-2024 16:00:00,22.1166054,85.3945546,OZONE,28,198,170
India,Odisha,Baripada,"Meher Colony, Baripada - OSPCB",16-04-2024 16:00:00,21.941841,86.728318,CO,28,52,42
India,Odisha,Bhubaneswar,"Lingraj Mandir, Bhubaneswar - OSPCB",16-04-2024 16:00:00,20.240790,85.836784,OZONE,2,8,4
India,Odisha,Bhubaneswar,"Patia, Bhubaneswar - OSPCB",16-04-2024 16:00:00,20.34652,85.81630,PM10,38,122,81
India,Odisha,Bileipada,"Tata Township, Bileipada - OSPCB",16-04-2024 16:00:00,22.06156703,85.47409613,OZONE,14,28,24
India,Odisha,Brajrajnagar,"GM Office, Brajrajnagar - OSPCB",16-04-2024 16:00:00,21.8004996,83.8396977,NO2,15,22,16
India,Odisha,Brajrajnagar,"GM Office, Brajrajnagar - OSPCB",16-04-2024 16:00:00,21.8004996,83.8396977,OZONE,14,20,19
India,Odisha,Cuttack,"CDA Area, Cuttack - OSPCB",16-04-2024 16:00:00,20.48891     ,85.84768     ,SO2,1,43,12
India,Odisha,Cuttack,"CDA Area, Cuttack - OSPCB",16-04-2024 16:00:00,20.48891     ,85.84768     ,CO,6,34,30
India,Odisha,Cuttack,"CDA Area, Cuttack - OSPCB",16-04-2024 16:00:00,20.48891     ,85.84768     ,OZONE,7,183,177
India,Odisha,Nayagarh,"Dabuna, Nayagarh - OSPCB",16-04-2024 16:00:00,21.847279,85.416905,OZONE,7,37,24
India,Odisha,Rairangpur,"Divisional Forest Office, Rairangpur - OSPCB",16-04-2024 16:00:00,22.265816,86.174829,OZONE,39,92,73
India,Odisha,Rourkela,"Raghunathpali, Rourkela - OSPCB",16-04-2024 16:00:00,22.220833,84.809444,PM2.5,95,263,180
India,Odisha,Rourkela,"Raghunathpali, Rourkela - OSPCB",16-04-2024 16:00:00,22.220833,84.809444,OZONE,4,94,57
India,Odisha,Rourkela,"Sector-2, Rourkela - OSPCB",16-04-2024 16:00:00,22.24500000,84.88111111,NO2,33,34,34
India,Odisha,Suakati,"OMC Colony, Suakati - OSPCB",16-04-2024 16:00:00,21.606865,85.510538,SO2,8,62,29
India,Odisha,Suakati,"OMC Colony, Suakati - OSPCB",16-04-2024 16:00:00,21.606865,85.510538,CO,20,24,21
India,Odisha,Talcher,"Talcher Coalfields,Talcher - OSPCB",16-04-2024 16:00:00,20.9360711,85.1707021,PM2.5,64,350,143
India,Odisha,Talcher,"Talcher Coalfields,Talcher - OSPCB",16-04-2024 16:00:00,20.9360711,85.1707021,NO2,18,23,20
India,Odisha,Tensa,"Barsua Iron Ore Mines, Tensa - OSPCB",16-04-2024 16:00:00,21.869985,85.167016,OZONE,47,133,94
India,Puducherry,Puducherry,"Jawahar Nagar, Puducherry - PPCC",16-04-2024 16:00:00,11.9309,79.8027,NH3,1,1,1
India,Puducherry,Puducherry,"Jawahar Nagar, Puducherry - PPCC",16-04-2024 16:00:00,11.9309,79.8027,SO2,2,12,8
India,Punjab,Amritsar,"Golden Temple, Amritsar - PPCB",16-04-2024 16:00:00,31.620000,74.876512,NO2,20,37,28
India,Punjab,Bathinda,"Hardev Nagar, Bathinda - PPCB",16-04-2024 16:00:00,30.233011,74.907758,PM2.5,14,94,70
India,Punjab,Jalandhar,"Civil Line, Jalandhar - PPCB",16-04-2024 16:00:00,31.321907,75.578914,PM10,58,112,76
India,Punjab,Jalandhar,"Civil Line, Jalandhar - PPCB",16-04-2024 16:00:00,31.321907,75.578914,CO,22,44,28
India,Punjab,Khanna,"Kalal Majra, Khanna - PPCB",16-04-2024 16:00:00,30.736056 ,76.209694,NH3,15,15,15
India,Punjab,Ludhiana,"Punjab Agricultural University, Ludhiana - PPCB",16-04-2024 16:00:00,30.9028,75.8086,PM10,40,91,62
India,Punjab,Mandi Gobindgarh,"RIMT University, Mandi Gobindgarh - PPCB",16-04-2024 16:00:00,30.649961,76.331442,SO2,3,51,20
India,Punjab,Mandi Gobindgarh,"RIMT University, Mandi Gobindgarh - PPCB",16-04-2024 16:00:00,30.649961,76.331442,CO,12,44,25
India,Punjab,Patiala,"Model Town, Patiala - PPCB",16-04-2024 16:00:00,30.349388,76.366642,PM2.5,35,120,72
India,Punjab,Patiala,"Model Town, Patiala - PPCB",16-04-2024 16:00:00,30.349388,76.366642,CO,18,60,24
India,Punjab,Rupnagar,"Ratanpura, Rupnagar - Ambuja Cements",16-04-2024 16:00:00,31.0325454,76.5623046,PM2.5,47,182,85
India,Punjab,Rupnagar,"Ratanpura, Rupnagar - Ambuja Cements",16-04-2024 16:00:00,31.0325454,76.5623046,PM10,48,129,82
India,Rajasthan,Ajmer,"Civil Lines,  Ajmer - RSPCB",16-04-2024 16:00:00,26.470859,74.646594,NO2,10,14,13
India,Rajasthan,Ajmer,"Civil Lines,  Ajmer - RSPCB",16-04-2024 16:00:00,26.470859,74.646594,NH3,8,10,9
India,Rajasthan,Alwar,"Moti Doongri, Alwar - RSPCB",16-04-2024 16:00:00,27.554793,76.611536,SO2,13,51,20
India,Rajasthan,Alwar,"Moti Doongri, Alwar - RSPCB",16-04-2024 16:00:00,27.554793,76.611536,CO,14,54,25
India,Rajasthan,Banswara,"Rati Talai, Banswara - RSPCB",16-04-2024 16:00:00,23.555190,74.440010,OZONE,2,108,62
India,Rajasthan,Baran,"Bamboliya, Baran - RSPCB",16-04-2024 16:00:00,25.106006,76.469948,NO2,9,55,21
India,Rajasthan,Baran,"Bamboliya, Baran - RSPCB",16-04-2024 16:00:00,25.106006,76.469948,OZONE,8,74,55
India,Rajasthan,Barmer,"Railway Colony, Barmer - RSPCB",16-04-2024 16:00:00,25.747299,71.393989,NH3,7,13,10
India,Rajasthan,Bhiwadi,"RIICO Ind. Area III, Bhiwadi - RSPCB",16-04-2024 16:00:00,28.194909,76.862296,NH3,9,17,12
India,Rajasthan,Bhiwadi,"RIICO Ind. Area III, Bhiwadi - RSPCB",16-04-2024 16:00:00,28.194909,76.862296,CO,15,138,112
India,Rajasthan,Bhiwadi,"RIICO Ind. Area III, Bhiwadi - RSPCB",16-04-2024 16:00:00,28.194909,76.862296,OZONE,4,86,46
India,Rajasthan,Bhiwadi,"Vasundhara Nagar_UIT, Bhiwadi - RSPCB",16-04-2024 16:00:00,28.207266,76.829265,PM2.5,28,363,156
India,Rajasthan,Bhiwadi,"Vasundhara Nagar_UIT, Bhiwadi - RSPCB",16-04-2024 16:00:00,28.207266,76.829265,SO2,6,112,24
India,Rajasthan,Bikaner,"MM Ground, Bikaner - RSPCB",16-04-2024 16:00:00,28.018792,73.292658,NO2,29,56,42
India,Rajasthan,Bikaner,"MM Ground, Bikaner - RSPCB",16-04-2024 16:00:00,28.018792,73.292658,CO,12,55,39
India,Rajasthan,Bundi,"New Colony, Bundi - RSPCB",16-04-2024 16:00:00,25.435774,75.644272,NO2,9,84,24
India,Rajasthan,Bundi,"New Colony, Bundi - RSPCB",16-04-2024 16:00:00,25.435774,75.644272,SO2,3,6,4
India,Rajasthan,Chittorgarh,"Shastri Nagar, Chittorgarh - RSPCB",16-04-2024 16:00:00,24.892047,74.623527,PM10,66,130,89
India,Rajasthan,Churu,"Subash Chowk, Churu - RSPCB",16-04-2024 16:00:00,28.296139,74.961696,PM2.5,17,66,27
India,Rajasthan,Dausa,"Khatikan Mohalla, Dausa - RSPCB",16-04-2024 16:00:00,26.895552,76.334753,PM2.5,4,94,46
India,Rajasthan,Dausa,"Khatikan Mohalla, Dausa - RSPCB",16-04-2024 16:00:00,26.895552,76.334753,PM10,12,116,62
India,Rajasthan,Dausa,"Khatikan Mohalla, Dausa - RSPCB",16-04-2024 16:00:00,26.895552,76.334753,OZONE,9,69,44
India,Rajasthan,Dholpur,"Raja Ganj, Dholpur - RSPCB",16-04-2024 16:00:00,26.699557,77.898881,NH3,10,15,12
India,Rajasthan,Dungarpur,"Bhoiwada, Dungarpur - RSPCB",16-04-2024 16:00:00,23.837789,73.714926,NH3,4,5,4
India,Rajasthan,Hanumangarh,"Housing Board, Hanumangarh - RSPCB",16-04-2024 16:00:00,29.610750,74.283608,CO,53,84,63
India,Rajasthan,Jaipur,"Mansarovar Sector-12, Jaipur - RSPCB",16-04-2024 16:00:00,26.843698,75.766894,CO,1,35,14
India,Rajasthan,Jaipur,"Mansarovar Sector-12, Jaipur - RSPCB",16-04-2024 16:00:00,26.843698,75.766894,OZONE,78,81,80
India,Rajasthan,Jaipur,"Police Commissionerate, Jaipur - RSPCB",16-04-2024 16:00:00,26.9164092,75.7994901,NH3,8,10,9
India,Rajasthan,Jaipur,"Police Commissionerate, Jaipur - RSPCB",16-04-2024 16:00:00,26.9164092,75.7994901,OZONE,14,86,59
India,Rajasthan,Jaipur,"RIICO Sitapura, Jaipur - RSPCB",16-04-2024 16:00:00,26.786682,75.827928,NO2,18,105,43
India,Rajasthan,Jaipur,"RIICO Sitapura, Jaipur - RSPCB",16-04-2024 16:00:00,26.786682,75.827928,NH3,14,25,20
India,Rajasthan,Jaipur,"Shastri Nagar, Jaipur - RSPCB",16-04-2024 16:00:00,26.9502929,75.730943,PM2.5,40,89,57
India,Rajasthan,Jaisalmer,"Sadar Bazar, Jaisalmer - RSPCB",16-04-2024 16:00:00,26.912329,70.909168,CO,14,103,40
India,Rajasthan,Jalore,"Mudtra Sili, Jalore - RSPCB",16-04-2024 16:00:00,25.344694,72.626208,NH3,3,10,6
India,Rajasthan,Jhunjhunu,"Indra Nagar, Jhunjhunu - RSPCB",16-04-2024 16:00:00,28.108988,75.386577,SO2,3,12,5
India,Rajasthan,Jhunjhunu,"Indra Nagar, Jhunjhunu - RSPCB",16-04-2024 16:00:00,28.108988,75.386577,OZONE,18,80,59
India,Rajasthan,Jodhpur,"Digari Kalan, Jodhpur - RSPCB",16-04-2024 16:00:00,26.295810,73.082283,SO2,3,5,4
India,Rajasthan,Jodhpur,"Jhalamand, Jodhpur - RSPCB",16-04-2024 16:00:00,26.215415,73.070156,PM10,24,164,68
India,Rajasthan,Jodhpur,"Jhalamand, Jodhpur - RSPCB",16-04-2024 16:00:00,26.215415,73.070156,NH3,6,22,12
India,Rajasthan,Jodhpur,"Mandor, Jodhpur - RSPCB",16-04-2024 16:00:00,26.358805,73.047444,PM2.5,6,28,14
India,Rajasthan,Jodhpur,"Mandor, Jodhpur - RSPCB",16-04-2024 16:00:00,26.358805,73.047444,NH3,6,13,7
India,Rajasthan,Jodhpur,"Mandor, Jodhpur - RSPCB",16-04-2024 16:00:00,26.358805,73.047444,CO,26,31,28
India,Rajasthan,Jodhpur,"Samrat Ashok Udhyan, Jodhpur - RSPCB",16-04-2024 16:00:00,26.253384,72.976571,NO2,5,37,14
India,Rajasthan,Karauli,"Satyawati Vihar, Karauli - RSPCB",16-04-2024 16:00:00,26.506177,77.025989,CO,8,32,17
India,Rajasthan,Kota,"Dhanmandi, Kota - RSPCB",16-04-2024 16:00:00,25.164090,75.858137,OZONE,5,66,45
India,Rajasthan,Kota,"Nayapura, Kota - RSPCB",16-04-2024 16:00:00,25.196024,75.855668,CO,12,108,20
India,Rajasthan,Kota,"Shrinath Puram, Kota - RSPCB",16-04-2024 16:00:00,25.14389,75.821256,PM2.5,36,181,76
India,Rajasthan,Kota,"Shrinath Puram, Kota - RSPCB",16-04-2024 16:00:00,25.14389,75.821256,PM10,57,122,80
India,Rajasthan,Kota,"Shrinath Puram, Kota - RSPCB",16-04-2024 16:00:00,25.14389,75.821256,SO2,6,61,16
India,Rajasthan,Nagaur,"Karni Colony, Nagaur - RSPCB",16-04-2024 16:00:00,27.213494,73.734444,PM2.5,2,47,17
India,Rajasthan,Nagaur,"Karni Colony, Nagaur - RSPCB",16-04-2024 16:00:00,27.213494,73.734444,PM10,43,130,74
India,Rajasthan,Nagaur,"Karni Colony, Nagaur - RSPCB",16-04-2024 16:00:00,27.213494,73.734444,NH3,6,12,10
India,Rajasthan,Pali,"Indira Colony Vistar, Pali - RSPCB",16-04-2024 16:00:00,25.771061, 73.340227,NH3,1,11,2
India,Rajasthan,Pratapgarh,"Pragati Nagar, Pratapgarh - RSPCB",16-04-2024 16:00:00,24.041198,74.780702,PM2.5,11,36,21
India,Rajasthan,Pratapgarh,"Pragati Nagar, Pratapgarh - RSPCB",16-04-2024 16:00:00,24.041198,74.780702,NH3,4,12,7
India,Rajasthan,Rajsamand,"Dhoinda, Rajsamand - RSPCB",16-04-2024 16:00:00,25.036360,73.883502,NO2,NA,NA,NA
India,Rajasthan,Sawai Madhopur,"Sahu Nagar, Sawai Madhopur - RSPCB",16-04-2024 16:00:00,26.031443,76.359327,PM10,42,163,85
India,Rajasthan,Sawai Madhopur,"Sahu Nagar, Sawai Madhopur - RSPCB",16-04-2024 16:00:00,26.031443,76.359327,NO2,5,44,22
India,Rajasthan,Sikar,"Radhakishan Pura, Sikar - RSPCB",16-04-2024 16:00:00,27.608912,75.153302,PM10,29,132,76
India,Rajasthan,Sirohi,"Vedhaynath Colony, Sirohi - RSPCB",16-04-2024 16:00:00,24.885261,72.857549,PM2.5,12,45,27
India,Rajasthan,Sirohi,"Vedhaynath Colony, Sirohi - RSPCB",16-04-2024 16:00:00,24.885261,72.857549,NO2,6,55,21
India,Rajasthan,Sirohi,"Vedhaynath Colony, Sirohi - RSPCB",16-04-2024 16:00:00,24.885261,72.857549,NH3,4,12,8
India,Rajasthan,Sri Ganganagar,"Old City, Sri Ganganagar - RSPCB",16-04-2024 16:00:00,29.931624,73.864511,OZONE,10,59,35
India,Sikkim,Gangtok,"Zero Point GICI, Gangtok - SSPCB",16-04-2024 16:00:00,27.338530,88.614099,SO2,11,12,11
India,TamilNadu,Chengalpattu,"Crescent University, Chengalpattu - TNPCB",16-04-2024 16:00:00,12.8777316,80.0834807,NO2,NA,NA,NA
India,TamilNadu,Chengalpattu,"Crescent University, Chengalpattu - TNPCB",16-04-2024 16:00:00,12.8777316,80.0834807,SO2,NA,NA,NA
India,TamilNadu,Chennai,"Alandur Bus Depot, Chennai - CPCB",16-04-2024 16:00:00,12.9099161,80.1076538,CO,34,107,72
India,TamilNadu,Chennai,"Kodungaiyur, Chennai - TNPCB",16-04-2024 16:00:00,13.1278,80.2642,PM2.5,11,38,22
India,TamilNadu,Chennai,"Perungudi, Chennai - TNPCB",16-04-2024 16:00:00,12.9533,80.2357,PM10,56,162,77
India,TamilNadu,Chennai,"Perungudi, Chennai - TNPCB",16-04-2024 16:00:00,12.9533,80.2357,SO2,1,7,2
India,TamilNadu,Chennai,"Royapuram, Chennai - TNPCB",16-04-2024 16:00:00,13.1036,80.2909,PM2.5,25,56,36
India,TamilNadu,Chennai,"Royapuram, Chennai - TNPCB",16-04-2024 16:00:00,13.1036,80.2909,PM10,34,95,52
India,TamilNadu,Chennai,"Royapuram, Chennai - TNPCB",16-04-2024 16:00:00,13.1036,80.2909,NO2,8,22,14
India,TamilNadu,Chennai,"Royapuram, Chennai - TNPCB",16-04-2024 16:00:00,13.1036,80.2909,CO,22,38,30
India,TamilNadu,Chennai,"Velachery Res. Area, Chennai - CPCB",16-04-2024 16:00:00,13.0052189,80.2398125,NO2,9,26,15
India,TamilNadu,Coimbatore,"PSG College of Arts and Science, Coimbatore - TNPCB",16-04-2024 16:00:00,11.0328,77.0349,NH3,1,1,1
India,TamilNadu,Coimbatore,"PSG College of Arts and Science, Coimbatore - TNPCB",16-04-2024 16:00:00,11.0328,77.0349,SO2,19,34,23
India,TamilNadu,Cuddalore,"Kudikadu, Cuddalore - TNPCB",16-04-2024 16:00:00,11.6829898,79.7532099,PM10,NA,NA,NA
India,TamilNadu,Kanchipuram,"Kilambi, Kanchipuram - TNPCB",16-04-2024 16:00:00,12.864618,79.659968,PM2.5,NA,NA,NA
India,TamilNadu,Palkalaiperur,"Bharathidasan University, Palkalaiperur - TNPCB",16-04-2024 16:00:00,10.681158,78.741746,PM2.5,19,32,23
India,TamilNadu,Palkalaiperur,"Bharathidasan University, Palkalaiperur - TNPCB",16-04-2024 16:00:00,10.681158,78.741746,CO,2,6,4
India,TamilNadu,Salem,"Sona College of Technology, Salem - TNPCB",16-04-2024 16:00:00,11.679111,78.125052,NH3,1,1,1
India,TamilNadu,Thoothukudi,"Meelavittan, Thoothukudi - TNPCB",16-04-2024 16:00:00,8.816428 ,78.099039,PM10,8,32,22
India,TamilNadu,Thoothukudi,"Meelavittan, Thoothukudi - TNPCB",16-04-2024 16:00:00,8.816428 ,78.099039,NO2,24,33,28
India,TamilNadu,Thoothukudi,"Meelavittan, Thoothukudi - TNPCB",16-04-2024 16:00:00,8.816428 ,78.099039,SO2,NA,NA,NA
India,TamilNadu,Tirupur,"Kumaran College, Tirupur - TNPCB",16-04-2024 16:00:00,11.0973603,77.3228673,PM2.5,8,38,17
India,TamilNadu,Tirupur,"Kumaran College, Tirupur - TNPCB",16-04-2024 16:00:00,11.0973603,77.3228673,SO2,22,24,23
India,TamilNadu,Virudhunagar,"Collectorate Office, Virudhunagar - TNPCB",16-04-2024 16:00:00,9.559382,77.948828,CO,26,28,27
India,Telangana,Hyderabad,"Bollaram Industrial Area, Hyderabad - TSPCB",16-04-2024 16:00:00,17.540891,78.358528,PM10,62,128,90
India,Telangana,Hyderabad,"Bollaram Industrial Area, Hyderabad - TSPCB",16-04-2024 16:00:00,17.540891,78.358528,NH3,2,4,3
India,Telangana,Hyderabad,"Central University, Hyderabad - TSPCB",16-04-2024 16:00:00,17.460103,78.334361,NO2,20,42,30
India,Telangana,Hyderabad,"Central University, Hyderabad - TSPCB",16-04-2024 16:00:00,17.460103,78.334361,CO,5,44,17
India,Telangana,Hyderabad,"ECIL Kapra, Hyderabad - TSPCB",16-04-2024 16:00:00,17.470431,78.566959,OZONE,17,123,82
India,Telangana,Hyderabad,"ICRISAT Patancheru, Hyderabad - TSPCB",16-04-2024 16:00:00,17.518400,78.278777,PM2.5,32,125,61
India,Telangana,Hyderabad,"ICRISAT Patancheru, Hyderabad - TSPCB",16-04-2024 16:00:00,17.518400,78.278777,SO2,15,32,22
India,Telangana,Hyderabad,"IITH Kandi, Hyderabad - TSPCB",16-04-2024 16:00:00,17.585705,78.126199,PM2.5,NA,NA,NA
India,Telangana,Hyderabad,"Kokapet, Hyderabad - TSPCB",16-04-2024 16:00:00,17.393559,78.339194,PM10,74,80,77
India,Telangana,Hyderabad,"Kokapet, Hyderabad - TSPCB",16-04-2024 16:00:00,17.393559,78.339194,NH3,2,2,2
India,Telangana,Hyderabad,"Kokapet, Hyderabad - TSPCB",16-04-2024 16:00:00,17.393559,78.339194,OZONE,3,13,7
India,Telangana,Hyderabad,"Kompally Municipal Office, Hyderabad - TSPCB",16-04-2024 16:00:00,17.544899,78.486949,OZONE,29,103,69
India,Telangana,Hyderabad,"Nacharam_TSIIC IALA, Hyderabad - TSPCB",16-04-2024 16:00:00,17.429398,78.569354,PM2.5,NA,NA,NA
India,Telangana,Hyderabad,"Nacharam_TSIIC IALA, Hyderabad - TSPCB",16-04-2024 16:00:00,17.429398,78.569354,SO2,NA,NA,NA
India,Telangana,Hyderabad,"Nacharam_TSIIC IALA, Hyderabad - TSPCB",16-04-2024 16:00:00,17.429398,78.569354,OZONE,37,79,40
India,Telangana,Hyderabad,"New Malakpet, Hyderabad - TSPCB",16-04-2024 16:00:00,17.37206,78.50864,PM2.5,29,94,57
India,Telangana,Hyderabad,"New Malakpet, Hyderabad - TSPCB",16-04-2024 16:00:00,17.37206,78.50864,NH3,3,4,3
India,Telangana,Hyderabad,"Ramachandrapuram, Hyderabad - TSPCB",16-04-2024 16:00:00,17.528544,78.286195,PM2.5,NA,NA,NA
India,Telangana,Hyderabad,"Ramachandrapuram, Hyderabad - TSPCB",16-04-2024 16:00:00,17.528544,78.286195,NO2,NA,NA,NA
India,Telangana,Hyderabad,"Ramachandrapuram, Hyderabad - TSPCB",16-04-2024 16:00:00,17.528544,78.286195,NH3,NA,NA,NA
India,Telangana,Hyderabad,"Sanathnagar, Hyderabad - TSPCB",16-04-2024 16:00:00,17.4559458,78.4332152,PM2.5,50,85,64
India,Telangana,Hyderabad,"Sanathnagar, Hyderabad - TSPCB",16-04-2024 16:00:00,17.4559458,78.4332152,CO,36,48,42
India,Telangana,Hyderabad,"Somajiguda, Hyderabad - TSPCB",16-04-2024 16:00:00,17.417094,78.457437,PM2.5,29,56,42
India,Telangana,Hyderabad,"Zoo Park, Hyderabad - TSPCB",16-04-2024 16:00:00,17.349694,78.451437,OZONE,17,29,23
India,Tripura,Agartala,"Bardowali, Agartala - Tripura SPCB",16-04-2024 16:00:00,23.8175497,91.2726974,PM2.5,119,307,215
India,Uttar_Pradesh,Agra,"Manoharpur, Agra - UPPCB",16-04-2024 16:00:00,27.23711,78.01936,CO,5,14,9
India,Uttar_Pradesh,Agra,"Sanjay Palace, Agra - UPPCB",16-04-2024 16:00:00,27.19865833,78.00598056,PM2.5,5,38,23
India,Uttar_Pradesh,Agra,"Sanjay Palace, Agra - UPPCB",16-04-2024 16:00:00,27.19865833,78.00598056,NO2,22,35,28
India,Uttar_Pradesh,Agra,"Shahjahan Garden, Agra - UPPCB",16-04-2024 16:00:00,27.169338,78.03582,PM2.5,9,85,46
India,Uttar_Pradesh,Agra,"Shahjahan Garden, Agra - UPPCB",16-04-2024 16:00:00,27.169338,78.03582,PM10,48,134,87
India,Uttar_Pradesh,Agra,"Shahjahan Garden, Agra - UPPCB",16-04-2024 16:00:00,27.169338,78.03582,OZONE,1,24,6
India,Uttar_Pradesh,Agra,"Shastripuram, Agra - UPPCB",16-04-2024 16:00:00,27.19862,77.92066,PM2.5,13,108,54
India,Uttar_Pradesh,Agra,"Shastripuram, Agra - UPPCB",16-04-2024 16:00:00,27.19862,77.92066,PM10,57,146,104
India,Uttar_Pradesh,Agra,"Shastripuram, Agra - UPPCB",16-04-2024 16:00:00,27.19862,77.92066,CO,6,16,11
India,Uttar_Pradesh,Baghpat,"Sardar Patel Inter College, Baghpat - UPPCB",16-04-2024 16:00:00,28.964949,77.278761,NH3,1,8,4
India,Uttar_Pradesh,Baghpat,"Sardar Patel Inter College, Baghpat - UPPCB",16-04-2024 16:00:00,28.964949,77.278761,OZONE,4,73,47
India,Uttar_Pradesh,Bareilly,"Civil Lines, Bareilly - UPPCB",16-04-2024 16:00:00,28.359581,79.414455,PM2.5,5,10,8
India,Uttar_Pradesh,Bareilly,"Civil Lines, Bareilly - UPPCB",16-04-2024 16:00:00,28.359581,79.414455,PM10,56,91,80
India,Uttar_Pradesh,Bareilly,"Rajendra Nagar, Bareilly - UPPCB",16-04-2024 16:00:00,28.38910936,79.42963708,OZONE,NA,NA,NA
India,Uttar_Pradesh,Bulandshahr,"Yamunapuram, Bulandshahr - UPPCB",16-04-2024 16:00:00,28.406963,77.849831,PM2.5,28,322,138
India,Uttar_Pradesh,Bulandshahr,"Yamunapuram, Bulandshahr - UPPCB",16-04-2024 16:00:00,28.406963,77.849831,SO2,1,100,28
India,Uttar_Pradesh,Firozabad,"Nagla Bhau, Firozabad - UPPCB",16-04-2024 16:00:00,27.168897,78.376960,NH3,2,2,2
India,Uttar_Pradesh,Firozabad,"Vibhab Nagar, Firozabad - UPPCB",16-04-2024 16:00:00,27.1594,78.3953,PM10,33,88,56
India,Uttar_Pradesh,Firozabad,"Vibhab Nagar, Firozabad - UPPCB",16-04-2024 16:00:00,27.1594,78.3953,NO2,14,15,14
India,Uttar_Pradesh,Firozabad,"Vibhab Nagar, Firozabad - UPPCB",16-04-2024 16:00:00,27.1594,78.3953,CO,14,24,20
India,Uttar_Pradesh,Firozabad,"Vibhab Nagar, Firozabad - UPPCB",16-04-2024 16:00:00,27.1594,78.3953,OZONE,19,110,32
India,Uttar_Pradesh,Ghaziabad,"Indirapuram, Ghaziabad - UPPCB",16-04-2024 16:00:00,28.646233,77.358075,NO2,23,68,50
India,Uttar_Pradesh,Ghaziabad,"Indirapuram, Ghaziabad - UPPCB",16-04-2024 16:00:00,28.646233,77.358075,NH3,7,14,10
India,Uttar_Pradesh,Ghaziabad,"Indirapuram, Ghaziabad - UPPCB",16-04-2024 16:00:00,28.646233,77.358075,CO,12,137,29
India,Uttar_Pradesh,Ghaziabad,"Loni, Ghaziabad - UPPCB",16-04-2024 16:00:00,28.757294,77.278792,NH3,1,8,4
India,Uttar_Pradesh,Ghaziabad,"Loni, Ghaziabad - UPPCB",16-04-2024 16:00:00,28.757294,77.278792,SO2,8,81,35
India,Uttar_Pradesh,Ghaziabad,"Sanjay Nagar, Ghaziabad - UPPCB",16-04-2024 16:00:00,28.685382,77.453839,PM10,105,408,170
India,Uttar_Pradesh,Ghaziabad,"Vasundhara, Ghaziabad - UPPCB",16-04-2024 16:00:00,28.6603346,77.3572563,PM2.5,20,316,129
India,Uttar_Pradesh,Ghaziabad,"Vasundhara, Ghaziabad - UPPCB",16-04-2024 16:00:00,28.6603346,77.3572563,SO2,7,59,30
India,Uttar_Pradesh,Greater Noida,"Knowledge Park - III, Greater Noida - UPPCB",16-04-2024 16:00:00,28.47272,77.482000,SO2,3,38,25
India,Uttar_Pradesh,Greater Noida,"Knowledge Park - III, Greater Noida - UPPCB",16-04-2024 16:00:00,28.47272,77.482000,OZONE,6,159,73
India,Uttar_Pradesh,Jhansi,"Shivaji Nagar, Jhansi - UPPCB",16-04-2024 16:00:00,25.4547,78.6039,PM10,9,76,36
India,Uttar_Pradesh,Kanpur,"NSI Kalyanpur, Kanpur - UPPCB",16-04-2024 16:00:00,26.509954,80.249612,PM10,65,177,120
India,Uttar_Pradesh,Kanpur,"Nehru Nagar, Kanpur - UPPCB",16-04-2024 16:00:00,26.4703136,80.3229863,OZONE,75,138,115
India,Uttar_Pradesh,Khurja,"Kalindi Kunj, Khurja - UPPCB",16-04-2024 16:00:00,28.2348927,77.8683002,OZONE,24,31,28
India,Uttar_Pradesh,Lucknow,"B R Ambedkar University, Lucknow - UPPCB",16-04-2024 16:00:00,26.766433,80.927299,PM10,76,134,116
India,Uttar_Pradesh,Lucknow,"B R Ambedkar University, Lucknow - UPPCB",16-04-2024 16:00:00,26.766433,80.927299,CO,19,35,24
India,Uttar_Pradesh,Lucknow,"Gomti Nagar, Lucknow - UPPCB",16-04-2024 16:00:00,26.868120,81.005119,PM10,66,179,110
India,Uttar_Pradesh,Lucknow,"Kendriya Vidyalaya, Lucknow - CPCB",16-04-2024 16:00:00,26.906111,80.948222,PM10,103,151,116
India,Uttar_Pradesh,Lucknow,"Kendriya Vidyalaya, Lucknow - CPCB",16-04-2024 16:00:00,26.906111,80.948222,CO,12,52,28
India,Uttar_Pradesh,Lucknow,"Kukrail Picnic Spot-1, Lucknow - UPPCB",16-04-2024 16:00:00,26.90723,80.98579,NH3,2,2,2
India,Uttar_Pradesh,Lucknow,"Lalbagh, Lucknow - CPCB",16-04-2024 16:00:00,26.8458805,80.9365541,NH3,29,30,29
India,Uttar_Pradesh,Meerut,"Ganga Nagar, Meerut - UPPCB",16-04-2024 16:00:00,28.999264,77.7590354,NH3,9,26,13
India,Uttar_Pradesh,Meerut,"Ganga Nagar, Meerut - UPPCB",16-04-2024 16:00:00,28.999264,77.7590354,OZONE,5,100,63
India,Uttar_Pradesh,Meerut,"Jai Bhim Nagar, Meerut - UPPCB",16-04-2024 16:00:00,28.9535882,77.7622941,PM2.5,23,259,112
India,Uttar_Pradesh,Meerut,"Pallavpuram Phase 2, Meerut - UPPCB",16-04-2024 16:00:00,29.063510,77.709723,NH3,11,14,13
India,Uttar_Pradesh,Meerut,"Pallavpuram Phase 2, Meerut - UPPCB",16-04-2024 16:00:00,29.063510,77.709723,CO,24,112,53
India,Uttar_Pradesh,Meerut,"Pallavpuram Phase 2, Meerut - UPPCB",16-04-2024 16:00:00,29.063510,77.709723,OZONE,9,76,53
India,Uttar_Pradesh,Moradabad,"Buddhi Vihar, Moradabad - UPPCB",16-04-2024 16:00:00,28.83526,78.74460,CO,18,43,28
India,Uttar_Pradesh,Moradabad,"Eco Herbal Park, Moradabad - UPPCB",16-04-2024 16:00:00,28.840739,78.697531,NH3,11,69,23
India,Uttar_Pradesh,Moradabad,"Employment Office, Moradabad - UPPCB",16-04-2024 16:00:00,28.88528,78.73880,PM2.5,28,92,59
India,Uttar_Pradesh,Moradabad,"Employment Office, Moradabad - UPPCB",16-04-2024 16:00:00,28.88528,78.73880,CO,18,60,29
India,Uttar_Pradesh,Moradabad,"Employment Office, Moradabad - UPPCB",16-04-2024 16:00:00,28.88528,78.73880,OZONE,2,57,29
India,Uttar_Pradesh,Moradabad,"Kashiram Nagar, Moradabad - UPPCB",16-04-2024 16:00:00,28.849399,78.742362,PM10,49,143,105
India,Uttar_Pradesh,Moradabad,"Kashiram Nagar, Moradabad - UPPCB",16-04-2024 16:00:00,28.849399,78.742362,CO,26,72,36
India,Uttar_Pradesh,Moradabad,"Kashiram Nagar, Moradabad - UPPCB",16-04-2024 16:00:00,28.849399,78.742362,OZONE,18,36,26
India,Uttar_Pradesh,Moradabad,"Transport Nagar, Moradabad - UPPCB",16-04-2024 16:00:00,28.802625,78.753728,PM10,56,118,83
India,Uttar_Pradesh,Moradabad,"Transport Nagar, Moradabad - UPPCB",16-04-2024 16:00:00,28.802625,78.753728,CO,39,42,40
India,Uttar_Pradesh,Noida,"Sector-1, Noida - UPPCB",16-04-2024 16:00:00,28.5898,77.3101,PM10,112,290,197
India,Uttar_Pradesh,Noida,"Sector-1, Noida - UPPCB",16-04-2024 16:00:00,28.5898,77.3101,NO2,33,160,98
India,Uttar_Pradesh,Noida,"Sector-1, Noida - UPPCB",16-04-2024 16:00:00,28.5898,77.3101,CO,10,116,24
India,Uttar_Pradesh,Noida,"Sector-116, Noida - UPPCB",16-04-2024 16:00:00,28.569230,77.393848,CO,8,109,27
India,Uttar_Pradesh,Prayagraj,"Jhunsi, Prayagraj - UPPCB",16-04-2024 16:00:00,25.425602,81.917152,PM2.5,27,55,37
India,Uttar_Pradesh,Prayagraj,"Motilal Nehru NIT, Prayagraj - UPPCB",16-04-2024 16:00:00,25.494,81.863,PM10,NA,NA,NA
India,Uttar_Pradesh,Prayagraj,"Motilal Nehru NIT, Prayagraj - UPPCB",16-04-2024 16:00:00,25.494,81.863,NO2,NA,NA,NA
India,Uttar_Pradesh,Varanasi,"Bhelupur, Varanasi - UPPCB",16-04-2024 16:00:00,25.301778,82.996789,PM2.5,4,15,10
India,Uttar_Pradesh,Varanasi,"Bhelupur, Varanasi - UPPCB",16-04-2024 16:00:00,25.301778,82.996789,PM10,27,58,38
India,Uttar_Pradesh,Varanasi,"Bhelupur, Varanasi - UPPCB",16-04-2024 16:00:00,25.301778,82.996789,SO2,27,32,28
India,Uttar_Pradesh,Varanasi,"Bhelupur, Varanasi - UPPCB",16-04-2024 16:00:00,25.301778,82.996789,OZONE,2,32,25
India,Uttar_Pradesh,Varanasi,"IESD Banaras Hindu University, Varanasi - UPPCB",16-04-2024 16:00:00,25.262326,82.995408,NO2,2,3,2
India,Uttar_Pradesh,Varanasi,"IESD Banaras Hindu University, Varanasi - UPPCB",16-04-2024 16:00:00,25.262326,82.995408,CO,6,23,11
India,Uttar_Pradesh,Vrindavan,"Omex Eternity, Vrindavan - UPPCB",16-04-2024 16:00:00,27.5714090,77.6557570,NH3,1,2,1
India,Uttar_Pradesh,Vrindavan,"Omex Eternity, Vrindavan - UPPCB",16-04-2024 16:00:00,27.5714090,77.6557570,OZONE,31,33,32
India,Uttarakhand,Dehradun,"Doon University, Dehradun - UKPCB",16-04-2024 16:00:00,30.269444,78.044167,PM10,34,150,101
India,Uttarakhand,Kashipur,"Govt. Girls Inter College, Kashipur - UKPCB",16-04-2024 16:00:00,29.2124114,78.9611753,CO,25,88,45
India,West_Bengal,Asansol,"Asansol Court Area, Asansol - WBPCB",16-04-2024 16:00:00,23.685297,86.945968,SO2,8,28,15
India,West_Bengal,Asansol,"Asansol Court Area, Asansol - WBPCB",16-04-2024 16:00:00,23.685297,86.945968,CO,30,98,54
India,West_Bengal,Barrackpore,"SVSPA Campus, Barrackpore - WBPCB",16-04-2024 16:00:00,22.7605581,88.3617589,PM2.5,NA,NA,NA
India,West_Bengal,Barrackpore,"SVSPA Campus, Barrackpore - WBPCB",16-04-2024 16:00:00,22.7605581,88.3617589,CO,2,16,2
India,West_Bengal,Durgapur,"Sidhu Kanhu Indoor Stadium, Durgapur - WBPCB",16-04-2024 16:00:00,23.5404352,87.2892225,CO,30,105,56
India,West_Bengal,Haldia,"Priyambada Housing Estate, Haldia - WBPCB",16-04-2024 16:00:00,22.06047,88.109737,PM2.5,19,61,36
India,West_Bengal,Haldia,"Priyambada Housing Estate, Haldia - WBPCB",16-04-2024 16:00:00,22.06047,88.109737,CO,20,32,29
India,West_Bengal,Haldia,"Priyambada Housing Estate, Haldia - WBPCB",16-04-2024 16:00:00,22.06047,88.109737,OZONE,11,38,26
India,West_Bengal,Howrah,"Ghusuri, Howrah - WBPCB",16-04-2024 16:00:00,22.611968,88.347422,NO2,10,21,16
India,West_Bengal,Howrah,"Ghusuri, Howrah - WBPCB",16-04-2024 16:00:00,22.611968,88.347422,OZONE,15,27,21
India,West_Bengal,Howrah,"Padmapukur, Howrah - WBPCB",16-04-2024 16:00:00,22.5687319,88.2797276,NO2,7,9,8
India,West_Bengal,Kolkata,"Bidhannagar, Kolkata - WBPCB",16-04-2024 16:00:00,22.58157048,88.41002457,OZONE,25,111,71
India,West_Bengal,Kolkata,"Jadavpur, Kolkata - WBPCB",16-04-2024 16:00:00,22.49929,88.36917,SO2,4,21,10
India,West_Bengal,Kolkata,"Jadavpur, Kolkata - WBPCB",16-04-2024 16:00:00,22.49929,88.36917,CO,8,18,14
India,West_Bengal,Kolkata,"Rabindra Bharati University, Kolkata - WBPCB",16-04-2024 16:00:00,22.627847,88.380669,NO2,37,42,40
India,West_Bengal,Kolkata,"Rabindra Bharati University, Kolkata - WBPCB",16-04-2024 16:00:00,22.627847,88.380669,NH3,17,18,17
India,West_Bengal,Kolkata,"Victoria, Kolkata - WBPCB",16-04-2024 16:00:00,22.5448082,88.3403691,SO2,9,20,14
India,West_Bengal,Siliguri,"Ward-32 Bapupara, Siliguri - WBPCB",16-04-2024 16:00:00,26.6879226,88.4152495,CO,16,64,29
India,Andhra_Pradesh,Anantapur,"Gulzarpet, Anantapur - APPCB",16-04-2024 16:00:00,14.675886,77.593027,PM2.5,16,54,31
India,Andhra_Pradesh,Anantapur,"Gulzarpet, Anantapur - APPCB",16-04-2024 16:00:00,14.675886,77.593027,SO2,5,22,8
India,Andhra_Pradesh,Chittoor,"Gangineni Cheruvu, Chittoor - APPCB",16-04-2024 16:00:00,13.204880,79.097889,PM2.5,41,239,75
India,Andhra_Pradesh,Chittoor,"Gangineni Cheruvu, Chittoor - APPCB",16-04-2024 16:00:00,13.204880,79.097889,OZONE,90,148,102
India,Andhra_Pradesh,Rajamahendravaram,"Anand Kala Kshetram, Rajamahendravaram - APPCB",16-04-2024 16:00:00,16.9872867,81.7363176,PM2.5,36,61,45
India,Andhra_Pradesh,Rajamahendravaram,"Anand Kala Kshetram, Rajamahendravaram - APPCB",16-04-2024 16:00:00,16.9872867,81.7363176,NO2,11,25,17
India,Andhra_Pradesh,Rajamahendravaram,"Anand Kala Kshetram, Rajamahendravaram - APPCB",16-04-2024 16:00:00,16.9872867,81.7363176,NH3,3,5,4
India,Andhra_Pradesh,Rajamahendravaram,"Anand Kala Kshetram, Rajamahendravaram - APPCB",16-04-2024 16:00:00,16.9872867,81.7363176,CO,24,40,31
India,Andhra_Pradesh,Tirupati,"Vaikuntapuram, Tirupati - APPCB",16-04-2024 16:00:00,13.615387,79.409230,PM2.5,23,88,48
India,Andhra_Pradesh,Tirupati,"Vaikuntapuram, Tirupati - APPCB",16-04-2024 16:00:00,13.615387,79.409230,SO2,5,5,5
India,Andhra_Pradesh,Vijayawada,"HB Colony, Vijayawada - APPCB",16-04-2024 16:00:00,16.536107,80.594233,SO2,2,4,3
India,Andhra_Pradesh,Vijayawada,"HB Colony, Vijayawada - APPCB",16-04-2024 16:00:00,16.536107,80.594233,CO,28,28,28
India,Andhra_Pradesh,Vijayawada,"Rajiv Gandhi Park, Vijayawada - APPCB",16-04-2024 16:00:00,16.509717,80.612222,OZONE,6,59,28
India,Andhra_Pradesh,Vijayawada,"Rajiv Nagar, Vijayawada - APPCB",16-04-2024 16:00:00,16.554731,80.649110,SO2,9,15,11
India,Andhra_Pradesh,Visakhapatnam,"GVM Corporation, Visakhapatnam - APPCB",16-04-2024 16:00:00,17.72,83.3,PM2.5,47,120,71
India,Andhra_Pradesh,Visakhapatnam,"GVM Corporation, Visakhapatnam - APPCB",16-04-2024 16:00:00,17.72,83.3,OZONE,6,115,40
India,Arunachal_Pradesh,Naharlagun,"Naharlagun, Naharlagun - APSPCB",16-04-2024 16:00:00,27.103358,93.679645,OZONE,2,2,2
India,Assam,Guwahati,"IITG, Guwahati - PCBA",16-04-2024 16:00:00,26.2028636,91.70046436,PM10,NA,NA,NA
India,Assam,Guwahati,"LGBI Airport, Guwahati - PCBA",16-04-2024 16:00:00,26.10887,91.589544,PM10,36,252,141
India,Assam,Guwahati,"Pan Bazaar, Guwahati - PCBA",16-04-2024 16:00:00,26.187500,91.744194,NO2,1,13,4
India,Assam,Guwahati,"Pan Bazaar, Guwahati - PCBA",16-04-2024 16:00:00,26.187500,91.744194,SO2,32,59,45
India,Assam,Guwahati,"Pan Bazaar, Guwahati - PCBA",16-04-2024 16:00:00,26.187500,91.744194,OZONE,17,18,17
India,Assam,Guwahati,"Railway Colony, Guwahati - PCBA",16-04-2024 16:00:00,26.181742,91.78063,PM10,69,287,153
India,Assam,Guwahati,"Railway Colony, Guwahati - PCBA",16-04-2024 16:00:00,26.181742,91.78063,CO,26,110,30
India,Assam,Nagaon,"Christianpatty, Nagaon - PCBA",16-04-2024 16:00:00,26.349082,92.68449,NH3,3,6,5
India,Assam,Nalbari,"Bata Chowk, Nalbari - PCBA",16-04-2024 16:00:00,26.446912,91.439057,NH3,1,1,1
India,Assam,Nalbari,"Bata Chowk, Nalbari - PCBA",16-04-2024 16:00:00,26.446912,91.439057,OZONE,5,130,84
India,Assam,Silchar,"Tarapur, Silchar - PCBA",16-04-2024 16:00:00,24.82827,92.79525,OZONE,1,15,6
India,Bihar,Araria,"Kharahiya Basti, Araria - BSPCB",16-04-2024 16:00:00,26.146529,87.454184,NO2,7,17,8
India,Bihar,Araria,"Kharahiya Basti, Araria - BSPCB",16-04-2024 16:00:00,26.146529,87.454184,OZONE,2,12,9
India,Bihar,Arrah,"New DM Office, Arrah - BSPCB",16-04-2024 16:00:00,25.5626095,84.663264,NH3,3,5,4
India,Bihar,Arrah,"New DM Office, Arrah - BSPCB",16-04-2024 16:00:00,25.5626095,84.663264,CO,2,15,9
India,Bihar,Aurangabad,"Gurdeo Nagar, Aurangabad - BSPCB",16-04-2024 16:00:00,24.75746,84.366208,OZONE,14,79,53
India,Bihar,Bettiah,"Kamalnath Nagar, Bettiah - BSPCB",16-04-2024 16:00:00,26.80365,84.51954,PM10,65,421,139
India,Bihar,Bhagalpur,"Mayaganj, Bhagalpur - BSPCB",16-04-2024 16:00:00,25.265194,87.012947,PM2.5,52,315,181
India,Bihar,Bhagalpur,"Mayaganj, Bhagalpur - BSPCB",16-04-2024 16:00:00,25.265194,87.012947,NO2,4,10,7
India,Bihar,Chhapra,"Darshan Nagar, Chhapra - BSPCB",16-04-2024 16:00:00,25.7808257,84.7446768,NH3,7,19,12
India,Bihar,Chhapra,"Darshan Nagar, Chhapra - BSPCB",16-04-2024 16:00:00,25.7808257,84.7446768,CO,42,66,54
India,Bihar,Gaya,"Kareemganj, Gaya - BSPCB",16-04-2024 16:00:00,24.792403,84.992416,NO2,30,31,30
India,Bihar,Gaya,"Kareemganj, Gaya - BSPCB",16-04-2024 16:00:00,24.792403,84.992416,NH3,NA,NA,NA
India,Bihar,Gaya,"SFTI Kusdihra, Gaya - BSPCB",16-04-2024 16:00:00,24.762518,84.982348,PM2.5,28,172,86
India,Bihar,Gaya,"SFTI Kusdihra, Gaya - BSPCB",16-04-2024 16:00:00,24.762518,84.982348,PM10,53,103,72
India,Bihar,Gaya,"SFTI Kusdihra, Gaya - BSPCB",16-04-2024 16:00:00,24.762518,84.982348,OZONE,15,59,30
India,Bihar,Hajipur,"Industrial Area, Hajipur - BSPCB",16-04-2024 16:00:00,25.697189,85.245900,PM10,177,458,251
India,Bihar,Hajipur,"Industrial Area, Hajipur - BSPCB",16-04-2024 16:00:00,25.697189,85.245900,OZONE,3,76,51
India,Bihar,Katihar,"Mirchaibari, Katihar - BSPCB",16-04-2024 16:00:00,25.560083,87.553265,NH3,5,10,8
India,Bihar,Kishanganj,"SDM Office_Khagra, Kishanganj - BSPCB",16-04-2024 16:00:00,26.0881305,87.93840336,PM10,128,419,181
India,Bihar,Motihari,"Gandak Colony, Motihari - BSPCB",16-04-2024 16:00:00,26.63086,84.90051,NH3,8,19,14
India,Bihar,Motihari,"Gandak Colony, Motihari - BSPCB",16-04-2024 16:00:00,26.63086,84.90051,CO,2,20,2
India,Bihar,Munger,"Town Hall, Munger - BSPCB",16-04-2024 16:00:00,25.376776,86.471523,OZONE,27,81,56
India,Bihar,Muzaffarpur,"Buddha Colony, Muzaffarpur - BSPCB",16-04-2024 16:00:00,26.11442,85.39813,OZONE,2,54,38
India,Bihar,Patna,"DRM Office Danapur, Patna - BSPCB",16-04-2024 16:00:00,25.586562,85.043586,PM2.5,92,310,139
India,Bihar,Patna,"DRM Office Danapur, Patna - BSPCB",16-04-2024 16:00:00,25.586562,85.043586,CO,7,103,18
India,Bihar,Patna,"DRM Office Danapur, Patna - BSPCB",16-04-2024 16:00:00,25.586562,85.043586,OZONE,1,37,29
India,Bihar,Patna,"Govt. High School Shikarpur, Patna - BSPCB",16-04-2024 16:00:00,25.592539,85.227158,PM10,132,306,180
India,Bihar,Patna,"IGSC Planetarium Complex, Patna - BSPCB",16-04-2024 16:00:00,25.610369,85.132568,CO,12,12,12
India,Bihar,Patna,"Muradpur, Patna - BSPCB",16-04-2024 16:00:00,25.619651,85.147382,NH3,2,5,3
India,Bihar,Patna,"Rajbansi Nagar, Patna - BSPCB",16-04-2024 16:00:00,25.599486,85.113666,PM2.5,107,282,191
India,Bihar,Patna,"Rajbansi Nagar, Patna - BSPCB",16-04-2024 16:00:00,25.599486,85.113666,NO2,15,52,28
India,Bihar,Patna,"Samanpura, Patna - BSPCB",16-04-2024 16:00:00,25.596727,85.085624,NH3,13,47,25
India,Bihar,Patna,"Samanpura, Patna - BSPCB",16-04-2024 16:00:00,25.596727,85.085624,CO,22,144,45
India,Bihar,Purnia,"Mariam Nagar, Purnia - BSPCB",16-04-2024 16:00:00,25.366336,87.117468,NO2,4,15,8
India,Bihar,Saharsa,"Police Line, Saharsa - BSPCB",16-04-2024 16:00:00,25.892357,86.590325,CO,24,32,28
India,Bihar,Samastipur,"DM Office_Kasipur, Samastipur - BSPCB",16-04-2024 16:00:00,25.859655,85.77944,PM10,74,197,130
India,Bihar,Samastipur,"DM Office_Kasipur, Samastipur - BSPCB",16-04-2024 16:00:00,25.859655,85.77944,NO2,2,11,5
India,Bihar,Samastipur,"DM Office_Kasipur, Samastipur - BSPCB",16-04-2024 16:00:00,25.859655,85.77944,SO2,1,15,8
India,Bihar,Sasaram,"Dada Peer, Sasaram - BSPCB",16-04-2024 16:00:00,24.952822,84.002396,SO2,21,23,22
India,Bihar,Sasaram,"Dada Peer, Sasaram - BSPCB",16-04-2024 16:00:00,24.952822,84.002396,CO,112,117,116
India,Bihar,Siwan,"Chitragupta Nagar, Siwan - BSPCB",16-04-2024 16:00:00,26.2271665,84.3570427,NO2,7,67,34
India,Bihar,Siwan,"Chitragupta Nagar, Siwan - BSPCB",16-04-2024 16:00:00,26.2271665,84.3570427,SO2,18,48,35
India,Bihar,Siwan,"Chitragupta Nagar, Siwan - BSPCB",16-04-2024 16:00:00,26.2271665,84.3570427,CO,88,133,109
India,Chandigarh,Chandigarh,"Sector-53, Chandigarh - CPCC",16-04-2024 16:00:00,30.719859,76.738637,NO2,11,137,57
India,Chandigarh,Chandigarh,"Sector-53, Chandigarh - CPCC",16-04-2024 16:00:00,30.719859,76.738637,OZONE,3,48,37
India,Chhattisgarh,Bhilai,"32Bungalows, Bhilai - CECB",16-04-2024 16:00:00,21.194815,81.314770,OZONE,5,36,19
India,Chhattisgarh,Bhilai,"Hathkhoj, Bhilai - CECB",16-04-2024 16:00:00,21.224231,81.408350,PM10,45,176,113
India,Chhattisgarh,Bhilai,"Hathkhoj, Bhilai - CECB",16-04-2024 16:00:00,21.224231,81.408350,NO2,30,94,57
India,Chhattisgarh,Bhilai,"Hathkhoj, Bhilai - CECB",16-04-2024 16:00:00,21.224231,81.408350,CO,14,109,51
India,Chhattisgarh,Bilaspur,"Mangala, Bilaspur - NTPC",16-04-2024 16:00:00,22.08815,82.13737,PM10,38,146,68
India,Chhattisgarh,Chhal,"Nawapara SECL Colony, Chhal - CECB",16-04-2024 16:00:00,22.118125,83.140608,PM10,45,110,67
India,Chhattisgarh,Chhal,"Nawapara SECL Colony, Chhal - CECB",16-04-2024 16:00:00,22.118125,83.140608,NH3,2,2,2
India,Chhattisgarh,Kunjemura,"OP Jindal School, Kunjemura - CECB",16-04-2024 16:00:00,22.126650,83.483212,PM2.5,46,128,84
India,Chhattisgarh,Kunjemura,"OP Jindal School, Kunjemura - CECB",16-04-2024 16:00:00,22.126650,83.483212,PM10,40,236,132
India,Chhattisgarh,Raipur,"AIIMS, Raipur - CECB",16-04-2024 16:00:00,21.258815,81.578979,OZONE,1,43,15
India,Chhattisgarh,Raipur,"Bhatagaon New ISBT, Raipur - CECB",16-04-2024 16:00:00,21.219665,81.630094,NH3,2,2,2
India,Chhattisgarh,Raipur,"Bhatagaon New ISBT, Raipur - CECB",16-04-2024 16:00:00,21.219665,81.630094,OZONE,3,6,4
India,Chhattisgarh,Raipur,"Krishak Nagar, Raipur - CECB",16-04-2024 16:00:00,21.237755,81.705301,NH3,1,1,1
India,Chhattisgarh,Raipur,"Siltara Phase-II, Raipur - CECB",16-04-2024 16:00:00,21.371751,81.664929,PM2.5,32,314,120
India,Chhattisgarh,Raipur,"Siltara Phase-II, Raipur - CECB",16-04-2024 16:00:00,21.371751,81.664929,OZONE,3,49,18
India,Chhattisgarh,Tumidih,"OP Jindal Industrial Park, Tumidih - CECB",16-04-2024 16:00:00,22.06631475,83.33820077,PM10,NA,NA,NA
India,Chhattisgarh,Tumidih,"OP Jindal Industrial Park, Tumidih - CECB",16-04-2024 16:00:00,22.06631475,83.33820077,NO2,8,21,14
India,Delhi,Delhi,"Alipur, Delhi - DPCC",16-04-2024 16:00:00,28.815329,77.153010,NO2,8,118,54
India,Delhi,Delhi,"Alipur, Delhi - DPCC",16-04-2024 16:00:00,28.815329,77.153010,OZONE,1,95,50
India,Delhi,Delhi,"Ashok Vihar, Delhi - DPCC",16-04-2024 16:00:00,28.695381,77.181665,CO,4,133,13
India,Delhi,Delhi,"Bawana, Delhi - DPCC",16-04-2024 16:00:00,28.776200,77.051074,CO,4,78,24
India,Delhi,Delhi,"Chandni Chowk, Delhi - IITM",16-04-2024 16:00:00,28.656756,77.227234,PM10,118,316,182
India,Delhi,Delhi,"Dr. Karni Singh Shooting Range, Delhi - DPCC",16-04-2024 16:00:00,28.498571,77.264840,NH3,8,13,11
India,Delhi,Delhi,"Dr. Karni Singh Shooting Range, Delhi - DPCC",16-04-2024 16:00:00,28.498571,77.264840,CO,23,104,39
India,Delhi,Delhi,"ITO, Delhi - CPCB",16-04-2024 16:00:00,28.628624,77.241060,SO2,1,26,12
India,Delhi,Delhi,"ITO, Delhi - CPCB",16-04-2024 16:00:00,28.628624,77.241060,CO,27,140,36
India,Delhi,Delhi,"ITO, Delhi - CPCB",16-04-2024 16:00:00,28.628624,77.241060,OZONE,12,44,27
India,Delhi,Delhi,"Jahangirpuri, Delhi - DPCC",16-04-2024 16:00:00,28.732820,77.170633,NH3,1,29,20
India,Delhi,Delhi,"Jahangirpuri, Delhi - DPCC",16-04-2024 16:00:00,28.732820,77.170633,SO2,14,105,48
India,Delhi,Delhi,"Jawaharlal Nehru Stadium, Delhi - DPCC",16-04-2024 16:00:00,28.580280,77.233829,NO2,22,150,89
India,Delhi,Delhi,"Jawaharlal Nehru Stadium, Delhi - DPCC",16-04-2024 16:00:00,28.580280,77.233829,OZONE,1,128,79
India,Delhi,Delhi,"Major Dhyan Chand National Stadium, Delhi - DPCC",16-04-2024 16:00:00,28.611281,77.237738,NO2,22,178,100
India,Delhi,Delhi,"Mandir Marg, Delhi - DPCC",16-04-2024 16:00:00,28.636429,77.201067,NO2,107,118,115
India,Delhi,Delhi,"Mandir Marg, Delhi - DPCC",16-04-2024 16:00:00,28.636429,77.201067,OZONE,1,13,7
India,Delhi,Delhi,"Mundka, Delhi - DPCC",16-04-2024 16:00:00,28.684678,77.076574,SO2,8,74,25
India,Delhi,Delhi,"NSIT Dwarka, Delhi - CPCB",16-04-2024 16:00:00,28.60909,77.0325413,PM10,125,401,215
India,Delhi,Delhi,"Narela, Delhi - DPCC",16-04-2024 16:00:00,28.822836,77.101981,PM2.5,28,493,229
India,Delhi,Delhi,"Narela, Delhi - DPCC",16-04-2024 16:00:00,28.822836,77.101981,SO2,7,97,36
India,Delhi,Delhi,"Nehru Nagar, Delhi - DPCC",16-04-2024 16:00:00,28.567890,77.250515,NO2,8,15,11
India,Delhi,Delhi,"Okhla Phase-2, Delhi - DPCC",16-04-2024 16:00:00,28.530785,77.271255,SO2,2,29,17
India,Delhi,Delhi,"Okhla Phase-2, Delhi - DPCC",16-04-2024 16:00:00,28.530785,77.271255,CO,22,136,66
India,Delhi,Delhi,"Patparganj, Delhi - DPCC",16-04-2024 16:00:00,28.623763,77.287209,CO,50,118,61
India,Delhi,Delhi,"Patparganj, Delhi - DPCC",16-04-2024 16:00:00,28.623763,77.287209,OZONE,5,82,49
India,Delhi,Delhi,"Sirifort, Delhi - CPCB",16-04-2024 16:00:00,28.5504249,77.2159377,NH3,13,23,17
India,Delhi,Delhi,"Sirifort, Delhi - CPCB",16-04-2024 16:00:00,28.5504249,77.2159377,CO,10,120,42
India,Delhi,Delhi,"Sirifort, Delhi - CPCB",16-04-2024 16:00:00,28.5504249,77.2159377,OZONE,7,36,17
India,Delhi,Delhi,"Sonia Vihar, Delhi - DPCC",16-04-2024 16:00:00,28.710508,77.249485,CO,39,132,59
India,Delhi,Delhi,"Sri Aurobindo Marg, Delhi - DPCC",16-04-2024 16:00:00,28.531346,77.190156,OZONE,9,60,41
India,Delhi,Delhi,"Wazirpur, Delhi - DPCC",16-04-2024 16:00:00,28.699793,77.165453,NO2,24,105,64
India,Delhi,Delhi,"Wazirpur, Delhi - DPCC",16-04-2024 16:00:00,28.699793,77.165453,OZONE,5,56,30
India,Gujarat,Ahmedabad,"Chandkheda, Ahmedabad - IITM",16-04-2024 16:00:00,23.107969,72.574648,CO,26,64,27
India,Gujarat,Ahmedabad,"Chandkheda, Ahmedabad - IITM",16-04-2024 16:00:00,23.107969,72.574648,OZONE,35,39,38
India,Gujarat,Ahmedabad,"Gyaspur, Ahmedabad - IITM",16-04-2024 16:00:00,22.977134,72.553024,NH3,11,11,11
India,Gujarat,Ahmedabad,"Gyaspur, Ahmedabad - IITM",16-04-2024 16:00:00,22.977134,72.553024,SO2,3,6,4
India,Gujarat,Ahmedabad,"Maninagar, Ahmedabad - GPCB",16-04-2024 16:00:00,23.002657,72.591912,PM10,54,94,74
India,Gujarat,Ahmedabad,"Rakhial, Ahmedabad - IITM",16-04-2024 16:00:00,23.016834,72.625775,PM2.5,37,78,57
India,Gujarat,Ahmedabad,"Rakhial, Ahmedabad - IITM",16-04-2024 16:00:00,23.016834,72.625775,PM10,46,101,72
India,Gujarat,Ahmedabad,"Rakhial, Ahmedabad - IITM",16-04-2024 16:00:00,23.016834,72.625775,NO2,5,16,9
India,Gujarat,Ahmedabad,"SVPI Airport Hansol, Ahmedabad - IITM",16-04-2024 16:00:00,23.076793,72.627874,PM10,NA,NA,NA
India,Gujarat,Ahmedabad,"SVPI Airport Hansol, Ahmedabad - IITM",16-04-2024 16:00:00,23.076793,72.627874,NO2,NA,NA,NA
India,Gujarat,Ahmedabad,"SVPI Airport Hansol, Ahmedabad - IITM",16-04-2024 16:00:00,23.076793,72.627874,CO,48,58,52
India,Gujarat,Ankleshwar,"GIDC, Ankleshwar - GPCB",16-04-2024 16:00:00,21.613267,73.010555,NH3,7,7,7
India,Gujarat,Gandhinagar,"IIPHG Lekawada, Gandhinagar - IITM",16-04-2024 16:00:00,23.243639,72.68994,PM10,41,68,55
India,Gujarat,Gandhinagar,"IIPHG Lekawada, Gandhinagar - IITM",16-04-2024 16:00:00,23.243639,72.68994,NO2,32,35,34
India,Gujarat,Gandhinagar,"Sector-10, Gandhinagar - GPCB",16-04-2024 16:00:00,23.221714,72.654328,PM10,27,59,47
India,Gujarat,Gandhinagar,"Sector-10, Gandhinagar - GPCB",16-04-2024 16:00:00,23.221714,72.654328,SO2,4,4,4
India,Gujarat,Vapi,"Phase-1 GIDC, Vapi - GPCB",16-04-2024 16:00:00,20.362421,72.918013,SO2,51,53,52
India,Gujarat,Vatva,"Phase-4 GIDC, Vatva - GPCB",16-04-2024 16:00:00,22.969611,72.643500,PM2.5,25,38,34
India,Gujarat,Vatva,"Phase-4 GIDC, Vatva - GPCB",16-04-2024 16:00:00,22.969611,72.643500,CO,35,36,36
India,Haryana,Ambala,"Patti Mehar, Ambala - HSPCB",16-04-2024 16:00:00,30.379589,76.778328,PM10,54,98,67
India,Haryana,Bahadurgarh,"Arya Nagar, Bahadurgarh - HSPCB",16-04-2024 16:00:00,28.6701,76.9254,CO,40,56,49
India,Haryana,Ballabgarh,"Nathu Colony, Ballabgarh - HSPCB",16-04-2024 16:00:00,28.3419248,77.319699,CO,6,84,20
India,Haryana,Bhiwani,"H.B. Colony, Bhiwani - HSPCB",16-04-2024 16:00:00,28.806223,76.141105,PM2.5,53,117,80
India,Haryana,Charkhi Dadri,"Mini Secretariat, Charkhi Dadri - HSPCB",16-04-2024 16:00:00,28.593883,76.270653,NH3,6,8,7
India,Haryana,Faridabad,"New Industrial Town, Faridabad - HSPCB",16-04-2024 16:00:00,28.39072,77.30059,PM2.5,226,403,331
India,Haryana,Faridabad,"New Industrial Town, Faridabad - HSPCB",16-04-2024 16:00:00,28.39072,77.30059,NO2,2,18,13
India,Haryana,Faridabad,"New Industrial Town, Faridabad - HSPCB",16-04-2024 16:00:00,28.39072,77.30059,SO2,4,41,13
India,Haryana,Faridabad,"Sector 11, Faridabad - HSPCB",16-04-2024 16:00:00,28.376058,77.315741,PM2.5,126,360,271
India,Haryana,Faridabad,"Sector 11, Faridabad - HSPCB",16-04-2024 16:00:00,28.376058,77.315741,NO2,30,32,31
India,Haryana,Faridabad,"Sector 11, Faridabad - HSPCB",16-04-2024 16:00:00,28.376058,77.315741,CO,48,51,50
India,Haryana,Faridabad,"Sector 30, Faridabad - HSPCB",16-04-2024 16:00:00,28.4417,77.3217,PM10,140,148,144
India,Haryana,Faridabad,"Sector- 16A, Faridabad - HSPCB",16-04-2024 16:00:00,28.4088421,77.3099081,SO2,NA,NA,NA
India,Haryana,Faridabad,"Sector- 16A, Faridabad - HSPCB",16-04-2024 16:00:00,28.4088421,77.3099081,OZONE,14,14,14
India,Haryana,Fatehabad,"Huda Sector, Fatehabad - HSPCB",16-04-2024 16:00:00,29.503664,75.467934,PM2.5,18,81,45
India,Haryana,Fatehabad,"Huda Sector, Fatehabad - HSPCB",16-04-2024 16:00:00,29.503664,75.467934,NO2,28,32,30
India,Haryana,Gurugram,"Sector-51, Gurugram - HSPCB",16-04-2024 16:00:00,28.4227,77.0667,NO2,13,29,23
India,Haryana,Gurugram,"Sector-51, Gurugram - HSPCB",16-04-2024 16:00:00,28.4227,77.0667,SO2,3,4,3
India,Haryana,Gurugram,"Teri Gram, Gurugram - HSPCB",16-04-2024 16:00:00,28.4275,77.1465,NO2,30,46,38
India,Haryana,Gurugram,"Teri Gram, Gurugram - HSPCB",16-04-2024 16:00:00,28.4275,77.1465,NH3,42,73,56
India,Haryana,Gurugram,"Vikas Sadan, Gurugram - HSPCB",16-04-2024 16:00:00,28.4501238,77.0263051,SO2,9,46,28
India,Haryana,Hisar,"Urban Estate-II, Hisar - HSPCB",16-04-2024 16:00:00,29.140560,75.744941,OZONE,47,136,88
India,Haryana,Kaithal,"Rishi Nagar, Kaithal - HSPCB",16-04-2024 16:00:00,29.8006,76.4155,CO,2,57,13
India,Haryana,Karnal,"Sector-12, Karnal - HSPCB",16-04-2024 16:00:00,29.695300,77.002700,CO,26,52,30
India,Haryana,Karnal,"Sector-12, Karnal - HSPCB",16-04-2024 16:00:00,29.695300,77.002700,OZONE,27,35,30
India,Haryana,Kurukshetra,"Sector-7, Kurukshetra - HSPCB",16-04-2024 16:00:00,29.966942,76.875879,NO2,8,12,10
India,Haryana,Mandikhera,"General Hospital, Mandikhera - HSPCB",16-04-2024 16:00:00,27.9002,76.9938,NO2,19,23,21
India,Haryana,Mandikhera,"General Hospital, Mandikhera - HSPCB",16-04-2024 16:00:00,27.9002,76.9938,NH3,16,20,18
India,Haryana,Manesar,"Sector-2 IMT, Manesar - HSPCB",16-04-2024 16:00:00,28.360699,76.936090,OZONE,1,70,42
India,Haryana,Narnaul,"Shastri Nagar, Narnaul - HSPCB",16-04-2024 16:00:00,28.060249,76.113115,PM2.5,NA,NA,NA
India,Haryana,Narnaul,"Shastri Nagar, Narnaul - HSPCB",16-04-2024 16:00:00,28.060249,76.113115,CO,7,30,25
India,Haryana,Panchkula,"Sector-6, Panchkula - HSPCB ",16-04-2024 16:00:00,30.7057778,76.8531805555555,SO2,2,30,5
India,Haryana,Panipat,"Sector-18, Panipat - HSPCB",16-04-2024 16:00:00,29.497973,76.993331,SO2,18,19,19
India,Haryana,Rohtak,"MD University, Rohtak - HSPCB",16-04-2024 16:00:00,28.52123,76.37138,SO2,5,8,7
India,Haryana,Sirsa,"F-Block, Sirsa - HSPCB",16-04-2024 16:00:00,29.536400,75.015800,NO2,9,39,12
India,Haryana,Sonipat,"Murthal, Sonipat - HSPCB",16-04-2024 16:00:00,29.027200,77.062100,PM2.5,48,52,51
India,Haryana,Sonipat,"Murthal, Sonipat - HSPCB",16-04-2024 16:00:00,29.027200,77.062100,PM10,106,109,108
India,Haryana,Yamuna Nagar,"Gobind Pura, Yamuna Nagar - HSPCB",16-04-2024 16:00:00,30.1480566,77.2893471,PM10,72,253,130
India,Himachal Pradesh,Baddi,"HIMUDA Complex Phase-1, Baddi - HPPCB",16-04-2024 16:00:00,30.943887,76.801991,NO2,11,54,23
India,Jharkhand,Dhanbad,"Kalakusuma, Dhanbad - DMC",16-04-2024 16:00:00,23.811548,86.481238,NO2,14,406,190
India,Jharkhand,Dhanbad,"Kalakusuma, Dhanbad - DMC",16-04-2024 16:00:00,23.811548,86.481238,OZONE,20,27,24
India,Jharkhand,Dhanbad,"Sardar Patel Nagar, Dhanbad - JSPCB",16-04-2024 16:00:00,23.80569,86.44268,SO2,NA,NA,NA
India,Karnataka,Bagalkot,"Vidayagiri, Bagalkot - KSPCB",16-04-2024 16:00:00,16.172806,75.659694,NH3,1,2,1
India,Karnataka,Belgaum,"Ramteerth Nagar, Belgaum - KSPCB",16-04-2024 16:00:00,15.888653,74.541751,PM10,37,82,52
India,Karnataka,Bengaluru,"BTM Layout, Bengaluru - CPCB",16-04-2024 16:00:00,12.9135218,77.5950804,PM2.5,NA,NA,NA
India,Karnataka,Bengaluru,"BTM Layout, Bengaluru - CPCB",16-04-2024 16:00:00,12.9135218,77.5950804,NH3,NA,NA,NA
India,Karnataka,Bengaluru,"BTM Layout, Bengaluru - CPCB",16-04-2024 16:00:00,12.9135218,77.5950804,OZONE,36,74,55
India,Karnataka,Bengaluru,"Bapuji Nagar, Bengaluru - KSPCB",16-04-2024 16:00:00,12.951913,77.539784,SO2,6,9,8
India,Karnataka,Bengaluru,"Bapuji Nagar, Bengaluru - KSPCB",16-04-2024 16:00:00,12.951913,77.539784,OZONE,23,32,30
India,Karnataka,Bengaluru,"Hombegowda Nagar, Bengaluru - KSPCB",16-04-2024 16:00:00,12.938539,77.590100,PM2.5,24,48,34
India,Karnataka,Bengaluru,"Hombegowda Nagar, Bengaluru - KSPCB",16-04-2024 16:00:00,12.938539,77.590100,PM10,36,73,51
India,Karnataka,Bengaluru,"Hombegowda Nagar, Bengaluru - KSPCB",16-04-2024 16:00:00,12.938539,77.590100,NH3,1,1,1
India,Karnataka,Bengaluru,"Hombegowda Nagar, Bengaluru - KSPCB",16-04-2024 16:00:00,12.938539,77.590100,SO2,3,4,4
India,Karnataka,Bengaluru,"Jayanagar 5th Block, Bengaluru - KSPCB",16-04-2024 16:00:00,12.920984,77.584908,NH3,3,4,3
India,Karnataka,Bengaluru,"Jayanagar 5th Block, Bengaluru - KSPCB",16-04-2024 16:00:00,12.920984,77.584908,OZONE,27,29,27
India,Karnataka,Bengaluru,"Kasturi Nagar, Bengaluru - KSPCB",16-04-2024 16:00:00,13.003872,77.664217,NO2,16,17,17
India,Karnataka,Bengaluru,"Kasturi Nagar, Bengaluru - KSPCB",16-04-2024 16:00:00,13.003872,77.664217,CO,21,26,24
India,Karnataka,Bengaluru,"Peenya, Bengaluru - CPCB",16-04-2024 16:00:00,13.0270199,77.494094,NH3,3,4,3
India,Karnataka,Bengaluru,"Peenya, Bengaluru - CPCB",16-04-2024 16:00:00,13.0270199,77.494094,CO,27,35,31
India,Karnataka,Bengaluru,"Sanegurava Halli, Bengaluru - KSPCB",16-04-2024 16:00:00,12.990328,77.5431385,PM10,36,69,48
India,Karnataka,Bengaluru,"Shivapura_Peenya, Bengaluru - KSPCB",16-04-2024 16:00:00,13.0246342,77.5080115,PM10,39,64,55
India,Karnataka,Bengaluru,"Silk Board, Bengaluru - KSPCB",16-04-2024 16:00:00,12.917348,77.622813,NH3,NA,NA,NA
India,Karnataka,Bidar,"Naubad, Bidar - KSPCB",16-04-2024 16:00:00,17.930306,77.482194,PM2.5,53,103,71
India,Karnataka,Bidar,"Naubad, Bidar - KSPCB",16-04-2024 16:00:00,17.930306,77.482194,CO,74,101,78
India,Karnataka,Chikkamagaluru,"Kalyana Nagara, Chikkamagaluru - KSPCB",16-04-2024 16:00:00,13.328028,75.797056,PM2.5,6,33,18
India,Karnataka,Chikkamagaluru,"Kalyana Nagara, Chikkamagaluru - KSPCB",16-04-2024 16:00:00,13.328028,75.797056,NO2,17,31,23
India,Karnataka,Dharwad,"Kalabhavan, Dharwad - KSPCB",16-04-2024 16:00:00,15.459706,75.008381,CO,14,177,47
India,Karnataka,Gadag,"Panchal Nagar, Gadag - KSPCB",16-04-2024 16:00:00,15.411456,75.638133,NO2,4,24,14
India,Karnataka,Gadag,"Panchal Nagar, Gadag - KSPCB",16-04-2024 16:00:00,15.411456,75.638133,CO,42,56,46
India,Karnataka,Hassan,"B.Katihalli, Hassan - KSPCB",16-04-2024 16:00:00,13.008556,76.125258,PM2.5,NA,NA,NA
India,Karnataka,Hassan,"B.Katihalli, Hassan - KSPCB",16-04-2024 16:00:00,13.008556,76.125258,OZONE,4,4,4
India,Karnataka,Haveri,"Ashwini Nagar, Haveri - KSPCB",16-04-2024 16:00:00,14.791800,75.389600,SO2,14,14,14
India,Karnataka,Hubballi,"Deshpande Nagar, Hubballi - KSPCB",16-04-2024 16:00:00,15.351773,75.140726,NH3,NA,NA,NA
India,Karnataka,Hubballi,"Deshpande Nagar, Hubballi - KSPCB",16-04-2024 16:00:00,15.351773,75.140726,CO,26,72,45
India,Karnataka,Kalaburagi,"Lal Bahadur Shastri Nagar, Kalaburagi - KSPCB",16-04-2024 16:00:00,17.321993,76.822628,NO2,12,12,12
India,Karnataka,Kalaburagi,"Lal Bahadur Shastri Nagar, Kalaburagi - KSPCB",16-04-2024 16:00:00,17.321993,76.822628,OZONE,1,74,52
India,Karnataka,Kalaburagi,"Mahatma Basaveswar Colony, Kalaburgi - KSPCB",16-04-2024 16:00:00,17.336318,76.847397,PM2.5,26,71,39
India,Karnataka,Kalaburagi,"Mahatma Basaveswar Colony, Kalaburgi - KSPCB",16-04-2024 16:00:00,17.336318,76.847397,PM10,35,90,52
India,Karnataka,Karwar,"KHB Colony, Karwar - KSPCB",16-04-2024 16:00:00,14.816666,74.141003,NO2,1,12,6
India,Karnataka,Karwar,"KHB Colony, Karwar - KSPCB",16-04-2024 16:00:00,14.816666,74.141003,NH3,1,6,2
India,Karnataka,Kolar,"Tamaka Ind. Area, Kolar - KSPCB",16-04-2024 16:00:00,13.1276288,78.1570122,NO2,19,51,28
India,Karnataka,Kolar,"Tamaka Ind. Area, Kolar - KSPCB",16-04-2024 16:00:00,13.1276288,78.1570122,CO,5,6,6
India,Karnataka,Koppal,"Diwator Nagar, Koppal - KSPCB",16-04-2024 16:00:00,15.347630,76.181767,NO2,38,66,50
India,Karnataka,Madikeri,"Stuart Hill, Madikeri - KSPCB",16-04-2024 16:00:00,12.415911,75.735050,OZONE,27,53,43
India,Karnataka,Mangalore,"Kadri, Mangalore - KSPCB",16-04-2024 16:00:00,12.889250,74.853000,CO,46,52,48
India,Karnataka,Ramanagara,"Vijay Nagar, Ramanagara - KSPCB",16-04-2024 16:00:00,12.733409,77.298051,PM10,21,50,35
India,Karnataka,Ramanagara,"Vijay Nagar, Ramanagara - KSPCB",16-04-2024 16:00:00,12.733409,77.298051,SO2,17,35,26
India,Karnataka,Shivamogga,"Vinoba Nagara, Shivamogga - KSPCB",16-04-2024 16:00:00,13.940000,75.555917,PM2.5,37,60,43
India,Karnataka,Tumakuru,"Thimmalapura, Tumakuru - KSPCB",16-04-2024 16:00:00,13.377516,77.099072,NO2,16,40,25
India,Karnataka,Tumakuru,"Thimmalapura, Tumakuru - KSPCB",16-04-2024 16:00:00,13.377516,77.099072,CO,30,34,32
India,Karnataka,Vijayapura,"Ibrahimpur, Vijayapura - KSPCB",16-04-2024 16:00:00,16.802639,75.722694,OZONE,14,16,15
India,Karnataka,Yadgir,"Collector Office, Yadgir - KSPCB",16-04-2024 16:00:00,16.7602,77.1428,SO2,3,29,17
India,Kerala,Eloor,"Udyogamandal, Eloor - Kerala PCB",16-04-2024 16:00:00,10.073232,76.302765,PM2.5,32,52,42
India,Kerala,Eloor,"Udyogamandal, Eloor - Kerala PCB",16-04-2024 16:00:00,10.073232,76.302765,NH3,1,1,1
India,Kerala,Eloor,"Udyogamandal, Eloor - Kerala PCB",16-04-2024 16:00:00,10.073232,76.302765,CO,12,72,43
India,Kerala,Kollam,"Polayathode, Kollam - Kerala PCB",16-04-2024 16:00:00,8.8787,76.6073,PM2.5,36,94,65
India,Kerala,Kollam,"Polayathode, Kollam - Kerala PCB",16-04-2024 16:00:00,8.8787,76.6073,PM10,44,79,62
India,Kerala,Kollam,"Polayathode, Kollam - Kerala PCB",16-04-2024 16:00:00,8.8787,76.6073,SO2,1,11,2
India,Kerala,Kollam,"Polayathode, Kollam - Kerala PCB",16-04-2024 16:00:00,8.8787,76.6073,CO,38,41,39
India,Kerala,Kollam,"Polayathode, Kollam - Kerala PCB",16-04-2024 16:00:00,8.8787,76.6073,OZONE,32,37,36
India,Kerala,Thiruvananthapuram,"Kariavattom, Thiruvananthapuram - Kerala PCB",16-04-2024 16:00:00,8.563700,76.886500,NH3,1,1,1
India,Kerala,Thiruvananthapuram,"Kariavattom, Thiruvananthapuram - Kerala PCB",16-04-2024 16:00:00,8.563700,76.886500,CO,18,52,27
India,Kerala,Thiruvananthapuram,"Plammoodu, Thiruvananthapuram - Kerala PCB",16-04-2024 16:00:00,8.5149093,76.9435879,PM10,13,77,39
