country,state,city,station,last_update,latitude,longitude,pollutant_id,pollutant_min,pollutant_max,pollutant_avg
India,Andhra_Pradesh,Amaravati,"Secretariat, Amaravati - APPCB",17-02-2024 10:00:00,16.5150833,80.5181667,CO,18,53,34
India,Andhra_Pradesh,Amaravati,"Secretariat, Amaravati - APPCB",17-02-2024 10:00:00,16.5150833,80.5181667,OZONE,2,57,6
India,Andhra_Pradesh,Anantapur,"Gulzarpet, Anantapur - APPCB",17-02-2024 10:00:00,14.675886,77.593027,PM10,42,57,48
India,Andhra_Pradesh,Kadapa,"Yerramukkapalli, Kadapa - APPCB",17-02-2024 10:00:00,14.465052,78.824187,SO2,1,2,2
India,Andhra_Pradesh,Rajamahendravaram,"Anand Kala Kshetram, Rajamahendravaram - APPCB",17-02-2024 10:00:00,16.9872867,81.7363176,CO,20,40,28
India,Andhra_Pradesh,Tirupati,"Vaikuntapuram, Tirupati - APPCB",17-02-2024 10:00:00,13.615387,79.409230,PM2.5,NA,NA,NA
India,Andhra_Pradesh,Tirupati,"Vaikuntapuram, Tirupati - APPCB",17-02-2024 10:00:00,13.615387,79.409230,OZONE,4,35,4
India,Andhra_Pradesh,Vijayawada,"Kanuru, Vijayawada - APPCB",17-02-2024 10:00:00,16.486692,80.699436,CO,37,91,84
India,Andhra_Pradesh,Vijayawada,"Rajiv Gandhi Park, Vijayawada - APPCB",17-02-2024 10:00:00,16.509717,80.612222,PM10,42,81,61
India,Andhra_Pradesh,Vijayawada,"Rajiv Gandhi Park, Vijayawada - APPCB",17-02-2024 10:00:00,16.509717,80.612222,NH3,1,7,6
India,Andhra_Pradesh,Vijayawada,"Rajiv Nagar, Vijayawada - APPCB",17-02-2024 10:00:00,16.554731,80.649110,NO2,4,18,10
India,Andhra_Pradesh,Vijayawada,"Rajiv Nagar, Vijayawada - APPCB",17-02-2024 10:00:00,16.554731,80.649110,OZONE,3,50,6
India,Andhra_Pradesh,Visakhapatnam,"GVM Corporation, Visakhapatnam - APPCB",17-02-2024 10:00:00,17.72,83.3,PM2.5,37,219,82
India,Andhra_Pradesh,Visakhapatnam,"GVM Corporation, Visakhapatnam - APPCB",17-02-2024 10:00:00,17.72,83.3,PM10,58,325,118
India,Andhra_Pradesh,Visakhapatnam,"GVM Corporation, Visakhapatnam - APPCB",17-02-2024 10:00:00,17.72,83.3,NH3,3,5,4
India,Andhra_Pradesh,Visakhapatnam,"GVM Corporation, Visakhapatnam - APPCB",17-02-2024 10:00:00,17.72,83.3,OZONE,8,38,8
India,Assam,Byrnihat,"Central Academy for SFS, Byrnihat - PCBA",17-02-2024 10:00:00,26.071318,91.87488,PM2.5,73,426,284
India,Assam,Guwahati,"IITG, Guwahati - PCBA",17-02-2024 10:00:00,26.2028636,91.70046436,PM2.5,77,379,212
India,Assam,Guwahati,"IITG, Guwahati - PCBA",17-02-2024 10:00:00,26.2028636,91.70046436,SO2,12,16,12
India,Assam,Guwahati,"Pan Bazaar, Guwahati - PCBA",17-02-2024 10:00:00,26.187500,91.744194,NO2,1,12,3
India,Assam,Guwahati,"Railway Colony, Guwahati - PCBA",17-02-2024 10:00:00,26.181742,91.78063,CO,18,108,69
India,Assam,Nalbari,"Bata Chowk, Nalbari - PCBA",17-02-2024 10:00:00,26.446912,91.439057,SO2,5,6,5
India,Assam,Silchar,"Tarapur, Silchar - PCBA",17-02-2024 10:00:00,24.82827,92.79525,NH3,NA,NA,NA
India,Assam,Silchar,"Tarapur, Silchar - PCBA",17-02-2024 10:00:00,24.82827,92.79525,SO2,NA,NA,NA
India,Assam,Silchar,"Tarapur, Silchar - PCBA",17-02-2024 10:00:00,24.82827,92.79525,CO,NA,NA,NA
India,Assam,Sivasagar,"Girls College, Sivasagar - PCBA",17-02-2024 10:00:00,26.987634,94.636574,PM2.5,16,43,31
India,Assam,Sivasagar,"Girls College, Sivasagar - PCBA",17-02-2024 10:00:00,26.987634,94.636574,SO2,4,4,4
India,Bihar,Araria,"Kharahiya Basti, Araria - BSPCB",17-02-2024 10:00:00,26.146529,87.454184,NO2,6,8,7
India,Bihar,Araria,"Kharahiya Basti, Araria - BSPCB",17-02-2024 10:00:00,26.146529,87.454184,OZONE,9,10,10
India,Bihar,Aurangabad,"Gurdeo Nagar, Aurangabad - BSPCB",17-02-2024 10:00:00,24.75746,84.366208,NO2,3,4,3
India,Bihar,Bihar Sharif,"D M Colony, Bihar Sharif - BSPCB",17-02-2024 10:00:00,25.204762,85.514960,PM10,20,103,55
India,Bihar,Bihar Sharif,"D M Colony, Bihar Sharif - BSPCB",17-02-2024 10:00:00,25.204762,85.514960,SO2,2,11,7
India,Bihar,Bihar Sharif,"D M Colony, Bihar Sharif - BSPCB",17-02-2024 10:00:00,25.204762,85.514960,CO,8,48,30
India,Bihar,Buxar,"Charitra Van, Buxar - BSPCB (Formerly known as Central Jail)",17-02-2024 10:00:00,25.567520,83.966379,SO2,15,16,16
India,Bihar,Chhapra,"Darshan Nagar, Chhapra - BSPCB",17-02-2024 10:00:00,25.7808257,84.7446768,SO2,22,101,57
India,Bihar,Gaya,"Collectorate, Gaya - BSPCB",17-02-2024 10:00:00,24.7955,84.9994,OZONE,52,76,61
India,Bihar,Gaya,"Kareemganj, Gaya - BSPCB",17-02-2024 10:00:00,24.792403,84.992416,PM10,33,312,111
India,Bihar,Gaya,"Kareemganj, Gaya - BSPCB",17-02-2024 10:00:00,24.792403,84.992416,NH3,1,6,3
India,Bihar,Gaya,"Kareemganj, Gaya - BSPCB",17-02-2024 10:00:00,24.792403,84.992416,SO2,8,12,10
India,Bihar,Kishanganj,"SDM Office_Khagra, Kishanganj - BSPCB",17-02-2024 10:00:00,26.0881305,87.93840336,SO2,17,28,22
India,Bihar,Manguraha,"Forest Rest House, Manguraha - BSPCB",17-02-2024 10:00:00,27.308328,84.531742,PM10,NA,NA,NA
India,Bihar,Motihari,"Gandak Colony, Motihari - BSPCB",17-02-2024 10:00:00,26.63086,84.90051,NO2,38,75,57
India,Bihar,Motihari,"Gandak Colony, Motihari - BSPCB",17-02-2024 10:00:00,26.63086,84.90051,NH3,7,12,9
India,Bihar,Munger,"Town Hall, Munger - BSPCB",17-02-2024 10:00:00,25.376776,86.471523,SO2,34,46,40
India,Bihar,Munger,"Town Hall, Munger - BSPCB",17-02-2024 10:00:00,25.376776,86.471523,OZONE,9,12,11
India,Bihar,Muzaffarpur,"Buddha Colony, Muzaffarpur - BSPCB",17-02-2024 10:00:00,26.11442,85.39813,NH3,12,34,17
India,Bihar,Muzaffarpur,"Buddha Colony, Muzaffarpur - BSPCB",17-02-2024 10:00:00,26.11442,85.39813,CO,36,73,44
India,Bihar,Muzaffarpur,"MIT-Daudpur Kothi, Muzaffarpur - BSPCB",17-02-2024 10:00:00,26.1403345,85.3650192,NO2,5,9,7
India,Bihar,Muzaffarpur,"MIT-Daudpur Kothi, Muzaffarpur - BSPCB",17-02-2024 10:00:00,26.1403345,85.3650192,NH3,11,21,14
India,Bihar,Muzaffarpur,"Muzaffarpur Collectorate, Muzaffarpur - BSPCB",17-02-2024 10:00:00,26.1209,85.3647,NO2,3,72,11
India,Bihar,Patna,"DRM Office Danapur, Patna - BSPCB",17-02-2024 10:00:00,25.586562,85.043586,PM10,83,189,130
India,Bihar,Patna,"Govt. High School Shikarpur, Patna - BSPCB",17-02-2024 10:00:00,25.592539,85.227158,PM10,97,165,127
India,Bihar,Patna,"Govt. High School Shikarpur, Patna - BSPCB",17-02-2024 10:00:00,25.592539,85.227158,NH3,3,5,4
India,Bihar,Patna,"IGSC Planetarium Complex, Patna - BSPCB",17-02-2024 10:00:00,25.610369,85.132568,SO2,NA,NA,NA
India,Bihar,Patna,"Muradpur, Patna - BSPCB",17-02-2024 10:00:00,25.619651,85.147382,NO2,9,20,16
India,Bihar,Patna,"Rajbansi Nagar, Patna - BSPCB",17-02-2024 10:00:00,25.599486,85.113666,PM2.5,56,178,110
India,Bihar,Patna,"Rajbansi Nagar, Patna - BSPCB",17-02-2024 10:00:00,25.599486,85.113666,NH3,2,3,3
India,Bihar,Patna,"Samanpura, Patna - BSPCB",17-02-2024 10:00:00,25.596727,85.085624,NO2,NA,NA,NA
India,Bihar,Patna,"Samanpura, Patna - BSPCB",17-02-2024 10:00:00,25.596727,85.085624,NH3,NA,NA,NA
India,Bihar,Patna,"Samanpura, Patna - BSPCB",17-02-2024 10:00:00,25.596727,85.085624,OZONE,NA,NA,NA
India,Bihar,Purnia,"Mariam Nagar, Purnia - BSPCB",17-02-2024 10:00:00,25.366336,87.117468,CO,26,66,56
India,Bihar,Saharsa,"Police Line, Saharsa - BSPCB",17-02-2024 10:00:00,25.892357,86.590325,PM10,68,155,110
India,Bihar,Saharsa,"Police Line, Saharsa - BSPCB",17-02-2024 10:00:00,25.892357,86.590325,NH3,9,9,9
India,Bihar,Samastipur,"DM Office_Kasipur, Samastipur - BSPCB",17-02-2024 10:00:00,25.859655,85.77944,SO2,1,14,8
India,Bihar,Sasaram,"Dada Peer, Sasaram - BSPCB",17-02-2024 10:00:00,24.952822,84.002396,PM2.5,51,252,103
India,Bihar,Sasaram,"Dada Peer, Sasaram - BSPCB",17-02-2024 10:00:00,24.952822,84.002396,OZONE,4,60,20
India,Bihar,Siwan,"Chitragupta Nagar, Siwan - BSPCB",17-02-2024 10:00:00,26.2271665,84.3570427,PM2.5,68,157,105
India,Chandigarh,Chandigarh,"Sector 22, Chandigarh - CPCC",17-02-2024 10:00:00,30.735567,76.775714,NO2,18,127,50
India,Chandigarh,Chandigarh,"Sector 22, Chandigarh - CPCC",17-02-2024 10:00:00,30.735567,76.775714,OZONE,4,191,41
India,Chandigarh,Chandigarh,"Sector-25, Chandigarh - CPCC",17-02-2024 10:00:00,30.751462,76.762879,PM2.5,164,256,211
India,Chandigarh,Chandigarh,"Sector-25, Chandigarh - CPCC",17-02-2024 10:00:00,30.751462,76.762879,NH3,19,45,27
India,Chandigarh,Chandigarh,"Sector-25, Chandigarh - CPCC",17-02-2024 10:00:00,30.751462,76.762879,CO,25,72,35
India,Chandigarh,Chandigarh,"Sector-53, Chandigarh - CPCC",17-02-2024 10:00:00,30.719859,76.738637,PM2.5,87,352,266
India,Chhattisgarh,Bhilai,"32Bungalows, Bhilai - CECB",17-02-2024 10:00:00,21.194815,81.314770,PM2.5,53,73,64
India,Chhattisgarh,Bhilai,"32Bungalows, Bhilai - CECB",17-02-2024 10:00:00,21.194815,81.314770,SO2,3,15,5
India,Chhattisgarh,Bhilai,"Civic Center, Bhilai - Bhilai Steel Plant",17-02-2024 10:00:00,21.185571,81.343175,PM2.5,30,47,37
India,Chhattisgarh,Bhilai,"Civic Center, Bhilai - Bhilai Steel Plant",17-02-2024 10:00:00,21.185571,81.343175,NH3,1,10,3
India,Chhattisgarh,Bhilai,"Hathkhoj, Bhilai - CECB",17-02-2024 10:00:00,21.224231,81.408350,SO2,12,41,22
India,Chhattisgarh,Chhal,"Nawapara SECL Colony, Chhal - CECB",17-02-2024 10:00:00,22.118125,83.140608,PM10,39,146,76
India,Chhattisgarh,Chhal,"Nawapara SECL Colony, Chhal - CECB",17-02-2024 10:00:00,22.118125,83.140608,NH3,2,2,2
India,Chhattisgarh,Korba,"Rampur, Korba - CECB",17-02-2024 10:00:00,22.368195,82.746431,CO,17,37,26
India,Chhattisgarh,Korba,"Rampur, Korba - CECB",17-02-2024 10:00:00,22.368195,82.746431,OZONE,2,64,9
India,Chhattisgarh,Korba,"Urja Nagar, Korba - CECB",17-02-2024 10:00:00,22.348441,82.549611,PM2.5,25,76,47
India,Chhattisgarh,Korba,"Urja Nagar, Korba - CECB",17-02-2024 10:00:00,22.348441,82.549611,PM10,26,50,37
India,Chhattisgarh,Korba,"Urja Nagar, Korba - CECB",17-02-2024 10:00:00,22.348441,82.549611,SO2,3,57,11
India,Chhattisgarh,Korba,"Urja Nagar, Korba - CECB",17-02-2024 10:00:00,22.348441,82.549611,CO,16,40,29
India,Chhattisgarh,Kunjemura,"OP Jindal School, Kunjemura - CECB",17-02-2024 10:00:00,22.126650,83.483212,NH3,1,4,2
India,Chhattisgarh,Kunjemura,"OP Jindal School, Kunjemura - CECB",17-02-2024 10:00:00,22.126650,83.483212,SO2,5,18,10
India,Chhattisgarh,Milupara,"Govt. Higher Secondary School, Milupara - CECB",17-02-2024 10:00:00,22.1910172,83.5197009,NO2,13,53,20
India,Chhattisgarh,Milupara,"Govt. Higher Secondary School, Milupara - CECB",17-02-2024 10:00:00,22.1910172,83.5197009,SO2,4,44,13
India,Chhattisgarh,Raipur,"AIIMS, Raipur - CECB",17-02-2024 10:00:00,21.258815,81.578979,SO2,6,20,10
India,Chhattisgarh,Raipur,"Bhatagaon New ISBT, Raipur - CECB",17-02-2024 10:00:00,21.219665,81.630094,CO,25,68,48
India,Chhattisgarh,Raipur,"Krishak Nagar, Raipur - CECB",17-02-2024 10:00:00,21.237755,81.705301,NH3,NA,NA,NA
India,Chhattisgarh,Raipur,"Krishak Nagar, Raipur - CECB",17-02-2024 10:00:00,21.237755,81.705301,CO,44,46,45
India,Chhattisgarh,Raipur,"Krishak Nagar, Raipur - CECB",17-02-2024 10:00:00,21.237755,81.705301,OZONE,3,3,3
India,Chhattisgarh,Raipur,"Siltara Phase-II, Raipur - CECB",17-02-2024 10:00:00,21.371751,81.664929,PM2.5,35,245,101
India,Chhattisgarh,Raipur,"Siltara Phase-II, Raipur - CECB",17-02-2024 10:00:00,21.371751,81.664929,PM10,44,139,92
India,Chhattisgarh,Raipur,"Siltara Phase-II, Raipur - CECB",17-02-2024 10:00:00,21.371751,81.664929,OZONE,3,24,3
India,Chhattisgarh,Tumidih,"OP Jindal Industrial Park, Tumidih - CECB",17-02-2024 10:00:00,22.06631475,83.33820077,NH3,NA,NA,NA
India,Chhattisgarh,Tumidih,"OP Jindal Industrial Park, Tumidih - CECB",17-02-2024 10:00:00,22.06631475,83.33820077,OZONE,4,75,6
India,Delhi,Delhi,"Alipur, Delhi - DPCC",17-02-2024 10:00:00,28.815329,77.153010,NO2,15,121,63
India,Delhi,Delhi,"Ashok Vihar, Delhi - DPCC",17-02-2024 10:00:00,28.695381,77.181665,SO2,21,56,30
India,Delhi,Delhi,"Aya Nagar, Delhi - IMD",17-02-2024 10:00:00,28.4706914,77.1099364,OZONE,9,61,10
India,Delhi,Delhi,"Burari Crossing, Delhi - IMD",17-02-2024 10:00:00,28.7256504,77.2011573,NO2,3,8,6
India,Delhi,Delhi,"CRRI Mathura Road, Delhi - IMD",17-02-2024 10:00:00,28.5512005,77.2735737,PM2.5,60,353,228
India,Delhi,Delhi,"CRRI Mathura Road, Delhi - IMD",17-02-2024 10:00:00,28.5512005,77.2735737,NO2,30,60,48
India,Delhi,Delhi,"CRRI Mathura Road, Delhi - IMD",17-02-2024 10:00:00,28.5512005,77.2735737,CO,92,119,116
India,Delhi,Delhi,"CRRI Mathura Road, Delhi - IMD",17-02-2024 10:00:00,28.5512005,77.2735737,OZONE,3,87,4
India,Delhi,Delhi,"DTU, Delhi - CPCB",17-02-2024 10:00:00,28.7500499,77.1112615,PM2.5,34,254,128
India,Delhi,Delhi,"Dr. Karni Singh Shooting Range, Delhi - DPCC",17-02-2024 10:00:00,28.498571,77.264840,NO2,41,157,106
India,Delhi,Delhi,"Dr. Karni Singh Shooting Range, Delhi - DPCC",17-02-2024 10:00:00,28.498571,77.264840,OZONE,1,256,13
India,Delhi,Delhi,"Dwarka-Sector 8, Delhi - DPCC ",17-02-2024 10:00:00,28.5710274,77.0719006,PM2.5,76,399,297
India,Delhi,Delhi,"Dwarka-Sector 8, Delhi - DPCC ",17-02-2024 10:00:00,28.5710274,77.0719006,NO2,4,17,11
India,Delhi,Delhi,"IHBAS, Dilshad Garden, Delhi - CPCB",17-02-2024 10:00:00,28.6811736,77.3025234,PM2.5,98,271,173
India,Delhi,Delhi,"ITO, Delhi - CPCB",17-02-2024 10:00:00,28.628624,77.241060,CO,29,159,72
India,Delhi,Delhi,"Jahangirpuri, Delhi - DPCC",17-02-2024 10:00:00,28.732820,77.170633,PM2.5,78,419,301
India,Delhi,Delhi,"Jawaharlal Nehru Stadium, Delhi - DPCC",17-02-2024 10:00:00,28.580280,77.233829,PM2.5,47,328,237
India,Delhi,Delhi,"Lodhi Road, Delhi - IITM",17-02-2024 10:00:00,28.588333,77.221667,PM10,84,418,145
India,Delhi,Delhi,"Lodhi Road, Delhi - IITM",17-02-2024 10:00:00,28.588333,77.221667,NH3,8,13,10
India,Delhi,Delhi,"Lodhi Road, Delhi - IMD",17-02-2024 10:00:00,28.5918245,77.2273074,CO,46,102,83
India,Delhi,Delhi,"Major Dhyan Chand National Stadium, Delhi - DPCC",17-02-2024 10:00:00,28.611281,77.237738,PM2.5,52,358,253
India,Delhi,Delhi,"Mandir Marg, Delhi - DPCC",17-02-2024 10:00:00,28.636429,77.201067,PM2.5,58,329,254
India,Delhi,Delhi,"Mandir Marg, Delhi - DPCC",17-02-2024 10:00:00,28.636429,77.201067,NH3,16,18,17
India,Delhi,Delhi,"Mandir Marg, Delhi - DPCC",17-02-2024 10:00:00,28.636429,77.201067,CO,1,107,60
India,Delhi,Delhi,"Mandir Marg, Delhi - DPCC",17-02-2024 10:00:00,28.636429,77.201067,OZONE,7,40,9
India,Delhi,Delhi,"Mundka, Delhi - DPCC",17-02-2024 10:00:00,28.684678,77.076574,PM10,114,422,257
India,Delhi,Delhi,"NSIT Dwarka, Delhi - CPCB",17-02-2024 10:00:00,28.60909,77.0325413,NO2,44,66,50
India,Delhi,Delhi,"Narela, Delhi - DPCC",17-02-2024 10:00:00,28.822836,77.101981,PM2.5,68,423,283
India,Delhi,Delhi,"Narela, Delhi - DPCC",17-02-2024 10:00:00,28.822836,77.101981,OZONE,5,205,31
India,Delhi,Delhi,"Nehru Nagar, Delhi - DPCC",17-02-2024 10:00:00,28.567890,77.250515,CO,16,148,67
India,Delhi,Delhi,"Nehru Nagar, Delhi - DPCC",17-02-2024 10:00:00,28.567890,77.250515,OZONE,1,265,7
India,Delhi,Delhi,"New Moti Bagh, Delhi - MHUA",17-02-2024 10:00:00,28.57834,77.18400,CO,18,124,91
India,Delhi,Delhi,"Okhla Phase-2, Delhi - DPCC",17-02-2024 10:00:00,28.530785,77.271255,OZONE,10,155,13
India,Delhi,Delhi,"Patparganj, Delhi - DPCC",17-02-2024 10:00:00,28.623763,77.287209,PM2.5,37,320,205
India,Delhi,Delhi,"Patparganj, Delhi - DPCC",17-02-2024 10:00:00,28.623763,77.287209,PM10,95,375,224
India,Delhi,Delhi,"Punjabi Bagh, Delhi - DPCC",17-02-2024 10:00:00,28.674045,77.131023,SO2,23,41,27
India,Delhi,Delhi,"Pusa, Delhi - DPCC",17-02-2024 10:00:00,28.639652,77.146275,CO,14,119,101
India,Delhi,Delhi,"Pusa, Delhi - IMD",17-02-2024 10:00:00,28.636110,77.173332,CO,62,118,104
India,Delhi,Delhi,"Rohini, Delhi - DPCC",17-02-2024 10:00:00,28.732528,77.119920,OZONE,2,138,6
India,Delhi,Delhi,"Shadipur, Delhi - CPCB",17-02-2024 10:00:00,28.6514781,77.1473105,PM10,133,401,270
India,Delhi,Delhi,"Shadipur, Delhi - CPCB",17-02-2024 10:00:00,28.6514781,77.1473105,NO2,43,60,53
India,Delhi,Delhi,"Sirifort, Delhi - CPCB",17-02-2024 10:00:00,28.5504249,77.2159377,SO2,33,47,39
India,Delhi,Delhi,"Sonia Vihar, Delhi - DPCC",17-02-2024 10:00:00,28.710508,77.249485,PM10,91,341,223
India,Delhi,Delhi,"Sonia Vihar, Delhi - DPCC",17-02-2024 10:00:00,28.710508,77.249485,SO2,6,23,11
India,Delhi,Delhi,"Vivek Vihar, Delhi - DPCC",17-02-2024 10:00:00,28.672342,77.315260,NH3,NA,NA,NA
India,Delhi,Delhi,"Vivek Vihar, Delhi - DPCC",17-02-2024 10:00:00,28.672342,77.315260,SO2,23,30,24
India,Gujarat,Ahmedabad,"Gyaspur, Ahmedabad - IITM",17-02-2024 10:00:00,22.977134,72.553024,SO2,4,6,4
India,Gujarat,Ahmedabad,"Maninagar, Ahmedabad - GPCB",17-02-2024 10:00:00,23.002657,72.591912,CO,8,96,19
India,Gujarat,Ahmedabad,"SAC ISRO Bopal, Ahmedabad - IITM",17-02-2024 10:00:00,23.041137,72.456691,NH3,3,4,4
India,Gujarat,Ahmedabad,"SAC ISRO Satellite, Ahmedabad - IITM",17-02-2024 10:00:00,23.023389,72.515201,PM10,98,120,102
India,Gujarat,Ahmedabad,"SAC ISRO Satellite, Ahmedabad - IITM",17-02-2024 10:00:00,23.023389,72.515201,SO2,12,26,15
India,Gujarat,Ahmedabad,"SVPI Airport Hansol, Ahmedabad - IITM",17-02-2024 10:00:00,23.076793,72.627874,CO,26,84,45
India,Gujarat,Ahmedabad,"Sardar Vallabhbhai Patel Stadium, Ahmedabad - IITM",17-02-2024 10:00:00,23.043070,72.562968,PM2.5,83,192,131
India,Gujarat,Ahmedabad,"Sardar Vallabhbhai Patel Stadium, Ahmedabad - IITM",17-02-2024 10:00:00,23.043070,72.562968,PM10,105,148,126
India,Gujarat,Ahmedabad,"Sardar Vallabhbhai Patel Stadium, Ahmedabad - IITM",17-02-2024 10:00:00,23.043070,72.562968,SO2,6,10,8
India,Gujarat,Ankleshwar,"GIDC, Ankleshwar - GPCB",17-02-2024 10:00:00,21.613267,73.010555,SO2,27,139,80
India,Gujarat,Gandhinagar,"GIFT City, Gandhinagar - IITM",17-02-2024 10:00:00,23.163798,72.677768,SO2,NA,NA,NA
India,Gujarat,Gandhinagar,"IIPHG Lekawada, Gandhinagar - IITM",17-02-2024 10:00:00,23.243639,72.68994,SO2,13,13,13
India,Gujarat,Surat,"Science Center, Surat - SMC",17-02-2024 10:00:00,21.170046,72.795405,PM10,35,138,75
India,Gujarat,Surat,"Science Center, Surat - SMC",17-02-2024 10:00:00,21.170046,72.795405,SO2,16,24,19
India,Gujarat,Vapi,"Phase-1 GIDC, Vapi - GPCB",17-02-2024 10:00:00,20.362421,72.918013,PM10,81,404,174
India,Gujarat,Vatva,"Phase-4 GIDC, Vatva - GPCB",17-02-2024 10:00:00,22.969611,72.643500,NO2,26,129,58
India,Gujarat,Vatva,"Phase-4 GIDC, Vatva - GPCB",17-02-2024 10:00:00,22.969611,72.643500,SO2,17,18,17
India,Haryana,Ambala,"Patti Mehar, Ambala - HSPCB",17-02-2024 10:00:00,30.379589,76.778328,NH3,2,5,3
India,Haryana,Ambala,"Patti Mehar, Ambala - HSPCB",17-02-2024 10:00:00,30.379589,76.778328,SO2,1,42,12
India,Haryana,Ambala,"Patti Mehar, Ambala - HSPCB",17-02-2024 10:00:00,30.379589,76.778328,CO,30,60,52
India,Haryana,Bahadurgarh,"Arya Nagar, Bahadurgarh - HSPCB",17-02-2024 10:00:00,28.6701,76.9254,PM2.5,39,304,209
India,Haryana,Bahadurgarh,"Arya Nagar, Bahadurgarh - HSPCB",17-02-2024 10:00:00,28.6701,76.9254,SO2,5,14,11
India,Haryana,Bahadurgarh,"Arya Nagar, Bahadurgarh - HSPCB",17-02-2024 10:00:00,28.6701,76.9254,CO,41,64,49
India,Haryana,Ballabgarh,"Nathu Colony, Ballabgarh - HSPCB",17-02-2024 10:00:00,28.3419248,77.319699,PM10,134,387,232
India,Haryana,Ballabgarh,"Nathu Colony, Ballabgarh - HSPCB",17-02-2024 10:00:00,28.3419248,77.319699,NO2,11,14,13
India,Haryana,Ballabgarh,"Nathu Colony, Ballabgarh - HSPCB",17-02-2024 10:00:00,28.3419248,77.319699,NH3,1,2,2
India,Haryana,Ballabgarh,"Nathu Colony, Ballabgarh - HSPCB",17-02-2024 10:00:00,28.3419248,77.319699,CO,12,84,46
India,Haryana,Bhiwani,"H.B. Colony, Bhiwani - HSPCB",17-02-2024 10:00:00,28.806223,76.141105,PM2.5,95,294,179
India,Haryana,Bhiwani,"H.B. Colony, Bhiwani - HSPCB",17-02-2024 10:00:00,28.806223,76.141105,PM10,88,154,119
India,Haryana,Charkhi Dadri,"Mini Secretariat, Charkhi Dadri - HSPCB",17-02-2024 10:00:00,28.593883,76.270653,SO2,17,24,20
India,Haryana,Dharuhera,"Municipal Corporation Office, Dharuhera -  HSPCB",17-02-2024 10:00:00,28.206800,76.799700,PM10,95,332,206
India,Haryana,Dharuhera,"Municipal Corporation Office, Dharuhera -  HSPCB",17-02-2024 10:00:00,28.206800,76.799700,NO2,44,111,72
India,Haryana,Dharuhera,"Municipal Corporation Office, Dharuhera -  HSPCB",17-02-2024 10:00:00,28.206800,76.799700,CO,10,68,46
India,Haryana,Faridabad,"New Industrial Town, Faridabad - HSPCB",17-02-2024 10:00:00,28.39072,77.30059,PM2.5,108,389,274
India,Haryana,Faridabad,"New Industrial Town, Faridabad - HSPCB",17-02-2024 10:00:00,28.39072,77.30059,SO2,15,25,20
India,Haryana,Faridabad,"Sector 11, Faridabad - HSPCB",17-02-2024 10:00:00,28.376058,77.315741,SO2,8,40,15
India,Haryana,Gurugram,"Sector-51, Gurugram - HSPCB",17-02-2024 10:00:00,28.4227,77.0667,PM2.5,125,397,287
India,Haryana,Gurugram,"Sector-51, Gurugram - HSPCB",17-02-2024 10:00:00,28.4227,77.0667,CO,24,130,107
India,Haryana,Gurugram,"Teri Gram, Gurugram - HSPCB",17-02-2024 10:00:00,28.4275,77.1465,PM10,154,433,299
India,Haryana,Gurugram,"Teri Gram, Gurugram - HSPCB",17-02-2024 10:00:00,28.4275,77.1465,CO,22,62,58
India,Haryana,Gurugram,"Vikas Sadan, Gurugram - HSPCB",17-02-2024 10:00:00,28.4501238,77.0263051,SO2,12,33,25
India,Haryana,Hisar,"Urban Estate-II, Hisar - HSPCB",17-02-2024 10:00:00,29.140560,75.744941,PM2.5,83,320,194
India,Haryana,Hisar,"Urban Estate-II, Hisar - HSPCB",17-02-2024 10:00:00,29.140560,75.744941,NO2,7,9,8
India,Haryana,Hisar,"Urban Estate-II, Hisar - HSPCB",17-02-2024 10:00:00,29.140560,75.744941,SO2,6,71,42
India,Haryana,Hisar,"Urban Estate-II, Hisar - HSPCB",17-02-2024 10:00:00,29.140560,75.744941,CO,40,106,57
India,Haryana,Jind,"Police Lines, Jind - HSPCB",17-02-2024 10:00:00,29.307814,76.337619,PM10,76,150,120
India,Haryana,Karnal,"Sector-12, Karnal - HSPCB",17-02-2024 10:00:00,29.695300,77.002700,OZONE,28,37,33
India,Haryana,Kurukshetra,"Sector-7, Kurukshetra - HSPCB",17-02-2024 10:00:00,29.966942,76.875879,PM10,91,150,116
India,Haryana,Kurukshetra,"Sector-7, Kurukshetra - HSPCB",17-02-2024 10:00:00,29.966942,76.875879,NH3,5,5,5
India,Haryana,Mandikhera,"General Hospital, Mandikhera - HSPCB",17-02-2024 10:00:00,27.9002,76.9938,SO2,31,37,34
India,Haryana,Manesar,"Sector-2 IMT, Manesar - HSPCB",17-02-2024 10:00:00,28.360699,76.936090,NO2,11,29,21
India,Haryana,Manesar,"Sector-2 IMT, Manesar - HSPCB",17-02-2024 10:00:00,28.360699,76.936090,NH3,7,17,11
India,Haryana,Manesar,"Sector-2 IMT, Manesar - HSPCB",17-02-2024 10:00:00,28.360699,76.936090,OZONE,5,57,8
India,Haryana,Narnaul,"Shastri Nagar, Narnaul - HSPCB",17-02-2024 10:00:00,28.060249,76.113115,SO2,13,46,15
India,Haryana,Palwal,"Shyam Nagar, Palwal - HSPCB",17-02-2024 10:00:00,28.1485564,77.3320667,PM10,105,161,138
India,Haryana,Palwal,"Shyam Nagar, Palwal - HSPCB",17-02-2024 10:00:00,28.1485564,77.3320667,CO,8,18,16
India,Haryana,Rohtak,"MD University, Rohtak - HSPCB",17-02-2024 10:00:00,28.52123,76.37138,OZONE,46,55,49
India,Haryana,Sirsa,"F-Block, Sirsa - HSPCB",17-02-2024 10:00:00,29.536400,75.015800,CO,53,74,62
India,Haryana,Sonipat,"Murthal, Sonipat - HSPCB",17-02-2024 10:00:00,29.027200,77.062100,NO2,37,44,40
India,Himachal Pradesh,Baddi,"HIMUDA Complex Phase-1, Baddi - HPPCB",17-02-2024 10:00:00,30.943887,76.801991,PM2.5,153,451,310
India,Himachal Pradesh,Baddi,"HIMUDA Complex Phase-1, Baddi - HPPCB",17-02-2024 10:00:00,30.943887,76.801991,NO2,19,84,46
India,Jammu_and_Kashmir,Srinagar,"Rajbagh, Srinagar - JKSPCB",17-02-2024 10:00:00,34.066206,74.819820,CO,20,23,21
India,Jharkhand,Dhanbad,"Sardar Patel Nagar, Dhanbad - JSPCB",17-02-2024 10:00:00,23.80569,86.44268,NO2,2,211,147
India,Jharkhand,Pathardih,"Mohalbani Ghat, Pathardih - DMC",17-02-2024 10:00:00,23.669880,86.411725,PM10,9,173,95
India,Jharkhand,Pathardih,"Mohalbani Ghat, Pathardih - DMC",17-02-2024 10:00:00,23.669880,86.411725,OZONE,7,44,14
India,Karnataka,Belgaum,"Ramteerth Nagar, Belgaum - KSPCB",17-02-2024 10:00:00,15.888653,74.541751,NO2,26,33,28
India,Karnataka,Belgaum,"Ramteerth Nagar, Belgaum - KSPCB",17-02-2024 10:00:00,15.888653,74.541751,SO2,8,9,8
India,Karnataka,Belgaum,"Ramteerth Nagar, Belgaum - KSPCB",17-02-2024 10:00:00,15.888653,74.541751,OZONE,18,19,19
India,Karnataka,Bengaluru,"BTM Layout, Bengaluru - CPCB",17-02-2024 10:00:00,12.9135218,77.5950804,PM2.5,27,53,39
India,Karnataka,Bengaluru,"BTM Layout, Bengaluru - CPCB",17-02-2024 10:00:00,12.9135218,77.5950804,NO2,35,40,37
India,Karnataka,Bengaluru,"BTM Layout, Bengaluru - CPCB",17-02-2024 10:00:00,12.9135218,77.5950804,SO2,11,13,11
India,Karnataka,Bengaluru,"BTM Layout, Bengaluru - CPCB",17-02-2024 10:00:00,12.9135218,77.5950804,CO,38,43,42
India,Karnataka,Bengaluru,"Bapuji Nagar, Bengaluru - KSPCB",17-02-2024 10:00:00,12.951913,77.539784,PM2.5,65,240,85
India,Karnataka,Bengaluru,"City Railway Station, Bengaluru - KSPCB",17-02-2024 10:00:00,12.9756843,77.5660749,NO2,23,34,28
India,Karnataka,Bengaluru,"Hombegowda Nagar, Bengaluru - KSPCB",17-02-2024 10:00:00,12.938539,77.590100,PM2.5,35,63,47
India,Karnataka,Bengaluru,"Hombegowda Nagar, Bengaluru - KSPCB",17-02-2024 10:00:00,12.938539,77.590100,NH3,2,2,2
India,Karnataka,Bengaluru,"Hombegowda Nagar, Bengaluru - KSPCB",17-02-2024 10:00:00,12.938539,77.590100,CO,14,24,17
India,Karnataka,Bengaluru,"Jayanagar 5th Block, Bengaluru - KSPCB",17-02-2024 10:00:00,12.920984,77.584908,NO2,10,12,11
India,Karnataka,Bengaluru,"Jayanagar 5th Block, Bengaluru - KSPCB",17-02-2024 10:00:00,12.920984,77.584908,CO,1,24,8
India,Karnataka,Bengaluru,"Jigani, Bengaluru - KSPCB",17-02-2024 10:00:00,12.7816279,77.6299145,NO2,31,32,32
India,Karnataka,Bengaluru,"Jigani, Bengaluru - KSPCB",17-02-2024 10:00:00,12.7816279,77.6299145,CO,42,90,66
India,Karnataka,Bengaluru,"Kasturi Nagar, Bengaluru - KSPCB",17-02-2024 10:00:00,13.003872,77.664217,PM10,95,118,108
India,Karnataka,Bengaluru,"Peenya, Bengaluru - CPCB",17-02-2024 10:00:00,13.0270199,77.494094,PM2.5,2,100,57
India,Karnataka,Bengaluru,"Peenya, Bengaluru - CPCB",17-02-2024 10:00:00,13.0270199,77.494094,OZONE,43,82,54
India,Karnataka,Bengaluru,"Sanegurava Halli, Bengaluru - KSPCB",17-02-2024 10:00:00,12.990328,77.5431385,PM10,26,60,35
India,Karnataka,Bengaluru,"Shivapura_Peenya, Bengaluru - KSPCB",17-02-2024 10:00:00,13.0246342,77.5080115,OZONE,53,56,55
India,Karnataka,Bidar,"Naubad, Bidar - KSPCB",17-02-2024 10:00:00,17.930306,77.482194,PM2.5,21,81,48
India,Karnataka,Bidar,"Naubad, Bidar - KSPCB",17-02-2024 10:00:00,17.930306,77.482194,CO,26,74,59
India,Karnataka,Bidar,"Naubad, Bidar - KSPCB",17-02-2024 10:00:00,17.930306,77.482194,OZONE,21,57,27
India,Karnataka,Chamarajanagar,"Urban, Chamarajanagar - KSPCB",17-02-2024 10:00:00,11.55358,76.55521,SO2,4,8,4
India,Karnataka,Chikkaballapur,"Chikkaballapur Rural, Chikkaballapur - KSPCB",17-02-2024 10:00:00,13.428828,77.731418,OZONE,24,25,25
India,Karnataka,Chikkamagaluru,"Kalyana Nagara, Chikkamagaluru - KSPCB",17-02-2024 10:00:00,13.328028,75.797056,NO2,17,30,21
India,Karnataka,Chikkamagaluru,"Kalyana Nagara, Chikkamagaluru - KSPCB",17-02-2024 10:00:00,13.328028,75.797056,NH3,3,5,3
India,Karnataka,Chikkamagaluru,"Kalyana Nagara, Chikkamagaluru - KSPCB",17-02-2024 10:00:00,13.328028,75.797056,OZONE,21,65,37
India,Karnataka,Davanagere,"Devaraj Urs Badavane, Davanagere - KSPCB",17-02-2024 10:00:00,14.475800,75.905200,NO2,9,13,11
India,Karnataka,Gadag,"Panchal Nagar, Gadag - KSPCB",17-02-2024 10:00:00,15.411456,75.638133,NH3,2,3,2
India,Karnataka,Gadag,"Panchal Nagar, Gadag - KSPCB",17-02-2024 10:00:00,15.411456,75.638133,SO2,14,19,16
India,Karnataka,Hassan,"B.Katihalli, Hassan - KSPCB",17-02-2024 10:00:00,13.008556,76.125258,PM10,24,107,79
India,Karnataka,Hassan,"B.Katihalli, Hassan - KSPCB",17-02-2024 10:00:00,13.008556,76.125258,OZONE,5,29,24
India,Karnataka,Haveri,"Ashwini Nagar, Haveri - KSPCB",17-02-2024 10:00:00,14.791800,75.389600,NH3,3,4,3
India,Karnataka,Haveri,"Ashwini Nagar, Haveri - KSPCB",17-02-2024 10:00:00,14.791800,75.389600,SO2,14,14,14
India,Karnataka,Haveri,"Ashwini Nagar, Haveri - KSPCB",17-02-2024 10:00:00,14.791800,75.389600,CO,32,34,34
India,Karnataka,Hubballi,"Lingaraj Nagar, Hubballi - KSPCB",17-02-2024 10:00:00,15.3714823,75.1160168,PM10,53,71,59
India,Karnataka,Hubballi,"Lingaraj Nagar, Hubballi - KSPCB",17-02-2024 10:00:00,15.3714823,75.1160168,NO2,7,16,15
India,Karnataka,Kalaburagi,"Lal Bahadur Shastri Nagar, Kalaburagi - KSPCB",17-02-2024 10:00:00,17.321993,76.822628,CO,38,42,39
India,Karnataka,Kalaburagi,"Lal Bahadur Shastri Nagar, Kalaburagi - KSPCB",17-02-2024 10:00:00,17.321993,76.822628,OZONE,12,60,22
India,Karnataka,Kalaburagi,"Mahatma Basaveswar Colony, Kalaburgi - KSPCB",17-02-2024 10:00:00,17.336318,76.847397,NH3,2,4,2
India,Karnataka,Kalaburagi,"Mahatma Basaveswar Colony, Kalaburgi - KSPCB",17-02-2024 10:00:00,17.336318,76.847397,OZONE,4,27,11
India,Karnataka,Koppal,"Diwator Nagar, Koppal - KSPCB",17-02-2024 10:00:00,15.347630,76.181767,PM2.5,10,47,32
India,Karnataka,Madikeri,"Stuart Hill, Madikeri - KSPCB",17-02-2024 10:00:00,12.415911,75.735050,SO2,4,4,4
India,Karnataka,Mangalore,"Kadri, Mangalore - KSPCB",17-02-2024 10:00:00,12.889250,74.853000,NO2,6,7,6
India,Karnataka,Mangalore,"Kadri, Mangalore - KSPCB",17-02-2024 10:00:00,12.889250,74.853000,CO,38,49,45
India,Karnataka,Mysuru,"Hebbal 1st Stage, Mysuru - KSPCB",17-02-2024 10:00:00,12.21041,76.37376,PM10,43,71,55
India,Karnataka,Raichur,"Haji Colony, Raichur - KSPCB",17-02-2024 10:00:00,16.208139,77.348417,SO2,60,74,66
India,Karnataka,Raichur,"Haji Colony, Raichur - KSPCB",17-02-2024 10:00:00,16.208139,77.348417,CO,82,117,89
India,Karnataka,Ramanagara,"Vijay Nagar, Ramanagara - KSPCB",17-02-2024 10:00:00,12.733409,77.298051,SO2,24,31,27
India,Karnataka,Shivamogga,"Vinoba Nagara, Shivamogga - KSPCB",17-02-2024 10:00:00,13.940000,75.555917,PM10,50,76,58
India,Karnataka,Tumakuru,"Thimmalapura, Tumakuru - KSPCB",17-02-2024 10:00:00,13.377516,77.099072,SO2,9,14,10
India,Karnataka,Udupi,"Brahmagiri, Udupi - KSPCB",17-02-2024 10:00:00,13.34194444,74.74694444,SO2,20,23,21
India,Karnataka,Vijayapura,"Ibrahimpur, Vijayapura - KSPCB",17-02-2024 10:00:00,16.802639,75.722694,NH3,2,2,2
India,Kerala,Eloor,"Udyogamandal, Eloor - Kerala PCB",17-02-2024 10:00:00,10.073232,76.302765,CO,4,67,17
India,Kerala,Eloor,"Udyogamandal, Eloor - Kerala PCB",17-02-2024 10:00:00,10.073232,76.302765,OZONE,10,30,10
India,Kerala,Kannur,"Thavakkara, Kannur - Kerala PCB",17-02-2024 10:00:00,11.875000,75.373200,OZONE,31,36,32
India,Kerala,Kochi,"Vyttila, Kochi - Kerala PCB",17-02-2024 10:00:00,9.969447,76.321186,CO,62,66,65
India,Kerala,Kollam,"Polayathode, Kollam - Kerala PCB",17-02-2024 10:00:00,8.8787,76.6073,PM2.5,64,130,91
India,Kerala,Kollam,"Polayathode, Kollam - Kerala PCB",17-02-2024 10:00:00,8.8787,76.6073,OZONE,31,39,33
India,Kerala,Thiruvananthapuram,"Kariavattom, Thiruvananthapuram - Kerala PCB",17-02-2024 10:00:00,8.563700,76.886500,PM2.5,69,84,78
India,Kerala,Thiruvananthapuram,"Kariavattom, Thiruvananthapuram - Kerala PCB",17-02-2024 10:00:00,8.563700,76.886500,OZONE,25,31,28
India,Madhya Pradesh,Bhopal,"T T Nagar, Bhopal - MPPCB",17-02-2024 10:00:00,23.233584,77.400574,NH3,3,6,5
India,Madhya Pradesh,Bhopal,"T T Nagar, Bhopal - MPPCB",17-02-2024 10:00:00,23.233584,77.400574,SO2,11,50,29
India,Madhya Pradesh,Dewas,"Bhopal Chauraha, Dewas - MPPCB",17-02-2024 10:00:00,22.9682591,76.064118,NO2,11,13,12
India,Madhya Pradesh,Gwalior,"City Center, Gwalior - MPPCB",17-02-2024 10:00:00,26.203442,78.193251,CO,26,114,57
India,Madhya Pradesh,Gwalior,"Deen Dayal Nagar, Gwalior - MPPCB",17-02-2024 10:00:00,26.259242,78.216432,SO2,16,22,18
India,Madhya Pradesh,Gwalior,"Deen Dayal Nagar, Gwalior - MPPCB",17-02-2024 10:00:00,26.259242,78.216432,CO,32,109,70
India,Madhya Pradesh,Gwalior,"Maharaj Bada, Gwalior - MPPCB",17-02-2024 10:00:00,26.200388,78.147714,PM10,101,322,185
India,Madhya Pradesh,Gwalior,"Phool Bagh, Gwalior - Mondelez Ind. Food",17-02-2024 10:00:00,26.210536,78.171,PM2.5,16,329,215
India,Madhya Pradesh,Gwalior,"Phool Bagh, Gwalior - Mondelez Ind. Food",17-02-2024 10:00:00,26.210536,78.171,NO2,4,5,4
India,Madhya Pradesh,Indore,"Maguda Nagar, Indore - IMC",17-02-2024 10:00:00,22.7524,75.8872,NH3,1,2,1
India,Madhya Pradesh,Indore,"Regional Park, Indore - IMC",17-02-2024 10:00:00,22.6780,75.8559,CO,20,36,26
India,Madhya Pradesh,Jabalpur,"Govindh Bhavan Colony, Jabalpur - JMC",17-02-2024 10:00:00,23.163174,79.973061,PM2.5,45,107,69
India,Madhya Pradesh,Jabalpur,"Govindh Bhavan Colony, Jabalpur - JMC",17-02-2024 10:00:00,23.163174,79.973061,NO2,11,28,17
India,Madhya Pradesh,Jabalpur,"Gupteshwar, Jabalpur - JMC",17-02-2024 10:00:00,23.142888,79.916147,PM2.5,42,273,96
India,Madhya Pradesh,Jabalpur,"Gupteshwar, Jabalpur - JMC",17-02-2024 10:00:00,23.142888,79.916147,CO,23,145,50
India,Madhya Pradesh,Jabalpur,"Marhatal, Jabalpur - MPPCB",17-02-2024 10:00:00,23.168606,79.932247,PM2.5,82,334,179
India,Madhya Pradesh,Jabalpur,"Marhatal, Jabalpur - MPPCB",17-02-2024 10:00:00,23.168606,79.932247,NH3,4,6,5
India,Madhya Pradesh,Jabalpur,"Marhatal, Jabalpur - MPPCB",17-02-2024 10:00:00,23.168606,79.932247,OZONE,9,56,25
India,Madhya Pradesh,Maihar,"Sahilara, Maihar - KJS Cements",17-02-2024 10:00:00,24.2613009,80.7231783,PM10,28,78,47
India,Madhya Pradesh,Maihar,"Sahilara, Maihar - KJS Cements",17-02-2024 10:00:00,24.2613009,80.7231783,NO2,14,14,14
India,Madhya Pradesh,Maihar,"Sahilara, Maihar - KJS Cements",17-02-2024 10:00:00,24.2613009,80.7231783,SO2,14,16,14
India,Madhya Pradesh,Mandideep,"Sector-D Industrial Area, Mandideep - MPPCB",17-02-2024 10:00:00,23.108440,77.511428,NH3,9,12,11
India,Madhya Pradesh,Pithampur,"Sector-2 Industrial Area, Pithampur - MPPCB",17-02-2024 10:00:00,22.624758,75.675238,NO2,9,30,17
India,Madhya Pradesh,Ratlam,"Shasthri Nagar, Ratlam - IPCA Lab",17-02-2024 10:00:00,23.331731,75.045981,PM10,106,168,131
India,Madhya Pradesh,Ratlam,"Shasthri Nagar, Ratlam - IPCA Lab",17-02-2024 10:00:00,23.331731,75.045981,NO2,1,84,21
India,Madhya Pradesh,Sagar,"Deen Dayal Nagar, Sagar - MPPCB",17-02-2024 10:00:00,23.8640158,78.80289321,PM10,34,135,70
India,Madhya Pradesh,Sagar,"Deen Dayal Nagar, Sagar - MPPCB",17-02-2024 10:00:00,23.8640158,78.80289321,NO2,15,24,23
India,Madhya Pradesh,Singrauli,"Suryakiran Bhawan NCL, Singrauli - MPPCB",17-02-2024 10:00:00,24.108970,82.645580,NH3,3,5,4
India,Maharashtra,Ahmednagar,"Tarakpur, Ahmednagar - MPCB",17-02-2024 10:00:00,19.10122,74.73339,NO2,39,129,77
India,Maharashtra,Akola,"Ramdaspeth, Akola - MPCB",17-02-2024 10:00:00,20.719516,77.000253,PM10,62,407,131
India,Maharashtra,Aurangabad,"MIDC Chilkalthana, Aurangabad - MPCB",17-02-2024 10:00:00,19.875620,75.387310,PM2.5,44,136,76
India,Maharashtra,Aurangabad,"MIDC Chilkalthana, Aurangabad - MPCB",17-02-2024 10:00:00,19.875620,75.387310,NH3,3,4,4
India,Maharashtra,Aurangabad,"More Chowk Waluj, Aurangabad - MPCB",17-02-2024 10:00:00,19.8389439,75.244448,NO2,33,39,34
India,Maharashtra,Aurangabad,"Rachnakar Colony, Aurangabad - MPCB",17-02-2024 10:00:00,19.863756,75.321188,NO2,17,100,40
India,Maharashtra,Belapur,"CBD Belapur, Belapur - MPCB",17-02-2024 10:00:00,19.0243902,73.0406721,PM10,118,436,156
India,Maharashtra,Belapur,"CBD Belapur, Belapur - MPCB",17-02-2024 10:00:00,19.0243902,73.0406721,OZONE,3,27,4
India,Maharashtra,Bhiwandi,"Gokul Nagar, Bhiwandi - MPCB",17-02-2024 10:00:00,19.309073,73.057223,CO,31,118,91
India,Maharashtra,Chandrapur,"Chauhan Colony, Chandrapur - MPCB",17-02-2024 10:00:00,19.962900,79.298714,PM2.5,50,231,112
India,Maharashtra,Chandrapur,"Chauhan Colony, Chandrapur - MPCB",17-02-2024 10:00:00,19.962900,79.298714,PM10,48,134,84
India,Maharashtra,Chandrapur,"MIDC Khutala, Chandrapur - MPCB",17-02-2024 10:00:00,19.9775302,79.2337086,PM10,NA,NA,NA
India,Maharashtra,Chandrapur,"MIDC Khutala, Chandrapur - MPCB",17-02-2024 10:00:00,19.9775302,79.2337086,NO2,NA,NA,NA
India,Maharashtra,Chandrapur,"MIDC Khutala, Chandrapur - MPCB",17-02-2024 10:00:00,19.9775302,79.2337086,NH3,NA,NA,NA
India,Maharashtra,Dhule,"Deopur, Dhule - MPCB",17-02-2024 10:00:00,20.918946,74.776388,CO,10,50,33
India,Maharashtra,Jalgaon,"Prabhat Colony, Jalgaon - MPCB",17-02-2024 10:00:00,21.001264,75.565602,PM10,85,126,111
India,Maharashtra,Jalgaon,"Prabhat Colony, Jalgaon - MPCB",17-02-2024 10:00:00,21.001264,75.565602,SO2,8,39,18
India,Maharashtra,Jalgaon,"Prabhat Colony, Jalgaon - MPCB",17-02-2024 10:00:00,21.001264,75.565602,OZONE,17,97,20
India,Maharashtra,Jalna,"Old MIDC, Jalna - MPCB",17-02-2024 10:00:00,19.854616,75.905894,SO2,8,12,10
India,Maharashtra,Kolhapur,"Shivaji University, Kolhapur - MPCB",17-02-2024 10:00:00,16.6870449,74.2505872,CO,32,108,70
India,Maharashtra,Latur,"Sawe Wadi, Latur - MPCB",17-02-2024 10:00:00,18.39963,76.57452,PM2.5,41,366,96
India,Maharashtra,Latur,"Sawe Wadi, Latur - MPCB",17-02-2024 10:00:00,18.39963,76.57452,SO2,2,7,4
India,Maharashtra,Latur,"Sawe Wadi, Latur - MPCB",17-02-2024 10:00:00,18.39963,76.57452,OZONE,12,78,37
India,Maharashtra,Mahad,"Kamble Tarf Birwadi, Mahad - MPCB",17-02-2024 10:00:00,18.1023399,73.4783687,CO,23,28,25
India,Maharashtra,Mahad,"Kamble Tarf Birwadi, Mahad - MPCB",17-02-2024 10:00:00,18.1023399,73.4783687,OZONE,15,116,22
India,Maharashtra,Malegaon,"Mahesh Nagar, Malegaon - MPCB",17-02-2024 10:00:00,20.555712,74.529236,PM10,106,404,185
India,Maharashtra,Malegaon,"Mahesh Nagar, Malegaon - MPCB",17-02-2024 10:00:00,20.555712,74.529236,SO2,4,11,7
India,Maharashtra,Malegaon,"Mahesh Nagar, Malegaon - MPCB",17-02-2024 10:00:00,20.555712,74.529236,CO,49,52,50
India,Maharashtra,Malegaon,"Mahesh Nagar, Malegaon - MPCB",17-02-2024 10:00:00,20.555712,74.529236,OZONE,7,88,17
India,Maharashtra,Mira-Bhayandar,"Bhayandar West, Mira-Bhayandar - MPCB",17-02-2024 10:00:00,19.296481,72.840923,PM2.5,138,305,215
India,Maharashtra,Mira-Bhayandar,"Bhayandar West, Mira-Bhayandar - MPCB",17-02-2024 10:00:00,19.296481,72.840923,NH3,5,10,7
India,Maharashtra,Mira-Bhayandar,"Bhayandar West, Mira-Bhayandar - MPCB",17-02-2024 10:00:00,19.296481,72.840923,CO,29,76,60
India,Maharashtra,Mumbai,"Bandra Kurla Complex, Mumbai - MPCB",17-02-2024 10:00:00,19.065931,72.862131,NO2,NA,NA,NA
India,Maharashtra,Mumbai,"Bandra Kurla Complex, Mumbai - MPCB",17-02-2024 10:00:00,19.065931,72.862131,OZONE,NA,NA,NA
India,Maharashtra,Mumbai,"Borivali East, Mumbai - IITM",17-02-2024 10:00:00,19.23241,72.86895,PM2.5,85,286,161
India,Maharashtra,Mumbai,"Chakala-Andheri East, Mumbai - IITM",17-02-2024 10:00:00,19.11074,72.86084,PM10,111,156,133
India,Maharashtra,Mumbai,"Chakala-Andheri East, Mumbai - IITM",17-02-2024 10:00:00,19.11074,72.86084,OZONE,1,193,6
India,Maharashtra,Mumbai,"Chembur, Mumbai - MPCB",17-02-2024 10:00:00,19.0364585,72.8954371,NH3,4,6,4
India,Maharashtra,Mumbai,"Chhatrapati Shivaji Intl. Airport (T2), Mumbai - MPCB",17-02-2024 10:00:00,19.10078,72.87462,CO,83,119,117
India,Maharashtra,Mumbai,"Ghatkopar, Mumbai - BMC",17-02-2024 10:00:00,19.083694,72.920967,CO,NA,NA,NA
India,Maharashtra,Mumbai,"Ghatkopar, Mumbai - BMC",17-02-2024 10:00:00,19.083694,72.920967,OZONE,NA,NA,NA
India,Maharashtra,Mumbai,"Kandivali West, Mumbai - BMC",17-02-2024 10:00:00,19.215859,72.831718,NO2,21,121,66
India,Maharashtra,Mumbai,"Kandivali West, Mumbai - BMC",17-02-2024 10:00:00,19.215859,72.831718,NH3,NA,NA,NA
India,Maharashtra,Mumbai,"Kherwadi_Bandra East, Mumbai - MPCB",17-02-2024 10:00:00,19.0632143,72.8456324,OZONE,1,81,3
India,Maharashtra,Mumbai,"Khindipada-Bhandup West, Mumbai - IITM",17-02-2024 10:00:00,19.1653323,72.922099,PM2.5,76,174,124
India,Maharashtra,Mumbai,"Khindipada-Bhandup West, Mumbai - IITM",17-02-2024 10:00:00,19.1653323,72.922099,NH3,5,15,7
India,Maharashtra,Mumbai,"Malad West, Mumbai - IITM",17-02-2024 10:00:00,19.19709,72.82204,SO2,2,22,10
India,Maharashtra,Mumbai,"Mindspace-Malad West, Mumbai - MPCB",17-02-2024 10:00:00,19.1878657,72.8304069,PM2.5,100,311,182
India,Maharashtra,Mumbai,"Mindspace-Malad West, Mumbai - MPCB",17-02-2024 10:00:00,19.1878657,72.8304069,SO2,4,21,10
India,Maharashtra,Mumbai,"Mindspace-Malad West, Mumbai - MPCB",17-02-2024 10:00:00,19.1878657,72.8304069,OZONE,4,121,5
India,Maharashtra,Mumbai,"Mulund West, Mumbai - MPCB",17-02-2024 10:00:00,19.1750,72.9419,NO2,23,29,25
India,Maharashtra,Mumbai,"Navy Nagar-Colaba, Mumbai - IITM",17-02-2024 10:00:00,18.897756,72.813320,NO2,89,206,143
India,Maharashtra,Mumbai,"Navy Nagar-Colaba, Mumbai - IITM",17-02-2024 10:00:00,18.897756,72.813320,OZONE,3,233,35
India,Maharashtra,Mumbai,"Powai, Mumbai - MPCB",17-02-2024 10:00:00,19.137500,72.915056,NH3,1,7,1
India,Maharashtra,Mumbai,"Sewri, Mumbai - BMC",17-02-2024 10:00:00,19.000084,72.856730,PM2.5,125,286,201
India,Maharashtra,Mumbai,"Sion, Mumbai - MPCB",17-02-2024 10:00:00,19.047000,72.874600,PM10,94,227,147
India,Maharashtra,Mumbai,"Sion, Mumbai - MPCB",17-02-2024 10:00:00,19.047000,72.874600,CO,34,100,92
India,Maharashtra,Mumbai,"Sion, Mumbai - MPCB",17-02-2024 10:00:00,19.047000,72.874600,OZONE,14,40,17
India,Maharashtra,Mumbai,"Vasai West, Mumbai - MPCB",17-02-2024 10:00:00,19.383200,72.820400,PM10,49,141,104
India,Maharashtra,Mumbai,"Vasai West, Mumbai - MPCB",17-02-2024 10:00:00,19.383200,72.820400,CO,32,72,62
India,Maharashtra,Mumbai,"Vasai West, Mumbai - MPCB",17-02-2024 10:00:00,19.383200,72.820400,OZONE,7,69,10
India,Maharashtra,Mumbai,"Worli, Mumbai - MPCB",17-02-2024 10:00:00,18.9936162,72.8128113,OZONE,7,13,10
India,Maharashtra,Nagpur,"Ambazari, Nagpur - MPCB",17-02-2024 10:00:00,21.121801,79.04952,PM10,103,163,122
India,Maharashtra,Nagpur,"Ambazari, Nagpur - MPCB",17-02-2024 10:00:00,21.121801,79.04952,NH3,1,9,3
India,Maharashtra,Nagpur,"Mahal, Nagpur - MPCB",17-02-2024 10:00:00,21.14472,79.107595,PM2.5,96,208,140
India,Maharashtra,Nagpur,"Mahal, Nagpur - MPCB",17-02-2024 10:00:00,21.14472,79.107595,NH3,7,15,9
India,Maharashtra,Nagpur,"Opp GPO Civil Lines, Nagpur - MPCB",17-02-2024 10:00:00,21.152875,79.0517531,NH3,NA,NA,NA
India,Maharashtra,Nagpur,"Ram Nagar, Nagpur - MPCB",17-02-2024 10:00:00,21.143383,79.048912,PM10,121,254,155
India,Maharashtra,Nagpur,"Ram Nagar, Nagpur - MPCB",17-02-2024 10:00:00,21.143383,79.048912,SO2,4,49,20
India,Maharashtra,Nagpur,"Ram Nagar, Nagpur - MPCB",17-02-2024 10:00:00,21.143383,79.048912,CO,21,95,25
India,Maharashtra,Nanded,"Sneh Nagar, Nanded - MPCB",17-02-2024 10:00:00,19.173852,77.296291,NO2,16,63,34
India,Maharashtra,Nashik,"Gangapur Road, Nashik - MPCB",17-02-2024 10:00:00,20.0073285,73.7762427,PM10,51,106,74
India,Maharashtra,Nashik,"Hirawadi, Nashik - MPCB",17-02-2024 10:00:00,20.021503,73.813844,CO,13,54,28
India,Maharashtra,Nashik,"MIDC Ambad, Nashik - MPCB",17-02-2024 10:00:00,19.950220,73.731480,NH3,2,3,3
India,Maharashtra,Nashik,"MIDC Ambad, Nashik - MPCB",17-02-2024 10:00:00,19.950220,73.731480,CO,24,86,48
India,Maharashtra,Nashik,"Pandav Nagari, Nashik - MPCB",17-02-2024 10:00:00,19.9591346,73.7788008,PM10,69,139,100
India,Maharashtra,Nashik,"Pandav Nagari, Nashik - MPCB",17-02-2024 10:00:00,19.9591346,73.7788008,CO,17,106,63
India,Maharashtra,Navi Mumbai,"Mahape, Navi Mumbai - MPCB",17-02-2024 10:00:00,19.1135051,73.008978,NO2,NA,NA,NA
India,Maharashtra,Navi Mumbai,"Mahape, Navi Mumbai - MPCB",17-02-2024 10:00:00,19.1135051,73.008978,SO2,NA,NA,NA
India,Maharashtra,Navi Mumbai,"Nerul, Navi Mumbai - MPCB",17-02-2024 10:00:00,19.008751,73.016620,NO2,32,50,42
India,Maharashtra,Navi Mumbai,"Nerul, Navi Mumbai - MPCB",17-02-2024 10:00:00,19.008751,73.016620,SO2,9,18,14
India,Maharashtra,Navi Mumbai,"Sanpada, Navi Mumbai - MPCB",17-02-2024 10:00:00,19.0575752,73.0151367,NH3,33,33,33
India,Maharashtra,Navi Mumbai,"Sanpada, Navi Mumbai - MPCB",17-02-2024 10:00:00,19.0575752,73.0151367,CO,24,106,63
India,Maharashtra,Navi Mumbai,"Sector-19A Nerul, Navi Mumbai - IITM",17-02-2024 10:00:00,19.044,73.0325,NH3,9,24,16
India,Maharashtra,Navi Mumbai,"Sector-2E Kalamboli, Navi Mumbai - MPCB",17-02-2024 10:00:00,19.02579,73.10297,NO2,31,131,67
India,Maharashtra,Navi Mumbai,"Tondare-Taloja, Navi Mumbai - MPCB",17-02-2024 10:00:00,19.0630,73.1209,NH3,1,11,8
India,Maharashtra,Parbhani,"Masoom Colony, Parbhani - MPCB",17-02-2024 10:00:00,19.265594,76.761463,PM2.5,40,218,93
India,Maharashtra,Parbhani,"Masoom Colony, Parbhani - MPCB",17-02-2024 10:00:00,19.265594,76.761463,PM10,90,113,101
India,Maharashtra,Parbhani,"Masoom Colony, Parbhani - MPCB",17-02-2024 10:00:00,19.265594,76.761463,SO2,2,84,32
India,Maharashtra,Pimpri-Chinchwad,"Gavalinagar, Pimpri Chinchwad - MPCB",17-02-2024 10:00:00,18.63673,73.82487,NH3,2,31,9
India,Maharashtra,Pimpri-Chinchwad,"Gavalinagar, Pimpri Chinchwad - MPCB",17-02-2024 10:00:00,18.63673,73.82487,SO2,9,29,15
India,Maharashtra,Pimpri-Chinchwad,"Thergaon, Pimpri Chinchwad - MPCB",17-02-2024 10:00:00,18.616318,73.765797,CO,16,105,72
India,Maharashtra,Pimpri-Chinchwad,"Thergaon, Pimpri Chinchwad - MPCB",17-02-2024 10:00:00,18.616318,73.765797,OZONE,2,188,10
India,Maharashtra,Pune,"Alandi, Pune - IITM",17-02-2024 10:00:00,18.675076,73.892743,PM2.5,NA,NA,NA
India,Maharashtra,Pune,"Bhosari, Pune - IITM",17-02-2024 10:00:00,18.640051,73.848956,PM10,72,191,132
India,Maharashtra,Pune,"Mhada Colony, Pune - IITM",17-02-2024 10:00:00,18.573040,73.927715,CO,34,88,62
India,Maharashtra,Pune,"Savitribai Phule Pune University, Pune - MPCB",17-02-2024 10:00:00,18.547056,73.826908,PM2.5,55,194,114
India,Maharashtra,Pune,"Savitribai Phule Pune University, Pune - MPCB",17-02-2024 10:00:00,18.547056,73.826908,NO2,9,57,34
India,Maharashtra,Pune,"Savitribai Phule Pune University, Pune - MPCB",17-02-2024 10:00:00,18.547056,73.826908,NH3,1,10,6
India,Maharashtra,Sangli,"Vijay Nagar, Sangli - MPCB",17-02-2024 10:00:00, 16.5038,74.3623,OZONE,30,45,30
India,Maharashtra,Solapur,"Dnyaneshwar Nagar, Solapur - MPCB",17-02-2024 10:00:00,17.6336264,75.9132495,SO2,4,111,22
India,Maharashtra,Solapur,"Ratandeep Housing Society, Solapur - MPCB",17-02-2024 10:00:00,17.65439,75.90649,PM10,43,114,71
India,Maharashtra,Solapur,"Solapur, Solapur - MPCB",17-02-2024 10:00:00,17.6599188,75.9063906,PM2.5,51,142,91
India,Maharashtra,Thane,"Kasarvadavali, Thane - MPCB",17-02-2024 10:00:00,19.26777,72.97182,PM2.5,66,202,119
India,Maharashtra,Thane,"Kasarvadavali, Thane - MPCB",17-02-2024 10:00:00,19.26777,72.97182,PM10,101,153,128
India,Maharashtra,Thane,"Pimpleshwar Mandir, Thane - MPCB",17-02-2024 10:00:00,19.192056,72.9585188,PM10,130,309,194
India,Maharashtra,Thane,"Upvan Fort, Thane - MPCB",17-02-2024 10:00:00,19.222279,72.957979,PM2.5,96,225,141
India,Maharashtra,Thane,"Upvan Fort, Thane - MPCB",17-02-2024 10:00:00,19.222279,72.957979,OZONE,38,301,67
India,Maharashtra,Ulhasnagar,"Sidhi Vinayak Nagar, Ulhasnagar - MPCB",17-02-2024 10:00:00,19.235581,73.159121,PM10,114,236,150
India,Maharashtra,Ulhasnagar,"Sidhi Vinayak Nagar, Ulhasnagar - MPCB",17-02-2024 10:00:00,19.235581,73.159121,NH3,1,2,1
India,Manipur,Imphal,"DM College of Science, Imphal - Manipur PCB",17-02-2024 10:00:00,24.8207389,93.9423085,PM2.5,11,56,24
India,Manipur,Imphal,"DM College of Science, Imphal - Manipur PCB",17-02-2024 10:00:00,24.8207389,93.9423085,NH3,2,2,2
India,Manipur,Imphal,"DM College of Science, Imphal - Manipur PCB",17-02-2024 10:00:00,24.8207389,93.9423085,SO2,81,88,85
India,Manipur,Imphal,"DM College of Science, Imphal - Manipur PCB",17-02-2024 10:00:00,24.8207389,93.9423085,CO,6,6,6
India,Manipur,Imphal,"Manipur University, Imphal - Manipur PCB",17-02-2024 10:00:00,24.7524239,93.9286218,SO2,67,73,70
India,Mizoram,Aizawl,"Sikulpuikawn, Aizawl - Mizoram PCB",17-02-2024 10:00:00,23.7176342,92.7192841,NH3,NA,NA,NA
India,Nagaland,Kohima,"PWD Juction, Kohima - NPCB",17-02-2024 10:00:00,25.6635413,94.0989878,PM10,52,163,88
India,Odisha,Angul,"Hakimapada, Angul - OSPCB",17-02-2024 10:00:00,20.832874,85.104082,PM10,NA,NA,NA
India,Odisha,Balasore,"Kalidaspur, Balasore - OSPCB",17-02-2024 10:00:00,21.51161,86.89088,NH3,4,12,7
India,Odisha,Balasore,"Kalidaspur, Balasore - OSPCB",17-02-2024 10:00:00,21.51161,86.89088,SO2,16,46,25
India,Odisha,Barbil,"Forest Office, Barbil - OSPCB",17-02-2024 10:00:00,22.1166054,85.3945546,PM2.5,48,270,140
India,Odisha,Barbil,"Forest Office, Barbil - OSPCB",17-02-2024 10:00:00,22.1166054,85.3945546,PM10,78,341,165
India,Odisha,Baripada,"Meher Colony, Baripada - OSPCB",17-02-2024 10:00:00,21.941841,86.728318,PM10,84,292,132
India,Odisha,Bhubaneswar,"Lingraj Mandir, Bhubaneswar - OSPCB",17-02-2024 10:00:00,20.240790,85.836784,PM2.5,97,342,225
India,Odisha,Bhubaneswar,"Lingraj Mandir, Bhubaneswar - OSPCB",17-02-2024 10:00:00,20.240790,85.836784,NH3,2,6,4
India,Odisha,Bhubaneswar,"Lingraj Mandir, Bhubaneswar - OSPCB",17-02-2024 10:00:00,20.240790,85.836784,OZONE,76,145,92
India,Odisha,Bileipada,"Tata Township, Bileipada - OSPCB",17-02-2024 10:00:00,22.06156703,85.47409613,PM2.5,90,234,140
India,Odisha,Bileipada,"Tata Township, Bileipada - OSPCB",17-02-2024 10:00:00,22.06156703,85.47409613,NO2,NA,NA,NA
India,Odisha,Bileipada,"Tata Township, Bileipada - OSPCB",17-02-2024 10:00:00,22.06156703,85.47409613,NH3,NA,NA,NA
India,Odisha,Bileipada,"Tata Township, Bileipada - OSPCB",17-02-2024 10:00:00,22.06156703,85.47409613,OZONE,1,6,1
India,Odisha,Brajrajnagar,"GM Office, Brajrajnagar - OSPCB",17-02-2024 10:00:00,21.8004996,83.8396977,PM2.5,35,158,79
India,Odisha,Brajrajnagar,"GM Office, Brajrajnagar - OSPCB",17-02-2024 10:00:00,21.8004996,83.8396977,SO2,14,14,14
India,Odisha,Brajrajnagar,"GM Office, Brajrajnagar - OSPCB",17-02-2024 10:00:00,21.8004996,83.8396977,OZONE,19,22,19
India,Odisha,Byasanagar,"Ferro Chrome Colony, Byasanagar - OSPCB",17-02-2024 10:00:00,20.94185,86.11510,PM2.5,85,320,239
India,Odisha,Byasanagar,"Ferro Chrome Colony, Byasanagar - OSPCB",17-02-2024 10:00:00,20.94185,86.11510,PM10,81,183,138
India,Odisha,Byasanagar,"Ferro Chrome Colony, Byasanagar - OSPCB",17-02-2024 10:00:00,20.94185,86.11510,NH3,3,5,4
India,Odisha,Cuttack,"CDA Area, Cuttack - OSPCB",17-02-2024 10:00:00,20.48891     ,85.84768     ,PM10,87,246,147
India,Odisha,Cuttack,"CDA Area, Cuttack - OSPCB",17-02-2024 10:00:00,20.48891     ,85.84768     ,NH3,3,5,4
India,Odisha,Cuttack,"CDA Area, Cuttack - OSPCB",17-02-2024 10:00:00,20.48891     ,85.84768     ,SO2,6,20,11
India,Odisha,Cuttack,"CDA Area, Cuttack - OSPCB",17-02-2024 10:00:00,20.48891     ,85.84768     ,CO,31,62,51
India,Odisha,Keonjhar,"Jagamohanpur, Keonjhar - OSPCB",17-02-2024 10:00:00,21.643900,85.599355,PM10,98,144,119
India,Odisha,Keonjhar,"Jagamohanpur, Keonjhar - OSPCB",17-02-2024 10:00:00,21.643900,85.599355,NH3,10,16,12
India,Odisha,Nayagarh,"Dabuna, Nayagarh - OSPCB",17-02-2024 10:00:00,21.847279,85.416905,SO2,3,6,4
India,Odisha,Nayagarh,"Dabuna, Nayagarh - OSPCB",17-02-2024 10:00:00,21.847279,85.416905,OZONE,2,12,3
India,Odisha,Rairangpur,"Divisional Forest Office, Rairangpur - OSPCB",17-02-2024 10:00:00,22.265816,86.174829,PM2.5,8,323,160
India,Odisha,Rourkela,"Fertilizer Township, Rourkela - OSPCB",17-02-2024 10:00:00,22.18972222,84.86277778,PM10,77,177,127
India,Odisha,Rourkela,"Raghunathpali, Rourkela - OSPCB",17-02-2024 10:00:00,22.220833,84.809444,PM10,56,170,131
India,Odisha,Rourkela,"Sector-2, Rourkela - OSPCB",17-02-2024 10:00:00,22.24500000,84.88111111,PM2.5,38,259,141
India,Odisha,Rourkela,"Sector-2, Rourkela - OSPCB",17-02-2024 10:00:00,22.24500000,84.88111111,PM10,73,146,113
India,Odisha,Rourkela,"Sector-2, Rourkela - OSPCB",17-02-2024 10:00:00,22.24500000,84.88111111,CO,17,79,20
India,Odisha,Talcher,"Talcher Coalfields,Talcher - OSPCB",17-02-2024 10:00:00,20.9360711,85.1707021,PM2.5,59,308,179
India,Odisha,Talcher,"Talcher Coalfields,Talcher - OSPCB",17-02-2024 10:00:00,20.9360711,85.1707021,SO2,11,115,47
India,Puducherry,Puducherry,"Jawahar Nagar, Puducherry - PPCC",17-02-2024 10:00:00,11.9309,79.8027,PM10,38,76,55
India,Puducherry,Puducherry,"Jawahar Nagar, Puducherry - PPCC",17-02-2024 10:00:00,11.9309,79.8027,CO,20,44,32
India,Punjab,Amritsar,"Golden Temple, Amritsar - PPCB",17-02-2024 10:00:00,31.620000,74.876512,NH3,4,5,5
India,Punjab,Amritsar,"Golden Temple, Amritsar - PPCB",17-02-2024 10:00:00,31.620000,74.876512,CO,10,84,32
India,Punjab,Bathinda,"Hardev Nagar, Bathinda - PPCB",17-02-2024 10:00:00,30.233011,74.907758,PM10,NA,NA,NA
India,Punjab,Bathinda,"Hardev Nagar, Bathinda - PPCB",17-02-2024 10:00:00,30.233011,74.907758,CO,2,94,48
India,Punjab,Khanna,"Kalal Majra, Khanna - PPCB",17-02-2024 10:00:00,30.736056 ,76.209694,NH3,13,16,15
India,Punjab,Khanna,"Kalal Majra, Khanna - PPCB",17-02-2024 10:00:00,30.736056 ,76.209694,CO,9,44,17
India,Punjab,Ludhiana,"Punjab Agricultural University, Ludhiana - PPCB",17-02-2024 10:00:00,30.9028,75.8086,PM2.5,64,202,106
India,Punjab,Ludhiana,"Punjab Agricultural University, Ludhiana - PPCB",17-02-2024 10:00:00,30.9028,75.8086,NH3,4,7,5
India,Punjab,Ludhiana,"Punjab Agricultural University, Ludhiana - PPCB",17-02-2024 10:00:00,30.9028,75.8086,CO,12,111,76
India,Punjab,Patiala,"Model Town, Patiala - PPCB",17-02-2024 10:00:00,30.349388,76.366642,PM2.5,64,303,119
India,Punjab,Patiala,"Model Town, Patiala - PPCB",17-02-2024 10:00:00,30.349388,76.366642,SO2,3,105,27
India,Punjab,Rupnagar,"Ratanpura, Rupnagar - Ambuja Cements",17-02-2024 10:00:00,31.0325454,76.5623046,SO2,4,11,7
India,Rajasthan,Ajmer,"Civil Lines,  Ajmer - RSPCB",17-02-2024 10:00:00,26.470859,74.646594,NH3,2,5,3
India,Rajasthan,Ajmer,"Civil Lines,  Ajmer - RSPCB",17-02-2024 10:00:00,26.470859,74.646594,OZONE,7,51,13
India,Rajasthan,Alwar,"Moti Doongri, Alwar - RSPCB",17-02-2024 10:00:00,27.554793,76.611536,PM2.5,42,127,71
India,Rajasthan,Banswara,"Rati Talai, Banswara - RSPCB",17-02-2024 10:00:00,23.555190,74.440010,OZONE,27,130,90
India,Rajasthan,Baran,"Bamboliya, Baran - RSPCB",17-02-2024 10:00:00,25.106006,76.469948,PM10,64,157,109
India,Rajasthan,Baran,"Bamboliya, Baran - RSPCB",17-02-2024 10:00:00,25.106006,76.469948,OZONE,3,152,37
India,Rajasthan,Barmer,"Railway Colony, Barmer - RSPCB",17-02-2024 10:00:00,25.747299,71.393989,PM10,46,235,99
India,Rajasthan,Barmer,"Railway Colony, Barmer - RSPCB",17-02-2024 10:00:00,25.747299,71.393989,OZONE,12,160,77
India,Rajasthan,Bharatpur,"Krishna Nagar, Bharatpur - RSPCB",17-02-2024 10:00:00,27.215415,77.50873,PM2.5,27,112,71
India,Rajasthan,Bharatpur,"Krishna Nagar, Bharatpur - RSPCB",17-02-2024 10:00:00,27.215415,77.50873,PM10,104,296,194
India,Rajasthan,Bharatpur,"Krishna Nagar, Bharatpur - RSPCB",17-02-2024 10:00:00,27.215415,77.50873,CO,5,118,57
India,Rajasthan,Bharatpur,"Krishna Nagar, Bharatpur - RSPCB",17-02-2024 10:00:00,27.215415,77.50873,OZONE,1,120,46
India,Rajasthan,Bhilwara,"Pratap Nagar, Bhilwara - RSPCB",17-02-2024 10:00:00,25.339605,74.618883,NO2,18,147,48
India,Rajasthan,Bhiwadi,"RIICO Ind. Area III, Bhiwadi - RSPCB",17-02-2024 10:00:00,28.194909,76.862296,NH3,7,24,15
India,Rajasthan,Bikaner,"MM Ground, Bikaner - RSPCB",17-02-2024 10:00:00,28.018792,73.292658,PM10,78,427,206
India,Rajasthan,Bikaner,"MM Ground, Bikaner - RSPCB",17-02-2024 10:00:00,28.018792,73.292658,OZONE,4,95,50
India,Rajasthan,Bundi,"New Colony, Bundi - RSPCB",17-02-2024 10:00:00,25.435774,75.644272,PM10,78,390,145
India,Rajasthan,Chittorgarh,"Shastri Nagar, Chittorgarh - RSPCB",17-02-2024 10:00:00,24.892047,74.623527,NO2,20,136,53
India,Rajasthan,Chittorgarh,"Shastri Nagar, Chittorgarh - RSPCB",17-02-2024 10:00:00,24.892047,74.623527,NH3,3,12,6
India,Rajasthan,Chittorgarh,"Shastri Nagar, Chittorgarh - RSPCB",17-02-2024 10:00:00,24.892047,74.623527,SO2,10,40,17
India,Rajasthan,Churu,"Subash Chowk, Churu - RSPCB",17-02-2024 10:00:00,28.296139,74.961696,SO2,NA,NA,NA
India,Rajasthan,Churu,"Subash Chowk, Churu - RSPCB",17-02-2024 10:00:00,28.296139,74.961696,CO,20,68,39
India,Rajasthan,Dausa,"Khatikan Mohalla, Dausa - RSPCB",17-02-2024 10:00:00,26.895552,76.334753,OZONE,30,62,55
India,Rajasthan,Dholpur,"Raja Ganj, Dholpur - RSPCB",17-02-2024 10:00:00,26.699557,77.898881,OZONE,1,198,29
India,Rajasthan,Hanumangarh,"Housing Board, Hanumangarh - RSPCB",17-02-2024 10:00:00,29.610750,74.283608,NO2,19,124,46
India,Rajasthan,Hanumangarh,"Housing Board, Hanumangarh - RSPCB",17-02-2024 10:00:00,29.610750,74.283608,SO2,2,21,8
India,Rajasthan,Hanumangarh,"Housing Board, Hanumangarh - RSPCB",17-02-2024 10:00:00,29.610750,74.283608,CO,5,105,50
India,Rajasthan,Hanumangarh,"Housing Board, Hanumangarh - RSPCB",17-02-2024 10:00:00,29.610750,74.283608,OZONE,4,71,25
India,Rajasthan,Jaipur,"Adarsh Nagar, Jaipur - RSPCB",17-02-2024 10:00:00,26.902909,75.836858,CO,24,115,44
India,Rajasthan,Jaipur,"Sector-2 Murlipura, Jaipur - RSPCB",17-02-2024 10:00:00,26.960669,75.771817,SO2,11,42,22
India,Rajasthan,Jaipur,"Shastri Nagar, Jaipur - RSPCB",17-02-2024 10:00:00,26.9502929,75.730943,PM2.5,62,312,151
India,Rajasthan,Jaipur,"Shastri Nagar, Jaipur - RSPCB",17-02-2024 10:00:00,26.9502929,75.730943,PM10,78,249,134
India,Rajasthan,Jaipur,"Shastri Nagar, Jaipur - RSPCB",17-02-2024 10:00:00,26.9502929,75.730943,CO,1,131,49
India,Rajasthan,Jaipur,"Shastri Nagar, Jaipur - RSPCB",17-02-2024 10:00:00,26.9502929,75.730943,OZONE,11,43,24
India,Rajasthan,Jaisalmer,"Sadar Bazar, Jaisalmer - RSPCB",17-02-2024 10:00:00,26.912329,70.909168,NO2,6,148,56
India,Rajasthan,Jalore,"Mudtra Sili, Jalore - RSPCB",17-02-2024 10:00:00,25.344694,72.626208,SO2,3,12,6
India,Rajasthan,Jhalawar,"Rajlaxmi Nagar, Jhalawar - RSPCB",17-02-2024 10:00:00,24.588397,76.172782,PM10,74,184,107
India,Rajasthan,Jhalawar,"Rajlaxmi Nagar, Jhalawar - RSPCB",17-02-2024 10:00:00,24.588397,76.172782,CO,24,64,49
India,Rajasthan,Jhunjhunu,"Indra Nagar, Jhunjhunu - RSPCB",17-02-2024 10:00:00,28.108988,75.386577,PM10,65,333,137
India,Rajasthan,Karauli,"Satyawati Vihar, Karauli - RSPCB",17-02-2024 10:00:00,26.506177,77.025989,PM10,90,163,116
India,Rajasthan,Kota,"Shrinath Puram, Kota - RSPCB",17-02-2024 10:00:00,25.14389,75.821256,SO2,4,98,18
India,Rajasthan,Nagaur,"Karni Colony, Nagaur - RSPCB",17-02-2024 10:00:00,27.213494,73.734444,NH3,10,19,13
India,Rajasthan,Nagaur,"Karni Colony, Nagaur - RSPCB",17-02-2024 10:00:00,27.213494,73.734444,SO2,2,13,6
India,Rajasthan,Nagaur,"Karni Colony, Nagaur - RSPCB",17-02-2024 10:00:00,27.213494,73.734444,OZONE,14,68,23
India,Rajasthan,Pali,"Indira Colony Vistar, Pali - RSPCB",17-02-2024 10:00:00,25.771061, 73.340227,NH3,6,17,14
India,Rajasthan,Pratapgarh,"Pragati Nagar, Pratapgarh - RSPCB",17-02-2024 10:00:00,24.041198,74.780702,PM2.5,82,189,112
India,Rajasthan,Pratapgarh,"Pragati Nagar, Pratapgarh - RSPCB",17-02-2024 10:00:00,24.041198,74.780702,CO,24,43,27
India,Rajasthan,Rajsamand,"Dhoinda, Rajsamand - RSPCB",17-02-2024 10:00:00,25.036360,73.883502,PM10,76,276,143
India,Rajasthan,Rajsamand,"Dhoinda, Rajsamand - RSPCB",17-02-2024 10:00:00,25.036360,73.883502,NH3,2,16,5
India,Rajasthan,Sikar,"Radhakishan Pura, Sikar - RSPCB",17-02-2024 10:00:00,27.608912,75.153302,PM10,73,422,159
India,Rajasthan,Sikar,"Radhakishan Pura, Sikar - RSPCB",17-02-2024 10:00:00,27.608912,75.153302,NH3,5,10,7
India,Rajasthan,Sikar,"Radhakishan Pura, Sikar - RSPCB",17-02-2024 10:00:00,27.608912,75.153302,SO2,5,17,9
India,Rajasthan,Sikar,"Radhakishan Pura, Sikar - RSPCB",17-02-2024 10:00:00,27.608912,75.153302,CO,20,104,39
India,Rajasthan,Sikar,"Radhakishan Pura, Sikar - RSPCB",17-02-2024 10:00:00,27.608912,75.153302,OZONE,9,163,54
India,Rajasthan,Sirohi,"Vedhaynath Colony, Sirohi - RSPCB",17-02-2024 10:00:00,24.885261,72.857549,CO,30,100,69
India,Rajasthan,Sirohi,"Vedhaynath Colony, Sirohi - RSPCB",17-02-2024 10:00:00,24.885261,72.857549,OZONE,14,187,54
India,Rajasthan,Tonk,"Shastri Nagar, Tonk - RSPCB",17-02-2024 10:00:00,26.159933,75.780517,NO2,18,93,39
India,Sikkim,Gangtok,"Zero Point GICI, Gangtok - SSPCB",17-02-2024 10:00:00,27.338530,88.614099,PM10,46,84,62
India,Sikkim,Gangtok,"Zero Point GICI, Gangtok - SSPCB",17-02-2024 10:00:00,27.338530,88.614099,NH3,1,1,1
India,TamilNadu,Ariyalur,"Keelapalur, Ariyalur - TNPCB",17-02-2024 10:00:00,11.06825,79.07033,PM10,36,56,47
India,TamilNadu,Chengalpattu,"Crescent University, Chengalpattu - TNPCB",17-02-2024 10:00:00,12.8777316,80.0834807,PM10,NA,NA,NA
India,TamilNadu,Chengalpattu,"Crescent University, Chengalpattu - TNPCB",17-02-2024 10:00:00,12.8777316,80.0834807,CO,NA,NA,NA
India,TamilNadu,Chennai,"Alandur Bus Depot, Chennai - CPCB",17-02-2024 10:00:00,12.9099161,80.1076538,PM2.5,52,354,142
India,TamilNadu,Chennai,"Alandur Bus Depot, Chennai - CPCB",17-02-2024 10:00:00,12.9099161,80.1076538,PM10,75,353,140
India,TamilNadu,Chennai,"Alandur Bus Depot, Chennai - CPCB",17-02-2024 10:00:00,12.9099161,80.1076538,SO2,1,9,3
India,TamilNadu,Chennai,"Alandur Bus Depot, Chennai - CPCB",17-02-2024 10:00:00,12.9099161,80.1076538,OZONE,1,10,3
India,TamilNadu,Chennai,"Arumbakkam, Chennai - TNPCB",17-02-2024 10:00:00,13.0664,80.2112 ,NO2,10,36,21
India,TamilNadu,Chennai,"Gandhi Nagar_Ennore, Chennai - TNPCB",17-02-2024 10:00:00,13.218341,80.32027,PM10,NA,NA,NA
India,TamilNadu,Chennai,"Kodungaiyur, Chennai - TNPCB",17-02-2024 10:00:00,13.1278,80.2642,PM2.5,7,45,29
India,TamilNadu,Chennai,"Manali, Chennai - CPCB",17-02-2024 10:00:00,13.164544,80.26285,PM2.5,15,111,51
India,TamilNadu,Chennai,"Manali, Chennai - CPCB",17-02-2024 10:00:00,13.164544,80.26285,PM10,63,120,79
India,TamilNadu,Chennai,"Manali, Chennai - CPCB",17-02-2024 10:00:00,13.164544,80.26285,NH3,4,10,6
India,TamilNadu,Chennai,"Perungudi, Chennai - TNPCB",17-02-2024 10:00:00,12.9533,80.2357,PM10,44,113,77
India,TamilNadu,Chennai,"Royapuram, Chennai - TNPCB",17-02-2024 10:00:00,13.1036,80.2909,OZONE,8,10,9
India,TamilNadu,Chennai,"Velachery Res. Area, Chennai - CPCB",17-02-2024 10:00:00,13.0052189,80.2398125,PM2.5,39,87,55
India,TamilNadu,Chennai,"Velachery Res. Area, Chennai - CPCB",17-02-2024 10:00:00,13.0052189,80.2398125,PM10,52,90,66
India,TamilNadu,Coimbatore,"PSG College of Arts and Science, Coimbatore - TNPCB",17-02-2024 10:00:00,11.0328,77.0349,OZONE,3,5,4
India,TamilNadu,Cuddalore,"Kudikadu, Cuddalore - TNPCB",17-02-2024 10:00:00,11.6829898,79.7532099,NH3,4,5,5
India,TamilNadu,Cuddalore,"Semmandalam, Cuddalore - TNPCB",17-02-2024 10:00:00,11.7637683,79.7499835,NO2,7,32,18
India,TamilNadu,Kanchipuram,"Kilambi, Kanchipuram - TNPCB",17-02-2024 10:00:00,12.864618,79.659968,NH3,NA,NA,NA
India,TamilNadu,Ooty,"Bombay Castel, Ooty - TNPCB",17-02-2024 10:00:00,11.4068288,76.7138973,PM2.5,10,98,31
India,TamilNadu,Ramanathapuram,"Chalai Bazaar, Ramanathapuram - TNPCB",17-02-2024 10:00:00,9.36399,78.831977,NH3,1,1,1
India,TamilNadu,Ramanathapuram,"Chalai Bazaar, Ramanathapuram - TNPCB",17-02-2024 10:00:00,9.36399,78.831977,OZONE,13,14,14
India,TamilNadu,Salem,"Sona College of Technology, Salem - TNPCB",17-02-2024 10:00:00,11.679111,78.125052,CO,42,46,44
India,TamilNadu,Tirupur,"Kumaran College, Tirupur - TNPCB",17-02-2024 10:00:00,11.0973603,77.3228673,CO,23,82,46
India,TamilNadu,Vellore,"Vasanthapuram, Vellore - TNPCB",17-02-2024 10:00:00,12.909494,79.131861,PM2.5,NA,NA,NA
India,TamilNadu,Virudhunagar,"Collectorate Office, Virudhunagar - TNPCB",17-02-2024 10:00:00,9.559382,77.948828,NO2,22,42,29
India,Telangana,Hyderabad,"Bollaram Industrial Area, Hyderabad - TSPCB",17-02-2024 10:00:00,17.540891,78.358528,PM2.5,25,83,51
India,Telangana,Hyderabad,"Central University, Hyderabad - TSPCB",17-02-2024 10:00:00,17.460103,78.334361,OZONE,3,4,4
India,Telangana,Hyderabad,"ECIL Kapra, Hyderabad - TSPCB",17-02-2024 10:00:00,17.470431,78.566959,PM10,65,81,69
India,Telangana,Hyderabad,"ECIL Kapra, Hyderabad - TSPCB",17-02-2024 10:00:00,17.470431,78.566959,CO,14,37,26
India,Telangana,Hyderabad,"ICRISAT Patancheru, Hyderabad - TSPCB",17-02-2024 10:00:00,17.518400,78.278777,PM10,44,97,63
India,Telangana,Hyderabad,"ICRISAT Patancheru, Hyderabad - TSPCB",17-02-2024 10:00:00,17.518400,78.278777,CO,24,68,46
India,Telangana,Hyderabad,"Nacharam_TSIIC IALA, Hyderabad - TSPCB",17-02-2024 10:00:00,17.429398,78.569354,SO2,1,52,18
India,Telangana,Hyderabad,"New Malakpet, Hyderabad - TSPCB",17-02-2024 10:00:00,17.37206,78.50864,PM10,56,76,62
India,Telangana,Hyderabad,"Sanathnagar, Hyderabad - TSPCB",17-02-2024 10:00:00,17.4559458,78.4332152,PM2.5,31,85,57
India,Telangana,Hyderabad,"Sanathnagar, Hyderabad - TSPCB",17-02-2024 10:00:00,17.4559458,78.4332152,SO2,1,31,8
India,Telangana,Hyderabad,"Sanathnagar, Hyderabad - TSPCB",17-02-2024 10:00:00,17.4559458,78.4332152,CO,32,47,44
India,Telangana,Hyderabad,"Somajiguda, Hyderabad - TSPCB",17-02-2024 10:00:00,17.417094,78.457437,SO2,12,17,14
India,Tripura,Agartala,"Bardowali, Agartala - Tripura SPCB",17-02-2024 10:00:00,23.8175497,91.2726974,OZONE,NA,NA,NA
India,Uttar_Pradesh,Agra,"Manoharpur, Agra - UPPCB",17-02-2024 10:00:00,27.23711,78.01936,OZONE,1,55,1
India,Uttar_Pradesh,Agra,"Rohta, Agra - UPPCB",17-02-2024 10:00:00,27.106972,78.000111,NO2,9,10,10
India,Uttar_Pradesh,Agra,"Sector-3B Avas Vikas Colony, Agra - UPPCB",17-02-2024 10:00:00,27.19412,77.96237,NO2,23,89,45
India,Uttar_Pradesh,Agra,"Shahjahan Garden, Agra - UPPCB",17-02-2024 10:00:00,27.169338,78.03582,NH3,3,13,5
India,Uttar_Pradesh,Agra,"Shastripuram, Agra - UPPCB",17-02-2024 10:00:00,27.19862,77.92066,NH3,1,18,3
India,Uttar_Pradesh,Baghpat,"Sardar Patel Inter College, Baghpat - UPPCB",17-02-2024 10:00:00,28.964949,77.278761,SO2,2,88,27
India,Uttar_Pradesh,Bareilly,"Civil Lines, Bareilly - UPPCB",17-02-2024 10:00:00,28.359581,79.414455,NH3,1,6,2
India,Uttar_Pradesh,Bareilly,"Civil Lines, Bareilly - UPPCB",17-02-2024 10:00:00,28.359581,79.414455,OZONE,4,81,13
India,Uttar_Pradesh,Bareilly,"Rajendra Nagar, Bareilly - UPPCB",17-02-2024 10:00:00,28.38910936,79.42963708,SO2,41,42,42
India,Uttar_Pradesh,Bulandshahr,"Yamunapuram, Bulandshahr - UPPCB",17-02-2024 10:00:00,28.406963,77.849831,PM10,93,186,130
India,Uttar_Pradesh,Bulandshahr,"Yamunapuram, Bulandshahr - UPPCB",17-02-2024 10:00:00,28.406963,77.849831,NH3,7,12,9
India,Uttar_Pradesh,Bulandshahr,"Yamunapuram, Bulandshahr - UPPCB",17-02-2024 10:00:00,28.406963,77.849831,OZONE,1,118,7
India,Uttar_Pradesh,Firozabad,"Nagla Bhau, Firozabad - UPPCB",17-02-2024 10:00:00,27.168897,78.376960,PM2.5,45,224,101
India,Uttar_Pradesh,Firozabad,"Nagla Bhau, Firozabad - UPPCB",17-02-2024 10:00:00,27.168897,78.376960,NO2,17,17,17
India,Uttar_Pradesh,Firozabad,"Vibhab Nagar, Firozabad - UPPCB",17-02-2024 10:00:00,27.1594,78.3953,PM2.5,61,159,99
India,Uttar_Pradesh,Firozabad,"Vibhab Nagar, Firozabad - UPPCB",17-02-2024 10:00:00,27.1594,78.3953,OZONE,20,51,21
India,Uttar_Pradesh,Ghaziabad,"Indirapuram, Ghaziabad - UPPCB",17-02-2024 10:00:00,28.646233,77.358075,PM2.5,37,317,162
India,Uttar_Pradesh,Ghaziabad,"Indirapuram, Ghaziabad - UPPCB",17-02-2024 10:00:00,28.646233,77.358075,NO2,39,81,62
India,Uttar_Pradesh,Ghaziabad,"Loni, Ghaziabad - UPPCB",17-02-2024 10:00:00,28.757294,77.278792,NO2,7,54,30
India,Uttar_Pradesh,Ghaziabad,"Loni, Ghaziabad - UPPCB",17-02-2024 10:00:00,28.757294,77.278792,SO2,6,28,17
India,Uttar_Pradesh,Ghaziabad,"Sanjay Nagar, Ghaziabad - UPPCB",17-02-2024 10:00:00,28.685382,77.453839,NH3,7,15,12
India,Uttar_Pradesh,Greater Noida,"Knowledge Park - III, Greater Noida - UPPCB",17-02-2024 10:00:00,28.47272,77.482000,NH3,1,2,1
India,Uttar_Pradesh,Greater Noida,"Knowledge Park - V, Greater Noida - UPPCB",17-02-2024 10:00:00,28.557054,77.453663,NH3,2,6,4
India,Uttar_Pradesh,Jhansi,"Shivaji Nagar, Jhansi - UPPCB",17-02-2024 10:00:00,25.4547,78.6039,NO2,31,58,39
India,Uttar_Pradesh,Kanpur,"FTI Kidwai Nagar, Kanpur - UPPCB",17-02-2024 10:00:00,26.428282,80.327067,PM2.5,67,239,146
India,Uttar_Pradesh,Kanpur,"NSI Kalyanpur, Kanpur - UPPCB",17-02-2024 10:00:00,26.509954,80.249612,PM10,108,147,128
India,Uttar_Pradesh,Kanpur,"NSI Kalyanpur, Kanpur - UPPCB",17-02-2024 10:00:00,26.509954,80.249612,NH3,2,2,2
India,Uttar_Pradesh,Kanpur,"Nehru Nagar, Kanpur - UPPCB",17-02-2024 10:00:00,26.4703136,80.3229863,OZONE,11,189,68
India,Uttar_Pradesh,Khurja,"Kalindi Kunj, Khurja - UPPCB",17-02-2024 10:00:00,28.2348927,77.8683002,NO2,21,54,35
India,Uttar_Pradesh,Lucknow,"B R Ambedkar University, Lucknow - UPPCB",17-02-2024 10:00:00,26.766433,80.927299,SO2,26,31,28
India,Uttar_Pradesh,Lucknow,"Kendriya Vidyalaya, Lucknow - CPCB",17-02-2024 10:00:00,26.906111,80.948222,SO2,4,27,10
India,Uttar_Pradesh,Lucknow,"Lalbagh, Lucknow - CPCB",17-02-2024 10:00:00,26.8458805,80.9365541,PM2.5,116,313,237
India,Uttar_Pradesh,Lucknow,"Lalbagh, Lucknow - CPCB",17-02-2024 10:00:00,26.8458805,80.9365541,PM10,150,232,186
India,Uttar_Pradesh,Lucknow,"Lalbagh, Lucknow - CPCB",17-02-2024 10:00:00,26.8458805,80.9365541,NO2,32,144,65
India,Uttar_Pradesh,Lucknow,"Talkatora District Industries Center, Lucknow - CPCB",17-02-2024 10:00:00,26.83399722,80.8917361,CO,10,82,33
India,Uttar_Pradesh,Meerut,"Ganga Nagar, Meerut - UPPCB",17-02-2024 10:00:00,28.999264,77.7590354,PM2.5,37,210,111
India,Uttar_Pradesh,Meerut,"Ganga Nagar, Meerut - UPPCB",17-02-2024 10:00:00,28.999264,77.7590354,NH3,4,13,7
India,Uttar_Pradesh,Meerut,"Ganga Nagar, Meerut - UPPCB",17-02-2024 10:00:00,28.999264,77.7590354,SO2,7,28,19
India,Uttar_Pradesh,Meerut,"Jai Bhim Nagar, Meerut - UPPCB",17-02-2024 10:00:00,28.9535882,77.7622941,SO2,3,34,9
India,Uttar_Pradesh,Moradabad,"Buddhi Vihar, Moradabad - UPPCB",17-02-2024 10:00:00,28.83526,78.74460,NH3,2,2,2
India,Uttar_Pradesh,Moradabad,"Eco Herbal Park, Moradabad - UPPCB",17-02-2024 10:00:00,28.840739,78.697531,PM2.5,27,280,122
India,Uttar_Pradesh,Moradabad,"Eco Herbal Park, Moradabad - UPPCB",17-02-2024 10:00:00,28.840739,78.697531,SO2,6,37,21
India,Uttar_Pradesh,Moradabad,"Employment Office, Moradabad - UPPCB",17-02-2024 10:00:00,28.88528,78.73880,SO2,25,46,28
India,Uttar_Pradesh,Moradabad,"Jigar Colony, Moradabad - UPPCB",17-02-2024 10:00:00,28.856664,78.772638,PM10,64,145,112
India,Uttar_Pradesh,Moradabad,"Kashiram Nagar, Moradabad - UPPCB",17-02-2024 10:00:00,28.849399,78.742362,PM2.5,23,234,86
India,Uttar_Pradesh,Moradabad,"Kashiram Nagar, Moradabad - UPPCB",17-02-2024 10:00:00,28.849399,78.742362,PM10,44,165,102
India,Uttar_Pradesh,Moradabad,"Kashiram Nagar, Moradabad - UPPCB",17-02-2024 10:00:00,28.849399,78.742362,SO2,32,38,35
India,Uttar_Pradesh,Moradabad,"Transport Nagar, Moradabad - UPPCB",17-02-2024 10:00:00,28.802625,78.753728,NO2,24,54,33
India,Uttar_Pradesh,Moradabad,"Transport Nagar, Moradabad - UPPCB",17-02-2024 10:00:00,28.802625,78.753728,OZONE,14,29,17
India,Uttar_Pradesh,Muzaffarnagar,"New Mandi, Muzaffarnagar - UPPCB",17-02-2024 10:00:00,29.4723508,77.7194031,PM10,116,345,181
India,Uttar_Pradesh,Noida,"Sector - 125, Noida - UPPCB",17-02-2024 10:00:00,28.5447608,77.3231257,PM10,60,392,171
India,Uttar_Pradesh,Noida,"Sector-1, Noida - UPPCB",17-02-2024 10:00:00,28.5898,77.3101,OZONE,1,167,4
India,Uttar_Pradesh,Prayagraj,"Jhunsi, Prayagraj - UPPCB",17-02-2024 10:00:00,25.425602,81.917152,CO,20,92,27
India,Uttar_Pradesh,Prayagraj,"Motilal Nehru NIT, Prayagraj - UPPCB",17-02-2024 10:00:00,25.494,81.863,SO2,20,22,21
India,Uttar_Pradesh,Prayagraj,"Motilal Nehru NIT, Prayagraj - UPPCB",17-02-2024 10:00:00,25.494,81.863,OZONE,6,44,7
India,Uttar_Pradesh,Prayagraj,"Nagar Nigam, Prayagraj - UPPCB",17-02-2024 10:00:00,25.44919916 ,81.82735986 ,NH3,7,16,11
India,Uttar_Pradesh,Prayagraj,"Nagar Nigam, Prayagraj - UPPCB",17-02-2024 10:00:00,25.44919916 ,81.82735986 ,SO2,28,101,59
India,Uttar_Pradesh,Varanasi,"Ardhali Bazar, Varanasi - UPPCB",17-02-2024 10:00:00,25.3505986,82.9083074,NO2,20,39,27
India,Uttar_Pradesh,Varanasi,"Ardhali Bazar, Varanasi - UPPCB",17-02-2024 10:00:00,25.3505986,82.9083074,OZONE,17,26,22
India,Uttar_Pradesh,Varanasi,"Bhelupur, Varanasi - UPPCB",17-02-2024 10:00:00,25.301778,82.996789,SO2,22,25,23
India,Uttar_Pradesh,Varanasi,"Bhelupur, Varanasi - UPPCB",17-02-2024 10:00:00,25.301778,82.996789,CO,20,108,28
India,Uttar_Pradesh,Varanasi,"Maldahiya, Varanasi - UPPCB",17-02-2024 10:00:00,25.32393,82.99687,NH3,1,1,1
India,Uttar_Pradesh,Varanasi,"Maldahiya, Varanasi - UPPCB",17-02-2024 10:00:00,25.32393,82.99687,SO2,43,65,59
India,Uttar_Pradesh,Vrindavan,"Omex Eternity, Vrindavan - UPPCB",17-02-2024 10:00:00,27.5714090,77.6557570,CO,42,110,92
India,Uttar_Pradesh,Vrindavan,"Omex Eternity, Vrindavan - UPPCB",17-02-2024 10:00:00,27.5714090,77.6557570,OZONE,29,35,31
India,Uttarakhand,Dehradun,"Doon University, Dehradun - UKPCB",17-02-2024 10:00:00,30.269444,78.044167,PM2.5,62,219,150
India,Uttarakhand,Dehradun,"Doon University, Dehradun - UKPCB",17-02-2024 10:00:00,30.269444,78.044167,CO,38,62,52
India,Uttarakhand,Dehradun,"Doon University, Dehradun - UKPCB",17-02-2024 10:00:00,30.269444,78.044167,OZONE,3,9,3
India,West_Bengal,Asansol,"Asansol Court Area, Asansol - WBPCB",17-02-2024 10:00:00,23.685297,86.945968,PM2.5,73,237,139
India,West_Bengal,Asansol,"Asansol Court Area, Asansol - WBPCB",17-02-2024 10:00:00,23.685297,86.945968,PM10,66,149,105
India,West_Bengal,Barrackpore,"SVSPA Campus, Barrackpore - WBPCB",17-02-2024 10:00:00,22.7605581,88.3617589,PM10,130,279,162
India,West_Bengal,Barrackpore,"SVSPA Campus, Barrackpore - WBPCB",17-02-2024 10:00:00,22.7605581,88.3617589,CO,40,88,60
India,West_Bengal,Durgapur,"Sidhu Kanhu Indoor Stadium, Durgapur - WBPCB",17-02-2024 10:00:00,23.5404352,87.2892225,CO,20,64,52
India,West_Bengal,Haldia,"Priyambada Housing Estate, Haldia - WBPCB",17-02-2024 10:00:00,22.06047,88.109737,PM10,124,180,146
India,West_Bengal,Howrah,"Belur Math, Howrah - WBPCB",17-02-2024 10:00:00,22.629801,88.352017,PM10,117,225,155
India,West_Bengal,Howrah,"Belur Math, Howrah - WBPCB",17-02-2024 10:00:00,22.629801,88.352017,CO,4,78,24
India,West_Bengal,Howrah,"Padmapukur, Howrah - WBPCB",17-02-2024 10:00:00,22.5687319,88.2797276,NO2,18,19,18
India,West_Bengal,Kolkata,"Ballygunge, Kolkata - WBPCB",17-02-2024 10:00:00,22.5367507,88.3638022,PM10,133,180,157
India,West_Bengal,Kolkata,"Ballygunge, Kolkata - WBPCB",17-02-2024 10:00:00,22.5367507,88.3638022,NO2,38,120,80
India,West_Bengal,Kolkata,"Bidhannagar, Kolkata - WBPCB",17-02-2024 10:00:00,22.58157048,88.41002457,SO2,7,29,13
India,West_Bengal,Kolkata,"Fort William, Kolkata - WBPCB",17-02-2024 10:00:00,22.556640,88.342674,SO2,7,42,21
India,West_Bengal,Kolkata,"Fort William, Kolkata - WBPCB",17-02-2024 10:00:00,22.556640,88.342674,OZONE,12,86,23
India,West_Bengal,Kolkata,"Jadavpur, Kolkata - WBPCB",17-02-2024 10:00:00,22.49929,88.36917,PM2.5,142,316,268
India,West_Bengal,Kolkata,"Jadavpur, Kolkata - WBPCB",17-02-2024 10:00:00,22.49929,88.36917,OZONE,5,83,8
India,West_Bengal,Kolkata,"Rabindra Sarobar, Kolkata - WBPCB",17-02-2024 10:00:00,22.51106,88.35142,PM2.5,98,249,180
India,West_Bengal,Kolkata,"Rabindra Sarobar, Kolkata - WBPCB",17-02-2024 10:00:00,22.51106,88.35142,PM10,104,149,125
India,West_Bengal,Kolkata,"Rabindra Sarobar, Kolkata - WBPCB",17-02-2024 10:00:00,22.51106,88.35142,NO2,35,145,90
India,West_Bengal,Kolkata,"Rabindra Sarobar, Kolkata - WBPCB",17-02-2024 10:00:00,22.51106,88.35142,NH3,4,20,10
India,West_Bengal,Siliguri,"Ward-32 Bapupara, Siliguri - WBPCB",17-02-2024 10:00:00,26.6879226,88.4152495,PM2.5,58,305,161
India,West_Bengal,Siliguri,"Ward-32 Bapupara, Siliguri - WBPCB",17-02-2024 10:00:00,26.6879226,88.4152495,PM10,67,229,135
India,West_Bengal,Siliguri,"Ward-32 Bapupara, Siliguri - WBPCB",17-02-2024 10:00:00,26.6879226,88.4152495,OZONE,9,60,10
India,Andhra_Pradesh,Amaravati,"Secretariat, Amaravati - APPCB",17-02-2024 10:00:00,16.5150833,80.5181667,PM2.5,23,101,50
India,Andhra_Pradesh,Amaravati,"Secretariat, Amaravati - APPCB",17-02-2024 10:00:00,16.5150833,80.5181667,PM10,18,93,61
India,Andhra_Pradesh,Amaravati,"Secretariat, Amaravati - APPCB",17-02-2024 10:00:00,16.5150833,80.5181667,NH3,3,4,4
India,Andhra_Pradesh,Chittoor,"Gangineni Cheruvu, Chittoor - APPCB",17-02-2024 10:00:00,13.204880,79.097889,PM2.5,22,83,51
India,Andhra_Pradesh,Chittoor,"Gangineni Cheruvu, Chittoor - APPCB",17-02-2024 10:00:00,13.204880,79.097889,SO2,1,44,18
India,Andhra_Pradesh,Kadapa,"Yerramukkapalli, Kadapa - APPCB",17-02-2024 10:00:00,14.465052,78.824187,PM2.5,15,138,49
India,Andhra_Pradesh,Rajamahendravaram,"Anand Kala Kshetram, Rajamahendravaram - APPCB",17-02-2024 10:00:00,16.9872867,81.7363176,NO2,17,62,33
India,Andhra_Pradesh,Tirupati,"Tirumala, Tirupati - APPCB",17-02-2024 10:00:00,13.67,79.35,NO2,28,55,41
India,Andhra_Pradesh,Tirupati,"Tirumala, Tirupati - APPCB",17-02-2024 10:00:00,13.67,79.35,OZONE,6,42,24
India,Andhra_Pradesh,Vijayawada,"HB Colony, Vijayawada - APPCB",17-02-2024 10:00:00,16.536107,80.594233,NO2,10,36,19
India,Andhra_Pradesh,Vijayawada,"Kanuru, Vijayawada - APPCB",17-02-2024 10:00:00,16.486692,80.699436,SO2,7,14,10
India,Andhra_Pradesh,Vijayawada,"Kanuru, Vijayawada - APPCB",17-02-2024 10:00:00,16.486692,80.699436,OZONE,25,25,25
India,Andhra_Pradesh,Vijayawada,"Rajiv Gandhi Park, Vijayawada - APPCB",17-02-2024 10:00:00,16.509717,80.612222,OZONE,1,76,8
India,Andhra_Pradesh,Vijayawada,"Rajiv Nagar, Vijayawada - APPCB",17-02-2024 10:00:00,16.554731,80.649110,PM2.5,22,117,65
India,Andhra_Pradesh,Vijayawada,"Rajiv Nagar, Vijayawada - APPCB",17-02-2024 10:00:00,16.554731,80.649110,CO,16,64,31
India,Andhra_Pradesh,Visakhapatnam,"GVM Corporation, Visakhapatnam - APPCB",17-02-2024 10:00:00,17.72,83.3,SO2,7,15,11
India,Andhra_Pradesh,Visakhapatnam,"GVM Corporation, Visakhapatnam - APPCB",17-02-2024 10:00:00,17.72,83.3,CO,12,59,40
India,Arunachal_Pradesh,Naharlagun,"Naharlagun, Naharlagun - APSPCB",17-02-2024 10:00:00,27.103358,93.679645,NO2,2,2,2
India,Assam,Byrnihat,"Central Academy for SFS, Byrnihat - PCBA",17-02-2024 10:00:00,26.071318,91.87488,PM10,53,467,252
India,Assam,Guwahati,"IITG, Guwahati - PCBA",17-02-2024 10:00:00,26.2028636,91.70046436,PM10,83,375,148
India,Assam,Guwahati,"Pan Bazaar, Guwahati - PCBA",17-02-2024 10:00:00,26.187500,91.744194,PM10,79,272,159
India,Assam,Guwahati,"Pan Bazaar, Guwahati - PCBA",17-02-2024 10:00:00,26.187500,91.744194,NH3,4,6,5
India,Assam,Guwahati,"Pan Bazaar, Guwahati - PCBA",17-02-2024 10:00:00,26.187500,91.744194,SO2,60,89,70
India,Assam,Guwahati,"Pan Bazaar, Guwahati - PCBA",17-02-2024 10:00:00,26.187500,91.744194,CO,26,105,72
India,Assam,Nagaon,"Christianpatty, Nagaon - PCBA",17-02-2024 10:00:00,26.349082,92.68449,PM10,94,430,178
India,Assam,Nagaon,"Christianpatty, Nagaon - PCBA",17-02-2024 10:00:00,26.349082,92.68449,OZONE,3,99,15
India,Assam,Nalbari,"Bata Chowk, Nalbari - PCBA",17-02-2024 10:00:00,26.446912,91.439057,NH3,1,8,2
India,Assam,Nalbari,"Bata Chowk, Nalbari - PCBA",17-02-2024 10:00:00,26.446912,91.439057,OZONE,3,80,4
India,Assam,Silchar,"Tarapur, Silchar - PCBA",17-02-2024 10:00:00,24.82827,92.79525,NO2,NA,NA,NA
India,Assam,Sivasagar,"Girls College, Sivasagar - PCBA",17-02-2024 10:00:00,26.987634,94.636574,NH3,2,2,2
India,Bihar,Araria,"Kharahiya Basti, Araria - BSPCB",17-02-2024 10:00:00,26.146529,87.454184,PM2.5,86,307,231
India,Bihar,Araria,"Kharahiya Basti, Araria - BSPCB",17-02-2024 10:00:00,26.146529,87.454184,CO,26,30,30
India,Bihar,Arrah,"New DM Office, Arrah - BSPCB",17-02-2024 10:00:00,25.5626095,84.663264,PM2.5,70,200,117
India,Bihar,Aurangabad,"Gurdeo Nagar, Aurangabad - BSPCB",17-02-2024 10:00:00,24.75746,84.366208,PM10,NA,NA,NA
India,Bihar,Bettiah,"Kamalnath Nagar, Bettiah - BSPCB",17-02-2024 10:00:00,26.80365,84.51954,PM10,21,167,69
India,Bihar,Bettiah,"Kamalnath Nagar, Bettiah - BSPCB",17-02-2024 10:00:00,26.80365,84.51954,NO2,3,19,15
India,Bihar,Bhagalpur,"Mayaganj, Bhagalpur - BSPCB",17-02-2024 10:00:00,25.265194,87.012947,PM2.5,80,348,260
India,Bihar,Bhagalpur,"Mayaganj, Bhagalpur - BSPCB",17-02-2024 10:00:00,25.265194,87.012947,NH3,7,9,8
India,Bihar,Bhagalpur,"Mayaganj, Bhagalpur - BSPCB",17-02-2024 10:00:00,25.265194,87.012947,CO,8,10,9
India,Bihar,Buxar,"Charitra Van, Buxar - BSPCB (Formerly known as Central Jail)",17-02-2024 10:00:00,25.567520,83.966379,PM2.5,131,315,247
India,Bihar,Buxar,"Charitra Van, Buxar - BSPCB (Formerly known as Central Jail)",17-02-2024 10:00:00,25.567520,83.966379,OZONE,7,113,25
India,Bihar,Chhapra,"Darshan Nagar, Chhapra - BSPCB",17-02-2024 10:00:00,25.7808257,84.7446768,PM10,100,205,139
India,Bihar,Chhapra,"Darshan Nagar, Chhapra - BSPCB",17-02-2024 10:00:00,25.7808257,84.7446768,CO,22,38,26
India,Bihar,Chhapra,"Darshan Nagar, Chhapra - BSPCB",17-02-2024 10:00:00,25.7808257,84.7446768,OZONE,4,20,10
India,Bihar,Gaya,"Collectorate, Gaya - BSPCB",17-02-2024 10:00:00,24.7955,84.9994,NO2,2,4,3
India,Bihar,Gaya,"Kareemganj, Gaya - BSPCB",17-02-2024 10:00:00,24.792403,84.992416,PM2.5,17,253,82
India,Bihar,Gaya,"SFTI Kusdihra, Gaya - BSPCB",17-02-2024 10:00:00,24.762518,84.982348,PM10,53,69,60
India,Bihar,Gaya,"SFTI Kusdihra, Gaya - BSPCB",17-02-2024 10:00:00,24.762518,84.982348,OZONE,3,43,7
India,Bihar,Hajipur,"Industrial Area, Hajipur - BSPCB",17-02-2024 10:00:00,25.697189,85.245900,PM2.5,45,311,149
India,Bihar,Hajipur,"Industrial Area, Hajipur - BSPCB",17-02-2024 10:00:00,25.697189,85.245900,CO,18,40,24
India,Bihar,Hajipur,"Industrial Area, Hajipur - BSPCB",17-02-2024 10:00:00,25.697189,85.245900,OZONE,1,4,1
India,Bihar,Katihar,"Mirchaibari, Katihar - BSPCB",17-02-2024 10:00:00,25.560083,87.553265,PM2.5,58,163,99
India,Bihar,Katihar,"Mirchaibari, Katihar - BSPCB",17-02-2024 10:00:00,25.560083,87.553265,NO2,6,56,14
India,Bihar,Katihar,"Mirchaibari, Katihar - BSPCB",17-02-2024 10:00:00,25.560083,87.553265,NH3,1,3,2
India,Bihar,Katihar,"Mirchaibari, Katihar - BSPCB",17-02-2024 10:00:00,25.560083,87.553265,CO,NA,NA,NA
India,Bihar,Katihar,"Mirchaibari, Katihar - BSPCB",17-02-2024 10:00:00,25.560083,87.553265,OZONE,21,25,23
India,Bihar,Kishanganj,"SDM Office_Khagra, Kishanganj - BSPCB",17-02-2024 10:00:00,26.0881305,87.93840336,PM10,153,194,169
India,Bihar,Kishanganj,"SDM Office_Khagra, Kishanganj - BSPCB",17-02-2024 10:00:00,26.0881305,87.93840336,NH3,12,12,12
India,Bihar,Manguraha,"Forest Rest House, Manguraha - BSPCB",17-02-2024 10:00:00,27.308328,84.531742,PM2.5,60,213,103
India,Bihar,Motihari,"Gandak Colony, Motihari - BSPCB",17-02-2024 10:00:00,26.63086,84.90051,CO,42,76,51
India,Bihar,Munger,"Town Hall, Munger - BSPCB",17-02-2024 10:00:00,25.376776,86.471523,PM2.5,NA,NA,NA
India,Bihar,Muzaffarpur,"Buddha Colony, Muzaffarpur - BSPCB",17-02-2024 10:00:00,26.11442,85.39813,PM2.5,106,308,212
India,Bihar,Muzaffarpur,"Buddha Colony, Muzaffarpur - BSPCB",17-02-2024 10:00:00,26.11442,85.39813,OZONE,72,164,156
India,Bihar,Muzaffarpur,"MIT-Daudpur Kothi, Muzaffarpur - BSPCB",17-02-2024 10:00:00,26.1403345,85.3650192,CO,18,101,64
India,Bihar,Muzaffarpur,"Muzaffarpur Collectorate, Muzaffarpur - BSPCB",17-02-2024 10:00:00,26.1209,85.3647,SO2,5,9,7
India,Bihar,Muzaffarpur,"Muzaffarpur Collectorate, Muzaffarpur - BSPCB",17-02-2024 10:00:00,26.1209,85.3647,OZONE,10,75,16
India,Bihar,Patna,"DRM Office Danapur, Patna - BSPCB",17-02-2024 10:00:00,25.586562,85.043586,CO,22,108,37
India,Bihar,Patna,"Govt. High School Shikarpur, Patna - BSPCB",17-02-2024 10:00:00,25.592539,85.227158,PM2.5,72,173,120
India,Bihar,Patna,"Govt. High School Shikarpur, Patna - BSPCB",17-02-2024 10:00:00,25.592539,85.227158,NO2,13,39,26
India,Bihar,Patna,"Govt. High School Shikarpur, Patna - BSPCB",17-02-2024 10:00:00,25.592539,85.227158,SO2,2,6,4
India,Bihar,Patna,"Govt. High School Shikarpur, Patna - BSPCB",17-02-2024 10:00:00,25.592539,85.227158,OZONE,6,47,12
India,Bihar,Patna,"IGSC Planetarium Complex, Patna - BSPCB",17-02-2024 10:00:00,25.610369,85.132568,NO2,NA,NA,NA
India,Bihar,Patna,"IGSC Planetarium Complex, Patna - BSPCB",17-02-2024 10:00:00,25.610369,85.132568,OZONE,14,16,16
India,Bihar,Patna,"Rajbansi Nagar, Patna - BSPCB",17-02-2024 10:00:00,25.599486,85.113666,SO2,5,20,14
India,Bihar,Patna,"Rajbansi Nagar, Patna - BSPCB",17-02-2024 10:00:00,25.599486,85.113666,OZONE,1,47,12
India,Bihar,Patna,"Samanpura, Patna - BSPCB",17-02-2024 10:00:00,25.596727,85.085624,PM2.5,NA,NA,NA
India,Bihar,Rajgir,"Dangi Tola, Rajgir - BSPCB",17-02-2024 10:00:00,25.03280,85.41948,PM2.5,60,336,159
India,Bihar,Saharsa,"Police Line, Saharsa - BSPCB",17-02-2024 10:00:00,25.892357,86.590325,PM2.5,103,312,178
India,Bihar,Saharsa,"Police Line, Saharsa - BSPCB",17-02-2024 10:00:00,25.892357,86.590325,SO2,8,93,40
India,Bihar,Saharsa,"Police Line, Saharsa - BSPCB",17-02-2024 10:00:00,25.892357,86.590325,OZONE,12,56,20
India,Bihar,Samastipur,"DM Office_Kasipur, Samastipur - BSPCB",17-02-2024 10:00:00,25.859655,85.77944,NH3,4,4,4
India,Bihar,Sasaram,"Dada Peer, Sasaram - BSPCB",17-02-2024 10:00:00,24.952822,84.002396,SO2,21,23,22
India,Bihar,Siwan,"Chitragupta Nagar, Siwan - BSPCB",17-02-2024 10:00:00,26.2271665,84.3570427,NO2,12,62,24
India,Bihar,Siwan,"Chitragupta Nagar, Siwan - BSPCB",17-02-2024 10:00:00,26.2271665,84.3570427,NH3,1,8,3
India,Chandigarh,Chandigarh,"Sector 22, Chandigarh - CPCC",17-02-2024 10:00:00,30.735567,76.775714,PM10,83,195,143
India,Chandigarh,Chandigarh,"Sector 22, Chandigarh - CPCC",17-02-2024 10:00:00,30.735567,76.775714,NH3,5,8,6
India,Chandigarh,Chandigarh,"Sector 22, Chandigarh - CPCC",17-02-2024 10:00:00,30.735567,76.775714,SO2,8,23,12
India,Chandigarh,Chandigarh,"Sector 22, Chandigarh - CPCC",17-02-2024 10:00:00,30.735567,76.775714,CO,36,74,48
India,Chandigarh,Chandigarh,"Sector-25, Chandigarh - CPCC",17-02-2024 10:00:00,30.751462,76.762879,OZONE,1,48,5
India,Chandigarh,Chandigarh,"Sector-53, Chandigarh - CPCC",17-02-2024 10:00:00,30.719859,76.738637,CO,40,107,57
India,Chhattisgarh,Bhilai,"32Bungalows, Bhilai - CECB",17-02-2024 10:00:00,21.194815,81.314770,NO2,17,27,21
India,Chhattisgarh,Bhilai,"32Bungalows, Bhilai - CECB",17-02-2024 10:00:00,21.194815,81.314770,NH3,6,6,6
India,Chhattisgarh,Bhilai,"Civic Center, Bhilai - Bhilai Steel Plant",17-02-2024 10:00:00,21.185571,81.343175,SO2,7,12,10
India,Chhattisgarh,Bhilai,"Civic Center, Bhilai - Bhilai Steel Plant",17-02-2024 10:00:00,21.185571,81.343175,OZONE,8,59,11
India,Chhattisgarh,Bilaspur,"Mangala, Bilaspur - NTPC",17-02-2024 10:00:00,22.08815,82.13737,PM2.5,30,78,55
India,Chhattisgarh,Korba,"Rampur, Korba - CECB",17-02-2024 10:00:00,22.368195,82.746431,PM2.5,26,46,34
India,Chhattisgarh,Korba,"Rampur, Korba - CECB",17-02-2024 10:00:00,22.368195,82.746431,SO2,8,83,18
India,Chhattisgarh,Korba,"Urja Nagar, Korba - CECB",17-02-2024 10:00:00,22.348441,82.549611,NH3,2,9,6
India,Chhattisgarh,Milupara,"Govt. Higher Secondary School, Milupara - CECB",17-02-2024 10:00:00,22.1910172,83.5197009,CO,14,50,24
India,Chhattisgarh,Raipur,"Bhatagaon New ISBT, Raipur - CECB",17-02-2024 10:00:00,21.219665,81.630094,PM2.5,42,106,66
India,Chhattisgarh,Raipur,"Bhatagaon New ISBT, Raipur - CECB",17-02-2024 10:00:00,21.219665,81.630094,PM10,59,127,91
India,Chhattisgarh,Raipur,"Bhatagaon New ISBT, Raipur - CECB",17-02-2024 10:00:00,21.219665,81.630094,OZONE,3,9,3
India,Chhattisgarh,Raipur,"Krishak Nagar, Raipur - CECB",17-02-2024 10:00:00,21.237755,81.705301,NO2,NA,NA,NA
India,Chhattisgarh,Raipur,"Siltara Phase-II, Raipur - CECB",17-02-2024 10:00:00,21.371751,81.664929,NO2,54,73,61
India,Chhattisgarh,Tumidih,"OP Jindal Industrial Park, Tumidih - CECB",17-02-2024 10:00:00,22.06631475,83.33820077,NO2,7,28,17
India,Chhattisgarh,Tumidih,"OP Jindal Industrial Park, Tumidih - CECB",17-02-2024 10:00:00,22.06631475,83.33820077,CO,22,54,26
India,Delhi,Delhi,"Alipur, Delhi - DPCC",17-02-2024 10:00:00,28.815329,77.153010,PM2.5,40,323,221
India,Delhi,Delhi,"Alipur, Delhi - DPCC",17-02-2024 10:00:00,28.815329,77.153010,SO2,8,19,11
India,Delhi,Delhi,"Alipur, Delhi - DPCC",17-02-2024 10:00:00,28.815329,77.153010,CO,34,86,61
India,Delhi,Delhi,"Anand Vihar, Delhi - DPCC",17-02-2024 10:00:00,28.647622,77.3158090,CO,18,136,117
India,Delhi,Delhi,"Anand Vihar, Delhi - DPCC",17-02-2024 10:00:00,28.647622,77.3158090,OZONE,17,26,20
India,Delhi,Delhi,"Ashok Vihar, Delhi - DPCC",17-02-2024 10:00:00,28.695381,77.181665,PM10,98,414,237
India,Delhi,Delhi,"Ashok Vihar, Delhi - DPCC",17-02-2024 10:00:00,28.695381,77.181665,NH3,6,9,8
India,Delhi,Delhi,"Ashok Vihar, Delhi - DPCC",17-02-2024 10:00:00,28.695381,77.181665,CO,10,114,40
India,Delhi,Delhi,"Ashok Vihar, Delhi - DPCC",17-02-2024 10:00:00,28.695381,77.181665,OZONE,4,18,5
India,Delhi,Delhi,"Bawana, Delhi - DPCC",17-02-2024 10:00:00,28.776200,77.051074,PM10,105,375,235
India,Delhi,Delhi,"Bawana, Delhi - DPCC",17-02-2024 10:00:00,28.776200,77.051074,NO2,14,109,54
India,Delhi,Delhi,"Bawana, Delhi - DPCC",17-02-2024 10:00:00,28.776200,77.051074,NH3,6,9,8
India,Delhi,Delhi,"Bawana, Delhi - DPCC",17-02-2024 10:00:00,28.776200,77.051074,SO2,3,13,6
India,Delhi,Delhi,"CRRI Mathura Road, Delhi - IMD",17-02-2024 10:00:00,28.5512005,77.2735737,PM10,72,333,183
India,Delhi,Delhi,"DTU, Delhi - CPCB",17-02-2024 10:00:00,28.7500499,77.1112615,SO2,28,30,29
India,Delhi,Delhi,"Dr. Karni Singh Shooting Range, Delhi - DPCC",17-02-2024 10:00:00,28.498571,77.264840,PM2.5,75,333,253
India,Delhi,Delhi,"Dr. Karni Singh Shooting Range, Delhi - DPCC",17-02-2024 10:00:00,28.498571,77.264840,NH3,5,9,7
India,Delhi,Delhi,"IGI Airport (T3), Delhi - IMD",17-02-2024 10:00:00,28.5627763,77.1180053,PM2.5,61,357,239
India,Delhi,Delhi,"IGI Airport (T3), Delhi - IMD",17-02-2024 10:00:00,28.5627763,77.1180053,PM10,97,433,216
India,Delhi,Delhi,"IGI Airport (T3), Delhi - IMD",17-02-2024 10:00:00,28.5627763,77.1180053,CO,6,114,60
India,Delhi,Delhi,"ITO, Delhi - CPCB",17-02-2024 10:00:00,28.628624,77.241060,NH3,1,18,6
India,Delhi,Delhi,"Jahangirpuri, Delhi - DPCC",17-02-2024 10:00:00,28.732820,77.170633,SO2,11,27,21
India,Delhi,Delhi,"Jawaharlal Nehru Stadium, Delhi - DPCC",17-02-2024 10:00:00,28.580280,77.233829,SO2,16,53,34
India,Delhi,Delhi,"Lodhi Road, Delhi - IITM",17-02-2024 10:00:00,28.588333,77.221667,NO2,67,138,92
India,Delhi,Delhi,"Lodhi Road, Delhi - IITM",17-02-2024 10:00:00,28.588333,77.221667,SO2,18,48,33
India,Delhi,Delhi,"Lodhi Road, Delhi - IMD",17-02-2024 10:00:00,28.5918245,77.2273074,NO2,7,26,17
India,Delhi,Delhi,"Major Dhyan Chand National Stadium, Delhi - DPCC",17-02-2024 10:00:00,28.611281,77.237738,NH3,5,12,9
India,Delhi,Delhi,"Major Dhyan Chand National Stadium, Delhi - DPCC",17-02-2024 10:00:00,28.611281,77.237738,OZONE,2,216,9
India,Delhi,Delhi,"Mandir Marg, Delhi - DPCC",17-02-2024 10:00:00,28.636429,77.201067,NO2,69,132,113
India,Delhi,Delhi,"Mundka, Delhi - DPCC",17-02-2024 10:00:00,28.684678,77.076574,PM2.5,67,420,296
India,Delhi,Delhi,"Mundka, Delhi - DPCC",17-02-2024 10:00:00,28.684678,77.076574,NO2,30,115,79
India,Delhi,Delhi,"Mundka, Delhi - DPCC",17-02-2024 10:00:00,28.684678,77.076574,NH3,6,10,8
India,Delhi,Delhi,"Mundka, Delhi - DPCC",17-02-2024 10:00:00,28.684678,77.076574,CO,28,84,61
India,Delhi,Delhi,"Mundka, Delhi - DPCC",17-02-2024 10:00:00,28.684678,77.076574,OZONE,17,22,18
India,Delhi,Delhi,"NSIT Dwarka, Delhi - CPCB",17-02-2024 10:00:00,28.60909,77.0325413,PM10,118,421,248
India,Delhi,Delhi,"Najafgarh, Delhi - DPCC",17-02-2024 10:00:00,28.570173,76.933762,PM2.5,103,320,238
India,Delhi,Delhi,"Najafgarh, Delhi - DPCC",17-02-2024 10:00:00,28.570173,76.933762,PM10,84,276,143
India,Delhi,Delhi,"Nehru Nagar, Delhi - DPCC",17-02-2024 10:00:00,28.567890,77.250515,NO2,12,41,22
India,Delhi,Delhi,"Nehru Nagar, Delhi - DPCC",17-02-2024 10:00:00,28.567890,77.250515,SO2,5,33,13
India,Delhi,Delhi,"New Moti Bagh, Delhi - MHUA",17-02-2024 10:00:00,28.57834,77.18400,NO2,1,9,5
India,Delhi,Delhi,"North Campus, DU, Delhi - IMD",17-02-2024 10:00:00,28.6573814,77.1585447,PM2.5,54,347,257
India,Delhi,Delhi,"Okhla Phase-2, Delhi - DPCC",17-02-2024 10:00:00,28.530785,77.271255,NO2,52,310,159
India,Delhi,Delhi,"Pusa, Delhi - DPCC",17-02-2024 10:00:00,28.639652,77.146275,PM2.5,73,332,275
India,Delhi,Delhi,"Pusa, Delhi - IMD",17-02-2024 10:00:00,28.636110,77.173332,NO2,NA,NA,NA
India,Delhi,Delhi,"Pusa, Delhi - IMD",17-02-2024 10:00:00,28.636110,77.173332,OZONE,12,25,13
India,Delhi,Delhi,"R K Puram, Delhi - DPCC",17-02-2024 10:00:00,28.563262,77.186937,NH3,2,5,3
India,Delhi,Delhi,"R K Puram, Delhi - DPCC",17-02-2024 10:00:00,28.563262,77.186937,CO,20,149,87
India,Delhi,Delhi,"Rohini, Delhi - DPCC",17-02-2024 10:00:00,28.732528,77.119920,NO2,25,108,64
India,Delhi,Delhi,"Sirifort, Delhi - CPCB",17-02-2024 10:00:00,28.5504249,77.2159377,NH3,10,13,11
India,Delhi,Delhi,"Sonia Vihar, Delhi - DPCC",17-02-2024 10:00:00,28.710508,77.249485,NH3,5,12,7
India,Delhi,Delhi,"Vivek Vihar, Delhi - DPCC",17-02-2024 10:00:00,28.672342,77.315260,NO2,NA,NA,NA
India,Delhi,Delhi,"Wazirpur, Delhi - DPCC",17-02-2024 10:00:00,28.699793,77.165453,PM10,111,468,293
India,Delhi,Delhi,"Wazirpur, Delhi - DPCC",17-02-2024 10:00:00,28.699793,77.165453,SO2,22,58,36
India,Gujarat,Ahmedabad,"Chandkheda, Ahmedabad - IITM",17-02-2024 10:00:00,23.107969,72.574648,NO2,72,164,119
India,Gujarat,Ahmedabad,"Gyaspur, Ahmedabad - IITM",17-02-2024 10:00:00,22.977134,72.553024,PM2.5,147,303,206
India,Gujarat,Ahmedabad,"Gyaspur, Ahmedabad - IITM",17-02-2024 10:00:00,22.977134,72.553024,PM10,128,192,150
India,Gujarat,Ahmedabad,"Gyaspur, Ahmedabad - IITM",17-02-2024 10:00:00,22.977134,72.553024,CO,28,30,28
India,Gujarat,Ahmedabad,"Gyaspur, Ahmedabad - IITM",17-02-2024 10:00:00,22.977134,72.553024,OZONE,20,21,20
India,Gujarat,Ahmedabad,"Maninagar, Ahmedabad - GPCB",17-02-2024 10:00:00,23.002657,72.591912,OZONE,1,77,38
India,Gujarat,Ahmedabad,"SAC ISRO Satellite, Ahmedabad - IITM",17-02-2024 10:00:00,23.023389,72.515201,CO,48,49,48
India,Gujarat,Ahmedabad,"SVPI Airport Hansol, Ahmedabad - IITM",17-02-2024 10:00:00,23.076793,72.627874,NO2,15,18,16
India,Gujarat,Ahmedabad,"Sardar Vallabhbhai Patel Stadium, Ahmedabad - IITM",17-02-2024 10:00:00,23.043070,72.562968,NO2,12,14,13
India,Gujarat,Ankleshwar,"GIDC, Ankleshwar - GPCB",17-02-2024 10:00:00,21.613267,73.010555,NO2,34,35,34
India,Gujarat,Ankleshwar,"GIDC, Ankleshwar - GPCB",17-02-2024 10:00:00,21.613267,73.010555,NH3,6,7,6
India,Gujarat,Gandhinagar,"GIFT City, Gandhinagar - IITM",17-02-2024 10:00:00,23.163798,72.677768,PM2.5,NA,NA,NA
India,Gujarat,Gandhinagar,"GIFT City, Gandhinagar - IITM",17-02-2024 10:00:00,23.163798,72.677768,NH3,NA,NA,NA
India,Gujarat,Gandhinagar,"IIPHG Lekawada, Gandhinagar - IITM",17-02-2024 10:00:00,23.243639,72.68994,NH3,3,3,3
India,Gujarat,Gandhinagar,"IIPHG Lekawada, Gandhinagar - IITM",17-02-2024 10:00:00,23.243639,72.68994,OZONE,8,33,28
India,Gujarat,Gandhinagar,"Sector-10, Gandhinagar - GPCB",17-02-2024 10:00:00,23.221714,72.654328,NO2,7,15,10
India,Gujarat,Vapi,"Phase-1 GIDC, Vapi - GPCB",17-02-2024 10:00:00,20.362421,72.918013,NH3,16,18,17
India,Gujarat,Vatva,"Phase-4 GIDC, Vatva - GPCB",17-02-2024 10:00:00,22.969611,72.643500,PM2.5,35,145,84
India,Haryana,Ambala,"Patti Mehar, Ambala - HSPCB",17-02-2024 10:00:00,30.379589,76.778328,NO2,84,132,110
India,Haryana,Bahadurgarh,"Arya Nagar, Bahadurgarh - HSPCB",17-02-2024 10:00:00,28.6701,76.9254,NH3,11,12,11
India,Haryana,Ballabgarh,"Nathu Colony, Ballabgarh - HSPCB",17-02-2024 10:00:00,28.3419248,77.319699,OZONE,6,30,13
India,Haryana,Bhiwani,"H.B. Colony, Bhiwani - HSPCB",17-02-2024 10:00:00,28.806223,76.141105,SO2,7,14,11
India,Haryana,Dharuhera,"Municipal Corporation Office, Dharuhera -  HSPCB",17-02-2024 10:00:00,28.206800,76.799700,PM2.5,42,317,194
India,Haryana,Dharuhera,"Municipal Corporation Office, Dharuhera -  HSPCB",17-02-2024 10:00:00,28.206800,76.799700,SO2,5,72,20
India,Haryana,Faridabad,"New Industrial Town, Faridabad - HSPCB",17-02-2024 10:00:00,28.39072,77.30059,NH3,4,8,6
India,Haryana,Faridabad,"Sector 11, Faridabad - HSPCB",17-02-2024 10:00:00,28.376058,77.315741,PM10,34,292,148
India,Haryana,Faridabad,"Sector- 16A, Faridabad - HSPCB",17-02-2024 10:00:00,28.4088421,77.3099081,NO2,2,22,9
India,Haryana,Faridabad,"Sector- 16A, Faridabad - HSPCB",17-02-2024 10:00:00,28.4088421,77.3099081,OZONE,14,14,14
India,Haryana,Gurugram,"Teri Gram, Gurugram - HSPCB",17-02-2024 10:00:00,28.4275,77.1465,SO2,4,5,5
India,Haryana,Kaithal,"Rishi Nagar, Kaithal - HSPCB",17-02-2024 10:00:00,29.8006,76.4155,SO2,9,35,20
India,Haryana,Kaithal,"Rishi Nagar, Kaithal - HSPCB",17-02-2024 10:00:00,29.8006,76.4155,CO,1,26,14
India,Haryana,Kaithal,"Rishi Nagar, Kaithal - HSPCB",17-02-2024 10:00:00,29.8006,76.4155,OZONE,6,15,8
India,Haryana,Kurukshetra,"Sector-7, Kurukshetra - HSPCB",17-02-2024 10:00:00,29.966942,76.875879,SO2,1,56,19
India,Haryana,Mandikhera,"General Hospital, Mandikhera - HSPCB",17-02-2024 10:00:00,27.9002,76.9938,NH3,18,21,19
India,Haryana,Narnaul,"Shastri Nagar, Narnaul - HSPCB",17-02-2024 10:00:00,28.060249,76.113115,NO2,16,58,35
India,Haryana,Panchkula,"Sector-6, Panchkula - HSPCB ",17-02-2024 10:00:00,30.7057778,76.8531805555555,NO2,10,10,10
India,Haryana,Sirsa,"F-Block, Sirsa - HSPCB",17-02-2024 10:00:00,29.536400,75.015800,SO2,1,16,10
India,Haryana,Sonipat,"Murthal, Sonipat - HSPCB",17-02-2024 10:00:00,29.027200,77.062100,PM10,77,128,101
India,Haryana,Sonipat,"Murthal, Sonipat - HSPCB",17-02-2024 10:00:00,29.027200,77.062100,NH3,7,10,9
India,Himachal Pradesh,Baddi,"HIMUDA Complex Phase-1, Baddi - HPPCB",17-02-2024 10:00:00,30.943887,76.801991,OZONE,9,144,28
India,Jammu_and_Kashmir,Srinagar,"Rajbagh, Srinagar - JKSPCB",17-02-2024 10:00:00,34.066206,74.819820,SO2,NA,NA,NA
India,Jammu_and_Kashmir,Srinagar,"Rajbagh, Srinagar - JKSPCB",17-02-2024 10:00:00,34.066206,74.819820,OZONE,11,13,12
India,Jharkhand,Dhanbad,"Sardar Patel Nagar, Dhanbad - JSPCB",17-02-2024 10:00:00,23.80569,86.44268,PM2.5,1,114,49
India,Jharkhand,Dhanbad,"Sardar Patel Nagar, Dhanbad - JSPCB",17-02-2024 10:00:00,23.80569,86.44268,SO2,7,108,41
India,Jharkhand,Dhanbad,"Sardar Patel Nagar, Dhanbad - JSPCB",17-02-2024 10:00:00,23.80569,86.44268,OZONE,8,45,14
India,Jharkhand,Pathardih,"Mohalbani Ghat, Pathardih - DMC",17-02-2024 10:00:00,23.669880,86.411725,PM2.5,9,127,55
India,Jharkhand,Pathardih,"Mohalbani Ghat, Pathardih - DMC",17-02-2024 10:00:00,23.669880,86.411725,SO2,18,111,49
India,Karnataka,Bagalkot,"Vidayagiri, Bagalkot - KSPCB",17-02-2024 10:00:00,16.172806,75.659694,NO2,9,10,9
India,Karnataka,Bagalkot,"Vidayagiri, Bagalkot - KSPCB",17-02-2024 10:00:00,16.172806,75.659694,SO2,9,10,9
India,Karnataka,Bengaluru,"BTM Layout, Bengaluru - CPCB",17-02-2024 10:00:00,12.9135218,77.5950804,NH3,5,5,5
India,Karnataka,Bengaluru,"City Railway Station, Bengaluru - KSPCB",17-02-2024 10:00:00,12.9756843,77.5660749,SO2,13,13,13
India,Karnataka,Bengaluru,"Hebbal, Bengaluru - KSPCB",17-02-2024 10:00:00,13.029152,77.585901,PM10,42,98,74
India,Karnataka,Bengaluru,"Jayanagar 5th Block, Bengaluru - KSPCB",17-02-2024 10:00:00,12.920984,77.584908,PM10,65,148,93
India,Karnataka,Bengaluru,"Jayanagar 5th Block, Bengaluru - KSPCB",17-02-2024 10:00:00,12.920984,77.584908,OZONE,18,19,19
India,Karnataka,Bengaluru,"Kasturi Nagar, Bengaluru - KSPCB",17-02-2024 10:00:00,13.003872,77.664217,NH3,3,4,4
India,Karnataka,Bengaluru,"Kasturi Nagar, Bengaluru - KSPCB",17-02-2024 10:00:00,13.003872,77.664217,SO2,10,10,10
India,Karnataka,Bengaluru,"Peenya, Bengaluru - CPCB",17-02-2024 10:00:00,13.0270199,77.494094,CO,26,50,38
India,Karnataka,Bengaluru,"Sanegurava Halli, Bengaluru - KSPCB",17-02-2024 10:00:00,12.990328,77.5431385,NO2,21,31,24
India,Karnataka,Bengaluru,"Shivapura_Peenya, Bengaluru - KSPCB",17-02-2024 10:00:00,13.0246342,77.5080115,PM2.5,34,83,57
India,Karnataka,Bengaluru,"Silk Board, Bengaluru - KSPCB",17-02-2024 10:00:00,12.917348,77.622813,PM2.5,30,58,46
India,Karnataka,Bengaluru,"Silk Board, Bengaluru - KSPCB",17-02-2024 10:00:00,12.917348,77.622813,PM10,69,112,90
India,Karnataka,Bengaluru,"Silk Board, Bengaluru - KSPCB",17-02-2024 10:00:00,12.917348,77.622813,NO2,24,28,26
India,Karnataka,Bengaluru,"Silk Board, Bengaluru - KSPCB",17-02-2024 10:00:00,12.917348,77.622813,SO2,6,13,10
India,Karnataka,Bidar,"Naubad, Bidar - KSPCB",17-02-2024 10:00:00,17.930306,77.482194,PM10,65,100,82
India,Karnataka,Bidar,"Naubad, Bidar - KSPCB",17-02-2024 10:00:00,17.930306,77.482194,NO2,7,8,8
India,Karnataka,Chamarajanagar,"Urban, Chamarajanagar - KSPCB",17-02-2024 10:00:00,11.55358,76.55521,CO,NA,NA,NA
India,Karnataka,Chikkaballapur,"Chikkaballapur Rural, Chikkaballapur - KSPCB",17-02-2024 10:00:00,13.428828,77.731418,PM2.5,39,97,68
India,Karnataka,Chikkaballapur,"Chikkaballapur Rural, Chikkaballapur - KSPCB",17-02-2024 10:00:00,13.428828,77.731418,SO2,21,29,23
India,Karnataka,Chikkamagaluru,"Kalyana Nagara, Chikkamagaluru - KSPCB",17-02-2024 10:00:00,13.328028,75.797056,SO2,2,5,3
India,Karnataka,Davanagere,"Devaraj Urs Badavane, Davanagere - KSPCB",17-02-2024 10:00:00,14.475800,75.905200,PM10,44,101,61
India,Karnataka,Davanagere,"Devaraj Urs Badavane, Davanagere - KSPCB",17-02-2024 10:00:00,14.475800,75.905200,OZONE,23,30,25
India,Karnataka,Gadag,"Panchal Nagar, Gadag - KSPCB",17-02-2024 10:00:00,15.411456,75.638133,CO,36,54,45
India,Karnataka,Hassan,"B.Katihalli, Hassan - KSPCB",17-02-2024 10:00:00,13.008556,76.125258,PM2.5,18,87,63
India,Karnataka,Haveri,"Ashwini Nagar, Haveri - KSPCB",17-02-2024 10:00:00,14.791800,75.389600,NO2,21,41,33
India,Karnataka,Hubballi,"Lingaraj Nagar, Hubballi - KSPCB",17-02-2024 10:00:00,15.3714823,75.1160168,NH3,2,2,2
India,Karnataka,Kalaburagi,"Lal Bahadur Shastri Nagar, Kalaburagi - KSPCB",17-02-2024 10:00:00,17.321993,76.822628,PM10,NA,NA,NA
India,Karnataka,Kalaburagi,"Lal Bahadur Shastri Nagar, Kalaburagi - KSPCB",17-02-2024 10:00:00,17.321993,76.822628,NH3,2,2,2
India,Karnataka,Kalaburagi,"Lal Bahadur Shastri Nagar, Kalaburagi - KSPCB",17-02-2024 10:00:00,17.321993,76.822628,SO2,13,19,15
