country,state,city,station,last_update,latitude,longitude,pollutant_id,pollutant_min,pollutant_max,pollutant_avg
India,Andhra_Pradesh,Amaravati,"Secretariat, Amaravati - APPCB",11-01-2024 00:00:00,16.5150833,80.5181667,PM2.5,148,301,214
India,Andhra_Pradesh,Anantapur,"Gulzarpet, Anantapur - APPCB",11-01-2024 00:00:00,14.675886,77.593027,CO,30,45,36
India,Andhra_Pradesh,Chittoor,"Gangineni Cheruvu, Chittoor - APPCB",11-01-2024 00:00:00,13.204880,79.097889,PM2.5,26,100,58
India,Andhra_Pradesh,Chittoor,"Gangineni Cheruvu, Chittoor - APPCB",11-01-2024 00:00:00,13.204880,79.097889,SO2,5,15,10
India,Andhra_Pradesh,Kadapa,"Yerramukkapalli, Kadapa - APPCB",11-01-2024 00:00:00,14.465052,78.824187,CO,20,27,23
India,Andhra_Pradesh,Rajamahendravaram,"Anand Kala Kshetram, Rajamahendravaram - APPCB",11-01-2024 00:00:00,16.9872867,81.7363176,PM2.5,272,329,298
India,Andhra_Pradesh,Rajamahendravaram,"Anand Kala Kshetram, Rajamahendravaram - APPCB",11-01-2024 00:00:00,16.9872867,81.7363176,PM10,138,184,158
India,Andhra_Pradesh,Rajamahendravaram,"Anand Kala Kshetram, Rajamahendravaram - APPCB",11-01-2024 00:00:00,16.9872867,81.7363176,NO2,11,65,33
India,Andhra_Pradesh,Rajamahendravaram,"Anand Kala Kshetram, Rajamahendravaram - APPCB",11-01-2024 00:00:00,16.9872867,81.7363176,OZONE,13,30,24
India,Andhra_Pradesh,Tirupati,"Tirumala, Tirupati - APPCB",11-01-2024 00:00:00,13.67,79.35,SO2,4,9,6
India,Andhra_Pradesh,Tirupati,"Vaikuntapuram, Tirupati - APPCB",11-01-2024 00:00:00,13.615387,79.409230,PM2.5,23,229,53
India,Andhra_Pradesh,Tirupati,"Vaikuntapuram, Tirupati - APPCB",11-01-2024 00:00:00,13.615387,79.409230,PM10,23,144,48
India,Andhra_Pradesh,Vijayawada,"Kanuru, Vijayawada - APPCB",11-01-2024 00:00:00,16.486692,80.699436,SO2,5,5,5
India,Andhra_Pradesh,Vijayawada,"Kanuru, Vijayawada - APPCB",11-01-2024 00:00:00,16.486692,80.699436,OZONE,30,30,30
India,Assam,Guwahati,"LGBI Airport, Guwahati - PCBA",11-01-2024 00:00:00,26.10887,91.589544,NO2,13,65,28
India,Assam,Guwahati,"LGBI Airport, Guwahati - PCBA",11-01-2024 00:00:00,26.10887,91.589544,SO2,11,14,12
India,Assam,Guwahati,"LGBI Airport, Guwahati - PCBA",11-01-2024 00:00:00,26.10887,91.589544,OZONE,3,90,34
India,Assam,Guwahati,"Pan Bazaar, Guwahati - PCBA",11-01-2024 00:00:00,26.187500,91.744194,NO2,1,11,4
India,Assam,Guwahati,"Railway Colony, Guwahati - PCBA",11-01-2024 00:00:00,26.181742,91.78063,PM10,128,425,208
India,Assam,Guwahati,"Railway Colony, Guwahati - PCBA",11-01-2024 00:00:00,26.181742,91.78063,NO2,3,3,3
India,Assam,Nalbari,"Bata Chowk, Nalbari - PCBA",11-01-2024 00:00:00,26.446912,91.439057,SO2,6,11,7
India,Assam,Silchar,"Tarapur, Silchar - PCBA",11-01-2024 00:00:00,24.82827,92.79525,NO2,25,34,29
India,Assam,Sivasagar,"Girls College, Sivasagar - PCBA",11-01-2024 00:00:00,26.987634,94.636574,NO2,19,39,29
India,Bihar,Arrah,"New DM Office, Arrah - BSPCB",11-01-2024 00:00:00,25.5626095,84.663264,PM2.5,137,352,275
India,Bihar,Aurangabad,"Gurdeo Nagar, Aurangabad - BSPCB",11-01-2024 00:00:00,24.75746,84.366208,PM10,48,131,90
India,Bihar,Bhagalpur,"DM Office_Kachari Chowk, Bhagalpur - BSPCB",11-01-2024 00:00:00,25.251013,86.989001,PM2.5,240,439,353
India,Bihar,Bhagalpur,"Mayaganj, Bhagalpur - BSPCB",11-01-2024 00:00:00,25.265194,87.012947,PM2.5,283,457,364
India,Bihar,Bhagalpur,"Mayaganj, Bhagalpur - BSPCB",11-01-2024 00:00:00,25.265194,87.012947,CO,8,10,9
India,Bihar,Chhapra,"Darshan Nagar, Chhapra - BSPCB",11-01-2024 00:00:00,25.7808257,84.7446768,PM2.5,210,348,306
India,Bihar,Gaya,"Collectorate, Gaya - BSPCB",11-01-2024 00:00:00,24.7955,84.9994,CO,26,51,42
India,Bihar,Gaya,"Collectorate, Gaya - BSPCB",11-01-2024 00:00:00,24.7955,84.9994,OZONE,56,78,64
India,Bihar,Gaya,"Kareemganj, Gaya - BSPCB",11-01-2024 00:00:00,24.792403,84.992416,SO2,9,12,11
India,Bihar,Gaya,"Kareemganj, Gaya - BSPCB",11-01-2024 00:00:00,24.792403,84.992416,OZONE,4,36,17
India,Bihar,Gaya,"SFTI Kusdihra, Gaya - BSPCB",11-01-2024 00:00:00,24.762518,84.982348,PM2.5,59,236,135
India,Bihar,Gaya,"SFTI Kusdihra, Gaya - BSPCB",11-01-2024 00:00:00,24.762518,84.982348,SO2,7,11,9
India,Bihar,Hajipur,"Industrial Area, Hajipur - BSPCB",11-01-2024 00:00:00,25.697189,85.245900,SO2,6,9,7
India,Bihar,Katihar,"Mirchaibari, Katihar - BSPCB",11-01-2024 00:00:00,25.560083,87.553265,NO2,20,43,30
India,Bihar,Katihar,"Mirchaibari, Katihar - BSPCB",11-01-2024 00:00:00,25.560083,87.553265,SO2,21,27,24
India,Bihar,Muzaffarpur,"Buddha Colony, Muzaffarpur - BSPCB",11-01-2024 00:00:00,26.11442,85.39813,PM10,153,288,236
India,Bihar,Patna,"DRM Office Danapur, Patna - BSPCB",11-01-2024 00:00:00,25.586562,85.043586,PM10,NA,NA,NA
India,Bihar,Patna,"DRM Office Danapur, Patna - BSPCB",11-01-2024 00:00:00,25.586562,85.043586,SO2,6,9,7
India,Bihar,Patna,"IGSC Planetarium Complex, Patna - BSPCB",11-01-2024 00:00:00,25.610369,85.132568,OZONE,13,15,14
India,Bihar,Patna,"Muradpur, Patna - BSPCB",11-01-2024 00:00:00,25.619651,85.147382,CO,38,97,64
India,Bihar,Patna,"Rajbansi Nagar, Patna - BSPCB",11-01-2024 00:00:00,25.599486,85.113666,PM10,166,269,201
India,Bihar,Patna,"Rajbansi Nagar, Patna - BSPCB",11-01-2024 00:00:00,25.599486,85.113666,NH3,6,9,6
India,Bihar,Patna,"Rajbansi Nagar, Patna - BSPCB",11-01-2024 00:00:00,25.599486,85.113666,SO2,12,22,18
India,Bihar,Purnia,"Mariam Nagar, Purnia - BSPCB",11-01-2024 00:00:00,25.366336,87.117468,PM10,163,286,213
India,Bihar,Purnia,"Mariam Nagar, Purnia - BSPCB",11-01-2024 00:00:00,25.366336,87.117468,CO,62,102,84
India,Bihar,Rajgir,"Dangi Tola, Rajgir - BSPCB",11-01-2024 00:00:00,25.03280,85.41948,NH3,1,2,1
India,Bihar,Saharsa,"Police Line, Saharsa - BSPCB",11-01-2024 00:00:00,25.892357,86.590325,PM2.5,315,459,371
India,Bihar,Saharsa,"Police Line, Saharsa - BSPCB",11-01-2024 00:00:00,25.892357,86.590325,PM10,165,414,252
India,Bihar,Samastipur,"DM Office_Kasipur, Samastipur - BSPCB",11-01-2024 00:00:00,25.859655,85.77944,NO2,2,11,5
India,Bihar,Samastipur,"DM Office_Kasipur, Samastipur - BSPCB",11-01-2024 00:00:00,25.859655,85.77944,NH3,4,4,4
India,Bihar,Samastipur,"DM Office_Kasipur, Samastipur - BSPCB",11-01-2024 00:00:00,25.859655,85.77944,OZONE,5,9,6
India,Bihar,Siwan,"Chitragupta Nagar, Siwan - BSPCB",11-01-2024 00:00:00,26.2271665,84.3570427,PM2.5,87,293,153
India,Bihar,Siwan,"Chitragupta Nagar, Siwan - BSPCB",11-01-2024 00:00:00,26.2271665,84.3570427,PM10,80,157,111
India,Chandigarh,Chandigarh,"Sector 22, Chandigarh - CPCC",11-01-2024 00:00:00,30.735567,76.775714,NO2,NA,NA,NA
India,Chandigarh,Chandigarh,"Sector 22, Chandigarh - CPCC",11-01-2024 00:00:00,30.735567,76.775714,NH3,3,8,6
India,Chandigarh,Chandigarh,"Sector 22, Chandigarh - CPCC",11-01-2024 00:00:00,30.735567,76.775714,SO2,3,38,14
India,Chandigarh,Chandigarh,"Sector-25, Chandigarh - CPCC",11-01-2024 00:00:00,30.751462,76.762879,PM10,132,190,156
India,Chandigarh,Chandigarh,"Sector-25, Chandigarh - CPCC",11-01-2024 00:00:00,30.751462,76.762879,SO2,7,16,10
India,Chandigarh,Chandigarh,"Sector-25, Chandigarh - CPCC",11-01-2024 00:00:00,30.751462,76.762879,CO,32,45,39
India,Chandigarh,Chandigarh,"Sector-53, Chandigarh - CPCC",11-01-2024 00:00:00,30.719859,76.738637,PM10,115,225,161
India,Chandigarh,Chandigarh,"Sector-53, Chandigarh - CPCC",11-01-2024 00:00:00,30.719859,76.738637,CO,58,86,76
India,Chhattisgarh,Bhilai,"Civic Center, Bhilai - Bhilai Steel Plant",11-01-2024 00:00:00,21.185571,81.343175,PM2.5,5,92,61
India,Chhattisgarh,Bhilai,"Civic Center, Bhilai - Bhilai Steel Plant",11-01-2024 00:00:00,21.185571,81.343175,OZONE,7,60,20
India,Chhattisgarh,Bhilai,"Hathkhoj, Bhilai - CECB",11-01-2024 00:00:00,21.224231,81.408350,NH3,6,8,7
India,Chhattisgarh,Bhilai,"Hathkhoj, Bhilai - CECB",11-01-2024 00:00:00,21.224231,81.408350,CO,27,111,62
India,Chhattisgarh,Bilaspur,"Mangala, Bilaspur - NTPC",11-01-2024 00:00:00,22.08815,82.13737,PM2.5,NA,NA,NA
India,Chhattisgarh,Korba,"Rampur, Korba - CECB",11-01-2024 00:00:00,22.368195,82.746431,CO,37,60,41
India,Chhattisgarh,Korba,"Urja Nagar, Korba - CECB",11-01-2024 00:00:00,22.348441,82.549611,SO2,3,5,4
India,Chhattisgarh,Kunjemura,"OP Jindal School, Kunjemura - CECB",11-01-2024 00:00:00,22.126650,83.483212,NO2,31,100,59
India,Chhattisgarh,Milupara,"Govt. Higher Secondary School, Milupara - CECB",11-01-2024 00:00:00,22.1910172,83.5197009,PM2.5,89,153,116
India,Chhattisgarh,Raipur,"AIIMS, Raipur - CECB",11-01-2024 00:00:00,21.258815,81.578979,PM10,62,180,126
India,Chhattisgarh,Raipur,"Bhatagaon New ISBT, Raipur - CECB",11-01-2024 00:00:00,21.219665,81.630094,PM10,72,192,122
India,Chhattisgarh,Raipur,"Krishak Nagar, Raipur - CECB",11-01-2024 00:00:00,21.237755,81.705301,OZONE,2,7,3
India,Chhattisgarh,Raipur,"Siltara Phase-II, Raipur - CECB",11-01-2024 00:00:00,21.371751,81.664929,PM2.5,48,178,87
India,Chhattisgarh,Tumidih,"OP Jindal Industrial Park, Tumidih - CECB",11-01-2024 00:00:00,22.06631475,83.33820077,PM2.5,81,206,122
India,Chhattisgarh,Tumidih,"OP Jindal Industrial Park, Tumidih - CECB",11-01-2024 00:00:00,22.06631475,83.33820077,NH3,2,3,3
India,Chhattisgarh,Tumidih,"OP Jindal Industrial Park, Tumidih - CECB",11-01-2024 00:00:00,22.06631475,83.33820077,SO2,5,12,7
India,Chhattisgarh,Tumidih,"OP Jindal Industrial Park, Tumidih - CECB",11-01-2024 00:00:00,22.06631475,83.33820077,OZONE,4,93,37
India,Delhi,Delhi,"Alipur, Delhi - DPCC",11-01-2024 00:00:00,28.815329,77.153010,NH3,6,7,7
India,Delhi,Delhi,"Alipur, Delhi - DPCC",11-01-2024 00:00:00,28.815329,77.153010,OZONE,4,34,16
India,Delhi,Delhi,"Anand Vihar, Delhi - DPCC",11-01-2024 00:00:00,28.647622,77.3158090,OZONE,15,20,18
India,Delhi,Delhi,"Ashok Vihar, Delhi - DPCC",11-01-2024 00:00:00,28.695381,77.181665,NO2,28,86,47
India,Delhi,Delhi,"Ashok Vihar, Delhi - DPCC",11-01-2024 00:00:00,28.695381,77.181665,NH3,9,13,11
India,Delhi,Delhi,"Ashok Vihar, Delhi - DPCC",11-01-2024 00:00:00,28.695381,77.181665,SO2,14,18,16
India,Delhi,Delhi,"Bawana, Delhi - DPCC",11-01-2024 00:00:00,28.776200,77.051074,NO2,17,53,29
India,Delhi,Delhi,"Burari Crossing, Delhi - IMD",11-01-2024 00:00:00,28.7256504,77.2011573,PM2.5,179,433,317
India,Delhi,Delhi,"Burari Crossing, Delhi - IMD",11-01-2024 00:00:00,28.7256504,77.2011573,NO2,8,13,10
India,Delhi,Delhi,"Burari Crossing, Delhi - IMD",11-01-2024 00:00:00,28.7256504,77.2011573,CO,101,108,103
India,Delhi,Delhi,"Burari Crossing, Delhi - IMD",11-01-2024 00:00:00,28.7256504,77.2011573,OZONE,23,80,40
India,Delhi,Delhi,"CRRI Mathura Road, Delhi - IMD",11-01-2024 00:00:00,28.5512005,77.2735737,PM10,97,284,175
India,Delhi,Delhi,"DTU, Delhi - CPCB",11-01-2024 00:00:00,28.7500499,77.1112615,OZONE,19,28,21
India,Delhi,Delhi,"Dwarka-Sector 8, Delhi - DPCC ",11-01-2024 00:00:00,28.5710274,77.0719006,PM2.5,280,416,333
India,Delhi,Delhi,"Dwarka-Sector 8, Delhi - DPCC ",11-01-2024 00:00:00,28.5710274,77.0719006,CO,24,104,78
India,Delhi,Delhi,"IGI Airport (T3), Delhi - IMD",11-01-2024 00:00:00,28.5627763,77.1180053,NO2,14,28,21
India,Delhi,Delhi,"IHBAS, Dilshad Garden, Delhi - CPCB",11-01-2024 00:00:00,28.6811736,77.3025234,NH3,1,5,3
India,Delhi,Delhi,"IHBAS, Dilshad Garden, Delhi - CPCB",11-01-2024 00:00:00,28.6811736,77.3025234,CO,14,88,57
India,Delhi,Delhi,"ITO, Delhi - CPCB",11-01-2024 00:00:00,28.628624,77.241060,NO2,12,29,20
India,Delhi,Delhi,"Jahangirpuri, Delhi - DPCC",11-01-2024 00:00:00,28.732820,77.170633,OZONE,8,25,13
India,Delhi,Delhi,"Jawaharlal Nehru Stadium, Delhi - DPCC",11-01-2024 00:00:00,28.580280,77.233829,PM10,125,354,200
India,Delhi,Delhi,"Jawaharlal Nehru Stadium, Delhi - DPCC",11-01-2024 00:00:00,28.580280,77.233829,NO2,37,92,58
India,Delhi,Delhi,"Jawaharlal Nehru Stadium, Delhi - DPCC",11-01-2024 00:00:00,28.580280,77.233829,OZONE,6,28,18
India,Delhi,Delhi,"Lodhi Road, Delhi - IITM",11-01-2024 00:00:00,28.588333,77.221667,PM2.5,NA,NA,NA
India,Delhi,Delhi,"Lodhi Road, Delhi - IITM",11-01-2024 00:00:00,28.588333,77.221667,SO2,NA,NA,NA
India,Delhi,Delhi,"Lodhi Road, Delhi - IITM",11-01-2024 00:00:00,28.588333,77.221667,CO,66,69,68
India,Delhi,Delhi,"Lodhi Road, Delhi - IMD",11-01-2024 00:00:00,28.5918245,77.2273074,PM2.5,141,351,263
India,Delhi,Delhi,"Lodhi Road, Delhi - IMD",11-01-2024 00:00:00,28.5918245,77.2273074,CO,60,100,82
India,Delhi,Delhi,"Major Dhyan Chand National Stadium, Delhi - DPCC",11-01-2024 00:00:00,28.611281,77.237738,PM2.5,252,375,332
India,Delhi,Delhi,"Major Dhyan Chand National Stadium, Delhi - DPCC",11-01-2024 00:00:00,28.611281,77.237738,OZONE,4,26,13
India,Delhi,Delhi,"Mundka, Delhi - DPCC",11-01-2024 00:00:00,28.684678,77.076574,PM2.5,284,462,351
India,Delhi,Delhi,"NSIT Dwarka, Delhi - CPCB",11-01-2024 00:00:00,28.60909,77.0325413,SO2,6,15,10
India,Delhi,Delhi,"NSIT Dwarka, Delhi - CPCB",11-01-2024 00:00:00,28.60909,77.0325413,CO,18,89,44
India,Delhi,Delhi,"NSIT Dwarka, Delhi - CPCB",11-01-2024 00:00:00,28.60909,77.0325413,OZONE,13,40,24
India,Delhi,Delhi,"Najafgarh, Delhi - DPCC",11-01-2024 00:00:00,28.570173,76.933762,NH3,6,9,8
India,Delhi,Delhi,"Narela, Delhi - DPCC",11-01-2024 00:00:00,28.822836,77.101981,OZONE,6,44,19
India,Delhi,Delhi,"Nehru Nagar, Delhi - DPCC",11-01-2024 00:00:00,28.567890,77.250515,PM10,139,422,263
India,Delhi,Delhi,"Nehru Nagar, Delhi - DPCC",11-01-2024 00:00:00,28.567890,77.250515,NO2,42,73,54
India,Delhi,Delhi,"North Campus, DU, Delhi - IMD",11-01-2024 00:00:00,28.6573814,77.1585447,NO2,20,78,41
India,Delhi,Delhi,"Patparganj, Delhi - DPCC",11-01-2024 00:00:00,28.623763,77.287209,PM10,168,426,262
India,Delhi,Delhi,"Punjabi Bagh, Delhi - DPCC",11-01-2024 00:00:00,28.674045,77.131023,SO2,1,6,3
India,Delhi,Delhi,"Pusa, Delhi - DPCC",11-01-2024 00:00:00,28.639652,77.146275,CO,17,121,94
India,Delhi,Delhi,"Pusa, Delhi - DPCC",11-01-2024 00:00:00,28.639652,77.146275,OZONE,10,24,21
India,Delhi,Delhi,"Pusa, Delhi - IMD",11-01-2024 00:00:00,28.636110,77.173332,PM10,101,243,164
India,Delhi,Delhi,"R K Puram, Delhi - DPCC",11-01-2024 00:00:00,28.563262,77.186937,PM10,141,372,238
India,Delhi,Delhi,"R K Puram, Delhi - DPCC",11-01-2024 00:00:00,28.563262,77.186937,CO,28,109,83
India,Delhi,Delhi,"Shadipur, Delhi - CPCB",11-01-2024 00:00:00,28.6514781,77.1473105,PM2.5,282,416,337
India,Delhi,Delhi,"Shadipur, Delhi - CPCB",11-01-2024 00:00:00,28.6514781,77.1473105,PM10,142,407,260
India,Delhi,Delhi,"Sirifort, Delhi - CPCB",11-01-2024 00:00:00,28.5504249,77.2159377,NO2,132,169,148
India,Delhi,Delhi,"Sirifort, Delhi - CPCB",11-01-2024 00:00:00,28.5504249,77.2159377,NH3,6,9,8
India,Delhi,Delhi,"Sirifort, Delhi - CPCB",11-01-2024 00:00:00,28.5504249,77.2159377,SO2,25,27,26
India,Delhi,Delhi,"Sirifort, Delhi - CPCB",11-01-2024 00:00:00,28.5504249,77.2159377,OZONE,11,25,20
India,Delhi,Delhi,"Sri Aurobindo Marg, Delhi - DPCC",11-01-2024 00:00:00,28.531346,77.190156,PM10,131,338,219
India,Delhi,Delhi,"Vivek Vihar, Delhi - DPCC",11-01-2024 00:00:00,28.672342,77.315260,NO2,33,88,56
India,Delhi,Delhi,"Wazirpur, Delhi - DPCC",11-01-2024 00:00:00,28.699793,77.165453,SO2,8,24,16
India,Delhi,Delhi,"Wazirpur, Delhi - DPCC",11-01-2024 00:00:00,28.699793,77.165453,CO,42,102,80
India,Gujarat,Ahmedabad,"Chandkheda, Ahmedabad - IITM",11-01-2024 00:00:00,23.107969,72.574648,PM10,50,130,100
India,Gujarat,Ahmedabad,"Chandkheda, Ahmedabad - IITM",11-01-2024 00:00:00,23.107969,72.574648,SO2,4,6,4
India,Gujarat,Ahmedabad,"Maninagar, Ahmedabad - GPCB",11-01-2024 00:00:00,23.002657,72.591912,PM2.5,79,169,102
India,Gujarat,Ahmedabad,"Maninagar, Ahmedabad - GPCB",11-01-2024 00:00:00,23.002657,72.591912,PM10,104,145,119
India,Gujarat,Ahmedabad,"Maninagar, Ahmedabad - GPCB",11-01-2024 00:00:00,23.002657,72.591912,NO2,11,90,31
India,Gujarat,Ahmedabad,"Rakhial, Ahmedabad - IITM",11-01-2024 00:00:00,23.016834,72.625775,PM2.5,69,346,158
India,Gujarat,Ahmedabad,"Rakhial, Ahmedabad - IITM",11-01-2024 00:00:00,23.016834,72.625775,SO2,2,4,3
India,Gujarat,Ahmedabad,"SAC ISRO Bopal, Ahmedabad - IITM",11-01-2024 00:00:00,23.041137,72.456691,PM10,93,194,118
India,Gujarat,Ahmedabad,"SAC ISRO Bopal, Ahmedabad - IITM",11-01-2024 00:00:00,23.041137,72.456691,SO2,6,9,8
India,Gujarat,Ahmedabad,"SAC ISRO Satellite, Ahmedabad - IITM",11-01-2024 00:00:00,23.023389,72.515201,CO,15,92,21
India,Gujarat,Ahmedabad,"SVPI Airport Hansol, Ahmedabad - IITM",11-01-2024 00:00:00,23.076793,72.627874,PM2.5,65,163,100
India,Gujarat,Gandhinagar,"GIFT City, Gandhinagar - IITM",11-01-2024 00:00:00,23.163798,72.677768,PM10,50,108,83
India,Gujarat,Gandhinagar,"GIFT City, Gandhinagar - IITM",11-01-2024 00:00:00,23.163798,72.677768,OZONE,2,29,16
India,Gujarat,Gandhinagar,"IIPHG Lekawada, Gandhinagar - IITM",11-01-2024 00:00:00,23.243639,72.68994,OZONE,16,27,26
India,Gujarat,Gandhinagar,"Sector-10, Gandhinagar - GPCB",11-01-2024 00:00:00,23.221714,72.654328,PM10,NA,NA,NA
India,Gujarat,Gandhinagar,"Sector-10, Gandhinagar - GPCB",11-01-2024 00:00:00,23.221714,72.654328,NO2,6,29,13
India,Gujarat,Vapi,"Phase-1 GIDC, Vapi - GPCB",11-01-2024 00:00:00,20.362421,72.918013,SO2,47,51,49
India,Gujarat,Vapi,"Phase-1 GIDC, Vapi - GPCB",11-01-2024 00:00:00,20.362421,72.918013,OZONE,1,4,2
India,Haryana,Ambala,"Patti Mehar, Ambala - HSPCB",11-01-2024 00:00:00,30.379589,76.778328,PM2.5,66,194,112
India,Haryana,Ambala,"Patti Mehar, Ambala - HSPCB",11-01-2024 00:00:00,30.379589,76.778328,PM10,68,118,98
India,Haryana,Ambala,"Patti Mehar, Ambala - HSPCB",11-01-2024 00:00:00,30.379589,76.778328,NO2,2,5,4
India,Haryana,Ambala,"Patti Mehar, Ambala - HSPCB",11-01-2024 00:00:00,30.379589,76.778328,NH3,4,4,2
India,Haryana,Bahadurgarh,"Arya Nagar, Bahadurgarh - HSPCB",11-01-2024 00:00:00,28.6701,76.9254,PM10,103,182,137
India,Haryana,Bahadurgarh,"Arya Nagar, Bahadurgarh - HSPCB",11-01-2024 00:00:00,28.6701,76.9254,NH3,11,12,12
India,Haryana,Ballabgarh,"Nathu Colony, Ballabgarh - HSPCB",11-01-2024 00:00:00,28.3419248,77.319699,NO2,1,13,12
India,Haryana,Bhiwani,"H.B. Colony, Bhiwani - HSPCB",11-01-2024 00:00:00,28.806223,76.141105,NH3,5,6,6
India,Haryana,Bhiwani,"H.B. Colony, Bhiwani - HSPCB",11-01-2024 00:00:00,28.806223,76.141105,SO2,2,23,13
India,Haryana,Bhiwani,"H.B. Colony, Bhiwani - HSPCB",11-01-2024 00:00:00,28.806223,76.141105,CO,9,100,21
India,Haryana,Charkhi Dadri,"Mini Secretariat, Charkhi Dadri - HSPCB",11-01-2024 00:00:00,28.593883,76.270653,PM2.5,85,314,199
India,Haryana,Charkhi Dadri,"Mini Secretariat, Charkhi Dadri - HSPCB",11-01-2024 00:00:00,28.593883,76.270653,NO2,8,17,10
India,Haryana,Charkhi Dadri,"Mini Secretariat, Charkhi Dadri - HSPCB",11-01-2024 00:00:00,28.593883,76.270653,NH3,5,7,5
India,Haryana,Dharuhera,"Municipal Corporation Office, Dharuhera -  HSPCB",11-01-2024 00:00:00,28.206800,76.799700,PM10,152,296,192
India,Haryana,Dharuhera,"Municipal Corporation Office, Dharuhera -  HSPCB",11-01-2024 00:00:00,28.206800,76.799700,NO2,46,113,68
India,Haryana,Dharuhera,"Municipal Corporation Office, Dharuhera -  HSPCB",11-01-2024 00:00:00,28.206800,76.799700,SO2,9,55,21
India,Haryana,Dharuhera,"Municipal Corporation Office, Dharuhera -  HSPCB",11-01-2024 00:00:00,28.206800,76.799700,CO,24,67,47
India,Haryana,Dharuhera,"Municipal Corporation Office, Dharuhera -  HSPCB",11-01-2024 00:00:00,28.206800,76.799700,OZONE,1,41,18
India,Haryana,Faridabad,"New Industrial Town, Faridabad - HSPCB",11-01-2024 00:00:00,28.39072,77.30059,PM10,145,271,193
India,Haryana,Faridabad,"Sector- 16A, Faridabad - HSPCB",11-01-2024 00:00:00,28.4088421,77.3099081,PM2.5,142,366,264
India,Haryana,Faridabad,"Sector- 16A, Faridabad - HSPCB",11-01-2024 00:00:00,28.4088421,77.3099081,OZONE,14,14,14
India,Haryana,Fatehabad,"Huda Sector, Fatehabad - HSPCB",11-01-2024 00:00:00,29.503664,75.467934,SO2,4,12,7
India,Haryana,Gurugram,"Sector-51, Gurugram - HSPCB",11-01-2024 00:00:00,28.4227,77.0667,PM10,71,170,124
India,Haryana,Gurugram,"Sector-51, Gurugram - HSPCB",11-01-2024 00:00:00,28.4227,77.0667,NH3,6,14,9
India,Haryana,Gurugram,"Sector-51, Gurugram - HSPCB",11-01-2024 00:00:00,28.4227,77.0667,CO,47,101,78
India,Haryana,Gurugram,"Teri Gram, Gurugram - HSPCB",11-01-2024 00:00:00,28.4275,77.1465,NO2,27,44,34
India,Haryana,Gurugram,"Teri Gram, Gurugram - HSPCB",11-01-2024 00:00:00,28.4275,77.1465,OZONE,8,11,10
India,Haryana,Gurugram,"Vikas Sadan, Gurugram - HSPCB",11-01-2024 00:00:00,28.4501238,77.0263051,OZONE,8,69,35
India,Haryana,Jind,"Police Lines, Jind - HSPCB",11-01-2024 00:00:00,29.307814,76.337619,PM10,88,252,141
India,Haryana,Kaithal,"Rishi Nagar, Kaithal - HSPCB",11-01-2024 00:00:00,29.8006,76.4155,PM10,43,98,69
India,Haryana,Karnal,"Sector-12, Karnal - HSPCB",11-01-2024 00:00:00,29.695300,77.002700,SO2,NA,NA,NA
India,Haryana,Mandikhera,"General Hospital, Mandikhera - HSPCB",11-01-2024 00:00:00,27.9002,76.9938,CO,NA,NA,NA
India,Haryana,Manesar,"Sector-2 IMT, Manesar - HSPCB",11-01-2024 00:00:00,28.360699,76.936090,NH3,1,5,2
India,Haryana,Manesar,"Sector-2 IMT, Manesar - HSPCB",11-01-2024 00:00:00,28.360699,76.936090,OZONE,6,21,13
India,Haryana,Palwal,"Shyam Nagar, Palwal - HSPCB",11-01-2024 00:00:00,28.1485564,77.3320667,PM2.5,39,54,45
India,Haryana,Palwal,"Shyam Nagar, Palwal - HSPCB",11-01-2024 00:00:00,28.1485564,77.3320667,PM10,58,115,93
India,Haryana,Palwal,"Shyam Nagar, Palwal - HSPCB",11-01-2024 00:00:00,28.1485564,77.3320667,NO2,3,6,5
India,Haryana,Palwal,"Shyam Nagar, Palwal - HSPCB",11-01-2024 00:00:00,28.1485564,77.3320667,SO2,4,20,13
India,Haryana,Panchkula,"Sector-6, Panchkula - HSPCB ",11-01-2024 00:00:00,30.7057778,76.8531805555555,PM2.5,61,257,121
India,Haryana,Panchkula,"Sector-6, Panchkula - HSPCB ",11-01-2024 00:00:00,30.7057778,76.8531805555555,NO2,28,30,29
India,Haryana,Panipat,"Sector-18, Panipat - HSPCB",11-01-2024 00:00:00,29.497973,76.993331,PM10,NA,NA,NA
India,Haryana,Rohtak,"MD University, Rohtak - HSPCB",11-01-2024 00:00:00,28.52123,76.37138,CO,22,51,29
India,Haryana,Sirsa,"F-Block, Sirsa - HSPCB",11-01-2024 00:00:00,29.536400,75.015800,NO2,10,14,10
India,Haryana,Sirsa,"F-Block, Sirsa - HSPCB",11-01-2024 00:00:00,29.536400,75.015800,SO2,5,15,9
India,Haryana,Sirsa,"F-Block, Sirsa - HSPCB",11-01-2024 00:00:00,29.536400,75.015800,CO,22,76,46
India,Haryana,Sonipat,"Murthal, Sonipat - HSPCB",11-01-2024 00:00:00,29.027200,77.062100,PM2.5,87,319,140
India,Haryana,Sonipat,"Murthal, Sonipat - HSPCB",11-01-2024 00:00:00,29.027200,77.062100,CO,18,34,26
India,Haryana,Yamuna Nagar,"Gobind Pura, Yamuna Nagar - HSPCB",11-01-2024 00:00:00,30.1480566,77.2893471,PM2.5,65,217,97
India,Himachal Pradesh,Baddi,"HIMUDA Complex Phase-1, Baddi - HPPCB",11-01-2024 00:00:00,30.943887,76.801991,PM10,117,194,141
India,Himachal Pradesh,Baddi,"HIMUDA Complex Phase-1, Baddi - HPPCB",11-01-2024 00:00:00,30.943887,76.801991,SO2,18,62,29
India,Himachal Pradesh,Baddi,"HIMUDA Complex Phase-1, Baddi - HPPCB",11-01-2024 00:00:00,30.943887,76.801991,OZONE,12,42,24
India,Jharkhand,Dhanbad,"Kalakusuma, Dhanbad - DMC",11-01-2024 00:00:00,23.811548,86.481238,NO2,32,34,33
India,Jharkhand,Dhanbad,"Sardar Patel Nagar, Dhanbad - JSPCB",11-01-2024 00:00:00,23.80569,86.44268,NO2,200,411,288
India,Jharkhand,Dhanbad,"Sardar Patel Nagar, Dhanbad - JSPCB",11-01-2024 00:00:00,23.80569,86.44268,OZONE,12,14,13
India,Jharkhand,Pathardih,"Mohalbani Ghat, Pathardih - DMC",11-01-2024 00:00:00,23.669880,86.411725,CO,145,174,162
India,Jharkhand,Pathardih,"Mohalbani Ghat, Pathardih - DMC",11-01-2024 00:00:00,23.669880,86.411725,OZONE,16,18,17
India,Karnataka,Bengaluru,"BTM Layout, Bengaluru - CPCB",11-01-2024 00:00:00,12.9135218,77.5950804,NH3,2,3,3
India,Karnataka,Bengaluru,"BTM Layout, Bengaluru - CPCB",11-01-2024 00:00:00,12.9135218,77.5950804,OZONE,15,44,25
India,Karnataka,Bengaluru,"Hebbal, Bengaluru - KSPCB",11-01-2024 00:00:00,13.029152,77.585901,OZONE,7,8,7
India,Karnataka,Bengaluru,"Hombegowda Nagar, Bengaluru - KSPCB",11-01-2024 00:00:00,12.938539,77.590100,OZONE,4,6,5
India,Karnataka,Bengaluru,"Jayanagar 5th Block, Bengaluru - KSPCB",11-01-2024 00:00:00,12.920984,77.584908,OZONE,18,19,18
India,Karnataka,Bengaluru,"Jigani, Bengaluru - KSPCB",11-01-2024 00:00:00,12.7816279,77.6299145,PM2.5,31,99,58
India,Karnataka,Bengaluru,"Jigani, Bengaluru - KSPCB",11-01-2024 00:00:00,12.7816279,77.6299145,OZONE,26,63,46
India,Karnataka,Bengaluru,"Kasturi Nagar, Bengaluru - KSPCB",11-01-2024 00:00:00,13.003872,77.664217,PM10,65,124,112
India,Karnataka,Bengaluru,"Kasturi Nagar, Bengaluru - KSPCB",11-01-2024 00:00:00,13.003872,77.664217,NO2,16,17,17
India,Karnataka,Bengaluru,"Kasturi Nagar, Bengaluru - KSPCB",11-01-2024 00:00:00,13.003872,77.664217,NH3,4,4,4
India,Karnataka,Bengaluru,"Kasturi Nagar, Bengaluru - KSPCB",11-01-2024 00:00:00,13.003872,77.664217,OZONE,51,81,73
India,Karnataka,Bengaluru,"Peenya, Bengaluru - CPCB",11-01-2024 00:00:00,13.0270199,77.494094,NO2,21,27,24
India,Karnataka,Bengaluru,"Peenya, Bengaluru - CPCB",11-01-2024 00:00:00,13.0270199,77.494094,OZONE,17,44,43
India,Karnataka,Bengaluru,"RVCE-Mailasandra, Bengaluru - KSPCB",11-01-2024 00:00:00,12.921418,77.502466,PM10,101,125,113
India,Karnataka,Bengaluru,"RVCE-Mailasandra, Bengaluru - KSPCB",11-01-2024 00:00:00,12.921418,77.502466,SO2,4,5,4
India,Karnataka,Bengaluru,"RVCE-Mailasandra, Bengaluru - KSPCB",11-01-2024 00:00:00,12.921418,77.502466,CO,44,57,54
India,Karnataka,Bengaluru,"Shivapura_Peenya, Bengaluru - KSPCB",11-01-2024 00:00:00,13.0246342,77.5080115,NO2,15,16,15
India,Karnataka,Bidar,"Naubad, Bidar - KSPCB",11-01-2024 00:00:00,17.930306,77.482194,PM2.5,96,301,210
India,Karnataka,Bidar,"Naubad, Bidar - KSPCB",11-01-2024 00:00:00,17.930306,77.482194,NH3,2,3,3
India,Karnataka,Bidar,"Naubad, Bidar - KSPCB",11-01-2024 00:00:00,17.930306,77.482194,CO,38,78,60
India,Karnataka,Chikkamagaluru,"Kalyana Nagara, Chikkamagaluru - KSPCB",11-01-2024 00:00:00,13.328028,75.797056,PM2.5,21,60,33
India,Karnataka,Chikkamagaluru,"Kalyana Nagara, Chikkamagaluru - KSPCB",11-01-2024 00:00:00,13.328028,75.797056,NO2,19,43,28
India,Karnataka,Chikkamagaluru,"Kalyana Nagara, Chikkamagaluru - KSPCB",11-01-2024 00:00:00,13.328028,75.797056,NH3,3,6,4
India,Karnataka,Chikkamagaluru,"Kalyana Nagara, Chikkamagaluru - KSPCB",11-01-2024 00:00:00,13.328028,75.797056,SO2,2,4,3
India,Karnataka,Davanagere,"Devaraj Urs Badavane, Davanagere - KSPCB",11-01-2024 00:00:00,14.475800,75.905200,PM10,48,96,71
India,Karnataka,Davanagere,"Devaraj Urs Badavane, Davanagere - KSPCB",11-01-2024 00:00:00,14.475800,75.905200,CO,8,18,16
India,Karnataka,Hassan,"B.Katihalli, Hassan - KSPCB",11-01-2024 00:00:00,13.008556,76.125258,NO2,NA,NA,NA
India,Karnataka,Hubballi,"Deshpande Nagar, Hubballi - KSPCB",11-01-2024 00:00:00,15.351773,75.140726,NO2,22,26,24
India,Karnataka,Kalaburagi,"Lal Bahadur Shastri Nagar, Kalaburagi - KSPCB",11-01-2024 00:00:00,17.321993,76.822628,CO,34,74,47
India,Karnataka,Kalaburagi,"Mahatma Basaveswar Colony, Kalaburgi - KSPCB",11-01-2024 00:00:00,17.336318,76.847397,PM2.5,17,69,28
India,Karnataka,Kalaburagi,"Mahatma Basaveswar Colony, Kalaburgi - KSPCB",11-01-2024 00:00:00,17.336318,76.847397,NH3,2,4,3
India,Karnataka,Kalaburagi,"Mahatma Basaveswar Colony, Kalaburgi - KSPCB",11-01-2024 00:00:00,17.336318,76.847397,SO2,2,6,4
India,Karnataka,Kolar,"Tamaka Ind. Area, Kolar - KSPCB",11-01-2024 00:00:00,13.1276288,78.1570122,PM10,58,155,91
India,Karnataka,Kolar,"Tamaka Ind. Area, Kolar - KSPCB",11-01-2024 00:00:00,13.1276288,78.1570122,NH3,4,6,5
India,Karnataka,Kolar,"Tamaka Ind. Area, Kolar - KSPCB",11-01-2024 00:00:00,13.1276288,78.1570122,OZONE,17,24,21
India,Karnataka,Mangalore,"Kadri, Mangalore - KSPCB",11-01-2024 00:00:00,12.889250,74.853000,PM10,20,145,70
India,Karnataka,Mysuru,"Hebbal 1st Stage, Mysuru - KSPCB",11-01-2024 00:00:00,12.21041,76.37376,SO2,1,6,2
India,Karnataka,Ramanagara,"Vijay Nagar, Ramanagara - KSPCB",11-01-2024 00:00:00,12.733409,77.298051,PM2.5,39,78,53
India,Karnataka,Shivamogga,"Vinoba Nagara, Shivamogga - KSPCB",11-01-2024 00:00:00,13.940000,75.555917,NH3,7,52,25
India,Karnataka,Shivamogga,"Vinoba Nagara, Shivamogga - KSPCB",11-01-2024 00:00:00,13.940000,75.555917,SO2,4,11,7
India,Karnataka,Shivamogga,"Vinoba Nagara, Shivamogga - KSPCB",11-01-2024 00:00:00,13.940000,75.555917,OZONE,19,55,46
India,Karnataka,Tumakuru,"Thimmalapura, Tumakuru - KSPCB",11-01-2024 00:00:00,13.377516,77.099072,SO2,8,14,10
India,Karnataka,Udupi,"Brahmagiri, Udupi - KSPCB",11-01-2024 00:00:00,13.34194444,74.74694444,PM10,NA,NA,NA
India,Karnataka,Udupi,"Brahmagiri, Udupi - KSPCB",11-01-2024 00:00:00,13.34194444,74.74694444,SO2,NA,NA,NA
India,Karnataka,Udupi,"Brahmagiri, Udupi - KSPCB",11-01-2024 00:00:00,13.34194444,74.74694444,CO,26,38,31
India,Karnataka,Vijayapura,"Ibrahimpur, Vijayapura - KSPCB",11-01-2024 00:00:00,16.802639,75.722694,NO2,17,19,19
India,Karnataka,Yadgir,"Collector Office, Yadgir - KSPCB",11-01-2024 00:00:00,16.7602,77.1428,PM10,52,132,81
India,Karnataka,Yadgir,"Collector Office, Yadgir - KSPCB",11-01-2024 00:00:00,16.7602,77.1428,NO2,5,8,6
India,Kerala,Eloor,"Udyogamandal, Eloor - Kerala PCB",11-01-2024 00:00:00,10.073232,76.302765,PM2.5,7,84,40
India,Kerala,Kollam,"Polayathode, Kollam - Kerala PCB",11-01-2024 00:00:00,8.8787,76.6073,SO2,1,4,2
India,Kerala,Kollam,"Polayathode, Kollam - Kerala PCB",11-01-2024 00:00:00,8.8787,76.6073,CO,6,27,18
India,Kerala,Thiruvananthapuram,"Kariavattom, Thiruvananthapuram - Kerala PCB",11-01-2024 00:00:00,8.563700,76.886500,CO,8,68,24
India,Kerala,Thiruvananthapuram,"Plammoodu, Thiruvananthapuram - Kerala PCB",11-01-2024 00:00:00,8.5149093,76.9435879,CO,19,66,44
India,Kerala,Thrissur,"Corporation Ground, Thrissur - Kerala PCB",11-01-2024 00:00:00,10.532400,76.215900,OZONE,23,29,27
India,Madhya Pradesh,Bhopal,"Paryavaran Parisar, Bhopal - MPPCB",11-01-2024 00:00:00,23.210494,77.425409,NO2,23,52,37
India,Madhya Pradesh,Bhopal,"Paryavaran Parisar, Bhopal - MPPCB",11-01-2024 00:00:00,23.210494,77.425409,NH3,8,10,9
India,Madhya Pradesh,Bhopal,"Paryavaran Parisar, Bhopal - MPPCB",11-01-2024 00:00:00,23.210494,77.425409,OZONE,20,40,26
India,Madhya Pradesh,Bhopal,"T T Nagar, Bhopal - MPPCB",11-01-2024 00:00:00,23.233584,77.400574,PM2.5,73,282,196
India,Madhya Pradesh,Bhopal,"T T Nagar, Bhopal - MPPCB",11-01-2024 00:00:00,23.233584,77.400574,SO2,4,40,28
India,Madhya Pradesh,Bhopal,"T T Nagar, Bhopal - MPPCB",11-01-2024 00:00:00,23.233584,77.400574,OZONE,24,57,33
India,Madhya Pradesh,Damoh,"Shrivastav Colony, Damoh - MPPCB",11-01-2024 00:00:00,23.81748678,79.446246,CO,23,24,23
India,Madhya Pradesh,Gwalior,"City Center, Gwalior - MPPCB",11-01-2024 00:00:00,26.203442,78.193251,CO,1,134,74
India,Madhya Pradesh,Gwalior,"City Center, Gwalior - MPPCB",11-01-2024 00:00:00,26.203442,78.193251,OZONE,16,19,18
India,Madhya Pradesh,Gwalior,"Deen Dayal Nagar, Gwalior - MPPCB",11-01-2024 00:00:00,26.259242,78.216432,SO2,13,22,16
India,Madhya Pradesh,Gwalior,"Phool Bagh, Gwalior - Mondelez Ind. Food",11-01-2024 00:00:00,26.210536,78.171,PM2.5,6,344,148
India,Madhya Pradesh,Gwalior,"Phool Bagh, Gwalior - Mondelez Ind. Food",11-01-2024 00:00:00,26.210536,78.171,SO2,9,18,11
India,Madhya Pradesh,Gwalior,"Phool Bagh, Gwalior - Mondelez Ind. Food",11-01-2024 00:00:00,26.210536,78.171,CO,28,57,42
India,Madhya Pradesh,Indore,"Chhoti Gwaltoli, Indore - MPPCB",11-01-2024 00:00:00,22.4310,75.5213,PM10,119,165,145
India,Madhya Pradesh,Indore,"Chhoti Gwaltoli, Indore - MPPCB",11-01-2024 00:00:00,22.4310,75.5213,NO2,40,66,52
India,Madhya Pradesh,Indore,"Chhoti Gwaltoli, Indore - MPPCB",11-01-2024 00:00:00,22.4310,75.5213,CO,40,91,83
India,Madhya Pradesh,Indore,"Maguda Nagar, Indore - IMC",11-01-2024 00:00:00,22.7524,75.8872,SO2,31,102,64
India,Madhya Pradesh,Indore,"Regional Park, Indore - IMC",11-01-2024 00:00:00,22.6780,75.8559,PM2.5,71,131,94
India,Madhya Pradesh,Indore,"Regional Park, Indore - IMC",11-01-2024 00:00:00,22.6780,75.8559,NO2,5,7,6
India,Madhya Pradesh,Indore,"Regional Park, Indore - IMC",11-01-2024 00:00:00,22.6780,75.8559,CO,21,30,28
India,Madhya Pradesh,Indore,"Regional Park, Indore - IMC",11-01-2024 00:00:00,22.6780,75.8559,OZONE,5,11,7
India,Madhya Pradesh,Indore,"Residency Area, Indore - IMC",11-01-2024 00:00:00,22.7084,75.8815,NH3,NA,NA,NA
India,Madhya Pradesh,Jabalpur,"Govindh Bhavan Colony, Jabalpur - JMC",11-01-2024 00:00:00,23.163174,79.973061,PM2.5,93,302,160
India,Madhya Pradesh,Jabalpur,"Gupteshwar, Jabalpur - JMC",11-01-2024 00:00:00,23.142888,79.916147,PM2.5,62,117,87
India,Madhya Pradesh,Jabalpur,"Gupteshwar, Jabalpur - JMC",11-01-2024 00:00:00,23.142888,79.916147,SO2,4,7,5
India,Madhya Pradesh,Jabalpur,"Suhagi, Jabalpur - JMC",11-01-2024 00:00:00,23.218135,79.957770,PM10,96,169,133
India,Madhya Pradesh,Katni,"Gole Bazar, Katni - MPPCB",11-01-2024 00:00:00,23.50016,80.23284,PM10,81,158,112
India,Madhya Pradesh,Katni,"Gole Bazar, Katni - MPPCB",11-01-2024 00:00:00,23.50016,80.23284,OZONE,8,47,37
India,Madhya Pradesh,Maihar,"Sahilara, Maihar - KJS Cements",11-01-2024 00:00:00,24.2613009,80.7231783,SO2,12,13,13
India,Madhya Pradesh,Mandideep,"Sector-D Industrial Area, Mandideep - MPPCB",11-01-2024 00:00:00,23.108440,77.511428,PM2.5,62,123,92
India,Madhya Pradesh,Mandideep,"Sector-D Industrial Area, Mandideep - MPPCB",11-01-2024 00:00:00,23.108440,77.511428,CO,41,92,57
India,Madhya Pradesh,Mandideep,"Sector-D Industrial Area, Mandideep - MPPCB",11-01-2024 00:00:00,23.108440,77.511428,OZONE,18,30,26
India,Madhya Pradesh,Sagar,"Civil Lines, Sagar - MPPCB",11-01-2024 00:00:00,23.838586,78.759431,PM10,93,247,134
India,Madhya Pradesh,Sagar,"Civil Lines, Sagar - MPPCB",11-01-2024 00:00:00,23.838586,78.759431,NH3,8,12,10
India,Madhya Pradesh,Sagar,"Civil Lines, Sagar - MPPCB",11-01-2024 00:00:00,23.838586,78.759431,CO,40,103,80
India,Madhya Pradesh,Satna,"Bandhavgar Colony, Satna - Birla Cement",11-01-2024 00:00:00,24.58434363,80.8549414,PM10,16,82,49
India,Madhya Pradesh,Satna,"Bandhavgar Colony, Satna - Birla Cement",11-01-2024 00:00:00,24.58434363,80.8549414,CO,24,66,50
India,Madhya Pradesh,Singrauli,"Suryakiran Bhawan NCL, Singrauli - MPPCB",11-01-2024 00:00:00,24.108970,82.645580,PM2.5,54,226,117
India,Madhya Pradesh,Singrauli,"Suryakiran Bhawan NCL, Singrauli - MPPCB",11-01-2024 00:00:00,24.108970,82.645580,OZONE,17,71,59
India,Madhya Pradesh,Ujjain,"Mahakaleshwar Temple, Ujjain - MPPCB",11-01-2024 00:00:00,23.182719 ,75.768218 ,NO2,10,20,16
India,Madhya Pradesh,Ujjain,"Mahakaleshwar Temple, Ujjain - MPPCB",11-01-2024 00:00:00,23.182719 ,75.768218 ,CO,46,76,64
India,Maharashtra,Ahmednagar,"Tarakpur, Ahmednagar - MPCB",11-01-2024 00:00:00,19.10122,74.73339,SO2,18,24,20
India,Maharashtra,Akola,"Ramdaspeth, Akola - MPCB",11-01-2024 00:00:00,20.719516,77.000253,PM10,88,209,140
India,Maharashtra,Akola,"Ramdaspeth, Akola - MPCB",11-01-2024 00:00:00,20.719516,77.000253,NH3,3,10,5
India,Maharashtra,Amravati,"Shri Shivaji Science College, Amaravati - MPCB",11-01-2024 00:00:00,20.939198,77.765701,PM2.5,61,144,98
India,Maharashtra,Aurangabad,"MIDC Chilkalthana, Aurangabad - MPCB",11-01-2024 00:00:00,19.875620,75.387310,NO2,19,60,33
India,Maharashtra,Aurangabad,"Rachnakar Colony, Aurangabad - MPCB",11-01-2024 00:00:00,19.863756,75.321188,PM10,62,152,103
India,Maharashtra,Aurangabad,"Rachnakar Colony, Aurangabad - MPCB",11-01-2024 00:00:00,19.863756,75.321188,OZONE,8,93,52
India,Maharashtra,Badlapur,"Katrap, Badlapur - MPCB",11-01-2024 00:00:00,19.16485,73.23409,NH3,1,4,2
India,Maharashtra,Badlapur,"Katrap, Badlapur - MPCB",11-01-2024 00:00:00,19.16485,73.23409,CO,12,84,36
India,Maharashtra,Belapur,"CBD Belapur, Belapur - MPCB",11-01-2024 00:00:00,19.0243902,73.0406721,PM10,46,131,75
India,Maharashtra,Belapur,"CBD Belapur, Belapur - MPCB",11-01-2024 00:00:00,19.0243902,73.0406721,CO,14,84,44
India,Maharashtra,Bhiwandi,"Gokul Nagar, Bhiwandi - MPCB",11-01-2024 00:00:00,19.309073,73.057223,PM2.5,44,245,85
India,Maharashtra,Bhiwandi,"Gokul Nagar, Bhiwandi - MPCB",11-01-2024 00:00:00,19.309073,73.057223,PM10,86,180,120
India,Maharashtra,Bhiwandi,"Gokul Nagar, Bhiwandi - MPCB",11-01-2024 00:00:00,19.309073,73.057223,NH3,1,2,1
India,Maharashtra,Bhiwandi,"Gokul Nagar, Bhiwandi - MPCB",11-01-2024 00:00:00,19.309073,73.057223,SO2,4,11,7
India,Maharashtra,Boisar,"Khaira, Boisar - MPCB",11-01-2024 00:00:00,19.786089,72.757971,PM2.5,NA,NA,NA
India,Maharashtra,Boisar,"Khaira, Boisar - MPCB",11-01-2024 00:00:00,19.786089,72.757971,PM10,NA,NA,NA
India,Maharashtra,Chandrapur,"Chauhan Colony, Chandrapur - MPCB",11-01-2024 00:00:00,19.962900,79.298714,PM2.5,92,268,151
India,Maharashtra,Chandrapur,"Chauhan Colony, Chandrapur - MPCB",11-01-2024 00:00:00,19.962900,79.298714,CO,12,146,100
India,Maharashtra,Dhule,"Deopur, Dhule - MPCB",11-01-2024 00:00:00,20.918946,74.776388,NO2,10,26,14
India,Maharashtra,Jalgaon,"Prabhat Colony, Jalgaon - MPCB",11-01-2024 00:00:00,21.001264,75.565602,OZONE,14,68,38
India,Maharashtra,Jalna,"Old MIDC, Jalna - MPCB",11-01-2024 00:00:00,19.854616,75.905894,OZONE,3,71,42
India,Maharashtra,Kalyan,"Khadakpada, Kalyan - MPCB",11-01-2024 00:00:00,19.25292,73.142019,CO,8,101,41
India,Maharashtra,Kolhapur,"Shivaji University, Kolhapur - MPCB",11-01-2024 00:00:00,16.6870449,74.2505872,PM10,48,134,95
India,Maharashtra,Kolhapur,"Shivaji University, Kolhapur - MPCB",11-01-2024 00:00:00,16.6870449,74.2505872,OZONE,5,57,33
India,Maharashtra,Latur,"Sawe Wadi, Latur - MPCB",11-01-2024 00:00:00,18.39963,76.57452,PM2.5,69,218,127
India,Maharashtra,Latur,"Sawe Wadi, Latur - MPCB",11-01-2024 00:00:00,18.39963,76.57452,PM10,75,133,98
India,Maharashtra,Latur,"Sawe Wadi, Latur - MPCB",11-01-2024 00:00:00,18.39963,76.57452,OZONE,3,61,28
India,Maharashtra,Mahad,"Kamble Tarf Birwadi, Mahad - MPCB",11-01-2024 00:00:00,18.1023399,73.4783687,SO2,1,71,24
India,Maharashtra,Malegaon,"Mahesh Nagar, Malegaon - MPCB",11-01-2024 00:00:00,20.555712,74.529236,SO2,1,15,11
India,Maharashtra,Mira-Bhayandar,"Bhayandar West, Mira-Bhayandar - MPCB",11-01-2024 00:00:00,19.296481,72.840923,PM2.5,37,98,60
India,Maharashtra,Mira-Bhayandar,"Bhayandar West, Mira-Bhayandar - MPCB",11-01-2024 00:00:00,19.296481,72.840923,PM10,49,132,87
India,Maharashtra,Mumbai,"Bandra Kurla Complex, Mumbai - MPCB",11-01-2024 00:00:00,19.065931,72.862131,NO2,21,69,38
India,Maharashtra,Mumbai,"Bandra Kurla Complex, Mumbai - MPCB",11-01-2024 00:00:00,19.065931,72.862131,SO2,1,8,4
India,Maharashtra,Mumbai,"Bandra Kurla Complex, Mumbai - MPCB",11-01-2024 00:00:00,19.065931,72.862131,CO,28,66,57
India,Maharashtra,Mumbai,"Byculla, Mumbai - BMC",11-01-2024 00:00:00,18.9767,72.8380,SO2,1,8,4
India,Maharashtra,Mumbai,"Byculla, Mumbai - BMC",11-01-2024 00:00:00,18.9767,72.8380,CO,13,48,38
India,Maharashtra,Mumbai,"Byculla, Mumbai - BMC",11-01-2024 00:00:00,18.9767,72.8380,OZONE,1,91,59
India,Maharashtra,Mumbai,"Chembur, Mumbai - MPCB",11-01-2024 00:00:00,19.0364585,72.8954371,PM2.5,49,222,88
India,Maharashtra,Mumbai,"Chembur, Mumbai - MPCB",11-01-2024 00:00:00,19.0364585,72.8954371,NO2,28,128,59
India,Maharashtra,Mumbai,"Colaba, Mumbai - MPCB",11-01-2024 00:00:00,18.910000,72.820000,OZONE,10,11,11
India,Maharashtra,Mumbai,"Ghatkopar, Mumbai - BMC",11-01-2024 00:00:00,19.083694,72.920967,CO,5,54,23
India,Maharashtra,Mumbai,"Kandivali East, Mumbai - MPCB",11-01-2024 00:00:00,19.205800,72.868200,SO2,22,41,29
India,Maharashtra,Mumbai,"Kandivali West, Mumbai - BMC",11-01-2024 00:00:00,19.215859,72.831718,OZONE,1,38,27
India,Maharashtra,Mumbai,"Kherwadi_Bandra East, Mumbai - MPCB",11-01-2024 00:00:00,19.0632143,72.8456324,CO,22,54,31
India,Maharashtra,Mumbai,"Kherwadi_Bandra East, Mumbai - MPCB",11-01-2024 00:00:00,19.0632143,72.8456324,OZONE,1,47,45
India,Maharashtra,Mumbai,"Khindipada-Bhandup West, Mumbai - IITM",11-01-2024 00:00:00,19.1653323,72.922099,NO2,1,6,4
India,Maharashtra,Mumbai,"Khindipada-Bhandup West, Mumbai - IITM",11-01-2024 00:00:00,19.1653323,72.922099,CO,32,74,47
India,Maharashtra,Mumbai,"Malad West, Mumbai - IITM",11-01-2024 00:00:00,19.19709,72.82204,PM10,3,149,108
India,Maharashtra,Mumbai,"Malad West, Mumbai - IITM",11-01-2024 00:00:00,19.19709,72.82204,OZONE,2,34,21
India,Maharashtra,Mumbai,"Mindspace-Malad West, Mumbai - MPCB",11-01-2024 00:00:00,19.1878657,72.8304069,SO2,3,51,8
India,Maharashtra,Mumbai,"Mulund West, Mumbai - MPCB",11-01-2024 00:00:00,19.1750,72.9419,PM2.5,25,97,54
India,Maharashtra,Mumbai,"Mulund West, Mumbai - MPCB",11-01-2024 00:00:00,19.1750,72.9419,NH3,10,10,10
India,Maharashtra,Mumbai,"Mulund West, Mumbai - MPCB",11-01-2024 00:00:00,19.1750,72.9419,CO,20,20,20
India,Maharashtra,Mumbai,"Navy Nagar-Colaba, Mumbai - IITM",11-01-2024 00:00:00,18.897756,72.813320,CO,34,76,60
India,Maharashtra,Mumbai,"Powai, Mumbai - MPCB",11-01-2024 00:00:00,19.137500,72.915056,OZONE,27,42,36
India,Maharashtra,Mumbai,"Sion, Mumbai - MPCB",11-01-2024 00:00:00,19.047000,72.874600,CO,16,58,45
India,Maharashtra,Mumbai,"Worli, Mumbai - MPCB",11-01-2024 00:00:00,18.9936162,72.8128113,PM2.5,28,72,46
India,Maharashtra,Mumbai,"Worli, Mumbai - MPCB",11-01-2024 00:00:00,18.9936162,72.8128113,NO2,15,16,15
India,Maharashtra,Nagpur,"Ambazari, Nagpur - MPCB",11-01-2024 00:00:00,21.121801,79.04952,SO2,3,88,30
India,Maharashtra,Nagpur,"Ambazari, Nagpur - MPCB",11-01-2024 00:00:00,21.121801,79.04952,OZONE,1,155,42
India,Maharashtra,Nagpur,"Mahal, Nagpur - MPCB",11-01-2024 00:00:00,21.14472,79.107595,NH3,6,16,8
India,Maharashtra,Nagpur,"Opp GPO Civil Lines, Nagpur - MPCB",11-01-2024 00:00:00,21.152875,79.0517531,NH3,6,20,10
India,Maharashtra,Nagpur,"Opp GPO Civil Lines, Nagpur - MPCB",11-01-2024 00:00:00,21.152875,79.0517531,SO2,3,97,25
India,Maharashtra,Nagpur,"Opp GPO Civil Lines, Nagpur - MPCB",11-01-2024 00:00:00,21.152875,79.0517531,OZONE,2,105,28
India,Maharashtra,Nagpur,"Ram Nagar, Nagpur - MPCB",11-01-2024 00:00:00,21.143383,79.048912,PM2.5,79,155,109
India,Maharashtra,Nagpur,"Ram Nagar, Nagpur - MPCB",11-01-2024 00:00:00,21.143383,79.048912,NH3,3,5,4
India,Maharashtra,Nanded,"Sneh Nagar, Nanded - MPCB",11-01-2024 00:00:00,19.173852,77.296291,OZONE,15,125,93
India,Maharashtra,Nashik,"Gangapur Road, Nashik - MPCB",11-01-2024 00:00:00,20.0073285,73.7762427,PM10,NA,NA,NA
India,Maharashtra,Nashik,"MIDC Ambad, Nashik - MPCB",11-01-2024 00:00:00,19.950220,73.731480,NO2,22,88,37
India,Maharashtra,Nashik,"MIDC Ambad, Nashik - MPCB",11-01-2024 00:00:00,19.950220,73.731480,NH3,2,2,2
India,Maharashtra,Nashik,"MIDC Ambad, Nashik - MPCB",11-01-2024 00:00:00,19.950220,73.731480,SO2,5,9,7
India,Maharashtra,Nashik,"Pandav Nagari, Nashik - MPCB",11-01-2024 00:00:00,19.9591346,73.7788008,OZONE,25,81,78
India,Maharashtra,Navi Mumbai,"Kopripada-Vashi, Navi Mumbai - MPCB",11-01-2024 00:00:00,19.090337,73.014232,PM2.5,NA,NA,NA
India,Maharashtra,Navi Mumbai,"Kopripada-Vashi, Navi Mumbai - MPCB",11-01-2024 00:00:00,19.090337,73.014232,PM10,29,223,107
India,Maharashtra,Navi Mumbai,"Kopripada-Vashi, Navi Mumbai - MPCB",11-01-2024 00:00:00,19.090337,73.014232,NO2,38,152,80
India,Maharashtra,Navi Mumbai,"Kopripada-Vashi, Navi Mumbai - MPCB",11-01-2024 00:00:00,19.090337,73.014232,SO2,7,24,14
India,Maharashtra,Navi Mumbai,"Mahape, Navi Mumbai - MPCB",11-01-2024 00:00:00,19.1135051,73.008978,NO2,38,38,38
India,Maharashtra,Navi Mumbai,"Nerul, Navi Mumbai - MPCB",11-01-2024 00:00:00,19.008751,73.016620,PM10,29,134,74
India,Maharashtra,Navi Mumbai,"Nerul, Navi Mumbai - MPCB",11-01-2024 00:00:00,19.008751,73.016620,OZONE,23,41,27
India,Maharashtra,Navi Mumbai,"Sanpada, Navi Mumbai - MPCB",11-01-2024 00:00:00,19.0575752,73.0151367,NH3,12,40,20
India,Maharashtra,Navi Mumbai,"Sector-19A Nerul, Navi Mumbai - IITM",11-01-2024 00:00:00,19.044,73.0325,PM10,72,263,148
India,Maharashtra,Navi Mumbai,"Sector-19A Nerul, Navi Mumbai - IITM",11-01-2024 00:00:00,19.044,73.0325,OZONE,13,50,29
India,Maharashtra,Navi Mumbai,"Sector-2E Kalamboli, Navi Mumbai - MPCB",11-01-2024 00:00:00,19.02579,73.10297,PM10,55,174,93
India,Maharashtra,Navi Mumbai,"Tondare-Taloja, Navi Mumbai - MPCB",11-01-2024 00:00:00,19.0630,73.1209,PM2.5,53,145,71
India,Maharashtra,Navi Mumbai,"Tondare-Taloja, Navi Mumbai - MPCB",11-01-2024 00:00:00,19.0630,73.1209,OZONE,1,47,21
India,Maharashtra,Parbhani,"Masoom Colony, Parbhani - MPCB",11-01-2024 00:00:00,19.265594,76.761463,NO2,7,29,16
India,Maharashtra,Parbhani,"Masoom Colony, Parbhani - MPCB",11-01-2024 00:00:00,19.265594,76.761463,NH3,4,4,4
India,Maharashtra,Parbhani,"Masoom Colony, Parbhani - MPCB",11-01-2024 00:00:00,19.265594,76.761463,SO2,22,39,28
India,Maharashtra,Pimpri-Chinchwad,"Gavalinagar, Pimpri Chinchwad - MPCB",11-01-2024 00:00:00,18.63673,73.82487,NH3,4,17,6
India,Maharashtra,Pimpri-Chinchwad,"Park Street Wakad, Pimpri Chinchwad - MPCB",11-01-2024 00:00:00,18.59051,73.77946,PM10,74,180,120
India,Maharashtra,Pimpri-Chinchwad,"Thergaon, Pimpri Chinchwad - MPCB",11-01-2024 00:00:00,18.616318,73.765797,PM10,53,146,98
India,Maharashtra,Pimpri-Chinchwad,"Thergaon, Pimpri Chinchwad - MPCB",11-01-2024 00:00:00,18.616318,73.765797,OZONE,1,67,28
India,Maharashtra,Pune,"Bhosari, Pune - IITM",11-01-2024 00:00:00,18.640051,73.848956,PM10,49,150,83
India,Maharashtra,Pune,"Karve Road, Pune - MPCB",11-01-2024 00:00:00,18.5011743,73.8165527,PM10,97,106,101
India,Maharashtra,Pune,"Katraj Dairy, Pune - MPCB",11-01-2024 00:00:00,18.454450,73.854155,NO2,17,45,31
India,Maharashtra,Pune,"Katraj Dairy, Pune - MPCB",11-01-2024 00:00:00,18.454450,73.854155,OZONE,1,36,12
India,Maharashtra,Pune,"Mhada Colony, Pune - IITM",11-01-2024 00:00:00,18.573040,73.927715,NO2,59,91,75
India,Maharashtra,Pune,"Revenue Colony-Shivajinagar, Pune - IITM",11-01-2024 00:00:00,18.530085,73.849598,PM10,87,134,110
India,Maharashtra,Pune,"Revenue Colony-Shivajinagar, Pune - IITM",11-01-2024 00:00:00,18.530085,73.849598,NO2,71,225,208
India,Maharashtra,Pune,"Savitribai Phule Pune University, Pune - MPCB",11-01-2024 00:00:00,18.547056,73.826908,NH3,2,4,3
India,Maharashtra,Pune,"Savitribai Phule Pune University, Pune - MPCB",11-01-2024 00:00:00,18.547056,73.826908,CO,14,62,32
India,Maharashtra,Sangli,"Vijay Nagar, Sangli - MPCB",11-01-2024 00:00:00, 16.5038,74.3623,OZONE,11,45,24
India,Maharashtra,Solapur,"Dnyaneshwar Nagar, Solapur - MPCB",11-01-2024 00:00:00,17.6336264,75.9132495,NH3,17,38,25
India,Maharashtra,Solapur,"Dnyaneshwar Nagar, Solapur - MPCB",11-01-2024 00:00:00,17.6336264,75.9132495,SO2,3,105,26
India,Maharashtra,Solapur,"Ratandeep Housing Society, Solapur - MPCB",11-01-2024 00:00:00,17.65439,75.90649,CO,19,56,32
India,Maharashtra,Solapur,"Ratandeep Housing Society, Solapur - MPCB",11-01-2024 00:00:00,17.65439,75.90649,OZONE,18,37,27
India,Maharashtra,Solapur,"Solapur, Solapur - MPCB",11-01-2024 00:00:00,17.6599188,75.9063906,SO2,30,35,32
India,Maharashtra,Thane,"Kasarvadavali, Thane - MPCB",11-01-2024 00:00:00,19.26777,72.97182,NO2,NA,NA,NA
India,Maharashtra,Thane,"Kasarvadavali, Thane - MPCB",11-01-2024 00:00:00,19.26777,72.97182,OZONE,7,116,70
India,Maharashtra,Ulhasnagar,"Sidhi Vinayak Nagar, Ulhasnagar - MPCB",11-01-2024 00:00:00,19.235581,73.159121,NH3,3,4,3
India,Manipur,Imphal,"DM College of Science, Imphal - Manipur PCB",11-01-2024 00:00:00,24.8207389,93.9423085,PM2.5,16,244,51
India,Manipur,Imphal,"DM College of Science, Imphal - Manipur PCB",11-01-2024 00:00:00,24.8207389,93.9423085,NO2,7,8,8
India,Manipur,Imphal,"DM College of Science, Imphal - Manipur PCB",11-01-2024 00:00:00,24.8207389,93.9423085,NH3,2,2,2
India,Manipur,Imphal,"Manipur University, Imphal - Manipur PCB",11-01-2024 00:00:00,24.7524239,93.9286218,CO,10,100,53
India,Meghalaya,Shillong,"JN Stadium, Shillong - Meghalaya PCB",11-01-2024 00:00:00,25.5803419,91.8942571,PM10,NA,NA,NA
India,Meghalaya,Shillong,"JN Stadium, Shillong - Meghalaya PCB",11-01-2024 00:00:00,25.5803419,91.8942571,NO2,14,73,41
India,Meghalaya,Shillong,"JN Stadium, Shillong - Meghalaya PCB",11-01-2024 00:00:00,25.5803419,91.8942571,OZONE,3,26,9
India,Meghalaya,Shillong,"Lumpyngngad, Shillong - Meghalaya PCB",11-01-2024 00:00:00,25.5586,91.8985,SO2,14,16,15
India,Mizoram,Aizawl,"Sikulpuikawn, Aizawl - Mizoram PCB",11-01-2024 00:00:00,23.7176342,92.7192841,OZONE,1,17,4
India,Nagaland,Kohima,"PWD Juction, Kohima - NPCB",11-01-2024 00:00:00,25.6635413,94.0989878,PM2.5,35,266,81
India,Odisha,Angul,"Hakimapada, Angul - OSPCB",11-01-2024 00:00:00,20.832874,85.104082,NH3,3,6,4
India,Odisha,Angul,"Hakimapada, Angul - OSPCB",11-01-2024 00:00:00,20.832874,85.104082,OZONE,2,275,141
India,Odisha,Balasore,"Kalidaspur, Balasore - OSPCB",11-01-2024 00:00:00,21.51161,86.89088,PM10,128,261,181
India,Odisha,Balasore,"Kalidaspur, Balasore - OSPCB",11-01-2024 00:00:00,21.51161,86.89088,SO2,15,36,23
India,Odisha,Bhubaneswar,"Patia, Bhubaneswar - OSPCB",11-01-2024 00:00:00,20.34652,85.81630,SO2,3,82,22
India,Odisha,Bhubaneswar,"Patia, Bhubaneswar - OSPCB",11-01-2024 00:00:00,20.34652,85.81630,OZONE,4,212,114
India,Odisha,Bileipada,"Tata Township, Bileipada - OSPCB",11-01-2024 00:00:00,22.06156703,85.47409613,PM10,140,296,206
India,Odisha,Bileipada,"Tata Township, Bileipada - OSPCB",11-01-2024 00:00:00,22.06156703,85.47409613,NO2,5,13,8
India,Odisha,Bileipada,"Tata Township, Bileipada - OSPCB",11-01-2024 00:00:00,22.06156703,85.47409613,SO2,22,59,32
India,Odisha,Byasanagar,"Ferro Chrome Colony, Byasanagar - OSPCB",11-01-2024 00:00:00,20.94185,86.11510,PM10,134,252,175
India,Odisha,Byasanagar,"Ferro Chrome Colony, Byasanagar - OSPCB",11-01-2024 00:00:00,20.94185,86.11510,NH3,3,4,3
India,Odisha,Cuttack,"CDA Area, Cuttack - OSPCB",11-01-2024 00:00:00,20.48891     ,85.84768     ,SO2,3,76,26
India,Odisha,Keonjhar,"Jagamohanpur, Keonjhar - OSPCB",11-01-2024 00:00:00,21.643900,85.599355,OZONE,1,35,9
India,Odisha,Nayagarh,"Dabuna, Nayagarh - OSPCB",11-01-2024 00:00:00,21.847279,85.416905,PM2.5,106,285,175
India,Odisha,Nayagarh,"Dabuna, Nayagarh - OSPCB",11-01-2024 00:00:00,21.847279,85.416905,CO,18,30,22
India,Odisha,Rairangpur,"Divisional Forest Office, Rairangpur - OSPCB",11-01-2024 00:00:00,22.265816,86.174829,NH3,NA,NA,NA
India,Odisha,Rourkela,"Fertilizer Township, Rourkela - OSPCB",11-01-2024 00:00:00,22.18972222,84.86277778,NO2,11,77,31
India,Odisha,Rourkela,"Fertilizer Township, Rourkela - OSPCB",11-01-2024 00:00:00,22.18972222,84.86277778,SO2,12,15,14
India,Odisha,Rourkela,"Raghunathpali, Rourkela - OSPCB",11-01-2024 00:00:00,22.220833,84.809444,PM10,64,199,125
India,Odisha,Rourkela,"Sector-2, Rourkela - OSPCB",11-01-2024 00:00:00,22.24500000,84.88111111,PM2.5,31,299,104
India,Odisha,Suakati,"OMC Colony, Suakati - OSPCB",11-01-2024 00:00:00,21.606865,85.510538,SO2,2,70,24
India,Odisha,Tensa,"Barsua Iron Ore Mines, Tensa - OSPCB",11-01-2024 00:00:00,21.869985,85.167016,PM10,20,148,114
India,Odisha,Tensa,"Barsua Iron Ore Mines, Tensa - OSPCB",11-01-2024 00:00:00,21.869985,85.167016,SO2,NA,NA,NA
India,Odisha,Tensa,"Barsua Iron Ore Mines, Tensa - OSPCB",11-01-2024 00:00:00,21.869985,85.167016,OZONE,8,70,47
India,Punjab,Amritsar,"Golden Temple, Amritsar - PPCB",11-01-2024 00:00:00,31.620000,74.876512,PM2.5,94,198,129
India,Punjab,Amritsar,"Golden Temple, Amritsar - PPCB",11-01-2024 00:00:00,31.620000,74.876512,PM10,114,169,136
India,Punjab,Amritsar,"Golden Temple, Amritsar - PPCB",11-01-2024 00:00:00,31.620000,74.876512,OZONE,23,32,28
India,Punjab,Jalandhar,"Civil Line, Jalandhar - PPCB",11-01-2024 00:00:00,31.321907,75.578914,CO,46,96,80
India,Punjab,Khanna,"Kalal Majra, Khanna - PPCB",11-01-2024 00:00:00,30.736056 ,76.209694,CO,22,44,39
India,Punjab,Ludhiana,"Punjab Agricultural University, Ludhiana - PPCB",11-01-2024 00:00:00,30.9028,75.8086,PM10,57,213,129
India,Punjab,Ludhiana,"Punjab Agricultural University, Ludhiana - PPCB",11-01-2024 00:00:00,30.9028,75.8086,NH3,5,5,5
India,Punjab,Ludhiana,"Punjab Agricultural University, Ludhiana - PPCB",11-01-2024 00:00:00,30.9028,75.8086,CO,21,103,62
India,Punjab,Mandi Gobindgarh,"RIMT University, Mandi Gobindgarh - PPCB",11-01-2024 00:00:00,30.649961,76.331442,PM10,54,238,135
India,Punjab,Mandi Gobindgarh,"RIMT University, Mandi Gobindgarh - PPCB",11-01-2024 00:00:00,30.649961,76.331442,SO2,6,59,24
India,Punjab,Mandi Gobindgarh,"RIMT University, Mandi Gobindgarh - PPCB",11-01-2024 00:00:00,30.649961,76.331442,CO,14,88,42
India,Punjab,Patiala,"Model Town, Patiala - PPCB",11-01-2024 00:00:00,30.349388,76.366642,PM10,82,151,116
India,Punjab,Patiala,"Model Town, Patiala - PPCB",11-01-2024 00:00:00,30.349388,76.366642,CO,35,84,45
India,Rajasthan,Ajmer,"Civil Lines,  Ajmer - RSPCB",11-01-2024 00:00:00,26.470859,74.646594,PM10,40,148,87
India,Rajasthan,Ajmer,"Civil Lines,  Ajmer - RSPCB",11-01-2024 00:00:00,26.470859,74.646594,NO2,NA,NA,NA
India,Rajasthan,Ajmer,"Civil Lines,  Ajmer - RSPCB",11-01-2024 00:00:00,26.470859,74.646594,CO,14,92,45
India,Rajasthan,Alwar,"Moti Doongri, Alwar - RSPCB",11-01-2024 00:00:00,27.554793,76.611536,PM2.5,49,122,78
India,Rajasthan,Alwar,"Moti Doongri, Alwar - RSPCB",11-01-2024 00:00:00,27.554793,76.611536,NO2,35,48,42
India,Rajasthan,Banswara,"Rati Talai, Banswara - RSPCB",11-01-2024 00:00:00,23.555190,74.440010,OZONE,47,88,67
India,Rajasthan,Baran,"Bamboliya, Baran - RSPCB",11-01-2024 00:00:00,25.106006,76.469948,SO2,1,4,2
India,Rajasthan,Baran,"Bamboliya, Baran - RSPCB",11-01-2024 00:00:00,25.106006,76.469948,CO,36,103,61
India,Rajasthan,Baran,"Bamboliya, Baran - RSPCB",11-01-2024 00:00:00,25.106006,76.469948,OZONE,3,62,30
India,Rajasthan,Barmer,"Railway Colony, Barmer - RSPCB",11-01-2024 00:00:00,25.747299,71.393989,NO2,11,52,19
India,Rajasthan,Barmer,"Railway Colony, Barmer - RSPCB",11-01-2024 00:00:00,25.747299,71.393989,NH3,5,8,6
India,Rajasthan,Barmer,"Railway Colony, Barmer - RSPCB",11-01-2024 00:00:00,25.747299,71.393989,CO,10,74,42
India,Rajasthan,Bharatpur,"Krishna Nagar, Bharatpur - RSPCB",11-01-2024 00:00:00,27.215415,77.50873,SO2,NA,NA,NA
India,Rajasthan,Bhilwara,"Pratap Nagar, Bhilwara - RSPCB",11-01-2024 00:00:00,25.339605,74.618883,OZONE,4,80,38
India,Rajasthan,Bhiwadi,"RIICO Ind. Area III, Bhiwadi - RSPCB",11-01-2024 00:00:00,28.194909,76.862296,PM2.5,44,337,199
India,Rajasthan,Bikaner,"MM Ground, Bikaner - RSPCB",11-01-2024 00:00:00,28.018792,73.292658,PM2.5,72,418,268
India,Rajasthan,Bikaner,"MM Ground, Bikaner - RSPCB",11-01-2024 00:00:00,28.018792,73.292658,CO,41,116,86
India,Rajasthan,Bikaner,"MM Ground, Bikaner - RSPCB",11-01-2024 00:00:00,28.018792,73.292658,OZONE,1,72,28
India,Rajasthan,Chittorgarh,"Shastri Nagar, Chittorgarh - RSPCB",11-01-2024 00:00:00,24.892047,74.623527,PM10,88,259,142
India,Rajasthan,Chittorgarh,"Shastri Nagar, Chittorgarh - RSPCB",11-01-2024 00:00:00,24.892047,74.623527,NO2,32,73,47
India,Rajasthan,Dausa,"Khatikan Mohalla, Dausa - RSPCB",11-01-2024 00:00:00,26.895552,76.334753,PM10,40,198,104
India,Rajasthan,Dausa,"Khatikan Mohalla, Dausa - RSPCB",11-01-2024 00:00:00,26.895552,76.334753,CO,22,174,168
India,Rajasthan,Dausa,"Khatikan Mohalla, Dausa - RSPCB",11-01-2024 00:00:00,26.895552,76.334753,OZONE,1,185,67
India,Rajasthan,Dholpur,"Raja Ganj, Dholpur - RSPCB",11-01-2024 00:00:00,26.699557,77.898881,PM10,88,249,135
India,Rajasthan,Dholpur,"Raja Ganj, Dholpur - RSPCB",11-01-2024 00:00:00,26.699557,77.898881,SO2,4,42,18
India,Rajasthan,Dungarpur,"Bhoiwada, Dungarpur - RSPCB",11-01-2024 00:00:00,23.837789,73.714926,NH3,7,9,8
India,Rajasthan,Hanumangarh,"Housing Board, Hanumangarh - RSPCB",11-01-2024 00:00:00,29.610750,74.283608,PM10,163,436,290
India,Rajasthan,Hanumangarh,"Housing Board, Hanumangarh - RSPCB",11-01-2024 00:00:00,29.610750,74.283608,NH3,11,20,13
India,Rajasthan,Jaipur,"Adarsh Nagar, Jaipur - RSPCB",11-01-2024 00:00:00,26.902909,75.836858,OZONE,9,41,13
India,Rajasthan,Jaipur,"Mansarovar Sector-12, Jaipur - RSPCB",11-01-2024 00:00:00,26.843698,75.766894,PM10,93,451,220
India,Rajasthan,Jaipur,"Mansarovar Sector-12, Jaipur - RSPCB",11-01-2024 00:00:00,26.843698,75.766894,NO2,24,138,61
India,Rajasthan,Jaipur,"Mansarovar Sector-12, Jaipur - RSPCB",11-01-2024 00:00:00,26.843698,75.766894,OZONE,1,48,19
India,Rajasthan,Jaipur,"Police Commissionerate, Jaipur - RSPCB",11-01-2024 00:00:00,26.9164092,75.7994901,PM2.5,NA,NA,NA
India,Rajasthan,Jaipur,"Police Commissionerate, Jaipur - RSPCB",11-01-2024 00:00:00,26.9164092,75.7994901,NH3,NA,NA,NA
India,Rajasthan,Jaipur,"RIICO Sitapura, Jaipur - RSPCB",11-01-2024 00:00:00,26.786682,75.827928,NO2,46,206,83
India,Rajasthan,Jaipur,"Sector-2 Murlipura, Jaipur - RSPCB",11-01-2024 00:00:00,26.960669,75.771817,PM10,69,495,244
India,Rajasthan,Jaipur,"Sector-2 Murlipura, Jaipur - RSPCB",11-01-2024 00:00:00,26.960669,75.771817,CO,22,143,82
India,Rajasthan,Jaipur,"Shastri Nagar, Jaipur - RSPCB",11-01-2024 00:00:00,26.9502929,75.730943,NO2,24,130,69
India,Rajasthan,Jaisalmer,"Sadar Bazar, Jaisalmer - RSPCB",11-01-2024 00:00:00,26.912329,70.909168,NO2,22,126,53
India,Rajasthan,Jhalawar,"Rajlaxmi Nagar, Jhalawar - RSPCB",11-01-2024 00:00:00,24.588397,76.172782,OZONE,6,76,46
India,Rajasthan,Jodhpur,"Collectorate, Jodhpur - RSPCB",11-01-2024 00:00:00,26.268249,73.0193853,PM2.5,44,316,174
India,Rajasthan,Jodhpur,"Digari Kalan, Jodhpur - RSPCB",11-01-2024 00:00:00,26.295810,73.082283,NO2,9,47,21
India,Rajasthan,Jodhpur,"Digari Kalan, Jodhpur - RSPCB",11-01-2024 00:00:00,26.295810,73.082283,OZONE,21,124,85
India,Rajasthan,Jodhpur,"Jhalamand, Jodhpur - RSPCB",11-01-2024 00:00:00,26.215415,73.070156,NH3,4,6,5
India,Rajasthan,Jodhpur,"Mandor, Jodhpur - RSPCB",11-01-2024 00:00:00,26.358805,73.047444,OZONE,29,126,99
India,Rajasthan,Karauli,"Satyawati Vihar, Karauli - RSPCB",11-01-2024 00:00:00,26.506177,77.025989,OZONE,9,41,23
India,Rajasthan,Kota,"Dhanmandi, Kota - RSPCB",11-01-2024 00:00:00,25.164090,75.858137,PM10,67,401,158
India,Rajasthan,Kota,"Dhanmandi, Kota - RSPCB",11-01-2024 00:00:00,25.164090,75.858137,SO2,2,24,6
India,Rajasthan,Kota,"Nayapura, Kota - RSPCB",11-01-2024 00:00:00,25.196024,75.855668,PM10,73,310,107
India,Rajasthan,Kota,"Shrinath Puram, Kota - RSPCB",11-01-2024 00:00:00,25.14389,75.821256,OZONE,12,57,28
India,Rajasthan,Pali,"Indira Colony Vistar, Pali - RSPCB",11-01-2024 00:00:00,25.771061, 73.340227,PM2.5,74,317,220
India,Rajasthan,Pali,"Indira Colony Vistar, Pali - RSPCB",11-01-2024 00:00:00,25.771061, 73.340227,OZONE,9,27,16
India,Rajasthan,Pratapgarh,"Pragati Nagar, Pratapgarh - RSPCB",11-01-2024 00:00:00,24.041198,74.780702,SO2,1,12,3
India,Rajasthan,Pratapgarh,"Pragati Nagar, Pratapgarh - RSPCB",11-01-2024 00:00:00,24.041198,74.780702,CO,20,47,35
India,Rajasthan,Pratapgarh,"Pragati Nagar, Pratapgarh - RSPCB",11-01-2024 00:00:00,24.041198,74.780702,OZONE,24,84,53
India,Rajasthan,Rajsamand,"Dhoinda, Rajsamand - RSPCB",11-01-2024 00:00:00,25.036360,73.883502,PM2.5,58,345,169
India,Rajasthan,Rajsamand,"Dhoinda, Rajsamand - RSPCB",11-01-2024 00:00:00,25.036360,73.883502,NO2,12,49,22
India,Rajasthan,Sikar,"Radhakishan Pura, Sikar - RSPCB",11-01-2024 00:00:00,27.608912,75.153302,PM2.5,48,322,188
India,Rajasthan,Sirohi,"Vedhaynath Colony, Sirohi - RSPCB",11-01-2024 00:00:00,24.885261,72.857549,SO2,2,12,7
India,Rajasthan,Tonk,"Shastri Nagar, Tonk - RSPCB",11-01-2024 00:00:00,26.159933,75.780517,NO2,NA,NA,NA
India,Rajasthan,Udaipur,"Ashok Nagar, Udaipur - RSPCB",11-01-2024 00:00:00,24.5886166,73.6321397,PM2.5,85,311,143
India,Rajasthan,Udaipur,"Ashok Nagar, Udaipur - RSPCB",11-01-2024 00:00:00,24.5886166,73.6321397,OZONE,15,23,19
India,TamilNadu,Ariyalur,"Keelapalur, Ariyalur - TNPCB",11-01-2024 00:00:00,11.06825,79.07033,SO2,2,4,3
India,TamilNadu,Chengalpattu,"Crescent University, Chengalpattu - TNPCB",11-01-2024 00:00:00,12.8777316,80.0834807,PM2.5,25,80,47
India,TamilNadu,Chengalpattu,"Crescent University, Chengalpattu - TNPCB",11-01-2024 00:00:00,12.8777316,80.0834807,CO,26,32,26
India,TamilNadu,Chengalpattu,"Crescent University, Chengalpattu - TNPCB",11-01-2024 00:00:00,12.8777316,80.0834807,OZONE,6,6,6
India,TamilNadu,Chennai,"Alandur Bus Depot, Chennai - CPCB",11-01-2024 00:00:00,12.9099161,80.1076538,NO2,19,111,51
India,TamilNadu,Chennai,"Alandur Bus Depot, Chennai - CPCB",11-01-2024 00:00:00,12.9099161,80.1076538,NH3,5,9,6
India,TamilNadu,Chennai,"Alandur Bus Depot, Chennai - CPCB",11-01-2024 00:00:00,12.9099161,80.1076538,SO2,25,32,28
India,TamilNadu,Chennai,"Alandur Bus Depot, Chennai - CPCB",11-01-2024 00:00:00,12.9099161,80.1076538,OZONE,17,33,22
India,TamilNadu,Chennai,"Arumbakkam, Chennai - TNPCB",11-01-2024 00:00:00,13.0664,80.2112 ,PM2.5,65,117,82
India,TamilNadu,Chennai,"Gandhi Nagar_Ennore, Chennai - TNPCB",11-01-2024 00:00:00,13.218341,80.32027,PM2.5,60,92,72
India,TamilNadu,Chennai,"Gandhi Nagar_Ennore, Chennai - TNPCB",11-01-2024 00:00:00,13.218341,80.32027,PM10,55,83,66
India,TamilNadu,Chennai,"Kodungaiyur, Chennai - TNPCB",11-01-2024 00:00:00,13.1278,80.2642,CO,26,47,35
India,TamilNadu,Chennai,"Manali, Chennai - CPCB",11-01-2024 00:00:00,13.164544,80.26285,NH3,4,6,5
India,TamilNadu,Chennai,"Perungudi, Chennai - TNPCB",11-01-2024 00:00:00,12.9533,80.2357,NH3,2,2,2
India,TamilNadu,Chennai,"Perungudi, Chennai - TNPCB",11-01-2024 00:00:00,12.9533,80.2357,CO,16,31,21
India,TamilNadu,Chennai,"Perungudi, Chennai - TNPCB",11-01-2024 00:00:00,12.9533,80.2357,OZONE,23,192,92
India,TamilNadu,Chennai,"Royapuram, Chennai - TNPCB",11-01-2024 00:00:00,13.1036,80.2909,CO,22,34,31
India,TamilNadu,Chennai,"Velachery Res. Area, Chennai - CPCB",11-01-2024 00:00:00,13.0052189,80.2398125,PM2.5,31,65,49
India,TamilNadu,Coimbatore,"PSG College of Arts and Science, Coimbatore - TNPCB",11-01-2024 00:00:00,11.0328,77.0349,PM2.5,66,178,99
India,TamilNadu,Cuddalore,"Semmandalam, Cuddalore - TNPCB",11-01-2024 00:00:00,11.7637683,79.7499835,PM10,NA,NA,NA
India,TamilNadu,Cuddalore,"Semmandalam, Cuddalore - TNPCB",11-01-2024 00:00:00,11.7637683,79.7499835,NH3,NA,NA,NA
India,TamilNadu,Cuddalore,"Semmandalam, Cuddalore - TNPCB",11-01-2024 00:00:00,11.7637683,79.7499835,OZONE,1,2,2
India,TamilNadu,Ooty,"Bombay Castel, Ooty - TNPCB",11-01-2024 00:00:00,11.4068288,76.7138973,PM2.5,NA,NA,NA
India,TamilNadu,Salem,"Sona College of Technology, Salem - TNPCB",11-01-2024 00:00:00,11.679111,78.125052,PM10,37,123,65
India,TamilNadu,Tirupur,"Kumaran College, Tirupur - TNPCB",11-01-2024 00:00:00,11.0973603,77.3228673,CO,26,109,68
India,TamilNadu,Vellore,"Vasanthapuram, Vellore - TNPCB",11-01-2024 00:00:00,12.909494,79.131861,PM10,68,123,87
India,TamilNadu,Vellore,"Vasanthapuram, Vellore - TNPCB",11-01-2024 00:00:00,12.909494,79.131861,SO2,13,16,15
India,TamilNadu,Virudhunagar,"Collectorate Office, Virudhunagar - TNPCB",11-01-2024 00:00:00,9.559382,77.948828,NO2,NA,NA,NA
India,TamilNadu,Virudhunagar,"Collectorate Office, Virudhunagar - TNPCB",11-01-2024 00:00:00,9.559382,77.948828,OZONE,3,3,3
India,Telangana,Hyderabad,"Bollaram Industrial Area, Hyderabad - TSPCB",11-01-2024 00:00:00,17.540891,78.358528,NH3,2,4,2
India,Telangana,Hyderabad,"Central University, Hyderabad - TSPCB",11-01-2024 00:00:00,17.460103,78.334361,NO2,12,39,22
India,Telangana,Hyderabad,"ECIL Kapra, Hyderabad - TSPCB",11-01-2024 00:00:00,17.470431,78.566959,PM2.5,65,73,69
India,Telangana,Hyderabad,"ICRISAT Patancheru, Hyderabad - TSPCB",11-01-2024 00:00:00,17.518400,78.278777,PM10,87,150,113
India,Telangana,Hyderabad,"IITH Kandi, Hyderabad - TSPCB",11-01-2024 00:00:00,17.585705,78.126199,PM2.5,17,45,32
India,Telangana,Hyderabad,"Kokapet, Hyderabad - TSPCB",11-01-2024 00:00:00,17.393559,78.339194,PM2.5,49,89,62
India,Telangana,Hyderabad,"Kokapet, Hyderabad - TSPCB",11-01-2024 00:00:00,17.393559,78.339194,SO2,5,8,6
India,Telangana,Hyderabad,"Kokapet, Hyderabad - TSPCB",11-01-2024 00:00:00,17.393559,78.339194,OZONE,1,6,4
India,Telangana,Hyderabad,"Kompally Municipal Office, Hyderabad - TSPCB",11-01-2024 00:00:00,17.544899,78.486949,OZONE,19,58,42
India,Telangana,Hyderabad,"Nacharam_TSIIC IALA, Hyderabad - TSPCB",11-01-2024 00:00:00,17.429398,78.569354,SO2,8,23,15
India,Telangana,Hyderabad,"New Malakpet, Hyderabad - TSPCB",11-01-2024 00:00:00,17.37206,78.50864,SO2,8,18,12
India,Telangana,Hyderabad,"New Malakpet, Hyderabad - TSPCB",11-01-2024 00:00:00,17.37206,78.50864,CO,18,44,34
India,Telangana,Hyderabad,"Ramachandrapuram, Hyderabad - TSPCB",11-01-2024 00:00:00,17.528544,78.286195,CO,21,26,23
India,Telangana,Hyderabad,"Zoo Park, Hyderabad - TSPCB",11-01-2024 00:00:00,17.349694,78.451437,PM10,64,124,102
India,Tripura,Agartala,"Bardowali, Agartala - Tripura SPCB",11-01-2024 00:00:00,23.8175497,91.2726974,CO,42,111,88
India,Uttar_Pradesh,Agra,"Manoharpur, Agra - UPPCB",11-01-2024 00:00:00,27.23711,78.01936,NH3,1,1,1
India,Uttar_Pradesh,Agra,"Rohta, Agra - UPPCB",11-01-2024 00:00:00,27.106972,78.000111,CO,6,50,24
India,Uttar_Pradesh,Agra,"Sanjay Palace, Agra - UPPCB",11-01-2024 00:00:00,27.19865833,78.00598056,PM10,54,182,99
India,Uttar_Pradesh,Agra,"Sector-3B Avas Vikas Colony, Agra - UPPCB",11-01-2024 00:00:00,27.19412,77.96237,NO2,13,84,26
India,Uttar_Pradesh,Agra,"Shastripuram, Agra - UPPCB",11-01-2024 00:00:00,27.19862,77.92066,SO2,13,23,16
India,Uttar_Pradesh,Baghpat,"Sardar Patel Inter College, Baghpat - UPPCB",11-01-2024 00:00:00,28.964949,77.278761,NO2,27,71,40
India,Uttar_Pradesh,Baghpat,"Sardar Patel Inter College, Baghpat - UPPCB",11-01-2024 00:00:00,28.964949,77.278761,NH3,2,5,3
India,Uttar_Pradesh,Bulandshahr,"Yamunapuram, Bulandshahr - UPPCB",11-01-2024 00:00:00,28.406963,77.849831,NO2,38,133,67
India,Uttar_Pradesh,Firozabad,"Nagla Bhau, Firozabad - UPPCB",11-01-2024 00:00:00,27.168897,78.376960,PM10,38,134,66
India,Uttar_Pradesh,Firozabad,"Nagla Bhau, Firozabad - UPPCB",11-01-2024 00:00:00,27.168897,78.376960,CO,6,34,23
India,Uttar_Pradesh,Firozabad,"Vibhab Nagar, Firozabad - UPPCB",11-01-2024 00:00:00,27.1594,78.3953,CO,22,46,30
India,Uttar_Pradesh,Ghaziabad,"Indirapuram, Ghaziabad - UPPCB",11-01-2024 00:00:00,28.646233,77.358075,PM2.5,89,321,194
India,Uttar_Pradesh,Ghaziabad,"Loni, Ghaziabad - UPPCB",11-01-2024 00:00:00,28.757294,77.278792,PM2.5,95,343,182
India,Uttar_Pradesh,Ghaziabad,"Loni, Ghaziabad - UPPCB",11-01-2024 00:00:00,28.757294,77.278792,PM10,100,262,150
India,Uttar_Pradesh,Ghaziabad,"Sanjay Nagar, Ghaziabad - UPPCB",11-01-2024 00:00:00,28.685382,77.453839,OZONE,7,46,18
India,Uttar_Pradesh,Ghaziabad,"Vasundhara, Ghaziabad - UPPCB",11-01-2024 00:00:00,28.6603346,77.3572563,PM2.5,126,333,220
India,Uttar_Pradesh,Ghaziabad,"Vasundhara, Ghaziabad - UPPCB",11-01-2024 00:00:00,28.6603346,77.3572563,PM10,100,214,151
India,Uttar_Pradesh,Greater Noida,"Knowledge Park - III, Greater Noida - UPPCB",11-01-2024 00:00:00,28.47272,77.482000,NH3,6,10,8
India,Uttar_Pradesh,Greater Noida,"Knowledge Park - V, Greater Noida - UPPCB",11-01-2024 00:00:00,28.557054,77.453663,NH3,4,6,5
India,Uttar_Pradesh,Hapur,"Anand Vihar, Hapur - UPPCB",11-01-2024 00:00:00,28.725645,77.749675,NO2,64,83,74
India,Uttar_Pradesh,Hapur,"Anand Vihar, Hapur - UPPCB",11-01-2024 00:00:00,28.725645,77.749675,NH3,7,11,9
India,Uttar_Pradesh,Hapur,"Anand Vihar, Hapur - UPPCB",11-01-2024 00:00:00,28.725645,77.749675,CO,46,94,78
India,Uttar_Pradesh,Jhansi,"Shivaji Nagar, Jhansi - UPPCB",11-01-2024 00:00:00,25.4547,78.6039,NH3,6,6,6
India,Uttar_Pradesh,Kanpur,"NSI Kalyanpur, Kanpur - UPPCB",11-01-2024 00:00:00,26.509954,80.249612,CO,36,72,50
India,Uttar_Pradesh,Kanpur,"Nehru Nagar, Kanpur - UPPCB",11-01-2024 00:00:00,26.4703136,80.3229863,PM2.5,49,500,158
India,Uttar_Pradesh,Kanpur,"Nehru Nagar, Kanpur - UPPCB",11-01-2024 00:00:00,26.4703136,80.3229863,NO2,5,431,64
India,Uttar_Pradesh,Kanpur,"Nehru Nagar, Kanpur - UPPCB",11-01-2024 00:00:00,26.4703136,80.3229863,OZONE,7,94,44
India,Uttar_Pradesh,Khurja,"Kalindi Kunj, Khurja - UPPCB",11-01-2024 00:00:00,28.2348927,77.8683002,OZONE,21,42,27
India,Uttar_Pradesh,Lucknow,"Gomti Nagar, Lucknow - UPPCB",11-01-2024 00:00:00,26.868120,81.005119,NO2,6,8,7
India,Uttar_Pradesh,Lucknow,"Gomti Nagar, Lucknow - UPPCB",11-01-2024 00:00:00,26.868120,81.005119,OZONE,43,55,50
India,Uttar_Pradesh,Lucknow,"Kendriya Vidyalaya, Lucknow - CPCB",11-01-2024 00:00:00,26.906111,80.948222,CO,35,98,59
India,Uttar_Pradesh,Lucknow,"Kukrail Picnic Spot-1, Lucknow - UPPCB",11-01-2024 00:00:00,26.90723,80.98579,NH3,2,2,2
India,Uttar_Pradesh,Lucknow,"Kukrail Picnic Spot-1, Lucknow - UPPCB",11-01-2024 00:00:00,26.90723,80.98579,CO,17,57,26
India,Uttar_Pradesh,Lucknow,"Lalbagh, Lucknow - CPCB",11-01-2024 00:00:00,26.8458805,80.9365541,PM2.5,144,367,239
India,Uttar_Pradesh,Lucknow,"Talkatora District Industries Center, Lucknow - CPCB",11-01-2024 00:00:00,26.83399722,80.8917361,NO2,55,100,75
India,Uttar_Pradesh,Meerut,"Ganga Nagar, Meerut - UPPCB",11-01-2024 00:00:00,28.999264,77.7590354,PM10,106,278,163
India,Uttar_Pradesh,Meerut,"Jai Bhim Nagar, Meerut - UPPCB",11-01-2024 00:00:00,28.9535882,77.7622941,SO2,3,8,5
India,Uttar_Pradesh,Meerut,"Pallavpuram Phase 2, Meerut - UPPCB",11-01-2024 00:00:00,29.063510,77.709723,PM2.5,85,349,195
India,Uttar_Pradesh,Meerut,"Pallavpuram Phase 2, Meerut - UPPCB",11-01-2024 00:00:00,29.063510,77.709723,NO2,16,29,21
India,Uttar_Pradesh,Meerut,"Pallavpuram Phase 2, Meerut - UPPCB",11-01-2024 00:00:00,29.063510,77.709723,NH3,3,5,4
India,Uttar_Pradesh,Meerut,"Pallavpuram Phase 2, Meerut - UPPCB",11-01-2024 00:00:00,29.063510,77.709723,SO2,3,8,5
India,Uttar_Pradesh,Moradabad,"Employment Office, Moradabad - UPPCB",11-01-2024 00:00:00,28.88528,78.73880,NO2,19,26,25
India,Uttar_Pradesh,Moradabad,"Jigar Colony, Moradabad - UPPCB",11-01-2024 00:00:00,28.856664,78.772638,CO,30,52,44
India,Uttar_Pradesh,Moradabad,"Kashiram Nagar, Moradabad - UPPCB",11-01-2024 00:00:00,28.849399,78.742362,PM2.5,53,176,83
India,Uttar_Pradesh,Moradabad,"Transport Nagar, Moradabad - UPPCB",11-01-2024 00:00:00,28.802625,78.753728,NH3,6,6,6
India,Uttar_Pradesh,Moradabad,"Transport Nagar, Moradabad - UPPCB",11-01-2024 00:00:00,28.802625,78.753728,CO,27,42,41
India,Uttar_Pradesh,Muzaffarnagar,"New Mandi, Muzaffarnagar - UPPCB",11-01-2024 00:00:00,29.4723508,77.7194031,OZONE,8,35,22
India,Uttar_Pradesh,Noida,"Sector - 125, Noida - UPPCB",11-01-2024 00:00:00,28.5447608,77.3231257,PM2.5,88,314,194
India,Uttar_Pradesh,Noida,"Sector - 125, Noida - UPPCB",11-01-2024 00:00:00,28.5447608,77.3231257,NO2,53,157,89
India,Uttar_Pradesh,Noida,"Sector - 62, Noida - IMD",11-01-2024 00:00:00,28.6245479,77.3577104,PM10,135,419,263
India,Uttar_Pradesh,Noida,"Sector - 62, Noida - IMD",11-01-2024 00:00:00,28.6245479,77.3577104,NO2,23,58,36
India,Uttar_Pradesh,Noida,"Sector-1, Noida - UPPCB",11-01-2024 00:00:00,28.5898,77.3101,CO,14,109,83
India,Uttar_Pradesh,Noida,"Sector-116, Noida - UPPCB",11-01-2024 00:00:00,28.569230,77.393848,CO,37,86,68
India,Uttar_Pradesh,Prayagraj,"Motilal Nehru NIT, Prayagraj - UPPCB",11-01-2024 00:00:00,25.494,81.863,PM10,59,96,75
India,Uttar_Pradesh,Varanasi,"Ardhali Bazar, Varanasi - UPPCB",11-01-2024 00:00:00,25.3505986,82.9083074,PM2.5,22,51,35
India,Uttar_Pradesh,Varanasi,"Ardhali Bazar, Varanasi - UPPCB",11-01-2024 00:00:00,25.3505986,82.9083074,OZONE,16,22,18
India,Uttar_Pradesh,Varanasi,"Bhelupur, Varanasi - UPPCB",11-01-2024 00:00:00,25.301778,82.996789,SO2,19,19,19
India,Uttar_Pradesh,Varanasi,"IESD Banaras Hindu University, Varanasi - UPPCB",11-01-2024 00:00:00,25.262326,82.995408,SO2,15,16,15
India,Uttar_Pradesh,Vrindavan,"Omex Eternity, Vrindavan - UPPCB",11-01-2024 00:00:00,27.5714090,77.6557570,OZONE,24,26,25
India,Uttarakhand,Rishikesh,"Shivaji Nagar, Rishikesh - UKPCB",11-01-2024 00:00:00,30.075911,78.2859547,PM10,54,143,102
India,Uttarakhand,Rishikesh,"Shivaji Nagar, Rishikesh - UKPCB",11-01-2024 00:00:00,30.075911,78.2859547,NO2,10,17,13
India,Uttarakhand,Rishikesh,"Shivaji Nagar, Rishikesh - UKPCB",11-01-2024 00:00:00,30.075911,78.2859547,NH3,2,3,2
India,Uttarakhand,Rishikesh,"Shivaji Nagar, Rishikesh - UKPCB",11-01-2024 00:00:00,30.075911,78.2859547,CO,38,58,49
India,West_Bengal,Barrackpore,"SVSPA Campus, Barrackpore - WBPCB",11-01-2024 00:00:00,22.7605581,88.3617589,SO2,NA,NA,NA
India,West_Bengal,Durgapur,"Sidhu Kanhu Indoor Stadium, Durgapur - WBPCB",11-01-2024 00:00:00,23.5404352,87.2892225,SO2,22,38,30
India,West_Bengal,Durgapur,"Sidhu Kanhu Indoor Stadium, Durgapur - WBPCB",11-01-2024 00:00:00,23.5404352,87.2892225,CO,28,88,53
India,West_Bengal,Haldia,"Priyambada Housing Estate, Haldia - WBPCB",11-01-2024 00:00:00,22.06047,88.109737,NH3,4,7,5
India,West_Bengal,Howrah,"Belur Math, Howrah - WBPCB",11-01-2024 00:00:00,22.629801,88.352017,PM10,110,296,183
India,West_Bengal,Howrah,"Belur Math, Howrah - WBPCB",11-01-2024 00:00:00,22.629801,88.352017,SO2,7,15,11
India,West_Bengal,Kolkata,"Ballygunge, Kolkata - WBPCB",11-01-2024 00:00:00,22.5367507,88.3638022,NH3,14,26,17
India,West_Bengal,Kolkata,"Bidhannagar, Kolkata - WBPCB",11-01-2024 00:00:00,22.58157048,88.41002457,NO2,20,70,42
India,West_Bengal,Kolkata,"Bidhannagar, Kolkata - WBPCB",11-01-2024 00:00:00,22.58157048,88.41002457,OZONE,4,93,11
India,West_Bengal,Kolkata,"Fort William, Kolkata - WBPCB",11-01-2024 00:00:00,22.556640,88.342674,NH3,NA,NA,NA
India,West_Bengal,Kolkata,"Fort William, Kolkata - WBPCB",11-01-2024 00:00:00,22.556640,88.342674,CO,24,109,69
India,West_Bengal,Kolkata,"Jadavpur, Kolkata - WBPCB",11-01-2024 00:00:00,22.49929,88.36917,OZONE,6,37,20
India,West_Bengal,Kolkata,"Rabindra Bharati University, Kolkata - WBPCB",11-01-2024 00:00:00,22.627847,88.380669,CO,32,126,73
India,West_Bengal,Kolkata,"Rabindra Bharati University, Kolkata - WBPCB",11-01-2024 00:00:00,22.627847,88.380669,OZONE,1,98,30
India,West_Bengal,Kolkata,"Rabindra Sarobar, Kolkata - WBPCB",11-01-2024 00:00:00,22.51106,88.35142,SO2,11,54,26
India,West_Bengal,Kolkata,"Victoria, Kolkata - WBPCB",11-01-2024 00:00:00,22.5448082,88.3403691,NH3,1,4,2
India,West_Bengal,Siliguri,"Ward-32 Bapupara, Siliguri - WBPCB",11-01-2024 00:00:00,26.6879226,88.4152495,PM10,73,148,103
India,Andhra_Pradesh,Amaravati,"Secretariat, Amaravati - APPCB",11-01-2024 00:00:00,16.5150833,80.5181667,PM10,112,167,135
India,Andhra_Pradesh,Amaravati,"Secretariat, Amaravati - APPCB",11-01-2024 00:00:00,16.5150833,80.5181667,NO2,13,57,21
India,Andhra_Pradesh,Amaravati,"Secretariat, Amaravati - APPCB",11-01-2024 00:00:00,16.5150833,80.5181667,NH3,1,4,4
India,Andhra_Pradesh,Amaravati,"Secretariat, Amaravati - APPCB",11-01-2024 00:00:00,16.5150833,80.5181667,OZONE,21,74,41
India,Andhra_Pradesh,Chittoor,"Gangineni Cheruvu, Chittoor - APPCB",11-01-2024 00:00:00,13.204880,79.097889,NO2,4,27,11
India,Andhra_Pradesh,Kadapa,"Yerramukkapalli, Kadapa - APPCB",11-01-2024 00:00:00,14.465052,78.824187,OZONE,25,54,41
India,Andhra_Pradesh,Tirupati,"Tirumala, Tirupati - APPCB",11-01-2024 00:00:00,13.67,79.35,PM10,60,90,70
India,Andhra_Pradesh,Tirupati,"Vaikuntapuram, Tirupati - APPCB",11-01-2024 00:00:00,13.615387,79.409230,CO,14,14,14
India,Andhra_Pradesh,Tirupati,"Vaikuntapuram, Tirupati - APPCB",11-01-2024 00:00:00,13.615387,79.409230,OZONE,13,36,25
India,Andhra_Pradesh,Vijayawada,"HB Colony, Vijayawada - APPCB",11-01-2024 00:00:00,16.536107,80.594233,PM2.5,49,99,66
India,Andhra_Pradesh,Vijayawada,"HB Colony, Vijayawada - APPCB",11-01-2024 00:00:00,16.536107,80.594233,CO,21,28,28
India,Andhra_Pradesh,Vijayawada,"Kanuru, Vijayawada - APPCB",11-01-2024 00:00:00,16.486692,80.699436,PM2.5,70,178,124
India,Andhra_Pradesh,Vijayawada,"Kanuru, Vijayawada - APPCB",11-01-2024 00:00:00,16.486692,80.699436,NH3,1,1,1
India,Andhra_Pradesh,Vijayawada,"Rajiv Gandhi Park, Vijayawada - APPCB",11-01-2024 00:00:00,16.509717,80.612222,SO2,NA,NA,NA
India,Andhra_Pradesh,Vijayawada,"Rajiv Gandhi Park, Vijayawada - APPCB",11-01-2024 00:00:00,16.509717,80.612222,OZONE,7,85,36
India,Andhra_Pradesh,Visakhapatnam,"GVM Corporation, Visakhapatnam - APPCB",11-01-2024 00:00:00,17.72,83.3,PM10,116,292,187
India,Andhra_Pradesh,Visakhapatnam,"GVM Corporation, Visakhapatnam - APPCB",11-01-2024 00:00:00,17.72,83.3,NH3,3,5,4
India,Arunachal_Pradesh,Naharlagun,"Naharlagun, Naharlagun - APSPCB",11-01-2024 00:00:00,27.103358,93.679645,OZONE,2,2,2
India,Assam,Byrnihat,"Central Academy for SFS, Byrnihat - PCBA",11-01-2024 00:00:00,26.071318,91.87488,PM2.5,NA,NA,NA
India,Assam,Byrnihat,"Central Academy for SFS, Byrnihat - PCBA",11-01-2024 00:00:00,26.071318,91.87488,PM10,NA,NA,NA
India,Assam,Byrnihat,"Central Academy for SFS, Byrnihat - PCBA",11-01-2024 00:00:00,26.071318,91.87488,NH3,NA,NA,NA
India,Assam,Byrnihat,"Central Academy for SFS, Byrnihat - PCBA",11-01-2024 00:00:00,26.071318,91.87488,SO2,NA,NA,NA
India,Assam,Guwahati,"Pan Bazaar, Guwahati - PCBA",11-01-2024 00:00:00,26.187500,91.744194,CO,51,104,76
India,Assam,Guwahati,"Railway Colony, Guwahati - PCBA",11-01-2024 00:00:00,26.181742,91.78063,OZONE,6,37,24
India,Assam,Nagaon,"Christianpatty, Nagaon - PCBA",11-01-2024 00:00:00,26.349082,92.68449,NH3,3,5,4
India,Assam,Nalbari,"Bata Chowk, Nalbari - PCBA",11-01-2024 00:00:00,26.446912,91.439057,PM2.5,65,459,246
India,Assam,Nalbari,"Bata Chowk, Nalbari - PCBA",11-01-2024 00:00:00,26.446912,91.439057,PM10,109,436,192
India,Assam,Nalbari,"Bata Chowk, Nalbari - PCBA",11-01-2024 00:00:00,26.446912,91.439057,CO,14,112,91
India,Assam,Nalbari,"Bata Chowk, Nalbari - PCBA",11-01-2024 00:00:00,26.446912,91.439057,OZONE,9,20,18
India,Assam,Silchar,"Tarapur, Silchar - PCBA",11-01-2024 00:00:00,24.82827,92.79525,PM2.5,32,39,35
India,Assam,Silchar,"Tarapur, Silchar - PCBA",11-01-2024 00:00:00,24.82827,92.79525,SO2,6,11,8
India,Assam,Silchar,"Tarapur, Silchar - PCBA",11-01-2024 00:00:00,24.82827,92.79525,OZONE,NA,NA,NA
India,Bihar,Araria,"Kharahiya Basti, Araria - BSPCB",11-01-2024 00:00:00,26.146529,87.454184,SO2,12,17,16
India,Bihar,Aurangabad,"Gurdeo Nagar, Aurangabad - BSPCB",11-01-2024 00:00:00,24.75746,84.366208,PM2.5,33,100,63
India,Bihar,Bettiah,"Kamalnath Nagar, Bettiah - BSPCB",11-01-2024 00:00:00,26.80365,84.51954,CO,20,112,101
India,Bihar,Bettiah,"Kamalnath Nagar, Bettiah - BSPCB",11-01-2024 00:00:00,26.80365,84.51954,OZONE,6,47,33
India,Bihar,Bhagalpur,"DM Office_Kachari Chowk, Bhagalpur - BSPCB",11-01-2024 00:00:00,25.251013,86.989001,NH3,4,8,5
India,Bihar,Bhagalpur,"DM Office_Kachari Chowk, Bhagalpur - BSPCB",11-01-2024 00:00:00,25.251013,86.989001,OZONE,19,30,25
India,Bihar,Bhagalpur,"Mayaganj, Bhagalpur - BSPCB",11-01-2024 00:00:00,25.265194,87.012947,NH3,8,9,9
India,Bihar,Bhagalpur,"Mayaganj, Bhagalpur - BSPCB",11-01-2024 00:00:00,25.265194,87.012947,SO2,10,13,12
India,Bihar,Bhagalpur,"Mayaganj, Bhagalpur - BSPCB",11-01-2024 00:00:00,25.265194,87.012947,OZONE,10,61,31
India,Bihar,Bihar Sharif,"D M Colony, Bihar Sharif - BSPCB",11-01-2024 00:00:00,25.204762,85.514960,PM10,101,158,127
India,Bihar,Chhapra,"Darshan Nagar, Chhapra - BSPCB",11-01-2024 00:00:00,25.7808257,84.7446768,NO2,10,19,14
India,Bihar,Hajipur,"Industrial Area, Hajipur - BSPCB",11-01-2024 00:00:00,25.697189,85.245900,PM10,143,337,210
India,Bihar,Katihar,"Mirchaibari, Katihar - BSPCB",11-01-2024 00:00:00,25.560083,87.553265,NH3,3,5,4
India,Bihar,Kishanganj,"SDM Office_Khagra, Kishanganj - BSPCB",11-01-2024 00:00:00,26.0881305,87.93840336,NH3,10,12,11
India,Bihar,Manguraha,"Forest Rest House, Manguraha - BSPCB",11-01-2024 00:00:00,27.308328,84.531742,PM10,37,129,92
India,Bihar,Motihari,"Gandak Colony, Motihari - BSPCB",11-01-2024 00:00:00,26.63086,84.90051,SO2,2,5,4
India,Bihar,Munger,"Town Hall, Munger - BSPCB",11-01-2024 00:00:00,25.376776,86.471523,PM2.5,113,318,209
India,Bihar,Muzaffarpur,"Buddha Colony, Muzaffarpur - BSPCB",11-01-2024 00:00:00,26.11442,85.39813,PM2.5,77,334,307
India,Bihar,Muzaffarpur,"Buddha Colony, Muzaffarpur - BSPCB",11-01-2024 00:00:00,26.11442,85.39813,NO2,7,61,25
India,Bihar,Muzaffarpur,"Buddha Colony, Muzaffarpur - BSPCB",11-01-2024 00:00:00,26.11442,85.39813,SO2,2,10,7
India,Bihar,Muzaffarpur,"Buddha Colony, Muzaffarpur - BSPCB",11-01-2024 00:00:00,26.11442,85.39813,CO,26,84,56
India,Bihar,Patna,"Govt. High School Shikarpur, Patna - BSPCB",11-01-2024 00:00:00,25.592539,85.227158,PM10,95,180,126
India,Bihar,Patna,"Govt. High School Shikarpur, Patna - BSPCB",11-01-2024 00:00:00,25.592539,85.227158,NO2,12,32,21
India,Bihar,Patna,"Govt. High School Shikarpur, Patna - BSPCB",11-01-2024 00:00:00,25.592539,85.227158,OZONE,11,46,25
India,Bihar,Patna,"IGSC Planetarium Complex, Patna - BSPCB",11-01-2024 00:00:00,25.610369,85.132568,CO,56,88,70
India,Bihar,Patna,"Muradpur, Patna - BSPCB",11-01-2024 00:00:00,25.619651,85.147382,PM10,209,402,275
India,Bihar,Patna,"Muradpur, Patna - BSPCB",11-01-2024 00:00:00,25.619651,85.147382,NO2,12,24,17
India,Bihar,Patna,"Rajbansi Nagar, Patna - BSPCB",11-01-2024 00:00:00,25.599486,85.113666,NO2,58,95,72
India,Bihar,Patna,"Rajbansi Nagar, Patna - BSPCB",11-01-2024 00:00:00,25.599486,85.113666,OZONE,3,48,17
India,Bihar,Purnia,"Mariam Nagar, Purnia - BSPCB",11-01-2024 00:00:00,25.366336,87.117468,NO2,12,13,13
India,Bihar,Purnia,"Mariam Nagar, Purnia - BSPCB",11-01-2024 00:00:00,25.366336,87.117468,SO2,18,20,19
India,Bihar,Saharsa,"Police Line, Saharsa - BSPCB",11-01-2024 00:00:00,25.892357,86.590325,NO2,6,8,7
India,Bihar,Saharsa,"Police Line, Saharsa - BSPCB",11-01-2024 00:00:00,25.892357,86.590325,CO,1,46,26
India,Bihar,Saharsa,"Police Line, Saharsa - BSPCB",11-01-2024 00:00:00,25.892357,86.590325,OZONE,2,5,3
India,Bihar,Samastipur,"DM Office_Kasipur, Samastipur - BSPCB",11-01-2024 00:00:00,25.859655,85.77944,PM2.5,75,187,112
India,Bihar,Sasaram,"Dada Peer, Sasaram - BSPCB",11-01-2024 00:00:00,24.952822,84.002396,PM2.5,53,277,160
India,Bihar,Sasaram,"Dada Peer, Sasaram - BSPCB",11-01-2024 00:00:00,24.952822,84.002396,NO2,1,11,6
India,Bihar,Sasaram,"Dada Peer, Sasaram - BSPCB",11-01-2024 00:00:00,24.952822,84.002396,OZONE,4,5,4
India,Bihar,Siwan,"Chitragupta Nagar, Siwan - BSPCB",11-01-2024 00:00:00,26.2271665,84.3570427,NO2,19,64,33
India,Bihar,Siwan,"Chitragupta Nagar, Siwan - BSPCB",11-01-2024 00:00:00,26.2271665,84.3570427,NH3,2,6,3
India,Bihar,Siwan,"Chitragupta Nagar, Siwan - BSPCB",11-01-2024 00:00:00,26.2271665,84.3570427,SO2,32,35,33
India,Chandigarh,Chandigarh,"Sector 22, Chandigarh - CPCC",11-01-2024 00:00:00,30.735567,76.775714,PM2.5,200,337,283
India,Chandigarh,Chandigarh,"Sector-53, Chandigarh - CPCC",11-01-2024 00:00:00,30.719859,76.738637,NO2,10,14,12
India,Chandigarh,Chandigarh,"Sector-53, Chandigarh - CPCC",11-01-2024 00:00:00,30.719859,76.738637,NH3,4,6,5
India,Chhattisgarh,Bhilai,"32Bungalows, Bhilai - CECB",11-01-2024 00:00:00,21.194815,81.314770,PM10,98,195,150
India,Chhattisgarh,Bhilai,"Civic Center, Bhilai - Bhilai Steel Plant",11-01-2024 00:00:00,21.185571,81.343175,NO2,10,15,10
India,Chhattisgarh,Bhilai,"Civic Center, Bhilai - Bhilai Steel Plant",11-01-2024 00:00:00,21.185571,81.343175,CO,4,72,43
India,Chhattisgarh,Bhilai,"Hathkhoj, Bhilai - CECB",11-01-2024 00:00:00,21.224231,81.408350,PM2.5,66,312,231
India,Chhattisgarh,Bhilai,"Hathkhoj, Bhilai - CECB",11-01-2024 00:00:00,21.224231,81.408350,NO2,39,100,71
India,Chhattisgarh,Chhal,"Nawapara SECL Colony, Chhal - CECB",11-01-2024 00:00:00,22.118125,83.140608,PM2.5,78,182,137
India,Chhattisgarh,Chhal,"Nawapara SECL Colony, Chhal - CECB",11-01-2024 00:00:00,22.118125,83.140608,PM10,52,131,100
India,Chhattisgarh,Chhal,"Nawapara SECL Colony, Chhal - CECB",11-01-2024 00:00:00,22.118125,83.140608,CO,70,120,89
India,Chhattisgarh,Korba,"Rampur, Korba - CECB",11-01-2024 00:00:00,22.368195,82.746431,PM10,90,121,108
India,Chhattisgarh,Korba,"Rampur, Korba - CECB",11-01-2024 00:00:00,22.368195,82.746431,NH3,3,7,4
India,Chhattisgarh,Korba,"Rampur, Korba - CECB",11-01-2024 00:00:00,22.368195,82.746431,OZONE,2,22,4
India,Chhattisgarh,Korba,"Urja Nagar, Korba - CECB",11-01-2024 00:00:00,22.348441,82.549611,PM2.5,24,65,44
India,Chhattisgarh,Korba,"Urja Nagar, Korba - CECB",11-01-2024 00:00:00,22.348441,82.549611,PM10,58,116,83
India,Chhattisgarh,Korba,"Urja Nagar, Korba - CECB",11-01-2024 00:00:00,22.348441,82.549611,NH3,1,9,4
India,Chhattisgarh,Kunjemura,"OP Jindal School, Kunjemura - CECB",11-01-2024 00:00:00,22.126650,83.483212,PM2.5,61,116,93
India,Chhattisgarh,Kunjemura,"OP Jindal School, Kunjemura - CECB",11-01-2024 00:00:00,22.126650,83.483212,CO,45,110,52
India,Chhattisgarh,Milupara,"Govt. Higher Secondary School, Milupara - CECB",11-01-2024 00:00:00,22.1910172,83.5197009,SO2,8,53,22
India,Chhattisgarh,Milupara,"Govt. Higher Secondary School, Milupara - CECB",11-01-2024 00:00:00,22.1910172,83.5197009,OZONE,4,112,41
India,Chhattisgarh,Raipur,"AIIMS, Raipur - CECB",11-01-2024 00:00:00,21.258815,81.578979,SO2,6,65,12
India,Chhattisgarh,Raipur,"Bhatagaon New ISBT, Raipur - CECB",11-01-2024 00:00:00,21.219665,81.630094,SO2,NA,NA,NA
India,Chhattisgarh,Raipur,"Krishak Nagar, Raipur - CECB",11-01-2024 00:00:00,21.237755,81.705301,PM2.5,74,120,94
India,Chhattisgarh,Raipur,"Krishak Nagar, Raipur - CECB",11-01-2024 00:00:00,21.237755,81.705301,PM10,97,137,110
India,Chhattisgarh,Raipur,"Siltara Phase-II, Raipur - CECB",11-01-2024 00:00:00,21.371751,81.664929,CO,38,82,53
India,Delhi,Delhi,"Alipur, Delhi - DPCC",11-01-2024 00:00:00,28.815329,77.153010,PM10,109,272,159
India,Delhi,Delhi,"Alipur, Delhi - DPCC",11-01-2024 00:00:00,28.815329,77.153010,NO2,16,42,23
India,Delhi,Delhi,"Anand Vihar, Delhi - DPCC",11-01-2024 00:00:00,28.647622,77.3158090,PM2.5,282,405,340
India,Delhi,Delhi,"Anand Vihar, Delhi - DPCC",11-01-2024 00:00:00,28.647622,77.3158090,NO2,32,116,72
India,Delhi,Delhi,"Anand Vihar, Delhi - DPCC",11-01-2024 00:00:00,28.647622,77.3158090,NH3,8,11,9
India,Delhi,Delhi,"Aya Nagar, Delhi - IMD",11-01-2024 00:00:00,28.4706914,77.1099364,CO,60,86,76
India,Delhi,Delhi,"Bawana, Delhi - DPCC",11-01-2024 00:00:00,28.776200,77.051074,SO2,2,5,3
India,Delhi,Delhi,"CRRI Mathura Road, Delhi - IMD",11-01-2024 00:00:00,28.5512005,77.2735737,NO2,23,26,25
India,Delhi,Delhi,"DTU, Delhi - CPCB",11-01-2024 00:00:00,28.7500499,77.1112615,NH3,11,17,13
India,Delhi,Delhi,"DTU, Delhi - CPCB",11-01-2024 00:00:00,28.7500499,77.1112615,CO,25,62,45
India,Delhi,Delhi,"Dwarka-Sector 8, Delhi - DPCC ",11-01-2024 00:00:00,28.5710274,77.0719006,NO2,16,63,36
India,Delhi,Delhi,"Dwarka-Sector 8, Delhi - DPCC ",11-01-2024 00:00:00,28.5710274,77.0719006,SO2,5,7,6
India,Delhi,Delhi,"IHBAS, Dilshad Garden, Delhi - CPCB",11-01-2024 00:00:00,28.6811736,77.3025234,PM2.5,67,306,165
India,Delhi,Delhi,"ITO, Delhi - CPCB",11-01-2024 00:00:00,28.628624,77.241060,CO,34,102,85
India,Delhi,Delhi,"Jahangirpuri, Delhi - DPCC",11-01-2024 00:00:00,28.732820,77.170633,NO2,24,48,32
India,Delhi,Delhi,"Lodhi Road, Delhi - IITM",11-01-2024 00:00:00,28.588333,77.221667,NO2,NA,NA,NA
India,Delhi,Delhi,"Mandir Marg, Delhi - DPCC",11-01-2024 00:00:00,28.636429,77.201067,NH3,13,15,14
India,Delhi,Delhi,"Mandir Marg, Delhi - DPCC",11-01-2024 00:00:00,28.636429,77.201067,SO2,1,14,7
India,Delhi,Delhi,"Mandir Marg, Delhi - DPCC",11-01-2024 00:00:00,28.636429,77.201067,CO,8,89,60
India,Delhi,Delhi,"Mundka, Delhi - DPCC",11-01-2024 00:00:00,28.684678,77.076574,NH3,7,14,10
India,Delhi,Delhi,"Mundka, Delhi - DPCC",11-01-2024 00:00:00,28.684678,77.076574,SO2,13,15,14
India,Delhi,Delhi,"Mundka, Delhi - DPCC",11-01-2024 00:00:00,28.684678,77.076574,OZONE,3,27,12
India,Delhi,Delhi,"NSIT Dwarka, Delhi - CPCB",11-01-2024 00:00:00,28.60909,77.0325413,PM2.5,255,401,323
India,Delhi,Delhi,"NSIT Dwarka, Delhi - CPCB",11-01-2024 00:00:00,28.60909,77.0325413,NH3,7,8,7
India,Delhi,Delhi,"Najafgarh, Delhi - DPCC",11-01-2024 00:00:00,28.570173,76.933762,OZONE,5,75,31
India,Delhi,Delhi,"Narela, Delhi - DPCC",11-01-2024 00:00:00,28.822836,77.101981,PM2.5,218,364,290
India,Delhi,Delhi,"Narela, Delhi - DPCC",11-01-2024 00:00:00,28.822836,77.101981,NO2,19,49,29
India,Delhi,Delhi,"Nehru Nagar, Delhi - DPCC",11-01-2024 00:00:00,28.567890,77.250515,NH3,21,35,24
India,Delhi,Delhi,"Nehru Nagar, Delhi - DPCC",11-01-2024 00:00:00,28.567890,77.250515,CO,45,82,75
India,Delhi,Delhi,"New Moti Bagh, Delhi - MHUA",11-01-2024 00:00:00,28.57834,77.18400,NO2,1,7,3
India,Delhi,Delhi,"North Campus, DU, Delhi - IMD",11-01-2024 00:00:00,28.6573814,77.1585447,PM10,124,406,206
India,Delhi,Delhi,"Patparganj, Delhi - DPCC",11-01-2024 00:00:00,28.623763,77.287209,PM2.5,272,418,332
India,Delhi,Delhi,"Patparganj, Delhi - DPCC",11-01-2024 00:00:00,28.623763,77.287209,CO,16,88,65
India,Delhi,Delhi,"Punjabi Bagh, Delhi - DPCC",11-01-2024 00:00:00,28.674045,77.131023,PM10,106,384,238
India,Delhi,Delhi,"Punjabi Bagh, Delhi - DPCC",11-01-2024 00:00:00,28.674045,77.131023,OZONE,7,10,8
India,Delhi,Delhi,"Pusa, Delhi - DPCC",11-01-2024 00:00:00,28.639652,77.146275,PM10,154,445,306
India,Delhi,Delhi,"Pusa, Delhi - DPCC",11-01-2024 00:00:00,28.639652,77.146275,SO2,2,12,8
India,Delhi,Delhi,"Pusa, Delhi - IMD",11-01-2024 00:00:00,28.636110,77.173332,NO2,16,37,24
India,Delhi,Delhi,"R K Puram, Delhi - DPCC",11-01-2024 00:00:00,28.563262,77.186937,PM2.5,262,408,335
India,Delhi,Delhi,"Sirifort, Delhi - CPCB",11-01-2024 00:00:00,28.5504249,77.2159377,CO,15,50,36
India,Delhi,Delhi,"Sri Aurobindo Marg, Delhi - DPCC",11-01-2024 00:00:00,28.531346,77.190156,NH3,9,13,12
India,Delhi,Delhi,"Sri Aurobindo Marg, Delhi - DPCC",11-01-2024 00:00:00,28.531346,77.190156,SO2,8,15,10
India,Delhi,Delhi,"Vivek Vihar, Delhi - DPCC",11-01-2024 00:00:00,28.672342,77.315260,PM10,132,405,236
India,Delhi,Delhi,"Vivek Vihar, Delhi - DPCC",11-01-2024 00:00:00,28.672342,77.315260,SO2,7,8,7
India,Delhi,Delhi,"Vivek Vihar, Delhi - DPCC",11-01-2024 00:00:00,28.672342,77.315260,OZONE,2,21,6
India,Delhi,Delhi,"Wazirpur, Delhi - DPCC",11-01-2024 00:00:00,28.699793,77.165453,PM2.5,283,407,339
India,Delhi,Delhi,"Wazirpur, Delhi - DPCC",11-01-2024 00:00:00,28.699793,77.165453,OZONE,3,25,10
India,Gujarat,Ahmedabad,"Chandkheda, Ahmedabad - IITM",11-01-2024 00:00:00,23.107969,72.574648,NH3,3,3,3
India,Gujarat,Ahmedabad,"Chandkheda, Ahmedabad - IITM",11-01-2024 00:00:00,23.107969,72.574648,CO,3,62,26
India,Gujarat,Ahmedabad,"Gyaspur, Ahmedabad - IITM",11-01-2024 00:00:00,22.977134,72.553024,SO2,8,8,8
India,Gujarat,Ahmedabad,"Gyaspur, Ahmedabad - IITM",11-01-2024 00:00:00,22.977134,72.553024,CO,20,28,26
India,Gujarat,Ahmedabad,"Maninagar, Ahmedabad - GPCB",11-01-2024 00:00:00,23.002657,72.591912,CO,10,51,28
India,Gujarat,Ahmedabad,"Raikhad, Ahmedabad - IITM",11-01-2024 00:00:00,23.020509,72.579261,OZONE,10,13,13
India,Gujarat,Ahmedabad,"Rakhial, Ahmedabad - IITM",11-01-2024 00:00:00,23.016834,72.625775,NH3,2,8,5
India,Gujarat,Ahmedabad,"SAC ISRO Satellite, Ahmedabad - IITM",11-01-2024 00:00:00,23.023389,72.515201,SO2,4,9,5
India,Gujarat,Ahmedabad,"SAC ISRO Satellite, Ahmedabad - IITM",11-01-2024 00:00:00,23.023389,72.515201,OZONE,2,20,11
India,Gujarat,Ahmedabad,"SVPI Airport Hansol, Ahmedabad - IITM",11-01-2024 00:00:00,23.076793,72.627874,NO2,10,10,10
India,Gujarat,Ahmedabad,"Sardar Vallabhbhai Patel Stadium, Ahmedabad - IITM",11-01-2024 00:00:00,23.043070,72.562968,PM2.5,63,223,141
India,Gujarat,Ahmedabad,"Sardar Vallabhbhai Patel Stadium, Ahmedabad - IITM",11-01-2024 00:00:00,23.043070,72.562968,PM10,75,162,129
India,Gujarat,Ahmedabad,"Sardar Vallabhbhai Patel Stadium, Ahmedabad - IITM",11-01-2024 00:00:00,23.043070,72.562968,OZONE,1,15,9
India,Gujarat,Ankleshwar,"GIDC, Ankleshwar - GPCB",11-01-2024 00:00:00,21.613267,73.010555,PM2.5,63,178,119
India,Gujarat,Ankleshwar,"GIDC, Ankleshwar - GPCB",11-01-2024 00:00:00,21.613267,73.010555,OZONE,20,35,26
India,Gujarat,Gandhinagar,"GIFT City, Gandhinagar - IITM",11-01-2024 00:00:00,23.163798,72.677768,PM2.5,52,142,82
India,Gujarat,Gandhinagar,"GIFT City, Gandhinagar - IITM",11-01-2024 00:00:00,23.163798,72.677768,NH3,2,2,2
India,Gujarat,Gandhinagar,"IIPHG Lekawada, Gandhinagar - IITM",11-01-2024 00:00:00,23.243639,72.68994,PM10,79,96,85
India,Gujarat,Gandhinagar,"IIPHG Lekawada, Gandhinagar - IITM",11-01-2024 00:00:00,23.243639,72.68994,CO,20,73,44
India,Gujarat,Gandhinagar,"Sector-10, Gandhinagar - GPCB",11-01-2024 00:00:00,23.221714,72.654328,SO2,1,25,7
India,Gujarat,Gandhinagar,"Sector-10, Gandhinagar - GPCB",11-01-2024 00:00:00,23.221714,72.654328,OZONE,15,29,17
India,Gujarat,Surat,"Science Center, Surat - SMC",11-01-2024 00:00:00,21.170046,72.795405,SO2,13,17,15
India,Gujarat,Vapi,"Phase-1 GIDC, Vapi - GPCB",11-01-2024 00:00:00,20.362421,72.918013,PM10,60,213,150
India,Gujarat,Vapi,"Phase-1 GIDC, Vapi - GPCB",11-01-2024 00:00:00,20.362421,72.918013,CO,104,189,93
India,Gujarat,Vatva,"Phase-4 GIDC, Vatva - GPCB",11-01-2024 00:00:00,22.969611,72.643500,NO2,7,72,24
India,Gujarat,Vatva,"Phase-4 GIDC, Vatva - GPCB",11-01-2024 00:00:00,22.969611,72.643500,SO2,4,5,5
India,Gujarat,Vatva,"Phase-4 GIDC, Vatva - GPCB",11-01-2024 00:00:00,22.969611,72.643500,CO,38,40,39
India,Haryana,Ballabgarh,"Nathu Colony, Ballabgarh - HSPCB",11-01-2024 00:00:00,28.3419248,77.319699,PM2.5,117,331,201
India,Haryana,Ballabgarh,"Nathu Colony, Ballabgarh - HSPCB",11-01-2024 00:00:00,28.3419248,77.319699,PM10,103,235,158
India,Haryana,Ballabgarh,"Nathu Colony, Ballabgarh - HSPCB",11-01-2024 00:00:00,28.3419248,77.319699,OZONE,7,18,11
India,Haryana,Bhiwani,"H.B. Colony, Bhiwani - HSPCB",11-01-2024 00:00:00,28.806223,76.141105,PM10,89,179,146
India,Haryana,Bhiwani,"H.B. Colony, Bhiwani - HSPCB",11-01-2024 00:00:00,28.806223,76.141105,NO2,2,11,8
India,Haryana,Faridabad,"New Industrial Town, Faridabad - HSPCB",11-01-2024 00:00:00,28.39072,77.30059,NH3,2,4,3
India,Haryana,Faridabad,"New Industrial Town, Faridabad - HSPCB",11-01-2024 00:00:00,28.39072,77.30059,OZONE,30,95,95
India,Haryana,Faridabad,"Sector 11, Faridabad - HSPCB",11-01-2024 00:00:00,28.376058,77.315741,NH3,6,7,6
India,Haryana,Faridabad,"Sector 11, Faridabad - HSPCB",11-01-2024 00:00:00,28.376058,77.315741,SO2,1,55,14
India,Haryana,Faridabad,"Sector 30, Faridabad - HSPCB",11-01-2024 00:00:00,28.4417,77.3217,PM2.5,NA,NA,NA
India,Haryana,Faridabad,"Sector 30, Faridabad - HSPCB",11-01-2024 00:00:00,28.4417,77.3217,NO2,NA,NA,NA
India,Haryana,Faridabad,"Sector 30, Faridabad - HSPCB",11-01-2024 00:00:00,28.4417,77.3217,SO2,NA,NA,NA
India,Haryana,Fatehabad,"Huda Sector, Fatehabad - HSPCB",11-01-2024 00:00:00,29.503664,75.467934,PM10,143,189,160
India,Haryana,Gurugram,"Sector-51, Gurugram - HSPCB",11-01-2024 00:00:00,28.4227,77.0667,NO2,13,29,23
India,Haryana,Gurugram,"Teri Gram, Gurugram - HSPCB",11-01-2024 00:00:00,28.4275,77.1465,SO2,4,7,6
India,Haryana,Gurugram,"Vikas Sadan, Gurugram - HSPCB",11-01-2024 00:00:00,28.4501238,77.0263051,NO2,5,25,13
India,Haryana,Hisar,"Urban Estate-II, Hisar - HSPCB",11-01-2024 00:00:00,29.140560,75.744941,NO2,6,40,10
India,Haryana,Hisar,"Urban Estate-II, Hisar - HSPCB",11-01-2024 00:00:00,29.140560,75.744941,SO2,NA,NA,NA
India,Haryana,Jind,"Police Lines, Jind - HSPCB",11-01-2024 00:00:00,29.307814,76.337619,CO,2,162,85
India,Haryana,Kaithal,"Rishi Nagar, Kaithal - HSPCB",11-01-2024 00:00:00,29.8006,76.4155,SO2,8,15,11
India,Haryana,Kaithal,"Rishi Nagar, Kaithal - HSPCB",11-01-2024 00:00:00,29.8006,76.4155,OZONE,6,13,11
India,Haryana,Karnal,"Sector-12, Karnal - HSPCB",11-01-2024 00:00:00,29.695300,77.002700,NO2,NA,NA,NA
India,Haryana,Karnal,"Sector-12, Karnal - HSPCB",11-01-2024 00:00:00,29.695300,77.002700,CO,21,56,43
India,Haryana,Kurukshetra,"Sector-7, Kurukshetra - HSPCB",11-01-2024 00:00:00,29.966942,76.875879,PM10,102,147,121
India,Haryana,Kurukshetra,"Sector-7, Kurukshetra - HSPCB",11-01-2024 00:00:00,29.966942,76.875879,NO2,10,10,10
India,Haryana,Mandikhera,"General Hospital, Mandikhera - HSPCB",11-01-2024 00:00:00,27.9002,76.9938,NO2,NA,NA,NA
India,Haryana,Mandikhera,"General Hospital, Mandikhera - HSPCB",11-01-2024 00:00:00,27.9002,76.9938,SO2,NA,NA,NA
India,Haryana,Mandikhera,"General Hospital, Mandikhera - HSPCB",11-01-2024 00:00:00,27.9002,76.9938,OZONE,NA,NA,NA
India,Haryana,Narnaul,"Shastri Nagar, Narnaul - HSPCB",11-01-2024 00:00:00,28.060249,76.113115,PM2.5,65,342,90
India,Haryana,Narnaul,"Shastri Nagar, Narnaul - HSPCB",11-01-2024 00:00:00,28.060249,76.113115,NO2,17,48,33
India,Haryana,Narnaul,"Shastri Nagar, Narnaul - HSPCB",11-01-2024 00:00:00,28.060249,76.113115,NH3,5,15,11
India,Haryana,Narnaul,"Shastri Nagar, Narnaul - HSPCB",11-01-2024 00:00:00,28.060249,76.113115,OZONE,17,73,41
India,Haryana,Panipat,"Sector-18, Panipat - HSPCB",11-01-2024 00:00:00,29.497973,76.993331,CO,NA,NA,NA
India,Haryana,Panipat,"Sector-18, Panipat - HSPCB",11-01-2024 00:00:00,29.497973,76.993331,OZONE,NA,NA,NA
India,Haryana,Rohtak,"MD University, Rohtak - HSPCB",11-01-2024 00:00:00,28.52123,76.37138,NO2,47,56,51
India,Haryana,Yamuna Nagar,"Gobind Pura, Yamuna Nagar - HSPCB",11-01-2024 00:00:00,30.1480566,77.2893471,NO2,11,29,18
India,Haryana,Yamuna Nagar,"Gobind Pura, Yamuna Nagar - HSPCB",11-01-2024 00:00:00,30.1480566,77.2893471,SO2,1,105,12
India,Haryana,Yamuna Nagar,"Gobind Pura, Yamuna Nagar - HSPCB",11-01-2024 00:00:00,30.1480566,77.2893471,CO,27,60,45
India,Jharkhand,Dhanbad,"Kalakusuma, Dhanbad - DMC",11-01-2024 00:00:00,23.811548,86.481238,SO2,113,115,114
India,Jharkhand,Dhanbad,"Sardar Patel Nagar, Dhanbad - JSPCB",11-01-2024 00:00:00,23.80569,86.44268,PM2.5,51,309,133
India,Jharkhand,Pathardih,"Mohalbani Ghat, Pathardih - DMC",11-01-2024 00:00:00,23.669880,86.411725,PM2.5,76,76,76
India,Karnataka,Bagalkot,"Vidayagiri, Bagalkot - KSPCB",11-01-2024 00:00:00,16.172806,75.659694,PM2.5,18,36,34
India,Karnataka,Belgaum,"Ramteerth Nagar, Belgaum - KSPCB",11-01-2024 00:00:00,15.888653,74.541751,SO2,8,9,8
India,Karnataka,Bengaluru,"BTM Layout, Bengaluru - CPCB",11-01-2024 00:00:00,12.9135218,77.5950804,PM10,46,71,56
India,Karnataka,Bengaluru,"Bapuji Nagar, Bengaluru - KSPCB",11-01-2024 00:00:00,12.951913,77.539784,PM10,68,106,86
India,Karnataka,Bengaluru,"Bapuji Nagar, Bengaluru - KSPCB",11-01-2024 00:00:00,12.951913,77.539784,NO2,9,12,11
India,Karnataka,Bengaluru,"Hebbal, Bengaluru - KSPCB",11-01-2024 00:00:00,13.029152,77.585901,PM2.5,43,85,64
India,Karnataka,Bengaluru,"Hebbal, Bengaluru - KSPCB",11-01-2024 00:00:00,13.029152,77.585901,NH3,1,1,1
India,Karnataka,Bengaluru,"Hombegowda Nagar, Bengaluru - KSPCB",11-01-2024 00:00:00,12.938539,77.590100,NO2,30,39,34
India,Karnataka,Bengaluru,"Hombegowda Nagar, Bengaluru - KSPCB",11-01-2024 00:00:00,12.938539,77.590100,CO,10,26,21
India,Karnataka,Bengaluru,"Jayanagar 5th Block, Bengaluru - KSPCB",11-01-2024 00:00:00,12.920984,77.584908,PM10,61,129,105
India,Karnataka,Bengaluru,"Jigani, Bengaluru - KSPCB",11-01-2024 00:00:00,12.7816279,77.6299145,CO,48,82,71
India,Karnataka,Bengaluru,"Kasturi Nagar, Bengaluru - KSPCB",11-01-2024 00:00:00,13.003872,77.664217,PM2.5,52,92,82
India,Karnataka,Bengaluru,"Peenya, Bengaluru - CPCB",11-01-2024 00:00:00,13.0270199,77.494094,PM10,64,95,83
India,Karnataka,Bengaluru,"RVCE-Mailasandra, Bengaluru - KSPCB",11-01-2024 00:00:00,12.921418,77.502466,NH3,4,4,4
India,Karnataka,Bengaluru,"RVCE-Mailasandra, Bengaluru - KSPCB",11-01-2024 00:00:00,12.921418,77.502466,OZONE,NA,NA,NA
India,Karnataka,Bengaluru,"Shivapura_Peenya, Bengaluru - KSPCB",11-01-2024 00:00:00,13.0246342,77.5080115,PM10,51,85,68
India,Karnataka,Bengaluru,"Shivapura_Peenya, Bengaluru - KSPCB",11-01-2024 00:00:00,13.0246342,77.5080115,SO2,4,24,12
India,Karnataka,Bengaluru,"Shivapura_Peenya, Bengaluru - KSPCB",11-01-2024 00:00:00,13.0246342,77.5080115,CO,25,48,38
India,Karnataka,Bengaluru,"Silk Board, Bengaluru - KSPCB",11-01-2024 00:00:00,12.917348,77.622813,NO2,13,24,17
India,Karnataka,Bengaluru,"Silk Board, Bengaluru - KSPCB",11-01-2024 00:00:00,12.917348,77.622813,CO,6,32,20
India,Karnataka,Chamarajanagar,"Urban, Chamarajanagar - KSPCB",11-01-2024 00:00:00,11.55358,76.55521,PM10,34,54,43
India,Karnataka,Chamarajanagar,"Urban, Chamarajanagar - KSPCB",11-01-2024 00:00:00,11.55358,76.55521,NO2,23,40,30
India,Karnataka,Chamarajanagar,"Urban, Chamarajanagar - KSPCB",11-01-2024 00:00:00,11.55358,76.55521,OZONE,14,34,21
India,Karnataka,Chikkaballapur,"Chikkaballapur Rural, Chikkaballapur - KSPCB",11-01-2024 00:00:00,13.428828,77.731418,PM10,44,175,68
India,Karnataka,Davanagere,"Devaraj Urs Badavane, Davanagere - KSPCB",11-01-2024 00:00:00,14.475800,75.905200,NH3,1,1,1
India,Karnataka,Davanagere,"Devaraj Urs Badavane, Davanagere - KSPCB",11-01-2024 00:00:00,14.475800,75.905200,SO2,2,4,3
India,Karnataka,Davanagere,"Devaraj Urs Badavane, Davanagere - KSPCB",11-01-2024 00:00:00,14.475800,75.905200,OZONE,16,29,24
India,Karnataka,Dharwad,"Kalabhavan, Dharwad - KSPCB",11-01-2024 00:00:00,15.459706,75.008381,PM2.5,48,76,60
India,Karnataka,Dharwad,"Kalabhavan, Dharwad - KSPCB",11-01-2024 00:00:00,15.459706,75.008381,SO2,NA,NA,NA
India,Karnataka,Gadag,"Panchal Nagar, Gadag - KSPCB",11-01-2024 00:00:00,15.411456,75.638133,PM2.5,25,53,41
India,Karnataka,Gadag,"Panchal Nagar, Gadag - KSPCB",11-01-2024 00:00:00,15.411456,75.638133,NO2,3,22,14
India,Karnataka,Hassan,"B.Katihalli, Hassan - KSPCB",11-01-2024 00:00:00,13.008556,76.125258,NH3,NA,NA,NA
India,Karnataka,Haveri,"Ashwini Nagar, Haveri - KSPCB",11-01-2024 00:00:00,14.791800,75.389600,PM2.5,59,134,84
India,Karnataka,Haveri,"Ashwini Nagar, Haveri - KSPCB",11-01-2024 00:00:00,14.791800,75.389600,PM10,NA,NA,NA
India,Karnataka,Haveri,"Ashwini Nagar, Haveri - KSPCB",11-01-2024 00:00:00,14.791800,75.389600,CO,32,34,32
