country,state,city,station,last_update,latitude,longitude,pollutant_id,pollutant_min,pollutant_max,pollutant_avg
India,Andhra_Pradesh,Amaravati,"Secretariat, Amaravati - APPCB",22-07-2024 02:00:00,16.5150833,80.5181667,NO2,2,8,4
India,Andhra_Pradesh,Amaravati,"Secretariat, Amaravati - APPCB",22-07-2024 02:00:00,16.5150833,80.5181667,NH3,4,4,4
India,Andhra_Pradesh,Anantapur,"Gulzarpet, Anantapur - APPCB",22-07-2024 02:00:00,14.675886,77.593027,SO2,3,5,4
India,Andhra_Pradesh,Chittoor,"Gangineni Cheruvu, Chittoor - APPCB",22-07-2024 02:00:00,13.204880,79.097889,PM10,38,82,59
India,Andhra_Pradesh,Kadapa,"Yerramukkapalli, Kadapa - APPCB",22-07-2024 02:00:00,14.465052,78.824187,SO2,NA,NA,NA
India,Andhra_Pradesh,Rajamahendravaram,"Anand Kala Kshetram, Rajamahendravaram - APPCB",22-07-2024 02:00:00,16.9872867,81.7363176,PM2.5,2,32,14
India,Andhra_Pradesh,Rajamahendravaram,"Anand Kala Kshetram, Rajamahendravaram - APPCB",22-07-2024 02:00:00,16.9872867,81.7363176,SO2,11,12,12
India,Andhra_Pradesh,Vijayawada,"HB Colony, Vijayawada - APPCB",22-07-2024 02:00:00,16.536107,80.594233,PM2.5,32,43,35
India,Andhra_Pradesh,Vijayawada,"Kanuru, Vijayawada - APPCB",22-07-2024 02:00:00,16.486692,80.699436,NO2,28,28,28
India,Andhra_Pradesh,Vijayawada,"Rajiv Gandhi Park, Vijayawada - APPCB",22-07-2024 02:00:00,16.509717,80.612222,PM2.5,36,52,43
India,Andhra_Pradesh,Vijayawada,"Rajiv Gandhi Park, Vijayawada - APPCB",22-07-2024 02:00:00,16.509717,80.612222,NH3,5,6,6
India,Andhra_Pradesh,Vijayawada,"Rajiv Nagar, Vijayawada - APPCB",22-07-2024 02:00:00,16.554731,80.649110,PM10,19,42,26
India,Andhra_Pradesh,Visakhapatnam,"GVM Corporation, Visakhapatnam - APPCB",22-07-2024 02:00:00,17.72,83.3,NH3,2,3,3
India,Andhra_Pradesh,Visakhapatnam,"GVM Corporation, Visakhapatnam - APPCB",22-07-2024 02:00:00,17.72,83.3,SO2,2,10,6
India,Arunachal_Pradesh,Naharlagun,"Naharlagun, Naharlagun - APSPCB",22-07-2024 02:00:00,27.103358,93.679645,SO2,4,4,4
India,Assam,Byrnihat,"Central Academy for SFS, Byrnihat - PCBA",22-07-2024 02:00:00,26.071318,91.87488,PM2.5,NA,NA,NA
India,Assam,Byrnihat,"Central Academy for SFS, Byrnihat - PCBA",22-07-2024 02:00:00,26.071318,91.87488,PM10,NA,NA,NA
India,Assam,Guwahati,"Pan Bazaar, Guwahati - PCBA",22-07-2024 02:00:00,26.187500,91.744194,NO2,NA,NA,NA
India,Assam,Guwahati,"Railway Colony, Guwahati - PCBA",22-07-2024 02:00:00,26.181742,91.78063,SO2,2,3,3
India,Assam,Nagaon,"Christianpatty, Nagaon - PCBA",22-07-2024 02:00:00,26.349082,92.68449,PM2.5,22,53,27
India,Assam,Nagaon,"Christianpatty, Nagaon - PCBA",22-07-2024 02:00:00,26.349082,92.68449,NH3,1,7,1
India,Assam,Sivasagar,"Girls College, Sivasagar - PCBA",22-07-2024 02:00:00,26.987634,94.636574,CO,18,23,19
India,Bihar,Araria,"Kharahiya Basti, Araria - BSPCB",22-07-2024 02:00:00,26.146529,87.454184,PM2.5,NA,NA,NA
India,Bihar,Arrah,"New DM Office, Arrah - BSPCB",22-07-2024 02:00:00,25.5626095,84.663264,SO2,NA,NA,NA
India,Bihar,Bhagalpur,"DM Office_Kachari Chowk, Bhagalpur - BSPCB",22-07-2024 02:00:00,25.251013,86.989001,PM2.5,2,30,17
India,Bihar,Buxar,"Charitra Van, Buxar - BSPCB (Formerly known as Central Jail)",22-07-2024 02:00:00,25.567520,83.966379,PM10,NA,NA,NA
India,Bihar,Gaya,"Collectorate, Gaya - BSPCB",22-07-2024 02:00:00,24.7955,84.9994,CO,44,70,58
India,Bihar,Gaya,"Kareemganj, Gaya - BSPCB",22-07-2024 02:00:00,24.792403,84.992416,NH3,NA,NA,NA
India,Bihar,Hajipur,"Industrial Area, Hajipur - BSPCB",22-07-2024 02:00:00,25.697189,85.245900,SO2,6,8,8
India,Bihar,Motihari,"Gandak Colony, Motihari - BSPCB",22-07-2024 02:00:00,26.63086,84.90051,PM2.5,NA,NA,NA
India,Bihar,Motihari,"Gandak Colony, Motihari - BSPCB",22-07-2024 02:00:00,26.63086,84.90051,NO2,3,9,5
India,Bihar,Munger,"Town Hall, Munger - BSPCB",22-07-2024 02:00:00,25.376776,86.471523,NO2,9,11,10
India,Bihar,Munger,"Town Hall, Munger - BSPCB",22-07-2024 02:00:00,25.376776,86.471523,SO2,21,37,29
India,Bihar,Munger,"Town Hall, Munger - BSPCB",22-07-2024 02:00:00,25.376776,86.471523,OZONE,2,5,3
India,Bihar,Muzaffarpur,"Buddha Colony, Muzaffarpur - BSPCB",22-07-2024 02:00:00,26.11442,85.39813,PM2.5,33,73,48
India,Bihar,Muzaffarpur,"Buddha Colony, Muzaffarpur - BSPCB",22-07-2024 02:00:00,26.11442,85.39813,CO,30,46,38
India,Bihar,Muzaffarpur,"MIT-Daudpur Kothi, Muzaffarpur - BSPCB",22-07-2024 02:00:00,26.1403345,85.3650192,PM10,NA,NA,NA
India,Bihar,Muzaffarpur,"MIT-Daudpur Kothi, Muzaffarpur - BSPCB",22-07-2024 02:00:00,26.1403345,85.3650192,NH3,3,4,4
India,Bihar,Muzaffarpur,"MIT-Daudpur Kothi, Muzaffarpur - BSPCB",22-07-2024 02:00:00,26.1403345,85.3650192,OZONE,25,36,31
India,Bihar,Patna,"DRM Office Danapur, Patna - BSPCB",22-07-2024 02:00:00,25.586562,85.043586,PM2.5,44,59,50
India,Bihar,Patna,"Govt. High School Shikarpur, Patna - BSPCB",22-07-2024 02:00:00,25.592539,85.227158,PM10,42,80,62
India,Bihar,Patna,"Govt. High School Shikarpur, Patna - BSPCB",22-07-2024 02:00:00,25.592539,85.227158,CO,37,58,49
India,Bihar,Patna,"IGSC Planetarium Complex, Patna - BSPCB",22-07-2024 02:00:00,25.610369,85.132568,PM2.5,38,55,44
India,Bihar,Patna,"IGSC Planetarium Complex, Patna - BSPCB",22-07-2024 02:00:00,25.610369,85.132568,CO,14,17,15
India,Bihar,Patna,"Rajbansi Nagar, Patna - BSPCB",22-07-2024 02:00:00,25.599486,85.113666,NH3,2,3,3
India,Bihar,Purnia,"Mariam Nagar, Purnia - BSPCB",22-07-2024 02:00:00,25.366336,87.117468,PM2.5,3,197,29
India,Bihar,Purnia,"Mariam Nagar, Purnia - BSPCB",22-07-2024 02:00:00,25.366336,87.117468,SO2,6,12,8
India,Bihar,Rajgir,"Dangi Tola, Rajgir - BSPCB",22-07-2024 02:00:00,25.03280,85.41948,OZONE,32,35,34
India,Bihar,Saharsa,"Police Line, Saharsa - BSPCB",22-07-2024 02:00:00,25.892357,86.590325,PM10,8,101,35
India,Bihar,Samastipur,"DM Office_Kasipur, Samastipur - BSPCB",22-07-2024 02:00:00,25.859655,85.77944,PM10,22,75,51
India,Bihar,Samastipur,"DM Office_Kasipur, Samastipur - BSPCB",22-07-2024 02:00:00,25.859655,85.77944,NO2,NA,NA,NA
India,Bihar,Siwan,"Chitragupta Nagar, Siwan - BSPCB",22-07-2024 02:00:00,26.2271665,84.3570427,PM2.5,NA,NA,NA
India,Bihar,Siwan,"Chitragupta Nagar, Siwan - BSPCB",22-07-2024 02:00:00,26.2271665,84.3570427,CO,71,105,86
India,Bihar,Siwan,"Chitragupta Nagar, Siwan - BSPCB",22-07-2024 02:00:00,26.2271665,84.3570427,OZONE,1,43,7
India,Chandigarh,Chandigarh,"Sector-25, Chandigarh - CPCC",22-07-2024 02:00:00,30.751462,76.762879,PM2.5,51,70,61
India,Chandigarh,Chandigarh,"Sector-25, Chandigarh - CPCC",22-07-2024 02:00:00,30.751462,76.762879,PM10,51,79,66
India,Chandigarh,Chandigarh,"Sector-53, Chandigarh - CPCC",22-07-2024 02:00:00,30.719859,76.738637,OZONE,6,44,25
India,Chhattisgarh,Bhilai,"32Bungalows, Bhilai - CECB",22-07-2024 02:00:00,21.194815,81.314770,PM2.5,6,23,12
India,Chhattisgarh,Bhilai,"Civic Center, Bhilai - Bhilai Steel Plant",22-07-2024 02:00:00,21.185571,81.343175,NO2,7,8,8
India,Chhattisgarh,Bilaspur,"Mangala, Bilaspur - NTPC",22-07-2024 02:00:00,22.08815,82.13737,CO,45,50,47
India,Chhattisgarh,Kunjemura,"OP Jindal School, Kunjemura - CECB",22-07-2024 02:00:00,22.126650,83.483212,NO2,5,31,12
India,Chhattisgarh,Raipur,"Bhatagaon New ISBT, Raipur - CECB",22-07-2024 02:00:00,21.219665,81.630094,NO2,4,6,4
India,Chhattisgarh,Raipur,"Bhatagaon New ISBT, Raipur - CECB",22-07-2024 02:00:00,21.219665,81.630094,CO,13,30,19
India,Chhattisgarh,Raipur,"Bhatagaon New ISBT, Raipur - CECB",22-07-2024 02:00:00,21.219665,81.630094,OZONE,3,5,4
India,Chhattisgarh,Raipur,"Krishak Nagar, Raipur - CECB",22-07-2024 02:00:00,21.237755,81.705301,NO2,5,5,5
India,Chhattisgarh,Tumidih,"OP Jindal Industrial Park, Tumidih - CECB",22-07-2024 02:00:00,22.06631475,83.33820077,PM2.5,NA,NA,NA
India,Chhattisgarh,Tumidih,"OP Jindal Industrial Park, Tumidih - CECB",22-07-2024 02:00:00,22.06631475,83.33820077,SO2,NA,NA,NA
India,Chhattisgarh,Tumidih,"OP Jindal Industrial Park, Tumidih - CECB",22-07-2024 02:00:00,22.06631475,83.33820077,OZONE,NA,NA,NA
India,Delhi,Delhi,"Ashok Vihar, Delhi - DPCC",22-07-2024 02:00:00,28.695381,77.181665,CO,4,54,40
India,Delhi,Delhi,"Aya Nagar, Delhi - IMD",22-07-2024 02:00:00,28.4706914,77.1099364,CO,47,60,53
India,Delhi,Delhi,"Bawana, Delhi - DPCC",22-07-2024 02:00:00,28.776200,77.051074,PM2.5,38,157,80
India,Delhi,Delhi,"Bawana, Delhi - DPCC",22-07-2024 02:00:00,28.776200,77.051074,NO2,7,31,15
India,Delhi,Delhi,"Bawana, Delhi - DPCC",22-07-2024 02:00:00,28.776200,77.051074,CO,31,64,44
India,Delhi,Delhi,"Burari Crossing, Delhi - IMD",22-07-2024 02:00:00,28.7256504,77.2011573,CO,26,46,34
India,Delhi,Delhi,"CRRI Mathura Road, Delhi - IMD",22-07-2024 02:00:00,28.5512005,77.2735737,PM10,43,108,78
India,Delhi,Delhi,"CRRI Mathura Road, Delhi - IMD",22-07-2024 02:00:00,28.5512005,77.2735737,CO,32,50,33
India,Delhi,Delhi,"DTU, Delhi - CPCB",22-07-2024 02:00:00,28.7500499,77.1112615,PM2.5,18,89,40
India,Delhi,Delhi,"DTU, Delhi - CPCB",22-07-2024 02:00:00,28.7500499,77.1112615,PM10,46,133,82
India,Delhi,Delhi,"DTU, Delhi - CPCB",22-07-2024 02:00:00,28.7500499,77.1112615,NO2,58,66,60
India,Delhi,Delhi,"DTU, Delhi - CPCB",22-07-2024 02:00:00,28.7500499,77.1112615,NH3,13,16,15
India,Delhi,Delhi,"DTU, Delhi - CPCB",22-07-2024 02:00:00,28.7500499,77.1112615,OZONE,40,41,41
India,Delhi,Delhi,"Dr. Karni Singh Shooting Range, Delhi - DPCC",22-07-2024 02:00:00,28.498571,77.264840,NO2,19,24,21
India,Delhi,Delhi,"Dr. Karni Singh Shooting Range, Delhi - DPCC",22-07-2024 02:00:00,28.498571,77.264840,SO2,6,12,9
India,Delhi,Delhi,"Dwarka-Sector 8, Delhi - DPCC ",22-07-2024 02:00:00,28.5710274,77.0719006,PM2.5,37,113,71
India,Delhi,Delhi,"Dwarka-Sector 8, Delhi - DPCC ",22-07-2024 02:00:00,28.5710274,77.0719006,NO2,6,35,18
India,Delhi,Delhi,"Dwarka-Sector 8, Delhi - DPCC ",22-07-2024 02:00:00,28.5710274,77.0719006,SO2,5,12,11
India,Delhi,Delhi,"IGI Airport (T3), Delhi - IMD",22-07-2024 02:00:00,28.5627763,77.1180053,NO2,12,30,20
India,Delhi,Delhi,"IGI Airport (T3), Delhi - IMD",22-07-2024 02:00:00,28.5627763,77.1180053,CO,32,48,39
India,Delhi,Delhi,"IHBAS, Dilshad Garden, Delhi - CPCB",22-07-2024 02:00:00,28.6811736,77.3025234,CO,12,109,40
India,Delhi,Delhi,"ITO, Delhi - CPCB",22-07-2024 02:00:00,28.628624,77.241060,PM10,39,86,58
India,Delhi,Delhi,"ITO, Delhi - CPCB",22-07-2024 02:00:00,28.628624,77.241060,CO,32,64,49
India,Delhi,Delhi,"Jahangirpuri, Delhi - DPCC",22-07-2024 02:00:00,28.732820,77.170633,PM10,67,226,139
India,Delhi,Delhi,"Jawaharlal Nehru Stadium, Delhi - DPCC",22-07-2024 02:00:00,28.580280,77.233829,CO,36,49,47
India,Delhi,Delhi,"Lodhi Road, Delhi - IMD",22-07-2024 02:00:00,28.5918245,77.2273074,PM10,44,98,71
India,Delhi,Delhi,"Major Dhyan Chand National Stadium, Delhi - DPCC",22-07-2024 02:00:00,28.611281,77.237738,PM2.5,38,107,68
India,Delhi,Delhi,"Major Dhyan Chand National Stadium, Delhi - DPCC",22-07-2024 02:00:00,28.611281,77.237738,CO,31,48,41
India,Delhi,Delhi,"Mandir Marg, Delhi - DPCC",22-07-2024 02:00:00,28.636429,77.201067,NO2,8,68,57
India,Delhi,Delhi,"Mandir Marg, Delhi - DPCC",22-07-2024 02:00:00,28.636429,77.201067,NH3,5,7,6
India,Delhi,Delhi,"Mandir Marg, Delhi - DPCC",22-07-2024 02:00:00,28.636429,77.201067,CO,1,64,48
India,Delhi,Delhi,"Mundka, Delhi - DPCC",22-07-2024 02:00:00,28.684678,77.076574,CO,38,64,49
India,Delhi,Delhi,"Mundka, Delhi - DPCC",22-07-2024 02:00:00,28.684678,77.076574,OZONE,8,53,33
India,Delhi,Delhi,"NSIT Dwarka, Delhi - CPCB",22-07-2024 02:00:00,28.60909,77.0325413,NH3,8,8,8
India,Delhi,Delhi,"NSIT Dwarka, Delhi - CPCB",22-07-2024 02:00:00,28.60909,77.0325413,OZONE,7,22,12
India,Delhi,Delhi,"Najafgarh, Delhi - DPCC",22-07-2024 02:00:00,28.570173,76.933762,PM10,31,86,65
India,Delhi,Delhi,"Najafgarh, Delhi - DPCC",22-07-2024 02:00:00,28.570173,76.933762,SO2,12,18,15
India,Delhi,Delhi,"Najafgarh, Delhi - DPCC",22-07-2024 02:00:00,28.570173,76.933762,OZONE,13,33,20
India,Delhi,Delhi,"Nehru Nagar, Delhi - DPCC",22-07-2024 02:00:00,28.567890,77.250515,NO2,15,62,29
India,Delhi,Delhi,"Nehru Nagar, Delhi - DPCC",22-07-2024 02:00:00,28.567890,77.250515,NH3,4,7,5
India,Delhi,Delhi,"Nehru Nagar, Delhi - DPCC",22-07-2024 02:00:00,28.567890,77.250515,SO2,2,27,9
India,Delhi,Delhi,"Nehru Nagar, Delhi - DPCC",22-07-2024 02:00:00,28.567890,77.250515,CO,51,78,67
India,Delhi,Delhi,"North Campus, DU, Delhi - IMD",22-07-2024 02:00:00,28.6573814,77.1585447,PM10,14,134,73
India,Delhi,Delhi,"North Campus, DU, Delhi - IMD",22-07-2024 02:00:00,28.6573814,77.1585447,CO,36,50,44
India,Delhi,Delhi,"North Campus, DU, Delhi - IMD",22-07-2024 02:00:00,28.6573814,77.1585447,OZONE,6,44,8
India,Delhi,Delhi,"Okhla Phase-2, Delhi - DPCC",22-07-2024 02:00:00,28.530785,77.271255,PM2.5,37,143,66
India,Delhi,Delhi,"Patparganj, Delhi - DPCC",22-07-2024 02:00:00,28.623763,77.287209,OZONE,5,33,16
India,Delhi,Delhi,"Pusa, Delhi - DPCC",22-07-2024 02:00:00,28.639652,77.146275,OZONE,13,30,17
India,Delhi,Delhi,"Pusa, Delhi - IMD",22-07-2024 02:00:00,28.636110,77.173332,CO,62,80,70
India,Delhi,Delhi,"Pusa, Delhi - IMD",22-07-2024 02:00:00,28.636110,77.173332,OZONE,7,13,10
India,Delhi,Delhi,"R K Puram, Delhi - DPCC",22-07-2024 02:00:00,28.563262,77.186937,CO,6,34,23
India,Delhi,Delhi,"Rohini, Delhi - DPCC",22-07-2024 02:00:00,28.732528,77.119920,PM2.5,37,240,85
India,Delhi,Delhi,"Shadipur, Delhi - CPCB",22-07-2024 02:00:00,28.6514781,77.1473105,PM2.5,35,67,44
India,Delhi,Delhi,"Sirifort, Delhi - CPCB",22-07-2024 02:00:00,28.5504249,77.2159377,NO2,15,55,38
India,Delhi,Delhi,"Sonia Vihar, Delhi - DPCC",22-07-2024 02:00:00,28.710508,77.249485,SO2,5,17,9
India,Delhi,Delhi,"Sri Aurobindo Marg, Delhi - DPCC",22-07-2024 02:00:00,28.531346,77.190156,PM2.5,30,80,56
India,Delhi,Delhi,"Sri Aurobindo Marg, Delhi - DPCC",22-07-2024 02:00:00,28.531346,77.190156,CO,38,61,56
India,Delhi,Delhi,"Vivek Vihar, Delhi - DPCC",22-07-2024 02:00:00,28.672342,77.315260,CO,50,74,59
India,Delhi,Delhi,"Vivek Vihar, Delhi - DPCC",22-07-2024 02:00:00,28.672342,77.315260,OZONE,5,13,8
India,Gujarat,Ahmedabad,"Gyaspur, Ahmedabad - IITM",22-07-2024 02:00:00,22.977134,72.553024,NO2,3,18,8
India,Gujarat,Ahmedabad,"Gyaspur, Ahmedabad - IITM",22-07-2024 02:00:00,22.977134,72.553024,SO2,15,18,17
India,Gujarat,Ahmedabad,"Gyaspur, Ahmedabad - IITM",22-07-2024 02:00:00,22.977134,72.553024,OZONE,13,45,20
India,Gujarat,Ahmedabad,"Maninagar, Ahmedabad - GPCB",22-07-2024 02:00:00,23.002657,72.591912,CO,29,89,53
India,Gujarat,Ahmedabad,"Maninagar, Ahmedabad - GPCB",22-07-2024 02:00:00,23.002657,72.591912,OZONE,21,41,32
India,Gujarat,Ahmedabad,"Raikhad, Ahmedabad - IITM",22-07-2024 02:00:00,23.020509,72.579261,PM10,35,123,66
India,Gujarat,Ahmedabad,"Raikhad, Ahmedabad - IITM",22-07-2024 02:00:00,23.020509,72.579261,NO2,23,74,31
India,Gujarat,Ahmedabad,"Raikhad, Ahmedabad - IITM",22-07-2024 02:00:00,23.020509,72.579261,CO,14,34,24
India,Gujarat,Ahmedabad,"Rakhial, Ahmedabad - IITM",22-07-2024 02:00:00,23.016834,72.625775,PM10,25,68,41
India,Gujarat,Ahmedabad,"Rakhial, Ahmedabad - IITM",22-07-2024 02:00:00,23.016834,72.625775,CO,28,36,32
India,Gujarat,Ahmedabad,"SVPI Airport Hansol, Ahmedabad - IITM",22-07-2024 02:00:00,23.076793,72.627874,PM2.5,31,68,51
India,Gujarat,Ahmedabad,"SVPI Airport Hansol, Ahmedabad - IITM",22-07-2024 02:00:00,23.076793,72.627874,NH3,4,7,6
India,Gujarat,Ahmedabad,"SVPI Airport Hansol, Ahmedabad - IITM",22-07-2024 02:00:00,23.076793,72.627874,SO2,7,13,10
India,Gujarat,Ahmedabad,"SVPI Airport Hansol, Ahmedabad - IITM",22-07-2024 02:00:00,23.076793,72.627874,OZONE,13,44,21
India,Gujarat,Ahmedabad,"Sardar Vallabhbhai Patel Stadium, Ahmedabad - IITM",22-07-2024 02:00:00,23.043070,72.562968,NO2,14,43,26
India,Gujarat,Ahmedabad,"Sardar Vallabhbhai Patel Stadium, Ahmedabad - IITM",22-07-2024 02:00:00,23.043070,72.562968,SO2,16,17,17
India,Gujarat,Ankleshwar,"GIDC, Ankleshwar - GPCB",22-07-2024 02:00:00,21.613267,73.010555,CO,34,80,65
India,Gujarat,Gandhinagar,"GIFT City, Gandhinagar - IITM",22-07-2024 02:00:00,23.163798,72.677768,PM2.5,26,56,38
India,Gujarat,Gandhinagar,"GIFT City, Gandhinagar - IITM",22-07-2024 02:00:00,23.163798,72.677768,SO2,10,15,12
India,Gujarat,Gandhinagar,"Sector-10, Gandhinagar - GPCB",22-07-2024 02:00:00,23.221714,72.654328,OZONE,2,43,11
India,Gujarat,Surat,"Science Center, Surat - SMC",22-07-2024 02:00:00,21.170046,72.795405,SO2,11,14,12
India,Gujarat,Vapi,"Phase-1 GIDC, Vapi - GPCB",22-07-2024 02:00:00,20.362421,72.918013,NO2,13,14,14
India,Gujarat,Vapi,"Phase-1 GIDC, Vapi - GPCB",22-07-2024 02:00:00,20.362421,72.918013,NH3,10,10,10
India,Gujarat,Vapi,"Phase-1 GIDC, Vapi - GPCB",22-07-2024 02:00:00,20.362421,72.918013,OZONE,4,4,4
India,Gujarat,Vatva,"Phase-4 GIDC, Vatva - GPCB",22-07-2024 02:00:00,22.969611,72.643500,CO,34,36,36
India,Haryana,Ambala,"Patti Mehar, Ambala - HSPCB",22-07-2024 02:00:00,30.379589,76.778328,NO2,7,21,14
India,Haryana,Ambala,"Patti Mehar, Ambala - HSPCB",22-07-2024 02:00:00,30.379589,76.778328,NH3,5,12,8
India,Haryana,Bahadurgarh,"Arya Nagar, Bahadurgarh - HSPCB",22-07-2024 02:00:00,28.6701,76.9254,OZONE,29,42,36
India,Haryana,Ballabgarh,"Nathu Colony, Ballabgarh - HSPCB",22-07-2024 02:00:00,28.3419248,77.319699,NH3,1,2,2
India,Haryana,Ballabgarh,"Nathu Colony, Ballabgarh - HSPCB",22-07-2024 02:00:00,28.3419248,77.319699,SO2,2,3,3
India,Haryana,Ballabgarh,"Nathu Colony, Ballabgarh - HSPCB",22-07-2024 02:00:00,28.3419248,77.319699,CO,12,31,18
India,Haryana,Bhiwani,"H.B. Colony, Bhiwani - HSPCB",22-07-2024 02:00:00,28.806223,76.141105,PM10,13,114,47
India,Haryana,Charkhi Dadri,"Mini Secretariat, Charkhi Dadri - HSPCB",22-07-2024 02:00:00,28.593883,76.270653,PM10,42,86,68
India,Haryana,Charkhi Dadri,"Mini Secretariat, Charkhi Dadri - HSPCB",22-07-2024 02:00:00,28.593883,76.270653,SO2,10,17,13
India,Haryana,Charkhi Dadri,"Mini Secretariat, Charkhi Dadri - HSPCB",22-07-2024 02:00:00,28.593883,76.270653,OZONE,14,17,16
India,Haryana,Dharuhera,"Municipal Corporation Office, Dharuhera -  HSPCB",22-07-2024 02:00:00,28.206800,76.799700,PM10,28,206,90
India,Haryana,Dharuhera,"Municipal Corporation Office, Dharuhera -  HSPCB",22-07-2024 02:00:00,28.206800,76.799700,NO2,14,53,38
India,Haryana,Faridabad,"New Industrial Town, Faridabad - HSPCB",22-07-2024 02:00:00,28.39072,77.30059,NO2,NA,NA,NA
India,Haryana,Faridabad,"New Industrial Town, Faridabad - HSPCB",22-07-2024 02:00:00,28.39072,77.30059,SO2,NA,NA,NA
India,Haryana,Faridabad,"Sector 11, Faridabad - HSPCB",22-07-2024 02:00:00,28.376058,77.315741,PM2.5,114,142,130
India,Haryana,Faridabad,"Sector 11, Faridabad - HSPCB",22-07-2024 02:00:00,28.376058,77.315741,PM10,104,111,107
India,Haryana,Faridabad,"Sector 11, Faridabad - HSPCB",22-07-2024 02:00:00,28.376058,77.315741,SO2,2,2,2
India,Haryana,Faridabad,"Sector 30, Faridabad - HSPCB",22-07-2024 02:00:00,28.4417,77.3217,NO2,16,16,16
India,Haryana,Faridabad,"Sector- 16A, Faridabad - HSPCB",22-07-2024 02:00:00,28.4088421,77.3099081,SO2,NA,NA,NA
India,Haryana,Fatehabad,"Huda Sector, Fatehabad - HSPCB",22-07-2024 02:00:00,29.503664,75.467934,OZONE,12,41,22
India,Haryana,Gurugram,"Sector-51, Gurugram - HSPCB",22-07-2024 02:00:00,28.4227,77.0667,NO2,13,29,23
India,Haryana,Gurugram,"Teri Gram, Gurugram - HSPCB",22-07-2024 02:00:00,28.4275,77.1465,NH3,1,8,4
India,Haryana,Hisar,"Urban Estate-II, Hisar - HSPCB",22-07-2024 02:00:00,29.140560,75.744941,PM10,88,126,108
India,Haryana,Hisar,"Urban Estate-II, Hisar - HSPCB",22-07-2024 02:00:00,29.140560,75.744941,OZONE,25,38,28
India,Haryana,Jind,"Police Lines, Jind - HSPCB",22-07-2024 02:00:00,29.307814,76.337619,OZONE,57,142,93
India,Haryana,Karnal,"Sector-12, Karnal - HSPCB",22-07-2024 02:00:00,29.695300,77.002700,PM10,31,78,52
India,Haryana,Mandikhera,"General Hospital, Mandikhera - HSPCB",22-07-2024 02:00:00,27.9002,76.9938,PM10,65,72,68
India,Haryana,Manesar,"Sector-2 IMT, Manesar - HSPCB",22-07-2024 02:00:00,28.360699,76.936090,OZONE,18,36,28
India,Haryana,Narnaul,"Shastri Nagar, Narnaul - HSPCB",22-07-2024 02:00:00,28.060249,76.113115,SO2,11,12,11
India,Haryana,Narnaul,"Shastri Nagar, Narnaul - HSPCB",22-07-2024 02:00:00,28.060249,76.113115,CO,14,28,25
India,Haryana,Palwal,"Shyam Nagar, Palwal - HSPCB",22-07-2024 02:00:00,28.1485564,77.3320667,NO2,23,25,24
India,Haryana,Panchkula,"Sector-6, Panchkula - HSPCB ",22-07-2024 02:00:00,30.7057778,76.8531805555555,OZONE,24,38,34
India,Haryana,Panipat,"Sector-18, Panipat - HSPCB",22-07-2024 02:00:00,29.432304,76.972765,PM2.5,82,85,83
India,Haryana,Panipat,"Sector-18, Panipat - HSPCB",22-07-2024 02:00:00,29.432304,76.972765,NH3,2,3,3
India,Haryana,Panipat,"Sector-18, Panipat - HSPCB",22-07-2024 02:00:00,29.432304,76.972765,CO,24,26,25
India,Haryana,Sirsa,"F-Block, Sirsa - HSPCB",22-07-2024 02:00:00,29.536400,75.015800,PM10,38,84,57
India,Haryana,Sirsa,"F-Block, Sirsa - HSPCB",22-07-2024 02:00:00,29.536400,75.015800,OZONE,5,59,22
India,Haryana,Sonipat,"Murthal, Sonipat - HSPCB",22-07-2024 02:00:00,29.027200,77.062100,NO2,37,45,40
India,Haryana,Sonipat,"Murthal, Sonipat - HSPCB",22-07-2024 02:00:00,29.027200,77.062100,CO,24,26,25
India,Haryana,Yamuna Nagar,"Gobind Pura, Yamuna Nagar - HSPCB",22-07-2024 02:00:00,30.1480566,77.2893471,PM2.5,29,63,44
India,Haryana,Yamuna Nagar,"Gobind Pura, Yamuna Nagar - HSPCB",22-07-2024 02:00:00,30.1480566,77.2893471,CO,30,52,45
India,Himachal Pradesh,Baddi,"HIMUDA Complex Phase-1, Baddi - HPPCB",22-07-2024 02:00:00,30.943887,76.801991,PM2.5,30,173,78
India,Himachal Pradesh,Baddi,"HIMUDA Complex Phase-1, Baddi - HPPCB",22-07-2024 02:00:00,30.943887,76.801991,NH3,7,13,8
India,Himachal Pradesh,Baddi,"HIMUDA Complex Phase-1, Baddi - HPPCB",22-07-2024 02:00:00,30.943887,76.801991,CO,22,54,38
India,Himachal Pradesh,Baddi,"HIMUDA Complex Phase-1, Baddi - HPPCB",22-07-2024 02:00:00,30.943887,76.801991,OZONE,10,71,22
India,Jammu_and_Kashmir,Srinagar,"Rajbagh, Srinagar - JKSPCB",22-07-2024 02:00:00,34.066206,74.819820,CO,12,22,16
India,Jammu_and_Kashmir,Srinagar,"Rajbagh, Srinagar - JKSPCB",22-07-2024 02:00:00,34.066206,74.819820,OZONE,12,27,18
India,Jharkhand,Dhanbad,"Kalakusuma, Dhanbad - DMC",22-07-2024 02:00:00,23.811548,86.481238,SO2,9,10,9
India,Jharkhand,Jorapokhar,"Tata Stadium, Jorapokhar - JSPCB",22-07-2024 02:00:00,23.707909,86.414670,SO2,NA,NA,NA
India,Jharkhand,Jorapokhar,"Tata Stadium, Jorapokhar - JSPCB",22-07-2024 02:00:00,23.707909,86.414670,OZONE,3,44,12
India,Karnataka,Bagalkot,"Vidayagiri, Bagalkot - KSPCB",22-07-2024 02:00:00,16.172806,75.659694,NO2,10,11,11
India,Karnataka,Belgaum,"Ramteerth Nagar, Belgaum - KSPCB",22-07-2024 02:00:00,15.888653,74.541751,NH3,5,7,6
India,Karnataka,Bengaluru,"BTM Layout, Bengaluru - CPCB",22-07-2024 02:00:00,12.9135218,77.5950804,PM10,25,26,25
India,Karnataka,Bengaluru,"BTM Layout, Bengaluru - CPCB",22-07-2024 02:00:00,12.9135218,77.5950804,NO2,30,33,32
India,Karnataka,Bengaluru,"BTM Layout, Bengaluru - CPCB",22-07-2024 02:00:00,12.9135218,77.5950804,SO2,9,10,9
India,Karnataka,Bengaluru,"Bapuji Nagar, Bengaluru - KSPCB",22-07-2024 02:00:00,12.951913,77.539784,PM10,13,48,29
India,Karnataka,Bengaluru,"City Railway Station, Bengaluru - KSPCB",22-07-2024 02:00:00,12.9756843,77.5660749,PM10,85,124,104
India,Karnataka,Bengaluru,"Hebbal, Bengaluru - KSPCB",22-07-2024 02:00:00,13.029152,77.585901,PM2.5,NA,NA,NA
India,Karnataka,Bengaluru,"Hebbal, Bengaluru - KSPCB",22-07-2024 02:00:00,13.029152,77.585901,SO2,NA,NA,NA
India,Karnataka,Bengaluru,"Hebbal, Bengaluru - KSPCB",22-07-2024 02:00:00,13.029152,77.585901,OZONE,4,17,8
India,Karnataka,Bengaluru,"Hombegowda Nagar, Bengaluru - KSPCB",22-07-2024 02:00:00,12.938539,77.590100,SO2,2,4,3
India,Karnataka,Bengaluru,"Hombegowda Nagar, Bengaluru - KSPCB",22-07-2024 02:00:00,12.938539,77.590100,CO,11,18,15
India,Karnataka,Bengaluru,"Jayanagar 5th Block, Bengaluru - KSPCB",22-07-2024 02:00:00,12.920984,77.584908,CO,16,57,37
India,Karnataka,Bengaluru,"Jigani, Bengaluru - KSPCB",22-07-2024 02:00:00,12.7816279,77.6299145,PM10,27,57,40
India,Karnataka,Bengaluru,"Kasturi Nagar, Bengaluru - KSPCB",22-07-2024 02:00:00,13.003872,77.664217,NH3,3,4,4
India,Karnataka,Bengaluru,"RVCE-Mailasandra, Bengaluru - KSPCB",22-07-2024 02:00:00,12.921418,77.502466,PM2.5,39,67,54
India,Karnataka,Bengaluru,"RVCE-Mailasandra, Bengaluru - KSPCB",22-07-2024 02:00:00,12.921418,77.502466,PM10,63,99,79
India,Karnataka,Bengaluru,"Shivapura_Peenya, Bengaluru - KSPCB",22-07-2024 02:00:00,13.0246342,77.5080115,NH3,4,4,4
India,Karnataka,Bidar,"Naubad, Bidar - KSPCB",22-07-2024 02:00:00,17.930306,77.482194,NH3,NA,NA,NA
India,Karnataka,Chamarajanagar,"Urban, Chamarajanagar - KSPCB",22-07-2024 02:00:00,11.55358,76.55521,PM10,34,52,43
India,Karnataka,Chikkaballapur,"Chikkaballapur Rural, Chikkaballapur - KSPCB",22-07-2024 02:00:00,13.428828,77.731418,NO2,4,6,5
India,Karnataka,Chikkamagaluru,"Kalyana Nagara, Chikkamagaluru - KSPCB",22-07-2024 02:00:00,13.328028,75.797056,PM2.5,10,30,17
India,Karnataka,Chikkamagaluru,"Kalyana Nagara, Chikkamagaluru - KSPCB",22-07-2024 02:00:00,13.328028,75.797056,SO2,1,5,2
India,Karnataka,Chikkamagaluru,"Kalyana Nagara, Chikkamagaluru - KSPCB",22-07-2024 02:00:00,13.328028,75.797056,CO,11,24,18
India,Karnataka,Chikkamagaluru,"Kalyana Nagara, Chikkamagaluru - KSPCB",22-07-2024 02:00:00,13.328028,75.797056,OZONE,10,22,13
India,Karnataka,Davanagere,"Devaraj Urs Badavane, Davanagere - KSPCB",22-07-2024 02:00:00,14.475800,75.905200,PM10,5,23,11
India,Karnataka,Dharwad,"Kalabhavan, Dharwad - KSPCB",22-07-2024 02:00:00,15.459706,75.008381,NH3,2,4,3
India,Karnataka,Dharwad,"Kalabhavan, Dharwad - KSPCB",22-07-2024 02:00:00,15.459706,75.008381,SO2,1,4,2
India,Karnataka,Gadag,"Panchal Nagar, Gadag - KSPCB",22-07-2024 02:00:00,15.411456,75.638133,CO,48,54,50
India,Karnataka,Hubballi,"Lingaraj Nagar, Hubballi - KSPCB",22-07-2024 02:00:00,15.3714823,75.1160168,NH3,2,4,3
India,Karnataka,Hubballi,"Lingaraj Nagar, Hubballi - KSPCB",22-07-2024 02:00:00,15.3714823,75.1160168,CO,10,21,14
India,Karnataka,Kalaburagi,"Lal Bahadur Shastri Nagar, Kalaburagi - KSPCB",22-07-2024 02:00:00,17.321993,76.822628,PM10,23,79,41
India,Karnataka,Kalaburagi,"Lal Bahadur Shastri Nagar, Kalaburagi - KSPCB",22-07-2024 02:00:00,17.321993,76.822628,NH3,2,3,2
India,Karnataka,Kalaburagi,"Mahatma Basaveswar Colony, Kalaburgi - KSPCB",22-07-2024 02:00:00,17.336318,76.847397,PM2.5,6,24,12
India,Karnataka,Kalaburagi,"Mahatma Basaveswar Colony, Kalaburgi - KSPCB",22-07-2024 02:00:00,17.336318,76.847397,NO2,8,14,10
India,Karnataka,Karwar,"KHB Colony, Karwar - KSPCB",22-07-2024 02:00:00,14.816666,74.141003,SO2,NA,NA,NA
India,Karnataka,Kolar,"Tamaka Ind. Area, Kolar - KSPCB",22-07-2024 02:00:00,13.1276288,78.1570122,PM10,18,44,28
India,Karnataka,Kolar,"Tamaka Ind. Area, Kolar - KSPCB",22-07-2024 02:00:00,13.1276288,78.1570122,NO2,NA,NA,NA
India,Karnataka,Kolar,"Tamaka Ind. Area, Kolar - KSPCB",22-07-2024 02:00:00,13.1276288,78.1570122,NH3,5,14,11
India,Karnataka,Koppal,"Diwator Nagar, Koppal - KSPCB",22-07-2024 02:00:00,15.347630,76.181767,PM2.5,1,9,3
India,Karnataka,Koppal,"Diwator Nagar, Koppal - KSPCB",22-07-2024 02:00:00,15.347630,76.181767,NO2,30,65,48
India,Karnataka,Koppal,"Diwator Nagar, Koppal - KSPCB",22-07-2024 02:00:00,15.347630,76.181767,CO,4,4,4
India,Karnataka,Mangalore,"Kadri, Mangalore - KSPCB",22-07-2024 02:00:00,12.889250,74.853000,NH3,2,2,2
India,Karnataka,Mangalore,"Kadri, Mangalore - KSPCB",22-07-2024 02:00:00,12.889250,74.853000,CO,11,16,13
India,Karnataka,Mangalore,"Kadri, Mangalore - KSPCB",22-07-2024 02:00:00,12.889250,74.853000,OZONE,30,32,31
India,Karnataka,Mysuru,"Hebbal 1st Stage, Mysuru - KSPCB",22-07-2024 02:00:00,12.21041,76.37376,PM2.5,16,26,22
India,Karnataka,Mysuru,"Hebbal 1st Stage, Mysuru - KSPCB",22-07-2024 02:00:00,12.21041,76.37376,NO2,9,43,24
India,Karnataka,Mysuru,"Hebbal 1st Stage, Mysuru - KSPCB",22-07-2024 02:00:00,12.21041,76.37376,SO2,1,3,2
India,Karnataka,Mysuru,"Hebbal 1st Stage, Mysuru - KSPCB",22-07-2024 02:00:00,12.21041,76.37376,CO,1,23,10
India,Karnataka,Ramanagara,"Vijay Nagar, Ramanagara - KSPCB",22-07-2024 02:00:00,12.733409,77.298051,PM2.5,8,33,15
India,Karnataka,Ramanagara,"Vijay Nagar, Ramanagara - KSPCB",22-07-2024 02:00:00,12.733409,77.298051,NH3,2,4,3
India,Karnataka,Shivamogga,"Vinoba Nagara, Shivamogga - KSPCB",22-07-2024 02:00:00,13.940000,75.555917,PM2.5,23,45,34
India,Karnataka,Shivamogga,"Vinoba Nagara, Shivamogga - KSPCB",22-07-2024 02:00:00,13.940000,75.555917,PM10,34,53,45
India,Karnataka,Shivamogga,"Vinoba Nagara, Shivamogga - KSPCB",22-07-2024 02:00:00,13.940000,75.555917,CO,2,38,21
India,Karnataka,Udupi,"Brahmagiri, Udupi - KSPCB",22-07-2024 02:00:00,13.34194444,74.74694444,NH3,2,2,2
India,Karnataka,Yadgir,"Collector Office, Yadgir - KSPCB",22-07-2024 02:00:00,16.7602,77.1428,NO2,7,11,9
India,Kerala,Kannur,"Thavakkara, Kannur - Kerala PCB",22-07-2024 02:00:00,11.875000,75.373200,PM10,37,44,42
India,Kerala,Kollam,"Polayathode, Kollam - Kerala PCB",22-07-2024 02:00:00,8.8787,76.6073,PM10,50,86,68
India,Kerala,Thiruvananthapuram,"Plammoodu, Thiruvananthapuram - Kerala PCB",22-07-2024 02:00:00,8.5149093,76.9435879,NO2,7,34,21
India,Kerala,Thiruvananthapuram,"Plammoodu, Thiruvananthapuram - Kerala PCB",22-07-2024 02:00:00,8.5149093,76.9435879,SO2,1,17,10
India,Madhya Pradesh,Bhopal,"Idgah Hills, Bhopal - MPPCB",22-07-2024 02:00:00,23.264759,77.381568,PM10,5,500,70
India,Madhya Pradesh,Bhopal,"Idgah Hills, Bhopal - MPPCB",22-07-2024 02:00:00,23.264759,77.381568,NO2,7,31,14
India,Madhya Pradesh,Bhopal,"Paryavaran Parisar, Bhopal - MPPCB",22-07-2024 02:00:00,23.210494,77.425409,PM10,7,469,78
India,Madhya Pradesh,Bhopal,"T T Nagar, Bhopal - MPPCB",22-07-2024 02:00:00,23.233584,77.400574,NO2,45,59,50
India,Madhya Pradesh,Bhopal,"T T Nagar, Bhopal - MPPCB",22-07-2024 02:00:00,23.233584,77.400574,CO,25,42,37
India,Madhya Pradesh,Dewas,"Bhopal Chauraha, Dewas - MPPCB",22-07-2024 02:00:00,22.9682591,76.064118,PM10,16,56,36
India,Madhya Pradesh,Gwalior,"Deen Dayal Nagar, Gwalior - MPPCB",22-07-2024 02:00:00,26.259242,78.216432,PM10,44,106,72
India,Madhya Pradesh,Gwalior,"Deen Dayal Nagar, Gwalior - MPPCB",22-07-2024 02:00:00,26.259242,78.216432,NH3,3,19,9
India,Madhya Pradesh,Gwalior,"Deen Dayal Nagar, Gwalior - MPPCB",22-07-2024 02:00:00,26.259242,78.216432,SO2,9,17,12
India,Madhya Pradesh,Indore,"Chhoti Gwaltoli, Indore - MPPCB",22-07-2024 02:00:00,22.4310,75.5213,SO2,9,11,10
India,Madhya Pradesh,Indore,"Chhoti Gwaltoli, Indore - MPPCB",22-07-2024 02:00:00,22.4310,75.5213,CO,48,98,75
India,Madhya Pradesh,Indore,"Maguda Nagar, Indore - IMC",22-07-2024 02:00:00,22.7524,75.8872,CO,16,22,21
India,Madhya Pradesh,Jabalpur,"Suhagi, Jabalpur - JMC",22-07-2024 02:00:00,23.218135,79.957770,OZONE,3,37,16
India,Madhya Pradesh,Katni,"Gole Bazar, Katni - MPPCB",22-07-2024 02:00:00,23.50016,80.23284,PM2.5,18,60,31
India,Madhya Pradesh,Maihar,"Sahilara, Maihar - KJS Cements",22-07-2024 02:00:00,24.2613009,80.7231783,NO2,8,8,8
India,Madhya Pradesh,Maihar,"Sahilara, Maihar - KJS Cements",22-07-2024 02:00:00,24.2613009,80.7231783,CO,48,52,49
India,Madhya Pradesh,Pithampur,"Sector-2 Industrial Area, Pithampur - MPPCB",22-07-2024 02:00:00,22.624758,75.675238,PM2.5,15,72,44
India,Madhya Pradesh,Pithampur,"Sector-2 Industrial Area, Pithampur - MPPCB",22-07-2024 02:00:00,22.624758,75.675238,CO,44,61,53
India,Madhya Pradesh,Sagar,"Civil Lines, Sagar - MPPCB",22-07-2024 02:00:00,23.838586,78.759431,PM2.5,9,76,30
India,Madhya Pradesh,Sagar,"Civil Lines, Sagar - MPPCB",22-07-2024 02:00:00,23.838586,78.759431,PM10,12,92,37
India,Madhya Pradesh,Sagar,"Civil Lines, Sagar - MPPCB",22-07-2024 02:00:00,23.838586,78.759431,OZONE,27,86,43
India,Madhya Pradesh,Satna,"Bandhavgar Colony, Satna - Birla Cement",22-07-2024 02:00:00,24.58434363,80.8549414,PM2.5,18,39,27
India,Madhya Pradesh,Satna,"Bandhavgar Colony, Satna - Birla Cement",22-07-2024 02:00:00,24.58434363,80.8549414,SO2,1,2,2
India,Maharashtra,Ahmednagar,"Tarakpur, Ahmednagar - MPCB",22-07-2024 02:00:00,19.10122,74.73339,PM10,24,66,38
India,Maharashtra,Akola,"Ramdaspeth, Akola - MPCB",22-07-2024 02:00:00,20.719516,77.000253,PM2.5,6,63,23
India,Maharashtra,Akola,"Ramdaspeth, Akola - MPCB",22-07-2024 02:00:00,20.719516,77.000253,PM10,14,81,34
India,Maharashtra,Akola,"Ramdaspeth, Akola - MPCB",22-07-2024 02:00:00,20.719516,77.000253,NO2,7,19,12
India,Maharashtra,Akola,"Ramdaspeth, Akola - MPCB",22-07-2024 02:00:00,20.719516,77.000253,CO,22,60,40
India,Maharashtra,Akola,"Ramdaspeth, Akola - MPCB",22-07-2024 02:00:00,20.719516,77.000253,OZONE,7,19,12
India,Maharashtra,Amravati,"Shivneri Colony, Amravati - MPCB",22-07-2024 02:00:00,20.9402359,77.7895248,PM2.5,8,26,17
India,Maharashtra,Amravati,"Shivneri Colony, Amravati - MPCB",22-07-2024 02:00:00,20.9402359,77.7895248,NH3,2,4,3
India,Maharashtra,Amravati,"Shri Shivaji Science College, Amaravati - MPCB",22-07-2024 02:00:00,20.939198,77.765701,NO2,4,16,8
India,Maharashtra,Aurangabad,"MIDC Chilkalthana, Aurangabad - MPCB",22-07-2024 02:00:00,19.875620,75.387310,NO2,3,18,9
India,Maharashtra,Aurangabad,"MIDC Chilkalthana, Aurangabad - MPCB",22-07-2024 02:00:00,19.875620,75.387310,SO2,1,2,1
India,Maharashtra,Badlapur,"Katrap, Badlapur - MPCB",22-07-2024 02:00:00,19.16485,73.23409,NO2,8,39,17
India,Maharashtra,Belapur,"CBD Belapur, Belapur - MPCB",22-07-2024 02:00:00,19.0243902,73.0406721,PM10,8,27,18
India,Maharashtra,Belapur,"CBD Belapur, Belapur - MPCB",22-07-2024 02:00:00,19.0243902,73.0406721,OZONE,13,23,17
India,Maharashtra,Bhiwandi,"Gokul Nagar, Bhiwandi - MPCB",22-07-2024 02:00:00,19.309073,73.057223,PM2.5,24,60,35
India,Maharashtra,Bhiwandi,"Gokul Nagar, Bhiwandi - MPCB",22-07-2024 02:00:00,19.309073,73.057223,SO2,5,12,8
India,Maharashtra,Bhiwandi,"Gokul Nagar, Bhiwandi - MPCB",22-07-2024 02:00:00,19.309073,73.057223,CO,12,46,22
India,Maharashtra,Boisar,"Khaira, Boisar - MPCB",22-07-2024 02:00:00,19.786089,72.757971,PM2.5,11,39,24
India,Maharashtra,Boisar,"Khaira, Boisar - MPCB",22-07-2024 02:00:00,19.786089,72.757971,SO2,1,8,2
India,Maharashtra,Chandrapur,"Chauhan Colony, Chandrapur - MPCB",22-07-2024 02:00:00,19.962900,79.298714,OZONE,30,33,31
India,Maharashtra,Dhule,"Deopur, Dhule - MPCB",22-07-2024 02:00:00,20.918946,74.776388,PM2.5,7,37,25
India,Maharashtra,Dhule,"Deopur, Dhule - MPCB",22-07-2024 02:00:00,20.918946,74.776388,SO2,2,2,2
India,Maharashtra,Dhule,"Deopur, Dhule - MPCB",22-07-2024 02:00:00,20.918946,74.776388,CO,22,29,24
India,Maharashtra,Jalgaon,"Prabhat Colony, Jalgaon - MPCB",22-07-2024 02:00:00,21.001264,75.565602,PM10,24,29,26
India,Maharashtra,Jalgaon,"Prabhat Colony, Jalgaon - MPCB",22-07-2024 02:00:00,21.001264,75.565602,NO2,NA,NA,NA
India,Maharashtra,Jalna,"Old MIDC, Jalna - MPCB",22-07-2024 02:00:00,19.854616,75.905894,PM2.5,28,150,78
India,Maharashtra,Kalyan,"Khadakpada, Kalyan - MPCB",22-07-2024 02:00:00,19.25292,73.142019,PM10,12,44,29
India,Maharashtra,Kalyan,"Khadakpada, Kalyan - MPCB",22-07-2024 02:00:00,19.25292,73.142019,NO2,11,16,13
India,Maharashtra,Kalyan,"Khadakpada, Kalyan - MPCB",22-07-2024 02:00:00,19.25292,73.142019,CO,14,22,19
India,Maharashtra,Kolhapur,"Shivaji University, Kolhapur - MPCB",22-07-2024 02:00:00,16.6870449,74.2505872,PM2.5,13,42,25
India,Maharashtra,Kolhapur,"Shivaji University, Kolhapur - MPCB",22-07-2024 02:00:00,16.6870449,74.2505872,PM10,19,36,27
India,Maharashtra,Kolhapur,"Shivaji University, Kolhapur - MPCB",22-07-2024 02:00:00,16.6870449,74.2505872,CO,2,24,13
India,Maharashtra,Kolhapur,"Sinchan Bhavan, Kolhapur - MPCB",22-07-2024 02:00:00,16.7143745,74.2426398,NH3,7,8,8
India,Maharashtra,Latur,"Sawe Wadi, Latur - MPCB",22-07-2024 02:00:00,18.39963,76.57452,PM2.5,6,26,13
India,Maharashtra,Latur,"Sawe Wadi, Latur - MPCB",22-07-2024 02:00:00,18.39963,76.57452,NO2,1,47,15
India,Maharashtra,Mahad,"Kamble Tarf Birwadi, Mahad - MPCB",22-07-2024 02:00:00,18.1023399,73.4783687,PM2.5,8,31,15
India,Maharashtra,Malegaon,"Mahesh Nagar, Malegaon - MPCB",22-07-2024 02:00:00,20.555712,74.529236,NH3,2,5,3
India,Maharashtra,Mumbai,"Bandra Kurla Complex, Mumbai - MPCB",22-07-2024 02:00:00,19.065931,72.862131,PM10,15,38,25
India,Maharashtra,Mumbai,"Bandra Kurla Complex, Mumbai - MPCB",22-07-2024 02:00:00,19.065931,72.862131,NH3,8,11,10
India,Maharashtra,Mumbai,"Bandra Kurla Complex, Mumbai - MPCB",22-07-2024 02:00:00,19.065931,72.862131,SO2,1,3,2
India,Maharashtra,Mumbai,"Bandra Kurla Complex, Mumbai - MPCB",22-07-2024 02:00:00,19.065931,72.862131,OZONE,17,36,26
India,Maharashtra,Mumbai,"Borivali East, Mumbai - IITM",22-07-2024 02:00:00,19.23241,72.86895,PM10,12,35,24
India,Maharashtra,Mumbai,"Borivali East, Mumbai - IITM",22-07-2024 02:00:00,19.23241,72.86895,NO2,33,43,41
India,Maharashtra,Mumbai,"Borivali East, Mumbai - IITM",22-07-2024 02:00:00,19.23241,72.86895,CO,30,53,43
India,Maharashtra,Mumbai,"Byculla, Mumbai - BMC",22-07-2024 02:00:00,18.9767,72.8380,SO2,NA,NA,NA
India,Maharashtra,Mumbai,"Byculla, Mumbai - BMC",22-07-2024 02:00:00,18.9767,72.8380,CO,4,13,8
India,Maharashtra,Mumbai,"Chembur, Mumbai - MPCB",22-07-2024 02:00:00,19.0364585,72.8954371,CO,16,26,22
India,Maharashtra,Mumbai,"Chhatrapati Shivaji Intl. Airport (T2), Mumbai - MPCB",22-07-2024 02:00:00,19.10078,72.87462,PM2.5,7,30,17
India,Maharashtra,Mumbai,"Chhatrapati Shivaji Intl. Airport (T2), Mumbai - MPCB",22-07-2024 02:00:00,19.10078,72.87462,NH3,1,1,1
India,Maharashtra,Mumbai,"Chhatrapati Shivaji Intl. Airport (T2), Mumbai - MPCB",22-07-2024 02:00:00,19.10078,72.87462,CO,10,16,14
India,Maharashtra,Mumbai,"Colaba, Mumbai - MPCB",22-07-2024 02:00:00,18.910000,72.820000,NH3,1,1,1
India,Maharashtra,Mumbai,"Colaba, Mumbai - MPCB",22-07-2024 02:00:00,18.910000,72.820000,CO,13,14,14
India,Maharashtra,Mumbai,"Deonar, Mumbai - IITM",22-07-2024 02:00:00,19.04946,72.9230,PM2.5,NA,NA,NA
India,Maharashtra,Mumbai,"Deonar, Mumbai - IITM",22-07-2024 02:00:00,19.04946,72.9230,PM10,NA,NA,NA
India,Maharashtra,Mumbai,"Deonar, Mumbai - IITM",22-07-2024 02:00:00,19.04946,72.9230,NH3,6,10,9
India,Maharashtra,Mumbai,"Ghatkopar, Mumbai - BMC",22-07-2024 02:00:00,19.083694,72.920967,PM10,9,24,14
India,Maharashtra,Mumbai,"Ghatkopar, Mumbai - BMC",22-07-2024 02:00:00,19.083694,72.920967,NO2,2,12,5
India,Maharashtra,Mumbai,"Kandivali West, Mumbai - BMC",22-07-2024 02:00:00,19.215859,72.831718,PM10,13,31,21
India,Maharashtra,Mumbai,"Kandivali West, Mumbai - BMC",22-07-2024 02:00:00,19.215859,72.831718,SO2,1,3,2
India,Maharashtra,Mumbai,"Kherwadi_Bandra East, Mumbai - MPCB",22-07-2024 02:00:00,19.0632143,72.8456324,PM10,14,38,26
India,Maharashtra,Mumbai,"Khindipada-Bhandup West, Mumbai - IITM",22-07-2024 02:00:00,19.1653323,72.922099,CO,3,10,8
India,Maharashtra,Mumbai,"Malad West, Mumbai - IITM",22-07-2024 02:00:00,19.19709,72.82204,PM2.5,4,29,11
India,Maharashtra,Mumbai,"Mazgaon, Mumbai - IITM",22-07-2024 02:00:00,18.96702,72.84214,PM10,12,41,25
India,Maharashtra,Mumbai,"Mindspace-Malad West, Mumbai - MPCB",22-07-2024 02:00:00,19.1878657,72.8304069,NH3,5,5,5
India,Maharashtra,Mumbai,"Navy Nagar-Colaba, Mumbai - IITM",22-07-2024 02:00:00,18.897756,72.813320,PM2.5,15,46,29
India,Maharashtra,Mumbai,"Navy Nagar-Colaba, Mumbai - IITM",22-07-2024 02:00:00,18.897756,72.813320,NH3,2,2,2
India,Maharashtra,Mumbai,"Powai, Mumbai - MPCB",22-07-2024 02:00:00,19.137500,72.915056,PM10,7,29,19
India,Maharashtra,Mumbai,"Powai, Mumbai - MPCB",22-07-2024 02:00:00,19.137500,72.915056,SO2,14,14,14
India,Maharashtra,Mumbai,"Powai, Mumbai - MPCB",22-07-2024 02:00:00,19.137500,72.915056,CO,16,19,17
India,Maharashtra,Mumbai,"Sewri, Mumbai - BMC",22-07-2024 02:00:00,19.000084,72.856730,CO,14,34,26
India,Maharashtra,Mumbai,"Sion, Mumbai - MPCB",22-07-2024 02:00:00,19.047000,72.874600,SO2,28,28,28
India,Maharashtra,Mumbai,"Vasai West, Mumbai - MPCB",22-07-2024 02:00:00,19.383200,72.820400,PM2.5,NA,NA,NA
India,Maharashtra,Mumbai,"Worli, Mumbai - MPCB",22-07-2024 02:00:00,18.9936162,72.8128113,PM2.5,4,10,7
India,Maharashtra,Mumbai,"Worli, Mumbai - MPCB",22-07-2024 02:00:00,18.9936162,72.8128113,PM10,8,18,13
India,Maharashtra,Mumbai,"Worli, Mumbai - MPCB",22-07-2024 02:00:00,18.9936162,72.8128113,CO,52,57,57
India,Maharashtra,Nagpur,"Mahal, Nagpur - MPCB",22-07-2024 02:00:00,21.14472,79.107595,NH3,4,6,5
India,Maharashtra,Nagpur,"Mahal, Nagpur - MPCB",22-07-2024 02:00:00,21.14472,79.107595,OZONE,5,19,11
India,Maharashtra,Nagpur,"Opp GPO Civil Lines, Nagpur - MPCB",22-07-2024 02:00:00,21.152875,79.0517531,PM10,7,30,15
India,Maharashtra,Nagpur,"Opp GPO Civil Lines, Nagpur - MPCB",22-07-2024 02:00:00,21.152875,79.0517531,NO2,7,21,12
India,Maharashtra,Nagpur,"Opp GPO Civil Lines, Nagpur - MPCB",22-07-2024 02:00:00,21.152875,79.0517531,CO,12,31,20
India,Maharashtra,Nagpur,"Ram Nagar, Nagpur - MPCB",22-07-2024 02:00:00,21.143383,79.048912,SO2,2,7,4
India,Maharashtra,Nagpur,"Ram Nagar, Nagpur - MPCB",22-07-2024 02:00:00,21.143383,79.048912,OZONE,2,9,4
India,Maharashtra,Nashik,"Gangapur Road, Nashik - MPCB",22-07-2024 02:00:00,20.0073285,73.7762427,PM10,NA,NA,NA
India,Maharashtra,Nashik,"Gangapur Road, Nashik - MPCB",22-07-2024 02:00:00,20.0073285,73.7762427,NO2,NA,NA,NA
India,Maharashtra,Nashik,"Gangapur Road, Nashik - MPCB",22-07-2024 02:00:00,20.0073285,73.7762427,CO,28,184,106
India,Maharashtra,Nashik,"Hirawadi, Nashik - MPCB",22-07-2024 02:00:00,20.021503,73.813844,NH3,1,1,1
India,Maharashtra,Nashik,"MIDC Ambad, Nashik - MPCB",22-07-2024 02:00:00,19.950220,73.731480,SO2,1,3,2
India,Maharashtra,Nashik,"Pandav Nagari, Nashik - MPCB",22-07-2024 02:00:00,19.9591346,73.7788008,NO2,NA,NA,NA
India,Maharashtra,Nashik,"Pandav Nagari, Nashik - MPCB",22-07-2024 02:00:00,19.9591346,73.7788008,CO,14,18,16
India,Maharashtra,Navi Mumbai,"Kopripada-Vashi, Navi Mumbai - MPCB",22-07-2024 02:00:00,19.090337,73.014232,OZONE,NA,NA,NA
India,Maharashtra,Navi Mumbai,"Mahape, Navi Mumbai - MPCB",22-07-2024 02:00:00,19.1135051,73.008978,PM2.5,12,51,23
India,Maharashtra,Navi Mumbai,"Mahape, Navi Mumbai - MPCB",22-07-2024 02:00:00,19.1135051,73.008978,PM10,11,90,31
India,Maharashtra,Navi Mumbai,"Nerul, Navi Mumbai - MPCB",22-07-2024 02:00:00,19.008751,73.016620,OZONE,17,22,20
India,Maharashtra,Navi Mumbai,"Sanpada, Navi Mumbai - MPCB",22-07-2024 02:00:00,19.0575752,73.0151367,CO,1,6,2
India,Maharashtra,Navi Mumbai,"Sector-2E Kalamboli, Navi Mumbai - MPCB",22-07-2024 02:00:00,19.02579,73.10297,PM10,13,54,31
India,Maharashtra,Pimpri-Chinchwad,"Gavalinagar, Pimpri Chinchwad - MPCB",22-07-2024 02:00:00,18.63673,73.82487,SO2,1,2,2
India,Maharashtra,Pimpri-Chinchwad,"Park Street Wakad, Pimpri Chinchwad - MPCB",22-07-2024 02:00:00,18.59051,73.77946,PM2.5,17,50,26
India,Maharashtra,Pimpri-Chinchwad,"Park Street Wakad, Pimpri Chinchwad - MPCB",22-07-2024 02:00:00,18.59051,73.77946,NH3,1,2,1
India,Maharashtra,Pimpri-Chinchwad,"Park Street Wakad, Pimpri Chinchwad - MPCB",22-07-2024 02:00:00,18.59051,73.77946,SO2,1,2,2
India,Maharashtra,Pimpri-Chinchwad,"Park Street Wakad, Pimpri Chinchwad - MPCB",22-07-2024 02:00:00,18.59051,73.77946,CO,8,19,13
India,Maharashtra,Pimpri-Chinchwad,"Park Street Wakad, Pimpri Chinchwad - MPCB",22-07-2024 02:00:00,18.59051,73.77946,OZONE,8,15,11
India,Maharashtra,Pimpri-Chinchwad,"Thergaon, Pimpri Chinchwad - MPCB",22-07-2024 02:00:00,18.616318,73.765797,PM2.5,8,22,15
India,Maharashtra,Pimpri-Chinchwad,"Thergaon, Pimpri Chinchwad - MPCB",22-07-2024 02:00:00,18.616318,73.765797,NO2,15,42,29
India,Maharashtra,Pune,"Alandi, Pune - IITM",22-07-2024 02:00:00,18.675076,73.892743,PM2.5,8,47,17
India,Maharashtra,Pune,"Bhosari, Pune - IITM",22-07-2024 02:00:00,18.640051,73.848956,PM2.5,10,32,19
India,Maharashtra,Pune,"Karve Road, Pune - MPCB",22-07-2024 02:00:00,18.5011743,73.8165527,PM2.5,NA,NA,NA
India,Maharashtra,Pune,"Karve Road, Pune - MPCB",22-07-2024 02:00:00,18.5011743,73.8165527,CO,2,20,9
India,Maharashtra,Pune,"Panchawati_Pashan, Pune - IITM",22-07-2024 02:00:00,18.536457,73.805454,CO,2,95,43
India,Maharashtra,Pune,"Revenue Colony-Shivajinagar, Pune - IITM",22-07-2024 02:00:00,18.530085,73.849598,NO2,22,38,30
India,Maharashtra,Pune,"Savitribai Phule Pune University, Pune - MPCB",22-07-2024 02:00:00,18.547056,73.826908,PM10,15,43,28
India,Maharashtra,Pune,"Savitribai Phule Pune University, Pune - MPCB",22-07-2024 02:00:00,18.547056,73.826908,NO2,12,26,18
India,Maharashtra,Pune,"Savitribai Phule Pune University, Pune - MPCB",22-07-2024 02:00:00,18.547056,73.826908,NH3,2,3,2
India,Maharashtra,Pune,"Savitribai Phule Pune University, Pune - MPCB",22-07-2024 02:00:00,18.547056,73.826908,CO,8,16,12
India,Maharashtra,Pune,"Savitribai Phule Pune University, Pune - MPCB",22-07-2024 02:00:00,18.547056,73.826908,OZONE,11,35,22
India,Maharashtra,Pune,"Transport Nagar-Nigdi, Pune - IITM",22-07-2024 02:00:00,18.664282,73.763966,PM10,14,48,23
India,Maharashtra,Pune,"Transport Nagar-Nigdi, Pune - IITM",22-07-2024 02:00:00,18.664282,73.763966,NO2,16,22,19
India,Maharashtra,Solapur,"Dnyaneshwar Nagar, Solapur - MPCB",22-07-2024 02:00:00,17.6336264,75.9132495,SO2,2,3,2
India,Maharashtra,Solapur,"Dnyaneshwar Nagar, Solapur - MPCB",22-07-2024 02:00:00,17.6336264,75.9132495,CO,8,14,10
India,Maharashtra,Solapur,"Ratandeep Housing Society, Solapur - MPCB",22-07-2024 02:00:00,17.65439,75.90649,PM10,7,40,23
India,Maharashtra,Solapur,"Ratandeep Housing Society, Solapur - MPCB",22-07-2024 02:00:00,17.65439,75.90649,SO2,3,3,3
India,Maharashtra,Solapur,"Solapur, Solapur - MPCB",22-07-2024 02:00:00,17.6599188,75.9063906,PM2.5,31,54,39
India,Maharashtra,Solapur,"Solapur, Solapur - MPCB",22-07-2024 02:00:00,17.6599188,75.9063906,NO2,54,54,54
India,Maharashtra,Thane,"Kasarvadavali, Thane - MPCB",22-07-2024 02:00:00,19.26777,72.97182,PM2.5,7,40,19
India,Maharashtra,Thane,"Kasarvadavali, Thane - MPCB",22-07-2024 02:00:00,19.26777,72.97182,CO,12,26,20
India,Maharashtra,Thane,"Pimpleshwar Mandir, Thane - MPCB",22-07-2024 02:00:00,19.192056,72.9585188,NH3,4,4,4
India,Maharashtra,Thane,"Pimpleshwar Mandir, Thane - MPCB",22-07-2024 02:00:00,19.192056,72.9585188,OZONE,13,21,18
India,Maharashtra,Thane,"Upvan Fort, Thane - MPCB",22-07-2024 02:00:00,19.222279,72.957979,NO2,3,10,6
India,Maharashtra,Ulhasnagar,"Sidhi Vinayak Nagar, Ulhasnagar - MPCB",22-07-2024 02:00:00,19.235581,73.159121,OZONE,12,20,14
India,Maharashtra,Virar,"Bolinj, Virar - MPCB",22-07-2024 02:00:00,19.4458210,72.7988231,CO,10,64,40
India,Manipur,Imphal,"DM College of Science, Imphal - Manipur PCB",22-07-2024 02:00:00,24.8207389,93.9423085,NH3,2,2,2
India,Manipur,Imphal,"DM College of Science, Imphal - Manipur PCB",22-07-2024 02:00:00,24.8207389,93.9423085,CO,7,8,7
India,Meghalaya,Shillong,"Lumpyngngad, Shillong - Meghalaya PCB",22-07-2024 02:00:00,25.5586,91.8985,PM2.5,NA,NA,NA
India,Mizoram,Aizawl,"Sikulpuikawn, Aizawl - Mizoram PCB",22-07-2024 02:00:00,23.7176342,92.7192841,PM2.5,NA,NA,NA
India,Odisha,Balasore,"Kalidaspur, Balasore - OSPCB",22-07-2024 02:00:00,21.51161,86.89088,PM2.5,7,80,40
India,Odisha,Baripada,"Meher Colony, Baripada - OSPCB",22-07-2024 02:00:00,21.941841,86.728318,PM10,17,45,28
India,Odisha,Baripada,"Meher Colony, Baripada - OSPCB",22-07-2024 02:00:00,21.941841,86.728318,CO,14,41,34
India,Odisha,Baripada,"Meher Colony, Baripada - OSPCB",22-07-2024 02:00:00,21.941841,86.728318,OZONE,49,84,68
India,Odisha,Bhubaneswar,"Lingraj Mandir, Bhubaneswar - OSPCB",22-07-2024 02:00:00,20.240790,85.836784,NH3,NA,NA,NA
India,Odisha,Bhubaneswar,"Patia, Bhubaneswar - OSPCB",22-07-2024 02:00:00,20.34652,85.81630,PM2.5,8,35,20
India,Odisha,Bhubaneswar,"Patia, Bhubaneswar - OSPCB",22-07-2024 02:00:00,20.34652,85.81630,NO2,4,10,6
India,Odisha,Bhubaneswar,"Patia, Bhubaneswar - OSPCB",22-07-2024 02:00:00,20.34652,85.81630,SO2,3,6,5
India,Odisha,Bhubaneswar,"Patia, Bhubaneswar - OSPCB",22-07-2024 02:00:00,20.34652,85.81630,CO,15,20,18
India,Odisha,Bileipada,"Tata Township, Bileipada - OSPCB",22-07-2024 02:00:00,22.06156703,85.47409613,SO2,NA,NA,NA
India,Odisha,Brajrajnagar,"GM Office, Brajrajnagar - OSPCB",22-07-2024 02:00:00,21.8004996,83.8396977,PM2.5,1,12,5
India,Odisha,Byasanagar,"Ferro Chrome Colony, Byasanagar - OSPCB",22-07-2024 02:00:00,20.94185,86.11510,PM10,2,28,15
India,Odisha,Byasanagar,"Ferro Chrome Colony, Byasanagar - OSPCB",22-07-2024 02:00:00,20.94185,86.11510,SO2,3,6,4
India,Odisha,Byasanagar,"Ferro Chrome Colony, Byasanagar - OSPCB",22-07-2024 02:00:00,20.94185,86.11510,OZONE,20,81,43
India,Odisha,Cuttack,"CDA Area, Cuttack - OSPCB",22-07-2024 02:00:00,20.48891     ,85.84768     ,PM10,11,41,23
India,Odisha,Keonjhar,"Jagamohanpur, Keonjhar - OSPCB",22-07-2024 02:00:00,21.643900,85.599355,NO2,15,18,16
India,Odisha,Keonjhar,"Jagamohanpur, Keonjhar - OSPCB",22-07-2024 02:00:00,21.643900,85.599355,NH3,3,3,3
India,Odisha,Nayagarh,"Dabuna, Nayagarh - OSPCB",22-07-2024 02:00:00,21.847279,85.416905,NH3,3,4,4
India,Odisha,Rourkela,"Raghunathpali, Rourkela - OSPCB",22-07-2024 02:00:00,22.220833,84.809444,NO2,13,32,21
India,Odisha,Rourkela,"Raghunathpali, Rourkela - OSPCB",22-07-2024 02:00:00,22.220833,84.809444,NH3,2,3,2
India,Odisha,Suakati,"OMC Colony, Suakati - OSPCB",22-07-2024 02:00:00,21.606865,85.510538,OZONE,35,66,45
India,Odisha,Talcher,"Talcher Coalfields,Talcher - OSPCB",22-07-2024 02:00:00,20.9360711,85.1707021,NO2,23,28,25
India,Odisha,Tensa,"Barsua Iron Ore Mines, Tensa - OSPCB",22-07-2024 02:00:00,21.869985,85.167016,PM10,23,62,31
India,Puducherry,Puducherry,"Jawahar Nagar, Puducherry - PPCC",22-07-2024 02:00:00,11.9309,79.8027,PM10,30,76,46
India,Puducherry,Puducherry,"Jawahar Nagar, Puducherry - PPCC",22-07-2024 02:00:00,11.9309,79.8027,NH3,3,6,4
India,Puducherry,Puducherry,"Jawahar Nagar, Puducherry - PPCC",22-07-2024 02:00:00,11.9309,79.8027,SO2,8,15,12
India,Punjab,Amritsar,"Golden Temple, Amritsar - PPCB",22-07-2024 02:00:00,31.620000,74.876512,NO2,6,9,7
India,Punjab,Bathinda,"Hardev Nagar, Bathinda - PPCB",22-07-2024 02:00:00,30.233011,74.907758,PM2.5,40,267,139
India,Punjab,Jalandhar,"Civil Line, Jalandhar - PPCB",22-07-2024 02:00:00,31.321907,75.578914,CO,20,92,62
India,Punjab,Jalandhar,"Civil Line, Jalandhar - PPCB",22-07-2024 02:00:00,31.321907,75.578914,OZONE,21,27,23
India,Punjab,Khanna,"Kalal Majra, Khanna - PPCB",22-07-2024 02:00:00,30.736056 ,76.209694,PM2.5,35,303,76
India,Punjab,Khanna,"Kalal Majra, Khanna - PPCB",22-07-2024 02:00:00,30.736056 ,76.209694,NH3,7,7,7
India,Punjab,Ludhiana,"Punjab Agricultural University, Ludhiana - PPCB",22-07-2024 02:00:00,30.9028,75.8086,NO2,22,29,24
India,Punjab,Ludhiana,"Punjab Agricultural University, Ludhiana - PPCB",22-07-2024 02:00:00,30.9028,75.8086,NH3,5,9,7
India,Punjab,Ludhiana,"Punjab Agricultural University, Ludhiana - PPCB",22-07-2024 02:00:00,30.9028,75.8086,SO2,7,11,9
India,Punjab,Mandi Gobindgarh,"RIMT University, Mandi Gobindgarh - PPCB",22-07-2024 02:00:00,30.649961,76.331442,NH3,7,7,7
India,Punjab,Patiala,"Model Town, Patiala - PPCB",22-07-2024 02:00:00,30.349388,76.366642,PM2.5,28,72,55
India,Punjab,Patiala,"Model Town, Patiala - PPCB",22-07-2024 02:00:00,30.349388,76.366642,OZONE,43,71,52
India,Punjab,Rupnagar,"Ratanpura, Rupnagar - Ambuja Cements",22-07-2024 02:00:00,31.0325454,76.5623046,SO2,4,5,4
India,Punjab,Rupnagar,"Ratanpura, Rupnagar - Ambuja Cements",22-07-2024 02:00:00,31.0325454,76.5623046,CO,27,53,32
India,Rajasthan,Ajmer,"Civil Lines,  Ajmer - RSPCB",22-07-2024 02:00:00,26.470859,74.646594,NO2,12,13,12
India,Rajasthan,Alwar,"Moti Doongri, Alwar - RSPCB",22-07-2024 02:00:00,27.554793,76.611536,PM2.5,37,96,56
India,Rajasthan,Alwar,"Moti Doongri, Alwar - RSPCB",22-07-2024 02:00:00,27.554793,76.611536,PM10,65,102,79
India,Rajasthan,Alwar,"Moti Doongri, Alwar - RSPCB",22-07-2024 02:00:00,27.554793,76.611536,OZONE,12,41,22
India,Rajasthan,Banswara,"Rati Talai, Banswara - RSPCB",22-07-2024 02:00:00,23.555190,74.440010,NH3,1,4,3
India,Rajasthan,Baran,"Bamboliya, Baran - RSPCB",22-07-2024 02:00:00,25.106006,76.469948,NO2,4,12,8
India,Rajasthan,Baran,"Bamboliya, Baran - RSPCB",22-07-2024 02:00:00,25.106006,76.469948,CO,14,24,22
India,Rajasthan,Barmer,"Railway Colony, Barmer - RSPCB",22-07-2024 02:00:00,25.747299,71.393989,NH3,3,5,4
India,Rajasthan,Bhilwara,"Pratap Nagar, Bhilwara - RSPCB",22-07-2024 02:00:00,25.339605,74.618883,PM2.5,27,63,42
India,Rajasthan,Bhilwara,"Pratap Nagar, Bhilwara - RSPCB",22-07-2024 02:00:00,25.339605,74.618883,PM10,29,65,42
India,Rajasthan,Bhilwara,"Pratap Nagar, Bhilwara - RSPCB",22-07-2024 02:00:00,25.339605,74.618883,SO2,11,16,13
India,Rajasthan,Bhiwadi,"RIICO Ind. Area III, Bhiwadi - RSPCB",22-07-2024 02:00:00,28.194909,76.862296,SO2,2,20,11
India,Rajasthan,Bhiwadi,"RIICO Ind. Area III, Bhiwadi - RSPCB",22-07-2024 02:00:00,28.194909,76.862296,CO,33,114,76
India,Rajasthan,Bhiwadi,"Vasundhara Nagar_UIT, Bhiwadi - RSPCB",22-07-2024 02:00:00,28.207266,76.829265,SO2,NA,NA,NA
India,Rajasthan,Bikaner,"MM Ground, Bikaner - RSPCB",22-07-2024 02:00:00,28.018792,73.292658,PM2.5,28,83,50
India,Rajasthan,Bundi,"New Colony, Bundi - RSPCB",22-07-2024 02:00:00,25.435774,75.644272,NO2,5,15,10
India,Rajasthan,Bundi,"New Colony, Bundi - RSPCB",22-07-2024 02:00:00,25.435774,75.644272,OZONE,26,32,28
India,Rajasthan,Chittorgarh,"Shastri Nagar, Chittorgarh - RSPCB",22-07-2024 02:00:00,24.892047,74.623527,PM2.5,8,359,99
India,Rajasthan,Chittorgarh,"Shastri Nagar, Chittorgarh - RSPCB",22-07-2024 02:00:00,24.892047,74.623527,SO2,6,11,8
India,Rajasthan,Chittorgarh,"Shastri Nagar, Chittorgarh - RSPCB",22-07-2024 02:00:00,24.892047,74.623527,CO,20,28,25
India,Rajasthan,Churu,"Subash Chowk, Churu - RSPCB",22-07-2024 02:00:00,28.296139,74.961696,PM10,43,252,131
India,Rajasthan,Churu,"Subash Chowk, Churu - RSPCB",22-07-2024 02:00:00,28.296139,74.961696,NH3,16,17,16
India,Rajasthan,Churu,"Subash Chowk, Churu - RSPCB",22-07-2024 02:00:00,28.296139,74.961696,SO2,1,7,2
India,Rajasthan,Dausa,"Khatikan Mohalla, Dausa - RSPCB",22-07-2024 02:00:00,26.895552,76.334753,CO,26,74,47
India,Rajasthan,Dholpur,"Raja Ganj, Dholpur - RSPCB",22-07-2024 02:00:00,26.699557,77.898881,OZONE,43,58,51
India,Rajasthan,Dungarpur,"Bhoiwada, Dungarpur - RSPCB",22-07-2024 02:00:00,23.837789,73.714926,CO,28,107,88
India,Rajasthan,Hanumangarh,"Housing Board, Hanumangarh - RSPCB",22-07-2024 02:00:00,29.610750,74.283608,NO2,12,32,19
India,Rajasthan,Jaipur,"Adarsh Nagar, Jaipur - RSPCB",22-07-2024 02:00:00,26.902909,75.836858,CO,10,35,22
India,Rajasthan,Jaipur,"Police Commissionerate, Jaipur - RSPCB",22-07-2024 02:00:00,26.9164092,75.7994901,PM10,23,102,58
India,Rajasthan,Jaipur,"Police Commissionerate, Jaipur - RSPCB",22-07-2024 02:00:00,26.9164092,75.7994901,OZONE,36,92,57
India,Rajasthan,Jaipur,"RIICO Sitapura, Jaipur - RSPCB",22-07-2024 02:00:00,26.786682,75.827928,NO2,10,33,20
India,Rajasthan,Jaipur,"Sector-2 Murlipura, Jaipur - RSPCB",22-07-2024 02:00:00,26.960669,75.771817,CO,5,12,10
India,Rajasthan,Jaipur,"Shastri Nagar, Jaipur - RSPCB",22-07-2024 02:00:00,26.9502929,75.730943,PM10,51,87,70
India,Rajasthan,Jaipur,"Shastri Nagar, Jaipur - RSPCB",22-07-2024 02:00:00,26.9502929,75.730943,NH3,4,9,6
India,Rajasthan,Jaisalmer,"Sadar Bazar, Jaisalmer - RSPCB",22-07-2024 02:00:00,26.912329,70.909168,PM2.5,15,29,20
India,Rajasthan,Jaisalmer,"Sadar Bazar, Jaisalmer - RSPCB",22-07-2024 02:00:00,26.912329,70.909168,NH3,1,28,8
India,Rajasthan,Jaisalmer,"Sadar Bazar, Jaisalmer - RSPCB",22-07-2024 02:00:00,26.912329,70.909168,CO,2,34,12
India,Rajasthan,Jalore,"Mudtra Sili, Jalore - RSPCB",22-07-2024 02:00:00,25.344694,72.626208,PM2.5,28,72,47
India,Rajasthan,Jalore,"Mudtra Sili, Jalore - RSPCB",22-07-2024 02:00:00,25.344694,72.626208,NH3,4,19,7
India,Rajasthan,Jhunjhunu,"Indra Nagar, Jhunjhunu - RSPCB",22-07-2024 02:00:00,28.108988,75.386577,NO2,10,23,13
India,Rajasthan,Jhunjhunu,"Indra Nagar, Jhunjhunu - RSPCB",22-07-2024 02:00:00,28.108988,75.386577,CO,19,26,23
India,Rajasthan,Jhunjhunu,"Indra Nagar, Jhunjhunu - RSPCB",22-07-2024 02:00:00,28.108988,75.386577,OZONE,4,59,42
India,Rajasthan,Jodhpur,"Collectorate, Jodhpur - RSPCB",22-07-2024 02:00:00,26.268249,73.0193853,SO2,1,15,6
India,Rajasthan,Jodhpur,"Mandor, Jodhpur - RSPCB",22-07-2024 02:00:00,26.358805,73.047444,PM10,26,90,59
India,Rajasthan,Jodhpur,"Samrat Ashok Udhyan, Jodhpur - RSPCB",22-07-2024 02:00:00,26.253384,72.976571,NH3,4,8,5
India,Rajasthan,Jodhpur,"Samrat Ashok Udhyan, Jodhpur - RSPCB",22-07-2024 02:00:00,26.253384,72.976571,SO2,3,5,4
India,Rajasthan,Jodhpur,"Samrat Ashok Udhyan, Jodhpur - RSPCB",22-07-2024 02:00:00,26.253384,72.976571,CO,8,26,18
India,Rajasthan,Kota,"Dhanmandi, Kota - RSPCB",22-07-2024 02:00:00,25.164090,75.858137,NH3,5,9,7
India,Rajasthan,Kota,"Nayapura, Kota - RSPCB",22-07-2024 02:00:00,25.196024,75.855668,NO2,8,37,16
India,Rajasthan,Kota,"Shrinath Puram, Kota - RSPCB",22-07-2024 02:00:00,25.14389,75.821256,PM2.5,38,177,77
India,Rajasthan,Kota,"Shrinath Puram, Kota - RSPCB",22-07-2024 02:00:00,25.14389,75.821256,SO2,2,10,6
India,Rajasthan,Pali,"Indira Colony Vistar, Pali - RSPCB",22-07-2024 02:00:00,25.771061, 73.340227,NO2,6,59,28
India,Rajasthan,Pratapgarh,"Pragati Nagar, Pratapgarh - RSPCB",22-07-2024 02:00:00,24.041198,74.780702,NH3,3,5,4
India,Rajasthan,Rajsamand,"Dhoinda, Rajsamand - RSPCB",22-07-2024 02:00:00,25.036360,73.883502,PM2.5,2,53,25
India,Rajasthan,Sawai Madhopur,"Sahu Nagar, Sawai Madhopur - RSPCB",22-07-2024 02:00:00,26.031443,76.359327,PM10,24,314,70
India,Rajasthan,Sawai Madhopur,"Sahu Nagar, Sawai Madhopur - RSPCB",22-07-2024 02:00:00,26.031443,76.359327,OZONE,20,51,33
India,Rajasthan,Sirohi,"Vedhaynath Colony, Sirohi - RSPCB",22-07-2024 02:00:00,24.885261,72.857549,NO2,4,18,10
India,Rajasthan,Sirohi,"Vedhaynath Colony, Sirohi - RSPCB",22-07-2024 02:00:00,24.885261,72.857549,NH3,2,6,5
India,Rajasthan,Udaipur,"Ashok Nagar, Udaipur - RSPCB",22-07-2024 02:00:00,24.5886166,73.6321397,PM2.5,10,65,40
India,Rajasthan,Udaipur,"Ashok Nagar, Udaipur - RSPCB",22-07-2024 02:00:00,24.5886166,73.6321397,CO,5,100,37
India,TamilNadu,Ariyalur,"Keelapalur, Ariyalur - TNPCB",22-07-2024 02:00:00,11.06825,79.07033,PM2.5,10,28,20
India,TamilNadu,Ariyalur,"Keelapalur, Ariyalur - TNPCB",22-07-2024 02:00:00,11.06825,79.07033,NH3,1,2,1
India,TamilNadu,Chennai,"Alandur Bus Depot, Chennai - CPCB",22-07-2024 02:00:00,12.9099161,80.1076538,PM2.5,23,449,127
India,TamilNadu,Chennai,"Kodungaiyur, Chennai - TNPCB",22-07-2024 02:00:00,13.1278,80.2642,PM10,29,81,56
India,TamilNadu,Chennai,"Kodungaiyur, Chennai - TNPCB",22-07-2024 02:00:00,13.1278,80.2642,NO2,12,33,17
India,TamilNadu,Chennai,"Royapuram, Chennai - TNPCB",22-07-2024 02:00:00,13.1036,80.2909,PM10,37,86,63
India,TamilNadu,Chennai,"Royapuram, Chennai - TNPCB",22-07-2024 02:00:00,13.1036,80.2909,SO2,3,21,8
India,TamilNadu,Chennai,"Royapuram, Chennai - TNPCB",22-07-2024 02:00:00,13.1036,80.2909,CO,22,48,36
India,TamilNadu,Chennai,"Royapuram, Chennai - TNPCB",22-07-2024 02:00:00,13.1036,80.2909,OZONE,5,9,7
India,TamilNadu,Chennai,"Velachery Res. Area, Chennai - CPCB",22-07-2024 02:00:00,13.0052189,80.2398125,NO2,28,34,31
India,TamilNadu,Chennai,"Velachery Res. Area, Chennai - CPCB",22-07-2024 02:00:00,13.0052189,80.2398125,OZONE,18,155,155
India,TamilNadu,Coimbatore,"PSG College of Arts and Science, Coimbatore - TNPCB",22-07-2024 02:00:00,11.0328,77.0349,PM2.5,NA,NA,NA
India,TamilNadu,Coimbatore,"PSG College of Arts and Science, Coimbatore - TNPCB",22-07-2024 02:00:00,11.0328,77.0349,OZONE,NA,NA,NA
India,TamilNadu,Cuddalore,"Semmandalam, Cuddalore - TNPCB",22-07-2024 02:00:00,11.7637683,79.7499835,NO2,15,28,20
India,TamilNadu,Ramanathapuram,"Chalai Bazaar, Ramanathapuram - TNPCB",22-07-2024 02:00:00,9.36399,78.831977,NH3,NA,NA,NA
India,TamilNadu,Ramanathapuram,"Chalai Bazaar, Ramanathapuram - TNPCB",22-07-2024 02:00:00,9.36399,78.831977,SO2,NA,NA,NA
India,Telangana,Hyderabad,"Central University, Hyderabad - TSPCB",22-07-2024 02:00:00,17.460103,78.334361,NO2,NA,NA,NA
India,Telangana,Hyderabad,"Central University, Hyderabad - TSPCB",22-07-2024 02:00:00,17.460103,78.334361,NH3,NA,NA,NA
India,Telangana,Hyderabad,"ECIL Kapra, Hyderabad - TSPCB",22-07-2024 02:00:00,17.470431,78.566959,PM10,NA,NA,NA
India,Telangana,Hyderabad,"ECIL Kapra, Hyderabad - TSPCB",22-07-2024 02:00:00,17.470431,78.566959,SO2,NA,NA,NA
India,Telangana,Hyderabad,"IDA Pashamylaram, Hyderabad - TSPCB",22-07-2024 02:00:00,17.5316895,78.218939,NH3,1,2,1
India,Telangana,Hyderabad,"IDA Pashamylaram, Hyderabad - TSPCB",22-07-2024 02:00:00,17.5316895,78.218939,SO2,3,13,7
India,Telangana,Hyderabad,"IITH Kandi, Hyderabad - TSPCB",22-07-2024 02:00:00,17.585705,78.126199,PM2.5,NA,NA,NA
India,Telangana,Hyderabad,"IITH Kandi, Hyderabad - TSPCB",22-07-2024 02:00:00,17.585705,78.126199,PM10,NA,NA,NA
India,Telangana,Hyderabad,"IITH Kandi, Hyderabad - TSPCB",22-07-2024 02:00:00,17.585705,78.126199,NO2,NA,NA,NA
India,Telangana,Hyderabad,"IITH Kandi, Hyderabad - TSPCB",22-07-2024 02:00:00,17.585705,78.126199,CO,10,20,12
India,Telangana,Hyderabad,"Kokapet, Hyderabad - TSPCB",22-07-2024 02:00:00,17.393559,78.339194,NO2,5,6,6
India,Telangana,Hyderabad,"Kokapet, Hyderabad - TSPCB",22-07-2024 02:00:00,17.393559,78.339194,SO2,8,8,8
India,Telangana,Hyderabad,"Kompally Municipal Office, Hyderabad - TSPCB",22-07-2024 02:00:00,17.544899,78.486949,NO2,NA,NA,NA
India,Telangana,Hyderabad,"New Malakpet, Hyderabad - TSPCB",22-07-2024 02:00:00,17.37206,78.50864,PM10,59,67,62
India,Telangana,Hyderabad,"Sanathnagar, Hyderabad - TSPCB",22-07-2024 02:00:00,17.4559458,78.4332152,SO2,4,11,7
India,Telangana,Hyderabad,"Sanathnagar, Hyderabad - TSPCB",22-07-2024 02:00:00,17.4559458,78.4332152,CO,20,35,30
India,Tripura,Agartala,"Bardowali, Agartala - Tripura SPCB",22-07-2024 02:00:00,23.8175497,91.2726974,PM2.5,11,42,27
India,Uttar_Pradesh,Agra,"Rohta, Agra - UPPCB",22-07-2024 02:00:00,27.106972,78.000111,NO2,5,6,5
India,Uttar_Pradesh,Agra,"Sanjay Palace, Agra - UPPCB",22-07-2024 02:00:00,27.19865833,78.00598056,PM2.5,25,153,54
India,Uttar_Pradesh,Agra,"Sanjay Palace, Agra - UPPCB",22-07-2024 02:00:00,27.19865833,78.00598056,SO2,8,11,9
India,Uttar_Pradesh,Agra,"Sanjay Palace, Agra - UPPCB",22-07-2024 02:00:00,27.19865833,78.00598056,OZONE,39,53,45
India,Uttar_Pradesh,Agra,"Sector-3B Avas Vikas Colony, Agra - UPPCB",22-07-2024 02:00:00,27.19412,77.96237,SO2,17,21,18
India,Uttar_Pradesh,Agra,"Shahjahan Garden, Agra - UPPCB",22-07-2024 02:00:00,27.169338,78.03582,SO2,20,26,23
India,Uttar_Pradesh,Agra,"Shastripuram, Agra - UPPCB",22-07-2024 02:00:00,27.19862,77.92066,PM2.5,1,57,23
India,Uttar_Pradesh,Agra,"Shastripuram, Agra - UPPCB",22-07-2024 02:00:00,27.19862,77.92066,NO2,28,38,30
India,Uttar_Pradesh,Agra,"Shastripuram, Agra - UPPCB",22-07-2024 02:00:00,27.19862,77.92066,SO2,15,22,17
India,Uttar_Pradesh,Agra,"Shastripuram, Agra - UPPCB",22-07-2024 02:00:00,27.19862,77.92066,CO,10,12,11
India,Uttar_Pradesh,Baghpat,"Sardar Patel Inter College, Baghpat - UPPCB",22-07-2024 02:00:00,28.964949,77.278761,PM2.5,7,35,19
India,Uttar_Pradesh,Baghpat,"Sardar Patel Inter College, Baghpat - UPPCB",22-07-2024 02:00:00,28.964949,77.278761,PM10,47,135,87
India,Uttar_Pradesh,Baghpat,"Sardar Patel Inter College, Baghpat - UPPCB",22-07-2024 02:00:00,28.964949,77.278761,SO2,16,23,20
India,Uttar_Pradesh,Bareilly,"Rajendra Nagar, Bareilly - UPPCB",22-07-2024 02:00:00,28.38910936,79.42963708,SO2,19,20,19
India,Uttar_Pradesh,Bareilly,"Rajendra Nagar, Bareilly - UPPCB",22-07-2024 02:00:00,28.38910936,79.42963708,CO,4,12,7
India,Uttar_Pradesh,Bulandshahr,"Yamunapuram, Bulandshahr - UPPCB",22-07-2024 02:00:00,28.406963,77.849831,OZONE,5,50,24
India,Uttar_Pradesh,Firozabad,"Nagla Bhau, Firozabad - UPPCB",22-07-2024 02:00:00,27.168897,78.376960,NH3,2,2,2
India,Uttar_Pradesh,Firozabad,"Vibhab Nagar, Firozabad - UPPCB",22-07-2024 02:00:00,27.1594,78.3953,NO2,13,14,14
India,Uttar_Pradesh,Firozabad,"Vibhab Nagar, Firozabad - UPPCB",22-07-2024 02:00:00,27.1594,78.3953,SO2,6,8,7
India,Uttar_Pradesh,Ghaziabad,"Indirapuram, Ghaziabad - UPPCB",22-07-2024 02:00:00,28.646233,77.358075,SO2,18,25,21
India,Uttar_Pradesh,Ghaziabad,"Indirapuram, Ghaziabad - UPPCB",22-07-2024 02:00:00,28.646233,77.358075,OZONE,17,44,28
India,Uttar_Pradesh,Ghaziabad,"Loni, Ghaziabad - UPPCB",22-07-2024 02:00:00,28.757294,77.278792,PM10,60,131,104
India,Uttar_Pradesh,Ghaziabad,"Sanjay Nagar, Ghaziabad - UPPCB",22-07-2024 02:00:00,28.685382,77.453839,PM2.5,33,212,89
India,Uttar_Pradesh,Ghaziabad,"Sanjay Nagar, Ghaziabad - UPPCB",22-07-2024 02:00:00,28.685382,77.453839,NO2,13,47,23
India,Uttar_Pradesh,Ghaziabad,"Vasundhara, Ghaziabad - UPPCB",22-07-2024 02:00:00,28.6603346,77.3572563,OZONE,26,31,29
India,Uttar_Pradesh,Gorakhpur,"Madan Mohan Malaviya University of Technology, Gorakhpur - UPPCB",22-07-2024 02:00:00,26.730136,83.433859,NH3,1,1,1
India,Uttar_Pradesh,Greater Noida,"Knowledge Park - III, Greater Noida - UPPCB",22-07-2024 02:00:00,28.47272,77.482000,OZONE,1,39,13
India,Uttar_Pradesh,Greater Noida,"Knowledge Park - V, Greater Noida - UPPCB",22-07-2024 02:00:00,28.557054,77.453663,PM10,58,295,153
India,Uttar_Pradesh,Greater Noida,"Knowledge Park - V, Greater Noida - UPPCB",22-07-2024 02:00:00,28.557054,77.453663,NH3,NA,NA,NA
India,Uttar_Pradesh,Greater Noida,"Knowledge Park - V, Greater Noida - UPPCB",22-07-2024 02:00:00,28.557054,77.453663,OZONE,4,43,21
India,Uttar_Pradesh,Hapur,"Anand Vihar, Hapur - UPPCB",22-07-2024 02:00:00,28.725645,77.749675,NH3,6,9,8
India,Uttar_Pradesh,Hapur,"Anand Vihar, Hapur - UPPCB",22-07-2024 02:00:00,28.725645,77.749675,SO2,11,34,19
India,Uttar_Pradesh,Jhansi,"Shivaji Nagar, Jhansi - UPPCB",22-07-2024 02:00:00,25.4547,78.6039,NH3,5,6,6
India,Uttar_Pradesh,Jhansi,"Shivaji Nagar, Jhansi - UPPCB",22-07-2024 02:00:00,25.4547,78.6039,SO2,19,28,21
India,Uttar_Pradesh,Kanpur,"NSI Kalyanpur, Kanpur - UPPCB",22-07-2024 02:00:00,26.509954,80.249612,CO,28,38,30
India,Uttar_Pradesh,Kanpur,"Nehru Nagar, Kanpur - UPPCB",22-07-2024 02:00:00,26.4703136,80.3229863,PM2.5,21,83,47
India,Uttar_Pradesh,Kanpur,"Nehru Nagar, Kanpur - UPPCB",22-07-2024 02:00:00,26.4703136,80.3229863,SO2,8,12,10
India,Uttar_Pradesh,Kanpur,"Nehru Nagar, Kanpur - UPPCB",22-07-2024 02:00:00,26.4703136,80.3229863,OZONE,6,18,12
India,Uttar_Pradesh,Khurja,"Kalindi Kunj, Khurja - UPPCB",22-07-2024 02:00:00,28.2348927,77.8683002,SO2,18,28,24
India,Uttar_Pradesh,Lucknow,"B R Ambedkar University, Lucknow - UPPCB",22-07-2024 02:00:00,26.766433,80.927299,PM10,32,63,47
India,Uttar_Pradesh,Lucknow,"Gomti Nagar, Lucknow - UPPCB",22-07-2024 02:00:00,26.868120,81.005119,SO2,6,15,12
India,Uttar_Pradesh,Lucknow,"Gomti Nagar, Lucknow - UPPCB",22-07-2024 02:00:00,26.868120,81.005119,CO,39,42,40
India,Uttar_Pradesh,Lucknow,"Kendriya Vidyalaya, Lucknow - CPCB",22-07-2024 02:00:00,26.906111,80.948222,NO2,8,17,11
India,Uttar_Pradesh,Lucknow,"Kendriya Vidyalaya, Lucknow - CPCB",22-07-2024 02:00:00,26.906111,80.948222,CO,20,44,26
India,Uttar_Pradesh,Lucknow,"Kukrail Picnic Spot-1, Lucknow - UPPCB",22-07-2024 02:00:00,26.90723,80.98579,NO2,19,19,19
India,Uttar_Pradesh,Lucknow,"Kukrail Picnic Spot-1, Lucknow - UPPCB",22-07-2024 02:00:00,26.90723,80.98579,SO2,25,26,25
India,Uttar_Pradesh,Lucknow,"Kukrail Picnic Spot-1, Lucknow - UPPCB",22-07-2024 02:00:00,26.90723,80.98579,CO,12,15,13
India,Uttar_Pradesh,Lucknow,"Lalbagh, Lucknow - CPCB",22-07-2024 02:00:00,26.8458805,80.9365541,PM2.5,NA,NA,NA
India,Uttar_Pradesh,Lucknow,"Lalbagh, Lucknow - CPCB",22-07-2024 02:00:00,26.8458805,80.9365541,NO2,13,23,16
India,Uttar_Pradesh,Lucknow,"Lalbagh, Lucknow - CPCB",22-07-2024 02:00:00,26.8458805,80.9365541,OZONE,6,52,35
India,Uttar_Pradesh,Lucknow,"Talkatora District Industries Center, Lucknow - CPCB",22-07-2024 02:00:00,26.83399722,80.8917361,SO2,5,15,9
India,Uttar_Pradesh,Lucknow,"Talkatora District Industries Center, Lucknow - CPCB",22-07-2024 02:00:00,26.83399722,80.8917361,OZONE,1,41,7
India,Uttar_Pradesh,Meerut,"Ganga Nagar, Meerut - UPPCB",22-07-2024 02:00:00,28.999264,77.7590354,SO2,13,18,15
India,Uttar_Pradesh,Meerut,"Pallavpuram Phase 2, Meerut - UPPCB",22-07-2024 02:00:00,29.063510,77.709723,OZONE,5,21,11
India,Uttar_Pradesh,Moradabad,"Employment Office, Moradabad - UPPCB",22-07-2024 02:00:00,28.88528,78.73880,NH3,3,3,3
India,Uttar_Pradesh,Moradabad,"Jigar Colony, Moradabad - UPPCB",22-07-2024 02:00:00,28.856664,78.772638,PM10,18,73,41
India,Uttar_Pradesh,Moradabad,"Transport Nagar, Moradabad - UPPCB",22-07-2024 02:00:00,28.802625,78.753728,NH3,5,6,5
India,Uttar_Pradesh,Moradabad,"Transport Nagar, Moradabad - UPPCB",22-07-2024 02:00:00,28.802625,78.753728,CO,39,42,42
India,Uttar_Pradesh,Muzaffarnagar,"New Mandi, Muzaffarnagar - UPPCB",22-07-2024 02:00:00,29.4723508,77.7194031,PM2.5,27,296,105
India,Uttar_Pradesh,Muzaffarnagar,"New Mandi, Muzaffarnagar - UPPCB",22-07-2024 02:00:00,29.4723508,77.7194031,NO2,3,24,11
India,Uttar_Pradesh,Noida,"Sector - 125, Noida - UPPCB",22-07-2024 02:00:00,28.5447608,77.3231257,SO2,11,21,16
India,Uttar_Pradesh,Noida,"Sector - 62, Noida - IMD",22-07-2024 02:00:00,28.6245479,77.3577104,PM2.5,26,66,49
India,Uttar_Pradesh,Noida,"Sector - 62, Noida - IMD",22-07-2024 02:00:00,28.6245479,77.3577104,OZONE,34,62,41
India,Uttar_Pradesh,Noida,"Sector-1, Noida - UPPCB",22-07-2024 02:00:00,28.5898,77.3101,NH3,6,10,7
India,Uttar_Pradesh,Prayagraj,"Jhunsi, Prayagraj - UPPCB",22-07-2024 02:00:00,25.425602,81.917152,PM2.5,8,32,18
India,Uttar_Pradesh,Prayagraj,"Jhunsi, Prayagraj - UPPCB",22-07-2024 02:00:00,25.425602,81.917152,PM10,27,65,42
India,Uttar_Pradesh,Prayagraj,"Jhunsi, Prayagraj - UPPCB",22-07-2024 02:00:00,25.425602,81.917152,SO2,30,32,31
India,Uttar_Pradesh,Prayagraj,"Motilal Nehru NIT, Prayagraj - UPPCB",22-07-2024 02:00:00,25.494,81.863,PM10,15,25,19
India,Uttar_Pradesh,Prayagraj,"Motilal Nehru NIT, Prayagraj - UPPCB",22-07-2024 02:00:00,25.494,81.863,SO2,14,18,16
India,Uttar_Pradesh,Prayagraj,"Nagar Nigam, Prayagraj - UPPCB",22-07-2024 02:00:00,25.44919916 ,81.82735986 ,CO,8,16,14
India,Uttar_Pradesh,Varanasi,"Ardhali Bazar, Varanasi - UPPCB",22-07-2024 02:00:00,25.3505986,82.9083074,CO,24,64,35
India,Uttar_Pradesh,Varanasi,"Bhelupur, Varanasi - UPPCB",22-07-2024 02:00:00,25.301778,82.996789,SO2,34,35,34
India,Uttar_Pradesh,Varanasi,"IESD Banaras Hindu University, Varanasi - UPPCB",22-07-2024 02:00:00,25.262326,82.995408,PM2.5,2,59,28
India,Uttar_Pradesh,Vrindavan,"Omex Eternity, Vrindavan - UPPCB",22-07-2024 02:00:00,27.5714090,77.6557570,NO2,NA,NA,NA
India,Uttarakhand,Kashipur,"Govt. Girls Inter College, Kashipur - UKPCB",22-07-2024 02:00:00,29.2124114,78.9611753,SO2,4,6,5
India,Uttarakhand,Rishikesh,"Shivaji Nagar, Rishikesh - UKPCB",22-07-2024 02:00:00,30.075911,78.2859547,PM10,25,47,35
India,West_Bengal,Asansol,"Mahabir Colliery, Asansol - WBPCB",22-07-2024 02:00:00,23.6181830,87.1057180,SO2,49,54,50
India,West_Bengal,Asansol,"Mahabir Colliery, Asansol - WBPCB",22-07-2024 02:00:00,23.6181830,87.1057180,CO,49,113,101
India,West_Bengal,Barrackpore,"SVSPA Campus, Barrackpore - WBPCB",22-07-2024 02:00:00,22.7605581,88.3617589,PM10,29,46,38
India,West_Bengal,Barrackpore,"SVSPA Campus, Barrackpore - WBPCB",22-07-2024 02:00:00,22.7605581,88.3617589,SO2,4,5,4
India,West_Bengal,Barrackpore,"SVSPA Campus, Barrackpore - WBPCB",22-07-2024 02:00:00,22.7605581,88.3617589,OZONE,5,12,6
India,West_Bengal,Durgapur,"PCBL Residential Complex, Durgapur - WBPCB",22-07-2024 02:00:00,23.5087640,87.3544400,NO2,2,14,8
India,West_Bengal,Durgapur,"PCBL Residential Complex, Durgapur - WBPCB",22-07-2024 02:00:00,23.5087640,87.3544400,SO2,10,11,10
India,West_Bengal,Durgapur,"Sidhu Kanhu Indoor Stadium, Durgapur - WBPCB",22-07-2024 02:00:00,23.5404352,87.2892225,PM10,16,41,25
India,West_Bengal,Durgapur,"Sidhu Kanhu Indoor Stadium, Durgapur - WBPCB",22-07-2024 02:00:00,23.5404352,87.2892225,OZONE,1,15,5
India,West_Bengal,Haldia,"Priyambada Housing Estate, Haldia - WBPCB",22-07-2024 02:00:00,22.06047,88.109737,SO2,9,20,14
India,West_Bengal,Haldia,"Priyambada Housing Estate, Haldia - WBPCB",22-07-2024 02:00:00,22.06047,88.109737,OZONE,23,34,26
India,West_Bengal,Howrah,"Belur Math, Howrah - WBPCB",22-07-2024 02:00:00,22.629801,88.352017,PM2.5,6,18,11
India,West_Bengal,Howrah,"Belur Math, Howrah - WBPCB",22-07-2024 02:00:00,22.629801,88.352017,CO,4,22,6
India,West_Bengal,Howrah,"Belur Math, Howrah - WBPCB",22-07-2024 02:00:00,22.629801,88.352017,OZONE,12,19,16
India,West_Bengal,Howrah,"Padmapukur, Howrah - WBPCB",22-07-2024 02:00:00,22.5687319,88.2797276,OZONE,17,22,18
India,West_Bengal,Kolkata,"Bidhannagar, Kolkata - WBPCB",22-07-2024 02:00:00,22.58157048,88.41002457,NH3,7,7,7
India,West_Bengal,Kolkata,"Bidhannagar, Kolkata - WBPCB",22-07-2024 02:00:00,22.58157048,88.41002457,OZONE,24,29,27
India,West_Bengal,Kolkata,"Fort William, Kolkata - WBPCB",22-07-2024 02:00:00,22.556640,88.342674,PM10,22,42,31
India,West_Bengal,Kolkata,"Rabindra Bharati University, Kolkata - WBPCB",22-07-2024 02:00:00,22.627847,88.380669,NH3,7,8,8
India,West_Bengal,Kolkata,"Rabindra Sarobar, Kolkata - WBPCB",22-07-2024 02:00:00,22.51106,88.35142,PM10,26,30,27
India,West_Bengal,Kolkata,"Rabindra Sarobar, Kolkata - WBPCB",22-07-2024 02:00:00,22.51106,88.35142,SO2,8,11,10
India,West_Bengal,Siliguri,"Ward-32 Bapupara, Siliguri - WBPCB",22-07-2024 02:00:00,26.6879226,88.4152495,PM2.5,23,35,30
India,Andhra_Pradesh,Chittoor,"Gangineni Cheruvu, Chittoor - APPCB",22-07-2024 02:00:00,13.204880,79.097889,NO2,8,9,8
India,Andhra_Pradesh,Tirupati,"Tirumala, Tirupati - APPCB",22-07-2024 02:00:00,13.67,79.35,PM2.5,10,27,17
India,Andhra_Pradesh,Vijayawada,"Kanuru, Vijayawada - APPCB",22-07-2024 02:00:00,16.486692,80.699436,PM10,34,43,39
India,Andhra_Pradesh,Vijayawada,"Kanuru, Vijayawada - APPCB",22-07-2024 02:00:00,16.486692,80.699436,NH3,4,4,4
India,Andhra_Pradesh,Vijayawada,"Rajiv Gandhi Park, Vijayawada - APPCB",22-07-2024 02:00:00,16.509717,80.612222,PM10,35,50,42
India,Andhra_Pradesh,Vijayawada,"Rajiv Gandhi Park, Vijayawada - APPCB",22-07-2024 02:00:00,16.509717,80.612222,NO2,26,34,30
India,Andhra_Pradesh,Vijayawada,"Rajiv Nagar, Vijayawada - APPCB",22-07-2024 02:00:00,16.554731,80.649110,CO,9,31,31
India,Andhra_Pradesh,Visakhapatnam,"GVM Corporation, Visakhapatnam - APPCB",22-07-2024 02:00:00,17.72,83.3,PM2.5,24,49,34
India,Andhra_Pradesh,Visakhapatnam,"GVM Corporation, Visakhapatnam - APPCB",22-07-2024 02:00:00,17.72,83.3,PM10,34,74,57
India,Arunachal_Pradesh,Naharlagun,"Naharlagun, Naharlagun - APSPCB",22-07-2024 02:00:00,27.103358,93.679645,CO,6,16,12
India,Assam,Byrnihat,"Central Academy for SFS, Byrnihat - PCBA",22-07-2024 02:00:00,26.071318,91.87488,OZONE,22,24,23
India,Assam,Guwahati,"IITG, Guwahati - PCBA",22-07-2024 02:00:00,26.2028636,91.70046436,PM2.5,1,26,11
India,Assam,Guwahati,"IITG, Guwahati - PCBA",22-07-2024 02:00:00,26.2028636,91.70046436,NO2,NA,NA,NA
India,Assam,Guwahati,"LGBI Airport, Guwahati - PCBA",22-07-2024 02:00:00,26.10887,91.589544,CO,30,50,39
India,Assam,Guwahati,"Pan Bazaar, Guwahati - PCBA",22-07-2024 02:00:00,26.187500,91.744194,PM2.5,5,38,21
India,Assam,Guwahati,"Pan Bazaar, Guwahati - PCBA",22-07-2024 02:00:00,26.187500,91.744194,SO2,28,44,35
India,Assam,Guwahati,"Pan Bazaar, Guwahati - PCBA",22-07-2024 02:00:00,26.187500,91.744194,CO,12,40,27
India,Assam,Guwahati,"Railway Colony, Guwahati - PCBA",22-07-2024 02:00:00,26.181742,91.78063,NO2,3,3,3
India,Assam,Guwahati,"Railway Colony, Guwahati - PCBA",22-07-2024 02:00:00,26.181742,91.78063,CO,16,34,28
India,Assam,Guwahati,"Railway Colony, Guwahati - PCBA",22-07-2024 02:00:00,26.181742,91.78063,OZONE,3,7,4
India,Assam,Nagaon,"Christianpatty, Nagaon - PCBA",22-07-2024 02:00:00,26.349082,92.68449,PM10,15,39,18
India,Assam,Nagaon,"Christianpatty, Nagaon - PCBA",22-07-2024 02:00:00,26.349082,92.68449,NO2,1,24,7
India,Assam,Nalbari,"Bata Chowk, Nalbari - PCBA",22-07-2024 02:00:00,26.446912,91.439057,PM2.5,10,42,24
India,Assam,Nalbari,"Bata Chowk, Nalbari - PCBA",22-07-2024 02:00:00,26.446912,91.439057,SO2,2,42,9
India,Assam,Nalbari,"Bata Chowk, Nalbari - PCBA",22-07-2024 02:00:00,26.446912,91.439057,OZONE,10,18,11
India,Assam,Silchar,"Tarapur, Silchar - PCBA",22-07-2024 02:00:00,24.82827,92.79525,PM2.5,36,37,36
India,Assam,Silchar,"Tarapur, Silchar - PCBA",22-07-2024 02:00:00,24.82827,92.79525,PM10,48,52,49
India,Assam,Silchar,"Tarapur, Silchar - PCBA",22-07-2024 02:00:00,24.82827,92.79525,NH3,1,1,1
India,Assam,Silchar,"Tarapur, Silchar - PCBA",22-07-2024 02:00:00,24.82827,92.79525,CO,31,57,40
India,Assam,Silchar,"Tarapur, Silchar - PCBA",22-07-2024 02:00:00,24.82827,92.79525,OZONE,NA,NA,NA
India,Bihar,Araria,"Kharahiya Basti, Araria - BSPCB",22-07-2024 02:00:00,26.146529,87.454184,NH3,NA,NA,NA
India,Bihar,Araria,"Kharahiya Basti, Araria - BSPCB",22-07-2024 02:00:00,26.146529,87.454184,SO2,NA,NA,NA
India,Bihar,Araria,"Kharahiya Basti, Araria - BSPCB",22-07-2024 02:00:00,26.146529,87.454184,CO,NA,NA,NA
India,Bihar,Araria,"Kharahiya Basti, Araria - BSPCB",22-07-2024 02:00:00,26.146529,87.454184,OZONE,NA,NA,NA
India,Bihar,Arrah,"New DM Office, Arrah - BSPCB",22-07-2024 02:00:00,25.5626095,84.663264,NO2,NA,NA,NA
India,Bihar,Aurangabad,"Gurdeo Nagar, Aurangabad - BSPCB",22-07-2024 02:00:00,24.75746,84.366208,NO2,11,11,11
India,Bihar,Aurangabad,"Gurdeo Nagar, Aurangabad - BSPCB",22-07-2024 02:00:00,24.75746,84.366208,SO2,13,14,13
India,Bihar,Bettiah,"Kamalnath Nagar, Bettiah - BSPCB",22-07-2024 02:00:00,26.80365,84.51954,PM10,NA,NA,NA
India,Bihar,Bettiah,"Kamalnath Nagar, Bettiah - BSPCB",22-07-2024 02:00:00,26.80365,84.51954,NH3,14,23,18
India,Bihar,Bettiah,"Kamalnath Nagar, Bettiah - BSPCB",22-07-2024 02:00:00,26.80365,84.51954,SO2,7,21,17
India,Bihar,Bettiah,"Kamalnath Nagar, Bettiah - BSPCB",22-07-2024 02:00:00,26.80365,84.51954,CO,24,55,40
India,Bihar,Bihar Sharif,"D M Colony, Bihar Sharif - BSPCB",22-07-2024 02:00:00,25.204762,85.514960,SO2,NA,NA,NA
India,Bihar,Buxar,"Charitra Van, Buxar - BSPCB (Formerly known as Central Jail)",22-07-2024 02:00:00,25.567520,83.966379,NH3,1,1,1
India,Bihar,Buxar,"Charitra Van, Buxar - BSPCB (Formerly known as Central Jail)",22-07-2024 02:00:00,25.567520,83.966379,SO2,3,6,4
India,Bihar,Buxar,"Charitra Van, Buxar - BSPCB (Formerly known as Central Jail)",22-07-2024 02:00:00,25.567520,83.966379,OZONE,12,29,20
India,Bihar,Chhapra,"Darshan Nagar, Chhapra - BSPCB",22-07-2024 02:00:00,25.7808257,84.7446768,PM2.5,12,37,23
India,Bihar,Chhapra,"Darshan Nagar, Chhapra - BSPCB",22-07-2024 02:00:00,25.7808257,84.7446768,NH3,7,21,12
India,Bihar,Chhapra,"Darshan Nagar, Chhapra - BSPCB",22-07-2024 02:00:00,25.7808257,84.7446768,CO,30,62,48
India,Bihar,Gaya,"Kareemganj, Gaya - BSPCB",22-07-2024 02:00:00,24.792403,84.992416,PM10,NA,NA,NA
India,Bihar,Gaya,"Kareemganj, Gaya - BSPCB",22-07-2024 02:00:00,24.792403,84.992416,SO2,NA,NA,NA
India,Bihar,Gaya,"Kareemganj, Gaya - BSPCB",22-07-2024 02:00:00,24.792403,84.992416,CO,28,54,41
India,Bihar,Gaya,"SFTI Kusdihra, Gaya - BSPCB",22-07-2024 02:00:00,24.762518,84.982348,SO2,8,10,9
India,Bihar,Gaya,"SFTI Kusdihra, Gaya - BSPCB",22-07-2024 02:00:00,24.762518,84.982348,OZONE,10,27,17
India,Bihar,Hajipur,"Industrial Area, Hajipur - BSPCB",22-07-2024 02:00:00,25.697189,85.245900,PM2.5,25,49,40
India,Bihar,Kishanganj,"SDM Office_Khagra, Kishanganj - BSPCB",22-07-2024 02:00:00,26.0881305,87.93840336,PM2.5,NA,NA,NA
India,Bihar,Kishanganj,"SDM Office_Khagra, Kishanganj - BSPCB",22-07-2024 02:00:00,26.0881305,87.93840336,PM10,NA,NA,NA
India,Bihar,Kishanganj,"SDM Office_Khagra, Kishanganj - BSPCB",22-07-2024 02:00:00,26.0881305,87.93840336,OZONE,99,131,114
India,Bihar,Motihari,"Gandak Colony, Motihari - BSPCB",22-07-2024 02:00:00,26.63086,84.90051,PM10,NA,NA,NA
India,Bihar,Motihari,"Gandak Colony, Motihari - BSPCB",22-07-2024 02:00:00,26.63086,84.90051,OZONE,14,24,19
India,Bihar,Muzaffarpur,"Buddha Colony, Muzaffarpur - BSPCB",22-07-2024 02:00:00,26.11442,85.39813,SO2,7,13,8
India,Bihar,Muzaffarpur,"Buddha Colony, Muzaffarpur - BSPCB",22-07-2024 02:00:00,26.11442,85.39813,OZONE,41,68,49
India,Bihar,Muzaffarpur,"MIT-Daudpur Kothi, Muzaffarpur - BSPCB",22-07-2024 02:00:00,26.1403345,85.3650192,PM2.5,NA,NA,NA
India,Bihar,Muzaffarpur,"Muzaffarpur Collectorate, Muzaffarpur - BSPCB",22-07-2024 02:00:00,26.1209,85.3647,SO2,7,11,9
India,Bihar,Patna,"DRM Office Danapur, Patna - BSPCB",22-07-2024 02:00:00,25.586562,85.043586,NO2,26,151,86
India,Bihar,Patna,"Govt. High School Shikarpur, Patna - BSPCB",22-07-2024 02:00:00,25.592539,85.227158,NH3,4,5,5
India,Bihar,Patna,"Govt. High School Shikarpur, Patna - BSPCB",22-07-2024 02:00:00,25.592539,85.227158,SO2,8,11,10
India,Bihar,Patna,"Muradpur, Patna - BSPCB",22-07-2024 02:00:00,25.619651,85.147382,PM10,61,106,84
India,Bihar,Patna,"Rajbansi Nagar, Patna - BSPCB",22-07-2024 02:00:00,25.599486,85.113666,PM10,37,62,48
India,Bihar,Patna,"Samanpura, Patna - BSPCB",22-07-2024 02:00:00,25.596727,85.085624,PM2.5,33,53,41
India,Bihar,Patna,"Samanpura, Patna - BSPCB",22-07-2024 02:00:00,25.596727,85.085624,SO2,2,8,4
India,Bihar,Patna,"Samanpura, Patna - BSPCB",22-07-2024 02:00:00,25.596727,85.085624,OZONE,17,72,49
India,Bihar,Rajgir,"Dangi Tola, Rajgir - BSPCB",22-07-2024 02:00:00,25.03280,85.41948,PM2.5,2,37,11
India,Bihar,Rajgir,"Dangi Tola, Rajgir - BSPCB",22-07-2024 02:00:00,25.03280,85.41948,PM10,7,105,36
India,Bihar,Saharsa,"Police Line, Saharsa - BSPCB",22-07-2024 02:00:00,25.892357,86.590325,CO,11,55,53
India,Bihar,Samastipur,"DM Office_Kasipur, Samastipur - BSPCB",22-07-2024 02:00:00,25.859655,85.77944,CO,16,106,102
India,Bihar,Sasaram,"Dada Peer, Sasaram - BSPCB",22-07-2024 02:00:00,24.952822,84.002396,SO2,6,10,8
India,Bihar,Sasaram,"Dada Peer, Sasaram - BSPCB",22-07-2024 02:00:00,24.952822,84.002396,OZONE,2,37,12
India,Chandigarh,Chandigarh,"Sector 22, Chandigarh - CPCC",22-07-2024 02:00:00,30.735567,76.775714,PM10,39,107,86
India,Chandigarh,Chandigarh,"Sector 22, Chandigarh - CPCC",22-07-2024 02:00:00,30.735567,76.775714,NO2,12,46,28
India,Chandigarh,Chandigarh,"Sector 22, Chandigarh - CPCC",22-07-2024 02:00:00,30.735567,76.775714,NH3,4,42,13
India,Chandigarh,Chandigarh,"Sector-25, Chandigarh - CPCC",22-07-2024 02:00:00,30.751462,76.762879,NO2,11,41,20
India,Chandigarh,Chandigarh,"Sector-25, Chandigarh - CPCC",22-07-2024 02:00:00,30.751462,76.762879,NH3,13,33,20
India,Chandigarh,Chandigarh,"Sector-53, Chandigarh - CPCC",22-07-2024 02:00:00,30.719859,76.738637,PM10,27,71,53
India,Chandigarh,Chandigarh,"Sector-53, Chandigarh - CPCC",22-07-2024 02:00:00,30.719859,76.738637,NH3,1,37,8
India,Chhattisgarh,Bhilai,"32Bungalows, Bhilai - CECB",22-07-2024 02:00:00,21.194815,81.314770,CO,8,12,9
India,Chhattisgarh,Bhilai,"Civic Center, Bhilai - Bhilai Steel Plant",22-07-2024 02:00:00,21.185571,81.343175,PM2.5,6,25,14
India,Chhattisgarh,Bhilai,"Civic Center, Bhilai - Bhilai Steel Plant",22-07-2024 02:00:00,21.185571,81.343175,NH3,3,4,4
India,Chhattisgarh,Bhilai,"Hathkhoj, Bhilai - CECB",22-07-2024 02:00:00,21.224231,81.408350,PM2.5,6,30,16
India,Chhattisgarh,Bhilai,"Hathkhoj, Bhilai - CECB",22-07-2024 02:00:00,21.224231,81.408350,PM10,8,36,23
India,Chhattisgarh,Bhilai,"Hathkhoj, Bhilai - CECB",22-07-2024 02:00:00,21.224231,81.408350,NO2,9,46,20
India,Chhattisgarh,Bhilai,"Hathkhoj, Bhilai - CECB",22-07-2024 02:00:00,21.224231,81.408350,NH3,9,10,9
India,Chhattisgarh,Bilaspur,"Mangala, Bilaspur - NTPC",22-07-2024 02:00:00,22.08815,82.13737,SO2,9,12,10
India,Chhattisgarh,Chhal,"Nawapara SECL Colony, Chhal - CECB",22-07-2024 02:00:00,22.118125,83.140608,CO,20,36,29
India,Chhattisgarh,Korba,"Urja Nagar, Korba - CECB",22-07-2024 02:00:00,22.348441,82.549611,SO2,6,7,7
India,Chhattisgarh,Kunjemura,"OP Jindal School, Kunjemura - CECB",22-07-2024 02:00:00,22.126650,83.483212,SO2,1,4,3
India,Chhattisgarh,Kunjemura,"OP Jindal School, Kunjemura - CECB",22-07-2024 02:00:00,22.126650,83.483212,OZONE,7,12,8
India,Chhattisgarh,Raipur,"Bhatagaon New ISBT, Raipur - CECB",22-07-2024 02:00:00,21.219665,81.630094,PM2.5,2,44,15
India,Chhattisgarh,Raipur,"Bhatagaon New ISBT, Raipur - CECB",22-07-2024 02:00:00,21.219665,81.630094,PM10,5,54,24
India,Chhattisgarh,Raipur,"Siltara Phase-II, Raipur - CECB",22-07-2024 02:00:00,21.371751,81.664929,CO,10,22,10
India,Chhattisgarh,Tumidih,"OP Jindal Industrial Park, Tumidih - CECB",22-07-2024 02:00:00,22.06631475,83.33820077,NO2,NA,NA,NA
India,Delhi,Delhi,"Alipur, Delhi - DPCC",22-07-2024 02:00:00,28.815329,77.153010,NO2,20,48,30
India,Delhi,Delhi,"Alipur, Delhi - DPCC",22-07-2024 02:00:00,28.815329,77.153010,NH3,6,10,7
India,Delhi,Delhi,"Alipur, Delhi - DPCC",22-07-2024 02:00:00,28.815329,77.153010,SO2,4,10,7
India,Delhi,Delhi,"Ashok Vihar, Delhi - DPCC",22-07-2024 02:00:00,28.695381,77.181665,NO2,21,57,37
India,Delhi,Delhi,"Aya Nagar, Delhi - IMD",22-07-2024 02:00:00,28.4706914,77.1099364,PM10,16,105,66
India,Delhi,Delhi,"Aya Nagar, Delhi - IMD",22-07-2024 02:00:00,28.4706914,77.1099364,NO2,9,16,11
India,Delhi,Delhi,"Bawana, Delhi - DPCC",22-07-2024 02:00:00,28.776200,77.051074,PM10,67,130,103
India,Delhi,Delhi,"Bawana, Delhi - DPCC",22-07-2024 02:00:00,28.776200,77.051074,SO2,1,9,5
India,Delhi,Delhi,"Burari Crossing, Delhi - IMD",22-07-2024 02:00:00,28.7256504,77.2011573,PM10,40,144,82
India,Delhi,Delhi,"CRRI Mathura Road, Delhi - IMD",22-07-2024 02:00:00,28.5512005,77.2735737,NO2,7,14,9
India,Delhi,Delhi,"DTU, Delhi - CPCB",22-07-2024 02:00:00,28.7500499,77.1112615,SO2,46,50,48
India,Delhi,Delhi,"DTU, Delhi - CPCB",22-07-2024 02:00:00,28.7500499,77.1112615,CO,35,55,46
India,Delhi,Delhi,"Dr. Karni Singh Shooting Range, Delhi - DPCC",22-07-2024 02:00:00,28.498571,77.264840,PM2.5,23,220,90
India,Delhi,Delhi,"Dr. Karni Singh Shooting Range, Delhi - DPCC",22-07-2024 02:00:00,28.498571,77.264840,PM10,42,110,80
India,Delhi,Delhi,"IGI Airport (T3), Delhi - IMD",22-07-2024 02:00:00,28.5627763,77.1180053,OZONE,3,22,6
India,Delhi,Delhi,"Jawaharlal Nehru Stadium, Delhi - DPCC",22-07-2024 02:00:00,28.580280,77.233829,OZONE,7,65,16
India,Delhi,Delhi,"Lodhi Road, Delhi - IMD",22-07-2024 02:00:00,28.5918245,77.2273074,PM2.5,34,110,66
India,Delhi,Delhi,"Major Dhyan Chand National Stadium, Delhi - DPCC",22-07-2024 02:00:00,28.611281,77.237738,PM10,30,112,71
India,Delhi,Delhi,"Major Dhyan Chand National Stadium, Delhi - DPCC",22-07-2024 02:00:00,28.611281,77.237738,OZONE,2,37,10
India,Delhi,Delhi,"Mandir Marg, Delhi - DPCC",22-07-2024 02:00:00,28.636429,77.201067,PM10,31,104,75
India,Delhi,Delhi,"Mandir Marg, Delhi - DPCC",22-07-2024 02:00:00,28.636429,77.201067,OZONE,19,54,27
India,Delhi,Delhi,"Mundka, Delhi - DPCC",22-07-2024 02:00:00,28.684678,77.076574,PM10,91,211,120
India,Delhi,Delhi,"Mundka, Delhi - DPCC",22-07-2024 02:00:00,28.684678,77.076574,NH3,5,24,9
India,Delhi,Delhi,"NSIT Dwarka, Delhi - CPCB",22-07-2024 02:00:00,28.60909,77.0325413,PM2.5,49,96,76
India,Delhi,Delhi,"Narela, Delhi - DPCC",22-07-2024 02:00:00,28.822836,77.101981,NH3,7,13,9
India,Delhi,Delhi,"Narela, Delhi - DPCC",22-07-2024 02:00:00,28.822836,77.101981,SO2,3,7,4
India,Delhi,Delhi,"Okhla Phase-2, Delhi - DPCC",22-07-2024 02:00:00,28.530785,77.271255,PM10,34,159,88
India,Delhi,Delhi,"Okhla Phase-2, Delhi - DPCC",22-07-2024 02:00:00,28.530785,77.271255,SO2,6,17,10
India,Delhi,Delhi,"Patparganj, Delhi - DPCC",22-07-2024 02:00:00,28.623763,77.287209,SO2,4,8,6
India,Delhi,Delhi,"Punjabi Bagh, Delhi - DPCC",22-07-2024 02:00:00,28.674045,77.131023,NH3,4,8,6
India,Delhi,Delhi,"Pusa, Delhi - DPCC",22-07-2024 02:00:00,28.639652,77.146275,NO2,32,61,46
India,Delhi,Delhi,"Pusa, Delhi - DPCC",22-07-2024 02:00:00,28.639652,77.146275,SO2,2,9,5
India,Delhi,Delhi,"Pusa, Delhi - IMD",22-07-2024 02:00:00,28.636110,77.173332,NO2,8,15,10
India,Delhi,Delhi,"R K Puram, Delhi - DPCC",22-07-2024 02:00:00,28.563262,77.186937,PM10,61,119,93
India,Delhi,Delhi,"Rohini, Delhi - DPCC",22-07-2024 02:00:00,28.732528,77.119920,SO2,8,14,10
India,Delhi,Delhi,"Sirifort, Delhi - CPCB",22-07-2024 02:00:00,28.5504249,77.2159377,OZONE,9,34,16
India,Delhi,Delhi,"Wazirpur, Delhi - DPCC",22-07-2024 02:00:00,28.699793,77.165453,NO2,29,73,45
India,Delhi,Delhi,"Wazirpur, Delhi - DPCC",22-07-2024 02:00:00,28.699793,77.165453,SO2,4,10,7
India,Gujarat,Ahmedabad,"Gyaspur, Ahmedabad - IITM",22-07-2024 02:00:00,22.977134,72.553024,PM10,65,82,74
India,Gujarat,Ahmedabad,"Maninagar, Ahmedabad - GPCB",22-07-2024 02:00:00,23.002657,72.591912,NO2,17,52,26
India,Gujarat,Ahmedabad,"Rakhial, Ahmedabad - IITM",22-07-2024 02:00:00,23.016834,72.625775,PM2.5,20,55,32
India,Gujarat,Ahmedabad,"Rakhial, Ahmedabad - IITM",22-07-2024 02:00:00,23.016834,72.625775,OZONE,9,46,19
India,Gujarat,Ahmedabad,"Sardar Vallabhbhai Patel Stadium, Ahmedabad - IITM",22-07-2024 02:00:00,23.043070,72.562968,PM10,28,84,52
India,Gujarat,Ankleshwar,"GIDC, Ankleshwar - GPCB",22-07-2024 02:00:00,21.613267,73.010555,NO2,15,26,20
India,Gujarat,Gandhinagar,"GIFT City, Gandhinagar - IITM",22-07-2024 02:00:00,23.163798,72.677768,NH3,1,5,3
India,Gujarat,Gandhinagar,"GIFT City, Gandhinagar - IITM",22-07-2024 02:00:00,23.163798,72.677768,CO,6,16,12
India,Gujarat,Gandhinagar,"GIFT City, Gandhinagar - IITM",22-07-2024 02:00:00,23.163798,72.677768,OZONE,5,46,17
India,Gujarat,Surat,"Science Center, Surat - SMC",22-07-2024 02:00:00,21.170046,72.795405,PM2.5,7,34,17
India,Gujarat,Surat,"Science Center, Surat - SMC",22-07-2024 02:00:00,21.170046,72.795405,CO,65,72,69
India,Gujarat,Vapi,"Phase-1 GIDC, Vapi - GPCB",22-07-2024 02:00:00,20.362421,72.918013,PM2.5,3,26,14
India,Gujarat,Vatva,"Phase-4 GIDC, Vatva - GPCB",22-07-2024 02:00:00,22.969611,72.643500,PM10,28,63,43
India,Gujarat,Vatva,"Phase-4 GIDC, Vatva - GPCB",22-07-2024 02:00:00,22.969611,72.643500,NO2,1,5,2
India,Haryana,Bahadurgarh,"Arya Nagar, Bahadurgarh - HSPCB",22-07-2024 02:00:00,28.6701,76.9254,PM10,61,135,86
India,Haryana,Bahadurgarh,"Arya Nagar, Bahadurgarh - HSPCB",22-07-2024 02:00:00,28.6701,76.9254,NH3,8,11,9
India,Haryana,Bahadurgarh,"Arya Nagar, Bahadurgarh - HSPCB",22-07-2024 02:00:00,28.6701,76.9254,CO,36,44,39
India,Haryana,Ballabgarh,"Nathu Colony, Ballabgarh - HSPCB",22-07-2024 02:00:00,28.3419248,77.319699,PM10,51,104,78
India,Haryana,Ballabgarh,"Nathu Colony, Ballabgarh - HSPCB",22-07-2024 02:00:00,28.3419248,77.319699,NO2,8,10,9
India,Haryana,Bhiwani,"H.B. Colony, Bhiwani - HSPCB",22-07-2024 02:00:00,28.806223,76.141105,SO2,1,107,21
India,Haryana,Bhiwani,"H.B. Colony, Bhiwani - HSPCB",22-07-2024 02:00:00,28.806223,76.141105,CO,25,114,44
India,Haryana,Bhiwani,"H.B. Colony, Bhiwani - HSPCB",22-07-2024 02:00:00,28.806223,76.141105,OZONE,7,47,10
India,Haryana,Charkhi Dadri,"Mini Secretariat, Charkhi Dadri - HSPCB",22-07-2024 02:00:00,28.593883,76.270653,PM2.5,52,115,86
India,Haryana,Charkhi Dadri,"Mini Secretariat, Charkhi Dadri - HSPCB",22-07-2024 02:00:00,28.593883,76.270653,NO2,14,25,18
India,Haryana,Dharuhera,"Municipal Corporation Office, Dharuhera -  HSPCB",22-07-2024 02:00:00,28.206800,76.799700,SO2,7,17,11
India,Haryana,Faridabad,"New Industrial Town, Faridabad - HSPCB",22-07-2024 02:00:00,28.39072,77.30059,NH3,NA,NA,NA
India,Haryana,Faridabad,"Sector 11, Faridabad - HSPCB",22-07-2024 02:00:00,28.376058,77.315741,NO2,30,32,31
India,Haryana,Faridabad,"Sector 11, Faridabad - HSPCB",22-07-2024 02:00:00,28.376058,77.315741,OZONE,6,15,9
India,Haryana,Faridabad,"Sector 30, Faridabad - HSPCB",22-07-2024 02:00:00,28.4417,77.3217,PM10,92,116,100
India,Haryana,Faridabad,"Sector 30, Faridabad - HSPCB",22-07-2024 02:00:00,28.4417,77.3217,SO2,3,3,3
India,Haryana,Faridabad,"Sector 30, Faridabad - HSPCB",22-07-2024 02:00:00,28.4417,77.3217,CO,18,37,24
India,Haryana,Fatehabad,"Huda Sector, Fatehabad - HSPCB",22-07-2024 02:00:00,29.503664,75.467934,NO2,29,32,30
India,Haryana,Gurugram,"Sector-51, Gurugram - HSPCB",22-07-2024 02:00:00,28.4227,77.0667,PM10,36,451,149
India,Haryana,Gurugram,"Sector-51, Gurugram - HSPCB",22-07-2024 02:00:00,28.4227,77.0667,OZONE,28,38,31
India,Haryana,Gurugram,"Teri Gram, Gurugram - HSPCB",22-07-2024 02:00:00,28.4275,77.1465,PM2.5,24,143,64
India,Haryana,Gurugram,"Teri Gram, Gurugram - HSPCB",22-07-2024 02:00:00,28.4275,77.1465,OZONE,16,21,16
India,Haryana,Hisar,"Urban Estate-II, Hisar - HSPCB",22-07-2024 02:00:00,29.140560,75.744941,CO,62,158,90
India,Haryana,Karnal,"Sector-12, Karnal - HSPCB",22-07-2024 02:00:00,29.695300,77.002700,OZONE,42,47,44
India,Haryana,Kurukshetra,"Sector-7, Kurukshetra - HSPCB",22-07-2024 02:00:00,29.966942,76.875879,NH3,6,6,6
India,Haryana,Mandikhera,"General Hospital, Mandikhera - HSPCB",22-07-2024 02:00:00,27.9002,76.9938,SO2,32,37,34
India,Haryana,Manesar,"Sector-2 IMT, Manesar - HSPCB",22-07-2024 02:00:00,28.360699,76.936090,PM2.5,28,112,61
India,Haryana,Manesar,"Sector-2 IMT, Manesar - HSPCB",22-07-2024 02:00:00,28.360699,76.936090,NO2,20,21,21
India,Haryana,Manesar,"Sector-2 IMT, Manesar - HSPCB",22-07-2024 02:00:00,28.360699,76.936090,NH3,2,2,2
India,Haryana,Narnaul,"Shastri Nagar, Narnaul - HSPCB",22-07-2024 02:00:00,28.060249,76.113115,NO2,15,32,25
India,Haryana,Palwal,"Shyam Nagar, Palwal - HSPCB",22-07-2024 02:00:00,28.1485564,77.3320667,SO2,1,23,12
India,Haryana,Palwal,"Shyam Nagar, Palwal - HSPCB",22-07-2024 02:00:00,28.1485564,77.3320667,CO,12,22,14
India,Haryana,Panchkula,"Sector-6, Panchkula - HSPCB ",22-07-2024 02:00:00,30.7057778,76.8531805555555,SO2,NA,NA,NA
India,Haryana,Panchkula,"Sector-6, Panchkula - HSPCB ",22-07-2024 02:00:00,30.7057778,76.8531805555555,CO,2,13,8
India,Haryana,Rohtak,"MD University, Rohtak - HSPCB",22-07-2024 02:00:00,28.52123,76.37138,NO2,48,55,51
India,Haryana,Rohtak,"MD University, Rohtak - HSPCB",22-07-2024 02:00:00,28.52123,76.37138,CO,40,46,42
India,Haryana,Rohtak,"MD University, Rohtak - HSPCB",22-07-2024 02:00:00,28.52123,76.37138,OZONE,45,54,50
India,Haryana,Sirsa,"F-Block, Sirsa - HSPCB",22-07-2024 02:00:00,29.536400,75.015800,CO,8,98,84
India,Haryana,Sonipat,"Murthal, Sonipat - HSPCB",22-07-2024 02:00:00,29.027200,77.062100,NH3,2,10,8
India,Haryana,Yamuna Nagar,"Gobind Pura, Yamuna Nagar - HSPCB",22-07-2024 02:00:00,30.1480566,77.2893471,PM10,39,84,58
India,Haryana,Yamuna Nagar,"Gobind Pura, Yamuna Nagar - HSPCB",22-07-2024 02:00:00,30.1480566,77.2893471,SO2,1,11,3
India,Himachal Pradesh,Baddi,"HIMUDA Complex Phase-1, Baddi - HPPCB",22-07-2024 02:00:00,30.943887,76.801991,NO2,9,56,19
India,Jammu_and_Kashmir,Srinagar,"Rajbagh, Srinagar - JKSPCB",22-07-2024 02:00:00,34.066206,74.819820,NO2,4,6,6
India,Jammu_and_Kashmir,Srinagar,"Rajbagh, Srinagar - JKSPCB",22-07-2024 02:00:00,34.066206,74.819820,NH3,1,1,1
India,Jammu_and_Kashmir,Srinagar,"Rajbagh, Srinagar - JKSPCB",22-07-2024 02:00:00,34.066206,74.819820,SO2,4,76,21
India,Jharkhand,Dhanbad,"Kalakusuma, Dhanbad - DMC",22-07-2024 02:00:00,23.811548,86.481238,NO2,33,34,33
India,Jharkhand,Jorapokhar,"Tata Stadium, Jorapokhar - JSPCB",22-07-2024 02:00:00,23.707909,86.414670,PM10,NA,NA,NA
India,Karnataka,Bagalkot,"Vidayagiri, Bagalkot - KSPCB",22-07-2024 02:00:00,16.172806,75.659694,PM2.5,27,40,39
India,Karnataka,Belgaum,"Ramteerth Nagar, Belgaum - KSPCB",22-07-2024 02:00:00,15.888653,74.541751,PM2.5,11,23,17
India,Karnataka,Belgaum,"Ramteerth Nagar, Belgaum - KSPCB",22-07-2024 02:00:00,15.888653,74.541751,NO2,8,19,14
India,Karnataka,Belgaum,"Ramteerth Nagar, Belgaum - KSPCB",22-07-2024 02:00:00,15.888653,74.541751,CO,47,53,50
India,Karnataka,Bengaluru,"Bapuji Nagar, Bengaluru - KSPCB",22-07-2024 02:00:00,12.951913,77.539784,OZONE,27,39,34
India,Karnataka,Bengaluru,"City Railway Station, Bengaluru - KSPCB",22-07-2024 02:00:00,12.9756843,77.5660749,CO,51,104,73
India,Karnataka,Bengaluru,"Hebbal, Bengaluru - KSPCB",22-07-2024 02:00:00,13.029152,77.585901,NO2,NA,NA,NA
India,Karnataka,Bengaluru,"Hebbal, Bengaluru - KSPCB",22-07-2024 02:00:00,13.029152,77.585901,CO,10,21,15
India,Karnataka,Bengaluru,"Hombegowda Nagar, Bengaluru - KSPCB",22-07-2024 02:00:00,12.938539,77.590100,NH3,1,1,1
India,Karnataka,Bengaluru,"Jigani, Bengaluru - KSPCB",22-07-2024 02:00:00,12.7816279,77.6299145,PM2.5,36,38,37
India,Karnataka,Bengaluru,"Jigani, Bengaluru - KSPCB",22-07-2024 02:00:00,12.7816279,77.6299145,CO,24,46,25
India,Karnataka,Bengaluru,"Kasturi Nagar, Bengaluru - KSPCB",22-07-2024 02:00:00,13.003872,77.664217,PM2.5,27,29,28
India,Karnataka,Bengaluru,"Kasturi Nagar, Bengaluru - KSPCB",22-07-2024 02:00:00,13.003872,77.664217,SO2,10,10,10
India,Karnataka,Bengaluru,"Kasturi Nagar, Bengaluru - KSPCB",22-07-2024 02:00:00,13.003872,77.664217,CO,24,26,25
India,Karnataka,Bengaluru,"Shivapura_Peenya, Bengaluru - KSPCB",22-07-2024 02:00:00,13.0246342,77.5080115,NO2,15,16,16
India,Karnataka,Bengaluru,"Shivapura_Peenya, Bengaluru - KSPCB",22-07-2024 02:00:00,13.0246342,77.5080115,CO,15,22,20
India,Karnataka,Bengaluru,"Silk Board, Bengaluru - KSPCB",22-07-2024 02:00:00,12.917348,77.622813,NO2,8,21,16
India,Karnataka,Bidar,"Naubad, Bidar - KSPCB",22-07-2024 02:00:00,17.930306,77.482194,NO2,NA,NA,NA
India,Karnataka,Bidar,"Naubad, Bidar - KSPCB",22-07-2024 02:00:00,17.930306,77.482194,OZONE,NA,NA,NA
India,Karnataka,Chamarajanagar,"Urban, Chamarajanagar - KSPCB",22-07-2024 02:00:00,11.55358,76.55521,NO2,19,36,26
India,Karnataka,Chikkaballapur,"Chikkaballapur Rural, Chikkaballapur - KSPCB",22-07-2024 02:00:00,13.428828,77.731418,CO,8,20,18
India,Karnataka,Chikkaballapur,"Chikkaballapur Rural, Chikkaballapur - KSPCB",22-07-2024 02:00:00,13.428828,77.731418,OZONE,22,25,25
India,Karnataka,Chikkamagaluru,"Kalyana Nagara, Chikkamagaluru - KSPCB",22-07-2024 02:00:00,13.328028,75.797056,NH3,2,3,2
India,Karnataka,Davanagere,"Devaraj Urs Badavane, Davanagere - KSPCB",22-07-2024 02:00:00,14.475800,75.905200,PM2.5,5,25,15
India,Karnataka,Davanagere,"Devaraj Urs Badavane, Davanagere - KSPCB",22-07-2024 02:00:00,14.475800,75.905200,NH3,1,2,2
India,Karnataka,Davanagere,"Devaraj Urs Badavane, Davanagere - KSPCB",22-07-2024 02:00:00,14.475800,75.905200,OZONE,19,25,20
India,Karnataka,Dharwad,"Kalabhavan, Dharwad - KSPCB",22-07-2024 02:00:00,15.459706,75.008381,PM2.5,17,208,54
India,Karnataka,Gadag,"Panchal Nagar, Gadag - KSPCB",22-07-2024 02:00:00,15.411456,75.638133,PM10,25,28,25
India,Karnataka,Haveri,"Ashwini Nagar, Haveri - KSPCB",22-07-2024 02:00:00,14.791800,75.389600,NH3,NA,NA,NA
India,Karnataka,Hubballi,"Lingaraj Nagar, Hubballi - KSPCB",22-07-2024 02:00:00,15.3714823,75.1160168,PM2.5,26,87,44
India,Karnataka,Hubballi,"Lingaraj Nagar, Hubballi - KSPCB",22-07-2024 02:00:00,15.3714823,75.1160168,SO2,1,2,2
India,Karnataka,Kalaburagi,"Lal Bahadur Shastri Nagar, Kalaburagi - KSPCB",22-07-2024 02:00:00,17.321993,76.822628,PM2.5,23,70,37
India,Karnataka,Kalaburagi,"Lal Bahadur Shastri Nagar, Kalaburagi - KSPCB",22-07-2024 02:00:00,17.321993,76.822628,SO2,4,19,12
India,Karnataka,Kalaburagi,"Mahatma Basaveswar Colony, Kalaburgi - KSPCB",22-07-2024 02:00:00,17.336318,76.847397,CO,24,30,28
India,Karnataka,Karwar,"KHB Colony, Karwar - KSPCB",22-07-2024 02:00:00,14.816666,74.141003,CO,NA,NA,NA
India,Karnataka,Koppal,"Diwator Nagar, Koppal - KSPCB",22-07-2024 02:00:00,15.347630,76.181767,NH3,6,9,8
India,Karnataka,Madikeri,"Stuart Hill, Madikeri - KSPCB",22-07-2024 02:00:00,12.415911,75.735050,PM2.5,8,19,13
India,Karnataka,Madikeri,"Stuart Hill, Madikeri - KSPCB",22-07-2024 02:00:00,12.415911,75.735050,SO2,4,4,4
India,Karnataka,Madikeri,"Stuart Hill, Madikeri - KSPCB",22-07-2024 02:00:00,12.415911,75.735050,OZONE,6,19,14
India,Karnataka,Mysuru,"Hebbal 1st Stage, Mysuru - KSPCB",22-07-2024 02:00:00,12.21041,76.37376,NH3,1,3,2
India,Karnataka,Raichur,"Haji Colony, Raichur - KSPCB",22-07-2024 02:00:00,16.208139,77.348417,PM2.5,NA,NA,NA
India,Karnataka,Raichur,"Haji Colony, Raichur - KSPCB",22-07-2024 02:00:00,16.208139,77.348417,NH3,3,4,3
India,Karnataka,Ramanagara,"Vijay Nagar, Ramanagara - KSPCB",22-07-2024 02:00:00,12.733409,77.298051,SO2,16,30,21
India,Karnataka,Shivamogga,"Vinoba Nagara, Shivamogga - KSPCB",22-07-2024 02:00:00,13.940000,75.555917,NH3,1,3,2
India,Karnataka,Shivamogga,"Vinoba Nagara, Shivamogga - KSPCB",22-07-2024 02:00:00,13.940000,75.555917,SO2,2,7,5
India,Karnataka,Tumakuru,"Thimmalapura, Tumakuru - KSPCB",22-07-2024 02:00:00,13.377516,77.099072,PM2.5,17,54,32
India,Karnataka,Tumakuru,"Thimmalapura, Tumakuru - KSPCB",22-07-2024 02:00:00,13.377516,77.099072,CO,29,42,32
India,Karnataka,Vijayapura,"Ibrahimpur, Vijayapura - KSPCB",22-07-2024 02:00:00,16.802639,75.722694,PM2.5,22,26,25
India,Karnataka,Yadgir,"Collector Office, Yadgir - KSPCB",22-07-2024 02:00:00,16.7602,77.1428,PM2.5,2,20,11
India,Kerala,Eloor,"Udyogamandal, Eloor - Kerala PCB",22-07-2024 02:00:00,10.073232,76.302765,NO2,5,6,5
India,Kerala,Eloor,"Udyogamandal, Eloor - Kerala PCB",22-07-2024 02:00:00,10.073232,76.302765,CO,7,102,28
India,Kerala,Kannur,"Thavakkara, Kannur - Kerala PCB",22-07-2024 02:00:00,11.875000,75.373200,CO,62,73,69
India,Kerala,Kollam,"Polayathode, Kollam - Kerala PCB",22-07-2024 02:00:00,8.8787,76.6073,NH3,1,1,1
India,Kerala,Thiruvananthapuram,"Kariavattom, Thiruvananthapuram - Kerala PCB",22-07-2024 02:00:00,8.563700,76.886500,NH3,1,1,1
