country,state,city,station,last_update,latitude,longitude,pollutant_id,pollutant_min,pollutant_max,pollutant_avg
India,Andhra_Pradesh,Amaravati,"Secretariat, Amaravati - APPCB",21-06-2024 02:00:00,16.5150833,80.5181667,SO2,14,17,15
India,Andhra_Pradesh,Amaravati,"Secretariat, Amaravati - APPCB",21-06-2024 02:00:00,16.5150833,80.5181667,CO,7,70,33
India,Andhra_Pradesh,Amaravati,"Secretariat, Amaravati - APPCB",21-06-2024 02:00:00,16.5150833,80.5181667,OZONE,7,31,19
India,Andhra_Pradesh,Anantapur,"Gulzarpet, Anantapur - APPCB",21-06-2024 02:00:00,14.675886,77.593027,PM2.5,NA,NA,NA
India,Andhra_Pradesh,Anantapur,"Gulzarpet, Anantapur - APPCB",21-06-2024 02:00:00,14.675886,77.593027,OZONE,4,8,7
India,Andhra_Pradesh,Chittoor,"Gangineni Cheruvu, Chittoor - APPCB",21-06-2024 02:00:00,13.204880,79.097889,PM2.5,NA,NA,NA
India,Andhra_Pradesh,Kadapa,"Yerramukkapalli, Kadapa - APPCB",21-06-2024 02:00:00,14.465052,78.824187,PM2.5,NA,NA,NA
India,Andhra_Pradesh,Tirupati,"Tirumala, Tirupati - APPCB",21-06-2024 02:00:00,13.67,79.35,NO2,13,32,22
India,Andhra_Pradesh,Tirupati,"Vaikuntapuram, Tirupati - APPCB",21-06-2024 02:00:00,13.615387,79.409230,PM10,NA,NA,NA
India,Andhra_Pradesh,Tirupati,"Vaikuntapuram, Tirupati - APPCB",21-06-2024 02:00:00,13.615387,79.409230,CO,NA,NA,NA
India,Andhra_Pradesh,Vijayawada,"HB Colony, Vijayawada - APPCB",21-06-2024 02:00:00,16.536107,80.594233,PM10,37,92,58
India,Andhra_Pradesh,Vijayawada,"Kanuru, Vijayawada - APPCB",21-06-2024 02:00:00,16.486692,80.699436,SO2,6,11,8
India,Andhra_Pradesh,Vijayawada,"Rajiv Gandhi Park, Vijayawada - APPCB",21-06-2024 02:00:00,16.509717,80.612222,SO2,7,22,10
India,Andhra_Pradesh,Vijayawada,"Rajiv Nagar, Vijayawada - APPCB",21-06-2024 02:00:00,16.554731,80.649110,NH3,1,2,2
India,Andhra_Pradesh,Visakhapatnam,"GVM Corporation, Visakhapatnam - APPCB",21-06-2024 02:00:00,17.72,83.3,CO,2,36,28
India,Arunachal_Pradesh,Naharlagun,"Naharlagun, Naharlagun - APSPCB",21-06-2024 02:00:00,27.103358,93.679645,PM2.5,4,44,20
India,Arunachal_Pradesh,Naharlagun,"Naharlagun, Naharlagun - APSPCB",21-06-2024 02:00:00,27.103358,93.679645,SO2,4,4,4
India,Assam,Byrnihat,"Central Academy for SFS, Byrnihat - PCBA",21-06-2024 02:00:00,26.071318,91.87488,PM2.5,NA,NA,NA
India,Assam,Byrnihat,"Central Academy for SFS, Byrnihat - PCBA",21-06-2024 02:00:00,26.071318,91.87488,PM10,NA,NA,NA
India,Assam,Byrnihat,"Central Academy for SFS, Byrnihat - PCBA",21-06-2024 02:00:00,26.071318,91.87488,CO,1,12,3
India,Assam,Byrnihat,"Central Academy for SFS, Byrnihat - PCBA",21-06-2024 02:00:00,26.071318,91.87488,OZONE,18,45,25
India,Assam,Guwahati,"LGBI Airport, Guwahati - PCBA",21-06-2024 02:00:00,26.10887,91.589544,PM10,6,405,77
India,Assam,Guwahati,"LGBI Airport, Guwahati - PCBA",21-06-2024 02:00:00,26.10887,91.589544,NH3,1,3,1
India,Assam,Guwahati,"Pan Bazaar, Guwahati - PCBA",21-06-2024 02:00:00,26.187500,91.744194,SO2,28,36,32
India,Assam,Guwahati,"Pan Bazaar, Guwahati - PCBA",21-06-2024 02:00:00,26.187500,91.744194,OZONE,17,17,17
India,Assam,Guwahati,"Railway Colony, Guwahati - PCBA",21-06-2024 02:00:00,26.181742,91.78063,PM2.5,4,72,18
India,Assam,Guwahati,"Railway Colony, Guwahati - PCBA",21-06-2024 02:00:00,26.181742,91.78063,PM10,4,72,19
India,Assam,Guwahati,"Railway Colony, Guwahati - PCBA",21-06-2024 02:00:00,26.181742,91.78063,SO2,2,2,2
India,Assam,Nagaon,"Christianpatty, Nagaon - PCBA",21-06-2024 02:00:00,26.349082,92.68449,PM2.5,24,41,28
India,Assam,Nagaon,"Christianpatty, Nagaon - PCBA",21-06-2024 02:00:00,26.349082,92.68449,OZONE,7,46,17
India,Assam,Nalbari,"Bata Chowk, Nalbari - PCBA",21-06-2024 02:00:00,26.446912,91.439057,NH3,1,2,1
India,Assam,Silchar,"Tarapur, Silchar - PCBA",21-06-2024 02:00:00,24.82827,92.79525,NO2,11,12,12
India,Assam,Silchar,"Tarapur, Silchar - PCBA",21-06-2024 02:00:00,24.82827,92.79525,NH3,1,1,1
India,Assam,Sivasagar,"Girls College, Sivasagar - PCBA",21-06-2024 02:00:00,26.987634,94.636574,PM2.5,2,29,24
India,Assam,Sivasagar,"Girls College, Sivasagar - PCBA",21-06-2024 02:00:00,26.987634,94.636574,NO2,10,14,12
India,Bihar,Arrah,"New DM Office, Arrah - BSPCB",21-06-2024 02:00:00,25.5626095,84.663264,PM10,NA,NA,NA
India,Bihar,Aurangabad,"Gurdeo Nagar, Aurangabad - BSPCB",21-06-2024 02:00:00,24.75746,84.366208,SO2,12,22,17
India,Bihar,Aurangabad,"Gurdeo Nagar, Aurangabad - BSPCB",21-06-2024 02:00:00,24.75746,84.366208,OZONE,22,98,51
India,Bihar,Bettiah,"Kamalnath Nagar, Bettiah - BSPCB",21-06-2024 02:00:00,26.80365,84.51954,CO,14,50,44
India,Bihar,Bettiah,"Kamalnath Nagar, Bettiah - BSPCB",21-06-2024 02:00:00,26.80365,84.51954,OZONE,1,8,2
India,Bihar,Bhagalpur,"DM Office_Kachari Chowk, Bhagalpur - BSPCB",21-06-2024 02:00:00,25.251013,86.989001,NO2,15,37,27
India,Bihar,Bihar Sharif,"D M Colony, Bihar Sharif - BSPCB",21-06-2024 02:00:00,25.204762,85.514960,PM2.5,NA,NA,NA
India,Bihar,Bihar Sharif,"D M Colony, Bihar Sharif - BSPCB",21-06-2024 02:00:00,25.204762,85.514960,SO2,NA,NA,NA
India,Bihar,Bihar Sharif,"D M Colony, Bihar Sharif - BSPCB",21-06-2024 02:00:00,25.204762,85.514960,CO,26,29,27
India,Bihar,Bihar Sharif,"D M Colony, Bihar Sharif - BSPCB",21-06-2024 02:00:00,25.204762,85.514960,OZONE,22,85,55
India,Bihar,Buxar,"Charitra Van, Buxar - BSPCB (Formerly known as Central Jail)",21-06-2024 02:00:00,25.567520,83.966379,NH3,1,1,1
India,Bihar,Chhapra,"Darshan Nagar, Chhapra - BSPCB",21-06-2024 02:00:00,25.7808257,84.7446768,SO2,NA,NA,NA
India,Bihar,Gaya,"Collectorate, Gaya - BSPCB",21-06-2024 02:00:00,24.7955,84.9994,NO2,3,6,4
India,Bihar,Gaya,"Kareemganj, Gaya - BSPCB",21-06-2024 02:00:00,24.792403,84.992416,SO2,13,13,13
India,Bihar,Hajipur,"Industrial Area, Hajipur - BSPCB",21-06-2024 02:00:00,25.697189,85.245900,CO,18,30,21
India,Bihar,Katihar,"Mirchaibari, Katihar - BSPCB",21-06-2024 02:00:00,25.560083,87.553265,NH3,NA,NA,NA
India,Bihar,Katihar,"Mirchaibari, Katihar - BSPCB",21-06-2024 02:00:00,25.560083,87.553265,SO2,NA,NA,NA
India,Bihar,Kishanganj,"SDM Office_Khagra, Kishanganj - BSPCB",21-06-2024 02:00:00,26.0881305,87.93840336,PM2.5,NA,NA,NA
India,Bihar,Manguraha,"Forest Rest House, Manguraha - BSPCB",21-06-2024 02:00:00,27.308328,84.531742,CO,38,72,40
India,Bihar,Motihari,"Gandak Colony, Motihari - BSPCB",21-06-2024 02:00:00,26.63086,84.90051,NO2,10,34,23
India,Bihar,Motihari,"Gandak Colony, Motihari - BSPCB",21-06-2024 02:00:00,26.63086,84.90051,NH3,2,6,4
India,Bihar,Munger,"Town Hall, Munger - BSPCB",21-06-2024 02:00:00,25.376776,86.471523,PM10,NA,NA,NA
India,Bihar,Munger,"Town Hall, Munger - BSPCB",21-06-2024 02:00:00,25.376776,86.471523,NH3,NA,NA,NA
India,Bihar,Munger,"Town Hall, Munger - BSPCB",21-06-2024 02:00:00,25.376776,86.471523,SO2,NA,NA,NA
India,Bihar,Muzaffarpur,"MIT-Daudpur Kothi, Muzaffarpur - BSPCB",21-06-2024 02:00:00,26.1403345,85.3650192,PM10,NA,NA,NA
India,Bihar,Muzaffarpur,"MIT-Daudpur Kothi, Muzaffarpur - BSPCB",21-06-2024 02:00:00,26.1403345,85.3650192,NH3,11,14,12
India,Bihar,Patna,"DRM Office Danapur, Patna - BSPCB",21-06-2024 02:00:00,25.586562,85.043586,PM2.5,27,104,51
India,Bihar,Patna,"DRM Office Danapur, Patna - BSPCB",21-06-2024 02:00:00,25.586562,85.043586,SO2,1,6,3
India,Bihar,Patna,"DRM Office Danapur, Patna - BSPCB",21-06-2024 02:00:00,25.586562,85.043586,CO,10,42,28
India,Bihar,Patna,"Govt. High School Shikarpur, Patna - BSPCB",21-06-2024 02:00:00,25.592539,85.227158,SO2,8,22,11
India,Bihar,Patna,"Govt. High School Shikarpur, Patna - BSPCB",21-06-2024 02:00:00,25.592539,85.227158,CO,23,54,43
India,Bihar,Patna,"Govt. High School Shikarpur, Patna - BSPCB",21-06-2024 02:00:00,25.592539,85.227158,OZONE,1,59,5
India,Bihar,Patna,"IGSC Planetarium Complex, Patna - BSPCB",21-06-2024 02:00:00,25.610369,85.132568,NO2,12,12,12
India,Bihar,Patna,"IGSC Planetarium Complex, Patna - BSPCB",21-06-2024 02:00:00,25.610369,85.132568,CO,14,19,16
India,Bihar,Patna,"IGSC Planetarium Complex, Patna - BSPCB",21-06-2024 02:00:00,25.610369,85.132568,OZONE,47,117,78
India,Bihar,Patna,"Muradpur, Patna - BSPCB",21-06-2024 02:00:00,25.619651,85.147382,PM10,59,318,140
India,Bihar,Patna,"Muradpur, Patna - BSPCB",21-06-2024 02:00:00,25.619651,85.147382,SO2,3,17,6
India,Bihar,Patna,"Rajbansi Nagar, Patna - BSPCB",21-06-2024 02:00:00,25.599486,85.113666,CO,20,58,35
India,Bihar,Purnia,"Mariam Nagar, Purnia - BSPCB",21-06-2024 02:00:00,25.366336,87.117468,PM10,8,75,36
India,Bihar,Saharsa,"Police Line, Saharsa - BSPCB",21-06-2024 02:00:00,25.892357,86.590325,SO2,16,17,17
India,Bihar,Samastipur,"DM Office_Kasipur, Samastipur - BSPCB",21-06-2024 02:00:00,25.859655,85.77944,NO2,NA,NA,NA
India,Bihar,Sasaram,"Dada Peer, Sasaram - BSPCB",21-06-2024 02:00:00,24.952822,84.002396,PM10,NA,NA,NA
India,Bihar,Sasaram,"Dada Peer, Sasaram - BSPCB",21-06-2024 02:00:00,24.952822,84.002396,NH3,2,17,8
India,Bihar,Sasaram,"Dada Peer, Sasaram - BSPCB",21-06-2024 02:00:00,24.952822,84.002396,CO,25,60,49
India,Bihar,Siwan,"Chitragupta Nagar, Siwan - BSPCB",21-06-2024 02:00:00,26.2271665,84.3570427,NO2,25,93,48
India,Chandigarh,Chandigarh,"Sector 22, Chandigarh - CPCC",21-06-2024 02:00:00,30.735567,76.775714,PM10,42,117,71
India,Chandigarh,Chandigarh,"Sector 22, Chandigarh - CPCC",21-06-2024 02:00:00,30.735567,76.775714,SO2,7,23,12
India,Chandigarh,Chandigarh,"Sector-25, Chandigarh - CPCC",21-06-2024 02:00:00,30.751462,76.762879,PM10,56,114,87
India,Chandigarh,Chandigarh,"Sector-25, Chandigarh - CPCC",21-06-2024 02:00:00,30.751462,76.762879,NO2,13,47,24
India,Chandigarh,Chandigarh,"Sector-53, Chandigarh - CPCC",21-06-2024 02:00:00,30.719859,76.738637,NH3,4,7,5
India,Chandigarh,Chandigarh,"Sector-53, Chandigarh - CPCC",21-06-2024 02:00:00,30.719859,76.738637,SO2,3,14,7
India,Chhattisgarh,Bhilai,"32Bungalows, Bhilai - CECB",21-06-2024 02:00:00,21.194815,81.314770,NO2,11,12,12
India,Chhattisgarh,Bhilai,"Civic Center, Bhilai - Bhilai Steel Plant",21-06-2024 02:00:00,21.185571,81.343175,SO2,10,11,10
India,Chhattisgarh,Bhilai,"Hathkhoj, Bhilai - CECB",21-06-2024 02:00:00,21.224231,81.408350,PM10,NA,NA,NA
India,Chhattisgarh,Bilaspur,"Mangala, Bilaspur - NTPC",21-06-2024 02:00:00,22.08815,82.13737,NO2,12,19,15
India,Chhattisgarh,Korba,"Urja Nagar, Korba - CECB",21-06-2024 02:00:00,22.348441,82.549611,PM10,NA,NA,NA
India,Chhattisgarh,Kunjemura,"OP Jindal School, Kunjemura - CECB",21-06-2024 02:00:00,22.126650,83.483212,SO2,1,7,4
India,Chhattisgarh,Raipur,"AIIMS, Raipur - CECB",21-06-2024 02:00:00,21.258815,81.578979,SO2,3,4,4
India,Chhattisgarh,Raipur,"Bhatagaon New ISBT, Raipur - CECB",21-06-2024 02:00:00,21.219665,81.630094,PM10,11,51,29
India,Chhattisgarh,Raipur,"Bhatagaon New ISBT, Raipur - CECB",21-06-2024 02:00:00,21.219665,81.630094,NO2,4,5,4
India,Chhattisgarh,Raipur,"Bhatagaon New ISBT, Raipur - CECB",21-06-2024 02:00:00,21.219665,81.630094,NH3,2,2,2
India,Chhattisgarh,Raipur,"Bhatagaon New ISBT, Raipur - CECB",21-06-2024 02:00:00,21.219665,81.630094,CO,10,23,18
India,Chhattisgarh,Raipur,"Krishak Nagar, Raipur - CECB",21-06-2024 02:00:00,21.237755,81.705301,PM2.5,5,18,11
India,Chhattisgarh,Raipur,"Krishak Nagar, Raipur - CECB",21-06-2024 02:00:00,21.237755,81.705301,OZONE,4,15,8
India,Chhattisgarh,Tumidih,"OP Jindal Industrial Park, Tumidih - CECB",21-06-2024 02:00:00,22.06631475,83.33820077,PM10,NA,NA,NA
India,Delhi,Delhi,"Alipur, Delhi - DPCC",21-06-2024 02:00:00,28.815329,77.153010,NO2,24,39,30
India,Delhi,Delhi,"Alipur, Delhi - DPCC",21-06-2024 02:00:00,28.815329,77.153010,SO2,11,29,19
India,Delhi,Delhi,"Anand Vihar, Delhi - DPCC",21-06-2024 02:00:00,28.647622,77.3158090,PM2.5,13,257,96
India,Delhi,Delhi,"Anand Vihar, Delhi - DPCC",21-06-2024 02:00:00,28.647622,77.3158090,PM10,88,218,155
India,Delhi,Delhi,"Anand Vihar, Delhi - DPCC",21-06-2024 02:00:00,28.647622,77.3158090,CO,25,52,41
India,Delhi,Delhi,"Ashok Vihar, Delhi - DPCC",21-06-2024 02:00:00,28.695381,77.181665,NH3,6,10,9
India,Delhi,Delhi,"Ashok Vihar, Delhi - DPCC",21-06-2024 02:00:00,28.695381,77.181665,SO2,12,26,17
India,Delhi,Delhi,"Bawana, Delhi - DPCC",21-06-2024 02:00:00,28.776200,77.051074,NH3,5,9,7
India,Delhi,Delhi,"Bawana, Delhi - DPCC",21-06-2024 02:00:00,28.776200,77.051074,SO2,9,23,15
India,Delhi,Delhi,"Burari Crossing, Delhi - IMD",21-06-2024 02:00:00,28.7256504,77.2011573,NO2,7,13,10
India,Delhi,Delhi,"Burari Crossing, Delhi - IMD",21-06-2024 02:00:00,28.7256504,77.2011573,OZONE,25,83,40
India,Delhi,Delhi,"CRRI Mathura Road, Delhi - IMD",21-06-2024 02:00:00,28.5512005,77.2735737,NO2,10,23,15
India,Delhi,Delhi,"Chandni Chowk, Delhi - IITM",21-06-2024 02:00:00,28.656756,77.227234,CO,52,78,64
India,Delhi,Delhi,"DTU, Delhi - CPCB",21-06-2024 02:00:00,28.7500499,77.1112615,PM10,64,170,117
India,Delhi,Delhi,"Dr. Karni Singh Shooting Range, Delhi - DPCC",21-06-2024 02:00:00,28.498571,77.264840,NH3,5,7,6
India,Delhi,Delhi,"Dr. Karni Singh Shooting Range, Delhi - DPCC",21-06-2024 02:00:00,28.498571,77.264840,CO,26,42,36
India,Delhi,Delhi,"IGI Airport (T3), Delhi - IMD",21-06-2024 02:00:00,28.5627763,77.1180053,PM10,75,154,107
India,Delhi,Delhi,"IGI Airport (T3), Delhi - IMD",21-06-2024 02:00:00,28.5627763,77.1180053,NO2,18,47,30
India,Delhi,Delhi,"IHBAS, Dilshad Garden, Delhi - CPCB",21-06-2024 02:00:00,28.6811736,77.3025234,NO2,13,43,32
India,Delhi,Delhi,"ITO, Delhi - CPCB",21-06-2024 02:00:00,28.628624,77.241060,NH3,4,6,5
India,Delhi,Delhi,"Jawaharlal Nehru Stadium, Delhi - DPCC",21-06-2024 02:00:00,28.580280,77.233829,PM10,66,145,108
India,Delhi,Delhi,"Jawaharlal Nehru Stadium, Delhi - DPCC",21-06-2024 02:00:00,28.580280,77.233829,NH3,5,9,6
India,Delhi,Delhi,"Major Dhyan Chand National Stadium, Delhi - DPCC",21-06-2024 02:00:00,28.611281,77.237738,PM2.5,63,177,116
India,Delhi,Delhi,"Major Dhyan Chand National Stadium, Delhi - DPCC",21-06-2024 02:00:00,28.611281,77.237738,PM10,64,159,121
India,Delhi,Delhi,"Major Dhyan Chand National Stadium, Delhi - DPCC",21-06-2024 02:00:00,28.611281,77.237738,NH3,1,17,7
India,Delhi,Delhi,"Major Dhyan Chand National Stadium, Delhi - DPCC",21-06-2024 02:00:00,28.611281,77.237738,SO2,8,30,15
India,Delhi,Delhi,"Major Dhyan Chand National Stadium, Delhi - DPCC",21-06-2024 02:00:00,28.611281,77.237738,CO,26,61,45
India,Delhi,Delhi,"Mandir Marg, Delhi - DPCC",21-06-2024 02:00:00,28.636429,77.201067,PM2.5,23,190,67
India,Delhi,Delhi,"Mundka, Delhi - DPCC",21-06-2024 02:00:00,28.684678,77.076574,CO,38,66,54
India,Delhi,Delhi,"Najafgarh, Delhi - DPCC",21-06-2024 02:00:00,28.570173,76.933762,PM10,77,155,117
India,Delhi,Delhi,"Narela, Delhi - DPCC",21-06-2024 02:00:00,28.822836,77.101981,NH3,4,5,4
India,Delhi,Delhi,"Narela, Delhi - DPCC",21-06-2024 02:00:00,28.822836,77.101981,OZONE,32,129,96
India,Delhi,Delhi,"Nehru Nagar, Delhi - DPCC",21-06-2024 02:00:00,28.567890,77.250515,NO2,8,46,22
India,Delhi,Delhi,"Nehru Nagar, Delhi - DPCC",21-06-2024 02:00:00,28.567890,77.250515,SO2,6,11,8
India,Delhi,Delhi,"North Campus, DU, Delhi - IMD",21-06-2024 02:00:00,28.6573814,77.1585447,CO,38,96,78
India,Delhi,Delhi,"Okhla Phase-2, Delhi - DPCC",21-06-2024 02:00:00,28.530785,77.271255,PM2.5,20,80,53
India,Delhi,Delhi,"Patparganj, Delhi - DPCC",21-06-2024 02:00:00,28.623763,77.287209,PM2.5,27,93,62
India,Delhi,Delhi,"Punjabi Bagh, Delhi - DPCC",21-06-2024 02:00:00,28.674045,77.131023,PM10,69,141,107
India,Delhi,Delhi,"Pusa, Delhi - IMD",21-06-2024 02:00:00,28.636110,77.173332,NO2,11,26,16
India,Delhi,Delhi,"R K Puram, Delhi - DPCC",21-06-2024 02:00:00,28.563262,77.186937,PM2.5,57,180,100
India,Delhi,Delhi,"R K Puram, Delhi - DPCC",21-06-2024 02:00:00,28.563262,77.186937,CO,14,60,43
India,Delhi,Delhi,"Rohini, Delhi - DPCC",21-06-2024 02:00:00,28.732528,77.119920,PM10,85,195,143
India,Delhi,Delhi,"Shadipur, Delhi - CPCB",21-06-2024 02:00:00,28.6514781,77.1473105,OZONE,17,45,25
India,Delhi,Delhi,"Sirifort, Delhi - CPCB",21-06-2024 02:00:00,28.5504249,77.2159377,SO2,28,49,37
India,Delhi,Delhi,"Sirifort, Delhi - CPCB",21-06-2024 02:00:00,28.5504249,77.2159377,OZONE,7,35,15
India,Delhi,Delhi,"Sonia Vihar, Delhi - DPCC",21-06-2024 02:00:00,28.710508,77.249485,NH3,4,9,6
India,Delhi,Delhi,"Sonia Vihar, Delhi - DPCC",21-06-2024 02:00:00,28.710508,77.249485,SO2,8,18,12
India,Delhi,Delhi,"Sri Aurobindo Marg, Delhi - DPCC",21-06-2024 02:00:00,28.531346,77.190156,PM2.5,12,92,61
India,Delhi,Delhi,"Vivek Vihar, Delhi - DPCC",21-06-2024 02:00:00,28.672342,77.315260,PM2.5,33,160,80
India,Delhi,Delhi,"Wazirpur, Delhi - DPCC",21-06-2024 02:00:00,28.699793,77.165453,SO2,10,24,17
India,Gujarat,Ahmedabad,"Chandkheda, Ahmedabad - IITM",21-06-2024 02:00:00,23.107969,72.574648,NH3,NA,NA,NA
India,Gujarat,Ahmedabad,"Chandkheda, Ahmedabad - IITM",21-06-2024 02:00:00,23.107969,72.574648,CO,NA,NA,NA
India,Gujarat,Ahmedabad,"Gyaspur, Ahmedabad - IITM",21-06-2024 02:00:00,22.977134,72.553024,SO2,15,18,17
India,Gujarat,Ahmedabad,"Raikhad, Ahmedabad - IITM",21-06-2024 02:00:00,23.020509,72.579261,PM2.5,59,301,111
India,Gujarat,Ahmedabad,"Raikhad, Ahmedabad - IITM",21-06-2024 02:00:00,23.020509,72.579261,OZONE,18,66,47
India,Gujarat,Ahmedabad,"Rakhial, Ahmedabad - IITM",21-06-2024 02:00:00,23.016834,72.625775,PM2.5,42,149,79
India,Gujarat,Ahmedabad,"Sardar Vallabhbhai Patel Stadium, Ahmedabad - IITM",21-06-2024 02:00:00,23.043070,72.562968,PM10,53,173,97
India,Gujarat,Ahmedabad,"Sardar Vallabhbhai Patel Stadium, Ahmedabad - IITM",21-06-2024 02:00:00,23.043070,72.562968,SO2,10,13,13
India,Gujarat,Ankleshwar,"GIDC, Ankleshwar - GPCB",21-06-2024 02:00:00,21.613267,73.010555,PM2.5,22,51,37
India,Gujarat,Ankleshwar,"GIDC, Ankleshwar - GPCB",21-06-2024 02:00:00,21.613267,73.010555,SO2,NA,NA,NA
India,Gujarat,Gandhinagar,"Sector-10, Gandhinagar - GPCB",21-06-2024 02:00:00,23.221714,72.654328,PM2.5,21,60,38
India,Haryana,Ballabgarh,"Nathu Colony, Ballabgarh - HSPCB",21-06-2024 02:00:00,28.3419248,77.319699,OZONE,29,59,42
India,Haryana,Dharuhera,"Municipal Corporation Office, Dharuhera -  HSPCB",21-06-2024 02:00:00,28.206800,76.799700,PM10,50,124,80
India,Haryana,Dharuhera,"Municipal Corporation Office, Dharuhera -  HSPCB",21-06-2024 02:00:00,28.206800,76.799700,NO2,43,106,64
India,Haryana,Dharuhera,"Municipal Corporation Office, Dharuhera -  HSPCB",21-06-2024 02:00:00,28.206800,76.799700,SO2,2,109,14
India,Haryana,Faridabad,"New Industrial Town, Faridabad - HSPCB",21-06-2024 02:00:00,28.39072,77.30059,SO2,NA,NA,NA
India,Haryana,Faridabad,"Sector- 16A, Faridabad - HSPCB",21-06-2024 02:00:00,28.4088421,77.3099081,PM2.5,NA,NA,NA
India,Haryana,Faridabad,"Sector- 16A, Faridabad - HSPCB",21-06-2024 02:00:00,28.4088421,77.3099081,CO,14,78,60
India,Haryana,Gurugram,"Sector-51, Gurugram - HSPCB",21-06-2024 02:00:00,28.4227,77.0667,PM2.5,46,186,127
India,Haryana,Gurugram,"Teri Gram, Gurugram - HSPCB",21-06-2024 02:00:00,28.4275,77.1465,PM2.5,150,321,249
India,Haryana,Gurugram,"Teri Gram, Gurugram - HSPCB",21-06-2024 02:00:00,28.4275,77.1465,NH3,6,24,18
India,Haryana,Gurugram,"Vikas Sadan, Gurugram - HSPCB",21-06-2024 02:00:00,28.4501238,77.0263051,SO2,6,62,28
India,Haryana,Hisar,"Urban Estate-II, Hisar - HSPCB",21-06-2024 02:00:00,29.140560,75.744941,PM10,68,335,165
India,Haryana,Jind,"Police Lines, Jind - HSPCB",21-06-2024 02:00:00,29.307814,76.337619,NH3,1,8,1
India,Haryana,Jind,"Police Lines, Jind - HSPCB",21-06-2024 02:00:00,29.307814,76.337619,OZONE,30,62,54
India,Haryana,Kaithal,"Rishi Nagar, Kaithal - HSPCB",21-06-2024 02:00:00,29.8006,76.4155,PM2.5,17,74,44
India,Haryana,Kaithal,"Rishi Nagar, Kaithal - HSPCB",21-06-2024 02:00:00,29.8006,76.4155,OZONE,25,71,49
India,Haryana,Karnal,"Sector-12, Karnal - HSPCB",21-06-2024 02:00:00,29.695300,77.002700,PM2.5,38,62,49
India,Haryana,Karnal,"Sector-12, Karnal - HSPCB",21-06-2024 02:00:00,29.695300,77.002700,NO2,7,12,10
India,Haryana,Mandikhera,"General Hospital, Mandikhera - HSPCB",21-06-2024 02:00:00,27.9002,76.9938,NH3,16,20,18
India,Haryana,Manesar,"Sector-2 IMT, Manesar - HSPCB",21-06-2024 02:00:00,28.360699,76.936090,PM2.5,78,196,120
India,Haryana,Manesar,"Sector-2 IMT, Manesar - HSPCB",21-06-2024 02:00:00,28.360699,76.936090,SO2,1,4,1
India,Haryana,Narnaul,"Shastri Nagar, Narnaul - HSPCB",21-06-2024 02:00:00,28.060249,76.113115,PM2.5,26,67,46
India,Haryana,Narnaul,"Shastri Nagar, Narnaul - HSPCB",21-06-2024 02:00:00,28.060249,76.113115,NO2,15,78,47
India,Haryana,Narnaul,"Shastri Nagar, Narnaul - HSPCB",21-06-2024 02:00:00,28.060249,76.113115,OZONE,8,57,30
India,Haryana,Palwal,"Shyam Nagar, Palwal - HSPCB",21-06-2024 02:00:00,28.1485564,77.3320667,NO2,23,24,24
India,Haryana,Palwal,"Shyam Nagar, Palwal - HSPCB",21-06-2024 02:00:00,28.1485564,77.3320667,NH3,8,9,9
India,Haryana,Palwal,"Shyam Nagar, Palwal - HSPCB",21-06-2024 02:00:00,28.1485564,77.3320667,SO2,2,16,7
India,Haryana,Palwal,"Shyam Nagar, Palwal - HSPCB",21-06-2024 02:00:00,28.1485564,77.3320667,CO,18,28,24
India,Haryana,Palwal,"Shyam Nagar, Palwal - HSPCB",21-06-2024 02:00:00,28.1485564,77.3320667,OZONE,14,252,19
India,Haryana,Panchkula,"Sector-6, Panchkula - HSPCB ",21-06-2024 02:00:00,30.7057778,76.8531805555555,PM2.5,NA,NA,NA
India,Haryana,Panchkula,"Sector-6, Panchkula - HSPCB ",21-06-2024 02:00:00,30.7057778,76.8531805555555,OZONE,37,42,39
India,Haryana,Panipat,"Sector-18, Panipat - HSPCB",21-06-2024 02:00:00,29.432304,76.972765,CO,24,26,26
India,Haryana,Sirsa,"F-Block, Sirsa - HSPCB",21-06-2024 02:00:00,29.536400,75.015800,NO2,10,26,11
India,Haryana,Sirsa,"F-Block, Sirsa - HSPCB",21-06-2024 02:00:00,29.536400,75.015800,SO2,1,22,14
India,Haryana,Sonipat,"Murthal, Sonipat - HSPCB",21-06-2024 02:00:00,29.027200,77.062100,OZONE,17,37,22
India,Haryana,Yamuna Nagar,"Gobind Pura, Yamuna Nagar - HSPCB",21-06-2024 02:00:00,30.1480566,77.2893471,PM10,40,133,82
India,Haryana,Yamuna Nagar,"Gobind Pura, Yamuna Nagar - HSPCB",21-06-2024 02:00:00,30.1480566,77.2893471,NO2,11,21,16
India,Haryana,Yamuna Nagar,"Gobind Pura, Yamuna Nagar - HSPCB",21-06-2024 02:00:00,30.1480566,77.2893471,SO2,1,15,6
India,Himachal Pradesh,Baddi,"HIMUDA Complex Phase-1, Baddi - HPPCB",21-06-2024 02:00:00,30.943887,76.801991,PM10,20,147,91
India,Jammu_and_Kashmir,Srinagar,"Rajbagh, Srinagar - JKSPCB",21-06-2024 02:00:00,34.066206,74.819820,PM10,NA,NA,NA
India,Jharkhand,Dhanbad,"Sardar Patel Nagar, Dhanbad - JSPCB",21-06-2024 02:00:00,23.80569,86.44268,OZONE,17,28,23
India,Karnataka,Belgaum,"Ramteerth Nagar, Belgaum - KSPCB",21-06-2024 02:00:00,15.888653,74.541751,NH3,NA,NA,NA
India,Karnataka,Bengaluru,"Bapuji Nagar, Bengaluru - KSPCB",21-06-2024 02:00:00,12.951913,77.539784,SO2,6,9,7
India,Karnataka,Bengaluru,"Bapuji Nagar, Bengaluru - KSPCB",21-06-2024 02:00:00,12.951913,77.539784,OZONE,28,40,37
India,Karnataka,Bengaluru,"City Railway Station, Bengaluru - KSPCB",21-06-2024 02:00:00,12.9756843,77.5660749,PM10,67,106,80
India,Karnataka,Bengaluru,"City Railway Station, Bengaluru - KSPCB",21-06-2024 02:00:00,12.9756843,77.5660749,NO2,28,34,30
India,Karnataka,Bengaluru,"Hebbal, Bengaluru - KSPCB",21-06-2024 02:00:00,13.029152,77.585901,PM2.5,5,32,18
India,Karnataka,Bengaluru,"Hebbal, Bengaluru - KSPCB",21-06-2024 02:00:00,13.029152,77.585901,SO2,15,23,21
India,Karnataka,Bengaluru,"Hebbal, Bengaluru - KSPCB",21-06-2024 02:00:00,13.029152,77.585901,OZONE,6,40,7
India,Karnataka,Bengaluru,"Hombegowda Nagar, Bengaluru - KSPCB",21-06-2024 02:00:00,12.938539,77.590100,CO,11,22,15
India,Karnataka,Bengaluru,"Jayanagar 5th Block, Bengaluru - KSPCB",21-06-2024 02:00:00,12.920984,77.584908,PM2.5,20,35,27
India,Karnataka,Bengaluru,"Jayanagar 5th Block, Bengaluru - KSPCB",21-06-2024 02:00:00,12.920984,77.584908,SO2,12,25,20
India,Karnataka,Bengaluru,"Jigani, Bengaluru - KSPCB",21-06-2024 02:00:00,12.7816279,77.6299145,PM10,31,53,42
India,Karnataka,Bengaluru,"Jigani, Bengaluru - KSPCB",21-06-2024 02:00:00,12.7816279,77.6299145,SO2,8,9,9
India,Karnataka,Bengaluru,"Kasturi Nagar, Bengaluru - KSPCB",21-06-2024 02:00:00,13.003872,77.664217,NO2,16,17,17
India,Karnataka,Bengaluru,"Kasturi Nagar, Bengaluru - KSPCB",21-06-2024 02:00:00,13.003872,77.664217,SO2,10,10,10
India,Karnataka,Bengaluru,"Peenya, Bengaluru - CPCB",21-06-2024 02:00:00,13.0270199,77.494094,NO2,17,25,21
India,Karnataka,Bengaluru,"Peenya, Bengaluru - CPCB",21-06-2024 02:00:00,13.0270199,77.494094,SO2,12,16,14
India,Karnataka,Bengaluru,"RVCE-Mailasandra, Bengaluru - KSPCB",21-06-2024 02:00:00,12.921418,77.502466,PM2.5,6,28,17
India,Karnataka,Bengaluru,"RVCE-Mailasandra, Bengaluru - KSPCB",21-06-2024 02:00:00,12.921418,77.502466,SO2,7,10,9
India,Karnataka,Bengaluru,"RVCE-Mailasandra, Bengaluru - KSPCB",21-06-2024 02:00:00,12.921418,77.502466,CO,40,54,47
India,Karnataka,Bengaluru,"Sanegurava Halli, Bengaluru - KSPCB",21-06-2024 02:00:00,12.990328,77.5431385,NO2,21,29,23
India,Karnataka,Bengaluru,"Shivapura_Peenya, Bengaluru - KSPCB",21-06-2024 02:00:00,13.0246342,77.5080115,PM10,39,73,53
India,Karnataka,Bengaluru,"Shivapura_Peenya, Bengaluru - KSPCB",21-06-2024 02:00:00,13.0246342,77.5080115,SO2,3,6,4
India,Karnataka,Bengaluru,"Silk Board, Bengaluru - KSPCB",21-06-2024 02:00:00,12.917348,77.622813,PM10,38,110,78
India,Karnataka,Bengaluru,"Silk Board, Bengaluru - KSPCB",21-06-2024 02:00:00,12.917348,77.622813,NH3,1,1,1
India,Karnataka,Bidar,"Naubad, Bidar - KSPCB",21-06-2024 02:00:00,17.930306,77.482194,PM2.5,NA,NA,NA
India,Karnataka,Bidar,"Naubad, Bidar - KSPCB",21-06-2024 02:00:00,17.930306,77.482194,NO2,NA,NA,NA
India,Karnataka,Chamarajanagar,"Urban, Chamarajanagar - KSPCB",21-06-2024 02:00:00,11.55358,76.55521,PM2.5,17,45,29
India,Karnataka,Chamarajanagar,"Urban, Chamarajanagar - KSPCB",21-06-2024 02:00:00,11.55358,76.55521,NH3,1,2,2
India,Karnataka,Chikkaballapur,"Chikkaballapur Rural, Chikkaballapur - KSPCB",21-06-2024 02:00:00,13.428828,77.731418,PM2.5,12,41,24
India,Karnataka,Chikkaballapur,"Chikkaballapur Rural, Chikkaballapur - KSPCB",21-06-2024 02:00:00,13.428828,77.731418,PM10,21,59,37
India,Karnataka,Chikkaballapur,"Chikkaballapur Rural, Chikkaballapur - KSPCB",21-06-2024 02:00:00,13.428828,77.731418,CO,10,19,15
India,Karnataka,Chikkamagaluru,"Kalyana Nagara, Chikkamagaluru - KSPCB",21-06-2024 02:00:00,13.328028,75.797056,PM10,24,57,38
India,Karnataka,Dharwad,"Kalabhavan, Dharwad - KSPCB",21-06-2024 02:00:00,15.459706,75.008381,PM2.5,15,75,42
India,Karnataka,Dharwad,"Kalabhavan, Dharwad - KSPCB",21-06-2024 02:00:00,15.459706,75.008381,PM10,22,103,59
India,Karnataka,Gadag,"Panchal Nagar, Gadag - KSPCB",21-06-2024 02:00:00,15.411456,75.638133,SO2,9,17,13
India,Karnataka,Haveri,"Ashwini Nagar, Haveri - KSPCB",21-06-2024 02:00:00,14.791800,75.389600,CO,37,38,38
India,Karnataka,Hubballi,"Lingaraj Nagar, Hubballi - KSPCB",21-06-2024 02:00:00,15.3714823,75.1160168,CO,8,20,13
India,Karnataka,Kalaburagi,"Mahatma Basaveswar Colony, Kalaburgi - KSPCB",21-06-2024 02:00:00,17.336318,76.847397,SO2,2,15,4
India,Karnataka,Kalaburagi,"Mahatma Basaveswar Colony, Kalaburgi - KSPCB",21-06-2024 02:00:00,17.336318,76.847397,CO,24,31,29
India,Karnataka,Kalaburagi,"Mahatma Basaveswar Colony, Kalaburgi - KSPCB",21-06-2024 02:00:00,17.336318,76.847397,OZONE,14,24,18
India,Karnataka,Kolar,"Tamaka Ind. Area, Kolar - KSPCB",21-06-2024 02:00:00,13.1276288,78.1570122,NH3,5,8,6
India,Karnataka,Koppal,"Diwator Nagar, Koppal - KSPCB",21-06-2024 02:00:00,15.347630,76.181767,PM2.5,3,22,10
India,Karnataka,Madikeri,"Stuart Hill, Madikeri - KSPCB",21-06-2024 02:00:00,12.415911,75.735050,NH3,1,1,1
India,Karnataka,Madikeri,"Stuart Hill, Madikeri - KSPCB",21-06-2024 02:00:00,12.415911,75.735050,CO,4,38,18
India,Karnataka,Mangalore,"Kadri, Mangalore - KSPCB",21-06-2024 02:00:00,12.889250,74.853000,CO,35,44,40
India,Karnataka,Mysuru,"Hebbal 1st Stage, Mysuru - KSPCB",21-06-2024 02:00:00,12.21041,76.37376,PM10,19,49,32
India,Karnataka,Mysuru,"Hebbal 1st Stage, Mysuru - KSPCB",21-06-2024 02:00:00,12.21041,76.37376,NO2,6,40,21
India,Karnataka,Mysuru,"Hebbal 1st Stage, Mysuru - KSPCB",21-06-2024 02:00:00,12.21041,76.37376,SO2,1,3,1
India,Karnataka,Raichur,"Haji Colony, Raichur - KSPCB",21-06-2024 02:00:00,16.208139,77.348417,PM10,20,77,51
India,Karnataka,Ramanagara,"Vijay Nagar, Ramanagara - KSPCB",21-06-2024 02:00:00,12.733409,77.298051,SO2,13,37,22
India,Karnataka,Shivamogga,"Vinoba Nagara, Shivamogga - KSPCB",21-06-2024 02:00:00,13.940000,75.555917,PM10,42,63,53
India,Karnataka,Shivamogga,"Vinoba Nagara, Shivamogga - KSPCB",21-06-2024 02:00:00,13.940000,75.555917,NO2,12,42,24
India,Karnataka,Udupi,"Brahmagiri, Udupi - KSPCB",21-06-2024 02:00:00,13.34194444,74.74694444,PM10,NA,NA,NA
India,Karnataka,Udupi,"Brahmagiri, Udupi - KSPCB",21-06-2024 02:00:00,13.34194444,74.74694444,NH3,1,1,1
India,Karnataka,Yadgir,"Collector Office, Yadgir - KSPCB",21-06-2024 02:00:00,16.7602,77.1428,PM2.5,5,37,20
India,Karnataka,Yadgir,"Collector Office, Yadgir - KSPCB",21-06-2024 02:00:00,16.7602,77.1428,NH3,1,2,1
India,Karnataka,Yadgir,"Collector Office, Yadgir - KSPCB",21-06-2024 02:00:00,16.7602,77.1428,OZONE,16,24,20
India,Kerala,Kollam,"Polayathode, Kollam - Kerala PCB",21-06-2024 02:00:00,8.8787,76.6073,OZONE,29,34,30
India,Kerala,Thrissur,"Corporation Ground, Thrissur - Kerala PCB",21-06-2024 02:00:00,10.532400,76.215900,SO2,1,2,1
India,Madhya Pradesh,Bhopal,"Idgah Hills, Bhopal - MPPCB",21-06-2024 02:00:00,23.264759,77.381568,SO2,7,10,8
India,Madhya Pradesh,Bhopal,"Paryavaran Parisar, Bhopal - MPPCB",21-06-2024 02:00:00,23.210494,77.425409,NH3,4,10,5
India,Madhya Pradesh,Bhopal,"Paryavaran Parisar, Bhopal - MPPCB",21-06-2024 02:00:00,23.210494,77.425409,CO,6,92,41
India,Madhya Pradesh,Bhopal,"T T Nagar, Bhopal - MPPCB",21-06-2024 02:00:00,23.233584,77.400574,OZONE,7,23,16
India,Madhya Pradesh,Damoh,"Shrivastav Colony, Damoh - MPPCB",21-06-2024 02:00:00,23.81748678,79.446246,PM10,17,120,45
India,Madhya Pradesh,Dewas,"Bhopal Chauraha, Dewas - MPPCB",21-06-2024 02:00:00,22.9682591,76.064118,NO2,12,14,13
India,Madhya Pradesh,Gwalior,"City Center, Gwalior - MPPCB",21-06-2024 02:00:00,26.203442,78.193251,SO2,13,40,29
India,Madhya Pradesh,Gwalior,"Maharaj Bada, Gwalior - MPPCB",21-06-2024 02:00:00,26.200388,78.147714,NH3,1,6,3
India,Madhya Pradesh,Gwalior,"Phool Bagh, Gwalior - Mondelez Ind. Food",21-06-2024 02:00:00,26.210536,78.171,PM2.5,13,120,66
India,Madhya Pradesh,Gwalior,"Phool Bagh, Gwalior - Mondelez Ind. Food",21-06-2024 02:00:00,26.210536,78.171,CO,62,88,66
India,Madhya Pradesh,Indore,"Chhoti Gwaltoli, Indore - MPPCB",21-06-2024 02:00:00,22.4310,75.5213,NO2,31,49,38
India,Madhya Pradesh,Indore,"Chhoti Gwaltoli, Indore - MPPCB",21-06-2024 02:00:00,22.4310,75.5213,SO2,11,20,15
India,Madhya Pradesh,Indore,"Maguda Nagar, Indore - IMC",21-06-2024 02:00:00,22.7524,75.8872,SO2,34,36,35
India,Madhya Pradesh,Indore,"Maguda Nagar, Indore - IMC",21-06-2024 02:00:00,22.7524,75.8872,OZONE,1,4,3
India,Madhya Pradesh,Indore,"Regional Park, Indore - IMC",21-06-2024 02:00:00,22.6780,75.8559,PM2.5,17,39,27
India,Madhya Pradesh,Indore,"Regional Park, Indore - IMC",21-06-2024 02:00:00,22.6780,75.8559,CO,18,20,20
India,Madhya Pradesh,Indore,"Residency Area, Indore - IMC",21-06-2024 02:00:00,22.7084,75.8815,PM10,21,55,37
India,Madhya Pradesh,Indore,"Residency Area, Indore - IMC",21-06-2024 02:00:00,22.7084,75.8815,OZONE,11,14,11
India,Madhya Pradesh,Jabalpur,"Govindh Bhavan Colony, Jabalpur - JMC",21-06-2024 02:00:00,23.163174,79.973061,PM2.5,10,48,29
India,Madhya Pradesh,Jabalpur,"Govindh Bhavan Colony, Jabalpur - JMC",21-06-2024 02:00:00,23.163174,79.973061,PM10,13,76,33
India,Madhya Pradesh,Jabalpur,"Govindh Bhavan Colony, Jabalpur - JMC",21-06-2024 02:00:00,23.163174,79.973061,NO2,8,16,10
India,Madhya Pradesh,Jabalpur,"Gupteshwar, Jabalpur - JMC",21-06-2024 02:00:00,23.142888,79.916147,PM2.5,25,63,51
India,Madhya Pradesh,Jabalpur,"Gupteshwar, Jabalpur - JMC",21-06-2024 02:00:00,23.142888,79.916147,CO,8,26,18
India,Madhya Pradesh,Maihar,"Sahilara, Maihar - KJS Cements",21-06-2024 02:00:00,24.2613009,80.7231783,SO2,9,14,11
India,Madhya Pradesh,Mandideep,"Sector-D Industrial Area, Mandideep - MPPCB",21-06-2024 02:00:00,23.108440,77.511428,NH3,NA,NA,NA
India,Madhya Pradesh,Mandideep,"Sector-D Industrial Area, Mandideep - MPPCB",21-06-2024 02:00:00,23.108440,77.511428,OZONE,38,54,53
India,Madhya Pradesh,Pithampur,"Sector-2 Industrial Area, Pithampur - MPPCB",21-06-2024 02:00:00,22.624758,75.675238,OZONE,27,82,55
India,Madhya Pradesh,Sagar,"Civil Lines, Sagar - MPPCB",21-06-2024 02:00:00,23.838586,78.759431,NO2,7,13,10
India,Madhya Pradesh,Sagar,"Civil Lines, Sagar - MPPCB",21-06-2024 02:00:00,23.838586,78.759431,SO2,2,4,3
India,Madhya Pradesh,Sagar,"Deen Dayal Nagar, Sagar - MPPCB",21-06-2024 02:00:00,23.8640158,78.80289321,PM2.5,7,31,17
India,Madhya Pradesh,Sagar,"Deen Dayal Nagar, Sagar - MPPCB",21-06-2024 02:00:00,23.8640158,78.80289321,NO2,23,24,24
India,Madhya Pradesh,Sagar,"Deen Dayal Nagar, Sagar - MPPCB",21-06-2024 02:00:00,23.8640158,78.80289321,CO,57,64,61
India,Madhya Pradesh,Satna,"Bandhavgar Colony, Satna - Birla Cement",21-06-2024 02:00:00,24.58434363,80.8549414,PM2.5,36,36,36
India,Madhya Pradesh,Satna,"Bandhavgar Colony, Satna - Birla Cement",21-06-2024 02:00:00,24.58434363,80.8549414,NO2,19,36,27
India,Madhya Pradesh,Satna,"Bandhavgar Colony, Satna - Birla Cement",21-06-2024 02:00:00,24.58434363,80.8549414,SO2,1,2,1
India,Madhya Pradesh,Singrauli,"Suryakiran Bhawan NCL, Singrauli - MPPCB",21-06-2024 02:00:00,24.108970,82.645580,PM10,NA,NA,NA
India,Madhya Pradesh,Singrauli,"Suryakiran Bhawan NCL, Singrauli - MPPCB",21-06-2024 02:00:00,24.108970,82.645580,OZONE,18,100,38
India,Madhya Pradesh,Ujjain,"Mahakaleshwar Temple, Ujjain - MPPCB",21-06-2024 02:00:00,23.182719 ,75.768218 ,NO2,10,17,13
India,Maharashtra,Ahmednagar,"Tarakpur, Ahmednagar - MPCB",21-06-2024 02:00:00,19.10122,74.73339,NH3,6,10,8
India,Maharashtra,Ahmednagar,"Tarakpur, Ahmednagar - MPCB",21-06-2024 02:00:00,19.10122,74.73339,CO,26,60,43
India,Maharashtra,Akola,"Ramdaspeth, Akola - MPCB",21-06-2024 02:00:00,20.719516,77.000253,PM10,33,89,56
India,Maharashtra,Akola,"Ramdaspeth, Akola - MPCB",21-06-2024 02:00:00,20.719516,77.000253,NO2,7,21,13
India,Maharashtra,Amravati,"Shivneri Colony, Amravati - MPCB",21-06-2024 02:00:00,20.9402359,77.7895248,PM10,18,63,41
India,Maharashtra,Amravati,"Shivneri Colony, Amravati - MPCB",21-06-2024 02:00:00,20.9402359,77.7895248,CO,8,22,17
India,Maharashtra,Amravati,"Shri Shivaji Science College, Amaravati - MPCB",21-06-2024 02:00:00,20.939198,77.765701,SO2,1,3,2
India,Maharashtra,Aurangabad,"MIDC Chilkalthana, Aurangabad - MPCB",21-06-2024 02:00:00,19.875620,75.387310,PM10,33,67,53
India,Maharashtra,Aurangabad,"More Chowk Waluj, Aurangabad - MPCB",21-06-2024 02:00:00,19.8389439,75.244448,NO2,8,15,12
India,Maharashtra,Belapur,"CBD Belapur, Belapur - MPCB",21-06-2024 02:00:00,19.0243902,73.0406721,PM10,22,49,35
India,Maharashtra,Belapur,"CBD Belapur, Belapur - MPCB",21-06-2024 02:00:00,19.0243902,73.0406721,NH3,1,2,1
India,Maharashtra,Bhiwandi,"Gokul Nagar, Bhiwandi - MPCB",21-06-2024 02:00:00,19.309073,73.057223,SO2,8,20,13
India,Maharashtra,Bhiwandi,"Gokul Nagar, Bhiwandi - MPCB",21-06-2024 02:00:00,19.309073,73.057223,CO,22,109,61
India,Maharashtra,Boisar,"Khaira, Boisar - MPCB",21-06-2024 02:00:00,19.786089,72.757971,PM2.5,10,347,160
India,Maharashtra,Chandrapur,"Chauhan Colony, Chandrapur - MPCB",21-06-2024 02:00:00,19.962900,79.298714,PM2.5,10,72,29
India,Maharashtra,Chandrapur,"Chauhan Colony, Chandrapur - MPCB",21-06-2024 02:00:00,19.962900,79.298714,NH3,3,7,4
India,Maharashtra,Chandrapur,"MIDC Khutala, Chandrapur - MPCB",21-06-2024 02:00:00,19.9775302,79.2337086,PM2.5,29,81,47
India,Maharashtra,Dhule,"Deopur, Dhule - MPCB",21-06-2024 02:00:00,20.918946,74.776388,PM10,31,102,58
India,Maharashtra,Jalna,"Old MIDC, Jalna - MPCB",21-06-2024 02:00:00,19.854616,75.905894,NH3,1,1,1
India,Maharashtra,Kalyan,"Khadakpada, Kalyan - MPCB",21-06-2024 02:00:00,19.25292,73.142019,PM10,9,32,21
India,Maharashtra,Kalyan,"Khadakpada, Kalyan - MPCB",21-06-2024 02:00:00,19.25292,73.142019,NH3,1,1,1
India,Maharashtra,Malegaon,"Mahesh Nagar, Malegaon - MPCB",21-06-2024 02:00:00,20.555712,74.529236,PM2.5,26,52,41
India,Maharashtra,Malegaon,"Mahesh Nagar, Malegaon - MPCB",21-06-2024 02:00:00,20.555712,74.529236,OZONE,21,304,100
India,Maharashtra,Mira-Bhayandar,"Bhayandar West, Mira-Bhayandar - MPCB",21-06-2024 02:00:00,19.296481,72.840923,NH3,5,9,6
India,Maharashtra,Mira-Bhayandar,"Bhayandar West, Mira-Bhayandar - MPCB",21-06-2024 02:00:00,19.296481,72.840923,SO2,3,5,4
India,Maharashtra,Mumbai,"Bandra Kurla Complex, Mumbai - MPCB",21-06-2024 02:00:00,19.065931,72.862131,PM2.5,31,66,48
India,Maharashtra,Mumbai,"Bandra Kurla Complex, Mumbai - MPCB",21-06-2024 02:00:00,19.065931,72.862131,PM10,34,86,62
India,Maharashtra,Mumbai,"Bandra Kurla Complex, Mumbai - MPCB",21-06-2024 02:00:00,19.065931,72.862131,NO2,10,21,15
India,Maharashtra,Mumbai,"Bandra Kurla Complex, Mumbai - MPCB",21-06-2024 02:00:00,19.065931,72.862131,NH3,6,18,13
India,Maharashtra,Mumbai,"Borivali East, Mumbai - IITM",21-06-2024 02:00:00,19.23241,72.86895,NH3,6,10,9
India,Maharashtra,Mumbai,"Borivali East, Mumbai - MPCB",21-06-2024 02:00:00,19.2243333,72.8658113,PM10,3,42,24
India,Maharashtra,Mumbai,"Borivali East, Mumbai - MPCB",21-06-2024 02:00:00,19.2243333,72.8658113,OZONE,15,16,16
India,Maharashtra,Mumbai,"Byculla, Mumbai - BMC",21-06-2024 02:00:00,18.9767,72.8380,OZONE,7,20,10
India,Maharashtra,Mumbai,"Chakala-Andheri East, Mumbai - IITM",21-06-2024 02:00:00,19.11074,72.86084,NO2,24,42,31
India,Maharashtra,Mumbai,"Chakala-Andheri East, Mumbai - IITM",21-06-2024 02:00:00,19.11074,72.86084,NH3,4,13,7
India,Maharashtra,Mumbai,"Chembur, Mumbai - MPCB",21-06-2024 02:00:00,19.0364585,72.8954371,PM10,26,55,42
India,Maharashtra,Mumbai,"Chembur, Mumbai - MPCB",21-06-2024 02:00:00,19.0364585,72.8954371,NH3,3,5,4
India,Maharashtra,Mumbai,"Chembur, Mumbai - MPCB",21-06-2024 02:00:00,19.0364585,72.8954371,OZONE,8,44,19
India,Maharashtra,Mumbai,"Chhatrapati Shivaji Intl. Airport (T2), Mumbai - MPCB",21-06-2024 02:00:00,19.10078,72.87462,NO2,NA,NA,NA
India,Maharashtra,Mumbai,"Colaba, Mumbai - MPCB",21-06-2024 02:00:00,18.910000,72.820000,CO,12,14,13
India,Maharashtra,Mumbai,"Deonar, Mumbai - IITM",21-06-2024 02:00:00,19.04946,72.9230,OZONE,1,9,2
India,Maharashtra,Mumbai,"Ghatkopar, Mumbai - BMC",21-06-2024 02:00:00,19.083694,72.920967,PM10,NA,NA,NA
India,Maharashtra,Mumbai,"Ghatkopar, Mumbai - BMC",21-06-2024 02:00:00,19.083694,72.920967,SO2,NA,NA,NA
India,Maharashtra,Mumbai,"Kandivali East, Mumbai - MPCB",21-06-2024 02:00:00,19.205800,72.868200,NO2,11,89,30
India,Maharashtra,Mumbai,"Kandivali West, Mumbai - BMC",21-06-2024 02:00:00,19.215859,72.831718,PM2.5,6,24,16
India,Maharashtra,Mumbai,"Kandivali West, Mumbai - BMC",21-06-2024 02:00:00,19.215859,72.831718,PM10,7,40,26
India,Maharashtra,Mumbai,"Kherwadi_Bandra East, Mumbai - MPCB",21-06-2024 02:00:00,19.0632143,72.8456324,NH3,1,9,6
India,Maharashtra,Mumbai,"Khindipada-Bhandup West, Mumbai - IITM",21-06-2024 02:00:00,19.1653323,72.922099,PM2.5,5,44,19
India,Maharashtra,Mumbai,"Malad West, Mumbai - IITM",21-06-2024 02:00:00,19.19709,72.82204,NH3,1,7,3
India,Maharashtra,Mumbai,"Mazgaon, Mumbai - IITM",21-06-2024 02:00:00,18.96702,72.84214,NO2,5,88,43
India,Maharashtra,Mumbai,"Mazgaon, Mumbai - IITM",21-06-2024 02:00:00,18.96702,72.84214,NH3,15,53,27
India,Maharashtra,Mumbai,"Mazgaon, Mumbai - IITM",21-06-2024 02:00:00,18.96702,72.84214,CO,1,106,10
India,Maharashtra,Mumbai,"Mazgaon, Mumbai - IITM",21-06-2024 02:00:00,18.96702,72.84214,OZONE,8,18,13
India,Maharashtra,Mumbai,"Mulund West, Mumbai - MPCB",21-06-2024 02:00:00,19.1750,72.9419,OZONE,7,8,7
India,Maharashtra,Mumbai,"Navy Nagar-Colaba, Mumbai - IITM",21-06-2024 02:00:00,18.897756,72.813320,CO,6,16,13
India,Maharashtra,Mumbai,"Siddharth Nagar-Worli, Mumbai - IITM",21-06-2024 02:00:00,19.000083,72.813993,CO,32,68,60
India,Maharashtra,Mumbai,"Vasai West, Mumbai - MPCB",21-06-2024 02:00:00,19.383200,72.820400,PM2.5,15,45,30
India,Maharashtra,Mumbai,"Vasai West, Mumbai - MPCB",21-06-2024 02:00:00,19.383200,72.820400,PM10,28,86,56
India,Maharashtra,Mumbai,"Vile Parle West, Mumbai - MPCB",21-06-2024 02:00:00,19.10861,72.83622,NH3,11,11,11
India,Maharashtra,Mumbai,"Vile Parle West, Mumbai - MPCB",21-06-2024 02:00:00,19.10861,72.83622,CO,32,32,32
India,Maharashtra,Mumbai,"Vile Parle West, Mumbai - MPCB",21-06-2024 02:00:00,19.10861,72.83622,OZONE,9,14,12
India,Maharashtra,Nagpur,"Opp GPO Civil Lines, Nagpur - MPCB",21-06-2024 02:00:00,21.152875,79.0517531,PM2.5,12,50,30
India,Maharashtra,Nagpur,"Opp GPO Civil Lines, Nagpur - MPCB",21-06-2024 02:00:00,21.152875,79.0517531,CO,6,38,20
India,Maharashtra,Nagpur,"Ram Nagar, Nagpur - MPCB",21-06-2024 02:00:00,21.143383,79.048912,PM10,18,66,38
India,Maharashtra,Nagpur,"Ram Nagar, Nagpur - MPCB",21-06-2024 02:00:00,21.143383,79.048912,SO2,21,38,27
India,Maharashtra,Nagpur,"Ram Nagar, Nagpur - MPCB",21-06-2024 02:00:00,21.143383,79.048912,CO,8,26,16
India,Maharashtra,Nagpur,"Ram Nagar, Nagpur - MPCB",21-06-2024 02:00:00,21.143383,79.048912,OZONE,5,22,14
India,Maharashtra,Nanded,"Sneh Nagar, Nanded - MPCB",21-06-2024 02:00:00,19.173852,77.296291,NH3,3,5,4
India,Maharashtra,Nashik,"Gangapur Road, Nashik - MPCB",21-06-2024 02:00:00,20.0073285,73.7762427,PM2.5,8,78,39
India,Maharashtra,Nashik,"MIDC Ambad, Nashik - MPCB",21-06-2024 02:00:00,19.950220,73.731480,NO2,4,10,8
India,Maharashtra,Nashik,"Pandav Nagari, Nashik - MPCB",21-06-2024 02:00:00,19.9591346,73.7788008,PM2.5,12,43,26
India,Maharashtra,Nashik,"Pandav Nagari, Nashik - MPCB",21-06-2024 02:00:00,19.9591346,73.7788008,PM10,12,41,25
India,Maharashtra,Navi Mumbai,"Kopripada-Vashi, Navi Mumbai - MPCB",21-06-2024 02:00:00,19.090337,73.014232,PM2.5,11,42,26
India,Maharashtra,Navi Mumbai,"Kopripada-Vashi, Navi Mumbai - MPCB",21-06-2024 02:00:00,19.090337,73.014232,PM10,21,73,46
India,Maharashtra,Navi Mumbai,"Kopripada-Vashi, Navi Mumbai - MPCB",21-06-2024 02:00:00,19.090337,73.014232,NO2,8,38,26
India,Maharashtra,Navi Mumbai,"Nerul, Navi Mumbai - MPCB",21-06-2024 02:00:00,19.008751,73.016620,PM2.5,8,33,21
India,Maharashtra,Navi Mumbai,"Nerul, Navi Mumbai - MPCB",21-06-2024 02:00:00,19.008751,73.016620,NH3,4,10,7
India,Maharashtra,Navi Mumbai,"Nerul, Navi Mumbai - MPCB",21-06-2024 02:00:00,19.008751,73.016620,OZONE,27,61,41
India,Maharashtra,Navi Mumbai,"Sanpada, Navi Mumbai - MPCB",21-06-2024 02:00:00,19.0575752,73.0151367,PM2.5,13,32,21
India,Maharashtra,Navi Mumbai,"Sanpada, Navi Mumbai - MPCB",21-06-2024 02:00:00,19.0575752,73.0151367,CO,8,58,16
India,Maharashtra,Navi Mumbai,"Sector-2E Kalamboli, Navi Mumbai - MPCB",21-06-2024 02:00:00,19.02579,73.10297,PM10,32,92,55
India,Maharashtra,Navi Mumbai,"Sector-2E Kalamboli, Navi Mumbai - MPCB",21-06-2024 02:00:00,19.02579,73.10297,NH3,1,2,1
India,Maharashtra,Navi Mumbai,"Sector-2E Kalamboli, Navi Mumbai - MPCB",21-06-2024 02:00:00,19.02579,73.10297,CO,6,38,21
India,Maharashtra,Navi Mumbai,"Tondare-Taloja, Navi Mumbai - MPCB",21-06-2024 02:00:00,19.0630,73.1209,PM2.5,13,63,41
India,Maharashtra,Pimpri-Chinchwad,"Gavalinagar, Pimpri Chinchwad - MPCB",21-06-2024 02:00:00,18.63673,73.82487,SO2,1,4,2
India,Maharashtra,Pimpri-Chinchwad,"Park Street Wakad, Pimpri Chinchwad - MPCB",21-06-2024 02:00:00,18.59051,73.77946,PM2.5,NA,NA,NA
India,Maharashtra,Pimpri-Chinchwad,"Park Street Wakad, Pimpri Chinchwad - MPCB",21-06-2024 02:00:00,18.59051,73.77946,NO2,NA,NA,NA
India,Maharashtra,Pimpri-Chinchwad,"Park Street Wakad, Pimpri Chinchwad - MPCB",21-06-2024 02:00:00,18.59051,73.77946,CO,8,71,27
India,Maharashtra,Pune,"Alandi, Pune - IITM",21-06-2024 02:00:00,18.675076,73.892743,PM10,17,53,34
India,Maharashtra,Pune,"Alandi, Pune - IITM",21-06-2024 02:00:00,18.675076,73.892743,NO2,9,38,21
India,Maharashtra,Pune,"Bhosari, Pune - IITM",21-06-2024 02:00:00,18.640051,73.848956,PM10,17,126,41
India,Maharashtra,Pune,"Hadapsar, Pune - IITM",21-06-2024 02:00:00,18.501793,73.927532,PM10,23,100,58
India,Maharashtra,Pune,"Hadapsar, Pune - IITM",21-06-2024 02:00:00,18.501793,73.927532,CO,50,127,58
India,Maharashtra,Pune,"Karve Road, Pune - MPCB",21-06-2024 02:00:00,18.5011743,73.8165527,PM2.5,2,41,14
India,Maharashtra,Pune,"Karve Road, Pune - MPCB",21-06-2024 02:00:00,18.5011743,73.8165527,CO,2,36,14
India,Maharashtra,Pune,"Mhada Colony, Pune - IITM",21-06-2024 02:00:00,18.573040,73.927715,PM10,33,52,42
India,Maharashtra,Pune,"Revenue Colony-Shivajinagar, Pune - IITM",21-06-2024 02:00:00,18.530085,73.849598,PM2.5,24,80,45
India,Maharashtra,Pune,"Revenue Colony-Shivajinagar, Pune - IITM",21-06-2024 02:00:00,18.530085,73.849598,CO,16,53,36
India,Maharashtra,Pune,"Savitribai Phule Pune University, Pune - MPCB",21-06-2024 02:00:00,18.547056,73.826908,NH3,2,4,3
India,Maharashtra,Pune,"Savitribai Phule Pune University, Pune - MPCB",21-06-2024 02:00:00,18.547056,73.826908,OZONE,1,46,7
India,Maharashtra,Pune,"Transport Nagar-Nigdi, Pune - IITM",21-06-2024 02:00:00,18.664282,73.763966,PM10,NA,NA,NA
India,Maharashtra,Pune,"Transport Nagar-Nigdi, Pune - IITM",21-06-2024 02:00:00,18.664282,73.763966,NO2,20,31,25
India,Maharashtra,Sangli,"Vijay Nagar, Sangli - MPCB",21-06-2024 02:00:00, 16.5038,74.3623,PM10,13,49,30
India,Maharashtra,Sangli,"Vijay Nagar, Sangli - MPCB",21-06-2024 02:00:00, 16.5038,74.3623,NO2,9,25,15
India,Maharashtra,Sangli,"Vijay Nagar, Sangli - MPCB",21-06-2024 02:00:00, 16.5038,74.3623,CO,6,20,15
India,Maharashtra,Solapur,"Dnyaneshwar Nagar, Solapur - MPCB",21-06-2024 02:00:00,17.6336264,75.9132495,NO2,2,11,5
India,Maharashtra,Solapur,"Dnyaneshwar Nagar, Solapur - MPCB",21-06-2024 02:00:00,17.6336264,75.9132495,OZONE,12,39,27
India,Maharashtra,Solapur,"Ratandeep Housing Society, Solapur - MPCB",21-06-2024 02:00:00,17.65439,75.90649,PM2.5,5,59,34
India,Maharashtra,Solapur,"Ratandeep Housing Society, Solapur - MPCB",21-06-2024 02:00:00,17.65439,75.90649,PM10,11,123,62
India,Maharashtra,Solapur,"Ratandeep Housing Society, Solapur - MPCB",21-06-2024 02:00:00,17.65439,75.90649,NO2,1,13,5
India,Maharashtra,Solapur,"Ratandeep Housing Society, Solapur - MPCB",21-06-2024 02:00:00,17.65439,75.90649,OZONE,13,35,27
India,Maharashtra,Solapur,"Solapur, Solapur - MPCB",21-06-2024 02:00:00,17.6599188,75.9063906,PM2.5,52,68,60
India,Maharashtra,Thane,"Pimpleshwar Mandir, Thane - MPCB",21-06-2024 02:00:00,19.192056,72.9585188,CO,NA,NA,NA
India,Maharashtra,Thane,"Upvan Fort, Thane - MPCB",21-06-2024 02:00:00,19.222279,72.957979,PM10,12,56,26
India,Maharashtra,Thane,"Upvan Fort, Thane - MPCB",21-06-2024 02:00:00,19.222279,72.957979,SO2,3,8,6
India,Maharashtra,Thane,"Upvan Fort, Thane - MPCB",21-06-2024 02:00:00,19.222279,72.957979,OZONE,28,47,31
India,Maharashtra,Ulhasnagar,"Sidhi Vinayak Nagar, Ulhasnagar - MPCB",21-06-2024 02:00:00,19.235581,73.159121,PM10,39,81,54
India,Maharashtra,Ulhasnagar,"Sidhi Vinayak Nagar, Ulhasnagar - MPCB",21-06-2024 02:00:00,19.235581,73.159121,CO,10,94,65
India,Maharashtra,Virar,"Bolinj, Virar - MPCB",21-06-2024 02:00:00,19.4458210,72.7988231,OZONE,6,30,10
India,Manipur,Imphal,"DM College of Science, Imphal - Manipur PCB",21-06-2024 02:00:00,24.8207389,93.9423085,NO2,7,8,7
India,Manipur,Imphal,"Manipur University, Imphal - Manipur PCB",21-06-2024 02:00:00,24.7524239,93.9286218,PM2.5,9,132,34
India,Manipur,Imphal,"Manipur University, Imphal - Manipur PCB",21-06-2024 02:00:00,24.7524239,93.9286218,NH3,1,2,1
India,Manipur,Imphal,"Manipur University, Imphal - Manipur PCB",21-06-2024 02:00:00,24.7524239,93.9286218,CO,8,24,17
India,Meghalaya,Shillong,"Lumpyngngad, Shillong - Meghalaya PCB",21-06-2024 02:00:00,25.5586,91.8985,PM10,NA,NA,NA
India,Meghalaya,Shillong,"Lumpyngngad, Shillong - Meghalaya PCB",21-06-2024 02:00:00,25.5586,91.8985,SO2,35,37,36
India,Meghalaya,Shillong,"Lumpyngngad, Shillong - Meghalaya PCB",21-06-2024 02:00:00,25.5586,91.8985,OZONE,NA,NA,NA
India,Mizoram,Aizawl,"Sikulpuikawn, Aizawl - Mizoram PCB",21-06-2024 02:00:00,23.7176342,92.7192841,PM10,2,38,20
India,Mizoram,Aizawl,"Sikulpuikawn, Aizawl - Mizoram PCB",21-06-2024 02:00:00,23.7176342,92.7192841,CO,8,16,14
India,Nagaland,Kohima,"PWD Juction, Kohima - NPCB",21-06-2024 02:00:00,25.6635413,94.0989878,PM10,19,98,42
India,Odisha,Balasore,"Kalidaspur, Balasore - OSPCB",21-06-2024 02:00:00,21.51161,86.89088,PM2.5,5,60,24
India,Odisha,Balasore,"Kalidaspur, Balasore - OSPCB",21-06-2024 02:00:00,21.51161,86.89088,PM10,7,128,48
India,Odisha,Balasore,"Kalidaspur, Balasore - OSPCB",21-06-2024 02:00:00,21.51161,86.89088,SO2,13,17,14
India,Odisha,Barbil,"Forest Office, Barbil - OSPCB",21-06-2024 02:00:00,22.1166054,85.3945546,PM10,20,231,104
India,Odisha,Baripada,"Meher Colony, Baripada - OSPCB",21-06-2024 02:00:00,21.941841,86.728318,SO2,5,19,7
India,Odisha,Baripada,"Meher Colony, Baripada - OSPCB",21-06-2024 02:00:00,21.941841,86.728318,CO,8,52,17
India,Odisha,Bhubaneswar,"Lingraj Mandir, Bhubaneswar - OSPCB",21-06-2024 02:00:00,20.240790,85.836784,NH3,1,1,1
India,Odisha,Bhubaneswar,"Patia, Bhubaneswar - OSPCB",21-06-2024 02:00:00,20.34652,85.81630,PM2.5,NA,NA,NA
India,Odisha,Bhubaneswar,"Patia, Bhubaneswar - OSPCB",21-06-2024 02:00:00,20.34652,85.81630,NH3,NA,NA,NA
India,Odisha,Bileipada,"Tata Township, Bileipada - OSPCB",21-06-2024 02:00:00,22.06156703,85.47409613,NO2,6,9,7
India,Odisha,Bileipada,"Tata Township, Bileipada - OSPCB",21-06-2024 02:00:00,22.06156703,85.47409613,OZONE,3,15,6
India,Odisha,Brajrajnagar,"GM Office, Brajrajnagar - OSPCB",21-06-2024 02:00:00,21.8004996,83.8396977,NO2,19,33,22
India,Odisha,Byasanagar,"Ferro Chrome Colony, Byasanagar - OSPCB",21-06-2024 02:00:00,20.94185,86.11510,PM10,23,137,61
India,Odisha,Cuttack,"CDA Area, Cuttack - OSPCB",21-06-2024 02:00:00,20.48891     ,85.84768     ,NO2,6,18,11
India,Odisha,Keonjhar,"Jagamohanpur, Keonjhar - OSPCB",21-06-2024 02:00:00,21.643900,85.599355,NH3,3,4,3
India,Odisha,Keonjhar,"Jagamohanpur, Keonjhar - OSPCB",21-06-2024 02:00:00,21.643900,85.599355,SO2,3,9,5
India,Odisha,Keonjhar,"Jagamohanpur, Keonjhar - OSPCB",21-06-2024 02:00:00,21.643900,85.599355,OZONE,1,34,12
India,Odisha,Nayagarh,"Dabuna, Nayagarh - OSPCB",21-06-2024 02:00:00,21.847279,85.416905,PM10,NA,NA,NA
India,Odisha,Nayagarh,"Dabuna, Nayagarh - OSPCB",21-06-2024 02:00:00,21.847279,85.416905,NO2,NA,NA,NA
India,Odisha,Rourkela,"Raghunathpali, Rourkela - OSPCB",21-06-2024 02:00:00,22.220833,84.809444,NH3,1,3,2
India,Odisha,Rourkela,"Raghunathpali, Rourkela - OSPCB",21-06-2024 02:00:00,22.220833,84.809444,OZONE,8,26,12
India,Odisha,Rourkela,"Sector-2, Rourkela - OSPCB",21-06-2024 02:00:00,22.24500000,84.88111111,PM10,31,67,49
India,Odisha,Rourkela,"Sector-2, Rourkela - OSPCB",21-06-2024 02:00:00,22.24500000,84.88111111,NO2,32,52,36
India,Odisha,Suakati,"OMC Colony, Suakati - OSPCB",21-06-2024 02:00:00,21.606865,85.510538,PM10,27,96,63
India,Odisha,Suakati,"OMC Colony, Suakati - OSPCB",21-06-2024 02:00:00,21.606865,85.510538,NH3,4,4,4
India,Odisha,Talcher,"Talcher Coalfields,Talcher - OSPCB",21-06-2024 02:00:00,20.9360711,85.1707021,PM2.5,7,101,50
India,Odisha,Talcher,"Talcher Coalfields,Talcher - OSPCB",21-06-2024 02:00:00,20.9360711,85.1707021,NO2,18,21,20
India,Odisha,Tensa,"Barsua Iron Ore Mines, Tensa - OSPCB",21-06-2024 02:00:00,21.869985,85.167016,NH3,NA,NA,NA
India,Odisha,Tensa,"Barsua Iron Ore Mines, Tensa - OSPCB",21-06-2024 02:00:00,21.869985,85.167016,SO2,1,17,6
India,Puducherry,Puducherry,"Jawahar Nagar, Puducherry - PPCC",21-06-2024 02:00:00,11.9309,79.8027,CO,16,32,22
India,Punjab,Amritsar,"Golden Temple, Amritsar - PPCB",21-06-2024 02:00:00,31.620000,74.876512,NO2,13,142,33
India,Punjab,Bathinda,"Hardev Nagar, Bathinda - PPCB",21-06-2024 02:00:00,30.233011,74.907758,PM2.5,23,235,77
India,Punjab,Jalandhar,"Civil Line, Jalandhar - PPCB",21-06-2024 02:00:00,31.321907,75.578914,PM10,61,177,101
India,Punjab,Jalandhar,"Civil Line, Jalandhar - PPCB",21-06-2024 02:00:00,31.321907,75.578914,NO2,14,23,18
India,Punjab,Jalandhar,"Civil Line, Jalandhar - PPCB",21-06-2024 02:00:00,31.321907,75.578914,NH3,1,5,2
India,Punjab,Khanna,"Kalal Majra, Khanna - PPCB",21-06-2024 02:00:00,30.736056 ,76.209694,SO2,6,24,10
India,Punjab,Patiala,"Model Town, Patiala - PPCB",21-06-2024 02:00:00,30.349388,76.366642,PM2.5,22,73,39
India,Punjab,Rupnagar,"Ratanpura, Rupnagar - Ambuja Cements",21-06-2024 02:00:00,31.0325454,76.5623046,NO2,NA,NA,NA
India,Punjab,Rupnagar,"Ratanpura, Rupnagar - Ambuja Cements",21-06-2024 02:00:00,31.0325454,76.5623046,SO2,NA,NA,NA
India,Rajasthan,Alwar,"Moti Doongri, Alwar - RSPCB",21-06-2024 02:00:00,27.554793,76.611536,PM2.5,44,113,66
India,Rajasthan,Alwar,"Moti Doongri, Alwar - RSPCB",21-06-2024 02:00:00,27.554793,76.611536,CO,17,38,35
India,Rajasthan,Alwar,"Moti Doongri, Alwar - RSPCB",21-06-2024 02:00:00,27.554793,76.611536,OZONE,13,65,20
India,Rajasthan,Banswara,"Rati Talai, Banswara - RSPCB",21-06-2024 02:00:00,23.555190,74.440010,NH3,NA,NA,NA
India,Rajasthan,Banswara,"Rati Talai, Banswara - RSPCB",21-06-2024 02:00:00,23.555190,74.440010,SO2,1,9,7
India,Rajasthan,Baran,"Bamboliya, Baran - RSPCB",21-06-2024 02:00:00,25.106006,76.469948,NO2,9,52,17
India,Rajasthan,Baran,"Bamboliya, Baran - RSPCB",21-06-2024 02:00:00,25.106006,76.469948,CO,16,26,21
India,Rajasthan,Baran,"Bamboliya, Baran - RSPCB",21-06-2024 02:00:00,25.106006,76.469948,OZONE,12,55,37
India,Rajasthan,Barmer,"Railway Colony, Barmer - RSPCB",21-06-2024 02:00:00,25.747299,71.393989,PM2.5,25,79,48
India,Rajasthan,Bharatpur,"Krishna Nagar, Bharatpur - RSPCB",21-06-2024 02:00:00,27.215415,77.50873,NH3,1,3,1
India,Rajasthan,Bhilwara,"Pratap Nagar, Bhilwara - RSPCB",21-06-2024 02:00:00,25.339605,74.618883,PM10,28,68,46
India,Rajasthan,Bhiwadi,"Vasundhara Nagar_UIT, Bhiwadi - RSPCB",21-06-2024 02:00:00,28.207266,76.829265,OZONE,14,82,41
India,Rajasthan,Bundi,"New Colony, Bundi - RSPCB",21-06-2024 02:00:00,25.435774,75.644272,PM10,33,251,92
India,Rajasthan,Bundi,"New Colony, Bundi - RSPCB",21-06-2024 02:00:00,25.435774,75.644272,NH3,3,8,5
India,Rajasthan,Chittorgarh,"Shastri Nagar, Chittorgarh - RSPCB",21-06-2024 02:00:00,24.892047,74.623527,NO2,NA,NA,NA
India,Rajasthan,Dholpur,"Raja Ganj, Dholpur - RSPCB",21-06-2024 02:00:00,26.699557,77.898881,NH3,4,7,5
India,Rajasthan,Dungarpur,"Bhoiwada, Dungarpur - RSPCB",21-06-2024 02:00:00,23.837789,73.714926,PM2.5,30,68,45
India,Rajasthan,Hanumangarh,"Housing Board, Hanumangarh - RSPCB",21-06-2024 02:00:00,29.610750,74.283608,PM10,NA,NA,NA
India,Rajasthan,Hanumangarh,"Housing Board, Hanumangarh - RSPCB",21-06-2024 02:00:00,29.610750,74.283608,NH3,1,2,2
India,Rajasthan,Jaipur,"Adarsh Nagar, Jaipur - RSPCB",21-06-2024 02:00:00,26.902909,75.836858,PM10,35,102,70
India,Rajasthan,Jaipur,"Adarsh Nagar, Jaipur - RSPCB",21-06-2024 02:00:00,26.902909,75.836858,NO2,18,43,28
India,Rajasthan,Jaipur,"Mansarovar Sector-12, Jaipur - RSPCB",21-06-2024 02:00:00,26.843698,75.766894,NH3,5,15,6
India,Rajasthan,Jaipur,"Police Commissionerate, Jaipur - RSPCB",21-06-2024 02:00:00,26.9164092,75.7994901,PM10,15,250,100
India,Rajasthan,Jaipur,"Police Commissionerate, Jaipur - RSPCB",21-06-2024 02:00:00,26.9164092,75.7994901,NH3,7,11,9
India,Rajasthan,Jaipur,"Police Commissionerate, Jaipur - RSPCB",21-06-2024 02:00:00,26.9164092,75.7994901,CO,25,66,42
India,Rajasthan,Jaipur,"RIICO Sitapura, Jaipur - RSPCB",21-06-2024 02:00:00,26.786682,75.827928,PM10,16,128,67
India,Rajasthan,Jaipur,"RIICO Sitapura, Jaipur - RSPCB",21-06-2024 02:00:00,26.786682,75.827928,CO,46,90,70
India,Rajasthan,Jaipur,"Sector-2 Murlipura, Jaipur - RSPCB",21-06-2024 02:00:00,26.960669,75.771817,NH3,1,8,3
India,Rajasthan,Jaipur,"Sector-2 Murlipura, Jaipur - RSPCB",21-06-2024 02:00:00,26.960669,75.771817,SO2,8,11,10
India,Rajasthan,Jaipur,"Sector-2 Murlipura, Jaipur - RSPCB",21-06-2024 02:00:00,26.960669,75.771817,CO,14,102,80
India,Rajasthan,Jaipur,"Shastri Nagar, Jaipur - RSPCB",21-06-2024 02:00:00,26.9502929,75.730943,OZONE,20,41,26
India,Rajasthan,Jalore,"Mudtra Sili, Jalore - RSPCB",21-06-2024 02:00:00,25.344694,72.626208,PM10,96,154,125
India,Rajasthan,Jhalawar,"Rajlaxmi Nagar, Jhalawar - RSPCB",21-06-2024 02:00:00,24.588397,76.172782,CO,7,74,40
India,Rajasthan,Jhunjhunu,"Indra Nagar, Jhunjhunu - RSPCB",21-06-2024 02:00:00,28.108988,75.386577,PM2.5,17,244,58
India,Rajasthan,Jhunjhunu,"Indra Nagar, Jhunjhunu - RSPCB",21-06-2024 02:00:00,28.108988,75.386577,PM10,45,338,147
India,Rajasthan,Jhunjhunu,"Indra Nagar, Jhunjhunu - RSPCB",21-06-2024 02:00:00,28.108988,75.386577,OZONE,38,86,69
India,Rajasthan,Jodhpur,"Digari Kalan, Jodhpur - RSPCB",21-06-2024 02:00:00,26.295810,73.082283,PM2.5,39,75,54
India,Rajasthan,Jodhpur,"Digari Kalan, Jodhpur - RSPCB",21-06-2024 02:00:00,26.295810,73.082283,PM10,88,151,121
India,Rajasthan,Jodhpur,"Digari Kalan, Jodhpur - RSPCB",21-06-2024 02:00:00,26.295810,73.082283,NO2,4,15,6
India,Rajasthan,Jodhpur,"Digari Kalan, Jodhpur - RSPCB",21-06-2024 02:00:00,26.295810,73.082283,NH3,2,4,3
India,Rajasthan,Jodhpur,"Digari Kalan, Jodhpur - RSPCB",21-06-2024 02:00:00,26.295810,73.082283,CO,10,26,21
India,Rajasthan,Jodhpur,"Jhalamand, Jodhpur - RSPCB",21-06-2024 02:00:00,26.215415,73.070156,CO,20,28,24
India,Rajasthan,Jodhpur,"Jhalamand, Jodhpur - RSPCB",21-06-2024 02:00:00,26.215415,73.070156,OZONE,21,67,59
India,Rajasthan,Jodhpur,"Samrat Ashok Udhyan, Jodhpur - RSPCB",21-06-2024 02:00:00,26.253384,72.976571,SO2,1,4,2
India,Rajasthan,Karauli,"Satyawati Vihar, Karauli - RSPCB",21-06-2024 02:00:00,26.506177,77.025989,PM2.5,3,440,92
India,Rajasthan,Karauli,"Satyawati Vihar, Karauli - RSPCB",21-06-2024 02:00:00,26.506177,77.025989,PM10,NA,NA,NA
India,Rajasthan,Karauli,"Satyawati Vihar, Karauli - RSPCB",21-06-2024 02:00:00,26.506177,77.025989,OZONE,1,78,28
India,Rajasthan,Kota,"Dhanmandi, Kota - RSPCB",21-06-2024 02:00:00,25.164090,75.858137,NO2,7,100,22
India,Rajasthan,Kota,"Dhanmandi, Kota - RSPCB",21-06-2024 02:00:00,25.164090,75.858137,OZONE,4,97,18
India,Rajasthan,Kota,"Nayapura, Kota - RSPCB",21-06-2024 02:00:00,25.196024,75.855668,NO2,13,55,25
India,Rajasthan,Kota,"Nayapura, Kota - RSPCB",21-06-2024 02:00:00,25.196024,75.855668,NH3,3,17,6
India,Rajasthan,Kota,"Shrinath Puram, Kota - RSPCB",21-06-2024 02:00:00,25.14389,75.821256,PM10,22,129,72
India,Rajasthan,Nagaur,"Karni Colony, Nagaur - RSPCB",21-06-2024 02:00:00,27.213494,73.734444,NH3,2,49,13
India,Rajasthan,Pali,"Indira Colony Vistar, Pali - RSPCB",21-06-2024 02:00:00,25.771061, 73.340227,PM10,91,143,116
India,Rajasthan,Pratapgarh,"Pragati Nagar, Pratapgarh - RSPCB",21-06-2024 02:00:00,24.041198,74.780702,OZONE,19,104,73
India,Rajasthan,Rajsamand,"Dhoinda, Rajsamand - RSPCB",21-06-2024 02:00:00,25.036360,73.883502,PM10,33,76,55
India,Rajasthan,Sawai Madhopur,"Sahu Nagar, Sawai Madhopur - RSPCB",21-06-2024 02:00:00,26.031443,76.359327,SO2,NA,NA,NA
India,Rajasthan,Sawai Madhopur,"Sahu Nagar, Sawai Madhopur - RSPCB",21-06-2024 02:00:00,26.031443,76.359327,OZONE,5,77,57
India,Rajasthan,Sikar,"Radhakishan Pura, Sikar - RSPCB",21-06-2024 02:00:00,27.608912,75.153302,PM2.5,14,182,46
India,Rajasthan,Sikar,"Radhakishan Pura, Sikar - RSPCB",21-06-2024 02:00:00,27.608912,75.153302,PM10,38,258,85
India,Rajasthan,Sirohi,"Vedhaynath Colony, Sirohi - RSPCB",21-06-2024 02:00:00,24.885261,72.857549,PM10,43,111,69
India,Rajasthan,Sirohi,"Vedhaynath Colony, Sirohi - RSPCB",21-06-2024 02:00:00,24.885261,72.857549,CO,3,20,13
India,Rajasthan,Sirohi,"Vedhaynath Colony, Sirohi - RSPCB",21-06-2024 02:00:00,24.885261,72.857549,OZONE,23,71,48
India,Rajasthan,Sri Ganganagar,"Old City, Sri Ganganagar - RSPCB",21-06-2024 02:00:00,29.931624,73.864511,NH3,11,25,17
India,Rajasthan,Tonk,"Shastri Nagar, Tonk - RSPCB",21-06-2024 02:00:00,26.159933,75.780517,PM10,22,115,72
India,Rajasthan,Tonk,"Shastri Nagar, Tonk - RSPCB",21-06-2024 02:00:00,26.159933,75.780517,NO2,5,18,11
India,Rajasthan,Udaipur,"Ashok Nagar, Udaipur - RSPCB",21-06-2024 02:00:00,24.5886166,73.6321397,NO2,10,92,56
India,TamilNadu,Ariyalur,"Keelapalur, Ariyalur - TNPCB",21-06-2024 02:00:00,11.06825,79.07033,NH3,NA,NA,NA
India,TamilNadu,Chennai,"Kodungaiyur, Chennai - TNPCB",21-06-2024 02:00:00,13.1278,80.2642,PM2.5,4,39,16
India,TamilNadu,Chennai,"Kodungaiyur, Chennai - TNPCB",21-06-2024 02:00:00,13.1278,80.2642,CO,20,63,44
India,TamilNadu,Chennai,"Manali, Chennai - CPCB",21-06-2024 02:00:00,13.164544,80.26285,NH3,5,6,5
India,TamilNadu,Chennai,"Royapuram, Chennai - TNPCB",21-06-2024 02:00:00,13.1036,80.2909,PM10,11,104,60
India,TamilNadu,Chennai,"Velachery Res. Area, Chennai - CPCB",21-06-2024 02:00:00,13.0052189,80.2398125,PM2.5,12,47,30
India,TamilNadu,Coimbatore,"PSG College of Arts and Science, Coimbatore - TNPCB",21-06-2024 02:00:00,11.0328,77.0349,NH3,1,1,1
India,TamilNadu,Coimbatore,"PSG College of Arts and Science, Coimbatore - TNPCB",21-06-2024 02:00:00,11.0328,77.0349,SO2,31,43,40
India,TamilNadu,Coimbatore,"PSG College of Arts and Science, Coimbatore - TNPCB",21-06-2024 02:00:00,11.0328,77.0349,OZONE,4,5,4
India,TamilNadu,Cuddalore,"Semmandalam, Cuddalore - TNPCB",21-06-2024 02:00:00,11.7637683,79.7499835,PM2.5,8,83,32
India,TamilNadu,Cuddalore,"Semmandalam, Cuddalore - TNPCB",21-06-2024 02:00:00,11.7637683,79.7499835,NH3,1,2,1
India,TamilNadu,Cuddalore,"Semmandalam, Cuddalore - TNPCB",21-06-2024 02:00:00,11.7637683,79.7499835,OZONE,1,2,1
India,TamilNadu,Gummidipoondi,"Anthoni Pillai Nagar, Gummidipoondi - TNPCB",21-06-2024 02:00:00,13.4127,80.1081,SO2,2,69,21
India,TamilNadu,Ooty,"Bombay Castel, Ooty - TNPCB",21-06-2024 02:00:00,11.4068288,76.7138973,SO2,16,17,17
India,TamilNadu,Ramanathapuram,"Chalai Bazaar, Ramanathapuram - TNPCB",21-06-2024 02:00:00,9.36399,78.831977,SO2,8,11,9
India,TamilNadu,Ramanathapuram,"Chalai Bazaar, Ramanathapuram - TNPCB",21-06-2024 02:00:00,9.36399,78.831977,OZONE,13,14,14
India,TamilNadu,Tirupur,"Kumaran College, Tirupur - TNPCB",21-06-2024 02:00:00,11.0973603,77.3228673,SO2,17,18,18
India,TamilNadu,Virudhunagar,"Collectorate Office, Virudhunagar - TNPCB",21-06-2024 02:00:00,9.559382,77.948828,CO,33,72,62
India,Telangana,Hyderabad,"Bollaram Industrial Area, Hyderabad - TSPCB",21-06-2024 02:00:00,17.540891,78.358528,OZONE,33,36,35
India,Telangana,Hyderabad,"Central University, Hyderabad - TSPCB",21-06-2024 02:00:00,17.460103,78.334361,PM2.5,6,32,21
India,Telangana,Hyderabad,"ICRISAT Patancheru, Hyderabad - TSPCB",21-06-2024 02:00:00,17.518400,78.278777,PM2.5,2,19,11
India,Telangana,Hyderabad,"ICRISAT Patancheru, Hyderabad - TSPCB",21-06-2024 02:00:00,17.518400,78.278777,PM10,10,58,29
India,Telangana,Hyderabad,"ICRISAT Patancheru, Hyderabad - TSPCB",21-06-2024 02:00:00,17.518400,78.278777,CO,4,42,23
India,Telangana,Hyderabad,"IDA Pashamylaram, Hyderabad - TSPCB",21-06-2024 02:00:00,17.5316895,78.218939,PM2.5,13,79,41
India,Telangana,Hyderabad,"IDA Pashamylaram, Hyderabad - TSPCB",21-06-2024 02:00:00,17.5316895,78.218939,NO2,24,43,35
India,Telangana,Hyderabad,"IDA Pashamylaram, Hyderabad - TSPCB",21-06-2024 02:00:00,17.5316895,78.218939,OZONE,2,7,3
India,Telangana,Hyderabad,"IITH Kandi, Hyderabad - TSPCB",21-06-2024 02:00:00,17.585705,78.126199,PM2.5,39,43,40
India,Telangana,Hyderabad,"IITH Kandi, Hyderabad - TSPCB",21-06-2024 02:00:00,17.585705,78.126199,PM10,44,67,52
India,Telangana,Hyderabad,"IITH Kandi, Hyderabad - TSPCB",21-06-2024 02:00:00,17.585705,78.126199,NH3,5,7,6
India,Telangana,Hyderabad,"Kokapet, Hyderabad - TSPCB",21-06-2024 02:00:00,17.393559,78.339194,PM10,53,106,83
India,Telangana,Hyderabad,"Kokapet, Hyderabad - TSPCB",21-06-2024 02:00:00,17.393559,78.339194,NO2,7,10,9
India,Telangana,Hyderabad,"Kokapet, Hyderabad - TSPCB",21-06-2024 02:00:00,17.393559,78.339194,OZONE,4,18,5
India,Telangana,Hyderabad,"Kompally Municipal Office, Hyderabad - TSPCB",21-06-2024 02:00:00,17.544899,78.486949,PM2.5,NA,NA,NA
India,Telangana,Hyderabad,"Kompally Municipal Office, Hyderabad - TSPCB",21-06-2024 02:00:00,17.544899,78.486949,PM10,NA,NA,NA
India,Telangana,Hyderabad,"Nacharam_TSIIC IALA, Hyderabad - TSPCB",21-06-2024 02:00:00,17.429398,78.569354,PM2.5,45,54,48
India,Telangana,Hyderabad,"Nacharam_TSIIC IALA, Hyderabad - TSPCB",21-06-2024 02:00:00,17.429398,78.569354,SO2,5,23,13
India,Telangana,Hyderabad,"Nacharam_TSIIC IALA, Hyderabad - TSPCB",21-06-2024 02:00:00,17.429398,78.569354,CO,32,39,32
India,Telangana,Hyderabad,"Nacharam_TSIIC IALA, Hyderabad - TSPCB",21-06-2024 02:00:00,17.429398,78.569354,OZONE,12,44,41
India,Telangana,Hyderabad,"Ramachandrapuram, Hyderabad - TSPCB",21-06-2024 02:00:00,17.528544,78.286195,NO2,11,15,13
India,Telangana,Hyderabad,"Somajiguda, Hyderabad - TSPCB",21-06-2024 02:00:00,17.417094,78.457437,PM2.5,40,95,58
India,Telangana,Hyderabad,"Somajiguda, Hyderabad - TSPCB",21-06-2024 02:00:00,17.417094,78.457437,OZONE,13,22,16
India,Telangana,Hyderabad,"Zoo Park, Hyderabad - TSPCB",21-06-2024 02:00:00,17.349694,78.451437,CO,8,26,22
India,Tripura,Agartala,"Bardowali, Agartala - Tripura SPCB",21-06-2024 02:00:00,23.8175497,91.2726974,PM10,37,87,54
India,Tripura,Agartala,"Bardowali, Agartala - Tripura SPCB",21-06-2024 02:00:00,23.8175497,91.2726974,NO2,3,11,6
India,Tripura,Agartala,"Bardowali, Agartala - Tripura SPCB",21-06-2024 02:00:00,23.8175497,91.2726974,CO,12,44,34
India,Uttar_Pradesh,Agra,"Manoharpur, Agra - UPPCB",21-06-2024 02:00:00,27.23711,78.01936,PM10,15,41,28
India,Uttar_Pradesh,Agra,"Rohta, Agra - UPPCB",21-06-2024 02:00:00,27.106972,78.000111,PM2.5,14,44,28
India,Uttar_Pradesh,Agra,"Sanjay Palace, Agra - UPPCB",21-06-2024 02:00:00,27.19865833,78.00598056,NO2,NA,NA,NA
India,Uttar_Pradesh,Agra,"Sector-3B Avas Vikas Colony, Agra - UPPCB",21-06-2024 02:00:00,27.19412,77.96237,CO,9,14,10
India,Uttar_Pradesh,Agra,"Shahjahan Garden, Agra - UPPCB",21-06-2024 02:00:00,27.169338,78.03582,NO2,19,19,19
India,Uttar_Pradesh,Agra,"Shahjahan Garden, Agra - UPPCB",21-06-2024 02:00:00,27.169338,78.03582,SO2,38,44,41
India,Uttar_Pradesh,Agra,"Shastripuram, Agra - UPPCB",21-06-2024 02:00:00,27.19862,77.92066,PM10,NA,NA,NA
India,Uttar_Pradesh,Agra,"Shastripuram, Agra - UPPCB",21-06-2024 02:00:00,27.19862,77.92066,NO2,29,282,48
India,Uttar_Pradesh,Agra,"Shastripuram, Agra - UPPCB",21-06-2024 02:00:00,27.19862,77.92066,OZONE,1,18,7
India,Uttar_Pradesh,Bareilly,"Civil Lines, Bareilly - UPPCB",21-06-2024 02:00:00,28.359581,79.414455,CO,1,28,14
India,Uttar_Pradesh,Bareilly,"Rajendra Nagar, Bareilly - UPPCB",21-06-2024 02:00:00,28.38910936,79.42963708,CO,1,18,11
India,Uttar_Pradesh,Bulandshahr,"Yamunapuram, Bulandshahr - UPPCB",21-06-2024 02:00:00,28.406963,77.849831,SO2,10,39,22
India,Uttar_Pradesh,Bulandshahr,"Yamunapuram, Bulandshahr - UPPCB",21-06-2024 02:00:00,28.406963,77.849831,OZONE,1,162,65
India,Uttar_Pradesh,Firozabad,"Nagla Bhau, Firozabad - UPPCB",21-06-2024 02:00:00,27.168897,78.376960,CO,4,29,13
India,Uttar_Pradesh,Firozabad,"Nagla Bhau, Firozabad - UPPCB",21-06-2024 02:00:00,27.168897,78.376960,OZONE,15,18,16
India,Uttar_Pradesh,Ghaziabad,"Indirapuram, Ghaziabad - UPPCB",21-06-2024 02:00:00,28.646233,77.358075,NH3,2,17,8
India,Uttar_Pradesh,Ghaziabad,"Indirapuram, Ghaziabad - UPPCB",21-06-2024 02:00:00,28.646233,77.358075,SO2,3,23,13
India,Uttar_Pradesh,Ghaziabad,"Loni, Ghaziabad - UPPCB",21-06-2024 02:00:00,28.757294,77.278792,CO,6,88,67
India,Uttar_Pradesh,Ghaziabad,"Sanjay Nagar, Ghaziabad - UPPCB",21-06-2024 02:00:00,28.685382,77.453839,PM10,44,144,100
India,Uttar_Pradesh,Ghaziabad,"Sanjay Nagar, Ghaziabad - UPPCB",21-06-2024 02:00:00,28.685382,77.453839,NO2,17,72,39
India,Uttar_Pradesh,Ghaziabad,"Sanjay Nagar, Ghaziabad - UPPCB",21-06-2024 02:00:00,28.685382,77.453839,NH3,6,15,10
India,Uttar_Pradesh,Ghaziabad,"Sanjay Nagar, Ghaziabad - UPPCB",21-06-2024 02:00:00,28.685382,77.453839,SO2,9,54,22
India,Uttar_Pradesh,Ghaziabad,"Vasundhara, Ghaziabad - UPPCB",21-06-2024 02:00:00,28.6603346,77.3572563,PM10,41,110,82
India,Uttar_Pradesh,Ghaziabad,"Vasundhara, Ghaziabad - UPPCB",21-06-2024 02:00:00,28.6603346,77.3572563,SO2,7,20,12
India,Uttar_Pradesh,Ghaziabad,"Vasundhara, Ghaziabad - UPPCB",21-06-2024 02:00:00,28.6603346,77.3572563,CO,18,61,55
India,Uttar_Pradesh,Gorakhpur,"Madan Mohan Malaviya University of Technology, Gorakhpur - UPPCB",21-06-2024 02:00:00,26.730136,83.433859,NH3,1,1,1
India,Uttar_Pradesh,Gorakhpur,"Madan Mohan Malaviya University of Technology, Gorakhpur - UPPCB",21-06-2024 02:00:00,26.730136,83.433859,SO2,14,22,21
India,Uttar_Pradesh,Greater Noida,"Knowledge Park - III, Greater Noida - UPPCB",21-06-2024 02:00:00,28.47272,77.482000,CO,15,49,26
India,Uttar_Pradesh,Greater Noida,"Knowledge Park - V, Greater Noida - UPPCB",21-06-2024 02:00:00,28.557054,77.453663,SO2,22,43,32
India,Uttar_Pradesh,Greater Noida,"Knowledge Park - V, Greater Noida - UPPCB",21-06-2024 02:00:00,28.557054,77.453663,CO,38,66,54
India,Uttar_Pradesh,Hapur,"Anand Vihar, Hapur - UPPCB",21-06-2024 02:00:00,28.725645,77.749675,NO2,10,47,21
India,Uttar_Pradesh,Jhansi,"Shivaji Nagar, Jhansi - UPPCB",21-06-2024 02:00:00,25.4547,78.6039,NO2,NA,NA,NA
India,Uttar_Pradesh,Kanpur,"FTI Kidwai Nagar, Kanpur - UPPCB",21-06-2024 02:00:00,26.428282,80.327067,CO,14,30,29
India,Uttar_Pradesh,Kanpur,"NSI Kalyanpur, Kanpur - UPPCB",21-06-2024 02:00:00,26.509954,80.249612,NO2,8,14,13
India,Uttar_Pradesh,Kanpur,"NSI Kalyanpur, Kanpur - UPPCB",21-06-2024 02:00:00,26.509954,80.249612,NH3,1,2,1
India,Uttar_Pradesh,Khurja,"Kalindi Kunj, Khurja - UPPCB",21-06-2024 02:00:00,28.2348927,77.8683002,PM10,69,315,134
India,Uttar_Pradesh,Khurja,"Kalindi Kunj, Khurja - UPPCB",21-06-2024 02:00:00,28.2348927,77.8683002,NH3,1,1,1
India,Uttar_Pradesh,Lucknow,"B R Ambedkar University, Lucknow - UPPCB",21-06-2024 02:00:00,26.766433,80.927299,PM2.5,32,74,50
India,Uttar_Pradesh,Lucknow,"B R Ambedkar University, Lucknow - UPPCB",21-06-2024 02:00:00,26.766433,80.927299,OZONE,5,33,20
India,Uttar_Pradesh,Lucknow,"Gomti Nagar, Lucknow - UPPCB",21-06-2024 02:00:00,26.868120,81.005119,PM10,17,98,43
India,Uttar_Pradesh,Lucknow,"Kendriya Vidyalaya, Lucknow - CPCB",21-06-2024 02:00:00,26.906111,80.948222,PM2.5,40,152,73
India,Uttar_Pradesh,Lucknow,"Kendriya Vidyalaya, Lucknow - CPCB",21-06-2024 02:00:00,26.906111,80.948222,SO2,6,10,8
India,Uttar_Pradesh,Lucknow,"Lalbagh, Lucknow - CPCB",21-06-2024 02:00:00,26.8458805,80.9365541,SO2,1,30,12
India,Uttar_Pradesh,Lucknow,"Talkatora District Industries Center, Lucknow - CPCB",21-06-2024 02:00:00,26.83399722,80.8917361,NO2,11,13,12
India,Uttar_Pradesh,Lucknow,"Talkatora District Industries Center, Lucknow - CPCB",21-06-2024 02:00:00,26.83399722,80.8917361,NH3,3,6,5
India,Uttar_Pradesh,Meerut,"Jai Bhim Nagar, Meerut - UPPCB",21-06-2024 02:00:00,28.9535882,77.7622941,PM10,50,160,89
India,Uttar_Pradesh,Meerut,"Pallavpuram Phase 2, Meerut - UPPCB",21-06-2024 02:00:00,29.063510,77.709723,PM10,35,130,65
India,Uttar_Pradesh,Moradabad,"Buddhi Vihar, Moradabad - UPPCB",21-06-2024 02:00:00,28.83526,78.74460,NO2,23,23,23
India,Uttar_Pradesh,Moradabad,"Eco Herbal Park, Moradabad - UPPCB",21-06-2024 02:00:00,28.840739,78.697531,PM10,17,75,45
India,Uttar_Pradesh,Moradabad,"Eco Herbal Park, Moradabad - UPPCB",21-06-2024 02:00:00,28.840739,78.697531,SO2,1,40,11
India,Uttar_Pradesh,Moradabad,"Jigar Colony, Moradabad - UPPCB",21-06-2024 02:00:00,28.856664,78.772638,PM2.5,35,88,48
India,Uttar_Pradesh,Moradabad,"Jigar Colony, Moradabad - UPPCB",21-06-2024 02:00:00,28.856664,78.772638,PM10,37,112,67
India,Uttar_Pradesh,Moradabad,"Jigar Colony, Moradabad - UPPCB",21-06-2024 02:00:00,28.856664,78.772638,NH3,6,6,6
India,Uttar_Pradesh,Moradabad,"Kashiram Nagar, Moradabad - UPPCB",21-06-2024 02:00:00,28.849399,78.742362,NO2,12,18,12
India,Uttar_Pradesh,Moradabad,"Kashiram Nagar, Moradabad - UPPCB",21-06-2024 02:00:00,28.849399,78.742362,NH3,3,4,4
India,Uttar_Pradesh,Moradabad,"Kashiram Nagar, Moradabad - UPPCB",21-06-2024 02:00:00,28.849399,78.742362,SO2,39,50,42
India,Uttar_Pradesh,Moradabad,"Transport Nagar, Moradabad - UPPCB",21-06-2024 02:00:00,28.802625,78.753728,NO2,4,5,4
India,Uttar_Pradesh,Muzaffarnagar,"New Mandi, Muzaffarnagar - UPPCB",21-06-2024 02:00:00,29.4723508,77.7194031,SO2,NA,NA,NA
India,Uttar_Pradesh,Muzaffarnagar,"New Mandi, Muzaffarnagar - UPPCB",21-06-2024 02:00:00,29.4723508,77.7194031,CO,37,102,78
India,Uttar_Pradesh,Noida,"Sector - 125, Noida - UPPCB",21-06-2024 02:00:00,28.5447608,77.3231257,PM2.5,48,133,76
India,Uttar_Pradesh,Noida,"Sector - 125, Noida - UPPCB",21-06-2024 02:00:00,28.5447608,77.3231257,PM10,111,414,190
India,Uttar_Pradesh,Noida,"Sector - 125, Noida - UPPCB",21-06-2024 02:00:00,28.5447608,77.3231257,NH3,4,7,6
India,Uttar_Pradesh,Noida,"Sector - 125, Noida - UPPCB",21-06-2024 02:00:00,28.5447608,77.3231257,SO2,13,20,17
India,Uttar_Pradesh,Prayagraj,"Jhunsi, Prayagraj - UPPCB",21-06-2024 02:00:00,25.425602,81.917152,NO2,6,6,6
India,Uttar_Pradesh,Prayagraj,"Jhunsi, Prayagraj - UPPCB",21-06-2024 02:00:00,25.425602,81.917152,SO2,29,32,30
India,Uttar_Pradesh,Prayagraj,"Motilal Nehru NIT, Prayagraj - UPPCB",21-06-2024 02:00:00,25.494,81.863,PM10,12,154,38
India,Uttar_Pradesh,Prayagraj,"Motilal Nehru NIT, Prayagraj - UPPCB",21-06-2024 02:00:00,25.494,81.863,SO2,9,43,26
India,Uttar_Pradesh,Varanasi,"Ardhali Bazar, Varanasi - UPPCB",21-06-2024 02:00:00,25.3505986,82.9083074,OZONE,20,22,21
India,Uttar_Pradesh,Varanasi,"Bhelupur, Varanasi - UPPCB",21-06-2024 02:00:00,25.301778,82.996789,NO2,8,8,8
India,Uttar_Pradesh,Varanasi,"Bhelupur, Varanasi - UPPCB",21-06-2024 02:00:00,25.301778,82.996789,NH3,1,1,1
India,Uttar_Pradesh,Varanasi,"Bhelupur, Varanasi - UPPCB",21-06-2024 02:00:00,25.301778,82.996789,SO2,32,32,32
India,Uttar_Pradesh,Varanasi,"IESD Banaras Hindu University, Varanasi - UPPCB",21-06-2024 02:00:00,25.262326,82.995408,NO2,2,2,2
India,Uttar_Pradesh,Varanasi,"IESD Banaras Hindu University, Varanasi - UPPCB",21-06-2024 02:00:00,25.262326,82.995408,NH3,1,7,2
India,Uttar_Pradesh,Varanasi,"IESD Banaras Hindu University, Varanasi - UPPCB",21-06-2024 02:00:00,25.262326,82.995408,CO,1,4,2
India,Uttar_Pradesh,Varanasi,"Maldahiya, Varanasi - UPPCB",21-06-2024 02:00:00,25.32393,82.99687,PM10,12,64,22
India,Uttar_Pradesh,Varanasi,"Maldahiya, Varanasi - UPPCB",21-06-2024 02:00:00,25.32393,82.99687,NO2,1,2,1
India,Uttar_Pradesh,Vrindavan,"Omex Eternity, Vrindavan - UPPCB",21-06-2024 02:00:00,27.5714090,77.6557570,PM10,16,212,74
India,Uttarakhand,Dehradun,"Doon University, Dehradun - UKPCB",21-06-2024 02:00:00,30.269444,78.044167,CO,24,54,30
India,Uttarakhand,Dehradun,"Doon University, Dehradun - UKPCB",21-06-2024 02:00:00,30.269444,78.044167,OZONE,6,76,48
India,Uttarakhand,Kashipur,"Govt. Girls Inter College, Kashipur - UKPCB",21-06-2024 02:00:00,29.2124114,78.9611753,PM10,12,103,68
India,Uttarakhand,Rishikesh,"Shivaji Nagar, Rishikesh - UKPCB",21-06-2024 02:00:00,30.075911,78.2859547,PM2.5,21,55,34
India,Uttarakhand,Rishikesh,"Shivaji Nagar, Rishikesh - UKPCB",21-06-2024 02:00:00,30.075911,78.2859547,NO2,4,22,10
India,Uttarakhand,Rishikesh,"Shivaji Nagar, Rishikesh - UKPCB",21-06-2024 02:00:00,30.075911,78.2859547,NH3,2,6,3
India,West_Bengal,Asansol,"Asansol Court Area, Asansol - WBPCB",21-06-2024 02:00:00,23.685297,86.945968,NO2,31,57,41
India,West_Bengal,Asansol,"Asansol Court Area, Asansol - WBPCB",21-06-2024 02:00:00,23.685297,86.945968,OZONE,36,82,60
India,West_Bengal,Asansol,"Evelyn Lodge, Asansol - WBPCB",21-06-2024 02:00:00,23.6979360,86.9443950,OZONE,19,60,35
India,West_Bengal,Barrackpore,"SVSPA Campus, Barrackpore - WBPCB",21-06-2024 02:00:00,22.7605581,88.3617589,PM10,NA,NA,NA
India,West_Bengal,Barrackpore,"SVSPA Campus, Barrackpore - WBPCB",21-06-2024 02:00:00,22.7605581,88.3617589,SO2,6,16,9
India,West_Bengal,Durgapur,"Sidhu Kanhu Indoor Stadium, Durgapur - WBPCB",21-06-2024 02:00:00,23.5404352,87.2892225,PM10,68,119,88
India,West_Bengal,Durgapur,"Sidhu Kanhu Indoor Stadium, Durgapur - WBPCB",21-06-2024 02:00:00,23.5404352,87.2892225,SO2,11,51,29
India,West_Bengal,Durgapur,"Sidhu Kanhu Indoor Stadium, Durgapur - WBPCB",21-06-2024 02:00:00,23.5404352,87.2892225,OZONE,13,70,21
India,West_Bengal,Haldia,"Priyambada Housing Estate, Haldia - WBPCB",21-06-2024 02:00:00,22.06047,88.109737,NO2,10,15,11
India,West_Bengal,Haldia,"Priyambada Housing Estate, Haldia - WBPCB",21-06-2024 02:00:00,22.06047,88.109737,SO2,9,21,14
India,West_Bengal,Howrah,"Botanical Garden, Howrah - WBPCB",21-06-2024 02:00:00,22.554954,88.292568,PM2.5,11,87,39
India,West_Bengal,Howrah,"Botanical Garden, Howrah - WBPCB",21-06-2024 02:00:00,22.554954,88.292568,CO,100,103,101
India,West_Bengal,Howrah,"Botanical Garden, Howrah - WBPCB",21-06-2024 02:00:00,22.554954,88.292568,OZONE,21,63,36
India,West_Bengal,Howrah,"Ghusuri, Howrah - WBPCB",21-06-2024 02:00:00,22.611968,88.347422,NH3,NA,NA,NA
India,West_Bengal,Kolkata,"Ballygunge, Kolkata - WBPCB",21-06-2024 02:00:00,22.5367507,88.3638022,PM2.5,16,44,27
India,West_Bengal,Kolkata,"Bidhannagar, Kolkata - WBPCB",21-06-2024 02:00:00,22.58157048,88.41002457,NO2,42,54,48
India,West_Bengal,Kolkata,"Fort William, Kolkata - WBPCB",21-06-2024 02:00:00,22.556640,88.342674,OZONE,12,86,23
India,West_Bengal,Kolkata,"Jadavpur, Kolkata - WBPCB",21-06-2024 02:00:00,22.49929,88.36917,PM10,25,50,38
India,West_Bengal,Kolkata,"Jadavpur, Kolkata - WBPCB",21-06-2024 02:00:00,22.49929,88.36917,NH3,5,6,6
India,West_Bengal,Kolkata,"Jadavpur, Kolkata - WBPCB",21-06-2024 02:00:00,22.49929,88.36917,SO2,3,5,4
India,West_Bengal,Kolkata,"Jadavpur, Kolkata - WBPCB",21-06-2024 02:00:00,22.49929,88.36917,CO,20,28,24
India,West_Bengal,Kolkata,"Rabindra Bharati University, Kolkata - WBPCB",21-06-2024 02:00:00,22.627847,88.380669,PM2.5,19,42,29
India,West_Bengal,Kolkata,"Rabindra Sarobar, Kolkata - WBPCB",21-06-2024 02:00:00,22.51106,88.35142,NO2,25,72,34
India,West_Bengal,Kolkata,"Rabindra Sarobar, Kolkata - WBPCB",21-06-2024 02:00:00,22.51106,88.35142,CO,12,23,19
India,West_Bengal,Kolkata,"Rabindra Sarobar, Kolkata - WBPCB",21-06-2024 02:00:00,22.51106,88.35142,OZONE,19,45,29
India,West_Bengal,Kolkata,"Victoria, Kolkata - WBPCB",21-06-2024 02:00:00,22.5448082,88.3403691,NH3,6,6,6
India,West_Bengal,Siliguri,"Ward-32 Bapupara, Siliguri - WBPCB",21-06-2024 02:00:00,26.6879226,88.4152495,NH3,9,10,10
India,Andhra_Pradesh,Amaravati,"Secretariat, Amaravati - APPCB",21-06-2024 02:00:00,16.5150833,80.5181667,PM10,41,73,55
India,Andhra_Pradesh,Amaravati,"Secretariat, Amaravati - APPCB",21-06-2024 02:00:00,16.5150833,80.5181667,NH3,1,4,3
India,Andhra_Pradesh,Anantapur,"Gulzarpet, Anantapur - APPCB",21-06-2024 02:00:00,14.675886,77.593027,PM10,NA,NA,NA
India,Andhra_Pradesh,Anantapur,"Gulzarpet, Anantapur - APPCB",21-06-2024 02:00:00,14.675886,77.593027,SO2,NA,NA,NA
India,Andhra_Pradesh,Chittoor,"Gangineni Cheruvu, Chittoor - APPCB",21-06-2024 02:00:00,13.204880,79.097889,SO2,NA,NA,NA
India,Andhra_Pradesh,Kadapa,"Yerramukkapalli, Kadapa - APPCB",21-06-2024 02:00:00,14.465052,78.824187,NO2,NA,NA,NA
India,Andhra_Pradesh,Kadapa,"Yerramukkapalli, Kadapa - APPCB",21-06-2024 02:00:00,14.465052,78.824187,NH3,NA,NA,NA
India,Andhra_Pradesh,Kadapa,"Yerramukkapalli, Kadapa - APPCB",21-06-2024 02:00:00,14.465052,78.824187,SO2,NA,NA,NA
India,Andhra_Pradesh,Rajamahendravaram,"Anand Kala Kshetram, Rajamahendravaram - APPCB",21-06-2024 02:00:00,16.9872867,81.7363176,CO,13,64,33
India,Andhra_Pradesh,Tirupati,"Vaikuntapuram, Tirupati - APPCB",21-06-2024 02:00:00,13.615387,79.409230,NO2,NA,NA,NA
India,Andhra_Pradesh,Vijayawada,"HB Colony, Vijayawada - APPCB",21-06-2024 02:00:00,16.536107,80.594233,OZONE,11,47,22
India,Andhra_Pradesh,Vijayawada,"Rajiv Gandhi Park, Vijayawada - APPCB",21-06-2024 02:00:00,16.509717,80.612222,NO2,19,50,34
India,Andhra_Pradesh,Vijayawada,"Rajiv Nagar, Vijayawada - APPCB",21-06-2024 02:00:00,16.554731,80.649110,PM10,53,80,57
India,Andhra_Pradesh,Vijayawada,"Rajiv Nagar, Vijayawada - APPCB",21-06-2024 02:00:00,16.554731,80.649110,NO2,10,10,10
India,Andhra_Pradesh,Visakhapatnam,"GVM Corporation, Visakhapatnam - APPCB",21-06-2024 02:00:00,17.72,83.3,PM2.5,39,70,54
India,Assam,Byrnihat,"Central Academy for SFS, Byrnihat - PCBA",21-06-2024 02:00:00,26.071318,91.87488,NO2,1,17,6
India,Assam,Guwahati,"Pan Bazaar, Guwahati - PCBA",21-06-2024 02:00:00,26.187500,91.744194,PM2.5,2,21,10
India,Assam,Guwahati,"Pan Bazaar, Guwahati - PCBA",21-06-2024 02:00:00,26.187500,91.744194,CO,18,27,23
India,Assam,Nagaon,"Christianpatty, Nagaon - PCBA",21-06-2024 02:00:00,26.349082,92.68449,PM10,16,29,19
India,Assam,Nagaon,"Christianpatty, Nagaon - PCBA",21-06-2024 02:00:00,26.349082,92.68449,NO2,1,33,8
India,Assam,Nagaon,"Christianpatty, Nagaon - PCBA",21-06-2024 02:00:00,26.349082,92.68449,NH3,1,4,1
India,Assam,Nalbari,"Bata Chowk, Nalbari - PCBA",21-06-2024 02:00:00,26.446912,91.439057,SO2,2,9,6
India,Assam,Nalbari,"Bata Chowk, Nalbari - PCBA",21-06-2024 02:00:00,26.446912,91.439057,OZONE,20,38,32
India,Assam,Silchar,"Tarapur, Silchar - PCBA",21-06-2024 02:00:00,24.82827,92.79525,OZONE,1,5,1
India,Assam,Sivasagar,"Girls College, Sivasagar - PCBA",21-06-2024 02:00:00,26.987634,94.636574,PM10,44,64,52
India,Bihar,Araria,"Kharahiya Basti, Araria - BSPCB",21-06-2024 02:00:00,26.146529,87.454184,SO2,NA,NA,NA
India,Bihar,Arrah,"New DM Office, Arrah - BSPCB",21-06-2024 02:00:00,25.5626095,84.663264,NO2,NA,NA,NA
India,Bihar,Arrah,"New DM Office, Arrah - BSPCB",21-06-2024 02:00:00,25.5626095,84.663264,SO2,NA,NA,NA
India,Bihar,Aurangabad,"Gurdeo Nagar, Aurangabad - BSPCB",21-06-2024 02:00:00,24.75746,84.366208,PM2.5,NA,NA,NA
India,Bihar,Bettiah,"Kamalnath Nagar, Bettiah - BSPCB",21-06-2024 02:00:00,26.80365,84.51954,NH3,29,86,56
India,Bihar,Bhagalpur,"DM Office_Kachari Chowk, Bhagalpur - BSPCB",21-06-2024 02:00:00,25.251013,86.989001,SO2,18,20,20
India,Bihar,Bhagalpur,"DM Office_Kachari Chowk, Bhagalpur - BSPCB",21-06-2024 02:00:00,25.251013,86.989001,OZONE,43,48,47
India,Bihar,Bhagalpur,"Mayaganj, Bhagalpur - BSPCB",21-06-2024 02:00:00,25.265194,87.012947,NH3,6,11,8
India,Bihar,Bihar Sharif,"D M Colony, Bihar Sharif - BSPCB",21-06-2024 02:00:00,25.204762,85.514960,NH3,NA,NA,NA
India,Bihar,Buxar,"Charitra Van, Buxar - BSPCB (Formerly known as Central Jail)",21-06-2024 02:00:00,25.567520,83.966379,SO2,NA,NA,NA
India,Bihar,Chhapra,"Darshan Nagar, Chhapra - BSPCB",21-06-2024 02:00:00,25.7808257,84.7446768,NH3,NA,NA,NA
India,Bihar,Chhapra,"Darshan Nagar, Chhapra - BSPCB",21-06-2024 02:00:00,25.7808257,84.7446768,CO,26,58,42
India,Bihar,Gaya,"Collectorate, Gaya - BSPCB",21-06-2024 02:00:00,24.7955,84.9994,OZONE,42,77,56
India,Bihar,Gaya,"Kareemganj, Gaya - BSPCB",21-06-2024 02:00:00,24.792403,84.992416,PM10,5,51,31
India,Bihar,Gaya,"Kareemganj, Gaya - BSPCB",21-06-2024 02:00:00,24.792403,84.992416,NH3,NA,NA,NA
India,Bihar,Gaya,"Kareemganj, Gaya - BSPCB",21-06-2024 02:00:00,24.792403,84.992416,CO,30,30,30
India,Bihar,Gaya,"Kareemganj, Gaya - BSPCB",21-06-2024 02:00:00,24.792403,84.992416,OZONE,2,68,20
India,Bihar,Gaya,"SFTI Kusdihra, Gaya - BSPCB",21-06-2024 02:00:00,24.762518,84.982348,NH3,4,5,5
India,Bihar,Hajipur,"Industrial Area, Hajipur - BSPCB",21-06-2024 02:00:00,25.697189,85.245900,PM10,31,92,66
India,Bihar,Hajipur,"Industrial Area, Hajipur - BSPCB",21-06-2024 02:00:00,25.697189,85.245900,NH3,11,16,14
India,Bihar,Katihar,"Mirchaibari, Katihar - BSPCB",21-06-2024 02:00:00,25.560083,87.553265,PM2.5,NA,NA,NA
India,Bihar,Katihar,"Mirchaibari, Katihar - BSPCB",21-06-2024 02:00:00,25.560083,87.553265,NO2,NA,NA,NA
India,Bihar,Kishanganj,"SDM Office_Khagra, Kishanganj - BSPCB",21-06-2024 02:00:00,26.0881305,87.93840336,PM10,NA,NA,NA
India,Bihar,Manguraha,"Forest Rest House, Manguraha - BSPCB",21-06-2024 02:00:00,27.308328,84.531742,PM2.5,NA,NA,NA
India,Bihar,Manguraha,"Forest Rest House, Manguraha - BSPCB",21-06-2024 02:00:00,27.308328,84.531742,PM10,NA,NA,NA
India,Bihar,Manguraha,"Forest Rest House, Manguraha - BSPCB",21-06-2024 02:00:00,27.308328,84.531742,SO2,NA,NA,NA
India,Bihar,Munger,"Town Hall, Munger - BSPCB",21-06-2024 02:00:00,25.376776,86.471523,NO2,NA,NA,NA
India,Bihar,Munger,"Town Hall, Munger - BSPCB",21-06-2024 02:00:00,25.376776,86.471523,CO,NA,NA,NA
India,Bihar,Muzaffarpur,"Buddha Colony, Muzaffarpur - BSPCB",21-06-2024 02:00:00,26.11442,85.39813,PM2.5,35,62,42
India,Bihar,Muzaffarpur,"Buddha Colony, Muzaffarpur - BSPCB",21-06-2024 02:00:00,26.11442,85.39813,CO,12,22,19
India,Bihar,Muzaffarpur,"MIT-Daudpur Kothi, Muzaffarpur - BSPCB",21-06-2024 02:00:00,26.1403345,85.3650192,SO2,8,12,10
India,Bihar,Muzaffarpur,"Muzaffarpur Collectorate, Muzaffarpur - BSPCB",21-06-2024 02:00:00,26.1209,85.3647,SO2,6,12,8
India,Bihar,Muzaffarpur,"Muzaffarpur Collectorate, Muzaffarpur - BSPCB",21-06-2024 02:00:00,26.1209,85.3647,OZONE,16,43,16
India,Bihar,Patna,"DRM Office Danapur, Patna - BSPCB",21-06-2024 02:00:00,25.586562,85.043586,NO2,13,40,24
India,Bihar,Patna,"Govt. High School Shikarpur, Patna - BSPCB",21-06-2024 02:00:00,25.592539,85.227158,NH3,4,5,5
India,Bihar,Patna,"IGSC Planetarium Complex, Patna - BSPCB",21-06-2024 02:00:00,25.610369,85.132568,PM2.5,25,88,58
India,Bihar,Patna,"Muradpur, Patna - BSPCB",21-06-2024 02:00:00,25.619651,85.147382,NH3,1,28,11
India,Bihar,Patna,"Samanpura, Patna - BSPCB",21-06-2024 02:00:00,25.596727,85.085624,PM2.5,34,166,69
India,Bihar,Patna,"Samanpura, Patna - BSPCB",21-06-2024 02:00:00,25.596727,85.085624,NH3,7,17,11
India,Bihar,Purnia,"Mariam Nagar, Purnia - BSPCB",21-06-2024 02:00:00,25.366336,87.117468,PM2.5,10,103,48
India,Bihar,Purnia,"Mariam Nagar, Purnia - BSPCB",21-06-2024 02:00:00,25.366336,87.117468,NO2,4,6,5
India,Bihar,Saharsa,"Police Line, Saharsa - BSPCB",21-06-2024 02:00:00,25.892357,86.590325,PM10,3,49,19
India,Bihar,Samastipur,"DM Office_Kasipur, Samastipur - BSPCB",21-06-2024 02:00:00,25.859655,85.77944,PM10,7,85,59
India,Bihar,Samastipur,"DM Office_Kasipur, Samastipur - BSPCB",21-06-2024 02:00:00,25.859655,85.77944,SO2,46,48,47
India,Bihar,Sasaram,"Dada Peer, Sasaram - BSPCB",21-06-2024 02:00:00,24.952822,84.002396,OZONE,24,68,65
India,Bihar,Siwan,"Chitragupta Nagar, Siwan - BSPCB",21-06-2024 02:00:00,26.2271665,84.3570427,NH3,2,10,5
India,Chandigarh,Chandigarh,"Sector 22, Chandigarh - CPCC",21-06-2024 02:00:00,30.735567,76.775714,PM2.5,25,85,48
India,Chandigarh,Chandigarh,"Sector 22, Chandigarh - CPCC",21-06-2024 02:00:00,30.735567,76.775714,NH3,6,12,8
India,Chandigarh,Chandigarh,"Sector-25, Chandigarh - CPCC",21-06-2024 02:00:00,30.751462,76.762879,NH3,13,33,19
India,Chandigarh,Chandigarh,"Sector-53, Chandigarh - CPCC",21-06-2024 02:00:00,30.719859,76.738637,PM2.5,15,80,38
India,Chandigarh,Chandigarh,"Sector-53, Chandigarh - CPCC",21-06-2024 02:00:00,30.719859,76.738637,PM10,40,103,60
India,Chandigarh,Chandigarh,"Sector-53, Chandigarh - CPCC",21-06-2024 02:00:00,30.719859,76.738637,CO,36,58,45
India,Chhattisgarh,Bhilai,"32Bungalows, Bhilai - CECB",21-06-2024 02:00:00,21.194815,81.314770,PM10,22,46,26
India,Chhattisgarh,Bhilai,"32Bungalows, Bhilai - CECB",21-06-2024 02:00:00,21.194815,81.314770,SO2,8,11,9
India,Chhattisgarh,Bhilai,"32Bungalows, Bhilai - CECB",21-06-2024 02:00:00,21.194815,81.314770,OZONE,7,18,10
India,Chhattisgarh,Bhilai,"Civic Center, Bhilai - Bhilai Steel Plant",21-06-2024 02:00:00,21.185571,81.343175,PM10,12,23,15
India,Chhattisgarh,Bhilai,"Civic Center, Bhilai - Bhilai Steel Plant",21-06-2024 02:00:00,21.185571,81.343175,CO,38,50,40
India,Chhattisgarh,Bhilai,"Civic Center, Bhilai - Bhilai Steel Plant",21-06-2024 02:00:00,21.185571,81.343175,OZONE,11,34,19
India,Chhattisgarh,Bhilai,"Hathkhoj, Bhilai - CECB",21-06-2024 02:00:00,21.224231,81.408350,NO2,NA,NA,NA
India,Chhattisgarh,Bilaspur,"Mangala, Bilaspur - NTPC",21-06-2024 02:00:00,22.08815,82.13737,PM2.5,4,39,20
India,Chhattisgarh,Chhal,"Nawapara SECL Colony, Chhal - CECB",21-06-2024 02:00:00,22.118125,83.140608,PM2.5,10,62,32
India,Chhattisgarh,Chhal,"Nawapara SECL Colony, Chhal - CECB",21-06-2024 02:00:00,22.118125,83.140608,NO2,22,71,44
India,Chhattisgarh,Chhal,"Nawapara SECL Colony, Chhal - CECB",21-06-2024 02:00:00,22.118125,83.140608,CO,10,60,11
India,Chhattisgarh,Chhal,"Nawapara SECL Colony, Chhal - CECB",21-06-2024 02:00:00,22.118125,83.140608,OZONE,21,117,29
India,Chhattisgarh,Korba,"Urja Nagar, Korba - CECB",21-06-2024 02:00:00,22.348441,82.549611,PM2.5,NA,NA,NA
India,Chhattisgarh,Korba,"Urja Nagar, Korba - CECB",21-06-2024 02:00:00,22.348441,82.549611,SO2,6,12,7
India,Chhattisgarh,Korba,"Urja Nagar, Korba - CECB",21-06-2024 02:00:00,22.348441,82.549611,CO,12,48,29
India,Chhattisgarh,Korba,"Urja Nagar, Korba - CECB",21-06-2024 02:00:00,22.348441,82.549611,OZONE,NA,NA,NA
India,Chhattisgarh,Kunjemura,"OP Jindal School, Kunjemura - CECB",21-06-2024 02:00:00,22.126650,83.483212,PM2.5,11,44,28
India,Chhattisgarh,Milupara,"Govt. Higher Secondary School, Milupara - CECB",21-06-2024 02:00:00,22.1910172,83.5197009,PM10,NA,NA,NA
India,Chhattisgarh,Milupara,"Govt. Higher Secondary School, Milupara - CECB",21-06-2024 02:00:00,22.1910172,83.5197009,CO,8,36,17
India,Chhattisgarh,Raipur,"AIIMS, Raipur - CECB",21-06-2024 02:00:00,21.258815,81.578979,CO,14,22,19
India,Chhattisgarh,Tumidih,"OP Jindal Industrial Park, Tumidih - CECB",21-06-2024 02:00:00,22.06631475,83.33820077,PM2.5,NA,NA,NA
India,Chhattisgarh,Tumidih,"OP Jindal Industrial Park, Tumidih - CECB",21-06-2024 02:00:00,22.06631475,83.33820077,NO2,NA,NA,NA
India,Chhattisgarh,Tumidih,"OP Jindal Industrial Park, Tumidih - CECB",21-06-2024 02:00:00,22.06631475,83.33820077,CO,21,46,46
India,Delhi,Delhi,"Alipur, Delhi - DPCC",21-06-2024 02:00:00,28.815329,77.153010,OZONE,30,163,75
India,Delhi,Delhi,"Aya Nagar, Delhi - IMD",21-06-2024 02:00:00,28.4706914,77.1099364,OZONE,17,60,23
India,Delhi,Delhi,"Bawana, Delhi - DPCC",21-06-2024 02:00:00,28.776200,77.051074,CO,32,55,43
India,Delhi,Delhi,"Burari Crossing, Delhi - IMD",21-06-2024 02:00:00,28.7256504,77.2011573,CO,22,44,41
India,Delhi,Delhi,"DTU, Delhi - CPCB",21-06-2024 02:00:00,28.7500499,77.1112615,PM2.5,47,193,100
India,Delhi,Delhi,"DTU, Delhi - CPCB",21-06-2024 02:00:00,28.7500499,77.1112615,NH3,16,18,17
India,Delhi,Delhi,"DTU, Delhi - CPCB",21-06-2024 02:00:00,28.7500499,77.1112615,SO2,40,43,41
India,Delhi,Delhi,"DTU, Delhi - CPCB",21-06-2024 02:00:00,28.7500499,77.1112615,CO,31,59,49
India,Delhi,Delhi,"Dr. Karni Singh Shooting Range, Delhi - DPCC",21-06-2024 02:00:00,28.498571,77.264840,PM10,74,336,132
India,Delhi,Delhi,"Dr. Karni Singh Shooting Range, Delhi - DPCC",21-06-2024 02:00:00,28.498571,77.264840,OZONE,52,252,103
India,Delhi,Delhi,"Dwarka-Sector 8, Delhi - DPCC ",21-06-2024 02:00:00,28.5710274,77.0719006,PM2.5,27,98,60
India,Delhi,Delhi,"Dwarka-Sector 8, Delhi - DPCC ",21-06-2024 02:00:00,28.5710274,77.0719006,NH3,5,9,6
India,Delhi,Delhi,"IHBAS, Dilshad Garden, Delhi - CPCB",21-06-2024 02:00:00,28.6811736,77.3025234,PM10,54,478,112
India,Delhi,Delhi,"ITO, Delhi - CPCB",21-06-2024 02:00:00,28.628624,77.241060,CO,58,104,87
India,Delhi,Delhi,"Jahangirpuri, Delhi - DPCC",21-06-2024 02:00:00,28.732820,77.170633,NH3,3,4,3
India,Delhi,Delhi,"Jahangirpuri, Delhi - DPCC",21-06-2024 02:00:00,28.732820,77.170633,SO2,26,41,31
India,Delhi,Delhi,"Jawaharlal Nehru Stadium, Delhi - DPCC",21-06-2024 02:00:00,28.580280,77.233829,OZONE,31,266,80
India,Delhi,Delhi,"Lodhi Road, Delhi - IMD",21-06-2024 02:00:00,28.5918245,77.2273074,PM10,58,173,114
India,Delhi,Delhi,"Major Dhyan Chand National Stadium, Delhi - DPCC",21-06-2024 02:00:00,28.611281,77.237738,NO2,20,80,40
India,Delhi,Delhi,"Mandir Marg, Delhi - DPCC",21-06-2024 02:00:00,28.636429,77.201067,NO2,57,89,73
India,Delhi,Delhi,"Mundka, Delhi - DPCC",21-06-2024 02:00:00,28.684678,77.076574,PM10,92,279,156
India,Delhi,Delhi,"Mundka, Delhi - DPCC",21-06-2024 02:00:00,28.684678,77.076574,OZONE,21,249,111
India,Delhi,Delhi,"Najafgarh, Delhi - DPCC",21-06-2024 02:00:00,28.570173,76.933762,OZONE,9,119,58
India,Delhi,Delhi,"Nehru Nagar, Delhi - DPCC",21-06-2024 02:00:00,28.567890,77.250515,OZONE,16,247,66
India,Delhi,Delhi,"Okhla Phase-2, Delhi - DPCC",21-06-2024 02:00:00,28.530785,77.271255,NH3,7,11,9
India,Delhi,Delhi,"Patparganj, Delhi - DPCC",21-06-2024 02:00:00,28.623763,77.287209,OZONE,21,179,74
India,Delhi,Delhi,"Punjabi Bagh, Delhi - DPCC",21-06-2024 02:00:00,28.674045,77.131023,NO2,15,60,34
India,Delhi,Delhi,"Punjabi Bagh, Delhi - DPCC",21-06-2024 02:00:00,28.674045,77.131023,OZONE,9,103,36
India,Delhi,Delhi,"Pusa, Delhi - DPCC",21-06-2024 02:00:00,28.639652,77.146275,PM10,75,172,129
India,Delhi,Delhi,"Pusa, Delhi - IMD",21-06-2024 02:00:00,28.636110,77.173332,PM2.5,2,203,81
India,Delhi,Delhi,"Pusa, Delhi - IMD",21-06-2024 02:00:00,28.636110,77.173332,PM10,10,164,105
India,Delhi,Delhi,"Pusa, Delhi - IMD",21-06-2024 02:00:00,28.636110,77.173332,OZONE,12,57,29
India,Delhi,Delhi,"R K Puram, Delhi - DPCC",21-06-2024 02:00:00,28.563262,77.186937,SO2,1,14,5
India,Delhi,Delhi,"Rohini, Delhi - DPCC",21-06-2024 02:00:00,28.732528,77.119920,NO2,9,48,25
India,Delhi,Delhi,"Rohini, Delhi - DPCC",21-06-2024 02:00:00,28.732528,77.119920,SO2,13,18,15
India,Delhi,Delhi,"Rohini, Delhi - DPCC",21-06-2024 02:00:00,28.732528,77.119920,CO,17,43,33
India,Delhi,Delhi,"Shadipur, Delhi - CPCB",21-06-2024 02:00:00,28.6514781,77.1473105,NO2,52,97,72
India,Delhi,Delhi,"Shadipur, Delhi - CPCB",21-06-2024 02:00:00,28.6514781,77.1473105,CO,21,102,53
India,Delhi,Delhi,"Sirifort, Delhi - CPCB",21-06-2024 02:00:00,28.5504249,77.2159377,NH3,14,20,19
India,Delhi,Delhi,"Sonia Vihar, Delhi - DPCC",21-06-2024 02:00:00,28.710508,77.249485,CO,8,36,28
India,Delhi,Delhi,"Sri Aurobindo Marg, Delhi - DPCC",21-06-2024 02:00:00,28.531346,77.190156,NO2,17,107,55
India,Delhi,Delhi,"Sri Aurobindo Marg, Delhi - DPCC",21-06-2024 02:00:00,28.531346,77.190156,NH3,NA,NA,NA
India,Delhi,Delhi,"Sri Aurobindo Marg, Delhi - DPCC",21-06-2024 02:00:00,28.531346,77.190156,SO2,2,42,17
India,Delhi,Delhi,"Vivek Vihar, Delhi - DPCC",21-06-2024 02:00:00,28.672342,77.315260,NH3,16,17,17
India,Delhi,Delhi,"Vivek Vihar, Delhi - DPCC",21-06-2024 02:00:00,28.672342,77.315260,SO2,11,48,21
India,Delhi,Delhi,"Vivek Vihar, Delhi - DPCC",21-06-2024 02:00:00,28.672342,77.315260,OZONE,2,89,41
India,Gujarat,Ahmedabad,"Chandkheda, Ahmedabad - IITM",21-06-2024 02:00:00,23.107969,72.574648,SO2,8,13,11
India,Gujarat,Ahmedabad,"Gyaspur, Ahmedabad - IITM",21-06-2024 02:00:00,22.977134,72.553024,CO,36,50,42
India,Gujarat,Ahmedabad,"Raikhad, Ahmedabad - IITM",21-06-2024 02:00:00,23.020509,72.579261,NO2,74,76,75
India,Gujarat,Ahmedabad,"Rakhial, Ahmedabad - IITM",21-06-2024 02:00:00,23.016834,72.625775,SO2,9,17,12
India,Gujarat,Ahmedabad,"Rakhial, Ahmedabad - IITM",21-06-2024 02:00:00,23.016834,72.625775,CO,38,51,44
India,Gujarat,Ahmedabad,"Rakhial, Ahmedabad - IITM",21-06-2024 02:00:00,23.016834,72.625775,OZONE,6,70,29
India,Gujarat,Ahmedabad,"Sardar Vallabhbhai Patel Stadium, Ahmedabad - IITM",21-06-2024 02:00:00,23.043070,72.562968,CO,34,46,42
India,Gujarat,Ahmedabad,"Sardar Vallabhbhai Patel Stadium, Ahmedabad - IITM",21-06-2024 02:00:00,23.043070,72.562968,OZONE,16,29,21
India,Gujarat,Ankleshwar,"GIDC, Ankleshwar - GPCB",21-06-2024 02:00:00,21.613267,73.010555,NH3,3,3,3
India,Gujarat,Ankleshwar,"GIDC, Ankleshwar - GPCB",21-06-2024 02:00:00,21.613267,73.010555,CO,52,88,71
India,Gujarat,Ankleshwar,"GIDC, Ankleshwar - GPCB",21-06-2024 02:00:00,21.613267,73.010555,OZONE,23,28,24
India,Gujarat,Gandhinagar,"GIFT City, Gandhinagar - IITM",21-06-2024 02:00:00,23.163798,72.677768,NO2,23,33,28
India,Gujarat,Gandhinagar,"GIFT City, Gandhinagar - IITM",21-06-2024 02:00:00,23.163798,72.677768,NH3,7,8,8
India,Gujarat,Gandhinagar,"Sector-10, Gandhinagar - GPCB",21-06-2024 02:00:00,23.221714,72.654328,SO2,5,6,6
India,Gujarat,Gandhinagar,"Sector-10, Gandhinagar - GPCB",21-06-2024 02:00:00,23.221714,72.654328,CO,20,30,26
India,Gujarat,Gandhinagar,"Sector-10, Gandhinagar - GPCB",21-06-2024 02:00:00,23.221714,72.654328,OZONE,22,23,22
India,Gujarat,Nandesari,"GIDC, Nandesari - Nandesari Ind. Association",21-06-2024 02:00:00,22.410802,73.097923,PM2.5,81,315,200
India,Gujarat,Vapi,"Phase-1 GIDC, Vapi - GPCB",21-06-2024 02:00:00,20.362421,72.918013,SO2,46,48,47
India,Gujarat,Vatva,"Phase-4 GIDC, Vatva - GPCB",21-06-2024 02:00:00,22.969611,72.643500,PM10,26,65,38
India,Haryana,Ambala,"Patti Mehar, Ambala - HSPCB",21-06-2024 02:00:00,30.379589,76.778328,PM10,15,66,33
India,Haryana,Ambala,"Patti Mehar, Ambala - HSPCB",21-06-2024 02:00:00,30.379589,76.778328,NO2,7,20,14
India,Haryana,Ambala,"Patti Mehar, Ambala - HSPCB",21-06-2024 02:00:00,30.379589,76.778328,CO,30,58,38
India,Haryana,Bahadurgarh,"Arya Nagar, Bahadurgarh - HSPCB",21-06-2024 02:00:00,28.6701,76.9254,NO2,20,25,22
India,Haryana,Ballabgarh,"Nathu Colony, Ballabgarh - HSPCB",21-06-2024 02:00:00,28.3419248,77.319699,CO,12,46,31
India,Haryana,Charkhi Dadri,"Mini Secretariat, Charkhi Dadri - HSPCB",21-06-2024 02:00:00,28.593883,76.270653,CO,16,66,43
India,Haryana,Dharuhera,"Municipal Corporation Office, Dharuhera -  HSPCB",21-06-2024 02:00:00,28.206800,76.799700,NH3,9,26,20
India,Haryana,Faridabad,"New Industrial Town, Faridabad - HSPCB",21-06-2024 02:00:00,28.39072,77.30059,CO,6,38,20
India,Haryana,Faridabad,"Sector 11, Faridabad - HSPCB",21-06-2024 02:00:00,28.376058,77.315741,NO2,29,32,31
India,Haryana,Faridabad,"Sector 11, Faridabad - HSPCB",21-06-2024 02:00:00,28.376058,77.315741,CO,24,40,35
India,Haryana,Faridabad,"Sector 30, Faridabad - HSPCB",21-06-2024 02:00:00,28.4417,77.3217,SO2,5,5,5
India,Haryana,Fatehabad,"Huda Sector, Fatehabad - HSPCB",21-06-2024 02:00:00,29.503664,75.467934,OZONE,10,41,17
India,Haryana,Gurugram,"NISE Gwal Pahari, Gurugram - IMD",21-06-2024 02:00:00,28.422681,77.148944,PM10,6,210,109
India,Haryana,Gurugram,"NISE Gwal Pahari, Gurugram - IMD",21-06-2024 02:00:00,28.422681,77.148944,NO2,10,23,14
India,Haryana,Gurugram,"Teri Gram, Gurugram - HSPCB",21-06-2024 02:00:00,28.4275,77.1465,NO2,5,36,24
India,Haryana,Hisar,"Urban Estate-II, Hisar - HSPCB",21-06-2024 02:00:00,29.140560,75.744941,NO2,10,46,13
India,Haryana,Jind,"Police Lines, Jind - HSPCB",21-06-2024 02:00:00,29.307814,76.337619,PM2.5,34,75,47
India,Haryana,Karnal,"Sector-12, Karnal - HSPCB",21-06-2024 02:00:00,29.695300,77.002700,SO2,12,13,12
India,Haryana,Karnal,"Sector-12, Karnal - HSPCB",21-06-2024 02:00:00,29.695300,77.002700,CO,2,38,33
India,Haryana,Kurukshetra,"Sector-7, Kurukshetra - HSPCB",21-06-2024 02:00:00,29.966942,76.875879,PM2.5,39,70,52
India,Haryana,Kurukshetra,"Sector-7, Kurukshetra - HSPCB",21-06-2024 02:00:00,29.966942,76.875879,PM10,35,63,47
India,Haryana,Kurukshetra,"Sector-7, Kurukshetra - HSPCB",21-06-2024 02:00:00,29.966942,76.875879,SO2,2,3,2
India,Haryana,Mandikhera,"General Hospital, Mandikhera - HSPCB",21-06-2024 02:00:00,27.9002,76.9938,PM2.5,3,18,9
India,Haryana,Mandikhera,"General Hospital, Mandikhera - HSPCB",21-06-2024 02:00:00,27.9002,76.9938,PM10,78,229,112
India,Haryana,Mandikhera,"General Hospital, Mandikhera - HSPCB",21-06-2024 02:00:00,27.9002,76.9938,CO,21,32,24
India,Haryana,Manesar,"Sector-2 IMT, Manesar - HSPCB",21-06-2024 02:00:00,28.360699,76.936090,PM10,77,131,103
India,Haryana,Manesar,"Sector-2 IMT, Manesar - HSPCB",21-06-2024 02:00:00,28.360699,76.936090,NO2,16,27,21
India,Haryana,Manesar,"Sector-2 IMT, Manesar - HSPCB",21-06-2024 02:00:00,28.360699,76.936090,NH3,1,3,2
India,Haryana,Panchkula,"Sector-6, Panchkula - HSPCB ",21-06-2024 02:00:00,30.7057778,76.8531805555555,CO,24,30,29
India,Haryana,Panipat,"Sector-18, Panipat - HSPCB",21-06-2024 02:00:00,29.432304,76.972765,PM2.5,95,99,97
India,Haryana,Panipat,"Sector-18, Panipat - HSPCB",21-06-2024 02:00:00,29.432304,76.972765,OZONE,29,31,30
India,Haryana,Rohtak,"MD University, Rohtak - HSPCB",21-06-2024 02:00:00,28.52123,76.37138,PM2.5,70,492,202
India,Haryana,Sirsa,"F-Block, Sirsa - HSPCB",21-06-2024 02:00:00,29.536400,75.015800,PM10,17,23,22
India,Haryana,Sirsa,"F-Block, Sirsa - HSPCB",21-06-2024 02:00:00,29.536400,75.015800,NH3,1,13,12
India,Haryana,Sirsa,"F-Block, Sirsa - HSPCB",21-06-2024 02:00:00,29.536400,75.015800,CO,75,129,99
India,Haryana,Sirsa,"F-Block, Sirsa - HSPCB",21-06-2024 02:00:00,29.536400,75.015800,OZONE,6,43,21
India,Haryana,Sonipat,"Murthal, Sonipat - HSPCB",21-06-2024 02:00:00,29.027200,77.062100,NO2,37,44,40
India,Haryana,Sonipat,"Murthal, Sonipat - HSPCB",21-06-2024 02:00:00,29.027200,77.062100,SO2,12,29,21
India,Haryana,Yamuna Nagar,"Gobind Pura, Yamuna Nagar - HSPCB",21-06-2024 02:00:00,30.1480566,77.2893471,NH3,1,6,4
India,Jammu_and_Kashmir,Srinagar,"Rajbagh, Srinagar - JKSPCB",21-06-2024 02:00:00,34.066206,74.819820,OZONE,13,14,14
India,Karnataka,Bagalkot,"Vidayagiri, Bagalkot - KSPCB",21-06-2024 02:00:00,16.172806,75.659694,NO2,9,10,9
India,Karnataka,Bagalkot,"Vidayagiri, Bagalkot - KSPCB",21-06-2024 02:00:00,16.172806,75.659694,NH3,1,2,1
India,Karnataka,Bengaluru,"Bapuji Nagar, Bengaluru - KSPCB",21-06-2024 02:00:00,12.951913,77.539784,PM10,NA,NA,NA
India,Karnataka,Bengaluru,"Bapuji Nagar, Bengaluru - KSPCB",21-06-2024 02:00:00,12.951913,77.539784,NO2,14,16,15
