country,state,city,station,last_update,latitude,longitude,pollutant_id,pollutant_min,pollutant_max,pollutant_avg
India,Andhra_Pradesh,Anantapur,"Gulzarpet, Anantapur - APPCB",12-03-2024 12:00:00,14.675886,77.593027,PM2.5,35,66,44
India,Andhra_Pradesh,Anantapur,"Gulzarpet, Anantapur - APPCB",12-03-2024 12:00:00,14.675886,77.593027,SO2,4,16,8
India,Andhra_Pradesh,Anantapur,"Gulzarpet, Anantapur - APPCB",12-03-2024 12:00:00,14.675886,77.593027,CO,30,56,44
India,Andhra_Pradesh,Anantapur,"Gulzarpet, Anantapur - APPCB",12-03-2024 12:00:00,14.675886,77.593027,OZONE,12,57,26
India,Andhra_Pradesh,Kadapa,"Yerramukkapalli, Kadapa - APPCB",12-03-2024 12:00:00,14.465052,78.824187,SO2,2,3,2
India,Andhra_Pradesh,Rajamahendravaram,"Anand Kala Kshetram, Rajamahendravaram - APPCB",12-03-2024 12:00:00,16.9872867,81.7363176,PM2.5,45,97,62
India,Andhra_Pradesh,Tirupati,"Tirumala, Tirupati - APPCB",12-03-2024 12:00:00,13.67,79.35,NH3,1,2,1
India,Andhra_Pradesh,Tirupati,"Vaikuntapuram, Tirupati - APPCB",12-03-2024 12:00:00,13.615387,79.409230,PM10,31,127,71
India,Andhra_Pradesh,Vijayawada,"Kanuru, Vijayawada - APPCB",12-03-2024 12:00:00,16.486692,80.699436,NO2,14,17,15
India,Andhra_Pradesh,Vijayawada,"Kanuru, Vijayawada - APPCB",12-03-2024 12:00:00,16.486692,80.699436,OZONE,33,33,33
India,Andhra_Pradesh,Vijayawada,"Rajiv Nagar, Vijayawada - APPCB",12-03-2024 12:00:00,16.554731,80.649110,OZONE,9,35,17
India,Andhra_Pradesh,Visakhapatnam,"GVM Corporation, Visakhapatnam - APPCB",12-03-2024 12:00:00,17.72,83.3,NH3,3,6,4
India,Assam,Byrnihat,"Central Academy for SFS, Byrnihat - PCBA",12-03-2024 12:00:00,26.071318,91.87488,PM2.5,NA,NA,NA
India,Assam,Byrnihat,"Central Academy for SFS, Byrnihat - PCBA",12-03-2024 12:00:00,26.071318,91.87488,PM10,65,484,267
India,Assam,Guwahati,"IITG, Guwahati - PCBA",12-03-2024 12:00:00,26.2028636,91.70046436,CO,13,17,15
India,Assam,Guwahati,"Pan Bazaar, Guwahati - PCBA",12-03-2024 12:00:00,26.187500,91.744194,NO2,3,18,11
India,Assam,Guwahati,"Pan Bazaar, Guwahati - PCBA",12-03-2024 12:00:00,26.187500,91.744194,SO2,73,90,83
India,Assam,Guwahati,"Railway Colony, Guwahati - PCBA",12-03-2024 12:00:00,26.181742,91.78063,PM10,106,430,234
India,Assam,Nagaon,"Christianpatty, Nagaon - PCBA",12-03-2024 12:00:00,26.349082,92.68449,SO2,1,32,18
India,Assam,Nagaon,"Christianpatty, Nagaon - PCBA",12-03-2024 12:00:00,26.349082,92.68449,OZONE,26,143,66
India,Assam,Sivasagar,"Girls College, Sivasagar - PCBA",12-03-2024 12:00:00,26.987634,94.636574,PM2.5,43,57,49
India,Assam,Sivasagar,"Girls College, Sivasagar - PCBA",12-03-2024 12:00:00,26.987634,94.636574,NH3,2,2,2
India,Bihar,Araria,"Kharahiya Basti, Araria - BSPCB",12-03-2024 12:00:00,26.146529,87.454184,PM10,80,211,141
India,Bihar,Araria,"Kharahiya Basti, Araria - BSPCB",12-03-2024 12:00:00,26.146529,87.454184,SO2,12,21,16
India,Bihar,Araria,"Kharahiya Basti, Araria - BSPCB",12-03-2024 12:00:00,26.146529,87.454184,OZONE,8,12,11
India,Bihar,Arrah,"New DM Office, Arrah - BSPCB",12-03-2024 12:00:00,25.5626095,84.663264,NH3,NA,NA,NA
India,Bihar,Aurangabad,"Gurdeo Nagar, Aurangabad - BSPCB",12-03-2024 12:00:00,24.75746,84.366208,PM2.5,NA,NA,NA
India,Bihar,Aurangabad,"Gurdeo Nagar, Aurangabad - BSPCB",12-03-2024 12:00:00,24.75746,84.366208,CO,60,75,71
India,Bihar,Bettiah,"Kamalnath Nagar, Bettiah - BSPCB",12-03-2024 12:00:00,26.80365,84.51954,CO,62,64,63
India,Bihar,Bhagalpur,"DM Office_Kachari Chowk, Bhagalpur - BSPCB",12-03-2024 12:00:00,25.251013,86.989001,OZONE,13,52,47
India,Bihar,Bhagalpur,"Mayaganj, Bhagalpur - BSPCB",12-03-2024 12:00:00,25.265194,87.012947,NO2,5,14,10
India,Bihar,Chhapra,"Darshan Nagar, Chhapra - BSPCB",12-03-2024 12:00:00,25.7808257,84.7446768,PM2.5,65,260,164
India,Bihar,Gaya,"Collectorate, Gaya - BSPCB",12-03-2024 12:00:00,24.7955,84.9994,PM2.5,60,293,140
India,Bihar,Gaya,"Collectorate, Gaya - BSPCB",12-03-2024 12:00:00,24.7955,84.9994,NO2,1,3,2
India,Bihar,Gaya,"Kareemganj, Gaya - BSPCB",12-03-2024 12:00:00,24.792403,84.992416,CO,8,106,34
India,Bihar,Gaya,"SFTI Kusdihra, Gaya - BSPCB",12-03-2024 12:00:00,24.762518,84.982348,CO,24,42,36
India,Bihar,Hajipur,"Industrial Area, Hajipur - BSPCB",12-03-2024 12:00:00,25.697189,85.245900,PM10,102,403,177
India,Bihar,Katihar,"Mirchaibari, Katihar - BSPCB",12-03-2024 12:00:00,25.560083,87.553265,PM10,62,206,124
India,Bihar,Kishanganj,"SDM Office_Khagra, Kishanganj - BSPCB",12-03-2024 12:00:00,26.0881305,87.93840336,PM2.5,25,416,91
India,Bihar,Kishanganj,"SDM Office_Khagra, Kishanganj - BSPCB",12-03-2024 12:00:00,26.0881305,87.93840336,CO,2,12,5
India,Bihar,Kishanganj,"SDM Office_Khagra, Kishanganj - BSPCB",12-03-2024 12:00:00,26.0881305,87.93840336,OZONE,39,51,43
India,Bihar,Manguraha,"Forest Rest House, Manguraha - BSPCB",12-03-2024 12:00:00,27.308328,84.531742,PM2.5,50,287,93
India,Bihar,Manguraha,"Forest Rest House, Manguraha - BSPCB",12-03-2024 12:00:00,27.308328,84.531742,NO2,8,17,12
India,Bihar,Manguraha,"Forest Rest House, Manguraha - BSPCB",12-03-2024 12:00:00,27.308328,84.531742,OZONE,1,69,41
India,Bihar,Motihari,"Gandak Colony, Motihari - BSPCB",12-03-2024 12:00:00,26.63086,84.90051,SO2,NA,NA,NA
India,Bihar,Munger,"Town Hall, Munger - BSPCB",12-03-2024 12:00:00,25.376776,86.471523,PM2.5,58,434,167
India,Bihar,Munger,"Town Hall, Munger - BSPCB",12-03-2024 12:00:00,25.376776,86.471523,NO2,7,9,9
India,Bihar,Muzaffarpur,"Buddha Colony, Muzaffarpur - BSPCB",12-03-2024 12:00:00,26.11442,85.39813,SO2,NA,NA,NA
India,Bihar,Muzaffarpur,"MIT-Daudpur Kothi, Muzaffarpur - BSPCB",12-03-2024 12:00:00,26.1403345,85.3650192,PM10,68,166,125
India,Bihar,Muzaffarpur,"Muzaffarpur Collectorate, Muzaffarpur - BSPCB",12-03-2024 12:00:00,26.1209,85.3647,NO2,8,17,11
India,Bihar,Patna,"DRM Office Danapur, Patna - BSPCB",12-03-2024 12:00:00,25.586562,85.043586,NH3,3,4,3
India,Bihar,Patna,"DRM Office Danapur, Patna - BSPCB",12-03-2024 12:00:00,25.586562,85.043586,SO2,7,10,8
India,Bihar,Patna,"Muradpur, Patna - BSPCB",12-03-2024 12:00:00,25.619651,85.147382,OZONE,1,37,15
India,Bihar,Patna,"Rajbansi Nagar, Patna - BSPCB",12-03-2024 12:00:00,25.599486,85.113666,PM2.5,71,184,121
India,Bihar,Patna,"Rajbansi Nagar, Patna - BSPCB",12-03-2024 12:00:00,25.599486,85.113666,NO2,22,53,33
India,Bihar,Patna,"Samanpura, Patna - BSPCB",12-03-2024 12:00:00,25.596727,85.085624,PM2.5,56,362,227
India,Bihar,Patna,"Samanpura, Patna - BSPCB",12-03-2024 12:00:00,25.596727,85.085624,PM10,127,422,243
India,Bihar,Patna,"Samanpura, Patna - BSPCB",12-03-2024 12:00:00,25.596727,85.085624,NO2,30,65,52
India,Bihar,Purnia,"Mariam Nagar, Purnia - BSPCB",12-03-2024 12:00:00,25.366336,87.117468,OZONE,11,64,30
India,Bihar,Rajgir,"Dangi Tola, Rajgir - BSPCB",12-03-2024 12:00:00,25.03280,85.41948,PM2.5,28,349,79
India,Bihar,Rajgir,"Dangi Tola, Rajgir - BSPCB",12-03-2024 12:00:00,25.03280,85.41948,OZONE,20,26,23
India,Bihar,Saharsa,"Police Line, Saharsa - BSPCB",12-03-2024 12:00:00,25.892357,86.590325,SO2,16,17,16
India,Bihar,Sasaram,"Dada Peer, Sasaram - BSPCB",12-03-2024 12:00:00,24.952822,84.002396,PM2.5,43,134,70
India,Bihar,Siwan,"Chitragupta Nagar, Siwan - BSPCB",12-03-2024 12:00:00,26.2271665,84.3570427,SO2,26,36,33
India,Chandigarh,Chandigarh,"Sector 22, Chandigarh - CPCC",12-03-2024 12:00:00,30.735567,76.775714,OZONE,10,269,61
India,Chandigarh,Chandigarh,"Sector-53, Chandigarh - CPCC",12-03-2024 12:00:00,30.719859,76.738637,PM2.5,88,309,229
India,Chandigarh,Chandigarh,"Sector-53, Chandigarh - CPCC",12-03-2024 12:00:00,30.719859,76.738637,NO2,34,69,48
India,Chandigarh,Chandigarh,"Sector-53, Chandigarh - CPCC",12-03-2024 12:00:00,30.719859,76.738637,SO2,11,28,17
India,Chhattisgarh,Bhilai,"32Bungalows, Bhilai - CECB",12-03-2024 12:00:00,21.194815,81.314770,PM10,49,87,63
India,Chhattisgarh,Bhilai,"Hathkhoj, Bhilai - CECB",12-03-2024 12:00:00,21.224231,81.408350,CO,18,84,32
India,Chhattisgarh,Bilaspur,"Mangala, Bilaspur - NTPC",12-03-2024 12:00:00,22.08815,82.13737,PM2.5,21,58,40
India,Chhattisgarh,Chhal,"Nawapara SECL Colony, Chhal - CECB",12-03-2024 12:00:00,22.118125,83.140608,SO2,12,34,17
India,Chhattisgarh,Korba,"Rampur, Korba - CECB",12-03-2024 12:00:00,22.368195,82.746431,CO,26,30,28
India,Chhattisgarh,Korba,"Rampur, Korba - CECB",12-03-2024 12:00:00,22.368195,82.746431,OZONE,7,23,15
India,Chhattisgarh,Korba,"Urja Nagar, Korba - CECB",12-03-2024 12:00:00,22.348441,82.549611,SO2,4,14,6
India,Chhattisgarh,Korba,"Urja Nagar, Korba - CECB",12-03-2024 12:00:00,22.348441,82.549611,CO,30,70,43
India,Chhattisgarh,Korba,"Urja Nagar, Korba - CECB",12-03-2024 12:00:00,22.348441,82.549611,OZONE,1,6,1
India,Chhattisgarh,Kunjemura,"OP Jindal School, Kunjemura - CECB",12-03-2024 12:00:00,22.126650,83.483212,NH3,1,4,2
India,Chhattisgarh,Milupara,"Govt. Higher Secondary School, Milupara - CECB",12-03-2024 12:00:00,22.1910172,83.5197009,PM10,NA,NA,NA
India,Chhattisgarh,Raipur,"AIIMS, Raipur - CECB",12-03-2024 12:00:00,21.258815,81.578979,NO2,32,71,53
India,Chhattisgarh,Raipur,"Siltara Phase-II, Raipur - CECB",12-03-2024 12:00:00,21.371751,81.664929,PM2.5,NA,NA,NA
India,Chhattisgarh,Raipur,"Siltara Phase-II, Raipur - CECB",12-03-2024 12:00:00,21.371751,81.664929,SO2,18,60,31
India,Delhi,Delhi,"Ashok Vihar, Delhi - DPCC",12-03-2024 12:00:00,28.695381,77.181665,NO2,20,87,46
India,Delhi,Delhi,"Ashok Vihar, Delhi - DPCC",12-03-2024 12:00:00,28.695381,77.181665,CO,16,60,47
India,Delhi,Delhi,"Aya Nagar, Delhi - IMD",12-03-2024 12:00:00,28.4706914,77.1099364,PM2.5,62,387,242
India,Delhi,Delhi,"Bawana, Delhi - DPCC",12-03-2024 12:00:00,28.776200,77.051074,NH3,5,8,6
India,Delhi,Delhi,"Burari Crossing, Delhi - IMD",12-03-2024 12:00:00,28.7256504,77.2011573,NO2,11,14,12
India,Delhi,Delhi,"CRRI Mathura Road, Delhi - IMD",12-03-2024 12:00:00,28.5512005,77.2735737,NO2,4,36,16
India,Delhi,Delhi,"CRRI Mathura Road, Delhi - IMD",12-03-2024 12:00:00,28.5512005,77.2735737,CO,18,86,77
India,Delhi,Delhi,"Chandni Chowk, Delhi - IITM",12-03-2024 12:00:00,28.656756,77.227234,PM10,96,248,125
India,Delhi,Delhi,"Chandni Chowk, Delhi - IITM",12-03-2024 12:00:00,28.656756,77.227234,OZONE,13,78,18
India,Delhi,Delhi,"DTU, Delhi - CPCB",12-03-2024 12:00:00,28.7500499,77.1112615,CO,24,55,43
India,Delhi,Delhi,"Dr. Karni Singh Shooting Range, Delhi - DPCC",12-03-2024 12:00:00,28.498571,77.264840,PM10,104,240,162
India,Delhi,Delhi,"Dr. Karni Singh Shooting Range, Delhi - DPCC",12-03-2024 12:00:00,28.498571,77.264840,OZONE,2,235,41
India,Delhi,Delhi,"Dwarka-Sector 8, Delhi - DPCC ",12-03-2024 12:00:00,28.5710274,77.0719006,PM2.5,78,403,185
India,Delhi,Delhi,"Dwarka-Sector 8, Delhi - DPCC ",12-03-2024 12:00:00,28.5710274,77.0719006,SO2,3,24,7
India,Delhi,Delhi,"IGI Airport (T3), Delhi - IMD",12-03-2024 12:00:00,28.5627763,77.1180053,OZONE,1,78,11
India,Delhi,Delhi,"IHBAS, Dilshad Garden, Delhi - CPCB",12-03-2024 12:00:00,28.6811736,77.3025234,NH3,3,12,7
India,Delhi,Delhi,"ITO, Delhi - CPCB",12-03-2024 12:00:00,28.628624,77.241060,PM10,98,278,143
India,Delhi,Delhi,"ITO, Delhi - CPCB",12-03-2024 12:00:00,28.628624,77.241060,NH3,1,7,5
India,Delhi,Delhi,"Jahangirpuri, Delhi - DPCC",12-03-2024 12:00:00,28.732820,77.170633,SO2,2,57,17
India,Delhi,Delhi,"Jahangirpuri, Delhi - DPCC",12-03-2024 12:00:00,28.732820,77.170633,OZONE,8,116,27
India,Delhi,Delhi,"Major Dhyan Chand National Stadium, Delhi - DPCC",12-03-2024 12:00:00,28.611281,77.237738,PM2.5,78,344,181
India,Delhi,Delhi,"Major Dhyan Chand National Stadium, Delhi - DPCC",12-03-2024 12:00:00,28.611281,77.237738,PM10,96,256,145
India,Delhi,Delhi,"Major Dhyan Chand National Stadium, Delhi - DPCC",12-03-2024 12:00:00,28.611281,77.237738,OZONE,2,261,168
India,Delhi,Delhi,"Mandir Marg, Delhi - DPCC",12-03-2024 12:00:00,28.636429,77.201067,NO2,163,206,184
India,Delhi,Delhi,"Mandir Marg, Delhi - DPCC",12-03-2024 12:00:00,28.636429,77.201067,SO2,3,15,9
India,Delhi,Delhi,"Mandir Marg, Delhi - DPCC",12-03-2024 12:00:00,28.636429,77.201067,OZONE,10,10,10
India,Delhi,Delhi,"Mundka, Delhi - DPCC",12-03-2024 12:00:00,28.684678,77.076574,NO2,21,119,56
India,Delhi,Delhi,"Mundka, Delhi - DPCC",12-03-2024 12:00:00,28.684678,77.076574,NH3,5,8,6
India,Delhi,Delhi,"NSIT Dwarka, Delhi - CPCB",12-03-2024 12:00:00,28.60909,77.0325413,PM2.5,NA,NA,NA
India,Delhi,Delhi,"NSIT Dwarka, Delhi - CPCB",12-03-2024 12:00:00,28.60909,77.0325413,PM10,131,265,171
India,Delhi,Delhi,"NSIT Dwarka, Delhi - CPCB",12-03-2024 12:00:00,28.60909,77.0325413,OZONE,15,139,37
India,Delhi,Delhi,"Najafgarh, Delhi - DPCC",12-03-2024 12:00:00,28.570173,76.933762,CO,8,88,51
India,Delhi,Delhi,"Okhla Phase-2, Delhi - DPCC",12-03-2024 12:00:00,28.530785,77.271255,NO2,37,176,99
India,Delhi,Delhi,"Okhla Phase-2, Delhi - DPCC",12-03-2024 12:00:00,28.530785,77.271255,NH3,7,12,9
India,Delhi,Delhi,"Patparganj, Delhi - DPCC",12-03-2024 12:00:00,28.623763,77.287209,PM10,126,299,178
India,Delhi,Delhi,"Patparganj, Delhi - DPCC",12-03-2024 12:00:00,28.623763,77.287209,NO2,35,77,49
India,Delhi,Delhi,"Patparganj, Delhi - DPCC",12-03-2024 12:00:00,28.623763,77.287209,SO2,14,20,17
India,Delhi,Delhi,"Patparganj, Delhi - DPCC",12-03-2024 12:00:00,28.623763,77.287209,CO,16,54,41
India,Delhi,Delhi,"Patparganj, Delhi - DPCC",12-03-2024 12:00:00,28.623763,77.287209,OZONE,4,273,26
India,Delhi,Delhi,"Pusa, Delhi - IMD",12-03-2024 12:00:00,28.636110,77.173332,PM2.5,1,322,179
India,Delhi,Delhi,"R K Puram, Delhi - DPCC",12-03-2024 12:00:00,28.563262,77.186937,CO,24,88,60
India,Delhi,Delhi,"R K Puram, Delhi - DPCC",12-03-2024 12:00:00,28.563262,77.186937,OZONE,9,230,159
India,Delhi,Delhi,"Shadipur, Delhi - CPCB",12-03-2024 12:00:00,28.6514781,77.1473105,SO2,6,25,18
India,Delhi,Delhi,"Shadipur, Delhi - CPCB",12-03-2024 12:00:00,28.6514781,77.1473105,CO,28,72,45
India,Delhi,Delhi,"Sirifort, Delhi - CPCB",12-03-2024 12:00:00,28.5504249,77.2159377,NO2,NA,NA,NA
India,Delhi,Delhi,"Sonia Vihar, Delhi - DPCC",12-03-2024 12:00:00,28.710508,77.249485,NO2,23,90,48
India,Delhi,Delhi,"Sonia Vihar, Delhi - DPCC",12-03-2024 12:00:00,28.710508,77.249485,CO,51,96,81
India,Delhi,Delhi,"Sri Aurobindo Marg, Delhi - DPCC",12-03-2024 12:00:00,28.531346,77.190156,PM2.5,60,369,154
India,Delhi,Delhi,"Sri Aurobindo Marg, Delhi - DPCC",12-03-2024 12:00:00,28.531346,77.190156,SO2,10,50,19
India,Delhi,Delhi,"Vivek Vihar, Delhi - DPCC",12-03-2024 12:00:00,28.672342,77.315260,CO,18,72,42
India,Delhi,Delhi,"Vivek Vihar, Delhi - DPCC",12-03-2024 12:00:00,28.672342,77.315260,OZONE,8,82,22
India,Delhi,Delhi,"Wazirpur, Delhi - DPCC",12-03-2024 12:00:00,28.699793,77.165453,PM10,131,344,182
India,Delhi,Delhi,"Wazirpur, Delhi - DPCC",12-03-2024 12:00:00,28.699793,77.165453,NO2,63,146,105
India,Gujarat,Ahmedabad,"Gyaspur, Ahmedabad - IITM",12-03-2024 12:00:00,22.977134,72.553024,SO2,3,6,5
India,Gujarat,Ahmedabad,"Raikhad, Ahmedabad - IITM",12-03-2024 12:00:00,23.020509,72.579261,PM2.5,11,39,23
India,Gujarat,Ahmedabad,"SAC ISRO Satellite, Ahmedabad - IITM",12-03-2024 12:00:00,23.023389,72.515201,SO2,1,8,4
India,Gujarat,Ahmedabad,"SVPI Airport Hansol, Ahmedabad - IITM",12-03-2024 12:00:00,23.076793,72.627874,PM10,42,131,83
India,Gujarat,Ahmedabad,"SVPI Airport Hansol, Ahmedabad - IITM",12-03-2024 12:00:00,23.076793,72.627874,NO2,14,19,16
India,Gujarat,Ahmedabad,"SVPI Airport Hansol, Ahmedabad - IITM",12-03-2024 12:00:00,23.076793,72.627874,NH3,4,5,4
India,Gujarat,Ahmedabad,"SVPI Airport Hansol, Ahmedabad - IITM",12-03-2024 12:00:00,23.076793,72.627874,SO2,7,8,7
India,Gujarat,Ahmedabad,"Sardar Vallabhbhai Patel Stadium, Ahmedabad - IITM",12-03-2024 12:00:00,23.043070,72.562968,NO2,1,17,15
India,Gujarat,Ankleshwar,"GIDC, Ankleshwar - GPCB",12-03-2024 12:00:00,21.613267,73.010555,PM10,43,120,79
India,Gujarat,Ankleshwar,"GIDC, Ankleshwar - GPCB",12-03-2024 12:00:00,21.613267,73.010555,SO2,10,118,51
India,Gujarat,Ankleshwar,"GIDC, Ankleshwar - GPCB",12-03-2024 12:00:00,21.613267,73.010555,OZONE,20,35,25
India,Gujarat,Gandhinagar,"GIFT City, Gandhinagar - IITM",12-03-2024 12:00:00,23.163798,72.677768,NO2,25,25,25
India,Gujarat,Gandhinagar,"GIFT City, Gandhinagar - IITM",12-03-2024 12:00:00,23.163798,72.677768,NH3,3,3,3
India,Gujarat,Gandhinagar,"GIFT City, Gandhinagar - IITM",12-03-2024 12:00:00,23.163798,72.677768,SO2,1,9,7
India,Gujarat,Gandhinagar,"GIFT City, Gandhinagar - IITM",12-03-2024 12:00:00,23.163798,72.677768,CO,23,32,28
India,Gujarat,Gandhinagar,"IIPHG Lekawada, Gandhinagar - IITM",12-03-2024 12:00:00,23.243639,72.68994,PM10,72,121,96
India,Gujarat,Gandhinagar,"IIPHG Lekawada, Gandhinagar - IITM",12-03-2024 12:00:00,23.243639,72.68994,CO,22,24,23
India,Gujarat,Gandhinagar,"IIPHG Lekawada, Gandhinagar - IITM",12-03-2024 12:00:00,23.243639,72.68994,OZONE,6,44,18
India,Gujarat,Surat,"Science Center, Surat - SMC",12-03-2024 12:00:00,21.170046,72.795405,PM2.5,17,70,46
India,Gujarat,Surat,"Science Center, Surat - SMC",12-03-2024 12:00:00,21.170046,72.795405,NO2,31,53,40
India,Gujarat,Vapi,"Phase-1 GIDC, Vapi - GPCB",12-03-2024 12:00:00,20.362421,72.918013,NO2,28,33,30
India,Haryana,Ambala,"Patti Mehar, Ambala - HSPCB",12-03-2024 12:00:00,30.379589,76.778328,SO2,1,29,10
India,Haryana,Bhiwani,"H.B. Colony, Bhiwani - HSPCB",12-03-2024 12:00:00,28.806223,76.141105,NO2,4,12,9
India,Haryana,Charkhi Dadri,"Mini Secretariat, Charkhi Dadri - HSPCB",12-03-2024 12:00:00,28.593883,76.270653,NH3,6,7,6
India,Haryana,Charkhi Dadri,"Mini Secretariat, Charkhi Dadri - HSPCB",12-03-2024 12:00:00,28.593883,76.270653,SO2,12,15,14
India,Haryana,Dharuhera,"Municipal Corporation Office, Dharuhera -  HSPCB",12-03-2024 12:00:00,28.206800,76.799700,CO,20,59,51
India,Haryana,Faridabad,"New Industrial Town, Faridabad - HSPCB",12-03-2024 12:00:00,28.39072,77.30059,NH3,3,6,5
India,Haryana,Faridabad,"Sector 30, Faridabad - HSPCB",12-03-2024 12:00:00,28.4417,77.3217,NO2,30,32,31
India,Haryana,Fatehabad,"Huda Sector, Fatehabad - HSPCB",12-03-2024 12:00:00,29.503664,75.467934,PM2.5,40,117,68
India,Haryana,Fatehabad,"Huda Sector, Fatehabad - HSPCB",12-03-2024 12:00:00,29.503664,75.467934,PM10,67,100,82
India,Haryana,Fatehabad,"Huda Sector, Fatehabad - HSPCB",12-03-2024 12:00:00,29.503664,75.467934,NO2,37,80,39
India,Haryana,Fatehabad,"Huda Sector, Fatehabad - HSPCB",12-03-2024 12:00:00,29.503664,75.467934,CO,6,17,9
India,Haryana,Gurugram,"Sector-51, Gurugram - HSPCB",12-03-2024 12:00:00,28.4227,77.0667,NO2,13,29,23
India,Haryana,Gurugram,"Teri Gram, Gurugram - HSPCB",12-03-2024 12:00:00,28.4275,77.1465,SO2,3,5,4
India,Haryana,Gurugram,"Teri Gram, Gurugram - HSPCB",12-03-2024 12:00:00,28.4275,77.1465,OZONE,10,33,13
India,Haryana,Hisar,"Urban Estate-II, Hisar - HSPCB",12-03-2024 12:00:00,29.140560,75.744941,PM2.5,18,108,70
India,Haryana,Hisar,"Urban Estate-II, Hisar - HSPCB",12-03-2024 12:00:00,29.140560,75.744941,NH3,8,27,12
India,Haryana,Hisar,"Urban Estate-II, Hisar - HSPCB",12-03-2024 12:00:00,29.140560,75.744941,CO,32,105,50
India,Haryana,Jind,"Police Lines, Jind - HSPCB",12-03-2024 12:00:00,29.307814,76.337619,NO2,6,19,11
India,Haryana,Karnal,"Sector-12, Karnal - HSPCB",12-03-2024 12:00:00,29.695300,77.002700,CO,12,56,36
India,Haryana,Mandikhera,"General Hospital, Mandikhera - HSPCB",12-03-2024 12:00:00,27.9002,76.9938,OZONE,23,32,26
India,Haryana,Manesar,"Sector-2 IMT, Manesar - HSPCB",12-03-2024 12:00:00,28.360699,76.936090,NO2,15,23,19
India,Haryana,Panchkula,"Sector-6, Panchkula - HSPCB ",12-03-2024 12:00:00,30.7057778,76.8531805555555,PM2.5,26,166,85
India,Haryana,Panipat,"Sector-18, Panipat - HSPCB",12-03-2024 12:00:00,29.497973,76.993331,NH3,2,3,2
India,Haryana,Rohtak,"MD University, Rohtak - HSPCB",12-03-2024 12:00:00,28.52123,76.37138,SO2,5,8,6
India,Haryana,Sirsa,"F-Block, Sirsa - HSPCB",12-03-2024 12:00:00,29.536400,75.015800,OZONE,48,126,61
India,Haryana,Yamuna Nagar,"Gobind Pura, Yamuna Nagar - HSPCB",12-03-2024 12:00:00,30.1480566,77.2893471,PM2.5,10,232,94
India,Haryana,Yamuna Nagar,"Gobind Pura, Yamuna Nagar - HSPCB",12-03-2024 12:00:00,30.1480566,77.2893471,NO2,14,14,14
India,Haryana,Yamuna Nagar,"Gobind Pura, Yamuna Nagar - HSPCB",12-03-2024 12:00:00,30.1480566,77.2893471,CO,36,92,61
India,Jharkhand,Dhanbad,"Kalakusuma, Dhanbad - DMC",12-03-2024 12:00:00,23.811548,86.481238,PM10,77,150,87
India,Jharkhand,Dhanbad,"Sardar Patel Nagar, Dhanbad - JSPCB",12-03-2024 12:00:00,23.80569,86.44268,NO2,NA,NA,NA
India,Jharkhand,Dhanbad,"Sardar Patel Nagar, Dhanbad - JSPCB",12-03-2024 12:00:00,23.80569,86.44268,CO,106,197,154
India,Jharkhand,Pathardih,"Mohalbani Ghat, Pathardih - DMC",12-03-2024 12:00:00,23.669880,86.411725,PM10,NA,NA,NA
India,Karnataka,Bagalkot,"Vidayagiri, Bagalkot - KSPCB",12-03-2024 12:00:00,16.172806,75.659694,PM2.5,19,37,36
India,Karnataka,Bagalkot,"Vidayagiri, Bagalkot - KSPCB",12-03-2024 12:00:00,16.172806,75.659694,NH3,1,2,1
India,Karnataka,Belgaum,"Ramteerth Nagar, Belgaum - KSPCB",12-03-2024 12:00:00,15.888653,74.541751,PM2.5,36,72,49
India,Karnataka,Belgaum,"Ramteerth Nagar, Belgaum - KSPCB",12-03-2024 12:00:00,15.888653,74.541751,PM10,43,92,67
India,Karnataka,Bengaluru,"BTM Layout, Bengaluru - CPCB",12-03-2024 12:00:00,12.9135218,77.5950804,NH3,4,4,4
India,Karnataka,Bengaluru,"Bapuji Nagar, Bengaluru - KSPCB",12-03-2024 12:00:00,12.951913,77.539784,NH3,1,1,1
India,Karnataka,Bengaluru,"Bapuji Nagar, Bengaluru - KSPCB",12-03-2024 12:00:00,12.951913,77.539784,OZONE,12,15,13
India,Karnataka,Bengaluru,"Hebbal, Bengaluru - KSPCB",12-03-2024 12:00:00,13.029152,77.585901,PM10,75,133,112
India,Karnataka,Bengaluru,"Hombegowda Nagar, Bengaluru - KSPCB",12-03-2024 12:00:00,12.938539,77.590100,NH3,2,3,3
India,Karnataka,Bengaluru,"Hombegowda Nagar, Bengaluru - KSPCB",12-03-2024 12:00:00,12.938539,77.590100,CO,14,21,17
India,Karnataka,Bengaluru,"Jigani, Bengaluru - KSPCB",12-03-2024 12:00:00,12.7816279,77.6299145,NO2,NA,NA,NA
India,Karnataka,Bengaluru,"Kasturi Nagar, Bengaluru - KSPCB",12-03-2024 12:00:00,13.003872,77.664217,PM10,127,158,139
India,Karnataka,Bengaluru,"Kasturi Nagar, Bengaluru - KSPCB",12-03-2024 12:00:00,13.003872,77.664217,NH3,3,4,4
India,Karnataka,Bengaluru,"Kasturi Nagar, Bengaluru - KSPCB",12-03-2024 12:00:00,13.003872,77.664217,SO2,10,10,10
India,Karnataka,Bengaluru,"Peenya, Bengaluru - CPCB",12-03-2024 12:00:00,13.0270199,77.494094,PM10,37,81,51
India,Karnataka,Bengaluru,"RVCE-Mailasandra, Bengaluru - KSPCB",12-03-2024 12:00:00,12.921418,77.502466,OZONE,37,37,37
India,Karnataka,Bengaluru,"Sanegurava Halli, Bengaluru - KSPCB",12-03-2024 12:00:00,12.990328,77.5431385,PM10,NA,NA,NA
India,Karnataka,Bengaluru,"Sanegurava Halli, Bengaluru - KSPCB",12-03-2024 12:00:00,12.990328,77.5431385,CO,6,6,6
India,Karnataka,Bengaluru,"Shivapura_Peenya, Bengaluru - KSPCB",12-03-2024 12:00:00,13.0246342,77.5080115,SO2,4,58,15
India,Karnataka,Bengaluru,"Silk Board, Bengaluru - KSPCB",12-03-2024 12:00:00,12.917348,77.622813,PM2.5,50,95,71
India,Karnataka,Bengaluru,"Silk Board, Bengaluru - KSPCB",12-03-2024 12:00:00,12.917348,77.622813,OZONE,28,32,30
India,Karnataka,Bidar,"Naubad, Bidar - KSPCB",12-03-2024 12:00:00,17.930306,77.482194,PM2.5,62,106,81
India,Karnataka,Bidar,"Naubad, Bidar - KSPCB",12-03-2024 12:00:00,17.930306,77.482194,CO,60,89,70
India,Karnataka,Chamarajanagar,"Urban, Chamarajanagar - KSPCB",12-03-2024 12:00:00,11.55358,76.55521,CO,19,30,25
India,Karnataka,Chikkamagaluru,"Kalyana Nagara, Chikkamagaluru - KSPCB",12-03-2024 12:00:00,13.328028,75.797056,PM10,NA,NA,NA
India,Karnataka,Chikkamagaluru,"Kalyana Nagara, Chikkamagaluru - KSPCB",12-03-2024 12:00:00,13.328028,75.797056,NH3,NA,NA,NA
India,Karnataka,Davanagere,"Devaraj Urs Badavane, Davanagere - KSPCB",12-03-2024 12:00:00,14.475800,75.905200,OZONE,22,35,22
India,Karnataka,Dharwad,"Kalabhavan, Dharwad - KSPCB",12-03-2024 12:00:00,15.459706,75.008381,PM10,83,150,108
India,Karnataka,Dharwad,"Kalabhavan, Dharwad - KSPCB",12-03-2024 12:00:00,15.459706,75.008381,NH3,2,3,2
India,Karnataka,Gadag,"Panchal Nagar, Gadag - KSPCB",12-03-2024 12:00:00,15.411456,75.638133,SO2,10,19,16
India,Karnataka,Hassan,"B.Katihalli, Hassan - KSPCB",12-03-2024 12:00:00,13.008556,76.125258,NH3,1,6,3
India,Karnataka,Hassan,"B.Katihalli, Hassan - KSPCB",12-03-2024 12:00:00,13.008556,76.125258,OZONE,4,33,21
India,Karnataka,Haveri,"Ashwini Nagar, Haveri - KSPCB",12-03-2024 12:00:00,14.791800,75.389600,PM10,NA,NA,NA
India,Karnataka,Haveri,"Ashwini Nagar, Haveri - KSPCB",12-03-2024 12:00:00,14.791800,75.389600,OZONE,18,19,19
India,Karnataka,Hubballi,"Lingaraj Nagar, Hubballi - KSPCB",12-03-2024 12:00:00,15.3714823,75.1160168,SO2,2,13,4
India,Karnataka,Hubballi,"Lingaraj Nagar, Hubballi - KSPCB",12-03-2024 12:00:00,15.3714823,75.1160168,OZONE,29,55,32
India,Karnataka,Kalaburagi,"Lal Bahadur Shastri Nagar, Kalaburagi - KSPCB",12-03-2024 12:00:00,17.321993,76.822628,SO2,13,29,14
India,Karnataka,Kalaburagi,"Mahatma Basaveswar Colony, Kalaburgi - KSPCB",12-03-2024 12:00:00,17.336318,76.847397,PM10,33,114,61
India,Karnataka,Kalaburagi,"Mahatma Basaveswar Colony, Kalaburgi - KSPCB",12-03-2024 12:00:00,17.336318,76.847397,OZONE,6,17,12
India,Karnataka,Karwar,"KHB Colony, Karwar - KSPCB",12-03-2024 12:00:00,14.816666,74.141003,NO2,4,11,6
India,Karnataka,Kolar,"Tamaka Ind. Area, Kolar - KSPCB",12-03-2024 12:00:00,13.1276288,78.1570122,PM2.5,43,79,60
India,Karnataka,Kolar,"Tamaka Ind. Area, Kolar - KSPCB",12-03-2024 12:00:00,13.1276288,78.1570122,OZONE,7,12,10
India,Karnataka,Madikeri,"Stuart Hill, Madikeri - KSPCB",12-03-2024 12:00:00,12.415911,75.735050,NH3,NA,NA,NA
India,Karnataka,Mangalore,"Kadri, Mangalore - KSPCB",12-03-2024 12:00:00,12.889250,74.853000,NO2,5,6,6
India,Karnataka,Mysuru,"Hebbal 1st Stage, Mysuru - KSPCB",12-03-2024 12:00:00,12.21041,76.37376,PM2.5,25,81,49
India,Karnataka,Raichur,"Haji Colony, Raichur - KSPCB",12-03-2024 12:00:00,16.208139,77.348417,NO2,19,47,32
India,Karnataka,Raichur,"Haji Colony, Raichur - KSPCB",12-03-2024 12:00:00,16.208139,77.348417,CO,90,108,99
India,Karnataka,Raichur,"Haji Colony, Raichur - KSPCB",12-03-2024 12:00:00,16.208139,77.348417,OZONE,3,156,18
India,Karnataka,Ramanagara,"Vijay Nagar, Ramanagara - KSPCB",12-03-2024 12:00:00,12.733409,77.298051,OZONE,29,30,29
India,Karnataka,Shivamogga,"Vinoba Nagara, Shivamogga - KSPCB",12-03-2024 12:00:00,13.940000,75.555917,PM2.5,35,66,45
India,Karnataka,Tumakuru,"Thimmalapura, Tumakuru - KSPCB",12-03-2024 12:00:00,13.377516,77.099072,PM2.5,NA,NA,NA
India,Karnataka,Udupi,"Brahmagiri, Udupi - KSPCB",12-03-2024 12:00:00,13.34194444,74.74694444,PM2.5,30,51,41
India,Karnataka,Vijayapura,"Ibrahimpur, Vijayapura - KSPCB",12-03-2024 12:00:00,16.802639,75.722694,NO2,17,19,19
India,Karnataka,Vijayapura,"Ibrahimpur, Vijayapura - KSPCB",12-03-2024 12:00:00,16.802639,75.722694,SO2,3,121,50
India,Karnataka,Yadgir,"Collector Office, Yadgir - KSPCB",12-03-2024 12:00:00,16.7602,77.1428,CO,13,22,18
India,Karnataka,Yadgir,"Collector Office, Yadgir - KSPCB",12-03-2024 12:00:00,16.7602,77.1428,OZONE,18,20,19
India,Kerala,Eloor,"Udyogamandal, Eloor - Kerala PCB",12-03-2024 12:00:00,10.073232,76.302765,NO2,4,4,4
India,Kerala,Eloor,"Udyogamandal, Eloor - Kerala PCB",12-03-2024 12:00:00,10.073232,76.302765,NH3,1,1,1
India,Kerala,Eloor,"Udyogamandal, Eloor - Kerala PCB",12-03-2024 12:00:00,10.073232,76.302765,OZONE,10,18,12
India,Kerala,Kannur,"Thavakkara, Kannur - Kerala PCB",12-03-2024 12:00:00,11.875000,75.373200,NO2,6,7,6
India,Kerala,Kochi,"Vyttila, Kochi - Kerala PCB",12-03-2024 12:00:00,9.969447,76.321186,PM2.5,25,82,44
India,Kerala,Kochi,"Vyttila, Kochi - Kerala PCB",12-03-2024 12:00:00,9.969447,76.321186,PM10,56,56,56
India,Kerala,Kochi,"Vyttila, Kochi - Kerala PCB",12-03-2024 12:00:00,9.969447,76.321186,NO2,1,3,2
India,Kerala,Kochi,"Vyttila, Kochi - Kerala PCB",12-03-2024 12:00:00,9.969447,76.321186,NH3,3,3,3
India,Kerala,Kochi,"Vyttila, Kochi - Kerala PCB",12-03-2024 12:00:00,9.969447,76.321186,CO,60,73,62
India,Kerala,Kollam,"Polayathode, Kollam - Kerala PCB",12-03-2024 12:00:00,8.8787,76.6073,NO2,8,9,8
India,Kerala,Kollam,"Polayathode, Kollam - Kerala PCB",12-03-2024 12:00:00,8.8787,76.6073,CO,6,33,21
India,Kerala,Kollam,"Polayathode, Kollam - Kerala PCB",12-03-2024 12:00:00,8.8787,76.6073,OZONE,31,38,34
India,Kerala,Thiruvananthapuram,"Kariavattom, Thiruvananthapuram - Kerala PCB",12-03-2024 12:00:00,8.563700,76.886500,PM2.5,69,83,76
India,Kerala,Thiruvananthapuram,"Kariavattom, Thiruvananthapuram - Kerala PCB",12-03-2024 12:00:00,8.563700,76.886500,PM10,78,94,87
India,Kerala,Thiruvananthapuram,"Kariavattom, Thiruvananthapuram - Kerala PCB",12-03-2024 12:00:00,8.563700,76.886500,OZONE,27,33,29
India,Kerala,Thiruvananthapuram,"Plammoodu, Thiruvananthapuram - Kerala PCB",12-03-2024 12:00:00,8.5149093,76.9435879,PM10,53,106,73
India,Kerala,Thiruvananthapuram,"Plammoodu, Thiruvananthapuram - Kerala PCB",12-03-2024 12:00:00,8.5149093,76.9435879,OZONE,11,34,17
India,Madhya Pradesh,Bhopal,"Idgah Hills, Bhopal - MPPCB",12-03-2024 12:00:00,23.264759,77.381568,SO2,1,24,14
India,Madhya Pradesh,Bhopal,"Paryavaran Parisar, Bhopal - MPPCB",12-03-2024 12:00:00,23.210494,77.425409,PM2.5,38,217,106
India,Madhya Pradesh,Bhopal,"Paryavaran Parisar, Bhopal - MPPCB",12-03-2024 12:00:00,23.210494,77.425409,NH3,8,15,10
India,Madhya Pradesh,Bhopal,"Paryavaran Parisar, Bhopal - MPPCB",12-03-2024 12:00:00,23.210494,77.425409,CO,4,116,13
India,Madhya Pradesh,Bhopal,"Paryavaran Parisar, Bhopal - MPPCB",12-03-2024 12:00:00,23.210494,77.425409,OZONE,3,88,30
India,Madhya Pradesh,Dewas,"Bhopal Chauraha, Dewas - MPPCB",12-03-2024 12:00:00,22.9682591,76.064118,NO2,NA,NA,NA
India,Madhya Pradesh,Gwalior,"City Center, Gwalior - MPPCB",12-03-2024 12:00:00,26.203442,78.193251,PM10,87,216,122
India,Madhya Pradesh,Gwalior,"Deen Dayal Nagar, Gwalior - MPPCB",12-03-2024 12:00:00,26.259242,78.216432,PM10,99,330,167
India,Madhya Pradesh,Indore,"Chhoti Gwaltoli, Indore - MPPCB",12-03-2024 12:00:00,22.4310,75.5213,PM10,75,146,102
India,Madhya Pradesh,Indore,"Chhoti Gwaltoli, Indore - MPPCB",12-03-2024 12:00:00,22.4310,75.5213,NO2,47,116,80
India,Madhya Pradesh,Indore,"Chhoti Gwaltoli, Indore - MPPCB",12-03-2024 12:00:00,22.4310,75.5213,OZONE,24,104,52
India,Madhya Pradesh,Indore,"Maguda Nagar, Indore - IMC",12-03-2024 12:00:00,22.7524,75.8872,NO2,NA,NA,NA
India,Madhya Pradesh,Indore,"Regional Park, Indore - IMC",12-03-2024 12:00:00,22.6780,75.8559,PM10,30,102,56
India,Madhya Pradesh,Indore,"Regional Park, Indore - IMC",12-03-2024 12:00:00,22.6780,75.8559,NH3,1,1,1
India,Madhya Pradesh,Indore,"Regional Park, Indore - IMC",12-03-2024 12:00:00,22.6780,75.8559,CO,22,32,25
India,Madhya Pradesh,Indore,"Residency Area, Indore - IMC",12-03-2024 12:00:00,22.7084,75.8815,NO2,37,59,49
India,Madhya Pradesh,Indore,"Residency Area, Indore - IMC",12-03-2024 12:00:00,22.7084,75.8815,CO,12,18,14
India,Madhya Pradesh,Jabalpur,"Govindh Bhavan Colony, Jabalpur - JMC",12-03-2024 12:00:00,23.163174,79.973061,PM2.5,30,117,66
India,Madhya Pradesh,Jabalpur,"Govindh Bhavan Colony, Jabalpur - JMC",12-03-2024 12:00:00,23.163174,79.973061,OZONE,29,177,177
India,Madhya Pradesh,Jabalpur,"Gupteshwar, Jabalpur - JMC",12-03-2024 12:00:00,23.142888,79.916147,PM2.5,63,306,111
India,Madhya Pradesh,Jabalpur,"Gupteshwar, Jabalpur - JMC",12-03-2024 12:00:00,23.142888,79.916147,SO2,2,47,12
India,Madhya Pradesh,Jabalpur,"Marhatal, Jabalpur - MPPCB",12-03-2024 12:00:00,23.168606,79.932247,PM10,74,182,121
India,Madhya Pradesh,Jabalpur,"Marhatal, Jabalpur - MPPCB",12-03-2024 12:00:00,23.168606,79.932247,NO2,16,117,46
India,Madhya Pradesh,Jabalpur,"Marhatal, Jabalpur - MPPCB",12-03-2024 12:00:00,23.168606,79.932247,NH3,3,5,4
India,Madhya Pradesh,Jabalpur,"Suhagi, Jabalpur - JMC",12-03-2024 12:00:00,23.218135,79.957770,NO2,34,41,38
India,Madhya Pradesh,Katni,"Gole Bazar, Katni - MPPCB",12-03-2024 12:00:00,23.50016,80.23284,PM2.5,55,273,115
India,Madhya Pradesh,Katni,"Gole Bazar, Katni - MPPCB",12-03-2024 12:00:00,23.50016,80.23284,PM10,106,325,149
India,Madhya Pradesh,Maihar,"Sahilara, Maihar - KJS Cements",12-03-2024 12:00:00,24.2613009,80.7231783,NO2,14,14,14
India,Madhya Pradesh,Mandideep,"Sector-D Industrial Area, Mandideep - MPPCB",12-03-2024 12:00:00,23.108440,77.511428,PM10,NA,NA,NA
India,Madhya Pradesh,Mandideep,"Sector-D Industrial Area, Mandideep - MPPCB",12-03-2024 12:00:00,23.108440,77.511428,SO2,NA,NA,NA
India,Madhya Pradesh,Pithampur,"Sector-2 Industrial Area, Pithampur - MPPCB",12-03-2024 12:00:00,22.624758,75.675238,CO,52,62,55
India,Madhya Pradesh,Ratlam,"Shasthri Nagar, Ratlam - IPCA Lab",12-03-2024 12:00:00,23.331731,75.045981,SO2,36,38,36
India,Madhya Pradesh,Sagar,"Civil Lines, Sagar - MPPCB",12-03-2024 12:00:00,23.838586,78.759431,NO2,14,33,17
India,Madhya Pradesh,Sagar,"Civil Lines, Sagar - MPPCB",12-03-2024 12:00:00,23.838586,78.759431,SO2,1,5,3
India,Madhya Pradesh,Sagar,"Deen Dayal Nagar, Sagar - MPPCB",12-03-2024 12:00:00,23.8640158,78.80289321,SO2,11,17,12
India,Madhya Pradesh,Satna,"Bandhavgar Colony, Satna - Birla Cement",12-03-2024 12:00:00,24.58434363,80.8549414,PM10,33,107,68
India,Madhya Pradesh,Satna,"Bandhavgar Colony, Satna - Birla Cement",12-03-2024 12:00:00,24.58434363,80.8549414,SO2,1,27,6
India,Madhya Pradesh,Singrauli,"Suryakiran Bhawan NCL, Singrauli - MPPCB",12-03-2024 12:00:00,24.108970,82.645580,NH3,3,5,4
India,Madhya Pradesh,Singrauli,"Suryakiran Bhawan NCL, Singrauli - MPPCB",12-03-2024 12:00:00,24.108970,82.645580,CO,59,168,93
India,Madhya Pradesh,Ujjain,"Mahakaleshwar Temple, Ujjain - MPPCB",12-03-2024 12:00:00,23.182719 ,75.768218 ,PM10,56,136,82
India,Maharashtra,Ahmednagar,"Tarakpur, Ahmednagar - MPCB",12-03-2024 12:00:00,19.10122,74.73339,OZONE,6,137,54
India,Maharashtra,Akola,"Ramdaspeth, Akola - MPCB",12-03-2024 12:00:00,20.719516,77.000253,PM10,70,158,98
India,Maharashtra,Amravati,"Shivneri Colony, Amravati - MPCB",12-03-2024 12:00:00,20.9402359,77.7895248,PM2.5,46,88,66
India,Maharashtra,Amravati,"Shivneri Colony, Amravati - MPCB",12-03-2024 12:00:00,20.9402359,77.7895248,PM10,75,119,95
India,Maharashtra,Amravati,"Shri Shivaji Science College, Amaravati - MPCB",12-03-2024 12:00:00,20.939198,77.765701,SO2,1,47,8
India,Maharashtra,Aurangabad,"MIDC Chilkalthana, Aurangabad - MPCB",12-03-2024 12:00:00,19.875620,75.387310,SO2,5,32,16
India,Maharashtra,Badlapur,"Katrap, Badlapur - MPCB",12-03-2024 12:00:00,19.16485,73.23409,NO2,6,23,12
India,Maharashtra,Badlapur,"Katrap, Badlapur - MPCB",12-03-2024 12:00:00,19.16485,73.23409,SO2,9,37,22
India,Maharashtra,Badlapur,"Katrap, Badlapur - MPCB",12-03-2024 12:00:00,19.16485,73.23409,OZONE,2,111,21
India,Maharashtra,Belapur,"CBD Belapur, Belapur - MPCB",12-03-2024 12:00:00,19.0243902,73.0406721,PM10,74,159,126
India,Maharashtra,Bhiwandi,"Gokul Nagar, Bhiwandi - MPCB",12-03-2024 12:00:00,19.309073,73.057223,OZONE,13,124,64
India,Maharashtra,Boisar,"Khaira, Boisar - MPCB",12-03-2024 12:00:00,19.786089,72.757971,NH3,8,15,11
India,Maharashtra,Chandrapur,"Chauhan Colony, Chandrapur - MPCB",12-03-2024 12:00:00,19.962900,79.298714,NO2,17,45,27
India,Maharashtra,Chandrapur,"MIDC Khutala, Chandrapur - MPCB",12-03-2024 12:00:00,19.9775302,79.2337086,CO,18,72,66
India,Maharashtra,Dhule,"Deopur, Dhule - MPCB",12-03-2024 12:00:00,20.918946,74.776388,NH3,2,8,5
India,Maharashtra,Jalna,"Old MIDC, Jalna - MPCB",12-03-2024 12:00:00,19.854616,75.905894,PM10,58,298,149
India,Maharashtra,Kalyan,"Khadakpada, Kalyan - MPCB",12-03-2024 12:00:00,19.25292,73.142019,PM2.5,48,125,72
India,Maharashtra,Kalyan,"Khadakpada, Kalyan - MPCB",12-03-2024 12:00:00,19.25292,73.142019,SO2,28,57,37
India,Maharashtra,Kolhapur,"Sinchan Bhavan, Kolhapur - MPCB",12-03-2024 12:00:00,16.7143745,74.2426398,NH3,7,8,8
India,Maharashtra,Kolhapur,"Sinchan Bhavan, Kolhapur - MPCB",12-03-2024 12:00:00,16.7143745,74.2426398,CO,26,76,54
India,Maharashtra,Latur,"Sawe Wadi, Latur - MPCB",12-03-2024 12:00:00,18.39963,76.57452,CO,15,51,33
India,Maharashtra,Mahad,"Kamble Tarf Birwadi, Mahad - MPCB",12-03-2024 12:00:00,18.1023399,73.4783687,NH3,10,23,11
India,Maharashtra,Mahad,"Kamble Tarf Birwadi, Mahad - MPCB",12-03-2024 12:00:00,18.1023399,73.4783687,SO2,11,60,31
India,Maharashtra,Mira-Bhayandar,"Bhayandar West, Mira-Bhayandar - MPCB",12-03-2024 12:00:00,19.296481,72.840923,CO,10,60,18
India,Maharashtra,Mira-Bhayandar,"Bhayandar West, Mira-Bhayandar - MPCB",12-03-2024 12:00:00,19.296481,72.840923,OZONE,6,163,38
India,Maharashtra,Mumbai,"Bandra Kurla Complex, Mumbai - MPCB",12-03-2024 12:00:00,19.065931,72.862131,NO2,11,39,25
India,Maharashtra,Mumbai,"Bandra Kurla Complex, Mumbai - MPCB",12-03-2024 12:00:00,19.065931,72.862131,OZONE,2,86,18
India,Maharashtra,Mumbai,"Borivali East, Mumbai - IITM",12-03-2024 12:00:00,19.23241,72.86895,PM2.5,81,217,108
India,Maharashtra,Mumbai,"Borivali East, Mumbai - IITM",12-03-2024 12:00:00,19.23241,72.86895,NH3,2,3,2
India,Maharashtra,Mumbai,"Borivali East, Mumbai - MPCB",12-03-2024 12:00:00,19.2243333,72.8658113,PM10,NA,NA,NA
India,Maharashtra,Mumbai,"Borivali East, Mumbai - MPCB",12-03-2024 12:00:00,19.2243333,72.8658113,NH3,NA,NA,NA
India,Maharashtra,Mumbai,"Borivali East, Mumbai - MPCB",12-03-2024 12:00:00,19.2243333,72.8658113,OZONE,NA,NA,NA
India,Maharashtra,Mumbai,"Byculla, Mumbai - BMC",12-03-2024 12:00:00,18.9767,72.8380,PM2.5,19,64,43
India,Maharashtra,Mumbai,"Byculla, Mumbai - BMC",12-03-2024 12:00:00,18.9767,72.8380,PM10,52,119,78
India,Maharashtra,Mumbai,"Chakala-Andheri East, Mumbai - IITM",12-03-2024 12:00:00,19.11074,72.86084,CO,43,91,53
India,Maharashtra,Mumbai,"Chakala-Andheri East, Mumbai - IITM",12-03-2024 12:00:00,19.11074,72.86084,OZONE,10,123,47
India,Maharashtra,Mumbai,"Chembur, Mumbai - MPCB",12-03-2024 12:00:00,19.0364585,72.8954371,NH3,3,5,4
India,Maharashtra,Mumbai,"Colaba, Mumbai - MPCB",12-03-2024 12:00:00,18.910000,72.820000,NO2,20,28,23
India,Maharashtra,Mumbai,"Colaba, Mumbai - MPCB",12-03-2024 12:00:00,18.910000,72.820000,CO,13,18,15
India,Maharashtra,Mumbai,"Kandivali East, Mumbai - MPCB",12-03-2024 12:00:00,19.205800,72.868200,NO2,38,133,91
India,Maharashtra,Mumbai,"Kandivali East, Mumbai - MPCB",12-03-2024 12:00:00,19.205800,72.868200,SO2,80,95,84
India,Maharashtra,Mumbai,"Kandivali East, Mumbai - MPCB",12-03-2024 12:00:00,19.205800,72.868200,OZONE,29,31,30
India,Maharashtra,Mumbai,"Kandivali West, Mumbai - BMC",12-03-2024 12:00:00,19.215859,72.831718,PM2.5,NA,NA,NA
India,Maharashtra,Mumbai,"Kandivali West, Mumbai - BMC",12-03-2024 12:00:00,19.215859,72.831718,NO2,NA,NA,NA
India,Maharashtra,Mumbai,"Kherwadi_Bandra East, Mumbai - MPCB",12-03-2024 12:00:00,19.0632143,72.8456324,NH3,4,19,7
India,Maharashtra,Mumbai,"Kherwadi_Bandra East, Mumbai - MPCB",12-03-2024 12:00:00,19.0632143,72.8456324,OZONE,1,133,27
India,Maharashtra,Mumbai,"Khindipada-Bhandup West, Mumbai - IITM",12-03-2024 12:00:00,19.1653323,72.922099,PM2.5,53,198,114
India,Maharashtra,Mumbai,"Khindipada-Bhandup West, Mumbai - IITM",12-03-2024 12:00:00,19.1653323,72.922099,NO2,5,21,10
India,Maharashtra,Mumbai,"Khindipada-Bhandup West, Mumbai - IITM",12-03-2024 12:00:00,19.1653323,72.922099,CO,3,39,14
India,Maharashtra,Mumbai,"Mazgaon, Mumbai - IITM",12-03-2024 12:00:00,18.96702,72.84214,OZONE,54,175,90
India,Maharashtra,Mumbai,"Navy Nagar-Colaba, Mumbai - IITM",12-03-2024 12:00:00,18.897756,72.813320,NH3,13,25,17
India,Maharashtra,Mumbai,"Navy Nagar-Colaba, Mumbai - IITM",12-03-2024 12:00:00,18.897756,72.813320,OZONE,73,235,100
India,Maharashtra,Mumbai,"Powai, Mumbai - MPCB",12-03-2024 12:00:00,19.137500,72.915056,PM2.5,31,71,45
India,Maharashtra,Mumbai,"Powai, Mumbai - MPCB",12-03-2024 12:00:00,19.137500,72.915056,PM10,61,186,109
India,Maharashtra,Mumbai,"Sewri, Mumbai - BMC",12-03-2024 12:00:00,19.000084,72.856730,PM2.5,44,99,67
India,Maharashtra,Mumbai,"Sewri, Mumbai - BMC",12-03-2024 12:00:00,19.000084,72.856730,PM10,63,128,100
India,Maharashtra,Mumbai,"Sewri, Mumbai - BMC",12-03-2024 12:00:00,19.000084,72.856730,OZONE,10,69,28
India,Maharashtra,Mumbai,"Shivaji Nagar, Mumbai - BMC",12-03-2024 12:00:00,19.060498,72.923356,CO,8,100,13
India,Maharashtra,Mumbai,"Sion, Mumbai - MPCB",12-03-2024 12:00:00,19.047000,72.874600,SO2,33,39,34
India,Maharashtra,Mumbai,"Sion, Mumbai - MPCB",12-03-2024 12:00:00,19.047000,72.874600,CO,15,56,27
India,Maharashtra,Mumbai,"Vasai West, Mumbai - MPCB",12-03-2024 12:00:00,19.383200,72.820400,SO2,16,30,18
India,Maharashtra,Mumbai,"Vile Parle West, Mumbai - MPCB",12-03-2024 12:00:00,19.10861,72.83622,CO,71,76,72
India,Maharashtra,Mumbai,"Worli, Mumbai - MPCB",12-03-2024 12:00:00,18.9936162,72.8128113,NH3,1,1,1
India,Maharashtra,Nagpur,"Ambazari, Nagpur - MPCB",12-03-2024 12:00:00,21.121801,79.04952,SO2,9,58,20
India,Maharashtra,Nagpur,"Mahal, Nagpur - MPCB",12-03-2024 12:00:00,21.14472,79.107595,NH3,1,9,3
India,Maharashtra,Nagpur,"Opp GPO Civil Lines, Nagpur - MPCB",12-03-2024 12:00:00,21.152875,79.0517531,NO2,17,97,70
India,Maharashtra,Nagpur,"Opp GPO Civil Lines, Nagpur - MPCB",12-03-2024 12:00:00,21.152875,79.0517531,OZONE,2,87,34
India,Maharashtra,Nanded,"Sneh Nagar, Nanded - MPCB",12-03-2024 12:00:00,19.173852,77.296291,NO2,NA,NA,NA
India,Maharashtra,Nanded,"Sneh Nagar, Nanded - MPCB",12-03-2024 12:00:00,19.173852,77.296291,CO,29,40,36
India,Maharashtra,Nanded,"Sneh Nagar, Nanded - MPCB",12-03-2024 12:00:00,19.173852,77.296291,OZONE,13,133,88
India,Maharashtra,Nashik,"Gangapur Road, Nashik - MPCB",12-03-2024 12:00:00,20.0073285,73.7762427,CO,22,23,23
India,Maharashtra,Nashik,"Hirawadi, Nashik - MPCB",12-03-2024 12:00:00,20.021503,73.813844,PM10,58,104,84
India,Maharashtra,Nashik,"Hirawadi, Nashik - MPCB",12-03-2024 12:00:00,20.021503,73.813844,SO2,1,7,5
India,Maharashtra,Nashik,"MIDC Ambad, Nashik - MPCB",12-03-2024 12:00:00,19.950220,73.731480,NO2,NA,NA,NA
India,Maharashtra,Navi Mumbai,"Nerul, Navi Mumbai - MPCB",12-03-2024 12:00:00,19.008751,73.016620,NH3,4,7,5
India,Maharashtra,Navi Mumbai,"Sanpada, Navi Mumbai - MPCB",12-03-2024 12:00:00,19.0575752,73.0151367,SO2,7,61,25
India,Maharashtra,Navi Mumbai,"Sector-19A Nerul, Navi Mumbai - IITM",12-03-2024 12:00:00,19.044,73.0325,SO2,23,53,39
India,Maharashtra,Navi Mumbai,"Sector-19A Nerul, Navi Mumbai - IITM",12-03-2024 12:00:00,19.044,73.0325,CO,1,110,72
India,Maharashtra,Navi Mumbai,"Tondare-Taloja, Navi Mumbai - MPCB",12-03-2024 12:00:00,19.0630,73.1209,PM2.5,22,252,143
India,Maharashtra,Navi Mumbai,"Tondare-Taloja, Navi Mumbai - MPCB",12-03-2024 12:00:00,19.0630,73.1209,NO2,19,83,51
India,Maharashtra,Navi Mumbai,"Tondare-Taloja, Navi Mumbai - MPCB",12-03-2024 12:00:00,19.0630,73.1209,NH3,3,9,6
India,Maharashtra,Pimpri-Chinchwad,"Park Street Wakad, Pimpri Chinchwad - MPCB",12-03-2024 12:00:00,18.59051,73.77946,PM2.5,83,287,187
India,Maharashtra,Pimpri-Chinchwad,"Park Street Wakad, Pimpri Chinchwad - MPCB",12-03-2024 12:00:00,18.59051,73.77946,NH3,6,20,11
India,Maharashtra,Pimpri-Chinchwad,"Thergaon, Pimpri Chinchwad - MPCB",12-03-2024 12:00:00,18.616318,73.765797,PM2.5,91,317,222
India,Maharashtra,Pimpri-Chinchwad,"Thergaon, Pimpri Chinchwad - MPCB",12-03-2024 12:00:00,18.616318,73.765797,PM10,87,183,136
India,Maharashtra,Pune,"Karve Road, Pune - MPCB",12-03-2024 12:00:00,18.5011743,73.8165527,PM2.5,81,81,81
India,Maharashtra,Pune,"Karve Road, Pune - MPCB",12-03-2024 12:00:00,18.5011743,73.8165527,OZONE,6,6,6
India,Maharashtra,Pune,"Katraj Dairy, Pune - MPCB",12-03-2024 12:00:00,18.454450,73.854155,NH3,4,6,5
India,Maharashtra,Pune,"Revenue Colony-Shivajinagar, Pune - IITM",12-03-2024 12:00:00,18.530085,73.849598,PM2.5,10,226,70
India,Maharashtra,Pune,"Revenue Colony-Shivajinagar, Pune - IITM",12-03-2024 12:00:00,18.530085,73.849598,CO,107,116,110
India,Maharashtra,Pune,"Transport Nagar-Nigdi, Pune - IITM",12-03-2024 12:00:00,18.664282,73.763966,NO2,15,19,17
India,Maharashtra,Solapur,"Ratandeep Housing Society, Solapur - MPCB",12-03-2024 12:00:00,17.65439,75.90649,PM2.5,88,285,157
India,Maharashtra,Thane,"Kasarvadavali, Thane - MPCB",12-03-2024 12:00:00,19.26777,72.97182,PM10,90,128,106
India,Maharashtra,Thane,"Pimpleshwar Mandir, Thane - MPCB",12-03-2024 12:00:00,19.192056,72.9585188,PM10,115,194,152
India,Maharashtra,Virar,"Bolinj, Virar - MPCB",12-03-2024 12:00:00,19.4458210,72.7988231,NO2,12,33,19
India,Maharashtra,Virar,"Bolinj, Virar - MPCB",12-03-2024 12:00:00,19.4458210,72.7988231,NH3,5,6,5
India,Maharashtra,Virar,"Bolinj, Virar - MPCB",12-03-2024 12:00:00,19.4458210,72.7988231,CO,22,36,28
India,Manipur,Imphal,"Manipur University, Imphal - Manipur PCB",12-03-2024 12:00:00,24.7524239,93.9286218,NH3,NA,NA,NA
India,Meghalaya,Shillong,"Lumpyngngad, Shillong - Meghalaya PCB",12-03-2024 12:00:00,25.5586,91.8985,PM2.5,NA,NA,NA
India,Mizoram,Aizawl,"Sikulpuikawn, Aizawl - Mizoram PCB",12-03-2024 12:00:00,23.7176342,92.7192841,PM10,47,123,88
India,Mizoram,Aizawl,"Sikulpuikawn, Aizawl - Mizoram PCB",12-03-2024 12:00:00,23.7176342,92.7192841,SO2,2,2,2
India,Odisha,Angul,"Hakimapada, Angul - OSPCB",12-03-2024 12:00:00,20.832874,85.104082,PM2.5,60,500,193
India,Odisha,Angul,"Hakimapada, Angul - OSPCB",12-03-2024 12:00:00,20.832874,85.104082,NO2,7,33,17
India,Odisha,Angul,"Hakimapada, Angul - OSPCB",12-03-2024 12:00:00,20.832874,85.104082,NH3,1,2,1
India,Odisha,Balasore,"Kalidaspur, Balasore - OSPCB",12-03-2024 12:00:00,21.51161,86.89088,PM10,69,141,95
India,Odisha,Barbil,"Forest Office, Barbil - OSPCB",12-03-2024 12:00:00,22.1166054,85.3945546,PM10,97,421,174
India,Odisha,Barbil,"Forest Office, Barbil - OSPCB",12-03-2024 12:00:00,22.1166054,85.3945546,CO,2,105,62
India,Odisha,Baripada,"Meher Colony, Baripada - OSPCB",12-03-2024 12:00:00,21.941841,86.728318,CO,17,34,23
India,Odisha,Bhubaneswar,"Lingraj Mandir, Bhubaneswar - OSPCB",12-03-2024 12:00:00,20.240790,85.836784,PM10,45,153,82
India,Odisha,Bhubaneswar,"Patia, Bhubaneswar - OSPCB",12-03-2024 12:00:00,20.34652,85.81630,NH3,3,7,4
India,Odisha,Bhubaneswar,"Patia, Bhubaneswar - OSPCB",12-03-2024 12:00:00,20.34652,85.81630,CO,61,92,78
India,Odisha,Brajrajnagar,"GM Office, Brajrajnagar - OSPCB",12-03-2024 12:00:00,21.8004996,83.8396977,PM2.5,32,310,100
India,Odisha,Cuttack,"CDA Area, Cuttack - OSPCB",12-03-2024 12:00:00,20.48891     ,85.84768     ,PM2.5,35,70,52
India,Odisha,Cuttack,"CDA Area, Cuttack - OSPCB",12-03-2024 12:00:00,20.48891     ,85.84768     ,CO,26,35,29
India,Odisha,Keonjhar,"Jagamohanpur, Keonjhar - OSPCB",12-03-2024 12:00:00,21.643900,85.599355,NO2,13,124,44
India,Odisha,Keonjhar,"Jagamohanpur, Keonjhar - OSPCB",12-03-2024 12:00:00,21.643900,85.599355,SO2,12,28,15
India,Odisha,Nayagarh,"Dabuna, Nayagarh - OSPCB",12-03-2024 12:00:00,21.847279,85.416905,CO,42,56,51
India,Odisha,Rairangpur,"Divisional Forest Office, Rairangpur - OSPCB",12-03-2024 12:00:00,22.265816,86.174829,PM2.5,15,108,73
India,Odisha,Rairangpur,"Divisional Forest Office, Rairangpur - OSPCB",12-03-2024 12:00:00,22.265816,86.174829,PM10,36,148,107
India,Odisha,Rourkela,"Raghunathpali, Rourkela - OSPCB",12-03-2024 12:00:00,22.220833,84.809444,CO,22,60,36
India,Odisha,Suakati,"OMC Colony, Suakati - OSPCB",12-03-2024 12:00:00,21.606865,85.510538,PM10,110,238,134
India,Odisha,Suakati,"OMC Colony, Suakati - OSPCB",12-03-2024 12:00:00,21.606865,85.510538,NH3,11,35,17
India,Odisha,Tensa,"Barsua Iron Ore Mines, Tensa - OSPCB",12-03-2024 12:00:00,21.869985,85.167016,SO2,NA,NA,NA
India,Odisha,Tensa,"Barsua Iron Ore Mines, Tensa - OSPCB",12-03-2024 12:00:00,21.869985,85.167016,CO,18,31,28
India,Odisha,Tensa,"Barsua Iron Ore Mines, Tensa - OSPCB",12-03-2024 12:00:00,21.869985,85.167016,OZONE,12,77,27
India,Puducherry,Puducherry,"Jawahar Nagar, Puducherry - PPCC",12-03-2024 12:00:00,11.9309,79.8027,PM2.5,26,91,50
India,Punjab,Amritsar,"Golden Temple, Amritsar - PPCB",12-03-2024 12:00:00,31.620000,74.876512,NO2,6,24,12
India,Punjab,Khanna,"Kalal Majra, Khanna - PPCB",12-03-2024 12:00:00,30.736056 ,76.209694,NO2,27,30,28
India,Punjab,Ludhiana,"Punjab Agricultural University, Ludhiana - PPCB",12-03-2024 12:00:00,30.9028,75.8086,PM10,80,157,122
India,Punjab,Ludhiana,"Punjab Agricultural University, Ludhiana - PPCB",12-03-2024 12:00:00,30.9028,75.8086,OZONE,11,68,18
India,Punjab,Patiala,"Model Town, Patiala - PPCB",12-03-2024 12:00:00,30.349388,76.366642,CO,20,38,34
India,Punjab,Rupnagar,"Ratanpura, Rupnagar - Ambuja Cements",12-03-2024 12:00:00,31.0325454,76.5623046,PM2.5,47,245,128
India,Rajasthan,Ajmer,"Civil Lines,  Ajmer - RSPCB",12-03-2024 12:00:00,26.470859,74.646594,NH3,4,5,5
India,Rajasthan,Baran,"Bamboliya, Baran - RSPCB",12-03-2024 12:00:00,25.106006,76.469948,NO2,11,94,27
India,Rajasthan,Bharatpur,"Krishna Nagar, Bharatpur - RSPCB",12-03-2024 12:00:00,27.215415,77.50873,PM10,99,257,159
India,Rajasthan,Bhilwara,"Pratap Nagar, Bhilwara - RSPCB",12-03-2024 12:00:00,25.339605,74.618883,NO2,17,98,36
India,Rajasthan,Bhilwara,"Pratap Nagar, Bhilwara - RSPCB",12-03-2024 12:00:00,25.339605,74.618883,CO,12,81,27
India,Rajasthan,Bhiwadi,"RIICO Ind. Area III, Bhiwadi - RSPCB",12-03-2024 12:00:00,28.194909,76.862296,PM10,122,136,135
India,Rajasthan,Bhiwadi,"Vasundhara Nagar_UIT, Bhiwadi - RSPCB",12-03-2024 12:00:00,28.207266,76.829265,NH3,5,29,13
India,Rajasthan,Bhiwadi,"Vasundhara Nagar_UIT, Bhiwadi - RSPCB",12-03-2024 12:00:00,28.207266,76.829265,OZONE,4,111,22
India,Rajasthan,Bikaner,"MM Ground, Bikaner - RSPCB",12-03-2024 12:00:00,28.018792,73.292658,CO,17,71,41
India,Rajasthan,Bundi,"New Colony, Bundi - RSPCB",12-03-2024 12:00:00,25.435774,75.644272,NO2,NA,NA,NA
India,Rajasthan,Bundi,"New Colony, Bundi - RSPCB",12-03-2024 12:00:00,25.435774,75.644272,NH3,NA,NA,NA
India,Rajasthan,Chittorgarh,"Shastri Nagar, Chittorgarh - RSPCB",12-03-2024 12:00:00,24.892047,74.623527,NH3,4,20,10
India,Rajasthan,Dholpur,"Raja Ganj, Dholpur - RSPCB",12-03-2024 12:00:00,26.699557,77.898881,NO2,7,68,25
India,Rajasthan,Dholpur,"Raja Ganj, Dholpur - RSPCB",12-03-2024 12:00:00,26.699557,77.898881,SO2,4,17,6
India,Rajasthan,Dholpur,"Raja Ganj, Dholpur - RSPCB",12-03-2024 12:00:00,26.699557,77.898881,CO,16,64,43
India,Rajasthan,Hanumangarh,"Housing Board, Hanumangarh - RSPCB",12-03-2024 12:00:00,29.610750,74.283608,NO2,16,37,25
India,Rajasthan,Jaipur,"Adarsh Nagar, Jaipur - RSPCB",12-03-2024 12:00:00,26.902909,75.836858,PM10,42,108,88
India,Rajasthan,Jaipur,"Adarsh Nagar, Jaipur - RSPCB",12-03-2024 12:00:00,26.902909,75.836858,NH3,4,11,6
India,Rajasthan,Jaipur,"Adarsh Nagar, Jaipur - RSPCB",12-03-2024 12:00:00,26.902909,75.836858,CO,5,32,22
India,Rajasthan,Jaipur,"Mansarovar Sector-12, Jaipur - RSPCB",12-03-2024 12:00:00,26.843698,75.766894,OZONE,7,18,13
India,Rajasthan,Jaipur,"Police Commissionerate, Jaipur - RSPCB",12-03-2024 12:00:00,26.9164092,75.7994901,PM2.5,44,233,89
India,Rajasthan,Jaipur,"Police Commissionerate, Jaipur - RSPCB",12-03-2024 12:00:00,26.9164092,75.7994901,PM10,81,173,118
India,Rajasthan,Jaipur,"Police Commissionerate, Jaipur - RSPCB",12-03-2024 12:00:00,26.9164092,75.7994901,OZONE,12,121,86
India,Rajasthan,Jaipur,"RIICO Sitapura, Jaipur - RSPCB",12-03-2024 12:00:00,26.786682,75.827928,PM2.5,40,315,191
India,Rajasthan,Jaipur,"Sector-2 Murlipura, Jaipur - RSPCB",12-03-2024 12:00:00,26.960669,75.771817,NO2,4,49,18
India,Rajasthan,Jaipur,"Sector-2 Murlipura, Jaipur - RSPCB",12-03-2024 12:00:00,26.960669,75.771817,CO,6,105,16
India,Rajasthan,Jaipur,"Shastri Nagar, Jaipur - RSPCB",12-03-2024 12:00:00,26.9502929,75.730943,NH3,1,20,7
India,Rajasthan,Jaisalmer,"Sadar Bazar, Jaisalmer - RSPCB",12-03-2024 12:00:00,26.912329,70.909168,NO2,14,123,35
India,Rajasthan,Jaisalmer,"Sadar Bazar, Jaisalmer - RSPCB",12-03-2024 12:00:00,26.912329,70.909168,OZONE,3,118,93
India,Rajasthan,Jalore,"Mudtra Sili, Jalore - RSPCB",12-03-2024 12:00:00,25.344694,72.626208,NH3,5,10,7
India,Rajasthan,Jalore,"Mudtra Sili, Jalore - RSPCB",12-03-2024 12:00:00,25.344694,72.626208,SO2,2,8,5
India,Rajasthan,Jalore,"Mudtra Sili, Jalore - RSPCB",12-03-2024 12:00:00,25.344694,72.626208,OZONE,9,99,43
India,Rajasthan,Jhalawar,"Rajlaxmi Nagar, Jhalawar - RSPCB",12-03-2024 12:00:00,24.588397,76.172782,SO2,5,20,9
India,Rajasthan,Jhunjhunu,"Indra Nagar, Jhunjhunu - RSPCB",12-03-2024 12:00:00,28.108988,75.386577,NO2,25,80,36
India,Rajasthan,Jodhpur,"Digari Kalan, Jodhpur - RSPCB",12-03-2024 12:00:00,26.295810,73.082283,PM10,49,166,94
India,Rajasthan,Jodhpur,"Digari Kalan, Jodhpur - RSPCB",12-03-2024 12:00:00,26.295810,73.082283,CO,16,83,30
India,Rajasthan,Jodhpur,"Jhalamand, Jodhpur - RSPCB",12-03-2024 12:00:00,26.215415,73.070156,PM2.5,19,319,103
India,Rajasthan,Jodhpur,"Jhalamand, Jodhpur - RSPCB",12-03-2024 12:00:00,26.215415,73.070156,NO2,23,50,34
India,Rajasthan,Jodhpur,"Jhalamand, Jodhpur - RSPCB",12-03-2024 12:00:00,26.215415,73.070156,OZONE,16,97,62
India,Rajasthan,Jodhpur,"Mandor, Jodhpur - RSPCB",12-03-2024 12:00:00,26.358805,73.047444,NH3,4,7,5
India,Rajasthan,Jodhpur,"Mandor, Jodhpur - RSPCB",12-03-2024 12:00:00,26.358805,73.047444,CO,8,21,18
India,Rajasthan,Jodhpur,"Samrat Ashok Udhyan, Jodhpur - RSPCB",12-03-2024 12:00:00,26.253384,72.976571,PM2.5,9,91,41
India,Rajasthan,Jodhpur,"Samrat Ashok Udhyan, Jodhpur - RSPCB",12-03-2024 12:00:00,26.253384,72.976571,SO2,2,11,5
India,Rajasthan,Karauli,"Satyawati Vihar, Karauli - RSPCB",12-03-2024 12:00:00,26.506177,77.025989,PM2.5,20,221,101
India,Rajasthan,Karauli,"Satyawati Vihar, Karauli - RSPCB",12-03-2024 12:00:00,26.506177,77.025989,PM10,28,116,75
India,Rajasthan,Karauli,"Satyawati Vihar, Karauli - RSPCB",12-03-2024 12:00:00,26.506177,77.025989,OZONE,16,38,33
India,Rajasthan,Kota,"Nayapura, Kota - RSPCB",12-03-2024 12:00:00,25.196024,75.855668,PM10,96,401,150
India,Rajasthan,Kota,"Shrinath Puram, Kota - RSPCB",12-03-2024 12:00:00,25.14389,75.821256,OZONE,8,97,46
India,Rajasthan,Pratapgarh,"Pragati Nagar, Pratapgarh - RSPCB",12-03-2024 12:00:00,24.041198,74.780702,NH3,4,9,5
India,Rajasthan,Pratapgarh,"Pragati Nagar, Pratapgarh - RSPCB",12-03-2024 12:00:00,24.041198,74.780702,CO,9,72,17
India,Rajasthan,Rajsamand,"Dhoinda, Rajsamand - RSPCB",12-03-2024 12:00:00,25.036360,73.883502,NH3,4,5,4
India,Rajasthan,Rajsamand,"Dhoinda, Rajsamand - RSPCB",12-03-2024 12:00:00,25.036360,73.883502,SO2,6,9,7
India,Rajasthan,Rajsamand,"Dhoinda, Rajsamand - RSPCB",12-03-2024 12:00:00,25.036360,73.883502,OZONE,29,83,50
India,Rajasthan,Sawai Madhopur,"Sahu Nagar, Sawai Madhopur - RSPCB",12-03-2024 12:00:00,26.031443,76.359327,PM10,60,154,97
India,Rajasthan,Sawai Madhopur,"Sahu Nagar, Sawai Madhopur - RSPCB",12-03-2024 12:00:00,26.031443,76.359327,CO,16,69,33
India,Rajasthan,Sirohi,"Vedhaynath Colony, Sirohi - RSPCB",12-03-2024 12:00:00,24.885261,72.857549,PM10,28,104,55
India,Rajasthan,Sirohi,"Vedhaynath Colony, Sirohi - RSPCB",12-03-2024 12:00:00,24.885261,72.857549,SO2,1,7,4
India,Rajasthan,Sri Ganganagar,"Old City, Sri Ganganagar - RSPCB",12-03-2024 12:00:00,29.931624,73.864511,PM10,114,408,194
India,Rajasthan,Tonk,"Shastri Nagar, Tonk - RSPCB",12-03-2024 12:00:00,26.159933,75.780517,CO,18,122,20
India,Rajasthan,Tonk,"Shastri Nagar, Tonk - RSPCB",12-03-2024 12:00:00,26.159933,75.780517,OZONE,4,41,32
India,Rajasthan,Udaipur,"Ashok Nagar, Udaipur - RSPCB",12-03-2024 12:00:00,24.5886166,73.6321397,PM2.5,44,127,77
India,Sikkim,Gangtok,"Zero Point GICI, Gangtok - SSPCB",12-03-2024 12:00:00,27.338530,88.614099,PM2.5,24,68,50
India,TamilNadu,Ariyalur,"Keelapalur, Ariyalur - TNPCB",12-03-2024 12:00:00,11.06825,79.07033,NO2,53,72,60
India,TamilNadu,Ariyalur,"Keelapalur, Ariyalur - TNPCB",12-03-2024 12:00:00,11.06825,79.07033,SO2,33,35,34
India,TamilNadu,Chengalpattu,"Crescent University, Chengalpattu - TNPCB",12-03-2024 12:00:00,12.8777316,80.0834807,SO2,19,21,20
India,TamilNadu,Chennai,"Alandur Bus Depot, Chennai - CPCB",12-03-2024 12:00:00,12.9099161,80.1076538,PM10,30,43,37
India,TamilNadu,Chennai,"Arumbakkam, Chennai - TNPCB",12-03-2024 12:00:00,13.0664,80.2112 ,NO2,8,29,15
India,TamilNadu,Chennai,"Kodungaiyur, Chennai - TNPCB",12-03-2024 12:00:00,13.1278,80.2642,NH3,3,5,3
India,TamilNadu,Chennai,"Manali, Chennai - CPCB",12-03-2024 12:00:00,13.164544,80.26285,NH3,4,5,4
India,TamilNadu,Chennai,"Perungudi, Chennai - TNPCB",12-03-2024 12:00:00,12.9533,80.2357,NO2,3,14,6
India,TamilNadu,Chennai,"Royapuram, Chennai - TNPCB",12-03-2024 12:00:00,13.1036,80.2909,CO,15,32,30
India,TamilNadu,Chennai,"Velachery Res. Area, Chennai - CPCB",12-03-2024 12:00:00,13.0052189,80.2398125,CO,1,149,71
India,TamilNadu,Cuddalore,"Kudikadu, Cuddalore - TNPCB",12-03-2024 12:00:00,11.6829898,79.7532099,PM2.5,43,88,62
India,TamilNadu,Kanchipuram,"Kilambi, Kanchipuram - TNPCB",12-03-2024 12:00:00,12.864618,79.659968,PM2.5,8,46,17
India,TamilNadu,Kanchipuram,"Kilambi, Kanchipuram - TNPCB",12-03-2024 12:00:00,12.864618,79.659968,PM10,16,106,35
India,TamilNadu,Ooty,"Bombay Castel, Ooty - TNPCB",12-03-2024 12:00:00,11.4068288,76.7138973,NO2,NA,NA,NA
India,TamilNadu,Palkalaiperur,"Bharathidasan University, Palkalaiperur - TNPCB",12-03-2024 12:00:00,10.681158,78.741746,PM2.5,32,55,44
India,TamilNadu,Ramanathapuram,"Chalai Bazaar, Ramanathapuram - TNPCB",12-03-2024 12:00:00,9.36399,78.831977,CO,NA,NA,NA
India,TamilNadu,Salem,"Sona College of Technology, Salem - TNPCB",12-03-2024 12:00:00,11.679111,78.125052,PM2.5,NA,NA,NA
India,TamilNadu,Salem,"Sona College of Technology, Salem - TNPCB",12-03-2024 12:00:00,11.679111,78.125052,PM10,NA,NA,NA
India,TamilNadu,Salem,"Sona College of Technology, Salem - TNPCB",12-03-2024 12:00:00,11.679111,78.125052,OZONE,NA,NA,NA
India,TamilNadu,Thoothukudi,"Meelavittan, Thoothukudi - TNPCB",12-03-2024 12:00:00,8.816428 ,78.099039,CO,2,36,23
India,TamilNadu,Tirupur,"Kumaran College, Tirupur - TNPCB",12-03-2024 12:00:00,11.0973603,77.3228673,PM10,78,258,145
India,TamilNadu,Tirupur,"Kumaran College, Tirupur - TNPCB",12-03-2024 12:00:00,11.0973603,77.3228673,CO,22,101,34
India,TamilNadu,Vellore,"Vasanthapuram, Vellore - TNPCB",12-03-2024 12:00:00,12.909494,79.131861,NH3,1,1,1
India,Telangana,Hyderabad,"Bollaram Industrial Area, Hyderabad - TSPCB",12-03-2024 12:00:00,17.540891,78.358528,PM2.5,58,140,80
India,Telangana,Hyderabad,"Bollaram Industrial Area, Hyderabad - TSPCB",12-03-2024 12:00:00,17.540891,78.358528,NO2,12,49,29
India,Telangana,Hyderabad,"Bollaram Industrial Area, Hyderabad - TSPCB",12-03-2024 12:00:00,17.540891,78.358528,SO2,1,55,9
India,Telangana,Hyderabad,"Central University, Hyderabad - TSPCB",12-03-2024 12:00:00,17.460103,78.334361,PM2.5,37,75,49
India,Telangana,Hyderabad,"ICRISAT Patancheru, Hyderabad - TSPCB",12-03-2024 12:00:00,17.518400,78.278777,PM2.5,41,101,61
India,Telangana,Hyderabad,"ICRISAT Patancheru, Hyderabad - TSPCB",12-03-2024 12:00:00,17.518400,78.278777,PM10,54,134,81
India,Telangana,Hyderabad,"ICRISAT Patancheru, Hyderabad - TSPCB",12-03-2024 12:00:00,17.518400,78.278777,NO2,15,17,16
India,Telangana,Hyderabad,"Kokapet, Hyderabad - TSPCB",12-03-2024 12:00:00,17.393559,78.339194,NO2,NA,NA,NA
India,Telangana,Hyderabad,"Kokapet, Hyderabad - TSPCB",12-03-2024 12:00:00,17.393559,78.339194,CO,23,24,24
India,Telangana,Hyderabad,"Kokapet, Hyderabad - TSPCB",12-03-2024 12:00:00,17.393559,78.339194,OZONE,1,13,4
India,Telangana,Hyderabad,"Kompally Municipal Office, Hyderabad - TSPCB",12-03-2024 12:00:00,17.544899,78.486949,CO,6,84,39
India,Telangana,Hyderabad,"New Malakpet, Hyderabad - TSPCB",12-03-2024 12:00:00,17.37206,78.50864,PM10,57,69,62
India,Telangana,Hyderabad,"New Malakpet, Hyderabad - TSPCB",12-03-2024 12:00:00,17.37206,78.50864,OZONE,2,22,8
India,Telangana,Hyderabad,"Ramachandrapuram, Hyderabad - TSPCB",12-03-2024 12:00:00,17.528544,78.286195,PM10,NA,NA,NA
India,Telangana,Hyderabad,"Ramachandrapuram, Hyderabad - TSPCB",12-03-2024 12:00:00,17.528544,78.286195,CO,24,24,24
India,Telangana,Hyderabad,"Sanathnagar, Hyderabad - TSPCB",12-03-2024 12:00:00,17.4559458,78.4332152,NO2,28,159,34
India,Telangana,Hyderabad,"Zoo Park, Hyderabad - TSPCB",12-03-2024 12:00:00,17.349694,78.451437,PM10,51,157,101
India,Telangana,Hyderabad,"Zoo Park, Hyderabad - TSPCB",12-03-2024 12:00:00,17.349694,78.451437,NH3,1,2,1
India,Telangana,Hyderabad,"Zoo Park, Hyderabad - TSPCB",12-03-2024 12:00:00,17.349694,78.451437,CO,24,84,44
India,Telangana,Hyderabad,"Zoo Park, Hyderabad - TSPCB",12-03-2024 12:00:00,17.349694,78.451437,OZONE,16,42,21
India,Tripura,Agartala,"Bardowali, Agartala - Tripura SPCB",12-03-2024 12:00:00,23.8175497,91.2726974,NO2,9,37,19
India,Uttar_Pradesh,Agra,"Manoharpur, Agra - UPPCB",12-03-2024 12:00:00,27.23711,78.01936,NO2,18,20,19
India,Uttar_Pradesh,Agra,"Manoharpur, Agra - UPPCB",12-03-2024 12:00:00,27.23711,78.01936,NH3,1,2,1
India,Uttar_Pradesh,Agra,"Rohta, Agra - UPPCB",12-03-2024 12:00:00,27.106972,78.000111,PM2.5,25,243,84
India,Uttar_Pradesh,Agra,"Sanjay Palace, Agra - UPPCB",12-03-2024 12:00:00,27.19865833,78.00598056,CO,30,76,59
India,Uttar_Pradesh,Agra,"Sector-3B Avas Vikas Colony, Agra - UPPCB",12-03-2024 12:00:00,27.19412,77.96237,PM2.5,20,65,36
India,Uttar_Pradesh,Agra,"Shahjahan Garden, Agra - UPPCB",12-03-2024 12:00:00,27.169338,78.03582,PM2.5,NA,NA,NA
India,Uttar_Pradesh,Agra,"Shahjahan Garden, Agra - UPPCB",12-03-2024 12:00:00,27.169338,78.03582,NO2,NA,NA,NA
India,Uttar_Pradesh,Agra,"Shahjahan Garden, Agra - UPPCB",12-03-2024 12:00:00,27.169338,78.03582,SO2,NA,NA,NA
India,Uttar_Pradesh,Agra,"Shastripuram, Agra - UPPCB",12-03-2024 12:00:00,27.19862,77.92066,NH3,1,3,1
India,Uttar_Pradesh,Baghpat,"Sardar Patel Inter College, Baghpat - UPPCB",12-03-2024 12:00:00,28.964949,77.278761,PM2.5,30,223,95
India,Uttar_Pradesh,Baghpat,"Sardar Patel Inter College, Baghpat - UPPCB",12-03-2024 12:00:00,28.964949,77.278761,NH3,1,4,2
India,Uttar_Pradesh,Baghpat,"Sardar Patel Inter College, Baghpat - UPPCB",12-03-2024 12:00:00,28.964949,77.278761,SO2,19,77,48
India,Uttar_Pradesh,Baghpat,"Sardar Patel Inter College, Baghpat - UPPCB",12-03-2024 12:00:00,28.964949,77.278761,CO,19,74,61
India,Uttar_Pradesh,Bareilly,"Civil Lines, Bareilly - UPPCB",12-03-2024 12:00:00,28.359581,79.414455,PM2.5,26,66,50
India,Uttar_Pradesh,Bareilly,"Civil Lines, Bareilly - UPPCB",12-03-2024 12:00:00,28.359581,79.414455,PM10,37,134,84
India,Uttar_Pradesh,Bareilly,"Civil Lines, Bareilly - UPPCB",12-03-2024 12:00:00,28.359581,79.414455,NH3,1,4,2
India,Uttar_Pradesh,Bareilly,"Civil Lines, Bareilly - UPPCB",12-03-2024 12:00:00,28.359581,79.414455,CO,16,60,45
India,Uttar_Pradesh,Bareilly,"Civil Lines, Bareilly - UPPCB",12-03-2024 12:00:00,28.359581,79.414455,OZONE,7,43,21
India,Uttar_Pradesh,Bulandshahr,"Yamunapuram, Bulandshahr - UPPCB",12-03-2024 12:00:00,28.406963,77.849831,SO2,26,105,53
India,Uttar_Pradesh,Firozabad,"Nagla Bhau, Firozabad - UPPCB",12-03-2024 12:00:00,27.168897,78.376960,NH3,2,2,2
India,Uttar_Pradesh,Firozabad,"Nagla Bhau, Firozabad - UPPCB",12-03-2024 12:00:00,27.168897,78.376960,CO,20,30,28
India,Uttar_Pradesh,Firozabad,"Vibhab Nagar, Firozabad - UPPCB",12-03-2024 12:00:00,27.1594,78.3953,PM10,36,106,61
India,Uttar_Pradesh,Firozabad,"Vibhab Nagar, Firozabad - UPPCB",12-03-2024 12:00:00,27.1594,78.3953,NH3,2,2,2
India,Uttar_Pradesh,Ghaziabad,"Indirapuram, Ghaziabad - UPPCB",12-03-2024 12:00:00,28.646233,77.358075,CO,20,57,50
India,Uttar_Pradesh,Ghaziabad,"Vasundhara, Ghaziabad - UPPCB",12-03-2024 12:00:00,28.6603346,77.3572563,NO2,56,122,80
India,Uttar_Pradesh,Greater Noida,"Knowledge Park - III, Greater Noida - UPPCB",12-03-2024 12:00:00,28.47272,77.482000,NH3,3,7,5
India,Uttar_Pradesh,Greater Noida,"Knowledge Park - V, Greater Noida - UPPCB",12-03-2024 12:00:00,28.557054,77.453663,PM10,122,422,230
India,Uttar_Pradesh,Greater Noida,"Knowledge Park - V, Greater Noida - UPPCB",12-03-2024 12:00:00,28.557054,77.453663,CO,34,82,49
India,Uttar_Pradesh,Jhansi,"Shivaji Nagar, Jhansi - UPPCB",12-03-2024 12:00:00,25.4547,78.6039,NH3,6,6,6
India,Uttar_Pradesh,Kanpur,"FTI Kidwai Nagar, Kanpur - UPPCB",12-03-2024 12:00:00,26.428282,80.327067,NH3,1,1,1
India,Uttar_Pradesh,Kanpur,"NSI Kalyanpur, Kanpur - UPPCB",12-03-2024 12:00:00,26.509954,80.249612,CO,40,54,50
India,Uttar_Pradesh,Kanpur,"Nehru Nagar, Kanpur - UPPCB",12-03-2024 12:00:00,26.4703136,80.3229863,NO2,1,28,8
India,Uttar_Pradesh,Kanpur,"Nehru Nagar, Kanpur - UPPCB",12-03-2024 12:00:00,26.4703136,80.3229863,SO2,1,7,2
India,Uttar_Pradesh,Khurja,"Kalindi Kunj, Khurja - UPPCB",12-03-2024 12:00:00,28.2348927,77.8683002,NO2,6,30,16
India,Uttar_Pradesh,Lucknow,"B R Ambedkar University, Lucknow - UPPCB",12-03-2024 12:00:00,26.766433,80.927299,NO2,11,12,11
India,Uttar_Pradesh,Lucknow,"B R Ambedkar University, Lucknow - UPPCB",12-03-2024 12:00:00,26.766433,80.927299,CO,26,40,34
India,Uttar_Pradesh,Lucknow,"Kendriya Vidyalaya, Lucknow - CPCB",12-03-2024 12:00:00,26.906111,80.948222,PM10,66,119,97
India,Uttar_Pradesh,Lucknow,"Kukrail Picnic Spot-1, Lucknow - UPPCB",12-03-2024 12:00:00,26.90723,80.98579,NO2,8,9,8
India,Uttar_Pradesh,Lucknow,"Kukrail Picnic Spot-1, Lucknow - UPPCB",12-03-2024 12:00:00,26.90723,80.98579,SO2,33,38,35
India,Uttar_Pradesh,Lucknow,"Kukrail Picnic Spot-1, Lucknow - UPPCB",12-03-2024 12:00:00,26.90723,80.98579,CO,14,28,25
India,Uttar_Pradesh,Lucknow,"Lalbagh, Lucknow - CPCB",12-03-2024 12:00:00,26.8458805,80.9365541,PM2.5,5,167,93
India,Uttar_Pradesh,Lucknow,"Lalbagh, Lucknow - CPCB",12-03-2024 12:00:00,26.8458805,80.9365541,OZONE,22,105,43
India,Uttar_Pradesh,Lucknow,"Talkatora District Industries Center, Lucknow - CPCB",12-03-2024 12:00:00,26.83399722,80.8917361,OZONE,2,59,13
India,Uttar_Pradesh,Meerut,"Ganga Nagar, Meerut - UPPCB",12-03-2024 12:00:00,28.999264,77.7590354,PM2.5,29,188,82
India,Uttar_Pradesh,Meerut,"Ganga Nagar, Meerut - UPPCB",12-03-2024 12:00:00,28.999264,77.7590354,SO2,17,55,35
India,Uttar_Pradesh,Meerut,"Jai Bhim Nagar, Meerut - UPPCB",12-03-2024 12:00:00,28.9535882,77.7622941,NO2,16,53,31
India,Uttar_Pradesh,Meerut,"Pallavpuram Phase 2, Meerut - UPPCB",12-03-2024 12:00:00,29.063510,77.709723,PM2.5,37,232,110
India,Uttar_Pradesh,Meerut,"Pallavpuram Phase 2, Meerut - UPPCB",12-03-2024 12:00:00,29.063510,77.709723,NO2,17,115,50
India,Uttar_Pradesh,Moradabad,"Buddhi Vihar, Moradabad - UPPCB",12-03-2024 12:00:00,28.83526,78.74460,NH3,2,2,2
India,Uttar_Pradesh,Moradabad,"Buddhi Vihar, Moradabad - UPPCB",12-03-2024 12:00:00,28.83526,78.74460,CO,26,40,36
India,Uttar_Pradesh,Moradabad,"Eco Herbal Park, Moradabad - UPPCB",12-03-2024 12:00:00,28.840739,78.697531,NO2,NA,NA,NA
India,Uttar_Pradesh,Moradabad,"Eco Herbal Park, Moradabad - UPPCB",12-03-2024 12:00:00,28.840739,78.697531,SO2,NA,NA,NA
India,Uttar_Pradesh,Moradabad,"Jigar Colony, Moradabad - UPPCB",12-03-2024 12:00:00,28.856664,78.772638,OZONE,24,37,26
India,Uttar_Pradesh,Moradabad,"Transport Nagar, Moradabad - UPPCB",12-03-2024 12:00:00,28.802625,78.753728,PM10,58,145,95
India,Uttar_Pradesh,Noida,"Sector - 62, Noida - IMD",12-03-2024 12:00:00,28.6245479,77.3577104,OZONE,3,52,13
India,Uttar_Pradesh,Noida,"Sector-1, Noida - UPPCB",12-03-2024 12:00:00,28.5898,77.3101,PM2.5,60,324,193
India,Uttar_Pradesh,Noida,"Sector-1, Noida - UPPCB",12-03-2024 12:00:00,28.5898,77.3101,PM10,118,297,176
India,Uttar_Pradesh,Prayagraj,"Jhunsi, Prayagraj - UPPCB",12-03-2024 12:00:00,25.425602,81.917152,NH3,5,5,5
India,Uttar_Pradesh,Prayagraj,"Jhunsi, Prayagraj - UPPCB",12-03-2024 12:00:00,25.425602,81.917152,OZONE,1,43,13
India,Uttar_Pradesh,Prayagraj,"Motilal Nehru NIT, Prayagraj - UPPCB",12-03-2024 12:00:00,25.494,81.863,PM2.5,21,63,44
India,Uttar_Pradesh,Prayagraj,"Motilal Nehru NIT, Prayagraj - UPPCB",12-03-2024 12:00:00,25.494,81.863,SO2,20,22,21
India,Uttar_Pradesh,Prayagraj,"Nagar Nigam, Prayagraj - UPPCB",12-03-2024 12:00:00,25.44919916 ,81.82735986 ,PM10,60,164,101
India,Uttar_Pradesh,Varanasi,"Ardhali Bazar, Varanasi - UPPCB",12-03-2024 12:00:00,25.3505986,82.9083074,PM10,17,71,38
India,Uttar_Pradesh,Varanasi,"Bhelupur, Varanasi - UPPCB",12-03-2024 12:00:00,25.301778,82.996789,NO2,7,8,8
India,Uttar_Pradesh,Varanasi,"Bhelupur, Varanasi - UPPCB",12-03-2024 12:00:00,25.301778,82.996789,NH3,1,2,1
India,Uttar_Pradesh,Varanasi,"Bhelupur, Varanasi - UPPCB",12-03-2024 12:00:00,25.301778,82.996789,SO2,24,25,25
India,Uttar_Pradesh,Varanasi,"Maldahiya, Varanasi - UPPCB",12-03-2024 12:00:00,25.32393,82.99687,CO,2,103,18
India,Uttar_Pradesh,Vrindavan,"Omex Eternity, Vrindavan - UPPCB",12-03-2024 12:00:00,27.5714090,77.6557570,SO2,39,43,40
India,Uttar_Pradesh,Vrindavan,"Omex Eternity, Vrindavan - UPPCB",12-03-2024 12:00:00,27.5714090,77.6557570,OZONE,30,34,32
India,Uttarakhand,Dehradun,"Doon University, Dehradun - UKPCB",12-03-2024 12:00:00,30.269444,78.044167,PM10,66,131,98
India,Uttarakhand,Dehradun,"Doon University, Dehradun - UKPCB",12-03-2024 12:00:00,30.269444,78.044167,NO2,1,1,1
India,Uttarakhand,Dehradun,"Doon University, Dehradun - UKPCB",12-03-2024 12:00:00,30.269444,78.044167,OZONE,35,122,57
India,Uttarakhand,Rishikesh,"Shivaji Nagar, Rishikesh - UKPCB",12-03-2024 12:00:00,30.075911,78.2859547,PM10,52,100,73
India,West_Bengal,Asansol,"Asansol Court Area, Asansol - WBPCB",12-03-2024 12:00:00,23.685297,86.945968,NO2,7,202,45
India,West_Bengal,Barrackpore,"SVSPA Campus, Barrackpore - WBPCB",12-03-2024 12:00:00,22.7605581,88.3617589,PM2.5,NA,NA,NA
India,West_Bengal,Barrackpore,"SVSPA Campus, Barrackpore - WBPCB",12-03-2024 12:00:00,22.7605581,88.3617589,SO2,12,31,17
India,West_Bengal,Barrackpore,"SVSPA Campus, Barrackpore - WBPCB",12-03-2024 12:00:00,22.7605581,88.3617589,OZONE,NA,NA,NA
India,West_Bengal,Durgapur,"Sidhu Kanhu Indoor Stadium, Durgapur - WBPCB",12-03-2024 12:00:00,23.5404352,87.2892225,PM2.5,95,256,161
India,West_Bengal,Durgapur,"Sidhu Kanhu Indoor Stadium, Durgapur - WBPCB",12-03-2024 12:00:00,23.5404352,87.2892225,PM10,114,191,145
India,West_Bengal,Durgapur,"Sidhu Kanhu Indoor Stadium, Durgapur - WBPCB",12-03-2024 12:00:00,23.5404352,87.2892225,OZONE,4,64,19
India,West_Bengal,Haldia,"Priyambada Housing Estate, Haldia - WBPCB",12-03-2024 12:00:00,22.06047,88.109737,PM10,33,128,80
India,West_Bengal,Howrah,"Belur Math, Howrah - WBPCB",12-03-2024 12:00:00,22.629801,88.352017,NH3,3,6,4
India,West_Bengal,Kolkata,"Bidhannagar, Kolkata - WBPCB",12-03-2024 12:00:00,22.58157048,88.41002457,SO2,5,37,14
India,West_Bengal,Kolkata,"Bidhannagar, Kolkata - WBPCB",12-03-2024 12:00:00,22.58157048,88.41002457,OZONE,7,26,10
India,West_Bengal,Kolkata,"Fort William, Kolkata - WBPCB",12-03-2024 12:00:00,22.556640,88.342674,PM2.5,43,126,82
India,West_Bengal,Kolkata,"Fort William, Kolkata - WBPCB",12-03-2024 12:00:00,22.556640,88.342674,NO2,32,131,54
India,West_Bengal,Kolkata,"Jadavpur, Kolkata - WBPCB",12-03-2024 12:00:00,22.49929,88.36917,NO2,1,7,3
India,West_Bengal,Kolkata,"Jadavpur, Kolkata - WBPCB",12-03-2024 12:00:00,22.49929,88.36917,CO,20,32,23
India,West_Bengal,Kolkata,"Rabindra Sarobar, Kolkata - WBPCB",12-03-2024 12:00:00,22.51106,88.35142,PM2.5,48,96,75
India,West_Bengal,Siliguri,"Ward-32 Bapupara, Siliguri - WBPCB",12-03-2024 12:00:00,26.6879226,88.4152495,SO2,12,19,14
India,West_Bengal,Siliguri,"Ward-32 Bapupara, Siliguri - WBPCB",12-03-2024 12:00:00,26.6879226,88.4152495,OZONE,9,82,31
India,Andhra_Pradesh,Amaravati,"Secretariat, Amaravati - APPCB",12-03-2024 12:00:00,16.5150833,80.5181667,PM10,58,86,67
India,Andhra_Pradesh,Amaravati,"Secretariat, Amaravati - APPCB",12-03-2024 12:00:00,16.5150833,80.5181667,SO2,10,16,12
India,Andhra_Pradesh,Chittoor,"Gangineni Cheruvu, Chittoor - APPCB",12-03-2024 12:00:00,13.204880,79.097889,PM2.5,NA,NA,NA
India,Andhra_Pradesh,Chittoor,"Gangineni Cheruvu, Chittoor - APPCB",12-03-2024 12:00:00,13.204880,79.097889,PM10,NA,NA,NA
India,Andhra_Pradesh,Chittoor,"Gangineni Cheruvu, Chittoor - APPCB",12-03-2024 12:00:00,13.204880,79.097889,OZONE,NA,NA,NA
India,Andhra_Pradesh,Rajamahendravaram,"Anand Kala Kshetram, Rajamahendravaram - APPCB",12-03-2024 12:00:00,16.9872867,81.7363176,SO2,11,14,12
India,Andhra_Pradesh,Rajamahendravaram,"Anand Kala Kshetram, Rajamahendravaram - APPCB",12-03-2024 12:00:00,16.9872867,81.7363176,CO,14,38,28
India,Andhra_Pradesh,Tirupati,"Tirumala, Tirupati - APPCB",12-03-2024 12:00:00,13.67,79.35,PM10,48,118,81
India,Andhra_Pradesh,Tirupati,"Tirumala, Tirupati - APPCB",12-03-2024 12:00:00,13.67,79.35,NO2,17,47,29
India,Andhra_Pradesh,Tirupati,"Vaikuntapuram, Tirupati - APPCB",12-03-2024 12:00:00,13.615387,79.409230,NH3,2,3,3
India,Andhra_Pradesh,Vijayawada,"HB Colony, Vijayawada - APPCB",12-03-2024 12:00:00,16.536107,80.594233,PM10,63,82,73
India,Andhra_Pradesh,Vijayawada,"HB Colony, Vijayawada - APPCB",12-03-2024 12:00:00,16.536107,80.594233,NH3,4,4,4
India,Andhra_Pradesh,Vijayawada,"Kanuru, Vijayawada - APPCB",12-03-2024 12:00:00,16.486692,80.699436,PM10,73,91,81
India,Andhra_Pradesh,Vijayawada,"Kanuru, Vijayawada - APPCB",12-03-2024 12:00:00,16.486692,80.699436,SO2,5,12,8
India,Andhra_Pradesh,Vijayawada,"Rajiv Gandhi Park, Vijayawada - APPCB",12-03-2024 12:00:00,16.509717,80.612222,PM2.5,44,76,61
India,Andhra_Pradesh,Vijayawada,"Rajiv Gandhi Park, Vijayawada - APPCB",12-03-2024 12:00:00,16.509717,80.612222,PM10,45,81,63
India,Andhra_Pradesh,Visakhapatnam,"GVM Corporation, Visakhapatnam - APPCB",12-03-2024 12:00:00,17.72,83.3,PM2.5,42,143,80
India,Andhra_Pradesh,Visakhapatnam,"GVM Corporation, Visakhapatnam - APPCB",12-03-2024 12:00:00,17.72,83.3,SO2,10,13,12
India,Assam,Byrnihat,"Central Academy for SFS, Byrnihat - PCBA",12-03-2024 12:00:00,26.071318,91.87488,NO2,42,96,58
India,Assam,Guwahati,"IITG, Guwahati - PCBA",12-03-2024 12:00:00,26.2028636,91.70046436,PM2.5,NA,NA,NA
India,Assam,Guwahati,"IITG, Guwahati - PCBA",12-03-2024 12:00:00,26.2028636,91.70046436,SO2,NA,NA,NA
India,Assam,Guwahati,"Pan Bazaar, Guwahati - PCBA",12-03-2024 12:00:00,26.187500,91.744194,PM2.5,96,311,235
India,Assam,Guwahati,"Pan Bazaar, Guwahati - PCBA",12-03-2024 12:00:00,26.187500,91.744194,PM10,127,347,219
India,Assam,Guwahati,"Railway Colony, Guwahati - PCBA",12-03-2024 12:00:00,26.181742,91.78063,SO2,5,10,8
India,Assam,Guwahati,"Railway Colony, Guwahati - PCBA",12-03-2024 12:00:00,26.181742,91.78063,OZONE,1,28,19
India,Assam,Nagaon,"Christianpatty, Nagaon - PCBA",12-03-2024 12:00:00,26.349082,92.68449,PM2.5,92,345,200
India,Assam,Nalbari,"Bata Chowk, Nalbari - PCBA",12-03-2024 12:00:00,26.446912,91.439057,PM2.5,150,347,282
India,Assam,Sivasagar,"Girls College, Sivasagar - PCBA",12-03-2024 12:00:00,26.987634,94.636574,SO2,5,11,8
India,Bihar,Araria,"Kharahiya Basti, Araria - BSPCB",12-03-2024 12:00:00,26.146529,87.454184,NO2,6,8,7
India,Bihar,Araria,"Kharahiya Basti, Araria - BSPCB",12-03-2024 12:00:00,26.146529,87.454184,NH3,7,8,8
India,Bihar,Araria,"Kharahiya Basti, Araria - BSPCB",12-03-2024 12:00:00,26.146529,87.454184,CO,22,36,32
India,Bihar,Aurangabad,"Gurdeo Nagar, Aurangabad - BSPCB",12-03-2024 12:00:00,24.75746,84.366208,NO2,3,5,5
India,Bihar,Aurangabad,"Gurdeo Nagar, Aurangabad - BSPCB",12-03-2024 12:00:00,24.75746,84.366208,NH3,5,12,8
India,Bihar,Aurangabad,"Gurdeo Nagar, Aurangabad - BSPCB",12-03-2024 12:00:00,24.75746,84.366208,SO2,4,17,10
India,Bihar,Aurangabad,"Gurdeo Nagar, Aurangabad - BSPCB",12-03-2024 12:00:00,24.75746,84.366208,OZONE,5,74,31
India,Bihar,Bettiah,"Kamalnath Nagar, Bettiah - BSPCB",12-03-2024 12:00:00,26.80365,84.51954,PM2.5,47,307,164
India,Bihar,Bhagalpur,"DM Office_Kachari Chowk, Bhagalpur - BSPCB",12-03-2024 12:00:00,25.251013,86.989001,PM2.5,37,345,154
India,Bihar,Bhagalpur,"DM Office_Kachari Chowk, Bhagalpur - BSPCB",12-03-2024 12:00:00,25.251013,86.989001,PM10,84,420,158
India,Bihar,Bhagalpur,"DM Office_Kachari Chowk, Bhagalpur - BSPCB",12-03-2024 12:00:00,25.251013,86.989001,NO2,30,156,62
India,Bihar,Bhagalpur,"DM Office_Kachari Chowk, Bhagalpur - BSPCB",12-03-2024 12:00:00,25.251013,86.989001,CO,42,108,45
India,Bihar,Bhagalpur,"Mayaganj, Bhagalpur - BSPCB",12-03-2024 12:00:00,25.265194,87.012947,PM2.5,50,324,195
India,Bihar,Bihar Sharif,"D M Colony, Bihar Sharif - BSPCB",12-03-2024 12:00:00,25.204762,85.514960,CO,6,54,21
India,Bihar,Chhapra,"Darshan Nagar, Chhapra - BSPCB",12-03-2024 12:00:00,25.7808257,84.7446768,NH3,7,13,10
India,Bihar,Chhapra,"Darshan Nagar, Chhapra - BSPCB",12-03-2024 12:00:00,25.7808257,84.7446768,OZONE,NA,NA,NA
India,Bihar,Gaya,"Collectorate, Gaya - BSPCB",12-03-2024 12:00:00,24.7955,84.9994,SO2,5,23,12
India,Bihar,Gaya,"Collectorate, Gaya - BSPCB",12-03-2024 12:00:00,24.7955,84.9994,OZONE,50,78,60
India,Bihar,Gaya,"Kareemganj, Gaya - BSPCB",12-03-2024 12:00:00,24.792403,84.992416,OZONE,3,41,16
India,Bihar,Gaya,"SFTI Kusdihra, Gaya - BSPCB",12-03-2024 12:00:00,24.762518,84.982348,OZONE,2,77,20
India,Bihar,Katihar,"Mirchaibari, Katihar - BSPCB",12-03-2024 12:00:00,25.560083,87.553265,CO,14,88,57
India,Bihar,Motihari,"Gandak Colony, Motihari - BSPCB",12-03-2024 12:00:00,26.63086,84.90051,NO2,NA,NA,NA
India,Bihar,Motihari,"Gandak Colony, Motihari - BSPCB",12-03-2024 12:00:00,26.63086,84.90051,NH3,NA,NA,NA
India,Bihar,Munger,"Town Hall, Munger - BSPCB",12-03-2024 12:00:00,25.376776,86.471523,PM10,69,464,152
India,Bihar,Munger,"Town Hall, Munger - BSPCB",12-03-2024 12:00:00,25.376776,86.471523,CO,4,14,4
India,Bihar,Munger,"Town Hall, Munger - BSPCB",12-03-2024 12:00:00,25.376776,86.471523,OZONE,9,27,14
India,Bihar,Muzaffarpur,"Buddha Colony, Muzaffarpur - BSPCB",12-03-2024 12:00:00,26.11442,85.39813,NH3,NA,NA,NA
India,Bihar,Muzaffarpur,"Buddha Colony, Muzaffarpur - BSPCB",12-03-2024 12:00:00,26.11442,85.39813,OZONE,20,40,30
India,Bihar,Patna,"DRM Office Danapur, Patna - BSPCB",12-03-2024 12:00:00,25.586562,85.043586,PM2.5,90,174,116
India,Bihar,Patna,"DRM Office Danapur, Patna - BSPCB",12-03-2024 12:00:00,25.586562,85.043586,CO,24,103,44
India,Bihar,Patna,"Muradpur, Patna - BSPCB",12-03-2024 12:00:00,25.619651,85.147382,PM2.5,71,305,208
India,Bihar,Patna,"Muradpur, Patna - BSPCB",12-03-2024 12:00:00,25.619651,85.147382,NH3,2,5,3
India,Bihar,Patna,"Rajbansi Nagar, Patna - BSPCB",12-03-2024 12:00:00,25.599486,85.113666,NH3,2,4,3
India,Bihar,Patna,"Rajbansi Nagar, Patna - BSPCB",12-03-2024 12:00:00,25.599486,85.113666,SO2,1,12,6
India,Bihar,Patna,"Samanpura, Patna - BSPCB",12-03-2024 12:00:00,25.596727,85.085624,CO,69,132,106
India,Bihar,Patna,"Samanpura, Patna - BSPCB",12-03-2024 12:00:00,25.596727,85.085624,OZONE,5,28,19
India,Bihar,Purnia,"Mariam Nagar, Purnia - BSPCB",12-03-2024 12:00:00,25.366336,87.117468,PM10,70,140,111
India,Bihar,Purnia,"Mariam Nagar, Purnia - BSPCB",12-03-2024 12:00:00,25.366336,87.117468,SO2,17,23,21
India,Bihar,Rajgir,"Dangi Tola, Rajgir - BSPCB",12-03-2024 12:00:00,25.03280,85.41948,PM10,31,292,81
India,Bihar,Rajgir,"Dangi Tola, Rajgir - BSPCB",12-03-2024 12:00:00,25.03280,85.41948,SO2,4,4,4
India,Bihar,Rajgir,"Dangi Tola, Rajgir - BSPCB",12-03-2024 12:00:00,25.03280,85.41948,CO,10,11,10
India,Bihar,Saharsa,"Police Line, Saharsa - BSPCB",12-03-2024 12:00:00,25.892357,86.590325,PM10,59,165,116
India,Bihar,Saharsa,"Police Line, Saharsa - BSPCB",12-03-2024 12:00:00,25.892357,86.590325,OZONE,17,60,31
India,Bihar,Samastipur,"DM Office_Kasipur, Samastipur - BSPCB",12-03-2024 12:00:00,25.859655,85.77944,CO,16,35,31
India,Bihar,Samastipur,"DM Office_Kasipur, Samastipur - BSPCB",12-03-2024 12:00:00,25.859655,85.77944,OZONE,9,27,14
India,Bihar,Siwan,"Chitragupta Nagar, Siwan - BSPCB",12-03-2024 12:00:00,26.2271665,84.3570427,CO,71,148,93
India,Chandigarh,Chandigarh,"Sector 22, Chandigarh - CPCC",12-03-2024 12:00:00,30.735567,76.775714,SO2,13,76,26
India,Chandigarh,Chandigarh,"Sector-25, Chandigarh - CPCC",12-03-2024 12:00:00,30.751462,76.762879,PM10,126,151,137
India,Chandigarh,Chandigarh,"Sector-25, Chandigarh - CPCC",12-03-2024 12:00:00,30.751462,76.762879,NH3,13,21,16
India,Chhattisgarh,Bhilai,"32Bungalows, Bhilai - CECB",12-03-2024 12:00:00,21.194815,81.314770,PM2.5,43,71,51
India,Chhattisgarh,Bhilai,"32Bungalows, Bhilai - CECB",12-03-2024 12:00:00,21.194815,81.314770,NO2,24,38,34
India,Chhattisgarh,Bhilai,"32Bungalows, Bhilai - CECB",12-03-2024 12:00:00,21.194815,81.314770,NH3,6,6,6
India,Chhattisgarh,Bhilai,"Hathkhoj, Bhilai - CECB",12-03-2024 12:00:00,21.224231,81.408350,SO2,14,36,21
India,Chhattisgarh,Bilaspur,"Mangala, Bilaspur - NTPC",12-03-2024 12:00:00,22.08815,82.13737,NO2,11,15,13
India,Chhattisgarh,Korba,"Urja Nagar, Korba - CECB",12-03-2024 12:00:00,22.348441,82.549611,PM10,47,485,160
India,Chhattisgarh,Kunjemura,"OP Jindal School, Kunjemura - CECB",12-03-2024 12:00:00,22.126650,83.483212,PM10,54,410,174
India,Chhattisgarh,Kunjemura,"OP Jindal School, Kunjemura - CECB",12-03-2024 12:00:00,22.126650,83.483212,NO2,14,133,62
India,Chhattisgarh,Kunjemura,"OP Jindal School, Kunjemura - CECB",12-03-2024 12:00:00,22.126650,83.483212,CO,24,56,39
India,Chhattisgarh,Kunjemura,"OP Jindal School, Kunjemura - CECB",12-03-2024 12:00:00,22.126650,83.483212,OZONE,4,93,29
India,Chhattisgarh,Milupara,"Govt. Higher Secondary School, Milupara - CECB",12-03-2024 12:00:00,22.1910172,83.5197009,NO2,NA,NA,NA
India,Chhattisgarh,Milupara,"Govt. Higher Secondary School, Milupara - CECB",12-03-2024 12:00:00,22.1910172,83.5197009,SO2,NA,NA,NA
India,Chhattisgarh,Raipur,"AIIMS, Raipur - CECB",12-03-2024 12:00:00,21.258815,81.578979,PM10,48,112,70
India,Chhattisgarh,Raipur,"AIIMS, Raipur - CECB",12-03-2024 12:00:00,21.258815,81.578979,OZONE,1,23,5
India,Chhattisgarh,Raipur,"Bhatagaon New ISBT, Raipur - CECB",12-03-2024 12:00:00,21.219665,81.630094,NH3,3,3,3
India,Chhattisgarh,Raipur,"Bhatagaon New ISBT, Raipur - CECB",12-03-2024 12:00:00,21.219665,81.630094,CO,24,58,38
India,Chhattisgarh,Raipur,"Bhatagaon New ISBT, Raipur - CECB",12-03-2024 12:00:00,21.219665,81.630094,OZONE,3,7,4
India,Chhattisgarh,Raipur,"Siltara Phase-II, Raipur - CECB",12-03-2024 12:00:00,21.371751,81.664929,OZONE,3,45,8
India,Chhattisgarh,Tumidih,"OP Jindal Industrial Park, Tumidih - CECB",12-03-2024 12:00:00,22.06631475,83.33820077,NO2,NA,NA,NA
India,Chhattisgarh,Tumidih,"OP Jindal Industrial Park, Tumidih - CECB",12-03-2024 12:00:00,22.06631475,83.33820077,SO2,NA,NA,NA
India,Delhi,Delhi,"Alipur, Delhi - DPCC",12-03-2024 12:00:00,28.815329,77.153010,PM10,NA,NA,NA
India,Delhi,Delhi,"Alipur, Delhi - DPCC",12-03-2024 12:00:00,28.815329,77.153010,OZONE,48,191,96
India,Delhi,Delhi,"Ashok Vihar, Delhi - DPCC",12-03-2024 12:00:00,28.695381,77.181665,OZONE,4,25,7
India,Delhi,Delhi,"Dr. Karni Singh Shooting Range, Delhi - DPCC",12-03-2024 12:00:00,28.498571,77.264840,PM2.5,54,319,184
India,Delhi,Delhi,"Dr. Karni Singh Shooting Range, Delhi - DPCC",12-03-2024 12:00:00,28.498571,77.264840,NH3,6,25,12
India,Delhi,Delhi,"IGI Airport (T3), Delhi - IMD",12-03-2024 12:00:00,28.5627763,77.1180053,PM10,80,409,142
India,Delhi,Delhi,"IHBAS, Dilshad Garden, Delhi - CPCB",12-03-2024 12:00:00,28.6811736,77.3025234,PM10,107,234,152
India,Delhi,Delhi,"IHBAS, Dilshad Garden, Delhi - CPCB",12-03-2024 12:00:00,28.6811736,77.3025234,NO2,27,86,39
India,Delhi,Delhi,"IHBAS, Dilshad Garden, Delhi - CPCB",12-03-2024 12:00:00,28.6811736,77.3025234,CO,65,119,85
India,Delhi,Delhi,"IHBAS, Dilshad Garden, Delhi - CPCB",12-03-2024 12:00:00,28.6811736,77.3025234,OZONE,9,43,22
India,Delhi,Delhi,"ITO, Delhi - CPCB",12-03-2024 12:00:00,28.628624,77.241060,PM2.5,70,357,202
India,Delhi,Delhi,"Jawaharlal Nehru Stadium, Delhi - DPCC",12-03-2024 12:00:00,28.580280,77.233829,PM2.5,55,327,138
India,Delhi,Delhi,"Jawaharlal Nehru Stadium, Delhi - DPCC",12-03-2024 12:00:00,28.580280,77.233829,NO2,32,126,86
India,Delhi,Delhi,"Lodhi Road, Delhi - IITM",12-03-2024 12:00:00,28.588333,77.221667,NO2,81,120,90
India,Delhi,Delhi,"Lodhi Road, Delhi - IITM",12-03-2024 12:00:00,28.588333,77.221667,NH3,8,10,9
India,Delhi,Delhi,"Lodhi Road, Delhi - IITM",12-03-2024 12:00:00,28.588333,77.221667,CO,60,70,67
India,Delhi,Delhi,"Lodhi Road, Delhi - IMD",12-03-2024 12:00:00,28.5918245,77.2273074,NO2,3,14,8
India,Delhi,Delhi,"Major Dhyan Chand National Stadium, Delhi - DPCC",12-03-2024 12:00:00,28.611281,77.237738,NH3,7,11,8
India,Delhi,Delhi,"Mandir Marg, Delhi - DPCC",12-03-2024 12:00:00,28.636429,77.201067,NH3,10,13,12
India,Delhi,Delhi,"NSIT Dwarka, Delhi - CPCB",12-03-2024 12:00:00,28.60909,77.0325413,NO2,30,65,48
India,Delhi,Delhi,"Najafgarh, Delhi - DPCC",12-03-2024 12:00:00,28.570173,76.933762,NH3,10,13,12
India,Delhi,Delhi,"Najafgarh, Delhi - DPCC",12-03-2024 12:00:00,28.570173,76.933762,SO2,8,16,12
India,Delhi,Delhi,"Narela, Delhi - DPCC",12-03-2024 12:00:00,28.822836,77.101981,PM10,91,402,196
India,Delhi,Delhi,"Nehru Nagar, Delhi - DPCC",12-03-2024 12:00:00,28.567890,77.250515,NO2,11,25,18
India,Delhi,Delhi,"Nehru Nagar, Delhi - DPCC",12-03-2024 12:00:00,28.567890,77.250515,CO,46,88,61
India,Delhi,Delhi,"Okhla Phase-2, Delhi - DPCC",12-03-2024 12:00:00,28.530785,77.271255,PM2.5,61,327,182
India,Delhi,Delhi,"Okhla Phase-2, Delhi - DPCC",12-03-2024 12:00:00,28.530785,77.271255,SO2,11,13,12
India,Delhi,Delhi,"Okhla Phase-2, Delhi - DPCC",12-03-2024 12:00:00,28.530785,77.271255,CO,20,88,73
India,Delhi,Delhi,"Punjabi Bagh, Delhi - DPCC",12-03-2024 12:00:00,28.674045,77.131023,PM10,114,317,168
India,Delhi,Delhi,"Punjabi Bagh, Delhi - DPCC",12-03-2024 12:00:00,28.674045,77.131023,NO2,16,35,24
India,Delhi,Delhi,"Pusa, Delhi - DPCC",12-03-2024 12:00:00,28.639652,77.146275,SO2,8,38,21
India,Delhi,Delhi,"R K Puram, Delhi - DPCC",12-03-2024 12:00:00,28.563262,77.186937,SO2,7,43,21
India,Delhi,Delhi,"Rohini, Delhi - DPCC",12-03-2024 12:00:00,28.732528,77.119920,PM10,108,341,177
India,Delhi,Delhi,"Rohini, Delhi - DPCC",12-03-2024 12:00:00,28.732528,77.119920,NO2,20,79,45
India,Delhi,Delhi,"Rohini, Delhi - DPCC",12-03-2024 12:00:00,28.732528,77.119920,NH3,7,12,10
India,Delhi,Delhi,"Rohini, Delhi - DPCC",12-03-2024 12:00:00,28.732528,77.119920,SO2,11,54,22
India,Delhi,Delhi,"Rohini, Delhi - DPCC",12-03-2024 12:00:00,28.732528,77.119920,CO,22,102,54
India,Delhi,Delhi,"Sirifort, Delhi - CPCB",12-03-2024 12:00:00,28.5504249,77.2159377,PM10,108,242,146
India,Delhi,Delhi,"Sirifort, Delhi - CPCB",12-03-2024 12:00:00,28.5504249,77.2159377,SO2,40,49,42
India,Delhi,Delhi,"Sonia Vihar, Delhi - DPCC",12-03-2024 12:00:00,28.710508,77.249485,PM10,107,288,168
India,Delhi,Delhi,"Sonia Vihar, Delhi - DPCC",12-03-2024 12:00:00,28.710508,77.249485,OZONE,17,268,173
India,Delhi,Delhi,"Sri Aurobindo Marg, Delhi - DPCC",12-03-2024 12:00:00,28.531346,77.190156,CO,4,54,42
India,Delhi,Delhi,"Vivek Vihar, Delhi - DPCC",12-03-2024 12:00:00,28.672342,77.315260,PM2.5,NA,NA,NA
India,Delhi,Delhi,"Vivek Vihar, Delhi - DPCC",12-03-2024 12:00:00,28.672342,77.315260,PM10,NA,NA,NA
India,Delhi,Delhi,"Wazirpur, Delhi - DPCC",12-03-2024 12:00:00,28.699793,77.165453,PM2.5,73,371,188
India,Delhi,Delhi,"Wazirpur, Delhi - DPCC",12-03-2024 12:00:00,28.699793,77.165453,CO,30,101,53
India,Gujarat,Ahmedabad,"Chandkheda, Ahmedabad - IITM",12-03-2024 12:00:00,23.107969,72.574648,SO2,5,10,7
India,Gujarat,Ahmedabad,"Chandkheda, Ahmedabad - IITM",12-03-2024 12:00:00,23.107969,72.574648,CO,11,66,29
India,Gujarat,Ahmedabad,"Gyaspur, Ahmedabad - IITM",12-03-2024 12:00:00,22.977134,72.553024,CO,22,26,25
India,Gujarat,Ahmedabad,"Gyaspur, Ahmedabad - IITM",12-03-2024 12:00:00,22.977134,72.553024,OZONE,8,52,30
India,Gujarat,Ahmedabad,"Maninagar, Ahmedabad - GPCB",12-03-2024 12:00:00,23.002657,72.591912,CO,12,86,42
India,Gujarat,Ahmedabad,"Rakhial, Ahmedabad - IITM",12-03-2024 12:00:00,23.016834,72.625775,PM2.5,13,130,55
India,Gujarat,Ahmedabad,"SAC ISRO Satellite, Ahmedabad - IITM",12-03-2024 12:00:00,23.023389,72.515201,PM2.5,121,176,147
India,Gujarat,Ahmedabad,"SVPI Airport Hansol, Ahmedabad - IITM",12-03-2024 12:00:00,23.076793,72.627874,CO,22,54,31
India,Gujarat,Ahmedabad,"Sardar Vallabhbhai Patel Stadium, Ahmedabad - IITM",12-03-2024 12:00:00,23.043070,72.562968,CO,30,59,36
India,Gujarat,Ankleshwar,"GIDC, Ankleshwar - GPCB",12-03-2024 12:00:00,21.613267,73.010555,PM2.5,36,119,66
India,Gujarat,Gandhinagar,"IIPHG Lekawada, Gandhinagar - IITM",12-03-2024 12:00:00,23.243639,72.68994,SO2,11,12,11
India,Gujarat,Gandhinagar,"Sector-10, Gandhinagar - GPCB",12-03-2024 12:00:00,23.221714,72.654328,PM10,24,99,55
India,Gujarat,Nandesari,"GIDC, Nandesari - Nandesari Ind. Association",12-03-2024 12:00:00,22.410802,73.097923,SO2,1,14,8
India,Gujarat,Vapi,"Phase-1 GIDC, Vapi - GPCB",12-03-2024 12:00:00,20.362421,72.918013,PM2.5,47,118,81
India,Gujarat,Vapi,"Phase-1 GIDC, Vapi - GPCB",12-03-2024 12:00:00,20.362421,72.918013,PM10,78,127,107
India,Gujarat,Vapi,"Phase-1 GIDC, Vapi - GPCB",12-03-2024 12:00:00,20.362421,72.918013,NH3,9,9,9
India,Gujarat,Vapi,"Phase-1 GIDC, Vapi - GPCB",12-03-2024 12:00:00,20.362421,72.918013,CO,102,192,53
India,Haryana,Ambala,"Patti Mehar, Ambala - HSPCB",12-03-2024 12:00:00,30.379589,76.778328,PM10,49,76,64
India,Haryana,Ambala,"Patti Mehar, Ambala - HSPCB",12-03-2024 12:00:00,30.379589,76.778328,NO2,7,9,8
India,Haryana,Ambala,"Patti Mehar, Ambala - HSPCB",12-03-2024 12:00:00,30.379589,76.778328,NH3,8,8,8
India,Haryana,Ballabgarh,"Nathu Colony, Ballabgarh - HSPCB",12-03-2024 12:00:00,28.3419248,77.319699,SO2,5,36,15
India,Haryana,Bhiwani,"H.B. Colony, Bhiwani - HSPCB",12-03-2024 12:00:00,28.806223,76.141105,NH3,6,6,6
India,Haryana,Bhiwani,"H.B. Colony, Bhiwani - HSPCB",12-03-2024 12:00:00,28.806223,76.141105,SO2,4,55,10
India,Haryana,Bhiwani,"H.B. Colony, Bhiwani - HSPCB",12-03-2024 12:00:00,28.806223,76.141105,CO,2,39,35
India,Haryana,Dharuhera,"Municipal Corporation Office, Dharuhera -  HSPCB",12-03-2024 12:00:00,28.206800,76.799700,SO2,31,54,38
India,Haryana,Faridabad,"Sector 11, Faridabad - HSPCB",12-03-2024 12:00:00,28.376058,77.315741,NO2,29,33,31
India,Haryana,Fatehabad,"Huda Sector, Fatehabad - HSPCB",12-03-2024 12:00:00,29.503664,75.467934,OZONE,82,96,92
India,Haryana,Gurugram,"Sector-51, Gurugram - HSPCB",12-03-2024 12:00:00,28.4227,77.0667,NH3,7,14,9
India,Haryana,Gurugram,"Teri Gram, Gurugram - HSPCB",12-03-2024 12:00:00,28.4275,77.1465,PM10,124,430,234
India,Haryana,Gurugram,"Teri Gram, Gurugram - HSPCB",12-03-2024 12:00:00,28.4275,77.1465,CO,6,36,33
India,Haryana,Gurugram,"Vikas Sadan, Gurugram - HSPCB",12-03-2024 12:00:00,28.4501238,77.0263051,NO2,5,26,14
India,Haryana,Hisar,"Urban Estate-II, Hisar - HSPCB",12-03-2024 12:00:00,29.140560,75.744941,SO2,5,94,57
India,Haryana,Jind,"Police Lines, Jind - HSPCB",12-03-2024 12:00:00,29.307814,76.337619,PM2.5,42,96,64
India,Haryana,Jind,"Police Lines, Jind - HSPCB",12-03-2024 12:00:00,29.307814,76.337619,NH3,2,5,3
India,Haryana,Jind,"Police Lines, Jind - HSPCB",12-03-2024 12:00:00,29.307814,76.337619,SO2,7,32,17
India,Haryana,Jind,"Police Lines, Jind - HSPCB",12-03-2024 12:00:00,29.307814,76.337619,OZONE,10,27,15
India,Haryana,Kaithal,"Rishi Nagar, Kaithal - HSPCB",12-03-2024 12:00:00,29.8006,76.4155,PM2.5,33,138,70
India,Haryana,Kaithal,"Rishi Nagar, Kaithal - HSPCB",12-03-2024 12:00:00,29.8006,76.4155,NH3,8,8,8
India,Haryana,Kaithal,"Rishi Nagar, Kaithal - HSPCB",12-03-2024 12:00:00,29.8006,76.4155,SO2,1,113,13
India,Haryana,Kaithal,"Rishi Nagar, Kaithal - HSPCB",12-03-2024 12:00:00,29.8006,76.4155,CO,6,40,26
India,Haryana,Karnal,"Sector-12, Karnal - HSPCB",12-03-2024 12:00:00,29.695300,77.002700,PM10,NA,NA,NA
India,Haryana,Karnal,"Sector-12, Karnal - HSPCB",12-03-2024 12:00:00,29.695300,77.002700,SO2,12,22,13
India,Haryana,Kurukshetra,"Sector-7, Kurukshetra - HSPCB",12-03-2024 12:00:00,29.966942,76.875879,PM2.5,50,115,77
India,Haryana,Kurukshetra,"Sector-7, Kurukshetra - HSPCB",12-03-2024 12:00:00,29.966942,76.875879,PM10,68,117,95
India,Haryana,Kurukshetra,"Sector-7, Kurukshetra - HSPCB",12-03-2024 12:00:00,29.966942,76.875879,SO2,3,139,48
India,Haryana,Mandikhera,"General Hospital, Mandikhera - HSPCB",12-03-2024 12:00:00,27.9002,76.9938,PM2.5,31,80,49
India,Haryana,Mandikhera,"General Hospital, Mandikhera - HSPCB",12-03-2024 12:00:00,27.9002,76.9938,NO2,17,21,19
India,Haryana,Mandikhera,"General Hospital, Mandikhera - HSPCB",12-03-2024 12:00:00,27.9002,76.9938,SO2,31,38,34
India,Haryana,Narnaul,"Shastri Nagar, Narnaul - HSPCB",12-03-2024 12:00:00,28.060249,76.113115,NO2,16,58,36
India,Haryana,Narnaul,"Shastri Nagar, Narnaul - HSPCB",12-03-2024 12:00:00,28.060249,76.113115,NH3,5,18,11
India,Haryana,Narnaul,"Shastri Nagar, Narnaul - HSPCB",12-03-2024 12:00:00,28.060249,76.113115,SO2,13,51,18
India,Haryana,Palwal,"Shyam Nagar, Palwal - HSPCB",12-03-2024 12:00:00,28.1485564,77.3320667,CO,26,38,35
India,Haryana,Panchkula,"Sector-6, Panchkula - HSPCB ",12-03-2024 12:00:00,30.7057778,76.8531805555555,NO2,28,30,29
India,Haryana,Panchkula,"Sector-6, Panchkula - HSPCB ",12-03-2024 12:00:00,30.7057778,76.8531805555555,SO2,11,12,12
India,Haryana,Panipat,"Sector-18, Panipat - HSPCB",12-03-2024 12:00:00,29.497973,76.993331,PM2.5,146,156,150
India,Haryana,Panipat,"Sector-18, Panipat - HSPCB",12-03-2024 12:00:00,29.497973,76.993331,NO2,31,32,31
India,Haryana,Panipat,"Sector-18, Panipat - HSPCB",12-03-2024 12:00:00,29.497973,76.993331,SO2,18,19,19
India,Haryana,Panipat,"Sector-18, Panipat - HSPCB",12-03-2024 12:00:00,29.497973,76.993331,OZONE,30,30,30
India,Haryana,Rohtak,"MD University, Rohtak - HSPCB",12-03-2024 12:00:00,28.52123,76.37138,PM2.5,11,371,192
India,Haryana,Sirsa,"F-Block, Sirsa - HSPCB",12-03-2024 12:00:00,29.536400,75.015800,SO2,41,59,52
India,Haryana,Yamuna Nagar,"Gobind Pura, Yamuna Nagar - HSPCB",12-03-2024 12:00:00,30.1480566,77.2893471,PM10,14,180,107
India,Haryana,Yamuna Nagar,"Gobind Pura, Yamuna Nagar - HSPCB",12-03-2024 12:00:00,30.1480566,77.2893471,OZONE,17,35,22
India,Jharkhand,Dhanbad,"Kalakusuma, Dhanbad - DMC",12-03-2024 12:00:00,23.811548,86.481238,PM2.5,12,89,27
India,Karnataka,Bagalkot,"Vidayagiri, Bagalkot - KSPCB",12-03-2024 12:00:00,16.172806,75.659694,NO2,9,11,9
India,Karnataka,Belgaum,"Ramteerth Nagar, Belgaum - KSPCB",12-03-2024 12:00:00,15.888653,74.541751,NO2,27,31,29
India,Karnataka,Belgaum,"Ramteerth Nagar, Belgaum - KSPCB",12-03-2024 12:00:00,15.888653,74.541751,NH3,34,34,34
India,Karnataka,Belgaum,"Ramteerth Nagar, Belgaum - KSPCB",12-03-2024 12:00:00,15.888653,74.541751,SO2,8,9,8
India,Karnataka,Bengaluru,"BTM Layout, Bengaluru - CPCB",12-03-2024 12:00:00,12.9135218,77.5950804,PM10,56,77,66
India,Karnataka,Bengaluru,"BTM Layout, Bengaluru - CPCB",12-03-2024 12:00:00,12.9135218,77.5950804,NO2,27,28,28
India,Karnataka,Bengaluru,"Bapuji Nagar, Bengaluru - KSPCB",12-03-2024 12:00:00,12.951913,77.539784,NO2,9,11,10
India,Karnataka,Bengaluru,"Bapuji Nagar, Bengaluru - KSPCB",12-03-2024 12:00:00,12.951913,77.539784,CO,36,50,43
India,Karnataka,Bengaluru,"Jayanagar 5th Block, Bengaluru - KSPCB",12-03-2024 12:00:00,12.920984,77.584908,PM10,80,132,107
India,Karnataka,Bengaluru,"Jayanagar 5th Block, Bengaluru - KSPCB",12-03-2024 12:00:00,12.920984,77.584908,NH3,4,5,4
India,Karnataka,Bengaluru,"Jigani, Bengaluru - KSPCB",12-03-2024 12:00:00,12.7816279,77.6299145,NH3,NA,NA,NA
India,Karnataka,Bengaluru,"Kasturi Nagar, Bengaluru - KSPCB",12-03-2024 12:00:00,13.003872,77.664217,CO,21,28,23
India,Karnataka,Bengaluru,"Peenya, Bengaluru - CPCB",12-03-2024 12:00:00,13.0270199,77.494094,NH3,2,4,3
India,Karnataka,Bengaluru,"Peenya, Bengaluru - CPCB",12-03-2024 12:00:00,13.0270199,77.494094,OZONE,38,115,53
India,Karnataka,Bengaluru,"RVCE-Mailasandra, Bengaluru - KSPCB",12-03-2024 12:00:00,12.921418,77.502466,PM2.5,254,323,304
India,Karnataka,Bengaluru,"Sanegurava Halli, Bengaluru - KSPCB",12-03-2024 12:00:00,12.990328,77.5431385,NO2,NA,NA,NA
India,Karnataka,Bengaluru,"Sanegurava Halli, Bengaluru - KSPCB",12-03-2024 12:00:00,12.990328,77.5431385,SO2,NA,NA,NA
India,Karnataka,Bengaluru,"Shivapura_Peenya, Bengaluru - KSPCB",12-03-2024 12:00:00,13.0246342,77.5080115,PM2.5,36,148,89
India,Karnataka,Bengaluru,"Shivapura_Peenya, Bengaluru - KSPCB",12-03-2024 12:00:00,13.0246342,77.5080115,CO,26,49,32
India,Karnataka,Bengaluru,"Silk Board, Bengaluru - KSPCB",12-03-2024 12:00:00,12.917348,77.622813,NH3,2,3,2
India,Karnataka,Chamarajanagar,"Urban, Chamarajanagar - KSPCB",12-03-2024 12:00:00,11.55358,76.55521,PM10,35,66,49
India,Karnataka,Chikkamagaluru,"Kalyana Nagara, Chikkamagaluru - KSPCB",12-03-2024 12:00:00,13.328028,75.797056,SO2,NA,NA,NA
India,Karnataka,Davanagere,"Devaraj Urs Badavane, Davanagere - KSPCB",12-03-2024 12:00:00,14.475800,75.905200,PM2.5,48,99,68
India,Karnataka,Davanagere,"Devaraj Urs Badavane, Davanagere - KSPCB",12-03-2024 12:00:00,14.475800,75.905200,NH3,1,1,1
India,Karnataka,Dharwad,"Kalabhavan, Dharwad - KSPCB",12-03-2024 12:00:00,15.459706,75.008381,SO2,4,28,8
India,Karnataka,Gadag,"Panchal Nagar, Gadag - KSPCB",12-03-2024 12:00:00,15.411456,75.638133,PM2.5,29,71,52
India,Karnataka,Hassan,"B.Katihalli, Hassan - KSPCB",12-03-2024 12:00:00,13.008556,76.125258,PM10,43,96,74
India,Karnataka,Hassan,"B.Katihalli, Hassan - KSPCB",12-03-2024 12:00:00,13.008556,76.125258,NO2,5,33,18
India,Karnataka,Hassan,"B.Katihalli, Hassan - KSPCB",12-03-2024 12:00:00,13.008556,76.125258,SO2,13,23,16
India,Karnataka,Hassan,"B.Katihalli, Hassan - KSPCB",12-03-2024 12:00:00,13.008556,76.125258,CO,8,22,12
India,Karnataka,Hubballi,"Deshpande Nagar, Hubballi - KSPCB",12-03-2024 12:00:00,15.351773,75.140726,PM2.5,51,83,68
India,Karnataka,Hubballi,"Deshpande Nagar, Hubballi - KSPCB",12-03-2024 12:00:00,15.351773,75.140726,PM10,62,138,96
India,Karnataka,Hubballi,"Lingaraj Nagar, Hubballi - KSPCB",12-03-2024 12:00:00,15.3714823,75.1160168,PM10,55,162,69
India,Karnataka,Kalaburagi,"Lal Bahadur Shastri Nagar, Kalaburagi - KSPCB",12-03-2024 12:00:00,17.321993,76.822628,PM2.5,43,127,69
India,Karnataka,Kalaburagi,"Lal Bahadur Shastri Nagar, Kalaburagi - KSPCB",12-03-2024 12:00:00,17.321993,76.822628,CO,40,45,42
India,Karnataka,Kalaburagi,"Mahatma Basaveswar Colony, Kalaburgi - KSPCB",12-03-2024 12:00:00,17.336318,76.847397,NH3,3,4,4
India,Karnataka,Karwar,"KHB Colony, Karwar - KSPCB",12-03-2024 12:00:00,14.816666,74.141003,PM2.5,48,92,64
India,Karnataka,Karwar,"KHB Colony, Karwar - KSPCB",12-03-2024 12:00:00,14.816666,74.141003,NH3,1,4,2
India,Karnataka,Karwar,"KHB Colony, Karwar - KSPCB",12-03-2024 12:00:00,14.816666,74.141003,OZONE,21,22,22
India,Karnataka,Kolar,"Tamaka Ind. Area, Kolar - KSPCB",12-03-2024 12:00:00,13.1276288,78.1570122,PM10,63,118,93
India,Karnataka,Kolar,"Tamaka Ind. Area, Kolar - KSPCB",12-03-2024 12:00:00,13.1276288,78.1570122,NO2,18,35,23
India,Karnataka,Kolar,"Tamaka Ind. Area, Kolar - KSPCB",12-03-2024 12:00:00,13.1276288,78.1570122,CO,14,27,27
India,Karnataka,Madikeri,"Stuart Hill, Madikeri - KSPCB",12-03-2024 12:00:00,12.415911,75.735050,PM10,20,63,48
India,Karnataka,Madikeri,"Stuart Hill, Madikeri - KSPCB",12-03-2024 12:00:00,12.415911,75.735050,NO2,3,7,4
India,Karnataka,Madikeri,"Stuart Hill, Madikeri - KSPCB",12-03-2024 12:00:00,12.415911,75.735050,SO2,4,4,4
India,Karnataka,Madikeri,"Stuart Hill, Madikeri - KSPCB",12-03-2024 12:00:00,12.415911,75.735050,CO,14,50,31
India,Karnataka,Mangalore,"Kadri, Mangalore - KSPCB",12-03-2024 12:00:00,12.889250,74.853000,PM10,75,110,88
India,Karnataka,Mysuru,"Hebbal 1st Stage, Mysuru - KSPCB",12-03-2024 12:00:00,12.21041,76.37376,NO2,10,41,23
India,Karnataka,Mysuru,"Hebbal 1st Stage, Mysuru - KSPCB",12-03-2024 12:00:00,12.21041,76.37376,NH3,1,3,2
India,Karnataka,Mysuru,"Hebbal 1st Stage, Mysuru - KSPCB",12-03-2024 12:00:00,12.21041,76.37376,OZONE,10,117,36
India,Karnataka,Raichur,"Haji Colony, Raichur - KSPCB",12-03-2024 12:00:00,16.208139,77.348417,PM2.5,20,65,34
India,Karnataka,Raichur,"Haji Colony, Raichur - KSPCB",12-03-2024 12:00:00,16.208139,77.348417,PM10,78,145,107
India,Karnataka,Ramanagara,"Vijay Nagar, Ramanagara - KSPCB",12-03-2024 12:00:00,12.733409,77.298051,SO2,14,38,23
India,Karnataka,Shivamogga,"Vinoba Nagara, Shivamogga - KSPCB",12-03-2024 12:00:00,13.940000,75.555917,OZONE,17,92,28
India,Karnataka,Tumakuru,"Thimmalapura, Tumakuru - KSPCB",12-03-2024 12:00:00,13.377516,77.099072,PM10,NA,NA,NA
India,Karnataka,Tumakuru,"Thimmalapura, Tumakuru - KSPCB",12-03-2024 12:00:00,13.377516,77.099072,OZONE,19,35,27
India,Karnataka,Udupi,"Brahmagiri, Udupi - KSPCB",12-03-2024 12:00:00,13.34194444,74.74694444,PM10,48,82,65
India,Karnataka,Udupi,"Brahmagiri, Udupi - KSPCB",12-03-2024 12:00:00,13.34194444,74.74694444,SO2,14,18,16
India,Karnataka,Udupi,"Brahmagiri, Udupi - KSPCB",12-03-2024 12:00:00,13.34194444,74.74694444,CO,44,48,47
India,Karnataka,Yadgir,"Collector Office, Yadgir - KSPCB",12-03-2024 12:00:00,16.7602,77.1428,NO2,5,6,5
India,Kerala,Eloor,"Udyogamandal, Eloor - Kerala PCB",12-03-2024 12:00:00,10.073232,76.302765,CO,7,114,48
India,Kerala,Kannur,"Thavakkara, Kannur - Kerala PCB",12-03-2024 12:00:00,11.875000,75.373200,CO,30,35,32
India,Kerala,Kochi,"Vyttila, Kochi - Kerala PCB",12-03-2024 12:00:00,9.969447,76.321186,SO2,1,105,7
India,Madhya Pradesh,Bhopal,"Idgah Hills, Bhopal - MPPCB",12-03-2024 12:00:00,23.264759,77.381568,PM10,87,188,114
India,Madhya Pradesh,Bhopal,"Paryavaran Parisar, Bhopal - MPPCB",12-03-2024 12:00:00,23.210494,77.425409,PM10,79,275,141
India,Madhya Pradesh,Bhopal,"Paryavaran Parisar, Bhopal - MPPCB",12-03-2024 12:00:00,23.210494,77.425409,NO2,19,109,58
