country,state,city,station,last_update,latitude,longitude,pollutant_id,pollutant_min,pollutant_max,pollutant_avg
India,Andhra_Pradesh,Anantapur,"Gulzarpet, Anantapur - APPCB",22-02-2024 18:00:00,14.675886,77.593027,NO2,18,111,48
India,Andhra_Pradesh,Anantapur,"Gulzarpet, Anantapur - APPCB",22-02-2024 18:00:00,14.675886,77.593027,OZONE,1,60,49
India,Andhra_Pradesh,Chittoor,"Gangineni Cheruvu, Chittoor - APPCB",22-02-2024 18:00:00,13.204880,79.097889,PM2.5,52,78,64
India,Andhra_Pradesh,Chittoor,"Gangineni Cheruvu, Chittoor - APPCB",22-02-2024 18:00:00,13.204880,79.097889,SO2,5,70,21
India,Andhra_Pradesh,Kadapa,"Yerramukkapalli, Kadapa - APPCB",22-02-2024 18:00:00,14.465052,78.824187,PM2.5,47,138,74
India,Andhra_Pradesh,Kadapa,"Yerramukkapalli, Kadapa - APPCB",22-02-2024 18:00:00,14.465052,78.824187,PM10,48,108,63
India,Andhra_Pradesh,Rajamahendravaram,"Anand Kala Kshetram, Rajamahendravaram - APPCB",22-02-2024 18:00:00,16.9872867,81.7363176,NH3,4,7,6
India,Andhra_Pradesh,Tirupati,"Tirumala, Tirupati - APPCB",22-02-2024 18:00:00,13.67,79.35,NO2,19,66,35
India,Andhra_Pradesh,Tirupati,"Tirumala, Tirupati - APPCB",22-02-2024 18:00:00,13.67,79.35,NH3,1,2,1
India,Andhra_Pradesh,Vijayawada,"Rajiv Gandhi Park, Vijayawada - APPCB",22-02-2024 18:00:00,16.509717,80.612222,NO2,2,52,21
India,Andhra_Pradesh,Vijayawada,"Rajiv Gandhi Park, Vijayawada - APPCB",22-02-2024 18:00:00,16.509717,80.612222,OZONE,2,88,63
India,Andhra_Pradesh,Vijayawada,"Rajiv Nagar, Vijayawada - APPCB",22-02-2024 18:00:00,16.554731,80.649110,PM2.5,18,500,124
India,Andhra_Pradesh,Vijayawada,"Rajiv Nagar, Vijayawada - APPCB",22-02-2024 18:00:00,16.554731,80.649110,PM10,20,185,76
India,Andhra_Pradesh,Vijayawada,"Rajiv Nagar, Vijayawada - APPCB",22-02-2024 18:00:00,16.554731,80.649110,NO2,7,23,11
India,Andhra_Pradesh,Visakhapatnam,"GVM Corporation, Visakhapatnam - APPCB",22-02-2024 18:00:00,17.72,83.3,SO2,10,16,13
India,Arunachal_Pradesh,Naharlagun,"Naharlagun, Naharlagun - APSPCB",22-02-2024 18:00:00,27.103358,93.679645,CO,18,42,24
India,Assam,Guwahati,"IITG, Guwahati - PCBA",22-02-2024 18:00:00,26.2028636,91.70046436,CO,15,32,17
India,Assam,Guwahati,"LGBI Airport, Guwahati - PCBA",22-02-2024 18:00:00,26.10887,91.589544,PM2.5,20,322,232
India,Assam,Guwahati,"Railway Colony, Guwahati - PCBA",22-02-2024 18:00:00,26.181742,91.78063,PM10,107,382,173
India,Assam,Guwahati,"Railway Colony, Guwahati - PCBA",22-02-2024 18:00:00,26.181742,91.78063,OZONE,5,59,25
India,Assam,Nagaon,"Christianpatty, Nagaon - PCBA",22-02-2024 18:00:00,26.349082,92.68449,CO,3,113,42
India,Assam,Nalbari,"Bata Chowk, Nalbari - PCBA",22-02-2024 18:00:00,26.446912,91.439057,NO2,21,42,32
India,Assam,Silchar,"Tarapur, Silchar - PCBA",22-02-2024 18:00:00,24.82827,92.79525,SO2,1,10,7
India,Bihar,Araria,"Kharahiya Basti, Araria - BSPCB",22-02-2024 18:00:00,26.146529,87.454184,PM2.5,62,369,206
India,Bihar,Araria,"Kharahiya Basti, Araria - BSPCB",22-02-2024 18:00:00,26.146529,87.454184,NO2,5,10,7
India,Bihar,Aurangabad,"Gurdeo Nagar, Aurangabad - BSPCB",22-02-2024 18:00:00,24.75746,84.366208,NO2,1,2,2
India,Bihar,Aurangabad,"Gurdeo Nagar, Aurangabad - BSPCB",22-02-2024 18:00:00,24.75746,84.366208,SO2,2,11,6
India,Bihar,Bettiah,"Kamalnath Nagar, Bettiah - BSPCB",22-02-2024 18:00:00,26.80365,84.51954,PM2.5,12,28,19
India,Bihar,Bhagalpur,"DM Office_Kachari Chowk, Bhagalpur - BSPCB",22-02-2024 18:00:00,25.251013,86.989001,PM2.5,47,230,126
India,Bihar,Bhagalpur,"DM Office_Kachari Chowk, Bhagalpur - BSPCB",22-02-2024 18:00:00,25.251013,86.989001,NO2,20,92,50
India,Bihar,Bhagalpur,"Mayaganj, Bhagalpur - BSPCB",22-02-2024 18:00:00,25.265194,87.012947,PM10,19,109,70
India,Bihar,Bihar Sharif,"D M Colony, Bihar Sharif - BSPCB",22-02-2024 18:00:00,25.204762,85.514960,CO,4,48,28
India,Bihar,Chhapra,"Darshan Nagar, Chhapra - BSPCB",22-02-2024 18:00:00,25.7808257,84.7446768,OZONE,1,26,14
India,Bihar,Gaya,"Kareemganj, Gaya - BSPCB",22-02-2024 18:00:00,24.792403,84.992416,PM10,22,136,57
India,Bihar,Gaya,"Kareemganj, Gaya - BSPCB",22-02-2024 18:00:00,24.792403,84.992416,NO2,30,31,30
India,Bihar,Gaya,"SFTI Kusdihra, Gaya - BSPCB",22-02-2024 18:00:00,24.762518,84.982348,SO2,7,9,8
India,Bihar,Hajipur,"Industrial Area, Hajipur - BSPCB",22-02-2024 18:00:00,25.697189,85.245900,SO2,3,6,4
India,Bihar,Hajipur,"Industrial Area, Hajipur - BSPCB",22-02-2024 18:00:00,25.697189,85.245900,CO,21,55,28
India,Bihar,Katihar,"Mirchaibari, Katihar - BSPCB",22-02-2024 18:00:00,25.560083,87.553265,NH3,3,4,3
India,Bihar,Manguraha,"Forest Rest House, Manguraha - BSPCB",22-02-2024 18:00:00,27.308328,84.531742,PM2.5,38,113,74
India,Bihar,Motihari,"Gandak Colony, Motihari - BSPCB",22-02-2024 18:00:00,26.63086,84.90051,NO2,24,89,65
India,Bihar,Muzaffarpur,"Buddha Colony, Muzaffarpur - BSPCB",22-02-2024 18:00:00,26.11442,85.39813,SO2,2,6,3
India,Bihar,Muzaffarpur,"MIT-Daudpur Kothi, Muzaffarpur - BSPCB",22-02-2024 18:00:00,26.1403345,85.3650192,PM10,33,131,88
India,Bihar,Muzaffarpur,"MIT-Daudpur Kothi, Muzaffarpur - BSPCB",22-02-2024 18:00:00,26.1403345,85.3650192,NO2,6,11,8
India,Bihar,Muzaffarpur,"MIT-Daudpur Kothi, Muzaffarpur - BSPCB",22-02-2024 18:00:00,26.1403345,85.3650192,SO2,17,19,17
India,Bihar,Muzaffarpur,"MIT-Daudpur Kothi, Muzaffarpur - BSPCB",22-02-2024 18:00:00,26.1403345,85.3650192,OZONE,7,49,36
India,Bihar,Muzaffarpur,"Muzaffarpur Collectorate, Muzaffarpur - BSPCB",22-02-2024 18:00:00,26.1209,85.3647,NO2,4,12,8
India,Bihar,Patna,"DRM Office Danapur, Patna - BSPCB",22-02-2024 18:00:00,25.586562,85.043586,NO2,6,75,26
India,Bihar,Patna,"Govt. High School Shikarpur, Patna - BSPCB",22-02-2024 18:00:00,25.592539,85.227158,PM2.5,12,147,89
India,Bihar,Patna,"Govt. High School Shikarpur, Patna - BSPCB",22-02-2024 18:00:00,25.592539,85.227158,PM10,55,165,100
India,Bihar,Patna,"IGSC Planetarium Complex, Patna - BSPCB",22-02-2024 18:00:00,25.610369,85.132568,PM2.5,13,430,75
India,Bihar,Rajgir,"Dangi Tola, Rajgir - BSPCB",22-02-2024 18:00:00,25.03280,85.41948,NH3,1,4,1
India,Bihar,Rajgir,"Dangi Tola, Rajgir - BSPCB",22-02-2024 18:00:00,25.03280,85.41948,SO2,NA,NA,NA
India,Bihar,Saharsa,"Police Line, Saharsa - BSPCB",22-02-2024 18:00:00,25.892357,86.590325,SO2,16,17,16
India,Bihar,Saharsa,"Police Line, Saharsa - BSPCB",22-02-2024 18:00:00,25.892357,86.590325,CO,5,78,21
India,Bihar,Sasaram,"Dada Peer, Sasaram - BSPCB",22-02-2024 18:00:00,24.952822,84.002396,NH3,8,14,11
India,Bihar,Siwan,"Chitragupta Nagar, Siwan - BSPCB",22-02-2024 18:00:00,26.2271665,84.3570427,PM2.5,45,388,210
India,Bihar,Siwan,"Chitragupta Nagar, Siwan - BSPCB",22-02-2024 18:00:00,26.2271665,84.3570427,CO,8,146,110
India,Chandigarh,Chandigarh,"Sector 22, Chandigarh - CPCC",22-02-2024 18:00:00,30.735567,76.775714,PM2.5,23,137,68
India,Chandigarh,Chandigarh,"Sector 22, Chandigarh - CPCC",22-02-2024 18:00:00,30.735567,76.775714,PM10,32,133,85
India,Chandigarh,Chandigarh,"Sector-25, Chandigarh - CPCC",22-02-2024 18:00:00,30.751462,76.762879,PM2.5,116,152,137
India,Chandigarh,Chandigarh,"Sector-25, Chandigarh - CPCC",22-02-2024 18:00:00,30.751462,76.762879,NH3,19,25,22
India,Chandigarh,Chandigarh,"Sector-25, Chandigarh - CPCC",22-02-2024 18:00:00,30.751462,76.762879,CO,17,30,25
India,Chandigarh,Chandigarh,"Sector-53, Chandigarh - CPCC",22-02-2024 18:00:00,30.719859,76.738637,PM10,45,146,98
India,Chandigarh,Chandigarh,"Sector-53, Chandigarh - CPCC",22-02-2024 18:00:00,30.719859,76.738637,NO2,30,85,56
India,Chandigarh,Chandigarh,"Sector-53, Chandigarh - CPCC",22-02-2024 18:00:00,30.719859,76.738637,SO2,13,109,22
India,Chhattisgarh,Bhilai,"32Bungalows, Bhilai - CECB",22-02-2024 18:00:00,21.194815,81.314770,OZONE,4,17,10
India,Chhattisgarh,Bilaspur,"Mangala, Bilaspur - NTPC",22-02-2024 18:00:00,22.08815,82.13737,CO,28,42,39
India,Chhattisgarh,Chhal,"Nawapara SECL Colony, Chhal - CECB",22-02-2024 18:00:00,22.118125,83.140608,SO2,12,39,21
India,Chhattisgarh,Korba,"Rampur, Korba - CECB",22-02-2024 18:00:00,22.368195,82.746431,NO2,26,49,37
India,Chhattisgarh,Korba,"Rampur, Korba - CECB",22-02-2024 18:00:00,22.368195,82.746431,SO2,7,50,12
India,Chhattisgarh,Korba,"Rampur, Korba - CECB",22-02-2024 18:00:00,22.368195,82.746431,CO,10,28,13
India,Chhattisgarh,Milupara,"Govt. Higher Secondary School, Milupara - CECB",22-02-2024 18:00:00,22.1910172,83.5197009,NO2,14,72,30
India,Chhattisgarh,Milupara,"Govt. Higher Secondary School, Milupara - CECB",22-02-2024 18:00:00,22.1910172,83.5197009,NH3,1,2,2
India,Chhattisgarh,Raipur,"Bhatagaon New ISBT, Raipur - CECB",22-02-2024 18:00:00,21.219665,81.630094,SO2,NA,NA,NA
India,Chhattisgarh,Raipur,"Bhatagaon New ISBT, Raipur - CECB",22-02-2024 18:00:00,21.219665,81.630094,CO,16,57,18
India,Chhattisgarh,Raipur,"Bhatagaon New ISBT, Raipur - CECB",22-02-2024 18:00:00,21.219665,81.630094,OZONE,3,9,7
India,Chhattisgarh,Tumidih,"OP Jindal Industrial Park, Tumidih - CECB",22-02-2024 18:00:00,22.06631475,83.33820077,NO2,6,31,19
India,Chhattisgarh,Tumidih,"OP Jindal Industrial Park, Tumidih - CECB",22-02-2024 18:00:00,22.06631475,83.33820077,CO,12,57,19
India,Delhi,Delhi,"Alipur, Delhi - DPCC",22-02-2024 18:00:00,28.815329,77.153010,NO2,17,67,38
India,Delhi,Delhi,"Alipur, Delhi - DPCC",22-02-2024 18:00:00,28.815329,77.153010,SO2,6,40,12
India,Delhi,Delhi,"Ashok Vihar, Delhi - DPCC",22-02-2024 18:00:00,28.695381,77.181665,SO2,18,49,29
India,Delhi,Delhi,"Aya Nagar, Delhi - IMD",22-02-2024 18:00:00,28.4706914,77.1099364,PM2.5,NA,NA,NA
India,Delhi,Delhi,"Aya Nagar, Delhi - IMD",22-02-2024 18:00:00,28.4706914,77.1099364,CO,NA,NA,NA
India,Delhi,Delhi,"Aya Nagar, Delhi - IMD",22-02-2024 18:00:00,28.4706914,77.1099364,OZONE,NA,NA,NA
India,Delhi,Delhi,"Bawana, Delhi - DPCC",22-02-2024 18:00:00,28.776200,77.051074,PM2.5,60,332,190
India,Delhi,Delhi,"Bawana, Delhi - DPCC",22-02-2024 18:00:00,28.776200,77.051074,NH3,6,11,8
India,Delhi,Delhi,"Bawana, Delhi - DPCC",22-02-2024 18:00:00,28.776200,77.051074,SO2,4,16,8
India,Delhi,Delhi,"Bawana, Delhi - DPCC",22-02-2024 18:00:00,28.776200,77.051074,OZONE,4,88,67
India,Delhi,Delhi,"Burari Crossing, Delhi - IMD",22-02-2024 18:00:00,28.7256504,77.2011573,NO2,NA,NA,NA
India,Delhi,Delhi,"CRRI Mathura Road, Delhi - IMD",22-02-2024 18:00:00,28.5512005,77.2735737,PM2.5,37,249,108
India,Delhi,Delhi,"Chandni Chowk, Delhi - IITM",22-02-2024 18:00:00,28.656756,77.227234,NH3,8,8,8
India,Delhi,Delhi,"Chandni Chowk, Delhi - IITM",22-02-2024 18:00:00,28.656756,77.227234,CO,103,106,105
India,Delhi,Delhi,"DTU, Delhi - CPCB",22-02-2024 18:00:00,28.7500499,77.1112615,PM2.5,44,164,75
India,Delhi,Delhi,"DTU, Delhi - CPCB",22-02-2024 18:00:00,28.7500499,77.1112615,NH3,11,15,12
India,Delhi,Delhi,"Dr. Karni Singh Shooting Range, Delhi - DPCC",22-02-2024 18:00:00,28.498571,77.264840,PM2.5,41,204,117
India,Delhi,Delhi,"Dr. Karni Singh Shooting Range, Delhi - DPCC",22-02-2024 18:00:00,28.498571,77.264840,PM10,101,194,136
India,Delhi,Delhi,"Dr. Karni Singh Shooting Range, Delhi - DPCC",22-02-2024 18:00:00,28.498571,77.264840,NO2,39,130,80
India,Delhi,Delhi,"Dr. Karni Singh Shooting Range, Delhi - DPCC",22-02-2024 18:00:00,28.498571,77.264840,SO2,3,14,7
India,Delhi,Delhi,"Dwarka-Sector 8, Delhi - DPCC ",22-02-2024 18:00:00,28.5710274,77.0719006,SO2,2,17,7
India,Delhi,Delhi,"IHBAS, Dilshad Garden, Delhi - CPCB",22-02-2024 18:00:00,28.6811736,77.3025234,NO2,17,52,35
India,Delhi,Delhi,"ITO, Delhi - CPCB",22-02-2024 18:00:00,28.628624,77.241060,PM2.5,42,319,151
India,Delhi,Delhi,"ITO, Delhi - CPCB",22-02-2024 18:00:00,28.628624,77.241060,PM10,78,231,132
India,Delhi,Delhi,"Jahangirpuri, Delhi - DPCC",22-02-2024 18:00:00,28.732820,77.170633,NH3,13,16,15
India,Delhi,Delhi,"Jawaharlal Nehru Stadium, Delhi - DPCC",22-02-2024 18:00:00,28.580280,77.233829,PM2.5,32,214,93
India,Delhi,Delhi,"Jawaharlal Nehru Stadium, Delhi - DPCC",22-02-2024 18:00:00,28.580280,77.233829,PM10,90,183,127
India,Delhi,Delhi,"Lodhi Road, Delhi - IITM",22-02-2024 18:00:00,28.588333,77.221667,NO2,68,112,86
India,Delhi,Delhi,"Lodhi Road, Delhi - IITM",22-02-2024 18:00:00,28.588333,77.221667,NH3,7,10,8
India,Delhi,Delhi,"Lodhi Road, Delhi - IITM",22-02-2024 18:00:00,28.588333,77.221667,CO,62,69,64
India,Delhi,Delhi,"Lodhi Road, Delhi - IITM",22-02-2024 18:00:00,28.588333,77.221667,OZONE,15,18,17
India,Delhi,Delhi,"Lodhi Road, Delhi - IMD",22-02-2024 18:00:00,28.5918245,77.2273074,CO,4,14,7
India,Delhi,Delhi,"Major Dhyan Chand National Stadium, Delhi - DPCC",22-02-2024 18:00:00,28.611281,77.237738,PM2.5,48,303,135
India,Delhi,Delhi,"Major Dhyan Chand National Stadium, Delhi - DPCC",22-02-2024 18:00:00,28.611281,77.237738,CO,70,106,84
India,Delhi,Delhi,"Mandir Marg, Delhi - DPCC",22-02-2024 18:00:00,28.636429,77.201067,PM2.5,28,276,116
India,Delhi,Delhi,"Mandir Marg, Delhi - DPCC",22-02-2024 18:00:00,28.636429,77.201067,NH3,16,18,17
India,Delhi,Delhi,"Mundka, Delhi - DPCC",22-02-2024 18:00:00,28.684678,77.076574,NO2,23,81,48
India,Delhi,Delhi,"Najafgarh, Delhi - DPCC",22-02-2024 18:00:00,28.570173,76.933762,OZONE,12,140,111
India,Delhi,Delhi,"Narela, Delhi - DPCC",22-02-2024 18:00:00,28.822836,77.101981,PM2.5,52,345,173
India,Delhi,Delhi,"Narela, Delhi - DPCC",22-02-2024 18:00:00,28.822836,77.101981,NO2,15,69,38
India,Delhi,Delhi,"Narela, Delhi - DPCC",22-02-2024 18:00:00,28.822836,77.101981,CO,24,72,36
India,Delhi,Delhi,"Nehru Nagar, Delhi - DPCC",22-02-2024 18:00:00,28.567890,77.250515,NH3,7,17,11
India,Delhi,Delhi,"New Moti Bagh, Delhi - MHUA",22-02-2024 18:00:00,28.57834,77.18400,NO2,1,6,2
India,Delhi,Delhi,"Okhla Phase-2, Delhi - DPCC",22-02-2024 18:00:00,28.530785,77.271255,NO2,39,130,90
India,Delhi,Delhi,"Patparganj, Delhi - DPCC",22-02-2024 18:00:00,28.623763,77.287209,CO,6,44,19
India,Delhi,Delhi,"Patparganj, Delhi - DPCC",22-02-2024 18:00:00,28.623763,77.287209,OZONE,1,79,58
India,Delhi,Delhi,"Punjabi Bagh, Delhi - DPCC",22-02-2024 18:00:00,28.674045,77.131023,NO2,18,60,46
India,Delhi,Delhi,"Punjabi Bagh, Delhi - DPCC",22-02-2024 18:00:00,28.674045,77.131023,SO2,14,52,36
India,Delhi,Delhi,"Punjabi Bagh, Delhi - DPCC",22-02-2024 18:00:00,28.674045,77.131023,OZONE,6,52,28
India,Delhi,Delhi,"Rohini, Delhi - DPCC",22-02-2024 18:00:00,28.732528,77.119920,PM10,97,230,144
India,Delhi,Delhi,"Rohini, Delhi - DPCC",22-02-2024 18:00:00,28.732528,77.119920,OZONE,2,100,78
India,Delhi,Delhi,"Shadipur, Delhi - CPCB",22-02-2024 18:00:00,28.6514781,77.1473105,PM2.5,82,306,173
India,Delhi,Delhi,"Sirifort, Delhi - CPCB",22-02-2024 18:00:00,28.5504249,77.2159377,NH3,8,13,11
India,Delhi,Delhi,"Sonia Vihar, Delhi - DPCC",22-02-2024 18:00:00,28.710508,77.249485,PM10,108,236,146
India,Delhi,Delhi,"Sonia Vihar, Delhi - DPCC",22-02-2024 18:00:00,28.710508,77.249485,CO,42,78,53
India,Delhi,Delhi,"Sri Aurobindo Marg, Delhi - DPCC",22-02-2024 18:00:00,28.531346,77.190156,NO2,20,96,55
India,Delhi,Delhi,"Vivek Vihar, Delhi - DPCC",22-02-2024 18:00:00,28.672342,77.315260,NO2,38,70,54
India,Delhi,Delhi,"Vivek Vihar, Delhi - DPCC",22-02-2024 18:00:00,28.672342,77.315260,SO2,23,31,25
India,Delhi,Delhi,"Wazirpur, Delhi - DPCC",22-02-2024 18:00:00,28.699793,77.165453,PM10,126,306,178
India,Gujarat,Ahmedabad,"Chandkheda, Ahmedabad - IITM",22-02-2024 18:00:00,23.107969,72.574648,CO,72,104,78
India,Gujarat,Ahmedabad,"Raikhad, Ahmedabad - IITM",22-02-2024 18:00:00,23.020509,72.579261,NH3,NA,NA,NA
India,Gujarat,Ahmedabad,"Raikhad, Ahmedabad - IITM",22-02-2024 18:00:00,23.020509,72.579261,SO2,3,7,5
India,Gujarat,Ahmedabad,"Rakhial, Ahmedabad - IITM",22-02-2024 18:00:00,23.016834,72.625775,CO,32,53,46
India,Gujarat,Ahmedabad,"SAC ISRO Bopal, Ahmedabad - IITM",22-02-2024 18:00:00,23.041137,72.456691,CO,32,35,34
India,Gujarat,Ahmedabad,"SAC ISRO Satellite, Ahmedabad - IITM",22-02-2024 18:00:00,23.023389,72.515201,NH3,3,3,3
India,Gujarat,Ahmedabad,"SVPI Airport Hansol, Ahmedabad - IITM",22-02-2024 18:00:00,23.076793,72.627874,PM2.5,40,61,52
India,Gujarat,Ahmedabad,"SVPI Airport Hansol, Ahmedabad - IITM",22-02-2024 18:00:00,23.076793,72.627874,NO2,13,19,17
India,Gujarat,Ahmedabad,"Sardar Vallabhbhai Patel Stadium, Ahmedabad - IITM",22-02-2024 18:00:00,23.043070,72.562968,SO2,5,9,7
India,Gujarat,Ankleshwar,"GIDC, Ankleshwar - GPCB",22-02-2024 18:00:00,21.613267,73.010555,PM2.5,24,57,41
India,Gujarat,Ankleshwar,"GIDC, Ankleshwar - GPCB",22-02-2024 18:00:00,21.613267,73.010555,SO2,7,22,14
India,Gujarat,Gandhinagar,"IIPHG Lekawada, Gandhinagar - IITM",22-02-2024 18:00:00,23.243639,72.68994,NO2,32,33,32
India,Gujarat,Gandhinagar,"IIPHG Lekawada, Gandhinagar - IITM",22-02-2024 18:00:00,23.243639,72.68994,SO2,13,14,13
India,Gujarat,Gandhinagar,"Sector-10, Gandhinagar - GPCB",22-02-2024 18:00:00,23.221714,72.654328,PM10,45,112,68
India,Gujarat,Gandhinagar,"Sector-10, Gandhinagar - GPCB",22-02-2024 18:00:00,23.221714,72.654328,NH3,1,2,2
India,Gujarat,Gandhinagar,"Sector-10, Gandhinagar - GPCB",22-02-2024 18:00:00,23.221714,72.654328,SO2,4,15,7
India,Gujarat,Surat,"Science Center, Surat - SMC",22-02-2024 18:00:00,21.170046,72.795405,PM2.5,2,32,12
India,Gujarat,Surat,"Science Center, Surat - SMC",22-02-2024 18:00:00,21.170046,72.795405,PM10,4,38,18
India,Gujarat,Vapi,"Phase-1 GIDC, Vapi - GPCB",22-02-2024 18:00:00,20.362421,72.918013,CO,138,177,168
India,Gujarat,Vatva,"Phase-4 GIDC, Vatva - GPCB",22-02-2024 18:00:00,22.969611,72.643500,PM10,38,72,51
India,Haryana,Bhiwani,"H.B. Colony, Bhiwani - HSPCB",22-02-2024 18:00:00,28.806223,76.141105,NO2,8,11,9
India,Haryana,Charkhi Dadri,"Mini Secretariat, Charkhi Dadri - HSPCB",22-02-2024 18:00:00,28.593883,76.270653,PM2.5,50,139,84
India,Haryana,Charkhi Dadri,"Mini Secretariat, Charkhi Dadri - HSPCB",22-02-2024 18:00:00,28.593883,76.270653,SO2,1,106,22
India,Haryana,Charkhi Dadri,"Mini Secretariat, Charkhi Dadri - HSPCB",22-02-2024 18:00:00,28.593883,76.270653,CO,5,41,15
India,Haryana,Charkhi Dadri,"Mini Secretariat, Charkhi Dadri - HSPCB",22-02-2024 18:00:00,28.593883,76.270653,OZONE,13,18,15
India,Haryana,Faridabad,"New Industrial Town, Faridabad - HSPCB",22-02-2024 18:00:00,28.39072,77.30059,OZONE,41,262,177
India,Haryana,Faridabad,"Sector 30, Faridabad - HSPCB",22-02-2024 18:00:00,28.4417,77.3217,PM2.5,112,161,130
India,Haryana,Faridabad,"Sector- 16A, Faridabad - HSPCB",22-02-2024 18:00:00,28.4088421,77.3099081,CO,4,48,14
India,Haryana,Fatehabad,"Huda Sector, Fatehabad - HSPCB",22-02-2024 18:00:00,29.503664,75.467934,PM2.5,NA,NA,NA
India,Haryana,Fatehabad,"Huda Sector, Fatehabad - HSPCB",22-02-2024 18:00:00,29.503664,75.467934,CO,5,8,6
India,Haryana,Gurugram,"Sector-51, Gurugram - HSPCB",22-02-2024 18:00:00,28.4227,77.0667,NO2,13,29,23
India,Haryana,Gurugram,"Teri Gram, Gurugram - HSPCB",22-02-2024 18:00:00,28.4275,77.1465,NO2,28,44,38
India,Haryana,Gurugram,"Teri Gram, Gurugram - HSPCB",22-02-2024 18:00:00,28.4275,77.1465,SO2,3,5,4
India,Haryana,Gurugram,"Vikas Sadan, Gurugram - HSPCB",22-02-2024 18:00:00,28.4501238,77.0263051,SO2,16,38,26
India,Haryana,Hisar,"Urban Estate-II, Hisar - HSPCB",22-02-2024 18:00:00,29.140560,75.744941,PM2.5,41,102,64
India,Haryana,Hisar,"Urban Estate-II, Hisar - HSPCB",22-02-2024 18:00:00,29.140560,75.744941,NO2,7,10,8
India,Haryana,Jind,"Police Lines, Jind - HSPCB",22-02-2024 18:00:00,29.307814,76.337619,NH3,2,5,4
India,Haryana,Jind,"Police Lines, Jind - HSPCB",22-02-2024 18:00:00,29.307814,76.337619,SO2,2,23,7
India,Haryana,Karnal,"Sector-12, Karnal - HSPCB",22-02-2024 18:00:00,29.695300,77.002700,OZONE,28,32,29
India,Haryana,Mandikhera,"General Hospital, Mandikhera - HSPCB",22-02-2024 18:00:00,27.9002,76.9938,PM2.5,24,71,53
India,Haryana,Mandikhera,"General Hospital, Mandikhera - HSPCB",22-02-2024 18:00:00,27.9002,76.9938,NO2,16,22,19
India,Haryana,Mandikhera,"General Hospital, Mandikhera - HSPCB",22-02-2024 18:00:00,27.9002,76.9938,CO,14,44,26
India,Haryana,Narnaul,"Shastri Nagar, Narnaul - HSPCB",22-02-2024 18:00:00,28.060249,76.113115,SO2,13,47,16
India,Haryana,Palwal,"Shyam Nagar, Palwal - HSPCB",22-02-2024 18:00:00,28.1485564,77.3320667,NO2,23,24,24
India,Haryana,Palwal,"Shyam Nagar, Palwal - HSPCB",22-02-2024 18:00:00,28.1485564,77.3320667,SO2,1,27,18
India,Haryana,Rohtak,"MD University, Rohtak - HSPCB",22-02-2024 18:00:00,28.52123,76.37138,NO2,46,58,52
India,Haryana,Sirsa,"F-Block, Sirsa - HSPCB",22-02-2024 18:00:00,29.536400,75.015800,SO2,1,13,7
India,Haryana,Sonipat,"Murthal, Sonipat - HSPCB",22-02-2024 18:00:00,29.027200,77.062100,PM2.5,38,116,80
India,Haryana,Sonipat,"Murthal, Sonipat - HSPCB",22-02-2024 18:00:00,29.027200,77.062100,CO,12,24,14
India,Haryana,Sonipat,"Murthal, Sonipat - HSPCB",22-02-2024 18:00:00,29.027200,77.062100,OZONE,16,36,34
India,Haryana,Yamuna Nagar,"Gobind Pura, Yamuna Nagar - HSPCB",22-02-2024 18:00:00,30.1480566,77.2893471,NH3,1,6,4
India,Haryana,Yamuna Nagar,"Gobind Pura, Yamuna Nagar - HSPCB",22-02-2024 18:00:00,30.1480566,77.2893471,CO,22,68,33
India,Himachal Pradesh,Baddi,"HIMUDA Complex Phase-1, Baddi - HPPCB",22-02-2024 18:00:00,30.943887,76.801991,PM10,42,195,105
India,Himachal Pradesh,Baddi,"HIMUDA Complex Phase-1, Baddi - HPPCB",22-02-2024 18:00:00,30.943887,76.801991,NO2,10,54,26
India,Himachal Pradesh,Baddi,"HIMUDA Complex Phase-1, Baddi - HPPCB",22-02-2024 18:00:00,30.943887,76.801991,OZONE,32,94,84
India,Jharkhand,Dhanbad,"Sardar Patel Nagar, Dhanbad - JSPCB",22-02-2024 18:00:00,23.80569,86.44268,SO2,6,111,21
India,Karnataka,Bagalkot,"Vidayagiri, Bagalkot - KSPCB",22-02-2024 18:00:00,16.172806,75.659694,NO2,9,10,9
India,Karnataka,Belgaum,"Ramteerth Nagar, Belgaum - KSPCB",22-02-2024 18:00:00,15.888653,74.541751,OZONE,19,20,19
India,Karnataka,Bengaluru,"BTM Layout, Bengaluru - CPCB",22-02-2024 18:00:00,12.9135218,77.5950804,OZONE,16,26,23
India,Karnataka,Bengaluru,"Bapuji Nagar, Bengaluru - KSPCB",22-02-2024 18:00:00,12.951913,77.539784,OZONE,4,92,11
India,Karnataka,Bengaluru,"Hebbal, Bengaluru - KSPCB",22-02-2024 18:00:00,13.029152,77.585901,NH3,1,1,1
India,Karnataka,Bengaluru,"Hebbal, Bengaluru - KSPCB",22-02-2024 18:00:00,13.029152,77.585901,SO2,11,25,17
India,Karnataka,Bengaluru,"Hombegowda Nagar, Bengaluru - KSPCB",22-02-2024 18:00:00,12.938539,77.590100,NH3,2,2,2
India,Karnataka,Bengaluru,"Hombegowda Nagar, Bengaluru - KSPCB",22-02-2024 18:00:00,12.938539,77.590100,SO2,4,4,4
India,Karnataka,Bengaluru,"Jayanagar 5th Block, Bengaluru - KSPCB",22-02-2024 18:00:00,12.920984,77.584908,NH3,2,4,2
India,Karnataka,Bengaluru,"Jigani, Bengaluru - KSPCB",22-02-2024 18:00:00,12.7816279,77.6299145,CO,43,96,64
India,Karnataka,Bengaluru,"Kasturi Nagar, Bengaluru - KSPCB",22-02-2024 18:00:00,13.003872,77.664217,CO,24,30,27
India,Karnataka,Bengaluru,"Peenya, Bengaluru - CPCB",22-02-2024 18:00:00,13.0270199,77.494094,PM2.5,NA,NA,NA
India,Karnataka,Bengaluru,"RVCE-Mailasandra, Bengaluru - KSPCB",22-02-2024 18:00:00,12.921418,77.502466,OZONE,14,53,47
India,Karnataka,Bengaluru,"Shivapura_Peenya, Bengaluru - KSPCB",22-02-2024 18:00:00,13.0246342,77.5080115,CO,24,57,29
India,Karnataka,Bengaluru,"Silk Board, Bengaluru - KSPCB",22-02-2024 18:00:00,12.917348,77.622813,PM10,82,333,134
India,Karnataka,Bidar,"Naubad, Bidar - KSPCB",22-02-2024 18:00:00,17.930306,77.482194,OZONE,13,36,32
India,Karnataka,Chamarajanagar,"Urban, Chamarajanagar - KSPCB",22-02-2024 18:00:00,11.55358,76.55521,PM2.5,21,60,35
India,Karnataka,Chamarajanagar,"Urban, Chamarajanagar - KSPCB",22-02-2024 18:00:00,11.55358,76.55521,NO2,24,45,31
India,Karnataka,Chikkaballapur,"Chikkaballapur Rural, Chikkaballapur - KSPCB",22-02-2024 18:00:00,13.428828,77.731418,CO,11,32,14
India,Karnataka,Davanagere,"Devaraj Urs Badavane, Davanagere - KSPCB",22-02-2024 18:00:00,14.475800,75.905200,PM10,36,149,62
India,Karnataka,Davanagere,"Devaraj Urs Badavane, Davanagere - KSPCB",22-02-2024 18:00:00,14.475800,75.905200,NH3,1,1,1
India,Karnataka,Davanagere,"Devaraj Urs Badavane, Davanagere - KSPCB",22-02-2024 18:00:00,14.475800,75.905200,SO2,2,6,5
India,Karnataka,Davanagere,"Devaraj Urs Badavane, Davanagere - KSPCB",22-02-2024 18:00:00,14.475800,75.905200,CO,10,22,18
India,Karnataka,Davanagere,"Devaraj Urs Badavane, Davanagere - KSPCB",22-02-2024 18:00:00,14.475800,75.905200,OZONE,19,27,24
India,Karnataka,Dharwad,"Kalabhavan, Dharwad - KSPCB",22-02-2024 18:00:00,15.459706,75.008381,PM10,74,103,85
India,Karnataka,Gadag,"Panchal Nagar, Gadag - KSPCB",22-02-2024 18:00:00,15.411456,75.638133,PM2.5,25,62,38
India,Karnataka,Gadag,"Panchal Nagar, Gadag - KSPCB",22-02-2024 18:00:00,15.411456,75.638133,NH3,2,3,2
India,Karnataka,Hassan,"B.Katihalli, Hassan - KSPCB",22-02-2024 18:00:00,13.008556,76.125258,CO,2,16,11
India,Karnataka,Haveri,"Ashwini Nagar, Haveri - KSPCB",22-02-2024 18:00:00,14.791800,75.389600,NH3,NA,NA,NA
India,Karnataka,Hubballi,"Deshpande Nagar, Hubballi - KSPCB",22-02-2024 18:00:00,15.351773,75.140726,PM2.5,NA,NA,NA
India,Karnataka,Hubballi,"Deshpande Nagar, Hubballi - KSPCB",22-02-2024 18:00:00,15.351773,75.140726,NO2,NA,NA,NA
India,Karnataka,Hubballi,"Lingaraj Nagar, Hubballi - KSPCB",22-02-2024 18:00:00,15.3714823,75.1160168,CO,13,63,25
India,Karnataka,Kalaburagi,"Lal Bahadur Shastri Nagar, Kalaburagi - KSPCB",22-02-2024 18:00:00,17.321993,76.822628,PM10,NA,NA,NA
India,Karnataka,Kalaburagi,"Mahatma Basaveswar Colony, Kalaburgi - KSPCB",22-02-2024 18:00:00,17.336318,76.847397,CO,34,88,37
India,Karnataka,Karwar,"KHB Colony, Karwar - KSPCB",22-02-2024 18:00:00,14.816666,74.141003,OZONE,21,22,22
India,Karnataka,Koppal,"Diwator Nagar, Koppal - KSPCB",22-02-2024 18:00:00,15.347630,76.181767,NO2,1,28,12
India,Karnataka,Koppal,"Diwator Nagar, Koppal - KSPCB",22-02-2024 18:00:00,15.347630,76.181767,NH3,4,7,5
India,Karnataka,Koppal,"Diwator Nagar, Koppal - KSPCB",22-02-2024 18:00:00,15.347630,76.181767,OZONE,2,42,33
India,Karnataka,Madikeri,"Stuart Hill, Madikeri - KSPCB",22-02-2024 18:00:00,12.415911,75.735050,SO2,4,4,4
India,Karnataka,Mangalore,"Kadri, Mangalore - KSPCB",22-02-2024 18:00:00,12.889250,74.853000,NO2,6,7,6
India,Karnataka,Mysuru,"Hebbal 1st Stage, Mysuru - KSPCB",22-02-2024 18:00:00,12.21041,76.37376,PM10,43,72,61
India,Karnataka,Mysuru,"Hebbal 1st Stage, Mysuru - KSPCB",22-02-2024 18:00:00,12.21041,76.37376,SO2,1,10,4
India,Karnataka,Mysuru,"Hebbal 1st Stage, Mysuru - KSPCB",22-02-2024 18:00:00,12.21041,76.37376,CO,4,102,19
India,Karnataka,Raichur,"Haji Colony, Raichur - KSPCB",22-02-2024 18:00:00,16.208139,77.348417,PM2.5,5,170,44
India,Karnataka,Raichur,"Haji Colony, Raichur - KSPCB",22-02-2024 18:00:00,16.208139,77.348417,NO2,19,73,39
India,Karnataka,Raichur,"Haji Colony, Raichur - KSPCB",22-02-2024 18:00:00,16.208139,77.348417,NH3,1,3,2
India,Karnataka,Ramanagara,"Vijay Nagar, Ramanagara - KSPCB",22-02-2024 18:00:00,12.733409,77.298051,CO,2,42,9
India,Karnataka,Shivamogga,"Vinoba Nagara, Shivamogga - KSPCB",22-02-2024 18:00:00,13.940000,75.555917,NH3,2,3,3
India,Karnataka,Shivamogga,"Vinoba Nagara, Shivamogga - KSPCB",22-02-2024 18:00:00,13.940000,75.555917,SO2,6,13,11
India,Karnataka,Tumakuru,"Thimmalapura, Tumakuru - KSPCB",22-02-2024 18:00:00,13.377516,77.099072,PM10,15,36,24
India,Karnataka,Udupi,"Brahmagiri, Udupi - KSPCB",22-02-2024 18:00:00,13.34194444,74.74694444,NH3,1,2,2
India,Karnataka,Vijayapura,"Ibrahimpur, Vijayapura - KSPCB",22-02-2024 18:00:00,16.802639,75.722694,SO2,1,25,7
India,Karnataka,Vijayapura,"Ibrahimpur, Vijayapura - KSPCB",22-02-2024 18:00:00,16.802639,75.722694,OZONE,14,16,15
India,Kerala,Eloor,"Udyogamandal, Eloor - Kerala PCB",22-02-2024 18:00:00,10.073232,76.302765,PM2.5,34,64,45
India,Kerala,Eloor,"Udyogamandal, Eloor - Kerala PCB",22-02-2024 18:00:00,10.073232,76.302765,NH3,1,1,1
India,Kerala,Kollam,"Polayathode, Kollam - Kerala PCB",22-02-2024 18:00:00,8.8787,76.6073,PM10,62,109,84
India,Kerala,Kollam,"Polayathode, Kollam - Kerala PCB",22-02-2024 18:00:00,8.8787,76.6073,CO,15,78,23
India,Kerala,Kollam,"Polayathode, Kollam - Kerala PCB",22-02-2024 18:00:00,8.8787,76.6073,OZONE,32,37,36
India,Kerala,Thiruvananthapuram,"Kariavattom, Thiruvananthapuram - Kerala PCB",22-02-2024 18:00:00,8.563700,76.886500,NO2,8,10,9
India,Kerala,Thiruvananthapuram,"Kariavattom, Thiruvananthapuram - Kerala PCB",22-02-2024 18:00:00,8.563700,76.886500,NH3,1,1,1
India,Madhya Pradesh,Bhopal,"Idgah Hills, Bhopal - MPPCB",22-02-2024 18:00:00,23.264759,77.381568,NO2,17,54,30
India,Madhya Pradesh,Bhopal,"Idgah Hills, Bhopal - MPPCB",22-02-2024 18:00:00,23.264759,77.381568,NH3,2,2,2
India,Madhya Pradesh,Bhopal,"Paryavaran Parisar, Bhopal - MPPCB",22-02-2024 18:00:00,23.210494,77.425409,SO2,17,25,22
India,Madhya Pradesh,Bhopal,"Paryavaran Parisar, Bhopal - MPPCB",22-02-2024 18:00:00,23.210494,77.425409,OZONE,39,65,58
India,Madhya Pradesh,Bhopal,"T T Nagar, Bhopal - MPPCB",22-02-2024 18:00:00,23.233584,77.400574,NO2,24,37,29
India,Madhya Pradesh,Dewas,"Bhopal Chauraha, Dewas - MPPCB",22-02-2024 18:00:00,22.9682591,76.064118,PM10,98,155,112
India,Madhya Pradesh,Dewas,"Bhopal Chauraha, Dewas - MPPCB",22-02-2024 18:00:00,22.9682591,76.064118,NH3,3,3,3
India,Madhya Pradesh,Dewas,"Bhopal Chauraha, Dewas - MPPCB",22-02-2024 18:00:00,22.9682591,76.064118,SO2,33,54,44
India,Madhya Pradesh,Gwalior,"Deen Dayal Nagar, Gwalior - MPPCB",22-02-2024 18:00:00,26.259242,78.216432,PM2.5,NA,NA,NA
India,Madhya Pradesh,Gwalior,"Deen Dayal Nagar, Gwalior - MPPCB",22-02-2024 18:00:00,26.259242,78.216432,NH3,NA,NA,NA
India,Madhya Pradesh,Gwalior,"Deen Dayal Nagar, Gwalior - MPPCB",22-02-2024 18:00:00,26.259242,78.216432,SO2,NA,NA,NA
India,Madhya Pradesh,Gwalior,"Phool Bagh, Gwalior - Mondelez Ind. Food",22-02-2024 18:00:00,26.210536,78.171,NO2,NA,NA,NA
India,Madhya Pradesh,Gwalior,"Phool Bagh, Gwalior - Mondelez Ind. Food",22-02-2024 18:00:00,26.210536,78.171,CO,NA,NA,NA
India,Madhya Pradesh,Indore,"Chhoti Gwaltoli, Indore - MPPCB",22-02-2024 18:00:00,22.4310,75.5213,NH3,2,6,5
India,Madhya Pradesh,Indore,"Chhoti Gwaltoli, Indore - MPPCB",22-02-2024 18:00:00,22.4310,75.5213,SO2,12,23,17
India,Madhya Pradesh,Indore,"Chhoti Gwaltoli, Indore - MPPCB",22-02-2024 18:00:00,22.4310,75.5213,CO,31,92,51
India,Madhya Pradesh,Indore,"Residency Area, Indore - IMC",22-02-2024 18:00:00,22.7084,75.8815,SO2,21,26,23
India,Madhya Pradesh,Indore,"Residency Area, Indore - IMC",22-02-2024 18:00:00,22.7084,75.8815,OZONE,11,15,14
India,Madhya Pradesh,Jabalpur,"Govindh Bhavan Colony, Jabalpur - JMC",22-02-2024 18:00:00,23.163174,79.973061,NO2,9,34,15
India,Madhya Pradesh,Jabalpur,"Gupteshwar, Jabalpur - JMC",22-02-2024 18:00:00,23.142888,79.916147,NH3,2,6,3
India,Madhya Pradesh,Jabalpur,"Gupteshwar, Jabalpur - JMC",22-02-2024 18:00:00,23.142888,79.916147,OZONE,42,105,89
India,Madhya Pradesh,Jabalpur,"Marhatal, Jabalpur - MPPCB",22-02-2024 18:00:00,23.168606,79.932247,PM10,67,109,94
India,Madhya Pradesh,Jabalpur,"Marhatal, Jabalpur - MPPCB",22-02-2024 18:00:00,23.168606,79.932247,NO2,14,65,30
India,Madhya Pradesh,Jabalpur,"Marhatal, Jabalpur - MPPCB",22-02-2024 18:00:00,23.168606,79.932247,CO,32,88,45
India,Madhya Pradesh,Katni,"Gole Bazar, Katni - MPPCB",22-02-2024 18:00:00,23.50016,80.23284,PM2.5,35,153,71
India,Madhya Pradesh,Katni,"Gole Bazar, Katni - MPPCB",22-02-2024 18:00:00,23.50016,80.23284,CO,6,108,18
India,Madhya Pradesh,Mandideep,"Sector-D Industrial Area, Mandideep - MPPCB",22-02-2024 18:00:00,23.108440,77.511428,PM2.5,60,97,83
India,Madhya Pradesh,Mandideep,"Sector-D Industrial Area, Mandideep - MPPCB",22-02-2024 18:00:00,23.108440,77.511428,NH3,11,13,12
India,Madhya Pradesh,Sagar,"Civil Lines, Sagar - MPPCB",22-02-2024 18:00:00,23.838586,78.759431,NO2,11,17,13
India,Madhya Pradesh,Sagar,"Civil Lines, Sagar - MPPCB",22-02-2024 18:00:00,23.838586,78.759431,NH3,4,4,4
India,Madhya Pradesh,Singrauli,"Suryakiran Bhawan NCL, Singrauli - MPPCB",22-02-2024 18:00:00,24.108970,82.645580,PM10,66,176,124
India,Madhya Pradesh,Singrauli,"Suryakiran Bhawan NCL, Singrauli - MPPCB",22-02-2024 18:00:00,24.108970,82.645580,NH3,3,4,3
India,Madhya Pradesh,Singrauli,"Suryakiran Bhawan NCL, Singrauli - MPPCB",22-02-2024 18:00:00,24.108970,82.645580,OZONE,11,50,37
India,Maharashtra,Ahmednagar,"Tarakpur, Ahmednagar - MPCB",22-02-2024 18:00:00,19.10122,74.73339,PM10,56,117,78
India,Maharashtra,Akola,"Ramdaspeth, Akola - MPCB",22-02-2024 18:00:00,20.719516,77.000253,SO2,9,27,18
India,Maharashtra,Akola,"Ramdaspeth, Akola - MPCB",22-02-2024 18:00:00,20.719516,77.000253,CO,9,52,13
India,Maharashtra,Amravati,"Shivneri Colony, Amravati - MPCB",22-02-2024 18:00:00,20.9402359,77.7895248,OZONE,10,84,76
India,Maharashtra,Amravati,"Shri Shivaji Science College, Amaravati - MPCB",22-02-2024 18:00:00,20.939198,77.765701,NH3,3,5,4
India,Maharashtra,Aurangabad,"More Chowk Waluj, Aurangabad - MPCB",22-02-2024 18:00:00,19.8389439,75.244448,NH3,1,14,2
India,Maharashtra,Aurangabad,"Rachnakar Colony, Aurangabad - MPCB",22-02-2024 18:00:00,19.863756,75.321188,PM2.5,102,152,121
India,Maharashtra,Aurangabad,"Rachnakar Colony, Aurangabad - MPCB",22-02-2024 18:00:00,19.863756,75.321188,NH3,2,2,2
India,Maharashtra,Badlapur,"Katrap, Badlapur - MPCB",22-02-2024 18:00:00,19.16485,73.23409,PM2.5,24,215,85
India,Maharashtra,Belapur,"CBD Belapur, Belapur - MPCB",22-02-2024 18:00:00,19.0243902,73.0406721,PM2.5,39,122,58
India,Maharashtra,Belapur,"CBD Belapur, Belapur - MPCB",22-02-2024 18:00:00,19.0243902,73.0406721,CO,14,48,18
India,Maharashtra,Bhiwandi,"Gokul Nagar, Bhiwandi - MPCB",22-02-2024 18:00:00,19.309073,73.057223,SO2,2,8,4
India,Maharashtra,Bhiwandi,"Gokul Nagar, Bhiwandi - MPCB",22-02-2024 18:00:00,19.309073,73.057223,OZONE,3,88,75
India,Maharashtra,Boisar,"Khaira, Boisar - MPCB",22-02-2024 18:00:00,19.786089,72.757971,PM10,NA,NA,NA
India,Maharashtra,Boisar,"Khaira, Boisar - MPCB",22-02-2024 18:00:00,19.786089,72.757971,SO2,NA,NA,NA
India,Maharashtra,Boisar,"Khaira, Boisar - MPCB",22-02-2024 18:00:00,19.786089,72.757971,CO,12,15,13
India,Maharashtra,Chandrapur,"Chauhan Colony, Chandrapur - MPCB",22-02-2024 18:00:00,19.962900,79.298714,NO2,15,99,44
India,Maharashtra,Chandrapur,"MIDC Khutala, Chandrapur - MPCB",22-02-2024 18:00:00,19.9775302,79.2337086,PM10,NA,NA,NA
India,Maharashtra,Jalgaon,"Prabhat Colony, Jalgaon - MPCB",22-02-2024 18:00:00,21.001264,75.565602,PM10,99,185,119
India,Maharashtra,Jalgaon,"Prabhat Colony, Jalgaon - MPCB",22-02-2024 18:00:00,21.001264,75.565602,NO2,13,38,22
India,Maharashtra,Jalna,"Old MIDC, Jalna - MPCB",22-02-2024 18:00:00,19.854616,75.905894,PM2.5,60,119,79
India,Maharashtra,Jalna,"Old MIDC, Jalna - MPCB",22-02-2024 18:00:00,19.854616,75.905894,NH3,6,8,7
India,Maharashtra,Kolhapur,"Shivaji University, Kolhapur - MPCB",22-02-2024 18:00:00,16.6870449,74.2505872,NH3,3,9,5
India,Maharashtra,Kolhapur,"Sinchan Bhavan, Kolhapur - MPCB",22-02-2024 18:00:00,16.7143745,74.2426398,NO2,13,54,24
India,Maharashtra,Kolhapur,"Sinchan Bhavan, Kolhapur - MPCB",22-02-2024 18:00:00,16.7143745,74.2426398,SO2,1,7,3
India,Maharashtra,Malegaon,"Mahesh Nagar, Malegaon - MPCB",22-02-2024 18:00:00,20.555712,74.529236,SO2,5,12,8
India,Maharashtra,Malegaon,"Mahesh Nagar, Malegaon - MPCB",22-02-2024 18:00:00,20.555712,74.529236,CO,48,52,50
India,Maharashtra,Mira-Bhayandar,"Bhayandar West, Mira-Bhayandar - MPCB",22-02-2024 18:00:00,19.296481,72.840923,PM2.5,22,143,45
India,Maharashtra,Mira-Bhayandar,"Bhayandar West, Mira-Bhayandar - MPCB",22-02-2024 18:00:00,19.296481,72.840923,NH3,4,8,5
India,Maharashtra,Mumbai,"Bandra Kurla Complex, Mumbai - MPCB",22-02-2024 18:00:00,19.065931,72.862131,PM10,69,148,107
India,Maharashtra,Mumbai,"Bandra Kurla Complex, Mumbai - MPCB",22-02-2024 18:00:00,19.065931,72.862131,NO2,8,26,14
India,Maharashtra,Mumbai,"Borivali East, Mumbai - IITM",22-02-2024 18:00:00,19.23241,72.86895,PM2.5,24,52,32
India,Maharashtra,Mumbai,"Byculla, Mumbai - BMC",22-02-2024 18:00:00,18.9767,72.8380,PM2.5,12,58,28
India,Maharashtra,Mumbai,"Byculla, Mumbai - BMC",22-02-2024 18:00:00,18.9767,72.8380,NO2,19,58,31
India,Maharashtra,Mumbai,"Chembur, Mumbai - MPCB",22-02-2024 18:00:00,19.0364585,72.8954371,SO2,1,11,4
India,Maharashtra,Mumbai,"Chhatrapati Shivaji Intl. Airport (T2), Mumbai - MPCB",22-02-2024 18:00:00,19.10078,72.87462,PM2.5,11,32,19
India,Maharashtra,Mumbai,"Chhatrapati Shivaji Intl. Airport (T2), Mumbai - MPCB",22-02-2024 18:00:00,19.10078,72.87462,PM10,29,76,53
India,Maharashtra,Mumbai,"Colaba, Mumbai - MPCB",22-02-2024 18:00:00,18.910000,72.820000,PM10,25,108,51
India,Maharashtra,Mumbai,"Colaba, Mumbai - MPCB",22-02-2024 18:00:00,18.910000,72.820000,OZONE,10,11,11
India,Maharashtra,Mumbai,"Ghatkopar, Mumbai - BMC",22-02-2024 18:00:00,19.083694,72.920967,PM10,25,105,62
India,Maharashtra,Mumbai,"Kandivali West, Mumbai - BMC",22-02-2024 18:00:00,19.215859,72.831718,CO,8,24,9
India,Maharashtra,Mumbai,"Khindipada-Bhandup West, Mumbai - IITM",22-02-2024 18:00:00,19.1653323,72.922099,PM2.5,33,92,54
India,Maharashtra,Mumbai,"Khindipada-Bhandup West, Mumbai - IITM",22-02-2024 18:00:00,19.1653323,72.922099,NO2,NA,NA,NA
India,Maharashtra,Mumbai,"Khindipada-Bhandup West, Mumbai - IITM",22-02-2024 18:00:00,19.1653323,72.922099,CO,16,54,44
India,Maharashtra,Mumbai,"Kurla, Mumbai - MPCB",22-02-2024 18:00:00,19.0863,72.8888,NH3,4,9,6
India,Maharashtra,Mumbai,"Kurla, Mumbai - MPCB",22-02-2024 18:00:00,19.0863,72.8888,CO,3,28,10
India,Maharashtra,Mumbai,"Malad West, Mumbai - IITM",22-02-2024 18:00:00,19.19709,72.82204,PM2.5,3,80,58
India,Maharashtra,Mumbai,"Mazgaon, Mumbai - IITM",22-02-2024 18:00:00,18.96702,72.84214,NO2,18,58,28
India,Maharashtra,Mumbai,"Mazgaon, Mumbai - IITM",22-02-2024 18:00:00,18.96702,72.84214,OZONE,5,64,48
India,Maharashtra,Mumbai,"Mindspace-Malad West, Mumbai - MPCB",22-02-2024 18:00:00,19.1878657,72.8304069,PM2.5,13,40,29
India,Maharashtra,Mumbai,"Mindspace-Malad West, Mumbai - MPCB",22-02-2024 18:00:00,19.1878657,72.8304069,OZONE,2,23,16
India,Maharashtra,Mumbai,"Mulund West, Mumbai - MPCB",22-02-2024 18:00:00,19.1750,72.9419,CO,30,30,30
India,Maharashtra,Mumbai,"Powai, Mumbai - MPCB",22-02-2024 18:00:00,19.137500,72.915056,PM2.5,NA,NA,NA
India,Maharashtra,Mumbai,"Sewri, Mumbai - BMC",22-02-2024 18:00:00,19.000084,72.856730,PM10,26,100,57
India,Maharashtra,Mumbai,"Shivaji Nagar, Mumbai - BMC",22-02-2024 18:00:00,19.060498,72.923356,NO2,38,77,57
India,Maharashtra,Mumbai,"Shivaji Nagar, Mumbai - BMC",22-02-2024 18:00:00,19.060498,72.923356,SO2,1,18,5
India,Maharashtra,Mumbai,"Siddharth Nagar-Worli, Mumbai - IITM",22-02-2024 18:00:00,19.000083,72.813993,PM10,NA,NA,NA
India,Maharashtra,Mumbai,"Vasai West, Mumbai - MPCB",22-02-2024 18:00:00,19.383200,72.820400,CO,24,46,25
India,Maharashtra,Mumbai,"Vasai West, Mumbai - MPCB",22-02-2024 18:00:00,19.383200,72.820400,OZONE,7,31,26
India,Maharashtra,Mumbai,"Vile Parle West, Mumbai - MPCB",22-02-2024 18:00:00,19.10861,72.83622,NO2,1,35,4
India,Maharashtra,Nagpur,"Ambazari, Nagpur - MPCB",22-02-2024 18:00:00,21.121801,79.04952,NH3,4,7,4
India,Maharashtra,Nagpur,"Mahal, Nagpur - MPCB",22-02-2024 18:00:00,21.14472,79.107595,NH3,5,12,8
India,Maharashtra,Nagpur,"Opp GPO Civil Lines, Nagpur - MPCB",22-02-2024 18:00:00,21.152875,79.0517531,OZONE,2,24,19
India,Maharashtra,Nagpur,"Ram Nagar, Nagpur - MPCB",22-02-2024 18:00:00,21.143383,79.048912,PM10,56,96,74
India,Maharashtra,Nanded,"Sneh Nagar, Nanded - MPCB",22-02-2024 18:00:00,19.173852,77.296291,PM10,61,178,110
India,Maharashtra,Nashik,"Gangapur Road, Nashik - MPCB",22-02-2024 18:00:00,20.0073285,73.7762427,PM10,27,148,79
India,Maharashtra,Nashik,"Gangapur Road, Nashik - MPCB",22-02-2024 18:00:00,20.0073285,73.7762427,SO2,1,5,2
India,Maharashtra,Nashik,"MIDC Ambad, Nashik - MPCB",22-02-2024 18:00:00,19.950220,73.731480,NH3,2,3,2
India,Maharashtra,Nashik,"Pandav Nagari, Nashik - MPCB",22-02-2024 18:00:00,19.9591346,73.7788008,NO2,18,61,30
India,Maharashtra,Navi Mumbai,"Kopripada-Vashi, Navi Mumbai - MPCB",22-02-2024 18:00:00,19.090337,73.014232,PM2.5,4,500,95
India,Maharashtra,Navi Mumbai,"Kopripada-Vashi, Navi Mumbai - MPCB",22-02-2024 18:00:00,19.090337,73.014232,NO2,20,48,34
India,Maharashtra,Navi Mumbai,"Kopripada-Vashi, Navi Mumbai - MPCB",22-02-2024 18:00:00,19.090337,73.014232,NH3,6,22,10
India,Maharashtra,Navi Mumbai,"Mahape, Navi Mumbai - MPCB",22-02-2024 18:00:00,19.1135051,73.008978,SO2,26,27,26
India,Maharashtra,Navi Mumbai,"Nerul, Navi Mumbai - MPCB",22-02-2024 18:00:00,19.008751,73.016620,PM10,NA,NA,NA
India,Maharashtra,Navi Mumbai,"Nerul, Navi Mumbai - MPCB",22-02-2024 18:00:00,19.008751,73.016620,CO,28,44,34
India,Maharashtra,Navi Mumbai,"Nerul, Navi Mumbai - MPCB",22-02-2024 18:00:00,19.008751,73.016620,OZONE,30,35,32
India,Maharashtra,Navi Mumbai,"Sanpada, Navi Mumbai - MPCB",22-02-2024 18:00:00,19.0575752,73.0151367,PM2.5,15,68,45
India,Maharashtra,Navi Mumbai,"Sanpada, Navi Mumbai - MPCB",22-02-2024 18:00:00,19.0575752,73.0151367,SO2,3,9,4
India,Maharashtra,Navi Mumbai,"Sanpada, Navi Mumbai - MPCB",22-02-2024 18:00:00,19.0575752,73.0151367,OZONE,7,81,50
India,Maharashtra,Navi Mumbai,"Sector-19A Nerul, Navi Mumbai - IITM",22-02-2024 18:00:00,19.044,73.0325,PM10,42,117,83
India,Maharashtra,Navi Mumbai,"Sector-19A Nerul, Navi Mumbai - IITM",22-02-2024 18:00:00,19.044,73.0325,CO,1,52,25
India,Maharashtra,Navi Mumbai,"Sector-2E Kalamboli, Navi Mumbai - MPCB",22-02-2024 18:00:00,19.02579,73.10297,PM10,42,103,76
India,Maharashtra,Navi Mumbai,"Sector-2E Kalamboli, Navi Mumbai - MPCB",22-02-2024 18:00:00,19.02579,73.10297,NO2,1,49,21
India,Maharashtra,Navi Mumbai,"Sector-2E Kalamboli, Navi Mumbai - MPCB",22-02-2024 18:00:00,19.02579,73.10297,SO2,9,33,15
India,Maharashtra,Navi Mumbai,"Tondare-Taloja, Navi Mumbai - MPCB",22-02-2024 18:00:00,19.0630,73.1209,PM2.5,34,161,73
India,Maharashtra,Navi Mumbai,"Tondare-Taloja, Navi Mumbai - MPCB",22-02-2024 18:00:00,19.0630,73.1209,NO2,22,93,48
India,Maharashtra,Pimpri-Chinchwad,"Park Street Wakad, Pimpri Chinchwad - MPCB",22-02-2024 18:00:00,18.59051,73.77946,PM10,59,140,96
India,Maharashtra,Pune,"Bhosari, Pune - IITM",22-02-2024 18:00:00,18.640051,73.848956,PM10,40,176,89
India,Maharashtra,Pune,"Bhosari, Pune - IITM",22-02-2024 18:00:00,18.640051,73.848956,NO2,9,13,12
India,Maharashtra,Pune,"Bhosari, Pune - IITM",22-02-2024 18:00:00,18.640051,73.848956,CO,28,42,33
India,Maharashtra,Pune,"Bhosari, Pune - IITM",22-02-2024 18:00:00,18.640051,73.848956,OZONE,2,83,28
India,Maharashtra,Pune,"Karve Road, Pune - MPCB",22-02-2024 18:00:00,18.5011743,73.8165527,SO2,2,58,25
India,Maharashtra,Pune,"Mhada Colony, Pune - IITM",22-02-2024 18:00:00,18.573040,73.927715,PM2.5,23,97,56
India,Maharashtra,Pune,"Revenue Colony-Shivajinagar, Pune - IITM",22-02-2024 18:00:00,18.530085,73.849598,PM2.5,31,99,56
India,Maharashtra,Pune,"Revenue Colony-Shivajinagar, Pune - IITM",22-02-2024 18:00:00,18.530085,73.849598,OZONE,2,30,21
India,Maharashtra,Pune,"Savitribai Phule Pune University, Pune - MPCB",22-02-2024 18:00:00,18.547056,73.826908,PM2.5,35,80,50
India,Maharashtra,Pune,"Savitribai Phule Pune University, Pune - MPCB",22-02-2024 18:00:00,18.547056,73.826908,NH3,1,4,2
India,Maharashtra,Pune,"Savitribai Phule Pune University, Pune - MPCB",22-02-2024 18:00:00,18.547056,73.826908,SO2,5,16,9
India,Maharashtra,Sangli,"Vijay Nagar, Sangli - MPCB",22-02-2024 18:00:00, 16.5038,74.3623,SO2,6,21,13
India,Maharashtra,Sangli,"Vijay Nagar, Sangli - MPCB",22-02-2024 18:00:00, 16.5038,74.3623,CO,13,80,30
India,Maharashtra,Solapur,"Ratandeep Housing Society, Solapur - MPCB",22-02-2024 18:00:00,17.65439,75.90649,PM10,60,163,95
India,Maharashtra,Solapur,"Ratandeep Housing Society, Solapur - MPCB",22-02-2024 18:00:00,17.65439,75.90649,SO2,1,37,10
India,Maharashtra,Solapur,"Ratandeep Housing Society, Solapur - MPCB",22-02-2024 18:00:00,17.65439,75.90649,CO,20,102,25
India,Maharashtra,Solapur,"Solapur, Solapur - MPCB",22-02-2024 18:00:00,17.6599188,75.9063906,PM2.5,55,129,83
India,Maharashtra,Thane,"Kasarvadavali, Thane - MPCB",22-02-2024 18:00:00,19.26777,72.97182,PM10,47,97,67
India,Maharashtra,Thane,"Kasarvadavali, Thane - MPCB",22-02-2024 18:00:00,19.26777,72.97182,NO2,25,66,41
India,Maharashtra,Thane,"Pimpleshwar Mandir, Thane - MPCB",22-02-2024 18:00:00,19.192056,72.9585188,NO2,13,32,15
India,Maharashtra,Thane,"Pimpleshwar Mandir, Thane - MPCB",22-02-2024 18:00:00,19.192056,72.9585188,SO2,4,73,16
India,Maharashtra,Thane,"Pimpleshwar Mandir, Thane - MPCB",22-02-2024 18:00:00,19.192056,72.9585188,CO,33,112,86
India,Maharashtra,Ulhasnagar,"Sidhi Vinayak Nagar, Ulhasnagar - MPCB",22-02-2024 18:00:00,19.235581,73.159121,SO2,1,12,5
India,Maharashtra,Virar,"Bolinj, Virar - MPCB",22-02-2024 18:00:00,19.4458210,72.7988231,NH3,5,10,7
India,Maharashtra,Virar,"Bolinj, Virar - MPCB",22-02-2024 18:00:00,19.4458210,72.7988231,SO2,2,5,3
India,Maharashtra,Virar,"Bolinj, Virar - MPCB",22-02-2024 18:00:00,19.4458210,72.7988231,OZONE,1,92,81
India,Manipur,Imphal,"DM College of Science, Imphal - Manipur PCB",22-02-2024 18:00:00,24.8207389,93.9423085,PM10,NA,NA,NA
India,Manipur,Imphal,"DM College of Science, Imphal - Manipur PCB",22-02-2024 18:00:00,24.8207389,93.9423085,NO2,7,8,8
India,Manipur,Imphal,"Manipur University, Imphal - Manipur PCB",22-02-2024 18:00:00,24.7524239,93.9286218,NO2,8,28,14
India,Meghalaya,Shillong,"Lumpyngngad, Shillong - Meghalaya PCB",22-02-2024 18:00:00,25.5586,91.8985,NH3,1,1,1
India,Nagaland,Kohima,"PWD Juction, Kohima - NPCB",22-02-2024 18:00:00,25.6635413,94.0989878,PM2.5,26,213,85
India,Nagaland,Kohima,"PWD Juction, Kohima - NPCB",22-02-2024 18:00:00,25.6635413,94.0989878,OZONE,12,41,16
India,Odisha,Angul,"Hakimapada, Angul - OSPCB",22-02-2024 18:00:00,20.832874,85.104082,NO2,9,110,33
India,Odisha,Angul,"Hakimapada, Angul - OSPCB",22-02-2024 18:00:00,20.832874,85.104082,CO,1,185,54
India,Odisha,Angul,"Hakimapada, Angul - OSPCB",22-02-2024 18:00:00,20.832874,85.104082,OZONE,2,141,132
India,Odisha,Balasore,"Kalidaspur, Balasore - OSPCB",22-02-2024 18:00:00,21.51161,86.89088,NH3,2,8,4
India,Odisha,Balasore,"Kalidaspur, Balasore - OSPCB",22-02-2024 18:00:00,21.51161,86.89088,SO2,18,54,28
India,Odisha,Barbil,"Forest Office, Barbil - OSPCB",22-02-2024 18:00:00,22.1166054,85.3945546,OZONE,3,174,122
India,Odisha,Baripada,"Meher Colony, Baripada - OSPCB",22-02-2024 18:00:00,21.941841,86.728318,CO,34,49,46
India,Odisha,Bhubaneswar,"Lingraj Mandir, Bhubaneswar - OSPCB",22-02-2024 18:00:00,20.240790,85.836784,NO2,1,49,15
India,Odisha,Bhubaneswar,"Lingraj Mandir, Bhubaneswar - OSPCB",22-02-2024 18:00:00,20.240790,85.836784,SO2,1,14,6
India,Odisha,Bhubaneswar,"Patia, Bhubaneswar - OSPCB",22-02-2024 18:00:00,20.34652,85.81630,PM2.5,30,78,57
India,Odisha,Bhubaneswar,"Patia, Bhubaneswar - OSPCB",22-02-2024 18:00:00,20.34652,85.81630,NO2,6,23,11
India,Odisha,Bhubaneswar,"Patia, Bhubaneswar - OSPCB",22-02-2024 18:00:00,20.34652,85.81630,NH3,2,6,3
India,Odisha,Bhubaneswar,"Patia, Bhubaneswar - OSPCB",22-02-2024 18:00:00,20.34652,85.81630,SO2,5,15,9
India,Odisha,Bhubaneswar,"Patia, Bhubaneswar - OSPCB",22-02-2024 18:00:00,20.34652,85.81630,CO,64,88,73
India,Odisha,Bhubaneswar,"Patia, Bhubaneswar - OSPCB",22-02-2024 18:00:00,20.34652,85.81630,OZONE,32,133,99
India,Odisha,Bileipada,"Tata Township, Bileipada - OSPCB",22-02-2024 18:00:00,22.06156703,85.47409613,SO2,9,99,23
India,Odisha,Byasanagar,"Ferro Chrome Colony, Byasanagar - OSPCB",22-02-2024 18:00:00,20.94185,86.11510,PM2.5,55,250,100
India,Odisha,Byasanagar,"Ferro Chrome Colony, Byasanagar - OSPCB",22-02-2024 18:00:00,20.94185,86.11510,PM10,83,179,118
India,Odisha,Byasanagar,"Ferro Chrome Colony, Byasanagar - OSPCB",22-02-2024 18:00:00,20.94185,86.11510,NH3,2,4,3
India,Odisha,Byasanagar,"Ferro Chrome Colony, Byasanagar - OSPCB",22-02-2024 18:00:00,20.94185,86.11510,SO2,5,34,12
India,Odisha,Byasanagar,"Ferro Chrome Colony, Byasanagar - OSPCB",22-02-2024 18:00:00,20.94185,86.11510,OZONE,9,132,112
India,Odisha,Cuttack,"CDA Area, Cuttack - OSPCB",22-02-2024 18:00:00,20.48891     ,85.84768     ,CO,20,36,27
India,Odisha,Keonjhar,"Jagamohanpur, Keonjhar - OSPCB",22-02-2024 18:00:00,21.643900,85.599355,PM2.5,56,89,75
India,Odisha,Rairangpur,"Divisional Forest Office, Rairangpur - OSPCB",22-02-2024 18:00:00,22.265816,86.174829,NO2,7,8,7
India,Odisha,Rairangpur,"Divisional Forest Office, Rairangpur - OSPCB",22-02-2024 18:00:00,22.265816,86.174829,CO,20,32,24
India,Odisha,Rourkela,"Fertilizer Township, Rourkela - OSPCB",22-02-2024 18:00:00,22.18972222,84.86277778,PM10,NA,NA,NA
India,Odisha,Rourkela,"Raghunathpali, Rourkela - OSPCB",22-02-2024 18:00:00,22.220833,84.809444,PM2.5,85,254,158
India,Odisha,Talcher,"Talcher Coalfields,Talcher - OSPCB",22-02-2024 18:00:00,20.9360711,85.1707021,PM2.5,12,498,236
India,Odisha,Tensa,"Barsua Iron Ore Mines, Tensa - OSPCB",22-02-2024 18:00:00,21.869985,85.167016,SO2,6,20,10
India,Puducherry,Puducherry,"Jawahar Nagar, Puducherry - PPCC",22-02-2024 18:00:00,11.9309,79.8027,PM2.5,38,132,67
India,Puducherry,Puducherry,"Jawahar Nagar, Puducherry - PPCC",22-02-2024 18:00:00,11.9309,79.8027,PM10,44,109,69
India,Puducherry,Puducherry,"Jawahar Nagar, Puducherry - PPCC",22-02-2024 18:00:00,11.9309,79.8027,CO,19,53,23
India,Punjab,Amritsar,"Golden Temple, Amritsar - PPCB",22-02-2024 18:00:00,31.620000,74.876512,PM10,30,127,74
India,Punjab,Amritsar,"Golden Temple, Amritsar - PPCB",22-02-2024 18:00:00,31.620000,74.876512,NH3,4,8,6
India,Punjab,Amritsar,"Golden Temple, Amritsar - PPCB",22-02-2024 18:00:00,31.620000,74.876512,OZONE,25,36,29
India,Punjab,Bathinda,"Hardev Nagar, Bathinda - PPCB",22-02-2024 18:00:00,30.233011,74.907758,NO2,30,35,31
India,Punjab,Bathinda,"Hardev Nagar, Bathinda - PPCB",22-02-2024 18:00:00,30.233011,74.907758,CO,1,76,23
India,Punjab,Ludhiana,"Punjab Agricultural University, Ludhiana - PPCB",22-02-2024 18:00:00,30.9028,75.8086,PM10,40,89,67
India,Punjab,Ludhiana,"Punjab Agricultural University, Ludhiana - PPCB",22-02-2024 18:00:00,30.9028,75.8086,NO2,20,30,24
India,Punjab,Ludhiana,"Punjab Agricultural University, Ludhiana - PPCB",22-02-2024 18:00:00,30.9028,75.8086,OZONE,11,37,26
India,Punjab,Patiala,"Model Town, Patiala - PPCB",22-02-2024 18:00:00,30.349388,76.366642,NO2,10,26,22
India,Punjab,Patiala,"Model Town, Patiala - PPCB",22-02-2024 18:00:00,30.349388,76.366642,OZONE,12,94,68
India,Punjab,Rupnagar,"Ratanpura, Rupnagar - Ambuja Cements",22-02-2024 18:00:00,31.0325454,76.5623046,SO2,8,12,10
India,Rajasthan,Alwar,"Moti Doongri, Alwar - RSPCB",22-02-2024 18:00:00,27.554793,76.611536,PM2.5,36,65,49
India,Rajasthan,Alwar,"Moti Doongri, Alwar - RSPCB",22-02-2024 18:00:00,27.554793,76.611536,NH3,4,7,6
India,Rajasthan,Alwar,"Moti Doongri, Alwar - RSPCB",22-02-2024 18:00:00,27.554793,76.611536,SO2,21,45,31
India,Rajasthan,Banswara,"Rati Talai, Banswara - RSPCB",22-02-2024 18:00:00,23.555190,74.440010,SO2,1,12,5
India,Rajasthan,Barmer,"Railway Colony, Barmer - RSPCB",22-02-2024 18:00:00,25.747299,71.393989,NH3,4,8,5
India,Rajasthan,Bharatpur,"Krishna Nagar, Bharatpur - RSPCB",22-02-2024 18:00:00,27.215415,77.50873,NO2,10,99,44
India,Rajasthan,Bhilwara,"Pratap Nagar, Bhilwara - RSPCB",22-02-2024 18:00:00,25.339605,74.618883,PM2.5,31,93,54
India,Rajasthan,Bhilwara,"Pratap Nagar, Bhilwara - RSPCB",22-02-2024 18:00:00,25.339605,74.618883,PM10,50,111,75
India,Rajasthan,Bhilwara,"Pratap Nagar, Bhilwara - RSPCB",22-02-2024 18:00:00,25.339605,74.618883,OZONE,25,81,71
India,Rajasthan,Bhiwadi,"RIICO Ind. Area III, Bhiwadi - RSPCB",22-02-2024 18:00:00,28.194909,76.862296,PM2.5,79,298,163
India,Rajasthan,Bhiwadi,"RIICO Ind. Area III, Bhiwadi - RSPCB",22-02-2024 18:00:00,28.194909,76.862296,NH3,5,14,9
India,Rajasthan,Bhiwadi,"RIICO Ind. Area III, Bhiwadi - RSPCB",22-02-2024 18:00:00,28.194909,76.862296,SO2,2,33,17
India,Rajasthan,Bhiwadi,"RIICO Ind. Area III, Bhiwadi - RSPCB",22-02-2024 18:00:00,28.194909,76.862296,CO,8,120,70
India,Rajasthan,Bundi,"New Colony, Bundi - RSPCB",22-02-2024 18:00:00,25.435774,75.644272,PM2.5,37,140,75
India,Rajasthan,Chittorgarh,"Shastri Nagar, Chittorgarh - RSPCB",22-02-2024 18:00:00,24.892047,74.623527,PM2.5,14,148,51
India,Rajasthan,Chittorgarh,"Shastri Nagar, Chittorgarh - RSPCB",22-02-2024 18:00:00,24.892047,74.623527,PM10,81,178,121
India,Rajasthan,Chittorgarh,"Shastri Nagar, Chittorgarh - RSPCB",22-02-2024 18:00:00,24.892047,74.623527,NO2,15,91,46
India,Rajasthan,Chittorgarh,"Shastri Nagar, Chittorgarh - RSPCB",22-02-2024 18:00:00,24.892047,74.623527,SO2,5,39,11
India,Rajasthan,Chittorgarh,"Shastri Nagar, Chittorgarh - RSPCB",22-02-2024 18:00:00,24.892047,74.623527,OZONE,9,116,79
India,Rajasthan,Churu,"Subash Chowk, Churu - RSPCB",22-02-2024 18:00:00,28.296139,74.961696,SO2,5,24,13
India,Rajasthan,Dausa,"Khatikan Mohalla, Dausa - RSPCB",22-02-2024 18:00:00,26.895552,76.334753,SO2,6,18,12
India,Rajasthan,Dholpur,"Raja Ganj, Dholpur - RSPCB",22-02-2024 18:00:00,26.699557,77.898881,NH3,1,6,3
India,Rajasthan,Hanumangarh,"Housing Board, Hanumangarh - RSPCB",22-02-2024 18:00:00,29.610750,74.283608,PM10,113,449,174
India,Rajasthan,Hanumangarh,"Housing Board, Hanumangarh - RSPCB",22-02-2024 18:00:00,29.610750,74.283608,SO2,1,16,6
India,Rajasthan,Jaipur,"Adarsh Nagar, Jaipur - RSPCB",22-02-2024 18:00:00,26.902909,75.836858,NH3,4,25,8
India,Rajasthan,Jaipur,"Mansarovar Sector-12, Jaipur - RSPCB",22-02-2024 18:00:00,26.843698,75.766894,PM2.5,31,263,98
India,Rajasthan,Jaipur,"Police Commissionerate, Jaipur - RSPCB",22-02-2024 18:00:00,26.9164092,75.7994901,PM10,106,256,151
India,Rajasthan,Jaipur,"RIICO Sitapura, Jaipur - RSPCB",22-02-2024 18:00:00,26.786682,75.827928,NO2,22,170,64
India,Rajasthan,Jaipur,"RIICO Sitapura, Jaipur - RSPCB",22-02-2024 18:00:00,26.786682,75.827928,SO2,10,21,15
India,Rajasthan,Jaipur,"RIICO Sitapura, Jaipur - RSPCB",22-02-2024 18:00:00,26.786682,75.827928,CO,1,135,14
India,Rajasthan,Jaipur,"Sector-2 Murlipura, Jaipur - RSPCB",22-02-2024 18:00:00,26.960669,75.771817,PM2.5,21,194,58
India,Rajasthan,Jaisalmer,"Sadar Bazar, Jaisalmer - RSPCB",22-02-2024 18:00:00,26.912329,70.909168,NO2,2,57,22
India,Rajasthan,Jaisalmer,"Sadar Bazar, Jaisalmer - RSPCB",22-02-2024 18:00:00,26.912329,70.909168,SO2,7,11,8
India,Rajasthan,Jaisalmer,"Sadar Bazar, Jaisalmer - RSPCB",22-02-2024 18:00:00,26.912329,70.909168,OZONE,21,91,83
India,Rajasthan,Jalore,"Mudtra Sili, Jalore - RSPCB",22-02-2024 18:00:00,25.344694,72.626208,PM2.5,19,86,47
India,Rajasthan,Jalore,"Mudtra Sili, Jalore - RSPCB",22-02-2024 18:00:00,25.344694,72.626208,SO2,2,6,3
India,Rajasthan,Jhalawar,"Rajlaxmi Nagar, Jhalawar - RSPCB",22-02-2024 18:00:00,24.588397,76.172782,CO,24,38,29
India,Rajasthan,Jhunjhunu,"Indra Nagar, Jhunjhunu - RSPCB",22-02-2024 18:00:00,28.108988,75.386577,NO2,27,53,38
India,Rajasthan,Jodhpur,"Digari Kalan, Jodhpur - RSPCB",22-02-2024 18:00:00,26.295810,73.082283,NH3,4,6,5
India,Rajasthan,Jodhpur,"Digari Kalan, Jodhpur - RSPCB",22-02-2024 18:00:00,26.295810,73.082283,OZONE,29,108,93
India,Rajasthan,Jodhpur,"Jhalamand, Jodhpur - RSPCB",22-02-2024 18:00:00,26.215415,73.070156,PM2.5,23,312,113
India,Rajasthan,Jodhpur,"Jhalamand, Jodhpur - RSPCB",22-02-2024 18:00:00,26.215415,73.070156,PM10,48,309,128
India,Rajasthan,Jodhpur,"Mandor, Jodhpur - RSPCB",22-02-2024 18:00:00,26.358805,73.047444,NO2,22,41,32
India,Rajasthan,Jodhpur,"Mandor, Jodhpur - RSPCB",22-02-2024 18:00:00,26.358805,73.047444,CO,6,26,14
India,Rajasthan,Jodhpur,"Mandor, Jodhpur - RSPCB",22-02-2024 18:00:00,26.358805,73.047444,OZONE,50,96,84
India,Rajasthan,Jodhpur,"Samrat Ashok Udhyan, Jodhpur - RSPCB",22-02-2024 18:00:00,26.253384,72.976571,OZONE,31,121,107
India,Rajasthan,Kota,"Shrinath Puram, Kota - RSPCB",22-02-2024 18:00:00,25.14389,75.821256,NO2,30,207,69
India,Rajasthan,Kota,"Shrinath Puram, Kota - RSPCB",22-02-2024 18:00:00,25.14389,75.821256,OZONE,12,72,61
India,Rajasthan,Nagaur,"Karni Colony, Nagaur - RSPCB",22-02-2024 18:00:00,27.213494,73.734444,NO2,12,31,22
India,Rajasthan,Pali,"Indira Colony Vistar, Pali - RSPCB",22-02-2024 18:00:00,25.771061, 73.340227,NH3,6,16,13
India,Rajasthan,Pali,"Indira Colony Vistar, Pali - RSPCB",22-02-2024 18:00:00,25.771061, 73.340227,OZONE,13,58,49
India,Rajasthan,Pratapgarh,"Pragati Nagar, Pratapgarh - RSPCB",22-02-2024 18:00:00,24.041198,74.780702,PM10,80,205,112
India,Rajasthan,Rajsamand,"Dhoinda, Rajsamand - RSPCB",22-02-2024 18:00:00,25.036360,73.883502,PM2.5,10,55,30
India,Rajasthan,Rajsamand,"Dhoinda, Rajsamand - RSPCB",22-02-2024 18:00:00,25.036360,73.883502,NO2,7,21,13
India,Rajasthan,Rajsamand,"Dhoinda, Rajsamand - RSPCB",22-02-2024 18:00:00,25.036360,73.883502,NH3,1,4,2
India,Rajasthan,Rajsamand,"Dhoinda, Rajsamand - RSPCB",22-02-2024 18:00:00,25.036360,73.883502,OZONE,16,45,42
India,Rajasthan,Sikar,"Radhakishan Pura, Sikar - RSPCB",22-02-2024 18:00:00,27.608912,75.153302,NH3,3,7,5
India,Rajasthan,Sikar,"Radhakishan Pura, Sikar - RSPCB",22-02-2024 18:00:00,27.608912,75.153302,SO2,5,8,6
India,Rajasthan,Sri Ganganagar,"Old City, Sri Ganganagar - RSPCB",22-02-2024 18:00:00,29.931624,73.864511,PM2.5,43,341,177
India,Rajasthan,Sri Ganganagar,"Old City, Sri Ganganagar - RSPCB",22-02-2024 18:00:00,29.931624,73.864511,CO,78,124,96
India,Rajasthan,Tonk,"Shastri Nagar, Tonk - RSPCB",22-02-2024 18:00:00,26.159933,75.780517,NO2,19,115,37
India,Rajasthan,Tonk,"Shastri Nagar, Tonk - RSPCB",22-02-2024 18:00:00,26.159933,75.780517,NH3,5,40,10
India,Rajasthan,Tonk,"Shastri Nagar, Tonk - RSPCB",22-02-2024 18:00:00,26.159933,75.780517,OZONE,8,75,65
India,Rajasthan,Udaipur,"Ashok Nagar, Udaipur - RSPCB",22-02-2024 18:00:00,24.5886166,73.6321397,OZONE,6,80,64
India,Sikkim,Gangtok,"Zero Point GICI, Gangtok - SSPCB",22-02-2024 18:00:00,27.338530,88.614099,SO2,9,9,9
India,Sikkim,Gangtok,"Zero Point GICI, Gangtok - SSPCB",22-02-2024 18:00:00,27.338530,88.614099,OZONE,23,64,48
India,TamilNadu,Chennai,"Alandur Bus Depot, Chennai - CPCB",22-02-2024 18:00:00,12.9099161,80.1076538,PM10,116,145,129
India,TamilNadu,Chennai,"Alandur Bus Depot, Chennai - CPCB",22-02-2024 18:00:00,12.9099161,80.1076538,NH3,6,10,8
India,TamilNadu,Chennai,"Arumbakkam, Chennai - TNPCB",22-02-2024 18:00:00,13.0664,80.2112 ,PM10,57,115,83
India,TamilNadu,Chennai,"Gandhi Nagar_Ennore, Chennai - TNPCB",22-02-2024 18:00:00,13.218341,80.32027,PM2.5,57,91,69
India,TamilNadu,Chennai,"Gandhi Nagar_Ennore, Chennai - TNPCB",22-02-2024 18:00:00,13.218341,80.32027,NO2,27,43,36
India,TamilNadu,Chennai,"Kodungaiyur, Chennai - TNPCB",22-02-2024 18:00:00,13.1278,80.2642,PM2.5,22,45,32
India,TamilNadu,Chennai,"Kodungaiyur, Chennai - TNPCB",22-02-2024 18:00:00,13.1278,80.2642,NH3,3,13,5
India,TamilNadu,Chennai,"Kodungaiyur, Chennai - TNPCB",22-02-2024 18:00:00,13.1278,80.2642,SO2,1,13,6
India,TamilNadu,Chennai,"Manali, Chennai - CPCB",22-02-2024 18:00:00,13.164544,80.26285,NO2,9,14,12
India,TamilNadu,Chennai,"Manali, Chennai - CPCB",22-02-2024 18:00:00,13.164544,80.26285,CO,14,104,77
India,TamilNadu,Chennai,"Royapuram, Chennai - TNPCB",22-02-2024 18:00:00,13.1036,80.2909,PM2.5,NA,NA,NA
India,TamilNadu,Chennai,"Royapuram, Chennai - TNPCB",22-02-2024 18:00:00,13.1036,80.2909,SO2,NA,NA,NA
India,TamilNadu,Chennai,"Velachery Res. Area, Chennai - CPCB",22-02-2024 18:00:00,13.0052189,80.2398125,PM2.5,48,91,68
India,TamilNadu,Chennai,"Velachery Res. Area, Chennai - CPCB",22-02-2024 18:00:00,13.0052189,80.2398125,SO2,22,30,27
India,TamilNadu,Coimbatore,"PSG College of Arts and Science, Coimbatore - TNPCB",22-02-2024 18:00:00,11.0328,77.0349,SO2,10,30,17
India,TamilNadu,Coimbatore,"PSG College of Arts and Science, Coimbatore - TNPCB",22-02-2024 18:00:00,11.0328,77.0349,CO,5,78,59
India,TamilNadu,Cuddalore,"Kudikadu, Cuddalore - TNPCB",22-02-2024 18:00:00,11.6829898,79.7532099,PM10,72,154,108
India,TamilNadu,Cuddalore,"Semmandalam, Cuddalore - TNPCB",22-02-2024 18:00:00,11.7637683,79.7499835,PM10,32,63,44
India,TamilNadu,Kanchipuram,"Kilambi, Kanchipuram - TNPCB",22-02-2024 18:00:00,12.864618,79.659968,PM10,NA,NA,NA
India,TamilNadu,Ooty,"Bombay Castel, Ooty - TNPCB",22-02-2024 18:00:00,11.4068288,76.7138973,PM10,8,93,54
India,TamilNadu,Ooty,"Bombay Castel, Ooty - TNPCB",22-02-2024 18:00:00,11.4068288,76.7138973,NO2,3,59,20
India,TamilNadu,Ooty,"Bombay Castel, Ooty - TNPCB",22-02-2024 18:00:00,11.4068288,76.7138973,NH3,NA,NA,NA
India,TamilNadu,Ooty,"Bombay Castel, Ooty - TNPCB",22-02-2024 18:00:00,11.4068288,76.7138973,SO2,11,29,14
India,TamilNadu,Palkalaiperur,"Bharathidasan University, Palkalaiperur - TNPCB",22-02-2024 18:00:00,10.681158,78.741746,PM2.5,32,50,41
India,TamilNadu,Palkalaiperur,"Bharathidasan University, Palkalaiperur - TNPCB",22-02-2024 18:00:00,10.681158,78.741746,PM10,40,63,52
India,TamilNadu,Ramanathapuram,"Chalai Bazaar, Ramanathapuram - TNPCB",22-02-2024 18:00:00,9.36399,78.831977,PM2.5,30,88,69
India,TamilNadu,Ramanathapuram,"Chalai Bazaar, Ramanathapuram - TNPCB",22-02-2024 18:00:00,9.36399,78.831977,SO2,6,8,7
India,TamilNadu,Salem,"Sona College of Technology, Salem - TNPCB",22-02-2024 18:00:00,11.679111,78.125052,NO2,7,11,9
India,TamilNadu,Salem,"Sona College of Technology, Salem - TNPCB",22-02-2024 18:00:00,11.679111,78.125052,OZONE,2,5,3
India,TamilNadu,Thoothukudi,"Meelavittan, Thoothukudi - TNPCB",22-02-2024 18:00:00,8.816428 ,78.099039,PM10,58,153,89
India,TamilNadu,Thoothukudi,"Meelavittan, Thoothukudi - TNPCB",22-02-2024 18:00:00,8.816428 ,78.099039,SO2,7,16,13
India,TamilNadu,Thoothukudi,"Meelavittan, Thoothukudi - TNPCB",22-02-2024 18:00:00,8.816428 ,78.099039,CO,6,122,25
India,TamilNadu,Tirupur,"Kumaran College, Tirupur - TNPCB",22-02-2024 18:00:00,11.0973603,77.3228673,PM2.5,13,54,32
India,TamilNadu,Tirupur,"Kumaran College, Tirupur - TNPCB",22-02-2024 18:00:00,11.0973603,77.3228673,NH3,NA,NA,NA
India,TamilNadu,Vellore,"Vasanthapuram, Vellore - TNPCB",22-02-2024 18:00:00,12.909494,79.131861,PM10,NA,NA,NA
India,TamilNadu,Vellore,"Vasanthapuram, Vellore - TNPCB",22-02-2024 18:00:00,12.909494,79.131861,NO2,NA,NA,NA
India,TamilNadu,Virudhunagar,"Collectorate Office, Virudhunagar - TNPCB",22-02-2024 18:00:00,9.559382,77.948828,SO2,15,16,16
India,TamilNadu,Virudhunagar,"Collectorate Office, Virudhunagar - TNPCB",22-02-2024 18:00:00,9.559382,77.948828,OZONE,3,3,3
India,Telangana,Hyderabad,"ECIL Kapra, Hyderabad - TSPCB",22-02-2024 18:00:00,17.470431,78.566959,NO2,7,10,8
India,Telangana,Hyderabad,"ICRISAT Patancheru, Hyderabad - TSPCB",22-02-2024 18:00:00,17.518400,78.278777,PM2.5,20,169,88
India,Telangana,Hyderabad,"ICRISAT Patancheru, Hyderabad - TSPCB",22-02-2024 18:00:00,17.518400,78.278777,OZONE,1,100,85
India,Telangana,Hyderabad,"Kokapet, Hyderabad - TSPCB",22-02-2024 18:00:00,17.393559,78.339194,PM10,73,110,83
India,Telangana,Hyderabad,"Kokapet, Hyderabad - TSPCB",22-02-2024 18:00:00,17.393559,78.339194,NH3,1,2,1
India,Telangana,Hyderabad,"Kompally Municipal Office, Hyderabad - TSPCB",22-02-2024 18:00:00,17.544899,78.486949,NH3,NA,NA,NA
India,Telangana,Hyderabad,"Kompally Municipal Office, Hyderabad - TSPCB",22-02-2024 18:00:00,17.544899,78.486949,OZONE,75,89,84
India,Telangana,Hyderabad,"Nacharam_TSIIC IALA, Hyderabad - TSPCB",22-02-2024 18:00:00,17.429398,78.569354,PM2.5,NA,NA,NA
India,Telangana,Hyderabad,"Nacharam_TSIIC IALA, Hyderabad - TSPCB",22-02-2024 18:00:00,17.429398,78.569354,CO,16,21,17
India,Telangana,Hyderabad,"New Malakpet, Hyderabad - TSPCB",22-02-2024 18:00:00,17.37206,78.50864,PM10,58,80,64
India,Telangana,Hyderabad,"New Malakpet, Hyderabad - TSPCB",22-02-2024 18:00:00,17.37206,78.50864,NO2,19,49,28
India,Telangana,Hyderabad,"Ramachandrapuram, Hyderabad - TSPCB",22-02-2024 18:00:00,17.528544,78.286195,PM10,NA,NA,NA
India,Telangana,Hyderabad,"Ramachandrapuram, Hyderabad - TSPCB",22-02-2024 18:00:00,17.528544,78.286195,NH3,NA,NA,NA
India,Telangana,Hyderabad,"Ramachandrapuram, Hyderabad - TSPCB",22-02-2024 18:00:00,17.528544,78.286195,OZONE,40,48,45
India,Telangana,Hyderabad,"Somajiguda, Hyderabad - TSPCB",22-02-2024 18:00:00,17.417094,78.457437,CO,14,105,27
India,Telangana,Hyderabad,"Somajiguda, Hyderabad - TSPCB",22-02-2024 18:00:00,17.417094,78.457437,OZONE,1,24,19
India,Telangana,Hyderabad,"Zoo Park, Hyderabad - TSPCB",22-02-2024 18:00:00,17.349694,78.451437,PM10,62,157,121
India,Telangana,Hyderabad,"Zoo Park, Hyderabad - TSPCB",22-02-2024 18:00:00,17.349694,78.451437,NH3,1,2,1
India,Telangana,Hyderabad,"Zoo Park, Hyderabad - TSPCB",22-02-2024 18:00:00,17.349694,78.451437,SO2,2,7,5
India,Telangana,Hyderabad,"Zoo Park, Hyderabad - TSPCB",22-02-2024 18:00:00,17.349694,78.451437,CO,20,87,34
India,Tripura,Agartala,"Bardowali, Agartala - Tripura SPCB",22-02-2024 18:00:00,23.8175497,91.2726974,CO,14,78,20
India,Uttar_Pradesh,Agra,"Manoharpur, Agra - UPPCB",22-02-2024 18:00:00,27.23711,78.01936,NO2,17,20,18
India,Uttar_Pradesh,Agra,"Manoharpur, Agra - UPPCB",22-02-2024 18:00:00,27.23711,78.01936,OZONE,1,21,14
India,Uttar_Pradesh,Agra,"Sanjay Palace, Agra - UPPCB",22-02-2024 18:00:00,27.19865833,78.00598056,NO2,41,76,55
India,Uttar_Pradesh,Agra,"Sector-3B Avas Vikas Colony, Agra - UPPCB",22-02-2024 18:00:00,27.19412,77.96237,NO2,7,36,18
India,Uttar_Pradesh,Agra,"Sector-3B Avas Vikas Colony, Agra - UPPCB",22-02-2024 18:00:00,27.19412,77.96237,CO,2,20,4
India,Uttar_Pradesh,Agra,"Shahjahan Garden, Agra - UPPCB",22-02-2024 18:00:00,27.169338,78.03582,SO2,35,42,39
India,Uttar_Pradesh,Agra,"Shahjahan Garden, Agra - UPPCB",22-02-2024 18:00:00,27.169338,78.03582,CO,2,26,1
India,Uttar_Pradesh,Agra,"Shastripuram, Agra - UPPCB",22-02-2024 18:00:00,27.19862,77.92066,PM10,8,132,75
India,Uttar_Pradesh,Agra,"Shastripuram, Agra - UPPCB",22-02-2024 18:00:00,27.19862,77.92066,NH3,1,11,3
India,Uttar_Pradesh,Bareilly,"Civil Lines, Bareilly - UPPCB",22-02-2024 18:00:00,28.359581,79.414455,SO2,39,42,41
India,Uttar_Pradesh,Bulandshahr,"Yamunapuram, Bulandshahr - UPPCB",22-02-2024 18:00:00,28.406963,77.849831,PM2.5,35,201,90
India,Uttar_Pradesh,Bulandshahr,"Yamunapuram, Bulandshahr - UPPCB",22-02-2024 18:00:00,28.406963,77.849831,NO2,16,51,32
India,Uttar_Pradesh,Bulandshahr,"Yamunapuram, Bulandshahr - UPPCB",22-02-2024 18:00:00,28.406963,77.849831,CO,2,111,64
India,Uttar_Pradesh,Bulandshahr,"Yamunapuram, Bulandshahr - UPPCB",22-02-2024 18:00:00,28.406963,77.849831,OZONE,9,86,68
India,Uttar_Pradesh,Firozabad,"Nagla Bhau, Firozabad - UPPCB",22-02-2024 18:00:00,27.168897,78.376960,PM2.5,NA,NA,NA
India,Uttar_Pradesh,Firozabad,"Nagla Bhau, Firozabad - UPPCB",22-02-2024 18:00:00,27.168897,78.376960,PM10,NA,NA,NA
India,Uttar_Pradesh,Firozabad,"Vibhab Nagar, Firozabad - UPPCB",22-02-2024 18:00:00,27.1594,78.3953,PM2.5,26,162,57
India,Uttar_Pradesh,Firozabad,"Vibhab Nagar, Firozabad - UPPCB",22-02-2024 18:00:00,27.1594,78.3953,SO2,12,19,14
India,Uttar_Pradesh,Ghaziabad,"Indirapuram, Ghaziabad - UPPCB",22-02-2024 18:00:00,28.646233,77.358075,NH3,6,10,8
India,Uttar_Pradesh,Ghaziabad,"Loni, Ghaziabad - UPPCB",22-02-2024 18:00:00,28.757294,77.278792,NO2,3,26,13
India,Uttar_Pradesh,Ghaziabad,"Loni, Ghaziabad - UPPCB",22-02-2024 18:00:00,28.757294,77.278792,OZONE,2,82,68
India,Uttar_Pradesh,Ghaziabad,"Sanjay Nagar, Ghaziabad - UPPCB",22-02-2024 18:00:00,28.685382,77.453839,NO2,28,77,55
India,Uttar_Pradesh,Ghaziabad,"Sanjay Nagar, Ghaziabad - UPPCB",22-02-2024 18:00:00,28.685382,77.453839,NH3,7,14,11
India,Uttar_Pradesh,Ghaziabad,"Sanjay Nagar, Ghaziabad - UPPCB",22-02-2024 18:00:00,28.685382,77.453839,SO2,16,43,24
India,Uttar_Pradesh,Ghaziabad,"Vasundhara, Ghaziabad - UPPCB",22-02-2024 18:00:00,28.6603346,77.3572563,PM10,79,187,117
India,Uttar_Pradesh,Ghaziabad,"Vasundhara, Ghaziabad - UPPCB",22-02-2024 18:00:00,28.6603346,77.3572563,NO2,23,111,55
India,Uttar_Pradesh,Ghaziabad,"Vasundhara, Ghaziabad - UPPCB",22-02-2024 18:00:00,28.6603346,77.3572563,SO2,3,114,18
India,Uttar_Pradesh,Gorakhpur,"Madan Mohan Malaviya University of Technology, Gorakhpur - UPPCB",22-02-2024 18:00:00,26.730136,83.433859,PM2.5,38,90,70
India,Uttar_Pradesh,Gorakhpur,"Madan Mohan Malaviya University of Technology, Gorakhpur - UPPCB",22-02-2024 18:00:00,26.730136,83.433859,SO2,22,32,24
India,Uttar_Pradesh,Gorakhpur,"Madan Mohan Malaviya University of Technology, Gorakhpur - UPPCB",22-02-2024 18:00:00,26.730136,83.433859,OZONE,2,41,29
India,Uttar_Pradesh,Greater Noida,"Knowledge Park - III, Greater Noida - UPPCB",22-02-2024 18:00:00,28.47272,77.482000,PM2.5,61,313,191
India,Uttar_Pradesh,Greater Noida,"Knowledge Park - III, Greater Noida - UPPCB",22-02-2024 18:00:00,28.47272,77.482000,NH3,1,7,2
India,Uttar_Pradesh,Greater Noida,"Knowledge Park - V, Greater Noida - UPPCB",22-02-2024 18:00:00,28.557054,77.453663,NO2,17,30,23
India,Uttar_Pradesh,Greater Noida,"Knowledge Park - V, Greater Noida - UPPCB",22-02-2024 18:00:00,28.557054,77.453663,OZONE,8,97,75
India,Uttar_Pradesh,Hapur,"Anand Vihar, Hapur - UPPCB",22-02-2024 18:00:00,28.725645,77.749675,PM2.5,32,161,89
India,Uttar_Pradesh,Jhansi,"Shivaji Nagar, Jhansi - UPPCB",22-02-2024 18:00:00,25.4547,78.6039,OZONE,1,34,13
India,Uttar_Pradesh,Kanpur,"FTI Kidwai Nagar, Kanpur - UPPCB",22-02-2024 18:00:00,26.428282,80.327067,OZONE,3,6,5
India,Uttar_Pradesh,Kanpur,"NSI Kalyanpur, Kanpur - UPPCB",22-02-2024 18:00:00,26.509954,80.249612,PM2.5,23,118,70
India,Uttar_Pradesh,Kanpur,"NSI Kalyanpur, Kanpur - UPPCB",22-02-2024 18:00:00,26.509954,80.249612,NO2,10,10,10
India,Uttar_Pradesh,Kanpur,"NSI Kalyanpur, Kanpur - UPPCB",22-02-2024 18:00:00,26.509954,80.249612,NH3,1,2,2
India,Uttar_Pradesh,Kanpur,"Nehru Nagar, Kanpur - UPPCB",22-02-2024 18:00:00,26.4703136,80.3229863,SO2,1,19,9
India,Uttar_Pradesh,Khurja,"Kalindi Kunj, Khurja - UPPCB",22-02-2024 18:00:00,28.2348927,77.8683002,NO2,14,38,19
India,Uttar_Pradesh,Lucknow,"B R Ambedkar University, Lucknow - UPPCB",22-02-2024 18:00:00,26.766433,80.927299,PM10,56,128,100
India,Uttar_Pradesh,Lucknow,"B R Ambedkar University, Lucknow - UPPCB",22-02-2024 18:00:00,26.766433,80.927299,NH3,5,10,7
India,Uttar_Pradesh,Lucknow,"Kendriya Vidyalaya, Lucknow - CPCB",22-02-2024 18:00:00,26.906111,80.948222,PM2.5,60,200,128
India,Uttar_Pradesh,Lucknow,"Kukrail Picnic Spot-1, Lucknow - UPPCB",22-02-2024 18:00:00,26.90723,80.98579,NO2,NA,NA,NA
India,Uttar_Pradesh,Lucknow,"Kukrail Picnic Spot-1, Lucknow - UPPCB",22-02-2024 18:00:00,26.90723,80.98579,SO2,NA,NA,NA
India,Uttar_Pradesh,Lucknow,"Kukrail Picnic Spot-1, Lucknow - UPPCB",22-02-2024 18:00:00,26.90723,80.98579,CO,9,40,18
India,Uttar_Pradesh,Lucknow,"Kukrail Picnic Spot-1, Lucknow - UPPCB",22-02-2024 18:00:00,26.90723,80.98579,OZONE,61,84,71
India,Uttar_Pradesh,Lucknow,"Lalbagh, Lucknow - CPCB",22-02-2024 18:00:00,26.8458805,80.9365541,NH3,8,15,11
India,Uttar_Pradesh,Meerut,"Jai Bhim Nagar, Meerut - UPPCB",22-02-2024 18:00:00,28.9535882,77.7622941,SO2,1,11,4
India,Uttar_Pradesh,Meerut,"Pallavpuram Phase 2, Meerut - UPPCB",22-02-2024 18:00:00,29.063510,77.709723,PM2.5,28,113,80
India,Uttar_Pradesh,Meerut,"Pallavpuram Phase 2, Meerut - UPPCB",22-02-2024 18:00:00,29.063510,77.709723,NH3,9,15,11
India,Uttar_Pradesh,Moradabad,"Buddhi Vihar, Moradabad - UPPCB",22-02-2024 18:00:00,28.83526,78.74460,PM10,44,122,83
India,Uttar_Pradesh,Moradabad,"Buddhi Vihar, Moradabad - UPPCB",22-02-2024 18:00:00,28.83526,78.74460,SO2,24,25,24
India,Uttar_Pradesh,Moradabad,"Eco Herbal Park, Moradabad - UPPCB",22-02-2024 18:00:00,28.840739,78.697531,PM10,36,119,84
India,Uttar_Pradesh,Moradabad,"Eco Herbal Park, Moradabad - UPPCB",22-02-2024 18:00:00,28.840739,78.697531,NO2,10,48,30
India,Uttar_Pradesh,Moradabad,"Eco Herbal Park, Moradabad - UPPCB",22-02-2024 18:00:00,28.840739,78.697531,SO2,3,32,14
India,Uttar_Pradesh,Moradabad,"Jigar Colony, Moradabad - UPPCB",22-02-2024 18:00:00,28.856664,78.772638,SO2,18,22,20
India,Uttar_Pradesh,Moradabad,"Kashiram Nagar, Moradabad - UPPCB",22-02-2024 18:00:00,28.849399,78.742362,NH3,2,4,4
India,Uttar_Pradesh,Moradabad,"Transport Nagar, Moradabad - UPPCB",22-02-2024 18:00:00,28.802625,78.753728,NH3,6,6,6
India,Uttar_Pradesh,Moradabad,"Transport Nagar, Moradabad - UPPCB",22-02-2024 18:00:00,28.802625,78.753728,OZONE,15,46,28
India,Uttar_Pradesh,Noida,"Sector - 62, Noida - IMD",22-02-2024 18:00:00,28.6245479,77.3577104,CO,16,30,21
India,Uttar_Pradesh,Noida,"Sector - 62, Noida - IMD",22-02-2024 18:00:00,28.6245479,77.3577104,OZONE,6,34,29
India,Uttar_Pradesh,Noida,"Sector-1, Noida - UPPCB",22-02-2024 18:00:00,28.5898,77.3101,PM10,125,269,157
India,Uttar_Pradesh,Noida,"Sector-116, Noida - UPPCB",22-02-2024 18:00:00,28.569230,77.393848,CO,11,92,44
India,Uttar_Pradesh,Prayagraj,"Jhunsi, Prayagraj - UPPCB",22-02-2024 18:00:00,25.425602,81.917152,NO2,6,6,6
India,Uttar_Pradesh,Prayagraj,"Motilal Nehru NIT, Prayagraj - UPPCB",22-02-2024 18:00:00,25.494,81.863,NO2,9,12,12
India,Uttar_Pradesh,Prayagraj,"Motilal Nehru NIT, Prayagraj - UPPCB",22-02-2024 18:00:00,25.494,81.863,SO2,19,22,21
India,Uttar_Pradesh,Prayagraj,"Motilal Nehru NIT, Prayagraj - UPPCB",22-02-2024 18:00:00,25.494,81.863,CO,10,27,16
India,Uttar_Pradesh,Prayagraj,"Nagar Nigam, Prayagraj - UPPCB",22-02-2024 18:00:00,25.44919916 ,81.82735986 ,PM10,36,136,72
India,Uttar_Pradesh,Varanasi,"Ardhali Bazar, Varanasi - UPPCB",22-02-2024 18:00:00,25.3505986,82.9083074,PM2.5,5,27,14
India,Uttar_Pradesh,Varanasi,"Ardhali Bazar, Varanasi - UPPCB",22-02-2024 18:00:00,25.3505986,82.9083074,PM10,6,28,15
India,Uttar_Pradesh,Varanasi,"Ardhali Bazar, Varanasi - UPPCB",22-02-2024 18:00:00,25.3505986,82.9083074,CO,4,22,9
India,Uttar_Pradesh,Varanasi,"IESD Banaras Hindu University, Varanasi - UPPCB",22-02-2024 18:00:00,25.262326,82.995408,SO2,15,15,15
India,Uttar_Pradesh,Varanasi,"IESD Banaras Hindu University, Varanasi - UPPCB",22-02-2024 18:00:00,25.262326,82.995408,CO,14,23,17
India,Uttar_Pradesh,Varanasi,"Maldahiya, Varanasi - UPPCB",22-02-2024 18:00:00,25.32393,82.99687,NO2,1,2,1
India,Uttar_Pradesh,Vrindavan,"Omex Eternity, Vrindavan - UPPCB",22-02-2024 18:00:00,27.5714090,77.6557570,SO2,37,39,38
India,Uttar_Pradesh,Vrindavan,"Omex Eternity, Vrindavan - UPPCB",22-02-2024 18:00:00,27.5714090,77.6557570,OZONE,30,37,31
India,Uttarakhand,Kashipur,"Govt. Girls Inter College, Kashipur - UKPCB",22-02-2024 18:00:00,29.2124114,78.9611753,OZONE,6,33,28
India,Uttarakhand,Rishikesh,"Shivaji Nagar, Rishikesh - UKPCB",22-02-2024 18:00:00,30.075911,78.2859547,NH3,2,3,3
India,Uttarakhand,Rishikesh,"Shivaji Nagar, Rishikesh - UKPCB",22-02-2024 18:00:00,30.075911,78.2859547,SO2,3,6,4
India,Uttarakhand,Rishikesh,"Shivaji Nagar, Rishikesh - UKPCB",22-02-2024 18:00:00,30.075911,78.2859547,OZONE,24,83,69
India,West_Bengal,Asansol,"Asansol Court Area, Asansol - WBPCB",22-02-2024 18:00:00,23.685297,86.945968,PM10,69,149,115
India,West_Bengal,Barrackpore,"SVSPA Campus, Barrackpore - WBPCB",22-02-2024 18:00:00,22.7605581,88.3617589,OZONE,8,45,35
India,West_Bengal,Durgapur,"Sidhu Kanhu Indoor Stadium, Durgapur - WBPCB",22-02-2024 18:00:00,23.5404352,87.2892225,SO2,NA,NA,NA
India,West_Bengal,Haldia,"Priyambada Housing Estate, Haldia - WBPCB",22-02-2024 18:00:00,22.06047,88.109737,NH3,3,4,3
India,West_Bengal,Haldia,"Priyambada Housing Estate, Haldia - WBPCB",22-02-2024 18:00:00,22.06047,88.109737,CO,16,35,21
India,West_Bengal,Haldia,"Priyambada Housing Estate, Haldia - WBPCB",22-02-2024 18:00:00,22.06047,88.109737,OZONE,16,58,32
India,West_Bengal,Howrah,"Belur Math, Howrah - WBPCB",22-02-2024 18:00:00,22.629801,88.352017,NO2,16,31,24
India,West_Bengal,Howrah,"Belur Math, Howrah - WBPCB",22-02-2024 18:00:00,22.629801,88.352017,SO2,7,12,11
India,West_Bengal,Howrah,"Belur Math, Howrah - WBPCB",22-02-2024 18:00:00,22.629801,88.352017,CO,2,42,14
India,West_Bengal,Howrah,"Belur Math, Howrah - WBPCB",22-02-2024 18:00:00,22.629801,88.352017,OZONE,12,37,22
India,West_Bengal,Howrah,"Ghusuri, Howrah - WBPCB",22-02-2024 18:00:00,22.611968,88.347422,SO2,4,7,5
India,West_Bengal,Howrah,"Padmapukur, Howrah - WBPCB",22-02-2024 18:00:00,22.5687319,88.2797276,OZONE,5,28,23
India,West_Bengal,Kolkata,"Ballygunge, Kolkata - WBPCB",22-02-2024 18:00:00,22.5367507,88.3638022,OZONE,8,31,23
India,West_Bengal,Kolkata,"Bidhannagar, Kolkata - WBPCB",22-02-2024 18:00:00,22.58157048,88.41002457,NO2,9,29,17
India,West_Bengal,Kolkata,"Fort William, Kolkata - WBPCB",22-02-2024 18:00:00,22.556640,88.342674,CO,22,78,36
India,West_Bengal,Kolkata,"Rabindra Bharati University, Kolkata - WBPCB",22-02-2024 18:00:00,22.627847,88.380669,NO2,NA,NA,NA
India,West_Bengal,Kolkata,"Rabindra Sarobar, Kolkata - WBPCB",22-02-2024 18:00:00,22.51106,88.35142,PM2.5,48,168,91
India,West_Bengal,Kolkata,"Victoria, Kolkata - WBPCB",22-02-2024 18:00:00,22.5448082,88.3403691,PM10,77,164,126
India,West_Bengal,Kolkata,"Victoria, Kolkata - WBPCB",22-02-2024 18:00:00,22.5448082,88.3403691,NH3,2,7,3
India,West_Bengal,Kolkata,"Victoria, Kolkata - WBPCB",22-02-2024 18:00:00,22.5448082,88.3403691,SO2,6,18,11
India,West_Bengal,Kolkata,"Victoria, Kolkata - WBPCB",22-02-2024 18:00:00,22.5448082,88.3403691,CO,16,88,41
India,Andhra_Pradesh,Anantapur,"Gulzarpet, Anantapur - APPCB",22-02-2024 18:00:00,14.675886,77.593027,NH3,1,3,3
India,Andhra_Pradesh,Chittoor,"Gangineni Cheruvu, Chittoor - APPCB",22-02-2024 18:00:00,13.204880,79.097889,PM10,56,83,68
India,Andhra_Pradesh,Chittoor,"Gangineni Cheruvu, Chittoor - APPCB",22-02-2024 18:00:00,13.204880,79.097889,NH3,1,4,2
India,Andhra_Pradesh,Chittoor,"Gangineni Cheruvu, Chittoor - APPCB",22-02-2024 18:00:00,13.204880,79.097889,CO,NA,NA,NA
India,Andhra_Pradesh,Kadapa,"Yerramukkapalli, Kadapa - APPCB",22-02-2024 18:00:00,14.465052,78.824187,SO2,1,2,2
India,Andhra_Pradesh,Rajamahendravaram,"Anand Kala Kshetram, Rajamahendravaram - APPCB",22-02-2024 18:00:00,16.9872867,81.7363176,PM10,56,136,82
India,Andhra_Pradesh,Tirupati,"Tirumala, Tirupati - APPCB",22-02-2024 18:00:00,13.67,79.35,OZONE,18,52,44
India,Andhra_Pradesh,Tirupati,"Vaikuntapuram, Tirupati - APPCB",22-02-2024 18:00:00,13.615387,79.409230,NO2,16,46,24
India,Andhra_Pradesh,Tirupati,"Vaikuntapuram, Tirupati - APPCB",22-02-2024 18:00:00,13.615387,79.409230,OZONE,7,54,42
India,Andhra_Pradesh,Vijayawada,"Kanuru, Vijayawada - APPCB",22-02-2024 18:00:00,16.486692,80.699436,PM10,60,102,78
India,Andhra_Pradesh,Vijayawada,"Rajiv Gandhi Park, Vijayawada - APPCB",22-02-2024 18:00:00,16.509717,80.612222,SO2,5,16,8
India,Andhra_Pradesh,Vijayawada,"Rajiv Nagar, Vijayawada - APPCB",22-02-2024 18:00:00,16.554731,80.649110,NH3,1,1,1
India,Andhra_Pradesh,Vijayawada,"Rajiv Nagar, Vijayawada - APPCB",22-02-2024 18:00:00,16.554731,80.649110,CO,20,74,25
India,Andhra_Pradesh,Visakhapatnam,"GVM Corporation, Visakhapatnam - APPCB",22-02-2024 18:00:00,17.72,83.3,NO2,40,62,49
India,Andhra_Pradesh,Visakhapatnam,"GVM Corporation, Visakhapatnam - APPCB",22-02-2024 18:00:00,17.72,83.3,CO,14,78,26
India,Assam,Byrnihat,"Central Academy for SFS, Byrnihat - PCBA",22-02-2024 18:00:00,26.071318,91.87488,NH3,6,9,8
India,Assam,Guwahati,"IITG, Guwahati - PCBA",22-02-2024 18:00:00,26.2028636,91.70046436,NO2,4,12,8
India,Assam,Guwahati,"LGBI Airport, Guwahati - PCBA",22-02-2024 18:00:00,26.10887,91.589544,PM10,77,306,156
India,Assam,Guwahati,"LGBI Airport, Guwahati - PCBA",22-02-2024 18:00:00,26.10887,91.589544,NH3,1,5,3
India,Assam,Guwahati,"LGBI Airport, Guwahati - PCBA",22-02-2024 18:00:00,26.10887,91.589544,SO2,11,14,13
India,Assam,Guwahati,"LGBI Airport, Guwahati - PCBA",22-02-2024 18:00:00,26.10887,91.589544,OZONE,1,21,8
India,Assam,Guwahati,"Pan Bazaar, Guwahati - PCBA",22-02-2024 18:00:00,26.187500,91.744194,CO,51,101,61
India,Assam,Silchar,"Tarapur, Silchar - PCBA",22-02-2024 18:00:00,24.82827,92.79525,PM2.5,40,58,49
India,Assam,Silchar,"Tarapur, Silchar - PCBA",22-02-2024 18:00:00,24.82827,92.79525,OZONE,1,5,3
India,Assam,Sivasagar,"Girls College, Sivasagar - PCBA",22-02-2024 18:00:00,26.987634,94.636574,PM2.5,13,39,24
India,Assam,Sivasagar,"Girls College, Sivasagar - PCBA",22-02-2024 18:00:00,26.987634,94.636574,NO2,15,23,19
India,Assam,Sivasagar,"Girls College, Sivasagar - PCBA",22-02-2024 18:00:00,26.987634,94.636574,OZONE,NA,NA,NA
India,Bihar,Araria,"Kharahiya Basti, Araria - BSPCB",22-02-2024 18:00:00,26.146529,87.454184,PM10,106,431,201
India,Bihar,Araria,"Kharahiya Basti, Araria - BSPCB",22-02-2024 18:00:00,26.146529,87.454184,OZONE,7,10,9
India,Bihar,Arrah,"New DM Office, Arrah - BSPCB",22-02-2024 18:00:00,25.5626095,84.663264,PM10,13,155,73
India,Bihar,Arrah,"New DM Office, Arrah - BSPCB",22-02-2024 18:00:00,25.5626095,84.663264,CO,4,16,10
India,Bihar,Arrah,"New DM Office, Arrah - BSPCB",22-02-2024 18:00:00,25.5626095,84.663264,OZONE,8,44,19
India,Bihar,Aurangabad,"Gurdeo Nagar, Aurangabad - BSPCB",22-02-2024 18:00:00,24.75746,84.366208,PM2.5,NA,NA,NA
India,Bihar,Aurangabad,"Gurdeo Nagar, Aurangabad - BSPCB",22-02-2024 18:00:00,24.75746,84.366208,PM10,NA,NA,NA
India,Bihar,Bettiah,"Kamalnath Nagar, Bettiah - BSPCB",22-02-2024 18:00:00,26.80365,84.51954,PM10,17,43,28
India,Bihar,Bhagalpur,"DM Office_Kachari Chowk, Bhagalpur - BSPCB",22-02-2024 18:00:00,25.251013,86.989001,NH3,4,16,8
India,Bihar,Bhagalpur,"DM Office_Kachari Chowk, Bhagalpur - BSPCB",22-02-2024 18:00:00,25.251013,86.989001,OZONE,22,43,29
India,Bihar,Bhagalpur,"Mayaganj, Bhagalpur - BSPCB",22-02-2024 18:00:00,25.265194,87.012947,PM2.5,27,210,110
India,Bihar,Bihar Sharif,"D M Colony, Bihar Sharif - BSPCB",22-02-2024 18:00:00,25.204762,85.514960,SO2,1,11,7
India,Bihar,Buxar,"Charitra Van, Buxar - BSPCB (Formerly known as Central Jail)",22-02-2024 18:00:00,25.567520,83.966379,PM10,28,437,110
India,Bihar,Buxar,"Charitra Van, Buxar - BSPCB (Formerly known as Central Jail)",22-02-2024 18:00:00,25.567520,83.966379,OZONE,2,84,56
India,Bihar,Chhapra,"Darshan Nagar, Chhapra - BSPCB",22-02-2024 18:00:00,25.7808257,84.7446768,PM2.5,47,398,148
India,Bihar,Chhapra,"Darshan Nagar, Chhapra - BSPCB",22-02-2024 18:00:00,25.7808257,84.7446768,PM10,46,368,116
India,Bihar,Chhapra,"Darshan Nagar, Chhapra - BSPCB",22-02-2024 18:00:00,25.7808257,84.7446768,NO2,NA,NA,NA
India,Bihar,Gaya,"Collectorate, Gaya - BSPCB",22-02-2024 18:00:00,24.7955,84.9994,SO2,6,17,10
India,Bihar,Gaya,"Collectorate, Gaya - BSPCB",22-02-2024 18:00:00,24.7955,84.9994,OZONE,50,81,61
India,Bihar,Gaya,"Kareemganj, Gaya - BSPCB",22-02-2024 18:00:00,24.792403,84.992416,NH3,1,6,3
India,Bihar,Gaya,"Kareemganj, Gaya - BSPCB",22-02-2024 18:00:00,24.792403,84.992416,CO,10,104,42
India,Bihar,Hajipur,"Industrial Area, Hajipur - BSPCB",22-02-2024 18:00:00,25.697189,85.245900,PM10,62,144,102
India,Bihar,Katihar,"Mirchaibari, Katihar - BSPCB",22-02-2024 18:00:00,25.560083,87.553265,PM2.5,45,230,126
India,Bihar,Katihar,"Mirchaibari, Katihar - BSPCB",22-02-2024 18:00:00,25.560083,87.553265,SO2,17,20,19
India,Bihar,Katihar,"Mirchaibari, Katihar - BSPCB",22-02-2024 18:00:00,25.560083,87.553265,OZONE,19,23,21
India,Bihar,Kishanganj,"SDM Office_Khagra, Kishanganj - BSPCB",22-02-2024 18:00:00,26.0881305,87.93840336,PM2.5,NA,NA,NA
India,Bihar,Kishanganj,"SDM Office_Khagra, Kishanganj - BSPCB",22-02-2024 18:00:00,26.0881305,87.93840336,CO,3,21,6
India,Bihar,Motihari,"Gandak Colony, Motihari - BSPCB",22-02-2024 18:00:00,26.63086,84.90051,PM10,22,103,68
India,Bihar,Munger,"Town Hall, Munger - BSPCB",22-02-2024 18:00:00,25.376776,86.471523,PM2.5,18,333,66
India,Bihar,Munger,"Town Hall, Munger - BSPCB",22-02-2024 18:00:00,25.376776,86.471523,PM10,23,277,68
India,Bihar,Muzaffarpur,"Muzaffarpur Collectorate, Muzaffarpur - BSPCB",22-02-2024 18:00:00,26.1209,85.3647,OZONE,18,97,53
India,Bihar,Patna,"Govt. High School Shikarpur, Patna - BSPCB",22-02-2024 18:00:00,25.592539,85.227158,SO2,1,5,3
India,Bihar,Patna,"Rajbansi Nagar, Patna - BSPCB",22-02-2024 18:00:00,25.599486,85.113666,SO2,11,24,16
India,Bihar,Patna,"Rajbansi Nagar, Patna - BSPCB",22-02-2024 18:00:00,25.599486,85.113666,OZONE,2,55,31
India,Bihar,Patna,"Samanpura, Patna - BSPCB",22-02-2024 18:00:00,25.596727,85.085624,PM2.5,36,305,101
India,Bihar,Patna,"Samanpura, Patna - BSPCB",22-02-2024 18:00:00,25.596727,85.085624,CO,16,118,34
India,Bihar,Purnia,"Mariam Nagar, Purnia - BSPCB",22-02-2024 18:00:00,25.366336,87.117468,NO2,12,14,13
India,Bihar,Purnia,"Mariam Nagar, Purnia - BSPCB",22-02-2024 18:00:00,25.366336,87.117468,CO,16,124,40
India,Bihar,Rajgir,"Dangi Tola, Rajgir - BSPCB",22-02-2024 18:00:00,25.03280,85.41948,PM10,14,144,74
India,Bihar,Saharsa,"Police Line, Saharsa - BSPCB",22-02-2024 18:00:00,25.892357,86.590325,NH3,9,9,9
India,Bihar,Samastipur,"DM Office_Kasipur, Samastipur - BSPCB",22-02-2024 18:00:00,25.859655,85.77944,PM10,NA,NA,NA
India,Bihar,Samastipur,"DM Office_Kasipur, Samastipur - BSPCB",22-02-2024 18:00:00,25.859655,85.77944,NH3,2,4,3
India,Bihar,Siwan,"Chitragupta Nagar, Siwan - BSPCB",22-02-2024 18:00:00,26.2271665,84.3570427,NO2,16,125,31
India,Bihar,Siwan,"Chitragupta Nagar, Siwan - BSPCB",22-02-2024 18:00:00,26.2271665,84.3570427,OZONE,1,44,32
India,Chandigarh,Chandigarh,"Sector-53, Chandigarh - CPCC",22-02-2024 18:00:00,30.719859,76.738637,NH3,3,6,4
India,Chhattisgarh,Bhilai,"Hathkhoj, Bhilai - CECB",22-02-2024 18:00:00,21.224231,81.408350,PM2.5,22,73,38
India,Chhattisgarh,Bhilai,"Hathkhoj, Bhilai - CECB",22-02-2024 18:00:00,21.224231,81.408350,SO2,12,24,15
India,Chhattisgarh,Bhilai,"Hathkhoj, Bhilai - CECB",22-02-2024 18:00:00,21.224231,81.408350,CO,12,107,14
India,Chhattisgarh,Bhilai,"Hathkhoj, Bhilai - CECB",22-02-2024 18:00:00,21.224231,81.408350,OZONE,10,19,18
India,Chhattisgarh,Bilaspur,"Mangala, Bilaspur - NTPC",22-02-2024 18:00:00,22.08815,82.13737,PM10,29,130,63
India,Chhattisgarh,Bilaspur,"Mangala, Bilaspur - NTPC",22-02-2024 18:00:00,22.08815,82.13737,NO2,NA,NA,NA
India,Chhattisgarh,Chhal,"Nawapara SECL Colony, Chhal - CECB",22-02-2024 18:00:00,22.118125,83.140608,OZONE,3,57,48
India,Chhattisgarh,Korba,"Rampur, Korba - CECB",22-02-2024 18:00:00,22.368195,82.746431,PM2.5,15,37,26
India,Chhattisgarh,Korba,"Rampur, Korba - CECB",22-02-2024 18:00:00,22.368195,82.746431,NH3,2,6,3
India,Chhattisgarh,Korba,"Urja Nagar, Korba - CECB",22-02-2024 18:00:00,22.348441,82.549611,OZONE,1,1,1
India,Chhattisgarh,Kunjemura,"OP Jindal School, Kunjemura - CECB",22-02-2024 18:00:00,22.126650,83.483212,PM10,70,234,121
India,Chhattisgarh,Kunjemura,"OP Jindal School, Kunjemura - CECB",22-02-2024 18:00:00,22.126650,83.483212,OZONE,4,65,53
India,Chhattisgarh,Milupara,"Govt. Higher Secondary School, Milupara - CECB",22-02-2024 18:00:00,22.1910172,83.5197009,PM2.5,NA,NA,NA
India,Chhattisgarh,Milupara,"Govt. Higher Secondary School, Milupara - CECB",22-02-2024 18:00:00,22.1910172,83.5197009,CO,14,51,16
India,Chhattisgarh,Raipur,"AIIMS, Raipur - CECB",22-02-2024 18:00:00,21.258815,81.578979,SO2,4,12,6
India,Chhattisgarh,Raipur,"Siltara Phase-II, Raipur - CECB",22-02-2024 18:00:00,21.371751,81.664929,PM10,NA,NA,NA
India,Delhi,Delhi,"Alipur, Delhi - DPCC",22-02-2024 18:00:00,28.815329,77.153010,OZONE,4,112,89
India,Delhi,Delhi,"Anand Vihar, Delhi - DPCC",22-02-2024 18:00:00,28.647622,77.3158090,PM10,121,286,188
India,Delhi,Delhi,"Anand Vihar, Delhi - DPCC",22-02-2024 18:00:00,28.647622,77.3158090,NH3,3,16,8
India,Delhi,Delhi,"Anand Vihar, Delhi - DPCC",22-02-2024 18:00:00,28.647622,77.3158090,SO2,10,46,27
India,Delhi,Delhi,"Ashok Vihar, Delhi - DPCC",22-02-2024 18:00:00,28.695381,77.181665,PM2.5,32,262,116
India,Delhi,Delhi,"Ashok Vihar, Delhi - DPCC",22-02-2024 18:00:00,28.695381,77.181665,CO,12,52,21
India,Delhi,Delhi,"Bawana, Delhi - DPCC",22-02-2024 18:00:00,28.776200,77.051074,PM10,119,241,161
India,Delhi,Delhi,"Bawana, Delhi - DPCC",22-02-2024 18:00:00,28.776200,77.051074,NO2,12,50,30
India,Delhi,Delhi,"Burari Crossing, Delhi - IMD",22-02-2024 18:00:00,28.7256504,77.2011573,OZONE,9,23,19
India,Delhi,Delhi,"CRRI Mathura Road, Delhi - IMD",22-02-2024 18:00:00,28.5512005,77.2735737,OZONE,7,33,14
India,Delhi,Delhi,"Chandni Chowk, Delhi - IITM",22-02-2024 18:00:00,28.656756,77.227234,SO2,6,49,25
India,Delhi,Delhi,"Chandni Chowk, Delhi - IITM",22-02-2024 18:00:00,28.656756,77.227234,OZONE,24,30,29
India,Delhi,Delhi,"DTU, Delhi - CPCB",22-02-2024 18:00:00,28.7500499,77.1112615,OZONE,27,37,31
India,Delhi,Delhi,"Dwarka-Sector 8, Delhi - DPCC ",22-02-2024 18:00:00,28.5710274,77.0719006,NO2,12,74,30
India,Delhi,Delhi,"Dwarka-Sector 8, Delhi - DPCC ",22-02-2024 18:00:00,28.5710274,77.0719006,NH3,6,11,8
India,Delhi,Delhi,"Dwarka-Sector 8, Delhi - DPCC ",22-02-2024 18:00:00,28.5710274,77.0719006,CO,8,62,21
India,Delhi,Delhi,"IGI Airport (T3), Delhi - IMD",22-02-2024 18:00:00,28.5627763,77.1180053,NO2,26,61,44
India,Delhi,Delhi,"IHBAS, Dilshad Garden, Delhi - CPCB",22-02-2024 18:00:00,28.6811736,77.3025234,SO2,3,55,16
India,Delhi,Delhi,"IHBAS, Dilshad Garden, Delhi - CPCB",22-02-2024 18:00:00,28.6811736,77.3025234,OZONE,5,36,29
India,Delhi,Delhi,"ITO, Delhi - CPCB",22-02-2024 18:00:00,28.628624,77.241060,NO2,1,96,29
India,Delhi,Delhi,"ITO, Delhi - CPCB",22-02-2024 18:00:00,28.628624,77.241060,CO,18,84,32
India,Delhi,Delhi,"Jahangirpuri, Delhi - DPCC",22-02-2024 18:00:00,28.732820,77.170633,PM10,116,331,179
India,Delhi,Delhi,"Jawaharlal Nehru Stadium, Delhi - DPCC",22-02-2024 18:00:00,28.580280,77.233829,SO2,2,18,6
India,Delhi,Delhi,"Jawaharlal Nehru Stadium, Delhi - DPCC",22-02-2024 18:00:00,28.580280,77.233829,CO,25,64,37
India,Delhi,Delhi,"Jawaharlal Nehru Stadium, Delhi - DPCC",22-02-2024 18:00:00,28.580280,77.233829,OZONE,5,127,93
India,Delhi,Delhi,"Lodhi Road, Delhi - IITM",22-02-2024 18:00:00,28.588333,77.221667,PM2.5,13,455,76
India,Delhi,Delhi,"Lodhi Road, Delhi - IITM",22-02-2024 18:00:00,28.588333,77.221667,PM10,30,230,60
India,Delhi,Delhi,"Lodhi Road, Delhi - IITM",22-02-2024 18:00:00,28.588333,77.221667,SO2,18,43,27
India,Delhi,Delhi,"Lodhi Road, Delhi - IMD",22-02-2024 18:00:00,28.5918245,77.2273074,OZONE,3,79,54
India,Delhi,Delhi,"Major Dhyan Chand National Stadium, Delhi - DPCC",22-02-2024 18:00:00,28.611281,77.237738,SO2,2,28,12
India,Delhi,Delhi,"Major Dhyan Chand National Stadium, Delhi - DPCC",22-02-2024 18:00:00,28.611281,77.237738,OZONE,3,125,91
India,Delhi,Delhi,"Mandir Marg, Delhi - DPCC",22-02-2024 18:00:00,28.636429,77.201067,SO2,8,10,9
India,Delhi,Delhi,"Mundka, Delhi - DPCC",22-02-2024 18:00:00,28.684678,77.076574,CO,23,60,31
India,Delhi,Delhi,"Mundka, Delhi - DPCC",22-02-2024 18:00:00,28.684678,77.076574,OZONE,1,19,16
India,Delhi,Delhi,"NSIT Dwarka, Delhi - CPCB",22-02-2024 18:00:00,28.60909,77.0325413,PM10,103,323,156
India,Delhi,Delhi,"NSIT Dwarka, Delhi - CPCB",22-02-2024 18:00:00,28.60909,77.0325413,CO,32,84,46
India,Delhi,Delhi,"Najafgarh, Delhi - DPCC",22-02-2024 18:00:00,28.570173,76.933762,PM10,64,155,105
India,Delhi,Delhi,"Najafgarh, Delhi - DPCC",22-02-2024 18:00:00,28.570173,76.933762,NO2,7,8,7
India,Delhi,Delhi,"Najafgarh, Delhi - DPCC",22-02-2024 18:00:00,28.570173,76.933762,NH3,1,1,1
India,Delhi,Delhi,"Narela, Delhi - DPCC",22-02-2024 18:00:00,28.822836,77.101981,NH3,6,13,9
India,Delhi,Delhi,"Nehru Nagar, Delhi - DPCC",22-02-2024 18:00:00,28.567890,77.250515,NO2,16,28,20
India,Delhi,Delhi,"Nehru Nagar, Delhi - DPCC",22-02-2024 18:00:00,28.567890,77.250515,SO2,7,20,11
India,Delhi,Delhi,"Nehru Nagar, Delhi - DPCC",22-02-2024 18:00:00,28.567890,77.250515,OZONE,2,176,124
India,Delhi,Delhi,"North Campus, DU, Delhi - IMD",22-02-2024 18:00:00,28.6573814,77.1585447,OZONE,1,27,22
India,Delhi,Delhi,"Okhla Phase-2, Delhi - DPCC",22-02-2024 18:00:00,28.530785,77.271255,PM2.5,44,229,128
India,Delhi,Delhi,"Patparganj, Delhi - DPCC",22-02-2024 18:00:00,28.623763,77.287209,PM10,125,285,162
India,Delhi,Delhi,"Patparganj, Delhi - DPCC",22-02-2024 18:00:00,28.623763,77.287209,SO2,7,11,9
India,Delhi,Delhi,"Pusa, Delhi - DPCC",22-02-2024 18:00:00,28.639652,77.146275,PM2.5,49,305,122
India,Delhi,Delhi,"Pusa, Delhi - DPCC",22-02-2024 18:00:00,28.639652,77.146275,NH3,6,11,8
India,Delhi,Delhi,"Pusa, Delhi - DPCC",22-02-2024 18:00:00,28.639652,77.146275,SO2,8,35,17
India,Delhi,Delhi,"R K Puram, Delhi - DPCC",22-02-2024 18:00:00,28.563262,77.186937,SO2,8,28,18
India,Delhi,Delhi,"Rohini, Delhi - DPCC",22-02-2024 18:00:00,28.732528,77.119920,SO2,6,27,14
India,Delhi,Delhi,"Shadipur, Delhi - CPCB",22-02-2024 18:00:00,28.6514781,77.1473105,OZONE,13,24,14
India,Delhi,Delhi,"Sirifort, Delhi - CPCB",22-02-2024 18:00:00,28.5504249,77.2159377,SO2,32,36,34
India,Delhi,Delhi,"Sonia Vihar, Delhi - DPCC",22-02-2024 18:00:00,28.710508,77.249485,NO2,28,74,47
India,Delhi,Delhi,"Sonia Vihar, Delhi - DPCC",22-02-2024 18:00:00,28.710508,77.249485,SO2,6,29,12
India,Delhi,Delhi,"Sonia Vihar, Delhi - DPCC",22-02-2024 18:00:00,28.710508,77.249485,OZONE,4,104,69
India,Delhi,Delhi,"Sri Aurobindo Marg, Delhi - DPCC",22-02-2024 18:00:00,28.531346,77.190156,PM2.5,44,201,109
India,Delhi,Delhi,"Sri Aurobindo Marg, Delhi - DPCC",22-02-2024 18:00:00,28.531346,77.190156,PM10,103,153,122
India,Delhi,Delhi,"Sri Aurobindo Marg, Delhi - DPCC",22-02-2024 18:00:00,28.531346,77.190156,SO2,8,22,14
India,Delhi,Delhi,"Vivek Vihar, Delhi - DPCC",22-02-2024 18:00:00,28.672342,77.315260,PM2.5,61,308,170
India,Delhi,Delhi,"Vivek Vihar, Delhi - DPCC",22-02-2024 18:00:00,28.672342,77.315260,OZONE,6,56,29
India,Delhi,Delhi,"Wazirpur, Delhi - DPCC",22-02-2024 18:00:00,28.699793,77.165453,PM2.5,38,306,148
India,Delhi,Delhi,"Wazirpur, Delhi - DPCC",22-02-2024 18:00:00,28.699793,77.165453,NO2,57,136,96
India,Gujarat,Ahmedabad,"Chandkheda, Ahmedabad - IITM",22-02-2024 18:00:00,23.107969,72.574648,NO2,34,81,70
India,Gujarat,Ahmedabad,"Chandkheda, Ahmedabad - IITM",22-02-2024 18:00:00,23.107969,72.574648,OZONE,4,36,32
India,Gujarat,Ahmedabad,"Gyaspur, Ahmedabad - IITM",22-02-2024 18:00:00,22.977134,72.553024,NH3,3,4,3
India,Gujarat,Ahmedabad,"Gyaspur, Ahmedabad - IITM",22-02-2024 18:00:00,22.977134,72.553024,SO2,4,4,4
India,Gujarat,Ahmedabad,"Gyaspur, Ahmedabad - IITM",22-02-2024 18:00:00,22.977134,72.553024,OZONE,3,25,3
India,Gujarat,Ahmedabad,"Raikhad, Ahmedabad - IITM",22-02-2024 18:00:00,23.020509,72.579261,PM2.5,43,205,117
India,Gujarat,Ahmedabad,"Raikhad, Ahmedabad - IITM",22-02-2024 18:00:00,23.020509,72.579261,OZONE,57,195,86
India,Gujarat,Ahmedabad,"Rakhial, Ahmedabad - IITM",22-02-2024 18:00:00,23.016834,72.625775,PM10,60,110,86
India,Gujarat,Ahmedabad,"SAC ISRO Bopal, Ahmedabad - IITM",22-02-2024 18:00:00,23.041137,72.456691,OZONE,9,21,17
India,Gujarat,Ahmedabad,"SAC ISRO Satellite, Ahmedabad - IITM",22-02-2024 18:00:00,23.023389,72.515201,PM2.5,130,206,166
India,Gujarat,Ahmedabad,"SVPI Airport Hansol, Ahmedabad - IITM",22-02-2024 18:00:00,23.076793,72.627874,PM10,66,100,83
India,Gujarat,Ahmedabad,"SVPI Airport Hansol, Ahmedabad - IITM",22-02-2024 18:00:00,23.076793,72.627874,CO,16,47,19
India,Gujarat,Ahmedabad,"SVPI Airport Hansol, Ahmedabad - IITM",22-02-2024 18:00:00,23.076793,72.627874,OZONE,2,18,16
India,Gujarat,Ahmedabad,"Sardar Vallabhbhai Patel Stadium, Ahmedabad - IITM",22-02-2024 18:00:00,23.043070,72.562968,PM10,60,108,82
India,Gujarat,Ahmedabad,"Sardar Vallabhbhai Patel Stadium, Ahmedabad - IITM",22-02-2024 18:00:00,23.043070,72.562968,NO2,12,14,13
India,Gujarat,Ahmedabad,"Sardar Vallabhbhai Patel Stadium, Ahmedabad - IITM",22-02-2024 18:00:00,23.043070,72.562968,NH3,1,2,1
India,Gujarat,Ahmedabad,"Sardar Vallabhbhai Patel Stadium, Ahmedabad - IITM",22-02-2024 18:00:00,23.043070,72.562968,CO,12,32,15
India,Gujarat,Gandhinagar,"IIPHG Lekawada, Gandhinagar - IITM",22-02-2024 18:00:00,23.243639,72.68994,PM10,62,132,91
India,Gujarat,Gandhinagar,"IIPHG Lekawada, Gandhinagar - IITM",22-02-2024 18:00:00,23.243639,72.68994,NH3,3,4,3
India,Gujarat,Gandhinagar,"Sector-10, Gandhinagar - GPCB",22-02-2024 18:00:00,23.221714,72.654328,NO2,6,20,11
India,Gujarat,Gandhinagar,"Sector-10, Gandhinagar - GPCB",22-02-2024 18:00:00,23.221714,72.654328,OZONE,3,30,26
India,Gujarat,Vapi,"Phase-1 GIDC, Vapi - GPCB",22-02-2024 18:00:00,20.362421,72.918013,SO2,46,47,46
India,Gujarat,Vatva,"Phase-4 GIDC, Vatva - GPCB",22-02-2024 18:00:00,22.969611,72.643500,PM2.5,58,159,81
India,Gujarat,Vatva,"Phase-4 GIDC, Vatva - GPCB",22-02-2024 18:00:00,22.969611,72.643500,CO,48,50,49
India,Haryana,Ambala,"Patti Mehar, Ambala - HSPCB",22-02-2024 18:00:00,30.379589,76.778328,PM2.5,19,92,52
India,Haryana,Ambala,"Patti Mehar, Ambala - HSPCB",22-02-2024 18:00:00,30.379589,76.778328,PM10,60,121,85
India,Haryana,Ambala,"Patti Mehar, Ambala - HSPCB",22-02-2024 18:00:00,30.379589,76.778328,OZONE,11,24,17
India,Haryana,Bahadurgarh,"Arya Nagar, Bahadurgarh - HSPCB",22-02-2024 18:00:00,28.6701,76.9254,SO2,9,13,11
India,Haryana,Bhiwani,"H.B. Colony, Bhiwani - HSPCB",22-02-2024 18:00:00,28.806223,76.141105,NH3,6,6,6
India,Haryana,Faridabad,"Sector 11, Faridabad - HSPCB",22-02-2024 18:00:00,28.376058,77.315741,NH3,6,6,6
India,Haryana,Faridabad,"Sector 30, Faridabad - HSPCB",22-02-2024 18:00:00,28.4417,77.3217,PM10,107,123,113
India,Haryana,Faridabad,"Sector 30, Faridabad - HSPCB",22-02-2024 18:00:00,28.4417,77.3217,NO2,30,34,31
India,Haryana,Faridabad,"Sector 30, Faridabad - HSPCB",22-02-2024 18:00:00,28.4417,77.3217,OZONE,8,37,21
India,Haryana,Faridabad,"Sector- 16A, Faridabad - HSPCB",22-02-2024 18:00:00,28.4088421,77.3099081,PM2.5,47,328,133
India,Haryana,Fatehabad,"Huda Sector, Fatehabad - HSPCB",22-02-2024 18:00:00,29.503664,75.467934,PM10,NA,NA,NA
India,Haryana,Fatehabad,"Huda Sector, Fatehabad - HSPCB",22-02-2024 18:00:00,29.503664,75.467934,SO2,NA,NA,NA
India,Haryana,Fatehabad,"Huda Sector, Fatehabad - HSPCB",22-02-2024 18:00:00,29.503664,75.467934,OZONE,20,59,38
India,Haryana,Gurugram,"Sector-51, Gurugram - HSPCB",22-02-2024 18:00:00,28.4227,77.0667,PM10,96,214,139
India,Haryana,Gurugram,"Sector-51, Gurugram - HSPCB",22-02-2024 18:00:00,28.4227,77.0667,NH3,7,14,9
India,Haryana,Gurugram,"Sector-51, Gurugram - HSPCB",22-02-2024 18:00:00,28.4227,77.0667,SO2,3,4,3
India,Haryana,Gurugram,"Teri Gram, Gurugram - HSPCB",22-02-2024 18:00:00,28.4275,77.1465,PM10,129,280,178
India,Haryana,Gurugram,"Teri Gram, Gurugram - HSPCB",22-02-2024 18:00:00,28.4275,77.1465,OZONE,10,24,10
India,Haryana,Gurugram,"Vikas Sadan, Gurugram - HSPCB",22-02-2024 18:00:00,28.4501238,77.0263051,OZONE,7,67,50
India,Haryana,Hisar,"Urban Estate-II, Hisar - HSPCB",22-02-2024 18:00:00,29.140560,75.744941,SO2,53,74,70
India,Haryana,Jind,"Police Lines, Jind - HSPCB",22-02-2024 18:00:00,29.307814,76.337619,PM10,48,110,77
India,Haryana,Jind,"Police Lines, Jind - HSPCB",22-02-2024 18:00:00,29.307814,76.337619,OZONE,7,16,13
India,Haryana,Kaithal,"Rishi Nagar, Kaithal - HSPCB",22-02-2024 18:00:00,29.8006,76.4155,CO,3,104,46
India,Haryana,Karnal,"Sector-12, Karnal - HSPCB",22-02-2024 18:00:00,29.695300,77.002700,PM2.5,33,73,50
India,Haryana,Karnal,"Sector-12, Karnal - HSPCB",22-02-2024 18:00:00,29.695300,77.002700,PM10,47,85,69
India,Haryana,Mandikhera,"General Hospital, Mandikhera - HSPCB",22-02-2024 18:00:00,27.9002,76.9938,PM10,49,240,109
India,Haryana,Narnaul,"Shastri Nagar, Narnaul - HSPCB",22-02-2024 18:00:00,28.060249,76.113115,PM10,32,105,64
India,Haryana,Panchkula,"Sector-6, Panchkula - HSPCB ",22-02-2024 18:00:00,30.7057778,76.8531805555555,NO2,28,31,29
India,Haryana,Panchkula,"Sector-6, Panchkula - HSPCB ",22-02-2024 18:00:00,30.7057778,76.8531805555555,SO2,11,12,12
India,Haryana,Rohtak,"MD University, Rohtak - HSPCB",22-02-2024 18:00:00,28.52123,76.37138,OZONE,45,53,49
India,Haryana,Sirsa,"F-Block, Sirsa - HSPCB",22-02-2024 18:00:00,29.536400,75.015800,OZONE,20,85,68
India,Haryana,Sonipat,"Murthal, Sonipat - HSPCB",22-02-2024 18:00:00,29.027200,77.062100,NO2,37,44,40
India,Haryana,Sonipat,"Murthal, Sonipat - HSPCB",22-02-2024 18:00:00,29.027200,77.062100,SO2,13,29,20
India,Haryana,Yamuna Nagar,"Gobind Pura, Yamuna Nagar - HSPCB",22-02-2024 18:00:00,30.1480566,77.2893471,SO2,2,101,16
India,Haryana,Yamuna Nagar,"Gobind Pura, Yamuna Nagar - HSPCB",22-02-2024 18:00:00,30.1480566,77.2893471,OZONE,19,32,29
India,Himachal Pradesh,Baddi,"HIMUDA Complex Phase-1, Baddi - HPPCB",22-02-2024 18:00:00,30.943887,76.801991,PM2.5,18,287,90
India,Himachal Pradesh,Baddi,"HIMUDA Complex Phase-1, Baddi - HPPCB",22-02-2024 18:00:00,30.943887,76.801991,NH3,2,6,4
India,Jammu_and_Kashmir,Srinagar,"Rajbagh, Srinagar - JKSPCB",22-02-2024 18:00:00,34.066206,74.819820,CO,20,23,21
India,Jharkhand,Dhanbad,"Kalakusuma, Dhanbad - DMC",22-02-2024 18:00:00,23.811548,86.481238,PM2.5,6,91,53
India,Jharkhand,Dhanbad,"Kalakusuma, Dhanbad - DMC",22-02-2024 18:00:00,23.811548,86.481238,CO,128,132,131
India,Jharkhand,Dhanbad,"Sardar Patel Nagar, Dhanbad - JSPCB",22-02-2024 18:00:00,23.80569,86.44268,PM2.5,18,202,69
India,Jharkhand,Dhanbad,"Sardar Patel Nagar, Dhanbad - JSPCB",22-02-2024 18:00:00,23.80569,86.44268,PM10,53,181,109
India,Jharkhand,Dhanbad,"Sardar Patel Nagar, Dhanbad - JSPCB",22-02-2024 18:00:00,23.80569,86.44268,CO,134,195,186
India,Jharkhand,Pathardih,"Mohalbani Ghat, Pathardih - DMC",22-02-2024 18:00:00,23.669880,86.411725,PM10,62,193,116
India,Jharkhand,Pathardih,"Mohalbani Ghat, Pathardih - DMC",22-02-2024 18:00:00,23.669880,86.411725,CO,123,155,145
India,Karnataka,Bagalkot,"Vidayagiri, Bagalkot - KSPCB",22-02-2024 18:00:00,16.172806,75.659694,PM2.5,25,37,36
India,Karnataka,Belgaum,"Ramteerth Nagar, Belgaum - KSPCB",22-02-2024 18:00:00,15.888653,74.541751,SO2,8,9,8
