country,state,city,station,last_update,latitude,longitude,pollutant_id,pollutant_min,pollutant_max,pollutant_avg
India,Andhra_Pradesh,Amaravati,"Secretariat, Amaravati - APPCB",10-01-2024 01:00:00,16.5150833,80.5181667,CO,30,56,46
India,Andhra_Pradesh,Anantapur,"Gulzarpet, Anantapur - APPCB",10-01-2024 01:00:00,14.675886,77.593027,PM2.5,44,62,55
India,Andhra_Pradesh,Chittoor,"Gangineni Cheruvu, Chittoor - APPCB",10-01-2024 01:00:00,13.204880,79.097889,NH3,1,2,1
India,Andhra_Pradesh,Kadapa,"Yerramukkapalli, Kadapa - APPCB",10-01-2024 01:00:00,14.465052,78.824187,SO2,1,2,2
India,Andhra_Pradesh,Kadapa,"Yerramukkapalli, Kadapa - APPCB",10-01-2024 01:00:00,14.465052,78.824187,CO,17,34,18
India,Andhra_Pradesh,Rajamahendravaram,"Anand Kala Kshetram, Rajamahendravaram - APPCB",10-01-2024 01:00:00,16.9872867,81.7363176,PM2.5,203,306,286
India,Andhra_Pradesh,Tirupati,"Tirumala, Tirupati - APPCB",10-01-2024 01:00:00,13.67,79.35,NO2,16,35,28
India,Andhra_Pradesh,Tirupati,"Vaikuntapuram, Tirupati - APPCB",10-01-2024 01:00:00,13.615387,79.409230,PM10,13,85,24
India,Andhra_Pradesh,Vijayawada,"Kanuru, Vijayawada - APPCB",10-01-2024 01:00:00,16.486692,80.699436,PM10,NA,NA,NA
India,Andhra_Pradesh,Vijayawada,"Kanuru, Vijayawada - APPCB",10-01-2024 01:00:00,16.486692,80.699436,OZONE,30,30,30
India,Andhra_Pradesh,Visakhapatnam,"GVM Corporation, Visakhapatnam - APPCB",10-01-2024 01:00:00,17.72,83.3,SO2,10,16,14
India,Andhra_Pradesh,Visakhapatnam,"GVM Corporation, Visakhapatnam - APPCB",10-01-2024 01:00:00,17.72,83.3,OZONE,14,51,25
India,Arunachal_Pradesh,Naharlagun,"Naharlagun, Naharlagun - APSPCB",10-01-2024 01:00:00,27.103358,93.679645,OZONE,2,2,2
India,Assam,Byrnihat,"Central Academy for SFS, Byrnihat - PCBA",10-01-2024 01:00:00,26.071318,91.87488,PM2.5,137,453,358
India,Assam,Byrnihat,"Central Academy for SFS, Byrnihat - PCBA",10-01-2024 01:00:00,26.071318,91.87488,NO2,33,86,50
India,Assam,Guwahati,"IITG, Guwahati - PCBA",10-01-2024 01:00:00,26.2028636,91.70046436,NH3,NA,NA,NA
India,Assam,Guwahati,"LGBI Airport, Guwahati - PCBA",10-01-2024 01:00:00,26.10887,91.589544,OZONE,2,83,18
India,Assam,Nagaon,"Christianpatty, Nagaon - PCBA",10-01-2024 01:00:00,26.349082,92.68449,SO2,1,4,2
India,Assam,Nalbari,"Bata Chowk, Nalbari - PCBA",10-01-2024 01:00:00,26.446912,91.439057,CO,15,95,58
India,Assam,Nalbari,"Bata Chowk, Nalbari - PCBA",10-01-2024 01:00:00,26.446912,91.439057,OZONE,18,20,18
India,Assam,Silchar,"Tarapur, Silchar - PCBA",10-01-2024 01:00:00,24.82827,92.79525,NO2,24,35,28
India,Bihar,Arrah,"New DM Office, Arrah - BSPCB",10-01-2024 01:00:00,25.5626095,84.663264,PM2.5,167,388,279
India,Bihar,Aurangabad,"Gurdeo Nagar, Aurangabad - BSPCB",10-01-2024 01:00:00,24.75746,84.366208,SO2,4,14,9
India,Bihar,Bettiah,"Kamalnath Nagar, Bettiah - BSPCB",10-01-2024 01:00:00,26.80365,84.51954,PM2.5,NA,NA,NA
India,Bihar,Bettiah,"Kamalnath Nagar, Bettiah - BSPCB",10-01-2024 01:00:00,26.80365,84.51954,SO2,12,21,19
India,Bihar,Bhagalpur,"DM Office_Kachari Chowk, Bhagalpur - BSPCB",10-01-2024 01:00:00,25.251013,86.989001,NO2,23,92,50
India,Bihar,Bhagalpur,"DM Office_Kachari Chowk, Bhagalpur - BSPCB",10-01-2024 01:00:00,25.251013,86.989001,OZONE,14,50,20
India,Bihar,Bhagalpur,"Mayaganj, Bhagalpur - BSPCB",10-01-2024 01:00:00,25.265194,87.012947,PM2.5,167,375,317
India,Bihar,Bhagalpur,"Mayaganj, Bhagalpur - BSPCB",10-01-2024 01:00:00,25.265194,87.012947,NH3,8,9,9
India,Bihar,Bihar Sharif,"D M Colony, Bihar Sharif - BSPCB",10-01-2024 01:00:00,25.204762,85.514960,CO,3,64,31
India,Bihar,Bihar Sharif,"D M Colony, Bihar Sharif - BSPCB",10-01-2024 01:00:00,25.204762,85.514960,OZONE,3,22,9
India,Bihar,Gaya,"Kareemganj, Gaya - BSPCB",10-01-2024 01:00:00,24.792403,84.992416,OZONE,5,35,20
India,Bihar,Hajipur,"Industrial Area, Hajipur - BSPCB",10-01-2024 01:00:00,25.697189,85.245900,NO2,9,36,17
India,Bihar,Kishanganj,"SDM Office_Khagra, Kishanganj - BSPCB",10-01-2024 01:00:00,26.0881305,87.93840336,NH3,7,13,9
India,Bihar,Kishanganj,"SDM Office_Khagra, Kishanganj - BSPCB",10-01-2024 01:00:00,26.0881305,87.93840336,SO2,7,21,14
India,Bihar,Manguraha,"Forest Rest House, Manguraha - BSPCB",10-01-2024 01:00:00,27.308328,84.531742,NH3,2,3,2
India,Bihar,Motihari,"Gandak Colony, Motihari - BSPCB",10-01-2024 01:00:00,26.63086,84.90051,NO2,70,106,89
India,Bihar,Motihari,"Gandak Colony, Motihari - BSPCB",10-01-2024 01:00:00,26.63086,84.90051,SO2,1,4,2
India,Bihar,Munger,"Town Hall, Munger - BSPCB",10-01-2024 01:00:00,25.376776,86.471523,PM10,56,226,119
India,Bihar,Muzaffarpur,"MIT-Daudpur Kothi, Muzaffarpur - BSPCB",10-01-2024 01:00:00,26.1403345,85.3650192,PM2.5,143,358,243
India,Bihar,Patna,"DRM Office Danapur, Patna - BSPCB",10-01-2024 01:00:00,25.586562,85.043586,PM10,126,424,235
India,Bihar,Patna,"DRM Office Danapur, Patna - BSPCB",10-01-2024 01:00:00,25.586562,85.043586,CO,29,133,92
India,Bihar,Patna,"Govt. High School Shikarpur, Patna - BSPCB",10-01-2024 01:00:00,25.592539,85.227158,SO2,1,8,5
India,Bihar,Patna,"IGSC Planetarium Complex, Patna - BSPCB",10-01-2024 01:00:00,25.610369,85.132568,CO,8,18,12
India,Bihar,Patna,"Muradpur, Patna - BSPCB",10-01-2024 01:00:00,25.619651,85.147382,NH3,1,10,5
India,Bihar,Patna,"Rajbansi Nagar, Patna - BSPCB",10-01-2024 01:00:00,25.599486,85.113666,PM10,163,293,211
India,Bihar,Patna,"Rajbansi Nagar, Patna - BSPCB",10-01-2024 01:00:00,25.599486,85.113666,NO2,57,94,73
India,Bihar,Patna,"Samanpura, Patna - BSPCB",10-01-2024 01:00:00,25.596727,85.085624,PM2.5,182,440,322
India,Bihar,Patna,"Samanpura, Patna - BSPCB",10-01-2024 01:00:00,25.596727,85.085624,PM10,184,486,310
India,Bihar,Patna,"Samanpura, Patna - BSPCB",10-01-2024 01:00:00,25.596727,85.085624,CO,81,161,132
India,Bihar,Purnia,"Mariam Nagar, Purnia - BSPCB",10-01-2024 01:00:00,25.366336,87.117468,OZONE,8,17,10
India,Bihar,Rajgir,"Dangi Tola, Rajgir - BSPCB",10-01-2024 01:00:00,25.03280,85.41948,NH3,1,8,2
India,Bihar,Samastipur,"DM Office_Kasipur, Samastipur - BSPCB",10-01-2024 01:00:00,25.859655,85.77944,PM2.5,55,177,92
India,Bihar,Samastipur,"DM Office_Kasipur, Samastipur - BSPCB",10-01-2024 01:00:00,25.859655,85.77944,OZONE,5,11,7
India,Bihar,Sasaram,"Dada Peer, Sasaram - BSPCB",10-01-2024 01:00:00,24.952822,84.002396,NO2,3,12,8
India,Bihar,Siwan,"Chitragupta Nagar, Siwan - BSPCB",10-01-2024 01:00:00,26.2271665,84.3570427,SO2,26,35,29
India,Bihar,Siwan,"Chitragupta Nagar, Siwan - BSPCB",10-01-2024 01:00:00,26.2271665,84.3570427,CO,104,181,142
India,Bihar,Siwan,"Chitragupta Nagar, Siwan - BSPCB",10-01-2024 01:00:00,26.2271665,84.3570427,OZONE,2,78,18
India,Chandigarh,Chandigarh,"Sector 22, Chandigarh - CPCC",10-01-2024 01:00:00,30.735567,76.775714,PM10,109,284,166
India,Chandigarh,Chandigarh,"Sector-25, Chandigarh - CPCC",10-01-2024 01:00:00,30.751462,76.762879,NO2,15,32,20
India,Chandigarh,Chandigarh,"Sector-53, Chandigarh - CPCC",10-01-2024 01:00:00,30.719859,76.738637,PM10,113,250,163
India,Chandigarh,Chandigarh,"Sector-53, Chandigarh - CPCC",10-01-2024 01:00:00,30.719859,76.738637,SO2,1,41,9
India,Chandigarh,Chandigarh,"Sector-53, Chandigarh - CPCC",10-01-2024 01:00:00,30.719859,76.738637,OZONE,12,29,20
India,Chhattisgarh,Bhilai,"32Bungalows, Bhilai - CECB",10-01-2024 01:00:00,21.194815,81.314770,NH3,6,6,6
India,Chhattisgarh,Bhilai,"Civic Center, Bhilai - Bhilai Steel Plant",10-01-2024 01:00:00,21.185571,81.343175,CO,18,82,39
India,Chhattisgarh,Bhilai,"Hathkhoj, Bhilai - CECB",10-01-2024 01:00:00,21.224231,81.408350,NH3,7,8,8
India,Chhattisgarh,Bhilai,"Hathkhoj, Bhilai - CECB",10-01-2024 01:00:00,21.224231,81.408350,SO2,18,102,38
India,Chhattisgarh,Bhilai,"Hathkhoj, Bhilai - CECB",10-01-2024 01:00:00,21.224231,81.408350,CO,26,75,47
India,Chhattisgarh,Bilaspur,"Mangala, Bilaspur - NTPC",10-01-2024 01:00:00,22.08815,82.13737,NO2,8,11,10
India,Chhattisgarh,Korba,"Rampur, Korba - CECB",10-01-2024 01:00:00,22.368195,82.746431,OZONE,2,38,11
India,Chhattisgarh,Korba,"Urja Nagar, Korba - CECB",10-01-2024 01:00:00,22.348441,82.549611,NO2,57,81,66
India,Chhattisgarh,Korba,"Urja Nagar, Korba - CECB",10-01-2024 01:00:00,22.348441,82.549611,SO2,3,31,7
India,Chhattisgarh,Korba,"Urja Nagar, Korba - CECB",10-01-2024 01:00:00,22.348441,82.549611,OZONE,47,70,47
India,Chhattisgarh,Milupara,"Govt. Higher Secondary School, Milupara - CECB",10-01-2024 01:00:00,22.1910172,83.5197009,NH3,1,2,2
India,Chhattisgarh,Raipur,"AIIMS, Raipur - CECB",10-01-2024 01:00:00,21.258815,81.578979,CO,40,80,62
India,Chhattisgarh,Raipur,"Krishak Nagar, Raipur - CECB",10-01-2024 01:00:00,21.237755,81.705301,NO2,25,40,33
India,Chhattisgarh,Raipur,"Krishak Nagar, Raipur - CECB",10-01-2024 01:00:00,21.237755,81.705301,CO,34,63,47
India,Chhattisgarh,Raipur,"Siltara Phase-II, Raipur - CECB",10-01-2024 01:00:00,21.371751,81.664929,PM10,NA,NA,NA
India,Chhattisgarh,Raipur,"Siltara Phase-II, Raipur - CECB",10-01-2024 01:00:00,21.371751,81.664929,NO2,NA,NA,NA
India,Chhattisgarh,Raipur,"Siltara Phase-II, Raipur - CECB",10-01-2024 01:00:00,21.371751,81.664929,SO2,NA,NA,NA
India,Chhattisgarh,Raipur,"Siltara Phase-II, Raipur - CECB",10-01-2024 01:00:00,21.371751,81.664929,CO,12,56,39
India,Chhattisgarh,Tumidih,"OP Jindal Industrial Park, Tumidih - CECB",10-01-2024 01:00:00,22.06631475,83.33820077,NO2,10,45,23
India,Delhi,Delhi,"Alipur, Delhi - DPCC",10-01-2024 01:00:00,28.815329,77.153010,CO,36,54,45
India,Delhi,Delhi,"Anand Vihar, Delhi - DPCC",10-01-2024 01:00:00,28.647622,77.3158090,NH3,9,12,10
India,Delhi,Delhi,"Anand Vihar, Delhi - DPCC",10-01-2024 01:00:00,28.647622,77.3158090,OZONE,14,16,16
India,Delhi,Delhi,"Ashok Vihar, Delhi - DPCC",10-01-2024 01:00:00,28.695381,77.181665,OZONE,5,11,6
India,Delhi,Delhi,"Aya Nagar, Delhi - IMD",10-01-2024 01:00:00,28.4706914,77.1099364,PM10,97,354,160
India,Delhi,Delhi,"Bawana, Delhi - DPCC",10-01-2024 01:00:00,28.776200,77.051074,SO2,3,5,4
India,Delhi,Delhi,"Bawana, Delhi - DPCC",10-01-2024 01:00:00,28.776200,77.051074,CO,37,60,51
India,Delhi,Delhi,"Bawana, Delhi - DPCC",10-01-2024 01:00:00,28.776200,77.051074,OZONE,10,29,19
India,Delhi,Delhi,"Burari Crossing, Delhi - IMD",10-01-2024 01:00:00,28.7256504,77.2011573,PM2.5,152,371,269
India,Delhi,Delhi,"DTU, Delhi - CPCB",10-01-2024 01:00:00,28.7500499,77.1112615,NO2,17,35,25
India,Delhi,Delhi,"Dr. Karni Singh Shooting Range, Delhi - DPCC",10-01-2024 01:00:00,28.498571,77.264840,NO2,42,95,63
India,Delhi,Delhi,"Dwarka-Sector 8, Delhi - DPCC ",10-01-2024 01:00:00,28.5710274,77.0719006,CO,26,68,37
India,Delhi,Delhi,"IGI Airport (T3), Delhi - IMD",10-01-2024 01:00:00,28.5627763,77.1180053,CO,38,92,60
India,Delhi,Delhi,"IHBAS, Dilshad Garden, Delhi - CPCB",10-01-2024 01:00:00,28.6811736,77.3025234,OZONE,3,20,15
India,Delhi,Delhi,"Jahangirpuri, Delhi - DPCC",10-01-2024 01:00:00,28.732820,77.170633,NH3,7,10,9
India,Delhi,Delhi,"Jahangirpuri, Delhi - DPCC",10-01-2024 01:00:00,28.732820,77.170633,SO2,11,17,15
India,Delhi,Delhi,"Jahangirpuri, Delhi - DPCC",10-01-2024 01:00:00,28.732820,77.170633,CO,28,64,49
India,Delhi,Delhi,"Jawaharlal Nehru Stadium, Delhi - DPCC",10-01-2024 01:00:00,28.580280,77.233829,NH3,9,11,10
India,Delhi,Delhi,"Lodhi Road, Delhi - IMD",10-01-2024 01:00:00,28.5918245,77.2273074,PM10,113,371,163
India,Delhi,Delhi,"Major Dhyan Chand National Stadium, Delhi - DPCC",10-01-2024 01:00:00,28.611281,77.237738,SO2,10,17,14
India,Delhi,Delhi,"Mundka, Delhi - DPCC",10-01-2024 01:00:00,28.684678,77.076574,PM2.5,242,377,308
India,Delhi,Delhi,"NSIT Dwarka, Delhi - CPCB",10-01-2024 01:00:00,28.60909,77.0325413,PM2.5,190,350,285
India,Delhi,Delhi,"Najafgarh, Delhi - DPCC",10-01-2024 01:00:00,28.570173,76.933762,OZONE,21,60,41
India,Delhi,Delhi,"Narela, Delhi - DPCC",10-01-2024 01:00:00,28.822836,77.101981,NO2,20,42,28
India,Delhi,Delhi,"North Campus, DU, Delhi - IMD",10-01-2024 01:00:00,28.6573814,77.1585447,PM2.5,217,354,292
India,Delhi,Delhi,"North Campus, DU, Delhi - IMD",10-01-2024 01:00:00,28.6573814,77.1585447,OZONE,15,24,22
India,Delhi,Delhi,"Okhla Phase-2, Delhi - DPCC",10-01-2024 01:00:00,28.530785,77.271255,PM2.5,262,399,326
India,Delhi,Delhi,"Patparganj, Delhi - DPCC",10-01-2024 01:00:00,28.623763,77.287209,PM10,166,361,235
India,Delhi,Delhi,"Patparganj, Delhi - DPCC",10-01-2024 01:00:00,28.623763,77.287209,NO2,37,57,48
India,Delhi,Delhi,"Patparganj, Delhi - DPCC",10-01-2024 01:00:00,28.623763,77.287209,NH3,7,11,9
India,Delhi,Delhi,"Punjabi Bagh, Delhi - DPCC",10-01-2024 01:00:00,28.674045,77.131023,PM10,112,257,171
India,Delhi,Delhi,"Punjabi Bagh, Delhi - DPCC",10-01-2024 01:00:00,28.674045,77.131023,NH3,6,8,7
India,Delhi,Delhi,"Punjabi Bagh, Delhi - DPCC",10-01-2024 01:00:00,28.674045,77.131023,CO,40,58,43
India,Delhi,Delhi,"Pusa, Delhi - DPCC",10-01-2024 01:00:00,28.639652,77.146275,PM2.5,278,342,313
India,Delhi,Delhi,"Pusa, Delhi - DPCC",10-01-2024 01:00:00,28.639652,77.146275,SO2,4,22,8
India,Delhi,Delhi,"Pusa, Delhi - DPCC",10-01-2024 01:00:00,28.639652,77.146275,OZONE,6,14,12
India,Delhi,Delhi,"Pusa, Delhi - IMD",10-01-2024 01:00:00,28.636110,77.173332,OZONE,26,31,29
India,Delhi,Delhi,"R K Puram, Delhi - DPCC",10-01-2024 01:00:00,28.563262,77.186937,OZONE,9,32,21
India,Delhi,Delhi,"Shadipur, Delhi - CPCB",10-01-2024 01:00:00,28.6514781,77.1473105,NH3,5,12,9
India,Delhi,Delhi,"Shadipur, Delhi - CPCB",10-01-2024 01:00:00,28.6514781,77.1473105,CO,25,107,86
India,Delhi,Delhi,"Sirifort, Delhi - CPCB",10-01-2024 01:00:00,28.5504249,77.2159377,PM10,134,416,208
India,Delhi,Delhi,"Sirifort, Delhi - CPCB",10-01-2024 01:00:00,28.5504249,77.2159377,SO2,26,28,27
India,Delhi,Delhi,"Sonia Vihar, Delhi - DPCC",10-01-2024 01:00:00,28.710508,77.249485,NO2,31,56,42
India,Delhi,Delhi,"Sonia Vihar, Delhi - DPCC",10-01-2024 01:00:00,28.710508,77.249485,NH3,6,10,7
India,Delhi,Delhi,"Sonia Vihar, Delhi - DPCC",10-01-2024 01:00:00,28.710508,77.249485,SO2,2,8,5
India,Delhi,Delhi,"Sonia Vihar, Delhi - DPCC",10-01-2024 01:00:00,28.710508,77.249485,CO,55,73,61
India,Delhi,Delhi,"Sri Aurobindo Marg, Delhi - DPCC",10-01-2024 01:00:00,28.531346,77.190156,NO2,32,92,48
India,Delhi,Delhi,"Vivek Vihar, Delhi - DPCC",10-01-2024 01:00:00,28.672342,77.315260,SO2,7,8,7
India,Gujarat,Ahmedabad,"Gyaspur, Ahmedabad - IITM",10-01-2024 01:00:00,22.977134,72.553024,NO2,13,19,16
India,Gujarat,Ahmedabad,"Gyaspur, Ahmedabad - IITM",10-01-2024 01:00:00,22.977134,72.553024,OZONE,11,17,16
India,Gujarat,Ahmedabad,"Maninagar, Ahmedabad - GPCB",10-01-2024 01:00:00,23.002657,72.591912,NO2,18,78,47
India,Gujarat,Ahmedabad,"Raikhad, Ahmedabad - IITM",10-01-2024 01:00:00,23.020509,72.579261,PM2.5,74,77,75
India,Gujarat,Ahmedabad,"Raikhad, Ahmedabad - IITM",10-01-2024 01:00:00,23.020509,72.579261,SO2,6,6,6
India,Gujarat,Ahmedabad,"Rakhial, Ahmedabad - IITM",10-01-2024 01:00:00,23.016834,72.625775,PM2.5,71,311,196
India,Gujarat,Ahmedabad,"SAC ISRO Bopal, Ahmedabad - IITM",10-01-2024 01:00:00,23.041137,72.456691,PM2.5,81,306,165
India,Gujarat,Ahmedabad,"SVPI Airport Hansol, Ahmedabad - IITM",10-01-2024 01:00:00,23.076793,72.627874,PM2.5,90,162,115
India,Gujarat,Ahmedabad,"SVPI Airport Hansol, Ahmedabad - IITM",10-01-2024 01:00:00,23.076793,72.627874,SO2,3,7,5
India,Gujarat,Ankleshwar,"GIDC, Ankleshwar - GPCB",10-01-2024 01:00:00,21.613267,73.010555,NH3,6,6,6
India,Gujarat,Ankleshwar,"GIDC, Ankleshwar - GPCB",10-01-2024 01:00:00,21.613267,73.010555,SO2,10,26,20
India,Gujarat,Gandhinagar,"GIFT City, Gandhinagar - IITM",10-01-2024 01:00:00,23.163798,72.677768,NO2,6,8,7
India,Gujarat,Gandhinagar,"GIFT City, Gandhinagar - IITM",10-01-2024 01:00:00,23.163798,72.677768,OZONE,3,25,15
India,Gujarat,Gandhinagar,"Sector-10, Gandhinagar - GPCB",10-01-2024 01:00:00,23.221714,72.654328,SO2,3,10,7
India,Gujarat,Vatva,"Phase-4 GIDC, Vatva - GPCB",10-01-2024 01:00:00,22.969611,72.643500,NO2,14,49,24
India,Gujarat,Vatva,"Phase-4 GIDC, Vatva - GPCB",10-01-2024 01:00:00,22.969611,72.643500,CO,38,40,40
India,Haryana,Ambala,"Patti Mehar, Ambala - HSPCB",10-01-2024 01:00:00,30.379589,76.778328,SO2,1,35,9
India,Haryana,Bahadurgarh,"Arya Nagar, Bahadurgarh - HSPCB",10-01-2024 01:00:00,28.6701,76.9254,PM2.5,99,316,146
India,Haryana,Ballabgarh,"Nathu Colony, Ballabgarh - HSPCB",10-01-2024 01:00:00,28.3419248,77.319699,PM2.5,238,366,314
India,Haryana,Ballabgarh,"Nathu Colony, Ballabgarh - HSPCB",10-01-2024 01:00:00,28.3419248,77.319699,PM10,129,293,185
India,Haryana,Ballabgarh,"Nathu Colony, Ballabgarh - HSPCB",10-01-2024 01:00:00,28.3419248,77.319699,NH3,1,2,2
India,Haryana,Bhiwani,"H.B. Colony, Bhiwani - HSPCB",10-01-2024 01:00:00,28.806223,76.141105,NO2,5,11,8
India,Haryana,Bhiwani,"H.B. Colony, Bhiwani - HSPCB",10-01-2024 01:00:00,28.806223,76.141105,SO2,9,14,12
India,Haryana,Charkhi Dadri,"Mini Secretariat, Charkhi Dadri - HSPCB",10-01-2024 01:00:00,28.593883,76.270653,NH3,4,6,5
India,Haryana,Faridabad,"New Industrial Town, Faridabad - HSPCB",10-01-2024 01:00:00,28.39072,77.30059,PM10,145,455,277
India,Haryana,Faridabad,"New Industrial Town, Faridabad - HSPCB",10-01-2024 01:00:00,28.39072,77.30059,SO2,1,11,6
India,Haryana,Faridabad,"Sector 11, Faridabad - HSPCB",10-01-2024 01:00:00,28.376058,77.315741,NH3,6,6,6
India,Haryana,Faridabad,"Sector- 16A, Faridabad - HSPCB",10-01-2024 01:00:00,28.4088421,77.3099081,PM2.5,191,374,299
India,Haryana,Fatehabad,"Huda Sector, Fatehabad - HSPCB",10-01-2024 01:00:00,29.503664,75.467934,PM10,73,189,108
India,Haryana,Fatehabad,"Huda Sector, Fatehabad - HSPCB",10-01-2024 01:00:00,29.503664,75.467934,NH3,10,10,10
India,Haryana,Gurugram,"Sector-51, Gurugram - HSPCB",10-01-2024 01:00:00,28.4227,77.0667,NH3,7,14,9
India,Haryana,Gurugram,"Teri Gram, Gurugram - HSPCB",10-01-2024 01:00:00,28.4275,77.1465,PM2.5,78,211,108
India,Haryana,Gurugram,"Teri Gram, Gurugram - HSPCB",10-01-2024 01:00:00,28.4275,77.1465,NO2,30,45,37
India,Haryana,Gurugram,"Teri Gram, Gurugram - HSPCB",10-01-2024 01:00:00,28.4275,77.1465,SO2,5,8,6
India,Haryana,Hisar,"Urban Estate-II, Hisar - HSPCB",10-01-2024 01:00:00,29.140560,75.744941,PM2.5,78,174,105
India,Haryana,Hisar,"Urban Estate-II, Hisar - HSPCB",10-01-2024 01:00:00,29.140560,75.744941,PM10,68,117,87
India,Haryana,Jind,"Police Lines, Jind - HSPCB",10-01-2024 01:00:00,29.307814,76.337619,OZONE,5,11,7
India,Haryana,Kaithal,"Rishi Nagar, Kaithal - HSPCB",10-01-2024 01:00:00,29.8006,76.4155,PM10,44,90,63
India,Haryana,Kaithal,"Rishi Nagar, Kaithal - HSPCB",10-01-2024 01:00:00,29.8006,76.4155,SO2,6,16,11
India,Haryana,Kaithal,"Rishi Nagar, Kaithal - HSPCB",10-01-2024 01:00:00,29.8006,76.4155,CO,26,64,56
India,Haryana,Kaithal,"Rishi Nagar, Kaithal - HSPCB",10-01-2024 01:00:00,29.8006,76.4155,OZONE,7,10,9
India,Haryana,Karnal,"Sector-12, Karnal - HSPCB",10-01-2024 01:00:00,29.695300,77.002700,NO2,7,12,10
India,Haryana,Mandikhera,"General Hospital, Mandikhera - HSPCB",10-01-2024 01:00:00,27.9002,76.9938,PM10,87,117,105
India,Haryana,Mandikhera,"General Hospital, Mandikhera - HSPCB",10-01-2024 01:00:00,27.9002,76.9938,NO2,16,21,19
India,Haryana,Mandikhera,"General Hospital, Mandikhera - HSPCB",10-01-2024 01:00:00,27.9002,76.9938,NH3,17,21,19
India,Haryana,Narnaul,"Shastri Nagar, Narnaul - HSPCB",10-01-2024 01:00:00,28.060249,76.113115,PM2.5,NA,NA,NA
India,Haryana,Palwal,"Shyam Nagar, Palwal - HSPCB",10-01-2024 01:00:00,28.1485564,77.3320667,PM2.5,44,89,60
India,Haryana,Palwal,"Shyam Nagar, Palwal - HSPCB",10-01-2024 01:00:00,28.1485564,77.3320667,PM10,85,150,112
India,Haryana,Panchkula,"Sector-6, Panchkula - HSPCB ",10-01-2024 01:00:00,30.7057778,76.8531805555555,SO2,11,12,12
India,Haryana,Sirsa,"F-Block, Sirsa - HSPCB",10-01-2024 01:00:00,29.536400,75.015800,NH3,12,13,13
India,Haryana,Sonipat,"Murthal, Sonipat - HSPCB",10-01-2024 01:00:00,29.027200,77.062100,NO2,37,44,40
India,Haryana,Yamuna Nagar,"Gobind Pura, Yamuna Nagar - HSPCB",10-01-2024 01:00:00,30.1480566,77.2893471,PM2.5,20,214,120
India,Haryana,Yamuna Nagar,"Gobind Pura, Yamuna Nagar - HSPCB",10-01-2024 01:00:00,30.1480566,77.2893471,PM10,25,165,117
India,Haryana,Yamuna Nagar,"Gobind Pura, Yamuna Nagar - HSPCB",10-01-2024 01:00:00,30.1480566,77.2893471,NO2,11,29,18
India,Haryana,Yamuna Nagar,"Gobind Pura, Yamuna Nagar - HSPCB",10-01-2024 01:00:00,30.1480566,77.2893471,NH3,1,6,4
India,Jharkhand,Dhanbad,"Sardar Patel Nagar, Dhanbad - JSPCB",10-01-2024 01:00:00,23.80569,86.44268,SO2,NA,NA,NA
India,Jharkhand,Pathardih,"Mohalbani Ghat, Pathardih - DMC",10-01-2024 01:00:00,23.669880,86.411725,PM10,NA,NA,NA
India,Jharkhand,Pathardih,"Mohalbani Ghat, Pathardih - DMC",10-01-2024 01:00:00,23.669880,86.411725,CO,118,161,159
India,Jharkhand,Pathardih,"Mohalbani Ghat, Pathardih - DMC",10-01-2024 01:00:00,23.669880,86.411725,OZONE,17,38,19
India,Karnataka,Bagalkot,"Vidayagiri, Bagalkot - KSPCB",10-01-2024 01:00:00,16.172806,75.659694,NH3,1,2,1
India,Karnataka,Belgaum,"Ramteerth Nagar, Belgaum - KSPCB",10-01-2024 01:00:00,15.888653,74.541751,PM10,22,100,60
India,Karnataka,Belgaum,"Ramteerth Nagar, Belgaum - KSPCB",10-01-2024 01:00:00,15.888653,74.541751,SO2,8,9,8
India,Karnataka,Bengaluru,"BTM Layout, Bengaluru - CPCB",10-01-2024 01:00:00,12.9135218,77.5950804,NH3,NA,NA,NA
India,Karnataka,Bengaluru,"Bapuji Nagar, Bengaluru - KSPCB",10-01-2024 01:00:00,12.951913,77.539784,NH3,1,1,1
India,Karnataka,Bengaluru,"Bapuji Nagar, Bengaluru - KSPCB",10-01-2024 01:00:00,12.951913,77.539784,OZONE,11,12,11
India,Karnataka,Bengaluru,"Hebbal, Bengaluru - KSPCB",10-01-2024 01:00:00,13.029152,77.585901,OZONE,7,8,8
India,Karnataka,Bengaluru,"Hombegowda Nagar, Bengaluru - KSPCB",10-01-2024 01:00:00,12.938539,77.590100,SO2,4,5,4
India,Karnataka,Bengaluru,"Jayanagar 5th Block, Bengaluru - KSPCB",10-01-2024 01:00:00,12.920984,77.584908,OZONE,18,19,18
India,Karnataka,Bengaluru,"Jigani, Bengaluru - KSPCB",10-01-2024 01:00:00,12.7816279,77.6299145,SO2,9,15,11
India,Karnataka,Bengaluru,"Jigani, Bengaluru - KSPCB",10-01-2024 01:00:00,12.7816279,77.6299145,CO,39,67,62
India,Karnataka,Bengaluru,"Jigani, Bengaluru - KSPCB",10-01-2024 01:00:00,12.7816279,77.6299145,OZONE,34,56,47
India,Karnataka,Bengaluru,"Kasturi Nagar, Bengaluru - KSPCB",10-01-2024 01:00:00,13.003872,77.664217,CO,24,25,24
India,Karnataka,Bengaluru,"Peenya, Bengaluru - CPCB",10-01-2024 01:00:00,13.0270199,77.494094,NH3,1,2,1
India,Karnataka,Bengaluru,"Peenya, Bengaluru - CPCB",10-01-2024 01:00:00,13.0270199,77.494094,CO,34,63,39
India,Karnataka,Bengaluru,"Peenya, Bengaluru - CPCB",10-01-2024 01:00:00,13.0270199,77.494094,OZONE,17,39,24
India,Karnataka,Bengaluru,"RVCE-Mailasandra, Bengaluru - KSPCB",10-01-2024 01:00:00,12.921418,77.502466,NH3,4,4,4
India,Karnataka,Bengaluru,"Shivapura_Peenya, Bengaluru - KSPCB",10-01-2024 01:00:00,13.0246342,77.5080115,PM2.5,2,72,25
India,Karnataka,Bengaluru,"Shivapura_Peenya, Bengaluru - KSPCB",10-01-2024 01:00:00,13.0246342,77.5080115,SO2,3,18,7
India,Karnataka,Bengaluru,"Shivapura_Peenya, Bengaluru - KSPCB",10-01-2024 01:00:00,13.0246342,77.5080115,CO,24,42,32
India,Karnataka,Bengaluru,"Silk Board, Bengaluru - KSPCB",10-01-2024 01:00:00,12.917348,77.622813,NO2,15,24,18
India,Karnataka,Bidar,"Naubad, Bidar - KSPCB",10-01-2024 01:00:00,17.930306,77.482194,PM10,87,125,106
India,Karnataka,Bidar,"Naubad, Bidar - KSPCB",10-01-2024 01:00:00,17.930306,77.482194,NO2,7,8,8
India,Karnataka,Chamarajanagar,"Urban, Chamarajanagar - KSPCB",10-01-2024 01:00:00,11.55358,76.55521,SO2,2,8,4
India,Karnataka,Chikkaballapur,"Chikkaballapur Rural, Chikkaballapur - KSPCB",10-01-2024 01:00:00,13.428828,77.731418,NO2,7,9,8
India,Karnataka,Chikkaballapur,"Chikkaballapur Rural, Chikkaballapur - KSPCB",10-01-2024 01:00:00,13.428828,77.731418,SO2,11,24,20
India,Karnataka,Chikkamagaluru,"Kalyana Nagara, Chikkamagaluru - KSPCB",10-01-2024 01:00:00,13.328028,75.797056,PM2.5,6,47,21
India,Karnataka,Chikkamagaluru,"Kalyana Nagara, Chikkamagaluru - KSPCB",10-01-2024 01:00:00,13.328028,75.797056,CO,11,173,13
India,Karnataka,Davanagere,"Devaraj Urs Badavane, Davanagere - KSPCB",10-01-2024 01:00:00,14.475800,75.905200,NH3,1,1,1
India,Karnataka,Davanagere,"Devaraj Urs Badavane, Davanagere - KSPCB",10-01-2024 01:00:00,14.475800,75.905200,OZONE,18,28,25
India,Karnataka,Dharwad,"Kalabhavan, Dharwad - KSPCB",10-01-2024 01:00:00,15.459706,75.008381,NH3,2,3,3
India,Karnataka,Gadag,"Panchal Nagar, Gadag - KSPCB",10-01-2024 01:00:00,15.411456,75.638133,CO,50,60,53
India,Karnataka,Haveri,"Ashwini Nagar, Haveri - KSPCB",10-01-2024 01:00:00,14.791800,75.389600,PM10,NA,NA,NA
India,Karnataka,Haveri,"Ashwini Nagar, Haveri - KSPCB",10-01-2024 01:00:00,14.791800,75.389600,CO,30,33,32
India,Karnataka,Hubballi,"Deshpande Nagar, Hubballi - KSPCB",10-01-2024 01:00:00,15.351773,75.140726,CO,62,94,83
India,Karnataka,Hubballi,"Lingaraj Nagar, Hubballi - KSPCB",10-01-2024 01:00:00,15.3714823,75.1160168,NO2,16,16,16
India,Karnataka,Hubballi,"Lingaraj Nagar, Hubballi - KSPCB",10-01-2024 01:00:00,15.3714823,75.1160168,CO,36,60,49
India,Karnataka,Kalaburagi,"Lal Bahadur Shastri Nagar, Kalaburagi - KSPCB",10-01-2024 01:00:00,17.321993,76.822628,PM10,NA,NA,NA
India,Karnataka,Kalaburagi,"Lal Bahadur Shastri Nagar, Kalaburagi - KSPCB",10-01-2024 01:00:00,17.321993,76.822628,SO2,16,18,18
India,Karnataka,Kalaburagi,"Lal Bahadur Shastri Nagar, Kalaburagi - KSPCB",10-01-2024 01:00:00,17.321993,76.822628,CO,34,44,39
India,Karnataka,Kalaburagi,"Lal Bahadur Shastri Nagar, Kalaburagi - KSPCB",10-01-2024 01:00:00,17.321993,76.822628,OZONE,7,46,23
India,Karnataka,Kalaburagi,"Mahatma Basaveswar Colony, Kalaburgi - KSPCB",10-01-2024 01:00:00,17.336318,76.847397,PM2.5,9,42,26
India,Karnataka,Kalaburagi,"Mahatma Basaveswar Colony, Kalaburgi - KSPCB",10-01-2024 01:00:00,17.336318,76.847397,NO2,8,20,15
India,Karnataka,Kalaburagi,"Mahatma Basaveswar Colony, Kalaburgi - KSPCB",10-01-2024 01:00:00,17.336318,76.847397,NH3,2,4,3
India,Karnataka,Kalaburagi,"Mahatma Basaveswar Colony, Kalaburgi - KSPCB",10-01-2024 01:00:00,17.336318,76.847397,CO,39,55,48
India,Karnataka,Madikeri,"Stuart Hill, Madikeri - KSPCB",10-01-2024 01:00:00,12.415911,75.735050,NO2,5,10,7
India,Karnataka,Mangalore,"Kadri, Mangalore - KSPCB",10-01-2024 01:00:00,12.889250,74.853000,CO,41,50,46
India,Karnataka,Ramanagara,"Vijay Nagar, Ramanagara - KSPCB",10-01-2024 01:00:00,12.733409,77.298051,SO2,41,45,43
India,Karnataka,Tumakuru,"Thimmalapura, Tumakuru - KSPCB",10-01-2024 01:00:00,13.377516,77.099072,PM2.5,30,305,55
India,Karnataka,Vijayapura,"Ibrahimpur, Vijayapura - KSPCB",10-01-2024 01:00:00,16.802639,75.722694,PM2.5,26,31,30
India,Karnataka,Yadgir,"Collector Office, Yadgir - KSPCB",10-01-2024 01:00:00,16.7602,77.1428,PM10,55,99,75
India,Karnataka,Yadgir,"Collector Office, Yadgir - KSPCB",10-01-2024 01:00:00,16.7602,77.1428,NH3,NA,NA,NA
India,Kerala,Eloor,"Udyogamandal, Eloor - Kerala PCB",10-01-2024 01:00:00,10.073232,76.302765,PM10,NA,NA,NA
India,Kerala,Eloor,"Udyogamandal, Eloor - Kerala PCB",10-01-2024 01:00:00,10.073232,76.302765,OZONE,10,38,12
India,Kerala,Kollam,"Polayathode, Kollam - Kerala PCB",10-01-2024 01:00:00,8.8787,76.6073,CO,8,55,22
India,Kerala,Thiruvananthapuram,"Kariavattom, Thiruvananthapuram - Kerala PCB",10-01-2024 01:00:00,8.563700,76.886500,PM10,70,85,76
India,Kerala,Thiruvananthapuram,"Kariavattom, Thiruvananthapuram - Kerala PCB",10-01-2024 01:00:00,8.563700,76.886500,NH3,1,1,1
India,Kerala,Thiruvananthapuram,"Kariavattom, Thiruvananthapuram - Kerala PCB",10-01-2024 01:00:00,8.563700,76.886500,CO,12,42,24
India,Madhya Pradesh,Bhopal,"Paryavaran Parisar, Bhopal - MPPCB",10-01-2024 01:00:00,23.210494,77.425409,SO2,8,19,11
India,Madhya Pradesh,Bhopal,"Paryavaran Parisar, Bhopal - MPPCB",10-01-2024 01:00:00,23.210494,77.425409,CO,21,58,45
India,Madhya Pradesh,Bhopal,"Paryavaran Parisar, Bhopal - MPPCB",10-01-2024 01:00:00,23.210494,77.425409,OZONE,13,90,35
India,Madhya Pradesh,Dewas,"Bhopal Chauraha, Dewas - MPPCB",10-01-2024 01:00:00,22.9682591,76.064118,PM2.5,69,272,156
India,Madhya Pradesh,Dewas,"Bhopal Chauraha, Dewas - MPPCB",10-01-2024 01:00:00,22.9682591,76.064118,OZONE,12,72,28
India,Madhya Pradesh,Gwalior,"Deen Dayal Nagar, Gwalior - MPPCB",10-01-2024 01:00:00,26.259242,78.216432,PM10,72,370,155
India,Madhya Pradesh,Gwalior,"Deen Dayal Nagar, Gwalior - MPPCB",10-01-2024 01:00:00,26.259242,78.216432,OZONE,10,42,25
India,Madhya Pradesh,Gwalior,"Phool Bagh, Gwalior - Mondelez Ind. Food",10-01-2024 01:00:00,26.210536,78.171,CO,20,38,35
India,Madhya Pradesh,Indore,"Chhoti Gwaltoli, Indore - MPPCB",10-01-2024 01:00:00,22.4310,75.5213,PM2.5,62,316,225
India,Madhya Pradesh,Indore,"Chhoti Gwaltoli, Indore - MPPCB",10-01-2024 01:00:00,22.4310,75.5213,NO2,39,90,55
India,Madhya Pradesh,Indore,"Maguda Nagar, Indore - IMC",10-01-2024 01:00:00,22.7524,75.8872,PM2.5,2,219,111
India,Madhya Pradesh,Indore,"Regional Park, Indore - IMC",10-01-2024 01:00:00,22.6780,75.8559,NO2,3,7,5
India,Madhya Pradesh,Indore,"Regional Park, Indore - IMC",10-01-2024 01:00:00,22.6780,75.8559,CO,6,31,19
India,Madhya Pradesh,Indore,"Residency Area, Indore - IMC",10-01-2024 01:00:00,22.7084,75.8815,PM10,37,106,74
India,Madhya Pradesh,Indore,"Residency Area, Indore - IMC",10-01-2024 01:00:00,22.7084,75.8815,NO2,24,38,31
India,Madhya Pradesh,Indore,"Residency Area, Indore - IMC",10-01-2024 01:00:00,22.7084,75.8815,SO2,14,28,21
India,Madhya Pradesh,Indore,"Residency Area, Indore - IMC",10-01-2024 01:00:00,22.7084,75.8815,CO,12,16,13
India,Madhya Pradesh,Jabalpur,"Govindh Bhavan Colony, Jabalpur - JMC",10-01-2024 01:00:00,23.163174,79.973061,NH3,3,4,4
India,Madhya Pradesh,Jabalpur,"Gupteshwar, Jabalpur - JMC",10-01-2024 01:00:00,23.142888,79.916147,NO2,16,119,39
India,Madhya Pradesh,Jabalpur,"Gupteshwar, Jabalpur - JMC",10-01-2024 01:00:00,23.142888,79.916147,OZONE,1,133,37
India,Madhya Pradesh,Jabalpur,"Marhatal, Jabalpur - MPPCB",10-01-2024 01:00:00,23.168606,79.932247,NO2,35,103,52
India,Madhya Pradesh,Jabalpur,"Marhatal, Jabalpur - MPPCB",10-01-2024 01:00:00,23.168606,79.932247,SO2,5,27,10
India,Madhya Pradesh,Jabalpur,"Suhagi, Jabalpur - JMC",10-01-2024 01:00:00,23.218135,79.957770,PM10,52,182,117
India,Madhya Pradesh,Katni,"Gole Bazar, Katni - MPPCB",10-01-2024 01:00:00,23.50016,80.23284,NH3,4,7,5
India,Madhya Pradesh,Katni,"Gole Bazar, Katni - MPPCB",10-01-2024 01:00:00,23.50016,80.23284,SO2,3,18,10
India,Madhya Pradesh,Mandideep,"Sector-D Industrial Area, Mandideep - MPPCB",10-01-2024 01:00:00,23.108440,77.511428,NO2,52,100,77
India,Madhya Pradesh,Mandideep,"Sector-D Industrial Area, Mandideep - MPPCB",10-01-2024 01:00:00,23.108440,77.511428,CO,25,101,68
India,Madhya Pradesh,Pithampur,"Sector-2 Industrial Area, Pithampur - MPPCB",10-01-2024 01:00:00,22.624758,75.675238,SO2,12,17,13
India,Madhya Pradesh,Pithampur,"Sector-2 Industrial Area, Pithampur - MPPCB",10-01-2024 01:00:00,22.624758,75.675238,OZONE,29,63,44
India,Madhya Pradesh,Sagar,"Civil Lines, Sagar - MPPCB",10-01-2024 01:00:00,23.838586,78.759431,PM2.5,97,344,234
India,Madhya Pradesh,Sagar,"Civil Lines, Sagar - MPPCB",10-01-2024 01:00:00,23.838586,78.759431,CO,30,52,46
India,Madhya Pradesh,Sagar,"Deen Dayal Nagar, Sagar - MPPCB",10-01-2024 01:00:00,23.8640158,78.80289321,CO,8,121,65
India,Madhya Pradesh,Satna,"Bandhavgar Colony, Satna - Birla Cement",10-01-2024 01:00:00,24.58434363,80.8549414,PM2.5,3,36,20
India,Madhya Pradesh,Satna,"Bandhavgar Colony, Satna - Birla Cement",10-01-2024 01:00:00,24.58434363,80.8549414,SO2,2,5,4
India,Madhya Pradesh,Singrauli,"Suryakiran Bhawan NCL, Singrauli - MPPCB",10-01-2024 01:00:00,24.108970,82.645580,NH3,1,2,2
India,Madhya Pradesh,Ujjain,"Mahakaleshwar Temple, Ujjain - MPPCB",10-01-2024 01:00:00,23.182719 ,75.768218 ,PM2.5,138,314,257
India,Madhya Pradesh,Ujjain,"Mahakaleshwar Temple, Ujjain - MPPCB",10-01-2024 01:00:00,23.182719 ,75.768218 ,NO2,11,25,16
India,Maharashtra,Akola,"Ramdaspeth, Akola - MPCB",10-01-2024 01:00:00,20.719516,77.000253,PM10,119,231,152
India,Maharashtra,Akola,"Ramdaspeth, Akola - MPCB",10-01-2024 01:00:00,20.719516,77.000253,NH3,2,7,4
India,Maharashtra,Amravati,"Shivneri Colony, Amravati - MPCB",10-01-2024 01:00:00,20.9402359,77.7895248,NO2,12,82,39
India,Maharashtra,Amravati,"Shivneri Colony, Amravati - MPCB",10-01-2024 01:00:00,20.9402359,77.7895248,SO2,1,15,5
India,Maharashtra,Amravati,"Shri Shivaji Science College, Amaravati - MPCB",10-01-2024 01:00:00,20.939198,77.765701,PM2.5,78,161,123
India,Maharashtra,Amravati,"Shri Shivaji Science College, Amaravati - MPCB",10-01-2024 01:00:00,20.939198,77.765701,SO2,3,19,11
India,Maharashtra,Amravati,"Shri Shivaji Science College, Amaravati - MPCB",10-01-2024 01:00:00,20.939198,77.765701,OZONE,2,50,23
India,Maharashtra,Aurangabad,"MIDC Chilkalthana, Aurangabad - MPCB",10-01-2024 01:00:00,19.875620,75.387310,NH3,3,4,4
India,Maharashtra,Aurangabad,"MIDC Chilkalthana, Aurangabad - MPCB",10-01-2024 01:00:00,19.875620,75.387310,SO2,5,12,8
India,Maharashtra,Aurangabad,"More Chowk Waluj, Aurangabad - MPCB",10-01-2024 01:00:00,19.8389439,75.244448,PM2.5,NA,NA,NA
India,Maharashtra,Aurangabad,"More Chowk Waluj, Aurangabad - MPCB",10-01-2024 01:00:00,19.8389439,75.244448,NO2,31,47,34
India,Maharashtra,Aurangabad,"More Chowk Waluj, Aurangabad - MPCB",10-01-2024 01:00:00,19.8389439,75.244448,NH3,1,9,2
India,Maharashtra,Aurangabad,"More Chowk Waluj, Aurangabad - MPCB",10-01-2024 01:00:00,19.8389439,75.244448,OZONE,4,186,10
India,Maharashtra,Aurangabad,"Rachnakar Colony, Aurangabad - MPCB",10-01-2024 01:00:00,19.863756,75.321188,PM2.5,60,199,154
India,Maharashtra,Aurangabad,"Rachnakar Colony, Aurangabad - MPCB",10-01-2024 01:00:00,19.863756,75.321188,PM10,65,163,110
India,Maharashtra,Badlapur,"Katrap, Badlapur - MPCB",10-01-2024 01:00:00,19.16485,73.23409,PM2.5,NA,NA,NA
India,Maharashtra,Badlapur,"Katrap, Badlapur - MPCB",10-01-2024 01:00:00,19.16485,73.23409,SO2,9,16,11
India,Maharashtra,Belapur,"CBD Belapur, Belapur - MPCB",10-01-2024 01:00:00,19.0243902,73.0406721,PM2.5,34,128,81
India,Maharashtra,Belapur,"CBD Belapur, Belapur - MPCB",10-01-2024 01:00:00,19.0243902,73.0406721,CO,26,80,36
India,Maharashtra,Bhiwandi,"Gokul Nagar, Bhiwandi - MPCB",10-01-2024 01:00:00,19.309073,73.057223,OZONE,6,68,27
India,Maharashtra,Chandrapur,"Chauhan Colony, Chandrapur - MPCB",10-01-2024 01:00:00,19.962900,79.298714,OZONE,9,14,12
India,Maharashtra,Chandrapur,"MIDC Khutala, Chandrapur - MPCB",10-01-2024 01:00:00,19.9775302,79.2337086,NH3,NA,NA,NA
India,Maharashtra,Chandrapur,"MIDC Khutala, Chandrapur - MPCB",10-01-2024 01:00:00,19.9775302,79.2337086,SO2,NA,NA,NA
India,Maharashtra,Jalgaon,"Prabhat Colony, Jalgaon - MPCB",10-01-2024 01:00:00,21.001264,75.565602,CO,8,21,17
India,Maharashtra,Jalna,"Old MIDC, Jalna - MPCB",10-01-2024 01:00:00,19.854616,75.905894,SO2,3,5,4
India,Maharashtra,Jalna,"Old MIDC, Jalna - MPCB",10-01-2024 01:00:00,19.854616,75.905894,OZONE,3,45,5
India,Maharashtra,Kalyan,"Khadakpada, Kalyan - MPCB",10-01-2024 01:00:00,19.25292,73.142019,PM2.5,19,116,57
India,Maharashtra,Kalyan,"Khadakpada, Kalyan - MPCB",10-01-2024 01:00:00,19.25292,73.142019,PM10,44,186,103
India,Maharashtra,Kalyan,"Khadakpada, Kalyan - MPCB",10-01-2024 01:00:00,19.25292,73.142019,NO2,20,75,37
India,Maharashtra,Kalyan,"Khadakpada, Kalyan - MPCB",10-01-2024 01:00:00,19.25292,73.142019,OZONE,11,21,13
India,Maharashtra,Kolhapur,"Sinchan Bhavan, Kolhapur - MPCB",10-01-2024 01:00:00,16.7143745,74.2426398,OZONE,4,34,13
India,Maharashtra,Latur,"Sawe Wadi, Latur - MPCB",10-01-2024 01:00:00,18.39963,76.57452,NH3,8,8,8
India,Maharashtra,Mahad,"Kamble Tarf Birwadi, Mahad - MPCB",10-01-2024 01:00:00,18.1023399,73.4783687,PM2.5,75,148,104
India,Maharashtra,Mahad,"Kamble Tarf Birwadi, Mahad - MPCB",10-01-2024 01:00:00,18.1023399,73.4783687,NO2,27,102,46
India,Maharashtra,Malegaon,"Mahesh Nagar, Malegaon - MPCB",10-01-2024 01:00:00,20.555712,74.529236,PM2.5,50,154,87
India,Maharashtra,Malegaon,"Mahesh Nagar, Malegaon - MPCB",10-01-2024 01:00:00,20.555712,74.529236,NO2,7,18,12
India,Maharashtra,Mira-Bhayandar,"Bhayandar West, Mira-Bhayandar - MPCB",10-01-2024 01:00:00,19.296481,72.840923,PM2.5,94,171,126
India,Maharashtra,Mira-Bhayandar,"Bhayandar West, Mira-Bhayandar - MPCB",10-01-2024 01:00:00,19.296481,72.840923,SO2,6,72,14
India,Maharashtra,Mumbai,"Bandra Kurla Complex, Mumbai - MPCB",10-01-2024 01:00:00,19.065931,72.862131,PM10,56,131,100
India,Maharashtra,Mumbai,"Borivali East, Mumbai - MPCB",10-01-2024 01:00:00,19.2243333,72.8658113,PM2.5,53,123,80
India,Maharashtra,Mumbai,"Borivali East, Mumbai - MPCB",10-01-2024 01:00:00,19.2243333,72.8658113,CO,4,172,69
India,Maharashtra,Mumbai,"Borivali East, Mumbai - MPCB",10-01-2024 01:00:00,19.2243333,72.8658113,OZONE,8,9,9
India,Maharashtra,Mumbai,"Byculla, Mumbai - BMC",10-01-2024 01:00:00,18.9767,72.8380,PM10,47,113,81
India,Maharashtra,Mumbai,"Byculla, Mumbai - BMC",10-01-2024 01:00:00,18.9767,72.8380,CO,10,54,24
India,Maharashtra,Mumbai,"Byculla, Mumbai - BMC",10-01-2024 01:00:00,18.9767,72.8380,OZONE,1,100,60
India,Maharashtra,Mumbai,"Chembur, Mumbai - MPCB",10-01-2024 01:00:00,19.0364585,72.8954371,PM10,63,127,91
India,Maharashtra,Mumbai,"Chhatrapati Shivaji Intl. Airport (T2), Mumbai - MPCB",10-01-2024 01:00:00,19.10078,72.87462,CO,50,101,63
India,Maharashtra,Mumbai,"Colaba, Mumbai - MPCB",10-01-2024 01:00:00,18.910000,72.820000,SO2,17,20,19
India,Maharashtra,Mumbai,"Colaba, Mumbai - MPCB",10-01-2024 01:00:00,18.910000,72.820000,OZONE,10,13,11
India,Maharashtra,Mumbai,"Kandivali East, Mumbai - MPCB",10-01-2024 01:00:00,19.205800,72.868200,PM10,74,177,117
India,Maharashtra,Mumbai,"Kandivali West, Mumbai - BMC",10-01-2024 01:00:00,19.215859,72.831718,PM2.5,NA,NA,NA
India,Maharashtra,Mumbai,"Kandivali West, Mumbai - BMC",10-01-2024 01:00:00,19.215859,72.831718,SO2,NA,NA,NA
India,Maharashtra,Mumbai,"Khindipada-Bhandup West, Mumbai - IITM",10-01-2024 01:00:00,19.1653323,72.922099,OZONE,3,86,38
India,Maharashtra,Mumbai,"Kurla, Mumbai - MPCB",10-01-2024 01:00:00,19.0863,72.8888,NH3,NA,NA,NA
India,Maharashtra,Mumbai,"Malad West, Mumbai - IITM",10-01-2024 01:00:00,19.19709,72.82204,CO,8,67,41
India,Maharashtra,Mumbai,"Mazgaon, Mumbai - IITM",10-01-2024 01:00:00,18.96702,72.84214,NO2,60,106,83
India,Maharashtra,Mumbai,"Mazgaon, Mumbai - IITM",10-01-2024 01:00:00,18.96702,72.84214,NH3,5,11,8
India,Maharashtra,Mumbai,"Mulund West, Mumbai - MPCB",10-01-2024 01:00:00,19.1750,72.9419,NH3,10,10,10
India,Maharashtra,Mumbai,"Mulund West, Mumbai - MPCB",10-01-2024 01:00:00,19.1750,72.9419,SO2,14,14,14
India,Maharashtra,Mumbai,"Sewri, Mumbai - BMC",10-01-2024 01:00:00,19.000084,72.856730,CO,12,58,29
India,Maharashtra,Mumbai,"Sewri, Mumbai - BMC",10-01-2024 01:00:00,19.000084,72.856730,OZONE,1,97,40
India,Maharashtra,Mumbai,"Siddharth Nagar-Worli, Mumbai - IITM",10-01-2024 01:00:00,19.000083,72.813993,CO,34,53,45
India,Maharashtra,Mumbai,"Sion, Mumbai - MPCB",10-01-2024 01:00:00,19.047000,72.874600,PM10,55,159,115
India,Maharashtra,Mumbai,"Sion, Mumbai - MPCB",10-01-2024 01:00:00,19.047000,72.874600,NH3,1,2,1
India,Maharashtra,Mumbai,"Vasai West, Mumbai - MPCB",10-01-2024 01:00:00,19.383200,72.820400,PM2.5,32,71,54
India,Maharashtra,Mumbai,"Vasai West, Mumbai - MPCB",10-01-2024 01:00:00,19.383200,72.820400,PM10,65,128,104
India,Maharashtra,Mumbai,"Vasai West, Mumbai - MPCB",10-01-2024 01:00:00,19.383200,72.820400,NH3,4,4,4
India,Maharashtra,Mumbai,"Vasai West, Mumbai - MPCB",10-01-2024 01:00:00,19.383200,72.820400,OZONE,4,50,19
India,Maharashtra,Mumbai,"Vile Parle West, Mumbai - MPCB",10-01-2024 01:00:00,19.10861,72.83622,PM2.5,40,128,91
India,Maharashtra,Mumbai,"Vile Parle West, Mumbai - MPCB",10-01-2024 01:00:00,19.10861,72.83622,OZONE,3,3,3
India,Maharashtra,Mumbai,"Worli, Mumbai - MPCB",10-01-2024 01:00:00,18.9936162,72.8128113,SO2,9,11,10
India,Maharashtra,Nagpur,"Ambazari, Nagpur - MPCB",10-01-2024 01:00:00,21.121801,79.04952,PM10,102,185,125
India,Maharashtra,Nagpur,"Ambazari, Nagpur - MPCB",10-01-2024 01:00:00,21.121801,79.04952,OZONE,2,105,28
India,Maharashtra,Nagpur,"Opp GPO Civil Lines, Nagpur - MPCB",10-01-2024 01:00:00,21.152875,79.0517531,PM2.5,73,156,117
India,Maharashtra,Nagpur,"Opp GPO Civil Lines, Nagpur - MPCB",10-01-2024 01:00:00,21.152875,79.0517531,NO2,40,133,78
India,Maharashtra,Nagpur,"Opp GPO Civil Lines, Nagpur - MPCB",10-01-2024 01:00:00,21.152875,79.0517531,SO2,4,26,15
India,Maharashtra,Nagpur,"Ram Nagar, Nagpur - MPCB",10-01-2024 01:00:00,21.143383,79.048912,PM10,104,198,134
India,Maharashtra,Nanded,"Sneh Nagar, Nanded - MPCB",10-01-2024 01:00:00,19.173852,77.296291,PM2.5,4,251,140
India,Maharashtra,Nanded,"Sneh Nagar, Nanded - MPCB",10-01-2024 01:00:00,19.173852,77.296291,SO2,1,16,4
India,Maharashtra,Nashik,"Gangapur Road, Nashik - MPCB",10-01-2024 01:00:00,20.0073285,73.7762427,NO2,4,5,4
India,Maharashtra,Nashik,"Gangapur Road, Nashik - MPCB",10-01-2024 01:00:00,20.0073285,73.7762427,SO2,1,5,3
India,Maharashtra,Nashik,"Gangapur Road, Nashik - MPCB",10-01-2024 01:00:00,20.0073285,73.7762427,CO,18,18,18
India,Maharashtra,Nashik,"Pandav Nagari, Nashik - MPCB",10-01-2024 01:00:00,19.9591346,73.7788008,NO2,18,72,30
India,Maharashtra,Nashik,"Pandav Nagari, Nashik - MPCB",10-01-2024 01:00:00,19.9591346,73.7788008,OZONE,16,63,34
India,Maharashtra,Navi Mumbai,"Mahape, Navi Mumbai - MPCB",10-01-2024 01:00:00,19.1135051,73.008978,PM10,82,183,130
India,Maharashtra,Navi Mumbai,"Mahape, Navi Mumbai - MPCB",10-01-2024 01:00:00,19.1135051,73.008978,NO2,37,38,38
India,Maharashtra,Navi Mumbai,"Mahape, Navi Mumbai - MPCB",10-01-2024 01:00:00,19.1135051,73.008978,NH3,3,3,3
India,Maharashtra,Navi Mumbai,"Mahape, Navi Mumbai - MPCB",10-01-2024 01:00:00,19.1135051,73.008978,CO,30,49,37
India,Maharashtra,Navi Mumbai,"Nerul, Navi Mumbai - MPCB",10-01-2024 01:00:00,19.008751,73.016620,PM2.5,26,156,77
India,Maharashtra,Navi Mumbai,"Nerul, Navi Mumbai - MPCB",10-01-2024 01:00:00,19.008751,73.016620,NH3,1,4,3
India,Maharashtra,Navi Mumbai,"Nerul, Navi Mumbai - MPCB",10-01-2024 01:00:00,19.008751,73.016620,OZONE,25,40,26
India,Maharashtra,Navi Mumbai,"Sector-2E Kalamboli, Navi Mumbai - MPCB",10-01-2024 01:00:00,19.02579,73.10297,PM2.5,57,303,161
India,Maharashtra,Navi Mumbai,"Sector-2E Kalamboli, Navi Mumbai - MPCB",10-01-2024 01:00:00,19.02579,73.10297,CO,10,72,24
India,Maharashtra,Navi Mumbai,"Tondare-Taloja, Navi Mumbai - MPCB",10-01-2024 01:00:00,19.0630,73.1209,NO2,54,155,85
India,Maharashtra,Navi Mumbai,"Tondare-Taloja, Navi Mumbai - MPCB",10-01-2024 01:00:00,19.0630,73.1209,CO,10,58,20
India,Maharashtra,Parbhani,"Masoom Colony, Parbhani - MPCB",10-01-2024 01:00:00,19.265594,76.761463,SO2,11,37,23
India,Maharashtra,Parbhani,"Masoom Colony, Parbhani - MPCB",10-01-2024 01:00:00,19.265594,76.761463,OZONE,39,92,61
India,Maharashtra,Pimpri-Chinchwad,"Gavalinagar, Pimpri Chinchwad - MPCB",10-01-2024 01:00:00,18.63673,73.82487,NO2,24,73,48
India,Maharashtra,Pimpri-Chinchwad,"Park Street Wakad, Pimpri Chinchwad - MPCB",10-01-2024 01:00:00,18.59051,73.77946,NO2,56,108,77
India,Maharashtra,Pimpri-Chinchwad,"Thergaon, Pimpri Chinchwad - MPCB",10-01-2024 01:00:00,18.616318,73.765797,NO2,25,81,45
India,Maharashtra,Pune,"Karve Road, Pune - MPCB",10-01-2024 01:00:00,18.5011743,73.8165527,PM2.5,63,80,71
India,Maharashtra,Pune,"Karve Road, Pune - MPCB",10-01-2024 01:00:00,18.5011743,73.8165527,SO2,18,22,20
India,Maharashtra,Pune,"Katraj Dairy, Pune - MPCB",10-01-2024 01:00:00,18.454450,73.854155,OZONE,4,15,9
India,Maharashtra,Pune,"Mhada Colony, Pune - IITM",10-01-2024 01:00:00,18.573040,73.927715,PM2.5,NA,NA,NA
India,Maharashtra,Pune,"Revenue Colony-Shivajinagar, Pune - IITM",10-01-2024 01:00:00,18.530085,73.849598,PM2.5,46,288,175
India,Maharashtra,Pune,"Revenue Colony-Shivajinagar, Pune - IITM",10-01-2024 01:00:00,18.530085,73.849598,NH3,27,30,30
India,Maharashtra,Pune,"Revenue Colony-Shivajinagar, Pune - IITM",10-01-2024 01:00:00,18.530085,73.849598,CO,106,109,107
India,Maharashtra,Pune,"Revenue Colony-Shivajinagar, Pune - IITM",10-01-2024 01:00:00,18.530085,73.849598,OZONE,3,7,5
India,Maharashtra,Pune,"Savitribai Phule Pune University, Pune - MPCB",10-01-2024 01:00:00,18.547056,73.826908,SO2,4,18,10
India,Maharashtra,Pune,"Savitribai Phule Pune University, Pune - MPCB",10-01-2024 01:00:00,18.547056,73.826908,OZONE,1,37,28
India,Maharashtra,Pune,"Transport Nagar-Nigdi, Pune - IITM",10-01-2024 01:00:00,18.664282,73.763966,NO2,26,32,29
India,Maharashtra,Sangli,"Vijay Nagar, Sangli - MPCB",10-01-2024 01:00:00, 16.5038,74.3623,OZONE,10,39,18
India,Maharashtra,Solapur,"Ratandeep Housing Society, Solapur - MPCB",10-01-2024 01:00:00,17.65439,75.90649,NO2,11,80,31
India,Maharashtra,Solapur,"Solapur, Solapur - MPCB",10-01-2024 01:00:00,17.6599188,75.9063906,PM2.5,36,71,52
India,Maharashtra,Solapur,"Solapur, Solapur - MPCB",10-01-2024 01:00:00,17.6599188,75.9063906,PM10,82,125,105
India,Maharashtra,Solapur,"Solapur, Solapur - MPCB",10-01-2024 01:00:00,17.6599188,75.9063906,NO2,46,54,49
India,Maharashtra,Thane,"Kasarvadavali, Thane - MPCB",10-01-2024 01:00:00,19.26777,72.97182,CO,33,74,46
India,Maharashtra,Virar,"Bolinj, Virar - MPCB",10-01-2024 01:00:00,19.4458210,72.7988231,NH3,5,12,7
India,Maharashtra,Virar,"Bolinj, Virar - MPCB",10-01-2024 01:00:00,19.4458210,72.7988231,SO2,9,38,15
India,Maharashtra,Virar,"Bolinj, Virar - MPCB",10-01-2024 01:00:00,19.4458210,72.7988231,OZONE,2,122,70
India,Manipur,Imphal,"DM College of Science, Imphal - Manipur PCB",10-01-2024 01:00:00,24.8207389,93.9423085,NO2,7,8,8
India,Manipur,Imphal,"Manipur University, Imphal - Manipur PCB",10-01-2024 01:00:00,24.7524239,93.9286218,OZONE,1,18,7
India,Meghalaya,Shillong,"Lumpyngngad, Shillong - Meghalaya PCB",10-01-2024 01:00:00,25.5586,91.8985,NH3,1,1,1
India,Mizoram,Aizawl,"Sikulpuikawn, Aizawl - Mizoram PCB",10-01-2024 01:00:00,23.7176342,92.7192841,NO2,1,12,2
India,Mizoram,Aizawl,"Sikulpuikawn, Aizawl - Mizoram PCB",10-01-2024 01:00:00,23.7176342,92.7192841,NH3,NA,NA,NA
India,Mizoram,Aizawl,"Sikulpuikawn, Aizawl - Mizoram PCB",10-01-2024 01:00:00,23.7176342,92.7192841,SO2,2,2,2
India,Mizoram,Aizawl,"Sikulpuikawn, Aizawl - Mizoram PCB",10-01-2024 01:00:00,23.7176342,92.7192841,CO,10,19,16
India,Nagaland,Kohima,"PWD Juction, Kohima - NPCB",10-01-2024 01:00:00,25.6635413,94.0989878,SO2,80,100,88
India,Nagaland,Kohima,"PWD Juction, Kohima - NPCB",10-01-2024 01:00:00,25.6635413,94.0989878,OZONE,10,28,12
India,Odisha,Angul,"Hakimapada, Angul - OSPCB",10-01-2024 01:00:00,20.832874,85.104082,PM10,152,457,239
India,Odisha,Angul,"Hakimapada, Angul - OSPCB",10-01-2024 01:00:00,20.832874,85.104082,CO,34,126,65
India,Odisha,Balasore,"Kalidaspur, Balasore - OSPCB",10-01-2024 01:00:00,21.51161,86.89088,PM2.5,190,370,321
India,Odisha,Barbil,"Forest Office, Barbil - OSPCB",10-01-2024 01:00:00,22.1166054,85.3945546,PM2.5,45,315,141
India,Odisha,Baripada,"Meher Colony, Baripada - OSPCB",10-01-2024 01:00:00,21.941841,86.728318,PM2.5,237,374,310
India,Odisha,Bhubaneswar,"Lingraj Mandir, Bhubaneswar - OSPCB",10-01-2024 01:00:00,20.240790,85.836784,PM10,131,352,211
India,Odisha,Bhubaneswar,"Lingraj Mandir, Bhubaneswar - OSPCB",10-01-2024 01:00:00,20.240790,85.836784,CO,46,102,78
India,Odisha,Bhubaneswar,"Patia, Bhubaneswar - OSPCB",10-01-2024 01:00:00,20.34652,85.81630,PM10,146,282,194
India,Odisha,Bileipada,"Tata Township, Bileipada - OSPCB",10-01-2024 01:00:00,22.06156703,85.47409613,CO,22,40,23
India,Odisha,Brajrajnagar,"GM Office, Brajrajnagar - OSPCB",10-01-2024 01:00:00,21.8004996,83.8396977,NO2,12,20,16
India,Odisha,Brajrajnagar,"GM Office, Brajrajnagar - OSPCB",10-01-2024 01:00:00,21.8004996,83.8396977,OZONE,19,21,19
India,Odisha,Byasanagar,"Ferro Chrome Colony, Byasanagar - OSPCB",10-01-2024 01:00:00,20.94185,86.11510,NO2,14,36,21
India,Odisha,Cuttack,"CDA Area, Cuttack - OSPCB",10-01-2024 01:00:00,20.48891     ,85.84768     ,NO2,23,69,41
India,Odisha,Keonjhar,"Jagamohanpur, Keonjhar - OSPCB",10-01-2024 01:00:00,21.643900,85.599355,CO,12,69,23
India,Odisha,Rourkela,"Raghunathpali, Rourkela - OSPCB",10-01-2024 01:00:00,22.220833,84.809444,NO2,20,134,65
India,Odisha,Suakati,"OMC Colony, Suakati - OSPCB",10-01-2024 01:00:00,21.606865,85.510538,SO2,1,22,7
India,Odisha,Suakati,"OMC Colony, Suakati - OSPCB",10-01-2024 01:00:00,21.606865,85.510538,OZONE,11,185,100
India,Odisha,Talcher,"Talcher Coalfields,Talcher - OSPCB",10-01-2024 01:00:00,20.9360711,85.1707021,SO2,20,58,30
India,Odisha,Tensa,"Barsua Iron Ore Mines, Tensa - OSPCB",10-01-2024 01:00:00,21.869985,85.167016,PM2.5,66,218,114
India,Odisha,Tensa,"Barsua Iron Ore Mines, Tensa - OSPCB",10-01-2024 01:00:00,21.869985,85.167016,NH3,7,12,9
India,Odisha,Tensa,"Barsua Iron Ore Mines, Tensa - OSPCB",10-01-2024 01:00:00,21.869985,85.167016,SO2,14,19,16
India,Odisha,Tensa,"Barsua Iron Ore Mines, Tensa - OSPCB",10-01-2024 01:00:00,21.869985,85.167016,OZONE,7,23,14
India,Puducherry,Puducherry,"Jawahar Nagar, Puducherry - PPCC",10-01-2024 01:00:00,11.9309,79.8027,OZONE,22,51,34
India,Punjab,Amritsar,"Golden Temple, Amritsar - PPCB",10-01-2024 01:00:00,31.620000,74.876512,OZONE,22,32,28
India,Punjab,Khanna,"Kalal Majra, Khanna - PPCB",10-01-2024 01:00:00,30.736056 ,76.209694,PM10,69,157,101
India,Punjab,Khanna,"Kalal Majra, Khanna - PPCB",10-01-2024 01:00:00,30.736056 ,76.209694,NO2,30,33,31
India,Punjab,Khanna,"Kalal Majra, Khanna - PPCB",10-01-2024 01:00:00,30.736056 ,76.209694,CO,22,37,26
India,Punjab,Khanna,"Kalal Majra, Khanna - PPCB",10-01-2024 01:00:00,30.736056 ,76.209694,OZONE,17,24,22
India,Punjab,Ludhiana,"Punjab Agricultural University, Ludhiana - PPCB",10-01-2024 01:00:00,30.9028,75.8086,NO2,20,26,23
India,Punjab,Mandi Gobindgarh,"RIMT University, Mandi Gobindgarh - PPCB",10-01-2024 01:00:00,30.649961,76.331442,PM2.5,68,323,204
India,Punjab,Mandi Gobindgarh,"RIMT University, Mandi Gobindgarh - PPCB",10-01-2024 01:00:00,30.649961,76.331442,PM10,71,211,142
India,Punjab,Mandi Gobindgarh,"RIMT University, Mandi Gobindgarh - PPCB",10-01-2024 01:00:00,30.649961,76.331442,NO2,16,32,30
India,Punjab,Patiala,"Model Town, Patiala - PPCB",10-01-2024 01:00:00,30.349388,76.366642,NO2,19,30,24
India,Punjab,Patiala,"Model Town, Patiala - PPCB",10-01-2024 01:00:00,30.349388,76.366642,CO,6,92,77
India,Punjab,Rupnagar,"Ratanpura, Rupnagar - Ambuja Cements",10-01-2024 01:00:00,31.0325454,76.5623046,PM2.5,71,219,135
India,Rajasthan,Ajmer,"Civil Lines,  Ajmer - RSPCB",10-01-2024 01:00:00,26.470859,74.646594,CO,17,57,34
India,Rajasthan,Alwar,"Moti Doongri, Alwar - RSPCB",10-01-2024 01:00:00,27.554793,76.611536,PM10,47,131,81
India,Rajasthan,Banswara,"Rati Talai, Banswara - RSPCB",10-01-2024 01:00:00,23.555190,74.440010,NH3,3,3,3
India,Rajasthan,Banswara,"Rati Talai, Banswara - RSPCB",10-01-2024 01:00:00,23.555190,74.440010,CO,32,64,61
India,Rajasthan,Barmer,"Railway Colony, Barmer - RSPCB",10-01-2024 01:00:00,25.747299,71.393989,PM2.5,69,132,86
India,Rajasthan,Barmer,"Railway Colony, Barmer - RSPCB",10-01-2024 01:00:00,25.747299,71.393989,NO2,8,28,14
India,Rajasthan,Barmer,"Railway Colony, Barmer - RSPCB",10-01-2024 01:00:00,25.747299,71.393989,NH3,5,8,7
India,Rajasthan,Barmer,"Railway Colony, Barmer - RSPCB",10-01-2024 01:00:00,25.747299,71.393989,CO,23,67,41
India,Rajasthan,Bharatpur,"Krishna Nagar, Bharatpur - RSPCB",10-01-2024 01:00:00,27.215415,77.50873,SO2,NA,NA,NA
India,Rajasthan,Bhilwara,"Pratap Nagar, Bhilwara - RSPCB",10-01-2024 01:00:00,25.339605,74.618883,PM2.5,104,327,245
India,Rajasthan,Bhilwara,"Pratap Nagar, Bhilwara - RSPCB",10-01-2024 01:00:00,25.339605,74.618883,NO2,20,47,28
India,Rajasthan,Bhilwara,"Pratap Nagar, Bhilwara - RSPCB",10-01-2024 01:00:00,25.339605,74.618883,NH3,4,6,5
India,Rajasthan,Bhilwara,"Pratap Nagar, Bhilwara - RSPCB",10-01-2024 01:00:00,25.339605,74.618883,OZONE,26,67,41
India,Rajasthan,Bhiwadi,"RIICO Ind. Area III, Bhiwadi - RSPCB",10-01-2024 01:00:00,28.194909,76.862296,PM2.5,89,316,158
India,Rajasthan,Bhiwadi,"RIICO Ind. Area III, Bhiwadi - RSPCB",10-01-2024 01:00:00,28.194909,76.862296,NO2,25,45,32
India,Rajasthan,Bikaner,"MM Ground, Bikaner - RSPCB",10-01-2024 01:00:00,28.018792,73.292658,NH3,11,14,12
India,Rajasthan,Bundi,"New Colony, Bundi - RSPCB",10-01-2024 01:00:00,25.435774,75.644272,PM10,142,222,191
India,Rajasthan,Bundi,"New Colony, Bundi - RSPCB",10-01-2024 01:00:00,25.435774,75.644272,NO2,17,42,25
India,Rajasthan,Chittorgarh,"Shastri Nagar, Chittorgarh - RSPCB",10-01-2024 01:00:00,24.892047,74.623527,CO,26,54,39
India,Rajasthan,Churu,"Subash Chowk, Churu - RSPCB",10-01-2024 01:00:00,28.296139,74.961696,PM10,105,185,127
India,Rajasthan,Churu,"Subash Chowk, Churu - RSPCB",10-01-2024 01:00:00,28.296139,74.961696,NO2,20,77,29
India,Rajasthan,Dholpur,"Raja Ganj, Dholpur - RSPCB",10-01-2024 01:00:00,26.699557,77.898881,CO,32,103,76
India,Rajasthan,Dungarpur,"Bhoiwada, Dungarpur - RSPCB",10-01-2024 01:00:00,23.837789,73.714926,PM10,122,189,149
India,Rajasthan,Hanumangarh,"Housing Board, Hanumangarh - RSPCB",10-01-2024 01:00:00,29.610750,74.283608,PM10,94,279,177
India,Rajasthan,Hanumangarh,"Housing Board, Hanumangarh - RSPCB",10-01-2024 01:00:00,29.610750,74.283608,NH3,12,18,16
India,Rajasthan,Hanumangarh,"Housing Board, Hanumangarh - RSPCB",10-01-2024 01:00:00,29.610750,74.283608,SO2,NA,NA,NA
India,Rajasthan,Jaipur,"Adarsh Nagar, Jaipur - RSPCB",10-01-2024 01:00:00,26.902909,75.836858,NO2,49,92,65
India,Rajasthan,Jaipur,"Mansarovar Sector-12, Jaipur - RSPCB",10-01-2024 01:00:00,26.843698,75.766894,NH3,10,19,14
India,Rajasthan,Jaipur,"Mansarovar Sector-12, Jaipur - RSPCB",10-01-2024 01:00:00,26.843698,75.766894,OZONE,1,43,12
India,Rajasthan,Jaipur,"Police Commissionerate, Jaipur - RSPCB",10-01-2024 01:00:00,26.9164092,75.7994901,PM2.5,169,329,254
India,Rajasthan,Jaipur,"Police Commissionerate, Jaipur - RSPCB",10-01-2024 01:00:00,26.9164092,75.7994901,CO,45,70,61
India,Rajasthan,Jaipur,"RIICO Sitapura, Jaipur - RSPCB",10-01-2024 01:00:00,26.786682,75.827928,NH3,5,20,8
India,Rajasthan,Jaipur,"RIICO Sitapura, Jaipur - RSPCB",10-01-2024 01:00:00,26.786682,75.827928,CO,28,103,89
India,Rajasthan,Jaipur,"Shastri Nagar, Jaipur - RSPCB",10-01-2024 01:00:00,26.9502929,75.730943,NH3,9,25,15
India,Rajasthan,Jaipur,"Shastri Nagar, Jaipur - RSPCB",10-01-2024 01:00:00,26.9502929,75.730943,SO2,9,27,18
India,Rajasthan,Jaisalmer,"Sadar Bazar, Jaisalmer - RSPCB",10-01-2024 01:00:00,26.912329,70.909168,CO,6,74,52
India,Rajasthan,Jalore,"Mudtra Sili, Jalore - RSPCB",10-01-2024 01:00:00,25.344694,72.626208,NO2,21,108,41
India,Rajasthan,Jhalawar,"Rajlaxmi Nagar, Jhalawar - RSPCB",10-01-2024 01:00:00,24.588397,76.172782,NO2,11,27,20
India,Rajasthan,Jhunjhunu,"Indra Nagar, Jhunjhunu - RSPCB",10-01-2024 01:00:00,28.108988,75.386577,PM2.5,30,317,134
India,Rajasthan,Jhunjhunu,"Indra Nagar, Jhunjhunu - RSPCB",10-01-2024 01:00:00,28.108988,75.386577,NH3,8,11,10
India,Rajasthan,Jhunjhunu,"Indra Nagar, Jhunjhunu - RSPCB",10-01-2024 01:00:00,28.108988,75.386577,OZONE,2,61,17
India,Rajasthan,Jodhpur,"Collectorate, Jodhpur - RSPCB",10-01-2024 01:00:00,26.268249,73.0193853,NO2,21,23,22
India,Rajasthan,Jodhpur,"Jhalamand, Jodhpur - RSPCB",10-01-2024 01:00:00,26.215415,73.070156,NO2,15,63,24
India,Rajasthan,Jodhpur,"Jhalamand, Jodhpur - RSPCB",10-01-2024 01:00:00,26.215415,73.070156,SO2,3,5,4
India,Rajasthan,Jodhpur,"Jhalamand, Jodhpur - RSPCB",10-01-2024 01:00:00,26.215415,73.070156,OZONE,42,97,65
India,Rajasthan,Jodhpur,"Mandor, Jodhpur - RSPCB",10-01-2024 01:00:00,26.358805,73.047444,NH3,2,24,6
India,Rajasthan,Jodhpur,"Mandor, Jodhpur - RSPCB",10-01-2024 01:00:00,26.358805,73.047444,SO2,1,2,1
India,Rajasthan,Jodhpur,"Samrat Ashok Udhyan, Jodhpur - RSPCB",10-01-2024 01:00:00,26.253384,72.976571,CO,35,52,44
India,Rajasthan,Jodhpur,"Samrat Ashok Udhyan, Jodhpur - RSPCB",10-01-2024 01:00:00,26.253384,72.976571,OZONE,37,99,74
India,Rajasthan,Karauli,"Satyawati Vihar, Karauli - RSPCB",10-01-2024 01:00:00,26.506177,77.025989,CO,6,94,54
India,Rajasthan,Kota,"Dhanmandi, Kota - RSPCB",10-01-2024 01:00:00,25.164090,75.858137,CO,46,76,64
India,Rajasthan,Kota,"Nayapura, Kota - RSPCB",10-01-2024 01:00:00,25.196024,75.855668,NO2,37,68,47
India,Rajasthan,Kota,"Shrinath Puram, Kota - RSPCB",10-01-2024 01:00:00,25.14389,75.821256,NH3,6,10,8
India,Rajasthan,Nagaur,"Karni Colony, Nagaur - RSPCB",10-01-2024 01:00:00,27.213494,73.734444,OZONE,38,66,55
India,Rajasthan,Pratapgarh,"Pragati Nagar, Pratapgarh - RSPCB",10-01-2024 01:00:00,24.041198,74.780702,PM2.5,67,328,185
India,Rajasthan,Rajsamand,"Dhoinda, Rajsamand - RSPCB",10-01-2024 01:00:00,25.036360,73.883502,OZONE,4,56,42
India,Rajasthan,Sikar,"Radhakishan Pura, Sikar - RSPCB",10-01-2024 01:00:00,27.608912,75.153302,SO2,3,4,4
India,Rajasthan,Sirohi,"Vedhaynath Colony, Sirohi - RSPCB",10-01-2024 01:00:00,24.885261,72.857549,NH3,5,9,6
India,Rajasthan,Sirohi,"Vedhaynath Colony, Sirohi - RSPCB",10-01-2024 01:00:00,24.885261,72.857549,CO,31,49,35
India,Rajasthan,Sirohi,"Vedhaynath Colony, Sirohi - RSPCB",10-01-2024 01:00:00,24.885261,72.857549,OZONE,10,82,69
India,Rajasthan,Sri Ganganagar,"Old City, Sri Ganganagar - RSPCB",10-01-2024 01:00:00,29.931624,73.864511,NH3,4,14,8
India,Rajasthan,Sri Ganganagar,"Old City, Sri Ganganagar - RSPCB",10-01-2024 01:00:00,29.931624,73.864511,SO2,2,7,5
India,Rajasthan,Sri Ganganagar,"Old City, Sri Ganganagar - RSPCB",10-01-2024 01:00:00,29.931624,73.864511,OZONE,12,46,34
India,Rajasthan,Tonk,"Shastri Nagar, Tonk - RSPCB",10-01-2024 01:00:00,26.159933,75.780517,PM2.5,261,317,294
India,Rajasthan,Tonk,"Shastri Nagar, Tonk - RSPCB",10-01-2024 01:00:00,26.159933,75.780517,PM10,179,239,202
India,Rajasthan,Tonk,"Shastri Nagar, Tonk - RSPCB",10-01-2024 01:00:00,26.159933,75.780517,SO2,4,10,5
India,Rajasthan,Udaipur,"Ashok Nagar, Udaipur - RSPCB",10-01-2024 01:00:00,24.5886166,73.6321397,NH3,4,12,7
India,Rajasthan,Udaipur,"Ashok Nagar, Udaipur - RSPCB",10-01-2024 01:00:00,24.5886166,73.6321397,CO,42,101,73
India,Sikkim,Gangtok,"Zero Point GICI, Gangtok - SSPCB",10-01-2024 01:00:00,27.338530,88.614099,CO,12,28,22
India,TamilNadu,Chengalpattu,"Crescent University, Chengalpattu - TNPCB",10-01-2024 01:00:00,12.8777316,80.0834807,PM10,11,51,30
India,TamilNadu,Chengalpattu,"Crescent University, Chengalpattu - TNPCB",10-01-2024 01:00:00,12.8777316,80.0834807,CO,26,30,29
India,TamilNadu,Chennai,"Arumbakkam, Chennai - TNPCB",10-01-2024 01:00:00,13.0664,80.2112 ,SO2,1,7,3
India,TamilNadu,Chennai,"Gandhi Nagar_Ennore, Chennai - TNPCB",10-01-2024 01:00:00,13.218341,80.32027,PM10,58,71,65
India,TamilNadu,Chennai,"Gandhi Nagar_Ennore, Chennai - TNPCB",10-01-2024 01:00:00,13.218341,80.32027,SO2,25,27,26
India,TamilNadu,Chennai,"Kodungaiyur, Chennai - TNPCB",10-01-2024 01:00:00,13.1278,80.2642,NH3,3,5,4
India,TamilNadu,Chennai,"Manali, Chennai - CPCB",10-01-2024 01:00:00,13.164544,80.26285,NH3,4,7,5
India,TamilNadu,Chennai,"Perungudi, Chennai - TNPCB",10-01-2024 01:00:00,12.9533,80.2357,SO2,1,6,3
India,TamilNadu,Chennai,"Perungudi, Chennai - TNPCB",10-01-2024 01:00:00,12.9533,80.2357,OZONE,14,83,50
India,TamilNadu,Chennai,"Royapuram, Chennai - TNPCB",10-01-2024 01:00:00,13.1036,80.2909,NO2,10,27,18
India,TamilNadu,Chennai,"Velachery Res. Area, Chennai - CPCB",10-01-2024 01:00:00,13.0052189,80.2398125,NO2,9,37,16
India,TamilNadu,Coimbatore,"PSG College of Arts and Science, Coimbatore - TNPCB",10-01-2024 01:00:00,11.0328,77.0349,OZONE,3,5,4
India,TamilNadu,Cuddalore,"Kudikadu, Cuddalore - TNPCB",10-01-2024 01:00:00,11.6829898,79.7532099,NO2,8,19,10
India,TamilNadu,Cuddalore,"Kudikadu, Cuddalore - TNPCB",10-01-2024 01:00:00,11.6829898,79.7532099,NH3,4,5,4
India,TamilNadu,Gummidipoondi,"Anthoni Pillai Nagar, Gummidipoondi - TNPCB",10-01-2024 01:00:00,13.4127,80.1081,NO2,8,14,11
India,TamilNadu,Kanchipuram,"Kilambi, Kanchipuram - TNPCB",10-01-2024 01:00:00,12.864618,79.659968,SO2,4,15,11
India,TamilNadu,Ooty,"Bombay Castel, Ooty - TNPCB",10-01-2024 01:00:00,11.4068288,76.7138973,SO2,13,14,13
India,TamilNadu,Ooty,"Bombay Castel, Ooty - TNPCB",10-01-2024 01:00:00,11.4068288,76.7138973,OZONE,5,6,5
India,TamilNadu,Palkalaiperur,"Bharathidasan University, Palkalaiperur - TNPCB",10-01-2024 01:00:00,10.681158,78.741746,PM2.5,15,43,32
India,TamilNadu,Palkalaiperur,"Bharathidasan University, Palkalaiperur - TNPCB",10-01-2024 01:00:00,10.681158,78.741746,SO2,26,28,27
India,TamilNadu,Palkalaiperur,"Bharathidasan University, Palkalaiperur - TNPCB",10-01-2024 01:00:00,10.681158,78.741746,CO,2,22,12
India,TamilNadu,Ramanathapuram,"Chalai Bazaar, Ramanathapuram - TNPCB",10-01-2024 01:00:00,9.36399,78.831977,PM10,7,48,27
India,TamilNadu,Ramanathapuram,"Chalai Bazaar, Ramanathapuram - TNPCB",10-01-2024 01:00:00,9.36399,78.831977,NH3,1,1,1
India,TamilNadu,Ramanathapuram,"Chalai Bazaar, Ramanathapuram - TNPCB",10-01-2024 01:00:00,9.36399,78.831977,SO2,5,8,6
India,TamilNadu,Salem,"Sona College of Technology, Salem - TNPCB",10-01-2024 01:00:00,11.679111,78.125052,OZONE,2,4,3
India,TamilNadu,Thoothukudi,"Meelavittan, Thoothukudi - TNPCB",10-01-2024 01:00:00,8.816428 ,78.099039,SO2,5,17,11
India,TamilNadu,Thoothukudi,"Meelavittan, Thoothukudi - TNPCB",10-01-2024 01:00:00,8.816428 ,78.099039,OZONE,2,28,10
India,TamilNadu,Tiruchirappalli,"St Joseph College, Tiruchirappalli - TNPCB",10-01-2024 01:00:00,10.830158,78.691849,NO2,5,5,5
India,TamilNadu,Tiruchirappalli,"St Joseph College, Tiruchirappalli - TNPCB",10-01-2024 01:00:00,10.830158,78.691849,SO2,3,17,4
India,TamilNadu,Tirupur,"Kumaran College, Tirupur - TNPCB",10-01-2024 01:00:00,11.0973603,77.3228673,PM2.5,19,63,36
India,TamilNadu,Tirupur,"Kumaran College, Tirupur - TNPCB",10-01-2024 01:00:00,11.0973603,77.3228673,CO,20,114,81
India,TamilNadu,Virudhunagar,"Collectorate Office, Virudhunagar - TNPCB",10-01-2024 01:00:00,9.559382,77.948828,PM10,NA,NA,NA
India,TamilNadu,Virudhunagar,"Collectorate Office, Virudhunagar - TNPCB",10-01-2024 01:00:00,9.559382,77.948828,NO2,NA,NA,NA
India,TamilNadu,Virudhunagar,"Collectorate Office, Virudhunagar - TNPCB",10-01-2024 01:00:00,9.559382,77.948828,SO2,NA,NA,NA
India,Telangana,Hyderabad,"Central University, Hyderabad - TSPCB",10-01-2024 01:00:00,17.460103,78.334361,SO2,5,10,7
India,Telangana,Hyderabad,"ECIL Kapra, Hyderabad - TSPCB",10-01-2024 01:00:00,17.470431,78.566959,NO2,10,12,11
India,Telangana,Hyderabad,"ECIL Kapra, Hyderabad - TSPCB",10-01-2024 01:00:00,17.470431,78.566959,NH3,6,7,6
India,Telangana,Hyderabad,"ICRISAT Patancheru, Hyderabad - TSPCB",10-01-2024 01:00:00,17.518400,78.278777,PM10,75,122,95
India,Telangana,Hyderabad,"ICRISAT Patancheru, Hyderabad - TSPCB",10-01-2024 01:00:00,17.518400,78.278777,CO,52,98,87
India,Telangana,Hyderabad,"ICRISAT Patancheru, Hyderabad - TSPCB",10-01-2024 01:00:00,17.518400,78.278777,OZONE,41,127,89
India,Telangana,Hyderabad,"IITH Kandi, Hyderabad - TSPCB",10-01-2024 01:00:00,17.585705,78.126199,PM2.5,NA,NA,NA
India,Telangana,Hyderabad,"Kokapet, Hyderabad - TSPCB",10-01-2024 01:00:00,17.393559,78.339194,PM10,67,88,74
India,Telangana,Hyderabad,"Kokapet, Hyderabad - TSPCB",10-01-2024 01:00:00,17.393559,78.339194,NH3,1,3,2
India,Telangana,Hyderabad,"Nacharam_TSIIC IALA, Hyderabad - TSPCB",10-01-2024 01:00:00,17.429398,78.569354,PM2.5,NA,NA,NA
India,Telangana,Hyderabad,"Nacharam_TSIIC IALA, Hyderabad - TSPCB",10-01-2024 01:00:00,17.429398,78.569354,PM10,NA,NA,NA
India,Telangana,Hyderabad,"Nacharam_TSIIC IALA, Hyderabad - TSPCB",10-01-2024 01:00:00,17.429398,78.569354,SO2,NA,NA,NA
India,Telangana,Hyderabad,"Nacharam_TSIIC IALA, Hyderabad - TSPCB",10-01-2024 01:00:00,17.429398,78.569354,CO,18,22,18
India,Telangana,Hyderabad,"New Malakpet, Hyderabad - TSPCB",10-01-2024 01:00:00,17.37206,78.50864,PM10,54,67,59
India,Telangana,Hyderabad,"New Malakpet, Hyderabad - TSPCB",10-01-2024 01:00:00,17.37206,78.50864,CO,14,35,30
India,Telangana,Hyderabad,"Sanathnagar, Hyderabad - TSPCB",10-01-2024 01:00:00,17.4559458,78.4332152,PM2.5,100,261,173
India,Telangana,Hyderabad,"Sanathnagar, Hyderabad - TSPCB",10-01-2024 01:00:00,17.4559458,78.4332152,CO,47,54,51
India,Telangana,Hyderabad,"Somajiguda, Hyderabad - TSPCB",10-01-2024 01:00:00,17.417094,78.457437,NO2,NA,NA,NA
India,Telangana,Hyderabad,"Zoo Park, Hyderabad - TSPCB",10-01-2024 01:00:00,17.349694,78.451437,NH3,1,1,1
India,Tripura,Agartala,"Bardowali, Agartala - Tripura SPCB",10-01-2024 01:00:00,23.8175497,91.2726974,NH3,2,4,2
India,Tripura,Agartala,"Bardowali, Agartala - Tripura SPCB",10-01-2024 01:00:00,23.8175497,91.2726974,SO2,22,26,24
India,Uttar_Pradesh,Agra,"Rohta, Agra - UPPCB",10-01-2024 01:00:00,27.106972,78.000111,PM10,51,147,88
India,Uttar_Pradesh,Agra,"Rohta, Agra - UPPCB",10-01-2024 01:00:00,27.106972,78.000111,NO2,10,11,11
India,Uttar_Pradesh,Agra,"Sanjay Palace, Agra - UPPCB",10-01-2024 01:00:00,27.19865833,78.00598056,NO2,39,97,63
India,Uttar_Pradesh,Agra,"Sanjay Palace, Agra - UPPCB",10-01-2024 01:00:00,27.19865833,78.00598056,SO2,1,13,7
India,Uttar_Pradesh,Agra,"Sector-3B Avas Vikas Colony, Agra - UPPCB",10-01-2024 01:00:00,27.19412,77.96237,PM2.5,NA,NA,NA
India,Uttar_Pradesh,Agra,"Sector-3B Avas Vikas Colony, Agra - UPPCB",10-01-2024 01:00:00,27.19412,77.96237,PM10,47,152,91
India,Uttar_Pradesh,Agra,"Sector-3B Avas Vikas Colony, Agra - UPPCB",10-01-2024 01:00:00,27.19412,77.96237,SO2,9,15,10
India,Uttar_Pradesh,Agra,"Shahjahan Garden, Agra - UPPCB",10-01-2024 01:00:00,27.169338,78.03582,PM2.5,NA,NA,NA
India,Uttar_Pradesh,Agra,"Shahjahan Garden, Agra - UPPCB",10-01-2024 01:00:00,27.169338,78.03582,SO2,NA,NA,NA
India,Uttar_Pradesh,Agra,"Shastripuram, Agra - UPPCB",10-01-2024 01:00:00,27.19862,77.92066,PM2.5,45,229,96
India,Uttar_Pradesh,Agra,"Shastripuram, Agra - UPPCB",10-01-2024 01:00:00,27.19862,77.92066,CO,4,13,8
India,Uttar_Pradesh,Baghpat,"Sardar Patel Inter College, Baghpat - UPPCB",10-01-2024 01:00:00,28.964949,77.278761,NO2,30,75,45
India,Uttar_Pradesh,Baghpat,"Sardar Patel Inter College, Baghpat - UPPCB",10-01-2024 01:00:00,28.964949,77.278761,NH3,2,6,3
India,Uttar_Pradesh,Bareilly,"Civil Lines, Bareilly - UPPCB",10-01-2024 01:00:00,28.359581,79.414455,NO2,15,26,22
India,Uttar_Pradesh,Bareilly,"Civil Lines, Bareilly - UPPCB",10-01-2024 01:00:00,28.359581,79.414455,CO,17,48,41
India,Uttar_Pradesh,Bareilly,"Rajendra Nagar, Bareilly - UPPCB",10-01-2024 01:00:00,28.38910936,79.42963708,PM2.5,32,69,46
India,Uttar_Pradesh,Bareilly,"Rajendra Nagar, Bareilly - UPPCB",10-01-2024 01:00:00,28.38910936,79.42963708,PM10,38,93,60
India,Uttar_Pradesh,Bulandshahr,"Yamunapuram, Bulandshahr - UPPCB",10-01-2024 01:00:00,28.406963,77.849831,NO2,27,94,64
India,Uttar_Pradesh,Firozabad,"Nagla Bhau, Firozabad - UPPCB",10-01-2024 01:00:00,27.168897,78.376960,OZONE,5,74,19
India,Uttar_Pradesh,Firozabad,"Vibhab Nagar, Firozabad - UPPCB",10-01-2024 01:00:00,27.1594,78.3953,SO2,19,63,41
India,Uttar_Pradesh,Firozabad,"Vibhab Nagar, Firozabad - UPPCB",10-01-2024 01:00:00,27.1594,78.3953,OZONE,31,102,83
India,Uttar_Pradesh,Ghaziabad,"Indirapuram, Ghaziabad - UPPCB",10-01-2024 01:00:00,28.646233,77.358075,SO2,15,17,16
India,Uttar_Pradesh,Ghaziabad,"Loni, Ghaziabad - UPPCB",10-01-2024 01:00:00,28.757294,77.278792,PM2.5,98,296,177
India,Uttar_Pradesh,Ghaziabad,"Sanjay Nagar, Ghaziabad - UPPCB",10-01-2024 01:00:00,28.685382,77.453839,OZONE,6,32,22
India,Uttar_Pradesh,Ghaziabad,"Vasundhara, Ghaziabad - UPPCB",10-01-2024 01:00:00,28.6603346,77.3572563,NO2,32,67,50
India,Uttar_Pradesh,Ghaziabad,"Vasundhara, Ghaziabad - UPPCB",10-01-2024 01:00:00,28.6603346,77.3572563,SO2,NA,NA,NA
India,Uttar_Pradesh,Gorakhpur,"Madan Mohan Malaviya University of Technology, Gorakhpur - UPPCB",10-01-2024 01:00:00,26.730136,83.433859,NO2,2,2,2
India,Uttar_Pradesh,Jhansi,"Shivaji Nagar, Jhansi - UPPCB",10-01-2024 01:00:00,25.4547,78.6039,PM10,108,139,120
India,Uttar_Pradesh,Jhansi,"Shivaji Nagar, Jhansi - UPPCB",10-01-2024 01:00:00,25.4547,78.6039,NO2,11,22,15
India,Uttar_Pradesh,Kanpur,"FTI Kidwai Nagar, Kanpur - UPPCB",10-01-2024 01:00:00,26.428282,80.327067,PM10,45,154,91
India,Uttar_Pradesh,Kanpur,"FTI Kidwai Nagar, Kanpur - UPPCB",10-01-2024 01:00:00,26.428282,80.327067,NH3,4,5,4
India,Uttar_Pradesh,Kanpur,"FTI Kidwai Nagar, Kanpur - UPPCB",10-01-2024 01:00:00,26.428282,80.327067,OZONE,2,4,3
India,Uttar_Pradesh,Kanpur,"Nehru Nagar, Kanpur - UPPCB",10-01-2024 01:00:00,26.4703136,80.3229863,SO2,1,34,12
India,Uttar_Pradesh,Kanpur,"Nehru Nagar, Kanpur - UPPCB",10-01-2024 01:00:00,26.4703136,80.3229863,OZONE,9,43,14
India,Uttar_Pradesh,Khurja,"Kalindi Kunj, Khurja - UPPCB",10-01-2024 01:00:00,28.2348927,77.8683002,PM10,41,144,86
India,Uttar_Pradesh,Lucknow,"B R Ambedkar University, Lucknow - UPPCB",10-01-2024 01:00:00,26.766433,80.927299,NH3,5,7,7
India,Uttar_Pradesh,Lucknow,"B R Ambedkar University, Lucknow - UPPCB",10-01-2024 01:00:00,26.766433,80.927299,SO2,23,25,24
India,Uttar_Pradesh,Lucknow,"Gomti Nagar, Lucknow - UPPCB",10-01-2024 01:00:00,26.868120,81.005119,PM2.5,25,157,59
India,Uttar_Pradesh,Lucknow,"Gomti Nagar, Lucknow - UPPCB",10-01-2024 01:00:00,26.868120,81.005119,PM10,45,146,83
India,Uttar_Pradesh,Lucknow,"Gomti Nagar, Lucknow - UPPCB",10-01-2024 01:00:00,26.868120,81.005119,OZONE,42,56,49
India,Uttar_Pradesh,Lucknow,"Kendriya Vidyalaya, Lucknow - CPCB",10-01-2024 01:00:00,26.906111,80.948222,PM2.5,107,327,219
India,Uttar_Pradesh,Lucknow,"Kendriya Vidyalaya, Lucknow - CPCB",10-01-2024 01:00:00,26.906111,80.948222,PM10,102,163,128
India,Uttar_Pradesh,Lucknow,"Kendriya Vidyalaya, Lucknow - CPCB",10-01-2024 01:00:00,26.906111,80.948222,NH3,3,20,14
India,Uttar_Pradesh,Lucknow,"Kendriya Vidyalaya, Lucknow - CPCB",10-01-2024 01:00:00,26.906111,80.948222,OZONE,6,46,22
India,Uttar_Pradesh,Lucknow,"Lalbagh, Lucknow - CPCB",10-01-2024 01:00:00,26.8458805,80.9365541,NH3,12,14,13
India,Uttar_Pradesh,Meerut,"Ganga Nagar, Meerut - UPPCB",10-01-2024 01:00:00,28.999264,77.7590354,PM10,106,286,139
India,Uttar_Pradesh,Meerut,"Jai Bhim Nagar, Meerut - UPPCB",10-01-2024 01:00:00,28.9535882,77.7622941,PM2.5,82,301,134
India,Uttar_Pradesh,Meerut,"Jai Bhim Nagar, Meerut - UPPCB",10-01-2024 01:00:00,28.9535882,77.7622941,PM10,78,177,101
India,Uttar_Pradesh,Meerut,"Jai Bhim Nagar, Meerut - UPPCB",10-01-2024 01:00:00,28.9535882,77.7622941,NO2,21,45,29
India,Uttar_Pradesh,Meerut,"Pallavpuram Phase 2, Meerut - UPPCB",10-01-2024 01:00:00,29.063510,77.709723,NO2,17,25,20
India,Uttar_Pradesh,Moradabad,"Buddhi Vihar, Moradabad - UPPCB",10-01-2024 01:00:00,28.83526,78.74460,SO2,11,18,13
India,Uttar_Pradesh,Moradabad,"Buddhi Vihar, Moradabad - UPPCB",10-01-2024 01:00:00,28.83526,78.74460,OZONE,12,16,13
India,Uttar_Pradesh,Moradabad,"Eco Herbal Park, Moradabad - UPPCB",10-01-2024 01:00:00,28.840739,78.697531,PM10,39,124,66
India,Uttar_Pradesh,Moradabad,"Eco Herbal Park, Moradabad - UPPCB",10-01-2024 01:00:00,28.840739,78.697531,SO2,2,15,8
India,Uttar_Pradesh,Moradabad,"Kashiram Nagar, Moradabad - UPPCB",10-01-2024 01:00:00,28.849399,78.742362,PM10,47,111,67
India,Uttar_Pradesh,Moradabad,"Transport Nagar, Moradabad - UPPCB",10-01-2024 01:00:00,28.802625,78.753728,PM10,27,129,64
India,Uttar_Pradesh,Muzaffarnagar,"New Mandi, Muzaffarnagar - UPPCB",10-01-2024 01:00:00,29.4723508,77.7194031,SO2,13,21,18
India,Uttar_Pradesh,Noida,"Sector - 125, Noida - UPPCB",10-01-2024 01:00:00,28.5447608,77.3231257,SO2,NA,NA,NA
India,Uttar_Pradesh,Noida,"Sector - 125, Noida - UPPCB",10-01-2024 01:00:00,28.5447608,77.3231257,CO,22,52,30
India,Uttar_Pradesh,Noida,"Sector - 62, Noida - IMD",10-01-2024 01:00:00,28.6245479,77.3577104,NO2,27,41,34
India,Uttar_Pradesh,Noida,"Sector-1, Noida - UPPCB",10-01-2024 01:00:00,28.5898,77.3101,PM2.5,148,339,265
India,Uttar_Pradesh,Noida,"Sector-1, Noida - UPPCB",10-01-2024 01:00:00,28.5898,77.3101,CO,2,76,35
India,Uttar_Pradesh,Noida,"Sector-116, Noida - UPPCB",10-01-2024 01:00:00,28.569230,77.393848,PM10,108,258,168
India,Uttar_Pradesh,Noida,"Sector-116, Noida - UPPCB",10-01-2024 01:00:00,28.569230,77.393848,NH3,6,9,7
India,Uttar_Pradesh,Noida,"Sector-116, Noida - UPPCB",10-01-2024 01:00:00,28.569230,77.393848,SO2,8,17,12
India,Uttar_Pradesh,Prayagraj,"Jhunsi, Prayagraj - UPPCB",10-01-2024 01:00:00,25.425602,81.917152,NH3,5,5,5
India,Uttar_Pradesh,Prayagraj,"Jhunsi, Prayagraj - UPPCB",10-01-2024 01:00:00,25.425602,81.917152,OZONE,1,11,3
India,Uttar_Pradesh,Prayagraj,"Motilal Nehru NIT, Prayagraj - UPPCB",10-01-2024 01:00:00,25.494,81.863,SO2,36,38,37
India,Uttar_Pradesh,Prayagraj,"Nagar Nigam, Prayagraj - UPPCB",10-01-2024 01:00:00,25.44919916 ,81.82735986 ,NO2,12,12,12
India,Uttar_Pradesh,Varanasi,"Ardhali Bazar, Varanasi - UPPCB",10-01-2024 01:00:00,25.3505986,82.9083074,PM10,43,90,66
India,Uttar_Pradesh,Varanasi,"Bhelupur, Varanasi - UPPCB",10-01-2024 01:00:00,25.301778,82.996789,CO,3,88,35
India,Uttar_Pradesh,Varanasi,"Bhelupur, Varanasi - UPPCB",10-01-2024 01:00:00,25.301778,82.996789,OZONE,4,55,16
India,Uttar_Pradesh,Varanasi,"IESD Banaras Hindu University, Varanasi - UPPCB",10-01-2024 01:00:00,25.262326,82.995408,PM10,31,65,48
India,Uttar_Pradesh,Varanasi,"Maldahiya, Varanasi - UPPCB",10-01-2024 01:00:00,25.32393,82.99687,PM10,42,85,60
India,Uttar_Pradesh,Varanasi,"Maldahiya, Varanasi - UPPCB",10-01-2024 01:00:00,25.32393,82.99687,CO,38,82,62
India,Uttar_Pradesh,Varanasi,"Maldahiya, Varanasi - UPPCB",10-01-2024 01:00:00,25.32393,82.99687,OZONE,4,20,5
India,Uttar_Pradesh,Vrindavan,"Omex Eternity, Vrindavan - UPPCB",10-01-2024 01:00:00,27.5714090,77.6557570,PM2.5,35,140,60
India,Uttarakhand,Dehradun,"Doon University, Dehradun - UKPCB",10-01-2024 01:00:00,30.269444,78.044167,SO2,1,1,1
India,Uttarakhand,Kashipur,"Govt. Girls Inter College, Kashipur - UKPCB",10-01-2024 01:00:00,29.2124114,78.9611753,PM2.5,65,249,130
India,Uttarakhand,Kashipur,"Govt. Girls Inter College, Kashipur - UKPCB",10-01-2024 01:00:00,29.2124114,78.9611753,NH3,8,10,9
India,Uttarakhand,Rishikesh,"Shivaji Nagar, Rishikesh - UKPCB",10-01-2024 01:00:00,30.075911,78.2859547,SO2,5,6,5
India,West_Bengal,Asansol,"Asansol Court Area, Asansol - WBPCB",10-01-2024 01:00:00,23.685297,86.945968,NH3,6,14,8
India,West_Bengal,Barrackpore,"SVSPA Campus, Barrackpore - WBPCB",10-01-2024 01:00:00,22.7605581,88.3617589,PM2.5,132,316,229
India,West_Bengal,Barrackpore,"SVSPA Campus, Barrackpore - WBPCB",10-01-2024 01:00:00,22.7605581,88.3617589,CO,49,104,87
India,West_Bengal,Durgapur,"Sidhu Kanhu Indoor Stadium, Durgapur - WBPCB",10-01-2024 01:00:00,23.5404352,87.2892225,PM2.5,86,212,143
India,West_Bengal,Haldia,"Priyambada Housing Estate, Haldia - WBPCB",10-01-2024 01:00:00,22.06047,88.109737,PM2.5,70,219,129
India,West_Bengal,Haldia,"Priyambada Housing Estate, Haldia - WBPCB",10-01-2024 01:00:00,22.06047,88.109737,CO,26,93,65
India,West_Bengal,Howrah,"Belur Math, Howrah - WBPCB",10-01-2024 01:00:00,22.629801,88.352017,CO,16,97,51
India,West_Bengal,Howrah,"Ghusuri, Howrah - WBPCB",10-01-2024 01:00:00,22.611968,88.347422,PM2.5,255,413,321
India,West_Bengal,Howrah,"Ghusuri, Howrah - WBPCB",10-01-2024 01:00:00,22.611968,88.347422,PM10,148,500,256
India,West_Bengal,Howrah,"Ghusuri, Howrah - WBPCB",10-01-2024 01:00:00,22.611968,88.347422,CO,8,136,96
India,West_Bengal,Kolkata,"Ballygunge, Kolkata - WBPCB",10-01-2024 01:00:00,22.5367507,88.3638022,PM10,129,200,156
India,West_Bengal,Kolkata,"Ballygunge, Kolkata - WBPCB",10-01-2024 01:00:00,22.5367507,88.3638022,OZONE,5,98,19
India,West_Bengal,Kolkata,"Bidhannagar, Kolkata - WBPCB",10-01-2024 01:00:00,22.58157048,88.41002457,NH3,9,14,11
India,West_Bengal,Kolkata,"Bidhannagar, Kolkata - WBPCB",10-01-2024 01:00:00,22.58157048,88.41002457,CO,38,88,68
India,West_Bengal,Kolkata,"Bidhannagar, Kolkata - WBPCB",10-01-2024 01:00:00,22.58157048,88.41002457,OZONE,2,88,7
India,West_Bengal,Kolkata,"Fort William, Kolkata - WBPCB",10-01-2024 01:00:00,22.556640,88.342674,SO2,NA,NA,NA
India,West_Bengal,Kolkata,"Fort William, Kolkata - WBPCB",10-01-2024 01:00:00,22.556640,88.342674,OZONE,NA,NA,NA
India,West_Bengal,Kolkata,"Jadavpur, Kolkata - WBPCB",10-01-2024 01:00:00,22.49929,88.36917,OZONE,6,56,17
India,West_Bengal,Kolkata,"Rabindra Bharati University, Kolkata - WBPCB",10-01-2024 01:00:00,22.627847,88.380669,SO2,3,24,10
India,West_Bengal,Kolkata,"Rabindra Sarobar, Kolkata - WBPCB",10-01-2024 01:00:00,22.51106,88.35142,OZONE,3,91,17
India,West_Bengal,Kolkata,"Victoria, Kolkata - WBPCB",10-01-2024 01:00:00,22.5448082,88.3403691,PM2.5,182,326,251
India,West_Bengal,Kolkata,"Victoria, Kolkata - WBPCB",10-01-2024 01:00:00,22.5448082,88.3403691,NH3,1,4,2
India,West_Bengal,Kolkata,"Victoria, Kolkata - WBPCB",10-01-2024 01:00:00,22.5448082,88.3403691,SO2,18,45,28
India,West_Bengal,Kolkata,"Victoria, Kolkata - WBPCB",10-01-2024 01:00:00,22.5448082,88.3403691,CO,4,119,70
India,West_Bengal,Siliguri,"Ward-32 Bapupara, Siliguri - WBPCB",10-01-2024 01:00:00,26.6879226,88.4152495,PM10,75,260,129
India,West_Bengal,Siliguri,"Ward-32 Bapupara, Siliguri - WBPCB",10-01-2024 01:00:00,26.6879226,88.4152495,CO,32,98,50
India,Andhra_Pradesh,Amaravati,"Secretariat, Amaravati - APPCB",10-01-2024 01:00:00,16.5150833,80.5181667,NH3,3,4,4
India,Andhra_Pradesh,Anantapur,"Gulzarpet, Anantapur - APPCB",10-01-2024 01:00:00,14.675886,77.593027,PM10,50,104,76
India,Andhra_Pradesh,Chittoor,"Gangineni Cheruvu, Chittoor - APPCB",10-01-2024 01:00:00,13.204880,79.097889,PM2.5,46,290,70
India,Andhra_Pradesh,Chittoor,"Gangineni Cheruvu, Chittoor - APPCB",10-01-2024 01:00:00,13.204880,79.097889,NO2,3,13,8
India,Andhra_Pradesh,Chittoor,"Gangineni Cheruvu, Chittoor - APPCB",10-01-2024 01:00:00,13.204880,79.097889,SO2,5,12,7
India,Andhra_Pradesh,Kadapa,"Yerramukkapalli, Kadapa - APPCB",10-01-2024 01:00:00,14.465052,78.824187,PM2.5,11,96,56
India,Andhra_Pradesh,Kadapa,"Yerramukkapalli, Kadapa - APPCB",10-01-2024 01:00:00,14.465052,78.824187,NO2,9,18,11
India,Andhra_Pradesh,Kadapa,"Yerramukkapalli, Kadapa - APPCB",10-01-2024 01:00:00,14.465052,78.824187,NH3,NA,NA,NA
India,Andhra_Pradesh,Kadapa,"Yerramukkapalli, Kadapa - APPCB",10-01-2024 01:00:00,14.465052,78.824187,OZONE,8,50,44
India,Andhra_Pradesh,Rajamahendravaram,"Anand Kala Kshetram, Rajamahendravaram - APPCB",10-01-2024 01:00:00,16.9872867,81.7363176,NO2,11,50,30
India,Andhra_Pradesh,Rajamahendravaram,"Anand Kala Kshetram, Rajamahendravaram - APPCB",10-01-2024 01:00:00,16.9872867,81.7363176,SO2,13,37,25
India,Andhra_Pradesh,Rajamahendravaram,"Anand Kala Kshetram, Rajamahendravaram - APPCB",10-01-2024 01:00:00,16.9872867,81.7363176,OZONE,17,33,21
India,Andhra_Pradesh,Tirupati,"Tirumala, Tirupati - APPCB",10-01-2024 01:00:00,13.67,79.35,PM2.5,51,94,74
India,Andhra_Pradesh,Tirupati,"Tirumala, Tirupati - APPCB",10-01-2024 01:00:00,13.67,79.35,CO,38,54,49
India,Andhra_Pradesh,Tirupati,"Vaikuntapuram, Tirupati - APPCB",10-01-2024 01:00:00,13.615387,79.409230,NO2,16,28,20
India,Andhra_Pradesh,Tirupati,"Vaikuntapuram, Tirupati - APPCB",10-01-2024 01:00:00,13.615387,79.409230,SO2,4,5,5
India,Andhra_Pradesh,Tirupati,"Vaikuntapuram, Tirupati - APPCB",10-01-2024 01:00:00,13.615387,79.409230,CO,14,14,14
India,Andhra_Pradesh,Tirupati,"Vaikuntapuram, Tirupati - APPCB",10-01-2024 01:00:00,13.615387,79.409230,OZONE,8,36,26
India,Andhra_Pradesh,Vijayawada,"HB Colony, Vijayawada - APPCB",10-01-2024 01:00:00,16.536107,80.594233,NO2,6,32,16
India,Andhra_Pradesh,Vijayawada,"HB Colony, Vijayawada - APPCB",10-01-2024 01:00:00,16.536107,80.594233,SO2,5,31,11
India,Andhra_Pradesh,Vijayawada,"HB Colony, Vijayawada - APPCB",10-01-2024 01:00:00,16.536107,80.594233,OZONE,21,79,44
India,Andhra_Pradesh,Vijayawada,"Rajiv Gandhi Park, Vijayawada - APPCB",10-01-2024 01:00:00,16.509717,80.612222,PM2.5,79,103,92
India,Andhra_Pradesh,Vijayawada,"Rajiv Gandhi Park, Vijayawada - APPCB",10-01-2024 01:00:00,16.509717,80.612222,NO2,3,90,34
India,Andhra_Pradesh,Vijayawada,"Rajiv Gandhi Park, Vijayawada - APPCB",10-01-2024 01:00:00,16.509717,80.612222,CO,36,42,38
India,Andhra_Pradesh,Vijayawada,"Rajiv Gandhi Park, Vijayawada - APPCB",10-01-2024 01:00:00,16.509717,80.612222,OZONE,5,74,28
India,Andhra_Pradesh,Visakhapatnam,"GVM Corporation, Visakhapatnam - APPCB",10-01-2024 01:00:00,17.72,83.3,NH3,1,4,3
India,Assam,Byrnihat,"Central Academy for SFS, Byrnihat - PCBA",10-01-2024 01:00:00,26.071318,91.87488,NH3,2,3,3
India,Assam,Guwahati,"IITG, Guwahati - PCBA",10-01-2024 01:00:00,26.2028636,91.70046436,OZONE,NA,NA,NA
India,Assam,Guwahati,"LGBI Airport, Guwahati - PCBA",10-01-2024 01:00:00,26.10887,91.589544,PM2.5,163,391,297
India,Assam,Guwahati,"LGBI Airport, Guwahati - PCBA",10-01-2024 01:00:00,26.10887,91.589544,NO2,10,70,29
India,Assam,Guwahati,"Pan Bazaar, Guwahati - PCBA",10-01-2024 01:00:00,26.187500,91.744194,NO2,1,10,5
India,Assam,Guwahati,"Pan Bazaar, Guwahati - PCBA",10-01-2024 01:00:00,26.187500,91.744194,SO2,59,79,68
India,Assam,Guwahati,"Railway Colony, Guwahati - PCBA",10-01-2024 01:00:00,26.181742,91.78063,PM2.5,273,500,353
India,Assam,Guwahati,"Railway Colony, Guwahati - PCBA",10-01-2024 01:00:00,26.181742,91.78063,SO2,24,58,33
India,Assam,Guwahati,"Railway Colony, Guwahati - PCBA",10-01-2024 01:00:00,26.181742,91.78063,CO,49,130,111
India,Assam,Guwahati,"Railway Colony, Guwahati - PCBA",10-01-2024 01:00:00,26.181742,91.78063,OZONE,11,38,25
India,Assam,Nagaon,"Christianpatty, Nagaon - PCBA",10-01-2024 01:00:00,26.349082,92.68449,OZONE,5,53,12
India,Assam,Nalbari,"Bata Chowk, Nalbari - PCBA",10-01-2024 01:00:00,26.446912,91.439057,PM10,131,431,236
India,Assam,Sivasagar,"Girls College, Sivasagar - PCBA",10-01-2024 01:00:00,26.987634,94.636574,NH3,3,15,8
India,Bihar,Araria,"Kharahiya Basti, Araria - BSPCB",10-01-2024 01:00:00,26.146529,87.454184,SO2,13,17,16
India,Bihar,Araria,"Kharahiya Basti, Araria - BSPCB",10-01-2024 01:00:00,26.146529,87.454184,CO,14,133,105
India,Bihar,Araria,"Kharahiya Basti, Araria - BSPCB",10-01-2024 01:00:00,26.146529,87.454184,OZONE,10,44,14
India,Bihar,Arrah,"New DM Office, Arrah - BSPCB",10-01-2024 01:00:00,25.5626095,84.663264,SO2,14,22,19
India,Bihar,Arrah,"New DM Office, Arrah - BSPCB",10-01-2024 01:00:00,25.5626095,84.663264,CO,2,109,34
India,Bihar,Arrah,"New DM Office, Arrah - BSPCB",10-01-2024 01:00:00,25.5626095,84.663264,OZONE,12,35,13
India,Bihar,Aurangabad,"Gurdeo Nagar, Aurangabad - BSPCB",10-01-2024 01:00:00,24.75746,84.366208,CO,12,86,18
India,Bihar,Aurangabad,"Gurdeo Nagar, Aurangabad - BSPCB",10-01-2024 01:00:00,24.75746,84.366208,OZONE,1,75,26
India,Bihar,Bettiah,"Kamalnath Nagar, Bettiah - BSPCB",10-01-2024 01:00:00,26.80365,84.51954,PM10,NA,NA,NA
India,Bihar,Bettiah,"Kamalnath Nagar, Bettiah - BSPCB",10-01-2024 01:00:00,26.80365,84.51954,OZONE,27,37,33
India,Bihar,Bhagalpur,"DM Office_Kachari Chowk, Bhagalpur - BSPCB",10-01-2024 01:00:00,25.251013,86.989001,PM2.5,207,358,330
India,Bihar,Bhagalpur,"DM Office_Kachari Chowk, Bhagalpur - BSPCB",10-01-2024 01:00:00,25.251013,86.989001,NH3,3,7,5
India,Bihar,Bhagalpur,"DM Office_Kachari Chowk, Bhagalpur - BSPCB",10-01-2024 01:00:00,25.251013,86.989001,SO2,17,31,26
India,Bihar,Chhapra,"Darshan Nagar, Chhapra - BSPCB",10-01-2024 01:00:00,25.7808257,84.7446768,SO2,13,40,29
India,Bihar,Chhapra,"Darshan Nagar, Chhapra - BSPCB",10-01-2024 01:00:00,25.7808257,84.7446768,OZONE,1,3,1
India,Bihar,Gaya,"Collectorate, Gaya - BSPCB",10-01-2024 01:00:00,24.7955,84.9994,OZONE,43,74,63
India,Bihar,Gaya,"Kareemganj, Gaya - BSPCB",10-01-2024 01:00:00,24.792403,84.992416,PM2.5,28,130,62
India,Bihar,Gaya,"Kareemganj, Gaya - BSPCB",10-01-2024 01:00:00,24.792403,84.992416,PM10,99,394,168
India,Bihar,Gaya,"Kareemganj, Gaya - BSPCB",10-01-2024 01:00:00,24.792403,84.992416,CO,7,106,44
India,Bihar,Hajipur,"Industrial Area, Hajipur - BSPCB",10-01-2024 01:00:00,25.697189,85.245900,CO,46,99,74
India,Bihar,Kishanganj,"SDM Office_Khagra, Kishanganj - BSPCB",10-01-2024 01:00:00,26.0881305,87.93840336,PM2.5,5,250,56
India,Bihar,Kishanganj,"SDM Office_Khagra, Kishanganj - BSPCB",10-01-2024 01:00:00,26.0881305,87.93840336,NO2,28,37,31
India,Bihar,Kishanganj,"SDM Office_Khagra, Kishanganj - BSPCB",10-01-2024 01:00:00,26.0881305,87.93840336,OZONE,18,44,27
India,Bihar,Manguraha,"Forest Rest House, Manguraha - BSPCB",10-01-2024 01:00:00,27.308328,84.531742,NO2,26,53,41
India,Bihar,Motihari,"Gandak Colony, Motihari - BSPCB",10-01-2024 01:00:00,26.63086,84.90051,PM2.5,73,321,155
India,Bihar,Motihari,"Gandak Colony, Motihari - BSPCB",10-01-2024 01:00:00,26.63086,84.90051,CO,47,96,77
India,Bihar,Motihari,"Gandak Colony, Motihari - BSPCB",10-01-2024 01:00:00,26.63086,84.90051,OZONE,27,91,53
India,Bihar,Muzaffarpur,"Buddha Colony, Muzaffarpur - BSPCB",10-01-2024 01:00:00,26.11442,85.39813,NO2,7,17,11
India,Bihar,Muzaffarpur,"Buddha Colony, Muzaffarpur - BSPCB",10-01-2024 01:00:00,26.11442,85.39813,SO2,6,7,7
India,Bihar,Muzaffarpur,"MIT-Daudpur Kothi, Muzaffarpur - BSPCB",10-01-2024 01:00:00,26.1403345,85.3650192,OZONE,3,70,11
India,Bihar,Muzaffarpur,"Muzaffarpur Collectorate, Muzaffarpur - BSPCB",10-01-2024 01:00:00,26.1209,85.3647,SO2,7,37,11
India,Bihar,Muzaffarpur,"Muzaffarpur Collectorate, Muzaffarpur - BSPCB",10-01-2024 01:00:00,26.1209,85.3647,CO,28,89,58
India,Bihar,Patna,"DRM Office Danapur, Patna - BSPCB",10-01-2024 01:00:00,25.586562,85.043586,OZONE,1,62,7
India,Bihar,Patna,"Govt. High School Shikarpur, Patna - BSPCB",10-01-2024 01:00:00,25.592539,85.227158,OZONE,4,46,16
India,Bihar,Patna,"IGSC Planetarium Complex, Patna - BSPCB",10-01-2024 01:00:00,25.610369,85.132568,OZONE,10,16,12
India,Bihar,Patna,"Muradpur, Patna - BSPCB",10-01-2024 01:00:00,25.619651,85.147382,OZONE,8,83,22
India,Bihar,Rajgir,"Dangi Tola, Rajgir - BSPCB",10-01-2024 01:00:00,25.03280,85.41948,NO2,4,29,10
India,Bihar,Samastipur,"DM Office_Kasipur, Samastipur - BSPCB",10-01-2024 01:00:00,25.859655,85.77944,PM10,42,121,81
India,Bihar,Siwan,"Chitragupta Nagar, Siwan - BSPCB",10-01-2024 01:00:00,26.2271665,84.3570427,PM10,NA,NA,NA
India,Chandigarh,Chandigarh,"Sector 22, Chandigarh - CPCC",10-01-2024 01:00:00,30.735567,76.775714,NO2,NA,NA,NA
India,Chandigarh,Chandigarh,"Sector-25, Chandigarh - CPCC",10-01-2024 01:00:00,30.751462,76.762879,SO2,7,10,9
India,Chandigarh,Chandigarh,"Sector-53, Chandigarh - CPCC",10-01-2024 01:00:00,30.719859,76.738637,NO2,11,13,12
India,Chandigarh,Chandigarh,"Sector-53, Chandigarh - CPCC",10-01-2024 01:00:00,30.719859,76.738637,NH3,5,6,6
India,Chhattisgarh,Bhilai,"Civic Center, Bhilai - Bhilai Steel Plant",10-01-2024 01:00:00,21.185571,81.343175,NO2,NA,NA,NA
India,Chhattisgarh,Bhilai,"Civic Center, Bhilai - Bhilai Steel Plant",10-01-2024 01:00:00,21.185571,81.343175,SO2,NA,NA,NA
India,Chhattisgarh,Bhilai,"Hathkhoj, Bhilai - CECB",10-01-2024 01:00:00,21.224231,81.408350,PM10,103,198,145
India,Chhattisgarh,Chhal,"Nawapara SECL Colony, Chhal - CECB",10-01-2024 01:00:00,22.118125,83.140608,PM2.5,78,265,144
India,Chhattisgarh,Korba,"Rampur, Korba - CECB",10-01-2024 01:00:00,22.368195,82.746431,PM10,67,153,101
India,Chhattisgarh,Korba,"Rampur, Korba - CECB",10-01-2024 01:00:00,22.368195,82.746431,SO2,8,46,17
India,Chhattisgarh,Korba,"Urja Nagar, Korba - CECB",10-01-2024 01:00:00,22.348441,82.549611,PM2.5,27,88,50
India,Chhattisgarh,Kunjemura,"OP Jindal School, Kunjemura - CECB",10-01-2024 01:00:00,22.126650,83.483212,NH3,1,5,2
India,Chhattisgarh,Kunjemura,"OP Jindal School, Kunjemura - CECB",10-01-2024 01:00:00,22.126650,83.483212,SO2,2,94,25
India,Chhattisgarh,Kunjemura,"OP Jindal School, Kunjemura - CECB",10-01-2024 01:00:00,22.126650,83.483212,CO,50,100,62
India,Chhattisgarh,Milupara,"Govt. Higher Secondary School, Milupara - CECB",10-01-2024 01:00:00,22.1910172,83.5197009,PM2.5,75,144,97
India,Chhattisgarh,Milupara,"Govt. Higher Secondary School, Milupara - CECB",10-01-2024 01:00:00,22.1910172,83.5197009,CO,39,86,69
India,Chhattisgarh,Raipur,"AIIMS, Raipur - CECB",10-01-2024 01:00:00,21.258815,81.578979,PM2.5,63,172,117
India,Chhattisgarh,Raipur,"AIIMS, Raipur - CECB",10-01-2024 01:00:00,21.258815,81.578979,NO2,49,73,61
India,Chhattisgarh,Raipur,"AIIMS, Raipur - CECB",10-01-2024 01:00:00,21.258815,81.578979,OZONE,1,9,2
India,Chhattisgarh,Raipur,"Bhatagaon New ISBT, Raipur - CECB",10-01-2024 01:00:00,21.219665,81.630094,PM10,67,192,114
India,Chhattisgarh,Raipur,"Bhatagaon New ISBT, Raipur - CECB",10-01-2024 01:00:00,21.219665,81.630094,SO2,NA,NA,NA
India,Chhattisgarh,Raipur,"Bhatagaon New ISBT, Raipur - CECB",10-01-2024 01:00:00,21.219665,81.630094,CO,36,127,79
India,Chhattisgarh,Raipur,"Bhatagaon New ISBT, Raipur - CECB",10-01-2024 01:00:00,21.219665,81.630094,OZONE,3,5,3
India,Chhattisgarh,Raipur,"Krishak Nagar, Raipur - CECB",10-01-2024 01:00:00,21.237755,81.705301,PM2.5,63,105,85
India,Delhi,Delhi,"Alipur, Delhi - DPCC",10-01-2024 01:00:00,28.815329,77.153010,OZONE,7,41,29
India,Delhi,Delhi,"Anand Vihar, Delhi - DPCC",10-01-2024 01:00:00,28.647622,77.3158090,PM2.5,298,407,347
India,Delhi,Delhi,"Ashok Vihar, Delhi - DPCC",10-01-2024 01:00:00,28.695381,77.181665,NH3,9,11,10
India,Delhi,Delhi,"Bawana, Delhi - DPCC",10-01-2024 01:00:00,28.776200,77.051074,PM2.5,150,312,279
India,Delhi,Delhi,"Burari Crossing, Delhi - IMD",10-01-2024 01:00:00,28.7256504,77.2011573,PM10,130,347,191
India,Delhi,Delhi,"Burari Crossing, Delhi - IMD",10-01-2024 01:00:00,28.7256504,77.2011573,OZONE,22,37,30
India,Delhi,Delhi,"CRRI Mathura Road, Delhi - IMD",10-01-2024 01:00:00,28.5512005,77.2735737,NO2,22,26,25
India,Delhi,Delhi,"DTU, Delhi - CPCB",10-01-2024 01:00:00,28.7500499,77.1112615,NH3,11,14,12
India,Delhi,Delhi,"Dwarka-Sector 8, Delhi - DPCC ",10-01-2024 01:00:00,28.5710274,77.0719006,PM2.5,272,390,316
India,Delhi,Delhi,"Dwarka-Sector 8, Delhi - DPCC ",10-01-2024 01:00:00,28.5710274,77.0719006,NO2,22,68,35
India,Delhi,Delhi,"Dwarka-Sector 8, Delhi - DPCC ",10-01-2024 01:00:00,28.5710274,77.0719006,NH3,11,14,12
India,Delhi,Delhi,"Dwarka-Sector 8, Delhi - DPCC ",10-01-2024 01:00:00,28.5710274,77.0719006,SO2,4,8,6
India,Delhi,Delhi,"IGI Airport (T3), Delhi - IMD",10-01-2024 01:00:00,28.5627763,77.1180053,PM10,106,402,165
India,Delhi,Delhi,"IHBAS, Dilshad Garden, Delhi - CPCB",10-01-2024 01:00:00,28.6811736,77.3025234,CO,8,73,20
India,Delhi,Delhi,"ITO, Delhi - CPCB",10-01-2024 01:00:00,28.628624,77.241060,PM10,96,180,134
India,Delhi,Delhi,"Jawaharlal Nehru Stadium, Delhi - DPCC",10-01-2024 01:00:00,28.580280,77.233829,PM2.5,224,359,291
India,Delhi,Delhi,"Jawaharlal Nehru Stadium, Delhi - DPCC",10-01-2024 01:00:00,28.580280,77.233829,SO2,12,25,18
India,Delhi,Delhi,"Jawaharlal Nehru Stadium, Delhi - DPCC",10-01-2024 01:00:00,28.580280,77.233829,CO,40,66,48
India,Delhi,Delhi,"Lodhi Road, Delhi - IMD",10-01-2024 01:00:00,28.5918245,77.2273074,CO,62,94,65
India,Delhi,Delhi,"Major Dhyan Chand National Stadium, Delhi - DPCC",10-01-2024 01:00:00,28.611281,77.237738,NH3,10,12,11
India,Delhi,Delhi,"Mandir Marg, Delhi - DPCC",10-01-2024 01:00:00,28.636429,77.201067,PM2.5,252,358,303
India,Delhi,Delhi,"NSIT Dwarka, Delhi - CPCB",10-01-2024 01:00:00,28.60909,77.0325413,NH3,7,8,8
India,Delhi,Delhi,"NSIT Dwarka, Delhi - CPCB",10-01-2024 01:00:00,28.60909,77.0325413,SO2,7,13,10
India,Delhi,Delhi,"Najafgarh, Delhi - DPCC",10-01-2024 01:00:00,28.570173,76.933762,PM2.5,147,339,233
India,Delhi,Delhi,"Nehru Nagar, Delhi - DPCC",10-01-2024 01:00:00,28.567890,77.250515,PM10,139,401,232
India,Delhi,Delhi,"Nehru Nagar, Delhi - DPCC",10-01-2024 01:00:00,28.567890,77.250515,NO2,48,70,59
India,Delhi,Delhi,"Nehru Nagar, Delhi - DPCC",10-01-2024 01:00:00,28.567890,77.250515,OZONE,3,20,13
India,Delhi,Delhi,"New Moti Bagh, Delhi - MHUA",10-01-2024 01:00:00,28.57834,77.18400,NO2,1,6,2
India,Delhi,Delhi,"North Campus, DU, Delhi - IMD",10-01-2024 01:00:00,28.6573814,77.1585447,PM10,118,295,173
India,Delhi,Delhi,"Okhla Phase-2, Delhi - DPCC",10-01-2024 01:00:00,28.530785,77.271255,PM10,140,413,219
India,Delhi,Delhi,"Okhla Phase-2, Delhi - DPCC",10-01-2024 01:00:00,28.530785,77.271255,NO2,51,94,71
India,Delhi,Delhi,"Okhla Phase-2, Delhi - DPCC",10-01-2024 01:00:00,28.530785,77.271255,SO2,4,10,6
India,Delhi,Delhi,"Punjabi Bagh, Delhi - DPCC",10-01-2024 01:00:00,28.674045,77.131023,OZONE,7,10,8
India,Delhi,Delhi,"Pusa, Delhi - DPCC",10-01-2024 01:00:00,28.639652,77.146275,CO,18,107,65
India,Delhi,Delhi,"Pusa, Delhi - IMD",10-01-2024 01:00:00,28.636110,77.173332,CO,44,76,49
India,Delhi,Delhi,"R K Puram, Delhi - DPCC",10-01-2024 01:00:00,28.563262,77.186937,PM10,130,426,212
India,Delhi,Delhi,"R K Puram, Delhi - DPCC",10-01-2024 01:00:00,28.563262,77.186937,SO2,4,27,13
India,Delhi,Delhi,"R K Puram, Delhi - DPCC",10-01-2024 01:00:00,28.563262,77.186937,CO,12,103,64
India,Delhi,Delhi,"Rohini, Delhi - DPCC",10-01-2024 01:00:00,28.732528,77.119920,OZONE,9,36,22
India,Delhi,Delhi,"Shadipur, Delhi - CPCB",10-01-2024 01:00:00,28.6514781,77.1473105,PM2.5,220,352,307
India,Delhi,Delhi,"Sonia Vihar, Delhi - DPCC",10-01-2024 01:00:00,28.710508,77.249485,PM10,125,279,182
India,Delhi,Delhi,"Sonia Vihar, Delhi - DPCC",10-01-2024 01:00:00,28.710508,77.249485,OZONE,4,37,24
India,Delhi,Delhi,"Sri Aurobindo Marg, Delhi - DPCC",10-01-2024 01:00:00,28.531346,77.190156,PM2.5,261,358,305
India,Delhi,Delhi,"Sri Aurobindo Marg, Delhi - DPCC",10-01-2024 01:00:00,28.531346,77.190156,SO2,7,12,10
India,Delhi,Delhi,"Sri Aurobindo Marg, Delhi - DPCC",10-01-2024 01:00:00,28.531346,77.190156,OZONE,3,10,7
India,Delhi,Delhi,"Vivek Vihar, Delhi - DPCC",10-01-2024 01:00:00,28.672342,77.315260,CO,30,53,39
India,Delhi,Delhi,"Wazirpur, Delhi - DPCC",10-01-2024 01:00:00,28.699793,77.165453,NH3,4,5,4
India,Delhi,Delhi,"Wazirpur, Delhi - DPCC",10-01-2024 01:00:00,28.699793,77.165453,SO2,14,31,20
India,Gujarat,Ahmedabad,"Chandkheda, Ahmedabad - IITM",10-01-2024 01:00:00,23.107969,72.574648,NH3,3,3,3
India,Gujarat,Ahmedabad,"Gyaspur, Ahmedabad - IITM",10-01-2024 01:00:00,22.977134,72.553024,PM2.5,77,295,142
India,Gujarat,Ahmedabad,"Gyaspur, Ahmedabad - IITM",10-01-2024 01:00:00,22.977134,72.553024,CO,22,40,23
India,Gujarat,Ahmedabad,"Rakhial, Ahmedabad - IITM",10-01-2024 01:00:00,23.016834,72.625775,PM10,83,200,151
India,Gujarat,Ahmedabad,"Rakhial, Ahmedabad - IITM",10-01-2024 01:00:00,23.016834,72.625775,NH3,4,6,6
India,Gujarat,Ahmedabad,"Rakhial, Ahmedabad - IITM",10-01-2024 01:00:00,23.016834,72.625775,CO,39,78,56
India,Gujarat,Ahmedabad,"SAC ISRO Bopal, Ahmedabad - IITM",10-01-2024 01:00:00,23.041137,72.456691,PM10,76,155,111
India,Gujarat,Ahmedabad,"SAC ISRO Bopal, Ahmedabad - IITM",10-01-2024 01:00:00,23.041137,72.456691,NH3,4,5,4
India,Gujarat,Ahmedabad,"SAC ISRO Bopal, Ahmedabad - IITM",10-01-2024 01:00:00,23.041137,72.456691,SO2,6,8,7
India,Gujarat,Ahmedabad,"SAC ISRO Satellite, Ahmedabad - IITM",10-01-2024 01:00:00,23.023389,72.515201,PM10,76,108,91
India,Gujarat,Ahmedabad,"SAC ISRO Satellite, Ahmedabad - IITM",10-01-2024 01:00:00,23.023389,72.515201,CO,18,30,20
India,Gujarat,Ahmedabad,"SVPI Airport Hansol, Ahmedabad - IITM",10-01-2024 01:00:00,23.076793,72.627874,NO2,10,10,10
India,Gujarat,Ahmedabad,"SVPI Airport Hansol, Ahmedabad - IITM",10-01-2024 01:00:00,23.076793,72.627874,CO,52,72,63
India,Gujarat,Ahmedabad,"SVPI Airport Hansol, Ahmedabad - IITM",10-01-2024 01:00:00,23.076793,72.627874,OZONE,4,19,12
India,Gujarat,Ahmedabad,"Sardar Vallabhbhai Patel Stadium, Ahmedabad - IITM",10-01-2024 01:00:00,23.043070,72.562968,NO2,11,14,12
India,Gujarat,Ankleshwar,"GIDC, Ankleshwar - GPCB",10-01-2024 01:00:00,21.613267,73.010555,PM10,86,112,101
India,Gujarat,Ankleshwar,"GIDC, Ankleshwar - GPCB",10-01-2024 01:00:00,21.613267,73.010555,NO2,33,34,34
India,Gujarat,Gandhinagar,"GIFT City, Gandhinagar - IITM",10-01-2024 01:00:00,23.163798,72.677768,NH3,2,2,2
India,Gujarat,Gandhinagar,"GIFT City, Gandhinagar - IITM",10-01-2024 01:00:00,23.163798,72.677768,SO2,4,6,6
India,Gujarat,Gandhinagar,"GIFT City, Gandhinagar - IITM",10-01-2024 01:00:00,23.163798,72.677768,CO,18,33,25
India,Gujarat,Gandhinagar,"IIPHG Lekawada, Gandhinagar - IITM",10-01-2024 01:00:00,23.243639,72.68994,CO,30,44,40
India,Gujarat,Gandhinagar,"Sector-10, Gandhinagar - GPCB",10-01-2024 01:00:00,23.221714,72.654328,PM10,56,87,68
India,Gujarat,Gandhinagar,"Sector-10, Gandhinagar - GPCB",10-01-2024 01:00:00,23.221714,72.654328,NO2,11,17,13
India,Gujarat,Gandhinagar,"Sector-10, Gandhinagar - GPCB",10-01-2024 01:00:00,23.221714,72.654328,NH3,2,2,2
India,Gujarat,Gandhinagar,"Sector-10, Gandhinagar - GPCB",10-01-2024 01:00:00,23.221714,72.654328,CO,19,20,20
India,Gujarat,Surat,"Science Center, Surat - SMC",10-01-2024 01:00:00,21.170046,72.795405,PM2.5,49,166,90
India,Gujarat,Surat,"Science Center, Surat - SMC",10-01-2024 01:00:00,21.170046,72.795405,NO2,7,15,11
India,Gujarat,Vapi,"Phase-1 GIDC, Vapi - GPCB",10-01-2024 01:00:00,20.362421,72.918013,PM2.5,181,304,251
India,Gujarat,Vapi,"Phase-1 GIDC, Vapi - GPCB",10-01-2024 01:00:00,20.362421,72.918013,OZONE,1,4,2
India,Haryana,Ambala,"Patti Mehar, Ambala - HSPCB",10-01-2024 01:00:00,30.379589,76.778328,PM10,78,190,121
India,Haryana,Bahadurgarh,"Arya Nagar, Bahadurgarh - HSPCB",10-01-2024 01:00:00,28.6701,76.9254,NH3,11,12,11
India,Haryana,Ballabgarh,"Nathu Colony, Ballabgarh - HSPCB",10-01-2024 01:00:00,28.3419248,77.319699,SO2,2,18,11
India,Haryana,Bhiwani,"H.B. Colony, Bhiwani - HSPCB",10-01-2024 01:00:00,28.806223,76.141105,OZONE,15,21,17
India,Haryana,Charkhi Dadri,"Mini Secretariat, Charkhi Dadri - HSPCB",10-01-2024 01:00:00,28.593883,76.270653,PM2.5,47,152,96
India,Haryana,Charkhi Dadri,"Mini Secretariat, Charkhi Dadri - HSPCB",10-01-2024 01:00:00,28.593883,76.270653,PM10,47,117,92
India,Haryana,Dharuhera,"Municipal Corporation Office, Dharuhera -  HSPCB",10-01-2024 01:00:00,28.206800,76.799700,SO2,4,10,7
India,Haryana,Dharuhera,"Municipal Corporation Office, Dharuhera -  HSPCB",10-01-2024 01:00:00,28.206800,76.799700,CO,24,68,32
India,Haryana,Faridabad,"New Industrial Town, Faridabad - HSPCB",10-01-2024 01:00:00,28.39072,77.30059,NO2,3,16,10
India,Haryana,Faridabad,"Sector 11, Faridabad - HSPCB",10-01-2024 01:00:00,28.376058,77.315741,PM2.5,159,183,166
India,Haryana,Faridabad,"Sector 11, Faridabad - HSPCB",10-01-2024 01:00:00,28.376058,77.315741,PM10,102,500,175
India,Haryana,Faridabad,"Sector 30, Faridabad - HSPCB",10-01-2024 01:00:00,28.4417,77.3217,PM10,NA,NA,NA
India,Haryana,Faridabad,"Sector- 16A, Faridabad - HSPCB",10-01-2024 01:00:00,28.4088421,77.3099081,NO2,24,68,38
India,Haryana,Faridabad,"Sector- 16A, Faridabad - HSPCB",10-01-2024 01:00:00,28.4088421,77.3099081,SO2,21,27,24
India,Haryana,Faridabad,"Sector- 16A, Faridabad - HSPCB",10-01-2024 01:00:00,28.4088421,77.3099081,CO,6,69,20
India,Haryana,Fatehabad,"Huda Sector, Fatehabad - HSPCB",10-01-2024 01:00:00,29.503664,75.467934,PM2.5,96,335,174
India,Haryana,Fatehabad,"Huda Sector, Fatehabad - HSPCB",10-01-2024 01:00:00,29.503664,75.467934,CO,5,14,7
India,Haryana,Gurugram,"Teri Gram, Gurugram - HSPCB",10-01-2024 01:00:00,28.4275,77.1465,CO,26,62,31
India,Haryana,Hisar,"Urban Estate-II, Hisar - HSPCB",10-01-2024 01:00:00,29.140560,75.744941,NO2,6,9,8
India,Haryana,Hisar,"Urban Estate-II, Hisar - HSPCB",10-01-2024 01:00:00,29.140560,75.744941,OZONE,19,70,34
India,Haryana,Kaithal,"Rishi Nagar, Kaithal - HSPCB",10-01-2024 01:00:00,29.8006,76.4155,NO2,24,26,25
India,Haryana,Kaithal,"Rishi Nagar, Kaithal - HSPCB",10-01-2024 01:00:00,29.8006,76.4155,NH3,8,8,8
India,Haryana,Karnal,"Sector-12, Karnal - HSPCB",10-01-2024 01:00:00,29.695300,77.002700,CO,24,44,34
India,Haryana,Kurukshetra,"Sector-7, Kurukshetra - HSPCB",10-01-2024 01:00:00,29.966942,76.875879,NH3,1,5,5
India,Haryana,Mandikhera,"General Hospital, Mandikhera - HSPCB",10-01-2024 01:00:00,27.9002,76.9938,PM2.5,3,13,7
India,Haryana,Manesar,"Sector-2 IMT, Manesar - HSPCB",10-01-2024 01:00:00,28.360699,76.936090,CO,20,48,27
India,Haryana,Narnaul,"Shastri Nagar, Narnaul - HSPCB",10-01-2024 01:00:00,28.060249,76.113115,NO2,17,47,33
India,Haryana,Narnaul,"Shastri Nagar, Narnaul - HSPCB",10-01-2024 01:00:00,28.060249,76.113115,CO,8,39,19
India,Haryana,Palwal,"Shyam Nagar, Palwal - HSPCB",10-01-2024 01:00:00,28.1485564,77.3320667,OZONE,1,17,10
India,Haryana,Panipat,"Sector-18, Panipat - HSPCB",10-01-2024 01:00:00,29.497973,76.993331,PM10,170,213,182
India,Haryana,Panipat,"Sector-18, Panipat - HSPCB",10-01-2024 01:00:00,29.497973,76.993331,NO2,27,33,29
India,Haryana,Panipat,"Sector-18, Panipat - HSPCB",10-01-2024 01:00:00,29.497973,76.993331,CO,24,41,25
India,Haryana,Sirsa,"F-Block, Sirsa - HSPCB",10-01-2024 01:00:00,29.536400,75.015800,NO2,10,10,10
India,Haryana,Sirsa,"F-Block, Sirsa - HSPCB",10-01-2024 01:00:00,29.536400,75.015800,SO2,4,10,7
India,Haryana,Sonipat,"Murthal, Sonipat - HSPCB",10-01-2024 01:00:00,29.027200,77.062100,PM2.5,84,290,155
India,Haryana,Sonipat,"Murthal, Sonipat - HSPCB",10-01-2024 01:00:00,29.027200,77.062100,NH3,7,10,9
India,Haryana,Sonipat,"Murthal, Sonipat - HSPCB",10-01-2024 01:00:00,29.027200,77.062100,CO,18,30,21
India,Haryana,Sonipat,"Murthal, Sonipat - HSPCB",10-01-2024 01:00:00,29.027200,77.062100,OZONE,16,36,23
India,Haryana,Yamuna Nagar,"Gobind Pura, Yamuna Nagar - HSPCB",10-01-2024 01:00:00,30.1480566,77.2893471,OZONE,7,10,9
