country,state,city,station,last_update,latitude,longitude,pollutant_id,pollutant_min,pollutant_max,pollutant_avg
India,Andhra_Pradesh,Chittoor,"Gangineni Cheruvu, Chittoor - APPCB",22-02-2024 14:00:00,13.204880,79.097889,PM2.5,52,78,63
India,Andhra_Pradesh,Chittoor,"Gangineni Cheruvu, Chittoor - APPCB",22-02-2024 14:00:00,13.204880,79.097889,NO2,6,30,13
India,Andhra_Pradesh,Chittoor,"Gangineni Cheruvu, Chittoor - APPCB",22-02-2024 14:00:00,13.204880,79.097889,SO2,5,70,25
India,Andhra_Pradesh,Kadapa,"Yerramukkapalli, Kadapa - APPCB",22-02-2024 14:00:00,14.465052,78.824187,PM10,48,108,67
India,Andhra_Pradesh,Rajamahendravaram,"Anand Kala Kshetram, Rajamahendravaram - APPCB",22-02-2024 14:00:00,16.9872867,81.7363176,SO2,11,12,11
India,Andhra_Pradesh,Vijayawada,"HB Colony, Vijayawada - APPCB",22-02-2024 14:00:00,16.536107,80.594233,PM2.5,53,67,60
India,Andhra_Pradesh,Vijayawada,"HB Colony, Vijayawada - APPCB",22-02-2024 14:00:00,16.536107,80.594233,CO,18,19,18
India,Andhra_Pradesh,Vijayawada,"Kanuru, Vijayawada - APPCB",22-02-2024 14:00:00,16.486692,80.699436,NO2,14,19,14
India,Andhra_Pradesh,Vijayawada,"Rajiv Gandhi Park, Vijayawada - APPCB",22-02-2024 14:00:00,16.509717,80.612222,PM10,49,83,64
India,Andhra_Pradesh,Vijayawada,"Rajiv Nagar, Vijayawada - APPCB",22-02-2024 14:00:00,16.554731,80.649110,CO,21,74,40
India,Andhra_Pradesh,Visakhapatnam,"GVM Corporation, Visakhapatnam - APPCB",22-02-2024 14:00:00,17.72,83.3,OZONE,2,106,43
India,Arunachal_Pradesh,Naharlagun,"Naharlagun, Naharlagun - APSPCB",22-02-2024 14:00:00,27.103358,93.679645,CO,16,42,20
India,Assam,Byrnihat,"Central Academy for SFS, Byrnihat - PCBA",22-02-2024 14:00:00,26.071318,91.87488,PM2.5,227,466,358
India,Assam,Guwahati,"IITG, Guwahati - PCBA",22-02-2024 14:00:00,26.2028636,91.70046436,PM2.5,164,461,308
India,Assam,Guwahati,"IITG, Guwahati - PCBA",22-02-2024 14:00:00,26.2028636,91.70046436,NO2,3,12,7
India,Assam,Guwahati,"IITG, Guwahati - PCBA",22-02-2024 14:00:00,26.2028636,91.70046436,NH3,5,5,5
India,Assam,Guwahati,"LGBI Airport, Guwahati - PCBA",22-02-2024 14:00:00,26.10887,91.589544,PM2.5,20,322,249
India,Assam,Guwahati,"LGBI Airport, Guwahati - PCBA",22-02-2024 14:00:00,26.10887,91.589544,NO2,12,39,21
India,Assam,Guwahati,"Pan Bazaar, Guwahati - PCBA",22-02-2024 14:00:00,26.187500,91.744194,NH3,5,5,5
India,Assam,Guwahati,"Railway Colony, Guwahati - PCBA",22-02-2024 14:00:00,26.181742,91.78063,OZONE,1,59,33
India,Assam,Nagaon,"Christianpatty, Nagaon - PCBA",22-02-2024 14:00:00,26.349082,92.68449,OZONE,3,50,18
India,Assam,Silchar,"Tarapur, Silchar - PCBA",22-02-2024 14:00:00,24.82827,92.79525,PM2.5,40,58,48
India,Assam,Silchar,"Tarapur, Silchar - PCBA",22-02-2024 14:00:00,24.82827,92.79525,SO2,2,10,7
India,Assam,Sivasagar,"Girls College, Sivasagar - PCBA",22-02-2024 14:00:00,26.987634,94.636574,PM10,24,38,31
India,Bihar,Araria,"Kharahiya Basti, Araria - BSPCB",22-02-2024 14:00:00,26.146529,87.454184,PM10,NA,NA,NA
India,Bihar,Araria,"Kharahiya Basti, Araria - BSPCB",22-02-2024 14:00:00,26.146529,87.454184,SO2,12,17,15
India,Bihar,Araria,"Kharahiya Basti, Araria - BSPCB",22-02-2024 14:00:00,26.146529,87.454184,OZONE,7,10,9
India,Bihar,Aurangabad,"Gurdeo Nagar, Aurangabad - BSPCB",22-02-2024 14:00:00,24.75746,84.366208,NO2,1,2,2
India,Bihar,Aurangabad,"Gurdeo Nagar, Aurangabad - BSPCB",22-02-2024 14:00:00,24.75746,84.366208,NH3,3,9,8
India,Bihar,Bettiah,"Kamalnath Nagar, Bettiah - BSPCB",22-02-2024 14:00:00,26.80365,84.51954,PM2.5,10,28,19
India,Bihar,Bettiah,"Kamalnath Nagar, Bettiah - BSPCB",22-02-2024 14:00:00,26.80365,84.51954,NO2,27,44,39
India,Bihar,Bettiah,"Kamalnath Nagar, Bettiah - BSPCB",22-02-2024 14:00:00,26.80365,84.51954,CO,65,67,66
India,Bihar,Bhagalpur,"DM Office_Kachari Chowk, Bhagalpur - BSPCB",22-02-2024 14:00:00,25.251013,86.989001,NH3,4,16,8
India,Bihar,Bihar Sharif,"D M Colony, Bihar Sharif - BSPCB",22-02-2024 14:00:00,25.204762,85.514960,PM2.5,17,95,47
India,Bihar,Bihar Sharif,"D M Colony, Bihar Sharif - BSPCB",22-02-2024 14:00:00,25.204762,85.514960,SO2,1,11,7
India,Bihar,Buxar,"Charitra Van, Buxar - BSPCB (Formerly known as Central Jail)",22-02-2024 14:00:00,25.567520,83.966379,PM2.5,20,308,82
India,Bihar,Buxar,"Charitra Van, Buxar - BSPCB (Formerly known as Central Jail)",22-02-2024 14:00:00,25.567520,83.966379,NH3,1,4,3
India,Bihar,Buxar,"Charitra Van, Buxar - BSPCB (Formerly known as Central Jail)",22-02-2024 14:00:00,25.567520,83.966379,SO2,15,16,16
India,Bihar,Buxar,"Charitra Van, Buxar - BSPCB (Formerly known as Central Jail)",22-02-2024 14:00:00,25.567520,83.966379,CO,2,119,10
India,Bihar,Buxar,"Charitra Van, Buxar - BSPCB (Formerly known as Central Jail)",22-02-2024 14:00:00,25.567520,83.966379,OZONE,2,90,42
India,Bihar,Gaya,"SFTI Kusdihra, Gaya - BSPCB",22-02-2024 14:00:00,24.762518,84.982348,PM2.5,40,112,66
India,Bihar,Gaya,"SFTI Kusdihra, Gaya - BSPCB",22-02-2024 14:00:00,24.762518,84.982348,SO2,7,9,8
India,Bihar,Hajipur,"Industrial Area, Hajipur - BSPCB",22-02-2024 14:00:00,25.697189,85.245900,PM10,62,144,104
India,Bihar,Hajipur,"Industrial Area, Hajipur - BSPCB",22-02-2024 14:00:00,25.697189,85.245900,NO2,29,44,34
India,Bihar,Hajipur,"Industrial Area, Hajipur - BSPCB",22-02-2024 14:00:00,25.697189,85.245900,SO2,2,6,4
India,Bihar,Hajipur,"Industrial Area, Hajipur - BSPCB",22-02-2024 14:00:00,25.697189,85.245900,OZONE,7,41,14
India,Bihar,Katihar,"Mirchaibari, Katihar - BSPCB",22-02-2024 14:00:00,25.560083,87.553265,PM2.5,3,230,121
India,Bihar,Katihar,"Mirchaibari, Katihar - BSPCB",22-02-2024 14:00:00,25.560083,87.553265,SO2,17,20,19
India,Bihar,Manguraha,"Forest Rest House, Manguraha - BSPCB",22-02-2024 14:00:00,27.308328,84.531742,PM2.5,38,113,68
India,Bihar,Motihari,"Gandak Colony, Motihari - BSPCB",22-02-2024 14:00:00,26.63086,84.90051,SO2,1,9,4
India,Bihar,Muzaffarpur,"Buddha Colony, Muzaffarpur - BSPCB",22-02-2024 14:00:00,26.11442,85.39813,NO2,16,58,29
India,Bihar,Patna,"IGSC Planetarium Complex, Patna - BSPCB",22-02-2024 14:00:00,25.610369,85.132568,OZONE,14,80,25
India,Bihar,Patna,"Muradpur, Patna - BSPCB",22-02-2024 14:00:00,25.619651,85.147382,NO2,11,23,16
India,Bihar,Patna,"Muradpur, Patna - BSPCB",22-02-2024 14:00:00,25.619651,85.147382,CO,3,111,27
India,Bihar,Patna,"Rajbansi Nagar, Patna - BSPCB",22-02-2024 14:00:00,25.599486,85.113666,PM10,37,134,74
India,Bihar,Patna,"Rajbansi Nagar, Patna - BSPCB",22-02-2024 14:00:00,25.599486,85.113666,CO,6,76,18
India,Bihar,Patna,"Samanpura, Patna - BSPCB",22-02-2024 14:00:00,25.596727,85.085624,NH3,1,8,2
India,Bihar,Patna,"Samanpura, Patna - BSPCB",22-02-2024 14:00:00,25.596727,85.085624,OZONE,5,47,34
India,Bihar,Purnia,"Mariam Nagar, Purnia - BSPCB",22-02-2024 14:00:00,25.366336,87.117468,OZONE,9,14,10
India,Bihar,Rajgir,"Dangi Tola, Rajgir - BSPCB",22-02-2024 14:00:00,25.03280,85.41948,SO2,NA,NA,NA
India,Bihar,Rajgir,"Dangi Tola, Rajgir - BSPCB",22-02-2024 14:00:00,25.03280,85.41948,OZONE,20,24,23
India,Bihar,Saharsa,"Police Line, Saharsa - BSPCB",22-02-2024 14:00:00,25.892357,86.590325,CO,5,78,25
India,Bihar,Samastipur,"DM Office_Kasipur, Samastipur - BSPCB",22-02-2024 14:00:00,25.859655,85.77944,NO2,3,45,13
India,Bihar,Samastipur,"DM Office_Kasipur, Samastipur - BSPCB",22-02-2024 14:00:00,25.859655,85.77944,CO,16,36,28
India,Bihar,Sasaram,"Dada Peer, Sasaram - BSPCB",22-02-2024 14:00:00,24.952822,84.002396,NO2,10,31,19
India,Chandigarh,Chandigarh,"Sector 22, Chandigarh - CPCC",22-02-2024 14:00:00,30.735567,76.775714,PM10,55,133,93
India,Chandigarh,Chandigarh,"Sector 22, Chandigarh - CPCC",22-02-2024 14:00:00,30.735567,76.775714,NO2,16,73,41
India,Chandigarh,Chandigarh,"Sector 22, Chandigarh - CPCC",22-02-2024 14:00:00,30.735567,76.775714,OZONE,5,153,56
India,Chandigarh,Chandigarh,"Sector-25, Chandigarh - CPCC",22-02-2024 14:00:00,30.751462,76.762879,PM2.5,116,246,146
India,Chandigarh,Chandigarh,"Sector-25, Chandigarh - CPCC",22-02-2024 14:00:00,30.751462,76.762879,OZONE,1,41,11
India,Chandigarh,Chandigarh,"Sector-53, Chandigarh - CPCC",22-02-2024 14:00:00,30.719859,76.738637,OZONE,5,65,31
India,Chhattisgarh,Chhal,"Nawapara SECL Colony, Chhal - CECB",22-02-2024 14:00:00,22.118125,83.140608,CO,24,110,52
India,Chhattisgarh,Korba,"Rampur, Korba - CECB",22-02-2024 14:00:00,22.368195,82.746431,PM2.5,19,37,27
India,Chhattisgarh,Korba,"Urja Nagar, Korba - CECB",22-02-2024 14:00:00,22.348441,82.549611,NO2,59,83,76
India,Chhattisgarh,Kunjemura,"OP Jindal School, Kunjemura - CECB",22-02-2024 14:00:00,22.126650,83.483212,PM2.5,29,71,47
India,Chhattisgarh,Kunjemura,"OP Jindal School, Kunjemura - CECB",22-02-2024 14:00:00,22.126650,83.483212,CO,17,60,39
India,Chhattisgarh,Milupara,"Govt. Higher Secondary School, Milupara - CECB",22-02-2024 14:00:00,22.1910172,83.5197009,PM10,NA,NA,NA
India,Chhattisgarh,Milupara,"Govt. Higher Secondary School, Milupara - CECB",22-02-2024 14:00:00,22.1910172,83.5197009,NO2,15,72,30
India,Chhattisgarh,Raipur,"AIIMS, Raipur - CECB",22-02-2024 14:00:00,21.258815,81.578979,SO2,4,12,7
India,Chhattisgarh,Raipur,"Bhatagaon New ISBT, Raipur - CECB",22-02-2024 14:00:00,21.219665,81.630094,PM2.5,21,38,27
India,Chhattisgarh,Raipur,"Bhatagaon New ISBT, Raipur - CECB",22-02-2024 14:00:00,21.219665,81.630094,OZONE,3,9,6
India,Chhattisgarh,Raipur,"Siltara Phase-II, Raipur - CECB",22-02-2024 14:00:00,21.371751,81.664929,OZONE,8,15,11
India,Delhi,Delhi,"Anand Vihar, Delhi - DPCC",22-02-2024 14:00:00,28.647622,77.3158090,PM2.5,52,317,179
India,Delhi,Delhi,"Anand Vihar, Delhi - DPCC",22-02-2024 14:00:00,28.647622,77.3158090,NH3,3,16,8
India,Delhi,Delhi,"Ashok Vihar, Delhi - DPCC",22-02-2024 14:00:00,28.695381,77.181665,PM2.5,52,262,122
India,Delhi,Delhi,"Ashok Vihar, Delhi - DPCC",22-02-2024 14:00:00,28.695381,77.181665,NO2,20,108,52
India,Delhi,Delhi,"Ashok Vihar, Delhi - DPCC",22-02-2024 14:00:00,28.695381,77.181665,NH3,4,11,9
India,Delhi,Delhi,"Bawana, Delhi - DPCC",22-02-2024 14:00:00,28.776200,77.051074,NO2,12,50,30
India,Delhi,Delhi,"Bawana, Delhi - DPCC",22-02-2024 14:00:00,28.776200,77.051074,OZONE,4,80,32
India,Delhi,Delhi,"Burari Crossing, Delhi - IMD",22-02-2024 14:00:00,28.7256504,77.2011573,OZONE,9,81,9
India,Delhi,Delhi,"CRRI Mathura Road, Delhi - IMD",22-02-2024 14:00:00,28.5512005,77.2735737,PM10,79,177,123
India,Delhi,Delhi,"Chandni Chowk, Delhi - IITM",22-02-2024 14:00:00,28.656756,77.227234,PM10,98,148,115
India,Delhi,Delhi,"Chandni Chowk, Delhi - IITM",22-02-2024 14:00:00,28.656756,77.227234,NO2,19,20,20
India,Delhi,Delhi,"Chandni Chowk, Delhi - IITM",22-02-2024 14:00:00,28.656756,77.227234,NH3,8,8,8
India,Delhi,Delhi,"DTU, Delhi - CPCB",22-02-2024 14:00:00,28.7500499,77.1112615,CO,20,30,26
India,Delhi,Delhi,"Dr. Karni Singh Shooting Range, Delhi - DPCC",22-02-2024 14:00:00,28.498571,77.264840,PM2.5,51,204,120
India,Delhi,Delhi,"Dr. Karni Singh Shooting Range, Delhi - DPCC",22-02-2024 14:00:00,28.498571,77.264840,CO,22,78,49
India,Delhi,Delhi,"Dwarka-Sector 8, Delhi - DPCC ",22-02-2024 14:00:00,28.5710274,77.0719006,CO,12,62,37
India,Delhi,Delhi,"IGI Airport (T3), Delhi - IMD",22-02-2024 14:00:00,28.5627763,77.1180053,NO2,28,61,44
India,Delhi,Delhi,"IHBAS, Dilshad Garden, Delhi - CPCB",22-02-2024 14:00:00,28.6811736,77.3025234,PM10,108,155,133
India,Delhi,Delhi,"IHBAS, Dilshad Garden, Delhi - CPCB",22-02-2024 14:00:00,28.6811736,77.3025234,OZONE,5,40,22
India,Delhi,Delhi,"ITO, Delhi - CPCB",22-02-2024 14:00:00,28.628624,77.241060,NO2,2,96,29
India,Delhi,Delhi,"ITO, Delhi - CPCB",22-02-2024 14:00:00,28.628624,77.241060,SO2,5,29,14
India,Delhi,Delhi,"Jahangirpuri, Delhi - DPCC",22-02-2024 14:00:00,28.732820,77.170633,SO2,5,19,9
India,Delhi,Delhi,"Jawaharlal Nehru Stadium, Delhi - DPCC",22-02-2024 14:00:00,28.580280,77.233829,PM10,94,183,133
India,Delhi,Delhi,"Lodhi Road, Delhi - IITM",22-02-2024 14:00:00,28.588333,77.221667,SO2,18,37,27
India,Delhi,Delhi,"Major Dhyan Chand National Stadium, Delhi - DPCC",22-02-2024 14:00:00,28.611281,77.237738,NO2,39,153,81
India,Delhi,Delhi,"Major Dhyan Chand National Stadium, Delhi - DPCC",22-02-2024 14:00:00,28.611281,77.237738,NH3,8,12,9
India,Delhi,Delhi,"Mandir Marg, Delhi - DPCC",22-02-2024 14:00:00,28.636429,77.201067,PM2.5,54,276,129
India,Delhi,Delhi,"Mandir Marg, Delhi - DPCC",22-02-2024 14:00:00,28.636429,77.201067,NO2,107,133,120
India,Delhi,Delhi,"Mandir Marg, Delhi - DPCC",22-02-2024 14:00:00,28.636429,77.201067,SO2,7,10,9
India,Delhi,Delhi,"Mundka, Delhi - DPCC",22-02-2024 14:00:00,28.684678,77.076574,NH3,6,11,8
India,Delhi,Delhi,"Mundka, Delhi - DPCC",22-02-2024 14:00:00,28.684678,77.076574,SO2,2,22,9
India,Delhi,Delhi,"Mundka, Delhi - DPCC",22-02-2024 14:00:00,28.684678,77.076574,CO,23,60,42
India,Delhi,Delhi,"NSIT Dwarka, Delhi - CPCB",22-02-2024 14:00:00,28.60909,77.0325413,NH3,10,13,11
India,Delhi,Delhi,"NSIT Dwarka, Delhi - CPCB",22-02-2024 14:00:00,28.60909,77.0325413,CO,33,84,57
India,Delhi,Delhi,"Narela, Delhi - DPCC",22-02-2024 14:00:00,28.822836,77.101981,CO,25,72,43
India,Delhi,Delhi,"Nehru Nagar, Delhi - DPCC",22-02-2024 14:00:00,28.567890,77.250515,PM2.5,49,296,175
India,Delhi,Delhi,"Nehru Nagar, Delhi - DPCC",22-02-2024 14:00:00,28.567890,77.250515,NH3,7,17,12
India,Delhi,Delhi,"New Moti Bagh, Delhi - MHUA",22-02-2024 14:00:00,28.57834,77.18400,NO2,1,6,2
India,Delhi,Delhi,"Okhla Phase-2, Delhi - DPCC",22-02-2024 14:00:00,28.530785,77.271255,PM2.5,49,229,131
India,Delhi,Delhi,"Okhla Phase-2, Delhi - DPCC",22-02-2024 14:00:00,28.530785,77.271255,PM10,108,226,155
India,Delhi,Delhi,"Patparganj, Delhi - DPCC",22-02-2024 14:00:00,28.623763,77.287209,SO2,7,11,10
India,Delhi,Delhi,"Punjabi Bagh, Delhi - DPCC",22-02-2024 14:00:00,28.674045,77.131023,NH3,3,5,4
India,Delhi,Delhi,"Punjabi Bagh, Delhi - DPCC",22-02-2024 14:00:00,28.674045,77.131023,OZONE,6,52,20
India,Delhi,Delhi,"Pusa, Delhi - DPCC",22-02-2024 14:00:00,28.639652,77.146275,CO,78,112,98
India,Delhi,Delhi,"Pusa, Delhi - DPCC",22-02-2024 14:00:00,28.639652,77.146275,OZONE,13,57,29
India,Delhi,Delhi,"R K Puram, Delhi - DPCC",22-02-2024 14:00:00,28.563262,77.186937,NH3,1,2,2
India,Delhi,Delhi,"Rohini, Delhi - DPCC",22-02-2024 14:00:00,28.732528,77.119920,NH3,8,15,10
India,Delhi,Delhi,"Shadipur, Delhi - CPCB",22-02-2024 14:00:00,28.6514781,77.1473105,PM2.5,82,306,187
India,Delhi,Delhi,"Sirifort, Delhi - CPCB",22-02-2024 14:00:00,28.5504249,77.2159377,CO,10,35,28
India,Delhi,Delhi,"Sonia Vihar, Delhi - DPCC",22-02-2024 14:00:00,28.710508,77.249485,NO2,28,74,47
India,Delhi,Delhi,"Sonia Vihar, Delhi - DPCC",22-02-2024 14:00:00,28.710508,77.249485,OZONE,4,105,42
India,Delhi,Delhi,"Sri Aurobindo Marg, Delhi - DPCC",22-02-2024 14:00:00,28.531346,77.190156,PM2.5,52,201,114
India,Delhi,Delhi,"Vivek Vihar, Delhi - DPCC",22-02-2024 14:00:00,28.672342,77.315260,CO,10,60,34
India,Delhi,Delhi,"Wazirpur, Delhi - DPCC",22-02-2024 14:00:00,28.699793,77.165453,PM10,126,306,182
India,Delhi,Delhi,"Wazirpur, Delhi - DPCC",22-02-2024 14:00:00,28.699793,77.165453,NO2,53,136,97
India,Delhi,Delhi,"Wazirpur, Delhi - DPCC",22-02-2024 14:00:00,28.699793,77.165453,NH3,4,7,5
India,Delhi,Delhi,"Wazirpur, Delhi - DPCC",22-02-2024 14:00:00,28.699793,77.165453,CO,26,102,69
India,Gujarat,Ahmedabad,"SAC ISRO Bopal, Ahmedabad - IITM",22-02-2024 14:00:00,23.041137,72.456691,PM10,48,96,71
India,Gujarat,Ahmedabad,"SAC ISRO Bopal, Ahmedabad - IITM",22-02-2024 14:00:00,23.041137,72.456691,SO2,11,12,12
India,Gujarat,Ahmedabad,"SAC ISRO Satellite, Ahmedabad - IITM",22-02-2024 14:00:00,23.023389,72.515201,NO2,17,17,17
India,Gujarat,Ahmedabad,"SAC ISRO Satellite, Ahmedabad - IITM",22-02-2024 14:00:00,23.023389,72.515201,CO,38,38,38
India,Gujarat,Ahmedabad,"SVPI Airport Hansol, Ahmedabad - IITM",22-02-2024 14:00:00,23.076793,72.627874,PM10,66,100,81
India,Gujarat,Ahmedabad,"SVPI Airport Hansol, Ahmedabad - IITM",22-02-2024 14:00:00,23.076793,72.627874,SO2,2,4,3
India,Gujarat,Ahmedabad,"Sardar Vallabhbhai Patel Stadium, Ahmedabad - IITM",22-02-2024 14:00:00,23.043070,72.562968,NH3,1,2,1
India,Gujarat,Ankleshwar,"GIDC, Ankleshwar - GPCB",22-02-2024 14:00:00,21.613267,73.010555,PM2.5,31,57,44
India,Gujarat,Ankleshwar,"GIDC, Ankleshwar - GPCB",22-02-2024 14:00:00,21.613267,73.010555,NO2,37,37,37
India,Gujarat,Ankleshwar,"GIDC, Ankleshwar - GPCB",22-02-2024 14:00:00,21.613267,73.010555,SO2,7,35,15
India,Gujarat,Gandhinagar,"IIPHG Lekawada, Gandhinagar - IITM",22-02-2024 14:00:00,23.243639,72.68994,SO2,13,13,13
India,Gujarat,Vatva,"Phase-4 GIDC, Vatva - GPCB",22-02-2024 14:00:00,22.969611,72.643500,PM10,39,72,51
India,Haryana,Ambala,"Patti Mehar, Ambala - HSPCB",22-02-2024 14:00:00,30.379589,76.778328,PM10,60,227,95
India,Haryana,Ambala,"Patti Mehar, Ambala - HSPCB",22-02-2024 14:00:00,30.379589,76.778328,NO2,7,102,38
India,Haryana,Ambala,"Patti Mehar, Ambala - HSPCB",22-02-2024 14:00:00,30.379589,76.778328,NH3,4,12,6
India,Haryana,Ambala,"Patti Mehar, Ambala - HSPCB",22-02-2024 14:00:00,30.379589,76.778328,OZONE,11,24,17
India,Haryana,Ballabgarh,"Nathu Colony, Ballabgarh - HSPCB",22-02-2024 14:00:00,28.3419248,77.319699,PM10,100,196,154
India,Haryana,Ballabgarh,"Nathu Colony, Ballabgarh - HSPCB",22-02-2024 14:00:00,28.3419248,77.319699,NH3,1,2,2
India,Haryana,Bhiwani,"H.B. Colony, Bhiwani - HSPCB",22-02-2024 14:00:00,28.806223,76.141105,NH3,6,6,6
India,Haryana,Charkhi Dadri,"Mini Secretariat, Charkhi Dadri - HSPCB",22-02-2024 14:00:00,28.593883,76.270653,PM10,50,113,82
India,Haryana,Charkhi Dadri,"Mini Secretariat, Charkhi Dadri - HSPCB",22-02-2024 14:00:00,28.593883,76.270653,NH3,3,6,4
India,Haryana,Dharuhera,"Municipal Corporation Office, Dharuhera -  HSPCB",22-02-2024 14:00:00,28.206800,76.799700,NH3,9,26,18
India,Haryana,Faridabad,"Sector 11, Faridabad - HSPCB",22-02-2024 14:00:00,28.376058,77.315741,PM10,55,402,164
India,Haryana,Faridabad,"Sector 11, Faridabad - HSPCB",22-02-2024 14:00:00,28.376058,77.315741,CO,8,36,30
India,Haryana,Faridabad,"Sector 30, Faridabad - HSPCB",22-02-2024 14:00:00,28.4417,77.3217,OZONE,8,35,12
India,Haryana,Faridabad,"Sector- 16A, Faridabad - HSPCB",22-02-2024 14:00:00,28.4088421,77.3099081,OZONE,14,14,14
India,Haryana,Fatehabad,"Huda Sector, Fatehabad - HSPCB",22-02-2024 14:00:00,29.503664,75.467934,PM10,NA,NA,NA
India,Haryana,Fatehabad,"Huda Sector, Fatehabad - HSPCB",22-02-2024 14:00:00,29.503664,75.467934,SO2,NA,NA,NA
India,Haryana,Fatehabad,"Huda Sector, Fatehabad - HSPCB",22-02-2024 14:00:00,29.503664,75.467934,OZONE,20,25,23
India,Haryana,Gurugram,"Sector-51, Gurugram - HSPCB",22-02-2024 14:00:00,28.4227,77.0667,PM2.5,90,313,171
India,Haryana,Gurugram,"Teri Gram, Gurugram - HSPCB",22-02-2024 14:00:00,28.4275,77.1465,PM2.5,79,243,141
India,Haryana,Gurugram,"Vikas Sadan, Gurugram - HSPCB",22-02-2024 14:00:00,28.4501238,77.0263051,NO2,5,26,14
India,Haryana,Hisar,"Urban Estate-II, Hisar - HSPCB",22-02-2024 14:00:00,29.140560,75.744941,PM10,59,130,83
India,Haryana,Jind,"Police Lines, Jind - HSPCB",22-02-2024 14:00:00,29.307814,76.337619,NH3,2,5,4
India,Haryana,Jind,"Police Lines, Jind - HSPCB",22-02-2024 14:00:00,29.307814,76.337619,OZONE,7,22,11
India,Haryana,Kaithal,"Rishi Nagar, Kaithal - HSPCB",22-02-2024 14:00:00,29.8006,76.4155,PM10,NA,NA,NA
India,Haryana,Kaithal,"Rishi Nagar, Kaithal - HSPCB",22-02-2024 14:00:00,29.8006,76.4155,CO,3,104,62
India,Haryana,Karnal,"Sector-12, Karnal - HSPCB",22-02-2024 14:00:00,29.695300,77.002700,NH3,10,13,11
India,Haryana,Karnal,"Sector-12, Karnal - HSPCB",22-02-2024 14:00:00,29.695300,77.002700,OZONE,28,33,29
India,Haryana,Kurukshetra,"Sector-7, Kurukshetra - HSPCB",22-02-2024 14:00:00,29.966942,76.875879,PM10,67,101,86
India,Haryana,Mandikhera,"General Hospital, Mandikhera - HSPCB",22-02-2024 14:00:00,27.9002,76.9938,NH3,18,21,19
India,Haryana,Manesar,"Sector-2 IMT, Manesar - HSPCB",22-02-2024 14:00:00,28.360699,76.936090,NO2,11,28,21
India,Haryana,Narnaul,"Shastri Nagar, Narnaul - HSPCB",22-02-2024 14:00:00,28.060249,76.113115,PM2.5,30,90,55
India,Haryana,Narnaul,"Shastri Nagar, Narnaul - HSPCB",22-02-2024 14:00:00,28.060249,76.113115,PM10,36,105,66
India,Haryana,Palwal,"Shyam Nagar, Palwal - HSPCB",22-02-2024 14:00:00,28.1485564,77.3320667,NO2,23,24,24
India,Haryana,Palwal,"Shyam Nagar, Palwal - HSPCB",22-02-2024 14:00:00,28.1485564,77.3320667,CO,3,18,12
India,Haryana,Palwal,"Shyam Nagar, Palwal - HSPCB",22-02-2024 14:00:00,28.1485564,77.3320667,OZONE,15,51,31
India,Haryana,Sirsa,"F-Block, Sirsa - HSPCB",22-02-2024 14:00:00,29.536400,75.015800,NO2,10,10,10
India,Haryana,Sirsa,"F-Block, Sirsa - HSPCB",22-02-2024 14:00:00,29.536400,75.015800,NH3,12,13,13
India,Haryana,Sirsa,"F-Block, Sirsa - HSPCB",22-02-2024 14:00:00,29.536400,75.015800,SO2,1,14,8
India,Haryana,Sonipat,"Murthal, Sonipat - HSPCB",22-02-2024 14:00:00,29.027200,77.062100,PM2.5,46,116,87
India,Haryana,Sonipat,"Murthal, Sonipat - HSPCB",22-02-2024 14:00:00,29.027200,77.062100,CO,6,82,16
India,Haryana,Yamuna Nagar,"Gobind Pura, Yamuna Nagar - HSPCB",22-02-2024 14:00:00,30.1480566,77.2893471,SO2,1,101,12
India,Himachal Pradesh,Baddi,"HIMUDA Complex Phase-1, Baddi - HPPCB",22-02-2024 14:00:00,30.943887,76.801991,SO2,8,116,32
India,Jammu_and_Kashmir,Srinagar,"Rajbagh, Srinagar - JKSPCB",22-02-2024 14:00:00,34.066206,74.819820,PM10,NA,NA,NA
India,Jammu_and_Kashmir,Srinagar,"Rajbagh, Srinagar - JKSPCB",22-02-2024 14:00:00,34.066206,74.819820,CO,20,23,22
India,Karnataka,Bagalkot,"Vidayagiri, Bagalkot - KSPCB",22-02-2024 14:00:00,16.172806,75.659694,NH3,1,2,1
India,Karnataka,Belgaum,"Ramteerth Nagar, Belgaum - KSPCB",22-02-2024 14:00:00,15.888653,74.541751,CO,42,62,47
India,Karnataka,Belgaum,"Ramteerth Nagar, Belgaum - KSPCB",22-02-2024 14:00:00,15.888653,74.541751,OZONE,18,20,19
India,Karnataka,Bengaluru,"BTM Layout, Bengaluru - CPCB",22-02-2024 14:00:00,12.9135218,77.5950804,OZONE,16,26,20
India,Karnataka,Bengaluru,"Bapuji Nagar, Bengaluru - KSPCB",22-02-2024 14:00:00,12.951913,77.539784,NH3,1,1,1
India,Karnataka,Bengaluru,"Bapuji Nagar, Bengaluru - KSPCB",22-02-2024 14:00:00,12.951913,77.539784,OZONE,4,92,22
India,Karnataka,Bengaluru,"City Railway Station, Bengaluru - KSPCB",22-02-2024 14:00:00,12.9756843,77.5660749,NO2,24,43,33
India,Karnataka,Bengaluru,"Hebbal, Bengaluru - KSPCB",22-02-2024 14:00:00,13.029152,77.585901,NH3,1,1,1
India,Karnataka,Bengaluru,"Jayanagar 5th Block, Bengaluru - KSPCB",22-02-2024 14:00:00,12.920984,77.584908,PM2.5,62,172,95
India,Karnataka,Bengaluru,"Jayanagar 5th Block, Bengaluru - KSPCB",22-02-2024 14:00:00,12.920984,77.584908,NO2,10,19,12
India,Karnataka,Bengaluru,"Jayanagar 5th Block, Bengaluru - KSPCB",22-02-2024 14:00:00,12.920984,77.584908,NH3,2,4,2
India,Karnataka,Bengaluru,"Jigani, Bengaluru - KSPCB",22-02-2024 14:00:00,12.7816279,77.6299145,CO,43,125,63
India,Karnataka,Bengaluru,"Kasturi Nagar, Bengaluru - KSPCB",22-02-2024 14:00:00,13.003872,77.664217,PM2.5,15,275,126
India,Karnataka,Bengaluru,"Kasturi Nagar, Bengaluru - KSPCB",22-02-2024 14:00:00,13.003872,77.664217,SO2,9,10,10
India,Karnataka,Bengaluru,"Kasturi Nagar, Bengaluru - KSPCB",22-02-2024 14:00:00,13.003872,77.664217,OZONE,21,155,74
India,Karnataka,Bengaluru,"Peenya, Bengaluru - CPCB",22-02-2024 14:00:00,13.0270199,77.494094,PM2.5,NA,NA,NA
India,Karnataka,Bengaluru,"RVCE-Mailasandra, Bengaluru - KSPCB",22-02-2024 14:00:00,12.921418,77.502466,NO2,34,99,83
India,Karnataka,Bengaluru,"RVCE-Mailasandra, Bengaluru - KSPCB",22-02-2024 14:00:00,12.921418,77.502466,SO2,6,14,9
India,Karnataka,Bengaluru,"Sanegurava Halli, Bengaluru - KSPCB",22-02-2024 14:00:00,12.990328,77.5431385,SO2,2,3,3
India,Karnataka,Bengaluru,"Silk Board, Bengaluru - KSPCB",22-02-2024 14:00:00,12.917348,77.622813,OZONE,29,32,30
India,Karnataka,Chamarajanagar,"Urban, Chamarajanagar - KSPCB",22-02-2024 14:00:00,11.55358,76.55521,NH3,2,3,2
India,Karnataka,Chamarajanagar,"Urban, Chamarajanagar - KSPCB",22-02-2024 14:00:00,11.55358,76.55521,CO,16,32,26
India,Karnataka,Chamarajanagar,"Urban, Chamarajanagar - KSPCB",22-02-2024 14:00:00,11.55358,76.55521,OZONE,15,51,33
India,Karnataka,Chikkaballapur,"Chikkaballapur Rural, Chikkaballapur - KSPCB",22-02-2024 14:00:00,13.428828,77.731418,NO2,3,19,8
India,Karnataka,Chikkamagaluru,"Kalyana Nagara, Chikkamagaluru - KSPCB",22-02-2024 14:00:00,13.328028,75.797056,OZONE,18,67,28
India,Karnataka,Davanagere,"Devaraj Urs Badavane, Davanagere - KSPCB",22-02-2024 14:00:00,14.475800,75.905200,OZONE,19,27,23
India,Karnataka,Dharwad,"Kalabhavan, Dharwad - KSPCB",22-02-2024 14:00:00,15.459706,75.008381,PM10,74,92,84
India,Karnataka,Dharwad,"Kalabhavan, Dharwad - KSPCB",22-02-2024 14:00:00,15.459706,75.008381,SO2,2,11,5
India,Karnataka,Gadag,"Panchal Nagar, Gadag - KSPCB",22-02-2024 14:00:00,15.411456,75.638133,CO,40,54,46
India,Karnataka,Hassan,"B.Katihalli, Hassan - KSPCB",22-02-2024 14:00:00,13.008556,76.125258,NH3,2,5,3
India,Karnataka,Haveri,"Ashwini Nagar, Haveri - KSPCB",22-02-2024 14:00:00,14.791800,75.389600,NH3,NA,NA,NA
India,Karnataka,Hubballi,"Lingaraj Nagar, Hubballi - KSPCB",22-02-2024 14:00:00,15.3714823,75.1160168,PM10,46,64,55
India,Karnataka,Hubballi,"Lingaraj Nagar, Hubballi - KSPCB",22-02-2024 14:00:00,15.3714823,75.1160168,NO2,16,16,16
India,Karnataka,Kalaburagi,"Mahatma Basaveswar Colony, Kalaburgi - KSPCB",22-02-2024 14:00:00,17.336318,76.847397,NH3,2,4,4
India,Karnataka,Kalaburagi,"Mahatma Basaveswar Colony, Kalaburgi - KSPCB",22-02-2024 14:00:00,17.336318,76.847397,CO,34,88,38
India,Karnataka,Karwar,"KHB Colony, Karwar - KSPCB",22-02-2024 14:00:00,14.816666,74.141003,SO2,13,18,18
India,Karnataka,Karwar,"KHB Colony, Karwar - KSPCB",22-02-2024 14:00:00,14.816666,74.141003,OZONE,21,22,22
India,Karnataka,Kolar,"Tamaka Ind. Area, Kolar - KSPCB",22-02-2024 14:00:00,13.1276288,78.1570122,OZONE,7,13,10
India,Karnataka,Mangalore,"Kadri, Mangalore - KSPCB",22-02-2024 14:00:00,12.889250,74.853000,PM10,49,121,67
India,Karnataka,Mangalore,"Kadri, Mangalore - KSPCB",22-02-2024 14:00:00,12.889250,74.853000,CO,32,41,35
India,Karnataka,Raichur,"Haji Colony, Raichur - KSPCB",22-02-2024 14:00:00,16.208139,77.348417,PM10,51,457,148
India,Karnataka,Raichur,"Haji Colony, Raichur - KSPCB",22-02-2024 14:00:00,16.208139,77.348417,SO2,64,86,72
India,Karnataka,Ramanagara,"Vijay Nagar, Ramanagara - KSPCB",22-02-2024 14:00:00,12.733409,77.298051,PM2.5,23,166,66
India,Karnataka,Ramanagara,"Vijay Nagar, Ramanagara - KSPCB",22-02-2024 14:00:00,12.733409,77.298051,PM10,24,93,50
India,Karnataka,Ramanagara,"Vijay Nagar, Ramanagara - KSPCB",22-02-2024 14:00:00,12.733409,77.298051,NO2,3,14,6
India,Karnataka,Tumakuru,"Thimmalapura, Tumakuru - KSPCB",22-02-2024 14:00:00,13.377516,77.099072,PM10,15,36,24
India,Kerala,Eloor,"Udyogamandal, Eloor - Kerala PCB",22-02-2024 14:00:00,10.073232,76.302765,NO2,4,4,4
India,Kerala,Kannur,"Thavakkara, Kannur - Kerala PCB",22-02-2024 14:00:00,11.875000,75.373200,SO2,5,7,6
India,Madhya Pradesh,Bhopal,"Idgah Hills, Bhopal - MPPCB",22-02-2024 14:00:00,23.264759,77.381568,OZONE,27,78,59
India,Madhya Pradesh,Bhopal,"Paryavaran Parisar, Bhopal - MPPCB",22-02-2024 14:00:00,23.210494,77.425409,CO,27,32,31
India,Madhya Pradesh,Bhopal,"T T Nagar, Bhopal - MPPCB",22-02-2024 14:00:00,23.233584,77.400574,PM10,86,142,109
India,Madhya Pradesh,Gwalior,"City Center, Gwalior - MPPCB",22-02-2024 14:00:00,26.203442,78.193251,NO2,15,59,33
India,Madhya Pradesh,Gwalior,"Deen Dayal Nagar, Gwalior - MPPCB",22-02-2024 14:00:00,26.259242,78.216432,NO2,NA,NA,NA
India,Madhya Pradesh,Gwalior,"Maharaj Bada, Gwalior - MPPCB",22-02-2024 14:00:00,26.200388,78.147714,PM2.5,33,203,81
India,Madhya Pradesh,Gwalior,"Maharaj Bada, Gwalior - MPPCB",22-02-2024 14:00:00,26.200388,78.147714,PM10,81,210,140
India,Madhya Pradesh,Indore,"Chhoti Gwaltoli, Indore - MPPCB",22-02-2024 14:00:00,22.4310,75.5213,PM2.5,45,94,70
India,Madhya Pradesh,Indore,"Maguda Nagar, Indore - IMC",22-02-2024 14:00:00,22.7524,75.8872,PM2.5,37,74,54
India,Madhya Pradesh,Indore,"Maguda Nagar, Indore - IMC",22-02-2024 14:00:00,22.7524,75.8872,NH3,1,1,1
India,Madhya Pradesh,Indore,"Maguda Nagar, Indore - IMC",22-02-2024 14:00:00,22.7524,75.8872,OZONE,37,45,38
India,Madhya Pradesh,Indore,"Regional Park, Indore - IMC",22-02-2024 14:00:00,22.6780,75.8559,PM2.5,46,85,57
India,Madhya Pradesh,Indore,"Residency Area, Indore - IMC",22-02-2024 14:00:00,22.7084,75.8815,CO,12,14,12
India,Madhya Pradesh,Jabalpur,"Marhatal, Jabalpur - MPPCB",22-02-2024 14:00:00,23.168606,79.932247,NO2,14,65,30
India,Madhya Pradesh,Jabalpur,"Suhagi, Jabalpur - JMC",22-02-2024 14:00:00,23.218135,79.957770,PM2.5,22,163,54
India,Madhya Pradesh,Jabalpur,"Suhagi, Jabalpur - JMC",22-02-2024 14:00:00,23.218135,79.957770,PM10,18,107,43
India,Madhya Pradesh,Maihar,"Sahilara, Maihar - KJS Cements",22-02-2024 14:00:00,24.2613009,80.7231783,PM10,8,76,26
India,Madhya Pradesh,Pithampur,"Sector-2 Industrial Area, Pithampur - MPPCB",22-02-2024 14:00:00,22.624758,75.675238,NO2,7,26,17
India,Madhya Pradesh,Pithampur,"Sector-2 Industrial Area, Pithampur - MPPCB",22-02-2024 14:00:00,22.624758,75.675238,OZONE,17,61,45
India,Madhya Pradesh,Ratlam,"Shasthri Nagar, Ratlam - IPCA Lab",22-02-2024 14:00:00,23.331731,75.045981,NO2,NA,NA,NA
India,Madhya Pradesh,Sagar,"Civil Lines, Sagar - MPPCB",22-02-2024 14:00:00,23.838586,78.759431,PM2.5,40,114,58
India,Madhya Pradesh,Singrauli,"Suryakiran Bhawan NCL, Singrauli - MPPCB",22-02-2024 14:00:00,24.108970,82.645580,PM2.5,51,253,105
India,Maharashtra,Ahmednagar,"Tarakpur, Ahmednagar - MPCB",22-02-2024 14:00:00,19.10122,74.73339,PM2.5,33,89,61
India,Maharashtra,Ahmednagar,"Tarakpur, Ahmednagar - MPCB",22-02-2024 14:00:00,19.10122,74.73339,CO,6,48,25
India,Maharashtra,Amravati,"Shri Shivaji Science College, Amaravati - MPCB",22-02-2024 14:00:00,20.939198,77.765701,CO,43,65,49
India,Maharashtra,Aurangabad,"MIDC Chilkalthana, Aurangabad - MPCB",22-02-2024 14:00:00,19.875620,75.387310,PM10,63,115,82
India,Maharashtra,Aurangabad,"MIDC Chilkalthana, Aurangabad - MPCB",22-02-2024 14:00:00,19.875620,75.387310,SO2,3,11,6
India,Maharashtra,Aurangabad,"More Chowk Waluj, Aurangabad - MPCB",22-02-2024 14:00:00,19.8389439,75.244448,NH3,1,1,1
India,Maharashtra,Aurangabad,"More Chowk Waluj, Aurangabad - MPCB",22-02-2024 14:00:00,19.8389439,75.244448,CO,11,30,19
India,Maharashtra,Aurangabad,"Rachnakar Colony, Aurangabad - MPCB",22-02-2024 14:00:00,19.863756,75.321188,NH3,2,2,2
India,Maharashtra,Belapur,"CBD Belapur, Belapur - MPCB",22-02-2024 14:00:00,19.0243902,73.0406721,PM10,55,111,82
India,Maharashtra,Bhiwandi,"Gokul Nagar, Bhiwandi - MPCB",22-02-2024 14:00:00,19.309073,73.057223,CO,8,82,24
India,Maharashtra,Boisar,"Khaira, Boisar - MPCB",22-02-2024 14:00:00,19.786089,72.757971,PM10,NA,NA,NA
India,Maharashtra,Boisar,"Khaira, Boisar - MPCB",22-02-2024 14:00:00,19.786089,72.757971,NO2,NA,NA,NA
India,Maharashtra,Boisar,"Khaira, Boisar - MPCB",22-02-2024 14:00:00,19.786089,72.757971,CO,12,16,12
India,Maharashtra,Chandrapur,"Chauhan Colony, Chandrapur - MPCB",22-02-2024 14:00:00,19.962900,79.298714,PM2.5,37,209,89
India,Maharashtra,Chandrapur,"Chauhan Colony, Chandrapur - MPCB",22-02-2024 14:00:00,19.962900,79.298714,NH3,1,1,1
India,Maharashtra,Chandrapur,"MIDC Khutala, Chandrapur - MPCB",22-02-2024 14:00:00,19.9775302,79.2337086,OZONE,1,1,1
India,Maharashtra,Dhule,"Deopur, Dhule - MPCB",22-02-2024 14:00:00,20.918946,74.776388,NO2,5,40,9
India,Maharashtra,Jalgaon,"Prabhat Colony, Jalgaon - MPCB",22-02-2024 14:00:00,21.001264,75.565602,NH3,1,2,1
India,Maharashtra,Jalgaon,"Prabhat Colony, Jalgaon - MPCB",22-02-2024 14:00:00,21.001264,75.565602,SO2,4,16,8
India,Maharashtra,Kalyan,"Khadakpada, Kalyan - MPCB",22-02-2024 14:00:00,19.25292,73.142019,PM2.5,13,53,30
India,Maharashtra,Kalyan,"Khadakpada, Kalyan - MPCB",22-02-2024 14:00:00,19.25292,73.142019,NO2,31,45,38
India,Maharashtra,Kalyan,"Khadakpada, Kalyan - MPCB",22-02-2024 14:00:00,19.25292,73.142019,SO2,27,39,33
India,Maharashtra,Kolhapur,"Sinchan Bhavan, Kolhapur - MPCB",22-02-2024 14:00:00,16.7143745,74.2426398,CO,2,54,22
India,Maharashtra,Latur,"Sawe Wadi, Latur - MPCB",22-02-2024 14:00:00,18.39963,76.57452,NH3,8,8,8
India,Maharashtra,Latur,"Sawe Wadi, Latur - MPCB",22-02-2024 14:00:00,18.39963,76.57452,SO2,3,10,6
India,Maharashtra,Latur,"Sawe Wadi, Latur - MPCB",22-02-2024 14:00:00,18.39963,76.57452,CO,8,87,16
India,Maharashtra,Mahad,"Kamble Tarf Birwadi, Mahad - MPCB",22-02-2024 14:00:00,18.1023399,73.4783687,NH3,10,10,10
India,Maharashtra,Mahad,"Kamble Tarf Birwadi, Mahad - MPCB",22-02-2024 14:00:00,18.1023399,73.4783687,CO,12,45,16
India,Maharashtra,Malegaon,"Mahesh Nagar, Malegaon - MPCB",22-02-2024 14:00:00,20.555712,74.529236,OZONE,17,82,50
India,Maharashtra,Mira-Bhayandar,"Bhayandar West, Mira-Bhayandar - MPCB",22-02-2024 14:00:00,19.296481,72.840923,PM2.5,22,143,45
India,Maharashtra,Mira-Bhayandar,"Bhayandar West, Mira-Bhayandar - MPCB",22-02-2024 14:00:00,19.296481,72.840923,CO,12,48,26
India,Maharashtra,Mumbai,"Byculla, Mumbai - BMC",22-02-2024 14:00:00,18.9767,72.8380,PM10,19,78,39
India,Maharashtra,Mumbai,"Byculla, Mumbai - BMC",22-02-2024 14:00:00,18.9767,72.8380,SO2,1,2,1
India,Maharashtra,Mumbai,"Chakala-Andheri East, Mumbai - IITM",22-02-2024 14:00:00,19.11074,72.86084,PM2.5,18,71,40
India,Maharashtra,Mumbai,"Chakala-Andheri East, Mumbai - IITM",22-02-2024 14:00:00,19.11074,72.86084,SO2,2,20,10
India,Maharashtra,Mumbai,"Chembur, Mumbai - MPCB",22-02-2024 14:00:00,19.0364585,72.8954371,OZONE,1,68,30
India,Maharashtra,Mumbai,"Chhatrapati Shivaji Intl. Airport (T2), Mumbai - MPCB",22-02-2024 14:00:00,19.10078,72.87462,NO2,2,39,18
India,Maharashtra,Mumbai,"Chhatrapati Shivaji Intl. Airport (T2), Mumbai - MPCB",22-02-2024 14:00:00,19.10078,72.87462,NH3,1,5,3
India,Maharashtra,Mumbai,"Chhatrapati Shivaji Intl. Airport (T2), Mumbai - MPCB",22-02-2024 14:00:00,19.10078,72.87462,SO2,19,27,23
India,Maharashtra,Mumbai,"Colaba, Mumbai - MPCB",22-02-2024 14:00:00,18.910000,72.820000,PM10,25,108,49
India,Maharashtra,Mumbai,"Colaba, Mumbai - MPCB",22-02-2024 14:00:00,18.910000,72.820000,OZONE,10,11,11
India,Maharashtra,Mumbai,"Kandivali East, Mumbai - MPCB",22-02-2024 14:00:00,19.205800,72.868200,NH3,4,6,5
India,Maharashtra,Mumbai,"Kandivali East, Mumbai - MPCB",22-02-2024 14:00:00,19.205800,72.868200,SO2,66,72,69
India,Maharashtra,Mumbai,"Kherwadi_Bandra East, Mumbai - MPCB",22-02-2024 14:00:00,19.0632143,72.8456324,NH3,1,2,1
India,Maharashtra,Mumbai,"Khindipada-Bhandup West, Mumbai - IITM",22-02-2024 14:00:00,19.1653323,72.922099,PM2.5,31,92,49
India,Maharashtra,Mumbai,"Kurla, Mumbai - MPCB",22-02-2024 14:00:00,19.0863,72.8888,OZONE,28,29,29
India,Maharashtra,Mumbai,"Malad West, Mumbai - IITM",22-02-2024 14:00:00,19.19709,72.82204,PM2.5,46,80,60
India,Maharashtra,Mumbai,"Mazgaon, Mumbai - IITM",22-02-2024 14:00:00,18.96702,72.84214,PM10,49,156,106
India,Maharashtra,Mumbai,"Mazgaon, Mumbai - IITM",22-02-2024 14:00:00,18.96702,72.84214,NO2,18,45,26
India,Maharashtra,Mumbai,"Mazgaon, Mumbai - IITM",22-02-2024 14:00:00,18.96702,72.84214,OZONE,5,64,27
India,Maharashtra,Mumbai,"Mindspace-Malad West, Mumbai - MPCB",22-02-2024 14:00:00,19.1878657,72.8304069,NH3,2,4,3
India,Maharashtra,Mumbai,"Mulund West, Mumbai - MPCB",22-02-2024 14:00:00,19.1750,72.9419,NH3,9,10,10
India,Maharashtra,Mumbai,"Navy Nagar-Colaba, Mumbai - IITM",22-02-2024 14:00:00,18.897756,72.813320,CO,2,62,28
India,Maharashtra,Mumbai,"Navy Nagar-Colaba, Mumbai - IITM",22-02-2024 14:00:00,18.897756,72.813320,OZONE,2,43,21
India,Maharashtra,Mumbai,"Powai, Mumbai - MPCB",22-02-2024 14:00:00,19.137500,72.915056,NH3,NA,NA,NA
India,Maharashtra,Mumbai,"Powai, Mumbai - MPCB",22-02-2024 14:00:00,19.137500,72.915056,CO,NA,NA,NA
India,Maharashtra,Mumbai,"Shivaji Nagar, Mumbai - BMC",22-02-2024 14:00:00,19.060498,72.923356,PM2.5,29,51,39
India,Maharashtra,Mumbai,"Sion, Mumbai - MPCB",22-02-2024 14:00:00,19.047000,72.874600,PM10,25,100,51
India,Maharashtra,Mumbai,"Sion, Mumbai - MPCB",22-02-2024 14:00:00,19.047000,72.874600,NH3,NA,NA,NA
India,Maharashtra,Mumbai,"Sion, Mumbai - MPCB",22-02-2024 14:00:00,19.047000,72.874600,SO2,36,40,37
India,Maharashtra,Mumbai,"Vasai West, Mumbai - MPCB",22-02-2024 14:00:00,19.383200,72.820400,CO,24,46,32
India,Maharashtra,Mumbai,"Worli, Mumbai - MPCB",22-02-2024 14:00:00,18.9936162,72.8128113,PM10,NA,NA,NA
India,Maharashtra,Nagpur,"Mahal, Nagpur - MPCB",22-02-2024 14:00:00,21.14472,79.107595,PM2.5,27,60,42
India,Maharashtra,Nagpur,"Mahal, Nagpur - MPCB",22-02-2024 14:00:00,21.14472,79.107595,CO,18,88,37
India,Maharashtra,Nagpur,"Mahal, Nagpur - MPCB",22-02-2024 14:00:00,21.14472,79.107595,OZONE,4,75,60
India,Maharashtra,Nagpur,"Opp GPO Civil Lines, Nagpur - MPCB",22-02-2024 14:00:00,21.152875,79.0517531,PM10,47,114,70
India,Maharashtra,Nagpur,"Opp GPO Civil Lines, Nagpur - MPCB",22-02-2024 14:00:00,21.152875,79.0517531,SO2,4,22,11
India,Maharashtra,Nagpur,"Ram Nagar, Nagpur - MPCB",22-02-2024 14:00:00,21.143383,79.048912,NH3,2,5,4
India,Maharashtra,Nashik,"MIDC Ambad, Nashik - MPCB",22-02-2024 14:00:00,19.950220,73.731480,CO,16,53,24
India,Maharashtra,Nashik,"Pandav Nagari, Nashik - MPCB",22-02-2024 14:00:00,19.9591346,73.7788008,OZONE,37,65,53
India,Maharashtra,Navi Mumbai,"Mahape, Navi Mumbai - MPCB",22-02-2024 14:00:00,19.1135051,73.008978,PM2.5,24,254,65
India,Maharashtra,Navi Mumbai,"Mahape, Navi Mumbai - MPCB",22-02-2024 14:00:00,19.1135051,73.008978,NO2,37,39,38
India,Maharashtra,Navi Mumbai,"Nerul, Navi Mumbai - MPCB",22-02-2024 14:00:00,19.008751,73.016620,NH3,NA,NA,NA
India,Maharashtra,Navi Mumbai,"Sanpada, Navi Mumbai - MPCB",22-02-2024 14:00:00,19.0575752,73.0151367,PM10,22,220,81
India,Maharashtra,Navi Mumbai,"Sanpada, Navi Mumbai - MPCB",22-02-2024 14:00:00,19.0575752,73.0151367,NO2,8,30,20
India,Maharashtra,Navi Mumbai,"Sector-19A Nerul, Navi Mumbai - IITM",22-02-2024 14:00:00,19.044,73.0325,PM2.5,35,110,66
India,Maharashtra,Navi Mumbai,"Sector-2E Kalamboli, Navi Mumbai - MPCB",22-02-2024 14:00:00,19.02579,73.10297,NH3,4,28,15
India,Maharashtra,Navi Mumbai,"Tondare-Taloja, Navi Mumbai - MPCB",22-02-2024 14:00:00,19.0630,73.1209,PM2.5,34,161,73
India,Maharashtra,Navi Mumbai,"Tondare-Taloja, Navi Mumbai - MPCB",22-02-2024 14:00:00,19.0630,73.1209,SO2,2,56,30
India,Maharashtra,Navi Mumbai,"Tondare-Taloja, Navi Mumbai - MPCB",22-02-2024 14:00:00,19.0630,73.1209,CO,3,73,29
India,Maharashtra,Parbhani,"Masoom Colony, Parbhani - MPCB",22-02-2024 14:00:00,19.265594,76.761463,PM2.5,39,102,66
India,Maharashtra,Parbhani,"Masoom Colony, Parbhani - MPCB",22-02-2024 14:00:00,19.265594,76.761463,PM10,89,108,98
India,Maharashtra,Parbhani,"Masoom Colony, Parbhani - MPCB",22-02-2024 14:00:00,19.265594,76.761463,CO,6,58,27
India,Maharashtra,Pimpri-Chinchwad,"Park Street Wakad, Pimpri Chinchwad - MPCB",22-02-2024 14:00:00,18.59051,73.77946,SO2,2,12,5
India,Maharashtra,Pune,"Bhosari, Pune - IITM",22-02-2024 14:00:00,18.640051,73.848956,PM10,40,119,80
India,Maharashtra,Pune,"Bhosari, Pune - IITM",22-02-2024 14:00:00,18.640051,73.848956,NO2,11,13,12
India,Maharashtra,Pune,"Karve Road, Pune - MPCB",22-02-2024 14:00:00,18.5011743,73.8165527,NO2,2,2,2
India,Maharashtra,Pune,"Mhada Colony, Pune - IITM",22-02-2024 14:00:00,18.573040,73.927715,PM10,39,90,62
India,Maharashtra,Pune,"Mhada Colony, Pune - IITM",22-02-2024 14:00:00,18.573040,73.927715,OZONE,12,29,18
India,Maharashtra,Pune,"Savitribai Phule Pune University, Pune - MPCB",22-02-2024 14:00:00,18.547056,73.826908,PM2.5,35,80,51
India,Maharashtra,Pune,"Savitribai Phule Pune University, Pune - MPCB",22-02-2024 14:00:00,18.547056,73.826908,NO2,9,28,16
India,Maharashtra,Pune,"Transport Nagar-Nigdi, Pune - IITM",22-02-2024 14:00:00,18.664282,73.763966,CO,45,63,52
India,Maharashtra,Pune,"Transport Nagar-Nigdi, Pune - IITM",22-02-2024 14:00:00,18.664282,73.763966,OZONE,1,65,19
India,Maharashtra,Sangli,"Vijay Nagar, Sangli - MPCB",22-02-2024 14:00:00, 16.5038,74.3623,NO2,44,78,61
India,Maharashtra,Sangli,"Vijay Nagar, Sangli - MPCB",22-02-2024 14:00:00, 16.5038,74.3623,SO2,5,21,12
India,Maharashtra,Sangli,"Vijay Nagar, Sangli - MPCB",22-02-2024 14:00:00, 16.5038,74.3623,OZONE,2,68,30
India,Maharashtra,Solapur,"Ratandeep Housing Society, Solapur - MPCB",22-02-2024 14:00:00,17.65439,75.90649,CO,18,102,35
India,Maharashtra,Thane,"Kasarvadavali, Thane - MPCB",22-02-2024 14:00:00,19.26777,72.97182,NO2,23,66,41
India,Maharashtra,Thane,"Kasarvadavali, Thane - MPCB",22-02-2024 14:00:00,19.26777,72.97182,CO,3,48,26
India,Maharashtra,Thane,"Kasarvadavali, Thane - MPCB",22-02-2024 14:00:00,19.26777,72.97182,OZONE,1,55,23
India,Maharashtra,Thane,"Pimpleshwar Mandir, Thane - MPCB",22-02-2024 14:00:00,19.192056,72.9585188,CO,33,112,86
India,Maharashtra,Thane,"Upvan Fort, Thane - MPCB",22-02-2024 14:00:00,19.222279,72.957979,NH3,11,14,12
India,Maharashtra,Thane,"Upvan Fort, Thane - MPCB",22-02-2024 14:00:00,19.222279,72.957979,SO2,4,16,8
India,Maharashtra,Thane,"Upvan Fort, Thane - MPCB",22-02-2024 14:00:00,19.222279,72.957979,CO,1,44,21
India,Maharashtra,Ulhasnagar,"Sidhi Vinayak Nagar, Ulhasnagar - MPCB",22-02-2024 14:00:00,19.235581,73.159121,NH3,1,1,1
India,Maharashtra,Virar,"Bolinj, Virar - MPCB",22-02-2024 14:00:00,19.4458210,72.7988231,PM10,34,181,92
India,Manipur,Imphal,"DM College of Science, Imphal - Manipur PCB",22-02-2024 14:00:00,24.8207389,93.9423085,PM10,NA,NA,NA
India,Manipur,Imphal,"DM College of Science, Imphal - Manipur PCB",22-02-2024 14:00:00,24.8207389,93.9423085,NO2,7,8,8
India,Manipur,Imphal,"DM College of Science, Imphal - Manipur PCB",22-02-2024 14:00:00,24.8207389,93.9423085,NH3,2,2,2
India,Manipur,Imphal,"DM College of Science, Imphal - Manipur PCB",22-02-2024 14:00:00,24.8207389,93.9423085,SO2,83,87,85
India,Manipur,Imphal,"DM College of Science, Imphal - Manipur PCB",22-02-2024 14:00:00,24.8207389,93.9423085,CO,6,6,6
India,Manipur,Imphal,"Manipur University, Imphal - Manipur PCB",22-02-2024 14:00:00,24.7524239,93.9286218,PM2.5,42,130,69
India,Manipur,Imphal,"Manipur University, Imphal - Manipur PCB",22-02-2024 14:00:00,24.7524239,93.9286218,NO2,7,28,12
India,Manipur,Imphal,"Manipur University, Imphal - Manipur PCB",22-02-2024 14:00:00,24.7524239,93.9286218,OZONE,1,49,17
India,Meghalaya,Shillong,"Lumpyngngad, Shillong - Meghalaya PCB",22-02-2024 14:00:00,25.5586,91.8985,NO2,6,6,6
India,Meghalaya,Shillong,"Lumpyngngad, Shillong - Meghalaya PCB",22-02-2024 14:00:00,25.5586,91.8985,SO2,44,46,45
India,Mizoram,Aizawl,"Sikulpuikawn, Aizawl - Mizoram PCB",22-02-2024 14:00:00,23.7176342,92.7192841,PM2.5,46,83,64
India,Mizoram,Aizawl,"Sikulpuikawn, Aizawl - Mizoram PCB",22-02-2024 14:00:00,23.7176342,92.7192841,NO2,1,2,1
India,Mizoram,Aizawl,"Sikulpuikawn, Aizawl - Mizoram PCB",22-02-2024 14:00:00,23.7176342,92.7192841,CO,10,16,12
India,Mizoram,Aizawl,"Sikulpuikawn, Aizawl - Mizoram PCB",22-02-2024 14:00:00,23.7176342,92.7192841,OZONE,14,62,25
India,Odisha,Angul,"Hakimapada, Angul - OSPCB",22-02-2024 14:00:00,20.832874,85.104082,NO2,8,110,33
India,Odisha,Angul,"Hakimapada, Angul - OSPCB",22-02-2024 14:00:00,20.832874,85.104082,SO2,11,135,35
India,Odisha,Barbil,"Forest Office, Barbil - OSPCB",22-02-2024 14:00:00,22.1166054,85.3945546,PM2.5,55,253,122
India,Odisha,Barbil,"Forest Office, Barbil - OSPCB",22-02-2024 14:00:00,22.1166054,85.3945546,SO2,1,22,8
India,Odisha,Barbil,"Forest Office, Barbil - OSPCB",22-02-2024 14:00:00,22.1166054,85.3945546,CO,22,111,41
India,Odisha,Baripada,"Meher Colony, Baripada - OSPCB",22-02-2024 14:00:00,21.941841,86.728318,NH3,4,4,4
India,Odisha,Bhubaneswar,"Lingraj Mandir, Bhubaneswar - OSPCB",22-02-2024 14:00:00,20.240790,85.836784,PM10,46,169,99
India,Odisha,Bhubaneswar,"Lingraj Mandir, Bhubaneswar - OSPCB",22-02-2024 14:00:00,20.240790,85.836784,SO2,1,14,6
India,Odisha,Bileipada,"Tata Township, Bileipada - OSPCB",22-02-2024 14:00:00,22.06156703,85.47409613,PM2.5,76,242,148
India,Odisha,Bileipada,"Tata Township, Bileipada - OSPCB",22-02-2024 14:00:00,22.06156703,85.47409613,NH3,11,11,11
India,Odisha,Bileipada,"Tata Township, Bileipada - OSPCB",22-02-2024 14:00:00,22.06156703,85.47409613,SO2,9,99,24
India,Odisha,Brajrajnagar,"GM Office, Brajrajnagar - OSPCB",22-02-2024 14:00:00,21.8004996,83.8396977,PM2.5,7,222,76
India,Odisha,Byasanagar,"Ferro Chrome Colony, Byasanagar - OSPCB",22-02-2024 14:00:00,20.94185,86.11510,PM10,77,179,118
India,Odisha,Byasanagar,"Ferro Chrome Colony, Byasanagar - OSPCB",22-02-2024 14:00:00,20.94185,86.11510,CO,40,116,81
India,Odisha,Byasanagar,"Ferro Chrome Colony, Byasanagar - OSPCB",22-02-2024 14:00:00,20.94185,86.11510,OZONE,9,160,70
India,Odisha,Cuttack,"CDA Area, Cuttack - OSPCB",22-02-2024 14:00:00,20.48891     ,85.84768     ,NO2,NA,NA,NA
India,Odisha,Keonjhar,"Jagamohanpur, Keonjhar - OSPCB",22-02-2024 14:00:00,21.643900,85.599355,PM2.5,61,89,76
India,Odisha,Keonjhar,"Jagamohanpur, Keonjhar - OSPCB",22-02-2024 14:00:00,21.643900,85.599355,NO2,16,101,42
India,Odisha,Keonjhar,"Jagamohanpur, Keonjhar - OSPCB",22-02-2024 14:00:00,21.643900,85.599355,SO2,15,20,17
India,Odisha,Rourkela,"Fertilizer Township, Rourkela - OSPCB",22-02-2024 14:00:00,22.18972222,84.86277778,NO2,NA,NA,NA
India,Odisha,Rourkela,"Sector-2, Rourkela - OSPCB",22-02-2024 14:00:00,22.24500000,84.88111111,PM10,NA,NA,NA
India,Odisha,Suakati,"OMC Colony, Suakati - OSPCB",22-02-2024 14:00:00,21.606865,85.510538,SO2,4,20,8
India,Odisha,Talcher,"Talcher Coalfields,Talcher - OSPCB",22-02-2024 14:00:00,20.9360711,85.1707021,NO2,32,48,37
India,Odisha,Tensa,"Barsua Iron Ore Mines, Tensa - OSPCB",22-02-2024 14:00:00,21.869985,85.167016,PM10,60,85,74
India,Odisha,Tensa,"Barsua Iron Ore Mines, Tensa - OSPCB",22-02-2024 14:00:00,21.869985,85.167016,OZONE,25,66,37
India,Puducherry,Puducherry,"Jawahar Nagar, Puducherry - PPCC",22-02-2024 14:00:00,11.9309,79.8027,CO,19,53,31
India,Puducherry,Puducherry,"Jawahar Nagar, Puducherry - PPCC",22-02-2024 14:00:00,11.9309,79.8027,OZONE,11,80,38
India,Punjab,Amritsar,"Golden Temple, Amritsar - PPCB",22-02-2024 14:00:00,31.620000,74.876512,PM10,30,166,86
India,Punjab,Bathinda,"Hardev Nagar, Bathinda - PPCB",22-02-2024 14:00:00,30.233011,74.907758,PM2.5,7,68,35
India,Punjab,Jalandhar,"Civil Line, Jalandhar - PPCB",22-02-2024 14:00:00,31.321907,75.578914,PM2.5,30,100,64
India,Punjab,Jalandhar,"Civil Line, Jalandhar - PPCB",22-02-2024 14:00:00,31.321907,75.578914,PM10,46,140,102
India,Punjab,Khanna,"Kalal Majra, Khanna - PPCB",22-02-2024 14:00:00,30.736056 ,76.209694,PM2.5,22,99,72
India,Punjab,Khanna,"Kalal Majra, Khanna - PPCB",22-02-2024 14:00:00,30.736056 ,76.209694,NH3,12,21,15
India,Punjab,Mandi Gobindgarh,"RIMT University, Mandi Gobindgarh - PPCB",22-02-2024 14:00:00,30.649961,76.331442,NO2,26,31,31
India,Punjab,Mandi Gobindgarh,"RIMT University, Mandi Gobindgarh - PPCB",22-02-2024 14:00:00,30.649961,76.331442,SO2,1,27,7
India,Punjab,Patiala,"Model Town, Patiala - PPCB",22-02-2024 14:00:00,30.349388,76.366642,NH3,1,3,2
India,Punjab,Patiala,"Model Town, Patiala - PPCB",22-02-2024 14:00:00,30.349388,76.366642,SO2,3,102,14
India,Punjab,Patiala,"Model Town, Patiala - PPCB",22-02-2024 14:00:00,30.349388,76.366642,CO,35,53,43
India,Punjab,Rupnagar,"Ratanpura, Rupnagar - Ambuja Cements",22-02-2024 14:00:00,31.0325454,76.5623046,CO,32,53,36
India,Rajasthan,Ajmer,"Civil Lines,  Ajmer - RSPCB",22-02-2024 14:00:00,26.470859,74.646594,PM10,77,135,108
India,Rajasthan,Alwar,"Moti Doongri, Alwar - RSPCB",22-02-2024 14:00:00,27.554793,76.611536,PM2.5,36,79,53
India,Rajasthan,Alwar,"Moti Doongri, Alwar - RSPCB",22-02-2024 14:00:00,27.554793,76.611536,NO2,35,49,43
India,Rajasthan,Baran,"Bamboliya, Baran - RSPCB",22-02-2024 14:00:00,25.106006,76.469948,SO2,8,15,10
India,Rajasthan,Barmer,"Railway Colony, Barmer - RSPCB",22-02-2024 14:00:00,25.747299,71.393989,PM10,61,143,109
India,Rajasthan,Barmer,"Railway Colony, Barmer - RSPCB",22-02-2024 14:00:00,25.747299,71.393989,NH3,4,8,5
India,Rajasthan,Barmer,"Railway Colony, Barmer - RSPCB",22-02-2024 14:00:00,25.747299,71.393989,OZONE,59,109,86
India,Rajasthan,Bharatpur,"Krishna Nagar, Bharatpur - RSPCB",22-02-2024 14:00:00,27.215415,77.50873,CO,2,78,26
India,Rajasthan,Bharatpur,"Krishna Nagar, Bharatpur - RSPCB",22-02-2024 14:00:00,27.215415,77.50873,OZONE,25,95,66
India,Rajasthan,Bhilwara,"Pratap Nagar, Bhilwara - RSPCB",22-02-2024 14:00:00,25.339605,74.618883,NH3,1,7,2
India,Rajasthan,Bhilwara,"Pratap Nagar, Bhilwara - RSPCB",22-02-2024 14:00:00,25.339605,74.618883,OZONE,25,74,48
India,Rajasthan,Bikaner,"MM Ground, Bikaner - RSPCB",22-02-2024 14:00:00,28.018792,73.292658,CO,16,66,52
India,Rajasthan,Bikaner,"MM Ground, Bikaner - RSPCB",22-02-2024 14:00:00,28.018792,73.292658,OZONE,20,68,44
India,Rajasthan,Bundi,"New Colony, Bundi - RSPCB",22-02-2024 14:00:00,25.435774,75.644272,SO2,2,8,5
India,Rajasthan,Chittorgarh,"Shastri Nagar, Chittorgarh - RSPCB",22-02-2024 14:00:00,24.892047,74.623527,PM2.5,14,148,52
India,Rajasthan,Churu,"Subash Chowk, Churu - RSPCB",22-02-2024 14:00:00,28.296139,74.961696,NH3,9,15,12
India,Rajasthan,Dausa,"Khatikan Mohalla, Dausa - RSPCB",22-02-2024 14:00:00,26.895552,76.334753,CO,10,132,65
India,Rajasthan,Dausa,"Khatikan Mohalla, Dausa - RSPCB",22-02-2024 14:00:00,26.895552,76.334753,OZONE,54,82,72
India,Rajasthan,Dholpur,"Raja Ganj, Dholpur - RSPCB",22-02-2024 14:00:00,26.699557,77.898881,PM2.5,17,277,153
India,Rajasthan,Dholpur,"Raja Ganj, Dholpur - RSPCB",22-02-2024 14:00:00,26.699557,77.898881,CO,16,66,27
India,Rajasthan,Dungarpur,"Bhoiwada, Dungarpur - RSPCB",22-02-2024 14:00:00,23.837789,73.714926,PM10,75,159,112
India,Rajasthan,Dungarpur,"Bhoiwada, Dungarpur - RSPCB",22-02-2024 14:00:00,23.837789,73.714926,NO2,1,14,5
India,Rajasthan,Dungarpur,"Bhoiwada, Dungarpur - RSPCB",22-02-2024 14:00:00,23.837789,73.714926,NH3,10,12,11
India,Rajasthan,Hanumangarh,"Housing Board, Hanumangarh - RSPCB",22-02-2024 14:00:00,29.610750,74.283608,CO,10,104,51
India,Rajasthan,Jaipur,"Adarsh Nagar, Jaipur - RSPCB",22-02-2024 14:00:00,26.902909,75.836858,NO2,38,127,67
India,Rajasthan,Jaipur,"Police Commissionerate, Jaipur - RSPCB",22-02-2024 14:00:00,26.9164092,75.7994901,SO2,12,27,20
India,Rajasthan,Jaipur,"RIICO Sitapura, Jaipur - RSPCB",22-02-2024 14:00:00,26.786682,75.827928,NH3,2,11,4
India,Rajasthan,Jaipur,"Sector-2 Murlipura, Jaipur - RSPCB",22-02-2024 14:00:00,26.960669,75.771817,NO2,7,33,16
India,Rajasthan,Jaipur,"Shastri Nagar, Jaipur - RSPCB",22-02-2024 14:00:00,26.9502929,75.730943,NO2,2,90,22
India,Rajasthan,Jaisalmer,"Sadar Bazar, Jaisalmer - RSPCB",22-02-2024 14:00:00,26.912329,70.909168,NO2,2,57,23
India,Rajasthan,Jaisalmer,"Sadar Bazar, Jaisalmer - RSPCB",22-02-2024 14:00:00,26.912329,70.909168,OZONE,21,91,64
India,Rajasthan,Jhalawar,"Rajlaxmi Nagar, Jhalawar - RSPCB",22-02-2024 14:00:00,24.588397,76.172782,PM2.5,14,72,37
India,Rajasthan,Jhalawar,"Rajlaxmi Nagar, Jhalawar - RSPCB",22-02-2024 14:00:00,24.588397,76.172782,NO2,7,24,13
India,Rajasthan,Jhunjhunu,"Indra Nagar, Jhunjhunu - RSPCB",22-02-2024 14:00:00,28.108988,75.386577,PM10,66,236,137
India,Rajasthan,Jhunjhunu,"Indra Nagar, Jhunjhunu - RSPCB",22-02-2024 14:00:00,28.108988,75.386577,NH3,31,44,36
India,Rajasthan,Jhunjhunu,"Indra Nagar, Jhunjhunu - RSPCB",22-02-2024 14:00:00,28.108988,75.386577,SO2,2,14,5
India,Rajasthan,Jhunjhunu,"Indra Nagar, Jhunjhunu - RSPCB",22-02-2024 14:00:00,28.108988,75.386577,OZONE,21,85,51
India,Rajasthan,Jodhpur,"Collectorate, Jodhpur - RSPCB",22-02-2024 14:00:00,26.268249,73.0193853,SO2,2,54,19
India,Rajasthan,Jodhpur,"Collectorate, Jodhpur - RSPCB",22-02-2024 14:00:00,26.268249,73.0193853,CO,24,90,67
India,Rajasthan,Jodhpur,"Digari Kalan, Jodhpur - RSPCB",22-02-2024 14:00:00,26.295810,73.082283,PM10,70,153,112
India,Rajasthan,Jodhpur,"Digari Kalan, Jodhpur - RSPCB",22-02-2024 14:00:00,26.295810,73.082283,SO2,1,12,4
India,Rajasthan,Jodhpur,"Mandor, Jodhpur - RSPCB",22-02-2024 14:00:00,26.358805,73.047444,OZONE,50,90,66
India,Rajasthan,Kota,"Nayapura, Kota - RSPCB",22-02-2024 14:00:00,25.196024,75.855668,OZONE,10,111,61
India,Rajasthan,Kota,"Shrinath Puram, Kota - RSPCB",22-02-2024 14:00:00,25.14389,75.821256,PM2.5,92,287,157
India,Rajasthan,Pali,"Indira Colony Vistar, Pali - RSPCB",22-02-2024 14:00:00,25.771061, 73.340227,NH3,6,16,14
India,Rajasthan,Pratapgarh,"Pragati Nagar, Pratapgarh - RSPCB",22-02-2024 14:00:00,24.041198,74.780702,NO2,10,28,19
India,Rajasthan,Rajsamand,"Dhoinda, Rajsamand - RSPCB",22-02-2024 14:00:00,25.036360,73.883502,PM10,45,92,69
India,Rajasthan,Rajsamand,"Dhoinda, Rajsamand - RSPCB",22-02-2024 14:00:00,25.036360,73.883502,SO2,2,7,4
India,Rajasthan,Rajsamand,"Dhoinda, Rajsamand - RSPCB",22-02-2024 14:00:00,25.036360,73.883502,OZONE,16,44,27
India,Rajasthan,Sawai Madhopur,"Sahu Nagar, Sawai Madhopur - RSPCB",22-02-2024 14:00:00,26.031443,76.359327,NH3,1,33,16
India,Rajasthan,Sawai Madhopur,"Sahu Nagar, Sawai Madhopur - RSPCB",22-02-2024 14:00:00,26.031443,76.359327,CO,20,66,26
India,Rajasthan,Sikar,"Radhakishan Pura, Sikar - RSPCB",22-02-2024 14:00:00,27.608912,75.153302,PM10,76,139,115
India,Rajasthan,Sirohi,"Vedhaynath Colony, Sirohi - RSPCB",22-02-2024 14:00:00,24.885261,72.857549,CO,23,62,42
India,Rajasthan,Sri Ganganagar,"Old City, Sri Ganganagar - RSPCB",22-02-2024 14:00:00,29.931624,73.864511,PM10,129,420,204
India,Rajasthan,Sri Ganganagar,"Old City, Sri Ganganagar - RSPCB",22-02-2024 14:00:00,29.931624,73.864511,OZONE,5,76,38
India,Rajasthan,Tonk,"Shastri Nagar, Tonk - RSPCB",22-02-2024 14:00:00,26.159933,75.780517,CO,2,102,22
India,Sikkim,Gangtok,"Zero Point GICI, Gangtok - SSPCB",22-02-2024 14:00:00,27.338530,88.614099,PM10,37,81,62
India,TamilNadu,Chennai,"Alandur Bus Depot, Chennai - CPCB",22-02-2024 14:00:00,12.9099161,80.1076538,OZONE,1,8,4
India,TamilNadu,Chennai,"Arumbakkam, Chennai - TNPCB",22-02-2024 14:00:00,13.0664,80.2112 ,PM2.5,56,126,72
India,TamilNadu,Chennai,"Arumbakkam, Chennai - TNPCB",22-02-2024 14:00:00,13.0664,80.2112 ,NO2,14,29,22
India,TamilNadu,Chennai,"Arumbakkam, Chennai - TNPCB",22-02-2024 14:00:00,13.0664,80.2112 ,SO2,2,7,4
India,TamilNadu,Chennai,"Kodungaiyur, Chennai - TNPCB",22-02-2024 14:00:00,13.1278,80.2642,SO2,2,13,7
India,TamilNadu,Chennai,"Manali, Chennai - CPCB",22-02-2024 14:00:00,13.164544,80.26285,PM2.5,40,128,65
India,TamilNadu,Chennai,"Perungudi, Chennai - TNPCB",22-02-2024 14:00:00,12.9533,80.2357,NO2,5,10,7
India,TamilNadu,Chennai,"Perungudi, Chennai - TNPCB",22-02-2024 14:00:00,12.9533,80.2357,OZONE,5,10,8
India,TamilNadu,Chennai,"Velachery Res. Area, Chennai - CPCB",22-02-2024 14:00:00,13.0052189,80.2398125,NO2,28,65,42
India,TamilNadu,Chennai,"Velachery Res. Area, Chennai - CPCB",22-02-2024 14:00:00,13.0052189,80.2398125,NH3,9,19,13
India,TamilNadu,Chennai,"Velachery Res. Area, Chennai - CPCB",22-02-2024 14:00:00,13.0052189,80.2398125,OZONE,11,31,18
India,TamilNadu,Coimbatore,"PSG College of Arts and Science, Coimbatore - TNPCB",22-02-2024 14:00:00,11.0328,77.0349,SO2,13,23,17
India,TamilNadu,Cuddalore,"Kudikadu, Cuddalore - TNPCB",22-02-2024 14:00:00,11.6829898,79.7532099,NO2,19,27,24
India,TamilNadu,Gummidipoondi,"Anthoni Pillai Nagar, Gummidipoondi - TNPCB",22-02-2024 14:00:00,13.4127,80.1081,PM2.5,44,318,123
India,TamilNadu,Kanchipuram,"Kilambi, Kanchipuram - TNPCB",22-02-2024 14:00:00,12.864618,79.659968,PM2.5,NA,NA,NA
India,TamilNadu,Kanchipuram,"Kilambi, Kanchipuram - TNPCB",22-02-2024 14:00:00,12.864618,79.659968,OZONE,45,55,50
India,TamilNadu,Palkalaiperur,"Bharathidasan University, Palkalaiperur - TNPCB",22-02-2024 14:00:00,10.681158,78.741746,PM2.5,32,50,40
India,TamilNadu,Palkalaiperur,"Bharathidasan University, Palkalaiperur - TNPCB",22-02-2024 14:00:00,10.681158,78.741746,PM10,40,63,50
India,TamilNadu,Salem,"Sona College of Technology, Salem - TNPCB",22-02-2024 14:00:00,11.679111,78.125052,PM10,62,114,81
India,TamilNadu,Thoothukudi,"Meelavittan, Thoothukudi - TNPCB",22-02-2024 14:00:00,8.816428 ,78.099039,PM10,58,153,85
India,TamilNadu,Thoothukudi,"Meelavittan, Thoothukudi - TNPCB",22-02-2024 14:00:00,8.816428 ,78.099039,SO2,7,16,12
India,TamilNadu,Tirupur,"Kumaran College, Tirupur - TNPCB",22-02-2024 14:00:00,11.0973603,77.3228673,PM10,46,264,116
India,TamilNadu,Tirupur,"Kumaran College, Tirupur - TNPCB",22-02-2024 14:00:00,11.0973603,77.3228673,NO2,6,59,18
India,TamilNadu,Vellore,"Vasanthapuram, Vellore - TNPCB",22-02-2024 14:00:00,12.909494,79.131861,SO2,NA,NA,NA
India,TamilNadu,Virudhunagar,"Collectorate Office, Virudhunagar - TNPCB",22-02-2024 14:00:00,9.559382,77.948828,NH3,2,3,2
India,Telangana,Hyderabad,"Central University, Hyderabad - TSPCB",22-02-2024 14:00:00,17.460103,78.334361,PM10,63,144,97
India,Telangana,Hyderabad,"Central University, Hyderabad - TSPCB",22-02-2024 14:00:00,17.460103,78.334361,CO,15,84,36
India,Telangana,Hyderabad,"Central University, Hyderabad - TSPCB",22-02-2024 14:00:00,17.460103,78.334361,OZONE,3,4,4
India,Telangana,Hyderabad,"ECIL Kapra, Hyderabad - TSPCB",22-02-2024 14:00:00,17.470431,78.566959,NO2,7,10,7
India,Telangana,Hyderabad,"ICRISAT Patancheru, Hyderabad - TSPCB",22-02-2024 14:00:00,17.518400,78.278777,NO2,14,17,16
India,Telangana,Hyderabad,"ICRISAT Patancheru, Hyderabad - TSPCB",22-02-2024 14:00:00,17.518400,78.278777,NH3,2,2,2
India,Telangana,Hyderabad,"IITH Kandi, Hyderabad - TSPCB",22-02-2024 14:00:00,17.585705,78.126199,NO2,NA,NA,NA
India,Telangana,Hyderabad,"Kokapet, Hyderabad - TSPCB",22-02-2024 14:00:00,17.393559,78.339194,PM10,73,99,83
India,Telangana,Hyderabad,"Kokapet, Hyderabad - TSPCB",22-02-2024 14:00:00,17.393559,78.339194,NO2,4,10,6
India,Telangana,Hyderabad,"Kokapet, Hyderabad - TSPCB",22-02-2024 14:00:00,17.393559,78.339194,CO,10,22,14
India,Telangana,Hyderabad,"Kompally Municipal Office, Hyderabad - TSPCB",22-02-2024 14:00:00,17.544899,78.486949,SO2,NA,NA,NA
India,Telangana,Hyderabad,"Nacharam_TSIIC IALA, Hyderabad - TSPCB",22-02-2024 14:00:00,17.429398,78.569354,NO2,NA,NA,NA
India,Telangana,Hyderabad,"Nacharam_TSIIC IALA, Hyderabad - TSPCB",22-02-2024 14:00:00,17.429398,78.569354,SO2,NA,NA,NA
India,Telangana,Hyderabad,"New Malakpet, Hyderabad - TSPCB",22-02-2024 14:00:00,17.37206,78.50864,NO2,19,49,28
India,Telangana,Hyderabad,"Ramachandrapuram, Hyderabad - TSPCB",22-02-2024 14:00:00,17.528544,78.286195,PM2.5,NA,NA,NA
India,Telangana,Hyderabad,"Ramachandrapuram, Hyderabad - TSPCB",22-02-2024 14:00:00,17.528544,78.286195,SO2,NA,NA,NA
India,Telangana,Hyderabad,"Ramachandrapuram, Hyderabad - TSPCB",22-02-2024 14:00:00,17.528544,78.286195,CO,4,14,6
India,Telangana,Hyderabad,"Sanathnagar, Hyderabad - TSPCB",22-02-2024 14:00:00,17.4559458,78.4332152,SO2,2,52,9
India,Telangana,Hyderabad,"Somajiguda, Hyderabad - TSPCB",22-02-2024 14:00:00,17.417094,78.457437,SO2,17,54,30
India,Telangana,Hyderabad,"Somajiguda, Hyderabad - TSPCB",22-02-2024 14:00:00,17.417094,78.457437,OZONE,1,24,10
India,Tripura,Agartala,"Bardowali, Agartala - Tripura SPCB",22-02-2024 14:00:00,23.8175497,91.2726974,NO2,5,18,10
India,Tripura,Agartala,"Bardowali, Agartala - Tripura SPCB",22-02-2024 14:00:00,23.8175497,91.2726974,SO2,26,27,26
India,Uttar_Pradesh,Agra,"Manoharpur, Agra - UPPCB",22-02-2024 14:00:00,27.23711,78.01936,OZONE,1,19,10
India,Uttar_Pradesh,Agra,"Rohta, Agra - UPPCB",22-02-2024 14:00:00,27.106972,78.000111,SO2,1,15,6
India,Uttar_Pradesh,Agra,"Sanjay Palace, Agra - UPPCB",22-02-2024 14:00:00,27.19865833,78.00598056,OZONE,2,24,9
India,Uttar_Pradesh,Agra,"Sector-3B Avas Vikas Colony, Agra - UPPCB",22-02-2024 14:00:00,27.19412,77.96237,NH3,3,7,5
India,Uttar_Pradesh,Agra,"Sector-3B Avas Vikas Colony, Agra - UPPCB",22-02-2024 14:00:00,27.19412,77.96237,CO,4,20,6
India,Uttar_Pradesh,Agra,"Shahjahan Garden, Agra - UPPCB",22-02-2024 14:00:00,27.169338,78.03582,SO2,37,43,40
India,Uttar_Pradesh,Agra,"Shastripuram, Agra - UPPCB",22-02-2024 14:00:00,27.19862,77.92066,PM2.5,6,136,63
India,Uttar_Pradesh,Agra,"Shastripuram, Agra - UPPCB",22-02-2024 14:00:00,27.19862,77.92066,NH3,1,6,2
India,Uttar_Pradesh,Baghpat,"Sardar Patel Inter College, Baghpat - UPPCB",22-02-2024 14:00:00,28.964949,77.278761,NO2,26,65,44
India,Uttar_Pradesh,Baghpat,"Sardar Patel Inter College, Baghpat - UPPCB",22-02-2024 14:00:00,28.964949,77.278761,OZONE,1,30,14
India,Uttar_Pradesh,Bareilly,"Civil Lines, Bareilly - UPPCB",22-02-2024 14:00:00,28.359581,79.414455,PM10,68,108,88
India,Uttar_Pradesh,Bareilly,"Civil Lines, Bareilly - UPPCB",22-02-2024 14:00:00,28.359581,79.414455,NH3,1,2,1
India,Uttar_Pradesh,Bareilly,"Rajendra Nagar, Bareilly - UPPCB",22-02-2024 14:00:00,28.38910936,79.42963708,NO2,34,56,44
India,Uttar_Pradesh,Bareilly,"Rajendra Nagar, Bareilly - UPPCB",22-02-2024 14:00:00,28.38910936,79.42963708,SO2,41,42,42
India,Uttar_Pradesh,Bulandshahr,"Yamunapuram, Bulandshahr - UPPCB",22-02-2024 14:00:00,28.406963,77.849831,SO2,1,35,11
India,Uttar_Pradesh,Ghaziabad,"Loni, Ghaziabad - UPPCB",22-02-2024 14:00:00,28.757294,77.278792,NH3,1,3,2
India,Uttar_Pradesh,Ghaziabad,"Sanjay Nagar, Ghaziabad - UPPCB",22-02-2024 14:00:00,28.685382,77.453839,CO,1,51,34
India,Uttar_Pradesh,Ghaziabad,"Vasundhara, Ghaziabad - UPPCB",22-02-2024 14:00:00,28.6603346,77.3572563,NH3,7,29,15
India,Uttar_Pradesh,Gorakhpur,"Madan Mohan Malaviya University of Technology, Gorakhpur - UPPCB",22-02-2024 14:00:00,26.730136,83.433859,CO,14,26,23
India,Uttar_Pradesh,Greater Noida,"Knowledge Park - V, Greater Noida - UPPCB",22-02-2024 14:00:00,28.557054,77.453663,NH3,3,10,4
India,Uttar_Pradesh,Greater Noida,"Knowledge Park - V, Greater Noida - UPPCB",22-02-2024 14:00:00,28.557054,77.453663,SO2,9,28,15
India,Uttar_Pradesh,Jhansi,"Shivaji Nagar, Jhansi - UPPCB",22-02-2024 14:00:00,25.4547,78.6039,SO2,11,15,12
India,Uttar_Pradesh,Jhansi,"Shivaji Nagar, Jhansi - UPPCB",22-02-2024 14:00:00,25.4547,78.6039,CO,16,121,34
India,Uttar_Pradesh,Jhansi,"Shivaji Nagar, Jhansi - UPPCB",22-02-2024 14:00:00,25.4547,78.6039,OZONE,1,42,7
India,Uttar_Pradesh,Kanpur,"FTI Kidwai Nagar, Kanpur - UPPCB",22-02-2024 14:00:00,26.428282,80.327067,PM10,10,322,136
India,Uttar_Pradesh,Kanpur,"FTI Kidwai Nagar, Kanpur - UPPCB",22-02-2024 14:00:00,26.428282,80.327067,NO2,17,19,17
India,Uttar_Pradesh,Kanpur,"Nehru Nagar, Kanpur - UPPCB",22-02-2024 14:00:00,26.4703136,80.3229863,PM2.5,30,194,98
India,Uttar_Pradesh,Kanpur,"Nehru Nagar, Kanpur - UPPCB",22-02-2024 14:00:00,26.4703136,80.3229863,OZONE,5,133,107
India,Uttar_Pradesh,Lucknow,"Gomti Nagar, Lucknow - UPPCB",22-02-2024 14:00:00,26.868120,81.005119,PM2.5,18,72,52
India,Uttar_Pradesh,Lucknow,"Kendriya Vidyalaya, Lucknow - CPCB",22-02-2024 14:00:00,26.906111,80.948222,NO2,16,61,33
India,Uttar_Pradesh,Lucknow,"Kendriya Vidyalaya, Lucknow - CPCB",22-02-2024 14:00:00,26.906111,80.948222,SO2,3,13,7
India,Uttar_Pradesh,Lucknow,"Kukrail Picnic Spot-1, Lucknow - UPPCB",22-02-2024 14:00:00,26.90723,80.98579,NO2,NA,NA,NA
India,Uttar_Pradesh,Lucknow,"Lalbagh, Lucknow - CPCB",22-02-2024 14:00:00,26.8458805,80.9365541,PM2.5,54,264,141
India,Uttar_Pradesh,Lucknow,"Lalbagh, Lucknow - CPCB",22-02-2024 14:00:00,26.8458805,80.9365541,PM10,98,185,146
India,Uttar_Pradesh,Meerut,"Ganga Nagar, Meerut - UPPCB",22-02-2024 14:00:00,28.999264,77.7590354,NH3,NA,NA,NA
India,Uttar_Pradesh,Meerut,"Ganga Nagar, Meerut - UPPCB",22-02-2024 14:00:00,28.999264,77.7590354,SO2,NA,NA,NA
India,Uttar_Pradesh,Moradabad,"Buddhi Vihar, Moradabad - UPPCB",22-02-2024 14:00:00,28.83526,78.74460,PM2.5,20,79,47
India,Uttar_Pradesh,Moradabad,"Buddhi Vihar, Moradabad - UPPCB",22-02-2024 14:00:00,28.83526,78.74460,CO,22,38,33
India,Uttar_Pradesh,Moradabad,"Employment Office, Moradabad - UPPCB",22-02-2024 14:00:00,28.88528,78.73880,PM2.5,36,106,64
India,Uttar_Pradesh,Moradabad,"Jigar Colony, Moradabad - UPPCB",22-02-2024 14:00:00,28.856664,78.772638,CO,20,44,37
India,Uttar_Pradesh,Moradabad,"Kashiram Nagar, Moradabad - UPPCB",22-02-2024 14:00:00,28.849399,78.742362,SO2,23,38,29
India,Uttar_Pradesh,Moradabad,"Kashiram Nagar, Moradabad - UPPCB",22-02-2024 14:00:00,28.849399,78.742362,OZONE,15,57,24
India,Uttar_Pradesh,Muzaffarnagar,"New Mandi, Muzaffarnagar - UPPCB",22-02-2024 14:00:00,29.4723508,77.7194031,PM10,116,227,163
India,Uttar_Pradesh,Noida,"Sector-116, Noida - UPPCB",22-02-2024 14:00:00,28.569230,77.393848,SO2,13,50,25
India,Uttar_Pradesh,Prayagraj,"Motilal Nehru NIT, Prayagraj - UPPCB",22-02-2024 14:00:00,25.494,81.863,SO2,19,22,21
India,Uttar_Pradesh,Prayagraj,"Motilal Nehru NIT, Prayagraj - UPPCB",22-02-2024 14:00:00,25.494,81.863,CO,7,27,15
India,Uttar_Pradesh,Prayagraj,"Nagar Nigam, Prayagraj - UPPCB",22-02-2024 14:00:00,25.44919916 ,81.82735986 ,PM2.5,24,82,41
India,Uttar_Pradesh,Prayagraj,"Nagar Nigam, Prayagraj - UPPCB",22-02-2024 14:00:00,25.44919916 ,81.82735986 ,NO2,5,5,5
India,Uttar_Pradesh,Prayagraj,"Nagar Nigam, Prayagraj - UPPCB",22-02-2024 14:00:00,25.44919916 ,81.82735986 ,NH3,6,13,9
India,Uttar_Pradesh,Prayagraj,"Nagar Nigam, Prayagraj - UPPCB",22-02-2024 14:00:00,25.44919916 ,81.82735986 ,OZONE,10,11,11
India,Uttar_Pradesh,Varanasi,"Ardhali Bazar, Varanasi - UPPCB",22-02-2024 14:00:00,25.3505986,82.9083074,NO2,16,37,22
India,Uttar_Pradesh,Varanasi,"Ardhali Bazar, Varanasi - UPPCB",22-02-2024 14:00:00,25.3505986,82.9083074,CO,1,22,14
India,Uttar_Pradesh,Varanasi,"IESD Banaras Hindu University, Varanasi - UPPCB",22-02-2024 14:00:00,25.262326,82.995408,NO2,2,3,2
India,Uttar_Pradesh,Varanasi,"IESD Banaras Hindu University, Varanasi - UPPCB",22-02-2024 14:00:00,25.262326,82.995408,NH3,1,2,2
India,Uttar_Pradesh,Varanasi,"Maldahiya, Varanasi - UPPCB",22-02-2024 14:00:00,25.32393,82.99687,PM10,10,36,20
India,Uttar_Pradesh,Varanasi,"Maldahiya, Varanasi - UPPCB",22-02-2024 14:00:00,25.32393,82.99687,OZONE,1,19,4
India,Uttar_Pradesh,Vrindavan,"Omex Eternity, Vrindavan - UPPCB",22-02-2024 14:00:00,27.5714090,77.6557570,NO2,2,3,3
India,Uttar_Pradesh,Vrindavan,"Omex Eternity, Vrindavan - UPPCB",22-02-2024 14:00:00,27.5714090,77.6557570,NH3,3,5,4
India,Uttarakhand,Kashipur,"Govt. Girls Inter College, Kashipur - UKPCB",22-02-2024 14:00:00,29.2124114,78.9611753,SO2,7,8,8
India,West_Bengal,Asansol,"Asansol Court Area, Asansol - WBPCB",22-02-2024 14:00:00,23.685297,86.945968,PM10,59,149,111
India,West_Bengal,Asansol,"Asansol Court Area, Asansol - WBPCB",22-02-2024 14:00:00,23.685297,86.945968,NO2,20,66,40
India,West_Bengal,Barrackpore,"SVSPA Campus, Barrackpore - WBPCB",22-02-2024 14:00:00,22.7605581,88.3617589,PM2.5,78,289,156
India,West_Bengal,Barrackpore,"SVSPA Campus, Barrackpore - WBPCB",22-02-2024 14:00:00,22.7605581,88.3617589,CO,40,89,48
India,West_Bengal,Haldia,"Priyambada Housing Estate, Haldia - WBPCB",22-02-2024 14:00:00,22.06047,88.109737,CO,16,35,20
India,West_Bengal,Haldia,"Priyambada Housing Estate, Haldia - WBPCB",22-02-2024 14:00:00,22.06047,88.109737,OZONE,20,58,31
India,West_Bengal,Howrah,"Ghusuri, Howrah - WBPCB",22-02-2024 14:00:00,22.611968,88.347422,NH3,7,12,9
India,West_Bengal,Howrah,"Padmapukur, Howrah - WBPCB",22-02-2024 14:00:00,22.5687319,88.2797276,NO2,26,87,44
India,West_Bengal,Kolkata,"Ballygunge, Kolkata - WBPCB",22-02-2024 14:00:00,22.5367507,88.3638022,PM10,10,164,116
India,West_Bengal,Kolkata,"Bidhannagar, Kolkata - WBPCB",22-02-2024 14:00:00,22.58157048,88.41002457,CO,22,50,29
India,West_Bengal,Kolkata,"Fort William, Kolkata - WBPCB",22-02-2024 14:00:00,22.556640,88.342674,NH3,5,6,6
India,West_Bengal,Kolkata,"Jadavpur, Kolkata - WBPCB",22-02-2024 14:00:00,22.49929,88.36917,OZONE,13,66,27
India,West_Bengal,Kolkata,"Rabindra Bharati University, Kolkata - WBPCB",22-02-2024 14:00:00,22.627847,88.380669,NO2,NA,NA,NA
India,West_Bengal,Kolkata,"Rabindra Bharati University, Kolkata - WBPCB",22-02-2024 14:00:00,22.627847,88.380669,NH3,NA,NA,NA
India,West_Bengal,Kolkata,"Victoria, Kolkata - WBPCB",22-02-2024 14:00:00,22.5448082,88.3403691,PM10,77,164,122
India,West_Bengal,Kolkata,"Victoria, Kolkata - WBPCB",22-02-2024 14:00:00,22.5448082,88.3403691,CO,16,88,23
India,West_Bengal,Kolkata,"Victoria, Kolkata - WBPCB",22-02-2024 14:00:00,22.5448082,88.3403691,OZONE,6,90,30
India,West_Bengal,Siliguri,"Ward-32 Bapupara, Siliguri - WBPCB",22-02-2024 14:00:00,26.6879226,88.4152495,NH3,5,17,13
India,Andhra_Pradesh,Amaravati,"Secretariat, Amaravati - APPCB",22-02-2024 14:00:00,16.5150833,80.5181667,NO2,7,20,14
India,Andhra_Pradesh,Amaravati,"Secretariat, Amaravati - APPCB",22-02-2024 14:00:00,16.5150833,80.5181667,NH3,3,4,4
India,Andhra_Pradesh,Amaravati,"Secretariat, Amaravati - APPCB",22-02-2024 14:00:00,16.5150833,80.5181667,SO2,12,32,16
India,Andhra_Pradesh,Amaravati,"Secretariat, Amaravati - APPCB",22-02-2024 14:00:00,16.5150833,80.5181667,CO,12,104,39
India,Andhra_Pradesh,Anantapur,"Gulzarpet, Anantapur - APPCB",22-02-2024 14:00:00,14.675886,77.593027,OZONE,1,83,28
India,Andhra_Pradesh,Chittoor,"Gangineni Cheruvu, Chittoor - APPCB",22-02-2024 14:00:00,13.204880,79.097889,PM10,56,83,68
India,Andhra_Pradesh,Rajamahendravaram,"Anand Kala Kshetram, Rajamahendravaram - APPCB",22-02-2024 14:00:00,16.9872867,81.7363176,CO,24,42,32
India,Andhra_Pradesh,Tirupati,"Tirumala, Tirupati - APPCB",22-02-2024 14:00:00,13.67,79.35,NH3,1,2,1
India,Andhra_Pradesh,Tirupati,"Tirumala, Tirupati - APPCB",22-02-2024 14:00:00,13.67,79.35,CO,34,52,43
India,Andhra_Pradesh,Tirupati,"Vaikuntapuram, Tirupati - APPCB",22-02-2024 14:00:00,13.615387,79.409230,PM2.5,19,332,62
India,Andhra_Pradesh,Vijayawada,"HB Colony, Vijayawada - APPCB",22-02-2024 14:00:00,16.536107,80.594233,PM10,53,71,62
India,Andhra_Pradesh,Vijayawada,"HB Colony, Vijayawada - APPCB",22-02-2024 14:00:00,16.536107,80.594233,NO2,8,28,16
India,Andhra_Pradesh,Vijayawada,"HB Colony, Vijayawada - APPCB",22-02-2024 14:00:00,16.536107,80.594233,SO2,3,27,8
India,Andhra_Pradesh,Vijayawada,"Kanuru, Vijayawada - APPCB",22-02-2024 14:00:00,16.486692,80.699436,OZONE,25,25,25
India,Andhra_Pradesh,Vijayawada,"Rajiv Gandhi Park, Vijayawada - APPCB",22-02-2024 14:00:00,16.509717,80.612222,PM2.5,50,83,64
India,Andhra_Pradesh,Vijayawada,"Rajiv Gandhi Park, Vijayawada - APPCB",22-02-2024 14:00:00,16.509717,80.612222,NH3,5,7,6
India,Andhra_Pradesh,Vijayawada,"Rajiv Nagar, Vijayawada - APPCB",22-02-2024 14:00:00,16.554731,80.649110,PM2.5,14,500,125
India,Andhra_Pradesh,Visakhapatnam,"GVM Corporation, Visakhapatnam - APPCB",22-02-2024 14:00:00,17.72,83.3,CO,14,78,31
India,Assam,Guwahati,"IITG, Guwahati - PCBA",22-02-2024 14:00:00,26.2028636,91.70046436,SO2,12,15,13
India,Assam,Guwahati,"Pan Bazaar, Guwahati - PCBA",22-02-2024 14:00:00,26.187500,91.744194,PM10,113,301,188
India,Assam,Guwahati,"Railway Colony, Guwahati - PCBA",22-02-2024 14:00:00,26.181742,91.78063,NO2,3,3,3
India,Assam,Guwahati,"Railway Colony, Guwahati - PCBA",22-02-2024 14:00:00,26.181742,91.78063,SO2,7,12,10
India,Assam,Nalbari,"Bata Chowk, Nalbari - PCBA",22-02-2024 14:00:00,26.446912,91.439057,NH3,1,3,1
India,Assam,Silchar,"Tarapur, Silchar - PCBA",22-02-2024 14:00:00,24.82827,92.79525,NO2,12,30,23
India,Assam,Sivasagar,"Girls College, Sivasagar - PCBA",22-02-2024 14:00:00,26.987634,94.636574,PM2.5,13,39,23
India,Bihar,Araria,"Kharahiya Basti, Araria - BSPCB",22-02-2024 14:00:00,26.146529,87.454184,NO2,5,23,8
India,Bihar,Arrah,"New DM Office, Arrah - BSPCB",22-02-2024 14:00:00,25.5626095,84.663264,PM10,13,155,68
India,Bihar,Arrah,"New DM Office, Arrah - BSPCB",22-02-2024 14:00:00,25.5626095,84.663264,NH3,5,9,7
India,Bihar,Arrah,"New DM Office, Arrah - BSPCB",22-02-2024 14:00:00,25.5626095,84.663264,SO2,16,22,19
India,Bihar,Bettiah,"Kamalnath Nagar, Bettiah - BSPCB",22-02-2024 14:00:00,26.80365,84.51954,PM10,14,43,28
India,Bihar,Bettiah,"Kamalnath Nagar, Bettiah - BSPCB",22-02-2024 14:00:00,26.80365,84.51954,OZONE,1,5,1
India,Bihar,Bhagalpur,"DM Office_Kachari Chowk, Bhagalpur - BSPCB",22-02-2024 14:00:00,25.251013,86.989001,NO2,20,92,50
India,Bihar,Bhagalpur,"DM Office_Kachari Chowk, Bhagalpur - BSPCB",22-02-2024 14:00:00,25.251013,86.989001,CO,16,86,21
India,Bihar,Bihar Sharif,"D M Colony, Bihar Sharif - BSPCB",22-02-2024 14:00:00,25.204762,85.514960,PM10,15,82,41
India,Bihar,Chhapra,"Darshan Nagar, Chhapra - BSPCB",22-02-2024 14:00:00,25.7808257,84.7446768,PM10,46,368,116
India,Bihar,Chhapra,"Darshan Nagar, Chhapra - BSPCB",22-02-2024 14:00:00,25.7808257,84.7446768,CO,14,40,22
India,Bihar,Gaya,"Collectorate, Gaya - BSPCB",22-02-2024 14:00:00,24.7955,84.9994,NO2,1,3,2
India,Bihar,Gaya,"SFTI Kusdihra, Gaya - BSPCB",22-02-2024 14:00:00,24.762518,84.982348,PM10,38,116,64
India,Bihar,Hajipur,"Industrial Area, Hajipur - BSPCB",22-02-2024 14:00:00,25.697189,85.245900,PM2.5,30,81,55
India,Bihar,Hajipur,"Industrial Area, Hajipur - BSPCB",22-02-2024 14:00:00,25.697189,85.245900,NH3,12,15,14
India,Bihar,Katihar,"Mirchaibari, Katihar - BSPCB",22-02-2024 14:00:00,25.560083,87.553265,NO2,16,31,22
India,Bihar,Katihar,"Mirchaibari, Katihar - BSPCB",22-02-2024 14:00:00,25.560083,87.553265,OZONE,19,23,21
India,Bihar,Kishanganj,"SDM Office_Khagra, Kishanganj - BSPCB",22-02-2024 14:00:00,26.0881305,87.93840336,PM2.5,NA,NA,NA
India,Bihar,Kishanganj,"SDM Office_Khagra, Kishanganj - BSPCB",22-02-2024 14:00:00,26.0881305,87.93840336,SO2,NA,NA,NA
India,Bihar,Manguraha,"Forest Rest House, Manguraha - BSPCB",22-02-2024 14:00:00,27.308328,84.531742,NO2,4,15,9
India,Bihar,Munger,"Town Hall, Munger - BSPCB",22-02-2024 14:00:00,25.376776,86.471523,PM10,23,277,68
India,Bihar,Munger,"Town Hall, Munger - BSPCB",22-02-2024 14:00:00,25.376776,86.471523,CO,12,64,16
India,Bihar,Muzaffarpur,"Buddha Colony, Muzaffarpur - BSPCB",22-02-2024 14:00:00,26.11442,85.39813,PM10,67,152,107
India,Bihar,Muzaffarpur,"MIT-Daudpur Kothi, Muzaffarpur - BSPCB",22-02-2024 14:00:00,26.1403345,85.3650192,NH3,1,3,2
India,Bihar,Muzaffarpur,"Muzaffarpur Collectorate, Muzaffarpur - BSPCB",22-02-2024 14:00:00,26.1209,85.3647,NO2,6,12,9
India,Bihar,Muzaffarpur,"Muzaffarpur Collectorate, Muzaffarpur - BSPCB",22-02-2024 14:00:00,26.1209,85.3647,SO2,4,12,5
India,Bihar,Muzaffarpur,"Muzaffarpur Collectorate, Muzaffarpur - BSPCB",22-02-2024 14:00:00,26.1209,85.3647,OZONE,18,77,24
India,Bihar,Patna,"DRM Office Danapur, Patna - BSPCB",22-02-2024 14:00:00,25.586562,85.043586,PM10,47,413,119
India,Bihar,Patna,"DRM Office Danapur, Patna - BSPCB",22-02-2024 14:00:00,25.586562,85.043586,NH3,3,4,3
India,Bihar,Patna,"DRM Office Danapur, Patna - BSPCB",22-02-2024 14:00:00,25.586562,85.043586,CO,14,123,29
India,Bihar,Patna,"Govt. High School Shikarpur, Patna - BSPCB",22-02-2024 14:00:00,25.592539,85.227158,PM2.5,12,147,81
India,Bihar,Patna,"Muradpur, Patna - BSPCB",22-02-2024 14:00:00,25.619651,85.147382,PM2.5,9,327,69
India,Bihar,Patna,"Muradpur, Patna - BSPCB",22-02-2024 14:00:00,25.619651,85.147382,PM10,67,463,140
India,Bihar,Patna,"Samanpura, Patna - BSPCB",22-02-2024 14:00:00,25.596727,85.085624,SO2,16,18,16
India,Bihar,Purnia,"Mariam Nagar, Purnia - BSPCB",22-02-2024 14:00:00,25.366336,87.117468,PM10,74,339,164
India,Bihar,Purnia,"Mariam Nagar, Purnia - BSPCB",22-02-2024 14:00:00,25.366336,87.117468,NO2,12,14,13
India,Bihar,Rajgir,"Dangi Tola, Rajgir - BSPCB",22-02-2024 14:00:00,25.03280,85.41948,PM10,25,144,74
India,Bihar,Rajgir,"Dangi Tola, Rajgir - BSPCB",22-02-2024 14:00:00,25.03280,85.41948,NO2,NA,NA,NA
India,Bihar,Saharsa,"Police Line, Saharsa - BSPCB",22-02-2024 14:00:00,25.892357,86.590325,PM10,30,227,82
India,Bihar,Sasaram,"Dada Peer, Sasaram - BSPCB",22-02-2024 14:00:00,24.952822,84.002396,SO2,18,23,22
India,Bihar,Sasaram,"Dada Peer, Sasaram - BSPCB",22-02-2024 14:00:00,24.952822,84.002396,OZONE,5,70,26
India,Bihar,Siwan,"Chitragupta Nagar, Siwan - BSPCB",22-02-2024 14:00:00,26.2271665,84.3570427,PM2.5,33,388,217
India,Bihar,Siwan,"Chitragupta Nagar, Siwan - BSPCB",22-02-2024 14:00:00,26.2271665,84.3570427,NO2,16,125,32
India,Chandigarh,Chandigarh,"Sector 22, Chandigarh - CPCC",22-02-2024 14:00:00,30.735567,76.775714,CO,29,52,42
India,Chandigarh,Chandigarh,"Sector-25, Chandigarh - CPCC",22-02-2024 14:00:00,30.751462,76.762879,NH3,17,25,21
India,Chandigarh,Chandigarh,"Sector-53, Chandigarh - CPCC",22-02-2024 14:00:00,30.719859,76.738637,PM10,56,146,107
India,Chandigarh,Chandigarh,"Sector-53, Chandigarh - CPCC",22-02-2024 14:00:00,30.719859,76.738637,CO,32,68,52
India,Chhattisgarh,Bhilai,"32Bungalows, Bhilai - CECB",22-02-2024 14:00:00,21.194815,81.314770,PM2.5,31,48,38
India,Chhattisgarh,Bhilai,"32Bungalows, Bhilai - CECB",22-02-2024 14:00:00,21.194815,81.314770,SO2,6,9,7
India,Chhattisgarh,Bhilai,"32Bungalows, Bhilai - CECB",22-02-2024 14:00:00,21.194815,81.314770,OZONE,4,17,8
India,Chhattisgarh,Bhilai,"Civic Center, Bhilai - Bhilai Steel Plant",22-02-2024 14:00:00,21.185571,81.343175,NH3,NA,NA,NA
India,Chhattisgarh,Bhilai,"Hathkhoj, Bhilai - CECB",22-02-2024 14:00:00,21.224231,81.408350,PM2.5,21,73,38
India,Chhattisgarh,Bhilai,"Hathkhoj, Bhilai - CECB",22-02-2024 14:00:00,21.224231,81.408350,PM10,46,155,81
India,Chhattisgarh,Bhilai,"Hathkhoj, Bhilai - CECB",22-02-2024 14:00:00,21.224231,81.408350,NO2,17,63,29
India,Chhattisgarh,Chhal,"Nawapara SECL Colony, Chhal - CECB",22-02-2024 14:00:00,22.118125,83.140608,PM2.5,40,107,71
India,Chhattisgarh,Chhal,"Nawapara SECL Colony, Chhal - CECB",22-02-2024 14:00:00,22.118125,83.140608,SO2,12,39,20
India,Chhattisgarh,Korba,"Rampur, Korba - CECB",22-02-2024 14:00:00,22.368195,82.746431,PM10,50,110,77
India,Chhattisgarh,Korba,"Rampur, Korba - CECB",22-02-2024 14:00:00,22.368195,82.746431,NO2,20,49,37
India,Chhattisgarh,Korba,"Rampur, Korba - CECB",22-02-2024 14:00:00,22.368195,82.746431,SO2,7,50,13
India,Chhattisgarh,Korba,"Urja Nagar, Korba - CECB",22-02-2024 14:00:00,22.348441,82.549611,SO2,2,6,4
India,Chhattisgarh,Korba,"Urja Nagar, Korba - CECB",22-02-2024 14:00:00,22.348441,82.549611,OZONE,1,1,1
India,Chhattisgarh,Milupara,"Govt. Higher Secondary School, Milupara - CECB",22-02-2024 14:00:00,22.1910172,83.5197009,NH3,1,2,2
India,Chhattisgarh,Raipur,"AIIMS, Raipur - CECB",22-02-2024 14:00:00,21.258815,81.578979,PM2.5,16,29,22
India,Chhattisgarh,Raipur,"AIIMS, Raipur - CECB",22-02-2024 14:00:00,21.258815,81.578979,NO2,33,45,37
India,Chhattisgarh,Raipur,"AIIMS, Raipur - CECB",22-02-2024 14:00:00,21.258815,81.578979,OZONE,2,29,4
India,Chhattisgarh,Raipur,"Bhatagaon New ISBT, Raipur - CECB",22-02-2024 14:00:00,21.219665,81.630094,PM10,28,74,43
India,Chhattisgarh,Raipur,"Bhatagaon New ISBT, Raipur - CECB",22-02-2024 14:00:00,21.219665,81.630094,NH3,1,2,1
India,Chhattisgarh,Raipur,"Bhatagaon New ISBT, Raipur - CECB",22-02-2024 14:00:00,21.219665,81.630094,SO2,NA,NA,NA
India,Chhattisgarh,Raipur,"Siltara Phase-II, Raipur - CECB",22-02-2024 14:00:00,21.371751,81.664929,PM2.5,NA,NA,NA
India,Chhattisgarh,Raipur,"Siltara Phase-II, Raipur - CECB",22-02-2024 14:00:00,21.371751,81.664929,CO,22,43,32
India,Delhi,Delhi,"Alipur, Delhi - DPCC",22-02-2024 14:00:00,28.815329,77.153010,PM10,85,198,126
India,Delhi,Delhi,"Alipur, Delhi - DPCC",22-02-2024 14:00:00,28.815329,77.153010,CO,28,60,45
India,Delhi,Delhi,"Anand Vihar, Delhi - DPCC",22-02-2024 14:00:00,28.647622,77.3158090,SO2,10,46,24
India,Delhi,Delhi,"Anand Vihar, Delhi - DPCC",22-02-2024 14:00:00,28.647622,77.3158090,CO,55,107,79
India,Delhi,Delhi,"Ashok Vihar, Delhi - DPCC",22-02-2024 14:00:00,28.695381,77.181665,CO,13,52,34
India,Delhi,Delhi,"CRRI Mathura Road, Delhi - IMD",22-02-2024 14:00:00,28.5512005,77.2735737,PM2.5,47,249,112
India,Delhi,Delhi,"Chandni Chowk, Delhi - IITM",22-02-2024 14:00:00,28.656756,77.227234,CO,103,106,105
India,Delhi,Delhi,"Dwarka-Sector 8, Delhi - DPCC ",22-02-2024 14:00:00,28.5710274,77.0719006,PM10,114,274,161
India,Delhi,Delhi,"IHBAS, Dilshad Garden, Delhi - CPCB",22-02-2024 14:00:00,28.6811736,77.3025234,NO2,17,52,34
India,Delhi,Delhi,"ITO, Delhi - CPCB",22-02-2024 14:00:00,28.628624,77.241060,CO,21,84,52
India,Delhi,Delhi,"Jahangirpuri, Delhi - DPCC",22-02-2024 14:00:00,28.732820,77.170633,CO,45,101,67
India,Delhi,Delhi,"Jahangirpuri, Delhi - DPCC",22-02-2024 14:00:00,28.732820,77.170633,OZONE,6,50,21
India,Delhi,Delhi,"Jawaharlal Nehru Stadium, Delhi - DPCC",22-02-2024 14:00:00,28.580280,77.233829,OZONE,5,127,62
India,Delhi,Delhi,"Lodhi Road, Delhi - IITM",22-02-2024 14:00:00,28.588333,77.221667,CO,62,69,66
India,Delhi,Delhi,"Lodhi Road, Delhi - IMD",22-02-2024 14:00:00,28.5918245,77.2273074,NO2,1,8,4
India,Delhi,Delhi,"Major Dhyan Chand National Stadium, Delhi - DPCC",22-02-2024 14:00:00,28.611281,77.237738,PM10,86,232,134
India,Delhi,Delhi,"Mandir Marg, Delhi - DPCC",22-02-2024 14:00:00,28.636429,77.201067,PM10,76,180,115
India,Delhi,Delhi,"Mandir Marg, Delhi - DPCC",22-02-2024 14:00:00,28.636429,77.201067,NH3,16,19,18
India,Delhi,Delhi,"Mandir Marg, Delhi - DPCC",22-02-2024 14:00:00,28.636429,77.201067,OZONE,7,22,13
India,Delhi,Delhi,"Mundka, Delhi - DPCC",22-02-2024 14:00:00,28.684678,77.076574,NO2,24,81,49
India,Delhi,Delhi,"Najafgarh, Delhi - DPCC",22-02-2024 14:00:00,28.570173,76.933762,PM2.5,40,167,97
India,Delhi,Delhi,"Najafgarh, Delhi - DPCC",22-02-2024 14:00:00,28.570173,76.933762,PM10,64,155,109
India,Delhi,Delhi,"Najafgarh, Delhi - DPCC",22-02-2024 14:00:00,28.570173,76.933762,SO2,6,13,11
India,Delhi,Delhi,"Najafgarh, Delhi - DPCC",22-02-2024 14:00:00,28.570173,76.933762,CO,2,46,37
India,Delhi,Delhi,"Najafgarh, Delhi - DPCC",22-02-2024 14:00:00,28.570173,76.933762,OZONE,12,140,66
India,Delhi,Delhi,"Narela, Delhi - DPCC",22-02-2024 14:00:00,28.822836,77.101981,NO2,13,69,38
India,Delhi,Delhi,"Narela, Delhi - DPCC",22-02-2024 14:00:00,28.822836,77.101981,OZONE,4,132,54
India,Delhi,Delhi,"Nehru Nagar, Delhi - DPCC",22-02-2024 14:00:00,28.567890,77.250515,NO2,16,28,20
India,Delhi,Delhi,"New Moti Bagh, Delhi - MHUA",22-02-2024 14:00:00,28.57834,77.18400,PM2.5,52,307,140
India,Delhi,Delhi,"North Campus, DU, Delhi - IMD",22-02-2024 14:00:00,28.6573814,77.1585447,PM10,90,246,143
India,Delhi,Delhi,"North Campus, DU, Delhi - IMD",22-02-2024 14:00:00,28.6573814,77.1585447,NO2,1,14,8
India,Delhi,Delhi,"North Campus, DU, Delhi - IMD",22-02-2024 14:00:00,28.6573814,77.1585447,CO,2,21,8
India,Delhi,Delhi,"North Campus, DU, Delhi - IMD",22-02-2024 14:00:00,28.6573814,77.1585447,OZONE,1,27,12
India,Delhi,Delhi,"Okhla Phase-2, Delhi - DPCC",22-02-2024 14:00:00,28.530785,77.271255,NO2,51,130,91
India,Delhi,Delhi,"Patparganj, Delhi - DPCC",22-02-2024 14:00:00,28.623763,77.287209,NO2,35,69,53
India,Delhi,Delhi,"Patparganj, Delhi - DPCC",22-02-2024 14:00:00,28.623763,77.287209,NH3,7,15,11
India,Delhi,Delhi,"Pusa, Delhi - DPCC",22-02-2024 14:00:00,28.639652,77.146275,SO2,7,35,16
India,Delhi,Delhi,"R K Puram, Delhi - DPCC",22-02-2024 14:00:00,28.563262,77.186937,PM2.5,80,282,153
India,Delhi,Delhi,"R K Puram, Delhi - DPCC",22-02-2024 14:00:00,28.563262,77.186937,CO,16,66,46
India,Delhi,Delhi,"Shadipur, Delhi - CPCB",22-02-2024 14:00:00,28.6514781,77.1473105,NO2,48,60,56
India,Delhi,Delhi,"Shadipur, Delhi - CPCB",22-02-2024 14:00:00,28.6514781,77.1473105,NH3,6,13,10
India,Delhi,Delhi,"Sirifort, Delhi - CPCB",22-02-2024 14:00:00,28.5504249,77.2159377,OZONE,15,19,16
India,Delhi,Delhi,"Sonia Vihar, Delhi - DPCC",22-02-2024 14:00:00,28.710508,77.249485,PM10,104,236,150
India,Delhi,Delhi,"Sonia Vihar, Delhi - DPCC",22-02-2024 14:00:00,28.710508,77.249485,NH3,5,17,8
India,Delhi,Delhi,"Sri Aurobindo Marg, Delhi - DPCC",22-02-2024 14:00:00,28.531346,77.190156,NO2,20,96,55
India,Delhi,Delhi,"Sri Aurobindo Marg, Delhi - DPCC",22-02-2024 14:00:00,28.531346,77.190156,NH3,6,10,8
India,Delhi,Delhi,"Sri Aurobindo Marg, Delhi - DPCC",22-02-2024 14:00:00,28.531346,77.190156,SO2,8,22,13
India,Delhi,Delhi,"Wazirpur, Delhi - DPCC",22-02-2024 14:00:00,28.699793,77.165453,SO2,18,50,26
India,Delhi,Delhi,"Wazirpur, Delhi - DPCC",22-02-2024 14:00:00,28.699793,77.165453,OZONE,14,77,40
India,Gujarat,Ahmedabad,"Chandkheda, Ahmedabad - IITM",22-02-2024 14:00:00,23.107969,72.574648,PM2.5,45,285,85
India,Gujarat,Ahmedabad,"Chandkheda, Ahmedabad - IITM",22-02-2024 14:00:00,23.107969,72.574648,NH3,NA,NA,NA
India,Gujarat,Ahmedabad,"Gyaspur, Ahmedabad - IITM",22-02-2024 14:00:00,22.977134,72.553024,PM2.5,20,52,45
India,Gujarat,Ahmedabad,"Raikhad, Ahmedabad - IITM",22-02-2024 14:00:00,23.020509,72.579261,PM10,NA,NA,NA
India,Gujarat,Ahmedabad,"Raikhad, Ahmedabad - IITM",22-02-2024 14:00:00,23.020509,72.579261,CO,4,56,27
India,Gujarat,Ahmedabad,"Rakhial, Ahmedabad - IITM",22-02-2024 14:00:00,23.016834,72.625775,CO,26,48,43
India,Gujarat,Ahmedabad,"SAC ISRO Bopal, Ahmedabad - IITM",22-02-2024 14:00:00,23.041137,72.456691,NH3,3,4,4
India,Gujarat,Ahmedabad,"SVPI Airport Hansol, Ahmedabad - IITM",22-02-2024 14:00:00,23.076793,72.627874,OZONE,2,18,12
India,Gujarat,Ahmedabad,"Sardar Vallabhbhai Patel Stadium, Ahmedabad - IITM",22-02-2024 14:00:00,23.043070,72.562968,SO2,5,9,7
India,Gujarat,Ankleshwar,"GIDC, Ankleshwar - GPCB",22-02-2024 14:00:00,21.613267,73.010555,PM10,41,71,54
India,Gujarat,Gandhinagar,"IIPHG Lekawada, Gandhinagar - IITM",22-02-2024 14:00:00,23.243639,72.68994,CO,NA,NA,NA
India,Gujarat,Gandhinagar,"Sector-10, Gandhinagar - GPCB",22-02-2024 14:00:00,23.221714,72.654328,OZONE,3,30,19
India,Gujarat,Surat,"Science Center, Surat - SMC",22-02-2024 14:00:00,21.170046,72.795405,CO,34,46,43
India,Gujarat,Vapi,"Phase-1 GIDC, Vapi - GPCB",22-02-2024 14:00:00,20.362421,72.918013,PM10,66,422,110
India,Gujarat,Vatva,"Phase-4 GIDC, Vatva - GPCB",22-02-2024 14:00:00,22.969611,72.643500,NH3,1,2,1
India,Haryana,Ambala,"Patti Mehar, Ambala - HSPCB",22-02-2024 14:00:00,30.379589,76.778328,SO2,NA,NA,NA
India,Haryana,Bahadurgarh,"Arya Nagar, Bahadurgarh - HSPCB",22-02-2024 14:00:00,28.6701,76.9254,SO2,10,13,12
India,Haryana,Ballabgarh,"Nathu Colony, Ballabgarh - HSPCB",22-02-2024 14:00:00,28.3419248,77.319699,PM2.5,78,304,207
India,Haryana,Ballabgarh,"Nathu Colony, Ballabgarh - HSPCB",22-02-2024 14:00:00,28.3419248,77.319699,NO2,10,19,13
India,Haryana,Ballabgarh,"Nathu Colony, Ballabgarh - HSPCB",22-02-2024 14:00:00,28.3419248,77.319699,CO,2,76,31
India,Haryana,Bhiwani,"H.B. Colony, Bhiwani - HSPCB",22-02-2024 14:00:00,28.806223,76.141105,SO2,6,13,10
India,Haryana,Bhiwani,"H.B. Colony, Bhiwani - HSPCB",22-02-2024 14:00:00,28.806223,76.141105,CO,6,30,22
India,Haryana,Charkhi Dadri,"Mini Secretariat, Charkhi Dadri - HSPCB",22-02-2024 14:00:00,28.593883,76.270653,NO2,NA,NA,NA
India,Haryana,Charkhi Dadri,"Mini Secretariat, Charkhi Dadri - HSPCB",22-02-2024 14:00:00,28.593883,76.270653,OZONE,13,18,15
India,Haryana,Dharuhera,"Municipal Corporation Office, Dharuhera -  HSPCB",22-02-2024 14:00:00,28.206800,76.799700,PM10,130,173,158
India,Haryana,Faridabad,"New Industrial Town, Faridabad - HSPCB",22-02-2024 14:00:00,28.39072,77.30059,PM2.5,121,396,206
India,Haryana,Faridabad,"Sector 11, Faridabad - HSPCB",22-02-2024 14:00:00,28.376058,77.315741,NO2,30,32,31
India,Haryana,Faridabad,"Sector 11, Faridabad - HSPCB",22-02-2024 14:00:00,28.376058,77.315741,NH3,6,6,6
India,Haryana,Faridabad,"Sector 11, Faridabad - HSPCB",22-02-2024 14:00:00,28.376058,77.315741,OZONE,3,6,4
India,Haryana,Faridabad,"Sector 30, Faridabad - HSPCB",22-02-2024 14:00:00,28.4417,77.3217,CO,15,100,76
India,Haryana,Faridabad,"Sector- 16A, Faridabad - HSPCB",22-02-2024 14:00:00,28.4088421,77.3099081,PM2.5,47,328,135
India,Haryana,Gurugram,"Sector-51, Gurugram - HSPCB",22-02-2024 14:00:00,28.4227,77.0667,PM10,115,214,144
India,Haryana,Gurugram,"Sector-51, Gurugram - HSPCB",22-02-2024 14:00:00,28.4227,77.0667,SO2,3,4,3
India,Haryana,Gurugram,"Teri Gram, Gurugram - HSPCB",22-02-2024 14:00:00,28.4275,77.1465,NH3,22,31,26
India,Haryana,Gurugram,"Teri Gram, Gurugram - HSPCB",22-02-2024 14:00:00,28.4275,77.1465,SO2,3,5,4
India,Haryana,Gurugram,"Vikas Sadan, Gurugram - HSPCB",22-02-2024 14:00:00,28.4501238,77.0263051,SO2,16,38,26
India,Haryana,Jind,"Police Lines, Jind - HSPCB",22-02-2024 14:00:00,29.307814,76.337619,CO,1,119,28
India,Haryana,Kaithal,"Rishi Nagar, Kaithal - HSPCB",22-02-2024 14:00:00,29.8006,76.4155,PM2.5,NA,NA,NA
India,Haryana,Kaithal,"Rishi Nagar, Kaithal - HSPCB",22-02-2024 14:00:00,29.8006,76.4155,NH3,NA,NA,NA
India,Haryana,Kaithal,"Rishi Nagar, Kaithal - HSPCB",22-02-2024 14:00:00,29.8006,76.4155,OZONE,5,15,14
India,Haryana,Karnal,"Sector-12, Karnal - HSPCB",22-02-2024 14:00:00,29.695300,77.002700,SO2,12,13,13
India,Haryana,Karnal,"Sector-12, Karnal - HSPCB",22-02-2024 14:00:00,29.695300,77.002700,CO,23,46,37
India,Haryana,Kurukshetra,"Sector-7, Kurukshetra - HSPCB",22-02-2024 14:00:00,29.966942,76.875879,SO2,3,93,32
India,Haryana,Manesar,"Sector-2 IMT, Manesar - HSPCB",22-02-2024 14:00:00,28.360699,76.936090,PM10,37,81,58
India,Haryana,Panchkula,"Sector-6, Panchkula - HSPCB ",22-02-2024 14:00:00,30.7057778,76.8531805555555,PM2.5,10,120,34
India,Haryana,Panchkula,"Sector-6, Panchkula - HSPCB ",22-02-2024 14:00:00,30.7057778,76.8531805555555,CO,1,154,40
India,Haryana,Sirsa,"F-Block, Sirsa - HSPCB",22-02-2024 14:00:00,29.536400,75.015800,CO,42,52,47
India,Haryana,Sirsa,"F-Block, Sirsa - HSPCB",22-02-2024 14:00:00,29.536400,75.015800,OZONE,20,75,45
India,Haryana,Sonipat,"Murthal, Sonipat - HSPCB",22-02-2024 14:00:00,29.027200,77.062100,NH3,3,10,9
India,Haryana,Yamuna Nagar,"Gobind Pura, Yamuna Nagar - HSPCB",22-02-2024 14:00:00,30.1480566,77.2893471,PM10,78,130,102
India,Himachal Pradesh,Baddi,"HIMUDA Complex Phase-1, Baddi - HPPCB",22-02-2024 14:00:00,30.943887,76.801991,PM2.5,22,287,96
India,Himachal Pradesh,Baddi,"HIMUDA Complex Phase-1, Baddi - HPPCB",22-02-2024 14:00:00,30.943887,76.801991,NO2,10,54,26
India,Himachal Pradesh,Baddi,"HIMUDA Complex Phase-1, Baddi - HPPCB",22-02-2024 14:00:00,30.943887,76.801991,NH3,2,6,4
India,Himachal Pradesh,Baddi,"HIMUDA Complex Phase-1, Baddi - HPPCB",22-02-2024 14:00:00,30.943887,76.801991,OZONE,32,104,72
India,Jharkhand,Dhanbad,"Sardar Patel Nagar, Dhanbad - JSPCB",22-02-2024 14:00:00,23.80569,86.44268,PM2.5,5,202,69
India,Jharkhand,Pathardih,"Mohalbani Ghat, Pathardih - DMC",22-02-2024 14:00:00,23.669880,86.411725,OZONE,4,44,12
India,Karnataka,Bagalkot,"Vidayagiri, Bagalkot - KSPCB",22-02-2024 14:00:00,16.172806,75.659694,PM10,42,42,42
India,Karnataka,Belgaum,"Ramteerth Nagar, Belgaum - KSPCB",22-02-2024 14:00:00,15.888653,74.541751,NH3,29,34,32
India,Karnataka,Bengaluru,"BTM Layout, Bengaluru - CPCB",22-02-2024 14:00:00,12.9135218,77.5950804,SO2,8,13,12
India,Karnataka,Bengaluru,"Bapuji Nagar, Bengaluru - KSPCB",22-02-2024 14:00:00,12.951913,77.539784,NO2,9,14,11
India,Karnataka,Bengaluru,"Hebbal, Bengaluru - KSPCB",22-02-2024 14:00:00,13.029152,77.585901,PM2.5,40,152,82
India,Karnataka,Bengaluru,"Hebbal, Bengaluru - KSPCB",22-02-2024 14:00:00,13.029152,77.585901,CO,6,38,15
India,Karnataka,Bengaluru,"Hebbal, Bengaluru - KSPCB",22-02-2024 14:00:00,13.029152,77.585901,OZONE,9,42,11
India,Karnataka,Bengaluru,"Hombegowda Nagar, Bengaluru - KSPCB",22-02-2024 14:00:00,12.938539,77.590100,SO2,4,4,4
India,Karnataka,Bengaluru,"Hombegowda Nagar, Bengaluru - KSPCB",22-02-2024 14:00:00,12.938539,77.590100,CO,12,20,15
India,Karnataka,Bengaluru,"Jayanagar 5th Block, Bengaluru - KSPCB",22-02-2024 14:00:00,12.920984,77.584908,CO,2,96,14
India,Karnataka,Bengaluru,"Jayanagar 5th Block, Bengaluru - KSPCB",22-02-2024 14:00:00,12.920984,77.584908,OZONE,27,28,28
India,Karnataka,Bengaluru,"Jigani, Bengaluru - KSPCB",22-02-2024 14:00:00,12.7816279,77.6299145,PM2.5,14,265,107
India,Karnataka,Bengaluru,"Jigani, Bengaluru - KSPCB",22-02-2024 14:00:00,12.7816279,77.6299145,NH3,4,4,4
India,Karnataka,Bengaluru,"Kasturi Nagar, Bengaluru - KSPCB",22-02-2024 14:00:00,13.003872,77.664217,CO,21,30,26
India,Karnataka,Bengaluru,"Peenya, Bengaluru - CPCB",22-02-2024 14:00:00,13.0270199,77.494094,OZONE,39,86,62
India,Karnataka,Bengaluru,"Shivapura_Peenya, Bengaluru - KSPCB",22-02-2024 14:00:00,13.0246342,77.5080115,NO2,15,16,15
India,Karnataka,Bengaluru,"Shivapura_Peenya, Bengaluru - KSPCB",22-02-2024 14:00:00,13.0246342,77.5080115,OZONE,54,56,55
India,Karnataka,Bengaluru,"Silk Board, Bengaluru - KSPCB",22-02-2024 14:00:00,12.917348,77.622813,PM2.5,57,148,77
India,Karnataka,Bengaluru,"Silk Board, Bengaluru - KSPCB",22-02-2024 14:00:00,12.917348,77.622813,NO2,NA,NA,NA
India,Karnataka,Bengaluru,"Silk Board, Bengaluru - KSPCB",22-02-2024 14:00:00,12.917348,77.622813,SO2,4,15,9
India,Karnataka,Bidar,"Naubad, Bidar - KSPCB",22-02-2024 14:00:00,17.930306,77.482194,PM2.5,33,110,62
India,Karnataka,Chamarajanagar,"Urban, Chamarajanagar - KSPCB",22-02-2024 14:00:00,11.55358,76.55521,PM2.5,18,60,34
India,Karnataka,Chikkamagaluru,"Kalyana Nagara, Chikkamagaluru - KSPCB",22-02-2024 14:00:00,13.328028,75.797056,PM10,15,60,41
India,Karnataka,Davanagere,"Devaraj Urs Badavane, Davanagere - KSPCB",22-02-2024 14:00:00,14.475800,75.905200,CO,10,22,17
India,Karnataka,Gadag,"Panchal Nagar, Gadag - KSPCB",22-02-2024 14:00:00,15.411456,75.638133,PM10,22,70,34
India,Karnataka,Gadag,"Panchal Nagar, Gadag - KSPCB",22-02-2024 14:00:00,15.411456,75.638133,NO2,7,21,13
India,Karnataka,Haveri,"Ashwini Nagar, Haveri - KSPCB",22-02-2024 14:00:00,14.791800,75.389600,OZONE,18,20,19
India,Karnataka,Hubballi,"Lingaraj Nagar, Hubballi - KSPCB",22-02-2024 14:00:00,15.3714823,75.1160168,NH3,2,2,2
India,Karnataka,Hubballi,"Lingaraj Nagar, Hubballi - KSPCB",22-02-2024 14:00:00,15.3714823,75.1160168,SO2,1,6,2
India,Karnataka,Hubballi,"Lingaraj Nagar, Hubballi - KSPCB",22-02-2024 14:00:00,15.3714823,75.1160168,CO,10,63,44
India,Karnataka,Kalaburagi,"Lal Bahadur Shastri Nagar, Kalaburagi - KSPCB",22-02-2024 14:00:00,17.321993,76.822628,NH3,1,2,2
India,Karnataka,Kalaburagi,"Lal Bahadur Shastri Nagar, Kalaburagi - KSPCB",22-02-2024 14:00:00,17.321993,76.822628,SO2,NA,NA,NA
India,Karnataka,Karwar,"KHB Colony, Karwar - KSPCB",22-02-2024 14:00:00,14.816666,74.141003,PM10,34,88,52
India,Karnataka,Koppal,"Diwator Nagar, Koppal - KSPCB",22-02-2024 14:00:00,15.347630,76.181767,NH3,4,7,5
India,Karnataka,Koppal,"Diwator Nagar, Koppal - KSPCB",22-02-2024 14:00:00,15.347630,76.181767,OZONE,2,35,21
India,Karnataka,Madikeri,"Stuart Hill, Madikeri - KSPCB",22-02-2024 14:00:00,12.415911,75.735050,PM2.5,13,37,26
India,Karnataka,Madikeri,"Stuart Hill, Madikeri - KSPCB",22-02-2024 14:00:00,12.415911,75.735050,OZONE,28,45,30
India,Karnataka,Mangalore,"Kadri, Mangalore - KSPCB",22-02-2024 14:00:00,12.889250,74.853000,NO2,5,7,6
India,Karnataka,Mangalore,"Kadri, Mangalore - KSPCB",22-02-2024 14:00:00,12.889250,74.853000,NH3,2,2,2
India,Karnataka,Mysuru,"Hebbal 1st Stage, Mysuru - KSPCB",22-02-2024 14:00:00,12.21041,76.37376,NH3,1,4,2
India,Karnataka,Raichur,"Haji Colony, Raichur - KSPCB",22-02-2024 14:00:00,16.208139,77.348417,PM2.5,12,170,44
India,Karnataka,Raichur,"Haji Colony, Raichur - KSPCB",22-02-2024 14:00:00,16.208139,77.348417,CO,85,192,97
India,Karnataka,Shivamogga,"Vinoba Nagara, Shivamogga - KSPCB",22-02-2024 14:00:00,13.940000,75.555917,PM2.5,36,52,44
India,Karnataka,Shivamogga,"Vinoba Nagara, Shivamogga - KSPCB",22-02-2024 14:00:00,13.940000,75.555917,OZONE,52,82,60
India,Karnataka,Udupi,"Brahmagiri, Udupi - KSPCB",22-02-2024 14:00:00,13.34194444,74.74694444,PM10,25,49,30
India,Karnataka,Udupi,"Brahmagiri, Udupi - KSPCB",22-02-2024 14:00:00,13.34194444,74.74694444,OZONE,23,23,23
India,Karnataka,Vijayapura,"Ibrahimpur, Vijayapura - KSPCB",22-02-2024 14:00:00,16.802639,75.722694,PM10,38,40,39
India,Karnataka,Vijayapura,"Ibrahimpur, Vijayapura - KSPCB",22-02-2024 14:00:00,16.802639,75.722694,SO2,1,25,8
India,Kerala,Kannur,"Thavakkara, Kannur - Kerala PCB",22-02-2024 14:00:00,11.875000,75.373200,OZONE,31,36,34
India,Kerala,Kollam,"Polayathode, Kollam - Kerala PCB",22-02-2024 14:00:00,8.8787,76.6073,NO2,8,9,8
India,Kerala,Kollam,"Polayathode, Kollam - Kerala PCB",22-02-2024 14:00:00,8.8787,76.6073,SO2,1,6,1
India,Kerala,Kollam,"Polayathode, Kollam - Kerala PCB",22-02-2024 14:00:00,8.8787,76.6073,CO,18,78,42
India,Kerala,Kollam,"Polayathode, Kollam - Kerala PCB",22-02-2024 14:00:00,8.8787,76.6073,OZONE,32,37,34
India,Kerala,Thiruvananthapuram,"Kariavattom, Thiruvananthapuram - Kerala PCB",22-02-2024 14:00:00,8.563700,76.886500,PM2.5,72,85,79
India,Kerala,Thiruvananthapuram,"Kariavattom, Thiruvananthapuram - Kerala PCB",22-02-2024 14:00:00,8.563700,76.886500,SO2,1,17,8
India,Kerala,Thiruvananthapuram,"Kariavattom, Thiruvananthapuram - Kerala PCB",22-02-2024 14:00:00,8.563700,76.886500,OZONE,26,31,29
India,Madhya Pradesh,Bhopal,"Idgah Hills, Bhopal - MPPCB",22-02-2024 14:00:00,23.264759,77.381568,NO2,17,54,30
India,Madhya Pradesh,Bhopal,"Idgah Hills, Bhopal - MPPCB",22-02-2024 14:00:00,23.264759,77.381568,CO,18,52,26
India,Madhya Pradesh,Dewas,"Bhopal Chauraha, Dewas - MPPCB",22-02-2024 14:00:00,22.9682591,76.064118,PM10,98,155,111
India,Madhya Pradesh,Dewas,"Bhopal Chauraha, Dewas - MPPCB",22-02-2024 14:00:00,22.9682591,76.064118,NH3,3,3,3
India,Madhya Pradesh,Gwalior,"City Center, Gwalior - MPPCB",22-02-2024 14:00:00,26.203442,78.193251,SO2,5,31,18
India,Madhya Pradesh,Gwalior,"City Center, Gwalior - MPPCB",22-02-2024 14:00:00,26.203442,78.193251,OZONE,15,75,27
India,Madhya Pradesh,Gwalior,"Deen Dayal Nagar, Gwalior - MPPCB",22-02-2024 14:00:00,26.259242,78.216432,NH3,NA,NA,NA
India,Madhya Pradesh,Gwalior,"Phool Bagh, Gwalior - Mondelez Ind. Food",22-02-2024 14:00:00,26.210536,78.171,PM10,NA,NA,NA
India,Madhya Pradesh,Gwalior,"Phool Bagh, Gwalior - Mondelez Ind. Food",22-02-2024 14:00:00,26.210536,78.171,SO2,NA,NA,NA
India,Madhya Pradesh,Indore,"Chhoti Gwaltoli, Indore - MPPCB",22-02-2024 14:00:00,22.4310,75.5213,PM10,91,140,112
India,Madhya Pradesh,Indore,"Chhoti Gwaltoli, Indore - MPPCB",22-02-2024 14:00:00,22.4310,75.5213,SO2,13,23,17
India,Madhya Pradesh,Indore,"Maguda Nagar, Indore - IMC",22-02-2024 14:00:00,22.7524,75.8872,PM10,41,72,52
India,Madhya Pradesh,Indore,"Maguda Nagar, Indore - IMC",22-02-2024 14:00:00,22.7524,75.8872,NO2,4,6,5
India,Madhya Pradesh,Indore,"Maguda Nagar, Indore - IMC",22-02-2024 14:00:00,22.7524,75.8872,CO,19,23,20
India,Madhya Pradesh,Indore,"Regional Park, Indore - IMC",22-02-2024 14:00:00,22.6780,75.8559,SO2,39,42,41
India,Madhya Pradesh,Indore,"Regional Park, Indore - IMC",22-02-2024 14:00:00,22.6780,75.8559,OZONE,5,20,12
India,Madhya Pradesh,Indore,"Residency Area, Indore - IMC",22-02-2024 14:00:00,22.7084,75.8815,PM2.5,49,91,65
India,Madhya Pradesh,Jabalpur,"Govindh Bhavan Colony, Jabalpur - JMC",22-02-2024 14:00:00,23.163174,79.973061,PM2.5,27,48,38
India,Madhya Pradesh,Jabalpur,"Govindh Bhavan Colony, Jabalpur - JMC",22-02-2024 14:00:00,23.163174,79.973061,PM10,36,61,49
India,Madhya Pradesh,Jabalpur,"Govindh Bhavan Colony, Jabalpur - JMC",22-02-2024 14:00:00,23.163174,79.973061,OZONE,19,98,73
India,Madhya Pradesh,Jabalpur,"Gupteshwar, Jabalpur - JMC",22-02-2024 14:00:00,23.142888,79.916147,PM10,34,82,52
India,Madhya Pradesh,Katni,"Gole Bazar, Katni - MPPCB",22-02-2024 14:00:00,23.50016,80.23284,NH3,2,7,5
India,Madhya Pradesh,Maihar,"Sahilara, Maihar - KJS Cements",22-02-2024 14:00:00,24.2613009,80.7231783,SO2,12,18,14
India,Madhya Pradesh,Mandideep,"Sector-D Industrial Area, Mandideep - MPPCB",22-02-2024 14:00:00,23.108440,77.511428,SO2,7,15,10
India,Madhya Pradesh,Sagar,"Civil Lines, Sagar - MPPCB",22-02-2024 14:00:00,23.838586,78.759431,NH3,4,4,4
India,Madhya Pradesh,Sagar,"Civil Lines, Sagar - MPPCB",22-02-2024 14:00:00,23.838586,78.759431,SO2,3,6,5
India,Madhya Pradesh,Sagar,"Deen Dayal Nagar, Sagar - MPPCB",22-02-2024 14:00:00,23.8640158,78.80289321,PM2.5,5,29,17
India,Madhya Pradesh,Sagar,"Deen Dayal Nagar, Sagar - MPPCB",22-02-2024 14:00:00,23.8640158,78.80289321,PM10,21,78,49
India,Madhya Pradesh,Satna,"Bandhavgar Colony, Satna - Birla Cement",22-02-2024 14:00:00,24.58434363,80.8549414,SO2,3,7,5
India,Madhya Pradesh,Satna,"Bandhavgar Colony, Satna - Birla Cement",22-02-2024 14:00:00,24.58434363,80.8549414,OZONE,58,80,67
India,Madhya Pradesh,Ujjain,"Mahakaleshwar Temple, Ujjain - MPPCB",22-02-2024 14:00:00,23.182719 ,75.768218 ,PM10,62,92,78
India,Madhya Pradesh,Ujjain,"Mahakaleshwar Temple, Ujjain - MPPCB",22-02-2024 14:00:00,23.182719 ,75.768218 ,OZONE,114,153,136
India,Maharashtra,Ahmednagar,"Tarakpur, Ahmednagar - MPCB",22-02-2024 14:00:00,19.10122,74.73339,OZONE,11,92,60
India,Maharashtra,Akola,"Ramdaspeth, Akola - MPCB",22-02-2024 14:00:00,20.719516,77.000253,SO2,11,27,20
India,Maharashtra,Amravati,"Shivneri Colony, Amravati - MPCB",22-02-2024 14:00:00,20.9402359,77.7895248,PM10,77,132,102
India,Maharashtra,Amravati,"Shri Shivaji Science College, Amaravati - MPCB",22-02-2024 14:00:00,20.939198,77.765701,PM2.5,2,84,50
India,Maharashtra,Aurangabad,"MIDC Chilkalthana, Aurangabad - MPCB",22-02-2024 14:00:00,19.875620,75.387310,PM2.5,18,56,39
India,Maharashtra,Aurangabad,"MIDC Chilkalthana, Aurangabad - MPCB",22-02-2024 14:00:00,19.875620,75.387310,NO2,5,25,10
India,Maharashtra,Aurangabad,"More Chowk Waluj, Aurangabad - MPCB",22-02-2024 14:00:00,19.8389439,75.244448,PM10,23,69,47
India,Maharashtra,Aurangabad,"More Chowk Waluj, Aurangabad - MPCB",22-02-2024 14:00:00,19.8389439,75.244448,SO2,9,12,11
