country,state,city,station,last_update,latitude,longitude,pollutant_id,pollutant_min,pollutant_max,pollutant_avg
India,Andhra_Pradesh,Amaravati,"Secretariat, Amaravati - APPCB",24-02-2024 11:00:00,16.5150833,80.5181667,NO2,6,13,9
India,Andhra_Pradesh,Chittoor,"Gangineni Cheruvu, Chittoor - APPCB",24-02-2024 11:00:00,13.204880,79.097889,PM2.5,45,67,55
India,Andhra_Pradesh,Chittoor,"Gangineni Cheruvu, Chittoor - APPCB",24-02-2024 11:00:00,13.204880,79.097889,NO2,6,12,9
India,Andhra_Pradesh,Tirupati,"Tirumala, Tirupati - APPCB",24-02-2024 11:00:00,13.67,79.35,CO,42,61,44
India,Andhra_Pradesh,Tirupati,"Vaikuntapuram, Tirupati - APPCB",24-02-2024 11:00:00,13.615387,79.409230,OZONE,5,48,9
India,Andhra_Pradesh,Vijayawada,"Kanuru, Vijayawada - APPCB",24-02-2024 11:00:00,16.486692,80.699436,NO2,15,20,17
India,Andhra_Pradesh,Vijayawada,"Rajiv Gandhi Park, Vijayawada - APPCB",24-02-2024 11:00:00,16.509717,80.612222,SO2,4,9,6
India,Andhra_Pradesh,Vijayawada,"Rajiv Nagar, Vijayawada - APPCB",24-02-2024 11:00:00,16.554731,80.649110,OZONE,2,31,12
India,Andhra_Pradesh,Visakhapatnam,"GVM Corporation, Visakhapatnam - APPCB",24-02-2024 11:00:00,17.72,83.3,PM2.5,45,93,62
India,Andhra_Pradesh,Visakhapatnam,"GVM Corporation, Visakhapatnam - APPCB",24-02-2024 11:00:00,17.72,83.3,SO2,9,17,12
India,Arunachal_Pradesh,Naharlagun,"Naharlagun, Naharlagun - APSPCB",24-02-2024 11:00:00,27.103358,93.679645,SO2,3,4,4
India,Assam,Byrnihat,"Central Academy for SFS, Byrnihat - PCBA",24-02-2024 11:00:00,26.071318,91.87488,NH3,3,8,7
India,Assam,Guwahati,"IITG, Guwahati - PCBA",24-02-2024 11:00:00,26.2028636,91.70046436,PM10,74,188,117
India,Assam,Guwahati,"IITG, Guwahati - PCBA",24-02-2024 11:00:00,26.2028636,91.70046436,NO2,1,11,5
India,Assam,Guwahati,"LGBI Airport, Guwahati - PCBA",24-02-2024 11:00:00,26.10887,91.589544,PM10,NA,NA,NA
India,Assam,Guwahati,"LGBI Airport, Guwahati - PCBA",24-02-2024 11:00:00,26.10887,91.589544,NO2,NA,NA,NA
India,Assam,Guwahati,"LGBI Airport, Guwahati - PCBA",24-02-2024 11:00:00,26.10887,91.589544,SO2,NA,NA,NA
India,Assam,Guwahati,"Pan Bazaar, Guwahati - PCBA",24-02-2024 11:00:00,26.187500,91.744194,PM10,84,309,143
India,Assam,Guwahati,"Pan Bazaar, Guwahati - PCBA",24-02-2024 11:00:00,26.187500,91.744194,NO2,1,12,5
India,Assam,Guwahati,"Pan Bazaar, Guwahati - PCBA",24-02-2024 11:00:00,26.187500,91.744194,CO,20,110,33
India,Assam,Guwahati,"Railway Colony, Guwahati - PCBA",24-02-2024 11:00:00,26.181742,91.78063,SO2,5,15,10
India,Assam,Guwahati,"Railway Colony, Guwahati - PCBA",24-02-2024 11:00:00,26.181742,91.78063,CO,18,112,46
India,Assam,Nalbari,"Bata Chowk, Nalbari - PCBA",24-02-2024 11:00:00,26.446912,91.439057,SO2,6,7,7
India,Assam,Nalbari,"Bata Chowk, Nalbari - PCBA",24-02-2024 11:00:00,26.446912,91.439057,CO,96,159,96
India,Assam,Silchar,"Tarapur, Silchar - PCBA",24-02-2024 11:00:00,24.82827,92.79525,CO,20,49,22
India,Assam,Sivasagar,"Girls College, Sivasagar - PCBA",24-02-2024 11:00:00,26.987634,94.636574,PM10,11,94,46
India,Assam,Sivasagar,"Girls College, Sivasagar - PCBA",24-02-2024 11:00:00,26.987634,94.636574,NH3,3,3,3
India,Bihar,Arrah,"New DM Office, Arrah - BSPCB",24-02-2024 11:00:00,25.5626095,84.663264,PM2.5,60,187,100
India,Bihar,Arrah,"New DM Office, Arrah - BSPCB",24-02-2024 11:00:00,25.5626095,84.663264,PM10,87,157,112
India,Bihar,Arrah,"New DM Office, Arrah - BSPCB",24-02-2024 11:00:00,25.5626095,84.663264,SO2,16,21,18
India,Bihar,Arrah,"New DM Office, Arrah - BSPCB",24-02-2024 11:00:00,25.5626095,84.663264,OZONE,12,28,17
India,Bihar,Aurangabad,"Gurdeo Nagar, Aurangabad - BSPCB",24-02-2024 11:00:00,24.75746,84.366208,CO,48,72,70
India,Bihar,Bhagalpur,"DM Office_Kachari Chowk, Bhagalpur - BSPCB",24-02-2024 11:00:00,25.251013,86.989001,PM2.5,60,263,127
India,Bihar,Bhagalpur,"DM Office_Kachari Chowk, Bhagalpur - BSPCB",24-02-2024 11:00:00,25.251013,86.989001,CO,20,69,26
India,Bihar,Buxar,"Charitra Van, Buxar - BSPCB (Formerly known as Central Jail)",24-02-2024 11:00:00,25.567520,83.966379,PM2.5,NA,NA,NA
India,Bihar,Buxar,"Charitra Van, Buxar - BSPCB (Formerly known as Central Jail)",24-02-2024 11:00:00,25.567520,83.966379,OZONE,6,109,33
India,Bihar,Chhapra,"Darshan Nagar, Chhapra - BSPCB",24-02-2024 11:00:00,25.7808257,84.7446768,PM10,88,404,149
India,Bihar,Gaya,"Collectorate, Gaya - BSPCB",24-02-2024 11:00:00,24.7955,84.9994,PM2.5,42,282,140
India,Bihar,Gaya,"Collectorate, Gaya - BSPCB",24-02-2024 11:00:00,24.7955,84.9994,NO2,1,3,2
India,Bihar,Gaya,"Collectorate, Gaya - BSPCB",24-02-2024 11:00:00,24.7955,84.9994,OZONE,46,80,67
India,Bihar,Gaya,"Kareemganj, Gaya - BSPCB",24-02-2024 11:00:00,24.792403,84.992416,PM2.5,5,307,105
India,Bihar,Gaya,"SFTI Kusdihra, Gaya - BSPCB",24-02-2024 11:00:00,24.762518,84.982348,CO,18,48,36
India,Bihar,Gaya,"SFTI Kusdihra, Gaya - BSPCB",24-02-2024 11:00:00,24.762518,84.982348,OZONE,1,54,7
India,Bihar,Hajipur,"Industrial Area, Hajipur - BSPCB",24-02-2024 11:00:00,25.697189,85.245900,CO,20,55,42
India,Bihar,Kishanganj,"SDM Office_Khagra, Kishanganj - BSPCB",24-02-2024 11:00:00,26.0881305,87.93840336,OZONE,19,53,21
India,Bihar,Manguraha,"Forest Rest House, Manguraha - BSPCB",24-02-2024 11:00:00,27.308328,84.531742,PM2.5,20,52,29
India,Bihar,Manguraha,"Forest Rest House, Manguraha - BSPCB",24-02-2024 11:00:00,27.308328,84.531742,NO2,5,14,9
India,Bihar,Manguraha,"Forest Rest House, Manguraha - BSPCB",24-02-2024 11:00:00,27.308328,84.531742,OZONE,3,92,41
India,Bihar,Motihari,"Gandak Colony, Motihari - BSPCB",24-02-2024 11:00:00,26.63086,84.90051,PM2.5,43,190,105
India,Bihar,Motihari,"Gandak Colony, Motihari - BSPCB",24-02-2024 11:00:00,26.63086,84.90051,SO2,1,14,8
India,Bihar,Munger,"Town Hall, Munger - BSPCB",24-02-2024 11:00:00,25.376776,86.471523,SO2,29,57,39
India,Bihar,Muzaffarpur,"Buddha Colony, Muzaffarpur - BSPCB",24-02-2024 11:00:00,26.11442,85.39813,CO,10,48,29
India,Bihar,Muzaffarpur,"Muzaffarpur Collectorate, Muzaffarpur - BSPCB",24-02-2024 11:00:00,26.1209,85.3647,SO2,4,9,6
India,Bihar,Muzaffarpur,"Muzaffarpur Collectorate, Muzaffarpur - BSPCB",24-02-2024 11:00:00,26.1209,85.3647,OZONE,14,81,15
India,Bihar,Patna,"DRM Office Danapur, Patna - BSPCB",24-02-2024 11:00:00,25.586562,85.043586,NO2,13,84,42
India,Bihar,Patna,"DRM Office Danapur, Patna - BSPCB",24-02-2024 11:00:00,25.586562,85.043586,SO2,6,9,7
India,Bihar,Patna,"DRM Office Danapur, Patna - BSPCB",24-02-2024 11:00:00,25.586562,85.043586,CO,24,97,37
India,Bihar,Patna,"DRM Office Danapur, Patna - BSPCB",24-02-2024 11:00:00,25.586562,85.043586,OZONE,2,67,16
India,Bihar,Patna,"IGSC Planetarium Complex, Patna - BSPCB",24-02-2024 11:00:00,25.610369,85.132568,NO2,12,12,12
India,Bihar,Patna,"IGSC Planetarium Complex, Patna - BSPCB",24-02-2024 11:00:00,25.610369,85.132568,CO,12,16,13
India,Bihar,Patna,"Muradpur, Patna - BSPCB",24-02-2024 11:00:00,25.619651,85.147382,PM2.5,50,226,143
India,Bihar,Patna,"Muradpur, Patna - BSPCB",24-02-2024 11:00:00,25.619651,85.147382,SO2,5,9,7
India,Bihar,Patna,"Muradpur, Patna - BSPCB",24-02-2024 11:00:00,25.619651,85.147382,OZONE,7,69,30
India,Bihar,Patna,"Rajbansi Nagar, Patna - BSPCB",24-02-2024 11:00:00,25.599486,85.113666,PM10,102,149,125
India,Bihar,Patna,"Rajbansi Nagar, Patna - BSPCB",24-02-2024 11:00:00,25.599486,85.113666,NH3,2,3,3
India,Bihar,Patna,"Rajbansi Nagar, Patna - BSPCB",24-02-2024 11:00:00,25.599486,85.113666,CO,14,50,24
India,Bihar,Patna,"Samanpura, Patna - BSPCB",24-02-2024 11:00:00,25.596727,85.085624,PM10,130,457,211
India,Bihar,Patna,"Samanpura, Patna - BSPCB",24-02-2024 11:00:00,25.596727,85.085624,SO2,15,17,16
India,Bihar,Patna,"Samanpura, Patna - BSPCB",24-02-2024 11:00:00,25.596727,85.085624,OZONE,16,37,28
India,Bihar,Purnia,"Mariam Nagar, Purnia - BSPCB",24-02-2024 11:00:00,25.366336,87.117468,CO,30,82,64
India,Bihar,Rajgir,"Dangi Tola, Rajgir - BSPCB",24-02-2024 11:00:00,25.03280,85.41948,PM2.5,48,197,80
India,Bihar,Rajgir,"Dangi Tola, Rajgir - BSPCB",24-02-2024 11:00:00,25.03280,85.41948,NH3,1,2,1
India,Bihar,Saharsa,"Police Line, Saharsa - BSPCB",24-02-2024 11:00:00,25.892357,86.590325,OZONE,22,98,36
India,Bihar,Sasaram,"Dada Peer, Sasaram - BSPCB",24-02-2024 11:00:00,24.952822,84.002396,CO,44,107,104
India,Bihar,Siwan,"Chitragupta Nagar, Siwan - BSPCB",24-02-2024 11:00:00,26.2271665,84.3570427,NO2,13,66,26
India,Bihar,Siwan,"Chitragupta Nagar, Siwan - BSPCB",24-02-2024 11:00:00,26.2271665,84.3570427,NH3,1,8,3
India,Bihar,Siwan,"Chitragupta Nagar, Siwan - BSPCB",24-02-2024 11:00:00,26.2271665,84.3570427,CO,27,153,56
India,Chandigarh,Chandigarh,"Sector 22, Chandigarh - CPCC",24-02-2024 11:00:00,30.735567,76.775714,SO2,4,40,15
India,Chandigarh,Chandigarh,"Sector-53, Chandigarh - CPCC",24-02-2024 11:00:00,30.719859,76.738637,PM2.5,22,336,159
India,Chhattisgarh,Bhilai,"32Bungalows, Bhilai - CECB",24-02-2024 11:00:00,21.194815,81.314770,NO2,13,24,19
India,Chhattisgarh,Bhilai,"32Bungalows, Bhilai - CECB",24-02-2024 11:00:00,21.194815,81.314770,SO2,2,7,5
India,Chhattisgarh,Bhilai,"32Bungalows, Bhilai - CECB",24-02-2024 11:00:00,21.194815,81.314770,OZONE,4,8,5
India,Chhattisgarh,Bhilai,"Civic Center, Bhilai - Bhilai Steel Plant",24-02-2024 11:00:00,21.185571,81.343175,PM2.5,16,96,32
India,Chhattisgarh,Bhilai,"Hathkhoj, Bhilai - CECB",24-02-2024 11:00:00,21.224231,81.408350,SO2,13,42,21
India,Chhattisgarh,Chhal,"Nawapara SECL Colony, Chhal - CECB",24-02-2024 11:00:00,22.118125,83.140608,PM10,35,104,59
India,Chhattisgarh,Chhal,"Nawapara SECL Colony, Chhal - CECB",24-02-2024 11:00:00,22.118125,83.140608,NO2,11,49,20
India,Chhattisgarh,Chhal,"Nawapara SECL Colony, Chhal - CECB",24-02-2024 11:00:00,22.118125,83.140608,SO2,11,63,17
India,Chhattisgarh,Korba,"Urja Nagar, Korba - CECB",24-02-2024 11:00:00,22.348441,82.549611,SO2,2,6,4
India,Chhattisgarh,Kunjemura,"OP Jindal School, Kunjemura - CECB",24-02-2024 11:00:00,22.126650,83.483212,CO,16,36,28
India,Chhattisgarh,Milupara,"Govt. Higher Secondary School, Milupara - CECB",24-02-2024 11:00:00,22.1910172,83.5197009,PM2.5,15,38,27
India,Chhattisgarh,Milupara,"Govt. Higher Secondary School, Milupara - CECB",24-02-2024 11:00:00,22.1910172,83.5197009,NH3,1,2,2
India,Chhattisgarh,Raipur,"Bhatagaon New ISBT, Raipur - CECB",24-02-2024 11:00:00,21.219665,81.630094,NH3,1,2,1
India,Chhattisgarh,Tumidih,"OP Jindal Industrial Park, Tumidih - CECB",24-02-2024 11:00:00,22.06631475,83.33820077,NO2,5,46,15
India,Delhi,Delhi,"Alipur, Delhi - DPCC",24-02-2024 11:00:00,28.815329,77.153010,PM2.5,29,306,129
India,Delhi,Delhi,"Alipur, Delhi - DPCC",24-02-2024 11:00:00,28.815329,77.153010,OZONE,3,128,20
India,Delhi,Delhi,"Ashok Vihar, Delhi - DPCC",24-02-2024 11:00:00,28.695381,77.181665,NO2,15,121,70
India,Delhi,Delhi,"Aya Nagar, Delhi - IMD",24-02-2024 11:00:00,28.4706914,77.1099364,NO2,NA,NA,NA
India,Delhi,Delhi,"Bawana, Delhi - DPCC",24-02-2024 11:00:00,28.776200,77.051074,NH3,5,8,6
India,Delhi,Delhi,"Bawana, Delhi - DPCC",24-02-2024 11:00:00,28.776200,77.051074,OZONE,4,97,15
India,Delhi,Delhi,"Burari Crossing, Delhi - IMD",24-02-2024 11:00:00,28.7256504,77.2011573,PM10,81,404,198
India,Delhi,Delhi,"CRRI Mathura Road, Delhi - IMD",24-02-2024 11:00:00,28.5512005,77.2735737,PM10,70,260,152
India,Delhi,Delhi,"CRRI Mathura Road, Delhi - IMD",24-02-2024 11:00:00,28.5512005,77.2735737,NO2,28,48,37
India,Delhi,Delhi,"Chandni Chowk, Delhi - IITM",24-02-2024 11:00:00,28.656756,77.227234,NH3,7,8,8
India,Delhi,Delhi,"DTU, Delhi - CPCB",24-02-2024 11:00:00,28.7500499,77.1112615,NH3,11,24,15
India,Delhi,Delhi,"Dr. Karni Singh Shooting Range, Delhi - DPCC",24-02-2024 11:00:00,28.498571,77.264840,PM10,75,201,138
India,Delhi,Delhi,"Dr. Karni Singh Shooting Range, Delhi - DPCC",24-02-2024 11:00:00,28.498571,77.264840,NH3,4,7,5
India,Delhi,Delhi,"Dr. Karni Singh Shooting Range, Delhi - DPCC",24-02-2024 11:00:00,28.498571,77.264840,CO,20,102,68
India,Delhi,Delhi,"Dwarka-Sector 8, Delhi - DPCC ",24-02-2024 11:00:00,28.5710274,77.0719006,CO,14,101,75
India,Delhi,Delhi,"IGI Airport (T3), Delhi - IMD",24-02-2024 11:00:00,28.5627763,77.1180053,OZONE,2,49,6
India,Delhi,Delhi,"ITO, Delhi - CPCB",24-02-2024 11:00:00,28.628624,77.241060,SO2,2,23,11
India,Delhi,Delhi,"Lodhi Road, Delhi - IITM",24-02-2024 11:00:00,28.588333,77.221667,SO2,NA,NA,NA
India,Delhi,Delhi,"Lodhi Road, Delhi - IMD",24-02-2024 11:00:00,28.5918245,77.2273074,NO2,5,18,11
India,Delhi,Delhi,"Major Dhyan Chand National Stadium, Delhi - DPCC",24-02-2024 11:00:00,28.611281,77.237738,NH3,5,9,7
India,Delhi,Delhi,"Mandir Marg, Delhi - DPCC",24-02-2024 11:00:00,28.636429,77.201067,OZONE,6,26,9
India,Delhi,Delhi,"Mundka, Delhi - DPCC",24-02-2024 11:00:00,28.684678,77.076574,NO2,21,111,61
India,Delhi,Delhi,"Mundka, Delhi - DPCC",24-02-2024 11:00:00,28.684678,77.076574,CO,28,73,56
India,Delhi,Delhi,"NSIT Dwarka, Delhi - CPCB",24-02-2024 11:00:00,28.60909,77.0325413,NO2,46,82,71
India,Delhi,Delhi,"NSIT Dwarka, Delhi - CPCB",24-02-2024 11:00:00,28.60909,77.0325413,SO2,11,21,16
India,Delhi,Delhi,"Najafgarh, Delhi - DPCC",24-02-2024 11:00:00,28.570173,76.933762,NO2,7,8,7
India,Delhi,Delhi,"Najafgarh, Delhi - DPCC",24-02-2024 11:00:00,28.570173,76.933762,NH3,1,1,1
India,Delhi,Delhi,"Najafgarh, Delhi - DPCC",24-02-2024 11:00:00,28.570173,76.933762,SO2,8,16,14
India,Delhi,Delhi,"Narela, Delhi - DPCC",24-02-2024 11:00:00,28.822836,77.101981,NH3,5,9,6
India,Delhi,Delhi,"Nehru Nagar, Delhi - DPCC",24-02-2024 11:00:00,28.567890,77.250515,NH3,7,16,11
India,Delhi,Delhi,"North Campus, DU, Delhi - IMD",24-02-2024 11:00:00,28.6573814,77.1585447,CO,4,58,24
India,Delhi,Delhi,"Okhla Phase-2, Delhi - DPCC",24-02-2024 11:00:00,28.530785,77.271255,SO2,12,23,16
India,Delhi,Delhi,"Patparganj, Delhi - DPCC",24-02-2024 11:00:00,28.623763,77.287209,SO2,6,11,8
India,Delhi,Delhi,"Patparganj, Delhi - DPCC",24-02-2024 11:00:00,28.623763,77.287209,OZONE,1,83,4
India,Delhi,Delhi,"Pusa, Delhi - DPCC",24-02-2024 11:00:00,28.639652,77.146275,PM10,116,338,173
India,Delhi,Delhi,"R K Puram, Delhi - DPCC",24-02-2024 11:00:00,28.563262,77.186937,PM10,97,226,150
India,Delhi,Delhi,"R K Puram, Delhi - DPCC",24-02-2024 11:00:00,28.563262,77.186937,SO2,14,29,20
India,Delhi,Delhi,"Rohini, Delhi - DPCC",24-02-2024 11:00:00,28.732528,77.119920,PM2.5,35,351,186
India,Delhi,Delhi,"Rohini, Delhi - DPCC",24-02-2024 11:00:00,28.732528,77.119920,NO2,17,98,59
India,Delhi,Delhi,"Rohini, Delhi - DPCC",24-02-2024 11:00:00,28.732528,77.119920,NH3,6,10,8
India,Delhi,Delhi,"Rohini, Delhi - DPCC",24-02-2024 11:00:00,28.732528,77.119920,SO2,7,71,17
India,Delhi,Delhi,"Rohini, Delhi - DPCC",24-02-2024 11:00:00,28.732528,77.119920,CO,10,104,58
India,Delhi,Delhi,"Shadipur, Delhi - CPCB",24-02-2024 11:00:00,28.6514781,77.1473105,CO,20,70,36
India,Delhi,Delhi,"Shadipur, Delhi - CPCB",24-02-2024 11:00:00,28.6514781,77.1473105,OZONE,13,28,14
India,Delhi,Delhi,"Sirifort, Delhi - CPCB",24-02-2024 11:00:00,28.5504249,77.2159377,NO2,120,194,176
India,Gujarat,Ahmedabad,"Maninagar, Ahmedabad - GPCB",24-02-2024 11:00:00,23.002657,72.591912,SO2,3,25,17
India,Gujarat,Ahmedabad,"Raikhad, Ahmedabad - IITM",24-02-2024 11:00:00,23.020509,72.579261,NH3,1,3,2
India,Gujarat,Ahmedabad,"Raikhad, Ahmedabad - IITM",24-02-2024 11:00:00,23.020509,72.579261,OZONE,1,68,14
India,Gujarat,Ahmedabad,"Rakhial, Ahmedabad - IITM",24-02-2024 11:00:00,23.016834,72.625775,NO2,65,79,72
India,Gujarat,Ahmedabad,"Rakhial, Ahmedabad - IITM",24-02-2024 11:00:00,23.016834,72.625775,OZONE,4,48,20
India,Gujarat,Ahmedabad,"SVPI Airport Hansol, Ahmedabad - IITM",24-02-2024 11:00:00,23.076793,72.627874,SO2,3,5,4
India,Gujarat,Ahmedabad,"Sardar Vallabhbhai Patel Stadium, Ahmedabad - IITM",24-02-2024 11:00:00,23.043070,72.562968,PM2.5,56,225,110
India,Gujarat,Ankleshwar,"GIDC, Ankleshwar - GPCB",24-02-2024 11:00:00,21.613267,73.010555,CO,13,90,69
India,Gujarat,Gandhinagar,"IIPHG Lekawada, Gandhinagar - IITM",24-02-2024 11:00:00,23.243639,72.68994,NH3,3,3,3
India,Gujarat,Gandhinagar,"Sector-10, Gandhinagar - GPCB",24-02-2024 11:00:00,23.221714,72.654328,OZONE,2,42,12
India,Gujarat,Vapi,"Phase-1 GIDC, Vapi - GPCB",24-02-2024 11:00:00,20.362421,72.918013,SO2,46,47,46
India,Gujarat,Vatva,"Phase-4 GIDC, Vatva - GPCB",24-02-2024 11:00:00,22.969611,72.643500,PM2.5,61,279,112
India,Gujarat,Vatva,"Phase-4 GIDC, Vatva - GPCB",24-02-2024 11:00:00,22.969611,72.643500,PM10,41,115,64
India,Gujarat,Vatva,"Phase-4 GIDC, Vatva - GPCB",24-02-2024 11:00:00,22.969611,72.643500,SO2,17,18,17
India,Haryana,Ambala,"Patti Mehar, Ambala - HSPCB",24-02-2024 11:00:00,30.379589,76.778328,PM10,37,61,50
India,Haryana,Ambala,"Patti Mehar, Ambala - HSPCB",24-02-2024 11:00:00,30.379589,76.778328,NH3,7,7,7
India,Haryana,Ambala,"Patti Mehar, Ambala - HSPCB",24-02-2024 11:00:00,30.379589,76.778328,SO2,3,19,9
India,Haryana,Bahadurgarh,"Arya Nagar, Bahadurgarh - HSPCB",24-02-2024 11:00:00,28.6701,76.9254,PM10,71,358,139
India,Haryana,Bahadurgarh,"Arya Nagar, Bahadurgarh - HSPCB",24-02-2024 11:00:00,28.6701,76.9254,NH3,10,12,11
India,Haryana,Bahadurgarh,"Arya Nagar, Bahadurgarh - HSPCB",24-02-2024 11:00:00,28.6701,76.9254,SO2,10,12,11
India,Haryana,Ballabgarh,"Nathu Colony, Ballabgarh - HSPCB",24-02-2024 11:00:00,28.3419248,77.319699,CO,12,105,57
India,Haryana,Bhiwani,"H.B. Colony, Bhiwani - HSPCB",24-02-2024 11:00:00,28.806223,76.141105,PM2.5,40,99,80
India,Haryana,Bhiwani,"H.B. Colony, Bhiwani - HSPCB",24-02-2024 11:00:00,28.806223,76.141105,NH3,5,6,6
India,Haryana,Bhiwani,"H.B. Colony, Bhiwani - HSPCB",24-02-2024 11:00:00,28.806223,76.141105,OZONE,5,47,8
India,Haryana,Charkhi Dadri,"Mini Secretariat, Charkhi Dadri - HSPCB",24-02-2024 11:00:00,28.593883,76.270653,PM10,71,130,92
India,Haryana,Charkhi Dadri,"Mini Secretariat, Charkhi Dadri - HSPCB",24-02-2024 11:00:00,28.593883,76.270653,OZONE,14,18,15
India,Haryana,Dharuhera,"Municipal Corporation Office, Dharuhera -  HSPCB",24-02-2024 11:00:00,28.206800,76.799700,PM2.5,30,301,131
India,Haryana,Dharuhera,"Municipal Corporation Office, Dharuhera -  HSPCB",24-02-2024 11:00:00,28.206800,76.799700,NO2,45,112,72
India,Haryana,Dharuhera,"Municipal Corporation Office, Dharuhera -  HSPCB",24-02-2024 11:00:00,28.206800,76.799700,CO,5,48,35
India,Haryana,Dharuhera,"Municipal Corporation Office, Dharuhera -  HSPCB",24-02-2024 11:00:00,28.206800,76.799700,OZONE,10,74,19
India,Haryana,Faridabad,"New Industrial Town, Faridabad - HSPCB",24-02-2024 11:00:00,28.39072,77.30059,PM2.5,98,500,260
India,Haryana,Faridabad,"Sector 11, Faridabad - HSPCB",24-02-2024 11:00:00,28.376058,77.315741,PM10,77,425,194
India,Haryana,Faridabad,"Sector 11, Faridabad - HSPCB",24-02-2024 11:00:00,28.376058,77.315741,NH3,6,6,6
India,Haryana,Faridabad,"Sector 11, Faridabad - HSPCB",24-02-2024 11:00:00,28.376058,77.315741,CO,10,66,57
India,Haryana,Faridabad,"Sector 11, Faridabad - HSPCB",24-02-2024 11:00:00,28.376058,77.315741,OZONE,3,32,4
India,Haryana,Faridabad,"Sector- 16A, Faridabad - HSPCB",24-02-2024 11:00:00,28.4088421,77.3099081,CO,2,168,83
India,Haryana,Fatehabad,"Huda Sector, Fatehabad - HSPCB",24-02-2024 11:00:00,29.503664,75.467934,NH3,10,11,10
India,Haryana,Gurugram,"Sector-51, Gurugram - HSPCB",24-02-2024 11:00:00,28.4227,77.0667,PM2.5,38,331,188
India,Haryana,Gurugram,"Sector-51, Gurugram - HSPCB",24-02-2024 11:00:00,28.4227,77.0667,CO,16,82,74
India,Haryana,Gurugram,"Teri Gram, Gurugram - HSPCB",24-02-2024 11:00:00,28.4275,77.1465,NO2,20,46,35
India,Haryana,Gurugram,"Vikas Sadan, Gurugram - HSPCB",24-02-2024 11:00:00,28.4501238,77.0263051,PM2.5,18,139,55
India,Haryana,Gurugram,"Vikas Sadan, Gurugram - HSPCB",24-02-2024 11:00:00,28.4501238,77.0263051,NO2,5,25,14
India,Haryana,Gurugram,"Vikas Sadan, Gurugram - HSPCB",24-02-2024 11:00:00,28.4501238,77.0263051,SO2,7,49,26
India,Haryana,Gurugram,"Vikas Sadan, Gurugram - HSPCB",24-02-2024 11:00:00,28.4501238,77.0263051,CO,54,138,103
India,Haryana,Hisar,"Urban Estate-II, Hisar - HSPCB",24-02-2024 11:00:00,29.140560,75.744941,PM10,NA,NA,NA
India,Haryana,Hisar,"Urban Estate-II, Hisar - HSPCB",24-02-2024 11:00:00,29.140560,75.744941,CO,40,107,40
India,Haryana,Hisar,"Urban Estate-II, Hisar - HSPCB",24-02-2024 11:00:00,29.140560,75.744941,OZONE,48,144,62
India,Haryana,Jind,"Police Lines, Jind - HSPCB",24-02-2024 11:00:00,29.307814,76.337619,NH3,2,5,4
India,Haryana,Kaithal,"Rishi Nagar, Kaithal - HSPCB",24-02-2024 11:00:00,29.8006,76.4155,PM2.5,35,92,62
India,Haryana,Kaithal,"Rishi Nagar, Kaithal - HSPCB",24-02-2024 11:00:00,29.8006,76.4155,NO2,24,26,25
India,Haryana,Karnal,"Sector-12, Karnal - HSPCB",24-02-2024 11:00:00,29.695300,77.002700,NH3,10,13,11
India,Haryana,Karnal,"Sector-12, Karnal - HSPCB",24-02-2024 11:00:00,29.695300,77.002700,SO2,12,13,12
India,Haryana,Karnal,"Sector-12, Karnal - HSPCB",24-02-2024 11:00:00,29.695300,77.002700,CO,15,39,31
India,Haryana,Karnal,"Sector-12, Karnal - HSPCB",24-02-2024 11:00:00,29.695300,77.002700,OZONE,28,34,31
India,Haryana,Kurukshetra,"Sector-7, Kurukshetra - HSPCB",24-02-2024 11:00:00,29.966942,76.875879,SO2,8,63,26
India,Haryana,Mandikhera,"General Hospital, Mandikhera - HSPCB",24-02-2024 11:00:00,27.9002,76.9938,PM2.5,15,74,49
India,Haryana,Mandikhera,"General Hospital, Mandikhera - HSPCB",24-02-2024 11:00:00,27.9002,76.9938,NH3,18,21,19
India,Haryana,Manesar,"Sector-2 IMT, Manesar - HSPCB",24-02-2024 11:00:00,28.360699,76.936090,OZONE,5,48,10
India,Haryana,Narnaul,"Shastri Nagar, Narnaul - HSPCB",24-02-2024 11:00:00,28.060249,76.113115,NO2,16,58,35
India,Haryana,Narnaul,"Shastri Nagar, Narnaul - HSPCB",24-02-2024 11:00:00,28.060249,76.113115,OZONE,47,88,81
India,Haryana,Palwal,"Shyam Nagar, Palwal - HSPCB",24-02-2024 11:00:00,28.1485564,77.3320667,NO2,23,24,24
India,Haryana,Palwal,"Shyam Nagar, Palwal - HSPCB",24-02-2024 11:00:00,28.1485564,77.3320667,NH3,8,9,9
India,Haryana,Panchkula,"Sector-6, Panchkula - HSPCB ",24-02-2024 11:00:00,30.7057778,76.8531805555555,PM2.5,6,42,21
India,Haryana,Panchkula,"Sector-6, Panchkula - HSPCB ",24-02-2024 11:00:00,30.7057778,76.8531805555555,NO2,28,30,29
India,Haryana,Rohtak,"MD University, Rohtak - HSPCB",24-02-2024 11:00:00,28.52123,76.37138,SO2,6,8,7
India,Haryana,Rohtak,"MD University, Rohtak - HSPCB",24-02-2024 11:00:00,28.52123,76.37138,CO,1,50,29
India,Haryana,Sirsa,"F-Block, Sirsa - HSPCB",24-02-2024 11:00:00,29.536400,75.015800,SO2,1,11,6
India,Haryana,Sirsa,"F-Block, Sirsa - HSPCB",24-02-2024 11:00:00,29.536400,75.015800,OZONE,31,85,43
India,Haryana,Sonipat,"Murthal, Sonipat - HSPCB",24-02-2024 11:00:00,29.027200,77.062100,SO2,13,29,20
India,Haryana,Yamuna Nagar,"Gobind Pura, Yamuna Nagar - HSPCB",24-02-2024 11:00:00,30.1480566,77.2893471,PM10,67,274,108
India,Haryana,Yamuna Nagar,"Gobind Pura, Yamuna Nagar - HSPCB",24-02-2024 11:00:00,30.1480566,77.2893471,NO2,11,30,19
India,Haryana,Yamuna Nagar,"Gobind Pura, Yamuna Nagar - HSPCB",24-02-2024 11:00:00,30.1480566,77.2893471,OZONE,19,32,21
India,Himachal Pradesh,Baddi,"HIMUDA Complex Phase-1, Baddi - HPPCB",24-02-2024 11:00:00,30.943887,76.801991,NO2,9,82,28
India,Himachal Pradesh,Baddi,"HIMUDA Complex Phase-1, Baddi - HPPCB",24-02-2024 11:00:00,30.943887,76.801991,SO2,10,100,38
India,Jharkhand,Dhanbad,"Kalakusuma, Dhanbad - DMC",24-02-2024 11:00:00,23.811548,86.481238,PM2.5,4,94,35
India,Jharkhand,Dhanbad,"Kalakusuma, Dhanbad - DMC",24-02-2024 11:00:00,23.811548,86.481238,PM10,60,151,97
India,Jharkhand,Dhanbad,"Kalakusuma, Dhanbad - DMC",24-02-2024 11:00:00,23.811548,86.481238,OZONE,17,34,20
India,Jharkhand,Pathardih,"Mohalbani Ghat, Pathardih - DMC",24-02-2024 11:00:00,23.669880,86.411725,SO2,18,21,19
India,Karnataka,Bagalkot,"Vidayagiri, Bagalkot - KSPCB",24-02-2024 11:00:00,16.172806,75.659694,OZONE,NA,NA,NA
India,Karnataka,Belgaum,"Ramteerth Nagar, Belgaum - KSPCB",24-02-2024 11:00:00,15.888653,74.541751,PM2.5,22,88,40
India,Karnataka,Belgaum,"Ramteerth Nagar, Belgaum - KSPCB",24-02-2024 11:00:00,15.888653,74.541751,SO2,8,9,8
India,Karnataka,Belgaum,"Ramteerth Nagar, Belgaum - KSPCB",24-02-2024 11:00:00,15.888653,74.541751,OZONE,19,19,19
India,Karnataka,Bengaluru,"BTM Layout, Bengaluru - CPCB",24-02-2024 11:00:00,12.9135218,77.5950804,PM10,NA,NA,NA
India,Karnataka,Bengaluru,"Bapuji Nagar, Bengaluru - KSPCB",24-02-2024 11:00:00,12.951913,77.539784,PM2.5,37,153,67
India,Karnataka,Bengaluru,"Bapuji Nagar, Bengaluru - KSPCB",24-02-2024 11:00:00,12.951913,77.539784,NO2,8,13,11
India,Karnataka,Bengaluru,"Bapuji Nagar, Bengaluru - KSPCB",24-02-2024 11:00:00,12.951913,77.539784,NH3,1,1,1
India,Karnataka,Bengaluru,"Hombegowda Nagar, Bengaluru - KSPCB",24-02-2024 11:00:00,12.938539,77.590100,CO,13,20,15
India,Karnataka,Bengaluru,"Hombegowda Nagar, Bengaluru - KSPCB",24-02-2024 11:00:00,12.938539,77.590100,OZONE,4,5,4
India,Karnataka,Bengaluru,"Jayanagar 5th Block, Bengaluru - KSPCB",24-02-2024 11:00:00,12.920984,77.584908,OZONE,27,29,28
India,Karnataka,Bengaluru,"Kasturi Nagar, Bengaluru - KSPCB",24-02-2024 11:00:00,13.003872,77.664217,OZONE,4,226,39
India,Karnataka,Bengaluru,"Peenya, Bengaluru - CPCB",24-02-2024 11:00:00,13.0270199,77.494094,SO2,12,17,15
India,Karnataka,Bengaluru,"Peenya, Bengaluru - CPCB",24-02-2024 11:00:00,13.0270199,77.494094,CO,18,43,35
India,Karnataka,Bengaluru,"RVCE-Mailasandra, Bengaluru - KSPCB",24-02-2024 11:00:00,12.921418,77.502466,PM10,78,377,155
India,Karnataka,Bengaluru,"RVCE-Mailasandra, Bengaluru - KSPCB",24-02-2024 11:00:00,12.921418,77.502466,NO2,53,66,54
India,Karnataka,Bengaluru,"Shivapura_Peenya, Bengaluru - KSPCB",24-02-2024 11:00:00,13.0246342,77.5080115,PM2.5,5,310,67
India,Karnataka,Bengaluru,"Silk Board, Bengaluru - KSPCB",24-02-2024 11:00:00,12.917348,77.622813,PM2.5,37,119,63
India,Karnataka,Bengaluru,"Silk Board, Bengaluru - KSPCB",24-02-2024 11:00:00,12.917348,77.622813,PM10,69,256,117
India,Karnataka,Bengaluru,"Silk Board, Bengaluru - KSPCB",24-02-2024 11:00:00,12.917348,77.622813,NO2,NA,NA,NA
India,Karnataka,Bidar,"Naubad, Bidar - KSPCB",24-02-2024 11:00:00,17.930306,77.482194,NO2,NA,NA,NA
India,Karnataka,Chamarajanagar,"Urban, Chamarajanagar - KSPCB",24-02-2024 11:00:00,11.55358,76.55521,SO2,4,8,5
India,Karnataka,Chikkamagaluru,"Kalyana Nagara, Chikkamagaluru - KSPCB",24-02-2024 11:00:00,13.328028,75.797056,PM2.5,23,65,44
India,Karnataka,Dharwad,"Kalabhavan, Dharwad - KSPCB",24-02-2024 11:00:00,15.459706,75.008381,NO2,1,30,18
India,Karnataka,Dharwad,"Kalabhavan, Dharwad - KSPCB",24-02-2024 11:00:00,15.459706,75.008381,SO2,3,25,7
India,Karnataka,Dharwad,"Kalabhavan, Dharwad - KSPCB",24-02-2024 11:00:00,15.459706,75.008381,OZONE,2,51,18
India,Karnataka,Hassan,"B.Katihalli, Hassan - KSPCB",24-02-2024 11:00:00,13.008556,76.125258,PM2.5,NA,NA,NA
India,Karnataka,Haveri,"Ashwini Nagar, Haveri - KSPCB",24-02-2024 11:00:00,14.791800,75.389600,NO2,27,40,32
India,Karnataka,Haveri,"Ashwini Nagar, Haveri - KSPCB",24-02-2024 11:00:00,14.791800,75.389600,NH3,3,4,3
India,Karnataka,Hubballi,"Deshpande Nagar, Hubballi - KSPCB",24-02-2024 11:00:00,15.351773,75.140726,PM10,72,162,101
India,Karnataka,Hubballi,"Deshpande Nagar, Hubballi - KSPCB",24-02-2024 11:00:00,15.351773,75.140726,OZONE,1,54,21
India,Karnataka,Hubballi,"Lingaraj Nagar, Hubballi - KSPCB",24-02-2024 11:00:00,15.3714823,75.1160168,PM2.5,28,55,39
India,Karnataka,Hubballi,"Lingaraj Nagar, Hubballi - KSPCB",24-02-2024 11:00:00,15.3714823,75.1160168,NO2,7,16,15
India,Karnataka,Hubballi,"Lingaraj Nagar, Hubballi - KSPCB",24-02-2024 11:00:00,15.3714823,75.1160168,OZONE,12,50,18
India,Karnataka,Kalaburagi,"Lal Bahadur Shastri Nagar, Kalaburagi - KSPCB",24-02-2024 11:00:00,17.321993,76.822628,PM10,13,82,37
India,Karnataka,Karwar,"KHB Colony, Karwar - KSPCB",24-02-2024 11:00:00,14.816666,74.141003,NH3,2,12,4
India,Karnataka,Karwar,"KHB Colony, Karwar - KSPCB",24-02-2024 11:00:00,14.816666,74.141003,OZONE,22,22,22
India,Karnataka,Koppal,"Diwator Nagar, Koppal - KSPCB",24-02-2024 11:00:00,15.347630,76.181767,PM2.5,15,61,30
India,Karnataka,Madikeri,"Stuart Hill, Madikeri - KSPCB",24-02-2024 11:00:00,12.415911,75.735050,PM2.5,22,65,42
India,Karnataka,Madikeri,"Stuart Hill, Madikeri - KSPCB",24-02-2024 11:00:00,12.415911,75.735050,SO2,4,4,4
India,Karnataka,Mangalore,"Kadri, Mangalore - KSPCB",24-02-2024 11:00:00,12.889250,74.853000,SO2,18,21,20
India,Karnataka,Raichur,"Haji Colony, Raichur - KSPCB",24-02-2024 11:00:00,16.208139,77.348417,PM2.5,23,77,38
India,Karnataka,Raichur,"Haji Colony, Raichur - KSPCB",24-02-2024 11:00:00,16.208139,77.348417,NH3,1,5,3
India,Karnataka,Raichur,"Haji Colony, Raichur - KSPCB",24-02-2024 11:00:00,16.208139,77.348417,OZONE,3,84,34
India,Karnataka,Ramanagara,"Vijay Nagar, Ramanagara - KSPCB",24-02-2024 11:00:00,12.733409,77.298051,PM10,27,76,46
India,Karnataka,Ramanagara,"Vijay Nagar, Ramanagara - KSPCB",24-02-2024 11:00:00,12.733409,77.298051,NH3,1,2,1
India,Karnataka,Ramanagara,"Vijay Nagar, Ramanagara - KSPCB",24-02-2024 11:00:00,12.733409,77.298051,OZONE,28,30,29
India,Karnataka,Shivamogga,"Vinoba Nagara, Shivamogga - KSPCB",24-02-2024 11:00:00,13.940000,75.555917,CO,20,47,40
India,Karnataka,Vijayapura,"Ibrahimpur, Vijayapura - KSPCB",24-02-2024 11:00:00,16.802639,75.722694,NH3,2,2,2
India,Karnataka,Yadgir,"Collector Office, Yadgir - KSPCB",24-02-2024 11:00:00,16.7602,77.1428,PM2.5,43,69,54
India,Karnataka,Yadgir,"Collector Office, Yadgir - KSPCB",24-02-2024 11:00:00,16.7602,77.1428,SO2,13,31,23
India,Kerala,Eloor,"Udyogamandal, Eloor - Kerala PCB",24-02-2024 11:00:00,10.073232,76.302765,NO2,4,4,4
India,Kerala,Eloor,"Udyogamandal, Eloor - Kerala PCB",24-02-2024 11:00:00,10.073232,76.302765,NH3,1,1,1
India,Kerala,Eloor,"Udyogamandal, Eloor - Kerala PCB",24-02-2024 11:00:00,10.073232,76.302765,SO2,1,5,2
India,Kerala,Eloor,"Udyogamandal, Eloor - Kerala PCB",24-02-2024 11:00:00,10.073232,76.302765,CO,7,101,27
India,Kerala,Kannur,"Thavakkara, Kannur - Kerala PCB",24-02-2024 11:00:00,11.875000,75.373200,PM10,62,72,68
India,Kerala,Kannur,"Thavakkara, Kannur - Kerala PCB",24-02-2024 11:00:00,11.875000,75.373200,NH3,1,1,1
India,Kerala,Kochi,"Vyttila, Kochi - Kerala PCB",24-02-2024 11:00:00,9.969447,76.321186,PM10,34,128,68
India,Kerala,Kollam,"Polayathode, Kollam - Kerala PCB",24-02-2024 11:00:00,8.8787,76.6073,NH3,1,1,1
India,Kerala,Thiruvananthapuram,"Kariavattom, Thiruvananthapuram - Kerala PCB",24-02-2024 11:00:00,8.563700,76.886500,NO2,8,9,9
India,Kerala,Thiruvananthapuram,"Plammoodu, Thiruvananthapuram - Kerala PCB",24-02-2024 11:00:00,8.5149093,76.9435879,NO2,9,11,10
India,Kerala,Thiruvananthapuram,"Plammoodu, Thiruvananthapuram - Kerala PCB",24-02-2024 11:00:00,8.5149093,76.9435879,NH3,2,2,2
India,Madhya Pradesh,Bhopal,"Idgah Hills, Bhopal - MPPCB",24-02-2024 11:00:00,23.264759,77.381568,PM2.5,28,60,40
India,Madhya Pradesh,Bhopal,"Idgah Hills, Bhopal - MPPCB",24-02-2024 11:00:00,23.264759,77.381568,CO,24,55,27
India,Madhya Pradesh,Bhopal,"Paryavaran Parisar, Bhopal - MPPCB",24-02-2024 11:00:00,23.210494,77.425409,SO2,18,28,24
India,Madhya Pradesh,Dewas,"Bhopal Chauraha, Dewas - MPPCB",24-02-2024 11:00:00,22.9682591,76.064118,PM2.5,28,90,58
India,Madhya Pradesh,Gwalior,"Deen Dayal Nagar, Gwalior - MPPCB",24-02-2024 11:00:00,26.259242,78.216432,PM10,51,245,130
India,Madhya Pradesh,Gwalior,"Deen Dayal Nagar, Gwalior - MPPCB",24-02-2024 11:00:00,26.259242,78.216432,NO2,47,115,72
India,Madhya Pradesh,Gwalior,"Deen Dayal Nagar, Gwalior - MPPCB",24-02-2024 11:00:00,26.259242,78.216432,NH3,2,5,3
India,Madhya Pradesh,Gwalior,"Deen Dayal Nagar, Gwalior - MPPCB",24-02-2024 11:00:00,26.259242,78.216432,OZONE,31,147,68
India,Madhya Pradesh,Indore,"Chhoti Gwaltoli, Indore - MPPCB",24-02-2024 11:00:00,22.4310,75.5213,PM2.5,47,204,80
India,Madhya Pradesh,Indore,"Chhoti Gwaltoli, Indore - MPPCB",24-02-2024 11:00:00,22.4310,75.5213,CO,40,108,48
India,Madhya Pradesh,Indore,"Maguda Nagar, Indore - IMC",24-02-2024 11:00:00,22.7524,75.8872,PM10,44,88,62
India,Madhya Pradesh,Indore,"Regional Park, Indore - IMC",24-02-2024 11:00:00,22.6780,75.8559,PM2.5,44,165,76
India,Madhya Pradesh,Indore,"Regional Park, Indore - IMC",24-02-2024 11:00:00,22.6780,75.8559,PM10,41,121,67
India,Madhya Pradesh,Indore,"Regional Park, Indore - IMC",24-02-2024 11:00:00,22.6780,75.8559,SO2,38,42,41
India,Madhya Pradesh,Indore,"Residency Area, Indore - IMC",24-02-2024 11:00:00,22.7084,75.8815,PM10,51,113,71
India,Madhya Pradesh,Jabalpur,"Govindh Bhavan Colony, Jabalpur - JMC",24-02-2024 11:00:00,23.163174,79.973061,PM10,30,59,41
India,Madhya Pradesh,Jabalpur,"Gupteshwar, Jabalpur - JMC",24-02-2024 11:00:00,23.142888,79.916147,PM2.5,53,157,83
India,Madhya Pradesh,Jabalpur,"Marhatal, Jabalpur - MPPCB",24-02-2024 11:00:00,23.168606,79.932247,PM2.5,35,79,50
India,Madhya Pradesh,Jabalpur,"Marhatal, Jabalpur - MPPCB",24-02-2024 11:00:00,23.168606,79.932247,PM10,64,123,90
India,Madhya Pradesh,Katni,"Gole Bazar, Katni - MPPCB",24-02-2024 11:00:00,23.50016,80.23284,NO2,NA,NA,NA
India,Madhya Pradesh,Katni,"Gole Bazar, Katni - MPPCB",24-02-2024 11:00:00,23.50016,80.23284,SO2,NA,NA,NA
India,Madhya Pradesh,Maihar,"Sahilara, Maihar - KJS Cements",24-02-2024 11:00:00,24.2613009,80.7231783,PM10,17,47,29
India,Madhya Pradesh,Mandideep,"Sector-D Industrial Area, Mandideep - MPPCB",24-02-2024 11:00:00,23.108440,77.511428,PM10,62,152,95
India,Madhya Pradesh,Mandideep,"Sector-D Industrial Area, Mandideep - MPPCB",24-02-2024 11:00:00,23.108440,77.511428,SO2,12,119,60
India,Madhya Pradesh,Pithampur,"Sector-2 Industrial Area, Pithampur - MPPCB",24-02-2024 11:00:00,22.624758,75.675238,NH3,4,7,6
India,Madhya Pradesh,Ratlam,"Shasthri Nagar, Ratlam - IPCA Lab",24-02-2024 11:00:00,23.331731,75.045981,SO2,37,40,38
India,Madhya Pradesh,Sagar,"Deen Dayal Nagar, Sagar - MPPCB",24-02-2024 11:00:00,23.8640158,78.80289321,PM10,30,64,46
India,Madhya Pradesh,Satna,"Bandhavgar Colony, Satna - Birla Cement",24-02-2024 11:00:00,24.58434363,80.8549414,PM10,25,47,37
India,Madhya Pradesh,Ujjain,"Mahakaleshwar Temple, Ujjain - MPPCB",24-02-2024 11:00:00,23.182719 ,75.768218 ,PM10,62,129,92
India,Madhya Pradesh,Ujjain,"Mahakaleshwar Temple, Ujjain - MPPCB",24-02-2024 11:00:00,23.182719 ,75.768218 ,NH3,3,6,4
India,Madhya Pradesh,Ujjain,"Mahakaleshwar Temple, Ujjain - MPPCB",24-02-2024 11:00:00,23.182719 ,75.768218 ,OZONE,86,158,152
India,Maharashtra,Ahmednagar,"Tarakpur, Ahmednagar - MPCB",24-02-2024 11:00:00,19.10122,74.73339,OZONE,8,156,60
India,Maharashtra,Akola,"Ramdaspeth, Akola - MPCB",24-02-2024 11:00:00,20.719516,77.000253,PM2.5,57,297,126
India,Maharashtra,Akola,"Ramdaspeth, Akola - MPCB",24-02-2024 11:00:00,20.719516,77.000253,NH3,5,9,7
India,Maharashtra,Akola,"Ramdaspeth, Akola - MPCB",24-02-2024 11:00:00,20.719516,77.000253,CO,10,59,27
India,Maharashtra,Aurangabad,"More Chowk Waluj, Aurangabad - MPCB",24-02-2024 11:00:00,19.8389439,75.244448,SO2,2,11,8
India,Maharashtra,Badlapur,"Katrap, Badlapur - MPCB",24-02-2024 11:00:00,19.16485,73.23409,SO2,14,52,23
India,Maharashtra,Badlapur,"Katrap, Badlapur - MPCB",24-02-2024 11:00:00,19.16485,73.23409,CO,13,88,54
India,Maharashtra,Belapur,"CBD Belapur, Belapur - MPCB",24-02-2024 11:00:00,19.0243902,73.0406721,PM10,91,174,122
India,Maharashtra,Belapur,"CBD Belapur, Belapur - MPCB",24-02-2024 11:00:00,19.0243902,73.0406721,NO2,10,71,42
India,Maharashtra,Bhiwandi,"Gokul Nagar, Bhiwandi - MPCB",24-02-2024 11:00:00,19.309073,73.057223,PM10,46,173,108
India,Maharashtra,Bhiwandi,"Gokul Nagar, Bhiwandi - MPCB",24-02-2024 11:00:00,19.309073,73.057223,NO2,12,57,39
India,Maharashtra,Bhiwandi,"Gokul Nagar, Bhiwandi - MPCB",24-02-2024 11:00:00,19.309073,73.057223,OZONE,3,90,25
India,Maharashtra,Chandrapur,"Chauhan Colony, Chandrapur - MPCB",24-02-2024 11:00:00,19.962900,79.298714,CO,23,30,24
India,Maharashtra,Kalyan,"Khadakpada, Kalyan - MPCB",24-02-2024 11:00:00,19.25292,73.142019,NH3,1,1,1
India,Maharashtra,Kolhapur,"Sinchan Bhavan, Kolhapur - MPCB",24-02-2024 11:00:00,16.7143745,74.2426398,PM10,68,153,95
India,Maharashtra,Kolhapur,"Sinchan Bhavan, Kolhapur - MPCB",24-02-2024 11:00:00,16.7143745,74.2426398,SO2,1,14,4
India,Maharashtra,Kolhapur,"Sinchan Bhavan, Kolhapur - MPCB",24-02-2024 11:00:00,16.7143745,74.2426398,CO,4,66,23
India,Maharashtra,Latur,"Sawe Wadi, Latur - MPCB",24-02-2024 11:00:00,18.39963,76.57452,OZONE,18,85,52
India,Maharashtra,Mahad,"Kamble Tarf Birwadi, Mahad - MPCB",24-02-2024 11:00:00,18.1023399,73.4783687,PM2.5,35,90,62
India,Maharashtra,Mumbai,"Bandra Kurla Complex, Mumbai - MPCB",24-02-2024 11:00:00,19.065931,72.862131,OZONE,1,87,23
India,Maharashtra,Mumbai,"Chakala-Andheri East, Mumbai - IITM",24-02-2024 11:00:00,19.11074,72.86084,PM10,65,94,73
India,Maharashtra,Mumbai,"Chakala-Andheri East, Mumbai - IITM",24-02-2024 11:00:00,19.11074,72.86084,NH3,6,20,11
India,Maharashtra,Mumbai,"Chembur, Mumbai - MPCB",24-02-2024 11:00:00,19.0364585,72.8954371,PM2.5,23,108,53
India,Maharashtra,Mumbai,"Chembur, Mumbai - MPCB",24-02-2024 11:00:00,19.0364585,72.8954371,NO2,18,116,66
India,Maharashtra,Mumbai,"Chhatrapati Shivaji Intl. Airport (T2), Mumbai - MPCB",24-02-2024 11:00:00,19.10078,72.87462,PM10,66,117,85
India,Maharashtra,Mumbai,"Chhatrapati Shivaji Intl. Airport (T2), Mumbai - MPCB",24-02-2024 11:00:00,19.10078,72.87462,OZONE,4,21,8
India,Maharashtra,Mumbai,"Colaba, Mumbai - MPCB",24-02-2024 11:00:00,18.910000,72.820000,PM2.5,12,45,24
India,Maharashtra,Mumbai,"Ghatkopar, Mumbai - BMC",24-02-2024 11:00:00,19.083694,72.920967,SO2,1,2,1
India,Maharashtra,Mumbai,"Kandivali East, Mumbai - MPCB",24-02-2024 11:00:00,19.205800,72.868200,NH3,4,28,7
India,Maharashtra,Mumbai,"Kandivali East, Mumbai - MPCB",24-02-2024 11:00:00,19.205800,72.868200,OZONE,30,31,30
India,Maharashtra,Mumbai,"Kandivali West, Mumbai - BMC",24-02-2024 11:00:00,19.215859,72.831718,PM2.5,23,89,55
India,Maharashtra,Mumbai,"Kandivali West, Mumbai - BMC",24-02-2024 11:00:00,19.215859,72.831718,CO,6,24,20
India,Maharashtra,Mumbai,"Kherwadi_Bandra East, Mumbai - MPCB",24-02-2024 11:00:00,19.0632143,72.8456324,OZONE,4,100,25
India,Maharashtra,Mumbai,"Khindipada-Bhandup West, Mumbai - IITM",24-02-2024 11:00:00,19.1653323,72.922099,NH3,5,8,6
India,Maharashtra,Mumbai,"Kurla, Mumbai - MPCB",24-02-2024 11:00:00,19.0863,72.8888,NO2,15,38,26
India,Maharashtra,Mumbai,"Mazgaon, Mumbai - IITM",24-02-2024 11:00:00,18.96702,72.84214,PM10,73,123,101
India,Maharashtra,Mumbai,"Mindspace-Malad West, Mumbai - MPCB",24-02-2024 11:00:00,19.1878657,72.8304069,SO2,4,16,6
India,Maharashtra,Mumbai,"Mulund West, Mumbai - MPCB",24-02-2024 11:00:00,19.1750,72.9419,NO2,21,26,23
India,Maharashtra,Mumbai,"Mulund West, Mumbai - MPCB",24-02-2024 11:00:00,19.1750,72.9419,NH3,9,11,10
India,Maharashtra,Mumbai,"Navy Nagar-Colaba, Mumbai - IITM",24-02-2024 11:00:00,18.897756,72.813320,PM10,63,128,94
India,Maharashtra,Mumbai,"Sewri, Mumbai - BMC",24-02-2024 11:00:00,19.000084,72.856730,PM10,62,121,86
India,Maharashtra,Mumbai,"Sewri, Mumbai - BMC",24-02-2024 11:00:00,19.000084,72.856730,SO2,5,23,10
India,Maharashtra,Mumbai,"Siddharth Nagar-Worli, Mumbai - IITM",24-02-2024 11:00:00,19.000083,72.813993,PM2.5,81,225,137
India,Maharashtra,Mumbai,"Vasai West, Mumbai - MPCB",24-02-2024 11:00:00,19.383200,72.820400,PM2.5,8,25,17
India,Maharashtra,Mumbai,"Vasai West, Mumbai - MPCB",24-02-2024 11:00:00,19.383200,72.820400,OZONE,23,67,29
India,Maharashtra,Nagpur,"Ambazari, Nagpur - MPCB",24-02-2024 11:00:00,21.121801,79.04952,NH3,1,6,2
India,Maharashtra,Nagpur,"Mahal, Nagpur - MPCB",24-02-2024 11:00:00,21.14472,79.107595,NO2,7,56,22
India,Maharashtra,Nagpur,"Mahal, Nagpur - MPCB",24-02-2024 11:00:00,21.14472,79.107595,NH3,3,11,6
India,Maharashtra,Nagpur,"Mahal, Nagpur - MPCB",24-02-2024 11:00:00,21.14472,79.107595,CO,24,126,39
India,Maharashtra,Nagpur,"Opp GPO Civil Lines, Nagpur - MPCB",24-02-2024 11:00:00,21.152875,79.0517531,NO2,22,153,55
India,Maharashtra,Nagpur,"Ram Nagar, Nagpur - MPCB",24-02-2024 11:00:00,21.143383,79.048912,NH3,3,6,5
India,Maharashtra,Nagpur,"Ram Nagar, Nagpur - MPCB",24-02-2024 11:00:00,21.143383,79.048912,SO2,12,133,43
India,Maharashtra,Nanded,"Sneh Nagar, Nanded - MPCB",24-02-2024 11:00:00,19.173852,77.296291,PM10,85,151,118
India,Maharashtra,Nanded,"Sneh Nagar, Nanded - MPCB",24-02-2024 11:00:00,19.173852,77.296291,CO,28,40,35
India,Maharashtra,Nashik,"Hirawadi, Nashik - MPCB",24-02-2024 11:00:00,20.021503,73.813844,SO2,1,10,5
India,Maharashtra,Navi Mumbai,"Kopripada-Vashi, Navi Mumbai - MPCB",24-02-2024 11:00:00,19.090337,73.014232,NO2,22,120,69
India,Maharashtra,Navi Mumbai,"Nerul, Navi Mumbai - MPCB",24-02-2024 11:00:00,19.008751,73.016620,NO2,16,30,23
India,Maharashtra,Navi Mumbai,"Nerul, Navi Mumbai - MPCB",24-02-2024 11:00:00,19.008751,73.016620,SO2,13,13,13
India,Maharashtra,Navi Mumbai,"Sanpada, Navi Mumbai - MPCB",24-02-2024 11:00:00,19.0575752,73.0151367,PM10,65,152,112
India,Maharashtra,Navi Mumbai,"Sanpada, Navi Mumbai - MPCB",24-02-2024 11:00:00,19.0575752,73.0151367,NH3,3,7,4
India,Maharashtra,Navi Mumbai,"Sector-19A Nerul, Navi Mumbai - IITM",24-02-2024 11:00:00,19.044,73.0325,SO2,10,36,21
India,Maharashtra,Navi Mumbai,"Sector-2E Kalamboli, Navi Mumbai - MPCB",24-02-2024 11:00:00,19.02579,73.10297,SO2,11,53,27
India,Maharashtra,Navi Mumbai,"Tondare-Taloja, Navi Mumbai - MPCB",24-02-2024 11:00:00,19.0630,73.1209,PM2.5,27,210,91
India,Maharashtra,Navi Mumbai,"Tondare-Taloja, Navi Mumbai - MPCB",24-02-2024 11:00:00,19.0630,73.1209,NO2,19,88,54
India,Maharashtra,Navi Mumbai,"Tondare-Taloja, Navi Mumbai - MPCB",24-02-2024 11:00:00,19.0630,73.1209,CO,6,43,30
India,Maharashtra,Pimpri-Chinchwad,"Gavalinagar, Pimpri Chinchwad - MPCB",24-02-2024 11:00:00,18.63673,73.82487,OZONE,2,242,166
India,Maharashtra,Pimpri-Chinchwad,"Park Street Wakad, Pimpri Chinchwad - MPCB",24-02-2024 11:00:00,18.59051,73.77946,NO2,59,119,91
India,Maharashtra,Pimpri-Chinchwad,"Park Street Wakad, Pimpri Chinchwad - MPCB",24-02-2024 11:00:00,18.59051,73.77946,CO,18,57,42
India,Maharashtra,Pune,"Bhosari, Pune - IITM",24-02-2024 11:00:00,18.640051,73.848956,PM2.5,NA,NA,NA
India,Maharashtra,Pune,"Revenue Colony-Shivajinagar, Pune - IITM",24-02-2024 11:00:00,18.530085,73.849598,NO2,89,213,146
India,Maharashtra,Pune,"Revenue Colony-Shivajinagar, Pune - IITM",24-02-2024 11:00:00,18.530085,73.849598,CO,90,113,103
India,Maharashtra,Pune,"Savitribai Phule Pune University, Pune - MPCB",24-02-2024 11:00:00,18.547056,73.826908,NO2,10,37,20
India,Maharashtra,Pune,"Savitribai Phule Pune University, Pune - MPCB",24-02-2024 11:00:00,18.547056,73.826908,OZONE,1,220,60
India,Maharashtra,Pune,"Transport Nagar-Nigdi, Pune - IITM",24-02-2024 11:00:00,18.664282,73.763966,PM2.5,18,90,52
India,Maharashtra,Pune,"Transport Nagar-Nigdi, Pune - IITM",24-02-2024 11:00:00,18.664282,73.763966,CO,47,73,55
India,Maharashtra,Pune,"Transport Nagar-Nigdi, Pune - IITM",24-02-2024 11:00:00,18.664282,73.763966,OZONE,2,69,22
India,Maharashtra,Sangli,"Vijay Nagar, Sangli - MPCB",24-02-2024 11:00:00, 16.5038,74.3623,PM2.5,49,228,104
India,Maharashtra,Sangli,"Vijay Nagar, Sangli - MPCB",24-02-2024 11:00:00, 16.5038,74.3623,PM10,79,156,113
India,Maharashtra,Solapur,"Dnyaneshwar Nagar, Solapur - MPCB",24-02-2024 11:00:00,17.6336264,75.9132495,NO2,15,142,50
India,Maharashtra,Solapur,"Dnyaneshwar Nagar, Solapur - MPCB",24-02-2024 11:00:00,17.6336264,75.9132495,NH3,11,46,21
India,Maharashtra,Solapur,"Dnyaneshwar Nagar, Solapur - MPCB",24-02-2024 11:00:00,17.6336264,75.9132495,OZONE,6,98,43
India,Maharashtra,Solapur,"Ratandeep Housing Society, Solapur - MPCB",24-02-2024 11:00:00,17.65439,75.90649,NH3,2,10,5
India,Maharashtra,Solapur,"Solapur, Solapur - MPCB",24-02-2024 11:00:00,17.6599188,75.9063906,NO2,54,55,55
India,Maharashtra,Solapur,"Solapur, Solapur - MPCB",24-02-2024 11:00:00,17.6599188,75.9063906,SO2,30,71,45
India,Maharashtra,Thane,"Kasarvadavali, Thane - MPCB",24-02-2024 11:00:00,19.26777,72.97182,PM2.5,35,112,60
India,Maharashtra,Thane,"Kasarvadavali, Thane - MPCB",24-02-2024 11:00:00,19.26777,72.97182,CO,12,53,35
India,Maharashtra,Thane,"Kasarvadavali, Thane - MPCB",24-02-2024 11:00:00,19.26777,72.97182,OZONE,7,93,31
India,Maharashtra,Thane,"Pimpleshwar Mandir, Thane - MPCB",24-02-2024 11:00:00,19.192056,72.9585188,CO,12,112,66
India,Maharashtra,Thane,"Upvan Fort, Thane - MPCB",24-02-2024 11:00:00,19.222279,72.957979,NO2,12,104,35
India,Maharashtra,Thane,"Upvan Fort, Thane - MPCB",24-02-2024 11:00:00,19.222279,72.957979,OZONE,9,112,66
India,Maharashtra,Ulhasnagar,"Sidhi Vinayak Nagar, Ulhasnagar - MPCB",24-02-2024 11:00:00,19.235581,73.159121,CO,27,78,54
India,Maharashtra,Virar,"Bolinj, Virar - MPCB",24-02-2024 11:00:00,19.4458210,72.7988231,NO2,7,37,21
India,Manipur,Imphal,"DM College of Science, Imphal - Manipur PCB",24-02-2024 11:00:00,24.8207389,93.9423085,PM10,8,35,18
India,Manipur,Imphal,"DM College of Science, Imphal - Manipur PCB",24-02-2024 11:00:00,24.8207389,93.9423085,NH3,2,2,2
India,Manipur,Imphal,"DM College of Science, Imphal - Manipur PCB",24-02-2024 11:00:00,24.8207389,93.9423085,CO,6,6,6
India,Meghalaya,Shillong,"Lumpyngngad, Shillong - Meghalaya PCB",24-02-2024 11:00:00,25.5586,91.8985,SO2,43,44,43
India,Meghalaya,Shillong,"Lumpyngngad, Shillong - Meghalaya PCB",24-02-2024 11:00:00,25.5586,91.8985,CO,13,22,14
India,Mizoram,Aizawl,"Sikulpuikawn, Aizawl - Mizoram PCB",24-02-2024 11:00:00,23.7176342,92.7192841,OZONE,8,21,16
India,Nagaland,Kohima,"PWD Juction, Kohima - NPCB",24-02-2024 11:00:00,25.6635413,94.0989878,PM2.5,49,301,112
India,Nagaland,Kohima,"PWD Juction, Kohima - NPCB",24-02-2024 11:00:00,25.6635413,94.0989878,PM10,45,165,91
India,Nagaland,Kohima,"PWD Juction, Kohima - NPCB",24-02-2024 11:00:00,25.6635413,94.0989878,NO2,3,4,3
India,Nagaland,Kohima,"PWD Juction, Kohima - NPCB",24-02-2024 11:00:00,25.6635413,94.0989878,NH3,1,1,1
India,Nagaland,Kohima,"PWD Juction, Kohima - NPCB",24-02-2024 11:00:00,25.6635413,94.0989878,CO,8,42,10
India,Odisha,Angul,"Hakimapada, Angul - OSPCB",24-02-2024 11:00:00,20.832874,85.104082,PM2.5,73,481,199
India,Odisha,Balasore,"Kalidaspur, Balasore - OSPCB",24-02-2024 11:00:00,21.51161,86.89088,NH3,3,8,5
India,Odisha,Balasore,"Kalidaspur, Balasore - OSPCB",24-02-2024 11:00:00,21.51161,86.89088,CO,42,106,65
India,Odisha,Baripada,"Meher Colony, Baripada - OSPCB",24-02-2024 11:00:00,21.941841,86.728318,NH3,4,4,4
India,Odisha,Baripada,"Meher Colony, Baripada - OSPCB",24-02-2024 11:00:00,21.941841,86.728318,SO2,5,6,6
India,Odisha,Bhubaneswar,"Patia, Bhubaneswar - OSPCB",24-02-2024 11:00:00,20.34652,85.81630,PM10,85,183,126
India,Odisha,Brajrajnagar,"GM Office, Brajrajnagar - OSPCB",24-02-2024 11:00:00,21.8004996,83.8396977,OZONE,19,22,19
India,Odisha,Byasanagar,"Ferro Chrome Colony, Byasanagar - OSPCB",24-02-2024 11:00:00,20.94185,86.11510,PM2.5,68,153,106
India,Odisha,Byasanagar,"Ferro Chrome Colony, Byasanagar - OSPCB",24-02-2024 11:00:00,20.94185,86.11510,NO2,14,29,20
India,Odisha,Byasanagar,"Ferro Chrome Colony, Byasanagar - OSPCB",24-02-2024 11:00:00,20.94185,86.11510,NH3,2,4,3
India,Odisha,Keonjhar,"Jagamohanpur, Keonjhar - OSPCB",24-02-2024 11:00:00,21.643900,85.599355,PM2.5,NA,NA,NA
India,Odisha,Keonjhar,"Jagamohanpur, Keonjhar - OSPCB",24-02-2024 11:00:00,21.643900,85.599355,CO,NA,NA,NA
India,Odisha,Rairangpur,"Divisional Forest Office, Rairangpur - OSPCB",24-02-2024 11:00:00,22.265816,86.174829,PM2.5,56,131,74
India,Odisha,Rourkela,"Raghunathpali, Rourkela - OSPCB",24-02-2024 11:00:00,22.220833,84.809444,PM10,54,182,90
India,Odisha,Rourkela,"Sector-2, Rourkela - OSPCB",24-02-2024 11:00:00,22.24500000,84.88111111,CO,8,28,16
India,Odisha,Suakati,"OMC Colony, Suakati - OSPCB",24-02-2024 11:00:00,21.606865,85.510538,PM10,103,160,130
India,Odisha,Suakati,"OMC Colony, Suakati - OSPCB",24-02-2024 11:00:00,21.606865,85.510538,NH3,NA,NA,NA
India,Odisha,Talcher,"Talcher Coalfields,Talcher - OSPCB",24-02-2024 11:00:00,20.9360711,85.1707021,PM2.5,58,271,115
India,Odisha,Tensa,"Barsua Iron Ore Mines, Tensa - OSPCB",24-02-2024 11:00:00,21.869985,85.167016,PM2.5,55,95,76
India,Odisha,Tensa,"Barsua Iron Ore Mines, Tensa - OSPCB",24-02-2024 11:00:00,21.869985,85.167016,OZONE,4,33,10
India,Puducherry,Puducherry,"Jawahar Nagar, Puducherry - PPCC",24-02-2024 11:00:00,11.9309,79.8027,SO2,2,8,6
India,Punjab,Amritsar,"Golden Temple, Amritsar - PPCB",24-02-2024 11:00:00,31.620000,74.876512,PM10,34,125,79
India,Punjab,Amritsar,"Golden Temple, Amritsar - PPCB",24-02-2024 11:00:00,31.620000,74.876512,NO2,17,137,34
India,Punjab,Amritsar,"Golden Temple, Amritsar - PPCB",24-02-2024 11:00:00,31.620000,74.876512,SO2,12,27,22
India,Punjab,Bathinda,"Hardev Nagar, Bathinda - PPCB",24-02-2024 11:00:00,30.233011,74.907758,NO2,31,32,31
India,Punjab,Jalandhar,"Civil Line, Jalandhar - PPCB",24-02-2024 11:00:00,31.321907,75.578914,CO,24,90,45
India,Punjab,Khanna,"Kalal Majra, Khanna - PPCB",24-02-2024 11:00:00,30.736056 ,76.209694,CO,40,52,47
India,Punjab,Ludhiana,"Punjab Agricultural University, Ludhiana - PPCB",24-02-2024 11:00:00,30.9028,75.8086,SO2,7,24,11
India,Punjab,Mandi Gobindgarh,"RIMT University, Mandi Gobindgarh - PPCB",24-02-2024 11:00:00,30.649961,76.331442,PM2.5,63,329,186
India,Punjab,Patiala,"Model Town, Patiala - PPCB",24-02-2024 11:00:00,30.349388,76.366642,PM10,43,89,67
India,Punjab,Patiala,"Model Town, Patiala - PPCB",24-02-2024 11:00:00,30.349388,76.366642,NO2,22,28,24
India,Punjab,Rupnagar,"Ratanpura, Rupnagar - Ambuja Cements",24-02-2024 11:00:00,31.0325454,76.5623046,SO2,1,12,9
India,Rajasthan,Ajmer,"Civil Lines,  Ajmer - RSPCB",24-02-2024 11:00:00,26.470859,74.646594,PM2.5,33,113,57
India,Rajasthan,Ajmer,"Civil Lines,  Ajmer - RSPCB",24-02-2024 11:00:00,26.470859,74.646594,CO,14,68,21
India,Rajasthan,Alwar,"Moti Doongri, Alwar - RSPCB",24-02-2024 11:00:00,27.554793,76.611536,PM2.5,21,67,36
India,Rajasthan,Alwar,"Moti Doongri, Alwar - RSPCB",24-02-2024 11:00:00,27.554793,76.611536,CO,2,46,18
India,Rajasthan,Banswara,"Rati Talai, Banswara - RSPCB",24-02-2024 11:00:00,23.555190,74.440010,SO2,NA,NA,NA
India,Rajasthan,Baran,"Bamboliya, Baran - RSPCB",24-02-2024 11:00:00,25.106006,76.469948,PM2.5,26,87,53
India,Rajasthan,Barmer,"Railway Colony, Barmer - RSPCB",24-02-2024 11:00:00,25.747299,71.393989,PM2.5,10,43,21
India,Rajasthan,Barmer,"Railway Colony, Barmer - RSPCB",24-02-2024 11:00:00,25.747299,71.393989,NH3,3,8,5
India,Rajasthan,Bharatpur,"Krishna Nagar, Bharatpur - RSPCB",24-02-2024 11:00:00,27.215415,77.50873,OZONE,NA,NA,NA
India,Rajasthan,Bhiwadi,"RIICO Ind. Area III, Bhiwadi - RSPCB",24-02-2024 11:00:00,28.194909,76.862296,NH3,4,16,10
India,Rajasthan,Bikaner,"MM Ground, Bikaner - RSPCB",24-02-2024 11:00:00,28.018792,73.292658,PM10,77,333,137
India,Rajasthan,Bundi,"New Colony, Bundi - RSPCB",24-02-2024 11:00:00,25.435774,75.644272,PM10,67,166,105
India,Rajasthan,Bundi,"New Colony, Bundi - RSPCB",24-02-2024 11:00:00,25.435774,75.644272,SO2,2,8,5
India,Rajasthan,Chittorgarh,"Shastri Nagar, Chittorgarh - RSPCB",24-02-2024 11:00:00,24.892047,74.623527,PM10,NA,NA,NA
India,Rajasthan,Chittorgarh,"Shastri Nagar, Chittorgarh - RSPCB",24-02-2024 11:00:00,24.892047,74.623527,NO2,NA,NA,NA
India,Rajasthan,Chittorgarh,"Shastri Nagar, Chittorgarh - RSPCB",24-02-2024 11:00:00,24.892047,74.623527,NH3,NA,NA,NA
India,Rajasthan,Dholpur,"Raja Ganj, Dholpur - RSPCB",24-02-2024 11:00:00,26.699557,77.898881,SO2,NA,NA,NA
India,Rajasthan,Hanumangarh,"Housing Board, Hanumangarh - RSPCB",24-02-2024 11:00:00,29.610750,74.283608,PM10,99,329,164
India,Rajasthan,Hanumangarh,"Housing Board, Hanumangarh - RSPCB",24-02-2024 11:00:00,29.610750,74.283608,NH3,7,13,10
India,Rajasthan,Hanumangarh,"Housing Board, Hanumangarh - RSPCB",24-02-2024 11:00:00,29.610750,74.283608,CO,20,101,31
India,Rajasthan,Jaipur,"Adarsh Nagar, Jaipur - RSPCB",24-02-2024 11:00:00,26.902909,75.836858,PM10,43,125,76
India,Rajasthan,Jaipur,"Adarsh Nagar, Jaipur - RSPCB",24-02-2024 11:00:00,26.902909,75.836858,NO2,26,143,48
India,Rajasthan,Jaipur,"Adarsh Nagar, Jaipur - RSPCB",24-02-2024 11:00:00,26.902909,75.836858,SO2,4,15,10
India,Rajasthan,Jaipur,"Adarsh Nagar, Jaipur - RSPCB",24-02-2024 11:00:00,26.902909,75.836858,OZONE,7,65,48
India,Rajasthan,Jaipur,"Police Commissionerate, Jaipur - RSPCB",24-02-2024 11:00:00,26.9164092,75.7994901,PM2.5,44,90,69
India,Rajasthan,Jaipur,"Police Commissionerate, Jaipur - RSPCB",24-02-2024 11:00:00,26.9164092,75.7994901,NO2,18,114,43
India,Rajasthan,Jaipur,"Police Commissionerate, Jaipur - RSPCB",24-02-2024 11:00:00,26.9164092,75.7994901,SO2,9,26,18
India,Rajasthan,Jaipur,"Police Commissionerate, Jaipur - RSPCB",24-02-2024 11:00:00,26.9164092,75.7994901,CO,12,74,35
India,Rajasthan,Jaipur,"Police Commissionerate, Jaipur - RSPCB",24-02-2024 11:00:00,26.9164092,75.7994901,OZONE,24,110,73
India,Rajasthan,Jaipur,"RIICO Sitapura, Jaipur - RSPCB",24-02-2024 11:00:00,26.786682,75.827928,PM10,55,208,121
India,Rajasthan,Jaipur,"RIICO Sitapura, Jaipur - RSPCB",24-02-2024 11:00:00,26.786682,75.827928,NO2,25,173,60
India,Rajasthan,Jaipur,"RIICO Sitapura, Jaipur - RSPCB",24-02-2024 11:00:00,26.786682,75.827928,OZONE,3,93,63
India,Rajasthan,Jaipur,"Shastri Nagar, Jaipur - RSPCB",24-02-2024 11:00:00,26.9502929,75.730943,PM10,74,146,100
India,Rajasthan,Jaisalmer,"Sadar Bazar, Jaisalmer - RSPCB",24-02-2024 11:00:00,26.912329,70.909168,PM2.5,15,303,82
India,Rajasthan,Jaisalmer,"Sadar Bazar, Jaisalmer - RSPCB",24-02-2024 11:00:00,26.912329,70.909168,CO,7,116,29
India,Rajasthan,Jalore,"Mudtra Sili, Jalore - RSPCB",24-02-2024 11:00:00,25.344694,72.626208,PM2.5,17,299,59
India,Rajasthan,Jalore,"Mudtra Sili, Jalore - RSPCB",24-02-2024 11:00:00,25.344694,72.626208,PM10,51,500,117
India,Rajasthan,Jhalawar,"Rajlaxmi Nagar, Jhalawar - RSPCB",24-02-2024 11:00:00,24.588397,76.172782,NH3,4,6,5
India,Rajasthan,Jhalawar,"Rajlaxmi Nagar, Jhalawar - RSPCB",24-02-2024 11:00:00,24.588397,76.172782,SO2,3,21,7
India,Rajasthan,Jodhpur,"Collectorate, Jodhpur - RSPCB",24-02-2024 11:00:00,26.268249,73.0193853,PM2.5,81,436,208
India,Rajasthan,Jodhpur,"Collectorate, Jodhpur - RSPCB",24-02-2024 11:00:00,26.268249,73.0193853,SO2,2,54,19
India,Rajasthan,Jodhpur,"Collectorate, Jodhpur - RSPCB",24-02-2024 11:00:00,26.268249,73.0193853,CO,24,91,68
India,Rajasthan,Jodhpur,"Collectorate, Jodhpur - RSPCB",24-02-2024 11:00:00,26.268249,73.0193853,OZONE,43,158,72
India,Rajasthan,Jodhpur,"Digari Kalan, Jodhpur - RSPCB",24-02-2024 11:00:00,26.295810,73.082283,PM2.5,4,69,35
India,Rajasthan,Jodhpur,"Digari Kalan, Jodhpur - RSPCB",24-02-2024 11:00:00,26.295810,73.082283,PM10,43,217,86
India,Rajasthan,Jodhpur,"Digari Kalan, Jodhpur - RSPCB",24-02-2024 11:00:00,26.295810,73.082283,OZONE,1,127,53
India,Rajasthan,Jodhpur,"Jhalamand, Jodhpur - RSPCB",24-02-2024 11:00:00,26.215415,73.070156,PM2.5,13,361,105
India,Rajasthan,Jodhpur,"Jhalamand, Jodhpur - RSPCB",24-02-2024 11:00:00,26.215415,73.070156,PM10,46,338,110
India,Rajasthan,Jodhpur,"Mandor, Jodhpur - RSPCB",24-02-2024 11:00:00,26.358805,73.047444,NH3,4,10,5
India,Rajasthan,Jodhpur,"Samrat Ashok Udhyan, Jodhpur - RSPCB",24-02-2024 11:00:00,26.253384,72.976571,NH3,3,7,4
India,Rajasthan,Jodhpur,"Samrat Ashok Udhyan, Jodhpur - RSPCB",24-02-2024 11:00:00,26.253384,72.976571,SO2,1,10,5
India,Rajasthan,Karauli,"Satyawati Vihar, Karauli - RSPCB",24-02-2024 11:00:00,26.506177,77.025989,SO2,6,17,11
India,Rajasthan,Kota,"Dhanmandi, Kota - RSPCB",24-02-2024 11:00:00,25.164090,75.858137,PM2.5,NA,NA,NA
India,Rajasthan,Kota,"Dhanmandi, Kota - RSPCB",24-02-2024 11:00:00,25.164090,75.858137,PM10,NA,NA,NA
India,Rajasthan,Kota,"Dhanmandi, Kota - RSPCB",24-02-2024 11:00:00,25.164090,75.858137,NH3,NA,NA,NA
India,Rajasthan,Kota,"Nayapura, Kota - RSPCB",24-02-2024 11:00:00,25.196024,75.855668,NH3,5,9,6
India,Rajasthan,Kota,"Shrinath Puram, Kota - RSPCB",24-02-2024 11:00:00,25.14389,75.821256,SO2,5,42,13
India,Rajasthan,Pali,"Indira Colony Vistar, Pali - RSPCB",24-02-2024 11:00:00,25.771061, 73.340227,SO2,7,47,15
India,Rajasthan,Pratapgarh,"Pragati Nagar, Pratapgarh - RSPCB",24-02-2024 11:00:00,24.041198,74.780702,SO2,4,11,5
India,Rajasthan,Pratapgarh,"Pragati Nagar, Pratapgarh - RSPCB",24-02-2024 11:00:00,24.041198,74.780702,CO,14,32,21
India,Rajasthan,Rajsamand,"Dhoinda, Rajsamand - RSPCB",24-02-2024 11:00:00,25.036360,73.883502,PM10,28,177,83
India,Rajasthan,Rajsamand,"Dhoinda, Rajsamand - RSPCB",24-02-2024 11:00:00,25.036360,73.883502,NO2,7,32,17
India,Rajasthan,Rajsamand,"Dhoinda, Rajsamand - RSPCB",24-02-2024 11:00:00,25.036360,73.883502,CO,47,84,77
India,Rajasthan,Rajsamand,"Dhoinda, Rajsamand - RSPCB",24-02-2024 11:00:00,25.036360,73.883502,OZONE,4,64,18
India,Rajasthan,Sawai Madhopur,"Sahu Nagar, Sawai Madhopur - RSPCB",24-02-2024 11:00:00,26.031443,76.359327,NO2,6,37,17
India,Rajasthan,Sawai Madhopur,"Sahu Nagar, Sawai Madhopur - RSPCB",24-02-2024 11:00:00,26.031443,76.359327,SO2,1,11,7
India,Rajasthan,Sikar,"Radhakishan Pura, Sikar - RSPCB",24-02-2024 11:00:00,27.608912,75.153302,PM2.5,26,306,85
India,Rajasthan,Sikar,"Radhakishan Pura, Sikar - RSPCB",24-02-2024 11:00:00,27.608912,75.153302,NH3,4,6,5
India,Rajasthan,Sikar,"Radhakishan Pura, Sikar - RSPCB",24-02-2024 11:00:00,27.608912,75.153302,SO2,5,14,7
India,Rajasthan,Sikar,"Radhakishan Pura, Sikar - RSPCB",24-02-2024 11:00:00,27.608912,75.153302,OZONE,58,114,85
India,Rajasthan,Sirohi,"Vedhaynath Colony, Sirohi - RSPCB",24-02-2024 11:00:00,24.885261,72.857549,OZONE,12,143,55
India,Rajasthan,Sri Ganganagar,"Old City, Sri Ganganagar - RSPCB",24-02-2024 11:00:00,29.931624,73.864511,NO2,31,174,80
India,Rajasthan,Sri Ganganagar,"Old City, Sri Ganganagar - RSPCB",24-02-2024 11:00:00,29.931624,73.864511,NH3,6,27,12
India,Rajasthan,Tonk,"Shastri Nagar, Tonk - RSPCB",24-02-2024 11:00:00,26.159933,75.780517,NO2,19,51,30
India,Rajasthan,Tonk,"Shastri Nagar, Tonk - RSPCB",24-02-2024 11:00:00,26.159933,75.780517,SO2,1,7,4
India,Rajasthan,Tonk,"Shastri Nagar, Tonk - RSPCB",24-02-2024 11:00:00,26.159933,75.780517,OZONE,31,50,40
India,Rajasthan,Udaipur,"Ashok Nagar, Udaipur - RSPCB",24-02-2024 11:00:00,24.5886166,73.6321397,OZONE,6,77,26
India,Sikkim,Gangtok,"Zero Point GICI, Gangtok - SSPCB",24-02-2024 11:00:00,27.338530,88.614099,SO2,9,10,9
India,TamilNadu,Ariyalur,"Keelapalur, Ariyalur - TNPCB",24-02-2024 11:00:00,11.06825,79.07033,PM10,35,75,57
India,TamilNadu,Chengalpattu,"Crescent University, Chengalpattu - TNPCB",24-02-2024 11:00:00,12.8777316,80.0834807,PM10,29,330,56
India,TamilNadu,Chengalpattu,"Crescent University, Chengalpattu - TNPCB",24-02-2024 11:00:00,12.8777316,80.0834807,CO,24,28,26
India,TamilNadu,Chennai,"Alandur Bus Depot, Chennai - CPCB",24-02-2024 11:00:00,12.9099161,80.1076538,OZONE,1,9,5
India,TamilNadu,Chennai,"Gandhi Nagar_Ennore, Chennai - TNPCB",24-02-2024 11:00:00,13.218341,80.32027,PM10,NA,NA,NA
India,TamilNadu,Chennai,"Gandhi Nagar_Ennore, Chennai - TNPCB",24-02-2024 11:00:00,13.218341,80.32027,NH3,NA,NA,NA
India,TamilNadu,Chennai,"Kodungaiyur, Chennai - TNPCB",24-02-2024 11:00:00,13.1278,80.2642,PM2.5,14,41,25
India,TamilNadu,Chennai,"Manali, Chennai - CPCB",24-02-2024 11:00:00,13.164544,80.26285,PM2.5,38,63,49
India,TamilNadu,Chennai,"Perungudi, Chennai - TNPCB",24-02-2024 11:00:00,12.9533,80.2357,SO2,1,5,3
India,TamilNadu,Chennai,"Velachery Res. Area, Chennai - CPCB",24-02-2024 11:00:00,13.0052189,80.2398125,PM2.5,52,95,75
India,TamilNadu,Chennai,"Velachery Res. Area, Chennai - CPCB",24-02-2024 11:00:00,13.0052189,80.2398125,SO2,26,81,30
India,TamilNadu,Coimbatore,"PSG College of Arts and Science, Coimbatore - TNPCB",24-02-2024 11:00:00,11.0328,77.0349,CO,5,5,5
India,TamilNadu,Cuddalore,"Semmandalam, Cuddalore - TNPCB",24-02-2024 11:00:00,11.7637683,79.7499835,PM10,21,78,41
India,TamilNadu,Cuddalore,"Semmandalam, Cuddalore - TNPCB",24-02-2024 11:00:00,11.7637683,79.7499835,OZONE,1,6,2
India,TamilNadu,Gummidipoondi,"Anthoni Pillai Nagar, Gummidipoondi - TNPCB",24-02-2024 11:00:00,13.4127,80.1081,PM2.5,59,290,95
India,TamilNadu,Gummidipoondi,"Anthoni Pillai Nagar, Gummidipoondi - TNPCB",24-02-2024 11:00:00,13.4127,80.1081,PM10,57,144,95
India,TamilNadu,Gummidipoondi,"Anthoni Pillai Nagar, Gummidipoondi - TNPCB",24-02-2024 11:00:00,13.4127,80.1081,NH3,1,2,2
India,TamilNadu,Kanchipuram,"Kilambi, Kanchipuram - TNPCB",24-02-2024 11:00:00,12.864618,79.659968,PM10,NA,NA,NA
India,TamilNadu,Ooty,"Bombay Castel, Ooty - TNPCB",24-02-2024 11:00:00,11.4068288,76.7138973,SO2,NA,NA,NA
India,TamilNadu,Palkalaiperur,"Bharathidasan University, Palkalaiperur - TNPCB",24-02-2024 11:00:00,10.681158,78.741746,PM10,NA,NA,NA
India,TamilNadu,Palkalaiperur,"Bharathidasan University, Palkalaiperur - TNPCB",24-02-2024 11:00:00,10.681158,78.741746,CO,NA,NA,NA
India,TamilNadu,Ramanathapuram,"Chalai Bazaar, Ramanathapuram - TNPCB",24-02-2024 11:00:00,9.36399,78.831977,PM2.5,20,68,39
India,TamilNadu,Ramanathapuram,"Chalai Bazaar, Ramanathapuram - TNPCB",24-02-2024 11:00:00,9.36399,78.831977,CO,2,6,4
India,TamilNadu,Thoothukudi,"Meelavittan, Thoothukudi - TNPCB",24-02-2024 11:00:00,8.816428 ,78.099039,OZONE,2,15,6
India,TamilNadu,Vellore,"Vasanthapuram, Vellore - TNPCB",24-02-2024 11:00:00,12.909494,79.131861,NO2,4,23,14
India,TamilNadu,Virudhunagar,"Collectorate Office, Virudhunagar - TNPCB",24-02-2024 11:00:00,9.559382,77.948828,PM10,35,75,53
India,TamilNadu,Virudhunagar,"Collectorate Office, Virudhunagar - TNPCB",24-02-2024 11:00:00,9.559382,77.948828,NO2,20,41,27
India,Telangana,Hyderabad,"Bollaram Industrial Area, Hyderabad - TSPCB",24-02-2024 11:00:00,17.540891,78.358528,PM10,85,134,112
India,Telangana,Hyderabad,"Bollaram Industrial Area, Hyderabad - TSPCB",24-02-2024 11:00:00,17.540891,78.358528,CO,18,44,30
India,Telangana,Hyderabad,"ICRISAT Patancheru, Hyderabad - TSPCB",24-02-2024 11:00:00,17.518400,78.278777,PM10,61,148,100
India,Telangana,Hyderabad,"ICRISAT Patancheru, Hyderabad - TSPCB",24-02-2024 11:00:00,17.518400,78.278777,SO2,17,77,32
India,Telangana,Hyderabad,"IITH Kandi, Hyderabad - TSPCB",24-02-2024 11:00:00,17.585705,78.126199,PM10,NA,NA,NA
India,Telangana,Hyderabad,"IITH Kandi, Hyderabad - TSPCB",24-02-2024 11:00:00,17.585705,78.126199,CO,NA,NA,NA
India,Telangana,Hyderabad,"Kokapet, Hyderabad - TSPCB",24-02-2024 11:00:00,17.393559,78.339194,PM2.5,55,134,76
India,Telangana,Hyderabad,"Kokapet, Hyderabad - TSPCB",24-02-2024 11:00:00,17.393559,78.339194,PM10,73,109,86
India,Telangana,Hyderabad,"Nacharam_TSIIC IALA, Hyderabad - TSPCB",24-02-2024 11:00:00,17.429398,78.569354,PM2.5,50,74,60
India,Telangana,Hyderabad,"Sanathnagar, Hyderabad - TSPCB",24-02-2024 11:00:00,17.4559458,78.4332152,NO2,27,29,28
India,Telangana,Hyderabad,"Sanathnagar, Hyderabad - TSPCB",24-02-2024 11:00:00,17.4559458,78.4332152,CO,32,40,34
India,Telangana,Hyderabad,"Sanathnagar, Hyderabad - TSPCB",24-02-2024 11:00:00,17.4559458,78.4332152,OZONE,14,16,14
India,Telangana,Hyderabad,"Zoo Park, Hyderabad - TSPCB",24-02-2024 11:00:00,17.349694,78.451437,PM10,53,156,114
India,Telangana,Hyderabad,"Zoo Park, Hyderabad - TSPCB",24-02-2024 11:00:00,17.349694,78.451437,NH3,1,2,2
India,Tripura,Agartala,"Bardowali, Agartala - Tripura SPCB",24-02-2024 11:00:00,23.8175497,91.2726974,OZONE,1,21,3
India,Uttar_Pradesh,Agra,"Manoharpur, Agra - UPPCB",24-02-2024 11:00:00,27.23711,78.01936,PM2.5,5,87,26
India,Uttar_Pradesh,Agra,"Manoharpur, Agra - UPPCB",24-02-2024 11:00:00,27.23711,78.01936,SO2,13,17,14
India,Uttar_Pradesh,Agra,"Manoharpur, Agra - UPPCB",24-02-2024 11:00:00,27.23711,78.01936,CO,4,16,12
India,Uttar_Pradesh,Agra,"Manoharpur, Agra - UPPCB",24-02-2024 11:00:00,27.23711,78.01936,OZONE,1,26,1
India,Uttar_Pradesh,Agra,"Rohta, Agra - UPPCB",24-02-2024 11:00:00,27.106972,78.000111,CO,2,16,10
India,Uttar_Pradesh,Agra,"Sanjay Palace, Agra - UPPCB",24-02-2024 11:00:00,27.19865833,78.00598056,NO2,43,79,60
India,Uttar_Pradesh,Agra,"Sector-3B Avas Vikas Colony, Agra - UPPCB",24-02-2024 11:00:00,27.19412,77.96237,PM10,23,104,55
India,Uttar_Pradesh,Agra,"Shahjahan Garden, Agra - UPPCB",24-02-2024 11:00:00,27.169338,78.03582,SO2,35,40,37
India,Uttar_Pradesh,Agra,"Shastripuram, Agra - UPPCB",24-02-2024 11:00:00,27.19862,77.92066,PM10,39,121,73
India,Uttar_Pradesh,Agra,"Shastripuram, Agra - UPPCB",24-02-2024 11:00:00,27.19862,77.92066,NH3,NA,NA,NA
India,Uttar_Pradesh,Baghpat,"Sardar Patel Inter College, Baghpat - UPPCB",24-02-2024 11:00:00,28.964949,77.278761,PM2.5,15,193,76
India,Uttar_Pradesh,Baghpat,"Sardar Patel Inter College, Baghpat - UPPCB",24-02-2024 11:00:00,28.964949,77.278761,PM10,45,132,92
India,Uttar_Pradesh,Baghpat,"Sardar Patel Inter College, Baghpat - UPPCB",24-02-2024 11:00:00,28.964949,77.278761,NO2,25,76,50
India,Uttar_Pradesh,Baghpat,"Sardar Patel Inter College, Baghpat - UPPCB",24-02-2024 11:00:00,28.964949,77.278761,CO,20,64,44
India,Uttar_Pradesh,Baghpat,"Sardar Patel Inter College, Baghpat - UPPCB",24-02-2024 11:00:00,28.964949,77.278761,OZONE,1,32,7
India,Uttar_Pradesh,Bareilly,"Civil Lines, Bareilly - UPPCB",24-02-2024 11:00:00,28.359581,79.414455,PM10,NA,NA,NA
India,Uttar_Pradesh,Bareilly,"Civil Lines, Bareilly - UPPCB",24-02-2024 11:00:00,28.359581,79.414455,CO,14,36,24
India,Uttar_Pradesh,Bareilly,"Rajendra Nagar, Bareilly - UPPCB",24-02-2024 11:00:00,28.38910936,79.42963708,NO2,23,65,43
India,Uttar_Pradesh,Firozabad,"Nagla Bhau, Firozabad - UPPCB",24-02-2024 11:00:00,27.168897,78.376960,PM10,12,78,37
India,Uttar_Pradesh,Firozabad,"Vibhab Nagar, Firozabad - UPPCB",24-02-2024 11:00:00,27.1594,78.3953,PM10,16,72,37
India,Uttar_Pradesh,Firozabad,"Vibhab Nagar, Firozabad - UPPCB",24-02-2024 11:00:00,27.1594,78.3953,SO2,13,20,15
India,Uttar_Pradesh,Ghaziabad,"Indirapuram, Ghaziabad - UPPCB",24-02-2024 11:00:00,28.646233,77.358075,OZONE,5,49,8
India,Uttar_Pradesh,Ghaziabad,"Loni, Ghaziabad - UPPCB",24-02-2024 11:00:00,28.757294,77.278792,PM10,82,212,138
India,Uttar_Pradesh,Ghaziabad,"Loni, Ghaziabad - UPPCB",24-02-2024 11:00:00,28.757294,77.278792,NO2,1,59,36
India,Uttar_Pradesh,Ghaziabad,"Loni, Ghaziabad - UPPCB",24-02-2024 11:00:00,28.757294,77.278792,CO,10,76,52
India,Uttar_Pradesh,Ghaziabad,"Sanjay Nagar, Ghaziabad - UPPCB",24-02-2024 11:00:00,28.685382,77.453839,SO2,18,36,26
India,Uttar_Pradesh,Ghaziabad,"Vasundhara, Ghaziabad - UPPCB",24-02-2024 11:00:00,28.6603346,77.3572563,PM2.5,20,172,85
India,Uttar_Pradesh,Gorakhpur,"Madan Mohan Malaviya University of Technology, Gorakhpur - UPPCB",24-02-2024 11:00:00,26.730136,83.433859,NH3,1,2,2
India,Uttar_Pradesh,Gorakhpur,"Madan Mohan Malaviya University of Technology, Gorakhpur - UPPCB",24-02-2024 11:00:00,26.730136,83.433859,CO,12,32,24
India,Uttar_Pradesh,Gorakhpur,"Madan Mohan Malaviya University of Technology, Gorakhpur - UPPCB",24-02-2024 11:00:00,26.730136,83.433859,OZONE,3,57,17
India,Uttar_Pradesh,Greater Noida,"Knowledge Park - V, Greater Noida - UPPCB",24-02-2024 11:00:00,28.557054,77.453663,PM2.5,30,313,152
India,Uttar_Pradesh,Greater Noida,"Knowledge Park - V, Greater Noida - UPPCB",24-02-2024 11:00:00,28.557054,77.453663,PM10,100,420,192
India,Uttar_Pradesh,Greater Noida,"Knowledge Park - V, Greater Noida - UPPCB",24-02-2024 11:00:00,28.557054,77.453663,NO2,19,45,34
India,Uttar_Pradesh,Greater Noida,"Knowledge Park - V, Greater Noida - UPPCB",24-02-2024 11:00:00,28.557054,77.453663,SO2,4,33,19
India,Uttar_Pradesh,Hapur,"Anand Vihar, Hapur - UPPCB",24-02-2024 11:00:00,28.725645,77.749675,OZONE,9,131,41
India,Uttar_Pradesh,Jhansi,"Shivaji Nagar, Jhansi - UPPCB",24-02-2024 11:00:00,25.4547,78.6039,SO2,10,13,11
India,Uttar_Pradesh,Kanpur,"FTI Kidwai Nagar, Kanpur - UPPCB",24-02-2024 11:00:00,26.428282,80.327067,PM2.5,33,204,70
India,Uttar_Pradesh,Kanpur,"FTI Kidwai Nagar, Kanpur - UPPCB",24-02-2024 11:00:00,26.428282,80.327067,NH3,2,4,3
India,Uttar_Pradesh,Kanpur,"FTI Kidwai Nagar, Kanpur - UPPCB",24-02-2024 11:00:00,26.428282,80.327067,CO,25,71,37
India,Uttar_Pradesh,Kanpur,"FTI Kidwai Nagar, Kanpur - UPPCB",24-02-2024 11:00:00,26.428282,80.327067,OZONE,3,13,4
India,Uttar_Pradesh,Kanpur,"NSI Kalyanpur, Kanpur - UPPCB",24-02-2024 11:00:00,26.509954,80.249612,PM2.5,18,211,70
India,Uttar_Pradesh,Kanpur,"NSI Kalyanpur, Kanpur - UPPCB",24-02-2024 11:00:00,26.509954,80.249612,PM10,45,189,101
India,Uttar_Pradesh,Kanpur,"Nehru Nagar, Kanpur - UPPCB",24-02-2024 11:00:00,26.4703136,80.3229863,PM10,18,122,61
India,Uttar_Pradesh,Khurja,"Kalindi Kunj, Khurja - UPPCB",24-02-2024 11:00:00,28.2348927,77.8683002,PM2.5,1,95,41
India,Uttar_Pradesh,Khurja,"Kalindi Kunj, Khurja - UPPCB",24-02-2024 11:00:00,28.2348927,77.8683002,SO2,29,64,33
India,Uttar_Pradesh,Lucknow,"B R Ambedkar University, Lucknow - UPPCB",24-02-2024 11:00:00,26.766433,80.927299,NO2,11,12,12
India,Uttar_Pradesh,Lucknow,"B R Ambedkar University, Lucknow - UPPCB",24-02-2024 11:00:00,26.766433,80.927299,NH3,4,7,5
India,Uttar_Pradesh,Lucknow,"B R Ambedkar University, Lucknow - UPPCB",24-02-2024 11:00:00,26.766433,80.927299,CO,22,50,40
India,Uttar_Pradesh,Lucknow,"B R Ambedkar University, Lucknow - UPPCB",24-02-2024 11:00:00,26.766433,80.927299,OZONE,2,68,14
India,Uttar_Pradesh,Lucknow,"Gomti Nagar, Lucknow - UPPCB",24-02-2024 11:00:00,26.868120,81.005119,SO2,2,25,10
India,Uttar_Pradesh,Lucknow,"Gomti Nagar, Lucknow - UPPCB",24-02-2024 11:00:00,26.868120,81.005119,OZONE,50,70,53
India,Uttar_Pradesh,Lucknow,"Kendriya Vidyalaya, Lucknow - CPCB",24-02-2024 11:00:00,26.906111,80.948222,NO2,10,67,36
India,Uttar_Pradesh,Lucknow,"Lalbagh, Lucknow - CPCB",24-02-2024 11:00:00,26.8458805,80.9365541,NH3,9,14,11
India,Uttar_Pradesh,Lucknow,"Talkatora District Industries Center, Lucknow - CPCB",24-02-2024 11:00:00,26.83399722,80.8917361,PM10,82,232,139
India,Uttar_Pradesh,Lucknow,"Talkatora District Industries Center, Lucknow - CPCB",24-02-2024 11:00:00,26.83399722,80.8917361,NH3,11,29,21
India,Uttar_Pradesh,Lucknow,"Talkatora District Industries Center, Lucknow - CPCB",24-02-2024 11:00:00,26.83399722,80.8917361,CO,4,102,30
India,Uttar_Pradesh,Meerut,"Pallavpuram Phase 2, Meerut - UPPCB",24-02-2024 11:00:00,29.063510,77.709723,NO2,22,116,73
India,Uttar_Pradesh,Moradabad,"Buddhi Vihar, Moradabad - UPPCB",24-02-2024 11:00:00,28.83526,78.74460,SO2,24,25,24
India,Uttar_Pradesh,Moradabad,"Eco Herbal Park, Moradabad - UPPCB",24-02-2024 11:00:00,28.840739,78.697531,NH3,4,34,7
India,Uttar_Pradesh,Moradabad,"Eco Herbal Park, Moradabad - UPPCB",24-02-2024 11:00:00,28.840739,78.697531,SO2,2,47,17
India,Uttar_Pradesh,Moradabad,"Kashiram Nagar, Moradabad - UPPCB",24-02-2024 11:00:00,28.849399,78.742362,OZONE,14,30,15
India,Uttar_Pradesh,Moradabad,"Transport Nagar, Moradabad - UPPCB",24-02-2024 11:00:00,28.802625,78.753728,PM10,34,146,73
India,Uttar_Pradesh,Moradabad,"Transport Nagar, Moradabad - UPPCB",24-02-2024 11:00:00,28.802625,78.753728,SO2,42,47,45
India,Uttar_Pradesh,Muzaffarnagar,"New Mandi, Muzaffarnagar - UPPCB",24-02-2024 11:00:00,29.4723508,77.7194031,PM10,NA,NA,NA
India,Uttar_Pradesh,Muzaffarnagar,"New Mandi, Muzaffarnagar - UPPCB",24-02-2024 11:00:00,29.4723508,77.7194031,OZONE,54,78,65
India,Uttar_Pradesh,Noida,"Sector - 125, Noida - UPPCB",24-02-2024 11:00:00,28.5447608,77.3231257,NH3,3,20,9
India,Uttar_Pradesh,Noida,"Sector-1, Noida - UPPCB",24-02-2024 11:00:00,28.5898,77.3101,NO2,33,124,86
India,Uttar_Pradesh,Noida,"Sector-1, Noida - UPPCB",24-02-2024 11:00:00,28.5898,77.3101,OZONE,1,122,9
India,Uttar_Pradesh,Noida,"Sector-116, Noida - UPPCB",24-02-2024 11:00:00,28.569230,77.393848,CO,23,103,51
India,Uttar_Pradesh,Prayagraj,"Jhunsi, Prayagraj - UPPCB",24-02-2024 11:00:00,25.425602,81.917152,SO2,30,33,31
India,Uttar_Pradesh,Prayagraj,"Jhunsi, Prayagraj - UPPCB",24-02-2024 11:00:00,25.425602,81.917152,CO,6,56,14
India,Uttar_Pradesh,Prayagraj,"Nagar Nigam, Prayagraj - UPPCB",24-02-2024 11:00:00,25.44919916 ,81.82735986 ,PM2.5,20,72,42
India,Uttar_Pradesh,Prayagraj,"Nagar Nigam, Prayagraj - UPPCB",24-02-2024 11:00:00,25.44919916 ,81.82735986 ,NO2,5,5,5
India,Uttar_Pradesh,Varanasi,"Bhelupur, Varanasi - UPPCB",24-02-2024 11:00:00,25.301778,82.996789,OZONE,1,43,5
India,Uttar_Pradesh,Varanasi,"IESD Banaras Hindu University, Varanasi - UPPCB",24-02-2024 11:00:00,25.262326,82.995408,NO2,2,3,2
India,Uttar_Pradesh,Varanasi,"IESD Banaras Hindu University, Varanasi - UPPCB",24-02-2024 11:00:00,25.262326,82.995408,SO2,15,15,15
India,Uttar_Pradesh,Varanasi,"Maldahiya, Varanasi - UPPCB",24-02-2024 11:00:00,25.32393,82.99687,PM2.5,11,63,32
India,Uttar_Pradesh,Varanasi,"Maldahiya, Varanasi - UPPCB",24-02-2024 11:00:00,25.32393,82.99687,PM10,14,76,38
India,Uttar_Pradesh,Varanasi,"Maldahiya, Varanasi - UPPCB",24-02-2024 11:00:00,25.32393,82.99687,CO,2,105,30
India,Uttar_Pradesh,Vrindavan,"Omex Eternity, Vrindavan - UPPCB",24-02-2024 11:00:00,27.5714090,77.6557570,NO2,2,3,3
India,West_Bengal,Asansol,"Asansol Court Area, Asansol - WBPCB",24-02-2024 11:00:00,23.685297,86.945968,PM10,61,186,104
India,West_Bengal,Howrah,"Ghusuri, Howrah - WBPCB",24-02-2024 11:00:00,22.611968,88.347422,PM10,91,139,116
India,West_Bengal,Howrah,"Padmapukur, Howrah - WBPCB",24-02-2024 11:00:00,22.5687319,88.2797276,PM2.5,36,92,64
India,West_Bengal,Howrah,"Padmapukur, Howrah - WBPCB",24-02-2024 11:00:00,22.5687319,88.2797276,SO2,8,49,17
India,West_Bengal,Kolkata,"Ballygunge, Kolkata - WBPCB",24-02-2024 11:00:00,22.5367507,88.3638022,CO,4,42,16
India,West_Bengal,Kolkata,"Jadavpur, Kolkata - WBPCB",24-02-2024 11:00:00,22.49929,88.36917,PM10,64,126,94
India,West_Bengal,Kolkata,"Rabindra Sarobar, Kolkata - WBPCB",24-02-2024 11:00:00,22.51106,88.35142,NH3,3,10,6
India,West_Bengal,Kolkata,"Rabindra Sarobar, Kolkata - WBPCB",24-02-2024 11:00:00,22.51106,88.35142,OZONE,3,91,19
India,West_Bengal,Kolkata,"Victoria, Kolkata - WBPCB",24-02-2024 11:00:00,22.5448082,88.3403691,PM2.5,42,134,81
India,West_Bengal,Kolkata,"Victoria, Kolkata - WBPCB",24-02-2024 11:00:00,22.5448082,88.3403691,PM10,60,116,93
India,West_Bengal,Kolkata,"Victoria, Kolkata - WBPCB",24-02-2024 11:00:00,22.5448082,88.3403691,CO,23,74,38
India,Andhra_Pradesh,Amaravati,"Secretariat, Amaravati - APPCB",24-02-2024 11:00:00,16.5150833,80.5181667,PM2.5,30,65,44
India,Andhra_Pradesh,Chittoor,"Gangineni Cheruvu, Chittoor - APPCB",24-02-2024 11:00:00,13.204880,79.097889,PM10,49,72,60
India,Andhra_Pradesh,Chittoor,"Gangineni Cheruvu, Chittoor - APPCB",24-02-2024 11:00:00,13.204880,79.097889,SO2,8,107,21
India,Andhra_Pradesh,Chittoor,"Gangineni Cheruvu, Chittoor - APPCB",24-02-2024 11:00:00,13.204880,79.097889,CO,12,64,17
India,Andhra_Pradesh,Chittoor,"Gangineni Cheruvu, Chittoor - APPCB",24-02-2024 11:00:00,13.204880,79.097889,OZONE,30,146,38
India,Andhra_Pradesh,Kadapa,"Yerramukkapalli, Kadapa - APPCB",24-02-2024 11:00:00,14.465052,78.824187,SO2,2,3,2
India,Andhra_Pradesh,Kadapa,"Yerramukkapalli, Kadapa - APPCB",24-02-2024 11:00:00,14.465052,78.824187,CO,14,48,18
India,Andhra_Pradesh,Kadapa,"Yerramukkapalli, Kadapa - APPCB",24-02-2024 11:00:00,14.465052,78.824187,OZONE,11,102,18
India,Andhra_Pradesh,Rajamahendravaram,"Anand Kala Kshetram, Rajamahendravaram - APPCB",24-02-2024 11:00:00,16.9872867,81.7363176,PM10,NA,NA,NA
India,Andhra_Pradesh,Rajamahendravaram,"Anand Kala Kshetram, Rajamahendravaram - APPCB",24-02-2024 11:00:00,16.9872867,81.7363176,NH3,NA,NA,NA
India,Andhra_Pradesh,Rajamahendravaram,"Anand Kala Kshetram, Rajamahendravaram - APPCB",24-02-2024 11:00:00,16.9872867,81.7363176,OZONE,NA,NA,NA
India,Andhra_Pradesh,Tirupati,"Tirumala, Tirupati - APPCB",24-02-2024 11:00:00,13.67,79.35,PM2.5,61,132,81
India,Andhra_Pradesh,Tirupati,"Tirumala, Tirupati - APPCB",24-02-2024 11:00:00,13.67,79.35,SO2,1,9,6
India,Andhra_Pradesh,Tirupati,"Vaikuntapuram, Tirupati - APPCB",24-02-2024 11:00:00,13.615387,79.409230,PM10,19,214,57
India,Andhra_Pradesh,Tirupati,"Vaikuntapuram, Tirupati - APPCB",24-02-2024 11:00:00,13.615387,79.409230,NO2,16,21,18
India,Andhra_Pradesh,Tirupati,"Vaikuntapuram, Tirupati - APPCB",24-02-2024 11:00:00,13.615387,79.409230,NH3,2,3,3
India,Andhra_Pradesh,Tirupati,"Vaikuntapuram, Tirupati - APPCB",24-02-2024 11:00:00,13.615387,79.409230,SO2,4,5,5
India,Andhra_Pradesh,Vijayawada,"HB Colony, Vijayawada - APPCB",24-02-2024 11:00:00,16.536107,80.594233,NH3,4,5,4
India,Andhra_Pradesh,Vijayawada,"HB Colony, Vijayawada - APPCB",24-02-2024 11:00:00,16.536107,80.594233,OZONE,4,37,10
India,Andhra_Pradesh,Vijayawada,"Kanuru, Vijayawada - APPCB",24-02-2024 11:00:00,16.486692,80.699436,SO2,5,7,5
India,Andhra_Pradesh,Vijayawada,"Kanuru, Vijayawada - APPCB",24-02-2024 11:00:00,16.486692,80.699436,CO,22,60,48
India,Andhra_Pradesh,Vijayawada,"Kanuru, Vijayawada - APPCB",24-02-2024 11:00:00,16.486692,80.699436,OZONE,25,25,25
India,Andhra_Pradesh,Vijayawada,"Rajiv Gandhi Park, Vijayawada - APPCB",24-02-2024 11:00:00,16.509717,80.612222,CO,31,31,31
India,Andhra_Pradesh,Vijayawada,"Rajiv Nagar, Vijayawada - APPCB",24-02-2024 11:00:00,16.554731,80.649110,CO,17,200,200
India,Andhra_Pradesh,Visakhapatnam,"GVM Corporation, Visakhapatnam - APPCB",24-02-2024 11:00:00,17.72,83.3,PM10,62,132,81
India,Andhra_Pradesh,Visakhapatnam,"GVM Corporation, Visakhapatnam - APPCB",24-02-2024 11:00:00,17.72,83.3,CO,8,63,24
India,Assam,Byrnihat,"Central Academy for SFS, Byrnihat - PCBA",24-02-2024 11:00:00,26.071318,91.87488,OZONE,12,18,14
India,Assam,Guwahati,"IITG, Guwahati - PCBA",24-02-2024 11:00:00,26.2028636,91.70046436,NH3,5,5,5
India,Assam,Guwahati,"LGBI Airport, Guwahati - PCBA",24-02-2024 11:00:00,26.10887,91.589544,PM2.5,NA,NA,NA
India,Assam,Guwahati,"LGBI Airport, Guwahati - PCBA",24-02-2024 11:00:00,26.10887,91.589544,OZONE,5,58,42
India,Assam,Guwahati,"Pan Bazaar, Guwahati - PCBA",24-02-2024 11:00:00,26.187500,91.744194,NH3,4,6,5
India,Assam,Guwahati,"Pan Bazaar, Guwahati - PCBA",24-02-2024 11:00:00,26.187500,91.744194,SO2,59,96,70
India,Assam,Guwahati,"Pan Bazaar, Guwahati - PCBA",24-02-2024 11:00:00,26.187500,91.744194,OZONE,18,18,18
India,Assam,Nagaon,"Christianpatty, Nagaon - PCBA",24-02-2024 11:00:00,26.349082,92.68449,NH3,1,19,4
India,Assam,Nagaon,"Christianpatty, Nagaon - PCBA",24-02-2024 11:00:00,26.349082,92.68449,OZONE,4,74,25
India,Assam,Nalbari,"Bata Chowk, Nalbari - PCBA",24-02-2024 11:00:00,26.446912,91.439057,PM10,87,310,140
India,Assam,Nalbari,"Bata Chowk, Nalbari - PCBA",24-02-2024 11:00:00,26.446912,91.439057,NH3,NA,NA,NA
India,Assam,Nalbari,"Bata Chowk, Nalbari - PCBA",24-02-2024 11:00:00,26.446912,91.439057,OZONE,14,98,51
India,Assam,Silchar,"Tarapur, Silchar - PCBA",24-02-2024 11:00:00,24.82827,92.79525,PM10,48,53,49
India,Assam,Silchar,"Tarapur, Silchar - PCBA",24-02-2024 11:00:00,24.82827,92.79525,SO2,3,10,5
India,Bihar,Araria,"Kharahiya Basti, Araria - BSPCB",24-02-2024 11:00:00,26.146529,87.454184,PM10,111,229,157
India,Bihar,Arrah,"New DM Office, Arrah - BSPCB",24-02-2024 11:00:00,25.5626095,84.663264,NO2,13,47,28
India,Bihar,Aurangabad,"Gurdeo Nagar, Aurangabad - BSPCB",24-02-2024 11:00:00,24.75746,84.366208,PM10,58,167,92
India,Bihar,Aurangabad,"Gurdeo Nagar, Aurangabad - BSPCB",24-02-2024 11:00:00,24.75746,84.366208,SO2,1,9,6
India,Bihar,Bettiah,"Kamalnath Nagar, Bettiah - BSPCB",24-02-2024 11:00:00,26.80365,84.51954,PM2.5,12,85,45
India,Bihar,Bettiah,"Kamalnath Nagar, Bettiah - BSPCB",24-02-2024 11:00:00,26.80365,84.51954,PM10,36,198,89
India,Bihar,Bhagalpur,"DM Office_Kachari Chowk, Bhagalpur - BSPCB",24-02-2024 11:00:00,25.251013,86.989001,PM10,101,203,135
India,Bihar,Bhagalpur,"Mayaganj, Bhagalpur - BSPCB",24-02-2024 11:00:00,25.265194,87.012947,OZONE,15,54,34
India,Bihar,Bihar Sharif,"D M Colony, Bihar Sharif - BSPCB",24-02-2024 11:00:00,25.204762,85.514960,SO2,3,10,7
India,Bihar,Bihar Sharif,"D M Colony, Bihar Sharif - BSPCB",24-02-2024 11:00:00,25.204762,85.514960,CO,12,44,29
India,Bihar,Bihar Sharif,"D M Colony, Bihar Sharif - BSPCB",24-02-2024 11:00:00,25.204762,85.514960,OZONE,NA,NA,NA
India,Bihar,Chhapra,"Darshan Nagar, Chhapra - BSPCB",24-02-2024 11:00:00,25.7808257,84.7446768,NH3,8,13,11
India,Bihar,Chhapra,"Darshan Nagar, Chhapra - BSPCB",24-02-2024 11:00:00,25.7808257,84.7446768,SO2,15,68,38
India,Bihar,Gaya,"Kareemganj, Gaya - BSPCB",24-02-2024 11:00:00,24.792403,84.992416,PM10,53,407,153
India,Bihar,Gaya,"SFTI Kusdihra, Gaya - BSPCB",24-02-2024 11:00:00,24.762518,84.982348,SO2,7,9,8
India,Bihar,Hajipur,"Industrial Area, Hajipur - BSPCB",24-02-2024 11:00:00,25.697189,85.245900,NH3,6,12,9
India,Bihar,Hajipur,"Industrial Area, Hajipur - BSPCB",24-02-2024 11:00:00,25.697189,85.245900,OZONE,6,12,7
India,Bihar,Kishanganj,"SDM Office_Khagra, Kishanganj - BSPCB",24-02-2024 11:00:00,26.0881305,87.93840336,NO2,36,44,39
India,Bihar,Manguraha,"Forest Rest House, Manguraha - BSPCB",24-02-2024 11:00:00,27.308328,84.531742,PM10,NA,NA,NA
India,Bihar,Manguraha,"Forest Rest House, Manguraha - BSPCB",24-02-2024 11:00:00,27.308328,84.531742,NH3,1,2,1
India,Bihar,Munger,"Town Hall, Munger - BSPCB",24-02-2024 11:00:00,25.376776,86.471523,CO,4,111,37
India,Bihar,Muzaffarpur,"Buddha Colony, Muzaffarpur - BSPCB",24-02-2024 11:00:00,26.11442,85.39813,PM10,133,205,157
India,Bihar,Muzaffarpur,"Buddha Colony, Muzaffarpur - BSPCB",24-02-2024 11:00:00,26.11442,85.39813,SO2,2,11,5
India,Bihar,Muzaffarpur,"MIT-Daudpur Kothi, Muzaffarpur - BSPCB",24-02-2024 11:00:00,26.1403345,85.3650192,NO2,7,10,8
India,Bihar,Muzaffarpur,"MIT-Daudpur Kothi, Muzaffarpur - BSPCB",24-02-2024 11:00:00,26.1403345,85.3650192,NH3,1,7,3
India,Bihar,Muzaffarpur,"MIT-Daudpur Kothi, Muzaffarpur - BSPCB",24-02-2024 11:00:00,26.1403345,85.3650192,SO2,16,18,17
India,Bihar,Muzaffarpur,"Muzaffarpur Collectorate, Muzaffarpur - BSPCB",24-02-2024 11:00:00,26.1209,85.3647,PM2.5,52,188,108
India,Bihar,Muzaffarpur,"Muzaffarpur Collectorate, Muzaffarpur - BSPCB",24-02-2024 11:00:00,26.1209,85.3647,CO,18,50,29
India,Bihar,Patna,"Govt. High School Shikarpur, Patna - BSPCB",24-02-2024 11:00:00,25.592539,85.227158,SO2,2,4,2
India,Bihar,Patna,"Govt. High School Shikarpur, Patna - BSPCB",24-02-2024 11:00:00,25.592539,85.227158,CO,26,51,37
India,Bihar,Patna,"IGSC Planetarium Complex, Patna - BSPCB",24-02-2024 11:00:00,25.610369,85.132568,OZONE,3,24,18
India,Bihar,Patna,"Muradpur, Patna - BSPCB",24-02-2024 11:00:00,25.619651,85.147382,CO,23,106,40
India,Bihar,Patna,"Rajbansi Nagar, Patna - BSPCB",24-02-2024 11:00:00,25.599486,85.113666,NO2,38,62,46
India,Bihar,Patna,"Rajbansi Nagar, Patna - BSPCB",24-02-2024 11:00:00,25.599486,85.113666,SO2,5,15,10
India,Bihar,Patna,"Samanpura, Patna - BSPCB",24-02-2024 11:00:00,25.596727,85.085624,PM2.5,132,483,276
India,Bihar,Rajgir,"Dangi Tola, Rajgir - BSPCB",24-02-2024 11:00:00,25.03280,85.41948,PM10,53,144,84
India,Bihar,Samastipur,"DM Office_Kasipur, Samastipur - BSPCB",24-02-2024 11:00:00,25.859655,85.77944,PM2.5,48,293,111
India,Bihar,Siwan,"Chitragupta Nagar, Siwan - BSPCB",24-02-2024 11:00:00,26.2271665,84.3570427,OZONE,16,70,43
India,Chandigarh,Chandigarh,"Sector 22, Chandigarh - CPCC",24-02-2024 11:00:00,30.735567,76.775714,OZONE,3,147,45
India,Chhattisgarh,Bhilai,"32Bungalows, Bhilai - CECB",24-02-2024 11:00:00,21.194815,81.314770,PM2.5,25,51,40
India,Chhattisgarh,Bhilai,"Civic Center, Bhilai - Bhilai Steel Plant",24-02-2024 11:00:00,21.185571,81.343175,PM10,40,106,65
India,Chhattisgarh,Bhilai,"Civic Center, Bhilai - Bhilai Steel Plant",24-02-2024 11:00:00,21.185571,81.343175,NH3,2,2,2
India,Chhattisgarh,Bhilai,"Civic Center, Bhilai - Bhilai Steel Plant",24-02-2024 11:00:00,21.185571,81.343175,SO2,6,13,10
India,Chhattisgarh,Bhilai,"Civic Center, Bhilai - Bhilai Steel Plant",24-02-2024 11:00:00,21.185571,81.343175,OZONE,8,48,21
India,Chhattisgarh,Bhilai,"Hathkhoj, Bhilai - CECB",24-02-2024 11:00:00,21.224231,81.408350,PM2.5,19,74,43
India,Chhattisgarh,Bhilai,"Hathkhoj, Bhilai - CECB",24-02-2024 11:00:00,21.224231,81.408350,NH3,8,9,8
India,Chhattisgarh,Bilaspur,"Mangala, Bilaspur - NTPC",24-02-2024 11:00:00,22.08815,82.13737,NO2,13,15,14
India,Chhattisgarh,Bilaspur,"Mangala, Bilaspur - NTPC",24-02-2024 11:00:00,22.08815,82.13737,SO2,2,25,11
India,Chhattisgarh,Chhal,"Nawapara SECL Colony, Chhal - CECB",24-02-2024 11:00:00,22.118125,83.140608,OZONE,4,58,18
India,Chhattisgarh,Kunjemura,"OP Jindal School, Kunjemura - CECB",24-02-2024 11:00:00,22.126650,83.483212,PM10,26,307,96
India,Chhattisgarh,Kunjemura,"OP Jindal School, Kunjemura - CECB",24-02-2024 11:00:00,22.126650,83.483212,SO2,1,10,5
India,Chhattisgarh,Milupara,"Govt. Higher Secondary School, Milupara - CECB",24-02-2024 11:00:00,22.1910172,83.5197009,NO2,6,28,16
India,Chhattisgarh,Milupara,"Govt. Higher Secondary School, Milupara - CECB",24-02-2024 11:00:00,22.1910172,83.5197009,OZONE,14,39,32
India,Chhattisgarh,Raipur,"AIIMS, Raipur - CECB",24-02-2024 11:00:00,21.258815,81.578979,PM10,49,192,107
India,Chhattisgarh,Raipur,"AIIMS, Raipur - CECB",24-02-2024 11:00:00,21.258815,81.578979,NO2,33,72,48
India,Chhattisgarh,Raipur,"AIIMS, Raipur - CECB",24-02-2024 11:00:00,21.258815,81.578979,OZONE,1,37,2
India,Chhattisgarh,Raipur,"Bhatagaon New ISBT, Raipur - CECB",24-02-2024 11:00:00,21.219665,81.630094,PM10,48,76,65
India,Chhattisgarh,Raipur,"Bhatagaon New ISBT, Raipur - CECB",24-02-2024 11:00:00,21.219665,81.630094,OZONE,3,4,3
India,Chhattisgarh,Raipur,"Siltara Phase-II, Raipur - CECB",24-02-2024 11:00:00,21.371751,81.664929,PM10,NA,NA,NA
India,Chhattisgarh,Raipur,"Siltara Phase-II, Raipur - CECB",24-02-2024 11:00:00,21.371751,81.664929,SO2,NA,NA,NA
India,Chhattisgarh,Tumidih,"OP Jindal Industrial Park, Tumidih - CECB",24-02-2024 11:00:00,22.06631475,83.33820077,PM2.5,13,57,31
India,Chhattisgarh,Tumidih,"OP Jindal Industrial Park, Tumidih - CECB",24-02-2024 11:00:00,22.06631475,83.33820077,PM10,16,258,68
India,Delhi,Delhi,"Alipur, Delhi - DPCC",24-02-2024 11:00:00,28.815329,77.153010,SO2,7,22,10
India,Delhi,Delhi,"Anand Vihar, Delhi - DPCC",24-02-2024 11:00:00,28.647622,77.3158090,PM10,81,500,236
India,Delhi,Delhi,"Anand Vihar, Delhi - DPCC",24-02-2024 11:00:00,28.647622,77.3158090,NO2,65,260,147
India,Delhi,Delhi,"Ashok Vihar, Delhi - DPCC",24-02-2024 11:00:00,28.695381,77.181665,PM2.5,28,312,129
India,Delhi,Delhi,"Ashok Vihar, Delhi - DPCC",24-02-2024 11:00:00,28.695381,77.181665,NH3,1,5,3
India,Delhi,Delhi,"Ashok Vihar, Delhi - DPCC",24-02-2024 11:00:00,28.695381,77.181665,SO2,17,39,25
India,Delhi,Delhi,"Ashok Vihar, Delhi - DPCC",24-02-2024 11:00:00,28.695381,77.181665,CO,2,83,48
India,Delhi,Delhi,"Aya Nagar, Delhi - IMD",24-02-2024 11:00:00,28.4706914,77.1099364,PM2.5,NA,NA,NA
India,Delhi,Delhi,"Burari Crossing, Delhi - IMD",24-02-2024 11:00:00,28.7256504,77.2011573,CO,36,66,53
India,Delhi,Delhi,"Burari Crossing, Delhi - IMD",24-02-2024 11:00:00,28.7256504,77.2011573,OZONE,2,30,11
India,Delhi,Delhi,"CRRI Mathura Road, Delhi - IMD",24-02-2024 11:00:00,28.5512005,77.2735737,CO,2,119,116
India,Delhi,Delhi,"CRRI Mathura Road, Delhi - IMD",24-02-2024 11:00:00,28.5512005,77.2735737,OZONE,9,63,10
India,Delhi,Delhi,"Chandni Chowk, Delhi - IITM",24-02-2024 11:00:00,28.656756,77.227234,PM10,9,500,171
India,Delhi,Delhi,"Chandni Chowk, Delhi - IITM",24-02-2024 11:00:00,28.656756,77.227234,CO,101,111,107
India,Delhi,Delhi,"DTU, Delhi - CPCB",24-02-2024 11:00:00,28.7500499,77.1112615,NO2,20,59,45
India,Delhi,Delhi,"Dr. Karni Singh Shooting Range, Delhi - DPCC",24-02-2024 11:00:00,28.498571,77.264840,PM2.5,35,290,125
India,Delhi,Delhi,"Dwarka-Sector 8, Delhi - DPCC ",24-02-2024 11:00:00,28.5710274,77.0719006,PM2.5,49,315,157
India,Delhi,Delhi,"Dwarka-Sector 8, Delhi - DPCC ",24-02-2024 11:00:00,28.5710274,77.0719006,NO2,7,94,44
India,Delhi,Delhi,"Dwarka-Sector 8, Delhi - DPCC ",24-02-2024 11:00:00,28.5710274,77.0719006,NH3,5,8,7
India,Delhi,Delhi,"IHBAS, Dilshad Garden, Delhi - CPCB",24-02-2024 11:00:00,28.6811736,77.3025234,NO2,15,43,32
India,Delhi,Delhi,"IHBAS, Dilshad Garden, Delhi - CPCB",24-02-2024 11:00:00,28.6811736,77.3025234,CO,8,106,40
India,Delhi,Delhi,"IHBAS, Dilshad Garden, Delhi - CPCB",24-02-2024 11:00:00,28.6811736,77.3025234,OZONE,3,28,9
India,Delhi,Delhi,"ITO, Delhi - CPCB",24-02-2024 11:00:00,28.628624,77.241060,NO2,6,198,102
India,Delhi,Delhi,"Jahangirpuri, Delhi - DPCC",24-02-2024 11:00:00,28.732820,77.170633,NO2,28,108,78
India,Delhi,Delhi,"Jawaharlal Nehru Stadium, Delhi - DPCC",24-02-2024 11:00:00,28.580280,77.233829,PM2.5,27,207,102
India,Delhi,Delhi,"Jawaharlal Nehru Stadium, Delhi - DPCC",24-02-2024 11:00:00,28.580280,77.233829,NO2,31,136,88
India,Delhi,Delhi,"Lodhi Road, Delhi - IMD",24-02-2024 11:00:00,28.5918245,77.2273074,PM10,71,138,107
India,Delhi,Delhi,"Major Dhyan Chand National Stadium, Delhi - DPCC",24-02-2024 11:00:00,28.611281,77.237738,SO2,8,18,14
India,Delhi,Delhi,"Najafgarh, Delhi - DPCC",24-02-2024 11:00:00,28.570173,76.933762,PM10,61,197,112
India,Delhi,Delhi,"Najafgarh, Delhi - DPCC",24-02-2024 11:00:00,28.570173,76.933762,CO,4,48,37
India,Delhi,Delhi,"Narela, Delhi - DPCC",24-02-2024 11:00:00,28.822836,77.101981,PM10,69,406,167
India,Delhi,Delhi,"Narela, Delhi - DPCC",24-02-2024 11:00:00,28.822836,77.101981,OZONE,2,152,26
India,Delhi,Delhi,"Nehru Nagar, Delhi - DPCC",24-02-2024 11:00:00,28.567890,77.250515,PM2.5,40,373,164
India,Delhi,Delhi,"Nehru Nagar, Delhi - DPCC",24-02-2024 11:00:00,28.567890,77.250515,CO,20,118,82
India,Delhi,Delhi,"North Campus, DU, Delhi - IMD",24-02-2024 11:00:00,28.6573814,77.1585447,PM10,100,242,147
India,Delhi,Delhi,"Okhla Phase-2, Delhi - DPCC",24-02-2024 11:00:00,28.530785,77.271255,PM2.5,37,362,157
India,Delhi,Delhi,"Okhla Phase-2, Delhi - DPCC",24-02-2024 11:00:00,28.530785,77.271255,NH3,7,10,9
India,Delhi,Delhi,"Okhla Phase-2, Delhi - DPCC",24-02-2024 11:00:00,28.530785,77.271255,OZONE,8,107,18
India,Delhi,Delhi,"Punjabi Bagh, Delhi - DPCC",24-02-2024 11:00:00,28.674045,77.131023,SO2,1,31,11
India,Delhi,Delhi,"Pusa, Delhi - DPCC",24-02-2024 11:00:00,28.639652,77.146275,NH3,7,9,8
India,Delhi,Delhi,"Pusa, Delhi - DPCC",24-02-2024 11:00:00,28.639652,77.146275,CO,98,133,110
India,Delhi,Delhi,"R K Puram, Delhi - DPCC",24-02-2024 11:00:00,28.563262,77.186937,PM2.5,51,331,178
India,Delhi,Delhi,"R K Puram, Delhi - DPCC",24-02-2024 11:00:00,28.563262,77.186937,NH3,1,1,1
India,Delhi,Delhi,"R K Puram, Delhi - DPCC",24-02-2024 11:00:00,28.563262,77.186937,OZONE,10,125,14
India,Delhi,Delhi,"Shadipur, Delhi - CPCB",24-02-2024 11:00:00,28.6514781,77.1473105,PM10,125,319,203
India,Delhi,Delhi,"Sirifort, Delhi - CPCB",24-02-2024 11:00:00,28.5504249,77.2159377,PM10,30,78,59
India,Delhi,Delhi,"Sonia Vihar, Delhi - DPCC",24-02-2024 11:00:00,28.710508,77.249485,SO2,5,20,9
India,Delhi,Delhi,"Sri Aurobindo Marg, Delhi - DPCC",24-02-2024 11:00:00,28.531346,77.190156,PM2.5,42,213,115
India,Delhi,Delhi,"Sri Aurobindo Marg, Delhi - DPCC",24-02-2024 11:00:00,28.531346,77.190156,NH3,5,9,7
India,Delhi,Delhi,"Sri Aurobindo Marg, Delhi - DPCC",24-02-2024 11:00:00,28.531346,77.190156,SO2,6,18,12
India,Delhi,Delhi,"Sri Aurobindo Marg, Delhi - DPCC",24-02-2024 11:00:00,28.531346,77.190156,OZONE,1,36,3
India,Delhi,Delhi,"Vivek Vihar, Delhi - DPCC",24-02-2024 11:00:00,28.672342,77.315260,PM2.5,38,329,152
India,Delhi,Delhi,"Vivek Vihar, Delhi - DPCC",24-02-2024 11:00:00,28.672342,77.315260,CO,8,80,53
India,Delhi,Delhi,"Wazirpur, Delhi - DPCC",24-02-2024 11:00:00,28.699793,77.165453,PM2.5,48,308,159
India,Delhi,Delhi,"Wazirpur, Delhi - DPCC",24-02-2024 11:00:00,28.699793,77.165453,PM10,114,390,203
India,Delhi,Delhi,"Wazirpur, Delhi - DPCC",24-02-2024 11:00:00,28.699793,77.165453,NO2,52,179,126
India,Delhi,Delhi,"Wazirpur, Delhi - DPCC",24-02-2024 11:00:00,28.699793,77.165453,NH3,2,5,4
India,Delhi,Delhi,"Wazirpur, Delhi - DPCC",24-02-2024 11:00:00,28.699793,77.165453,SO2,19,50,31
India,Delhi,Delhi,"Wazirpur, Delhi - DPCC",24-02-2024 11:00:00,28.699793,77.165453,CO,38,114,76
India,Gujarat,Ahmedabad,"Chandkheda, Ahmedabad - IITM",24-02-2024 11:00:00,23.107969,72.574648,OZONE,6,55,21
India,Gujarat,Ahmedabad,"Gyaspur, Ahmedabad - IITM",24-02-2024 11:00:00,22.977134,72.553024,OZONE,3,49,12
India,Gujarat,Ahmedabad,"Maninagar, Ahmedabad - GPCB",24-02-2024 11:00:00,23.002657,72.591912,NO2,10,11,11
India,Gujarat,Ahmedabad,"Raikhad, Ahmedabad - IITM",24-02-2024 11:00:00,23.020509,72.579261,PM10,94,153,122
India,Gujarat,Ahmedabad,"Raikhad, Ahmedabad - IITM",24-02-2024 11:00:00,23.020509,72.579261,SO2,5,14,7
India,Gujarat,Ahmedabad,"Raikhad, Ahmedabad - IITM",24-02-2024 11:00:00,23.020509,72.579261,CO,2,104,39
India,Gujarat,Ahmedabad,"SAC ISRO Bopal, Ahmedabad - IITM",24-02-2024 11:00:00,23.041137,72.456691,PM10,87,167,121
India,Gujarat,Ahmedabad,"SAC ISRO Satellite, Ahmedabad - IITM",24-02-2024 11:00:00,23.023389,72.515201,PM2.5,123,140,131
India,Gujarat,Ahmedabad,"SAC ISRO Satellite, Ahmedabad - IITM",24-02-2024 11:00:00,23.023389,72.515201,CO,37,39,38
India,Gujarat,Ahmedabad,"SVPI Airport Hansol, Ahmedabad - IITM",24-02-2024 11:00:00,23.076793,72.627874,CO,10,69,44
India,Gujarat,Ahmedabad,"SVPI Airport Hansol, Ahmedabad - IITM",24-02-2024 11:00:00,23.076793,72.627874,OZONE,1,30,9
India,Gujarat,Ahmedabad,"Sardar Vallabhbhai Patel Stadium, Ahmedabad - IITM",24-02-2024 11:00:00,23.043070,72.562968,PM10,67,158,109
India,Gujarat,Ahmedabad,"Sardar Vallabhbhai Patel Stadium, Ahmedabad - IITM",24-02-2024 11:00:00,23.043070,72.562968,NH3,1,2,1
India,Gujarat,Gandhinagar,"IIPHG Lekawada, Gandhinagar - IITM",24-02-2024 11:00:00,23.243639,72.68994,PM10,68,115,91
India,Gujarat,Gandhinagar,"Sector-10, Gandhinagar - GPCB",24-02-2024 11:00:00,23.221714,72.654328,PM2.5,16,64,36
India,Gujarat,Vapi,"Phase-1 GIDC, Vapi - GPCB",24-02-2024 11:00:00,20.362421,72.918013,NH3,15,18,16
India,Gujarat,Vatva,"Phase-4 GIDC, Vatva - GPCB",24-02-2024 11:00:00,22.969611,72.643500,OZONE,5,108,27
India,Haryana,Ambala,"Patti Mehar, Ambala - HSPCB",24-02-2024 11:00:00,30.379589,76.778328,NO2,7,8,8
India,Haryana,Charkhi Dadri,"Mini Secretariat, Charkhi Dadri - HSPCB",24-02-2024 11:00:00,28.593883,76.270653,NH3,5,5,5
India,Haryana,Charkhi Dadri,"Mini Secretariat, Charkhi Dadri - HSPCB",24-02-2024 11:00:00,28.593883,76.270653,SO2,50,54,52
India,Haryana,Dharuhera,"Municipal Corporation Office, Dharuhera -  HSPCB",24-02-2024 11:00:00,28.206800,76.799700,NH3,9,27,19
India,Haryana,Faridabad,"New Industrial Town, Faridabad - HSPCB",24-02-2024 11:00:00,28.39072,77.30059,CO,12,66,47
India,Haryana,Faridabad,"Sector 11, Faridabad - HSPCB",24-02-2024 11:00:00,28.376058,77.315741,PM2.5,37,334,155
India,Haryana,Faridabad,"Sector 11, Faridabad - HSPCB",24-02-2024 11:00:00,28.376058,77.315741,SO2,8,9,8
India,Haryana,Faridabad,"Sector 30, Faridabad - HSPCB",24-02-2024 11:00:00,28.4417,77.3217,PM2.5,113,166,141
India,Haryana,Faridabad,"Sector 30, Faridabad - HSPCB",24-02-2024 11:00:00,28.4417,77.3217,CO,26,111,98
India,Haryana,Faridabad,"Sector 30, Faridabad - HSPCB",24-02-2024 11:00:00,28.4417,77.3217,OZONE,8,45,8
India,Haryana,Faridabad,"Sector- 16A, Faridabad - HSPCB",24-02-2024 11:00:00,28.4088421,77.3099081,PM2.5,34,500,192
India,Haryana,Faridabad,"Sector- 16A, Faridabad - HSPCB",24-02-2024 11:00:00,28.4088421,77.3099081,SO2,NA,NA,NA
India,Haryana,Fatehabad,"Huda Sector, Fatehabad - HSPCB",24-02-2024 11:00:00,29.503664,75.467934,PM2.5,46,152,81
India,Haryana,Fatehabad,"Huda Sector, Fatehabad - HSPCB",24-02-2024 11:00:00,29.503664,75.467934,NO2,29,31,30
India,Haryana,Gurugram,"Sector-51, Gurugram - HSPCB",24-02-2024 11:00:00,28.4227,77.0667,NO2,13,29,23
India,Haryana,Gurugram,"Sector-51, Gurugram - HSPCB",24-02-2024 11:00:00,28.4227,77.0667,NH3,6,14,9
India,Haryana,Gurugram,"Teri Gram, Gurugram - HSPCB",24-02-2024 11:00:00,28.4275,77.1465,PM10,125,238,170
India,Haryana,Gurugram,"Vikas Sadan, Gurugram - HSPCB",24-02-2024 11:00:00,28.4501238,77.0263051,OZONE,8,68,17
India,Haryana,Hisar,"Urban Estate-II, Hisar - HSPCB",24-02-2024 11:00:00,29.140560,75.744941,PM2.5,NA,NA,NA
India,Haryana,Hisar,"Urban Estate-II, Hisar - HSPCB",24-02-2024 11:00:00,29.140560,75.744941,NH3,3,5,3
India,Haryana,Jind,"Police Lines, Jind - HSPCB",24-02-2024 11:00:00,29.307814,76.337619,PM2.5,30,133,65
India,Haryana,Jind,"Police Lines, Jind - HSPCB",24-02-2024 11:00:00,29.307814,76.337619,SO2,3,58,12
India,Haryana,Mandikhera,"General Hospital, Mandikhera - HSPCB",24-02-2024 11:00:00,27.9002,76.9938,CO,8,79,33
India,Haryana,Manesar,"Sector-2 IMT, Manesar - HSPCB",24-02-2024 11:00:00,28.360699,76.936090,NH3,7,17,11
India,Haryana,Palwal,"Shyam Nagar, Palwal - HSPCB",24-02-2024 11:00:00,28.1485564,77.3320667,PM10,79,159,117
India,Haryana,Palwal,"Shyam Nagar, Palwal - HSPCB",24-02-2024 11:00:00,28.1485564,77.3320667,SO2,5,46,16
India,Haryana,Panchkula,"Sector-6, Panchkula - HSPCB ",24-02-2024 11:00:00,30.7057778,76.8531805555555,SO2,11,12,12
India,Haryana,Panchkula,"Sector-6, Panchkula - HSPCB ",24-02-2024 11:00:00,30.7057778,76.8531805555555,CO,34,168,90
India,Haryana,Rohtak,"MD University, Rohtak - HSPCB",24-02-2024 11:00:00,28.52123,76.37138,PM2.5,4,357,86
India,Haryana,Rohtak,"MD University, Rohtak - HSPCB",24-02-2024 11:00:00,28.52123,76.37138,NO2,46,57,51
India,Haryana,Sirsa,"F-Block, Sirsa - HSPCB",24-02-2024 11:00:00,29.536400,75.015800,PM2.5,34,96,48
India,Haryana,Sonipat,"Murthal, Sonipat - HSPCB",24-02-2024 11:00:00,29.027200,77.062100,PM10,45,118,90
India,Himachal Pradesh,Baddi,"HIMUDA Complex Phase-1, Baddi - HPPCB",24-02-2024 11:00:00,30.943887,76.801991,PM2.5,22,362,85
India,Himachal Pradesh,Baddi,"HIMUDA Complex Phase-1, Baddi - HPPCB",24-02-2024 11:00:00,30.943887,76.801991,PM10,45,444,113
India,Jharkhand,Dhanbad,"Kalakusuma, Dhanbad - DMC",24-02-2024 11:00:00,23.811548,86.481238,SO2,14,17,15
India,Jharkhand,Pathardih,"Mohalbani Ghat, Pathardih - DMC",24-02-2024 11:00:00,23.669880,86.411725,PM10,56,150,96
India,Jharkhand,Pathardih,"Mohalbani Ghat, Pathardih - DMC",24-02-2024 11:00:00,23.669880,86.411725,CO,132,154,139
India,Karnataka,Bagalkot,"Vidayagiri, Bagalkot - KSPCB",24-02-2024 11:00:00,16.172806,75.659694,SO2,NA,NA,NA
India,Karnataka,Bagalkot,"Vidayagiri, Bagalkot - KSPCB",24-02-2024 11:00:00,16.172806,75.659694,CO,22,50,35
India,Karnataka,Belgaum,"Ramteerth Nagar, Belgaum - KSPCB",24-02-2024 11:00:00,15.888653,74.541751,PM10,44,132,67
India,Karnataka,Belgaum,"Ramteerth Nagar, Belgaum - KSPCB",24-02-2024 11:00:00,15.888653,74.541751,CO,32,53,46
India,Karnataka,Bengaluru,"BTM Layout, Bengaluru - CPCB",24-02-2024 11:00:00,12.9135218,77.5950804,NO2,NA,NA,NA
India,Karnataka,Bengaluru,"BTM Layout, Bengaluru - CPCB",24-02-2024 11:00:00,12.9135218,77.5950804,SO2,NA,NA,NA
India,Karnataka,Bengaluru,"Bapuji Nagar, Bengaluru - KSPCB",24-02-2024 11:00:00,12.951913,77.539784,CO,24,36,30
India,Karnataka,Bengaluru,"Hebbal, Bengaluru - KSPCB",24-02-2024 11:00:00,13.029152,77.585901,NH3,NA,NA,NA
India,Karnataka,Bengaluru,"Hebbal, Bengaluru - KSPCB",24-02-2024 11:00:00,13.029152,77.585901,SO2,NA,NA,NA
India,Karnataka,Bengaluru,"Hebbal, Bengaluru - KSPCB",24-02-2024 11:00:00,13.029152,77.585901,OZONE,12,127,38
India,Karnataka,Bengaluru,"Hombegowda Nagar, Bengaluru - KSPCB",24-02-2024 11:00:00,12.938539,77.590100,PM10,46,134,78
India,Karnataka,Bengaluru,"Hombegowda Nagar, Bengaluru - KSPCB",24-02-2024 11:00:00,12.938539,77.590100,NH3,2,2,2
India,Karnataka,Bengaluru,"Jigani, Bengaluru - KSPCB",24-02-2024 11:00:00,12.7816279,77.6299145,NH3,4,4,4
India,Karnataka,Bengaluru,"Kasturi Nagar, Bengaluru - KSPCB",24-02-2024 11:00:00,13.003872,77.664217,NH3,3,4,4
India,Karnataka,Bengaluru,"Peenya, Bengaluru - CPCB",24-02-2024 11:00:00,13.0270199,77.494094,PM2.5,NA,NA,NA
India,Karnataka,Bengaluru,"Peenya, Bengaluru - CPCB",24-02-2024 11:00:00,13.0270199,77.494094,NH3,2,4,3
India,Karnataka,Bengaluru,"Peenya, Bengaluru - CPCB",24-02-2024 11:00:00,13.0270199,77.494094,OZONE,21,82,48
India,Karnataka,Bengaluru,"RVCE-Mailasandra, Bengaluru - KSPCB",24-02-2024 11:00:00,12.921418,77.502466,PM2.5,30,259,99
India,Karnataka,Bengaluru,"RVCE-Mailasandra, Bengaluru - KSPCB",24-02-2024 11:00:00,12.921418,77.502466,SO2,8,14,9
India,Karnataka,Bengaluru,"Silk Board, Bengaluru - KSPCB",24-02-2024 11:00:00,12.917348,77.622813,NH3,NA,NA,NA
India,Karnataka,Bidar,"Naubad, Bidar - KSPCB",24-02-2024 11:00:00,17.930306,77.482194,SO2,NA,NA,NA
India,Karnataka,Bidar,"Naubad, Bidar - KSPCB",24-02-2024 11:00:00,17.930306,77.482194,OZONE,NA,NA,NA
India,Karnataka,Chamarajanagar,"Urban, Chamarajanagar - KSPCB",24-02-2024 11:00:00,11.55358,76.55521,OZONE,25,54,26
India,Karnataka,Chikkaballapur,"Chikkaballapur Rural, Chikkaballapur - KSPCB",24-02-2024 11:00:00,13.428828,77.731418,OZONE,24,25,24
India,Karnataka,Chikkamagaluru,"Kalyana Nagara, Chikkamagaluru - KSPCB",24-02-2024 11:00:00,13.328028,75.797056,CO,11,14,11
India,Karnataka,Davanagere,"Devaraj Urs Badavane, Davanagere - KSPCB",24-02-2024 11:00:00,14.475800,75.905200,NH3,1,1,1
India,Karnataka,Davanagere,"Devaraj Urs Badavane, Davanagere - KSPCB",24-02-2024 11:00:00,14.475800,75.905200,SO2,1,18,4
India,Karnataka,Davanagere,"Devaraj Urs Badavane, Davanagere - KSPCB",24-02-2024 11:00:00,14.475800,75.905200,OZONE,17,27,22
India,Karnataka,Dharwad,"Kalabhavan, Dharwad - KSPCB",24-02-2024 11:00:00,15.459706,75.008381,CO,37,112,68
