country,state,city,station,last_update,latitude,longitude,pollutant_id,pollutant_min,pollutant_max,pollutant_avg
India,Andhra_Pradesh,Amaravati,"Secretariat, Amaravati - APPCB",12-02-2024 20:00:00,16.5150833,80.5181667,PM2.5,15,108,64
India,Andhra_Pradesh,Rajamahendravaram,"Anand Kala Kshetram, Rajamahendravaram - APPCB",12-02-2024 20:00:00,16.9872867,81.7363176,NH3,4,7,5
India,Andhra_Pradesh,Rajamahendravaram,"Anand Kala Kshetram, Rajamahendravaram - APPCB",12-02-2024 20:00:00,16.9872867,81.7363176,SO2,8,14,12
India,Andhra_Pradesh,Rajamahendravaram,"Anand Kala Kshetram, Rajamahendravaram - APPCB",12-02-2024 20:00:00,16.9872867,81.7363176,CO,14,80,42
India,Andhra_Pradesh,Tirupati,"Tirumala, Tirupati - APPCB",12-02-2024 20:00:00,13.67,79.35,NO2,24,49,35
India,Andhra_Pradesh,Vijayawada,"HB Colony, Vijayawada - APPCB",12-02-2024 20:00:00,16.536107,80.594233,NO2,NA,NA,NA
India,Andhra_Pradesh,Vijayawada,"HB Colony, Vijayawada - APPCB",12-02-2024 20:00:00,16.536107,80.594233,CO,23,31,27
India,Andhra_Pradesh,Vijayawada,"Rajiv Gandhi Park, Vijayawada - APPCB",12-02-2024 20:00:00,16.509717,80.612222,PM10,37,96,77
India,Andhra_Pradesh,Vijayawada,"Rajiv Gandhi Park, Vijayawada - APPCB",12-02-2024 20:00:00,16.509717,80.612222,SO2,5,9,7
India,Andhra_Pradesh,Vijayawada,"Rajiv Nagar, Vijayawada - APPCB",12-02-2024 20:00:00,16.554731,80.649110,SO2,7,25,16
India,Andhra_Pradesh,Visakhapatnam,"GVM Corporation, Visakhapatnam - APPCB",12-02-2024 20:00:00,17.72,83.3,NO2,29,75,44
India,Andhra_Pradesh,Visakhapatnam,"GVM Corporation, Visakhapatnam - APPCB",12-02-2024 20:00:00,17.72,83.3,OZONE,9,69,55
India,Arunachal_Pradesh,Naharlagun,"Naharlagun, Naharlagun - APSPCB",12-02-2024 20:00:00,27.103358,93.679645,NO2,2,2,2
India,Assam,Byrnihat,"Central Academy for SFS, Byrnihat - PCBA",12-02-2024 20:00:00,26.071318,91.87488,PM10,63,500,284
India,Assam,Guwahati,"IITG, Guwahati - PCBA",12-02-2024 20:00:00,26.2028636,91.70046436,PM10,78,361,156
India,Assam,Guwahati,"IITG, Guwahati - PCBA",12-02-2024 20:00:00,26.2028636,91.70046436,OZONE,2,38,24
India,Assam,Guwahati,"LGBI Airport, Guwahati - PCBA",12-02-2024 20:00:00,26.10887,91.589544,CO,14,76,39
India,Assam,Guwahati,"LGBI Airport, Guwahati - PCBA",12-02-2024 20:00:00,26.10887,91.589544,OZONE,6,86,64
India,Assam,Guwahati,"Pan Bazaar, Guwahati - PCBA",12-02-2024 20:00:00,26.187500,91.744194,NO2,3,13,8
India,Assam,Guwahati,"Pan Bazaar, Guwahati - PCBA",12-02-2024 20:00:00,26.187500,91.744194,NH3,4,6,5
India,Assam,Guwahati,"Pan Bazaar, Guwahati - PCBA",12-02-2024 20:00:00,26.187500,91.744194,CO,30,120,56
India,Assam,Guwahati,"Railway Colony, Guwahati - PCBA",12-02-2024 20:00:00,26.181742,91.78063,CO,24,113,54
India,Assam,Nagaon,"Christianpatty, Nagaon - PCBA",12-02-2024 20:00:00,26.349082,92.68449,NH3,2,6,3
India,Assam,Nalbari,"Bata Chowk, Nalbari - PCBA",12-02-2024 20:00:00,26.446912,91.439057,SO2,4,7,5
India,Assam,Nalbari,"Bata Chowk, Nalbari - PCBA",12-02-2024 20:00:00,26.446912,91.439057,CO,56,139,97
India,Assam,Sivasagar,"Girls College, Sivasagar - PCBA",12-02-2024 20:00:00,26.987634,94.636574,PM10,29,87,58
India,Assam,Sivasagar,"Girls College, Sivasagar - PCBA",12-02-2024 20:00:00,26.987634,94.636574,CO,6,58,16
India,Bihar,Araria,"Kharahiya Basti, Araria - BSPCB",12-02-2024 20:00:00,26.146529,87.454184,NO2,4,8,7
India,Bihar,Araria,"Kharahiya Basti, Araria - BSPCB",12-02-2024 20:00:00,26.146529,87.454184,CO,27,30,29
India,Bihar,Araria,"Kharahiya Basti, Araria - BSPCB",12-02-2024 20:00:00,26.146529,87.454184,OZONE,9,10,10
India,Bihar,Arrah,"New DM Office, Arrah - BSPCB",12-02-2024 20:00:00,25.5626095,84.663264,PM2.5,NA,NA,NA
India,Bihar,Arrah,"New DM Office, Arrah - BSPCB",12-02-2024 20:00:00,25.5626095,84.663264,CO,4,42,15
India,Bihar,Arrah,"New DM Office, Arrah - BSPCB",12-02-2024 20:00:00,25.5626095,84.663264,OZONE,14,36,15
India,Bihar,Aurangabad,"Gurdeo Nagar, Aurangabad - BSPCB",12-02-2024 20:00:00,24.75746,84.366208,NO2,7,15,11
India,Bihar,Bettiah,"Kamalnath Nagar, Bettiah - BSPCB",12-02-2024 20:00:00,26.80365,84.51954,PM2.5,18,100,52
India,Bihar,Bhagalpur,"DM Office_Kachari Chowk, Bhagalpur - BSPCB",12-02-2024 20:00:00,25.251013,86.989001,SO2,2,26,10
India,Bihar,Bhagalpur,"Mayaganj, Bhagalpur - BSPCB",12-02-2024 20:00:00,25.265194,87.012947,NH3,8,9,9
India,Bihar,Bihar Sharif,"D M Colony, Bihar Sharif - BSPCB",12-02-2024 20:00:00,25.204762,85.514960,NH3,2,2,2
India,Bihar,Bihar Sharif,"D M Colony, Bihar Sharif - BSPCB",12-02-2024 20:00:00,25.204762,85.514960,SO2,4,15,7
India,Bihar,Chhapra,"Darshan Nagar, Chhapra - BSPCB",12-02-2024 20:00:00,25.7808257,84.7446768,CO,28,75,58
India,Bihar,Chhapra,"Darshan Nagar, Chhapra - BSPCB",12-02-2024 20:00:00,25.7808257,84.7446768,OZONE,1,19,9
India,Bihar,Gaya,"Collectorate, Gaya - BSPCB",12-02-2024 20:00:00,24.7955,84.9994,SO2,16,45,27
India,Bihar,Gaya,"Collectorate, Gaya - BSPCB",12-02-2024 20:00:00,24.7955,84.9994,OZONE,52,76,68
India,Bihar,Gaya,"Kareemganj, Gaya - BSPCB",12-02-2024 20:00:00,24.792403,84.992416,PM10,79,257,153
India,Bihar,Gaya,"Kareemganj, Gaya - BSPCB",12-02-2024 20:00:00,24.792403,84.992416,NH3,1,4,3
India,Bihar,Gaya,"SFTI Kusdihra, Gaya - BSPCB",12-02-2024 20:00:00,24.762518,84.982348,PM2.5,77,220,139
India,Bihar,Hajipur,"Industrial Area, Hajipur - BSPCB",12-02-2024 20:00:00,25.697189,85.245900,CO,17,51,22
India,Bihar,Katihar,"Mirchaibari, Katihar - BSPCB",12-02-2024 20:00:00,25.560083,87.553265,NH3,2,5,3
India,Bihar,Kishanganj,"SDM Office_Khagra, Kishanganj - BSPCB",12-02-2024 20:00:00,26.0881305,87.93840336,PM10,NA,NA,NA
India,Bihar,Kishanganj,"SDM Office_Khagra, Kishanganj - BSPCB",12-02-2024 20:00:00,26.0881305,87.93840336,NO2,32,44,39
India,Bihar,Kishanganj,"SDM Office_Khagra, Kishanganj - BSPCB",12-02-2024 20:00:00,26.0881305,87.93840336,NH3,11,18,15
India,Bihar,Kishanganj,"SDM Office_Khagra, Kishanganj - BSPCB",12-02-2024 20:00:00,26.0881305,87.93840336,SO2,2,28,8
India,Bihar,Kishanganj,"SDM Office_Khagra, Kishanganj - BSPCB",12-02-2024 20:00:00,26.0881305,87.93840336,CO,2,16,7
India,Bihar,Manguraha,"Forest Rest House, Manguraha - BSPCB",12-02-2024 20:00:00,27.308328,84.531742,PM10,62,157,103
India,Bihar,Manguraha,"Forest Rest House, Manguraha - BSPCB",12-02-2024 20:00:00,27.308328,84.531742,CO,1,10,5
India,Bihar,Manguraha,"Forest Rest House, Manguraha - BSPCB",12-02-2024 20:00:00,27.308328,84.531742,OZONE,38,71,62
India,Bihar,Motihari,"Gandak Colony, Motihari - BSPCB",12-02-2024 20:00:00,26.63086,84.90051,PM10,48,182,119
India,Bihar,Motihari,"Gandak Colony, Motihari - BSPCB",12-02-2024 20:00:00,26.63086,84.90051,NO2,40,76,50
India,Bihar,Munger,"Town Hall, Munger - BSPCB",12-02-2024 20:00:00,25.376776,86.471523,PM10,76,463,144
India,Bihar,Munger,"Town Hall, Munger - BSPCB",12-02-2024 20:00:00,25.376776,86.471523,NH3,1,2,2
India,Bihar,Muzaffarpur,"Buddha Colony, Muzaffarpur - BSPCB",12-02-2024 20:00:00,26.11442,85.39813,PM2.5,151,342,276
India,Bihar,Muzaffarpur,"MIT-Daudpur Kothi, Muzaffarpur - BSPCB",12-02-2024 20:00:00,26.1403345,85.3650192,SO2,10,18,15
India,Bihar,Muzaffarpur,"MIT-Daudpur Kothi, Muzaffarpur - BSPCB",12-02-2024 20:00:00,26.1403345,85.3650192,CO,12,76,60
India,Bihar,Muzaffarpur,"MIT-Daudpur Kothi, Muzaffarpur - BSPCB",12-02-2024 20:00:00,26.1403345,85.3650192,OZONE,6,87,58
India,Bihar,Muzaffarpur,"Muzaffarpur Collectorate, Muzaffarpur - BSPCB",12-02-2024 20:00:00,26.1209,85.3647,NO2,3,14,9
India,Bihar,Patna,"DRM Office Danapur, Patna - BSPCB",12-02-2024 20:00:00,25.586562,85.043586,NO2,13,99,57
India,Bihar,Patna,"Govt. High School Shikarpur, Patna - BSPCB",12-02-2024 20:00:00,25.592539,85.227158,PM2.5,119,346,274
India,Bihar,Patna,"IGSC Planetarium Complex, Patna - BSPCB",12-02-2024 20:00:00,25.610369,85.132568,NO2,12,12,12
India,Bihar,Patna,"Muradpur, Patna - BSPCB",12-02-2024 20:00:00,25.619651,85.147382,NO2,7,24,14
India,Bihar,Patna,"Rajbansi Nagar, Patna - BSPCB",12-02-2024 20:00:00,25.599486,85.113666,PM2.5,139,312,264
India,Bihar,Patna,"Rajbansi Nagar, Patna - BSPCB",12-02-2024 20:00:00,25.599486,85.113666,CO,104,120,109
India,Bihar,Patna,"Samanpura, Patna - BSPCB",12-02-2024 20:00:00,25.596727,85.085624,PM10,169,500,341
India,Bihar,Purnia,"Mariam Nagar, Purnia - BSPCB",12-02-2024 20:00:00,25.366336,87.117468,PM10,NA,NA,NA
India,Bihar,Purnia,"Mariam Nagar, Purnia - BSPCB",12-02-2024 20:00:00,25.366336,87.117468,NH3,1,1,1
India,Bihar,Rajgir,"Dangi Tola, Rajgir - BSPCB",12-02-2024 20:00:00,25.03280,85.41948,PM10,96,329,143
India,Bihar,Rajgir,"Dangi Tola, Rajgir - BSPCB",12-02-2024 20:00:00,25.03280,85.41948,OZONE,20,24,22
India,Bihar,Saharsa,"Police Line, Saharsa - BSPCB",12-02-2024 20:00:00,25.892357,86.590325,PM10,60,192,125
India,Bihar,Samastipur,"DM Office_Kasipur, Samastipur - BSPCB",12-02-2024 20:00:00,25.859655,85.77944,PM10,NA,NA,NA
India,Bihar,Samastipur,"DM Office_Kasipur, Samastipur - BSPCB",12-02-2024 20:00:00,25.859655,85.77944,NO2,4,7,5
India,Chandigarh,Chandigarh,"Sector-25, Chandigarh - CPCC",12-02-2024 20:00:00,30.751462,76.762879,NH3,16,42,27
India,Chandigarh,Chandigarh,"Sector-53, Chandigarh - CPCC",12-02-2024 20:00:00,30.719859,76.738637,PM10,NA,NA,NA
India,Chandigarh,Chandigarh,"Sector-53, Chandigarh - CPCC",12-02-2024 20:00:00,30.719859,76.738637,NH3,NA,NA,NA
India,Chhattisgarh,Bhilai,"Civic Center, Bhilai - Bhilai Steel Plant",12-02-2024 20:00:00,21.185571,81.343175,PM10,60,87,77
India,Chhattisgarh,Bhilai,"Hathkhoj, Bhilai - CECB",12-02-2024 20:00:00,21.224231,81.408350,NO2,29,46,36
India,Chhattisgarh,Bhilai,"Hathkhoj, Bhilai - CECB",12-02-2024 20:00:00,21.224231,81.408350,NH3,8,8,8
India,Chhattisgarh,Bilaspur,"Mangala, Bilaspur - NTPC",12-02-2024 20:00:00,22.08815,82.13737,PM2.5,26,70,42
India,Chhattisgarh,Bilaspur,"Mangala, Bilaspur - NTPC",12-02-2024 20:00:00,22.08815,82.13737,PM10,23,71,41
India,Chhattisgarh,Bilaspur,"Mangala, Bilaspur - NTPC",12-02-2024 20:00:00,22.08815,82.13737,CO,25,49,37
India,Chhattisgarh,Chhal,"Nawapara SECL Colony, Chhal - CECB",12-02-2024 20:00:00,22.118125,83.140608,CO,41,101,87
India,Chhattisgarh,Korba,"Rampur, Korba - CECB",12-02-2024 20:00:00,22.368195,82.746431,SO2,8,18,13
India,Chhattisgarh,Korba,"Urja Nagar, Korba - CECB",12-02-2024 20:00:00,22.348441,82.549611,PM2.5,3,9,6
India,Chhattisgarh,Korba,"Urja Nagar, Korba - CECB",12-02-2024 20:00:00,22.348441,82.549611,NO2,74,89,80
India,Chhattisgarh,Kunjemura,"OP Jindal School, Kunjemura - CECB",12-02-2024 20:00:00,22.126650,83.483212,PM10,21,113,42
India,Chhattisgarh,Kunjemura,"OP Jindal School, Kunjemura - CECB",12-02-2024 20:00:00,22.126650,83.483212,OZONE,6,55,41
India,Chhattisgarh,Raipur,"AIIMS, Raipur - CECB",12-02-2024 20:00:00,21.258815,81.578979,NH3,4,4,4
India,Chhattisgarh,Raipur,"AIIMS, Raipur - CECB",12-02-2024 20:00:00,21.258815,81.578979,OZONE,1,5,2
India,Chhattisgarh,Raipur,"Siltara Phase-II, Raipur - CECB",12-02-2024 20:00:00,21.371751,81.664929,OZONE,3,11,6
India,Chhattisgarh,Tumidih,"OP Jindal Industrial Park, Tumidih - CECB",12-02-2024 20:00:00,22.06631475,83.33820077,NH3,2,3,2
India,Chhattisgarh,Tumidih,"OP Jindal Industrial Park, Tumidih - CECB",12-02-2024 20:00:00,22.06631475,83.33820077,OZONE,9,52,36
India,Delhi,Delhi,"Alipur, Delhi - DPCC",12-02-2024 20:00:00,28.815329,77.153010,NO2,17,93,52
India,Delhi,Delhi,"Bawana, Delhi - DPCC",12-02-2024 20:00:00,28.776200,77.051074,CO,36,86,47
India,Delhi,Delhi,"Burari Crossing, Delhi - IMD",12-02-2024 20:00:00,28.7256504,77.2011573,CO,102,106,105
India,Delhi,Delhi,"DTU, Delhi - CPCB",12-02-2024 20:00:00,28.7500499,77.1112615,NH3,12,20,14
India,Delhi,Delhi,"Dr. Karni Singh Shooting Range, Delhi - DPCC",12-02-2024 20:00:00,28.498571,77.264840,PM2.5,252,359,333
India,Delhi,Delhi,"Dr. Karni Singh Shooting Range, Delhi - DPCC",12-02-2024 20:00:00,28.498571,77.264840,PM10,150,310,237
India,Delhi,Delhi,"Dr. Karni Singh Shooting Range, Delhi - DPCC",12-02-2024 20:00:00,28.498571,77.264840,CO,34,114,62
India,Delhi,Delhi,"Dr. Karni Singh Shooting Range, Delhi - DPCC",12-02-2024 20:00:00,28.498571,77.264840,OZONE,1,229,124
India,Delhi,Delhi,"Dwarka-Sector 8, Delhi - DPCC ",12-02-2024 20:00:00,28.5710274,77.0719006,PM2.5,323,393,352
India,Delhi,Delhi,"Dwarka-Sector 8, Delhi - DPCC ",12-02-2024 20:00:00,28.5710274,77.0719006,SO2,4,12,8
India,Delhi,Delhi,"IHBAS, Dilshad Garden, Delhi - CPCB",12-02-2024 20:00:00,28.6811736,77.3025234,PM2.5,81,283,190
India,Delhi,Delhi,"IHBAS, Dilshad Garden, Delhi - CPCB",12-02-2024 20:00:00,28.6811736,77.3025234,SO2,2,9,3
India,Delhi,Delhi,"IHBAS, Dilshad Garden, Delhi - CPCB",12-02-2024 20:00:00,28.6811736,77.3025234,CO,9,72,54
India,Delhi,Delhi,"IHBAS, Dilshad Garden, Delhi - CPCB",12-02-2024 20:00:00,28.6811736,77.3025234,OZONE,9,43,33
India,Delhi,Delhi,"ITO, Delhi - CPCB",12-02-2024 20:00:00,28.628624,77.241060,PM2.5,233,347,295
India,Delhi,Delhi,"ITO, Delhi - CPCB",12-02-2024 20:00:00,28.628624,77.241060,PM10,113,184,138
India,Delhi,Delhi,"ITO, Delhi - CPCB",12-02-2024 20:00:00,28.628624,77.241060,NH3,1,7,4
India,Delhi,Delhi,"ITO, Delhi - CPCB",12-02-2024 20:00:00,28.628624,77.241060,SO2,17,34,25
India,Delhi,Delhi,"ITO, Delhi - CPCB",12-02-2024 20:00:00,28.628624,77.241060,OZONE,18,153,83
India,Delhi,Delhi,"Jahangirpuri, Delhi - DPCC",12-02-2024 20:00:00,28.732820,77.170633,SO2,12,22,16
India,Delhi,Delhi,"Jawaharlal Nehru Stadium, Delhi - DPCC",12-02-2024 20:00:00,28.580280,77.233829,PM2.5,217,363,324
India,Delhi,Delhi,"Lodhi Road, Delhi - IMD",12-02-2024 20:00:00,28.5918245,77.2273074,PM10,119,216,175
India,Delhi,Delhi,"Lodhi Road, Delhi - IMD",12-02-2024 20:00:00,28.5918245,77.2273074,OZONE,15,91,58
India,Delhi,Delhi,"Mandir Marg, Delhi - DPCC",12-02-2024 20:00:00,28.636429,77.201067,NO2,97,151,125
India,Delhi,Delhi,"Mandir Marg, Delhi - DPCC",12-02-2024 20:00:00,28.636429,77.201067,SO2,8,11,9
India,Delhi,Delhi,"Mandir Marg, Delhi - DPCC",12-02-2024 20:00:00,28.636429,77.201067,OZONE,8,30,23
India,Delhi,Delhi,"Mundka, Delhi - DPCC",12-02-2024 20:00:00,28.684678,77.076574,PM10,178,408,282
India,Delhi,Delhi,"Mundka, Delhi - DPCC",12-02-2024 20:00:00,28.684678,77.076574,NH3,8,13,10
India,Delhi,Delhi,"Najafgarh, Delhi - DPCC",12-02-2024 20:00:00,28.570173,76.933762,NH3,1,1,1
India,Delhi,Delhi,"Narela, Delhi - DPCC",12-02-2024 20:00:00,28.822836,77.101981,PM2.5,237,353,302
India,Delhi,Delhi,"Narela, Delhi - DPCC",12-02-2024 20:00:00,28.822836,77.101981,NO2,31,107,58
India,Delhi,Delhi,"Narela, Delhi - DPCC",12-02-2024 20:00:00,28.822836,77.101981,NH3,5,13,9
India,Delhi,Delhi,"Narela, Delhi - DPCC",12-02-2024 20:00:00,28.822836,77.101981,CO,69,106,86
India,Delhi,Delhi,"North Campus, DU, Delhi - IMD",12-02-2024 20:00:00,28.6573814,77.1585447,PM2.5,217,347,315
India,Delhi,Delhi,"North Campus, DU, Delhi - IMD",12-02-2024 20:00:00,28.6573814,77.1585447,CO,16,40,18
India,Delhi,Delhi,"North Campus, DU, Delhi - IMD",12-02-2024 20:00:00,28.6573814,77.1585447,OZONE,8,50,27
India,Delhi,Delhi,"Okhla Phase-2, Delhi - DPCC",12-02-2024 20:00:00,28.530785,77.271255,SO2,5,13,9
India,Delhi,Delhi,"Patparganj, Delhi - DPCC",12-02-2024 20:00:00,28.623763,77.287209,NH3,7,12,10
India,Delhi,Delhi,"Punjabi Bagh, Delhi - DPCC",12-02-2024 20:00:00,28.674045,77.131023,PM2.5,311,378,352
India,Delhi,Delhi,"Punjabi Bagh, Delhi - DPCC",12-02-2024 20:00:00,28.674045,77.131023,PM10,184,292,238
India,Delhi,Delhi,"Punjabi Bagh, Delhi - DPCC",12-02-2024 20:00:00,28.674045,77.131023,OZONE,6,44,24
India,Delhi,Delhi,"Pusa, Delhi - DPCC",12-02-2024 20:00:00,28.639652,77.146275,OZONE,14,74,43
India,Delhi,Delhi,"Pusa, Delhi - IMD",12-02-2024 20:00:00,28.636110,77.173332,PM10,NA,NA,NA
India,Delhi,Delhi,"R K Puram, Delhi - DPCC",12-02-2024 20:00:00,28.563262,77.186937,PM10,162,400,257
India,Delhi,Delhi,"R K Puram, Delhi - DPCC",12-02-2024 20:00:00,28.563262,77.186937,NO2,50,155,88
India,Delhi,Delhi,"R K Puram, Delhi - DPCC",12-02-2024 20:00:00,28.563262,77.186937,NH3,NA,NA,NA
India,Delhi,Delhi,"Rohini, Delhi - DPCC",12-02-2024 20:00:00,28.732528,77.119920,CO,32,115,46
India,Delhi,Delhi,"Shadipur, Delhi - CPCB",12-02-2024 20:00:00,28.6514781,77.1473105,NH3,8,37,26
India,Delhi,Delhi,"Sirifort, Delhi - CPCB",12-02-2024 20:00:00,28.5504249,77.2159377,NO2,113,223,180
India,Delhi,Delhi,"Sonia Vihar, Delhi - DPCC",12-02-2024 20:00:00,28.710508,77.249485,CO,49,109,58
India,Delhi,Delhi,"Sri Aurobindo Marg, Delhi - DPCC",12-02-2024 20:00:00,28.531346,77.190156,NO2,16,104,53
India,Delhi,Delhi,"Sri Aurobindo Marg, Delhi - DPCC",12-02-2024 20:00:00,28.531346,77.190156,CO,38,90,41
India,Delhi,Delhi,"Vivek Vihar, Delhi - DPCC",12-02-2024 20:00:00,28.672342,77.315260,PM2.5,307,368,342
India,Delhi,Delhi,"Vivek Vihar, Delhi - DPCC",12-02-2024 20:00:00,28.672342,77.315260,PM10,177,318,232
India,Gujarat,Ahmedabad,"Chandkheda, Ahmedabad - IITM",12-02-2024 20:00:00,23.107969,72.574648,NO2,14,88,57
India,Gujarat,Ahmedabad,"Gyaspur, Ahmedabad - IITM",12-02-2024 20:00:00,22.977134,72.553024,SO2,3,4,3
India,Gujarat,Ahmedabad,"Raikhad, Ahmedabad - IITM",12-02-2024 20:00:00,23.020509,72.579261,SO2,3,11,6
India,Gujarat,Ahmedabad,"SAC ISRO Bopal, Ahmedabad - IITM",12-02-2024 20:00:00,23.041137,72.456691,PM10,55,113,81
India,Gujarat,Ahmedabad,"SAC ISRO Bopal, Ahmedabad - IITM",12-02-2024 20:00:00,23.041137,72.456691,NH3,3,5,4
India,Gujarat,Ahmedabad,"SAC ISRO Bopal, Ahmedabad - IITM",12-02-2024 20:00:00,23.041137,72.456691,CO,28,44,39
India,Gujarat,Ahmedabad,"SAC ISRO Satellite, Ahmedabad - IITM",12-02-2024 20:00:00,23.023389,72.515201,PM2.5,117,232,165
India,Gujarat,Ahmedabad,"Sardar Vallabhbhai Patel Stadium, Ahmedabad - IITM",12-02-2024 20:00:00,23.043070,72.562968,PM10,79,152,101
India,Gujarat,Gandhinagar,"GIFT City, Gandhinagar - IITM",12-02-2024 20:00:00,23.163798,72.677768,PM10,70,130,85
India,Gujarat,Gandhinagar,"GIFT City, Gandhinagar - IITM",12-02-2024 20:00:00,23.163798,72.677768,NO2,19,52,25
India,Gujarat,Gandhinagar,"GIFT City, Gandhinagar - IITM",12-02-2024 20:00:00,23.163798,72.677768,NH3,6,9,6
India,Gujarat,Gandhinagar,"GIFT City, Gandhinagar - IITM",12-02-2024 20:00:00,23.163798,72.677768,SO2,4,6,5
India,Gujarat,Gandhinagar,"IIPHG Lekawada, Gandhinagar - IITM",12-02-2024 20:00:00,23.243639,72.68994,NH3,4,5,5
India,Gujarat,Gandhinagar,"Sector-10, Gandhinagar - GPCB",12-02-2024 20:00:00,23.221714,72.654328,NH3,1,2,2
India,Gujarat,Surat,"Science Center, Surat - SMC",12-02-2024 20:00:00,21.170046,72.795405,CO,49,61,54
India,Gujarat,Vatva,"Phase-4 GIDC, Vatva - GPCB",12-02-2024 20:00:00,22.969611,72.643500,NO2,28,125,50
India,Haryana,Ambala,"Patti Mehar, Ambala - HSPCB",12-02-2024 20:00:00,30.379589,76.778328,SO2,2,8,6
India,Haryana,Bahadurgarh,"Arya Nagar, Bahadurgarh - HSPCB",12-02-2024 20:00:00,28.6701,76.9254,PM2.5,146,292,239
India,Haryana,Bahadurgarh,"Arya Nagar, Bahadurgarh - HSPCB",12-02-2024 20:00:00,28.6701,76.9254,NO2,32,41,36
India,Haryana,Bahadurgarh,"Arya Nagar, Bahadurgarh - HSPCB",12-02-2024 20:00:00,28.6701,76.9254,CO,42,60,49
India,Haryana,Bahadurgarh,"Arya Nagar, Bahadurgarh - HSPCB",12-02-2024 20:00:00,28.6701,76.9254,OZONE,40,50,44
India,Haryana,Ballabgarh,"Nathu Colony, Ballabgarh - HSPCB",12-02-2024 20:00:00,28.3419248,77.319699,PM2.5,118,350,270
India,Haryana,Ballabgarh,"Nathu Colony, Ballabgarh - HSPCB",12-02-2024 20:00:00,28.3419248,77.319699,NO2,8,13,12
India,Haryana,Ballabgarh,"Nathu Colony, Ballabgarh - HSPCB",12-02-2024 20:00:00,28.3419248,77.319699,CO,14,110,70
India,Haryana,Bhiwani,"H.B. Colony, Bhiwani - HSPCB",12-02-2024 20:00:00,28.806223,76.141105,NH3,6,6,6
India,Haryana,Bhiwani,"H.B. Colony, Bhiwani - HSPCB",12-02-2024 20:00:00,28.806223,76.141105,OZONE,13,19,18
India,Haryana,Charkhi Dadri,"Mini Secretariat, Charkhi Dadri - HSPCB",12-02-2024 20:00:00,28.593883,76.270653,CO,22,72,35
India,Haryana,Dharuhera,"Municipal Corporation Office, Dharuhera -  HSPCB",12-02-2024 20:00:00,28.206800,76.799700,PM2.5,127,317,237
India,Haryana,Dharuhera,"Municipal Corporation Office, Dharuhera -  HSPCB",12-02-2024 20:00:00,28.206800,76.799700,PM10,174,440,290
India,Haryana,Faridabad,"New Industrial Town, Faridabad - HSPCB",12-02-2024 20:00:00,28.39072,77.30059,PM10,129,423,250
India,Haryana,Faridabad,"New Industrial Town, Faridabad - HSPCB",12-02-2024 20:00:00,28.39072,77.30059,NH3,4,6,5
India,Haryana,Faridabad,"New Industrial Town, Faridabad - HSPCB",12-02-2024 20:00:00,28.39072,77.30059,OZONE,34,150,107
India,Haryana,Faridabad,"Sector 11, Faridabad - HSPCB",12-02-2024 20:00:00,28.376058,77.315741,OZONE,3,15,8
India,Haryana,Faridabad,"Sector 30, Faridabad - HSPCB",12-02-2024 20:00:00,28.4417,77.3217,PM10,116,129,121
India,Haryana,Faridabad,"Sector 30, Faridabad - HSPCB",12-02-2024 20:00:00,28.4417,77.3217,SO2,2,30,4
India,Haryana,Fatehabad,"Huda Sector, Fatehabad - HSPCB",12-02-2024 20:00:00,29.503664,75.467934,PM2.5,87,367,229
India,Haryana,Gurugram,"Sector-51, Gurugram - HSPCB",12-02-2024 20:00:00,28.4227,77.0667,PM10,178,408,235
India,Haryana,Gurugram,"Teri Gram, Gurugram - HSPCB",12-02-2024 20:00:00,28.4275,77.1465,PM10,185,366,246
India,Haryana,Gurugram,"Teri Gram, Gurugram - HSPCB",12-02-2024 20:00:00,28.4275,77.1465,NO2,22,56,41
India,Haryana,Gurugram,"Teri Gram, Gurugram - HSPCB",12-02-2024 20:00:00,28.4275,77.1465,NH3,28,48,37
India,Haryana,Hisar,"Urban Estate-II, Hisar - HSPCB",12-02-2024 20:00:00,29.140560,75.744941,PM10,105,172,132
India,Haryana,Hisar,"Urban Estate-II, Hisar - HSPCB",12-02-2024 20:00:00,29.140560,75.744941,SO2,6,53,37
India,Haryana,Hisar,"Urban Estate-II, Hisar - HSPCB",12-02-2024 20:00:00,29.140560,75.744941,CO,40,126,77
India,Haryana,Jind,"Police Lines, Jind - HSPCB",12-02-2024 20:00:00,29.307814,76.337619,NO2,8,18,13
India,Haryana,Jind,"Police Lines, Jind - HSPCB",12-02-2024 20:00:00,29.307814,76.337619,OZONE,1,21,17
India,Haryana,Kaithal,"Rishi Nagar, Kaithal - HSPCB",12-02-2024 20:00:00,29.8006,76.4155,PM10,88,178,122
India,Haryana,Kaithal,"Rishi Nagar, Kaithal - HSPCB",12-02-2024 20:00:00,29.8006,76.4155,CO,4,51,24
India,Haryana,Karnal,"Sector-12, Karnal - HSPCB",12-02-2024 20:00:00,29.695300,77.002700,PM2.5,68,303,104
India,Haryana,Karnal,"Sector-12, Karnal - HSPCB",12-02-2024 20:00:00,29.695300,77.002700,PM10,79,182,107
India,Haryana,Karnal,"Sector-12, Karnal - HSPCB",12-02-2024 20:00:00,29.695300,77.002700,NO2,7,12,10
India,Haryana,Karnal,"Sector-12, Karnal - HSPCB",12-02-2024 20:00:00,29.695300,77.002700,OZONE,29,39,32
India,Haryana,Kurukshetra,"Sector-7, Kurukshetra - HSPCB",12-02-2024 20:00:00,29.966942,76.875879,NO2,10,10,10
India,Haryana,Kurukshetra,"Sector-7, Kurukshetra - HSPCB",12-02-2024 20:00:00,29.966942,76.875879,NH3,5,5,5
India,Haryana,Kurukshetra,"Sector-7, Kurukshetra - HSPCB",12-02-2024 20:00:00,29.966942,76.875879,CO,20,68,36
India,Haryana,Mandikhera,"General Hospital, Mandikhera - HSPCB",12-02-2024 20:00:00,27.9002,76.9938,PM10,89,173,125
India,Haryana,Mandikhera,"General Hospital, Mandikhera - HSPCB",12-02-2024 20:00:00,27.9002,76.9938,NH3,18,20,20
India,Haryana,Narnaul,"Shastri Nagar, Narnaul - HSPCB",12-02-2024 20:00:00,28.060249,76.113115,NO2,NA,NA,NA
India,Haryana,Sirsa,"F-Block, Sirsa - HSPCB",12-02-2024 20:00:00,29.536400,75.015800,NO2,10,10,10
India,Haryana,Sirsa,"F-Block, Sirsa - HSPCB",12-02-2024 20:00:00,29.536400,75.015800,CO,73,100,88
India,Haryana,Sonipat,"Murthal, Sonipat - HSPCB",12-02-2024 20:00:00,29.027200,77.062100,NO2,37,44,40
India,Haryana,Sonipat,"Murthal, Sonipat - HSPCB",12-02-2024 20:00:00,29.027200,77.062100,NH3,7,10,9
India,Haryana,Yamuna Nagar,"Gobind Pura, Yamuna Nagar - HSPCB",12-02-2024 20:00:00,30.1480566,77.2893471,NO2,NA,NA,NA
India,Jharkhand,Dhanbad,"Kalakusuma, Dhanbad - DMC",12-02-2024 20:00:00,23.811548,86.481238,SO2,35,36,35
India,Jharkhand,Pathardih,"Mohalbani Ghat, Pathardih - DMC",12-02-2024 20:00:00,23.669880,86.411725,NO2,24,215,138
India,Karnataka,Bagalkot,"Vidayagiri, Bagalkot - KSPCB",12-02-2024 20:00:00,16.172806,75.659694,PM2.5,15,30,29
India,Karnataka,Bagalkot,"Vidayagiri, Bagalkot - KSPCB",12-02-2024 20:00:00,16.172806,75.659694,PM10,46,51,50
India,Karnataka,Belgaum,"Ramteerth Nagar, Belgaum - KSPCB",12-02-2024 20:00:00,15.888653,74.541751,NH3,33,34,33
India,Karnataka,Belgaum,"Ramteerth Nagar, Belgaum - KSPCB",12-02-2024 20:00:00,15.888653,74.541751,CO,34,48,38
India,Karnataka,Belgaum,"Ramteerth Nagar, Belgaum - KSPCB",12-02-2024 20:00:00,15.888653,74.541751,OZONE,19,26,20
India,Karnataka,Bengaluru,"BTM Layout, Bengaluru - CPCB",12-02-2024 20:00:00,12.9135218,77.5950804,NO2,NA,NA,NA
India,Karnataka,Bengaluru,"BTM Layout, Bengaluru - CPCB",12-02-2024 20:00:00,12.9135218,77.5950804,SO2,NA,NA,NA
India,Karnataka,Bengaluru,"BTM Layout, Bengaluru - CPCB",12-02-2024 20:00:00,12.9135218,77.5950804,OZONE,10,23,16
India,Karnataka,Bengaluru,"Bapuji Nagar, Bengaluru - KSPCB",12-02-2024 20:00:00,12.951913,77.539784,PM10,66,160,99
India,Karnataka,Bengaluru,"City Railway Station, Bengaluru - KSPCB",12-02-2024 20:00:00,12.9756843,77.5660749,PM10,60,82,70
India,Karnataka,Bengaluru,"Hombegowda Nagar, Bengaluru - KSPCB",12-02-2024 20:00:00,12.938539,77.590100,OZONE,3,5,4
India,Karnataka,Bengaluru,"Kasturi Nagar, Bengaluru - KSPCB",12-02-2024 20:00:00,13.003872,77.664217,SO2,9,10,10
India,Karnataka,Bengaluru,"Kasturi Nagar, Bengaluru - KSPCB",12-02-2024 20:00:00,13.003872,77.664217,OZONE,33,92,76
India,Karnataka,Bengaluru,"Shivapura_Peenya, Bengaluru - KSPCB",12-02-2024 20:00:00,13.0246342,77.5080115,PM10,60,109,80
India,Karnataka,Bengaluru,"Silk Board, Bengaluru - KSPCB",12-02-2024 20:00:00,12.917348,77.622813,PM2.5,26,80,53
India,Karnataka,Bengaluru,"Silk Board, Bengaluru - KSPCB",12-02-2024 20:00:00,12.917348,77.622813,NO2,NA,NA,NA
India,Karnataka,Bengaluru,"Silk Board, Bengaluru - KSPCB",12-02-2024 20:00:00,12.917348,77.622813,OZONE,29,31,30
India,Karnataka,Chamarajanagar,"Urban, Chamarajanagar - KSPCB",12-02-2024 20:00:00,11.55358,76.55521,NH3,2,5,2
India,Karnataka,Chamarajanagar,"Urban, Chamarajanagar - KSPCB",12-02-2024 20:00:00,11.55358,76.55521,CO,2,24,19
India,Karnataka,Davanagere,"Devaraj Urs Badavane, Davanagere - KSPCB",12-02-2024 20:00:00,14.475800,75.905200,NO2,10,15,12
India,Karnataka,Gadag,"Panchal Nagar, Gadag - KSPCB",12-02-2024 20:00:00,15.411456,75.638133,NO2,3,19,13
India,Karnataka,Gadag,"Panchal Nagar, Gadag - KSPCB",12-02-2024 20:00:00,15.411456,75.638133,NH3,1,3,2
India,Karnataka,Haveri,"Ashwini Nagar, Haveri - KSPCB",12-02-2024 20:00:00,14.791800,75.389600,PM2.5,21,152,71
India,Karnataka,Haveri,"Ashwini Nagar, Haveri - KSPCB",12-02-2024 20:00:00,14.791800,75.389600,PM10,NA,NA,NA
India,Karnataka,Haveri,"Ashwini Nagar, Haveri - KSPCB",12-02-2024 20:00:00,14.791800,75.389600,NO2,26,33,31
India,Karnataka,Haveri,"Ashwini Nagar, Haveri - KSPCB",12-02-2024 20:00:00,14.791800,75.389600,SO2,13,14,14
India,Karnataka,Karwar,"KHB Colony, Karwar - KSPCB",12-02-2024 20:00:00,14.816666,74.141003,NO2,1,10,4
India,Karnataka,Karwar,"KHB Colony, Karwar - KSPCB",12-02-2024 20:00:00,14.816666,74.141003,NH3,2,4,1
India,Karnataka,Karwar,"KHB Colony, Karwar - KSPCB",12-02-2024 20:00:00,14.816666,74.141003,CO,7,8,7
India,Karnataka,Kolar,"Tamaka Ind. Area, Kolar - KSPCB",12-02-2024 20:00:00,13.1276288,78.1570122,NH3,7,9,8
India,Karnataka,Koppal,"Diwator Nagar, Koppal - KSPCB",12-02-2024 20:00:00,15.347630,76.181767,PM10,39,94,64
India,Karnataka,Madikeri,"Stuart Hill, Madikeri - KSPCB",12-02-2024 20:00:00,12.415911,75.735050,NH3,1,1,1
India,Karnataka,Madikeri,"Stuart Hill, Madikeri - KSPCB",12-02-2024 20:00:00,12.415911,75.735050,OZONE,29,52,40
India,Karnataka,Mangalore,"Kadri, Mangalore - KSPCB",12-02-2024 20:00:00,12.889250,74.853000,CO,42,48,44
India,Karnataka,Mangalore,"Kadri, Mangalore - KSPCB",12-02-2024 20:00:00,12.889250,74.853000,OZONE,29,33,31
India,Karnataka,Mysuru,"Hebbal 1st Stage, Mysuru - KSPCB",12-02-2024 20:00:00,12.21041,76.37376,NO2,9,34,21
India,Karnataka,Raichur,"Haji Colony, Raichur - KSPCB",12-02-2024 20:00:00,16.208139,77.348417,NH3,1,4,3
India,Karnataka,Raichur,"Haji Colony, Raichur - KSPCB",12-02-2024 20:00:00,16.208139,77.348417,SO2,60,73,64
India,Karnataka,Raichur,"Haji Colony, Raichur - KSPCB",12-02-2024 20:00:00,16.208139,77.348417,OZONE,2,11,5
India,Karnataka,Ramanagara,"Vijay Nagar, Ramanagara - KSPCB",12-02-2024 20:00:00,12.733409,77.298051,OZONE,28,30,29
India,Karnataka,Shivamogga,"Vinoba Nagara, Shivamogga - KSPCB",12-02-2024 20:00:00,13.940000,75.555917,NO2,9,23,14
India,Karnataka,Shivamogga,"Vinoba Nagara, Shivamogga - KSPCB",12-02-2024 20:00:00,13.940000,75.555917,OZONE,33,74,60
India,Karnataka,Tumakuru,"Thimmalapura, Tumakuru - KSPCB",12-02-2024 20:00:00,13.377516,77.099072,PM10,15,38,23
India,Karnataka,Vijayapura,"Ibrahimpur, Vijayapura - KSPCB",12-02-2024 20:00:00,16.802639,75.722694,PM2.5,26,31,30
India,Karnataka,Vijayapura,"Ibrahimpur, Vijayapura - KSPCB",12-02-2024 20:00:00,16.802639,75.722694,NH3,2,2,2
India,Karnataka,Vijayapura,"Ibrahimpur, Vijayapura - KSPCB",12-02-2024 20:00:00,16.802639,75.722694,OZONE,14,16,15
India,Karnataka,Yadgir,"Collector Office, Yadgir - KSPCB",12-02-2024 20:00:00,16.7602,77.1428,OZONE,18,19,18
India,Kerala,Kannur,"Thavakkara, Kannur - Kerala PCB",12-02-2024 20:00:00,11.875000,75.373200,SO2,5,6,5
India,Kerala,Kochi,"Vyttila, Kochi - Kerala PCB",12-02-2024 20:00:00,9.969447,76.321186,PM2.5,49,235,115
India,Kerala,Kochi,"Vyttila, Kochi - Kerala PCB",12-02-2024 20:00:00,9.969447,76.321186,NO2,1,8,4
India,Kerala,Kollam,"Polayathode, Kollam - Kerala PCB",12-02-2024 20:00:00,8.8787,76.6073,PM10,83,121,98
India,Kerala,Thiruvananthapuram,"Kariavattom, Thiruvananthapuram - Kerala PCB",12-02-2024 20:00:00,8.563700,76.886500,PM2.5,72,85,79
India,Kerala,Thiruvananthapuram,"Kariavattom, Thiruvananthapuram - Kerala PCB",12-02-2024 20:00:00,8.563700,76.886500,SO2,3,13,9
India,Kerala,Thiruvananthapuram,"Plammoodu, Thiruvananthapuram - Kerala PCB",12-02-2024 20:00:00,8.5149093,76.9435879,CO,22,44,36
India,Kerala,Thrissur,"Corporation Ground, Thrissur - Kerala PCB",12-02-2024 20:00:00,10.532400,76.215900,PM10,NA,NA,NA
India,Madhya Pradesh,Bhopal,"Paryavaran Parisar, Bhopal - MPPCB",12-02-2024 20:00:00,23.210494,77.425409,OZONE,24,66,51
India,Madhya Pradesh,Dewas,"Bhopal Chauraha, Dewas - MPPCB",12-02-2024 20:00:00,22.9682591,76.064118,NO2,11,14,12
India,Madhya Pradesh,Dewas,"Bhopal Chauraha, Dewas - MPPCB",12-02-2024 20:00:00,22.9682591,76.064118,NH3,3,3,3
India,Madhya Pradesh,Gwalior,"City Center, Gwalior - MPPCB",12-02-2024 20:00:00,26.203442,78.193251,PM2.5,57,349,246
India,Madhya Pradesh,Gwalior,"Deen Dayal Nagar, Gwalior - MPPCB",12-02-2024 20:00:00,26.259242,78.216432,PM2.5,94,398,292
India,Madhya Pradesh,Gwalior,"Deen Dayal Nagar, Gwalior - MPPCB",12-02-2024 20:00:00,26.259242,78.216432,SO2,16,20,19
India,Madhya Pradesh,Gwalior,"Maharaj Bada, Gwalior - MPPCB",12-02-2024 20:00:00,26.200388,78.147714,NH3,7,18,12
India,Madhya Pradesh,Indore,"Regional Park, Indore - IMC",12-02-2024 20:00:00,22.6780,75.8559,NO2,9,14,11
India,Madhya Pradesh,Indore,"Residency Area, Indore - IMC",12-02-2024 20:00:00,22.7084,75.8815,PM10,45,105,68
India,Madhya Pradesh,Indore,"Residency Area, Indore - IMC",12-02-2024 20:00:00,22.7084,75.8815,NH3,NA,NA,NA
India,Madhya Pradesh,Jabalpur,"Govindh Bhavan Colony, Jabalpur - JMC",12-02-2024 20:00:00,23.163174,79.973061,OZONE,6,118,88
India,Madhya Pradesh,Jabalpur,"Gupteshwar, Jabalpur - JMC",12-02-2024 20:00:00,23.142888,79.916147,NO2,13,71,33
India,Madhya Pradesh,Jabalpur,"Gupteshwar, Jabalpur - JMC",12-02-2024 20:00:00,23.142888,79.916147,NH3,2,3,3
India,Madhya Pradesh,Jabalpur,"Marhatal, Jabalpur - MPPCB",12-02-2024 20:00:00,23.168606,79.932247,NH3,5,6,6
India,Madhya Pradesh,Jabalpur,"Marhatal, Jabalpur - MPPCB",12-02-2024 20:00:00,23.168606,79.932247,CO,38,108,48
India,Madhya Pradesh,Jabalpur,"Suhagi, Jabalpur - JMC",12-02-2024 20:00:00,23.218135,79.957770,PM10,70,132,103
India,Madhya Pradesh,Jabalpur,"Suhagi, Jabalpur - JMC",12-02-2024 20:00:00,23.218135,79.957770,NH3,5,5,5
India,Madhya Pradesh,Jabalpur,"Suhagi, Jabalpur - JMC",12-02-2024 20:00:00,23.218135,79.957770,CO,26,101,54
India,Madhya Pradesh,Jabalpur,"Suhagi, Jabalpur - JMC",12-02-2024 20:00:00,23.218135,79.957770,OZONE,6,98,61
India,Madhya Pradesh,Maihar,"Sahilara, Maihar - KJS Cements",12-02-2024 20:00:00,24.2613009,80.7231783,SO2,13,16,14
India,Madhya Pradesh,Mandideep,"Sector-D Industrial Area, Mandideep - MPPCB",12-02-2024 20:00:00,23.108440,77.511428,PM10,88,157,120
India,Madhya Pradesh,Mandideep,"Sector-D Industrial Area, Mandideep - MPPCB",12-02-2024 20:00:00,23.108440,77.511428,CO,32,117,40
India,Madhya Pradesh,Mandideep,"Sector-D Industrial Area, Mandideep - MPPCB",12-02-2024 20:00:00,23.108440,77.511428,OZONE,34,65,57
India,Madhya Pradesh,Pithampur,"Sector-2 Industrial Area, Pithampur - MPPCB",12-02-2024 20:00:00,22.624758,75.675238,CO,28,58,36
India,Madhya Pradesh,Ratlam,"Shasthri Nagar, Ratlam - IPCA Lab",12-02-2024 20:00:00,23.331731,75.045981,PM10,81,190,125
India,Madhya Pradesh,Sagar,"Civil Lines, Sagar - MPPCB",12-02-2024 20:00:00,23.838586,78.759431,CO,19,42,34
India,Madhya Pradesh,Singrauli,"Suryakiran Bhawan NCL, Singrauli - MPPCB",12-02-2024 20:00:00,24.108970,82.645580,SO2,18,135,59
India,Madhya Pradesh,Singrauli,"Suryakiran Bhawan NCL, Singrauli - MPPCB",12-02-2024 20:00:00,24.108970,82.645580,OZONE,2,51,23
India,Madhya Pradesh,Ujjain,"Mahakaleshwar Temple, Ujjain - MPPCB",12-02-2024 20:00:00,23.182719 ,75.768218 ,SO2,7,23,12
India,Madhya Pradesh,Ujjain,"Mahakaleshwar Temple, Ujjain - MPPCB",12-02-2024 20:00:00,23.182719 ,75.768218 ,CO,28,64,47
India,Maharashtra,Akola,"Ramdaspeth, Akola - MPCB",12-02-2024 20:00:00,20.719516,77.000253,CO,30,114,46
India,Maharashtra,Amravati,"Shivneri Colony, Amravati - MPCB",12-02-2024 20:00:00,20.9402359,77.7895248,OZONE,34,90,82
India,Maharashtra,Aurangabad,"MIDC Chilkalthana, Aurangabad - MPCB",12-02-2024 20:00:00,19.875620,75.387310,OZONE,8,34,25
India,Maharashtra,Badlapur,"Katrap, Badlapur - MPCB",12-02-2024 20:00:00,19.16485,73.23409,NH3,2,4,3
India,Maharashtra,Belapur,"CBD Belapur, Belapur - MPCB",12-02-2024 20:00:00,19.0243902,73.0406721,NH3,17,38,23
India,Maharashtra,Boisar,"Khaira, Boisar - MPCB",12-02-2024 20:00:00,19.786089,72.757971,PM10,NA,NA,NA
India,Maharashtra,Boisar,"Khaira, Boisar - MPCB",12-02-2024 20:00:00,19.786089,72.757971,CO,32,40,37
India,Maharashtra,Chandrapur,"Chauhan Colony, Chandrapur - MPCB",12-02-2024 20:00:00,19.962900,79.298714,NO2,NA,NA,NA
India,Maharashtra,Dhule,"Deopur, Dhule - MPCB",12-02-2024 20:00:00,20.918946,74.776388,OZONE,11,58,53
India,Maharashtra,Jalgaon,"Prabhat Colony, Jalgaon - MPCB",12-02-2024 20:00:00,21.001264,75.565602,PM10,60,185,136
India,Maharashtra,Jalgaon,"Prabhat Colony, Jalgaon - MPCB",12-02-2024 20:00:00,21.001264,75.565602,NH3,NA,NA,NA
India,Maharashtra,Jalgaon,"Prabhat Colony, Jalgaon - MPCB",12-02-2024 20:00:00,21.001264,75.565602,CO,11,24,16
India,Maharashtra,Kalyan,"Khadakpada, Kalyan - MPCB",12-02-2024 20:00:00,19.25292,73.142019,PM2.5,32,107,68
India,Maharashtra,Kalyan,"Khadakpada, Kalyan - MPCB",12-02-2024 20:00:00,19.25292,73.142019,NO2,15,128,46
India,Maharashtra,Kolhapur,"Shivaji University, Kolhapur - MPCB",12-02-2024 20:00:00,16.6870449,74.2505872,OZONE,2,130,97
India,Maharashtra,Mahad,"Kamble Tarf Birwadi, Mahad - MPCB",12-02-2024 20:00:00,18.1023399,73.4783687,PM10,135,144,140
India,Maharashtra,Malegaon,"Mahesh Nagar, Malegaon - MPCB",12-02-2024 20:00:00,20.555712,74.529236,PM2.5,47,285,143
India,Maharashtra,Malegaon,"Mahesh Nagar, Malegaon - MPCB",12-02-2024 20:00:00,20.555712,74.529236,SO2,4,16,9
India,Maharashtra,Mumbai,"Borivali East, Mumbai - IITM",12-02-2024 20:00:00,19.23241,72.86895,NH3,NA,NA,NA
India,Maharashtra,Mumbai,"Borivali East, Mumbai - MPCB",12-02-2024 20:00:00,19.2243333,72.8658113,PM10,40,157,74
India,Maharashtra,Mumbai,"Borivali East, Mumbai - MPCB",12-02-2024 20:00:00,19.2243333,72.8658113,CO,2,104,36
India,Maharashtra,Mumbai,"Byculla, Mumbai - BMC",12-02-2024 20:00:00,18.9767,72.8380,NO2,31,96,60
India,Maharashtra,Mumbai,"Byculla, Mumbai - BMC",12-02-2024 20:00:00,18.9767,72.8380,SO2,1,17,5
India,Maharashtra,Mumbai,"Chakala-Andheri East, Mumbai - IITM",12-02-2024 20:00:00,19.11074,72.86084,PM2.5,77,189,122
India,Maharashtra,Mumbai,"Chakala-Andheri East, Mumbai - IITM",12-02-2024 20:00:00,19.11074,72.86084,PM10,82,162,111
India,Maharashtra,Mumbai,"Chakala-Andheri East, Mumbai - IITM",12-02-2024 20:00:00,19.11074,72.86084,SO2,11,71,34
India,Maharashtra,Mumbai,"Chakala-Andheri East, Mumbai - IITM",12-02-2024 20:00:00,19.11074,72.86084,OZONE,1,124,88
India,Maharashtra,Mumbai,"Chembur, Mumbai - MPCB",12-02-2024 20:00:00,19.0364585,72.8954371,PM2.5,69,184,109
India,Maharashtra,Mumbai,"Chhatrapati Shivaji Intl. Airport (T2), Mumbai - MPCB",12-02-2024 20:00:00,19.10078,72.87462,PM10,74,141,103
India,Maharashtra,Mumbai,"Chhatrapati Shivaji Intl. Airport (T2), Mumbai - MPCB",12-02-2024 20:00:00,19.10078,72.87462,OZONE,1,24,18
India,Maharashtra,Mumbai,"Ghatkopar, Mumbai - BMC",12-02-2024 20:00:00,19.083694,72.920967,OZONE,4,46,46
India,Maharashtra,Mumbai,"Kandivali East, Mumbai - MPCB",12-02-2024 20:00:00,19.205800,72.868200,NO2,25,155,67
India,Maharashtra,Mumbai,"Kandivali East, Mumbai - MPCB",12-02-2024 20:00:00,19.205800,72.868200,NH3,3,16,6
India,Maharashtra,Mumbai,"Kandivali West, Mumbai - BMC",12-02-2024 20:00:00,19.215859,72.831718,CO,20,59,25
India,Maharashtra,Mumbai,"Kherwadi_Bandra East, Mumbai - MPCB",12-02-2024 20:00:00,19.0632143,72.8456324,NH3,1,2,1
India,Maharashtra,Mumbai,"Kurla, Mumbai - MPCB",12-02-2024 20:00:00,19.0863,72.8888,PM2.5,72,208,118
India,Maharashtra,Mumbai,"Malad West, Mumbai - IITM",12-02-2024 20:00:00,19.19709,72.82204,PM2.5,131,243,196
India,Maharashtra,Mumbai,"Mazgaon, Mumbai - IITM",12-02-2024 20:00:00,18.96702,72.84214,PM2.5,89,297,190
India,Maharashtra,Mumbai,"Mazgaon, Mumbai - IITM",12-02-2024 20:00:00,18.96702,72.84214,NO2,80,260,150
India,Maharashtra,Mumbai,"Mazgaon, Mumbai - IITM",12-02-2024 20:00:00,18.96702,72.84214,NH3,34,64,48
India,Maharashtra,Mumbai,"Navy Nagar-Colaba, Mumbai - IITM",12-02-2024 20:00:00,18.897756,72.813320,PM10,85,175,123
India,Maharashtra,Mumbai,"Navy Nagar-Colaba, Mumbai - IITM",12-02-2024 20:00:00,18.897756,72.813320,SO2,2,92,26
India,Maharashtra,Mumbai,"Powai, Mumbai - MPCB",12-02-2024 20:00:00,19.137500,72.915056,SO2,29,32,31
India,Maharashtra,Mumbai,"Powai, Mumbai - MPCB",12-02-2024 20:00:00,19.137500,72.915056,CO,36,46,43
India,Maharashtra,Mumbai,"Shivaji Nagar, Mumbai - BMC",12-02-2024 20:00:00,19.060498,72.923356,SO2,NA,NA,NA
India,Maharashtra,Mumbai,"Sion, Mumbai - MPCB",12-02-2024 20:00:00,19.047000,72.874600,PM10,70,151,105
India,Maharashtra,Mumbai,"Sion, Mumbai - MPCB",12-02-2024 20:00:00,19.047000,72.874600,NO2,28,111,64
India,Maharashtra,Mumbai,"Vasai West, Mumbai - MPCB",12-02-2024 20:00:00,19.383200,72.820400,PM10,75,154,101
India,Maharashtra,Mumbai,"Vile Parle West, Mumbai - MPCB",12-02-2024 20:00:00,19.10861,72.83622,PM2.5,45,111,77
India,Maharashtra,Mumbai,"Vile Parle West, Mumbai - MPCB",12-02-2024 20:00:00,19.10861,72.83622,SO2,13,14,14
India,Maharashtra,Mumbai,"Worli, Mumbai - MPCB",12-02-2024 20:00:00,18.9936162,72.8128113,NO2,16,17,16
India,Maharashtra,Mumbai,"Worli, Mumbai - MPCB",12-02-2024 20:00:00,18.9936162,72.8128113,OZONE,5,11,10
India,Maharashtra,Nagpur,"Mahal, Nagpur - MPCB",12-02-2024 20:00:00,21.14472,79.107595,PM10,65,123,102
India,Maharashtra,Nagpur,"Opp GPO Civil Lines, Nagpur - MPCB",12-02-2024 20:00:00,21.152875,79.0517531,CO,18,127,64
India,Maharashtra,Nashik,"Gangapur Road, Nashik - MPCB",12-02-2024 20:00:00,20.0073285,73.7762427,OZONE,3,76,39
India,Maharashtra,Nashik,"MIDC Ambad, Nashik - MPCB",12-02-2024 20:00:00,19.950220,73.731480,OZONE,7,56,37
India,Maharashtra,Navi Mumbai,"Kopripada-Vashi, Navi Mumbai - MPCB",12-02-2024 20:00:00,19.090337,73.014232,NH3,3,35,15
India,Maharashtra,Navi Mumbai,"Mahape, Navi Mumbai - MPCB",12-02-2024 20:00:00,19.1135051,73.008978,PM2.5,NA,NA,NA
India,Maharashtra,Navi Mumbai,"Nerul, Navi Mumbai - MPCB",12-02-2024 20:00:00,19.008751,73.016620,SO2,17,24,20
India,Maharashtra,Navi Mumbai,"Sanpada, Navi Mumbai - MPCB",12-02-2024 20:00:00,19.0575752,73.0151367,NH3,14,15,15
India,Maharashtra,Navi Mumbai,"Sector-2E Kalamboli, Navi Mumbai - MPCB",12-02-2024 20:00:00,19.02579,73.10297,PM2.5,91,161,127
India,Maharashtra,Navi Mumbai,"Tondare-Taloja, Navi Mumbai - MPCB",12-02-2024 20:00:00,19.0630,73.1209,NH3,5,12,8
India,Maharashtra,Parbhani,"Masoom Colony, Parbhani - MPCB",12-02-2024 20:00:00,19.265594,76.761463,PM2.5,59,229,103
India,Maharashtra,Pimpri-Chinchwad,"Gavalinagar, Pimpri Chinchwad - MPCB",12-02-2024 20:00:00,18.63673,73.82487,PM2.5,55,330,184
India,Maharashtra,Pimpri-Chinchwad,"Gavalinagar, Pimpri Chinchwad - MPCB",12-02-2024 20:00:00,18.63673,73.82487,NO2,16,137,73
India,Maharashtra,Pimpri-Chinchwad,"Gavalinagar, Pimpri Chinchwad - MPCB",12-02-2024 20:00:00,18.63673,73.82487,OZONE,8,213,145
India,Maharashtra,Pimpri-Chinchwad,"Park Street Wakad, Pimpri Chinchwad - MPCB",12-02-2024 20:00:00,18.59051,73.77946,OZONE,1,116,95
India,Maharashtra,Pimpri-Chinchwad,"Thergaon, Pimpri Chinchwad - MPCB",12-02-2024 20:00:00,18.616318,73.765797,OZONE,3,161,52
India,Maharashtra,Pune,"Bhosari, Pune - IITM",12-02-2024 20:00:00,18.640051,73.848956,PM10,66,174,132
India,Maharashtra,Pune,"Bhosari, Pune - IITM",12-02-2024 20:00:00,18.640051,73.848956,OZONE,3,12,9
India,Maharashtra,Pune,"Karve Road, Pune - MPCB",12-02-2024 20:00:00,18.5011743,73.8165527,PM2.5,3,327,95
India,Maharashtra,Pune,"Mhada Colony, Pune - IITM",12-02-2024 20:00:00,18.573040,73.927715,NO2,1,20,12
India,Maharashtra,Pune,"Mhada Colony, Pune - IITM",12-02-2024 20:00:00,18.573040,73.927715,CO,52,96,71
India,Maharashtra,Pune,"Revenue Colony-Shivajinagar, Pune - IITM",12-02-2024 20:00:00,18.530085,73.849598,SO2,72,121,99
India,Maharashtra,Pune,"Savitribai Phule Pune University, Pune - MPCB",12-02-2024 20:00:00,18.547056,73.826908,PM2.5,NA,NA,NA
India,Maharashtra,Pune,"Savitribai Phule Pune University, Pune - MPCB",12-02-2024 20:00:00,18.547056,73.826908,PM10,NA,NA,NA
India,Maharashtra,Pune,"Transport Nagar-Nigdi, Pune - IITM",12-02-2024 20:00:00,18.664282,73.763966,PM10,58,259,148
India,Maharashtra,Sangli,"Vijay Nagar, Sangli - MPCB",12-02-2024 20:00:00, 16.5038,74.3623,CO,22,87,39
India,Maharashtra,Solapur,"Dnyaneshwar Nagar, Solapur - MPCB",12-02-2024 20:00:00,17.6336264,75.9132495,NH3,16,33,21
India,Maharashtra,Solapur,"Ratandeep Housing Society, Solapur - MPCB",12-02-2024 20:00:00,17.65439,75.90649,PM2.5,16,109,80
India,Maharashtra,Solapur,"Ratandeep Housing Society, Solapur - MPCB",12-02-2024 20:00:00,17.65439,75.90649,OZONE,16,139,62
India,Maharashtra,Solapur,"Solapur, Solapur - MPCB",12-02-2024 20:00:00,17.6599188,75.9063906,PM10,100,153,122
India,Maharashtra,Solapur,"Solapur, Solapur - MPCB",12-02-2024 20:00:00,17.6599188,75.9063906,SO2,32,41,35
India,Maharashtra,Thane,"Kasarvadavali, Thane - MPCB",12-02-2024 20:00:00,19.26777,72.97182,PM2.5,NA,NA,NA
India,Maharashtra,Thane,"Kasarvadavali, Thane - MPCB",12-02-2024 20:00:00,19.26777,72.97182,SO2,2,40,11
India,Maharashtra,Thane,"Pimpleshwar Mandir, Thane - MPCB",12-02-2024 20:00:00,19.192056,72.9585188,OZONE,2,52,40
India,Maharashtra,Thane,"Upvan Fort, Thane - MPCB",12-02-2024 20:00:00,19.222279,72.957979,PM2.5,58,290,115
India,Maharashtra,Ulhasnagar,"Sidhi Vinayak Nagar, Ulhasnagar - MPCB",12-02-2024 20:00:00,19.235581,73.159121,OZONE,10,65,47
India,Maharashtra,Virar,"Bolinj, Virar - MPCB",12-02-2024 20:00:00,19.4458210,72.7988231,SO2,11,42,22
India,Manipur,Imphal,"Manipur University, Imphal - Manipur PCB",12-02-2024 20:00:00,24.7524239,93.9286218,SO2,66,70,68
India,Nagaland,Kohima,"PWD Juction, Kohima - NPCB",12-02-2024 20:00:00,25.6635413,94.0989878,OZONE,3,42,11
India,Odisha,Angul,"Hakimapada, Angul - OSPCB",12-02-2024 20:00:00,20.832874,85.104082,NO2,11,42,22
India,Odisha,Angul,"Hakimapada, Angul - OSPCB",12-02-2024 20:00:00,20.832874,85.104082,CO,1,102,34
India,Odisha,Balasore,"Kalidaspur, Balasore - OSPCB",12-02-2024 20:00:00,21.51161,86.89088,PM2.5,133,313,214
India,Odisha,Balasore,"Kalidaspur, Balasore - OSPCB",12-02-2024 20:00:00,21.51161,86.89088,PM10,121,180,144
India,Odisha,Balasore,"Kalidaspur, Balasore - OSPCB",12-02-2024 20:00:00,21.51161,86.89088,OZONE,25,139,126
India,Odisha,Barbil,"Forest Office, Barbil - OSPCB",12-02-2024 20:00:00,22.1166054,85.3945546,PM2.5,48,263,100
India,Odisha,Barbil,"Forest Office, Barbil - OSPCB",12-02-2024 20:00:00,22.1166054,85.3945546,PM10,61,279,112
India,Odisha,Barbil,"Forest Office, Barbil - OSPCB",12-02-2024 20:00:00,22.1166054,85.3945546,NH3,4,5,4
India,Odisha,Baripada,"Meher Colony, Baripada - OSPCB",12-02-2024 20:00:00,21.941841,86.728318,OZONE,67,168,120
India,Odisha,Brajrajnagar,"GM Office, Brajrajnagar - OSPCB",12-02-2024 20:00:00,21.8004996,83.8396977,SO2,12,16,13
India,Odisha,Byasanagar,"Ferro Chrome Colony, Byasanagar - OSPCB",12-02-2024 20:00:00,20.94185,86.11510,SO2,4,42,14
India,Odisha,Byasanagar,"Ferro Chrome Colony, Byasanagar - OSPCB",12-02-2024 20:00:00,20.94185,86.11510,OZONE,32,190,151
India,Odisha,Cuttack,"CDA Area, Cuttack - OSPCB",12-02-2024 20:00:00,20.48891     ,85.84768     ,PM2.5,95,283,206
India,Odisha,Cuttack,"CDA Area, Cuttack - OSPCB",12-02-2024 20:00:00,20.48891     ,85.84768     ,NH3,3,5,4
India,Odisha,Keonjhar,"Jagamohanpur, Keonjhar - OSPCB",12-02-2024 20:00:00,21.643900,85.599355,PM2.5,62,184,124
India,Odisha,Keonjhar,"Jagamohanpur, Keonjhar - OSPCB",12-02-2024 20:00:00,21.643900,85.599355,PM10,61,135,99
India,Odisha,Nayagarh,"Dabuna, Nayagarh - OSPCB",12-02-2024 20:00:00,21.847279,85.416905,PM10,72,286,117
India,Odisha,Rairangpur,"Divisional Forest Office, Rairangpur - OSPCB",12-02-2024 20:00:00,22.265816,86.174829,NO2,NA,NA,NA
India,Odisha,Rourkela,"Fertilizer Township, Rourkela - OSPCB",12-02-2024 20:00:00,22.18972222,84.86277778,NO2,NA,NA,NA
India,Odisha,Rourkela,"Fertilizer Township, Rourkela - OSPCB",12-02-2024 20:00:00,22.18972222,84.86277778,SO2,11,15,13
India,Odisha,Rourkela,"Raghunathpali, Rourkela - OSPCB",12-02-2024 20:00:00,22.220833,84.809444,PM10,102,188,129
India,Odisha,Rourkela,"Sector-2, Rourkela - OSPCB",12-02-2024 20:00:00,22.24500000,84.88111111,PM10,101,154,126
India,Odisha,Suakati,"OMC Colony, Suakati - OSPCB",12-02-2024 20:00:00,21.606865,85.510538,PM2.5,12,173,120
India,Odisha,Suakati,"OMC Colony, Suakati - OSPCB",12-02-2024 20:00:00,21.606865,85.510538,PM10,20,135,111
India,Odisha,Suakati,"OMC Colony, Suakati - OSPCB",12-02-2024 20:00:00,21.606865,85.510538,SO2,NA,NA,NA
India,Punjab,Bathinda,"Hardev Nagar, Bathinda - PPCB",12-02-2024 20:00:00,30.233011,74.907758,PM2.5,58,268,149
India,Punjab,Bathinda,"Hardev Nagar, Bathinda - PPCB",12-02-2024 20:00:00,30.233011,74.907758,PM10,NA,NA,NA
India,Punjab,Bathinda,"Hardev Nagar, Bathinda - PPCB",12-02-2024 20:00:00,30.233011,74.907758,NO2,31,33,32
India,Punjab,Bathinda,"Hardev Nagar, Bathinda - PPCB",12-02-2024 20:00:00,30.233011,74.907758,CO,2,101,36
India,Punjab,Jalandhar,"Civil Line, Jalandhar - PPCB",12-02-2024 20:00:00,31.321907,75.578914,OZONE,7,85,70
India,Punjab,Khanna,"Kalal Majra, Khanna - PPCB",12-02-2024 20:00:00,30.736056 ,76.209694,CO,16,34,26
India,Punjab,Khanna,"Kalal Majra, Khanna - PPCB",12-02-2024 20:00:00,30.736056 ,76.209694,OZONE,14,50,30
India,Punjab,Ludhiana,"Punjab Agricultural University, Ludhiana - PPCB",12-02-2024 20:00:00,30.9028,75.8086,PM10,95,151,126
India,Punjab,Ludhiana,"Punjab Agricultural University, Ludhiana - PPCB",12-02-2024 20:00:00,30.9028,75.8086,CO,10,105,59
India,Punjab,Patiala,"Model Town, Patiala - PPCB",12-02-2024 20:00:00,30.349388,76.366642,PM2.5,81,167,103
India,Punjab,Rupnagar,"Ratanpura, Rupnagar - Ambuja Cements",12-02-2024 20:00:00,31.0325454,76.5623046,CO,22,59,35
India,Rajasthan,Ajmer,"Civil Lines,  Ajmer - RSPCB",12-02-2024 20:00:00,26.470859,74.646594,NO2,20,59,31
India,Rajasthan,Alwar,"Moti Doongri, Alwar - RSPCB",12-02-2024 20:00:00,27.554793,76.611536,PM2.5,70,199,116
India,Rajasthan,Alwar,"Moti Doongri, Alwar - RSPCB",12-02-2024 20:00:00,27.554793,76.611536,NH3,5,10,8
India,Rajasthan,Baran,"Bamboliya, Baran - RSPCB",12-02-2024 20:00:00,25.106006,76.469948,NO2,4,80,20
India,Rajasthan,Baran,"Bamboliya, Baran - RSPCB",12-02-2024 20:00:00,25.106006,76.469948,CO,26,62,30
India,Rajasthan,Barmer,"Railway Colony, Barmer - RSPCB",12-02-2024 20:00:00,25.747299,71.393989,NO2,12,37,22
India,Rajasthan,Barmer,"Railway Colony, Barmer - RSPCB",12-02-2024 20:00:00,25.747299,71.393989,SO2,9,14,11
India,Rajasthan,Bharatpur,"Krishna Nagar, Bharatpur - RSPCB",12-02-2024 20:00:00,27.215415,77.50873,CO,8,104,54
India,Rajasthan,Bundi,"New Colony, Bundi - RSPCB",12-02-2024 20:00:00,25.435774,75.644272,PM2.5,NA,NA,NA
India,Rajasthan,Chittorgarh,"Shastri Nagar, Chittorgarh - RSPCB",12-02-2024 20:00:00,24.892047,74.623527,NH3,7,12,9
India,Rajasthan,Chittorgarh,"Shastri Nagar, Chittorgarh - RSPCB",12-02-2024 20:00:00,24.892047,74.623527,CO,16,85,29
India,Rajasthan,Dausa,"Khatikan Mohalla, Dausa - RSPCB",12-02-2024 20:00:00,26.895552,76.334753,CO,12,117,75
India,Rajasthan,Dungarpur,"Bhoiwada, Dungarpur - RSPCB",12-02-2024 20:00:00,23.837789,73.714926,NH3,NA,NA,NA
India,Rajasthan,Dungarpur,"Bhoiwada, Dungarpur - RSPCB",12-02-2024 20:00:00,23.837789,73.714926,SO2,NA,NA,NA
India,Rajasthan,Hanumangarh,"Housing Board, Hanumangarh - RSPCB",12-02-2024 20:00:00,29.610750,74.283608,NO2,31,104,63
India,Rajasthan,Jaipur,"Adarsh Nagar, Jaipur - RSPCB",12-02-2024 20:00:00,26.902909,75.836858,NO2,92,152,116
India,Rajasthan,Jaipur,"Police Commissionerate, Jaipur - RSPCB",12-02-2024 20:00:00,26.9164092,75.7994901,PM10,NA,NA,NA
India,Rajasthan,Jaipur,"Police Commissionerate, Jaipur - RSPCB",12-02-2024 20:00:00,26.9164092,75.7994901,OZONE,NA,NA,NA
India,Rajasthan,Jaipur,"RIICO Sitapura, Jaipur - RSPCB",12-02-2024 20:00:00,26.786682,75.827928,PM10,102,271,165
India,Rajasthan,Jaipur,"RIICO Sitapura, Jaipur - RSPCB",12-02-2024 20:00:00,26.786682,75.827928,CO,2,123,23
India,Rajasthan,Jaisalmer,"Sadar Bazar, Jaisalmer - RSPCB",12-02-2024 20:00:00,26.912329,70.909168,NH3,6,17,8
India,Rajasthan,Jaisalmer,"Sadar Bazar, Jaisalmer - RSPCB",12-02-2024 20:00:00,26.912329,70.909168,OZONE,28,118,104
India,Rajasthan,Jhalawar,"Rajlaxmi Nagar, Jhalawar - RSPCB",12-02-2024 20:00:00,24.588397,76.172782,PM10,80,282,117
India,Rajasthan,Jhalawar,"Rajlaxmi Nagar, Jhalawar - RSPCB",12-02-2024 20:00:00,24.588397,76.172782,CO,24,52,28
India,Rajasthan,Jhunjhunu,"Indra Nagar, Jhunjhunu - RSPCB",12-02-2024 20:00:00,28.108988,75.386577,PM10,109,400,166
India,Rajasthan,Jhunjhunu,"Indra Nagar, Jhunjhunu - RSPCB",12-02-2024 20:00:00,28.108988,75.386577,CO,20,78,25
India,Rajasthan,Jodhpur,"Collectorate, Jodhpur - RSPCB",12-02-2024 20:00:00,26.268249,73.0193853,PM2.5,40,307,139
India,Rajasthan,Jodhpur,"Collectorate, Jodhpur - RSPCB",12-02-2024 20:00:00,26.268249,73.0193853,NO2,7,71,43
India,Rajasthan,Jodhpur,"Jhalamand, Jodhpur - RSPCB",12-02-2024 20:00:00,26.215415,73.070156,CO,13,49,15
India,Rajasthan,Jodhpur,"Samrat Ashok Udhyan, Jodhpur - RSPCB",12-02-2024 20:00:00,26.253384,72.976571,PM2.5,39,142,78
India,Rajasthan,Jodhpur,"Samrat Ashok Udhyan, Jodhpur - RSPCB",12-02-2024 20:00:00,26.253384,72.976571,NO2,14,122,41
India,Rajasthan,Jodhpur,"Samrat Ashok Udhyan, Jodhpur - RSPCB",12-02-2024 20:00:00,26.253384,72.976571,NH3,4,21,6
India,Rajasthan,Karauli,"Satyawati Vihar, Karauli - RSPCB",12-02-2024 20:00:00,26.506177,77.025989,NO2,18,52,30
India,Rajasthan,Kota,"Dhanmandi, Kota - RSPCB",12-02-2024 20:00:00,25.164090,75.858137,PM2.5,127,309,216
India,Rajasthan,Kota,"Dhanmandi, Kota - RSPCB",12-02-2024 20:00:00,25.164090,75.858137,OZONE,5,99,84
India,Rajasthan,Kota,"Nayapura, Kota - RSPCB",12-02-2024 20:00:00,25.196024,75.855668,PM10,101,204,130
India,Rajasthan,Kota,"Nayapura, Kota - RSPCB",12-02-2024 20:00:00,25.196024,75.855668,NO2,21,122,51
India,Rajasthan,Kota,"Shrinath Puram, Kota - RSPCB",12-02-2024 20:00:00,25.14389,75.821256,CO,14,38,26
India,Rajasthan,Nagaur,"Karni Colony, Nagaur - RSPCB",12-02-2024 20:00:00,27.213494,73.734444,NO2,NA,NA,NA
India,Rajasthan,Nagaur,"Karni Colony, Nagaur - RSPCB",12-02-2024 20:00:00,27.213494,73.734444,SO2,NA,NA,NA
India,Rajasthan,Nagaur,"Karni Colony, Nagaur - RSPCB",12-02-2024 20:00:00,27.213494,73.734444,OZONE,53,78,71
India,Rajasthan,Pali,"Indira Colony Vistar, Pali - RSPCB",12-02-2024 20:00:00,25.771061, 73.340227,NO2,19,70,41
India,Rajasthan,Pali,"Indira Colony Vistar, Pali - RSPCB",12-02-2024 20:00:00,25.771061, 73.340227,OZONE,20,79,70
India,Rajasthan,Pratapgarh,"Pragati Nagar, Pratapgarh - RSPCB",12-02-2024 20:00:00,24.041198,74.780702,SO2,3,13,7
India,Rajasthan,Pratapgarh,"Pragati Nagar, Pratapgarh - RSPCB",12-02-2024 20:00:00,24.041198,74.780702,OZONE,52,125,107
India,Rajasthan,Rajsamand,"Dhoinda, Rajsamand - RSPCB",12-02-2024 20:00:00,25.036360,73.883502,NO2,11,44,23
India,Rajasthan,Rajsamand,"Dhoinda, Rajsamand - RSPCB",12-02-2024 20:00:00,25.036360,73.883502,OZONE,6,72,60
India,Rajasthan,Sawai Madhopur,"Sahu Nagar, Sawai Madhopur - RSPCB",12-02-2024 20:00:00,26.031443,76.359327,OZONE,3,127,104
India,Rajasthan,Sikar,"Radhakishan Pura, Sikar - RSPCB",12-02-2024 20:00:00,27.608912,75.153302,OZONE,14,156,139
India,Rajasthan,Sirohi,"Vedhaynath Colony, Sirohi - RSPCB",12-02-2024 20:00:00,24.885261,72.857549,NH3,4,10,5
India,Rajasthan,Tonk,"Shastri Nagar, Tonk - RSPCB",12-02-2024 20:00:00,26.159933,75.780517,NH3,1,22,8
India,Rajasthan,Tonk,"Shastri Nagar, Tonk - RSPCB",12-02-2024 20:00:00,26.159933,75.780517,OZONE,10,112,100
India,Rajasthan,Udaipur,"Ashok Nagar, Udaipur - RSPCB",12-02-2024 20:00:00,24.5886166,73.6321397,CO,25,110,64
India,Sikkim,Gangtok,"Zero Point GICI, Gangtok - SSPCB",12-02-2024 20:00:00,27.338530,88.614099,PM10,6,44,24
India,TamilNadu,Ariyalur,"Keelapalur, Ariyalur - TNPCB",12-02-2024 20:00:00,11.06825,79.07033,NO2,9,40,16
India,TamilNadu,Chengalpattu,"Crescent University, Chengalpattu - TNPCB",12-02-2024 20:00:00,12.8777316,80.0834807,PM10,6,102,52
India,TamilNadu,Chennai,"Alandur Bus Depot, Chennai - CPCB",12-02-2024 20:00:00,12.9099161,80.1076538,PM2.5,NA,NA,NA
India,TamilNadu,Chennai,"Kodungaiyur, Chennai - TNPCB",12-02-2024 20:00:00,13.1278,80.2642,NO2,NA,NA,NA
India,TamilNadu,Chennai,"Kodungaiyur, Chennai - TNPCB",12-02-2024 20:00:00,13.1278,80.2642,NH3,NA,NA,NA
India,TamilNadu,Chennai,"Perungudi, Chennai - TNPCB",12-02-2024 20:00:00,12.9533,80.2357,NH3,1,3,2
India,TamilNadu,Chennai,"Royapuram, Chennai - TNPCB",12-02-2024 20:00:00,13.1036,80.2909,NO2,10,23,16
India,TamilNadu,Cuddalore,"Kudikadu, Cuddalore - TNPCB",12-02-2024 20:00:00,11.6829898,79.7532099,NO2,14,19,16
India,TamilNadu,Cuddalore,"Kudikadu, Cuddalore - TNPCB",12-02-2024 20:00:00,11.6829898,79.7532099,NH3,4,5,5
India,TamilNadu,Cuddalore,"Semmandalam, Cuddalore - TNPCB",12-02-2024 20:00:00,11.7637683,79.7499835,NH3,1,3,2
India,TamilNadu,Palkalaiperur,"Bharathidasan University, Palkalaiperur - TNPCB",12-02-2024 20:00:00,10.681158,78.741746,SO2,27,28,27
India,TamilNadu,Ramanathapuram,"Chalai Bazaar, Ramanathapuram - TNPCB",12-02-2024 20:00:00,9.36399,78.831977,PM2.5,27,68,48
India,TamilNadu,Ramanathapuram,"Chalai Bazaar, Ramanathapuram - TNPCB",12-02-2024 20:00:00,9.36399,78.831977,PM10,47,83,63
India,TamilNadu,Ramanathapuram,"Chalai Bazaar, Ramanathapuram - TNPCB",12-02-2024 20:00:00,9.36399,78.831977,OZONE,13,14,13
India,TamilNadu,Salem,"Sona College of Technology, Salem - TNPCB",12-02-2024 20:00:00,11.679111,78.125052,PM10,NA,NA,NA
India,TamilNadu,Thoothukudi,"Meelavittan, Thoothukudi - TNPCB",12-02-2024 20:00:00,8.816428 ,78.099039,PM10,42,90,60
India,TamilNadu,Thoothukudi,"Meelavittan, Thoothukudi - TNPCB",12-02-2024 20:00:00,8.816428 ,78.099039,OZONE,5,12,7
India,TamilNadu,Tirupur,"Kumaran College, Tirupur - TNPCB",12-02-2024 20:00:00,11.0973603,77.3228673,PM10,70,149,105
India,TamilNadu,Tirupur,"Kumaran College, Tirupur - TNPCB",12-02-2024 20:00:00,11.0973603,77.3228673,NO2,8,58,21
India,TamilNadu,Virudhunagar,"Collectorate Office, Virudhunagar - TNPCB",12-02-2024 20:00:00,9.559382,77.948828,OZONE,3,3,3
India,Telangana,Hyderabad,"Bollaram Industrial Area, Hyderabad - TSPCB",12-02-2024 20:00:00,17.540891,78.358528,PM2.5,40,82,63
India,Telangana,Hyderabad,"Bollaram Industrial Area, Hyderabad - TSPCB",12-02-2024 20:00:00,17.540891,78.358528,NH3,2,3,3
India,Telangana,Hyderabad,"Central University, Hyderabad - TSPCB",12-02-2024 20:00:00,17.460103,78.334361,CO,23,66,35
India,Telangana,Hyderabad,"ICRISAT Patancheru, Hyderabad - TSPCB",12-02-2024 20:00:00,17.518400,78.278777,NO2,15,17,16
India,Telangana,Hyderabad,"Kokapet, Hyderabad - TSPCB",12-02-2024 20:00:00,17.393559,78.339194,PM2.5,NA,NA,NA
India,Telangana,Hyderabad,"Sanathnagar, Hyderabad - TSPCB",12-02-2024 20:00:00,17.4559458,78.4332152,NO2,NA,NA,NA
India,Telangana,Hyderabad,"Somajiguda, Hyderabad - TSPCB",12-02-2024 20:00:00,17.417094,78.457437,NH3,NA,NA,NA
India,Telangana,Hyderabad,"Zoo Park, Hyderabad - TSPCB",12-02-2024 20:00:00,17.349694,78.451437,SO2,1,6,3
India,Telangana,Hyderabad,"Zoo Park, Hyderabad - TSPCB",12-02-2024 20:00:00,17.349694,78.451437,CO,32,61,50
India,Uttar_Pradesh,Agra,"Sanjay Palace, Agra - UPPCB",12-02-2024 20:00:00,27.19865833,78.00598056,PM10,40,98,65
India,Uttar_Pradesh,Agra,"Sector-3B Avas Vikas Colony, Agra - UPPCB",12-02-2024 20:00:00,27.19412,77.96237,PM2.5,38,131,74
India,Uttar_Pradesh,Agra,"Sector-3B Avas Vikas Colony, Agra - UPPCB",12-02-2024 20:00:00,27.19412,77.96237,PM10,58,165,108
India,Uttar_Pradesh,Agra,"Sector-3B Avas Vikas Colony, Agra - UPPCB",12-02-2024 20:00:00,27.19412,77.96237,CO,8,66,11
India,Uttar_Pradesh,Agra,"Shahjahan Garden, Agra - UPPCB",12-02-2024 20:00:00,27.169338,78.03582,NH3,11,14,12
India,Uttar_Pradesh,Agra,"Shahjahan Garden, Agra - UPPCB",12-02-2024 20:00:00,27.169338,78.03582,OZONE,NA,NA,NA
India,Uttar_Pradesh,Agra,"Shastripuram, Agra - UPPCB",12-02-2024 20:00:00,27.19862,77.92066,SO2,18,24,20
India,Uttar_Pradesh,Baghpat,"Sardar Patel Inter College, Baghpat - UPPCB",12-02-2024 20:00:00,28.964949,77.278761,SO2,16,55,27
India,Uttar_Pradesh,Baghpat,"Sardar Patel Inter College, Baghpat - UPPCB",12-02-2024 20:00:00,28.964949,77.278761,CO,26,64,41
India,Uttar_Pradesh,Firozabad,"Nagla Bhau, Firozabad - UPPCB",12-02-2024 20:00:00,27.168897,78.376960,PM2.5,31,149,82
India,Uttar_Pradesh,Firozabad,"Nagla Bhau, Firozabad - UPPCB",12-02-2024 20:00:00,27.168897,78.376960,SO2,22,27,25
India,Uttar_Pradesh,Firozabad,"Vibhab Nagar, Firozabad - UPPCB",12-02-2024 20:00:00,27.1594,78.3953,PM2.5,48,170,104
India,Uttar_Pradesh,Firozabad,"Vibhab Nagar, Firozabad - UPPCB",12-02-2024 20:00:00,27.1594,78.3953,CO,28,57,32
India,Uttar_Pradesh,Ghaziabad,"Indirapuram, Ghaziabad - UPPCB",12-02-2024 20:00:00,28.646233,77.358075,PM2.5,NA,NA,NA
India,Uttar_Pradesh,Ghaziabad,"Indirapuram, Ghaziabad - UPPCB",12-02-2024 20:00:00,28.646233,77.358075,PM10,NA,NA,NA
India,Uttar_Pradesh,Ghaziabad,"Indirapuram, Ghaziabad - UPPCB",12-02-2024 20:00:00,28.646233,77.358075,CO,7,24,16
India,Uttar_Pradesh,Ghaziabad,"Loni, Ghaziabad - UPPCB",12-02-2024 20:00:00,28.757294,77.278792,PM2.5,138,354,266
India,Uttar_Pradesh,Ghaziabad,"Loni, Ghaziabad - UPPCB",12-02-2024 20:00:00,28.757294,77.278792,NO2,14,70,43
India,Uttar_Pradesh,Ghaziabad,"Loni, Ghaziabad - UPPCB",12-02-2024 20:00:00,28.757294,77.278792,SO2,10,27,15
India,Uttar_Pradesh,Ghaziabad,"Vasundhara, Ghaziabad - UPPCB",12-02-2024 20:00:00,28.6603346,77.3572563,SO2,3,80,28
India,Uttar_Pradesh,Gorakhpur,"Madan Mohan Malaviya University of Technology, Gorakhpur - UPPCB",12-02-2024 20:00:00,26.730136,83.433859,PM2.5,43,304,123
India,Uttar_Pradesh,Gorakhpur,"Madan Mohan Malaviya University of Technology, Gorakhpur - UPPCB",12-02-2024 20:00:00,26.730136,83.433859,PM10,57,169,101
India,Uttar_Pradesh,Greater Noida,"Knowledge Park - III, Greater Noida - UPPCB",12-02-2024 20:00:00,28.47272,77.482000,NO2,1,73,32
India,Uttar_Pradesh,Greater Noida,"Knowledge Park - III, Greater Noida - UPPCB",12-02-2024 20:00:00,28.47272,77.482000,SO2,14,31,20
India,Uttar_Pradesh,Greater Noida,"Knowledge Park - V, Greater Noida - UPPCB",12-02-2024 20:00:00,28.557054,77.453663,PM2.5,202,394,324
India,Uttar_Pradesh,Hapur,"Anand Vihar, Hapur - UPPCB",12-02-2024 20:00:00,28.725645,77.749675,CO,12,82,33
India,Uttar_Pradesh,Kanpur,"FTI Kidwai Nagar, Kanpur - UPPCB",12-02-2024 20:00:00,26.428282,80.327067,NH3,2,4,3
India,Uttar_Pradesh,Khurja,"Kalindi Kunj, Khurja - UPPCB",12-02-2024 20:00:00,28.2348927,77.8683002,NH3,1,3,2
India,Uttar_Pradesh,Khurja,"Kalindi Kunj, Khurja - UPPCB",12-02-2024 20:00:00,28.2348927,77.8683002,CO,3,58,12
India,Uttar_Pradesh,Lucknow,"Gomti Nagar, Lucknow - UPPCB",12-02-2024 20:00:00,26.868120,81.005119,PM10,31,138,84
India,Uttar_Pradesh,Lucknow,"Kukrail Picnic Spot-1, Lucknow - UPPCB",12-02-2024 20:00:00,26.90723,80.98579,PM2.5,53,223,126
India,Uttar_Pradesh,Lucknow,"Talkatora District Industries Center, Lucknow - CPCB",12-02-2024 20:00:00,26.83399722,80.8917361,SO2,1,26,10
India,Uttar_Pradesh,Meerut,"Ganga Nagar, Meerut - UPPCB",12-02-2024 20:00:00,28.999264,77.7590354,PM2.5,82,307,185
India,Uttar_Pradesh,Meerut,"Ganga Nagar, Meerut - UPPCB",12-02-2024 20:00:00,28.999264,77.7590354,NO2,33,110,67
India,Uttar_Pradesh,Meerut,"Jai Bhim Nagar, Meerut - UPPCB",12-02-2024 20:00:00,28.9535882,77.7622941,PM2.5,101,328,202
India,Uttar_Pradesh,Meerut,"Jai Bhim Nagar, Meerut - UPPCB",12-02-2024 20:00:00,28.9535882,77.7622941,NH3,8,12,10
India,Uttar_Pradesh,Meerut,"Jai Bhim Nagar, Meerut - UPPCB",12-02-2024 20:00:00,28.9535882,77.7622941,SO2,18,38,24
India,Uttar_Pradesh,Meerut,"Pallavpuram Phase 2, Meerut - UPPCB",12-02-2024 20:00:00,29.063510,77.709723,SO2,7,34,16
India,Uttar_Pradesh,Meerut,"Pallavpuram Phase 2, Meerut - UPPCB",12-02-2024 20:00:00,29.063510,77.709723,CO,57,94,73
India,Uttar_Pradesh,Moradabad,"Buddhi Vihar, Moradabad - UPPCB",12-02-2024 20:00:00,28.83526,78.74460,NO2,NA,NA,NA
India,Uttar_Pradesh,Moradabad,"Eco Herbal Park, Moradabad - UPPCB",12-02-2024 20:00:00,28.840739,78.697531,NH3,6,35,9
India,Uttar_Pradesh,Moradabad,"Employment Office, Moradabad - UPPCB",12-02-2024 20:00:00,28.88528,78.73880,PM2.5,55,206,113
India,Uttar_Pradesh,Moradabad,"Employment Office, Moradabad - UPPCB",12-02-2024 20:00:00,28.88528,78.73880,PM10,103,227,147
India,Uttar_Pradesh,Moradabad,"Employment Office, Moradabad - UPPCB",12-02-2024 20:00:00,28.88528,78.73880,NO2,20,21,20
India,Uttar_Pradesh,Moradabad,"Employment Office, Moradabad - UPPCB",12-02-2024 20:00:00,28.88528,78.73880,SO2,24,30,25
India,Uttar_Pradesh,Moradabad,"Jigar Colony, Moradabad - UPPCB",12-02-2024 20:00:00,28.856664,78.772638,PM2.5,45,164,81
India,Uttar_Pradesh,Moradabad,"Jigar Colony, Moradabad - UPPCB",12-02-2024 20:00:00,28.856664,78.772638,NO2,23,28,26
India,Uttar_Pradesh,Moradabad,"Kashiram Nagar, Moradabad - UPPCB",12-02-2024 20:00:00,28.849399,78.742362,PM2.5,47,309,129
India,Uttar_Pradesh,Muzaffarnagar,"New Mandi, Muzaffarnagar - UPPCB",12-02-2024 20:00:00,29.4723508,77.7194031,NH3,4,6,5
India,Uttar_Pradesh,Muzaffarnagar,"New Mandi, Muzaffarnagar - UPPCB",12-02-2024 20:00:00,29.4723508,77.7194031,SO2,21,52,34
India,Uttar_Pradesh,Noida,"Sector - 125, Noida - UPPCB",12-02-2024 20:00:00,28.5447608,77.3231257,PM2.5,113,361,263
India,Uttar_Pradesh,Noida,"Sector - 62, Noida - IMD",12-02-2024 20:00:00,28.6245479,77.3577104,PM10,142,401,249
India,Uttar_Pradesh,Noida,"Sector-1, Noida - UPPCB",12-02-2024 20:00:00,28.5898,77.3101,SO2,7,28,16
India,Uttar_Pradesh,Noida,"Sector-116, Noida - UPPCB",12-02-2024 20:00:00,28.569230,77.393848,PM2.5,192,358,314
India,Uttar_Pradesh,Prayagraj,"Jhunsi, Prayagraj - UPPCB",12-02-2024 20:00:00,25.425602,81.917152,NH3,5,5,5
India,Uttar_Pradesh,Prayagraj,"Jhunsi, Prayagraj - UPPCB",12-02-2024 20:00:00,25.425602,81.917152,SO2,30,32,31
India,Uttar_Pradesh,Prayagraj,"Motilal Nehru NIT, Prayagraj - UPPCB",12-02-2024 20:00:00,25.494,81.863,PM2.5,50,155,85
India,Uttar_Pradesh,Prayagraj,"Motilal Nehru NIT, Prayagraj - UPPCB",12-02-2024 20:00:00,25.494,81.863,NO2,11,25,13
India,Uttar_Pradesh,Prayagraj,"Motilal Nehru NIT, Prayagraj - UPPCB",12-02-2024 20:00:00,25.494,81.863,SO2,20,25,22
India,Uttar_Pradesh,Prayagraj,"Nagar Nigam, Prayagraj - UPPCB",12-02-2024 20:00:00,25.44919916 ,81.82735986 ,NO2,7,7,7
India,Uttar_Pradesh,Prayagraj,"Nagar Nigam, Prayagraj - UPPCB",12-02-2024 20:00:00,25.44919916 ,81.82735986 ,CO,20,116,28
India,Uttar_Pradesh,Varanasi,"Ardhali Bazar, Varanasi - UPPCB",12-02-2024 20:00:00,25.3505986,82.9083074,SO2,13,33,23
India,Uttar_Pradesh,Varanasi,"Bhelupur, Varanasi - UPPCB",12-02-2024 20:00:00,25.301778,82.996789,NH3,1,2,2
India,Uttar_Pradesh,Varanasi,"IESD Banaras Hindu University, Varanasi - UPPCB",12-02-2024 20:00:00,25.262326,82.995408,SO2,14,15,14
India,Uttar_Pradesh,Varanasi,"Maldahiya, Varanasi - UPPCB",12-02-2024 20:00:00,25.32393,82.99687,CO,26,128,38
India,Uttar_Pradesh,Vrindavan,"Omex Eternity, Vrindavan - UPPCB",12-02-2024 20:00:00,27.5714090,77.6557570,SO2,36,39,36
India,Uttarakhand,Dehradun,"Doon University, Dehradun - UKPCB",12-02-2024 20:00:00,30.269444,78.044167,PM2.5,32,168,96
India,Uttarakhand,Dehradun,"Doon University, Dehradun - UKPCB",12-02-2024 20:00:00,30.269444,78.044167,OZONE,3,10,6
India,Uttarakhand,Kashipur,"Govt. Girls Inter College, Kashipur - UKPCB",12-02-2024 20:00:00,29.2124114,78.9611753,OZONE,4,42,28
India,Uttarakhand,Rishikesh,"Shivaji Nagar, Rishikesh - UKPCB",12-02-2024 20:00:00,30.075911,78.2859547,PM2.5,40,72,57
India,Uttarakhand,Rishikesh,"Shivaji Nagar, Rishikesh - UKPCB",12-02-2024 20:00:00,30.075911,78.2859547,PM10,41,85,63
India,Uttarakhand,Rishikesh,"Shivaji Nagar, Rishikesh - UKPCB",12-02-2024 20:00:00,30.075911,78.2859547,CO,19,54,33
India,West_Bengal,Asansol,"Asansol Court Area, Asansol - WBPCB",12-02-2024 20:00:00,23.685297,86.945968,PM10,111,354,152
India,West_Bengal,Asansol,"Asansol Court Area, Asansol - WBPCB",12-02-2024 20:00:00,23.685297,86.945968,NH3,7,16,9
India,West_Bengal,Asansol,"Asansol Court Area, Asansol - WBPCB",12-02-2024 20:00:00,23.685297,86.945968,CO,20,125,43
India,West_Bengal,Barrackpore,"SVSPA Campus, Barrackpore - WBPCB",12-02-2024 20:00:00,22.7605581,88.3617589,PM2.5,79,328,228
India,West_Bengal,Barrackpore,"SVSPA Campus, Barrackpore - WBPCB",12-02-2024 20:00:00,22.7605581,88.3617589,NO2,23,98,55
India,West_Bengal,Haldia,"Priyambada Housing Estate, Haldia - WBPCB",12-02-2024 20:00:00,22.06047,88.109737,PM10,118,203,158
India,West_Bengal,Howrah,"Belur Math, Howrah - WBPCB",12-02-2024 20:00:00,22.629801,88.352017,PM10,114,237,169
India,West_Bengal,Howrah,"Ghusuri, Howrah - WBPCB",12-02-2024 20:00:00,22.611968,88.347422,PM2.5,NA,NA,NA
India,West_Bengal,Howrah,"Ghusuri, Howrah - WBPCB",12-02-2024 20:00:00,22.611968,88.347422,PM10,NA,NA,NA
India,West_Bengal,Howrah,"Ghusuri, Howrah - WBPCB",12-02-2024 20:00:00,22.611968,88.347422,CO,2,93,30
India,West_Bengal,Howrah,"Padmapukur, Howrah - WBPCB",12-02-2024 20:00:00,22.5687319,88.2797276,NH3,12,91,39
India,West_Bengal,Kolkata,"Ballygunge, Kolkata - WBPCB",12-02-2024 20:00:00,22.5367507,88.3638022,SO2,16,78,26
India,West_Bengal,Kolkata,"Bidhannagar, Kolkata - WBPCB",12-02-2024 20:00:00,22.58157048,88.41002457,NH3,10,19,14
India,West_Bengal,Kolkata,"Fort William, Kolkata - WBPCB",12-02-2024 20:00:00,22.556640,88.342674,PM2.5,27,321,231
India,West_Bengal,Kolkata,"Jadavpur, Kolkata - WBPCB",12-02-2024 20:00:00,22.49929,88.36917,SO2,6,12,7
India,West_Bengal,Kolkata,"Jadavpur, Kolkata - WBPCB",12-02-2024 20:00:00,22.49929,88.36917,CO,25,105,58
India,West_Bengal,Kolkata,"Rabindra Bharati University, Kolkata - WBPCB",12-02-2024 20:00:00,22.627847,88.380669,CO,34,114,50
India,West_Bengal,Kolkata,"Rabindra Sarobar, Kolkata - WBPCB",12-02-2024 20:00:00,22.51106,88.35142,PM2.5,94,284,196
India,West_Bengal,Siliguri,"Ward-32 Bapupara, Siliguri - WBPCB",12-02-2024 20:00:00,26.6879226,88.4152495,NO2,29,110,58
India,West_Bengal,Siliguri,"Ward-32 Bapupara, Siliguri - WBPCB",12-02-2024 20:00:00,26.6879226,88.4152495,OZONE,9,76,59
India,Andhra_Pradesh,Anantapur,"Gulzarpet, Anantapur - APPCB",12-02-2024 20:00:00,14.675886,77.593027,CO,21,46,25
India,Andhra_Pradesh,Chittoor,"Gangineni Cheruvu, Chittoor - APPCB",12-02-2024 20:00:00,13.204880,79.097889,NO2,5,31,13
India,Andhra_Pradesh,Chittoor,"Gangineni Cheruvu, Chittoor - APPCB",12-02-2024 20:00:00,13.204880,79.097889,SO2,1,40,11
India,Andhra_Pradesh,Kadapa,"Yerramukkapalli, Kadapa - APPCB",12-02-2024 20:00:00,14.465052,78.824187,PM10,32,44,38
India,Andhra_Pradesh,Kadapa,"Yerramukkapalli, Kadapa - APPCB",12-02-2024 20:00:00,14.465052,78.824187,CO,9,38,28
India,Andhra_Pradesh,Rajamahendravaram,"Anand Kala Kshetram, Rajamahendravaram - APPCB",12-02-2024 20:00:00,16.9872867,81.7363176,PM2.5,65,157,114
India,Andhra_Pradesh,Rajamahendravaram,"Anand Kala Kshetram, Rajamahendravaram - APPCB",12-02-2024 20:00:00,16.9872867,81.7363176,PM10,78,140,112
India,Andhra_Pradesh,Rajamahendravaram,"Anand Kala Kshetram, Rajamahendravaram - APPCB",12-02-2024 20:00:00,16.9872867,81.7363176,NO2,12,48,24
India,Andhra_Pradesh,Tirupati,"Tirumala, Tirupati - APPCB",12-02-2024 20:00:00,13.67,79.35,NH3,1,2,1
India,Andhra_Pradesh,Tirupati,"Tirumala, Tirupati - APPCB",12-02-2024 20:00:00,13.67,79.35,CO,32,57,41
India,Andhra_Pradesh,Tirupati,"Tirumala, Tirupati - APPCB",12-02-2024 20:00:00,13.67,79.35,OZONE,23,54,44
India,Andhra_Pradesh,Tirupati,"Vaikuntapuram, Tirupati - APPCB",12-02-2024 20:00:00,13.615387,79.409230,NH3,3,3,3
India,Andhra_Pradesh,Tirupati,"Vaikuntapuram, Tirupati - APPCB",12-02-2024 20:00:00,13.615387,79.409230,OZONE,NA,NA,NA
India,Andhra_Pradesh,Vijayawada,"HB Colony, Vijayawada - APPCB",12-02-2024 20:00:00,16.536107,80.594233,PM2.5,NA,NA,NA
India,Andhra_Pradesh,Vijayawada,"HB Colony, Vijayawada - APPCB",12-02-2024 20:00:00,16.536107,80.594233,OZONE,36,61,53
India,Andhra_Pradesh,Vijayawada,"Kanuru, Vijayawada - APPCB",12-02-2024 20:00:00,16.486692,80.699436,SO2,NA,NA,NA
India,Andhra_Pradesh,Vijayawada,"Rajiv Gandhi Park, Vijayawada - APPCB",12-02-2024 20:00:00,16.509717,80.612222,PM2.5,39,96,77
India,Andhra_Pradesh,Vijayawada,"Rajiv Gandhi Park, Vijayawada - APPCB",12-02-2024 20:00:00,16.509717,80.612222,NH3,3,7,6
India,Andhra_Pradesh,Vijayawada,"Rajiv Gandhi Park, Vijayawada - APPCB",12-02-2024 20:00:00,16.509717,80.612222,OZONE,16,71,57
India,Arunachal_Pradesh,Naharlagun,"Naharlagun, Naharlagun - APSPCB",12-02-2024 20:00:00,27.103358,93.679645,SO2,3,3,3
India,Assam,Guwahati,"IITG, Guwahati - PCBA",12-02-2024 20:00:00,26.2028636,91.70046436,NH3,5,5,5
India,Assam,Guwahati,"LGBI Airport, Guwahati - PCBA",12-02-2024 20:00:00,26.10887,91.589544,PM2.5,NA,NA,NA
India,Assam,Guwahati,"Pan Bazaar, Guwahati - PCBA",12-02-2024 20:00:00,26.187500,91.744194,PM10,100,312,157
India,Assam,Guwahati,"Railway Colony, Guwahati - PCBA",12-02-2024 20:00:00,26.181742,91.78063,SO2,18,25,22
India,Assam,Nagaon,"Christianpatty, Nagaon - PCBA",12-02-2024 20:00:00,26.349082,92.68449,SO2,NA,NA,NA
India,Assam,Nagaon,"Christianpatty, Nagaon - PCBA",12-02-2024 20:00:00,26.349082,92.68449,OZONE,5,105,69
India,Assam,Silchar,"Tarapur, Silchar - PCBA",12-02-2024 20:00:00,24.82827,92.79525,NO2,NA,NA,NA
India,Assam,Silchar,"Tarapur, Silchar - PCBA",12-02-2024 20:00:00,24.82827,92.79525,SO2,NA,NA,NA
India,Assam,Sivasagar,"Girls College, Sivasagar - PCBA",12-02-2024 20:00:00,26.987634,94.636574,OZONE,1,9,6
India,Bihar,Araria,"Kharahiya Basti, Araria - BSPCB",12-02-2024 20:00:00,26.146529,87.454184,NH3,6,8,7
India,Bihar,Aurangabad,"Gurdeo Nagar, Aurangabad - BSPCB",12-02-2024 20:00:00,24.75746,84.366208,OZONE,1,120,78
India,Bihar,Bettiah,"Kamalnath Nagar, Bettiah - BSPCB",12-02-2024 20:00:00,26.80365,84.51954,PM10,28,134,75
India,Bihar,Bettiah,"Kamalnath Nagar, Bettiah - BSPCB",12-02-2024 20:00:00,26.80365,84.51954,CO,76,78,78
India,Bihar,Bhagalpur,"DM Office_Kachari Chowk, Bhagalpur - BSPCB",12-02-2024 20:00:00,25.251013,86.989001,CO,35,82,50
India,Bihar,Bihar Sharif,"D M Colony, Bihar Sharif - BSPCB",12-02-2024 20:00:00,25.204762,85.514960,NO2,8,10,9
India,Bihar,Buxar,"Charitra Van, Buxar - BSPCB (Formerly known as Central Jail)",12-02-2024 20:00:00,25.567520,83.966379,PM2.5,100,500,337
India,Bihar,Buxar,"Charitra Van, Buxar - BSPCB (Formerly known as Central Jail)",12-02-2024 20:00:00,25.567520,83.966379,NH3,1,9,2
India,Bihar,Chhapra,"Darshan Nagar, Chhapra - BSPCB",12-02-2024 20:00:00,25.7808257,84.7446768,PM2.5,80,381,287
India,Bihar,Gaya,"Kareemganj, Gaya - BSPCB",12-02-2024 20:00:00,24.792403,84.992416,CO,12,101,51
India,Bihar,Gaya,"SFTI Kusdihra, Gaya - BSPCB",12-02-2024 20:00:00,24.762518,84.982348,PM10,70,109,89
India,Bihar,Hajipur,"Industrial Area, Hajipur - BSPCB",12-02-2024 20:00:00,25.697189,85.245900,OZONE,1,143,90
India,Bihar,Katihar,"Mirchaibari, Katihar - BSPCB",12-02-2024 20:00:00,25.560083,87.553265,PM2.5,37,312,142
India,Bihar,Katihar,"Mirchaibari, Katihar - BSPCB",12-02-2024 20:00:00,25.560083,87.553265,SO2,14,18,16
India,Bihar,Motihari,"Gandak Colony, Motihari - BSPCB",12-02-2024 20:00:00,26.63086,84.90051,PM2.5,50,314,187
India,Bihar,Motihari,"Gandak Colony, Motihari - BSPCB",12-02-2024 20:00:00,26.63086,84.90051,NH3,7,12,8
India,Bihar,Motihari,"Gandak Colony, Motihari - BSPCB",12-02-2024 20:00:00,26.63086,84.90051,SO2,1,3,1
India,Bihar,Motihari,"Gandak Colony, Motihari - BSPCB",12-02-2024 20:00:00,26.63086,84.90051,OZONE,32,110,79
India,Bihar,Munger,"Town Hall, Munger - BSPCB",12-02-2024 20:00:00,25.376776,86.471523,OZONE,10,13,11
India,Bihar,Muzaffarpur,"MIT-Daudpur Kothi, Muzaffarpur - BSPCB",12-02-2024 20:00:00,26.1403345,85.3650192,NO2,5,8,7
India,Bihar,Muzaffarpur,"Muzaffarpur Collectorate, Muzaffarpur - BSPCB",12-02-2024 20:00:00,26.1209,85.3647,CO,20,68,43
India,Bihar,Muzaffarpur,"Muzaffarpur Collectorate, Muzaffarpur - BSPCB",12-02-2024 20:00:00,26.1209,85.3647,OZONE,19,135,72
India,Bihar,Patna,"DRM Office Danapur, Patna - BSPCB",12-02-2024 20:00:00,25.586562,85.043586,PM10,128,339,219
India,Bihar,Patna,"DRM Office Danapur, Patna - BSPCB",12-02-2024 20:00:00,25.586562,85.043586,NH3,3,4,3
India,Bihar,Patna,"DRM Office Danapur, Patna - BSPCB",12-02-2024 20:00:00,25.586562,85.043586,SO2,7,10,8
India,Bihar,Patna,"DRM Office Danapur, Patna - BSPCB",12-02-2024 20:00:00,25.586562,85.043586,OZONE,1,72,41
India,Bihar,Patna,"Govt. High School Shikarpur, Patna - BSPCB",12-02-2024 20:00:00,25.592539,85.227158,PM10,149,336,203
India,Bihar,Patna,"IGSC Planetarium Complex, Patna - BSPCB",12-02-2024 20:00:00,25.610369,85.132568,PM2.5,78,372,250
India,Bihar,Patna,"Muradpur, Patna - BSPCB",12-02-2024 20:00:00,25.619651,85.147382,SO2,8,27,14
India,Bihar,Patna,"Rajbansi Nagar, Patna - BSPCB",12-02-2024 20:00:00,25.599486,85.113666,PM10,181,304,239
India,Bihar,Patna,"Rajbansi Nagar, Patna - BSPCB",12-02-2024 20:00:00,25.599486,85.113666,NH3,1,3,2
India,Bihar,Patna,"Rajbansi Nagar, Patna - BSPCB",12-02-2024 20:00:00,25.599486,85.113666,SO2,12,22,18
India,Bihar,Patna,"Samanpura, Patna - BSPCB",12-02-2024 20:00:00,25.596727,85.085624,NH3,4,9,6
India,Bihar,Patna,"Samanpura, Patna - BSPCB",12-02-2024 20:00:00,25.596727,85.085624,SO2,15,17,16
India,Bihar,Purnia,"Mariam Nagar, Purnia - BSPCB",12-02-2024 20:00:00,25.366336,87.117468,OZONE,13,53,20
India,Bihar,Saharsa,"Police Line, Saharsa - BSPCB",12-02-2024 20:00:00,25.892357,86.590325,PM2.5,72,373,221
India,Bihar,Saharsa,"Police Line, Saharsa - BSPCB",12-02-2024 20:00:00,25.892357,86.590325,NO2,4,9,7
India,Bihar,Saharsa,"Police Line, Saharsa - BSPCB",12-02-2024 20:00:00,25.892357,86.590325,SO2,14,86,44
India,Bihar,Saharsa,"Police Line, Saharsa - BSPCB",12-02-2024 20:00:00,25.892357,86.590325,CO,12,77,26
India,Bihar,Samastipur,"DM Office_Kasipur, Samastipur - BSPCB",12-02-2024 20:00:00,25.859655,85.77944,NH3,5,5,5
India,Bihar,Samastipur,"DM Office_Kasipur, Samastipur - BSPCB",12-02-2024 20:00:00,25.859655,85.77944,OZONE,9,24,9
India,Bihar,Siwan,"Chitragupta Nagar, Siwan - BSPCB",12-02-2024 20:00:00,26.2271665,84.3570427,NO2,14,125,40
India,Bihar,Siwan,"Chitragupta Nagar, Siwan - BSPCB",12-02-2024 20:00:00,26.2271665,84.3570427,SO2,24,35,31
India,Bihar,Siwan,"Chitragupta Nagar, Siwan - BSPCB",12-02-2024 20:00:00,26.2271665,84.3570427,CO,66,184,104
India,Bihar,Siwan,"Chitragupta Nagar, Siwan - BSPCB",12-02-2024 20:00:00,26.2271665,84.3570427,OZONE,6,90,7
India,Chandigarh,Chandigarh,"Sector 22, Chandigarh - CPCC",12-02-2024 20:00:00,30.735567,76.775714,OZONE,2,169,91
India,Chandigarh,Chandigarh,"Sector-25, Chandigarh - CPCC",12-02-2024 20:00:00,30.751462,76.762879,PM2.5,180,263,226
India,Chandigarh,Chandigarh,"Sector-25, Chandigarh - CPCC",12-02-2024 20:00:00,30.751462,76.762879,NO2,5,61,25
India,Chandigarh,Chandigarh,"Sector-25, Chandigarh - CPCC",12-02-2024 20:00:00,30.751462,76.762879,SO2,7,38,14
India,Chandigarh,Chandigarh,"Sector-53, Chandigarh - CPCC",12-02-2024 20:00:00,30.719859,76.738637,PM2.5,NA,NA,NA
India,Chandigarh,Chandigarh,"Sector-53, Chandigarh - CPCC",12-02-2024 20:00:00,30.719859,76.738637,CO,48,119,70
India,Chandigarh,Chandigarh,"Sector-53, Chandigarh - CPCC",12-02-2024 20:00:00,30.719859,76.738637,OZONE,3,59,36
India,Chhattisgarh,Bhilai,"32Bungalows, Bhilai - CECB",12-02-2024 20:00:00,21.194815,81.314770,PM10,60,98,77
India,Chhattisgarh,Bhilai,"32Bungalows, Bhilai - CECB",12-02-2024 20:00:00,21.194815,81.314770,NO2,17,26,22
India,Chhattisgarh,Bhilai,"32Bungalows, Bhilai - CECB",12-02-2024 20:00:00,21.194815,81.314770,NH3,6,6,6
India,Chhattisgarh,Bhilai,"Civic Center, Bhilai - Bhilai Steel Plant",12-02-2024 20:00:00,21.185571,81.343175,PM2.5,25,49,38
India,Chhattisgarh,Bhilai,"Hathkhoj, Bhilai - CECB",12-02-2024 20:00:00,21.224231,81.408350,SO2,13,33,21
India,Chhattisgarh,Bhilai,"Hathkhoj, Bhilai - CECB",12-02-2024 20:00:00,21.224231,81.408350,CO,23,39,25
India,Chhattisgarh,Bhilai,"Hathkhoj, Bhilai - CECB",12-02-2024 20:00:00,21.224231,81.408350,OZONE,11,26,23
India,Chhattisgarh,Bilaspur,"Mangala, Bilaspur - NTPC",12-02-2024 20:00:00,22.08815,82.13737,NO2,NA,NA,NA
India,Chhattisgarh,Bilaspur,"Mangala, Bilaspur - NTPC",12-02-2024 20:00:00,22.08815,82.13737,SO2,NA,NA,NA
India,Chhattisgarh,Chhal,"Nawapara SECL Colony, Chhal - CECB",12-02-2024 20:00:00,22.118125,83.140608,PM10,42,191,76
India,Chhattisgarh,Chhal,"Nawapara SECL Colony, Chhal - CECB",12-02-2024 20:00:00,22.118125,83.140608,NO2,10,79,36
India,Chhattisgarh,Chhal,"Nawapara SECL Colony, Chhal - CECB",12-02-2024 20:00:00,22.118125,83.140608,NH3,NA,NA,NA
India,Chhattisgarh,Korba,"Rampur, Korba - CECB",12-02-2024 20:00:00,22.368195,82.746431,NH3,3,5,4
India,Chhattisgarh,Korba,"Rampur, Korba - CECB",12-02-2024 20:00:00,22.368195,82.746431,CO,19,24,22
India,Chhattisgarh,Kunjemura,"OP Jindal School, Kunjemura - CECB",12-02-2024 20:00:00,22.126650,83.483212,SO2,7,20,12
India,Chhattisgarh,Kunjemura,"OP Jindal School, Kunjemura - CECB",12-02-2024 20:00:00,22.126650,83.483212,CO,30,60,43
India,Chhattisgarh,Milupara,"Govt. Higher Secondary School, Milupara - CECB",12-02-2024 20:00:00,22.1910172,83.5197009,PM2.5,24,68,42
India,Chhattisgarh,Milupara,"Govt. Higher Secondary School, Milupara - CECB",12-02-2024 20:00:00,22.1910172,83.5197009,NO2,13,82,34
India,Chhattisgarh,Raipur,"Bhatagaon New ISBT, Raipur - CECB",12-02-2024 20:00:00,21.219665,81.630094,PM2.5,10,51,44
India,Chhattisgarh,Raipur,"Bhatagaon New ISBT, Raipur - CECB",12-02-2024 20:00:00,21.219665,81.630094,SO2,NA,NA,NA
India,Chhattisgarh,Raipur,"Krishak Nagar, Raipur - CECB",12-02-2024 20:00:00,21.237755,81.705301,PM2.5,45,62,53
India,Chhattisgarh,Raipur,"Krishak Nagar, Raipur - CECB",12-02-2024 20:00:00,21.237755,81.705301,NH3,1,1,1
India,Chhattisgarh,Raipur,"Krishak Nagar, Raipur - CECB",12-02-2024 20:00:00,21.237755,81.705301,CO,34,40,37
India,Chhattisgarh,Raipur,"Siltara Phase-II, Raipur - CECB",12-02-2024 20:00:00,21.371751,81.664929,PM2.5,34,181,70
India,Chhattisgarh,Raipur,"Siltara Phase-II, Raipur - CECB",12-02-2024 20:00:00,21.371751,81.664929,CO,38,51,42
India,Chhattisgarh,Tumidih,"OP Jindal Industrial Park, Tumidih - CECB",12-02-2024 20:00:00,22.06631475,83.33820077,PM10,18,83,45
India,Chhattisgarh,Tumidih,"OP Jindal Industrial Park, Tumidih - CECB",12-02-2024 20:00:00,22.06631475,83.33820077,SO2,5,8,6
India,Chhattisgarh,Tumidih,"OP Jindal Industrial Park, Tumidih - CECB",12-02-2024 20:00:00,22.06631475,83.33820077,CO,21,58,51
India,Delhi,Delhi,"Alipur, Delhi - DPCC",12-02-2024 20:00:00,28.815329,77.153010,PM2.5,182,331,272
India,Delhi,Delhi,"Alipur, Delhi - DPCC",12-02-2024 20:00:00,28.815329,77.153010,PM10,NA,NA,NA
India,Delhi,Delhi,"Alipur, Delhi - DPCC",12-02-2024 20:00:00,28.815329,77.153010,SO2,6,16,10
India,Delhi,Delhi,"Anand Vihar, Delhi - DPCC",12-02-2024 20:00:00,28.647622,77.3158090,OZONE,18,21,20
India,Delhi,Delhi,"Ashok Vihar, Delhi - DPCC",12-02-2024 20:00:00,28.695381,77.181665,NH3,8,11,9
India,Delhi,Delhi,"Bawana, Delhi - DPCC",12-02-2024 20:00:00,28.776200,77.051074,PM2.5,303,374,337
India,Delhi,Delhi,"CRRI Mathura Road, Delhi - IMD",12-02-2024 20:00:00,28.5512005,77.2735737,PM2.5,160,337,285
India,Delhi,Delhi,"CRRI Mathura Road, Delhi - IMD",12-02-2024 20:00:00,28.5512005,77.2735737,PM10,119,255,180
India,Delhi,Delhi,"CRRI Mathura Road, Delhi - IMD",12-02-2024 20:00:00,28.5512005,77.2735737,CO,78,120,87
India,Delhi,Delhi,"CRRI Mathura Road, Delhi - IMD",12-02-2024 20:00:00,28.5512005,77.2735737,OZONE,2,83,47
India,Delhi,Delhi,"Dr. Karni Singh Shooting Range, Delhi - DPCC",12-02-2024 20:00:00,28.498571,77.264840,NH3,7,10,9
India,Delhi,Delhi,"Dwarka-Sector 8, Delhi - DPCC ",12-02-2024 20:00:00,28.5710274,77.0719006,OZONE,1,79,50
India,Delhi,Delhi,"IGI Airport (T3), Delhi - IMD",12-02-2024 20:00:00,28.5627763,77.1180053,NO2,NA,NA,NA
India,Delhi,Delhi,"IGI Airport (T3), Delhi - IMD",12-02-2024 20:00:00,28.5627763,77.1180053,CO,18,127,63
India,Delhi,Delhi,"IGI Airport (T3), Delhi - IMD",12-02-2024 20:00:00,28.5627763,77.1180053,OZONE,11,57,36
India,Delhi,Delhi,"IHBAS, Dilshad Garden, Delhi - CPCB",12-02-2024 20:00:00,28.6811736,77.3025234,NO2,10,29,22
India,Delhi,Delhi,"IHBAS, Dilshad Garden, Delhi - CPCB",12-02-2024 20:00:00,28.6811736,77.3025234,NH3,13,17,14
India,Delhi,Delhi,"ITO, Delhi - CPCB",12-02-2024 20:00:00,28.628624,77.241060,CO,48,126,65
India,Delhi,Delhi,"Jawaharlal Nehru Stadium, Delhi - DPCC",12-02-2024 20:00:00,28.580280,77.233829,NO2,62,165,104
India,Delhi,Delhi,"Jawaharlal Nehru Stadium, Delhi - DPCC",12-02-2024 20:00:00,28.580280,77.233829,CO,43,122,57
India,Delhi,Delhi,"Lodhi Road, Delhi - IITM",12-02-2024 20:00:00,28.588333,77.221667,OZONE,15,17,16
India,Delhi,Delhi,"Lodhi Road, Delhi - IMD",12-02-2024 20:00:00,28.5918245,77.2273074,PM2.5,44,253,180
India,Delhi,Delhi,"Lodhi Road, Delhi - IMD",12-02-2024 20:00:00,28.5918245,77.2273074,NO2,7,12,10
India,Delhi,Delhi,"Major Dhyan Chand National Stadium, Delhi - DPCC",12-02-2024 20:00:00,28.611281,77.237738,PM10,150,250,202
India,Delhi,Delhi,"Major Dhyan Chand National Stadium, Delhi - DPCC",12-02-2024 20:00:00,28.611281,77.237738,SO2,10,29,16
India,Delhi,Delhi,"Major Dhyan Chand National Stadium, Delhi - DPCC",12-02-2024 20:00:00,28.611281,77.237738,CO,2,109,19
India,Delhi,Delhi,"Mandir Marg, Delhi - DPCC",12-02-2024 20:00:00,28.636429,77.201067,PM2.5,302,353,328
India,Delhi,Delhi,"Mandir Marg, Delhi - DPCC",12-02-2024 20:00:00,28.636429,77.201067,CO,20,103,27
India,Delhi,Delhi,"NSIT Dwarka, Delhi - CPCB",12-02-2024 20:00:00,28.60909,77.0325413,NH3,9,11,10
India,Delhi,Delhi,"Nehru Nagar, Delhi - DPCC",12-02-2024 20:00:00,28.567890,77.250515,NO2,16,63,31
India,Delhi,Delhi,"Nehru Nagar, Delhi - DPCC",12-02-2024 20:00:00,28.567890,77.250515,NH3,9,24,16
India,Delhi,Delhi,"Nehru Nagar, Delhi - DPCC",12-02-2024 20:00:00,28.567890,77.250515,SO2,2,22,11
India,Delhi,Delhi,"New Moti Bagh, Delhi - MHUA",12-02-2024 20:00:00,28.57834,77.18400,PM2.5,273,369,338
India,Delhi,Delhi,"New Moti Bagh, Delhi - MHUA",12-02-2024 20:00:00,28.57834,77.18400,CO,46,110,58
India,Delhi,Delhi,"Okhla Phase-2, Delhi - DPCC",12-02-2024 20:00:00,28.530785,77.271255,NO2,49,177,130
India,Delhi,Delhi,"Patparganj, Delhi - DPCC",12-02-2024 20:00:00,28.623763,77.287209,NO2,47,84,60
India,Delhi,Delhi,"Patparganj, Delhi - DPCC",12-02-2024 20:00:00,28.623763,77.287209,SO2,9,16,12
India,Delhi,Delhi,"Patparganj, Delhi - DPCC",12-02-2024 20:00:00,28.623763,77.287209,CO,14,92,41
India,Delhi,Delhi,"Patparganj, Delhi - DPCC",12-02-2024 20:00:00,28.623763,77.287209,OZONE,1,86,54
India,Delhi,Delhi,"Punjabi Bagh, Delhi - DPCC",12-02-2024 20:00:00,28.674045,77.131023,NO2,46,95,65
India,Delhi,Delhi,"Punjabi Bagh, Delhi - DPCC",12-02-2024 20:00:00,28.674045,77.131023,CO,5,118,60
India,Delhi,Delhi,"Pusa, Delhi - DPCC",12-02-2024 20:00:00,28.639652,77.146275,PM10,196,426,298
India,Delhi,Delhi,"Pusa, Delhi - DPCC",12-02-2024 20:00:00,28.639652,77.146275,NH3,24,30,27
India,Delhi,Delhi,"Pusa, Delhi - DPCC",12-02-2024 20:00:00,28.639652,77.146275,SO2,6,22,13
India,Delhi,Delhi,"R K Puram, Delhi - DPCC",12-02-2024 20:00:00,28.563262,77.186937,SO2,6,56,24
India,Delhi,Delhi,"R K Puram, Delhi - DPCC",12-02-2024 20:00:00,28.563262,77.186937,CO,36,126,65
India,Delhi,Delhi,"Rohini, Delhi - DPCC",12-02-2024 20:00:00,28.732528,77.119920,NO2,39,99,61
India,Delhi,Delhi,"Rohini, Delhi - DPCC",12-02-2024 20:00:00,28.732528,77.119920,SO2,8,25,15
India,Delhi,Delhi,"Shadipur, Delhi - CPCB",12-02-2024 20:00:00,28.6514781,77.1473105,SO2,12,94,22
India,Delhi,Delhi,"Sirifort, Delhi - CPCB",12-02-2024 20:00:00,28.5504249,77.2159377,PM10,70,107,88
India,Delhi,Delhi,"Sirifort, Delhi - CPCB",12-02-2024 20:00:00,28.5504249,77.2159377,NH3,9,13,11
India,Delhi,Delhi,"Sirifort, Delhi - CPCB",12-02-2024 20:00:00,28.5504249,77.2159377,OZONE,11,50,37
India,Delhi,Delhi,"Sonia Vihar, Delhi - DPCC",12-02-2024 20:00:00,28.710508,77.249485,PM10,156,442,271
India,Delhi,Delhi,"Sonia Vihar, Delhi - DPCC",12-02-2024 20:00:00,28.710508,77.249485,OZONE,3,152,104
India,Delhi,Delhi,"Sri Aurobindo Marg, Delhi - DPCC",12-02-2024 20:00:00,28.531346,77.190156,NH3,7,9,8
India,Delhi,Delhi,"Wazirpur, Delhi - DPCC",12-02-2024 20:00:00,28.699793,77.165453,PM2.5,310,394,349
India,Delhi,Delhi,"Wazirpur, Delhi - DPCC",12-02-2024 20:00:00,28.699793,77.165453,NO2,127,259,192
India,Gujarat,Ahmedabad,"Chandkheda, Ahmedabad - IITM",12-02-2024 20:00:00,23.107969,72.574648,SO2,10,16,12
India,Gujarat,Ahmedabad,"Chandkheda, Ahmedabad - IITM",12-02-2024 20:00:00,23.107969,72.574648,CO,2,46,23
India,Gujarat,Ahmedabad,"Gyaspur, Ahmedabad - IITM",12-02-2024 20:00:00,22.977134,72.553024,OZONE,17,29,22
India,Gujarat,Ahmedabad,"Maninagar, Ahmedabad - GPCB",12-02-2024 20:00:00,23.002657,72.591912,SO2,19,85,26
India,Gujarat,Ahmedabad,"Maninagar, Ahmedabad - GPCB",12-02-2024 20:00:00,23.002657,72.591912,CO,18,46,28
India,Gujarat,Ahmedabad,"Rakhial, Ahmedabad - IITM",12-02-2024 20:00:00,23.016834,72.625775,PM2.5,52,235,94
India,Gujarat,Ahmedabad,"Rakhial, Ahmedabad - IITM",12-02-2024 20:00:00,23.016834,72.625775,PM10,67,170,106
India,Gujarat,Ahmedabad,"Rakhial, Ahmedabad - IITM",12-02-2024 20:00:00,23.016834,72.625775,OZONE,3,39,19
India,Gujarat,Ahmedabad,"SAC ISRO Satellite, Ahmedabad - IITM",12-02-2024 20:00:00,23.023389,72.515201,PM10,86,124,103
India,Gujarat,Ahmedabad,"SAC ISRO Satellite, Ahmedabad - IITM",12-02-2024 20:00:00,23.023389,72.515201,CO,28,45,41
India,Gujarat,Ahmedabad,"SVPI Airport Hansol, Ahmedabad - IITM",12-02-2024 20:00:00,23.076793,72.627874,CO,2,40,18
India,Gujarat,Ahmedabad,"Sardar Vallabhbhai Patel Stadium, Ahmedabad - IITM",12-02-2024 20:00:00,23.043070,72.562968,CO,14,42,21
India,Gujarat,Ankleshwar,"GIDC, Ankleshwar - GPCB",12-02-2024 20:00:00,21.613267,73.010555,OZONE,20,41,31
India,Gujarat,Gandhinagar,"GIFT City, Gandhinagar - IITM",12-02-2024 20:00:00,23.163798,72.677768,PM2.5,59,147,73
India,Gujarat,Gandhinagar,"IIPHG Lekawada, Gandhinagar - IITM",12-02-2024 20:00:00,23.243639,72.68994,PM2.5,77,328,157
India,Gujarat,Gandhinagar,"Sector-10, Gandhinagar - GPCB",12-02-2024 20:00:00,23.221714,72.654328,CO,12,89,30
India,Gujarat,Gandhinagar,"Sector-10, Gandhinagar - GPCB",12-02-2024 20:00:00,23.221714,72.654328,OZONE,2,46,31
India,Gujarat,Surat,"Science Center, Surat - SMC",12-02-2024 20:00:00,21.170046,72.795405,PM10,35,117,74
India,Gujarat,Vapi,"Phase-1 GIDC, Vapi - GPCB",12-02-2024 20:00:00,20.362421,72.918013,PM10,54,270,183
India,Gujarat,Vapi,"Phase-1 GIDC, Vapi - GPCB",12-02-2024 20:00:00,20.362421,72.918013,OZONE,40,72,52
India,Gujarat,Vatva,"Phase-4 GIDC, Vatva - GPCB",12-02-2024 20:00:00,22.969611,72.643500,SO2,17,17,17
India,Haryana,Ambala,"Patti Mehar, Ambala - HSPCB",12-02-2024 20:00:00,30.379589,76.778328,PM10,54,87,66
India,Haryana,Ambala,"Patti Mehar, Ambala - HSPCB",12-02-2024 20:00:00,30.379589,76.778328,NO2,2,3,3
India,Haryana,Bahadurgarh,"Arya Nagar, Bahadurgarh - HSPCB",12-02-2024 20:00:00,28.6701,76.9254,NH3,11,12,11
India,Haryana,Ballabgarh,"Nathu Colony, Ballabgarh - HSPCB",12-02-2024 20:00:00,28.3419248,77.319699,PM10,104,422,216
India,Haryana,Bhiwani,"H.B. Colony, Bhiwani - HSPCB",12-02-2024 20:00:00,28.806223,76.141105,NO2,7,11,9
India,Haryana,Bhiwani,"H.B. Colony, Bhiwani - HSPCB",12-02-2024 20:00:00,28.806223,76.141105,CO,26,62,54
India,Haryana,Charkhi Dadri,"Mini Secretariat, Charkhi Dadri - HSPCB",12-02-2024 20:00:00,28.593883,76.270653,NH3,5,8,6
India,Haryana,Dharuhera,"Municipal Corporation Office, Dharuhera -  HSPCB",12-02-2024 20:00:00,28.206800,76.799700,NO2,45,110,69
India,Haryana,Faridabad,"New Industrial Town, Faridabad - HSPCB",12-02-2024 20:00:00,28.39072,77.30059,PM2.5,139,399,311
India,Haryana,Faridabad,"New Industrial Town, Faridabad - HSPCB",12-02-2024 20:00:00,28.39072,77.30059,CO,14,54,32
India,Haryana,Faridabad,"Sector 11, Faridabad - HSPCB",12-02-2024 20:00:00,28.376058,77.315741,PM2.5,59,212,136
India,Haryana,Faridabad,"Sector 11, Faridabad - HSPCB",12-02-2024 20:00:00,28.376058,77.315741,PM10,105,172,135
India,Haryana,Faridabad,"Sector 11, Faridabad - HSPCB",12-02-2024 20:00:00,28.376058,77.315741,CO,40,76,47
India,Haryana,Faridabad,"Sector 30, Faridabad - HSPCB",12-02-2024 20:00:00,28.4417,77.3217,CO,67,122,89
India,Haryana,Fatehabad,"Huda Sector, Fatehabad - HSPCB",12-02-2024 20:00:00,29.503664,75.467934,OZONE,20,27,23
India,Haryana,Gurugram,"Sector-51, Gurugram - HSPCB",12-02-2024 20:00:00,28.4227,77.0667,NH3,7,14,9
India,Haryana,Gurugram,"Sector-51, Gurugram - HSPCB",12-02-2024 20:00:00,28.4227,77.0667,SO2,3,4,3
India,Haryana,Gurugram,"Teri Gram, Gurugram - HSPCB",12-02-2024 20:00:00,28.4275,77.1465,PM2.5,221,428,340
India,Haryana,Gurugram,"Teri Gram, Gurugram - HSPCB",12-02-2024 20:00:00,28.4275,77.1465,CO,24,60,37
India,Haryana,Gurugram,"Vikas Sadan, Gurugram - HSPCB",12-02-2024 20:00:00,28.4501238,77.0263051,NO2,5,26,14
India,Haryana,Hisar,"Urban Estate-II, Hisar - HSPCB",12-02-2024 20:00:00,29.140560,75.744941,NH3,3,4,3
India,Haryana,Kaithal,"Rishi Nagar, Kaithal - HSPCB",12-02-2024 20:00:00,29.8006,76.4155,PM2.5,74,274,138
India,Haryana,Kaithal,"Rishi Nagar, Kaithal - HSPCB",12-02-2024 20:00:00,29.8006,76.4155,NO2,24,127,34
India,Haryana,Kaithal,"Rishi Nagar, Kaithal - HSPCB",12-02-2024 20:00:00,29.8006,76.4155,NH3,8,12,8
India,Haryana,Karnal,"Sector-12, Karnal - HSPCB",12-02-2024 20:00:00,29.695300,77.002700,CO,38,74,50
India,Haryana,Kurukshetra,"Sector-7, Kurukshetra - HSPCB",12-02-2024 20:00:00,29.966942,76.875879,OZONE,4,80,52
India,Haryana,Mandikhera,"General Hospital, Mandikhera - HSPCB",12-02-2024 20:00:00,27.9002,76.9938,OZONE,23,31,28
India,Haryana,Manesar,"Sector-2 IMT, Manesar - HSPCB",12-02-2024 20:00:00,28.360699,76.936090,NH3,5,7,7
India,Haryana,Manesar,"Sector-2 IMT, Manesar - HSPCB",12-02-2024 20:00:00,28.360699,76.936090,OZONE,5,59,44
India,Haryana,Narnaul,"Shastri Nagar, Narnaul - HSPCB",12-02-2024 20:00:00,28.060249,76.113115,PM2.5,NA,NA,NA
India,Haryana,Narnaul,"Shastri Nagar, Narnaul - HSPCB",12-02-2024 20:00:00,28.060249,76.113115,PM10,NA,NA,NA
India,Haryana,Palwal,"Shyam Nagar, Palwal - HSPCB",12-02-2024 20:00:00,28.1485564,77.3320667,PM2.5,NA,NA,NA
India,Haryana,Palwal,"Shyam Nagar, Palwal - HSPCB",12-02-2024 20:00:00,28.1485564,77.3320667,NO2,NA,NA,NA
India,Haryana,Palwal,"Shyam Nagar, Palwal - HSPCB",12-02-2024 20:00:00,28.1485564,77.3320667,OZONE,20,126,44
India,Haryana,Rohtak,"MD University, Rohtak - HSPCB",12-02-2024 20:00:00,28.52123,76.37138,NO2,41,57,50
India,Haryana,Rohtak,"MD University, Rohtak - HSPCB",12-02-2024 20:00:00,28.52123,76.37138,OZONE,46,54,49
India,Haryana,Sonipat,"Murthal, Sonipat - HSPCB",12-02-2024 20:00:00,29.027200,77.062100,OZONE,17,36,33
India,Haryana,Yamuna Nagar,"Gobind Pura, Yamuna Nagar - HSPCB",12-02-2024 20:00:00,30.1480566,77.2893471,PM2.5,NA,NA,NA
India,Haryana,Yamuna Nagar,"Gobind Pura, Yamuna Nagar - HSPCB",12-02-2024 20:00:00,30.1480566,77.2893471,PM10,NA,NA,NA
India,Haryana,Yamuna Nagar,"Gobind Pura, Yamuna Nagar - HSPCB",12-02-2024 20:00:00,30.1480566,77.2893471,SO2,NA,NA,NA
India,Himachal Pradesh,Baddi,"HIMUDA Complex Phase-1, Baddi - HPPCB",12-02-2024 20:00:00,30.943887,76.801991,NO2,8,51,23
India,Himachal Pradesh,Baddi,"HIMUDA Complex Phase-1, Baddi - HPPCB",12-02-2024 20:00:00,30.943887,76.801991,NH3,3,6,4
India,Jharkhand,Dhanbad,"Kalakusuma, Dhanbad - DMC",12-02-2024 20:00:00,23.811548,86.481238,PM10,76,81,79
India,Jharkhand,Dhanbad,"Kalakusuma, Dhanbad - DMC",12-02-2024 20:00:00,23.811548,86.481238,CO,82,101,94
India,Jharkhand,Dhanbad,"Sardar Patel Nagar, Dhanbad - JSPCB",12-02-2024 20:00:00,23.80569,86.44268,SO2,8,11,10
India,Jharkhand,Dhanbad,"Sardar Patel Nagar, Dhanbad - JSPCB",12-02-2024 20:00:00,23.80569,86.44268,OZONE,13,17,16
India,Jharkhand,Pathardih,"Mohalbani Ghat, Pathardih - DMC",12-02-2024 20:00:00,23.669880,86.411725,SO2,18,22,20
India,Jharkhand,Pathardih,"Mohalbani Ghat, Pathardih - DMC",12-02-2024 20:00:00,23.669880,86.411725,OZONE,12,16,15
India,Karnataka,Bagalkot,"Vidayagiri, Bagalkot - KSPCB",12-02-2024 20:00:00,16.172806,75.659694,CO,9,60,45
India,Karnataka,Bagalkot,"Vidayagiri, Bagalkot - KSPCB",12-02-2024 20:00:00,16.172806,75.659694,OZONE,26,34,30
India,Karnataka,Belgaum,"Ramteerth Nagar, Belgaum - KSPCB",12-02-2024 20:00:00,15.888653,74.541751,PM10,42,100,69
India,Karnataka,Bengaluru,"BTM Layout, Bengaluru - CPCB",12-02-2024 20:00:00,12.9135218,77.5950804,PM2.5,NA,NA,NA
India,Karnataka,Bengaluru,"Hebbal, Bengaluru - KSPCB",12-02-2024 20:00:00,13.029152,77.585901,PM2.5,22,173,87
India,Karnataka,Bengaluru,"Hebbal, Bengaluru - KSPCB",12-02-2024 20:00:00,13.029152,77.585901,NH3,1,1,1
India,Karnataka,Bengaluru,"Hebbal, Bengaluru - KSPCB",12-02-2024 20:00:00,13.029152,77.585901,SO2,3,22,15
India,Karnataka,Bengaluru,"Hebbal, Bengaluru - KSPCB",12-02-2024 20:00:00,13.029152,77.585901,CO,14,32,23
India,Karnataka,Bengaluru,"Hebbal, Bengaluru - KSPCB",12-02-2024 20:00:00,13.029152,77.585901,OZONE,8,16,9
India,Karnataka,Bengaluru,"Hombegowda Nagar, Bengaluru - KSPCB",12-02-2024 20:00:00,12.938539,77.590100,CO,16,22,17
India,Karnataka,Bengaluru,"Jayanagar 5th Block, Bengaluru - KSPCB",12-02-2024 20:00:00,12.920984,77.584908,NO2,10,20,12
India,Karnataka,Bengaluru,"Jayanagar 5th Block, Bengaluru - KSPCB",12-02-2024 20:00:00,12.920984,77.584908,NH3,2,4,3
India,Karnataka,Bengaluru,"Jigani, Bengaluru - KSPCB",12-02-2024 20:00:00,12.7816279,77.6299145,CO,38,66,48
India,Karnataka,Bengaluru,"Kasturi Nagar, Bengaluru - KSPCB",12-02-2024 20:00:00,13.003872,77.664217,PM2.5,40,158,106
India,Karnataka,Bengaluru,"Peenya, Bengaluru - CPCB",12-02-2024 20:00:00,13.0270199,77.494094,PM10,74,170,115
India,Karnataka,Bengaluru,"Peenya, Bengaluru - CPCB",12-02-2024 20:00:00,13.0270199,77.494094,NH3,3,3,3
India,Karnataka,Bengaluru,"Peenya, Bengaluru - CPCB",12-02-2024 20:00:00,13.0270199,77.494094,SO2,11,20,15
India,Karnataka,Bengaluru,"Sanegurava Halli, Bengaluru - KSPCB",12-02-2024 20:00:00,12.990328,77.5431385,SO2,1,3,3
India,Karnataka,Bengaluru,"Sanegurava Halli, Bengaluru - KSPCB",12-02-2024 20:00:00,12.990328,77.5431385,CO,5,71,14
India,Karnataka,Bidar,"Naubad, Bidar - KSPCB",12-02-2024 20:00:00,17.930306,77.482194,PM2.5,37,165,83
India,Karnataka,Bidar,"Naubad, Bidar - KSPCB",12-02-2024 20:00:00,17.930306,77.482194,PM10,77,116,94
India,Karnataka,Bidar,"Naubad, Bidar - KSPCB",12-02-2024 20:00:00,17.930306,77.482194,SO2,15,19,16
India,Karnataka,Chamarajanagar,"Urban, Chamarajanagar - KSPCB",12-02-2024 20:00:00,11.55358,76.55521,SO2,2,9,5
India,Karnataka,Chikkaballapur,"Chikkaballapur Rural, Chikkaballapur - KSPCB",12-02-2024 20:00:00,13.428828,77.731418,PM2.5,35,137,83
India,Karnataka,Chikkaballapur,"Chikkaballapur Rural, Chikkaballapur - KSPCB",12-02-2024 20:00:00,13.428828,77.731418,NO2,2,7,4
India,Karnataka,Chikkamagaluru,"Kalyana Nagara, Chikkamagaluru - KSPCB",12-02-2024 20:00:00,13.328028,75.797056,CO,11,81,20
India,Karnataka,Davanagere,"Devaraj Urs Badavane, Davanagere - KSPCB",12-02-2024 20:00:00,14.475800,75.905200,PM10,NA,NA,NA
India,Karnataka,Davanagere,"Devaraj Urs Badavane, Davanagere - KSPCB",12-02-2024 20:00:00,14.475800,75.905200,SO2,4,5,4
India,Karnataka,Davanagere,"Devaraj Urs Badavane, Davanagere - KSPCB",12-02-2024 20:00:00,14.475800,75.905200,OZONE,22,26,25
India,Karnataka,Hassan,"B.Katihalli, Hassan - KSPCB",12-02-2024 20:00:00,13.008556,76.125258,NO2,NA,NA,NA
India,Karnataka,Hassan,"B.Katihalli, Hassan - KSPCB",12-02-2024 20:00:00,13.008556,76.125258,NH3,NA,NA,NA
India,Karnataka,Haveri,"Ashwini Nagar, Haveri - KSPCB",12-02-2024 20:00:00,14.791800,75.389600,NH3,2,3,3
India,Karnataka,Hubballi,"Lingaraj Nagar, Hubballi - KSPCB",12-02-2024 20:00:00,15.3714823,75.1160168,PM2.5,26,78,38
India,Karnataka,Hubballi,"Lingaraj Nagar, Hubballi - KSPCB",12-02-2024 20:00:00,15.3714823,75.1160168,PM10,50,67,60
India,Karnataka,Hubballi,"Lingaraj Nagar, Hubballi - KSPCB",12-02-2024 20:00:00,15.3714823,75.1160168,SO2,NA,NA,NA
India,Karnataka,Hubballi,"Lingaraj Nagar, Hubballi - KSPCB",12-02-2024 20:00:00,15.3714823,75.1160168,CO,10,101,26
India,Karnataka,Hubballi,"Lingaraj Nagar, Hubballi - KSPCB",12-02-2024 20:00:00,15.3714823,75.1160168,OZONE,3,41,33
India,Karnataka,Kalaburagi,"Lal Bahadur Shastri Nagar, Kalaburagi - KSPCB",12-02-2024 20:00:00,17.321993,76.822628,NO2,11,12,11
India,Karnataka,Kalaburagi,"Lal Bahadur Shastri Nagar, Kalaburagi - KSPCB",12-02-2024 20:00:00,17.321993,76.822628,NH3,2,2,2
India,Karnataka,Kalaburagi,"Mahatma Basaveswar Colony, Kalaburgi - KSPCB",12-02-2024 20:00:00,17.336318,76.847397,PM2.5,18,80,38
India,Karnataka,Kalaburagi,"Mahatma Basaveswar Colony, Kalaburgi - KSPCB",12-02-2024 20:00:00,17.336318,76.847397,PM10,31,97,55
India,Karnataka,Kalaburagi,"Mahatma Basaveswar Colony, Kalaburgi - KSPCB",12-02-2024 20:00:00,17.336318,76.847397,SO2,4,13,6
India,Karnataka,Kalaburagi,"Mahatma Basaveswar Colony, Kalaburgi - KSPCB",12-02-2024 20:00:00,17.336318,76.847397,OZONE,9,25,20
India,Karnataka,Karwar,"KHB Colony, Karwar - KSPCB",12-02-2024 20:00:00,14.816666,74.141003,PM10,70,187,97
India,Karnataka,Karwar,"KHB Colony, Karwar - KSPCB",12-02-2024 20:00:00,14.816666,74.141003,SO2,18,19,19
India,Karnataka,Kolar,"Tamaka Ind. Area, Kolar - KSPCB",12-02-2024 20:00:00,13.1276288,78.1570122,SO2,9,9,9
India,Karnataka,Koppal,"Diwator Nagar, Koppal - KSPCB",12-02-2024 20:00:00,15.347630,76.181767,NO2,4,25,12
India,Karnataka,Madikeri,"Stuart Hill, Madikeri - KSPCB",12-02-2024 20:00:00,12.415911,75.735050,PM2.5,12,37,26
India,Karnataka,Madikeri,"Stuart Hill, Madikeri - KSPCB",12-02-2024 20:00:00,12.415911,75.735050,NO2,5,13,7
India,Karnataka,Mangalore,"Kadri, Mangalore - KSPCB",12-02-2024 20:00:00,12.889250,74.853000,PM10,39,58,48
India,Karnataka,Mangalore,"Kadri, Mangalore - KSPCB",12-02-2024 20:00:00,12.889250,74.853000,NO2,4,7,5
India,Karnataka,Mysuru,"Hebbal 1st Stage, Mysuru - KSPCB",12-02-2024 20:00:00,12.21041,76.37376,PM2.5,30,53,40
India,Karnataka,Mysuru,"Hebbal 1st Stage, Mysuru - KSPCB",12-02-2024 20:00:00,12.21041,76.37376,SO2,1,5,3
India,Karnataka,Ramanagara,"Vijay Nagar, Ramanagara - KSPCB",12-02-2024 20:00:00,12.733409,77.298051,PM2.5,18,143,63
India,Karnataka,Shivamogga,"Vinoba Nagara, Shivamogga - KSPCB",12-02-2024 20:00:00,13.940000,75.555917,SO2,4,11,8
India,Karnataka,Tumakuru,"Thimmalapura, Tumakuru - KSPCB",12-02-2024 20:00:00,13.377516,77.099072,SO2,8,22,11
India,Karnataka,Tumakuru,"Thimmalapura, Tumakuru - KSPCB",12-02-2024 20:00:00,13.377516,77.099072,OZONE,6,58,40
India,Karnataka,Udupi,"Brahmagiri, Udupi - KSPCB",12-02-2024 20:00:00,13.34194444,74.74694444,NO2,13,14,14
India,Karnataka,Udupi,"Brahmagiri, Udupi - KSPCB",12-02-2024 20:00:00,13.34194444,74.74694444,SO2,20,23,22
India,Karnataka,Udupi,"Brahmagiri, Udupi - KSPCB",12-02-2024 20:00:00,13.34194444,74.74694444,CO,42,50,43
India,Karnataka,Vijayapura,"Ibrahimpur, Vijayapura - KSPCB",12-02-2024 20:00:00,16.802639,75.722694,NO2,17,19,19
