country,state,city,station,last_update,latitude,longitude,pollutant_id,pollutant_min,pollutant_max,pollutant_avg
India,Andhra_Pradesh,Amaravati,"Secretariat, Amaravati - APPCB",20-03-2024 22:00:00,16.5150833,80.5181667,NH3,4,5,5
India,Andhra_Pradesh,Amaravati,"Secretariat, Amaravati - APPCB",20-03-2024 22:00:00,16.5150833,80.5181667,CO,15,52,40
India,Andhra_Pradesh,Chittoor,"Gangineni Cheruvu, Chittoor - APPCB",20-03-2024 22:00:00,13.204880,79.097889,OZONE,15,123,111
India,Andhra_Pradesh,Kadapa,"Yerramukkapalli, Kadapa - APPCB",20-03-2024 22:00:00,14.465052,78.824187,PM2.5,30,79,52
India,Andhra_Pradesh,Kadapa,"Yerramukkapalli, Kadapa - APPCB",20-03-2024 22:00:00,14.465052,78.824187,SO2,1,3,2
India,Andhra_Pradesh,Rajamahendravaram,"Anand Kala Kshetram, Rajamahendravaram - APPCB",20-03-2024 22:00:00,16.9872867,81.7363176,PM2.5,15,76,56
India,Andhra_Pradesh,Rajamahendravaram,"Anand Kala Kshetram, Rajamahendravaram - APPCB",20-03-2024 22:00:00,16.9872867,81.7363176,OZONE,13,26,21
India,Andhra_Pradesh,Tirupati,"Vaikuntapuram, Tirupati - APPCB",20-03-2024 22:00:00,13.615387,79.409230,CO,9,18,12
India,Andhra_Pradesh,Vijayawada,"Rajiv Gandhi Park, Vijayawada - APPCB",20-03-2024 22:00:00,16.509717,80.612222,PM10,55,92,69
India,Andhra_Pradesh,Vijayawada,"Rajiv Gandhi Park, Vijayawada - APPCB",20-03-2024 22:00:00,16.509717,80.612222,SO2,7,11,9
India,Andhra_Pradesh,Vijayawada,"Rajiv Nagar, Vijayawada - APPCB",20-03-2024 22:00:00,16.554731,80.649110,NO2,6,9,7
India,Andhra_Pradesh,Vijayawada,"Rajiv Nagar, Vijayawada - APPCB",20-03-2024 22:00:00,16.554731,80.649110,NH3,1,1,1
India,Andhra_Pradesh,Vijayawada,"Rajiv Nagar, Vijayawada - APPCB",20-03-2024 22:00:00,16.554731,80.649110,OZONE,8,44,30
India,Andhra_Pradesh,Visakhapatnam,"GVM Corporation, Visakhapatnam - APPCB",20-03-2024 22:00:00,17.72,83.3,NO2,27,86,48
India,Assam,Guwahati,"IITG, Guwahati - PCBA",20-03-2024 22:00:00,26.2028636,91.70046436,PM10,119,302,184
India,Assam,Nalbari,"Bata Chowk, Nalbari - PCBA",20-03-2024 22:00:00,26.446912,91.439057,PM10,96,206,138
India,Assam,Nalbari,"Bata Chowk, Nalbari - PCBA",20-03-2024 22:00:00,26.446912,91.439057,NO2,13,40,19
India,Assam,Silchar,"Tarapur, Silchar - PCBA",20-03-2024 22:00:00,24.82827,92.79525,PM10,12,84,55
India,Assam,Silchar,"Tarapur, Silchar - PCBA",20-03-2024 22:00:00,24.82827,92.79525,CO,26,66,30
India,Assam,Sivasagar,"Girls College, Sivasagar - PCBA",20-03-2024 22:00:00,26.987634,94.636574,OZONE,1,6,3
India,Bihar,Araria,"Kharahiya Basti, Araria - BSPCB",20-03-2024 22:00:00,26.146529,87.454184,NO2,NA,NA,NA
India,Bihar,Aurangabad,"Gurdeo Nagar, Aurangabad - BSPCB",20-03-2024 22:00:00,24.75746,84.366208,NO2,1,5,5
India,Bihar,Aurangabad,"Gurdeo Nagar, Aurangabad - BSPCB",20-03-2024 22:00:00,24.75746,84.366208,SO2,1,11,7
India,Bihar,Aurangabad,"Gurdeo Nagar, Aurangabad - BSPCB",20-03-2024 22:00:00,24.75746,84.366208,OZONE,1,30,7
India,Bihar,Bettiah,"Kamalnath Nagar, Bettiah - BSPCB",20-03-2024 22:00:00,26.80365,84.51954,PM10,NA,NA,NA
India,Bihar,Bettiah,"Kamalnath Nagar, Bettiah - BSPCB",20-03-2024 22:00:00,26.80365,84.51954,NH3,3,7,3
India,Bihar,Bhagalpur,"DM Office_Kachari Chowk, Bhagalpur - BSPCB",20-03-2024 22:00:00,25.251013,86.989001,NO2,15,79,43
India,Bihar,Bhagalpur,"DM Office_Kachari Chowk, Bhagalpur - BSPCB",20-03-2024 22:00:00,25.251013,86.989001,NH3,7,13,10
India,Bihar,Bhagalpur,"DM Office_Kachari Chowk, Bhagalpur - BSPCB",20-03-2024 22:00:00,25.251013,86.989001,SO2,7,41,16
India,Bihar,Bhagalpur,"Mayaganj, Bhagalpur - BSPCB",20-03-2024 22:00:00,25.265194,87.012947,PM2.5,42,393,123
India,Bihar,Bhagalpur,"Mayaganj, Bhagalpur - BSPCB",20-03-2024 22:00:00,25.265194,87.012947,OZONE,11,29,20
India,Bihar,Buxar,"Charitra Van, Buxar - BSPCB (Formerly known as Central Jail)",20-03-2024 22:00:00,25.567520,83.966379,NH3,3,3,3
India,Bihar,Buxar,"Charitra Van, Buxar - BSPCB (Formerly known as Central Jail)",20-03-2024 22:00:00,25.567520,83.966379,SO2,15,20,18
India,Bihar,Buxar,"Charitra Van, Buxar - BSPCB (Formerly known as Central Jail)",20-03-2024 22:00:00,25.567520,83.966379,CO,18,90,71
India,Bihar,Gaya,"SFTI Kusdihra, Gaya - BSPCB",20-03-2024 22:00:00,24.762518,84.982348,OZONE,7,69,58
India,Bihar,Hajipur,"Industrial Area, Hajipur - BSPCB",20-03-2024 22:00:00,25.697189,85.245900,OZONE,5,124,58
India,Bihar,Katihar,"Mirchaibari, Katihar - BSPCB",20-03-2024 22:00:00,25.560083,87.553265,NO2,15,29,20
India,Bihar,Kishanganj,"SDM Office_Khagra, Kishanganj - BSPCB",20-03-2024 22:00:00,26.0881305,87.93840336,PM2.5,NA,NA,NA
India,Bihar,Manguraha,"Forest Rest House, Manguraha - BSPCB",20-03-2024 22:00:00,27.308328,84.531742,NO2,NA,NA,NA
India,Bihar,Munger,"Town Hall, Munger - BSPCB",20-03-2024 22:00:00,25.376776,86.471523,PM2.5,17,480,110
India,Bihar,Munger,"Town Hall, Munger - BSPCB",20-03-2024 22:00:00,25.376776,86.471523,SO2,18,36,31
India,Bihar,Muzaffarpur,"Buddha Colony, Muzaffarpur - BSPCB",20-03-2024 22:00:00,26.11442,85.39813,NO2,20,52,30
India,Bihar,Muzaffarpur,"Buddha Colony, Muzaffarpur - BSPCB",20-03-2024 22:00:00,26.11442,85.39813,NH3,16,22,18
India,Bihar,Muzaffarpur,"Buddha Colony, Muzaffarpur - BSPCB",20-03-2024 22:00:00,26.11442,85.39813,CO,34,75,38
India,Bihar,Muzaffarpur,"Buddha Colony, Muzaffarpur - BSPCB",20-03-2024 22:00:00,26.11442,85.39813,OZONE,53,129,70
India,Bihar,Muzaffarpur,"MIT-Daudpur Kothi, Muzaffarpur - BSPCB",20-03-2024 22:00:00,26.1403345,85.3650192,CO,26,116,66
India,Bihar,Muzaffarpur,"Muzaffarpur Collectorate, Muzaffarpur - BSPCB",20-03-2024 22:00:00,26.1209,85.3647,PM2.5,35,304,135
India,Bihar,Patna,"DRM Office Danapur, Patna - BSPCB",20-03-2024 22:00:00,25.586562,85.043586,NO2,7,45,21
India,Bihar,Patna,"IGSC Planetarium Complex, Patna - BSPCB",20-03-2024 22:00:00,25.610369,85.132568,PM2.5,33,132,68
India,Bihar,Patna,"IGSC Planetarium Complex, Patna - BSPCB",20-03-2024 22:00:00,25.610369,85.132568,NO2,14,14,14
India,Bihar,Patna,"Muradpur, Patna - BSPCB",20-03-2024 22:00:00,25.619651,85.147382,NO2,8,20,14
India,Bihar,Patna,"Muradpur, Patna - BSPCB",20-03-2024 22:00:00,25.619651,85.147382,OZONE,2,19,13
India,Bihar,Patna,"Samanpura, Patna - BSPCB",20-03-2024 22:00:00,25.596727,85.085624,PM2.5,25,99,66
India,Bihar,Patna,"Samanpura, Patna - BSPCB",20-03-2024 22:00:00,25.596727,85.085624,OZONE,49,90,82
India,Bihar,Purnia,"Mariam Nagar, Purnia - BSPCB",20-03-2024 22:00:00,25.366336,87.117468,PM10,NA,NA,NA
India,Bihar,Purnia,"Mariam Nagar, Purnia - BSPCB",20-03-2024 22:00:00,25.366336,87.117468,NO2,NA,NA,NA
India,Bihar,Saharsa,"Police Line, Saharsa - BSPCB",20-03-2024 22:00:00,25.892357,86.590325,PM10,NA,NA,NA
India,Bihar,Saharsa,"Police Line, Saharsa - BSPCB",20-03-2024 22:00:00,25.892357,86.590325,NO2,NA,NA,NA
India,Bihar,Saharsa,"Police Line, Saharsa - BSPCB",20-03-2024 22:00:00,25.892357,86.590325,NH3,NA,NA,NA
India,Bihar,Saharsa,"Police Line, Saharsa - BSPCB",20-03-2024 22:00:00,25.892357,86.590325,SO2,NA,NA,NA
India,Bihar,Saharsa,"Police Line, Saharsa - BSPCB",20-03-2024 22:00:00,25.892357,86.590325,OZONE,NA,NA,NA
India,Bihar,Sasaram,"Dada Peer, Sasaram - BSPCB",20-03-2024 22:00:00,24.952822,84.002396,PM10,14,130,47
India,Bihar,Siwan,"Chitragupta Nagar, Siwan - BSPCB",20-03-2024 22:00:00,26.2271665,84.3570427,NO2,NA,NA,NA
India,Bihar,Siwan,"Chitragupta Nagar, Siwan - BSPCB",20-03-2024 22:00:00,26.2271665,84.3570427,NH3,NA,NA,NA
India,Chandigarh,Chandigarh,"Sector-25, Chandigarh - CPCC",20-03-2024 22:00:00,30.751462,76.762879,NO2,7,41,19
India,Chhattisgarh,Bhilai,"32Bungalows, Bhilai - CECB",20-03-2024 22:00:00,21.194815,81.314770,PM10,17,32,21
India,Chhattisgarh,Bhilai,"Civic Center, Bhilai - Bhilai Steel Plant",20-03-2024 22:00:00,21.185571,81.343175,NO2,16,18,17
India,Chhattisgarh,Bhilai,"Civic Center, Bhilai - Bhilai Steel Plant",20-03-2024 22:00:00,21.185571,81.343175,OZONE,10,47,29
India,Chhattisgarh,Bhilai,"Hathkhoj, Bhilai - CECB",20-03-2024 22:00:00,21.224231,81.408350,SO2,10,13,11
India,Chhattisgarh,Chhal,"Nawapara SECL Colony, Chhal - CECB",20-03-2024 22:00:00,22.118125,83.140608,PM2.5,NA,NA,NA
India,Chhattisgarh,Chhal,"Nawapara SECL Colony, Chhal - CECB",20-03-2024 22:00:00,22.118125,83.140608,NO2,12,31,19
India,Chhattisgarh,Chhal,"Nawapara SECL Colony, Chhal - CECB",20-03-2024 22:00:00,22.118125,83.140608,CO,10,52,25
India,Chhattisgarh,Chhal,"Nawapara SECL Colony, Chhal - CECB",20-03-2024 22:00:00,22.118125,83.140608,OZONE,1,14,10
India,Chhattisgarh,Korba,"Rampur, Korba - CECB",20-03-2024 22:00:00,22.368195,82.746431,PM10,12,42,27
India,Chhattisgarh,Korba,"Urja Nagar, Korba - CECB",20-03-2024 22:00:00,22.348441,82.549611,PM10,10,47,24
India,Chhattisgarh,Kunjemura,"OP Jindal School, Kunjemura - CECB",20-03-2024 22:00:00,22.126650,83.483212,PM10,9,54,28
India,Chhattisgarh,Raipur,"Bhatagaon New ISBT, Raipur - CECB",20-03-2024 22:00:00,21.219665,81.630094,PM10,12,61,25
India,Chhattisgarh,Raipur,"Krishak Nagar, Raipur - CECB",20-03-2024 22:00:00,21.237755,81.705301,NO2,NA,NA,NA
India,Chhattisgarh,Raipur,"Siltara Phase-II, Raipur - CECB",20-03-2024 22:00:00,21.371751,81.664929,NH3,3,3,3
India,Chhattisgarh,Tumidih,"OP Jindal Industrial Park, Tumidih - CECB",20-03-2024 22:00:00,22.06631475,83.33820077,SO2,NA,NA,NA
India,Delhi,Delhi,"Alipur, Delhi - DPCC",20-03-2024 22:00:00,28.815329,77.153010,PM2.5,39,327,201
India,Delhi,Delhi,"Alipur, Delhi - DPCC",20-03-2024 22:00:00,28.815329,77.153010,PM10,58,389,179
India,Delhi,Delhi,"Alipur, Delhi - DPCC",20-03-2024 22:00:00,28.815329,77.153010,NO2,7,110,50
India,Delhi,Delhi,"Aya Nagar, Delhi - IMD",20-03-2024 22:00:00,28.4706914,77.1099364,PM2.5,73,383,221
India,Delhi,Delhi,"CRRI Mathura Road, Delhi - IMD",20-03-2024 22:00:00,28.5512005,77.2735737,CO,2,129,36
India,Delhi,Delhi,"Chandni Chowk, Delhi - IITM",20-03-2024 22:00:00,28.656756,77.227234,NO2,10,83,37
India,Delhi,Delhi,"Chandni Chowk, Delhi - IITM",20-03-2024 22:00:00,28.656756,77.227234,NH3,7,40,15
India,Delhi,Delhi,"DTU, Delhi - CPCB",20-03-2024 22:00:00,28.7500499,77.1112615,NO2,27,52,41
India,Delhi,Delhi,"DTU, Delhi - CPCB",20-03-2024 22:00:00,28.7500499,77.1112615,CO,20,58,28
India,Delhi,Delhi,"Dr. Karni Singh Shooting Range, Delhi - DPCC",20-03-2024 22:00:00,28.498571,77.264840,CO,26,108,59
India,Delhi,Delhi,"Dr. Karni Singh Shooting Range, Delhi - DPCC",20-03-2024 22:00:00,28.498571,77.264840,OZONE,1,278,133
India,Delhi,Delhi,"Dwarka-Sector 8, Delhi - DPCC ",20-03-2024 22:00:00,28.5710274,77.0719006,PM10,110,500,322
India,Delhi,Delhi,"Dwarka-Sector 8, Delhi - DPCC ",20-03-2024 22:00:00,28.5710274,77.0719006,SO2,6,40,17
India,Delhi,Delhi,"IGI Airport (T3), Delhi - IMD",20-03-2024 22:00:00,28.5627763,77.1180053,PM10,44,309,183
India,Delhi,Delhi,"IGI Airport (T3), Delhi - IMD",20-03-2024 22:00:00,28.5627763,77.1180053,CO,32,101,45
India,Delhi,Delhi,"IHBAS, Dilshad Garden, Delhi - CPCB",20-03-2024 22:00:00,28.6811736,77.3025234,PM10,79,177,137
India,Delhi,Delhi,"IHBAS, Dilshad Garden, Delhi - CPCB",20-03-2024 22:00:00,28.6811736,77.3025234,NH3,3,7,5
India,Delhi,Delhi,"IHBAS, Dilshad Garden, Delhi - CPCB",20-03-2024 22:00:00,28.6811736,77.3025234,SO2,3,24,14
India,Delhi,Delhi,"Jahangirpuri, Delhi - DPCC",20-03-2024 22:00:00,28.732820,77.170633,PM10,74,483,302
India,Delhi,Delhi,"Jawaharlal Nehru Stadium, Delhi - DPCC",20-03-2024 22:00:00,28.580280,77.233829,PM2.5,31,338,168
India,Delhi,Delhi,"Jawaharlal Nehru Stadium, Delhi - DPCC",20-03-2024 22:00:00,28.580280,77.233829,OZONE,1,196,107
India,Delhi,Delhi,"Lodhi Road, Delhi - IITM",20-03-2024 22:00:00,28.588333,77.221667,PM2.5,42,366,152
India,Delhi,Delhi,"Lodhi Road, Delhi - IITM",20-03-2024 22:00:00,28.588333,77.221667,NH3,8,11,10
India,Delhi,Delhi,"Lodhi Road, Delhi - IMD",20-03-2024 22:00:00,28.5918245,77.2273074,PM2.5,51,320,168
India,Delhi,Delhi,"Major Dhyan Chand National Stadium, Delhi - DPCC",20-03-2024 22:00:00,28.611281,77.237738,PM2.5,51,387,203
India,Delhi,Delhi,"Major Dhyan Chand National Stadium, Delhi - DPCC",20-03-2024 22:00:00,28.611281,77.237738,SO2,8,51,17
India,Delhi,Delhi,"Mandir Marg, Delhi - DPCC",20-03-2024 22:00:00,28.636429,77.201067,PM2.5,32,323,179
India,Delhi,Delhi,"Mandir Marg, Delhi - DPCC",20-03-2024 22:00:00,28.636429,77.201067,SO2,6,14,10
India,Delhi,Delhi,"Mandir Marg, Delhi - DPCC",20-03-2024 22:00:00,28.636429,77.201067,CO,44,106,56
India,Delhi,Delhi,"Mundka, Delhi - DPCC",20-03-2024 22:00:00,28.684678,77.076574,PM2.5,52,500,289
India,Delhi,Delhi,"Mundka, Delhi - DPCC",20-03-2024 22:00:00,28.684678,77.076574,NH3,3,7,5
India,Delhi,Delhi,"NSIT Dwarka, Delhi - CPCB",20-03-2024 22:00:00,28.60909,77.0325413,OZONE,6,55,31
India,Delhi,Delhi,"Najafgarh, Delhi - DPCC",20-03-2024 22:00:00,28.570173,76.933762,PM10,54,459,176
India,Delhi,Delhi,"Najafgarh, Delhi - DPCC",20-03-2024 22:00:00,28.570173,76.933762,NO2,4,24,13
India,Delhi,Delhi,"Najafgarh, Delhi - DPCC",20-03-2024 22:00:00,28.570173,76.933762,SO2,8,15,11
India,Delhi,Delhi,"Narela, Delhi - DPCC",20-03-2024 22:00:00,28.822836,77.101981,PM2.5,47,341,232
India,Delhi,Delhi,"Narela, Delhi - DPCC",20-03-2024 22:00:00,28.822836,77.101981,NO2,15,103,51
India,Delhi,Delhi,"Narela, Delhi - DPCC",20-03-2024 22:00:00,28.822836,77.101981,OZONE,4,185,106
India,Delhi,Delhi,"Nehru Nagar, Delhi - DPCC",20-03-2024 22:00:00,28.567890,77.250515,NO2,10,36,22
India,Delhi,Delhi,"Nehru Nagar, Delhi - DPCC",20-03-2024 22:00:00,28.567890,77.250515,NH3,6,12,9
India,Delhi,Delhi,"New Moti Bagh, Delhi - MHUA",20-03-2024 22:00:00,28.57834,77.18400,NO2,1,6,3
India,Delhi,Delhi,"North Campus, DU, Delhi - IMD",20-03-2024 22:00:00,28.6573814,77.1585447,PM2.5,68,345,215
India,Delhi,Delhi,"North Campus, DU, Delhi - IMD",20-03-2024 22:00:00,28.6573814,77.1585447,PM10,81,294,178
India,Delhi,Delhi,"North Campus, DU, Delhi - IMD",20-03-2024 22:00:00,28.6573814,77.1585447,CO,28,115,57
India,Delhi,Delhi,"Okhla Phase-2, Delhi - DPCC",20-03-2024 22:00:00,28.530785,77.271255,CO,17,132,68
India,Delhi,Delhi,"Okhla Phase-2, Delhi - DPCC",20-03-2024 22:00:00,28.530785,77.271255,OZONE,10,128,74
India,Delhi,Delhi,"Patparganj, Delhi - DPCC",20-03-2024 22:00:00,28.623763,77.287209,NH3,8,13,10
India,Delhi,Delhi,"Punjabi Bagh, Delhi - DPCC",20-03-2024 22:00:00,28.674045,77.131023,PM2.5,19,404,238
India,Delhi,Delhi,"Punjabi Bagh, Delhi - DPCC",20-03-2024 22:00:00,28.674045,77.131023,NH3,1,6,3
India,Delhi,Delhi,"Pusa, Delhi - IMD",20-03-2024 22:00:00,28.636110,77.173332,PM10,NA,NA,NA
India,Delhi,Delhi,"R K Puram, Delhi - DPCC",20-03-2024 22:00:00,28.563262,77.186937,SO2,6,58,26
India,Delhi,Delhi,"R K Puram, Delhi - DPCC",20-03-2024 22:00:00,28.563262,77.186937,CO,16,134,55
India,Delhi,Delhi,"Rohini, Delhi - DPCC",20-03-2024 22:00:00,28.732528,77.119920,PM2.5,35,407,250
India,Delhi,Delhi,"Rohini, Delhi - DPCC",20-03-2024 22:00:00,28.732528,77.119920,NH3,7,10,9
India,Delhi,Delhi,"Rohini, Delhi - DPCC",20-03-2024 22:00:00,28.732528,77.119920,CO,10,105,30
India,Delhi,Delhi,"Sirifort, Delhi - CPCB",20-03-2024 22:00:00,28.5504249,77.2159377,NH3,3,9,6
India,Delhi,Delhi,"Sirifort, Delhi - CPCB",20-03-2024 22:00:00,28.5504249,77.2159377,OZONE,4,13,6
India,Delhi,Delhi,"Sonia Vihar, Delhi - DPCC",20-03-2024 22:00:00,28.710508,77.249485,PM10,69,227,170
India,Delhi,Delhi,"Sonia Vihar, Delhi - DPCC",20-03-2024 22:00:00,28.710508,77.249485,OZONE,22,168,125
India,Delhi,Delhi,"Sri Aurobindo Marg, Delhi - DPCC",20-03-2024 22:00:00,28.531346,77.190156,SO2,11,47,20
India,Delhi,Delhi,"Sri Aurobindo Marg, Delhi - DPCC",20-03-2024 22:00:00,28.531346,77.190156,CO,7,78,17
India,Delhi,Delhi,"Vivek Vihar, Delhi - DPCC",20-03-2024 22:00:00,28.672342,77.315260,PM2.5,NA,NA,NA
India,Delhi,Delhi,"Vivek Vihar, Delhi - DPCC",20-03-2024 22:00:00,28.672342,77.315260,CO,24,78,43
India,Delhi,Delhi,"Wazirpur, Delhi - DPCC",20-03-2024 22:00:00,28.699793,77.165453,CO,6,113,59
India,Gujarat,Ahmedabad,"Chandkheda, Ahmedabad - IITM",20-03-2024 22:00:00,23.107969,72.574648,NO2,24,35,30
India,Gujarat,Ahmedabad,"Gyaspur, Ahmedabad - IITM",20-03-2024 22:00:00,22.977134,72.553024,CO,22,98,35
India,Gujarat,Ahmedabad,"Gyaspur, Ahmedabad - IITM",20-03-2024 22:00:00,22.977134,72.553024,OZONE,8,51,34
India,Gujarat,Ahmedabad,"Maninagar, Ahmedabad - GPCB",20-03-2024 22:00:00,23.002657,72.591912,NO2,25,139,58
India,Gujarat,Ahmedabad,"Raikhad, Ahmedabad - IITM",20-03-2024 22:00:00,23.020509,72.579261,NH3,1,5,2
India,Gujarat,Ahmedabad,"Raikhad, Ahmedabad - IITM",20-03-2024 22:00:00,23.020509,72.579261,SO2,3,9,6
India,Gujarat,Ahmedabad,"Raikhad, Ahmedabad - IITM",20-03-2024 22:00:00,23.020509,72.579261,OZONE,13,53,37
India,Gujarat,Ahmedabad,"Rakhial, Ahmedabad - IITM",20-03-2024 22:00:00,23.016834,72.625775,PM2.5,96,349,181
India,Gujarat,Ahmedabad,"Rakhial, Ahmedabad - IITM",20-03-2024 22:00:00,23.016834,72.625775,PM10,111,322,164
India,Gujarat,Ahmedabad,"Rakhial, Ahmedabad - IITM",20-03-2024 22:00:00,23.016834,72.625775,OZONE,3,83,38
India,Gujarat,Ahmedabad,"SAC ISRO Satellite, Ahmedabad - IITM",20-03-2024 22:00:00,23.023389,72.515201,PM10,90,101,98
India,Gujarat,Ahmedabad,"SVPI Airport Hansol, Ahmedabad - IITM",20-03-2024 22:00:00,23.076793,72.627874,PM2.5,26,151,86
India,Gujarat,Ahmedabad,"SVPI Airport Hansol, Ahmedabad - IITM",20-03-2024 22:00:00,23.076793,72.627874,PM10,36,148,107
India,Gujarat,Ahmedabad,"Sardar Vallabhbhai Patel Stadium, Ahmedabad - IITM",20-03-2024 22:00:00,23.043070,72.562968,NO2,1,18,13
India,Gujarat,Ankleshwar,"GIDC, Ankleshwar - GPCB",20-03-2024 22:00:00,21.613267,73.010555,SO2,16,111,39
India,Gujarat,Ankleshwar,"GIDC, Ankleshwar - GPCB",20-03-2024 22:00:00,21.613267,73.010555,OZONE,20,32,28
India,Gujarat,Gandhinagar,"IIPHG Lekawada, Gandhinagar - IITM",20-03-2024 22:00:00,23.243639,72.68994,PM10,58,178,114
India,Gujarat,Gandhinagar,"Sector-10, Gandhinagar - GPCB",20-03-2024 22:00:00,23.221714,72.654328,NO2,10,18,15
India,Gujarat,Gandhinagar,"Sector-10, Gandhinagar - GPCB",20-03-2024 22:00:00,23.221714,72.654328,SO2,4,29,10
India,Gujarat,Gandhinagar,"Sector-10, Gandhinagar - GPCB",20-03-2024 22:00:00,23.221714,72.654328,OZONE,2,28,10
India,Gujarat,Nandesari,"GIDC, Nandesari - Nandesari Ind. Association",20-03-2024 22:00:00,22.410802,73.097923,NO2,1,55,20
India,Gujarat,Surat,"Science Center, Surat - SMC",20-03-2024 22:00:00,21.170046,72.795405,SO2,17,30,21
India,Gujarat,Vapi,"Phase-1 GIDC, Vapi - GPCB",20-03-2024 22:00:00,20.362421,72.918013,PM10,61,310,136
India,Gujarat,Vapi,"Phase-1 GIDC, Vapi - GPCB",20-03-2024 22:00:00,20.362421,72.918013,SO2,46,57,50
India,Gujarat,Vapi,"Phase-1 GIDC, Vapi - GPCB",20-03-2024 22:00:00,20.362421,72.918013,CO,69,106,89
India,Gujarat,Vatva,"Phase-4 GIDC, Vatva - GPCB",20-03-2024 22:00:00,22.969611,72.643500,OZONE,9,75,42
India,Haryana,Ambala,"Patti Mehar, Ambala - HSPCB",20-03-2024 22:00:00,30.379589,76.778328,NO2,8,22,15
India,Haryana,Ambala,"Patti Mehar, Ambala - HSPCB",20-03-2024 22:00:00,30.379589,76.778328,NH3,5,12,9
India,Haryana,Ambala,"Patti Mehar, Ambala - HSPCB",20-03-2024 22:00:00,30.379589,76.778328,CO,30,60,40
India,Haryana,Bhiwani,"H.B. Colony, Bhiwani - HSPCB",20-03-2024 22:00:00,28.806223,76.141105,CO,18,60,22
India,Haryana,Charkhi Dadri,"Mini Secretariat, Charkhi Dadri - HSPCB",20-03-2024 22:00:00,28.593883,76.270653,NH3,6,8,7
India,Haryana,Dharuhera,"Municipal Corporation Office, Dharuhera -  HSPCB",20-03-2024 22:00:00,28.206800,76.799700,NO2,16,51,35
India,Haryana,Dharuhera,"Municipal Corporation Office, Dharuhera -  HSPCB",20-03-2024 22:00:00,28.206800,76.799700,NH3,4,26,11
India,Haryana,Dharuhera,"Municipal Corporation Office, Dharuhera -  HSPCB",20-03-2024 22:00:00,28.206800,76.799700,SO2,15,40,25
India,Haryana,Dharuhera,"Municipal Corporation Office, Dharuhera -  HSPCB",20-03-2024 22:00:00,28.206800,76.799700,OZONE,13,199,56
India,Haryana,Faridabad,"Sector 11, Faridabad - HSPCB",20-03-2024 22:00:00,28.376058,77.315741,PM2.5,188,451,262
India,Haryana,Faridabad,"Sector 30, Faridabad - HSPCB",20-03-2024 22:00:00,28.4417,77.3217,CO,24,112,30
India,Haryana,Faridabad,"Sector- 16A, Faridabad - HSPCB",20-03-2024 22:00:00,28.4088421,77.3099081,CO,5,135,44
India,Haryana,Fatehabad,"Huda Sector, Fatehabad - HSPCB",20-03-2024 22:00:00,29.503664,75.467934,PM10,74,115,98
India,Haryana,Gurugram,"Sector-51, Gurugram - HSPCB",20-03-2024 22:00:00,28.4227,77.0667,PM10,107,397,243
India,Haryana,Gurugram,"Teri Gram, Gurugram - HSPCB",20-03-2024 22:00:00,28.4275,77.1465,CO,14,40,20
India,Haryana,Gurugram,"Teri Gram, Gurugram - HSPCB",20-03-2024 22:00:00,28.4275,77.1465,OZONE,13,18,15
India,Haryana,Hisar,"Urban Estate-II, Hisar - HSPCB",20-03-2024 22:00:00,29.140560,75.744941,PM10,52,126,98
India,Haryana,Jind,"Police Lines, Jind - HSPCB",20-03-2024 22:00:00,29.307814,76.337619,PM2.5,38,88,60
India,Haryana,Jind,"Police Lines, Jind - HSPCB",20-03-2024 22:00:00,29.307814,76.337619,NO2,7,15,11
India,Haryana,Jind,"Police Lines, Jind - HSPCB",20-03-2024 22:00:00,29.307814,76.337619,SO2,4,31,19
India,Haryana,Jind,"Police Lines, Jind - HSPCB",20-03-2024 22:00:00,29.307814,76.337619,OZONE,15,25,22
India,Haryana,Kaithal,"Rishi Nagar, Kaithal - HSPCB",20-03-2024 22:00:00,29.8006,76.4155,NH3,8,8,8
India,Haryana,Kaithal,"Rishi Nagar, Kaithal - HSPCB",20-03-2024 22:00:00,29.8006,76.4155,CO,2,36,14
India,Haryana,Karnal,"Sector-12, Karnal - HSPCB",20-03-2024 22:00:00,29.695300,77.002700,PM2.5,NA,NA,NA
India,Haryana,Kurukshetra,"Sector-7, Kurukshetra - HSPCB",20-03-2024 22:00:00,29.966942,76.875879,PM10,81,141,111
India,Haryana,Kurukshetra,"Sector-7, Kurukshetra - HSPCB",20-03-2024 22:00:00,29.966942,76.875879,OZONE,12,73,60
India,Haryana,Mandikhera,"General Hospital, Mandikhera - HSPCB",20-03-2024 22:00:00,27.9002,76.9938,PM10,76,146,101
India,Haryana,Manesar,"Sector-2 IMT, Manesar - HSPCB",20-03-2024 22:00:00,28.360699,76.936090,NO2,14,23,18
India,Haryana,Manesar,"Sector-2 IMT, Manesar - HSPCB",20-03-2024 22:00:00,28.360699,76.936090,SO2,3,11,7
India,Haryana,Narnaul,"Shastri Nagar, Narnaul - HSPCB",20-03-2024 22:00:00,28.060249,76.113115,NO2,12,75,35
India,Haryana,Palwal,"Shyam Nagar, Palwal - HSPCB",20-03-2024 22:00:00,28.1485564,77.3320667,NO2,23,24,24
India,Haryana,Panchkula,"Sector-6, Panchkula - HSPCB ",20-03-2024 22:00:00,30.7057778,76.8531805555555,SO2,11,12,12
India,Haryana,Panipat,"Sector-18, Panipat - HSPCB",20-03-2024 22:00:00,29.497973,76.993331,PM2.5,113,120,116
India,Haryana,Rohtak,"MD University, Rohtak - HSPCB",20-03-2024 22:00:00,28.52123,76.37138,NO2,48,58,51
India,Haryana,Rohtak,"MD University, Rohtak - HSPCB",20-03-2024 22:00:00,28.52123,76.37138,SO2,5,9,7
India,Haryana,Sirsa,"F-Block, Sirsa - HSPCB",20-03-2024 22:00:00,29.536400,75.015800,PM10,25,144,94
India,Haryana,Sirsa,"F-Block, Sirsa - HSPCB",20-03-2024 22:00:00,29.536400,75.015800,NH3,12,13,13
India,Haryana,Sirsa,"F-Block, Sirsa - HSPCB",20-03-2024 22:00:00,29.536400,75.015800,SO2,1,12,6
India,Haryana,Yamuna Nagar,"Gobind Pura, Yamuna Nagar - HSPCB",20-03-2024 22:00:00,30.1480566,77.2893471,PM10,NA,NA,NA
India,Haryana,Yamuna Nagar,"Gobind Pura, Yamuna Nagar - HSPCB",20-03-2024 22:00:00,30.1480566,77.2893471,CO,2,89,42
India,Himachal Pradesh,Baddi,"HIMUDA Complex Phase-1, Baddi - HPPCB",20-03-2024 22:00:00,30.943887,76.801991,PM2.5,5,200,55
India,Jharkhand,Dhanbad,"Kalakusuma, Dhanbad - DMC",20-03-2024 22:00:00,23.811548,86.481238,OZONE,10,25,19
India,Jharkhand,Dhanbad,"Sardar Patel Nagar, Dhanbad - JSPCB",20-03-2024 22:00:00,23.80569,86.44268,PM10,NA,NA,NA
India,Jharkhand,Dhanbad,"Sardar Patel Nagar, Dhanbad - JSPCB",20-03-2024 22:00:00,23.80569,86.44268,SO2,NA,NA,NA
India,Jharkhand,Pathardih,"Mohalbani Ghat, Pathardih - DMC",20-03-2024 22:00:00,23.669880,86.411725,PM2.5,NA,NA,NA
India,Karnataka,Bagalkot,"Vidayagiri, Bagalkot - KSPCB",20-03-2024 22:00:00,16.172806,75.659694,NH3,1,2,1
India,Karnataka,Bagalkot,"Vidayagiri, Bagalkot - KSPCB",20-03-2024 22:00:00,16.172806,75.659694,CO,18,53,35
India,Karnataka,Bengaluru,"BTM Layout, Bengaluru - CPCB",20-03-2024 22:00:00,12.9135218,77.5950804,NO2,27,38,29
India,Karnataka,Bengaluru,"Hebbal, Bengaluru - KSPCB",20-03-2024 22:00:00,13.029152,77.585901,OZONE,15,90,90
India,Karnataka,Bengaluru,"Hombegowda Nagar, Bengaluru - KSPCB",20-03-2024 22:00:00,12.938539,77.590100,OZONE,4,5,4
India,Karnataka,Bengaluru,"Jayanagar 5th Block, Bengaluru - KSPCB",20-03-2024 22:00:00,12.920984,77.584908,NH3,3,5,4
India,Karnataka,Bengaluru,"Jigani, Bengaluru - KSPCB",20-03-2024 22:00:00,12.7816279,77.6299145,NH3,4,4,4
India,Karnataka,Bengaluru,"Kasturi Nagar, Bengaluru - KSPCB",20-03-2024 22:00:00,13.003872,77.664217,NO2,16,17,17
India,Karnataka,Bengaluru,"Kasturi Nagar, Bengaluru - KSPCB",20-03-2024 22:00:00,13.003872,77.664217,OZONE,32,172,111
India,Karnataka,Bengaluru,"Peenya, Bengaluru - CPCB",20-03-2024 22:00:00,13.0270199,77.494094,NH3,3,4,3
India,Karnataka,Bengaluru,"Peenya, Bengaluru - CPCB",20-03-2024 22:00:00,13.0270199,77.494094,CO,20,46,38
India,Karnataka,Bengaluru,"RVCE-Mailasandra, Bengaluru - KSPCB",20-03-2024 22:00:00,12.921418,77.502466,PM2.5,136,343,254
India,Karnataka,Bengaluru,"Silk Board, Bengaluru - KSPCB",20-03-2024 22:00:00,12.917348,77.622813,NH3,6,9,7
India,Karnataka,Bidar,"Naubad, Bidar - KSPCB",20-03-2024 22:00:00,17.930306,77.482194,NO2,7,9,8
India,Karnataka,Chikkaballapur,"Chikkaballapur Rural, Chikkaballapur - KSPCB",20-03-2024 22:00:00,13.428828,77.731418,NO2,8,18,11
India,Karnataka,Chikkaballapur,"Chikkaballapur Rural, Chikkaballapur - KSPCB",20-03-2024 22:00:00,13.428828,77.731418,SO2,10,61,24
India,Karnataka,Chikkamagaluru,"Kalyana Nagara, Chikkamagaluru - KSPCB",20-03-2024 22:00:00,13.328028,75.797056,CO,11,116,29
India,Karnataka,Dharwad,"Kalabhavan, Dharwad - KSPCB",20-03-2024 22:00:00,15.459706,75.008381,PM2.5,38,77,57
India,Karnataka,Gadag,"Panchal Nagar, Gadag - KSPCB",20-03-2024 22:00:00,15.411456,75.638133,CO,43,60,48
India,Karnataka,Gadag,"Panchal Nagar, Gadag - KSPCB",20-03-2024 22:00:00,15.411456,75.638133,OZONE,26,105,90
India,Karnataka,Hassan,"B.Katihalli, Hassan - KSPCB",20-03-2024 22:00:00,13.008556,76.125258,SO2,6,22,17
India,Karnataka,Hassan,"B.Katihalli, Hassan - KSPCB",20-03-2024 22:00:00,13.008556,76.125258,OZONE,4,34,14
India,Karnataka,Haveri,"Ashwini Nagar, Haveri - KSPCB",20-03-2024 22:00:00,14.791800,75.389600,PM2.5,NA,NA,NA
India,Karnataka,Haveri,"Ashwini Nagar, Haveri - KSPCB",20-03-2024 22:00:00,14.791800,75.389600,NH3,NA,NA,NA
India,Karnataka,Haveri,"Ashwini Nagar, Haveri - KSPCB",20-03-2024 22:00:00,14.791800,75.389600,CO,25,37,26
India,Karnataka,Hubballi,"Deshpande Nagar, Hubballi - KSPCB",20-03-2024 22:00:00,15.351773,75.140726,NH3,4,5,4
India,Karnataka,Hubballi,"Lingaraj Nagar, Hubballi - KSPCB",20-03-2024 22:00:00,15.3714823,75.1160168,NH3,NA,NA,NA
India,Karnataka,Hubballi,"Lingaraj Nagar, Hubballi - KSPCB",20-03-2024 22:00:00,15.3714823,75.1160168,SO2,NA,NA,NA
India,Karnataka,Kalaburagi,"Lal Bahadur Shastri Nagar, Kalaburagi - KSPCB",20-03-2024 22:00:00,17.321993,76.822628,SO2,14,17,15
India,Karnataka,Kalaburagi,"Mahatma Basaveswar Colony, Kalaburgi - KSPCB",20-03-2024 22:00:00,17.336318,76.847397,OZONE,10,24,19
India,Karnataka,Kolar,"Tamaka Ind. Area, Kolar - KSPCB",20-03-2024 22:00:00,13.1276288,78.1570122,NO2,20,32,26
India,Karnataka,Kolar,"Tamaka Ind. Area, Kolar - KSPCB",20-03-2024 22:00:00,13.1276288,78.1570122,OZONE,13,15,15
India,Karnataka,Koppal,"Diwator Nagar, Koppal - KSPCB",20-03-2024 22:00:00,15.347630,76.181767,NO2,1,23,11
India,Karnataka,Madikeri,"Stuart Hill, Madikeri - KSPCB",20-03-2024 22:00:00,12.415911,75.735050,NH3,1,1,1
India,Karnataka,Madikeri,"Stuart Hill, Madikeri - KSPCB",20-03-2024 22:00:00,12.415911,75.735050,OZONE,35,54,46
India,Karnataka,Mangalore,"Kadri, Mangalore - KSPCB",20-03-2024 22:00:00,12.889250,74.853000,NO2,5,6,6
India,Karnataka,Mangalore,"Kadri, Mangalore - KSPCB",20-03-2024 22:00:00,12.889250,74.853000,OZONE,29,34,31
India,Karnataka,Mysuru,"Hebbal 1st Stage, Mysuru - KSPCB",20-03-2024 22:00:00,12.21041,76.37376,OZONE,11,87,64
India,Karnataka,Raichur,"Haji Colony, Raichur - KSPCB",20-03-2024 22:00:00,16.208139,77.348417,NO2,NA,NA,NA
India,Karnataka,Raichur,"Haji Colony, Raichur - KSPCB",20-03-2024 22:00:00,16.208139,77.348417,SO2,NA,NA,NA
India,Karnataka,Raichur,"Haji Colony, Raichur - KSPCB",20-03-2024 22:00:00,16.208139,77.348417,OZONE,73,266,139
India,Karnataka,Ramanagara,"Vijay Nagar, Ramanagara - KSPCB",20-03-2024 22:00:00,12.733409,77.298051,NO2,4,13,7
India,Karnataka,Shivamogga,"Vinoba Nagara, Shivamogga - KSPCB",20-03-2024 22:00:00,13.940000,75.555917,CO,12,46,29
India,Karnataka,Udupi,"Brahmagiri, Udupi - KSPCB",20-03-2024 22:00:00,13.34194444,74.74694444,PM10,77,127,98
India,Karnataka,Udupi,"Brahmagiri, Udupi - KSPCB",20-03-2024 22:00:00,13.34194444,74.74694444,OZONE,23,24,23
India,Karnataka,Vijayapura,"Ibrahimpur, Vijayapura - KSPCB",20-03-2024 22:00:00,16.802639,75.722694,NH3,2,2,2
India,Karnataka,Yadgir,"Collector Office, Yadgir - KSPCB",20-03-2024 22:00:00,16.7602,77.1428,SO2,10,36,20
India,Kerala,Kannur,"Thavakkara, Kannur - Kerala PCB",20-03-2024 22:00:00,11.875000,75.373200,PM10,65,73,70
India,Kerala,Kannur,"Thavakkara, Kannur - Kerala PCB",20-03-2024 22:00:00,11.875000,75.373200,OZONE,32,36,33
India,Kerala,Kollam,"Polayathode, Kollam - Kerala PCB",20-03-2024 22:00:00,8.8787,76.6073,SO2,1,28,5
India,Kerala,Kollam,"Polayathode, Kollam - Kerala PCB",20-03-2024 22:00:00,8.8787,76.6073,OZONE,30,37,35
India,Kerala,Thiruvananthapuram,"Kariavattom, Thiruvananthapuram - Kerala PCB",20-03-2024 22:00:00,8.563700,76.886500,NO2,8,9,9
India,Kerala,Thiruvananthapuram,"Kariavattom, Thiruvananthapuram - Kerala PCB",20-03-2024 22:00:00,8.563700,76.886500,NH3,1,1,1
India,Kerala,Thiruvananthapuram,"Plammoodu, Thiruvananthapuram - Kerala PCB",20-03-2024 22:00:00,8.5149093,76.9435879,PM10,NA,NA,NA
India,Kerala,Thiruvananthapuram,"Plammoodu, Thiruvananthapuram - Kerala PCB",20-03-2024 22:00:00,8.5149093,76.9435879,NO2,8,10,9
India,Kerala,Thiruvananthapuram,"Plammoodu, Thiruvananthapuram - Kerala PCB",20-03-2024 22:00:00,8.5149093,76.9435879,NH3,2,2,2
India,Kerala,Thiruvananthapuram,"Plammoodu, Thiruvananthapuram - Kerala PCB",20-03-2024 22:00:00,8.5149093,76.9435879,OZONE,13,33,25
India,Kerala,Thrissur,"Corporation Ground, Thrissur - Kerala PCB",20-03-2024 22:00:00,10.532400,76.215900,PM10,57,67,64
India,Madhya Pradesh,Bhopal,"Idgah Hills, Bhopal - MPPCB",20-03-2024 22:00:00,23.264759,77.381568,PM10,60,128,83
India,Madhya Pradesh,Bhopal,"Idgah Hills, Bhopal - MPPCB",20-03-2024 22:00:00,23.264759,77.381568,SO2,12,20,20
India,Madhya Pradesh,Bhopal,"Idgah Hills, Bhopal - MPPCB",20-03-2024 22:00:00,23.264759,77.381568,CO,20,38,29
India,Madhya Pradesh,Bhopal,"T T Nagar, Bhopal - MPPCB",20-03-2024 22:00:00,23.233584,77.400574,SO2,13,62,34
India,Madhya Pradesh,Gwalior,"City Center, Gwalior - MPPCB",20-03-2024 22:00:00,26.203442,78.193251,PM10,104,255,146
India,Madhya Pradesh,Gwalior,"City Center, Gwalior - MPPCB",20-03-2024 22:00:00,26.203442,78.193251,NH3,1,13,10
India,Madhya Pradesh,Gwalior,"Maharaj Bada, Gwalior - MPPCB",20-03-2024 22:00:00,26.200388,78.147714,OZONE,5,222,123
India,Madhya Pradesh,Indore,"Chhoti Gwaltoli, Indore - MPPCB",20-03-2024 22:00:00,22.4310,75.5213,CO,62,155,93
India,Madhya Pradesh,Indore,"Maguda Nagar, Indore - IMC",20-03-2024 22:00:00,22.7524,75.8872,NO2,NA,NA,NA
India,Madhya Pradesh,Indore,"Maguda Nagar, Indore - IMC",20-03-2024 22:00:00,22.7524,75.8872,SO2,NA,NA,NA
India,Madhya Pradesh,Indore,"Maguda Nagar, Indore - IMC",20-03-2024 22:00:00,22.7524,75.8872,OZONE,35,45,42
India,Madhya Pradesh,Indore,"Regional Park, Indore - IMC",20-03-2024 22:00:00,22.6780,75.8559,NO2,NA,NA,NA
India,Madhya Pradesh,Indore,"Residency Area, Indore - IMC",20-03-2024 22:00:00,22.7084,75.8815,SO2,NA,NA,NA
India,Madhya Pradesh,Jabalpur,"Govindh Bhavan Colony, Jabalpur - JMC",20-03-2024 22:00:00,23.163174,79.973061,PM10,17,80,43
India,Madhya Pradesh,Jabalpur,"Marhatal, Jabalpur - MPPCB",20-03-2024 22:00:00,23.168606,79.932247,PM10,24,183,62
India,Madhya Pradesh,Jabalpur,"Marhatal, Jabalpur - MPPCB",20-03-2024 22:00:00,23.168606,79.932247,NO2,10,112,32
India,Madhya Pradesh,Jabalpur,"Marhatal, Jabalpur - MPPCB",20-03-2024 22:00:00,23.168606,79.932247,SO2,11,17,13
India,Madhya Pradesh,Jabalpur,"Marhatal, Jabalpur - MPPCB",20-03-2024 22:00:00,23.168606,79.932247,CO,1,136,93
India,Madhya Pradesh,Jabalpur,"Suhagi, Jabalpur - JMC",20-03-2024 22:00:00,23.218135,79.957770,PM2.5,NA,NA,NA
India,Madhya Pradesh,Katni,"Gole Bazar, Katni - MPPCB",20-03-2024 22:00:00,23.50016,80.23284,CO,22,86,26
India,Madhya Pradesh,Katni,"Gole Bazar, Katni - MPPCB",20-03-2024 22:00:00,23.50016,80.23284,OZONE,15,105,87
India,Madhya Pradesh,Mandideep,"Sector-D Industrial Area, Mandideep - MPPCB",20-03-2024 22:00:00,23.108440,77.511428,PM2.5,50,365,174
India,Madhya Pradesh,Mandideep,"Sector-D Industrial Area, Mandideep - MPPCB",20-03-2024 22:00:00,23.108440,77.511428,PM10,76,414,187
India,Madhya Pradesh,Ratlam,"Shasthri Nagar, Ratlam - IPCA Lab",20-03-2024 22:00:00,23.331731,75.045981,PM2.5,15,207,69
India,Madhya Pradesh,Ratlam,"Shasthri Nagar, Ratlam - IPCA Lab",20-03-2024 22:00:00,23.331731,75.045981,PM10,92,423,170
India,Madhya Pradesh,Sagar,"Civil Lines, Sagar - MPPCB",20-03-2024 22:00:00,23.838586,78.759431,PM10,59,157,89
India,Madhya Pradesh,Sagar,"Civil Lines, Sagar - MPPCB",20-03-2024 22:00:00,23.838586,78.759431,OZONE,24,141,89
India,Madhya Pradesh,Satna,"Bandhavgar Colony, Satna - Birla Cement",20-03-2024 22:00:00,24.58434363,80.8549414,SO2,1,23,4
India,Madhya Pradesh,Singrauli,"Suryakiran Bhawan NCL, Singrauli - MPPCB",20-03-2024 22:00:00,24.108970,82.645580,PM2.5,21,139,59
India,Madhya Pradesh,Singrauli,"Suryakiran Bhawan NCL, Singrauli - MPPCB",20-03-2024 22:00:00,24.108970,82.645580,CO,32,80,66
India,Madhya Pradesh,Singrauli,"Suryakiran Bhawan NCL, Singrauli - MPPCB",20-03-2024 22:00:00,24.108970,82.645580,OZONE,11,60,42
India,Madhya Pradesh,Ujjain,"Mahakaleshwar Temple, Ujjain - MPPCB",20-03-2024 22:00:00,23.182719 ,75.768218 ,NO2,9,90,43
India,Madhya Pradesh,Ujjain,"Mahakaleshwar Temple, Ujjain - MPPCB",20-03-2024 22:00:00,23.182719 ,75.768218 ,CO,6,119,49
India,Maharashtra,Ahmednagar,"Tarakpur, Ahmednagar - MPCB",20-03-2024 22:00:00,19.10122,74.73339,PM2.5,53,141,81
India,Maharashtra,Ahmednagar,"Tarakpur, Ahmednagar - MPCB",20-03-2024 22:00:00,19.10122,74.73339,PM10,82,291,117
India,Maharashtra,Ahmednagar,"Tarakpur, Ahmednagar - MPCB",20-03-2024 22:00:00,19.10122,74.73339,OZONE,7,171,104
India,Maharashtra,Akola,"Ramdaspeth, Akola - MPCB",20-03-2024 22:00:00,20.719516,77.000253,OZONE,2,82,41
India,Maharashtra,Amravati,"Shivneri Colony, Amravati - MPCB",20-03-2024 22:00:00,20.9402359,77.7895248,NO2,14,34,22
India,Maharashtra,Amravati,"Shivneri Colony, Amravati - MPCB",20-03-2024 22:00:00,20.9402359,77.7895248,SO2,22,23,22
India,Maharashtra,Amravati,"Shivneri Colony, Amravati - MPCB",20-03-2024 22:00:00,20.9402359,77.7895248,OZONE,37,131,99
India,Maharashtra,Amravati,"Shri Shivaji Science College, Amaravati - MPCB",20-03-2024 22:00:00,20.939198,77.765701,PM10,68,342,103
India,Maharashtra,Amravati,"Shri Shivaji Science College, Amaravati - MPCB",20-03-2024 22:00:00,20.939198,77.765701,SO2,1,21,5
India,Maharashtra,Aurangabad,"MIDC Chilkalthana, Aurangabad - MPCB",20-03-2024 22:00:00,19.875620,75.387310,PM10,63,129,93
India,Maharashtra,Aurangabad,"MIDC Chilkalthana, Aurangabad - MPCB",20-03-2024 22:00:00,19.875620,75.387310,SO2,3,11,6
India,Maharashtra,Aurangabad,"More Chowk Waluj, Aurangabad - MPCB",20-03-2024 22:00:00,19.8389439,75.244448,PM10,28,102,68
India,Maharashtra,Aurangabad,"More Chowk Waluj, Aurangabad - MPCB",20-03-2024 22:00:00,19.8389439,75.244448,SO2,1,3,2
India,Maharashtra,Aurangabad,"More Chowk Waluj, Aurangabad - MPCB",20-03-2024 22:00:00,19.8389439,75.244448,CO,2,52,18
India,Maharashtra,Aurangabad,"More Chowk Waluj, Aurangabad - MPCB",20-03-2024 22:00:00,19.8389439,75.244448,OZONE,10,77,59
India,Maharashtra,Aurangabad,"Rachnakar Colony, Aurangabad - MPCB",20-03-2024 22:00:00,19.863756,75.321188,SO2,2,38,15
India,Maharashtra,Badlapur,"Katrap, Badlapur - MPCB",20-03-2024 22:00:00,19.16485,73.23409,NO2,1,12,6
India,Maharashtra,Badlapur,"Katrap, Badlapur - MPCB",20-03-2024 22:00:00,19.16485,73.23409,NH3,2,4,3
India,Maharashtra,Bhiwandi,"Gokul Nagar, Bhiwandi - MPCB",20-03-2024 22:00:00,19.309073,73.057223,NO2,17,85,48
India,Maharashtra,Bhiwandi,"Gokul Nagar, Bhiwandi - MPCB",20-03-2024 22:00:00,19.309073,73.057223,CO,14,111,22
India,Maharashtra,Chandrapur,"Chauhan Colony, Chandrapur - MPCB",20-03-2024 22:00:00,19.962900,79.298714,PM2.5,38,95,62
India,Maharashtra,Chandrapur,"MIDC Khutala, Chandrapur - MPCB",20-03-2024 22:00:00,19.9775302,79.2337086,NH3,NA,NA,NA
India,Maharashtra,Chandrapur,"MIDC Khutala, Chandrapur - MPCB",20-03-2024 22:00:00,19.9775302,79.2337086,CO,12,42,26
India,Maharashtra,Dhule,"Deopur, Dhule - MPCB",20-03-2024 22:00:00,20.918946,74.776388,PM10,68,252,113
India,Maharashtra,Dhule,"Deopur, Dhule - MPCB",20-03-2024 22:00:00,20.918946,74.776388,NH3,3,16,4
India,Maharashtra,Jalgaon,"Prabhat Colony, Jalgaon - MPCB",20-03-2024 22:00:00,21.001264,75.565602,NH3,2,8,5
India,Maharashtra,Jalgaon,"Prabhat Colony, Jalgaon - MPCB",20-03-2024 22:00:00,21.001264,75.565602,CO,14,100,40
India,Maharashtra,Jalna,"Old MIDC, Jalna - MPCB",20-03-2024 22:00:00,19.854616,75.905894,PM2.5,13,242,112
India,Maharashtra,Kalyan,"Khadakpada, Kalyan - MPCB",20-03-2024 22:00:00,19.25292,73.142019,NO2,29,63,43
India,Maharashtra,Kolhapur,"Shivaji University, Kolhapur - MPCB",20-03-2024 22:00:00,16.6870449,74.2505872,PM2.5,135,219,172
India,Maharashtra,Kolhapur,"Shivaji University, Kolhapur - MPCB",20-03-2024 22:00:00,16.6870449,74.2505872,PM10,95,224,139
India,Maharashtra,Kolhapur,"Shivaji University, Kolhapur - MPCB",20-03-2024 22:00:00,16.6870449,74.2505872,OZONE,6,111,68
India,Maharashtra,Kolhapur,"Sinchan Bhavan, Kolhapur - MPCB",20-03-2024 22:00:00,16.7143745,74.2426398,NO2,16,123,47
India,Maharashtra,Kolhapur,"Sinchan Bhavan, Kolhapur - MPCB",20-03-2024 22:00:00,16.7143745,74.2426398,SO2,1,17,5
India,Maharashtra,Mahad,"Kamble Tarf Birwadi, Mahad - MPCB",20-03-2024 22:00:00,18.1023399,73.4783687,PM2.5,71,410,177
India,Maharashtra,Mahad,"Kamble Tarf Birwadi, Mahad - MPCB",20-03-2024 22:00:00,18.1023399,73.4783687,NH3,10,16,11
India,Maharashtra,Mahad,"Kamble Tarf Birwadi, Mahad - MPCB",20-03-2024 22:00:00,18.1023399,73.4783687,SO2,11,132,31
India,Maharashtra,Mahad,"Kamble Tarf Birwadi, Mahad - MPCB",20-03-2024 22:00:00,18.1023399,73.4783687,CO,11,62,26
India,Maharashtra,Malegaon,"Mahesh Nagar, Malegaon - MPCB",20-03-2024 22:00:00,20.555712,74.529236,PM2.5,60,314,112
India,Maharashtra,Malegaon,"Mahesh Nagar, Malegaon - MPCB",20-03-2024 22:00:00,20.555712,74.529236,SO2,2,24,6
India,Maharashtra,Malegaon,"Mahesh Nagar, Malegaon - MPCB",20-03-2024 22:00:00,20.555712,74.529236,OZONE,5,60,38
India,Maharashtra,Mira-Bhayandar,"Bhayandar West, Mira-Bhayandar - MPCB",20-03-2024 22:00:00,19.296481,72.840923,PM10,112,309,162
India,Maharashtra,Mira-Bhayandar,"Bhayandar West, Mira-Bhayandar - MPCB",20-03-2024 22:00:00,19.296481,72.840923,SO2,1,22,7
India,Maharashtra,Mumbai,"Bandra Kurla Complex, Mumbai - MPCB",20-03-2024 22:00:00,19.065931,72.862131,OZONE,2,171,72
India,Maharashtra,Mumbai,"Byculla, Mumbai - BMC",20-03-2024 22:00:00,18.9767,72.8380,SO2,2,28,9
India,Maharashtra,Mumbai,"Byculla, Mumbai - BMC",20-03-2024 22:00:00,18.9767,72.8380,CO,17,62,22
India,Maharashtra,Mumbai,"Chakala-Andheri East, Mumbai - IITM",20-03-2024 22:00:00,19.11074,72.86084,PM2.5,47,100,72
India,Maharashtra,Mumbai,"Chembur, Mumbai - MPCB",20-03-2024 22:00:00,19.0364585,72.8954371,SO2,1,26,7
India,Maharashtra,Mumbai,"Chhatrapati Shivaji Intl. Airport (T2), Mumbai - MPCB",20-03-2024 22:00:00,19.10078,72.87462,NO2,1,60,39
India,Maharashtra,Mumbai,"Colaba, Mumbai - MPCB",20-03-2024 22:00:00,18.910000,72.820000,CO,13,22,14
India,Maharashtra,Mumbai,"Ghatkopar, Mumbai - BMC",20-03-2024 22:00:00,19.083694,72.920967,NH3,1,9,5
India,Maharashtra,Mumbai,"Kandivali East, Mumbai - MPCB",20-03-2024 22:00:00,19.205800,72.868200,CO,92,115,101
India,Maharashtra,Mumbai,"Kandivali West, Mumbai - BMC",20-03-2024 22:00:00,19.215859,72.831718,NO2,12,75,37
India,Maharashtra,Mumbai,"Kandivali West, Mumbai - BMC",20-03-2024 22:00:00,19.215859,72.831718,NH3,1,2,1
India,Maharashtra,Mumbai,"Kandivali West, Mumbai - BMC",20-03-2024 22:00:00,19.215859,72.831718,CO,10,47,21
India,Maharashtra,Mumbai,"Kandivali West, Mumbai - BMC",20-03-2024 22:00:00,19.215859,72.831718,OZONE,1,75,44
India,Maharashtra,Mumbai,"Kherwadi_Bandra East, Mumbai - MPCB",20-03-2024 22:00:00,19.0632143,72.8456324,PM2.5,60,198,99
India,Maharashtra,Mumbai,"Kurla, Mumbai - MPCB",20-03-2024 22:00:00,19.0863,72.8888,PM2.5,58,254,98
India,Maharashtra,Mumbai,"Kurla, Mumbai - MPCB",20-03-2024 22:00:00,19.0863,72.8888,PM10,58,151,86
India,Maharashtra,Mumbai,"Kurla, Mumbai - MPCB",20-03-2024 22:00:00,19.0863,72.8888,OZONE,28,69,47
India,Maharashtra,Mumbai,"Mazgaon, Mumbai - IITM",20-03-2024 22:00:00,18.96702,72.84214,NO2,54,203,115
India,Maharashtra,Mumbai,"Mindspace-Malad West, Mumbai - MPCB",20-03-2024 22:00:00,19.1878657,72.8304069,SO2,NA,NA,NA
India,Maharashtra,Mumbai,"Mindspace-Malad West, Mumbai - MPCB",20-03-2024 22:00:00,19.1878657,72.8304069,OZONE,34,116,62
India,Maharashtra,Mumbai,"Mulund West, Mumbai - MPCB",20-03-2024 22:00:00,19.1750,72.9419,NO2,21,27,23
India,Maharashtra,Mumbai,"Mulund West, Mumbai - MPCB",20-03-2024 22:00:00,19.1750,72.9419,CO,33,34,33
India,Maharashtra,Mumbai,"Navy Nagar-Colaba, Mumbai - IITM",20-03-2024 22:00:00,18.897756,72.813320,PM10,82,214,126
India,Maharashtra,Mumbai,"Powai, Mumbai - MPCB",20-03-2024 22:00:00,19.137500,72.915056,NO2,18,74,32
India,Maharashtra,Mumbai,"Sewri, Mumbai - BMC",20-03-2024 22:00:00,19.000084,72.856730,PM2.5,41,96,66
India,Maharashtra,Mumbai,"Shivaji Nagar, Mumbai - BMC",20-03-2024 22:00:00,19.060498,72.923356,NO2,33,130,85
India,Maharashtra,Mumbai,"Shivaji Nagar, Mumbai - BMC",20-03-2024 22:00:00,19.060498,72.923356,NH3,3,9,5
India,Maharashtra,Mumbai,"Shivaji Nagar, Mumbai - BMC",20-03-2024 22:00:00,19.060498,72.923356,CO,5,92,24
India,Maharashtra,Mumbai,"Shivaji Nagar, Mumbai - BMC",20-03-2024 22:00:00,19.060498,72.923356,OZONE,1,114,65
India,Maharashtra,Mumbai,"Siddharth Nagar-Worli, Mumbai - IITM",20-03-2024 22:00:00,19.000083,72.813993,OZONE,16,166,90
India,Maharashtra,Mumbai,"Vasai West, Mumbai - MPCB",20-03-2024 22:00:00,19.383200,72.820400,PM2.5,30,232,86
India,Maharashtra,Mumbai,"Vasai West, Mumbai - MPCB",20-03-2024 22:00:00,19.383200,72.820400,OZONE,13,96,56
India,Maharashtra,Mumbai,"Worli, Mumbai - MPCB",20-03-2024 22:00:00,18.9936162,72.8128113,NO2,15,16,15
India,Maharashtra,Nagpur,"Ambazari, Nagpur - MPCB",20-03-2024 22:00:00,21.121801,79.04952,PM2.5,56,82,71
India,Maharashtra,Nagpur,"Mahal, Nagpur - MPCB",20-03-2024 22:00:00,21.14472,79.107595,PM2.5,42,71,57
India,Maharashtra,Nagpur,"Mahal, Nagpur - MPCB",20-03-2024 22:00:00,21.14472,79.107595,SO2,2,29,16
India,Maharashtra,Nagpur,"Ram Nagar, Nagpur - MPCB",20-03-2024 22:00:00,21.143383,79.048912,PM2.5,34,78,56
India,Maharashtra,Nagpur,"Ram Nagar, Nagpur - MPCB",20-03-2024 22:00:00,21.143383,79.048912,CO,10,54,26
India,Maharashtra,Nanded,"Sneh Nagar, Nanded - MPCB",20-03-2024 22:00:00,19.173852,77.296291,NH3,1,2,1
India,Maharashtra,Nashik,"Gangapur Road, Nashik - MPCB",20-03-2024 22:00:00,20.0073285,73.7762427,NO2,11,39,18
India,Maharashtra,Nashik,"Gangapur Road, Nashik - MPCB",20-03-2024 22:00:00,20.0073285,73.7762427,SO2,1,15,5
India,Maharashtra,Nashik,"Gangapur Road, Nashik - MPCB",20-03-2024 22:00:00,20.0073285,73.7762427,OZONE,2,61,55
India,Maharashtra,Nashik,"Hirawadi, Nashik - MPCB",20-03-2024 22:00:00,20.021503,73.813844,NO2,3,106,38
India,Maharashtra,Nashik,"Hirawadi, Nashik - MPCB",20-03-2024 22:00:00,20.021503,73.813844,NH3,1,3,2
India,Maharashtra,Nashik,"Hirawadi, Nashik - MPCB",20-03-2024 22:00:00,20.021503,73.813844,SO2,5,13,9
India,Maharashtra,Nashik,"MIDC Ambad, Nashik - MPCB",20-03-2024 22:00:00,19.950220,73.731480,PM2.5,40,115,72
India,Maharashtra,Nashik,"MIDC Ambad, Nashik - MPCB",20-03-2024 22:00:00,19.950220,73.731480,NO2,10,105,33
India,Maharashtra,Nashik,"Pandav Nagari, Nashik - MPCB",20-03-2024 22:00:00,19.9591346,73.7788008,NO2,4,96,22
India,Maharashtra,Navi Mumbai,"Kopripada-Vashi, Navi Mumbai - MPCB",20-03-2024 22:00:00,19.090337,73.014232,NO2,29,141,88
India,Maharashtra,Navi Mumbai,"Kopripada-Vashi, Navi Mumbai - MPCB",20-03-2024 22:00:00,19.090337,73.014232,NH3,3,45,19
India,Maharashtra,Navi Mumbai,"Kopripada-Vashi, Navi Mumbai - MPCB",20-03-2024 22:00:00,19.090337,73.014232,OZONE,7,99,46
India,Maharashtra,Navi Mumbai,"Mahape, Navi Mumbai - MPCB",20-03-2024 22:00:00,19.1135051,73.008978,PM2.5,33,340,127
India,Maharashtra,Navi Mumbai,"Mahape, Navi Mumbai - MPCB",20-03-2024 22:00:00,19.1135051,73.008978,NO2,37,40,38
India,Maharashtra,Navi Mumbai,"Sanpada, Navi Mumbai - MPCB",20-03-2024 22:00:00,19.0575752,73.0151367,PM2.5,46,275,115
India,Maharashtra,Navi Mumbai,"Sanpada, Navi Mumbai - MPCB",20-03-2024 22:00:00,19.0575752,73.0151367,NH3,7,43,18
India,Maharashtra,Navi Mumbai,"Sector-2E Kalamboli, Navi Mumbai - MPCB",20-03-2024 22:00:00,19.02579,73.10297,CO,14,82,40
India,Maharashtra,Navi Mumbai,"Tondare-Taloja, Navi Mumbai - MPCB",20-03-2024 22:00:00,19.0630,73.1209,SO2,9,73,31
India,Maharashtra,Parbhani,"Masoom Colony, Parbhani - MPCB",20-03-2024 22:00:00,19.265594,76.761463,SO2,5,59,24
India,Maharashtra,Pimpri-Chinchwad,"Gavalinagar, Pimpri Chinchwad - MPCB",20-03-2024 22:00:00,18.63673,73.82487,NH3,2,17,7
India,Maharashtra,Pimpri-Chinchwad,"Park Street Wakad, Pimpri Chinchwad - MPCB",20-03-2024 22:00:00,18.59051,73.77946,PM2.5,90,246,164
India,Maharashtra,Pimpri-Chinchwad,"Park Street Wakad, Pimpri Chinchwad - MPCB",20-03-2024 22:00:00,18.59051,73.77946,CO,14,117,51
India,Maharashtra,Pimpri-Chinchwad,"Park Street Wakad, Pimpri Chinchwad - MPCB",20-03-2024 22:00:00,18.59051,73.77946,OZONE,2,76,42
India,Maharashtra,Pimpri-Chinchwad,"Thergaon, Pimpri Chinchwad - MPCB",20-03-2024 22:00:00,18.616318,73.765797,NO2,29,190,106
India,Maharashtra,Pune,"Karve Road, Pune - MPCB",20-03-2024 22:00:00,18.5011743,73.8165527,OZONE,6,7,7
India,Maharashtra,Pune,"Katraj Dairy, Pune - MPCB",20-03-2024 22:00:00,18.454450,73.854155,CO,24,104,37
India,Maharashtra,Pune,"Revenue Colony-Shivajinagar, Pune - IITM",20-03-2024 22:00:00,18.530085,73.849598,CO,104,116,112
India,Maharashtra,Pune,"Savitribai Phule Pune University, Pune - MPCB",20-03-2024 22:00:00,18.547056,73.826908,PM10,61,142,105
India,Maharashtra,Pune,"Savitribai Phule Pune University, Pune - MPCB",20-03-2024 22:00:00,18.547056,73.826908,SO2,6,17,10
India,Maharashtra,Pune,"Savitribai Phule Pune University, Pune - MPCB",20-03-2024 22:00:00,18.547056,73.826908,OZONE,1,190,121
India,Maharashtra,Pune,"Transport Nagar-Nigdi, Pune - IITM",20-03-2024 22:00:00,18.664282,73.763966,PM2.5,20,132,68
India,Maharashtra,Sangli,"Vijay Nagar, Sangli - MPCB",20-03-2024 22:00:00, 16.5038,74.3623,PM2.5,49,226,113
India,Maharashtra,Sangli,"Vijay Nagar, Sangli - MPCB",20-03-2024 22:00:00, 16.5038,74.3623,SO2,10,33,18
India,Maharashtra,Solapur,"Dnyaneshwar Nagar, Solapur - MPCB",20-03-2024 22:00:00,17.6336264,75.9132495,PM10,79,316,135
India,Maharashtra,Solapur,"Dnyaneshwar Nagar, Solapur - MPCB",20-03-2024 22:00:00,17.6336264,75.9132495,SO2,1,12,6
India,Maharashtra,Solapur,"Dnyaneshwar Nagar, Solapur - MPCB",20-03-2024 22:00:00,17.6336264,75.9132495,OZONE,25,98,70
India,Maharashtra,Solapur,"Solapur, Solapur - MPCB",20-03-2024 22:00:00,17.6599188,75.9063906,PM2.5,NA,NA,NA
India,Maharashtra,Solapur,"Solapur, Solapur - MPCB",20-03-2024 22:00:00,17.6599188,75.9063906,NO2,NA,NA,NA
India,Maharashtra,Thane,"Kasarvadavali, Thane - MPCB",20-03-2024 22:00:00,19.26777,72.97182,PM10,77,156,107
India,Maharashtra,Thane,"Kasarvadavali, Thane - MPCB",20-03-2024 22:00:00,19.26777,72.97182,NO2,39,119,76
India,Maharashtra,Thane,"Pimpleshwar Mandir, Thane - MPCB",20-03-2024 22:00:00,19.192056,72.9585188,PM10,107,187,140
India,Maharashtra,Thane,"Pimpleshwar Mandir, Thane - MPCB",20-03-2024 22:00:00,19.192056,72.9585188,NH3,3,3,3
India,Maharashtra,Thane,"Pimpleshwar Mandir, Thane - MPCB",20-03-2024 22:00:00,19.192056,72.9585188,OZONE,1,52,37
India,Maharashtra,Thane,"Upvan Fort, Thane - MPCB",20-03-2024 22:00:00,19.222279,72.957979,PM10,71,154,94
India,Maharashtra,Ulhasnagar,"Sidhi Vinayak Nagar, Ulhasnagar - MPCB",20-03-2024 22:00:00,19.235581,73.159121,SO2,3,37,14
India,Maharashtra,Virar,"Bolinj, Virar - MPCB",20-03-2024 22:00:00,19.4458210,72.7988231,SO2,6,56,18
India,Maharashtra,Virar,"Bolinj, Virar - MPCB",20-03-2024 22:00:00,19.4458210,72.7988231,CO,12,102,31
India,Manipur,Imphal,"DM College of Science, Imphal - Manipur PCB",20-03-2024 22:00:00,24.8207389,93.9423085,PM2.5,NA,NA,NA
India,Manipur,Imphal,"DM College of Science, Imphal - Manipur PCB",20-03-2024 22:00:00,24.8207389,93.9423085,PM10,NA,NA,NA
India,Manipur,Imphal,"DM College of Science, Imphal - Manipur PCB",20-03-2024 22:00:00,24.8207389,93.9423085,NH3,NA,NA,NA
India,Manipur,Imphal,"DM College of Science, Imphal - Manipur PCB",20-03-2024 22:00:00,24.8207389,93.9423085,OZONE,1,78,8
India,Meghalaya,Shillong,"Lumpyngngad, Shillong - Meghalaya PCB",20-03-2024 22:00:00,25.5586,91.8985,NO2,1,2,1
India,Meghalaya,Shillong,"Lumpyngngad, Shillong - Meghalaya PCB",20-03-2024 22:00:00,25.5586,91.8985,SO2,37,56,41
India,Meghalaya,Shillong,"Lumpyngngad, Shillong - Meghalaya PCB",20-03-2024 22:00:00,25.5586,91.8985,CO,12,25,16
India,Mizoram,Aizawl,"Sikulpuikawn, Aizawl - Mizoram PCB",20-03-2024 22:00:00,23.7176342,92.7192841,PM10,30,105,57
India,Mizoram,Aizawl,"Sikulpuikawn, Aizawl - Mizoram PCB",20-03-2024 22:00:00,23.7176342,92.7192841,NO2,1,10,2
India,Odisha,Balasore,"Kalidaspur, Balasore - OSPCB",20-03-2024 22:00:00,21.51161,86.89088,NO2,5,26,14
India,Odisha,Balasore,"Kalidaspur, Balasore - OSPCB",20-03-2024 22:00:00,21.51161,86.89088,OZONE,19,71,42
India,Odisha,Barbil,"Forest Office, Barbil - OSPCB",20-03-2024 22:00:00,22.1166054,85.3945546,PM10,13,92,34
India,Odisha,Baripada,"Meher Colony, Baripada - OSPCB",20-03-2024 22:00:00,21.941841,86.728318,SO2,5,6,5
India,Odisha,Bhubaneswar,"Lingraj Mandir, Bhubaneswar - OSPCB",20-03-2024 22:00:00,20.240790,85.836784,SO2,1,30,5
India,Odisha,Bhubaneswar,"Patia, Bhubaneswar - OSPCB",20-03-2024 22:00:00,20.34652,85.81630,NH3,1,3,2
India,Odisha,Bhubaneswar,"Patia, Bhubaneswar - OSPCB",20-03-2024 22:00:00,20.34652,85.81630,CO,66,103,71
India,Odisha,Bhubaneswar,"Patia, Bhubaneswar - OSPCB",20-03-2024 22:00:00,20.34652,85.81630,OZONE,27,78,45
India,Odisha,Byasanagar,"Ferro Chrome Colony, Byasanagar - OSPCB",20-03-2024 22:00:00,20.94185,86.11510,NO2,6,78,25
India,Odisha,Byasanagar,"Ferro Chrome Colony, Byasanagar - OSPCB",20-03-2024 22:00:00,20.94185,86.11510,SO2,4,52,16
India,Odisha,Keonjhar,"Jagamohanpur, Keonjhar - OSPCB",20-03-2024 22:00:00,21.643900,85.599355,PM2.5,14,58,32
India,Odisha,Keonjhar,"Jagamohanpur, Keonjhar - OSPCB",20-03-2024 22:00:00,21.643900,85.599355,PM10,23,71,40
India,Odisha,Keonjhar,"Jagamohanpur, Keonjhar - OSPCB",20-03-2024 22:00:00,21.643900,85.599355,NO2,11,63,26
India,Odisha,Nayagarh,"Dabuna, Nayagarh - OSPCB",20-03-2024 22:00:00,21.847279,85.416905,CO,14,24,16
India,Odisha,Rairangpur,"Divisional Forest Office, Rairangpur - OSPCB",20-03-2024 22:00:00,22.265816,86.174829,NH3,NA,NA,NA
India,Odisha,Rourkela,"Fertilizer Township, Rourkela - OSPCB",20-03-2024 22:00:00,22.18972222,84.86277778,PM10,15,52,29
India,Odisha,Rourkela,"Raghunathpali, Rourkela - OSPCB",20-03-2024 22:00:00,22.220833,84.809444,NO2,16,59,30
India,Odisha,Rourkela,"Raghunathpali, Rourkela - OSPCB",20-03-2024 22:00:00,22.220833,84.809444,NH3,2,3,3
India,Odisha,Rourkela,"Raghunathpali, Rourkela - OSPCB",20-03-2024 22:00:00,22.220833,84.809444,SO2,1,11,3
India,Odisha,Rourkela,"Sector-2, Rourkela - OSPCB",20-03-2024 22:00:00,22.24500000,84.88111111,PM2.5,23,67,43
India,Odisha,Rourkela,"Sector-2, Rourkela - OSPCB",20-03-2024 22:00:00,22.24500000,84.88111111,CO,9,36,21
India,Odisha,Talcher,"Talcher Coalfields,Talcher - OSPCB",20-03-2024 22:00:00,20.9360711,85.1707021,PM10,NA,NA,NA
India,Odisha,Talcher,"Talcher Coalfields,Talcher - OSPCB",20-03-2024 22:00:00,20.9360711,85.1707021,OZONE,1,6,1
India,Puducherry,Puducherry,"Jawahar Nagar, Puducherry - PPCC",20-03-2024 22:00:00,11.9309,79.8027,CO,18,62,24
India,Punjab,Bathinda,"Hardev Nagar, Bathinda - PPCB",20-03-2024 22:00:00,30.233011,74.907758,PM10,53,159,109
India,Punjab,Jalandhar,"Civil Line, Jalandhar - PPCB",20-03-2024 22:00:00,31.321907,75.578914,SO2,9,21,12
India,Punjab,Jalandhar,"Civil Line, Jalandhar - PPCB",20-03-2024 22:00:00,31.321907,75.578914,CO,27,109,52
India,Punjab,Khanna,"Kalal Majra, Khanna - PPCB",20-03-2024 22:00:00,30.736056 ,76.209694,NH3,14,14,14
India,Punjab,Khanna,"Kalal Majra, Khanna - PPCB",20-03-2024 22:00:00,30.736056 ,76.209694,OZONE,5,86,49
India,Punjab,Mandi Gobindgarh,"RIMT University, Mandi Gobindgarh - PPCB",20-03-2024 22:00:00,30.649961,76.331442,PM10,50,409,127
India,Punjab,Mandi Gobindgarh,"RIMT University, Mandi Gobindgarh - PPCB",20-03-2024 22:00:00,30.649961,76.331442,CO,18,36,30
India,Punjab,Mandi Gobindgarh,"RIMT University, Mandi Gobindgarh - PPCB",20-03-2024 22:00:00,30.649961,76.331442,OZONE,50,52,51
India,Punjab,Patiala,"Model Town, Patiala - PPCB",20-03-2024 22:00:00,30.349388,76.366642,SO2,9,49,20
India,Rajasthan,Alwar,"Moti Doongri, Alwar - RSPCB",20-03-2024 22:00:00,27.554793,76.611536,PM2.5,36,83,57
India,Rajasthan,Alwar,"Moti Doongri, Alwar - RSPCB",20-03-2024 22:00:00,27.554793,76.611536,CO,23,107,61
India,Rajasthan,Banswara,"Rati Talai, Banswara - RSPCB",20-03-2024 22:00:00,23.555190,74.440010,SO2,1,74,17
India,Rajasthan,Baran,"Bamboliya, Baran - RSPCB",20-03-2024 22:00:00,25.106006,76.469948,NH3,3,16,8
India,Rajasthan,Baran,"Bamboliya, Baran - RSPCB",20-03-2024 22:00:00,25.106006,76.469948,CO,20,46,27
India,Rajasthan,Barmer,"Railway Colony, Barmer - RSPCB",20-03-2024 22:00:00,25.747299,71.393989,PM2.5,7,57,25
India,Rajasthan,Barmer,"Railway Colony, Barmer - RSPCB",20-03-2024 22:00:00,25.747299,71.393989,NH3,4,10,6
India,Rajasthan,Barmer,"Railway Colony, Barmer - RSPCB",20-03-2024 22:00:00,25.747299,71.393989,OZONE,28,126,83
India,Rajasthan,Bharatpur,"Krishna Nagar, Bharatpur - RSPCB",20-03-2024 22:00:00,27.215415,77.50873,PM2.5,59,302,152
India,Rajasthan,Bhilwara,"Pratap Nagar, Bhilwara - RSPCB",20-03-2024 22:00:00,25.339605,74.618883,PM10,26,122,70
India,Rajasthan,Bhilwara,"Pratap Nagar, Bhilwara - RSPCB",20-03-2024 22:00:00,25.339605,74.618883,SO2,2,39,13
India,Rajasthan,Bhilwara,"Pratap Nagar, Bhilwara - RSPCB",20-03-2024 22:00:00,25.339605,74.618883,CO,8,108,49
India,Rajasthan,Bhiwadi,"RIICO Ind. Area III, Bhiwadi - RSPCB",20-03-2024 22:00:00,28.194909,76.862296,PM2.5,74,347,206
India,Rajasthan,Bhiwadi,"RIICO Ind. Area III, Bhiwadi - RSPCB",20-03-2024 22:00:00,28.194909,76.862296,PM10,122,286,181
India,Rajasthan,Bhiwadi,"RIICO Ind. Area III, Bhiwadi - RSPCB",20-03-2024 22:00:00,28.194909,76.862296,NH3,2,8,5
India,Rajasthan,Bhiwadi,"RIICO Ind. Area III, Bhiwadi - RSPCB",20-03-2024 22:00:00,28.194909,76.862296,CO,70,118,71
India,Rajasthan,Bhiwadi,"Vasundhara Nagar_UIT, Bhiwadi - RSPCB",20-03-2024 22:00:00,28.207266,76.829265,NO2,21,111,56
India,Rajasthan,Bikaner,"MM Ground, Bikaner - RSPCB",20-03-2024 22:00:00,28.018792,73.292658,PM10,68,334,142
India,Rajasthan,Bikaner,"MM Ground, Bikaner - RSPCB",20-03-2024 22:00:00,28.018792,73.292658,NH3,8,17,10
India,Rajasthan,Bundi,"New Colony, Bundi - RSPCB",20-03-2024 22:00:00,25.435774,75.644272,PM2.5,6,82,37
India,Rajasthan,Chittorgarh,"Shastri Nagar, Chittorgarh - RSPCB",20-03-2024 22:00:00,24.892047,74.623527,SO2,NA,NA,NA
India,Rajasthan,Churu,"Subash Chowk, Churu - RSPCB",20-03-2024 22:00:00,28.296139,74.961696,SO2,6,35,15
India,Rajasthan,Churu,"Subash Chowk, Churu - RSPCB",20-03-2024 22:00:00,28.296139,74.961696,OZONE,5,179,147
India,Rajasthan,Dausa,"Khatikan Mohalla, Dausa - RSPCB",20-03-2024 22:00:00,26.895552,76.334753,PM10,86,249,120
India,Rajasthan,Dausa,"Khatikan Mohalla, Dausa - RSPCB",20-03-2024 22:00:00,26.895552,76.334753,OZONE,52,116,85
India,Rajasthan,Dholpur,"Raja Ganj, Dholpur - RSPCB",20-03-2024 22:00:00,26.699557,77.898881,PM2.5,NA,NA,NA
India,Rajasthan,Dholpur,"Raja Ganj, Dholpur - RSPCB",20-03-2024 22:00:00,26.699557,77.898881,CO,32,64,48
India,Rajasthan,Dungarpur,"Bhoiwada, Dungarpur - RSPCB",20-03-2024 22:00:00,23.837789,73.714926,NO2,13,38,22
India,Rajasthan,Dungarpur,"Bhoiwada, Dungarpur - RSPCB",20-03-2024 22:00:00,23.837789,73.714926,CO,28,54,42
India,Rajasthan,Hanumangarh,"Housing Board, Hanumangarh - RSPCB",20-03-2024 22:00:00,29.610750,74.283608,PM10,109,500,228
India,Rajasthan,Hanumangarh,"Housing Board, Hanumangarh - RSPCB",20-03-2024 22:00:00,29.610750,74.283608,CO,24,191,62
India,Rajasthan,Jaipur,"Adarsh Nagar, Jaipur - RSPCB",20-03-2024 22:00:00,26.902909,75.836858,OZONE,22,51,41
India,Rajasthan,Jaipur,"Police Commissionerate, Jaipur - RSPCB",20-03-2024 22:00:00,26.9164092,75.7994901,CO,26,74,45
India,Rajasthan,Jaipur,"Police Commissionerate, Jaipur - RSPCB",20-03-2024 22:00:00,26.9164092,75.7994901,OZONE,25,117,76
India,Rajasthan,Jaipur,"RIICO Sitapura, Jaipur - RSPCB",20-03-2024 22:00:00,26.786682,75.827928,NH3,2,24,5
India,Rajasthan,Jaipur,"RIICO Sitapura, Jaipur - RSPCB",20-03-2024 22:00:00,26.786682,75.827928,OZONE,18,136,86
India,Rajasthan,Jaipur,"Sector-2 Murlipura, Jaipur - RSPCB",20-03-2024 22:00:00,26.960669,75.771817,PM2.5,43,226,79
India,Rajasthan,Jaipur,"Sector-2 Murlipura, Jaipur - RSPCB",20-03-2024 22:00:00,26.960669,75.771817,PM10,40,185,77
India,Rajasthan,Jaipur,"Sector-2 Murlipura, Jaipur - RSPCB",20-03-2024 22:00:00,26.960669,75.771817,NH3,2,40,9
India,Rajasthan,Jaipur,"Shastri Nagar, Jaipur - RSPCB",20-03-2024 22:00:00,26.9502929,75.730943,PM2.5,40,111,79
India,Rajasthan,Jaipur,"Shastri Nagar, Jaipur - RSPCB",20-03-2024 22:00:00,26.9502929,75.730943,PM10,76,124,102
India,Rajasthan,Jaipur,"Shastri Nagar, Jaipur - RSPCB",20-03-2024 22:00:00,26.9502929,75.730943,OZONE,30,76,62
India,Rajasthan,Jalore,"Mudtra Sili, Jalore - RSPCB",20-03-2024 22:00:00,25.344694,72.626208,PM2.5,36,82,52
India,Rajasthan,Jalore,"Mudtra Sili, Jalore - RSPCB",20-03-2024 22:00:00,25.344694,72.626208,PM10,76,152,107
India,Rajasthan,Jalore,"Mudtra Sili, Jalore - RSPCB",20-03-2024 22:00:00,25.344694,72.626208,NH3,5,9,6
India,Rajasthan,Jhalawar,"Rajlaxmi Nagar, Jhalawar - RSPCB",20-03-2024 22:00:00,24.588397,76.172782,NO2,15,39,26
India,Rajasthan,Jhalawar,"Rajlaxmi Nagar, Jhalawar - RSPCB",20-03-2024 22:00:00,24.588397,76.172782,SO2,4,35,14
India,Rajasthan,Jhunjhunu,"Indra Nagar, Jhunjhunu - RSPCB",20-03-2024 22:00:00,28.108988,75.386577,NH3,25,39,31
India,Rajasthan,Jodhpur,"Collectorate, Jodhpur - RSPCB",20-03-2024 22:00:00,26.268249,73.0193853,PM10,61,163,111
India,Rajasthan,Jodhpur,"Collectorate, Jodhpur - RSPCB",20-03-2024 22:00:00,26.268249,73.0193853,CO,24,97,60
India,Rajasthan,Jodhpur,"Digari Kalan, Jodhpur - RSPCB",20-03-2024 22:00:00,26.295810,73.082283,SO2,3,10,5
India,Rajasthan,Jodhpur,"Jhalamand, Jodhpur - RSPCB",20-03-2024 22:00:00,26.215415,73.070156,OZONE,41,139,80
India,Rajasthan,Jodhpur,"Mandor, Jodhpur - RSPCB",20-03-2024 22:00:00,26.358805,73.047444,SO2,NA,NA,NA
India,Rajasthan,Jodhpur,"Samrat Ashok Udhyan, Jodhpur - RSPCB",20-03-2024 22:00:00,26.253384,72.976571,NO2,4,56,20
India,Rajasthan,Karauli,"Satyawati Vihar, Karauli - RSPCB",20-03-2024 22:00:00,26.506177,77.025989,CO,10,28,18
India,Rajasthan,Kota,"Nayapura, Kota - RSPCB",20-03-2024 22:00:00,25.196024,75.855668,PM2.5,17,89,54
India,Rajasthan,Kota,"Nayapura, Kota - RSPCB",20-03-2024 22:00:00,25.196024,75.855668,PM10,64,152,107
India,Rajasthan,Kota,"Nayapura, Kota - RSPCB",20-03-2024 22:00:00,25.196024,75.855668,NO2,24,119,55
India,Rajasthan,Kota,"Nayapura, Kota - RSPCB",20-03-2024 22:00:00,25.196024,75.855668,SO2,5,105,13
India,Rajasthan,Kota,"Nayapura, Kota - RSPCB",20-03-2024 22:00:00,25.196024,75.855668,OZONE,6,170,85
India,Rajasthan,Kota,"Shrinath Puram, Kota - RSPCB",20-03-2024 22:00:00,25.14389,75.821256,NO2,17,109,44
India,Rajasthan,Kota,"Shrinath Puram, Kota - RSPCB",20-03-2024 22:00:00,25.14389,75.821256,NH3,3,5,4
India,Rajasthan,Kota,"Shrinath Puram, Kota - RSPCB",20-03-2024 22:00:00,25.14389,75.821256,SO2,6,102,25
India,Rajasthan,Nagaur,"Karni Colony, Nagaur - RSPCB",20-03-2024 22:00:00,27.213494,73.734444,NH3,13,28,16
India,Rajasthan,Pali,"Indira Colony Vistar, Pali - RSPCB",20-03-2024 22:00:00,25.771061, 73.340227,PM10,63,313,135
India,Rajasthan,Pratapgarh,"Pragati Nagar, Pratapgarh - RSPCB",20-03-2024 22:00:00,24.041198,74.780702,CO,8,47,14
India,Rajasthan,Pratapgarh,"Pragati Nagar, Pratapgarh - RSPCB",20-03-2024 22:00:00,24.041198,74.780702,OZONE,14,109,85
India,Rajasthan,Rajsamand,"Dhoinda, Rajsamand - RSPCB",20-03-2024 22:00:00,25.036360,73.883502,OZONE,39,82,50
India,Rajasthan,Sawai Madhopur,"Sahu Nagar, Sawai Madhopur - RSPCB",20-03-2024 22:00:00,26.031443,76.359327,NH3,1,14,8
India,Rajasthan,Sawai Madhopur,"Sahu Nagar, Sawai Madhopur - RSPCB",20-03-2024 22:00:00,26.031443,76.359327,OZONE,4,145,86
India,Rajasthan,Sirohi,"Vedhaynath Colony, Sirohi - RSPCB",20-03-2024 22:00:00,24.885261,72.857549,NO2,7,63,32
India,Rajasthan,Sri Ganganagar,"Old City, Sri Ganganagar - RSPCB",20-03-2024 22:00:00,29.931624,73.864511,NH3,6,27,11
India,Rajasthan,Tonk,"Shastri Nagar, Tonk - RSPCB",20-03-2024 22:00:00,26.159933,75.780517,PM2.5,42,247,93
India,Rajasthan,Tonk,"Shastri Nagar, Tonk - RSPCB",20-03-2024 22:00:00,26.159933,75.780517,NH3,4,47,9
India,Rajasthan,Udaipur,"Ashok Nagar, Udaipur - RSPCB",20-03-2024 22:00:00,24.5886166,73.6321397,NH3,8,11,8
India,Rajasthan,Udaipur,"Ashok Nagar, Udaipur - RSPCB",20-03-2024 22:00:00,24.5886166,73.6321397,CO,6,115,68
India,TamilNadu,Ariyalur,"Keelapalur, Ariyalur - TNPCB",20-03-2024 22:00:00,11.06825,79.07033,SO2,35,37,36
India,TamilNadu,Chengalpattu,"Crescent University, Chengalpattu - TNPCB",20-03-2024 22:00:00,12.8777316,80.0834807,SO2,20,21,20
India,TamilNadu,Chengalpattu,"Crescent University, Chengalpattu - TNPCB",20-03-2024 22:00:00,12.8777316,80.0834807,CO,28,30,29
India,TamilNadu,Chennai,"Alandur Bus Depot, Chennai - CPCB",20-03-2024 22:00:00,12.9099161,80.1076538,NO2,6,15,8
India,TamilNadu,Chennai,"Kodungaiyur, Chennai - TNPCB",20-03-2024 22:00:00,13.1278,80.2642,PM10,52,148,76
India,TamilNadu,Chennai,"Royapuram, Chennai - TNPCB",20-03-2024 22:00:00,13.1036,80.2909,PM10,32,62,50
India,TamilNadu,Chennai,"Royapuram, Chennai - TNPCB",20-03-2024 22:00:00,13.1036,80.2909,NH3,2,3,3
India,TamilNadu,Chennai,"Royapuram, Chennai - TNPCB",20-03-2024 22:00:00,13.1036,80.2909,CO,16,48,19
India,TamilNadu,Chennai,"Velachery Res. Area, Chennai - CPCB",20-03-2024 22:00:00,13.0052189,80.2398125,PM10,62,92,80
India,TamilNadu,Chennai,"Velachery Res. Area, Chennai - CPCB",20-03-2024 22:00:00,13.0052189,80.2398125,OZONE,1,10,7
India,TamilNadu,Coimbatore,"PSG College of Arts and Science, Coimbatore - TNPCB",20-03-2024 22:00:00,11.0328,77.0349,NO2,3,9,6
India,TamilNadu,Cuddalore,"Semmandalam, Cuddalore - TNPCB",20-03-2024 22:00:00,11.7637683,79.7499835,PM2.5,35,140,57
India,TamilNadu,Gummidipoondi,"Anthoni Pillai Nagar, Gummidipoondi - TNPCB",20-03-2024 22:00:00,13.4127,80.1081,NO2,10,18,13
India,TamilNadu,Kanchipuram,"Kilambi, Kanchipuram - TNPCB",20-03-2024 22:00:00,12.864618,79.659968,PM2.5,NA,NA,NA
India,TamilNadu,Ooty,"Bombay Castel, Ooty - TNPCB",20-03-2024 22:00:00,11.4068288,76.7138973,PM2.5,22,173,70
India,TamilNadu,Ooty,"Bombay Castel, Ooty - TNPCB",20-03-2024 22:00:00,11.4068288,76.7138973,NH3,NA,NA,NA
India,TamilNadu,Thoothukudi,"Meelavittan, Thoothukudi - TNPCB",20-03-2024 22:00:00,8.816428 ,78.099039,CO,2,52,19
India,TamilNadu,Vellore,"Vasanthapuram, Vellore - TNPCB",20-03-2024 22:00:00,12.909494,79.131861,PM2.5,29,75,46
India,Telangana,Hyderabad,"Bollaram Industrial Area, Hyderabad - TSPCB",20-03-2024 22:00:00,17.540891,78.358528,PM10,NA,NA,NA
India,Telangana,Hyderabad,"Bollaram Industrial Area, Hyderabad - TSPCB",20-03-2024 22:00:00,17.540891,78.358528,SO2,3,89,11
India,Telangana,Hyderabad,"Central University, Hyderabad - TSPCB",20-03-2024 22:00:00,17.460103,78.334361,NO2,21,43,29
India,Telangana,Hyderabad,"ICRISAT Patancheru, Hyderabad - TSPCB",20-03-2024 22:00:00,17.518400,78.278777,OZONE,13,97,78
India,Telangana,Hyderabad,"IITH Kandi, Hyderabad - TSPCB",20-03-2024 22:00:00,17.585705,78.126199,PM2.5,NA,NA,NA
India,Telangana,Hyderabad,"Kokapet, Hyderabad - TSPCB",20-03-2024 22:00:00,17.393559,78.339194,PM10,70,89,78
India,Telangana,Hyderabad,"Kokapet, Hyderabad - TSPCB",20-03-2024 22:00:00,17.393559,78.339194,NO2,10,13,11
India,Telangana,Hyderabad,"Kokapet, Hyderabad - TSPCB",20-03-2024 22:00:00,17.393559,78.339194,SO2,9,12,11
India,Telangana,Hyderabad,"Kokapet, Hyderabad - TSPCB",20-03-2024 22:00:00,17.393559,78.339194,OZONE,2,6,4
India,Telangana,Hyderabad,"Kompally Municipal Office, Hyderabad - TSPCB",20-03-2024 22:00:00,17.544899,78.486949,NO2,10,15,12
India,Telangana,Hyderabad,"Nacharam_TSIIC IALA, Hyderabad - TSPCB",20-03-2024 22:00:00,17.429398,78.569354,OZONE,21,65,61
India,Telangana,Hyderabad,"New Malakpet, Hyderabad - TSPCB",20-03-2024 22:00:00,17.37206,78.50864,PM10,59,76,66
India,Telangana,Hyderabad,"New Malakpet, Hyderabad - TSPCB",20-03-2024 22:00:00,17.37206,78.50864,NO2,9,21,17
India,Telangana,Hyderabad,"Ramachandrapuram, Hyderabad - TSPCB",20-03-2024 22:00:00,17.528544,78.286195,NO2,11,12,12
India,Telangana,Hyderabad,"Somajiguda, Hyderabad - TSPCB",20-03-2024 22:00:00,17.417094,78.457437,PM10,NA,NA,NA
India,Telangana,Hyderabad,"Somajiguda, Hyderabad - TSPCB",20-03-2024 22:00:00,17.417094,78.457437,CO,9,12,11
India,Telangana,Hyderabad,"Zoo Park, Hyderabad - TSPCB",20-03-2024 22:00:00,17.349694,78.451437,NH3,NA,NA,NA
India,Uttar_Pradesh,Agra,"Manoharpur, Agra - UPPCB",20-03-2024 22:00:00,27.23711,78.01936,NH3,1,2,1
India,Uttar_Pradesh,Agra,"Manoharpur, Agra - UPPCB",20-03-2024 22:00:00,27.23711,78.01936,SO2,10,15,12
India,Uttar_Pradesh,Agra,"Manoharpur, Agra - UPPCB",20-03-2024 22:00:00,27.23711,78.01936,OZONE,2,51,34
India,Uttar_Pradesh,Agra,"Sanjay Palace, Agra - UPPCB",20-03-2024 22:00:00,27.19865833,78.00598056,PM10,44,98,72
India,Uttar_Pradesh,Agra,"Sector-3B Avas Vikas Colony, Agra - UPPCB",20-03-2024 22:00:00,27.19412,77.96237,PM10,45,130,88
India,Uttar_Pradesh,Agra,"Sector-3B Avas Vikas Colony, Agra - UPPCB",20-03-2024 22:00:00,27.19412,77.96237,CO,11,35,16
India,Uttar_Pradesh,Agra,"Shahjahan Garden, Agra - UPPCB",20-03-2024 22:00:00,27.169338,78.03582,PM2.5,30,141,75
India,Uttar_Pradesh,Agra,"Shahjahan Garden, Agra - UPPCB",20-03-2024 22:00:00,27.169338,78.03582,NO2,20,21,21
India,Uttar_Pradesh,Bareilly,"Civil Lines, Bareilly - UPPCB",20-03-2024 22:00:00,28.359581,79.414455,PM2.5,25,69,42
India,Uttar_Pradesh,Bareilly,"Civil Lines, Bareilly - UPPCB",20-03-2024 22:00:00,28.359581,79.414455,CO,12,101,56
India,Uttar_Pradesh,Bareilly,"Rajendra Nagar, Bareilly - UPPCB",20-03-2024 22:00:00,28.38910936,79.42963708,SO2,42,46,43
India,Uttar_Pradesh,Firozabad,"Nagla Bhau, Firozabad - UPPCB",20-03-2024 22:00:00,27.168897,78.376960,PM2.5,22,128,62
India,Uttar_Pradesh,Firozabad,"Nagla Bhau, Firozabad - UPPCB",20-03-2024 22:00:00,27.168897,78.376960,SO2,15,32,21
India,Uttar_Pradesh,Firozabad,"Nagla Bhau, Firozabad - UPPCB",20-03-2024 22:00:00,27.168897,78.376960,CO,20,51,30
India,Uttar_Pradesh,Firozabad,"Nagla Bhau, Firozabad - UPPCB",20-03-2024 22:00:00,27.168897,78.376960,OZONE,16,23,19
India,Uttar_Pradesh,Firozabad,"Vibhab Nagar, Firozabad - UPPCB",20-03-2024 22:00:00,27.1594,78.3953,PM2.5,51,172,99
India,Uttar_Pradesh,Firozabad,"Vibhab Nagar, Firozabad - UPPCB",20-03-2024 22:00:00,27.1594,78.3953,SO2,13,34,21
India,Uttar_Pradesh,Ghaziabad,"Loni, Ghaziabad - UPPCB",20-03-2024 22:00:00,28.757294,77.278792,CO,19,91,54
India,Uttar_Pradesh,Ghaziabad,"Sanjay Nagar, Ghaziabad - UPPCB",20-03-2024 22:00:00,28.685382,77.453839,SO2,25,104,52
India,Uttar_Pradesh,Ghaziabad,"Vasundhara, Ghaziabad - UPPCB",20-03-2024 22:00:00,28.6603346,77.3572563,PM10,48,184,132
India,Uttar_Pradesh,Ghaziabad,"Vasundhara, Ghaziabad - UPPCB",20-03-2024 22:00:00,28.6603346,77.3572563,CO,14,113,59
India,Uttar_Pradesh,Greater Noida,"Knowledge Park - III, Greater Noida - UPPCB",20-03-2024 22:00:00,28.47272,77.482000,NH3,6,8,7
India,Uttar_Pradesh,Hapur,"Anand Vihar, Hapur - UPPCB",20-03-2024 22:00:00,28.725645,77.749675,PM2.5,25,281,144
India,Uttar_Pradesh,Jhansi,"Shivaji Nagar, Jhansi - UPPCB",20-03-2024 22:00:00,25.4547,78.6039,PM10,16,111,49
India,Uttar_Pradesh,Kanpur,"FTI Kidwai Nagar, Kanpur - UPPCB",20-03-2024 22:00:00,26.428282,80.327067,PM2.5,43,203,90
India,Uttar_Pradesh,Kanpur,"FTI Kidwai Nagar, Kanpur - UPPCB",20-03-2024 22:00:00,26.428282,80.327067,NH3,3,4,3
India,Uttar_Pradesh,Kanpur,"NSI Kalyanpur, Kanpur - UPPCB",20-03-2024 22:00:00,26.509954,80.249612,PM10,81,185,136
India,Uttar_Pradesh,Kanpur,"Nehru Nagar, Kanpur - UPPCB",20-03-2024 22:00:00,26.4703136,80.3229863,CO,28,60,56
India,Uttar_Pradesh,Khurja,"Kalindi Kunj, Khurja - UPPCB",20-03-2024 22:00:00,28.2348927,77.8683002,CO,46,76,52
India,Uttar_Pradesh,Lucknow,"Gomti Nagar, Lucknow - UPPCB",20-03-2024 22:00:00,26.868120,81.005119,CO,35,64,55
India,Uttar_Pradesh,Lucknow,"Kendriya Vidyalaya, Lucknow - CPCB",20-03-2024 22:00:00,26.906111,80.948222,SO2,4,7,6
India,Uttar_Pradesh,Lucknow,"Kendriya Vidyalaya, Lucknow - CPCB",20-03-2024 22:00:00,26.906111,80.948222,OZONE,8,63,43
India,Uttar_Pradesh,Lucknow,"Kukrail Picnic Spot-1, Lucknow - UPPCB",20-03-2024 22:00:00,26.90723,80.98579,OZONE,2,80,64
India,Uttar_Pradesh,Lucknow,"Lalbagh, Lucknow - CPCB",20-03-2024 22:00:00,26.8458805,80.9365541,CO,30,122,63
India,Uttar_Pradesh,Lucknow,"Talkatora District Industries Center, Lucknow - CPCB",20-03-2024 22:00:00,26.83399722,80.8917361,PM10,86,426,178
India,Uttar_Pradesh,Lucknow,"Talkatora District Industries Center, Lucknow - CPCB",20-03-2024 22:00:00,26.83399722,80.8917361,CO,1,44,27
India,Uttar_Pradesh,Meerut,"Ganga Nagar, Meerut - UPPCB",20-03-2024 22:00:00,28.999264,77.7590354,PM2.5,22,197,107
India,Uttar_Pradesh,Meerut,"Pallavpuram Phase 2, Meerut - UPPCB",20-03-2024 22:00:00,29.063510,77.709723,NH3,8,14,12
India,Uttar_Pradesh,Moradabad,"Buddhi Vihar, Moradabad - UPPCB",20-03-2024 22:00:00,28.83526,78.74460,NO2,23,23,23
India,Uttar_Pradesh,Moradabad,"Buddhi Vihar, Moradabad - UPPCB",20-03-2024 22:00:00,28.83526,78.74460,NH3,2,2,2
India,Uttar_Pradesh,Moradabad,"Buddhi Vihar, Moradabad - UPPCB",20-03-2024 22:00:00,28.83526,78.74460,SO2,24,36,28
India,Uttar_Pradesh,Moradabad,"Buddhi Vihar, Moradabad - UPPCB",20-03-2024 22:00:00,28.83526,78.74460,OZONE,11,38,28
India,Uttar_Pradesh,Moradabad,"Eco Herbal Park, Moradabad - UPPCB",20-03-2024 22:00:00,28.840739,78.697531,PM10,48,132,91
India,Uttar_Pradesh,Moradabad,"Eco Herbal Park, Moradabad - UPPCB",20-03-2024 22:00:00,28.840739,78.697531,NH3,2,40,7
India,Uttar_Pradesh,Moradabad,"Eco Herbal Park, Moradabad - UPPCB",20-03-2024 22:00:00,28.840739,78.697531,OZONE,11,55,43
India,Uttar_Pradesh,Moradabad,"Employment Office, Moradabad - UPPCB",20-03-2024 22:00:00,28.88528,78.73880,CO,11,56,22
India,Uttar_Pradesh,Moradabad,"Jigar Colony, Moradabad - UPPCB",20-03-2024 22:00:00,28.856664,78.772638,CO,23,57,28
India,Uttar_Pradesh,Moradabad,"Kashiram Nagar, Moradabad - UPPCB",20-03-2024 22:00:00,28.849399,78.742362,SO2,29,43,34
India,Uttar_Pradesh,Moradabad,"Kashiram Nagar, Moradabad - UPPCB",20-03-2024 22:00:00,28.849399,78.742362,OZONE,15,80,42
India,Uttar_Pradesh,Moradabad,"Transport Nagar, Moradabad - UPPCB",20-03-2024 22:00:00,28.802625,78.753728,PM2.5,30,239,93
India,Uttar_Pradesh,Muzaffarnagar,"New Mandi, Muzaffarnagar - UPPCB",20-03-2024 22:00:00,29.4723508,77.7194031,PM10,77,265,153
India,Uttar_Pradesh,Muzaffarnagar,"New Mandi, Muzaffarnagar - UPPCB",20-03-2024 22:00:00,29.4723508,77.7194031,SO2,12,79,40
India,Uttar_Pradesh,Noida,"Sector - 62, Noida - IMD",20-03-2024 22:00:00,28.6245479,77.3577104,CO,22,45,29
India,Uttar_Pradesh,Noida,"Sector-1, Noida - UPPCB",20-03-2024 22:00:00,28.5898,77.3101,SO2,3,39,14
India,Uttar_Pradesh,Noida,"Sector-116, Noida - UPPCB",20-03-2024 22:00:00,28.569230,77.393848,CO,21,117,80
India,Uttar_Pradesh,Noida,"Sector-116, Noida - UPPCB",20-03-2024 22:00:00,28.569230,77.393848,OZONE,1,63,11
India,Uttar_Pradesh,Prayagraj,"Jhunsi, Prayagraj - UPPCB",20-03-2024 22:00:00,25.425602,81.917152,CO,10,40,12
India,Uttar_Pradesh,Prayagraj,"Nagar Nigam, Prayagraj - UPPCB",20-03-2024 22:00:00,25.44919916 ,81.82735986 ,CO,8,85,13
India,Uttar_Pradesh,Prayagraj,"Nagar Nigam, Prayagraj - UPPCB",20-03-2024 22:00:00,25.44919916 ,81.82735986 ,OZONE,11,12,11
India,Uttar_Pradesh,Varanasi,"Ardhali Bazar, Varanasi - UPPCB",20-03-2024 22:00:00,25.3505986,82.9083074,NO2,2,16,8
India,Uttar_Pradesh,Varanasi,"Bhelupur, Varanasi - UPPCB",20-03-2024 22:00:00,25.301778,82.996789,SO2,25,31,27
India,Uttar_Pradesh,Varanasi,"IESD Banaras Hindu University, Varanasi - UPPCB",20-03-2024 22:00:00,25.262326,82.995408,SO2,13,14,14
India,Uttar_Pradesh,Varanasi,"Maldahiya, Varanasi - UPPCB",20-03-2024 22:00:00,25.32393,82.99687,PM2.5,8,42,16
India,Uttar_Pradesh,Vrindavan,"Omex Eternity, Vrindavan - UPPCB",20-03-2024 22:00:00,27.5714090,77.6557570,CO,37,99,53
India,Uttar_Pradesh,Vrindavan,"Omex Eternity, Vrindavan - UPPCB",20-03-2024 22:00:00,27.5714090,77.6557570,OZONE,29,32,30
India,Uttarakhand,Dehradun,"Doon University, Dehradun - UKPCB",20-03-2024 22:00:00,30.269444,78.044167,NO2,1,5,2
India,Uttarakhand,Dehradun,"Doon University, Dehradun - UKPCB",20-03-2024 22:00:00,30.269444,78.044167,SO2,1,3,1
India,Uttarakhand,Kashipur,"Govt. Girls Inter College, Kashipur - UKPCB",20-03-2024 22:00:00,29.2124114,78.9611753,SO2,7,8,8
India,Uttarakhand,Kashipur,"Govt. Girls Inter College, Kashipur - UKPCB",20-03-2024 22:00:00,29.2124114,78.9611753,OZONE,15,65,42
India,Uttarakhand,Rishikesh,"Shivaji Nagar, Rishikesh - UKPCB",20-03-2024 22:00:00,30.075911,78.2859547,PM2.5,17,53,33
India,Uttarakhand,Rishikesh,"Shivaji Nagar, Rishikesh - UKPCB",20-03-2024 22:00:00,30.075911,78.2859547,NH3,2,3,3
India,Uttarakhand,Rishikesh,"Shivaji Nagar, Rishikesh - UKPCB",20-03-2024 22:00:00,30.075911,78.2859547,SO2,3,6,4
India,Uttarakhand,Rishikesh,"Shivaji Nagar, Rishikesh - UKPCB",20-03-2024 22:00:00,30.075911,78.2859547,CO,12,46,30
India,West_Bengal,Asansol,"Asansol Court Area, Asansol - WBPCB",20-03-2024 22:00:00,23.685297,86.945968,PM2.5,23,68,47
India,West_Bengal,Asansol,"Asansol Court Area, Asansol - WBPCB",20-03-2024 22:00:00,23.685297,86.945968,CO,27,96,41
India,West_Bengal,Haldia,"Priyambada Housing Estate, Haldia - WBPCB",20-03-2024 22:00:00,22.06047,88.109737,NO2,11,53,26
India,West_Bengal,Howrah,"Belur Math, Howrah - WBPCB",20-03-2024 22:00:00,22.629801,88.352017,SO2,8,12,9
India,West_Bengal,Howrah,"Ghusuri, Howrah - WBPCB",20-03-2024 22:00:00,22.611968,88.347422,PM2.5,43,176,76
India,West_Bengal,Howrah,"Ghusuri, Howrah - WBPCB",20-03-2024 22:00:00,22.611968,88.347422,OZONE,10,16,12
India,West_Bengal,Howrah,"Padmapukur, Howrah - WBPCB",20-03-2024 22:00:00,22.5687319,88.2797276,OZONE,10,24,16
India,West_Bengal,Kolkata,"Ballygunge, Kolkata - WBPCB",20-03-2024 22:00:00,22.5367507,88.3638022,PM2.5,22,60,36
India,West_Bengal,Kolkata,"Bidhannagar, Kolkata - WBPCB",20-03-2024 22:00:00,22.58157048,88.41002457,NO2,11,38,24
India,West_Bengal,Kolkata,"Bidhannagar, Kolkata - WBPCB",20-03-2024 22:00:00,22.58157048,88.41002457,OZONE,9,51,23
India,West_Bengal,Kolkata,"Fort William, Kolkata - WBPCB",20-03-2024 22:00:00,22.556640,88.342674,CO,7,32,27
India,West_Bengal,Kolkata,"Jadavpur, Kolkata - WBPCB",20-03-2024 22:00:00,22.49929,88.36917,OZONE,7,27,11
India,West_Bengal,Kolkata,"Rabindra Bharati University, Kolkata - WBPCB",20-03-2024 22:00:00,22.627847,88.380669,PM2.5,18,73,36
India,West_Bengal,Kolkata,"Rabindra Bharati University, Kolkata - WBPCB",20-03-2024 22:00:00,22.627847,88.380669,NH3,7,7,7
India,West_Bengal,Kolkata,"Rabindra Bharati University, Kolkata - WBPCB",20-03-2024 22:00:00,22.627847,88.380669,CO,20,58,39
India,West_Bengal,Kolkata,"Rabindra Sarobar, Kolkata - WBPCB",20-03-2024 22:00:00,22.51106,88.35142,PM2.5,17,63,32
India,West_Bengal,Kolkata,"Rabindra Sarobar, Kolkata - WBPCB",20-03-2024 22:00:00,22.51106,88.35142,NO2,21,70,43
India,West_Bengal,Kolkata,"Rabindra Sarobar, Kolkata - WBPCB",20-03-2024 22:00:00,22.51106,88.35142,NH3,4,6,5
India,West_Bengal,Kolkata,"Rabindra Sarobar, Kolkata - WBPCB",20-03-2024 22:00:00,22.51106,88.35142,SO2,7,23,11
India,Andhra_Pradesh,Amaravati,"Secretariat, Amaravati - APPCB",20-03-2024 22:00:00,16.5150833,80.5181667,PM2.5,39,64,51
India,Andhra_Pradesh,Anantapur,"Gulzarpet, Anantapur - APPCB",20-03-2024 22:00:00,14.675886,77.593027,PM2.5,NA,NA,NA
India,Andhra_Pradesh,Anantapur,"Gulzarpet, Anantapur - APPCB",20-03-2024 22:00:00,14.675886,77.593027,NO2,NA,NA,NA
India,Andhra_Pradesh,Anantapur,"Gulzarpet, Anantapur - APPCB",20-03-2024 22:00:00,14.675886,77.593027,SO2,NA,NA,NA
India,Andhra_Pradesh,Anantapur,"Gulzarpet, Anantapur - APPCB",20-03-2024 22:00:00,14.675886,77.593027,CO,36,52,49
India,Andhra_Pradesh,Kadapa,"Yerramukkapalli, Kadapa - APPCB",20-03-2024 22:00:00,14.465052,78.824187,PM10,31,84,55
India,Andhra_Pradesh,Rajamahendravaram,"Anand Kala Kshetram, Rajamahendravaram - APPCB",20-03-2024 22:00:00,16.9872867,81.7363176,PM10,14,104,71
India,Andhra_Pradesh,Rajamahendravaram,"Anand Kala Kshetram, Rajamahendravaram - APPCB",20-03-2024 22:00:00,16.9872867,81.7363176,NO2,11,31,18
India,Andhra_Pradesh,Rajamahendravaram,"Anand Kala Kshetram, Rajamahendravaram - APPCB",20-03-2024 22:00:00,16.9872867,81.7363176,CO,18,45,30
India,Andhra_Pradesh,Tirupati,"Tirumala, Tirupati - APPCB",20-03-2024 22:00:00,13.67,79.35,NO2,19,32,25
India,Andhra_Pradesh,Tirupati,"Vaikuntapuram, Tirupati - APPCB",20-03-2024 22:00:00,13.615387,79.409230,SO2,4,6,5
India,Andhra_Pradesh,Vijayawada,"HB Colony, Vijayawada - APPCB",20-03-2024 22:00:00,16.536107,80.594233,PM10,65,105,88
India,Andhra_Pradesh,Vijayawada,"Kanuru, Vijayawada - APPCB",20-03-2024 22:00:00,16.486692,80.699436,PM2.5,63,76,69
India,Andhra_Pradesh,Vijayawada,"Kanuru, Vijayawada - APPCB",20-03-2024 22:00:00,16.486692,80.699436,NO2,NA,NA,NA
India,Andhra_Pradesh,Vijayawada,"Kanuru, Vijayawada - APPCB",20-03-2024 22:00:00,16.486692,80.699436,NH3,1,1,1
India,Andhra_Pradesh,Vijayawada,"Rajiv Gandhi Park, Vijayawada - APPCB",20-03-2024 22:00:00,16.509717,80.612222,PM2.5,54,86,66
India,Andhra_Pradesh,Vijayawada,"Rajiv Gandhi Park, Vijayawada - APPCB",20-03-2024 22:00:00,16.509717,80.612222,OZONE,6,76,42
India,Andhra_Pradesh,Vijayawada,"Rajiv Nagar, Vijayawada - APPCB",20-03-2024 22:00:00,16.554731,80.649110,PM2.5,44,49,46
India,Andhra_Pradesh,Visakhapatnam,"GVM Corporation, Visakhapatnam - APPCB",20-03-2024 22:00:00,17.72,83.3,PM10,55,162,91
India,Andhra_Pradesh,Visakhapatnam,"GVM Corporation, Visakhapatnam - APPCB",20-03-2024 22:00:00,17.72,83.3,SO2,10,15,11
India,Arunachal_Pradesh,Naharlagun,"Naharlagun, Naharlagun - APSPCB",20-03-2024 22:00:00,27.103358,93.679645,PM10,74,187,115
India,Arunachal_Pradesh,Naharlagun,"Naharlagun, Naharlagun - APSPCB",20-03-2024 22:00:00,27.103358,93.679645,OZONE,2,2,2
India,Assam,Byrnihat,"Central Academy for SFS, Byrnihat - PCBA",20-03-2024 22:00:00,26.071318,91.87488,NO2,34,54,44
India,Assam,Byrnihat,"Central Academy for SFS, Byrnihat - PCBA",20-03-2024 22:00:00,26.071318,91.87488,SO2,10,22,14
India,Assam,Byrnihat,"Central Academy for SFS, Byrnihat - PCBA",20-03-2024 22:00:00,26.071318,91.87488,OZONE,6,18,13
India,Assam,Guwahati,"IITG, Guwahati - PCBA",20-03-2024 22:00:00,26.2028636,91.70046436,SO2,12,14,13
India,Assam,Guwahati,"IITG, Guwahati - PCBA",20-03-2024 22:00:00,26.2028636,91.70046436,OZONE,3,10,6
India,Assam,Guwahati,"LGBI Airport, Guwahati - PCBA",20-03-2024 22:00:00,26.10887,91.589544,PM2.5,303,432,356
India,Assam,Guwahati,"LGBI Airport, Guwahati - PCBA",20-03-2024 22:00:00,26.10887,91.589544,NO2,15,56,33
India,Assam,Guwahati,"LGBI Airport, Guwahati - PCBA",20-03-2024 22:00:00,26.10887,91.589544,SO2,13,14,13
India,Assam,Guwahati,"LGBI Airport, Guwahati - PCBA",20-03-2024 22:00:00,26.10887,91.589544,OZONE,1,20,15
India,Assam,Guwahati,"Pan Bazaar, Guwahati - PCBA",20-03-2024 22:00:00,26.187500,91.744194,NH3,5,7,6
India,Assam,Guwahati,"Pan Bazaar, Guwahati - PCBA",20-03-2024 22:00:00,26.187500,91.744194,SO2,65,87,75
India,Assam,Guwahati,"Railway Colony, Guwahati - PCBA",20-03-2024 22:00:00,26.181742,91.78063,NO2,3,4,3
India,Assam,Guwahati,"Railway Colony, Guwahati - PCBA",20-03-2024 22:00:00,26.181742,91.78063,CO,44,104,54
India,Assam,Nagaon,"Christianpatty, Nagaon - PCBA",20-03-2024 22:00:00,26.349082,92.68449,CO,9,58,32
India,Assam,Silchar,"Tarapur, Silchar - PCBA",20-03-2024 22:00:00,24.82827,92.79525,NH3,1,1,1
India,Assam,Sivasagar,"Girls College, Sivasagar - PCBA",20-03-2024 22:00:00,26.987634,94.636574,NH3,2,2,2
India,Bihar,Araria,"Kharahiya Basti, Araria - BSPCB",20-03-2024 22:00:00,26.146529,87.454184,PM10,NA,NA,NA
India,Bihar,Araria,"Kharahiya Basti, Araria - BSPCB",20-03-2024 22:00:00,26.146529,87.454184,CO,17,30,25
India,Bihar,Araria,"Kharahiya Basti, Araria - BSPCB",20-03-2024 22:00:00,26.146529,87.454184,OZONE,1,10,8
India,Bihar,Aurangabad,"Gurdeo Nagar, Aurangabad - BSPCB",20-03-2024 22:00:00,24.75746,84.366208,PM10,15,109,41
India,Bihar,Aurangabad,"Gurdeo Nagar, Aurangabad - BSPCB",20-03-2024 22:00:00,24.75746,84.366208,NH3,6,41,10
India,Bihar,Aurangabad,"Gurdeo Nagar, Aurangabad - BSPCB",20-03-2024 22:00:00,24.75746,84.366208,CO,41,82,52
India,Bihar,Bettiah,"Kamalnath Nagar, Bettiah - BSPCB",20-03-2024 22:00:00,26.80365,84.51954,OZONE,2,8,5
India,Bihar,Bhagalpur,"DM Office_Kachari Chowk, Bhagalpur - BSPCB",20-03-2024 22:00:00,25.251013,86.989001,PM10,36,206,68
India,Bihar,Bhagalpur,"Mayaganj, Bhagalpur - BSPCB",20-03-2024 22:00:00,25.265194,87.012947,PM10,31,247,80
India,Bihar,Bhagalpur,"Mayaganj, Bhagalpur - BSPCB",20-03-2024 22:00:00,25.265194,87.012947,NH3,6,8,7
India,Bihar,Bhagalpur,"Mayaganj, Bhagalpur - BSPCB",20-03-2024 22:00:00,25.265194,87.012947,CO,8,10,9
India,Bihar,Bihar Sharif,"D M Colony, Bihar Sharif - BSPCB",20-03-2024 22:00:00,25.204762,85.514960,PM2.5,50,110,74
India,Bihar,Bihar Sharif,"D M Colony, Bihar Sharif - BSPCB",20-03-2024 22:00:00,25.204762,85.514960,CO,16,67,32
India,Bihar,Buxar,"Charitra Van, Buxar - BSPCB (Formerly known as Central Jail)",20-03-2024 22:00:00,25.567520,83.966379,PM2.5,25,120,59
India,Bihar,Buxar,"Charitra Van, Buxar - BSPCB (Formerly known as Central Jail)",20-03-2024 22:00:00,25.567520,83.966379,NO2,1,1,1
India,Bihar,Chhapra,"Darshan Nagar, Chhapra - BSPCB",20-03-2024 22:00:00,25.7808257,84.7446768,OZONE,5,14,7
India,Bihar,Gaya,"Collectorate, Gaya - BSPCB",20-03-2024 22:00:00,24.7955,84.9994,PM2.5,31,142,69
India,Bihar,Gaya,"Kareemganj, Gaya - BSPCB",20-03-2024 22:00:00,24.792403,84.992416,SO2,6,11,9
India,Bihar,Gaya,"SFTI Kusdihra, Gaya - BSPCB",20-03-2024 22:00:00,24.762518,84.982348,PM2.5,NA,NA,NA
India,Bihar,Gaya,"SFTI Kusdihra, Gaya - BSPCB",20-03-2024 22:00:00,24.762518,84.982348,SO2,7,10,8
India,Bihar,Gaya,"SFTI Kusdihra, Gaya - BSPCB",20-03-2024 22:00:00,24.762518,84.982348,CO,14,27,20
India,Bihar,Hajipur,"Industrial Area, Hajipur - BSPCB",20-03-2024 22:00:00,25.697189,85.245900,PM2.5,16,72,41
India,Bihar,Hajipur,"Industrial Area, Hajipur - BSPCB",20-03-2024 22:00:00,25.697189,85.245900,PM10,22,128,79
India,Bihar,Kishanganj,"SDM Office_Khagra, Kishanganj - BSPCB",20-03-2024 22:00:00,26.0881305,87.93840336,NH3,12,16,13
India,Bihar,Kishanganj,"SDM Office_Khagra, Kishanganj - BSPCB",20-03-2024 22:00:00,26.0881305,87.93840336,OZONE,27,37,28
India,Bihar,Manguraha,"Forest Rest House, Manguraha - BSPCB",20-03-2024 22:00:00,27.308328,84.531742,OZONE,4,50,12
India,Bihar,Motihari,"Gandak Colony, Motihari - BSPCB",20-03-2024 22:00:00,26.63086,84.90051,NO2,20,101,61
India,Bihar,Munger,"Town Hall, Munger - BSPCB",20-03-2024 22:00:00,25.376776,86.471523,NO2,7,10,9
India,Bihar,Munger,"Town Hall, Munger - BSPCB",20-03-2024 22:00:00,25.376776,86.471523,CO,2,16,10
India,Bihar,Muzaffarpur,"Buddha Colony, Muzaffarpur - BSPCB",20-03-2024 22:00:00,26.11442,85.39813,SO2,1,6,4
India,Bihar,Muzaffarpur,"MIT-Daudpur Kothi, Muzaffarpur - BSPCB",20-03-2024 22:00:00,26.1403345,85.3650192,PM2.5,NA,NA,NA
India,Bihar,Muzaffarpur,"Muzaffarpur Collectorate, Muzaffarpur - BSPCB",20-03-2024 22:00:00,26.1209,85.3647,SO2,3,7,5
India,Bihar,Muzaffarpur,"Muzaffarpur Collectorate, Muzaffarpur - BSPCB",20-03-2024 22:00:00,26.1209,85.3647,CO,4,42,18
India,Bihar,Patna,"DRM Office Danapur, Patna - BSPCB",20-03-2024 22:00:00,25.586562,85.043586,PM10,38,92,72
India,Bihar,Patna,"DRM Office Danapur, Patna - BSPCB",20-03-2024 22:00:00,25.586562,85.043586,SO2,6,9,7
India,Bihar,Patna,"Govt. High School Shikarpur, Patna - BSPCB",20-03-2024 22:00:00,25.592539,85.227158,NH3,5,5,5
India,Bihar,Patna,"IGSC Planetarium Complex, Patna - BSPCB",20-03-2024 22:00:00,25.610369,85.132568,SO2,5,6,5
India,Bihar,Patna,"IGSC Planetarium Complex, Patna - BSPCB",20-03-2024 22:00:00,25.610369,85.132568,CO,12,14,12
India,Bihar,Patna,"IGSC Planetarium Complex, Patna - BSPCB",20-03-2024 22:00:00,25.610369,85.132568,OZONE,16,50,44
India,Bihar,Patna,"Rajbansi Nagar, Patna - BSPCB",20-03-2024 22:00:00,25.599486,85.113666,PM2.5,34,75,54
India,Bihar,Patna,"Rajbansi Nagar, Patna - BSPCB",20-03-2024 22:00:00,25.599486,85.113666,NH3,3,4,4
India,Bihar,Patna,"Rajbansi Nagar, Patna - BSPCB",20-03-2024 22:00:00,25.599486,85.113666,SO2,4,16,9
India,Bihar,Patna,"Rajbansi Nagar, Patna - BSPCB",20-03-2024 22:00:00,25.599486,85.113666,OZONE,3,39,26
India,Bihar,Patna,"Samanpura, Patna - BSPCB",20-03-2024 22:00:00,25.596727,85.085624,NO2,38,54,45
India,Bihar,Purnia,"Mariam Nagar, Purnia - BSPCB",20-03-2024 22:00:00,25.366336,87.117468,SO2,NA,NA,NA
India,Bihar,Purnia,"Mariam Nagar, Purnia - BSPCB",20-03-2024 22:00:00,25.366336,87.117468,CO,8,78,59
India,Bihar,Purnia,"Mariam Nagar, Purnia - BSPCB",20-03-2024 22:00:00,25.366336,87.117468,OZONE,10,21,17
India,Bihar,Rajgir,"Dangi Tola, Rajgir - BSPCB",20-03-2024 22:00:00,25.03280,85.41948,CO,8,10,10
India,Bihar,Saharsa,"Police Line, Saharsa - BSPCB",20-03-2024 22:00:00,25.892357,86.590325,CO,NA,NA,NA
India,Bihar,Samastipur,"DM Office_Kasipur, Samastipur - BSPCB",20-03-2024 22:00:00,25.859655,85.77944,CO,19,32,26
India,Bihar,Siwan,"Chitragupta Nagar, Siwan - BSPCB",20-03-2024 22:00:00,26.2271665,84.3570427,SO2,NA,NA,NA
India,Bihar,Siwan,"Chitragupta Nagar, Siwan - BSPCB",20-03-2024 22:00:00,26.2271665,84.3570427,CO,31,136,108
India,Chandigarh,Chandigarh,"Sector 22, Chandigarh - CPCC",20-03-2024 22:00:00,30.735567,76.775714,PM2.5,23,117,59
India,Chandigarh,Chandigarh,"Sector 22, Chandigarh - CPCC",20-03-2024 22:00:00,30.735567,76.775714,NH3,4,10,7
India,Chandigarh,Chandigarh,"Sector 22, Chandigarh - CPCC",20-03-2024 22:00:00,30.735567,76.775714,SO2,6,89,21
India,Chandigarh,Chandigarh,"Sector-25, Chandigarh - CPCC",20-03-2024 22:00:00,30.751462,76.762879,OZONE,1,55,38
India,Chandigarh,Chandigarh,"Sector-53, Chandigarh - CPCC",20-03-2024 22:00:00,30.719859,76.738637,PM2.5,48,177,93
India,Chandigarh,Chandigarh,"Sector-53, Chandigarh - CPCC",20-03-2024 22:00:00,30.719859,76.738637,CO,36,109,55
India,Chhattisgarh,Bhilai,"32Bungalows, Bhilai - CECB",20-03-2024 22:00:00,21.194815,81.314770,NH3,6,6,6
India,Chhattisgarh,Bhilai,"Civic Center, Bhilai - Bhilai Steel Plant",20-03-2024 22:00:00,21.185571,81.343175,PM10,14,66,27
India,Chhattisgarh,Bhilai,"Civic Center, Bhilai - Bhilai Steel Plant",20-03-2024 22:00:00,21.185571,81.343175,SO2,7,26,12
India,Chhattisgarh,Bhilai,"Civic Center, Bhilai - Bhilai Steel Plant",20-03-2024 22:00:00,21.185571,81.343175,CO,26,60,37
India,Chhattisgarh,Bilaspur,"Mangala, Bilaspur - NTPC",20-03-2024 22:00:00,22.08815,82.13737,PM2.5,11,38,20
India,Chhattisgarh,Bilaspur,"Mangala, Bilaspur - NTPC",20-03-2024 22:00:00,22.08815,82.13737,PM10,10,43,24
India,Chhattisgarh,Chhal,"Nawapara SECL Colony, Chhal - CECB",20-03-2024 22:00:00,22.118125,83.140608,NH3,2,2,2
India,Chhattisgarh,Chhal,"Nawapara SECL Colony, Chhal - CECB",20-03-2024 22:00:00,22.118125,83.140608,SO2,NA,NA,NA
India,Chhattisgarh,Korba,"Urja Nagar, Korba - CECB",20-03-2024 22:00:00,22.348441,82.549611,PM2.5,3,15,7
India,Chhattisgarh,Korba,"Urja Nagar, Korba - CECB",20-03-2024 22:00:00,22.348441,82.549611,SO2,3,31,10
India,Chhattisgarh,Korba,"Urja Nagar, Korba - CECB",20-03-2024 22:00:00,22.348441,82.549611,CO,15,52,24
India,Chhattisgarh,Raipur,"AIIMS, Raipur - CECB",20-03-2024 22:00:00,21.258815,81.578979,PM2.5,11,32,19
India,Chhattisgarh,Raipur,"Krishak Nagar, Raipur - CECB",20-03-2024 22:00:00,21.237755,81.705301,SO2,NA,NA,NA
India,Chhattisgarh,Raipur,"Krishak Nagar, Raipur - CECB",20-03-2024 22:00:00,21.237755,81.705301,CO,21,34,29
India,Chhattisgarh,Raipur,"Siltara Phase-II, Raipur - CECB",20-03-2024 22:00:00,21.371751,81.664929,PM2.5,18,50,31
India,Chhattisgarh,Raipur,"Siltara Phase-II, Raipur - CECB",20-03-2024 22:00:00,21.371751,81.664929,CO,1,33,15
India,Chhattisgarh,Raipur,"Siltara Phase-II, Raipur - CECB",20-03-2024 22:00:00,21.371751,81.664929,OZONE,3,31,10
India,Chhattisgarh,Tumidih,"OP Jindal Industrial Park, Tumidih - CECB",20-03-2024 22:00:00,22.06631475,83.33820077,NO2,NA,NA,NA
India,Delhi,Delhi,"Alipur, Delhi - DPCC",20-03-2024 22:00:00,28.815329,77.153010,SO2,10,37,19
India,Delhi,Delhi,"Aya Nagar, Delhi - IMD",20-03-2024 22:00:00,28.4706914,77.1099364,NO2,17,32,25
India,Delhi,Delhi,"Bawana, Delhi - DPCC",20-03-2024 22:00:00,28.776200,77.051074,PM10,120,426,248
India,Delhi,Delhi,"CRRI Mathura Road, Delhi - IMD",20-03-2024 22:00:00,28.5512005,77.2735737,PM2.5,33,359,215
India,Delhi,Delhi,"Chandni Chowk, Delhi - IITM",20-03-2024 22:00:00,28.656756,77.227234,PM2.5,NA,NA,NA
India,Delhi,Delhi,"DTU, Delhi - CPCB",20-03-2024 22:00:00,28.7500499,77.1112615,OZONE,26,116,51
India,Delhi,Delhi,"Dr. Karni Singh Shooting Range, Delhi - DPCC",20-03-2024 22:00:00,28.498571,77.264840,PM10,91,294,193
India,Delhi,Delhi,"Dr. Karni Singh Shooting Range, Delhi - DPCC",20-03-2024 22:00:00,28.498571,77.264840,NO2,30,156,103
India,Delhi,Delhi,"IGI Airport (T3), Delhi - IMD",20-03-2024 22:00:00,28.5627763,77.1180053,OZONE,5,60,30
India,Delhi,Delhi,"IHBAS, Dilshad Garden, Delhi - CPCB",20-03-2024 22:00:00,28.6811736,77.3025234,NO2,29,53,40
India,Delhi,Delhi,"ITO, Delhi - CPCB",20-03-2024 22:00:00,28.628624,77.241060,SO2,9,37,17
India,Delhi,Delhi,"ITO, Delhi - CPCB",20-03-2024 22:00:00,28.628624,77.241060,CO,18,111,49
India,Delhi,Delhi,"Jahangirpuri, Delhi - DPCC",20-03-2024 22:00:00,28.732820,77.170633,CO,34,112,69
India,Delhi,Delhi,"Jawaharlal Nehru Stadium, Delhi - DPCC",20-03-2024 22:00:00,28.580280,77.233829,PM10,79,287,170
India,Delhi,Delhi,"Jawaharlal Nehru Stadium, Delhi - DPCC",20-03-2024 22:00:00,28.580280,77.233829,CO,28,116,50
India,Delhi,Delhi,"Lodhi Road, Delhi - IITM",20-03-2024 22:00:00,28.588333,77.221667,CO,59,69,63
India,Delhi,Delhi,"Lodhi Road, Delhi - IITM",20-03-2024 22:00:00,28.588333,77.221667,OZONE,15,38,23
India,Delhi,Delhi,"Lodhi Road, Delhi - IMD",20-03-2024 22:00:00,28.5918245,77.2273074,PM10,64,211,138
India,Delhi,Delhi,"Lodhi Road, Delhi - IMD",20-03-2024 22:00:00,28.5918245,77.2273074,NO2,1,12,6
India,Delhi,Delhi,"Mundka, Delhi - DPCC",20-03-2024 22:00:00,28.684678,77.076574,NO2,19,103,51
India,Delhi,Delhi,"NSIT Dwarka, Delhi - CPCB",20-03-2024 22:00:00,28.60909,77.0325413,PM10,109,429,244
India,Delhi,Delhi,"NSIT Dwarka, Delhi - CPCB",20-03-2024 22:00:00,28.60909,77.0325413,CO,33,100,49
India,Delhi,Delhi,"Najafgarh, Delhi - DPCC",20-03-2024 22:00:00,28.570173,76.933762,NH3,11,14,12
India,Delhi,Delhi,"Nehru Nagar, Delhi - DPCC",20-03-2024 22:00:00,28.567890,77.250515,PM10,95,421,222
India,Delhi,Delhi,"Nehru Nagar, Delhi - DPCC",20-03-2024 22:00:00,28.567890,77.250515,SO2,11,47,17
India,Delhi,Delhi,"North Campus, DU, Delhi - IMD",20-03-2024 22:00:00,28.6573814,77.1585447,NO2,11,53,32
India,Delhi,Delhi,"Okhla Phase-2, Delhi - DPCC",20-03-2024 22:00:00,28.530785,77.271255,PM10,92,338,205
India,Delhi,Delhi,"Okhla Phase-2, Delhi - DPCC",20-03-2024 22:00:00,28.530785,77.271255,NO2,38,299,161
India,Delhi,Delhi,"Okhla Phase-2, Delhi - DPCC",20-03-2024 22:00:00,28.530785,77.271255,SO2,10,18,14
India,Delhi,Delhi,"Patparganj, Delhi - DPCC",20-03-2024 22:00:00,28.623763,77.287209,PM2.5,22,147,86
India,Delhi,Delhi,"Patparganj, Delhi - DPCC",20-03-2024 22:00:00,28.623763,77.287209,PM10,92,309,212
India,Delhi,Delhi,"Patparganj, Delhi - DPCC",20-03-2024 22:00:00,28.623763,77.287209,CO,2,73,30
India,Delhi,Delhi,"Punjabi Bagh, Delhi - DPCC",20-03-2024 22:00:00,28.674045,77.131023,SO2,NA,NA,NA
India,Delhi,Delhi,"Pusa, Delhi - IMD",20-03-2024 22:00:00,28.636110,77.173332,CO,59,106,64
India,Delhi,Delhi,"Pusa, Delhi - IMD",20-03-2024 22:00:00,28.636110,77.173332,OZONE,1,21,11
India,Delhi,Delhi,"R K Puram, Delhi - DPCC",20-03-2024 22:00:00,28.563262,77.186937,NH3,1,4,2
India,Delhi,Delhi,"Rohini, Delhi - DPCC",20-03-2024 22:00:00,28.732528,77.119920,NO2,14,83,48
India,Delhi,Delhi,"Rohini, Delhi - DPCC",20-03-2024 22:00:00,28.732528,77.119920,OZONE,3,121,69
India,Delhi,Delhi,"Shadipur, Delhi - CPCB",20-03-2024 22:00:00,28.6514781,77.1473105,NO2,43,56,49
India,Delhi,Delhi,"Sirifort, Delhi - CPCB",20-03-2024 22:00:00,28.5504249,77.2159377,PM10,1,343,198
India,Delhi,Delhi,"Sirifort, Delhi - CPCB",20-03-2024 22:00:00,28.5504249,77.2159377,NO2,11,192,139
India,Delhi,Delhi,"Sirifort, Delhi - CPCB",20-03-2024 22:00:00,28.5504249,77.2159377,CO,4,99,30
India,Delhi,Delhi,"Sonia Vihar, Delhi - DPCC",20-03-2024 22:00:00,28.710508,77.249485,NH3,5,6,6
India,Delhi,Delhi,"Sri Aurobindo Marg, Delhi - DPCC",20-03-2024 22:00:00,28.531346,77.190156,PM10,67,272,168
India,Delhi,Delhi,"Sri Aurobindo Marg, Delhi - DPCC",20-03-2024 22:00:00,28.531346,77.190156,NH3,6,10,7
India,Delhi,Delhi,"Wazirpur, Delhi - DPCC",20-03-2024 22:00:00,28.699793,77.165453,PM2.5,31,400,236
India,Delhi,Delhi,"Wazirpur, Delhi - DPCC",20-03-2024 22:00:00,28.699793,77.165453,OZONE,3,52,31
India,Gujarat,Ahmedabad,"Chandkheda, Ahmedabad - IITM",20-03-2024 22:00:00,23.107969,72.574648,NH3,15,15,15
India,Gujarat,Ahmedabad,"Chandkheda, Ahmedabad - IITM",20-03-2024 22:00:00,23.107969,72.574648,CO,1,108,42
India,Gujarat,Ahmedabad,"Gyaspur, Ahmedabad - IITM",20-03-2024 22:00:00,22.977134,72.553024,NO2,18,71,51
India,Gujarat,Ahmedabad,"Maninagar, Ahmedabad - GPCB",20-03-2024 22:00:00,23.002657,72.591912,OZONE,4,43,19
India,Gujarat,Ahmedabad,"Rakhial, Ahmedabad - IITM",20-03-2024 22:00:00,23.016834,72.625775,NH3,1,24,18
India,Gujarat,Ahmedabad,"Rakhial, Ahmedabad - IITM",20-03-2024 22:00:00,23.016834,72.625775,CO,10,105,19
India,Gujarat,Ahmedabad,"SAC ISRO Satellite, Ahmedabad - IITM",20-03-2024 22:00:00,23.023389,72.515201,PM2.5,129,135,133
India,Gujarat,Ahmedabad,"SAC ISRO Satellite, Ahmedabad - IITM",20-03-2024 22:00:00,23.023389,72.515201,CO,22,25,24
India,Gujarat,Ankleshwar,"GIDC, Ankleshwar - GPCB",20-03-2024 22:00:00,21.613267,73.010555,PM10,49,138,100
India,Gujarat,Gandhinagar,"GIFT City, Gandhinagar - IITM",20-03-2024 22:00:00,23.163798,72.677768,PM2.5,84,313,154
India,Gujarat,Gandhinagar,"GIFT City, Gandhinagar - IITM",20-03-2024 22:00:00,23.163798,72.677768,SO2,8,13,10
India,Gujarat,Gandhinagar,"IIPHG Lekawada, Gandhinagar - IITM",20-03-2024 22:00:00,23.243639,72.68994,PM2.5,54,303,137
India,Gujarat,Gandhinagar,"IIPHG Lekawada, Gandhinagar - IITM",20-03-2024 22:00:00,23.243639,72.68994,NO2,37,70,46
India,Gujarat,Gandhinagar,"IIPHG Lekawada, Gandhinagar - IITM",20-03-2024 22:00:00,23.243639,72.68994,OZONE,10,51,39
India,Gujarat,Surat,"Science Center, Surat - SMC",20-03-2024 22:00:00,21.170046,72.795405,PM2.5,4,126,36
India,Gujarat,Surat,"Science Center, Surat - SMC",20-03-2024 22:00:00,21.170046,72.795405,PM10,8,143,48
India,Gujarat,Vapi,"Phase-1 GIDC, Vapi - GPCB",20-03-2024 22:00:00,20.362421,72.918013,PM2.5,32,314,137
India,Gujarat,Vatva,"Phase-4 GIDC, Vatva - GPCB",20-03-2024 22:00:00,22.969611,72.643500,NH3,2,8,6
India,Haryana,Ambala,"Patti Mehar, Ambala - HSPCB",20-03-2024 22:00:00,30.379589,76.778328,SO2,NA,NA,NA
India,Haryana,Bahadurgarh,"Arya Nagar, Bahadurgarh - HSPCB",20-03-2024 22:00:00,28.6701,76.9254,PM2.5,32,324,172
India,Haryana,Bahadurgarh,"Arya Nagar, Bahadurgarh - HSPCB",20-03-2024 22:00:00,28.6701,76.9254,PM10,50,192,134
India,Haryana,Bahadurgarh,"Arya Nagar, Bahadurgarh - HSPCB",20-03-2024 22:00:00,28.6701,76.9254,NO2,31,39,36
India,Haryana,Ballabgarh,"Nathu Colony, Ballabgarh - HSPCB",20-03-2024 22:00:00,28.3419248,77.319699,PM10,127,427,237
India,Haryana,Ballabgarh,"Nathu Colony, Ballabgarh - HSPCB",20-03-2024 22:00:00,28.3419248,77.319699,NH3,1,2,2
India,Haryana,Bhiwani,"H.B. Colony, Bhiwani - HSPCB",20-03-2024 22:00:00,28.806223,76.141105,PM2.5,62,151,94
India,Haryana,Bhiwani,"H.B. Colony, Bhiwani - HSPCB",20-03-2024 22:00:00,28.806223,76.141105,PM10,57,111,82
India,Haryana,Charkhi Dadri,"Mini Secretariat, Charkhi Dadri - HSPCB",20-03-2024 22:00:00,28.593883,76.270653,PM10,18,143,101
India,Haryana,Charkhi Dadri,"Mini Secretariat, Charkhi Dadri - HSPCB",20-03-2024 22:00:00,28.593883,76.270653,NO2,15,24,18
India,Haryana,Faridabad,"New Industrial Town, Faridabad - HSPCB",20-03-2024 22:00:00,28.39072,77.30059,PM10,41,454,213
India,Haryana,Faridabad,"Sector 11, Faridabad - HSPCB",20-03-2024 22:00:00,28.376058,77.315741,PM10,144,500,242
India,Haryana,Faridabad,"Sector 11, Faridabad - HSPCB",20-03-2024 22:00:00,28.376058,77.315741,NH3,6,6,6
India,Haryana,Faridabad,"Sector 11, Faridabad - HSPCB",20-03-2024 22:00:00,28.376058,77.315741,SO2,6,118,16
India,Haryana,Faridabad,"Sector 30, Faridabad - HSPCB",20-03-2024 22:00:00,28.4417,77.3217,PM10,137,152,143
India,Haryana,Faridabad,"Sector 30, Faridabad - HSPCB",20-03-2024 22:00:00,28.4417,77.3217,NH3,9,9,9
India,Haryana,Faridabad,"Sector- 16A, Faridabad - HSPCB",20-03-2024 22:00:00,28.4088421,77.3099081,SO2,3,26,21
India,Haryana,Fatehabad,"Huda Sector, Fatehabad - HSPCB",20-03-2024 22:00:00,29.503664,75.467934,NO2,36,38,38
India,Haryana,Fatehabad,"Huda Sector, Fatehabad - HSPCB",20-03-2024 22:00:00,29.503664,75.467934,OZONE,75,107,94
India,Haryana,Gurugram,"Sector-51, Gurugram - HSPCB",20-03-2024 22:00:00,28.4227,77.0667,NH3,7,14,9
India,Haryana,Gurugram,"Sector-51, Gurugram - HSPCB",20-03-2024 22:00:00,28.4227,77.0667,OZONE,27,67,56
India,Haryana,Hisar,"Urban Estate-II, Hisar - HSPCB",20-03-2024 22:00:00,29.140560,75.744941,CO,40,64,48
India,Haryana,Hisar,"Urban Estate-II, Hisar - HSPCB",20-03-2024 22:00:00,29.140560,75.744941,OZONE,23,149,124
India,Haryana,Karnal,"Sector-12, Karnal - HSPCB",20-03-2024 22:00:00,29.695300,77.002700,PM10,NA,NA,NA
India,Haryana,Kurukshetra,"Sector-7, Kurukshetra - HSPCB",20-03-2024 22:00:00,29.966942,76.875879,CO,2,54,13
India,Haryana,Mandikhera,"General Hospital, Mandikhera - HSPCB",20-03-2024 22:00:00,27.9002,76.9938,PM2.5,19,66,38
India,Haryana,Manesar,"Sector-2 IMT, Manesar - HSPCB",20-03-2024 22:00:00,28.360699,76.936090,PM2.5,56,171,117
India,Haryana,Manesar,"Sector-2 IMT, Manesar - HSPCB",20-03-2024 22:00:00,28.360699,76.936090,NH3,2,4,3
India,Haryana,Manesar,"Sector-2 IMT, Manesar - HSPCB",20-03-2024 22:00:00,28.360699,76.936090,OZONE,1,56,29
India,Haryana,Narnaul,"Shastri Nagar, Narnaul - HSPCB",20-03-2024 22:00:00,28.060249,76.113115,PM10,24,104,54
India,Haryana,Narnaul,"Shastri Nagar, Narnaul - HSPCB",20-03-2024 22:00:00,28.060249,76.113115,CO,8,12,8
India,Haryana,Palwal,"Shyam Nagar, Palwal - HSPCB",20-03-2024 22:00:00,28.1485564,77.3320667,PM10,102,155,122
India,Haryana,Palwal,"Shyam Nagar, Palwal - HSPCB",20-03-2024 22:00:00,28.1485564,77.3320667,CO,22,39,27
India,Haryana,Panipat,"Sector-18, Panipat - HSPCB",20-03-2024 22:00:00,29.497973,76.993331,PM10,74,76,75
India,Haryana,Panipat,"Sector-18, Panipat - HSPCB",20-03-2024 22:00:00,29.497973,76.993331,NH3,2,3,2
India,Haryana,Rohtak,"MD University, Rohtak - HSPCB",20-03-2024 22:00:00,28.52123,76.37138,PM2.5,6,353,165
India,Haryana,Rohtak,"MD University, Rohtak - HSPCB",20-03-2024 22:00:00,28.52123,76.37138,CO,NA,NA,NA
India,Haryana,Rohtak,"MD University, Rohtak - HSPCB",20-03-2024 22:00:00,28.52123,76.37138,OZONE,44,56,50
India,Haryana,Sirsa,"F-Block, Sirsa - HSPCB",20-03-2024 22:00:00,29.536400,75.015800,OZONE,3,91,53
India,Haryana,Sonipat,"Murthal, Sonipat - HSPCB",20-03-2024 22:00:00,29.027200,77.062100,PM2.5,24,76,57
India,Haryana,Yamuna Nagar,"Gobind Pura, Yamuna Nagar - HSPCB",20-03-2024 22:00:00,30.1480566,77.2893471,NO2,11,29,19
