country,state,city,station,last_update,latitude,longitude,pollutant_id,pollutant_min,pollutant_max,pollutant_avg
India,Andhra_Pradesh,Anantapur,"Gulzarpet, Anantapur - APPCB",25-01-2024 21:00:00,14.675886,77.593027,NO2,19,46,30
India,Andhra_Pradesh,Anantapur,"Gulzarpet, Anantapur - APPCB",25-01-2024 21:00:00,14.675886,77.593027,OZONE,5,56,48
India,Andhra_Pradesh,Kadapa,"Yerramukkapalli, Kadapa - APPCB",25-01-2024 21:00:00,14.465052,78.824187,CO,NA,NA,NA
India,Andhra_Pradesh,Tirupati,"Tirumala, Tirupati - APPCB",25-01-2024 21:00:00,13.67,79.35,CO,30,108,48
India,Andhra_Pradesh,Tirupati,"Vaikuntapuram, Tirupati - APPCB",25-01-2024 21:00:00,13.615387,79.409230,SO2,4,5,5
India,Andhra_Pradesh,Vijayawada,"HB Colony, Vijayawada - APPCB",25-01-2024 21:00:00,16.536107,80.594233,SO2,NA,NA,NA
India,Andhra_Pradesh,Vijayawada,"HB Colony, Vijayawada - APPCB",25-01-2024 21:00:00,16.536107,80.594233,OZONE,53,58,56
India,Andhra_Pradesh,Visakhapatnam,"GVM Corporation, Visakhapatnam - APPCB",25-01-2024 21:00:00,17.72,83.3,PM10,57,127,89
India,Andhra_Pradesh,Visakhapatnam,"GVM Corporation, Visakhapatnam - APPCB",25-01-2024 21:00:00,17.72,83.3,OZONE,8,36,22
India,Assam,Guwahati,"IITG, Guwahati - PCBA",25-01-2024 21:00:00,26.2028636,91.70046436,NO2,3,23,10
India,Assam,Guwahati,"Pan Bazaar, Guwahati - PCBA",25-01-2024 21:00:00,26.187500,91.744194,SO2,58,103,71
India,Assam,Guwahati,"Pan Bazaar, Guwahati - PCBA",25-01-2024 21:00:00,26.187500,91.744194,OZONE,17,18,17
India,Assam,Guwahati,"Railway Colony, Guwahati - PCBA",25-01-2024 21:00:00,26.181742,91.78063,CO,36,118,73
India,Assam,Nalbari,"Bata Chowk, Nalbari - PCBA",25-01-2024 21:00:00,26.446912,91.439057,CO,19,127,67
India,Assam,Silchar,"Tarapur, Silchar - PCBA",25-01-2024 21:00:00,24.82827,92.79525,SO2,6,12,7
India,Assam,Sivasagar,"Girls College, Sivasagar - PCBA",25-01-2024 21:00:00,26.987634,94.636574,CO,6,71,16
India,Bihar,Araria,"Kharahiya Basti, Araria - BSPCB",25-01-2024 21:00:00,26.146529,87.454184,NH3,6,7,6
India,Bihar,Araria,"Kharahiya Basti, Araria - BSPCB",25-01-2024 21:00:00,26.146529,87.454184,SO2,13,17,15
India,Bihar,Aurangabad,"Gurdeo Nagar, Aurangabad - BSPCB",25-01-2024 21:00:00,24.75746,84.366208,CO,14,108,58
India,Bihar,Bhagalpur,"DM Office_Kachari Chowk, Bhagalpur - BSPCB",25-01-2024 21:00:00,25.251013,86.989001,NO2,23,76,43
India,Bihar,Bhagalpur,"Mayaganj, Bhagalpur - BSPCB",25-01-2024 21:00:00,25.265194,87.012947,SO2,8,13,12
India,Bihar,Bhagalpur,"Mayaganj, Bhagalpur - BSPCB",25-01-2024 21:00:00,25.265194,87.012947,OZONE,11,52,40
India,Bihar,Bihar Sharif,"D M Colony, Bihar Sharif - BSPCB",25-01-2024 21:00:00,25.204762,85.514960,NO2,NA,NA,NA
India,Bihar,Chhapra,"Darshan Nagar, Chhapra - BSPCB",25-01-2024 21:00:00,25.7808257,84.7446768,PM10,175,407,201
India,Bihar,Chhapra,"Darshan Nagar, Chhapra - BSPCB",25-01-2024 21:00:00,25.7808257,84.7446768,NO2,17,30,22
India,Bihar,Chhapra,"Darshan Nagar, Chhapra - BSPCB",25-01-2024 21:00:00,25.7808257,84.7446768,SO2,3,40,25
India,Bihar,Gaya,"Kareemganj, Gaya - BSPCB",25-01-2024 21:00:00,24.792403,84.992416,NO2,30,31,30
India,Bihar,Hajipur,"Industrial Area, Hajipur - BSPCB",25-01-2024 21:00:00,25.697189,85.245900,SO2,6,7,7
India,Bihar,Katihar,"Mirchaibari, Katihar - BSPCB",25-01-2024 21:00:00,25.560083,87.553265,PM2.5,78,318,165
India,Bihar,Kishanganj,"SDM Office_Khagra, Kishanganj - BSPCB",25-01-2024 21:00:00,26.0881305,87.93840336,PM2.5,5,328,66
India,Bihar,Kishanganj,"SDM Office_Khagra, Kishanganj - BSPCB",25-01-2024 21:00:00,26.0881305,87.93840336,NO2,28,36,31
India,Bihar,Kishanganj,"SDM Office_Khagra, Kishanganj - BSPCB",25-01-2024 21:00:00,26.0881305,87.93840336,SO2,7,16,13
India,Bihar,Manguraha,"Forest Rest House, Manguraha - BSPCB",25-01-2024 21:00:00,27.308328,84.531742,NO2,10,18,15
India,Bihar,Manguraha,"Forest Rest House, Manguraha - BSPCB",25-01-2024 21:00:00,27.308328,84.531742,NH3,2,2,2
India,Bihar,Munger,"Town Hall, Munger - BSPCB",25-01-2024 21:00:00,25.376776,86.471523,NO2,2,16,15
India,Bihar,Muzaffarpur,"Buddha Colony, Muzaffarpur - BSPCB",25-01-2024 21:00:00,26.11442,85.39813,PM10,181,466,234
India,Bihar,Muzaffarpur,"Buddha Colony, Muzaffarpur - BSPCB",25-01-2024 21:00:00,26.11442,85.39813,NO2,24,94,43
India,Bihar,Muzaffarpur,"Buddha Colony, Muzaffarpur - BSPCB",25-01-2024 21:00:00,26.11442,85.39813,CO,82,145,105
India,Bihar,Muzaffarpur,"Buddha Colony, Muzaffarpur - BSPCB",25-01-2024 21:00:00,26.11442,85.39813,OZONE,38,124,89
India,Bihar,Muzaffarpur,"MIT-Daudpur Kothi, Muzaffarpur - BSPCB",25-01-2024 21:00:00,26.1403345,85.3650192,NO2,4,18,7
India,Bihar,Muzaffarpur,"MIT-Daudpur Kothi, Muzaffarpur - BSPCB",25-01-2024 21:00:00,26.1403345,85.3650192,SO2,10,22,18
India,Bihar,Muzaffarpur,"Muzaffarpur Collectorate, Muzaffarpur - BSPCB",25-01-2024 21:00:00,26.1209,85.3647,PM2.5,222,402,308
India,Bihar,Muzaffarpur,"Muzaffarpur Collectorate, Muzaffarpur - BSPCB",25-01-2024 21:00:00,26.1209,85.3647,NO2,5,11,8
India,Bihar,Patna,"Govt. High School Shikarpur, Patna - BSPCB",25-01-2024 21:00:00,25.592539,85.227158,PM2.5,110,313,209
India,Bihar,Patna,"Govt. High School Shikarpur, Patna - BSPCB",25-01-2024 21:00:00,25.592539,85.227158,NO2,12,27,21
India,Bihar,Patna,"Govt. High School Shikarpur, Patna - BSPCB",25-01-2024 21:00:00,25.592539,85.227158,NH3,3,6,4
India,Bihar,Patna,"Muradpur, Patna - BSPCB",25-01-2024 21:00:00,25.619651,85.147382,NO2,1,21,6
India,Bihar,Patna,"Rajbansi Nagar, Patna - BSPCB",25-01-2024 21:00:00,25.599486,85.113666,SO2,6,14,10
India,Bihar,Purnia,"Mariam Nagar, Purnia - BSPCB",25-01-2024 21:00:00,25.366336,87.117468,PM10,106,224,150
India,Bihar,Purnia,"Mariam Nagar, Purnia - BSPCB",25-01-2024 21:00:00,25.366336,87.117468,SO2,19,22,21
India,Bihar,Rajgir,"Dangi Tola, Rajgir - BSPCB",25-01-2024 21:00:00,25.03280,85.41948,PM10,123,392,161
India,Bihar,Rajgir,"Dangi Tola, Rajgir - BSPCB",25-01-2024 21:00:00,25.03280,85.41948,SO2,4,5,4
India,Bihar,Samastipur,"DM Office_Kasipur, Samastipur - BSPCB",25-01-2024 21:00:00,25.859655,85.77944,PM2.5,NA,NA,NA
India,Bihar,Samastipur,"DM Office_Kasipur, Samastipur - BSPCB",25-01-2024 21:00:00,25.859655,85.77944,SO2,6,13,10
India,Bihar,Siwan,"Chitragupta Nagar, Siwan - BSPCB",25-01-2024 21:00:00,26.2271665,84.3570427,NO2,12,82,25
India,Bihar,Siwan,"Chitragupta Nagar, Siwan - BSPCB",25-01-2024 21:00:00,26.2271665,84.3570427,CO,107,168,102
India,Chandigarh,Chandigarh,"Sector 22, Chandigarh - CPCC",25-01-2024 21:00:00,30.735567,76.775714,NO2,10,38,19
India,Chandigarh,Chandigarh,"Sector 22, Chandigarh - CPCC",25-01-2024 21:00:00,30.735567,76.775714,OZONE,3,82,44
India,Chandigarh,Chandigarh,"Sector-25, Chandigarh - CPCC",25-01-2024 21:00:00,30.751462,76.762879,NH3,10,16,12
India,Chandigarh,Chandigarh,"Sector-25, Chandigarh - CPCC",25-01-2024 21:00:00,30.751462,76.762879,SO2,8,37,11
India,Chandigarh,Chandigarh,"Sector-53, Chandigarh - CPCC",25-01-2024 21:00:00,30.719859,76.738637,PM2.5,130,388,255
India,Chhattisgarh,Bhilai,"32Bungalows, Bhilai - CECB",25-01-2024 21:00:00,21.194815,81.314770,SO2,8,12,10
India,Chhattisgarh,Bhilai,"32Bungalows, Bhilai - CECB",25-01-2024 21:00:00,21.194815,81.314770,CO,31,96,34
India,Chhattisgarh,Bhilai,"Civic Center, Bhilai - Bhilai Steel Plant",25-01-2024 21:00:00,21.185571,81.343175,PM10,NA,NA,NA
India,Chhattisgarh,Bhilai,"Civic Center, Bhilai - Bhilai Steel Plant",25-01-2024 21:00:00,21.185571,81.343175,NH3,NA,NA,NA
India,Chhattisgarh,Bhilai,"Civic Center, Bhilai - Bhilai Steel Plant",25-01-2024 21:00:00,21.185571,81.343175,SO2,NA,NA,NA
India,Chhattisgarh,Bhilai,"Hathkhoj, Bhilai - CECB",25-01-2024 21:00:00,21.224231,81.408350,PM2.5,36,184,96
India,Chhattisgarh,Korba,"Rampur, Korba - CECB",25-01-2024 21:00:00,22.368195,82.746431,PM10,44,82,55
India,Chhattisgarh,Korba,"Rampur, Korba - CECB",25-01-2024 21:00:00,22.368195,82.746431,CO,17,32,22
India,Chhattisgarh,Korba,"Urja Nagar, Korba - CECB",25-01-2024 21:00:00,22.348441,82.549611,NO2,67,83,72
India,Chhattisgarh,Korba,"Urja Nagar, Korba - CECB",25-01-2024 21:00:00,22.348441,82.549611,NH3,4,12,6
India,Chhattisgarh,Korba,"Urja Nagar, Korba - CECB",25-01-2024 21:00:00,22.348441,82.549611,OZONE,47,48,47
India,Chhattisgarh,Kunjemura,"OP Jindal School, Kunjemura - CECB",25-01-2024 21:00:00,22.126650,83.483212,NO2,11,89,49
India,Chhattisgarh,Milupara,"Govt. Higher Secondary School, Milupara - CECB",25-01-2024 21:00:00,22.1910172,83.5197009,PM2.5,12,59,36
India,Chhattisgarh,Milupara,"Govt. Higher Secondary School, Milupara - CECB",25-01-2024 21:00:00,22.1910172,83.5197009,PM10,20,62,39
India,Chhattisgarh,Milupara,"Govt. Higher Secondary School, Milupara - CECB",25-01-2024 21:00:00,22.1910172,83.5197009,NO2,12,30,20
India,Chhattisgarh,Raipur,"AIIMS, Raipur - CECB",25-01-2024 21:00:00,21.258815,81.578979,PM10,45,140,85
India,Chhattisgarh,Raipur,"Bhatagaon New ISBT, Raipur - CECB",25-01-2024 21:00:00,21.219665,81.630094,PM2.5,34,121,65
India,Chhattisgarh,Raipur,"Bhatagaon New ISBT, Raipur - CECB",25-01-2024 21:00:00,21.219665,81.630094,SO2,NA,NA,NA
India,Chhattisgarh,Raipur,"Krishak Nagar, Raipur - CECB",25-01-2024 21:00:00,21.237755,81.705301,PM2.5,35,83,57
India,Chhattisgarh,Raipur,"Krishak Nagar, Raipur - CECB",25-01-2024 21:00:00,21.237755,81.705301,SO2,6,10,8
India,Chhattisgarh,Raipur,"Krishak Nagar, Raipur - CECB",25-01-2024 21:00:00,21.237755,81.705301,CO,32,70,36
India,Chhattisgarh,Tumidih,"OP Jindal Industrial Park, Tumidih - CECB",25-01-2024 21:00:00,22.06631475,83.33820077,NO2,6,33,16
India,Delhi,Delhi,"Ashok Vihar, Delhi - DPCC",25-01-2024 21:00:00,28.695381,77.181665,NO2,37,107,71
India,Delhi,Delhi,"Aya Nagar, Delhi - IMD",25-01-2024 21:00:00,28.4706914,77.1099364,PM2.5,116,386,267
India,Delhi,Delhi,"Aya Nagar, Delhi - IMD",25-01-2024 21:00:00,28.4706914,77.1099364,OZONE,6,34,19
India,Delhi,Delhi,"Burari Crossing, Delhi - IMD",25-01-2024 21:00:00,28.7256504,77.2011573,PM10,145,407,253
India,Delhi,Delhi,"Burari Crossing, Delhi - IMD",25-01-2024 21:00:00,28.7256504,77.2011573,CO,98,103,101
India,Delhi,Delhi,"CRRI Mathura Road, Delhi - IMD",25-01-2024 21:00:00,28.5512005,77.2735737,OZONE,3,45,20
India,Delhi,Delhi,"Dr. Karni Singh Shooting Range, Delhi - DPCC",25-01-2024 21:00:00,28.498571,77.264840,NH3,8,15,11
India,Delhi,Delhi,"Dr. Karni Singh Shooting Range, Delhi - DPCC",25-01-2024 21:00:00,28.498571,77.264840,CO,83,128,113
India,Delhi,Delhi,"Dwarka-Sector 8, Delhi - DPCC ",25-01-2024 21:00:00,28.5710274,77.0719006,PM10,129,438,279
India,Delhi,Delhi,"Dwarka-Sector 8, Delhi - DPCC ",25-01-2024 21:00:00,28.5710274,77.0719006,CO,58,138,95
India,Delhi,Delhi,"Dwarka-Sector 8, Delhi - DPCC ",25-01-2024 21:00:00,28.5710274,77.0719006,OZONE,2,35,20
India,Delhi,Delhi,"IGI Airport (T3), Delhi - IMD",25-01-2024 21:00:00,28.5627763,77.1180053,OZONE,11,32,19
India,Delhi,Delhi,"IHBAS, Dilshad Garden, Delhi - CPCB",25-01-2024 21:00:00,28.6811736,77.3025234,PM10,91,401,236
India,Delhi,Delhi,"IHBAS, Dilshad Garden, Delhi - CPCB",25-01-2024 21:00:00,28.6811736,77.3025234,SO2,2,48,23
India,Delhi,Delhi,"IHBAS, Dilshad Garden, Delhi - CPCB",25-01-2024 21:00:00,28.6811736,77.3025234,CO,22,104,72
India,Delhi,Delhi,"ITO, Delhi - CPCB",25-01-2024 21:00:00,28.628624,77.241060,PM10,104,356,181
India,Delhi,Delhi,"Jawaharlal Nehru Stadium, Delhi - DPCC",25-01-2024 21:00:00,28.580280,77.233829,PM2.5,183,446,331
India,Delhi,Delhi,"Lodhi Road, Delhi - IITM",25-01-2024 21:00:00,28.588333,77.221667,PM2.5,37,500,270
India,Delhi,Delhi,"Lodhi Road, Delhi - IITM",25-01-2024 21:00:00,28.588333,77.221667,NO2,72,124,93
India,Delhi,Delhi,"Lodhi Road, Delhi - IMD",25-01-2024 21:00:00,28.5918245,77.2273074,CO,64,112,101
India,Delhi,Delhi,"Mandir Marg, Delhi - DPCC",25-01-2024 21:00:00,28.636429,77.201067,NO2,95,145,112
India,Delhi,Delhi,"Mandir Marg, Delhi - DPCC",25-01-2024 21:00:00,28.636429,77.201067,NH3,11,18,15
India,Delhi,Delhi,"NSIT Dwarka, Delhi - CPCB",25-01-2024 21:00:00,28.60909,77.0325413,CO,48,107,81
India,Delhi,Delhi,"Narela, Delhi - DPCC",25-01-2024 21:00:00,28.822836,77.101981,PM10,94,421,233
India,Delhi,Delhi,"Narela, Delhi - DPCC",25-01-2024 21:00:00,28.822836,77.101981,NH3,8,13,10
India,Delhi,Delhi,"Okhla Phase-2, Delhi - DPCC",25-01-2024 21:00:00,28.530785,77.271255,CO,61,126,102
India,Delhi,Delhi,"Okhla Phase-2, Delhi - DPCC",25-01-2024 21:00:00,28.530785,77.271255,OZONE,7,65,34
India,Delhi,Delhi,"Patparganj, Delhi - DPCC",25-01-2024 21:00:00,28.623763,77.287209,NO2,40,98,60
India,Delhi,Delhi,"Punjabi Bagh, Delhi - DPCC",25-01-2024 21:00:00,28.674045,77.131023,PM10,116,420,283
India,Delhi,Delhi,"Pusa, Delhi - DPCC",25-01-2024 21:00:00,28.639652,77.146275,NO2,87,402,217
India,Delhi,Delhi,"Pusa, Delhi - DPCC",25-01-2024 21:00:00,28.639652,77.146275,NH3,21,41,30
India,Delhi,Delhi,"Pusa, Delhi - DPCC",25-01-2024 21:00:00,28.639652,77.146275,SO2,5,18,11
India,Delhi,Delhi,"Pusa, Delhi - DPCC",25-01-2024 21:00:00,28.639652,77.146275,OZONE,14,53,35
India,Delhi,Delhi,"Pusa, Delhi - IMD",25-01-2024 21:00:00,28.636110,77.173332,NO2,27,70,45
India,Delhi,Delhi,"R K Puram, Delhi - DPCC",25-01-2024 21:00:00,28.563262,77.186937,CO,77,161,161
India,Delhi,Delhi,"Sirifort, Delhi - CPCB",25-01-2024 21:00:00,28.5504249,77.2159377,NO2,130,201,160
India,Delhi,Delhi,"Sonia Vihar, Delhi - DPCC",25-01-2024 21:00:00,28.710508,77.249485,PM10,122,428,240
India,Delhi,Delhi,"Sonia Vihar, Delhi - DPCC",25-01-2024 21:00:00,28.710508,77.249485,SO2,2,11,6
India,Delhi,Delhi,"Sonia Vihar, Delhi - DPCC",25-01-2024 21:00:00,28.710508,77.249485,OZONE,3,81,46
India,Delhi,Delhi,"Sri Aurobindo Marg, Delhi - DPCC",25-01-2024 21:00:00,28.531346,77.190156,PM10,138,457,273
India,Delhi,Delhi,"Sri Aurobindo Marg, Delhi - DPCC",25-01-2024 21:00:00,28.531346,77.190156,NH3,8,12,10
India,Delhi,Delhi,"Wazirpur, Delhi - DPCC",25-01-2024 21:00:00,28.699793,77.165453,NO2,66,204,129
India,Delhi,Delhi,"Wazirpur, Delhi - DPCC",25-01-2024 21:00:00,28.699793,77.165453,CO,16,103,49
India,Delhi,Delhi,"Wazirpur, Delhi - DPCC",25-01-2024 21:00:00,28.699793,77.165453,OZONE,1,40,21
India,Gujarat,Ahmedabad,"Chandkheda, Ahmedabad - IITM",25-01-2024 21:00:00,23.107969,72.574648,CO,13,110,25
India,Gujarat,Ahmedabad,"Chandkheda, Ahmedabad - IITM",25-01-2024 21:00:00,23.107969,72.574648,OZONE,21,26,24
India,Gujarat,Ahmedabad,"Gyaspur, Ahmedabad - IITM",25-01-2024 21:00:00,22.977134,72.553024,PM10,62,380,139
India,Gujarat,Ahmedabad,"Raikhad, Ahmedabad - IITM",25-01-2024 21:00:00,23.020509,72.579261,PM2.5,NA,NA,NA
India,Gujarat,Ahmedabad,"Raikhad, Ahmedabad - IITM",25-01-2024 21:00:00,23.020509,72.579261,PM10,NA,NA,NA
India,Gujarat,Ahmedabad,"Raikhad, Ahmedabad - IITM",25-01-2024 21:00:00,23.020509,72.579261,NH3,NA,NA,NA
India,Gujarat,Ahmedabad,"SAC ISRO Bopal, Ahmedabad - IITM",25-01-2024 21:00:00,23.041137,72.456691,CO,45,64,59
India,Gujarat,Ahmedabad,"SAC ISRO Satellite, Ahmedabad - IITM",25-01-2024 21:00:00,23.023389,72.515201,SO2,5,16,7
India,Gujarat,Ahmedabad,"SAC ISRO Satellite, Ahmedabad - IITM",25-01-2024 21:00:00,23.023389,72.515201,OZONE,2,18,14
India,Gujarat,Ahmedabad,"SVPI Airport Hansol, Ahmedabad - IITM",25-01-2024 21:00:00,23.076793,72.627874,PM10,52,176,102
India,Gujarat,Ahmedabad,"SVPI Airport Hansol, Ahmedabad - IITM",25-01-2024 21:00:00,23.076793,72.627874,NH3,3,4,3
India,Gujarat,Ahmedabad,"Sardar Vallabhbhai Patel Stadium, Ahmedabad - IITM",25-01-2024 21:00:00,23.043070,72.562968,PM10,82,169,125
India,Gujarat,Ahmedabad,"Sardar Vallabhbhai Patel Stadium, Ahmedabad - IITM",25-01-2024 21:00:00,23.043070,72.562968,NO2,11,14,12
India,Gujarat,Ankleshwar,"GIDC, Ankleshwar - GPCB",25-01-2024 21:00:00,21.613267,73.010555,PM2.5,50,162,102
India,Gujarat,Gandhinagar,"GIFT City, Gandhinagar - IITM",25-01-2024 21:00:00,23.163798,72.677768,OZONE,1,29,23
India,Gujarat,Gandhinagar,"IIPHG Lekawada, Gandhinagar - IITM",25-01-2024 21:00:00,23.243639,72.68994,SO2,9,12,10
India,Gujarat,Gandhinagar,"Sector-10, Gandhinagar - GPCB",25-01-2024 21:00:00,23.221714,72.654328,PM10,43,122,75
India,Gujarat,Surat,"Science Center, Surat - SMC",25-01-2024 21:00:00,21.170046,72.795405,PM10,7,78,48
India,Gujarat,Vapi,"Phase-1 GIDC, Vapi - GPCB",25-01-2024 21:00:00,20.362421,72.918013,NH3,5,48,21
India,Gujarat,Vapi,"Phase-1 GIDC, Vapi - GPCB",25-01-2024 21:00:00,20.362421,72.918013,SO2,37,46,42
India,Haryana,Ambala,"Patti Mehar, Ambala - HSPCB",25-01-2024 21:00:00,30.379589,76.778328,PM2.5,39,215,73
India,Haryana,Ambala,"Patti Mehar, Ambala - HSPCB",25-01-2024 21:00:00,30.379589,76.778328,NO2,8,21,14
India,Haryana,Ambala,"Patti Mehar, Ambala - HSPCB",25-01-2024 21:00:00,30.379589,76.778328,SO2,2,39,8
India,Haryana,Ballabgarh,"Nathu Colony, Ballabgarh - HSPCB",25-01-2024 21:00:00,28.3419248,77.319699,NO2,4,14,12
India,Haryana,Bhiwani,"H.B. Colony, Bhiwani - HSPCB",25-01-2024 21:00:00,28.806223,76.141105,NO2,1,34,13
India,Haryana,Bhiwani,"H.B. Colony, Bhiwani - HSPCB",25-01-2024 21:00:00,28.806223,76.141105,SO2,4,12,8
India,Haryana,Dharuhera,"Municipal Corporation Office, Dharuhera -  HSPCB",25-01-2024 21:00:00,28.206800,76.799700,SO2,11,22,14
India,Haryana,Faridabad,"New Industrial Town, Faridabad - HSPCB",25-01-2024 21:00:00,28.39072,77.30059,NH3,NA,NA,NA
India,Haryana,Faridabad,"Sector 30, Faridabad - HSPCB",25-01-2024 21:00:00,28.4417,77.3217,CO,104,127,114
India,Haryana,Faridabad,"Sector- 16A, Faridabad - HSPCB",25-01-2024 21:00:00,28.4088421,77.3099081,OZONE,14,14,14
India,Haryana,Fatehabad,"Huda Sector, Fatehabad - HSPCB",25-01-2024 21:00:00,29.503664,75.467934,PM2.5,71,190,119
India,Haryana,Fatehabad,"Huda Sector, Fatehabad - HSPCB",25-01-2024 21:00:00,29.503664,75.467934,NH3,9,11,10
India,Haryana,Fatehabad,"Huda Sector, Fatehabad - HSPCB",25-01-2024 21:00:00,29.503664,75.467934,SO2,4,15,8
India,Haryana,Fatehabad,"Huda Sector, Fatehabad - HSPCB",25-01-2024 21:00:00,29.503664,75.467934,OZONE,20,24,22
India,Haryana,Gurugram,"NISE Gwal Pahari, Gurugram - IMD",25-01-2024 21:00:00,28.422681,77.148944,PM2.5,110,366,292
India,Haryana,Gurugram,"NISE Gwal Pahari, Gurugram - IMD",25-01-2024 21:00:00,28.422681,77.148944,PM10,91,442,263
India,Haryana,Gurugram,"NISE Gwal Pahari, Gurugram - IMD",25-01-2024 21:00:00,28.422681,77.148944,CO,31,74,48
India,Haryana,Gurugram,"Teri Gram, Gurugram - HSPCB",25-01-2024 21:00:00,28.4275,77.1465,NO2,26,83,43
India,Haryana,Gurugram,"Vikas Sadan, Gurugram - HSPCB",25-01-2024 21:00:00,28.4501238,77.0263051,NO2,5,25,14
India,Haryana,Hisar,"Urban Estate-II, Hisar - HSPCB",25-01-2024 21:00:00,29.140560,75.744941,NO2,6,12,9
India,Haryana,Jind,"Police Lines, Jind - HSPCB",25-01-2024 21:00:00,29.307814,76.337619,PM2.5,62,166,91
India,Haryana,Jind,"Police Lines, Jind - HSPCB",25-01-2024 21:00:00,29.307814,76.337619,SO2,4,9,6
India,Haryana,Kaithal,"Rishi Nagar, Kaithal - HSPCB",25-01-2024 21:00:00,29.8006,76.4155,NO2,24,26,25
India,Haryana,Karnal,"Sector-12, Karnal - HSPCB",25-01-2024 21:00:00,29.695300,77.002700,NH3,10,13,11
India,Haryana,Karnal,"Sector-12, Karnal - HSPCB",25-01-2024 21:00:00,29.695300,77.002700,CO,30,84,70
India,Haryana,Mandikhera,"General Hospital, Mandikhera - HSPCB",25-01-2024 21:00:00,27.9002,76.9938,OZONE,23,31,28
India,Haryana,Manesar,"Sector-2 IMT, Manesar - HSPCB",25-01-2024 21:00:00,28.360699,76.936090,OZONE,5,7,5
India,Haryana,Narnaul,"Shastri Nagar, Narnaul - HSPCB",25-01-2024 21:00:00,28.060249,76.113115,PM2.5,28,94,53
India,Haryana,Palwal,"Shyam Nagar, Palwal - HSPCB",25-01-2024 21:00:00,28.1485564,77.3320667,PM10,58,165,90
India,Haryana,Palwal,"Shyam Nagar, Palwal - HSPCB",25-01-2024 21:00:00,28.1485564,77.3320667,SO2,2,23,14
India,Haryana,Panchkula,"Sector-6, Panchkula - HSPCB ",25-01-2024 21:00:00,30.7057778,76.8531805555555,NO2,28,31,29
India,Haryana,Rohtak,"MD University, Rohtak - HSPCB",25-01-2024 21:00:00,28.52123,76.37138,NO2,47,54,51
India,Haryana,Rohtak,"MD University, Rohtak - HSPCB",25-01-2024 21:00:00,28.52123,76.37138,CO,6,38,22
India,Haryana,Sonipat,"Murthal, Sonipat - HSPCB",25-01-2024 21:00:00,29.027200,77.062100,PM10,164,164,164
India,Haryana,Yamuna Nagar,"Gobind Pura, Yamuna Nagar - HSPCB",25-01-2024 21:00:00,30.1480566,77.2893471,SO2,1,82,14
India,Haryana,Yamuna Nagar,"Gobind Pura, Yamuna Nagar - HSPCB",25-01-2024 21:00:00,30.1480566,77.2893471,OZONE,5,24,10
India,Himachal Pradesh,Baddi,"HIMUDA Complex Phase-1, Baddi - HPPCB",25-01-2024 21:00:00,30.943887,76.801991,PM2.5,68,342,187
India,Jharkhand,Dhanbad,"Kalakusuma, Dhanbad - DMC",25-01-2024 21:00:00,23.811548,86.481238,SO2,102,111,108
India,Jharkhand,Dhanbad,"Kalakusuma, Dhanbad - DMC",25-01-2024 21:00:00,23.811548,86.481238,CO,74,104,97
India,Jharkhand,Dhanbad,"Sardar Patel Nagar, Dhanbad - JSPCB",25-01-2024 21:00:00,23.80569,86.44268,NO2,NA,NA,NA
India,Jharkhand,Dhanbad,"Sardar Patel Nagar, Dhanbad - JSPCB",25-01-2024 21:00:00,23.80569,86.44268,SO2,NA,NA,NA
India,Jharkhand,Pathardih,"Mohalbani Ghat, Pathardih - DMC",25-01-2024 21:00:00,23.669880,86.411725,PM10,NA,NA,NA
India,Karnataka,Bagalkot,"Vidayagiri, Bagalkot - KSPCB",25-01-2024 21:00:00,16.172806,75.659694,NH3,1,2,1
India,Karnataka,Belgaum,"Ramteerth Nagar, Belgaum - KSPCB",25-01-2024 21:00:00,15.888653,74.541751,PM2.5,55,173,77
India,Karnataka,Bengaluru,"Bapuji Nagar, Bengaluru - KSPCB",25-01-2024 21:00:00,12.951913,77.539784,NO2,9,11,10
India,Karnataka,Bengaluru,"Bapuji Nagar, Bengaluru - KSPCB",25-01-2024 21:00:00,12.951913,77.539784,OZONE,9,11,10
India,Karnataka,Bengaluru,"Hombegowda Nagar, Bengaluru - KSPCB",25-01-2024 21:00:00,12.938539,77.590100,PM2.5,42,131,64
India,Karnataka,Bengaluru,"Hombegowda Nagar, Bengaluru - KSPCB",25-01-2024 21:00:00,12.938539,77.590100,NO2,38,47,40
India,Karnataka,Bengaluru,"Hombegowda Nagar, Bengaluru - KSPCB",25-01-2024 21:00:00,12.938539,77.590100,OZONE,2,5,4
India,Karnataka,Bengaluru,"Jayanagar 5th Block, Bengaluru - KSPCB",25-01-2024 21:00:00,12.920984,77.584908,PM2.5,73,196,127
India,Karnataka,Bengaluru,"Jigani, Bengaluru - KSPCB",25-01-2024 21:00:00,12.7816279,77.6299145,NH3,3,4,3
India,Karnataka,Bengaluru,"Jigani, Bengaluru - KSPCB",25-01-2024 21:00:00,12.7816279,77.6299145,CO,44,101,56
India,Karnataka,Bengaluru,"Kasturi Nagar, Bengaluru - KSPCB",25-01-2024 21:00:00,13.003872,77.664217,NH3,3,4,4
India,Karnataka,Bengaluru,"Kasturi Nagar, Bengaluru - KSPCB",25-01-2024 21:00:00,13.003872,77.664217,SO2,10,10,10
India,Karnataka,Bengaluru,"Kasturi Nagar, Bengaluru - KSPCB",25-01-2024 21:00:00,13.003872,77.664217,CO,24,26,25
India,Karnataka,Bengaluru,"RVCE-Mailasandra, Bengaluru - KSPCB",25-01-2024 21:00:00,12.921418,77.502466,PM2.5,75,194,123
India,Karnataka,Bengaluru,"RVCE-Mailasandra, Bengaluru - KSPCB",25-01-2024 21:00:00,12.921418,77.502466,NO2,31,31,31
India,Karnataka,Bengaluru,"Sanegurava Halli, Bengaluru - KSPCB",25-01-2024 21:00:00,12.990328,77.5431385,NO2,24,61,32
India,Karnataka,Bengaluru,"Silk Board, Bengaluru - KSPCB",25-01-2024 21:00:00,12.917348,77.622813,NO2,20,29,24
India,Karnataka,Bengaluru,"Silk Board, Bengaluru - KSPCB",25-01-2024 21:00:00,12.917348,77.622813,NH3,5,7,6
India,Karnataka,Bidar,"Naubad, Bidar - KSPCB",25-01-2024 21:00:00,17.930306,77.482194,NO2,7,8,8
India,Karnataka,Chamarajanagar,"Urban, Chamarajanagar - KSPCB",25-01-2024 21:00:00,11.55358,76.55521,SO2,2,8,4
India,Karnataka,Chikkaballapur,"Chikkaballapur Rural, Chikkaballapur - KSPCB",25-01-2024 21:00:00,13.428828,77.731418,PM2.5,60,136,78
India,Karnataka,Davanagere,"Devaraj Urs Badavane, Davanagere - KSPCB",25-01-2024 21:00:00,14.475800,75.905200,OZONE,20,30,26
India,Karnataka,Dharwad,"Kalabhavan, Dharwad - KSPCB",25-01-2024 21:00:00,15.459706,75.008381,NO2,14,35,23
India,Karnataka,Dharwad,"Kalabhavan, Dharwad - KSPCB",25-01-2024 21:00:00,15.459706,75.008381,SO2,4,19,8
India,Karnataka,Gadag,"Panchal Nagar, Gadag - KSPCB",25-01-2024 21:00:00,15.411456,75.638133,OZONE,18,81,67
India,Karnataka,Hassan,"B.Katihalli, Hassan - KSPCB",25-01-2024 21:00:00,13.008556,76.125258,NH3,3,7,4
India,Karnataka,Haveri,"Ashwini Nagar, Haveri - KSPCB",25-01-2024 21:00:00,14.791800,75.389600,PM10,30,173,71
India,Karnataka,Hubballi,"Deshpande Nagar, Hubballi - KSPCB",25-01-2024 21:00:00,15.351773,75.140726,NH3,6,8,7
India,Karnataka,Hubballi,"Deshpande Nagar, Hubballi - KSPCB",25-01-2024 21:00:00,15.351773,75.140726,OZONE,26,60,47
India,Karnataka,Kalaburagi,"Lal Bahadur Shastri Nagar, Kalaburagi - KSPCB",25-01-2024 21:00:00,17.321993,76.822628,CO,37,78,48
India,Karnataka,Kalaburagi,"Mahatma Basaveswar Colony, Kalaburgi - KSPCB",25-01-2024 21:00:00,17.336318,76.847397,NO2,22,24,24
India,Karnataka,Kalaburagi,"Mahatma Basaveswar Colony, Kalaburgi - KSPCB",25-01-2024 21:00:00,17.336318,76.847397,SO2,6,47,11
India,Karnataka,Kalaburagi,"Mahatma Basaveswar Colony, Kalaburgi - KSPCB",25-01-2024 21:00:00,17.336318,76.847397,OZONE,11,31,22
India,Karnataka,Kolar,"Tamaka Ind. Area, Kolar - KSPCB",25-01-2024 21:00:00,13.1276288,78.1570122,PM10,53,111,73
India,Karnataka,Koppal,"Diwator Nagar, Koppal - KSPCB",25-01-2024 21:00:00,15.347630,76.181767,OZONE,14,71,55
India,Karnataka,Ramanagara,"Vijay Nagar, Ramanagara - KSPCB",25-01-2024 21:00:00,12.733409,77.298051,NO2,3,20,7
India,Karnataka,Shivamogga,"Vinoba Nagara, Shivamogga - KSPCB",25-01-2024 21:00:00,13.940000,75.555917,CO,8,34,32
India,Karnataka,Vijayapura,"Ibrahimpur, Vijayapura - KSPCB",25-01-2024 21:00:00,16.802639,75.722694,NH3,2,2,2
India,Karnataka,Yadgir,"Collector Office, Yadgir - KSPCB",25-01-2024 21:00:00,16.7602,77.1428,NO2,5,8,6
India,Karnataka,Yadgir,"Collector Office, Yadgir - KSPCB",25-01-2024 21:00:00,16.7602,77.1428,SO2,8,32,15
India,Kerala,Eloor,"Udyogamandal, Eloor - Kerala PCB",25-01-2024 21:00:00,10.073232,76.302765,CO,2,126,80
India,Kerala,Kannur,"Thavakkara, Kannur - Kerala PCB",25-01-2024 21:00:00,11.875000,75.373200,PM2.5,42,50,47
India,Kerala,Kannur,"Thavakkara, Kannur - Kerala PCB",25-01-2024 21:00:00,11.875000,75.373200,CO,29,34,32
India,Kerala,Kollam,"Polayathode, Kollam - Kerala PCB",25-01-2024 21:00:00,8.8787,76.6073,PM10,47,132,97
India,Kerala,Kollam,"Polayathode, Kollam - Kerala PCB",25-01-2024 21:00:00,8.8787,76.6073,OZONE,30,36,34
India,Kerala,Thiruvananthapuram,"Kariavattom, Thiruvananthapuram - Kerala PCB",25-01-2024 21:00:00,8.563700,76.886500,NH3,1,1,1
India,Kerala,Thiruvananthapuram,"Plammoodu, Thiruvananthapuram - Kerala PCB",25-01-2024 21:00:00,8.5149093,76.9435879,PM2.5,38,58,46
India,Kerala,Thiruvananthapuram,"Plammoodu, Thiruvananthapuram - Kerala PCB",25-01-2024 21:00:00,8.5149093,76.9435879,PM10,59,88,75
India,Kerala,Thiruvananthapuram,"Plammoodu, Thiruvananthapuram - Kerala PCB",25-01-2024 21:00:00,8.5149093,76.9435879,NO2,12,14,13
India,Kerala,Thiruvananthapuram,"Plammoodu, Thiruvananthapuram - Kerala PCB",25-01-2024 21:00:00,8.5149093,76.9435879,CO,21,31,27
India,Kerala,Thrissur,"Corporation Ground, Thrissur - Kerala PCB",25-01-2024 21:00:00,10.532400,76.215900,PM10,53,62,59
India,Madhya Pradesh,Bhopal,"Paryavaran Parisar, Bhopal - MPPCB",25-01-2024 21:00:00,23.210494,77.425409,SO2,21,29,24
India,Madhya Pradesh,Bhopal,"T T Nagar, Bhopal - MPPCB",25-01-2024 21:00:00,23.233584,77.400574,PM10,67,301,135
India,Madhya Pradesh,Bhopal,"T T Nagar, Bhopal - MPPCB",25-01-2024 21:00:00,23.233584,77.400574,NO2,38,130,77
India,Madhya Pradesh,Bhopal,"T T Nagar, Bhopal - MPPCB",25-01-2024 21:00:00,23.233584,77.400574,NH3,1,6,3
India,Madhya Pradesh,Bhopal,"T T Nagar, Bhopal - MPPCB",25-01-2024 21:00:00,23.233584,77.400574,SO2,24,50,34
India,Madhya Pradesh,Dewas,"Bhopal Chauraha, Dewas - MPPCB",25-01-2024 21:00:00,22.9682591,76.064118,PM10,52,197,98
India,Madhya Pradesh,Dewas,"Bhopal Chauraha, Dewas - MPPCB",25-01-2024 21:00:00,22.9682591,76.064118,CO,14,68,27
India,Madhya Pradesh,Gwalior,"City Center, Gwalior - MPPCB",25-01-2024 21:00:00,26.203442,78.193251,SO2,17,33,28
India,Madhya Pradesh,Gwalior,"City Center, Gwalior - MPPCB",25-01-2024 21:00:00,26.203442,78.193251,OZONE,29,30,30
India,Madhya Pradesh,Gwalior,"Deen Dayal Nagar, Gwalior - MPPCB",25-01-2024 21:00:00,26.259242,78.216432,NH3,6,13,10
India,Madhya Pradesh,Gwalior,"Deen Dayal Nagar, Gwalior - MPPCB",25-01-2024 21:00:00,26.259242,78.216432,SO2,17,22,18
India,Madhya Pradesh,Gwalior,"Phool Bagh, Gwalior - Mondelez Ind. Food",25-01-2024 21:00:00,26.210536,78.171,NO2,4,5,4
India,Madhya Pradesh,Gwalior,"Phool Bagh, Gwalior - Mondelez Ind. Food",25-01-2024 21:00:00,26.210536,78.171,CO,34,42,36
India,Madhya Pradesh,Indore,"Maguda Nagar, Indore - IMC",25-01-2024 21:00:00,22.7524,75.8872,SO2,20,25,22
India,Madhya Pradesh,Indore,"Residency Area, Indore - IMC",25-01-2024 21:00:00,22.7084,75.8815,CO,3,18,8
India,Madhya Pradesh,Indore,"Residency Area, Indore - IMC",25-01-2024 21:00:00,22.7084,75.8815,OZONE,11,18,14
India,Madhya Pradesh,Jabalpur,"Gupteshwar, Jabalpur - JMC",25-01-2024 21:00:00,23.142888,79.916147,PM10,30,178,73
India,Madhya Pradesh,Jabalpur,"Gupteshwar, Jabalpur - JMC",25-01-2024 21:00:00,23.142888,79.916147,CO,20,154,154
India,Madhya Pradesh,Jabalpur,"Gupteshwar, Jabalpur - JMC",25-01-2024 21:00:00,23.142888,79.916147,OZONE,2,145,69
India,Madhya Pradesh,Jabalpur,"Marhatal, Jabalpur - MPPCB",25-01-2024 21:00:00,23.168606,79.932247,PM10,70,390,153
India,Madhya Pradesh,Jabalpur,"Suhagi, Jabalpur - JMC",25-01-2024 21:00:00,23.218135,79.957770,NO2,37,42,40
India,Madhya Pradesh,Jabalpur,"Suhagi, Jabalpur - JMC",25-01-2024 21:00:00,23.218135,79.957770,NH3,2,11,4
India,Madhya Pradesh,Jabalpur,"Suhagi, Jabalpur - JMC",25-01-2024 21:00:00,23.218135,79.957770,SO2,1,23,13
India,Madhya Pradesh,Jabalpur,"Suhagi, Jabalpur - JMC",25-01-2024 21:00:00,23.218135,79.957770,OZONE,6,147,79
India,Madhya Pradesh,Katni,"Gole Bazar, Katni - MPPCB",25-01-2024 21:00:00,23.50016,80.23284,NO2,8,144,60
India,Madhya Pradesh,Katni,"Gole Bazar, Katni - MPPCB",25-01-2024 21:00:00,23.50016,80.23284,OZONE,4,89,57
India,Madhya Pradesh,Pithampur,"Sector-2 Industrial Area, Pithampur - MPPCB",25-01-2024 21:00:00,22.624758,75.675238,NH3,6,9,8
India,Madhya Pradesh,Ratlam,"Shasthri Nagar, Ratlam - IPCA Lab",25-01-2024 21:00:00,23.331731,75.045981,NO2,10,85,33
India,Madhya Pradesh,Sagar,"Civil Lines, Sagar - MPPCB",25-01-2024 21:00:00,23.838586,78.759431,NO2,11,19,14
India,Madhya Pradesh,Sagar,"Civil Lines, Sagar - MPPCB",25-01-2024 21:00:00,23.838586,78.759431,SO2,2,4,3
India,Madhya Pradesh,Satna,"Bandhavgar Colony, Satna - Birla Cement",25-01-2024 21:00:00,24.58434363,80.8549414,PM2.5,4,47,16
India,Madhya Pradesh,Satna,"Bandhavgar Colony, Satna - Birla Cement",25-01-2024 21:00:00,24.58434363,80.8549414,PM10,31,73,51
India,Madhya Pradesh,Singrauli,"Suryakiran Bhawan NCL, Singrauli - MPPCB",25-01-2024 21:00:00,24.108970,82.645580,NO2,6,18,11
India,Maharashtra,Ahmednagar,"Tarakpur, Ahmednagar - MPCB",25-01-2024 21:00:00,19.10122,74.73339,PM2.5,35,161,68
India,Maharashtra,Akola,"Ramdaspeth, Akola - MPCB",25-01-2024 21:00:00,20.719516,77.000253,NO2,14,113,40
India,Maharashtra,Akola,"Ramdaspeth, Akola - MPCB",25-01-2024 21:00:00,20.719516,77.000253,NH3,2,17,6
India,Maharashtra,Akola,"Ramdaspeth, Akola - MPCB",25-01-2024 21:00:00,20.719516,77.000253,OZONE,7,73,54
India,Maharashtra,Amravati,"Shri Shivaji Science College, Amaravati - MPCB",25-01-2024 21:00:00,20.939198,77.765701,NO2,11,139,37
India,Maharashtra,Amravati,"Shri Shivaji Science College, Amaravati - MPCB",25-01-2024 21:00:00,20.939198,77.765701,NH3,1,7,2
India,Maharashtra,Aurangabad,"MIDC Chilkalthana, Aurangabad - MPCB",25-01-2024 21:00:00,19.875620,75.387310,PM10,65,182,95
India,Maharashtra,Belapur,"CBD Belapur, Belapur - MPCB",25-01-2024 21:00:00,19.0243902,73.0406721,PM2.5,58,102,82
India,Maharashtra,Belapur,"CBD Belapur, Belapur - MPCB",25-01-2024 21:00:00,19.0243902,73.0406721,SO2,2,7,4
India,Maharashtra,Belapur,"CBD Belapur, Belapur - MPCB",25-01-2024 21:00:00,19.0243902,73.0406721,OZONE,2,162,107
India,Maharashtra,Bhiwandi,"Gokul Nagar, Bhiwandi - MPCB",25-01-2024 21:00:00,19.309073,73.057223,PM10,72,234,137
India,Maharashtra,Boisar,"Khaira, Boisar - MPCB",25-01-2024 21:00:00,19.786089,72.757971,NH3,NA,NA,NA
India,Maharashtra,Jalgaon,"Prabhat Colony, Jalgaon - MPCB",25-01-2024 21:00:00,21.001264,75.565602,PM10,56,165,93
India,Maharashtra,Jalna,"Old MIDC, Jalna - MPCB",25-01-2024 21:00:00,19.854616,75.905894,SO2,12,18,14
India,Maharashtra,Jalna,"Old MIDC, Jalna - MPCB",25-01-2024 21:00:00,19.854616,75.905894,CO,26,49,34
India,Maharashtra,Jalna,"Old MIDC, Jalna - MPCB",25-01-2024 21:00:00,19.854616,75.905894,OZONE,20,99,59
India,Maharashtra,Kalyan,"Khadakpada, Kalyan - MPCB",25-01-2024 21:00:00,19.25292,73.142019,SO2,14,101,30
India,Maharashtra,Kolhapur,"Shivaji University, Kolhapur - MPCB",25-01-2024 21:00:00,16.6870449,74.2505872,OZONE,2,69,36
India,Maharashtra,Mahad,"Kamble Tarf Birwadi, Mahad - MPCB",25-01-2024 21:00:00,18.1023399,73.4783687,PM10,70,124,97
India,Maharashtra,Mahad,"Kamble Tarf Birwadi, Mahad - MPCB",25-01-2024 21:00:00,18.1023399,73.4783687,SO2,11,14,13
India,Maharashtra,Mahad,"Kamble Tarf Birwadi, Mahad - MPCB",25-01-2024 21:00:00,18.1023399,73.4783687,OZONE,27,69,47
India,Maharashtra,Malegaon,"Mahesh Nagar, Malegaon - MPCB",25-01-2024 21:00:00,20.555712,74.529236,NO2,10,80,33
India,Maharashtra,Malegaon,"Mahesh Nagar, Malegaon - MPCB",25-01-2024 21:00:00,20.555712,74.529236,SO2,9,17,13
India,Maharashtra,Mira-Bhayandar,"Bhayandar West, Mira-Bhayandar - MPCB",25-01-2024 21:00:00,19.296481,72.840923,PM10,80,145,114
India,Maharashtra,Mira-Bhayandar,"Bhayandar West, Mira-Bhayandar - MPCB",25-01-2024 21:00:00,19.296481,72.840923,NO2,15,69,46
India,Maharashtra,Mumbai,"Bandra Kurla Complex, Mumbai - MPCB",25-01-2024 21:00:00,19.065931,72.862131,PM10,51,204,112
India,Maharashtra,Mumbai,"Borivali East, Mumbai - IITM",25-01-2024 21:00:00,19.23241,72.86895,NO2,NA,NA,NA
India,Maharashtra,Mumbai,"Borivali East, Mumbai - IITM",25-01-2024 21:00:00,19.23241,72.86895,NH3,NA,NA,NA
India,Maharashtra,Mumbai,"Borivali East, Mumbai - MPCB",25-01-2024 21:00:00,19.2243333,72.8658113,NO2,9,27,16
India,Maharashtra,Mumbai,"Borivali East, Mumbai - MPCB",25-01-2024 21:00:00,19.2243333,72.8658113,CO,2,168,69
India,Maharashtra,Mumbai,"Byculla, Mumbai - BMC",25-01-2024 21:00:00,18.9767,72.8380,PM10,59,109,86
India,Maharashtra,Mumbai,"Chakala-Andheri East, Mumbai - IITM",25-01-2024 21:00:00,19.11074,72.86084,PM2.5,55,307,146
India,Maharashtra,Mumbai,"Chakala-Andheri East, Mumbai - IITM",25-01-2024 21:00:00,19.11074,72.86084,OZONE,6,52,30
India,Maharashtra,Mumbai,"Chembur, Mumbai - MPCB",25-01-2024 21:00:00,19.0364585,72.8954371,NH3,1,4,2
India,Maharashtra,Mumbai,"Chhatrapati Shivaji Intl. Airport (T2), Mumbai - MPCB",25-01-2024 21:00:00,19.10078,72.87462,NO2,3,62,34
India,Maharashtra,Mumbai,"Colaba, Mumbai - MPCB",25-01-2024 21:00:00,18.910000,72.820000,OZONE,10,15,14
India,Maharashtra,Mumbai,"Deonar, Mumbai - IITM",25-01-2024 21:00:00,19.04946,72.9230,PM2.5,105,338,252
India,Maharashtra,Mumbai,"Deonar, Mumbai - IITM",25-01-2024 21:00:00,19.04946,72.9230,CO,2,100,57
India,Maharashtra,Mumbai,"Ghatkopar, Mumbai - BMC",25-01-2024 21:00:00,19.083694,72.920967,SO2,1,5,2
India,Maharashtra,Mumbai,"Kandivali West, Mumbai - BMC",25-01-2024 21:00:00,19.215859,72.831718,PM10,59,113,85
India,Maharashtra,Mumbai,"Kandivali West, Mumbai - BMC",25-01-2024 21:00:00,19.215859,72.831718,NO2,17,99,42
India,Maharashtra,Mumbai,"Kandivali West, Mumbai - BMC",25-01-2024 21:00:00,19.215859,72.831718,OZONE,2,55,46
India,Maharashtra,Mumbai,"Kherwadi_Bandra East, Mumbai - MPCB",25-01-2024 21:00:00,19.0632143,72.8456324,OZONE,1,53,40
India,Maharashtra,Mumbai,"Kurla, Mumbai - MPCB",25-01-2024 21:00:00,19.0863,72.8888,SO2,32,32,32
India,Maharashtra,Mumbai,"Malad West, Mumbai - IITM",25-01-2024 21:00:00,19.19709,72.82204,NO2,10,45,35
India,Maharashtra,Mumbai,"Mindspace-Malad West, Mumbai - MPCB",25-01-2024 21:00:00,19.1878657,72.8304069,CO,24,104,34
India,Maharashtra,Mumbai,"Mulund West, Mumbai - MPCB",25-01-2024 21:00:00,19.1750,72.9419,CO,17,33,29
India,Maharashtra,Mumbai,"Powai, Mumbai - MPCB",25-01-2024 21:00:00,19.137500,72.915056,PM2.5,29,89,43
India,Maharashtra,Mumbai,"Sewri, Mumbai - BMC",25-01-2024 21:00:00,19.000084,72.856730,SO2,7,51,16
India,Maharashtra,Mumbai,"Sewri, Mumbai - BMC",25-01-2024 21:00:00,19.000084,72.856730,CO,12,106,24
India,Maharashtra,Mumbai,"Shivaji Nagar, Mumbai - BMC",25-01-2024 21:00:00,19.060498,72.923356,NO2,46,159,98
India,Maharashtra,Mumbai,"Sion, Mumbai - MPCB",25-01-2024 21:00:00,19.047000,72.874600,CO,18,73,24
India,Maharashtra,Mumbai,"Vasai West, Mumbai - MPCB",25-01-2024 21:00:00,19.383200,72.820400,PM2.5,13,105,36
India,Maharashtra,Mumbai,"Vasai West, Mumbai - MPCB",25-01-2024 21:00:00,19.383200,72.820400,CO,12,46,17
India,Maharashtra,Mumbai,"Worli, Mumbai - MPCB",25-01-2024 21:00:00,18.9936162,72.8128113,SO2,10,19,11
India,Maharashtra,Mumbai,"Worli, Mumbai - MPCB",25-01-2024 21:00:00,18.9936162,72.8128113,CO,30,44,39
India,Maharashtra,Nagpur,"Mahal, Nagpur - MPCB",25-01-2024 21:00:00,21.14472,79.107595,NO2,8,72,28
India,Maharashtra,Nagpur,"Mahal, Nagpur - MPCB",25-01-2024 21:00:00,21.14472,79.107595,SO2,14,83,36
India,Maharashtra,Nagpur,"Mahal, Nagpur - MPCB",25-01-2024 21:00:00,21.14472,79.107595,CO,24,145,92
India,Maharashtra,Nagpur,"Opp GPO Civil Lines, Nagpur - MPCB",25-01-2024 21:00:00,21.152875,79.0517531,OZONE,3,93,55
India,Maharashtra,Nanded,"Sneh Nagar, Nanded - MPCB",25-01-2024 21:00:00,19.173852,77.296291,CO,34,43,39
India,Maharashtra,Nashik,"Gangapur Road, Nashik - MPCB",25-01-2024 21:00:00,20.0073285,73.7762427,NO2,5,9,6
India,Maharashtra,Nashik,"Hirawadi, Nashik - MPCB",25-01-2024 21:00:00,20.021503,73.813844,PM2.5,54,104,71
India,Maharashtra,Nashik,"Hirawadi, Nashik - MPCB",25-01-2024 21:00:00,20.021503,73.813844,NO2,7,123,39
India,Maharashtra,Nashik,"Pandav Nagari, Nashik - MPCB",25-01-2024 21:00:00,19.9591346,73.7788008,NH3,6,20,8
India,Maharashtra,Nashik,"Pandav Nagari, Nashik - MPCB",25-01-2024 21:00:00,19.9591346,73.7788008,OZONE,3,89,61
India,Maharashtra,Navi Mumbai,"Kopripada-Vashi, Navi Mumbai - MPCB",25-01-2024 21:00:00,19.090337,73.014232,NO2,28,142,79
India,Maharashtra,Navi Mumbai,"Nerul, Navi Mumbai - MPCB",25-01-2024 21:00:00,19.008751,73.016620,NO2,22,39,30
India,Maharashtra,Navi Mumbai,"Nerul, Navi Mumbai - MPCB",25-01-2024 21:00:00,19.008751,73.016620,OZONE,36,49,37
India,Maharashtra,Navi Mumbai,"Sector-19A Nerul, Navi Mumbai - IITM",25-01-2024 21:00:00,19.044,73.0325,PM2.5,120,347,260
India,Maharashtra,Navi Mumbai,"Sector-2E Kalamboli, Navi Mumbai - MPCB",25-01-2024 21:00:00,19.02579,73.10297,OZONE,1,71,47
India,Maharashtra,Navi Mumbai,"Tondare-Taloja, Navi Mumbai - MPCB",25-01-2024 21:00:00,19.0630,73.1209,PM10,76,177,131
India,Maharashtra,Navi Mumbai,"Tondare-Taloja, Navi Mumbai - MPCB",25-01-2024 21:00:00,19.0630,73.1209,NO2,21,106,68
India,Maharashtra,Parbhani,"Masoom Colony, Parbhani - MPCB",25-01-2024 21:00:00,19.265594,76.761463,PM2.5,37,92,58
India,Maharashtra,Parbhani,"Masoom Colony, Parbhani - MPCB",25-01-2024 21:00:00,19.265594,76.761463,NO2,15,87,31
India,Maharashtra,Pimpri-Chinchwad,"Gavalinagar, Pimpri Chinchwad - MPCB",25-01-2024 21:00:00,18.63673,73.82487,NO2,35,136,79
India,Maharashtra,Pimpri-Chinchwad,"Park Street Wakad, Pimpri Chinchwad - MPCB",25-01-2024 21:00:00,18.59051,73.77946,NO2,80,180,122
India,Maharashtra,Pimpri-Chinchwad,"Thergaon, Pimpri Chinchwad - MPCB",25-01-2024 21:00:00,18.616318,73.765797,CO,8,112,43
India,Maharashtra,Pimpri-Chinchwad,"Thergaon, Pimpri Chinchwad - MPCB",25-01-2024 21:00:00,18.616318,73.765797,OZONE,3,162,93
India,Maharashtra,Pune,"Karve Road, Pune - MPCB",25-01-2024 21:00:00,18.5011743,73.8165527,NO2,2,2,2
India,Maharashtra,Pune,"Karve Road, Pune - MPCB",25-01-2024 21:00:00,18.5011743,73.8165527,OZONE,7,7,7
India,Maharashtra,Pune,"Katraj Dairy, Pune - MPCB",25-01-2024 21:00:00,18.454450,73.854155,PM2.5,51,178,84
India,Maharashtra,Pune,"Katraj Dairy, Pune - MPCB",25-01-2024 21:00:00,18.454450,73.854155,NO2,34,56,44
India,Maharashtra,Pune,"Katraj Dairy, Pune - MPCB",25-01-2024 21:00:00,18.454450,73.854155,SO2,1,10,6
India,Maharashtra,Pune,"Katraj Dairy, Pune - MPCB",25-01-2024 21:00:00,18.454450,73.854155,CO,32,82,40
India,Maharashtra,Pune,"Katraj Dairy, Pune - MPCB",25-01-2024 21:00:00,18.454450,73.854155,OZONE,1,41,26
India,Maharashtra,Pune,"Mhada Colony, Pune - IITM",25-01-2024 21:00:00,18.573040,73.927715,NO2,28,65,47
India,Maharashtra,Pune,"Revenue Colony-Shivajinagar, Pune - IITM",25-01-2024 21:00:00,18.530085,73.849598,OZONE,6,58,33
India,Maharashtra,Pune,"Savitribai Phule Pune University, Pune - MPCB",25-01-2024 21:00:00,18.547056,73.826908,PM10,66,140,110
India,Maharashtra,Sangli,"Vijay Nagar, Sangli - MPCB",25-01-2024 21:00:00, 16.5038,74.3623,PM10,102,173,126
India,Maharashtra,Solapur,"Dnyaneshwar Nagar, Solapur - MPCB",25-01-2024 21:00:00,17.6336264,75.9132495,NH3,12,68,29
India,Maharashtra,Solapur,"Solapur, Solapur - MPCB",25-01-2024 21:00:00,17.6599188,75.9063906,PM2.5,46,123,75
India,Maharashtra,Solapur,"Solapur, Solapur - MPCB",25-01-2024 21:00:00,17.6599188,75.9063906,PM10,102,162,126
India,Maharashtra,Thane,"Kasarvadavali, Thane - MPCB",25-01-2024 21:00:00,19.26777,72.97182,PM10,111,181,144
India,Maharashtra,Thane,"Kasarvadavali, Thane - MPCB",25-01-2024 21:00:00,19.26777,72.97182,SO2,6,88,27
India,Maharashtra,Thane,"Upvan Fort, Thane - MPCB",25-01-2024 21:00:00,19.222279,72.957979,CO,3,31,10
India,Maharashtra,Ulhasnagar,"Sidhi Vinayak Nagar, Ulhasnagar - MPCB",25-01-2024 21:00:00,19.235581,73.159121,PM2.5,78,304,153
India,Maharashtra,Ulhasnagar,"Sidhi Vinayak Nagar, Ulhasnagar - MPCB",25-01-2024 21:00:00,19.235581,73.159121,NH3,1,3,3
India,Maharashtra,Virar,"Bolinj, Virar - MPCB",25-01-2024 21:00:00,19.4458210,72.7988231,PM2.5,101,171,129
India,Manipur,Imphal,"Manipur University, Imphal - Manipur PCB",25-01-2024 21:00:00,24.7524239,93.9286218,CO,10,66,23
India,Manipur,Imphal,"Manipur University, Imphal - Manipur PCB",25-01-2024 21:00:00,24.7524239,93.9286218,OZONE,3,39,26
India,Meghalaya,Shillong,"JN Stadium, Shillong - Meghalaya PCB",25-01-2024 21:00:00,25.5803419,91.8942571,NO2,19,56,31
India,Meghalaya,Shillong,"Lumpyngngad, Shillong - Meghalaya PCB",25-01-2024 21:00:00,25.5586,91.8985,NH3,1,1,1
India,Mizoram,Aizawl,"Sikulpuikawn, Aizawl - Mizoram PCB",25-01-2024 21:00:00,23.7176342,92.7192841,CO,8,19,15
India,Mizoram,Aizawl,"Sikulpuikawn, Aizawl - Mizoram PCB",25-01-2024 21:00:00,23.7176342,92.7192841,OZONE,14,27,16
India,Odisha,Balasore,"Kalidaspur, Balasore - OSPCB",25-01-2024 21:00:00,21.51161,86.89088,PM10,101,385,148
India,Odisha,Barbil,"Forest Office, Barbil - OSPCB",25-01-2024 21:00:00,22.1166054,85.3945546,OZONE,14,97,66
India,Odisha,Baripada,"Meher Colony, Baripada - OSPCB",25-01-2024 21:00:00,21.941841,86.728318,SO2,5,7,5
India,Odisha,Bhubaneswar,"Lingraj Mandir, Bhubaneswar - OSPCB",25-01-2024 21:00:00,20.240790,85.836784,CO,22,95,66
India,Odisha,Bhubaneswar,"Patia, Bhubaneswar - OSPCB",25-01-2024 21:00:00,20.34652,85.81630,PM10,57,131,87
India,Odisha,Bhubaneswar,"Patia, Bhubaneswar - OSPCB",25-01-2024 21:00:00,20.34652,85.81630,NH3,3,5,4
India,Odisha,Bhubaneswar,"Patia, Bhubaneswar - OSPCB",25-01-2024 21:00:00,20.34652,85.81630,CO,32,194,171
India,Odisha,Bileipada,"Tata Township, Bileipada - OSPCB",25-01-2024 21:00:00,22.06156703,85.47409613,PM10,NA,NA,NA
India,Odisha,Brajrajnagar,"GM Office, Brajrajnagar - OSPCB",25-01-2024 21:00:00,21.8004996,83.8396977,PM2.5,16,135,54
India,Odisha,Byasanagar,"Ferro Chrome Colony, Byasanagar - OSPCB",25-01-2024 21:00:00,20.94185,86.11510,PM2.5,70,306,156
India,Odisha,Byasanagar,"Ferro Chrome Colony, Byasanagar - OSPCB",25-01-2024 21:00:00,20.94185,86.11510,NO2,13,46,19
India,Odisha,Byasanagar,"Ferro Chrome Colony, Byasanagar - OSPCB",25-01-2024 21:00:00,20.94185,86.11510,NH3,2,4,3
India,Odisha,Byasanagar,"Ferro Chrome Colony, Byasanagar - OSPCB",25-01-2024 21:00:00,20.94185,86.11510,CO,44,111,104
India,Odisha,Nayagarh,"Dabuna, Nayagarh - OSPCB",25-01-2024 21:00:00,21.847279,85.416905,CO,22,27,23
India,Odisha,Rairangpur,"Divisional Forest Office, Rairangpur - OSPCB",25-01-2024 21:00:00,22.265816,86.174829,PM2.5,84,113,94
India,Odisha,Rairangpur,"Divisional Forest Office, Rairangpur - OSPCB",25-01-2024 21:00:00,22.265816,86.174829,OZONE,28,65,65
India,Odisha,Rourkela,"Fertilizer Township, Rourkela - OSPCB",25-01-2024 21:00:00,22.18972222,84.86277778,CO,14,27,18
India,Odisha,Rourkela,"Raghunathpali, Rourkela - OSPCB",25-01-2024 21:00:00,22.220833,84.809444,NH3,1,2,2
India,Odisha,Rourkela,"Sector-2, Rourkela - OSPCB",25-01-2024 21:00:00,22.24500000,84.88111111,PM2.5,17,207,103
India,Odisha,Suakati,"OMC Colony, Suakati - OSPCB",25-01-2024 21:00:00,21.606865,85.510538,PM2.5,67,158,103
India,Odisha,Talcher,"Talcher Coalfields,Talcher - OSPCB",25-01-2024 21:00:00,20.9360711,85.1707021,PM10,9,200,78
India,Puducherry,Puducherry,"Jawahar Nagar, Puducherry - PPCC",25-01-2024 21:00:00,11.9309,79.8027,PM10,34,144,68
India,Puducherry,Puducherry,"Jawahar Nagar, Puducherry - PPCC",25-01-2024 21:00:00,11.9309,79.8027,NO2,3,39,17
India,Punjab,Amritsar,"Golden Temple, Amritsar - PPCB",25-01-2024 21:00:00,31.620000,74.876512,PM10,88,367,144
India,Punjab,Amritsar,"Golden Temple, Amritsar - PPCB",25-01-2024 21:00:00,31.620000,74.876512,NH3,5,19,11
India,Punjab,Amritsar,"Golden Temple, Amritsar - PPCB",25-01-2024 21:00:00,31.620000,74.876512,OZONE,24,30,28
India,Punjab,Bathinda,"Hardev Nagar, Bathinda - PPCB",25-01-2024 21:00:00,30.233011,74.907758,PM2.5,19,321,118
India,Punjab,Jalandhar,"Civil Line, Jalandhar - PPCB",25-01-2024 21:00:00,31.321907,75.578914,PM2.5,70,205,126
India,Punjab,Jalandhar,"Civil Line, Jalandhar - PPCB",25-01-2024 21:00:00,31.321907,75.578914,NH3,5,5,5
India,Punjab,Ludhiana,"Punjab Agricultural University, Ludhiana - PPCB",25-01-2024 21:00:00,30.9028,75.8086,OZONE,9,24,15
India,Punjab,Mandi Gobindgarh,"RIMT University, Mandi Gobindgarh - PPCB",25-01-2024 21:00:00,30.649961,76.331442,CO,11,78,50
India,Punjab,Patiala,"Model Town, Patiala - PPCB",25-01-2024 21:00:00,30.349388,76.366642,NO2,26,34,30
India,Punjab,Rupnagar,"Ratanpura, Rupnagar - Ambuja Cements",25-01-2024 21:00:00,31.0325454,76.5623046,CO,40,102,44
India,Rajasthan,Ajmer,"Civil Lines,  Ajmer - RSPCB",25-01-2024 21:00:00,26.470859,74.646594,PM2.5,40,242,118
India,Rajasthan,Ajmer,"Civil Lines,  Ajmer - RSPCB",25-01-2024 21:00:00,26.470859,74.646594,NH3,15,50,30
India,Rajasthan,Ajmer,"Civil Lines,  Ajmer - RSPCB",25-01-2024 21:00:00,26.470859,74.646594,OZONE,3,68,44
India,Rajasthan,Banswara,"Rati Talai, Banswara - RSPCB",25-01-2024 21:00:00,23.555190,74.440010,PM10,73,227,124
India,Rajasthan,Baran,"Bamboliya, Baran - RSPCB",25-01-2024 21:00:00,25.106006,76.469948,SO2,6,12,8
India,Rajasthan,Barmer,"Railway Colony, Barmer - RSPCB",25-01-2024 21:00:00,25.747299,71.393989,PM10,55,170,112
India,Rajasthan,Barmer,"Railway Colony, Barmer - RSPCB",25-01-2024 21:00:00,25.747299,71.393989,NH3,2,11,6
India,Rajasthan,Barmer,"Railway Colony, Barmer - RSPCB",25-01-2024 21:00:00,25.747299,71.393989,OZONE,10,112,76
India,Rajasthan,Bharatpur,"Krishna Nagar, Bharatpur - RSPCB",25-01-2024 21:00:00,27.215415,77.50873,NH3,6,11,8
India,Rajasthan,Bhilwara,"Pratap Nagar, Bhilwara - RSPCB",25-01-2024 21:00:00,25.339605,74.618883,NH3,1,6,4
India,Rajasthan,Bhilwara,"Pratap Nagar, Bhilwara - RSPCB",25-01-2024 21:00:00,25.339605,74.618883,CO,17,107,40
India,Rajasthan,Bhiwadi,"RIICO Ind. Area III, Bhiwadi - RSPCB",25-01-2024 21:00:00,28.194909,76.862296,NH3,8,27,13
India,Rajasthan,Bundi,"New Colony, Bundi - RSPCB",25-01-2024 21:00:00,25.435774,75.644272,OZONE,10,78,24
India,Rajasthan,Chittorgarh,"Shastri Nagar, Chittorgarh - RSPCB",25-01-2024 21:00:00,24.892047,74.623527,PM2.5,18,316,153
India,Rajasthan,Chittorgarh,"Shastri Nagar, Chittorgarh - RSPCB",25-01-2024 21:00:00,24.892047,74.623527,NO2,18,125,68
India,Rajasthan,Dausa,"Khatikan Mohalla, Dausa - RSPCB",25-01-2024 21:00:00,26.895552,76.334753,CO,14,107,84
India,Rajasthan,Dholpur,"Raja Ganj, Dholpur - RSPCB",25-01-2024 21:00:00,26.699557,77.898881,NO2,14,49,26
India,Rajasthan,Dungarpur,"Bhoiwada, Dungarpur - RSPCB",25-01-2024 21:00:00,23.837789,73.714926,PM2.5,55,316,156
India,Rajasthan,Dungarpur,"Bhoiwada, Dungarpur - RSPCB",25-01-2024 21:00:00,23.837789,73.714926,OZONE,6,50,42
India,Rajasthan,Jaipur,"Mansarovar Sector-12, Jaipur - RSPCB",25-01-2024 21:00:00,26.843698,75.766894,NO2,44,143,77
India,Rajasthan,Jaipur,"Police Commissionerate, Jaipur - RSPCB",25-01-2024 21:00:00,26.9164092,75.7994901,NO2,20,77,46
India,Rajasthan,Jaipur,"Police Commissionerate, Jaipur - RSPCB",25-01-2024 21:00:00,26.9164092,75.7994901,NH3,12,15,14
India,Rajasthan,Jaipur,"Sector-2 Murlipura, Jaipur - RSPCB",25-01-2024 21:00:00,26.960669,75.771817,PM10,118,459,203
India,Rajasthan,Jaipur,"Sector-2 Murlipura, Jaipur - RSPCB",25-01-2024 21:00:00,26.960669,75.771817,SO2,16,103,39
India,Rajasthan,Jaipur,"Shastri Nagar, Jaipur - RSPCB",25-01-2024 21:00:00,26.9502929,75.730943,PM2.5,73,313,192
India,Rajasthan,Jaipur,"Shastri Nagar, Jaipur - RSPCB",25-01-2024 21:00:00,26.9502929,75.730943,SO2,7,23,18
India,Rajasthan,Jaipur,"Shastri Nagar, Jaipur - RSPCB",25-01-2024 21:00:00,26.9502929,75.730943,OZONE,15,135,87
India,Rajasthan,Jalore,"Mudtra Sili, Jalore - RSPCB",25-01-2024 21:00:00,25.344694,72.626208,SO2,8,13,10
India,Rajasthan,Jalore,"Mudtra Sili, Jalore - RSPCB",25-01-2024 21:00:00,25.344694,72.626208,CO,28,112,55
India,Rajasthan,Jhalawar,"Rajlaxmi Nagar, Jhalawar - RSPCB",25-01-2024 21:00:00,24.588397,76.172782,NO2,7,67,26
India,Rajasthan,Jhalawar,"Rajlaxmi Nagar, Jhalawar - RSPCB",25-01-2024 21:00:00,24.588397,76.172782,NH3,4,8,7
India,Rajasthan,Jhalawar,"Rajlaxmi Nagar, Jhalawar - RSPCB",25-01-2024 21:00:00,24.588397,76.172782,OZONE,5,101,78
India,Rajasthan,Jhunjhunu,"Indra Nagar, Jhunjhunu - RSPCB",25-01-2024 21:00:00,28.108988,75.386577,NO2,30,82,50
India,Rajasthan,Jodhpur,"Collectorate, Jodhpur - RSPCB",25-01-2024 21:00:00,26.268249,73.0193853,PM2.5,60,336,239
India,Rajasthan,Jodhpur,"Digari Kalan, Jodhpur - RSPCB",25-01-2024 21:00:00,26.295810,73.082283,NO2,17,109,48
India,Rajasthan,Jodhpur,"Mandor, Jodhpur - RSPCB",25-01-2024 21:00:00,26.358805,73.047444,PM2.5,33,171,89
India,Rajasthan,Jodhpur,"Mandor, Jodhpur - RSPCB",25-01-2024 21:00:00,26.358805,73.047444,PM10,59,171,98
India,Rajasthan,Jodhpur,"Samrat Ashok Udhyan, Jodhpur - RSPCB",25-01-2024 21:00:00,26.253384,72.976571,NH3,4,11,8
India,Rajasthan,Jodhpur,"Samrat Ashok Udhyan, Jodhpur - RSPCB",25-01-2024 21:00:00,26.253384,72.976571,SO2,6,26,12
India,Rajasthan,Kota,"Dhanmandi, Kota - RSPCB",25-01-2024 21:00:00,25.164090,75.858137,PM2.5,148,355,254
India,Rajasthan,Kota,"Dhanmandi, Kota - RSPCB",25-01-2024 21:00:00,25.164090,75.858137,SO2,2,59,13
India,Rajasthan,Kota,"Nayapura, Kota - RSPCB",25-01-2024 21:00:00,25.196024,75.855668,SO2,4,12,8
India,Rajasthan,Kota,"Nayapura, Kota - RSPCB",25-01-2024 21:00:00,25.196024,75.855668,OZONE,1,89,54
India,Rajasthan,Kota,"Shrinath Puram, Kota - RSPCB",25-01-2024 21:00:00,25.14389,75.821256,PM2.5,118,306,216
India,Rajasthan,Kota,"Shrinath Puram, Kota - RSPCB",25-01-2024 21:00:00,25.14389,75.821256,PM10,105,160,125
India,Rajasthan,Kota,"Shrinath Puram, Kota - RSPCB",25-01-2024 21:00:00,25.14389,75.821256,OZONE,34,87,64
India,Rajasthan,Nagaur,"Karni Colony, Nagaur - RSPCB",25-01-2024 21:00:00,27.213494,73.734444,NO2,27,122,45
India,Rajasthan,Pratapgarh,"Pragati Nagar, Pratapgarh - RSPCB",25-01-2024 21:00:00,24.041198,74.780702,PM2.5,24,143,72
India,Rajasthan,Rajsamand,"Dhoinda, Rajsamand - RSPCB",25-01-2024 21:00:00,25.036360,73.883502,PM2.5,NA,NA,NA
India,Rajasthan,Sawai Madhopur,"Sahu Nagar, Sawai Madhopur - RSPCB",25-01-2024 21:00:00,26.031443,76.359327,NO2,6,20,7
India,Rajasthan,Sawai Madhopur,"Sahu Nagar, Sawai Madhopur - RSPCB",25-01-2024 21:00:00,26.031443,76.359327,SO2,4,13,9
India,Rajasthan,Sawai Madhopur,"Sahu Nagar, Sawai Madhopur - RSPCB",25-01-2024 21:00:00,26.031443,76.359327,OZONE,15,97,71
India,Rajasthan,Sikar,"Radhakishan Pura, Sikar - RSPCB",25-01-2024 21:00:00,27.608912,75.153302,NO2,12,79,25
India,Rajasthan,Sirohi,"Vedhaynath Colony, Sirohi - RSPCB",25-01-2024 21:00:00,24.885261,72.857549,SO2,2,29,6
India,Rajasthan,Sri Ganganagar,"Old City, Sri Ganganagar - RSPCB",25-01-2024 21:00:00,29.931624,73.864511,NO2,24,76,44
India,Rajasthan,Sri Ganganagar,"Old City, Sri Ganganagar - RSPCB",25-01-2024 21:00:00,29.931624,73.864511,OZONE,3,47,27
India,Rajasthan,Tonk,"Shastri Nagar, Tonk - RSPCB",25-01-2024 21:00:00,26.159933,75.780517,OZONE,7,70,42
India,Rajasthan,Udaipur,"Ashok Nagar, Udaipur - RSPCB",25-01-2024 21:00:00,24.5886166,73.6321397,SO2,12,30,19
India,Sikkim,Gangtok,"Zero Point GICI, Gangtok - SSPCB",25-01-2024 21:00:00,27.338530,88.614099,CO,14,29,22
India,TamilNadu,Ariyalur,"Keelapalur, Ariyalur - TNPCB",25-01-2024 21:00:00,11.06825,79.07033,PM10,35,122,59
India,TamilNadu,Ariyalur,"Keelapalur, Ariyalur - TNPCB",25-01-2024 21:00:00,11.06825,79.07033,NO2,10,39,19
India,TamilNadu,Chennai,"Arumbakkam, Chennai - TNPCB",25-01-2024 21:00:00,13.0664,80.2112 ,NO2,10,36,20
India,TamilNadu,Chennai,"Arumbakkam, Chennai - TNPCB",25-01-2024 21:00:00,13.0664,80.2112 ,SO2,1,5,3
India,TamilNadu,Chennai,"Gandhi Nagar_Ennore, Chennai - TNPCB",25-01-2024 21:00:00,13.218341,80.32027,PM2.5,35,78,52
India,TamilNadu,Chennai,"Kodungaiyur, Chennai - TNPCB",25-01-2024 21:00:00,13.1278,80.2642,PM10,49,98,65
India,TamilNadu,Chennai,"Kodungaiyur, Chennai - TNPCB",25-01-2024 21:00:00,13.1278,80.2642,OZONE,5,6,6
India,TamilNadu,Chennai,"Perungudi, Chennai - TNPCB",25-01-2024 21:00:00,12.9533,80.2357,PM10,50,416,124
India,TamilNadu,Chennai,"Perungudi, Chennai - TNPCB",25-01-2024 21:00:00,12.9533,80.2357,NO2,3,18,8
India,TamilNadu,Chennai,"Perungudi, Chennai - TNPCB",25-01-2024 21:00:00,12.9533,80.2357,NH3,2,3,2
India,TamilNadu,Chennai,"Perungudi, Chennai - TNPCB",25-01-2024 21:00:00,12.9533,80.2357,OZONE,4,9,7
India,TamilNadu,Chennai,"Royapuram, Chennai - TNPCB",25-01-2024 21:00:00,13.1036,80.2909,PM10,38,70,49
India,TamilNadu,Chennai,"Royapuram, Chennai - TNPCB",25-01-2024 21:00:00,13.1036,80.2909,NO2,13,34,23
India,TamilNadu,Chennai,"Royapuram, Chennai - TNPCB",25-01-2024 21:00:00,13.1036,80.2909,OZONE,9,11,9
India,TamilNadu,Coimbatore,"PSG College of Arts and Science, Coimbatore - TNPCB",25-01-2024 21:00:00,11.0328,77.0349,PM2.5,57,170,81
India,TamilNadu,Coimbatore,"PSG College of Arts and Science, Coimbatore - TNPCB",25-01-2024 21:00:00,11.0328,77.0349,OZONE,2,5,4
India,TamilNadu,Cuddalore,"Kudikadu, Cuddalore - TNPCB",25-01-2024 21:00:00,11.6829898,79.7532099,NH3,5,6,5
India,TamilNadu,Ooty,"Bombay Castel, Ooty - TNPCB",25-01-2024 21:00:00,11.4068288,76.7138973,NH3,NA,NA,NA
India,TamilNadu,Ramanathapuram,"Chalai Bazaar, Ramanathapuram - TNPCB",25-01-2024 21:00:00,9.36399,78.831977,PM10,44,106,66
India,TamilNadu,Thoothukudi,"Meelavittan, Thoothukudi - TNPCB",25-01-2024 21:00:00,8.816428 ,78.099039,NO2,27,54,38
India,TamilNadu,Tirupur,"Kumaran College, Tirupur - TNPCB",25-01-2024 21:00:00,11.0973603,77.3228673,CO,20,98,50
India,TamilNadu,Vellore,"Vasanthapuram, Vellore - TNPCB",25-01-2024 21:00:00,12.909494,79.131861,OZONE,NA,NA,NA
India,Telangana,Hyderabad,"Bollaram Industrial Area, Hyderabad - TSPCB",25-01-2024 21:00:00,17.540891,78.358528,NO2,13,56,25
India,Telangana,Hyderabad,"Bollaram Industrial Area, Hyderabad - TSPCB",25-01-2024 21:00:00,17.540891,78.358528,SO2,14,48,25
India,Telangana,Hyderabad,"Central University, Hyderabad - TSPCB",25-01-2024 21:00:00,17.460103,78.334361,PM2.5,75,99,86
India,Telangana,Hyderabad,"Central University, Hyderabad - TSPCB",25-01-2024 21:00:00,17.460103,78.334361,NH3,3,12,6
India,Telangana,Hyderabad,"ECIL Kapra, Hyderabad - TSPCB",25-01-2024 21:00:00,17.470431,78.566959,PM10,72,113,81
India,Telangana,Hyderabad,"ECIL Kapra, Hyderabad - TSPCB",25-01-2024 21:00:00,17.470431,78.566959,NH3,6,9,8
India,Telangana,Hyderabad,"ICRISAT Patancheru, Hyderabad - TSPCB",25-01-2024 21:00:00,17.518400,78.278777,PM2.5,123,185,155
India,Telangana,Hyderabad,"IITH Kandi, Hyderabad - TSPCB",25-01-2024 21:00:00,17.585705,78.126199,PM10,NA,NA,NA
India,Telangana,Hyderabad,"IITH Kandi, Hyderabad - TSPCB",25-01-2024 21:00:00,17.585705,78.126199,NO2,NA,NA,NA
India,Telangana,Hyderabad,"IITH Kandi, Hyderabad - TSPCB",25-01-2024 21:00:00,17.585705,78.126199,CO,5,48,21
India,Telangana,Hyderabad,"Nacharam_TSIIC IALA, Hyderabad - TSPCB",25-01-2024 21:00:00,17.429398,78.569354,PM2.5,43,135,62
India,Telangana,Hyderabad,"Nacharam_TSIIC IALA, Hyderabad - TSPCB",25-01-2024 21:00:00,17.429398,78.569354,CO,21,25,22
India,Telangana,Hyderabad,"New Malakpet, Hyderabad - TSPCB",25-01-2024 21:00:00,17.37206,78.50864,PM10,81,105,88
India,Telangana,Hyderabad,"New Malakpet, Hyderabad - TSPCB",25-01-2024 21:00:00,17.37206,78.50864,NH3,2,2,2
India,Telangana,Hyderabad,"Sanathnagar, Hyderabad - TSPCB",25-01-2024 21:00:00,17.4559458,78.4332152,NO2,27,411,165
India,Telangana,Hyderabad,"Zoo Park, Hyderabad - TSPCB",25-01-2024 21:00:00,17.349694,78.451437,OZONE,18,56,33
India,Tripura,Agartala,"Bardowali, Agartala - Tripura SPCB",25-01-2024 21:00:00,23.8175497,91.2726974,PM2.5,208,345,307
India,Tripura,Agartala,"Bardowali, Agartala - Tripura SPCB",25-01-2024 21:00:00,23.8175497,91.2726974,NO2,6,28,16
India,Uttar_Pradesh,Agra,"Manoharpur, Agra - UPPCB",25-01-2024 21:00:00,27.23711,78.01936,NO2,15,19,17
India,Uttar_Pradesh,Agra,"Rohta, Agra - UPPCB",25-01-2024 21:00:00,27.106972,78.000111,PM10,63,152,106
India,Uttar_Pradesh,Agra,"Rohta, Agra - UPPCB",25-01-2024 21:00:00,27.106972,78.000111,NH3,2,2,2
India,Uttar_Pradesh,Agra,"Sanjay Palace, Agra - UPPCB",25-01-2024 21:00:00,27.19865833,78.00598056,PM10,107,195,142
India,Uttar_Pradesh,Agra,"Sanjay Palace, Agra - UPPCB",25-01-2024 21:00:00,27.19865833,78.00598056,NO2,44,115,74
India,Uttar_Pradesh,Agra,"Sector-3B Avas Vikas Colony, Agra - UPPCB",25-01-2024 21:00:00,27.19412,77.96237,NO2,20,43,31
India,Uttar_Pradesh,Agra,"Shastripuram, Agra - UPPCB",25-01-2024 21:00:00,27.19862,77.92066,PM10,107,234,142
India,Uttar_Pradesh,Agra,"Shastripuram, Agra - UPPCB",25-01-2024 21:00:00,27.19862,77.92066,NH3,2,3,2
India,Uttar_Pradesh,Bareilly,"Civil Lines, Bareilly - UPPCB",25-01-2024 21:00:00,28.359581,79.414455,NO2,23,47,31
India,Uttar_Pradesh,Bareilly,"Rajendra Nagar, Bareilly - UPPCB",25-01-2024 21:00:00,28.38910936,79.42963708,PM2.5,60,283,129
India,Uttar_Pradesh,Bareilly,"Rajendra Nagar, Bareilly - UPPCB",25-01-2024 21:00:00,28.38910936,79.42963708,CO,91,133,99
India,Uttar_Pradesh,Bareilly,"Rajendra Nagar, Bareilly - UPPCB",25-01-2024 21:00:00,28.38910936,79.42963708,OZONE,8,9,9
India,Uttar_Pradesh,Bulandshahr,"Yamunapuram, Bulandshahr - UPPCB",25-01-2024 21:00:00,28.406963,77.849831,PM2.5,85,336,198
India,Uttar_Pradesh,Bulandshahr,"Yamunapuram, Bulandshahr - UPPCB",25-01-2024 21:00:00,28.406963,77.849831,NH3,12,17,13
India,Uttar_Pradesh,Ghaziabad,"Indirapuram, Ghaziabad - UPPCB",25-01-2024 21:00:00,28.646233,77.358075,CO,16,46,32
India,Uttar_Pradesh,Ghaziabad,"Loni, Ghaziabad - UPPCB",25-01-2024 21:00:00,28.757294,77.278792,OZONE,1,71,39
India,Uttar_Pradesh,Ghaziabad,"Sanjay Nagar, Ghaziabad - UPPCB",25-01-2024 21:00:00,28.685382,77.453839,CO,28,107,105
India,Uttar_Pradesh,Ghaziabad,"Vasundhara, Ghaziabad - UPPCB",25-01-2024 21:00:00,28.6603346,77.3572563,OZONE,1,36,17
India,Uttar_Pradesh,Gorakhpur,"Madan Mohan Malaviya University of Technology, Gorakhpur - UPPCB",25-01-2024 21:00:00,26.730136,83.433859,NH3,NA,NA,NA
India,Uttar_Pradesh,Gorakhpur,"Madan Mohan Malaviya University of Technology, Gorakhpur - UPPCB",25-01-2024 21:00:00,26.730136,83.433859,OZONE,3,32,18
India,Uttar_Pradesh,Greater Noida,"Knowledge Park - III, Greater Noida - UPPCB",25-01-2024 21:00:00,28.47272,77.482000,PM2.5,318,500,418
India,Uttar_Pradesh,Greater Noida,"Knowledge Park - III, Greater Noida - UPPCB",25-01-2024 21:00:00,28.47272,77.482000,PM10,181,500,340
India,Uttar_Pradesh,Greater Noida,"Knowledge Park - V, Greater Noida - UPPCB",25-01-2024 21:00:00,28.557054,77.453663,PM10,141,500,318
India,Uttar_Pradesh,Greater Noida,"Knowledge Park - V, Greater Noida - UPPCB",25-01-2024 21:00:00,28.557054,77.453663,SO2,9,17,13
India,Uttar_Pradesh,Greater Noida,"Knowledge Park - V, Greater Noida - UPPCB",25-01-2024 21:00:00,28.557054,77.453663,CO,1,114,72
India,Uttar_Pradesh,Hapur,"Anand Vihar, Hapur - UPPCB",25-01-2024 21:00:00,28.725645,77.749675,NO2,21,120,45
India,Uttar_Pradesh,Kanpur,"NSI Kalyanpur, Kanpur - UPPCB",25-01-2024 21:00:00,26.509954,80.249612,NO2,11,11,11
India,Uttar_Pradesh,Kanpur,"NSI Kalyanpur, Kanpur - UPPCB",25-01-2024 21:00:00,26.509954,80.249612,NH3,3,4,3
India,Uttar_Pradesh,Kanpur,"NSI Kalyanpur, Kanpur - UPPCB",25-01-2024 21:00:00,26.509954,80.249612,OZONE,7,28,25
India,Uttar_Pradesh,Khurja,"Kalindi Kunj, Khurja - UPPCB",25-01-2024 21:00:00,28.2348927,77.8683002,SO2,38,47,44
India,Uttar_Pradesh,Khurja,"Kalindi Kunj, Khurja - UPPCB",25-01-2024 21:00:00,28.2348927,77.8683002,CO,76,100,81
India,Uttar_Pradesh,Lucknow,"Gomti Nagar, Lucknow - UPPCB",25-01-2024 21:00:00,26.868120,81.005119,PM2.5,NA,NA,NA
India,Uttar_Pradesh,Lucknow,"Kendriya Vidyalaya, Lucknow - CPCB",25-01-2024 21:00:00,26.906111,80.948222,NO2,NA,NA,NA
India,Uttar_Pradesh,Lucknow,"Kendriya Vidyalaya, Lucknow - CPCB",25-01-2024 21:00:00,26.906111,80.948222,CO,NA,NA,NA
India,Uttar_Pradesh,Lucknow,"Kendriya Vidyalaya, Lucknow - CPCB",25-01-2024 21:00:00,26.906111,80.948222,OZONE,9,23,16
India,Uttar_Pradesh,Meerut,"Ganga Nagar, Meerut - UPPCB",25-01-2024 21:00:00,28.999264,77.7590354,PM10,70,374,166
India,Uttar_Pradesh,Meerut,"Jai Bhim Nagar, Meerut - UPPCB",25-01-2024 21:00:00,28.9535882,77.7622941,CO,46,103,81
India,Uttar_Pradesh,Meerut,"Pallavpuram Phase 2, Meerut - UPPCB",25-01-2024 21:00:00,29.063510,77.709723,PM2.5,65,335,190
India,Uttar_Pradesh,Meerut,"Pallavpuram Phase 2, Meerut - UPPCB",25-01-2024 21:00:00,29.063510,77.709723,NH3,4,9,6
India,Uttar_Pradesh,Moradabad,"Buddhi Vihar, Moradabad - UPPCB",25-01-2024 21:00:00,28.83526,78.74460,PM10,60,301,125
India,Uttar_Pradesh,Moradabad,"Buddhi Vihar, Moradabad - UPPCB",25-01-2024 21:00:00,28.83526,78.74460,SO2,13,20,16
India,Uttar_Pradesh,Moradabad,"Eco Herbal Park, Moradabad - UPPCB",25-01-2024 21:00:00,28.840739,78.697531,NO2,24,67,33
India,Uttar_Pradesh,Moradabad,"Employment Office, Moradabad - UPPCB",25-01-2024 21:00:00,28.88528,78.73880,PM10,80,228,137
India,Uttar_Pradesh,Moradabad,"Kashiram Nagar, Moradabad - UPPCB",25-01-2024 21:00:00,28.849399,78.742362,OZONE,15,74,25
India,Uttar_Pradesh,Moradabad,"Transport Nagar, Moradabad - UPPCB",25-01-2024 21:00:00,28.802625,78.753728,PM2.5,67,332,164
India,Uttar_Pradesh,Moradabad,"Transport Nagar, Moradabad - UPPCB",25-01-2024 21:00:00,28.802625,78.753728,PM10,50,231,117
India,Uttar_Pradesh,Muzaffarnagar,"New Mandi, Muzaffarnagar - UPPCB",25-01-2024 21:00:00,29.4723508,77.7194031,NH3,6,11,8
India,Uttar_Pradesh,Muzaffarnagar,"New Mandi, Muzaffarnagar - UPPCB",25-01-2024 21:00:00,29.4723508,77.7194031,SO2,1,15,6
India,Uttar_Pradesh,Noida,"Sector - 125, Noida - UPPCB",25-01-2024 21:00:00,28.5447608,77.3231257,NH3,3,18,13
India,Uttar_Pradesh,Noida,"Sector - 62, Noida - IMD",25-01-2024 21:00:00,28.6245479,77.3577104,PM10,163,472,316
India,Uttar_Pradesh,Noida,"Sector-1, Noida - UPPCB",25-01-2024 21:00:00,28.5898,77.3101,PM10,98,288,171
India,Uttar_Pradesh,Noida,"Sector-1, Noida - UPPCB",25-01-2024 21:00:00,28.5898,77.3101,NH3,7,16,11
India,Uttar_Pradesh,Noida,"Sector-1, Noida - UPPCB",25-01-2024 21:00:00,28.5898,77.3101,OZONE,1,8,4
India,Uttar_Pradesh,Noida,"Sector-116, Noida - UPPCB",25-01-2024 21:00:00,28.569230,77.393848,NO2,36,135,77
India,Uttar_Pradesh,Prayagraj,"Jhunsi, Prayagraj - UPPCB",25-01-2024 21:00:00,25.425602,81.917152,PM2.5,40,148,79
India,Uttar_Pradesh,Prayagraj,"Jhunsi, Prayagraj - UPPCB",25-01-2024 21:00:00,25.425602,81.917152,PM10,54,168,103
India,Uttar_Pradesh,Prayagraj,"Motilal Nehru NIT, Prayagraj - UPPCB",25-01-2024 21:00:00,25.494,81.863,NO2,12,12,12
India,Uttar_Pradesh,Varanasi,"Ardhali Bazar, Varanasi - UPPCB",25-01-2024 21:00:00,25.3505986,82.9083074,PM2.5,39,112,53
India,Uttar_Pradesh,Varanasi,"Ardhali Bazar, Varanasi - UPPCB",25-01-2024 21:00:00,25.3505986,82.9083074,NO2,19,42,25
India,Uttar_Pradesh,Varanasi,"Bhelupur, Varanasi - UPPCB",25-01-2024 21:00:00,25.301778,82.996789,PM2.5,27,137,39
India,Uttar_Pradesh,Varanasi,"IESD Banaras Hindu University, Varanasi - UPPCB",25-01-2024 21:00:00,25.262326,82.995408,PM2.5,22,43,31
India,Uttar_Pradesh,Varanasi,"IESD Banaras Hindu University, Varanasi - UPPCB",25-01-2024 21:00:00,25.262326,82.995408,CO,34,42,37
India,Uttar_Pradesh,Vrindavan,"Omex Eternity, Vrindavan - UPPCB",25-01-2024 21:00:00,27.5714090,77.6557570,PM10,73,126,113
India,Uttar_Pradesh,Vrindavan,"Omex Eternity, Vrindavan - UPPCB",25-01-2024 21:00:00,27.5714090,77.6557570,OZONE,30,31,30
India,Uttarakhand,Dehradun,"Doon University, Dehradun - UKPCB",25-01-2024 21:00:00,30.269444,78.044167,CO,17,61,29
India,Uttarakhand,Kashipur,"Govt. Girls Inter College, Kashipur - UKPCB",25-01-2024 21:00:00,29.2124114,78.9611753,PM2.5,19,312,162
India,Uttarakhand,Kashipur,"Govt. Girls Inter College, Kashipur - UKPCB",25-01-2024 21:00:00,29.2124114,78.9611753,SO2,4,9,8
India,Uttarakhand,Rishikesh,"Shivaji Nagar, Rishikesh - UKPCB",25-01-2024 21:00:00,30.075911,78.2859547,NH3,2,3,3
India,Uttarakhand,Rishikesh,"Shivaji Nagar, Rishikesh - UKPCB",25-01-2024 21:00:00,30.075911,78.2859547,SO2,4,5,4
India,West_Bengal,Asansol,"Asansol Court Area, Asansol - WBPCB",25-01-2024 21:00:00,23.685297,86.945968,NH3,6,15,8
India,West_Bengal,Barrackpore,"SVSPA Campus, Barrackpore - WBPCB",25-01-2024 21:00:00,22.7605581,88.3617589,SO2,9,13,11
India,West_Bengal,Haldia,"Priyambada Housing Estate, Haldia - WBPCB",25-01-2024 21:00:00,22.06047,88.109737,PM10,56,171,107
India,West_Bengal,Haldia,"Priyambada Housing Estate, Haldia - WBPCB",25-01-2024 21:00:00,22.06047,88.109737,NO2,21,46,30
India,West_Bengal,Haldia,"Priyambada Housing Estate, Haldia - WBPCB",25-01-2024 21:00:00,22.06047,88.109737,OZONE,15,106,49
India,West_Bengal,Howrah,"Ghusuri, Howrah - WBPCB",25-01-2024 21:00:00,22.611968,88.347422,NO2,24,102,44
India,West_Bengal,Howrah,"Ghusuri, Howrah - WBPCB",25-01-2024 21:00:00,22.611968,88.347422,NH3,7,12,9
India,West_Bengal,Howrah,"Padmapukur, Howrah - WBPCB",25-01-2024 21:00:00,22.5687319,88.2797276,PM2.5,141,310,194
India,West_Bengal,Kolkata,"Ballygunge, Kolkata - WBPCB",25-01-2024 21:00:00,22.5367507,88.3638022,PM10,105,322,151
India,West_Bengal,Kolkata,"Ballygunge, Kolkata - WBPCB",25-01-2024 21:00:00,22.5367507,88.3638022,NH3,10,20,12
India,West_Bengal,Kolkata,"Bidhannagar, Kolkata - WBPCB",25-01-2024 21:00:00,22.58157048,88.41002457,PM10,129,176,150
India,West_Bengal,Kolkata,"Bidhannagar, Kolkata - WBPCB",25-01-2024 21:00:00,22.58157048,88.41002457,NH3,10,14,11
India,West_Bengal,Kolkata,"Jadavpur, Kolkata - WBPCB",25-01-2024 21:00:00,22.49929,88.36917,PM2.5,99,307,192
India,West_Bengal,Kolkata,"Rabindra Bharati University, Kolkata - WBPCB",25-01-2024 21:00:00,22.627847,88.380669,NH3,7,8,7
India,West_Bengal,Kolkata,"Rabindra Bharati University, Kolkata - WBPCB",25-01-2024 21:00:00,22.627847,88.380669,CO,26,67,38
India,West_Bengal,Kolkata,"Rabindra Bharati University, Kolkata - WBPCB",25-01-2024 21:00:00,22.627847,88.380669,OZONE,1,58,34
India,West_Bengal,Kolkata,"Rabindra Sarobar, Kolkata - WBPCB",25-01-2024 21:00:00,22.51106,88.35142,PM2.5,9,228,154
India,West_Bengal,Kolkata,"Victoria, Kolkata - WBPCB",25-01-2024 21:00:00,22.5448082,88.3403691,PM10,124,167,143
India,West_Bengal,Siliguri,"Ward-32 Bapupara, Siliguri - WBPCB",25-01-2024 21:00:00,26.6879226,88.4152495,PM2.5,90,309,189
India,Andhra_Pradesh,Anantapur,"Gulzarpet, Anantapur - APPCB",25-01-2024 21:00:00,14.675886,77.593027,PM2.5,30,99,58
India,Andhra_Pradesh,Anantapur,"Gulzarpet, Anantapur - APPCB",25-01-2024 21:00:00,14.675886,77.593027,SO2,3,12,5
India,Andhra_Pradesh,Tirupati,"Tirumala, Tirupati - APPCB",25-01-2024 21:00:00,13.67,79.35,NH3,1,2,1
India,Andhra_Pradesh,Tirupati,"Vaikuntapuram, Tirupati - APPCB",25-01-2024 21:00:00,13.615387,79.409230,NH3,2,4,3
India,Andhra_Pradesh,Vijayawada,"HB Colony, Vijayawada - APPCB",25-01-2024 21:00:00,16.536107,80.594233,PM10,NA,NA,NA
India,Andhra_Pradesh,Vijayawada,"HB Colony, Vijayawada - APPCB",25-01-2024 21:00:00,16.536107,80.594233,CO,24,24,24
India,Andhra_Pradesh,Visakhapatnam,"GVM Corporation, Visakhapatnam - APPCB",25-01-2024 21:00:00,17.72,83.3,NO2,22,49,38
India,Arunachal_Pradesh,Naharlagun,"Naharlagun, Naharlagun - APSPCB",25-01-2024 21:00:00,27.103358,93.679645,PM2.5,34,302,104
India,Arunachal_Pradesh,Naharlagun,"Naharlagun, Naharlagun - APSPCB",25-01-2024 21:00:00,27.103358,93.679645,PM10,35,174,85
India,Assam,Byrnihat,"Central Academy for SFS, Byrnihat - PCBA",25-01-2024 21:00:00,26.071318,91.87488,PM10,124,255,203
India,Assam,Byrnihat,"Central Academy for SFS, Byrnihat - PCBA",25-01-2024 21:00:00,26.071318,91.87488,SO2,8,13,11
India,Assam,Guwahati,"IITG, Guwahati - PCBA",25-01-2024 21:00:00,26.2028636,91.70046436,PM10,118,206,157
India,Assam,Guwahati,"IITG, Guwahati - PCBA",25-01-2024 21:00:00,26.2028636,91.70046436,NH3,5,6,5
India,Assam,Guwahati,"IITG, Guwahati - PCBA",25-01-2024 21:00:00,26.2028636,91.70046436,OZONE,2,75,29
India,Assam,Guwahati,"LGBI Airport, Guwahati - PCBA",25-01-2024 21:00:00,26.10887,91.589544,NH3,1,8,3
India,Assam,Guwahati,"LGBI Airport, Guwahati - PCBA",25-01-2024 21:00:00,26.10887,91.589544,OZONE,2,82,44
India,Assam,Guwahati,"Pan Bazaar, Guwahati - PCBA",25-01-2024 21:00:00,26.187500,91.744194,PM2.5,194,399,302
India,Assam,Guwahati,"Pan Bazaar, Guwahati - PCBA",25-01-2024 21:00:00,26.187500,91.744194,NO2,2,14,6
India,Assam,Guwahati,"Pan Bazaar, Guwahati - PCBA",25-01-2024 21:00:00,26.187500,91.744194,NH3,4,6,5
India,Assam,Guwahati,"Pan Bazaar, Guwahati - PCBA",25-01-2024 21:00:00,26.187500,91.744194,CO,42,119,72
India,Assam,Guwahati,"Railway Colony, Guwahati - PCBA",25-01-2024 21:00:00,26.181742,91.78063,NO2,2,3,3
India,Assam,Nagaon,"Christianpatty, Nagaon - PCBA",25-01-2024 21:00:00,26.349082,92.68449,PM2.5,82,375,222
India,Assam,Nalbari,"Bata Chowk, Nalbari - PCBA",25-01-2024 21:00:00,26.446912,91.439057,PM2.5,183,500,322
India,Assam,Silchar,"Tarapur, Silchar - PCBA",25-01-2024 21:00:00,24.82827,92.79525,NO2,21,52,32
India,Assam,Sivasagar,"Girls College, Sivasagar - PCBA",25-01-2024 21:00:00,26.987634,94.636574,PM2.5,24,44,34
India,Bihar,Araria,"Kharahiya Basti, Araria - BSPCB",25-01-2024 21:00:00,26.146529,87.454184,PM2.5,109,375,222
India,Bihar,Araria,"Kharahiya Basti, Araria - BSPCB",25-01-2024 21:00:00,26.146529,87.454184,OZONE,10,44,28
India,Bihar,Arrah,"New DM Office, Arrah - BSPCB",25-01-2024 21:00:00,25.5626095,84.663264,NO2,10,67,23
India,Bihar,Arrah,"New DM Office, Arrah - BSPCB",25-01-2024 21:00:00,25.5626095,84.663264,OZONE,12,33,15
India,Bihar,Aurangabad,"Gurdeo Nagar, Aurangabad - BSPCB",25-01-2024 21:00:00,24.75746,84.366208,PM2.5,120,303,169
India,Bihar,Aurangabad,"Gurdeo Nagar, Aurangabad - BSPCB",25-01-2024 21:00:00,24.75746,84.366208,PM10,103,159,117
India,Bihar,Bettiah,"Kamalnath Nagar, Bettiah - BSPCB",25-01-2024 21:00:00,26.80365,84.51954,SO2,7,18,15
India,Bihar,Bhagalpur,"DM Office_Kachari Chowk, Bhagalpur - BSPCB",25-01-2024 21:00:00,25.251013,86.989001,PM2.5,330,442,371
India,Bihar,Bhagalpur,"DM Office_Kachari Chowk, Bhagalpur - BSPCB",25-01-2024 21:00:00,25.251013,86.989001,PM10,171,376,248
India,Bihar,Bhagalpur,"DM Office_Kachari Chowk, Bhagalpur - BSPCB",25-01-2024 21:00:00,25.251013,86.989001,CO,42,84,66
India,Bihar,Bhagalpur,"Mayaganj, Bhagalpur - BSPCB",25-01-2024 21:00:00,25.265194,87.012947,PM2.5,318,437,352
India,Bihar,Bihar Sharif,"D M Colony, Bihar Sharif - BSPCB",25-01-2024 21:00:00,25.204762,85.514960,CO,5,35,24
India,Bihar,Bihar Sharif,"D M Colony, Bihar Sharif - BSPCB",25-01-2024 21:00:00,25.204762,85.514960,OZONE,4,22,11
India,Bihar,Chhapra,"Darshan Nagar, Chhapra - BSPCB",25-01-2024 21:00:00,25.7808257,84.7446768,OZONE,1,4,2
India,Bihar,Gaya,"Collectorate, Gaya - BSPCB",25-01-2024 21:00:00,24.7955,84.9994,SO2,17,44,24
India,Bihar,Gaya,"Collectorate, Gaya - BSPCB",25-01-2024 21:00:00,24.7955,84.9994,CO,36,48,42
India,Bihar,Gaya,"Kareemganj, Gaya - BSPCB",25-01-2024 21:00:00,24.792403,84.992416,PM2.5,22,130,45
India,Bihar,Gaya,"Kareemganj, Gaya - BSPCB",25-01-2024 21:00:00,24.792403,84.992416,PM10,94,342,137
India,Bihar,Gaya,"Kareemganj, Gaya - BSPCB",25-01-2024 21:00:00,24.792403,84.992416,SO2,6,12,10
India,Bihar,Gaya,"Kareemganj, Gaya - BSPCB",25-01-2024 21:00:00,24.792403,84.992416,OZONE,4,29,15
India,Bihar,Gaya,"SFTI Kusdihra, Gaya - BSPCB",25-01-2024 21:00:00,24.762518,84.982348,NH3,4,6,5
India,Bihar,Hajipur,"Industrial Area, Hajipur - BSPCB",25-01-2024 21:00:00,25.697189,85.245900,PM10,116,288,172
India,Bihar,Hajipur,"Industrial Area, Hajipur - BSPCB",25-01-2024 21:00:00,25.697189,85.245900,OZONE,2,64,20
India,Bihar,Katihar,"Mirchaibari, Katihar - BSPCB",25-01-2024 21:00:00,25.560083,87.553265,NH3,2,3,2
India,Bihar,Kishanganj,"SDM Office_Khagra, Kishanganj - BSPCB",25-01-2024 21:00:00,26.0881305,87.93840336,PM10,118,500,232
India,Bihar,Kishanganj,"SDM Office_Khagra, Kishanganj - BSPCB",25-01-2024 21:00:00,26.0881305,87.93840336,NH3,9,15,11
India,Bihar,Motihari,"Gandak Colony, Motihari - BSPCB",25-01-2024 21:00:00,26.63086,84.90051,PM10,114,173,137
India,Bihar,Motihari,"Gandak Colony, Motihari - BSPCB",25-01-2024 21:00:00,26.63086,84.90051,SO2,1,2,1
India,Bihar,Motihari,"Gandak Colony, Motihari - BSPCB",25-01-2024 21:00:00,26.63086,84.90051,CO,70,102,83
India,Bihar,Munger,"Town Hall, Munger - BSPCB",25-01-2024 21:00:00,25.376776,86.471523,PM2.5,70,315,164
India,Bihar,Munger,"Town Hall, Munger - BSPCB",25-01-2024 21:00:00,25.376776,86.471523,PM10,84,230,138
India,Bihar,Munger,"Town Hall, Munger - BSPCB",25-01-2024 21:00:00,25.376776,86.471523,CO,46,127,108
India,Bihar,Muzaffarpur,"Buddha Colony, Muzaffarpur - BSPCB",25-01-2024 21:00:00,26.11442,85.39813,NH3,16,24,20
India,Bihar,Muzaffarpur,"Buddha Colony, Muzaffarpur - BSPCB",25-01-2024 21:00:00,26.11442,85.39813,SO2,11,68,27
India,Bihar,Muzaffarpur,"MIT-Daudpur Kothi, Muzaffarpur - BSPCB",25-01-2024 21:00:00,26.1403345,85.3650192,PM10,110,474,148
India,Bihar,Muzaffarpur,"MIT-Daudpur Kothi, Muzaffarpur - BSPCB",25-01-2024 21:00:00,26.1403345,85.3650192,CO,21,186,184
India,Bihar,Muzaffarpur,"MIT-Daudpur Kothi, Muzaffarpur - BSPCB",25-01-2024 21:00:00,26.1403345,85.3650192,OZONE,7,49,25
India,Bihar,Muzaffarpur,"Muzaffarpur Collectorate, Muzaffarpur - BSPCB",25-01-2024 21:00:00,26.1209,85.3647,SO2,6,10,7
India,Bihar,Patna,"DRM Office Danapur, Patna - BSPCB",25-01-2024 21:00:00,25.586562,85.043586,OZONE,1,47,27
India,Bihar,Patna,"Govt. High School Shikarpur, Patna - BSPCB",25-01-2024 21:00:00,25.592539,85.227158,PM10,16,278,148
India,Bihar,Patna,"IGSC Planetarium Complex, Patna - BSPCB",25-01-2024 21:00:00,25.610369,85.132568,NO2,NA,NA,NA
India,Bihar,Patna,"Samanpura, Patna - BSPCB",25-01-2024 21:00:00,25.596727,85.085624,NO2,13,20,15
India,Bihar,Purnia,"Mariam Nagar, Purnia - BSPCB",25-01-2024 21:00:00,25.366336,87.117468,NH3,1,1,1
India,Bihar,Rajgir,"Dangi Tola, Rajgir - BSPCB",25-01-2024 21:00:00,25.03280,85.41948,OZONE,22,25,23
India,Bihar,Samastipur,"DM Office_Kasipur, Samastipur - BSPCB",25-01-2024 21:00:00,25.859655,85.77944,NO2,4,8,5
India,Bihar,Sasaram,"Dada Peer, Sasaram - BSPCB",25-01-2024 21:00:00,24.952822,84.002396,PM10,98,167,121
India,Chandigarh,Chandigarh,"Sector 22, Chandigarh - CPCC",25-01-2024 21:00:00,30.735567,76.775714,PM10,107,262,157
India,Chandigarh,Chandigarh,"Sector 22, Chandigarh - CPCC",25-01-2024 21:00:00,30.735567,76.775714,CO,65,84,75
India,Chandigarh,Chandigarh,"Sector-25, Chandigarh - CPCC",25-01-2024 21:00:00,30.751462,76.762879,PM10,113,170,138
India,Chandigarh,Chandigarh,"Sector-25, Chandigarh - CPCC",25-01-2024 21:00:00,30.751462,76.762879,CO,42,60,53
India,Chhattisgarh,Bhilai,"32Bungalows, Bhilai - CECB",25-01-2024 21:00:00,21.194815,81.314770,PM2.5,55,179,99
India,Chhattisgarh,Bhilai,"Civic Center, Bhilai - Bhilai Steel Plant",25-01-2024 21:00:00,21.185571,81.343175,NO2,NA,NA,NA
India,Chhattisgarh,Bhilai,"Civic Center, Bhilai - Bhilai Steel Plant",25-01-2024 21:00:00,21.185571,81.343175,OZONE,6,37,35
India,Chhattisgarh,Bilaspur,"Mangala, Bilaspur - NTPC",25-01-2024 21:00:00,22.08815,82.13737,CO,30,39,36
India,Chhattisgarh,Chhal,"Nawapara SECL Colony, Chhal - CECB",25-01-2024 21:00:00,22.118125,83.140608,PM10,22,141,63
India,Chhattisgarh,Korba,"Rampur, Korba - CECB",25-01-2024 21:00:00,22.368195,82.746431,PM2.5,33,117,61
India,Chhattisgarh,Korba,"Rampur, Korba - CECB",25-01-2024 21:00:00,22.368195,82.746431,NO2,25,58,42
India,Chhattisgarh,Korba,"Urja Nagar, Korba - CECB",25-01-2024 21:00:00,22.348441,82.549611,PM2.5,19,243,40
India,Chhattisgarh,Kunjemura,"OP Jindal School, Kunjemura - CECB",25-01-2024 21:00:00,22.126650,83.483212,SO2,1,57,11
India,Chhattisgarh,Kunjemura,"OP Jindal School, Kunjemura - CECB",25-01-2024 21:00:00,22.126650,83.483212,CO,14,70,21
India,Chhattisgarh,Raipur,"Bhatagaon New ISBT, Raipur - CECB",25-01-2024 21:00:00,21.219665,81.630094,CO,25,106,35
India,Chhattisgarh,Raipur,"Bhatagaon New ISBT, Raipur - CECB",25-01-2024 21:00:00,21.219665,81.630094,OZONE,3,4,3
India,Chhattisgarh,Raipur,"Krishak Nagar, Raipur - CECB",25-01-2024 21:00:00,21.237755,81.705301,NH3,1,1,1
India,Chhattisgarh,Raipur,"Siltara Phase-II, Raipur - CECB",25-01-2024 21:00:00,21.371751,81.664929,SO2,NA,NA,NA
India,Chhattisgarh,Raipur,"Siltara Phase-II, Raipur - CECB",25-01-2024 21:00:00,21.371751,81.664929,CO,16,28,20
India,Chhattisgarh,Tumidih,"OP Jindal Industrial Park, Tumidih - CECB",25-01-2024 21:00:00,22.06631475,83.33820077,OZONE,8,54,44
India,Delhi,Delhi,"Alipur, Delhi - DPCC",25-01-2024 21:00:00,28.815329,77.153010,NH3,7,11,9
India,Delhi,Delhi,"Anand Vihar, Delhi - DPCC",25-01-2024 21:00:00,28.647622,77.3158090,PM2.5,304,476,393
India,Delhi,Delhi,"Anand Vihar, Delhi - DPCC",25-01-2024 21:00:00,28.647622,77.3158090,PM10,166,484,349
India,Delhi,Delhi,"Anand Vihar, Delhi - DPCC",25-01-2024 21:00:00,28.647622,77.3158090,CO,28,109,77
India,Delhi,Delhi,"Aya Nagar, Delhi - IMD",25-01-2024 21:00:00,28.4706914,77.1099364,NO2,23,63,36
India,Delhi,Delhi,"Bawana, Delhi - DPCC",25-01-2024 21:00:00,28.776200,77.051074,PM2.5,133,416,301
India,Delhi,Delhi,"CRRI Mathura Road, Delhi - IMD",25-01-2024 21:00:00,28.5512005,77.2735737,PM10,122,417,215
India,Delhi,Delhi,"DTU, Delhi - CPCB",25-01-2024 21:00:00,28.7500499,77.1112615,SO2,25,29,27
India,Delhi,Delhi,"DTU, Delhi - CPCB",25-01-2024 21:00:00,28.7500499,77.1112615,OZONE,22,37,27
India,Delhi,Delhi,"IHBAS, Dilshad Garden, Delhi - CPCB",25-01-2024 21:00:00,28.6811736,77.3025234,NH3,3,7,5
India,Delhi,Delhi,"ITO, Delhi - CPCB",25-01-2024 21:00:00,28.628624,77.241060,SO2,10,33,17
India,Delhi,Delhi,"Jahangirpuri, Delhi - DPCC",25-01-2024 21:00:00,28.732820,77.170633,SO2,15,27,21
India,Delhi,Delhi,"Lodhi Road, Delhi - IITM",25-01-2024 21:00:00,28.588333,77.221667,CO,65,70,67
India,Delhi,Delhi,"Lodhi Road, Delhi - IITM",25-01-2024 21:00:00,28.588333,77.221667,OZONE,15,16,15
India,Delhi,Delhi,"Lodhi Road, Delhi - IMD",25-01-2024 21:00:00,28.5918245,77.2273074,PM2.5,84,426,293
India,Delhi,Delhi,"Lodhi Road, Delhi - IMD",25-01-2024 21:00:00,28.5918245,77.2273074,NO2,5,10,6
India,Delhi,Delhi,"Major Dhyan Chand National Stadium, Delhi - DPCC",25-01-2024 21:00:00,28.611281,77.237738,NH3,11,19,14
India,Delhi,Delhi,"Major Dhyan Chand National Stadium, Delhi - DPCC",25-01-2024 21:00:00,28.611281,77.237738,CO,36,123,95
India,Delhi,Delhi,"Major Dhyan Chand National Stadium, Delhi - DPCC",25-01-2024 21:00:00,28.611281,77.237738,OZONE,3,3,3
India,Delhi,Delhi,"Mandir Marg, Delhi - DPCC",25-01-2024 21:00:00,28.636429,77.201067,SO2,4,10,7
India,Delhi,Delhi,"Mundka, Delhi - DPCC",25-01-2024 21:00:00,28.684678,77.076574,PM10,89,357,209
India,Delhi,Delhi,"NSIT Dwarka, Delhi - CPCB",25-01-2024 21:00:00,28.60909,77.0325413,PM2.5,70,356,273
India,Delhi,Delhi,"Najafgarh, Delhi - DPCC",25-01-2024 21:00:00,28.570173,76.933762,PM2.5,92,383,238
India,Delhi,Delhi,"Najafgarh, Delhi - DPCC",25-01-2024 21:00:00,28.570173,76.933762,PM10,61,251,120
India,Delhi,Delhi,"Najafgarh, Delhi - DPCC",25-01-2024 21:00:00,28.570173,76.933762,SO2,6,12,10
India,Delhi,Delhi,"Nehru Nagar, Delhi - DPCC",25-01-2024 21:00:00,28.567890,77.250515,PM10,163,500,298
India,Delhi,Delhi,"Nehru Nagar, Delhi - DPCC",25-01-2024 21:00:00,28.567890,77.250515,CO,12,130,95
India,Delhi,Delhi,"Nehru Nagar, Delhi - DPCC",25-01-2024 21:00:00,28.567890,77.250515,OZONE,2,86,43
India,Delhi,Delhi,"North Campus, DU, Delhi - IMD",25-01-2024 21:00:00,28.6573814,77.1585447,OZONE,20,27,24
India,Delhi,Delhi,"Okhla Phase-2, Delhi - DPCC",25-01-2024 21:00:00,28.530785,77.271255,NO2,50,216,115
India,Delhi,Delhi,"Patparganj, Delhi - DPCC",25-01-2024 21:00:00,28.623763,77.287209,NH3,8,14,10
India,Delhi,Delhi,"Patparganj, Delhi - DPCC",25-01-2024 21:00:00,28.623763,77.287209,SO2,7,12,10
India,Delhi,Delhi,"Punjabi Bagh, Delhi - DPCC",25-01-2024 21:00:00,28.674045,77.131023,NH3,6,9,7
India,Delhi,Delhi,"Punjabi Bagh, Delhi - DPCC",25-01-2024 21:00:00,28.674045,77.131023,OZONE,9,12,10
India,Delhi,Delhi,"Pusa, Delhi - DPCC",25-01-2024 21:00:00,28.639652,77.146275,CO,26,116,100
India,Delhi,Delhi,"Pusa, Delhi - IMD",25-01-2024 21:00:00,28.636110,77.173332,PM2.5,80,412,280
India,Delhi,Delhi,"Pusa, Delhi - IMD",25-01-2024 21:00:00,28.636110,77.173332,OZONE,12,22,17
India,Delhi,Delhi,"R K Puram, Delhi - DPCC",25-01-2024 21:00:00,28.563262,77.186937,PM10,148,469,293
India,Delhi,Delhi,"R K Puram, Delhi - DPCC",25-01-2024 21:00:00,28.563262,77.186937,NO2,23,135,65
India,Delhi,Delhi,"R K Puram, Delhi - DPCC",25-01-2024 21:00:00,28.563262,77.186937,NH3,5,10,7
India,Delhi,Delhi,"Rohini, Delhi - DPCC",25-01-2024 21:00:00,28.732528,77.119920,SO2,8,24,14
India,Delhi,Delhi,"Shadipur, Delhi - CPCB",25-01-2024 21:00:00,28.6514781,77.1473105,NO2,44,65,55
India,Delhi,Delhi,"Sirifort, Delhi - CPCB",25-01-2024 21:00:00,28.5504249,77.2159377,NH3,7,9,8
India,Delhi,Delhi,"Sonia Vihar, Delhi - DPCC",25-01-2024 21:00:00,28.710508,77.249485,PM2.5,169,420,319
India,Delhi,Delhi,"Sonia Vihar, Delhi - DPCC",25-01-2024 21:00:00,28.710508,77.249485,NO2,39,98,56
India,Delhi,Delhi,"Sonia Vihar, Delhi - DPCC",25-01-2024 21:00:00,28.710508,77.249485,CO,68,106,90
India,Delhi,Delhi,"Sri Aurobindo Marg, Delhi - DPCC",25-01-2024 21:00:00,28.531346,77.190156,SO2,11,17,13
India,Delhi,Delhi,"Sri Aurobindo Marg, Delhi - DPCC",25-01-2024 21:00:00,28.531346,77.190156,CO,40,106,86
India,Delhi,Delhi,"Vivek Vihar, Delhi - DPCC",25-01-2024 21:00:00,28.672342,77.315260,NO2,47,122,78
India,Delhi,Delhi,"Vivek Vihar, Delhi - DPCC",25-01-2024 21:00:00,28.672342,77.315260,OZONE,1,10,6
India,Delhi,Delhi,"Wazirpur, Delhi - DPCC",25-01-2024 21:00:00,28.699793,77.165453,PM2.5,170,454,358
India,Delhi,Delhi,"Wazirpur, Delhi - DPCC",25-01-2024 21:00:00,28.699793,77.165453,NH3,6,17,11
India,Delhi,Delhi,"Wazirpur, Delhi - DPCC",25-01-2024 21:00:00,28.699793,77.165453,SO2,7,53,33
India,Gujarat,Ahmedabad,"Chandkheda, Ahmedabad - IITM",25-01-2024 21:00:00,23.107969,72.574648,PM2.5,50,269,121
India,Gujarat,Ahmedabad,"Chandkheda, Ahmedabad - IITM",25-01-2024 21:00:00,23.107969,72.574648,NO2,20,24,22
India,Gujarat,Ahmedabad,"Chandkheda, Ahmedabad - IITM",25-01-2024 21:00:00,23.107969,72.574648,NH3,4,4,4
India,Gujarat,Ahmedabad,"Gyaspur, Ahmedabad - IITM",25-01-2024 21:00:00,22.977134,72.553024,PM2.5,58,380,163
India,Gujarat,Ahmedabad,"Gyaspur, Ahmedabad - IITM",25-01-2024 21:00:00,22.977134,72.553024,NO2,9,16,12
India,Gujarat,Ahmedabad,"Gyaspur, Ahmedabad - IITM",25-01-2024 21:00:00,22.977134,72.553024,CO,6,30,8
India,Gujarat,Ahmedabad,"Maninagar, Ahmedabad - GPCB",25-01-2024 21:00:00,23.002657,72.591912,CO,11,82,31
India,Gujarat,Ahmedabad,"Raikhad, Ahmedabad - IITM",25-01-2024 21:00:00,23.020509,72.579261,SO2,NA,NA,NA
India,Gujarat,Ahmedabad,"Rakhial, Ahmedabad - IITM",25-01-2024 21:00:00,23.016834,72.625775,OZONE,1,52,32
India,Gujarat,Ahmedabad,"SAC ISRO Bopal, Ahmedabad - IITM",25-01-2024 21:00:00,23.041137,72.456691,PM10,62,218,98
India,Gujarat,Ahmedabad,"SAC ISRO Satellite, Ahmedabad - IITM",25-01-2024 21:00:00,23.023389,72.515201,PM10,71,92,85
India,Gujarat,Ahmedabad,"SAC ISRO Satellite, Ahmedabad - IITM",25-01-2024 21:00:00,23.023389,72.515201,CO,26,50,28
India,Gujarat,Ahmedabad,"SVPI Airport Hansol, Ahmedabad - IITM",25-01-2024 21:00:00,23.076793,72.627874,SO2,5,29,8
India,Gujarat,Ahmedabad,"SVPI Airport Hansol, Ahmedabad - IITM",25-01-2024 21:00:00,23.076793,72.627874,CO,6,108,19
India,Gujarat,Ahmedabad,"SVPI Airport Hansol, Ahmedabad - IITM",25-01-2024 21:00:00,23.076793,72.627874,OZONE,4,24,17
India,Gujarat,Ahmedabad,"Sardar Vallabhbhai Patel Stadium, Ahmedabad - IITM",25-01-2024 21:00:00,23.043070,72.562968,OZONE,1,15,11
India,Gujarat,Ankleshwar,"GIDC, Ankleshwar - GPCB",25-01-2024 21:00:00,21.613267,73.010555,SO2,6,137,104
India,Gujarat,Gandhinagar,"GIFT City, Gandhinagar - IITM",25-01-2024 21:00:00,23.163798,72.677768,NH3,2,3,2
India,Gujarat,Gandhinagar,"IIPHG Lekawada, Gandhinagar - IITM",25-01-2024 21:00:00,23.243639,72.68994,PM2.5,90,305,171
India,Gujarat,Gandhinagar,"IIPHG Lekawada, Gandhinagar - IITM",25-01-2024 21:00:00,23.243639,72.68994,PM10,72,139,100
India,Gujarat,Gandhinagar,"Sector-10, Gandhinagar - GPCB",25-01-2024 21:00:00,23.221714,72.654328,NH3,1,2,2
India,Gujarat,Vapi,"Phase-1 GIDC, Vapi - GPCB",25-01-2024 21:00:00,20.362421,72.918013,OZONE,1,4,2
India,Gujarat,Vatva,"Phase-4 GIDC, Vatva - GPCB",25-01-2024 21:00:00,22.969611,72.643500,NO2,NA,NA,NA
India,Gujarat,Vatva,"Phase-4 GIDC, Vatva - GPCB",25-01-2024 21:00:00,22.969611,72.643500,NH3,NA,NA,NA
India,Haryana,Ambala,"Patti Mehar, Ambala - HSPCB",25-01-2024 21:00:00,30.379589,76.778328,OZONE,26,42,34
India,Haryana,Bahadurgarh,"Arya Nagar, Bahadurgarh - HSPCB",25-01-2024 21:00:00,28.6701,76.9254,SO2,9,13,10
India,Haryana,Bahadurgarh,"Arya Nagar, Bahadurgarh - HSPCB",25-01-2024 21:00:00,28.6701,76.9254,CO,40,57,50
India,Haryana,Bahadurgarh,"Arya Nagar, Bahadurgarh - HSPCB",25-01-2024 21:00:00,28.6701,76.9254,OZONE,36,49,45
India,Haryana,Ballabgarh,"Nathu Colony, Ballabgarh - HSPCB",25-01-2024 21:00:00,28.3419248,77.319699,PM2.5,27,333,222
India,Haryana,Ballabgarh,"Nathu Colony, Ballabgarh - HSPCB",25-01-2024 21:00:00,28.3419248,77.319699,NH3,1,2,1
India,Haryana,Ballabgarh,"Nathu Colony, Ballabgarh - HSPCB",25-01-2024 21:00:00,28.3419248,77.319699,SO2,1,129,23
India,Haryana,Bhiwani,"H.B. Colony, Bhiwani - HSPCB",25-01-2024 21:00:00,28.806223,76.141105,NH3,4,8,6
India,Haryana,Charkhi Dadri,"Mini Secretariat, Charkhi Dadri - HSPCB",25-01-2024 21:00:00,28.593883,76.270653,PM2.5,3,193,70
India,Haryana,Charkhi Dadri,"Mini Secretariat, Charkhi Dadri - HSPCB",25-01-2024 21:00:00,28.593883,76.270653,NO2,10,15,12
India,Haryana,Charkhi Dadri,"Mini Secretariat, Charkhi Dadri - HSPCB",25-01-2024 21:00:00,28.593883,76.270653,NH3,5,6,6
India,Haryana,Dharuhera,"Municipal Corporation Office, Dharuhera -  HSPCB",25-01-2024 21:00:00,28.206800,76.799700,NO2,45,111,67
India,Haryana,Faridabad,"Sector 11, Faridabad - HSPCB",25-01-2024 21:00:00,28.376058,77.315741,PM10,103,416,212
India,Haryana,Faridabad,"Sector- 16A, Faridabad - HSPCB",25-01-2024 21:00:00,28.4088421,77.3099081,NO2,25,128,61
India,Haryana,Faridabad,"Sector- 16A, Faridabad - HSPCB",25-01-2024 21:00:00,28.4088421,77.3099081,SO2,1,25,14
India,Haryana,Faridabad,"Sector- 16A, Faridabad - HSPCB",25-01-2024 21:00:00,28.4088421,77.3099081,CO,18,126,80
India,Haryana,Fatehabad,"Huda Sector, Fatehabad - HSPCB",25-01-2024 21:00:00,29.503664,75.467934,PM10,55,107,85
India,Haryana,Gurugram,"Teri Gram, Gurugram - HSPCB",25-01-2024 21:00:00,28.4275,77.1465,OZONE,10,24,20
India,Haryana,Gurugram,"Vikas Sadan, Gurugram - HSPCB",25-01-2024 21:00:00,28.4501238,77.0263051,SO2,21,51,29
India,Haryana,Hisar,"Urban Estate-II, Hisar - HSPCB",25-01-2024 21:00:00,29.140560,75.744941,OZONE,9,60,49
India,Haryana,Kaithal,"Rishi Nagar, Kaithal - HSPCB",25-01-2024 21:00:00,29.8006,76.4155,PM2.5,97,308,177
India,Haryana,Kaithal,"Rishi Nagar, Kaithal - HSPCB",25-01-2024 21:00:00,29.8006,76.4155,PM10,96,164,125
India,Haryana,Kaithal,"Rishi Nagar, Kaithal - HSPCB",25-01-2024 21:00:00,29.8006,76.4155,CO,14,114,69
India,Haryana,Karnal,"Sector-12, Karnal - HSPCB",25-01-2024 21:00:00,29.695300,77.002700,PM10,87,141,112
India,Haryana,Kurukshetra,"Sector-7, Kurukshetra - HSPCB",25-01-2024 21:00:00,29.966942,76.875879,SO2,1,58,14
India,Haryana,Mandikhera,"General Hospital, Mandikhera - HSPCB",25-01-2024 21:00:00,27.9002,76.9938,PM2.5,7,65,20
India,Haryana,Mandikhera,"General Hospital, Mandikhera - HSPCB",25-01-2024 21:00:00,27.9002,76.9938,NO2,17,21,19
India,Haryana,Mandikhera,"General Hospital, Mandikhera - HSPCB",25-01-2024 21:00:00,27.9002,76.9938,NH3,19,21,20
India,Haryana,Manesar,"Sector-2 IMT, Manesar - HSPCB",25-01-2024 21:00:00,28.360699,76.936090,PM2.5,80,412,181
India,Haryana,Palwal,"Shyam Nagar, Palwal - HSPCB",25-01-2024 21:00:00,28.1485564,77.3320667,PM2.5,47,71,56
India,Haryana,Palwal,"Shyam Nagar, Palwal - HSPCB",25-01-2024 21:00:00,28.1485564,77.3320667,NH3,2,3,3
India,Haryana,Panchkula,"Sector-6, Panchkula - HSPCB ",25-01-2024 21:00:00,30.7057778,76.8531805555555,PM2.5,93,276,169
India,Haryana,Panipat,"Sector-18, Panipat - HSPCB",25-01-2024 21:00:00,29.497973,76.993331,NO2,NA,NA,NA
India,Haryana,Panipat,"Sector-18, Panipat - HSPCB",25-01-2024 21:00:00,29.497973,76.993331,NH3,NA,NA,NA
India,Haryana,Panipat,"Sector-18, Panipat - HSPCB",25-01-2024 21:00:00,29.497973,76.993331,OZONE,31,33,32
India,Haryana,Rohtak,"MD University, Rohtak - HSPCB",25-01-2024 21:00:00,28.52123,76.37138,PM2.5,54,169,97
India,Haryana,Sirsa,"F-Block, Sirsa - HSPCB",25-01-2024 21:00:00,29.536400,75.015800,NH3,12,13,13
India,Haryana,Sonipat,"Murthal, Sonipat - HSPCB",25-01-2024 21:00:00,29.027200,77.062100,NH3,7,10,9
India,Haryana,Sonipat,"Murthal, Sonipat - HSPCB",25-01-2024 21:00:00,29.027200,77.062100,SO2,12,29,20
India,Haryana,Sonipat,"Murthal, Sonipat - HSPCB",25-01-2024 21:00:00,29.027200,77.062100,OZONE,16,35,31
India,Haryana,Yamuna Nagar,"Gobind Pura, Yamuna Nagar - HSPCB",25-01-2024 21:00:00,30.1480566,77.2893471,NO2,11,29,19
India,Himachal Pradesh,Baddi,"HIMUDA Complex Phase-1, Baddi - HPPCB",25-01-2024 21:00:00,30.943887,76.801991,NO2,31,68,47
India,Jharkhand,Dhanbad,"Kalakusuma, Dhanbad - DMC",25-01-2024 21:00:00,23.811548,86.481238,PM2.5,NA,NA,NA
India,Jharkhand,Dhanbad,"Sardar Patel Nagar, Dhanbad - JSPCB",25-01-2024 21:00:00,23.80569,86.44268,CO,105,141,77
India,Jharkhand,Dhanbad,"Sardar Patel Nagar, Dhanbad - JSPCB",25-01-2024 21:00:00,23.80569,86.44268,OZONE,11,52,24
India,Jharkhand,Pathardih,"Mohalbani Ghat, Pathardih - DMC",25-01-2024 21:00:00,23.669880,86.411725,NO2,NA,NA,NA
India,Karnataka,Bagalkot,"Vidayagiri, Bagalkot - KSPCB",25-01-2024 21:00:00,16.172806,75.659694,PM2.5,20,30,29
India,Karnataka,Bagalkot,"Vidayagiri, Bagalkot - KSPCB",25-01-2024 21:00:00,16.172806,75.659694,NO2,10,11,10
India,Karnataka,Bagalkot,"Vidayagiri, Bagalkot - KSPCB",25-01-2024 21:00:00,16.172806,75.659694,SO2,NA,NA,NA
India,Karnataka,Belgaum,"Ramteerth Nagar, Belgaum - KSPCB",25-01-2024 21:00:00,15.888653,74.541751,NO2,27,36,30
India,Karnataka,Belgaum,"Ramteerth Nagar, Belgaum - KSPCB",25-01-2024 21:00:00,15.888653,74.541751,SO2,8,9,8
India,Karnataka,Belgaum,"Ramteerth Nagar, Belgaum - KSPCB",25-01-2024 21:00:00,15.888653,74.541751,CO,32,46,36
India,Karnataka,Bengaluru,"BTM Layout, Bengaluru - CPCB",25-01-2024 21:00:00,12.9135218,77.5950804,PM2.5,NA,NA,NA
India,Karnataka,Bengaluru,"BTM Layout, Bengaluru - CPCB",25-01-2024 21:00:00,12.9135218,77.5950804,NO2,NA,NA,NA
India,Karnataka,Bengaluru,"BTM Layout, Bengaluru - CPCB",25-01-2024 21:00:00,12.9135218,77.5950804,SO2,NA,NA,NA
India,Karnataka,Bengaluru,"Bapuji Nagar, Bengaluru - KSPCB",25-01-2024 21:00:00,12.951913,77.539784,PM2.5,78,257,138
India,Karnataka,Bengaluru,"Bapuji Nagar, Bengaluru - KSPCB",25-01-2024 21:00:00,12.951913,77.539784,CO,36,48,38
India,Karnataka,Bengaluru,"City Railway Station, Bengaluru - KSPCB",25-01-2024 21:00:00,12.9756843,77.5660749,PM10,NA,NA,NA
India,Karnataka,Bengaluru,"Hombegowda Nagar, Bengaluru - KSPCB",25-01-2024 21:00:00,12.938539,77.590100,NH3,2,2,2
India,Karnataka,Bengaluru,"Jayanagar 5th Block, Bengaluru - KSPCB",25-01-2024 21:00:00,12.920984,77.584908,PM10,62,286,133
India,Karnataka,Bengaluru,"Jayanagar 5th Block, Bengaluru - KSPCB",25-01-2024 21:00:00,12.920984,77.584908,CO,5,36,22
India,Karnataka,Bengaluru,"Jayanagar 5th Block, Bengaluru - KSPCB",25-01-2024 21:00:00,12.920984,77.584908,OZONE,18,20,18
India,Karnataka,Bengaluru,"Jigani, Bengaluru - KSPCB",25-01-2024 21:00:00,12.7816279,77.6299145,PM2.5,17,188,112
India,Karnataka,Bengaluru,"Jigani, Bengaluru - KSPCB",25-01-2024 21:00:00,12.7816279,77.6299145,PM10,34,151,107
India,Karnataka,Bengaluru,"Kasturi Nagar, Bengaluru - KSPCB",25-01-2024 21:00:00,13.003872,77.664217,PM10,119,176,144
India,Karnataka,Bengaluru,"Kasturi Nagar, Bengaluru - KSPCB",25-01-2024 21:00:00,13.003872,77.664217,NO2,16,17,17
India,Karnataka,Bengaluru,"RVCE-Mailasandra, Bengaluru - KSPCB",25-01-2024 21:00:00,12.921418,77.502466,PM10,109,239,149
India,Karnataka,Bengaluru,"Silk Board, Bengaluru - KSPCB",25-01-2024 21:00:00,12.917348,77.622813,PM2.5,60,131,86
India,Karnataka,Chamarajanagar,"Urban, Chamarajanagar - KSPCB",25-01-2024 21:00:00,11.55358,76.55521,PM10,34,56,42
India,Karnataka,Chikkaballapur,"Chikkaballapur Rural, Chikkaballapur - KSPCB",25-01-2024 21:00:00,13.428828,77.731418,PM10,46,128,82
India,Karnataka,Chikkaballapur,"Chikkaballapur Rural, Chikkaballapur - KSPCB",25-01-2024 21:00:00,13.428828,77.731418,NH3,1,1,1
India,Karnataka,Chikkaballapur,"Chikkaballapur Rural, Chikkaballapur - KSPCB",25-01-2024 21:00:00,13.428828,77.731418,SO2,9,27,20
India,Karnataka,Chikkamagaluru,"Kalyana Nagara, Chikkamagaluru - KSPCB",25-01-2024 21:00:00,13.328028,75.797056,PM2.5,19,69,40
India,Karnataka,Chikkamagaluru,"Kalyana Nagara, Chikkamagaluru - KSPCB",25-01-2024 21:00:00,13.328028,75.797056,SO2,1,6,3
India,Karnataka,Davanagere,"Devaraj Urs Badavane, Davanagere - KSPCB",25-01-2024 21:00:00,14.475800,75.905200,NH3,1,1,1
India,Karnataka,Dharwad,"Kalabhavan, Dharwad - KSPCB",25-01-2024 21:00:00,15.459706,75.008381,PM2.5,48,75,62
India,Karnataka,Dharwad,"Kalabhavan, Dharwad - KSPCB",25-01-2024 21:00:00,15.459706,75.008381,CO,46,129,85
India,Karnataka,Gadag,"Panchal Nagar, Gadag - KSPCB",25-01-2024 21:00:00,15.411456,75.638133,PM10,32,104,56
India,Karnataka,Hassan,"B.Katihalli, Hassan - KSPCB",25-01-2024 21:00:00,13.008556,76.125258,SO2,8,22,14
India,Karnataka,Haveri,"Ashwini Nagar, Haveri - KSPCB",25-01-2024 21:00:00,14.791800,75.389600,CO,32,36,33
India,Karnataka,Hubballi,"Deshpande Nagar, Hubballi - KSPCB",25-01-2024 21:00:00,15.351773,75.140726,PM10,NA,NA,NA
India,Karnataka,Hubballi,"Deshpande Nagar, Hubballi - KSPCB",25-01-2024 21:00:00,15.351773,75.140726,SO2,15,16,16
India,Karnataka,Hubballi,"Deshpande Nagar, Hubballi - KSPCB",25-01-2024 21:00:00,15.351773,75.140726,CO,74,103,84
India,Karnataka,Hubballi,"Lingaraj Nagar, Hubballi - KSPCB",25-01-2024 21:00:00,15.3714823,75.1160168,NO2,16,16,16
India,Karnataka,Kalaburagi,"Mahatma Basaveswar Colony, Kalaburgi - KSPCB",25-01-2024 21:00:00,17.336318,76.847397,NH3,3,3,3
India,Karnataka,Karwar,"KHB Colony, Karwar - KSPCB",25-01-2024 21:00:00,14.816666,74.141003,PM2.5,43,103,60
India,Karnataka,Karwar,"KHB Colony, Karwar - KSPCB",25-01-2024 21:00:00,14.816666,74.141003,NO2,6,9,7
India,Karnataka,Karwar,"KHB Colony, Karwar - KSPCB",25-01-2024 21:00:00,14.816666,74.141003,SO2,18,18,18
India,Karnataka,Karwar,"KHB Colony, Karwar - KSPCB",25-01-2024 21:00:00,14.816666,74.141003,CO,1,104,2
India,Karnataka,Kolar,"Tamaka Ind. Area, Kolar - KSPCB",25-01-2024 21:00:00,13.1276288,78.1570122,OZONE,13,17,15
India,Karnataka,Mangalore,"Kadri, Mangalore - KSPCB",25-01-2024 21:00:00,12.889250,74.853000,PM10,39,108,59
India,Karnataka,Mangalore,"Kadri, Mangalore - KSPCB",25-01-2024 21:00:00,12.889250,74.853000,SO2,15,20,18
India,Karnataka,Mangalore,"Kadri, Mangalore - KSPCB",25-01-2024 21:00:00,12.889250,74.853000,OZONE,31,32,31
India,Karnataka,Mysuru,"Hebbal 1st Stage, Mysuru - KSPCB",25-01-2024 21:00:00,12.21041,76.37376,PM10,50,81,62
India,Karnataka,Mysuru,"Hebbal 1st Stage, Mysuru - KSPCB",25-01-2024 21:00:00,12.21041,76.37376,NO2,5,42,25
India,Karnataka,Mysuru,"Hebbal 1st Stage, Mysuru - KSPCB",25-01-2024 21:00:00,12.21041,76.37376,CO,6,98,37
India,Karnataka,Mysuru,"Hebbal 1st Stage, Mysuru - KSPCB",25-01-2024 21:00:00,12.21041,76.37376,OZONE,4,83,54
India,Karnataka,Ramanagara,"Vijay Nagar, Ramanagara - KSPCB",25-01-2024 21:00:00,12.733409,77.298051,PM10,45,78,63
India,Karnataka,Ramanagara,"Vijay Nagar, Ramanagara - KSPCB",25-01-2024 21:00:00,12.733409,77.298051,CO,12,38,19
India,Karnataka,Ramanagara,"Vijay Nagar, Ramanagara - KSPCB",25-01-2024 21:00:00,12.733409,77.298051,OZONE,28,30,29
India,Karnataka,Shivamogga,"Vinoba Nagara, Shivamogga - KSPCB",25-01-2024 21:00:00,13.940000,75.555917,PM10,52,70,59
India,Karnataka,Tumakuru,"Thimmalapura, Tumakuru - KSPCB",25-01-2024 21:00:00,13.377516,77.099072,PM2.5,37,301,102
India,Karnataka,Udupi,"Brahmagiri, Udupi - KSPCB",25-01-2024 21:00:00,13.34194444,74.74694444,SO2,20,26,21
India,Karnataka,Yadgir,"Collector Office, Yadgir - KSPCB",25-01-2024 21:00:00,16.7602,77.1428,PM10,66,138,106
India,Kerala,Eloor,"Udyogamandal, Eloor - Kerala PCB",25-01-2024 21:00:00,10.073232,76.302765,PM10,32,48,39
India,Kerala,Eloor,"Udyogamandal, Eloor - Kerala PCB",25-01-2024 21:00:00,10.073232,76.302765,OZONE,3,14,9
India,Kerala,Kannur,"Thavakkara, Kannur - Kerala PCB",25-01-2024 21:00:00,11.875000,75.373200,PM10,56,66,62
India,Kerala,Kannur,"Thavakkara, Kannur - Kerala PCB",25-01-2024 21:00:00,11.875000,75.373200,SO2,4,6,5
India,Kerala,Kollam,"Polayathode, Kollam - Kerala PCB",25-01-2024 21:00:00,8.8787,76.6073,NO2,8,9,8
India,Kerala,Thiruvananthapuram,"Kariavattom, Thiruvananthapuram - Kerala PCB",25-01-2024 21:00:00,8.563700,76.886500,NO2,7,9,9
India,Kerala,Thrissur,"Corporation Ground, Thrissur - Kerala PCB",25-01-2024 21:00:00,10.532400,76.215900,NO2,9,11,10
India,Kerala,Thrissur,"Corporation Ground, Thrissur - Kerala PCB",25-01-2024 21:00:00,10.532400,76.215900,NH3,1,1,1
India,Kerala,Thrissur,"Corporation Ground, Thrissur - Kerala PCB",25-01-2024 21:00:00,10.532400,76.215900,CO,14,132,27
India,Kerala,Thrissur,"Corporation Ground, Thrissur - Kerala PCB",25-01-2024 21:00:00,10.532400,76.215900,OZONE,19,32,28
India,Madhya Pradesh,Bhopal,"Paryavaran Parisar, Bhopal - MPPCB",25-01-2024 21:00:00,23.210494,77.425409,PM2.5,30,457,218
India,Madhya Pradesh,Bhopal,"Paryavaran Parisar, Bhopal - MPPCB",25-01-2024 21:00:00,23.210494,77.425409,NH3,7,15,11
India,Madhya Pradesh,Bhopal,"T T Nagar, Bhopal - MPPCB",25-01-2024 21:00:00,23.233584,77.400574,CO,37,124,54
India,Madhya Pradesh,Dewas,"Bhopal Chauraha, Dewas - MPPCB",25-01-2024 21:00:00,22.9682591,76.064118,PM2.5,20,213,71
India,Madhya Pradesh,Gwalior,"City Center, Gwalior - MPPCB",25-01-2024 21:00:00,26.203442,78.193251,CO,44,101,57
India,Madhya Pradesh,Gwalior,"Deen Dayal Nagar, Gwalior - MPPCB",25-01-2024 21:00:00,26.259242,78.216432,PM2.5,126,341,255
India,Madhya Pradesh,Gwalior,"Deen Dayal Nagar, Gwalior - MPPCB",25-01-2024 21:00:00,26.259242,78.216432,CO,48,62,50
India,Madhya Pradesh,Gwalior,"Maharaj Bada, Gwalior - MPPCB",25-01-2024 21:00:00,26.200388,78.147714,SO2,12,19,15
India,Madhya Pradesh,Gwalior,"Maharaj Bada, Gwalior - MPPCB",25-01-2024 21:00:00,26.200388,78.147714,OZONE,26,113,72
India,Madhya Pradesh,Gwalior,"Phool Bagh, Gwalior - Mondelez Ind. Food",25-01-2024 21:00:00,26.210536,78.171,PM2.5,16,203,127
India,Madhya Pradesh,Indore,"Chhoti Gwaltoli, Indore - MPPCB",25-01-2024 21:00:00,22.4310,75.5213,PM10,55,357,161
India,Madhya Pradesh,Indore,"Maguda Nagar, Indore - IMC",25-01-2024 21:00:00,22.7524,75.8872,PM2.5,35,317,130
India,Madhya Pradesh,Indore,"Maguda Nagar, Indore - IMC",25-01-2024 21:00:00,22.7524,75.8872,NH3,1,1,1
India,Madhya Pradesh,Indore,"Regional Park, Indore - IMC",25-01-2024 21:00:00,22.6780,75.8559,NO2,7,18,10
India,Madhya Pradesh,Indore,"Residency Area, Indore - IMC",25-01-2024 21:00:00,22.7084,75.8815,PM10,26,228,100
India,Madhya Pradesh,Indore,"Residency Area, Indore - IMC",25-01-2024 21:00:00,22.7084,75.8815,SO2,23,30,26
India,Madhya Pradesh,Jabalpur,"Govindh Bhavan Colony, Jabalpur - JMC",25-01-2024 21:00:00,23.163174,79.973061,NO2,12,43,21
India,Madhya Pradesh,Jabalpur,"Govindh Bhavan Colony, Jabalpur - JMC",25-01-2024 21:00:00,23.163174,79.973061,OZONE,16,217,117
