country,state,city,station,last_update,latitude,longitude,pollutant_id,pollutant_min,pollutant_max,pollutant_avg
India,Andhra_Pradesh,Amaravati,"Secretariat, Amaravati - APPCB",31-07-2024 02:00:00,16.5150833,80.5181667,PM10,17,79,42
India,Andhra_Pradesh,Amaravati,"Secretariat, Amaravati - APPCB",31-07-2024 02:00:00,16.5150833,80.5181667,NO2,2,15,8
India,Andhra_Pradesh,Amaravati,"Secretariat, Amaravati - APPCB",31-07-2024 02:00:00,16.5150833,80.5181667,NH3,3,4,4
India,Andhra_Pradesh,Amaravati,"Secretariat, Amaravati - APPCB",31-07-2024 02:00:00,16.5150833,80.5181667,CO,14,90,41
India,Andhra_Pradesh,Chittoor,"Gangineni Cheruvu, Chittoor - APPCB",31-07-2024 02:00:00,13.204880,79.097889,PM2.5,37,61,48
India,Andhra_Pradesh,Tirupati,"Tirumala, Tirupati - APPCB",31-07-2024 02:00:00,13.67,79.35,NO2,11,28,18
India,Andhra_Pradesh,Tirupati,"Tirumala, Tirupati - APPCB",31-07-2024 02:00:00,13.67,79.35,SO2,1,11,5
India,Andhra_Pradesh,Tirupati,"Tirumala, Tirupati - APPCB",31-07-2024 02:00:00,13.67,79.35,OZONE,14,25,22
India,Andhra_Pradesh,Vijayawada,"HB Colony, Vijayawada - APPCB",31-07-2024 02:00:00,16.536107,80.594233,PM2.5,41,83,54
India,Andhra_Pradesh,Vijayawada,"HB Colony, Vijayawada - APPCB",31-07-2024 02:00:00,16.536107,80.594233,PM10,43,94,59
India,Andhra_Pradesh,Vijayawada,"Rajiv Gandhi Park, Vijayawada - APPCB",31-07-2024 02:00:00,16.509717,80.612222,NO2,24,34,28
India,Andhra_Pradesh,Vijayawada,"Rajiv Gandhi Park, Vijayawada - APPCB",31-07-2024 02:00:00,16.509717,80.612222,CO,39,40,40
India,Andhra_Pradesh,Visakhapatnam,"GVM Corporation, Visakhapatnam - APPCB",31-07-2024 02:00:00,17.72,83.3,NH3,3,5,3
India,Andhra_Pradesh,Visakhapatnam,"GVM Corporation, Visakhapatnam - APPCB",31-07-2024 02:00:00,17.72,83.3,SO2,6,14,9
India,Arunachal_Pradesh,Naharlagun,"Naharlagun, Naharlagun - APSPCB",31-07-2024 02:00:00,27.103358,93.679645,PM10,5,79,35
India,Arunachal_Pradesh,Naharlagun,"Naharlagun, Naharlagun - APSPCB",31-07-2024 02:00:00,27.103358,93.679645,NO2,3,3,3
India,Arunachal_Pradesh,Naharlagun,"Naharlagun, Naharlagun - APSPCB",31-07-2024 02:00:00,27.103358,93.679645,CO,8,14,12
India,Assam,Byrnihat,"Central Academy for SFS, Byrnihat - PCBA",31-07-2024 02:00:00,26.071318,91.87488,NO2,8,22,16
India,Assam,Guwahati,"LGBI Airport, Guwahati - PCBA",31-07-2024 02:00:00,26.10887,91.589544,PM2.5,NA,NA,NA
India,Assam,Guwahati,"Pan Bazaar, Guwahati - PCBA",31-07-2024 02:00:00,26.187500,91.744194,SO2,NA,NA,NA
India,Assam,Guwahati,"Railway Colony, Guwahati - PCBA",31-07-2024 02:00:00,26.181742,91.78063,OZONE,4,60,7
India,Assam,Nagaon,"Christianpatty, Nagaon - PCBA",31-07-2024 02:00:00,26.349082,92.68449,NO2,1,10,5
India,Assam,Nalbari,"Bata Chowk, Nalbari - PCBA",31-07-2024 02:00:00,26.446912,91.439057,PM2.5,8,58,28
India,Assam,Nalbari,"Bata Chowk, Nalbari - PCBA",31-07-2024 02:00:00,26.446912,91.439057,NH3,1,2,1
India,Assam,Nalbari,"Bata Chowk, Nalbari - PCBA",31-07-2024 02:00:00,26.446912,91.439057,SO2,3,14,6
India,Assam,Sivasagar,"Girls College, Sivasagar - PCBA",31-07-2024 02:00:00,26.987634,94.636574,NH3,1,2,1
India,Assam,Sivasagar,"Girls College, Sivasagar - PCBA",31-07-2024 02:00:00,26.987634,94.636574,CO,19,23,22
India,Bihar,Araria,"Kharahiya Basti, Araria - BSPCB",31-07-2024 02:00:00,26.146529,87.454184,PM10,NA,NA,NA
India,Bihar,Araria,"Kharahiya Basti, Araria - BSPCB",31-07-2024 02:00:00,26.146529,87.454184,SO2,10,18,15
India,Bihar,Bettiah,"Kamalnath Nagar, Bettiah - BSPCB",31-07-2024 02:00:00,26.80365,84.51954,NH3,15,27,20
India,Bihar,Bhagalpur,"DM Office_Kachari Chowk, Bhagalpur - BSPCB",31-07-2024 02:00:00,25.251013,86.989001,SO2,10,53,29
India,Bihar,Bhagalpur,"DM Office_Kachari Chowk, Bhagalpur - BSPCB",31-07-2024 02:00:00,25.251013,86.989001,OZONE,44,53,47
India,Bihar,Bhagalpur,"Mayaganj, Bhagalpur - BSPCB",31-07-2024 02:00:00,25.265194,87.012947,PM2.5,22,327,68
India,Bihar,Bhagalpur,"Mayaganj, Bhagalpur - BSPCB",31-07-2024 02:00:00,25.265194,87.012947,NO2,6,7,7
India,Bihar,Bhagalpur,"Mayaganj, Bhagalpur - BSPCB",31-07-2024 02:00:00,25.265194,87.012947,CO,22,32,28
India,Bihar,Bihar Sharif,"D M Colony, Bihar Sharif - BSPCB",31-07-2024 02:00:00,25.204762,85.514960,PM2.5,5,40,17
India,Bihar,Bihar Sharif,"D M Colony, Bihar Sharif - BSPCB",31-07-2024 02:00:00,25.204762,85.514960,NH3,13,24,18
India,Bihar,Buxar,"Charitra Van, Buxar - BSPCB (Formerly known as Central Jail)",31-07-2024 02:00:00,25.567520,83.966379,PM2.5,3,93,29
India,Bihar,Buxar,"Charitra Van, Buxar - BSPCB (Formerly known as Central Jail)",31-07-2024 02:00:00,25.567520,83.966379,OZONE,9,14,11
India,Bihar,Chhapra,"Darshan Nagar, Chhapra - BSPCB",31-07-2024 02:00:00,25.7808257,84.7446768,NO2,NA,NA,NA
India,Bihar,Gaya,"Kareemganj, Gaya - BSPCB",31-07-2024 02:00:00,24.792403,84.992416,PM2.5,NA,NA,NA
India,Bihar,Katihar,"Mirchaibari, Katihar - BSPCB",31-07-2024 02:00:00,25.560083,87.553265,CO,23,44,27
India,Bihar,Kishanganj,"SDM Office_Khagra, Kishanganj - BSPCB",31-07-2024 02:00:00,26.0881305,87.93840336,OZONE,15,82,20
India,Bihar,Manguraha,"Forest Rest House, Manguraha - BSPCB",31-07-2024 02:00:00,27.308328,84.531742,CO,20,60,29
India,Bihar,Manguraha,"Forest Rest House, Manguraha - BSPCB",31-07-2024 02:00:00,27.308328,84.531742,OZONE,1,4,2
India,Bihar,Motihari,"Gandak Colony, Motihari - BSPCB",31-07-2024 02:00:00,26.63086,84.90051,PM2.5,NA,NA,NA
India,Bihar,Motihari,"Gandak Colony, Motihari - BSPCB",31-07-2024 02:00:00,26.63086,84.90051,OZONE,7,27,16
India,Bihar,Munger,"Town Hall, Munger - BSPCB",31-07-2024 02:00:00,25.376776,86.471523,NH3,3,3,3
India,Bihar,Muzaffarpur,"MIT-Daudpur Kothi, Muzaffarpur - BSPCB",31-07-2024 02:00:00,26.1403345,85.3650192,OZONE,14,66,31
India,Bihar,Patna,"DRM Office Danapur, Patna - BSPCB",31-07-2024 02:00:00,25.586562,85.043586,NO2,40,88,54
India,Bihar,Patna,"DRM Office Danapur, Patna - BSPCB",31-07-2024 02:00:00,25.586562,85.043586,CO,12,43,31
India,Bihar,Patna,"Govt. High School Shikarpur, Patna - BSPCB",31-07-2024 02:00:00,25.592539,85.227158,NH3,4,5,5
India,Bihar,Patna,"Rajbansi Nagar, Patna - BSPCB",31-07-2024 02:00:00,25.599486,85.113666,PM10,42,109,73
India,Bihar,Patna,"Samanpura, Patna - BSPCB",31-07-2024 02:00:00,25.596727,85.085624,PM10,93,115,107
India,Bihar,Patna,"Samanpura, Patna - BSPCB",31-07-2024 02:00:00,25.596727,85.085624,CO,38,58,47
India,Bihar,Purnia,"Mariam Nagar, Purnia - BSPCB",31-07-2024 02:00:00,25.366336,87.117468,PM2.5,NA,NA,NA
India,Bihar,Purnia,"Mariam Nagar, Purnia - BSPCB",31-07-2024 02:00:00,25.366336,87.117468,PM10,NA,NA,NA
India,Bihar,Purnia,"Mariam Nagar, Purnia - BSPCB",31-07-2024 02:00:00,25.366336,87.117468,NH3,1,1,1
India,Bihar,Rajgir,"Dangi Tola, Rajgir - BSPCB",31-07-2024 02:00:00,25.03280,85.41948,PM2.5,3,70,18
India,Bihar,Rajgir,"Dangi Tola, Rajgir - BSPCB",31-07-2024 02:00:00,25.03280,85.41948,CO,38,38,38
India,Bihar,Saharsa,"Police Line, Saharsa - BSPCB",31-07-2024 02:00:00,25.892357,86.590325,OZONE,1,72,36
India,Bihar,Sasaram,"Dada Peer, Sasaram - BSPCB",31-07-2024 02:00:00,24.952822,84.002396,CO,26,48,34
India,Bihar,Siwan,"Chitragupta Nagar, Siwan - BSPCB",31-07-2024 02:00:00,26.2271665,84.3570427,PM10,NA,NA,NA
India,Chandigarh,Chandigarh,"Sector 22, Chandigarh - CPCC",31-07-2024 02:00:00,30.735567,76.775714,OZONE,4,52,10
India,Chandigarh,Chandigarh,"Sector-25, Chandigarh - CPCC",31-07-2024 02:00:00,30.751462,76.762879,CO,16,57,38
India,Chhattisgarh,Bhilai,"Hathkhoj, Bhilai - CECB",31-07-2024 02:00:00,21.224231,81.408350,NH3,7,7,7
India,Chhattisgarh,Bhilai,"Hathkhoj, Bhilai - CECB",31-07-2024 02:00:00,21.224231,81.408350,CO,8,19,14
India,Chhattisgarh,Bilaspur,"Mangala, Bilaspur - NTPC",31-07-2024 02:00:00,22.08815,82.13737,PM2.5,11,40,23
India,Chhattisgarh,Chhal,"Nawapara SECL Colony, Chhal - CECB",31-07-2024 02:00:00,22.118125,83.140608,NH3,NA,NA,NA
India,Chhattisgarh,Chhal,"Nawapara SECL Colony, Chhal - CECB",31-07-2024 02:00:00,22.118125,83.140608,OZONE,9,50,39
India,Chhattisgarh,Korba,"Rampur, Korba - CECB",31-07-2024 02:00:00,22.368195,82.746431,PM10,47,74,60
India,Chhattisgarh,Korba,"Rampur, Korba - CECB",31-07-2024 02:00:00,22.368195,82.746431,NO2,23,24,23
India,Chhattisgarh,Korba,"Rampur, Korba - CECB",31-07-2024 02:00:00,22.368195,82.746431,SO2,7,10,9
India,Chhattisgarh,Korba,"Rampur, Korba - CECB",31-07-2024 02:00:00,22.368195,82.746431,CO,30,39,36
India,Chhattisgarh,Kunjemura,"OP Jindal School, Kunjemura - CECB",31-07-2024 02:00:00,22.126650,83.483212,PM10,7,178,58
India,Chhattisgarh,Kunjemura,"OP Jindal School, Kunjemura - CECB",31-07-2024 02:00:00,22.126650,83.483212,NO2,11,37,22
India,Chhattisgarh,Raipur,"Bhatagaon New ISBT, Raipur - CECB",31-07-2024 02:00:00,21.219665,81.630094,NO2,4,7,6
India,Chhattisgarh,Raipur,"Bhatagaon New ISBT, Raipur - CECB",31-07-2024 02:00:00,21.219665,81.630094,SO2,4,6,5
India,Chhattisgarh,Raipur,"Krishak Nagar, Raipur - CECB",31-07-2024 02:00:00,21.237755,81.705301,OZONE,4,14,10
India,Chhattisgarh,Raipur,"Siltara Phase-II, Raipur - CECB",31-07-2024 02:00:00,21.371751,81.664929,CO,NA,NA,NA
India,Delhi,Delhi,"Alipur, Delhi - DPCC",31-07-2024 02:00:00,28.815329,77.153010,NO2,23,35,27
India,Delhi,Delhi,"Alipur, Delhi - DPCC",31-07-2024 02:00:00,28.815329,77.153010,CO,10,18,14
India,Delhi,Delhi,"Alipur, Delhi - DPCC",31-07-2024 02:00:00,28.815329,77.153010,OZONE,3,45,14
India,Delhi,Delhi,"Anand Vihar, Delhi - DPCC",31-07-2024 02:00:00,28.647622,77.3158090,NO2,15,96,44
India,Delhi,Delhi,"Anand Vihar, Delhi - DPCC",31-07-2024 02:00:00,28.647622,77.3158090,SO2,16,23,18
India,Delhi,Delhi,"Ashok Vihar, Delhi - DPCC",31-07-2024 02:00:00,28.695381,77.181665,PM2.5,38,143,60
India,Delhi,Delhi,"Ashok Vihar, Delhi - DPCC",31-07-2024 02:00:00,28.695381,77.181665,PM10,53,105,77
India,Delhi,Delhi,"Ashok Vihar, Delhi - DPCC",31-07-2024 02:00:00,28.695381,77.181665,NO2,21,82,40
India,Delhi,Delhi,"Ashok Vihar, Delhi - DPCC",31-07-2024 02:00:00,28.695381,77.181665,CO,14,76,61
India,Delhi,Delhi,"Ashok Vihar, Delhi - DPCC",31-07-2024 02:00:00,28.695381,77.181665,OZONE,25,105,60
India,Delhi,Delhi,"Bawana, Delhi - DPCC",31-07-2024 02:00:00,28.776200,77.051074,PM10,73,133,96
India,Delhi,Delhi,"Bawana, Delhi - DPCC",31-07-2024 02:00:00,28.776200,77.051074,NO2,10,33,16
India,Delhi,Delhi,"Bawana, Delhi - DPCC",31-07-2024 02:00:00,28.776200,77.051074,SO2,9,11,10
India,Delhi,Delhi,"Burari Crossing, Delhi - IMD",31-07-2024 02:00:00,28.7256504,77.2011573,PM10,57,120,84
India,Delhi,Delhi,"CRRI Mathura Road, Delhi - IMD",31-07-2024 02:00:00,28.5512005,77.2735737,NO2,6,13,8
India,Delhi,Delhi,"Chandni Chowk, Delhi - IITM",31-07-2024 02:00:00,28.656756,77.227234,NO2,61,88,79
India,Delhi,Delhi,"DTU, Delhi - CPCB",31-07-2024 02:00:00,28.7500499,77.1112615,PM10,71,144,96
India,Delhi,Delhi,"DTU, Delhi - CPCB",31-07-2024 02:00:00,28.7500499,77.1112615,NH3,7,10,9
India,Delhi,Delhi,"Dr. Karni Singh Shooting Range, Delhi - DPCC",31-07-2024 02:00:00,28.498571,77.264840,OZONE,7,41,20
India,Delhi,Delhi,"Dwarka-Sector 8, Delhi - DPCC ",31-07-2024 02:00:00,28.5710274,77.0719006,PM10,66,145,109
India,Delhi,Delhi,"IGI Airport (T3), Delhi - IMD",31-07-2024 02:00:00,28.5627763,77.1180053,CO,12,42,28
India,Delhi,Delhi,"IHBAS, Dilshad Garden, Delhi - CPCB",31-07-2024 02:00:00,28.6811736,77.3025234,PM10,58,88,67
India,Delhi,Delhi,"IHBAS, Dilshad Garden, Delhi - CPCB",31-07-2024 02:00:00,28.6811736,77.3025234,SO2,3,31,8
India,Delhi,Delhi,"ITO, Delhi - CPCB",31-07-2024 02:00:00,28.628624,77.241060,PM2.5,35,152,110
India,Delhi,Delhi,"ITO, Delhi - CPCB",31-07-2024 02:00:00,28.628624,77.241060,CO,32,107,88
India,Delhi,Delhi,"ITO, Delhi - CPCB",31-07-2024 02:00:00,28.628624,77.241060,OZONE,27,51,47
India,Delhi,Delhi,"Jahangirpuri, Delhi - DPCC",31-07-2024 02:00:00,28.732820,77.170633,NH3,1,2,2
India,Delhi,Delhi,"Jawaharlal Nehru Stadium, Delhi - DPCC",31-07-2024 02:00:00,28.580280,77.233829,NO2,24,102,47
India,Delhi,Delhi,"Jawaharlal Nehru Stadium, Delhi - DPCC",31-07-2024 02:00:00,28.580280,77.233829,SO2,1,11,5
India,Delhi,Delhi,"Lodhi Road, Delhi - IMD",31-07-2024 02:00:00,28.5918245,77.2273074,PM2.5,30,82,54
India,Delhi,Delhi,"Lodhi Road, Delhi - IMD",31-07-2024 02:00:00,28.5918245,77.2273074,NO2,4,9,6
India,Delhi,Delhi,"Lodhi Road, Delhi - IMD",31-07-2024 02:00:00,28.5918245,77.2273074,OZONE,32,83,50
India,Delhi,Delhi,"Major Dhyan Chand National Stadium, Delhi - DPCC",31-07-2024 02:00:00,28.611281,77.237738,PM2.5,33,98,64
India,Delhi,Delhi,"Major Dhyan Chand National Stadium, Delhi - DPCC",31-07-2024 02:00:00,28.611281,77.237738,NO2,10,138,59
India,Delhi,Delhi,"Major Dhyan Chand National Stadium, Delhi - DPCC",31-07-2024 02:00:00,28.611281,77.237738,CO,34,80,65
India,Delhi,Delhi,"Mandir Marg, Delhi - DPCC",31-07-2024 02:00:00,28.636429,77.201067,OZONE,3,60,20
India,Delhi,Delhi,"Mundka, Delhi - DPCC",31-07-2024 02:00:00,28.684678,77.076574,PM10,87,153,118
India,Delhi,Delhi,"Mundka, Delhi - DPCC",31-07-2024 02:00:00,28.684678,77.076574,NO2,34,94,47
India,Delhi,Delhi,"Mundka, Delhi - DPCC",31-07-2024 02:00:00,28.684678,77.076574,CO,31,51,41
India,Delhi,Delhi,"NSIT Dwarka, Delhi - CPCB",31-07-2024 02:00:00,28.60909,77.0325413,PM10,54,105,73
India,Delhi,Delhi,"NSIT Dwarka, Delhi - CPCB",31-07-2024 02:00:00,28.60909,77.0325413,CO,22,68,47
India,Delhi,Delhi,"NSIT Dwarka, Delhi - CPCB",31-07-2024 02:00:00,28.60909,77.0325413,OZONE,6,15,8
India,Delhi,Delhi,"Najafgarh, Delhi - DPCC",31-07-2024 02:00:00,28.570173,76.933762,CO,42,51,44
India,Delhi,Delhi,"Nehru Nagar, Delhi - DPCC",31-07-2024 02:00:00,28.567890,77.250515,PM2.5,38,193,64
India,Delhi,Delhi,"Nehru Nagar, Delhi - DPCC",31-07-2024 02:00:00,28.567890,77.250515,NH3,3,5,4
India,Delhi,Delhi,"Nehru Nagar, Delhi - DPCC",31-07-2024 02:00:00,28.567890,77.250515,CO,57,92,72
India,Delhi,Delhi,"Nehru Nagar, Delhi - DPCC",31-07-2024 02:00:00,28.567890,77.250515,OZONE,13,113,44
India,Delhi,Delhi,"Okhla Phase-2, Delhi - DPCC",31-07-2024 02:00:00,28.530785,77.271255,NO2,24,73,42
India,Delhi,Delhi,"Patparganj, Delhi - DPCC",31-07-2024 02:00:00,28.623763,77.287209,CO,14,92,49
India,Delhi,Delhi,"Punjabi Bagh, Delhi - DPCC",31-07-2024 02:00:00,28.674045,77.131023,PM2.5,3,147,76
India,Delhi,Delhi,"Punjabi Bagh, Delhi - DPCC",31-07-2024 02:00:00,28.674045,77.131023,NO2,11,41,22
India,Delhi,Delhi,"Pusa, Delhi - DPCC",31-07-2024 02:00:00,28.639652,77.146275,OZONE,9,33,9
India,Delhi,Delhi,"Shadipur, Delhi - CPCB",31-07-2024 02:00:00,28.6514781,77.1473105,OZONE,28,62,42
India,Delhi,Delhi,"Sirifort, Delhi - CPCB",31-07-2024 02:00:00,28.5504249,77.2159377,PM10,58,220,121
India,Delhi,Delhi,"Sirifort, Delhi - CPCB",31-07-2024 02:00:00,28.5504249,77.2159377,NH3,12,15,14
India,Delhi,Delhi,"Sirifort, Delhi - CPCB",31-07-2024 02:00:00,28.5504249,77.2159377,CO,34,104,95
India,Delhi,Delhi,"Sirifort, Delhi - CPCB",31-07-2024 02:00:00,28.5504249,77.2159377,OZONE,16,44,29
India,Delhi,Delhi,"Sonia Vihar, Delhi - DPCC",31-07-2024 02:00:00,28.710508,77.249485,NO2,18,82,38
India,Delhi,Delhi,"Sri Aurobindo Marg, Delhi - DPCC",31-07-2024 02:00:00,28.531346,77.190156,NO2,12,68,26
India,Delhi,Delhi,"Vivek Vihar, Delhi - DPCC",31-07-2024 02:00:00,28.672342,77.315260,NO2,27,88,41
India,Delhi,Delhi,"Wazirpur, Delhi - DPCC",31-07-2024 02:00:00,28.699793,77.165453,NH3,7,11,10
India,Delhi,Delhi,"Wazirpur, Delhi - DPCC",31-07-2024 02:00:00,28.699793,77.165453,SO2,2,11,6
India,Delhi,Delhi,"Wazirpur, Delhi - DPCC",31-07-2024 02:00:00,28.699793,77.165453,OZONE,1,33,25
India,Gujarat,Ahmedabad,"Chandkheda, Ahmedabad - IITM",31-07-2024 02:00:00,23.107969,72.574648,CO,21,50,31
India,Gujarat,Ahmedabad,"Maninagar, Ahmedabad - GPCB",31-07-2024 02:00:00,23.002657,72.591912,NO2,21,50,26
India,Gujarat,Ahmedabad,"Maninagar, Ahmedabad - GPCB",31-07-2024 02:00:00,23.002657,72.591912,OZONE,17,23,21
India,Gujarat,Ahmedabad,"Rakhial, Ahmedabad - IITM",31-07-2024 02:00:00,23.016834,72.625775,PM2.5,8,85,48
India,Gujarat,Ahmedabad,"Rakhial, Ahmedabad - IITM",31-07-2024 02:00:00,23.016834,72.625775,PM10,10,110,60
India,Gujarat,Ahmedabad,"Sardar Vallabhbhai Patel Stadium, Ahmedabad - IITM",31-07-2024 02:00:00,23.043070,72.562968,OZONE,8,39,20
India,Gujarat,Gandhinagar,"GIFT City, Gandhinagar - IITM",31-07-2024 02:00:00,23.163798,72.677768,NO2,10,44,20
India,Gujarat,Gandhinagar,"Sector-10, Gandhinagar - GPCB",31-07-2024 02:00:00,23.221714,72.654328,PM2.5,21,52,38
India,Gujarat,Gandhinagar,"Sector-10, Gandhinagar - GPCB",31-07-2024 02:00:00,23.221714,72.654328,PM10,NA,NA,NA
India,Gujarat,Gandhinagar,"Sector-10, Gandhinagar - GPCB",31-07-2024 02:00:00,23.221714,72.654328,OZONE,3,27,10
India,Gujarat,Vapi,"Phase-1 GIDC, Vapi - GPCB",31-07-2024 02:00:00,20.362421,72.918013,PM10,18,118,44
India,Gujarat,Vatva,"Phase-4 GIDC, Vatva - GPCB",31-07-2024 02:00:00,22.969611,72.643500,NO2,1,5,3
India,Haryana,Ambala,"Patti Mehar, Ambala - HSPCB",31-07-2024 02:00:00,30.379589,76.778328,PM2.5,20,64,48
India,Haryana,Ambala,"Patti Mehar, Ambala - HSPCB",31-07-2024 02:00:00,30.379589,76.778328,NH3,5,12,9
India,Haryana,Bahadurgarh,"Arya Nagar, Bahadurgarh - HSPCB",31-07-2024 02:00:00,28.6701,76.9254,NO2,21,25,23
India,Haryana,Bahadurgarh,"Arya Nagar, Bahadurgarh - HSPCB",31-07-2024 02:00:00,28.6701,76.9254,CO,6,18,13
India,Haryana,Ballabgarh,"Nathu Colony, Ballabgarh - HSPCB",31-07-2024 02:00:00,28.3419248,77.319699,PM2.5,26,91,56
India,Haryana,Ballabgarh,"Nathu Colony, Ballabgarh - HSPCB",31-07-2024 02:00:00,28.3419248,77.319699,NO2,8,10,9
India,Haryana,Ballabgarh,"Nathu Colony, Ballabgarh - HSPCB",31-07-2024 02:00:00,28.3419248,77.319699,SO2,4,10,6
India,Haryana,Bhiwani,"H.B. Colony, Bhiwani - HSPCB",31-07-2024 02:00:00,28.806223,76.141105,NO2,6,12,9
India,Haryana,Bhiwani,"H.B. Colony, Bhiwani - HSPCB",31-07-2024 02:00:00,28.806223,76.141105,SO2,2,94,16
India,Haryana,Charkhi Dadri,"Mini Secretariat, Charkhi Dadri - HSPCB",31-07-2024 02:00:00,28.593883,76.270653,NH3,6,8,7
India,Haryana,Charkhi Dadri,"Mini Secretariat, Charkhi Dadri - HSPCB",31-07-2024 02:00:00,28.593883,76.270653,OZONE,14,17,15
India,Haryana,Dharuhera,"Municipal Corporation Office, Dharuhera -  HSPCB",31-07-2024 02:00:00,28.206800,76.799700,PM10,42,94,71
India,Haryana,Dharuhera,"Municipal Corporation Office, Dharuhera -  HSPCB",31-07-2024 02:00:00,28.206800,76.799700,CO,18,36,22
India,Haryana,Faridabad,"New Industrial Town, Faridabad - HSPCB",31-07-2024 02:00:00,28.39072,77.30059,PM10,NA,NA,NA
India,Haryana,Faridabad,"New Industrial Town, Faridabad - HSPCB",31-07-2024 02:00:00,28.39072,77.30059,SO2,NA,NA,NA
India,Haryana,Faridabad,"Sector 11, Faridabad - HSPCB",31-07-2024 02:00:00,28.376058,77.315741,NO2,30,33,31
India,Haryana,Faridabad,"Sector 11, Faridabad - HSPCB",31-07-2024 02:00:00,28.376058,77.315741,SO2,3,101,11
India,Haryana,Faridabad,"Sector 30, Faridabad - HSPCB",31-07-2024 02:00:00,28.4417,77.3217,PM10,85,141,102
India,Haryana,Faridabad,"Sector 30, Faridabad - HSPCB",31-07-2024 02:00:00,28.4417,77.3217,NO2,16,16,16
India,Haryana,Faridabad,"Sector- 16A, Faridabad - HSPCB",31-07-2024 02:00:00,28.4088421,77.3099081,CO,46,76,67
India,Haryana,Fatehabad,"Huda Sector, Fatehabad - HSPCB",31-07-2024 02:00:00,29.503664,75.467934,NO2,29,32,30
India,Haryana,Gurugram,"Sector-51, Gurugram - HSPCB",31-07-2024 02:00:00,28.4227,77.0667,PM10,NA,NA,NA
India,Haryana,Gurugram,"Sector-51, Gurugram - HSPCB",31-07-2024 02:00:00,28.4227,77.0667,NH3,NA,NA,NA
India,Haryana,Gurugram,"Sector-51, Gurugram - HSPCB",31-07-2024 02:00:00,28.4227,77.0667,CO,16,36,30
India,Haryana,Gurugram,"Sector-51, Gurugram - HSPCB",31-07-2024 02:00:00,28.4227,77.0667,OZONE,27,38,32
India,Haryana,Gurugram,"Teri Gram, Gurugram - HSPCB",31-07-2024 02:00:00,28.4275,77.1465,PM2.5,NA,NA,NA
India,Haryana,Gurugram,"Teri Gram, Gurugram - HSPCB",31-07-2024 02:00:00,28.4275,77.1465,NH3,NA,NA,NA
India,Haryana,Gurugram,"Teri Gram, Gurugram - HSPCB",31-07-2024 02:00:00,28.4275,77.1465,SO2,NA,NA,NA
India,Haryana,Gurugram,"Teri Gram, Gurugram - HSPCB",31-07-2024 02:00:00,28.4275,77.1465,OZONE,2,83,17
India,Haryana,Gurugram,"Vikas Sadan, Gurugram - HSPCB",31-07-2024 02:00:00,28.4501238,77.0263051,SO2,9,73,33
India,Haryana,Gurugram,"Vikas Sadan, Gurugram - HSPCB",31-07-2024 02:00:00,28.4501238,77.0263051,OZONE,8,69,19
India,Haryana,Hisar,"Urban Estate-II, Hisar - HSPCB",31-07-2024 02:00:00,29.140560,75.744941,PM10,50,81,67
India,Haryana,Hisar,"Urban Estate-II, Hisar - HSPCB",31-07-2024 02:00:00,29.140560,75.744941,SO2,2,67,32
India,Haryana,Hisar,"Urban Estate-II, Hisar - HSPCB",31-07-2024 02:00:00,29.140560,75.744941,CO,20,59,31
India,Haryana,Jind,"Police Lines, Jind - HSPCB",31-07-2024 02:00:00,29.307814,76.337619,NH3,1,6,4
India,Haryana,Kaithal,"Rishi Nagar, Kaithal - HSPCB",31-07-2024 02:00:00,29.8006,76.4155,OZONE,48,203,89
India,Haryana,Karnal,"Sector-12, Karnal - HSPCB",31-07-2024 02:00:00,29.695300,77.002700,CO,12,42,33
India,Haryana,Mandikhera,"General Hospital, Mandikhera - HSPCB",31-07-2024 02:00:00,27.9002,76.9938,PM10,57,74,63
India,Haryana,Manesar,"Sector-2 IMT, Manesar - HSPCB",31-07-2024 02:00:00,28.360699,76.936090,NO2,16,20,18
India,Haryana,Manesar,"Sector-2 IMT, Manesar - HSPCB",31-07-2024 02:00:00,28.360699,76.936090,NH3,5,6,5
India,Haryana,Manesar,"Sector-2 IMT, Manesar - HSPCB",31-07-2024 02:00:00,28.360699,76.936090,SO2,1,113,47
India,Haryana,Narnaul,"Shastri Nagar, Narnaul - HSPCB",31-07-2024 02:00:00,28.060249,76.113115,NH3,5,10,8
India,Haryana,Palwal,"Shyam Nagar, Palwal - HSPCB",31-07-2024 02:00:00,28.1485564,77.3320667,SO2,4,27,10
India,Haryana,Panchkula,"Sector-6, Panchkula - HSPCB ",31-07-2024 02:00:00,30.7057778,76.8531805555555,OZONE,24,41,30
India,Haryana,Rohtak,"MD University, Rohtak - HSPCB",31-07-2024 02:00:00,28.52123,76.37138,OZONE,44,53,49
India,Haryana,Sirsa,"F-Block, Sirsa - HSPCB",31-07-2024 02:00:00,29.536400,75.015800,PM10,13,156,39
India,Haryana,Sirsa,"F-Block, Sirsa - HSPCB",31-07-2024 02:00:00,29.536400,75.015800,CO,86,93,90
India,Haryana,Sonipat,"Murthal, Sonipat - HSPCB",31-07-2024 02:00:00,29.027200,77.062100,NO2,37,44,39
India,Haryana,Sonipat,"Murthal, Sonipat - HSPCB",31-07-2024 02:00:00,29.027200,77.062100,CO,2,18,12
India,Haryana,Sonipat,"Murthal, Sonipat - HSPCB",31-07-2024 02:00:00,29.027200,77.062100,OZONE,15,36,21
India,Haryana,Yamuna Nagar,"Gobind Pura, Yamuna Nagar - HSPCB",31-07-2024 02:00:00,30.1480566,77.2893471,OZONE,9,32,24
India,Himachal Pradesh,Baddi,"HIMUDA Complex Phase-1, Baddi - HPPCB",31-07-2024 02:00:00,30.943887,76.801991,NO2,10,44,23
India,Himachal Pradesh,Baddi,"HIMUDA Complex Phase-1, Baddi - HPPCB",31-07-2024 02:00:00,30.943887,76.801991,NH3,6,9,7
India,Jammu_and_Kashmir,Srinagar,"Rajbagh, Srinagar - JKSPCB",31-07-2024 02:00:00,34.066206,74.819820,PM10,31,70,50
India,Jharkhand,Dhanbad,"Kalakusuma, Dhanbad - DMC",31-07-2024 02:00:00,23.811548,86.481238,CO,130,134,131
India,Jharkhand,Jorapokhar,"Tata Stadium, Jorapokhar - JSPCB",31-07-2024 02:00:00,23.707909,86.414670,NO2,NA,NA,NA
India,Jharkhand,Jorapokhar,"Tata Stadium, Jorapokhar - JSPCB",31-07-2024 02:00:00,23.707909,86.414670,OZONE,NA,NA,NA
India,Karnataka,Bagalkot,"Vidayagiri, Bagalkot - KSPCB",31-07-2024 02:00:00,16.172806,75.659694,PM10,53,54,54
India,Karnataka,Belgaum,"Ramteerth Nagar, Belgaum - KSPCB",31-07-2024 02:00:00,15.888653,74.541751,PM2.5,10,61,32
India,Karnataka,Bengaluru,"BTM Layout, Bengaluru - CPCB",31-07-2024 02:00:00,12.9135218,77.5950804,PM2.5,17,20,18
India,Karnataka,Bengaluru,"BTM Layout, Bengaluru - CPCB",31-07-2024 02:00:00,12.9135218,77.5950804,PM10,16,38,26
India,Karnataka,Bengaluru,"BTM Layout, Bengaluru - CPCB",31-07-2024 02:00:00,12.9135218,77.5950804,NO2,36,67,61
India,Karnataka,Bengaluru,"BTM Layout, Bengaluru - CPCB",31-07-2024 02:00:00,12.9135218,77.5950804,OZONE,20,30,21
India,Karnataka,Bengaluru,"Hombegowda Nagar, Bengaluru - KSPCB",31-07-2024 02:00:00,12.938539,77.590100,OZONE,9,24,13
India,Karnataka,Bengaluru,"Jayanagar 5th Block, Bengaluru - KSPCB",31-07-2024 02:00:00,12.920984,77.584908,NO2,7,8,7
India,Karnataka,Bengaluru,"Jayanagar 5th Block, Bengaluru - KSPCB",31-07-2024 02:00:00,12.920984,77.584908,OZONE,26,28,27
India,Karnataka,Bengaluru,"Jigani, Bengaluru - KSPCB",31-07-2024 02:00:00,12.7816279,77.6299145,PM2.5,32,208,60
India,Karnataka,Bengaluru,"Jigani, Bengaluru - KSPCB",31-07-2024 02:00:00,12.7816279,77.6299145,NH3,3,5,4
India,Karnataka,Bengaluru,"Kasturi Nagar, Bengaluru - KSPCB",31-07-2024 02:00:00,13.003872,77.664217,SO2,20,21,20
India,Karnataka,Bengaluru,"Kasturi Nagar, Bengaluru - KSPCB",31-07-2024 02:00:00,13.003872,77.664217,CO,24,26,25
India,Karnataka,Bengaluru,"Peenya, Bengaluru - CPCB",31-07-2024 02:00:00,13.0270199,77.494094,PM10,NA,NA,NA
India,Karnataka,Bengaluru,"Peenya, Bengaluru - CPCB",31-07-2024 02:00:00,13.0270199,77.494094,SO2,NA,NA,NA
India,Karnataka,Bengaluru,"Peenya, Bengaluru - CPCB",31-07-2024 02:00:00,13.0270199,77.494094,CO,77,85,80
India,Karnataka,Bengaluru,"Sanegurava Halli, Bengaluru - KSPCB",31-07-2024 02:00:00,12.990328,77.5431385,NO2,20,25,22
India,Karnataka,Bengaluru,"Sanegurava Halli, Bengaluru - KSPCB",31-07-2024 02:00:00,12.990328,77.5431385,SO2,2,3,3
India,Karnataka,Bengaluru,"Shivapura_Peenya, Bengaluru - KSPCB",31-07-2024 02:00:00,13.0246342,77.5080115,PM10,22,45,34
India,Karnataka,Bengaluru,"Shivapura_Peenya, Bengaluru - KSPCB",31-07-2024 02:00:00,13.0246342,77.5080115,OZONE,32,32,32
India,Karnataka,Bengaluru,"Silk Board, Bengaluru - KSPCB",31-07-2024 02:00:00,12.917348,77.622813,PM10,12,108,55
India,Karnataka,Bengaluru,"Silk Board, Bengaluru - KSPCB",31-07-2024 02:00:00,12.917348,77.622813,NO2,8,38,21
India,Karnataka,Bengaluru,"Silk Board, Bengaluru - KSPCB",31-07-2024 02:00:00,12.917348,77.622813,OZONE,14,46,15
India,Karnataka,Bidar,"Naubad, Bidar - KSPCB",31-07-2024 02:00:00,17.930306,77.482194,PM2.5,13,24,19
India,Karnataka,Chamarajanagar,"Urban, Chamarajanagar - KSPCB",31-07-2024 02:00:00,11.55358,76.55521,NO2,22,35,28
India,Karnataka,Chikkaballapur,"Chikkaballapur Rural, Chikkaballapur - KSPCB",31-07-2024 02:00:00,13.428828,77.731418,OZONE,23,25,25
India,Karnataka,Chikkamagaluru,"Kalyana Nagara, Chikkamagaluru - KSPCB",31-07-2024 02:00:00,13.328028,75.797056,SO2,1,6,4
India,Karnataka,Chikkamagaluru,"Kalyana Nagara, Chikkamagaluru - KSPCB",31-07-2024 02:00:00,13.328028,75.797056,CO,1,166,19
India,Karnataka,Davanagere,"Devaraj Urs Badavane, Davanagere - KSPCB",31-07-2024 02:00:00,14.475800,75.905200,PM2.5,14,53,34
India,Karnataka,Dharwad,"Kalabhavan, Dharwad - KSPCB",31-07-2024 02:00:00,15.459706,75.008381,NO2,7,17,11
India,Karnataka,Dharwad,"Kalabhavan, Dharwad - KSPCB",31-07-2024 02:00:00,15.459706,75.008381,OZONE,9,17,12
India,Karnataka,Gadag,"Panchal Nagar, Gadag - KSPCB",31-07-2024 02:00:00,15.411456,75.638133,NO2,5,29,14
India,Karnataka,Gadag,"Panchal Nagar, Gadag - KSPCB",31-07-2024 02:00:00,15.411456,75.638133,SO2,15,23,18
India,Karnataka,Hassan,"B.Katihalli, Hassan - KSPCB",31-07-2024 02:00:00,13.008556,76.125258,CO,10,29,16
India,Karnataka,Hassan,"B.Katihalli, Hassan - KSPCB",31-07-2024 02:00:00,13.008556,76.125258,OZONE,4,18,14
India,Karnataka,Haveri,"Ashwini Nagar, Haveri - KSPCB",31-07-2024 02:00:00,14.791800,75.389600,PM10,2,34,21
India,Karnataka,Haveri,"Ashwini Nagar, Haveri - KSPCB",31-07-2024 02:00:00,14.791800,75.389600,NH3,10,17,16
India,Karnataka,Hubballi,"Lingaraj Nagar, Hubballi - KSPCB",31-07-2024 02:00:00,15.3714823,75.1160168,PM2.5,18,38,26
India,Karnataka,Hubballi,"Lingaraj Nagar, Hubballi - KSPCB",31-07-2024 02:00:00,15.3714823,75.1160168,PM10,29,49,38
India,Karnataka,Hubballi,"Lingaraj Nagar, Hubballi - KSPCB",31-07-2024 02:00:00,15.3714823,75.1160168,NO2,6,15,11
India,Karnataka,Hubballi,"Lingaraj Nagar, Hubballi - KSPCB",31-07-2024 02:00:00,15.3714823,75.1160168,SO2,1,16,2
India,Karnataka,Kalaburagi,"Lal Bahadur Shastri Nagar, Kalaburagi - KSPCB",31-07-2024 02:00:00,17.321993,76.822628,PM2.5,1,49,14
India,Karnataka,Kalaburagi,"Lal Bahadur Shastri Nagar, Kalaburagi - KSPCB",31-07-2024 02:00:00,17.321993,76.822628,PM10,1,54,19
India,Karnataka,Kalaburagi,"Lal Bahadur Shastri Nagar, Kalaburagi - KSPCB",31-07-2024 02:00:00,17.321993,76.822628,OZONE,5,14,11
India,Karnataka,Kalaburagi,"Mahatma Basaveswar Colony, Kalaburgi - KSPCB",31-07-2024 02:00:00,17.336318,76.847397,PM2.5,18,43,29
India,Karnataka,Kalaburagi,"Mahatma Basaveswar Colony, Kalaburgi - KSPCB",31-07-2024 02:00:00,17.336318,76.847397,NO2,8,16,11
India,Karnataka,Kalaburagi,"Mahatma Basaveswar Colony, Kalaburgi - KSPCB",31-07-2024 02:00:00,17.336318,76.847397,NH3,2,4,3
India,Karnataka,Kalaburagi,"Mahatma Basaveswar Colony, Kalaburgi - KSPCB",31-07-2024 02:00:00,17.336318,76.847397,CO,24,39,31
India,Karnataka,Karwar,"KHB Colony, Karwar - KSPCB",31-07-2024 02:00:00,14.816666,74.141003,OZONE,NA,NA,NA
India,Karnataka,Kolar,"Tamaka Ind. Area, Kolar - KSPCB",31-07-2024 02:00:00,13.1276288,78.1570122,SO2,70,76,71
India,Karnataka,Madikeri,"Stuart Hill, Madikeri - KSPCB",31-07-2024 02:00:00,12.415911,75.735050,PM2.5,3,18,9
India,Karnataka,Madikeri,"Stuart Hill, Madikeri - KSPCB",31-07-2024 02:00:00,12.415911,75.735050,NO2,1,3,1
India,Karnataka,Mysuru,"Hebbal 1st Stage, Mysuru - KSPCB",31-07-2024 02:00:00,12.21041,76.37376,PM10,19,36,27
India,Karnataka,Mysuru,"Hebbal 1st Stage, Mysuru - KSPCB",31-07-2024 02:00:00,12.21041,76.37376,NO2,13,41,27
India,Karnataka,Raichur,"Haji Colony, Raichur - KSPCB",31-07-2024 02:00:00,16.208139,77.348417,PM10,19,71,47
India,Karnataka,Ramanagara,"Vijay Nagar, Ramanagara - KSPCB",31-07-2024 02:00:00,12.733409,77.298051,NO2,3,9,5
India,Karnataka,Ramanagara,"Vijay Nagar, Ramanagara - KSPCB",31-07-2024 02:00:00,12.733409,77.298051,NH3,2,3,3
India,Karnataka,Shivamogga,"Vinoba Nagara, Shivamogga - KSPCB",31-07-2024 02:00:00,13.940000,75.555917,PM10,31,48,39
India,Karnataka,Udupi,"Brahmagiri, Udupi - KSPCB",31-07-2024 02:00:00,13.34194444,74.74694444,PM10,2,36,19
India,Karnataka,Vijayapura,"Ibrahimpur, Vijayapura - KSPCB",31-07-2024 02:00:00,16.802639,75.722694,OZONE,13,16,15
India,Kerala,Eloor,"Udyogamandal, Eloor - Kerala PCB",31-07-2024 02:00:00,10.073232,76.302765,OZONE,10,11,10
India,Kerala,Thiruvananthapuram,"Plammoodu, Thiruvananthapuram - Kerala PCB",31-07-2024 02:00:00,8.5149093,76.9435879,NH3,5,13,9
India,Kerala,Thrissur,"Corporation Ground, Thrissur - Kerala PCB",31-07-2024 02:00:00,10.532400,76.215900,PM10,54,59,56
India,Kerala,Thrissur,"Corporation Ground, Thrissur - Kerala PCB",31-07-2024 02:00:00,10.532400,76.215900,NO2,7,8,8
India,Madhya Pradesh,Bhopal,"Idgah Hills, Bhopal - MPPCB",31-07-2024 02:00:00,23.264759,77.381568,PM10,20,117,56
India,Madhya Pradesh,Bhopal,"Idgah Hills, Bhopal - MPPCB",31-07-2024 02:00:00,23.264759,77.381568,NH3,2,4,3
India,Madhya Pradesh,Bhopal,"Idgah Hills, Bhopal - MPPCB",31-07-2024 02:00:00,23.264759,77.381568,CO,3,52,35
India,Madhya Pradesh,Bhopal,"Idgah Hills, Bhopal - MPPCB",31-07-2024 02:00:00,23.264759,77.381568,OZONE,8,18,12
India,Madhya Pradesh,Bhopal,"Paryavaran Parisar, Bhopal - MPPCB",31-07-2024 02:00:00,23.210494,77.425409,NH3,2,2,2
India,Madhya Pradesh,Damoh,"Shrivastav Colony, Damoh - MPPCB",31-07-2024 02:00:00,23.81748678,79.446246,PM2.5,3,22,11
India,Madhya Pradesh,Dewas,"Bhopal Chauraha, Dewas - MPPCB",31-07-2024 02:00:00,22.9682591,76.064118,OZONE,9,51,26
India,Madhya Pradesh,Gwalior,"City Center, Gwalior - MPPCB",31-07-2024 02:00:00,26.203442,78.193251,NO2,15,43,22
India,Madhya Pradesh,Gwalior,"Deen Dayal Nagar, Gwalior - MPPCB",31-07-2024 02:00:00,26.259242,78.216432,NH3,2,9,5
India,Madhya Pradesh,Gwalior,"Maharaj Bada, Gwalior - MPPCB",31-07-2024 02:00:00,26.200388,78.147714,OZONE,26,57,31
India,Madhya Pradesh,Gwalior,"Phool Bagh, Gwalior - Mondelez Ind. Food",31-07-2024 02:00:00,26.210536,78.171,PM2.5,19,119,43
India,Madhya Pradesh,Gwalior,"Phool Bagh, Gwalior - Mondelez Ind. Food",31-07-2024 02:00:00,26.210536,78.171,SO2,18,23,20
India,Madhya Pradesh,Indore,"Chhoti Gwaltoli, Indore - MPPCB",31-07-2024 02:00:00,22.4310,75.5213,OZONE,17,42,24
India,Madhya Pradesh,Indore,"Maguda Nagar, Indore - IMC",31-07-2024 02:00:00,22.7524,75.8872,PM2.5,6,30,23
India,Madhya Pradesh,Indore,"Maguda Nagar, Indore - IMC",31-07-2024 02:00:00,22.7524,75.8872,SO2,31,37,36
India,Madhya Pradesh,Indore,"Maguda Nagar, Indore - IMC",31-07-2024 02:00:00,22.7524,75.8872,OZONE,1,3,2
India,Madhya Pradesh,Indore,"Regional Park, Indore - IMC",31-07-2024 02:00:00,22.6780,75.8559,SO2,40,41,41
India,Madhya Pradesh,Indore,"Residency Area, Indore - IMC",31-07-2024 02:00:00,22.7084,75.8815,SO2,24,25,25
India,Madhya Pradesh,Jabalpur,"Gupteshwar, Jabalpur - JMC",31-07-2024 02:00:00,23.142888,79.916147,PM2.5,15,57,33
India,Madhya Pradesh,Jabalpur,"Gupteshwar, Jabalpur - JMC",31-07-2024 02:00:00,23.142888,79.916147,NO2,5,21,11
India,Madhya Pradesh,Jabalpur,"Gupteshwar, Jabalpur - JMC",31-07-2024 02:00:00,23.142888,79.916147,SO2,8,11,10
India,Madhya Pradesh,Jabalpur,"Marhatal, Jabalpur - MPPCB",31-07-2024 02:00:00,23.168606,79.932247,PM10,8,36,23
India,Madhya Pradesh,Jabalpur,"Suhagi, Jabalpur - JMC",31-07-2024 02:00:00,23.218135,79.957770,PM10,13,61,42
India,Madhya Pradesh,Jabalpur,"Suhagi, Jabalpur - JMC",31-07-2024 02:00:00,23.218135,79.957770,NO2,9,32,17
India,Madhya Pradesh,Jabalpur,"Suhagi, Jabalpur - JMC",31-07-2024 02:00:00,23.218135,79.957770,CO,28,60,41
India,Madhya Pradesh,Katni,"Gole Bazar, Katni - MPPCB",31-07-2024 02:00:00,23.50016,80.23284,SO2,11,27,16
India,Madhya Pradesh,Mandideep,"Sector-D Industrial Area, Mandideep - MPPCB",31-07-2024 02:00:00,23.108440,77.511428,PM2.5,12,42,28
India,Madhya Pradesh,Pithampur,"Sector-2 Industrial Area, Pithampur - MPPCB",31-07-2024 02:00:00,22.624758,75.675238,OZONE,29,81,54
India,Madhya Pradesh,Ratlam,"Shasthri Nagar, Ratlam - IPCA Lab",31-07-2024 02:00:00,23.331731,75.045981,NO2,8,8,8
India,Madhya Pradesh,Ratlam,"Shasthri Nagar, Ratlam - IPCA Lab",31-07-2024 02:00:00,23.331731,75.045981,SO2,32,33,33
India,Madhya Pradesh,Satna,"Bandhavgar Colony, Satna - Birla Cement",31-07-2024 02:00:00,24.58434363,80.8549414,SO2,1,3,3
India,Madhya Pradesh,Ujjain,"Mahakaleshwar Temple, Ujjain - MPPCB",31-07-2024 02:00:00,23.182719 ,75.768218 ,PM2.5,28,60,45
India,Madhya Pradesh,Ujjain,"Mahakaleshwar Temple, Ujjain - MPPCB",31-07-2024 02:00:00,23.182719 ,75.768218 ,NO2,5,13,8
India,Maharashtra,Ahmednagar,"Tarakpur, Ahmednagar - MPCB",31-07-2024 02:00:00,19.10122,74.73339,NO2,13,32,22
India,Maharashtra,Ahmednagar,"Tarakpur, Ahmednagar - MPCB",31-07-2024 02:00:00,19.10122,74.73339,NH3,5,7,6
India,Maharashtra,Ahmednagar,"Tarakpur, Ahmednagar - MPCB",31-07-2024 02:00:00,19.10122,74.73339,SO2,1,14,8
India,Maharashtra,Amravati,"Shivneri Colony, Amravati - MPCB",31-07-2024 02:00:00,20.9402359,77.7895248,PM10,22,77,47
India,Maharashtra,Amravati,"Shivneri Colony, Amravati - MPCB",31-07-2024 02:00:00,20.9402359,77.7895248,OZONE,2,20,10
India,Maharashtra,Amravati,"Shri Shivaji Science College, Amaravati - MPCB",31-07-2024 02:00:00,20.939198,77.765701,NO2,2,27,9
India,Maharashtra,Amravati,"Shri Shivaji Science College, Amaravati - MPCB",31-07-2024 02:00:00,20.939198,77.765701,SO2,3,5,4
India,Maharashtra,Amravati,"Shri Shivaji Science College, Amaravati - MPCB",31-07-2024 02:00:00,20.939198,77.765701,OZONE,3,23,11
India,Maharashtra,Aurangabad,"MIDC Chilkalthana, Aurangabad - MPCB",31-07-2024 02:00:00,19.875620,75.387310,PM2.5,14,20,17
India,Maharashtra,Aurangabad,"More Chowk Waluj, Aurangabad - MPCB",31-07-2024 02:00:00,19.8389439,75.244448,NO2,18,24,21
India,Maharashtra,Aurangabad,"More Chowk Waluj, Aurangabad - MPCB",31-07-2024 02:00:00,19.8389439,75.244448,NH3,2,3,2
India,Maharashtra,Badlapur,"Katrap, Badlapur - MPCB",31-07-2024 02:00:00,19.16485,73.23409,PM10,33,62,45
India,Maharashtra,Belapur,"CBD Belapur, Belapur - MPCB",31-07-2024 02:00:00,19.0243902,73.0406721,SO2,4,5,5
India,Maharashtra,Bhiwandi,"Gokul Nagar, Bhiwandi - MPCB",31-07-2024 02:00:00,19.309073,73.057223,NO2,7,27,15
India,Maharashtra,Boisar,"Khaira, Boisar - MPCB",31-07-2024 02:00:00,19.786089,72.757971,PM10,35,67,56
India,Maharashtra,Boisar,"Khaira, Boisar - MPCB",31-07-2024 02:00:00,19.786089,72.757971,SO2,3,9,7
India,Maharashtra,Chandrapur,"Chauhan Colony, Chandrapur - MPCB",31-07-2024 02:00:00,19.962900,79.298714,NO2,9,26,14
India,Maharashtra,Chandrapur,"Chauhan Colony, Chandrapur - MPCB",31-07-2024 02:00:00,19.962900,79.298714,NH3,1,4,3
India,Maharashtra,Chandrapur,"MIDC Khutala, Chandrapur - MPCB",31-07-2024 02:00:00,19.9775302,79.2337086,NO2,16,50,22
India,Maharashtra,Dhule,"Deopur, Dhule - MPCB",31-07-2024 02:00:00,20.918946,74.776388,PM2.5,15,51,27
India,Maharashtra,Jalna,"Old MIDC, Jalna - MPCB",31-07-2024 02:00:00,19.854616,75.905894,NO2,23,27,25
India,Maharashtra,Kalyan,"Khadakpada, Kalyan - MPCB",31-07-2024 02:00:00,19.25292,73.142019,PM10,23,56,37
India,Maharashtra,Kalyan,"Khadakpada, Kalyan - MPCB",31-07-2024 02:00:00,19.25292,73.142019,NO2,10,18,15
India,Maharashtra,Kalyan,"Khadakpada, Kalyan - MPCB",31-07-2024 02:00:00,19.25292,73.142019,CO,13,24,22
India,Maharashtra,Latur,"Sawe Wadi, Latur - MPCB",31-07-2024 02:00:00,18.39963,76.57452,PM10,31,52,41
India,Maharashtra,Latur,"Sawe Wadi, Latur - MPCB",31-07-2024 02:00:00,18.39963,76.57452,NH3,NA,NA,NA
India,Maharashtra,Mira-Bhayandar,"Bhayandar West, Mira-Bhayandar - MPCB",31-07-2024 02:00:00,19.296481,72.840923,PM2.5,17,50,34
India,Maharashtra,Mira-Bhayandar,"Bhayandar West, Mira-Bhayandar - MPCB",31-07-2024 02:00:00,19.296481,72.840923,NO2,2,7,3
India,Maharashtra,Mumbai,"Borivali East, Mumbai - IITM",31-07-2024 02:00:00,19.23241,72.86895,NO2,69,84,76
India,Maharashtra,Mumbai,"Chembur, Mumbai - MPCB",31-07-2024 02:00:00,19.0364585,72.8954371,PM10,47,62,53
India,Maharashtra,Mumbai,"Chembur, Mumbai - MPCB",31-07-2024 02:00:00,19.0364585,72.8954371,OZONE,12,32,16
India,Maharashtra,Mumbai,"Chhatrapati Shivaji Intl. Airport (T2), Mumbai - MPCB",31-07-2024 02:00:00,19.10078,72.87462,PM2.5,22,45,35
India,Maharashtra,Mumbai,"Chhatrapati Shivaji Intl. Airport (T2), Mumbai - MPCB",31-07-2024 02:00:00,19.10078,72.87462,NO2,11,17,14
India,Maharashtra,Mumbai,"Chhatrapati Shivaji Intl. Airport (T2), Mumbai - MPCB",31-07-2024 02:00:00,19.10078,72.87462,SO2,13,18,15
India,Maharashtra,Mumbai,"Colaba, Mumbai - MPCB",31-07-2024 02:00:00,18.910000,72.820000,PM10,6,27,21
India,Maharashtra,Mumbai,"Deonar, Mumbai - IITM",31-07-2024 02:00:00,19.04946,72.9230,PM2.5,NA,NA,NA
India,Maharashtra,Mumbai,"Deonar, Mumbai - IITM",31-07-2024 02:00:00,19.04946,72.9230,NO2,NA,NA,NA
India,Maharashtra,Mumbai,"Deonar, Mumbai - IITM",31-07-2024 02:00:00,19.04946,72.9230,NH3,NA,NA,NA
India,Maharashtra,Mumbai,"Deonar, Mumbai - IITM",31-07-2024 02:00:00,19.04946,72.9230,SO2,NA,NA,NA
India,Maharashtra,Mumbai,"Deonar, Mumbai - IITM",31-07-2024 02:00:00,19.04946,72.9230,OZONE,9,19,12
India,Maharashtra,Mumbai,"Ghatkopar, Mumbai - BMC",31-07-2024 02:00:00,19.083694,72.920967,NH3,1,3,2
India,Maharashtra,Mumbai,"Kandivali East, Mumbai - MPCB",31-07-2024 02:00:00,19.205800,72.868200,NO2,8,63,17
India,Maharashtra,Mumbai,"Kandivali West, Mumbai - BMC",31-07-2024 02:00:00,19.215859,72.831718,NH3,2,3,3
India,Maharashtra,Mumbai,"Kherwadi_Bandra East, Mumbai - MPCB",31-07-2024 02:00:00,19.0632143,72.8456324,PM10,37,55,45
India,Maharashtra,Mumbai,"Kherwadi_Bandra East, Mumbai - MPCB",31-07-2024 02:00:00,19.0632143,72.8456324,OZONE,12,32,22
India,Maharashtra,Mumbai,"Khindipada-Bhandup West, Mumbai - IITM",31-07-2024 02:00:00,19.1653323,72.922099,PM2.5,15,25,21
India,Maharashtra,Mumbai,"Khindipada-Bhandup West, Mumbai - IITM",31-07-2024 02:00:00,19.1653323,72.922099,NO2,NA,NA,NA
India,Maharashtra,Mumbai,"Khindipada-Bhandup West, Mumbai - IITM",31-07-2024 02:00:00,19.1653323,72.922099,SO2,1,4,1
India,Maharashtra,Mumbai,"Khindipada-Bhandup West, Mumbai - IITM",31-07-2024 02:00:00,19.1653323,72.922099,OZONE,6,11,7
India,Maharashtra,Mumbai,"Kurla, Mumbai - MPCB",31-07-2024 02:00:00,19.0863,72.8888,PM10,41,114,82
India,Maharashtra,Mumbai,"Kurla, Mumbai - MPCB",31-07-2024 02:00:00,19.0863,72.8888,NH3,2,2,2
India,Maharashtra,Mumbai,"Kurla, Mumbai - MPCB",31-07-2024 02:00:00,19.0863,72.8888,OZONE,28,29,29
India,Maharashtra,Mumbai,"Malad West, Mumbai - IITM",31-07-2024 02:00:00,19.19709,72.82204,PM2.5,10,41,23
India,Maharashtra,Mumbai,"Malad West, Mumbai - IITM",31-07-2024 02:00:00,19.19709,72.82204,CO,2,2,2
India,Maharashtra,Mumbai,"Mindspace-Malad West, Mumbai - MPCB",31-07-2024 02:00:00,19.1878657,72.8304069,CO,20,25,23
India,Maharashtra,Mumbai,"Mulund West, Mumbai - MPCB",31-07-2024 02:00:00,19.1750,72.9419,NO2,18,19,19
India,Maharashtra,Mumbai,"Sewri, Mumbai - BMC",31-07-2024 02:00:00,19.000084,72.856730,NO2,NA,NA,NA
India,Maharashtra,Mumbai,"Sewri, Mumbai - BMC",31-07-2024 02:00:00,19.000084,72.856730,NH3,NA,NA,NA
India,Maharashtra,Mumbai,"Sewri, Mumbai - BMC",31-07-2024 02:00:00,19.000084,72.856730,CO,16,36,27
India,Maharashtra,Mumbai,"Shivaji Nagar, Mumbai - BMC",31-07-2024 02:00:00,19.060498,72.923356,OZONE,1,6,1
India,Maharashtra,Mumbai,"Sion, Mumbai - MPCB",31-07-2024 02:00:00,19.047000,72.874600,PM10,43,80,61
India,Maharashtra,Mumbai,"Sion, Mumbai - MPCB",31-07-2024 02:00:00,19.047000,72.874600,SO2,27,28,27
India,Maharashtra,Mumbai,"Vasai West, Mumbai - MPCB",31-07-2024 02:00:00,19.383200,72.820400,SO2,21,49,24
India,Maharashtra,Mumbai,"Vasai West, Mumbai - MPCB",31-07-2024 02:00:00,19.383200,72.820400,OZONE,7,7,7
India,Maharashtra,Mumbai,"Vile Parle West, Mumbai - MPCB",31-07-2024 02:00:00,19.10861,72.83622,OZONE,11,18,16
India,Maharashtra,Mumbai,"Worli, Mumbai - MPCB",31-07-2024 02:00:00,18.9936162,72.8128113,PM2.5,6,12,9
India,Maharashtra,Mumbai,"Worli, Mumbai - MPCB",31-07-2024 02:00:00,18.9936162,72.8128113,NO2,28,29,28
India,Maharashtra,Mumbai,"Worli, Mumbai - MPCB",31-07-2024 02:00:00,18.9936162,72.8128113,NH3,1,1,1
India,Maharashtra,Mumbai,"Worli, Mumbai - MPCB",31-07-2024 02:00:00,18.9936162,72.8128113,OZONE,3,11,9
India,Maharashtra,Nagpur,"Opp GPO Civil Lines, Nagpur - MPCB",31-07-2024 02:00:00,21.152875,79.0517531,PM10,17,55,34
India,Maharashtra,Nanded,"Sneh Nagar, Nanded - MPCB",31-07-2024 02:00:00,19.173852,77.296291,PM2.5,13,47,26
India,Maharashtra,Nanded,"Sneh Nagar, Nanded - MPCB",31-07-2024 02:00:00,19.173852,77.296291,NO2,6,12,8
India,Maharashtra,Nanded,"Sneh Nagar, Nanded - MPCB",31-07-2024 02:00:00,19.173852,77.296291,NH3,4,5,4
India,Maharashtra,Nashik,"Gangapur Road, Nashik - MPCB",31-07-2024 02:00:00,20.0073285,73.7762427,NH3,2,2,2
India,Maharashtra,Nashik,"Gangapur Road, Nashik - MPCB",31-07-2024 02:00:00,20.0073285,73.7762427,OZONE,17,46,28
India,Maharashtra,Nashik,"Hirawadi, Nashik - MPCB",31-07-2024 02:00:00,20.021503,73.813844,SO2,1,6,4
India,Maharashtra,Nashik,"Pandav Nagari, Nashik - MPCB",31-07-2024 02:00:00,19.9591346,73.7788008,CO,14,26,17
India,Maharashtra,Navi Mumbai,"Kopripada-Vashi, Navi Mumbai - MPCB",31-07-2024 02:00:00,19.090337,73.014232,SO2,5,7,6
India,Maharashtra,Navi Mumbai,"Nerul, Navi Mumbai - MPCB",31-07-2024 02:00:00,19.008751,73.016620,OZONE,18,22,21
India,Maharashtra,Navi Mumbai,"Sector-19A Nerul, Navi Mumbai - IITM",31-07-2024 02:00:00,19.044,73.0325,PM10,12,40,23
India,Maharashtra,Navi Mumbai,"Sector-19A Nerul, Navi Mumbai - IITM",31-07-2024 02:00:00,19.044,73.0325,OZONE,1,9,3
India,Maharashtra,Navi Mumbai,"Sector-2E Kalamboli, Navi Mumbai - MPCB",31-07-2024 02:00:00,19.02579,73.10297,SO2,1,3,1
India,Maharashtra,Navi Mumbai,"Tondare-Taloja, Navi Mumbai - MPCB",31-07-2024 02:00:00,19.0630,73.1209,PM10,39,68,51
India,Maharashtra,Navi Mumbai,"Tondare-Taloja, Navi Mumbai - MPCB",31-07-2024 02:00:00,19.0630,73.1209,NO2,8,38,13
India,Maharashtra,Navi Mumbai,"Tondare-Taloja, Navi Mumbai - MPCB",31-07-2024 02:00:00,19.0630,73.1209,OZONE,1,193,2
India,Maharashtra,Pimpri-Chinchwad,"Park Street Wakad, Pimpri Chinchwad - MPCB",31-07-2024 02:00:00,18.59051,73.77946,PM2.5,NA,NA,NA
India,Maharashtra,Pimpri-Chinchwad,"Park Street Wakad, Pimpri Chinchwad - MPCB",31-07-2024 02:00:00,18.59051,73.77946,PM10,NA,NA,NA
India,Maharashtra,Pimpri-Chinchwad,"Park Street Wakad, Pimpri Chinchwad - MPCB",31-07-2024 02:00:00,18.59051,73.77946,NH3,NA,NA,NA
India,Maharashtra,Pimpri-Chinchwad,"Thergaon, Pimpri Chinchwad - MPCB",31-07-2024 02:00:00,18.616318,73.765797,PM10,10,33,19
India,Maharashtra,Pimpri-Chinchwad,"Thergaon, Pimpri Chinchwad - MPCB",31-07-2024 02:00:00,18.616318,73.765797,NO2,19,44,33
India,Maharashtra,Pune,"Bhumkar Nagar, Pune - IITM",31-07-2024 02:00:00,18.605770,73.749976,PM2.5,8,31,18
India,Maharashtra,Pune,"Bhumkar Nagar, Pune - IITM",31-07-2024 02:00:00,18.605770,73.749976,NO2,32,50,41
India,Maharashtra,Pune,"Bhumkar Nagar, Pune - IITM",31-07-2024 02:00:00,18.605770,73.749976,OZONE,1,13,6
India,Maharashtra,Pune,"Hadapsar, Pune - IITM",31-07-2024 02:00:00,18.501793,73.927532,PM2.5,8,44,18
India,Maharashtra,Pune,"Karve Road, Pune - MPCB",31-07-2024 02:00:00,18.5011743,73.8165527,SO2,5,5,5
India,Maharashtra,Pune,"Katraj Dairy, Pune - MPCB",31-07-2024 02:00:00,18.454450,73.854155,NO2,17,20,19
India,Maharashtra,Pune,"Mhada Colony, Pune - IITM",31-07-2024 02:00:00,18.573040,73.927715,PM2.5,16,32,24
India,Maharashtra,Pune,"Mhada Colony, Pune - IITM",31-07-2024 02:00:00,18.573040,73.927715,PM10,23,36,28
India,Maharashtra,Pune,"Panchawati_Pashan, Pune - IITM",31-07-2024 02:00:00,18.536457,73.805454,PM10,NA,NA,NA
India,Maharashtra,Pune,"Panchawati_Pashan, Pune - IITM",31-07-2024 02:00:00,18.536457,73.805454,NO2,NA,NA,NA
India,Maharashtra,Pune,"Panchawati_Pashan, Pune - IITM",31-07-2024 02:00:00,18.536457,73.805454,OZONE,NA,NA,NA
India,Maharashtra,Pune,"Transport Nagar-Nigdi, Pune - IITM",31-07-2024 02:00:00,18.664282,73.763966,NO2,18,26,21
India,Maharashtra,Sangli,"Vijay Nagar, Sangli - MPCB",31-07-2024 02:00:00, 16.5038,74.3623,NO2,4,12,7
India,Maharashtra,Solapur,"Dnyaneshwar Nagar, Solapur - MPCB",31-07-2024 02:00:00,17.6336264,75.9132495,PM10,36,94,56
India,Maharashtra,Solapur,"Ratandeep Housing Society, Solapur - MPCB",31-07-2024 02:00:00,17.65439,75.90649,NO2,2,6,4
India,Maharashtra,Solapur,"Solapur, Solapur - MPCB",31-07-2024 02:00:00,17.6599188,75.9063906,PM10,82,108,101
India,Maharashtra,Thane,"Kasarvadavali, Thane - MPCB",31-07-2024 02:00:00,19.26777,72.97182,PM2.5,24,45,33
India,Maharashtra,Thane,"Kasarvadavali, Thane - MPCB",31-07-2024 02:00:00,19.26777,72.97182,SO2,8,10,9
India,Maharashtra,Thane,"Kasarvadavali, Thane - MPCB",31-07-2024 02:00:00,19.26777,72.97182,CO,14,26,22
India,Maharashtra,Thane,"Kasarvadavali, Thane - MPCB",31-07-2024 02:00:00,19.26777,72.97182,OZONE,8,54,18
India,Maharashtra,Thane,"Pimpleshwar Mandir, Thane - MPCB",31-07-2024 02:00:00,19.192056,72.9585188,NO2,13,13,13
India,Maharashtra,Thane,"Pimpleshwar Mandir, Thane - MPCB",31-07-2024 02:00:00,19.192056,72.9585188,NH3,3,4,4
India,Maharashtra,Thane,"Upvan Fort, Thane - MPCB",31-07-2024 02:00:00,19.222279,72.957979,OZONE,3,10,5
India,Maharashtra,Virar,"Bolinj, Virar - MPCB",31-07-2024 02:00:00,19.4458210,72.7988231,PM2.5,26,84,50
India,Maharashtra,Virar,"Bolinj, Virar - MPCB",31-07-2024 02:00:00,19.4458210,72.7988231,PM10,59,105,75
India,Maharashtra,Virar,"Bolinj, Virar - MPCB",31-07-2024 02:00:00,19.4458210,72.7988231,SO2,1,4,2
India,Manipur,Imphal,"DM College of Science, Imphal - Manipur PCB",31-07-2024 02:00:00,24.8207389,93.9423085,PM2.5,1,9,4
India,Nagaland,Kohima,"PWD Juction, Kohima - NPCB",31-07-2024 02:00:00,25.6635413,94.0989878,PM10,5,67,25
India,Nagaland,Kohima,"PWD Juction, Kohima - NPCB",31-07-2024 02:00:00,25.6635413,94.0989878,NO2,3,4,3
India,Odisha,Balasore,"Kalidaspur, Balasore - OSPCB",31-07-2024 02:00:00,21.51161,86.89088,NH3,1,1,1
India,Odisha,Barbil,"Forest Office, Barbil - OSPCB",31-07-2024 02:00:00,22.1166054,85.3945546,SO2,3,12,7
India,Odisha,Barbil,"Forest Office, Barbil - OSPCB",31-07-2024 02:00:00,22.1166054,85.3945546,CO,8,65,19
India,Odisha,Barbil,"Forest Office, Barbil - OSPCB",31-07-2024 02:00:00,22.1166054,85.3945546,OZONE,2,41,22
India,Odisha,Baripada,"Meher Colony, Baripada - OSPCB",31-07-2024 02:00:00,21.941841,86.728318,CO,28,52,41
India,Odisha,Baripada,"Meher Colony, Baripada - OSPCB",31-07-2024 02:00:00,21.941841,86.728318,OZONE,44,86,53
India,Odisha,Bhubaneswar,"Lingraj Mandir, Bhubaneswar - OSPCB",31-07-2024 02:00:00,20.240790,85.836784,NO2,3,11,7
India,Odisha,Bhubaneswar,"Patia, Bhubaneswar - OSPCB",31-07-2024 02:00:00,20.34652,85.81630,PM10,13,118,36
India,Odisha,Bhubaneswar,"Patia, Bhubaneswar - OSPCB",31-07-2024 02:00:00,20.34652,85.81630,NO2,6,25,12
India,Odisha,Bhubaneswar,"Patia, Bhubaneswar - OSPCB",31-07-2024 02:00:00,20.34652,85.81630,OZONE,14,41,30
India,Odisha,Brajrajnagar,"GM Office, Brajrajnagar - OSPCB",31-07-2024 02:00:00,21.8004996,83.8396977,PM10,16,82,42
India,Odisha,Byasanagar,"Ferro Chrome Colony, Byasanagar - OSPCB",31-07-2024 02:00:00,20.94185,86.11510,SO2,2,32,7
India,Odisha,Cuttack,"CDA Area, Cuttack - OSPCB",31-07-2024 02:00:00,20.48891     ,85.84768     ,CO,14,50,30
India,Odisha,Keonjhar,"Jagamohanpur, Keonjhar - OSPCB",31-07-2024 02:00:00,21.643900,85.599355,PM2.5,12,24,16
India,Odisha,Rairangpur,"Divisional Forest Office, Rairangpur - OSPCB",31-07-2024 02:00:00,22.265816,86.174829,NO2,12,13,12
India,Odisha,Rairangpur,"Divisional Forest Office, Rairangpur - OSPCB",31-07-2024 02:00:00,22.265816,86.174829,CO,22,56,32
India,Odisha,Rairangpur,"Divisional Forest Office, Rairangpur - OSPCB",31-07-2024 02:00:00,22.265816,86.174829,OZONE,5,52,42
India,Odisha,Rourkela,"Raghunathpali, Rourkela - OSPCB",31-07-2024 02:00:00,22.220833,84.809444,PM10,52,113,78
India,Odisha,Suakati,"OMC Colony, Suakati - OSPCB",31-07-2024 02:00:00,21.606865,85.510538,OZONE,23,32,30
India,Odisha,Talcher,"Talcher Coalfields,Talcher - OSPCB",31-07-2024 02:00:00,20.9360711,85.1707021,PM2.5,6,73,37
India,Odisha,Talcher,"Talcher Coalfields,Talcher - OSPCB",31-07-2024 02:00:00,20.9360711,85.1707021,PM10,38,144,84
India,Odisha,Tensa,"Barsua Iron Ore Mines, Tensa - OSPCB",31-07-2024 02:00:00,21.869985,85.167016,SO2,9,16,11
India,Puducherry,Puducherry,"Jawahar Nagar, Puducherry - PPCC",31-07-2024 02:00:00,11.9309,79.8027,PM10,11,74,36
India,Puducherry,Puducherry,"Jawahar Nagar, Puducherry - PPCC",31-07-2024 02:00:00,11.9309,79.8027,NO2,4,36,13
India,Puducherry,Puducherry,"Jawahar Nagar, Puducherry - PPCC",31-07-2024 02:00:00,11.9309,79.8027,SO2,9,15,11
India,Punjab,Amritsar,"Golden Temple, Amritsar - PPCB",31-07-2024 02:00:00,31.620000,74.876512,NO2,16,20,18
India,Punjab,Bathinda,"Hardev Nagar, Bathinda - PPCB",31-07-2024 02:00:00,30.233011,74.907758,PM2.5,31,167,66
India,Punjab,Bathinda,"Hardev Nagar, Bathinda - PPCB",31-07-2024 02:00:00,30.233011,74.907758,CO,12,100,34
India,Punjab,Jalandhar,"Civil Line, Jalandhar - PPCB",31-07-2024 02:00:00,31.321907,75.578914,NO2,19,24,21
India,Punjab,Jalandhar,"Civil Line, Jalandhar - PPCB",31-07-2024 02:00:00,31.321907,75.578914,NH3,1,4,2
India,Punjab,Khanna,"Kalal Majra, Khanna - PPCB",31-07-2024 02:00:00,30.736056 ,76.209694,OZONE,28,35,32
India,Punjab,Ludhiana,"Punjab Agricultural University, Ludhiana - PPCB",31-07-2024 02:00:00,30.9028,75.8086,NH3,7,8,8
India,Punjab,Ludhiana,"Punjab Agricultural University, Ludhiana - PPCB",31-07-2024 02:00:00,30.9028,75.8086,SO2,4,11,7
India,Punjab,Mandi Gobindgarh,"RIMT University, Mandi Gobindgarh - PPCB",31-07-2024 02:00:00,30.649961,76.331442,PM2.5,NA,NA,NA
India,Punjab,Mandi Gobindgarh,"RIMT University, Mandi Gobindgarh - PPCB",31-07-2024 02:00:00,30.649961,76.331442,OZONE,47,53,51
India,Punjab,Patiala,"Model Town, Patiala - PPCB",31-07-2024 02:00:00,30.349388,76.366642,NH3,5,5,5
India,Rajasthan,Alwar,"Moti Doongri, Alwar - RSPCB",31-07-2024 02:00:00,27.554793,76.611536,OZONE,15,29,19
India,Rajasthan,Banswara,"Rati Talai, Banswara - RSPCB",31-07-2024 02:00:00,23.555190,74.440010,PM2.5,6,76,40
India,Rajasthan,Banswara,"Rati Talai, Banswara - RSPCB",31-07-2024 02:00:00,23.555190,74.440010,NO2,5,26,12
India,Rajasthan,Bharatpur,"Krishna Nagar, Bharatpur - RSPCB",31-07-2024 02:00:00,27.215415,77.50873,CO,12,107,41
India,Rajasthan,Bhilwara,"Pratap Nagar, Bhilwara - RSPCB",31-07-2024 02:00:00,25.339605,74.618883,NO2,8,29,16
India,Rajasthan,Bhiwadi,"RIICO Ind. Area III, Bhiwadi - RSPCB",31-07-2024 02:00:00,28.194909,76.862296,CO,13,103,56
India,Rajasthan,Bhiwadi,"RIICO Ind. Area III, Bhiwadi - RSPCB",31-07-2024 02:00:00,28.194909,76.862296,OZONE,10,62,25
India,Rajasthan,Bhiwadi,"Vasundhara Nagar_UIT, Bhiwadi - RSPCB",31-07-2024 02:00:00,28.207266,76.829265,PM2.5,NA,NA,NA
India,Rajasthan,Bikaner,"MM Ground, Bikaner - RSPCB",31-07-2024 02:00:00,28.018792,73.292658,PM2.5,10,69,40
India,Rajasthan,Bundi,"New Colony, Bundi - RSPCB",31-07-2024 02:00:00,25.435774,75.644272,SO2,4,8,4
India,Rajasthan,Chittorgarh,"Shastri Nagar, Chittorgarh - RSPCB",31-07-2024 02:00:00,24.892047,74.623527,NH3,1,18,4
India,Rajasthan,Chittorgarh,"Shastri Nagar, Chittorgarh - RSPCB",31-07-2024 02:00:00,24.892047,74.623527,SO2,6,12,10
India,Rajasthan,Churu,"Subash Chowk, Churu - RSPCB",31-07-2024 02:00:00,28.296139,74.961696,PM2.5,28,70,43
India,Rajasthan,Churu,"Subash Chowk, Churu - RSPCB",31-07-2024 02:00:00,28.296139,74.961696,PM10,40,100,67
India,Rajasthan,Dausa,"Khatikan Mohalla, Dausa - RSPCB",31-07-2024 02:00:00,26.895552,76.334753,PM2.5,47,343,114
India,Rajasthan,Dausa,"Khatikan Mohalla, Dausa - RSPCB",31-07-2024 02:00:00,26.895552,76.334753,NH3,2,20,8
India,Rajasthan,Dausa,"Khatikan Mohalla, Dausa - RSPCB",31-07-2024 02:00:00,26.895552,76.334753,SO2,5,10,9
India,Rajasthan,Dausa,"Khatikan Mohalla, Dausa - RSPCB",31-07-2024 02:00:00,26.895552,76.334753,CO,26,102,57
India,Rajasthan,Dungarpur,"Bhoiwada, Dungarpur - RSPCB",31-07-2024 02:00:00,23.837789,73.714926,SO2,4,10,6
India,Rajasthan,Dungarpur,"Bhoiwada, Dungarpur - RSPCB",31-07-2024 02:00:00,23.837789,73.714926,OZONE,17,30,25
India,Rajasthan,Hanumangarh,"Housing Board, Hanumangarh - RSPCB",31-07-2024 02:00:00,29.610750,74.283608,SO2,4,13,8
India,Rajasthan,Jaipur,"Adarsh Nagar, Jaipur - RSPCB",31-07-2024 02:00:00,26.902909,75.836858,PM2.5,NA,NA,NA
India,Rajasthan,Jaipur,"Adarsh Nagar, Jaipur - RSPCB",31-07-2024 02:00:00,26.902909,75.836858,CO,12,46,28
India,Rajasthan,Jaipur,"Adarsh Nagar, Jaipur - RSPCB",31-07-2024 02:00:00,26.902909,75.836858,OZONE,27,44,34
India,Rajasthan,Jaipur,"Mansarovar Sector-12, Jaipur - RSPCB",31-07-2024 02:00:00,26.843698,75.766894,NO2,8,28,16
India,Rajasthan,Jaipur,"Mansarovar Sector-12, Jaipur - RSPCB",31-07-2024 02:00:00,26.843698,75.766894,CO,12,29,21
India,Rajasthan,Jaipur,"Police Commissionerate, Jaipur - RSPCB",31-07-2024 02:00:00,26.9164092,75.7994901,NH3,2,15,5
India,Rajasthan,Jaipur,"Police Commissionerate, Jaipur - RSPCB",31-07-2024 02:00:00,26.9164092,75.7994901,CO,32,68,41
India,Rajasthan,Jaipur,"RIICO Sitapura, Jaipur - RSPCB",31-07-2024 02:00:00,26.786682,75.827928,OZONE,40,99,67
India,Rajasthan,Jaipur,"Sector-2 Murlipura, Jaipur - RSPCB",31-07-2024 02:00:00,26.960669,75.771817,PM2.5,19,57,37
India,Rajasthan,Jaipur,"Sector-2 Murlipura, Jaipur - RSPCB",31-07-2024 02:00:00,26.960669,75.771817,NO2,3,40,18
India,Rajasthan,Jaipur,"Sector-2 Murlipura, Jaipur - RSPCB",31-07-2024 02:00:00,26.960669,75.771817,NH3,2,8,4
India,Rajasthan,Jaisalmer,"Sadar Bazar, Jaisalmer - RSPCB",31-07-2024 02:00:00,26.912329,70.909168,SO2,5,8,7
India,Rajasthan,Jaisalmer,"Sadar Bazar, Jaisalmer - RSPCB",31-07-2024 02:00:00,26.912329,70.909168,CO,1,21,16
India,Rajasthan,Jalore,"Mudtra Sili, Jalore - RSPCB",31-07-2024 02:00:00,25.344694,72.626208,NH3,NA,NA,NA
India,Rajasthan,Jalore,"Mudtra Sili, Jalore - RSPCB",31-07-2024 02:00:00,25.344694,72.626208,OZONE,13,40,35
India,Rajasthan,Jhalawar,"Rajlaxmi Nagar, Jhalawar - RSPCB",31-07-2024 02:00:00,24.588397,76.172782,PM2.5,9,68,31
India,Rajasthan,Jhalawar,"Rajlaxmi Nagar, Jhalawar - RSPCB",31-07-2024 02:00:00,24.588397,76.172782,NO2,8,16,13
India,Rajasthan,Jodhpur,"Collectorate, Jodhpur - RSPCB",31-07-2024 02:00:00,26.268249,73.0193853,PM10,22,105,56
India,Rajasthan,Jodhpur,"Digari Kalan, Jodhpur - RSPCB",31-07-2024 02:00:00,26.295810,73.082283,SO2,1,4,2
India,Rajasthan,Jodhpur,"Jhalamand, Jodhpur - RSPCB",31-07-2024 02:00:00,26.215415,73.070156,CO,6,25,11
India,Rajasthan,Jodhpur,"Mandor, Jodhpur - RSPCB",31-07-2024 02:00:00,26.358805,73.047444,PM2.5,3,41,17
India,Rajasthan,Karauli,"Satyawati Vihar, Karauli - RSPCB",31-07-2024 02:00:00,26.506177,77.025989,NO2,7,65,16
India,Rajasthan,Kota,"Dhanmandi, Kota - RSPCB",31-07-2024 02:00:00,25.164090,75.858137,CO,4,35,23
India,Rajasthan,Kota,"Nayapura, Kota - RSPCB",31-07-2024 02:00:00,25.196024,75.855668,PM2.5,3,50,27
India,Rajasthan,Kota,"Nayapura, Kota - RSPCB",31-07-2024 02:00:00,25.196024,75.855668,NO2,4,41,12
India,Rajasthan,Kota,"Nayapura, Kota - RSPCB",31-07-2024 02:00:00,25.196024,75.855668,NH3,10,15,13
India,Rajasthan,Nagaur,"Karni Colony, Nagaur - RSPCB",31-07-2024 02:00:00,27.213494,73.734444,PM10,21,87,51
India,Rajasthan,Pali,"Indira Colony Vistar, Pali - RSPCB",31-07-2024 02:00:00,25.771061, 73.340227,NO2,5,19,11
India,Rajasthan,Pratapgarh,"Pragati Nagar, Pratapgarh - RSPCB",31-07-2024 02:00:00,24.041198,74.780702,PM2.5,2,44,18
India,Rajasthan,Pratapgarh,"Pragati Nagar, Pratapgarh - RSPCB",31-07-2024 02:00:00,24.041198,74.780702,CO,7,28,15
India,Rajasthan,Rajsamand,"Dhoinda, Rajsamand - RSPCB",31-07-2024 02:00:00,25.036360,73.883502,PM10,24,50,37
India,Rajasthan,Rajsamand,"Dhoinda, Rajsamand - RSPCB",31-07-2024 02:00:00,25.036360,73.883502,CO,17,60,32
India,Rajasthan,Rajsamand,"Dhoinda, Rajsamand - RSPCB",31-07-2024 02:00:00,25.036360,73.883502,OZONE,21,63,32
India,Rajasthan,Sawai Madhopur,"Sahu Nagar, Sawai Madhopur - RSPCB",31-07-2024 02:00:00,26.031443,76.359327,PM2.5,NA,NA,NA
India,Rajasthan,Sawai Madhopur,"Sahu Nagar, Sawai Madhopur - RSPCB",31-07-2024 02:00:00,26.031443,76.359327,NH3,1,2,2
India,Rajasthan,Sawai Madhopur,"Sahu Nagar, Sawai Madhopur - RSPCB",31-07-2024 02:00:00,26.031443,76.359327,OZONE,1,89,10
India,Rajasthan,Sikar,"Radhakishan Pura, Sikar - RSPCB",31-07-2024 02:00:00,27.608912,75.153302,PM10,18,84,51
India,Rajasthan,Tonk,"Shastri Nagar, Tonk - RSPCB",31-07-2024 02:00:00,26.159933,75.780517,NO2,NA,NA,NA
India,Rajasthan,Tonk,"Shastri Nagar, Tonk - RSPCB",31-07-2024 02:00:00,26.159933,75.780517,OZONE,58,92,74
India,Rajasthan,Udaipur,"Ashok Nagar, Udaipur - RSPCB",31-07-2024 02:00:00,24.5886166,73.6321397,PM2.5,6,80,32
India,Rajasthan,Udaipur,"Ashok Nagar, Udaipur - RSPCB",31-07-2024 02:00:00,24.5886166,73.6321397,SO2,6,12,9
India,Sikkim,Gangtok,"Zero Point GICI, Gangtok - SSPCB",31-07-2024 02:00:00,27.338530,88.614099,PM2.5,6,14,9
India,TamilNadu,Chennai,"Alandur Bus Depot, Chennai - CPCB",31-07-2024 02:00:00,12.9099161,80.1076538,NO2,4,14,8
India,TamilNadu,Chennai,"Arumbakkam, Chennai - TNPCB",31-07-2024 02:00:00,13.0664,80.2112 ,PM10,37,81,55
India,TamilNadu,Chennai,"Kodungaiyur, Chennai - TNPCB",31-07-2024 02:00:00,13.1278,80.2642,OZONE,23,65,45
India,TamilNadu,Chennai,"Manali, Chennai - CPCB",31-07-2024 02:00:00,13.164544,80.26285,CO,65,111,105
India,TamilNadu,Chennai,"Manali, Chennai - CPCB",31-07-2024 02:00:00,13.164544,80.26285,OZONE,6,24,7
India,TamilNadu,Chennai,"Perungudi, Chennai - TNPCB",31-07-2024 02:00:00,12.9533,80.2357,SO2,3,7,5
India,TamilNadu,Chennai,"Perungudi, Chennai - TNPCB",31-07-2024 02:00:00,12.9533,80.2357,OZONE,5,15,10
India,TamilNadu,Chennai,"Royapuram, Chennai - TNPCB",31-07-2024 02:00:00,13.1036,80.2909,PM2.5,15,66,28
India,TamilNadu,Chennai,"Royapuram, Chennai - TNPCB",31-07-2024 02:00:00,13.1036,80.2909,SO2,NA,NA,NA
India,TamilNadu,Chennai,"Royapuram, Chennai - TNPCB",31-07-2024 02:00:00,13.1036,80.2909,OZONE,NA,NA,NA
India,TamilNadu,Chennai,"Velachery Res. Area, Chennai - CPCB",31-07-2024 02:00:00,13.0052189,80.2398125,NH3,16,23,20
India,TamilNadu,Coimbatore,"PSG College of Arts and Science, Coimbatore - TNPCB",31-07-2024 02:00:00,11.0328,77.0349,NH3,NA,NA,NA
India,TamilNadu,Cuddalore,"Kudikadu, Cuddalore - TNPCB",31-07-2024 02:00:00,11.6829898,79.7532099,PM10,16,48,26
India,TamilNadu,Cuddalore,"Semmandalam, Cuddalore - TNPCB",31-07-2024 02:00:00,11.7637683,79.7499835,NO2,10,23,15
India,TamilNadu,Cuddalore,"Semmandalam, Cuddalore - TNPCB",31-07-2024 02:00:00,11.7637683,79.7499835,OZONE,1,2,2
India,TamilNadu,Gummidipoondi,"Anthoni Pillai Nagar, Gummidipoondi - TNPCB",31-07-2024 02:00:00,13.4127,80.1081,SO2,4,89,28
India,TamilNadu,Ooty,"Bombay Castel, Ooty - TNPCB",31-07-2024 02:00:00,11.4068288,76.7138973,NO2,NA,NA,NA
India,TamilNadu,Ooty,"Bombay Castel, Ooty - TNPCB",31-07-2024 02:00:00,11.4068288,76.7138973,SO2,NA,NA,NA
India,TamilNadu,Ooty,"Bombay Castel, Ooty - TNPCB",31-07-2024 02:00:00,11.4068288,76.7138973,CO,22,24,22
India,TamilNadu,Palkalaiperur,"Bharathidasan University, Palkalaiperur - TNPCB",31-07-2024 02:00:00,10.681158,78.741746,CO,1,22,16
India,TamilNadu,Palkalaiperur,"Bharathidasan University, Palkalaiperur - TNPCB",31-07-2024 02:00:00,10.681158,78.741746,OZONE,1,1,1
India,TamilNadu,Ramanathapuram,"Chalai Bazaar, Ramanathapuram - TNPCB",31-07-2024 02:00:00,9.36399,78.831977,OZONE,13,14,14
India,TamilNadu,Vellore,"Vasanthapuram, Vellore - TNPCB",31-07-2024 02:00:00,12.909494,79.131861,PM10,15,45,30
India,TamilNadu,Vellore,"Vasanthapuram, Vellore - TNPCB",31-07-2024 02:00:00,12.909494,79.131861,OZONE,NA,NA,NA
India,TamilNadu,Virudhunagar,"Collectorate Office, Virudhunagar - TNPCB",31-07-2024 02:00:00,9.559382,77.948828,PM10,NA,NA,NA
India,Telangana,Hyderabad,"Bollaram Industrial Area, Hyderabad - TSPCB",31-07-2024 02:00:00,17.540891,78.358528,SO2,11,54,31
India,Telangana,Hyderabad,"Central University, Hyderabad - TSPCB",31-07-2024 02:00:00,17.460103,78.334361,CO,6,20,15
India,Telangana,Hyderabad,"ECIL Kapra, Hyderabad - TSPCB",31-07-2024 02:00:00,17.470431,78.566959,PM2.5,5,44,29
India,Telangana,Hyderabad,"ICRISAT Patancheru, Hyderabad - TSPCB",31-07-2024 02:00:00,17.518400,78.278777,NH3,1,25,3
India,Telangana,Hyderabad,"IITH Kandi, Hyderabad - TSPCB",31-07-2024 02:00:00,17.585705,78.126199,NH3,NA,NA,NA
India,Telangana,Hyderabad,"IITH Kandi, Hyderabad - TSPCB",31-07-2024 02:00:00,17.585705,78.126199,SO2,NA,NA,NA
India,Telangana,Hyderabad,"Kokapet, Hyderabad - TSPCB",31-07-2024 02:00:00,17.393559,78.339194,PM2.5,31,96,64
India,Telangana,Hyderabad,"Kokapet, Hyderabad - TSPCB",31-07-2024 02:00:00,17.393559,78.339194,PM10,54,79,63
India,Telangana,Hyderabad,"Kokapet, Hyderabad - TSPCB",31-07-2024 02:00:00,17.393559,78.339194,NO2,7,8,8
India,Telangana,Hyderabad,"Kokapet, Hyderabad - TSPCB",31-07-2024 02:00:00,17.393559,78.339194,OZONE,5,8,6
India,Telangana,Hyderabad,"Nacharam_TSIIC IALA, Hyderabad - TSPCB",31-07-2024 02:00:00,17.429398,78.569354,NO2,15,18,16
India,Telangana,Hyderabad,"Somajiguda, Hyderabad - TSPCB",31-07-2024 02:00:00,17.417094,78.457437,NO2,NA,NA,NA
India,Telangana,Hyderabad,"Somajiguda, Hyderabad - TSPCB",31-07-2024 02:00:00,17.417094,78.457437,OZONE,7,40,27
India,Uttar_Pradesh,Agra,"Manoharpur, Agra - UPPCB",31-07-2024 02:00:00,27.23711,78.01936,CO,6,8,8
India,Uttar_Pradesh,Agra,"Rohta, Agra - UPPCB",31-07-2024 02:00:00,27.106972,78.000111,SO2,3,7,5
India,Uttar_Pradesh,Agra,"Rohta, Agra - UPPCB",31-07-2024 02:00:00,27.106972,78.000111,OZONE,7,9,8
India,Uttar_Pradesh,Agra,"Sector-3B Avas Vikas Colony, Agra - UPPCB",31-07-2024 02:00:00,27.19412,77.96237,PM2.5,6,17,10
India,Uttar_Pradesh,Agra,"Sector-3B Avas Vikas Colony, Agra - UPPCB",31-07-2024 02:00:00,27.19412,77.96237,NO2,19,24,22
India,Uttar_Pradesh,Agra,"Sector-3B Avas Vikas Colony, Agra - UPPCB",31-07-2024 02:00:00,27.19412,77.96237,CO,8,16,13
India,Uttar_Pradesh,Agra,"Sector-3B Avas Vikas Colony, Agra - UPPCB",31-07-2024 02:00:00,27.19412,77.96237,OZONE,17,24,20
India,Uttar_Pradesh,Agra,"Shahjahan Garden, Agra - UPPCB",31-07-2024 02:00:00,27.169338,78.03582,NO2,20,24,21
India,Uttar_Pradesh,Agra,"Shahjahan Garden, Agra - UPPCB",31-07-2024 02:00:00,27.169338,78.03582,CO,12,28,22
India,Uttar_Pradesh,Baghpat,"Sardar Patel Inter College, Baghpat - UPPCB",31-07-2024 02:00:00,28.964949,77.278761,PM2.5,11,27,18
India,Uttar_Pradesh,Baghpat,"Sardar Patel Inter College, Baghpat - UPPCB",31-07-2024 02:00:00,28.964949,77.278761,NO2,8,10,9
India,Uttar_Pradesh,Bareilly,"Civil Lines, Bareilly - UPPCB",31-07-2024 02:00:00,28.359581,79.414455,PM10,11,21,16
India,Uttar_Pradesh,Bareilly,"Rajendra Nagar, Bareilly - UPPCB",31-07-2024 02:00:00,28.38910936,79.42963708,OZONE,NA,NA,NA
India,Uttar_Pradesh,Firozabad,"Nagla Bhau, Firozabad - UPPCB",31-07-2024 02:00:00,27.168897,78.376960,PM2.5,1,29,14
India,Uttar_Pradesh,Firozabad,"Nagla Bhau, Firozabad - UPPCB",31-07-2024 02:00:00,27.168897,78.376960,SO2,22,30,24
India,Uttar_Pradesh,Firozabad,"Nagla Bhau, Firozabad - UPPCB",31-07-2024 02:00:00,27.168897,78.376960,CO,20,28,26
India,Uttar_Pradesh,Firozabad,"Vibhab Nagar, Firozabad - UPPCB",31-07-2024 02:00:00,27.1594,78.3953,SO2,6,12,7
India,Uttar_Pradesh,Ghaziabad,"Indirapuram, Ghaziabad - UPPCB",31-07-2024 02:00:00,28.646233,77.358075,NH3,11,12,12
India,Uttar_Pradesh,Ghaziabad,"Indirapuram, Ghaziabad - UPPCB",31-07-2024 02:00:00,28.646233,77.358075,CO,30,55,48
India,Uttar_Pradesh,Ghaziabad,"Loni, Ghaziabad - UPPCB",31-07-2024 02:00:00,28.757294,77.278792,NO2,1,50,14
India,Uttar_Pradesh,Ghaziabad,"Vasundhara, Ghaziabad - UPPCB",31-07-2024 02:00:00,28.6603346,77.3572563,SO2,1,5,2
India,Uttar_Pradesh,Gorakhpur,"Madan Mohan Malaviya University of Technology, Gorakhpur - UPPCB",31-07-2024 02:00:00,26.730136,83.433859,PM2.5,NA,NA,NA
India,Uttar_Pradesh,Greater Noida,"Knowledge Park - III, Greater Noida - UPPCB",31-07-2024 02:00:00,28.47272,77.482000,CO,11,41,29
India,Uttar_Pradesh,Greater Noida,"Knowledge Park - III, Greater Noida - UPPCB",31-07-2024 02:00:00,28.47272,77.482000,OZONE,6,91,37
India,Uttar_Pradesh,Greater Noida,"Knowledge Park - V, Greater Noida - UPPCB",31-07-2024 02:00:00,28.557054,77.453663,PM10,90,230,126
India,Uttar_Pradesh,Hapur,"Anand Vihar, Hapur - UPPCB",31-07-2024 02:00:00,28.725645,77.749675,PM2.5,40,124,60
India,Uttar_Pradesh,Hapur,"Anand Vihar, Hapur - UPPCB",31-07-2024 02:00:00,28.725645,77.749675,NO2,9,34,19
India,Uttar_Pradesh,Jhansi,"Shivaji Nagar, Jhansi - UPPCB",31-07-2024 02:00:00,25.4547,78.6039,NH3,6,6,6
India,Uttar_Pradesh,Jhansi,"Shivaji Nagar, Jhansi - UPPCB",31-07-2024 02:00:00,25.4547,78.6039,CO,5,22,14
India,Uttar_Pradesh,Kanpur,"NSI Kalyanpur, Kanpur - UPPCB",31-07-2024 02:00:00,26.509954,80.249612,PM2.5,NA,NA,NA
India,Uttar_Pradesh,Kanpur,"NSI Kalyanpur, Kanpur - UPPCB",31-07-2024 02:00:00,26.509954,80.249612,OZONE,20,154,109
India,Uttar_Pradesh,Kanpur,"Nehru Nagar, Kanpur - UPPCB",31-07-2024 02:00:00,26.4703136,80.3229863,SO2,6,11,9
India,Uttar_Pradesh,Khurja,"Kalindi Kunj, Khurja - UPPCB",31-07-2024 02:00:00,28.2348927,77.8683002,PM10,63,164,100
India,Uttar_Pradesh,Khurja,"Kalindi Kunj, Khurja - UPPCB",31-07-2024 02:00:00,28.2348927,77.8683002,NO2,8,14,11
India,Uttar_Pradesh,Khurja,"Kalindi Kunj, Khurja - UPPCB",31-07-2024 02:00:00,28.2348927,77.8683002,SO2,36,54,44
India,Uttar_Pradesh,Khurja,"Kalindi Kunj, Khurja - UPPCB",31-07-2024 02:00:00,28.2348927,77.8683002,OZONE,22,32,24
India,Uttar_Pradesh,Lucknow,"B R Ambedkar University, Lucknow - UPPCB",31-07-2024 02:00:00,26.766433,80.927299,PM10,31,68,51
India,Uttar_Pradesh,Lucknow,"Gomti Nagar, Lucknow - UPPCB",31-07-2024 02:00:00,26.868120,81.005119,PM2.5,49,140,82
India,Uttar_Pradesh,Lucknow,"Gomti Nagar, Lucknow - UPPCB",31-07-2024 02:00:00,26.868120,81.005119,CO,40,44,40
India,Uttar_Pradesh,Lucknow,"Kendriya Vidyalaya, Lucknow - CPCB",31-07-2024 02:00:00,26.906111,80.948222,PM10,34,228,68
India,Uttar_Pradesh,Lucknow,"Kendriya Vidyalaya, Lucknow - CPCB",31-07-2024 02:00:00,26.906111,80.948222,NH3,3,18,12
India,Uttar_Pradesh,Lucknow,"Kendriya Vidyalaya, Lucknow - CPCB",31-07-2024 02:00:00,26.906111,80.948222,SO2,5,8,7
India,Uttar_Pradesh,Lucknow,"Kendriya Vidyalaya, Lucknow - CPCB",31-07-2024 02:00:00,26.906111,80.948222,CO,14,35,25
India,Uttar_Pradesh,Lucknow,"Kukrail Picnic Spot-1, Lucknow - UPPCB",31-07-2024 02:00:00,26.90723,80.98579,PM10,30,48,38
India,Uttar_Pradesh,Lucknow,"Kukrail Picnic Spot-1, Lucknow - UPPCB",31-07-2024 02:00:00,26.90723,80.98579,NO2,19,20,19
India,Uttar_Pradesh,Lucknow,"Kukrail Picnic Spot-1, Lucknow - UPPCB",31-07-2024 02:00:00,26.90723,80.98579,SO2,24,25,24
India,Uttar_Pradesh,Lucknow,"Lalbagh, Lucknow - CPCB",31-07-2024 02:00:00,26.8458805,80.9365541,CO,10,183,48
India,Uttar_Pradesh,Lucknow,"Talkatora District Industries Center, Lucknow - CPCB",31-07-2024 02:00:00,26.83399722,80.8917361,NO2,6,15,11
India,Uttar_Pradesh,Lucknow,"Talkatora District Industries Center, Lucknow - CPCB",31-07-2024 02:00:00,26.83399722,80.8917361,NH3,3,7,5
India,Uttar_Pradesh,Lucknow,"Talkatora District Industries Center, Lucknow - CPCB",31-07-2024 02:00:00,26.83399722,80.8917361,SO2,1,19,9
India,Uttar_Pradesh,Meerut,"Ganga Nagar, Meerut - UPPCB",31-07-2024 02:00:00,28.999264,77.7590354,NH3,15,27,19
India,Uttar_Pradesh,Meerut,"Ganga Nagar, Meerut - UPPCB",31-07-2024 02:00:00,28.999264,77.7590354,OZONE,2,67,31
India,Uttar_Pradesh,Meerut,"Jai Bhim Nagar, Meerut - UPPCB",31-07-2024 02:00:00,28.9535882,77.7622941,NO2,8,27,16
India,Uttar_Pradesh,Meerut,"Jai Bhim Nagar, Meerut - UPPCB",31-07-2024 02:00:00,28.9535882,77.7622941,SO2,6,9,7
India,Uttar_Pradesh,Meerut,"Jai Bhim Nagar, Meerut - UPPCB",31-07-2024 02:00:00,28.9535882,77.7622941,CO,23,40,32
India,Uttar_Pradesh,Meerut,"Pallavpuram Phase 2, Meerut - UPPCB",31-07-2024 02:00:00,29.063510,77.709723,CO,32,54,47
India,Uttar_Pradesh,Moradabad,"Jigar Colony, Moradabad - UPPCB",31-07-2024 02:00:00,28.856664,78.772638,NH3,4,7,4
India,Uttar_Pradesh,Moradabad,"Transport Nagar, Moradabad - UPPCB",31-07-2024 02:00:00,28.802625,78.753728,PM2.5,18,41,28
India,Uttar_Pradesh,Moradabad,"Transport Nagar, Moradabad - UPPCB",31-07-2024 02:00:00,28.802625,78.753728,CO,38,42,40
India,Uttar_Pradesh,Muzaffarnagar,"New Mandi, Muzaffarnagar - UPPCB",31-07-2024 02:00:00,29.4723508,77.7194031,NO2,3,19,10
India,Uttar_Pradesh,Muzaffarnagar,"New Mandi, Muzaffarnagar - UPPCB",31-07-2024 02:00:00,29.4723508,77.7194031,OZONE,2,163,41
India,Uttar_Pradesh,Noida,"Sector - 125, Noida - UPPCB",31-07-2024 02:00:00,28.5447608,77.3231257,PM2.5,18,65,38
India,Uttar_Pradesh,Noida,"Sector - 125, Noida - UPPCB",31-07-2024 02:00:00,28.5447608,77.3231257,NO2,6,68,25
India,Uttar_Pradesh,Noida,"Sector - 125, Noida - UPPCB",31-07-2024 02:00:00,28.5447608,77.3231257,NH3,2,8,6
India,Uttar_Pradesh,Noida,"Sector - 125, Noida - UPPCB",31-07-2024 02:00:00,28.5447608,77.3231257,OZONE,2,6,3
India,Uttar_Pradesh,Noida,"Sector - 62, Noida - IMD",31-07-2024 02:00:00,28.6245479,77.3577104,CO,14,36,26
India,Uttar_Pradesh,Noida,"Sector-116, Noida - UPPCB",31-07-2024 02:00:00,28.569230,77.393848,NO2,10,33,18
India,Uttar_Pradesh,Noida,"Sector-116, Noida - UPPCB",31-07-2024 02:00:00,28.569230,77.393848,SO2,5,32,22
India,Uttar_Pradesh,Prayagraj,"Jhunsi, Prayagraj - UPPCB",31-07-2024 02:00:00,25.425602,81.917152,NH3,5,5,5
India,Uttar_Pradesh,Prayagraj,"Jhunsi, Prayagraj - UPPCB",31-07-2024 02:00:00,25.425602,81.917152,SO2,31,32,32
India,Uttar_Pradesh,Prayagraj,"Motilal Nehru NIT, Prayagraj - UPPCB",31-07-2024 02:00:00,25.494,81.863,SO2,15,74,32
India,Uttar_Pradesh,Prayagraj,"Nagar Nigam, Prayagraj - UPPCB",31-07-2024 02:00:00,25.44919916 ,81.82735986 ,OZONE,11,14,13
India,Uttar_Pradesh,Varanasi,"Bhelupur, Varanasi - UPPCB",31-07-2024 02:00:00,25.301778,82.996789,NO2,8,8,8
India,Uttar_Pradesh,Varanasi,"IESD Banaras Hindu University, Varanasi - UPPCB",31-07-2024 02:00:00,25.262326,82.995408,PM10,9,426,65
India,Uttar_Pradesh,Varanasi,"Maldahiya, Varanasi - UPPCB",31-07-2024 02:00:00,25.32393,82.99687,SO2,25,26,26
India,Uttar_Pradesh,Vrindavan,"Omex Eternity, Vrindavan - UPPCB",31-07-2024 02:00:00,27.5714090,77.6557570,PM2.5,12,28,18
India,Uttar_Pradesh,Vrindavan,"Omex Eternity, Vrindavan - UPPCB",31-07-2024 02:00:00,27.5714090,77.6557570,SO2,17,19,17
India,Uttarakhand,Dehradun,"Doon University, Dehradun - UKPCB",31-07-2024 02:00:00,30.269444,78.044167,SO2,1,1,1
India,Uttarakhand,Dehradun,"Doon University, Dehradun - UKPCB",31-07-2024 02:00:00,30.269444,78.044167,OZONE,4,116,9
India,Uttarakhand,Kashipur,"Govt. Girls Inter College, Kashipur - UKPCB",31-07-2024 02:00:00,29.2124114,78.9611753,NH3,12,14,13
India,Uttarakhand,Kashipur,"Govt. Girls Inter College, Kashipur - UKPCB",31-07-2024 02:00:00,29.2124114,78.9611753,SO2,4,6,5
India,Uttarakhand,Kashipur,"Govt. Girls Inter College, Kashipur - UKPCB",31-07-2024 02:00:00,29.2124114,78.9611753,CO,10,56,36
India,Uttarakhand,Rishikesh,"Shivaji Nagar, Rishikesh - UKPCB",31-07-2024 02:00:00,30.075911,78.2859547,PM2.5,6,78,20
India,Uttarakhand,Rishikesh,"Shivaji Nagar, Rishikesh - UKPCB",31-07-2024 02:00:00,30.075911,78.2859547,NH3,2,5,3
India,Uttarakhand,Rishikesh,"Shivaji Nagar, Rishikesh - UKPCB",31-07-2024 02:00:00,30.075911,78.2859547,SO2,3,27,5
India,West_Bengal,Asansol,"Asansol Court Area, Asansol - WBPCB",31-07-2024 02:00:00,23.685297,86.945968,PM2.5,17,91,56
India,West_Bengal,Asansol,"Asansol Court Area, Asansol - WBPCB",31-07-2024 02:00:00,23.685297,86.945968,SO2,10,16,13
India,West_Bengal,Asansol,"Asansol Court Area, Asansol - WBPCB",31-07-2024 02:00:00,23.685297,86.945968,CO,18,49,37
India,West_Bengal,Asansol,"Evelyn Lodge, Asansol - WBPCB",31-07-2024 02:00:00,23.6979360,86.9443950,PM10,14,78,45
India,West_Bengal,Asansol,"Evelyn Lodge, Asansol - WBPCB",31-07-2024 02:00:00,23.6979360,86.9443950,NO2,15,45,26
India,West_Bengal,Asansol,"Mahabir Colliery, Asansol - WBPCB",31-07-2024 02:00:00,23.6181830,87.1057180,CO,56,108,93
India,West_Bengal,Asansol,"Mahabir Colliery, Asansol - WBPCB",31-07-2024 02:00:00,23.6181830,87.1057180,OZONE,8,58,29
India,West_Bengal,Asansol,"Trivenidevi Bhalotia College, Asansol - WBPCB",31-07-2024 02:00:00,23.616515,87.119133,PM2.5,16,101,50
India,West_Bengal,Asansol,"Trivenidevi Bhalotia College, Asansol - WBPCB",31-07-2024 02:00:00,23.616515,87.119133,CO,21,34,27
India,West_Bengal,Durgapur,"Sidhu Kanhu Indoor Stadium, Durgapur - WBPCB",31-07-2024 02:00:00,23.5404352,87.2892225,PM10,64,150,100
India,West_Bengal,Haldia,"Priyambada Housing Estate, Haldia - WBPCB",31-07-2024 02:00:00,22.06047,88.109737,PM2.5,25,56,37
India,West_Bengal,Haldia,"Priyambada Housing Estate, Haldia - WBPCB",31-07-2024 02:00:00,22.06047,88.109737,OZONE,24,31,27
India,West_Bengal,Howrah,"Belur Math, Howrah - WBPCB",31-07-2024 02:00:00,22.629801,88.352017,CO,6,26,12
India,West_Bengal,Howrah,"Belur Math, Howrah - WBPCB",31-07-2024 02:00:00,22.629801,88.352017,OZONE,12,17,15
India,West_Bengal,Howrah,"Botanical Garden, Howrah - WBPCB",31-07-2024 02:00:00,22.554954,88.292568,NH3,2,3,2
India,West_Bengal,Howrah,"Ghusuri, Howrah - WBPCB",31-07-2024 02:00:00,22.611968,88.347422,PM2.5,26,48,38
India,West_Bengal,Howrah,"Ghusuri, Howrah - WBPCB",31-07-2024 02:00:00,22.611968,88.347422,NO2,NA,NA,NA
India,West_Bengal,Howrah,"Ghusuri, Howrah - WBPCB",31-07-2024 02:00:00,22.611968,88.347422,NH3,NA,NA,NA
India,West_Bengal,Howrah,"Ghusuri, Howrah - WBPCB",31-07-2024 02:00:00,22.611968,88.347422,SO2,5,9,7
India,West_Bengal,Kolkata,"Bidhannagar, Kolkata - WBPCB",31-07-2024 02:00:00,22.58157048,88.41002457,SO2,8,11,10
India,West_Bengal,Kolkata,"Bidhannagar, Kolkata - WBPCB",31-07-2024 02:00:00,22.58157048,88.41002457,OZONE,11,14,12
India,West_Bengal,Kolkata,"Fort William, Kolkata - WBPCB",31-07-2024 02:00:00,22.556640,88.342674,CO,16,28,24
India,West_Bengal,Kolkata,"Fort William, Kolkata - WBPCB",31-07-2024 02:00:00,22.556640,88.342674,OZONE,17,41,32
India,West_Bengal,Kolkata,"Jadavpur, Kolkata - WBPCB",31-07-2024 02:00:00,22.49929,88.36917,NH3,5,5,5
India,West_Bengal,Kolkata,"Rabindra Bharati University, Kolkata - WBPCB",31-07-2024 02:00:00,22.627847,88.380669,PM2.5,18,55,33
India,West_Bengal,Kolkata,"Rabindra Bharati University, Kolkata - WBPCB",31-07-2024 02:00:00,22.627847,88.380669,CO,24,36,32
India,West_Bengal,Kolkata,"Rabindra Sarobar, Kolkata - WBPCB",31-07-2024 02:00:00,22.51106,88.35142,PM2.5,15,41,27
India,West_Bengal,Kolkata,"Rabindra Sarobar, Kolkata - WBPCB",31-07-2024 02:00:00,22.51106,88.35142,NO2,25,102,39
India,West_Bengal,Kolkata,"Rabindra Sarobar, Kolkata - WBPCB",31-07-2024 02:00:00,22.51106,88.35142,OZONE,11,25,17
India,West_Bengal,Kolkata,"Victoria, Kolkata - WBPCB",31-07-2024 02:00:00,22.5448082,88.3403691,SO2,4,7,5
India,West_Bengal,Siliguri,"Ward-32 Bapupara, Siliguri - WBPCB",31-07-2024 02:00:00,26.6879226,88.4152495,SO2,7,9,8
India,West_Bengal,Siliguri,"Ward-32 Bapupara, Siliguri - WBPCB",31-07-2024 02:00:00,26.6879226,88.4152495,CO,18,38,31
India,Andhra_Pradesh,Amaravati,"Secretariat, Amaravati - APPCB",31-07-2024 02:00:00,16.5150833,80.5181667,SO2,7,18,10
India,Andhra_Pradesh,Anantapur,"Gulzarpet, Anantapur - APPCB",31-07-2024 02:00:00,14.675886,77.593027,PM10,NA,NA,NA
India,Andhra_Pradesh,Chittoor,"Gangineni Cheruvu, Chittoor - APPCB",31-07-2024 02:00:00,13.204880,79.097889,NO2,8,10,9
India,Andhra_Pradesh,Rajamahendravaram,"Anand Kala Kshetram, Rajamahendravaram - APPCB",31-07-2024 02:00:00,16.9872867,81.7363176,CO,10,68,49
India,Andhra_Pradesh,Tirupati,"Vaikuntapuram, Tirupati - APPCB",31-07-2024 02:00:00,13.615387,79.409230,CO,18,70,33
India,Andhra_Pradesh,Vijayawada,"HB Colony, Vijayawada - APPCB",31-07-2024 02:00:00,16.536107,80.594233,NO2,5,17,10
India,Andhra_Pradesh,Vijayawada,"HB Colony, Vijayawada - APPCB",31-07-2024 02:00:00,16.536107,80.594233,SO2,6,6,6
India,Andhra_Pradesh,Vijayawada,"HB Colony, Vijayawada - APPCB",31-07-2024 02:00:00,16.536107,80.594233,OZONE,8,23,18
India,Andhra_Pradesh,Vijayawada,"Kanuru, Vijayawada - APPCB",31-07-2024 02:00:00,16.486692,80.699436,PM2.5,32,49,38
India,Andhra_Pradesh,Vijayawada,"Rajiv Gandhi Park, Vijayawada - APPCB",31-07-2024 02:00:00,16.509717,80.612222,NH3,5,6,6
India,Andhra_Pradesh,Vijayawada,"Rajiv Gandhi Park, Vijayawada - APPCB",31-07-2024 02:00:00,16.509717,80.612222,SO2,7,9,8
India,Andhra_Pradesh,Vijayawada,"Rajiv Nagar, Vijayawada - APPCB",31-07-2024 02:00:00,16.554731,80.649110,NO2,10,10,10
India,Andhra_Pradesh,Vijayawada,"Rajiv Nagar, Vijayawada - APPCB",31-07-2024 02:00:00,16.554731,80.649110,NH3,2,2,2
India,Andhra_Pradesh,Vijayawada,"Rajiv Nagar, Vijayawada - APPCB",31-07-2024 02:00:00,16.554731,80.649110,OZONE,14,24,19
India,Andhra_Pradesh,Visakhapatnam,"GVM Corporation, Visakhapatnam - APPCB",31-07-2024 02:00:00,17.72,83.3,PM2.5,23,97,54
India,Andhra_Pradesh,Visakhapatnam,"GVM Corporation, Visakhapatnam - APPCB",31-07-2024 02:00:00,17.72,83.3,PM10,50,182,102
India,Andhra_Pradesh,Visakhapatnam,"GVM Corporation, Visakhapatnam - APPCB",31-07-2024 02:00:00,17.72,83.3,NO2,49,75,59
India,Andhra_Pradesh,Visakhapatnam,"GVM Corporation, Visakhapatnam - APPCB",31-07-2024 02:00:00,17.72,83.3,OZONE,13,18,13
India,Assam,Guwahati,"IITG, Guwahati - PCBA",31-07-2024 02:00:00,26.2028636,91.70046436,PM2.5,1,72,21
India,Assam,Guwahati,"IITG, Guwahati - PCBA",31-07-2024 02:00:00,26.2028636,91.70046436,PM10,12,79,35
India,Assam,Guwahati,"IITG, Guwahati - PCBA",31-07-2024 02:00:00,26.2028636,91.70046436,SO2,14,16,15
India,Assam,Guwahati,"LGBI Airport, Guwahati - PCBA",31-07-2024 02:00:00,26.10887,91.589544,NO2,2,17,8
India,Assam,Guwahati,"LGBI Airport, Guwahati - PCBA",31-07-2024 02:00:00,26.10887,91.589544,SO2,2,12,6
India,Assam,Guwahati,"Pan Bazaar, Guwahati - PCBA",31-07-2024 02:00:00,26.187500,91.744194,PM2.5,NA,NA,NA
India,Assam,Guwahati,"Railway Colony, Guwahati - PCBA",31-07-2024 02:00:00,26.181742,91.78063,PM10,12,128,39
India,Assam,Nagaon,"Christianpatty, Nagaon - PCBA",31-07-2024 02:00:00,26.349082,92.68449,PM2.5,25,49,30
India,Assam,Nagaon,"Christianpatty, Nagaon - PCBA",31-07-2024 02:00:00,26.349082,92.68449,PM10,29,56,35
India,Assam,Nagaon,"Christianpatty, Nagaon - PCBA",31-07-2024 02:00:00,26.349082,92.68449,SO2,10,10,10
India,Assam,Nagaon,"Christianpatty, Nagaon - PCBA",31-07-2024 02:00:00,26.349082,92.68449,OZONE,3,313,15
India,Assam,Nalbari,"Bata Chowk, Nalbari - PCBA",31-07-2024 02:00:00,26.446912,91.439057,NO2,13,23,17
India,Assam,Silchar,"Tarapur, Silchar - PCBA",31-07-2024 02:00:00,24.82827,92.79525,PM10,51,52,51
India,Assam,Silchar,"Tarapur, Silchar - PCBA",31-07-2024 02:00:00,24.82827,92.79525,CO,29,37,32
India,Assam,Sivasagar,"Girls College, Sivasagar - PCBA",31-07-2024 02:00:00,26.987634,94.636574,PM2.5,33,62,44
India,Assam,Sivasagar,"Girls College, Sivasagar - PCBA",31-07-2024 02:00:00,26.987634,94.636574,OZONE,1,4,1
India,Bihar,Araria,"Kharahiya Basti, Araria - BSPCB",31-07-2024 02:00:00,26.146529,87.454184,CO,12,42,30
India,Bihar,Arrah,"New DM Office, Arrah - BSPCB",31-07-2024 02:00:00,25.5626095,84.663264,NH3,2,2,2
India,Bihar,Arrah,"New DM Office, Arrah - BSPCB",31-07-2024 02:00:00,25.5626095,84.663264,SO2,5,10,8
India,Bihar,Aurangabad,"Gurdeo Nagar, Aurangabad - BSPCB",31-07-2024 02:00:00,24.75746,84.366208,NH3,3,3,3
India,Bihar,Aurangabad,"Gurdeo Nagar, Aurangabad - BSPCB",31-07-2024 02:00:00,24.75746,84.366208,CO,22,26,24
India,Bihar,Bhagalpur,"DM Office_Kachari Chowk, Bhagalpur - BSPCB",31-07-2024 02:00:00,25.251013,86.989001,PM2.5,35,70,50
India,Bihar,Bhagalpur,"Mayaganj, Bhagalpur - BSPCB",31-07-2024 02:00:00,25.265194,87.012947,PM10,42,461,213
India,Bihar,Bhagalpur,"Mayaganj, Bhagalpur - BSPCB",31-07-2024 02:00:00,25.265194,87.012947,OZONE,11,20,14
India,Bihar,Bihar Sharif,"D M Colony, Bihar Sharif - BSPCB",31-07-2024 02:00:00,25.204762,85.514960,NO2,19,59,36
India,Bihar,Chhapra,"Darshan Nagar, Chhapra - BSPCB",31-07-2024 02:00:00,25.7808257,84.7446768,PM2.5,18,53,34
India,Bihar,Chhapra,"Darshan Nagar, Chhapra - BSPCB",31-07-2024 02:00:00,25.7808257,84.7446768,NH3,7,18,12
India,Bihar,Chhapra,"Darshan Nagar, Chhapra - BSPCB",31-07-2024 02:00:00,25.7808257,84.7446768,SO2,9,96,68
India,Bihar,Chhapra,"Darshan Nagar, Chhapra - BSPCB",31-07-2024 02:00:00,25.7808257,84.7446768,CO,19,72,61
India,Bihar,Gaya,"Kareemganj, Gaya - BSPCB",31-07-2024 02:00:00,24.792403,84.992416,CO,1,52,30
India,Bihar,Hajipur,"Industrial Area, Hajipur - BSPCB",31-07-2024 02:00:00,25.697189,85.245900,NO2,4,13,8
India,Bihar,Katihar,"Mirchaibari, Katihar - BSPCB",31-07-2024 02:00:00,25.560083,87.553265,PM10,18,147,54
India,Bihar,Katihar,"Mirchaibari, Katihar - BSPCB",31-07-2024 02:00:00,25.560083,87.553265,SO2,8,16,11
India,Bihar,Kishanganj,"SDM Office_Khagra, Kishanganj - BSPCB",31-07-2024 02:00:00,26.0881305,87.93840336,PM10,19,206,111
India,Bihar,Kishanganj,"SDM Office_Khagra, Kishanganj - BSPCB",31-07-2024 02:00:00,26.0881305,87.93840336,NH3,6,9,7
India,Bihar,Manguraha,"Forest Rest House, Manguraha - BSPCB",31-07-2024 02:00:00,27.308328,84.531742,PM10,NA,NA,NA
India,Bihar,Motihari,"Gandak Colony, Motihari - BSPCB",31-07-2024 02:00:00,26.63086,84.90051,PM10,NA,NA,NA
India,Bihar,Motihari,"Gandak Colony, Motihari - BSPCB",31-07-2024 02:00:00,26.63086,84.90051,SO2,15,112,39
India,Bihar,Munger,"Town Hall, Munger - BSPCB",31-07-2024 02:00:00,25.376776,86.471523,OZONE,2,4,3
India,Bihar,Muzaffarpur,"Buddha Colony, Muzaffarpur - BSPCB",31-07-2024 02:00:00,26.11442,85.39813,NH3,4,11,8
India,Bihar,Muzaffarpur,"MIT-Daudpur Kothi, Muzaffarpur - BSPCB",31-07-2024 02:00:00,26.1403345,85.3650192,PM2.5,NA,NA,NA
India,Bihar,Muzaffarpur,"MIT-Daudpur Kothi, Muzaffarpur - BSPCB",31-07-2024 02:00:00,26.1403345,85.3650192,NH3,4,5,4
India,Bihar,Muzaffarpur,"MIT-Daudpur Kothi, Muzaffarpur - BSPCB",31-07-2024 02:00:00,26.1403345,85.3650192,SO2,8,15,11
India,Bihar,Muzaffarpur,"Muzaffarpur Collectorate, Muzaffarpur - BSPCB",31-07-2024 02:00:00,26.1209,85.3647,SO2,9,23,13
India,Bihar,Patna,"DRM Office Danapur, Patna - BSPCB",31-07-2024 02:00:00,25.586562,85.043586,PM2.5,20,52,34
India,Bihar,Patna,"DRM Office Danapur, Patna - BSPCB",31-07-2024 02:00:00,25.586562,85.043586,OZONE,7,30,13
India,Bihar,Patna,"Govt. High School Shikarpur, Patna - BSPCB",31-07-2024 02:00:00,25.592539,85.227158,PM10,67,106,84
India,Bihar,Patna,"Govt. High School Shikarpur, Patna - BSPCB",31-07-2024 02:00:00,25.592539,85.227158,SO2,9,11,10
India,Bihar,Patna,"IGSC Planetarium Complex, Patna - BSPCB",31-07-2024 02:00:00,25.610369,85.132568,PM2.5,33,89,65
India,Bihar,Patna,"IGSC Planetarium Complex, Patna - BSPCB",31-07-2024 02:00:00,25.610369,85.132568,NO2,14,14,14
India,Bihar,Patna,"IGSC Planetarium Complex, Patna - BSPCB",31-07-2024 02:00:00,25.610369,85.132568,SO2,4,6,6
India,Bihar,Purnia,"Mariam Nagar, Purnia - BSPCB",31-07-2024 02:00:00,25.366336,87.117468,NO2,4,6,5
India,Bihar,Purnia,"Mariam Nagar, Purnia - BSPCB",31-07-2024 02:00:00,25.366336,87.117468,CO,6,76,18
India,Bihar,Rajgir,"Dangi Tola, Rajgir - BSPCB",31-07-2024 02:00:00,25.03280,85.41948,NO2,2,4,3
India,Bihar,Rajgir,"Dangi Tola, Rajgir - BSPCB",31-07-2024 02:00:00,25.03280,85.41948,SO2,4,4,4
India,Bihar,Saharsa,"Police Line, Saharsa - BSPCB",31-07-2024 02:00:00,25.892357,86.590325,SO2,15,17,16
India,Bihar,Sasaram,"Dada Peer, Sasaram - BSPCB",31-07-2024 02:00:00,24.952822,84.002396,PM2.5,17,48,28
India,Bihar,Sasaram,"Dada Peer, Sasaram - BSPCB",31-07-2024 02:00:00,24.952822,84.002396,PM10,20,58,34
India,Bihar,Sasaram,"Dada Peer, Sasaram - BSPCB",31-07-2024 02:00:00,24.952822,84.002396,NH3,2,2,2
India,Bihar,Siwan,"Chitragupta Nagar, Siwan - BSPCB",31-07-2024 02:00:00,26.2271665,84.3570427,PM2.5,NA,NA,NA
India,Bihar,Siwan,"Chitragupta Nagar, Siwan - BSPCB",31-07-2024 02:00:00,26.2271665,84.3570427,NH3,NA,NA,NA
India,Bihar,Siwan,"Chitragupta Nagar, Siwan - BSPCB",31-07-2024 02:00:00,26.2271665,84.3570427,SO2,NA,NA,NA
India,Chandigarh,Chandigarh,"Sector-53, Chandigarh - CPCC",31-07-2024 02:00:00,30.719859,76.738637,NH3,1,10,5
India,Chhattisgarh,Bhilai,"32Bungalows, Bhilai - CECB",31-07-2024 02:00:00,21.194815,81.314770,PM2.5,25,42,30
India,Chhattisgarh,Bhilai,"32Bungalows, Bhilai - CECB",31-07-2024 02:00:00,21.194815,81.314770,PM10,17,43,32
India,Chhattisgarh,Bhilai,"Civic Center, Bhilai - Bhilai Steel Plant",31-07-2024 02:00:00,21.185571,81.343175,PM10,19,58,34
India,Chhattisgarh,Bhilai,"Civic Center, Bhilai - Bhilai Steel Plant",31-07-2024 02:00:00,21.185571,81.343175,NH3,3,4,4
India,Chhattisgarh,Bhilai,"Hathkhoj, Bhilai - CECB",31-07-2024 02:00:00,21.224231,81.408350,PM10,37,68,51
India,Chhattisgarh,Bhilai,"Hathkhoj, Bhilai - CECB",31-07-2024 02:00:00,21.224231,81.408350,SO2,8,16,11
India,Chhattisgarh,Chhal,"Nawapara SECL Colony, Chhal - CECB",31-07-2024 02:00:00,22.118125,83.140608,PM2.5,NA,NA,NA
India,Chhattisgarh,Chhal,"Nawapara SECL Colony, Chhal - CECB",31-07-2024 02:00:00,22.118125,83.140608,CO,14,56,37
India,Chhattisgarh,Korba,"Rampur, Korba - CECB",31-07-2024 02:00:00,22.368195,82.746431,PM2.5,27,62,45
India,Chhattisgarh,Korba,"Urja Nagar, Korba - CECB",31-07-2024 02:00:00,22.348441,82.549611,PM2.5,8,12,9
India,Chhattisgarh,Kunjemura,"OP Jindal School, Kunjemura - CECB",31-07-2024 02:00:00,22.126650,83.483212,NH3,2,3,2
India,Chhattisgarh,Raipur,"AIIMS, Raipur - CECB",31-07-2024 02:00:00,21.258815,81.578979,NO2,4,10,7
India,Chhattisgarh,Raipur,"Krishak Nagar, Raipur - CECB",31-07-2024 02:00:00,21.237755,81.705301,PM10,16,46,30
India,Chhattisgarh,Raipur,"Siltara Phase-II, Raipur - CECB",31-07-2024 02:00:00,21.371751,81.664929,PM2.5,NA,NA,NA
India,Chhattisgarh,Raipur,"Siltara Phase-II, Raipur - CECB",31-07-2024 02:00:00,21.371751,81.664929,SO2,NA,NA,NA
India,Delhi,Delhi,"Anand Vihar, Delhi - DPCC",31-07-2024 02:00:00,28.647622,77.3158090,NH3,5,11,7
India,Delhi,Delhi,"Aya Nagar, Delhi - IMD",31-07-2024 02:00:00,28.4706914,77.1099364,NO2,7,15,11
India,Delhi,Delhi,"Aya Nagar, Delhi - IMD",31-07-2024 02:00:00,28.4706914,77.1099364,CO,20,48,37
India,Delhi,Delhi,"Burari Crossing, Delhi - IMD",31-07-2024 02:00:00,28.7256504,77.2011573,CO,1,24,16
India,Delhi,Delhi,"CRRI Mathura Road, Delhi - IMD",31-07-2024 02:00:00,28.5512005,77.2735737,CO,28,84,75
India,Delhi,Delhi,"Chandni Chowk, Delhi - IITM",31-07-2024 02:00:00,28.656756,77.227234,NH3,7,12,10
India,Delhi,Delhi,"DTU, Delhi - CPCB",31-07-2024 02:00:00,28.7500499,77.1112615,CO,21,39,32
India,Delhi,Delhi,"Dr. Karni Singh Shooting Range, Delhi - DPCC",31-07-2024 02:00:00,28.498571,77.264840,SO2,2,10,6
India,Delhi,Delhi,"Dwarka-Sector 8, Delhi - DPCC ",31-07-2024 02:00:00,28.5710274,77.0719006,OZONE,7,46,19
India,Delhi,Delhi,"IGI Airport (T3), Delhi - IMD",31-07-2024 02:00:00,28.5627763,77.1180053,PM2.5,10,98,58
India,Delhi,Delhi,"IGI Airport (T3), Delhi - IMD",31-07-2024 02:00:00,28.5627763,77.1180053,PM10,30,115,80
India,Delhi,Delhi,"IHBAS, Dilshad Garden, Delhi - CPCB",31-07-2024 02:00:00,28.6811736,77.3025234,OZONE,11,19,16
India,Delhi,Delhi,"Jahangirpuri, Delhi - DPCC",31-07-2024 02:00:00,28.732820,77.170633,PM2.5,45,133,78
India,Delhi,Delhi,"Jahangirpuri, Delhi - DPCC",31-07-2024 02:00:00,28.732820,77.170633,PM10,58,232,122
India,Delhi,Delhi,"Jahangirpuri, Delhi - DPCC",31-07-2024 02:00:00,28.732820,77.170633,OZONE,35,77,42
India,Delhi,Delhi,"Jawaharlal Nehru Stadium, Delhi - DPCC",31-07-2024 02:00:00,28.580280,77.233829,PM2.5,27,77,45
India,Delhi,Delhi,"Jawaharlal Nehru Stadium, Delhi - DPCC",31-07-2024 02:00:00,28.580280,77.233829,NH3,10,17,12
India,Delhi,Delhi,"Jawaharlal Nehru Stadium, Delhi - DPCC",31-07-2024 02:00:00,28.580280,77.233829,OZONE,8,62,25
India,Delhi,Delhi,"Major Dhyan Chand National Stadium, Delhi - DPCC",31-07-2024 02:00:00,28.611281,77.237738,PM10,63,113,83
India,Delhi,Delhi,"Major Dhyan Chand National Stadium, Delhi - DPCC",31-07-2024 02:00:00,28.611281,77.237738,SO2,1,12,6
India,Delhi,Delhi,"Mandir Marg, Delhi - DPCC",31-07-2024 02:00:00,28.636429,77.201067,PM2.5,NA,NA,NA
India,Delhi,Delhi,"Mandir Marg, Delhi - DPCC",31-07-2024 02:00:00,28.636429,77.201067,NO2,30,70,55
India,Delhi,Delhi,"Mundka, Delhi - DPCC",31-07-2024 02:00:00,28.684678,77.076574,PM2.5,45,82,60
India,Delhi,Delhi,"Mundka, Delhi - DPCC",31-07-2024 02:00:00,28.684678,77.076574,NH3,6,19,10
India,Delhi,Delhi,"Mundka, Delhi - DPCC",31-07-2024 02:00:00,28.684678,77.076574,SO2,14,25,16
India,Delhi,Delhi,"NSIT Dwarka, Delhi - CPCB",31-07-2024 02:00:00,28.60909,77.0325413,NH3,5,8,6
India,Delhi,Delhi,"Najafgarh, Delhi - DPCC",31-07-2024 02:00:00,28.570173,76.933762,PM2.5,19,69,43
India,Delhi,Delhi,"Najafgarh, Delhi - DPCC",31-07-2024 02:00:00,28.570173,76.933762,OZONE,2,55,23
India,Delhi,Delhi,"Narela, Delhi - DPCC",31-07-2024 02:00:00,28.822836,77.101981,NO2,14,58,28
India,Delhi,Delhi,"Narela, Delhi - DPCC",31-07-2024 02:00:00,28.822836,77.101981,NH3,6,7,6
India,Delhi,Delhi,"Narela, Delhi - DPCC",31-07-2024 02:00:00,28.822836,77.101981,CO,34,62,43
India,Delhi,Delhi,"Narela, Delhi - DPCC",31-07-2024 02:00:00,28.822836,77.101981,OZONE,115,201,197
India,Delhi,Delhi,"Nehru Nagar, Delhi - DPCC",31-07-2024 02:00:00,28.567890,77.250515,NO2,13,78,38
India,Delhi,Delhi,"New Moti Bagh, Delhi - MHUA",31-07-2024 02:00:00,28.57834,77.18400,NO2,5,10,6
India,Delhi,Delhi,"New Moti Bagh, Delhi - MHUA",31-07-2024 02:00:00,28.57834,77.18400,CO,22,74,52
India,Delhi,Delhi,"North Campus, DU, Delhi - IMD",31-07-2024 02:00:00,28.6573814,77.1585447,PM10,47,166,85
India,Delhi,Delhi,"North Campus, DU, Delhi - IMD",31-07-2024 02:00:00,28.6573814,77.1585447,CO,32,81,49
India,Delhi,Delhi,"Okhla Phase-2, Delhi - DPCC",31-07-2024 02:00:00,28.530785,77.271255,PM2.5,38,97,59
India,Delhi,Delhi,"Patparganj, Delhi - DPCC",31-07-2024 02:00:00,28.623763,77.287209,NO2,10,82,31
India,Delhi,Delhi,"Punjabi Bagh, Delhi - DPCC",31-07-2024 02:00:00,28.674045,77.131023,PM10,64,133,97
India,Delhi,Delhi,"Punjabi Bagh, Delhi - DPCC",31-07-2024 02:00:00,28.674045,77.131023,CO,24,44,37
India,Delhi,Delhi,"Rohini, Delhi - DPCC",31-07-2024 02:00:00,28.732528,77.119920,SO2,5,7,6
India,Delhi,Delhi,"Rohini, Delhi - DPCC",31-07-2024 02:00:00,28.732528,77.119920,CO,34,85,60
India,Delhi,Delhi,"Shadipur, Delhi - CPCB",31-07-2024 02:00:00,28.6514781,77.1473105,PM2.5,87,246,142
India,Delhi,Delhi,"Shadipur, Delhi - CPCB",31-07-2024 02:00:00,28.6514781,77.1473105,PM10,79,138,104
India,Delhi,Delhi,"Sri Aurobindo Marg, Delhi - DPCC",31-07-2024 02:00:00,28.531346,77.190156,PM2.5,35,79,54
India,Delhi,Delhi,"Sri Aurobindo Marg, Delhi - DPCC",31-07-2024 02:00:00,28.531346,77.190156,SO2,18,22,20
India,Delhi,Delhi,"Vivek Vihar, Delhi - DPCC",31-07-2024 02:00:00,28.672342,77.315260,PM2.5,41,83,61
India,Delhi,Delhi,"Vivek Vihar, Delhi - DPCC",31-07-2024 02:00:00,28.672342,77.315260,PM10,53,104,81
India,Gujarat,Ahmedabad,"Gyaspur, Ahmedabad - IITM",31-07-2024 02:00:00,22.977134,72.553024,PM2.5,8,168,61
India,Gujarat,Ahmedabad,"Gyaspur, Ahmedabad - IITM",31-07-2024 02:00:00,22.977134,72.553024,SO2,14,21,16
India,Gujarat,Ahmedabad,"Gyaspur, Ahmedabad - IITM",31-07-2024 02:00:00,22.977134,72.553024,OZONE,10,38,20
India,Gujarat,Ahmedabad,"Rakhial, Ahmedabad - IITM",31-07-2024 02:00:00,23.016834,72.625775,NH3,3,11,5
India,Gujarat,Ahmedabad,"Sardar Vallabhbhai Patel Stadium, Ahmedabad - IITM",31-07-2024 02:00:00,23.043070,72.562968,NO2,16,61,27
India,Gujarat,Ankleshwar,"GIDC, Ankleshwar - GPCB",31-07-2024 02:00:00,21.613267,73.010555,NO2,19,30,23
India,Gujarat,Ankleshwar,"GIDC, Ankleshwar - GPCB",31-07-2024 02:00:00,21.613267,73.010555,CO,32,106,72
India,Gujarat,Gandhinagar,"GIFT City, Gandhinagar - IITM",31-07-2024 02:00:00,23.163798,72.677768,PM10,16,82,54
India,Gujarat,Gandhinagar,"GIFT City, Gandhinagar - IITM",31-07-2024 02:00:00,23.163798,72.677768,CO,20,36,30
India,Gujarat,Gandhinagar,"GIFT City, Gandhinagar - IITM",31-07-2024 02:00:00,23.163798,72.677768,OZONE,6,43,21
India,Gujarat,Gandhinagar,"Sector-10, Gandhinagar - GPCB",31-07-2024 02:00:00,23.221714,72.654328,NO2,9,10,10
India,Gujarat,Surat,"Science Center, Surat - SMC",31-07-2024 02:00:00,21.170046,72.795405,PM10,42,69,54
India,Gujarat,Surat,"Science Center, Surat - SMC",31-07-2024 02:00:00,21.170046,72.795405,SO2,11,13,12
India,Gujarat,Vatva,"Phase-4 GIDC, Vatva - GPCB",31-07-2024 02:00:00,22.969611,72.643500,PM2.5,26,75,45
India,Haryana,Ambala,"Patti Mehar, Ambala - HSPCB",31-07-2024 02:00:00,30.379589,76.778328,SO2,4,30,9
India,Haryana,Bahadurgarh,"Arya Nagar, Bahadurgarh - HSPCB",31-07-2024 02:00:00,28.6701,76.9254,PM2.5,28,76,55
India,Haryana,Bahadurgarh,"Arya Nagar, Bahadurgarh - HSPCB",31-07-2024 02:00:00,28.6701,76.9254,OZONE,33,41,38
India,Haryana,Ballabgarh,"Nathu Colony, Ballabgarh - HSPCB",31-07-2024 02:00:00,28.3419248,77.319699,PM10,48,119,76
India,Haryana,Dharuhera,"Municipal Corporation Office, Dharuhera -  HSPCB",31-07-2024 02:00:00,28.206800,76.799700,SO2,NA,NA,NA
India,Haryana,Faridabad,"New Industrial Town, Faridabad - HSPCB",31-07-2024 02:00:00,28.39072,77.30059,NO2,NA,NA,NA
India,Haryana,Faridabad,"New Industrial Town, Faridabad - HSPCB",31-07-2024 02:00:00,28.39072,77.30059,OZONE,25,27,27
India,Haryana,Faridabad,"Sector 30, Faridabad - HSPCB",31-07-2024 02:00:00,28.4417,77.3217,NH3,3,3,3
India,Haryana,Faridabad,"Sector- 16A, Faridabad - HSPCB",31-07-2024 02:00:00,28.4088421,77.3099081,NO2,27,66,38
India,Haryana,Faridabad,"Sector- 16A, Faridabad - HSPCB",31-07-2024 02:00:00,28.4088421,77.3099081,OZONE,14,14,14
India,Haryana,Fatehabad,"Huda Sector, Fatehabad - HSPCB",31-07-2024 02:00:00,29.503664,75.467934,PM10,30,60,51
India,Haryana,Fatehabad,"Huda Sector, Fatehabad - HSPCB",31-07-2024 02:00:00,29.503664,75.467934,SO2,11,27,20
India,Haryana,Gurugram,"Sector-51, Gurugram - HSPCB",31-07-2024 02:00:00,28.4227,77.0667,PM2.5,NA,NA,NA
India,Haryana,Gurugram,"Teri Gram, Gurugram - HSPCB",31-07-2024 02:00:00,28.4275,77.1465,PM10,NA,NA,NA
India,Haryana,Kaithal,"Rishi Nagar, Kaithal - HSPCB",31-07-2024 02:00:00,29.8006,76.4155,NH3,13,13,13
India,Haryana,Kurukshetra,"Sector-7, Kurukshetra - HSPCB",31-07-2024 02:00:00,29.966942,76.875879,NO2,16,21,19
India,Haryana,Kurukshetra,"Sector-7, Kurukshetra - HSPCB",31-07-2024 02:00:00,29.966942,76.875879,CO,9,131,22
India,Haryana,Mandikhera,"General Hospital, Mandikhera - HSPCB",31-07-2024 02:00:00,27.9002,76.9938,NO2,18,23,21
India,Haryana,Narnaul,"Shastri Nagar, Narnaul - HSPCB",31-07-2024 02:00:00,28.060249,76.113115,PM10,20,219,54
India,Haryana,Narnaul,"Shastri Nagar, Narnaul - HSPCB",31-07-2024 02:00:00,28.060249,76.113115,OZONE,10,18,10
India,Haryana,Panchkula,"Sector-6, Panchkula - HSPCB ",31-07-2024 02:00:00,30.7057778,76.8531805555555,NO2,18,22,20
India,Haryana,Panchkula,"Sector-6, Panchkula - HSPCB ",31-07-2024 02:00:00,30.7057778,76.8531805555555,SO2,2,11,3
India,Haryana,Panipat,"Sector-18, Panipat - HSPCB",31-07-2024 02:00:00,29.432304,76.972765,NH3,2,3,2
India,Haryana,Panipat,"Sector-18, Panipat - HSPCB",31-07-2024 02:00:00,29.432304,76.972765,CO,24,26,25
India,Haryana,Panipat,"Sector-18, Panipat - HSPCB",31-07-2024 02:00:00,29.432304,76.972765,OZONE,29,30,30
India,Haryana,Sirsa,"F-Block, Sirsa - HSPCB",31-07-2024 02:00:00,29.536400,75.015800,NO2,9,11,10
India,Haryana,Sirsa,"F-Block, Sirsa - HSPCB",31-07-2024 02:00:00,29.536400,75.015800,NH3,9,13,11
India,Haryana,Sirsa,"F-Block, Sirsa - HSPCB",31-07-2024 02:00:00,29.536400,75.015800,SO2,4,101,20
India,Haryana,Sonipat,"Murthal, Sonipat - HSPCB",31-07-2024 02:00:00,29.027200,77.062100,PM10,31,74,50
India,Haryana,Yamuna Nagar,"Gobind Pura, Yamuna Nagar - HSPCB",31-07-2024 02:00:00,30.1480566,77.2893471,PM10,49,90,68
India,Haryana,Yamuna Nagar,"Gobind Pura, Yamuna Nagar - HSPCB",31-07-2024 02:00:00,30.1480566,77.2893471,NO2,3,4,4
India,Haryana,Yamuna Nagar,"Gobind Pura, Yamuna Nagar - HSPCB",31-07-2024 02:00:00,30.1480566,77.2893471,CO,NA,NA,NA
India,Himachal Pradesh,Baddi,"HIMUDA Complex Phase-1, Baddi - HPPCB",31-07-2024 02:00:00,30.943887,76.801991,PM10,36,189,82
India,Himachal Pradesh,Baddi,"HIMUDA Complex Phase-1, Baddi - HPPCB",31-07-2024 02:00:00,30.943887,76.801991,OZONE,7,77,27
India,Jammu_and_Kashmir,Srinagar,"Rajbagh, Srinagar - JKSPCB",31-07-2024 02:00:00,34.066206,74.819820,NO2,6,7,7
India,Jammu_and_Kashmir,Srinagar,"Rajbagh, Srinagar - JKSPCB",31-07-2024 02:00:00,34.066206,74.819820,NH3,1,2,1
India,Jammu_and_Kashmir,Srinagar,"Rajbagh, Srinagar - JKSPCB",31-07-2024 02:00:00,34.066206,74.819820,CO,12,16,13
India,Jharkhand,Dhanbad,"Kalakusuma, Dhanbad - DMC",31-07-2024 02:00:00,23.811548,86.481238,PM2.5,NA,NA,NA
India,Jharkhand,Dhanbad,"Kalakusuma, Dhanbad - DMC",31-07-2024 02:00:00,23.811548,86.481238,NO2,33,34,33
India,Jharkhand,Dhanbad,"Kalakusuma, Dhanbad - DMC",31-07-2024 02:00:00,23.811548,86.481238,SO2,9,10,9
India,Jharkhand,Dhanbad,"Sardar Patel Nagar, Dhanbad - JSPCB",31-07-2024 02:00:00,23.80569,86.44268,PM10,NA,NA,NA
India,Jharkhand,Dhanbad,"Sardar Patel Nagar, Dhanbad - JSPCB",31-07-2024 02:00:00,23.80569,86.44268,OZONE,NA,NA,NA
India,Karnataka,Bagalkot,"Vidayagiri, Bagalkot - KSPCB",31-07-2024 02:00:00,16.172806,75.659694,PM2.5,28,41,39
India,Karnataka,Belgaum,"Ramteerth Nagar, Belgaum - KSPCB",31-07-2024 02:00:00,15.888653,74.541751,NH3,3,10,5
India,Karnataka,Bengaluru,"Bapuji Nagar, Bengaluru - KSPCB",31-07-2024 02:00:00,12.951913,77.539784,PM2.5,5,29,17
India,Karnataka,Bengaluru,"Bapuji Nagar, Bengaluru - KSPCB",31-07-2024 02:00:00,12.951913,77.539784,NH3,1,1,1
India,Karnataka,Bengaluru,"Bapuji Nagar, Bengaluru - KSPCB",31-07-2024 02:00:00,12.951913,77.539784,CO,22,29,26
India,Karnataka,Bengaluru,"City Railway Station, Bengaluru - KSPCB",31-07-2024 02:00:00,12.9756843,77.5660749,CO,54,86,68
India,Karnataka,Bengaluru,"Hebbal, Bengaluru - KSPCB",31-07-2024 02:00:00,13.029152,77.585901,PM2.5,11,32,20
India,Karnataka,Bengaluru,"Hebbal, Bengaluru - KSPCB",31-07-2024 02:00:00,13.029152,77.585901,OZONE,4,6,5
India,Karnataka,Bengaluru,"Hombegowda Nagar, Bengaluru - KSPCB",31-07-2024 02:00:00,12.938539,77.590100,CO,11,22,18
India,Karnataka,Bengaluru,"Jayanagar 5th Block, Bengaluru - KSPCB",31-07-2024 02:00:00,12.920984,77.584908,PM10,11,30,20
India,Karnataka,Bengaluru,"Jigani, Bengaluru - KSPCB",31-07-2024 02:00:00,12.7816279,77.6299145,SO2,9,17,14
India,Karnataka,Bengaluru,"Kasturi Nagar, Bengaluru - KSPCB",31-07-2024 02:00:00,13.003872,77.664217,NH3,3,4,4
India,Karnataka,Bengaluru,"Peenya, Bengaluru - CPCB",31-07-2024 02:00:00,13.0270199,77.494094,NO2,NA,NA,NA
India,Karnataka,Bengaluru,"Peenya, Bengaluru - CPCB",31-07-2024 02:00:00,13.0270199,77.494094,NH3,NA,NA,NA
India,Karnataka,Bengaluru,"Peenya, Bengaluru - CPCB",31-07-2024 02:00:00,13.0270199,77.494094,OZONE,28,35,31
India,Karnataka,Bengaluru,"RVCE-Mailasandra, Bengaluru - KSPCB",31-07-2024 02:00:00,12.921418,77.502466,OZONE,42,42,42
India,Karnataka,Bengaluru,"Shivapura_Peenya, Bengaluru - KSPCB",31-07-2024 02:00:00,13.0246342,77.5080115,NH3,4,4,4
India,Karnataka,Bidar,"Naubad, Bidar - KSPCB",31-07-2024 02:00:00,17.930306,77.482194,NH3,3,7,3
India,Karnataka,Chamarajanagar,"Urban, Chamarajanagar - KSPCB",31-07-2024 02:00:00,11.55358,76.55521,NH3,1,2,2
India,Karnataka,Chikkamagaluru,"Kalyana Nagara, Chikkamagaluru - KSPCB",31-07-2024 02:00:00,13.328028,75.797056,PM10,22,65,35
India,Karnataka,Davanagere,"Devaraj Urs Badavane, Davanagere - KSPCB",31-07-2024 02:00:00,14.475800,75.905200,CO,18,21,19
