country,state,city,station,last_update,latitude,longitude,pollutant_id,pollutant_min,pollutant_max,pollutant_avg
India,Andhra_Pradesh,Amaravati,"Secretariat, Amaravati - APPCB",13-02-2024 04:00:00,16.5150833,80.5181667,PM2.5,15,102,49
India,Andhra_Pradesh,Amaravati,"Secretariat, Amaravati - APPCB",13-02-2024 04:00:00,16.5150833,80.5181667,NH3,4,4,4
India,Andhra_Pradesh,Amaravati,"Secretariat, Amaravati - APPCB",13-02-2024 04:00:00,16.5150833,80.5181667,SO2,12,18,14
India,Andhra_Pradesh,Anantapur,"Gulzarpet, Anantapur - APPCB",13-02-2024 04:00:00,14.675886,77.593027,PM10,31,79,49
India,Andhra_Pradesh,Chittoor,"Gangineni Cheruvu, Chittoor - APPCB",13-02-2024 04:00:00,13.204880,79.097889,PM10,26,100,53
India,Andhra_Pradesh,Chittoor,"Gangineni Cheruvu, Chittoor - APPCB",13-02-2024 04:00:00,13.204880,79.097889,NO2,5,31,13
India,Andhra_Pradesh,Chittoor,"Gangineni Cheruvu, Chittoor - APPCB",13-02-2024 04:00:00,13.204880,79.097889,CO,14,50,37
India,Andhra_Pradesh,Kadapa,"Yerramukkapalli, Kadapa - APPCB",13-02-2024 04:00:00,14.465052,78.824187,PM2.5,31,52,41
India,Andhra_Pradesh,Kadapa,"Yerramukkapalli, Kadapa - APPCB",13-02-2024 04:00:00,14.465052,78.824187,CO,19,38,22
India,Andhra_Pradesh,Rajamahendravaram,"Anand Kala Kshetram, Rajamahendravaram - APPCB",13-02-2024 04:00:00,16.9872867,81.7363176,PM2.5,65,157,93
India,Andhra_Pradesh,Rajamahendravaram,"Anand Kala Kshetram, Rajamahendravaram - APPCB",13-02-2024 04:00:00,16.9872867,81.7363176,NH3,3,7,5
India,Andhra_Pradesh,Rajamahendravaram,"Anand Kala Kshetram, Rajamahendravaram - APPCB",13-02-2024 04:00:00,16.9872867,81.7363176,SO2,8,14,12
India,Andhra_Pradesh,Rajamahendravaram,"Anand Kala Kshetram, Rajamahendravaram - APPCB",13-02-2024 04:00:00,16.9872867,81.7363176,CO,6,84,38
India,Andhra_Pradesh,Rajamahendravaram,"Anand Kala Kshetram, Rajamahendravaram - APPCB",13-02-2024 04:00:00,16.9872867,81.7363176,OZONE,26,45,38
India,Andhra_Pradesh,Tirupati,"Tirumala, Tirupati - APPCB",13-02-2024 04:00:00,13.67,79.35,PM2.5,25,97,50
India,Andhra_Pradesh,Tirupati,"Tirumala, Tirupati - APPCB",13-02-2024 04:00:00,13.67,79.35,OZONE,15,54,26
India,Andhra_Pradesh,Vijayawada,"HB Colony, Vijayawada - APPCB",13-02-2024 04:00:00,16.536107,80.594233,PM2.5,38,83,55
India,Andhra_Pradesh,Vijayawada,"HB Colony, Vijayawada - APPCB",13-02-2024 04:00:00,16.536107,80.594233,NO2,8,17,12
India,Andhra_Pradesh,Vijayawada,"HB Colony, Vijayawada - APPCB",13-02-2024 04:00:00,16.536107,80.594233,SO2,4,7,5
India,Andhra_Pradesh,Visakhapatnam,"GVM Corporation, Visakhapatnam - APPCB",13-02-2024 04:00:00,17.72,83.3,PM10,81,114,102
India,Andhra_Pradesh,Visakhapatnam,"GVM Corporation, Visakhapatnam - APPCB",13-02-2024 04:00:00,17.72,83.3,NO2,29,75,41
India,Andhra_Pradesh,Visakhapatnam,"GVM Corporation, Visakhapatnam - APPCB",13-02-2024 04:00:00,17.72,83.3,SO2,9,14,11
India,Arunachal_Pradesh,Naharlagun,"Naharlagun, Naharlagun - APSPCB",13-02-2024 04:00:00,27.103358,93.679645,NO2,2,2,2
India,Arunachal_Pradesh,Naharlagun,"Naharlagun, Naharlagun - APSPCB",13-02-2024 04:00:00,27.103358,93.679645,SO2,3,3,3
India,Arunachal_Pradesh,Naharlagun,"Naharlagun, Naharlagun - APSPCB",13-02-2024 04:00:00,27.103358,93.679645,OZONE,2,2,2
India,Assam,Byrnihat,"Central Academy for SFS, Byrnihat - PCBA",13-02-2024 04:00:00,26.071318,91.87488,CO,26,186,54
India,Assam,Guwahati,"IITG, Guwahati - PCBA",13-02-2024 04:00:00,26.2028636,91.70046436,NH3,5,5,5
India,Assam,Guwahati,"IITG, Guwahati - PCBA",13-02-2024 04:00:00,26.2028636,91.70046436,SO2,12,16,13
India,Assam,Guwahati,"LGBI Airport, Guwahati - PCBA",13-02-2024 04:00:00,26.10887,91.589544,CO,8,74,17
India,Assam,Guwahati,"LGBI Airport, Guwahati - PCBA",13-02-2024 04:00:00,26.10887,91.589544,OZONE,6,86,28
India,Assam,Guwahati,"Pan Bazaar, Guwahati - PCBA",13-02-2024 04:00:00,26.187500,91.744194,PM10,100,391,169
India,Assam,Guwahati,"Railway Colony, Guwahati - PCBA",13-02-2024 04:00:00,26.181742,91.78063,SO2,18,25,22
India,Assam,Nagaon,"Christianpatty, Nagaon - PCBA",13-02-2024 04:00:00,26.349082,92.68449,NH3,2,4,3
India,Assam,Nagaon,"Christianpatty, Nagaon - PCBA",13-02-2024 04:00:00,26.349082,92.68449,SO2,NA,NA,NA
India,Assam,Nalbari,"Bata Chowk, Nalbari - PCBA",13-02-2024 04:00:00,26.446912,91.439057,NH3,1,7,2
India,Assam,Silchar,"Tarapur, Silchar - PCBA",13-02-2024 04:00:00,24.82827,92.79525,PM2.5,37,48,42
India,Assam,Silchar,"Tarapur, Silchar - PCBA",13-02-2024 04:00:00,24.82827,92.79525,SO2,8,22,16
India,Assam,Silchar,"Tarapur, Silchar - PCBA",13-02-2024 04:00:00,24.82827,92.79525,CO,44,56,50
India,Assam,Sivasagar,"Girls College, Sivasagar - PCBA",13-02-2024 04:00:00,26.987634,94.636574,NH3,2,3,2
India,Assam,Sivasagar,"Girls College, Sivasagar - PCBA",13-02-2024 04:00:00,26.987634,94.636574,SO2,4,5,4
India,Bihar,Araria,"Kharahiya Basti, Araria - BSPCB",13-02-2024 04:00:00,26.146529,87.454184,NO2,4,8,7
India,Bihar,Araria,"Kharahiya Basti, Araria - BSPCB",13-02-2024 04:00:00,26.146529,87.454184,NH3,6,9,7
India,Bihar,Arrah,"New DM Office, Arrah - BSPCB",13-02-2024 04:00:00,25.5626095,84.663264,PM2.5,72,382,225
India,Bihar,Arrah,"New DM Office, Arrah - BSPCB",13-02-2024 04:00:00,25.5626095,84.663264,CO,2,75,23
India,Bihar,Aurangabad,"Gurdeo Nagar, Aurangabad - BSPCB",13-02-2024 04:00:00,24.75746,84.366208,PM2.5,100,356,267
India,Bihar,Aurangabad,"Gurdeo Nagar, Aurangabad - BSPCB",13-02-2024 04:00:00,24.75746,84.366208,SO2,9,16,13
India,Bihar,Bettiah,"Kamalnath Nagar, Bettiah - BSPCB",13-02-2024 04:00:00,26.80365,84.51954,OZONE,NA,NA,NA
India,Bihar,Bhagalpur,"DM Office_Kachari Chowk, Bhagalpur - BSPCB",13-02-2024 04:00:00,25.251013,86.989001,PM10,116,420,200
India,Bihar,Bhagalpur,"DM Office_Kachari Chowk, Bhagalpur - BSPCB",13-02-2024 04:00:00,25.251013,86.989001,NH3,4,7,5
India,Bihar,Bhagalpur,"Mayaganj, Bhagalpur - BSPCB",13-02-2024 04:00:00,25.265194,87.012947,SO2,10,13,12
India,Bihar,Bihar Sharif,"D M Colony, Bihar Sharif - BSPCB",13-02-2024 04:00:00,25.204762,85.514960,OZONE,2,49,9
India,Bihar,Buxar,"Charitra Van, Buxar - BSPCB (Formerly known as Central Jail)",13-02-2024 04:00:00,25.567520,83.966379,SO2,15,16,16
India,Bihar,Chhapra,"Darshan Nagar, Chhapra - BSPCB",13-02-2024 04:00:00,25.7808257,84.7446768,NO2,18,42,29
India,Bihar,Gaya,"Collectorate, Gaya - BSPCB",13-02-2024 04:00:00,24.7955,84.9994,SO2,16,45,26
India,Bihar,Gaya,"Collectorate, Gaya - BSPCB",13-02-2024 04:00:00,24.7955,84.9994,CO,32,46,36
India,Bihar,Gaya,"Collectorate, Gaya - BSPCB",13-02-2024 04:00:00,24.7955,84.9994,OZONE,52,79,68
India,Bihar,Gaya,"Kareemganj, Gaya - BSPCB",13-02-2024 04:00:00,24.792403,84.992416,PM10,79,257,146
India,Bihar,Gaya,"Kareemganj, Gaya - BSPCB",13-02-2024 04:00:00,24.792403,84.992416,OZONE,2,30,18
India,Bihar,Gaya,"SFTI Kusdihra, Gaya - BSPCB",13-02-2024 04:00:00,24.762518,84.982348,CO,57,111,89
India,Bihar,Hajipur,"Industrial Area, Hajipur - BSPCB",13-02-2024 04:00:00,25.697189,85.245900,OZONE,1,143,6
India,Bihar,Katihar,"Mirchaibari, Katihar - BSPCB",13-02-2024 04:00:00,25.560083,87.553265,NO2,13,40,24
India,Bihar,Katihar,"Mirchaibari, Katihar - BSPCB",13-02-2024 04:00:00,25.560083,87.553265,SO2,14,17,15
India,Bihar,Manguraha,"Forest Rest House, Manguraha - BSPCB",13-02-2024 04:00:00,27.308328,84.531742,NO2,11,22,15
India,Bihar,Munger,"Town Hall, Munger - BSPCB",13-02-2024 04:00:00,25.376776,86.471523,CO,2,27,14
India,Bihar,Muzaffarpur,"Buddha Colony, Muzaffarpur - BSPCB",13-02-2024 04:00:00,26.11442,85.39813,NO2,28,96,51
India,Bihar,Muzaffarpur,"MIT-Daudpur Kothi, Muzaffarpur - BSPCB",13-02-2024 04:00:00,26.1403345,85.3650192,NH3,2,4,3
India,Bihar,Muzaffarpur,"MIT-Daudpur Kothi, Muzaffarpur - BSPCB",13-02-2024 04:00:00,26.1403345,85.3650192,OZONE,6,87,6
India,Bihar,Muzaffarpur,"Muzaffarpur Collectorate, Muzaffarpur - BSPCB",13-02-2024 04:00:00,26.1209,85.3647,PM2.5,103,367,260
India,Bihar,Patna,"DRM Office Danapur, Patna - BSPCB",13-02-2024 04:00:00,25.586562,85.043586,OZONE,NA,NA,NA
India,Bihar,Patna,"Govt. High School Shikarpur, Patna - BSPCB",13-02-2024 04:00:00,25.592539,85.227158,NH3,2,4,3
India,Bihar,Patna,"IGSC Planetarium Complex, Patna - BSPCB",13-02-2024 04:00:00,25.610369,85.132568,OZONE,5,64,33
India,Bihar,Patna,"Muradpur, Patna - BSPCB",13-02-2024 04:00:00,25.619651,85.147382,PM2.5,84,364,279
India,Bihar,Patna,"Muradpur, Patna - BSPCB",13-02-2024 04:00:00,25.619651,85.147382,OZONE,28,123,32
India,Bihar,Patna,"Rajbansi Nagar, Patna - BSPCB",13-02-2024 04:00:00,25.599486,85.113666,CO,46,126,83
India,Bihar,Patna,"Rajbansi Nagar, Patna - BSPCB",13-02-2024 04:00:00,25.599486,85.113666,OZONE,2,90,4
India,Bihar,Patna,"Samanpura, Patna - BSPCB",13-02-2024 04:00:00,25.596727,85.085624,SO2,15,17,16
India,Bihar,Patna,"Samanpura, Patna - BSPCB",13-02-2024 04:00:00,25.596727,85.085624,OZONE,2,173,50
India,Bihar,Purnia,"Mariam Nagar, Purnia - BSPCB",13-02-2024 04:00:00,25.366336,87.117468,OZONE,9,53,11
India,Bihar,Saharsa,"Police Line, Saharsa - BSPCB",13-02-2024 04:00:00,25.892357,86.590325,PM10,60,331,153
India,Bihar,Samastipur,"DM Office_Kasipur, Samastipur - BSPCB",13-02-2024 04:00:00,25.859655,85.77944,SO2,8,14,12
India,Bihar,Samastipur,"DM Office_Kasipur, Samastipur - BSPCB",13-02-2024 04:00:00,25.859655,85.77944,CO,12,31,25
India,Bihar,Sasaram,"Dada Peer, Sasaram - BSPCB",13-02-2024 04:00:00,24.952822,84.002396,PM2.5,52,249,137
India,Bihar,Sasaram,"Dada Peer, Sasaram - BSPCB",13-02-2024 04:00:00,24.952822,84.002396,NO2,6,20,12
India,Bihar,Siwan,"Chitragupta Nagar, Siwan - BSPCB",13-02-2024 04:00:00,26.2271665,84.3570427,PM2.5,NA,NA,NA
India,Bihar,Siwan,"Chitragupta Nagar, Siwan - BSPCB",13-02-2024 04:00:00,26.2271665,84.3570427,NH3,1,21,7
India,Bihar,Siwan,"Chitragupta Nagar, Siwan - BSPCB",13-02-2024 04:00:00,26.2271665,84.3570427,SO2,NA,NA,NA
India,Chandigarh,Chandigarh,"Sector-25, Chandigarh - CPCC",13-02-2024 04:00:00,30.751462,76.762879,OZONE,4,69,12
India,Chandigarh,Chandigarh,"Sector-53, Chandigarh - CPCC",13-02-2024 04:00:00,30.719859,76.738637,NH3,6,9,8
India,Chhattisgarh,Bhilai,"32Bungalows, Bhilai - CECB",13-02-2024 04:00:00,21.194815,81.314770,NO2,17,26,21
India,Chhattisgarh,Bhilai,"Civic Center, Bhilai - Bhilai Steel Plant",13-02-2024 04:00:00,21.185571,81.343175,NH3,NA,NA,NA
India,Chhattisgarh,Bhilai,"Hathkhoj, Bhilai - CECB",13-02-2024 04:00:00,21.224231,81.408350,CO,23,38,30
India,Chhattisgarh,Bilaspur,"Mangala, Bilaspur - NTPC",13-02-2024 04:00:00,22.08815,82.13737,CO,25,50,45
India,Chhattisgarh,Chhal,"Nawapara SECL Colony, Chhal - CECB",13-02-2024 04:00:00,22.118125,83.140608,PM2.5,23,85,62
India,Chhattisgarh,Chhal,"Nawapara SECL Colony, Chhal - CECB",13-02-2024 04:00:00,22.118125,83.140608,NO2,13,79,36
India,Chhattisgarh,Chhal,"Nawapara SECL Colony, Chhal - CECB",13-02-2024 04:00:00,22.118125,83.140608,OZONE,9,46,13
India,Chhattisgarh,Korba,"Rampur, Korba - CECB",13-02-2024 04:00:00,22.368195,82.746431,NO2,37,49,42
India,Chhattisgarh,Korba,"Rampur, Korba - CECB",13-02-2024 04:00:00,22.368195,82.746431,NH3,3,5,4
India,Chhattisgarh,Korba,"Urja Nagar, Korba - CECB",13-02-2024 04:00:00,22.348441,82.549611,PM2.5,3,8,6
India,Chhattisgarh,Korba,"Urja Nagar, Korba - CECB",13-02-2024 04:00:00,22.348441,82.549611,CO,29,64,57
India,Chhattisgarh,Kunjemura,"OP Jindal School, Kunjemura - CECB",13-02-2024 04:00:00,22.126650,83.483212,PM10,21,74,42
India,Chhattisgarh,Kunjemura,"OP Jindal School, Kunjemura - CECB",13-02-2024 04:00:00,22.126650,83.483212,NO2,26,90,47
India,Chhattisgarh,Milupara,"Govt. Higher Secondary School, Milupara - CECB",13-02-2024 04:00:00,22.1910172,83.5197009,NH3,1,2,2
India,Chhattisgarh,Raipur,"Siltara Phase-II, Raipur - CECB",13-02-2024 04:00:00,21.371751,81.664929,NH3,2,3,3
India,Chhattisgarh,Tumidih,"OP Jindal Industrial Park, Tumidih - CECB",13-02-2024 04:00:00,22.06631475,83.33820077,PM2.5,19,57,40
India,Delhi,Delhi,"Alipur, Delhi - DPCC",13-02-2024 04:00:00,28.815329,77.153010,PM10,132,375,220
India,Delhi,Delhi,"Ashok Vihar, Delhi - DPCC",13-02-2024 04:00:00,28.695381,77.181665,NO2,52,156,96
India,Delhi,Delhi,"Ashok Vihar, Delhi - DPCC",13-02-2024 04:00:00,28.695381,77.181665,CO,20,108,90
India,Delhi,Delhi,"Ashok Vihar, Delhi - DPCC",13-02-2024 04:00:00,28.695381,77.181665,OZONE,4,24,5
India,Delhi,Delhi,"Aya Nagar, Delhi - IMD",13-02-2024 04:00:00,28.4706914,77.1099364,OZONE,5,25,24
India,Delhi,Delhi,"Bawana, Delhi - DPCC",13-02-2024 04:00:00,28.776200,77.051074,NO2,25,87,47
India,Delhi,Delhi,"DTU, Delhi - CPCB",13-02-2024 04:00:00,28.7500499,77.1112615,NO2,11,66,47
India,Delhi,Delhi,"DTU, Delhi - CPCB",13-02-2024 04:00:00,28.7500499,77.1112615,NH3,12,24,16
India,Delhi,Delhi,"Dr. Karni Singh Shooting Range, Delhi - DPCC",13-02-2024 04:00:00,28.498571,77.264840,NO2,41,166,107
India,Delhi,Delhi,"Dr. Karni Singh Shooting Range, Delhi - DPCC",13-02-2024 04:00:00,28.498571,77.264840,NH3,7,10,9
India,Delhi,Delhi,"Dwarka-Sector 8, Delhi - DPCC ",13-02-2024 04:00:00,28.5710274,77.0719006,PM10,200,499,318
India,Delhi,Delhi,"Dwarka-Sector 8, Delhi - DPCC ",13-02-2024 04:00:00,28.5710274,77.0719006,OZONE,1,79,1
India,Delhi,Delhi,"Jahangirpuri, Delhi - DPCC",13-02-2024 04:00:00,28.732820,77.170633,CO,51,107,103
India,Delhi,Delhi,"Jawaharlal Nehru Stadium, Delhi - DPCC",13-02-2024 04:00:00,28.580280,77.233829,NH3,12,15,13
India,Delhi,Delhi,"Jawaharlal Nehru Stadium, Delhi - DPCC",13-02-2024 04:00:00,28.580280,77.233829,CO,43,110,102
India,Delhi,Delhi,"Jawaharlal Nehru Stadium, Delhi - DPCC",13-02-2024 04:00:00,28.580280,77.233829,OZONE,1,159,2
India,Delhi,Delhi,"Lodhi Road, Delhi - IMD",13-02-2024 04:00:00,28.5918245,77.2273074,OZONE,14,91,15
India,Delhi,Delhi,"Major Dhyan Chand National Stadium, Delhi - DPCC",13-02-2024 04:00:00,28.611281,77.237738,PM10,150,255,206
India,Delhi,Delhi,"Mandir Marg, Delhi - DPCC",13-02-2024 04:00:00,28.636429,77.201067,PM2.5,302,401,337
India,Delhi,Delhi,"Mandir Marg, Delhi - DPCC",13-02-2024 04:00:00,28.636429,77.201067,NO2,97,151,124
India,Delhi,Delhi,"Najafgarh, Delhi - DPCC",13-02-2024 04:00:00,28.570173,76.933762,PM2.5,187,337,286
India,Delhi,Delhi,"Narela, Delhi - DPCC",13-02-2024 04:00:00,28.822836,77.101981,SO2,4,20,10
India,Delhi,Delhi,"North Campus, DU, Delhi - IMD",13-02-2024 04:00:00,28.6573814,77.1585447,PM2.5,217,364,319
India,Delhi,Delhi,"North Campus, DU, Delhi - IMD",13-02-2024 04:00:00,28.6573814,77.1585447,OZONE,8,50,9
India,Delhi,Delhi,"Patparganj, Delhi - DPCC",13-02-2024 04:00:00,28.623763,77.287209,PM10,173,386,277
India,Delhi,Delhi,"Patparganj, Delhi - DPCC",13-02-2024 04:00:00,28.623763,77.287209,NO2,47,84,59
India,Delhi,Delhi,"Patparganj, Delhi - DPCC",13-02-2024 04:00:00,28.623763,77.287209,SO2,8,12,11
India,Delhi,Delhi,"Punjabi Bagh, Delhi - DPCC",13-02-2024 04:00:00,28.674045,77.131023,NO2,43,87,60
India,Delhi,Delhi,"Punjabi Bagh, Delhi - DPCC",13-02-2024 04:00:00,28.674045,77.131023,NH3,7,12,9
India,Delhi,Delhi,"Pusa, Delhi - DPCC",13-02-2024 04:00:00,28.639652,77.146275,SO2,3,22,13
India,Delhi,Delhi,"Pusa, Delhi - DPCC",13-02-2024 04:00:00,28.639652,77.146275,CO,2,109,88
India,Delhi,Delhi,"Pusa, Delhi - DPCC",13-02-2024 04:00:00,28.639652,77.146275,OZONE,15,74,16
India,Delhi,Delhi,"R K Puram, Delhi - DPCC",13-02-2024 04:00:00,28.563262,77.186937,OZONE,7,166,12
India,Delhi,Delhi,"Rohini, Delhi - DPCC",13-02-2024 04:00:00,28.732528,77.119920,PM10,181,430,294
India,Delhi,Delhi,"Shadipur, Delhi - CPCB",13-02-2024 04:00:00,28.6514781,77.1473105,NH3,1,33,16
India,Delhi,Delhi,"Sirifort, Delhi - CPCB",13-02-2024 04:00:00,28.5504249,77.2159377,PM10,70,106,90
India,Delhi,Delhi,"Sonia Vihar, Delhi - DPCC",13-02-2024 04:00:00,28.710508,77.249485,PM10,156,408,254
India,Delhi,Delhi,"Sonia Vihar, Delhi - DPCC",13-02-2024 04:00:00,28.710508,77.249485,NO2,33,126,61
India,Delhi,Delhi,"Sri Aurobindo Marg, Delhi - DPCC",13-02-2024 04:00:00,28.531346,77.190156,PM2.5,309,385,336
India,Delhi,Delhi,"Sri Aurobindo Marg, Delhi - DPCC",13-02-2024 04:00:00,28.531346,77.190156,NO2,16,104,53
India,Delhi,Delhi,"Sri Aurobindo Marg, Delhi - DPCC",13-02-2024 04:00:00,28.531346,77.190156,SO2,8,58,14
India,Delhi,Delhi,"Sri Aurobindo Marg, Delhi - DPCC",13-02-2024 04:00:00,28.531346,77.190156,CO,38,122,72
India,Delhi,Delhi,"Vivek Vihar, Delhi - DPCC",13-02-2024 04:00:00,28.672342,77.315260,NO2,57,115,81
India,Delhi,Delhi,"Wazirpur, Delhi - DPCC",13-02-2024 04:00:00,28.699793,77.165453,PM2.5,310,434,369
India,Gujarat,Ahmedabad,"Chandkheda, Ahmedabad - IITM",13-02-2024 04:00:00,23.107969,72.574648,PM2.5,46,318,121
India,Gujarat,Ahmedabad,"Chandkheda, Ahmedabad - IITM",13-02-2024 04:00:00,23.107969,72.574648,CO,2,46,30
India,Gujarat,Ahmedabad,"Raikhad, Ahmedabad - IITM",13-02-2024 04:00:00,23.020509,72.579261,NO2,17,45,24
India,Gujarat,Ahmedabad,"Rakhial, Ahmedabad - IITM",13-02-2024 04:00:00,23.016834,72.625775,PM2.5,52,243,109
India,Gujarat,Ahmedabad,"Rakhial, Ahmedabad - IITM",13-02-2024 04:00:00,23.016834,72.625775,NO2,60,77,69
India,Gujarat,Ahmedabad,"SAC ISRO Bopal, Ahmedabad - IITM",13-02-2024 04:00:00,23.041137,72.456691,NH3,4,5,4
India,Gujarat,Ahmedabad,"SAC ISRO Satellite, Ahmedabad - IITM",13-02-2024 04:00:00,23.023389,72.515201,PM10,86,123,93
India,Gujarat,Ahmedabad,"SAC ISRO Satellite, Ahmedabad - IITM",13-02-2024 04:00:00,23.023389,72.515201,CO,35,45,36
India,Gujarat,Ankleshwar,"GIDC, Ankleshwar - GPCB",13-02-2024 04:00:00,21.613267,73.010555,PM10,52,135,106
India,Gujarat,Ankleshwar,"GIDC, Ankleshwar - GPCB",13-02-2024 04:00:00,21.613267,73.010555,CO,8,83,45
India,Gujarat,Gandhinagar,"GIFT City, Gandhinagar - IITM",13-02-2024 04:00:00,23.163798,72.677768,NO2,19,52,36
India,Gujarat,Gandhinagar,"IIPHG Lekawada, Gandhinagar - IITM",13-02-2024 04:00:00,23.243639,72.68994,PM10,88,164,109
India,Gujarat,Gandhinagar,"IIPHG Lekawada, Gandhinagar - IITM",13-02-2024 04:00:00,23.243639,72.68994,SO2,3,120,40
India,Gujarat,Gandhinagar,"IIPHG Lekawada, Gandhinagar - IITM",13-02-2024 04:00:00,23.243639,72.68994,CO,14,44,22
India,Gujarat,Gandhinagar,"Sector-10, Gandhinagar - GPCB",13-02-2024 04:00:00,23.221714,72.654328,PM2.5,30,51,38
India,Gujarat,Gandhinagar,"Sector-10, Gandhinagar - GPCB",13-02-2024 04:00:00,23.221714,72.654328,NO2,3,13,7
India,Gujarat,Gandhinagar,"Sector-10, Gandhinagar - GPCB",13-02-2024 04:00:00,23.221714,72.654328,NH3,1,2,2
India,Gujarat,Gandhinagar,"Sector-10, Gandhinagar - GPCB",13-02-2024 04:00:00,23.221714,72.654328,SO2,5,40,10
India,Gujarat,Surat,"Science Center, Surat - SMC",13-02-2024 04:00:00,21.170046,72.795405,PM10,35,117,77
India,Gujarat,Vapi,"Phase-1 GIDC, Vapi - GPCB",13-02-2024 04:00:00,20.362421,72.918013,NH3,16,76,34
India,Gujarat,Vatva,"Phase-4 GIDC, Vatva - GPCB",13-02-2024 04:00:00,22.969611,72.643500,PM2.5,55,242,96
India,Gujarat,Vatva,"Phase-4 GIDC, Vatva - GPCB",13-02-2024 04:00:00,22.969611,72.643500,NH3,1,1,1
India,Haryana,Ambala,"Patti Mehar, Ambala - HSPCB",13-02-2024 04:00:00,30.379589,76.778328,PM10,54,99,75
India,Haryana,Ambala,"Patti Mehar, Ambala - HSPCB",13-02-2024 04:00:00,30.379589,76.778328,NO2,2,3,3
India,Haryana,Bahadurgarh,"Arya Nagar, Bahadurgarh - HSPCB",13-02-2024 04:00:00,28.6701,76.9254,PM2.5,146,301,242
India,Haryana,Bahadurgarh,"Arya Nagar, Bahadurgarh - HSPCB",13-02-2024 04:00:00,28.6701,76.9254,OZONE,40,50,44
India,Haryana,Ballabgarh,"Nathu Colony, Ballabgarh - HSPCB",13-02-2024 04:00:00,28.3419248,77.319699,NH3,1,2,2
India,Haryana,Charkhi Dadri,"Mini Secretariat, Charkhi Dadri - HSPCB",13-02-2024 04:00:00,28.593883,76.270653,NO2,10,17,13
India,Haryana,Charkhi Dadri,"Mini Secretariat, Charkhi Dadri - HSPCB",13-02-2024 04:00:00,28.593883,76.270653,SO2,6,22,11
India,Haryana,Dharuhera,"Municipal Corporation Office, Dharuhera -  HSPCB",13-02-2024 04:00:00,28.206800,76.799700,NO2,44,110,69
India,Haryana,Dharuhera,"Municipal Corporation Office, Dharuhera -  HSPCB",13-02-2024 04:00:00,28.206800,76.799700,SO2,2,13,8
India,Haryana,Faridabad,"Sector 11, Faridabad - HSPCB",13-02-2024 04:00:00,28.376058,77.315741,CO,40,86,73
India,Haryana,Faridabad,"Sector 11, Faridabad - HSPCB",13-02-2024 04:00:00,28.376058,77.315741,OZONE,3,14,5
India,Haryana,Faridabad,"Sector 30, Faridabad - HSPCB",13-02-2024 04:00:00,28.4417,77.3217,PM10,116,131,123
India,Haryana,Fatehabad,"Huda Sector, Fatehabad - HSPCB",13-02-2024 04:00:00,29.503664,75.467934,NO2,24,25,25
India,Haryana,Fatehabad,"Huda Sector, Fatehabad - HSPCB",13-02-2024 04:00:00,29.503664,75.467934,NH3,8,9,9
India,Haryana,Gurugram,"Teri Gram, Gurugram - HSPCB",13-02-2024 04:00:00,28.4275,77.1465,PM10,211,404,282
India,Haryana,Gurugram,"Teri Gram, Gurugram - HSPCB",13-02-2024 04:00:00,28.4275,77.1465,CO,24,69,61
India,Haryana,Gurugram,"Vikas Sadan, Gurugram - HSPCB",13-02-2024 04:00:00,28.4501238,77.0263051,CO,54,140,105
India,Haryana,Hisar,"Urban Estate-II, Hisar - HSPCB",13-02-2024 04:00:00,29.140560,75.744941,NO2,7,9,8
India,Haryana,Kaithal,"Rishi Nagar, Kaithal - HSPCB",13-02-2024 04:00:00,29.8006,76.4155,CO,4,42,15
India,Haryana,Karnal,"Sector-12, Karnal - HSPCB",13-02-2024 04:00:00,29.695300,77.002700,PM2.5,68,303,110
India,Haryana,Karnal,"Sector-12, Karnal - HSPCB",13-02-2024 04:00:00,29.695300,77.002700,PM10,79,182,115
India,Haryana,Karnal,"Sector-12, Karnal - HSPCB",13-02-2024 04:00:00,29.695300,77.002700,NH3,10,13,11
India,Haryana,Mandikhera,"General Hospital, Mandikhera - HSPCB",13-02-2024 04:00:00,27.9002,76.9938,CO,40,60,50
India,Haryana,Manesar,"Sector-2 IMT, Manesar - HSPCB",13-02-2024 04:00:00,28.360699,76.936090,NO2,11,12,11
India,Haryana,Manesar,"Sector-2 IMT, Manesar - HSPCB",13-02-2024 04:00:00,28.360699,76.936090,CO,33,69,56
India,Haryana,Narnaul,"Shastri Nagar, Narnaul - HSPCB",13-02-2024 04:00:00,28.060249,76.113115,NO2,16,58,34
India,Haryana,Narnaul,"Shastri Nagar, Narnaul - HSPCB",13-02-2024 04:00:00,28.060249,76.113115,NH3,5,18,11
India,Haryana,Palwal,"Shyam Nagar, Palwal - HSPCB",13-02-2024 04:00:00,28.1485564,77.3320667,NO2,4,6,5
India,Haryana,Rohtak,"MD University, Rohtak - HSPCB",13-02-2024 04:00:00,28.52123,76.37138,PM2.5,57,222,143
India,Haryana,Rohtak,"MD University, Rohtak - HSPCB",13-02-2024 04:00:00,28.52123,76.37138,NO2,41,59,51
India,Haryana,Sonipat,"Murthal, Sonipat - HSPCB",13-02-2024 04:00:00,29.027200,77.062100,NH3,7,10,9
India,Haryana,Sonipat,"Murthal, Sonipat - HSPCB",13-02-2024 04:00:00,29.027200,77.062100,CO,22,34,31
India,Haryana,Yamuna Nagar,"Gobind Pura, Yamuna Nagar - HSPCB",13-02-2024 04:00:00,30.1480566,77.2893471,CO,30,65,56
India,Himachal Pradesh,Baddi,"HIMUDA Complex Phase-1, Baddi - HPPCB",13-02-2024 04:00:00,30.943887,76.801991,SO2,25,129,71
India,Jharkhand,Dhanbad,"Kalakusuma, Dhanbad - DMC",13-02-2024 04:00:00,23.811548,86.481238,CO,82,101,96
India,Jharkhand,Dhanbad,"Sardar Patel Nagar, Dhanbad - JSPCB",13-02-2024 04:00:00,23.80569,86.44268,NO2,NA,NA,NA
India,Jharkhand,Pathardih,"Mohalbani Ghat, Pathardih - DMC",13-02-2024 04:00:00,23.669880,86.411725,PM10,NA,NA,NA
India,Karnataka,Belgaum,"Ramteerth Nagar, Belgaum - KSPCB",13-02-2024 04:00:00,15.888653,74.541751,PM10,42,113,73
India,Karnataka,Belgaum,"Ramteerth Nagar, Belgaum - KSPCB",13-02-2024 04:00:00,15.888653,74.541751,OZONE,19,20,20
India,Karnataka,Bengaluru,"BTM Layout, Bengaluru - CPCB",13-02-2024 04:00:00,12.9135218,77.5950804,CO,22,42,37
India,Karnataka,Bengaluru,"City Railway Station, Bengaluru - KSPCB",13-02-2024 04:00:00,12.9756843,77.5660749,NO2,24,32,28
India,Karnataka,Bengaluru,"City Railway Station, Bengaluru - KSPCB",13-02-2024 04:00:00,12.9756843,77.5660749,CO,52,88,72
India,Karnataka,Bengaluru,"Hebbal, Bengaluru - KSPCB",13-02-2024 04:00:00,13.029152,77.585901,NO2,4,5,5
India,Karnataka,Bengaluru,"Hebbal, Bengaluru - KSPCB",13-02-2024 04:00:00,13.029152,77.585901,CO,15,32,23
India,Karnataka,Bengaluru,"Hombegowda Nagar, Bengaluru - KSPCB",13-02-2024 04:00:00,12.938539,77.590100,PM2.5,35,74,53
India,Karnataka,Bengaluru,"Hombegowda Nagar, Bengaluru - KSPCB",13-02-2024 04:00:00,12.938539,77.590100,NH3,2,3,2
India,Karnataka,Bengaluru,"Hombegowda Nagar, Bengaluru - KSPCB",13-02-2024 04:00:00,12.938539,77.590100,CO,16,22,18
India,Karnataka,Bengaluru,"Jayanagar 5th Block, Bengaluru - KSPCB",13-02-2024 04:00:00,12.920984,77.584908,PM10,NA,NA,NA
India,Karnataka,Bengaluru,"Jayanagar 5th Block, Bengaluru - KSPCB",13-02-2024 04:00:00,12.920984,77.584908,NH3,2,3,3
India,Karnataka,Bengaluru,"Jayanagar 5th Block, Bengaluru - KSPCB",13-02-2024 04:00:00,12.920984,77.584908,CO,14,32,23
India,Karnataka,Bengaluru,"Jigani, Bengaluru - KSPCB",13-02-2024 04:00:00,12.7816279,77.6299145,PM2.5,NA,NA,NA
India,Karnataka,Bengaluru,"Jigani, Bengaluru - KSPCB",13-02-2024 04:00:00,12.7816279,77.6299145,CO,38,66,59
India,Karnataka,Bengaluru,"Kasturi Nagar, Bengaluru - KSPCB",13-02-2024 04:00:00,13.003872,77.664217,PM10,45,168,129
India,Karnataka,Bengaluru,"Kasturi Nagar, Bengaluru - KSPCB",13-02-2024 04:00:00,13.003872,77.664217,SO2,9,10,10
India,Karnataka,Bengaluru,"Kasturi Nagar, Bengaluru - KSPCB",13-02-2024 04:00:00,13.003872,77.664217,OZONE,33,92,78
India,Karnataka,Bengaluru,"Peenya, Bengaluru - CPCB",13-02-2024 04:00:00,13.0270199,77.494094,NH3,3,3,3
India,Karnataka,Bengaluru,"Sanegurava Halli, Bengaluru - KSPCB",13-02-2024 04:00:00,12.990328,77.5431385,SO2,1,3,2
India,Karnataka,Bengaluru,"Shivapura_Peenya, Bengaluru - KSPCB",13-02-2024 04:00:00,13.0246342,77.5080115,NO2,15,16,15
India,Karnataka,Bidar,"Naubad, Bidar - KSPCB",13-02-2024 04:00:00,17.930306,77.482194,SO2,15,19,16
India,Karnataka,Chamarajanagar,"Urban, Chamarajanagar - KSPCB",13-02-2024 04:00:00,11.55358,76.55521,PM10,35,63,45
India,Karnataka,Chikkamagaluru,"Kalyana Nagara, Chikkamagaluru - KSPCB",13-02-2024 04:00:00,13.328028,75.797056,NO2,21,34,28
India,Karnataka,Dharwad,"Kalabhavan, Dharwad - KSPCB",13-02-2024 04:00:00,15.459706,75.008381,PM2.5,52,93,76
India,Karnataka,Gadag,"Panchal Nagar, Gadag - KSPCB",13-02-2024 04:00:00,15.411456,75.638133,NO2,3,22,13
India,Karnataka,Hassan,"B.Katihalli, Hassan - KSPCB",13-02-2024 04:00:00,13.008556,76.125258,PM2.5,42,83,56
India,Karnataka,Hassan,"B.Katihalli, Hassan - KSPCB",13-02-2024 04:00:00,13.008556,76.125258,SO2,6,11,9
India,Karnataka,Haveri,"Ashwini Nagar, Haveri - KSPCB",13-02-2024 04:00:00,14.791800,75.389600,PM10,NA,NA,NA
India,Karnataka,Haveri,"Ashwini Nagar, Haveri - KSPCB",13-02-2024 04:00:00,14.791800,75.389600,NO2,26,33,31
India,Karnataka,Haveri,"Ashwini Nagar, Haveri - KSPCB",13-02-2024 04:00:00,14.791800,75.389600,NH3,2,3,3
India,Karnataka,Hubballi,"Lingaraj Nagar, Hubballi - KSPCB",13-02-2024 04:00:00,15.3714823,75.1160168,CO,10,101,69
India,Karnataka,Karwar,"KHB Colony, Karwar - KSPCB",13-02-2024 04:00:00,14.816666,74.141003,PM10,73,187,102
India,Karnataka,Kolar,"Tamaka Ind. Area, Kolar - KSPCB",13-02-2024 04:00:00,13.1276288,78.1570122,OZONE,NA,NA,NA
India,Karnataka,Madikeri,"Stuart Hill, Madikeri - KSPCB",13-02-2024 04:00:00,12.415911,75.735050,PM2.5,12,52,31
India,Karnataka,Madikeri,"Stuart Hill, Madikeri - KSPCB",13-02-2024 04:00:00,12.415911,75.735050,OZONE,30,52,34
India,Karnataka,Mangalore,"Kadri, Mangalore - KSPCB",13-02-2024 04:00:00,12.889250,74.853000,PM2.5,15,88,62
India,Karnataka,Mangalore,"Kadri, Mangalore - KSPCB",13-02-2024 04:00:00,12.889250,74.853000,NH3,1,2,2
India,Karnataka,Mysuru,"Hebbal 1st Stage, Mysuru - KSPCB",13-02-2024 04:00:00,12.21041,76.37376,PM10,46,72,55
India,Karnataka,Mysuru,"Hebbal 1st Stage, Mysuru - KSPCB",13-02-2024 04:00:00,12.21041,76.37376,NO2,9,34,21
India,Karnataka,Mysuru,"Hebbal 1st Stage, Mysuru - KSPCB",13-02-2024 04:00:00,12.21041,76.37376,NH3,1,3,2
India,Karnataka,Mysuru,"Hebbal 1st Stage, Mysuru - KSPCB",13-02-2024 04:00:00,12.21041,76.37376,OZONE,12,90,43
India,Karnataka,Raichur,"Haji Colony, Raichur - KSPCB",13-02-2024 04:00:00,16.208139,77.348417,PM10,38,136,82
India,Karnataka,Raichur,"Haji Colony, Raichur - KSPCB",13-02-2024 04:00:00,16.208139,77.348417,NO2,13,45,27
India,Karnataka,Raichur,"Haji Colony, Raichur - KSPCB",13-02-2024 04:00:00,16.208139,77.348417,CO,79,111,99
India,Karnataka,Raichur,"Haji Colony, Raichur - KSPCB",13-02-2024 04:00:00,16.208139,77.348417,OZONE,3,12,6
India,Karnataka,Ramanagara,"Vijay Nagar, Ramanagara - KSPCB",13-02-2024 04:00:00,12.733409,77.298051,NO2,2,20,6
India,Karnataka,Ramanagara,"Vijay Nagar, Ramanagara - KSPCB",13-02-2024 04:00:00,12.733409,77.298051,CO,4,41,11
India,Karnataka,Tumakuru,"Thimmalapura, Tumakuru - KSPCB",13-02-2024 04:00:00,13.377516,77.099072,PM2.5,15,26,20
India,Karnataka,Tumakuru,"Thimmalapura, Tumakuru - KSPCB",13-02-2024 04:00:00,13.377516,77.099072,SO2,8,22,12
India,Karnataka,Vijayapura,"Ibrahimpur, Vijayapura - KSPCB",13-02-2024 04:00:00,16.802639,75.722694,NH3,2,2,2
India,Karnataka,Yadgir,"Collector Office, Yadgir - KSPCB",13-02-2024 04:00:00,16.7602,77.1428,PM2.5,25,81,61
India,Kerala,Eloor,"Udyogamandal, Eloor - Kerala PCB",13-02-2024 04:00:00,10.073232,76.302765,PM2.5,31,54,45
India,Kerala,Eloor,"Udyogamandal, Eloor - Kerala PCB",13-02-2024 04:00:00,10.073232,76.302765,PM10,34,48,42
India,Kerala,Eloor,"Udyogamandal, Eloor - Kerala PCB",13-02-2024 04:00:00,10.073232,76.302765,SO2,1,3,2
India,Kerala,Kannur,"Thavakkara, Kannur - Kerala PCB",13-02-2024 04:00:00,11.875000,75.373200,PM10,58,68,64
India,Kerala,Kannur,"Thavakkara, Kannur - Kerala PCB",13-02-2024 04:00:00,11.875000,75.373200,NO2,6,7,6
India,Kerala,Kannur,"Thavakkara, Kannur - Kerala PCB",13-02-2024 04:00:00,11.875000,75.373200,CO,30,36,34
India,Kerala,Kochi,"Vyttila, Kochi - Kerala PCB",13-02-2024 04:00:00,9.969447,76.321186,PM2.5,49,159,100
India,Kerala,Kollam,"Polayathode, Kollam - Kerala PCB",13-02-2024 04:00:00,8.8787,76.6073,PM2.5,85,228,149
India,Kerala,Kollam,"Polayathode, Kollam - Kerala PCB",13-02-2024 04:00:00,8.8787,76.6073,CO,7,53,25
India,Kerala,Kollam,"Polayathode, Kollam - Kerala PCB",13-02-2024 04:00:00,8.8787,76.6073,OZONE,30,37,32
India,Kerala,Thiruvananthapuram,"Kariavattom, Thiruvananthapuram - Kerala PCB",13-02-2024 04:00:00,8.563700,76.886500,PM10,76,89,83
India,Kerala,Thiruvananthapuram,"Kariavattom, Thiruvananthapuram - Kerala PCB",13-02-2024 04:00:00,8.563700,76.886500,NH3,1,1,1
India,Kerala,Thiruvananthapuram,"Kariavattom, Thiruvananthapuram - Kerala PCB",13-02-2024 04:00:00,8.563700,76.886500,SO2,3,12,8
India,Kerala,Thiruvananthapuram,"Plammoodu, Thiruvananthapuram - Kerala PCB",13-02-2024 04:00:00,8.5149093,76.9435879,CO,22,44,33
India,Kerala,Thiruvananthapuram,"Plammoodu, Thiruvananthapuram - Kerala PCB",13-02-2024 04:00:00,8.5149093,76.9435879,OZONE,12,56,21
India,Kerala,Thrissur,"Corporation Ground, Thrissur - Kerala PCB",13-02-2024 04:00:00,10.532400,76.215900,PM2.5,NA,NA,NA
India,Kerala,Thrissur,"Corporation Ground, Thrissur - Kerala PCB",13-02-2024 04:00:00,10.532400,76.215900,NO2,NA,NA,NA
India,Kerala,Thrissur,"Corporation Ground, Thrissur - Kerala PCB",13-02-2024 04:00:00,10.532400,76.215900,OZONE,36,40,38
India,Madhya Pradesh,Bhopal,"T T Nagar, Bhopal - MPPCB",13-02-2024 04:00:00,23.233584,77.400574,SO2,13,50,29
India,Madhya Pradesh,Dewas,"Bhopal Chauraha, Dewas - MPPCB",13-02-2024 04:00:00,22.9682591,76.064118,PM10,96,214,133
India,Madhya Pradesh,Gwalior,"City Center, Gwalior - MPPCB",13-02-2024 04:00:00,26.203442,78.193251,CO,13,115,82
India,Madhya Pradesh,Gwalior,"Deen Dayal Nagar, Gwalior - MPPCB",13-02-2024 04:00:00,26.259242,78.216432,NH3,5,11,7
India,Madhya Pradesh,Gwalior,"Maharaj Bada, Gwalior - MPPCB",13-02-2024 04:00:00,26.200388,78.147714,PM2.5,123,345,249
India,Madhya Pradesh,Gwalior,"Phool Bagh, Gwalior - Mondelez Ind. Food",13-02-2024 04:00:00,26.210536,78.171,SO2,10,15,12
India,Madhya Pradesh,Jabalpur,"Gupteshwar, Jabalpur - JMC",13-02-2024 04:00:00,23.142888,79.916147,PM10,52,107,71
India,Madhya Pradesh,Katni,"Gole Bazar, Katni - MPPCB",13-02-2024 04:00:00,23.50016,80.23284,OZONE,NA,NA,NA
India,Madhya Pradesh,Maihar,"Sahilara, Maihar - KJS Cements",13-02-2024 04:00:00,24.2613009,80.7231783,PM10,48,94,70
India,Madhya Pradesh,Mandideep,"Sector-D Industrial Area, Mandideep - MPPCB",13-02-2024 04:00:00,23.108440,77.511428,PM2.5,110,280,197
India,Madhya Pradesh,Mandideep,"Sector-D Industrial Area, Mandideep - MPPCB",13-02-2024 04:00:00,23.108440,77.511428,NO2,48,101,74
India,Madhya Pradesh,Pithampur,"Sector-2 Industrial Area, Pithampur - MPPCB",13-02-2024 04:00:00,22.624758,75.675238,SO2,12,15,14
India,Madhya Pradesh,Sagar,"Civil Lines, Sagar - MPPCB",13-02-2024 04:00:00,23.838586,78.759431,PM2.5,130,303,246
India,Madhya Pradesh,Sagar,"Deen Dayal Nagar, Sagar - MPPCB",13-02-2024 04:00:00,23.8640158,78.80289321,CO,48,100,56
India,Madhya Pradesh,Satna,"Bandhavgar Colony, Satna - Birla Cement",13-02-2024 04:00:00,24.58434363,80.8549414,NO2,8,21,12
India,Madhya Pradesh,Satna,"Bandhavgar Colony, Satna - Birla Cement",13-02-2024 04:00:00,24.58434363,80.8549414,CO,20,40,26
India,Madhya Pradesh,Singrauli,"Suryakiran Bhawan NCL, Singrauli - MPPCB",13-02-2024 04:00:00,24.108970,82.645580,PM2.5,58,384,126
India,Maharashtra,Ahmednagar,"Tarakpur, Ahmednagar - MPCB",13-02-2024 04:00:00,19.10122,74.73339,NO2,28,167,80
India,Maharashtra,Amravati,"Shivneri Colony, Amravati - MPCB",13-02-2024 04:00:00,20.9402359,77.7895248,OZONE,34,104,67
India,Maharashtra,Aurangabad,"MIDC Chilkalthana, Aurangabad - MPCB",13-02-2024 04:00:00,19.875620,75.387310,NO2,9,104,46
India,Maharashtra,Aurangabad,"More Chowk Waluj, Aurangabad - MPCB",13-02-2024 04:00:00,19.8389439,75.244448,NO2,32,35,33
India,Maharashtra,Aurangabad,"Rachnakar Colony, Aurangabad - MPCB",13-02-2024 04:00:00,19.863756,75.321188,NO2,16,113,58
India,Maharashtra,Badlapur,"Katrap, Badlapur - MPCB",13-02-2024 04:00:00,19.16485,73.23409,OZONE,1,63,20
India,Maharashtra,Belapur,"CBD Belapur, Belapur - MPCB",13-02-2024 04:00:00,19.0243902,73.0406721,NH3,20,38,26
India,Maharashtra,Bhiwandi,"Gokul Nagar, Bhiwandi - MPCB",13-02-2024 04:00:00,19.309073,73.057223,NO2,NA,NA,NA
India,Maharashtra,Bhiwandi,"Gokul Nagar, Bhiwandi - MPCB",13-02-2024 04:00:00,19.309073,73.057223,NH3,NA,NA,NA
India,Maharashtra,Bhiwandi,"Gokul Nagar, Bhiwandi - MPCB",13-02-2024 04:00:00,19.309073,73.057223,SO2,NA,NA,NA
India,Maharashtra,Bhiwandi,"Gokul Nagar, Bhiwandi - MPCB",13-02-2024 04:00:00,19.309073,73.057223,CO,NA,NA,NA
India,Maharashtra,Boisar,"Khaira, Boisar - MPCB",13-02-2024 04:00:00,19.786089,72.757971,NH3,NA,NA,NA
India,Maharashtra,Boisar,"Khaira, Boisar - MPCB",13-02-2024 04:00:00,19.786089,72.757971,CO,26,67,44
India,Maharashtra,Chandrapur,"Chauhan Colony, Chandrapur - MPCB",13-02-2024 04:00:00,19.962900,79.298714,PM10,NA,NA,NA
India,Maharashtra,Chandrapur,"Chauhan Colony, Chandrapur - MPCB",13-02-2024 04:00:00,19.962900,79.298714,NO2,NA,NA,NA
India,Maharashtra,Chandrapur,"Chauhan Colony, Chandrapur - MPCB",13-02-2024 04:00:00,19.962900,79.298714,CO,NA,NA,NA
India,Maharashtra,Dhule,"Deopur, Dhule - MPCB",13-02-2024 04:00:00,20.918946,74.776388,PM2.5,80,223,135
India,Maharashtra,Dhule,"Deopur, Dhule - MPCB",13-02-2024 04:00:00,20.918946,74.776388,NH3,3,6,4
India,Maharashtra,Dhule,"Deopur, Dhule - MPCB",13-02-2024 04:00:00,20.918946,74.776388,OZONE,11,58,32
India,Maharashtra,Jalgaon,"Prabhat Colony, Jalgaon - MPCB",13-02-2024 04:00:00,21.001264,75.565602,PM2.5,72,308,203
India,Maharashtra,Jalgaon,"Prabhat Colony, Jalgaon - MPCB",13-02-2024 04:00:00,21.001264,75.565602,NO2,16,45,22
India,Maharashtra,Jalgaon,"Prabhat Colony, Jalgaon - MPCB",13-02-2024 04:00:00,21.001264,75.565602,NH3,1,2,1
India,Maharashtra,Jalgaon,"Prabhat Colony, Jalgaon - MPCB",13-02-2024 04:00:00,21.001264,75.565602,CO,11,24,16
India,Maharashtra,Jalna,"Old MIDC, Jalna - MPCB",13-02-2024 04:00:00,19.854616,75.905894,PM10,85,435,174
India,Maharashtra,Jalna,"Old MIDC, Jalna - MPCB",13-02-2024 04:00:00,19.854616,75.905894,CO,2,50,30
India,Maharashtra,Kalyan,"Khadakpada, Kalyan - MPCB",13-02-2024 04:00:00,19.25292,73.142019,CO,8,59,32
India,Maharashtra,Kolhapur,"Shivaji University, Kolhapur - MPCB",13-02-2024 04:00:00,16.6870449,74.2505872,PM10,83,187,137
India,Maharashtra,Kolhapur,"Shivaji University, Kolhapur - MPCB",13-02-2024 04:00:00,16.6870449,74.2505872,NH3,2,9,5
India,Maharashtra,Kolhapur,"Shivaji University, Kolhapur - MPCB",13-02-2024 04:00:00,16.6870449,74.2505872,OZONE,2,130,26
India,Maharashtra,Latur,"Sawe Wadi, Latur - MPCB",13-02-2024 04:00:00,18.39963,76.57452,CO,4,122,56
India,Maharashtra,Mahad,"Kamble Tarf Birwadi, Mahad - MPCB",13-02-2024 04:00:00,18.1023399,73.4783687,NO2,37,40,38
India,Maharashtra,Mahad,"Kamble Tarf Birwadi, Mahad - MPCB",13-02-2024 04:00:00,18.1023399,73.4783687,CO,23,27,24
India,Maharashtra,Malegaon,"Mahesh Nagar, Malegaon - MPCB",13-02-2024 04:00:00,20.555712,74.529236,NO2,5,30,12
India,Maharashtra,Malegaon,"Mahesh Nagar, Malegaon - MPCB",13-02-2024 04:00:00,20.555712,74.529236,CO,48,50,50
India,Maharashtra,Mira-Bhayandar,"Bhayandar West, Mira-Bhayandar - MPCB",13-02-2024 04:00:00,19.296481,72.840923,NO2,14,71,40
India,Maharashtra,Mira-Bhayandar,"Bhayandar West, Mira-Bhayandar - MPCB",13-02-2024 04:00:00,19.296481,72.840923,SO2,3,25,11
India,Maharashtra,Mira-Bhayandar,"Bhayandar West, Mira-Bhayandar - MPCB",13-02-2024 04:00:00,19.296481,72.840923,CO,28,84,48
India,Maharashtra,Mumbai,"Bandra Kurla Complex, Mumbai - MPCB",13-02-2024 04:00:00,19.065931,72.862131,PM10,104,287,150
India,Maharashtra,Mumbai,"Bandra Kurla Complex, Mumbai - MPCB",13-02-2024 04:00:00,19.065931,72.862131,SO2,1,26,9
India,Maharashtra,Mumbai,"Borivali East, Mumbai - IITM",13-02-2024 04:00:00,19.23241,72.86895,NH3,NA,NA,NA
India,Maharashtra,Mumbai,"Borivali East, Mumbai - MPCB",13-02-2024 04:00:00,19.2243333,72.8658113,CO,2,104,4
India,Maharashtra,Mumbai,"Byculla, Mumbai - BMC",13-02-2024 04:00:00,18.9767,72.8380,SO2,1,17,5
India,Maharashtra,Mumbai,"Chakala-Andheri East, Mumbai - IITM",13-02-2024 04:00:00,19.11074,72.86084,CO,50,112,104
India,Maharashtra,Mumbai,"Chhatrapati Shivaji Intl. Airport (T2), Mumbai - MPCB",13-02-2024 04:00:00,19.10078,72.87462,PM2.5,33,57,43
India,Maharashtra,Mumbai,"Chhatrapati Shivaji Intl. Airport (T2), Mumbai - MPCB",13-02-2024 04:00:00,19.10078,72.87462,OZONE,1,24,6
India,Maharashtra,Mumbai,"Colaba, Mumbai - MPCB",13-02-2024 04:00:00,18.910000,72.820000,NO2,20,30,23
India,Maharashtra,Mumbai,"Colaba, Mumbai - MPCB",13-02-2024 04:00:00,18.910000,72.820000,CO,13,20,13
India,Maharashtra,Mumbai,"Ghatkopar, Mumbai - BMC",13-02-2024 04:00:00,19.083694,72.920967,NH3,1,2,1
India,Maharashtra,Mumbai,"Kandivali East, Mumbai - MPCB",13-02-2024 04:00:00,19.205800,72.868200,NH3,3,16,8
India,Maharashtra,Mumbai,"Kherwadi_Bandra East, Mumbai - MPCB",13-02-2024 04:00:00,19.0632143,72.8456324,SO2,7,42,19
India,Maharashtra,Mumbai,"Khindipada-Bhandup West, Mumbai - IITM",13-02-2024 04:00:00,19.1653323,72.922099,PM2.5,46,206,102
India,Maharashtra,Mumbai,"Khindipada-Bhandup West, Mumbai - IITM",13-02-2024 04:00:00,19.1653323,72.922099,PM10,54,158,106
India,Maharashtra,Mumbai,"Kurla, Mumbai - MPCB",13-02-2024 04:00:00,19.0863,72.8888,CO,30,62,38
India,Maharashtra,Mumbai,"Malad West, Mumbai - IITM",13-02-2024 04:00:00,19.19709,72.82204,NH3,NA,NA,NA
India,Maharashtra,Mumbai,"Mazgaon, Mumbai - IITM",13-02-2024 04:00:00,18.96702,72.84214,NO2,87,260,143
India,Maharashtra,Mumbai,"Navy Nagar-Colaba, Mumbai - IITM",13-02-2024 04:00:00,18.897756,72.813320,NO2,NA,NA,NA
India,Maharashtra,Mumbai,"Powai, Mumbai - MPCB",13-02-2024 04:00:00,19.137500,72.915056,CO,36,46,41
India,Maharashtra,Mumbai,"Shivaji Nagar, Mumbai - BMC",13-02-2024 04:00:00,19.060498,72.923356,SO2,6,37,17
India,Maharashtra,Mumbai,"Siddharth Nagar-Worli, Mumbai - IITM",13-02-2024 04:00:00,19.000083,72.813993,PM10,122,442,191
India,Maharashtra,Mumbai,"Sion, Mumbai - MPCB",13-02-2024 04:00:00,19.047000,72.874600,PM10,70,151,110
India,Maharashtra,Mumbai,"Vile Parle West, Mumbai - MPCB",13-02-2024 04:00:00,19.10861,72.83622,NH3,6,10,9
India,Maharashtra,Mumbai,"Worli, Mumbai - MPCB",13-02-2024 04:00:00,18.9936162,72.8128113,NO2,16,17,17
India,Maharashtra,Mumbai,"Worli, Mumbai - MPCB",13-02-2024 04:00:00,18.9936162,72.8128113,OZONE,5,12,10
India,Maharashtra,Nagpur,"Ambazari, Nagpur - MPCB",13-02-2024 04:00:00,21.121801,79.04952,PM2.5,62,187,126
India,Maharashtra,Nagpur,"Mahal, Nagpur - MPCB",13-02-2024 04:00:00,21.14472,79.107595,PM2.5,21,118,75
India,Maharashtra,Nagpur,"Mahal, Nagpur - MPCB",13-02-2024 04:00:00,21.14472,79.107595,NH3,5,10,7
India,Maharashtra,Nagpur,"Opp GPO Civil Lines, Nagpur - MPCB",13-02-2024 04:00:00,21.152875,79.0517531,OZONE,2,54,5
India,Maharashtra,Nanded,"Sneh Nagar, Nanded - MPCB",13-02-2024 04:00:00,19.173852,77.296291,PM2.5,53,126,79
India,Maharashtra,Nanded,"Sneh Nagar, Nanded - MPCB",13-02-2024 04:00:00,19.173852,77.296291,NO2,16,33,26
India,Maharashtra,Nashik,"Gangapur Road, Nashik - MPCB",13-02-2024 04:00:00,20.0073285,73.7762427,SO2,1,9,3
India,Maharashtra,Nashik,"MIDC Ambad, Nashik - MPCB",13-02-2024 04:00:00,19.950220,73.731480,PM10,43,183,104
India,Maharashtra,Nashik,"MIDC Ambad, Nashik - MPCB",13-02-2024 04:00:00,19.950220,73.731480,CO,23,101,40
India,Maharashtra,Nashik,"Pandav Nagari, Nashik - MPCB",13-02-2024 04:00:00,19.9591346,73.7788008,PM2.5,1,80,37
India,Maharashtra,Nashik,"Pandav Nagari, Nashik - MPCB",13-02-2024 04:00:00,19.9591346,73.7788008,NO2,25,82,44
India,Maharashtra,Nashik,"Pandav Nagari, Nashik - MPCB",13-02-2024 04:00:00,19.9591346,73.7788008,OZONE,9,73,58
India,Maharashtra,Navi Mumbai,"Kopripada-Vashi, Navi Mumbai - MPCB",13-02-2024 04:00:00,19.090337,73.014232,CO,8,91,58
India,Maharashtra,Navi Mumbai,"Mahape, Navi Mumbai - MPCB",13-02-2024 04:00:00,19.1135051,73.008978,NH3,3,6,4
India,Maharashtra,Navi Mumbai,"Mahape, Navi Mumbai - MPCB",13-02-2024 04:00:00,19.1135051,73.008978,OZONE,20,42,31
India,Maharashtra,Navi Mumbai,"Nerul, Navi Mumbai - MPCB",13-02-2024 04:00:00,19.008751,73.016620,PM10,109,294,161
India,Maharashtra,Navi Mumbai,"Nerul, Navi Mumbai - MPCB",13-02-2024 04:00:00,19.008751,73.016620,CO,40,84,57
India,Maharashtra,Navi Mumbai,"Sanpada, Navi Mumbai - MPCB",13-02-2024 04:00:00,19.0575752,73.0151367,PM2.5,NA,NA,NA
India,Maharashtra,Navi Mumbai,"Sanpada, Navi Mumbai - MPCB",13-02-2024 04:00:00,19.0575752,73.0151367,PM10,NA,NA,NA
India,Maharashtra,Navi Mumbai,"Sanpada, Navi Mumbai - MPCB",13-02-2024 04:00:00,19.0575752,73.0151367,SO2,4,62,25
India,Maharashtra,Navi Mumbai,"Sector-2E Kalamboli, Navi Mumbai - MPCB",13-02-2024 04:00:00,19.02579,73.10297,PM10,NA,NA,NA
India,Maharashtra,Navi Mumbai,"Sector-2E Kalamboli, Navi Mumbai - MPCB",13-02-2024 04:00:00,19.02579,73.10297,OZONE,1,91,3
India,Maharashtra,Navi Mumbai,"Tondare-Taloja, Navi Mumbai - MPCB",13-02-2024 04:00:00,19.0630,73.1209,NH3,5,12,8
India,Maharashtra,Navi Mumbai,"Tondare-Taloja, Navi Mumbai - MPCB",13-02-2024 04:00:00,19.0630,73.1209,SO2,12,111,48
India,Maharashtra,Parbhani,"Masoom Colony, Parbhani - MPCB",13-02-2024 04:00:00,19.265594,76.761463,PM2.5,59,229,99
India,Maharashtra,Parbhani,"Masoom Colony, Parbhani - MPCB",13-02-2024 04:00:00,19.265594,76.761463,SO2,15,100,36
India,Maharashtra,Parbhani,"Masoom Colony, Parbhani - MPCB",13-02-2024 04:00:00,19.265594,76.761463,CO,23,116,53
India,Maharashtra,Pimpri-Chinchwad,"Gavalinagar, Pimpri Chinchwad - MPCB",13-02-2024 04:00:00,18.63673,73.82487,CO,11,97,42
India,Maharashtra,Pimpri-Chinchwad,"Gavalinagar, Pimpri Chinchwad - MPCB",13-02-2024 04:00:00,18.63673,73.82487,OZONE,8,213,58
India,Maharashtra,Pimpri-Chinchwad,"Park Street Wakad, Pimpri Chinchwad - MPCB",13-02-2024 04:00:00,18.59051,73.77946,PM2.5,90,291,166
India,Maharashtra,Pimpri-Chinchwad,"Park Street Wakad, Pimpri Chinchwad - MPCB",13-02-2024 04:00:00,18.59051,73.77946,NH3,8,24,16
India,Maharashtra,Pimpri-Chinchwad,"Park Street Wakad, Pimpri Chinchwad - MPCB",13-02-2024 04:00:00,18.59051,73.77946,OZONE,1,116,36
India,Maharashtra,Pimpri-Chinchwad,"Thergaon, Pimpri Chinchwad - MPCB",13-02-2024 04:00:00,18.616318,73.765797,NO2,33,112,70
India,Maharashtra,Pimpri-Chinchwad,"Thergaon, Pimpri Chinchwad - MPCB",13-02-2024 04:00:00,18.616318,73.765797,CO,2,135,51
India,Maharashtra,Pune,"Katraj Dairy, Pune - MPCB",13-02-2024 04:00:00,18.454450,73.854155,SO2,3,12,6
India,Maharashtra,Pune,"Revenue Colony-Shivajinagar, Pune - IITM",13-02-2024 04:00:00,18.530085,73.849598,NH3,10,24,16
India,Maharashtra,Pune,"Savitribai Phule Pune University, Pune - MPCB",13-02-2024 04:00:00,18.547056,73.826908,PM10,61,136,102
India,Maharashtra,Pune,"Transport Nagar-Nigdi, Pune - IITM",13-02-2024 04:00:00,18.664282,73.763966,NO2,11,78,52
India,Maharashtra,Pune,"Transport Nagar-Nigdi, Pune - IITM",13-02-2024 04:00:00,18.664282,73.763966,CO,8,177,173
India,Maharashtra,Pune,"Transport Nagar-Nigdi, Pune - IITM",13-02-2024 04:00:00,18.664282,73.763966,OZONE,8,54,37
India,Maharashtra,Sangli,"Vijay Nagar, Sangli - MPCB",13-02-2024 04:00:00, 16.5038,74.3623,OZONE,2,52,8
India,Maharashtra,Solapur,"Dnyaneshwar Nagar, Solapur - MPCB",13-02-2024 04:00:00,17.6336264,75.9132495,PM2.5,82,182,113
India,Maharashtra,Solapur,"Dnyaneshwar Nagar, Solapur - MPCB",13-02-2024 04:00:00,17.6336264,75.9132495,NH3,16,33,20
India,Maharashtra,Solapur,"Dnyaneshwar Nagar, Solapur - MPCB",13-02-2024 04:00:00,17.6336264,75.9132495,SO2,5,17,9
India,Maharashtra,Solapur,"Ratandeep Housing Society, Solapur - MPCB",13-02-2024 04:00:00,17.65439,75.90649,PM10,22,118,93
India,Maharashtra,Solapur,"Ratandeep Housing Society, Solapur - MPCB",13-02-2024 04:00:00,17.65439,75.90649,SO2,5,36,15
India,Maharashtra,Solapur,"Ratandeep Housing Society, Solapur - MPCB",13-02-2024 04:00:00,17.65439,75.90649,CO,16,94,39
India,Maharashtra,Solapur,"Solapur, Solapur - MPCB",13-02-2024 04:00:00,17.6599188,75.9063906,NO2,55,55,55
India,Maharashtra,Solapur,"Solapur, Solapur - MPCB",13-02-2024 04:00:00,17.6599188,75.9063906,SO2,32,41,36
India,Maharashtra,Thane,"Kasarvadavali, Thane - MPCB",13-02-2024 04:00:00,19.26777,72.97182,CO,8,66,40
India,Maharashtra,Thane,"Kasarvadavali, Thane - MPCB",13-02-2024 04:00:00,19.26777,72.97182,OZONE,1,110,48
India,Maharashtra,Thane,"Upvan Fort, Thane - MPCB",13-02-2024 04:00:00,19.222279,72.957979,NO2,12,101,50
India,Maharashtra,Thane,"Upvan Fort, Thane - MPCB",13-02-2024 04:00:00,19.222279,72.957979,CO,6,64,25
India,Maharashtra,Ulhasnagar,"Sidhi Vinayak Nagar, Ulhasnagar - MPCB",13-02-2024 04:00:00,19.235581,73.159121,NO2,10,71,33
India,Maharashtra,Virar,"Bolinj, Virar - MPCB",13-02-2024 04:00:00,19.4458210,72.7988231,SO2,10,42,23
India,Maharashtra,Virar,"Bolinj, Virar - MPCB",13-02-2024 04:00:00,19.4458210,72.7988231,CO,22,66,43
India,Manipur,Imphal,"DM College of Science, Imphal - Manipur PCB",13-02-2024 04:00:00,24.8207389,93.9423085,NO2,7,8,8
India,Manipur,Imphal,"Manipur University, Imphal - Manipur PCB",13-02-2024 04:00:00,24.7524239,93.9286218,NO2,8,32,14
India,Manipur,Imphal,"Manipur University, Imphal - Manipur PCB",13-02-2024 04:00:00,24.7524239,93.9286218,SO2,66,70,67
India,Meghalaya,Shillong,"Lumpyngngad, Shillong - Meghalaya PCB",13-02-2024 04:00:00,25.5586,91.8985,NH3,1,1,1
India,Meghalaya,Shillong,"Lumpyngngad, Shillong - Meghalaya PCB",13-02-2024 04:00:00,25.5586,91.8985,OZONE,46,105,99
India,Mizoram,Aizawl,"Sikulpuikawn, Aizawl - Mizoram PCB",13-02-2024 04:00:00,23.7176342,92.7192841,OZONE,10,34,26
India,Nagaland,Kohima,"PWD Juction, Kohima - NPCB",13-02-2024 04:00:00,25.6635413,94.0989878,PM2.5,60,271,115
India,Odisha,Balasore,"Kalidaspur, Balasore - OSPCB",13-02-2024 04:00:00,21.51161,86.89088,NO2,NA,NA,NA
India,Odisha,Balasore,"Kalidaspur, Balasore - OSPCB",13-02-2024 04:00:00,21.51161,86.89088,SO2,NA,NA,NA
India,Odisha,Balasore,"Kalidaspur, Balasore - OSPCB",13-02-2024 04:00:00,21.51161,86.89088,CO,NA,NA,NA
India,Odisha,Bhubaneswar,"Patia, Bhubaneswar - OSPCB",13-02-2024 04:00:00,20.34652,85.81630,NO2,18,39,26
India,Odisha,Brajrajnagar,"GM Office, Brajrajnagar - OSPCB",13-02-2024 04:00:00,21.8004996,83.8396977,CO,50,109,81
India,Odisha,Byasanagar,"Ferro Chrome Colony, Byasanagar - OSPCB",13-02-2024 04:00:00,20.94185,86.11510,PM10,89,214,139
India,Odisha,Byasanagar,"Ferro Chrome Colony, Byasanagar - OSPCB",13-02-2024 04:00:00,20.94185,86.11510,NO2,16,64,24
India,Odisha,Cuttack,"CDA Area, Cuttack - OSPCB",13-02-2024 04:00:00,20.48891     ,85.84768     ,SO2,6,16,10
India,Odisha,Cuttack,"CDA Area, Cuttack - OSPCB",13-02-2024 04:00:00,20.48891     ,85.84768     ,OZONE,31,180,69
India,Odisha,Keonjhar,"Jagamohanpur, Keonjhar - OSPCB",13-02-2024 04:00:00,21.643900,85.599355,NH3,NA,NA,NA
India,Odisha,Rairangpur,"Divisional Forest Office, Rairangpur - OSPCB",13-02-2024 04:00:00,22.265816,86.174829,NH3,5,5,5
India,Odisha,Rourkela,"Fertilizer Township, Rourkela - OSPCB",13-02-2024 04:00:00,22.18972222,84.86277778,CO,14,23,19
India,Odisha,Rourkela,"Raghunathpali, Rourkela - OSPCB",13-02-2024 04:00:00,22.220833,84.809444,NH3,1,3,2
India,Odisha,Rourkela,"Raghunathpali, Rourkela - OSPCB",13-02-2024 04:00:00,22.220833,84.809444,SO2,4,23,9
India,Odisha,Rourkela,"Sector-2, Rourkela - OSPCB",13-02-2024 04:00:00,22.24500000,84.88111111,PM2.5,116,285,204
India,Odisha,Rourkela,"Sector-2, Rourkela - OSPCB",13-02-2024 04:00:00,22.24500000,84.88111111,CO,22,66,40
India,Odisha,Suakati,"OMC Colony, Suakati - OSPCB",13-02-2024 04:00:00,21.606865,85.510538,PM2.5,12,165,110
India,Odisha,Suakati,"OMC Colony, Suakati - OSPCB",13-02-2024 04:00:00,21.606865,85.510538,NH3,NA,NA,NA
India,Odisha,Suakati,"OMC Colony, Suakati - OSPCB",13-02-2024 04:00:00,21.606865,85.510538,CO,6,43,7
India,Odisha,Tensa,"Barsua Iron Ore Mines, Tensa - OSPCB",13-02-2024 04:00:00,21.869985,85.167016,CO,15,20,18
India,Puducherry,Puducherry,"Jawahar Nagar, Puducherry - PPCC",13-02-2024 04:00:00,11.9309,79.8027,NH3,2,3,2
India,Puducherry,Puducherry,"Jawahar Nagar, Puducherry - PPCC",13-02-2024 04:00:00,11.9309,79.8027,OZONE,22,59,38
India,Punjab,Amritsar,"Golden Temple, Amritsar - PPCB",13-02-2024 04:00:00,31.620000,74.876512,PM10,86,231,148
India,Punjab,Amritsar,"Golden Temple, Amritsar - PPCB",13-02-2024 04:00:00,31.620000,74.876512,CO,24,59,31
India,Punjab,Bathinda,"Hardev Nagar, Bathinda - PPCB",13-02-2024 04:00:00,30.233011,74.907758,NO2,31,33,32
India,Punjab,Jalandhar,"Civil Line, Jalandhar - PPCB",13-02-2024 04:00:00,31.321907,75.578914,SO2,1,17,6
India,Punjab,Mandi Gobindgarh,"RIMT University, Mandi Gobindgarh - PPCB",13-02-2024 04:00:00,30.649961,76.331442,PM10,58,288,164
India,Punjab,Mandi Gobindgarh,"RIMT University, Mandi Gobindgarh - PPCB",13-02-2024 04:00:00,30.649961,76.331442,NO2,29,32,31
India,Punjab,Mandi Gobindgarh,"RIMT University, Mandi Gobindgarh - PPCB",13-02-2024 04:00:00,30.649961,76.331442,SO2,1,20,7
India,Punjab,Mandi Gobindgarh,"RIMT University, Mandi Gobindgarh - PPCB",13-02-2024 04:00:00,30.649961,76.331442,OZONE,32,34,33
India,Punjab,Patiala,"Model Town, Patiala - PPCB",13-02-2024 04:00:00,30.349388,76.366642,SO2,3,85,19
India,Punjab,Patiala,"Model Town, Patiala - PPCB",13-02-2024 04:00:00,30.349388,76.366642,OZONE,18,103,20
India,Punjab,Rupnagar,"Ratanpura, Rupnagar - Ambuja Cements",13-02-2024 04:00:00,31.0325454,76.5623046,PM10,53,364,122
India,Rajasthan,Ajmer,"Civil Lines,  Ajmer - RSPCB",13-02-2024 04:00:00,26.470859,74.646594,NH3,15,25,19
India,Rajasthan,Alwar,"Moti Doongri, Alwar - RSPCB",13-02-2024 04:00:00,27.554793,76.611536,PM2.5,70,181,103
India,Rajasthan,Banswara,"Rati Talai, Banswara - RSPCB",13-02-2024 04:00:00,23.555190,74.440010,PM10,57,175,106
India,Rajasthan,Barmer,"Railway Colony, Barmer - RSPCB",13-02-2024 04:00:00,25.747299,71.393989,NH3,NA,NA,NA
India,Rajasthan,Bharatpur,"Krishna Nagar, Bharatpur - RSPCB",13-02-2024 04:00:00,27.215415,77.50873,PM10,NA,NA,NA
India,Rajasthan,Bharatpur,"Krishna Nagar, Bharatpur - RSPCB",13-02-2024 04:00:00,27.215415,77.50873,NO2,NA,NA,NA
India,Rajasthan,Bharatpur,"Krishna Nagar, Bharatpur - RSPCB",13-02-2024 04:00:00,27.215415,77.50873,SO2,NA,NA,NA
India,Rajasthan,Bhilwara,"Pratap Nagar, Bhilwara - RSPCB",13-02-2024 04:00:00,25.339605,74.618883,PM2.5,NA,NA,NA
India,Rajasthan,Bhilwara,"Pratap Nagar, Bhilwara - RSPCB",13-02-2024 04:00:00,25.339605,74.618883,PM10,NA,NA,NA
India,Rajasthan,Bhilwara,"Pratap Nagar, Bhilwara - RSPCB",13-02-2024 04:00:00,25.339605,74.618883,CO,NA,NA,NA
India,Rajasthan,Dausa,"Khatikan Mohalla, Dausa - RSPCB",13-02-2024 04:00:00,26.895552,76.334753,SO2,NA,NA,NA
India,Rajasthan,Dausa,"Khatikan Mohalla, Dausa - RSPCB",13-02-2024 04:00:00,26.895552,76.334753,CO,NA,NA,NA
India,Rajasthan,Dholpur,"Raja Ganj, Dholpur - RSPCB",13-02-2024 04:00:00,26.699557,77.898881,PM10,NA,NA,NA
India,Rajasthan,Dholpur,"Raja Ganj, Dholpur - RSPCB",13-02-2024 04:00:00,26.699557,77.898881,NH3,NA,NA,NA
India,Rajasthan,Jaipur,"Mansarovar Sector-12, Jaipur - RSPCB",13-02-2024 04:00:00,26.843698,75.766894,NH3,NA,NA,NA
India,Rajasthan,Jaipur,"Mansarovar Sector-12, Jaipur - RSPCB",13-02-2024 04:00:00,26.843698,75.766894,SO2,NA,NA,NA
India,Rajasthan,Jaipur,"Mansarovar Sector-12, Jaipur - RSPCB",13-02-2024 04:00:00,26.843698,75.766894,CO,NA,NA,NA
India,Rajasthan,Jaipur,"Mansarovar Sector-12, Jaipur - RSPCB",13-02-2024 04:00:00,26.843698,75.766894,OZONE,NA,NA,NA
India,Rajasthan,Jaipur,"Police Commissionerate, Jaipur - RSPCB",13-02-2024 04:00:00,26.9164092,75.7994901,OZONE,NA,NA,NA
India,Rajasthan,Jaipur,"RIICO Sitapura, Jaipur - RSPCB",13-02-2024 04:00:00,26.786682,75.827928,NH3,NA,NA,NA
India,Rajasthan,Jaipur,"RIICO Sitapura, Jaipur - RSPCB",13-02-2024 04:00:00,26.786682,75.827928,OZONE,NA,NA,NA
India,Rajasthan,Jaipur,"Sector-2 Murlipura, Jaipur - RSPCB",13-02-2024 04:00:00,26.960669,75.771817,PM2.5,NA,NA,NA
India,Rajasthan,Jaipur,"Sector-2 Murlipura, Jaipur - RSPCB",13-02-2024 04:00:00,26.960669,75.771817,CO,NA,NA,NA
India,Rajasthan,Jaisalmer,"Sadar Bazar, Jaisalmer - RSPCB",13-02-2024 04:00:00,26.912329,70.909168,OZONE,NA,NA,NA
India,Rajasthan,Jalore,"Mudtra Sili, Jalore - RSPCB",13-02-2024 04:00:00,25.344694,72.626208,PM10,NA,NA,NA
India,Rajasthan,Jalore,"Mudtra Sili, Jalore - RSPCB",13-02-2024 04:00:00,25.344694,72.626208,NO2,NA,NA,NA
India,Rajasthan,Jhalawar,"Rajlaxmi Nagar, Jhalawar - RSPCB",13-02-2024 04:00:00,24.588397,76.172782,PM2.5,NA,NA,NA
India,Rajasthan,Jhalawar,"Rajlaxmi Nagar, Jhalawar - RSPCB",13-02-2024 04:00:00,24.588397,76.172782,NH3,NA,NA,NA
India,Rajasthan,Jodhpur,"Collectorate, Jodhpur - RSPCB",13-02-2024 04:00:00,26.268249,73.0193853,PM2.5,40,307,153
India,Rajasthan,Jodhpur,"Collectorate, Jodhpur - RSPCB",13-02-2024 04:00:00,26.268249,73.0193853,NO2,7,71,49
India,Rajasthan,Jodhpur,"Collectorate, Jodhpur - RSPCB",13-02-2024 04:00:00,26.268249,73.0193853,SO2,2,74,23
India,Rajasthan,Jodhpur,"Collectorate, Jodhpur - RSPCB",13-02-2024 04:00:00,26.268249,73.0193853,OZONE,56,140,76
India,Rajasthan,Jodhpur,"Digari Kalan, Jodhpur - RSPCB",13-02-2024 04:00:00,26.295810,73.082283,NO2,NA,NA,NA
India,Rajasthan,Jodhpur,"Digari Kalan, Jodhpur - RSPCB",13-02-2024 04:00:00,26.295810,73.082283,SO2,NA,NA,NA
India,Rajasthan,Jodhpur,"Digari Kalan, Jodhpur - RSPCB",13-02-2024 04:00:00,26.295810,73.082283,OZONE,NA,NA,NA
India,Rajasthan,Jodhpur,"Jhalamand, Jodhpur - RSPCB",13-02-2024 04:00:00,26.215415,73.070156,PM2.5,NA,NA,NA
India,Rajasthan,Jodhpur,"Jhalamand, Jodhpur - RSPCB",13-02-2024 04:00:00,26.215415,73.070156,PM10,NA,NA,NA
India,Rajasthan,Jodhpur,"Jhalamand, Jodhpur - RSPCB",13-02-2024 04:00:00,26.215415,73.070156,OZONE,NA,NA,NA
India,Rajasthan,Jodhpur,"Samrat Ashok Udhyan, Jodhpur - RSPCB",13-02-2024 04:00:00,26.253384,72.976571,PM2.5,NA,NA,NA
India,Rajasthan,Jodhpur,"Samrat Ashok Udhyan, Jodhpur - RSPCB",13-02-2024 04:00:00,26.253384,72.976571,NH3,NA,NA,NA
India,Rajasthan,Jodhpur,"Samrat Ashok Udhyan, Jodhpur - RSPCB",13-02-2024 04:00:00,26.253384,72.976571,SO2,NA,NA,NA
India,Rajasthan,Jodhpur,"Samrat Ashok Udhyan, Jodhpur - RSPCB",13-02-2024 04:00:00,26.253384,72.976571,OZONE,NA,NA,NA
India,Rajasthan,Karauli,"Satyawati Vihar, Karauli - RSPCB",13-02-2024 04:00:00,26.506177,77.025989,SO2,NA,NA,NA
India,Rajasthan,Kota,"Dhanmandi, Kota - RSPCB",13-02-2024 04:00:00,25.164090,75.858137,CO,NA,NA,NA
India,Rajasthan,Kota,"Nayapura, Kota - RSPCB",13-02-2024 04:00:00,25.196024,75.855668,CO,NA,NA,NA
India,Rajasthan,Kota,"Shrinath Puram, Kota - RSPCB",13-02-2024 04:00:00,25.14389,75.821256,SO2,4,10,7
India,Rajasthan,Nagaur,"Karni Colony, Nagaur - RSPCB",13-02-2024 04:00:00,27.213494,73.734444,NO2,NA,NA,NA
India,Rajasthan,Nagaur,"Karni Colony, Nagaur - RSPCB",13-02-2024 04:00:00,27.213494,73.734444,CO,30,37,37
India,Rajasthan,Pali,"Indira Colony Vistar, Pali - RSPCB",13-02-2024 04:00:00,25.771061, 73.340227,NO2,19,69,41
India,Rajasthan,Pali,"Indira Colony Vistar, Pali - RSPCB",13-02-2024 04:00:00,25.771061, 73.340227,SO2,17,19,19
India,Rajasthan,Pratapgarh,"Pragati Nagar, Pratapgarh - RSPCB",13-02-2024 04:00:00,24.041198,74.780702,NO2,8,24,16
India,Rajasthan,Sawai Madhopur,"Sahu Nagar, Sawai Madhopur - RSPCB",13-02-2024 04:00:00,26.031443,76.359327,PM10,116,229,145
India,Rajasthan,Sawai Madhopur,"Sahu Nagar, Sawai Madhopur - RSPCB",13-02-2024 04:00:00,26.031443,76.359327,NH3,2,39,18
India,Rajasthan,Sikar,"Radhakishan Pura, Sikar - RSPCB",13-02-2024 04:00:00,27.608912,75.153302,PM10,NA,NA,NA
India,Rajasthan,Sikar,"Radhakishan Pura, Sikar - RSPCB",13-02-2024 04:00:00,27.608912,75.153302,CO,NA,NA,NA
India,Rajasthan,Sirohi,"Vedhaynath Colony, Sirohi - RSPCB",13-02-2024 04:00:00,24.885261,72.857549,NH3,NA,NA,NA
India,Rajasthan,Sirohi,"Vedhaynath Colony, Sirohi - RSPCB",13-02-2024 04:00:00,24.885261,72.857549,SO2,NA,NA,NA
India,Rajasthan,Tonk,"Shastri Nagar, Tonk - RSPCB",13-02-2024 04:00:00,26.159933,75.780517,NO2,NA,NA,NA
India,Rajasthan,Tonk,"Shastri Nagar, Tonk - RSPCB",13-02-2024 04:00:00,26.159933,75.780517,SO2,NA,NA,NA
India,Rajasthan,Tonk,"Shastri Nagar, Tonk - RSPCB",13-02-2024 04:00:00,26.159933,75.780517,CO,NA,NA,NA
India,Rajasthan,Udaipur,"Ashok Nagar, Udaipur - RSPCB",13-02-2024 04:00:00,24.5886166,73.6321397,SO2,2,38,16
India,Sikkim,Gangtok,"Zero Point GICI, Gangtok - SSPCB",13-02-2024 04:00:00,27.338530,88.614099,SO2,9,10,10
India,Sikkim,Gangtok,"Zero Point GICI, Gangtok - SSPCB",13-02-2024 04:00:00,27.338530,88.614099,OZONE,12,72,27
India,TamilNadu,Chengalpattu,"Crescent University, Chengalpattu - TNPCB",13-02-2024 04:00:00,12.8777316,80.0834807,PM10,6,102,45
India,TamilNadu,Chengalpattu,"Crescent University, Chengalpattu - TNPCB",13-02-2024 04:00:00,12.8777316,80.0834807,OZONE,6,6,6
India,TamilNadu,Chennai,"Arumbakkam, Chennai - TNPCB",13-02-2024 04:00:00,13.0664,80.2112 ,PM2.5,17,137,43
India,TamilNadu,Chennai,"Arumbakkam, Chennai - TNPCB",13-02-2024 04:00:00,13.0664,80.2112 ,PM10,40,134,67
India,TamilNadu,Chennai,"Manali, Chennai - CPCB",13-02-2024 04:00:00,13.164544,80.26285,PM2.5,1,85,24
India,TamilNadu,Chennai,"Manali, Chennai - CPCB",13-02-2024 04:00:00,13.164544,80.26285,CO,48,91,66
India,TamilNadu,Chennai,"Royapuram, Chennai - TNPCB",13-02-2024 04:00:00,13.1036,80.2909,NO2,10,27,18
India,TamilNadu,Chennai,"Royapuram, Chennai - TNPCB",13-02-2024 04:00:00,13.1036,80.2909,CO,16,26,23
India,TamilNadu,Chennai,"Velachery Res. Area, Chennai - CPCB",13-02-2024 04:00:00,13.0052189,80.2398125,PM10,41,66,52
India,TamilNadu,Coimbatore,"PSG College of Arts and Science, Coimbatore - TNPCB",13-02-2024 04:00:00,11.0328,77.0349,NO2,2,17,5
India,TamilNadu,Coimbatore,"PSG College of Arts and Science, Coimbatore - TNPCB",13-02-2024 04:00:00,11.0328,77.0349,CO,76,78,77
India,TamilNadu,Cuddalore,"Kudikadu, Cuddalore - TNPCB",13-02-2024 04:00:00,11.6829898,79.7532099,PM2.5,14,122,63
India,TamilNadu,Cuddalore,"Kudikadu, Cuddalore - TNPCB",13-02-2024 04:00:00,11.6829898,79.7532099,PM10,16,122,73
India,TamilNadu,Cuddalore,"Semmandalam, Cuddalore - TNPCB",13-02-2024 04:00:00,11.7637683,79.7499835,NH3,1,3,2
India,TamilNadu,Cuddalore,"Semmandalam, Cuddalore - TNPCB",13-02-2024 04:00:00,11.7637683,79.7499835,OZONE,1,2,2
India,TamilNadu,Gummidipoondi,"Anthoni Pillai Nagar, Gummidipoondi - TNPCB",13-02-2024 04:00:00,13.4127,80.1081,PM2.5,17,322,87
India,TamilNadu,Ooty,"Bombay Castel, Ooty - TNPCB",13-02-2024 04:00:00,11.4068288,76.7138973,PM2.5,2,67,24
India,TamilNadu,Palkalaiperur,"Bharathidasan University, Palkalaiperur - TNPCB",13-02-2024 04:00:00,10.681158,78.741746,PM2.5,22,55,36
India,TamilNadu,Ramanathapuram,"Chalai Bazaar, Ramanathapuram - TNPCB",13-02-2024 04:00:00,9.36399,78.831977,SO2,5,8,6
India,TamilNadu,Salem,"Sona College of Technology, Salem - TNPCB",13-02-2024 04:00:00,11.679111,78.125052,PM2.5,NA,NA,NA
India,TamilNadu,Salem,"Sona College of Technology, Salem - TNPCB",13-02-2024 04:00:00,11.679111,78.125052,SO2,NA,NA,NA
India,TamilNadu,Tirupur,"Kumaran College, Tirupur - TNPCB",13-02-2024 04:00:00,11.0973603,77.3228673,OZONE,6,7,7
India,TamilNadu,Virudhunagar,"Collectorate Office, Virudhunagar - TNPCB",13-02-2024 04:00:00,9.559382,77.948828,NO2,NA,NA,NA
India,Telangana,Hyderabad,"Bollaram Industrial Area, Hyderabad - TSPCB",13-02-2024 04:00:00,17.540891,78.358528,OZONE,36,38,36
India,Telangana,Hyderabad,"Central University, Hyderabad - TSPCB",13-02-2024 04:00:00,17.460103,78.334361,SO2,3,10,6
India,Telangana,Hyderabad,"ECIL Kapra, Hyderabad - TSPCB",13-02-2024 04:00:00,17.470431,78.566959,SO2,1,8,5
India,Telangana,Hyderabad,"ICRISAT Patancheru, Hyderabad - TSPCB",13-02-2024 04:00:00,17.518400,78.278777,PM10,16,77,51
India,Telangana,Hyderabad,"ICRISAT Patancheru, Hyderabad - TSPCB",13-02-2024 04:00:00,17.518400,78.278777,NO2,16,17,17
India,Telangana,Hyderabad,"ICRISAT Patancheru, Hyderabad - TSPCB",13-02-2024 04:00:00,17.518400,78.278777,NH3,2,2,2
India,Telangana,Hyderabad,"Kokapet, Hyderabad - TSPCB",13-02-2024 04:00:00,17.393559,78.339194,NH3,NA,NA,NA
India,Telangana,Hyderabad,"Kompally Municipal Office, Hyderabad - TSPCB",13-02-2024 04:00:00,17.544899,78.486949,OZONE,NA,NA,NA
India,Telangana,Hyderabad,"New Malakpet, Hyderabad - TSPCB",13-02-2024 04:00:00,17.37206,78.50864,CO,8,28,16
India,Telangana,Hyderabad,"New Malakpet, Hyderabad - TSPCB",13-02-2024 04:00:00,17.37206,78.50864,OZONE,11,26,13
India,Telangana,Hyderabad,"Zoo Park, Hyderabad - TSPCB",13-02-2024 04:00:00,17.349694,78.451437,SO2,1,6,3
India,Telangana,Hyderabad,"Zoo Park, Hyderabad - TSPCB",13-02-2024 04:00:00,17.349694,78.451437,OZONE,18,28,20
India,Tripura,Agartala,"Bardowali, Agartala - Tripura SPCB",13-02-2024 04:00:00,23.8175497,91.2726974,NO2,9,34,20
India,Uttar_Pradesh,Agra,"Sector-3B Avas Vikas Colony, Agra - UPPCB",13-02-2024 04:00:00,27.19412,77.96237,NO2,20,56,36
India,Uttar_Pradesh,Agra,"Sector-3B Avas Vikas Colony, Agra - UPPCB",13-02-2024 04:00:00,27.19412,77.96237,NH3,3,6,4
India,Uttar_Pradesh,Agra,"Sector-3B Avas Vikas Colony, Agra - UPPCB",13-02-2024 04:00:00,27.19412,77.96237,SO2,12,21,14
India,Uttar_Pradesh,Agra,"Sector-3B Avas Vikas Colony, Agra - UPPCB",13-02-2024 04:00:00,27.19412,77.96237,OZONE,13,55,14
India,Uttar_Pradesh,Agra,"Shahjahan Garden, Agra - UPPCB",13-02-2024 04:00:00,27.169338,78.03582,PM10,40,117,78
India,Uttar_Pradesh,Baghpat,"Sardar Patel Inter College, Baghpat - UPPCB",13-02-2024 04:00:00,28.964949,77.278761,OZONE,2,32,4
India,Uttar_Pradesh,Bareilly,"Civil Lines, Bareilly - UPPCB",13-02-2024 04:00:00,28.359581,79.414455,OZONE,1,51,4
India,Uttar_Pradesh,Bareilly,"Rajendra Nagar, Bareilly - UPPCB",13-02-2024 04:00:00,28.38910936,79.42963708,PM10,43,126,82
India,Uttar_Pradesh,Bulandshahr,"Yamunapuram, Bulandshahr - UPPCB",13-02-2024 04:00:00,28.406963,77.849831,PM10,98,290,179
India,Uttar_Pradesh,Firozabad,"Nagla Bhau, Firozabad - UPPCB",13-02-2024 04:00:00,27.168897,78.376960,PM10,29,87,55
India,Uttar_Pradesh,Firozabad,"Nagla Bhau, Firozabad - UPPCB",13-02-2024 04:00:00,27.168897,78.376960,OZONE,18,39,24
India,Uttar_Pradesh,Ghaziabad,"Indirapuram, Ghaziabad - UPPCB",13-02-2024 04:00:00,28.646233,77.358075,NO2,NA,NA,NA
India,Uttar_Pradesh,Ghaziabad,"Indirapuram, Ghaziabad - UPPCB",13-02-2024 04:00:00,28.646233,77.358075,NH3,NA,NA,NA
India,Uttar_Pradesh,Ghaziabad,"Indirapuram, Ghaziabad - UPPCB",13-02-2024 04:00:00,28.646233,77.358075,OZONE,5,33,6
India,Uttar_Pradesh,Ghaziabad,"Loni, Ghaziabad - UPPCB",13-02-2024 04:00:00,28.757294,77.278792,NO2,14,57,37
India,Uttar_Pradesh,Ghaziabad,"Loni, Ghaziabad - UPPCB",13-02-2024 04:00:00,28.757294,77.278792,NH3,1,6,4
India,Uttar_Pradesh,Ghaziabad,"Loni, Ghaziabad - UPPCB",13-02-2024 04:00:00,28.757294,77.278792,SO2,10,21,14
India,Uttar_Pradesh,Ghaziabad,"Sanjay Nagar, Ghaziabad - UPPCB",13-02-2024 04:00:00,28.685382,77.453839,NO2,62,147,100
India,Uttar_Pradesh,Gorakhpur,"Madan Mohan Malaviya University of Technology, Gorakhpur - UPPCB",13-02-2024 04:00:00,26.730136,83.433859,OZONE,2,44,11
India,Uttar_Pradesh,Greater Noida,"Knowledge Park - III, Greater Noida - UPPCB",13-02-2024 04:00:00,28.47272,77.482000,OZONE,5,98,6
India,Uttar_Pradesh,Greater Noida,"Knowledge Park - V, Greater Noida - UPPCB",13-02-2024 04:00:00,28.557054,77.453663,NO2,18,50,31
India,Uttar_Pradesh,Greater Noida,"Knowledge Park - V, Greater Noida - UPPCB",13-02-2024 04:00:00,28.557054,77.453663,NH3,4,8,5
India,Uttar_Pradesh,Greater Noida,"Knowledge Park - V, Greater Noida - UPPCB",13-02-2024 04:00:00,28.557054,77.453663,CO,90,177,138
India,Uttar_Pradesh,Hapur,"Anand Vihar, Hapur - UPPCB",13-02-2024 04:00:00,28.725645,77.749675,NH3,6,10,8
India,Uttar_Pradesh,Hapur,"Anand Vihar, Hapur - UPPCB",13-02-2024 04:00:00,28.725645,77.749675,OZONE,5,191,9
India,Uttar_Pradesh,Jhansi,"Shivaji Nagar, Jhansi - UPPCB",13-02-2024 04:00:00,25.4547,78.6039,PM10,95,139,114
India,Uttar_Pradesh,Kanpur,"FTI Kidwai Nagar, Kanpur - UPPCB",13-02-2024 04:00:00,26.428282,80.327067,PM2.5,50,167,92
India,Uttar_Pradesh,Kanpur,"FTI Kidwai Nagar, Kanpur - UPPCB",13-02-2024 04:00:00,26.428282,80.327067,SO2,22,23,23
India,Uttar_Pradesh,Kanpur,"FTI Kidwai Nagar, Kanpur - UPPCB",13-02-2024 04:00:00,26.428282,80.327067,OZONE,3,7,3
India,Uttar_Pradesh,Kanpur,"NSI Kalyanpur, Kanpur - UPPCB",13-02-2024 04:00:00,26.509954,80.249612,NO2,15,15,15
India,Uttar_Pradesh,Kanpur,"NSI Kalyanpur, Kanpur - UPPCB",13-02-2024 04:00:00,26.509954,80.249612,NH3,1,3,2
India,Uttar_Pradesh,Kanpur,"NSI Kalyanpur, Kanpur - UPPCB",13-02-2024 04:00:00,26.509954,80.249612,OZONE,17,36,31
India,Uttar_Pradesh,Khurja,"Kalindi Kunj, Khurja - UPPCB",13-02-2024 04:00:00,28.2348927,77.8683002,PM10,18,143,80
India,Uttar_Pradesh,Lucknow,"B R Ambedkar University, Lucknow - UPPCB",13-02-2024 04:00:00,26.766433,80.927299,NO2,11,12,12
India,Uttar_Pradesh,Lucknow,"B R Ambedkar University, Lucknow - UPPCB",13-02-2024 04:00:00,26.766433,80.927299,NH3,6,10,8
India,Uttar_Pradesh,Lucknow,"Kendriya Vidyalaya, Lucknow - CPCB",13-02-2024 04:00:00,26.906111,80.948222,CO,24,114,69
India,Uttar_Pradesh,Lucknow,"Kukrail Picnic Spot-1, Lucknow - UPPCB",13-02-2024 04:00:00,26.90723,80.98579,NO2,8,9,8
India,Uttar_Pradesh,Lucknow,"Kukrail Picnic Spot-1, Lucknow - UPPCB",13-02-2024 04:00:00,26.90723,80.98579,CO,18,64,32
India,Uttar_Pradesh,Lucknow,"Lalbagh, Lucknow - CPCB",13-02-2024 04:00:00,26.8458805,80.9365541,NO2,30,153,81
India,Uttar_Pradesh,Lucknow,"Talkatora District Industries Center, Lucknow - CPCB",13-02-2024 04:00:00,26.83399722,80.8917361,PM10,122,425,210
India,Uttar_Pradesh,Lucknow,"Talkatora District Industries Center, Lucknow - CPCB",13-02-2024 04:00:00,26.83399722,80.8917361,NO2,7,32,17
India,Uttar_Pradesh,Lucknow,"Talkatora District Industries Center, Lucknow - CPCB",13-02-2024 04:00:00,26.83399722,80.8917361,OZONE,2,80,9
India,Uttar_Pradesh,Meerut,"Ganga Nagar, Meerut - UPPCB",13-02-2024 04:00:00,28.999264,77.7590354,PM10,115,248,170
India,Uttar_Pradesh,Meerut,"Ganga Nagar, Meerut - UPPCB",13-02-2024 04:00:00,28.999264,77.7590354,SO2,30,105,56
India,Uttar_Pradesh,Meerut,"Jai Bhim Nagar, Meerut - UPPCB",13-02-2024 04:00:00,28.9535882,77.7622941,CO,22,106,60
India,Uttar_Pradesh,Meerut,"Jai Bhim Nagar, Meerut - UPPCB",13-02-2024 04:00:00,28.9535882,77.7622941,OZONE,12,15,15
India,Uttar_Pradesh,Moradabad,"Buddhi Vihar, Moradabad - UPPCB",13-02-2024 04:00:00,28.83526,78.74460,NO2,20,24,23
India,Uttar_Pradesh,Moradabad,"Buddhi Vihar, Moradabad - UPPCB",13-02-2024 04:00:00,28.83526,78.74460,SO2,15,27,19
India,Uttar_Pradesh,Moradabad,"Buddhi Vihar, Moradabad - UPPCB",13-02-2024 04:00:00,28.83526,78.74460,OZONE,12,28,13
India,Uttar_Pradesh,Moradabad,"Employment Office, Moradabad - UPPCB",13-02-2024 04:00:00,28.88528,78.73880,NO2,20,21,20
India,Uttar_Pradesh,Moradabad,"Kashiram Nagar, Moradabad - UPPCB",13-02-2024 04:00:00,28.849399,78.742362,PM2.5,47,309,148
India,Uttar_Pradesh,Moradabad,"Transport Nagar, Moradabad - UPPCB",13-02-2024 04:00:00,28.802625,78.753728,OZONE,14,20,15
India,Uttar_Pradesh,Muzaffarnagar,"New Mandi, Muzaffarnagar - UPPCB",13-02-2024 04:00:00,29.4723508,77.7194031,CO,30,102,69
India,Uttar_Pradesh,Noida,"Sector - 125, Noida - UPPCB",13-02-2024 04:00:00,28.5447608,77.3231257,CO,23,108,105
India,Uttar_Pradesh,Noida,"Sector-1, Noida - UPPCB",13-02-2024 04:00:00,28.5898,77.3101,NH3,5,9,7
India,Uttar_Pradesh,Noida,"Sector-116, Noida - UPPCB",13-02-2024 04:00:00,28.569230,77.393848,PM2.5,192,361,320
India,Uttar_Pradesh,Prayagraj,"Jhunsi, Prayagraj - UPPCB",13-02-2024 04:00:00,25.425602,81.917152,NO2,6,6,6
India,Uttar_Pradesh,Prayagraj,"Motilal Nehru NIT, Prayagraj - UPPCB",13-02-2024 04:00:00,25.494,81.863,PM10,59,118,94
India,Uttar_Pradesh,Prayagraj,"Motilal Nehru NIT, Prayagraj - UPPCB",13-02-2024 04:00:00,25.494,81.863,SO2,20,23,21
India,Uttar_Pradesh,Prayagraj,"Nagar Nigam, Prayagraj - UPPCB",13-02-2024 04:00:00,25.44919916 ,81.82735986 ,SO2,37,104,64
India,Uttar_Pradesh,Prayagraj,"Nagar Nigam, Prayagraj - UPPCB",13-02-2024 04:00:00,25.44919916 ,81.82735986 ,CO,20,66,44
India,Uttar_Pradesh,Varanasi,"Ardhali Bazar, Varanasi - UPPCB",13-02-2024 04:00:00,25.3505986,82.9083074,SO2,13,30,21
India,Uttar_Pradesh,Varanasi,"Bhelupur, Varanasi - UPPCB",13-02-2024 04:00:00,25.301778,82.996789,PM10,28,105,65
India,Uttar_Pradesh,Vrindavan,"Omex Eternity, Vrindavan - UPPCB",13-02-2024 04:00:00,27.5714090,77.6557570,PM2.5,34,80,57
India,Uttar_Pradesh,Vrindavan,"Omex Eternity, Vrindavan - UPPCB",13-02-2024 04:00:00,27.5714090,77.6557570,NO2,2,3,3
India,Uttarakhand,Kashipur,"Govt. Girls Inter College, Kashipur - UKPCB",13-02-2024 04:00:00,29.2124114,78.9611753,OZONE,4,42,5
India,Uttarakhand,Rishikesh,"Shivaji Nagar, Rishikesh - UKPCB",13-02-2024 04:00:00,30.075911,78.2859547,NH3,2,4,3
India,West_Bengal,Asansol,"Asansol Court Area, Asansol - WBPCB",13-02-2024 04:00:00,23.685297,86.945968,SO2,11,46,24
India,West_Bengal,Barrackpore,"SVSPA Campus, Barrackpore - WBPCB",13-02-2024 04:00:00,22.7605581,88.3617589,NO2,23,98,60
India,West_Bengal,Durgapur,"Sidhu Kanhu Indoor Stadium, Durgapur - WBPCB",13-02-2024 04:00:00,23.5404352,87.2892225,PM2.5,147,300,203
India,West_Bengal,Durgapur,"Sidhu Kanhu Indoor Stadium, Durgapur - WBPCB",13-02-2024 04:00:00,23.5404352,87.2892225,OZONE,2,47,5
India,West_Bengal,Haldia,"Priyambada Housing Estate, Haldia - WBPCB",13-02-2024 04:00:00,22.06047,88.109737,PM2.5,67,208,111
India,West_Bengal,Howrah,"Padmapukur, Howrah - WBPCB",13-02-2024 04:00:00,22.5687319,88.2797276,PM2.5,5,315,200
India,West_Bengal,Howrah,"Padmapukur, Howrah - WBPCB",13-02-2024 04:00:00,22.5687319,88.2797276,NH3,12,91,42
India,West_Bengal,Kolkata,"Ballygunge, Kolkata - WBPCB",13-02-2024 04:00:00,22.5367507,88.3638022,PM10,112,222,168
India,West_Bengal,Kolkata,"Ballygunge, Kolkata - WBPCB",13-02-2024 04:00:00,22.5367507,88.3638022,SO2,16,78,27
India,West_Bengal,Kolkata,"Ballygunge, Kolkata - WBPCB",13-02-2024 04:00:00,22.5367507,88.3638022,OZONE,4,57,5
India,West_Bengal,Kolkata,"Bidhannagar, Kolkata - WBPCB",13-02-2024 04:00:00,22.58157048,88.41002457,PM10,121,230,169
India,West_Bengal,Kolkata,"Bidhannagar, Kolkata - WBPCB",13-02-2024 04:00:00,22.58157048,88.41002457,NH3,10,19,13
India,West_Bengal,Kolkata,"Bidhannagar, Kolkata - WBPCB",13-02-2024 04:00:00,22.58157048,88.41002457,OZONE,6,20,7
India,West_Bengal,Kolkata,"Fort William, Kolkata - WBPCB",13-02-2024 04:00:00,22.556640,88.342674,PM2.5,27,321,256
India,West_Bengal,Kolkata,"Fort William, Kolkata - WBPCB",13-02-2024 04:00:00,22.556640,88.342674,PM10,145,246,189
India,West_Bengal,Kolkata,"Fort William, Kolkata - WBPCB",13-02-2024 04:00:00,22.556640,88.342674,SO2,8,83,21
India,West_Bengal,Kolkata,"Rabindra Bharati University, Kolkata - WBPCB",13-02-2024 04:00:00,22.627847,88.380669,OZONE,1,65,1
India,West_Bengal,Kolkata,"Rabindra Sarobar, Kolkata - WBPCB",13-02-2024 04:00:00,22.51106,88.35142,PM2.5,113,284,177
India,West_Bengal,Kolkata,"Rabindra Sarobar, Kolkata - WBPCB",13-02-2024 04:00:00,22.51106,88.35142,PM10,114,169,132
India,West_Bengal,Kolkata,"Rabindra Sarobar, Kolkata - WBPCB",13-02-2024 04:00:00,22.51106,88.35142,SO2,11,112,29
India,West_Bengal,Kolkata,"Rabindra Sarobar, Kolkata - WBPCB",13-02-2024 04:00:00,22.51106,88.35142,OZONE,3,92,8
India,West_Bengal,Siliguri,"Ward-32 Bapupara, Siliguri - WBPCB",13-02-2024 04:00:00,26.6879226,88.4152495,OZONE,9,76,13
India,Andhra_Pradesh,Amaravati,"Secretariat, Amaravati - APPCB",13-02-2024 04:00:00,16.5150833,80.5181667,PM10,31,102,63
India,Andhra_Pradesh,Amaravati,"Secretariat, Amaravati - APPCB",13-02-2024 04:00:00,16.5150833,80.5181667,CO,5,48,37
India,Andhra_Pradesh,Amaravati,"Secretariat, Amaravati - APPCB",13-02-2024 04:00:00,16.5150833,80.5181667,OZONE,6,52,35
India,Andhra_Pradesh,Anantapur,"Gulzarpet, Anantapur - APPCB",13-02-2024 04:00:00,14.675886,77.593027,CO,16,46,23
India,Andhra_Pradesh,Kadapa,"Yerramukkapalli, Kadapa - APPCB",13-02-2024 04:00:00,14.465052,78.824187,OZONE,19,60,28
India,Andhra_Pradesh,Tirupati,"Tirumala, Tirupati - APPCB",13-02-2024 04:00:00,13.67,79.35,NO2,24,49,35
India,Andhra_Pradesh,Tirupati,"Tirumala, Tirupati - APPCB",13-02-2024 04:00:00,13.67,79.35,NH3,1,2,1
India,Andhra_Pradesh,Tirupati,"Tirumala, Tirupati - APPCB",13-02-2024 04:00:00,13.67,79.35,SO2,2,8,5
India,Andhra_Pradesh,Tirupati,"Tirumala, Tirupati - APPCB",13-02-2024 04:00:00,13.67,79.35,CO,36,56,44
India,Andhra_Pradesh,Tirupati,"Vaikuntapuram, Tirupati - APPCB",13-02-2024 04:00:00,13.615387,79.409230,PM10,NA,NA,NA
India,Andhra_Pradesh,Tirupati,"Vaikuntapuram, Tirupati - APPCB",13-02-2024 04:00:00,13.615387,79.409230,NO2,NA,NA,NA
India,Andhra_Pradesh,Tirupati,"Vaikuntapuram, Tirupati - APPCB",13-02-2024 04:00:00,13.615387,79.409230,NH3,NA,NA,NA
India,Andhra_Pradesh,Vijayawada,"HB Colony, Vijayawada - APPCB",13-02-2024 04:00:00,16.536107,80.594233,OZONE,36,61,44
India,Andhra_Pradesh,Vijayawada,"Kanuru, Vijayawada - APPCB",13-02-2024 04:00:00,16.486692,80.699436,PM2.5,39,97,67
India,Andhra_Pradesh,Vijayawada,"Rajiv Gandhi Park, Vijayawada - APPCB",13-02-2024 04:00:00,16.509717,80.612222,PM2.5,37,88,66
India,Andhra_Pradesh,Vijayawada,"Rajiv Gandhi Park, Vijayawada - APPCB",13-02-2024 04:00:00,16.509717,80.612222,CO,30,39,30
India,Andhra_Pradesh,Vijayawada,"Rajiv Nagar, Vijayawada - APPCB",13-02-2024 04:00:00,16.554731,80.649110,CO,15,44,34
India,Arunachal_Pradesh,Naharlagun,"Naharlagun, Naharlagun - APSPCB",13-02-2024 04:00:00,27.103358,93.679645,PM2.5,27,253,86
India,Arunachal_Pradesh,Naharlagun,"Naharlagun, Naharlagun - APSPCB",13-02-2024 04:00:00,27.103358,93.679645,CO,10,52,32
India,Assam,Byrnihat,"Central Academy for SFS, Byrnihat - PCBA",13-02-2024 04:00:00,26.071318,91.87488,PM10,63,500,258
India,Assam,Guwahati,"IITG, Guwahati - PCBA",13-02-2024 04:00:00,26.2028636,91.70046436,PM10,78,500,176
India,Assam,Guwahati,"IITG, Guwahati - PCBA",13-02-2024 04:00:00,26.2028636,91.70046436,OZONE,2,38,4
India,Assam,Guwahati,"LGBI Airport, Guwahati - PCBA",13-02-2024 04:00:00,26.10887,91.589544,NO2,9,77,27
India,Assam,Guwahati,"LGBI Airport, Guwahati - PCBA",13-02-2024 04:00:00,26.10887,91.589544,NH3,1,9,3
India,Assam,Guwahati,"Pan Bazaar, Guwahati - PCBA",13-02-2024 04:00:00,26.187500,91.744194,SO2,61,104,74
India,Assam,Guwahati,"Railway Colony, Guwahati - PCBA",13-02-2024 04:00:00,26.181742,91.78063,PM2.5,65,387,245
India,Assam,Nalbari,"Bata Chowk, Nalbari - PCBA",13-02-2024 04:00:00,26.446912,91.439057,CO,56,139,105
India,Assam,Sivasagar,"Girls College, Sivasagar - PCBA",13-02-2024 04:00:00,26.987634,94.636574,OZONE,NA,NA,NA
India,Bihar,Araria,"Kharahiya Basti, Araria - BSPCB",13-02-2024 04:00:00,26.146529,87.454184,PM10,134,500,328
India,Bihar,Arrah,"New DM Office, Arrah - BSPCB",13-02-2024 04:00:00,25.5626095,84.663264,PM10,90,322,180
India,Bihar,Arrah,"New DM Office, Arrah - BSPCB",13-02-2024 04:00:00,25.5626095,84.663264,NO2,18,105,48
India,Bihar,Arrah,"New DM Office, Arrah - BSPCB",13-02-2024 04:00:00,25.5626095,84.663264,NH3,5,11,7
India,Bihar,Aurangabad,"Gurdeo Nagar, Aurangabad - BSPCB",13-02-2024 04:00:00,24.75746,84.366208,NH3,3,27,9
India,Bihar,Bettiah,"Kamalnath Nagar, Bettiah - BSPCB",13-02-2024 04:00:00,26.80365,84.51954,PM2.5,18,123,62
India,Bihar,Bettiah,"Kamalnath Nagar, Bettiah - BSPCB",13-02-2024 04:00:00,26.80365,84.51954,PM10,28,145,87
India,Bihar,Bettiah,"Kamalnath Nagar, Bettiah - BSPCB",13-02-2024 04:00:00,26.80365,84.51954,SO2,12,21,17
India,Bihar,Bettiah,"Kamalnath Nagar, Bettiah - BSPCB",13-02-2024 04:00:00,26.80365,84.51954,CO,76,78,78
India,Bihar,Bhagalpur,"DM Office_Kachari Chowk, Bhagalpur - BSPCB",13-02-2024 04:00:00,25.251013,86.989001,PM2.5,147,410,285
India,Bihar,Bhagalpur,"DM Office_Kachari Chowk, Bhagalpur - BSPCB",13-02-2024 04:00:00,25.251013,86.989001,SO2,2,15,8
India,Bihar,Bhagalpur,"DM Office_Kachari Chowk, Bhagalpur - BSPCB",13-02-2024 04:00:00,25.251013,86.989001,CO,39,104,83
India,Bihar,Bhagalpur,"Mayaganj, Bhagalpur - BSPCB",13-02-2024 04:00:00,25.265194,87.012947,NO2,4,24,10
India,Bihar,Bhagalpur,"Mayaganj, Bhagalpur - BSPCB",13-02-2024 04:00:00,25.265194,87.012947,CO,8,11,9
India,Bihar,Bhagalpur,"Mayaganj, Bhagalpur - BSPCB",13-02-2024 04:00:00,25.265194,87.012947,OZONE,16,75,27
India,Bihar,Bihar Sharif,"D M Colony, Bihar Sharif - BSPCB",13-02-2024 04:00:00,25.204762,85.514960,NH3,2,2,2
India,Bihar,Buxar,"Charitra Van, Buxar - BSPCB (Formerly known as Central Jail)",13-02-2024 04:00:00,25.567520,83.966379,NH3,NA,NA,NA
India,Bihar,Chhapra,"Darshan Nagar, Chhapra - BSPCB",13-02-2024 04:00:00,25.7808257,84.7446768,PM10,78,439,215
India,Bihar,Gaya,"Kareemganj, Gaya - BSPCB",13-02-2024 04:00:00,24.792403,84.992416,PM2.5,33,332,131
India,Bihar,Gaya,"Kareemganj, Gaya - BSPCB",13-02-2024 04:00:00,24.792403,84.992416,CO,12,101,56
India,Bihar,Hajipur,"Industrial Area, Hajipur - BSPCB",13-02-2024 04:00:00,25.697189,85.245900,PM10,102,410,226
India,Bihar,Hajipur,"Industrial Area, Hajipur - BSPCB",13-02-2024 04:00:00,25.697189,85.245900,NH3,2,12,8
India,Bihar,Katihar,"Mirchaibari, Katihar - BSPCB",13-02-2024 04:00:00,25.560083,87.553265,CO,NA,NA,NA
India,Bihar,Manguraha,"Forest Rest House, Manguraha - BSPCB",13-02-2024 04:00:00,27.308328,84.531742,NH3,2,3,2
India,Bihar,Manguraha,"Forest Rest House, Manguraha - BSPCB",13-02-2024 04:00:00,27.308328,84.531742,OZONE,38,71,46
India,Bihar,Motihari,"Gandak Colony, Motihari - BSPCB",13-02-2024 04:00:00,26.63086,84.90051,NH3,7,13,9
India,Bihar,Motihari,"Gandak Colony, Motihari - BSPCB",13-02-2024 04:00:00,26.63086,84.90051,OZONE,32,110,56
India,Bihar,Munger,"Town Hall, Munger - BSPCB",13-02-2024 04:00:00,25.376776,86.471523,NO2,8,9,9
India,Bihar,Munger,"Town Hall, Munger - BSPCB",13-02-2024 04:00:00,25.376776,86.471523,SO2,32,44,39
India,Bihar,Muzaffarpur,"Buddha Colony, Muzaffarpur - BSPCB",13-02-2024 04:00:00,26.11442,85.39813,PM10,134,457,268
India,Bihar,Muzaffarpur,"Buddha Colony, Muzaffarpur - BSPCB",13-02-2024 04:00:00,26.11442,85.39813,NH3,2,15,10
India,Bihar,Muzaffarpur,"Muzaffarpur Collectorate, Muzaffarpur - BSPCB",13-02-2024 04:00:00,26.1209,85.3647,CO,20,68,39
India,Bihar,Muzaffarpur,"Muzaffarpur Collectorate, Muzaffarpur - BSPCB",13-02-2024 04:00:00,26.1209,85.3647,OZONE,11,135,41
India,Bihar,Patna,"DRM Office Danapur, Patna - BSPCB",13-02-2024 04:00:00,25.586562,85.043586,PM2.5,264,336,313
India,Bihar,Patna,"Govt. High School Shikarpur, Patna - BSPCB",13-02-2024 04:00:00,25.592539,85.227158,PM2.5,119,314,260
India,Bihar,Patna,"Govt. High School Shikarpur, Patna - BSPCB",13-02-2024 04:00:00,25.592539,85.227158,NO2,25,43,34
India,Bihar,Patna,"Muradpur, Patna - BSPCB",13-02-2024 04:00:00,25.619651,85.147382,NH3,2,4,3
India,Bihar,Patna,"Muradpur, Patna - BSPCB",13-02-2024 04:00:00,25.619651,85.147382,SO2,8,27,14
India,Bihar,Patna,"Muradpur, Patna - BSPCB",13-02-2024 04:00:00,25.619651,85.147382,CO,2,117,102
India,Bihar,Patna,"Rajbansi Nagar, Patna - BSPCB",13-02-2024 04:00:00,25.599486,85.113666,PM10,181,346,255
India,Bihar,Patna,"Samanpura, Patna - BSPCB",13-02-2024 04:00:00,25.596727,85.085624,NO2,25,114,60
India,Bihar,Patna,"Samanpura, Patna - BSPCB",13-02-2024 04:00:00,25.596727,85.085624,CO,47,162,138
India,Bihar,Purnia,"Mariam Nagar, Purnia - BSPCB",13-02-2024 04:00:00,25.366336,87.117468,PM2.5,NA,NA,NA
India,Bihar,Purnia,"Mariam Nagar, Purnia - BSPCB",13-02-2024 04:00:00,25.366336,87.117468,NO2,12,13,13
India,Bihar,Purnia,"Mariam Nagar, Purnia - BSPCB",13-02-2024 04:00:00,25.366336,87.117468,SO2,14,21,19
India,Bihar,Rajgir,"Dangi Tola, Rajgir - BSPCB",13-02-2024 04:00:00,25.03280,85.41948,SO2,4,5,4
India,Bihar,Sasaram,"Dada Peer, Sasaram - BSPCB",13-02-2024 04:00:00,24.952822,84.002396,PM10,54,193,132
India,Bihar,Sasaram,"Dada Peer, Sasaram - BSPCB",13-02-2024 04:00:00,24.952822,84.002396,OZONE,4,5,4
India,Bihar,Siwan,"Chitragupta Nagar, Siwan - BSPCB",13-02-2024 04:00:00,26.2271665,84.3570427,PM10,NA,NA,NA
India,Bihar,Siwan,"Chitragupta Nagar, Siwan - BSPCB",13-02-2024 04:00:00,26.2271665,84.3570427,NO2,14,125,49
India,Chandigarh,Chandigarh,"Sector-53, Chandigarh - CPCC",13-02-2024 04:00:00,30.719859,76.738637,PM10,114,410,240
India,Chandigarh,Chandigarh,"Sector-53, Chandigarh - CPCC",13-02-2024 04:00:00,30.719859,76.738637,NO2,43,119,87
India,Chandigarh,Chandigarh,"Sector-53, Chandigarh - CPCC",13-02-2024 04:00:00,30.719859,76.738637,SO2,NA,NA,NA
India,Chandigarh,Chandigarh,"Sector-53, Chandigarh - CPCC",13-02-2024 04:00:00,30.719859,76.738637,CO,48,132,110
India,Chhattisgarh,Bhilai,"32Bungalows, Bhilai - CECB",13-02-2024 04:00:00,21.194815,81.314770,PM2.5,44,72,59
India,Chhattisgarh,Bhilai,"32Bungalows, Bhilai - CECB",13-02-2024 04:00:00,21.194815,81.314770,OZONE,4,7,4
India,Chhattisgarh,Bhilai,"Civic Center, Bhilai - Bhilai Steel Plant",13-02-2024 04:00:00,21.185571,81.343175,PM10,NA,NA,NA
India,Chhattisgarh,Bhilai,"Civic Center, Bhilai - Bhilai Steel Plant",13-02-2024 04:00:00,21.185571,81.343175,OZONE,NA,NA,NA
India,Chhattisgarh,Chhal,"Nawapara SECL Colony, Chhal - CECB",13-02-2024 04:00:00,22.118125,83.140608,PM10,24,191,72
India,Chhattisgarh,Chhal,"Nawapara SECL Colony, Chhal - CECB",13-02-2024 04:00:00,22.118125,83.140608,CO,41,101,64
India,Chhattisgarh,Korba,"Rampur, Korba - CECB",13-02-2024 04:00:00,22.368195,82.746431,SO2,6,15,11
India,Chhattisgarh,Korba,"Urja Nagar, Korba - CECB",13-02-2024 04:00:00,22.348441,82.549611,SO2,2,6,4
India,Chhattisgarh,Kunjemura,"OP Jindal School, Kunjemura - CECB",13-02-2024 04:00:00,22.126650,83.483212,SO2,7,20,13
India,Chhattisgarh,Kunjemura,"OP Jindal School, Kunjemura - CECB",13-02-2024 04:00:00,22.126650,83.483212,CO,33,70,53
India,Chhattisgarh,Milupara,"Govt. Higher Secondary School, Milupara - CECB",13-02-2024 04:00:00,22.1910172,83.5197009,PM10,21,95,50
India,Chhattisgarh,Milupara,"Govt. Higher Secondary School, Milupara - CECB",13-02-2024 04:00:00,22.1910172,83.5197009,SO2,9,85,33
India,Chhattisgarh,Milupara,"Govt. Higher Secondary School, Milupara - CECB",13-02-2024 04:00:00,22.1910172,83.5197009,CO,5,57,37
India,Chhattisgarh,Raipur,"AIIMS, Raipur - CECB",13-02-2024 04:00:00,21.258815,81.578979,PM2.5,46,76,62
India,Chhattisgarh,Raipur,"Bhatagaon New ISBT, Raipur - CECB",13-02-2024 04:00:00,21.219665,81.630094,PM2.5,10,50,42
India,Chhattisgarh,Raipur,"Bhatagaon New ISBT, Raipur - CECB",13-02-2024 04:00:00,21.219665,81.630094,SO2,NA,NA,NA
India,Chhattisgarh,Raipur,"Krishak Nagar, Raipur - CECB",13-02-2024 04:00:00,21.237755,81.705301,NO2,18,36,25
India,Chhattisgarh,Raipur,"Krishak Nagar, Raipur - CECB",13-02-2024 04:00:00,21.237755,81.705301,CO,34,42,38
India,Delhi,Delhi,"Anand Vihar, Delhi - DPCC",13-02-2024 04:00:00,28.647622,77.3158090,NO2,75,192,139
India,Delhi,Delhi,"Anand Vihar, Delhi - DPCC",13-02-2024 04:00:00,28.647622,77.3158090,SO2,16,49,30
India,Delhi,Delhi,"Anand Vihar, Delhi - DPCC",13-02-2024 04:00:00,28.647622,77.3158090,CO,56,116,109
India,Delhi,Delhi,"Ashok Vihar, Delhi - DPCC",13-02-2024 04:00:00,28.695381,77.181665,PM10,178,368,272
India,Delhi,Delhi,"Ashok Vihar, Delhi - DPCC",13-02-2024 04:00:00,28.695381,77.181665,SO2,19,42,26
India,Delhi,Delhi,"Aya Nagar, Delhi - IMD",13-02-2024 04:00:00,28.4706914,77.1099364,CO,82,107,101
India,Delhi,Delhi,"Bawana, Delhi - DPCC",13-02-2024 04:00:00,28.776200,77.051074,PM10,154,354,249
India,Delhi,Delhi,"Burari Crossing, Delhi - IMD",13-02-2024 04:00:00,28.7256504,77.2011573,PM2.5,76,356,258
India,Delhi,Delhi,"Burari Crossing, Delhi - IMD",13-02-2024 04:00:00,28.7256504,77.2011573,PM10,165,391,258
India,Delhi,Delhi,"Burari Crossing, Delhi - IMD",13-02-2024 04:00:00,28.7256504,77.2011573,CO,102,106,104
India,Delhi,Delhi,"CRRI Mathura Road, Delhi - IMD",13-02-2024 04:00:00,28.5512005,77.2735737,PM2.5,160,360,290
India,Delhi,Delhi,"CRRI Mathura Road, Delhi - IMD",13-02-2024 04:00:00,28.5512005,77.2735737,PM10,119,296,197
India,Delhi,Delhi,"DTU, Delhi - CPCB",13-02-2024 04:00:00,28.7500499,77.1112615,OZONE,26,33,26
India,Delhi,Delhi,"Dwarka-Sector 8, Delhi - DPCC ",13-02-2024 04:00:00,28.5710274,77.0719006,PM2.5,323,439,361
India,Delhi,Delhi,"Dwarka-Sector 8, Delhi - DPCC ",13-02-2024 04:00:00,28.5710274,77.0719006,NO2,8,48,29
India,Delhi,Delhi,"Dwarka-Sector 8, Delhi - DPCC ",13-02-2024 04:00:00,28.5710274,77.0719006,SO2,4,12,8
India,Delhi,Delhi,"IGI Airport (T3), Delhi - IMD",13-02-2024 04:00:00,28.5627763,77.1180053,PM10,182,435,293
India,Delhi,Delhi,"IGI Airport (T3), Delhi - IMD",13-02-2024 04:00:00,28.5627763,77.1180053,NO2,42,162,76
India,Delhi,Delhi,"IGI Airport (T3), Delhi - IMD",13-02-2024 04:00:00,28.5627763,77.1180053,CO,18,120,91
India,Delhi,Delhi,"ITO, Delhi - CPCB",13-02-2024 04:00:00,28.628624,77.241060,NH3,1,7,3
India,Delhi,Delhi,"Lodhi Road, Delhi - IITM",13-02-2024 04:00:00,28.588333,77.221667,NH3,9,12,11
India,Delhi,Delhi,"Lodhi Road, Delhi - IITM",13-02-2024 04:00:00,28.588333,77.221667,CO,62,69,68
India,Delhi,Delhi,"Lodhi Road, Delhi - IMD",13-02-2024 04:00:00,28.5918245,77.2273074,NO2,7,11,9
India,Delhi,Delhi,"Lodhi Road, Delhi - IMD",13-02-2024 04:00:00,28.5918245,77.2273074,CO,55,96,85
India,Delhi,Delhi,"Major Dhyan Chand National Stadium, Delhi - DPCC",13-02-2024 04:00:00,28.611281,77.237738,NH3,11,14,12
India,Delhi,Delhi,"Major Dhyan Chand National Stadium, Delhi - DPCC",13-02-2024 04:00:00,28.611281,77.237738,OZONE,1,265,2
India,Delhi,Delhi,"Mandir Marg, Delhi - DPCC",13-02-2024 04:00:00,28.636429,77.201067,PM10,170,312,220
India,Delhi,Delhi,"Mundka, Delhi - DPCC",13-02-2024 04:00:00,28.684678,77.076574,NO2,37,111,78
India,Delhi,Delhi,"NSIT Dwarka, Delhi - CPCB",13-02-2024 04:00:00,28.60909,77.0325413,NO2,26,52,39
India,Delhi,Delhi,"NSIT Dwarka, Delhi - CPCB",13-02-2024 04:00:00,28.60909,77.0325413,NH3,9,12,11
India,Delhi,Delhi,"Najafgarh, Delhi - DPCC",13-02-2024 04:00:00,28.570173,76.933762,CO,12,44,33
India,Delhi,Delhi,"Narela, Delhi - DPCC",13-02-2024 04:00:00,28.822836,77.101981,NH3,5,14,9
India,Delhi,Delhi,"North Campus, DU, Delhi - IMD",13-02-2024 04:00:00,28.6573814,77.1585447,NO2,32,129,48
India,Delhi,Delhi,"North Campus, DU, Delhi - IMD",13-02-2024 04:00:00,28.6573814,77.1585447,CO,16,45,31
India,Delhi,Delhi,"Okhla Phase-2, Delhi - DPCC",13-02-2024 04:00:00,28.530785,77.271255,PM10,165,428,279
India,Delhi,Delhi,"Punjabi Bagh, Delhi - DPCC",13-02-2024 04:00:00,28.674045,77.131023,PM2.5,311,433,366
India,Delhi,Delhi,"Punjabi Bagh, Delhi - DPCC",13-02-2024 04:00:00,28.674045,77.131023,PM10,184,420,273
India,Delhi,Delhi,"Punjabi Bagh, Delhi - DPCC",13-02-2024 04:00:00,28.674045,77.131023,SO2,1,22,14
India,Delhi,Delhi,"Pusa, Delhi - DPCC",13-02-2024 04:00:00,28.639652,77.146275,NO2,84,388,201
India,Delhi,Delhi,"Pusa, Delhi - IMD",13-02-2024 04:00:00,28.636110,77.173332,NO2,NA,NA,NA
India,Delhi,Delhi,"R K Puram, Delhi - DPCC",13-02-2024 04:00:00,28.563262,77.186937,NO2,46,156,90
India,Delhi,Delhi,"R K Puram, Delhi - DPCC",13-02-2024 04:00:00,28.563262,77.186937,CO,36,135,118
India,Delhi,Delhi,"Rohini, Delhi - DPCC",13-02-2024 04:00:00,28.732528,77.119920,NO2,30,99,58
India,Delhi,Delhi,"Rohini, Delhi - DPCC",13-02-2024 04:00:00,28.732528,77.119920,NH3,10,16,13
India,Delhi,Delhi,"Shadipur, Delhi - CPCB",13-02-2024 04:00:00,28.6514781,77.1473105,PM10,152,408,280
India,Delhi,Delhi,"Shadipur, Delhi - CPCB",13-02-2024 04:00:00,28.6514781,77.1473105,NO2,30,59,47
India,Delhi,Delhi,"Shadipur, Delhi - CPCB",13-02-2024 04:00:00,28.6514781,77.1473105,OZONE,2,83,26
India,Delhi,Delhi,"Sirifort, Delhi - CPCB",13-02-2024 04:00:00,28.5504249,77.2159377,NO2,113,194,172
India,Delhi,Delhi,"Vivek Vihar, Delhi - DPCC",13-02-2024 04:00:00,28.672342,77.315260,NH3,4,9,7
India,Delhi,Delhi,"Wazirpur, Delhi - DPCC",13-02-2024 04:00:00,28.699793,77.165453,PM10,220,466,346
India,Delhi,Delhi,"Wazirpur, Delhi - DPCC",13-02-2024 04:00:00,28.699793,77.165453,NO2,127,280,193
India,Delhi,Delhi,"Wazirpur, Delhi - DPCC",13-02-2024 04:00:00,28.699793,77.165453,SO2,19,52,31
India,Gujarat,Ahmedabad,"Chandkheda, Ahmedabad - IITM",13-02-2024 04:00:00,23.107969,72.574648,NO2,14,92,59
India,Gujarat,Ahmedabad,"Maninagar, Ahmedabad - GPCB",13-02-2024 04:00:00,23.002657,72.591912,PM10,43,108,72
India,Gujarat,Ahmedabad,"Maninagar, Ahmedabad - GPCB",13-02-2024 04:00:00,23.002657,72.591912,SO2,19,65,28
India,Gujarat,Ahmedabad,"Maninagar, Ahmedabad - GPCB",13-02-2024 04:00:00,23.002657,72.591912,CO,18,62,33
India,Gujarat,Ahmedabad,"Maninagar, Ahmedabad - GPCB",13-02-2024 04:00:00,23.002657,72.591912,OZONE,14,98,37
India,Gujarat,Ahmedabad,"Raikhad, Ahmedabad - IITM",13-02-2024 04:00:00,23.020509,72.579261,PM2.5,59,287,191
India,Gujarat,Ahmedabad,"Raikhad, Ahmedabad - IITM",13-02-2024 04:00:00,23.020509,72.579261,PM10,54,157,124
India,Gujarat,Ahmedabad,"Raikhad, Ahmedabad - IITM",13-02-2024 04:00:00,23.020509,72.579261,SO2,2,14,5
India,Gujarat,Ahmedabad,"Rakhial, Ahmedabad - IITM",13-02-2024 04:00:00,23.016834,72.625775,OZONE,2,39,17
India,Gujarat,Ahmedabad,"SAC ISRO Bopal, Ahmedabad - IITM",13-02-2024 04:00:00,23.041137,72.456691,NO2,21,28,25
India,Gujarat,Ahmedabad,"SAC ISRO Satellite, Ahmedabad - IITM",13-02-2024 04:00:00,23.023389,72.515201,NO2,17,17,17
India,Gujarat,Ahmedabad,"SAC ISRO Satellite, Ahmedabad - IITM",13-02-2024 04:00:00,23.023389,72.515201,SO2,13,42,19
India,Gujarat,Ahmedabad,"SAC ISRO Satellite, Ahmedabad - IITM",13-02-2024 04:00:00,23.023389,72.515201,OZONE,10,19,12
India,Gujarat,Ahmedabad,"SVPI Airport Hansol, Ahmedabad - IITM",13-02-2024 04:00:00,23.076793,72.627874,PM10,97,179,127
India,Gujarat,Ahmedabad,"SVPI Airport Hansol, Ahmedabad - IITM",13-02-2024 04:00:00,23.076793,72.627874,NO2,1,5,3
India,Gujarat,Ahmedabad,"Sardar Vallabhbhai Patel Stadium, Ahmedabad - IITM",13-02-2024 04:00:00,23.043070,72.562968,PM10,80,152,105
India,Gujarat,Ankleshwar,"GIDC, Ankleshwar - GPCB",13-02-2024 04:00:00,21.613267,73.010555,PM2.5,40,239,151
India,Gujarat,Ankleshwar,"GIDC, Ankleshwar - GPCB",13-02-2024 04:00:00,21.613267,73.010555,NO2,36,37,36
India,Gujarat,Gandhinagar,"GIFT City, Gandhinagar - IITM",13-02-2024 04:00:00,23.163798,72.677768,CO,16,34,29
India,Gujarat,Gandhinagar,"GIFT City, Gandhinagar - IITM",13-02-2024 04:00:00,23.163798,72.677768,OZONE,14,40,16
India,Gujarat,Gandhinagar,"Sector-10, Gandhinagar - GPCB",13-02-2024 04:00:00,23.221714,72.654328,PM10,31,123,62
India,Gujarat,Surat,"Science Center, Surat - SMC",13-02-2024 04:00:00,21.170046,72.795405,PM2.5,48,93,63
India,Gujarat,Surat,"Science Center, Surat - SMC",13-02-2024 04:00:00,21.170046,72.795405,NO2,2,38,28
India,Gujarat,Surat,"Science Center, Surat - SMC",13-02-2024 04:00:00,21.170046,72.795405,CO,49,86,73
India,Gujarat,Vatva,"Phase-4 GIDC, Vatva - GPCB",13-02-2024 04:00:00,22.969611,72.643500,CO,48,50,49
India,Haryana,Ambala,"Patti Mehar, Ambala - HSPCB",13-02-2024 04:00:00,30.379589,76.778328,PM2.5,69,163,108
India,Haryana,Ambala,"Patti Mehar, Ambala - HSPCB",13-02-2024 04:00:00,30.379589,76.778328,SO2,2,10,6
India,Haryana,Bahadurgarh,"Arya Nagar, Bahadurgarh - HSPCB",13-02-2024 04:00:00,28.6701,76.9254,PM10,130,196,157
India,Haryana,Bahadurgarh,"Arya Nagar, Bahadurgarh - HSPCB",13-02-2024 04:00:00,28.6701,76.9254,NO2,33,41,37
India,Haryana,Bahadurgarh,"Arya Nagar, Bahadurgarh - HSPCB",13-02-2024 04:00:00,28.6701,76.9254,SO2,9,11,10
India,Haryana,Ballabgarh,"Nathu Colony, Ballabgarh - HSPCB",13-02-2024 04:00:00,28.3419248,77.319699,NO2,8,13,12
India,Haryana,Ballabgarh,"Nathu Colony, Ballabgarh - HSPCB",13-02-2024 04:00:00,28.3419248,77.319699,SO2,10,114,22
India,Haryana,Ballabgarh,"Nathu Colony, Ballabgarh - HSPCB",13-02-2024 04:00:00,28.3419248,77.319699,CO,14,119,101
India,Haryana,Bhiwani,"H.B. Colony, Bhiwani - HSPCB",13-02-2024 04:00:00,28.806223,76.141105,OZONE,13,19,15
India,Haryana,Charkhi Dadri,"Mini Secretariat, Charkhi Dadri - HSPCB",13-02-2024 04:00:00,28.593883,76.270653,PM2.5,146,320,252
India,Haryana,Charkhi Dadri,"Mini Secretariat, Charkhi Dadri - HSPCB",13-02-2024 04:00:00,28.593883,76.270653,CO,22,65,53
India,Haryana,Charkhi Dadri,"Mini Secretariat, Charkhi Dadri - HSPCB",13-02-2024 04:00:00,28.593883,76.270653,OZONE,12,17,15
India,Haryana,Dharuhera,"Municipal Corporation Office, Dharuhera -  HSPCB",13-02-2024 04:00:00,28.206800,76.799700,PM2.5,127,317,243
India,Haryana,Dharuhera,"Municipal Corporation Office, Dharuhera -  HSPCB",13-02-2024 04:00:00,28.206800,76.799700,PM10,174,427,311
India,Haryana,Dharuhera,"Municipal Corporation Office, Dharuhera -  HSPCB",13-02-2024 04:00:00,28.206800,76.799700,CO,32,89,61
India,Haryana,Faridabad,"Sector 11, Faridabad - HSPCB",13-02-2024 04:00:00,28.376058,77.315741,SO2,12,19,15
India,Haryana,Faridabad,"Sector 30, Faridabad - HSPCB",13-02-2024 04:00:00,28.4417,77.3217,NO2,30,33,32
India,Haryana,Gurugram,"Sector-51, Gurugram - HSPCB",13-02-2024 04:00:00,28.4227,77.0667,PM2.5,306,453,360
India,Haryana,Gurugram,"Sector-51, Gurugram - HSPCB",13-02-2024 04:00:00,28.4227,77.0667,PM10,178,437,271
India,Haryana,Gurugram,"Sector-51, Gurugram - HSPCB",13-02-2024 04:00:00,28.4227,77.0667,NO2,13,29,23
India,Haryana,Gurugram,"Sector-51, Gurugram - HSPCB",13-02-2024 04:00:00,28.4227,77.0667,CO,42,111,97
India,Haryana,Gurugram,"Sector-51, Gurugram - HSPCB",13-02-2024 04:00:00,28.4227,77.0667,OZONE,27,67,49
India,Haryana,Gurugram,"Teri Gram, Gurugram - HSPCB",13-02-2024 04:00:00,28.4275,77.1465,NO2,22,56,40
India,Haryana,Gurugram,"Teri Gram, Gurugram - HSPCB",13-02-2024 04:00:00,28.4275,77.1465,SO2,4,4,4
India,Haryana,Gurugram,"Vikas Sadan, Gurugram - HSPCB",13-02-2024 04:00:00,28.4501238,77.0263051,SO2,21,60,32
India,Haryana,Jind,"Police Lines, Jind - HSPCB",13-02-2024 04:00:00,29.307814,76.337619,CO,2,124,37
India,Haryana,Karnal,"Sector-12, Karnal - HSPCB",13-02-2024 04:00:00,29.695300,77.002700,CO,40,74,50
India,Haryana,Manesar,"Sector-2 IMT, Manesar - HSPCB",13-02-2024 04:00:00,28.360699,76.936090,PM10,119,229,164
India,Haryana,Manesar,"Sector-2 IMT, Manesar - HSPCB",13-02-2024 04:00:00,28.360699,76.936090,OZONE,5,59,6
India,Haryana,Narnaul,"Shastri Nagar, Narnaul - HSPCB",13-02-2024 04:00:00,28.060249,76.113115,PM10,50,133,97
India,Haryana,Palwal,"Shyam Nagar, Palwal - HSPCB",13-02-2024 04:00:00,28.1485564,77.3320667,OZONE,4,126,16
India,Haryana,Sirsa,"F-Block, Sirsa - HSPCB",13-02-2024 04:00:00,29.536400,75.015800,NO2,9,10,10
India,Haryana,Sonipat,"Murthal, Sonipat - HSPCB",13-02-2024 04:00:00,29.027200,77.062100,SO2,13,29,20
India,Haryana,Sonipat,"Murthal, Sonipat - HSPCB",13-02-2024 04:00:00,29.027200,77.062100,OZONE,16,36,18
India,Haryana,Yamuna Nagar,"Gobind Pura, Yamuna Nagar - HSPCB",13-02-2024 04:00:00,30.1480566,77.2893471,NH3,NA,NA,NA
India,Jharkhand,Dhanbad,"Kalakusuma, Dhanbad - DMC",13-02-2024 04:00:00,23.811548,86.481238,NO2,35,36,35
India,Jharkhand,Dhanbad,"Sardar Patel Nagar, Dhanbad - JSPCB",13-02-2024 04:00:00,23.80569,86.44268,PM10,NA,NA,NA
India,Jharkhand,Dhanbad,"Sardar Patel Nagar, Dhanbad - JSPCB",13-02-2024 04:00:00,23.80569,86.44268,SO2,NA,NA,NA
India,Jharkhand,Pathardih,"Mohalbani Ghat, Pathardih - DMC",13-02-2024 04:00:00,23.669880,86.411725,OZONE,NA,NA,NA
India,Karnataka,Bagalkot,"Vidayagiri, Bagalkot - KSPCB",13-02-2024 04:00:00,16.172806,75.659694,PM2.5,20,30,29
India,Karnataka,Bagalkot,"Vidayagiri, Bagalkot - KSPCB",13-02-2024 04:00:00,16.172806,75.659694,PM10,46,51,48
India,Karnataka,Belgaum,"Ramteerth Nagar, Belgaum - KSPCB",13-02-2024 04:00:00,15.888653,74.541751,PM2.5,22,205,69
India,Karnataka,Belgaum,"Ramteerth Nagar, Belgaum - KSPCB",13-02-2024 04:00:00,15.888653,74.541751,CO,32,44,36
India,Karnataka,Bengaluru,"BTM Layout, Bengaluru - CPCB",13-02-2024 04:00:00,12.9135218,77.5950804,PM2.5,31,53,40
India,Karnataka,Bengaluru,"BTM Layout, Bengaluru - CPCB",13-02-2024 04:00:00,12.9135218,77.5950804,SO2,3,13,11
India,Karnataka,Bengaluru,"BTM Layout, Bengaluru - CPCB",13-02-2024 04:00:00,12.9135218,77.5950804,OZONE,4,23,9
India,Karnataka,Bengaluru,"Bapuji Nagar, Bengaluru - KSPCB",13-02-2024 04:00:00,12.951913,77.539784,PM10,66,160,100
India,Karnataka,Bengaluru,"Bapuji Nagar, Bengaluru - KSPCB",13-02-2024 04:00:00,12.951913,77.539784,NH3,1,1,1
India,Karnataka,Bengaluru,"Hebbal, Bengaluru - KSPCB",13-02-2024 04:00:00,13.029152,77.585901,NH3,1,1,1
India,Karnataka,Bengaluru,"Hebbal, Bengaluru - KSPCB",13-02-2024 04:00:00,13.029152,77.585901,SO2,3,18,14
India,Karnataka,Bengaluru,"Hombegowda Nagar, Bengaluru - KSPCB",13-02-2024 04:00:00,12.938539,77.590100,NO2,33,41,39
India,Karnataka,Bengaluru,"Kasturi Nagar, Bengaluru - KSPCB",13-02-2024 04:00:00,13.003872,77.664217,NH3,3,4,4
India,Karnataka,Bengaluru,"Peenya, Bengaluru - CPCB",13-02-2024 04:00:00,13.0270199,77.494094,OZONE,19,99,83
India,Karnataka,Bengaluru,"Sanegurava Halli, Bengaluru - KSPCB",13-02-2024 04:00:00,12.990328,77.5431385,PM10,26,65,35
India,Karnataka,Bengaluru,"Sanegurava Halli, Bengaluru - KSPCB",13-02-2024 04:00:00,12.990328,77.5431385,NO2,22,38,29
India,Karnataka,Bengaluru,"Shivapura_Peenya, Bengaluru - KSPCB",13-02-2024 04:00:00,13.0246342,77.5080115,CO,16,47,30
India,Karnataka,Bengaluru,"Silk Board, Bengaluru - KSPCB",13-02-2024 04:00:00,12.917348,77.622813,PM10,75,118,91
India,Karnataka,Bengaluru,"Silk Board, Bengaluru - KSPCB",13-02-2024 04:00:00,12.917348,77.622813,NH3,NA,NA,NA
India,Karnataka,Bengaluru,"Silk Board, Bengaluru - KSPCB",13-02-2024 04:00:00,12.917348,77.622813,CO,28,39,34
India,Karnataka,Bidar,"Naubad, Bidar - KSPCB",13-02-2024 04:00:00,17.930306,77.482194,PM2.5,34,165,73
India,Karnataka,Bidar,"Naubad, Bidar - KSPCB",13-02-2024 04:00:00,17.930306,77.482194,NH3,3,3,3
India,Karnataka,Bidar,"Naubad, Bidar - KSPCB",13-02-2024 04:00:00,17.930306,77.482194,CO,38,102,56
India,Karnataka,Chamarajanagar,"Urban, Chamarajanagar - KSPCB",13-02-2024 04:00:00,11.55358,76.55521,OZONE,15,43,17
India,Karnataka,Chikkaballapur,"Chikkaballapur Rural, Chikkaballapur - KSPCB",13-02-2024 04:00:00,13.428828,77.731418,PM10,56,125,81
India,Karnataka,Chikkaballapur,"Chikkaballapur Rural, Chikkaballapur - KSPCB",13-02-2024 04:00:00,13.428828,77.731418,SO2,20,31,23
India,Karnataka,Chikkamagaluru,"Kalyana Nagara, Chikkamagaluru - KSPCB",13-02-2024 04:00:00,13.328028,75.797056,CO,11,60,19
India,Karnataka,Dharwad,"Kalabhavan, Dharwad - KSPCB",13-02-2024 04:00:00,15.459706,75.008381,CO,38,134,92
India,Karnataka,Hassan,"B.Katihalli, Hassan - KSPCB",13-02-2024 04:00:00,13.008556,76.125258,NO2,7,15,8
India,Karnataka,Hassan,"B.Katihalli, Hassan - KSPCB",13-02-2024 04:00:00,13.008556,76.125258,OZONE,5,32,13
India,Karnataka,Haveri,"Ashwini Nagar, Haveri - KSPCB",13-02-2024 04:00:00,14.791800,75.389600,SO2,13,14,14
India,Karnataka,Hubballi,"Lingaraj Nagar, Hubballi - KSPCB",13-02-2024 04:00:00,15.3714823,75.1160168,PM10,50,67,60
India,Karnataka,Hubballi,"Lingaraj Nagar, Hubballi - KSPCB",13-02-2024 04:00:00,15.3714823,75.1160168,SO2,1,5,1
India,Karnataka,Hubballi,"Lingaraj Nagar, Hubballi - KSPCB",13-02-2024 04:00:00,15.3714823,75.1160168,OZONE,3,41,14
India,Karnataka,Kalaburagi,"Lal Bahadur Shastri Nagar, Kalaburagi - KSPCB",13-02-2024 04:00:00,17.321993,76.822628,NO2,11,12,12
India,Karnataka,Kalaburagi,"Lal Bahadur Shastri Nagar, Kalaburagi - KSPCB",13-02-2024 04:00:00,17.321993,76.822628,SO2,14,16,15
India,Karnataka,Karwar,"KHB Colony, Karwar - KSPCB",13-02-2024 04:00:00,14.816666,74.141003,NH3,2,4,2
India,Karnataka,Karwar,"KHB Colony, Karwar - KSPCB",13-02-2024 04:00:00,14.816666,74.141003,SO2,18,19,18
India,Karnataka,Kolar,"Tamaka Ind. Area, Kolar - KSPCB",13-02-2024 04:00:00,13.1276288,78.1570122,PM10,NA,NA,NA
