country,state,city,station,last_update,latitude,longitude,pollutant_id,pollutant_min,pollutant_max,pollutant_avg
India,Andhra_Pradesh,Amaravati,"Secretariat, Amaravati - APPCB",11-05-2024 09:00:00,16.5150833,80.5181667,NO2,5,31,15
India,Andhra_Pradesh,Amaravati,"Secretariat, Amaravati - APPCB",11-05-2024 09:00:00,16.5150833,80.5181667,NH3,1,4,3
India,Andhra_Pradesh,Amaravati,"Secretariat, Amaravati - APPCB",11-05-2024 09:00:00,16.5150833,80.5181667,OZONE,2,43,4
India,Andhra_Pradesh,Anantapur,"Gulzarpet, Anantapur - APPCB",11-05-2024 09:00:00,14.675886,77.593027,PM10,54,487,86
India,Andhra_Pradesh,Anantapur,"Gulzarpet, Anantapur - APPCB",11-05-2024 09:00:00,14.675886,77.593027,SO2,3,7,5
India,Andhra_Pradesh,Chittoor,"Gangineni Cheruvu, Chittoor - APPCB",11-05-2024 09:00:00,13.204880,79.097889,NO2,NA,NA,NA
India,Andhra_Pradesh,Chittoor,"Gangineni Cheruvu, Chittoor - APPCB",11-05-2024 09:00:00,13.204880,79.097889,SO2,NA,NA,NA
India,Andhra_Pradesh,Kadapa,"Yerramukkapalli, Kadapa - APPCB",11-05-2024 09:00:00,14.465052,78.824187,NO2,12,13,12
India,Andhra_Pradesh,Kadapa,"Yerramukkapalli, Kadapa - APPCB",11-05-2024 09:00:00,14.465052,78.824187,NH3,3,3,3
India,Andhra_Pradesh,Tirupati,"Tirumala, Tirupati - APPCB",11-05-2024 09:00:00,13.67,79.35,PM10,10,126,39
India,Andhra_Pradesh,Tirupati,"Tirumala, Tirupati - APPCB",11-05-2024 09:00:00,13.67,79.35,NH3,1,1,1
India,Andhra_Pradesh,Tirupati,"Vaikuntapuram, Tirupati - APPCB",11-05-2024 09:00:00,13.615387,79.409230,PM2.5,NA,NA,NA
India,Andhra_Pradesh,Vijayawada,"HB Colony, Vijayawada - APPCB",11-05-2024 09:00:00,16.536107,80.594233,PM10,39,116,60
India,Andhra_Pradesh,Vijayawada,"HB Colony, Vijayawada - APPCB",11-05-2024 09:00:00,16.536107,80.594233,SO2,5,8,6
India,Andhra_Pradesh,Vijayawada,"Kanuru, Vijayawada - APPCB",11-05-2024 09:00:00,16.486692,80.699436,NO2,49,54,51
India,Andhra_Pradesh,Vijayawada,"Rajiv Gandhi Park, Vijayawada - APPCB",11-05-2024 09:00:00,16.509717,80.612222,PM10,28,99,57
India,Andhra_Pradesh,Vijayawada,"Rajiv Gandhi Park, Vijayawada - APPCB",11-05-2024 09:00:00,16.509717,80.612222,NH3,2,5,3
India,Andhra_Pradesh,Vijayawada,"Rajiv Gandhi Park, Vijayawada - APPCB",11-05-2024 09:00:00,16.509717,80.612222,CO,31,46,32
India,Andhra_Pradesh,Vijayawada,"Rajiv Nagar, Vijayawada - APPCB",11-05-2024 09:00:00,16.554731,80.649110,NO2,12,13,12
India,Andhra_Pradesh,Vijayawada,"Rajiv Nagar, Vijayawada - APPCB",11-05-2024 09:00:00,16.554731,80.649110,OZONE,15,28,17
India,Andhra_Pradesh,Visakhapatnam,"GVM Corporation, Visakhapatnam - APPCB",11-05-2024 09:00:00,17.72,83.3,PM10,35,111,68
India,Arunachal_Pradesh,Naharlagun,"Naharlagun, Naharlagun - APSPCB",11-05-2024 09:00:00,27.103358,93.679645,PM2.5,7,43,27
India,Arunachal_Pradesh,Naharlagun,"Naharlagun, Naharlagun - APSPCB",11-05-2024 09:00:00,27.103358,93.679645,SO2,4,4,4
India,Assam,Byrnihat,"Central Academy for SFS, Byrnihat - PCBA",11-05-2024 09:00:00,26.071318,91.87488,NH3,15,21,18
India,Assam,Guwahati,"IITG, Guwahati - PCBA",11-05-2024 09:00:00,26.2028636,91.70046436,NO2,1,2,1
India,Assam,Guwahati,"LGBI Airport, Guwahati - PCBA",11-05-2024 09:00:00,26.10887,91.589544,NH3,1,4,2
India,Assam,Nagaon,"Christianpatty, Nagaon - PCBA",11-05-2024 09:00:00,26.349082,92.68449,NO2,2,22,7
India,Assam,Nagaon,"Christianpatty, Nagaon - PCBA",11-05-2024 09:00:00,26.349082,92.68449,NH3,1,3,2
India,Assam,Nalbari,"Bata Chowk, Nalbari - PCBA",11-05-2024 09:00:00,26.446912,91.439057,NH3,1,1,1
India,Assam,Nalbari,"Bata Chowk, Nalbari - PCBA",11-05-2024 09:00:00,26.446912,91.439057,SO2,9,17,11
India,Assam,Silchar,"Tarapur, Silchar - PCBA",11-05-2024 09:00:00,24.82827,92.79525,CO,23,31,26
India,Assam,Sivasagar,"Girls College, Sivasagar - PCBA",11-05-2024 09:00:00,26.987634,94.636574,PM2.5,26,28,26
India,Bihar,Araria,"Kharahiya Basti, Araria - BSPCB",11-05-2024 09:00:00,26.146529,87.454184,PM2.5,9,49,32
India,Bihar,Araria,"Kharahiya Basti, Araria - BSPCB",11-05-2024 09:00:00,26.146529,87.454184,NO2,6,177,15
India,Bihar,Araria,"Kharahiya Basti, Araria - BSPCB",11-05-2024 09:00:00,26.146529,87.454184,NH3,6,7,6
India,Bihar,Araria,"Kharahiya Basti, Araria - BSPCB",11-05-2024 09:00:00,26.146529,87.454184,SO2,5,18,12
India,Bihar,Arrah,"New DM Office, Arrah - BSPCB",11-05-2024 09:00:00,25.5626095,84.663264,PM2.5,25,65,45
India,Bihar,Arrah,"New DM Office, Arrah - BSPCB",11-05-2024 09:00:00,25.5626095,84.663264,NO2,1,6,3
India,Bihar,Aurangabad,"Gurdeo Nagar, Aurangabad - BSPCB",11-05-2024 09:00:00,24.75746,84.366208,PM2.5,47,78,63
India,Bihar,Aurangabad,"Gurdeo Nagar, Aurangabad - BSPCB",11-05-2024 09:00:00,24.75746,84.366208,NH3,5,15,11
India,Bihar,Bhagalpur,"DM Office_Kachari Chowk, Bhagalpur - BSPCB",11-05-2024 09:00:00,25.251013,86.989001,PM10,68,129,96
India,Bihar,Bhagalpur,"DM Office_Kachari Chowk, Bhagalpur - BSPCB",11-05-2024 09:00:00,25.251013,86.989001,NO2,39,70,57
India,Bihar,Bhagalpur,"DM Office_Kachari Chowk, Bhagalpur - BSPCB",11-05-2024 09:00:00,25.251013,86.989001,SO2,7,72,23
India,Bihar,Bhagalpur,"DM Office_Kachari Chowk, Bhagalpur - BSPCB",11-05-2024 09:00:00,25.251013,86.989001,CO,15,51,39
India,Bihar,Bhagalpur,"Mayaganj, Bhagalpur - BSPCB",11-05-2024 09:00:00,25.265194,87.012947,NO2,3,12,7
India,Bihar,Bhagalpur,"Mayaganj, Bhagalpur - BSPCB",11-05-2024 09:00:00,25.265194,87.012947,SO2,3,12,12
India,Bihar,Bhagalpur,"Mayaganj, Bhagalpur - BSPCB",11-05-2024 09:00:00,25.265194,87.012947,CO,8,10,9
India,Bihar,Bihar Sharif,"D M Colony, Bihar Sharif - BSPCB",11-05-2024 09:00:00,25.204762,85.514960,CO,52,68,58
India,Bihar,Chhapra,"Darshan Nagar, Chhapra - BSPCB",11-05-2024 09:00:00,25.7808257,84.7446768,SO2,16,31,24
India,Bihar,Chhapra,"Darshan Nagar, Chhapra - BSPCB",11-05-2024 09:00:00,25.7808257,84.7446768,CO,31,63,45
India,Bihar,Gaya,"Collectorate, Gaya - BSPCB",11-05-2024 09:00:00,24.7955,84.9994,CO,8,148,144
India,Bihar,Gaya,"Kareemganj, Gaya - BSPCB",11-05-2024 09:00:00,24.792403,84.992416,NH3,2,6,4
India,Bihar,Gaya,"Kareemganj, Gaya - BSPCB",11-05-2024 09:00:00,24.792403,84.992416,SO2,6,11,9
India,Bihar,Gaya,"SFTI Kusdihra, Gaya - BSPCB",11-05-2024 09:00:00,24.762518,84.982348,PM10,40,67,54
India,Bihar,Hajipur,"Industrial Area, Hajipur - BSPCB",11-05-2024 09:00:00,25.697189,85.245900,PM2.5,16,76,41
India,Bihar,Hajipur,"Industrial Area, Hajipur - BSPCB",11-05-2024 09:00:00,25.697189,85.245900,NO2,9,62,30
India,Bihar,Hajipur,"Industrial Area, Hajipur - BSPCB",11-05-2024 09:00:00,25.697189,85.245900,CO,20,43,38
India,Bihar,Katihar,"Mirchaibari, Katihar - BSPCB",11-05-2024 09:00:00,25.560083,87.553265,SO2,7,33,27
India,Bihar,Kishanganj,"SDM Office_Khagra, Kishanganj - BSPCB",11-05-2024 09:00:00,26.0881305,87.93840336,NO2,28,30,28
India,Bihar,Kishanganj,"SDM Office_Khagra, Kishanganj - BSPCB",11-05-2024 09:00:00,26.0881305,87.93840336,SO2,12,32,29
India,Bihar,Manguraha,"Forest Rest House, Manguraha - BSPCB",11-05-2024 09:00:00,27.308328,84.531742,PM2.5,22,60,40
India,Bihar,Manguraha,"Forest Rest House, Manguraha - BSPCB",11-05-2024 09:00:00,27.308328,84.531742,CO,18,33,26
India,Bihar,Motihari,"Gandak Colony, Motihari - BSPCB",11-05-2024 09:00:00,26.63086,84.90051,PM10,NA,NA,NA
India,Bihar,Motihari,"Gandak Colony, Motihari - BSPCB",11-05-2024 09:00:00,26.63086,84.90051,NO2,NA,NA,NA
India,Bihar,Munger,"Town Hall, Munger - BSPCB",11-05-2024 09:00:00,25.376776,86.471523,SO2,13,29,24
India,Bihar,Muzaffarpur,"Buddha Colony, Muzaffarpur - BSPCB",11-05-2024 09:00:00,26.11442,85.39813,SO2,4,8,6
India,Bihar,Muzaffarpur,"Buddha Colony, Muzaffarpur - BSPCB",11-05-2024 09:00:00,26.11442,85.39813,CO,20,44,28
India,Bihar,Patna,"DRM Office Danapur, Patna - BSPCB",11-05-2024 09:00:00,25.586562,85.043586,NO2,16,395,63
India,Bihar,Patna,"IGSC Planetarium Complex, Patna - BSPCB",11-05-2024 09:00:00,25.610369,85.132568,CO,10,16,11
India,Bihar,Patna,"Muradpur, Patna - BSPCB",11-05-2024 09:00:00,25.619651,85.147382,PM2.5,92,144,128
India,Bihar,Patna,"Rajbansi Nagar, Patna - BSPCB",11-05-2024 09:00:00,25.599486,85.113666,NH3,3,3,3
India,Bihar,Patna,"Samanpura, Patna - BSPCB",11-05-2024 09:00:00,25.596727,85.085624,NO2,14,28,20
India,Bihar,Patna,"Samanpura, Patna - BSPCB",11-05-2024 09:00:00,25.596727,85.085624,CO,44,73,64
India,Bihar,Patna,"Samanpura, Patna - BSPCB",11-05-2024 09:00:00,25.596727,85.085624,OZONE,25,139,41
India,Bihar,Purnia,"Mariam Nagar, Purnia - BSPCB",11-05-2024 09:00:00,25.366336,87.117468,PM2.5,27,110,56
India,Bihar,Rajgir,"Dangi Tola, Rajgir - BSPCB",11-05-2024 09:00:00,25.03280,85.41948,NH3,2,3,3
India,Bihar,Saharsa,"Police Line, Saharsa - BSPCB",11-05-2024 09:00:00,25.892357,86.590325,PM10,21,157,67
India,Bihar,Saharsa,"Police Line, Saharsa - BSPCB",11-05-2024 09:00:00,25.892357,86.590325,NH3,9,9,9
India,Bihar,Saharsa,"Police Line, Saharsa - BSPCB",11-05-2024 09:00:00,25.892357,86.590325,CO,54,55,54
India,Bihar,Sasaram,"Dada Peer, Sasaram - BSPCB",11-05-2024 09:00:00,24.952822,84.002396,CO,44,88,86
India,Bihar,Siwan,"Chitragupta Nagar, Siwan - BSPCB",11-05-2024 09:00:00,26.2271665,84.3570427,NO2,13,34,22
India,Bihar,Siwan,"Chitragupta Nagar, Siwan - BSPCB",11-05-2024 09:00:00,26.2271665,84.3570427,CO,52,136,72
India,Chandigarh,Chandigarh,"Sector-25, Chandigarh - CPCC",11-05-2024 09:00:00,30.751462,76.762879,SO2,9,40,14
India,Chandigarh,Chandigarh,"Sector-53, Chandigarh - CPCC",11-05-2024 09:00:00,30.719859,76.738637,PM10,109,447,197
India,Chhattisgarh,Bhilai,"32Bungalows, Bhilai - CECB",11-05-2024 09:00:00,21.194815,81.314770,PM2.5,24,67,42
India,Chhattisgarh,Bhilai,"32Bungalows, Bhilai - CECB",11-05-2024 09:00:00,21.194815,81.314770,OZONE,6,36,7
India,Chhattisgarh,Bhilai,"Civic Center, Bhilai - Bhilai Steel Plant",11-05-2024 09:00:00,21.185571,81.343175,PM10,19,93,42
India,Chhattisgarh,Bhilai,"Civic Center, Bhilai - Bhilai Steel Plant",11-05-2024 09:00:00,21.185571,81.343175,CO,24,64,47
India,Chhattisgarh,Bhilai,"Hathkhoj, Bhilai - CECB",11-05-2024 09:00:00,21.224231,81.408350,OZONE,18,35,23
India,Chhattisgarh,Bilaspur,"Mangala, Bilaspur - NTPC",11-05-2024 09:00:00,22.08815,82.13737,NO2,13,15,14
India,Chhattisgarh,Bilaspur,"Mangala, Bilaspur - NTPC",11-05-2024 09:00:00,22.08815,82.13737,CO,42,50,46
India,Chhattisgarh,Chhal,"Nawapara SECL Colony, Chhal - CECB",11-05-2024 09:00:00,22.118125,83.140608,NH3,2,2,2
India,Chhattisgarh,Korba,"Rampur, Korba - CECB",11-05-2024 09:00:00,22.368195,82.746431,NO2,21,44,36
India,Chhattisgarh,Korba,"Urja Nagar, Korba - CECB",11-05-2024 09:00:00,22.348441,82.549611,PM2.5,14,68,34
India,Chhattisgarh,Raipur,"AIIMS, Raipur - CECB",11-05-2024 09:00:00,21.258815,81.578979,NO2,NA,NA,NA
India,Chhattisgarh,Raipur,"AIIMS, Raipur - CECB",11-05-2024 09:00:00,21.258815,81.578979,NH3,NA,NA,NA
India,Chhattisgarh,Raipur,"AIIMS, Raipur - CECB",11-05-2024 09:00:00,21.258815,81.578979,SO2,NA,NA,NA
India,Chhattisgarh,Raipur,"Bhatagaon New ISBT, Raipur - CECB",11-05-2024 09:00:00,21.219665,81.630094,PM10,19,120,57
India,Chhattisgarh,Raipur,"Bhatagaon New ISBT, Raipur - CECB",11-05-2024 09:00:00,21.219665,81.630094,NH3,2,2,2
India,Chhattisgarh,Tumidih,"OP Jindal Industrial Park, Tumidih - CECB",11-05-2024 09:00:00,22.06631475,83.33820077,NO2,11,84,40
India,Chhattisgarh,Tumidih,"OP Jindal Industrial Park, Tumidih - CECB",11-05-2024 09:00:00,22.06631475,83.33820077,SO2,5,10,7
India,Chhattisgarh,Tumidih,"OP Jindal Industrial Park, Tumidih - CECB",11-05-2024 09:00:00,22.06631475,83.33820077,OZONE,9,76,20
India,Delhi,Delhi,"Alipur, Delhi - DPCC",11-05-2024 09:00:00,28.815329,77.153010,SO2,NA,NA,NA
India,Delhi,Delhi,"Alipur, Delhi - DPCC",11-05-2024 09:00:00,28.815329,77.153010,CO,NA,NA,NA
India,Delhi,Delhi,"Alipur, Delhi - DPCC",11-05-2024 09:00:00,28.815329,77.153010,OZONE,NA,NA,NA
India,Delhi,Delhi,"Anand Vihar, Delhi - DPCC",11-05-2024 09:00:00,28.647622,77.3158090,PM2.5,83,449,221
India,Delhi,Delhi,"Anand Vihar, Delhi - DPCC",11-05-2024 09:00:00,28.647622,77.3158090,OZONE,5,127,34
India,Delhi,Delhi,"Ashok Vihar, Delhi - DPCC",11-05-2024 09:00:00,28.695381,77.181665,PM10,40,467,230
India,Delhi,Delhi,"Ashok Vihar, Delhi - DPCC",11-05-2024 09:00:00,28.695381,77.181665,NO2,17,74,33
India,Delhi,Delhi,"Ashok Vihar, Delhi - DPCC",11-05-2024 09:00:00,28.695381,77.181665,CO,12,68,33
India,Delhi,Delhi,"Bawana, Delhi - DPCC",11-05-2024 09:00:00,28.776200,77.051074,NH3,6,15,10
India,Delhi,Delhi,"Bawana, Delhi - DPCC",11-05-2024 09:00:00,28.776200,77.051074,OZONE,28,265,59
India,Delhi,Delhi,"Burari Crossing, Delhi - IMD",11-05-2024 09:00:00,28.7256504,77.2011573,CO,32,44,35
India,Delhi,Delhi,"CRRI Mathura Road, Delhi - IMD",11-05-2024 09:00:00,28.5512005,77.2735737,PM10,43,438,181
India,Delhi,Delhi,"Chandni Chowk, Delhi - IITM",11-05-2024 09:00:00,28.656756,77.227234,PM10,147,434,226
India,Delhi,Delhi,"Chandni Chowk, Delhi - IITM",11-05-2024 09:00:00,28.656756,77.227234,OZONE,10,15,12
India,Delhi,Delhi,"DTU, Delhi - CPCB",11-05-2024 09:00:00,28.7500499,77.1112615,NO2,6,24,13
India,Delhi,Delhi,"DTU, Delhi - CPCB",11-05-2024 09:00:00,28.7500499,77.1112615,NH3,1,33,19
India,Delhi,Delhi,"DTU, Delhi - CPCB",11-05-2024 09:00:00,28.7500499,77.1112615,SO2,26,115,40
India,Delhi,Delhi,"Dr. Karni Singh Shooting Range, Delhi - DPCC",11-05-2024 09:00:00,28.498571,77.264840,NO2,17,55,29
India,Delhi,Delhi,"Dwarka-Sector 8, Delhi - DPCC ",11-05-2024 09:00:00,28.5710274,77.0719006,NH3,3,21,14
India,Delhi,Delhi,"IGI Airport (T3), Delhi - IMD",11-05-2024 09:00:00,28.5627763,77.1180053,PM2.5,14,151,86
India,Delhi,Delhi,"IGI Airport (T3), Delhi - IMD",11-05-2024 09:00:00,28.5627763,77.1180053,PM10,55,401,183
India,Delhi,Delhi,"IGI Airport (T3), Delhi - IMD",11-05-2024 09:00:00,28.5627763,77.1180053,CO,30,46,34
India,Delhi,Delhi,"IGI Airport (T3), Delhi - IMD",11-05-2024 09:00:00,28.5627763,77.1180053,OZONE,10,58,21
India,Delhi,Delhi,"IHBAS, Dilshad Garden, Delhi - CPCB",11-05-2024 09:00:00,28.6811736,77.3025234,NO2,NA,NA,NA
India,Delhi,Delhi,"ITO, Delhi - CPCB",11-05-2024 09:00:00,28.628624,77.241060,PM2.5,12,500,182
India,Delhi,Delhi,"ITO, Delhi - CPCB",11-05-2024 09:00:00,28.628624,77.241060,NO2,13,180,52
India,Delhi,Delhi,"ITO, Delhi - CPCB",11-05-2024 09:00:00,28.628624,77.241060,CO,20,103,36
India,Delhi,Delhi,"Jahangirpuri, Delhi - DPCC",11-05-2024 09:00:00,28.732820,77.170633,PM2.5,21,248,124
India,Delhi,Delhi,"Jawaharlal Nehru Stadium, Delhi - DPCC",11-05-2024 09:00:00,28.580280,77.233829,NH3,9,14,11
India,Delhi,Delhi,"Jawaharlal Nehru Stadium, Delhi - DPCC",11-05-2024 09:00:00,28.580280,77.233829,SO2,5,18,12
India,Delhi,Delhi,"Lodhi Road, Delhi - IITM",11-05-2024 09:00:00,28.588333,77.221667,NO2,9,50,20
India,Delhi,Delhi,"Lodhi Road, Delhi - IMD",11-05-2024 09:00:00,28.5918245,77.2273074,PM2.5,NA,NA,NA
India,Delhi,Delhi,"Lodhi Road, Delhi - IMD",11-05-2024 09:00:00,28.5918245,77.2273074,NO2,NA,NA,NA
India,Delhi,Delhi,"Lodhi Road, Delhi - IMD",11-05-2024 09:00:00,28.5918245,77.2273074,CO,14,20,18
India,Delhi,Delhi,"Major Dhyan Chand National Stadium, Delhi - DPCC",11-05-2024 09:00:00,28.611281,77.237738,OZONE,42,215,74
India,Delhi,Delhi,"Mundka, Delhi - DPCC",11-05-2024 09:00:00,28.684678,77.076574,NO2,13,61,35
India,Delhi,Delhi,"Mundka, Delhi - DPCC",11-05-2024 09:00:00,28.684678,77.076574,SO2,7,15,10
India,Delhi,Delhi,"Mundka, Delhi - DPCC",11-05-2024 09:00:00,28.684678,77.076574,OZONE,13,228,44
India,Delhi,Delhi,"NSIT Dwarka, Delhi - CPCB",11-05-2024 09:00:00,28.60909,77.0325413,PM2.5,NA,NA,NA
India,Delhi,Delhi,"Najafgarh, Delhi - DPCC",11-05-2024 09:00:00,28.570173,76.933762,NH3,NA,NA,NA
India,Delhi,Delhi,"Narela, Delhi - DPCC",11-05-2024 09:00:00,28.822836,77.101981,PM2.5,16,394,126
India,Delhi,Delhi,"Narela, Delhi - DPCC",11-05-2024 09:00:00,28.822836,77.101981,SO2,5,24,15
India,Delhi,Delhi,"Narela, Delhi - DPCC",11-05-2024 09:00:00,28.822836,77.101981,OZONE,62,251,78
India,Delhi,Delhi,"Nehru Nagar, Delhi - DPCC",11-05-2024 09:00:00,28.567890,77.250515,NH3,2,3,3
India,Delhi,Delhi,"Okhla Phase-2, Delhi - DPCC",11-05-2024 09:00:00,28.530785,77.271255,NO2,25,104,42
India,Delhi,Delhi,"Okhla Phase-2, Delhi - DPCC",11-05-2024 09:00:00,28.530785,77.271255,CO,54,102,62
India,Delhi,Delhi,"Okhla Phase-2, Delhi - DPCC",11-05-2024 09:00:00,28.530785,77.271255,OZONE,22,146,50
India,Delhi,Delhi,"Patparganj, Delhi - DPCC",11-05-2024 09:00:00,28.623763,77.287209,NH3,6,8,7
India,Delhi,Delhi,"Patparganj, Delhi - DPCC",11-05-2024 09:00:00,28.623763,77.287209,CO,44,99,54
India,Delhi,Delhi,"Punjabi Bagh, Delhi - DPCC",11-05-2024 09:00:00,28.674045,77.131023,CO,29,57,40
India,Delhi,Delhi,"Punjabi Bagh, Delhi - DPCC",11-05-2024 09:00:00,28.674045,77.131023,OZONE,10,66,31
India,Delhi,Delhi,"Pusa, Delhi - DPCC",11-05-2024 09:00:00,28.639652,77.146275,NH3,5,8,7
India,Delhi,Delhi,"Pusa, Delhi - DPCC",11-05-2024 09:00:00,28.639652,77.146275,OZONE,20,153,51
India,Delhi,Delhi,"Pusa, Delhi - IMD",11-05-2024 09:00:00,28.636110,77.173332,PM2.5,NA,NA,NA
India,Delhi,Delhi,"Pusa, Delhi - IMD",11-05-2024 09:00:00,28.636110,77.173332,PM10,NA,NA,NA
India,Delhi,Delhi,"Pusa, Delhi - IMD",11-05-2024 09:00:00,28.636110,77.173332,OZONE,15,53,23
India,Delhi,Delhi,"R K Puram, Delhi - DPCC",11-05-2024 09:00:00,28.563262,77.186937,PM10,NA,NA,NA
India,Delhi,Delhi,"Rohini, Delhi - DPCC",11-05-2024 09:00:00,28.732528,77.119920,PM2.5,NA,NA,NA
India,Delhi,Delhi,"Sonia Vihar, Delhi - DPCC",11-05-2024 09:00:00,28.710508,77.249485,CO,36,88,41
India,Delhi,Delhi,"Sri Aurobindo Marg, Delhi - DPCC",11-05-2024 09:00:00,28.531346,77.190156,NO2,18,69,31
India,Delhi,Delhi,"Sri Aurobindo Marg, Delhi - DPCC",11-05-2024 09:00:00,28.531346,77.190156,NH3,8,11,10
India,Delhi,Delhi,"Sri Aurobindo Marg, Delhi - DPCC",11-05-2024 09:00:00,28.531346,77.190156,CO,1,50,12
India,Delhi,Delhi,"Sri Aurobindo Marg, Delhi - DPCC",11-05-2024 09:00:00,28.531346,77.190156,OZONE,25,87,39
India,Delhi,Delhi,"Wazirpur, Delhi - DPCC",11-05-2024 09:00:00,28.699793,77.165453,SO2,10,24,16
India,Gujarat,Ahmedabad,"Chandkheda, Ahmedabad - IITM",11-05-2024 09:00:00,23.107969,72.574648,NH3,1,1,1
India,Gujarat,Ahmedabad,"Maninagar, Ahmedabad - GPCB",11-05-2024 09:00:00,23.002657,72.591912,OZONE,4,223,23
India,Gujarat,Ahmedabad,"Raikhad, Ahmedabad - IITM",11-05-2024 09:00:00,23.020509,72.579261,OZONE,8,86,11
India,Gujarat,Ahmedabad,"Rakhial, Ahmedabad - IITM",11-05-2024 09:00:00,23.016834,72.625775,NO2,32,91,57
India,Gujarat,Ahmedabad,"Rakhial, Ahmedabad - IITM",11-05-2024 09:00:00,23.016834,72.625775,SO2,5,16,12
India,Gujarat,Ahmedabad,"SVPI Airport Hansol, Ahmedabad - IITM",11-05-2024 09:00:00,23.076793,72.627874,PM10,69,112,98
India,Gujarat,Ahmedabad,"SVPI Airport Hansol, Ahmedabad - IITM",11-05-2024 09:00:00,23.076793,72.627874,CO,62,86,69
India,Gujarat,Ankleshwar,"GIDC, Ankleshwar - GPCB",11-05-2024 09:00:00,21.613267,73.010555,PM10,40,77,55
India,Gujarat,Ankleshwar,"GIDC, Ankleshwar - GPCB",11-05-2024 09:00:00,21.613267,73.010555,NH3,6,6,6
India,Gujarat,Gandhinagar,"Sector-10, Gandhinagar - GPCB",11-05-2024 09:00:00,23.221714,72.654328,NH3,1,2,1
India,Gujarat,Vatva,"Phase-4 GIDC, Vatva - GPCB",11-05-2024 09:00:00,22.969611,72.643500,PM2.5,35,51,45
India,Gujarat,Vatva,"Phase-4 GIDC, Vatva - GPCB",11-05-2024 09:00:00,22.969611,72.643500,CO,34,36,35
India,Haryana,Ambala,"Patti Mehar, Ambala - HSPCB",11-05-2024 09:00:00,30.379589,76.778328,SO2,NA,NA,NA
India,Haryana,Bahadurgarh,"Arya Nagar, Bahadurgarh - HSPCB",11-05-2024 09:00:00,28.6701,76.9254,OZONE,35,46,38
India,Haryana,Ballabgarh,"Nathu Colony, Ballabgarh - HSPCB",11-05-2024 09:00:00,28.3419248,77.319699,PM2.5,NA,NA,NA
India,Haryana,Ballabgarh,"Nathu Colony, Ballabgarh - HSPCB",11-05-2024 09:00:00,28.3419248,77.319699,SO2,1,130,22
India,Haryana,Bhiwani,"H.B. Colony, Bhiwani - HSPCB",11-05-2024 09:00:00,28.806223,76.141105,PM10,47,374,154
India,Haryana,Bhiwani,"H.B. Colony, Bhiwani - HSPCB",11-05-2024 09:00:00,28.806223,76.141105,NO2,4,11,8
India,Haryana,Bhiwani,"H.B. Colony, Bhiwani - HSPCB",11-05-2024 09:00:00,28.806223,76.141105,NH3,4,6,6
India,Haryana,Bhiwani,"H.B. Colony, Bhiwani - HSPCB",11-05-2024 09:00:00,28.806223,76.141105,CO,2,41,27
India,Haryana,Bhiwani,"H.B. Colony, Bhiwani - HSPCB",11-05-2024 09:00:00,28.806223,76.141105,OZONE,10,108,23
India,Haryana,Charkhi Dadri,"Mini Secretariat, Charkhi Dadri - HSPCB",11-05-2024 09:00:00,28.593883,76.270653,NO2,14,24,18
India,Haryana,Dharuhera,"Municipal Corporation Office, Dharuhera -  HSPCB",11-05-2024 09:00:00,28.206800,76.799700,SO2,NA,NA,NA
India,Haryana,Dharuhera,"Municipal Corporation Office, Dharuhera -  HSPCB",11-05-2024 09:00:00,28.206800,76.799700,CO,NA,NA,NA
India,Haryana,Faridabad,"New Industrial Town, Faridabad - HSPCB",11-05-2024 09:00:00,28.39072,77.30059,PM10,NA,NA,NA
India,Haryana,Faridabad,"New Industrial Town, Faridabad - HSPCB",11-05-2024 09:00:00,28.39072,77.30059,NH3,NA,NA,NA
India,Haryana,Faridabad,"Sector 30, Faridabad - HSPCB",11-05-2024 09:00:00,28.4417,77.3217,NO2,NA,NA,NA
India,Haryana,Faridabad,"Sector 30, Faridabad - HSPCB",11-05-2024 09:00:00,28.4417,77.3217,CO,NA,NA,NA
India,Haryana,Faridabad,"Sector 30, Faridabad - HSPCB",11-05-2024 09:00:00,28.4417,77.3217,OZONE,NA,NA,NA
India,Haryana,Faridabad,"Sector- 16A, Faridabad - HSPCB",11-05-2024 09:00:00,28.4088421,77.3099081,PM2.5,NA,NA,NA
India,Haryana,Faridabad,"Sector- 16A, Faridabad - HSPCB",11-05-2024 09:00:00,28.4088421,77.3099081,OZONE,NA,NA,NA
India,Haryana,Gurugram,"NISE Gwal Pahari, Gurugram - IMD",11-05-2024 09:00:00,28.422681,77.148944,CO,NA,NA,NA
India,Haryana,Gurugram,"Sector-51, Gurugram - HSPCB",11-05-2024 09:00:00,28.4227,77.0667,NO2,13,29,24
India,Haryana,Gurugram,"Teri Gram, Gurugram - HSPCB",11-05-2024 09:00:00,28.4275,77.1465,NH3,NA,NA,NA
India,Haryana,Gurugram,"Teri Gram, Gurugram - HSPCB",11-05-2024 09:00:00,28.4275,77.1465,SO2,NA,NA,NA
India,Haryana,Gurugram,"Vikas Sadan, Gurugram - HSPCB",11-05-2024 09:00:00,28.4501238,77.0263051,NO2,5,22,13
India,Haryana,Gurugram,"Vikas Sadan, Gurugram - HSPCB",11-05-2024 09:00:00,28.4501238,77.0263051,SO2,10,41,21
India,Haryana,Hisar,"Urban Estate-II, Hisar - HSPCB",11-05-2024 09:00:00,29.140560,75.744941,NO2,19,35,24
India,Haryana,Hisar,"Urban Estate-II, Hisar - HSPCB",11-05-2024 09:00:00,29.140560,75.744941,SO2,NA,NA,NA
India,Haryana,Kaithal,"Rishi Nagar, Kaithal - HSPCB",11-05-2024 09:00:00,29.8006,76.4155,NH3,8,8,8
India,Haryana,Karnal,"Sector-12, Karnal - HSPCB",11-05-2024 09:00:00,29.695300,77.002700,NH3,10,13,11
India,Haryana,Karnal,"Sector-12, Karnal - HSPCB",11-05-2024 09:00:00,29.695300,77.002700,CO,12,41,26
India,Haryana,Kurukshetra,"Sector-7, Kurukshetra - HSPCB",11-05-2024 09:00:00,29.966942,76.875879,NH3,2,5,5
India,Haryana,Mandikhera,"General Hospital, Mandikhera - HSPCB",11-05-2024 09:00:00,27.9002,76.9938,SO2,29,36,34
India,Haryana,Narnaul,"Shastri Nagar, Narnaul - HSPCB",11-05-2024 09:00:00,28.060249,76.113115,CO,24,64,33
India,Haryana,Sirsa,"F-Block, Sirsa - HSPCB",11-05-2024 09:00:00,29.536400,75.015800,OZONE,4,44,6
India,Haryana,Sonipat,"Murthal, Sonipat - HSPCB",11-05-2024 09:00:00,29.027200,77.062100,PM2.5,NA,NA,NA
India,Haryana,Sonipat,"Murthal, Sonipat - HSPCB",11-05-2024 09:00:00,29.027200,77.062100,NO2,NA,NA,NA
India,Haryana,Sonipat,"Murthal, Sonipat - HSPCB",11-05-2024 09:00:00,29.027200,77.062100,NH3,NA,NA,NA
India,Haryana,Yamuna Nagar,"Gobind Pura, Yamuna Nagar - HSPCB",11-05-2024 09:00:00,30.1480566,77.2893471,PM2.5,NA,NA,NA
India,Haryana,Yamuna Nagar,"Gobind Pura, Yamuna Nagar - HSPCB",11-05-2024 09:00:00,30.1480566,77.2893471,SO2,NA,NA,NA
India,Himachal Pradesh,Baddi,"HIMUDA Complex Phase-1, Baddi - HPPCB",11-05-2024 09:00:00,30.943887,76.801991,OZONE,52,228,89
India,Jammu_and_Kashmir,Srinagar,"Rajbagh, Srinagar - JKSPCB",11-05-2024 09:00:00,34.066206,74.819820,PM10,49,82,62
India,Jammu_and_Kashmir,Srinagar,"Rajbagh, Srinagar - JKSPCB",11-05-2024 09:00:00,34.066206,74.819820,SO2,10,18,12
India,Jharkhand,Dhanbad,"Sardar Patel Nagar, Dhanbad - JSPCB",11-05-2024 09:00:00,23.80569,86.44268,PM2.5,NA,NA,NA
India,Jharkhand,Dhanbad,"Sardar Patel Nagar, Dhanbad - JSPCB",11-05-2024 09:00:00,23.80569,86.44268,SO2,NA,NA,NA
India,Karnataka,Bagalkot,"Vidayagiri, Bagalkot - KSPCB",11-05-2024 09:00:00,16.172806,75.659694,NO2,9,10,9
India,Karnataka,Bagalkot,"Vidayagiri, Bagalkot - KSPCB",11-05-2024 09:00:00,16.172806,75.659694,NH3,1,2,1
India,Karnataka,Bagalkot,"Vidayagiri, Bagalkot - KSPCB",11-05-2024 09:00:00,16.172806,75.659694,CO,20,58,34
India,Karnataka,Belgaum,"Ramteerth Nagar, Belgaum - KSPCB",11-05-2024 09:00:00,15.888653,74.541751,PM2.5,14,36,21
India,Karnataka,Belgaum,"Ramteerth Nagar, Belgaum - KSPCB",11-05-2024 09:00:00,15.888653,74.541751,SO2,8,9,8
India,Karnataka,Belgaum,"Ramteerth Nagar, Belgaum - KSPCB",11-05-2024 09:00:00,15.888653,74.541751,CO,40,56,51
India,Karnataka,Belgaum,"Ramteerth Nagar, Belgaum - KSPCB",11-05-2024 09:00:00,15.888653,74.541751,OZONE,19,19,19
India,Karnataka,Bengaluru,"Bapuji Nagar, Bengaluru - KSPCB",11-05-2024 09:00:00,12.951913,77.539784,NH3,1,1,1
India,Karnataka,Bengaluru,"Bapuji Nagar, Bengaluru - KSPCB",11-05-2024 09:00:00,12.951913,77.539784,SO2,5,8,6
India,Karnataka,Bengaluru,"Hebbal, Bengaluru - KSPCB",11-05-2024 09:00:00,13.029152,77.585901,PM10,11,106,54
India,Karnataka,Bengaluru,"Hebbal, Bengaluru - KSPCB",11-05-2024 09:00:00,13.029152,77.585901,NO2,5,5,5
India,Karnataka,Bengaluru,"Hebbal, Bengaluru - KSPCB",11-05-2024 09:00:00,13.029152,77.585901,OZONE,8,80,9
India,Karnataka,Bengaluru,"Hombegowda Nagar, Bengaluru - KSPCB",11-05-2024 09:00:00,12.938539,77.590100,SO2,3,5,4
India,Karnataka,Bengaluru,"Hombegowda Nagar, Bengaluru - KSPCB",11-05-2024 09:00:00,12.938539,77.590100,CO,16,43,23
India,Karnataka,Bengaluru,"Jayanagar 5th Block, Bengaluru - KSPCB",11-05-2024 09:00:00,12.920984,77.584908,SO2,13,30,21
India,Karnataka,Bengaluru,"Jayanagar 5th Block, Bengaluru - KSPCB",11-05-2024 09:00:00,12.920984,77.584908,OZONE,21,23,22
India,Karnataka,Bengaluru,"Kasturi Nagar, Bengaluru - KSPCB",11-05-2024 09:00:00,13.003872,77.664217,NH3,3,4,4
India,Karnataka,Bengaluru,"Kasturi Nagar, Bengaluru - KSPCB",11-05-2024 09:00:00,13.003872,77.664217,CO,24,25,25
India,Karnataka,Bengaluru,"Peenya, Bengaluru - CPCB",11-05-2024 09:00:00,13.0270199,77.494094,NH3,3,4,3
India,Karnataka,Bengaluru,"RVCE-Mailasandra, Bengaluru - KSPCB",11-05-2024 09:00:00,12.921418,77.502466,CO,30,62,34
India,Karnataka,Bengaluru,"Sanegurava Halli, Bengaluru - KSPCB",11-05-2024 09:00:00,12.990328,77.5431385,NO2,22,45,28
India,Karnataka,Bengaluru,"Shivapura_Peenya, Bengaluru - KSPCB",11-05-2024 09:00:00,13.0246342,77.5080115,NH3,4,4,4
India,Karnataka,Bengaluru,"Shivapura_Peenya, Bengaluru - KSPCB",11-05-2024 09:00:00,13.0246342,77.5080115,SO2,4,13,6
India,Karnataka,Bengaluru,"Silk Board, Bengaluru - KSPCB",11-05-2024 09:00:00,12.917348,77.622813,PM2.5,26,258,81
India,Karnataka,Bidar,"Naubad, Bidar - KSPCB",11-05-2024 09:00:00,17.930306,77.482194,NO2,7,9,8
India,Karnataka,Bidar,"Naubad, Bidar - KSPCB",11-05-2024 09:00:00,17.930306,77.482194,NH3,2,3,3
India,Karnataka,Bidar,"Naubad, Bidar - KSPCB",11-05-2024 09:00:00,17.930306,77.482194,CO,76,103,89
India,Karnataka,Chikkaballapur,"Chikkaballapur Rural, Chikkaballapur - KSPCB",11-05-2024 09:00:00,13.428828,77.731418,NH3,1,1,1
India,Karnataka,Chikkaballapur,"Chikkaballapur Rural, Chikkaballapur - KSPCB",11-05-2024 09:00:00,13.428828,77.731418,SO2,20,29,23
India,Karnataka,Chikkamagaluru,"Kalyana Nagara, Chikkamagaluru - KSPCB",11-05-2024 09:00:00,13.328028,75.797056,OZONE,14,22,17
India,Karnataka,Davanagere,"Devaraj Urs Badavane, Davanagere - KSPCB",11-05-2024 09:00:00,14.475800,75.905200,CO,19,24,19
India,Karnataka,Dharwad,"Kalabhavan, Dharwad - KSPCB",11-05-2024 09:00:00,15.459706,75.008381,NO2,5,18,12
India,Karnataka,Dharwad,"Kalabhavan, Dharwad - KSPCB",11-05-2024 09:00:00,15.459706,75.008381,CO,23,82,32
India,Karnataka,Haveri,"Ashwini Nagar, Haveri - KSPCB",11-05-2024 09:00:00,14.791800,75.389600,PM10,NA,NA,NA
India,Karnataka,Hubballi,"Deshpande Nagar, Hubballi - KSPCB",11-05-2024 09:00:00,15.351773,75.140726,NO2,NA,NA,NA
India,Karnataka,Hubballi,"Lingaraj Nagar, Hubballi - KSPCB",11-05-2024 09:00:00,15.3714823,75.1160168,PM10,47,102,73
India,Karnataka,Hubballi,"Lingaraj Nagar, Hubballi - KSPCB",11-05-2024 09:00:00,15.3714823,75.1160168,NH3,2,2,2
India,Karnataka,Hubballi,"Lingaraj Nagar, Hubballi - KSPCB",11-05-2024 09:00:00,15.3714823,75.1160168,SO2,1,20,3
India,Karnataka,Kalaburagi,"Lal Bahadur Shastri Nagar, Kalaburagi - KSPCB",11-05-2024 09:00:00,17.321993,76.822628,NO2,11,12,11
India,Karnataka,Kalaburagi,"Lal Bahadur Shastri Nagar, Kalaburagi - KSPCB",11-05-2024 09:00:00,17.321993,76.822628,NH3,1,2,2
India,Karnataka,Kalaburagi,"Lal Bahadur Shastri Nagar, Kalaburagi - KSPCB",11-05-2024 09:00:00,17.321993,76.822628,SO2,8,15,12
India,Karnataka,Kalaburagi,"Mahatma Basaveswar Colony, Kalaburgi - KSPCB",11-05-2024 09:00:00,17.336318,76.847397,OZONE,5,31,9
India,Karnataka,Kolar,"Tamaka Ind. Area, Kolar - KSPCB",11-05-2024 09:00:00,13.1276288,78.1570122,PM10,27,79,47
India,Karnataka,Koppal,"Diwator Nagar, Koppal - KSPCB",11-05-2024 09:00:00,15.347630,76.181767,OZONE,20,60,29
India,Karnataka,Madikeri,"Stuart Hill, Madikeri - KSPCB",11-05-2024 09:00:00,12.415911,75.735050,PM2.5,8,54,25
India,Karnataka,Madikeri,"Stuart Hill, Madikeri - KSPCB",11-05-2024 09:00:00,12.415911,75.735050,PM10,11,44,23
India,Karnataka,Madikeri,"Stuart Hill, Madikeri - KSPCB",11-05-2024 09:00:00,12.415911,75.735050,OZONE,28,41,35
India,Karnataka,Mangalore,"Kadri, Mangalore - KSPCB",11-05-2024 09:00:00,12.889250,74.853000,NO2,5,6,6
India,Karnataka,Mangalore,"Kadri, Mangalore - KSPCB",11-05-2024 09:00:00,12.889250,74.853000,NH3,2,2,2
India,Karnataka,Raichur,"Haji Colony, Raichur - KSPCB",11-05-2024 09:00:00,16.208139,77.348417,PM2.5,10,37,21
India,Karnataka,Raichur,"Haji Colony, Raichur - KSPCB",11-05-2024 09:00:00,16.208139,77.348417,CO,94,110,98
India,Karnataka,Ramanagara,"Vijay Nagar, Ramanagara - KSPCB",11-05-2024 09:00:00,12.733409,77.298051,PM10,14,48,30
India,Karnataka,Ramanagara,"Vijay Nagar, Ramanagara - KSPCB",11-05-2024 09:00:00,12.733409,77.298051,CO,4,26,17
India,Karnataka,Shivamogga,"Vinoba Nagara, Shivamogga - KSPCB",11-05-2024 09:00:00,13.940000,75.555917,PM10,49,78,57
India,Karnataka,Shivamogga,"Vinoba Nagara, Shivamogga - KSPCB",11-05-2024 09:00:00,13.940000,75.555917,CO,6,32,12
India,Karnataka,Udupi,"Brahmagiri, Udupi - KSPCB",11-05-2024 09:00:00,13.34194444,74.74694444,NH3,1,1,1
India,Karnataka,Vijayapura,"Ibrahimpur, Vijayapura - KSPCB",11-05-2024 09:00:00,16.802639,75.722694,PM10,42,43,42
India,Karnataka,Vijayapura,"Ibrahimpur, Vijayapura - KSPCB",11-05-2024 09:00:00,16.802639,75.722694,NO2,17,19,19
India,Kerala,Eloor,"Udyogamandal, Eloor - Kerala PCB",11-05-2024 09:00:00,10.073232,76.302765,PM2.5,21,55,33
India,Kerala,Eloor,"Udyogamandal, Eloor - Kerala PCB",11-05-2024 09:00:00,10.073232,76.302765,PM10,28,48,35
India,Kerala,Eloor,"Udyogamandal, Eloor - Kerala PCB",11-05-2024 09:00:00,10.073232,76.302765,OZONE,11,23,12
India,Kerala,Kannur,"Thavakkara, Kannur - Kerala PCB",11-05-2024 09:00:00,11.875000,75.373200,PM2.5,60,72,68
India,Kerala,Kannur,"Thavakkara, Kannur - Kerala PCB",11-05-2024 09:00:00,11.875000,75.373200,OZONE,31,36,31
India,Kerala,Kollam,"Polayathode, Kollam - Kerala PCB",11-05-2024 09:00:00,8.8787,76.6073,PM2.5,58,201,109
India,Kerala,Kollam,"Polayathode, Kollam - Kerala PCB",11-05-2024 09:00:00,8.8787,76.6073,NH3,1,1,1
India,Kerala,Thiruvananthapuram,"Plammoodu, Thiruvananthapuram - Kerala PCB",11-05-2024 09:00:00,8.5149093,76.9435879,CO,NA,NA,NA
India,Kerala,Thrissur,"Corporation Ground, Thrissur - Kerala PCB",11-05-2024 09:00:00,10.532400,76.215900,SO2,NA,NA,NA
India,Madhya Pradesh,Bhopal,"Idgah Hills, Bhopal - MPPCB",11-05-2024 09:00:00,23.264759,77.381568,OZONE,39,91,52
India,Madhya Pradesh,Bhopal,"Paryavaran Parisar, Bhopal - MPPCB",11-05-2024 09:00:00,23.210494,77.425409,PM10,34,117,64
India,Madhya Pradesh,Bhopal,"Paryavaran Parisar, Bhopal - MPPCB",11-05-2024 09:00:00,23.210494,77.425409,NO2,11,39,20
India,Madhya Pradesh,Dewas,"Bhopal Chauraha, Dewas - MPPCB",11-05-2024 09:00:00,22.9682591,76.064118,PM10,NA,NA,NA
India,Madhya Pradesh,Gwalior,"City Center, Gwalior - MPPCB",11-05-2024 09:00:00,26.203442,78.193251,OZONE,20,82,24
India,Madhya Pradesh,Gwalior,"Deen Dayal Nagar, Gwalior - MPPCB",11-05-2024 09:00:00,26.259242,78.216432,PM2.5,52,240,99
India,Madhya Pradesh,Indore,"Chhoti Gwaltoli, Indore - MPPCB",11-05-2024 09:00:00,22.4310,75.5213,OZONE,48,96,64
India,Madhya Pradesh,Indore,"Maguda Nagar, Indore - IMC",11-05-2024 09:00:00,22.7524,75.8872,SO2,NA,NA,NA
India,Madhya Pradesh,Indore,"Maguda Nagar, Indore - IMC",11-05-2024 09:00:00,22.7524,75.8872,OZONE,NA,NA,NA
India,Madhya Pradesh,Indore,"Regional Park, Indore - IMC",11-05-2024 09:00:00,22.6780,75.8559,PM10,16,64,37
India,Madhya Pradesh,Jabalpur,"Govindh Bhavan Colony, Jabalpur - JMC",11-05-2024 09:00:00,23.163174,79.973061,PM2.5,20,58,40
India,Madhya Pradesh,Jabalpur,"Govindh Bhavan Colony, Jabalpur - JMC",11-05-2024 09:00:00,23.163174,79.973061,SO2,23,117,69
India,Madhya Pradesh,Jabalpur,"Gupteshwar, Jabalpur - JMC",11-05-2024 09:00:00,23.142888,79.916147,PM10,42,106,67
India,Madhya Pradesh,Jabalpur,"Gupteshwar, Jabalpur - JMC",11-05-2024 09:00:00,23.142888,79.916147,NH3,5,7,6
India,Madhya Pradesh,Jabalpur,"Gupteshwar, Jabalpur - JMC",11-05-2024 09:00:00,23.142888,79.916147,SO2,7,60,16
India,Madhya Pradesh,Jabalpur,"Marhatal, Jabalpur - MPPCB",11-05-2024 09:00:00,23.168606,79.932247,NO2,14,112,47
India,Madhya Pradesh,Jabalpur,"Marhatal, Jabalpur - MPPCB",11-05-2024 09:00:00,23.168606,79.932247,SO2,2,42,10
India,Madhya Pradesh,Jabalpur,"Suhagi, Jabalpur - JMC",11-05-2024 09:00:00,23.218135,79.957770,PM10,46,157,96
India,Madhya Pradesh,Katni,"Gole Bazar, Katni - MPPCB",11-05-2024 09:00:00,23.50016,80.23284,NO2,35,139,76
India,Madhya Pradesh,Katni,"Gole Bazar, Katni - MPPCB",11-05-2024 09:00:00,23.50016,80.23284,SO2,19,116,45
India,Madhya Pradesh,Mandideep,"Sector-D Industrial Area, Mandideep - MPPCB",11-05-2024 09:00:00,23.108440,77.511428,NH3,6,10,8
India,Madhya Pradesh,Mandideep,"Sector-D Industrial Area, Mandideep - MPPCB",11-05-2024 09:00:00,23.108440,77.511428,CO,20,68,30
India,Madhya Pradesh,Pithampur,"Sector-2 Industrial Area, Pithampur - MPPCB",11-05-2024 09:00:00,22.624758,75.675238,SO2,10,15,12
India,Madhya Pradesh,Sagar,"Civil Lines, Sagar - MPPCB",11-05-2024 09:00:00,23.838586,78.759431,NH3,4,10,8
India,Madhya Pradesh,Satna,"Bandhavgar Colony, Satna - Birla Cement",11-05-2024 09:00:00,24.58434363,80.8549414,CO,32,78,52
India,Madhya Pradesh,Satna,"Bandhavgar Colony, Satna - Birla Cement",11-05-2024 09:00:00,24.58434363,80.8549414,OZONE,NA,NA,NA
India,Madhya Pradesh,Singrauli,"Suryakiran Bhawan NCL, Singrauli - MPPCB",11-05-2024 09:00:00,24.108970,82.645580,NO2,17,89,56
India,Madhya Pradesh,Ujjain,"Mahakaleshwar Temple, Ujjain - MPPCB",11-05-2024 09:00:00,23.182719 ,75.768218 ,NO2,14,32,23
India,Madhya Pradesh,Ujjain,"Mahakaleshwar Temple, Ujjain - MPPCB",11-05-2024 09:00:00,23.182719 ,75.768218 ,SO2,4,23,11
India,Madhya Pradesh,Ujjain,"Mahakaleshwar Temple, Ujjain - MPPCB",11-05-2024 09:00:00,23.182719 ,75.768218 ,CO,10,60,16
India,Maharashtra,Ahmednagar,"Tarakpur, Ahmednagar - MPCB",11-05-2024 09:00:00,19.10122,74.73339,PM2.5,NA,NA,NA
India,Maharashtra,Ahmednagar,"Tarakpur, Ahmednagar - MPCB",11-05-2024 09:00:00,19.10122,74.73339,NO2,NA,NA,NA
India,Maharashtra,Ahmednagar,"Tarakpur, Ahmednagar - MPCB",11-05-2024 09:00:00,19.10122,74.73339,NH3,NA,NA,NA
India,Maharashtra,Akola,"Ramdaspeth, Akola - MPCB",11-05-2024 09:00:00,20.719516,77.000253,NH3,3,14,7
India,Maharashtra,Akola,"Ramdaspeth, Akola - MPCB",11-05-2024 09:00:00,20.719516,77.000253,CO,21,56,26
India,Maharashtra,Akola,"Ramdaspeth, Akola - MPCB",11-05-2024 09:00:00,20.719516,77.000253,OZONE,18,112,28
India,Maharashtra,Amravati,"Shri Shivaji Science College, Amaravati - MPCB",11-05-2024 09:00:00,20.939198,77.765701,SO2,1,5,2
India,Maharashtra,Aurangabad,"MIDC Chilkalthana, Aurangabad - MPCB",11-05-2024 09:00:00,19.875620,75.387310,PM2.5,55,89,73
India,Maharashtra,Aurangabad,"MIDC Chilkalthana, Aurangabad - MPCB",11-05-2024 09:00:00,19.875620,75.387310,NO2,7,42,18
India,Maharashtra,Aurangabad,"MIDC Chilkalthana, Aurangabad - MPCB",11-05-2024 09:00:00,19.875620,75.387310,SO2,2,6,3
India,Maharashtra,Aurangabad,"Rachnakar Colony, Aurangabad - MPCB",11-05-2024 09:00:00,19.863756,75.321188,NO2,12,76,32
India,Maharashtra,Aurangabad,"Rachnakar Colony, Aurangabad - MPCB",11-05-2024 09:00:00,19.863756,75.321188,OZONE,24,118,27
India,Maharashtra,Belapur,"CBD Belapur, Belapur - MPCB",11-05-2024 09:00:00,19.0243902,73.0406721,PM2.5,13,50,36
India,Maharashtra,Belapur,"CBD Belapur, Belapur - MPCB",11-05-2024 09:00:00,19.0243902,73.0406721,SO2,1,8,1
India,Maharashtra,Belapur,"CBD Belapur, Belapur - MPCB",11-05-2024 09:00:00,19.0243902,73.0406721,CO,10,22,15
India,Maharashtra,Bhiwandi,"Gokul Nagar, Bhiwandi - MPCB",11-05-2024 09:00:00,19.309073,73.057223,NO2,8,23,13
India,Maharashtra,Bhiwandi,"Gokul Nagar, Bhiwandi - MPCB",11-05-2024 09:00:00,19.309073,73.057223,NH3,1,4,2
India,Maharashtra,Bhiwandi,"Gokul Nagar, Bhiwandi - MPCB",11-05-2024 09:00:00,19.309073,73.057223,OZONE,21,94,37
India,Maharashtra,Chandrapur,"Chauhan Colony, Chandrapur - MPCB",11-05-2024 09:00:00,19.962900,79.298714,CO,24,26,24
India,Maharashtra,Dhule,"Deopur, Dhule - MPCB",11-05-2024 09:00:00,20.918946,74.776388,NH3,5,21,6
India,Maharashtra,Dhule,"Deopur, Dhule - MPCB",11-05-2024 09:00:00,20.918946,74.776388,OZONE,5,111,23
India,Maharashtra,Jalgaon,"Prabhat Colony, Jalgaon - MPCB",11-05-2024 09:00:00,21.001264,75.565602,PM10,44,119,81
India,Maharashtra,Jalgaon,"Prabhat Colony, Jalgaon - MPCB",11-05-2024 09:00:00,21.001264,75.565602,NO2,10,43,22
India,Maharashtra,Jalgaon,"Prabhat Colony, Jalgaon - MPCB",11-05-2024 09:00:00,21.001264,75.565602,SO2,6,16,10
India,Maharashtra,Jalgaon,"Prabhat Colony, Jalgaon - MPCB",11-05-2024 09:00:00,21.001264,75.565602,CO,10,20,15
India,Maharashtra,Jalna,"Old MIDC, Jalna - MPCB",11-05-2024 09:00:00,19.854616,75.905894,OZONE,2,126,13
India,Maharashtra,Kolhapur,"Shivaji University, Kolhapur - MPCB",11-05-2024 09:00:00,16.6870449,74.2505872,PM10,81,375,132
India,Maharashtra,Kolhapur,"Shivaji University, Kolhapur - MPCB",11-05-2024 09:00:00,16.6870449,74.2505872,NH3,3,5,4
India,Maharashtra,Kolhapur,"Shivaji University, Kolhapur - MPCB",11-05-2024 09:00:00,16.6870449,74.2505872,CO,59,90,69
India,Maharashtra,Kolhapur,"Sinchan Bhavan, Kolhapur - MPCB",11-05-2024 09:00:00,16.7143745,74.2426398,NH3,7,8,8
India,Maharashtra,Kolhapur,"Sinchan Bhavan, Kolhapur - MPCB",11-05-2024 09:00:00,16.7143745,74.2426398,OZONE,14,98,22
India,Maharashtra,Mahad,"Kamble Tarf Birwadi, Mahad - MPCB",11-05-2024 09:00:00,18.1023399,73.4783687,OZONE,3,62,4
India,Maharashtra,Mira-Bhayandar,"Bhayandar West, Mira-Bhayandar - MPCB",11-05-2024 09:00:00,19.296481,72.840923,NH3,3,4,3
India,Maharashtra,Mira-Bhayandar,"Bhayandar West, Mira-Bhayandar - MPCB",11-05-2024 09:00:00,19.296481,72.840923,SO2,2,4,3
India,Maharashtra,Mira-Bhayandar,"Bhayandar West, Mira-Bhayandar - MPCB",11-05-2024 09:00:00,19.296481,72.840923,CO,18,40,30
India,Maharashtra,Mumbai,"Bandra Kurla Complex, Mumbai - MPCB",11-05-2024 09:00:00,19.065931,72.862131,SO2,NA,NA,NA
India,Maharashtra,Mumbai,"Borivali East, Mumbai - IITM",11-05-2024 09:00:00,19.23241,72.86895,PM2.5,28,151,52
India,Maharashtra,Mumbai,"Borivali East, Mumbai - MPCB",11-05-2024 09:00:00,19.2243333,72.8658113,PM10,21,80,43
India,Maharashtra,Mumbai,"Chembur, Mumbai - MPCB",11-05-2024 09:00:00,19.0364585,72.8954371,NH3,4,5,4
India,Maharashtra,Mumbai,"Chembur, Mumbai - MPCB",11-05-2024 09:00:00,19.0364585,72.8954371,CO,12,24,20
India,Maharashtra,Mumbai,"Chhatrapati Shivaji Intl. Airport (T2), Mumbai - MPCB",11-05-2024 09:00:00,19.10078,72.87462,NH3,1,11,3
India,Maharashtra,Mumbai,"Chhatrapati Shivaji Intl. Airport (T2), Mumbai - MPCB",11-05-2024 09:00:00,19.10078,72.87462,SO2,16,22,19
India,Maharashtra,Mumbai,"Chhatrapati Shivaji Intl. Airport (T2), Mumbai - MPCB",11-05-2024 09:00:00,19.10078,72.87462,CO,36,59,51
India,Maharashtra,Mumbai,"Colaba, Mumbai - MPCB",11-05-2024 09:00:00,18.910000,72.820000,PM10,39,63,51
India,Maharashtra,Mumbai,"Deonar, Mumbai - IITM",11-05-2024 09:00:00,19.04946,72.9230,PM10,65,99,81
India,Maharashtra,Mumbai,"Deonar, Mumbai - IITM",11-05-2024 09:00:00,19.04946,72.9230,OZONE,2,37,1
India,Maharashtra,Mumbai,"Ghatkopar, Mumbai - BMC",11-05-2024 09:00:00,19.083694,72.920967,PM2.5,8,30,17
India,Maharashtra,Mumbai,"Kandivali West, Mumbai - BMC",11-05-2024 09:00:00,19.215859,72.831718,PM10,NA,NA,NA
India,Maharashtra,Mumbai,"Kherwadi_Bandra East, Mumbai - MPCB",11-05-2024 09:00:00,19.0632143,72.8456324,PM10,47,102,62
India,Maharashtra,Mumbai,"Khindipada-Bhandup West, Mumbai - IITM",11-05-2024 09:00:00,19.1653323,72.922099,PM2.5,19,55,34
India,Maharashtra,Mumbai,"Khindipada-Bhandup West, Mumbai - IITM",11-05-2024 09:00:00,19.1653323,72.922099,PM10,19,64,38
India,Maharashtra,Mumbai,"Khindipada-Bhandup West, Mumbai - IITM",11-05-2024 09:00:00,19.1653323,72.922099,SO2,1,11,6
India,Maharashtra,Mumbai,"Kurla, Mumbai - MPCB",11-05-2024 09:00:00,19.0863,72.8888,PM10,41,216,103
India,Maharashtra,Mumbai,"Kurla, Mumbai - MPCB",11-05-2024 09:00:00,19.0863,72.8888,SO2,32,32,32
India,Maharashtra,Mumbai,"Mindspace-Malad West, Mumbai - MPCB",11-05-2024 09:00:00,19.1878657,72.8304069,CO,6,32,24
India,Maharashtra,Mumbai,"Mulund West, Mumbai - MPCB",11-05-2024 09:00:00,19.1750,72.9419,PM2.5,28,52,37
India,Maharashtra,Mumbai,"Mulund West, Mumbai - MPCB",11-05-2024 09:00:00,19.1750,72.9419,CO,42,42,42
India,Maharashtra,Mumbai,"Navy Nagar-Colaba, Mumbai - IITM",11-05-2024 09:00:00,18.897756,72.813320,NH3,4,6,4
India,Maharashtra,Mumbai,"Powai, Mumbai - MPCB",11-05-2024 09:00:00,19.137500,72.915056,SO2,38,50,43
India,Maharashtra,Mumbai,"Powai, Mumbai - MPCB",11-05-2024 09:00:00,19.137500,72.915056,CO,29,37,32
India,Maharashtra,Mumbai,"Siddharth Nagar-Worli, Mumbai - IITM",11-05-2024 09:00:00,19.000083,72.813993,PM2.5,41,57,48
India,Maharashtra,Mumbai,"Sion, Mumbai - MPCB",11-05-2024 09:00:00,19.047000,72.874600,PM10,58,84,69
India,Maharashtra,Mumbai,"Sion, Mumbai - MPCB",11-05-2024 09:00:00,19.047000,72.874600,NO2,103,108,106
India,Maharashtra,Mumbai,"Sion, Mumbai - MPCB",11-05-2024 09:00:00,19.047000,72.874600,CO,72,76,75
India,Maharashtra,Mumbai,"Vasai West, Mumbai - MPCB",11-05-2024 09:00:00,19.383200,72.820400,NO2,NA,NA,NA
India,Maharashtra,Mumbai,"Vasai West, Mumbai - MPCB",11-05-2024 09:00:00,19.383200,72.820400,CO,48,76,56
India,Maharashtra,Mumbai,"Vile Parle West, Mumbai - MPCB",11-05-2024 09:00:00,19.10861,72.83622,PM10,NA,NA,NA
India,Maharashtra,Mumbai,"Worli, Mumbai - MPCB",11-05-2024 09:00:00,18.9936162,72.8128113,OZONE,5,11,8
India,Maharashtra,Nagpur,"Ambazari, Nagpur - MPCB",11-05-2024 09:00:00,21.121801,79.04952,PM10,46,106,77
India,Maharashtra,Nagpur,"Ambazari, Nagpur - MPCB",11-05-2024 09:00:00,21.121801,79.04952,NH3,2,7,3
India,Maharashtra,Nagpur,"Ambazari, Nagpur - MPCB",11-05-2024 09:00:00,21.121801,79.04952,SO2,3,28,13
India,Maharashtra,Nagpur,"Mahal, Nagpur - MPCB",11-05-2024 09:00:00,21.14472,79.107595,CO,14,117,22
India,Maharashtra,Nagpur,"Opp GPO Civil Lines, Nagpur - MPCB",11-05-2024 09:00:00,21.152875,79.0517531,PM2.5,21,141,68
India,Maharashtra,Nanded,"Sneh Nagar, Nanded - MPCB",11-05-2024 09:00:00,19.173852,77.296291,PM10,59,112,79
India,Maharashtra,Nashik,"Gangapur Road, Nashik - MPCB",11-05-2024 09:00:00,20.0073285,73.7762427,PM2.5,29,59,47
India,Maharashtra,Nashik,"Gangapur Road, Nashik - MPCB",11-05-2024 09:00:00,20.0073285,73.7762427,SO2,2,10,6
India,Maharashtra,Nashik,"Gangapur Road, Nashik - MPCB",11-05-2024 09:00:00,20.0073285,73.7762427,CO,20,133,35
India,Maharashtra,Nashik,"Hirawadi, Nashik - MPCB",11-05-2024 09:00:00,20.021503,73.813844,NO2,13,74,22
India,Maharashtra,Nashik,"MIDC Ambad, Nashik - MPCB",11-05-2024 09:00:00,19.950220,73.731480,CO,NA,NA,NA
India,Maharashtra,Navi Mumbai,"Kopripada-Vashi, Navi Mumbai - MPCB",11-05-2024 09:00:00,19.090337,73.014232,NH3,4,11,6
India,Maharashtra,Navi Mumbai,"Nerul, Navi Mumbai - MPCB",11-05-2024 09:00:00,19.008751,73.016620,PM10,61,111,87
India,Maharashtra,Navi Mumbai,"Nerul, Navi Mumbai - MPCB",11-05-2024 09:00:00,19.008751,73.016620,NO2,29,45,36
India,Maharashtra,Navi Mumbai,"Sanpada, Navi Mumbai - MPCB",11-05-2024 09:00:00,19.0575752,73.0151367,NO2,1,13,5
India,Maharashtra,Navi Mumbai,"Sanpada, Navi Mumbai - MPCB",11-05-2024 09:00:00,19.0575752,73.0151367,NH3,1,7,2
India,Maharashtra,Navi Mumbai,"Sector-19A Nerul, Navi Mumbai - IITM",11-05-2024 09:00:00,19.044,73.0325,NH3,2,4,3
India,Maharashtra,Navi Mumbai,"Sector-2E Kalamboli, Navi Mumbai - MPCB",11-05-2024 09:00:00,19.02579,73.10297,NO2,NA,NA,NA
India,Maharashtra,Navi Mumbai,"Tondare-Taloja, Navi Mumbai - MPCB",11-05-2024 09:00:00,19.0630,73.1209,PM10,NA,NA,NA
India,Maharashtra,Navi Mumbai,"Tondare-Taloja, Navi Mumbai - MPCB",11-05-2024 09:00:00,19.0630,73.1209,SO2,NA,NA,NA
India,Maharashtra,Navi Mumbai,"Tondare-Taloja, Navi Mumbai - MPCB",11-05-2024 09:00:00,19.0630,73.1209,OZONE,3,312,4
India,Maharashtra,Parbhani,"Masoom Colony, Parbhani - MPCB",11-05-2024 09:00:00,19.265594,76.761463,PM10,51,118,77
India,Maharashtra,Parbhani,"Masoom Colony, Parbhani - MPCB",11-05-2024 09:00:00,19.265594,76.761463,SO2,6,9,8
India,Maharashtra,Pimpri-Chinchwad,"Gavalinagar, Pimpri Chinchwad - MPCB",11-05-2024 09:00:00,18.63673,73.82487,PM2.5,40,68,56
India,Maharashtra,Pimpri-Chinchwad,"Gavalinagar, Pimpri Chinchwad - MPCB",11-05-2024 09:00:00,18.63673,73.82487,CO,NA,NA,NA
India,Maharashtra,Pimpri-Chinchwad,"Park Street Wakad, Pimpri Chinchwad - MPCB",11-05-2024 09:00:00,18.59051,73.77946,NO2,30,118,58
India,Maharashtra,Pimpri-Chinchwad,"Park Street Wakad, Pimpri Chinchwad - MPCB",11-05-2024 09:00:00,18.59051,73.77946,NH3,4,14,7
India,Maharashtra,Pimpri-Chinchwad,"Thergaon, Pimpri Chinchwad - MPCB",11-05-2024 09:00:00,18.616318,73.765797,PM2.5,NA,NA,NA
India,Maharashtra,Pimpri-Chinchwad,"Thergaon, Pimpri Chinchwad - MPCB",11-05-2024 09:00:00,18.616318,73.765797,OZONE,NA,NA,NA
India,Maharashtra,Pune,"Bhosari, Pune - IITM",11-05-2024 09:00:00,18.640051,73.848956,OZONE,1,128,4
India,Maharashtra,Pune,"Karve Road, Pune - MPCB",11-05-2024 09:00:00,18.5011743,73.8165527,PM2.5,4,99,57
India,Maharashtra,Pune,"Karve Road, Pune - MPCB",11-05-2024 09:00:00,18.5011743,73.8165527,OZONE,6,184,105
India,Maharashtra,Pune,"Katraj Dairy, Pune - MPCB",11-05-2024 09:00:00,18.454450,73.854155,PM2.5,27,57,43
India,Maharashtra,Pune,"Katraj Dairy, Pune - MPCB",11-05-2024 09:00:00,18.454450,73.854155,NH3,1,6,2
India,Maharashtra,Pune,"Katraj Dairy, Pune - MPCB",11-05-2024 09:00:00,18.454450,73.854155,SO2,1,4,2
India,Maharashtra,Pune,"Mhada Colony, Pune - IITM",11-05-2024 09:00:00,18.573040,73.927715,OZONE,1,185,3
India,Maharashtra,Pune,"Revenue Colony-Shivajinagar, Pune - IITM",11-05-2024 09:00:00,18.530085,73.849598,CO,86,132,97
India,Maharashtra,Pune,"Revenue Colony-Shivajinagar, Pune - IITM",11-05-2024 09:00:00,18.530085,73.849598,OZONE,2,96,4
India,Maharashtra,Pune,"Savitribai Phule Pune University, Pune - MPCB",11-05-2024 09:00:00,18.547056,73.826908,PM2.5,NA,NA,NA
India,Maharashtra,Pune,"Savitribai Phule Pune University, Pune - MPCB",11-05-2024 09:00:00,18.547056,73.826908,PM10,NA,NA,NA
India,Maharashtra,Pune,"Savitribai Phule Pune University, Pune - MPCB",11-05-2024 09:00:00,18.547056,73.826908,NO2,NA,NA,NA
India,Maharashtra,Pune,"Transport Nagar-Nigdi, Pune - IITM",11-05-2024 09:00:00,18.664282,73.763966,PM2.5,46,98,68
India,Maharashtra,Solapur,"Dnyaneshwar Nagar, Solapur - MPCB",11-05-2024 09:00:00,17.6336264,75.9132495,NO2,10,35,18
India,Maharashtra,Solapur,"Ratandeep Housing Society, Solapur - MPCB",11-05-2024 09:00:00,17.65439,75.90649,PM10,41,76,57
India,Maharashtra,Solapur,"Ratandeep Housing Society, Solapur - MPCB",11-05-2024 09:00:00,17.65439,75.90649,OZONE,26,192,56
India,Maharashtra,Thane,"Kasarvadavali, Thane - MPCB",11-05-2024 09:00:00,19.26777,72.97182,SO2,NA,NA,NA
India,Maharashtra,Thane,"Pimpleshwar Mandir, Thane - MPCB",11-05-2024 09:00:00,19.192056,72.9585188,PM10,53,89,69
India,Maharashtra,Thane,"Pimpleshwar Mandir, Thane - MPCB",11-05-2024 09:00:00,19.192056,72.9585188,CO,14,67,33
India,Maharashtra,Thane,"Upvan Fort, Thane - MPCB",11-05-2024 09:00:00,19.222279,72.957979,OZONE,6,51,8
India,Maharashtra,Ulhasnagar,"Sidhi Vinayak Nagar, Ulhasnagar - MPCB",11-05-2024 09:00:00,19.235581,73.159121,CO,14,36,25
India,Maharashtra,Virar,"Bolinj, Virar - MPCB",11-05-2024 09:00:00,19.4458210,72.7988231,CO,10,25,19
India,Maharashtra,Virar,"Bolinj, Virar - MPCB",11-05-2024 09:00:00,19.4458210,72.7988231,OZONE,13,46,18
India,Manipur,Imphal,"Manipur University, Imphal - Manipur PCB",11-05-2024 09:00:00,24.7524239,93.9286218,PM2.5,21,55,34
India,Manipur,Imphal,"Manipur University, Imphal - Manipur PCB",11-05-2024 09:00:00,24.7524239,93.9286218,NH3,1,2,1
India,Mizoram,Aizawl,"Sikulpuikawn, Aizawl - Mizoram PCB",11-05-2024 09:00:00,23.7176342,92.7192841,PM2.5,5,23,12
India,Mizoram,Aizawl,"Sikulpuikawn, Aizawl - Mizoram PCB",11-05-2024 09:00:00,23.7176342,92.7192841,CO,10,16,11
India,Nagaland,Kohima,"PWD Juction, Kohima - NPCB",11-05-2024 09:00:00,25.6635413,94.0989878,CO,10,20,12
India,Odisha,Angul,"Hakimapada, Angul - OSPCB",11-05-2024 09:00:00,20.832874,85.104082,CO,6,75,41
India,Odisha,Balasore,"Kalidaspur, Balasore - OSPCB",11-05-2024 09:00:00,21.51161,86.89088,SO2,14,18,15
India,Odisha,Barbil,"Forest Office, Barbil - OSPCB",11-05-2024 09:00:00,22.1166054,85.3945546,NO2,NA,NA,NA
India,Odisha,Baripada,"Meher Colony, Baripada - OSPCB",11-05-2024 09:00:00,21.941841,86.728318,PM2.5,10,37,22
India,Odisha,Bhubaneswar,"Lingraj Mandir, Bhubaneswar - OSPCB",11-05-2024 09:00:00,20.240790,85.836784,NO2,5,14,9
India,Odisha,Bileipada,"Tata Township, Bileipada - OSPCB",11-05-2024 09:00:00,22.06156703,85.47409613,PM10,73,138,99
India,Odisha,Brajrajnagar,"GM Office, Brajrajnagar - OSPCB",11-05-2024 09:00:00,21.8004996,83.8396977,OZONE,1,59,6
India,Odisha,Keonjhar,"Jagamohanpur, Keonjhar - OSPCB",11-05-2024 09:00:00,21.643900,85.599355,NH3,1,3,2
India,Odisha,Keonjhar,"Jagamohanpur, Keonjhar - OSPCB",11-05-2024 09:00:00,21.643900,85.599355,SO2,8,9,9
India,Odisha,Keonjhar,"Jagamohanpur, Keonjhar - OSPCB",11-05-2024 09:00:00,21.643900,85.599355,OZONE,14,14,14
India,Odisha,Nayagarh,"Dabuna, Nayagarh - OSPCB",11-05-2024 09:00:00,21.847279,85.416905,NH3,4,4,4
India,Odisha,Nayagarh,"Dabuna, Nayagarh - OSPCB",11-05-2024 09:00:00,21.847279,85.416905,CO,8,16,12
India,Odisha,Nayagarh,"Dabuna, Nayagarh - OSPCB",11-05-2024 09:00:00,21.847279,85.416905,OZONE,5,33,6
India,Odisha,Rairangpur,"Divisional Forest Office, Rairangpur - OSPCB",11-05-2024 09:00:00,22.265816,86.174829,PM2.5,17,44,32
India,Odisha,Rairangpur,"Divisional Forest Office, Rairangpur - OSPCB",11-05-2024 09:00:00,22.265816,86.174829,NO2,1,1,1
India,Odisha,Rourkela,"Fertilizer Township, Rourkela - OSPCB",11-05-2024 09:00:00,22.18972222,84.86277778,SO2,12,14,13
India,Odisha,Rourkela,"Sector-2, Rourkela - OSPCB",11-05-2024 09:00:00,22.24500000,84.88111111,PM2.5,42,236,105
India,Odisha,Suakati,"OMC Colony, Suakati - OSPCB",11-05-2024 09:00:00,21.606865,85.510538,PM2.5,31,71,49
India,Odisha,Suakati,"OMC Colony, Suakati - OSPCB",11-05-2024 09:00:00,21.606865,85.510538,SO2,1,22,4
India,Odisha,Suakati,"OMC Colony, Suakati - OSPCB",11-05-2024 09:00:00,21.606865,85.510538,CO,14,30,23
India,Odisha,Talcher,"Talcher Coalfields,Talcher - OSPCB",11-05-2024 09:00:00,20.9360711,85.1707021,NH3,3,4,3
India,Odisha,Talcher,"Talcher Coalfields,Talcher - OSPCB",11-05-2024 09:00:00,20.9360711,85.1707021,CO,29,95,40
India,Odisha,Tensa,"Barsua Iron Ore Mines, Tensa - OSPCB",11-05-2024 09:00:00,21.869985,85.167016,NO2,5,53,17
India,Odisha,Tensa,"Barsua Iron Ore Mines, Tensa - OSPCB",11-05-2024 09:00:00,21.869985,85.167016,SO2,1,19,8
India,Puducherry,Puducherry,"Jawahar Nagar, Puducherry - PPCC",11-05-2024 09:00:00,11.9309,79.8027,NO2,1,17,5
India,Punjab,Jalandhar,"Civil Line, Jalandhar - PPCB",11-05-2024 09:00:00,31.321907,75.578914,SO2,8,14,10
India,Punjab,Jalandhar,"Civil Line, Jalandhar - PPCB",11-05-2024 09:00:00,31.321907,75.578914,OZONE,2,90,51
India,Punjab,Khanna,"Kalal Majra, Khanna - PPCB",11-05-2024 09:00:00,30.736056 ,76.209694,NO2,21,39,24
India,Punjab,Ludhiana,"Punjab Agricultural University, Ludhiana - PPCB",11-05-2024 09:00:00,30.9028,75.8086,PM10,107,279,150
India,Punjab,Ludhiana,"Punjab Agricultural University, Ludhiana - PPCB",11-05-2024 09:00:00,30.9028,75.8086,CO,22,115,68
India,Punjab,Mandi Gobindgarh,"RIMT University, Mandi Gobindgarh - PPCB",11-05-2024 09:00:00,30.649961,76.331442,NH3,6,6,6
India,Rajasthan,Ajmer,"Civil Lines,  Ajmer - RSPCB",11-05-2024 09:00:00,26.470859,74.646594,CO,17,78,34
India,Rajasthan,Alwar,"Moti Doongri, Alwar - RSPCB",11-05-2024 09:00:00,27.554793,76.611536,NO2,29,47,37
India,Rajasthan,Alwar,"Moti Doongri, Alwar - RSPCB",11-05-2024 09:00:00,27.554793,76.611536,SO2,NA,NA,NA
India,Rajasthan,Alwar,"Moti Doongri, Alwar - RSPCB",11-05-2024 09:00:00,27.554793,76.611536,CO,22,74,47
India,Rajasthan,Banswara,"Rati Talai, Banswara - RSPCB",11-05-2024 09:00:00,23.555190,74.440010,CO,27,48,38
India,Rajasthan,Baran,"Bamboliya, Baran - RSPCB",11-05-2024 09:00:00,25.106006,76.469948,PM2.5,15,75,41
India,Rajasthan,Barmer,"Railway Colony, Barmer - RSPCB",11-05-2024 09:00:00,25.747299,71.393989,PM2.5,16,34,25
India,Rajasthan,Bharatpur,"Krishna Nagar, Bharatpur - RSPCB",11-05-2024 09:00:00,27.215415,77.50873,PM2.5,86,500,243
India,Rajasthan,Bharatpur,"Krishna Nagar, Bharatpur - RSPCB",11-05-2024 09:00:00,27.215415,77.50873,PM10,108,500,236
India,Rajasthan,Bhiwadi,"RIICO Ind. Area III, Bhiwadi - RSPCB",11-05-2024 09:00:00,28.194909,76.862296,PM2.5,21,457,261
India,Rajasthan,Bhiwadi,"RIICO Ind. Area III, Bhiwadi - RSPCB",11-05-2024 09:00:00,28.194909,76.862296,PM10,31,500,267
India,Rajasthan,Bhiwadi,"RIICO Ind. Area III, Bhiwadi - RSPCB",11-05-2024 09:00:00,28.194909,76.862296,NO2,9,34,15
India,Rajasthan,Bhiwadi,"Vasundhara Nagar_UIT, Bhiwadi - RSPCB",11-05-2024 09:00:00,28.207266,76.829265,NH3,8,21,13
India,Rajasthan,Bhiwadi,"Vasundhara Nagar_UIT, Bhiwadi - RSPCB",11-05-2024 09:00:00,28.207266,76.829265,CO,12,40,19
India,Rajasthan,Bhiwadi,"Vasundhara Nagar_UIT, Bhiwadi - RSPCB",11-05-2024 09:00:00,28.207266,76.829265,OZONE,40,142,75
India,Rajasthan,Bundi,"New Colony, Bundi - RSPCB",11-05-2024 09:00:00,25.435774,75.644272,NH3,4,6,5
India,Rajasthan,Bundi,"New Colony, Bundi - RSPCB",11-05-2024 09:00:00,25.435774,75.644272,OZONE,42,140,67
India,Rajasthan,Chittorgarh,"Shastri Nagar, Chittorgarh - RSPCB",11-05-2024 09:00:00,24.892047,74.623527,NH3,NA,NA,NA
India,Rajasthan,Dausa,"Khatikan Mohalla, Dausa - RSPCB",11-05-2024 09:00:00,26.895552,76.334753,SO2,2,4,3
India,Rajasthan,Dholpur,"Raja Ganj, Dholpur - RSPCB",11-05-2024 09:00:00,26.699557,77.898881,PM2.5,NA,NA,NA
India,Rajasthan,Dholpur,"Raja Ganj, Dholpur - RSPCB",11-05-2024 09:00:00,26.699557,77.898881,NH3,6,11,8
India,Rajasthan,Dungarpur,"Bhoiwada, Dungarpur - RSPCB",11-05-2024 09:00:00,23.837789,73.714926,NH3,6,7,7
India,Rajasthan,Dungarpur,"Bhoiwada, Dungarpur - RSPCB",11-05-2024 09:00:00,23.837789,73.714926,SO2,1,10,6
India,Rajasthan,Jaipur,"Adarsh Nagar, Jaipur - RSPCB",11-05-2024 09:00:00,26.902909,75.836858,NO2,18,55,30
India,Rajasthan,Jaipur,"Adarsh Nagar, Jaipur - RSPCB",11-05-2024 09:00:00,26.902909,75.836858,SO2,8,29,18
India,Rajasthan,Jaipur,"Mansarovar Sector-12, Jaipur - RSPCB",11-05-2024 09:00:00,26.843698,75.766894,PM10,62,500,198
India,Rajasthan,Jaipur,"Mansarovar Sector-12, Jaipur - RSPCB",11-05-2024 09:00:00,26.843698,75.766894,NO2,9,30,20
India,Rajasthan,Jaipur,"Police Commissionerate, Jaipur - RSPCB",11-05-2024 09:00:00,26.9164092,75.7994901,PM2.5,32,290,99
India,Rajasthan,Jaipur,"Police Commissionerate, Jaipur - RSPCB",11-05-2024 09:00:00,26.9164092,75.7994901,OZONE,61,106,81
India,Rajasthan,Jaipur,"RIICO Sitapura, Jaipur - RSPCB",11-05-2024 09:00:00,26.786682,75.827928,CO,12,28,18
India,Rajasthan,Jaipur,"RIICO Sitapura, Jaipur - RSPCB",11-05-2024 09:00:00,26.786682,75.827928,OZONE,10,118,41
India,Rajasthan,Jaipur,"Sector-2 Murlipura, Jaipur - RSPCB",11-05-2024 09:00:00,26.960669,75.771817,CO,17,66,33
India,Rajasthan,Jaipur,"Shastri Nagar, Jaipur - RSPCB",11-05-2024 09:00:00,26.9502929,75.730943,PM2.5,60,195,103
India,Rajasthan,Jaipur,"Shastri Nagar, Jaipur - RSPCB",11-05-2024 09:00:00,26.9502929,75.730943,NH3,2,4,3
India,Rajasthan,Jalore,"Mudtra Sili, Jalore - RSPCB",11-05-2024 09:00:00,25.344694,72.626208,NH3,5,7,5
India,Rajasthan,Jalore,"Mudtra Sili, Jalore - RSPCB",11-05-2024 09:00:00,25.344694,72.626208,OZONE,41,85,63
India,Rajasthan,Jhalawar,"Rajlaxmi Nagar, Jhalawar - RSPCB",11-05-2024 09:00:00,24.588397,76.172782,SO2,4,26,8
India,Rajasthan,Jhalawar,"Rajlaxmi Nagar, Jhalawar - RSPCB",11-05-2024 09:00:00,24.588397,76.172782,CO,12,27,20
India,Rajasthan,Jhunjhunu,"Indra Nagar, Jhunjhunu - RSPCB",11-05-2024 09:00:00,28.108988,75.386577,NH3,16,27,22
India,Rajasthan,Jodhpur,"Jhalamand, Jodhpur - RSPCB",11-05-2024 09:00:00,26.215415,73.070156,SO2,4,10,8
India,Rajasthan,Jodhpur,"Jhalamand, Jodhpur - RSPCB",11-05-2024 09:00:00,26.215415,73.070156,OZONE,28,68,41
India,Rajasthan,Jodhpur,"Mandor, Jodhpur - RSPCB",11-05-2024 09:00:00,26.358805,73.047444,NO2,18,36,23
India,Rajasthan,Jodhpur,"Mandor, Jodhpur - RSPCB",11-05-2024 09:00:00,26.358805,73.047444,SO2,2,7,5
India,Rajasthan,Jodhpur,"Samrat Ashok Udhyan, Jodhpur - RSPCB",11-05-2024 09:00:00,26.253384,72.976571,PM10,66,124,90
India,Rajasthan,Karauli,"Satyawati Vihar, Karauli - RSPCB",11-05-2024 09:00:00,26.506177,77.025989,PM10,48,500,182
India,Rajasthan,Karauli,"Satyawati Vihar, Karauli - RSPCB",11-05-2024 09:00:00,26.506177,77.025989,CO,8,72,8
India,Rajasthan,Kota,"Shrinath Puram, Kota - RSPCB",11-05-2024 09:00:00,25.14389,75.821256,OZONE,20,89,34
India,Rajasthan,Pali,"Indira Colony Vistar, Pali - RSPCB",11-05-2024 09:00:00,25.771061, 73.340227,PM2.5,52,120,73
India,Rajasthan,Pratapgarh,"Pragati Nagar, Pratapgarh - RSPCB",11-05-2024 09:00:00,24.041198,74.780702,PM2.5,11,44,29
India,Rajasthan,Rajsamand,"Dhoinda, Rajsamand - RSPCB",11-05-2024 09:00:00,25.036360,73.883502,PM10,NA,NA,NA
India,Rajasthan,Sawai Madhopur,"Sahu Nagar, Sawai Madhopur - RSPCB",11-05-2024 09:00:00,26.031443,76.359327,NO2,5,33,9
India,Rajasthan,Sikar,"Radhakishan Pura, Sikar - RSPCB",11-05-2024 09:00:00,27.608912,75.153302,PM10,72,500,213
India,Rajasthan,Sikar,"Radhakishan Pura, Sikar - RSPCB",11-05-2024 09:00:00,27.608912,75.153302,NO2,8,28,13
India,Rajasthan,Sikar,"Radhakishan Pura, Sikar - RSPCB",11-05-2024 09:00:00,27.608912,75.153302,SO2,1,14,6
India,Rajasthan,Sikar,"Radhakishan Pura, Sikar - RSPCB",11-05-2024 09:00:00,27.608912,75.153302,CO,14,24,18
India,Rajasthan,Sirohi,"Vedhaynath Colony, Sirohi - RSPCB",11-05-2024 09:00:00,24.885261,72.857549,PM2.5,20,34,27
India,Rajasthan,Sirohi,"Vedhaynath Colony, Sirohi - RSPCB",11-05-2024 09:00:00,24.885261,72.857549,PM10,37,191,57
India,Rajasthan,Sirohi,"Vedhaynath Colony, Sirohi - RSPCB",11-05-2024 09:00:00,24.885261,72.857549,SO2,2,18,9
India,Rajasthan,Sri Ganganagar,"Old City, Sri Ganganagar - RSPCB",11-05-2024 09:00:00,29.931624,73.864511,NO2,9,106,35
India,Rajasthan,Sri Ganganagar,"Old City, Sri Ganganagar - RSPCB",11-05-2024 09:00:00,29.931624,73.864511,SO2,2,13,6
India,Rajasthan,Sri Ganganagar,"Old City, Sri Ganganagar - RSPCB",11-05-2024 09:00:00,29.931624,73.864511,CO,2,110,6
India,Rajasthan,Tonk,"Shastri Nagar, Tonk - RSPCB",11-05-2024 09:00:00,26.159933,75.780517,PM2.5,25,87,39
India,Rajasthan,Tonk,"Shastri Nagar, Tonk - RSPCB",11-05-2024 09:00:00,26.159933,75.780517,NO2,2,35,14
India,Rajasthan,Tonk,"Shastri Nagar, Tonk - RSPCB",11-05-2024 09:00:00,26.159933,75.780517,CO,1,14,4
India,Sikkim,Gangtok,"Zero Point GICI, Gangtok - SSPCB",11-05-2024 09:00:00,27.338530,88.614099,PM2.5,10,22,16
India,Sikkim,Gangtok,"Zero Point GICI, Gangtok - SSPCB",11-05-2024 09:00:00,27.338530,88.614099,NO2,1,6,2
India,TamilNadu,Ariyalur,"Keelapalur, Ariyalur - TNPCB",11-05-2024 09:00:00,11.06825,79.07033,NO2,5,7,6
India,TamilNadu,Chengalpattu,"Crescent University, Chengalpattu - TNPCB",11-05-2024 09:00:00,12.8777316,80.0834807,PM10,NA,NA,NA
India,TamilNadu,Chengalpattu,"Crescent University, Chengalpattu - TNPCB",11-05-2024 09:00:00,12.8777316,80.0834807,OZONE,6,6,6
India,TamilNadu,Chennai,"Kodungaiyur, Chennai - TNPCB",11-05-2024 09:00:00,13.1278,80.2642,PM2.5,3,21,11
India,TamilNadu,Chennai,"Manali, Chennai - CPCB",11-05-2024 09:00:00,13.164544,80.26285,NO2,8,10,9
India,TamilNadu,Chennai,"Manali, Chennai - CPCB",11-05-2024 09:00:00,13.164544,80.26285,NH3,4,5,4
India,TamilNadu,Chennai,"Manali, Chennai - CPCB",11-05-2024 09:00:00,13.164544,80.26285,CO,70,104,95
India,TamilNadu,Chennai,"Perungudi, Chennai - TNPCB",11-05-2024 09:00:00,12.9533,80.2357,PM2.5,NA,NA,NA
India,TamilNadu,Chennai,"Perungudi, Chennai - TNPCB",11-05-2024 09:00:00,12.9533,80.2357,SO2,1,7,3
India,TamilNadu,Coimbatore,"PSG College of Arts and Science, Coimbatore - TNPCB",11-05-2024 09:00:00,11.0328,77.0349,OZONE,3,5,4
India,TamilNadu,Cuddalore,"Kudikadu, Cuddalore - TNPCB",11-05-2024 09:00:00,11.6829898,79.7532099,PM10,26,125,71
India,TamilNadu,Gummidipoondi,"Anthoni Pillai Nagar, Gummidipoondi - TNPCB",11-05-2024 09:00:00,13.4127,80.1081,PM2.5,5,70,28
India,TamilNadu,Gummidipoondi,"Anthoni Pillai Nagar, Gummidipoondi - TNPCB",11-05-2024 09:00:00,13.4127,80.1081,SO2,1,36,11
India,TamilNadu,Ooty,"Bombay Castel, Ooty - TNPCB",11-05-2024 09:00:00,11.4068288,76.7138973,SO2,15,16,16
India,TamilNadu,Ooty,"Bombay Castel, Ooty - TNPCB",11-05-2024 09:00:00,11.4068288,76.7138973,CO,22,23,22
India,TamilNadu,Ramanathapuram,"Chalai Bazaar, Ramanathapuram - TNPCB",11-05-2024 09:00:00,9.36399,78.831977,OZONE,13,14,14
India,TamilNadu,Salem,"Sona College of Technology, Salem - TNPCB",11-05-2024 09:00:00,11.679111,78.125052,PM2.5,NA,NA,NA
India,TamilNadu,Salem,"Sona College of Technology, Salem - TNPCB",11-05-2024 09:00:00,11.679111,78.125052,NH3,NA,NA,NA
India,TamilNadu,Thoothukudi,"Meelavittan, Thoothukudi - TNPCB",11-05-2024 09:00:00,8.816428 ,78.099039,PM10,31,121,60
India,TamilNadu,Tirupur,"Kumaran College, Tirupur - TNPCB",11-05-2024 09:00:00,11.0973603,77.3228673,NH3,NA,NA,NA
India,TamilNadu,Tirupur,"Kumaran College, Tirupur - TNPCB",11-05-2024 09:00:00,11.0973603,77.3228673,CO,24,50,30
India,TamilNadu,Vellore,"Vasanthapuram, Vellore - TNPCB",11-05-2024 09:00:00,12.909494,79.131861,PM10,11,63,40
India,Telangana,Hyderabad,"Bollaram Industrial Area, Hyderabad - TSPCB",11-05-2024 09:00:00,17.540891,78.358528,NH3,4,7,5
India,Telangana,Hyderabad,"Bollaram Industrial Area, Hyderabad - TSPCB",11-05-2024 09:00:00,17.540891,78.358528,SO2,6,36,18
India,Telangana,Hyderabad,"Central University, Hyderabad - TSPCB",11-05-2024 09:00:00,17.460103,78.334361,CO,5,58,18
India,Telangana,Hyderabad,"ECIL Kapra, Hyderabad - TSPCB",11-05-2024 09:00:00,17.470431,78.566959,OZONE,19,150,22
India,Telangana,Hyderabad,"ICRISAT Patancheru, Hyderabad - TSPCB",11-05-2024 09:00:00,17.518400,78.278777,OZONE,13,13,13
India,Telangana,Hyderabad,"IITH Kandi, Hyderabad - TSPCB",11-05-2024 09:00:00,17.585705,78.126199,NO2,NA,NA,NA
India,Telangana,Hyderabad,"Kokapet, Hyderabad - TSPCB",11-05-2024 09:00:00,17.393559,78.339194,NO2,NA,NA,NA
India,Telangana,Hyderabad,"Kokapet, Hyderabad - TSPCB",11-05-2024 09:00:00,17.393559,78.339194,OZONE,NA,NA,NA
India,Telangana,Hyderabad,"Kompally Municipal Office, Hyderabad - TSPCB",11-05-2024 09:00:00,17.544899,78.486949,SO2,NA,NA,NA
India,Telangana,Hyderabad,"Nacharam_TSIIC IALA, Hyderabad - TSPCB",11-05-2024 09:00:00,17.429398,78.569354,SO2,NA,NA,NA
India,Telangana,Hyderabad,"Nacharam_TSIIC IALA, Hyderabad - TSPCB",11-05-2024 09:00:00,17.429398,78.569354,OZONE,41,69,68
India,Telangana,Hyderabad,"New Malakpet, Hyderabad - TSPCB",11-05-2024 09:00:00,17.37206,78.50864,NO2,16,33,21
India,Telangana,Hyderabad,"New Malakpet, Hyderabad - TSPCB",11-05-2024 09:00:00,17.37206,78.50864,NH3,3,3,3
India,Telangana,Hyderabad,"New Malakpet, Hyderabad - TSPCB",11-05-2024 09:00:00,17.37206,78.50864,SO2,18,21,20
India,Telangana,Hyderabad,"Ramachandrapuram, Hyderabad - TSPCB",11-05-2024 09:00:00,17.528544,78.286195,NO2,7,11,8
India,Telangana,Hyderabad,"Ramachandrapuram, Hyderabad - TSPCB",11-05-2024 09:00:00,17.528544,78.286195,CO,25,38,26
India,Telangana,Hyderabad,"Sanathnagar, Hyderabad - TSPCB",11-05-2024 09:00:00,17.4559458,78.4332152,SO2,3,14,9
India,Tripura,Agartala,"Bardowali, Agartala - Tripura SPCB",11-05-2024 09:00:00,23.8175497,91.2726974,PM2.5,53,151,87
India,Tripura,Agartala,"Bardowali, Agartala - Tripura SPCB",11-05-2024 09:00:00,23.8175497,91.2726974,PM10,71,142,97
India,Tripura,Agartala,"Bardowali, Agartala - Tripura SPCB",11-05-2024 09:00:00,23.8175497,91.2726974,SO2,30,31,31
India,Tripura,Agartala,"Bardowali, Agartala - Tripura SPCB",11-05-2024 09:00:00,23.8175497,91.2726974,CO,16,64,18
India,Uttar_Pradesh,Agra,"Manoharpur, Agra - UPPCB",11-05-2024 09:00:00,27.23711,78.01936,NO2,35,35,35
India,Uttar_Pradesh,Agra,"Manoharpur, Agra - UPPCB",11-05-2024 09:00:00,27.23711,78.01936,NH3,2,3,2
India,Uttar_Pradesh,Agra,"Sanjay Palace, Agra - UPPCB",11-05-2024 09:00:00,27.19865833,78.00598056,CO,2,52,11
India,Uttar_Pradesh,Agra,"Sector-3B Avas Vikas Colony, Agra - UPPCB",11-05-2024 09:00:00,27.19412,77.96237,PM10,49,325,105
India,Uttar_Pradesh,Agra,"Sector-3B Avas Vikas Colony, Agra - UPPCB",11-05-2024 09:00:00,27.19412,77.96237,CO,10,18,14
India,Uttar_Pradesh,Agra,"Sector-3B Avas Vikas Colony, Agra - UPPCB",11-05-2024 09:00:00,27.19412,77.96237,OZONE,10,42,11
India,Uttar_Pradesh,Agra,"Shastripuram, Agra - UPPCB",11-05-2024 09:00:00,27.19862,77.92066,NO2,44,87,48
India,Uttar_Pradesh,Agra,"Shastripuram, Agra - UPPCB",11-05-2024 09:00:00,27.19862,77.92066,SO2,13,14,14
India,Uttar_Pradesh,Baghpat,"Sardar Patel Inter College, Baghpat - UPPCB",11-05-2024 09:00:00,28.964949,77.278761,PM10,20,184,107
India,Uttar_Pradesh,Bareilly,"Civil Lines, Bareilly - UPPCB",11-05-2024 09:00:00,28.359581,79.414455,PM2.5,11,28,18
India,Uttar_Pradesh,Bareilly,"Rajendra Nagar, Bareilly - UPPCB",11-05-2024 09:00:00,28.38910936,79.42963708,PM2.5,18,39,28
India,Uttar_Pradesh,Firozabad,"Nagla Bhau, Firozabad - UPPCB",11-05-2024 09:00:00,27.168897,78.376960,PM10,NA,NA,NA
India,Uttar_Pradesh,Firozabad,"Nagla Bhau, Firozabad - UPPCB",11-05-2024 09:00:00,27.168897,78.376960,NH3,2,2,2
India,Uttar_Pradesh,Firozabad,"Vibhab Nagar, Firozabad - UPPCB",11-05-2024 09:00:00,27.1594,78.3953,CO,6,25,22
India,Uttar_Pradesh,Ghaziabad,"Loni, Ghaziabad - UPPCB",11-05-2024 09:00:00,28.757294,77.278792,SO2,6,34,23
India,Uttar_Pradesh,Ghaziabad,"Loni, Ghaziabad - UPPCB",11-05-2024 09:00:00,28.757294,77.278792,OZONE,33,175,44
India,Uttar_Pradesh,Ghaziabad,"Sanjay Nagar, Ghaziabad - UPPCB",11-05-2024 09:00:00,28.685382,77.453839,PM2.5,18,217,106
India,Uttar_Pradesh,Ghaziabad,"Sanjay Nagar, Ghaziabad - UPPCB",11-05-2024 09:00:00,28.685382,77.453839,NO2,23,87,45
India,Uttar_Pradesh,Ghaziabad,"Vasundhara, Ghaziabad - UPPCB",11-05-2024 09:00:00,28.6603346,77.3572563,NH3,4,11,6
India,Uttar_Pradesh,Ghaziabad,"Vasundhara, Ghaziabad - UPPCB",11-05-2024 09:00:00,28.6603346,77.3572563,OZONE,4,152,52
India,Uttar_Pradesh,Greater Noida,"Knowledge Park - III, Greater Noida - UPPCB",11-05-2024 09:00:00,28.47272,77.482000,SO2,2,17,12
India,Uttar_Pradesh,Greater Noida,"Knowledge Park - V, Greater Noida - UPPCB",11-05-2024 09:00:00,28.557054,77.453663,PM10,101,348,193
India,Uttar_Pradesh,Hapur,"Anand Vihar, Hapur - UPPCB",11-05-2024 09:00:00,28.725645,77.749675,NO2,6,55,12
India,Uttar_Pradesh,Hapur,"Anand Vihar, Hapur - UPPCB",11-05-2024 09:00:00,28.725645,77.749675,CO,20,34,30
India,Uttar_Pradesh,Jhansi,"Shivaji Nagar, Jhansi - UPPCB",11-05-2024 09:00:00,25.4547,78.6039,NO2,1,22,7
India,Uttar_Pradesh,Kanpur,"FTI Kidwai Nagar, Kanpur - UPPCB",11-05-2024 09:00:00,26.428282,80.327067,PM10,65,232,111
India,Uttar_Pradesh,Kanpur,"FTI Kidwai Nagar, Kanpur - UPPCB",11-05-2024 09:00:00,26.428282,80.327067,NO2,12,18,14
India,Uttar_Pradesh,Kanpur,"FTI Kidwai Nagar, Kanpur - UPPCB",11-05-2024 09:00:00,26.428282,80.327067,CO,30,40,39
India,Uttar_Pradesh,Kanpur,"NSI Kalyanpur, Kanpur - UPPCB",11-05-2024 09:00:00,26.509954,80.249612,OZONE,27,60,53
India,Uttar_Pradesh,Kanpur,"Nehru Nagar, Kanpur - UPPCB",11-05-2024 09:00:00,26.4703136,80.3229863,SO2,8,12,10
India,Uttar_Pradesh,Khurja,"Kalindi Kunj, Khurja - UPPCB",11-05-2024 09:00:00,28.2348927,77.8683002,PM10,39,316,79
India,Uttar_Pradesh,Khurja,"Kalindi Kunj, Khurja - UPPCB",11-05-2024 09:00:00,28.2348927,77.8683002,CO,29,42,31
India,Uttar_Pradesh,Lucknow,"B R Ambedkar University, Lucknow - UPPCB",11-05-2024 09:00:00,26.766433,80.927299,PM2.5,44,177,86
India,Uttar_Pradesh,Lucknow,"B R Ambedkar University, Lucknow - UPPCB",11-05-2024 09:00:00,26.766433,80.927299,PM10,61,175,93
India,Uttar_Pradesh,Lucknow,"B R Ambedkar University, Lucknow - UPPCB",11-05-2024 09:00:00,26.766433,80.927299,SO2,36,40,38
India,Uttar_Pradesh,Lucknow,"Gomti Nagar, Lucknow - UPPCB",11-05-2024 09:00:00,26.868120,81.005119,OZONE,33,38,34
India,Uttar_Pradesh,Lucknow,"Kendriya Vidyalaya, Lucknow - CPCB",11-05-2024 09:00:00,26.906111,80.948222,NO2,11,51,21
India,Uttar_Pradesh,Lucknow,"Kukrail Picnic Spot-1, Lucknow - UPPCB",11-05-2024 09:00:00,26.90723,80.98579,SO2,30,37,33
India,Uttar_Pradesh,Lucknow,"Lalbagh, Lucknow - CPCB",11-05-2024 09:00:00,26.8458805,80.9365541,OZONE,29,63,34
India,Uttar_Pradesh,Lucknow,"Talkatora District Industries Center, Lucknow - CPCB",11-05-2024 09:00:00,26.83399722,80.8917361,PM2.5,99,323,284
India,Uttar_Pradesh,Meerut,"Ganga Nagar, Meerut - UPPCB",11-05-2024 09:00:00,28.999264,77.7590354,PM10,36,201,123
India,Uttar_Pradesh,Meerut,"Ganga Nagar, Meerut - UPPCB",11-05-2024 09:00:00,28.999264,77.7590354,OZONE,38,141,60
India,Uttar_Pradesh,Meerut,"Pallavpuram Phase 2, Meerut - UPPCB",11-05-2024 09:00:00,29.063510,77.709723,NO2,17,60,30
India,Uttar_Pradesh,Moradabad,"Eco Herbal Park, Moradabad - UPPCB",11-05-2024 09:00:00,28.840739,78.697531,SO2,1,54,11
India,Uttar_Pradesh,Moradabad,"Employment Office, Moradabad - UPPCB",11-05-2024 09:00:00,28.88528,78.73880,NH3,4,4,4
India,Uttar_Pradesh,Moradabad,"Employment Office, Moradabad - UPPCB",11-05-2024 09:00:00,28.88528,78.73880,SO2,25,27,26
India,Uttar_Pradesh,Moradabad,"Jigar Colony, Moradabad - UPPCB",11-05-2024 09:00:00,28.856664,78.772638,OZONE,21,80,54
India,Uttar_Pradesh,Moradabad,"Kashiram Nagar, Moradabad - UPPCB",11-05-2024 09:00:00,28.849399,78.742362,NO2,3,4,4
India,Uttar_Pradesh,Moradabad,"Kashiram Nagar, Moradabad - UPPCB",11-05-2024 09:00:00,28.849399,78.742362,NH3,4,4,4
India,Uttar_Pradesh,Noida,"Sector - 125, Noida - UPPCB",11-05-2024 09:00:00,28.5447608,77.3231257,PM10,NA,NA,NA
India,Uttar_Pradesh,Noida,"Sector - 125, Noida - UPPCB",11-05-2024 09:00:00,28.5447608,77.3231257,NO2,NA,NA,NA
India,Uttar_Pradesh,Noida,"Sector - 125, Noida - UPPCB",11-05-2024 09:00:00,28.5447608,77.3231257,OZONE,NA,NA,NA
India,Uttar_Pradesh,Noida,"Sector-1, Noida - UPPCB",11-05-2024 09:00:00,28.5898,77.3101,NH3,6,22,12
India,Uttar_Pradesh,Noida,"Sector-116, Noida - UPPCB",11-05-2024 09:00:00,28.569230,77.393848,PM2.5,20,292,106
India,Uttar_Pradesh,Noida,"Sector-116, Noida - UPPCB",11-05-2024 09:00:00,28.569230,77.393848,PM10,35,282,161
India,Uttar_Pradesh,Noida,"Sector-116, Noida - UPPCB",11-05-2024 09:00:00,28.569230,77.393848,NO2,19,83,33
India,Uttar_Pradesh,Prayagraj,"Jhunsi, Prayagraj - UPPCB",11-05-2024 09:00:00,25.425602,81.917152,SO2,30,32,31
India,Uttar_Pradesh,Prayagraj,"Motilal Nehru NIT, Prayagraj - UPPCB",11-05-2024 09:00:00,25.494,81.863,PM2.5,23,54,36
India,Uttar_Pradesh,Prayagraj,"Nagar Nigam, Prayagraj - UPPCB",11-05-2024 09:00:00,25.44919916 ,81.82735986 ,NO2,5,5,5
India,Uttar_Pradesh,Prayagraj,"Nagar Nigam, Prayagraj - UPPCB",11-05-2024 09:00:00,25.44919916 ,81.82735986 ,NH3,3,9,5
India,Uttar_Pradesh,Varanasi,"Ardhali Bazar, Varanasi - UPPCB",11-05-2024 09:00:00,25.3505986,82.9083074,SO2,13,17,15
India,Uttar_Pradesh,Varanasi,"Bhelupur, Varanasi - UPPCB",11-05-2024 09:00:00,25.301778,82.996789,NO2,7,8,8
India,Uttar_Pradesh,Varanasi,"Bhelupur, Varanasi - UPPCB",11-05-2024 09:00:00,25.301778,82.996789,CO,18,36,24
India,Uttar_Pradesh,Varanasi,"IESD Banaras Hindu University, Varanasi - UPPCB",11-05-2024 09:00:00,25.262326,82.995408,PM2.5,5,15,9
India,Uttar_Pradesh,Varanasi,"IESD Banaras Hindu University, Varanasi - UPPCB",11-05-2024 09:00:00,25.262326,82.995408,PM10,12,34,21
India,Uttar_Pradesh,Varanasi,"Maldahiya, Varanasi - UPPCB",11-05-2024 09:00:00,25.32393,82.99687,NH3,1,1,1
India,Uttar_Pradesh,Vrindavan,"Omex Eternity, Vrindavan - UPPCB",11-05-2024 09:00:00,27.5714090,77.6557570,NH3,1,1,1
India,Uttarakhand,Kashipur,"Govt. Girls Inter College, Kashipur - UKPCB",11-05-2024 09:00:00,29.2124114,78.9611753,PM2.5,48,125,86
India,Uttarakhand,Kashipur,"Govt. Girls Inter College, Kashipur - UKPCB",11-05-2024 09:00:00,29.2124114,78.9611753,NH3,4,9,7
India,Uttarakhand,Kashipur,"Govt. Girls Inter College, Kashipur - UKPCB",11-05-2024 09:00:00,29.2124114,78.9611753,OZONE,30,128,39
India,West_Bengal,Asansol,"Asansol Court Area, Asansol - WBPCB",11-05-2024 09:00:00,23.685297,86.945968,NO2,34,44,38
India,West_Bengal,Asansol,"Asansol Court Area, Asansol - WBPCB",11-05-2024 09:00:00,23.685297,86.945968,NH3,10,13,11
India,West_Bengal,Durgapur,"PCBL Residential Complex, Durgapur - WBPCB",11-05-2024 09:00:00,23.5087640,87.3544400,PM2.5,51,301,137
India,West_Bengal,Durgapur,"PCBL Residential Complex, Durgapur - WBPCB",11-05-2024 09:00:00,23.5087640,87.3544400,CO,40,105,64
India,West_Bengal,Haldia,"Priyambada Housing Estate, Haldia - WBPCB",11-05-2024 09:00:00,22.06047,88.109737,PM2.5,10,43,20
India,West_Bengal,Haldia,"Priyambada Housing Estate, Haldia - WBPCB",11-05-2024 09:00:00,22.06047,88.109737,NO2,10,26,16
India,West_Bengal,Haldia,"Priyambada Housing Estate, Haldia - WBPCB",11-05-2024 09:00:00,22.06047,88.109737,NH3,4,6,5
India,West_Bengal,Haldia,"Priyambada Housing Estate, Haldia - WBPCB",11-05-2024 09:00:00,22.06047,88.109737,SO2,11,18,14
India,West_Bengal,Haldia,"Priyambada Housing Estate, Haldia - WBPCB",11-05-2024 09:00:00,22.06047,88.109737,OZONE,23,56,25
India,West_Bengal,Howrah,"Belur Math, Howrah - WBPCB",11-05-2024 09:00:00,22.629801,88.352017,NH3,1,2,1
India,West_Bengal,Howrah,"Belur Math, Howrah - WBPCB",11-05-2024 09:00:00,22.629801,88.352017,CO,2,24,5
India,West_Bengal,Howrah,"Ghusuri, Howrah - WBPCB",11-05-2024 09:00:00,22.611968,88.347422,PM2.5,23,55,42
India,West_Bengal,Howrah,"Ghusuri, Howrah - WBPCB",11-05-2024 09:00:00,22.611968,88.347422,NO2,14,21,18
India,West_Bengal,Howrah,"Ghusuri, Howrah - WBPCB",11-05-2024 09:00:00,22.611968,88.347422,OZONE,12,20,15
India,West_Bengal,Howrah,"Padmapukur, Howrah - WBPCB",11-05-2024 09:00:00,22.5687319,88.2797276,PM10,53,83,64
India,West_Bengal,Howrah,"Padmapukur, Howrah - WBPCB",11-05-2024 09:00:00,22.5687319,88.2797276,OZONE,6,38,8
India,West_Bengal,Kolkata,"Bidhannagar, Kolkata - WBPCB",11-05-2024 09:00:00,22.58157048,88.41002457,NO2,17,50,24
India,West_Bengal,Kolkata,"Bidhannagar, Kolkata - WBPCB",11-05-2024 09:00:00,22.58157048,88.41002457,SO2,7,14,10
India,West_Bengal,Kolkata,"Bidhannagar, Kolkata - WBPCB",11-05-2024 09:00:00,22.58157048,88.41002457,CO,24,35,25
India,West_Bengal,Kolkata,"Fort William, Kolkata - WBPCB",11-05-2024 09:00:00,22.556640,88.342674,PM2.5,24,56,41
India,West_Bengal,Kolkata,"Fort William, Kolkata - WBPCB",11-05-2024 09:00:00,22.556640,88.342674,NH3,1,2,2
India,West_Bengal,Kolkata,"Jadavpur, Kolkata - WBPCB",11-05-2024 09:00:00,22.49929,88.36917,PM2.5,16,33,25
India,West_Bengal,Kolkata,"Jadavpur, Kolkata - WBPCB",11-05-2024 09:00:00,22.49929,88.36917,PM10,26,39,32
India,West_Bengal,Kolkata,"Rabindra Bharati University, Kolkata - WBPCB",11-05-2024 09:00:00,22.627847,88.380669,NH3,10,10,10
India,West_Bengal,Kolkata,"Rabindra Bharati University, Kolkata - WBPCB",11-05-2024 09:00:00,22.627847,88.380669,CO,21,44,25
India,West_Bengal,Kolkata,"Rabindra Sarobar, Kolkata - WBPCB",11-05-2024 09:00:00,22.51106,88.35142,NH3,5,8,7
India,West_Bengal,Kolkata,"Victoria, Kolkata - WBPCB",11-05-2024 09:00:00,22.5448082,88.3403691,PM2.5,24,51,36
India,West_Bengal,Kolkata,"Victoria, Kolkata - WBPCB",11-05-2024 09:00:00,22.5448082,88.3403691,PM10,29,58,45
India,West_Bengal,Kolkata,"Victoria, Kolkata - WBPCB",11-05-2024 09:00:00,22.5448082,88.3403691,CO,4,33,7
India,West_Bengal,Kolkata,"Victoria, Kolkata - WBPCB",11-05-2024 09:00:00,22.5448082,88.3403691,OZONE,8,46,17
India,West_Bengal,Siliguri,"Ward-32 Bapupara, Siliguri - WBPCB",11-05-2024 09:00:00,26.6879226,88.4152495,NH3,8,12,9
India,Andhra_Pradesh,Anantapur,"Gulzarpet, Anantapur - APPCB",11-05-2024 09:00:00,14.675886,77.593027,NO2,12,13,12
India,Andhra_Pradesh,Chittoor,"Gangineni Cheruvu, Chittoor - APPCB",11-05-2024 09:00:00,13.204880,79.097889,PM10,NA,NA,NA
India,Andhra_Pradesh,Kadapa,"Yerramukkapalli, Kadapa - APPCB",11-05-2024 09:00:00,14.465052,78.824187,PM10,NA,NA,NA
India,Andhra_Pradesh,Rajamahendravaram,"Anand Kala Kshetram, Rajamahendravaram - APPCB",11-05-2024 09:00:00,16.9872867,81.7363176,PM2.5,2,66,16
India,Andhra_Pradesh,Rajamahendravaram,"Anand Kala Kshetram, Rajamahendravaram - APPCB",11-05-2024 09:00:00,16.9872867,81.7363176,SO2,12,12,12
India,Andhra_Pradesh,Rajamahendravaram,"Anand Kala Kshetram, Rajamahendravaram - APPCB",11-05-2024 09:00:00,16.9872867,81.7363176,OZONE,24,57,29
India,Andhra_Pradesh,Tirupati,"Tirumala, Tirupati - APPCB",11-05-2024 09:00:00,13.67,79.35,OZONE,11,46,16
India,Andhra_Pradesh,Tirupati,"Vaikuntapuram, Tirupati - APPCB",11-05-2024 09:00:00,13.615387,79.409230,CO,9,18,10
India,Andhra_Pradesh,Vijayawada,"HB Colony, Vijayawada - APPCB",11-05-2024 09:00:00,16.536107,80.594233,PM2.5,36,64,50
India,Andhra_Pradesh,Vijayawada,"HB Colony, Vijayawada - APPCB",11-05-2024 09:00:00,16.536107,80.594233,NO2,8,23,13
India,Andhra_Pradesh,Vijayawada,"Kanuru, Vijayawada - APPCB",11-05-2024 09:00:00,16.486692,80.699436,PM10,50,73,62
India,Andhra_Pradesh,Vijayawada,"Kanuru, Vijayawada - APPCB",11-05-2024 09:00:00,16.486692,80.699436,NH3,1,1,1
India,Andhra_Pradesh,Vijayawada,"Kanuru, Vijayawada - APPCB",11-05-2024 09:00:00,16.486692,80.699436,CO,39,39,39
India,Andhra_Pradesh,Vijayawada,"Rajiv Gandhi Park, Vijayawada - APPCB",11-05-2024 09:00:00,16.509717,80.612222,NO2,41,74,58
India,Andhra_Pradesh,Vijayawada,"Rajiv Gandhi Park, Vijayawada - APPCB",11-05-2024 09:00:00,16.509717,80.612222,SO2,5,12,8
India,Andhra_Pradesh,Vijayawada,"Rajiv Nagar, Vijayawada - APPCB",11-05-2024 09:00:00,16.554731,80.649110,CO,36,36,36
India,Andhra_Pradesh,Visakhapatnam,"GVM Corporation, Visakhapatnam - APPCB",11-05-2024 09:00:00,17.72,83.3,PM2.5,23,78,40
India,Andhra_Pradesh,Visakhapatnam,"GVM Corporation, Visakhapatnam - APPCB",11-05-2024 09:00:00,17.72,83.3,CO,6,54,29
India,Assam,Byrnihat,"Central Academy for SFS, Byrnihat - PCBA",11-05-2024 09:00:00,26.071318,91.87488,PM2.5,27,491,257
India,Assam,Byrnihat,"Central Academy for SFS, Byrnihat - PCBA",11-05-2024 09:00:00,26.071318,91.87488,PM10,28,495,216
India,Assam,Guwahati,"IITG, Guwahati - PCBA",11-05-2024 09:00:00,26.2028636,91.70046436,NH3,5,5,5
India,Assam,Guwahati,"IITG, Guwahati - PCBA",11-05-2024 09:00:00,26.2028636,91.70046436,CO,8,12,10
India,Assam,Guwahati,"IITG, Guwahati - PCBA",11-05-2024 09:00:00,26.2028636,91.70046436,OZONE,7,31,10
India,Assam,Guwahati,"LGBI Airport, Guwahati - PCBA",11-05-2024 09:00:00,26.10887,91.589544,NO2,13,53,27
India,Assam,Guwahati,"LGBI Airport, Guwahati - PCBA",11-05-2024 09:00:00,26.10887,91.589544,SO2,11,14,12
India,Assam,Nagaon,"Christianpatty, Nagaon - PCBA",11-05-2024 09:00:00,26.349082,92.68449,SO2,NA,NA,NA
India,Assam,Nalbari,"Bata Chowk, Nalbari - PCBA",11-05-2024 09:00:00,26.446912,91.439057,NO2,7,23,12
India,Assam,Sivasagar,"Girls College, Sivasagar - PCBA",11-05-2024 09:00:00,26.987634,94.636574,PM10,37,86,60
India,Assam,Sivasagar,"Girls College, Sivasagar - PCBA",11-05-2024 09:00:00,26.987634,94.636574,OZONE,1,8,1
India,Bihar,Araria,"Kharahiya Basti, Araria - BSPCB",11-05-2024 09:00:00,26.146529,87.454184,PM10,27,99,51
India,Bihar,Araria,"Kharahiya Basti, Araria - BSPCB",11-05-2024 09:00:00,26.146529,87.454184,CO,9,31,27
India,Bihar,Araria,"Kharahiya Basti, Araria - BSPCB",11-05-2024 09:00:00,26.146529,87.454184,OZONE,1,11,9
India,Bihar,Aurangabad,"Gurdeo Nagar, Aurangabad - BSPCB",11-05-2024 09:00:00,24.75746,84.366208,PM10,35,101,60
India,Bihar,Aurangabad,"Gurdeo Nagar, Aurangabad - BSPCB",11-05-2024 09:00:00,24.75746,84.366208,NO2,5,6,5
India,Bihar,Aurangabad,"Gurdeo Nagar, Aurangabad - BSPCB",11-05-2024 09:00:00,24.75746,84.366208,OZONE,36,165,52
India,Bihar,Bettiah,"Kamalnath Nagar, Bettiah - BSPCB",11-05-2024 09:00:00,26.80365,84.51954,NH3,3,7,6
India,Bihar,Bettiah,"Kamalnath Nagar, Bettiah - BSPCB",11-05-2024 09:00:00,26.80365,84.51954,CO,61,88,72
India,Bihar,Bhagalpur,"DM Office_Kachari Chowk, Bhagalpur - BSPCB",11-05-2024 09:00:00,25.251013,86.989001,NH3,5,9,7
India,Bihar,Bhagalpur,"DM Office_Kachari Chowk, Bhagalpur - BSPCB",11-05-2024 09:00:00,25.251013,86.989001,OZONE,45,60,47
India,Bihar,Bhagalpur,"Mayaganj, Bhagalpur - BSPCB",11-05-2024 09:00:00,25.265194,87.012947,PM10,56,143,113
India,Bihar,Bhagalpur,"Mayaganj, Bhagalpur - BSPCB",11-05-2024 09:00:00,25.265194,87.012947,OZONE,8,29,10
India,Bihar,Buxar,"Charitra Van, Buxar - BSPCB (Formerly known as Central Jail)",11-05-2024 09:00:00,25.567520,83.966379,PM10,91,179,122
India,Bihar,Buxar,"Charitra Van, Buxar - BSPCB (Formerly known as Central Jail)",11-05-2024 09:00:00,25.567520,83.966379,NH3,3,3,3
India,Bihar,Chhapra,"Darshan Nagar, Chhapra - BSPCB",11-05-2024 09:00:00,25.7808257,84.7446768,NH3,7,17,12
India,Bihar,Gaya,"Collectorate, Gaya - BSPCB",11-05-2024 09:00:00,24.7955,84.9994,PM2.5,45,196,106
India,Bihar,Gaya,"Collectorate, Gaya - BSPCB",11-05-2024 09:00:00,24.7955,84.9994,NO2,1,4,3
India,Bihar,Gaya,"Collectorate, Gaya - BSPCB",11-05-2024 09:00:00,24.7955,84.9994,OZONE,41,82,63
India,Bihar,Gaya,"SFTI Kusdihra, Gaya - BSPCB",11-05-2024 09:00:00,24.762518,84.982348,NH3,1,10,4
India,Bihar,Gaya,"SFTI Kusdihra, Gaya - BSPCB",11-05-2024 09:00:00,24.762518,84.982348,OZONE,7,104,37
India,Bihar,Katihar,"Mirchaibari, Katihar - BSPCB",11-05-2024 09:00:00,25.560083,87.553265,PM10,30,110,62
India,Bihar,Katihar,"Mirchaibari, Katihar - BSPCB",11-05-2024 09:00:00,25.560083,87.553265,CO,18,92,90
India,Bihar,Kishanganj,"SDM Office_Khagra, Kishanganj - BSPCB",11-05-2024 09:00:00,26.0881305,87.93840336,OZONE,28,65,29
India,Bihar,Manguraha,"Forest Rest House, Manguraha - BSPCB",11-05-2024 09:00:00,27.308328,84.531742,OZONE,3,65,7
India,Bihar,Motihari,"Gandak Colony, Motihari - BSPCB",11-05-2024 09:00:00,26.63086,84.90051,NH3,NA,NA,NA
India,Bihar,Motihari,"Gandak Colony, Motihari - BSPCB",11-05-2024 09:00:00,26.63086,84.90051,CO,NA,NA,NA
India,Bihar,Muzaffarpur,"MIT-Daudpur Kothi, Muzaffarpur - BSPCB",11-05-2024 09:00:00,26.1403345,85.3650192,NH3,1,1,1
India,Bihar,Muzaffarpur,"MIT-Daudpur Kothi, Muzaffarpur - BSPCB",11-05-2024 09:00:00,26.1403345,85.3650192,CO,14,110,55
India,Bihar,Muzaffarpur,"MIT-Daudpur Kothi, Muzaffarpur - BSPCB",11-05-2024 09:00:00,26.1403345,85.3650192,OZONE,11,32,14
India,Bihar,Patna,"Govt. High School Shikarpur, Patna - BSPCB",11-05-2024 09:00:00,25.592539,85.227158,PM10,75,102,88
India,Bihar,Patna,"Govt. High School Shikarpur, Patna - BSPCB",11-05-2024 09:00:00,25.592539,85.227158,OZONE,1,59,3
India,Bihar,Patna,"IGSC Planetarium Complex, Patna - BSPCB",11-05-2024 09:00:00,25.610369,85.132568,PM2.5,NA,NA,NA
India,Bihar,Patna,"IGSC Planetarium Complex, Patna - BSPCB",11-05-2024 09:00:00,25.610369,85.132568,NO2,NA,NA,NA
India,Bihar,Patna,"Muradpur, Patna - BSPCB",11-05-2024 09:00:00,25.619651,85.147382,OZONE,29,32,31
India,Bihar,Patna,"Rajbansi Nagar, Patna - BSPCB",11-05-2024 09:00:00,25.599486,85.113666,PM2.5,25,147,90
India,Bihar,Patna,"Rajbansi Nagar, Patna - BSPCB",11-05-2024 09:00:00,25.599486,85.113666,NO2,10,30,17
India,Bihar,Purnia,"Mariam Nagar, Purnia - BSPCB",11-05-2024 09:00:00,25.366336,87.117468,PM10,38,131,77
India,Bihar,Purnia,"Mariam Nagar, Purnia - BSPCB",11-05-2024 09:00:00,25.366336,87.117468,NO2,5,7,6
India,Bihar,Purnia,"Mariam Nagar, Purnia - BSPCB",11-05-2024 09:00:00,25.366336,87.117468,CO,20,106,55
India,Bihar,Rajgir,"Dangi Tola, Rajgir - BSPCB",11-05-2024 09:00:00,25.03280,85.41948,PM10,14,71,48
India,Bihar,Saharsa,"Police Line, Saharsa - BSPCB",11-05-2024 09:00:00,25.892357,86.590325,PM2.5,22,290,89
India,Bihar,Samastipur,"DM Office_Kasipur, Samastipur - BSPCB",11-05-2024 09:00:00,25.859655,85.77944,PM2.5,40,313,127
India,Bihar,Samastipur,"DM Office_Kasipur, Samastipur - BSPCB",11-05-2024 09:00:00,25.859655,85.77944,NH3,3,4,4
India,Bihar,Sasaram,"Dada Peer, Sasaram - BSPCB",11-05-2024 09:00:00,24.952822,84.002396,PM2.5,5,38,18
India,Bihar,Sasaram,"Dada Peer, Sasaram - BSPCB",11-05-2024 09:00:00,24.952822,84.002396,OZONE,12,100,36
India,Bihar,Siwan,"Chitragupta Nagar, Siwan - BSPCB",11-05-2024 09:00:00,26.2271665,84.3570427,PM2.5,NA,NA,NA
India,Bihar,Siwan,"Chitragupta Nagar, Siwan - BSPCB",11-05-2024 09:00:00,26.2271665,84.3570427,OZONE,18,110,43
India,Chandigarh,Chandigarh,"Sector 22, Chandigarh - CPCC",11-05-2024 09:00:00,30.735567,76.775714,NO2,11,57,29
India,Chandigarh,Chandigarh,"Sector-25, Chandigarh - CPCC",11-05-2024 09:00:00,30.751462,76.762879,NO2,6,19,11
India,Chandigarh,Chandigarh,"Sector-25, Chandigarh - CPCC",11-05-2024 09:00:00,30.751462,76.762879,OZONE,14,62,21
India,Chandigarh,Chandigarh,"Sector-53, Chandigarh - CPCC",11-05-2024 09:00:00,30.719859,76.738637,PM2.5,65,233,127
India,Chandigarh,Chandigarh,"Sector-53, Chandigarh - CPCC",11-05-2024 09:00:00,30.719859,76.738637,NO2,12,47,22
India,Chandigarh,Chandigarh,"Sector-53, Chandigarh - CPCC",11-05-2024 09:00:00,30.719859,76.738637,CO,36,57,44
India,Chandigarh,Chandigarh,"Sector-53, Chandigarh - CPCC",11-05-2024 09:00:00,30.719859,76.738637,OZONE,32,77,37
India,Chhattisgarh,Bhilai,"32Bungalows, Bhilai - CECB",11-05-2024 09:00:00,21.194815,81.314770,NH3,6,7,6
India,Chhattisgarh,Bhilai,"32Bungalows, Bhilai - CECB",11-05-2024 09:00:00,21.194815,81.314770,SO2,2,10,4
India,Chhattisgarh,Bhilai,"Civic Center, Bhilai - Bhilai Steel Plant",11-05-2024 09:00:00,21.185571,81.343175,NO2,11,19,14
India,Chhattisgarh,Bhilai,"Hathkhoj, Bhilai - CECB",11-05-2024 09:00:00,21.224231,81.408350,PM10,38,132,73
India,Chhattisgarh,Chhal,"Nawapara SECL Colony, Chhal - CECB",11-05-2024 09:00:00,22.118125,83.140608,PM2.5,28,75,50
India,Chhattisgarh,Korba,"Rampur, Korba - CECB",11-05-2024 09:00:00,22.368195,82.746431,PM2.5,19,37,26
India,Chhattisgarh,Korba,"Rampur, Korba - CECB",11-05-2024 09:00:00,22.368195,82.746431,OZONE,8,38,9
India,Chhattisgarh,Korba,"Urja Nagar, Korba - CECB",11-05-2024 09:00:00,22.348441,82.549611,SO2,2,5,4
India,Chhattisgarh,Korba,"Urja Nagar, Korba - CECB",11-05-2024 09:00:00,22.348441,82.549611,CO,24,130,86
India,Chhattisgarh,Kunjemura,"OP Jindal School, Kunjemura - CECB",11-05-2024 09:00:00,22.126650,83.483212,PM10,34,167,86
India,Chhattisgarh,Kunjemura,"OP Jindal School, Kunjemura - CECB",11-05-2024 09:00:00,22.126650,83.483212,NH3,1,11,2
India,Chhattisgarh,Raipur,"AIIMS, Raipur - CECB",11-05-2024 09:00:00,21.258815,81.578979,PM2.5,NA,NA,NA
India,Chhattisgarh,Raipur,"AIIMS, Raipur - CECB",11-05-2024 09:00:00,21.258815,81.578979,CO,NA,NA,NA
India,Chhattisgarh,Raipur,"Bhatagaon New ISBT, Raipur - CECB",11-05-2024 09:00:00,21.219665,81.630094,PM2.5,14,69,29
India,Chhattisgarh,Raipur,"Siltara Phase-II, Raipur - CECB",11-05-2024 09:00:00,21.371751,81.664929,OZONE,3,36,3
India,Chhattisgarh,Tumidih,"OP Jindal Industrial Park, Tumidih - CECB",11-05-2024 09:00:00,22.06631475,83.33820077,PM10,34,156,93
India,Chhattisgarh,Tumidih,"OP Jindal Industrial Park, Tumidih - CECB",11-05-2024 09:00:00,22.06631475,83.33820077,NH3,1,2,1
India,Chhattisgarh,Tumidih,"OP Jindal Industrial Park, Tumidih - CECB",11-05-2024 09:00:00,22.06631475,83.33820077,CO,17,70,45
India,Delhi,Delhi,"Alipur, Delhi - DPCC",11-05-2024 09:00:00,28.815329,77.153010,NH3,NA,NA,NA
India,Delhi,Delhi,"Ashok Vihar, Delhi - DPCC",11-05-2024 09:00:00,28.695381,77.181665,PM2.5,14,224,108
India,Delhi,Delhi,"Ashok Vihar, Delhi - DPCC",11-05-2024 09:00:00,28.695381,77.181665,SO2,15,30,24
India,Delhi,Delhi,"Aya Nagar, Delhi - IMD",11-05-2024 09:00:00,28.4706914,77.1099364,PM2.5,NA,NA,NA
India,Delhi,Delhi,"Aya Nagar, Delhi - IMD",11-05-2024 09:00:00,28.4706914,77.1099364,PM10,NA,NA,NA
India,Delhi,Delhi,"Bawana, Delhi - DPCC",11-05-2024 09:00:00,28.776200,77.051074,PM10,24,500,230
India,Delhi,Delhi,"Bawana, Delhi - DPCC",11-05-2024 09:00:00,28.776200,77.051074,NO2,13,48,26
India,Delhi,Delhi,"Bawana, Delhi - DPCC",11-05-2024 09:00:00,28.776200,77.051074,SO2,6,22,13
India,Delhi,Delhi,"Bawana, Delhi - DPCC",11-05-2024 09:00:00,28.776200,77.051074,CO,5,45,28
India,Delhi,Delhi,"Burari Crossing, Delhi - IMD",11-05-2024 09:00:00,28.7256504,77.2011573,PM2.5,NA,NA,NA
India,Delhi,Delhi,"CRRI Mathura Road, Delhi - IMD",11-05-2024 09:00:00,28.5512005,77.2735737,OZONE,4,76,33
India,Delhi,Delhi,"Chandni Chowk, Delhi - IITM",11-05-2024 09:00:00,28.656756,77.227234,PM2.5,122,331,267
India,Delhi,Delhi,"Chandni Chowk, Delhi - IITM",11-05-2024 09:00:00,28.656756,77.227234,NO2,25,187,100
India,Delhi,Delhi,"Dr. Karni Singh Shooting Range, Delhi - DPCC",11-05-2024 09:00:00,28.498571,77.264840,PM2.5,22,303,113
India,Delhi,Delhi,"Dr. Karni Singh Shooting Range, Delhi - DPCC",11-05-2024 09:00:00,28.498571,77.264840,PM10,44,380,171
India,Delhi,Delhi,"Dr. Karni Singh Shooting Range, Delhi - DPCC",11-05-2024 09:00:00,28.498571,77.264840,SO2,23,32,28
India,Delhi,Delhi,"Dwarka-Sector 8, Delhi - DPCC ",11-05-2024 09:00:00,28.5710274,77.0719006,PM10,78,500,262
India,Delhi,Delhi,"Dwarka-Sector 8, Delhi - DPCC ",11-05-2024 09:00:00,28.5710274,77.0719006,CO,40,82,46
India,Delhi,Delhi,"Dwarka-Sector 8, Delhi - DPCC ",11-05-2024 09:00:00,28.5710274,77.0719006,OZONE,17,92,40
India,Delhi,Delhi,"IHBAS, Dilshad Garden, Delhi - CPCB",11-05-2024 09:00:00,28.6811736,77.3025234,CO,NA,NA,NA
India,Delhi,Delhi,"IHBAS, Dilshad Garden, Delhi - CPCB",11-05-2024 09:00:00,28.6811736,77.3025234,OZONE,NA,NA,NA
India,Delhi,Delhi,"ITO, Delhi - CPCB",11-05-2024 09:00:00,28.628624,77.241060,NH3,1,10,3
India,Delhi,Delhi,"ITO, Delhi - CPCB",11-05-2024 09:00:00,28.628624,77.241060,SO2,6,26,15
India,Delhi,Delhi,"Jahangirpuri, Delhi - DPCC",11-05-2024 09:00:00,28.732820,77.170633,PM10,44,453,207
India,Delhi,Delhi,"Jahangirpuri, Delhi - DPCC",11-05-2024 09:00:00,28.732820,77.170633,NH3,5,19,9
India,Delhi,Delhi,"Jahangirpuri, Delhi - DPCC",11-05-2024 09:00:00,28.732820,77.170633,OZONE,29,134,43
India,Delhi,Delhi,"Lodhi Road, Delhi - IMD",11-05-2024 09:00:00,28.5918245,77.2273074,PM10,NA,NA,NA
India,Delhi,Delhi,"Major Dhyan Chand National Stadium, Delhi - DPCC",11-05-2024 09:00:00,28.611281,77.237738,PM10,19,406,168
India,Delhi,Delhi,"Mundka, Delhi - DPCC",11-05-2024 09:00:00,28.684678,77.076574,CO,32,70,40
India,Delhi,Delhi,"NSIT Dwarka, Delhi - CPCB",11-05-2024 09:00:00,28.60909,77.0325413,NH3,NA,NA,NA
India,Delhi,Delhi,"NSIT Dwarka, Delhi - CPCB",11-05-2024 09:00:00,28.60909,77.0325413,SO2,NA,NA,NA
India,Delhi,Delhi,"NSIT Dwarka, Delhi - CPCB",11-05-2024 09:00:00,28.60909,77.0325413,OZONE,NA,NA,NA
India,Delhi,Delhi,"Narela, Delhi - DPCC",11-05-2024 09:00:00,28.822836,77.101981,NH3,6,11,8
India,Delhi,Delhi,"Nehru Nagar, Delhi - DPCC",11-05-2024 09:00:00,28.567890,77.250515,NO2,7,28,14
India,Delhi,Delhi,"Nehru Nagar, Delhi - DPCC",11-05-2024 09:00:00,28.567890,77.250515,SO2,3,7,6
India,Delhi,Delhi,"New Moti Bagh, Delhi - MHUA",11-05-2024 09:00:00,28.57834,77.18400,PM2.5,13,335,150
India,Delhi,Delhi,"New Moti Bagh, Delhi - MHUA",11-05-2024 09:00:00,28.57834,77.18400,NO2,5,24,11
India,Delhi,Delhi,"Patparganj, Delhi - DPCC",11-05-2024 09:00:00,28.623763,77.287209,PM10,55,500,230
India,Delhi,Delhi,"Punjabi Bagh, Delhi - DPCC",11-05-2024 09:00:00,28.674045,77.131023,NO2,29,51,42
India,Delhi,Delhi,"Punjabi Bagh, Delhi - DPCC",11-05-2024 09:00:00,28.674045,77.131023,NH3,3,4,4
India,Delhi,Delhi,"Punjabi Bagh, Delhi - DPCC",11-05-2024 09:00:00,28.674045,77.131023,SO2,1,24,10
India,Delhi,Delhi,"Pusa, Delhi - DPCC",11-05-2024 09:00:00,28.639652,77.146275,PM2.5,13,270,91
India,Delhi,Delhi,"R K Puram, Delhi - DPCC",11-05-2024 09:00:00,28.563262,77.186937,NO2,NA,NA,NA
India,Delhi,Delhi,"R K Puram, Delhi - DPCC",11-05-2024 09:00:00,28.563262,77.186937,SO2,NA,NA,NA
India,Delhi,Delhi,"R K Puram, Delhi - DPCC",11-05-2024 09:00:00,28.563262,77.186937,OZONE,NA,NA,NA
India,Delhi,Delhi,"Shadipur, Delhi - CPCB",11-05-2024 09:00:00,28.6514781,77.1473105,NO2,78,146,106
India,Delhi,Delhi,"Shadipur, Delhi - CPCB",11-05-2024 09:00:00,28.6514781,77.1473105,NH3,8,10,9
India,Delhi,Delhi,"Shadipur, Delhi - CPCB",11-05-2024 09:00:00,28.6514781,77.1473105,CO,18,89,46
India,Delhi,Delhi,"Sirifort, Delhi - CPCB",11-05-2024 09:00:00,28.5504249,77.2159377,PM10,34,500,202
India,Delhi,Delhi,"Sonia Vihar, Delhi - DPCC",11-05-2024 09:00:00,28.710508,77.249485,PM2.5,15,192,100
India,Delhi,Delhi,"Vivek Vihar, Delhi - DPCC",11-05-2024 09:00:00,28.672342,77.315260,NH3,NA,NA,NA
India,Delhi,Delhi,"Wazirpur, Delhi - DPCC",11-05-2024 09:00:00,28.699793,77.165453,CO,58,107,68
India,Gujarat,Ahmedabad,"Chandkheda, Ahmedabad - IITM",11-05-2024 09:00:00,23.107969,72.574648,NO2,23,24,23
India,Gujarat,Ahmedabad,"Gyaspur, Ahmedabad - IITM",11-05-2024 09:00:00,22.977134,72.553024,PM10,59,164,102
India,Gujarat,Ahmedabad,"Gyaspur, Ahmedabad - IITM",11-05-2024 09:00:00,22.977134,72.553024,NO2,39,52,46
India,Gujarat,Ahmedabad,"Gyaspur, Ahmedabad - IITM",11-05-2024 09:00:00,22.977134,72.553024,SO2,39,64,48
India,Gujarat,Ahmedabad,"Gyaspur, Ahmedabad - IITM",11-05-2024 09:00:00,22.977134,72.553024,OZONE,16,164,44
India,Gujarat,Ahmedabad,"Maninagar, Ahmedabad - GPCB",11-05-2024 09:00:00,23.002657,72.591912,PM10,36,107,84
India,Gujarat,Ahmedabad,"Maninagar, Ahmedabad - GPCB",11-05-2024 09:00:00,23.002657,72.591912,SO2,3,89,33
India,Gujarat,Ahmedabad,"Raikhad, Ahmedabad - IITM",11-05-2024 09:00:00,23.020509,72.579261,CO,14,44,24
India,Gujarat,Ahmedabad,"Rakhial, Ahmedabad - IITM",11-05-2024 09:00:00,23.016834,72.625775,PM10,18,439,131
India,Gujarat,Ahmedabad,"Rakhial, Ahmedabad - IITM",11-05-2024 09:00:00,23.016834,72.625775,CO,82,120,97
India,Gujarat,Ahmedabad,"SVPI Airport Hansol, Ahmedabad - IITM",11-05-2024 09:00:00,23.076793,72.627874,NH3,5,8,6
India,Gujarat,Ahmedabad,"Sardar Vallabhbhai Patel Stadium, Ahmedabad - IITM",11-05-2024 09:00:00,23.043070,72.562968,PM2.5,44,114,73
India,Gujarat,Ahmedabad,"Sardar Vallabhbhai Patel Stadium, Ahmedabad - IITM",11-05-2024 09:00:00,23.043070,72.562968,NO2,56,68,67
India,Gujarat,Ahmedabad,"Sardar Vallabhbhai Patel Stadium, Ahmedabad - IITM",11-05-2024 09:00:00,23.043070,72.562968,SO2,11,23,16
India,Gujarat,Gandhinagar,"Sector-10, Gandhinagar - GPCB",11-05-2024 09:00:00,23.221714,72.654328,CO,34,48,38
India,Gujarat,Gandhinagar,"Sector-10, Gandhinagar - GPCB",11-05-2024 09:00:00,23.221714,72.654328,OZONE,8,45,21
India,Gujarat,Nandesari,"GIDC, Nandesari - Nandesari Ind. Association",11-05-2024 09:00:00,22.410802,73.097923,PM10,78,162,119
India,Gujarat,Surat,"Science Center, Surat - SMC",11-05-2024 09:00:00,21.170046,72.795405,PM2.5,NA,NA,NA
India,Gujarat,Surat,"Science Center, Surat - SMC",11-05-2024 09:00:00,21.170046,72.795405,SO2,NA,NA,NA
India,Gujarat,Vapi,"Phase-1 GIDC, Vapi - GPCB",11-05-2024 09:00:00,20.362421,72.918013,PM2.5,NA,NA,NA
India,Gujarat,Vapi,"Phase-1 GIDC, Vapi - GPCB",11-05-2024 09:00:00,20.362421,72.918013,OZONE,NA,NA,NA
India,Haryana,Ambala,"Patti Mehar, Ambala - HSPCB",11-05-2024 09:00:00,30.379589,76.778328,NO2,8,21,14
India,Haryana,Bahadurgarh,"Arya Nagar, Bahadurgarh - HSPCB",11-05-2024 09:00:00,28.6701,76.9254,NH3,8,10,9
India,Haryana,Bahadurgarh,"Arya Nagar, Bahadurgarh - HSPCB",11-05-2024 09:00:00,28.6701,76.9254,SO2,14,19,17
India,Haryana,Ballabgarh,"Nathu Colony, Ballabgarh - HSPCB",11-05-2024 09:00:00,28.3419248,77.319699,PM10,NA,NA,NA
India,Haryana,Bhiwani,"H.B. Colony, Bhiwani - HSPCB",11-05-2024 09:00:00,28.806223,76.141105,SO2,1,86,14
India,Haryana,Charkhi Dadri,"Mini Secretariat, Charkhi Dadri - HSPCB",11-05-2024 09:00:00,28.593883,76.270653,NH3,6,8,7
India,Haryana,Charkhi Dadri,"Mini Secretariat, Charkhi Dadri - HSPCB",11-05-2024 09:00:00,28.593883,76.270653,CO,21,98,48
India,Haryana,Dharuhera,"Municipal Corporation Office, Dharuhera -  HSPCB",11-05-2024 09:00:00,28.206800,76.799700,PM10,NA,NA,NA
India,Haryana,Faridabad,"New Industrial Town, Faridabad - HSPCB",11-05-2024 09:00:00,28.39072,77.30059,PM2.5,NA,NA,NA
India,Haryana,Faridabad,"New Industrial Town, Faridabad - HSPCB",11-05-2024 09:00:00,28.39072,77.30059,SO2,NA,NA,NA
India,Haryana,Faridabad,"Sector 11, Faridabad - HSPCB",11-05-2024 09:00:00,28.376058,77.315741,NH3,6,6,6
India,Haryana,Faridabad,"Sector 11, Faridabad - HSPCB",11-05-2024 09:00:00,28.376058,77.315741,SO2,1,113,15
India,Haryana,Gurugram,"Sector-51, Gurugram - HSPCB",11-05-2024 09:00:00,28.4227,77.0667,NH3,7,14,8
India,Haryana,Gurugram,"Vikas Sadan, Gurugram - HSPCB",11-05-2024 09:00:00,28.4501238,77.0263051,OZONE,8,67,12
India,Haryana,Hisar,"Urban Estate-II, Hisar - HSPCB",11-05-2024 09:00:00,29.140560,75.744941,NH3,5,14,9
India,Haryana,Jind,"Police Lines, Jind - HSPCB",11-05-2024 09:00:00,29.307814,76.337619,PM10,NA,NA,NA
India,Haryana,Jind,"Police Lines, Jind - HSPCB",11-05-2024 09:00:00,29.307814,76.337619,NO2,NA,NA,NA
India,Haryana,Jind,"Police Lines, Jind - HSPCB",11-05-2024 09:00:00,29.307814,76.337619,NH3,NA,NA,NA
India,Haryana,Jind,"Police Lines, Jind - HSPCB",11-05-2024 09:00:00,29.307814,76.337619,OZONE,47,73,48
India,Haryana,Kaithal,"Rishi Nagar, Kaithal - HSPCB",11-05-2024 09:00:00,29.8006,76.4155,PM10,NA,NA,NA
India,Haryana,Kaithal,"Rishi Nagar, Kaithal - HSPCB",11-05-2024 09:00:00,29.8006,76.4155,NO2,24,26,25
India,Haryana,Kurukshetra,"Sector-7, Kurukshetra - HSPCB",11-05-2024 09:00:00,29.966942,76.875879,PM10,37,404,141
India,Haryana,Manesar,"Sector-2 IMT, Manesar - HSPCB",11-05-2024 09:00:00,28.360699,76.936090,SO2,NA,NA,NA
India,Haryana,Narnaul,"Shastri Nagar, Narnaul - HSPCB",11-05-2024 09:00:00,28.060249,76.113115,PM2.5,55,154,90
India,Haryana,Narnaul,"Shastri Nagar, Narnaul - HSPCB",11-05-2024 09:00:00,28.060249,76.113115,PM10,65,134,101
India,Haryana,Narnaul,"Shastri Nagar, Narnaul - HSPCB",11-05-2024 09:00:00,28.060249,76.113115,NH3,4,24,16
India,Haryana,Palwal,"Shyam Nagar, Palwal - HSPCB",11-05-2024 09:00:00,28.1485564,77.3320667,PM10,82,153,104
India,Haryana,Panchkula,"Sector-6, Panchkula - HSPCB ",11-05-2024 09:00:00,30.7057778,76.8531805555555,PM2.5,115,345,266
India,Haryana,Panchkula,"Sector-6, Panchkula - HSPCB ",11-05-2024 09:00:00,30.7057778,76.8531805555555,NO2,9,10,10
India,Haryana,Panchkula,"Sector-6, Panchkula - HSPCB ",11-05-2024 09:00:00,30.7057778,76.8531805555555,SO2,2,42,6
India,Haryana,Panipat,"Sector-18, Panipat - HSPCB",11-05-2024 09:00:00,29.497973,76.993331,PM2.5,NA,NA,NA
India,Haryana,Sonipat,"Murthal, Sonipat - HSPCB",11-05-2024 09:00:00,29.027200,77.062100,CO,NA,NA,NA
India,Haryana,Yamuna Nagar,"Gobind Pura, Yamuna Nagar - HSPCB",11-05-2024 09:00:00,30.1480566,77.2893471,PM10,NA,NA,NA
India,Haryana,Yamuna Nagar,"Gobind Pura, Yamuna Nagar - HSPCB",11-05-2024 09:00:00,30.1480566,77.2893471,NO2,11,29,20
India,Himachal Pradesh,Baddi,"HIMUDA Complex Phase-1, Baddi - HPPCB",11-05-2024 09:00:00,30.943887,76.801991,PM2.5,40,304,110
India,Jammu_and_Kashmir,Srinagar,"Rajbagh, Srinagar - JKSPCB",11-05-2024 09:00:00,34.066206,74.819820,OZONE,12,21,12
India,Jharkhand,Dhanbad,"Sardar Patel Nagar, Dhanbad - JSPCB",11-05-2024 09:00:00,23.80569,86.44268,PM10,NA,NA,NA
India,Karnataka,Bagalkot,"Vidayagiri, Bagalkot - KSPCB",11-05-2024 09:00:00,16.172806,75.659694,PM2.5,25,38,36
India,Karnataka,Bagalkot,"Vidayagiri, Bagalkot - KSPCB",11-05-2024 09:00:00,16.172806,75.659694,PM10,45,46,46
India,Karnataka,Belgaum,"Ramteerth Nagar, Belgaum - KSPCB",11-05-2024 09:00:00,15.888653,74.541751,PM10,27,73,42
India,Karnataka,Belgaum,"Ramteerth Nagar, Belgaum - KSPCB",11-05-2024 09:00:00,15.888653,74.541751,NH3,1,7,4
India,Karnataka,Bengaluru,"Bapuji Nagar, Bengaluru - KSPCB",11-05-2024 09:00:00,12.951913,77.539784,NO2,10,11,11
India,Karnataka,Bengaluru,"Hombegowda Nagar, Bengaluru - KSPCB",11-05-2024 09:00:00,12.938539,77.590100,PM2.5,6,55,30
