country,state,city,station,last_update,latitude,longitude,pollutant_id,pollutant_min,pollutant_max,pollutant_avg
India,Andhra_Pradesh,Amaravati,"Secretariat, Amaravati - APPCB",01-03-2024 15:00:00,16.5150833,80.5181667,PM2.5,42,73,55
India,Andhra_Pradesh,Amaravati,"Secretariat, Amaravati - APPCB",01-03-2024 15:00:00,16.5150833,80.5181667,NO2,9,30,17
India,Andhra_Pradesh,Amaravati,"Secretariat, Amaravati - APPCB",01-03-2024 15:00:00,16.5150833,80.5181667,NH3,2,4,4
India,Andhra_Pradesh,Amaravati,"Secretariat, Amaravati - APPCB",01-03-2024 15:00:00,16.5150833,80.5181667,CO,28,52,37
India,Andhra_Pradesh,Amaravati,"Secretariat, Amaravati - APPCB",01-03-2024 15:00:00,16.5150833,80.5181667,OZONE,1,50,23
India,Andhra_Pradesh,Anantapur,"Gulzarpet, Anantapur - APPCB",01-03-2024 15:00:00,14.675886,77.593027,SO2,1,16,7
India,Andhra_Pradesh,Chittoor,"Gangineni Cheruvu, Chittoor - APPCB",01-03-2024 15:00:00,13.204880,79.097889,CO,14,40,26
India,Andhra_Pradesh,Kadapa,"Yerramukkapalli, Kadapa - APPCB",01-03-2024 15:00:00,14.465052,78.824187,PM2.5,33,54,41
India,Andhra_Pradesh,Kadapa,"Yerramukkapalli, Kadapa - APPCB",01-03-2024 15:00:00,14.465052,78.824187,PM10,35,57,43
India,Andhra_Pradesh,Rajamahendravaram,"Anand Kala Kshetram, Rajamahendravaram - APPCB",01-03-2024 15:00:00,16.9872867,81.7363176,SO2,11,12,12
India,Andhra_Pradesh,Tirupati,"Tirumala, Tirupati - APPCB",01-03-2024 15:00:00,13.67,79.35,PM2.5,28,84,47
India,Andhra_Pradesh,Tirupati,"Tirumala, Tirupati - APPCB",01-03-2024 15:00:00,13.67,79.35,NO2,23,60,38
India,Andhra_Pradesh,Tirupati,"Tirumala, Tirupati - APPCB",01-03-2024 15:00:00,13.67,79.35,SO2,3,11,6
India,Andhra_Pradesh,Tirupati,"Tirumala, Tirupati - APPCB",01-03-2024 15:00:00,13.67,79.35,OZONE,6,46,29
India,Andhra_Pradesh,Vijayawada,"Kanuru, Vijayawada - APPCB",01-03-2024 15:00:00,16.486692,80.699436,PM2.5,52,81,68
India,Andhra_Pradesh,Vijayawada,"Kanuru, Vijayawada - APPCB",01-03-2024 15:00:00,16.486692,80.699436,NO2,14,20,17
India,Andhra_Pradesh,Vijayawada,"Rajiv Gandhi Park, Vijayawada - APPCB",01-03-2024 15:00:00,16.509717,80.612222,NO2,7,66,38
India,Andhra_Pradesh,Vijayawada,"Rajiv Gandhi Park, Vijayawada - APPCB",01-03-2024 15:00:00,16.509717,80.612222,NH3,3,7,6
India,Andhra_Pradesh,Vijayawada,"Rajiv Gandhi Park, Vijayawada - APPCB",01-03-2024 15:00:00,16.509717,80.612222,SO2,5,9,6
India,Andhra_Pradesh,Vijayawada,"Rajiv Nagar, Vijayawada - APPCB",01-03-2024 15:00:00,16.554731,80.649110,NO2,5,14,9
India,Andhra_Pradesh,Vijayawada,"Rajiv Nagar, Vijayawada - APPCB",01-03-2024 15:00:00,16.554731,80.649110,NH3,1,2,1
India,Andhra_Pradesh,Vijayawada,"Rajiv Nagar, Vijayawada - APPCB",01-03-2024 15:00:00,16.554731,80.649110,SO2,9,42,19
India,Andhra_Pradesh,Visakhapatnam,"GVM Corporation, Visakhapatnam - APPCB",01-03-2024 15:00:00,17.72,83.3,PM2.5,58,181,97
India,Andhra_Pradesh,Visakhapatnam,"GVM Corporation, Visakhapatnam - APPCB",01-03-2024 15:00:00,17.72,83.3,NH3,4,9,5
India,Arunachal_Pradesh,Naharlagun,"Naharlagun, Naharlagun - APSPCB",01-03-2024 15:00:00,27.103358,93.679645,NO2,3,3,3
India,Assam,Guwahati,"IITG, Guwahati - PCBA",01-03-2024 15:00:00,26.2028636,91.70046436,NH3,5,5,5
India,Assam,Guwahati,"IITG, Guwahati - PCBA",01-03-2024 15:00:00,26.2028636,91.70046436,SO2,12,14,13
India,Assam,Guwahati,"IITG, Guwahati - PCBA",01-03-2024 15:00:00,26.2028636,91.70046436,CO,10,28,15
India,Assam,Guwahati,"LGBI Airport, Guwahati - PCBA",01-03-2024 15:00:00,26.10887,91.589544,PM10,117,410,200
India,Assam,Guwahati,"LGBI Airport, Guwahati - PCBA",01-03-2024 15:00:00,26.10887,91.589544,CO,21,85,34
India,Assam,Guwahati,"Railway Colony, Guwahati - PCBA",01-03-2024 15:00:00,26.181742,91.78063,NO2,3,4,3
India,Assam,Nalbari,"Bata Chowk, Nalbari - PCBA",01-03-2024 15:00:00,26.446912,91.439057,PM10,56,479,178
India,Assam,Nalbari,"Bata Chowk, Nalbari - PCBA",01-03-2024 15:00:00,26.446912,91.439057,CO,58,136,96
India,Assam,Nalbari,"Bata Chowk, Nalbari - PCBA",01-03-2024 15:00:00,26.446912,91.439057,OZONE,5,125,61
India,Assam,Silchar,"Tarapur, Silchar - PCBA",01-03-2024 15:00:00,24.82827,92.79525,PM10,48,51,49
India,Assam,Silchar,"Tarapur, Silchar - PCBA",01-03-2024 15:00:00,24.82827,92.79525,SO2,1,13,4
India,Assam,Silchar,"Tarapur, Silchar - PCBA",01-03-2024 15:00:00,24.82827,92.79525,CO,26,38,30
India,Assam,Sivasagar,"Girls College, Sivasagar - PCBA",01-03-2024 15:00:00,26.987634,94.636574,OZONE,1,11,6
India,Bihar,Araria,"Kharahiya Basti, Araria - BSPCB",01-03-2024 15:00:00,26.146529,87.454184,PM2.5,32,272,148
India,Bihar,Araria,"Kharahiya Basti, Araria - BSPCB",01-03-2024 15:00:00,26.146529,87.454184,CO,14,29,26
India,Bihar,Araria,"Kharahiya Basti, Araria - BSPCB",01-03-2024 15:00:00,26.146529,87.454184,OZONE,5,10,9
India,Bihar,Arrah,"New DM Office, Arrah - BSPCB",01-03-2024 15:00:00,25.5626095,84.663264,PM10,78,145,104
India,Bihar,Bhagalpur,"DM Office_Kachari Chowk, Bhagalpur - BSPCB",01-03-2024 15:00:00,25.251013,86.989001,NO2,31,76,50
India,Bihar,Bhagalpur,"DM Office_Kachari Chowk, Bhagalpur - BSPCB",01-03-2024 15:00:00,25.251013,86.989001,CO,22,68,38
India,Bihar,Bhagalpur,"Mayaganj, Bhagalpur - BSPCB",01-03-2024 15:00:00,25.265194,87.012947,PM10,40,186,88
India,Bihar,Bhagalpur,"Mayaganj, Bhagalpur - BSPCB",01-03-2024 15:00:00,25.265194,87.012947,CO,8,10,9
India,Bihar,Bihar Sharif,"D M Colony, Bihar Sharif - BSPCB",01-03-2024 15:00:00,25.204762,85.514960,NO2,NA,NA,NA
India,Bihar,Chhapra,"Darshan Nagar, Chhapra - BSPCB",01-03-2024 15:00:00,25.7808257,84.7446768,PM2.5,72,233,137
India,Bihar,Gaya,"Kareemganj, Gaya - BSPCB",01-03-2024 15:00:00,24.792403,84.992416,NH3,1,5,3
India,Bihar,Gaya,"SFTI Kusdihra, Gaya - BSPCB",01-03-2024 15:00:00,24.762518,84.982348,CO,16,56,30
India,Bihar,Hajipur,"Industrial Area, Hajipur - BSPCB",01-03-2024 15:00:00,25.697189,85.245900,SO2,1,24,11
India,Bihar,Katihar,"Mirchaibari, Katihar - BSPCB",01-03-2024 15:00:00,25.560083,87.553265,SO2,18,21,19
India,Bihar,Katihar,"Mirchaibari, Katihar - BSPCB",01-03-2024 15:00:00,25.560083,87.553265,OZONE,20,24,22
India,Bihar,Kishanganj,"SDM Office_Khagra, Kishanganj - BSPCB",01-03-2024 15:00:00,26.0881305,87.93840336,NH3,12,13,12
India,Bihar,Kishanganj,"SDM Office_Khagra, Kishanganj - BSPCB",01-03-2024 15:00:00,26.0881305,87.93840336,SO2,29,40,35
India,Bihar,Kishanganj,"SDM Office_Khagra, Kishanganj - BSPCB",01-03-2024 15:00:00,26.0881305,87.93840336,CO,2,14,5
India,Bihar,Manguraha,"Forest Rest House, Manguraha - BSPCB",01-03-2024 15:00:00,27.308328,84.531742,PM10,NA,NA,NA
India,Bihar,Manguraha,"Forest Rest House, Manguraha - BSPCB",01-03-2024 15:00:00,27.308328,84.531742,NO2,NA,NA,NA
India,Bihar,Manguraha,"Forest Rest House, Manguraha - BSPCB",01-03-2024 15:00:00,27.308328,84.531742,NH3,NA,NA,NA
India,Bihar,Motihari,"Gandak Colony, Motihari - BSPCB",01-03-2024 15:00:00,26.63086,84.90051,PM10,32,123,78
India,Bihar,Motihari,"Gandak Colony, Motihari - BSPCB",01-03-2024 15:00:00,26.63086,84.90051,NO2,57,89,72
India,Bihar,Motihari,"Gandak Colony, Motihari - BSPCB",01-03-2024 15:00:00,26.63086,84.90051,NH3,9,14,12
India,Bihar,Munger,"Town Hall, Munger - BSPCB",01-03-2024 15:00:00,25.376776,86.471523,SO2,17,37,30
India,Bihar,Munger,"Town Hall, Munger - BSPCB",01-03-2024 15:00:00,25.376776,86.471523,CO,55,90,62
India,Bihar,Muzaffarpur,"Buddha Colony, Muzaffarpur - BSPCB",01-03-2024 15:00:00,26.11442,85.39813,PM10,NA,NA,NA
India,Bihar,Muzaffarpur,"Buddha Colony, Muzaffarpur - BSPCB",01-03-2024 15:00:00,26.11442,85.39813,SO2,NA,NA,NA
India,Bihar,Muzaffarpur,"MIT-Daudpur Kothi, Muzaffarpur - BSPCB",01-03-2024 15:00:00,26.1403345,85.3650192,PM2.5,NA,NA,NA
India,Bihar,Muzaffarpur,"MIT-Daudpur Kothi, Muzaffarpur - BSPCB",01-03-2024 15:00:00,26.1403345,85.3650192,NO2,NA,NA,NA
India,Bihar,Muzaffarpur,"Muzaffarpur Collectorate, Muzaffarpur - BSPCB",01-03-2024 15:00:00,26.1209,85.3647,PM2.5,42,305,129
India,Bihar,Muzaffarpur,"Muzaffarpur Collectorate, Muzaffarpur - BSPCB",01-03-2024 15:00:00,26.1209,85.3647,CO,18,74,31
India,Bihar,Patna,"DRM Office Danapur, Patna - BSPCB",01-03-2024 15:00:00,25.586562,85.043586,NH3,3,4,3
India,Bihar,Patna,"Govt. High School Shikarpur, Patna - BSPCB",01-03-2024 15:00:00,25.592539,85.227158,NH3,4,4,4
India,Bihar,Patna,"IGSC Planetarium Complex, Patna - BSPCB",01-03-2024 15:00:00,25.610369,85.132568,SO2,5,7,6
India,Bihar,Patna,"IGSC Planetarium Complex, Patna - BSPCB",01-03-2024 15:00:00,25.610369,85.132568,CO,13,18,16
India,Bihar,Patna,"Muradpur, Patna - BSPCB",01-03-2024 15:00:00,25.619651,85.147382,CO,16,93,38
India,Bihar,Patna,"Rajbansi Nagar, Patna - BSPCB",01-03-2024 15:00:00,25.599486,85.113666,NH3,1,3,3
India,Bihar,Purnia,"Mariam Nagar, Purnia - BSPCB",01-03-2024 15:00:00,25.366336,87.117468,NO2,11,14,13
India,Bihar,Purnia,"Mariam Nagar, Purnia - BSPCB",01-03-2024 15:00:00,25.366336,87.117468,OZONE,15,92,43
India,Bihar,Rajgir,"Dangi Tola, Rajgir - BSPCB",01-03-2024 15:00:00,25.03280,85.41948,SO2,NA,NA,NA
India,Bihar,Rajgir,"Dangi Tola, Rajgir - BSPCB",01-03-2024 15:00:00,25.03280,85.41948,CO,9,11,10
India,Bihar,Samastipur,"DM Office_Kasipur, Samastipur - BSPCB",01-03-2024 15:00:00,25.859655,85.77944,NH3,2,3,3
India,Bihar,Samastipur,"DM Office_Kasipur, Samastipur - BSPCB",01-03-2024 15:00:00,25.859655,85.77944,SO2,1,20,9
India,Bihar,Sasaram,"Dada Peer, Sasaram - BSPCB",01-03-2024 15:00:00,24.952822,84.002396,PM2.5,32,236,59
India,Bihar,Sasaram,"Dada Peer, Sasaram - BSPCB",01-03-2024 15:00:00,24.952822,84.002396,PM10,25,214,69
India,Bihar,Sasaram,"Dada Peer, Sasaram - BSPCB",01-03-2024 15:00:00,24.952822,84.002396,OZONE,6,85,52
India,Bihar,Siwan,"Chitragupta Nagar, Siwan - BSPCB",01-03-2024 15:00:00,26.2271665,84.3570427,PM2.5,35,300,130
India,Bihar,Siwan,"Chitragupta Nagar, Siwan - BSPCB",01-03-2024 15:00:00,26.2271665,84.3570427,NH3,1,5,2
India,Bihar,Siwan,"Chitragupta Nagar, Siwan - BSPCB",01-03-2024 15:00:00,26.2271665,84.3570427,OZONE,29,97,66
India,Chandigarh,Chandigarh,"Sector-25, Chandigarh - CPCC",01-03-2024 15:00:00,30.751462,76.762879,PM2.5,117,216,168
India,Chandigarh,Chandigarh,"Sector-25, Chandigarh - CPCC",01-03-2024 15:00:00,30.751462,76.762879,CO,19,58,38
India,Chandigarh,Chandigarh,"Sector-25, Chandigarh - CPCC",01-03-2024 15:00:00,30.751462,76.762879,OZONE,1,51,12
India,Chhattisgarh,Bhilai,"32Bungalows, Bhilai - CECB",01-03-2024 15:00:00,21.194815,81.314770,NO2,28,36,33
India,Chhattisgarh,Bhilai,"Civic Center, Bhilai - Bhilai Steel Plant",01-03-2024 15:00:00,21.185571,81.343175,PM2.5,NA,NA,NA
India,Chhattisgarh,Bhilai,"Civic Center, Bhilai - Bhilai Steel Plant",01-03-2024 15:00:00,21.185571,81.343175,NO2,NA,NA,NA
India,Chhattisgarh,Bhilai,"Hathkhoj, Bhilai - CECB",01-03-2024 15:00:00,21.224231,81.408350,SO2,12,54,21
India,Chhattisgarh,Bhilai,"Hathkhoj, Bhilai - CECB",01-03-2024 15:00:00,21.224231,81.408350,OZONE,8,26,18
India,Chhattisgarh,Bilaspur,"Mangala, Bilaspur - NTPC",01-03-2024 15:00:00,22.08815,82.13737,CO,16,41,35
India,Chhattisgarh,Korba,"Rampur, Korba - CECB",01-03-2024 15:00:00,22.368195,82.746431,NO2,31,51,43
India,Chhattisgarh,Korba,"Rampur, Korba - CECB",01-03-2024 15:00:00,22.368195,82.746431,OZONE,1,8,3
India,Chhattisgarh,Kunjemura,"OP Jindal School, Kunjemura - CECB",01-03-2024 15:00:00,22.126650,83.483212,PM10,46,260,102
India,Chhattisgarh,Kunjemura,"OP Jindal School, Kunjemura - CECB",01-03-2024 15:00:00,22.126650,83.483212,NH3,1,4,2
India,Chhattisgarh,Milupara,"Govt. Higher Secondary School, Milupara - CECB",01-03-2024 15:00:00,22.1910172,83.5197009,PM2.5,1,33,20
India,Chhattisgarh,Milupara,"Govt. Higher Secondary School, Milupara - CECB",01-03-2024 15:00:00,22.1910172,83.5197009,PM10,17,49,29
India,Chhattisgarh,Milupara,"Govt. Higher Secondary School, Milupara - CECB",01-03-2024 15:00:00,22.1910172,83.5197009,SO2,NA,NA,NA
India,Chhattisgarh,Raipur,"Bhatagaon New ISBT, Raipur - CECB",01-03-2024 15:00:00,21.219665,81.630094,NO2,62,88,72
India,Chhattisgarh,Raipur,"Bhatagaon New ISBT, Raipur - CECB",01-03-2024 15:00:00,21.219665,81.630094,NH3,2,2,2
India,Chhattisgarh,Raipur,"Krishak Nagar, Raipur - CECB",01-03-2024 15:00:00,21.237755,81.705301,NH3,1,1,1
India,Chhattisgarh,Raipur,"Krishak Nagar, Raipur - CECB",01-03-2024 15:00:00,21.237755,81.705301,CO,26,45,38
India,Chhattisgarh,Raipur,"Krishak Nagar, Raipur - CECB",01-03-2024 15:00:00,21.237755,81.705301,OZONE,4,14,8
India,Chhattisgarh,Tumidih,"OP Jindal Industrial Park, Tumidih - CECB",01-03-2024 15:00:00,22.06631475,83.33820077,CO,13,45,24
India,Chhattisgarh,Tumidih,"OP Jindal Industrial Park, Tumidih - CECB",01-03-2024 15:00:00,22.06631475,83.33820077,OZONE,4,68,30
India,Delhi,Delhi,"Anand Vihar, Delhi - DPCC",01-03-2024 15:00:00,28.647622,77.3158090,PM2.5,81,354,270
India,Delhi,Delhi,"Bawana, Delhi - DPCC",01-03-2024 15:00:00,28.776200,77.051074,SO2,6,24,11
India,Delhi,Delhi,"CRRI Mathura Road, Delhi - IMD",01-03-2024 15:00:00,28.5512005,77.2735737,CO,22,122,98
India,Delhi,Delhi,"Chandni Chowk, Delhi - IITM",01-03-2024 15:00:00,28.656756,77.227234,PM10,3,202,119
India,Delhi,Delhi,"Chandni Chowk, Delhi - IITM",01-03-2024 15:00:00,28.656756,77.227234,CO,117,152,138
India,Delhi,Delhi,"Dr. Karni Singh Shooting Range, Delhi - DPCC",01-03-2024 15:00:00,28.498571,77.264840,CO,28,114,58
India,Delhi,Delhi,"Dwarka-Sector 8, Delhi - DPCC ",01-03-2024 15:00:00,28.5710274,77.0719006,OZONE,1,102,26
India,Delhi,Delhi,"ITO, Delhi - CPCB",01-03-2024 15:00:00,28.628624,77.241060,NH3,2,16,8
India,Delhi,Delhi,"ITO, Delhi - CPCB",01-03-2024 15:00:00,28.628624,77.241060,SO2,1,38,12
India,Delhi,Delhi,"Jahangirpuri, Delhi - DPCC",01-03-2024 15:00:00,28.732820,77.170633,PM2.5,59,421,273
India,Delhi,Delhi,"Jahangirpuri, Delhi - DPCC",01-03-2024 15:00:00,28.732820,77.170633,CO,67,121,91
India,Delhi,Delhi,"Jawaharlal Nehru Stadium, Delhi - DPCC",01-03-2024 15:00:00,28.580280,77.233829,PM10,72,201,145
India,Delhi,Delhi,"Lodhi Road, Delhi - IITM",01-03-2024 15:00:00,28.588333,77.221667,PM10,25,403,72
India,Delhi,Delhi,"Lodhi Road, Delhi - IITM",01-03-2024 15:00:00,28.588333,77.221667,NO2,81,119,89
India,Delhi,Delhi,"Lodhi Road, Delhi - IITM",01-03-2024 15:00:00,28.588333,77.221667,SO2,3,33,17
India,Delhi,Delhi,"Major Dhyan Chand National Stadium, Delhi - DPCC",01-03-2024 15:00:00,28.611281,77.237738,SO2,7,32,17
India,Delhi,Delhi,"Major Dhyan Chand National Stadium, Delhi - DPCC",01-03-2024 15:00:00,28.611281,77.237738,CO,79,130,108
India,Delhi,Delhi,"Mandir Marg, Delhi - DPCC",01-03-2024 15:00:00,28.636429,77.201067,NH3,9,17,16
India,Delhi,Delhi,"Mandir Marg, Delhi - DPCC",01-03-2024 15:00:00,28.636429,77.201067,CO,37,118,67
India,Delhi,Delhi,"NSIT Dwarka, Delhi - CPCB",01-03-2024 15:00:00,28.60909,77.0325413,PM2.5,81,342,212
India,Delhi,Delhi,"NSIT Dwarka, Delhi - CPCB",01-03-2024 15:00:00,28.60909,77.0325413,NO2,64,86,78
India,Delhi,Delhi,"NSIT Dwarka, Delhi - CPCB",01-03-2024 15:00:00,28.60909,77.0325413,NH3,10,13,12
India,Delhi,Delhi,"NSIT Dwarka, Delhi - CPCB",01-03-2024 15:00:00,28.60909,77.0325413,CO,23,68,36
India,Delhi,Delhi,"NSIT Dwarka, Delhi - CPCB",01-03-2024 15:00:00,28.60909,77.0325413,OZONE,16,117,36
India,Delhi,Delhi,"Narela, Delhi - DPCC",01-03-2024 15:00:00,28.822836,77.101981,PM10,68,408,201
India,Delhi,Delhi,"Nehru Nagar, Delhi - DPCC",01-03-2024 15:00:00,28.567890,77.250515,CO,26,112,70
India,Delhi,Delhi,"Okhla Phase-2, Delhi - DPCC",01-03-2024 15:00:00,28.530785,77.271255,OZONE,9,167,62
India,Delhi,Delhi,"Patparganj, Delhi - DPCC",01-03-2024 15:00:00,28.623763,77.287209,NO2,33,86,62
India,Delhi,Delhi,"Punjabi Bagh, Delhi - DPCC",01-03-2024 15:00:00,28.674045,77.131023,NH3,2,2,2
India,Delhi,Delhi,"Punjabi Bagh, Delhi - DPCC",01-03-2024 15:00:00,28.674045,77.131023,SO2,12,24,18
India,Delhi,Delhi,"Pusa, Delhi - DPCC",01-03-2024 15:00:00,28.639652,77.146275,NH3,7,10,8
India,Delhi,Delhi,"Pusa, Delhi - DPCC",01-03-2024 15:00:00,28.639652,77.146275,SO2,8,32,16
India,Delhi,Delhi,"R K Puram, Delhi - DPCC",01-03-2024 15:00:00,28.563262,77.186937,PM2.5,61,337,214
India,Delhi,Delhi,"R K Puram, Delhi - DPCC",01-03-2024 15:00:00,28.563262,77.186937,SO2,12,35,20
India,Delhi,Delhi,"Rohini, Delhi - DPCC",01-03-2024 15:00:00,28.732528,77.119920,PM10,76,411,209
India,Delhi,Delhi,"Rohini, Delhi - DPCC",01-03-2024 15:00:00,28.732528,77.119920,NH3,8,14,11
India,Delhi,Delhi,"Shadipur, Delhi - CPCB",01-03-2024 15:00:00,28.6514781,77.1473105,SO2,3,28,18
India,Delhi,Delhi,"Sonia Vihar, Delhi - DPCC",01-03-2024 15:00:00,28.710508,77.249485,PM2.5,34,344,208
India,Delhi,Delhi,"Sonia Vihar, Delhi - DPCC",01-03-2024 15:00:00,28.710508,77.249485,SO2,6,37,15
India,Delhi,Delhi,"Sonia Vihar, Delhi - DPCC",01-03-2024 15:00:00,28.710508,77.249485,OZONE,20,201,201
India,Delhi,Delhi,"Sri Aurobindo Marg, Delhi - DPCC",01-03-2024 15:00:00,28.531346,77.190156,PM2.5,48,278,152
India,Delhi,Delhi,"Sri Aurobindo Marg, Delhi - DPCC",01-03-2024 15:00:00,28.531346,77.190156,NO2,24,95,49
India,Delhi,Delhi,"Wazirpur, Delhi - DPCC",01-03-2024 15:00:00,28.699793,77.165453,OZONE,10,206,52
India,Gujarat,Ahmedabad,"Chandkheda, Ahmedabad - IITM",01-03-2024 15:00:00,23.107969,72.574648,CO,42,133,58
India,Gujarat,Ahmedabad,"Gyaspur, Ahmedabad - IITM",01-03-2024 15:00:00,22.977134,72.553024,NO2,21,22,22
India,Gujarat,Ahmedabad,"Gyaspur, Ahmedabad - IITM",01-03-2024 15:00:00,22.977134,72.553024,OZONE,1,54,12
India,Gujarat,Ahmedabad,"Maninagar, Ahmedabad - GPCB",01-03-2024 15:00:00,23.002657,72.591912,OZONE,11,119,71
India,Gujarat,Ahmedabad,"Raikhad, Ahmedabad - IITM",01-03-2024 15:00:00,23.020509,72.579261,PM2.5,157,460,289
India,Gujarat,Ahmedabad,"Rakhial, Ahmedabad - IITM",01-03-2024 15:00:00,23.016834,72.625775,NH3,NA,NA,NA
India,Gujarat,Ahmedabad,"Rakhial, Ahmedabad - IITM",01-03-2024 15:00:00,23.016834,72.625775,SO2,7,71,16
India,Gujarat,Ahmedabad,"SAC ISRO Bopal, Ahmedabad - IITM",01-03-2024 15:00:00,23.041137,72.456691,PM2.5,77,314,193
India,Gujarat,Ahmedabad,"SAC ISRO Bopal, Ahmedabad - IITM",01-03-2024 15:00:00,23.041137,72.456691,NH3,3,4,3
India,Gujarat,Ahmedabad,"SAC ISRO Satellite, Ahmedabad - IITM",01-03-2024 15:00:00,23.023389,72.515201,SO2,12,41,21
India,Gujarat,Ahmedabad,"SAC ISRO Satellite, Ahmedabad - IITM",01-03-2024 15:00:00,23.023389,72.515201,OZONE,10,26,21
India,Gujarat,Ahmedabad,"SVPI Airport Hansol, Ahmedabad - IITM",01-03-2024 15:00:00,23.076793,72.627874,PM2.5,17,319,149
India,Gujarat,Ahmedabad,"SVPI Airport Hansol, Ahmedabad - IITM",01-03-2024 15:00:00,23.076793,72.627874,OZONE,1,42,22
India,Gujarat,Ahmedabad,"Sardar Vallabhbhai Patel Stadium, Ahmedabad - IITM",01-03-2024 15:00:00,23.043070,72.562968,NH3,NA,NA,NA
India,Gujarat,Ahmedabad,"Sardar Vallabhbhai Patel Stadium, Ahmedabad - IITM",01-03-2024 15:00:00,23.043070,72.562968,SO2,NA,NA,NA
India,Gujarat,Ankleshwar,"GIDC, Ankleshwar - GPCB",01-03-2024 15:00:00,21.613267,73.010555,NO2,36,37,37
India,Gujarat,Ankleshwar,"GIDC, Ankleshwar - GPCB",01-03-2024 15:00:00,21.613267,73.010555,NH3,7,7,7
India,Gujarat,Ankleshwar,"GIDC, Ankleshwar - GPCB",01-03-2024 15:00:00,21.613267,73.010555,OZONE,22,38,28
India,Gujarat,Gandhinagar,"IIPHG Lekawada, Gandhinagar - IITM",01-03-2024 15:00:00,23.243639,72.68994,NO2,32,33,33
India,Gujarat,Gandhinagar,"IIPHG Lekawada, Gandhinagar - IITM",01-03-2024 15:00:00,23.243639,72.68994,SO2,11,13,13
India,Gujarat,Gandhinagar,"Sector-10, Gandhinagar - GPCB",01-03-2024 15:00:00,23.221714,72.654328,NO2,6,16,9
India,Gujarat,Gandhinagar,"Sector-10, Gandhinagar - GPCB",01-03-2024 15:00:00,23.221714,72.654328,CO,26,124,41
India,Gujarat,Nandesari,"GIDC, Nandesari - Nandesari Ind. Association",01-03-2024 15:00:00,22.410802,73.097923,PM2.5,126,348,262
India,Gujarat,Surat,"Science Center, Surat - SMC",01-03-2024 15:00:00,21.170046,72.795405,PM2.5,20,53,38
India,Gujarat,Surat,"Science Center, Surat - SMC",01-03-2024 15:00:00,21.170046,72.795405,CO,52,81,66
India,Gujarat,Vapi,"Phase-1 GIDC, Vapi - GPCB",01-03-2024 15:00:00,20.362421,72.918013,NH3,8,30,11
India,Gujarat,Vapi,"Phase-1 GIDC, Vapi - GPCB",01-03-2024 15:00:00,20.362421,72.918013,OZONE,1,3,2
India,Gujarat,Vatva,"Phase-4 GIDC, Vatva - GPCB",01-03-2024 15:00:00,22.969611,72.643500,NO2,27,209,74
India,Haryana,Ambala,"Patti Mehar, Ambala - HSPCB",01-03-2024 15:00:00,30.379589,76.778328,SO2,3,21,9
India,Haryana,Bahadurgarh,"Arya Nagar, Bahadurgarh - HSPCB",01-03-2024 15:00:00,28.6701,76.9254,PM10,71,194,135
India,Haryana,Bhiwani,"H.B. Colony, Bhiwani - HSPCB",01-03-2024 15:00:00,28.806223,76.141105,PM2.5,10,266,134
India,Haryana,Bhiwani,"H.B. Colony, Bhiwani - HSPCB",01-03-2024 15:00:00,28.806223,76.141105,CO,16,60,43
India,Haryana,Dharuhera,"Municipal Corporation Office, Dharuhera -  HSPCB",01-03-2024 15:00:00,28.206800,76.799700,NO2,45,113,68
India,Haryana,Faridabad,"New Industrial Town, Faridabad - HSPCB",01-03-2024 15:00:00,28.39072,77.30059,PM10,4,242,112
India,Haryana,Faridabad,"New Industrial Town, Faridabad - HSPCB",01-03-2024 15:00:00,28.39072,77.30059,NH3,3,9,5
India,Haryana,Faridabad,"Sector 30, Faridabad - HSPCB",01-03-2024 15:00:00,28.4417,77.3217,NH3,9,9,9
India,Haryana,Fatehabad,"Huda Sector, Fatehabad - HSPCB",01-03-2024 15:00:00,29.503664,75.467934,NH3,NA,NA,NA
India,Haryana,Fatehabad,"Huda Sector, Fatehabad - HSPCB",01-03-2024 15:00:00,29.503664,75.467934,OZONE,20,42,35
India,Haryana,Gurugram,"Sector-51, Gurugram - HSPCB",01-03-2024 15:00:00,28.4227,77.0667,CO,16,111,65
India,Haryana,Gurugram,"Vikas Sadan, Gurugram - HSPCB",01-03-2024 15:00:00,28.4501238,77.0263051,OZONE,8,68,47
India,Haryana,Hisar,"Urban Estate-II, Hisar - HSPCB",01-03-2024 15:00:00,29.140560,75.744941,NO2,NA,NA,NA
India,Haryana,Hisar,"Urban Estate-II, Hisar - HSPCB",01-03-2024 15:00:00,29.140560,75.744941,OZONE,28,182,60
India,Haryana,Kaithal,"Rishi Nagar, Kaithal - HSPCB",01-03-2024 15:00:00,29.8006,76.4155,CO,2,52,47
India,Haryana,Karnal,"Sector-12, Karnal - HSPCB",01-03-2024 15:00:00,29.695300,77.002700,SO2,12,13,13
India,Haryana,Kurukshetra,"Sector-7, Kurukshetra - HSPCB",01-03-2024 15:00:00,29.966942,76.875879,NO2,10,10,10
India,Haryana,Kurukshetra,"Sector-7, Kurukshetra - HSPCB",01-03-2024 15:00:00,29.966942,76.875879,NH3,5,5,5
India,Haryana,Mandikhera,"General Hospital, Mandikhera - HSPCB",01-03-2024 15:00:00,27.9002,76.9938,CO,26,40,35
India,Haryana,Manesar,"Sector-2 IMT, Manesar - HSPCB",01-03-2024 15:00:00,28.360699,76.936090,NO2,1,28,19
India,Haryana,Manesar,"Sector-2 IMT, Manesar - HSPCB",01-03-2024 15:00:00,28.360699,76.936090,CO,7,70,36
India,Haryana,Narnaul,"Shastri Nagar, Narnaul - HSPCB",01-03-2024 15:00:00,28.060249,76.113115,PM2.5,10,82,46
India,Haryana,Narnaul,"Shastri Nagar, Narnaul - HSPCB",01-03-2024 15:00:00,28.060249,76.113115,SO2,13,14,13
India,Haryana,Narnaul,"Shastri Nagar, Narnaul - HSPCB",01-03-2024 15:00:00,28.060249,76.113115,OZONE,26,41,34
India,Haryana,Palwal,"Shyam Nagar, Palwal - HSPCB",01-03-2024 15:00:00,28.1485564,77.3320667,PM10,57,180,111
India,Haryana,Palwal,"Shyam Nagar, Palwal - HSPCB",01-03-2024 15:00:00,28.1485564,77.3320667,CO,24,36,32
India,Haryana,Panipat,"Sector-18, Panipat - HSPCB",01-03-2024 15:00:00,29.497973,76.993331,PM2.5,81,86,83
India,Haryana,Rohtak,"MD University, Rohtak - HSPCB",01-03-2024 15:00:00,28.52123,76.37138,NO2,45,58,53
India,Haryana,Rohtak,"MD University, Rohtak - HSPCB",01-03-2024 15:00:00,28.52123,76.37138,OZONE,45,55,48
India,Haryana,Yamuna Nagar,"Gobind Pura, Yamuna Nagar - HSPCB",01-03-2024 15:00:00,30.1480566,77.2893471,CO,2,102,74
India,Haryana,Yamuna Nagar,"Gobind Pura, Yamuna Nagar - HSPCB",01-03-2024 15:00:00,30.1480566,77.2893471,OZONE,5,40,23
India,Jharkhand,Dhanbad,"Kalakusuma, Dhanbad - DMC",01-03-2024 15:00:00,23.811548,86.481238,OZONE,19,81,42
India,Jharkhand,Pathardih,"Mohalbani Ghat, Pathardih - DMC",01-03-2024 15:00:00,23.669880,86.411725,CO,12,132,123
India,Karnataka,Belgaum,"Ramteerth Nagar, Belgaum - KSPCB",01-03-2024 15:00:00,15.888653,74.541751,PM10,39,73,57
India,Karnataka,Belgaum,"Ramteerth Nagar, Belgaum - KSPCB",01-03-2024 15:00:00,15.888653,74.541751,CO,37,52,43
India,Karnataka,Bengaluru,"Bapuji Nagar, Bengaluru - KSPCB",01-03-2024 15:00:00,12.951913,77.539784,NO2,9,12,11
India,Karnataka,Bengaluru,"Hombegowda Nagar, Bengaluru - KSPCB",01-03-2024 15:00:00,12.938539,77.590100,OZONE,4,5,4
India,Karnataka,Bengaluru,"Jayanagar 5th Block, Bengaluru - KSPCB",01-03-2024 15:00:00,12.920984,77.584908,PM10,48,205,95
India,Karnataka,Bengaluru,"Jayanagar 5th Block, Bengaluru - KSPCB",01-03-2024 15:00:00,12.920984,77.584908,NO2,10,13,11
India,Karnataka,Bengaluru,"Jigani, Bengaluru - KSPCB",01-03-2024 15:00:00,12.7816279,77.6299145,PM2.5,NA,NA,NA
India,Karnataka,Bengaluru,"Jigani, Bengaluru - KSPCB",01-03-2024 15:00:00,12.7816279,77.6299145,NO2,31,32,32
India,Karnataka,Bengaluru,"Jigani, Bengaluru - KSPCB",01-03-2024 15:00:00,12.7816279,77.6299145,NH3,4,4,4
India,Karnataka,Bengaluru,"Jigani, Bengaluru - KSPCB",01-03-2024 15:00:00,12.7816279,77.6299145,SO2,16,16,16
India,Karnataka,Bengaluru,"Kasturi Nagar, Bengaluru - KSPCB",01-03-2024 15:00:00,13.003872,77.664217,PM10,100,133,112
India,Karnataka,Bengaluru,"Kasturi Nagar, Bengaluru - KSPCB",01-03-2024 15:00:00,13.003872,77.664217,SO2,10,10,10
India,Karnataka,Bengaluru,"Kasturi Nagar, Bengaluru - KSPCB",01-03-2024 15:00:00,13.003872,77.664217,CO,22,26,24
India,Karnataka,Bengaluru,"Peenya, Bengaluru - CPCB",01-03-2024 15:00:00,13.0270199,77.494094,PM2.5,27,56,42
India,Karnataka,Bengaluru,"Peenya, Bengaluru - CPCB",01-03-2024 15:00:00,13.0270199,77.494094,NO2,15,27,22
India,Karnataka,Bengaluru,"Peenya, Bengaluru - CPCB",01-03-2024 15:00:00,13.0270199,77.494094,CO,9,61,37
India,Karnataka,Bengaluru,"Sanegurava Halli, Bengaluru - KSPCB",01-03-2024 15:00:00,12.990328,77.5431385,PM10,38,65,45
India,Karnataka,Bengaluru,"Sanegurava Halli, Bengaluru - KSPCB",01-03-2024 15:00:00,12.990328,77.5431385,NO2,18,21,20
India,Karnataka,Bengaluru,"Sanegurava Halli, Bengaluru - KSPCB",01-03-2024 15:00:00,12.990328,77.5431385,SO2,2,3,3
India,Karnataka,Bengaluru,"Silk Board, Bengaluru - KSPCB",01-03-2024 15:00:00,12.917348,77.622813,PM10,57,140,91
India,Karnataka,Bengaluru,"Silk Board, Bengaluru - KSPCB",01-03-2024 15:00:00,12.917348,77.622813,NO2,16,28,22
India,Karnataka,Bengaluru,"Silk Board, Bengaluru - KSPCB",01-03-2024 15:00:00,12.917348,77.622813,CO,31,41,37
India,Karnataka,Bidar,"Naubad, Bidar - KSPCB",01-03-2024 15:00:00,17.930306,77.482194,NH3,3,3,3
India,Karnataka,Bidar,"Naubad, Bidar - KSPCB",01-03-2024 15:00:00,17.930306,77.482194,CO,53,80,71
India,Karnataka,Chikkaballapur,"Chikkaballapur Rural, Chikkaballapur - KSPCB",01-03-2024 15:00:00,13.428828,77.731418,NO2,2,9,5
India,Karnataka,Chikkaballapur,"Chikkaballapur Rural, Chikkaballapur - KSPCB",01-03-2024 15:00:00,13.428828,77.731418,SO2,13,24,20
India,Karnataka,Chikkaballapur,"Chikkaballapur Rural, Chikkaballapur - KSPCB",01-03-2024 15:00:00,13.428828,77.731418,CO,8,30,18
India,Karnataka,Chikkamagaluru,"Kalyana Nagara, Chikkamagaluru - KSPCB",01-03-2024 15:00:00,13.328028,75.797056,PM2.5,42,82,61
India,Karnataka,Chikkamagaluru,"Kalyana Nagara, Chikkamagaluru - KSPCB",01-03-2024 15:00:00,13.328028,75.797056,NO2,18,28,21
India,Karnataka,Davanagere,"Devaraj Urs Badavane, Davanagere - KSPCB",01-03-2024 15:00:00,14.475800,75.905200,NO2,9,16,11
India,Karnataka,Davanagere,"Devaraj Urs Badavane, Davanagere - KSPCB",01-03-2024 15:00:00,14.475800,75.905200,CO,14,24,20
India,Karnataka,Davanagere,"Devaraj Urs Badavane, Davanagere - KSPCB",01-03-2024 15:00:00,14.475800,75.905200,OZONE,4,28,20
India,Karnataka,Dharwad,"Kalabhavan, Dharwad - KSPCB",01-03-2024 15:00:00,15.459706,75.008381,PM10,45,118,90
India,Karnataka,Hassan,"B.Katihalli, Hassan - KSPCB",01-03-2024 15:00:00,13.008556,76.125258,CO,8,30,18
India,Karnataka,Hubballi,"Deshpande Nagar, Hubballi - KSPCB",01-03-2024 15:00:00,15.351773,75.140726,CO,4,98,52
India,Karnataka,Hubballi,"Lingaraj Nagar, Hubballi - KSPCB",01-03-2024 15:00:00,15.3714823,75.1160168,NH3,2,2,2
India,Karnataka,Kalaburagi,"Lal Bahadur Shastri Nagar, Kalaburagi - KSPCB",01-03-2024 15:00:00,17.321993,76.822628,PM2.5,14,99,47
India,Karnataka,Kalaburagi,"Lal Bahadur Shastri Nagar, Kalaburagi - KSPCB",01-03-2024 15:00:00,17.321993,76.822628,SO2,11,13,12
India,Karnataka,Kalaburagi,"Lal Bahadur Shastri Nagar, Kalaburagi - KSPCB",01-03-2024 15:00:00,17.321993,76.822628,CO,39,51,40
India,Karnataka,Karwar,"KHB Colony, Karwar - KSPCB",01-03-2024 15:00:00,14.816666,74.141003,OZONE,21,22,22
India,Karnataka,Kolar,"Tamaka Ind. Area, Kolar - KSPCB",01-03-2024 15:00:00,13.1276288,78.1570122,PM2.5,20,75,47
India,Karnataka,Kolar,"Tamaka Ind. Area, Kolar - KSPCB",01-03-2024 15:00:00,13.1276288,78.1570122,PM10,32,115,76
India,Karnataka,Kolar,"Tamaka Ind. Area, Kolar - KSPCB",01-03-2024 15:00:00,13.1276288,78.1570122,CO,2,2,2
India,Karnataka,Koppal,"Diwator Nagar, Koppal - KSPCB",01-03-2024 15:00:00,15.347630,76.181767,PM10,25,88,48
India,Karnataka,Koppal,"Diwator Nagar, Koppal - KSPCB",01-03-2024 15:00:00,15.347630,76.181767,SO2,59,65,60
India,Karnataka,Koppal,"Diwator Nagar, Koppal - KSPCB",01-03-2024 15:00:00,15.347630,76.181767,OZONE,12,61,43
India,Karnataka,Madikeri,"Stuart Hill, Madikeri - KSPCB",01-03-2024 15:00:00,12.415911,75.735050,NH3,NA,NA,NA
India,Karnataka,Madikeri,"Stuart Hill, Madikeri - KSPCB",01-03-2024 15:00:00,12.415911,75.735050,SO2,4,4,4
India,Karnataka,Madikeri,"Stuart Hill, Madikeri - KSPCB",01-03-2024 15:00:00,12.415911,75.735050,CO,4,113,16
India,Karnataka,Mysuru,"Hebbal 1st Stage, Mysuru - KSPCB",01-03-2024 15:00:00,12.21041,76.37376,PM10,56,95,70
India,Karnataka,Mysuru,"Hebbal 1st Stage, Mysuru - KSPCB",01-03-2024 15:00:00,12.21041,76.37376,NH3,1,4,2
India,Karnataka,Mysuru,"Hebbal 1st Stage, Mysuru - KSPCB",01-03-2024 15:00:00,12.21041,76.37376,SO2,1,13,5
India,Karnataka,Raichur,"Haji Colony, Raichur - KSPCB",01-03-2024 15:00:00,16.208139,77.348417,PM2.5,12,62,26
India,Karnataka,Ramanagara,"Vijay Nagar, Ramanagara - KSPCB",01-03-2024 15:00:00,12.733409,77.298051,NH3,1,2,1
India,Karnataka,Ramanagara,"Vijay Nagar, Ramanagara - KSPCB",01-03-2024 15:00:00,12.733409,77.298051,SO2,20,31,25
India,Karnataka,Shivamogga,"Vinoba Nagara, Shivamogga - KSPCB",01-03-2024 15:00:00,13.940000,75.555917,PM2.5,29,62,46
India,Karnataka,Yadgir,"Collector Office, Yadgir - KSPCB",01-03-2024 15:00:00,16.7602,77.1428,SO2,7,22,16
India,Karnataka,Yadgir,"Collector Office, Yadgir - KSPCB",01-03-2024 15:00:00,16.7602,77.1428,OZONE,18,20,18
India,Kerala,Eloor,"Udyogamandal, Eloor - Kerala PCB",01-03-2024 15:00:00,10.073232,76.302765,PM2.5,38,65,47
India,Kerala,Eloor,"Udyogamandal, Eloor - Kerala PCB",01-03-2024 15:00:00,10.073232,76.302765,SO2,1,12,4
India,Kerala,Kannur,"Thavakkara, Kannur - Kerala PCB",01-03-2024 15:00:00,11.875000,75.373200,PM2.5,49,61,56
India,Kerala,Kochi,"Vyttila, Kochi - Kerala PCB",01-03-2024 15:00:00,9.969447,76.321186,PM2.5,29,146,62
India,Kerala,Kochi,"Vyttila, Kochi - Kerala PCB",01-03-2024 15:00:00,9.969447,76.321186,NH3,3,3,3
India,Kerala,Thiruvananthapuram,"Kariavattom, Thiruvananthapuram - Kerala PCB",01-03-2024 15:00:00,8.563700,76.886500,CO,18,57,37
India,Kerala,Thiruvananthapuram,"Plammoodu, Thiruvananthapuram - Kerala PCB",01-03-2024 15:00:00,8.5149093,76.9435879,PM10,24,114,49
India,Kerala,Thiruvananthapuram,"Plammoodu, Thiruvananthapuram - Kerala PCB",01-03-2024 15:00:00,8.5149093,76.9435879,SO2,2,13,11
India,Kerala,Thrissur,"Corporation Ground, Thrissur - Kerala PCB",01-03-2024 15:00:00,10.532400,76.215900,CO,14,62,19
India,Madhya Pradesh,Bhopal,"Idgah Hills, Bhopal - MPPCB",01-03-2024 15:00:00,23.264759,77.381568,NO2,15,79,36
India,Madhya Pradesh,Bhopal,"Idgah Hills, Bhopal - MPPCB",01-03-2024 15:00:00,23.264759,77.381568,SO2,24,48,31
India,Madhya Pradesh,Bhopal,"Idgah Hills, Bhopal - MPPCB",01-03-2024 15:00:00,23.264759,77.381568,OZONE,22,128,68
India,Madhya Pradesh,Dewas,"Bhopal Chauraha, Dewas - MPPCB",01-03-2024 15:00:00,22.9682591,76.064118,NH3,3,3,3
India,Madhya Pradesh,Gwalior,"Deen Dayal Nagar, Gwalior - MPPCB",01-03-2024 15:00:00,26.259242,78.216432,PM10,68,332,156
India,Madhya Pradesh,Gwalior,"Deen Dayal Nagar, Gwalior - MPPCB",01-03-2024 15:00:00,26.259242,78.216432,SO2,15,22,18
India,Madhya Pradesh,Gwalior,"Maharaj Bada, Gwalior - MPPCB",01-03-2024 15:00:00,26.200388,78.147714,PM10,85,329,146
India,Madhya Pradesh,Gwalior,"Maharaj Bada, Gwalior - MPPCB",01-03-2024 15:00:00,26.200388,78.147714,OZONE,7,133,87
India,Madhya Pradesh,Indore,"Residency Area, Indore - IMC",01-03-2024 15:00:00,22.7084,75.8815,PM2.5,39,306,98
India,Madhya Pradesh,Indore,"Residency Area, Indore - IMC",01-03-2024 15:00:00,22.7084,75.8815,CO,12,26,13
India,Madhya Pradesh,Jabalpur,"Govindh Bhavan Colony, Jabalpur - JMC",01-03-2024 15:00:00,23.163174,79.973061,PM10,28,81,42
India,Madhya Pradesh,Jabalpur,"Govindh Bhavan Colony, Jabalpur - JMC",01-03-2024 15:00:00,23.163174,79.973061,NH3,3,11,8
India,Madhya Pradesh,Jabalpur,"Gupteshwar, Jabalpur - JMC",01-03-2024 15:00:00,23.142888,79.916147,SO2,2,9,4
India,Madhya Pradesh,Jabalpur,"Suhagi, Jabalpur - JMC",01-03-2024 15:00:00,23.218135,79.957770,PM2.5,45,318,141
India,Madhya Pradesh,Jabalpur,"Suhagi, Jabalpur - JMC",01-03-2024 15:00:00,23.218135,79.957770,SO2,19,75,49
India,Madhya Pradesh,Katni,"Gole Bazar, Katni - MPPCB",01-03-2024 15:00:00,23.50016,80.23284,NO2,35,101,66
India,Madhya Pradesh,Katni,"Gole Bazar, Katni - MPPCB",01-03-2024 15:00:00,23.50016,80.23284,NH3,3,6,4
India,Madhya Pradesh,Mandideep,"Sector-D Industrial Area, Mandideep - MPPCB",01-03-2024 15:00:00,23.108440,77.511428,NO2,30,110,71
India,Madhya Pradesh,Pithampur,"Sector-2 Industrial Area, Pithampur - MPPCB",01-03-2024 15:00:00,22.624758,75.675238,PM2.5,28,187,67
India,Madhya Pradesh,Ratlam,"Shasthri Nagar, Ratlam - IPCA Lab",01-03-2024 15:00:00,23.331731,75.045981,PM10,NA,NA,NA
India,Madhya Pradesh,Ratlam,"Shasthri Nagar, Ratlam - IPCA Lab",01-03-2024 15:00:00,23.331731,75.045981,SO2,NA,NA,NA
India,Madhya Pradesh,Sagar,"Civil Lines, Sagar - MPPCB",01-03-2024 15:00:00,23.838586,78.759431,SO2,4,6,5
India,Madhya Pradesh,Sagar,"Deen Dayal Nagar, Sagar - MPPCB",01-03-2024 15:00:00,23.8640158,78.80289321,PM10,26,86,52
India,Madhya Pradesh,Singrauli,"Suryakiran Bhawan NCL, Singrauli - MPPCB",01-03-2024 15:00:00,24.108970,82.645580,PM10,64,242,142
India,Madhya Pradesh,Ujjain,"Mahakaleshwar Temple, Ujjain - MPPCB",01-03-2024 15:00:00,23.182719 ,75.768218 ,NO2,8,114,38
India,Maharashtra,Ahmednagar,"Tarakpur, Ahmednagar - MPCB",01-03-2024 15:00:00,19.10122,74.73339,PM2.5,51,175,103
India,Maharashtra,Ahmednagar,"Tarakpur, Ahmednagar - MPCB",01-03-2024 15:00:00,19.10122,74.73339,SO2,3,18,9
India,Maharashtra,Akola,"Ramdaspeth, Akola - MPCB",01-03-2024 15:00:00,20.719516,77.000253,PM2.5,28,279,76
India,Maharashtra,Akola,"Ramdaspeth, Akola - MPCB",01-03-2024 15:00:00,20.719516,77.000253,SO2,6,20,11
India,Maharashtra,Amravati,"Shri Shivaji Science College, Amaravati - MPCB",01-03-2024 15:00:00,20.939198,77.765701,PM2.5,61,152,86
India,Maharashtra,Amravati,"Shri Shivaji Science College, Amaravati - MPCB",01-03-2024 15:00:00,20.939198,77.765701,NH3,2,7,4
India,Maharashtra,Aurangabad,"MIDC Chilkalthana, Aurangabad - MPCB",01-03-2024 15:00:00,19.875620,75.387310,SO2,2,14,5
India,Maharashtra,Aurangabad,"Rachnakar Colony, Aurangabad - MPCB",01-03-2024 15:00:00,19.863756,75.321188,NO2,14,103,56
India,Maharashtra,Aurangabad,"Rachnakar Colony, Aurangabad - MPCB",01-03-2024 15:00:00,19.863756,75.321188,SO2,6,26,14
India,Maharashtra,Badlapur,"Katrap, Badlapur - MPCB",01-03-2024 15:00:00,19.16485,73.23409,OZONE,1,112,29
India,Maharashtra,Belapur,"CBD Belapur, Belapur - MPCB",01-03-2024 15:00:00,19.0243902,73.0406721,PM10,19,124,78
India,Maharashtra,Bhiwandi,"Gokul Nagar, Bhiwandi - MPCB",01-03-2024 15:00:00,19.309073,73.057223,PM10,78,210,152
India,Maharashtra,Bhiwandi,"Gokul Nagar, Bhiwandi - MPCB",01-03-2024 15:00:00,19.309073,73.057223,NO2,22,90,56
India,Maharashtra,Boisar,"Khaira, Boisar - MPCB",01-03-2024 15:00:00,19.786089,72.757971,PM10,31,110,81
India,Maharashtra,Boisar,"Khaira, Boisar - MPCB",01-03-2024 15:00:00,19.786089,72.757971,SO2,5,115,46
India,Maharashtra,Chandrapur,"Chauhan Colony, Chandrapur - MPCB",01-03-2024 15:00:00,19.962900,79.298714,NH3,1,14,2
India,Maharashtra,Chandrapur,"Chauhan Colony, Chandrapur - MPCB",01-03-2024 15:00:00,19.962900,79.298714,SO2,5,32,14
India,Maharashtra,Chandrapur,"Chauhan Colony, Chandrapur - MPCB",01-03-2024 15:00:00,19.962900,79.298714,CO,22,26,24
India,Maharashtra,Dhule,"Deopur, Dhule - MPCB",01-03-2024 15:00:00,20.918946,74.776388,SO2,2,13,6
India,Maharashtra,Dhule,"Deopur, Dhule - MPCB",01-03-2024 15:00:00,20.918946,74.776388,CO,6,78,34
India,Maharashtra,Dhule,"Deopur, Dhule - MPCB",01-03-2024 15:00:00,20.918946,74.776388,OZONE,3,78,23
India,Maharashtra,Jalgaon,"Prabhat Colony, Jalgaon - MPCB",01-03-2024 15:00:00,21.001264,75.565602,OZONE,4,105,64
India,Maharashtra,Jalna,"Old MIDC, Jalna - MPCB",01-03-2024 15:00:00,19.854616,75.905894,PM10,53,285,132
India,Maharashtra,Jalna,"Old MIDC, Jalna - MPCB",01-03-2024 15:00:00,19.854616,75.905894,NH3,5,8,7
India,Maharashtra,Kolhapur,"Shivaji University, Kolhapur - MPCB",01-03-2024 15:00:00,16.6870449,74.2505872,PM10,75,169,119
India,Maharashtra,Kolhapur,"Shivaji University, Kolhapur - MPCB",01-03-2024 15:00:00,16.6870449,74.2505872,NH3,1,12,5
India,Maharashtra,Kolhapur,"Shivaji University, Kolhapur - MPCB",01-03-2024 15:00:00,16.6870449,74.2505872,CO,68,116,92
India,Maharashtra,Kolhapur,"Sinchan Bhavan, Kolhapur - MPCB",01-03-2024 15:00:00,16.7143745,74.2426398,NH3,7,8,7
India,Maharashtra,Malegaon,"Mahesh Nagar, Malegaon - MPCB",01-03-2024 15:00:00,20.555712,74.529236,NH3,2,18,5
India,Maharashtra,Malegaon,"Mahesh Nagar, Malegaon - MPCB",01-03-2024 15:00:00,20.555712,74.529236,CO,22,51,42
India,Maharashtra,Mira-Bhayandar,"Bhayandar West, Mira-Bhayandar - MPCB",01-03-2024 15:00:00,19.296481,72.840923,SO2,5,18,9
India,Maharashtra,Mumbai,"Bandra Kurla Complex, Mumbai - MPCB",01-03-2024 15:00:00,19.065931,72.862131,PM2.5,67,131,89
India,Maharashtra,Mumbai,"Bandra Kurla Complex, Mumbai - MPCB",01-03-2024 15:00:00,19.065931,72.862131,SO2,1,26,5
India,Maharashtra,Mumbai,"Borivali East, Mumbai - IITM",01-03-2024 15:00:00,19.23241,72.86895,NH3,2,2,2
India,Maharashtra,Mumbai,"Borivali East, Mumbai - IITM",01-03-2024 15:00:00,19.23241,72.86895,OZONE,19,213,52
India,Maharashtra,Mumbai,"Borivali East, Mumbai - MPCB",01-03-2024 15:00:00,19.2243333,72.8658113,PM2.5,42,137,67
India,Maharashtra,Mumbai,"Borivali East, Mumbai - MPCB",01-03-2024 15:00:00,19.2243333,72.8658113,NO2,11,43,19
India,Maharashtra,Mumbai,"Byculla, Mumbai - BMC",01-03-2024 15:00:00,18.9767,72.8380,PM10,72,122,95
India,Maharashtra,Mumbai,"Byculla, Mumbai - BMC",01-03-2024 15:00:00,18.9767,72.8380,OZONE,3,193,53
India,Maharashtra,Mumbai,"Chakala-Andheri East, Mumbai - IITM",01-03-2024 15:00:00,19.11074,72.86084,NH3,6,34,16
India,Maharashtra,Mumbai,"Chhatrapati Shivaji Intl. Airport (T2), Mumbai - MPCB",01-03-2024 15:00:00,19.10078,72.87462,PM2.5,22,381,63
India,Maharashtra,Mumbai,"Chhatrapati Shivaji Intl. Airport (T2), Mumbai - MPCB",01-03-2024 15:00:00,19.10078,72.87462,OZONE,4,31,9
India,Maharashtra,Mumbai,"Colaba, Mumbai - MPCB",01-03-2024 15:00:00,18.910000,72.820000,OZONE,6,16,11
India,Maharashtra,Mumbai,"Kandivali East, Mumbai - MPCB",01-03-2024 15:00:00,19.205800,72.868200,SO2,75,82,78
India,Maharashtra,Mumbai,"Kherwadi_Bandra East, Mumbai - MPCB",01-03-2024 15:00:00,19.0632143,72.8456324,NO2,11,109,58
India,Maharashtra,Mumbai,"Kurla, Mumbai - MPCB",01-03-2024 15:00:00,19.0863,72.8888,NH3,2,2,2
India,Maharashtra,Mumbai,"Mazgaon, Mumbai - IITM",01-03-2024 15:00:00,18.96702,72.84214,PM2.5,90,184,138
India,Maharashtra,Mumbai,"Mulund West, Mumbai - MPCB",01-03-2024 15:00:00,19.1750,72.9419,NO2,23,29,25
India,Maharashtra,Mumbai,"Mulund West, Mumbai - MPCB",01-03-2024 15:00:00,19.1750,72.9419,NH3,9,11,10
India,Maharashtra,Mumbai,"Mulund West, Mumbai - MPCB",01-03-2024 15:00:00,19.1750,72.9419,SO2,14,15,14
India,Maharashtra,Mumbai,"Mulund West, Mumbai - MPCB",01-03-2024 15:00:00,19.1750,72.9419,CO,30,30,30
India,Maharashtra,Mumbai,"Navy Nagar-Colaba, Mumbai - IITM",01-03-2024 15:00:00,18.897756,72.813320,PM2.5,90,214,116
India,Maharashtra,Mumbai,"Navy Nagar-Colaba, Mumbai - IITM",01-03-2024 15:00:00,18.897756,72.813320,PM10,104,176,131
India,Maharashtra,Mumbai,"Navy Nagar-Colaba, Mumbai - IITM",01-03-2024 15:00:00,18.897756,72.813320,SO2,1,35,6
India,Maharashtra,Mumbai,"Powai, Mumbai - MPCB",01-03-2024 15:00:00,19.137500,72.915056,NO2,24,49,34
India,Maharashtra,Mumbai,"Powai, Mumbai - MPCB",01-03-2024 15:00:00,19.137500,72.915056,CO,36,46,42
India,Maharashtra,Mumbai,"Shivaji Nagar, Mumbai - BMC",01-03-2024 15:00:00,19.060498,72.923356,NH3,5,9,8
India,Maharashtra,Mumbai,"Siddharth Nagar-Worli, Mumbai - IITM",01-03-2024 15:00:00,19.000083,72.813993,PM10,130,208,163
India,Maharashtra,Mumbai,"Siddharth Nagar-Worli, Mumbai - IITM",01-03-2024 15:00:00,19.000083,72.813993,NO2,78,160,110
India,Maharashtra,Mumbai,"Siddharth Nagar-Worli, Mumbai - IITM",01-03-2024 15:00:00,19.000083,72.813993,CO,12,66,56
India,Maharashtra,Mumbai,"Sion, Mumbai - MPCB",01-03-2024 15:00:00,19.047000,72.874600,PM10,48,143,105
India,Maharashtra,Mumbai,"Vasai West, Mumbai - MPCB",01-03-2024 15:00:00,19.383200,72.820400,NO2,25,29,27
India,Maharashtra,Mumbai,"Vasai West, Mumbai - MPCB",01-03-2024 15:00:00,19.383200,72.820400,NH3,4,4,4
India,Maharashtra,Mumbai,"Vasai West, Mumbai - MPCB",01-03-2024 15:00:00,19.383200,72.820400,CO,18,42,29
India,Maharashtra,Mumbai,"Vasai West, Mumbai - MPCB",01-03-2024 15:00:00,19.383200,72.820400,OZONE,8,86,20
India,Maharashtra,Mumbai,"Worli, Mumbai - MPCB",01-03-2024 15:00:00,18.9936162,72.8128113,PM10,46,155,105
India,Maharashtra,Nagpur,"Ambazari, Nagpur - MPCB",01-03-2024 15:00:00,21.121801,79.04952,PM2.5,78,121,90
India,Maharashtra,Nagpur,"Ambazari, Nagpur - MPCB",01-03-2024 15:00:00,21.121801,79.04952,NH3,3,8,4
India,Maharashtra,Nagpur,"Mahal, Nagpur - MPCB",01-03-2024 15:00:00,21.14472,79.107595,NO2,12,47,22
India,Maharashtra,Nagpur,"Mahal, Nagpur - MPCB",01-03-2024 15:00:00,21.14472,79.107595,NH3,4,11,7
India,Maharashtra,Nagpur,"Opp GPO Civil Lines, Nagpur - MPCB",01-03-2024 15:00:00,21.152875,79.0517531,NH3,2,4,3
India,Maharashtra,Nagpur,"Opp GPO Civil Lines, Nagpur - MPCB",01-03-2024 15:00:00,21.152875,79.0517531,CO,22,96,36
India,Maharashtra,Nanded,"Sneh Nagar, Nanded - MPCB",01-03-2024 15:00:00,19.173852,77.296291,CO,30,40,34
India,Maharashtra,Nashik,"Gangapur Road, Nashik - MPCB",01-03-2024 15:00:00,20.0073285,73.7762427,CO,18,18,18
India,Maharashtra,Nashik,"Hirawadi, Nashik - MPCB",01-03-2024 15:00:00,20.021503,73.813844,PM10,36,105,72
India,Maharashtra,Nashik,"MIDC Ambad, Nashik - MPCB",01-03-2024 15:00:00,19.950220,73.731480,PM2.5,45,125,79
India,Maharashtra,Nashik,"MIDC Ambad, Nashik - MPCB",01-03-2024 15:00:00,19.950220,73.731480,NO2,15,86,38
India,Maharashtra,Nashik,"Pandav Nagari, Nashik - MPCB",01-03-2024 15:00:00,19.9591346,73.7788008,PM2.5,49,84,60
India,Maharashtra,Nashik,"Pandav Nagari, Nashik - MPCB",01-03-2024 15:00:00,19.9591346,73.7788008,PM10,39,131,83
India,Maharashtra,Navi Mumbai,"Kopripada-Vashi, Navi Mumbai - MPCB",01-03-2024 15:00:00,19.090337,73.014232,OZONE,10,182,46
India,Maharashtra,Navi Mumbai,"Mahape, Navi Mumbai - MPCB",01-03-2024 15:00:00,19.1135051,73.008978,PM10,NA,NA,NA
India,Maharashtra,Navi Mumbai,"Mahape, Navi Mumbai - MPCB",01-03-2024 15:00:00,19.1135051,73.008978,SO2,26,27,26
India,Maharashtra,Navi Mumbai,"Mahape, Navi Mumbai - MPCB",01-03-2024 15:00:00,19.1135051,73.008978,CO,38,76,64
India,Maharashtra,Navi Mumbai,"Sanpada, Navi Mumbai - MPCB",01-03-2024 15:00:00,19.0575752,73.0151367,OZONE,10,171,171
India,Maharashtra,Navi Mumbai,"Sector-2E Kalamboli, Navi Mumbai - MPCB",01-03-2024 15:00:00,19.02579,73.10297,NO2,27,95,50
India,Maharashtra,Navi Mumbai,"Sector-2E Kalamboli, Navi Mumbai - MPCB",01-03-2024 15:00:00,19.02579,73.10297,SO2,20,55,29
India,Maharashtra,Parbhani,"Masoom Colony, Parbhani - MPCB",01-03-2024 15:00:00,19.265594,76.761463,PM10,93,500,122
India,Maharashtra,Pimpri-Chinchwad,"Gavalinagar, Pimpri Chinchwad - MPCB",01-03-2024 15:00:00,18.63673,73.82487,PM2.5,71,166,122
India,Maharashtra,Pimpri-Chinchwad,"Park Street Wakad, Pimpri Chinchwad - MPCB",01-03-2024 15:00:00,18.59051,73.77946,PM10,91,181,127
India,Maharashtra,Pimpri-Chinchwad,"Park Street Wakad, Pimpri Chinchwad - MPCB",01-03-2024 15:00:00,18.59051,73.77946,NH3,8,18,12
India,Maharashtra,Pimpri-Chinchwad,"Thergaon, Pimpri Chinchwad - MPCB",01-03-2024 15:00:00,18.616318,73.765797,NO2,NA,NA,NA
India,Maharashtra,Pimpri-Chinchwad,"Thergaon, Pimpri Chinchwad - MPCB",01-03-2024 15:00:00,18.616318,73.765797,SO2,NA,NA,NA
India,Maharashtra,Pune,"Bhosari, Pune - IITM",01-03-2024 15:00:00,18.640051,73.848956,OZONE,9,125,58
India,Maharashtra,Pune,"Katraj Dairy, Pune - MPCB",01-03-2024 15:00:00,18.454450,73.854155,PM10,49,114,88
India,Maharashtra,Pune,"Katraj Dairy, Pune - MPCB",01-03-2024 15:00:00,18.454450,73.854155,NO2,NA,NA,NA
India,Maharashtra,Pune,"Katraj Dairy, Pune - MPCB",01-03-2024 15:00:00,18.454450,73.854155,SO2,1,16,7
India,Maharashtra,Pune,"Mhada Colony, Pune - IITM",01-03-2024 15:00:00,18.573040,73.927715,PM10,28,110,77
India,Maharashtra,Pune,"Revenue Colony-Shivajinagar, Pune - IITM",01-03-2024 15:00:00,18.530085,73.849598,PM10,60,424,142
India,Maharashtra,Pune,"Revenue Colony-Shivajinagar, Pune - IITM",01-03-2024 15:00:00,18.530085,73.849598,NO2,91,225,141
India,Maharashtra,Pune,"Revenue Colony-Shivajinagar, Pune - IITM",01-03-2024 15:00:00,18.530085,73.849598,CO,104,115,110
India,Maharashtra,Pune,"Transport Nagar-Nigdi, Pune - IITM",01-03-2024 15:00:00,18.664282,73.763966,CO,46,70,54
India,Maharashtra,Sangli,"Vijay Nagar, Sangli - MPCB",01-03-2024 15:00:00, 16.5038,74.3623,CO,13,111,27
India,Maharashtra,Solapur,"Dnyaneshwar Nagar, Solapur - MPCB",01-03-2024 15:00:00,17.6336264,75.9132495,PM10,60,179,100
India,Maharashtra,Solapur,"Dnyaneshwar Nagar, Solapur - MPCB",01-03-2024 15:00:00,17.6336264,75.9132495,CO,9,56,15
India,Maharashtra,Solapur,"Ratandeep Housing Society, Solapur - MPCB",01-03-2024 15:00:00,17.65439,75.90649,CO,14,114,20
India,Maharashtra,Solapur,"Solapur, Solapur - MPCB",01-03-2024 15:00:00,17.6599188,75.9063906,SO2,32,40,36
India,Maharashtra,Thane,"Pimpleshwar Mandir, Thane - MPCB",01-03-2024 15:00:00,19.192056,72.9585188,PM10,81,216,154
India,Maharashtra,Thane,"Upvan Fort, Thane - MPCB",01-03-2024 15:00:00,19.222279,72.957979,NH3,12,22,14
India,Maharashtra,Ulhasnagar,"Sidhi Vinayak Nagar, Ulhasnagar - MPCB",01-03-2024 15:00:00,19.235581,73.159121,NO2,14,74,49
India,Maharashtra,Ulhasnagar,"Sidhi Vinayak Nagar, Ulhasnagar - MPCB",01-03-2024 15:00:00,19.235581,73.159121,CO,22,107,56
India,Maharashtra,Virar,"Bolinj, Virar - MPCB",01-03-2024 15:00:00,19.4458210,72.7988231,NO2,12,72,36
India,Maharashtra,Virar,"Bolinj, Virar - MPCB",01-03-2024 15:00:00,19.4458210,72.7988231,CO,26,102,58
India,Maharashtra,Virar,"Bolinj, Virar - MPCB",01-03-2024 15:00:00,19.4458210,72.7988231,OZONE,6,94,37
India,Manipur,Imphal,"DM College of Science, Imphal - Manipur PCB",01-03-2024 15:00:00,24.8207389,93.9423085,SO2,83,88,86
India,Meghalaya,Shillong,"Lumpyngngad, Shillong - Meghalaya PCB",01-03-2024 15:00:00,25.5586,91.8985,PM2.5,79,248,134
India,Mizoram,Aizawl,"Sikulpuikawn, Aizawl - Mizoram PCB",01-03-2024 15:00:00,23.7176342,92.7192841,OZONE,9,18,14
India,Nagaland,Kohima,"PWD Juction, Kohima - NPCB",01-03-2024 15:00:00,25.6635413,94.0989878,NH3,1,1,1
India,Odisha,Angul,"Hakimapada, Angul - OSPCB",01-03-2024 15:00:00,20.832874,85.104082,NO2,8,41,21
India,Odisha,Angul,"Hakimapada, Angul - OSPCB",01-03-2024 15:00:00,20.832874,85.104082,NH3,1,2,1
India,Odisha,Angul,"Hakimapada, Angul - OSPCB",01-03-2024 15:00:00,20.832874,85.104082,CO,34,118,72
India,Odisha,Balasore,"Kalidaspur, Balasore - OSPCB",01-03-2024 15:00:00,21.51161,86.89088,NO2,3,50,21
India,Odisha,Baripada,"Meher Colony, Baripada - OSPCB",01-03-2024 15:00:00,21.941841,86.728318,PM10,42,140,108
India,Odisha,Baripada,"Meher Colony, Baripada - OSPCB",01-03-2024 15:00:00,21.941841,86.728318,NO2,1,6,2
India,Odisha,Baripada,"Meher Colony, Baripada - OSPCB",01-03-2024 15:00:00,21.941841,86.728318,SO2,2,6,6
India,Odisha,Bhubaneswar,"Lingraj Mandir, Bhubaneswar - OSPCB",01-03-2024 15:00:00,20.240790,85.836784,CO,46,72,63
India,Odisha,Bhubaneswar,"Lingraj Mandir, Bhubaneswar - OSPCB",01-03-2024 15:00:00,20.240790,85.836784,OZONE,4,138,40
India,Odisha,Bhubaneswar,"Patia, Bhubaneswar - OSPCB",01-03-2024 15:00:00,20.34652,85.81630,PM2.5,52,193,82
India,Odisha,Bileipada,"Tata Township, Bileipada - OSPCB",01-03-2024 15:00:00,22.06156703,85.47409613,CO,18,36,28
India,Odisha,Brajrajnagar,"GM Office, Brajrajnagar - OSPCB",01-03-2024 15:00:00,21.8004996,83.8396977,PM2.5,23,192,66
India,Odisha,Brajrajnagar,"GM Office, Brajrajnagar - OSPCB",01-03-2024 15:00:00,21.8004996,83.8396977,NO2,18,23,20
India,Odisha,Brajrajnagar,"GM Office, Brajrajnagar - OSPCB",01-03-2024 15:00:00,21.8004996,83.8396977,NH3,1,2,2
India,Odisha,Brajrajnagar,"GM Office, Brajrajnagar - OSPCB",01-03-2024 15:00:00,21.8004996,83.8396977,CO,46,106,54
India,Odisha,Byasanagar,"Ferro Chrome Colony, Byasanagar - OSPCB",01-03-2024 15:00:00,20.94185,86.11510,PM10,95,151,116
India,Odisha,Byasanagar,"Ferro Chrome Colony, Byasanagar - OSPCB",01-03-2024 15:00:00,20.94185,86.11510,NH3,2,5,3
India,Odisha,Byasanagar,"Ferro Chrome Colony, Byasanagar - OSPCB",01-03-2024 15:00:00,20.94185,86.11510,SO2,4,44,13
India,Odisha,Cuttack,"CDA Area, Cuttack - OSPCB",01-03-2024 15:00:00,20.48891     ,85.84768     ,SO2,2,44,13
India,Odisha,Nayagarh,"Dabuna, Nayagarh - OSPCB",01-03-2024 15:00:00,21.847279,85.416905,PM2.5,72,180,111
India,Odisha,Nayagarh,"Dabuna, Nayagarh - OSPCB",01-03-2024 15:00:00,21.847279,85.416905,NH3,1,5,4
India,Odisha,Nayagarh,"Dabuna, Nayagarh - OSPCB",01-03-2024 15:00:00,21.847279,85.416905,CO,11,22,17
India,Odisha,Rairangpur,"Divisional Forest Office, Rairangpur - OSPCB",01-03-2024 15:00:00,22.265816,86.174829,PM2.5,77,191,109
India,Odisha,Rairangpur,"Divisional Forest Office, Rairangpur - OSPCB",01-03-2024 15:00:00,22.265816,86.174829,NH3,5,5,5
India,Odisha,Suakati,"OMC Colony, Suakati - OSPCB",01-03-2024 15:00:00,21.606865,85.510538,NH3,14,58,22
India,Odisha,Suakati,"OMC Colony, Suakati - OSPCB",01-03-2024 15:00:00,21.606865,85.510538,SO2,3,60,19
India,Odisha,Suakati,"OMC Colony, Suakati - OSPCB",01-03-2024 15:00:00,21.606865,85.510538,CO,12,28,14
India,Odisha,Talcher,"Talcher Coalfields,Talcher - OSPCB",01-03-2024 15:00:00,20.9360711,85.1707021,NH3,6,8,8
India,Odisha,Talcher,"Talcher Coalfields,Talcher - OSPCB",01-03-2024 15:00:00,20.9360711,85.1707021,CO,8,122,53
India,Odisha,Talcher,"Talcher Coalfields,Talcher - OSPCB",01-03-2024 15:00:00,20.9360711,85.1707021,OZONE,5,31,18
India,Odisha,Tensa,"Barsua Iron Ore Mines, Tensa - OSPCB",01-03-2024 15:00:00,21.869985,85.167016,NH3,6,10,8
India,Odisha,Tensa,"Barsua Iron Ore Mines, Tensa - OSPCB",01-03-2024 15:00:00,21.869985,85.167016,SO2,9,21,14
India,Punjab,Amritsar,"Golden Temple, Amritsar - PPCB",01-03-2024 15:00:00,31.620000,74.876512,NH3,7,7,7
India,Punjab,Amritsar,"Golden Temple, Amritsar - PPCB",01-03-2024 15:00:00,31.620000,74.876512,OZONE,24,35,29
India,Punjab,Jalandhar,"Civil Line, Jalandhar - PPCB",01-03-2024 15:00:00,31.321907,75.578914,NH3,2,5,2
India,Punjab,Jalandhar,"Civil Line, Jalandhar - PPCB",01-03-2024 15:00:00,31.321907,75.578914,CO,27,89,48
India,Punjab,Khanna,"Kalal Majra, Khanna - PPCB",01-03-2024 15:00:00,30.736056 ,76.209694,PM10,67,229,100
India,Punjab,Khanna,"Kalal Majra, Khanna - PPCB",01-03-2024 15:00:00,30.736056 ,76.209694,SO2,NA,NA,NA
India,Punjab,Khanna,"Kalal Majra, Khanna - PPCB",01-03-2024 15:00:00,30.736056 ,76.209694,CO,35,43,38
India,Punjab,Ludhiana,"Punjab Agricultural University, Ludhiana - PPCB",01-03-2024 15:00:00,30.9028,75.8086,CO,12,107,51
India,Punjab,Mandi Gobindgarh,"RIMT University, Mandi Gobindgarh - PPCB",01-03-2024 15:00:00,30.649961,76.331442,NO2,NA,NA,NA
India,Punjab,Mandi Gobindgarh,"RIMT University, Mandi Gobindgarh - PPCB",01-03-2024 15:00:00,30.649961,76.331442,SO2,4,97,23
India,Punjab,Patiala,"Model Town, Patiala - PPCB",01-03-2024 15:00:00,30.349388,76.366642,PM2.5,58,214,105
India,Punjab,Patiala,"Model Town, Patiala - PPCB",01-03-2024 15:00:00,30.349388,76.366642,CO,49,65,59
India,Punjab,Rupnagar,"Ratanpura, Rupnagar - Ambuja Cements",01-03-2024 15:00:00,31.0325454,76.5623046,SO2,4,10,9
India,Rajasthan,Ajmer,"Civil Lines,  Ajmer - RSPCB",01-03-2024 15:00:00,26.470859,74.646594,PM10,45,125,73
India,Rajasthan,Ajmer,"Civil Lines,  Ajmer - RSPCB",01-03-2024 15:00:00,26.470859,74.646594,NO2,1,7,2
India,Rajasthan,Alwar,"Moti Doongri, Alwar - RSPCB",01-03-2024 15:00:00,27.554793,76.611536,NO2,38,67,49
India,Rajasthan,Banswara,"Rati Talai, Banswara - RSPCB",01-03-2024 15:00:00,23.555190,74.440010,SO2,7,22,16
India,Rajasthan,Banswara,"Rati Talai, Banswara - RSPCB",01-03-2024 15:00:00,23.555190,74.440010,OZONE,18,143,76
India,Rajasthan,Baran,"Bamboliya, Baran - RSPCB",01-03-2024 15:00:00,25.106006,76.469948,PM10,46,120,77
India,Rajasthan,Baran,"Bamboliya, Baran - RSPCB",01-03-2024 15:00:00,25.106006,76.469948,SO2,9,25,14
India,Rajasthan,Baran,"Bamboliya, Baran - RSPCB",01-03-2024 15:00:00,25.106006,76.469948,OZONE,46,128,82
India,Rajasthan,Barmer,"Railway Colony, Barmer - RSPCB",01-03-2024 15:00:00,25.747299,71.393989,NH3,7,36,15
India,Rajasthan,Barmer,"Railway Colony, Barmer - RSPCB",01-03-2024 15:00:00,25.747299,71.393989,SO2,8,15,11
India,Rajasthan,Bharatpur,"Krishna Nagar, Bharatpur - RSPCB",01-03-2024 15:00:00,27.215415,77.50873,NO2,24,98,66
India,Rajasthan,Bhilwara,"Pratap Nagar, Bhilwara - RSPCB",01-03-2024 15:00:00,25.339605,74.618883,PM10,35,132,67
India,Rajasthan,Bhiwadi,"Vasundhara Nagar_UIT, Bhiwadi - RSPCB",01-03-2024 15:00:00,28.207266,76.829265,PM10,59,440,221
India,Rajasthan,Bhiwadi,"Vasundhara Nagar_UIT, Bhiwadi - RSPCB",01-03-2024 15:00:00,28.207266,76.829265,OZONE,8,106,40
India,Rajasthan,Bikaner,"MM Ground, Bikaner - RSPCB",01-03-2024 15:00:00,28.018792,73.292658,PM2.5,32,114,55
India,Rajasthan,Bikaner,"MM Ground, Bikaner - RSPCB",01-03-2024 15:00:00,28.018792,73.292658,PM10,53,224,131
India,Rajasthan,Bikaner,"MM Ground, Bikaner - RSPCB",01-03-2024 15:00:00,28.018792,73.292658,NO2,60,113,81
India,Rajasthan,Bikaner,"MM Ground, Bikaner - RSPCB",01-03-2024 15:00:00,28.018792,73.292658,SO2,2,9,5
India,Rajasthan,Bikaner,"MM Ground, Bikaner - RSPCB",01-03-2024 15:00:00,28.018792,73.292658,OZONE,4,83,46
India,Rajasthan,Bundi,"New Colony, Bundi - RSPCB",01-03-2024 15:00:00,25.435774,75.644272,NO2,1,79,23
India,Rajasthan,Bundi,"New Colony, Bundi - RSPCB",01-03-2024 15:00:00,25.435774,75.644272,NH3,3,4,3
India,Rajasthan,Bundi,"New Colony, Bundi - RSPCB",01-03-2024 15:00:00,25.435774,75.644272,SO2,5,23,9
India,Rajasthan,Chittorgarh,"Shastri Nagar, Chittorgarh - RSPCB",01-03-2024 15:00:00,24.892047,74.623527,PM10,46,355,108
India,Rajasthan,Churu,"Subash Chowk, Churu - RSPCB",01-03-2024 15:00:00,28.296139,74.961696,PM2.5,10,301,98
India,Rajasthan,Churu,"Subash Chowk, Churu - RSPCB",01-03-2024 15:00:00,28.296139,74.961696,PM10,26,178,96
India,Rajasthan,Churu,"Subash Chowk, Churu - RSPCB",01-03-2024 15:00:00,28.296139,74.961696,OZONE,57,129,78
India,Rajasthan,Dholpur,"Raja Ganj, Dholpur - RSPCB",01-03-2024 15:00:00,26.699557,77.898881,OZONE,1,128,71
India,Rajasthan,Jaipur,"Adarsh Nagar, Jaipur - RSPCB",01-03-2024 15:00:00,26.902909,75.836858,PM2.5,28,95,57
India,Rajasthan,Jaipur,"Mansarovar Sector-12, Jaipur - RSPCB",01-03-2024 15:00:00,26.843698,75.766894,PM2.5,26,98,61
India,Rajasthan,Jaipur,"Mansarovar Sector-12, Jaipur - RSPCB",01-03-2024 15:00:00,26.843698,75.766894,SO2,5,7,6
India,Rajasthan,Jaipur,"Police Commissionerate, Jaipur - RSPCB",01-03-2024 15:00:00,26.9164092,75.7994901,PM10,68,140,101
India,Rajasthan,Jaipur,"Police Commissionerate, Jaipur - RSPCB",01-03-2024 15:00:00,26.9164092,75.7994901,NH3,9,12,10
India,Rajasthan,Jaipur,"Police Commissionerate, Jaipur - RSPCB",01-03-2024 15:00:00,26.9164092,75.7994901,SO2,14,27,22
India,Rajasthan,Jaipur,"Police Commissionerate, Jaipur - RSPCB",01-03-2024 15:00:00,26.9164092,75.7994901,OZONE,14,87,68
India,Rajasthan,Jaipur,"RIICO Sitapura, Jaipur - RSPCB",01-03-2024 15:00:00,26.786682,75.827928,PM2.5,32,338,174
India,Rajasthan,Jaipur,"RIICO Sitapura, Jaipur - RSPCB",01-03-2024 15:00:00,26.786682,75.827928,NO2,18,188,56
India,Rajasthan,Jaipur,"Sector-2 Murlipura, Jaipur - RSPCB",01-03-2024 15:00:00,26.960669,75.771817,PM10,67,189,106
India,Rajasthan,Jaipur,"Sector-2 Murlipura, Jaipur - RSPCB",01-03-2024 15:00:00,26.960669,75.771817,CO,2,83,24
India,Rajasthan,Jaipur,"Shastri Nagar, Jaipur - RSPCB",01-03-2024 15:00:00,26.9502929,75.730943,NO2,11,72,31
India,Rajasthan,Jaisalmer,"Sadar Bazar, Jaisalmer - RSPCB",01-03-2024 15:00:00,26.912329,70.909168,PM10,59,132,98
India,Rajasthan,Jaisalmer,"Sadar Bazar, Jaisalmer - RSPCB",01-03-2024 15:00:00,26.912329,70.909168,CO,2,44,33
India,Rajasthan,Jalore,"Mudtra Sili, Jalore - RSPCB",01-03-2024 15:00:00,25.344694,72.626208,NH3,5,9,7
India,Rajasthan,Jhalawar,"Rajlaxmi Nagar, Jhalawar - RSPCB",01-03-2024 15:00:00,24.588397,76.172782,PM10,54,126,80
India,Rajasthan,Jhalawar,"Rajlaxmi Nagar, Jhalawar - RSPCB",01-03-2024 15:00:00,24.588397,76.172782,NH3,5,8,7
India,Rajasthan,Jhunjhunu,"Indra Nagar, Jhunjhunu - RSPCB",01-03-2024 15:00:00,28.108988,75.386577,PM2.5,12,347,83
India,Rajasthan,Jodhpur,"Digari Kalan, Jodhpur - RSPCB",01-03-2024 15:00:00,26.295810,73.082283,NH3,6,9,7
India,Rajasthan,Jodhpur,"Jhalamand, Jodhpur - RSPCB",01-03-2024 15:00:00,26.215415,73.070156,PM2.5,34,328,109
India,Rajasthan,Jodhpur,"Jhalamand, Jodhpur - RSPCB",01-03-2024 15:00:00,26.215415,73.070156,CO,12,68,22
India,Rajasthan,Jodhpur,"Samrat Ashok Udhyan, Jodhpur - RSPCB",01-03-2024 15:00:00,26.253384,72.976571,PM10,60,298,124
India,Rajasthan,Jodhpur,"Samrat Ashok Udhyan, Jodhpur - RSPCB",01-03-2024 15:00:00,26.253384,72.976571,NH3,4,7,6
India,Rajasthan,Karauli,"Satyawati Vihar, Karauli - RSPCB",01-03-2024 15:00:00,26.506177,77.025989,NO2,8,33,16
India,Rajasthan,Kota,"Dhanmandi, Kota - RSPCB",01-03-2024 15:00:00,25.164090,75.858137,NO2,35,134,73
India,Rajasthan,Kota,"Nayapura, Kota - RSPCB",01-03-2024 15:00:00,25.196024,75.855668,NH3,5,10,7
India,Rajasthan,Kota,"Shrinath Puram, Kota - RSPCB",01-03-2024 15:00:00,25.14389,75.821256,PM10,78,126,97
India,Rajasthan,Kota,"Shrinath Puram, Kota - RSPCB",01-03-2024 15:00:00,25.14389,75.821256,NH3,9,12,10
India,Rajasthan,Sawai Madhopur,"Sahu Nagar, Sawai Madhopur - RSPCB",01-03-2024 15:00:00,26.031443,76.359327,PM10,38,179,79
India,Rajasthan,Sawai Madhopur,"Sahu Nagar, Sawai Madhopur - RSPCB",01-03-2024 15:00:00,26.031443,76.359327,NH3,10,39,25
India,Rajasthan,Sikar,"Radhakishan Pura, Sikar - RSPCB",01-03-2024 15:00:00,27.608912,75.153302,SO2,5,27,12
India,Rajasthan,Sri Ganganagar,"Old City, Sri Ganganagar - RSPCB",01-03-2024 15:00:00,29.931624,73.864511,PM10,124,500,304
India,Rajasthan,Tonk,"Shastri Nagar, Tonk - RSPCB",01-03-2024 15:00:00,26.159933,75.780517,PM10,56,141,95
India,Rajasthan,Tonk,"Shastri Nagar, Tonk - RSPCB",01-03-2024 15:00:00,26.159933,75.780517,NO2,18,66,26
India,Rajasthan,Udaipur,"Ashok Nagar, Udaipur - RSPCB",01-03-2024 15:00:00,24.5886166,73.6321397,PM2.5,93,292,191
India,Rajasthan,Udaipur,"Ashok Nagar, Udaipur - RSPCB",01-03-2024 15:00:00,24.5886166,73.6321397,OZONE,3,74,51
India,Sikkim,Gangtok,"Zero Point GICI, Gangtok - SSPCB",01-03-2024 15:00:00,27.338530,88.614099,NO2,1,12,5
India,TamilNadu,Ariyalur,"Keelapalur, Ariyalur - TNPCB",01-03-2024 15:00:00,11.06825,79.07033,CO,9,9,9
India,TamilNadu,Chengalpattu,"Crescent University, Chengalpattu - TNPCB",01-03-2024 15:00:00,12.8777316,80.0834807,PM2.5,NA,NA,NA
India,TamilNadu,Chengalpattu,"Crescent University, Chengalpattu - TNPCB",01-03-2024 15:00:00,12.8777316,80.0834807,PM10,NA,NA,NA
India,TamilNadu,Chengalpattu,"Crescent University, Chengalpattu - TNPCB",01-03-2024 15:00:00,12.8777316,80.0834807,SO2,23,26,25
India,TamilNadu,Chennai,"Alandur Bus Depot, Chennai - CPCB",01-03-2024 15:00:00,12.9099161,80.1076538,SO2,6,12,9
India,TamilNadu,Chennai,"Arumbakkam, Chennai - TNPCB",01-03-2024 15:00:00,13.0664,80.2112 ,NH3,1,4,3
India,TamilNadu,Chennai,"Kodungaiyur, Chennai - TNPCB",01-03-2024 15:00:00,13.1278,80.2642,PM10,59,131,84
India,TamilNadu,Chennai,"Kodungaiyur, Chennai - TNPCB",01-03-2024 15:00:00,13.1278,80.2642,NH3,3,5,4
India,TamilNadu,Chennai,"Kodungaiyur, Chennai - TNPCB",01-03-2024 15:00:00,13.1278,80.2642,SO2,1,13,5
India,TamilNadu,Chennai,"Kodungaiyur, Chennai - TNPCB",01-03-2024 15:00:00,13.1278,80.2642,CO,8,60,32
India,TamilNadu,Chennai,"Manali, Chennai - CPCB",01-03-2024 15:00:00,13.164544,80.26285,PM10,7,500,98
India,TamilNadu,Chennai,"Manali, Chennai - CPCB",01-03-2024 15:00:00,13.164544,80.26285,CO,16,107,66
India,TamilNadu,Chennai,"Manali, Chennai - CPCB",01-03-2024 15:00:00,13.164544,80.26285,OZONE,12,125,31
India,TamilNadu,Chennai,"Perungudi, Chennai - TNPCB",01-03-2024 15:00:00,12.9533,80.2357,PM2.5,49,169,69
India,TamilNadu,Chennai,"Perungudi, Chennai - TNPCB",01-03-2024 15:00:00,12.9533,80.2357,CO,7,92,26
India,TamilNadu,Chennai,"Velachery Res. Area, Chennai - CPCB",01-03-2024 15:00:00,13.0052189,80.2398125,PM10,53,126,75
India,TamilNadu,Chennai,"Velachery Res. Area, Chennai - CPCB",01-03-2024 15:00:00,13.0052189,80.2398125,NO2,13,64,21
India,TamilNadu,Coimbatore,"PSG College of Arts and Science, Coimbatore - TNPCB",01-03-2024 15:00:00,11.0328,77.0349,NH3,1,1,1
India,TamilNadu,Coimbatore,"PSG College of Arts and Science, Coimbatore - TNPCB",01-03-2024 15:00:00,11.0328,77.0349,SO2,14,25,20
India,TamilNadu,Coimbatore,"PSG College of Arts and Science, Coimbatore - TNPCB",01-03-2024 15:00:00,11.0328,77.0349,CO,5,7,6
India,TamilNadu,Coimbatore,"PSG College of Arts and Science, Coimbatore - TNPCB",01-03-2024 15:00:00,11.0328,77.0349,OZONE,3,5,4
India,TamilNadu,Cuddalore,"Kudikadu, Cuddalore - TNPCB",01-03-2024 15:00:00,11.6829898,79.7532099,PM2.5,49,130,74
India,TamilNadu,Cuddalore,"Semmandalam, Cuddalore - TNPCB",01-03-2024 15:00:00,11.7637683,79.7499835,NH3,1,3,2
India,TamilNadu,Gummidipoondi,"Anthoni Pillai Nagar, Gummidipoondi - TNPCB",01-03-2024 15:00:00,13.4127,80.1081,PM10,50,222,98
India,TamilNadu,Gummidipoondi,"Anthoni Pillai Nagar, Gummidipoondi - TNPCB",01-03-2024 15:00:00,13.4127,80.1081,NO2,10,15,12
India,TamilNadu,Kanchipuram,"Kilambi, Kanchipuram - TNPCB",01-03-2024 15:00:00,12.864618,79.659968,PM2.5,NA,NA,NA
India,TamilNadu,Kanchipuram,"Kilambi, Kanchipuram - TNPCB",01-03-2024 15:00:00,12.864618,79.659968,PM10,NA,NA,NA
India,TamilNadu,Ooty,"Bombay Castel, Ooty - TNPCB",01-03-2024 15:00:00,11.4068288,76.7138973,NO2,1,65,17
India,TamilNadu,Ooty,"Bombay Castel, Ooty - TNPCB",01-03-2024 15:00:00,11.4068288,76.7138973,SO2,12,13,13
India,TamilNadu,Palkalaiperur,"Bharathidasan University, Palkalaiperur - TNPCB",01-03-2024 15:00:00,10.681158,78.741746,SO2,27,29,28
India,TamilNadu,Palkalaiperur,"Bharathidasan University, Palkalaiperur - TNPCB",01-03-2024 15:00:00,10.681158,78.741746,CO,2,6,4
India,TamilNadu,Palkalaiperur,"Bharathidasan University, Palkalaiperur - TNPCB",01-03-2024 15:00:00,10.681158,78.741746,OZONE,1,1,1
India,TamilNadu,Ramanathapuram,"Chalai Bazaar, Ramanathapuram - TNPCB",01-03-2024 15:00:00,9.36399,78.831977,CO,2,6,3
India,TamilNadu,Salem,"Sona College of Technology, Salem - TNPCB",01-03-2024 15:00:00,11.679111,78.125052,NO2,NA,NA,NA
India,TamilNadu,Salem,"Sona College of Technology, Salem - TNPCB",01-03-2024 15:00:00,11.679111,78.125052,NH3,NA,NA,NA
India,TamilNadu,Salem,"Sona College of Technology, Salem - TNPCB",01-03-2024 15:00:00,11.679111,78.125052,SO2,NA,NA,NA
India,TamilNadu,Thoothukudi,"Meelavittan, Thoothukudi - TNPCB",01-03-2024 15:00:00,8.816428 ,78.099039,PM10,34,72,55
India,TamilNadu,Thoothukudi,"Meelavittan, Thoothukudi - TNPCB",01-03-2024 15:00:00,8.816428 ,78.099039,OZONE,2,10,6
India,TamilNadu,Tirupur,"Kumaran College, Tirupur - TNPCB",01-03-2024 15:00:00,11.0973603,77.3228673,PM10,NA,NA,NA
India,TamilNadu,Tirupur,"Kumaran College, Tirupur - TNPCB",01-03-2024 15:00:00,11.0973603,77.3228673,SO2,NA,NA,NA
India,TamilNadu,Tirupur,"Kumaran College, Tirupur - TNPCB",01-03-2024 15:00:00,11.0973603,77.3228673,OZONE,6,7,6
India,TamilNadu,Vellore,"Vasanthapuram, Vellore - TNPCB",01-03-2024 15:00:00,12.909494,79.131861,PM10,NA,NA,NA
India,TamilNadu,Vellore,"Vasanthapuram, Vellore - TNPCB",01-03-2024 15:00:00,12.909494,79.131861,NH3,NA,NA,NA
India,TamilNadu,Vellore,"Vasanthapuram, Vellore - TNPCB",01-03-2024 15:00:00,12.909494,79.131861,OZONE,1,2,2
India,Telangana,Hyderabad,"Bollaram Industrial Area, Hyderabad - TSPCB",01-03-2024 15:00:00,17.540891,78.358528,NO2,16,64,36
India,Telangana,Hyderabad,"Central University, Hyderabad - TSPCB",01-03-2024 15:00:00,17.460103,78.334361,PM2.5,28,62,45
India,Telangana,Hyderabad,"Central University, Hyderabad - TSPCB",01-03-2024 15:00:00,17.460103,78.334361,NH3,1,9,5
India,Telangana,Hyderabad,"ECIL Kapra, Hyderabad - TSPCB",01-03-2024 15:00:00,17.470431,78.566959,SO2,1,19,9
India,Telangana,Hyderabad,"ECIL Kapra, Hyderabad - TSPCB",01-03-2024 15:00:00,17.470431,78.566959,OZONE,7,93,61
India,Telangana,Hyderabad,"ICRISAT Patancheru, Hyderabad - TSPCB",01-03-2024 15:00:00,17.518400,78.278777,PM2.5,42,178,78
India,Telangana,Hyderabad,"ICRISAT Patancheru, Hyderabad - TSPCB",01-03-2024 15:00:00,17.518400,78.278777,PM10,53,107,82
India,Telangana,Hyderabad,"Kokapet, Hyderabad - TSPCB",01-03-2024 15:00:00,17.393559,78.339194,PM2.5,50,68,60
India,Telangana,Hyderabad,"Kokapet, Hyderabad - TSPCB",01-03-2024 15:00:00,17.393559,78.339194,NO2,9,9,9
India,Telangana,Hyderabad,"Kokapet, Hyderabad - TSPCB",01-03-2024 15:00:00,17.393559,78.339194,CO,24,25,24
India,Telangana,Hyderabad,"Kompally Municipal Office, Hyderabad - TSPCB",01-03-2024 15:00:00,17.544899,78.486949,PM2.5,29,98,55
India,Telangana,Hyderabad,"Kompally Municipal Office, Hyderabad - TSPCB",01-03-2024 15:00:00,17.544899,78.486949,NH3,6,7,6
India,Telangana,Hyderabad,"New Malakpet, Hyderabad - TSPCB",01-03-2024 15:00:00,17.37206,78.50864,PM10,56,72,63
India,Telangana,Hyderabad,"New Malakpet, Hyderabad - TSPCB",01-03-2024 15:00:00,17.37206,78.50864,CO,15,154,26
India,Telangana,Hyderabad,"Ramachandrapuram, Hyderabad - TSPCB",01-03-2024 15:00:00,17.528544,78.286195,SO2,10,18,14
India,Telangana,Hyderabad,"Sanathnagar, Hyderabad - TSPCB",01-03-2024 15:00:00,17.4559458,78.4332152,OZONE,1,120,50
India,Telangana,Hyderabad,"Zoo Park, Hyderabad - TSPCB",01-03-2024 15:00:00,17.349694,78.451437,PM10,38,156,128
India,Telangana,Hyderabad,"Zoo Park, Hyderabad - TSPCB",01-03-2024 15:00:00,17.349694,78.451437,SO2,1,6,3
India,Uttar_Pradesh,Agra,"Manoharpur, Agra - UPPCB",01-03-2024 15:00:00,27.23711,78.01936,NO2,18,19,19
India,Uttar_Pradesh,Agra,"Manoharpur, Agra - UPPCB",01-03-2024 15:00:00,27.23711,78.01936,SO2,14,20,16
India,Uttar_Pradesh,Agra,"Rohta, Agra - UPPCB",01-03-2024 15:00:00,27.106972,78.000111,OZONE,20,22,21
India,Uttar_Pradesh,Agra,"Sanjay Palace, Agra - UPPCB",01-03-2024 15:00:00,27.19865833,78.00598056,PM2.5,10,67,40
India,Uttar_Pradesh,Agra,"Sector-3B Avas Vikas Colony, Agra - UPPCB",01-03-2024 15:00:00,27.19412,77.96237,PM2.5,11,71,40
India,Uttar_Pradesh,Agra,"Sector-3B Avas Vikas Colony, Agra - UPPCB",01-03-2024 15:00:00,27.19412,77.96237,NH3,3,7,5
India,Uttar_Pradesh,Agra,"Sector-3B Avas Vikas Colony, Agra - UPPCB",01-03-2024 15:00:00,27.19412,77.96237,CO,9,42,25
India,Uttar_Pradesh,Agra,"Shahjahan Garden, Agra - UPPCB",01-03-2024 15:00:00,27.169338,78.03582,NH3,8,11,10
India,Uttar_Pradesh,Agra,"Shastripuram, Agra - UPPCB",01-03-2024 15:00:00,27.19862,77.92066,PM10,NA,NA,NA
India,Uttar_Pradesh,Baghpat,"Sardar Patel Inter College, Baghpat - UPPCB",01-03-2024 15:00:00,28.964949,77.278761,PM2.5,24,300,108
India,Uttar_Pradesh,Bareilly,"Civil Lines, Bareilly - UPPCB",01-03-2024 15:00:00,28.359581,79.414455,SO2,41,43,42
India,Uttar_Pradesh,Bareilly,"Rajendra Nagar, Bareilly - UPPCB",01-03-2024 15:00:00,28.38910936,79.42963708,NH3,1,1,1
India,Uttar_Pradesh,Bulandshahr,"Yamunapuram, Bulandshahr - UPPCB",01-03-2024 15:00:00,28.406963,77.849831,PM10,72,190,127
India,Uttar_Pradesh,Firozabad,"Nagla Bhau, Firozabad - UPPCB",01-03-2024 15:00:00,27.168897,78.376960,PM2.5,17,185,52
India,Uttar_Pradesh,Firozabad,"Nagla Bhau, Firozabad - UPPCB",01-03-2024 15:00:00,27.168897,78.376960,NO2,17,17,17
India,Uttar_Pradesh,Firozabad,"Vibhab Nagar, Firozabad - UPPCB",01-03-2024 15:00:00,27.1594,78.3953,CO,14,37,32
India,Uttar_Pradesh,Firozabad,"Vibhab Nagar, Firozabad - UPPCB",01-03-2024 15:00:00,27.1594,78.3953,OZONE,20,97,21
India,Uttar_Pradesh,Ghaziabad,"Loni, Ghaziabad - UPPCB",01-03-2024 15:00:00,28.757294,77.278792,PM10,99,277,167
India,Uttar_Pradesh,Ghaziabad,"Loni, Ghaziabad - UPPCB",01-03-2024 15:00:00,28.757294,77.278792,SO2,12,45,21
India,Uttar_Pradesh,Gorakhpur,"Madan Mohan Malaviya University of Technology, Gorakhpur - UPPCB",01-03-2024 15:00:00,26.730136,83.433859,PM2.5,35,145,70
India,Uttar_Pradesh,Gorakhpur,"Madan Mohan Malaviya University of Technology, Gorakhpur - UPPCB",01-03-2024 15:00:00,26.730136,83.433859,NO2,2,2,2
India,Uttar_Pradesh,Gorakhpur,"Madan Mohan Malaviya University of Technology, Gorakhpur - UPPCB",01-03-2024 15:00:00,26.730136,83.433859,OZONE,9,61,38
India,Uttar_Pradesh,Greater Noida,"Knowledge Park - III, Greater Noida - UPPCB",01-03-2024 15:00:00,28.47272,77.482000,OZONE,1,200,86
India,Uttar_Pradesh,Greater Noida,"Knowledge Park - V, Greater Noida - UPPCB",01-03-2024 15:00:00,28.557054,77.453663,NO2,21,56,37
India,Uttar_Pradesh,Greater Noida,"Knowledge Park - V, Greater Noida - UPPCB",01-03-2024 15:00:00,28.557054,77.453663,SO2,16,42,22
India,Uttar_Pradesh,Hapur,"Anand Vihar, Hapur - UPPCB",01-03-2024 15:00:00,28.725645,77.749675,SO2,18,87,43
India,Uttar_Pradesh,Hapur,"Anand Vihar, Hapur - UPPCB",01-03-2024 15:00:00,28.725645,77.749675,CO,40,102,88
India,Uttar_Pradesh,Jhansi,"Shivaji Nagar, Jhansi - UPPCB",01-03-2024 15:00:00,25.4547,78.6039,NH3,6,6,6
India,Uttar_Pradesh,Jhansi,"Shivaji Nagar, Jhansi - UPPCB",01-03-2024 15:00:00,25.4547,78.6039,SO2,11,16,12
India,Uttar_Pradesh,Jhansi,"Shivaji Nagar, Jhansi - UPPCB",01-03-2024 15:00:00,25.4547,78.6039,OZONE,1,27,7
India,Uttar_Pradesh,Kanpur,"FTI Kidwai Nagar, Kanpur - UPPCB",01-03-2024 15:00:00,26.428282,80.327067,PM2.5,40,177,94
India,Uttar_Pradesh,Kanpur,"FTI Kidwai Nagar, Kanpur - UPPCB",01-03-2024 15:00:00,26.428282,80.327067,NH3,3,5,4
India,Uttar_Pradesh,Kanpur,"FTI Kidwai Nagar, Kanpur - UPPCB",01-03-2024 15:00:00,26.428282,80.327067,SO2,22,23,23
India,Uttar_Pradesh,Kanpur,"NSI Kalyanpur, Kanpur - UPPCB",01-03-2024 15:00:00,26.509954,80.249612,PM10,69,175,119
India,Uttar_Pradesh,Kanpur,"NSI Kalyanpur, Kanpur - UPPCB",01-03-2024 15:00:00,26.509954,80.249612,NO2,9,13,12
India,Uttar_Pradesh,Kanpur,"NSI Kalyanpur, Kanpur - UPPCB",01-03-2024 15:00:00,26.509954,80.249612,OZONE,18,80,52
India,Uttar_Pradesh,Kanpur,"Nehru Nagar, Kanpur - UPPCB",01-03-2024 15:00:00,26.4703136,80.3229863,CO,1,108,23
India,Uttar_Pradesh,Kanpur,"Nehru Nagar, Kanpur - UPPCB",01-03-2024 15:00:00,26.4703136,80.3229863,OZONE,32,79,56
India,Uttar_Pradesh,Khurja,"Kalindi Kunj, Khurja - UPPCB",01-03-2024 15:00:00,28.2348927,77.8683002,PM10,28,136,79
India,Uttar_Pradesh,Khurja,"Kalindi Kunj, Khurja - UPPCB",01-03-2024 15:00:00,28.2348927,77.8683002,SO2,15,42,36
India,Uttar_Pradesh,Lucknow,"B R Ambedkar University, Lucknow - UPPCB",01-03-2024 15:00:00,26.766433,80.927299,PM10,58,127,103
India,Uttar_Pradesh,Lucknow,"Gomti Nagar, Lucknow - UPPCB",01-03-2024 15:00:00,26.868120,81.005119,PM2.5,8,76,40
India,Uttar_Pradesh,Lucknow,"Kendriya Vidyalaya, Lucknow - CPCB",01-03-2024 15:00:00,26.906111,80.948222,OZONE,18,68,42
India,Uttar_Pradesh,Lucknow,"Kukrail Picnic Spot-1, Lucknow - UPPCB",01-03-2024 15:00:00,26.90723,80.98579,PM10,36,91,65
India,Uttar_Pradesh,Lucknow,"Kukrail Picnic Spot-1, Lucknow - UPPCB",01-03-2024 15:00:00,26.90723,80.98579,NO2,8,9,8
India,Uttar_Pradesh,Lucknow,"Lalbagh, Lucknow - CPCB",01-03-2024 15:00:00,26.8458805,80.9365541,NO2,10,43,26
India,Uttar_Pradesh,Lucknow,"Talkatora District Industries Center, Lucknow - CPCB",01-03-2024 15:00:00,26.83399722,80.8917361,CO,3,53,23
India,Uttar_Pradesh,Meerut,"Ganga Nagar, Meerut - UPPCB",01-03-2024 15:00:00,28.999264,77.7590354,PM10,64,164,116
India,Uttar_Pradesh,Meerut,"Ganga Nagar, Meerut - UPPCB",01-03-2024 15:00:00,28.999264,77.7590354,SO2,20,41,27
India,Uttar_Pradesh,Meerut,"Jai Bhim Nagar, Meerut - UPPCB",01-03-2024 15:00:00,28.9535882,77.7622941,PM2.5,NA,NA,NA
India,Uttar_Pradesh,Meerut,"Jai Bhim Nagar, Meerut - UPPCB",01-03-2024 15:00:00,28.9535882,77.7622941,NO2,NA,NA,NA
India,Uttar_Pradesh,Meerut,"Jai Bhim Nagar, Meerut - UPPCB",01-03-2024 15:00:00,28.9535882,77.7622941,OZONE,15,122,40
India,Uttar_Pradesh,Meerut,"Pallavpuram Phase 2, Meerut - UPPCB",01-03-2024 15:00:00,29.063510,77.709723,PM10,NA,NA,NA
India,Uttar_Pradesh,Moradabad,"Eco Herbal Park, Moradabad - UPPCB",01-03-2024 15:00:00,28.840739,78.697531,NO2,1,28,5
India,Uttar_Pradesh,Moradabad,"Eco Herbal Park, Moradabad - UPPCB",01-03-2024 15:00:00,28.840739,78.697531,SO2,2,38,11
India,Uttar_Pradesh,Moradabad,"Eco Herbal Park, Moradabad - UPPCB",01-03-2024 15:00:00,28.840739,78.697531,OZONE,5,33,13
India,Uttar_Pradesh,Moradabad,"Employment Office, Moradabad - UPPCB",01-03-2024 15:00:00,28.88528,78.73880,PM2.5,NA,NA,NA
India,Uttar_Pradesh,Moradabad,"Employment Office, Moradabad - UPPCB",01-03-2024 15:00:00,28.88528,78.73880,PM10,NA,NA,NA
India,Uttar_Pradesh,Moradabad,"Jigar Colony, Moradabad - UPPCB",01-03-2024 15:00:00,28.856664,78.772638,SO2,21,29,24
India,Uttar_Pradesh,Moradabad,"Kashiram Nagar, Moradabad - UPPCB",01-03-2024 15:00:00,28.849399,78.742362,PM2.5,17,150,68
India,Uttar_Pradesh,Moradabad,"Kashiram Nagar, Moradabad - UPPCB",01-03-2024 15:00:00,28.849399,78.742362,NO2,15,31,24
India,Uttar_Pradesh,Moradabad,"Transport Nagar, Moradabad - UPPCB",01-03-2024 15:00:00,28.802625,78.753728,PM10,45,115,85
India,Uttar_Pradesh,Muzaffarnagar,"New Mandi, Muzaffarnagar - UPPCB",01-03-2024 15:00:00,29.4723508,77.7194031,PM10,105,255,169
India,Uttar_Pradesh,Noida,"Sector - 62, Noida - IMD",01-03-2024 15:00:00,28.6245479,77.3577104,CO,17,51,37
India,Uttar_Pradesh,Noida,"Sector-1, Noida - UPPCB",01-03-2024 15:00:00,28.5898,77.3101,PM10,103,261,175
India,Uttar_Pradesh,Noida,"Sector-1, Noida - UPPCB",01-03-2024 15:00:00,28.5898,77.3101,NH3,1,6,3
India,Uttar_Pradesh,Noida,"Sector-1, Noida - UPPCB",01-03-2024 15:00:00,28.5898,77.3101,SO2,4,29,11
India,Uttar_Pradesh,Noida,"Sector-1, Noida - UPPCB",01-03-2024 15:00:00,28.5898,77.3101,OZONE,1,172,172
India,Uttar_Pradesh,Noida,"Sector-116, Noida - UPPCB",01-03-2024 15:00:00,28.569230,77.393848,PM10,85,231,147
India,Uttar_Pradesh,Noida,"Sector-116, Noida - UPPCB",01-03-2024 15:00:00,28.569230,77.393848,CO,2,105,38
India,Uttar_Pradesh,Prayagraj,"Jhunsi, Prayagraj - UPPCB",01-03-2024 15:00:00,25.425602,81.917152,CO,8,29,18
India,Uttar_Pradesh,Prayagraj,"Motilal Nehru NIT, Prayagraj - UPPCB",01-03-2024 15:00:00,25.494,81.863,NH3,6,7,6
India,Uttar_Pradesh,Varanasi,"Ardhali Bazar, Varanasi - UPPCB",01-03-2024 15:00:00,25.3505986,82.9083074,NO2,15,33,24
India,Uttar_Pradesh,Varanasi,"IESD Banaras Hindu University, Varanasi - UPPCB",01-03-2024 15:00:00,25.262326,82.995408,NO2,2,2,2
India,Uttar_Pradesh,Varanasi,"IESD Banaras Hindu University, Varanasi - UPPCB",01-03-2024 15:00:00,25.262326,82.995408,SO2,20,24,22
India,Uttar_Pradesh,Varanasi,"Maldahiya, Varanasi - UPPCB",01-03-2024 15:00:00,25.32393,82.99687,PM10,14,40,28
India,Uttar_Pradesh,Varanasi,"Maldahiya, Varanasi - UPPCB",01-03-2024 15:00:00,25.32393,82.99687,CO,2,33,10
India,Uttar_Pradesh,Vrindavan,"Omex Eternity, Vrindavan - UPPCB",01-03-2024 15:00:00,27.5714090,77.6557570,CO,31,96,65
India,Uttar_Pradesh,Vrindavan,"Omex Eternity, Vrindavan - UPPCB",01-03-2024 15:00:00,27.5714090,77.6557570,OZONE,29,32,31
India,Uttarakhand,Dehradun,"Doon University, Dehradun - UKPCB",01-03-2024 15:00:00,30.269444,78.044167,CO,26,52,43
India,West_Bengal,Asansol,"Asansol Court Area, Asansol - WBPCB",01-03-2024 15:00:00,23.685297,86.945968,CO,20,86,36
India,West_Bengal,Barrackpore,"SVSPA Campus, Barrackpore - WBPCB",01-03-2024 15:00:00,22.7605581,88.3617589,NH3,2,4,3
India,West_Bengal,Barrackpore,"SVSPA Campus, Barrackpore - WBPCB",01-03-2024 15:00:00,22.7605581,88.3617589,OZONE,8,156,156
India,West_Bengal,Durgapur,"Sidhu Kanhu Indoor Stadium, Durgapur - WBPCB",01-03-2024 15:00:00,23.5404352,87.2892225,PM10,103,187,134
India,West_Bengal,Haldia,"Priyambada Housing Estate, Haldia - WBPCB",01-03-2024 15:00:00,22.06047,88.109737,PM2.5,44,101,76
India,West_Bengal,Howrah,"Belur Math, Howrah - WBPCB",01-03-2024 15:00:00,22.629801,88.352017,PM2.5,63,239,135
India,West_Bengal,Howrah,"Belur Math, Howrah - WBPCB",01-03-2024 15:00:00,22.629801,88.352017,NO2,12,45,28
India,West_Bengal,Howrah,"Padmapukur, Howrah - WBPCB",01-03-2024 15:00:00,22.5687319,88.2797276,NH3,9,37,22
India,West_Bengal,Howrah,"Padmapukur, Howrah - WBPCB",01-03-2024 15:00:00,22.5687319,88.2797276,SO2,4,38,18
India,West_Bengal,Kolkata,"Ballygunge, Kolkata - WBPCB",01-03-2024 15:00:00,22.5367507,88.3638022,PM2.5,63,221,135
India,West_Bengal,Kolkata,"Ballygunge, Kolkata - WBPCB",01-03-2024 15:00:00,22.5367507,88.3638022,SO2,19,37,28
India,West_Bengal,Kolkata,"Ballygunge, Kolkata - WBPCB",01-03-2024 15:00:00,22.5367507,88.3638022,CO,15,60,31
India,West_Bengal,Kolkata,"Bidhannagar, Kolkata - WBPCB",01-03-2024 15:00:00,22.58157048,88.41002457,NO2,NA,NA,NA
India,West_Bengal,Kolkata,"Bidhannagar, Kolkata - WBPCB",01-03-2024 15:00:00,22.58157048,88.41002457,CO,19,110,90
India,West_Bengal,Kolkata,"Fort William, Kolkata - WBPCB",01-03-2024 15:00:00,22.556640,88.342674,OZONE,12,86,45
India,West_Bengal,Kolkata,"Jadavpur, Kolkata - WBPCB",01-03-2024 15:00:00,22.49929,88.36917,PM10,78,157,131
India,West_Bengal,Kolkata,"Jadavpur, Kolkata - WBPCB",01-03-2024 15:00:00,22.49929,88.36917,SO2,6,14,9
India,West_Bengal,Kolkata,"Rabindra Bharati University, Kolkata - WBPCB",01-03-2024 15:00:00,22.627847,88.380669,PM10,70,158,113
India,West_Bengal,Kolkata,"Rabindra Bharati University, Kolkata - WBPCB",01-03-2024 15:00:00,22.627847,88.380669,CO,26,79,40
India,West_Bengal,Kolkata,"Rabindra Bharati University, Kolkata - WBPCB",01-03-2024 15:00:00,22.627847,88.380669,OZONE,1,63,42
India,West_Bengal,Kolkata,"Victoria, Kolkata - WBPCB",01-03-2024 15:00:00,22.5448082,88.3403691,CO,30,96,42
India,West_Bengal,Siliguri,"Ward-32 Bapupara, Siliguri - WBPCB",01-03-2024 15:00:00,26.6879226,88.4152495,PM2.5,25,142,111
India,West_Bengal,Siliguri,"Ward-32 Bapupara, Siliguri - WBPCB",01-03-2024 15:00:00,26.6879226,88.4152495,NH3,7,14,12
India,West_Bengal,Siliguri,"Ward-32 Bapupara, Siliguri - WBPCB",01-03-2024 15:00:00,26.6879226,88.4152495,OZONE,11,73,49
India,Andhra_Pradesh,Amaravati,"Secretariat, Amaravati - APPCB",01-03-2024 15:00:00,16.5150833,80.5181667,PM10,53,91,68
India,Andhra_Pradesh,Anantapur,"Gulzarpet, Anantapur - APPCB",01-03-2024 15:00:00,14.675886,77.593027,NO2,16,42,25
India,Andhra_Pradesh,Anantapur,"Gulzarpet, Anantapur - APPCB",01-03-2024 15:00:00,14.675886,77.593027,CO,30,60,43
India,Andhra_Pradesh,Chittoor,"Gangineni Cheruvu, Chittoor - APPCB",01-03-2024 15:00:00,13.204880,79.097889,PM10,25,83,56
India,Andhra_Pradesh,Chittoor,"Gangineni Cheruvu, Chittoor - APPCB",01-03-2024 15:00:00,13.204880,79.097889,NO2,6,27,12
India,Andhra_Pradesh,Rajamahendravaram,"Anand Kala Kshetram, Rajamahendravaram - APPCB",01-03-2024 15:00:00,16.9872867,81.7363176,PM2.5,50,104,83
India,Andhra_Pradesh,Rajamahendravaram,"Anand Kala Kshetram, Rajamahendravaram - APPCB",01-03-2024 15:00:00,16.9872867,81.7363176,NO2,13,57,28
India,Andhra_Pradesh,Tirupati,"Vaikuntapuram, Tirupati - APPCB",01-03-2024 15:00:00,13.615387,79.409230,PM10,17,422,88
India,Andhra_Pradesh,Tirupati,"Vaikuntapuram, Tirupati - APPCB",01-03-2024 15:00:00,13.615387,79.409230,NH3,2,3,3
India,Andhra_Pradesh,Vijayawada,"HB Colony, Vijayawada - APPCB",01-03-2024 15:00:00,16.536107,80.594233,PM10,49,84,62
India,Andhra_Pradesh,Vijayawada,"Kanuru, Vijayawada - APPCB",01-03-2024 15:00:00,16.486692,80.699436,PM10,58,94,78
India,Andhra_Pradesh,Vijayawada,"Kanuru, Vijayawada - APPCB",01-03-2024 15:00:00,16.486692,80.699436,CO,48,48,48
India,Andhra_Pradesh,Vijayawada,"Rajiv Gandhi Park, Vijayawada - APPCB",01-03-2024 15:00:00,16.509717,80.612222,CO,31,33,32
India,Andhra_Pradesh,Vijayawada,"Rajiv Nagar, Vijayawada - APPCB",01-03-2024 15:00:00,16.554731,80.649110,PM10,52,96,74
India,Andhra_Pradesh,Vijayawada,"Rajiv Nagar, Vijayawada - APPCB",01-03-2024 15:00:00,16.554731,80.649110,OZONE,23,52,31
India,Andhra_Pradesh,Visakhapatnam,"GVM Corporation, Visakhapatnam - APPCB",01-03-2024 15:00:00,17.72,83.3,SO2,7,24,13
India,Arunachal_Pradesh,Naharlagun,"Naharlagun, Naharlagun - APSPCB",01-03-2024 15:00:00,27.103358,93.679645,CO,12,40,13
India,Arunachal_Pradesh,Naharlagun,"Naharlagun, Naharlagun - APSPCB",01-03-2024 15:00:00,27.103358,93.679645,OZONE,2,2,2
India,Assam,Byrnihat,"Central Academy for SFS, Byrnihat - PCBA",01-03-2024 15:00:00,26.071318,91.87488,PM2.5,150,406,315
India,Assam,Byrnihat,"Central Academy for SFS, Byrnihat - PCBA",01-03-2024 15:00:00,26.071318,91.87488,PM10,123,491,300
India,Assam,Byrnihat,"Central Academy for SFS, Byrnihat - PCBA",01-03-2024 15:00:00,26.071318,91.87488,NO2,52,127,71
India,Assam,Byrnihat,"Central Academy for SFS, Byrnihat - PCBA",01-03-2024 15:00:00,26.071318,91.87488,CO,10,126,26
India,Assam,Guwahati,"IITG, Guwahati - PCBA",01-03-2024 15:00:00,26.2028636,91.70046436,PM2.5,102,331,197
India,Assam,Guwahati,"LGBI Airport, Guwahati - PCBA",01-03-2024 15:00:00,26.10887,91.589544,PM2.5,140,373,258
India,Assam,Guwahati,"LGBI Airport, Guwahati - PCBA",01-03-2024 15:00:00,26.10887,91.589544,NO2,11,94,38
India,Assam,Guwahati,"Pan Bazaar, Guwahati - PCBA",01-03-2024 15:00:00,26.187500,91.744194,CO,26,112,41
India,Assam,Guwahati,"Railway Colony, Guwahati - PCBA",01-03-2024 15:00:00,26.181742,91.78063,PM2.5,67,353,183
India,Assam,Guwahati,"Railway Colony, Guwahati - PCBA",01-03-2024 15:00:00,26.181742,91.78063,PM10,89,422,166
India,Assam,Nagaon,"Christianpatty, Nagaon - PCBA",01-03-2024 15:00:00,26.349082,92.68449,CO,13,109,23
India,Assam,Nagaon,"Christianpatty, Nagaon - PCBA",01-03-2024 15:00:00,26.349082,92.68449,OZONE,12,120,60
India,Assam,Nalbari,"Bata Chowk, Nalbari - PCBA",01-03-2024 15:00:00,26.446912,91.439057,PM2.5,70,400,190
India,Assam,Nalbari,"Bata Chowk, Nalbari - PCBA",01-03-2024 15:00:00,26.446912,91.439057,SO2,4,8,5
India,Assam,Silchar,"Tarapur, Silchar - PCBA",01-03-2024 15:00:00,24.82827,92.79525,PM2.5,43,70,53
India,Assam,Sivasagar,"Girls College, Sivasagar - PCBA",01-03-2024 15:00:00,26.987634,94.636574,PM2.5,16,41,25
India,Assam,Sivasagar,"Girls College, Sivasagar - PCBA",01-03-2024 15:00:00,26.987634,94.636574,NO2,15,27,20
India,Assam,Sivasagar,"Girls College, Sivasagar - PCBA",01-03-2024 15:00:00,26.987634,94.636574,NH3,2,2,2
India,Bihar,Aurangabad,"Gurdeo Nagar, Aurangabad - BSPCB",01-03-2024 15:00:00,24.75746,84.366208,PM10,53,139,76
India,Bihar,Aurangabad,"Gurdeo Nagar, Aurangabad - BSPCB",01-03-2024 15:00:00,24.75746,84.366208,NH3,6,9,8
India,Bihar,Aurangabad,"Gurdeo Nagar, Aurangabad - BSPCB",01-03-2024 15:00:00,24.75746,84.366208,SO2,2,11,7
India,Bihar,Bettiah,"Kamalnath Nagar, Bettiah - BSPCB",01-03-2024 15:00:00,26.80365,84.51954,NO2,20,44,37
India,Bihar,Bettiah,"Kamalnath Nagar, Bettiah - BSPCB",01-03-2024 15:00:00,26.80365,84.51954,OZONE,1,18,11
India,Bihar,Bhagalpur,"DM Office_Kachari Chowk, Bhagalpur - BSPCB",01-03-2024 15:00:00,25.251013,86.989001,PM2.5,52,315,126
India,Bihar,Bihar Sharif,"D M Colony, Bihar Sharif - BSPCB",01-03-2024 15:00:00,25.204762,85.514960,SO2,NA,NA,NA
India,Bihar,Bihar Sharif,"D M Colony, Bihar Sharif - BSPCB",01-03-2024 15:00:00,25.204762,85.514960,CO,13,54,28
India,Bihar,Buxar,"Charitra Van, Buxar - BSPCB (Formerly known as Central Jail)",01-03-2024 15:00:00,25.567520,83.966379,PM2.5,NA,NA,NA
India,Bihar,Buxar,"Charitra Van, Buxar - BSPCB (Formerly known as Central Jail)",01-03-2024 15:00:00,25.567520,83.966379,PM10,NA,NA,NA
India,Bihar,Buxar,"Charitra Van, Buxar - BSPCB (Formerly known as Central Jail)",01-03-2024 15:00:00,25.567520,83.966379,OZONE,5,168,75
India,Bihar,Gaya,"Collectorate, Gaya - BSPCB",01-03-2024 15:00:00,24.7955,84.9994,PM2.5,44,255,113
India,Bihar,Gaya,"Collectorate, Gaya - BSPCB",01-03-2024 15:00:00,24.7955,84.9994,SO2,5,16,11
India,Bihar,Gaya,"Collectorate, Gaya - BSPCB",01-03-2024 15:00:00,24.7955,84.9994,CO,3,38,19
India,Bihar,Gaya,"Kareemganj, Gaya - BSPCB",01-03-2024 15:00:00,24.792403,84.992416,SO2,4,11,8
India,Bihar,Gaya,"Kareemganj, Gaya - BSPCB",01-03-2024 15:00:00,24.792403,84.992416,CO,4,117,55
India,Bihar,Gaya,"SFTI Kusdihra, Gaya - BSPCB",01-03-2024 15:00:00,24.762518,84.982348,PM2.5,28,125,62
India,Bihar,Gaya,"SFTI Kusdihra, Gaya - BSPCB",01-03-2024 15:00:00,24.762518,84.982348,PM10,46,93,63
India,Bihar,Hajipur,"Industrial Area, Hajipur - BSPCB",01-03-2024 15:00:00,25.697189,85.245900,NH3,8,15,13
India,Bihar,Hajipur,"Industrial Area, Hajipur - BSPCB",01-03-2024 15:00:00,25.697189,85.245900,OZONE,11,89,57
India,Bihar,Katihar,"Mirchaibari, Katihar - BSPCB",01-03-2024 15:00:00,25.560083,87.553265,NH3,3,5,3
India,Bihar,Katihar,"Mirchaibari, Katihar - BSPCB",01-03-2024 15:00:00,25.560083,87.553265,CO,13,13,13
India,Bihar,Manguraha,"Forest Rest House, Manguraha - BSPCB",01-03-2024 15:00:00,27.308328,84.531742,CO,39,92,62
India,Bihar,Muzaffarpur,"MIT-Daudpur Kothi, Muzaffarpur - BSPCB",01-03-2024 15:00:00,26.1403345,85.3650192,PM10,NA,NA,NA
India,Bihar,Muzaffarpur,"MIT-Daudpur Kothi, Muzaffarpur - BSPCB",01-03-2024 15:00:00,26.1403345,85.3650192,NH3,NA,NA,NA
India,Bihar,Muzaffarpur,"Muzaffarpur Collectorate, Muzaffarpur - BSPCB",01-03-2024 15:00:00,26.1209,85.3647,NO2,2,102,18
India,Bihar,Muzaffarpur,"Muzaffarpur Collectorate, Muzaffarpur - BSPCB",01-03-2024 15:00:00,26.1209,85.3647,SO2,4,14,7
India,Bihar,Patna,"DRM Office Danapur, Patna - BSPCB",01-03-2024 15:00:00,25.586562,85.043586,OZONE,1,66,42
India,Bihar,Patna,"Govt. High School Shikarpur, Patna - BSPCB",01-03-2024 15:00:00,25.592539,85.227158,PM2.5,96,174,131
India,Bihar,Patna,"IGSC Planetarium Complex, Patna - BSPCB",01-03-2024 15:00:00,25.610369,85.132568,OZONE,3,28,19
India,Bihar,Patna,"Rajbansi Nagar, Patna - BSPCB",01-03-2024 15:00:00,25.599486,85.113666,PM10,110,493,162
India,Bihar,Patna,"Rajbansi Nagar, Patna - BSPCB",01-03-2024 15:00:00,25.599486,85.113666,CO,14,41,23
India,Bihar,Patna,"Samanpura, Patna - BSPCB",01-03-2024 15:00:00,25.596727,85.085624,NH3,2,7,4
India,Bihar,Purnia,"Mariam Nagar, Purnia - BSPCB",01-03-2024 15:00:00,25.366336,87.117468,PM2.5,10,217,100
India,Bihar,Purnia,"Mariam Nagar, Purnia - BSPCB",01-03-2024 15:00:00,25.366336,87.117468,NH3,1,1,1
India,Bihar,Purnia,"Mariam Nagar, Purnia - BSPCB",01-03-2024 15:00:00,25.366336,87.117468,SO2,17,20,18
India,Bihar,Rajgir,"Dangi Tola, Rajgir - BSPCB",01-03-2024 15:00:00,25.03280,85.41948,PM10,32,113,64
India,Bihar,Rajgir,"Dangi Tola, Rajgir - BSPCB",01-03-2024 15:00:00,25.03280,85.41948,NO2,NA,NA,NA
India,Bihar,Rajgir,"Dangi Tola, Rajgir - BSPCB",01-03-2024 15:00:00,25.03280,85.41948,OZONE,20,26,22
India,Bihar,Saharsa,"Police Line, Saharsa - BSPCB",01-03-2024 15:00:00,25.892357,86.590325,SO2,NA,NA,NA
India,Bihar,Saharsa,"Police Line, Saharsa - BSPCB",01-03-2024 15:00:00,25.892357,86.590325,CO,6,44,15
India,Bihar,Samastipur,"DM Office_Kasipur, Samastipur - BSPCB",01-03-2024 15:00:00,25.859655,85.77944,CO,1,44,22
India,Bihar,Siwan,"Chitragupta Nagar, Siwan - BSPCB",01-03-2024 15:00:00,26.2271665,84.3570427,PM10,69,143,108
India,Bihar,Siwan,"Chitragupta Nagar, Siwan - BSPCB",01-03-2024 15:00:00,26.2271665,84.3570427,SO2,15,36,32
India,Chandigarh,Chandigarh,"Sector 22, Chandigarh - CPCC",01-03-2024 15:00:00,30.735567,76.775714,NH3,17,26,22
India,Chandigarh,Chandigarh,"Sector 22, Chandigarh - CPCC",01-03-2024 15:00:00,30.735567,76.775714,SO2,10,57,22
India,Chandigarh,Chandigarh,"Sector-25, Chandigarh - CPCC",01-03-2024 15:00:00,30.751462,76.762879,PM10,121,161,133
India,Chandigarh,Chandigarh,"Sector-53, Chandigarh - CPCC",01-03-2024 15:00:00,30.719859,76.738637,NO2,29,81,56
India,Chandigarh,Chandigarh,"Sector-53, Chandigarh - CPCC",01-03-2024 15:00:00,30.719859,76.738637,NH3,4,7,5
India,Chandigarh,Chandigarh,"Sector-53, Chandigarh - CPCC",01-03-2024 15:00:00,30.719859,76.738637,OZONE,10,78,25
India,Chhattisgarh,Bhilai,"Civic Center, Bhilai - Bhilai Steel Plant",01-03-2024 15:00:00,21.185571,81.343175,NH3,NA,NA,NA
India,Chhattisgarh,Bhilai,"Civic Center, Bhilai - Bhilai Steel Plant",01-03-2024 15:00:00,21.185571,81.343175,SO2,NA,NA,NA
India,Chhattisgarh,Bhilai,"Civic Center, Bhilai - Bhilai Steel Plant",01-03-2024 15:00:00,21.185571,81.343175,CO,38,44,38
India,Chhattisgarh,Bhilai,"Hathkhoj, Bhilai - CECB",01-03-2024 15:00:00,21.224231,81.408350,CO,12,77,43
India,Chhattisgarh,Bilaspur,"Mangala, Bilaspur - NTPC",01-03-2024 15:00:00,22.08815,82.13737,PM10,27,92,50
India,Chhattisgarh,Chhal,"Nawapara SECL Colony, Chhal - CECB",01-03-2024 15:00:00,22.118125,83.140608,NH3,2,2,2
India,Chhattisgarh,Chhal,"Nawapara SECL Colony, Chhal - CECB",01-03-2024 15:00:00,22.118125,83.140608,OZONE,2,67,31
India,Chhattisgarh,Korba,"Rampur, Korba - CECB",01-03-2024 15:00:00,22.368195,82.746431,CO,14,35,27
India,Chhattisgarh,Korba,"Urja Nagar, Korba - CECB",01-03-2024 15:00:00,22.348441,82.549611,PM2.5,3,254,68
India,Chhattisgarh,Korba,"Urja Nagar, Korba - CECB",01-03-2024 15:00:00,22.348441,82.549611,NH3,3,22,9
India,Chhattisgarh,Korba,"Urja Nagar, Korba - CECB",01-03-2024 15:00:00,22.348441,82.549611,SO2,3,17,5
India,Chhattisgarh,Korba,"Urja Nagar, Korba - CECB",01-03-2024 15:00:00,22.348441,82.549611,CO,10,84,29
India,Chhattisgarh,Milupara,"Govt. Higher Secondary School, Milupara - CECB",01-03-2024 15:00:00,22.1910172,83.5197009,NO2,14,47,23
India,Chhattisgarh,Milupara,"Govt. Higher Secondary School, Milupara - CECB",01-03-2024 15:00:00,22.1910172,83.5197009,OZONE,1,67,39
India,Chhattisgarh,Raipur,"Bhatagaon New ISBT, Raipur - CECB",01-03-2024 15:00:00,21.219665,81.630094,PM2.5,32,89,51
India,Chhattisgarh,Raipur,"Krishak Nagar, Raipur - CECB",01-03-2024 15:00:00,21.237755,81.705301,PM2.5,32,61,46
India,Chhattisgarh,Raipur,"Krishak Nagar, Raipur - CECB",01-03-2024 15:00:00,21.237755,81.705301,PM10,54,102,78
India,Chhattisgarh,Raipur,"Siltara Phase-II, Raipur - CECB",01-03-2024 15:00:00,21.371751,81.664929,PM10,NA,NA,NA
India,Chhattisgarh,Raipur,"Siltara Phase-II, Raipur - CECB",01-03-2024 15:00:00,21.371751,81.664929,NO2,41,63,52
India,Chhattisgarh,Raipur,"Siltara Phase-II, Raipur - CECB",01-03-2024 15:00:00,21.371751,81.664929,CO,22,60,32
India,Chhattisgarh,Tumidih,"OP Jindal Industrial Park, Tumidih - CECB",01-03-2024 15:00:00,22.06631475,83.33820077,PM10,18,175,59
India,Chhattisgarh,Tumidih,"OP Jindal Industrial Park, Tumidih - CECB",01-03-2024 15:00:00,22.06631475,83.33820077,NH3,1,3,2
India,Delhi,Delhi,"Anand Vihar, Delhi - DPCC",01-03-2024 15:00:00,28.647622,77.3158090,CO,20,118,78
India,Delhi,Delhi,"Aya Nagar, Delhi - IMD",01-03-2024 15:00:00,28.4706914,77.1099364,NO2,19,38,28
India,Delhi,Delhi,"Aya Nagar, Delhi - IMD",01-03-2024 15:00:00,28.4706914,77.1099364,CO,16,50,40
India,Delhi,Delhi,"Aya Nagar, Delhi - IMD",01-03-2024 15:00:00,28.4706914,77.1099364,OZONE,8,81,29
India,Delhi,Delhi,"Bawana, Delhi - DPCC",01-03-2024 15:00:00,28.776200,77.051074,PM2.5,57,472,287
India,Delhi,Delhi,"Burari Crossing, Delhi - IMD",01-03-2024 15:00:00,28.7256504,77.2011573,PM2.5,NA,NA,NA
India,Delhi,Delhi,"Burari Crossing, Delhi - IMD",01-03-2024 15:00:00,28.7256504,77.2011573,OZONE,6,60,16
India,Delhi,Delhi,"DTU, Delhi - CPCB",01-03-2024 15:00:00,28.7500499,77.1112615,PM10,83,313,188
India,Delhi,Delhi,"DTU, Delhi - CPCB",01-03-2024 15:00:00,28.7500499,77.1112615,SO2,31,36,34
India,Delhi,Delhi,"Dr. Karni Singh Shooting Range, Delhi - DPCC",01-03-2024 15:00:00,28.498571,77.264840,OZONE,1,230,230
India,Delhi,Delhi,"Dwarka-Sector 8, Delhi - DPCC ",01-03-2024 15:00:00,28.5710274,77.0719006,NH3,4,7,5
India,Delhi,Delhi,"IGI Airport (T3), Delhi - IMD",01-03-2024 15:00:00,28.5627763,77.1180053,PM10,86,500,197
India,Delhi,Delhi,"IGI Airport (T3), Delhi - IMD",01-03-2024 15:00:00,28.5627763,77.1180053,NO2,29,95,60
India,Delhi,Delhi,"IHBAS, Dilshad Garden, Delhi - CPCB",01-03-2024 15:00:00,28.6811736,77.3025234,PM10,71,173,129
India,Delhi,Delhi,"ITO, Delhi - CPCB",01-03-2024 15:00:00,28.628624,77.241060,PM10,64,226,158
India,Delhi,Delhi,"Jahangirpuri, Delhi - DPCC",01-03-2024 15:00:00,28.732820,77.170633,OZONE,5,7,6
India,Delhi,Delhi,"Jawaharlal Nehru Stadium, Delhi - DPCC",01-03-2024 15:00:00,28.580280,77.233829,PM2.5,29,244,138
India,Delhi,Delhi,"Jawaharlal Nehru Stadium, Delhi - DPCC",01-03-2024 15:00:00,28.580280,77.233829,NO2,33,137,98
India,Delhi,Delhi,"Jawaharlal Nehru Stadium, Delhi - DPCC",01-03-2024 15:00:00,28.580280,77.233829,SO2,4,41,26
India,Delhi,Delhi,"Lodhi Road, Delhi - IITM",01-03-2024 15:00:00,28.588333,77.221667,PM2.5,25,342,63
India,Delhi,Delhi,"Lodhi Road, Delhi - IMD",01-03-2024 15:00:00,28.5918245,77.2273074,CO,11,72,55
India,Delhi,Delhi,"Major Dhyan Chand National Stadium, Delhi - DPCC",01-03-2024 15:00:00,28.611281,77.237738,PM2.5,42,317,192
India,Delhi,Delhi,"Major Dhyan Chand National Stadium, Delhi - DPCC",01-03-2024 15:00:00,28.611281,77.237738,PM10,58,220,141
India,Delhi,Delhi,"Major Dhyan Chand National Stadium, Delhi - DPCC",01-03-2024 15:00:00,28.611281,77.237738,NO2,35,187,113
India,Delhi,Delhi,"Major Dhyan Chand National Stadium, Delhi - DPCC",01-03-2024 15:00:00,28.611281,77.237738,OZONE,2,221,194
India,Delhi,Delhi,"Mandir Marg, Delhi - DPCC",01-03-2024 15:00:00,28.636429,77.201067,PM10,61,188,118
India,Delhi,Delhi,"Mundka, Delhi - DPCC",01-03-2024 15:00:00,28.684678,77.076574,PM2.5,NA,NA,NA
India,Delhi,Delhi,"Mundka, Delhi - DPCC",01-03-2024 15:00:00,28.684678,77.076574,PM10,NA,NA,NA
India,Delhi,Delhi,"Mundka, Delhi - DPCC",01-03-2024 15:00:00,28.684678,77.076574,NH3,NA,NA,NA
India,Delhi,Delhi,"Mundka, Delhi - DPCC",01-03-2024 15:00:00,28.684678,77.076574,SO2,NA,NA,NA
India,Delhi,Delhi,"Mundka, Delhi - DPCC",01-03-2024 15:00:00,28.684678,77.076574,CO,42,44,43
India,Delhi,Delhi,"Narela, Delhi - DPCC",01-03-2024 15:00:00,28.822836,77.101981,SO2,4,24,12
India,Delhi,Delhi,"Narela, Delhi - DPCC",01-03-2024 15:00:00,28.822836,77.101981,CO,39,86,59
India,Delhi,Delhi,"Nehru Nagar, Delhi - DPCC",01-03-2024 15:00:00,28.567890,77.250515,NO2,12,59,23
India,Delhi,Delhi,"Nehru Nagar, Delhi - DPCC",01-03-2024 15:00:00,28.567890,77.250515,OZONE,2,244,240
India,Delhi,Delhi,"North Campus, DU, Delhi - IMD",01-03-2024 15:00:00,28.6573814,77.1585447,CO,44,100,70
India,Delhi,Delhi,"North Campus, DU, Delhi - IMD",01-03-2024 15:00:00,28.6573814,77.1585447,OZONE,1,46,13
India,Delhi,Delhi,"Okhla Phase-2, Delhi - DPCC",01-03-2024 15:00:00,28.530785,77.271255,NH3,8,12,10
India,Delhi,Delhi,"Patparganj, Delhi - DPCC",01-03-2024 15:00:00,28.623763,77.287209,PM10,104,256,175
India,Delhi,Delhi,"Patparganj, Delhi - DPCC",01-03-2024 15:00:00,28.623763,77.287209,SO2,1,16,2
India,Delhi,Delhi,"Patparganj, Delhi - DPCC",01-03-2024 15:00:00,28.623763,77.287209,OZONE,3,193,153
India,Delhi,Delhi,"Punjabi Bagh, Delhi - DPCC",01-03-2024 15:00:00,28.674045,77.131023,CO,15,110,41
India,Delhi,Delhi,"Pusa, Delhi - IMD",01-03-2024 15:00:00,28.636110,77.173332,PM2.5,NA,NA,NA
India,Delhi,Delhi,"Pusa, Delhi - IMD",01-03-2024 15:00:00,28.636110,77.173332,PM10,NA,NA,NA
India,Delhi,Delhi,"Rohini, Delhi - DPCC",01-03-2024 15:00:00,28.732528,77.119920,PM2.5,58,374,243
India,Delhi,Delhi,"Shadipur, Delhi - CPCB",01-03-2024 15:00:00,28.6514781,77.1473105,OZONE,15,62,36
India,Delhi,Delhi,"Sirifort, Delhi - CPCB",01-03-2024 15:00:00,28.5504249,77.2159377,CO,11,108,61
India,Delhi,Delhi,"Sonia Vihar, Delhi - DPCC",01-03-2024 15:00:00,28.710508,77.249485,NO2,29,116,74
India,Delhi,Delhi,"Sonia Vihar, Delhi - DPCC",01-03-2024 15:00:00,28.710508,77.249485,CO,46,110,68
India,Delhi,Delhi,"Sri Aurobindo Marg, Delhi - DPCC",01-03-2024 15:00:00,28.531346,77.190156,NH3,6,9,7
India,Delhi,Delhi,"Sri Aurobindo Marg, Delhi - DPCC",01-03-2024 15:00:00,28.531346,77.190156,OZONE,1,51,16
India,Delhi,Delhi,"Vivek Vihar, Delhi - DPCC",01-03-2024 15:00:00,28.672342,77.315260,CO,12,105,71
India,Gujarat,Ahmedabad,"Chandkheda, Ahmedabad - IITM",01-03-2024 15:00:00,23.107969,72.574648,PM2.5,80,376,204
India,Gujarat,Ahmedabad,"Chandkheda, Ahmedabad - IITM",01-03-2024 15:00:00,23.107969,72.574648,OZONE,5,87,36
India,Gujarat,Ahmedabad,"Gyaspur, Ahmedabad - IITM",01-03-2024 15:00:00,22.977134,72.553024,PM2.5,22,378,86
India,Gujarat,Ahmedabad,"Gyaspur, Ahmedabad - IITM",01-03-2024 15:00:00,22.977134,72.553024,NH3,4,4,4
India,Gujarat,Ahmedabad,"Gyaspur, Ahmedabad - IITM",01-03-2024 15:00:00,22.977134,72.553024,CO,22,26,24
India,Gujarat,Ahmedabad,"Raikhad, Ahmedabad - IITM",01-03-2024 15:00:00,23.020509,72.579261,PM10,117,393,179
India,Gujarat,Ahmedabad,"Raikhad, Ahmedabad - IITM",01-03-2024 15:00:00,23.020509,72.579261,NO2,29,398,174
India,Gujarat,Ahmedabad,"Raikhad, Ahmedabad - IITM",01-03-2024 15:00:00,23.020509,72.579261,OZONE,2,42,23
India,Gujarat,Ahmedabad,"Rakhial, Ahmedabad - IITM",01-03-2024 15:00:00,23.016834,72.625775,PM10,83,392,171
India,Gujarat,Ahmedabad,"Rakhial, Ahmedabad - IITM",01-03-2024 15:00:00,23.016834,72.625775,NO2,62,87,77
India,Gujarat,Ahmedabad,"SAC ISRO Bopal, Ahmedabad - IITM",01-03-2024 15:00:00,23.041137,72.456691,PM10,78,183,128
India,Gujarat,Gandhinagar,"IIPHG Lekawada, Gandhinagar - IITM",01-03-2024 15:00:00,23.243639,72.68994,PM10,64,161,117
India,Gujarat,Gandhinagar,"Sector-10, Gandhinagar - GPCB",01-03-2024 15:00:00,23.221714,72.654328,SO2,5,16,8
India,Gujarat,Nandesari,"GIDC, Nandesari - Nandesari Ind. Association",01-03-2024 15:00:00,22.410802,73.097923,NO2,2,67,20
India,Gujarat,Nandesari,"GIDC, Nandesari - Nandesari Ind. Association",01-03-2024 15:00:00,22.410802,73.097923,SO2,60,72,66
India,Gujarat,Surat,"Science Center, Surat - SMC",01-03-2024 15:00:00,21.170046,72.795405,SO2,19,25,21
India,Gujarat,Vapi,"Phase-1 GIDC, Vapi - GPCB",01-03-2024 15:00:00,20.362421,72.918013,NO2,27,102,34
India,Haryana,Bhiwani,"H.B. Colony, Bhiwani - HSPCB",01-03-2024 15:00:00,28.806223,76.141105,NH3,6,6,6
India,Haryana,Bhiwani,"H.B. Colony, Bhiwani - HSPCB",01-03-2024 15:00:00,28.806223,76.141105,OZONE,5,57,14
India,Haryana,Charkhi Dadri,"Mini Secretariat, Charkhi Dadri - HSPCB",01-03-2024 15:00:00,28.593883,76.270653,PM2.5,47,201,110
India,Haryana,Charkhi Dadri,"Mini Secretariat, Charkhi Dadri - HSPCB",01-03-2024 15:00:00,28.593883,76.270653,NH3,5,5,5
India,Haryana,Charkhi Dadri,"Mini Secretariat, Charkhi Dadri - HSPCB",01-03-2024 15:00:00,28.593883,76.270653,OZONE,13,17,15
India,Haryana,Dharuhera,"Municipal Corporation Office, Dharuhera -  HSPCB",01-03-2024 15:00:00,28.206800,76.799700,OZONE,10,72,39
India,Haryana,Faridabad,"New Industrial Town, Faridabad - HSPCB",01-03-2024 15:00:00,28.39072,77.30059,PM2.5,3,320,134
India,Haryana,Faridabad,"New Industrial Town, Faridabad - HSPCB",01-03-2024 15:00:00,28.39072,77.30059,NO2,16,38,22
India,Haryana,Faridabad,"New Industrial Town, Faridabad - HSPCB",01-03-2024 15:00:00,28.39072,77.30059,SO2,24,34,27
India,Haryana,Faridabad,"New Industrial Town, Faridabad - HSPCB",01-03-2024 15:00:00,28.39072,77.30059,CO,13,64,37
India,Haryana,Faridabad,"New Industrial Town, Faridabad - HSPCB",01-03-2024 15:00:00,28.39072,77.30059,OZONE,36,250,126
India,Haryana,Faridabad,"Sector 11, Faridabad - HSPCB",01-03-2024 15:00:00,28.376058,77.315741,PM10,40,281,152
India,Haryana,Faridabad,"Sector 30, Faridabad - HSPCB",01-03-2024 15:00:00,28.4417,77.3217,PM2.5,95,166,135
India,Haryana,Faridabad,"Sector 30, Faridabad - HSPCB",01-03-2024 15:00:00,28.4417,77.3217,PM10,98,125,114
India,Haryana,Gurugram,"Sector-51, Gurugram - HSPCB",01-03-2024 15:00:00,28.4227,77.0667,NH3,7,14,9
India,Haryana,Gurugram,"Sector-51, Gurugram - HSPCB",01-03-2024 15:00:00,28.4227,77.0667,SO2,3,6,4
India,Haryana,Gurugram,"Sector-51, Gurugram - HSPCB",01-03-2024 15:00:00,28.4227,77.0667,OZONE,27,67,53
India,Haryana,Gurugram,"Teri Gram, Gurugram - HSPCB",01-03-2024 15:00:00,28.4275,77.1465,CO,20,50,39
India,Haryana,Gurugram,"Teri Gram, Gurugram - HSPCB",01-03-2024 15:00:00,28.4275,77.1465,OZONE,10,24,24
India,Haryana,Hisar,"Urban Estate-II, Hisar - HSPCB",01-03-2024 15:00:00,29.140560,75.744941,PM2.5,43,258,168
