country,state,city,station,last_update,latitude,longitude,pollutant_id,pollutant_min,pollutant_max,pollutant_avg
India,Andhra_Pradesh,Anantapur,"Gulzarpet, Anantapur - APPCB",12-04-2024 19:00:00,14.675886,77.593027,OZONE,1,30,23
India,Andhra_Pradesh,Chittoor,"Gangineni Cheruvu, Chittoor - APPCB",12-04-2024 19:00:00,13.204880,79.097889,NO2,3,11,6
India,Andhra_Pradesh,Chittoor,"Gangineni Cheruvu, Chittoor - APPCB",12-04-2024 19:00:00,13.204880,79.097889,SO2,1,10,4
India,Andhra_Pradesh,Kadapa,"Yerramukkapalli, Kadapa - APPCB",12-04-2024 19:00:00,14.465052,78.824187,CO,9,14,13
India,Andhra_Pradesh,Rajamahendravaram,"Anand Kala Kshetram, Rajamahendravaram - APPCB",12-04-2024 19:00:00,16.9872867,81.7363176,PM10,NA,NA,NA
India,Andhra_Pradesh,Rajamahendravaram,"Anand Kala Kshetram, Rajamahendravaram - APPCB",12-04-2024 19:00:00,16.9872867,81.7363176,NH3,NA,NA,NA
India,Andhra_Pradesh,Tirupati,"Tirumala, Tirupati - APPCB",12-04-2024 19:00:00,13.67,79.35,SO2,4,15,9
India,Andhra_Pradesh,Tirupati,"Vaikuntapuram, Tirupati - APPCB",12-04-2024 19:00:00,13.615387,79.409230,NH3,NA,NA,NA
India,Andhra_Pradesh,Vijayawada,"HB Colony, Vijayawada - APPCB",12-04-2024 19:00:00,16.536107,80.594233,PM2.5,NA,NA,NA
India,Andhra_Pradesh,Vijayawada,"HB Colony, Vijayawada - APPCB",12-04-2024 19:00:00,16.536107,80.594233,SO2,NA,NA,NA
India,Andhra_Pradesh,Vijayawada,"Rajiv Gandhi Park, Vijayawada - APPCB",12-04-2024 19:00:00,16.509717,80.612222,PM10,NA,NA,NA
India,Andhra_Pradesh,Visakhapatnam,"GVM Corporation, Visakhapatnam - APPCB",12-04-2024 19:00:00,17.72,83.3,CO,3,57,20
India,Andhra_Pradesh,Visakhapatnam,"GVM Corporation, Visakhapatnam - APPCB",12-04-2024 19:00:00,17.72,83.3,OZONE,3,87,48
India,Assam,Byrnihat,"Central Academy for SFS, Byrnihat - PCBA",12-04-2024 19:00:00,26.071318,91.87488,PM2.5,93,499,280
India,Assam,Guwahati,"IITG, Guwahati - PCBA",12-04-2024 19:00:00,26.2028636,91.70046436,CO,15,16,15
India,Assam,Guwahati,"LGBI Airport, Guwahati - PCBA",12-04-2024 19:00:00,26.10887,91.589544,NO2,21,94,58
India,Assam,Guwahati,"LGBI Airport, Guwahati - PCBA",12-04-2024 19:00:00,26.10887,91.589544,SO2,6,17,12
India,Assam,Guwahati,"LGBI Airport, Guwahati - PCBA",12-04-2024 19:00:00,26.10887,91.589544,OZONE,6,39,28
India,Assam,Guwahati,"Pan Bazaar, Guwahati - PCBA",12-04-2024 19:00:00,26.187500,91.744194,CO,33,68,35
India,Assam,Nalbari,"Bata Chowk, Nalbari - PCBA",12-04-2024 19:00:00,26.446912,91.439057,CO,12,77,19
India,Assam,Silchar,"Tarapur, Silchar - PCBA",12-04-2024 19:00:00,24.82827,92.79525,CO,26,66,30
India,Bihar,Araria,"Kharahiya Basti, Araria - BSPCB",12-04-2024 19:00:00,26.146529,87.454184,NH3,6,8,7
India,Bihar,Arrah,"New DM Office, Arrah - BSPCB",12-04-2024 19:00:00,25.5626095,84.663264,NO2,4,25,13
India,Bihar,Arrah,"New DM Office, Arrah - BSPCB",12-04-2024 19:00:00,25.5626095,84.663264,NH3,4,5,4
India,Bihar,Arrah,"New DM Office, Arrah - BSPCB",12-04-2024 19:00:00,25.5626095,84.663264,SO2,14,21,18
India,Bihar,Aurangabad,"Gurdeo Nagar, Aurangabad - BSPCB",12-04-2024 19:00:00,24.75746,84.366208,CO,52,76,75
India,Bihar,Bettiah,"Kamalnath Nagar, Bettiah - BSPCB",12-04-2024 19:00:00,26.80365,84.51954,OZONE,3,12,10
India,Bihar,Bhagalpur,"Mayaganj, Bhagalpur - BSPCB",12-04-2024 19:00:00,25.265194,87.012947,PM10,36,169,88
India,Bihar,Bihar Sharif,"D M Colony, Bihar Sharif - BSPCB",12-04-2024 19:00:00,25.204762,85.514960,CO,52,78,60
India,Bihar,Chhapra,"Darshan Nagar, Chhapra - BSPCB",12-04-2024 19:00:00,25.7808257,84.7446768,PM2.5,92,400,229
India,Bihar,Chhapra,"Darshan Nagar, Chhapra - BSPCB",12-04-2024 19:00:00,25.7808257,84.7446768,NH3,7,17,12
India,Bihar,Gaya,"Collectorate, Gaya - BSPCB",12-04-2024 19:00:00,24.7955,84.9994,OZONE,44,85,60
India,Bihar,Gaya,"Kareemganj, Gaya - BSPCB",12-04-2024 19:00:00,24.792403,84.992416,NH3,1,4,2
India,Bihar,Gaya,"SFTI Kusdihra, Gaya - BSPCB",12-04-2024 19:00:00,24.762518,84.982348,NH3,3,6,5
India,Bihar,Hajipur,"Industrial Area, Hajipur - BSPCB",12-04-2024 19:00:00,25.697189,85.245900,PM2.5,31,212,99
India,Bihar,Kishanganj,"SDM Office_Khagra, Kishanganj - BSPCB",12-04-2024 19:00:00,26.0881305,87.93840336,PM10,NA,NA,NA
India,Bihar,Kishanganj,"SDM Office_Khagra, Kishanganj - BSPCB",12-04-2024 19:00:00,26.0881305,87.93840336,CO,1,12,3
India,Bihar,Munger,"Town Hall, Munger - BSPCB",12-04-2024 19:00:00,25.376776,86.471523,NH3,2,2,2
India,Bihar,Muzaffarpur,"MIT-Daudpur Kothi, Muzaffarpur - BSPCB",12-04-2024 19:00:00,26.1403345,85.3650192,CO,14,130,41
India,Bihar,Muzaffarpur,"Muzaffarpur Collectorate, Muzaffarpur - BSPCB",12-04-2024 19:00:00,26.1209,85.3647,PM2.5,41,246,105
India,Bihar,Muzaffarpur,"Muzaffarpur Collectorate, Muzaffarpur - BSPCB",12-04-2024 19:00:00,26.1209,85.3647,SO2,4,23,9
India,Bihar,Muzaffarpur,"Muzaffarpur Collectorate, Muzaffarpur - BSPCB",12-04-2024 19:00:00,26.1209,85.3647,OZONE,40,96,77
India,Bihar,Patna,"Govt. High School Shikarpur, Patna - BSPCB",12-04-2024 19:00:00,25.592539,85.227158,PM2.5,88,316,170
India,Bihar,Patna,"Govt. High School Shikarpur, Patna - BSPCB",12-04-2024 19:00:00,25.592539,85.227158,OZONE,1,59,49
India,Bihar,Patna,"Muradpur, Patna - BSPCB",12-04-2024 19:00:00,25.619651,85.147382,PM10,151,500,268
India,Bihar,Patna,"Rajbansi Nagar, Patna - BSPCB",12-04-2024 19:00:00,25.599486,85.113666,PM2.5,78,331,159
India,Bihar,Patna,"Samanpura, Patna - BSPCB",12-04-2024 19:00:00,25.596727,85.085624,OZONE,61,140,105
India,Bihar,Purnia,"Mariam Nagar, Purnia - BSPCB",12-04-2024 19:00:00,25.366336,87.117468,NH3,4,19,10
India,Bihar,Rajgir,"Dangi Tola, Rajgir - BSPCB",12-04-2024 19:00:00,25.03280,85.41948,SO2,3,5,4
India,Bihar,Saharsa,"Police Line, Saharsa - BSPCB",12-04-2024 19:00:00,25.892357,86.590325,PM10,29,279,97
India,Bihar,Saharsa,"Police Line, Saharsa - BSPCB",12-04-2024 19:00:00,25.892357,86.590325,NO2,6,7,7
India,Bihar,Saharsa,"Police Line, Saharsa - BSPCB",12-04-2024 19:00:00,25.892357,86.590325,OZONE,13,184,42
India,Bihar,Samastipur,"DM Office_Kasipur, Samastipur - BSPCB",12-04-2024 19:00:00,25.859655,85.77944,PM10,NA,NA,NA
India,Bihar,Sasaram,"Dada Peer, Sasaram - BSPCB",12-04-2024 19:00:00,24.952822,84.002396,NO2,10,23,15
India,Bihar,Sasaram,"Dada Peer, Sasaram - BSPCB",12-04-2024 19:00:00,24.952822,84.002396,NH3,8,11,9
India,Bihar,Sasaram,"Dada Peer, Sasaram - BSPCB",12-04-2024 19:00:00,24.952822,84.002396,OZONE,14,84,73
India,Bihar,Siwan,"Chitragupta Nagar, Siwan - BSPCB",12-04-2024 19:00:00,26.2271665,84.3570427,NH3,1,16,3
India,Bihar,Siwan,"Chitragupta Nagar, Siwan - BSPCB",12-04-2024 19:00:00,26.2271665,84.3570427,SO2,13,35,30
India,Bihar,Siwan,"Chitragupta Nagar, Siwan - BSPCB",12-04-2024 19:00:00,26.2271665,84.3570427,CO,2,191,191
India,Bihar,Siwan,"Chitragupta Nagar, Siwan - BSPCB",12-04-2024 19:00:00,26.2271665,84.3570427,OZONE,13,202,152
India,Chandigarh,Chandigarh,"Sector 22, Chandigarh - CPCC",12-04-2024 19:00:00,30.735567,76.775714,PM2.5,32,95,51
India,Chandigarh,Chandigarh,"Sector-25, Chandigarh - CPCC",12-04-2024 19:00:00,30.751462,76.762879,PM2.5,90,122,105
India,Chandigarh,Chandigarh,"Sector-25, Chandigarh - CPCC",12-04-2024 19:00:00,30.751462,76.762879,SO2,8,17,11
India,Chandigarh,Chandigarh,"Sector-53, Chandigarh - CPCC",12-04-2024 19:00:00,30.719859,76.738637,NH3,3,7,4
India,Chhattisgarh,Bhilai,"32Bungalows, Bhilai - CECB",12-04-2024 19:00:00,21.194815,81.314770,CO,19,36,22
India,Chhattisgarh,Bhilai,"Civic Center, Bhilai - Bhilai Steel Plant",12-04-2024 19:00:00,21.185571,81.343175,CO,13,85,58
India,Chhattisgarh,Bhilai,"Civic Center, Bhilai - Bhilai Steel Plant",12-04-2024 19:00:00,21.185571,81.343175,OZONE,9,33,27
India,Chhattisgarh,Bhilai,"Hathkhoj, Bhilai - CECB",12-04-2024 19:00:00,21.224231,81.408350,PM10,37,75,53
India,Chhattisgarh,Bhilai,"Hathkhoj, Bhilai - CECB",12-04-2024 19:00:00,21.224231,81.408350,NH3,7,8,7
India,Chhattisgarh,Bilaspur,"Mangala, Bilaspur - NTPC",12-04-2024 19:00:00,22.08815,82.13737,PM10,32,69,52
India,Chhattisgarh,Chhal,"Nawapara SECL Colony, Chhal - CECB",12-04-2024 19:00:00,22.118125,83.140608,PM2.5,30,114,51
India,Chhattisgarh,Chhal,"Nawapara SECL Colony, Chhal - CECB",12-04-2024 19:00:00,22.118125,83.140608,NO2,13,54,26
India,Chhattisgarh,Chhal,"Nawapara SECL Colony, Chhal - CECB",12-04-2024 19:00:00,22.118125,83.140608,CO,24,115,35
India,Chhattisgarh,Korba,"Rampur, Korba - CECB",12-04-2024 19:00:00,22.368195,82.746431,SO2,7,14,9
India,Chhattisgarh,Korba,"Rampur, Korba - CECB",12-04-2024 19:00:00,22.368195,82.746431,CO,16,34,24
India,Chhattisgarh,Korba,"Rampur, Korba - CECB",12-04-2024 19:00:00,22.368195,82.746431,OZONE,2,28,9
India,Chhattisgarh,Korba,"Urja Nagar, Korba - CECB",12-04-2024 19:00:00,22.348441,82.549611,NH3,1,12,7
India,Chhattisgarh,Kunjemura,"OP Jindal School, Kunjemura - CECB",12-04-2024 19:00:00,22.126650,83.483212,NH3,1,6,3
India,Chhattisgarh,Kunjemura,"OP Jindal School, Kunjemura - CECB",12-04-2024 19:00:00,22.126650,83.483212,SO2,1,35,8
India,Chhattisgarh,Raipur,"Siltara Phase-II, Raipur - CECB",12-04-2024 19:00:00,21.371751,81.664929,CO,34,70,61
India,Chhattisgarh,Raipur,"Siltara Phase-II, Raipur - CECB",12-04-2024 19:00:00,21.371751,81.664929,OZONE,3,14,9
India,Chhattisgarh,Tumidih,"OP Jindal Industrial Park, Tumidih - CECB",12-04-2024 19:00:00,22.06631475,83.33820077,CO,20,57,25
India,Delhi,Delhi,"Alipur, Delhi - DPCC",12-04-2024 19:00:00,28.815329,77.153010,PM2.5,60,341,197
India,Delhi,Delhi,"Alipur, Delhi - DPCC",12-04-2024 19:00:00,28.815329,77.153010,NO2,14,101,47
India,Delhi,Delhi,"Anand Vihar, Delhi - DPCC",12-04-2024 19:00:00,28.647622,77.3158090,PM2.5,77,458,287
India,Delhi,Delhi,"Ashok Vihar, Delhi - DPCC",12-04-2024 19:00:00,28.695381,77.181665,PM10,156,407,264
India,Delhi,Delhi,"Ashok Vihar, Delhi - DPCC",12-04-2024 19:00:00,28.695381,77.181665,NH3,7,20,14
India,Delhi,Delhi,"Ashok Vihar, Delhi - DPCC",12-04-2024 19:00:00,28.695381,77.181665,CO,8,105,25
India,Delhi,Delhi,"Aya Nagar, Delhi - IMD",12-04-2024 19:00:00,28.4706914,77.1099364,CO,66,114,110
India,Delhi,Delhi,"Bawana, Delhi - DPCC",12-04-2024 19:00:00,28.776200,77.051074,PM10,166,436,262
India,Delhi,Delhi,"Bawana, Delhi - DPCC",12-04-2024 19:00:00,28.776200,77.051074,NH3,6,10,8
India,Delhi,Delhi,"Bawana, Delhi - DPCC",12-04-2024 19:00:00,28.776200,77.051074,SO2,12,54,31
India,Delhi,Delhi,"Burari Crossing, Delhi - IMD",12-04-2024 19:00:00,28.7256504,77.2011573,PM2.5,49,340,188
India,Delhi,Delhi,"CRRI Mathura Road, Delhi - IMD",12-04-2024 19:00:00,28.5512005,77.2735737,PM10,NA,NA,NA
India,Delhi,Delhi,"CRRI Mathura Road, Delhi - IMD",12-04-2024 19:00:00,28.5512005,77.2735737,NO2,NA,NA,NA
India,Delhi,Delhi,"CRRI Mathura Road, Delhi - IMD",12-04-2024 19:00:00,28.5512005,77.2735737,OZONE,81,81,81
India,Delhi,Delhi,"Chandni Chowk, Delhi - IITM",12-04-2024 19:00:00,28.656756,77.227234,CO,46,50,50
India,Delhi,Delhi,"Dr. Karni Singh Shooting Range, Delhi - DPCC",12-04-2024 19:00:00,28.498571,77.264840,PM2.5,65,387,161
India,Delhi,Delhi,"Dr. Karni Singh Shooting Range, Delhi - DPCC",12-04-2024 19:00:00,28.498571,77.264840,SO2,18,78,35
India,Delhi,Delhi,"Dwarka-Sector 8, Delhi - DPCC ",12-04-2024 19:00:00,28.5710274,77.0719006,PM10,127,422,241
India,Delhi,Delhi,"IHBAS, Dilshad Garden, Delhi - CPCB",12-04-2024 19:00:00,28.6811736,77.3025234,PM2.5,124,306,194
India,Delhi,Delhi,"IHBAS, Dilshad Garden, Delhi - CPCB",12-04-2024 19:00:00,28.6811736,77.3025234,NH3,5,9,7
India,Delhi,Delhi,"IHBAS, Dilshad Garden, Delhi - CPCB",12-04-2024 19:00:00,28.6811736,77.3025234,OZONE,2,28,20
India,Delhi,Delhi,"ITO, Delhi - CPCB",12-04-2024 19:00:00,28.628624,77.241060,SO2,8,75,26
India,Delhi,Delhi,"Jawaharlal Nehru Stadium, Delhi - DPCC",12-04-2024 19:00:00,28.580280,77.233829,OZONE,1,255,194
India,Delhi,Delhi,"Lodhi Road, Delhi - IITM",12-04-2024 19:00:00,28.588333,77.221667,SO2,NA,NA,NA
India,Delhi,Delhi,"Major Dhyan Chand National Stadium, Delhi - DPCC",12-04-2024 19:00:00,28.611281,77.237738,NH3,6,11,8
India,Delhi,Delhi,"Major Dhyan Chand National Stadium, Delhi - DPCC",12-04-2024 19:00:00,28.611281,77.237738,OZONE,2,264,204
India,Delhi,Delhi,"Mundka, Delhi - DPCC",12-04-2024 19:00:00,28.684678,77.076574,OZONE,2,268,221
India,Delhi,Delhi,"NSIT Dwarka, Delhi - CPCB",12-04-2024 19:00:00,28.60909,77.0325413,PM10,139,422,243
India,Delhi,Delhi,"NSIT Dwarka, Delhi - CPCB",12-04-2024 19:00:00,28.60909,77.0325413,CO,22,70,39
India,Delhi,Delhi,"Najafgarh, Delhi - DPCC",12-04-2024 19:00:00,28.570173,76.933762,NH3,6,9,8
India,Delhi,Delhi,"Najafgarh, Delhi - DPCC",12-04-2024 19:00:00,28.570173,76.933762,SO2,8,19,12
India,Delhi,Delhi,"Najafgarh, Delhi - DPCC",12-04-2024 19:00:00,28.570173,76.933762,CO,29,58,44
India,Delhi,Delhi,"Narela, Delhi - DPCC",12-04-2024 19:00:00,28.822836,77.101981,NO2,15,104,55
India,Delhi,Delhi,"Nehru Nagar, Delhi - DPCC",12-04-2024 19:00:00,28.567890,77.250515,CO,50,80,55
India,Delhi,Delhi,"North Campus, DU, Delhi - IMD",12-04-2024 19:00:00,28.6573814,77.1585447,PM2.5,NA,NA,NA
India,Delhi,Delhi,"North Campus, DU, Delhi - IMD",12-04-2024 19:00:00,28.6573814,77.1585447,NO2,NA,NA,NA
India,Delhi,Delhi,"North Campus, DU, Delhi - IMD",12-04-2024 19:00:00,28.6573814,77.1585447,OZONE,NA,NA,NA
India,Delhi,Delhi,"Okhla Phase-2, Delhi - DPCC",12-04-2024 19:00:00,28.530785,77.271255,CO,70,136,114
India,Delhi,Delhi,"Patparganj, Delhi - DPCC",12-04-2024 19:00:00,28.623763,77.287209,CO,50,113,63
India,Delhi,Delhi,"Punjabi Bagh, Delhi - DPCC",12-04-2024 19:00:00,28.674045,77.131023,NO2,49,105,74
India,Delhi,Delhi,"Pusa, Delhi - DPCC",12-04-2024 19:00:00,28.639652,77.146275,NO2,NA,NA,NA
India,Delhi,Delhi,"R K Puram, Delhi - DPCC",12-04-2024 19:00:00,28.563262,77.186937,PM2.5,72,369,187
India,Delhi,Delhi,"R K Puram, Delhi - DPCC",12-04-2024 19:00:00,28.563262,77.186937,NH3,6,11,8
India,Delhi,Delhi,"Rohini, Delhi - DPCC",12-04-2024 19:00:00,28.732528,77.119920,NO2,17,129,67
India,Delhi,Delhi,"Shadipur, Delhi - CPCB",12-04-2024 19:00:00,28.6514781,77.1473105,NO2,49,108,72
India,Delhi,Delhi,"Sirifort, Delhi - CPCB",12-04-2024 19:00:00,28.5504249,77.2159377,OZONE,7,113,74
India,Delhi,Delhi,"Sonia Vihar, Delhi - DPCC",12-04-2024 19:00:00,28.710508,77.249485,PM10,122,373,223
India,Delhi,Delhi,"Sri Aurobindo Marg, Delhi - DPCC",12-04-2024 19:00:00,28.531346,77.190156,OZONE,8,108,82
India,Delhi,Delhi,"Vivek Vihar, Delhi - DPCC",12-04-2024 19:00:00,28.672342,77.315260,NO2,33,122,83
India,Delhi,Delhi,"Wazirpur, Delhi - DPCC",12-04-2024 19:00:00,28.699793,77.165453,PM10,119,411,247
India,Gujarat,Ahmedabad,"Chandkheda, Ahmedabad - IITM",12-04-2024 19:00:00,23.107969,72.574648,PM2.5,32,278,84
India,Gujarat,Ahmedabad,"Gyaspur, Ahmedabad - IITM",12-04-2024 19:00:00,22.977134,72.553024,CO,2,54,2
India,Gujarat,Ahmedabad,"Raikhad, Ahmedabad - IITM",12-04-2024 19:00:00,23.020509,72.579261,SO2,8,22,13
India,Gujarat,Ahmedabad,"Rakhial, Ahmedabad - IITM",12-04-2024 19:00:00,23.016834,72.625775,CO,24,74,52
India,Gujarat,Ahmedabad,"Rakhial, Ahmedabad - IITM",12-04-2024 19:00:00,23.016834,72.625775,OZONE,10,61,51
India,Gujarat,Ahmedabad,"SAC ISRO Satellite, Ahmedabad - IITM",12-04-2024 19:00:00,23.023389,72.515201,PM10,99,114,107
India,Gujarat,Ahmedabad,"SAC ISRO Satellite, Ahmedabad - IITM",12-04-2024 19:00:00,23.023389,72.515201,NH3,3,4,3
India,Gujarat,Ahmedabad,"SAC ISRO Satellite, Ahmedabad - IITM",12-04-2024 19:00:00,23.023389,72.515201,SO2,3,20,9
India,Gujarat,Ahmedabad,"SVPI Airport Hansol, Ahmedabad - IITM",12-04-2024 19:00:00,23.076793,72.627874,PM10,73,164,111
India,Gujarat,Ahmedabad,"SVPI Airport Hansol, Ahmedabad - IITM",12-04-2024 19:00:00,23.076793,72.627874,NH3,4,5,4
India,Gujarat,Ahmedabad,"Sardar Vallabhbhai Patel Stadium, Ahmedabad - IITM",12-04-2024 19:00:00,23.043070,72.562968,NH3,7,7,7
India,Gujarat,Ahmedabad,"Sardar Vallabhbhai Patel Stadium, Ahmedabad - IITM",12-04-2024 19:00:00,23.043070,72.562968,SO2,7,20,11
India,Gujarat,Ankleshwar,"GIDC, Ankleshwar - GPCB",12-04-2024 19:00:00,21.613267,73.010555,NO2,32,33,32
India,Gujarat,Ankleshwar,"GIDC, Ankleshwar - GPCB",12-04-2024 19:00:00,21.613267,73.010555,CO,34,80,53
India,Gujarat,Gandhinagar,"Sector-10, Gandhinagar - GPCB",12-04-2024 19:00:00,23.221714,72.654328,PM10,26,93,55
India,Gujarat,Gandhinagar,"Sector-10, Gandhinagar - GPCB",12-04-2024 19:00:00,23.221714,72.654328,NH3,1,1,1
India,Gujarat,Surat,"Science Center, Surat - SMC",12-04-2024 19:00:00,21.170046,72.795405,PM2.5,4,30,14
India,Gujarat,Surat,"Science Center, Surat - SMC",12-04-2024 19:00:00,21.170046,72.795405,NO2,22,50,37
India,Gujarat,Vatva,"Phase-4 GIDC, Vatva - GPCB",12-04-2024 19:00:00,22.969611,72.643500,PM2.5,21,85,43
India,Gujarat,Vatva,"Phase-4 GIDC, Vatva - GPCB",12-04-2024 19:00:00,22.969611,72.643500,OZONE,11,51,41
India,Haryana,Ambala,"Patti Mehar, Ambala - HSPCB",12-04-2024 19:00:00,30.379589,76.778328,SO2,1,18,7
India,Haryana,Bhiwani,"H.B. Colony, Bhiwani - HSPCB",12-04-2024 19:00:00,28.806223,76.141105,PM2.5,82,308,136
India,Haryana,Charkhi Dadri,"Mini Secretariat, Charkhi Dadri - HSPCB",12-04-2024 19:00:00,28.593883,76.270653,NO2,15,24,18
India,Haryana,Charkhi Dadri,"Mini Secretariat, Charkhi Dadri - HSPCB",12-04-2024 19:00:00,28.593883,76.270653,SO2,8,55,24
India,Haryana,Dharuhera,"Municipal Corporation Office, Dharuhera -  HSPCB",12-04-2024 19:00:00,28.206800,76.799700,PM2.5,68,305,152
India,Haryana,Dharuhera,"Municipal Corporation Office, Dharuhera -  HSPCB",12-04-2024 19:00:00,28.206800,76.799700,NH3,9,26,19
India,Haryana,Faridabad,"New Industrial Town, Faridabad - HSPCB",12-04-2024 19:00:00,28.39072,77.30059,PM10,15,321,133
India,Haryana,Faridabad,"New Industrial Town, Faridabad - HSPCB",12-04-2024 19:00:00,28.39072,77.30059,CO,12,64,20
India,Haryana,Faridabad,"Sector 30, Faridabad - HSPCB",12-04-2024 19:00:00,28.4417,77.3217,CO,56,62,60
India,Haryana,Faridabad,"Sector- 16A, Faridabad - HSPCB",12-04-2024 19:00:00,28.4088421,77.3099081,CO,4,48,24
India,Haryana,Fatehabad,"Huda Sector, Fatehabad - HSPCB",12-04-2024 19:00:00,29.503664,75.467934,NH3,9,13,13
India,Haryana,Gurugram,"Sector-51, Gurugram - HSPCB",12-04-2024 19:00:00,28.4227,77.0667,CO,40,72,54
India,Haryana,Gurugram,"Sector-51, Gurugram - HSPCB",12-04-2024 19:00:00,28.4227,77.0667,OZONE,27,67,56
India,Haryana,Gurugram,"Teri Gram, Gurugram - HSPCB",12-04-2024 19:00:00,28.4275,77.1465,PM10,147,412,228
India,Haryana,Gurugram,"Teri Gram, Gurugram - HSPCB",12-04-2024 19:00:00,28.4275,77.1465,NH3,39,74,56
India,Haryana,Gurugram,"Teri Gram, Gurugram - HSPCB",12-04-2024 19:00:00,28.4275,77.1465,SO2,1,4,3
India,Haryana,Gurugram,"Teri Gram, Gurugram - HSPCB",12-04-2024 19:00:00,28.4275,77.1465,CO,20,42,28
India,Haryana,Hisar,"Urban Estate-II, Hisar - HSPCB",12-04-2024 19:00:00,29.140560,75.744941,SO2,NA,NA,NA
India,Haryana,Hisar,"Urban Estate-II, Hisar - HSPCB",12-04-2024 19:00:00,29.140560,75.744941,CO,15,50,24
India,Haryana,Jind,"Police Lines, Jind - HSPCB",12-04-2024 19:00:00,29.307814,76.337619,PM2.5,48,73,58
India,Haryana,Kaithal,"Rishi Nagar, Kaithal - HSPCB",12-04-2024 19:00:00,29.8006,76.4155,PM2.5,24,84,53
India,Haryana,Kaithal,"Rishi Nagar, Kaithal - HSPCB",12-04-2024 19:00:00,29.8006,76.4155,NH3,7,8,8
India,Haryana,Karnal,"Sector-12, Karnal - HSPCB",12-04-2024 19:00:00,29.695300,77.002700,OZONE,27,38,33
India,Haryana,Kurukshetra,"Sector-7, Kurukshetra - HSPCB",12-04-2024 19:00:00,29.966942,76.875879,NO2,10,11,10
India,Haryana,Mandikhera,"General Hospital, Mandikhera - HSPCB",12-04-2024 19:00:00,27.9002,76.9938,PM2.5,37,81,52
India,Haryana,Mandikhera,"General Hospital, Mandikhera - HSPCB",12-04-2024 19:00:00,27.9002,76.9938,CO,18,36,29
India,Haryana,Manesar,"Sector-2 IMT, Manesar - HSPCB",12-04-2024 19:00:00,28.360699,76.936090,NO2,NA,NA,NA
India,Haryana,Narnaul,"Shastri Nagar, Narnaul - HSPCB",12-04-2024 19:00:00,28.060249,76.113115,NH3,4,24,11
India,Haryana,Palwal,"Shyam Nagar, Palwal - HSPCB",12-04-2024 19:00:00,28.1485564,77.3320667,NH3,9,9,9
India,Haryana,Panchkula,"Sector-6, Panchkula - HSPCB ",12-04-2024 19:00:00,30.7057778,76.8531805555555,NO2,9,11,10
India,Haryana,Panchkula,"Sector-6, Panchkula - HSPCB ",12-04-2024 19:00:00,30.7057778,76.8531805555555,OZONE,39,58,53
India,Haryana,Panipat,"Sector-18, Panipat - HSPCB",12-04-2024 19:00:00,29.497973,76.993331,OZONE,30,30,30
India,Haryana,Rohtak,"MD University, Rohtak - HSPCB",12-04-2024 19:00:00,28.52123,76.37138,NO2,45,56,51
India,Haryana,Sirsa,"F-Block, Sirsa - HSPCB",12-04-2024 19:00:00,29.536400,75.015800,NH3,10,13,12
India,Haryana,Sirsa,"F-Block, Sirsa - HSPCB",12-04-2024 19:00:00,29.536400,75.015800,SO2,65,87,81
India,Haryana,Sonipat,"Murthal, Sonipat - HSPCB",12-04-2024 19:00:00,29.027200,77.062100,NO2,37,44,40
India,Haryana,Yamuna Nagar,"Gobind Pura, Yamuna Nagar - HSPCB",12-04-2024 19:00:00,30.1480566,77.2893471,PM10,NA,NA,NA
India,Haryana,Yamuna Nagar,"Gobind Pura, Yamuna Nagar - HSPCB",12-04-2024 19:00:00,30.1480566,77.2893471,SO2,NA,NA,NA
India,Himachal Pradesh,Baddi,"HIMUDA Complex Phase-1, Baddi - HPPCB",12-04-2024 19:00:00,30.943887,76.801991,PM10,23,119,60
India,Himachal Pradesh,Baddi,"HIMUDA Complex Phase-1, Baddi - HPPCB",12-04-2024 19:00:00,30.943887,76.801991,SO2,10,76,25
India,Jharkhand,Dhanbad,"Kalakusuma, Dhanbad - DMC",12-04-2024 19:00:00,23.811548,86.481238,PM10,80,161,110
India,Jharkhand,Dhanbad,"Kalakusuma, Dhanbad - DMC",12-04-2024 19:00:00,23.811548,86.481238,OZONE,34,61,49
India,Jharkhand,Pathardih,"Mohalbani Ghat, Pathardih - DMC",12-04-2024 19:00:00,23.669880,86.411725,OZONE,11,53,49
India,Karnataka,Bagalkot,"Vidayagiri, Bagalkot - KSPCB",12-04-2024 19:00:00,16.172806,75.659694,NH3,1,2,1
India,Karnataka,Bagalkot,"Vidayagiri, Bagalkot - KSPCB",12-04-2024 19:00:00,16.172806,75.659694,OZONE,28,39,32
India,Karnataka,Belgaum,"Ramteerth Nagar, Belgaum - KSPCB",12-04-2024 19:00:00,15.888653,74.541751,PM2.5,NA,NA,NA
India,Karnataka,Belgaum,"Ramteerth Nagar, Belgaum - KSPCB",12-04-2024 19:00:00,15.888653,74.541751,PM10,NA,NA,NA
India,Karnataka,Bengaluru,"BTM Layout, Bengaluru - CPCB",12-04-2024 19:00:00,12.9135218,77.5950804,NO2,28,44,32
India,Karnataka,Bengaluru,"BTM Layout, Bengaluru - CPCB",12-04-2024 19:00:00,12.9135218,77.5950804,SO2,8,11,9
India,Karnataka,Bengaluru,"BTM Layout, Bengaluru - CPCB",12-04-2024 19:00:00,12.9135218,77.5950804,CO,20,42,28
India,Karnataka,Bengaluru,"BTM Layout, Bengaluru - CPCB",12-04-2024 19:00:00,12.9135218,77.5950804,OZONE,5,133,62
India,Karnataka,Bengaluru,"Bapuji Nagar, Bengaluru - KSPCB",12-04-2024 19:00:00,12.951913,77.539784,CO,36,57,51
India,Karnataka,Bengaluru,"Bapuji Nagar, Bengaluru - KSPCB",12-04-2024 19:00:00,12.951913,77.539784,OZONE,22,29,27
India,Karnataka,Bengaluru,"Hebbal, Bengaluru - KSPCB",12-04-2024 19:00:00,13.029152,77.585901,SO2,NA,NA,NA
India,Karnataka,Bengaluru,"Hebbal, Bengaluru - KSPCB",12-04-2024 19:00:00,13.029152,77.585901,CO,6,44,12
India,Karnataka,Bengaluru,"Hebbal, Bengaluru - KSPCB",12-04-2024 19:00:00,13.029152,77.585901,OZONE,7,17,12
India,Karnataka,Bengaluru,"Hombegowda Nagar, Bengaluru - KSPCB",12-04-2024 19:00:00,12.938539,77.590100,CO,10,14,12
India,Karnataka,Bengaluru,"Jayanagar 5th Block, Bengaluru - KSPCB",12-04-2024 19:00:00,12.920984,77.584908,PM2.5,36,79,53
India,Karnataka,Bengaluru,"Jayanagar 5th Block, Bengaluru - KSPCB",12-04-2024 19:00:00,12.920984,77.584908,NO2,4,9,5
India,Karnataka,Bengaluru,"Kasturi Nagar, Bengaluru - KSPCB",12-04-2024 19:00:00,13.003872,77.664217,PM2.5,37,98,61
India,Karnataka,Bengaluru,"Kasturi Nagar, Bengaluru - KSPCB",12-04-2024 19:00:00,13.003872,77.664217,NO2,16,18,16
India,Karnataka,Bengaluru,"RVCE-Mailasandra, Bengaluru - KSPCB",12-04-2024 19:00:00,12.921418,77.502466,NO2,NA,NA,NA
India,Karnataka,Bengaluru,"Sanegurava Halli, Bengaluru - KSPCB",12-04-2024 19:00:00,12.990328,77.5431385,NO2,22,41,26
India,Karnataka,Bengaluru,"Silk Board, Bengaluru - KSPCB",12-04-2024 19:00:00,12.917348,77.622813,PM10,NA,NA,NA
India,Karnataka,Chamarajanagar,"Urban, Chamarajanagar - KSPCB",12-04-2024 19:00:00,11.55358,76.55521,NH3,1,2,1
India,Karnataka,Chikkaballapur,"Chikkaballapur Rural, Chikkaballapur - KSPCB",12-04-2024 19:00:00,13.428828,77.731418,NO2,6,12,7
India,Karnataka,Chikkaballapur,"Chikkaballapur Rural, Chikkaballapur - KSPCB",12-04-2024 19:00:00,13.428828,77.731418,SO2,13,18,16
India,Karnataka,Chikkaballapur,"Chikkaballapur Rural, Chikkaballapur - KSPCB",12-04-2024 19:00:00,13.428828,77.731418,CO,10,18,16
India,Karnataka,Chikkamagaluru,"Kalyana Nagara, Chikkamagaluru - KSPCB",12-04-2024 19:00:00,13.328028,75.797056,NO2,17,31,22
India,Karnataka,Chikkamagaluru,"Kalyana Nagara, Chikkamagaluru - KSPCB",12-04-2024 19:00:00,13.328028,75.797056,NH3,2,4,3
India,Karnataka,Chikkamagaluru,"Kalyana Nagara, Chikkamagaluru - KSPCB",12-04-2024 19:00:00,13.328028,75.797056,CO,8,115,36
India,Karnataka,Davanagere,"Devaraj Urs Badavane, Davanagere - KSPCB",12-04-2024 19:00:00,14.475800,75.905200,NO2,NA,NA,NA
India,Karnataka,Gadag,"Panchal Nagar, Gadag - KSPCB",12-04-2024 19:00:00,15.411456,75.638133,SO2,12,16,14
India,Karnataka,Gadag,"Panchal Nagar, Gadag - KSPCB",12-04-2024 19:00:00,15.411456,75.638133,CO,45,54,48
India,Karnataka,Hubballi,"Lingaraj Nagar, Hubballi - KSPCB",12-04-2024 19:00:00,15.3714823,75.1160168,NH3,2,4,3
India,Karnataka,Hubballi,"Lingaraj Nagar, Hubballi - KSPCB",12-04-2024 19:00:00,15.3714823,75.1160168,CO,13,30,21
India,Karnataka,Kalaburagi,"Lal Bahadur Shastri Nagar, Kalaburagi - KSPCB",12-04-2024 19:00:00,17.321993,76.822628,PM10,NA,NA,NA
India,Karnataka,Kalaburagi,"Lal Bahadur Shastri Nagar, Kalaburagi - KSPCB",12-04-2024 19:00:00,17.321993,76.822628,NO2,12,12,12
India,Karnataka,Kalaburagi,"Lal Bahadur Shastri Nagar, Kalaburagi - KSPCB",12-04-2024 19:00:00,17.321993,76.822628,SO2,NA,NA,NA
India,Karnataka,Kalaburagi,"Mahatma Basaveswar Colony, Kalaburgi - KSPCB",12-04-2024 19:00:00,17.336318,76.847397,PM2.5,NA,NA,NA
India,Karnataka,Kalaburagi,"Mahatma Basaveswar Colony, Kalaburgi - KSPCB",12-04-2024 19:00:00,17.336318,76.847397,NO2,NA,NA,NA
India,Karnataka,Karwar,"KHB Colony, Karwar - KSPCB",12-04-2024 19:00:00,14.816666,74.141003,OZONE,21,22,22
India,Karnataka,Kolar,"Tamaka Ind. Area, Kolar - KSPCB",12-04-2024 19:00:00,13.1276288,78.1570122,OZONE,13,16,14
India,Karnataka,Koppal,"Diwator Nagar, Koppal - KSPCB",12-04-2024 19:00:00,15.347630,76.181767,SO2,28,28,28
India,Karnataka,Madikeri,"Stuart Hill, Madikeri - KSPCB",12-04-2024 19:00:00,12.415911,75.735050,CO,4,86,31
India,Karnataka,Raichur,"Haji Colony, Raichur - KSPCB",12-04-2024 19:00:00,16.208139,77.348417,PM2.5,NA,NA,NA
India,Karnataka,Ramanagara,"Vijay Nagar, Ramanagara - KSPCB",12-04-2024 19:00:00,12.733409,77.298051,SO2,21,35,28
India,Karnataka,Shivamogga,"Vinoba Nagara, Shivamogga - KSPCB",12-04-2024 19:00:00,13.940000,75.555917,NO2,11,15,13
India,Karnataka,Tumakuru,"Thimmalapura, Tumakuru - KSPCB",12-04-2024 19:00:00,13.377516,77.099072,SO2,8,14,9
India,Karnataka,Tumakuru,"Thimmalapura, Tumakuru - KSPCB",12-04-2024 19:00:00,13.377516,77.099072,CO,30,35,32
India,Karnataka,Tumakuru,"Thimmalapura, Tumakuru - KSPCB",12-04-2024 19:00:00,13.377516,77.099072,OZONE,13,38,31
India,Karnataka,Vijayapura,"Ibrahimpur, Vijayapura - KSPCB",12-04-2024 19:00:00,16.802639,75.722694,PM2.5,26,31,30
India,Karnataka,Vijayapura,"Ibrahimpur, Vijayapura - KSPCB",12-04-2024 19:00:00,16.802639,75.722694,NO2,17,19,19
India,Karnataka,Yadgir,"Collector Office, Yadgir - KSPCB",12-04-2024 19:00:00,16.7602,77.1428,CO,14,20,17
India,Kerala,Eloor,"Udyogamandal, Eloor - Kerala PCB",12-04-2024 19:00:00,10.073232,76.302765,NO2,4,4,4
India,Kerala,Eloor,"Udyogamandal, Eloor - Kerala PCB",12-04-2024 19:00:00,10.073232,76.302765,NH3,1,1,1
India,Kerala,Eloor,"Udyogamandal, Eloor - Kerala PCB",12-04-2024 19:00:00,10.073232,76.302765,SO2,1,12,3
India,Kerala,Eloor,"Udyogamandal, Eloor - Kerala PCB",12-04-2024 19:00:00,10.073232,76.302765,CO,12,108,73
India,Kerala,Kollam,"Polayathode, Kollam - Kerala PCB",12-04-2024 19:00:00,8.8787,76.6073,OZONE,34,38,35
India,Kerala,Thiruvananthapuram,"Kariavattom, Thiruvananthapuram - Kerala PCB",12-04-2024 19:00:00,8.563700,76.886500,CO,18,36,21
India,Kerala,Thiruvananthapuram,"Plammoodu, Thiruvananthapuram - Kerala PCB",12-04-2024 19:00:00,8.5149093,76.9435879,OZONE,6,78,13
India,Madhya Pradesh,Bhopal,"Idgah Hills, Bhopal - MPPCB",12-04-2024 19:00:00,23.264759,77.381568,SO2,11,26,17
India,Madhya Pradesh,Bhopal,"Paryavaran Parisar, Bhopal - MPPCB",12-04-2024 19:00:00,23.210494,77.425409,PM10,29,113,60
India,Madhya Pradesh,Bhopal,"Paryavaran Parisar, Bhopal - MPPCB",12-04-2024 19:00:00,23.210494,77.425409,NH3,8,10,9
India,Madhya Pradesh,Bhopal,"T T Nagar, Bhopal - MPPCB",12-04-2024 19:00:00,23.233584,77.400574,PM2.5,29,75,54
India,Madhya Pradesh,Bhopal,"T T Nagar, Bhopal - MPPCB",12-04-2024 19:00:00,23.233584,77.400574,NO2,7,18,10
India,Madhya Pradesh,Bhopal,"T T Nagar, Bhopal - MPPCB",12-04-2024 19:00:00,23.233584,77.400574,NH3,8,9,8
India,Madhya Pradesh,Dewas,"Bhopal Chauraha, Dewas - MPPCB",12-04-2024 19:00:00,22.9682591,76.064118,PM10,25,78,48
India,Madhya Pradesh,Dewas,"Bhopal Chauraha, Dewas - MPPCB",12-04-2024 19:00:00,22.9682591,76.064118,NH3,3,3,3
India,Madhya Pradesh,Gwalior,"City Center, Gwalior - MPPCB",12-04-2024 19:00:00,26.203442,78.193251,NH3,NA,NA,NA
India,Madhya Pradesh,Gwalior,"City Center, Gwalior - MPPCB",12-04-2024 19:00:00,26.203442,78.193251,CO,30,78,54
India,Madhya Pradesh,Gwalior,"Deen Dayal Nagar, Gwalior - MPPCB",12-04-2024 19:00:00,26.259242,78.216432,CO,17,126,53
India,Madhya Pradesh,Gwalior,"Deen Dayal Nagar, Gwalior - MPPCB",12-04-2024 19:00:00,26.259242,78.216432,OZONE,20,160,129
India,Madhya Pradesh,Gwalior,"Maharaj Bada, Gwalior - MPPCB",12-04-2024 19:00:00,26.200388,78.147714,NH3,2,8,4
India,Madhya Pradesh,Gwalior,"Phool Bagh, Gwalior - Mondelez Ind. Food",12-04-2024 19:00:00,26.210536,78.171,PM10,NA,NA,NA
India,Madhya Pradesh,Indore,"Chhoti Gwaltoli, Indore - MPPCB",12-04-2024 19:00:00,22.4310,75.5213,PM2.5,45,82,63
India,Madhya Pradesh,Indore,"Chhoti Gwaltoli, Indore - MPPCB",12-04-2024 19:00:00,22.4310,75.5213,NO2,28,61,43
India,Madhya Pradesh,Indore,"Regional Park, Indore - IMC",12-04-2024 19:00:00,22.6780,75.8559,NH3,1,5,3
India,Madhya Pradesh,Indore,"Regional Park, Indore - IMC",12-04-2024 19:00:00,22.6780,75.8559,OZONE,10,17,16
India,Madhya Pradesh,Indore,"Residency Area, Indore - IMC",12-04-2024 19:00:00,22.7084,75.8815,SO2,27,30,28
India,Madhya Pradesh,Jabalpur,"Marhatal, Jabalpur - MPPCB",12-04-2024 19:00:00,23.168606,79.932247,CO,30,70,42
India,Madhya Pradesh,Jabalpur,"Suhagi, Jabalpur - JMC",12-04-2024 19:00:00,23.218135,79.957770,PM10,19,80,37
India,Madhya Pradesh,Katni,"Gole Bazar, Katni - MPPCB",12-04-2024 19:00:00,23.50016,80.23284,NO2,20,134,47
India,Madhya Pradesh,Katni,"Gole Bazar, Katni - MPPCB",12-04-2024 19:00:00,23.50016,80.23284,NH3,3,17,5
India,Madhya Pradesh,Maihar,"Sahilara, Maihar - KJS Cements",12-04-2024 19:00:00,24.2613009,80.7231783,CO,68,86,78
India,Madhya Pradesh,Mandideep,"Sector-D Industrial Area, Mandideep - MPPCB",12-04-2024 19:00:00,23.108440,77.511428,PM10,56,283,130
India,Madhya Pradesh,Mandideep,"Sector-D Industrial Area, Mandideep - MPPCB",12-04-2024 19:00:00,23.108440,77.511428,NH3,NA,NA,NA
India,Madhya Pradesh,Sagar,"Civil Lines, Sagar - MPPCB",12-04-2024 19:00:00,23.838586,78.759431,NO2,9,21,15
India,Madhya Pradesh,Singrauli,"Suryakiran Bhawan NCL, Singrauli - MPPCB",12-04-2024 19:00:00,24.108970,82.645580,PM2.5,NA,NA,NA
India,Madhya Pradesh,Singrauli,"Suryakiran Bhawan NCL, Singrauli - MPPCB",12-04-2024 19:00:00,24.108970,82.645580,PM10,NA,NA,NA
India,Madhya Pradesh,Singrauli,"Suryakiran Bhawan NCL, Singrauli - MPPCB",12-04-2024 19:00:00,24.108970,82.645580,NO2,NA,NA,NA
India,Madhya Pradesh,Singrauli,"Suryakiran Bhawan NCL, Singrauli - MPPCB",12-04-2024 19:00:00,24.108970,82.645580,SO2,NA,NA,NA
India,Maharashtra,Ahmednagar,"Tarakpur, Ahmednagar - MPCB",12-04-2024 19:00:00,19.10122,74.73339,PM2.5,23,79,52
India,Maharashtra,Ahmednagar,"Tarakpur, Ahmednagar - MPCB",12-04-2024 19:00:00,19.10122,74.73339,CO,40,102,68
India,Maharashtra,Akola,"Ramdaspeth, Akola - MPCB",12-04-2024 19:00:00,20.719516,77.000253,PM2.5,32,82,51
India,Maharashtra,Akola,"Ramdaspeth, Akola - MPCB",12-04-2024 19:00:00,20.719516,77.000253,NO2,13,39,19
India,Maharashtra,Akola,"Ramdaspeth, Akola - MPCB",12-04-2024 19:00:00,20.719516,77.000253,CO,16,62,34
India,Maharashtra,Amravati,"Shri Shivaji Science College, Amaravati - MPCB",12-04-2024 19:00:00,20.939198,77.765701,PM2.5,41,89,60
India,Maharashtra,Amravati,"Shri Shivaji Science College, Amaravati - MPCB",12-04-2024 19:00:00,20.939198,77.765701,CO,16,35,26
India,Maharashtra,Amravati,"Shri Shivaji Science College, Amaravati - MPCB",12-04-2024 19:00:00,20.939198,77.765701,OZONE,16,90,71
India,Maharashtra,Aurangabad,"MIDC Chilkalthana, Aurangabad - MPCB",12-04-2024 19:00:00,19.875620,75.387310,NO2,8,26,13
India,Maharashtra,Aurangabad,"More Chowk Waluj, Aurangabad - MPCB",12-04-2024 19:00:00,19.8389439,75.244448,PM10,25,105,55
India,Maharashtra,Badlapur,"Katrap, Badlapur - MPCB",12-04-2024 19:00:00,19.16485,73.23409,PM2.5,78,228,115
India,Maharashtra,Badlapur,"Katrap, Badlapur - MPCB",12-04-2024 19:00:00,19.16485,73.23409,NH3,1,4,2
India,Maharashtra,Belapur,"CBD Belapur, Belapur - MPCB",12-04-2024 19:00:00,19.0243902,73.0406721,PM10,64,144,86
India,Maharashtra,Bhiwandi,"Gokul Nagar, Bhiwandi - MPCB",12-04-2024 19:00:00,19.309073,73.057223,NO2,11,56,24
India,Maharashtra,Bhiwandi,"Gokul Nagar, Bhiwandi - MPCB",12-04-2024 19:00:00,19.309073,73.057223,OZONE,13,228,109
India,Maharashtra,Boisar,"Khaira, Boisar - MPCB",12-04-2024 19:00:00,19.786089,72.757971,NO2,9,57,34
India,Maharashtra,Chandrapur,"Chauhan Colony, Chandrapur - MPCB",12-04-2024 19:00:00,19.962900,79.298714,SO2,3,5,4
India,Maharashtra,Chandrapur,"Chauhan Colony, Chandrapur - MPCB",12-04-2024 19:00:00,19.962900,79.298714,CO,24,26,24
India,Maharashtra,Dhule,"Deopur, Dhule - MPCB",12-04-2024 19:00:00,20.918946,74.776388,PM10,109,146,130
India,Maharashtra,Jalgaon,"Prabhat Colony, Jalgaon - MPCB",12-04-2024 19:00:00,21.001264,75.565602,PM10,67,174,114
India,Maharashtra,Jalgaon,"Prabhat Colony, Jalgaon - MPCB",12-04-2024 19:00:00,21.001264,75.565602,SO2,NA,NA,NA
India,Maharashtra,Jalna,"Old MIDC, Jalna - MPCB",12-04-2024 19:00:00,19.854616,75.905894,PM2.5,5,71,38
India,Maharashtra,Jalna,"Old MIDC, Jalna - MPCB",12-04-2024 19:00:00,19.854616,75.905894,PM10,31,82,43
India,Maharashtra,Jalna,"Old MIDC, Jalna - MPCB",12-04-2024 19:00:00,19.854616,75.905894,NO2,8,16,11
India,Maharashtra,Jalna,"Old MIDC, Jalna - MPCB",12-04-2024 19:00:00,19.854616,75.905894,NH3,6,8,7
India,Maharashtra,Kalyan,"Khadakpada, Kalyan - MPCB",12-04-2024 19:00:00,19.25292,73.142019,PM10,78,124,101
India,Maharashtra,Kolhapur,"Shivaji University, Kolhapur - MPCB",12-04-2024 19:00:00,16.6870449,74.2505872,PM10,102,162,127
India,Maharashtra,Kolhapur,"Sinchan Bhavan, Kolhapur - MPCB",12-04-2024 19:00:00,16.7143745,74.2426398,PM10,56,124,89
India,Maharashtra,Kolhapur,"Sinchan Bhavan, Kolhapur - MPCB",12-04-2024 19:00:00,16.7143745,74.2426398,OZONE,30,188,139
India,Maharashtra,Latur,"Sawe Wadi, Latur - MPCB",12-04-2024 19:00:00,18.39963,76.57452,NH3,NA,NA,NA
India,Maharashtra,Mahad,"Kamble Tarf Birwadi, Mahad - MPCB",12-04-2024 19:00:00,18.1023399,73.4783687,CO,18,56,35
India,Maharashtra,Mira-Bhayandar,"Bhayandar West, Mira-Bhayandar - MPCB",12-04-2024 19:00:00,19.296481,72.840923,PM2.5,37,79,62
India,Maharashtra,Mira-Bhayandar,"Bhayandar West, Mira-Bhayandar - MPCB",12-04-2024 19:00:00,19.296481,72.840923,NO2,3,26,13
India,Maharashtra,Mira-Bhayandar,"Bhayandar West, Mira-Bhayandar - MPCB",12-04-2024 19:00:00,19.296481,72.840923,SO2,1,9,3
India,Maharashtra,Mumbai,"Bandra Kurla Complex, Mumbai - MPCB",12-04-2024 19:00:00,19.065931,72.862131,OZONE,9,67,45
India,Maharashtra,Mumbai,"Borivali East, Mumbai - MPCB",12-04-2024 19:00:00,19.2243333,72.8658113,PM2.5,14,40,27
India,Maharashtra,Mumbai,"Borivali East, Mumbai - MPCB",12-04-2024 19:00:00,19.2243333,72.8658113,SO2,6,9,7
India,Maharashtra,Mumbai,"Chakala-Andheri East, Mumbai - IITM",12-04-2024 19:00:00,19.11074,72.86084,PM2.5,35,95,60
India,Maharashtra,Mumbai,"Chakala-Andheri East, Mumbai - IITM",12-04-2024 19:00:00,19.11074,72.86084,PM10,36,356,91
India,Maharashtra,Mumbai,"Chakala-Andheri East, Mumbai - IITM",12-04-2024 19:00:00,19.11074,72.86084,SO2,22,74,42
India,Maharashtra,Mumbai,"Chembur, Mumbai - MPCB",12-04-2024 19:00:00,19.0364585,72.8954371,PM2.5,45,81,65
India,Maharashtra,Mumbai,"Chembur, Mumbai - MPCB",12-04-2024 19:00:00,19.0364585,72.8954371,NH3,2,4,3
India,Maharashtra,Mumbai,"Chembur, Mumbai - MPCB",12-04-2024 19:00:00,19.0364585,72.8954371,CO,12,28,16
India,Maharashtra,Mumbai,"Chembur, Mumbai - MPCB",12-04-2024 19:00:00,19.0364585,72.8954371,OZONE,14,91,65
India,Maharashtra,Mumbai,"Chhatrapati Shivaji Intl. Airport (T2), Mumbai - MPCB",12-04-2024 19:00:00,19.10078,72.87462,PM10,58,104,79
India,Maharashtra,Mumbai,"Chhatrapati Shivaji Intl. Airport (T2), Mumbai - MPCB",12-04-2024 19:00:00,19.10078,72.87462,OZONE,4,8,6
India,Maharashtra,Mumbai,"Colaba, Mumbai - MPCB",12-04-2024 19:00:00,18.910000,72.820000,PM2.5,29,77,45
India,Maharashtra,Mumbai,"Colaba, Mumbai - MPCB",12-04-2024 19:00:00,18.910000,72.820000,PM10,53,98,66
India,Maharashtra,Mumbai,"Ghatkopar, Mumbai - BMC",12-04-2024 19:00:00,19.083694,72.920967,CO,4,20,9
India,Maharashtra,Mumbai,"Ghatkopar, Mumbai - BMC",12-04-2024 19:00:00,19.083694,72.920967,OZONE,2,47,27
India,Maharashtra,Mumbai,"Kandivali East, Mumbai - MPCB",12-04-2024 19:00:00,19.205800,72.868200,SO2,6,7,7
India,Maharashtra,Mumbai,"Kandivali West, Mumbai - BMC",12-04-2024 19:00:00,19.215859,72.831718,NH3,NA,NA,NA
India,Maharashtra,Mumbai,"Kandivali West, Mumbai - BMC",12-04-2024 19:00:00,19.215859,72.831718,OZONE,15,61,41
India,Maharashtra,Mumbai,"Kurla, Mumbai - MPCB",12-04-2024 19:00:00,19.0863,72.8888,NH3,2,2,2
India,Maharashtra,Mumbai,"Mazgaon, Mumbai - IITM",12-04-2024 19:00:00,18.96702,72.84214,NH3,3,41,7
India,Maharashtra,Mumbai,"Mazgaon, Mumbai - IITM",12-04-2024 19:00:00,18.96702,72.84214,SO2,1,85,18
India,Maharashtra,Mumbai,"Mindspace-Malad West, Mumbai - MPCB",12-04-2024 19:00:00,19.1878657,72.8304069,NH3,8,9,8
India,Maharashtra,Mumbai,"Mindspace-Malad West, Mumbai - MPCB",12-04-2024 19:00:00,19.1878657,72.8304069,CO,8,30,10
India,Maharashtra,Mumbai,"Mulund West, Mumbai - MPCB",12-04-2024 19:00:00,19.1750,72.9419,NH3,10,11,10
India,Maharashtra,Mumbai,"Navy Nagar-Colaba, Mumbai - IITM",12-04-2024 19:00:00,18.897756,72.813320,SO2,1,6,3
India,Maharashtra,Mumbai,"Powai, Mumbai - MPCB",12-04-2024 19:00:00,19.137500,72.915056,PM2.5,24,44,35
India,Maharashtra,Mumbai,"Sewri, Mumbai - BMC",12-04-2024 19:00:00,19.000084,72.856730,CO,11,37,15
India,Maharashtra,Mumbai,"Sewri, Mumbai - BMC",12-04-2024 19:00:00,19.000084,72.856730,OZONE,17,103,49
India,Maharashtra,Mumbai,"Shivaji Nagar, Mumbai - BMC",12-04-2024 19:00:00,19.060498,72.923356,PM2.5,25,50,34
India,Maharashtra,Mumbai,"Siddharth Nagar-Worli, Mumbai - IITM",12-04-2024 19:00:00,19.000083,72.813993,OZONE,25,83,56
India,Maharashtra,Mumbai,"Worli, Mumbai - MPCB",12-04-2024 19:00:00,18.9936162,72.8128113,SO2,11,12,11
India,Maharashtra,Nagpur,"Ambazari, Nagpur - MPCB",12-04-2024 19:00:00,21.121801,79.04952,CO,23,60,23
India,Maharashtra,Nagpur,"Mahal, Nagpur - MPCB",12-04-2024 19:00:00,21.14472,79.107595,OZONE,2,49,32
India,Maharashtra,Nagpur,"Opp GPO Civil Lines, Nagpur - MPCB",12-04-2024 19:00:00,21.152875,79.0517531,PM2.5,21,109,67
India,Maharashtra,Nagpur,"Opp GPO Civil Lines, Nagpur - MPCB",12-04-2024 19:00:00,21.152875,79.0517531,SO2,1,22,8
India,Maharashtra,Nashik,"Gangapur Road, Nashik - MPCB",12-04-2024 19:00:00,20.0073285,73.7762427,NO2,9,20,15
India,Maharashtra,Nashik,"Gangapur Road, Nashik - MPCB",12-04-2024 19:00:00,20.0073285,73.7762427,NH3,1,2,1
India,Maharashtra,Nashik,"Hirawadi, Nashik - MPCB",12-04-2024 19:00:00,20.021503,73.813844,PM10,53,95,68
India,Maharashtra,Nashik,"MIDC Ambad, Nashik - MPCB",12-04-2024 19:00:00,19.950220,73.731480,PM2.5,30,72,54
India,Maharashtra,Nashik,"MIDC Ambad, Nashik - MPCB",12-04-2024 19:00:00,19.950220,73.731480,OZONE,5,116,98
India,Maharashtra,Nashik,"Pandav Nagari, Nashik - MPCB",12-04-2024 19:00:00,19.9591346,73.7788008,SO2,6,62,14
India,Maharashtra,Nashik,"Pandav Nagari, Nashik - MPCB",12-04-2024 19:00:00,19.9591346,73.7788008,OZONE,7,96,85
India,Maharashtra,Navi Mumbai,"Kopripada-Vashi, Navi Mumbai - MPCB",12-04-2024 19:00:00,19.090337,73.014232,PM2.5,37,105,58
India,Maharashtra,Navi Mumbai,"Kopripada-Vashi, Navi Mumbai - MPCB",12-04-2024 19:00:00,19.090337,73.014232,NH3,1,4,4
India,Maharashtra,Navi Mumbai,"Kopripada-Vashi, Navi Mumbai - MPCB",12-04-2024 19:00:00,19.090337,73.014232,SO2,1,12,3
India,Maharashtra,Navi Mumbai,"Nerul, Navi Mumbai - MPCB",12-04-2024 19:00:00,19.008751,73.016620,NH3,2,3,2
India,Maharashtra,Navi Mumbai,"Sanpada, Navi Mumbai - MPCB",12-04-2024 19:00:00,19.0575752,73.0151367,OZONE,23,197,90
India,Maharashtra,Navi Mumbai,"Sector-19A Nerul, Navi Mumbai - IITM",12-04-2024 19:00:00,19.044,73.0325,NH3,5,8,7
India,Maharashtra,Navi Mumbai,"Tondare-Taloja, Navi Mumbai - MPCB",12-04-2024 19:00:00,19.0630,73.1209,CO,10,54,18
India,Maharashtra,Parbhani,"Masoom Colony, Parbhani - MPCB",12-04-2024 19:00:00,19.265594,76.761463,OZONE,28,86,74
India,Maharashtra,Pimpri-Chinchwad,"Gavalinagar, Pimpri Chinchwad - MPCB",12-04-2024 19:00:00,18.63673,73.82487,NH3,1,5,3
India,Maharashtra,Pimpri-Chinchwad,"Gavalinagar, Pimpri Chinchwad - MPCB",12-04-2024 19:00:00,18.63673,73.82487,OZONE,17,158,128
India,Maharashtra,Pimpri-Chinchwad,"Thergaon, Pimpri Chinchwad - MPCB",12-04-2024 19:00:00,18.616318,73.765797,NO2,24,70,46
India,Maharashtra,Pune,"Bhosari, Pune - IITM",12-04-2024 19:00:00,18.640051,73.848956,PM2.5,9,83,45
India,Maharashtra,Pune,"Bhosari, Pune - IITM",12-04-2024 19:00:00,18.640051,73.848956,NO2,10,33,20
India,Maharashtra,Pune,"Karve Road, Pune - MPCB",12-04-2024 19:00:00,18.5011743,73.8165527,PM2.5,88,88,88
India,Maharashtra,Pune,"Mhada Colony, Pune - IITM",12-04-2024 19:00:00,18.573040,73.927715,PM10,34,98,70
India,Maharashtra,Pune,"Mhada Colony, Pune - IITM",12-04-2024 19:00:00,18.573040,73.927715,NO2,3,19,13
India,Maharashtra,Pune,"Revenue Colony-Shivajinagar, Pune - IITM",12-04-2024 19:00:00,18.530085,73.849598,PM10,62,120,85
India,Maharashtra,Pune,"Revenue Colony-Shivajinagar, Pune - IITM",12-04-2024 19:00:00,18.530085,73.849598,NH3,11,24,17
India,Maharashtra,Sangli,"Vijay Nagar, Sangli - MPCB",12-04-2024 19:00:00, 16.5038,74.3623,SO2,9,26,16
India,Maharashtra,Sangli,"Vijay Nagar, Sangli - MPCB",12-04-2024 19:00:00, 16.5038,74.3623,CO,11,33,18
India,Maharashtra,Solapur,"Dnyaneshwar Nagar, Solapur - MPCB",12-04-2024 19:00:00,17.6336264,75.9132495,NO2,1,18,6
India,Maharashtra,Solapur,"Dnyaneshwar Nagar, Solapur - MPCB",12-04-2024 19:00:00,17.6336264,75.9132495,NH3,24,38,29
India,Maharashtra,Solapur,"Ratandeep Housing Society, Solapur - MPCB",12-04-2024 19:00:00,17.65439,75.90649,OZONE,7,105,86
India,Maharashtra,Solapur,"Solapur, Solapur - MPCB",12-04-2024 19:00:00,17.6599188,75.9063906,SO2,100,107,103
India,Maharashtra,Thane,"Upvan Fort, Thane - MPCB",12-04-2024 19:00:00,19.222279,72.957979,OZONE,30,141,72
India,Maharashtra,Ulhasnagar,"Sidhi Vinayak Nagar, Ulhasnagar - MPCB",12-04-2024 19:00:00,19.235581,73.159121,NO2,6,40,18
India,Maharashtra,Ulhasnagar,"Sidhi Vinayak Nagar, Ulhasnagar - MPCB",12-04-2024 19:00:00,19.235581,73.159121,SO2,6,31,11
India,Maharashtra,Ulhasnagar,"Sidhi Vinayak Nagar, Ulhasnagar - MPCB",12-04-2024 19:00:00,19.235581,73.159121,OZONE,16,63,37
India,Maharashtra,Virar,"Bolinj, Virar - MPCB",12-04-2024 19:00:00,19.4458210,72.7988231,PM2.5,42,114,65
India,Maharashtra,Virar,"Bolinj, Virar - MPCB",12-04-2024 19:00:00,19.4458210,72.7988231,NO2,4,65,22
India,Maharashtra,Virar,"Bolinj, Virar - MPCB",12-04-2024 19:00:00,19.4458210,72.7988231,SO2,1,14,5
India,Maharashtra,Virar,"Bolinj, Virar - MPCB",12-04-2024 19:00:00,19.4458210,72.7988231,CO,8,111,10
India,Manipur,Imphal,"DM College of Science, Imphal - Manipur PCB",12-04-2024 19:00:00,24.8207389,93.9423085,PM10,32,114,55
India,Manipur,Imphal,"DM College of Science, Imphal - Manipur PCB",12-04-2024 19:00:00,24.8207389,93.9423085,NO2,7,8,7
India,Manipur,Imphal,"DM College of Science, Imphal - Manipur PCB",12-04-2024 19:00:00,24.8207389,93.9423085,NH3,2,2,2
India,Nagaland,Kohima,"PWD Juction, Kohima - NPCB",12-04-2024 19:00:00,25.6635413,94.0989878,PM2.5,58,212,104
India,Odisha,Angul,"Hakimapada, Angul - OSPCB",12-04-2024 19:00:00,20.832874,85.104082,PM2.5,33,399,104
India,Odisha,Balasore,"Kalidaspur, Balasore - OSPCB",12-04-2024 19:00:00,21.51161,86.89088,PM10,77,204,129
India,Odisha,Balasore,"Kalidaspur, Balasore - OSPCB",12-04-2024 19:00:00,21.51161,86.89088,NO2,7,64,26
India,Odisha,Balasore,"Kalidaspur, Balasore - OSPCB",12-04-2024 19:00:00,21.51161,86.89088,OZONE,2,122,96
India,Odisha,Barbil,"Forest Office, Barbil - OSPCB",12-04-2024 19:00:00,22.1166054,85.3945546,SO2,4,37,15
India,Odisha,Baripada,"Meher Colony, Baripada - OSPCB",12-04-2024 19:00:00,21.941841,86.728318,PM10,80,118,98
India,Odisha,Bhubaneswar,"Lingraj Mandir, Bhubaneswar - OSPCB",12-04-2024 19:00:00,20.240790,85.836784,NH3,2,3,2
India,Odisha,Bhubaneswar,"Lingraj Mandir, Bhubaneswar - OSPCB",12-04-2024 19:00:00,20.240790,85.836784,SO2,5,130,67
India,Odisha,Bhubaneswar,"Patia, Bhubaneswar - OSPCB",12-04-2024 19:00:00,20.34652,85.81630,PM10,36,134,84
India,Odisha,Bhubaneswar,"Patia, Bhubaneswar - OSPCB",12-04-2024 19:00:00,20.34652,85.81630,CO,NA,NA,NA
India,Odisha,Bileipada,"Tata Township, Bileipada - OSPCB",12-04-2024 19:00:00,22.06156703,85.47409613,OZONE,13,24,23
India,Odisha,Brajrajnagar,"GM Office, Brajrajnagar - OSPCB",12-04-2024 19:00:00,21.8004996,83.8396977,PM2.5,19,69,39
India,Odisha,Brajrajnagar,"GM Office, Brajrajnagar - OSPCB",12-04-2024 19:00:00,21.8004996,83.8396977,PM10,27,96,54
India,Odisha,Brajrajnagar,"GM Office, Brajrajnagar - OSPCB",12-04-2024 19:00:00,21.8004996,83.8396977,NO2,15,17,15
India,Odisha,Byasanagar,"Ferro Chrome Colony, Byasanagar - OSPCB",12-04-2024 19:00:00,20.94185,86.11510,PM2.5,50,230,99
India,Odisha,Byasanagar,"Ferro Chrome Colony, Byasanagar - OSPCB",12-04-2024 19:00:00,20.94185,86.11510,NH3,2,4,2
India,Odisha,Byasanagar,"Ferro Chrome Colony, Byasanagar - OSPCB",12-04-2024 19:00:00,20.94185,86.11510,OZONE,9,108,85
India,Odisha,Cuttack,"CDA Area, Cuttack - OSPCB",12-04-2024 19:00:00,20.48891     ,85.84768     ,NH3,1,2,2
India,Odisha,Keonjhar,"Jagamohanpur, Keonjhar - OSPCB",12-04-2024 19:00:00,21.643900,85.599355,PM10,48,80,60
India,Odisha,Nayagarh,"Dabuna, Nayagarh - OSPCB",12-04-2024 19:00:00,21.847279,85.416905,PM10,NA,NA,NA
India,Odisha,Nayagarh,"Dabuna, Nayagarh - OSPCB",12-04-2024 19:00:00,21.847279,85.416905,NO2,NA,NA,NA
India,Odisha,Nayagarh,"Dabuna, Nayagarh - OSPCB",12-04-2024 19:00:00,21.847279,85.416905,NH3,NA,NA,NA
India,Odisha,Nayagarh,"Dabuna, Nayagarh - OSPCB",12-04-2024 19:00:00,21.847279,85.416905,SO2,NA,NA,NA
India,Odisha,Rairangpur,"Divisional Forest Office, Rairangpur - OSPCB",12-04-2024 19:00:00,22.265816,86.174829,NO2,4,8,7
India,Odisha,Rairangpur,"Divisional Forest Office, Rairangpur - OSPCB",12-04-2024 19:00:00,22.265816,86.174829,CO,12,30,18
India,Odisha,Rourkela,"Raghunathpali, Rourkela - OSPCB",12-04-2024 19:00:00,22.220833,84.809444,SO2,3,96,18
India,Odisha,Suakati,"OMC Colony, Suakati - OSPCB",12-04-2024 19:00:00,21.606865,85.510538,NO2,3,6,5
India,Odisha,Talcher,"Talcher Coalfields,Talcher - OSPCB",12-04-2024 19:00:00,20.9360711,85.1707021,NO2,18,22,20
India,Odisha,Talcher,"Talcher Coalfields,Talcher - OSPCB",12-04-2024 19:00:00,20.9360711,85.1707021,CO,17,128,66
India,Odisha,Talcher,"Talcher Coalfields,Talcher - OSPCB",12-04-2024 19:00:00,20.9360711,85.1707021,OZONE,3,16,14
India,Odisha,Tensa,"Barsua Iron Ore Mines, Tensa - OSPCB",12-04-2024 19:00:00,21.869985,85.167016,PM10,46,73,59
India,Odisha,Tensa,"Barsua Iron Ore Mines, Tensa - OSPCB",12-04-2024 19:00:00,21.869985,85.167016,OZONE,52,97,78
India,Punjab,Amritsar,"Golden Temple, Amritsar - PPCB",12-04-2024 19:00:00,31.620000,74.876512,PM2.5,71,106,84
India,Punjab,Amritsar,"Golden Temple, Amritsar - PPCB",12-04-2024 19:00:00,31.620000,74.876512,NH3,4,10,6
India,Punjab,Bathinda,"Hardev Nagar, Bathinda - PPCB",12-04-2024 19:00:00,30.233011,74.907758,NO2,27,32,29
India,Punjab,Jalandhar,"Civil Line, Jalandhar - PPCB",12-04-2024 19:00:00,31.321907,75.578914,PM2.5,47,124,75
India,Punjab,Jalandhar,"Civil Line, Jalandhar - PPCB",12-04-2024 19:00:00,31.321907,75.578914,NO2,31,42,35
India,Punjab,Jalandhar,"Civil Line, Jalandhar - PPCB",12-04-2024 19:00:00,31.321907,75.578914,OZONE,1,84,69
India,Punjab,Ludhiana,"Punjab Agricultural University, Ludhiana - PPCB",12-04-2024 19:00:00,30.9028,75.8086,PM2.5,43,254,80
India,Punjab,Ludhiana,"Punjab Agricultural University, Ludhiana - PPCB",12-04-2024 19:00:00,30.9028,75.8086,SO2,7,57,20
India,Punjab,Ludhiana,"Punjab Agricultural University, Ludhiana - PPCB",12-04-2024 19:00:00,30.9028,75.8086,OZONE,9,63,43
India,Punjab,Mandi Gobindgarh,"RIMT University, Mandi Gobindgarh - PPCB",12-04-2024 19:00:00,30.649961,76.331442,PM10,NA,NA,NA
India,Punjab,Mandi Gobindgarh,"RIMT University, Mandi Gobindgarh - PPCB",12-04-2024 19:00:00,30.649961,76.331442,NO2,NA,NA,NA
India,Punjab,Patiala,"Model Town, Patiala - PPCB",12-04-2024 19:00:00,30.349388,76.366642,NO2,21,27,24
India,Rajasthan,Ajmer,"Civil Lines,  Ajmer - RSPCB",12-04-2024 19:00:00,26.470859,74.646594,OZONE,15,97,93
India,Rajasthan,Alwar,"Moti Doongri, Alwar - RSPCB",12-04-2024 19:00:00,27.554793,76.611536,NO2,32,95,50
India,Rajasthan,Alwar,"Moti Doongri, Alwar - RSPCB",12-04-2024 19:00:00,27.554793,76.611536,CO,12,64,44
India,Rajasthan,Alwar,"Moti Doongri, Alwar - RSPCB",12-04-2024 19:00:00,27.554793,76.611536,OZONE,14,37,21
India,Rajasthan,Banswara,"Rati Talai, Banswara - RSPCB",12-04-2024 19:00:00,23.555190,74.440010,PM10,NA,NA,NA
India,Rajasthan,Banswara,"Rati Talai, Banswara - RSPCB",12-04-2024 19:00:00,23.555190,74.440010,OZONE,10,148,68
India,Rajasthan,Baran,"Bamboliya, Baran - RSPCB",12-04-2024 19:00:00,25.106006,76.469948,NH3,2,4,3
India,Rajasthan,Barmer,"Railway Colony, Barmer - RSPCB",12-04-2024 19:00:00,25.747299,71.393989,NO2,10,41,19
India,Rajasthan,Barmer,"Railway Colony, Barmer - RSPCB",12-04-2024 19:00:00,25.747299,71.393989,CO,9,47,26
India,Rajasthan,Bhilwara,"Pratap Nagar, Bhilwara - RSPCB",12-04-2024 19:00:00,25.339605,74.618883,OZONE,21,84,76
India,Rajasthan,Bhiwadi,"RIICO Ind. Area III, Bhiwadi - RSPCB",12-04-2024 19:00:00,28.194909,76.862296,PM10,107,359,217
India,Rajasthan,Bhiwadi,"RIICO Ind. Area III, Bhiwadi - RSPCB",12-04-2024 19:00:00,28.194909,76.862296,OZONE,4,76,48
India,Rajasthan,Bhiwadi,"Vasundhara Nagar_UIT, Bhiwadi - RSPCB",12-04-2024 19:00:00,28.207266,76.829265,PM2.5,13,120,53
India,Rajasthan,Bikaner,"MM Ground, Bikaner - RSPCB",12-04-2024 19:00:00,28.018792,73.292658,PM2.5,20,85,38
India,Rajasthan,Bikaner,"MM Ground, Bikaner - RSPCB",12-04-2024 19:00:00,28.018792,73.292658,OZONE,41,79,61
India,Rajasthan,Bundi,"New Colony, Bundi - RSPCB",12-04-2024 19:00:00,25.435774,75.644272,SO2,NA,NA,NA
India,Rajasthan,Bundi,"New Colony, Bundi - RSPCB",12-04-2024 19:00:00,25.435774,75.644272,OZONE,135,170,152
India,Rajasthan,Chittorgarh,"Shastri Nagar, Chittorgarh - RSPCB",12-04-2024 19:00:00,24.892047,74.623527,SO2,2,92,11
India,Rajasthan,Churu,"Subash Chowk, Churu - RSPCB",12-04-2024 19:00:00,28.296139,74.961696,PM10,40,126,70
India,Rajasthan,Dholpur,"Raja Ganj, Dholpur - RSPCB",12-04-2024 19:00:00,26.699557,77.898881,PM2.5,NA,NA,NA
India,Rajasthan,Dholpur,"Raja Ganj, Dholpur - RSPCB",12-04-2024 19:00:00,26.699557,77.898881,SO2,NA,NA,NA
India,Rajasthan,Dungarpur,"Bhoiwada, Dungarpur - RSPCB",12-04-2024 19:00:00,23.837789,73.714926,OZONE,53,87,65
India,Rajasthan,Hanumangarh,"Housing Board, Hanumangarh - RSPCB",12-04-2024 19:00:00,29.610750,74.283608,PM2.5,22,163,63
India,Rajasthan,Jaipur,"Adarsh Nagar, Jaipur - RSPCB",12-04-2024 19:00:00,26.902909,75.836858,CO,10,61,31
India,Rajasthan,Jaipur,"Mansarovar Sector-12, Jaipur - RSPCB",12-04-2024 19:00:00,26.843698,75.766894,OZONE,4,203,51
India,Rajasthan,Jaipur,"Police Commissionerate, Jaipur - RSPCB",12-04-2024 19:00:00,26.9164092,75.7994901,PM10,58,155,92
India,Rajasthan,Jaipur,"RIICO Sitapura, Jaipur - RSPCB",12-04-2024 19:00:00,26.786682,75.827928,SO2,11,30,16
India,Rajasthan,Jaipur,"RIICO Sitapura, Jaipur - RSPCB",12-04-2024 19:00:00,26.786682,75.827928,OZONE,9,98,88
India,Rajasthan,Jaipur,"Sector-2 Murlipura, Jaipur - RSPCB",12-04-2024 19:00:00,26.960669,75.771817,NO2,26,72,46
India,Rajasthan,Jaipur,"Sector-2 Murlipura, Jaipur - RSPCB",12-04-2024 19:00:00,26.960669,75.771817,OZONE,9,76,67
India,Rajasthan,Jhalawar,"Rajlaxmi Nagar, Jhalawar - RSPCB",12-04-2024 19:00:00,24.588397,76.172782,CO,16,42,20
India,Rajasthan,Jhunjhunu,"Indra Nagar, Jhunjhunu - RSPCB",12-04-2024 19:00:00,28.108988,75.386577,PM2.5,25,119,54
India,Rajasthan,Jhunjhunu,"Indra Nagar, Jhunjhunu - RSPCB",12-04-2024 19:00:00,28.108988,75.386577,NO2,21,63,34
India,Rajasthan,Jodhpur,"Collectorate, Jodhpur - RSPCB",12-04-2024 19:00:00,26.268249,73.0193853,PM2.5,23,174,67
India,Rajasthan,Jodhpur,"Collectorate, Jodhpur - RSPCB",12-04-2024 19:00:00,26.268249,73.0193853,PM10,27,174,86
India,Rajasthan,Jodhpur,"Collectorate, Jodhpur - RSPCB",12-04-2024 19:00:00,26.268249,73.0193853,NO2,18,62,36
India,Rajasthan,Jodhpur,"Collectorate, Jodhpur - RSPCB",12-04-2024 19:00:00,26.268249,73.0193853,CO,44,100,80
India,Rajasthan,Jodhpur,"Collectorate, Jodhpur - RSPCB",12-04-2024 19:00:00,26.268249,73.0193853,OZONE,14,156,122
India,Rajasthan,Jodhpur,"Jhalamand, Jodhpur - RSPCB",12-04-2024 19:00:00,26.215415,73.070156,OZONE,57,97,94
India,Rajasthan,Jodhpur,"Mandor, Jodhpur - RSPCB",12-04-2024 19:00:00,26.358805,73.047444,PM10,71,177,103
India,Rajasthan,Jodhpur,"Mandor, Jodhpur - RSPCB",12-04-2024 19:00:00,26.358805,73.047444,CO,21,33,27
India,Rajasthan,Jodhpur,"Samrat Ashok Udhyan, Jodhpur - RSPCB",12-04-2024 19:00:00,26.253384,72.976571,PM2.5,27,158,56
India,Rajasthan,Karauli,"Satyawati Vihar, Karauli - RSPCB",12-04-2024 19:00:00,26.506177,77.025989,NH3,9,17,11
India,Rajasthan,Karauli,"Satyawati Vihar, Karauli - RSPCB",12-04-2024 19:00:00,26.506177,77.025989,SO2,13,20,18
India,Rajasthan,Kota,"Dhanmandi, Kota - RSPCB",12-04-2024 19:00:00,25.164090,75.858137,NO2,8,88,26
India,Rajasthan,Kota,"Dhanmandi, Kota - RSPCB",12-04-2024 19:00:00,25.164090,75.858137,CO,16,66,21
India,Rajasthan,Kota,"Shrinath Puram, Kota - RSPCB",12-04-2024 19:00:00,25.14389,75.821256,PM10,62,133,86
India,Rajasthan,Kota,"Shrinath Puram, Kota - RSPCB",12-04-2024 19:00:00,25.14389,75.821256,SO2,9,22,13
India,Rajasthan,Kota,"Shrinath Puram, Kota - RSPCB",12-04-2024 19:00:00,25.14389,75.821256,OZONE,18,86,78
India,Rajasthan,Nagaur,"Karni Colony, Nagaur - RSPCB",12-04-2024 19:00:00,27.213494,73.734444,NO2,8,25,15
India,Rajasthan,Nagaur,"Karni Colony, Nagaur - RSPCB",12-04-2024 19:00:00,27.213494,73.734444,CO,6,23,14
India,Rajasthan,Pali,"Indira Colony Vistar, Pali - RSPCB",12-04-2024 19:00:00,25.771061, 73.340227,NO2,22,40,30
India,Rajasthan,Rajsamand,"Dhoinda, Rajsamand - RSPCB",12-04-2024 19:00:00,25.036360,73.883502,PM2.5,23,72,35
India,Rajasthan,Sawai Madhopur,"Sahu Nagar, Sawai Madhopur - RSPCB",12-04-2024 19:00:00,26.031443,76.359327,PM2.5,22,290,64
India,Rajasthan,Sawai Madhopur,"Sahu Nagar, Sawai Madhopur - RSPCB",12-04-2024 19:00:00,26.031443,76.359327,NH3,1,14,10
India,Rajasthan,Sikar,"Radhakishan Pura, Sikar - RSPCB",12-04-2024 19:00:00,27.608912,75.153302,PM2.5,28,224,69
India,Rajasthan,Sikar,"Radhakishan Pura, Sikar - RSPCB",12-04-2024 19:00:00,27.608912,75.153302,PM10,53,184,106
India,Rajasthan,Sikar,"Radhakishan Pura, Sikar - RSPCB",12-04-2024 19:00:00,27.608912,75.153302,NH3,5,14,9
India,Rajasthan,Sirohi,"Vedhaynath Colony, Sirohi - RSPCB",12-04-2024 19:00:00,24.885261,72.857549,PM2.5,23,180,50
India,Rajasthan,Sirohi,"Vedhaynath Colony, Sirohi - RSPCB",12-04-2024 19:00:00,24.885261,72.857549,PM10,28,102,56
India,Rajasthan,Tonk,"Shastri Nagar, Tonk - RSPCB",12-04-2024 19:00:00,26.159933,75.780517,PM2.5,32,93,45
India,Rajasthan,Tonk,"Shastri Nagar, Tonk - RSPCB",12-04-2024 19:00:00,26.159933,75.780517,NO2,10,28,17
India,Rajasthan,Udaipur,"Ashok Nagar, Udaipur - RSPCB",12-04-2024 19:00:00,24.5886166,73.6321397,PM10,63,133,99
India,TamilNadu,Ariyalur,"Keelapalur, Ariyalur - TNPCB",12-04-2024 19:00:00,11.06825,79.07033,NH3,NA,NA,NA
India,TamilNadu,Chennai,"Alandur Bus Depot, Chennai - CPCB",12-04-2024 19:00:00,12.9099161,80.1076538,NH3,1,20,3
India,TamilNadu,Chennai,"Manali, Chennai - CPCB",12-04-2024 19:00:00,13.164544,80.26285,PM10,20,61,39
India,TamilNadu,Chennai,"Manali, Chennai - CPCB",12-04-2024 19:00:00,13.164544,80.26285,CO,73,105,95
India,TamilNadu,Chennai,"Perungudi, Chennai - TNPCB",12-04-2024 19:00:00,12.9533,80.2357,OZONE,6,8,6
India,TamilNadu,Chennai,"Royapuram, Chennai - TNPCB",12-04-2024 19:00:00,13.1036,80.2909,NO2,5,28,15
India,TamilNadu,Chennai,"Royapuram, Chennai - TNPCB",12-04-2024 19:00:00,13.1036,80.2909,SO2,1,5,4
India,TamilNadu,Chennai,"Velachery Res. Area, Chennai - CPCB",12-04-2024 19:00:00,13.0052189,80.2398125,NO2,6,12,8
India,TamilNadu,Chennai,"Velachery Res. Area, Chennai - CPCB",12-04-2024 19:00:00,13.0052189,80.2398125,SO2,11,11,11
India,TamilNadu,Coimbatore,"PSG College of Arts and Science, Coimbatore - TNPCB",12-04-2024 19:00:00,11.0328,77.0349,PM2.5,13,137,45
India,TamilNadu,Coimbatore,"PSG College of Arts and Science, Coimbatore - TNPCB",12-04-2024 19:00:00,11.0328,77.0349,NO2,1,8,3
India,TamilNadu,Coimbatore,"PSG College of Arts and Science, Coimbatore - TNPCB",12-04-2024 19:00:00,11.0328,77.0349,NH3,1,1,1
India,TamilNadu,Coimbatore,"PSG College of Arts and Science, Coimbatore - TNPCB",12-04-2024 19:00:00,11.0328,77.0349,OZONE,3,5,4
India,TamilNadu,Cuddalore,"Kudikadu, Cuddalore - TNPCB",12-04-2024 19:00:00,11.6829898,79.7532099,NH3,3,4,3
India,TamilNadu,Gummidipoondi,"Anthoni Pillai Nagar, Gummidipoondi - TNPCB",12-04-2024 19:00:00,13.4127,80.1081,NH3,1,4,2
India,TamilNadu,Ooty,"Bombay Castel, Ooty - TNPCB",12-04-2024 19:00:00,11.4068288,76.7138973,PM10,NA,NA,NA
India,TamilNadu,Ooty,"Bombay Castel, Ooty - TNPCB",12-04-2024 19:00:00,11.4068288,76.7138973,NH3,NA,NA,NA
India,TamilNadu,Palkalaiperur,"Bharathidasan University, Palkalaiperur - TNPCB",12-04-2024 19:00:00,10.681158,78.741746,OZONE,1,1,1
India,TamilNadu,Salem,"Sona College of Technology, Salem - TNPCB",12-04-2024 19:00:00,11.679111,78.125052,PM10,NA,NA,NA
India,TamilNadu,Vellore,"Vasanthapuram, Vellore - TNPCB",12-04-2024 19:00:00,12.909494,79.131861,CO,13,21,17
India,TamilNadu,Virudhunagar,"Collectorate Office, Virudhunagar - TNPCB",12-04-2024 19:00:00,9.559382,77.948828,PM2.5,NA,NA,NA
India,Telangana,Hyderabad,"Bollaram Industrial Area, Hyderabad - TSPCB",12-04-2024 19:00:00,17.540891,78.358528,PM10,35,86,56
India,Telangana,Hyderabad,"Central University, Hyderabad - TSPCB",12-04-2024 19:00:00,17.460103,78.334361,SO2,6,12,8
India,Telangana,Hyderabad,"Central University, Hyderabad - TSPCB",12-04-2024 19:00:00,17.460103,78.334361,CO,10,42,16
India,Telangana,Hyderabad,"ICRISAT Patancheru, Hyderabad - TSPCB",12-04-2024 19:00:00,17.518400,78.278777,PM2.5,14,168,51
India,Telangana,Hyderabad,"ICRISAT Patancheru, Hyderabad - TSPCB",12-04-2024 19:00:00,17.518400,78.278777,NO2,15,17,16
India,Telangana,Hyderabad,"IITH Kandi, Hyderabad - TSPCB",12-04-2024 19:00:00,17.585705,78.126199,PM10,56,82,67
India,Telangana,Hyderabad,"IITH Kandi, Hyderabad - TSPCB",12-04-2024 19:00:00,17.585705,78.126199,NO2,8,8,8
India,Telangana,Hyderabad,"Kokapet, Hyderabad - TSPCB",12-04-2024 19:00:00,17.393559,78.339194,PM10,72,86,79
India,Telangana,Hyderabad,"Kompally Municipal Office, Hyderabad - TSPCB",12-04-2024 19:00:00,17.544899,78.486949,OZONE,36,43,39
India,Telangana,Hyderabad,"Nacharam_TSIIC IALA, Hyderabad - TSPCB",12-04-2024 19:00:00,17.429398,78.569354,PM2.5,NA,NA,NA
India,Telangana,Hyderabad,"New Malakpet, Hyderabad - TSPCB",12-04-2024 19:00:00,17.37206,78.50864,NO2,NA,NA,NA
India,Telangana,Hyderabad,"New Malakpet, Hyderabad - TSPCB",12-04-2024 19:00:00,17.37206,78.50864,SO2,NA,NA,NA
India,Telangana,Hyderabad,"Ramachandrapuram, Hyderabad - TSPCB",12-04-2024 19:00:00,17.528544,78.286195,PM10,NA,NA,NA
India,Telangana,Hyderabad,"Ramachandrapuram, Hyderabad - TSPCB",12-04-2024 19:00:00,17.528544,78.286195,NO2,NA,NA,NA
India,Telangana,Hyderabad,"Ramachandrapuram, Hyderabad - TSPCB",12-04-2024 19:00:00,17.528544,78.286195,CO,28,30,29
India,Telangana,Hyderabad,"Sanathnagar, Hyderabad - TSPCB",12-04-2024 19:00:00,17.4559458,78.4332152,SO2,4,8,6
India,Telangana,Hyderabad,"Somajiguda, Hyderabad - TSPCB",12-04-2024 19:00:00,17.417094,78.457437,CO,18,48,25
India,Telangana,Hyderabad,"Zoo Park, Hyderabad - TSPCB",12-04-2024 19:00:00,17.349694,78.451437,PM10,62,156,122
India,Uttar_Pradesh,Agra,"Manoharpur, Agra - UPPCB",12-04-2024 19:00:00,27.23711,78.01936,PM10,28,90,52
India,Uttar_Pradesh,Agra,"Manoharpur, Agra - UPPCB",12-04-2024 19:00:00,27.23711,78.01936,NH3,2,3,3
India,Uttar_Pradesh,Agra,"Rohta, Agra - UPPCB",12-04-2024 19:00:00,27.106972,78.000111,CO,8,39,11
India,Uttar_Pradesh,Agra,"Sector-3B Avas Vikas Colony, Agra - UPPCB",12-04-2024 19:00:00,27.19412,77.96237,PM2.5,16,56,32
India,Uttar_Pradesh,Agra,"Sector-3B Avas Vikas Colony, Agra - UPPCB",12-04-2024 19:00:00,27.19412,77.96237,OZONE,3,11,7
India,Uttar_Pradesh,Agra,"Shahjahan Garden, Agra - UPPCB",12-04-2024 19:00:00,27.169338,78.03582,PM10,NA,NA,NA
India,Uttar_Pradesh,Agra,"Shahjahan Garden, Agra - UPPCB",12-04-2024 19:00:00,27.169338,78.03582,SO2,NA,NA,NA
India,Uttar_Pradesh,Agra,"Shahjahan Garden, Agra - UPPCB",12-04-2024 19:00:00,27.169338,78.03582,CO,10,32,17
India,Uttar_Pradesh,Agra,"Shastripuram, Agra - UPPCB",12-04-2024 19:00:00,27.19862,77.92066,NO2,46,80,52
India,Uttar_Pradesh,Bareilly,"Civil Lines, Bareilly - UPPCB",12-04-2024 19:00:00,28.359581,79.414455,CO,7,65,26
India,Uttar_Pradesh,Bareilly,"Civil Lines, Bareilly - UPPCB",12-04-2024 19:00:00,28.359581,79.414455,OZONE,1,87,24
India,Uttar_Pradesh,Bareilly,"Rajendra Nagar, Bareilly - UPPCB",12-04-2024 19:00:00,28.38910936,79.42963708,NH3,1,1,1
India,Uttar_Pradesh,Bulandshahr,"Yamunapuram, Bulandshahr - UPPCB",12-04-2024 19:00:00,28.406963,77.849831,NH3,11,21,15
India,Uttar_Pradesh,Firozabad,"Nagla Bhau, Firozabad - UPPCB",12-04-2024 19:00:00,27.168897,78.376960,PM10,33,106,53
India,Uttar_Pradesh,Firozabad,"Vibhab Nagar, Firozabad - UPPCB",12-04-2024 19:00:00,27.1594,78.3953,SO2,14,56,26
India,Uttar_Pradesh,Firozabad,"Vibhab Nagar, Firozabad - UPPCB",12-04-2024 19:00:00,27.1594,78.3953,CO,24,28,26
India,Uttar_Pradesh,Ghaziabad,"Sanjay Nagar, Ghaziabad - UPPCB",12-04-2024 19:00:00,28.685382,77.453839,PM2.5,36,321,202
India,Uttar_Pradesh,Ghaziabad,"Sanjay Nagar, Ghaziabad - UPPCB",12-04-2024 19:00:00,28.685382,77.453839,CO,2,100,24
India,Uttar_Pradesh,Ghaziabad,"Vasundhara, Ghaziabad - UPPCB",12-04-2024 19:00:00,28.6603346,77.3572563,OZONE,21,65,56
India,Uttar_Pradesh,Gorakhpur,"Madan Mohan Malaviya University of Technology, Gorakhpur - UPPCB",12-04-2024 19:00:00,26.730136,83.433859,NO2,2,3,2
India,Uttar_Pradesh,Gorakhpur,"Madan Mohan Malaviya University of Technology, Gorakhpur - UPPCB",12-04-2024 19:00:00,26.730136,83.433859,SO2,33,38,36
India,Uttar_Pradesh,Gorakhpur,"Madan Mohan Malaviya University of Technology, Gorakhpur - UPPCB",12-04-2024 19:00:00,26.730136,83.433859,OZONE,22,60,53
India,Uttar_Pradesh,Jhansi,"Shivaji Nagar, Jhansi - UPPCB",12-04-2024 19:00:00,25.4547,78.6039,NO2,5,75,16
India,Uttar_Pradesh,Kanpur,"NSI Kalyanpur, Kanpur - UPPCB",12-04-2024 19:00:00,26.509954,80.249612,NH3,2,4,2
India,Uttar_Pradesh,Kanpur,"NSI Kalyanpur, Kanpur - UPPCB",12-04-2024 19:00:00,26.509954,80.249612,CO,34,62,40
India,Uttar_Pradesh,Kanpur,"Nehru Nagar, Kanpur - UPPCB",12-04-2024 19:00:00,26.4703136,80.3229863,SO2,3,10,6
India,Uttar_Pradesh,Khurja,"Kalindi Kunj, Khurja - UPPCB",12-04-2024 19:00:00,28.2348927,77.8683002,CO,26,71,42
India,Uttar_Pradesh,Khurja,"Kalindi Kunj, Khurja - UPPCB",12-04-2024 19:00:00,28.2348927,77.8683002,OZONE,26,42,33
India,Uttar_Pradesh,Lucknow,"Gomti Nagar, Lucknow - UPPCB",12-04-2024 19:00:00,26.868120,81.005119,NO2,NA,NA,NA
India,Uttar_Pradesh,Lucknow,"Gomti Nagar, Lucknow - UPPCB",12-04-2024 19:00:00,26.868120,81.005119,CO,40,44,43
India,Uttar_Pradesh,Lucknow,"Kendriya Vidyalaya, Lucknow - CPCB",12-04-2024 19:00:00,26.906111,80.948222,PM10,65,140,118
India,Uttar_Pradesh,Lucknow,"Kendriya Vidyalaya, Lucknow - CPCB",12-04-2024 19:00:00,26.906111,80.948222,NH3,3,17,11
India,Uttar_Pradesh,Lucknow,"Kendriya Vidyalaya, Lucknow - CPCB",12-04-2024 19:00:00,26.906111,80.948222,OZONE,3,111,93
India,Uttar_Pradesh,Lucknow,"Kukrail Picnic Spot-1, Lucknow - UPPCB",12-04-2024 19:00:00,26.90723,80.98579,NO2,8,9,8
India,Uttar_Pradesh,Lucknow,"Lalbagh, Lucknow - CPCB",12-04-2024 19:00:00,26.8458805,80.9365541,PM2.5,70,154,101
India,Uttar_Pradesh,Meerut,"Ganga Nagar, Meerut - UPPCB",12-04-2024 19:00:00,28.999264,77.7590354,PM10,59,238,131
India,Uttar_Pradesh,Meerut,"Ganga Nagar, Meerut - UPPCB",12-04-2024 19:00:00,28.999264,77.7590354,NH3,8,16,11
India,Uttar_Pradesh,Meerut,"Ganga Nagar, Meerut - UPPCB",12-04-2024 19:00:00,28.999264,77.7590354,CO,17,104,29
India,Uttar_Pradesh,Meerut,"Jai Bhim Nagar, Meerut - UPPCB",12-04-2024 19:00:00,28.9535882,77.7622941,PM10,42,158,103
India,Uttar_Pradesh,Meerut,"Jai Bhim Nagar, Meerut - UPPCB",12-04-2024 19:00:00,28.9535882,77.7622941,CO,29,102,46
India,Uttar_Pradesh,Meerut,"Pallavpuram Phase 2, Meerut - UPPCB",12-04-2024 19:00:00,29.063510,77.709723,PM2.5,30,208,107
India,Uttar_Pradesh,Meerut,"Pallavpuram Phase 2, Meerut - UPPCB",12-04-2024 19:00:00,29.063510,77.709723,PM10,58,212,133
India,Uttar_Pradesh,Meerut,"Pallavpuram Phase 2, Meerut - UPPCB",12-04-2024 19:00:00,29.063510,77.709723,NO2,6,149,54
India,Uttar_Pradesh,Meerut,"Pallavpuram Phase 2, Meerut - UPPCB",12-04-2024 19:00:00,29.063510,77.709723,OZONE,2,103,89
India,Uttar_Pradesh,Moradabad,"Buddhi Vihar, Moradabad - UPPCB",12-04-2024 19:00:00,28.83526,78.74460,NO2,23,24,23
India,Uttar_Pradesh,Moradabad,"Buddhi Vihar, Moradabad - UPPCB",12-04-2024 19:00:00,28.83526,78.74460,CO,9,49,23
India,Uttar_Pradesh,Moradabad,"Eco Herbal Park, Moradabad - UPPCB",12-04-2024 19:00:00,28.840739,78.697531,OZONE,9,145,106
India,Uttar_Pradesh,Moradabad,"Employment Office, Moradabad - UPPCB",12-04-2024 19:00:00,28.88528,78.73880,PM10,56,168,111
India,Uttar_Pradesh,Moradabad,"Employment Office, Moradabad - UPPCB",12-04-2024 19:00:00,28.88528,78.73880,NH3,4,4,4
India,Uttar_Pradesh,Moradabad,"Employment Office, Moradabad - UPPCB",12-04-2024 19:00:00,28.88528,78.73880,CO,18,56,30
India,Uttar_Pradesh,Moradabad,"Kashiram Nagar, Moradabad - UPPCB",12-04-2024 19:00:00,28.849399,78.742362,PM10,53,299,128
India,Uttar_Pradesh,Noida,"Sector - 125, Noida - UPPCB",12-04-2024 19:00:00,28.5447608,77.3231257,PM10,85,428,195
India,Uttar_Pradesh,Noida,"Sector - 125, Noida - UPPCB",12-04-2024 19:00:00,28.5447608,77.3231257,NH3,6,20,14
India,Uttar_Pradesh,Noida,"Sector - 62, Noida - IMD",12-04-2024 19:00:00,28.6245479,77.3577104,CO,64,106,82
India,Uttar_Pradesh,Noida,"Sector-1, Noida - UPPCB",12-04-2024 19:00:00,28.5898,77.3101,PM2.5,57,390,182
India,Uttar_Pradesh,Noida,"Sector-116, Noida - UPPCB",12-04-2024 19:00:00,28.569230,77.393848,OZONE,1,180,77
India,Uttar_Pradesh,Prayagraj,"Jhunsi, Prayagraj - UPPCB",12-04-2024 19:00:00,25.425602,81.917152,PM2.5,11,43,28
India,Uttar_Pradesh,Prayagraj,"Jhunsi, Prayagraj - UPPCB",12-04-2024 19:00:00,25.425602,81.917152,NH3,5,5,5
India,Uttar_Pradesh,Prayagraj,"Jhunsi, Prayagraj - UPPCB",12-04-2024 19:00:00,25.425602,81.917152,OZONE,1,86,41
India,Uttar_Pradesh,Prayagraj,"Motilal Nehru NIT, Prayagraj - UPPCB",12-04-2024 19:00:00,25.494,81.863,NH3,6,7,6
India,Uttar_Pradesh,Prayagraj,"Motilal Nehru NIT, Prayagraj - UPPCB",12-04-2024 19:00:00,25.494,81.863,CO,8,28,14
India,Uttar_Pradesh,Prayagraj,"Nagar Nigam, Prayagraj - UPPCB",12-04-2024 19:00:00,25.44919916 ,81.82735986 ,PM10,33,174,95
India,Uttar_Pradesh,Varanasi,"Ardhali Bazar, Varanasi - UPPCB",12-04-2024 19:00:00,25.3505986,82.9083074,NO2,18,37,24
India,Uttar_Pradesh,Varanasi,"IESD Banaras Hindu University, Varanasi - UPPCB",12-04-2024 19:00:00,25.262326,82.995408,NH3,1,3,2
India,Uttar_Pradesh,Varanasi,"Maldahiya, Varanasi - UPPCB",12-04-2024 19:00:00,25.32393,82.99687,OZONE,1,15,13
India,Uttar_Pradesh,Vrindavan,"Omex Eternity, Vrindavan - UPPCB",12-04-2024 19:00:00,27.5714090,77.6557570,PM2.5,24,81,50
India,Uttar_Pradesh,Vrindavan,"Omex Eternity, Vrindavan - UPPCB",12-04-2024 19:00:00,27.5714090,77.6557570,NH3,1,4,2
India,Uttarakhand,Kashipur,"Govt. Girls Inter College, Kashipur - UKPCB",12-04-2024 19:00:00,29.2124114,78.9611753,NH3,2,5,3
India,Uttarakhand,Rishikesh,"Shivaji Nagar, Rishikesh - UKPCB",12-04-2024 19:00:00,30.075911,78.2859547,NH3,2,3,3
India,West_Bengal,Asansol,"Asansol Court Area, Asansol - WBPCB",12-04-2024 19:00:00,23.685297,86.945968,NO2,35,89,49
India,West_Bengal,Asansol,"Asansol Court Area, Asansol - WBPCB",12-04-2024 19:00:00,23.685297,86.945968,CO,28,102,43
India,West_Bengal,Barrackpore,"SVSPA Campus, Barrackpore - WBPCB",12-04-2024 19:00:00,22.7605581,88.3617589,PM2.5,70,257,133
India,West_Bengal,Barrackpore,"SVSPA Campus, Barrackpore - WBPCB",12-04-2024 19:00:00,22.7605581,88.3617589,PM10,82,174,124
India,West_Bengal,Barrackpore,"SVSPA Campus, Barrackpore - WBPCB",12-04-2024 19:00:00,22.7605581,88.3617589,NO2,11,43,21
India,West_Bengal,Durgapur,"Sidhu Kanhu Indoor Stadium, Durgapur - WBPCB",12-04-2024 19:00:00,23.5404352,87.2892225,OZONE,2,75,58
India,West_Bengal,Howrah,"Belur Math, Howrah - WBPCB",12-04-2024 19:00:00,22.629801,88.352017,PM10,83,149,112
India,West_Bengal,Howrah,"Ghusuri, Howrah - WBPCB",12-04-2024 19:00:00,22.611968,88.347422,PM2.5,119,213,147
India,West_Bengal,Howrah,"Ghusuri, Howrah - WBPCB",12-04-2024 19:00:00,22.611968,88.347422,PM10,82,158,116
India,West_Bengal,Kolkata,"Ballygunge, Kolkata - WBPCB",12-04-2024 19:00:00,22.5367507,88.3638022,PM10,70,117,90
India,West_Bengal,Kolkata,"Bidhannagar, Kolkata - WBPCB",12-04-2024 19:00:00,22.58157048,88.41002457,NO2,6,52,23
India,West_Bengal,Kolkata,"Fort William, Kolkata - WBPCB",12-04-2024 19:00:00,22.556640,88.342674,CO,16,66,22
India,West_Bengal,Kolkata,"Jadavpur, Kolkata - WBPCB",12-04-2024 19:00:00,22.49929,88.36917,NH3,1,2,2
India,West_Bengal,Kolkata,"Jadavpur, Kolkata - WBPCB",12-04-2024 19:00:00,22.49929,88.36917,SO2,8,31,19
India,West_Bengal,Kolkata,"Jadavpur, Kolkata - WBPCB",12-04-2024 19:00:00,22.49929,88.36917,OZONE,10,117,104
India,West_Bengal,Kolkata,"Rabindra Bharati University, Kolkata - WBPCB",12-04-2024 19:00:00,22.627847,88.380669,PM2.5,46,92,62
India,West_Bengal,Kolkata,"Rabindra Bharati University, Kolkata - WBPCB",12-04-2024 19:00:00,22.627847,88.380669,SO2,5,11,7
India,West_Bengal,Kolkata,"Rabindra Bharati University, Kolkata - WBPCB",12-04-2024 19:00:00,22.627847,88.380669,CO,34,76,37
India,West_Bengal,Kolkata,"Rabindra Sarobar, Kolkata - WBPCB",12-04-2024 19:00:00,22.51106,88.35142,NH3,5,10,7
India,West_Bengal,Siliguri,"Ward-32 Bapupara, Siliguri - WBPCB",12-04-2024 19:00:00,26.6879226,88.4152495,NO2,23,74,37
India,Andhra_Pradesh,Amaravati,"Secretariat, Amaravati - APPCB",12-04-2024 19:00:00,16.5150833,80.5181667,NO2,2,10,6
India,Andhra_Pradesh,Anantapur,"Gulzarpet, Anantapur - APPCB",12-04-2024 19:00:00,14.675886,77.593027,CO,30,41,35
India,Andhra_Pradesh,Chittoor,"Gangineni Cheruvu, Chittoor - APPCB",12-04-2024 19:00:00,13.204880,79.097889,OZONE,54,65,54
India,Andhra_Pradesh,Rajamahendravaram,"Anand Kala Kshetram, Rajamahendravaram - APPCB",12-04-2024 19:00:00,16.9872867,81.7363176,OZONE,24,43,39
India,Andhra_Pradesh,Tirupati,"Tirumala, Tirupati - APPCB",12-04-2024 19:00:00,13.67,79.35,PM2.5,37,90,48
India,Andhra_Pradesh,Tirupati,"Tirumala, Tirupati - APPCB",12-04-2024 19:00:00,13.67,79.35,PM10,31,87,58
India,Andhra_Pradesh,Tirupati,"Tirumala, Tirupati - APPCB",12-04-2024 19:00:00,13.67,79.35,NO2,19,29,23
India,Andhra_Pradesh,Tirupati,"Vaikuntapuram, Tirupati - APPCB",12-04-2024 19:00:00,13.615387,79.409230,CO,10,16,12
India,Andhra_Pradesh,Vijayawada,"HB Colony, Vijayawada - APPCB",12-04-2024 19:00:00,16.536107,80.594233,PM10,NA,NA,NA
India,Andhra_Pradesh,Vijayawada,"Rajiv Gandhi Park, Vijayawada - APPCB",12-04-2024 19:00:00,16.509717,80.612222,NH3,NA,NA,NA
India,Andhra_Pradesh,Vijayawada,"Rajiv Gandhi Park, Vijayawada - APPCB",12-04-2024 19:00:00,16.509717,80.612222,SO2,NA,NA,NA
India,Andhra_Pradesh,Vijayawada,"Rajiv Gandhi Park, Vijayawada - APPCB",12-04-2024 19:00:00,16.509717,80.612222,CO,41,54,48
India,Andhra_Pradesh,Vijayawada,"Rajiv Gandhi Park, Vijayawada - APPCB",12-04-2024 19:00:00,16.509717,80.612222,OZONE,13,67,53
India,Andhra_Pradesh,Vijayawada,"Rajiv Nagar, Vijayawada - APPCB",12-04-2024 19:00:00,16.554731,80.649110,SO2,NA,NA,NA
India,Andhra_Pradesh,Vijayawada,"Rajiv Nagar, Vijayawada - APPCB",12-04-2024 19:00:00,16.554731,80.649110,OZONE,28,41,38
India,Andhra_Pradesh,Visakhapatnam,"GVM Corporation, Visakhapatnam - APPCB",12-04-2024 19:00:00,17.72,83.3,PM10,57,182,82
India,Assam,Byrnihat,"Central Academy for SFS, Byrnihat - PCBA",12-04-2024 19:00:00,26.071318,91.87488,SO2,7,12,9
India,Assam,Guwahati,"IITG, Guwahati - PCBA",12-04-2024 19:00:00,26.2028636,91.70046436,NH3,NA,NA,NA
India,Assam,Guwahati,"LGBI Airport, Guwahati - PCBA",12-04-2024 19:00:00,26.10887,91.589544,PM10,111,197,145
India,Assam,Guwahati,"LGBI Airport, Guwahati - PCBA",12-04-2024 19:00:00,26.10887,91.589544,NH3,2,9,5
India,Assam,Guwahati,"Pan Bazaar, Guwahati - PCBA",12-04-2024 19:00:00,26.187500,91.744194,PM2.5,277,453,357
India,Assam,Guwahati,"Pan Bazaar, Guwahati - PCBA",12-04-2024 19:00:00,26.187500,91.744194,NH3,3,5,3
India,Assam,Guwahati,"Railway Colony, Guwahati - PCBA",12-04-2024 19:00:00,26.181742,91.78063,PM2.5,96,441,209
India,Assam,Guwahati,"Railway Colony, Guwahati - PCBA",12-04-2024 19:00:00,26.181742,91.78063,OZONE,1,25,13
India,Assam,Nagaon,"Christianpatty, Nagaon - PCBA",12-04-2024 19:00:00,26.349082,92.68449,PM2.5,67,127,89
India,Assam,Nagaon,"Christianpatty, Nagaon - PCBA",12-04-2024 19:00:00,26.349082,92.68449,CO,34,72,52
India,Assam,Nalbari,"Bata Chowk, Nalbari - PCBA",12-04-2024 19:00:00,26.446912,91.439057,PM2.5,143,313,194
India,Assam,Nalbari,"Bata Chowk, Nalbari - PCBA",12-04-2024 19:00:00,26.446912,91.439057,OZONE,23,180,151
India,Assam,Silchar,"Tarapur, Silchar - PCBA",12-04-2024 19:00:00,24.82827,92.79525,NH3,1,1,1
India,Assam,Sivasagar,"Girls College, Sivasagar - PCBA",12-04-2024 19:00:00,26.987634,94.636574,PM10,48,88,64
India,Assam,Sivasagar,"Girls College, Sivasagar - PCBA",12-04-2024 19:00:00,26.987634,94.636574,NH3,2,2,2
India,Assam,Sivasagar,"Girls College, Sivasagar - PCBA",12-04-2024 19:00:00,26.987634,94.636574,CO,4,14,5
India,Bihar,Araria,"Kharahiya Basti, Araria - BSPCB",12-04-2024 19:00:00,26.146529,87.454184,PM2.5,9,97,48
India,Bihar,Araria,"Kharahiya Basti, Araria - BSPCB",12-04-2024 19:00:00,26.146529,87.454184,SO2,12,16,14
India,Bihar,Araria,"Kharahiya Basti, Araria - BSPCB",12-04-2024 19:00:00,26.146529,87.454184,OZONE,4,10,8
India,Bihar,Arrah,"New DM Office, Arrah - BSPCB",12-04-2024 19:00:00,25.5626095,84.663264,PM10,78,500,128
India,Bihar,Arrah,"New DM Office, Arrah - BSPCB",12-04-2024 19:00:00,25.5626095,84.663264,CO,2,13,8
India,Bihar,Aurangabad,"Gurdeo Nagar, Aurangabad - BSPCB",12-04-2024 19:00:00,24.75746,84.366208,NO2,5,5,5
India,Bihar,Aurangabad,"Gurdeo Nagar, Aurangabad - BSPCB",12-04-2024 19:00:00,24.75746,84.366208,OZONE,20,92,64
India,Bihar,Bettiah,"Kamalnath Nagar, Bettiah - BSPCB",12-04-2024 19:00:00,26.80365,84.51954,PM2.5,NA,NA,NA
India,Bihar,Bettiah,"Kamalnath Nagar, Bettiah - BSPCB",12-04-2024 19:00:00,26.80365,84.51954,PM10,NA,NA,NA
India,Bihar,Bettiah,"Kamalnath Nagar, Bettiah - BSPCB",12-04-2024 19:00:00,26.80365,84.51954,NH3,3,8,4
India,Bihar,Bettiah,"Kamalnath Nagar, Bettiah - BSPCB",12-04-2024 19:00:00,26.80365,84.51954,SO2,9,23,16
India,Bihar,Bettiah,"Kamalnath Nagar, Bettiah - BSPCB",12-04-2024 19:00:00,26.80365,84.51954,CO,62,65,64
India,Bihar,Bhagalpur,"Mayaganj, Bhagalpur - BSPCB",12-04-2024 19:00:00,25.265194,87.012947,NO2,2,13,7
India,Bihar,Bhagalpur,"Mayaganj, Bhagalpur - BSPCB",12-04-2024 19:00:00,25.265194,87.012947,NH3,7,8,8
India,Bihar,Bihar Sharif,"D M Colony, Bihar Sharif - BSPCB",12-04-2024 19:00:00,25.204762,85.514960,PM10,23,138,89
India,Bihar,Bihar Sharif,"D M Colony, Bihar Sharif - BSPCB",12-04-2024 19:00:00,25.204762,85.514960,OZONE,1,51,9
India,Bihar,Chhapra,"Darshan Nagar, Chhapra - BSPCB",12-04-2024 19:00:00,25.7808257,84.7446768,NO2,22,33,28
India,Bihar,Chhapra,"Darshan Nagar, Chhapra - BSPCB",12-04-2024 19:00:00,25.7808257,84.7446768,SO2,1,10,4
India,Bihar,Chhapra,"Darshan Nagar, Chhapra - BSPCB",12-04-2024 19:00:00,25.7808257,84.7446768,OZONE,1,4,2
India,Bihar,Gaya,"SFTI Kusdihra, Gaya - BSPCB",12-04-2024 19:00:00,24.762518,84.982348,OZONE,1,101,67
India,Bihar,Hajipur,"Industrial Area, Hajipur - BSPCB",12-04-2024 19:00:00,25.697189,85.245900,NO2,37,67,50
India,Bihar,Hajipur,"Industrial Area, Hajipur - BSPCB",12-04-2024 19:00:00,25.697189,85.245900,SO2,1,12,8
India,Bihar,Hajipur,"Industrial Area, Hajipur - BSPCB",12-04-2024 19:00:00,25.697189,85.245900,OZONE,19,87,75
India,Bihar,Katihar,"Mirchaibari, Katihar - BSPCB",12-04-2024 19:00:00,25.560083,87.553265,NH3,3,8,6
India,Bihar,Katihar,"Mirchaibari, Katihar - BSPCB",12-04-2024 19:00:00,25.560083,87.553265,SO2,18,24,22
India,Bihar,Motihari,"Gandak Colony, Motihari - BSPCB",12-04-2024 19:00:00,26.63086,84.90051,PM2.5,NA,NA,NA
India,Bihar,Motihari,"Gandak Colony, Motihari - BSPCB",12-04-2024 19:00:00,26.63086,84.90051,NH3,NA,NA,NA
India,Bihar,Motihari,"Gandak Colony, Motihari - BSPCB",12-04-2024 19:00:00,26.63086,84.90051,SO2,NA,NA,NA
India,Bihar,Muzaffarpur,"Buddha Colony, Muzaffarpur - BSPCB",12-04-2024 19:00:00,26.11442,85.39813,PM10,79,451,149
India,Bihar,Muzaffarpur,"Buddha Colony, Muzaffarpur - BSPCB",12-04-2024 19:00:00,26.11442,85.39813,CO,22,56,29
India,Bihar,Muzaffarpur,"MIT-Daudpur Kothi, Muzaffarpur - BSPCB",12-04-2024 19:00:00,26.1403345,85.3650192,NO2,5,9,7
India,Bihar,Muzaffarpur,"MIT-Daudpur Kothi, Muzaffarpur - BSPCB",12-04-2024 19:00:00,26.1403345,85.3650192,NH3,3,4,3
India,Bihar,Muzaffarpur,"Muzaffarpur Collectorate, Muzaffarpur - BSPCB",12-04-2024 19:00:00,26.1209,85.3647,NO2,6,250,89
India,Bihar,Patna,"DRM Office Danapur, Patna - BSPCB",12-04-2024 19:00:00,25.586562,85.043586,PM2.5,76,279,144
India,Bihar,Patna,"DRM Office Danapur, Patna - BSPCB",12-04-2024 19:00:00,25.586562,85.043586,NO2,8,111,26
India,Bihar,Patna,"DRM Office Danapur, Patna - BSPCB",12-04-2024 19:00:00,25.586562,85.043586,NH3,2,3,3
India,Bihar,Patna,"IGSC Planetarium Complex, Patna - BSPCB",12-04-2024 19:00:00,25.610369,85.132568,PM2.5,58,318,156
India,Bihar,Patna,"Rajbansi Nagar, Patna - BSPCB",12-04-2024 19:00:00,25.599486,85.113666,NO2,14,54,24
India,Bihar,Patna,"Samanpura, Patna - BSPCB",12-04-2024 19:00:00,25.596727,85.085624,SO2,7,19,12
India,Bihar,Patna,"Samanpura, Patna - BSPCB",12-04-2024 19:00:00,25.596727,85.085624,CO,36,137,51
India,Bihar,Purnia,"Mariam Nagar, Purnia - BSPCB",12-04-2024 19:00:00,25.366336,87.117468,PM10,NA,NA,NA
India,Bihar,Rajgir,"Dangi Tola, Rajgir - BSPCB",12-04-2024 19:00:00,25.03280,85.41948,NO2,18,28,20
India,Bihar,Rajgir,"Dangi Tola, Rajgir - BSPCB",12-04-2024 19:00:00,25.03280,85.41948,CO,28,45,33
India,Bihar,Rajgir,"Dangi Tola, Rajgir - BSPCB",12-04-2024 19:00:00,25.03280,85.41948,OZONE,30,36,34
India,Bihar,Saharsa,"Police Line, Saharsa - BSPCB",12-04-2024 19:00:00,25.892357,86.590325,NH3,9,9,9
India,Bihar,Siwan,"Chitragupta Nagar, Siwan - BSPCB",12-04-2024 19:00:00,26.2271665,84.3570427,PM2.5,30,150,64
India,Bihar,Siwan,"Chitragupta Nagar, Siwan - BSPCB",12-04-2024 19:00:00,26.2271665,84.3570427,PM10,52,355,127
India,Chandigarh,Chandigarh,"Sector 22, Chandigarh - CPCC",12-04-2024 19:00:00,30.735567,76.775714,PM10,43,124,82
India,Chandigarh,Chandigarh,"Sector 22, Chandigarh - CPCC",12-04-2024 19:00:00,30.735567,76.775714,OZONE,3,175,104
India,Chandigarh,Chandigarh,"Sector-25, Chandigarh - CPCC",12-04-2024 19:00:00,30.751462,76.762879,NO2,4,41,21
India,Chhattisgarh,Bhilai,"32Bungalows, Bhilai - CECB",12-04-2024 19:00:00,21.194815,81.314770,PM2.5,22,36,30
India,Chhattisgarh,Bhilai,"32Bungalows, Bhilai - CECB",12-04-2024 19:00:00,21.194815,81.314770,PM10,NA,NA,NA
India,Chhattisgarh,Bhilai,"Civic Center, Bhilai - Bhilai Steel Plant",12-04-2024 19:00:00,21.185571,81.343175,PM10,21,120,45
India,Chhattisgarh,Bhilai,"Civic Center, Bhilai - Bhilai Steel Plant",12-04-2024 19:00:00,21.185571,81.343175,NO2,12,24,16
India,Chhattisgarh,Bhilai,"Civic Center, Bhilai - Bhilai Steel Plant",12-04-2024 19:00:00,21.185571,81.343175,NH3,4,10,5
India,Chhattisgarh,Bilaspur,"Mangala, Bilaspur - NTPC",12-04-2024 19:00:00,22.08815,82.13737,NO2,18,22,20
India,Chhattisgarh,Bilaspur,"Mangala, Bilaspur - NTPC",12-04-2024 19:00:00,22.08815,82.13737,SO2,10,16,12
India,Chhattisgarh,Chhal,"Nawapara SECL Colony, Chhal - CECB",12-04-2024 19:00:00,22.118125,83.140608,SO2,4,22,15
India,Chhattisgarh,Korba,"Rampur, Korba - CECB",12-04-2024 19:00:00,22.368195,82.746431,PM10,29,78,52
India,Chhattisgarh,Korba,"Urja Nagar, Korba - CECB",12-04-2024 19:00:00,22.348441,82.549611,NO2,43,84,62
India,Chhattisgarh,Korba,"Urja Nagar, Korba - CECB",12-04-2024 19:00:00,22.348441,82.549611,CO,28,105,51
India,Chhattisgarh,Kunjemura,"OP Jindal School, Kunjemura - CECB",12-04-2024 19:00:00,22.126650,83.483212,CO,29,72,33
India,Chhattisgarh,Milupara,"Govt. Higher Secondary School, Milupara - CECB",12-04-2024 19:00:00,22.1910172,83.5197009,OZONE,5,20,18
India,Chhattisgarh,Raipur,"AIIMS, Raipur - CECB",12-04-2024 19:00:00,21.258815,81.578979,PM2.5,18,44,27
India,Chhattisgarh,Raipur,"Bhatagaon New ISBT, Raipur - CECB",12-04-2024 19:00:00,21.219665,81.630094,NO2,30,39,34
India,Chhattisgarh,Raipur,"Bhatagaon New ISBT, Raipur - CECB",12-04-2024 19:00:00,21.219665,81.630094,NH3,2,2,2
India,Chhattisgarh,Raipur,"Bhatagaon New ISBT, Raipur - CECB",12-04-2024 19:00:00,21.219665,81.630094,OZONE,3,4,4
India,Chhattisgarh,Raipur,"Siltara Phase-II, Raipur - CECB",12-04-2024 19:00:00,21.371751,81.664929,PM2.5,NA,NA,NA
India,Chhattisgarh,Raipur,"Siltara Phase-II, Raipur - CECB",12-04-2024 19:00:00,21.371751,81.664929,PM10,NA,NA,NA
India,Delhi,Delhi,"Anand Vihar, Delhi - DPCC",12-04-2024 19:00:00,28.647622,77.3158090,CO,101,137,105
India,Delhi,Delhi,"Ashok Vihar, Delhi - DPCC",12-04-2024 19:00:00,28.695381,77.181665,NO2,13,154,73
India,Delhi,Delhi,"Aya Nagar, Delhi - IMD",12-04-2024 19:00:00,28.4706914,77.1099364,PM2.5,35,347,156
India,Delhi,Delhi,"Bawana, Delhi - DPCC",12-04-2024 19:00:00,28.776200,77.051074,PM2.5,74,349,238
India,Delhi,Delhi,"Burari Crossing, Delhi - IMD",12-04-2024 19:00:00,28.7256504,77.2011573,PM10,102,363,210
India,Delhi,Delhi,"CRRI Mathura Road, Delhi - IMD",12-04-2024 19:00:00,28.5512005,77.2735737,CO,19,19,19
India,Delhi,Delhi,"Chandni Chowk, Delhi - IITM",12-04-2024 19:00:00,28.656756,77.227234,PM2.5,NA,NA,NA
India,Delhi,Delhi,"DTU, Delhi - CPCB",12-04-2024 19:00:00,28.7500499,77.1112615,SO2,34,43,37
India,Delhi,Delhi,"DTU, Delhi - CPCB",12-04-2024 19:00:00,28.7500499,77.1112615,CO,17,72,53
India,Delhi,Delhi,"Dr. Karni Singh Shooting Range, Delhi - DPCC",12-04-2024 19:00:00,28.498571,77.264840,PM10,118,410,199
India,Delhi,Delhi,"Dr. Karni Singh Shooting Range, Delhi - DPCC",12-04-2024 19:00:00,28.498571,77.264840,NO2,24,153,78
India,Delhi,Delhi,"Dr. Karni Singh Shooting Range, Delhi - DPCC",12-04-2024 19:00:00,28.498571,77.264840,NH3,6,9,7
India,Delhi,Delhi,"Dwarka-Sector 8, Delhi - DPCC ",12-04-2024 19:00:00,28.5710274,77.0719006,NO2,23,104,61
India,Delhi,Delhi,"Dwarka-Sector 8, Delhi - DPCC ",12-04-2024 19:00:00,28.5710274,77.0719006,CO,46,113,67
India,Delhi,Delhi,"ITO, Delhi - CPCB",12-04-2024 19:00:00,28.628624,77.241060,PM10,79,286,152
India,Delhi,Delhi,"ITO, Delhi - CPCB",12-04-2024 19:00:00,28.628624,77.241060,NH3,3,10,6
India,Delhi,Delhi,"Jahangirpuri, Delhi - DPCC",12-04-2024 19:00:00,28.732820,77.170633,SO2,20,94,50
India,Delhi,Delhi,"Jahangirpuri, Delhi - DPCC",12-04-2024 19:00:00,28.732820,77.170633,OZONE,5,147,90
India,Delhi,Delhi,"Jawaharlal Nehru Stadium, Delhi - DPCC",12-04-2024 19:00:00,28.580280,77.233829,PM10,85,384,167
India,Delhi,Delhi,"Lodhi Road, Delhi - IITM",12-04-2024 19:00:00,28.588333,77.221667,PM2.5,NA,NA,NA
India,Delhi,Delhi,"Lodhi Road, Delhi - IITM",12-04-2024 19:00:00,28.588333,77.221667,OZONE,17,21,19
India,Delhi,Delhi,"Lodhi Road, Delhi - IMD",12-04-2024 19:00:00,28.5918245,77.2273074,NO2,NA,NA,NA
India,Delhi,Delhi,"Major Dhyan Chand National Stadium, Delhi - DPCC",12-04-2024 19:00:00,28.611281,77.237738,NO2,21,156,94
India,Delhi,Delhi,"Mandir Marg, Delhi - DPCC",12-04-2024 19:00:00,28.636429,77.201067,PM2.5,42,337,145
India,Delhi,Delhi,"Mandir Marg, Delhi - DPCC",12-04-2024 19:00:00,28.636429,77.201067,PM10,81,266,138
India,Delhi,Delhi,"Mandir Marg, Delhi - DPCC",12-04-2024 19:00:00,28.636429,77.201067,CO,1,60,29
India,Delhi,Delhi,"Mundka, Delhi - DPCC",12-04-2024 19:00:00,28.684678,77.076574,CO,30,82,42
India,Delhi,Delhi,"NSIT Dwarka, Delhi - CPCB",12-04-2024 19:00:00,28.60909,77.0325413,OZONE,10,130,82
India,Delhi,Delhi,"Najafgarh, Delhi - DPCC",12-04-2024 19:00:00,28.570173,76.933762,PM2.5,33,315,158
India,Delhi,Delhi,"Narela, Delhi - DPCC",12-04-2024 19:00:00,28.822836,77.101981,PM10,141,402,255
India,Delhi,Delhi,"Narela, Delhi - DPCC",12-04-2024 19:00:00,28.822836,77.101981,CO,13,86,30
India,Delhi,Delhi,"Nehru Nagar, Delhi - DPCC",12-04-2024 19:00:00,28.567890,77.250515,PM2.5,58,355,178
India,Delhi,Delhi,"Nehru Nagar, Delhi - DPCC",12-04-2024 19:00:00,28.567890,77.250515,PM10,103,391,193
India,Delhi,Delhi,"Nehru Nagar, Delhi - DPCC",12-04-2024 19:00:00,28.567890,77.250515,NH3,3,3,3
India,Delhi,Delhi,"New Moti Bagh, Delhi - MHUA",12-04-2024 19:00:00,28.57834,77.18400,PM2.5,40,353,165
India,Delhi,Delhi,"New Moti Bagh, Delhi - MHUA",12-04-2024 19:00:00,28.57834,77.18400,NO2,8,41,19
India,Delhi,Delhi,"Okhla Phase-2, Delhi - DPCC",12-04-2024 19:00:00,28.530785,77.271255,PM10,119,480,230
India,Delhi,Delhi,"Okhla Phase-2, Delhi - DPCC",12-04-2024 19:00:00,28.530785,77.271255,NO2,38,182,107
India,Delhi,Delhi,"Okhla Phase-2, Delhi - DPCC",12-04-2024 19:00:00,28.530785,77.271255,SO2,14,23,17
India,Delhi,Delhi,"Okhla Phase-2, Delhi - DPCC",12-04-2024 19:00:00,28.530785,77.271255,OZONE,10,165,127
India,Delhi,Delhi,"Patparganj, Delhi - DPCC",12-04-2024 19:00:00,28.623763,77.287209,PM10,135,420,271
India,Delhi,Delhi,"Punjabi Bagh, Delhi - DPCC",12-04-2024 19:00:00,28.674045,77.131023,PM10,100,444,214
India,Delhi,Delhi,"Punjabi Bagh, Delhi - DPCC",12-04-2024 19:00:00,28.674045,77.131023,SO2,19,38,26
India,Delhi,Delhi,"Pusa, Delhi - IMD",12-04-2024 19:00:00,28.636110,77.173332,NO2,25,67,41
India,Delhi,Delhi,"Pusa, Delhi - IMD",12-04-2024 19:00:00,28.636110,77.173332,CO,72,103,89
India,Delhi,Delhi,"R K Puram, Delhi - DPCC",12-04-2024 19:00:00,28.563262,77.186937,NO2,42,152,86
India,Delhi,Delhi,"R K Puram, Delhi - DPCC",12-04-2024 19:00:00,28.563262,77.186937,SO2,2,80,30
India,Delhi,Delhi,"Rohini, Delhi - DPCC",12-04-2024 19:00:00,28.732528,77.119920,PM10,115,401,235
India,Delhi,Delhi,"Rohini, Delhi - DPCC",12-04-2024 19:00:00,28.732528,77.119920,SO2,4,61,29
India,Delhi,Delhi,"Rohini, Delhi - DPCC",12-04-2024 19:00:00,28.732528,77.119920,CO,23,104,40
India,Delhi,Delhi,"Shadipur, Delhi - CPCB",12-04-2024 19:00:00,28.6514781,77.1473105,NH3,6,10,7
India,Delhi,Delhi,"Sri Aurobindo Marg, Delhi - DPCC",12-04-2024 19:00:00,28.531346,77.190156,NH3,7,12,8
India,Delhi,Delhi,"Vivek Vihar, Delhi - DPCC",12-04-2024 19:00:00,28.672342,77.315260,PM2.5,80,417,256
India,Delhi,Delhi,"Vivek Vihar, Delhi - DPCC",12-04-2024 19:00:00,28.672342,77.315260,SO2,28,115,63
India,Delhi,Delhi,"Wazirpur, Delhi - DPCC",12-04-2024 19:00:00,28.699793,77.165453,NO2,39,196,121
India,Delhi,Delhi,"Wazirpur, Delhi - DPCC",12-04-2024 19:00:00,28.699793,77.165453,NH3,7,11,9
India,Gujarat,Ahmedabad,"Gyaspur, Ahmedabad - IITM",12-04-2024 19:00:00,22.977134,72.553024,PM10,83,188,127
India,Gujarat,Ahmedabad,"Gyaspur, Ahmedabad - IITM",12-04-2024 19:00:00,22.977134,72.553024,NO2,32,103,77
India,Gujarat,Ahmedabad,"Maninagar, Ahmedabad - GPCB",12-04-2024 19:00:00,23.002657,72.591912,PM2.5,42,166,84
India,Gujarat,Ahmedabad,"Maninagar, Ahmedabad - GPCB",12-04-2024 19:00:00,23.002657,72.591912,PM10,45,142,92
India,Gujarat,Ahmedabad,"Maninagar, Ahmedabad - GPCB",12-04-2024 19:00:00,23.002657,72.591912,OZONE,19,174,110
India,Gujarat,Ahmedabad,"Raikhad, Ahmedabad - IITM",12-04-2024 19:00:00,23.020509,72.579261,CO,2,101,7
India,Gujarat,Ahmedabad,"Rakhial, Ahmedabad - IITM",12-04-2024 19:00:00,23.016834,72.625775,PM2.5,35,155,66
India,Gujarat,Ahmedabad,"Rakhial, Ahmedabad - IITM",12-04-2024 19:00:00,23.016834,72.625775,NH3,2,5,3
India,Gujarat,Ahmedabad,"SAC ISRO Satellite, Ahmedabad - IITM",12-04-2024 19:00:00,23.023389,72.515201,OZONE,15,29,24
India,Gujarat,Ahmedabad,"SVPI Airport Hansol, Ahmedabad - IITM",12-04-2024 19:00:00,23.076793,72.627874,NO2,15,20,17
India,Gujarat,Ahmedabad,"SVPI Airport Hansol, Ahmedabad - IITM",12-04-2024 19:00:00,23.076793,72.627874,OZONE,15,43,37
India,Gujarat,Ahmedabad,"Sardar Vallabhbhai Patel Stadium, Ahmedabad - IITM",12-04-2024 19:00:00,23.043070,72.562968,PM2.5,41,309,99
India,Gujarat,Ahmedabad,"Sardar Vallabhbhai Patel Stadium, Ahmedabad - IITM",12-04-2024 19:00:00,23.043070,72.562968,OZONE,9,19,15
India,Gujarat,Ankleshwar,"GIDC, Ankleshwar - GPCB",12-04-2024 19:00:00,21.613267,73.010555,PM2.5,47,75,63
India,Gujarat,Ankleshwar,"GIDC, Ankleshwar - GPCB",12-04-2024 19:00:00,21.613267,73.010555,PM10,56,81,68
India,Gujarat,Vapi,"Phase-1 GIDC, Vapi - GPCB",12-04-2024 19:00:00,20.362421,72.918013,NO2,6,7,7
India,Haryana,Ambala,"Patti Mehar, Ambala - HSPCB",12-04-2024 19:00:00,30.379589,76.778328,NO2,3,21,10
India,Haryana,Ambala,"Patti Mehar, Ambala - HSPCB",12-04-2024 19:00:00,30.379589,76.778328,OZONE,35,59,43
India,Haryana,Ballabgarh,"Nathu Colony, Ballabgarh - HSPCB",12-04-2024 19:00:00,28.3419248,77.319699,PM10,103,361,176
India,Haryana,Bhiwani,"H.B. Colony, Bhiwani - HSPCB",12-04-2024 19:00:00,28.806223,76.141105,CO,26,48,38
India,Haryana,Bhiwani,"H.B. Colony, Bhiwani - HSPCB",12-04-2024 19:00:00,28.806223,76.141105,OZONE,11,18,15
India,Haryana,Faridabad,"Sector 30, Faridabad - HSPCB",12-04-2024 19:00:00,28.4417,77.3217,NO2,30,33,31
India,Haryana,Faridabad,"Sector 30, Faridabad - HSPCB",12-04-2024 19:00:00,28.4417,77.3217,NH3,9,9,9
India,Haryana,Faridabad,"Sector- 16A, Faridabad - HSPCB",12-04-2024 19:00:00,28.4088421,77.3099081,PM2.5,NA,NA,NA
India,Haryana,Faridabad,"Sector- 16A, Faridabad - HSPCB",12-04-2024 19:00:00,28.4088421,77.3099081,SO2,NA,NA,NA
India,Haryana,Gurugram,"Sector-51, Gurugram - HSPCB",12-04-2024 19:00:00,28.4227,77.0667,PM2.5,223,458,335
India,Haryana,Gurugram,"Teri Gram, Gurugram - HSPCB",12-04-2024 19:00:00,28.4275,77.1465,PM2.5,82,320,179
India,Haryana,Gurugram,"Teri Gram, Gurugram - HSPCB",12-04-2024 19:00:00,28.4275,77.1465,OZONE,23,47,39
India,Haryana,Gurugram,"Vikas Sadan, Gurugram - HSPCB",12-04-2024 19:00:00,28.4501238,77.0263051,OZONE,8,69,51
India,Haryana,Jind,"Police Lines, Jind - HSPCB",12-04-2024 19:00:00,29.307814,76.337619,SO2,8,30,16
India,Haryana,Jind,"Police Lines, Jind - HSPCB",12-04-2024 19:00:00,29.307814,76.337619,CO,4,106,52
India,Haryana,Kaithal,"Rishi Nagar, Kaithal - HSPCB",12-04-2024 19:00:00,29.8006,76.4155,PM10,72,110,90
India,Haryana,Karnal,"Sector-12, Karnal - HSPCB",12-04-2024 19:00:00,29.695300,77.002700,CO,12,60,28
India,Haryana,Kurukshetra,"Sector-7, Kurukshetra - HSPCB",12-04-2024 19:00:00,29.966942,76.875879,PM2.5,47,124,82
India,Haryana,Kurukshetra,"Sector-7, Kurukshetra - HSPCB",12-04-2024 19:00:00,29.966942,76.875879,OZONE,3,76,66
India,Haryana,Mandikhera,"General Hospital, Mandikhera - HSPCB",12-04-2024 19:00:00,27.9002,76.9938,NH3,16,20,18
India,Haryana,Manesar,"Sector-2 IMT, Manesar - HSPCB",12-04-2024 19:00:00,28.360699,76.936090,NH3,NA,NA,NA
India,Haryana,Manesar,"Sector-2 IMT, Manesar - HSPCB",12-04-2024 19:00:00,28.360699,76.936090,OZONE,5,98,85
India,Haryana,Narnaul,"Shastri Nagar, Narnaul - HSPCB",12-04-2024 19:00:00,28.060249,76.113115,SO2,13,40,18
India,Haryana,Narnaul,"Shastri Nagar, Narnaul - HSPCB",12-04-2024 19:00:00,28.060249,76.113115,CO,21,45,18
India,Haryana,Palwal,"Shyam Nagar, Palwal - HSPCB",12-04-2024 19:00:00,28.1485564,77.3320667,NO2,23,25,24
India,Haryana,Palwal,"Shyam Nagar, Palwal - HSPCB",12-04-2024 19:00:00,28.1485564,77.3320667,SO2,1,132,12
India,Haryana,Palwal,"Shyam Nagar, Palwal - HSPCB",12-04-2024 19:00:00,28.1485564,77.3320667,OZONE,19,72,41
India,Haryana,Panipat,"Sector-18, Panipat - HSPCB",12-04-2024 19:00:00,29.497973,76.993331,PM2.5,65,68,67
India,Haryana,Rohtak,"MD University, Rohtak - HSPCB",12-04-2024 19:00:00,28.52123,76.37138,PM2.5,28,324,170
India,Haryana,Sirsa,"F-Block, Sirsa - HSPCB",12-04-2024 19:00:00,29.536400,75.015800,PM2.5,41,76,59
India,Haryana,Sirsa,"F-Block, Sirsa - HSPCB",12-04-2024 19:00:00,29.536400,75.015800,PM10,44,92,68
India,Haryana,Sirsa,"F-Block, Sirsa - HSPCB",12-04-2024 19:00:00,29.536400,75.015800,CO,56,150,62
India,Haryana,Sirsa,"F-Block, Sirsa - HSPCB",12-04-2024 19:00:00,29.536400,75.015800,OZONE,20,193,109
India,Haryana,Sonipat,"Murthal, Sonipat - HSPCB",12-04-2024 19:00:00,29.027200,77.062100,OZONE,16,36,35
India,Himachal Pradesh,Baddi,"HIMUDA Complex Phase-1, Baddi - HPPCB",12-04-2024 19:00:00,30.943887,76.801991,NO2,5,33,12
India,Himachal Pradesh,Baddi,"HIMUDA Complex Phase-1, Baddi - HPPCB",12-04-2024 19:00:00,30.943887,76.801991,NH3,2,5,3
India,Himachal Pradesh,Baddi,"HIMUDA Complex Phase-1, Baddi - HPPCB",12-04-2024 19:00:00,30.943887,76.801991,CO,12,42,26
India,Jharkhand,Dhanbad,"Kalakusuma, Dhanbad - DMC",12-04-2024 19:00:00,23.811548,86.481238,PM2.5,9,93,29
India,Jharkhand,Dhanbad,"Kalakusuma, Dhanbad - DMC",12-04-2024 19:00:00,23.811548,86.481238,CO,128,133,131
India,Jharkhand,Pathardih,"Mohalbani Ghat, Pathardih - DMC",12-04-2024 19:00:00,23.669880,86.411725,PM10,125,186,147
India,Karnataka,Bengaluru,"BTM Layout, Bengaluru - CPCB",12-04-2024 19:00:00,12.9135218,77.5950804,NH3,4,5,4
India,Karnataka,Bengaluru,"Hebbal, Bengaluru - KSPCB",12-04-2024 19:00:00,13.029152,77.585901,PM2.5,NA,NA,NA
India,Karnataka,Bengaluru,"Hebbal, Bengaluru - KSPCB",12-04-2024 19:00:00,13.029152,77.585901,NO2,NA,NA,NA
India,Karnataka,Bengaluru,"Hombegowda Nagar, Bengaluru - KSPCB",12-04-2024 19:00:00,12.938539,77.590100,NO2,7,19,12
India,Karnataka,Bengaluru,"Hombegowda Nagar, Bengaluru - KSPCB",12-04-2024 19:00:00,12.938539,77.590100,SO2,3,4,4
India,Karnataka,Bengaluru,"Jayanagar 5th Block, Bengaluru - KSPCB",12-04-2024 19:00:00,12.920984,77.584908,PM10,36,138,80
India,Karnataka,Bengaluru,"Kasturi Nagar, Bengaluru - KSPCB",12-04-2024 19:00:00,13.003872,77.664217,CO,20,25,23
India,Karnataka,Bengaluru,"Peenya, Bengaluru - CPCB",12-04-2024 19:00:00,13.0270199,77.494094,SO2,9,14,12
India,Karnataka,Bengaluru,"Peenya, Bengaluru - CPCB",12-04-2024 19:00:00,13.0270199,77.494094,OZONE,12,37,23
India,Karnataka,Bengaluru,"RVCE-Mailasandra, Bengaluru - KSPCB",12-04-2024 19:00:00,12.921418,77.502466,PM2.5,NA,NA,NA
India,Karnataka,Bengaluru,"RVCE-Mailasandra, Bengaluru - KSPCB",12-04-2024 19:00:00,12.921418,77.502466,SO2,NA,NA,NA
India,Karnataka,Bengaluru,"Sanegurava Halli, Bengaluru - KSPCB",12-04-2024 19:00:00,12.990328,77.5431385,PM10,35,81,48
India,Karnataka,Bengaluru,"Silk Board, Bengaluru - KSPCB",12-04-2024 19:00:00,12.917348,77.622813,NH3,NA,NA,NA
India,Karnataka,Bengaluru,"Silk Board, Bengaluru - KSPCB",12-04-2024 19:00:00,12.917348,77.622813,SO2,NA,NA,NA
India,Karnataka,Bidar,"Naubad, Bidar - KSPCB",12-04-2024 19:00:00,17.930306,77.482194,NH3,2,3,3
India,Karnataka,Chamarajanagar,"Urban, Chamarajanagar - KSPCB",12-04-2024 19:00:00,11.55358,76.55521,CO,19,28,25
India,Karnataka,Chamarajanagar,"Urban, Chamarajanagar - KSPCB",12-04-2024 19:00:00,11.55358,76.55521,OZONE,14,39,33
India,Karnataka,Davanagere,"Devaraj Urs Badavane, Davanagere - KSPCB",12-04-2024 19:00:00,14.475800,75.905200,PM10,NA,NA,NA
India,Karnataka,Davanagere,"Devaraj Urs Badavane, Davanagere - KSPCB",12-04-2024 19:00:00,14.475800,75.905200,NH3,NA,NA,NA
India,Karnataka,Davanagere,"Devaraj Urs Badavane, Davanagere - KSPCB",12-04-2024 19:00:00,14.475800,75.905200,OZONE,19,25,23
India,Karnataka,Dharwad,"Kalabhavan, Dharwad - KSPCB",12-04-2024 19:00:00,15.459706,75.008381,PM2.5,40,127,75
India,Karnataka,Haveri,"Ashwini Nagar, Haveri - KSPCB",12-04-2024 19:00:00,14.791800,75.389600,SO2,14,14,14
India,Karnataka,Haveri,"Ashwini Nagar, Haveri - KSPCB",12-04-2024 19:00:00,14.791800,75.389600,OZONE,19,21,19
India,Karnataka,Hubballi,"Deshpande Nagar, Hubballi - KSPCB",12-04-2024 19:00:00,15.351773,75.140726,OZONE,1,8,4
India,Karnataka,Hubballi,"Lingaraj Nagar, Hubballi - KSPCB",12-04-2024 19:00:00,15.3714823,75.1160168,SO2,NA,NA,NA
India,Karnataka,Kalaburagi,"Lal Bahadur Shastri Nagar, Kalaburagi - KSPCB",12-04-2024 19:00:00,17.321993,76.822628,NH3,1,2,2
India,Karnataka,Kalaburagi,"Mahatma Basaveswar Colony, Kalaburgi - KSPCB",12-04-2024 19:00:00,17.336318,76.847397,NH3,NA,NA,NA
India,Karnataka,Kalaburagi,"Mahatma Basaveswar Colony, Kalaburgi - KSPCB",12-04-2024 19:00:00,17.336318,76.847397,CO,50,74,58
India,Karnataka,Karwar,"KHB Colony, Karwar - KSPCB",12-04-2024 19:00:00,14.816666,74.141003,SO2,18,19,19
India,Karnataka,Kolar,"Tamaka Ind. Area, Kolar - KSPCB",12-04-2024 19:00:00,13.1276288,78.1570122,PM10,NA,NA,NA
India,Karnataka,Kolar,"Tamaka Ind. Area, Kolar - KSPCB",12-04-2024 19:00:00,13.1276288,78.1570122,NH3,NA,NA,NA
India,Karnataka,Koppal,"Diwator Nagar, Koppal - KSPCB",12-04-2024 19:00:00,15.347630,76.181767,PM10,NA,NA,NA
India,Karnataka,Koppal,"Diwator Nagar, Koppal - KSPCB",12-04-2024 19:00:00,15.347630,76.181767,NH3,5,9,8
India,Karnataka,Madikeri,"Stuart Hill, Madikeri - KSPCB",12-04-2024 19:00:00,12.415911,75.735050,PM2.5,41,70,51
India,Karnataka,Mangalore,"Kadri, Mangalore - KSPCB",12-04-2024 19:00:00,12.889250,74.853000,CO,46,57,52
India,Karnataka,Mysuru,"Hebbal 1st Stage, Mysuru - KSPCB",12-04-2024 19:00:00,12.21041,76.37376,NH3,1,2,2
India,Karnataka,Mysuru,"Hebbal 1st Stage, Mysuru - KSPCB",12-04-2024 19:00:00,12.21041,76.37376,SO2,1,6,3
India,Karnataka,Mysuru,"Hebbal 1st Stage, Mysuru - KSPCB",12-04-2024 19:00:00,12.21041,76.37376,CO,1,72,11
India,Karnataka,Raichur,"Haji Colony, Raichur - KSPCB",12-04-2024 19:00:00,16.208139,77.348417,PM10,NA,NA,NA
India,Karnataka,Raichur,"Haji Colony, Raichur - KSPCB",12-04-2024 19:00:00,16.208139,77.348417,NO2,NA,NA,NA
India,Karnataka,Raichur,"Haji Colony, Raichur - KSPCB",12-04-2024 19:00:00,16.208139,77.348417,OZONE,NA,NA,NA
India,Karnataka,Ramanagara,"Vijay Nagar, Ramanagara - KSPCB",12-04-2024 19:00:00,12.733409,77.298051,CO,4,18,11
India,Karnataka,Shivamogga,"Vinoba Nagara, Shivamogga - KSPCB",12-04-2024 19:00:00,13.940000,75.555917,PM2.5,34,55,46
India,Karnataka,Shivamogga,"Vinoba Nagara, Shivamogga - KSPCB",12-04-2024 19:00:00,13.940000,75.555917,NH3,2,3,3
India,Karnataka,Vijayapura,"Ibrahimpur, Vijayapura - KSPCB",12-04-2024 19:00:00,16.802639,75.722694,CO,14,157,157
India,Karnataka,Vijayapura,"Ibrahimpur, Vijayapura - KSPCB",12-04-2024 19:00:00,16.802639,75.722694,OZONE,14,16,15
India,Karnataka,Yadgir,"Collector Office, Yadgir - KSPCB",12-04-2024 19:00:00,16.7602,77.1428,PM2.5,20,50,37
India,Kerala,Eloor,"Udyogamandal, Eloor - Kerala PCB",12-04-2024 19:00:00,10.073232,76.302765,PM10,28,40,34
India,Kerala,Kollam,"Polayathode, Kollam - Kerala PCB",12-04-2024 19:00:00,8.8787,76.6073,NO2,NA,NA,NA
India,Kerala,Thiruvananthapuram,"Kariavattom, Thiruvananthapuram - Kerala PCB",12-04-2024 19:00:00,8.563700,76.886500,SO2,1,15,7
India,Kerala,Thiruvananthapuram,"Plammoodu, Thiruvananthapuram - Kerala PCB",12-04-2024 19:00:00,8.5149093,76.9435879,NO2,6,10,8
India,Kerala,Thiruvananthapuram,"Plammoodu, Thiruvananthapuram - Kerala PCB",12-04-2024 19:00:00,8.5149093,76.9435879,SO2,4,13,9
India,Kerala,Thrissur,"Corporation Ground, Thrissur - Kerala PCB",12-04-2024 19:00:00,10.532400,76.215900,NO2,NA,NA,NA
India,Kerala,Thrissur,"Corporation Ground, Thrissur - Kerala PCB",12-04-2024 19:00:00,10.532400,76.215900,CO,14,25,17
India,Madhya Pradesh,Bhopal,"Paryavaran Parisar, Bhopal - MPPCB",12-04-2024 19:00:00,23.210494,77.425409,PM2.5,30,92,53
India,Madhya Pradesh,Bhopal,"Paryavaran Parisar, Bhopal - MPPCB",12-04-2024 19:00:00,23.210494,77.425409,NO2,11,68,28
