country,state,city,station,last_update,latitude,longitude,pollutant_id,pollutant_min,pollutant_max,pollutant_avg
India,Andhra_Pradesh,Anantapur,"Gulzarpet, Anantapur - APPCB",22-01-2024 16:00:00,14.675886,77.593027,NO2,18,49,29
India,Andhra_Pradesh,Rajamahendravaram,"Anand Kala Kshetram, Rajamahendravaram - APPCB",22-01-2024 16:00:00,16.9872867,81.7363176,SO2,NA,NA,NA
India,Andhra_Pradesh,Tirupati,"Tirumala, Tirupati - APPCB",22-01-2024 16:00:00,13.67,79.35,NH3,1,2,1
India,Andhra_Pradesh,Tirupati,"Vaikuntapuram, Tirupati - APPCB",22-01-2024 16:00:00,13.615387,79.409230,NH3,2,4,3
India,Andhra_Pradesh,Tirupati,"Vaikuntapuram, Tirupati - APPCB",22-01-2024 16:00:00,13.615387,79.409230,SO2,5,5,5
India,Andhra_Pradesh,Tirupati,"Vaikuntapuram, Tirupati - APPCB",22-01-2024 16:00:00,13.615387,79.409230,OZONE,1,42,18
India,Andhra_Pradesh,Vijayawada,"HB Colony, Vijayawada - APPCB",22-01-2024 16:00:00,16.536107,80.594233,PM2.5,NA,NA,NA
India,Andhra_Pradesh,Vijayawada,"HB Colony, Vijayawada - APPCB",22-01-2024 16:00:00,16.536107,80.594233,NH3,NA,NA,NA
India,Andhra_Pradesh,Vijayawada,"HB Colony, Vijayawada - APPCB",22-01-2024 16:00:00,16.536107,80.594233,SO2,NA,NA,NA
India,Andhra_Pradesh,Visakhapatnam,"GVM Corporation, Visakhapatnam - APPCB",22-01-2024 16:00:00,17.72,83.3,OZONE,6,35,19
India,Arunachal_Pradesh,Naharlagun,"Naharlagun, Naharlagun - APSPCB",22-01-2024 16:00:00,27.103358,93.679645,PM10,NA,NA,NA
India,Arunachal_Pradesh,Naharlagun,"Naharlagun, Naharlagun - APSPCB",22-01-2024 16:00:00,27.103358,93.679645,CO,10,12,12
India,Assam,Byrnihat,"Central Academy for SFS, Byrnihat - PCBA",22-01-2024 16:00:00,26.071318,91.87488,SO2,4,33,21
India,Assam,Byrnihat,"Central Academy for SFS, Byrnihat - PCBA",22-01-2024 16:00:00,26.071318,91.87488,OZONE,4,7,6
India,Assam,Guwahati,"LGBI Airport, Guwahati - PCBA",22-01-2024 16:00:00,26.10887,91.589544,NO2,7,38,14
India,Assam,Guwahati,"LGBI Airport, Guwahati - PCBA",22-01-2024 16:00:00,26.10887,91.589544,SO2,11,16,14
India,Assam,Guwahati,"Railway Colony, Guwahati - PCBA",22-01-2024 16:00:00,26.181742,91.78063,PM10,122,429,200
India,Assam,Nagaon,"Christianpatty, Nagaon - PCBA",22-01-2024 16:00:00,26.349082,92.68449,PM10,103,236,164
India,Assam,Nagaon,"Christianpatty, Nagaon - PCBA",22-01-2024 16:00:00,26.349082,92.68449,NH3,1,1,1
India,Assam,Nagaon,"Christianpatty, Nagaon - PCBA",22-01-2024 16:00:00,26.349082,92.68449,CO,11,14,12
India,Assam,Nalbari,"Bata Chowk, Nalbari - PCBA",22-01-2024 16:00:00,26.446912,91.439057,PM10,149,466,227
India,Assam,Silchar,"Tarapur, Silchar - PCBA",22-01-2024 16:00:00,24.82827,92.79525,PM2.5,28,35,32
India,Assam,Sivasagar,"Girls College, Sivasagar - PCBA",22-01-2024 16:00:00,26.987634,94.636574,SO2,4,6,5
India,Assam,Sivasagar,"Girls College, Sivasagar - PCBA",22-01-2024 16:00:00,26.987634,94.636574,OZONE,1,3,2
India,Bihar,Araria,"Kharahiya Basti, Araria - BSPCB",22-01-2024 16:00:00,26.146529,87.454184,SO2,9,17,16
India,Bihar,Arrah,"New DM Office, Arrah - BSPCB",22-01-2024 16:00:00,25.5626095,84.663264,CO,2,12,6
India,Bihar,Aurangabad,"Gurdeo Nagar, Aurangabad - BSPCB",22-01-2024 16:00:00,24.75746,84.366208,OZONE,1,64,16
India,Bihar,Bhagalpur,"Mayaganj, Bhagalpur - BSPCB",22-01-2024 16:00:00,25.265194,87.012947,PM2.5,304,335,321
India,Bihar,Bihar Sharif,"D M Colony, Bihar Sharif - BSPCB",22-01-2024 16:00:00,25.204762,85.514960,PM2.5,20,65,37
India,Bihar,Bihar Sharif,"D M Colony, Bihar Sharif - BSPCB",22-01-2024 16:00:00,25.204762,85.514960,NO2,9,10,10
India,Bihar,Bihar Sharif,"D M Colony, Bihar Sharif - BSPCB",22-01-2024 16:00:00,25.204762,85.514960,NH3,2,2,2
India,Bihar,Chhapra,"Darshan Nagar, Chhapra - BSPCB",22-01-2024 16:00:00,25.7808257,84.7446768,PM2.5,213,365,303
India,Bihar,Gaya,"Collectorate, Gaya - BSPCB",22-01-2024 16:00:00,24.7955,84.9994,CO,30,40,31
India,Bihar,Gaya,"Collectorate, Gaya - BSPCB",22-01-2024 16:00:00,24.7955,84.9994,OZONE,56,78,66
India,Bihar,Gaya,"Kareemganj, Gaya - BSPCB",22-01-2024 16:00:00,24.792403,84.992416,CO,13,103,49
India,Bihar,Gaya,"SFTI Kusdihra, Gaya - BSPCB",22-01-2024 16:00:00,24.762518,84.982348,PM10,58,152,110
India,Bihar,Gaya,"SFTI Kusdihra, Gaya - BSPCB",22-01-2024 16:00:00,24.762518,84.982348,NH3,1,13,5
India,Bihar,Gaya,"SFTI Kusdihra, Gaya - BSPCB",22-01-2024 16:00:00,24.762518,84.982348,CO,74,107,88
India,Bihar,Hajipur,"Industrial Area, Hajipur - BSPCB",22-01-2024 16:00:00,25.697189,85.245900,OZONE,2,69,36
India,Bihar,Katihar,"Mirchaibari, Katihar - BSPCB",22-01-2024 16:00:00,25.560083,87.553265,PM10,117,173,140
India,Bihar,Katihar,"Mirchaibari, Katihar - BSPCB",22-01-2024 16:00:00,25.560083,87.553265,NO2,18,29,21
India,Bihar,Katihar,"Mirchaibari, Katihar - BSPCB",22-01-2024 16:00:00,25.560083,87.553265,SO2,21,28,25
India,Bihar,Kishanganj,"SDM Office_Khagra, Kishanganj - BSPCB",22-01-2024 16:00:00,26.0881305,87.93840336,PM10,101,172,134
India,Bihar,Muzaffarpur,"Buddha Colony, Muzaffarpur - BSPCB",22-01-2024 16:00:00,26.11442,85.39813,PM2.5,117,279,206
India,Bihar,Muzaffarpur,"Muzaffarpur Collectorate, Muzaffarpur - BSPCB",22-01-2024 16:00:00,26.1209,85.3647,PM2.5,83,331,160
India,Bihar,Muzaffarpur,"Muzaffarpur Collectorate, Muzaffarpur - BSPCB",22-01-2024 16:00:00,26.1209,85.3647,SO2,5,7,7
India,Bihar,Patna,"DRM Office Danapur, Patna - BSPCB",22-01-2024 16:00:00,25.586562,85.043586,PM10,NA,NA,NA
India,Bihar,Patna,"DRM Office Danapur, Patna - BSPCB",22-01-2024 16:00:00,25.586562,85.043586,SO2,7,13,9
India,Bihar,Patna,"IGSC Planetarium Complex, Patna - BSPCB",22-01-2024 16:00:00,25.610369,85.132568,OZONE,14,15,14
India,Bihar,Patna,"Rajbansi Nagar, Patna - BSPCB",22-01-2024 16:00:00,25.599486,85.113666,NO2,52,66,58
India,Bihar,Patna,"Samanpura, Patna - BSPCB",22-01-2024 16:00:00,25.596727,85.085624,OZONE,16,82,68
India,Bihar,Purnia,"Mariam Nagar, Purnia - BSPCB",22-01-2024 16:00:00,25.366336,87.117468,NO2,12,13,13
India,Bihar,Rajgir,"Dangi Tola, Rajgir - BSPCB",22-01-2024 16:00:00,25.03280,85.41948,OZONE,22,26,23
India,Bihar,Samastipur,"DM Office_Kasipur, Samastipur - BSPCB",22-01-2024 16:00:00,25.859655,85.77944,CO,18,29,26
India,Bihar,Sasaram,"Dada Peer, Sasaram - BSPCB",22-01-2024 16:00:00,24.952822,84.002396,PM2.5,141,343,228
India,Bihar,Siwan,"Chitragupta Nagar, Siwan - BSPCB",22-01-2024 16:00:00,26.2271665,84.3570427,PM10,77,139,106
India,Bihar,Siwan,"Chitragupta Nagar, Siwan - BSPCB",22-01-2024 16:00:00,26.2271665,84.3570427,CO,80,189,105
India,Bihar,Siwan,"Chitragupta Nagar, Siwan - BSPCB",22-01-2024 16:00:00,26.2271665,84.3570427,OZONE,5,74,41
India,Chandigarh,Chandigarh,"Sector 22, Chandigarh - CPCC",22-01-2024 16:00:00,30.735567,76.775714,PM10,177,368,259
India,Chandigarh,Chandigarh,"Sector 22, Chandigarh - CPCC",22-01-2024 16:00:00,30.735567,76.775714,CO,60,71,66
India,Chandigarh,Chandigarh,"Sector-25, Chandigarh - CPCC",22-01-2024 16:00:00,30.751462,76.762879,NH3,10,14,11
India,Chhattisgarh,Bhilai,"32Bungalows, Bhilai - CECB",22-01-2024 16:00:00,21.194815,81.314770,CO,26,48,32
India,Chhattisgarh,Bhilai,"Civic Center, Bhilai - Bhilai Steel Plant",22-01-2024 16:00:00,21.185571,81.343175,NO2,8,13,11
India,Chhattisgarh,Bhilai,"Civic Center, Bhilai - Bhilai Steel Plant",22-01-2024 16:00:00,21.185571,81.343175,CO,28,74,41
India,Chhattisgarh,Bhilai,"Civic Center, Bhilai - Bhilai Steel Plant",22-01-2024 16:00:00,21.185571,81.343175,OZONE,9,42,21
India,Chhattisgarh,Bhilai,"Hathkhoj, Bhilai - CECB",22-01-2024 16:00:00,21.224231,81.408350,PM2.5,52,128,86
India,Chhattisgarh,Bhilai,"Hathkhoj, Bhilai - CECB",22-01-2024 16:00:00,21.224231,81.408350,PM10,71,129,98
India,Chhattisgarh,Bhilai,"Hathkhoj, Bhilai - CECB",22-01-2024 16:00:00,21.224231,81.408350,CO,21,36,31
India,Chhattisgarh,Bhilai,"Hathkhoj, Bhilai - CECB",22-01-2024 16:00:00,21.224231,81.408350,OZONE,15,34,24
India,Chhattisgarh,Bilaspur,"Mangala, Bilaspur - NTPC",22-01-2024 16:00:00,22.08815,82.13737,PM10,NA,NA,NA
India,Chhattisgarh,Korba,"Urja Nagar, Korba - CECB",22-01-2024 16:00:00,22.348441,82.549611,NH3,2,8,4
India,Chhattisgarh,Korba,"Urja Nagar, Korba - CECB",22-01-2024 16:00:00,22.348441,82.549611,CO,18,32,22
India,Chhattisgarh,Kunjemura,"OP Jindal School, Kunjemura - CECB",22-01-2024 16:00:00,22.126650,83.483212,PM2.5,24,63,41
India,Chhattisgarh,Kunjemura,"OP Jindal School, Kunjemura - CECB",22-01-2024 16:00:00,22.126650,83.483212,NH3,1,5,2
India,Chhattisgarh,Kunjemura,"OP Jindal School, Kunjemura - CECB",22-01-2024 16:00:00,22.126650,83.483212,CO,24,68,30
India,Chhattisgarh,Milupara,"Govt. Higher Secondary School, Milupara - CECB",22-01-2024 16:00:00,22.1910172,83.5197009,PM2.5,21,84,41
India,Chhattisgarh,Milupara,"Govt. Higher Secondary School, Milupara - CECB",22-01-2024 16:00:00,22.1910172,83.5197009,PM10,13,108,42
India,Chhattisgarh,Raipur,"AIIMS, Raipur - CECB",22-01-2024 16:00:00,21.258815,81.578979,PM2.5,17,105,82
India,Chhattisgarh,Raipur,"AIIMS, Raipur - CECB",22-01-2024 16:00:00,21.258815,81.578979,NO2,43,55,51
India,Chhattisgarh,Raipur,"AIIMS, Raipur - CECB",22-01-2024 16:00:00,21.258815,81.578979,NH3,4,4,4
India,Chhattisgarh,Raipur,"Bhatagaon New ISBT, Raipur - CECB",22-01-2024 16:00:00,21.219665,81.630094,PM10,51,113,81
India,Chhattisgarh,Raipur,"Bhatagaon New ISBT, Raipur - CECB",22-01-2024 16:00:00,21.219665,81.630094,OZONE,3,6,4
India,Chhattisgarh,Raipur,"Krishak Nagar, Raipur - CECB",22-01-2024 16:00:00,21.237755,81.705301,NH3,1,1,1
India,Chhattisgarh,Tumidih,"OP Jindal Industrial Park, Tumidih - CECB",22-01-2024 16:00:00,22.06631475,83.33820077,NO2,10,34,18
India,Chhattisgarh,Tumidih,"OP Jindal Industrial Park, Tumidih - CECB",22-01-2024 16:00:00,22.06631475,83.33820077,CO,24,72,36
India,Delhi,Delhi,"Alipur, Delhi - DPCC",22-01-2024 16:00:00,28.815329,77.153010,SO2,7,16,9
India,Delhi,Delhi,"Anand Vihar, Delhi - DPCC",22-01-2024 16:00:00,28.647622,77.3158090,PM10,170,408,272
India,Delhi,Delhi,"Anand Vihar, Delhi - DPCC",22-01-2024 16:00:00,28.647622,77.3158090,CO,42,80,54
India,Delhi,Delhi,"CRRI Mathura Road, Delhi - IMD",22-01-2024 16:00:00,28.5512005,77.2735737,PM2.5,NA,NA,NA
India,Delhi,Delhi,"CRRI Mathura Road, Delhi - IMD",22-01-2024 16:00:00,28.5512005,77.2735737,PM10,NA,NA,NA
India,Delhi,Delhi,"CRRI Mathura Road, Delhi - IMD",22-01-2024 16:00:00,28.5512005,77.2735737,OZONE,8,37,37
India,Delhi,Delhi,"DTU, Delhi - CPCB",22-01-2024 16:00:00,28.7500499,77.1112615,PM10,138,458,240
India,Delhi,Delhi,"DTU, Delhi - CPCB",22-01-2024 16:00:00,28.7500499,77.1112615,NH3,12,20,14
India,Delhi,Delhi,"Dr. Karni Singh Shooting Range, Delhi - DPCC",22-01-2024 16:00:00,28.498571,77.264840,OZONE,1,92,51
India,Delhi,Delhi,"IGI Airport (T3), Delhi - IMD",22-01-2024 16:00:00,28.5627763,77.1180053,PM2.5,NA,NA,NA
India,Delhi,Delhi,"IHBAS, Dilshad Garden, Delhi - CPCB",22-01-2024 16:00:00,28.6811736,77.3025234,PM2.5,190,331,275
India,Delhi,Delhi,"IHBAS, Dilshad Garden, Delhi - CPCB",22-01-2024 16:00:00,28.6811736,77.3025234,PM10,125,317,177
India,Delhi,Delhi,"Jahangirpuri, Delhi - DPCC",22-01-2024 16:00:00,28.732820,77.170633,PM2.5,302,444,366
India,Delhi,Delhi,"Jahangirpuri, Delhi - DPCC",22-01-2024 16:00:00,28.732820,77.170633,NH3,3,4,3
India,Delhi,Delhi,"Jawaharlal Nehru Stadium, Delhi - DPCC",22-01-2024 16:00:00,28.580280,77.233829,PM2.5,293,380,333
India,Delhi,Delhi,"Jawaharlal Nehru Stadium, Delhi - DPCC",22-01-2024 16:00:00,28.580280,77.233829,SO2,1,10,6
India,Delhi,Delhi,"Jawaharlal Nehru Stadium, Delhi - DPCC",22-01-2024 16:00:00,28.580280,77.233829,CO,48,80,57
India,Delhi,Delhi,"Jawaharlal Nehru Stadium, Delhi - DPCC",22-01-2024 16:00:00,28.580280,77.233829,OZONE,2,42,23
India,Delhi,Delhi,"Lodhi Road, Delhi - IMD",22-01-2024 16:00:00,28.5918245,77.2273074,PM2.5,NA,NA,NA
India,Delhi,Delhi,"Major Dhyan Chand National Stadium, Delhi - DPCC",22-01-2024 16:00:00,28.611281,77.237738,PM2.5,300,394,339
India,Delhi,Delhi,"Mandir Marg, Delhi - DPCC",22-01-2024 16:00:00,28.636429,77.201067,PM10,157,309,206
India,Delhi,Delhi,"Mandir Marg, Delhi - DPCC",22-01-2024 16:00:00,28.636429,77.201067,NH3,15,16,15
India,Delhi,Delhi,"Mundka, Delhi - DPCC",22-01-2024 16:00:00,28.684678,77.076574,OZONE,2,14,8
India,Delhi,Delhi,"NSIT Dwarka, Delhi - CPCB",22-01-2024 16:00:00,28.60909,77.0325413,PM2.5,273,382,322
India,Delhi,Delhi,"NSIT Dwarka, Delhi - CPCB",22-01-2024 16:00:00,28.60909,77.0325413,SO2,5,18,13
India,Delhi,Delhi,"Okhla Phase-2, Delhi - DPCC",22-01-2024 16:00:00,28.530785,77.271255,PM2.5,311,403,352
India,Delhi,Delhi,"Okhla Phase-2, Delhi - DPCC",22-01-2024 16:00:00,28.530785,77.271255,NO2,58,114,79
India,Delhi,Delhi,"Punjabi Bagh, Delhi - DPCC",22-01-2024 16:00:00,28.674045,77.131023,PM2.5,314,404,353
India,Delhi,Delhi,"Punjabi Bagh, Delhi - DPCC",22-01-2024 16:00:00,28.674045,77.131023,NO2,67,107,79
India,Delhi,Delhi,"Punjabi Bagh, Delhi - DPCC",22-01-2024 16:00:00,28.674045,77.131023,NH3,5,7,6
India,Delhi,Delhi,"Pusa, Delhi - DPCC",22-01-2024 16:00:00,28.639652,77.146275,OZONE,22,78,66
India,Delhi,Delhi,"Pusa, Delhi - IMD",22-01-2024 16:00:00,28.636110,77.173332,PM10,NA,NA,NA
India,Delhi,Delhi,"R K Puram, Delhi - DPCC",22-01-2024 16:00:00,28.563262,77.186937,PM2.5,303,403,355
India,Delhi,Delhi,"R K Puram, Delhi - DPCC",22-01-2024 16:00:00,28.563262,77.186937,OZONE,8,100,51
India,Delhi,Delhi,"Rohini, Delhi - DPCC",22-01-2024 16:00:00,28.732528,77.119920,CO,30,68,53
India,Delhi,Delhi,"Rohini, Delhi - DPCC",22-01-2024 16:00:00,28.732528,77.119920,OZONE,9,90,44
India,Delhi,Delhi,"Shadipur, Delhi - CPCB",22-01-2024 16:00:00,28.6514781,77.1473105,PM2.5,232,389,346
India,Delhi,Delhi,"Shadipur, Delhi - CPCB",22-01-2024 16:00:00,28.6514781,77.1473105,PM10,179,396,242
India,Delhi,Delhi,"Shadipur, Delhi - CPCB",22-01-2024 16:00:00,28.6514781,77.1473105,NH3,11,16,13
India,Delhi,Delhi,"Shadipur, Delhi - CPCB",22-01-2024 16:00:00,28.6514781,77.1473105,CO,34,116,62
India,Delhi,Delhi,"Sirifort, Delhi - CPCB",22-01-2024 16:00:00,28.5504249,77.2159377,PM10,162,341,241
India,Delhi,Delhi,"Sonia Vihar, Delhi - DPCC",22-01-2024 16:00:00,28.710508,77.249485,NH3,6,8,7
India,Delhi,Delhi,"Sonia Vihar, Delhi - DPCC",22-01-2024 16:00:00,28.710508,77.249485,CO,56,94,80
India,Delhi,Delhi,"Sonia Vihar, Delhi - DPCC",22-01-2024 16:00:00,28.710508,77.249485,OZONE,12,116,57
India,Delhi,Delhi,"Vivek Vihar, Delhi - DPCC",22-01-2024 16:00:00,28.672342,77.315260,PM2.5,314,456,368
India,Delhi,Delhi,"Wazirpur, Delhi - DPCC",22-01-2024 16:00:00,28.699793,77.165453,NO2,68,161,116
India,Gujarat,Ahmedabad,"Chandkheda, Ahmedabad - IITM",22-01-2024 16:00:00,23.107969,72.574648,PM10,51,180,106
India,Gujarat,Ahmedabad,"Gyaspur, Ahmedabad - IITM",22-01-2024 16:00:00,22.977134,72.553024,NH3,3,4,3
India,Gujarat,Ahmedabad,"Maninagar, Ahmedabad - GPCB",22-01-2024 16:00:00,23.002657,72.591912,NO2,13,119,54
India,Gujarat,Ahmedabad,"Rakhial, Ahmedabad - IITM",22-01-2024 16:00:00,23.016834,72.625775,CO,4,102,12
India,Gujarat,Ahmedabad,"SAC ISRO Bopal, Ahmedabad - IITM",22-01-2024 16:00:00,23.041137,72.456691,SO2,6,10,9
India,Gujarat,Ahmedabad,"SAC ISRO Bopal, Ahmedabad - IITM",22-01-2024 16:00:00,23.041137,72.456691,CO,26,40,29
India,Gujarat,Ahmedabad,"SVPI Airport Hansol, Ahmedabad - IITM",22-01-2024 16:00:00,23.076793,72.627874,OZONE,8,22,16
India,Gujarat,Ankleshwar,"GIDC, Ankleshwar - GPCB",22-01-2024 16:00:00,21.613267,73.010555,PM2.5,54,132,95
India,Gujarat,Gandhinagar,"GIFT City, Gandhinagar - IITM",22-01-2024 16:00:00,23.163798,72.677768,CO,2,15,5
India,Gujarat,Gandhinagar,"GIFT City, Gandhinagar - IITM",22-01-2024 16:00:00,23.163798,72.677768,OZONE,1,28,20
India,Gujarat,Gandhinagar,"Sector-10, Gandhinagar - GPCB",22-01-2024 16:00:00,23.221714,72.654328,NO2,NA,NA,NA
India,Gujarat,Gandhinagar,"Sector-10, Gandhinagar - GPCB",22-01-2024 16:00:00,23.221714,72.654328,SO2,NA,NA,NA
India,Gujarat,Gandhinagar,"Sector-10, Gandhinagar - GPCB",22-01-2024 16:00:00,23.221714,72.654328,OZONE,42,42,42
India,Gujarat,Surat,"Science Center, Surat - SMC",22-01-2024 16:00:00,21.170046,72.795405,SO2,14,22,17
India,Gujarat,Surat,"Science Center, Surat - SMC",22-01-2024 16:00:00,21.170046,72.795405,CO,42,61,54
India,Gujarat,Vapi,"Phase-1 GIDC, Vapi - GPCB",22-01-2024 16:00:00,20.362421,72.918013,PM10,82,259,137
India,Gujarat,Vapi,"Phase-1 GIDC, Vapi - GPCB",22-01-2024 16:00:00,20.362421,72.918013,CO,103,173,173
India,Gujarat,Vatva,"Phase-4 GIDC, Vatva - GPCB",22-01-2024 16:00:00,22.969611,72.643500,PM10,47,128,82
India,Gujarat,Vatva,"Phase-4 GIDC, Vatva - GPCB",22-01-2024 16:00:00,22.969611,72.643500,OZONE,7,24,16
India,Haryana,Bahadurgarh,"Arya Nagar, Bahadurgarh - HSPCB",22-01-2024 16:00:00,28.6701,76.9254,PM2.5,144,306,227
India,Haryana,Bahadurgarh,"Arya Nagar, Bahadurgarh - HSPCB",22-01-2024 16:00:00,28.6701,76.9254,NO2,34,41,36
India,Haryana,Bahadurgarh,"Arya Nagar, Bahadurgarh - HSPCB",22-01-2024 16:00:00,28.6701,76.9254,NH3,11,12,11
India,Haryana,Ballabgarh,"Nathu Colony, Ballabgarh - HSPCB",22-01-2024 16:00:00,28.3419248,77.319699,NO2,12,13,13
India,Haryana,Ballabgarh,"Nathu Colony, Ballabgarh - HSPCB",22-01-2024 16:00:00,28.3419248,77.319699,NH3,1,2,2
India,Haryana,Ballabgarh,"Nathu Colony, Ballabgarh - HSPCB",22-01-2024 16:00:00,28.3419248,77.319699,OZONE,2,18,10
India,Haryana,Bhiwani,"H.B. Colony, Bhiwani - HSPCB",22-01-2024 16:00:00,28.806223,76.141105,SO2,8,17,11
India,Haryana,Charkhi Dadri,"Mini Secretariat, Charkhi Dadri - HSPCB",22-01-2024 16:00:00,28.593883,76.270653,SO2,7,13,10
India,Haryana,Dharuhera,"Municipal Corporation Office, Dharuhera -  HSPCB",22-01-2024 16:00:00,28.206800,76.799700,CO,32,76,45
India,Haryana,Faridabad,"New Industrial Town, Faridabad - HSPCB",22-01-2024 16:00:00,28.39072,77.30059,CO,26,48,35
India,Haryana,Faridabad,"Sector 11, Faridabad - HSPCB",22-01-2024 16:00:00,28.376058,77.315741,NO2,NA,NA,NA
India,Haryana,Faridabad,"Sector 11, Faridabad - HSPCB",22-01-2024 16:00:00,28.376058,77.315741,NH3,NA,NA,NA
India,Haryana,Faridabad,"Sector 11, Faridabad - HSPCB",22-01-2024 16:00:00,28.376058,77.315741,SO2,NA,NA,NA
India,Haryana,Faridabad,"Sector 11, Faridabad - HSPCB",22-01-2024 16:00:00,28.376058,77.315741,OZONE,4,10,5
India,Haryana,Faridabad,"Sector 30, Faridabad - HSPCB",22-01-2024 16:00:00,28.4417,77.3217,PM10,NA,NA,NA
India,Haryana,Faridabad,"Sector 30, Faridabad - HSPCB",22-01-2024 16:00:00,28.4417,77.3217,NO2,NA,NA,NA
India,Haryana,Faridabad,"Sector 30, Faridabad - HSPCB",22-01-2024 16:00:00,28.4417,77.3217,OZONE,4,22,14
India,Haryana,Faridabad,"Sector- 16A, Faridabad - HSPCB",22-01-2024 16:00:00,28.4088421,77.3099081,NO2,1,55,28
India,Haryana,Fatehabad,"Huda Sector, Fatehabad - HSPCB",22-01-2024 16:00:00,29.503664,75.467934,NO2,29,32,30
India,Haryana,Gurugram,"NISE Gwal Pahari, Gurugram - IMD",22-01-2024 16:00:00,28.422681,77.148944,PM2.5,NA,NA,NA
India,Haryana,Gurugram,"NISE Gwal Pahari, Gurugram - IMD",22-01-2024 16:00:00,28.422681,77.148944,PM10,NA,NA,NA
India,Haryana,Gurugram,"NISE Gwal Pahari, Gurugram - IMD",22-01-2024 16:00:00,28.422681,77.148944,OZONE,20,23,20
India,Haryana,Gurugram,"Sector-51, Gurugram - HSPCB",22-01-2024 16:00:00,28.4227,77.0667,PM2.5,347,429,373
India,Haryana,Gurugram,"Sector-51, Gurugram - HSPCB",22-01-2024 16:00:00,28.4227,77.0667,OZONE,27,67,56
India,Haryana,Gurugram,"Teri Gram, Gurugram - HSPCB",22-01-2024 16:00:00,28.4275,77.1465,PM10,132,351,208
India,Haryana,Gurugram,"Vikas Sadan, Gurugram - HSPCB",22-01-2024 16:00:00,28.4501238,77.0263051,PM2.5,88,313,155
India,Haryana,Gurugram,"Vikas Sadan, Gurugram - HSPCB",22-01-2024 16:00:00,28.4501238,77.0263051,CO,53,138,101
India,Haryana,Hisar,"Urban Estate-II, Hisar - HSPCB",22-01-2024 16:00:00,29.140560,75.744941,PM2.5,99,264,155
India,Haryana,Hisar,"Urban Estate-II, Hisar - HSPCB",22-01-2024 16:00:00,29.140560,75.744941,PM10,72,154,103
India,Haryana,Hisar,"Urban Estate-II, Hisar - HSPCB",22-01-2024 16:00:00,29.140560,75.744941,CO,40,53,49
India,Haryana,Jind,"Police Lines, Jind - HSPCB",22-01-2024 16:00:00,29.307814,76.337619,NO2,7,16,11
India,Haryana,Jind,"Police Lines, Jind - HSPCB",22-01-2024 16:00:00,29.307814,76.337619,OZONE,6,13,9
India,Haryana,Kurukshetra,"Sector-7, Kurukshetra - HSPCB",22-01-2024 16:00:00,29.966942,76.875879,NH3,5,5,5
India,Haryana,Mandikhera,"General Hospital, Mandikhera - HSPCB",22-01-2024 16:00:00,27.9002,76.9938,SO2,29,37,34
India,Haryana,Manesar,"Sector-2 IMT, Manesar - HSPCB",22-01-2024 16:00:00,28.360699,76.936090,PM10,121,238,167
India,Haryana,Manesar,"Sector-2 IMT, Manesar - HSPCB",22-01-2024 16:00:00,28.360699,76.936090,OZONE,6,25,17
India,Haryana,Narnaul,"Shastri Nagar, Narnaul - HSPCB",22-01-2024 16:00:00,28.060249,76.113115,CO,10,34,23
India,Haryana,Narnaul,"Shastri Nagar, Narnaul - HSPCB",22-01-2024 16:00:00,28.060249,76.113115,OZONE,33,85,65
India,Haryana,Panchkula,"Sector-6, Panchkula - HSPCB ",22-01-2024 16:00:00,30.7057778,76.8531805555555,SO2,11,12,12
India,Haryana,Panipat,"Sector-18, Panipat - HSPCB",22-01-2024 16:00:00,29.497973,76.993331,PM2.5,NA,NA,NA
India,Haryana,Panipat,"Sector-18, Panipat - HSPCB",22-01-2024 16:00:00,29.497973,76.993331,NO2,NA,NA,NA
India,Haryana,Rohtak,"MD University, Rohtak - HSPCB",22-01-2024 16:00:00,28.52123,76.37138,OZONE,50,106,87
India,Haryana,Sirsa,"F-Block, Sirsa - HSPCB",22-01-2024 16:00:00,29.536400,75.015800,NH3,12,13,13
India,Haryana,Sirsa,"F-Block, Sirsa - HSPCB",22-01-2024 16:00:00,29.536400,75.015800,SO2,14,24,21
India,Haryana,Sonipat,"Murthal, Sonipat - HSPCB",22-01-2024 16:00:00,29.027200,77.062100,PM10,164,164,164
India,Haryana,Sonipat,"Murthal, Sonipat - HSPCB",22-01-2024 16:00:00,29.027200,77.062100,NO2,37,44,40
India,Haryana,Sonipat,"Murthal, Sonipat - HSPCB",22-01-2024 16:00:00,29.027200,77.062100,OZONE,17,36,30
India,Haryana,Yamuna Nagar,"Gobind Pura, Yamuna Nagar - HSPCB",22-01-2024 16:00:00,30.1480566,77.2893471,PM10,120,162,143
India,Himachal Pradesh,Baddi,"HIMUDA Complex Phase-1, Baddi - HPPCB",22-01-2024 16:00:00,30.943887,76.801991,PM10,103,348,172
India,Himachal Pradesh,Baddi,"HIMUDA Complex Phase-1, Baddi - HPPCB",22-01-2024 16:00:00,30.943887,76.801991,SO2,16,113,55
India,Jharkhand,Dhanbad,"Kalakusuma, Dhanbad - DMC",22-01-2024 16:00:00,23.811548,86.481238,PM2.5,2,314,86
India,Jharkhand,Dhanbad,"Kalakusuma, Dhanbad - DMC",22-01-2024 16:00:00,23.811548,86.481238,SO2,108,113,112
India,Jharkhand,Dhanbad,"Sardar Patel Nagar, Dhanbad - JSPCB",22-01-2024 16:00:00,23.80569,86.44268,NO2,NA,NA,NA
India,Jharkhand,Pathardih,"Mohalbani Ghat, Pathardih - DMC",22-01-2024 16:00:00,23.669880,86.411725,PM2.5,NA,NA,NA
India,Jharkhand,Pathardih,"Mohalbani Ghat, Pathardih - DMC",22-01-2024 16:00:00,23.669880,86.411725,PM10,NA,NA,NA
India,Jharkhand,Pathardih,"Mohalbani Ghat, Pathardih - DMC",22-01-2024 16:00:00,23.669880,86.411725,OZONE,11,140,82
India,Karnataka,Bagalkot,"Vidayagiri, Bagalkot - KSPCB",22-01-2024 16:00:00,16.172806,75.659694,NO2,10,11,10
India,Karnataka,Bagalkot,"Vidayagiri, Bagalkot - KSPCB",22-01-2024 16:00:00,16.172806,75.659694,OZONE,9,47,34
India,Karnataka,Belgaum,"Ramteerth Nagar, Belgaum - KSPCB",22-01-2024 16:00:00,15.888653,74.541751,PM2.5,22,78,38
India,Karnataka,Belgaum,"Ramteerth Nagar, Belgaum - KSPCB",22-01-2024 16:00:00,15.888653,74.541751,PM10,30,81,48
India,Karnataka,Belgaum,"Ramteerth Nagar, Belgaum - KSPCB",22-01-2024 16:00:00,15.888653,74.541751,NO2,26,30,28
India,Karnataka,Belgaum,"Ramteerth Nagar, Belgaum - KSPCB",22-01-2024 16:00:00,15.888653,74.541751,CO,40,62,44
India,Karnataka,Bengaluru,"BTM Layout, Bengaluru - CPCB",22-01-2024 16:00:00,12.9135218,77.5950804,PM10,NA,NA,NA
India,Karnataka,Bengaluru,"BTM Layout, Bengaluru - CPCB",22-01-2024 16:00:00,12.9135218,77.5950804,SO2,NA,NA,NA
India,Karnataka,Bengaluru,"Bapuji Nagar, Bengaluru - KSPCB",22-01-2024 16:00:00,12.951913,77.539784,PM2.5,44,300,93
India,Karnataka,Bengaluru,"Bapuji Nagar, Bengaluru - KSPCB",22-01-2024 16:00:00,12.951913,77.539784,PM10,49,206,97
India,Karnataka,Bengaluru,"Bapuji Nagar, Bengaluru - KSPCB",22-01-2024 16:00:00,12.951913,77.539784,NH3,1,1,1
India,Karnataka,Bengaluru,"Hebbal, Bengaluru - KSPCB",22-01-2024 16:00:00,13.029152,77.585901,PM10,NA,NA,NA
India,Karnataka,Bengaluru,"Hombegowda Nagar, Bengaluru - KSPCB",22-01-2024 16:00:00,12.938539,77.590100,CO,16,20,17
India,Karnataka,Bengaluru,"Hombegowda Nagar, Bengaluru - KSPCB",22-01-2024 16:00:00,12.938539,77.590100,OZONE,4,5,4
India,Karnataka,Bengaluru,"Jayanagar 5th Block, Bengaluru - KSPCB",22-01-2024 16:00:00,12.920984,77.584908,SO2,13,38,24
India,Karnataka,Bengaluru,"Jigani, Bengaluru - KSPCB",22-01-2024 16:00:00,12.7816279,77.6299145,PM2.5,23,126,57
India,Karnataka,Bengaluru,"Kasturi Nagar, Bengaluru - KSPCB",22-01-2024 16:00:00,13.003872,77.664217,NH3,3,4,4
India,Karnataka,Bengaluru,"Kasturi Nagar, Bengaluru - KSPCB",22-01-2024 16:00:00,13.003872,77.664217,SO2,9,10,10
India,Karnataka,Bengaluru,"Peenya, Bengaluru - CPCB",22-01-2024 16:00:00,13.0270199,77.494094,PM10,32,32,32
India,Karnataka,Bengaluru,"Peenya, Bengaluru - CPCB",22-01-2024 16:00:00,13.0270199,77.494094,SO2,9,21,15
India,Karnataka,Bengaluru,"RVCE-Mailasandra, Bengaluru - KSPCB",22-01-2024 16:00:00,12.921418,77.502466,PM2.5,57,152,93
India,Karnataka,Bengaluru,"RVCE-Mailasandra, Bengaluru - KSPCB",22-01-2024 16:00:00,12.921418,77.502466,NH3,4,4,4
India,Karnataka,Bengaluru,"RVCE-Mailasandra, Bengaluru - KSPCB",22-01-2024 16:00:00,12.921418,77.502466,OZONE,40,40,40
India,Karnataka,Bengaluru,"Sanegurava Halli, Bengaluru - KSPCB",22-01-2024 16:00:00,12.990328,77.5431385,NO2,NA,NA,NA
India,Karnataka,Bengaluru,"Shivapura_Peenya, Bengaluru - KSPCB",22-01-2024 16:00:00,13.0246342,77.5080115,PM2.5,NA,NA,NA
India,Karnataka,Bengaluru,"Silk Board, Bengaluru - KSPCB",22-01-2024 16:00:00,12.917348,77.622813,PM10,54,262,104
India,Karnataka,Bengaluru,"Silk Board, Bengaluru - KSPCB",22-01-2024 16:00:00,12.917348,77.622813,NO2,21,35,26
India,Karnataka,Bengaluru,"Silk Board, Bengaluru - KSPCB",22-01-2024 16:00:00,12.917348,77.622813,OZONE,25,30,30
India,Karnataka,Bidar,"Naubad, Bidar - KSPCB",22-01-2024 16:00:00,17.930306,77.482194,PM2.5,69,167,103
India,Karnataka,Chamarajanagar,"Urban, Chamarajanagar - KSPCB",22-01-2024 16:00:00,11.55358,76.55521,OZONE,14,42,28
India,Karnataka,Chikkaballapur,"Chikkaballapur Rural, Chikkaballapur - KSPCB",22-01-2024 16:00:00,13.428828,77.731418,NO2,7,13,9
India,Karnataka,Chikkamagaluru,"Kalyana Nagara, Chikkamagaluru - KSPCB",22-01-2024 16:00:00,13.328028,75.797056,PM2.5,29,87,53
India,Karnataka,Chikkamagaluru,"Kalyana Nagara, Chikkamagaluru - KSPCB",22-01-2024 16:00:00,13.328028,75.797056,NH3,3,5,3
India,Karnataka,Chikkamagaluru,"Kalyana Nagara, Chikkamagaluru - KSPCB",22-01-2024 16:00:00,13.328028,75.797056,SO2,3,6,4
India,Karnataka,Chikkamagaluru,"Kalyana Nagara, Chikkamagaluru - KSPCB",22-01-2024 16:00:00,13.328028,75.797056,OZONE,17,87,53
India,Karnataka,Davanagere,"Devaraj Urs Badavane, Davanagere - KSPCB",22-01-2024 16:00:00,14.475800,75.905200,PM2.5,50,183,76
India,Karnataka,Davanagere,"Devaraj Urs Badavane, Davanagere - KSPCB",22-01-2024 16:00:00,14.475800,75.905200,NH3,1,3,1
India,Karnataka,Dharwad,"Kalabhavan, Dharwad - KSPCB",22-01-2024 16:00:00,15.459706,75.008381,NH3,3,3,3
India,Karnataka,Dharwad,"Kalabhavan, Dharwad - KSPCB",22-01-2024 16:00:00,15.459706,75.008381,OZONE,3,35,24
India,Karnataka,Gadag,"Panchal Nagar, Gadag - KSPCB",22-01-2024 16:00:00,15.411456,75.638133,PM2.5,17,67,34
India,Karnataka,Gadag,"Panchal Nagar, Gadag - KSPCB",22-01-2024 16:00:00,15.411456,75.638133,SO2,7,11,10
India,Karnataka,Hassan,"B.Katihalli, Hassan - KSPCB",22-01-2024 16:00:00,13.008556,76.125258,PM2.5,52,98,77
India,Karnataka,Haveri,"Ashwini Nagar, Haveri - KSPCB",22-01-2024 16:00:00,14.791800,75.389600,PM2.5,NA,NA,NA
India,Karnataka,Haveri,"Ashwini Nagar, Haveri - KSPCB",22-01-2024 16:00:00,14.791800,75.389600,PM10,NA,NA,NA
India,Karnataka,Haveri,"Ashwini Nagar, Haveri - KSPCB",22-01-2024 16:00:00,14.791800,75.389600,NO2,NA,NA,NA
India,Karnataka,Hubballi,"Lingaraj Nagar, Hubballi - KSPCB",22-01-2024 16:00:00,15.3714823,75.1160168,PM10,41,79,58
India,Karnataka,Hubballi,"Lingaraj Nagar, Hubballi - KSPCB",22-01-2024 16:00:00,15.3714823,75.1160168,SO2,1,6,3
India,Karnataka,Kalaburagi,"Lal Bahadur Shastri Nagar, Kalaburagi - KSPCB",22-01-2024 16:00:00,17.321993,76.822628,PM10,7,75,34
India,Karnataka,Kalaburagi,"Lal Bahadur Shastri Nagar, Kalaburagi - KSPCB",22-01-2024 16:00:00,17.321993,76.822628,NH3,2,2,2
India,Karnataka,Kalaburagi,"Mahatma Basaveswar Colony, Kalaburgi - KSPCB",22-01-2024 16:00:00,17.336318,76.847397,OZONE,1,31,20
India,Karnataka,Karwar,"KHB Colony, Karwar - KSPCB",22-01-2024 16:00:00,14.816666,74.141003,PM10,46,221,76
India,Karnataka,Karwar,"KHB Colony, Karwar - KSPCB",22-01-2024 16:00:00,14.816666,74.141003,NO2,5,12,7
India,Karnataka,Kolar,"Tamaka Ind. Area, Kolar - KSPCB",22-01-2024 16:00:00,13.1276288,78.1570122,NO2,4,46,11
India,Karnataka,Kolar,"Tamaka Ind. Area, Kolar - KSPCB",22-01-2024 16:00:00,13.1276288,78.1570122,NH3,5,9,7
India,Karnataka,Kolar,"Tamaka Ind. Area, Kolar - KSPCB",22-01-2024 16:00:00,13.1276288,78.1570122,OZONE,13,17,14
India,Karnataka,Madikeri,"Stuart Hill, Madikeri - KSPCB",22-01-2024 16:00:00,12.415911,75.735050,PM10,28,56,34
India,Karnataka,Madikeri,"Stuart Hill, Madikeri - KSPCB",22-01-2024 16:00:00,12.415911,75.735050,CO,4,42,15
India,Karnataka,Mysuru,"Hebbal 1st Stage, Mysuru - KSPCB",22-01-2024 16:00:00,12.21041,76.37376,CO,10,57,24
India,Karnataka,Raichur,"Haji Colony, Raichur - KSPCB",22-01-2024 16:00:00,16.208139,77.348417,PM10,65,153,115
India,Karnataka,Raichur,"Haji Colony, Raichur - KSPCB",22-01-2024 16:00:00,16.208139,77.348417,NH3,NA,NA,NA
India,Karnataka,Raichur,"Haji Colony, Raichur - KSPCB",22-01-2024 16:00:00,16.208139,77.348417,CO,72,105,94
India,Karnataka,Ramanagara,"Vijay Nagar, Ramanagara - KSPCB",22-01-2024 16:00:00,12.733409,77.298051,NO2,2,32,10
India,Karnataka,Ramanagara,"Vijay Nagar, Ramanagara - KSPCB",22-01-2024 16:00:00,12.733409,77.298051,CO,12,89,20
India,Karnataka,Ramanagara,"Vijay Nagar, Ramanagara - KSPCB",22-01-2024 16:00:00,12.733409,77.298051,OZONE,28,30,29
India,Karnataka,Shivamogga,"Vinoba Nagara, Shivamogga - KSPCB",22-01-2024 16:00:00,13.940000,75.555917,NO2,11,117,31
India,Karnataka,Shivamogga,"Vinoba Nagara, Shivamogga - KSPCB",22-01-2024 16:00:00,13.940000,75.555917,SO2,2,15,8
India,Karnataka,Vijayapura,"Ibrahimpur, Vijayapura - KSPCB",22-01-2024 16:00:00,16.802639,75.722694,PM10,38,40,39
India,Karnataka,Vijayapura,"Ibrahimpur, Vijayapura - KSPCB",22-01-2024 16:00:00,16.802639,75.722694,NH3,2,2,2
India,Karnataka,Vijayapura,"Ibrahimpur, Vijayapura - KSPCB",22-01-2024 16:00:00,16.802639,75.722694,CO,NA,NA,NA
India,Kerala,Eloor,"Udyogamandal, Eloor - Kerala PCB",22-01-2024 16:00:00,10.073232,76.302765,NH3,1,1,1
India,Kerala,Eloor,"Udyogamandal, Eloor - Kerala PCB",22-01-2024 16:00:00,10.073232,76.302765,SO2,1,4,1
India,Kerala,Eloor,"Udyogamandal, Eloor - Kerala PCB",22-01-2024 16:00:00,10.073232,76.302765,CO,4,107,48
India,Kerala,Kannur,"Thavakkara, Kannur - Kerala PCB",22-01-2024 16:00:00,11.875000,75.373200,NO2,6,7,6
India,Kerala,Kollam,"Polayathode, Kollam - Kerala PCB",22-01-2024 16:00:00,8.8787,76.6073,OZONE,31,39,36
India,Kerala,Thiruvananthapuram,"Plammoodu, Thiruvananthapuram - Kerala PCB",22-01-2024 16:00:00,8.5149093,76.9435879,PM10,33,77,59
India,Kerala,Thiruvananthapuram,"Plammoodu, Thiruvananthapuram - Kerala PCB",22-01-2024 16:00:00,8.5149093,76.9435879,NH3,2,2,2
India,Kerala,Thiruvananthapuram,"Plammoodu, Thiruvananthapuram - Kerala PCB",22-01-2024 16:00:00,8.5149093,76.9435879,SO2,5,17,11
India,Kerala,Thrissur,"Corporation Ground, Thrissur - Kerala PCB",22-01-2024 16:00:00,10.532400,76.215900,PM2.5,48,55,51
India,Madhya Pradesh,Bhopal,"Idgah Hills, Bhopal - MPPCB",22-01-2024 16:00:00,23.264759,77.381568,SO2,11,21,14
India,Madhya Pradesh,Bhopal,"Paryavaran Parisar, Bhopal - MPPCB",22-01-2024 16:00:00,23.210494,77.425409,PM2.5,37,431,211
India,Madhya Pradesh,Bhopal,"Paryavaran Parisar, Bhopal - MPPCB",22-01-2024 16:00:00,23.210494,77.425409,CO,7,113,26
India,Madhya Pradesh,Bhopal,"T T Nagar, Bhopal - MPPCB",22-01-2024 16:00:00,23.233584,77.400574,PM2.5,38,376,205
India,Madhya Pradesh,Bhopal,"T T Nagar, Bhopal - MPPCB",22-01-2024 16:00:00,23.233584,77.400574,PM10,54,290,146
India,Madhya Pradesh,Bhopal,"T T Nagar, Bhopal - MPPCB",22-01-2024 16:00:00,23.233584,77.400574,NO2,39,112,59
India,Madhya Pradesh,Bhopal,"T T Nagar, Bhopal - MPPCB",22-01-2024 16:00:00,23.233584,77.400574,NH3,1,7,5
India,Madhya Pradesh,Dewas,"Bhopal Chauraha, Dewas - MPPCB",22-01-2024 16:00:00,22.9682591,76.064118,NO2,11,13,12
India,Madhya Pradesh,Gwalior,"City Center, Gwalior - MPPCB",22-01-2024 16:00:00,26.203442,78.193251,NH3,6,10,7
India,Madhya Pradesh,Gwalior,"City Center, Gwalior - MPPCB",22-01-2024 16:00:00,26.203442,78.193251,SO2,27,42,33
India,Madhya Pradesh,Gwalior,"Deen Dayal Nagar, Gwalior - MPPCB",22-01-2024 16:00:00,26.259242,78.216432,PM10,100,500,242
India,Madhya Pradesh,Gwalior,"Deen Dayal Nagar, Gwalior - MPPCB",22-01-2024 16:00:00,26.259242,78.216432,NH3,11,17,13
India,Madhya Pradesh,Gwalior,"Deen Dayal Nagar, Gwalior - MPPCB",22-01-2024 16:00:00,26.259242,78.216432,CO,41,52,50
India,Madhya Pradesh,Gwalior,"Maharaj Bada, Gwalior - MPPCB",22-01-2024 16:00:00,26.200388,78.147714,OZONE,23,119,42
India,Madhya Pradesh,Indore,"Chhoti Gwaltoli, Indore - MPPCB",22-01-2024 16:00:00,22.4310,75.5213,PM2.5,48,311,169
India,Madhya Pradesh,Indore,"Chhoti Gwaltoli, Indore - MPPCB",22-01-2024 16:00:00,22.4310,75.5213,NO2,55,139,82
India,Madhya Pradesh,Indore,"Chhoti Gwaltoli, Indore - MPPCB",22-01-2024 16:00:00,22.4310,75.5213,OZONE,11,96,83
India,Madhya Pradesh,Indore,"Maguda Nagar, Indore - IMC",22-01-2024 16:00:00,22.7524,75.8872,NO2,5,7,6
India,Madhya Pradesh,Indore,"Regional Park, Indore - IMC",22-01-2024 16:00:00,22.6780,75.8559,NO2,7,12,9
India,Madhya Pradesh,Indore,"Residency Area, Indore - IMC",22-01-2024 16:00:00,22.7084,75.8815,PM10,33,128,71
India,Madhya Pradesh,Indore,"Residency Area, Indore - IMC",22-01-2024 16:00:00,22.7084,75.8815,NH3,NA,NA,NA
India,Madhya Pradesh,Jabalpur,"Govindh Bhavan Colony, Jabalpur - JMC",22-01-2024 16:00:00,23.163174,79.973061,OZONE,7,311,176
India,Madhya Pradesh,Jabalpur,"Gupteshwar, Jabalpur - JMC",22-01-2024 16:00:00,23.142888,79.916147,NH3,1,6,3
India,Madhya Pradesh,Jabalpur,"Gupteshwar, Jabalpur - JMC",22-01-2024 16:00:00,23.142888,79.916147,CO,26,149,47
India,Madhya Pradesh,Jabalpur,"Marhatal, Jabalpur - MPPCB",22-01-2024 16:00:00,23.168606,79.932247,NO2,38,128,68
India,Madhya Pradesh,Jabalpur,"Marhatal, Jabalpur - MPPCB",22-01-2024 16:00:00,23.168606,79.932247,SO2,16,21,18
India,Madhya Pradesh,Jabalpur,"Suhagi, Jabalpur - JMC",22-01-2024 16:00:00,23.218135,79.957770,CO,12,120,34
India,Madhya Pradesh,Jabalpur,"Suhagi, Jabalpur - JMC",22-01-2024 16:00:00,23.218135,79.957770,OZONE,5,146,83
India,Madhya Pradesh,Katni,"Gole Bazar, Katni - MPPCB",22-01-2024 16:00:00,23.50016,80.23284,PM10,45,290,120
India,Madhya Pradesh,Maihar,"Sahilara, Maihar - KJS Cements",22-01-2024 16:00:00,24.2613009,80.7231783,PM10,31,72,51
India,Madhya Pradesh,Maihar,"Sahilara, Maihar - KJS Cements",22-01-2024 16:00:00,24.2613009,80.7231783,SO2,13,14,13
India,Madhya Pradesh,Mandideep,"Sector-D Industrial Area, Mandideep - MPPCB",22-01-2024 16:00:00,23.108440,77.511428,CO,14,107,22
India,Madhya Pradesh,Ratlam,"Shasthri Nagar, Ratlam - IPCA Lab",22-01-2024 16:00:00,23.331731,75.045981,PM2.5,42,120,78
India,Madhya Pradesh,Sagar,"Civil Lines, Sagar - MPPCB",22-01-2024 16:00:00,23.838586,78.759431,PM2.5,22,229,110
India,Madhya Pradesh,Sagar,"Civil Lines, Sagar - MPPCB",22-01-2024 16:00:00,23.838586,78.759431,PM10,37,123,82
India,Madhya Pradesh,Sagar,"Civil Lines, Sagar - MPPCB",22-01-2024 16:00:00,23.838586,78.759431,SO2,3,6,4
India,Madhya Pradesh,Sagar,"Deen Dayal Nagar, Sagar - MPPCB",22-01-2024 16:00:00,23.8640158,78.80289321,PM10,29,96,54
India,Madhya Pradesh,Satna,"Bandhavgar Colony, Satna - Birla Cement",22-01-2024 16:00:00,24.58434363,80.8549414,NO2,5,19,10
India,Madhya Pradesh,Satna,"Bandhavgar Colony, Satna - Birla Cement",22-01-2024 16:00:00,24.58434363,80.8549414,OZONE,56,95,73
India,Madhya Pradesh,Singrauli,"Suryakiran Bhawan NCL, Singrauli - MPPCB",22-01-2024 16:00:00,24.108970,82.645580,NH3,1,2,2
India,Maharashtra,Akola,"Ramdaspeth, Akola - MPCB",22-01-2024 16:00:00,20.719516,77.000253,PM10,77,217,122
India,Maharashtra,Amravati,"Shri Shivaji Science College, Amaravati - MPCB",22-01-2024 16:00:00,20.939198,77.765701,SO2,14,44,21
India,Maharashtra,Badlapur,"Katrap, Badlapur - MPCB",22-01-2024 16:00:00,19.16485,73.23409,PM10,97,199,129
India,Maharashtra,Badlapur,"Katrap, Badlapur - MPCB",22-01-2024 16:00:00,19.16485,73.23409,NH3,2,4,3
India,Maharashtra,Badlapur,"Katrap, Badlapur - MPCB",22-01-2024 16:00:00,19.16485,73.23409,SO2,16,31,21
India,Maharashtra,Bhiwandi,"Gokul Nagar, Bhiwandi - MPCB",22-01-2024 16:00:00,19.309073,73.057223,CO,30,110,67
India,Maharashtra,Boisar,"Khaira, Boisar - MPCB",22-01-2024 16:00:00,19.786089,72.757971,PM10,104,137,120
India,Maharashtra,Boisar,"Khaira, Boisar - MPCB",22-01-2024 16:00:00,19.786089,72.757971,SO2,12,112,45
India,Maharashtra,Chandrapur,"Chauhan Colony, Chandrapur - MPCB",22-01-2024 16:00:00,19.962900,79.298714,PM10,93,217,131
India,Maharashtra,Chandrapur,"Chauhan Colony, Chandrapur - MPCB",22-01-2024 16:00:00,19.962900,79.298714,NH3,2,2,2
India,Maharashtra,Chandrapur,"MIDC Khutala, Chandrapur - MPCB",22-01-2024 16:00:00,19.9775302,79.2337086,CO,28,80,47
India,Maharashtra,Jalgaon,"Prabhat Colony, Jalgaon - MPCB",22-01-2024 16:00:00,21.001264,75.565602,OZONE,43,111,74
India,Maharashtra,Jalna,"Old MIDC, Jalna - MPCB",22-01-2024 16:00:00,19.854616,75.905894,NH3,6,8,7
India,Maharashtra,Jalna,"Old MIDC, Jalna - MPCB",22-01-2024 16:00:00,19.854616,75.905894,OZONE,24,96,61
India,Maharashtra,Kalyan,"Khadakpada, Kalyan - MPCB",22-01-2024 16:00:00,19.25292,73.142019,NO2,19,97,37
India,Maharashtra,Kolhapur,"Sinchan Bhavan, Kolhapur - MPCB",22-01-2024 16:00:00,16.7143745,74.2426398,SO2,1,4,2
India,Maharashtra,Kolhapur,"Sinchan Bhavan, Kolhapur - MPCB",22-01-2024 16:00:00,16.7143745,74.2426398,CO,5,51,29
India,Maharashtra,Latur,"Sawe Wadi, Latur - MPCB",22-01-2024 16:00:00,18.39963,76.57452,PM2.5,63,128,90
India,Maharashtra,Malegaon,"Mahesh Nagar, Malegaon - MPCB",22-01-2024 16:00:00,20.555712,74.529236,PM2.5,75,122,92
India,Maharashtra,Mira-Bhayandar,"Bhayandar West, Mira-Bhayandar - MPCB",22-01-2024 16:00:00,19.296481,72.840923,PM2.5,61,124,86
India,Maharashtra,Mira-Bhayandar,"Bhayandar West, Mira-Bhayandar - MPCB",22-01-2024 16:00:00,19.296481,72.840923,NH3,4,10,5
India,Maharashtra,Mira-Bhayandar,"Bhayandar West, Mira-Bhayandar - MPCB",22-01-2024 16:00:00,19.296481,72.840923,SO2,4,25,12
India,Maharashtra,Mumbai,"Bandra Kurla Complex, Mumbai - MPCB",22-01-2024 16:00:00,19.065931,72.862131,PM10,NA,NA,NA
India,Maharashtra,Mumbai,"Bandra Kurla Complex, Mumbai - MPCB",22-01-2024 16:00:00,19.065931,72.862131,SO2,NA,NA,NA
India,Maharashtra,Mumbai,"Bandra Kurla Complex, Mumbai - MPCB",22-01-2024 16:00:00,19.065931,72.862131,CO,25,70,37
India,Maharashtra,Mumbai,"Borivali East, Mumbai - IITM",22-01-2024 16:00:00,19.23241,72.86895,NO2,NA,NA,NA
India,Maharashtra,Mumbai,"Byculla, Mumbai - BMC",22-01-2024 16:00:00,18.9767,72.8380,NO2,21,111,58
India,Maharashtra,Mumbai,"Chakala-Andheri East, Mumbai - IITM",22-01-2024 16:00:00,19.11074,72.86084,CO,1,105,48
India,Maharashtra,Mumbai,"Chakala-Andheri East, Mumbai - IITM",22-01-2024 16:00:00,19.11074,72.86084,OZONE,42,72,61
India,Maharashtra,Mumbai,"Chembur, Mumbai - MPCB",22-01-2024 16:00:00,19.0364585,72.8954371,OZONE,1,130,65
India,Maharashtra,Mumbai,"Chhatrapati Shivaji Intl. Airport (T2), Mumbai - MPCB",22-01-2024 16:00:00,19.10078,72.87462,PM10,74,137,100
India,Maharashtra,Mumbai,"Chhatrapati Shivaji Intl. Airport (T2), Mumbai - MPCB",22-01-2024 16:00:00,19.10078,72.87462,NH3,4,7,6
India,Maharashtra,Mumbai,"Chhatrapati Shivaji Intl. Airport (T2), Mumbai - MPCB",22-01-2024 16:00:00,19.10078,72.87462,CO,42,106,84
India,Maharashtra,Mumbai,"Colaba, Mumbai - MPCB",22-01-2024 16:00:00,18.910000,72.820000,PM10,68,156,105
India,Maharashtra,Mumbai,"Colaba, Mumbai - MPCB",22-01-2024 16:00:00,18.910000,72.820000,NH3,1,1,1
India,Maharashtra,Mumbai,"Colaba, Mumbai - MPCB",22-01-2024 16:00:00,18.910000,72.820000,SO2,6,9,8
India,Maharashtra,Mumbai,"Deonar, Mumbai - IITM",22-01-2024 16:00:00,19.04946,72.9230,PM10,NA,NA,NA
India,Maharashtra,Mumbai,"Deonar, Mumbai - IITM",22-01-2024 16:00:00,19.04946,72.9230,SO2,NA,NA,NA
India,Maharashtra,Mumbai,"Deonar, Mumbai - IITM",22-01-2024 16:00:00,19.04946,72.9230,OZONE,24,79,48
India,Maharashtra,Mumbai,"Kandivali West, Mumbai - BMC",22-01-2024 16:00:00,19.215859,72.831718,OZONE,1,66,25
India,Maharashtra,Mumbai,"Kherwadi_Bandra East, Mumbai - MPCB",22-01-2024 16:00:00,19.0632143,72.8456324,NO2,10,25,18
India,Maharashtra,Mumbai,"Kherwadi_Bandra East, Mumbai - MPCB",22-01-2024 16:00:00,19.0632143,72.8456324,CO,14,112,40
India,Maharashtra,Mumbai,"Khindipada-Bhandup West, Mumbai - IITM",22-01-2024 16:00:00,19.1653323,72.922099,SO2,1,25,5
India,Maharashtra,Mumbai,"Kurla, Mumbai - MPCB",22-01-2024 16:00:00,19.0863,72.8888,PM2.5,58,216,114
India,Maharashtra,Mumbai,"Malad West, Mumbai - IITM",22-01-2024 16:00:00,19.19709,72.82204,PM2.5,12,319,172
India,Maharashtra,Mumbai,"Malad West, Mumbai - IITM",22-01-2024 16:00:00,19.19709,72.82204,NH3,1,2,1
India,Maharashtra,Mumbai,"Malad West, Mumbai - IITM",22-01-2024 16:00:00,19.19709,72.82204,CO,6,70,27
India,Maharashtra,Mumbai,"Mazgaon, Mumbai - IITM",22-01-2024 16:00:00,18.96702,72.84214,PM10,101,151,127
India,Maharashtra,Mumbai,"Mazgaon, Mumbai - IITM",22-01-2024 16:00:00,18.96702,72.84214,OZONE,33,154,154
India,Maharashtra,Mumbai,"Mindspace-Malad West, Mumbai - MPCB",22-01-2024 16:00:00,19.1878657,72.8304069,PM2.5,91,287,186
India,Maharashtra,Mumbai,"Mindspace-Malad West, Mumbai - MPCB",22-01-2024 16:00:00,19.1878657,72.8304069,NO2,8,56,22
India,Maharashtra,Mumbai,"Mulund West, Mumbai - MPCB",22-01-2024 16:00:00,19.1750,72.9419,NH3,9,10,9
India,Maharashtra,Mumbai,"Mulund West, Mumbai - MPCB",22-01-2024 16:00:00,19.1750,72.9419,OZONE,8,8,8
India,Maharashtra,Mumbai,"Navy Nagar-Colaba, Mumbai - IITM",22-01-2024 16:00:00,18.897756,72.813320,PM10,33,157,101
India,Maharashtra,Mumbai,"Powai, Mumbai - MPCB",22-01-2024 16:00:00,19.137500,72.915056,NO2,NA,NA,NA
India,Maharashtra,Mumbai,"Sewri, Mumbai - BMC",22-01-2024 16:00:00,19.000084,72.856730,PM10,88,180,117
India,Maharashtra,Mumbai,"Shivaji Nagar, Mumbai - BMC",22-01-2024 16:00:00,19.060498,72.923356,PM10,107,334,151
India,Maharashtra,Mumbai,"Siddharth Nagar-Worli, Mumbai - IITM",22-01-2024 16:00:00,19.000083,72.813993,CO,1,80,20
India,Maharashtra,Mumbai,"Siddharth Nagar-Worli, Mumbai - IITM",22-01-2024 16:00:00,19.000083,72.813993,OZONE,13,199,190
India,Maharashtra,Mumbai,"Vasai West, Mumbai - MPCB",22-01-2024 16:00:00,19.383200,72.820400,NH3,4,4,4
India,Maharashtra,Mumbai,"Vasai West, Mumbai - MPCB",22-01-2024 16:00:00,19.383200,72.820400,CO,14,40,23
India,Maharashtra,Mumbai,"Vasai West, Mumbai - MPCB",22-01-2024 16:00:00,19.383200,72.820400,OZONE,5,87,47
India,Maharashtra,Mumbai,"Vile Parle West, Mumbai - MPCB",22-01-2024 16:00:00,19.10861,72.83622,CO,3,110,71
India,Maharashtra,Mumbai,"Vile Parle West, Mumbai - MPCB",22-01-2024 16:00:00,19.10861,72.83622,OZONE,6,49,24
India,Maharashtra,Mumbai,"Worli, Mumbai - MPCB",22-01-2024 16:00:00,18.9936162,72.8128113,PM2.5,36,119,56
India,Maharashtra,Mumbai,"Worli, Mumbai - MPCB",22-01-2024 16:00:00,18.9936162,72.8128113,OZONE,7,10,9
India,Maharashtra,Nagpur,"Ambazari, Nagpur - MPCB",22-01-2024 16:00:00,21.121801,79.04952,PM10,113,184,143
India,Maharashtra,Nagpur,"Ambazari, Nagpur - MPCB",22-01-2024 16:00:00,21.121801,79.04952,NH3,1,8,2
India,Maharashtra,Nagpur,"Ambazari, Nagpur - MPCB",22-01-2024 16:00:00,21.121801,79.04952,SO2,15,69,41
India,Maharashtra,Nagpur,"Ambazari, Nagpur - MPCB",22-01-2024 16:00:00,21.121801,79.04952,CO,20,91,31
India,Maharashtra,Nagpur,"Opp GPO Civil Lines, Nagpur - MPCB",22-01-2024 16:00:00,21.152875,79.0517531,NO2,9,61,20
India,Maharashtra,Nagpur,"Opp GPO Civil Lines, Nagpur - MPCB",22-01-2024 16:00:00,21.152875,79.0517531,SO2,8,74,34
India,Maharashtra,Nagpur,"Ram Nagar, Nagpur - MPCB",22-01-2024 16:00:00,21.143383,79.048912,PM2.5,156,304,224
India,Maharashtra,Nagpur,"Ram Nagar, Nagpur - MPCB",22-01-2024 16:00:00,21.143383,79.048912,SO2,9,56,32
India,Maharashtra,Nanded,"Sneh Nagar, Nanded - MPCB",22-01-2024 16:00:00,19.173852,77.296291,OZONE,21,164,82
India,Maharashtra,Nashik,"Gangapur Road, Nashik - MPCB",22-01-2024 16:00:00,20.0073285,73.7762427,CO,18,18,18
India,Maharashtra,Nashik,"MIDC Ambad, Nashik - MPCB",22-01-2024 16:00:00,19.950220,73.731480,NH3,2,2,2
India,Maharashtra,Nashik,"MIDC Ambad, Nashik - MPCB",22-01-2024 16:00:00,19.950220,73.731480,OZONE,5,90,54
India,Maharashtra,Nashik,"Pandav Nagari, Nashik - MPCB",22-01-2024 16:00:00,19.9591346,73.7788008,PM2.5,81,140,104
India,Maharashtra,Nashik,"Pandav Nagari, Nashik - MPCB",22-01-2024 16:00:00,19.9591346,73.7788008,PM10,77,124,105
India,Maharashtra,Navi Mumbai,"Mahape, Navi Mumbai - MPCB",22-01-2024 16:00:00,19.1135051,73.008978,PM10,57,173,124
India,Maharashtra,Navi Mumbai,"Nerul, Navi Mumbai - MPCB",22-01-2024 16:00:00,19.008751,73.016620,SO2,15,17,15
India,Maharashtra,Navi Mumbai,"Sanpada, Navi Mumbai - MPCB",22-01-2024 16:00:00,19.0575752,73.0151367,NH3,12,52,28
India,Maharashtra,Navi Mumbai,"Sanpada, Navi Mumbai - MPCB",22-01-2024 16:00:00,19.0575752,73.0151367,CO,16,117,41
India,Maharashtra,Navi Mumbai,"Sector-19A Nerul, Navi Mumbai - IITM",22-01-2024 16:00:00,19.044,73.0325,SO2,14,67,28
India,Maharashtra,Navi Mumbai,"Sector-19A Nerul, Navi Mumbai - IITM",22-01-2024 16:00:00,19.044,73.0325,OZONE,1,241,195
India,Maharashtra,Navi Mumbai,"Tondare-Taloja, Navi Mumbai - MPCB",22-01-2024 16:00:00,19.0630,73.1209,NH3,NA,NA,NA
India,Maharashtra,Parbhani,"Masoom Colony, Parbhani - MPCB",22-01-2024 16:00:00,19.265594,76.761463,PM10,54,119,89
India,Maharashtra,Pimpri-Chinchwad,"Gavalinagar, Pimpri Chinchwad - MPCB",22-01-2024 16:00:00,18.63673,73.82487,PM2.5,72,224,145
India,Maharashtra,Pimpri-Chinchwad,"Park Street Wakad, Pimpri Chinchwad - MPCB",22-01-2024 16:00:00,18.59051,73.77946,OZONE,1,152,78
India,Maharashtra,Pune,"Bhosari, Pune - IITM",22-01-2024 16:00:00,18.640051,73.848956,NO2,8,27,18
India,Maharashtra,Pune,"Katraj Dairy, Pune - MPCB",22-01-2024 16:00:00,18.454450,73.854155,NH3,1,7,3
India,Maharashtra,Pune,"Katraj Dairy, Pune - MPCB",22-01-2024 16:00:00,18.454450,73.854155,OZONE,1,36,22
India,Maharashtra,Pune,"Mhada Colony, Pune - IITM",22-01-2024 16:00:00,18.573040,73.927715,NO2,40,101,61
India,Maharashtra,Pune,"Mhada Colony, Pune - IITM",22-01-2024 16:00:00,18.573040,73.927715,OZONE,1,37,23
India,Maharashtra,Pune,"Savitribai Phule Pune University, Pune - MPCB",22-01-2024 16:00:00,18.547056,73.826908,PM2.5,77,181,121
India,Maharashtra,Pune,"Savitribai Phule Pune University, Pune - MPCB",22-01-2024 16:00:00,18.547056,73.826908,NH3,2,8,6
India,Maharashtra,Pune,"Transport Nagar-Nigdi, Pune - IITM",22-01-2024 16:00:00,18.664282,73.763966,PM2.5,31,208,87
India,Maharashtra,Pune,"Transport Nagar-Nigdi, Pune - IITM",22-01-2024 16:00:00,18.664282,73.763966,CO,40,56,47
India,Maharashtra,Sangli,"Vijay Nagar, Sangli - MPCB",22-01-2024 16:00:00, 16.5038,74.3623,NO2,9,64,30
India,Maharashtra,Solapur,"Ratandeep Housing Society, Solapur - MPCB",22-01-2024 16:00:00,17.65439,75.90649,NH3,8,11,9
India,Maharashtra,Solapur,"Ratandeep Housing Society, Solapur - MPCB",22-01-2024 16:00:00,17.65439,75.90649,CO,20,106,23
India,Maharashtra,Solapur,"Solapur, Solapur - MPCB",22-01-2024 16:00:00,17.6599188,75.9063906,NO2,46,56,50
India,Maharashtra,Thane,"Kasarvadavali, Thane - MPCB",22-01-2024 16:00:00,19.26777,72.97182,NO2,25,95,54
India,Maharashtra,Thane,"Kasarvadavali, Thane - MPCB",22-01-2024 16:00:00,19.26777,72.97182,NH3,3,11,6
India,Maharashtra,Thane,"Kasarvadavali, Thane - MPCB",22-01-2024 16:00:00,19.26777,72.97182,SO2,7,64,25
India,Maharashtra,Ulhasnagar,"Sidhi Vinayak Nagar, Ulhasnagar - MPCB",22-01-2024 16:00:00,19.235581,73.159121,NO2,16,82,43
India,Manipur,Imphal,"DM College of Science, Imphal - Manipur PCB",22-01-2024 16:00:00,24.8207389,93.9423085,NO2,7,8,8
India,Manipur,Imphal,"Manipur University, Imphal - Manipur PCB",22-01-2024 16:00:00,24.7524239,93.9286218,PM2.5,35,257,97
India,Meghalaya,Shillong,"Lumpyngngad, Shillong - Meghalaya PCB",22-01-2024 16:00:00,25.5586,91.8985,OZONE,59,96,81
India,Mizoram,Aizawl,"Sikulpuikawn, Aizawl - Mizoram PCB",22-01-2024 16:00:00,23.7176342,92.7192841,PM10,23,107,50
India,Mizoram,Aizawl,"Sikulpuikawn, Aizawl - Mizoram PCB",22-01-2024 16:00:00,23.7176342,92.7192841,NO2,1,2,1
India,Nagaland,Kohima,"PWD Juction, Kohima - NPCB",22-01-2024 16:00:00,25.6635413,94.0989878,PM10,49,136,80
India,Nagaland,Kohima,"PWD Juction, Kohima - NPCB",22-01-2024 16:00:00,25.6635413,94.0989878,NO2,3,4,3
India,Odisha,Angul,"Hakimapada, Angul - OSPCB",22-01-2024 16:00:00,20.832874,85.104082,SO2,NA,NA,NA
India,Odisha,Angul,"Hakimapada, Angul - OSPCB",22-01-2024 16:00:00,20.832874,85.104082,CO,12,100,41
India,Odisha,Balasore,"Kalidaspur, Balasore - OSPCB",22-01-2024 16:00:00,21.51161,86.89088,PM10,110,284,201
India,Odisha,Balasore,"Kalidaspur, Balasore - OSPCB",22-01-2024 16:00:00,21.51161,86.89088,SO2,16,44,25
India,Odisha,Barbil,"Forest Office, Barbil - OSPCB",22-01-2024 16:00:00,22.1166054,85.3945546,SO2,1,37,11
India,Odisha,Baripada,"Meher Colony, Baripada - OSPCB",22-01-2024 16:00:00,21.941841,86.728318,SO2,4,7,6
India,Odisha,Bileipada,"Tata Township, Bileipada - OSPCB",22-01-2024 16:00:00,22.06156703,85.47409613,NO2,6,12,9
India,Odisha,Bileipada,"Tata Township, Bileipada - OSPCB",22-01-2024 16:00:00,22.06156703,85.47409613,NH3,11,11,11
India,Odisha,Brajrajnagar,"GM Office, Brajrajnagar - OSPCB",22-01-2024 16:00:00,21.8004996,83.8396977,NO2,14,81,34
India,Odisha,Brajrajnagar,"GM Office, Brajrajnagar - OSPCB",22-01-2024 16:00:00,21.8004996,83.8396977,SO2,12,12,12
India,Odisha,Brajrajnagar,"GM Office, Brajrajnagar - OSPCB",22-01-2024 16:00:00,21.8004996,83.8396977,OZONE,18,19,19
India,Odisha,Byasanagar,"Ferro Chrome Colony, Byasanagar - OSPCB",22-01-2024 16:00:00,20.94185,86.11510,PM2.5,77,301,218
India,Odisha,Byasanagar,"Ferro Chrome Colony, Byasanagar - OSPCB",22-01-2024 16:00:00,20.94185,86.11510,NH3,2,5,4
India,Odisha,Cuttack,"CDA Area, Cuttack - OSPCB",22-01-2024 16:00:00,20.48891     ,85.84768     ,CO,50,76,66
India,Odisha,Nayagarh,"Dabuna, Nayagarh - OSPCB",22-01-2024 16:00:00,21.847279,85.416905,PM2.5,73,178,122
India,Odisha,Nayagarh,"Dabuna, Nayagarh - OSPCB",22-01-2024 16:00:00,21.847279,85.416905,CO,22,40,30
India,Odisha,Rourkela,"Sector-2, Rourkela - OSPCB",22-01-2024 16:00:00,22.24500000,84.88111111,PM2.5,NA,NA,NA
India,Odisha,Talcher,"Talcher Coalfields,Talcher - OSPCB",22-01-2024 16:00:00,20.9360711,85.1707021,NO2,42,48,45
India,Puducherry,Puducherry,"Jawahar Nagar, Puducherry - PPCC",22-01-2024 16:00:00,11.9309,79.8027,NH3,1,2,2
India,Puducherry,Puducherry,"Jawahar Nagar, Puducherry - PPCC",22-01-2024 16:00:00,11.9309,79.8027,OZONE,2,40,30
India,Punjab,Amritsar,"Golden Temple, Amritsar - PPCB",22-01-2024 16:00:00,31.620000,74.876512,PM2.5,95,190,126
India,Punjab,Amritsar,"Golden Temple, Amritsar - PPCB",22-01-2024 16:00:00,31.620000,74.876512,NO2,16,37,22
India,Punjab,Amritsar,"Golden Temple, Amritsar - PPCB",22-01-2024 16:00:00,31.620000,74.876512,OZONE,24,33,29
India,Punjab,Bathinda,"Hardev Nagar, Bathinda - PPCB",22-01-2024 16:00:00,30.233011,74.907758,PM2.5,34,339,96
India,Punjab,Bathinda,"Hardev Nagar, Bathinda - PPCB",22-01-2024 16:00:00,30.233011,74.907758,NO2,32,35,33
India,Punjab,Jalandhar,"Civil Line, Jalandhar - PPCB",22-01-2024 16:00:00,31.321907,75.578914,PM10,95,123,109
India,Punjab,Jalandhar,"Civil Line, Jalandhar - PPCB",22-01-2024 16:00:00,31.321907,75.578914,OZONE,9,12,10
India,Punjab,Khanna,"Kalal Majra, Khanna - PPCB",22-01-2024 16:00:00,30.736056 ,76.209694,NO2,29,29,29
India,Punjab,Khanna,"Kalal Majra, Khanna - PPCB",22-01-2024 16:00:00,30.736056 ,76.209694,SO2,7,13,10
India,Punjab,Khanna,"Kalal Majra, Khanna - PPCB",22-01-2024 16:00:00,30.736056 ,76.209694,CO,15,19,17
India,Punjab,Ludhiana,"Punjab Agricultural University, Ludhiana - PPCB",22-01-2024 16:00:00,30.9028,75.8086,NO2,26,28,27
India,Punjab,Mandi Gobindgarh,"RIMT University, Mandi Gobindgarh - PPCB",22-01-2024 16:00:00,30.649961,76.331442,PM2.5,150,334,257
India,Punjab,Mandi Gobindgarh,"RIMT University, Mandi Gobindgarh - PPCB",22-01-2024 16:00:00,30.649961,76.331442,SO2,2,27,7
India,Punjab,Mandi Gobindgarh,"RIMT University, Mandi Gobindgarh - PPCB",22-01-2024 16:00:00,30.649961,76.331442,CO,20,82,48
India,Punjab,Mandi Gobindgarh,"RIMT University, Mandi Gobindgarh - PPCB",22-01-2024 16:00:00,30.649961,76.331442,OZONE,29,34,32
India,Punjab,Patiala,"Model Town, Patiala - PPCB",22-01-2024 16:00:00,30.349388,76.366642,PM10,115,164,138
India,Punjab,Patiala,"Model Town, Patiala - PPCB",22-01-2024 16:00:00,30.349388,76.366642,OZONE,29,55,43
India,Punjab,Rupnagar,"Ratanpura, Rupnagar - Ambuja Cements",22-01-2024 16:00:00,31.0325454,76.5623046,CO,31,103,89
India,Rajasthan,Ajmer,"Civil Lines,  Ajmer - RSPCB",22-01-2024 16:00:00,26.470859,74.646594,PM10,40,168,103
India,Rajasthan,Ajmer,"Civil Lines,  Ajmer - RSPCB",22-01-2024 16:00:00,26.470859,74.646594,NO2,22,64,37
India,Rajasthan,Alwar,"Moti Doongri, Alwar - RSPCB",22-01-2024 16:00:00,27.554793,76.611536,PM2.5,58,300,127
India,Rajasthan,Alwar,"Moti Doongri, Alwar - RSPCB",22-01-2024 16:00:00,27.554793,76.611536,NO2,35,63,46
India,Rajasthan,Baran,"Bamboliya, Baran - RSPCB",22-01-2024 16:00:00,25.106006,76.469948,PM2.5,34,300,140
India,Rajasthan,Baran,"Bamboliya, Baran - RSPCB",22-01-2024 16:00:00,25.106006,76.469948,PM10,48,170,106
India,Rajasthan,Bharatpur,"Krishna Nagar, Bharatpur - RSPCB",22-01-2024 16:00:00,27.215415,77.50873,PM10,138,439,236
India,Rajasthan,Bharatpur,"Krishna Nagar, Bharatpur - RSPCB",22-01-2024 16:00:00,27.215415,77.50873,OZONE,7,97,22
India,Rajasthan,Bhilwara,"Pratap Nagar, Bhilwara - RSPCB",22-01-2024 16:00:00,25.339605,74.618883,PM10,15,248,152
India,Rajasthan,Bhilwara,"Pratap Nagar, Bhilwara - RSPCB",22-01-2024 16:00:00,25.339605,74.618883,NO2,18,98,56
India,Rajasthan,Bhilwara,"Pratap Nagar, Bhilwara - RSPCB",22-01-2024 16:00:00,25.339605,74.618883,NH3,3,7,4
India,Rajasthan,Bhiwadi,"RIICO Ind. Area III, Bhiwadi - RSPCB",22-01-2024 16:00:00,28.194909,76.862296,PM10,122,408,165
India,Rajasthan,Bhiwadi,"RIICO Ind. Area III, Bhiwadi - RSPCB",22-01-2024 16:00:00,28.194909,76.862296,CO,1,109,44
India,Rajasthan,Bundi,"New Colony, Bundi - RSPCB",22-01-2024 16:00:00,25.435774,75.644272,NO2,19,104,44
India,Rajasthan,Bundi,"New Colony, Bundi - RSPCB",22-01-2024 16:00:00,25.435774,75.644272,CO,25,104,36
India,Rajasthan,Chittorgarh,"Shastri Nagar, Chittorgarh - RSPCB",22-01-2024 16:00:00,24.892047,74.623527,NO2,13,81,49
India,Rajasthan,Chittorgarh,"Shastri Nagar, Chittorgarh - RSPCB",22-01-2024 16:00:00,24.892047,74.623527,SO2,2,36,12
India,Rajasthan,Churu,"Subash Chowk, Churu - RSPCB",22-01-2024 16:00:00,28.296139,74.961696,SO2,6,11,8
India,Rajasthan,Dholpur,"Raja Ganj, Dholpur - RSPCB",22-01-2024 16:00:00,26.699557,77.898881,PM10,125,406,205
India,Rajasthan,Dungarpur,"Bhoiwada, Dungarpur - RSPCB",22-01-2024 16:00:00,23.837789,73.714926,PM10,51,241,119
India,Rajasthan,Dungarpur,"Bhoiwada, Dungarpur - RSPCB",22-01-2024 16:00:00,23.837789,73.714926,SO2,4,8,5
India,Rajasthan,Hanumangarh,"Housing Board, Hanumangarh - RSPCB",22-01-2024 16:00:00,29.610750,74.283608,PM2.5,143,345,275
India,Rajasthan,Hanumangarh,"Housing Board, Hanumangarh - RSPCB",22-01-2024 16:00:00,29.610750,74.283608,SO2,3,6,4
India,Rajasthan,Hanumangarh,"Housing Board, Hanumangarh - RSPCB",22-01-2024 16:00:00,29.610750,74.283608,CO,32,65,41
India,Rajasthan,Jaipur,"Adarsh Nagar, Jaipur - RSPCB",22-01-2024 16:00:00,26.902909,75.836858,NH3,8,26,10
India,Rajasthan,Jaipur,"Mansarovar Sector-12, Jaipur - RSPCB",22-01-2024 16:00:00,26.843698,75.766894,NO2,18,165,53
India,Rajasthan,Jaipur,"Mansarovar Sector-12, Jaipur - RSPCB",22-01-2024 16:00:00,26.843698,75.766894,CO,34,152,62
India,Rajasthan,Jaipur,"Mansarovar Sector-12, Jaipur - RSPCB",22-01-2024 16:00:00,26.843698,75.766894,OZONE,31,137,95
India,Rajasthan,Jaipur,"Police Commissionerate, Jaipur - RSPCB",22-01-2024 16:00:00,26.9164092,75.7994901,CO,24,108,36
India,Rajasthan,Jaipur,"RIICO Sitapura, Jaipur - RSPCB",22-01-2024 16:00:00,26.786682,75.827928,PM2.5,39,367,220
India,Rajasthan,Jaipur,"Sector-2 Murlipura, Jaipur - RSPCB",22-01-2024 16:00:00,26.960669,75.771817,PM10,96,403,158
India,Rajasthan,Jaipur,"Sector-2 Murlipura, Jaipur - RSPCB",22-01-2024 16:00:00,26.960669,75.771817,NH3,5,10,6
India,Rajasthan,Jaipur,"Sector-2 Murlipura, Jaipur - RSPCB",22-01-2024 16:00:00,26.960669,75.771817,SO2,5,38,11
India,Rajasthan,Jaisalmer,"Sadar Bazar, Jaisalmer - RSPCB",22-01-2024 16:00:00,26.912329,70.909168,SO2,4,24,8
India,Rajasthan,Jalore,"Mudtra Sili, Jalore - RSPCB",22-01-2024 16:00:00,25.344694,72.626208,PM10,63,500,202
India,Rajasthan,Jalore,"Mudtra Sili, Jalore - RSPCB",22-01-2024 16:00:00,25.344694,72.626208,OZONE,6,125,70
India,Rajasthan,Jhunjhunu,"Indra Nagar, Jhunjhunu - RSPCB",22-01-2024 16:00:00,28.108988,75.386577,NO2,26,74,43
India,Rajasthan,Jhunjhunu,"Indra Nagar, Jhunjhunu - RSPCB",22-01-2024 16:00:00,28.108988,75.386577,NH3,17,29,23
India,Rajasthan,Jhunjhunu,"Indra Nagar, Jhunjhunu - RSPCB",22-01-2024 16:00:00,28.108988,75.386577,CO,51,91,70
India,Rajasthan,Jodhpur,"Collectorate, Jodhpur - RSPCB",22-01-2024 16:00:00,26.268249,73.0193853,PM10,53,246,119
India,Rajasthan,Jodhpur,"Digari Kalan, Jodhpur - RSPCB",22-01-2024 16:00:00,26.295810,73.082283,OZONE,6,134,88
India,Rajasthan,Jodhpur,"Mandor, Jodhpur - RSPCB",22-01-2024 16:00:00,26.358805,73.047444,NH3,4,8,6
India,Rajasthan,Jodhpur,"Mandor, Jodhpur - RSPCB",22-01-2024 16:00:00,26.358805,73.047444,OZONE,30,113,76
India,Rajasthan,Jodhpur,"Samrat Ashok Udhyan, Jodhpur - RSPCB",22-01-2024 16:00:00,26.253384,72.976571,PM2.5,23,230,110
India,Rajasthan,Jodhpur,"Samrat Ashok Udhyan, Jodhpur - RSPCB",22-01-2024 16:00:00,26.253384,72.976571,SO2,7,20,10
India,Rajasthan,Karauli,"Satyawati Vihar, Karauli - RSPCB",22-01-2024 16:00:00,26.506177,77.025989,PM2.5,67,331,237
India,Rajasthan,Karauli,"Satyawati Vihar, Karauli - RSPCB",22-01-2024 16:00:00,26.506177,77.025989,NO2,NA,NA,NA
India,Rajasthan,Karauli,"Satyawati Vihar, Karauli - RSPCB",22-01-2024 16:00:00,26.506177,77.025989,CO,11,66,22
India,Rajasthan,Kota,"Dhanmandi, Kota - RSPCB",22-01-2024 16:00:00,25.164090,75.858137,PM2.5,64,427,303
India,Rajasthan,Kota,"Nayapura, Kota - RSPCB",22-01-2024 16:00:00,25.196024,75.855668,SO2,3,27,8
India,Rajasthan,Kota,"Nayapura, Kota - RSPCB",22-01-2024 16:00:00,25.196024,75.855668,OZONE,2,123,65
India,Rajasthan,Nagaur,"Karni Colony, Nagaur - RSPCB",22-01-2024 16:00:00,27.213494,73.734444,NO2,27,71,40
India,Rajasthan,Nagaur,"Karni Colony, Nagaur - RSPCB",22-01-2024 16:00:00,27.213494,73.734444,OZONE,33,86,50
India,Rajasthan,Pali,"Indira Colony Vistar, Pali - RSPCB",22-01-2024 16:00:00,25.771061, 73.340227,NO2,19,70,41
India,Rajasthan,Pali,"Indira Colony Vistar, Pali - RSPCB",22-01-2024 16:00:00,25.771061, 73.340227,NH3,6,17,13
India,Rajasthan,Pali,"Indira Colony Vistar, Pali - RSPCB",22-01-2024 16:00:00,25.771061, 73.340227,OZONE,9,67,26
India,Rajasthan,Pratapgarh,"Pragati Nagar, Pratapgarh - RSPCB",22-01-2024 16:00:00,24.041198,74.780702,NH3,4,8,7
India,Rajasthan,Rajsamand,"Dhoinda, Rajsamand - RSPCB",22-01-2024 16:00:00,25.036360,73.883502,SO2,5,22,9
India,Rajasthan,Sawai Madhopur,"Sahu Nagar, Sawai Madhopur - RSPCB",22-01-2024 16:00:00,26.031443,76.359327,SO2,10,27,19
India,Rajasthan,Sikar,"Radhakishan Pura, Sikar - RSPCB",22-01-2024 16:00:00,27.608912,75.153302,PM2.5,49,343,222
India,Rajasthan,Sikar,"Radhakishan Pura, Sikar - RSPCB",22-01-2024 16:00:00,27.608912,75.153302,PM10,83,196,143
India,Rajasthan,Sirohi,"Vedhaynath Colony, Sirohi - RSPCB",22-01-2024 16:00:00,24.885261,72.857549,NH3,2,9,4
India,Rajasthan,Sirohi,"Vedhaynath Colony, Sirohi - RSPCB",22-01-2024 16:00:00,24.885261,72.857549,OZONE,3,138,110
India,Rajasthan,Sri Ganganagar,"Old City, Sri Ganganagar - RSPCB",22-01-2024 16:00:00,29.931624,73.864511,PM2.5,167,358,260
India,Rajasthan,Tonk,"Shastri Nagar, Tonk - RSPCB",22-01-2024 16:00:00,26.159933,75.780517,CO,24,62,41
India,Rajasthan,Udaipur,"Ashok Nagar, Udaipur - RSPCB",22-01-2024 16:00:00,24.5886166,73.6321397,PM2.5,54,304,137
India,Sikkim,Gangtok,"Zero Point GICI, Gangtok - SSPCB",22-01-2024 16:00:00,27.338530,88.614099,PM2.5,17,35,25
India,TamilNadu,Ariyalur,"Keelapalur, Ariyalur - TNPCB",22-01-2024 16:00:00,11.06825,79.07033,SO2,NA,NA,NA
India,TamilNadu,Chengalpattu,"Crescent University, Chengalpattu - TNPCB",22-01-2024 16:00:00,12.8777316,80.0834807,OZONE,6,6,6
India,TamilNadu,Chennai,"Arumbakkam, Chennai - TNPCB",22-01-2024 16:00:00,13.0664,80.2112 ,NO2,7,49,18
India,TamilNadu,Chennai,"Arumbakkam, Chennai - TNPCB",22-01-2024 16:00:00,13.0664,80.2112 ,NH3,1,5,3
India,TamilNadu,Chennai,"Manali, Chennai - CPCB",22-01-2024 16:00:00,13.164544,80.26285,PM10,13,228,95
India,TamilNadu,Chennai,"Manali, Chennai - CPCB",22-01-2024 16:00:00,13.164544,80.26285,CO,7,82,63
India,TamilNadu,Chennai,"Perungudi, Chennai - TNPCB",22-01-2024 16:00:00,12.9533,80.2357,PM2.5,20,256,56
India,TamilNadu,Chennai,"Perungudi, Chennai - TNPCB",22-01-2024 16:00:00,12.9533,80.2357,NO2,3,15,6
India,TamilNadu,Chennai,"Perungudi, Chennai - TNPCB",22-01-2024 16:00:00,12.9533,80.2357,CO,24,106,64
India,TamilNadu,Chennai,"Royapuram, Chennai - TNPCB",22-01-2024 16:00:00,13.1036,80.2909,OZONE,9,10,9
India,TamilNadu,Chennai,"Velachery Res. Area, Chennai - CPCB",22-01-2024 16:00:00,13.0052189,80.2398125,PM10,34,72,47
India,TamilNadu,Chennai,"Velachery Res. Area, Chennai - CPCB",22-01-2024 16:00:00,13.0052189,80.2398125,NH3,4,7,5
India,TamilNadu,Chennai,"Velachery Res. Area, Chennai - CPCB",22-01-2024 16:00:00,13.0052189,80.2398125,CO,24,110,64
India,TamilNadu,Coimbatore,"PSG College of Arts and Science, Coimbatore - TNPCB",22-01-2024 16:00:00,11.0328,77.0349,NH3,1,1,1
India,TamilNadu,Cuddalore,"Kudikadu, Cuddalore - TNPCB",22-01-2024 16:00:00,11.6829898,79.7532099,SO2,16,17,16
India,TamilNadu,Cuddalore,"Semmandalam, Cuddalore - TNPCB",22-01-2024 16:00:00,11.7637683,79.7499835,PM10,16,64,37
India,TamilNadu,Gummidipoondi,"Anthoni Pillai Nagar, Gummidipoondi - TNPCB",22-01-2024 16:00:00,13.4127,80.1081,NH3,2,2,2
India,TamilNadu,Ooty,"Bombay Castel, Ooty - TNPCB",22-01-2024 16:00:00,11.4068288,76.7138973,SO2,NA,NA,NA
India,TamilNadu,Ramanathapuram,"Chalai Bazaar, Ramanathapuram - TNPCB",22-01-2024 16:00:00,9.36399,78.831977,NH3,1,1,1
India,TamilNadu,Ramanathapuram,"Chalai Bazaar, Ramanathapuram - TNPCB",22-01-2024 16:00:00,9.36399,78.831977,SO2,5,8,6
India,TamilNadu,Salem,"Sona College of Technology, Salem - TNPCB",22-01-2024 16:00:00,11.679111,78.125052,NH3,NA,NA,NA
India,TamilNadu,Vellore,"Vasanthapuram, Vellore - TNPCB",22-01-2024 16:00:00,12.909494,79.131861,PM2.5,NA,NA,NA
India,TamilNadu,Vellore,"Vasanthapuram, Vellore - TNPCB",22-01-2024 16:00:00,12.909494,79.131861,PM10,NA,NA,NA
India,TamilNadu,Vellore,"Vasanthapuram, Vellore - TNPCB",22-01-2024 16:00:00,12.909494,79.131861,NH3,NA,NA,NA
India,TamilNadu,Virudhunagar,"Collectorate Office, Virudhunagar - TNPCB",22-01-2024 16:00:00,9.559382,77.948828,NO2,12,43,22
India,Telangana,Hyderabad,"Bollaram Industrial Area, Hyderabad - TSPCB",22-01-2024 16:00:00,17.540891,78.358528,NH3,2,3,3
India,Telangana,Hyderabad,"Bollaram Industrial Area, Hyderabad - TSPCB",22-01-2024 16:00:00,17.540891,78.358528,SO2,12,23,18
India,Telangana,Hyderabad,"Bollaram Industrial Area, Hyderabad - TSPCB",22-01-2024 16:00:00,17.540891,78.358528,CO,12,52,25
India,Telangana,Hyderabad,"Bollaram Industrial Area, Hyderabad - TSPCB",22-01-2024 16:00:00,17.540891,78.358528,OZONE,37,39,37
India,Telangana,Hyderabad,"Central University, Hyderabad - TSPCB",22-01-2024 16:00:00,17.460103,78.334361,PM10,49,80,59
India,Telangana,Hyderabad,"ECIL Kapra, Hyderabad - TSPCB",22-01-2024 16:00:00,17.470431,78.566959,CO,7,36,20
India,Telangana,Hyderabad,"IITH Kandi, Hyderabad - TSPCB",22-01-2024 16:00:00,17.585705,78.126199,OZONE,28,28,28
India,Telangana,Hyderabad,"Kokapet, Hyderabad - TSPCB",22-01-2024 16:00:00,17.393559,78.339194,NH3,NA,NA,NA
India,Telangana,Hyderabad,"Kokapet, Hyderabad - TSPCB",22-01-2024 16:00:00,17.393559,78.339194,OZONE,3,17,8
India,Telangana,Hyderabad,"Kompally Municipal Office, Hyderabad - TSPCB",22-01-2024 16:00:00,17.544899,78.486949,OZONE,16,60,49
India,Telangana,Hyderabad,"Nacharam_TSIIC IALA, Hyderabad - TSPCB",22-01-2024 16:00:00,17.429398,78.569354,NO2,6,13,11
India,Telangana,Hyderabad,"Nacharam_TSIIC IALA, Hyderabad - TSPCB",22-01-2024 16:00:00,17.429398,78.569354,CO,20,23,21
India,Telangana,Hyderabad,"Ramachandrapuram, Hyderabad - TSPCB",22-01-2024 16:00:00,17.528544,78.286195,PM2.5,NA,NA,NA
India,Telangana,Hyderabad,"Ramachandrapuram, Hyderabad - TSPCB",22-01-2024 16:00:00,17.528544,78.286195,NO2,NA,NA,NA
India,Telangana,Hyderabad,"Ramachandrapuram, Hyderabad - TSPCB",22-01-2024 16:00:00,17.528544,78.286195,NH3,NA,NA,NA
India,Telangana,Hyderabad,"Ramachandrapuram, Hyderabad - TSPCB",22-01-2024 16:00:00,17.528544,78.286195,SO2,NA,NA,NA
India,Telangana,Hyderabad,"Sanathnagar, Hyderabad - TSPCB",22-01-2024 16:00:00,17.4559458,78.4332152,CO,32,50,37
India,Telangana,Hyderabad,"Somajiguda, Hyderabad - TSPCB",22-01-2024 16:00:00,17.417094,78.457437,NO2,NA,NA,NA
India,Telangana,Hyderabad,"Zoo Park, Hyderabad - TSPCB",22-01-2024 16:00:00,17.349694,78.451437,PM2.5,34,81,51
India,Telangana,Hyderabad,"Zoo Park, Hyderabad - TSPCB",22-01-2024 16:00:00,17.349694,78.451437,SO2,1,3,2
India,Tripura,Agartala,"Bardowali, Agartala - Tripura SPCB",22-01-2024 16:00:00,23.8175497,91.2726974,NO2,13,35,21
India,Tripura,Agartala,"Bardowali, Agartala - Tripura SPCB",22-01-2024 16:00:00,23.8175497,91.2726974,CO,42,110,52
India,Tripura,Agartala,"Bardowali, Agartala - Tripura SPCB",22-01-2024 16:00:00,23.8175497,91.2726974,OZONE,1,5,3
India,Uttar_Pradesh,Agra,"Manoharpur, Agra - UPPCB",22-01-2024 16:00:00,27.23711,78.01936,PM10,33,233,133
India,Uttar_Pradesh,Agra,"Manoharpur, Agra - UPPCB",22-01-2024 16:00:00,27.23711,78.01936,OZONE,3,10,4
India,Uttar_Pradesh,Agra,"Rohta, Agra - UPPCB",22-01-2024 16:00:00,27.106972,78.000111,CO,18,80,28
India,Uttar_Pradesh,Agra,"Rohta, Agra - UPPCB",22-01-2024 16:00:00,27.106972,78.000111,OZONE,17,20,19
India,Uttar_Pradesh,Agra,"Sector-3B Avas Vikas Colony, Agra - UPPCB",22-01-2024 16:00:00,27.19412,77.96237,PM2.5,49,390,154
India,Uttar_Pradesh,Agra,"Shahjahan Garden, Agra - UPPCB",22-01-2024 16:00:00,27.169338,78.03582,NO2,20,20,20
India,Uttar_Pradesh,Agra,"Shastripuram, Agra - UPPCB",22-01-2024 16:00:00,27.19862,77.92066,PM10,39,231,139
India,Uttar_Pradesh,Agra,"Shastripuram, Agra - UPPCB",22-01-2024 16:00:00,27.19862,77.92066,NH3,2,6,3
India,Uttar_Pradesh,Agra,"Shastripuram, Agra - UPPCB",22-01-2024 16:00:00,27.19862,77.92066,OZONE,1,27,4
India,Uttar_Pradesh,Baghpat,"Sardar Patel Inter College, Baghpat - UPPCB",22-01-2024 16:00:00,28.964949,77.278761,SO2,1,79,18
India,Uttar_Pradesh,Bareilly,"Rajendra Nagar, Bareilly - UPPCB",22-01-2024 16:00:00,28.38910936,79.42963708,NO2,33,53,41
India,Uttar_Pradesh,Bulandshahr,"Yamunapuram, Bulandshahr - UPPCB",22-01-2024 16:00:00,28.406963,77.849831,NH3,11,18,14
India,Uttar_Pradesh,Firozabad,"Nagla Bhau, Firozabad - UPPCB",22-01-2024 16:00:00,27.168897,78.376960,PM2.5,74,385,201
India,Uttar_Pradesh,Ghaziabad,"Loni, Ghaziabad - UPPCB",22-01-2024 16:00:00,28.757294,77.278792,NO2,16,90,31
India,Uttar_Pradesh,Ghaziabad,"Sanjay Nagar, Ghaziabad - UPPCB",22-01-2024 16:00:00,28.685382,77.453839,PM10,152,221,181
India,Uttar_Pradesh,Ghaziabad,"Vasundhara, Ghaziabad - UPPCB",22-01-2024 16:00:00,28.6603346,77.3572563,SO2,2,26,11
India,Uttar_Pradesh,Ghaziabad,"Vasundhara, Ghaziabad - UPPCB",22-01-2024 16:00:00,28.6603346,77.3572563,CO,26,80,42
India,Uttar_Pradesh,Gorakhpur,"Madan Mohan Malaviya University of Technology, Gorakhpur - UPPCB",22-01-2024 16:00:00,26.730136,83.433859,NO2,2,2,2
India,Uttar_Pradesh,Gorakhpur,"Madan Mohan Malaviya University of Technology, Gorakhpur - UPPCB",22-01-2024 16:00:00,26.730136,83.433859,CO,36,63,49
India,Uttar_Pradesh,Greater Noida,"Knowledge Park - III, Greater Noida - UPPCB",22-01-2024 16:00:00,28.47272,77.482000,PM2.5,207,328,277
India,Uttar_Pradesh,Greater Noida,"Knowledge Park - V, Greater Noida - UPPCB",22-01-2024 16:00:00,28.557054,77.453663,PM2.5,208,351,305
India,Uttar_Pradesh,Greater Noida,"Knowledge Park - V, Greater Noida - UPPCB",22-01-2024 16:00:00,28.557054,77.453663,NH3,5,10,6
India,Uttar_Pradesh,Hapur,"Anand Vihar, Hapur - UPPCB",22-01-2024 16:00:00,28.725645,77.749675,SO2,12,73,29
India,Uttar_Pradesh,Hapur,"Anand Vihar, Hapur - UPPCB",22-01-2024 16:00:00,28.725645,77.749675,OZONE,13,47,28
India,Uttar_Pradesh,Jhansi,"Shivaji Nagar, Jhansi - UPPCB",22-01-2024 16:00:00,25.4547,78.6039,NO2,18,38,25
India,Uttar_Pradesh,Kanpur,"FTI Kidwai Nagar, Kanpur - UPPCB",22-01-2024 16:00:00,26.428282,80.327067,SO2,21,22,21
India,Uttar_Pradesh,Kanpur,"FTI Kidwai Nagar, Kanpur - UPPCB",22-01-2024 16:00:00,26.428282,80.327067,OZONE,3,13,6
India,Uttar_Pradesh,Kanpur,"NSI Kalyanpur, Kanpur - UPPCB",22-01-2024 16:00:00,26.509954,80.249612,PM2.5,68,102,85
India,Uttar_Pradesh,Kanpur,"NSI Kalyanpur, Kanpur - UPPCB",22-01-2024 16:00:00,26.509954,80.249612,PM10,120,151,136
India,Uttar_Pradesh,Kanpur,"NSI Kalyanpur, Kanpur - UPPCB",22-01-2024 16:00:00,26.509954,80.249612,NO2,11,12,11
India,Uttar_Pradesh,Kanpur,"NSI Kalyanpur, Kanpur - UPPCB",22-01-2024 16:00:00,26.509954,80.249612,OZONE,13,20,16
India,Uttar_Pradesh,Kanpur,"Nehru Nagar, Kanpur - UPPCB",22-01-2024 16:00:00,26.4703136,80.3229863,PM10,92,136,114
India,Uttar_Pradesh,Khurja,"Kalindi Kunj, Khurja - UPPCB",22-01-2024 16:00:00,28.2348927,77.8683002,PM10,43,193,89
India,Uttar_Pradesh,Khurja,"Kalindi Kunj, Khurja - UPPCB",22-01-2024 16:00:00,28.2348927,77.8683002,OZONE,21,48,31
India,Uttar_Pradesh,Lucknow,"B R Ambedkar University, Lucknow - UPPCB",22-01-2024 16:00:00,26.766433,80.927299,PM2.5,91,160,116
India,Uttar_Pradesh,Lucknow,"B R Ambedkar University, Lucknow - UPPCB",22-01-2024 16:00:00,26.766433,80.927299,CO,14,21,17
India,Uttar_Pradesh,Lucknow,"Gomti Nagar, Lucknow - UPPCB",22-01-2024 16:00:00,26.868120,81.005119,SO2,5,16,11
India,Uttar_Pradesh,Lucknow,"Kendriya Vidyalaya, Lucknow - CPCB",22-01-2024 16:00:00,26.906111,80.948222,OZONE,38,55,47
India,Uttar_Pradesh,Lucknow,"Kukrail Picnic Spot-1, Lucknow - UPPCB",22-01-2024 16:00:00,26.90723,80.98579,PM2.5,114,185,143
India,Uttar_Pradesh,Lucknow,"Kukrail Picnic Spot-1, Lucknow - UPPCB",22-01-2024 16:00:00,26.90723,80.98579,NO2,8,9,8
India,Uttar_Pradesh,Lucknow,"Talkatora District Industries Center, Lucknow - CPCB",22-01-2024 16:00:00,26.83399722,80.8917361,SO2,3,29,7
India,Uttar_Pradesh,Lucknow,"Talkatora District Industries Center, Lucknow - CPCB",22-01-2024 16:00:00,26.83399722,80.8917361,OZONE,2,81,41
India,Uttar_Pradesh,Meerut,"Pallavpuram Phase 2, Meerut - UPPCB",22-01-2024 16:00:00,29.063510,77.709723,SO2,4,4,4
India,Uttar_Pradesh,Moradabad,"Buddhi Vihar, Moradabad - UPPCB",22-01-2024 16:00:00,28.83526,78.74460,PM2.5,64,177,92
India,Uttar_Pradesh,Moradabad,"Buddhi Vihar, Moradabad - UPPCB",22-01-2024 16:00:00,28.83526,78.74460,SO2,12,17,13
India,Uttar_Pradesh,Moradabad,"Buddhi Vihar, Moradabad - UPPCB",22-01-2024 16:00:00,28.83526,78.74460,OZONE,14,19,17
India,Uttar_Pradesh,Moradabad,"Eco Herbal Park, Moradabad - UPPCB",22-01-2024 16:00:00,28.840739,78.697531,PM2.5,120,305,189
India,Uttar_Pradesh,Moradabad,"Eco Herbal Park, Moradabad - UPPCB",22-01-2024 16:00:00,28.840739,78.697531,SO2,5,27,14
India,Uttar_Pradesh,Moradabad,"Eco Herbal Park, Moradabad - UPPCB",22-01-2024 16:00:00,28.840739,78.697531,OZONE,4,7,5
India,Uttar_Pradesh,Moradabad,"Employment Office, Moradabad - UPPCB",22-01-2024 16:00:00,28.88528,78.73880,PM2.5,80,158,108
India,Uttar_Pradesh,Moradabad,"Jigar Colony, Moradabad - UPPCB",22-01-2024 16:00:00,28.856664,78.772638,PM2.5,66,110,90
India,Uttar_Pradesh,Moradabad,"Jigar Colony, Moradabad - UPPCB",22-01-2024 16:00:00,28.856664,78.772638,CO,26,46,27
India,Uttar_Pradesh,Moradabad,"Kashiram Nagar, Moradabad - UPPCB",22-01-2024 16:00:00,28.849399,78.742362,CO,38,54,42
India,Uttar_Pradesh,Moradabad,"Kashiram Nagar, Moradabad - UPPCB",22-01-2024 16:00:00,28.849399,78.742362,OZONE,15,27,17
India,Uttar_Pradesh,Noida,"Sector - 125, Noida - UPPCB",22-01-2024 16:00:00,28.5447608,77.3231257,PM10,NA,NA,NA
India,Uttar_Pradesh,Noida,"Sector-1, Noida - UPPCB",22-01-2024 16:00:00,28.5898,77.3101,PM2.5,106,307,208
India,Uttar_Pradesh,Noida,"Sector-1, Noida - UPPCB",22-01-2024 16:00:00,28.5898,77.3101,SO2,8,15,10
India,Uttar_Pradesh,Prayagraj,"Motilal Nehru NIT, Prayagraj - UPPCB",22-01-2024 16:00:00,25.494,81.863,NO2,12,12,12
India,Uttar_Pradesh,Prayagraj,"Motilal Nehru NIT, Prayagraj - UPPCB",22-01-2024 16:00:00,25.494,81.863,CO,5,70,18
India,Uttar_Pradesh,Varanasi,"Ardhali Bazar, Varanasi - UPPCB",22-01-2024 16:00:00,25.3505986,82.9083074,PM10,48,154,85
India,Uttar_Pradesh,Varanasi,"Bhelupur, Varanasi - UPPCB",22-01-2024 16:00:00,25.301778,82.996789,NH3,2,3,2
India,Uttar_Pradesh,Varanasi,"IESD Banaras Hindu University, Varanasi - UPPCB",22-01-2024 16:00:00,25.262326,82.995408,PM10,30,93,58
India,Uttar_Pradesh,Varanasi,"IESD Banaras Hindu University, Varanasi - UPPCB",22-01-2024 16:00:00,25.262326,82.995408,NH3,1,1,1
India,Uttar_Pradesh,Varanasi,"Maldahiya, Varanasi - UPPCB",22-01-2024 16:00:00,25.32393,82.99687,SO2,34,35,34
India,Uttar_Pradesh,Vrindavan,"Omex Eternity, Vrindavan - UPPCB",22-01-2024 16:00:00,27.5714090,77.6557570,NO2,2,3,3
India,Uttar_Pradesh,Vrindavan,"Omex Eternity, Vrindavan - UPPCB",22-01-2024 16:00:00,27.5714090,77.6557570,SO2,34,36,35
India,Uttar_Pradesh,Vrindavan,"Omex Eternity, Vrindavan - UPPCB",22-01-2024 16:00:00,27.5714090,77.6557570,CO,43,112,45
India,West_Bengal,Asansol,"Asansol Court Area, Asansol - WBPCB",22-01-2024 16:00:00,23.685297,86.945968,PM2.5,284,319,304
India,West_Bengal,Asansol,"Asansol Court Area, Asansol - WBPCB",22-01-2024 16:00:00,23.685297,86.945968,PM10,145,174,160
India,West_Bengal,Asansol,"Asansol Court Area, Asansol - WBPCB",22-01-2024 16:00:00,23.685297,86.945968,NH3,5,8,6
India,West_Bengal,Asansol,"Asansol Court Area, Asansol - WBPCB",22-01-2024 16:00:00,23.685297,86.945968,SO2,8,35,12
India,West_Bengal,Barrackpore,"SVSPA Campus, Barrackpore - WBPCB",22-01-2024 16:00:00,22.7605581,88.3617589,CO,22,101,30
India,West_Bengal,Durgapur,"Sidhu Kanhu Indoor Stadium, Durgapur - WBPCB",22-01-2024 16:00:00,23.5404352,87.2892225,PM2.5,160,246,217
India,West_Bengal,Howrah,"Ghusuri, Howrah - WBPCB",22-01-2024 16:00:00,22.611968,88.347422,PM2.5,NA,NA,NA
India,West_Bengal,Howrah,"Ghusuri, Howrah - WBPCB",22-01-2024 16:00:00,22.611968,88.347422,NO2,24,101,44
India,West_Bengal,Howrah,"Padmapukur, Howrah - WBPCB",22-01-2024 16:00:00,22.5687319,88.2797276,PM2.5,182,330,269
India,West_Bengal,Kolkata,"Ballygunge, Kolkata - WBPCB",22-01-2024 16:00:00,22.5367507,88.3638022,SO2,10,26,15
India,West_Bengal,Kolkata,"Bidhannagar, Kolkata - WBPCB",22-01-2024 16:00:00,22.58157048,88.41002457,OZONE,5,50,19
India,West_Bengal,Kolkata,"Fort William, Kolkata - WBPCB",22-01-2024 16:00:00,22.556640,88.342674,PM2.5,20,154,72
India,West_Bengal,Kolkata,"Fort William, Kolkata - WBPCB",22-01-2024 16:00:00,22.556640,88.342674,PM10,165,221,190
India,West_Bengal,Kolkata,"Fort William, Kolkata - WBPCB",22-01-2024 16:00:00,22.556640,88.342674,SO2,8,30,15
India,West_Bengal,Kolkata,"Fort William, Kolkata - WBPCB",22-01-2024 16:00:00,22.556640,88.342674,CO,16,80,21
India,West_Bengal,Kolkata,"Jadavpur, Kolkata - WBPCB",22-01-2024 16:00:00,22.49929,88.36917,NO2,4,7,6
India,West_Bengal,Kolkata,"Rabindra Bharati University, Kolkata - WBPCB",22-01-2024 16:00:00,22.627847,88.380669,PM2.5,240,410,291
India,West_Bengal,Kolkata,"Rabindra Bharati University, Kolkata - WBPCB",22-01-2024 16:00:00,22.627847,88.380669,NO2,20,22,21
India,West_Bengal,Kolkata,"Rabindra Bharati University, Kolkata - WBPCB",22-01-2024 16:00:00,22.627847,88.380669,NH3,7,8,7
India,West_Bengal,Kolkata,"Rabindra Bharati University, Kolkata - WBPCB",22-01-2024 16:00:00,22.627847,88.380669,CO,28,103,33
India,West_Bengal,Kolkata,"Rabindra Sarobar, Kolkata - WBPCB",22-01-2024 16:00:00,22.51106,88.35142,CO,25,105,30
India,West_Bengal,Kolkata,"Victoria, Kolkata - WBPCB",22-01-2024 16:00:00,22.5448082,88.3403691,NO2,1,10,3
India,West_Bengal,Kolkata,"Victoria, Kolkata - WBPCB",22-01-2024 16:00:00,22.5448082,88.3403691,OZONE,5,103,55
India,Andhra_Pradesh,Amaravati,"Secretariat, Amaravati - APPCB",22-01-2024 16:00:00,16.5150833,80.5181667,PM10,33,65,44
India,Andhra_Pradesh,Amaravati,"Secretariat, Amaravati - APPCB",22-01-2024 16:00:00,16.5150833,80.5181667,SO2,11,13,12
India,Andhra_Pradesh,Amaravati,"Secretariat, Amaravati - APPCB",22-01-2024 16:00:00,16.5150833,80.5181667,CO,7,28,18
India,Andhra_Pradesh,Anantapur,"Gulzarpet, Anantapur - APPCB",22-01-2024 16:00:00,14.675886,77.593027,PM2.5,38,61,47
India,Andhra_Pradesh,Chittoor,"Gangineni Cheruvu, Chittoor - APPCB",22-01-2024 16:00:00,13.204880,79.097889,PM10,NA,NA,NA
India,Andhra_Pradesh,Kadapa,"Yerramukkapalli, Kadapa - APPCB",22-01-2024 16:00:00,14.465052,78.824187,PM2.5,28,51,35
India,Andhra_Pradesh,Rajamahendravaram,"Anand Kala Kshetram, Rajamahendravaram - APPCB",22-01-2024 16:00:00,16.9872867,81.7363176,NO2,NA,NA,NA
India,Andhra_Pradesh,Rajamahendravaram,"Anand Kala Kshetram, Rajamahendravaram - APPCB",22-01-2024 16:00:00,16.9872867,81.7363176,NH3,NA,NA,NA
India,Andhra_Pradesh,Rajamahendravaram,"Anand Kala Kshetram, Rajamahendravaram - APPCB",22-01-2024 16:00:00,16.9872867,81.7363176,CO,2,75,21
India,Andhra_Pradesh,Tirupati,"Tirumala, Tirupati - APPCB",22-01-2024 16:00:00,13.67,79.35,PM10,48,95,66
India,Andhra_Pradesh,Tirupati,"Tirumala, Tirupati - APPCB",22-01-2024 16:00:00,13.67,79.35,OZONE,3,49,31
India,Andhra_Pradesh,Vijayawada,"Rajiv Gandhi Park, Vijayawada - APPCB",22-01-2024 16:00:00,16.509717,80.612222,PM10,NA,NA,NA
India,Assam,Byrnihat,"Central Academy for SFS, Byrnihat - PCBA",22-01-2024 16:00:00,26.071318,91.87488,NH3,1,5,2
India,Assam,Guwahati,"Railway Colony, Guwahati - PCBA",22-01-2024 16:00:00,26.181742,91.78063,CO,48,112,53
India,Assam,Nalbari,"Bata Chowk, Nalbari - PCBA",22-01-2024 16:00:00,26.446912,91.439057,NO2,9,35,23
India,Assam,Nalbari,"Bata Chowk, Nalbari - PCBA",22-01-2024 16:00:00,26.446912,91.439057,SO2,3,10,7
India,Assam,Silchar,"Tarapur, Silchar - PCBA",22-01-2024 16:00:00,24.82827,92.79525,CO,23,36,27
India,Assam,Sivasagar,"Girls College, Sivasagar - PCBA",22-01-2024 16:00:00,26.987634,94.636574,NH3,3,3,3
India,Bihar,Arrah,"New DM Office, Arrah - BSPCB",22-01-2024 16:00:00,25.5626095,84.663264,OZONE,14,29,17
India,Bihar,Bettiah,"Kamalnath Nagar, Bettiah - BSPCB",22-01-2024 16:00:00,26.80365,84.51954,NO2,1,5,2
India,Bihar,Bhagalpur,"DM Office_Kachari Chowk, Bhagalpur - BSPCB",22-01-2024 16:00:00,25.251013,86.989001,PM2.5,297,341,325
India,Bihar,Bhagalpur,"DM Office_Kachari Chowk, Bhagalpur - BSPCB",22-01-2024 16:00:00,25.251013,86.989001,PM10,132,191,171
India,Bihar,Bhagalpur,"Mayaganj, Bhagalpur - BSPCB",22-01-2024 16:00:00,25.265194,87.012947,NH3,10,10,10
India,Bihar,Bhagalpur,"Mayaganj, Bhagalpur - BSPCB",22-01-2024 16:00:00,25.265194,87.012947,OZONE,39,70,57
India,Bihar,Bihar Sharif,"D M Colony, Bihar Sharif - BSPCB",22-01-2024 16:00:00,25.204762,85.514960,CO,13,53,27
India,Bihar,Gaya,"Collectorate, Gaya - BSPCB",22-01-2024 16:00:00,24.7955,84.9994,NO2,16,21,18
India,Bihar,Gaya,"Kareemganj, Gaya - BSPCB",22-01-2024 16:00:00,24.792403,84.992416,NO2,17,31,30
India,Bihar,Gaya,"SFTI Kusdihra, Gaya - BSPCB",22-01-2024 16:00:00,24.762518,84.982348,SO2,1,11,7
India,Bihar,Katihar,"Mirchaibari, Katihar - BSPCB",22-01-2024 16:00:00,25.560083,87.553265,OZONE,23,30,27
India,Bihar,Manguraha,"Forest Rest House, Manguraha - BSPCB",22-01-2024 16:00:00,27.308328,84.531742,PM10,75,119,98
India,Bihar,Manguraha,"Forest Rest House, Manguraha - BSPCB",22-01-2024 16:00:00,27.308328,84.531742,NH3,2,2,2
India,Bihar,Manguraha,"Forest Rest House, Manguraha - BSPCB",22-01-2024 16:00:00,27.308328,84.531742,CO,2,18,9
India,Bihar,Motihari,"Gandak Colony, Motihari - BSPCB",22-01-2024 16:00:00,26.63086,84.90051,PM10,55,103,82
India,Bihar,Motihari,"Gandak Colony, Motihari - BSPCB",22-01-2024 16:00:00,26.63086,84.90051,NO2,53,89,71
India,Bihar,Muzaffarpur,"Buddha Colony, Muzaffarpur - BSPCB",22-01-2024 16:00:00,26.11442,85.39813,NO2,19,57,31
India,Bihar,Muzaffarpur,"MIT-Daudpur Kothi, Muzaffarpur - BSPCB",22-01-2024 16:00:00,26.1403345,85.3650192,SO2,11,15,13
India,Bihar,Muzaffarpur,"Muzaffarpur Collectorate, Muzaffarpur - BSPCB",22-01-2024 16:00:00,26.1209,85.3647,OZONE,16,86,40
India,Bihar,Patna,"DRM Office Danapur, Patna - BSPCB",22-01-2024 16:00:00,25.586562,85.043586,NH3,4,5,4
India,Bihar,Patna,"DRM Office Danapur, Patna - BSPCB",22-01-2024 16:00:00,25.586562,85.043586,CO,47,153,65
India,Bihar,Patna,"DRM Office Danapur, Patna - BSPCB",22-01-2024 16:00:00,25.586562,85.043586,OZONE,1,48,26
India,Bihar,Patna,"Govt. High School Shikarpur, Patna - BSPCB",22-01-2024 16:00:00,25.592539,85.227158,PM10,132,330,159
India,Bihar,Patna,"IGSC Planetarium Complex, Patna - BSPCB",22-01-2024 16:00:00,25.610369,85.132568,CO,34,50,47
India,Bihar,Patna,"Muradpur, Patna - BSPCB",22-01-2024 16:00:00,25.619651,85.147382,PM2.5,175,338,284
India,Bihar,Patna,"Muradpur, Patna - BSPCB",22-01-2024 16:00:00,25.619651,85.147382,PM10,266,447,376
India,Bihar,Patna,"Muradpur, Patna - BSPCB",22-01-2024 16:00:00,25.619651,85.147382,SO2,2,6,3
India,Bihar,Patna,"Rajbansi Nagar, Patna - BSPCB",22-01-2024 16:00:00,25.599486,85.113666,OZONE,2,42,24
India,Bihar,Patna,"Samanpura, Patna - BSPCB",22-01-2024 16:00:00,25.596727,85.085624,NH3,3,3,3
India,Bihar,Purnia,"Mariam Nagar, Purnia - BSPCB",22-01-2024 16:00:00,25.366336,87.117468,PM10,90,161,126
India,Bihar,Purnia,"Mariam Nagar, Purnia - BSPCB",22-01-2024 16:00:00,25.366336,87.117468,OZONE,14,25,17
India,Bihar,Saharsa,"Police Line, Saharsa - BSPCB",22-01-2024 16:00:00,25.892357,86.590325,NO2,NA,NA,NA
India,Bihar,Saharsa,"Police Line, Saharsa - BSPCB",22-01-2024 16:00:00,25.892357,86.590325,CO,2,18,16
India,Bihar,Samastipur,"DM Office_Kasipur, Samastipur - BSPCB",22-01-2024 16:00:00,25.859655,85.77944,PM2.5,60,150,101
India,Bihar,Samastipur,"DM Office_Kasipur, Samastipur - BSPCB",22-01-2024 16:00:00,25.859655,85.77944,NH3,2,6,5
India,Bihar,Sasaram,"Dada Peer, Sasaram - BSPCB",22-01-2024 16:00:00,24.952822,84.002396,NO2,3,13,6
India,Bihar,Sasaram,"Dada Peer, Sasaram - BSPCB",22-01-2024 16:00:00,24.952822,84.002396,CO,30,81,44
India,Chandigarh,Chandigarh,"Sector-25, Chandigarh - CPCC",22-01-2024 16:00:00,30.751462,76.762879,NO2,17,32,22
India,Chandigarh,Chandigarh,"Sector-25, Chandigarh - CPCC",22-01-2024 16:00:00,30.751462,76.762879,OZONE,2,9,4
India,Chandigarh,Chandigarh,"Sector-53, Chandigarh - CPCC",22-01-2024 16:00:00,30.719859,76.738637,CO,68,78,76
India,Chhattisgarh,Bhilai,"32Bungalows, Bhilai - CECB",22-01-2024 16:00:00,21.194815,81.314770,PM10,65,113,92
India,Chhattisgarh,Bhilai,"32Bungalows, Bhilai - CECB",22-01-2024 16:00:00,21.194815,81.314770,NO2,20,30,25
India,Chhattisgarh,Bhilai,"Civic Center, Bhilai - Bhilai Steel Plant",22-01-2024 16:00:00,21.185571,81.343175,NH3,2,3,2
India,Chhattisgarh,Bilaspur,"Mangala, Bilaspur - NTPC",22-01-2024 16:00:00,22.08815,82.13737,CO,33,37,35
India,Chhattisgarh,Korba,"Rampur, Korba - CECB",22-01-2024 16:00:00,22.368195,82.746431,NO2,17,68,38
India,Chhattisgarh,Kunjemura,"OP Jindal School, Kunjemura - CECB",22-01-2024 16:00:00,22.126650,83.483212,PM10,23,153,79
India,Chhattisgarh,Milupara,"Govt. Higher Secondary School, Milupara - CECB",22-01-2024 16:00:00,22.1910172,83.5197009,NO2,10,77,26
India,Chhattisgarh,Milupara,"Govt. Higher Secondary School, Milupara - CECB",22-01-2024 16:00:00,22.1910172,83.5197009,SO2,7,40,13
India,Chhattisgarh,Raipur,"AIIMS, Raipur - CECB",22-01-2024 16:00:00,21.258815,81.578979,PM10,69,130,101
India,Chhattisgarh,Raipur,"AIIMS, Raipur - CECB",22-01-2024 16:00:00,21.258815,81.578979,CO,30,55,37
India,Chhattisgarh,Raipur,"AIIMS, Raipur - CECB",22-01-2024 16:00:00,21.258815,81.578979,OZONE,1,29,10
India,Chhattisgarh,Raipur,"Bhatagaon New ISBT, Raipur - CECB",22-01-2024 16:00:00,21.219665,81.630094,NH3,2,3,2
India,Chhattisgarh,Raipur,"Krishak Nagar, Raipur - CECB",22-01-2024 16:00:00,21.237755,81.705301,PM2.5,42,83,65
India,Chhattisgarh,Raipur,"Krishak Nagar, Raipur - CECB",22-01-2024 16:00:00,21.237755,81.705301,PM10,60,95,78
India,Chhattisgarh,Raipur,"Krishak Nagar, Raipur - CECB",22-01-2024 16:00:00,21.237755,81.705301,SO2,8,10,9
India,Chhattisgarh,Raipur,"Siltara Phase-II, Raipur - CECB",22-01-2024 16:00:00,21.371751,81.664929,NO2,NA,NA,NA
India,Delhi,Delhi,"Alipur, Delhi - DPCC",22-01-2024 16:00:00,28.815329,77.153010,CO,46,64,54
India,Delhi,Delhi,"Anand Vihar, Delhi - DPCC",22-01-2024 16:00:00,28.647622,77.3158090,PM2.5,314,429,361
India,Delhi,Delhi,"Ashok Vihar, Delhi - DPCC",22-01-2024 16:00:00,28.695381,77.181665,CO,44,76,62
India,Delhi,Delhi,"Aya Nagar, Delhi - IMD",22-01-2024 16:00:00,28.4706914,77.1099364,PM2.5,NA,NA,NA
India,Delhi,Delhi,"Aya Nagar, Delhi - IMD",22-01-2024 16:00:00,28.4706914,77.1099364,NO2,NA,NA,NA
India,Delhi,Delhi,"Bawana, Delhi - DPCC",22-01-2024 16:00:00,28.776200,77.051074,NH3,5,8,7
India,Delhi,Delhi,"Bawana, Delhi - DPCC",22-01-2024 16:00:00,28.776200,77.051074,SO2,3,10,5
India,Delhi,Delhi,"DTU, Delhi - CPCB",22-01-2024 16:00:00,28.7500499,77.1112615,OZONE,27,33,29
India,Delhi,Delhi,"Dr. Karni Singh Shooting Range, Delhi - DPCC",22-01-2024 16:00:00,28.498571,77.264840,PM2.5,308,412,350
India,Delhi,Delhi,"Dr. Karni Singh Shooting Range, Delhi - DPCC",22-01-2024 16:00:00,28.498571,77.264840,PM10,162,385,243
India,Delhi,Delhi,"Dr. Karni Singh Shooting Range, Delhi - DPCC",22-01-2024 16:00:00,28.498571,77.264840,NO2,49,117,74
India,Delhi,Delhi,"IGI Airport (T3), Delhi - IMD",22-01-2024 16:00:00,28.5627763,77.1180053,CO,NA,NA,NA
India,Delhi,Delhi,"ITO, Delhi - CPCB",22-01-2024 16:00:00,28.628624,77.241060,PM2.5,145,330,255
India,Delhi,Delhi,"Jahangirpuri, Delhi - DPCC",22-01-2024 16:00:00,28.732820,77.170633,CO,14,85,48
India,Delhi,Delhi,"Jawaharlal Nehru Stadium, Delhi - DPCC",22-01-2024 16:00:00,28.580280,77.233829,PM10,161,297,204
India,Delhi,Delhi,"Jawaharlal Nehru Stadium, Delhi - DPCC",22-01-2024 16:00:00,28.580280,77.233829,NH3,9,12,11
India,Delhi,Delhi,"Lodhi Road, Delhi - IITM",22-01-2024 16:00:00,28.588333,77.221667,PM10,NA,NA,NA
India,Delhi,Delhi,"Lodhi Road, Delhi - IITM",22-01-2024 16:00:00,28.588333,77.221667,SO2,NA,NA,NA
India,Delhi,Delhi,"Lodhi Road, Delhi - IMD",22-01-2024 16:00:00,28.5918245,77.2273074,OZONE,NA,NA,NA
India,Delhi,Delhi,"Major Dhyan Chand National Stadium, Delhi - DPCC",22-01-2024 16:00:00,28.611281,77.237738,NO2,51,95,67
India,Delhi,Delhi,"Mandir Marg, Delhi - DPCC",22-01-2024 16:00:00,28.636429,77.201067,PM2.5,292,388,332
India,Delhi,Delhi,"Mandir Marg, Delhi - DPCC",22-01-2024 16:00:00,28.636429,77.201067,OZONE,1,11,6
India,Delhi,Delhi,"Mundka, Delhi - DPCC",22-01-2024 16:00:00,28.684678,77.076574,PM10,162,401,224
India,Delhi,Delhi,"Mundka, Delhi - DPCC",22-01-2024 16:00:00,28.684678,77.076574,SO2,1,9,3
India,Delhi,Delhi,"NSIT Dwarka, Delhi - CPCB",22-01-2024 16:00:00,28.60909,77.0325413,NH3,9,19,16
India,Delhi,Delhi,"NSIT Dwarka, Delhi - CPCB",22-01-2024 16:00:00,28.60909,77.0325413,CO,48,99,49
India,Delhi,Delhi,"Najafgarh, Delhi - DPCC",22-01-2024 16:00:00,28.570173,76.933762,CO,9,116,45
India,Delhi,Delhi,"Narela, Delhi - DPCC",22-01-2024 16:00:00,28.822836,77.101981,PM2.5,272,440,341
India,Delhi,Delhi,"Narela, Delhi - DPCC",22-01-2024 16:00:00,28.822836,77.101981,NH3,7,11,10
India,Delhi,Delhi,"Nehru Nagar, Delhi - DPCC",22-01-2024 16:00:00,28.567890,77.250515,CO,40,108,62
India,Delhi,Delhi,"North Campus, DU, Delhi - IMD",22-01-2024 16:00:00,28.6573814,77.1585447,PM2.5,NA,NA,NA
India,Delhi,Delhi,"Okhla Phase-2, Delhi - DPCC",22-01-2024 16:00:00,28.530785,77.271255,NH3,12,16,14
India,Delhi,Delhi,"Okhla Phase-2, Delhi - DPCC",22-01-2024 16:00:00,28.530785,77.271255,OZONE,10,69,42
India,Delhi,Delhi,"Patparganj, Delhi - DPCC",22-01-2024 16:00:00,28.623763,77.287209,SO2,8,14,10
India,Delhi,Delhi,"Punjabi Bagh, Delhi - DPCC",22-01-2024 16:00:00,28.674045,77.131023,SO2,7,9,8
India,Delhi,Delhi,"Pusa, Delhi - DPCC",22-01-2024 16:00:00,28.639652,77.146275,PM10,NA,NA,NA
India,Delhi,Delhi,"Pusa, Delhi - DPCC",22-01-2024 16:00:00,28.639652,77.146275,NH3,NA,NA,NA
India,Delhi,Delhi,"Pusa, Delhi - DPCC",22-01-2024 16:00:00,28.639652,77.146275,CO,82,108,96
India,Delhi,Delhi,"Pusa, Delhi - IMD",22-01-2024 16:00:00,28.636110,77.173332,OZONE,NA,NA,NA
India,Delhi,Delhi,"R K Puram, Delhi - DPCC",22-01-2024 16:00:00,28.563262,77.186937,PM10,166,324,235
India,Delhi,Delhi,"Sirifort, Delhi - CPCB",22-01-2024 16:00:00,28.5504249,77.2159377,PM2.5,267,387,346
India,Delhi,Delhi,"Sirifort, Delhi - CPCB",22-01-2024 16:00:00,28.5504249,77.2159377,SO2,27,29,28
India,Delhi,Delhi,"Sirifort, Delhi - CPCB",22-01-2024 16:00:00,28.5504249,77.2159377,CO,26,55,32
India,Delhi,Delhi,"Sonia Vihar, Delhi - DPCC",22-01-2024 16:00:00,28.710508,77.249485,NO2,31,80,49
India,Delhi,Delhi,"Sri Aurobindo Marg, Delhi - DPCC",22-01-2024 16:00:00,28.531346,77.190156,SO2,9,16,12
India,Delhi,Delhi,"Wazirpur, Delhi - DPCC",22-01-2024 16:00:00,28.699793,77.165453,PM10,186,437,274
India,Delhi,Delhi,"Wazirpur, Delhi - DPCC",22-01-2024 16:00:00,28.699793,77.165453,NH3,1,10,5
India,Gujarat,Ahmedabad,"Chandkheda, Ahmedabad - IITM",22-01-2024 16:00:00,23.107969,72.574648,NO2,18,22,19
India,Gujarat,Ahmedabad,"Chandkheda, Ahmedabad - IITM",22-01-2024 16:00:00,23.107969,72.574648,OZONE,20,24,23
India,Gujarat,Ahmedabad,"Gyaspur, Ahmedabad - IITM",22-01-2024 16:00:00,22.977134,72.553024,SO2,6,6,6
India,Gujarat,Ahmedabad,"Gyaspur, Ahmedabad - IITM",22-01-2024 16:00:00,22.977134,72.553024,OZONE,11,13,11
India,Gujarat,Ahmedabad,"Maninagar, Ahmedabad - GPCB",22-01-2024 16:00:00,23.002657,72.591912,PM2.5,28,244,108
India,Gujarat,Ahmedabad,"Raikhad, Ahmedabad - IITM",22-01-2024 16:00:00,23.020509,72.579261,PM10,28,154,87
India,Gujarat,Ahmedabad,"Raikhad, Ahmedabad - IITM",22-01-2024 16:00:00,23.020509,72.579261,OZONE,12,12,12
India,Gujarat,Ahmedabad,"Sardar Vallabhbhai Patel Stadium, Ahmedabad - IITM",22-01-2024 16:00:00,23.043070,72.562968,PM10,67,219,127
India,Gujarat,Ahmedabad,"Sardar Vallabhbhai Patel Stadium, Ahmedabad - IITM",22-01-2024 16:00:00,23.043070,72.562968,NH3,3,3,3
India,Gujarat,Ahmedabad,"Sardar Vallabhbhai Patel Stadium, Ahmedabad - IITM",22-01-2024 16:00:00,23.043070,72.562968,OZONE,1,12,10
India,Gujarat,Ankleshwar,"GIDC, Ankleshwar - GPCB",22-01-2024 16:00:00,21.613267,73.010555,CO,7,100,49
India,Gujarat,Gandhinagar,"IIPHG Lekawada, Gandhinagar - IITM",22-01-2024 16:00:00,23.243639,72.68994,PM2.5,72,324,177
India,Gujarat,Gandhinagar,"IIPHG Lekawada, Gandhinagar - IITM",22-01-2024 16:00:00,23.243639,72.68994,NH3,3,4,3
India,Gujarat,Gandhinagar,"IIPHG Lekawada, Gandhinagar - IITM",22-01-2024 16:00:00,23.243639,72.68994,CO,39,84,48
India,Gujarat,Gandhinagar,"Sector-10, Gandhinagar - GPCB",22-01-2024 16:00:00,23.221714,72.654328,NH3,NA,NA,NA
India,Gujarat,Surat,"Science Center, Surat - SMC",22-01-2024 16:00:00,21.170046,72.795405,PM2.5,14,69,34
India,Gujarat,Surat,"Science Center, Surat - SMC",22-01-2024 16:00:00,21.170046,72.795405,PM10,17,67,41
India,Gujarat,Vapi,"Phase-1 GIDC, Vapi - GPCB",22-01-2024 16:00:00,20.362421,72.918013,PM2.5,58,333,143
India,Gujarat,Vapi,"Phase-1 GIDC, Vapi - GPCB",22-01-2024 16:00:00,20.362421,72.918013,OZONE,1,6,2
India,Gujarat,Vatva,"Phase-4 GIDC, Vatva - GPCB",22-01-2024 16:00:00,22.969611,72.643500,NH3,1,2,2
India,Haryana,Ambala,"Patti Mehar, Ambala - HSPCB",22-01-2024 16:00:00,30.379589,76.778328,OZONE,23,40,32
India,Haryana,Bahadurgarh,"Arya Nagar, Bahadurgarh - HSPCB",22-01-2024 16:00:00,28.6701,76.9254,PM10,103,183,132
India,Haryana,Bhiwani,"H.B. Colony, Bhiwani - HSPCB",22-01-2024 16:00:00,28.806223,76.141105,NO2,7,10,9
India,Haryana,Charkhi Dadri,"Mini Secretariat, Charkhi Dadri - HSPCB",22-01-2024 16:00:00,28.593883,76.270653,PM2.5,68,293,127
India,Haryana,Charkhi Dadri,"Mini Secretariat, Charkhi Dadri - HSPCB",22-01-2024 16:00:00,28.593883,76.270653,OZONE,14,17,16
India,Haryana,Dharuhera,"Municipal Corporation Office, Dharuhera -  HSPCB",22-01-2024 16:00:00,28.206800,76.799700,NO2,44,112,65
India,Haryana,Dharuhera,"Municipal Corporation Office, Dharuhera -  HSPCB",22-01-2024 16:00:00,28.206800,76.799700,OZONE,4,31,16
India,Haryana,Faridabad,"New Industrial Town, Faridabad - HSPCB",22-01-2024 16:00:00,28.39072,77.30059,PM10,159,402,278
India,Haryana,Faridabad,"Sector 11, Faridabad - HSPCB",22-01-2024 16:00:00,28.376058,77.315741,CO,20,84,48
India,Haryana,Faridabad,"Sector 30, Faridabad - HSPCB",22-01-2024 16:00:00,28.4417,77.3217,NH3,NA,NA,NA
India,Haryana,Faridabad,"Sector 30, Faridabad - HSPCB",22-01-2024 16:00:00,28.4417,77.3217,SO2,NA,NA,NA
India,Haryana,Fatehabad,"Huda Sector, Fatehabad - HSPCB",22-01-2024 16:00:00,29.503664,75.467934,PM10,97,143,115
India,Haryana,Gurugram,"NISE Gwal Pahari, Gurugram - IMD",22-01-2024 16:00:00,28.422681,77.148944,CO,20,21,21
India,Haryana,Gurugram,"Teri Gram, Gurugram - HSPCB",22-01-2024 16:00:00,28.4275,77.1465,SO2,3,5,4
India,Haryana,Gurugram,"Teri Gram, Gurugram - HSPCB",22-01-2024 16:00:00,28.4275,77.1465,OZONE,10,14,11
India,Haryana,Gurugram,"Vikas Sadan, Gurugram - HSPCB",22-01-2024 16:00:00,28.4501238,77.0263051,SO2,22,33,26
India,Haryana,Hisar,"Urban Estate-II, Hisar - HSPCB",22-01-2024 16:00:00,29.140560,75.744941,OZONE,59,117,93
India,Haryana,Jind,"Police Lines, Jind - HSPCB",22-01-2024 16:00:00,29.307814,76.337619,PM2.5,94,186,147
India,Haryana,Jind,"Police Lines, Jind - HSPCB",22-01-2024 16:00:00,29.307814,76.337619,PM10,108,130,117
India,Haryana,Jind,"Police Lines, Jind - HSPCB",22-01-2024 16:00:00,29.307814,76.337619,NH3,2,5,4
India,Haryana,Jind,"Police Lines, Jind - HSPCB",22-01-2024 16:00:00,29.307814,76.337619,SO2,3,9,6
India,Haryana,Jind,"Police Lines, Jind - HSPCB",22-01-2024 16:00:00,29.307814,76.337619,CO,1,80,31
India,Haryana,Kaithal,"Rishi Nagar, Kaithal - HSPCB",22-01-2024 16:00:00,29.8006,76.4155,PM2.5,130,193,158
India,Haryana,Kaithal,"Rishi Nagar, Kaithal - HSPCB",22-01-2024 16:00:00,29.8006,76.4155,OZONE,26,34,30
India,Haryana,Karnal,"Sector-12, Karnal - HSPCB",22-01-2024 16:00:00,29.695300,77.002700,PM10,63,126,101
India,Haryana,Karnal,"Sector-12, Karnal - HSPCB",22-01-2024 16:00:00,29.695300,77.002700,SO2,12,13,12
India,Haryana,Kurukshetra,"Sector-7, Kurukshetra - HSPCB",22-01-2024 16:00:00,29.966942,76.875879,OZONE,19,37,29
India,Haryana,Mandikhera,"General Hospital, Mandikhera - HSPCB",22-01-2024 16:00:00,27.9002,76.9938,PM2.5,9,34,17
India,Haryana,Mandikhera,"General Hospital, Mandikhera - HSPCB",22-01-2024 16:00:00,27.9002,76.9938,CO,37,70,49
India,Haryana,Manesar,"Sector-2 IMT, Manesar - HSPCB",22-01-2024 16:00:00,28.360699,76.936090,PM2.5,109,347,259
India,Haryana,Palwal,"Shyam Nagar, Palwal - HSPCB",22-01-2024 16:00:00,28.1485564,77.3320667,NO2,5,5,5
India,Haryana,Palwal,"Shyam Nagar, Palwal - HSPCB",22-01-2024 16:00:00,28.1485564,77.3320667,SO2,6,23,15
India,Haryana,Panchkula,"Sector-6, Panchkula - HSPCB ",22-01-2024 16:00:00,30.7057778,76.8531805555555,NO2,28,30,29
India,Haryana,Panchkula,"Sector-6, Panchkula - HSPCB ",22-01-2024 16:00:00,30.7057778,76.8531805555555,OZONE,37,53,44
India,Haryana,Panipat,"Sector-18, Panipat - HSPCB",22-01-2024 16:00:00,29.497973,76.993331,NH3,NA,NA,NA
India,Haryana,Panipat,"Sector-18, Panipat - HSPCB",22-01-2024 16:00:00,29.497973,76.993331,SO2,NA,NA,NA
India,Haryana,Panipat,"Sector-18, Panipat - HSPCB",22-01-2024 16:00:00,29.497973,76.993331,OZONE,30,32,31
India,Haryana,Rohtak,"MD University, Rohtak - HSPCB",22-01-2024 16:00:00,28.52123,76.37138,CO,17,33,29
India,Haryana,Sirsa,"F-Block, Sirsa - HSPCB",22-01-2024 16:00:00,29.536400,75.015800,CO,45,56,47
India,Haryana,Yamuna Nagar,"Gobind Pura, Yamuna Nagar - HSPCB",22-01-2024 16:00:00,30.1480566,77.2893471,PM2.5,108,209,162
India,Haryana,Yamuna Nagar,"Gobind Pura, Yamuna Nagar - HSPCB",22-01-2024 16:00:00,30.1480566,77.2893471,SO2,3,103,14
India,Jharkhand,Dhanbad,"Kalakusuma, Dhanbad - DMC",22-01-2024 16:00:00,23.811548,86.481238,CO,90,108,104
India,Jharkhand,Dhanbad,"Sardar Patel Nagar, Dhanbad - JSPCB",22-01-2024 16:00:00,23.80569,86.44268,SO2,NA,NA,NA
India,Karnataka,Bagalkot,"Vidayagiri, Bagalkot - KSPCB",22-01-2024 16:00:00,16.172806,75.659694,SO2,9,9,9
India,Karnataka,Bagalkot,"Vidayagiri, Bagalkot - KSPCB",22-01-2024 16:00:00,16.172806,75.659694,CO,27,56,43
India,Karnataka,Belgaum,"Ramteerth Nagar, Belgaum - KSPCB",22-01-2024 16:00:00,15.888653,74.541751,NH3,33,34,33
India,Karnataka,Belgaum,"Ramteerth Nagar, Belgaum - KSPCB",22-01-2024 16:00:00,15.888653,74.541751,OZONE,19,20,19
India,Karnataka,Bengaluru,"BTM Layout, Bengaluru - CPCB",22-01-2024 16:00:00,12.9135218,77.5950804,PM2.5,NA,NA,NA
India,Karnataka,Bengaluru,"Bapuji Nagar, Bengaluru - KSPCB",22-01-2024 16:00:00,12.951913,77.539784,NO2,9,12,10
India,Karnataka,Bengaluru,"Bapuji Nagar, Bengaluru - KSPCB",22-01-2024 16:00:00,12.951913,77.539784,OZONE,7,11,8
India,Karnataka,Bengaluru,"City Railway Station, Bengaluru - KSPCB",22-01-2024 16:00:00,12.9756843,77.5660749,PM10,66,85,78
India,Karnataka,Bengaluru,"City Railway Station, Bengaluru - KSPCB",22-01-2024 16:00:00,12.9756843,77.5660749,NO2,22,39,31
India,Karnataka,Bengaluru,"Hebbal, Bengaluru - KSPCB",22-01-2024 16:00:00,13.029152,77.585901,NO2,NA,NA,NA
India,Karnataka,Bengaluru,"Hebbal, Bengaluru - KSPCB",22-01-2024 16:00:00,13.029152,77.585901,OZONE,7,25,12
India,Karnataka,Bengaluru,"Hombegowda Nagar, Bengaluru - KSPCB",22-01-2024 16:00:00,12.938539,77.590100,PM2.5,29,133,56
India,Karnataka,Bengaluru,"Hombegowda Nagar, Bengaluru - KSPCB",22-01-2024 16:00:00,12.938539,77.590100,PM10,43,150,81
India,Karnataka,Bengaluru,"Hombegowda Nagar, Bengaluru - KSPCB",22-01-2024 16:00:00,12.938539,77.590100,SO2,4,5,5
India,Karnataka,Bengaluru,"Jayanagar 5th Block, Bengaluru - KSPCB",22-01-2024 16:00:00,12.920984,77.584908,PM2.5,60,283,101
India,Karnataka,Bengaluru,"Jayanagar 5th Block, Bengaluru - KSPCB",22-01-2024 16:00:00,12.920984,77.584908,NH3,2,4,3
India,Karnataka,Bengaluru,"Jigani, Bengaluru - KSPCB",22-01-2024 16:00:00,12.7816279,77.6299145,NH3,3,3,3
India,Karnataka,Bengaluru,"Jigani, Bengaluru - KSPCB",22-01-2024 16:00:00,12.7816279,77.6299145,SO2,6,9,6
India,Karnataka,Bengaluru,"Kasturi Nagar, Bengaluru - KSPCB",22-01-2024 16:00:00,13.003872,77.664217,CO,24,26,24
India,Karnataka,Bengaluru,"Peenya, Bengaluru - CPCB",22-01-2024 16:00:00,13.0270199,77.494094,NH3,5,5,5
India,Karnataka,Bengaluru,"Peenya, Bengaluru - CPCB",22-01-2024 16:00:00,13.0270199,77.494094,CO,16,133,41
India,Karnataka,Bengaluru,"Peenya, Bengaluru - CPCB",22-01-2024 16:00:00,13.0270199,77.494094,OZONE,35,38,37
India,Karnataka,Bengaluru,"Sanegurava Halli, Bengaluru - KSPCB",22-01-2024 16:00:00,12.990328,77.5431385,CO,8,19,12
India,Karnataka,Bengaluru,"Shivapura_Peenya, Bengaluru - KSPCB",22-01-2024 16:00:00,13.0246342,77.5080115,PM10,56,107,79
India,Karnataka,Bengaluru,"Shivapura_Peenya, Bengaluru - KSPCB",22-01-2024 16:00:00,13.0246342,77.5080115,OZONE,14,271,93
India,Karnataka,Bengaluru,"Silk Board, Bengaluru - KSPCB",22-01-2024 16:00:00,12.917348,77.622813,NH3,5,7,6
India,Karnataka,Bengaluru,"Silk Board, Bengaluru - KSPCB",22-01-2024 16:00:00,12.917348,77.622813,CO,2,84,23
India,Karnataka,Chamarajanagar,"Urban, Chamarajanagar - KSPCB",22-01-2024 16:00:00,11.55358,76.55521,PM2.5,20,53,28
India,Karnataka,Chamarajanagar,"Urban, Chamarajanagar - KSPCB",22-01-2024 16:00:00,11.55358,76.55521,SO2,2,8,4
India,Karnataka,Chikkaballapur,"Chikkaballapur Rural, Chikkaballapur - KSPCB",22-01-2024 16:00:00,13.428828,77.731418,OZONE,24,25,25
India,Karnataka,Chikkamagaluru,"Kalyana Nagara, Chikkamagaluru - KSPCB",22-01-2024 16:00:00,13.328028,75.797056,NO2,18,34,23
India,Karnataka,Chikkamagaluru,"Kalyana Nagara, Chikkamagaluru - KSPCB",22-01-2024 16:00:00,13.328028,75.797056,CO,6,107,28
India,Karnataka,Davanagere,"Devaraj Urs Badavane, Davanagere - KSPCB",22-01-2024 16:00:00,14.475800,75.905200,NO2,1,24,12
