country,state,city,station,last_update,latitude,longitude,pollutant_id,pollutant_min,pollutant_max,pollutant_avg
India,Andhra_Pradesh,Amaravati,"Secretariat, Amaravati - APPCB",14-03-2024 01:00:00,16.5150833,80.5181667,NO2,7,16,11
India,Andhra_Pradesh,Anantapur,"Gulzarpet, Anantapur - APPCB",14-03-2024 01:00:00,14.675886,77.593027,PM2.5,47,71,60
India,Andhra_Pradesh,Anantapur,"Gulzarpet, Anantapur - APPCB",14-03-2024 01:00:00,14.675886,77.593027,OZONE,6,58,30
India,Andhra_Pradesh,Chittoor,"Gangineni Cheruvu, Chittoor - APPCB",14-03-2024 01:00:00,13.204880,79.097889,PM10,50,269,94
India,Andhra_Pradesh,Tirupati,"Tirumala, Tirupati - APPCB",14-03-2024 01:00:00,13.67,79.35,NO2,20,46,29
India,Andhra_Pradesh,Tirupati,"Vaikuntapuram, Tirupati - APPCB",14-03-2024 01:00:00,13.615387,79.409230,NO2,NA,NA,NA
India,Andhra_Pradesh,Vijayawada,"HB Colony, Vijayawada - APPCB",14-03-2024 01:00:00,16.536107,80.594233,OZONE,12,59,31
India,Andhra_Pradesh,Vijayawada,"Rajiv Gandhi Park, Vijayawada - APPCB",14-03-2024 01:00:00,16.509717,80.612222,NO2,3,54,29
India,Andhra_Pradesh,Vijayawada,"Rajiv Gandhi Park, Vijayawada - APPCB",14-03-2024 01:00:00,16.509717,80.612222,CO,30,50,38
India,Andhra_Pradesh,Vijayawada,"Rajiv Nagar, Vijayawada - APPCB",14-03-2024 01:00:00,16.554731,80.649110,SO2,14,28,19
India,Arunachal_Pradesh,Naharlagun,"Naharlagun, Naharlagun - APSPCB",14-03-2024 01:00:00,27.103358,93.679645,OZONE,2,2,2
India,Assam,Byrnihat,"Central Academy for SFS, Byrnihat - PCBA",14-03-2024 01:00:00,26.071318,91.87488,PM2.5,NA,NA,NA
India,Assam,Guwahati,"IITG, Guwahati - PCBA",14-03-2024 01:00:00,26.2028636,91.70046436,NO2,NA,NA,NA
India,Assam,Guwahati,"LGBI Airport, Guwahati - PCBA",14-03-2024 01:00:00,26.10887,91.589544,NO2,9,63,27
India,Assam,Guwahati,"LGBI Airport, Guwahati - PCBA",14-03-2024 01:00:00,26.10887,91.589544,CO,21,55,35
India,Assam,Guwahati,"Railway Colony, Guwahati - PCBA",14-03-2024 01:00:00,26.181742,91.78063,OZONE,1,27,21
India,Assam,Nagaon,"Christianpatty, Nagaon - PCBA",14-03-2024 01:00:00,26.349082,92.68449,SO2,1,44,16
India,Assam,Nalbari,"Bata Chowk, Nalbari - PCBA",14-03-2024 01:00:00,26.446912,91.439057,SO2,1,12,6
India,Assam,Silchar,"Tarapur, Silchar - PCBA",14-03-2024 01:00:00,24.82827,92.79525,PM10,57,70,60
India,Assam,Sivasagar,"Girls College, Sivasagar - PCBA",14-03-2024 01:00:00,26.987634,94.636574,PM2.5,31,56,40
India,Assam,Sivasagar,"Girls College, Sivasagar - PCBA",14-03-2024 01:00:00,26.987634,94.636574,OZONE,1,13,7
India,Bihar,Araria,"Kharahiya Basti, Araria - BSPCB",14-03-2024 01:00:00,26.146529,87.454184,PM2.5,38,160,101
India,Bihar,Araria,"Kharahiya Basti, Araria - BSPCB",14-03-2024 01:00:00,26.146529,87.454184,NO2,6,22,8
India,Bihar,Araria,"Kharahiya Basti, Araria - BSPCB",14-03-2024 01:00:00,26.146529,87.454184,OZONE,8,10,9
India,Bihar,Arrah,"New DM Office, Arrah - BSPCB",14-03-2024 01:00:00,25.5626095,84.663264,PM2.5,NA,NA,NA
India,Bihar,Arrah,"New DM Office, Arrah - BSPCB",14-03-2024 01:00:00,25.5626095,84.663264,NH3,NA,NA,NA
India,Bihar,Arrah,"New DM Office, Arrah - BSPCB",14-03-2024 01:00:00,25.5626095,84.663264,SO2,NA,NA,NA
India,Bihar,Aurangabad,"Gurdeo Nagar, Aurangabad - BSPCB",14-03-2024 01:00:00,24.75746,84.366208,SO2,NA,NA,NA
India,Bihar,Bettiah,"Kamalnath Nagar, Bettiah - BSPCB",14-03-2024 01:00:00,26.80365,84.51954,PM10,60,152,93
India,Bihar,Bhagalpur,"DM Office_Kachari Chowk, Bhagalpur - BSPCB",14-03-2024 01:00:00,25.251013,86.989001,NO2,35,127,56
India,Bihar,Bhagalpur,"DM Office_Kachari Chowk, Bhagalpur - BSPCB",14-03-2024 01:00:00,25.251013,86.989001,CO,40,100,72
India,Bihar,Bhagalpur,"Mayaganj, Bhagalpur - BSPCB",14-03-2024 01:00:00,25.265194,87.012947,PM2.5,43,338,138
India,Bihar,Bhagalpur,"Mayaganj, Bhagalpur - BSPCB",14-03-2024 01:00:00,25.265194,87.012947,NH3,6,9,7
India,Bihar,Bihar Sharif,"D M Colony, Bihar Sharif - BSPCB",14-03-2024 01:00:00,25.204762,85.514960,OZONE,NA,NA,NA
India,Bihar,Buxar,"Charitra Van, Buxar - BSPCB (Formerly known as Central Jail)",14-03-2024 01:00:00,25.567520,83.966379,NO2,2,224,101
India,Bihar,Chhapra,"Darshan Nagar, Chhapra - BSPCB",14-03-2024 01:00:00,25.7808257,84.7446768,PM2.5,70,240,138
India,Bihar,Chhapra,"Darshan Nagar, Chhapra - BSPCB",14-03-2024 01:00:00,25.7808257,84.7446768,PM10,69,143,107
India,Bihar,Chhapra,"Darshan Nagar, Chhapra - BSPCB",14-03-2024 01:00:00,25.7808257,84.7446768,NO2,21,27,23
India,Bihar,Gaya,"Kareemganj, Gaya - BSPCB",14-03-2024 01:00:00,24.792403,84.992416,PM2.5,25,305,99
India,Bihar,Gaya,"SFTI Kusdihra, Gaya - BSPCB",14-03-2024 01:00:00,24.762518,84.982348,PM10,50,111,76
India,Bihar,Gaya,"SFTI Kusdihra, Gaya - BSPCB",14-03-2024 01:00:00,24.762518,84.982348,NO2,21,66,42
India,Bihar,Hajipur,"Industrial Area, Hajipur - BSPCB",14-03-2024 01:00:00,25.697189,85.245900,PM2.5,31,91,63
India,Bihar,Hajipur,"Industrial Area, Hajipur - BSPCB",14-03-2024 01:00:00,25.697189,85.245900,SO2,6,8,7
India,Bihar,Katihar,"Mirchaibari, Katihar - BSPCB",14-03-2024 01:00:00,25.560083,87.553265,NO2,19,41,26
India,Bihar,Katihar,"Mirchaibari, Katihar - BSPCB",14-03-2024 01:00:00,25.560083,87.553265,NH3,3,6,4
India,Bihar,Kishanganj,"SDM Office_Khagra, Kishanganj - BSPCB",14-03-2024 01:00:00,26.0881305,87.93840336,SO2,14,42,31
India,Bihar,Kishanganj,"SDM Office_Khagra, Kishanganj - BSPCB",14-03-2024 01:00:00,26.0881305,87.93840336,CO,6,10,8
India,Bihar,Kishanganj,"SDM Office_Khagra, Kishanganj - BSPCB",14-03-2024 01:00:00,26.0881305,87.93840336,OZONE,12,34,18
India,Bihar,Manguraha,"Forest Rest House, Manguraha - BSPCB",14-03-2024 01:00:00,27.308328,84.531742,CO,64,104,101
India,Bihar,Motihari,"Gandak Colony, Motihari - BSPCB",14-03-2024 01:00:00,26.63086,84.90051,PM2.5,30,120,61
India,Bihar,Motihari,"Gandak Colony, Motihari - BSPCB",14-03-2024 01:00:00,26.63086,84.90051,SO2,1,11,6
India,Bihar,Munger,"Town Hall, Munger - BSPCB",14-03-2024 01:00:00,25.376776,86.471523,SO2,12,47,27
India,Bihar,Munger,"Town Hall, Munger - BSPCB",14-03-2024 01:00:00,25.376776,86.471523,CO,2,18,6
India,Bihar,Muzaffarpur,"Muzaffarpur Collectorate, Muzaffarpur - BSPCB",14-03-2024 01:00:00,26.1209,85.3647,NO2,8,24,12
India,Bihar,Muzaffarpur,"Muzaffarpur Collectorate, Muzaffarpur - BSPCB",14-03-2024 01:00:00,26.1209,85.3647,OZONE,19,121,59
India,Bihar,Patna,"DRM Office Danapur, Patna - BSPCB",14-03-2024 01:00:00,25.586562,85.043586,NO2,13,72,41
India,Bihar,Patna,"Govt. High School Shikarpur, Patna - BSPCB",14-03-2024 01:00:00,25.592539,85.227158,SO2,16,118,33
India,Bihar,Patna,"Govt. High School Shikarpur, Patna - BSPCB",14-03-2024 01:00:00,25.592539,85.227158,CO,12,54,30
India,Bihar,Patna,"Rajbansi Nagar, Patna - BSPCB",14-03-2024 01:00:00,25.599486,85.113666,SO2,1,18,8
India,Bihar,Patna,"Samanpura, Patna - BSPCB",14-03-2024 01:00:00,25.596727,85.085624,NH3,3,10,5
India,Bihar,Purnia,"Mariam Nagar, Purnia - BSPCB",14-03-2024 01:00:00,25.366336,87.117468,PM10,73,119,92
India,Bihar,Rajgir,"Dangi Tola, Rajgir - BSPCB",14-03-2024 01:00:00,25.03280,85.41948,PM10,23,131,71
India,Bihar,Samastipur,"DM Office_Kasipur, Samastipur - BSPCB",14-03-2024 01:00:00,25.859655,85.77944,SO2,8,13,11
India,Bihar,Samastipur,"DM Office_Kasipur, Samastipur - BSPCB",14-03-2024 01:00:00,25.859655,85.77944,CO,18,29,22
India,Bihar,Sasaram,"Dada Peer, Sasaram - BSPCB",14-03-2024 01:00:00,24.952822,84.002396,PM10,37,118,71
India,Bihar,Sasaram,"Dada Peer, Sasaram - BSPCB",14-03-2024 01:00:00,24.952822,84.002396,NH3,8,13,11
India,Bihar,Sasaram,"Dada Peer, Sasaram - BSPCB",14-03-2024 01:00:00,24.952822,84.002396,SO2,17,23,21
India,Bihar,Sasaram,"Dada Peer, Sasaram - BSPCB",14-03-2024 01:00:00,24.952822,84.002396,CO,102,123,120
India,Bihar,Siwan,"Chitragupta Nagar, Siwan - BSPCB",14-03-2024 01:00:00,26.2271665,84.3570427,PM2.5,32,301,110
India,Bihar,Siwan,"Chitragupta Nagar, Siwan - BSPCB",14-03-2024 01:00:00,26.2271665,84.3570427,OZONE,5,88,29
India,Chandigarh,Chandigarh,"Sector 22, Chandigarh - CPCC",14-03-2024 01:00:00,30.735567,76.775714,SO2,9,49,20
India,Chandigarh,Chandigarh,"Sector 22, Chandigarh - CPCC",14-03-2024 01:00:00,30.735567,76.775714,CO,36,78,60
India,Chandigarh,Chandigarh,"Sector 22, Chandigarh - CPCC",14-03-2024 01:00:00,30.735567,76.775714,OZONE,3,147,39
India,Chandigarh,Chandigarh,"Sector-25, Chandigarh - CPCC",14-03-2024 01:00:00,30.751462,76.762879,PM10,114,143,124
India,Chandigarh,Chandigarh,"Sector-25, Chandigarh - CPCC",14-03-2024 01:00:00,30.751462,76.762879,NH3,12,30,18
India,Chandigarh,Chandigarh,"Sector-25, Chandigarh - CPCC",14-03-2024 01:00:00,30.751462,76.762879,SO2,5,20,10
India,Chandigarh,Chandigarh,"Sector-25, Chandigarh - CPCC",14-03-2024 01:00:00,30.751462,76.762879,CO,16,70,44
India,Chhattisgarh,Bhilai,"Hathkhoj, Bhilai - CECB",14-03-2024 01:00:00,21.224231,81.408350,OZONE,28,45,36
India,Chhattisgarh,Chhal,"Nawapara SECL Colony, Chhal - CECB",14-03-2024 01:00:00,22.118125,83.140608,NO2,16,67,27
India,Chhattisgarh,Chhal,"Nawapara SECL Colony, Chhal - CECB",14-03-2024 01:00:00,22.118125,83.140608,SO2,12,49,22
India,Chhattisgarh,Chhal,"Nawapara SECL Colony, Chhal - CECB",14-03-2024 01:00:00,22.118125,83.140608,OZONE,1,51,15
India,Chhattisgarh,Korba,"Rampur, Korba - CECB",14-03-2024 01:00:00,22.368195,82.746431,PM10,13,55,33
India,Chhattisgarh,Korba,"Rampur, Korba - CECB",14-03-2024 01:00:00,22.368195,82.746431,NH3,2,4,3
India,Chhattisgarh,Kunjemura,"OP Jindal School, Kunjemura - CECB",14-03-2024 01:00:00,22.126650,83.483212,PM10,66,464,214
India,Chhattisgarh,Kunjemura,"OP Jindal School, Kunjemura - CECB",14-03-2024 01:00:00,22.126650,83.483212,OZONE,3,93,34
India,Chhattisgarh,Milupara,"Govt. Higher Secondary School, Milupara - CECB",14-03-2024 01:00:00,22.1910172,83.5197009,PM2.5,26,67,47
India,Chhattisgarh,Milupara,"Govt. Higher Secondary School, Milupara - CECB",14-03-2024 01:00:00,22.1910172,83.5197009,NH3,1,2,1
India,Chhattisgarh,Raipur,"AIIMS, Raipur - CECB",14-03-2024 01:00:00,21.258815,81.578979,PM2.5,18,55,36
India,Chhattisgarh,Raipur,"Bhatagaon New ISBT, Raipur - CECB",14-03-2024 01:00:00,21.219665,81.630094,PM2.5,37,57,46
India,Chhattisgarh,Raipur,"Bhatagaon New ISBT, Raipur - CECB",14-03-2024 01:00:00,21.219665,81.630094,PM10,53,107,77
India,Chhattisgarh,Raipur,"Bhatagaon New ISBT, Raipur - CECB",14-03-2024 01:00:00,21.219665,81.630094,NO2,1,80,52
India,Chhattisgarh,Raipur,"Bhatagaon New ISBT, Raipur - CECB",14-03-2024 01:00:00,21.219665,81.630094,NH3,3,3,3
India,Chhattisgarh,Raipur,"Krishak Nagar, Raipur - CECB",14-03-2024 01:00:00,21.237755,81.705301,PM10,60,112,85
India,Chhattisgarh,Raipur,"Krishak Nagar, Raipur - CECB",14-03-2024 01:00:00,21.237755,81.705301,CO,32,56,46
India,Chhattisgarh,Raipur,"Siltara Phase-II, Raipur - CECB",14-03-2024 01:00:00,21.371751,81.664929,PM10,65,188,131
India,Chhattisgarh,Raipur,"Siltara Phase-II, Raipur - CECB",14-03-2024 01:00:00,21.371751,81.664929,SO2,7,87,25
India,Chhattisgarh,Tumidih,"OP Jindal Industrial Park, Tumidih - CECB",14-03-2024 01:00:00,22.06631475,83.33820077,CO,18,40,29
India,Delhi,Delhi,"Alipur, Delhi - DPCC",14-03-2024 01:00:00,28.815329,77.153010,PM10,77,279,156
India,Delhi,Delhi,"Alipur, Delhi - DPCC",14-03-2024 01:00:00,28.815329,77.153010,NO2,9,66,37
India,Delhi,Delhi,"Aya Nagar, Delhi - IMD",14-03-2024 01:00:00,28.4706914,77.1099364,PM10,99,160,132
India,Delhi,Delhi,"Aya Nagar, Delhi - IMD",14-03-2024 01:00:00,28.4706914,77.1099364,NO2,18,63,37
India,Delhi,Delhi,"Bawana, Delhi - DPCC",14-03-2024 01:00:00,28.776200,77.051074,SO2,7,47,17
India,Delhi,Delhi,"Burari Crossing, Delhi - IMD",14-03-2024 01:00:00,28.7256504,77.2011573,PM2.5,48,315,184
India,Delhi,Delhi,"CRRI Mathura Road, Delhi - IMD",14-03-2024 01:00:00,28.5512005,77.2735737,NO2,NA,NA,NA
India,Delhi,Delhi,"CRRI Mathura Road, Delhi - IMD",14-03-2024 01:00:00,28.5512005,77.2735737,CO,NA,NA,NA
India,Delhi,Delhi,"Chandni Chowk, Delhi - IITM",14-03-2024 01:00:00,28.656756,77.227234,SO2,2,102,31
India,Delhi,Delhi,"Dr. Karni Singh Shooting Range, Delhi - DPCC",14-03-2024 01:00:00,28.498571,77.264840,PM2.5,49,309,133
India,Delhi,Delhi,"Dr. Karni Singh Shooting Range, Delhi - DPCC",14-03-2024 01:00:00,28.498571,77.264840,NO2,27,122,73
India,Delhi,Delhi,"Dwarka-Sector 8, Delhi - DPCC ",14-03-2024 01:00:00,28.5710274,77.0719006,NO2,6,62,26
India,Delhi,Delhi,"Dwarka-Sector 8, Delhi - DPCC ",14-03-2024 01:00:00,28.5710274,77.0719006,NH3,4,8,5
India,Delhi,Delhi,"IGI Airport (T3), Delhi - IMD",14-03-2024 01:00:00,28.5627763,77.1180053,NO2,24,53,40
India,Delhi,Delhi,"ITO, Delhi - CPCB",14-03-2024 01:00:00,28.628624,77.241060,OZONE,11,81,25
India,Delhi,Delhi,"Jahangirpuri, Delhi - DPCC",14-03-2024 01:00:00,28.732820,77.170633,OZONE,2,171,23
India,Delhi,Delhi,"Jawaharlal Nehru Stadium, Delhi - DPCC",14-03-2024 01:00:00,28.580280,77.233829,PM10,NA,NA,NA
India,Delhi,Delhi,"Jawaharlal Nehru Stadium, Delhi - DPCC",14-03-2024 01:00:00,28.580280,77.233829,CO,26,105,74
India,Delhi,Delhi,"Lodhi Road, Delhi - IITM",14-03-2024 01:00:00,28.588333,77.221667,NH3,8,11,9
India,Delhi,Delhi,"Lodhi Road, Delhi - IITM",14-03-2024 01:00:00,28.588333,77.221667,SO2,14,30,24
India,Delhi,Delhi,"Lodhi Road, Delhi - IMD",14-03-2024 01:00:00,28.5918245,77.2273074,OZONE,5,83,22
India,Delhi,Delhi,"Mandir Marg, Delhi - DPCC",14-03-2024 01:00:00,28.636429,77.201067,SO2,2,20,10
India,Delhi,Delhi,"Mundka, Delhi - DPCC",14-03-2024 01:00:00,28.684678,77.076574,PM2.5,48,429,221
India,Delhi,Delhi,"Mundka, Delhi - DPCC",14-03-2024 01:00:00,28.684678,77.076574,CO,14,96,58
India,Delhi,Delhi,"Mundka, Delhi - DPCC",14-03-2024 01:00:00,28.684678,77.076574,OZONE,14,14,14
India,Delhi,Delhi,"NSIT Dwarka, Delhi - CPCB",14-03-2024 01:00:00,28.60909,77.0325413,NO2,37,67,52
India,Delhi,Delhi,"NSIT Dwarka, Delhi - CPCB",14-03-2024 01:00:00,28.60909,77.0325413,CO,28,99,59
India,Delhi,Delhi,"Narela, Delhi - DPCC",14-03-2024 01:00:00,28.822836,77.101981,SO2,10,76,28
India,Delhi,Delhi,"Nehru Nagar, Delhi - DPCC",14-03-2024 01:00:00,28.567890,77.250515,PM2.5,44,475,180
India,Delhi,Delhi,"North Campus, DU, Delhi - IMD",14-03-2024 01:00:00,28.6573814,77.1585447,NO2,15,48,31
India,Delhi,Delhi,"Okhla Phase-2, Delhi - DPCC",14-03-2024 01:00:00,28.530785,77.271255,CO,40,118,91
India,Delhi,Delhi,"Patparganj, Delhi - DPCC",14-03-2024 01:00:00,28.623763,77.287209,PM2.5,31,204,80
India,Delhi,Delhi,"Patparganj, Delhi - DPCC",14-03-2024 01:00:00,28.623763,77.287209,PM10,94,269,153
India,Delhi,Delhi,"Patparganj, Delhi - DPCC",14-03-2024 01:00:00,28.623763,77.287209,SO2,15,18,17
India,Delhi,Delhi,"Punjabi Bagh, Delhi - DPCC",14-03-2024 01:00:00,28.674045,77.131023,PM10,84,279,163
India,Delhi,Delhi,"Pusa, Delhi - DPCC",14-03-2024 01:00:00,28.639652,77.146275,PM10,97,321,150
India,Delhi,Delhi,"Pusa, Delhi - DPCC",14-03-2024 01:00:00,28.639652,77.146275,NO2,54,136,100
India,Delhi,Delhi,"Pusa, Delhi - DPCC",14-03-2024 01:00:00,28.639652,77.146275,SO2,6,33,16
India,Delhi,Delhi,"R K Puram, Delhi - DPCC",14-03-2024 01:00:00,28.563262,77.186937,OZONE,9,174,37
India,Delhi,Delhi,"Rohini, Delhi - DPCC",14-03-2024 01:00:00,28.732528,77.119920,PM10,75,381,195
India,Delhi,Delhi,"Rohini, Delhi - DPCC",14-03-2024 01:00:00,28.732528,77.119920,CO,14,99,59
India,Delhi,Delhi,"Shadipur, Delhi - CPCB",14-03-2024 01:00:00,28.6514781,77.1473105,NH3,1,7,4
India,Delhi,Delhi,"Sirifort, Delhi - CPCB",14-03-2024 01:00:00,28.5504249,77.2159377,PM10,103,227,137
India,Delhi,Delhi,"Sri Aurobindo Marg, Delhi - DPCC",14-03-2024 01:00:00,28.531346,77.190156,OZONE,1,37,8
India,Delhi,Delhi,"Vivek Vihar, Delhi - DPCC",14-03-2024 01:00:00,28.672342,77.315260,PM2.5,50,432,212
India,Gujarat,Ahmedabad,"Chandkheda, Ahmedabad - IITM",14-03-2024 01:00:00,23.107969,72.574648,PM2.5,50,192,83
India,Gujarat,Ahmedabad,"Maninagar, Ahmedabad - GPCB",14-03-2024 01:00:00,23.002657,72.591912,PM2.5,7,115,40
India,Gujarat,Ahmedabad,"Maninagar, Ahmedabad - GPCB",14-03-2024 01:00:00,23.002657,72.591912,PM10,51,115,84
India,Gujarat,Ahmedabad,"Maninagar, Ahmedabad - GPCB",14-03-2024 01:00:00,23.002657,72.591912,NO2,30,46,37
India,Gujarat,Ahmedabad,"Raikhad, Ahmedabad - IITM",14-03-2024 01:00:00,23.020509,72.579261,SO2,3,9,4
India,Gujarat,Ahmedabad,"Raikhad, Ahmedabad - IITM",14-03-2024 01:00:00,23.020509,72.579261,CO,8,66,14
India,Gujarat,Ahmedabad,"Rakhial, Ahmedabad - IITM",14-03-2024 01:00:00,23.016834,72.625775,PM2.5,15,410,136
India,Gujarat,Ahmedabad,"Rakhial, Ahmedabad - IITM",14-03-2024 01:00:00,23.016834,72.625775,SO2,2,10,6
India,Gujarat,Ahmedabad,"Rakhial, Ahmedabad - IITM",14-03-2024 01:00:00,23.016834,72.625775,OZONE,2,39,21
India,Gujarat,Ahmedabad,"SAC ISRO Satellite, Ahmedabad - IITM",14-03-2024 01:00:00,23.023389,72.515201,PM2.5,147,171,163
India,Gujarat,Ahmedabad,"SAC ISRO Satellite, Ahmedabad - IITM",14-03-2024 01:00:00,23.023389,72.515201,CO,26,40,38
India,Gujarat,Ahmedabad,"SVPI Airport Hansol, Ahmedabad - IITM",14-03-2024 01:00:00,23.076793,72.627874,NO2,13,19,16
India,Gujarat,Ahmedabad,"SVPI Airport Hansol, Ahmedabad - IITM",14-03-2024 01:00:00,23.076793,72.627874,OZONE,NA,NA,NA
India,Gujarat,Ankleshwar,"GIDC, Ankleshwar - GPCB",14-03-2024 01:00:00,21.613267,73.010555,NO2,37,37,37
India,Gujarat,Ankleshwar,"GIDC, Ankleshwar - GPCB",14-03-2024 01:00:00,21.613267,73.010555,OZONE,21,33,27
India,Gujarat,Gandhinagar,"GIFT City, Gandhinagar - IITM",14-03-2024 01:00:00,23.163798,72.677768,OZONE,2,36,20
India,Gujarat,Gandhinagar,"IIPHG Lekawada, Gandhinagar - IITM",14-03-2024 01:00:00,23.243639,72.68994,NH3,8,8,8
India,Gujarat,Gandhinagar,"IIPHG Lekawada, Gandhinagar - IITM",14-03-2024 01:00:00,23.243639,72.68994,CO,22,24,23
India,Gujarat,Gandhinagar,"IIPHG Lekawada, Gandhinagar - IITM",14-03-2024 01:00:00,23.243639,72.68994,OZONE,4,40,24
India,Gujarat,Gandhinagar,"Sector-10, Gandhinagar - GPCB",14-03-2024 01:00:00,23.221714,72.654328,PM10,35,102,66
India,Gujarat,Gandhinagar,"Sector-10, Gandhinagar - GPCB",14-03-2024 01:00:00,23.221714,72.654328,NO2,7,18,14
India,Gujarat,Nandesari,"GIDC, Nandesari - Nandesari Ind. Association",14-03-2024 01:00:00,22.410802,73.097923,NO2,7,36,16
India,Gujarat,Surat,"Science Center, Surat - SMC",14-03-2024 01:00:00,21.170046,72.795405,NO2,24,44,35
India,Gujarat,Vapi,"Phase-1 GIDC, Vapi - GPCB",14-03-2024 01:00:00,20.362421,72.918013,SO2,47,49,48
India,Gujarat,Vapi,"Phase-1 GIDC, Vapi - GPCB",14-03-2024 01:00:00,20.362421,72.918013,CO,105,195,187
India,Haryana,Ambala,"Patti Mehar, Ambala - HSPCB",14-03-2024 01:00:00,30.379589,76.778328,PM2.5,41,130,79
India,Haryana,Ambala,"Patti Mehar, Ambala - HSPCB",14-03-2024 01:00:00,30.379589,76.778328,NH3,6,12,8
India,Haryana,Ambala,"Patti Mehar, Ambala - HSPCB",14-03-2024 01:00:00,30.379589,76.778328,CO,30,60,40
India,Haryana,Ballabgarh,"Nathu Colony, Ballabgarh - HSPCB",14-03-2024 01:00:00,28.3419248,77.319699,PM2.5,10,313,197
India,Haryana,Ballabgarh,"Nathu Colony, Ballabgarh - HSPCB",14-03-2024 01:00:00,28.3419248,77.319699,NO2,12,14,13
India,Haryana,Ballabgarh,"Nathu Colony, Ballabgarh - HSPCB",14-03-2024 01:00:00,28.3419248,77.319699,SO2,3,28,11
India,Haryana,Dharuhera,"Municipal Corporation Office, Dharuhera -  HSPCB",14-03-2024 01:00:00,28.206800,76.799700,PM10,94,188,150
India,Haryana,Faridabad,"Sector 11, Faridabad - HSPCB",14-03-2024 01:00:00,28.376058,77.315741,NH3,6,6,6
India,Haryana,Faridabad,"Sector 11, Faridabad - HSPCB",14-03-2024 01:00:00,28.376058,77.315741,SO2,5,111,10
India,Haryana,Faridabad,"Sector 11, Faridabad - HSPCB",14-03-2024 01:00:00,28.376058,77.315741,OZONE,3,16,7
India,Haryana,Faridabad,"Sector 30, Faridabad - HSPCB",14-03-2024 01:00:00,28.4417,77.3217,PM2.5,91,105,96
India,Haryana,Fatehabad,"Huda Sector, Fatehabad - HSPCB",14-03-2024 01:00:00,29.503664,75.467934,PM2.5,55,120,76
India,Haryana,Fatehabad,"Huda Sector, Fatehabad - HSPCB",14-03-2024 01:00:00,29.503664,75.467934,NO2,35,45,38
India,Haryana,Fatehabad,"Huda Sector, Fatehabad - HSPCB",14-03-2024 01:00:00,29.503664,75.467934,CO,5,10,8
India,Haryana,Fatehabad,"Huda Sector, Fatehabad - HSPCB",14-03-2024 01:00:00,29.503664,75.467934,OZONE,66,98,93
India,Haryana,Gurugram,"Vikas Sadan, Gurugram - HSPCB",14-03-2024 01:00:00,28.4501238,77.0263051,CO,54,138,104
India,Haryana,Kaithal,"Rishi Nagar, Kaithal - HSPCB",14-03-2024 01:00:00,29.8006,76.4155,NO2,24,26,25
India,Haryana,Kaithal,"Rishi Nagar, Kaithal - HSPCB",14-03-2024 01:00:00,29.8006,76.4155,NH3,8,8,8
India,Haryana,Kaithal,"Rishi Nagar, Kaithal - HSPCB",14-03-2024 01:00:00,29.8006,76.4155,CO,16,80,44
India,Haryana,Karnal,"Sector-12, Karnal - HSPCB",14-03-2024 01:00:00,29.695300,77.002700,PM10,55,114,85
India,Haryana,Karnal,"Sector-12, Karnal - HSPCB",14-03-2024 01:00:00,29.695300,77.002700,NO2,7,12,10
India,Haryana,Kurukshetra,"Sector-7, Kurukshetra - HSPCB",14-03-2024 01:00:00,29.966942,76.875879,SO2,2,110,34
India,Haryana,Kurukshetra,"Sector-7, Kurukshetra - HSPCB",14-03-2024 01:00:00,29.966942,76.875879,CO,2,44,20
India,Haryana,Mandikhera,"General Hospital, Mandikhera - HSPCB",14-03-2024 01:00:00,27.9002,76.9938,SO2,31,38,34
India,Haryana,Manesar,"Sector-2 IMT, Manesar - HSPCB",14-03-2024 01:00:00,28.360699,76.936090,NO2,17,22,19
India,Haryana,Manesar,"Sector-2 IMT, Manesar - HSPCB",14-03-2024 01:00:00,28.360699,76.936090,NH3,2,3,3
India,Haryana,Manesar,"Sector-2 IMT, Manesar - HSPCB",14-03-2024 01:00:00,28.360699,76.936090,CO,14,34,21
India,Haryana,Narnaul,"Shastri Nagar, Narnaul - HSPCB",14-03-2024 01:00:00,28.060249,76.113115,NO2,12,75,35
India,Haryana,Narnaul,"Shastri Nagar, Narnaul - HSPCB",14-03-2024 01:00:00,28.060249,76.113115,SO2,13,63,20
India,Haryana,Palwal,"Shyam Nagar, Palwal - HSPCB",14-03-2024 01:00:00,28.1485564,77.3320667,PM2.5,56,94,72
India,Haryana,Palwal,"Shyam Nagar, Palwal - HSPCB",14-03-2024 01:00:00,28.1485564,77.3320667,PM10,60,153,100
India,Haryana,Palwal,"Shyam Nagar, Palwal - HSPCB",14-03-2024 01:00:00,28.1485564,77.3320667,OZONE,6,48,16
India,Haryana,Panipat,"Sector-18, Panipat - HSPCB",14-03-2024 01:00:00,29.497973,76.993331,OZONE,30,30,30
India,Haryana,Rohtak,"MD University, Rohtak - HSPCB",14-03-2024 01:00:00,28.52123,76.37138,OZONE,44,54,50
India,Haryana,Sirsa,"F-Block, Sirsa - HSPCB",14-03-2024 01:00:00,29.536400,75.015800,PM2.5,47,171,87
India,Haryana,Sirsa,"F-Block, Sirsa - HSPCB",14-03-2024 01:00:00,29.536400,75.015800,NH3,12,13,13
India,Haryana,Yamuna Nagar,"Gobind Pura, Yamuna Nagar - HSPCB",14-03-2024 01:00:00,30.1480566,77.2893471,CO,34,94,62
India,Jharkhand,Dhanbad,"Kalakusuma, Dhanbad - DMC",14-03-2024 01:00:00,23.811548,86.481238,NO2,NA,NA,NA
India,Jharkhand,Pathardih,"Mohalbani Ghat, Pathardih - DMC",14-03-2024 01:00:00,23.669880,86.411725,OZONE,9,55,29
India,Karnataka,Bagalkot,"Vidayagiri, Bagalkot - KSPCB",14-03-2024 01:00:00,16.172806,75.659694,SO2,NA,NA,NA
India,Karnataka,Belgaum,"Ramteerth Nagar, Belgaum - KSPCB",14-03-2024 01:00:00,15.888653,74.541751,PM10,30,88,59
India,Karnataka,Bengaluru,"BTM Layout, Bengaluru - CPCB",14-03-2024 01:00:00,12.9135218,77.5950804,PM10,61,101,81
India,Karnataka,Bengaluru,"BTM Layout, Bengaluru - CPCB",14-03-2024 01:00:00,12.9135218,77.5950804,NO2,27,28,28
India,Karnataka,Bengaluru,"Bapuji Nagar, Bengaluru - KSPCB",14-03-2024 01:00:00,12.951913,77.539784,PM10,83,163,115
India,Karnataka,Bengaluru,"Bapuji Nagar, Bengaluru - KSPCB",14-03-2024 01:00:00,12.951913,77.539784,NH3,1,1,1
India,Karnataka,Bengaluru,"Bapuji Nagar, Bengaluru - KSPCB",14-03-2024 01:00:00,12.951913,77.539784,OZONE,6,26,11
India,Karnataka,Bengaluru,"Hebbal, Bengaluru - KSPCB",14-03-2024 01:00:00,13.029152,77.585901,PM2.5,77,142,95
India,Karnataka,Bengaluru,"Hebbal, Bengaluru - KSPCB",14-03-2024 01:00:00,13.029152,77.585901,OZONE,9,88,23
India,Karnataka,Bengaluru,"Hombegowda Nagar, Bengaluru - KSPCB",14-03-2024 01:00:00,12.938539,77.590100,PM10,82,157,100
India,Karnataka,Bengaluru,"Jayanagar 5th Block, Bengaluru - KSPCB",14-03-2024 01:00:00,12.920984,77.584908,SO2,14,31,20
India,Karnataka,Bengaluru,"Kasturi Nagar, Bengaluru - KSPCB",14-03-2024 01:00:00,13.003872,77.664217,NO2,16,17,17
India,Karnataka,Bengaluru,"RVCE-Mailasandra, Bengaluru - KSPCB",14-03-2024 01:00:00,12.921418,77.502466,SO2,9,12,11
India,Karnataka,Bengaluru,"RVCE-Mailasandra, Bengaluru - KSPCB",14-03-2024 01:00:00,12.921418,77.502466,CO,35,103,61
India,Karnataka,Bengaluru,"Sanegurava Halli, Bengaluru - KSPCB",14-03-2024 01:00:00,12.990328,77.5431385,SO2,1,21,3
India,Karnataka,Bengaluru,"Shivapura_Peenya, Bengaluru - KSPCB",14-03-2024 01:00:00,13.0246342,77.5080115,OZONE,53,56,55
India,Karnataka,Bengaluru,"Silk Board, Bengaluru - KSPCB",14-03-2024 01:00:00,12.917348,77.622813,NO2,16,61,33
India,Karnataka,Bengaluru,"Silk Board, Bengaluru - KSPCB",14-03-2024 01:00:00,12.917348,77.622813,NH3,2,3,2
India,Karnataka,Bidar,"Naubad, Bidar - KSPCB",14-03-2024 01:00:00,17.930306,77.482194,NH3,NA,NA,NA
India,Karnataka,Chikkaballapur,"Chikkaballapur Rural, Chikkaballapur - KSPCB",14-03-2024 01:00:00,13.428828,77.731418,PM10,86,139,109
India,Karnataka,Chikkamagaluru,"Kalyana Nagara, Chikkamagaluru - KSPCB",14-03-2024 01:00:00,13.328028,75.797056,NH3,NA,NA,NA
India,Karnataka,Davanagere,"Devaraj Urs Badavane, Davanagere - KSPCB",14-03-2024 01:00:00,14.475800,75.905200,NO2,NA,NA,NA
India,Karnataka,Dharwad,"Kalabhavan, Dharwad - KSPCB",14-03-2024 01:00:00,15.459706,75.008381,NO2,16,16,16
India,Karnataka,Gadag,"Panchal Nagar, Gadag - KSPCB",14-03-2024 01:00:00,15.411456,75.638133,PM2.5,53,91,72
India,Karnataka,Gadag,"Panchal Nagar, Gadag - KSPCB",14-03-2024 01:00:00,15.411456,75.638133,SO2,15,20,17
India,Karnataka,Gadag,"Panchal Nagar, Gadag - KSPCB",14-03-2024 01:00:00,15.411456,75.638133,OZONE,40,84,57
India,Karnataka,Haveri,"Ashwini Nagar, Haveri - KSPCB",14-03-2024 01:00:00,14.791800,75.389600,PM2.5,44,75,60
India,Karnataka,Hubballi,"Deshpande Nagar, Hubballi - KSPCB",14-03-2024 01:00:00,15.351773,75.140726,PM10,NA,NA,NA
India,Karnataka,Hubballi,"Deshpande Nagar, Hubballi - KSPCB",14-03-2024 01:00:00,15.351773,75.140726,NH3,5,6,6
India,Karnataka,Hubballi,"Lingaraj Nagar, Hubballi - KSPCB",14-03-2024 01:00:00,15.3714823,75.1160168,NO2,16,16,16
India,Karnataka,Hubballi,"Lingaraj Nagar, Hubballi - KSPCB",14-03-2024 01:00:00,15.3714823,75.1160168,CO,1,190,132
India,Karnataka,Kalaburagi,"Lal Bahadur Shastri Nagar, Kalaburagi - KSPCB",14-03-2024 01:00:00,17.321993,76.822628,PM2.5,60,300,104
India,Karnataka,Kalaburagi,"Lal Bahadur Shastri Nagar, Kalaburagi - KSPCB",14-03-2024 01:00:00,17.321993,76.822628,CO,41,46,44
India,Karnataka,Kalaburagi,"Mahatma Basaveswar Colony, Kalaburgi - KSPCB",14-03-2024 01:00:00,17.336318,76.847397,CO,41,57,50
India,Karnataka,Kolar,"Tamaka Ind. Area, Kolar - KSPCB",14-03-2024 01:00:00,13.1276288,78.1570122,PM2.5,53,85,67
India,Karnataka,Kolar,"Tamaka Ind. Area, Kolar - KSPCB",14-03-2024 01:00:00,13.1276288,78.1570122,NO2,21,35,28
India,Karnataka,Kolar,"Tamaka Ind. Area, Kolar - KSPCB",14-03-2024 01:00:00,13.1276288,78.1570122,SO2,8,18,12
India,Karnataka,Madikeri,"Stuart Hill, Madikeri - KSPCB",14-03-2024 01:00:00,12.415911,75.735050,SO2,4,4,4
India,Karnataka,Mangalore,"Kadri, Mangalore - KSPCB",14-03-2024 01:00:00,12.889250,74.853000,CO,40,46,43
India,Karnataka,Mysuru,"Hebbal 1st Stage, Mysuru - KSPCB",14-03-2024 01:00:00,12.21041,76.37376,PM10,37,79,57
India,Karnataka,Mysuru,"Hebbal 1st Stage, Mysuru - KSPCB",14-03-2024 01:00:00,12.21041,76.37376,NH3,1,3,2
India,Karnataka,Mysuru,"Hebbal 1st Stage, Mysuru - KSPCB",14-03-2024 01:00:00,12.21041,76.37376,SO2,2,6,4
India,Karnataka,Raichur,"Haji Colony, Raichur - KSPCB",14-03-2024 01:00:00,16.208139,77.348417,PM10,87,389,146
India,Karnataka,Ramanagara,"Vijay Nagar, Ramanagara - KSPCB",14-03-2024 01:00:00,12.733409,77.298051,NH3,1,1,1
India,Karnataka,Shivamogga,"Vinoba Nagara, Shivamogga - KSPCB",14-03-2024 01:00:00,13.940000,75.555917,NH3,2,3,3
India,Karnataka,Shivamogga,"Vinoba Nagara, Shivamogga - KSPCB",14-03-2024 01:00:00,13.940000,75.555917,OZONE,7,110,87
India,Karnataka,Tumakuru,"Thimmalapura, Tumakuru - KSPCB",14-03-2024 01:00:00,13.377516,77.099072,PM10,14,48,28
India,Karnataka,Tumakuru,"Thimmalapura, Tumakuru - KSPCB",14-03-2024 01:00:00,13.377516,77.099072,SO2,8,15,10
India,Karnataka,Udupi,"Brahmagiri, Udupi - KSPCB",14-03-2024 01:00:00,13.34194444,74.74694444,NH3,1,1,1
India,Karnataka,Vijayapura,"Ibrahimpur, Vijayapura - KSPCB",14-03-2024 01:00:00,16.802639,75.722694,PM2.5,26,31,30
India,Karnataka,Vijayapura,"Ibrahimpur, Vijayapura - KSPCB",14-03-2024 01:00:00,16.802639,75.722694,NH3,2,2,2
India,Karnataka,Yadgir,"Collector Office, Yadgir - KSPCB",14-03-2024 01:00:00,16.7602,77.1428,NO2,5,13,7
India,Karnataka,Yadgir,"Collector Office, Yadgir - KSPCB",14-03-2024 01:00:00,16.7602,77.1428,OZONE,18,19,19
India,Kerala,Kannur,"Thavakkara, Kannur - Kerala PCB",14-03-2024 01:00:00,11.875000,75.373200,PM10,65,75,69
India,Kerala,Kannur,"Thavakkara, Kannur - Kerala PCB",14-03-2024 01:00:00,11.875000,75.373200,NO2,6,7,6
India,Kerala,Kannur,"Thavakkara, Kannur - Kerala PCB",14-03-2024 01:00:00,11.875000,75.373200,SO2,6,7,6
India,Kerala,Kannur,"Thavakkara, Kannur - Kerala PCB",14-03-2024 01:00:00,11.875000,75.373200,OZONE,31,36,32
India,Kerala,Kollam,"Polayathode, Kollam - Kerala PCB",14-03-2024 01:00:00,8.8787,76.6073,OZONE,34,36,35
India,Madhya Pradesh,Bhopal,"Idgah Hills, Bhopal - MPPCB",14-03-2024 01:00:00,23.264759,77.381568,CO,22,101,51
India,Madhya Pradesh,Bhopal,"Paryavaran Parisar, Bhopal - MPPCB",14-03-2024 01:00:00,23.210494,77.425409,PM10,46,196,91
India,Madhya Pradesh,Dewas,"Bhopal Chauraha, Dewas - MPPCB",14-03-2024 01:00:00,22.9682591,76.064118,PM10,59,138,96
India,Madhya Pradesh,Dewas,"Bhopal Chauraha, Dewas - MPPCB",14-03-2024 01:00:00,22.9682591,76.064118,NH3,3,3,3
India,Madhya Pradesh,Dewas,"Bhopal Chauraha, Dewas - MPPCB",14-03-2024 01:00:00,22.9682591,76.064118,SO2,21,78,49
India,Madhya Pradesh,Dewas,"Bhopal Chauraha, Dewas - MPPCB",14-03-2024 01:00:00,22.9682591,76.064118,CO,8,38,25
India,Madhya Pradesh,Gwalior,"City Center, Gwalior - MPPCB",14-03-2024 01:00:00,26.203442,78.193251,OZONE,12,79,30
India,Madhya Pradesh,Gwalior,"Deen Dayal Nagar, Gwalior - MPPCB",14-03-2024 01:00:00,26.259242,78.216432,OZONE,47,187,86
India,Madhya Pradesh,Gwalior,"Maharaj Bada, Gwalior - MPPCB",14-03-2024 01:00:00,26.200388,78.147714,PM2.5,58,190,101
India,Madhya Pradesh,Gwalior,"Maharaj Bada, Gwalior - MPPCB",14-03-2024 01:00:00,26.200388,78.147714,CO,12,126,98
India,Madhya Pradesh,Gwalior,"Maharaj Bada, Gwalior - MPPCB",14-03-2024 01:00:00,26.200388,78.147714,OZONE,29,178,70
India,Madhya Pradesh,Indore,"Chhoti Gwaltoli, Indore - MPPCB",14-03-2024 01:00:00,22.4310,75.5213,NO2,47,122,78
India,Madhya Pradesh,Indore,"Maguda Nagar, Indore - IMC",14-03-2024 01:00:00,22.7524,75.8872,NH3,1,1,1
India,Madhya Pradesh,Indore,"Regional Park, Indore - IMC",14-03-2024 01:00:00,22.6780,75.8559,PM10,24,110,53
India,Madhya Pradesh,Indore,"Regional Park, Indore - IMC",14-03-2024 01:00:00,22.6780,75.8559,NH3,NA,NA,NA
India,Madhya Pradesh,Indore,"Residency Area, Indore - IMC",14-03-2024 01:00:00,22.7084,75.8815,SO2,22,27,25
India,Madhya Pradesh,Jabalpur,"Gupteshwar, Jabalpur - JMC",14-03-2024 01:00:00,23.142888,79.916147,PM2.5,60,328,95
India,Madhya Pradesh,Jabalpur,"Gupteshwar, Jabalpur - JMC",14-03-2024 01:00:00,23.142888,79.916147,NH3,5,12,8
India,Madhya Pradesh,Jabalpur,"Marhatal, Jabalpur - MPPCB",14-03-2024 01:00:00,23.168606,79.932247,OZONE,8,79,40
India,Madhya Pradesh,Jabalpur,"Suhagi, Jabalpur - JMC",14-03-2024 01:00:00,23.218135,79.957770,PM2.5,53,355,130
India,Madhya Pradesh,Jabalpur,"Suhagi, Jabalpur - JMC",14-03-2024 01:00:00,23.218135,79.957770,NO2,35,41,38
India,Madhya Pradesh,Katni,"Gole Bazar, Katni - MPPCB",14-03-2024 01:00:00,23.50016,80.23284,PM2.5,37,268,77
India,Madhya Pradesh,Katni,"Gole Bazar, Katni - MPPCB",14-03-2024 01:00:00,23.50016,80.23284,SO2,12,45,28
India,Madhya Pradesh,Maihar,"Sahilara, Maihar - KJS Cements",14-03-2024 01:00:00,24.2613009,80.7231783,SO2,18,30,23
India,Madhya Pradesh,Mandideep,"Sector-D Industrial Area, Mandideep - MPPCB",14-03-2024 01:00:00,23.108440,77.511428,PM2.5,43,173,76
India,Madhya Pradesh,Mandideep,"Sector-D Industrial Area, Mandideep - MPPCB",14-03-2024 01:00:00,23.108440,77.511428,PM10,39,115,66
India,Madhya Pradesh,Mandideep,"Sector-D Industrial Area, Mandideep - MPPCB",14-03-2024 01:00:00,23.108440,77.511428,CO,7,92,26
India,Madhya Pradesh,Pithampur,"Sector-2 Industrial Area, Pithampur - MPPCB",14-03-2024 01:00:00,22.624758,75.675238,PM10,56,194,104
India,Madhya Pradesh,Satna,"Bandhavgar Colony, Satna - Birla Cement",14-03-2024 01:00:00,24.58434363,80.8549414,PM10,57,71,62
India,Madhya Pradesh,Singrauli,"Suryakiran Bhawan NCL, Singrauli - MPPCB",14-03-2024 01:00:00,24.108970,82.645580,PM2.5,NA,NA,NA
India,Madhya Pradesh,Singrauli,"Suryakiran Bhawan NCL, Singrauli - MPPCB",14-03-2024 01:00:00,24.108970,82.645580,NH3,3,5,4
India,Madhya Pradesh,Singrauli,"Suryakiran Bhawan NCL, Singrauli - MPPCB",14-03-2024 01:00:00,24.108970,82.645580,CO,22,116,39
India,Madhya Pradesh,Ujjain,"Mahakaleshwar Temple, Ujjain - MPPCB",14-03-2024 01:00:00,23.182719 ,75.768218 ,PM10,NA,NA,NA
India,Madhya Pradesh,Ujjain,"Mahakaleshwar Temple, Ujjain - MPPCB",14-03-2024 01:00:00,23.182719 ,75.768218 ,NO2,NA,NA,NA
India,Maharashtra,Akola,"Ramdaspeth, Akola - MPCB",14-03-2024 01:00:00,20.719516,77.000253,PM2.5,47,256,110
India,Maharashtra,Akola,"Ramdaspeth, Akola - MPCB",14-03-2024 01:00:00,20.719516,77.000253,PM10,58,163,96
India,Maharashtra,Akola,"Ramdaspeth, Akola - MPCB",14-03-2024 01:00:00,20.719516,77.000253,NO2,12,91,31
India,Maharashtra,Akola,"Ramdaspeth, Akola - MPCB",14-03-2024 01:00:00,20.719516,77.000253,CO,12,128,70
India,Maharashtra,Amravati,"Shri Shivaji Science College, Amaravati - MPCB",14-03-2024 01:00:00,20.939198,77.765701,SO2,1,6,2
India,Maharashtra,Amravati,"Shri Shivaji Science College, Amaravati - MPCB",14-03-2024 01:00:00,20.939198,77.765701,CO,13,56,30
India,Maharashtra,Aurangabad,"MIDC Chilkalthana, Aurangabad - MPCB",14-03-2024 01:00:00,19.875620,75.387310,NH3,3,4,4
India,Maharashtra,Aurangabad,"More Chowk Waluj, Aurangabad - MPCB",14-03-2024 01:00:00,19.8389439,75.244448,NO2,3,9,4
India,Maharashtra,Aurangabad,"Rachnakar Colony, Aurangabad - MPCB",14-03-2024 01:00:00,19.863756,75.321188,PM2.5,47,153,92
India,Maharashtra,Aurangabad,"Rachnakar Colony, Aurangabad - MPCB",14-03-2024 01:00:00,19.863756,75.321188,PM10,57,180,103
India,Maharashtra,Aurangabad,"Rachnakar Colony, Aurangabad - MPCB",14-03-2024 01:00:00,19.863756,75.321188,CO,5,94,44
India,Maharashtra,Belapur,"CBD Belapur, Belapur - MPCB",14-03-2024 01:00:00,19.0243902,73.0406721,NH3,16,40,25
India,Maharashtra,Belapur,"CBD Belapur, Belapur - MPCB",14-03-2024 01:00:00,19.0243902,73.0406721,SO2,1,5,3
India,Maharashtra,Bhiwandi,"Gokul Nagar, Bhiwandi - MPCB",14-03-2024 01:00:00,19.309073,73.057223,PM10,98,160,119
India,Maharashtra,Bhiwandi,"Gokul Nagar, Bhiwandi - MPCB",14-03-2024 01:00:00,19.309073,73.057223,NO2,15,79,35
India,Maharashtra,Boisar,"Khaira, Boisar - MPCB",14-03-2024 01:00:00,19.786089,72.757971,SO2,1,118,44
India,Maharashtra,Chandrapur,"Chauhan Colony, Chandrapur - MPCB",14-03-2024 01:00:00,19.962900,79.298714,SO2,7,91,28
India,Maharashtra,Chandrapur,"MIDC Khutala, Chandrapur - MPCB",14-03-2024 01:00:00,19.9775302,79.2337086,PM2.5,NA,NA,NA
India,Maharashtra,Chandrapur,"MIDC Khutala, Chandrapur - MPCB",14-03-2024 01:00:00,19.9775302,79.2337086,CO,30,76,56
India,Maharashtra,Dhule,"Deopur, Dhule - MPCB",14-03-2024 01:00:00,20.918946,74.776388,CO,2,14,10
India,Maharashtra,Jalna,"Old MIDC, Jalna - MPCB",14-03-2024 01:00:00,19.854616,75.905894,PM10,43,403,132
India,Maharashtra,Jalna,"Old MIDC, Jalna - MPCB",14-03-2024 01:00:00,19.854616,75.905894,CO,23,32,28
India,Maharashtra,Jalna,"Old MIDC, Jalna - MPCB",14-03-2024 01:00:00,19.854616,75.905894,OZONE,1,158,74
India,Maharashtra,Kolhapur,"Shivaji University, Kolhapur - MPCB",14-03-2024 01:00:00,16.6870449,74.2505872,NH3,3,8,5
India,Maharashtra,Kolhapur,"Sinchan Bhavan, Kolhapur - MPCB",14-03-2024 01:00:00,16.7143745,74.2426398,PM2.5,NA,NA,NA
India,Maharashtra,Latur,"Sawe Wadi, Latur - MPCB",14-03-2024 01:00:00,18.39963,76.57452,PM10,57,116,79
India,Maharashtra,Latur,"Sawe Wadi, Latur - MPCB",14-03-2024 01:00:00,18.39963,76.57452,SO2,1,10,7
India,Maharashtra,Mahad,"Kamble Tarf Birwadi, Mahad - MPCB",14-03-2024 01:00:00,18.1023399,73.4783687,NO2,29,183,65
India,Maharashtra,Mahad,"Kamble Tarf Birwadi, Mahad - MPCB",14-03-2024 01:00:00,18.1023399,73.4783687,OZONE,5,116,30
India,Maharashtra,Mumbai,"Bandra Kurla Complex, Mumbai - MPCB",14-03-2024 01:00:00,19.065931,72.862131,NO2,6,23,11
India,Maharashtra,Mumbai,"Borivali East, Mumbai - MPCB",14-03-2024 01:00:00,19.2243333,72.8658113,PM2.5,25,70,43
India,Maharashtra,Mumbai,"Byculla, Mumbai - BMC",14-03-2024 01:00:00,18.9767,72.8380,SO2,2,12,6
India,Maharashtra,Mumbai,"Colaba, Mumbai - MPCB",14-03-2024 01:00:00,18.910000,72.820000,PM10,27,61,37
India,Maharashtra,Mumbai,"Colaba, Mumbai - MPCB",14-03-2024 01:00:00,18.910000,72.820000,OZONE,8,11,9
India,Maharashtra,Mumbai,"Ghatkopar, Mumbai - BMC",14-03-2024 01:00:00,19.083694,72.920967,NH3,3,5,4
India,Maharashtra,Mumbai,"Ghatkopar, Mumbai - BMC",14-03-2024 01:00:00,19.083694,72.920967,CO,5,37,19
India,Maharashtra,Mumbai,"Kandivali East, Mumbai - MPCB",14-03-2024 01:00:00,19.205800,72.868200,PM10,40,190,89
India,Maharashtra,Mumbai,"Kandivali East, Mumbai - MPCB",14-03-2024 01:00:00,19.205800,72.868200,CO,70,104,86
India,Maharashtra,Mumbai,"Kandivali East, Mumbai - MPCB",14-03-2024 01:00:00,19.205800,72.868200,OZONE,30,31,30
India,Maharashtra,Mumbai,"Kurla, Mumbai - MPCB",14-03-2024 01:00:00,19.0863,72.8888,PM2.5,30,84,55
India,Maharashtra,Mumbai,"Kurla, Mumbai - MPCB",14-03-2024 01:00:00,19.0863,72.8888,PM10,30,84,55
India,Maharashtra,Mumbai,"Mulund West, Mumbai - MPCB",14-03-2024 01:00:00,19.1750,72.9419,PM2.5,NA,NA,NA
India,Maharashtra,Mumbai,"Mulund West, Mumbai - MPCB",14-03-2024 01:00:00,19.1750,72.9419,NO2,NA,NA,NA
India,Maharashtra,Mumbai,"Mulund West, Mumbai - MPCB",14-03-2024 01:00:00,19.1750,72.9419,NH3,NA,NA,NA
India,Maharashtra,Mumbai,"Mulund West, Mumbai - MPCB",14-03-2024 01:00:00,19.1750,72.9419,SO2,NA,NA,NA
India,Maharashtra,Mumbai,"Navy Nagar-Colaba, Mumbai - IITM",14-03-2024 01:00:00,18.897756,72.813320,PM2.5,72,179,100
India,Maharashtra,Mumbai,"Navy Nagar-Colaba, Mumbai - IITM",14-03-2024 01:00:00,18.897756,72.813320,NH3,NA,NA,NA
India,Maharashtra,Mumbai,"Navy Nagar-Colaba, Mumbai - IITM",14-03-2024 01:00:00,18.897756,72.813320,OZONE,37,156,115
India,Maharashtra,Mumbai,"Sewri, Mumbai - BMC",14-03-2024 01:00:00,19.000084,72.856730,PM2.5,26,59,34
India,Maharashtra,Mumbai,"Sewri, Mumbai - BMC",14-03-2024 01:00:00,19.000084,72.856730,CO,13,32,20
India,Maharashtra,Mumbai,"Shivaji Nagar, Mumbai - BMC",14-03-2024 01:00:00,19.060498,72.923356,PM2.5,NA,NA,NA
India,Maharashtra,Mumbai,"Sion, Mumbai - MPCB",14-03-2024 01:00:00,19.047000,72.874600,PM10,72,106,95
India,Maharashtra,Mumbai,"Worli, Mumbai - MPCB",14-03-2024 01:00:00,18.9936162,72.8128113,NO2,17,19,18
India,Maharashtra,Mumbai,"Worli, Mumbai - MPCB",14-03-2024 01:00:00,18.9936162,72.8128113,CO,33,36,33
India,Maharashtra,Nagpur,"Ambazari, Nagpur - MPCB",14-03-2024 01:00:00,21.121801,79.04952,PM2.5,27,86,60
India,Maharashtra,Nagpur,"Ambazari, Nagpur - MPCB",14-03-2024 01:00:00,21.121801,79.04952,PM10,69,111,85
India,Maharashtra,Nagpur,"Ambazari, Nagpur - MPCB",14-03-2024 01:00:00,21.121801,79.04952,NH3,1,6,2
India,Maharashtra,Nagpur,"Ambazari, Nagpur - MPCB",14-03-2024 01:00:00,21.121801,79.04952,CO,14,81,37
India,Maharashtra,Nagpur,"Mahal, Nagpur - MPCB",14-03-2024 01:00:00,21.14472,79.107595,PM2.5,49,76,64
India,Maharashtra,Nagpur,"Mahal, Nagpur - MPCB",14-03-2024 01:00:00,21.14472,79.107595,SO2,21,49,30
India,Maharashtra,Nagpur,"Opp GPO Civil Lines, Nagpur - MPCB",14-03-2024 01:00:00,21.152875,79.0517531,NH3,4,5,4
India,Maharashtra,Nagpur,"Ram Nagar, Nagpur - MPCB",14-03-2024 01:00:00,21.143383,79.048912,PM10,70,117,96
India,Maharashtra,Nagpur,"Ram Nagar, Nagpur - MPCB",14-03-2024 01:00:00,21.143383,79.048912,CO,8,50,26
India,Maharashtra,Nanded,"Sneh Nagar, Nanded - MPCB",14-03-2024 01:00:00,19.173852,77.296291,CO,27,42,36
India,Maharashtra,Nashik,"Gangapur Road, Nashik - MPCB",14-03-2024 01:00:00,20.0073285,73.7762427,PM10,34,117,73
India,Maharashtra,Nashik,"Gangapur Road, Nashik - MPCB",14-03-2024 01:00:00,20.0073285,73.7762427,SO2,1,10,4
India,Maharashtra,Nashik,"Hirawadi, Nashik - MPCB",14-03-2024 01:00:00,20.021503,73.813844,PM2.5,27,70,48
India,Maharashtra,Nashik,"Hirawadi, Nashik - MPCB",14-03-2024 01:00:00,20.021503,73.813844,CO,8,27,18
India,Maharashtra,Nashik,"Hirawadi, Nashik - MPCB",14-03-2024 01:00:00,20.021503,73.813844,OZONE,16,98,63
India,Maharashtra,Nashik,"MIDC Ambad, Nashik - MPCB",14-03-2024 01:00:00,19.950220,73.731480,PM2.5,24,83,46
India,Maharashtra,Nashik,"MIDC Ambad, Nashik - MPCB",14-03-2024 01:00:00,19.950220,73.731480,NH3,2,3,2
India,Maharashtra,Nashik,"MIDC Ambad, Nashik - MPCB",14-03-2024 01:00:00,19.950220,73.731480,SO2,5,20,11
India,Maharashtra,Navi Mumbai,"Kopripada-Vashi, Navi Mumbai - MPCB",14-03-2024 01:00:00,19.090337,73.014232,OZONE,6,73,30
India,Maharashtra,Navi Mumbai,"Mahape, Navi Mumbai - MPCB",14-03-2024 01:00:00,19.1135051,73.008978,PM10,68,375,127
India,Maharashtra,Navi Mumbai,"Mahape, Navi Mumbai - MPCB",14-03-2024 01:00:00,19.1135051,73.008978,NH3,2,5,3
India,Maharashtra,Navi Mumbai,"Nerul, Navi Mumbai - MPCB",14-03-2024 01:00:00,19.008751,73.016620,PM2.5,39,120,68
India,Maharashtra,Navi Mumbai,"Nerul, Navi Mumbai - MPCB",14-03-2024 01:00:00,19.008751,73.016620,OZONE,27,76,31
India,Maharashtra,Navi Mumbai,"Sanpada, Navi Mumbai - MPCB",14-03-2024 01:00:00,19.0575752,73.0151367,OZONE,20,101,32
India,Maharashtra,Navi Mumbai,"Sector-19A Nerul, Navi Mumbai - IITM",14-03-2024 01:00:00,19.044,73.0325,NO2,25,103,48
India,Maharashtra,Navi Mumbai,"Sector-19A Nerul, Navi Mumbai - IITM",14-03-2024 01:00:00,19.044,73.0325,SO2,20,36,31
India,Maharashtra,Navi Mumbai,"Sector-19A Nerul, Navi Mumbai - IITM",14-03-2024 01:00:00,19.044,73.0325,CO,1,55,12
India,Maharashtra,Navi Mumbai,"Sector-2E Kalamboli, Navi Mumbai - MPCB",14-03-2024 01:00:00,19.02579,73.10297,PM10,64,147,101
India,Maharashtra,Navi Mumbai,"Tondare-Taloja, Navi Mumbai - MPCB",14-03-2024 01:00:00,19.0630,73.1209,PM2.5,49,275,105
India,Maharashtra,Navi Mumbai,"Tondare-Taloja, Navi Mumbai - MPCB",14-03-2024 01:00:00,19.0630,73.1209,NH3,3,8,4
India,Maharashtra,Navi Mumbai,"Tondare-Taloja, Navi Mumbai - MPCB",14-03-2024 01:00:00,19.0630,73.1209,SO2,1,22,10
India,Maharashtra,Pimpri-Chinchwad,"Gavalinagar, Pimpri Chinchwad - MPCB",14-03-2024 01:00:00,18.63673,73.82487,NO2,9,83,30
India,Maharashtra,Pimpri-Chinchwad,"Gavalinagar, Pimpri Chinchwad - MPCB",14-03-2024 01:00:00,18.63673,73.82487,SO2,4,19,12
India,Maharashtra,Pimpri-Chinchwad,"Gavalinagar, Pimpri Chinchwad - MPCB",14-03-2024 01:00:00,18.63673,73.82487,CO,10,35,22
India,Maharashtra,Pimpri-Chinchwad,"Park Street Wakad, Pimpri Chinchwad - MPCB",14-03-2024 01:00:00,18.59051,73.77946,PM2.5,27,169,108
India,Maharashtra,Pimpri-Chinchwad,"Park Street Wakad, Pimpri Chinchwad - MPCB",14-03-2024 01:00:00,18.59051,73.77946,PM10,50,140,106
India,Maharashtra,Pimpri-Chinchwad,"Park Street Wakad, Pimpri Chinchwad - MPCB",14-03-2024 01:00:00,18.59051,73.77946,NO2,NA,NA,NA
India,Maharashtra,Pune,"Revenue Colony-Shivajinagar, Pune - IITM",14-03-2024 01:00:00,18.530085,73.849598,PM10,58,102,80
India,Maharashtra,Pune,"Revenue Colony-Shivajinagar, Pune - IITM",14-03-2024 01:00:00,18.530085,73.849598,NH3,7,22,16
India,Maharashtra,Pune,"Savitribai Phule Pune University, Pune - MPCB",14-03-2024 01:00:00,18.547056,73.826908,NO2,26,154,64
India,Maharashtra,Pune,"Savitribai Phule Pune University, Pune - MPCB",14-03-2024 01:00:00,18.547056,73.826908,NH3,5,30,12
India,Maharashtra,Pune,"Savitribai Phule Pune University, Pune - MPCB",14-03-2024 01:00:00,18.547056,73.826908,CO,12,64,30
India,Maharashtra,Pune,"Transport Nagar-Nigdi, Pune - IITM",14-03-2024 01:00:00,18.664282,73.763966,CO,46,65,60
India,Maharashtra,Sangli,"Vijay Nagar, Sangli - MPCB",14-03-2024 01:00:00, 16.5038,74.3623,NO2,12,67,31
India,Maharashtra,Sangli,"Vijay Nagar, Sangli - MPCB",14-03-2024 01:00:00, 16.5038,74.3623,NH3,1,3,2
India,Maharashtra,Solapur,"Dnyaneshwar Nagar, Solapur - MPCB",14-03-2024 01:00:00,17.6336264,75.9132495,PM2.5,113,292,159
India,Maharashtra,Solapur,"Dnyaneshwar Nagar, Solapur - MPCB",14-03-2024 01:00:00,17.6336264,75.9132495,NO2,11,67,28
India,Maharashtra,Solapur,"Dnyaneshwar Nagar, Solapur - MPCB",14-03-2024 01:00:00,17.6336264,75.9132495,SO2,2,16,6
India,Maharashtra,Solapur,"Dnyaneshwar Nagar, Solapur - MPCB",14-03-2024 01:00:00,17.6336264,75.9132495,OZONE,30,87,56
India,Maharashtra,Solapur,"Ratandeep Housing Society, Solapur - MPCB",14-03-2024 01:00:00,17.65439,75.90649,PM2.5,NA,NA,NA
India,Maharashtra,Solapur,"Ratandeep Housing Society, Solapur - MPCB",14-03-2024 01:00:00,17.65439,75.90649,PM10,NA,NA,NA
India,Maharashtra,Thane,"Kasarvadavali, Thane - MPCB",14-03-2024 01:00:00,19.26777,72.97182,NO2,31,90,46
India,Maharashtra,Thane,"Pimpleshwar Mandir, Thane - MPCB",14-03-2024 01:00:00,19.192056,72.9585188,PM10,100,161,120
India,Maharashtra,Thane,"Upvan Fort, Thane - MPCB",14-03-2024 01:00:00,19.222279,72.957979,NH3,11,15,12
India,Maharashtra,Thane,"Upvan Fort, Thane - MPCB",14-03-2024 01:00:00,19.222279,72.957979,CO,8,46,32
India,Maharashtra,Thane,"Upvan Fort, Thane - MPCB",14-03-2024 01:00:00,19.222279,72.957979,OZONE,19,90,68
India,Maharashtra,Ulhasnagar,"Sidhi Vinayak Nagar, Ulhasnagar - MPCB",14-03-2024 01:00:00,19.235581,73.159121,NH3,2,4,3
India,Maharashtra,Ulhasnagar,"Sidhi Vinayak Nagar, Ulhasnagar - MPCB",14-03-2024 01:00:00,19.235581,73.159121,SO2,5,48,14
India,Maharashtra,Virar,"Bolinj, Virar - MPCB",14-03-2024 01:00:00,19.4458210,72.7988231,NO2,6,45,16
India,Maharashtra,Virar,"Bolinj, Virar - MPCB",14-03-2024 01:00:00,19.4458210,72.7988231,NH3,5,10,6
India,Manipur,Imphal,"DM College of Science, Imphal - Manipur PCB",14-03-2024 01:00:00,24.8207389,93.9423085,CO,6,6,6
India,Nagaland,Kohima,"PWD Juction, Kohima - NPCB",14-03-2024 01:00:00,25.6635413,94.0989878,SO2,29,31,30
India,Odisha,Angul,"Hakimapada, Angul - OSPCB",14-03-2024 01:00:00,20.832874,85.104082,PM2.5,83,217,148
India,Odisha,Balasore,"Kalidaspur, Balasore - OSPCB",14-03-2024 01:00:00,21.51161,86.89088,PM10,35,123,84
India,Odisha,Barbil,"Forest Office, Barbil - OSPCB",14-03-2024 01:00:00,22.1166054,85.3945546,PM2.5,7,333,157
India,Odisha,Barbil,"Forest Office, Barbil - OSPCB",14-03-2024 01:00:00,22.1166054,85.3945546,SO2,1,22,8
India,Odisha,Baripada,"Meher Colony, Baripada - OSPCB",14-03-2024 01:00:00,21.941841,86.728318,OZONE,18,80,41
India,Odisha,Bhubaneswar,"Lingraj Mandir, Bhubaneswar - OSPCB",14-03-2024 01:00:00,20.240790,85.836784,PM2.5,38,93,63
India,Odisha,Bhubaneswar,"Patia, Bhubaneswar - OSPCB",14-03-2024 01:00:00,20.34652,85.81630,PM2.5,35,75,55
India,Odisha,Bhubaneswar,"Patia, Bhubaneswar - OSPCB",14-03-2024 01:00:00,20.34652,85.81630,NO2,4,9,6
India,Odisha,Bhubaneswar,"Patia, Bhubaneswar - OSPCB",14-03-2024 01:00:00,20.34652,85.81630,SO2,1,5,3
India,Odisha,Bhubaneswar,"Patia, Bhubaneswar - OSPCB",14-03-2024 01:00:00,20.34652,85.81630,OZONE,44,84,54
India,Odisha,Bileipada,"Tata Township, Bileipada - OSPCB",14-03-2024 01:00:00,22.06156703,85.47409613,NO2,7,11,9
India,Odisha,Bileipada,"Tata Township, Bileipada - OSPCB",14-03-2024 01:00:00,22.06156703,85.47409613,NH3,11,11,11
India,Odisha,Brajrajnagar,"GM Office, Brajrajnagar - OSPCB",14-03-2024 01:00:00,21.8004996,83.8396977,PM2.5,36,225,97
India,Odisha,Byasanagar,"Ferro Chrome Colony, Byasanagar - OSPCB",14-03-2024 01:00:00,20.94185,86.11510,PM2.5,43,263,86
India,Odisha,Cuttack,"CDA Area, Cuttack - OSPCB",14-03-2024 01:00:00,20.48891     ,85.84768     ,CO,20,30,25
India,Odisha,Keonjhar,"Jagamohanpur, Keonjhar - OSPCB",14-03-2024 01:00:00,21.643900,85.599355,CO,12,68,35
India,Odisha,Rairangpur,"Divisional Forest Office, Rairangpur - OSPCB",14-03-2024 01:00:00,22.265816,86.174829,NO2,7,8,7
India,Odisha,Rairangpur,"Divisional Forest Office, Rairangpur - OSPCB",14-03-2024 01:00:00,22.265816,86.174829,NH3,5,5,5
India,Odisha,Rairangpur,"Divisional Forest Office, Rairangpur - OSPCB",14-03-2024 01:00:00,22.265816,86.174829,SO2,2,8,3
India,Odisha,Rourkela,"Raghunathpali, Rourkela - OSPCB",14-03-2024 01:00:00,22.220833,84.809444,PM10,111,193,139
India,Odisha,Rourkela,"Raghunathpali, Rourkela - OSPCB",14-03-2024 01:00:00,22.220833,84.809444,SO2,1,20,6
India,Odisha,Talcher,"Talcher Coalfields,Talcher - OSPCB",14-03-2024 01:00:00,20.9360711,85.1707021,NO2,35,40,37
India,Puducherry,Puducherry,"Jawahar Nagar, Puducherry - PPCC",14-03-2024 01:00:00,11.9309,79.8027,SO2,4,12,7
India,Punjab,Amritsar,"Golden Temple, Amritsar - PPCB",14-03-2024 01:00:00,31.620000,74.876512,NO2,10,19,14
India,Punjab,Bathinda,"Hardev Nagar, Bathinda - PPCB",14-03-2024 01:00:00,30.233011,74.907758,SO2,1,29,11
India,Punjab,Jalandhar,"Civil Line, Jalandhar - PPCB",14-03-2024 01:00:00,31.321907,75.578914,NO2,32,35,34
India,Punjab,Jalandhar,"Civil Line, Jalandhar - PPCB",14-03-2024 01:00:00,31.321907,75.578914,SO2,10,20,13
India,Punjab,Jalandhar,"Civil Line, Jalandhar - PPCB",14-03-2024 01:00:00,31.321907,75.578914,CO,32,106,87
India,Punjab,Khanna,"Kalal Majra, Khanna - PPCB",14-03-2024 01:00:00,30.736056 ,76.209694,PM2.5,18,82,61
India,Punjab,Khanna,"Kalal Majra, Khanna - PPCB",14-03-2024 01:00:00,30.736056 ,76.209694,PM10,31,100,71
India,Punjab,Ludhiana,"Punjab Agricultural University, Ludhiana - PPCB",14-03-2024 01:00:00,30.9028,75.8086,PM10,72,193,129
India,Punjab,Mandi Gobindgarh,"RIMT University, Mandi Gobindgarh - PPCB",14-03-2024 01:00:00,30.649961,76.331442,CO,12,66,23
India,Punjab,Patiala,"Model Town, Patiala - PPCB",14-03-2024 01:00:00,30.349388,76.366642,PM10,83,116,98
India,Punjab,Patiala,"Model Town, Patiala - PPCB",14-03-2024 01:00:00,30.349388,76.366642,NH3,5,5,5
India,Punjab,Rupnagar,"Ratanpura, Rupnagar - Ambuja Cements",14-03-2024 01:00:00,31.0325454,76.5623046,SO2,6,11,9
India,Rajasthan,Alwar,"Moti Doongri, Alwar - RSPCB",14-03-2024 01:00:00,27.554793,76.611536,PM2.5,31,75,51
India,Rajasthan,Alwar,"Moti Doongri, Alwar - RSPCB",14-03-2024 01:00:00,27.554793,76.611536,NH3,5,8,6
India,Rajasthan,Baran,"Bamboliya, Baran - RSPCB",14-03-2024 01:00:00,25.106006,76.469948,OZONE,14,132,63
India,Rajasthan,Barmer,"Railway Colony, Barmer - RSPCB",14-03-2024 01:00:00,25.747299,71.393989,NO2,9,20,12
India,Rajasthan,Bhilwara,"Pratap Nagar, Bhilwara - RSPCB",14-03-2024 01:00:00,25.339605,74.618883,PM2.5,41,227,108
India,Rajasthan,Bhilwara,"Pratap Nagar, Bhilwara - RSPCB",14-03-2024 01:00:00,25.339605,74.618883,CO,14,46,20
India,Rajasthan,Bhiwadi,"Vasundhara Nagar_UIT, Bhiwadi - RSPCB",14-03-2024 01:00:00,28.207266,76.829265,NO2,18,77,51
India,Rajasthan,Bhiwadi,"Vasundhara Nagar_UIT, Bhiwadi - RSPCB",14-03-2024 01:00:00,28.207266,76.829265,SO2,5,20,11
India,Rajasthan,Bikaner,"MM Ground, Bikaner - RSPCB",14-03-2024 01:00:00,28.018792,73.292658,SO2,1,11,3
India,Rajasthan,Bikaner,"MM Ground, Bikaner - RSPCB",14-03-2024 01:00:00,28.018792,73.292658,CO,10,81,18
India,Rajasthan,Bundi,"New Colony, Bundi - RSPCB",14-03-2024 01:00:00,25.435774,75.644272,OZONE,24,136,61
India,Rajasthan,Chittorgarh,"Shastri Nagar, Chittorgarh - RSPCB",14-03-2024 01:00:00,24.892047,74.623527,OZONE,3,107,48
India,Rajasthan,Churu,"Subash Chowk, Churu - RSPCB",14-03-2024 01:00:00,28.296139,74.961696,PM10,80,158,110
India,Rajasthan,Dausa,"Khatikan Mohalla, Dausa - RSPCB",14-03-2024 01:00:00,26.895552,76.334753,PM10,74,162,131
India,Rajasthan,Dholpur,"Raja Ganj, Dholpur - RSPCB",14-03-2024 01:00:00,26.699557,77.898881,NO2,10,40,21
India,Rajasthan,Jaipur,"Mansarovar Sector-12, Jaipur - RSPCB",14-03-2024 01:00:00,26.843698,75.766894,NO2,28,48,32
India,Rajasthan,Jaipur,"Police Commissionerate, Jaipur - RSPCB",14-03-2024 01:00:00,26.9164092,75.7994901,NO2,17,88,36
India,Rajasthan,Jaipur,"Sector-2 Murlipura, Jaipur - RSPCB",14-03-2024 01:00:00,26.960669,75.771817,PM2.5,NA,NA,NA
India,Rajasthan,Jaisalmer,"Sadar Bazar, Jaisalmer - RSPCB",14-03-2024 01:00:00,26.912329,70.909168,PM10,28,405,146
India,Rajasthan,Jaisalmer,"Sadar Bazar, Jaisalmer - RSPCB",14-03-2024 01:00:00,26.912329,70.909168,OZONE,48,87,73
India,Rajasthan,Jalore,"Mudtra Sili, Jalore - RSPCB",14-03-2024 01:00:00,25.344694,72.626208,PM10,53,148,108
India,Rajasthan,Jalore,"Mudtra Sili, Jalore - RSPCB",14-03-2024 01:00:00,25.344694,72.626208,CO,9,32,20
India,Rajasthan,Jhalawar,"Rajlaxmi Nagar, Jhalawar - RSPCB",14-03-2024 01:00:00,24.588397,76.172782,CO,16,79,30
India,Rajasthan,Jhalawar,"Rajlaxmi Nagar, Jhalawar - RSPCB",14-03-2024 01:00:00,24.588397,76.172782,OZONE,10,87,63
India,Rajasthan,Jhunjhunu,"Indra Nagar, Jhunjhunu - RSPCB",14-03-2024 01:00:00,28.108988,75.386577,NO2,22,56,36
India,Rajasthan,Jodhpur,"Collectorate, Jodhpur - RSPCB",14-03-2024 01:00:00,26.268249,73.0193853,SO2,2,52,19
India,Rajasthan,Jodhpur,"Digari Kalan, Jodhpur - RSPCB",14-03-2024 01:00:00,26.295810,73.082283,SO2,1,6,2
India,Rajasthan,Jodhpur,"Digari Kalan, Jodhpur - RSPCB",14-03-2024 01:00:00,26.295810,73.082283,OZONE,21,94,63
India,Rajasthan,Jodhpur,"Samrat Ashok Udhyan, Jodhpur - RSPCB",14-03-2024 01:00:00,26.253384,72.976571,NO2,4,90,22
India,Rajasthan,Kota,"Nayapura, Kota - RSPCB",14-03-2024 01:00:00,25.196024,75.855668,SO2,9,56,15
India,Rajasthan,Kota,"Nayapura, Kota - RSPCB",14-03-2024 01:00:00,25.196024,75.855668,CO,24,102,65
India,Rajasthan,Nagaur,"Karni Colony, Nagaur - RSPCB",14-03-2024 01:00:00,27.213494,73.734444,PM2.5,32,117,54
India,Rajasthan,Nagaur,"Karni Colony, Nagaur - RSPCB",14-03-2024 01:00:00,27.213494,73.734444,NH3,6,9,7
India,Rajasthan,Nagaur,"Karni Colony, Nagaur - RSPCB",14-03-2024 01:00:00,27.213494,73.734444,OZONE,47,80,56
India,Rajasthan,Pali,"Indira Colony Vistar, Pali - RSPCB",14-03-2024 01:00:00,25.771061, 73.340227,NO2,43,64,53
India,Rajasthan,Pratapgarh,"Pragati Nagar, Pratapgarh - RSPCB",14-03-2024 01:00:00,24.041198,74.780702,PM2.5,16,146,40
India,Rajasthan,Pratapgarh,"Pragati Nagar, Pratapgarh - RSPCB",14-03-2024 01:00:00,24.041198,74.780702,CO,12,58,18
India,Rajasthan,Pratapgarh,"Pragati Nagar, Pratapgarh - RSPCB",14-03-2024 01:00:00,24.041198,74.780702,OZONE,3,92,66
India,Rajasthan,Rajsamand,"Dhoinda, Rajsamand - RSPCB",14-03-2024 01:00:00,25.036360,73.883502,PM2.5,13,72,40
India,Rajasthan,Rajsamand,"Dhoinda, Rajsamand - RSPCB",14-03-2024 01:00:00,25.036360,73.883502,PM10,35,86,57
India,Rajasthan,Sawai Madhopur,"Sahu Nagar, Sawai Madhopur - RSPCB",14-03-2024 01:00:00,26.031443,76.359327,NO2,2,91,16
India,Rajasthan,Sikar,"Radhakishan Pura, Sikar - RSPCB",14-03-2024 01:00:00,27.608912,75.153302,PM2.5,13,76,56
India,Rajasthan,Sikar,"Radhakishan Pura, Sikar - RSPCB",14-03-2024 01:00:00,27.608912,75.153302,NO2,5,57,28
India,Rajasthan,Sikar,"Radhakishan Pura, Sikar - RSPCB",14-03-2024 01:00:00,27.608912,75.153302,NH3,2,7,4
India,Rajasthan,Sikar,"Radhakishan Pura, Sikar - RSPCB",14-03-2024 01:00:00,27.608912,75.153302,SO2,4,26,9
India,Rajasthan,Sri Ganganagar,"Old City, Sri Ganganagar - RSPCB",14-03-2024 01:00:00,29.931624,73.864511,NH3,5,31,15
India,Rajasthan,Sri Ganganagar,"Old City, Sri Ganganagar - RSPCB",14-03-2024 01:00:00,29.931624,73.864511,CO,16,110,102
India,Rajasthan,Tonk,"Shastri Nagar, Tonk - RSPCB",14-03-2024 01:00:00,26.159933,75.780517,NH3,6,13,7
India,Rajasthan,Tonk,"Shastri Nagar, Tonk - RSPCB",14-03-2024 01:00:00,26.159933,75.780517,OZONE,22,45,30
India,Rajasthan,Udaipur,"Ashok Nagar, Udaipur - RSPCB",14-03-2024 01:00:00,24.5886166,73.6321397,NH3,9,10,9
India,Sikkim,Gangtok,"Zero Point GICI, Gangtok - SSPCB",14-03-2024 01:00:00,27.338530,88.614099,OZONE,32,103,60
India,TamilNadu,Ariyalur,"Keelapalur, Ariyalur - TNPCB",14-03-2024 01:00:00,11.06825,79.07033,NH3,NA,NA,NA
India,TamilNadu,Chengalpattu,"Crescent University, Chengalpattu - TNPCB",14-03-2024 01:00:00,12.8777316,80.0834807,PM10,NA,NA,NA
India,TamilNadu,Chennai,"Alandur Bus Depot, Chennai - CPCB",14-03-2024 01:00:00,12.9099161,80.1076538,PM2.5,34,94,55
India,TamilNadu,Chennai,"Kodungaiyur, Chennai - TNPCB",14-03-2024 01:00:00,13.1278,80.2642,CO,16,37,32
India,TamilNadu,Chennai,"Manali, Chennai - CPCB",14-03-2024 01:00:00,13.164544,80.26285,NO2,7,9,8
India,TamilNadu,Chennai,"Manali, Chennai - CPCB",14-03-2024 01:00:00,13.164544,80.26285,OZONE,7,18,12
India,TamilNadu,Chennai,"Perungudi, Chennai - TNPCB",14-03-2024 01:00:00,12.9533,80.2357,PM2.5,49,84,63
India,TamilNadu,Chennai,"Perungudi, Chennai - TNPCB",14-03-2024 01:00:00,12.9533,80.2357,PM10,57,124,88
India,TamilNadu,Chennai,"Perungudi, Chennai - TNPCB",14-03-2024 01:00:00,12.9533,80.2357,CO,2,78,16
India,TamilNadu,Chennai,"Royapuram, Chennai - TNPCB",14-03-2024 01:00:00,13.1036,80.2909,SO2,1,3,2
India,TamilNadu,Chennai,"Royapuram, Chennai - TNPCB",14-03-2024 01:00:00,13.1036,80.2909,OZONE,8,10,9
India,TamilNadu,Chennai,"Velachery Res. Area, Chennai - CPCB",14-03-2024 01:00:00,13.0052189,80.2398125,NO2,8,24,16
India,TamilNadu,Coimbatore,"PSG College of Arts and Science, Coimbatore - TNPCB",14-03-2024 01:00:00,11.0328,77.0349,PM2.5,50,117,85
India,TamilNadu,Cuddalore,"Kudikadu, Cuddalore - TNPCB",14-03-2024 01:00:00,11.6829898,79.7532099,NH3,NA,NA,NA
India,TamilNadu,Cuddalore,"Semmandalam, Cuddalore - TNPCB",14-03-2024 01:00:00,11.7637683,79.7499835,NO2,4,13,8
India,TamilNadu,Gummidipoondi,"Anthoni Pillai Nagar, Gummidipoondi - TNPCB",14-03-2024 01:00:00,13.4127,80.1081,PM10,75,152,105
India,TamilNadu,Gummidipoondi,"Anthoni Pillai Nagar, Gummidipoondi - TNPCB",14-03-2024 01:00:00,13.4127,80.1081,NO2,9,21,14
India,TamilNadu,Kanchipuram,"Kilambi, Kanchipuram - TNPCB",14-03-2024 01:00:00,12.864618,79.659968,NO2,NA,NA,NA
India,TamilNadu,Palkalaiperur,"Bharathidasan University, Palkalaiperur - TNPCB",14-03-2024 01:00:00,10.681158,78.741746,PM2.5,35,55,46
India,TamilNadu,Palkalaiperur,"Bharathidasan University, Palkalaiperur - TNPCB",14-03-2024 01:00:00,10.681158,78.741746,CO,2,9,5
India,TamilNadu,Thoothukudi,"Meelavittan, Thoothukudi - TNPCB",14-03-2024 01:00:00,8.816428 ,78.099039,CO,1,72,21
India,TamilNadu,Tirupur,"Kumaran College, Tirupur - TNPCB",14-03-2024 01:00:00,11.0973603,77.3228673,PM10,112,180,144
India,TamilNadu,Tirupur,"Kumaran College, Tirupur - TNPCB",14-03-2024 01:00:00,11.0973603,77.3228673,NH3,NA,NA,NA
India,TamilNadu,Tirupur,"Kumaran College, Tirupur - TNPCB",14-03-2024 01:00:00,11.0973603,77.3228673,OZONE,6,7,7
India,TamilNadu,Vellore,"Vasanthapuram, Vellore - TNPCB",14-03-2024 01:00:00,12.909494,79.131861,CO,46,66,65
India,Telangana,Hyderabad,"Bollaram Industrial Area, Hyderabad - TSPCB",14-03-2024 01:00:00,17.540891,78.358528,CO,17,88,40
India,Telangana,Hyderabad,"Central University, Hyderabad - TSPCB",14-03-2024 01:00:00,17.460103,78.334361,NH3,3,11,6
India,Telangana,Hyderabad,"Central University, Hyderabad - TSPCB",14-03-2024 01:00:00,17.460103,78.334361,OZONE,3,4,3
India,Telangana,Hyderabad,"ICRISAT Patancheru, Hyderabad - TSPCB",14-03-2024 01:00:00,17.518400,78.278777,NH3,2,2,2
India,Telangana,Hyderabad,"IITH Kandi, Hyderabad - TSPCB",14-03-2024 01:00:00,17.585705,78.126199,OZONE,44,57,44
India,Telangana,Hyderabad,"Kokapet, Hyderabad - TSPCB",14-03-2024 01:00:00,17.393559,78.339194,PM2.5,53,160,82
India,Telangana,Hyderabad,"Kompally Municipal Office, Hyderabad - TSPCB",14-03-2024 01:00:00,17.544899,78.486949,NO2,9,12,11
India,Telangana,Hyderabad,"Nacharam_TSIIC IALA, Hyderabad - TSPCB",14-03-2024 01:00:00,17.429398,78.569354,CO,13,26,13
India,Telangana,Hyderabad,"New Malakpet, Hyderabad - TSPCB",14-03-2024 01:00:00,17.37206,78.50864,SO2,11,25,17
India,Telangana,Hyderabad,"Ramachandrapuram, Hyderabad - TSPCB",14-03-2024 01:00:00,17.528544,78.286195,PM10,NA,NA,NA
India,Telangana,Hyderabad,"Sanathnagar, Hyderabad - TSPCB",14-03-2024 01:00:00,17.4559458,78.4332152,OZONE,10,129,15
India,Telangana,Hyderabad,"Somajiguda, Hyderabad - TSPCB",14-03-2024 01:00:00,17.417094,78.457437,NO2,19,45,28
India,Telangana,Hyderabad,"Somajiguda, Hyderabad - TSPCB",14-03-2024 01:00:00,17.417094,78.457437,OZONE,12,25,19
India,Telangana,Hyderabad,"Zoo Park, Hyderabad - TSPCB",14-03-2024 01:00:00,17.349694,78.451437,NH3,1,2,1
India,Telangana,Hyderabad,"Zoo Park, Hyderabad - TSPCB",14-03-2024 01:00:00,17.349694,78.451437,CO,28,68,49
India,Tripura,Agartala,"Bardowali, Agartala - Tripura SPCB",14-03-2024 01:00:00,23.8175497,91.2726974,CO,18,100,63
India,Uttar_Pradesh,Agra,"Manoharpur, Agra - UPPCB",14-03-2024 01:00:00,27.23711,78.01936,PM2.5,26,128,60
India,Uttar_Pradesh,Agra,"Shahjahan Garden, Agra - UPPCB",14-03-2024 01:00:00,27.169338,78.03582,SO2,28,55,45
India,Uttar_Pradesh,Agra,"Shahjahan Garden, Agra - UPPCB",14-03-2024 01:00:00,27.169338,78.03582,OZONE,7,21,15
India,Uttar_Pradesh,Agra,"Shastripuram, Agra - UPPCB",14-03-2024 01:00:00,27.19862,77.92066,NH3,NA,NA,NA
India,Uttar_Pradesh,Agra,"Shastripuram, Agra - UPPCB",14-03-2024 01:00:00,27.19862,77.92066,SO2,16,18,17
India,Uttar_Pradesh,Bareilly,"Rajendra Nagar, Bareilly - UPPCB",14-03-2024 01:00:00,28.38910936,79.42963708,NO2,14,39,26
India,Uttar_Pradesh,Bareilly,"Rajendra Nagar, Bareilly - UPPCB",14-03-2024 01:00:00,28.38910936,79.42963708,NH3,1,6,1
India,Uttar_Pradesh,Bulandshahr,"Yamunapuram, Bulandshahr - UPPCB",14-03-2024 01:00:00,28.406963,77.849831,NO2,20,104,61
India,Uttar_Pradesh,Firozabad,"Nagla Bhau, Firozabad - UPPCB",14-03-2024 01:00:00,27.168897,78.376960,PM10,17,90,33
India,Uttar_Pradesh,Firozabad,"Vibhab Nagar, Firozabad - UPPCB",14-03-2024 01:00:00,27.1594,78.3953,PM2.5,35,364,69
India,Uttar_Pradesh,Ghaziabad,"Indirapuram, Ghaziabad - UPPCB",14-03-2024 01:00:00,28.646233,77.358075,CO,13,78,52
India,Uttar_Pradesh,Ghaziabad,"Indirapuram, Ghaziabad - UPPCB",14-03-2024 01:00:00,28.646233,77.358075,OZONE,5,53,28
India,Uttar_Pradesh,Ghaziabad,"Loni, Ghaziabad - UPPCB",14-03-2024 01:00:00,28.757294,77.278792,OZONE,2,115,13
India,Uttar_Pradesh,Ghaziabad,"Vasundhara, Ghaziabad - UPPCB",14-03-2024 01:00:00,28.6603346,77.3572563,PM2.5,31,247,122
India,Uttar_Pradesh,Ghaziabad,"Vasundhara, Ghaziabad - UPPCB",14-03-2024 01:00:00,28.6603346,77.3572563,PM10,62,165,112
India,Uttar_Pradesh,Greater Noida,"Knowledge Park - III, Greater Noida - UPPCB",14-03-2024 01:00:00,28.47272,77.482000,PM10,85,279,150
India,Uttar_Pradesh,Greater Noida,"Knowledge Park - V, Greater Noida - UPPCB",14-03-2024 01:00:00,28.557054,77.453663,NO2,13,42,32
India,Uttar_Pradesh,Jhansi,"Shivaji Nagar, Jhansi - UPPCB",14-03-2024 01:00:00,25.4547,78.6039,NO2,6,41,16
India,Uttar_Pradesh,Kanpur,"FTI Kidwai Nagar, Kanpur - UPPCB",14-03-2024 01:00:00,26.428282,80.327067,PM10,68,147,102
India,Uttar_Pradesh,Kanpur,"FTI Kidwai Nagar, Kanpur - UPPCB",14-03-2024 01:00:00,26.428282,80.327067,NO2,20,21,21
India,Uttar_Pradesh,Kanpur,"NSI Kalyanpur, Kanpur - UPPCB",14-03-2024 01:00:00,26.509954,80.249612,OZONE,30,75,56
India,Uttar_Pradesh,Kanpur,"Nehru Nagar, Kanpur - UPPCB",14-03-2024 01:00:00,26.4703136,80.3229863,SO2,6,11,9
India,Uttar_Pradesh,Khurja,"Kalindi Kunj, Khurja - UPPCB",14-03-2024 01:00:00,28.2348927,77.8683002,NH3,1,2,1
India,Uttar_Pradesh,Lucknow,"B R Ambedkar University, Lucknow - UPPCB",14-03-2024 01:00:00,26.766433,80.927299,PM2.5,21,150,61
India,Uttar_Pradesh,Lucknow,"B R Ambedkar University, Lucknow - UPPCB",14-03-2024 01:00:00,26.766433,80.927299,SO2,29,37,31
India,Uttar_Pradesh,Lucknow,"B R Ambedkar University, Lucknow - UPPCB",14-03-2024 01:00:00,26.766433,80.927299,OZONE,2,71,26
India,Uttar_Pradesh,Lucknow,"Gomti Nagar, Lucknow - UPPCB",14-03-2024 01:00:00,26.868120,81.005119,SO2,4,15,10
India,Uttar_Pradesh,Lucknow,"Gomti Nagar, Lucknow - UPPCB",14-03-2024 01:00:00,26.868120,81.005119,CO,37,45,41
India,Uttar_Pradesh,Lucknow,"Lalbagh, Lucknow - CPCB",14-03-2024 01:00:00,26.8458805,80.9365541,PM10,44,186,110
India,Uttar_Pradesh,Meerut,"Ganga Nagar, Meerut - UPPCB",14-03-2024 01:00:00,28.999264,77.7590354,PM10,62,142,107
India,Uttar_Pradesh,Meerut,"Ganga Nagar, Meerut - UPPCB",14-03-2024 01:00:00,28.999264,77.7590354,CO,3,21,11
India,Uttar_Pradesh,Meerut,"Jai Bhim Nagar, Meerut - UPPCB",14-03-2024 01:00:00,28.9535882,77.7622941,PM2.5,21,142,75
India,Uttar_Pradesh,Meerut,"Jai Bhim Nagar, Meerut - UPPCB",14-03-2024 01:00:00,28.9535882,77.7622941,NO2,10,58,28
India,Uttar_Pradesh,Meerut,"Jai Bhim Nagar, Meerut - UPPCB",14-03-2024 01:00:00,28.9535882,77.7622941,SO2,16,39,23
India,Uttar_Pradesh,Meerut,"Pallavpuram Phase 2, Meerut - UPPCB",14-03-2024 01:00:00,29.063510,77.709723,SO2,6,54,25
India,Uttar_Pradesh,Moradabad,"Buddhi Vihar, Moradabad - UPPCB",14-03-2024 01:00:00,28.83526,78.74460,PM2.5,24,144,71
India,Uttar_Pradesh,Moradabad,"Buddhi Vihar, Moradabad - UPPCB",14-03-2024 01:00:00,28.83526,78.74460,NO2,23,23,23
India,Uttar_Pradesh,Moradabad,"Buddhi Vihar, Moradabad - UPPCB",14-03-2024 01:00:00,28.83526,78.74460,NH3,2,2,2
India,Uttar_Pradesh,Moradabad,"Eco Herbal Park, Moradabad - UPPCB",14-03-2024 01:00:00,28.840739,78.697531,PM10,43,104,72
India,Uttar_Pradesh,Moradabad,"Eco Herbal Park, Moradabad - UPPCB",14-03-2024 01:00:00,28.840739,78.697531,SO2,6,46,19
India,Uttar_Pradesh,Moradabad,"Jigar Colony, Moradabad - UPPCB",14-03-2024 01:00:00,28.856664,78.772638,OZONE,19,31,24
India,Uttar_Pradesh,Muzaffarnagar,"New Mandi, Muzaffarnagar - UPPCB",14-03-2024 01:00:00,29.4723508,77.7194031,PM2.5,61,333,225
India,Uttar_Pradesh,Muzaffarnagar,"New Mandi, Muzaffarnagar - UPPCB",14-03-2024 01:00:00,29.4723508,77.7194031,SO2,21,62,41
India,Uttar_Pradesh,Noida,"Sector - 125, Noida - UPPCB",14-03-2024 01:00:00,28.5447608,77.3231257,SO2,10,48,22
India,Uttar_Pradesh,Noida,"Sector-116, Noida - UPPCB",14-03-2024 01:00:00,28.569230,77.393848,NH3,5,10,8
India,Uttar_Pradesh,Prayagraj,"Jhunsi, Prayagraj - UPPCB",14-03-2024 01:00:00,25.425602,81.917152,OZONE,1,27,7
India,Uttar_Pradesh,Prayagraj,"Motilal Nehru NIT, Prayagraj - UPPCB",14-03-2024 01:00:00,25.494,81.863,OZONE,5,35,22
India,Uttar_Pradesh,Prayagraj,"Nagar Nigam, Prayagraj - UPPCB",14-03-2024 01:00:00,25.44919916 ,81.82735986 ,PM10,59,228,116
India,Uttar_Pradesh,Prayagraj,"Nagar Nigam, Prayagraj - UPPCB",14-03-2024 01:00:00,25.44919916 ,81.82735986 ,CO,10,70,44
India,Uttar_Pradesh,Varanasi,"Ardhali Bazar, Varanasi - UPPCB",14-03-2024 01:00:00,25.3505986,82.9083074,NO2,5,31,13
India,Uttar_Pradesh,Varanasi,"Bhelupur, Varanasi - UPPCB",14-03-2024 01:00:00,25.301778,82.996789,CO,22,97,58
India,Uttar_Pradesh,Varanasi,"Maldahiya, Varanasi - UPPCB",14-03-2024 01:00:00,25.32393,82.99687,PM10,18,56,33
India,Uttar_Pradesh,Varanasi,"Maldahiya, Varanasi - UPPCB",14-03-2024 01:00:00,25.32393,82.99687,NO2,1,2,1
India,Uttar_Pradesh,Vrindavan,"Omex Eternity, Vrindavan - UPPCB",14-03-2024 01:00:00,27.5714090,77.6557570,OZONE,30,35,31
India,Uttarakhand,Dehradun,"Doon University, Dehradun - UKPCB",14-03-2024 01:00:00,30.269444,78.044167,PM10,49,120,93
India,Uttarakhand,Kashipur,"Govt. Girls Inter College, Kashipur - UKPCB",14-03-2024 01:00:00,29.2124114,78.9611753,PM2.5,29,92,65
India,Uttarakhand,Kashipur,"Govt. Girls Inter College, Kashipur - UKPCB",14-03-2024 01:00:00,29.2124114,78.9611753,CO,22,54,42
India,Uttarakhand,Rishikesh,"Shivaji Nagar, Rishikesh - UKPCB",14-03-2024 01:00:00,30.075911,78.2859547,NH3,2,4,3
India,Uttarakhand,Rishikesh,"Shivaji Nagar, Rishikesh - UKPCB",14-03-2024 01:00:00,30.075911,78.2859547,OZONE,11,99,59
India,West_Bengal,Asansol,"Asansol Court Area, Asansol - WBPCB",14-03-2024 01:00:00,23.685297,86.945968,PM10,79,156,110
India,West_Bengal,Haldia,"Priyambada Housing Estate, Haldia - WBPCB",14-03-2024 01:00:00,22.06047,88.109737,CO,18,36,20
India,West_Bengal,Howrah,"Belur Math, Howrah - WBPCB",14-03-2024 01:00:00,22.629801,88.352017,SO2,9,15,13
India,West_Bengal,Howrah,"Ghusuri, Howrah - WBPCB",14-03-2024 01:00:00,22.611968,88.347422,NH3,NA,NA,NA
India,West_Bengal,Howrah,"Ghusuri, Howrah - WBPCB",14-03-2024 01:00:00,22.611968,88.347422,CO,4,19,11
India,West_Bengal,Howrah,"Ghusuri, Howrah - WBPCB",14-03-2024 01:00:00,22.611968,88.347422,OZONE,15,28,17
India,West_Bengal,Howrah,"Padmapukur, Howrah - WBPCB",14-03-2024 01:00:00,22.5687319,88.2797276,SO2,7,54,14
India,West_Bengal,Kolkata,"Bidhannagar, Kolkata - WBPCB",14-03-2024 01:00:00,22.58157048,88.41002457,PM10,43,89,73
India,West_Bengal,Kolkata,"Bidhannagar, Kolkata - WBPCB",14-03-2024 01:00:00,22.58157048,88.41002457,NH3,8,12,10
India,West_Bengal,Kolkata,"Fort William, Kolkata - WBPCB",14-03-2024 01:00:00,22.556640,88.342674,SO2,4,13,6
India,West_Bengal,Kolkata,"Jadavpur, Kolkata - WBPCB",14-03-2024 01:00:00,22.49929,88.36917,PM10,51,77,66
India,West_Bengal,Kolkata,"Jadavpur, Kolkata - WBPCB",14-03-2024 01:00:00,22.49929,88.36917,NO2,1,5,1
India,West_Bengal,Kolkata,"Rabindra Sarobar, Kolkata - WBPCB",14-03-2024 01:00:00,22.51106,88.35142,PM2.5,43,67,53
India,West_Bengal,Kolkata,"Rabindra Sarobar, Kolkata - WBPCB",14-03-2024 01:00:00,22.51106,88.35142,CO,14,23,20
India,West_Bengal,Kolkata,"Rabindra Sarobar, Kolkata - WBPCB",14-03-2024 01:00:00,22.51106,88.35142,OZONE,3,91,17
India,West_Bengal,Siliguri,"Ward-32 Bapupara, Siliguri - WBPCB",14-03-2024 01:00:00,26.6879226,88.4152495,PM10,116,369,178
India,Andhra_Pradesh,Anantapur,"Gulzarpet, Anantapur - APPCB",14-03-2024 01:00:00,14.675886,77.593027,SO2,6,18,9
India,Andhra_Pradesh,Chittoor,"Gangineni Cheruvu, Chittoor - APPCB",14-03-2024 01:00:00,13.204880,79.097889,NH3,1,3,2
India,Andhra_Pradesh,Chittoor,"Gangineni Cheruvu, Chittoor - APPCB",14-03-2024 01:00:00,13.204880,79.097889,CO,38,84,52
India,Andhra_Pradesh,Kadapa,"Yerramukkapalli, Kadapa - APPCB",14-03-2024 01:00:00,14.465052,78.824187,PM10,40,150,68
India,Andhra_Pradesh,Kadapa,"Yerramukkapalli, Kadapa - APPCB",14-03-2024 01:00:00,14.465052,78.824187,OZONE,25,93,82
India,Andhra_Pradesh,Tirupati,"Tirumala, Tirupati - APPCB",14-03-2024 01:00:00,13.67,79.35,SO2,6,27,11
India,Andhra_Pradesh,Tirupati,"Tirumala, Tirupati - APPCB",14-03-2024 01:00:00,13.67,79.35,OZONE,36,67,49
India,Andhra_Pradesh,Tirupati,"Vaikuntapuram, Tirupati - APPCB",14-03-2024 01:00:00,13.615387,79.409230,PM10,NA,NA,NA
India,Andhra_Pradesh,Tirupati,"Vaikuntapuram, Tirupati - APPCB",14-03-2024 01:00:00,13.615387,79.409230,SO2,NA,NA,NA
India,Andhra_Pradesh,Tirupati,"Vaikuntapuram, Tirupati - APPCB",14-03-2024 01:00:00,13.615387,79.409230,OZONE,21,64,48
India,Andhra_Pradesh,Vijayawada,"HB Colony, Vijayawada - APPCB",14-03-2024 01:00:00,16.536107,80.594233,CO,26,34,32
India,Andhra_Pradesh,Vijayawada,"Kanuru, Vijayawada - APPCB",14-03-2024 01:00:00,16.486692,80.699436,SO2,6,10,8
India,Andhra_Pradesh,Vijayawada,"Kanuru, Vijayawada - APPCB",14-03-2024 01:00:00,16.486692,80.699436,OZONE,33,33,33
India,Andhra_Pradesh,Vijayawada,"Rajiv Gandhi Park, Vijayawada - APPCB",14-03-2024 01:00:00,16.509717,80.612222,PM2.5,45,71,61
India,Andhra_Pradesh,Vijayawada,"Rajiv Nagar, Vijayawada - APPCB",14-03-2024 01:00:00,16.554731,80.649110,NO2,9,13,11
India,Andhra_Pradesh,Vijayawada,"Rajiv Nagar, Vijayawada - APPCB",14-03-2024 01:00:00,16.554731,80.649110,CO,34,34,34
India,Assam,Byrnihat,"Central Academy for SFS, Byrnihat - PCBA",14-03-2024 01:00:00,26.071318,91.87488,PM10,NA,NA,NA
India,Assam,Byrnihat,"Central Academy for SFS, Byrnihat - PCBA",14-03-2024 01:00:00,26.071318,91.87488,NH3,NA,NA,NA
India,Assam,Byrnihat,"Central Academy for SFS, Byrnihat - PCBA",14-03-2024 01:00:00,26.071318,91.87488,CO,39,100,42
India,Assam,Guwahati,"IITG, Guwahati - PCBA",14-03-2024 01:00:00,26.2028636,91.70046436,PM2.5,NA,NA,NA
India,Assam,Guwahati,"IITG, Guwahati - PCBA",14-03-2024 01:00:00,26.2028636,91.70046436,PM10,NA,NA,NA
India,Assam,Guwahati,"LGBI Airport, Guwahati - PCBA",14-03-2024 01:00:00,26.10887,91.589544,SO2,12,15,14
India,Assam,Guwahati,"LGBI Airport, Guwahati - PCBA",14-03-2024 01:00:00,26.10887,91.589544,OZONE,1,72,30
India,Assam,Guwahati,"Pan Bazaar, Guwahati - PCBA",14-03-2024 01:00:00,26.187500,91.744194,SO2,76,92,84
India,Assam,Guwahati,"Railway Colony, Guwahati - PCBA",14-03-2024 01:00:00,26.181742,91.78063,CO,18,75,32
India,Assam,Nagaon,"Christianpatty, Nagaon - PCBA",14-03-2024 01:00:00,26.349082,92.68449,PM2.5,33,277,97
India,Assam,Nagaon,"Christianpatty, Nagaon - PCBA",14-03-2024 01:00:00,26.349082,92.68449,OZONE,8,137,67
India,Assam,Nalbari,"Bata Chowk, Nalbari - PCBA",14-03-2024 01:00:00,26.446912,91.439057,NH3,1,5,2
India,Assam,Silchar,"Tarapur, Silchar - PCBA",14-03-2024 01:00:00,24.82827,92.79525,NO2,15,15,15
India,Assam,Sivasagar,"Girls College, Sivasagar - PCBA",14-03-2024 01:00:00,26.987634,94.636574,SO2,3,8,5
India,Bihar,Araria,"Kharahiya Basti, Araria - BSPCB",14-03-2024 01:00:00,26.146529,87.454184,PM10,91,154,129
India,Bihar,Araria,"Kharahiya Basti, Araria - BSPCB",14-03-2024 01:00:00,26.146529,87.454184,SO2,13,17,16
India,Bihar,Araria,"Kharahiya Basti, Araria - BSPCB",14-03-2024 01:00:00,26.146529,87.454184,CO,22,30,26
India,Bihar,Arrah,"New DM Office, Arrah - BSPCB",14-03-2024 01:00:00,25.5626095,84.663264,NO2,NA,NA,NA
India,Bihar,Aurangabad,"Gurdeo Nagar, Aurangabad - BSPCB",14-03-2024 01:00:00,24.75746,84.366208,PM10,NA,NA,NA
India,Bihar,Aurangabad,"Gurdeo Nagar, Aurangabad - BSPCB",14-03-2024 01:00:00,24.75746,84.366208,NO2,NA,NA,NA
India,Bihar,Bettiah,"Kamalnath Nagar, Bettiah - BSPCB",14-03-2024 01:00:00,26.80365,84.51954,NO2,32,44,40
India,Bihar,Bhagalpur,"DM Office_Kachari Chowk, Bhagalpur - BSPCB",14-03-2024 01:00:00,25.251013,86.989001,PM10,83,312,131
India,Bihar,Bhagalpur,"DM Office_Kachari Chowk, Bhagalpur - BSPCB",14-03-2024 01:00:00,25.251013,86.989001,NH3,9,12,11
India,Bihar,Bhagalpur,"DM Office_Kachari Chowk, Bhagalpur - BSPCB",14-03-2024 01:00:00,25.251013,86.989001,OZONE,43,53,46
India,Bihar,Bihar Sharif,"D M Colony, Bihar Sharif - BSPCB",14-03-2024 01:00:00,25.204762,85.514960,PM2.5,50,180,113
India,Bihar,Bihar Sharif,"D M Colony, Bihar Sharif - BSPCB",14-03-2024 01:00:00,25.204762,85.514960,CO,3,66,31
India,Bihar,Chhapra,"Darshan Nagar, Chhapra - BSPCB",14-03-2024 01:00:00,25.7808257,84.7446768,NH3,7,13,10
India,Bihar,Chhapra,"Darshan Nagar, Chhapra - BSPCB",14-03-2024 01:00:00,25.7808257,84.7446768,OZONE,8,26,13
India,Bihar,Gaya,"Collectorate, Gaya - BSPCB",14-03-2024 01:00:00,24.7955,84.9994,NO2,1,6,2
India,Bihar,Gaya,"Collectorate, Gaya - BSPCB",14-03-2024 01:00:00,24.7955,84.9994,SO2,6,27,14
India,Bihar,Gaya,"Kareemganj, Gaya - BSPCB",14-03-2024 01:00:00,24.792403,84.992416,PM10,60,254,122
India,Bihar,Gaya,"Kareemganj, Gaya - BSPCB",14-03-2024 01:00:00,24.792403,84.992416,NO2,22,31,30
India,Bihar,Gaya,"SFTI Kusdihra, Gaya - BSPCB",14-03-2024 01:00:00,24.762518,84.982348,PM2.5,24,158,69
India,Bihar,Gaya,"SFTI Kusdihra, Gaya - BSPCB",14-03-2024 01:00:00,24.762518,84.982348,CO,2,46,24
India,Bihar,Hajipur,"Industrial Area, Hajipur - BSPCB",14-03-2024 01:00:00,25.697189,85.245900,PM10,85,185,136
India,Bihar,Hajipur,"Industrial Area, Hajipur - BSPCB",14-03-2024 01:00:00,25.697189,85.245900,NO2,43,59,48
India,Bihar,Katihar,"Mirchaibari, Katihar - BSPCB",14-03-2024 01:00:00,25.560083,87.553265,CO,15,106,103
India,Bihar,Kishanganj,"SDM Office_Khagra, Kishanganj - BSPCB",14-03-2024 01:00:00,26.0881305,87.93840336,PM10,108,240,150
India,Bihar,Kishanganj,"SDM Office_Khagra, Kishanganj - BSPCB",14-03-2024 01:00:00,26.0881305,87.93840336,NO2,35,44,39
India,Bihar,Kishanganj,"SDM Office_Khagra, Kishanganj - BSPCB",14-03-2024 01:00:00,26.0881305,87.93840336,NH3,11,12,12
India,Bihar,Manguraha,"Forest Rest House, Manguraha - BSPCB",14-03-2024 01:00:00,27.308328,84.531742,PM10,NA,NA,NA
India,Bihar,Motihari,"Gandak Colony, Motihari - BSPCB",14-03-2024 01:00:00,26.63086,84.90051,NO2,50,100,77
India,Bihar,Munger,"Town Hall, Munger - BSPCB",14-03-2024 01:00:00,25.376776,86.471523,NH3,1,2,2
India,Bihar,Muzaffarpur,"Buddha Colony, Muzaffarpur - BSPCB",14-03-2024 01:00:00,26.11442,85.39813,SO2,NA,NA,NA
India,Bihar,Muzaffarpur,"Buddha Colony, Muzaffarpur - BSPCB",14-03-2024 01:00:00,26.11442,85.39813,CO,NA,NA,NA
India,Bihar,Muzaffarpur,"Buddha Colony, Muzaffarpur - BSPCB",14-03-2024 01:00:00,26.11442,85.39813,OZONE,NA,NA,NA
India,Bihar,Muzaffarpur,"MIT-Daudpur Kothi, Muzaffarpur - BSPCB",14-03-2024 01:00:00,26.1403345,85.3650192,PM10,84,187,117
India,Bihar,Patna,"Govt. High School Shikarpur, Patna - BSPCB",14-03-2024 01:00:00,25.592539,85.227158,PM10,109,216,133
India,Bihar,Patna,"Muradpur, Patna - BSPCB",14-03-2024 01:00:00,25.619651,85.147382,SO2,6,15,10
India,Bihar,Patna,"Rajbansi Nagar, Patna - BSPCB",14-03-2024 01:00:00,25.599486,85.113666,NO2,21,45,30
India,Bihar,Patna,"Samanpura, Patna - BSPCB",14-03-2024 01:00:00,25.596727,85.085624,PM10,113,424,201
India,Bihar,Patna,"Samanpura, Patna - BSPCB",14-03-2024 01:00:00,25.596727,85.085624,NO2,12,65,30
India,Bihar,Patna,"Samanpura, Patna - BSPCB",14-03-2024 01:00:00,25.596727,85.085624,CO,66,163,113
India,Bihar,Purnia,"Mariam Nagar, Purnia - BSPCB",14-03-2024 01:00:00,25.366336,87.117468,PM2.5,42,147,74
India,Bihar,Purnia,"Mariam Nagar, Purnia - BSPCB",14-03-2024 01:00:00,25.366336,87.117468,SO2,2,21,13
India,Bihar,Samastipur,"DM Office_Kasipur, Samastipur - BSPCB",14-03-2024 01:00:00,25.859655,85.77944,PM2.5,30,277,85
India,Bihar,Samastipur,"DM Office_Kasipur, Samastipur - BSPCB",14-03-2024 01:00:00,25.859655,85.77944,OZONE,9,14,10
India,Bihar,Siwan,"Chitragupta Nagar, Siwan - BSPCB",14-03-2024 01:00:00,26.2271665,84.3570427,PM10,74,159,105
India,Bihar,Siwan,"Chitragupta Nagar, Siwan - BSPCB",14-03-2024 01:00:00,26.2271665,84.3570427,NO2,9,80,28
India,Chandigarh,Chandigarh,"Sector 22, Chandigarh - CPCC",14-03-2024 01:00:00,30.735567,76.775714,PM10,51,356,138
India,Chandigarh,Chandigarh,"Sector-53, Chandigarh - CPCC",14-03-2024 01:00:00,30.719859,76.738637,PM10,107,223,147
India,Chandigarh,Chandigarh,"Sector-53, Chandigarh - CPCC",14-03-2024 01:00:00,30.719859,76.738637,SO2,9,24,15
India,Chhattisgarh,Bhilai,"32Bungalows, Bhilai - CECB",14-03-2024 01:00:00,21.194815,81.314770,OZONE,4,41,14
India,Chhattisgarh,Bhilai,"Hathkhoj, Bhilai - CECB",14-03-2024 01:00:00,21.224231,81.408350,NO2,18,76,39
India,Chhattisgarh,Bilaspur,"Mangala, Bilaspur - NTPC",14-03-2024 01:00:00,22.08815,82.13737,NO2,NA,NA,NA
India,Chhattisgarh,Bilaspur,"Mangala, Bilaspur - NTPC",14-03-2024 01:00:00,22.08815,82.13737,SO2,7,14,12
India,Chhattisgarh,Korba,"Rampur, Korba - CECB",14-03-2024 01:00:00,22.368195,82.746431,CO,18,30,24
India,Chhattisgarh,Korba,"Urja Nagar, Korba - CECB",14-03-2024 01:00:00,22.348441,82.549611,NO2,68,81,75
India,Chhattisgarh,Korba,"Urja Nagar, Korba - CECB",14-03-2024 01:00:00,22.348441,82.549611,OZONE,1,3,1
India,Chhattisgarh,Kunjemura,"OP Jindal School, Kunjemura - CECB",14-03-2024 01:00:00,22.126650,83.483212,CO,19,50,33
India,Chhattisgarh,Raipur,"AIIMS, Raipur - CECB",14-03-2024 01:00:00,21.258815,81.578979,NO2,33,74,58
India,Chhattisgarh,Raipur,"Krishak Nagar, Raipur - CECB",14-03-2024 01:00:00,21.237755,81.705301,NH3,1,1,1
India,Chhattisgarh,Raipur,"Krishak Nagar, Raipur - CECB",14-03-2024 01:00:00,21.237755,81.705301,SO2,7,23,13
India,Chhattisgarh,Raipur,"Siltara Phase-II, Raipur - CECB",14-03-2024 01:00:00,21.371751,81.664929,PM2.5,32,298,121
India,Chhattisgarh,Raipur,"Siltara Phase-II, Raipur - CECB",14-03-2024 01:00:00,21.371751,81.664929,NO2,38,76,56
India,Chhattisgarh,Raipur,"Siltara Phase-II, Raipur - CECB",14-03-2024 01:00:00,21.371751,81.664929,CO,22,72,54
India,Chhattisgarh,Tumidih,"OP Jindal Industrial Park, Tumidih - CECB",14-03-2024 01:00:00,22.06631475,83.33820077,PM2.5,NA,NA,NA
India,Chhattisgarh,Tumidih,"OP Jindal Industrial Park, Tumidih - CECB",14-03-2024 01:00:00,22.06631475,83.33820077,NO2,NA,NA,NA
India,Delhi,Delhi,"Alipur, Delhi - DPCC",14-03-2024 01:00:00,28.815329,77.153010,PM2.5,50,365,186
India,Delhi,Delhi,"Alipur, Delhi - DPCC",14-03-2024 01:00:00,28.815329,77.153010,OZONE,5,131,40
India,Delhi,Delhi,"Ashok Vihar, Delhi - DPCC",14-03-2024 01:00:00,28.695381,77.181665,PM10,108,260,179
India,Delhi,Delhi,"Ashok Vihar, Delhi - DPCC",14-03-2024 01:00:00,28.695381,77.181665,CO,14,80,54
India,Delhi,Delhi,"Aya Nagar, Delhi - IMD",14-03-2024 01:00:00,28.4706914,77.1099364,CO,9,97,80
India,Delhi,Delhi,"Bawana, Delhi - DPCC",14-03-2024 01:00:00,28.776200,77.051074,OZONE,3,106,44
India,Delhi,Delhi,"Burari Crossing, Delhi - IMD",14-03-2024 01:00:00,28.7256504,77.2011573,OZONE,3,39,12
India,Delhi,Delhi,"CRRI Mathura Road, Delhi - IMD",14-03-2024 01:00:00,28.5512005,77.2735737,PM2.5,NA,NA,NA
India,Delhi,Delhi,"Chandni Chowk, Delhi - IITM",14-03-2024 01:00:00,28.656756,77.227234,PM10,58,224,164
India,Delhi,Delhi,"DTU, Delhi - CPCB",14-03-2024 01:00:00,28.7500499,77.1112615,PM2.5,69,324,167
India,Delhi,Delhi,"DTU, Delhi - CPCB",14-03-2024 01:00:00,28.7500499,77.1112615,CO,24,60,34
India,Delhi,Delhi,"Dr. Karni Singh Shooting Range, Delhi - DPCC",14-03-2024 01:00:00,28.498571,77.264840,PM10,88,194,135
India,Delhi,Delhi,"Dr. Karni Singh Shooting Range, Delhi - DPCC",14-03-2024 01:00:00,28.498571,77.264840,CO,24,101,70
India,Delhi,Delhi,"Dwarka-Sector 8, Delhi - DPCC ",14-03-2024 01:00:00,28.5710274,77.0719006,OZONE,1,76,17
India,Delhi,Delhi,"IGI Airport (T3), Delhi - IMD",14-03-2024 01:00:00,28.5627763,77.1180053,PM10,99,167,126
India,Delhi,Delhi,"IHBAS, Dilshad Garden, Delhi - CPCB",14-03-2024 01:00:00,28.6811736,77.3025234,NO2,30,45,37
India,Delhi,Delhi,"IHBAS, Dilshad Garden, Delhi - CPCB",14-03-2024 01:00:00,28.6811736,77.3025234,SO2,1,20,8
India,Delhi,Delhi,"ITO, Delhi - CPCB",14-03-2024 01:00:00,28.628624,77.241060,NO2,12,257,83
India,Delhi,Delhi,"ITO, Delhi - CPCB",14-03-2024 01:00:00,28.628624,77.241060,NH3,3,13,6
India,Delhi,Delhi,"ITO, Delhi - CPCB",14-03-2024 01:00:00,28.628624,77.241060,SO2,1,24,16
India,Delhi,Delhi,"Jahangirpuri, Delhi - DPCC",14-03-2024 01:00:00,28.732820,77.170633,PM2.5,46,357,202
India,Delhi,Delhi,"Jahangirpuri, Delhi - DPCC",14-03-2024 01:00:00,28.732820,77.170633,NO2,25,103,75
India,Delhi,Delhi,"Jahangirpuri, Delhi - DPCC",14-03-2024 01:00:00,28.732820,77.170633,NH3,12,19,14
India,Delhi,Delhi,"Jahangirpuri, Delhi - DPCC",14-03-2024 01:00:00,28.732820,77.170633,SO2,2,36,17
India,Delhi,Delhi,"Jawaharlal Nehru Stadium, Delhi - DPCC",14-03-2024 01:00:00,28.580280,77.233829,NO2,NA,NA,NA
India,Delhi,Delhi,"Jawaharlal Nehru Stadium, Delhi - DPCC",14-03-2024 01:00:00,28.580280,77.233829,SO2,NA,NA,NA
India,Delhi,Delhi,"Lodhi Road, Delhi - IMD",14-03-2024 01:00:00,28.5918245,77.2273074,PM10,72,147,109
India,Delhi,Delhi,"Major Dhyan Chand National Stadium, Delhi - DPCC",14-03-2024 01:00:00,28.611281,77.237738,PM10,55,188,120
India,Delhi,Delhi,"Mandir Marg, Delhi - DPCC",14-03-2024 01:00:00,28.636429,77.201067,PM10,54,157,107
India,Delhi,Delhi,"Mandir Marg, Delhi - DPCC",14-03-2024 01:00:00,28.636429,77.201067,NO2,146,193,165
India,Delhi,Delhi,"Mandir Marg, Delhi - DPCC",14-03-2024 01:00:00,28.636429,77.201067,NH3,10,13,11
India,Delhi,Delhi,"Mundka, Delhi - DPCC",14-03-2024 01:00:00,28.684678,77.076574,SO2,7,92,21
India,Delhi,Delhi,"NSIT Dwarka, Delhi - CPCB",14-03-2024 01:00:00,28.60909,77.0325413,SO2,18,26,21
India,Delhi,Delhi,"Najafgarh, Delhi - DPCC",14-03-2024 01:00:00,28.570173,76.933762,OZONE,6,150,51
India,Delhi,Delhi,"Narela, Delhi - DPCC",14-03-2024 01:00:00,28.822836,77.101981,PM2.5,50,439,222
India,Delhi,Delhi,"Narela, Delhi - DPCC",14-03-2024 01:00:00,28.822836,77.101981,PM10,86,405,197
India,Delhi,Delhi,"Nehru Nagar, Delhi - DPCC",14-03-2024 01:00:00,28.567890,77.250515,NH3,5,10,8
India,Delhi,Delhi,"Nehru Nagar, Delhi - DPCC",14-03-2024 01:00:00,28.567890,77.250515,SO2,6,17,9
India,Delhi,Delhi,"North Campus, DU, Delhi - IMD",14-03-2024 01:00:00,28.6573814,77.1585447,OZONE,1,26,9
India,Delhi,Delhi,"Okhla Phase-2, Delhi - DPCC",14-03-2024 01:00:00,28.530785,77.271255,NH3,8,13,10
India,Delhi,Delhi,"Patparganj, Delhi - DPCC",14-03-2024 01:00:00,28.623763,77.287209,NO2,38,71,51
India,Delhi,Delhi,"Punjabi Bagh, Delhi - DPCC",14-03-2024 01:00:00,28.674045,77.131023,SO2,28,37,32
India,Delhi,Delhi,"Punjabi Bagh, Delhi - DPCC",14-03-2024 01:00:00,28.674045,77.131023,OZONE,7,54,16
India,Delhi,Delhi,"Shadipur, Delhi - CPCB",14-03-2024 01:00:00,28.6514781,77.1473105,SO2,11,30,19
India,Delhi,Delhi,"Sirifort, Delhi - CPCB",14-03-2024 01:00:00,28.5504249,77.2159377,SO2,40,44,41
India,Delhi,Delhi,"Sonia Vihar, Delhi - DPCC",14-03-2024 01:00:00,28.710508,77.249485,NO2,20,101,59
India,Delhi,Delhi,"Sonia Vihar, Delhi - DPCC",14-03-2024 01:00:00,28.710508,77.249485,SO2,8,31,17
India,Delhi,Delhi,"Sri Aurobindo Marg, Delhi - DPCC",14-03-2024 01:00:00,28.531346,77.190156,CO,10,111,40
India,Delhi,Delhi,"Vivek Vihar, Delhi - DPCC",14-03-2024 01:00:00,28.672342,77.315260,PM10,93,402,167
India,Delhi,Delhi,"Vivek Vihar, Delhi - DPCC",14-03-2024 01:00:00,28.672342,77.315260,NH3,5,8,6
India,Delhi,Delhi,"Vivek Vihar, Delhi - DPCC",14-03-2024 01:00:00,28.672342,77.315260,OZONE,1,47,11
India,Delhi,Delhi,"Wazirpur, Delhi - DPCC",14-03-2024 01:00:00,28.699793,77.165453,PM2.5,45,336,189
India,Delhi,Delhi,"Wazirpur, Delhi - DPCC",14-03-2024 01:00:00,28.699793,77.165453,NO2,46,165,115
India,Delhi,Delhi,"Wazirpur, Delhi - DPCC",14-03-2024 01:00:00,28.699793,77.165453,SO2,19,71,40
India,Gujarat,Ahmedabad,"Chandkheda, Ahmedabad - IITM",14-03-2024 01:00:00,23.107969,72.574648,SO2,6,15,9
India,Gujarat,Ahmedabad,"Gyaspur, Ahmedabad - IITM",14-03-2024 01:00:00,22.977134,72.553024,PM2.5,36,336,184
India,Gujarat,Ahmedabad,"Gyaspur, Ahmedabad - IITM",14-03-2024 01:00:00,22.977134,72.553024,SO2,3,6,4
India,Gujarat,Ahmedabad,"Gyaspur, Ahmedabad - IITM",14-03-2024 01:00:00,22.977134,72.553024,CO,24,26,25
India,Gujarat,Ahmedabad,"Maninagar, Ahmedabad - GPCB",14-03-2024 01:00:00,23.002657,72.591912,CO,25,117,65
India,Gujarat,Ahmedabad,"Raikhad, Ahmedabad - IITM",14-03-2024 01:00:00,23.020509,72.579261,PM10,136,243,163
India,Gujarat,Ahmedabad,"Rakhial, Ahmedabad - IITM",14-03-2024 01:00:00,23.016834,72.625775,CO,2,64,27
India,Gujarat,Ahmedabad,"SVPI Airport Hansol, Ahmedabad - IITM",14-03-2024 01:00:00,23.076793,72.627874,PM2.5,53,166,74
India,Gujarat,Ahmedabad,"Sardar Vallabhbhai Patel Stadium, Ahmedabad - IITM",14-03-2024 01:00:00,23.043070,72.562968,PM10,76,142,97
India,Gujarat,Ahmedabad,"Sardar Vallabhbhai Patel Stadium, Ahmedabad - IITM",14-03-2024 01:00:00,23.043070,72.562968,SO2,1,21,7
India,Gujarat,Gandhinagar,"GIFT City, Gandhinagar - IITM",14-03-2024 01:00:00,23.163798,72.677768,PM10,71,142,97
India,Gujarat,Gandhinagar,"GIFT City, Gandhinagar - IITM",14-03-2024 01:00:00,23.163798,72.677768,SO2,2,7,4
India,Gujarat,Surat,"Science Center, Surat - SMC",14-03-2024 01:00:00,21.170046,72.795405,SO2,17,29,20
India,Gujarat,Vapi,"Phase-1 GIDC, Vapi - GPCB",14-03-2024 01:00:00,20.362421,72.918013,PM2.5,31,205,77
India,Gujarat,Vapi,"Phase-1 GIDC, Vapi - GPCB",14-03-2024 01:00:00,20.362421,72.918013,NH3,2,2,2
India,Gujarat,Vapi,"Phase-1 GIDC, Vapi - GPCB",14-03-2024 01:00:00,20.362421,72.918013,OZONE,1,3,1
India,Haryana,Ambala,"Patti Mehar, Ambala - HSPCB",14-03-2024 01:00:00,30.379589,76.778328,PM10,68,132,94
India,Haryana,Bahadurgarh,"Arya Nagar, Bahadurgarh - HSPCB",14-03-2024 01:00:00,28.6701,76.9254,PM2.5,50,318,179
India,Haryana,Bahadurgarh,"Arya Nagar, Bahadurgarh - HSPCB",14-03-2024 01:00:00,28.6701,76.9254,NH3,10,13,11
India,Haryana,Bhiwani,"H.B. Colony, Bhiwani - HSPCB",14-03-2024 01:00:00,28.806223,76.141105,NH3,6,6,6
India,Haryana,Bhiwani,"H.B. Colony, Bhiwani - HSPCB",14-03-2024 01:00:00,28.806223,76.141105,CO,26,40,34
India,Haryana,Charkhi Dadri,"Mini Secretariat, Charkhi Dadri - HSPCB",14-03-2024 01:00:00,28.593883,76.270653,NO2,10,84,18
India,Haryana,Dharuhera,"Municipal Corporation Office, Dharuhera -  HSPCB",14-03-2024 01:00:00,28.206800,76.799700,PM2.5,37,276,104
India,Haryana,Faridabad,"New Industrial Town, Faridabad - HSPCB",14-03-2024 01:00:00,28.39072,77.30059,SO2,18,30,26
India,Haryana,Faridabad,"New Industrial Town, Faridabad - HSPCB",14-03-2024 01:00:00,28.39072,77.30059,OZONE,11,226,87
India,Haryana,Faridabad,"Sector 11, Faridabad - HSPCB",14-03-2024 01:00:00,28.376058,77.315741,PM2.5,38,128,84
India,Haryana,Faridabad,"Sector 30, Faridabad - HSPCB",14-03-2024 01:00:00,28.4417,77.3217,PM10,147,160,154
India,Haryana,Fatehabad,"Huda Sector, Fatehabad - HSPCB",14-03-2024 01:00:00,29.503664,75.467934,SO2,4,12,8
India,Haryana,Gurugram,"Teri Gram, Gurugram - HSPCB",14-03-2024 01:00:00,28.4275,77.1465,PM2.5,95,316,180
India,Haryana,Gurugram,"Teri Gram, Gurugram - HSPCB",14-03-2024 01:00:00,28.4275,77.1465,PM10,210,404,282
India,Haryana,Gurugram,"Teri Gram, Gurugram - HSPCB",14-03-2024 01:00:00,28.4275,77.1465,OZONE,9,15,13
India,Haryana,Hisar,"Urban Estate-II, Hisar - HSPCB",14-03-2024 01:00:00,29.140560,75.744941,PM10,62,133,96
India,Haryana,Hisar,"Urban Estate-II, Hisar - HSPCB",14-03-2024 01:00:00,29.140560,75.744941,OZONE,36,119,68
India,Haryana,Jind,"Police Lines, Jind - HSPCB",14-03-2024 01:00:00,29.307814,76.337619,CO,2,122,7
India,Haryana,Kaithal,"Rishi Nagar, Kaithal - HSPCB",14-03-2024 01:00:00,29.8006,76.4155,PM10,103,244,135
India,Haryana,Kaithal,"Rishi Nagar, Kaithal - HSPCB",14-03-2024 01:00:00,29.8006,76.4155,OZONE,10,36,21
India,Haryana,Karnal,"Sector-12, Karnal - HSPCB",14-03-2024 01:00:00,29.695300,77.002700,SO2,12,13,12
India,Haryana,Kurukshetra,"Sector-7, Kurukshetra - HSPCB",14-03-2024 01:00:00,29.966942,76.875879,PM2.5,57,147,85
India,Haryana,Kurukshetra,"Sector-7, Kurukshetra - HSPCB",14-03-2024 01:00:00,29.966942,76.875879,OZONE,9,62,28
India,Haryana,Mandikhera,"General Hospital, Mandikhera - HSPCB",14-03-2024 01:00:00,27.9002,76.9938,NO2,16,22,19
India,Haryana,Mandikhera,"General Hospital, Mandikhera - HSPCB",14-03-2024 01:00:00,27.9002,76.9938,OZONE,19,32,26
India,Haryana,Manesar,"Sector-2 IMT, Manesar - HSPCB",14-03-2024 01:00:00,28.360699,76.936090,PM10,57,137,96
India,Haryana,Palwal,"Shyam Nagar, Palwal - HSPCB",14-03-2024 01:00:00,28.1485564,77.3320667,CO,12,34,24
India,Haryana,Panchkula,"Sector-6, Panchkula - HSPCB ",14-03-2024 01:00:00,30.7057778,76.8531805555555,NO2,28,31,30
India,Haryana,Panipat,"Sector-18, Panipat - HSPCB",14-03-2024 01:00:00,29.497973,76.993331,NO2,31,32,31
India,Haryana,Panipat,"Sector-18, Panipat - HSPCB",14-03-2024 01:00:00,29.497973,76.993331,SO2,18,19,19
India,Haryana,Sonipat,"Murthal, Sonipat - HSPCB",14-03-2024 01:00:00,29.027200,77.062100,PM10,NA,NA,NA
India,Haryana,Sonipat,"Murthal, Sonipat - HSPCB",14-03-2024 01:00:00,29.027200,77.062100,NO2,NA,NA,NA
India,Haryana,Sonipat,"Murthal, Sonipat - HSPCB",14-03-2024 01:00:00,29.027200,77.062100,NH3,NA,NA,NA
India,Haryana,Sonipat,"Murthal, Sonipat - HSPCB",14-03-2024 01:00:00,29.027200,77.062100,OZONE,17,35,24
India,Haryana,Yamuna Nagar,"Gobind Pura, Yamuna Nagar - HSPCB",14-03-2024 01:00:00,30.1480566,77.2893471,NO2,12,28,17
India,Haryana,Yamuna Nagar,"Gobind Pura, Yamuna Nagar - HSPCB",14-03-2024 01:00:00,30.1480566,77.2893471,SO2,2,13,7
India,Himachal Pradesh,Baddi,"HIMUDA Complex Phase-1, Baddi - HPPCB",14-03-2024 01:00:00,30.943887,76.801991,PM2.5,18,349,125
India,Himachal Pradesh,Baddi,"HIMUDA Complex Phase-1, Baddi - HPPCB",14-03-2024 01:00:00,30.943887,76.801991,NH3,3,6,4
India,Jharkhand,Dhanbad,"Sardar Patel Nagar, Dhanbad - JSPCB",14-03-2024 01:00:00,23.80569,86.44268,PM2.5,16,329,86
India,Jharkhand,Dhanbad,"Sardar Patel Nagar, Dhanbad - JSPCB",14-03-2024 01:00:00,23.80569,86.44268,CO,121,158,125
India,Jharkhand,Pathardih,"Mohalbani Ghat, Pathardih - DMC",14-03-2024 01:00:00,23.669880,86.411725,CO,31,115,42
India,Karnataka,Belgaum,"Ramteerth Nagar, Belgaum - KSPCB",14-03-2024 01:00:00,15.888653,74.541751,PM2.5,27,63,44
India,Karnataka,Bengaluru,"BTM Layout, Bengaluru - CPCB",14-03-2024 01:00:00,12.9135218,77.5950804,NH3,4,4,4
India,Karnataka,Bengaluru,"BTM Layout, Bengaluru - CPCB",14-03-2024 01:00:00,12.9135218,77.5950804,CO,37,38,38
India,Karnataka,Bengaluru,"BTM Layout, Bengaluru - CPCB",14-03-2024 01:00:00,12.9135218,77.5950804,OZONE,25,93,56
India,Karnataka,Bengaluru,"Bapuji Nagar, Bengaluru - KSPCB",14-03-2024 01:00:00,12.951913,77.539784,PM2.5,87,250,161
India,Karnataka,Bengaluru,"Bapuji Nagar, Bengaluru - KSPCB",14-03-2024 01:00:00,12.951913,77.539784,CO,26,54,36
India,Karnataka,Bengaluru,"Hebbal, Bengaluru - KSPCB",14-03-2024 01:00:00,13.029152,77.585901,CO,3,51,22
India,Karnataka,Bengaluru,"Hombegowda Nagar, Bengaluru - KSPCB",14-03-2024 01:00:00,12.938539,77.590100,NH3,2,3,3
India,Karnataka,Bengaluru,"Jayanagar 5th Block, Bengaluru - KSPCB",14-03-2024 01:00:00,12.920984,77.584908,PM2.5,84,248,118
India,Karnataka,Bengaluru,"Jayanagar 5th Block, Bengaluru - KSPCB",14-03-2024 01:00:00,12.920984,77.584908,NH3,4,9,5
India,Karnataka,Bengaluru,"Jayanagar 5th Block, Bengaluru - KSPCB",14-03-2024 01:00:00,12.920984,77.584908,CO,16,114,50
India,Karnataka,Bengaluru,"Jigani, Bengaluru - KSPCB",14-03-2024 01:00:00,12.7816279,77.6299145,PM10,61,136,106
India,Karnataka,Bengaluru,"Kasturi Nagar, Bengaluru - KSPCB",14-03-2024 01:00:00,13.003872,77.664217,PM2.5,107,271,152
India,Karnataka,Bengaluru,"Kasturi Nagar, Bengaluru - KSPCB",14-03-2024 01:00:00,13.003872,77.664217,OZONE,23,180,95
India,Karnataka,Bengaluru,"Peenya, Bengaluru - CPCB",14-03-2024 01:00:00,13.0270199,77.494094,PM10,62,127,83
India,Karnataka,Bengaluru,"Peenya, Bengaluru - CPCB",14-03-2024 01:00:00,13.0270199,77.494094,NH3,3,4,3
India,Karnataka,Bengaluru,"Peenya, Bengaluru - CPCB",14-03-2024 01:00:00,13.0270199,77.494094,SO2,8,20,16
India,Karnataka,Bengaluru,"Peenya, Bengaluru - CPCB",14-03-2024 01:00:00,13.0270199,77.494094,CO,10,65,50
India,Karnataka,Bengaluru,"RVCE-Mailasandra, Bengaluru - KSPCB",14-03-2024 01:00:00,12.921418,77.502466,PM2.5,NA,NA,NA
India,Karnataka,Bengaluru,"RVCE-Mailasandra, Bengaluru - KSPCB",14-03-2024 01:00:00,12.921418,77.502466,NO2,13,98,76
India,Karnataka,Bengaluru,"RVCE-Mailasandra, Bengaluru - KSPCB",14-03-2024 01:00:00,12.921418,77.502466,OZONE,10,72,10
India,Karnataka,Bengaluru,"Sanegurava Halli, Bengaluru - KSPCB",14-03-2024 01:00:00,12.990328,77.5431385,PM10,36,113,56
India,Karnataka,Bengaluru,"Sanegurava Halli, Bengaluru - KSPCB",14-03-2024 01:00:00,12.990328,77.5431385,CO,4,127,35
India,Karnataka,Bengaluru,"Silk Board, Bengaluru - KSPCB",14-03-2024 01:00:00,12.917348,77.622813,OZONE,21,50,34
India,Karnataka,Bidar,"Naubad, Bidar - KSPCB",14-03-2024 01:00:00,17.930306,77.482194,OZONE,27,45,33
India,Karnataka,Chamarajanagar,"Urban, Chamarajanagar - KSPCB",14-03-2024 01:00:00,11.55358,76.55521,NH3,1,2,2
India,Karnataka,Chamarajanagar,"Urban, Chamarajanagar - KSPCB",14-03-2024 01:00:00,11.55358,76.55521,OZONE,14,45,22
India,Karnataka,Chikkamagaluru,"Kalyana Nagara, Chikkamagaluru - KSPCB",14-03-2024 01:00:00,13.328028,75.797056,SO2,NA,NA,NA
India,Karnataka,Davanagere,"Devaraj Urs Badavane, Davanagere - KSPCB",14-03-2024 01:00:00,14.475800,75.905200,PM10,NA,NA,NA
India,Karnataka,Davanagere,"Devaraj Urs Badavane, Davanagere - KSPCB",14-03-2024 01:00:00,14.475800,75.905200,SO2,NA,NA,NA
India,Karnataka,Dharwad,"Kalabhavan, Dharwad - KSPCB",14-03-2024 01:00:00,15.459706,75.008381,PM2.5,33,117,70
India,Karnataka,Dharwad,"Kalabhavan, Dharwad - KSPCB",14-03-2024 01:00:00,15.459706,75.008381,NH3,2,2,2
India,Karnataka,Dharwad,"Kalabhavan, Dharwad - KSPCB",14-03-2024 01:00:00,15.459706,75.008381,SO2,3,16,4
India,Karnataka,Haveri,"Ashwini Nagar, Haveri - KSPCB",14-03-2024 01:00:00,14.791800,75.389600,PM10,NA,NA,NA
India,Karnataka,Hubballi,"Deshpande Nagar, Hubballi - KSPCB",14-03-2024 01:00:00,15.351773,75.140726,PM2.5,58,174,85
India,Karnataka,Hubballi,"Deshpande Nagar, Hubballi - KSPCB",14-03-2024 01:00:00,15.351773,75.140726,NO2,25,27,26
India,Karnataka,Hubballi,"Lingaraj Nagar, Hubballi - KSPCB",14-03-2024 01:00:00,15.3714823,75.1160168,SO2,NA,NA,NA
India,Karnataka,Kalaburagi,"Lal Bahadur Shastri Nagar, Kalaburagi - KSPCB",14-03-2024 01:00:00,17.321993,76.822628,PM10,70,174,100
India,Karnataka,Kalaburagi,"Lal Bahadur Shastri Nagar, Kalaburagi - KSPCB",14-03-2024 01:00:00,17.321993,76.822628,NO2,11,12,12
India,Karnataka,Kalaburagi,"Mahatma Basaveswar Colony, Kalaburgi - KSPCB",14-03-2024 01:00:00,17.336318,76.847397,SO2,4,30,10
India,Karnataka,Karwar,"KHB Colony, Karwar - KSPCB",14-03-2024 01:00:00,14.816666,74.141003,SO2,16,18,18
India,Karnataka,Kolar,"Tamaka Ind. Area, Kolar - KSPCB",14-03-2024 01:00:00,13.1276288,78.1570122,PM10,85,124,103
India,Karnataka,Koppal,"Diwator Nagar, Koppal - KSPCB",14-03-2024 01:00:00,15.347630,76.181767,PM2.5,17,48,33
India,Karnataka,Koppal,"Diwator Nagar, Koppal - KSPCB",14-03-2024 01:00:00,15.347630,76.181767,PM10,25,50,35
India,Karnataka,Koppal,"Diwator Nagar, Koppal - KSPCB",14-03-2024 01:00:00,15.347630,76.181767,CO,55,58,56
India,Karnataka,Madikeri,"Stuart Hill, Madikeri - KSPCB",14-03-2024 01:00:00,12.415911,75.735050,PM10,48,64,55
India,Karnataka,Mangalore,"Kadri, Mangalore - KSPCB",14-03-2024 01:00:00,12.889250,74.853000,PM10,72,116,94
India,Karnataka,Mangalore,"Kadri, Mangalore - KSPCB",14-03-2024 01:00:00,12.889250,74.853000,OZONE,30,32,31
India,Karnataka,Raichur,"Haji Colony, Raichur - KSPCB",14-03-2024 01:00:00,16.208139,77.348417,CO,92,151,129
India,Karnataka,Ramanagara,"Vijay Nagar, Ramanagara - KSPCB",14-03-2024 01:00:00,12.733409,77.298051,SO2,23,42,32
India,Karnataka,Ramanagara,"Vijay Nagar, Ramanagara - KSPCB",14-03-2024 01:00:00,12.733409,77.298051,OZONE,28,31,29
India,Karnataka,Shivamogga,"Vinoba Nagara, Shivamogga - KSPCB",14-03-2024 01:00:00,13.940000,75.555917,PM10,48,75,66
India,Karnataka,Shivamogga,"Vinoba Nagara, Shivamogga - KSPCB",14-03-2024 01:00:00,13.940000,75.555917,NO2,10,14,12
India,Karnataka,Shivamogga,"Vinoba Nagara, Shivamogga - KSPCB",14-03-2024 01:00:00,13.940000,75.555917,SO2,4,13,10
India,Karnataka,Udupi,"Brahmagiri, Udupi - KSPCB",14-03-2024 01:00:00,13.34194444,74.74694444,OZONE,23,23,23
India,Karnataka,Vijayapura,"Ibrahimpur, Vijayapura - KSPCB",14-03-2024 01:00:00,16.802639,75.722694,NO2,17,19,19
India,Karnataka,Vijayapura,"Ibrahimpur, Vijayapura - KSPCB",14-03-2024 01:00:00,16.802639,75.722694,SO2,NA,NA,NA
India,Karnataka,Vijayapura,"Ibrahimpur, Vijayapura - KSPCB",14-03-2024 01:00:00,16.802639,75.722694,CO,NA,NA,NA
India,Kerala,Eloor,"Udyogamandal, Eloor - Kerala PCB",14-03-2024 01:00:00,10.073232,76.302765,PM10,36,45,41
India,Kerala,Eloor,"Udyogamandal, Eloor - Kerala PCB",14-03-2024 01:00:00,10.073232,76.302765,NH3,1,1,1
India,Kerala,Kochi,"Vyttila, Kochi - Kerala PCB",14-03-2024 01:00:00,9.969447,76.321186,PM10,NA,NA,NA
India,Kerala,Kollam,"Polayathode, Kollam - Kerala PCB",14-03-2024 01:00:00,8.8787,76.6073,CO,3,22,16
India,Kerala,Thiruvananthapuram,"Kariavattom, Thiruvananthapuram - Kerala PCB",14-03-2024 01:00:00,8.563700,76.886500,PM2.5,70,85,76
India,Kerala,Thiruvananthapuram,"Kariavattom, Thiruvananthapuram - Kerala PCB",14-03-2024 01:00:00,8.563700,76.886500,PM10,80,97,86
India,Kerala,Thiruvananthapuram,"Kariavattom, Thiruvananthapuram - Kerala PCB",14-03-2024 01:00:00,8.563700,76.886500,OZONE,28,33,31
India,Kerala,Thiruvananthapuram,"Plammoodu, Thiruvananthapuram - Kerala PCB",14-03-2024 01:00:00,8.5149093,76.9435879,NO2,9,11,10
India,Kerala,Thiruvananthapuram,"Plammoodu, Thiruvananthapuram - Kerala PCB",14-03-2024 01:00:00,8.5149093,76.9435879,NH3,2,2,2
India,Kerala,Thiruvananthapuram,"Plammoodu, Thiruvananthapuram - Kerala PCB",14-03-2024 01:00:00,8.5149093,76.9435879,OZONE,6,62,21
India,Madhya Pradesh,Bhopal,"Idgah Hills, Bhopal - MPPCB",14-03-2024 01:00:00,23.264759,77.381568,OZONE,8,77,36
India,Madhya Pradesh,Bhopal,"Paryavaran Parisar, Bhopal - MPPCB",14-03-2024 01:00:00,23.210494,77.425409,PM2.5,8,143,40
India,Madhya Pradesh,Bhopal,"Paryavaran Parisar, Bhopal - MPPCB",14-03-2024 01:00:00,23.210494,77.425409,SO2,16,25,21
India,Madhya Pradesh,Bhopal,"Paryavaran Parisar, Bhopal - MPPCB",14-03-2024 01:00:00,23.210494,77.425409,OZONE,3,68,42
India,Madhya Pradesh,Bhopal,"T T Nagar, Bhopal - MPPCB",14-03-2024 01:00:00,23.233584,77.400574,NH3,3,7,6
India,Madhya Pradesh,Bhopal,"T T Nagar, Bhopal - MPPCB",14-03-2024 01:00:00,23.233584,77.400574,CO,14,68,35
India,Madhya Pradesh,Gwalior,"City Center, Gwalior - MPPCB",14-03-2024 01:00:00,26.203442,78.193251,SO2,14,28,19
India,Madhya Pradesh,Gwalior,"Deen Dayal Nagar, Gwalior - MPPCB",14-03-2024 01:00:00,26.259242,78.216432,NO2,29,114,70
India,Madhya Pradesh,Gwalior,"Maharaj Bada, Gwalior - MPPCB",14-03-2024 01:00:00,26.200388,78.147714,NO2,14,97,43
India,Madhya Pradesh,Indore,"Chhoti Gwaltoli, Indore - MPPCB",14-03-2024 01:00:00,22.4310,75.5213,PM10,60,150,108
India,Madhya Pradesh,Indore,"Chhoti Gwaltoli, Indore - MPPCB",14-03-2024 01:00:00,22.4310,75.5213,NH3,2,6,4
India,Madhya Pradesh,Indore,"Maguda Nagar, Indore - IMC",14-03-2024 01:00:00,22.7524,75.8872,NO2,5,7,6
India,Madhya Pradesh,Indore,"Regional Park, Indore - IMC",14-03-2024 01:00:00,22.6780,75.8559,PM2.5,28,115,53
