country,state,city,station,last_update,latitude,longitude,pollutant_id,pollutant_min,pollutant_max,pollutant_avg
India,Andhra_Pradesh,Amaravati,"Secretariat, Amaravati - APPCB",19-05-2024 23:00:00,16.5150833,80.5181667,SO2,9,12,10
India,Andhra_Pradesh,Anantapur,"Gulzarpet, Anantapur - APPCB",19-05-2024 23:00:00,14.675886,77.593027,OZONE,1,27,18
India,Andhra_Pradesh,Chittoor,"Gangineni Cheruvu, Chittoor - APPCB",19-05-2024 23:00:00,13.204880,79.097889,SO2,2,13,5
India,Andhra_Pradesh,Kadapa,"Yerramukkapalli, Kadapa - APPCB",19-05-2024 23:00:00,14.465052,78.824187,PM10,NA,NA,NA
India,Andhra_Pradesh,Kadapa,"Yerramukkapalli, Kadapa - APPCB",19-05-2024 23:00:00,14.465052,78.824187,CO,4,12,7
India,Andhra_Pradesh,Kadapa,"Yerramukkapalli, Kadapa - APPCB",19-05-2024 23:00:00,14.465052,78.824187,OZONE,11,33,32
India,Andhra_Pradesh,Rajamahendravaram,"Anand Kala Kshetram, Rajamahendravaram - APPCB",19-05-2024 23:00:00,16.9872867,81.7363176,SO2,11,13,12
India,Andhra_Pradesh,Tirupati,"Tirumala, Tirupati - APPCB",19-05-2024 23:00:00,13.67,79.35,NO2,15,31,24
India,Andhra_Pradesh,Tirupati,"Tirumala, Tirupati - APPCB",19-05-2024 23:00:00,13.67,79.35,NH3,1,1,1
India,Andhra_Pradesh,Vijayawada,"Kanuru, Vijayawada - APPCB",19-05-2024 23:00:00,16.486692,80.699436,OZONE,29,29,29
India,Andhra_Pradesh,Vijayawada,"Rajiv Gandhi Park, Vijayawada - APPCB",19-05-2024 23:00:00,16.509717,80.612222,OZONE,2,16,8
India,Andhra_Pradesh,Vijayawada,"Rajiv Nagar, Vijayawada - APPCB",19-05-2024 23:00:00,16.554731,80.649110,PM10,59,62,60
India,Andhra_Pradesh,Visakhapatnam,"GVM Corporation, Visakhapatnam - APPCB",19-05-2024 23:00:00,17.72,83.3,PM2.5,6,42,22
India,Andhra_Pradesh,Visakhapatnam,"GVM Corporation, Visakhapatnam - APPCB",19-05-2024 23:00:00,17.72,83.3,OZONE,7,199,106
India,Arunachal_Pradesh,Naharlagun,"Naharlagun, Naharlagun - APSPCB",19-05-2024 23:00:00,27.103358,93.679645,PM2.5,2,54,23
India,Arunachal_Pradesh,Naharlagun,"Naharlagun, Naharlagun - APSPCB",19-05-2024 23:00:00,27.103358,93.679645,SO2,4,4,4
India,Arunachal_Pradesh,Naharlagun,"Naharlagun, Naharlagun - APSPCB",19-05-2024 23:00:00,27.103358,93.679645,CO,5,22,17
India,Assam,Byrnihat,"Central Academy for SFS, Byrnihat - PCBA",19-05-2024 23:00:00,26.071318,91.87488,OZONE,22,24,23
India,Assam,Guwahati,"IITG, Guwahati - PCBA",19-05-2024 23:00:00,26.2028636,91.70046436,PM10,28,123,45
India,Assam,Guwahati,"LGBI Airport, Guwahati - PCBA",19-05-2024 23:00:00,26.10887,91.589544,PM2.5,8,347,116
India,Assam,Nagaon,"Christianpatty, Nagaon - PCBA",19-05-2024 23:00:00,26.349082,92.68449,PM10,63,114,84
India,Assam,Nagaon,"Christianpatty, Nagaon - PCBA",19-05-2024 23:00:00,26.349082,92.68449,NO2,1,61,12
India,Assam,Nagaon,"Christianpatty, Nagaon - PCBA",19-05-2024 23:00:00,26.349082,92.68449,OZONE,14,82,46
India,Assam,Nalbari,"Bata Chowk, Nalbari - PCBA",19-05-2024 23:00:00,26.446912,91.439057,NO2,10,24,15
India,Assam,Sivasagar,"Girls College, Sivasagar - PCBA",19-05-2024 23:00:00,26.987634,94.636574,NH3,2,2,2
India,Bihar,Araria,"Kharahiya Basti, Araria - BSPCB",19-05-2024 23:00:00,26.146529,87.454184,PM2.5,21,51,35
India,Bihar,Araria,"Kharahiya Basti, Araria - BSPCB",19-05-2024 23:00:00,26.146529,87.454184,SO2,12,17,14
India,Bihar,Arrah,"New DM Office, Arrah - BSPCB",19-05-2024 23:00:00,25.5626095,84.663264,SO2,NA,NA,NA
India,Bihar,Aurangabad,"Gurdeo Nagar, Aurangabad - BSPCB",19-05-2024 23:00:00,24.75746,84.366208,PM10,NA,NA,NA
India,Bihar,Aurangabad,"Gurdeo Nagar, Aurangabad - BSPCB",19-05-2024 23:00:00,24.75746,84.366208,OZONE,31,153,97
India,Bihar,Bhagalpur,"DM Office_Kachari Chowk, Bhagalpur - BSPCB",19-05-2024 23:00:00,25.251013,86.989001,OZONE,44,60,47
India,Bihar,Bhagalpur,"Mayaganj, Bhagalpur - BSPCB",19-05-2024 23:00:00,25.265194,87.012947,CO,2,24,7
India,Bihar,Bihar Sharif,"D M Colony, Bihar Sharif - BSPCB",19-05-2024 23:00:00,25.204762,85.514960,PM10,NA,NA,NA
India,Bihar,Bihar Sharif,"D M Colony, Bihar Sharif - BSPCB",19-05-2024 23:00:00,25.204762,85.514960,SO2,NA,NA,NA
India,Bihar,Buxar,"Charitra Van, Buxar - BSPCB (Formerly known as Central Jail)",19-05-2024 23:00:00,25.567520,83.966379,NO2,NA,NA,NA
India,Bihar,Gaya,"Collectorate, Gaya - BSPCB",19-05-2024 23:00:00,24.7955,84.9994,NO2,2,4,3
India,Bihar,Gaya,"Collectorate, Gaya - BSPCB",19-05-2024 23:00:00,24.7955,84.9994,CO,124,138,129
India,Bihar,Gaya,"Kareemganj, Gaya - BSPCB",19-05-2024 23:00:00,24.792403,84.992416,PM2.5,5,42,21
India,Bihar,Gaya,"Kareemganj, Gaya - BSPCB",19-05-2024 23:00:00,24.792403,84.992416,CO,12,20,17
India,Bihar,Gaya,"SFTI Kusdihra, Gaya - BSPCB",19-05-2024 23:00:00,24.762518,84.982348,SO2,8,12,10
India,Bihar,Hajipur,"Industrial Area, Hajipur - BSPCB",19-05-2024 23:00:00,25.697189,85.245900,PM2.5,82,327,150
India,Bihar,Katihar,"Mirchaibari, Katihar - BSPCB",19-05-2024 23:00:00,25.560083,87.553265,PM10,27,145,73
India,Bihar,Kishanganj,"SDM Office_Khagra, Kishanganj - BSPCB",19-05-2024 23:00:00,26.0881305,87.93840336,NO2,24,30,28
India,Bihar,Kishanganj,"SDM Office_Khagra, Kishanganj - BSPCB",19-05-2024 23:00:00,26.0881305,87.93840336,NH3,9,12,10
India,Bihar,Motihari,"Gandak Colony, Motihari - BSPCB",19-05-2024 23:00:00,26.63086,84.90051,NH3,2,8,6
India,Bihar,Muzaffarpur,"Buddha Colony, Muzaffarpur - BSPCB",19-05-2024 23:00:00,26.11442,85.39813,PM2.5,67,179,112
India,Bihar,Muzaffarpur,"Muzaffarpur Collectorate, Muzaffarpur - BSPCB",19-05-2024 23:00:00,26.1209,85.3647,NO2,23,49,33
India,Bihar,Patna,"DRM Office Danapur, Patna - BSPCB",19-05-2024 23:00:00,25.586562,85.043586,CO,10,42,33
India,Bihar,Patna,"Govt. High School Shikarpur, Patna - BSPCB",19-05-2024 23:00:00,25.592539,85.227158,OZONE,1,59,27
India,Bihar,Patna,"Muradpur, Patna - BSPCB",19-05-2024 23:00:00,25.619651,85.147382,SO2,7,12,8
India,Bihar,Patna,"Rajbansi Nagar, Patna - BSPCB",19-05-2024 23:00:00,25.599486,85.113666,NO2,5,24,11
India,Bihar,Patna,"Rajbansi Nagar, Patna - BSPCB",19-05-2024 23:00:00,25.599486,85.113666,OZONE,11,80,54
India,Bihar,Patna,"Samanpura, Patna - BSPCB",19-05-2024 23:00:00,25.596727,85.085624,NO2,2,29,11
India,Bihar,Patna,"Samanpura, Patna - BSPCB",19-05-2024 23:00:00,25.596727,85.085624,NH3,5,15,10
India,Bihar,Patna,"Samanpura, Patna - BSPCB",19-05-2024 23:00:00,25.596727,85.085624,CO,44,65,52
India,Bihar,Purnia,"Mariam Nagar, Purnia - BSPCB",19-05-2024 23:00:00,25.366336,87.117468,SO2,4,26,12
India,Bihar,Saharsa,"Police Line, Saharsa - BSPCB",19-05-2024 23:00:00,25.892357,86.590325,CO,54,55,54
India,Bihar,Samastipur,"DM Office_Kasipur, Samastipur - BSPCB",19-05-2024 23:00:00,25.859655,85.77944,PM10,NA,NA,NA
India,Bihar,Sasaram,"Dada Peer, Sasaram - BSPCB",19-05-2024 23:00:00,24.952822,84.002396,SO2,NA,NA,NA
India,Bihar,Sasaram,"Dada Peer, Sasaram - BSPCB",19-05-2024 23:00:00,24.952822,84.002396,CO,NA,NA,NA
India,Chandigarh,Chandigarh,"Sector-25, Chandigarh - CPCC",19-05-2024 23:00:00,30.751462,76.762879,CO,18,62,30
India,Chandigarh,Chandigarh,"Sector-25, Chandigarh - CPCC",19-05-2024 23:00:00,30.751462,76.762879,OZONE,1,44,25
India,Chandigarh,Chandigarh,"Sector-53, Chandigarh - CPCC",19-05-2024 23:00:00,30.719859,76.738637,SO2,8,38,18
India,Chandigarh,Chandigarh,"Sector-53, Chandigarh - CPCC",19-05-2024 23:00:00,30.719859,76.738637,CO,30,112,65
India,Chhattisgarh,Bhilai,"32Bungalows, Bhilai - CECB",19-05-2024 23:00:00,21.194815,81.314770,PM10,15,56,28
India,Chhattisgarh,Bhilai,"32Bungalows, Bhilai - CECB",19-05-2024 23:00:00,21.194815,81.314770,SO2,1,6,3
India,Chhattisgarh,Bhilai,"Civic Center, Bhilai - Bhilai Steel Plant",19-05-2024 23:00:00,21.185571,81.343175,PM10,11,51,20
India,Chhattisgarh,Bhilai,"Civic Center, Bhilai - Bhilai Steel Plant",19-05-2024 23:00:00,21.185571,81.343175,CO,31,54,43
India,Chhattisgarh,Bhilai,"Hathkhoj, Bhilai - CECB",19-05-2024 23:00:00,21.224231,81.408350,PM10,NA,NA,NA
India,Chhattisgarh,Bhilai,"Hathkhoj, Bhilai - CECB",19-05-2024 23:00:00,21.224231,81.408350,CO,7,76,15
India,Chhattisgarh,Chhal,"Nawapara SECL Colony, Chhal - CECB",19-05-2024 23:00:00,22.118125,83.140608,PM2.5,18,81,38
India,Chhattisgarh,Chhal,"Nawapara SECL Colony, Chhal - CECB",19-05-2024 23:00:00,22.118125,83.140608,NO2,11,32,17
India,Chhattisgarh,Korba,"Rampur, Korba - CECB",19-05-2024 23:00:00,22.368195,82.746431,OZONE,8,16,11
India,Chhattisgarh,Korba,"Urja Nagar, Korba - CECB",19-05-2024 23:00:00,22.348441,82.549611,NO2,50,66,59
India,Chhattisgarh,Kunjemura,"OP Jindal School, Kunjemura - CECB",19-05-2024 23:00:00,22.126650,83.483212,PM10,19,137,64
India,Chhattisgarh,Kunjemura,"OP Jindal School, Kunjemura - CECB",19-05-2024 23:00:00,22.126650,83.483212,NO2,13,67,32
India,Chhattisgarh,Kunjemura,"OP Jindal School, Kunjemura - CECB",19-05-2024 23:00:00,22.126650,83.483212,NH3,2,5,3
India,Chhattisgarh,Milupara,"Govt. Higher Secondary School, Milupara - CECB",19-05-2024 23:00:00,22.1910172,83.5197009,PM2.5,6,39,20
India,Chhattisgarh,Milupara,"Govt. Higher Secondary School, Milupara - CECB",19-05-2024 23:00:00,22.1910172,83.5197009,SO2,12,33,22
India,Chhattisgarh,Milupara,"Govt. Higher Secondary School, Milupara - CECB",19-05-2024 23:00:00,22.1910172,83.5197009,CO,18,48,28
India,Chhattisgarh,Raipur,"Bhatagaon New ISBT, Raipur - CECB",19-05-2024 23:00:00,21.219665,81.630094,CO,10,28,19
India,Chhattisgarh,Raipur,"Krishak Nagar, Raipur - CECB",19-05-2024 23:00:00,21.237755,81.705301,CO,18,26,22
India,Chhattisgarh,Raipur,"Siltara Phase-II, Raipur - CECB",19-05-2024 23:00:00,21.371751,81.664929,NH3,3,3,3
India,Chhattisgarh,Raipur,"Siltara Phase-II, Raipur - CECB",19-05-2024 23:00:00,21.371751,81.664929,CO,12,28,21
India,Delhi,Delhi,"Alipur, Delhi - DPCC",19-05-2024 23:00:00,28.815329,77.153010,PM2.5,33,371,187
India,Delhi,Delhi,"Anand Vihar, Delhi - DPCC",19-05-2024 23:00:00,28.647622,77.3158090,SO2,11,76,33
India,Delhi,Delhi,"Ashok Vihar, Delhi - DPCC",19-05-2024 23:00:00,28.695381,77.181665,NO2,14,117,56
India,Delhi,Delhi,"Aya Nagar, Delhi - IMD",19-05-2024 23:00:00,28.4706914,77.1099364,PM2.5,33,312,144
India,Delhi,Delhi,"Burari Crossing, Delhi - IMD",19-05-2024 23:00:00,28.7256504,77.2011573,PM2.5,54,330,212
India,Delhi,Delhi,"Burari Crossing, Delhi - IMD",19-05-2024 23:00:00,28.7256504,77.2011573,PM10,151,388,264
India,Delhi,Delhi,"Chandni Chowk, Delhi - IITM",19-05-2024 23:00:00,28.656756,77.227234,NH3,21,25,22
India,Delhi,Delhi,"Chandni Chowk, Delhi - IITM",19-05-2024 23:00:00,28.656756,77.227234,OZONE,9,13,11
India,Delhi,Delhi,"DTU, Delhi - CPCB",19-05-2024 23:00:00,28.7500499,77.1112615,PM2.5,88,374,239
India,Delhi,Delhi,"DTU, Delhi - CPCB",19-05-2024 23:00:00,28.7500499,77.1112615,OZONE,28,43,35
India,Delhi,Delhi,"Dr. Karni Singh Shooting Range, Delhi - DPCC",19-05-2024 23:00:00,28.498571,77.264840,SO2,17,62,39
India,Delhi,Delhi,"Dwarka-Sector 8, Delhi - DPCC ",19-05-2024 23:00:00,28.5710274,77.0719006,PM10,152,436,290
India,Delhi,Delhi,"Dwarka-Sector 8, Delhi - DPCC ",19-05-2024 23:00:00,28.5710274,77.0719006,NO2,29,132,65
India,Delhi,Delhi,"IHBAS, Dilshad Garden, Delhi - CPCB",19-05-2024 23:00:00,28.6811736,77.3025234,PM2.5,83,230,124
India,Delhi,Delhi,"IHBAS, Dilshad Garden, Delhi - CPCB",19-05-2024 23:00:00,28.6811736,77.3025234,NO2,9,38,28
India,Delhi,Delhi,"ITO, Delhi - CPCB",19-05-2024 23:00:00,28.628624,77.241060,CO,2,68,27
India,Delhi,Delhi,"Lodhi Road, Delhi - IMD",19-05-2024 23:00:00,28.5918245,77.2273074,NO2,8,35,20
India,Delhi,Delhi,"Major Dhyan Chand National Stadium, Delhi - DPCC",19-05-2024 23:00:00,28.611281,77.237738,PM10,108,292,173
India,Delhi,Delhi,"Major Dhyan Chand National Stadium, Delhi - DPCC",19-05-2024 23:00:00,28.611281,77.237738,NH3,8,10,9
India,Delhi,Delhi,"Najafgarh, Delhi - DPCC",19-05-2024 23:00:00,28.570173,76.933762,NO2,8,51,23
India,Delhi,Delhi,"Nehru Nagar, Delhi - DPCC",19-05-2024 23:00:00,28.567890,77.250515,NH3,3,6,5
India,Delhi,Delhi,"R K Puram, Delhi - DPCC",19-05-2024 23:00:00,28.563262,77.186937,CO,16,122,87
India,Delhi,Delhi,"Rohini, Delhi - DPCC",19-05-2024 23:00:00,28.732528,77.119920,PM10,145,440,262
India,Delhi,Delhi,"Shadipur, Delhi - CPCB",19-05-2024 23:00:00,28.6514781,77.1473105,OZONE,16,45,38
India,Delhi,Delhi,"Sirifort, Delhi - CPCB",19-05-2024 23:00:00,28.5504249,77.2159377,PM10,117,330,200
India,Delhi,Delhi,"Sri Aurobindo Marg, Delhi - DPCC",19-05-2024 23:00:00,28.531346,77.190156,PM10,140,351,194
India,Delhi,Delhi,"Sri Aurobindo Marg, Delhi - DPCC",19-05-2024 23:00:00,28.531346,77.190156,NO2,8,65,33
India,Delhi,Delhi,"Sri Aurobindo Marg, Delhi - DPCC",19-05-2024 23:00:00,28.531346,77.190156,CO,2,63,17
India,Delhi,Delhi,"Vivek Vihar, Delhi - DPCC",19-05-2024 23:00:00,28.672342,77.315260,OZONE,12,195,60
India,Delhi,Delhi,"Wazirpur, Delhi - DPCC",19-05-2024 23:00:00,28.699793,77.165453,PM2.5,47,378,212
India,Delhi,Delhi,"Wazirpur, Delhi - DPCC",19-05-2024 23:00:00,28.699793,77.165453,PM10,141,400,232
India,Delhi,Delhi,"Wazirpur, Delhi - DPCC",19-05-2024 23:00:00,28.699793,77.165453,NH3,8,15,13
India,Gujarat,Ahmedabad,"Chandkheda, Ahmedabad - IITM",19-05-2024 23:00:00,23.107969,72.574648,CO,2,66,4
India,Gujarat,Ahmedabad,"Gyaspur, Ahmedabad - IITM",19-05-2024 23:00:00,22.977134,72.553024,PM10,97,205,126
India,Gujarat,Ahmedabad,"Raikhad, Ahmedabad - IITM",19-05-2024 23:00:00,23.020509,72.579261,PM2.5,84,480,225
India,Gujarat,Ahmedabad,"Raikhad, Ahmedabad - IITM",19-05-2024 23:00:00,23.020509,72.579261,PM10,86,446,149
India,Gujarat,Ahmedabad,"Raikhad, Ahmedabad - IITM",19-05-2024 23:00:00,23.020509,72.579261,OZONE,18,103,61
India,Gujarat,Ahmedabad,"Sardar Vallabhbhai Patel Stadium, Ahmedabad - IITM",19-05-2024 23:00:00,23.043070,72.562968,NO2,31,54,36
India,Gujarat,Ahmedabad,"Sardar Vallabhbhai Patel Stadium, Ahmedabad - IITM",19-05-2024 23:00:00,23.043070,72.562968,SO2,12,27,18
India,Gujarat,Ankleshwar,"GIDC, Ankleshwar - GPCB",19-05-2024 23:00:00,21.613267,73.010555,NO2,21,56,31
India,Gujarat,Ankleshwar,"GIDC, Ankleshwar - GPCB",19-05-2024 23:00:00,21.613267,73.010555,SO2,3,89,21
India,Gujarat,Ankleshwar,"GIDC, Ankleshwar - GPCB",19-05-2024 23:00:00,21.613267,73.010555,OZONE,24,41,32
India,Gujarat,Gandhinagar,"Sector-10, Gandhinagar - GPCB",19-05-2024 23:00:00,23.221714,72.654328,CO,20,50,27
India,Gujarat,Vapi,"Phase-1 GIDC, Vapi - GPCB",19-05-2024 23:00:00,20.362421,72.918013,PM10,44,82,59
India,Gujarat,Vapi,"Phase-1 GIDC, Vapi - GPCB",19-05-2024 23:00:00,20.362421,72.918013,NO2,6,7,7
India,Haryana,Ambala,"Patti Mehar, Ambala - HSPCB",19-05-2024 23:00:00,30.379589,76.778328,PM10,92,362,141
India,Haryana,Bahadurgarh,"Arya Nagar, Bahadurgarh - HSPCB",19-05-2024 23:00:00,28.6701,76.9254,NH3,8,10,9
India,Haryana,Ballabgarh,"Nathu Colony, Ballabgarh - HSPCB",19-05-2024 23:00:00,28.3419248,77.319699,PM2.5,82,358,239
India,Haryana,Ballabgarh,"Nathu Colony, Ballabgarh - HSPCB",19-05-2024 23:00:00,28.3419248,77.319699,NO2,10,14,13
India,Haryana,Bhiwani,"H.B. Colony, Bhiwani - HSPCB",19-05-2024 23:00:00,28.806223,76.141105,PM10,62,143,116
India,Haryana,Charkhi Dadri,"Mini Secretariat, Charkhi Dadri - HSPCB",19-05-2024 23:00:00,28.593883,76.270653,PM10,40,91,69
India,Haryana,Charkhi Dadri,"Mini Secretariat, Charkhi Dadri - HSPCB",19-05-2024 23:00:00,28.593883,76.270653,NO2,15,26,18
India,Haryana,Dharuhera,"Municipal Corporation Office, Dharuhera -  HSPCB",19-05-2024 23:00:00,28.206800,76.799700,SO2,4,103,23
India,Haryana,Dharuhera,"Municipal Corporation Office, Dharuhera -  HSPCB",19-05-2024 23:00:00,28.206800,76.799700,OZONE,8,43,32
India,Haryana,Faridabad,"New Industrial Town, Faridabad - HSPCB",19-05-2024 23:00:00,28.39072,77.30059,OZONE,7,158,37
India,Haryana,Faridabad,"Sector 11, Faridabad - HSPCB",19-05-2024 23:00:00,28.376058,77.315741,CO,26,60,39
India,Haryana,Faridabad,"Sector 30, Faridabad - HSPCB",19-05-2024 23:00:00,28.4417,77.3217,PM10,NA,NA,NA
India,Haryana,Faridabad,"Sector- 16A, Faridabad - HSPCB",19-05-2024 23:00:00,28.4088421,77.3099081,CO,70,106,95
India,Haryana,Fatehabad,"Huda Sector, Fatehabad - HSPCB",19-05-2024 23:00:00,29.503664,75.467934,OZONE,52,88,63
India,Haryana,Gurugram,"NISE Gwal Pahari, Gurugram - IMD",19-05-2024 23:00:00,28.422681,77.148944,PM2.5,NA,NA,NA
India,Haryana,Gurugram,"NISE Gwal Pahari, Gurugram - IMD",19-05-2024 23:00:00,28.422681,77.148944,CO,65,104,72
India,Haryana,Gurugram,"NISE Gwal Pahari, Gurugram - IMD",19-05-2024 23:00:00,28.422681,77.148944,OZONE,42,140,60
India,Haryana,Gurugram,"Sector-51, Gurugram - HSPCB",19-05-2024 23:00:00,28.4227,77.0667,PM10,119,432,184
India,Haryana,Gurugram,"Sector-51, Gurugram - HSPCB",19-05-2024 23:00:00,28.4227,77.0667,OZONE,43,46,44
India,Haryana,Gurugram,"Teri Gram, Gurugram - HSPCB",19-05-2024 23:00:00,28.4275,77.1465,PM2.5,226,372,314
India,Haryana,Gurugram,"Teri Gram, Gurugram - HSPCB",19-05-2024 23:00:00,28.4275,77.1465,NO2,20,55,36
India,Haryana,Hisar,"Urban Estate-II, Hisar - HSPCB",19-05-2024 23:00:00,29.140560,75.744941,NH3,9,11,10
India,Haryana,Hisar,"Urban Estate-II, Hisar - HSPCB",19-05-2024 23:00:00,29.140560,75.744941,SO2,3,21,12
India,Haryana,Kaithal,"Rishi Nagar, Kaithal - HSPCB",19-05-2024 23:00:00,29.8006,76.4155,PM10,94,182,139
India,Haryana,Kaithal,"Rishi Nagar, Kaithal - HSPCB",19-05-2024 23:00:00,29.8006,76.4155,SO2,39,116,72
India,Haryana,Karnal,"Sector-12, Karnal - HSPCB",19-05-2024 23:00:00,29.695300,77.002700,PM2.5,50,214,114
India,Haryana,Kurukshetra,"Sector-7, Kurukshetra - HSPCB",19-05-2024 23:00:00,29.966942,76.875879,PM2.5,97,281,196
India,Haryana,Kurukshetra,"Sector-7, Kurukshetra - HSPCB",19-05-2024 23:00:00,29.966942,76.875879,SO2,2,3,3
India,Haryana,Manesar,"Sector-2 IMT, Manesar - HSPCB",19-05-2024 23:00:00,28.360699,76.936090,OZONE,3,121,68
India,Haryana,Palwal,"Shyam Nagar, Palwal - HSPCB",19-05-2024 23:00:00,28.1485564,77.3320667,PM10,75,136,103
India,Haryana,Palwal,"Shyam Nagar, Palwal - HSPCB",19-05-2024 23:00:00,28.1485564,77.3320667,OZONE,5,83,21
India,Haryana,Panipat,"Sector-18, Panipat - HSPCB",19-05-2024 23:00:00,29.432304,76.972765,PM10,90,92,91
India,Haryana,Panipat,"Sector-18, Panipat - HSPCB",19-05-2024 23:00:00,29.432304,76.972765,NO2,31,32,31
India,Haryana,Panipat,"Sector-18, Panipat - HSPCB",19-05-2024 23:00:00,29.432304,76.972765,NH3,2,3,2
India,Haryana,Rohtak,"MD University, Rohtak - HSPCB",19-05-2024 23:00:00,28.52123,76.37138,SO2,5,8,7
India,Haryana,Sonipat,"Murthal, Sonipat - HSPCB",19-05-2024 23:00:00,29.027200,77.062100,PM2.5,NA,NA,NA
India,Haryana,Sonipat,"Murthal, Sonipat - HSPCB",19-05-2024 23:00:00,29.027200,77.062100,CO,9,66,13
India,Haryana,Sonipat,"Murthal, Sonipat - HSPCB",19-05-2024 23:00:00,29.027200,77.062100,OZONE,17,36,35
India,Haryana,Yamuna Nagar,"Gobind Pura, Yamuna Nagar - HSPCB",19-05-2024 23:00:00,30.1480566,77.2893471,NO2,11,20,16
India,Himachal Pradesh,Baddi,"HIMUDA Complex Phase-1, Baddi - HPPCB",19-05-2024 23:00:00,30.943887,76.801991,NO2,10,115,52
India,Himachal Pradesh,Baddi,"HIMUDA Complex Phase-1, Baddi - HPPCB",19-05-2024 23:00:00,30.943887,76.801991,SO2,13,93,35
India,Jharkhand,Dhanbad,"Sardar Patel Nagar, Dhanbad - JSPCB",19-05-2024 23:00:00,23.80569,86.44268,PM2.5,2,69,43
India,Karnataka,Bagalkot,"Vidayagiri, Bagalkot - KSPCB",19-05-2024 23:00:00,16.172806,75.659694,NH3,1,2,1
India,Karnataka,Belgaum,"Ramteerth Nagar, Belgaum - KSPCB",19-05-2024 23:00:00,15.888653,74.541751,PM2.5,12,32,21
India,Karnataka,Belgaum,"Ramteerth Nagar, Belgaum - KSPCB",19-05-2024 23:00:00,15.888653,74.541751,NO2,11,50,34
India,Karnataka,Belgaum,"Ramteerth Nagar, Belgaum - KSPCB",19-05-2024 23:00:00,15.888653,74.541751,SO2,9,9,9
India,Karnataka,Bengaluru,"Jayanagar 5th Block, Bengaluru - KSPCB",19-05-2024 23:00:00,12.920984,77.584908,CO,20,22,21
India,Karnataka,Bengaluru,"Kasturi Nagar, Bengaluru - KSPCB",19-05-2024 23:00:00,13.003872,77.664217,PM2.5,23,23,23
India,Karnataka,Bengaluru,"Kasturi Nagar, Bengaluru - KSPCB",19-05-2024 23:00:00,13.003872,77.664217,OZONE,2,60,18
India,Karnataka,Bengaluru,"RVCE-Mailasandra, Bengaluru - KSPCB",19-05-2024 23:00:00,12.921418,77.502466,PM10,13,58,40
India,Karnataka,Bengaluru,"RVCE-Mailasandra, Bengaluru - KSPCB",19-05-2024 23:00:00,12.921418,77.502466,NO2,16,17,17
India,Karnataka,Bengaluru,"RVCE-Mailasandra, Bengaluru - KSPCB",19-05-2024 23:00:00,12.921418,77.502466,CO,39,53,46
India,Karnataka,Bengaluru,"Sanegurava Halli, Bengaluru - KSPCB",19-05-2024 23:00:00,12.990328,77.5431385,PM10,34,54,41
India,Karnataka,Bengaluru,"Sanegurava Halli, Bengaluru - KSPCB",19-05-2024 23:00:00,12.990328,77.5431385,SO2,2,3,3
India,Karnataka,Bengaluru,"Shivapura_Peenya, Bengaluru - KSPCB",19-05-2024 23:00:00,13.0246342,77.5080115,PM10,26,93,54
India,Karnataka,Bengaluru,"Shivapura_Peenya, Bengaluru - KSPCB",19-05-2024 23:00:00,13.0246342,77.5080115,NO2,15,16,15
India,Karnataka,Bengaluru,"Shivapura_Peenya, Bengaluru - KSPCB",19-05-2024 23:00:00,13.0246342,77.5080115,OZONE,53,56,55
India,Karnataka,Bengaluru,"Silk Board, Bengaluru - KSPCB",19-05-2024 23:00:00,12.917348,77.622813,SO2,8,15,11
India,Karnataka,Chamarajanagar,"Urban, Chamarajanagar - KSPCB",19-05-2024 23:00:00,11.55358,76.55521,PM2.5,20,39,24
India,Karnataka,Chamarajanagar,"Urban, Chamarajanagar - KSPCB",19-05-2024 23:00:00,11.55358,76.55521,CO,22,28,23
India,Karnataka,Chikkaballapur,"Chikkaballapur Rural, Chikkaballapur - KSPCB",19-05-2024 23:00:00,13.428828,77.731418,NH3,1,2,2
India,Karnataka,Chikkaballapur,"Chikkaballapur Rural, Chikkaballapur - KSPCB",19-05-2024 23:00:00,13.428828,77.731418,OZONE,25,27,26
India,Karnataka,Chikkamagaluru,"Kalyana Nagara, Chikkamagaluru - KSPCB",19-05-2024 23:00:00,13.328028,75.797056,PM10,5,64,36
India,Karnataka,Davanagere,"Devaraj Urs Badavane, Davanagere - KSPCB",19-05-2024 23:00:00,14.475800,75.905200,PM2.5,7,32,19
India,Karnataka,Dharwad,"Kalabhavan, Dharwad - KSPCB",19-05-2024 23:00:00,15.459706,75.008381,PM10,18,82,57
India,Karnataka,Dharwad,"Kalabhavan, Dharwad - KSPCB",19-05-2024 23:00:00,15.459706,75.008381,OZONE,2,25,8
India,Karnataka,Gadag,"Panchal Nagar, Gadag - KSPCB",19-05-2024 23:00:00,15.411456,75.638133,NH3,NA,NA,NA
India,Karnataka,Haveri,"Ashwini Nagar, Haveri - KSPCB",19-05-2024 23:00:00,14.791800,75.389600,SO2,NA,NA,NA
India,Karnataka,Hubballi,"Lingaraj Nagar, Hubballi - KSPCB",19-05-2024 23:00:00,15.3714823,75.1160168,PM2.5,33,62,45
India,Karnataka,Hubballi,"Lingaraj Nagar, Hubballi - KSPCB",19-05-2024 23:00:00,15.3714823,75.1160168,NO2,10,10,10
India,Karnataka,Kalaburagi,"Lal Bahadur Shastri Nagar, Kalaburagi - KSPCB",19-05-2024 23:00:00,17.321993,76.822628,CO,44,49,46
India,Karnataka,Kalaburagi,"Lal Bahadur Shastri Nagar, Kalaburagi - KSPCB",19-05-2024 23:00:00,17.321993,76.822628,OZONE,10,57,42
India,Karnataka,Kolar,"Tamaka Ind. Area, Kolar - KSPCB",19-05-2024 23:00:00,13.1276288,78.1570122,PM10,23,96,40
India,Karnataka,Koppal,"Diwator Nagar, Koppal - KSPCB",19-05-2024 23:00:00,15.347630,76.181767,SO2,27,28,27
India,Karnataka,Madikeri,"Stuart Hill, Madikeri - KSPCB",19-05-2024 23:00:00,12.415911,75.735050,NO2,2,9,5
India,Karnataka,Mangalore,"Kadri, Mangalore - KSPCB",19-05-2024 23:00:00,12.889250,74.853000,CO,39,44,41
India,Karnataka,Raichur,"Haji Colony, Raichur - KSPCB",19-05-2024 23:00:00,16.208139,77.348417,NO2,12,33,23
India,Karnataka,Ramanagara,"Vijay Nagar, Ramanagara - KSPCB",19-05-2024 23:00:00,12.733409,77.298051,CO,4,26,14
India,Karnataka,Ramanagara,"Vijay Nagar, Ramanagara - KSPCB",19-05-2024 23:00:00,12.733409,77.298051,OZONE,19,30,29
India,Karnataka,Shivamogga,"Vinoba Nagara, Shivamogga - KSPCB",19-05-2024 23:00:00,13.940000,75.555917,PM2.5,26,43,30
India,Karnataka,Shivamogga,"Vinoba Nagara, Shivamogga - KSPCB",19-05-2024 23:00:00,13.940000,75.555917,PM10,39,67,43
India,Karnataka,Shivamogga,"Vinoba Nagara, Shivamogga - KSPCB",19-05-2024 23:00:00,13.940000,75.555917,NH3,2,13,5
India,Karnataka,Shivamogga,"Vinoba Nagara, Shivamogga - KSPCB",19-05-2024 23:00:00,13.940000,75.555917,SO2,4,12,7
India,Karnataka,Vijayapura,"Ibrahimpur, Vijayapura - KSPCB",19-05-2024 23:00:00,16.802639,75.722694,PM2.5,26,31,30
India,Karnataka,Vijayapura,"Ibrahimpur, Vijayapura - KSPCB",19-05-2024 23:00:00,16.802639,75.722694,PM10,41,44,42
India,Karnataka,Vijayapura,"Ibrahimpur, Vijayapura - KSPCB",19-05-2024 23:00:00,16.802639,75.722694,NO2,17,19,19
India,Karnataka,Vijayapura,"Ibrahimpur, Vijayapura - KSPCB",19-05-2024 23:00:00,16.802639,75.722694,CO,12,64,54
India,Karnataka,Yadgir,"Collector Office, Yadgir - KSPCB",19-05-2024 23:00:00,16.7602,77.1428,NH3,1,2,1
India,Karnataka,Yadgir,"Collector Office, Yadgir - KSPCB",19-05-2024 23:00:00,16.7602,77.1428,OZONE,8,9,9
India,Kerala,Kannur,"Thavakkara, Kannur - Kerala PCB",19-05-2024 23:00:00,11.875000,75.373200,NO2,6,7,6
India,Kerala,Kannur,"Thavakkara, Kannur - Kerala PCB",19-05-2024 23:00:00,11.875000,75.373200,NH3,1,1,1
India,Kerala,Thiruvananthapuram,"Kariavattom, Thiruvananthapuram - Kerala PCB",19-05-2024 23:00:00,8.563700,76.886500,SO2,1,13,6
India,Kerala,Thiruvananthapuram,"Plammoodu, Thiruvananthapuram - Kerala PCB",19-05-2024 23:00:00,8.5149093,76.9435879,NO2,7,10,9
India,Kerala,Thiruvananthapuram,"Plammoodu, Thiruvananthapuram - Kerala PCB",19-05-2024 23:00:00,8.5149093,76.9435879,SO2,4,17,11
India,Kerala,Thrissur,"Corporation Ground, Thrissur - Kerala PCB",19-05-2024 23:00:00,10.532400,76.215900,NH3,NA,NA,NA
India,Madhya Pradesh,Bhopal,"Paryavaran Parisar, Bhopal - MPPCB",19-05-2024 23:00:00,23.210494,77.425409,SO2,8,11,9
India,Madhya Pradesh,Bhopal,"T T Nagar, Bhopal - MPPCB",19-05-2024 23:00:00,23.233584,77.400574,SO2,8,23,17
India,Madhya Pradesh,Dewas,"Bhopal Chauraha, Dewas - MPPCB",19-05-2024 23:00:00,22.9682591,76.064118,OZONE,18,61,45
India,Madhya Pradesh,Gwalior,"City Center, Gwalior - MPPCB",19-05-2024 23:00:00,26.203442,78.193251,PM2.5,35,239,89
India,Madhya Pradesh,Gwalior,"City Center, Gwalior - MPPCB",19-05-2024 23:00:00,26.203442,78.193251,PM10,80,444,141
India,Madhya Pradesh,Gwalior,"City Center, Gwalior - MPPCB",19-05-2024 23:00:00,26.203442,78.193251,NO2,6,60,21
India,Madhya Pradesh,Gwalior,"City Center, Gwalior - MPPCB",19-05-2024 23:00:00,26.203442,78.193251,SO2,11,116,48
India,Madhya Pradesh,Gwalior,"City Center, Gwalior - MPPCB",19-05-2024 23:00:00,26.203442,78.193251,OZONE,1,55,34
India,Madhya Pradesh,Gwalior,"Deen Dayal Nagar, Gwalior - MPPCB",19-05-2024 23:00:00,26.259242,78.216432,SO2,7,22,18
India,Madhya Pradesh,Gwalior,"Maharaj Bada, Gwalior - MPPCB",19-05-2024 23:00:00,26.200388,78.147714,PM2.5,12,183,51
India,Madhya Pradesh,Gwalior,"Maharaj Bada, Gwalior - MPPCB",19-05-2024 23:00:00,26.200388,78.147714,CO,10,103,59
India,Madhya Pradesh,Gwalior,"Phool Bagh, Gwalior - Mondelez Ind. Food",19-05-2024 23:00:00,26.210536,78.171,PM10,19,186,110
India,Madhya Pradesh,Gwalior,"Phool Bagh, Gwalior - Mondelez Ind. Food",19-05-2024 23:00:00,26.210536,78.171,CO,76,104,91
India,Madhya Pradesh,Indore,"Chhoti Gwaltoli, Indore - MPPCB",19-05-2024 23:00:00,22.4310,75.5213,NH3,4,5,4
India,Madhya Pradesh,Indore,"Maguda Nagar, Indore - IMC",19-05-2024 23:00:00,22.7524,75.8872,SO2,37,39,38
India,Madhya Pradesh,Indore,"Regional Park, Indore - IMC",19-05-2024 23:00:00,22.6780,75.8559,PM2.5,NA,NA,NA
India,Madhya Pradesh,Indore,"Residency Area, Indore - IMC",19-05-2024 23:00:00,22.7084,75.8815,PM10,20,72,42
India,Madhya Pradesh,Indore,"Residency Area, Indore - IMC",19-05-2024 23:00:00,22.7084,75.8815,SO2,26,33,29
India,Madhya Pradesh,Jabalpur,"Govindh Bhavan Colony, Jabalpur - JMC",19-05-2024 23:00:00,23.163174,79.973061,PM2.5,23,72,39
India,Madhya Pradesh,Jabalpur,"Govindh Bhavan Colony, Jabalpur - JMC",19-05-2024 23:00:00,23.163174,79.973061,SO2,5,52,20
India,Madhya Pradesh,Jabalpur,"Gupteshwar, Jabalpur - JMC",19-05-2024 23:00:00,23.142888,79.916147,NH3,4,5,5
India,Madhya Pradesh,Jabalpur,"Gupteshwar, Jabalpur - JMC",19-05-2024 23:00:00,23.142888,79.916147,CO,18,44,31
India,Madhya Pradesh,Katni,"Gole Bazar, Katni - MPPCB",19-05-2024 23:00:00,23.50016,80.23284,OZONE,6,104,72
India,Madhya Pradesh,Mandideep,"Sector-D Industrial Area, Mandideep - MPPCB",19-05-2024 23:00:00,23.108440,77.511428,CO,18,24,21
India,Madhya Pradesh,Pithampur,"Sector-2 Industrial Area, Pithampur - MPPCB",19-05-2024 23:00:00,22.624758,75.675238,PM10,46,144,89
India,Madhya Pradesh,Sagar,"Deen Dayal Nagar, Sagar - MPPCB",19-05-2024 23:00:00,23.8640158,78.80289321,PM2.5,9,48,28
India,Madhya Pradesh,Satna,"Bandhavgar Colony, Satna - Birla Cement",19-05-2024 23:00:00,24.58434363,80.8549414,SO2,1,2,1
India,Madhya Pradesh,Satna,"Bandhavgar Colony, Satna - Birla Cement",19-05-2024 23:00:00,24.58434363,80.8549414,CO,41,111,72
India,Madhya Pradesh,Satna,"Bandhavgar Colony, Satna - Birla Cement",19-05-2024 23:00:00,24.58434363,80.8549414,OZONE,16,41,34
India,Madhya Pradesh,Singrauli,"Suryakiran Bhawan NCL, Singrauli - MPPCB",19-05-2024 23:00:00,24.108970,82.645580,NH3,3,4,4
India,Madhya Pradesh,Ujjain,"Mahakaleshwar Temple, Ujjain - MPPCB",19-05-2024 23:00:00,23.182719 ,75.768218 ,CO,9,42,17
India,Maharashtra,Ahmednagar,"Tarakpur, Ahmednagar - MPCB",19-05-2024 23:00:00,19.10122,74.73339,NH3,1,10,3
India,Maharashtra,Ahmednagar,"Tarakpur, Ahmednagar - MPCB",19-05-2024 23:00:00,19.10122,74.73339,CO,27,109,50
India,Maharashtra,Ahmednagar,"Tarakpur, Ahmednagar - MPCB",19-05-2024 23:00:00,19.10122,74.73339,OZONE,23,174,111
India,Maharashtra,Akola,"Ramdaspeth, Akola - MPCB",19-05-2024 23:00:00,20.719516,77.000253,SO2,10,17,12
India,Maharashtra,Amravati,"Shivneri Colony, Amravati - MPCB",19-05-2024 23:00:00,20.9402359,77.7895248,NH3,1,3,2
India,Maharashtra,Amravati,"Shivneri Colony, Amravati - MPCB",19-05-2024 23:00:00,20.9402359,77.7895248,SO2,1,3,1
India,Maharashtra,Amravati,"Shivneri Colony, Amravati - MPCB",19-05-2024 23:00:00,20.9402359,77.7895248,CO,10,30,24
India,Maharashtra,Amravati,"Shri Shivaji Science College, Amaravati - MPCB",19-05-2024 23:00:00,20.939198,77.765701,PM10,36,340,70
India,Maharashtra,Amravati,"Shri Shivaji Science College, Amaravati - MPCB",19-05-2024 23:00:00,20.939198,77.765701,NH3,1,2,2
India,Maharashtra,Amravati,"Shri Shivaji Science College, Amaravati - MPCB",19-05-2024 23:00:00,20.939198,77.765701,SO2,1,3,1
India,Maharashtra,Aurangabad,"MIDC Chilkalthana, Aurangabad - MPCB",19-05-2024 23:00:00,19.875620,75.387310,PM10,69,127,100
India,Maharashtra,Aurangabad,"More Chowk Waluj, Aurangabad - MPCB",19-05-2024 23:00:00,19.8389439,75.244448,CO,12,76,37
India,Maharashtra,Badlapur,"Katrap, Badlapur - MPCB",19-05-2024 23:00:00,19.16485,73.23409,CO,19,62,28
India,Maharashtra,Belapur,"CBD Belapur, Belapur - MPCB",19-05-2024 23:00:00,19.0243902,73.0406721,SO2,1,8,5
India,Maharashtra,Bhiwandi,"Gokul Nagar, Bhiwandi - MPCB",19-05-2024 23:00:00,19.309073,73.057223,OZONE,29,156,74
India,Maharashtra,Boisar,"Khaira, Boisar - MPCB",19-05-2024 23:00:00,19.786089,72.757971,PM10,58,142,94
India,Maharashtra,Boisar,"Khaira, Boisar - MPCB",19-05-2024 23:00:00,19.786089,72.757971,CO,6,24,22
India,Maharashtra,Boisar,"Khaira, Boisar - MPCB",19-05-2024 23:00:00,19.786089,72.757971,OZONE,25,45,38
India,Maharashtra,Chandrapur,"Chauhan Colony, Chandrapur - MPCB",19-05-2024 23:00:00,19.962900,79.298714,PM10,NA,NA,NA
India,Maharashtra,Chandrapur,"Chauhan Colony, Chandrapur - MPCB",19-05-2024 23:00:00,19.962900,79.298714,NH3,3,8,4
India,Maharashtra,Chandrapur,"MIDC Khutala, Chandrapur - MPCB",19-05-2024 23:00:00,19.9775302,79.2337086,SO2,7,44,20
India,Maharashtra,Chandrapur,"MIDC Khutala, Chandrapur - MPCB",19-05-2024 23:00:00,19.9775302,79.2337086,CO,16,37,30
India,Maharashtra,Jalgaon,"Prabhat Colony, Jalgaon - MPCB",19-05-2024 23:00:00,21.001264,75.565602,PM10,107,423,175
India,Maharashtra,Kalyan,"Khadakpada, Kalyan - MPCB",19-05-2024 23:00:00,19.25292,73.142019,SO2,19,27,24
India,Maharashtra,Kalyan,"Khadakpada, Kalyan - MPCB",19-05-2024 23:00:00,19.25292,73.142019,CO,12,18,16
India,Maharashtra,Kalyan,"Khadakpada, Kalyan - MPCB",19-05-2024 23:00:00,19.25292,73.142019,OZONE,9,20,15
India,Maharashtra,Kolhapur,"Shivaji University, Kolhapur - MPCB",19-05-2024 23:00:00,16.6870449,74.2505872,NO2,14,26,22
India,Maharashtra,Latur,"Sawe Wadi, Latur - MPCB",19-05-2024 23:00:00,18.39963,76.57452,PM2.5,15,67,33
India,Maharashtra,Malegaon,"Mahesh Nagar, Malegaon - MPCB",19-05-2024 23:00:00,20.555712,74.529236,NO2,NA,NA,NA
India,Maharashtra,Malegaon,"Mahesh Nagar, Malegaon - MPCB",19-05-2024 23:00:00,20.555712,74.529236,CO,10,34,19
India,Maharashtra,Mira-Bhayandar,"Bhayandar West, Mira-Bhayandar - MPCB",19-05-2024 23:00:00,19.296481,72.840923,NO2,5,29,9
India,Maharashtra,Mumbai,"Bandra Kurla Complex, Mumbai - MPCB",19-05-2024 23:00:00,19.065931,72.862131,PM2.5,21,48,37
India,Maharashtra,Mumbai,"Bandra Kurla Complex, Mumbai - MPCB",19-05-2024 23:00:00,19.065931,72.862131,SO2,NA,NA,NA
India,Maharashtra,Mumbai,"Borivali East, Mumbai - IITM",19-05-2024 23:00:00,19.23241,72.86895,NH3,5,8,7
India,Maharashtra,Mumbai,"Borivali East, Mumbai - MPCB",19-05-2024 23:00:00,19.2243333,72.8658113,NO2,9,31,13
India,Maharashtra,Mumbai,"Borivali East, Mumbai - MPCB",19-05-2024 23:00:00,19.2243333,72.8658113,CO,34,38,36
India,Maharashtra,Mumbai,"Chakala-Andheri East, Mumbai - IITM",19-05-2024 23:00:00,19.11074,72.86084,PM10,41,116,73
India,Maharashtra,Mumbai,"Chembur, Mumbai - MPCB",19-05-2024 23:00:00,19.0364585,72.8954371,PM10,47,78,67
India,Maharashtra,Mumbai,"Colaba, Mumbai - MPCB",19-05-2024 23:00:00,18.910000,72.820000,PM2.5,28,50,38
India,Maharashtra,Mumbai,"Colaba, Mumbai - MPCB",19-05-2024 23:00:00,18.910000,72.820000,NH3,1,1,1
India,Maharashtra,Mumbai,"Colaba, Mumbai - MPCB",19-05-2024 23:00:00,18.910000,72.820000,CO,13,14,14
India,Maharashtra,Mumbai,"Colaba, Mumbai - MPCB",19-05-2024 23:00:00,18.910000,72.820000,OZONE,11,11,11
India,Maharashtra,Mumbai,"Deonar, Mumbai - IITM",19-05-2024 23:00:00,19.04946,72.9230,PM2.5,12,174,62
India,Maharashtra,Mumbai,"Deonar, Mumbai - IITM",19-05-2024 23:00:00,19.04946,72.9230,OZONE,15,69,50
India,Maharashtra,Mumbai,"Ghatkopar, Mumbai - BMC",19-05-2024 23:00:00,19.083694,72.920967,NO2,1,18,9
India,Maharashtra,Mumbai,"Kandivali East, Mumbai - MPCB",19-05-2024 23:00:00,19.205800,72.868200,PM2.5,NA,NA,NA
India,Maharashtra,Mumbai,"Kandivali West, Mumbai - BMC",19-05-2024 23:00:00,19.215859,72.831718,OZONE,21,44,33
India,Maharashtra,Mumbai,"Kherwadi_Bandra East, Mumbai - MPCB",19-05-2024 23:00:00,19.0632143,72.8456324,NH3,5,12,7
India,Maharashtra,Mumbai,"Kherwadi_Bandra East, Mumbai - MPCB",19-05-2024 23:00:00,19.0632143,72.8456324,OZONE,15,79,68
India,Maharashtra,Mumbai,"Khindipada-Bhandup West, Mumbai - IITM",19-05-2024 23:00:00,19.1653323,72.922099,SO2,3,9,6
India,Maharashtra,Mumbai,"Mulund West, Mumbai - MPCB",19-05-2024 23:00:00,19.1750,72.9419,PM2.5,41,79,56
India,Maharashtra,Mumbai,"Mulund West, Mumbai - MPCB",19-05-2024 23:00:00,19.1750,72.9419,PM10,64,117,92
India,Maharashtra,Mumbai,"Navy Nagar-Colaba, Mumbai - IITM",19-05-2024 23:00:00,18.897756,72.813320,NH3,NA,NA,NA
India,Maharashtra,Mumbai,"Powai, Mumbai - MPCB",19-05-2024 23:00:00,19.137500,72.915056,PM10,80,107,92
India,Maharashtra,Mumbai,"Sewri, Mumbai - BMC",19-05-2024 23:00:00,19.000084,72.856730,PM2.5,NA,NA,NA
India,Maharashtra,Mumbai,"Siddharth Nagar-Worli, Mumbai - IITM",19-05-2024 23:00:00,19.000083,72.813993,NH3,9,10,9
India,Maharashtra,Mumbai,"Sion, Mumbai - MPCB",19-05-2024 23:00:00,19.047000,72.874600,CO,NA,NA,NA
India,Maharashtra,Mumbai,"Vasai West, Mumbai - MPCB",19-05-2024 23:00:00,19.383200,72.820400,NH3,4,4,4
India,Maharashtra,Mumbai,"Vile Parle West, Mumbai - MPCB",19-05-2024 23:00:00,19.10861,72.83622,PM2.5,NA,NA,NA
India,Maharashtra,Mumbai,"Vile Parle West, Mumbai - MPCB",19-05-2024 23:00:00,19.10861,72.83622,CO,NA,NA,NA
India,Maharashtra,Nagpur,"Ambazari, Nagpur - MPCB",19-05-2024 23:00:00,21.121801,79.04952,PM10,33,97,54
India,Maharashtra,Nagpur,"Ambazari, Nagpur - MPCB",19-05-2024 23:00:00,21.121801,79.04952,NH3,2,5,3
India,Maharashtra,Nagpur,"Ambazari, Nagpur - MPCB",19-05-2024 23:00:00,21.121801,79.04952,SO2,1,97,13
India,Maharashtra,Nagpur,"Ambazari, Nagpur - MPCB",19-05-2024 23:00:00,21.121801,79.04952,OZONE,9,104,75
India,Maharashtra,Nagpur,"Mahal, Nagpur - MPCB",19-05-2024 23:00:00,21.14472,79.107595,NO2,7,39,16
India,Maharashtra,Nagpur,"Mahal, Nagpur - MPCB",19-05-2024 23:00:00,21.14472,79.107595,CO,10,101,51
India,Maharashtra,Nagpur,"Opp GPO Civil Lines, Nagpur - MPCB",19-05-2024 23:00:00,21.152875,79.0517531,PM2.5,28,80,45
India,Maharashtra,Nagpur,"Opp GPO Civil Lines, Nagpur - MPCB",19-05-2024 23:00:00,21.152875,79.0517531,NO2,11,106,27
India,Maharashtra,Nanded,"Sneh Nagar, Nanded - MPCB",19-05-2024 23:00:00,19.173852,77.296291,PM10,37,81,54
India,Maharashtra,Nanded,"Sneh Nagar, Nanded - MPCB",19-05-2024 23:00:00,19.173852,77.296291,NO2,5,27,13
India,Maharashtra,Nanded,"Sneh Nagar, Nanded - MPCB",19-05-2024 23:00:00,19.173852,77.296291,NH3,1,2,2
India,Maharashtra,Nanded,"Sneh Nagar, Nanded - MPCB",19-05-2024 23:00:00,19.173852,77.296291,CO,36,62,50
India,Maharashtra,Nashik,"Gangapur Road, Nashik - MPCB",19-05-2024 23:00:00,20.0073285,73.7762427,SO2,4,11,7
India,Maharashtra,Nashik,"Pandav Nagari, Nashik - MPCB",19-05-2024 23:00:00,19.9591346,73.7788008,PM10,8,500,131
India,Maharashtra,Nashik,"Pandav Nagari, Nashik - MPCB",19-05-2024 23:00:00,19.9591346,73.7788008,SO2,15,21,18
India,Maharashtra,Navi Mumbai,"Kopripada-Vashi, Navi Mumbai - MPCB",19-05-2024 23:00:00,19.090337,73.014232,OZONE,1,7,5
India,Maharashtra,Navi Mumbai,"Mahape, Navi Mumbai - MPCB",19-05-2024 23:00:00,19.1135051,73.008978,OZONE,28,44,37
India,Maharashtra,Navi Mumbai,"Sector-19A Nerul, Navi Mumbai - IITM",19-05-2024 23:00:00,19.044,73.0325,NO2,13,37,24
India,Maharashtra,Navi Mumbai,"Sector-19A Nerul, Navi Mumbai - IITM",19-05-2024 23:00:00,19.044,73.0325,OZONE,8,34,20
India,Maharashtra,Navi Mumbai,"Sector-2E Kalamboli, Navi Mumbai - MPCB",19-05-2024 23:00:00,19.02579,73.10297,NH3,2,5,3
India,Maharashtra,Navi Mumbai,"Sector-2E Kalamboli, Navi Mumbai - MPCB",19-05-2024 23:00:00,19.02579,73.10297,CO,2,15,10
India,Maharashtra,Navi Mumbai,"Tondare-Taloja, Navi Mumbai - MPCB",19-05-2024 23:00:00,19.0630,73.1209,NO2,21,61,37
India,Maharashtra,Navi Mumbai,"Tondare-Taloja, Navi Mumbai - MPCB",19-05-2024 23:00:00,19.0630,73.1209,SO2,1,4,1
India,Maharashtra,Navi Mumbai,"Tondare-Taloja, Navi Mumbai - MPCB",19-05-2024 23:00:00,19.0630,73.1209,CO,4,22,14
India,Maharashtra,Pimpri-Chinchwad,"Gavalinagar, Pimpri Chinchwad - MPCB",19-05-2024 23:00:00,18.63673,73.82487,CO,12,42,25
India,Maharashtra,Pimpri-Chinchwad,"Park Street Wakad, Pimpri Chinchwad - MPCB",19-05-2024 23:00:00,18.59051,73.77946,PM10,96,132,119
India,Maharashtra,Pimpri-Chinchwad,"Park Street Wakad, Pimpri Chinchwad - MPCB",19-05-2024 23:00:00,18.59051,73.77946,NH3,3,6,5
India,Maharashtra,Pimpri-Chinchwad,"Thergaon, Pimpri Chinchwad - MPCB",19-05-2024 23:00:00,18.616318,73.765797,PM2.5,50,83,66
India,Maharashtra,Pimpri-Chinchwad,"Thergaon, Pimpri Chinchwad - MPCB",19-05-2024 23:00:00,18.616318,73.765797,SO2,3,4,3
India,Maharashtra,Pimpri-Chinchwad,"Thergaon, Pimpri Chinchwad - MPCB",19-05-2024 23:00:00,18.616318,73.765797,CO,18,56,29
India,Maharashtra,Pune,"Alandi, Pune - IITM",19-05-2024 23:00:00,18.675076,73.892743,PM2.5,15,46,30
India,Maharashtra,Pune,"Alandi, Pune - IITM",19-05-2024 23:00:00,18.675076,73.892743,CO,38,68,52
India,Maharashtra,Pune,"Karve Road, Pune - MPCB",19-05-2024 23:00:00,18.5011743,73.8165527,CO,16,195,42
India,Maharashtra,Pune,"Revenue Colony-Shivajinagar, Pune - IITM",19-05-2024 23:00:00,18.530085,73.849598,PM10,47,117,71
India,Maharashtra,Pune,"Savitribai Phule Pune University, Pune - MPCB",19-05-2024 23:00:00,18.547056,73.826908,NH3,2,4,2
India,Maharashtra,Solapur,"Dnyaneshwar Nagar, Solapur - MPCB",19-05-2024 23:00:00,17.6336264,75.9132495,PM10,47,83,62
India,Maharashtra,Solapur,"Dnyaneshwar Nagar, Solapur - MPCB",19-05-2024 23:00:00,17.6336264,75.9132495,NH3,31,38,34
India,Maharashtra,Solapur,"Ratandeep Housing Society, Solapur - MPCB",19-05-2024 23:00:00,17.65439,75.90649,NH3,5,9,7
India,Maharashtra,Thane,"Kasarvadavali, Thane - MPCB",19-05-2024 23:00:00,19.26777,72.97182,PM2.5,35,66,49
India,Maharashtra,Thane,"Pimpleshwar Mandir, Thane - MPCB",19-05-2024 23:00:00,19.192056,72.9585188,NO2,1,12,6
India,Maharashtra,Ulhasnagar,"Sidhi Vinayak Nagar, Ulhasnagar - MPCB",19-05-2024 23:00:00,19.235581,73.159121,PM2.5,62,89,73
India,Maharashtra,Virar,"Bolinj, Virar - MPCB",19-05-2024 23:00:00,19.4458210,72.7988231,SO2,1,3,2
India,Manipur,Imphal,"DM College of Science, Imphal - Manipur PCB",19-05-2024 23:00:00,24.8207389,93.9423085,PM2.5,17,29,22
India,Manipur,Imphal,"DM College of Science, Imphal - Manipur PCB",19-05-2024 23:00:00,24.8207389,93.9423085,NO2,7,8,7
India,Manipur,Imphal,"DM College of Science, Imphal - Manipur PCB",19-05-2024 23:00:00,24.8207389,93.9423085,NH3,2,2,2
India,Meghalaya,Shillong,"Lumpyngngad, Shillong - Meghalaya PCB",19-05-2024 23:00:00,25.5586,91.8985,CO,8,15,12
India,Mizoram,Aizawl,"Sikulpuikawn, Aizawl - Mizoram PCB",19-05-2024 23:00:00,23.7176342,92.7192841,OZONE,2,19,5
India,Nagaland,Kohima,"PWD Juction, Kohima - NPCB",19-05-2024 23:00:00,25.6635413,94.0989878,SO2,34,35,35
India,Odisha,Angul,"Hakimapada, Angul - OSPCB",19-05-2024 23:00:00,20.832874,85.104082,CO,18,64,29
India,Odisha,Balasore,"Kalidaspur, Balasore - OSPCB",19-05-2024 23:00:00,21.51161,86.89088,PM10,13,62,34
India,Odisha,Barbil,"Forest Office, Barbil - OSPCB",19-05-2024 23:00:00,22.1166054,85.3945546,PM2.5,10,110,33
India,Odisha,Barbil,"Forest Office, Barbil - OSPCB",19-05-2024 23:00:00,22.1166054,85.3945546,SO2,2,8,4
India,Odisha,Bhubaneswar,"Lingraj Mandir, Bhubaneswar - OSPCB",19-05-2024 23:00:00,20.240790,85.836784,PM10,10,108,35
India,Odisha,Bhubaneswar,"Lingraj Mandir, Bhubaneswar - OSPCB",19-05-2024 23:00:00,20.240790,85.836784,OZONE,7,63,35
India,Odisha,Bileipada,"Tata Township, Bileipada - OSPCB",19-05-2024 23:00:00,22.06156703,85.47409613,CO,10,18,14
India,Odisha,Brajrajnagar,"GM Office, Brajrajnagar - OSPCB",19-05-2024 23:00:00,21.8004996,83.8396977,PM2.5,4,46,23
India,Odisha,Brajrajnagar,"GM Office, Brajrajnagar - OSPCB",19-05-2024 23:00:00,21.8004996,83.8396977,CO,84,87,86
India,Odisha,Byasanagar,"Ferro Chrome Colony, Byasanagar - OSPCB",19-05-2024 23:00:00,20.94185,86.11510,SO2,3,80,17
India,Odisha,Cuttack,"CDA Area, Cuttack - OSPCB",19-05-2024 23:00:00,20.48891     ,85.84768     ,PM10,8,30,19
India,Odisha,Cuttack,"CDA Area, Cuttack - OSPCB",19-05-2024 23:00:00,20.48891     ,85.84768     ,OZONE,4,70,30
India,Odisha,Keonjhar,"Jagamohanpur, Keonjhar - OSPCB",19-05-2024 23:00:00,21.643900,85.599355,OZONE,16,16,16
India,Odisha,Rairangpur,"Divisional Forest Office, Rairangpur - OSPCB",19-05-2024 23:00:00,22.265816,86.174829,NH3,3,3,3
India,Odisha,Rourkela,"Fertilizer Township, Rourkela - OSPCB",19-05-2024 23:00:00,22.18972222,84.86277778,PM2.5,19,229,58
India,Odisha,Rourkela,"Fertilizer Township, Rourkela - OSPCB",19-05-2024 23:00:00,22.18972222,84.86277778,PM10,36,152,76
India,Odisha,Rourkela,"Raghunathpali, Rourkela - OSPCB",19-05-2024 23:00:00,22.220833,84.809444,CO,25,75,31
India,Odisha,Rourkela,"Sector-2, Rourkela - OSPCB",19-05-2024 23:00:00,22.24500000,84.88111111,PM10,39,122,64
India,Odisha,Rourkela,"Sector-2, Rourkela - OSPCB",19-05-2024 23:00:00,22.24500000,84.88111111,CO,14,64,20
India,Odisha,Talcher,"Talcher Coalfields,Talcher - OSPCB",19-05-2024 23:00:00,20.9360711,85.1707021,PM10,19,149,76
India,Odisha,Tensa,"Barsua Iron Ore Mines, Tensa - OSPCB",19-05-2024 23:00:00,21.869985,85.167016,SO2,1,8,2
India,Puducherry,Puducherry,"Jawahar Nagar, Puducherry - PPCC",19-05-2024 23:00:00,11.9309,79.8027,PM10,3,59,22
India,Puducherry,Puducherry,"Jawahar Nagar, Puducherry - PPCC",19-05-2024 23:00:00,11.9309,79.8027,SO2,5,14,7
India,Punjab,Amritsar,"Golden Temple, Amritsar - PPCB",19-05-2024 23:00:00,31.620000,74.876512,NO2,4,35,17
India,Punjab,Khanna,"Kalal Majra, Khanna - PPCB",19-05-2024 23:00:00,30.736056 ,76.209694,CO,7,36,22
India,Punjab,Ludhiana,"Punjab Agricultural University, Ludhiana - PPCB",19-05-2024 23:00:00,30.9028,75.8086,PM10,99,168,135
India,Punjab,Mandi Gobindgarh,"RIMT University, Mandi Gobindgarh - PPCB",19-05-2024 23:00:00,30.649961,76.331442,CO,2,45,29
India,Punjab,Rupnagar,"Ratanpura, Rupnagar - Ambuja Cements",19-05-2024 23:00:00,31.0325454,76.5623046,PM2.5,36,206,103
India,Rajasthan,Ajmer,"Civil Lines,  Ajmer - RSPCB",19-05-2024 23:00:00,26.470859,74.646594,PM10,68,168,102
India,Rajasthan,Ajmer,"Civil Lines,  Ajmer - RSPCB",19-05-2024 23:00:00,26.470859,74.646594,SO2,4,33,13
India,Rajasthan,Alwar,"Moti Doongri, Alwar - RSPCB",19-05-2024 23:00:00,27.554793,76.611536,NO2,23,52,35
India,Rajasthan,Banswara,"Rati Talai, Banswara - RSPCB",19-05-2024 23:00:00,23.555190,74.440010,CO,38,66,48
India,Rajasthan,Baran,"Bamboliya, Baran - RSPCB",19-05-2024 23:00:00,25.106006,76.469948,PM2.5,2,86,37
India,Rajasthan,Barmer,"Railway Colony, Barmer - RSPCB",19-05-2024 23:00:00,25.747299,71.393989,NO2,1,16,11
India,Rajasthan,Bhilwara,"Pratap Nagar, Bhilwara - RSPCB",19-05-2024 23:00:00,25.339605,74.618883,PM2.5,34,67,47
India,Rajasthan,Bhiwadi,"RIICO Ind. Area III, Bhiwadi - RSPCB",19-05-2024 23:00:00,28.194909,76.862296,SO2,NA,NA,NA
India,Rajasthan,Bikaner,"MM Ground, Bikaner - RSPCB",19-05-2024 23:00:00,28.018792,73.292658,PM10,101,496,179
India,Rajasthan,Bikaner,"MM Ground, Bikaner - RSPCB",19-05-2024 23:00:00,28.018792,73.292658,NO2,28,69,39
India,Rajasthan,Bikaner,"MM Ground, Bikaner - RSPCB",19-05-2024 23:00:00,28.018792,73.292658,NH3,8,13,11
India,Rajasthan,Bikaner,"MM Ground, Bikaner - RSPCB",19-05-2024 23:00:00,28.018792,73.292658,OZONE,30,92,75
India,Rajasthan,Bundi,"New Colony, Bundi - RSPCB",19-05-2024 23:00:00,25.435774,75.644272,CO,14,73,17
India,Rajasthan,Chittorgarh,"Shastri Nagar, Chittorgarh - RSPCB",19-05-2024 23:00:00,24.892047,74.623527,SO2,3,20,7
India,Rajasthan,Chittorgarh,"Shastri Nagar, Chittorgarh - RSPCB",19-05-2024 23:00:00,24.892047,74.623527,OZONE,22,135,101
India,Rajasthan,Dausa,"Khatikan Mohalla, Dausa - RSPCB",19-05-2024 23:00:00,26.895552,76.334753,PM10,110,332,181
India,Rajasthan,Dausa,"Khatikan Mohalla, Dausa - RSPCB",19-05-2024 23:00:00,26.895552,76.334753,OZONE,14,194,96
India,Rajasthan,Dholpur,"Raja Ganj, Dholpur - RSPCB",19-05-2024 23:00:00,26.699557,77.898881,NO2,27,101,53
India,Rajasthan,Dholpur,"Raja Ganj, Dholpur - RSPCB",19-05-2024 23:00:00,26.699557,77.898881,NH3,6,12,8
India,Rajasthan,Dungarpur,"Bhoiwada, Dungarpur - RSPCB",19-05-2024 23:00:00,23.837789,73.714926,PM2.5,37,87,52
India,Rajasthan,Dungarpur,"Bhoiwada, Dungarpur - RSPCB",19-05-2024 23:00:00,23.837789,73.714926,CO,4,102,44
India,Rajasthan,Hanumangarh,"Housing Board, Hanumangarh - RSPCB",19-05-2024 23:00:00,29.610750,74.283608,NH3,6,19,12
India,Rajasthan,Hanumangarh,"Housing Board, Hanumangarh - RSPCB",19-05-2024 23:00:00,29.610750,74.283608,SO2,5,34,16
India,Rajasthan,Jaipur,"Adarsh Nagar, Jaipur - RSPCB",19-05-2024 23:00:00,26.902909,75.836858,NH3,3,13,5
India,Rajasthan,Jaipur,"Police Commissionerate, Jaipur - RSPCB",19-05-2024 23:00:00,26.9164092,75.7994901,PM2.5,65,395,170
India,Rajasthan,Jaipur,"Police Commissionerate, Jaipur - RSPCB",19-05-2024 23:00:00,26.9164092,75.7994901,NH3,2,6,4
India,Rajasthan,Jaipur,"RIICO Sitapura, Jaipur - RSPCB",19-05-2024 23:00:00,26.786682,75.827928,PM10,92,500,198
India,Rajasthan,Jaipur,"Sector-2 Murlipura, Jaipur - RSPCB",19-05-2024 23:00:00,26.960669,75.771817,NH3,1,8,3
India,Rajasthan,Jaipur,"Sector-2 Murlipura, Jaipur - RSPCB",19-05-2024 23:00:00,26.960669,75.771817,SO2,5,92,29
India,Rajasthan,Jaisalmer,"Sadar Bazar, Jaisalmer - RSPCB",19-05-2024 23:00:00,26.912329,70.909168,PM10,55,233,105
India,Rajasthan,Jaisalmer,"Sadar Bazar, Jaisalmer - RSPCB",19-05-2024 23:00:00,26.912329,70.909168,SO2,3,6,4
India,Rajasthan,Jaisalmer,"Sadar Bazar, Jaisalmer - RSPCB",19-05-2024 23:00:00,26.912329,70.909168,OZONE,6,122,112
India,Rajasthan,Jhalawar,"Rajlaxmi Nagar, Jhalawar - RSPCB",19-05-2024 23:00:00,24.588397,76.172782,NO2,18,78,30
India,Rajasthan,Jhalawar,"Rajlaxmi Nagar, Jhalawar - RSPCB",19-05-2024 23:00:00,24.588397,76.172782,SO2,5,25,9
India,Rajasthan,Jhalawar,"Rajlaxmi Nagar, Jhalawar - RSPCB",19-05-2024 23:00:00,24.588397,76.172782,OZONE,21,126,93
India,Rajasthan,Jhunjhunu,"Indra Nagar, Jhunjhunu - RSPCB",19-05-2024 23:00:00,28.108988,75.386577,SO2,2,11,5
India,Rajasthan,Jodhpur,"Digari Kalan, Jodhpur - RSPCB",19-05-2024 23:00:00,26.295810,73.082283,PM2.5,41,154,83
India,Rajasthan,Jodhpur,"Mandor, Jodhpur - RSPCB",19-05-2024 23:00:00,26.358805,73.047444,PM2.5,16,52,30
India,Rajasthan,Jodhpur,"Mandor, Jodhpur - RSPCB",19-05-2024 23:00:00,26.358805,73.047444,NH3,5,7,6
India,Rajasthan,Jodhpur,"Mandor, Jodhpur - RSPCB",19-05-2024 23:00:00,26.358805,73.047444,SO2,1,16,3
India,Rajasthan,Jodhpur,"Mandor, Jodhpur - RSPCB",19-05-2024 23:00:00,26.358805,73.047444,OZONE,49,119,96
India,Rajasthan,Jodhpur,"Samrat Ashok Udhyan, Jodhpur - RSPCB",19-05-2024 23:00:00,26.253384,72.976571,PM2.5,17,77,36
India,Rajasthan,Karauli,"Satyawati Vihar, Karauli - RSPCB",19-05-2024 23:00:00,26.506177,77.025989,PM2.5,33,70,55
India,Rajasthan,Kota,"Dhanmandi, Kota - RSPCB",19-05-2024 23:00:00,25.164090,75.858137,NO2,14,87,35
India,Rajasthan,Kota,"Dhanmandi, Kota - RSPCB",19-05-2024 23:00:00,25.164090,75.858137,SO2,4,33,9
India,Rajasthan,Kota,"Nayapura, Kota - RSPCB",19-05-2024 23:00:00,25.196024,75.855668,OZONE,39,155,102
India,Rajasthan,Nagaur,"Karni Colony, Nagaur - RSPCB",19-05-2024 23:00:00,27.213494,73.734444,NO2,10,26,15
India,Rajasthan,Pratapgarh,"Pragati Nagar, Pratapgarh - RSPCB",19-05-2024 23:00:00,24.041198,74.780702,NO2,7,113,27
India,Rajasthan,Sawai Madhopur,"Sahu Nagar, Sawai Madhopur - RSPCB",19-05-2024 23:00:00,26.031443,76.359327,NO2,5,45,15
India,Rajasthan,Sawai Madhopur,"Sahu Nagar, Sawai Madhopur - RSPCB",19-05-2024 23:00:00,26.031443,76.359327,OZONE,10,159,116
India,Rajasthan,Sikar,"Radhakishan Pura, Sikar - RSPCB",19-05-2024 23:00:00,27.608912,75.153302,OZONE,20,114,71
India,Rajasthan,Sirohi,"Vedhaynath Colony, Sirohi - RSPCB",19-05-2024 23:00:00,24.885261,72.857549,PM10,48,120,80
India,Rajasthan,Sirohi,"Vedhaynath Colony, Sirohi - RSPCB",19-05-2024 23:00:00,24.885261,72.857549,NO2,6,44,14
India,Rajasthan,Tonk,"Shastri Nagar, Tonk - RSPCB",19-05-2024 23:00:00,26.159933,75.780517,PM2.5,NA,NA,NA
India,Rajasthan,Tonk,"Shastri Nagar, Tonk - RSPCB",19-05-2024 23:00:00,26.159933,75.780517,NO2,11,45,19
India,Rajasthan,Tonk,"Shastri Nagar, Tonk - RSPCB",19-05-2024 23:00:00,26.159933,75.780517,SO2,2,17,10
India,Rajasthan,Tonk,"Shastri Nagar, Tonk - RSPCB",19-05-2024 23:00:00,26.159933,75.780517,OZONE,18,151,94
India,Rajasthan,Udaipur,"Ashok Nagar, Udaipur - RSPCB",19-05-2024 23:00:00,24.5886166,73.6321397,OZONE,28,75,51
India,Sikkim,Gangtok,"Zero Point GICI, Gangtok - SSPCB",19-05-2024 23:00:00,27.338530,88.614099,NH3,1,1,1
India,TamilNadu,Chennai,"Alandur Bus Depot, Chennai - CPCB",19-05-2024 23:00:00,12.9099161,80.1076538,PM10,23,23,23
India,TamilNadu,Chennai,"Alandur Bus Depot, Chennai - CPCB",19-05-2024 23:00:00,12.9099161,80.1076538,NH3,8,33,13
India,TamilNadu,Chennai,"Manali, Chennai - CPCB",19-05-2024 23:00:00,13.164544,80.26285,PM2.5,1,158,16
India,TamilNadu,Chennai,"Manali, Chennai - CPCB",19-05-2024 23:00:00,13.164544,80.26285,PM10,1,126,16
India,TamilNadu,Chennai,"Manali, Chennai - CPCB",19-05-2024 23:00:00,13.164544,80.26285,OZONE,12,25,15
India,TamilNadu,Chennai,"Perungudi, Chennai - TNPCB",19-05-2024 23:00:00,12.9533,80.2357,CO,15,30,20
India,TamilNadu,Chennai,"Perungudi, Chennai - TNPCB",19-05-2024 23:00:00,12.9533,80.2357,OZONE,4,30,14
India,TamilNadu,Chennai,"Royapuram, Chennai - TNPCB",19-05-2024 23:00:00,13.1036,80.2909,PM10,5,60,18
India,TamilNadu,Chennai,"Royapuram, Chennai - TNPCB",19-05-2024 23:00:00,13.1036,80.2909,OZONE,4,27,14
India,TamilNadu,Chennai,"Velachery Res. Area, Chennai - CPCB",19-05-2024 23:00:00,13.0052189,80.2398125,NH3,14,34,18
India,TamilNadu,Chennai,"Velachery Res. Area, Chennai - CPCB",19-05-2024 23:00:00,13.0052189,80.2398125,CO,118,120,119
India,TamilNadu,Chennai,"Velachery Res. Area, Chennai - CPCB",19-05-2024 23:00:00,13.0052189,80.2398125,OZONE,9,67,38
India,TamilNadu,Coimbatore,"PSG College of Arts and Science, Coimbatore - TNPCB",19-05-2024 23:00:00,11.0328,77.0349,NO2,1,2,2
India,TamilNadu,Cuddalore,"Kudikadu, Cuddalore - TNPCB",19-05-2024 23:00:00,11.6829898,79.7532099,PM2.5,7,53,22
India,TamilNadu,Cuddalore,"Semmandalam, Cuddalore - TNPCB",19-05-2024 23:00:00,11.7637683,79.7499835,PM2.5,12,35,20
India,TamilNadu,Gummidipoondi,"Anthoni Pillai Nagar, Gummidipoondi - TNPCB",19-05-2024 23:00:00,13.4127,80.1081,PM2.5,3,90,25
India,TamilNadu,Gummidipoondi,"Anthoni Pillai Nagar, Gummidipoondi - TNPCB",19-05-2024 23:00:00,13.4127,80.1081,NO2,21,40,29
India,TamilNadu,Ooty,"Bombay Castel, Ooty - TNPCB",19-05-2024 23:00:00,11.4068288,76.7138973,NO2,2,32,14
India,TamilNadu,Ooty,"Bombay Castel, Ooty - TNPCB",19-05-2024 23:00:00,11.4068288,76.7138973,NH3,NA,NA,NA
India,TamilNadu,Ramanathapuram,"Chalai Bazaar, Ramanathapuram - TNPCB",19-05-2024 23:00:00,9.36399,78.831977,OZONE,13,14,14
India,TamilNadu,Salem,"Sona College of Technology, Salem - TNPCB",19-05-2024 23:00:00,11.679111,78.125052,SO2,94,95,95
India,TamilNadu,Salem,"Sona College of Technology, Salem - TNPCB",19-05-2024 23:00:00,11.679111,78.125052,CO,41,42,42
India,TamilNadu,Thoothukudi,"Meelavittan, Thoothukudi - TNPCB",19-05-2024 23:00:00,8.816428 ,78.099039,PM10,18,91,37
India,Telangana,Hyderabad,"Bollaram Industrial Area, Hyderabad - TSPCB",19-05-2024 23:00:00,17.540891,78.358528,SO2,7,39,17
India,Telangana,Hyderabad,"Bollaram Industrial Area, Hyderabad - TSPCB",19-05-2024 23:00:00,17.540891,78.358528,CO,2,115,47
India,Telangana,Hyderabad,"Central University, Hyderabad - TSPCB",19-05-2024 23:00:00,17.460103,78.334361,PM2.5,15,30,21
India,Telangana,Hyderabad,"Central University, Hyderabad - TSPCB",19-05-2024 23:00:00,17.460103,78.334361,SO2,3,10,6
India,Telangana,Hyderabad,"Central University, Hyderabad - TSPCB",19-05-2024 23:00:00,17.460103,78.334361,CO,6,46,23
India,Telangana,Hyderabad,"Central University, Hyderabad - TSPCB",19-05-2024 23:00:00,17.460103,78.334361,OZONE,3,4,3
India,Telangana,Hyderabad,"ICRISAT Patancheru, Hyderabad - TSPCB",19-05-2024 23:00:00,17.518400,78.278777,OZONE,7,28,20
India,Telangana,Hyderabad,"IITH Kandi, Hyderabad - TSPCB",19-05-2024 23:00:00,17.585705,78.126199,NO2,NA,NA,NA
India,Telangana,Hyderabad,"IITH Kandi, Hyderabad - TSPCB",19-05-2024 23:00:00,17.585705,78.126199,SO2,NA,NA,NA
India,Telangana,Hyderabad,"IITH Kandi, Hyderabad - TSPCB",19-05-2024 23:00:00,17.585705,78.126199,OZONE,19,33,26
India,Telangana,Hyderabad,"Kokapet, Hyderabad - TSPCB",19-05-2024 23:00:00,17.393559,78.339194,PM10,NA,NA,NA
India,Telangana,Hyderabad,"Kompally Municipal Office, Hyderabad - TSPCB",19-05-2024 23:00:00,17.544899,78.486949,CO,20,62,54
India,Telangana,Hyderabad,"New Malakpet, Hyderabad - TSPCB",19-05-2024 23:00:00,17.37206,78.50864,SO2,NA,NA,NA
India,Telangana,Hyderabad,"New Malakpet, Hyderabad - TSPCB",19-05-2024 23:00:00,17.37206,78.50864,CO,18,48,29
India,Telangana,Hyderabad,"Zoo Park, Hyderabad - TSPCB",19-05-2024 23:00:00,17.349694,78.451437,PM2.5,21,102,42
India,Telangana,Hyderabad,"Zoo Park, Hyderabad - TSPCB",19-05-2024 23:00:00,17.349694,78.451437,CO,28,72,57
India,Telangana,Hyderabad,"Zoo Park, Hyderabad - TSPCB",19-05-2024 23:00:00,17.349694,78.451437,OZONE,7,25,15
India,Tripura,Agartala,"Bardowali, Agartala - Tripura SPCB",19-05-2024 23:00:00,23.8175497,91.2726974,PM10,NA,NA,NA
India,Tripura,Agartala,"Bardowali, Agartala - Tripura SPCB",19-05-2024 23:00:00,23.8175497,91.2726974,SO2,NA,NA,NA
India,Uttar_Pradesh,Agra,"Manoharpur, Agra - UPPCB",19-05-2024 23:00:00,27.23711,78.01936,PM2.5,29,129,66
India,Uttar_Pradesh,Agra,"Manoharpur, Agra - UPPCB",19-05-2024 23:00:00,27.23711,78.01936,PM10,21,84,47
India,Uttar_Pradesh,Agra,"Manoharpur, Agra - UPPCB",19-05-2024 23:00:00,27.23711,78.01936,CO,10,34,11
India,Uttar_Pradesh,Agra,"Manoharpur, Agra - UPPCB",19-05-2024 23:00:00,27.23711,78.01936,OZONE,2,73,8
India,Uttar_Pradesh,Agra,"Rohta, Agra - UPPCB",19-05-2024 23:00:00,27.106972,78.000111,NH3,NA,NA,NA
India,Uttar_Pradesh,Agra,"Rohta, Agra - UPPCB",19-05-2024 23:00:00,27.106972,78.000111,OZONE,16,18,17
India,Uttar_Pradesh,Agra,"Sanjay Palace, Agra - UPPCB",19-05-2024 23:00:00,27.19865833,78.00598056,PM10,31,143,73
India,Uttar_Pradesh,Agra,"Sanjay Palace, Agra - UPPCB",19-05-2024 23:00:00,27.19865833,78.00598056,OZONE,12,92,18
India,Uttar_Pradesh,Agra,"Shahjahan Garden, Agra - UPPCB",19-05-2024 23:00:00,27.169338,78.03582,PM10,68,175,114
India,Uttar_Pradesh,Agra,"Shahjahan Garden, Agra - UPPCB",19-05-2024 23:00:00,27.169338,78.03582,OZONE,1,9,3
India,Uttar_Pradesh,Agra,"Shastripuram, Agra - UPPCB",19-05-2024 23:00:00,27.19862,77.92066,PM2.5,32,168,77
India,Uttar_Pradesh,Agra,"Shastripuram, Agra - UPPCB",19-05-2024 23:00:00,27.19862,77.92066,PM10,74,202,126
India,Uttar_Pradesh,Agra,"Shastripuram, Agra - UPPCB",19-05-2024 23:00:00,27.19862,77.92066,OZONE,1,20,12
India,Uttar_Pradesh,Baghpat,"Sardar Patel Inter College, Baghpat - UPPCB",19-05-2024 23:00:00,28.964949,77.278761,NH3,NA,NA,NA
India,Uttar_Pradesh,Baghpat,"Sardar Patel Inter College, Baghpat - UPPCB",19-05-2024 23:00:00,28.964949,77.278761,OZONE,12,108,51
India,Uttar_Pradesh,Bareilly,"Rajendra Nagar, Bareilly - UPPCB",19-05-2024 23:00:00,28.38910936,79.42963708,CO,8,78,17
India,Uttar_Pradesh,Bulandshahr,"Yamunapuram, Bulandshahr - UPPCB",19-05-2024 23:00:00,28.406963,77.849831,NO2,18,159,69
India,Uttar_Pradesh,Firozabad,"Vibhab Nagar, Firozabad - UPPCB",19-05-2024 23:00:00,27.1594,78.3953,NH3,2,2,2
India,Uttar_Pradesh,Ghaziabad,"Indirapuram, Ghaziabad - UPPCB",19-05-2024 23:00:00,28.646233,77.358075,NH3,8,11,9
India,Uttar_Pradesh,Ghaziabad,"Indirapuram, Ghaziabad - UPPCB",19-05-2024 23:00:00,28.646233,77.358075,SO2,7,14,11
India,Uttar_Pradesh,Ghaziabad,"Loni, Ghaziabad - UPPCB",19-05-2024 23:00:00,28.757294,77.278792,NO2,16,84,47
India,Uttar_Pradesh,Ghaziabad,"Loni, Ghaziabad - UPPCB",19-05-2024 23:00:00,28.757294,77.278792,CO,8,75,35
India,Uttar_Pradesh,Ghaziabad,"Sanjay Nagar, Ghaziabad - UPPCB",19-05-2024 23:00:00,28.685382,77.453839,NO2,20,119,56
India,Uttar_Pradesh,Ghaziabad,"Sanjay Nagar, Ghaziabad - UPPCB",19-05-2024 23:00:00,28.685382,77.453839,SO2,15,60,37
India,Uttar_Pradesh,Gorakhpur,"Madan Mohan Malaviya University of Technology, Gorakhpur - UPPCB",19-05-2024 23:00:00,26.730136,83.433859,PM2.5,56,141,78
India,Uttar_Pradesh,Greater Noida,"Knowledge Park - III, Greater Noida - UPPCB",19-05-2024 23:00:00,28.47272,77.482000,PM10,177,438,268
India,Uttar_Pradesh,Greater Noida,"Knowledge Park - V, Greater Noida - UPPCB",19-05-2024 23:00:00,28.557054,77.453663,NO2,31,55,39
India,Uttar_Pradesh,Hapur,"Anand Vihar, Hapur - UPPCB",19-05-2024 23:00:00,28.725645,77.749675,SO2,14,103,45
India,Uttar_Pradesh,Hapur,"Anand Vihar, Hapur - UPPCB",19-05-2024 23:00:00,28.725645,77.749675,OZONE,6,72,39
India,Uttar_Pradesh,Kanpur,"FTI Kidwai Nagar, Kanpur - UPPCB",19-05-2024 23:00:00,26.428282,80.327067,CO,29,101,41
India,Uttar_Pradesh,Kanpur,"NSI Kalyanpur, Kanpur - UPPCB",19-05-2024 23:00:00,26.509954,80.249612,NH3,2,3,2
India,Uttar_Pradesh,Kanpur,"Nehru Nagar, Kanpur - UPPCB",19-05-2024 23:00:00,26.4703136,80.3229863,OZONE,20,74,52
India,Uttar_Pradesh,Khurja,"Kalindi Kunj, Khurja - UPPCB",19-05-2024 23:00:00,28.2348927,77.8683002,SO2,55,103,65
India,Uttar_Pradesh,Lucknow,"Gomti Nagar, Lucknow - UPPCB",19-05-2024 23:00:00,26.868120,81.005119,PM10,23,148,114
India,Uttar_Pradesh,Lucknow,"Gomti Nagar, Lucknow - UPPCB",19-05-2024 23:00:00,26.868120,81.005119,SO2,7,14,10
India,Uttar_Pradesh,Lucknow,"Kukrail Picnic Spot-1, Lucknow - UPPCB",19-05-2024 23:00:00,26.90723,80.98579,OZONE,1,70,56
India,Uttar_Pradesh,Lucknow,"Lalbagh, Lucknow - CPCB",19-05-2024 23:00:00,26.8458805,80.9365541,PM2.5,93,316,215
India,Uttar_Pradesh,Lucknow,"Lalbagh, Lucknow - CPCB",19-05-2024 23:00:00,26.8458805,80.9365541,SO2,1,22,8
India,Uttar_Pradesh,Lucknow,"Talkatora District Industries Center, Lucknow - CPCB",19-05-2024 23:00:00,26.83399722,80.8917361,PM10,147,416,205
India,Uttar_Pradesh,Lucknow,"Talkatora District Industries Center, Lucknow - CPCB",19-05-2024 23:00:00,26.83399722,80.8917361,NH3,3,39,17
India,Uttar_Pradesh,Meerut,"Ganga Nagar, Meerut - UPPCB",19-05-2024 23:00:00,28.999264,77.7590354,PM2.5,33,170,86
India,Uttar_Pradesh,Meerut,"Ganga Nagar, Meerut - UPPCB",19-05-2024 23:00:00,28.999264,77.7590354,CO,18,166,29
India,Uttar_Pradesh,Meerut,"Jai Bhim Nagar, Meerut - UPPCB",19-05-2024 23:00:00,28.9535882,77.7622941,NO2,13,48,26
India,Uttar_Pradesh,Meerut,"Jai Bhim Nagar, Meerut - UPPCB",19-05-2024 23:00:00,28.9535882,77.7622941,CO,21,70,29
India,Uttar_Pradesh,Moradabad,"Buddhi Vihar, Moradabad - UPPCB",19-05-2024 23:00:00,28.83526,78.74460,PM2.5,38,175,97
India,Uttar_Pradesh,Moradabad,"Buddhi Vihar, Moradabad - UPPCB",19-05-2024 23:00:00,28.83526,78.74460,PM10,89,349,140
India,Uttar_Pradesh,Moradabad,"Buddhi Vihar, Moradabad - UPPCB",19-05-2024 23:00:00,28.83526,78.74460,SO2,22,60,35
India,Uttar_Pradesh,Moradabad,"Buddhi Vihar, Moradabad - UPPCB",19-05-2024 23:00:00,28.83526,78.74460,OZONE,4,59,28
India,Uttar_Pradesh,Moradabad,"Eco Herbal Park, Moradabad - UPPCB",19-05-2024 23:00:00,28.840739,78.697531,PM2.5,48,99,78
India,Uttar_Pradesh,Moradabad,"Employment Office, Moradabad - UPPCB",19-05-2024 23:00:00,28.88528,78.73880,NH3,4,4,4
India,Uttar_Pradesh,Moradabad,"Employment Office, Moradabad - UPPCB",19-05-2024 23:00:00,28.88528,78.73880,SO2,19,34,26
India,Uttar_Pradesh,Moradabad,"Transport Nagar, Moradabad - UPPCB",19-05-2024 23:00:00,28.802625,78.753728,NH3,5,5,5
India,Uttar_Pradesh,Muzaffarnagar,"New Mandi, Muzaffarnagar - UPPCB",19-05-2024 23:00:00,29.4723508,77.7194031,NO2,17,56,28
India,Uttar_Pradesh,Muzaffarnagar,"New Mandi, Muzaffarnagar - UPPCB",19-05-2024 23:00:00,29.4723508,77.7194031,SO2,18,57,36
India,Uttar_Pradesh,Noida,"Sector - 125, Noida - UPPCB",19-05-2024 23:00:00,28.5447608,77.3231257,NO2,14,103,63
India,Uttar_Pradesh,Noida,"Sector - 125, Noida - UPPCB",19-05-2024 23:00:00,28.5447608,77.3231257,NH3,1,7,3
India,Uttar_Pradesh,Noida,"Sector - 125, Noida - UPPCB",19-05-2024 23:00:00,28.5447608,77.3231257,CO,12,108,70
India,Uttar_Pradesh,Noida,"Sector-1, Noida - UPPCB",19-05-2024 23:00:00,28.5898,77.3101,PM2.5,27,324,149
India,Uttar_Pradesh,Noida,"Sector-1, Noida - UPPCB",19-05-2024 23:00:00,28.5898,77.3101,OZONE,4,222,75
India,Uttar_Pradesh,Prayagraj,"Jhunsi, Prayagraj - UPPCB",19-05-2024 23:00:00,25.425602,81.917152,OZONE,1,112,46
India,Uttar_Pradesh,Prayagraj,"Motilal Nehru NIT, Prayagraj - UPPCB",19-05-2024 23:00:00,25.494,81.863,PM10,34,101,60
India,Uttar_Pradesh,Prayagraj,"Motilal Nehru NIT, Prayagraj - UPPCB",19-05-2024 23:00:00,25.494,81.863,NO2,11,12,12
India,Uttar_Pradesh,Prayagraj,"Motilal Nehru NIT, Prayagraj - UPPCB",19-05-2024 23:00:00,25.494,81.863,OZONE,14,50,37
India,Uttar_Pradesh,Varanasi,"Ardhali Bazar, Varanasi - UPPCB",19-05-2024 23:00:00,25.3505986,82.9083074,SO2,19,40,23
India,Uttar_Pradesh,Varanasi,"Ardhali Bazar, Varanasi - UPPCB",19-05-2024 23:00:00,25.3505986,82.9083074,CO,8,72,21
India,Uttar_Pradesh,Varanasi,"Bhelupur, Varanasi - UPPCB",19-05-2024 23:00:00,25.301778,82.996789,NO2,8,8,8
India,Uttar_Pradesh,Varanasi,"Bhelupur, Varanasi - UPPCB",19-05-2024 23:00:00,25.301778,82.996789,NH3,1,2,1
India,Uttar_Pradesh,Varanasi,"IESD Banaras Hindu University, Varanasi - UPPCB",19-05-2024 23:00:00,25.262326,82.995408,PM2.5,NA,NA,NA
India,Uttar_Pradesh,Varanasi,"IESD Banaras Hindu University, Varanasi - UPPCB",19-05-2024 23:00:00,25.262326,82.995408,NO2,2,2,2
India,Uttar_Pradesh,Varanasi,"IESD Banaras Hindu University, Varanasi - UPPCB",19-05-2024 23:00:00,25.262326,82.995408,OZONE,1,3,1
India,Uttar_Pradesh,Vrindavan,"Omex Eternity, Vrindavan - UPPCB",19-05-2024 23:00:00,27.5714090,77.6557570,CO,24,91,31
India,Uttar_Pradesh,Vrindavan,"Omex Eternity, Vrindavan - UPPCB",19-05-2024 23:00:00,27.5714090,77.6557570,OZONE,29,35,30
India,Uttarakhand,Dehradun,"Doon University, Dehradun - UKPCB",19-05-2024 23:00:00,30.269444,78.044167,PM10,51,145,100
India,Uttarakhand,Rishikesh,"Shivaji Nagar, Rishikesh - UKPCB",19-05-2024 23:00:00,30.075911,78.2859547,SO2,1,6,2
India,West_Bengal,Asansol,"Asansol Court Area, Asansol - WBPCB",19-05-2024 23:00:00,23.685297,86.945968,PM2.5,76,195,133
India,West_Bengal,Asansol,"Asansol Court Area, Asansol - WBPCB",19-05-2024 23:00:00,23.685297,86.945968,NH3,11,13,12
India,West_Bengal,Durgapur,"PCBL Residential Complex, Durgapur - WBPCB",19-05-2024 23:00:00,23.5087640,87.3544400,NH3,1,1,1
India,West_Bengal,Durgapur,"PCBL Residential Complex, Durgapur - WBPCB",19-05-2024 23:00:00,23.5087640,87.3544400,SO2,7,26,9
India,West_Bengal,Durgapur,"Sidhu Kanhu Indoor Stadium, Durgapur - WBPCB",19-05-2024 23:00:00,23.5404352,87.2892225,PM2.5,62,255,136
India,West_Bengal,Durgapur,"Sidhu Kanhu Indoor Stadium, Durgapur - WBPCB",19-05-2024 23:00:00,23.5404352,87.2892225,NO2,19,37,25
India,West_Bengal,Durgapur,"Sidhu Kanhu Indoor Stadium, Durgapur - WBPCB",19-05-2024 23:00:00,23.5404352,87.2892225,NH3,4,6,5
India,West_Bengal,Durgapur,"Sidhu Kanhu Indoor Stadium, Durgapur - WBPCB",19-05-2024 23:00:00,23.5404352,87.2892225,SO2,13,29,23
India,West_Bengal,Howrah,"Belur Math, Howrah - WBPCB",19-05-2024 23:00:00,22.629801,88.352017,PM2.5,18,64,44
India,West_Bengal,Howrah,"Ghusuri, Howrah - WBPCB",19-05-2024 23:00:00,22.611968,88.347422,CO,14,26,19
India,West_Bengal,Howrah,"Ghusuri, Howrah - WBPCB",19-05-2024 23:00:00,22.611968,88.347422,OZONE,14,26,18
India,West_Bengal,Howrah,"Padmapukur, Howrah - WBPCB",19-05-2024 23:00:00,22.5687319,88.2797276,PM10,43,82,66
India,West_Bengal,Kolkata,"Ballygunge, Kolkata - WBPCB",19-05-2024 23:00:00,22.5367507,88.3638022,PM2.5,14,64,41
India,West_Bengal,Kolkata,"Ballygunge, Kolkata - WBPCB",19-05-2024 23:00:00,22.5367507,88.3638022,NH3,6,6,6
India,West_Bengal,Kolkata,"Ballygunge, Kolkata - WBPCB",19-05-2024 23:00:00,22.5367507,88.3638022,SO2,5,23,11
India,West_Bengal,Kolkata,"Bidhannagar, Kolkata - WBPCB",19-05-2024 23:00:00,22.58157048,88.41002457,NO2,16,32,22
India,West_Bengal,Kolkata,"Bidhannagar, Kolkata - WBPCB",19-05-2024 23:00:00,22.58157048,88.41002457,SO2,5,16,10
India,West_Bengal,Kolkata,"Bidhannagar, Kolkata - WBPCB",19-05-2024 23:00:00,22.58157048,88.41002457,OZONE,13,81,42
India,West_Bengal,Kolkata,"Fort William, Kolkata - WBPCB",19-05-2024 23:00:00,22.556640,88.342674,NH3,2,9,5
India,West_Bengal,Kolkata,"Fort William, Kolkata - WBPCB",19-05-2024 23:00:00,22.556640,88.342674,SO2,7,8,8
India,West_Bengal,Kolkata,"Rabindra Bharati University, Kolkata - WBPCB",19-05-2024 23:00:00,22.627847,88.380669,PM2.5,17,47,28
India,West_Bengal,Kolkata,"Rabindra Bharati University, Kolkata - WBPCB",19-05-2024 23:00:00,22.627847,88.380669,CO,19,39,28
India,West_Bengal,Kolkata,"Rabindra Sarobar, Kolkata - WBPCB",19-05-2024 23:00:00,22.51106,88.35142,NO2,14,29,21
India,West_Bengal,Kolkata,"Victoria, Kolkata - WBPCB",19-05-2024 23:00:00,22.5448082,88.3403691,NO2,20,22,21
India,West_Bengal,Kolkata,"Victoria, Kolkata - WBPCB",19-05-2024 23:00:00,22.5448082,88.3403691,NH3,6,6,6
India,Andhra_Pradesh,Amaravati,"Secretariat, Amaravati - APPCB",19-05-2024 23:00:00,16.5150833,80.5181667,NO2,5,14,10
India,Andhra_Pradesh,Amaravati,"Secretariat, Amaravati - APPCB",19-05-2024 23:00:00,16.5150833,80.5181667,NH3,2,4,3
India,Andhra_Pradesh,Anantapur,"Gulzarpet, Anantapur - APPCB",19-05-2024 23:00:00,14.675886,77.593027,PM2.5,NA,NA,NA
India,Andhra_Pradesh,Anantapur,"Gulzarpet, Anantapur - APPCB",19-05-2024 23:00:00,14.675886,77.593027,CO,18,75,46
India,Andhra_Pradesh,Kadapa,"Yerramukkapalli, Kadapa - APPCB",19-05-2024 23:00:00,14.465052,78.824187,NH3,NA,NA,NA
India,Andhra_Pradesh,Rajamahendravaram,"Anand Kala Kshetram, Rajamahendravaram - APPCB",19-05-2024 23:00:00,16.9872867,81.7363176,OZONE,12,34,22
India,Andhra_Pradesh,Tirupati,"Tirumala, Tirupati - APPCB",19-05-2024 23:00:00,13.67,79.35,PM2.5,2,42,21
India,Andhra_Pradesh,Tirupati,"Vaikuntapuram, Tirupati - APPCB",19-05-2024 23:00:00,13.615387,79.409230,PM2.5,16,88,38
India,Andhra_Pradesh,Tirupati,"Vaikuntapuram, Tirupati - APPCB",19-05-2024 23:00:00,13.615387,79.409230,NH3,2,3,2
India,Andhra_Pradesh,Vijayawada,"HB Colony, Vijayawada - APPCB",19-05-2024 23:00:00,16.536107,80.594233,PM2.5,41,41,41
India,Andhra_Pradesh,Vijayawada,"HB Colony, Vijayawada - APPCB",19-05-2024 23:00:00,16.536107,80.594233,NO2,25,57,34
India,Andhra_Pradesh,Vijayawada,"HB Colony, Vijayawada - APPCB",19-05-2024 23:00:00,16.536107,80.594233,CO,38,38,38
India,Andhra_Pradesh,Vijayawada,"HB Colony, Vijayawada - APPCB",19-05-2024 23:00:00,16.536107,80.594233,OZONE,3,222,18
India,Andhra_Pradesh,Vijayawada,"Kanuru, Vijayawada - APPCB",19-05-2024 23:00:00,16.486692,80.699436,SO2,NA,NA,NA
India,Andhra_Pradesh,Vijayawada,"Rajiv Gandhi Park, Vijayawada - APPCB",19-05-2024 23:00:00,16.509717,80.612222,PM2.5,30,59,40
India,Andhra_Pradesh,Vijayawada,"Rajiv Nagar, Vijayawada - APPCB",19-05-2024 23:00:00,16.554731,80.649110,PM2.5,42,44,43
India,Andhra_Pradesh,Visakhapatnam,"GVM Corporation, Visakhapatnam - APPCB",19-05-2024 23:00:00,17.72,83.3,PM10,28,95,57
India,Andhra_Pradesh,Visakhapatnam,"GVM Corporation, Visakhapatnam - APPCB",19-05-2024 23:00:00,17.72,83.3,SO2,9,16,13
India,Arunachal_Pradesh,Naharlagun,"Naharlagun, Naharlagun - APSPCB",19-05-2024 23:00:00,27.103358,93.679645,PM10,4,56,30
India,Arunachal_Pradesh,Naharlagun,"Naharlagun, Naharlagun - APSPCB",19-05-2024 23:00:00,27.103358,93.679645,NO2,3,3,3
India,Assam,Byrnihat,"Central Academy for SFS, Byrnihat - PCBA",19-05-2024 23:00:00,26.071318,91.87488,PM2.5,40,328,115
India,Assam,Byrnihat,"Central Academy for SFS, Byrnihat - PCBA",19-05-2024 23:00:00,26.071318,91.87488,NH3,14,28,20
India,Assam,Byrnihat,"Central Academy for SFS, Byrnihat - PCBA",19-05-2024 23:00:00,26.071318,91.87488,CO,11,39,30
India,Assam,Guwahati,"IITG, Guwahati - PCBA",19-05-2024 23:00:00,26.2028636,91.70046436,SO2,13,13,13
India,Assam,Guwahati,"LGBI Airport, Guwahati - PCBA",19-05-2024 23:00:00,26.10887,91.589544,PM10,6,203,71
India,Assam,Guwahati,"Pan Bazaar, Guwahati - PCBA",19-05-2024 23:00:00,26.187500,91.744194,OZONE,NA,NA,NA
India,Assam,Nagaon,"Christianpatty, Nagaon - PCBA",19-05-2024 23:00:00,26.349082,92.68449,NH3,1,3,2
India,Assam,Nalbari,"Bata Chowk, Nalbari - PCBA",19-05-2024 23:00:00,26.446912,91.439057,NH3,1,12,3
India,Assam,Nalbari,"Bata Chowk, Nalbari - PCBA",19-05-2024 23:00:00,26.446912,91.439057,CO,21,92,81
India,Assam,Silchar,"Tarapur, Silchar - PCBA",19-05-2024 23:00:00,24.82827,92.79525,OZONE,1,4,1
India,Assam,Sivasagar,"Girls College, Sivasagar - PCBA",19-05-2024 23:00:00,26.987634,94.636574,NO2,8,17,11
India,Bihar,Arrah,"New DM Office, Arrah - BSPCB",19-05-2024 23:00:00,25.5626095,84.663264,NH3,7,13,10
India,Bihar,Aurangabad,"Gurdeo Nagar, Aurangabad - BSPCB",19-05-2024 23:00:00,24.75746,84.366208,CO,8,30,15
India,Bihar,Bettiah,"Kamalnath Nagar, Bettiah - BSPCB",19-05-2024 23:00:00,26.80365,84.51954,PM10,NA,NA,NA
India,Bihar,Bhagalpur,"DM Office_Kachari Chowk, Bhagalpur - BSPCB",19-05-2024 23:00:00,25.251013,86.989001,NO2,34,59,46
India,Bihar,Bhagalpur,"DM Office_Kachari Chowk, Bhagalpur - BSPCB",19-05-2024 23:00:00,25.251013,86.989001,SO2,31,70,53
India,Bihar,Bhagalpur,"Mayaganj, Bhagalpur - BSPCB",19-05-2024 23:00:00,25.265194,87.012947,PM10,65,159,106
India,Bihar,Bhagalpur,"Mayaganj, Bhagalpur - BSPCB",19-05-2024 23:00:00,25.265194,87.012947,NH3,7,9,8
India,Bihar,Bhagalpur,"Mayaganj, Bhagalpur - BSPCB",19-05-2024 23:00:00,25.265194,87.012947,SO2,11,12,12
India,Bihar,Bhagalpur,"Mayaganj, Bhagalpur - BSPCB",19-05-2024 23:00:00,25.265194,87.012947,OZONE,12,52,40
India,Bihar,Bihar Sharif,"D M Colony, Bihar Sharif - BSPCB",19-05-2024 23:00:00,25.204762,85.514960,PM2.5,NA,NA,NA
India,Bihar,Bihar Sharif,"D M Colony, Bihar Sharif - BSPCB",19-05-2024 23:00:00,25.204762,85.514960,CO,50,58,58
India,Bihar,Buxar,"Charitra Van, Buxar - BSPCB (Formerly known as Central Jail)",19-05-2024 23:00:00,25.567520,83.966379,PM10,NA,NA,NA
India,Bihar,Buxar,"Charitra Van, Buxar - BSPCB (Formerly known as Central Jail)",19-05-2024 23:00:00,25.567520,83.966379,NH3,3,4,3
India,Bihar,Buxar,"Charitra Van, Buxar - BSPCB (Formerly known as Central Jail)",19-05-2024 23:00:00,25.567520,83.966379,CO,6,125,53
India,Bihar,Buxar,"Charitra Van, Buxar - BSPCB (Formerly known as Central Jail)",19-05-2024 23:00:00,25.567520,83.966379,OZONE,6,280,148
India,Bihar,Gaya,"Collectorate, Gaya - BSPCB",19-05-2024 23:00:00,24.7955,84.9994,PM2.5,52,138,81
India,Bihar,Gaya,"Kareemganj, Gaya - BSPCB",19-05-2024 23:00:00,24.792403,84.992416,SO2,6,9,8
India,Bihar,Gaya,"SFTI Kusdihra, Gaya - BSPCB",19-05-2024 23:00:00,24.762518,84.982348,PM2.5,28,104,70
India,Bihar,Gaya,"SFTI Kusdihra, Gaya - BSPCB",19-05-2024 23:00:00,24.762518,84.982348,NO2,17,55,34
India,Bihar,Katihar,"Mirchaibari, Katihar - BSPCB",19-05-2024 23:00:00,25.560083,87.553265,NO2,15,26,20
India,Bihar,Katihar,"Mirchaibari, Katihar - BSPCB",19-05-2024 23:00:00,25.560083,87.553265,NH3,1,3,1
India,Bihar,Katihar,"Mirchaibari, Katihar - BSPCB",19-05-2024 23:00:00,25.560083,87.553265,OZONE,4,16,10
India,Bihar,Kishanganj,"SDM Office_Khagra, Kishanganj - BSPCB",19-05-2024 23:00:00,26.0881305,87.93840336,CO,11,12,12
India,Bihar,Kishanganj,"SDM Office_Khagra, Kishanganj - BSPCB",19-05-2024 23:00:00,26.0881305,87.93840336,OZONE,39,59,49
India,Bihar,Manguraha,"Forest Rest House, Manguraha - BSPCB",19-05-2024 23:00:00,27.308328,84.531742,PM10,NA,NA,NA
India,Bihar,Manguraha,"Forest Rest House, Manguraha - BSPCB",19-05-2024 23:00:00,27.308328,84.531742,CO,14,72,70
India,Bihar,Manguraha,"Forest Rest House, Manguraha - BSPCB",19-05-2024 23:00:00,27.308328,84.531742,OZONE,6,25,14
India,Bihar,Motihari,"Gandak Colony, Motihari - BSPCB",19-05-2024 23:00:00,26.63086,84.90051,OZONE,11,52,33
India,Bihar,Munger,"Town Hall, Munger - BSPCB",19-05-2024 23:00:00,25.376776,86.471523,NH3,2,3,3
India,Bihar,Munger,"Town Hall, Munger - BSPCB",19-05-2024 23:00:00,25.376776,86.471523,CO,19,90,70
India,Bihar,Muzaffarpur,"Buddha Colony, Muzaffarpur - BSPCB",19-05-2024 23:00:00,26.11442,85.39813,PM10,77,146,112
India,Bihar,Muzaffarpur,"Buddha Colony, Muzaffarpur - BSPCB",19-05-2024 23:00:00,26.11442,85.39813,NO2,15,26,19
India,Bihar,Muzaffarpur,"Buddha Colony, Muzaffarpur - BSPCB",19-05-2024 23:00:00,26.11442,85.39813,NH3,7,12,10
India,Bihar,Muzaffarpur,"MIT-Daudpur Kothi, Muzaffarpur - BSPCB",19-05-2024 23:00:00,26.1403345,85.3650192,SO2,6,7,7
India,Bihar,Muzaffarpur,"MIT-Daudpur Kothi, Muzaffarpur - BSPCB",19-05-2024 23:00:00,26.1403345,85.3650192,CO,6,116,42
India,Bihar,Muzaffarpur,"Muzaffarpur Collectorate, Muzaffarpur - BSPCB",19-05-2024 23:00:00,26.1209,85.3647,PM2.5,53,88,69
India,Bihar,Patna,"DRM Office Danapur, Patna - BSPCB",19-05-2024 23:00:00,25.586562,85.043586,NH3,2,3,3
India,Bihar,Patna,"DRM Office Danapur, Patna - BSPCB",19-05-2024 23:00:00,25.586562,85.043586,OZONE,8,76,57
India,Bihar,Patna,"Muradpur, Patna - BSPCB",19-05-2024 23:00:00,25.619651,85.147382,NH3,2,6,5
India,Bihar,Patna,"Muradpur, Patna - BSPCB",19-05-2024 23:00:00,25.619651,85.147382,OZONE,6,62,33
India,Bihar,Patna,"Rajbansi Nagar, Patna - BSPCB",19-05-2024 23:00:00,25.599486,85.113666,SO2,1,9,4
India,Bihar,Patna,"Samanpura, Patna - BSPCB",19-05-2024 23:00:00,25.596727,85.085624,OZONE,4,111,68
India,Bihar,Purnia,"Mariam Nagar, Purnia - BSPCB",19-05-2024 23:00:00,25.366336,87.117468,PM2.5,25,73,52
India,Bihar,Purnia,"Mariam Nagar, Purnia - BSPCB",19-05-2024 23:00:00,25.366336,87.117468,PM10,34,103,74
India,Bihar,Purnia,"Mariam Nagar, Purnia - BSPCB",19-05-2024 23:00:00,25.366336,87.117468,NH3,4,17,8
India,Bihar,Purnia,"Mariam Nagar, Purnia - BSPCB",19-05-2024 23:00:00,25.366336,87.117468,CO,18,76,64
India,Bihar,Rajgir,"Dangi Tola, Rajgir - BSPCB",19-05-2024 23:00:00,25.03280,85.41948,PM2.5,NA,NA,NA
India,Bihar,Rajgir,"Dangi Tola, Rajgir - BSPCB",19-05-2024 23:00:00,25.03280,85.41948,NO2,14,18,17
India,Bihar,Rajgir,"Dangi Tola, Rajgir - BSPCB",19-05-2024 23:00:00,25.03280,85.41948,SO2,4,5,4
India,Bihar,Rajgir,"Dangi Tola, Rajgir - BSPCB",19-05-2024 23:00:00,25.03280,85.41948,CO,26,46,38
India,Bihar,Rajgir,"Dangi Tola, Rajgir - BSPCB",19-05-2024 23:00:00,25.03280,85.41948,OZONE,25,40,34
India,Bihar,Samastipur,"DM Office_Kasipur, Samastipur - BSPCB",19-05-2024 23:00:00,25.859655,85.77944,SO2,NA,NA,NA
India,Bihar,Samastipur,"DM Office_Kasipur, Samastipur - BSPCB",19-05-2024 23:00:00,25.859655,85.77944,CO,70,101,100
India,Bihar,Sasaram,"Dada Peer, Sasaram - BSPCB",19-05-2024 23:00:00,24.952822,84.002396,PM10,8,39,17
India,Bihar,Siwan,"Chitragupta Nagar, Siwan - BSPCB",19-05-2024 23:00:00,26.2271665,84.3570427,PM10,55,113,80
India,Bihar,Siwan,"Chitragupta Nagar, Siwan - BSPCB",19-05-2024 23:00:00,26.2271665,84.3570427,NH3,1,2,1
India,Chandigarh,Chandigarh,"Sector 22, Chandigarh - CPCC",19-05-2024 23:00:00,30.735567,76.775714,PM2.5,47,293,157
India,Chandigarh,Chandigarh,"Sector-53, Chandigarh - CPCC",19-05-2024 23:00:00,30.719859,76.738637,NO2,10,111,40
India,Chhattisgarh,Bhilai,"Civic Center, Bhilai - Bhilai Steel Plant",19-05-2024 23:00:00,21.185571,81.343175,SO2,9,12,10
India,Chhattisgarh,Bhilai,"Civic Center, Bhilai - Bhilai Steel Plant",19-05-2024 23:00:00,21.185571,81.343175,OZONE,18,49,37
India,Chhattisgarh,Bhilai,"Hathkhoj, Bhilai - CECB",19-05-2024 23:00:00,21.224231,81.408350,NO2,NA,NA,NA
India,Chhattisgarh,Bhilai,"Hathkhoj, Bhilai - CECB",19-05-2024 23:00:00,21.224231,81.408350,NH3,NA,NA,NA
India,Chhattisgarh,Bilaspur,"Mangala, Bilaspur - NTPC",19-05-2024 23:00:00,22.08815,82.13737,PM10,14,66,30
India,Chhattisgarh,Chhal,"Nawapara SECL Colony, Chhal - CECB",19-05-2024 23:00:00,22.118125,83.140608,PM10,19,101,42
India,Chhattisgarh,Chhal,"Nawapara SECL Colony, Chhal - CECB",19-05-2024 23:00:00,22.118125,83.140608,SO2,20,57,31
India,Chhattisgarh,Korba,"Rampur, Korba - CECB",19-05-2024 23:00:00,22.368195,82.746431,PM10,30,426,70
India,Chhattisgarh,Korba,"Rampur, Korba - CECB",19-05-2024 23:00:00,22.368195,82.746431,NH3,1,1,1
India,Chhattisgarh,Korba,"Rampur, Korba - CECB",19-05-2024 23:00:00,22.368195,82.746431,SO2,1,67,7
India,Chhattisgarh,Korba,"Rampur, Korba - CECB",19-05-2024 23:00:00,22.368195,82.746431,CO,14,28,18
India,Chhattisgarh,Korba,"Urja Nagar, Korba - CECB",19-05-2024 23:00:00,22.348441,82.549611,PM10,19,195,62
India,Chhattisgarh,Kunjemura,"OP Jindal School, Kunjemura - CECB",19-05-2024 23:00:00,22.126650,83.483212,SO2,1,8,5
India,Chhattisgarh,Milupara,"Govt. Higher Secondary School, Milupara - CECB",19-05-2024 23:00:00,22.1910172,83.5197009,NH3,1,2,1
India,Chhattisgarh,Raipur,"Bhatagaon New ISBT, Raipur - CECB",19-05-2024 23:00:00,21.219665,81.630094,OZONE,3,5,4
India,Chhattisgarh,Raipur,"Krishak Nagar, Raipur - CECB",19-05-2024 23:00:00,21.237755,81.705301,NO2,16,16,16
India,Chhattisgarh,Raipur,"Krishak Nagar, Raipur - CECB",19-05-2024 23:00:00,21.237755,81.705301,OZONE,5,62,39
India,Chhattisgarh,Raipur,"Siltara Phase-II, Raipur - CECB",19-05-2024 23:00:00,21.371751,81.664929,OZONE,3,40,22
India,Delhi,Delhi,"Alipur, Delhi - DPCC",19-05-2024 23:00:00,28.815329,77.153010,SO2,7,70,31
India,Delhi,Delhi,"Alipur, Delhi - DPCC",19-05-2024 23:00:00,28.815329,77.153010,OZONE,7,206,79
India,Delhi,Delhi,"Anand Vihar, Delhi - DPCC",19-05-2024 23:00:00,28.647622,77.3158090,NO2,47,112,81
India,Delhi,Delhi,"Ashok Vihar, Delhi - DPCC",19-05-2024 23:00:00,28.695381,77.181665,NH3,10,21,16
India,Delhi,Delhi,"Aya Nagar, Delhi - IMD",19-05-2024 23:00:00,28.4706914,77.1099364,PM10,102,277,173
India,Delhi,Delhi,"Aya Nagar, Delhi - IMD",19-05-2024 23:00:00,28.4706914,77.1099364,OZONE,9,88,39
India,Delhi,Delhi,"Burari Crossing, Delhi - IMD",19-05-2024 23:00:00,28.7256504,77.2011573,CO,10,324,38
India,Delhi,Delhi,"CRRI Mathura Road, Delhi - IMD",19-05-2024 23:00:00,28.5512005,77.2735737,PM2.5,78,353,246
India,Delhi,Delhi,"Chandni Chowk, Delhi - IITM",19-05-2024 23:00:00,28.656756,77.227234,PM2.5,156,345,278
India,Delhi,Delhi,"DTU, Delhi - CPCB",19-05-2024 23:00:00,28.7500499,77.1112615,NH3,26,40,32
India,Delhi,Delhi,"DTU, Delhi - CPCB",19-05-2024 23:00:00,28.7500499,77.1112615,SO2,36,50,41
India,Delhi,Delhi,"Dwarka-Sector 8, Delhi - DPCC ",19-05-2024 23:00:00,28.5710274,77.0719006,PM2.5,42,399,213
India,Delhi,Delhi,"Dwarka-Sector 8, Delhi - DPCC ",19-05-2024 23:00:00,28.5710274,77.0719006,CO,30,107,59
India,Delhi,Delhi,"IHBAS, Dilshad Garden, Delhi - CPCB",19-05-2024 23:00:00,28.6811736,77.3025234,SO2,4,52,26
India,Delhi,Delhi,"ITO, Delhi - CPCB",19-05-2024 23:00:00,28.628624,77.241060,SO2,6,30,17
India,Delhi,Delhi,"ITO, Delhi - CPCB",19-05-2024 23:00:00,28.628624,77.241060,OZONE,1,83,31
India,Delhi,Delhi,"Jahangirpuri, Delhi - DPCC",19-05-2024 23:00:00,28.732820,77.170633,NH3,3,23,9
India,Delhi,Delhi,"Jawaharlal Nehru Stadium, Delhi - DPCC",19-05-2024 23:00:00,28.580280,77.233829,CO,30,112,48
India,Delhi,Delhi,"Jawaharlal Nehru Stadium, Delhi - DPCC",19-05-2024 23:00:00,28.580280,77.233829,OZONE,1,276,95
India,Delhi,Delhi,"Lodhi Road, Delhi - IITM",19-05-2024 23:00:00,28.588333,77.221667,NO2,NA,NA,NA
India,Delhi,Delhi,"Lodhi Road, Delhi - IMD",19-05-2024 23:00:00,28.5918245,77.2273074,CO,8,54,16
India,Delhi,Delhi,"Major Dhyan Chand National Stadium, Delhi - DPCC",19-05-2024 23:00:00,28.611281,77.237738,NO2,15,136,66
India,Delhi,Delhi,"Major Dhyan Chand National Stadium, Delhi - DPCC",19-05-2024 23:00:00,28.611281,77.237738,SO2,11,37,23
India,Delhi,Delhi,"Mandir Marg, Delhi - DPCC",19-05-2024 23:00:00,28.636429,77.201067,NO2,102,143,114
India,Delhi,Delhi,"Mandir Marg, Delhi - DPCC",19-05-2024 23:00:00,28.636429,77.201067,OZONE,1,14,7
India,Delhi,Delhi,"Mundka, Delhi - DPCC",19-05-2024 23:00:00,28.684678,77.076574,OZONE,4,165,63
India,Delhi,Delhi,"Najafgarh, Delhi - DPCC",19-05-2024 23:00:00,28.570173,76.933762,PM10,96,420,218
India,Delhi,Delhi,"Narela, Delhi - DPCC",19-05-2024 23:00:00,28.822836,77.101981,PM2.5,47,390,216
India,Delhi,Delhi,"Narela, Delhi - DPCC",19-05-2024 23:00:00,28.822836,77.101981,NO2,7,86,36
India,Delhi,Delhi,"Narela, Delhi - DPCC",19-05-2024 23:00:00,28.822836,77.101981,SO2,5,107,44
India,Delhi,Delhi,"Nehru Nagar, Delhi - DPCC",19-05-2024 23:00:00,28.567890,77.250515,CO,38,93,58
India,Delhi,Delhi,"New Moti Bagh, Delhi - MHUA",19-05-2024 23:00:00,28.57834,77.18400,NO2,6,42,20
India,Delhi,Delhi,"North Campus, DU, Delhi - IMD",19-05-2024 23:00:00,28.6573814,77.1585447,NO2,11,64,30
India,Delhi,Delhi,"North Campus, DU, Delhi - IMD",19-05-2024 23:00:00,28.6573814,77.1585447,OZONE,5,73,34
India,Delhi,Delhi,"Okhla Phase-2, Delhi - DPCC",19-05-2024 23:00:00,28.530785,77.271255,NO2,37,151,91
India,Delhi,Delhi,"Okhla Phase-2, Delhi - DPCC",19-05-2024 23:00:00,28.530785,77.271255,SO2,2,15,9
India,Delhi,Delhi,"Okhla Phase-2, Delhi - DPCC",19-05-2024 23:00:00,28.530785,77.271255,OZONE,4,193,53
India,Delhi,Delhi,"Patparganj, Delhi - DPCC",19-05-2024 23:00:00,28.623763,77.287209,PM2.5,67,333,197
India,Delhi,Delhi,"Patparganj, Delhi - DPCC",19-05-2024 23:00:00,28.623763,77.287209,OZONE,1,191,64
India,Delhi,Delhi,"Punjabi Bagh, Delhi - DPCC",19-05-2024 23:00:00,28.674045,77.131023,PM2.5,15,437,227
India,Delhi,Delhi,"Pusa, Delhi - DPCC",19-05-2024 23:00:00,28.639652,77.146275,NH3,6,9,7
India,Delhi,Delhi,"Pusa, Delhi - IMD",19-05-2024 23:00:00,28.636110,77.173332,PM2.5,26,374,181
India,Delhi,Delhi,"Pusa, Delhi - IMD",19-05-2024 23:00:00,28.636110,77.173332,NO2,1,12,7
India,Delhi,Delhi,"Pusa, Delhi - IMD",19-05-2024 23:00:00,28.636110,77.173332,OZONE,6,65,28
India,Delhi,Delhi,"R K Puram, Delhi - DPCC",19-05-2024 23:00:00,28.563262,77.186937,OZONE,15,261,101
India,Delhi,Delhi,"Rohini, Delhi - DPCC",19-05-2024 23:00:00,28.732528,77.119920,NO2,9,103,48
India,Delhi,Delhi,"Shadipur, Delhi - CPCB",19-05-2024 23:00:00,28.6514781,77.1473105,PM10,NA,NA,NA
India,Delhi,Delhi,"Shadipur, Delhi - CPCB",19-05-2024 23:00:00,28.6514781,77.1473105,CO,48,79,63
India,Delhi,Delhi,"Sirifort, Delhi - CPCB",19-05-2024 23:00:00,28.5504249,77.2159377,NO2,27,57,47
India,Delhi,Delhi,"Sirifort, Delhi - CPCB",19-05-2024 23:00:00,28.5504249,77.2159377,NH3,15,17,16
India,Delhi,Delhi,"Vivek Vihar, Delhi - DPCC",19-05-2024 23:00:00,28.672342,77.315260,PM10,NA,NA,NA
India,Delhi,Delhi,"Wazirpur, Delhi - DPCC",19-05-2024 23:00:00,28.699793,77.165453,OZONE,3,234,66
India,Gujarat,Ahmedabad,"Chandkheda, Ahmedabad - IITM",19-05-2024 23:00:00,23.107969,72.574648,NH3,12,16,14
India,Gujarat,Ahmedabad,"Gyaspur, Ahmedabad - IITM",19-05-2024 23:00:00,22.977134,72.553024,PM2.5,79,314,144
India,Gujarat,Ahmedabad,"Gyaspur, Ahmedabad - IITM",19-05-2024 23:00:00,22.977134,72.553024,NH3,4,6,5
India,Gujarat,Ahmedabad,"Gyaspur, Ahmedabad - IITM",19-05-2024 23:00:00,22.977134,72.553024,SO2,1,30,21
India,Gujarat,Ahmedabad,"Gyaspur, Ahmedabad - IITM",19-05-2024 23:00:00,22.977134,72.553024,OZONE,23,94,89
India,Gujarat,Ahmedabad,"Maninagar, Ahmedabad - GPCB",19-05-2024 23:00:00,23.002657,72.591912,PM10,61,154,92
India,Gujarat,Ahmedabad,"Rakhial, Ahmedabad - IITM",19-05-2024 23:00:00,23.016834,72.625775,NH3,17,37,21
India,Gujarat,Ahmedabad,"SVPI Airport Hansol, Ahmedabad - IITM",19-05-2024 23:00:00,23.076793,72.627874,PM2.5,39,144,67
India,Gujarat,Ahmedabad,"SVPI Airport Hansol, Ahmedabad - IITM",19-05-2024 23:00:00,23.076793,72.627874,SO2,6,26,13
India,Gujarat,Ahmedabad,"SVPI Airport Hansol, Ahmedabad - IITM",19-05-2024 23:00:00,23.076793,72.627874,OZONE,8,62,48
India,Gujarat,Ahmedabad,"Sardar Vallabhbhai Patel Stadium, Ahmedabad - IITM",19-05-2024 23:00:00,23.043070,72.562968,PM2.5,64,219,99
India,Gujarat,Ahmedabad,"Sardar Vallabhbhai Patel Stadium, Ahmedabad - IITM",19-05-2024 23:00:00,23.043070,72.562968,PM10,79,158,105
India,Gujarat,Ankleshwar,"GIDC, Ankleshwar - GPCB",19-05-2024 23:00:00,21.613267,73.010555,PM2.5,35,87,56
India,Gujarat,Gandhinagar,"Sector-10, Gandhinagar - GPCB",19-05-2024 23:00:00,23.221714,72.654328,PM10,43,120,80
India,Gujarat,Gandhinagar,"Sector-10, Gandhinagar - GPCB",19-05-2024 23:00:00,23.221714,72.654328,SO2,4,5,4
India,Gujarat,Surat,"Science Center, Surat - SMC",19-05-2024 23:00:00,21.170046,72.795405,NO2,28,38,32
India,Haryana,Ambala,"Patti Mehar, Ambala - HSPCB",19-05-2024 23:00:00,30.379589,76.778328,OZONE,35,57,49
India,Haryana,Bahadurgarh,"Arya Nagar, Bahadurgarh - HSPCB",19-05-2024 23:00:00,28.6701,76.9254,OZONE,32,42,37
India,Haryana,Ballabgarh,"Nathu Colony, Ballabgarh - HSPCB",19-05-2024 23:00:00,28.3419248,77.319699,PM10,145,292,207
India,Haryana,Bhiwani,"H.B. Colony, Bhiwani - HSPCB",19-05-2024 23:00:00,28.806223,76.141105,PM2.5,80,199,144
India,Haryana,Bhiwani,"H.B. Colony, Bhiwani - HSPCB",19-05-2024 23:00:00,28.806223,76.141105,SO2,1,26,10
India,Haryana,Bhiwani,"H.B. Colony, Bhiwani - HSPCB",19-05-2024 23:00:00,28.806223,76.141105,CO,5,86,28
India,Haryana,Charkhi Dadri,"Mini Secretariat, Charkhi Dadri - HSPCB",19-05-2024 23:00:00,28.593883,76.270653,NH3,6,9,7
India,Haryana,Dharuhera,"Municipal Corporation Office, Dharuhera -  HSPCB",19-05-2024 23:00:00,28.206800,76.799700,CO,12,64,21
India,Haryana,Faridabad,"New Industrial Town, Faridabad - HSPCB",19-05-2024 23:00:00,28.39072,77.30059,PM10,166,395,231
India,Haryana,Faridabad,"New Industrial Town, Faridabad - HSPCB",19-05-2024 23:00:00,28.39072,77.30059,NH3,2,4,3
India,Haryana,Faridabad,"Sector 11, Faridabad - HSPCB",19-05-2024 23:00:00,28.376058,77.315741,PM2.5,146,323,239
India,Haryana,Faridabad,"Sector 11, Faridabad - HSPCB",19-05-2024 23:00:00,28.376058,77.315741,SO2,4,113,10
India,Haryana,Faridabad,"Sector 11, Faridabad - HSPCB",19-05-2024 23:00:00,28.376058,77.315741,OZONE,7,32,16
India,Haryana,Faridabad,"Sector 30, Faridabad - HSPCB",19-05-2024 23:00:00,28.4417,77.3217,NH3,NA,NA,NA
India,Haryana,Faridabad,"Sector- 16A, Faridabad - HSPCB",19-05-2024 23:00:00,28.4088421,77.3099081,SO2,1,27,14
India,Haryana,Faridabad,"Sector- 16A, Faridabad - HSPCB",19-05-2024 23:00:00,28.4088421,77.3099081,OZONE,14,14,14
India,Haryana,Fatehabad,"Huda Sector, Fatehabad - HSPCB",19-05-2024 23:00:00,29.503664,75.467934,PM2.5,45,177,99
India,Haryana,Gurugram,"NISE Gwal Pahari, Gurugram - IMD",19-05-2024 23:00:00,28.422681,77.148944,NO2,NA,NA,NA
India,Haryana,Gurugram,"Sector-51, Gurugram - HSPCB",19-05-2024 23:00:00,28.4227,77.0667,NH3,1,2,1
India,Haryana,Gurugram,"Sector-51, Gurugram - HSPCB",19-05-2024 23:00:00,28.4227,77.0667,CO,28,107,35
India,Haryana,Gurugram,"Teri Gram, Gurugram - HSPCB",19-05-2024 23:00:00,28.4275,77.1465,OZONE,30,75,45
India,Haryana,Gurugram,"Vikas Sadan, Gurugram - HSPCB",19-05-2024 23:00:00,28.4501238,77.0263051,OZONE,8,68,35
India,Haryana,Kaithal,"Rishi Nagar, Kaithal - HSPCB",19-05-2024 23:00:00,29.8006,76.4155,OZONE,7,16,9
India,Haryana,Karnal,"Sector-12, Karnal - HSPCB",19-05-2024 23:00:00,29.695300,77.002700,NO2,7,12,10
India,Haryana,Karnal,"Sector-12, Karnal - HSPCB",19-05-2024 23:00:00,29.695300,77.002700,SO2,12,13,13
India,Haryana,Karnal,"Sector-12, Karnal - HSPCB",19-05-2024 23:00:00,29.695300,77.002700,CO,21,64,37
India,Haryana,Kurukshetra,"Sector-7, Kurukshetra - HSPCB",19-05-2024 23:00:00,29.966942,76.875879,NH3,4,6,5
India,Haryana,Manesar,"Sector-2 IMT, Manesar - HSPCB",19-05-2024 23:00:00,28.360699,76.936090,PM2.5,46,222,118
India,Haryana,Manesar,"Sector-2 IMT, Manesar - HSPCB",19-05-2024 23:00:00,28.360699,76.936090,PM10,46,140,94
India,Haryana,Narnaul,"Shastri Nagar, Narnaul - HSPCB",19-05-2024 23:00:00,28.060249,76.113115,PM10,98,281,133
India,Haryana,Narnaul,"Shastri Nagar, Narnaul - HSPCB",19-05-2024 23:00:00,28.060249,76.113115,NH3,5,26,15
India,Haryana,Palwal,"Shyam Nagar, Palwal - HSPCB",19-05-2024 23:00:00,28.1485564,77.3320667,NO2,23,24,24
India,Haryana,Panchkula,"Sector-6, Panchkula - HSPCB ",19-05-2024 23:00:00,30.7057778,76.8531805555555,PM2.5,162,326,242
India,Haryana,Panchkula,"Sector-6, Panchkula - HSPCB ",19-05-2024 23:00:00,30.7057778,76.8531805555555,NO2,9,11,10
India,Haryana,Panchkula,"Sector-6, Panchkula - HSPCB ",19-05-2024 23:00:00,30.7057778,76.8531805555555,SO2,2,19,6
India,Haryana,Panipat,"Sector-18, Panipat - HSPCB",19-05-2024 23:00:00,29.432304,76.972765,PM2.5,101,106,104
India,Haryana,Yamuna Nagar,"Gobind Pura, Yamuna Nagar - HSPCB",19-05-2024 23:00:00,30.1480566,77.2893471,SO2,1,55,8
India,Himachal Pradesh,Baddi,"HIMUDA Complex Phase-1, Baddi - HPPCB",19-05-2024 23:00:00,30.943887,76.801991,PM10,108,273,163
India,Himachal Pradesh,Baddi,"HIMUDA Complex Phase-1, Baddi - HPPCB",19-05-2024 23:00:00,30.943887,76.801991,CO,34,68,48
India,Himachal Pradesh,Baddi,"HIMUDA Complex Phase-1, Baddi - HPPCB",19-05-2024 23:00:00,30.943887,76.801991,OZONE,4,185,118
India,Jharkhand,Dhanbad,"Kalakusuma, Dhanbad - DMC",19-05-2024 23:00:00,23.811548,86.481238,PM10,NA,NA,NA
India,Jharkhand,Dhanbad,"Kalakusuma, Dhanbad - DMC",19-05-2024 23:00:00,23.811548,86.481238,NO2,NA,NA,NA
India,Jharkhand,Dhanbad,"Kalakusuma, Dhanbad - DMC",19-05-2024 23:00:00,23.811548,86.481238,SO2,NA,NA,NA
India,Jharkhand,Dhanbad,"Kalakusuma, Dhanbad - DMC",19-05-2024 23:00:00,23.811548,86.481238,CO,NA,NA,NA
India,Jharkhand,Dhanbad,"Kalakusuma, Dhanbad - DMC",19-05-2024 23:00:00,23.811548,86.481238,OZONE,NA,NA,NA
India,Jharkhand,Dhanbad,"Sardar Patel Nagar, Dhanbad - JSPCB",19-05-2024 23:00:00,23.80569,86.44268,PM10,63,123,99
India,Karnataka,Bagalkot,"Vidayagiri, Bagalkot - KSPCB",19-05-2024 23:00:00,16.172806,75.659694,PM10,46,46,46
India,Karnataka,Belgaum,"Ramteerth Nagar, Belgaum - KSPCB",19-05-2024 23:00:00,15.888653,74.541751,NH3,7,12,10
India,Karnataka,Belgaum,"Ramteerth Nagar, Belgaum - KSPCB",19-05-2024 23:00:00,15.888653,74.541751,CO,32,41,36
India,Karnataka,Belgaum,"Ramteerth Nagar, Belgaum - KSPCB",19-05-2024 23:00:00,15.888653,74.541751,OZONE,19,20,19
India,Karnataka,Bengaluru,"Bapuji Nagar, Bengaluru - KSPCB",19-05-2024 23:00:00,12.951913,77.539784,NH3,1,1,1
India,Karnataka,Bengaluru,"Hebbal, Bengaluru - KSPCB",19-05-2024 23:00:00,13.029152,77.585901,OZONE,7,74,10
India,Karnataka,Bengaluru,"Hombegowda Nagar, Bengaluru - KSPCB",19-05-2024 23:00:00,12.938539,77.590100,PM2.5,12,32,21
India,Karnataka,Bengaluru,"Hombegowda Nagar, Bengaluru - KSPCB",19-05-2024 23:00:00,12.938539,77.590100,PM10,18,49,32
India,Karnataka,Bengaluru,"Kasturi Nagar, Bengaluru - KSPCB",19-05-2024 23:00:00,13.003872,77.664217,NO2,16,17,17
India,Karnataka,Bengaluru,"Kasturi Nagar, Bengaluru - KSPCB",19-05-2024 23:00:00,13.003872,77.664217,NH3,3,4,4
India,Karnataka,Bengaluru,"RVCE-Mailasandra, Bengaluru - KSPCB",19-05-2024 23:00:00,12.921418,77.502466,OZONE,39,39,39
India,Karnataka,Bengaluru,"Sanegurava Halli, Bengaluru - KSPCB",19-05-2024 23:00:00,12.990328,77.5431385,NO2,23,33,26
India,Karnataka,Bengaluru,"Silk Board, Bengaluru - KSPCB",19-05-2024 23:00:00,12.917348,77.622813,NH3,NA,NA,NA
India,Karnataka,Bidar,"Naubad, Bidar - KSPCB",19-05-2024 23:00:00,17.930306,77.482194,OZONE,12,35,25
India,Karnataka,Davanagere,"Devaraj Urs Badavane, Davanagere - KSPCB",19-05-2024 23:00:00,14.475800,75.905200,NH3,1,1,1
India,Karnataka,Davanagere,"Devaraj Urs Badavane, Davanagere - KSPCB",19-05-2024 23:00:00,14.475800,75.905200,CO,12,21,18
India,Karnataka,Haveri,"Ashwini Nagar, Haveri - KSPCB",19-05-2024 23:00:00,14.791800,75.389600,OZONE,36,56,51
India,Karnataka,Hubballi,"Deshpande Nagar, Hubballi - KSPCB",19-05-2024 23:00:00,15.351773,75.140726,NO2,NA,NA,NA
India,Karnataka,Hubballi,"Deshpande Nagar, Hubballi - KSPCB",19-05-2024 23:00:00,15.351773,75.140726,OZONE,NA,NA,NA
India,Karnataka,Kalaburagi,"Lal Bahadur Shastri Nagar, Kalaburagi - KSPCB",19-05-2024 23:00:00,17.321993,76.822628,PM10,NA,NA,NA
India,Karnataka,Kalaburagi,"Lal Bahadur Shastri Nagar, Kalaburagi - KSPCB",19-05-2024 23:00:00,17.321993,76.822628,NH3,NA,NA,NA
India,Karnataka,Kalaburagi,"Lal Bahadur Shastri Nagar, Kalaburagi - KSPCB",19-05-2024 23:00:00,17.321993,76.822628,SO2,NA,NA,NA
India,Karnataka,Kolar,"Tamaka Ind. Area, Kolar - KSPCB",19-05-2024 23:00:00,13.1276288,78.1570122,NO2,15,25,19
India,Karnataka,Kolar,"Tamaka Ind. Area, Kolar - KSPCB",19-05-2024 23:00:00,13.1276288,78.1570122,NH3,9,15,10
India,Karnataka,Kolar,"Tamaka Ind. Area, Kolar - KSPCB",19-05-2024 23:00:00,13.1276288,78.1570122,OZONE,22,45,34
India,Karnataka,Koppal,"Diwator Nagar, Koppal - KSPCB",19-05-2024 23:00:00,15.347630,76.181767,NH3,6,10,7
India,Karnataka,Madikeri,"Stuart Hill, Madikeri - KSPCB",19-05-2024 23:00:00,12.415911,75.735050,SO2,4,4,4
India,Karnataka,Mangalore,"Kadri, Mangalore - KSPCB",19-05-2024 23:00:00,12.889250,74.853000,NO2,5,6,6
India,Karnataka,Mangalore,"Kadri, Mangalore - KSPCB",19-05-2024 23:00:00,12.889250,74.853000,OZONE,30,32,32
India,Karnataka,Mysuru,"Hebbal 1st Stage, Mysuru - KSPCB",19-05-2024 23:00:00,12.21041,76.37376,PM2.5,NA,NA,NA
India,Karnataka,Shivamogga,"Vinoba Nagara, Shivamogga - KSPCB",19-05-2024 23:00:00,13.940000,75.555917,NO2,10,58,22
India,Kerala,Kannur,"Thavakkara, Kannur - Kerala PCB",19-05-2024 23:00:00,11.875000,75.373200,PM2.5,61,75,69
India,Kerala,Kollam,"Polayathode, Kollam - Kerala PCB",19-05-2024 23:00:00,8.8787,76.6073,PM10,NA,NA,NA
India,Kerala,Kollam,"Polayathode, Kollam - Kerala PCB",19-05-2024 23:00:00,8.8787,76.6073,NO2,NA,NA,NA
India,Kerala,Thiruvananthapuram,"Plammoodu, Thiruvananthapuram - Kerala PCB",19-05-2024 23:00:00,8.5149093,76.9435879,PM2.5,NA,NA,NA
India,Madhya Pradesh,Bhopal,"Paryavaran Parisar, Bhopal - MPPCB",19-05-2024 23:00:00,23.210494,77.425409,PM10,49,103,73
India,Madhya Pradesh,Bhopal,"T T Nagar, Bhopal - MPPCB",19-05-2024 23:00:00,23.233584,77.400574,PM10,61,158,97
India,Madhya Pradesh,Bhopal,"T T Nagar, Bhopal - MPPCB",19-05-2024 23:00:00,23.233584,77.400574,OZONE,57,113,94
India,Madhya Pradesh,Gwalior,"Deen Dayal Nagar, Gwalior - MPPCB",19-05-2024 23:00:00,26.259242,78.216432,NO2,9,128,55
India,Madhya Pradesh,Gwalior,"Deen Dayal Nagar, Gwalior - MPPCB",19-05-2024 23:00:00,26.259242,78.216432,NH3,7,10,9
India,Madhya Pradesh,Gwalior,"Maharaj Bada, Gwalior - MPPCB",19-05-2024 23:00:00,26.200388,78.147714,SO2,8,12,9
India,Madhya Pradesh,Gwalior,"Maharaj Bada, Gwalior - MPPCB",19-05-2024 23:00:00,26.200388,78.147714,OZONE,47,194,143
India,Madhya Pradesh,Gwalior,"Phool Bagh, Gwalior - Mondelez Ind. Food",19-05-2024 23:00:00,26.210536,78.171,PM2.5,22,325,167
India,Madhya Pradesh,Gwalior,"Phool Bagh, Gwalior - Mondelez Ind. Food",19-05-2024 23:00:00,26.210536,78.171,SO2,25,38,29
India,Madhya Pradesh,Indore,"Chhoti Gwaltoli, Indore - MPPCB",19-05-2024 23:00:00,22.4310,75.5213,OZONE,13,128,82
India,Madhya Pradesh,Indore,"Maguda Nagar, Indore - IMC",19-05-2024 23:00:00,22.7524,75.8872,CO,25,36,28
India,Madhya Pradesh,Indore,"Regional Park, Indore - IMC",19-05-2024 23:00:00,22.6780,75.8559,SO2,NA,NA,NA
India,Madhya Pradesh,Indore,"Regional Park, Indore - IMC",19-05-2024 23:00:00,22.6780,75.8559,OZONE,NA,NA,NA
India,Madhya Pradesh,Indore,"Residency Area, Indore - IMC",19-05-2024 23:00:00,22.7084,75.8815,OZONE,12,26,19
India,Madhya Pradesh,Jabalpur,"Govindh Bhavan Colony, Jabalpur - JMC",19-05-2024 23:00:00,23.163174,79.973061,CO,30,41,35
India,Madhya Pradesh,Jabalpur,"Gupteshwar, Jabalpur - JMC",19-05-2024 23:00:00,23.142888,79.916147,NO2,7,40,15
India,Madhya Pradesh,Jabalpur,"Marhatal, Jabalpur - MPPCB",19-05-2024 23:00:00,23.168606,79.932247,PM2.5,20,55,37
India,Madhya Pradesh,Jabalpur,"Marhatal, Jabalpur - MPPCB",19-05-2024 23:00:00,23.168606,79.932247,NO2,17,64,35
India,Madhya Pradesh,Jabalpur,"Marhatal, Jabalpur - MPPCB",19-05-2024 23:00:00,23.168606,79.932247,SO2,3,25,14
India,Madhya Pradesh,Jabalpur,"Marhatal, Jabalpur - MPPCB",19-05-2024 23:00:00,23.168606,79.932247,CO,22,78,48
India,Madhya Pradesh,Jabalpur,"Suhagi, Jabalpur - JMC",19-05-2024 23:00:00,23.218135,79.957770,NO2,39,45,41
India,Madhya Pradesh,Katni,"Gole Bazar, Katni - MPPCB",19-05-2024 23:00:00,23.50016,80.23284,PM2.5,20,63,37
India,Madhya Pradesh,Katni,"Gole Bazar, Katni - MPPCB",19-05-2024 23:00:00,23.50016,80.23284,PM10,27,122,62
India,Madhya Pradesh,Maihar,"Sahilara, Maihar - KJS Cements",19-05-2024 23:00:00,24.2613009,80.7231783,SO2,13,14,13
India,Madhya Pradesh,Mandideep,"Sector-D Industrial Area, Mandideep - MPPCB",19-05-2024 23:00:00,23.108440,77.511428,OZONE,31,56,46
India,Madhya Pradesh,Pithampur,"Sector-2 Industrial Area, Pithampur - MPPCB",19-05-2024 23:00:00,22.624758,75.675238,CO,30,59,46
India,Madhya Pradesh,Pithampur,"Sector-2 Industrial Area, Pithampur - MPPCB",19-05-2024 23:00:00,22.624758,75.675238,OZONE,25,76,49
India,Madhya Pradesh,Sagar,"Civil Lines, Sagar - MPPCB",19-05-2024 23:00:00,23.838586,78.759431,PM10,37,69,49
India,Madhya Pradesh,Sagar,"Civil Lines, Sagar - MPPCB",19-05-2024 23:00:00,23.838586,78.759431,NH3,4,4,4
India,Madhya Pradesh,Sagar,"Civil Lines, Sagar - MPPCB",19-05-2024 23:00:00,23.838586,78.759431,SO2,3,24,12
India,Madhya Pradesh,Sagar,"Deen Dayal Nagar, Sagar - MPPCB",19-05-2024 23:00:00,23.8640158,78.80289321,PM10,76,174,108
India,Madhya Pradesh,Satna,"Bandhavgar Colony, Satna - Birla Cement",19-05-2024 23:00:00,24.58434363,80.8549414,PM10,25,52,33
India,Madhya Pradesh,Singrauli,"Suryakiran Bhawan NCL, Singrauli - MPPCB",19-05-2024 23:00:00,24.108970,82.645580,CO,62,116,108
India,Madhya Pradesh,Ujjain,"Mahakaleshwar Temple, Ujjain - MPPCB",19-05-2024 23:00:00,23.182719 ,75.768218 ,SO2,4,16,8
India,Madhya Pradesh,Ujjain,"Mahakaleshwar Temple, Ujjain - MPPCB",19-05-2024 23:00:00,23.182719 ,75.768218 ,OZONE,109,134,125
India,Maharashtra,Ahmednagar,"Tarakpur, Ahmednagar - MPCB",19-05-2024 23:00:00,19.10122,74.73339,NO2,25,148,51
India,Maharashtra,Akola,"Ramdaspeth, Akola - MPCB",19-05-2024 23:00:00,20.719516,77.000253,PM10,37,144,82
India,Maharashtra,Akola,"Ramdaspeth, Akola - MPCB",19-05-2024 23:00:00,20.719516,77.000253,CO,24,38,28
India,Maharashtra,Amravati,"Shri Shivaji Science College, Amaravati - MPCB",19-05-2024 23:00:00,20.939198,77.765701,OZONE,10,85,68
India,Maharashtra,Aurangabad,"MIDC Chilkalthana, Aurangabad - MPCB",19-05-2024 23:00:00,19.875620,75.387310,PM2.5,NA,NA,NA
India,Maharashtra,Aurangabad,"MIDC Chilkalthana, Aurangabad - MPCB",19-05-2024 23:00:00,19.875620,75.387310,SO2,1,6,2
India,Maharashtra,Aurangabad,"MIDC Chilkalthana, Aurangabad - MPCB",19-05-2024 23:00:00,19.875620,75.387310,CO,27,53,35
India,Maharashtra,Aurangabad,"More Chowk Waluj, Aurangabad - MPCB",19-05-2024 23:00:00,19.8389439,75.244448,NO2,40,47,44
India,Maharashtra,Aurangabad,"More Chowk Waluj, Aurangabad - MPCB",19-05-2024 23:00:00,19.8389439,75.244448,NH3,9,10,9
India,Maharashtra,Aurangabad,"Rachnakar Colony, Aurangabad - MPCB",19-05-2024 23:00:00,19.863756,75.321188,PM2.5,94,222,138
India,Maharashtra,Aurangabad,"Rachnakar Colony, Aurangabad - MPCB",19-05-2024 23:00:00,19.863756,75.321188,NH3,1,2,1
India,Maharashtra,Aurangabad,"Rachnakar Colony, Aurangabad - MPCB",19-05-2024 23:00:00,19.863756,75.321188,OZONE,31,116,97
