country,state,city,station,last_update,latitude,longitude,pollutant_id,pollutant_min,pollutant_max,pollutant_avg
India,Andhra_Pradesh,Amaravati,"Secretariat, Amaravati - APPCB",25-02-2024 22:00:00,16.5150833,80.5181667,NH3,4,5,4
India,Andhra_Pradesh,Amaravati,"Secretariat, Amaravati - APPCB",25-02-2024 22:00:00,16.5150833,80.5181667,CO,6,37,30
India,Andhra_Pradesh,Anantapur,"Gulzarpet, Anantapur - APPCB",25-02-2024 22:00:00,14.675886,77.593027,SO2,12,25,14
India,Andhra_Pradesh,Anantapur,"Gulzarpet, Anantapur - APPCB",25-02-2024 22:00:00,14.675886,77.593027,CO,30,42,35
India,Andhra_Pradesh,Chittoor,"Gangineni Cheruvu, Chittoor - APPCB",25-02-2024 22:00:00,13.204880,79.097889,NH3,1,2,1
India,Andhra_Pradesh,Chittoor,"Gangineni Cheruvu, Chittoor - APPCB",25-02-2024 22:00:00,13.204880,79.097889,CO,22,60,56
India,Andhra_Pradesh,Kadapa,"Yerramukkapalli, Kadapa - APPCB",25-02-2024 22:00:00,14.465052,78.824187,NO2,8,8,8
India,Andhra_Pradesh,Rajamahendravaram,"Anand Kala Kshetram, Rajamahendravaram - APPCB",25-02-2024 22:00:00,16.9872867,81.7363176,SO2,11,12,12
India,Andhra_Pradesh,Tirupati,"Tirumala, Tirupati - APPCB",25-02-2024 22:00:00,13.67,79.35,PM2.5,46,80,58
India,Andhra_Pradesh,Tirupati,"Tirumala, Tirupati - APPCB",25-02-2024 22:00:00,13.67,79.35,SO2,2,10,6
India,Andhra_Pradesh,Tirupati,"Vaikuntapuram, Tirupati - APPCB",25-02-2024 22:00:00,13.615387,79.409230,PM2.5,20,88,41
India,Andhra_Pradesh,Tirupati,"Vaikuntapuram, Tirupati - APPCB",25-02-2024 22:00:00,13.615387,79.409230,NO2,15,23,18
India,Andhra_Pradesh,Vijayawada,"Kanuru, Vijayawada - APPCB",25-02-2024 22:00:00,16.486692,80.699436,NH3,1,1,1
India,Andhra_Pradesh,Vijayawada,"Kanuru, Vijayawada - APPCB",25-02-2024 22:00:00,16.486692,80.699436,CO,36,62,48
India,Andhra_Pradesh,Vijayawada,"Kanuru, Vijayawada - APPCB",25-02-2024 22:00:00,16.486692,80.699436,OZONE,25,25,25
India,Andhra_Pradesh,Vijayawada,"Rajiv Gandhi Park, Vijayawada - APPCB",25-02-2024 22:00:00,16.509717,80.612222,NO2,2,60,22
India,Andhra_Pradesh,Vijayawada,"Rajiv Gandhi Park, Vijayawada - APPCB",25-02-2024 22:00:00,16.509717,80.612222,OZONE,1,52,30
India,Andhra_Pradesh,Vijayawada,"Rajiv Nagar, Vijayawada - APPCB",25-02-2024 22:00:00,16.554731,80.649110,PM10,44,424,108
India,Andhra_Pradesh,Vijayawada,"Rajiv Nagar, Vijayawada - APPCB",25-02-2024 22:00:00,16.554731,80.649110,NO2,4,15,10
India,Andhra_Pradesh,Vijayawada,"Rajiv Nagar, Vijayawada - APPCB",25-02-2024 22:00:00,16.554731,80.649110,OZONE,16,35,26
India,Andhra_Pradesh,Visakhapatnam,"GVM Corporation, Visakhapatnam - APPCB",25-02-2024 22:00:00,17.72,83.3,PM2.5,38,68,52
India,Andhra_Pradesh,Visakhapatnam,"GVM Corporation, Visakhapatnam - APPCB",25-02-2024 22:00:00,17.72,83.3,NH3,4,6,5
India,Andhra_Pradesh,Visakhapatnam,"GVM Corporation, Visakhapatnam - APPCB",25-02-2024 22:00:00,17.72,83.3,CO,10,60,18
India,Arunachal_Pradesh,Naharlagun,"Naharlagun, Naharlagun - APSPCB",25-02-2024 22:00:00,27.103358,93.679645,PM10,24,123,70
India,Assam,Byrnihat,"Central Academy for SFS, Byrnihat - PCBA",25-02-2024 22:00:00,26.071318,91.87488,PM10,153,500,262
India,Assam,Guwahati,"LGBI Airport, Guwahati - PCBA",25-02-2024 22:00:00,26.10887,91.589544,OZONE,2,63,31
India,Assam,Guwahati,"Pan Bazaar, Guwahati - PCBA",25-02-2024 22:00:00,26.187500,91.744194,PM10,117,285,164
India,Assam,Guwahati,"Railway Colony, Guwahati - PCBA",25-02-2024 22:00:00,26.181742,91.78063,SO2,7,13,9
India,Assam,Nagaon,"Christianpatty, Nagaon - PCBA",25-02-2024 22:00:00,26.349082,92.68449,PM2.5,33,416,214
India,Assam,Nagaon,"Christianpatty, Nagaon - PCBA",25-02-2024 22:00:00,26.349082,92.68449,NO2,11,75,30
India,Assam,Nalbari,"Bata Chowk, Nalbari - PCBA",25-02-2024 22:00:00,26.446912,91.439057,OZONE,12,115,77
India,Bihar,Arrah,"New DM Office, Arrah - BSPCB",25-02-2024 22:00:00,25.5626095,84.663264,PM2.5,30,332,116
India,Bihar,Arrah,"New DM Office, Arrah - BSPCB",25-02-2024 22:00:00,25.5626095,84.663264,SO2,16,22,19
India,Bihar,Bettiah,"Kamalnath Nagar, Bettiah - BSPCB",25-02-2024 22:00:00,26.80365,84.51954,PM10,2,52,21
India,Bihar,Bettiah,"Kamalnath Nagar, Bettiah - BSPCB",25-02-2024 22:00:00,26.80365,84.51954,NH3,3,6,3
India,Bihar,Bhagalpur,"DM Office_Kachari Chowk, Bhagalpur - BSPCB",25-02-2024 22:00:00,25.251013,86.989001,NO2,33,89,47
India,Bihar,Bhagalpur,"DM Office_Kachari Chowk, Bhagalpur - BSPCB",25-02-2024 22:00:00,25.251013,86.989001,CO,18,84,44
India,Bihar,Bhagalpur,"Mayaganj, Bhagalpur - BSPCB",25-02-2024 22:00:00,25.265194,87.012947,NH3,7,8,8
India,Bihar,Bhagalpur,"Mayaganj, Bhagalpur - BSPCB",25-02-2024 22:00:00,25.265194,87.012947,OZONE,8,41,25
India,Bihar,Chhapra,"Darshan Nagar, Chhapra - BSPCB",25-02-2024 22:00:00,25.7808257,84.7446768,PM2.5,63,338,205
India,Bihar,Chhapra,"Darshan Nagar, Chhapra - BSPCB",25-02-2024 22:00:00,25.7808257,84.7446768,PM10,62,227,135
India,Bihar,Chhapra,"Darshan Nagar, Chhapra - BSPCB",25-02-2024 22:00:00,25.7808257,84.7446768,CO,23,44,39
India,Bihar,Chhapra,"Darshan Nagar, Chhapra - BSPCB",25-02-2024 22:00:00,25.7808257,84.7446768,OZONE,1,47,24
India,Bihar,Gaya,"Collectorate, Gaya - BSPCB",25-02-2024 22:00:00,24.7955,84.9994,NO2,1,3,2
India,Bihar,Gaya,"Collectorate, Gaya - BSPCB",25-02-2024 22:00:00,24.7955,84.9994,OZONE,47,73,63
India,Bihar,Gaya,"SFTI Kusdihra, Gaya - BSPCB",25-02-2024 22:00:00,24.762518,84.982348,NO2,20,79,46
India,Bihar,Hajipur,"Industrial Area, Hajipur - BSPCB",25-02-2024 22:00:00,25.697189,85.245900,CO,27,98,40
India,Bihar,Katihar,"Mirchaibari, Katihar - BSPCB",25-02-2024 22:00:00,25.560083,87.553265,PM2.5,13,263,127
India,Bihar,Katihar,"Mirchaibari, Katihar - BSPCB",25-02-2024 22:00:00,25.560083,87.553265,PM10,12,140,90
India,Bihar,Katihar,"Mirchaibari, Katihar - BSPCB",25-02-2024 22:00:00,25.560083,87.553265,NO2,15,29,21
India,Bihar,Katihar,"Mirchaibari, Katihar - BSPCB",25-02-2024 22:00:00,25.560083,87.553265,CO,13,101,13
India,Bihar,Kishanganj,"SDM Office_Khagra, Kishanganj - BSPCB",25-02-2024 22:00:00,26.0881305,87.93840336,OZONE,15,25,18
India,Bihar,Manguraha,"Forest Rest House, Manguraha - BSPCB",25-02-2024 22:00:00,27.308328,84.531742,NH3,1,1,1
India,Bihar,Manguraha,"Forest Rest House, Manguraha - BSPCB",25-02-2024 22:00:00,27.308328,84.531742,OZONE,44,99,84
India,Bihar,Motihari,"Gandak Colony, Motihari - BSPCB",25-02-2024 22:00:00,26.63086,84.90051,NH3,7,13,10
India,Bihar,Munger,"Town Hall, Munger - BSPCB",25-02-2024 22:00:00,25.376776,86.471523,PM2.5,35,377,131
India,Bihar,Munger,"Town Hall, Munger - BSPCB",25-02-2024 22:00:00,25.376776,86.471523,NO2,8,10,9
India,Bihar,Muzaffarpur,"MIT-Daudpur Kothi, Muzaffarpur - BSPCB",25-02-2024 22:00:00,26.1403345,85.3650192,PM2.5,42,177,91
India,Bihar,Muzaffarpur,"MIT-Daudpur Kothi, Muzaffarpur - BSPCB",25-02-2024 22:00:00,26.1403345,85.3650192,SO2,9,12,10
India,Bihar,Muzaffarpur,"Muzaffarpur Collectorate, Muzaffarpur - BSPCB",25-02-2024 22:00:00,26.1209,85.3647,PM2.5,54,207,135
India,Bihar,Patna,"DRM Office Danapur, Patna - BSPCB",25-02-2024 22:00:00,25.586562,85.043586,NO2,13,90,43
India,Bihar,Patna,"Govt. High School Shikarpur, Patna - BSPCB",25-02-2024 22:00:00,25.592539,85.227158,PM2.5,118,241,185
India,Bihar,Patna,"Govt. High School Shikarpur, Patna - BSPCB",25-02-2024 22:00:00,25.592539,85.227158,SO2,1,5,3
India,Bihar,Patna,"Muradpur, Patna - BSPCB",25-02-2024 22:00:00,25.619651,85.147382,PM2.5,62,347,167
India,Bihar,Patna,"Rajbansi Nagar, Patna - BSPCB",25-02-2024 22:00:00,25.599486,85.113666,SO2,11,17,13
India,Bihar,Patna,"Samanpura, Patna - BSPCB",25-02-2024 22:00:00,25.596727,85.085624,OZONE,5,53,35
India,Bihar,Purnia,"Mariam Nagar, Purnia - BSPCB",25-02-2024 22:00:00,25.366336,87.117468,SO2,19,34,24
India,Bihar,Rajgir,"Dangi Tola, Rajgir - BSPCB",25-02-2024 22:00:00,25.03280,85.41948,PM10,27,147,81
India,Bihar,Rajgir,"Dangi Tola, Rajgir - BSPCB",25-02-2024 22:00:00,25.03280,85.41948,OZONE,22,26,24
India,Bihar,Saharsa,"Police Line, Saharsa - BSPCB",25-02-2024 22:00:00,25.892357,86.590325,PM10,65,222,128
India,Bihar,Saharsa,"Police Line, Saharsa - BSPCB",25-02-2024 22:00:00,25.892357,86.590325,NO2,5,8,7
India,Bihar,Siwan,"Chitragupta Nagar, Siwan - BSPCB",25-02-2024 22:00:00,26.2271665,84.3570427,PM2.5,48,392,246
India,Bihar,Siwan,"Chitragupta Nagar, Siwan - BSPCB",25-02-2024 22:00:00,26.2271665,84.3570427,PM10,81,336,159
India,Chandigarh,Chandigarh,"Sector 22, Chandigarh - CPCC",25-02-2024 22:00:00,30.735567,76.775714,PM10,42,157,84
India,Chandigarh,Chandigarh,"Sector 22, Chandigarh - CPCC",25-02-2024 22:00:00,30.735567,76.775714,NH3,3,5,4
India,Chandigarh,Chandigarh,"Sector-25, Chandigarh - CPCC",25-02-2024 22:00:00,30.751462,76.762879,NO2,12,51,25
India,Chandigarh,Chandigarh,"Sector-53, Chandigarh - CPCC",25-02-2024 22:00:00,30.719859,76.738637,CO,32,99,48
India,Chandigarh,Chandigarh,"Sector-53, Chandigarh - CPCC",25-02-2024 22:00:00,30.719859,76.738637,OZONE,4,78,61
India,Chhattisgarh,Bhilai,"32Bungalows, Bhilai - CECB",25-02-2024 22:00:00,21.194815,81.314770,PM2.5,29,71,42
India,Chhattisgarh,Bhilai,"32Bungalows, Bhilai - CECB",25-02-2024 22:00:00,21.194815,81.314770,NO2,21,37,30
India,Chhattisgarh,Bhilai,"Hathkhoj, Bhilai - CECB",25-02-2024 22:00:00,21.224231,81.408350,PM2.5,19,127,47
India,Chhattisgarh,Chhal,"Nawapara SECL Colony, Chhal - CECB",25-02-2024 22:00:00,22.118125,83.140608,NH3,2,2,2
India,Chhattisgarh,Korba,"Urja Nagar, Korba - CECB",25-02-2024 22:00:00,22.348441,82.549611,PM2.5,14,32,23
India,Chhattisgarh,Korba,"Urja Nagar, Korba - CECB",25-02-2024 22:00:00,22.348441,82.549611,PM10,37,100,56
India,Chhattisgarh,Korba,"Urja Nagar, Korba - CECB",25-02-2024 22:00:00,22.348441,82.549611,SO2,3,13,5
India,Chhattisgarh,Korba,"Urja Nagar, Korba - CECB",25-02-2024 22:00:00,22.348441,82.549611,OZONE,1,1,1
India,Chhattisgarh,Kunjemura,"OP Jindal School, Kunjemura - CECB",25-02-2024 22:00:00,22.126650,83.483212,NO2,13,63,22
India,Chhattisgarh,Kunjemura,"OP Jindal School, Kunjemura - CECB",25-02-2024 22:00:00,22.126650,83.483212,NH3,2,2,2
India,Chhattisgarh,Milupara,"Govt. Higher Secondary School, Milupara - CECB",25-02-2024 22:00:00,22.1910172,83.5197009,PM10,24,71,50
India,Chhattisgarh,Milupara,"Govt. Higher Secondary School, Milupara - CECB",25-02-2024 22:00:00,22.1910172,83.5197009,SO2,NA,NA,NA
India,Chhattisgarh,Milupara,"Govt. Higher Secondary School, Milupara - CECB",25-02-2024 22:00:00,22.1910172,83.5197009,CO,5,44,33
India,Chhattisgarh,Raipur,"AIIMS, Raipur - CECB",25-02-2024 22:00:00,21.258815,81.578979,NO2,45,55,50
India,Chhattisgarh,Raipur,"AIIMS, Raipur - CECB",25-02-2024 22:00:00,21.258815,81.578979,OZONE,1,9,5
India,Chhattisgarh,Raipur,"Krishak Nagar, Raipur - CECB",25-02-2024 22:00:00,21.237755,81.705301,PM2.5,39,68,49
India,Chhattisgarh,Tumidih,"OP Jindal Industrial Park, Tumidih - CECB",25-02-2024 22:00:00,22.06631475,83.33820077,CO,22,46,33
India,Delhi,Delhi,"Alipur, Delhi - DPCC",25-02-2024 22:00:00,28.815329,77.153010,PM2.5,24,238,114
India,Delhi,Delhi,"Alipur, Delhi - DPCC",25-02-2024 22:00:00,28.815329,77.153010,CO,22,106,60
India,Delhi,Delhi,"Anand Vihar, Delhi - DPCC",25-02-2024 22:00:00,28.647622,77.3158090,SO2,12,48,28
India,Delhi,Delhi,"Ashok Vihar, Delhi - DPCC",25-02-2024 22:00:00,28.695381,77.181665,PM10,78,294,166
India,Delhi,Delhi,"Ashok Vihar, Delhi - DPCC",25-02-2024 22:00:00,28.695381,77.181665,NH3,2,5,4
India,Delhi,Delhi,"Ashok Vihar, Delhi - DPCC",25-02-2024 22:00:00,28.695381,77.181665,CO,4,64,27
India,Delhi,Delhi,"Ashok Vihar, Delhi - DPCC",25-02-2024 22:00:00,28.695381,77.181665,OZONE,4,15,11
India,Delhi,Delhi,"Bawana, Delhi - DPCC",25-02-2024 22:00:00,28.776200,77.051074,CO,12,56,26
India,Delhi,Delhi,"CRRI Mathura Road, Delhi - IMD",25-02-2024 22:00:00,28.5512005,77.2735737,PM10,NA,NA,NA
India,Delhi,Delhi,"Dr. Karni Singh Shooting Range, Delhi - DPCC",25-02-2024 22:00:00,28.498571,77.264840,NH3,5,9,7
India,Delhi,Delhi,"Dr. Karni Singh Shooting Range, Delhi - DPCC",25-02-2024 22:00:00,28.498571,77.264840,SO2,4,24,11
India,Delhi,Delhi,"Dwarka-Sector 8, Delhi - DPCC ",25-02-2024 22:00:00,28.5710274,77.0719006,PM10,109,429,179
India,Delhi,Delhi,"Dwarka-Sector 8, Delhi - DPCC ",25-02-2024 22:00:00,28.5710274,77.0719006,OZONE,1,83,49
India,Delhi,Delhi,"IGI Airport (T3), Delhi - IMD",25-02-2024 22:00:00,28.5627763,77.1180053,PM2.5,24,258,109
India,Delhi,Delhi,"IGI Airport (T3), Delhi - IMD",25-02-2024 22:00:00,28.5627763,77.1180053,PM10,33,269,140
India,Delhi,Delhi,"IGI Airport (T3), Delhi - IMD",25-02-2024 22:00:00,28.5627763,77.1180053,OZONE,3,65,36
India,Delhi,Delhi,"IHBAS, Dilshad Garden, Delhi - CPCB",25-02-2024 22:00:00,28.6811736,77.3025234,PM2.5,77,309,151
India,Delhi,Delhi,"IHBAS, Dilshad Garden, Delhi - CPCB",25-02-2024 22:00:00,28.6811736,77.3025234,PM10,73,182,128
India,Delhi,Delhi,"IHBAS, Dilshad Garden, Delhi - CPCB",25-02-2024 22:00:00,28.6811736,77.3025234,OZONE,9,29,19
India,Delhi,Delhi,"ITO, Delhi - CPCB",25-02-2024 22:00:00,28.628624,77.241060,PM2.5,52,336,212
India,Delhi,Delhi,"Jawaharlal Nehru Stadium, Delhi - DPCC",25-02-2024 22:00:00,28.580280,77.233829,OZONE,1,157,84
India,Delhi,Delhi,"Major Dhyan Chand National Stadium, Delhi - DPCC",25-02-2024 22:00:00,28.611281,77.237738,NO2,35,170,95
India,Delhi,Delhi,"Major Dhyan Chand National Stadium, Delhi - DPCC",25-02-2024 22:00:00,28.611281,77.237738,SO2,12,34,20
India,Delhi,Delhi,"Major Dhyan Chand National Stadium, Delhi - DPCC",25-02-2024 22:00:00,28.611281,77.237738,CO,70,130,86
India,Delhi,Delhi,"Mundka, Delhi - DPCC",25-02-2024 22:00:00,28.684678,77.076574,NO2,32,124,73
India,Delhi,Delhi,"NSIT Dwarka, Delhi - CPCB",25-02-2024 22:00:00,28.60909,77.0325413,SO2,12,22,14
India,Delhi,Delhi,"Narela, Delhi - DPCC",25-02-2024 22:00:00,28.822836,77.101981,CO,28,83,48
India,Delhi,Delhi,"Nehru Nagar, Delhi - DPCC",25-02-2024 22:00:00,28.567890,77.250515,NH3,7,17,12
India,Delhi,Delhi,"Nehru Nagar, Delhi - DPCC",25-02-2024 22:00:00,28.567890,77.250515,OZONE,2,198,113
India,Delhi,Delhi,"North Campus, DU, Delhi - IMD",25-02-2024 22:00:00,28.6573814,77.1585447,PM2.5,92,307,198
India,Delhi,Delhi,"North Campus, DU, Delhi - IMD",25-02-2024 22:00:00,28.6573814,77.1585447,OZONE,1,34,20
India,Delhi,Delhi,"Patparganj, Delhi - DPCC",25-02-2024 22:00:00,28.623763,77.287209,SO2,10,12,11
India,Delhi,Delhi,"Punjabi Bagh, Delhi - DPCC",25-02-2024 22:00:00,28.674045,77.131023,PM2.5,46,383,210
India,Delhi,Delhi,"Punjabi Bagh, Delhi - DPCC",25-02-2024 22:00:00,28.674045,77.131023,NH3,1,2,2
India,Delhi,Delhi,"R K Puram, Delhi - DPCC",25-02-2024 22:00:00,28.563262,77.186937,SO2,3,28,13
India,Delhi,Delhi,"Rohini, Delhi - DPCC",25-02-2024 22:00:00,28.732528,77.119920,CO,9,112,37
India,Delhi,Delhi,"Sri Aurobindo Marg, Delhi - DPCC",25-02-2024 22:00:00,28.531346,77.190156,CO,8,100,19
India,Delhi,Delhi,"Vivek Vihar, Delhi - DPCC",25-02-2024 22:00:00,28.672342,77.315260,PM10,71,282,174
India,Gujarat,Ahmedabad,"Chandkheda, Ahmedabad - IITM",25-02-2024 22:00:00,23.107969,72.574648,NH3,NA,NA,NA
India,Gujarat,Ahmedabad,"Chandkheda, Ahmedabad - IITM",25-02-2024 22:00:00,23.107969,72.574648,CO,78,106,91
India,Gujarat,Ahmedabad,"Chandkheda, Ahmedabad - IITM",25-02-2024 22:00:00,23.107969,72.574648,OZONE,9,60,43
India,Gujarat,Ahmedabad,"Gyaspur, Ahmedabad - IITM",25-02-2024 22:00:00,22.977134,72.553024,SO2,3,3,3
India,Gujarat,Ahmedabad,"Gyaspur, Ahmedabad - IITM",25-02-2024 22:00:00,22.977134,72.553024,OZONE,13,13,13
India,Gujarat,Ahmedabad,"Maninagar, Ahmedabad - GPCB",25-02-2024 22:00:00,23.002657,72.591912,PM10,51,141,98
India,Gujarat,Ahmedabad,"Maninagar, Ahmedabad - GPCB",25-02-2024 22:00:00,23.002657,72.591912,SO2,1,26,18
India,Gujarat,Ahmedabad,"Maninagar, Ahmedabad - GPCB",25-02-2024 22:00:00,23.002657,72.591912,CO,20,34,28
India,Gujarat,Ahmedabad,"Raikhad, Ahmedabad - IITM",25-02-2024 22:00:00,23.020509,72.579261,SO2,4,12,7
India,Gujarat,Ahmedabad,"Raikhad, Ahmedabad - IITM",25-02-2024 22:00:00,23.020509,72.579261,CO,2,54,15
India,Gujarat,Ahmedabad,"Rakhial, Ahmedabad - IITM",25-02-2024 22:00:00,23.016834,72.625775,NH3,2,13,6
India,Gujarat,Ahmedabad,"SAC ISRO Bopal, Ahmedabad - IITM",25-02-2024 22:00:00,23.041137,72.456691,OZONE,7,21,19
India,Gujarat,Ahmedabad,"SAC ISRO Satellite, Ahmedabad - IITM",25-02-2024 22:00:00,23.023389,72.515201,PM2.5,97,103,100
India,Gujarat,Ahmedabad,"SAC ISRO Satellite, Ahmedabad - IITM",25-02-2024 22:00:00,23.023389,72.515201,NO2,17,17,17
India,Gujarat,Ahmedabad,"SVPI Airport Hansol, Ahmedabad - IITM",25-02-2024 22:00:00,23.076793,72.627874,PM10,NA,NA,NA
India,Gujarat,Ahmedabad,"SVPI Airport Hansol, Ahmedabad - IITM",25-02-2024 22:00:00,23.076793,72.627874,NO2,NA,NA,NA
India,Gujarat,Ahmedabad,"Sardar Vallabhbhai Patel Stadium, Ahmedabad - IITM",25-02-2024 22:00:00,23.043070,72.562968,NO2,12,14,13
India,Gujarat,Ahmedabad,"Sardar Vallabhbhai Patel Stadium, Ahmedabad - IITM",25-02-2024 22:00:00,23.043070,72.562968,NH3,1,2,1
India,Gujarat,Ankleshwar,"GIDC, Ankleshwar - GPCB",25-02-2024 22:00:00,21.613267,73.010555,OZONE,21,39,36
India,Gujarat,Gandhinagar,"IIPHG Lekawada, Gandhinagar - IITM",25-02-2024 22:00:00,23.243639,72.68994,NO2,32,33,32
India,Gujarat,Gandhinagar,"IIPHG Lekawada, Gandhinagar - IITM",25-02-2024 22:00:00,23.243639,72.68994,SO2,13,14,13
India,Gujarat,Gandhinagar,"Sector-10, Gandhinagar - GPCB",25-02-2024 22:00:00,23.221714,72.654328,PM2.5,10,46,28
India,Gujarat,Gandhinagar,"Sector-10, Gandhinagar - GPCB",25-02-2024 22:00:00,23.221714,72.654328,NO2,4,15,7
India,Gujarat,Gandhinagar,"Sector-10, Gandhinagar - GPCB",25-02-2024 22:00:00,23.221714,72.654328,OZONE,3,38,24
India,Gujarat,Vapi,"Phase-1 GIDC, Vapi - GPCB",25-02-2024 22:00:00,20.362421,72.918013,OZONE,41,74,46
India,Gujarat,Vatva,"Phase-4 GIDC, Vatva - GPCB",25-02-2024 22:00:00,22.969611,72.643500,PM2.5,44,127,84
India,Haryana,Ambala,"Patti Mehar, Ambala - HSPCB",25-02-2024 22:00:00,30.379589,76.778328,PM10,37,61,49
India,Haryana,Ambala,"Patti Mehar, Ambala - HSPCB",25-02-2024 22:00:00,30.379589,76.778328,NO2,7,8,8
India,Haryana,Bahadurgarh,"Arya Nagar, Bahadurgarh - HSPCB",25-02-2024 22:00:00,28.6701,76.9254,CO,44,56,50
India,Haryana,Bahadurgarh,"Arya Nagar, Bahadurgarh - HSPCB",25-02-2024 22:00:00,28.6701,76.9254,OZONE,41,48,45
India,Haryana,Ballabgarh,"Nathu Colony, Ballabgarh - HSPCB",25-02-2024 22:00:00,28.3419248,77.319699,NO2,11,13,12
India,Haryana,Bhiwani,"H.B. Colony, Bhiwani - HSPCB",25-02-2024 22:00:00,28.806223,76.141105,PM2.5,45,121,67
India,Haryana,Bhiwani,"H.B. Colony, Bhiwani - HSPCB",25-02-2024 22:00:00,28.806223,76.141105,PM10,42,101,61
India,Haryana,Bhiwani,"H.B. Colony, Bhiwani - HSPCB",25-02-2024 22:00:00,28.806223,76.141105,NH3,6,6,6
India,Haryana,Charkhi Dadri,"Mini Secretariat, Charkhi Dadri - HSPCB",25-02-2024 22:00:00,28.593883,76.270653,PM10,64,130,87
India,Haryana,Charkhi Dadri,"Mini Secretariat, Charkhi Dadri - HSPCB",25-02-2024 22:00:00,28.593883,76.270653,NO2,8,9,9
India,Haryana,Dharuhera,"Municipal Corporation Office, Dharuhera -  HSPCB",25-02-2024 22:00:00,28.206800,76.799700,SO2,3,44,16
India,Haryana,Faridabad,"New Industrial Town, Faridabad - HSPCB",25-02-2024 22:00:00,28.39072,77.30059,PM2.5,3,191,37
India,Haryana,Faridabad,"Sector 11, Faridabad - HSPCB",25-02-2024 22:00:00,28.376058,77.315741,PM2.5,41,241,137
India,Haryana,Faridabad,"Sector 11, Faridabad - HSPCB",25-02-2024 22:00:00,28.376058,77.315741,NH3,6,6,6
India,Haryana,Faridabad,"Sector 30, Faridabad - HSPCB",25-02-2024 22:00:00,28.4417,77.3217,OZONE,NA,NA,NA
India,Haryana,Faridabad,"Sector- 16A, Faridabad - HSPCB",25-02-2024 22:00:00,28.4088421,77.3099081,CO,NA,NA,NA
India,Haryana,Fatehabad,"Huda Sector, Fatehabad - HSPCB",25-02-2024 22:00:00,29.503664,75.467934,CO,NA,NA,NA
India,Haryana,Fatehabad,"Huda Sector, Fatehabad - HSPCB",25-02-2024 22:00:00,29.503664,75.467934,OZONE,NA,NA,NA
India,Haryana,Gurugram,"Sector-51, Gurugram - HSPCB",25-02-2024 22:00:00,28.4227,77.0667,PM10,109,439,176
India,Haryana,Gurugram,"Sector-51, Gurugram - HSPCB",25-02-2024 22:00:00,28.4227,77.0667,NO2,13,29,23
India,Haryana,Gurugram,"Sector-51, Gurugram - HSPCB",25-02-2024 22:00:00,28.4227,77.0667,NH3,6,14,9
India,Haryana,Gurugram,"Sector-51, Gurugram - HSPCB",25-02-2024 22:00:00,28.4227,77.0667,SO2,2,5,3
India,Haryana,Gurugram,"Sector-51, Gurugram - HSPCB",25-02-2024 22:00:00,28.4227,77.0667,CO,30,100,36
India,Haryana,Gurugram,"Sector-51, Gurugram - HSPCB",25-02-2024 22:00:00,28.4227,77.0667,OZONE,27,67,56
India,Haryana,Jind,"Police Lines, Jind - HSPCB",25-02-2024 22:00:00,29.307814,76.337619,SO2,NA,NA,NA
India,Haryana,Jind,"Police Lines, Jind - HSPCB",25-02-2024 22:00:00,29.307814,76.337619,CO,1,111,62
India,Haryana,Kaithal,"Rishi Nagar, Kaithal - HSPCB",25-02-2024 22:00:00,29.8006,76.4155,PM10,NA,NA,NA
India,Haryana,Kaithal,"Rishi Nagar, Kaithal - HSPCB",25-02-2024 22:00:00,29.8006,76.4155,NH3,NA,NA,NA
India,Haryana,Kaithal,"Rishi Nagar, Kaithal - HSPCB",25-02-2024 22:00:00,29.8006,76.4155,SO2,NA,NA,NA
India,Haryana,Karnal,"Sector-12, Karnal - HSPCB",25-02-2024 22:00:00,29.695300,77.002700,PM2.5,10,32,20
India,Haryana,Mandikhera,"General Hospital, Mandikhera - HSPCB",25-02-2024 22:00:00,27.9002,76.9938,CO,20,38,25
India,Haryana,Narnaul,"Shastri Nagar, Narnaul - HSPCB",25-02-2024 22:00:00,28.060249,76.113115,PM10,35,119,58
India,Haryana,Palwal,"Shyam Nagar, Palwal - HSPCB",25-02-2024 22:00:00,28.1485564,77.3320667,NH3,9,9,9
India,Haryana,Palwal,"Shyam Nagar, Palwal - HSPCB",25-02-2024 22:00:00,28.1485564,77.3320667,OZONE,18,52,30
India,Haryana,Panchkula,"Sector-6, Panchkula - HSPCB ",25-02-2024 22:00:00,30.7057778,76.8531805555555,PM2.5,8,58,25
India,Haryana,Sirsa,"F-Block, Sirsa - HSPCB",25-02-2024 22:00:00,29.536400,75.015800,PM2.5,28,70,47
India,Haryana,Sirsa,"F-Block, Sirsa - HSPCB",25-02-2024 22:00:00,29.536400,75.015800,SO2,2,16,8
India,Haryana,Sirsa,"F-Block, Sirsa - HSPCB",25-02-2024 22:00:00,29.536400,75.015800,OZONE,41,96,80
India,Haryana,Sonipat,"Murthal, Sonipat - HSPCB",25-02-2024 22:00:00,29.027200,77.062100,PM2.5,50,87,72
India,Haryana,Yamuna Nagar,"Gobind Pura, Yamuna Nagar - HSPCB",25-02-2024 22:00:00,30.1480566,77.2893471,SO2,1,12,6
India,Haryana,Yamuna Nagar,"Gobind Pura, Yamuna Nagar - HSPCB",25-02-2024 22:00:00,30.1480566,77.2893471,CO,10,66,42
India,Himachal Pradesh,Baddi,"HIMUDA Complex Phase-1, Baddi - HPPCB",25-02-2024 22:00:00,30.943887,76.801991,PM2.5,28,113,48
India,Jharkhand,Dhanbad,"Kalakusuma, Dhanbad - DMC",25-02-2024 22:00:00,23.811548,86.481238,PM10,52,90,65
India,Jharkhand,Dhanbad,"Sardar Patel Nagar, Dhanbad - JSPCB",25-02-2024 22:00:00,23.80569,86.44268,PM2.5,NA,NA,NA
India,Jharkhand,Dhanbad,"Sardar Patel Nagar, Dhanbad - JSPCB",25-02-2024 22:00:00,23.80569,86.44268,CO,NA,NA,NA
India,Karnataka,Belgaum,"Ramteerth Nagar, Belgaum - KSPCB",25-02-2024 22:00:00,15.888653,74.541751,PM2.5,28,64,40
India,Karnataka,Belgaum,"Ramteerth Nagar, Belgaum - KSPCB",25-02-2024 22:00:00,15.888653,74.541751,OZONE,19,20,19
India,Karnataka,Bengaluru,"BTM Layout, Bengaluru - CPCB",25-02-2024 22:00:00,12.9135218,77.5950804,NO2,34,36,34
India,Karnataka,Bengaluru,"BTM Layout, Bengaluru - CPCB",25-02-2024 22:00:00,12.9135218,77.5950804,CO,29,30,30
India,Karnataka,Bengaluru,"BTM Layout, Bengaluru - CPCB",25-02-2024 22:00:00,12.9135218,77.5950804,OZONE,2,56,20
India,Karnataka,Bengaluru,"Bapuji Nagar, Bengaluru - KSPCB",25-02-2024 22:00:00,12.951913,77.539784,OZONE,10,26,14
India,Karnataka,Bengaluru,"Hombegowda Nagar, Bengaluru - KSPCB",25-02-2024 22:00:00,12.938539,77.590100,SO2,4,4,4
India,Karnataka,Bengaluru,"Hombegowda Nagar, Bengaluru - KSPCB",25-02-2024 22:00:00,12.938539,77.590100,CO,14,20,16
India,Karnataka,Bengaluru,"Hombegowda Nagar, Bengaluru - KSPCB",25-02-2024 22:00:00,12.938539,77.590100,OZONE,4,5,4
India,Karnataka,Bengaluru,"Jayanagar 5th Block, Bengaluru - KSPCB",25-02-2024 22:00:00,12.920984,77.584908,OZONE,26,28,28
India,Karnataka,Bengaluru,"Kasturi Nagar, Bengaluru - KSPCB",25-02-2024 22:00:00,13.003872,77.664217,PM2.5,58,126,86
India,Karnataka,Bengaluru,"Kasturi Nagar, Bengaluru - KSPCB",25-02-2024 22:00:00,13.003872,77.664217,NO2,16,17,17
India,Karnataka,Bengaluru,"Peenya, Bengaluru - CPCB",25-02-2024 22:00:00,13.0270199,77.494094,NH3,3,4,3
India,Karnataka,Bengaluru,"Peenya, Bengaluru - CPCB",25-02-2024 22:00:00,13.0270199,77.494094,SO2,12,18,16
India,Karnataka,Bengaluru,"RVCE-Mailasandra, Bengaluru - KSPCB",25-02-2024 22:00:00,12.921418,77.502466,CO,32,53,47
India,Karnataka,Bengaluru,"Sanegurava Halli, Bengaluru - KSPCB",25-02-2024 22:00:00,12.990328,77.5431385,CO,8,52,17
India,Karnataka,Bengaluru,"Shivapura_Peenya, Bengaluru - KSPCB",25-02-2024 22:00:00,13.0246342,77.5080115,NO2,15,16,15
India,Karnataka,Bengaluru,"Silk Board, Bengaluru - KSPCB",25-02-2024 22:00:00,12.917348,77.622813,PM10,53,112,84
India,Karnataka,Bengaluru,"Silk Board, Bengaluru - KSPCB",25-02-2024 22:00:00,12.917348,77.622813,SO2,5,12,7
India,Karnataka,Bengaluru,"Silk Board, Bengaluru - KSPCB",25-02-2024 22:00:00,12.917348,77.622813,CO,25,52,38
India,Karnataka,Bidar,"Naubad, Bidar - KSPCB",25-02-2024 22:00:00,17.930306,77.482194,SO2,NA,NA,NA
India,Karnataka,Chamarajanagar,"Urban, Chamarajanagar - KSPCB",25-02-2024 22:00:00,11.55358,76.55521,PM10,35,55,47
India,Karnataka,Chamarajanagar,"Urban, Chamarajanagar - KSPCB",25-02-2024 22:00:00,11.55358,76.55521,NO2,23,43,33
India,Karnataka,Davanagere,"Devaraj Urs Badavane, Davanagere - KSPCB",25-02-2024 22:00:00,14.475800,75.905200,OZONE,22,26,24
India,Karnataka,Dharwad,"Kalabhavan, Dharwad - KSPCB",25-02-2024 22:00:00,15.459706,75.008381,PM10,52,110,86
India,Karnataka,Dharwad,"Kalabhavan, Dharwad - KSPCB",25-02-2024 22:00:00,15.459706,75.008381,NO2,4,35,22
India,Karnataka,Dharwad,"Kalabhavan, Dharwad - KSPCB",25-02-2024 22:00:00,15.459706,75.008381,CO,40,121,74
India,Karnataka,Hassan,"B.Katihalli, Hassan - KSPCB",25-02-2024 22:00:00,13.008556,76.125258,NH3,3,4,3
India,Karnataka,Hassan,"B.Katihalli, Hassan - KSPCB",25-02-2024 22:00:00,13.008556,76.125258,CO,8,64,26
India,Karnataka,Haveri,"Ashwini Nagar, Haveri - KSPCB",25-02-2024 22:00:00,14.791800,75.389600,NO2,NA,NA,NA
India,Karnataka,Haveri,"Ashwini Nagar, Haveri - KSPCB",25-02-2024 22:00:00,14.791800,75.389600,NH3,NA,NA,NA
India,Karnataka,Haveri,"Ashwini Nagar, Haveri - KSPCB",25-02-2024 22:00:00,14.791800,75.389600,SO2,NA,NA,NA
India,Karnataka,Hubballi,"Deshpande Nagar, Hubballi - KSPCB",25-02-2024 22:00:00,15.351773,75.140726,SO2,NA,NA,NA
India,Karnataka,Hubballi,"Lingaraj Nagar, Hubballi - KSPCB",25-02-2024 22:00:00,15.3714823,75.1160168,NH3,2,2,2
India,Karnataka,Hubballi,"Lingaraj Nagar, Hubballi - KSPCB",25-02-2024 22:00:00,15.3714823,75.1160168,SO2,3,36,11
India,Karnataka,Kalaburagi,"Mahatma Basaveswar Colony, Kalaburgi - KSPCB",25-02-2024 22:00:00,17.336318,76.847397,PM2.5,29,57,41
India,Karnataka,Karwar,"KHB Colony, Karwar - KSPCB",25-02-2024 22:00:00,14.816666,74.141003,PM2.5,32,85,54
India,Karnataka,Karwar,"KHB Colony, Karwar - KSPCB",25-02-2024 22:00:00,14.816666,74.141003,NO2,3,8,6
India,Karnataka,Karwar,"KHB Colony, Karwar - KSPCB",25-02-2024 22:00:00,14.816666,74.141003,CO,7,8,8
India,Karnataka,Karwar,"KHB Colony, Karwar - KSPCB",25-02-2024 22:00:00,14.816666,74.141003,OZONE,21,22,21
India,Karnataka,Kolar,"Tamaka Ind. Area, Kolar - KSPCB",25-02-2024 22:00:00,13.1276288,78.1570122,SO2,8,9,9
India,Karnataka,Koppal,"Diwator Nagar, Koppal - KSPCB",25-02-2024 22:00:00,15.347630,76.181767,NO2,3,39,16
India,Karnataka,Koppal,"Diwator Nagar, Koppal - KSPCB",25-02-2024 22:00:00,15.347630,76.181767,CO,34,38,36
India,Karnataka,Koppal,"Diwator Nagar, Koppal - KSPCB",25-02-2024 22:00:00,15.347630,76.181767,OZONE,1,52,36
India,Karnataka,Madikeri,"Stuart Hill, Madikeri - KSPCB",25-02-2024 22:00:00,12.415911,75.735050,NO2,6,8,7
India,Karnataka,Mangalore,"Kadri, Mangalore - KSPCB",25-02-2024 22:00:00,12.889250,74.853000,NH3,2,2,2
India,Karnataka,Mangalore,"Kadri, Mangalore - KSPCB",25-02-2024 22:00:00,12.889250,74.853000,SO2,20,21,21
India,Karnataka,Mangalore,"Kadri, Mangalore - KSPCB",25-02-2024 22:00:00,12.889250,74.853000,CO,30,38,32
India,Karnataka,Mysuru,"Hebbal 1st Stage, Mysuru - KSPCB",25-02-2024 22:00:00,12.21041,76.37376,PM10,50,85,62
India,Karnataka,Mysuru,"Hebbal 1st Stage, Mysuru - KSPCB",25-02-2024 22:00:00,12.21041,76.37376,NH3,1,3,2
India,Karnataka,Raichur,"Haji Colony, Raichur - KSPCB",25-02-2024 22:00:00,16.208139,77.348417,PM10,63,139,90
India,Karnataka,Shivamogga,"Vinoba Nagara, Shivamogga - KSPCB",25-02-2024 22:00:00,13.940000,75.555917,PM2.5,34,59,41
India,Karnataka,Shivamogga,"Vinoba Nagara, Shivamogga - KSPCB",25-02-2024 22:00:00,13.940000,75.555917,PM10,50,88,60
India,Karnataka,Shivamogga,"Vinoba Nagara, Shivamogga - KSPCB",25-02-2024 22:00:00,13.940000,75.555917,NH3,2,4,3
India,Karnataka,Vijayapura,"Ibrahimpur, Vijayapura - KSPCB",25-02-2024 22:00:00,16.802639,75.722694,SO2,10,115,69
India,Karnataka,Yadgir,"Collector Office, Yadgir - KSPCB",25-02-2024 22:00:00,16.7602,77.1428,NH3,NA,NA,NA
India,Kerala,Eloor,"Udyogamandal, Eloor - Kerala PCB",25-02-2024 22:00:00,10.073232,76.302765,NH3,1,1,1
India,Kerala,Kannur,"Thavakkara, Kannur - Kerala PCB",25-02-2024 22:00:00,11.875000,75.373200,PM2.5,49,65,56
India,Kerala,Kannur,"Thavakkara, Kannur - Kerala PCB",25-02-2024 22:00:00,11.875000,75.373200,CO,29,38,32
India,Kerala,Kochi,"Vyttila, Kochi - Kerala PCB",25-02-2024 22:00:00,9.969447,76.321186,PM10,54,117,75
India,Kerala,Kochi,"Vyttila, Kochi - Kerala PCB",25-02-2024 22:00:00,9.969447,76.321186,NO2,1,4,2
India,Kerala,Kollam,"Polayathode, Kollam - Kerala PCB",25-02-2024 22:00:00,8.8787,76.6073,PM10,62,98,81
India,Kerala,Thiruvananthapuram,"Kariavattom, Thiruvananthapuram - Kerala PCB",25-02-2024 22:00:00,8.563700,76.886500,OZONE,27,31,29
India,Kerala,Thiruvananthapuram,"Plammoodu, Thiruvananthapuram - Kerala PCB",25-02-2024 22:00:00,8.5149093,76.9435879,PM2.5,27,139,54
India,Kerala,Thiruvananthapuram,"Plammoodu, Thiruvananthapuram - Kerala PCB",25-02-2024 22:00:00,8.5149093,76.9435879,NO2,9,11,10
India,Madhya Pradesh,Bhopal,"Idgah Hills, Bhopal - MPPCB",25-02-2024 22:00:00,23.264759,77.381568,PM2.5,35,133,50
India,Madhya Pradesh,Bhopal,"Idgah Hills, Bhopal - MPPCB",25-02-2024 22:00:00,23.264759,77.381568,PM10,68,181,103
India,Madhya Pradesh,Gwalior,"City Center, Gwalior - MPPCB",25-02-2024 22:00:00,26.203442,78.193251,PM10,62,141,89
India,Madhya Pradesh,Gwalior,"City Center, Gwalior - MPPCB",25-02-2024 22:00:00,26.203442,78.193251,CO,36,87,58
India,Madhya Pradesh,Gwalior,"Phool Bagh, Gwalior - Mondelez Ind. Food",25-02-2024 22:00:00,26.210536,78.171,SO2,10,16,11
India,Madhya Pradesh,Indore,"Chhoti Gwaltoli, Indore - MPPCB",25-02-2024 22:00:00,22.4310,75.5213,PM10,74,252,114
India,Madhya Pradesh,Indore,"Chhoti Gwaltoli, Indore - MPPCB",25-02-2024 22:00:00,22.4310,75.5213,NH3,2,4,3
India,Madhya Pradesh,Indore,"Regional Park, Indore - IMC",25-02-2024 22:00:00,22.6780,75.8559,OZONE,5,15,11
India,Madhya Pradesh,Indore,"Residency Area, Indore - IMC",25-02-2024 22:00:00,22.7084,75.8815,SO2,23,37,26
India,Madhya Pradesh,Indore,"Residency Area, Indore - IMC",25-02-2024 22:00:00,22.7084,75.8815,CO,12,24,13
India,Madhya Pradesh,Jabalpur,"Marhatal, Jabalpur - MPPCB",25-02-2024 22:00:00,23.168606,79.932247,PM2.5,43,82,60
India,Madhya Pradesh,Jabalpur,"Marhatal, Jabalpur - MPPCB",25-02-2024 22:00:00,23.168606,79.932247,PM10,NA,NA,NA
India,Madhya Pradesh,Jabalpur,"Marhatal, Jabalpur - MPPCB",25-02-2024 22:00:00,23.168606,79.932247,NH3,3,4,3
India,Madhya Pradesh,Katni,"Gole Bazar, Katni - MPPCB",25-02-2024 22:00:00,23.50016,80.23284,PM2.5,NA,NA,NA
India,Madhya Pradesh,Katni,"Gole Bazar, Katni - MPPCB",25-02-2024 22:00:00,23.50016,80.23284,CO,NA,NA,NA
India,Madhya Pradesh,Katni,"Gole Bazar, Katni - MPPCB",25-02-2024 22:00:00,23.50016,80.23284,OZONE,NA,NA,NA
India,Madhya Pradesh,Maihar,"Sahilara, Maihar - KJS Cements",25-02-2024 22:00:00,24.2613009,80.7231783,CO,31,39,33
India,Madhya Pradesh,Mandideep,"Sector-D Industrial Area, Mandideep - MPPCB",25-02-2024 22:00:00,23.108440,77.511428,NH3,10,12,12
India,Madhya Pradesh,Mandideep,"Sector-D Industrial Area, Mandideep - MPPCB",25-02-2024 22:00:00,23.108440,77.511428,CO,14,108,50
India,Madhya Pradesh,Pithampur,"Sector-2 Industrial Area, Pithampur - MPPCB",25-02-2024 22:00:00,22.624758,75.675238,CO,38,77,63
India,Madhya Pradesh,Sagar,"Civil Lines, Sagar - MPPCB",25-02-2024 22:00:00,23.838586,78.759431,NO2,11,16,13
India,Madhya Pradesh,Sagar,"Civil Lines, Sagar - MPPCB",25-02-2024 22:00:00,23.838586,78.759431,SO2,3,5,4
India,Madhya Pradesh,Sagar,"Deen Dayal Nagar, Sagar - MPPCB",25-02-2024 22:00:00,23.8640158,78.80289321,PM2.5,11,30,18
India,Madhya Pradesh,Sagar,"Deen Dayal Nagar, Sagar - MPPCB",25-02-2024 22:00:00,23.8640158,78.80289321,PM10,25,82,45
India,Madhya Pradesh,Satna,"Bandhavgar Colony, Satna - Birla Cement",25-02-2024 22:00:00,24.58434363,80.8549414,PM10,18,43,30
India,Madhya Pradesh,Singrauli,"Suryakiran Bhawan NCL, Singrauli - MPPCB",25-02-2024 22:00:00,24.108970,82.645580,PM10,60,225,136
India,Madhya Pradesh,Singrauli,"Suryakiran Bhawan NCL, Singrauli - MPPCB",25-02-2024 22:00:00,24.108970,82.645580,OZONE,14,70,54
India,Madhya Pradesh,Ujjain,"Mahakaleshwar Temple, Ujjain - MPPCB",25-02-2024 22:00:00,23.182719 ,75.768218 ,NH3,4,5,4
India,Madhya Pradesh,Ujjain,"Mahakaleshwar Temple, Ujjain - MPPCB",25-02-2024 22:00:00,23.182719 ,75.768218 ,SO2,5,31,13
India,Maharashtra,Ahmednagar,"Tarakpur, Ahmednagar - MPCB",25-02-2024 22:00:00,19.10122,74.73339,NH3,NA,NA,NA
India,Maharashtra,Akola,"Ramdaspeth, Akola - MPCB",25-02-2024 22:00:00,20.719516,77.000253,NH3,5,17,8
India,Maharashtra,Akola,"Ramdaspeth, Akola - MPCB",25-02-2024 22:00:00,20.719516,77.000253,SO2,7,17,13
India,Maharashtra,Amravati,"Shivneri Colony, Amravati - MPCB",25-02-2024 22:00:00,20.9402359,77.7895248,NO2,11,83,35
India,Maharashtra,Amravati,"Shivneri Colony, Amravati - MPCB",25-02-2024 22:00:00,20.9402359,77.7895248,NH3,1,1,1
India,Maharashtra,Amravati,"Shri Shivaji Science College, Amaravati - MPCB",25-02-2024 22:00:00,20.939198,77.765701,NO2,8,92,30
India,Maharashtra,Aurangabad,"MIDC Chilkalthana, Aurangabad - MPCB",25-02-2024 22:00:00,19.875620,75.387310,PM10,79,127,98
India,Maharashtra,Aurangabad,"More Chowk Waluj, Aurangabad - MPCB",25-02-2024 22:00:00,19.8389439,75.244448,PM10,27,83,54
India,Maharashtra,Aurangabad,"More Chowk Waluj, Aurangabad - MPCB",25-02-2024 22:00:00,19.8389439,75.244448,OZONE,5,16,9
India,Maharashtra,Aurangabad,"Rachnakar Colony, Aurangabad - MPCB",25-02-2024 22:00:00,19.863756,75.321188,NO2,14,73,29
India,Maharashtra,Badlapur,"Katrap, Badlapur - MPCB",25-02-2024 22:00:00,19.16485,73.23409,PM2.5,68,284,137
India,Maharashtra,Badlapur,"Katrap, Badlapur - MPCB",25-02-2024 22:00:00,19.16485,73.23409,NO2,32,93,53
India,Maharashtra,Belapur,"CBD Belapur, Belapur - MPCB",25-02-2024 22:00:00,19.0243902,73.0406721,PM2.5,21,306,87
India,Maharashtra,Bhiwandi,"Gokul Nagar, Bhiwandi - MPCB",25-02-2024 22:00:00,19.309073,73.057223,OZONE,9,92,68
India,Maharashtra,Chandrapur,"Chauhan Colony, Chandrapur - MPCB",25-02-2024 22:00:00,19.962900,79.298714,SO2,6,31,16
India,Maharashtra,Chandrapur,"Chauhan Colony, Chandrapur - MPCB",25-02-2024 22:00:00,19.962900,79.298714,OZONE,6,6,6
India,Maharashtra,Chandrapur,"MIDC Khutala, Chandrapur - MPCB",25-02-2024 22:00:00,19.9775302,79.2337086,PM10,NA,NA,NA
India,Maharashtra,Chandrapur,"MIDC Khutala, Chandrapur - MPCB",25-02-2024 22:00:00,19.9775302,79.2337086,NO2,NA,NA,NA
India,Maharashtra,Dhule,"Deopur, Dhule - MPCB",25-02-2024 22:00:00,20.918946,74.776388,NO2,8,68,20
India,Maharashtra,Dhule,"Deopur, Dhule - MPCB",25-02-2024 22:00:00,20.918946,74.776388,OZONE,10,74,56
India,Maharashtra,Jalgaon,"Prabhat Colony, Jalgaon - MPCB",25-02-2024 22:00:00,21.001264,75.565602,PM2.5,64,209,102
India,Maharashtra,Kalyan,"Khadakpada, Kalyan - MPCB",25-02-2024 22:00:00,19.25292,73.142019,OZONE,9,33,25
India,Maharashtra,Kolhapur,"Shivaji University, Kolhapur - MPCB",25-02-2024 22:00:00,16.6870449,74.2505872,PM2.5,66,88,74
India,Maharashtra,Kolhapur,"Shivaji University, Kolhapur - MPCB",25-02-2024 22:00:00,16.6870449,74.2505872,NH3,2,9,5
India,Maharashtra,Kolhapur,"Sinchan Bhavan, Kolhapur - MPCB",25-02-2024 22:00:00,16.7143745,74.2426398,PM2.5,51,161,85
India,Maharashtra,Latur,"Sawe Wadi, Latur - MPCB",25-02-2024 22:00:00,18.39963,76.57452,PM10,NA,NA,NA
India,Maharashtra,Latur,"Sawe Wadi, Latur - MPCB",25-02-2024 22:00:00,18.39963,76.57452,NH3,NA,NA,NA
India,Maharashtra,Latur,"Sawe Wadi, Latur - MPCB",25-02-2024 22:00:00,18.39963,76.57452,OZONE,NA,NA,NA
India,Maharashtra,Mahad,"Kamble Tarf Birwadi, Mahad - MPCB",25-02-2024 22:00:00,18.1023399,73.4783687,CO,25,56,36
India,Maharashtra,Malegaon,"Mahesh Nagar, Malegaon - MPCB",25-02-2024 22:00:00,20.555712,74.529236,NO2,4,20,10
India,Maharashtra,Malegaon,"Mahesh Nagar, Malegaon - MPCB",25-02-2024 22:00:00,20.555712,74.529236,OZONE,12,52,43
India,Maharashtra,Mira-Bhayandar,"Bhayandar West, Mira-Bhayandar - MPCB",25-02-2024 22:00:00,19.296481,72.840923,CO,16,70,23
India,Maharashtra,Mira-Bhayandar,"Bhayandar West, Mira-Bhayandar - MPCB",25-02-2024 22:00:00,19.296481,72.840923,OZONE,3,147,112
India,Maharashtra,Mumbai,"Bandra Kurla Complex, Mumbai - MPCB",25-02-2024 22:00:00,19.065931,72.862131,PM10,113,423,205
India,Maharashtra,Mumbai,"Bandra Kurla Complex, Mumbai - MPCB",25-02-2024 22:00:00,19.065931,72.862131,NO2,16,51,38
India,Maharashtra,Mumbai,"Chakala-Andheri East, Mumbai - IITM",25-02-2024 22:00:00,19.11074,72.86084,NH3,4,33,15
India,Maharashtra,Mumbai,"Chakala-Andheri East, Mumbai - IITM",25-02-2024 22:00:00,19.11074,72.86084,SO2,7,51,24
India,Maharashtra,Mumbai,"Chakala-Andheri East, Mumbai - IITM",25-02-2024 22:00:00,19.11074,72.86084,OZONE,1,83,52
India,Maharashtra,Mumbai,"Chembur, Mumbai - MPCB",25-02-2024 22:00:00,19.0364585,72.8954371,PM2.5,48,88,74
India,Maharashtra,Mumbai,"Chembur, Mumbai - MPCB",25-02-2024 22:00:00,19.0364585,72.8954371,NO2,33,122,80
India,Maharashtra,Mumbai,"Chembur, Mumbai - MPCB",25-02-2024 22:00:00,19.0364585,72.8954371,CO,25,66,35
India,Maharashtra,Mumbai,"Chhatrapati Shivaji Intl. Airport (T2), Mumbai - MPCB",25-02-2024 22:00:00,19.10078,72.87462,CO,46,114,59
India,Maharashtra,Mumbai,"Chhatrapati Shivaji Intl. Airport (T2), Mumbai - MPCB",25-02-2024 22:00:00,19.10078,72.87462,OZONE,4,27,17
India,Maharashtra,Mumbai,"Colaba, Mumbai - MPCB",25-02-2024 22:00:00,18.910000,72.820000,PM10,66,107,93
India,Maharashtra,Mumbai,"Ghatkopar, Mumbai - BMC",25-02-2024 22:00:00,19.083694,72.920967,NH3,NA,NA,NA
India,Maharashtra,Mumbai,"Kandivali West, Mumbai - BMC",25-02-2024 22:00:00,19.215859,72.831718,NO2,13,43,20
India,Maharashtra,Mumbai,"Kandivali West, Mumbai - BMC",25-02-2024 22:00:00,19.215859,72.831718,NH3,1,2,2
India,Maharashtra,Mumbai,"Kandivali West, Mumbai - BMC",25-02-2024 22:00:00,19.215859,72.831718,CO,13,28,17
India,Maharashtra,Mumbai,"Khindipada-Bhandup West, Mumbai - IITM",25-02-2024 22:00:00,19.1653323,72.922099,PM2.5,35,92,68
India,Maharashtra,Mumbai,"Kurla, Mumbai - MPCB",25-02-2024 22:00:00,19.0863,72.8888,PM10,56,144,97
India,Maharashtra,Mumbai,"Mindspace-Malad West, Mumbai - MPCB",25-02-2024 22:00:00,19.1878657,72.8304069,PM2.5,44,131,69
India,Maharashtra,Mumbai,"Mindspace-Malad West, Mumbai - MPCB",25-02-2024 22:00:00,19.1878657,72.8304069,SO2,4,13,8
India,Maharashtra,Mumbai,"Mulund West, Mumbai - MPCB",25-02-2024 22:00:00,19.1750,72.9419,PM10,44,92,67
India,Maharashtra,Mumbai,"Mulund West, Mumbai - MPCB",25-02-2024 22:00:00,19.1750,72.9419,OZONE,7,7,7
India,Maharashtra,Mumbai,"Siddharth Nagar-Worli, Mumbai - IITM",25-02-2024 22:00:00,19.000083,72.813993,PM10,99,170,137
India,Maharashtra,Mumbai,"Sion, Mumbai - MPCB",25-02-2024 22:00:00,19.047000,72.874600,SO2,35,43,38
India,Maharashtra,Mumbai,"Vile Parle West, Mumbai - MPCB",25-02-2024 22:00:00,19.10861,72.83622,SO2,13,14,14
India,Maharashtra,Mumbai,"Worli, Mumbai - MPCB",25-02-2024 22:00:00,18.9936162,72.8128113,PM2.5,23,95,38
India,Maharashtra,Nagpur,"Ambazari, Nagpur - MPCB",25-02-2024 22:00:00,21.121801,79.04952,PM10,90,150,115
India,Maharashtra,Nagpur,"Ambazari, Nagpur - MPCB",25-02-2024 22:00:00,21.121801,79.04952,NH3,1,4,2
India,Maharashtra,Nagpur,"Ambazari, Nagpur - MPCB",25-02-2024 22:00:00,21.121801,79.04952,CO,10,53,28
India,Maharashtra,Nagpur,"Opp GPO Civil Lines, Nagpur - MPCB",25-02-2024 22:00:00,21.152875,79.0517531,NH3,2,4,3
India,Maharashtra,Nagpur,"Ram Nagar, Nagpur - MPCB",25-02-2024 22:00:00,21.143383,79.048912,SO2,21,106,60
India,Maharashtra,Nanded,"Sneh Nagar, Nanded - MPCB",25-02-2024 22:00:00,19.173852,77.296291,NH3,1,2,1
India,Maharashtra,Nanded,"Sneh Nagar, Nanded - MPCB",25-02-2024 22:00:00,19.173852,77.296291,CO,28,38,34
India,Maharashtra,Nashik,"Gangapur Road, Nashik - MPCB",25-02-2024 22:00:00,20.0073285,73.7762427,OZONE,2,72,65
India,Maharashtra,Nashik,"Hirawadi, Nashik - MPCB",25-02-2024 22:00:00,20.021503,73.813844,PM2.5,31,79,49
India,Maharashtra,Nashik,"MIDC Ambad, Nashik - MPCB",25-02-2024 22:00:00,19.950220,73.731480,PM2.5,44,230,68
India,Maharashtra,Nashik,"MIDC Ambad, Nashik - MPCB",25-02-2024 22:00:00,19.950220,73.731480,PM10,44,147,66
India,Maharashtra,Nashik,"Pandav Nagari, Nashik - MPCB",25-02-2024 22:00:00,19.9591346,73.7788008,PM10,54,106,73
India,Maharashtra,Nashik,"Pandav Nagari, Nashik - MPCB",25-02-2024 22:00:00,19.9591346,73.7788008,CO,8,106,35
India,Maharashtra,Nashik,"Pandav Nagari, Nashik - MPCB",25-02-2024 22:00:00,19.9591346,73.7788008,OZONE,32,98,74
India,Maharashtra,Navi Mumbai,"Kopripada-Vashi, Navi Mumbai - MPCB",25-02-2024 22:00:00,19.090337,73.014232,PM10,61,161,102
India,Maharashtra,Navi Mumbai,"Kopripada-Vashi, Navi Mumbai - MPCB",25-02-2024 22:00:00,19.090337,73.014232,SO2,9,64,25
India,Maharashtra,Navi Mumbai,"Mahape, Navi Mumbai - MPCB",25-02-2024 22:00:00,19.1135051,73.008978,NH3,3,3,3
India,Maharashtra,Navi Mumbai,"Mahape, Navi Mumbai - MPCB",25-02-2024 22:00:00,19.1135051,73.008978,SO2,26,27,26
India,Maharashtra,Navi Mumbai,"Nerul, Navi Mumbai - MPCB",25-02-2024 22:00:00,19.008751,73.016620,NH3,3,5,4
India,Maharashtra,Navi Mumbai,"Nerul, Navi Mumbai - MPCB",25-02-2024 22:00:00,19.008751,73.016620,OZONE,34,43,36
India,Maharashtra,Navi Mumbai,"Sector-19A Nerul, Navi Mumbai - IITM",25-02-2024 22:00:00,19.044,73.0325,PM2.5,74,310,209
India,Maharashtra,Navi Mumbai,"Sector-19A Nerul, Navi Mumbai - IITM",25-02-2024 22:00:00,19.044,73.0325,PM10,89,217,158
India,Maharashtra,Navi Mumbai,"Tondare-Taloja, Navi Mumbai - MPCB",25-02-2024 22:00:00,19.0630,73.1209,NH3,5,9,6
India,Maharashtra,Parbhani,"Masoom Colony, Parbhani - MPCB",25-02-2024 22:00:00,19.265594,76.761463,NH3,2,3,3
India,Maharashtra,Pimpri-Chinchwad,"Park Street Wakad, Pimpri Chinchwad - MPCB",25-02-2024 22:00:00,18.59051,73.77946,NO2,61,163,106
India,Maharashtra,Pimpri-Chinchwad,"Park Street Wakad, Pimpri Chinchwad - MPCB",25-02-2024 22:00:00,18.59051,73.77946,OZONE,1,155,94
India,Maharashtra,Pimpri-Chinchwad,"Thergaon, Pimpri Chinchwad - MPCB",25-02-2024 22:00:00,18.616318,73.765797,NH3,NA,NA,NA
India,Maharashtra,Pune,"Karve Road, Pune - MPCB",25-02-2024 22:00:00,18.5011743,73.8165527,OZONE,1,19,5
India,Maharashtra,Pune,"Revenue Colony-Shivajinagar, Pune - IITM",25-02-2024 22:00:00,18.530085,73.849598,PM10,83,134,107
India,Maharashtra,Pune,"Revenue Colony-Shivajinagar, Pune - IITM",25-02-2024 22:00:00,18.530085,73.849598,CO,30,114,103
India,Maharashtra,Pune,"Savitribai Phule Pune University, Pune - MPCB",25-02-2024 22:00:00,18.547056,73.826908,PM2.5,50,129,86
India,Maharashtra,Pune,"Savitribai Phule Pune University, Pune - MPCB",25-02-2024 22:00:00,18.547056,73.826908,OZONE,1,210,124
India,Maharashtra,Pune,"Transport Nagar-Nigdi, Pune - IITM",25-02-2024 22:00:00,18.664282,73.763966,PM10,53,171,97
India,Maharashtra,Pune,"Transport Nagar-Nigdi, Pune - IITM",25-02-2024 22:00:00,18.664282,73.763966,NO2,13,18,17
India,Maharashtra,Solapur,"Dnyaneshwar Nagar, Solapur - MPCB",25-02-2024 22:00:00,17.6336264,75.9132495,PM2.5,82,311,155
India,Maharashtra,Solapur,"Dnyaneshwar Nagar, Solapur - MPCB",25-02-2024 22:00:00,17.6336264,75.9132495,NH3,9,61,22
India,Maharashtra,Solapur,"Ratandeep Housing Society, Solapur - MPCB",25-02-2024 22:00:00,17.65439,75.90649,PM2.5,88,302,147
India,Maharashtra,Solapur,"Ratandeep Housing Society, Solapur - MPCB",25-02-2024 22:00:00,17.65439,75.90649,CO,11,147,66
India,Maharashtra,Thane,"Kasarvadavali, Thane - MPCB",25-02-2024 22:00:00,19.26777,72.97182,PM2.5,45,95,62
India,Maharashtra,Thane,"Kasarvadavali, Thane - MPCB",25-02-2024 22:00:00,19.26777,72.97182,NO2,25,137,61
India,Maharashtra,Thane,"Kasarvadavali, Thane - MPCB",25-02-2024 22:00:00,19.26777,72.97182,NH3,3,14,6
India,Maharashtra,Thane,"Kasarvadavali, Thane - MPCB",25-02-2024 22:00:00,19.26777,72.97182,SO2,7,42,14
India,Maharashtra,Thane,"Upvan Fort, Thane - MPCB",25-02-2024 22:00:00,19.222279,72.957979,PM10,80,130,109
India,Maharashtra,Thane,"Upvan Fort, Thane - MPCB",25-02-2024 22:00:00,19.222279,72.957979,NH3,11,16,13
India,Maharashtra,Ulhasnagar,"Sidhi Vinayak Nagar, Ulhasnagar - MPCB",25-02-2024 22:00:00,19.235581,73.159121,PM2.5,59,133,81
India,Maharashtra,Ulhasnagar,"Sidhi Vinayak Nagar, Ulhasnagar - MPCB",25-02-2024 22:00:00,19.235581,73.159121,OZONE,19,77,59
India,Maharashtra,Virar,"Bolinj, Virar - MPCB",25-02-2024 22:00:00,19.4458210,72.7988231,CO,16,32,23
India,Manipur,Imphal,"DM College of Science, Imphal - Manipur PCB",25-02-2024 22:00:00,24.8207389,93.9423085,NO2,7,8,8
India,Meghalaya,Shillong,"Lumpyngngad, Shillong - Meghalaya PCB",25-02-2024 22:00:00,25.5586,91.8985,NH3,1,1,1
India,Mizoram,Aizawl,"Sikulpuikawn, Aizawl - Mizoram PCB",25-02-2024 22:00:00,23.7176342,92.7192841,SO2,2,2,2
India,Mizoram,Aizawl,"Sikulpuikawn, Aizawl - Mizoram PCB",25-02-2024 22:00:00,23.7176342,92.7192841,OZONE,7,18,11
India,Nagaland,Kohima,"PWD Juction, Kohima - NPCB",25-02-2024 22:00:00,25.6635413,94.0989878,PM10,62,140,92
India,Nagaland,Kohima,"PWD Juction, Kohima - NPCB",25-02-2024 22:00:00,25.6635413,94.0989878,NO2,3,4,3
India,Nagaland,Kohima,"PWD Juction, Kohima - NPCB",25-02-2024 22:00:00,25.6635413,94.0989878,CO,7,31,26
India,Nagaland,Kohima,"PWD Juction, Kohima - NPCB",25-02-2024 22:00:00,25.6635413,94.0989878,OZONE,9,30,23
India,Odisha,Angul,"Hakimapada, Angul - OSPCB",25-02-2024 22:00:00,20.832874,85.104082,PM2.5,113,250,167
India,Odisha,Angul,"Hakimapada, Angul - OSPCB",25-02-2024 22:00:00,20.832874,85.104082,NH3,1,2,1
India,Odisha,Balasore,"Kalidaspur, Balasore - OSPCB",25-02-2024 22:00:00,21.51161,86.89088,PM10,99,191,143
India,Odisha,Balasore,"Kalidaspur, Balasore - OSPCB",25-02-2024 22:00:00,21.51161,86.89088,SO2,19,42,28
India,Odisha,Barbil,"Forest Office, Barbil - OSPCB",25-02-2024 22:00:00,22.1166054,85.3945546,NO2,5,12,8
India,Odisha,Baripada,"Meher Colony, Baripada - OSPCB",25-02-2024 22:00:00,21.941841,86.728318,PM2.5,108,191,144
India,Odisha,Bhubaneswar,"Lingraj Mandir, Bhubaneswar - OSPCB",25-02-2024 22:00:00,20.240790,85.836784,NH3,3,4,4
India,Odisha,Bhubaneswar,"Patia, Bhubaneswar - OSPCB",25-02-2024 22:00:00,20.34652,85.81630,SO2,4,16,9
India,Odisha,Bhubaneswar,"Patia, Bhubaneswar - OSPCB",25-02-2024 22:00:00,20.34652,85.81630,CO,69,101,85
India,Odisha,Bileipada,"Tata Township, Bileipada - OSPCB",25-02-2024 22:00:00,22.06156703,85.47409613,CO,17,26,20
India,Odisha,Brajrajnagar,"GM Office, Brajrajnagar - OSPCB",25-02-2024 22:00:00,21.8004996,83.8396977,PM2.5,10,54,32
India,Odisha,Byasanagar,"Ferro Chrome Colony, Byasanagar - OSPCB",25-02-2024 22:00:00,20.94185,86.11510,PM2.5,87,287,135
India,Odisha,Byasanagar,"Ferro Chrome Colony, Byasanagar - OSPCB",25-02-2024 22:00:00,20.94185,86.11510,OZONE,59,116,86
India,Odisha,Nayagarh,"Dabuna, Nayagarh - OSPCB",25-02-2024 22:00:00,21.847279,85.416905,PM2.5,87,130,110
India,Odisha,Nayagarh,"Dabuna, Nayagarh - OSPCB",25-02-2024 22:00:00,21.847279,85.416905,SO2,1,4,2
India,Odisha,Nayagarh,"Dabuna, Nayagarh - OSPCB",25-02-2024 22:00:00,21.847279,85.416905,CO,19,24,21
India,Odisha,Rourkela,"Fertilizer Township, Rourkela - OSPCB",25-02-2024 22:00:00,22.18972222,84.86277778,PM2.5,46,139,70
India,Odisha,Rourkela,"Raghunathpali, Rourkela - OSPCB",25-02-2024 22:00:00,22.220833,84.809444,PM10,62,102,86
India,Odisha,Rourkela,"Raghunathpali, Rourkela - OSPCB",25-02-2024 22:00:00,22.220833,84.809444,CO,26,46,37
India,Odisha,Rourkela,"Raghunathpali, Rourkela - OSPCB",25-02-2024 22:00:00,22.220833,84.809444,OZONE,56,108,86
India,Odisha,Suakati,"OMC Colony, Suakati - OSPCB",25-02-2024 22:00:00,21.606865,85.510538,PM2.5,76,108,91
India,Odisha,Talcher,"Talcher Coalfields,Talcher - OSPCB",25-02-2024 22:00:00,20.9360711,85.1707021,PM10,64,110,83
India,Odisha,Talcher,"Talcher Coalfields,Talcher - OSPCB",25-02-2024 22:00:00,20.9360711,85.1707021,SO2,10,69,19
India,Odisha,Tensa,"Barsua Iron Ore Mines, Tensa - OSPCB",25-02-2024 22:00:00,21.869985,85.167016,SO2,2,7,3
India,Punjab,Amritsar,"Golden Temple, Amritsar - PPCB",25-02-2024 22:00:00,31.620000,74.876512,NH3,7,12,8
India,Punjab,Bathinda,"Hardev Nagar, Bathinda - PPCB",25-02-2024 22:00:00,30.233011,74.907758,NO2,30,33,31
India,Punjab,Jalandhar,"Civil Line, Jalandhar - PPCB",25-02-2024 22:00:00,31.321907,75.578914,PM10,58,167,98
India,Punjab,Jalandhar,"Civil Line, Jalandhar - PPCB",25-02-2024 22:00:00,31.321907,75.578914,SO2,2,14,5
India,Punjab,Khanna,"Kalal Majra, Khanna - PPCB",25-02-2024 22:00:00,30.736056 ,76.209694,NH3,16,16,16
India,Punjab,Mandi Gobindgarh,"RIMT University, Mandi Gobindgarh - PPCB",25-02-2024 22:00:00,30.649961,76.331442,PM10,56,170,92
India,Punjab,Patiala,"Model Town, Patiala - PPCB",25-02-2024 22:00:00,30.349388,76.366642,NO2,21,26,24
India,Punjab,Patiala,"Model Town, Patiala - PPCB",25-02-2024 22:00:00,30.349388,76.366642,SO2,3,45,6
India,Punjab,Patiala,"Model Town, Patiala - PPCB",25-02-2024 22:00:00,30.349388,76.366642,CO,40,98,50
India,Punjab,Rupnagar,"Ratanpura, Rupnagar - Ambuja Cements",25-02-2024 22:00:00,31.0325454,76.5623046,PM2.5,21,120,71
India,Punjab,Rupnagar,"Ratanpura, Rupnagar - Ambuja Cements",25-02-2024 22:00:00,31.0325454,76.5623046,PM10,30,358,130
India,Rajasthan,Ajmer,"Civil Lines,  Ajmer - RSPCB",25-02-2024 22:00:00,26.470859,74.646594,NO2,8,16,12
India,Rajasthan,Ajmer,"Civil Lines,  Ajmer - RSPCB",25-02-2024 22:00:00,26.470859,74.646594,NH3,4,5,4
India,Rajasthan,Ajmer,"Civil Lines,  Ajmer - RSPCB",25-02-2024 22:00:00,26.470859,74.646594,CO,17,58,23
India,Rajasthan,Alwar,"Moti Doongri, Alwar - RSPCB",25-02-2024 22:00:00,27.554793,76.611536,PM10,47,107,76
India,Rajasthan,Alwar,"Moti Doongri, Alwar - RSPCB",25-02-2024 22:00:00,27.554793,76.611536,NO2,34,53,45
India,Rajasthan,Alwar,"Moti Doongri, Alwar - RSPCB",25-02-2024 22:00:00,27.554793,76.611536,SO2,3,36,20
India,Rajasthan,Banswara,"Rati Talai, Banswara - RSPCB",25-02-2024 22:00:00,23.555190,74.440010,PM2.5,21,178,61
India,Rajasthan,Banswara,"Rati Talai, Banswara - RSPCB",25-02-2024 22:00:00,23.555190,74.440010,SO2,NA,NA,NA
India,Rajasthan,Baran,"Bamboliya, Baran - RSPCB",25-02-2024 22:00:00,25.106006,76.469948,NH3,3,6,4
India,Rajasthan,Barmer,"Railway Colony, Barmer - RSPCB",25-02-2024 22:00:00,25.747299,71.393989,CO,10,96,33
India,Rajasthan,Bhilwara,"Pratap Nagar, Bhilwara - RSPCB",25-02-2024 22:00:00,25.339605,74.618883,SO2,8,27,16
India,Rajasthan,Bhiwadi,"RIICO Ind. Area III, Bhiwadi - RSPCB",25-02-2024 22:00:00,28.194909,76.862296,SO2,4,19,11
India,Rajasthan,Bikaner,"MM Ground, Bikaner - RSPCB",25-02-2024 22:00:00,28.018792,73.292658,PM10,84,312,143
India,Rajasthan,Bikaner,"MM Ground, Bikaner - RSPCB",25-02-2024 22:00:00,28.018792,73.292658,SO2,3,7,5
India,Rajasthan,Bikaner,"MM Ground, Bikaner - RSPCB",25-02-2024 22:00:00,28.018792,73.292658,CO,16,64,50
India,Rajasthan,Chittorgarh,"Shastri Nagar, Chittorgarh - RSPCB",25-02-2024 22:00:00,24.892047,74.623527,PM10,80,176,119
India,Rajasthan,Dausa,"Khatikan Mohalla, Dausa - RSPCB",25-02-2024 22:00:00,26.895552,76.334753,NH3,4,7,5
India,Rajasthan,Dholpur,"Raja Ganj, Dholpur - RSPCB",25-02-2024 22:00:00,26.699557,77.898881,PM10,41,181,97
India,Rajasthan,Dholpur,"Raja Ganj, Dholpur - RSPCB",25-02-2024 22:00:00,26.699557,77.898881,NO2,6,31,14
India,Rajasthan,Dholpur,"Raja Ganj, Dholpur - RSPCB",25-02-2024 22:00:00,26.699557,77.898881,SO2,4,9,6
India,Rajasthan,Dholpur,"Raja Ganj, Dholpur - RSPCB",25-02-2024 22:00:00,26.699557,77.898881,CO,15,49,28
India,Rajasthan,Dholpur,"Raja Ganj, Dholpur - RSPCB",25-02-2024 22:00:00,26.699557,77.898881,OZONE,33,144,97
India,Rajasthan,Dungarpur,"Bhoiwada, Dungarpur - RSPCB",25-02-2024 22:00:00,23.837789,73.714926,PM2.5,13,267,80
India,Rajasthan,Hanumangarh,"Housing Board, Hanumangarh - RSPCB",25-02-2024 22:00:00,29.610750,74.283608,PM10,108,244,141
India,Rajasthan,Hanumangarh,"Housing Board, Hanumangarh - RSPCB",25-02-2024 22:00:00,29.610750,74.283608,SO2,1,12,5
India,Rajasthan,Jaipur,"Adarsh Nagar, Jaipur - RSPCB",25-02-2024 22:00:00,26.902909,75.836858,PM2.5,36,90,58
India,Rajasthan,Jaipur,"Adarsh Nagar, Jaipur - RSPCB",25-02-2024 22:00:00,26.902909,75.836858,PM10,48,99,69
India,Rajasthan,Jaipur,"Adarsh Nagar, Jaipur - RSPCB",25-02-2024 22:00:00,26.902909,75.836858,OZONE,47,58,53
India,Rajasthan,Jaipur,"Mansarovar Sector-12, Jaipur - RSPCB",25-02-2024 22:00:00,26.843698,75.766894,CO,60,73,67
India,Rajasthan,Jaipur,"Police Commissionerate, Jaipur - RSPCB",25-02-2024 22:00:00,26.9164092,75.7994901,SO2,11,26,19
India,Rajasthan,Jaipur,"Police Commissionerate, Jaipur - RSPCB",25-02-2024 22:00:00,26.9164092,75.7994901,CO,22,56,37
India,Rajasthan,Jaipur,"Police Commissionerate, Jaipur - RSPCB",25-02-2024 22:00:00,26.9164092,75.7994901,OZONE,58,81,71
India,Rajasthan,Jaipur,"Sector-2 Murlipura, Jaipur - RSPCB",25-02-2024 22:00:00,26.960669,75.771817,NO2,4,35,9
India,Rajasthan,Jaipur,"Shastri Nagar, Jaipur - RSPCB",25-02-2024 22:00:00,26.9502929,75.730943,PM10,68,126,98
India,Rajasthan,Jaisalmer,"Sadar Bazar, Jaisalmer - RSPCB",25-02-2024 22:00:00,26.912329,70.909168,NH3,1,6,4
India,Rajasthan,Jalore,"Mudtra Sili, Jalore - RSPCB",25-02-2024 22:00:00,25.344694,72.626208,CO,13,98,29
India,Rajasthan,Jalore,"Mudtra Sili, Jalore - RSPCB",25-02-2024 22:00:00,25.344694,72.626208,OZONE,2,122,87
India,Rajasthan,Jhalawar,"Rajlaxmi Nagar, Jhalawar - RSPCB",25-02-2024 22:00:00,24.588397,76.172782,PM2.5,19,78,39
India,Rajasthan,Jhunjhunu,"Indra Nagar, Jhunjhunu - RSPCB",25-02-2024 22:00:00,28.108988,75.386577,NH3,30,48,38
India,Rajasthan,Jodhpur,"Digari Kalan, Jodhpur - RSPCB",25-02-2024 22:00:00,26.295810,73.082283,PM10,39,141,80
India,Rajasthan,Jodhpur,"Digari Kalan, Jodhpur - RSPCB",25-02-2024 22:00:00,26.295810,73.082283,NH3,5,6,5
India,Rajasthan,Jodhpur,"Jhalamand, Jodhpur - RSPCB",25-02-2024 22:00:00,26.215415,73.070156,PM10,43,228,95
India,Rajasthan,Jodhpur,"Samrat Ashok Udhyan, Jodhpur - RSPCB",25-02-2024 22:00:00,26.253384,72.976571,OZONE,52,149,146
India,Rajasthan,Kota,"Dhanmandi, Kota - RSPCB",25-02-2024 22:00:00,25.164090,75.858137,NO2,20,100,40
India,Rajasthan,Kota,"Nayapura, Kota - RSPCB",25-02-2024 22:00:00,25.196024,75.855668,PM10,58,183,97
India,Rajasthan,Kota,"Nayapura, Kota - RSPCB",25-02-2024 22:00:00,25.196024,75.855668,SO2,4,7,5
India,Rajasthan,Kota,"Nayapura, Kota - RSPCB",25-02-2024 22:00:00,25.196024,75.855668,CO,16,64,24
India,Rajasthan,Kota,"Nayapura, Kota - RSPCB",25-02-2024 22:00:00,25.196024,75.855668,OZONE,29,146,101
India,Rajasthan,Kota,"Shrinath Puram, Kota - RSPCB",25-02-2024 22:00:00,25.14389,75.821256,NO2,26,173,60
India,Rajasthan,Nagaur,"Karni Colony, Nagaur - RSPCB",25-02-2024 22:00:00,27.213494,73.734444,NO2,12,86,29
India,Rajasthan,Nagaur,"Karni Colony, Nagaur - RSPCB",25-02-2024 22:00:00,27.213494,73.734444,NH3,6,10,8
India,Rajasthan,Nagaur,"Karni Colony, Nagaur - RSPCB",25-02-2024 22:00:00,27.213494,73.734444,SO2,1,16,6
India,Rajasthan,Pali,"Indira Colony Vistar, Pali - RSPCB",25-02-2024 22:00:00,25.771061, 73.340227,OZONE,12,74,63
India,Rajasthan,Pratapgarh,"Pragati Nagar, Pratapgarh - RSPCB",25-02-2024 22:00:00,24.041198,74.780702,NH3,3,5,4
India,Rajasthan,Sawai Madhopur,"Sahu Nagar, Sawai Madhopur - RSPCB",25-02-2024 22:00:00,26.031443,76.359327,CO,10,72,34
India,Rajasthan,Sikar,"Radhakishan Pura, Sikar - RSPCB",25-02-2024 22:00:00,27.608912,75.153302,PM2.5,19,71,38
India,Rajasthan,Sikar,"Radhakishan Pura, Sikar - RSPCB",25-02-2024 22:00:00,27.608912,75.153302,NO2,6,19,9
India,Rajasthan,Sikar,"Radhakishan Pura, Sikar - RSPCB",25-02-2024 22:00:00,27.608912,75.153302,SO2,6,13,9
India,Rajasthan,Sirohi,"Vedhaynath Colony, Sirohi - RSPCB",25-02-2024 22:00:00,24.885261,72.857549,NH3,2,10,4
India,Rajasthan,Sirohi,"Vedhaynath Colony, Sirohi - RSPCB",25-02-2024 22:00:00,24.885261,72.857549,CO,22,50,31
India,Rajasthan,Sirohi,"Vedhaynath Colony, Sirohi - RSPCB",25-02-2024 22:00:00,24.885261,72.857549,OZONE,1,134,108
India,Rajasthan,Udaipur,"Ashok Nagar, Udaipur - RSPCB",25-02-2024 22:00:00,24.5886166,73.6321397,PM10,65,124,95
India,Sikkim,Gangtok,"Zero Point GICI, Gangtok - SSPCB",25-02-2024 22:00:00,27.338530,88.614099,NH3,1,1,1
India,TamilNadu,Chengalpattu,"Crescent University, Chengalpattu - TNPCB",25-02-2024 22:00:00,12.8777316,80.0834807,PM2.5,30,109,56
India,TamilNadu,Chengalpattu,"Crescent University, Chengalpattu - TNPCB",25-02-2024 22:00:00,12.8777316,80.0834807,CO,25,34,27
India,TamilNadu,Chennai,"Alandur Bus Depot, Chennai - CPCB",25-02-2024 22:00:00,12.9099161,80.1076538,NO2,9,83,22
India,TamilNadu,Chennai,"Kodungaiyur, Chennai - TNPCB",25-02-2024 22:00:00,13.1278,80.2642,NH3,3,4,3
India,TamilNadu,Chennai,"Kodungaiyur, Chennai - TNPCB",25-02-2024 22:00:00,13.1278,80.2642,CO,15,41,32
India,TamilNadu,Chennai,"Manali, Chennai - CPCB",25-02-2024 22:00:00,13.164544,80.26285,CO,50,86,67
India,TamilNadu,Chennai,"Perungudi, Chennai - TNPCB",25-02-2024 22:00:00,12.9533,80.2357,PM10,33,67,49
India,TamilNadu,Chennai,"Royapuram, Chennai - TNPCB",25-02-2024 22:00:00,13.1036,80.2909,PM2.5,26,60,37
India,TamilNadu,Chennai,"Velachery Res. Area, Chennai - CPCB",25-02-2024 22:00:00,13.0052189,80.2398125,PM2.5,27,82,50
India,TamilNadu,Chennai,"Velachery Res. Area, Chennai - CPCB",25-02-2024 22:00:00,13.0052189,80.2398125,NO2,14,27,19
India,TamilNadu,Chennai,"Velachery Res. Area, Chennai - CPCB",25-02-2024 22:00:00,13.0052189,80.2398125,SO2,24,31,28
India,TamilNadu,Cuddalore,"Kudikadu, Cuddalore - TNPCB",25-02-2024 22:00:00,11.6829898,79.7532099,NH3,5,5,5
India,TamilNadu,Cuddalore,"Semmandalam, Cuddalore - TNPCB",25-02-2024 22:00:00,11.7637683,79.7499835,PM2.5,23,122,48
India,TamilNadu,Cuddalore,"Semmandalam, Cuddalore - TNPCB",25-02-2024 22:00:00,11.7637683,79.7499835,OZONE,1,2,2
India,TamilNadu,Gummidipoondi,"Anthoni Pillai Nagar, Gummidipoondi - TNPCB",25-02-2024 22:00:00,13.4127,80.1081,SO2,1,36,13
India,TamilNadu,Ooty,"Bombay Castel, Ooty - TNPCB",25-02-2024 22:00:00,11.4068288,76.7138973,PM2.5,36,100,63
India,TamilNadu,Ooty,"Bombay Castel, Ooty - TNPCB",25-02-2024 22:00:00,11.4068288,76.7138973,PM10,34,112,59
India,TamilNadu,Ooty,"Bombay Castel, Ooty - TNPCB",25-02-2024 22:00:00,11.4068288,76.7138973,SO2,13,13,13
India,TamilNadu,Ramanathapuram,"Chalai Bazaar, Ramanathapuram - TNPCB",25-02-2024 22:00:00,9.36399,78.831977,PM2.5,33,58,46
India,TamilNadu,Salem,"Sona College of Technology, Salem - TNPCB",25-02-2024 22:00:00,11.679111,78.125052,SO2,21,23,22
India,TamilNadu,Salem,"Sona College of Technology, Salem - TNPCB",25-02-2024 22:00:00,11.679111,78.125052,CO,44,46,45
India,TamilNadu,Salem,"Sona College of Technology, Salem - TNPCB",25-02-2024 22:00:00,11.679111,78.125052,OZONE,3,3,3
India,TamilNadu,Thoothukudi,"Meelavittan, Thoothukudi - TNPCB",25-02-2024 22:00:00,8.816428 ,78.099039,NO2,13,31,18
India,TamilNadu,Thoothukudi,"Meelavittan, Thoothukudi - TNPCB",25-02-2024 22:00:00,8.816428 ,78.099039,SO2,NA,NA,NA
India,TamilNadu,Thoothukudi,"Meelavittan, Thoothukudi - TNPCB",25-02-2024 22:00:00,8.816428 ,78.099039,CO,6,58,26
India,TamilNadu,Tirupur,"Kumaran College, Tirupur - TNPCB",25-02-2024 22:00:00,11.0973603,77.3228673,PM10,60,324,114
India,TamilNadu,Vellore,"Vasanthapuram, Vellore - TNPCB",25-02-2024 22:00:00,12.909494,79.131861,PM2.5,NA,NA,NA
India,TamilNadu,Vellore,"Vasanthapuram, Vellore - TNPCB",25-02-2024 22:00:00,12.909494,79.131861,PM10,NA,NA,NA
India,TamilNadu,Vellore,"Vasanthapuram, Vellore - TNPCB",25-02-2024 22:00:00,12.909494,79.131861,NH3,NA,NA,NA
India,Telangana,Hyderabad,"Bollaram Industrial Area, Hyderabad - TSPCB",25-02-2024 22:00:00,17.540891,78.358528,CO,18,34,25
India,Telangana,Hyderabad,"ECIL Kapra, Hyderabad - TSPCB",25-02-2024 22:00:00,17.470431,78.566959,SO2,1,11,5
India,Telangana,Hyderabad,"ECIL Kapra, Hyderabad - TSPCB",25-02-2024 22:00:00,17.470431,78.566959,CO,16,26,20
India,Telangana,Hyderabad,"ECIL Kapra, Hyderabad - TSPCB",25-02-2024 22:00:00,17.470431,78.566959,OZONE,3,21,10
India,Telangana,Hyderabad,"ICRISAT Patancheru, Hyderabad - TSPCB",25-02-2024 22:00:00,17.518400,78.278777,NH3,2,2,2
India,Telangana,Hyderabad,"ICRISAT Patancheru, Hyderabad - TSPCB",25-02-2024 22:00:00,17.518400,78.278777,OZONE,24,88,69
India,Telangana,Hyderabad,"Kokapet, Hyderabad - TSPCB",25-02-2024 22:00:00,17.393559,78.339194,NO2,5,9,8
India,Telangana,Hyderabad,"Kokapet, Hyderabad - TSPCB",25-02-2024 22:00:00,17.393559,78.339194,OZONE,2,12,5
India,Telangana,Hyderabad,"Kompally Municipal Office, Hyderabad - TSPCB",25-02-2024 22:00:00,17.544899,78.486949,SO2,NA,NA,NA
India,Telangana,Hyderabad,"Kompally Municipal Office, Hyderabad - TSPCB",25-02-2024 22:00:00,17.544899,78.486949,CO,6,26,26
India,Telangana,Hyderabad,"New Malakpet, Hyderabad - TSPCB",25-02-2024 22:00:00,17.37206,78.50864,PM2.5,16,42,28
India,Telangana,Hyderabad,"New Malakpet, Hyderabad - TSPCB",25-02-2024 22:00:00,17.37206,78.50864,PM10,56,70,60
India,Telangana,Hyderabad,"New Malakpet, Hyderabad - TSPCB",25-02-2024 22:00:00,17.37206,78.50864,CO,27,29,28
India,Telangana,Hyderabad,"New Malakpet, Hyderabad - TSPCB",25-02-2024 22:00:00,17.37206,78.50864,OZONE,5,22,15
India,Telangana,Hyderabad,"Ramachandrapuram, Hyderabad - TSPCB",25-02-2024 22:00:00,17.528544,78.286195,PM2.5,39,43,41
India,Telangana,Hyderabad,"Somajiguda, Hyderabad - TSPCB",25-02-2024 22:00:00,17.417094,78.457437,PM10,69,81,74
India,Telangana,Hyderabad,"Zoo Park, Hyderabad - TSPCB",25-02-2024 22:00:00,17.349694,78.451437,SO2,1,5,2
India,Tripura,Agartala,"Bardowali, Agartala - Tripura SPCB",25-02-2024 22:00:00,23.8175497,91.2726974,SO2,24,25,24
India,Tripura,Agartala,"Bardowali, Agartala - Tripura SPCB",25-02-2024 22:00:00,23.8175497,91.2726974,CO,13,68,15
India,Tripura,Agartala,"Bardowali, Agartala - Tripura SPCB",25-02-2024 22:00:00,23.8175497,91.2726974,OZONE,1,23,19
India,Uttar_Pradesh,Agra,"Rohta, Agra - UPPCB",25-02-2024 22:00:00,27.106972,78.000111,PM2.5,18,94,46
India,Uttar_Pradesh,Agra,"Rohta, Agra - UPPCB",25-02-2024 22:00:00,27.106972,78.000111,NO2,10,11,11
India,Uttar_Pradesh,Agra,"Rohta, Agra - UPPCB",25-02-2024 22:00:00,27.106972,78.000111,CO,2,24,8
India,Uttar_Pradesh,Agra,"Sector-3B Avas Vikas Colony, Agra - UPPCB",25-02-2024 22:00:00,27.19412,77.96237,NO2,13,45,21
India,Uttar_Pradesh,Agra,"Sector-3B Avas Vikas Colony, Agra - UPPCB",25-02-2024 22:00:00,27.19412,77.96237,NH3,2,5,4
India,Uttar_Pradesh,Agra,"Sector-3B Avas Vikas Colony, Agra - UPPCB",25-02-2024 22:00:00,27.19412,77.96237,SO2,12,14,13
India,Uttar_Pradesh,Agra,"Shahjahan Garden, Agra - UPPCB",25-02-2024 22:00:00,27.169338,78.03582,PM2.5,15,81,35
India,Uttar_Pradesh,Agra,"Shahjahan Garden, Agra - UPPCB",25-02-2024 22:00:00,27.169338,78.03582,NH3,7,9,8
India,Uttar_Pradesh,Agra,"Shastripuram, Agra - UPPCB",25-02-2024 22:00:00,27.19862,77.92066,CO,4,17,11
India,Uttar_Pradesh,Baghpat,"Sardar Patel Inter College, Baghpat - UPPCB",25-02-2024 22:00:00,28.964949,77.278761,OZONE,5,35,22
India,Uttar_Pradesh,Bareilly,"Civil Lines, Bareilly - UPPCB",25-02-2024 22:00:00,28.359581,79.414455,PM10,30,256,86
India,Uttar_Pradesh,Bareilly,"Civil Lines, Bareilly - UPPCB",25-02-2024 22:00:00,28.359581,79.414455,NO2,15,68,31
India,Uttar_Pradesh,Bareilly,"Civil Lines, Bareilly - UPPCB",25-02-2024 22:00:00,28.359581,79.414455,NH3,NA,NA,NA
India,Uttar_Pradesh,Bareilly,"Rajendra Nagar, Bareilly - UPPCB",25-02-2024 22:00:00,28.38910936,79.42963708,OZONE,8,28,21
India,Uttar_Pradesh,Bulandshahr,"Yamunapuram, Bulandshahr - UPPCB",25-02-2024 22:00:00,28.406963,77.849831,NO2,1,103,31
India,Uttar_Pradesh,Bulandshahr,"Yamunapuram, Bulandshahr - UPPCB",25-02-2024 22:00:00,28.406963,77.849831,NH3,8,17,13
India,Uttar_Pradesh,Bulandshahr,"Yamunapuram, Bulandshahr - UPPCB",25-02-2024 22:00:00,28.406963,77.849831,OZONE,19,132,76
India,Uttar_Pradesh,Firozabad,"Nagla Bhau, Firozabad - UPPCB",25-02-2024 22:00:00,27.168897,78.376960,OZONE,16,20,17
India,Uttar_Pradesh,Ghaziabad,"Indirapuram, Ghaziabad - UPPCB",25-02-2024 22:00:00,28.646233,77.358075,NH3,6,9,8
India,Uttar_Pradesh,Ghaziabad,"Indirapuram, Ghaziabad - UPPCB",25-02-2024 22:00:00,28.646233,77.358075,SO2,12,19,16
India,Uttar_Pradesh,Ghaziabad,"Indirapuram, Ghaziabad - UPPCB",25-02-2024 22:00:00,28.646233,77.358075,OZONE,7,41,29
India,Uttar_Pradesh,Ghaziabad,"Loni, Ghaziabad - UPPCB",25-02-2024 22:00:00,28.757294,77.278792,NH3,1,4,2
India,Uttar_Pradesh,Ghaziabad,"Sanjay Nagar, Ghaziabad - UPPCB",25-02-2024 22:00:00,28.685382,77.453839,PM2.5,30,267,126
India,Uttar_Pradesh,Ghaziabad,"Vasundhara, Ghaziabad - UPPCB",25-02-2024 22:00:00,28.6603346,77.3572563,PM2.5,13,244,107
India,Uttar_Pradesh,Ghaziabad,"Vasundhara, Ghaziabad - UPPCB",25-02-2024 22:00:00,28.6603346,77.3572563,OZONE,10,86,49
India,Uttar_Pradesh,Greater Noida,"Knowledge Park - III, Greater Noida - UPPCB",25-02-2024 22:00:00,28.47272,77.482000,PM2.5,18,411,242
India,Uttar_Pradesh,Greater Noida,"Knowledge Park - V, Greater Noida - UPPCB",25-02-2024 22:00:00,28.557054,77.453663,SO2,12,32,20
India,Uttar_Pradesh,Greater Noida,"Knowledge Park - V, Greater Noida - UPPCB",25-02-2024 22:00:00,28.557054,77.453663,OZONE,1,123,63
India,Uttar_Pradesh,Hapur,"Anand Vihar, Hapur - UPPCB",25-02-2024 22:00:00,28.725645,77.749675,PM2.5,28,239,122
India,Uttar_Pradesh,Kanpur,"FTI Kidwai Nagar, Kanpur - UPPCB",25-02-2024 22:00:00,26.428282,80.327067,PM2.5,29,152,72
India,Uttar_Pradesh,Kanpur,"FTI Kidwai Nagar, Kanpur - UPPCB",25-02-2024 22:00:00,26.428282,80.327067,PM10,42,162,100
India,Uttar_Pradesh,Kanpur,"FTI Kidwai Nagar, Kanpur - UPPCB",25-02-2024 22:00:00,26.428282,80.327067,SO2,22,23,22
India,Uttar_Pradesh,Kanpur,"NSI Kalyanpur, Kanpur - UPPCB",25-02-2024 22:00:00,26.509954,80.249612,PM10,55,123,88
India,Uttar_Pradesh,Kanpur,"NSI Kalyanpur, Kanpur - UPPCB",25-02-2024 22:00:00,26.509954,80.249612,CO,32,57,38
India,Uttar_Pradesh,Khurja,"Kalindi Kunj, Khurja - UPPCB",25-02-2024 22:00:00,28.2348927,77.8683002,CO,5,24,9
India,Uttar_Pradesh,Lucknow,"Kendriya Vidyalaya, Lucknow - CPCB",25-02-2024 22:00:00,26.906111,80.948222,SO2,2,7,5
India,Uttar_Pradesh,Lucknow,"Kendriya Vidyalaya, Lucknow - CPCB",25-02-2024 22:00:00,26.906111,80.948222,CO,22,66,30
India,Uttar_Pradesh,Lucknow,"Kukrail Picnic Spot-1, Lucknow - UPPCB",25-02-2024 22:00:00,26.90723,80.98579,NH3,2,2,2
India,Uttar_Pradesh,Lucknow,"Kukrail Picnic Spot-1, Lucknow - UPPCB",25-02-2024 22:00:00,26.90723,80.98579,SO2,30,32,31
India,Uttar_Pradesh,Lucknow,"Talkatora District Industries Center, Lucknow - CPCB",25-02-2024 22:00:00,26.83399722,80.8917361,NO2,41,111,67
India,Uttar_Pradesh,Meerut,"Jai Bhim Nagar, Meerut - UPPCB",25-02-2024 22:00:00,28.9535882,77.7622941,SO2,11,29,18
India,Uttar_Pradesh,Moradabad,"Buddhi Vihar, Moradabad - UPPCB",25-02-2024 22:00:00,28.83526,78.74460,PM10,39,150,88
India,Uttar_Pradesh,Moradabad,"Buddhi Vihar, Moradabad - UPPCB",25-02-2024 22:00:00,28.83526,78.74460,SO2,24,102,56
India,Uttar_Pradesh,Moradabad,"Eco Herbal Park, Moradabad - UPPCB",25-02-2024 22:00:00,28.840739,78.697531,PM10,36,152,89
India,Uttar_Pradesh,Moradabad,"Eco Herbal Park, Moradabad - UPPCB",25-02-2024 22:00:00,28.840739,78.697531,SO2,3,18,11
India,Uttar_Pradesh,Moradabad,"Eco Herbal Park, Moradabad - UPPCB",25-02-2024 22:00:00,28.840739,78.697531,OZONE,11,31,17
India,Uttar_Pradesh,Moradabad,"Jigar Colony, Moradabad - UPPCB",25-02-2024 22:00:00,28.856664,78.772638,PM2.5,22,84,49
India,Uttar_Pradesh,Moradabad,"Kashiram Nagar, Moradabad - UPPCB",25-02-2024 22:00:00,28.849399,78.742362,PM2.5,15,141,58
India,Uttar_Pradesh,Moradabad,"Kashiram Nagar, Moradabad - UPPCB",25-02-2024 22:00:00,28.849399,78.742362,CO,28,67,31
India,Uttar_Pradesh,Muzaffarnagar,"New Mandi, Muzaffarnagar - UPPCB",25-02-2024 22:00:00,29.4723508,77.7194031,PM2.5,46,346,166
India,Uttar_Pradesh,Muzaffarnagar,"New Mandi, Muzaffarnagar - UPPCB",25-02-2024 22:00:00,29.4723508,77.7194031,PM10,85,203,135
India,Uttar_Pradesh,Muzaffarnagar,"New Mandi, Muzaffarnagar - UPPCB",25-02-2024 22:00:00,29.4723508,77.7194031,SO2,16,93,34
India,Uttar_Pradesh,Noida,"Sector - 125, Noida - UPPCB",25-02-2024 22:00:00,28.5447608,77.3231257,PM2.5,NA,NA,NA
India,Uttar_Pradesh,Noida,"Sector - 62, Noida - IMD",25-02-2024 22:00:00,28.6245479,77.3577104,NO2,6,17,10
India,Uttar_Pradesh,Noida,"Sector-1, Noida - UPPCB",25-02-2024 22:00:00,28.5898,77.3101,PM2.5,25,309,156
India,Uttar_Pradesh,Noida,"Sector-1, Noida - UPPCB",25-02-2024 22:00:00,28.5898,77.3101,SO2,3,29,15
India,Uttar_Pradesh,Noida,"Sector-1, Noida - UPPCB",25-02-2024 22:00:00,28.5898,77.3101,OZONE,3,146,79
India,Uttar_Pradesh,Noida,"Sector-116, Noida - UPPCB",25-02-2024 22:00:00,28.569230,77.393848,NH3,5,7,6
India,Uttar_Pradesh,Noida,"Sector-116, Noida - UPPCB",25-02-2024 22:00:00,28.569230,77.393848,OZONE,3,18,10
India,Uttar_Pradesh,Prayagraj,"Jhunsi, Prayagraj - UPPCB",25-02-2024 22:00:00,25.425602,81.917152,NH3,5,5,5
India,Uttar_Pradesh,Prayagraj,"Jhunsi, Prayagraj - UPPCB",25-02-2024 22:00:00,25.425602,81.917152,CO,9,86,29
India,Uttar_Pradesh,Prayagraj,"Motilal Nehru NIT, Prayagraj - UPPCB",25-02-2024 22:00:00,25.494,81.863,CO,10,57,23
India,Uttar_Pradesh,Prayagraj,"Nagar Nigam, Prayagraj - UPPCB",25-02-2024 22:00:00,25.44919916 ,81.82735986 ,OZONE,9,19,12
India,Uttar_Pradesh,Varanasi,"Ardhali Bazar, Varanasi - UPPCB",25-02-2024 22:00:00,25.3505986,82.9083074,PM2.5,8,38,23
India,Uttar_Pradesh,Varanasi,"Ardhali Bazar, Varanasi - UPPCB",25-02-2024 22:00:00,25.3505986,82.9083074,PM10,9,41,25
India,Uttar_Pradesh,Varanasi,"Bhelupur, Varanasi - UPPCB",25-02-2024 22:00:00,25.301778,82.996789,SO2,23,25,23
India,Uttar_Pradesh,Vrindavan,"Omex Eternity, Vrindavan - UPPCB",25-02-2024 22:00:00,27.5714090,77.6557570,NO2,2,3,3
India,Uttar_Pradesh,Vrindavan,"Omex Eternity, Vrindavan - UPPCB",25-02-2024 22:00:00,27.5714090,77.6557570,OZONE,29,32,31
India,Uttarakhand,Dehradun,"Doon University, Dehradun - UKPCB",25-02-2024 22:00:00,30.269444,78.044167,PM10,46,117,75
India,Uttarakhand,Dehradun,"Doon University, Dehradun - UKPCB",25-02-2024 22:00:00,30.269444,78.044167,CO,13,38,17
India,Uttarakhand,Kashipur,"Govt. Girls Inter College, Kashipur - UKPCB",25-02-2024 22:00:00,29.2124114,78.9611753,PM2.5,36,203,65
India,Uttarakhand,Kashipur,"Govt. Girls Inter College, Kashipur - UKPCB",25-02-2024 22:00:00,29.2124114,78.9611753,NH3,3,5,4
India,West_Bengal,Asansol,"Asansol Court Area, Asansol - WBPCB",25-02-2024 22:00:00,23.685297,86.945968,NO2,22,49,32
India,West_Bengal,Barrackpore,"SVSPA Campus, Barrackpore - WBPCB",25-02-2024 22:00:00,22.7605581,88.3617589,CO,36,90,53
India,West_Bengal,Durgapur,"Sidhu Kanhu Indoor Stadium, Durgapur - WBPCB",25-02-2024 22:00:00,23.5404352,87.2892225,PM10,55,102,74
India,West_Bengal,Durgapur,"Sidhu Kanhu Indoor Stadium, Durgapur - WBPCB",25-02-2024 22:00:00,23.5404352,87.2892225,NH3,2,2,2
India,West_Bengal,Durgapur,"Sidhu Kanhu Indoor Stadium, Durgapur - WBPCB",25-02-2024 22:00:00,23.5404352,87.2892225,OZONE,5,38,19
India,West_Bengal,Howrah,"Ghusuri, Howrah - WBPCB",25-02-2024 22:00:00,22.611968,88.347422,SO2,5,7,6
India,West_Bengal,Howrah,"Padmapukur, Howrah - WBPCB",25-02-2024 22:00:00,22.5687319,88.2797276,PM2.5,31,84,55
India,West_Bengal,Kolkata,"Ballygunge, Kolkata - WBPCB",25-02-2024 22:00:00,22.5367507,88.3638022,PM2.5,48,168,88
India,West_Bengal,Kolkata,"Bidhannagar, Kolkata - WBPCB",25-02-2024 22:00:00,22.58157048,88.41002457,NO2,11,27,16
India,West_Bengal,Kolkata,"Bidhannagar, Kolkata - WBPCB",25-02-2024 22:00:00,22.58157048,88.41002457,OZONE,7,29,18
India,West_Bengal,Kolkata,"Rabindra Bharati University, Kolkata - WBPCB",25-02-2024 22:00:00,22.627847,88.380669,SO2,3,9,5
India,West_Bengal,Kolkata,"Rabindra Bharati University, Kolkata - WBPCB",25-02-2024 22:00:00,22.627847,88.380669,OZONE,8,51,35
India,West_Bengal,Kolkata,"Rabindra Sarobar, Kolkata - WBPCB",25-02-2024 22:00:00,22.51106,88.35142,PM2.5,34,95,64
India,West_Bengal,Kolkata,"Rabindra Sarobar, Kolkata - WBPCB",25-02-2024 22:00:00,22.51106,88.35142,OZONE,3,90,45
India,West_Bengal,Kolkata,"Victoria, Kolkata - WBPCB",25-02-2024 22:00:00,22.5448082,88.3403691,PM2.5,52,184,88
India,West_Bengal,Kolkata,"Victoria, Kolkata - WBPCB",25-02-2024 22:00:00,22.5448082,88.3403691,NH3,2,3,2
India,West_Bengal,Kolkata,"Victoria, Kolkata - WBPCB",25-02-2024 22:00:00,22.5448082,88.3403691,CO,25,68,36
India,West_Bengal,Siliguri,"Ward-32 Bapupara, Siliguri - WBPCB",25-02-2024 22:00:00,26.6879226,88.4152495,NO2,30,113,60
India,Andhra_Pradesh,Amaravati,"Secretariat, Amaravati - APPCB",25-02-2024 22:00:00,16.5150833,80.5181667,SO2,10,14,11
India,Andhra_Pradesh,Amaravati,"Secretariat, Amaravati - APPCB",25-02-2024 22:00:00,16.5150833,80.5181667,OZONE,9,36,28
India,Andhra_Pradesh,Chittoor,"Gangineni Cheruvu, Chittoor - APPCB",25-02-2024 22:00:00,13.204880,79.097889,OZONE,11,111,93
India,Andhra_Pradesh,Kadapa,"Yerramukkapalli, Kadapa - APPCB",25-02-2024 22:00:00,14.465052,78.824187,PM2.5,11,62,31
India,Andhra_Pradesh,Tirupati,"Tirumala, Tirupati - APPCB",25-02-2024 22:00:00,13.67,79.35,NH3,1,1,1
India,Andhra_Pradesh,Tirupati,"Tirumala, Tirupati - APPCB",25-02-2024 22:00:00,13.67,79.35,OZONE,12,48,36
India,Andhra_Pradesh,Tirupati,"Vaikuntapuram, Tirupati - APPCB",25-02-2024 22:00:00,13.615387,79.409230,PM10,20,86,40
India,Andhra_Pradesh,Tirupati,"Vaikuntapuram, Tirupati - APPCB",25-02-2024 22:00:00,13.615387,79.409230,OZONE,5,42,26
India,Andhra_Pradesh,Vijayawada,"HB Colony, Vijayawada - APPCB",25-02-2024 22:00:00,16.536107,80.594233,SO2,3,4,4
India,Andhra_Pradesh,Vijayawada,"Kanuru, Vijayawada - APPCB",25-02-2024 22:00:00,16.486692,80.699436,NO2,15,18,16
India,Andhra_Pradesh,Vijayawada,"Rajiv Gandhi Park, Vijayawada - APPCB",25-02-2024 22:00:00,16.509717,80.612222,PM10,37,68,53
India,Andhra_Pradesh,Vijayawada,"Rajiv Gandhi Park, Vijayawada - APPCB",25-02-2024 22:00:00,16.509717,80.612222,NH3,3,7,6
India,Arunachal_Pradesh,Naharlagun,"Naharlagun, Naharlagun - APSPCB",25-02-2024 22:00:00,27.103358,93.679645,CO,10,36,20
India,Arunachal_Pradesh,Naharlagun,"Naharlagun, Naharlagun - APSPCB",25-02-2024 22:00:00,27.103358,93.679645,OZONE,2,2,2
India,Assam,Byrnihat,"Central Academy for SFS, Byrnihat - PCBA",25-02-2024 22:00:00,26.071318,91.87488,PM2.5,193,500,323
India,Assam,Byrnihat,"Central Academy for SFS, Byrnihat - PCBA",25-02-2024 22:00:00,26.071318,91.87488,SO2,8,18,12
India,Assam,Byrnihat,"Central Academy for SFS, Byrnihat - PCBA",25-02-2024 22:00:00,26.071318,91.87488,OZONE,13,16,14
India,Assam,Guwahati,"IITG, Guwahati - PCBA",25-02-2024 22:00:00,26.2028636,91.70046436,PM10,113,251,165
India,Assam,Guwahati,"IITG, Guwahati - PCBA",25-02-2024 22:00:00,26.2028636,91.70046436,SO2,12,15,13
India,Assam,Guwahati,"LGBI Airport, Guwahati - PCBA",25-02-2024 22:00:00,26.10887,91.589544,PM10,91,320,156
India,Assam,Guwahati,"LGBI Airport, Guwahati - PCBA",25-02-2024 22:00:00,26.10887,91.589544,NO2,9,62,33
India,Assam,Guwahati,"LGBI Airport, Guwahati - PCBA",25-02-2024 22:00:00,26.10887,91.589544,SO2,11,14,13
India,Assam,Guwahati,"Pan Bazaar, Guwahati - PCBA",25-02-2024 22:00:00,26.187500,91.744194,NO2,3,13,8
India,Assam,Guwahati,"Pan Bazaar, Guwahati - PCBA",25-02-2024 22:00:00,26.187500,91.744194,SO2,63,81,71
India,Assam,Guwahati,"Railway Colony, Guwahati - PCBA",25-02-2024 22:00:00,26.181742,91.78063,PM10,104,294,172
India,Assam,Guwahati,"Railway Colony, Guwahati - PCBA",25-02-2024 22:00:00,26.181742,91.78063,OZONE,5,29,15
India,Assam,Nagaon,"Christianpatty, Nagaon - PCBA",25-02-2024 22:00:00,26.349082,92.68449,NH3,1,14,4
India,Assam,Nagaon,"Christianpatty, Nagaon - PCBA",25-02-2024 22:00:00,26.349082,92.68449,OZONE,2,78,50
India,Assam,Nalbari,"Bata Chowk, Nalbari - PCBA",25-02-2024 22:00:00,26.446912,91.439057,NO2,18,34,22
India,Assam,Silchar,"Tarapur, Silchar - PCBA",25-02-2024 22:00:00,24.82827,92.79525,NO2,22,28,25
India,Assam,Silchar,"Tarapur, Silchar - PCBA",25-02-2024 22:00:00,24.82827,92.79525,NH3,1,1,1
India,Assam,Sivasagar,"Girls College, Sivasagar - PCBA",25-02-2024 22:00:00,26.987634,94.636574,NO2,17,27,21
India,Bihar,Araria,"Kharahiya Basti, Araria - BSPCB",25-02-2024 22:00:00,26.146529,87.454184,PM2.5,61,318,207
India,Bihar,Araria,"Kharahiya Basti, Araria - BSPCB",25-02-2024 22:00:00,26.146529,87.454184,NH3,8,9,8
India,Bihar,Arrah,"New DM Office, Arrah - BSPCB",25-02-2024 22:00:00,25.5626095,84.663264,PM10,43,268,107
India,Bihar,Aurangabad,"Gurdeo Nagar, Aurangabad - BSPCB",25-02-2024 22:00:00,24.75746,84.366208,CO,16,72,44
India,Bihar,Aurangabad,"Gurdeo Nagar, Aurangabad - BSPCB",25-02-2024 22:00:00,24.75746,84.366208,OZONE,2,37,24
India,Bihar,Bettiah,"Kamalnath Nagar, Bettiah - BSPCB",25-02-2024 22:00:00,26.80365,84.51954,SO2,11,19,14
India,Bihar,Bhagalpur,"DM Office_Kachari Chowk, Bhagalpur - BSPCB",25-02-2024 22:00:00,25.251013,86.989001,OZONE,20,32,26
India,Bihar,Bhagalpur,"Mayaganj, Bhagalpur - BSPCB",25-02-2024 22:00:00,25.265194,87.012947,SO2,7,13,12
India,Bihar,Bihar Sharif,"D M Colony, Bihar Sharif - BSPCB",25-02-2024 22:00:00,25.204762,85.514960,PM2.5,17,332,80
India,Bihar,Bihar Sharif,"D M Colony, Bihar Sharif - BSPCB",25-02-2024 22:00:00,25.204762,85.514960,NO2,9,11,10
India,Bihar,Bihar Sharif,"D M Colony, Bihar Sharif - BSPCB",25-02-2024 22:00:00,25.204762,85.514960,OZONE,2,2,2
India,Bihar,Buxar,"Charitra Van, Buxar - BSPCB (Formerly known as Central Jail)",25-02-2024 22:00:00,25.567520,83.966379,SO2,15,18,17
India,Bihar,Buxar,"Charitra Van, Buxar - BSPCB (Formerly known as Central Jail)",25-02-2024 22:00:00,25.567520,83.966379,CO,12,130,107
India,Bihar,Buxar,"Charitra Van, Buxar - BSPCB (Formerly known as Central Jail)",25-02-2024 22:00:00,25.567520,83.966379,OZONE,4,125,59
India,Bihar,Gaya,"Kareemganj, Gaya - BSPCB",25-02-2024 22:00:00,24.792403,84.992416,PM10,26,268,81
India,Bihar,Gaya,"Kareemganj, Gaya - BSPCB",25-02-2024 22:00:00,24.792403,84.992416,NO2,30,31,30
India,Bihar,Gaya,"SFTI Kusdihra, Gaya - BSPCB",25-02-2024 22:00:00,24.762518,84.982348,PM2.5,48,128,83
India,Bihar,Gaya,"SFTI Kusdihra, Gaya - BSPCB",25-02-2024 22:00:00,24.762518,84.982348,NH3,1,3,2
India,Bihar,Gaya,"SFTI Kusdihra, Gaya - BSPCB",25-02-2024 22:00:00,24.762518,84.982348,SO2,8,10,9
India,Bihar,Hajipur,"Industrial Area, Hajipur - BSPCB",25-02-2024 22:00:00,25.697189,85.245900,NH3,4,10,7
India,Bihar,Hajipur,"Industrial Area, Hajipur - BSPCB",25-02-2024 22:00:00,25.697189,85.245900,OZONE,1,5,4
India,Bihar,Katihar,"Mirchaibari, Katihar - BSPCB",25-02-2024 22:00:00,25.560083,87.553265,NH3,1,3,2
India,Bihar,Katihar,"Mirchaibari, Katihar - BSPCB",25-02-2024 22:00:00,25.560083,87.553265,SO2,18,24,21
India,Bihar,Kishanganj,"SDM Office_Khagra, Kishanganj - BSPCB",25-02-2024 22:00:00,26.0881305,87.93840336,PM10,84,242,140
India,Bihar,Motihari,"Gandak Colony, Motihari - BSPCB",25-02-2024 22:00:00,26.63086,84.90051,SO2,1,7,3
India,Bihar,Munger,"Town Hall, Munger - BSPCB",25-02-2024 22:00:00,25.376776,86.471523,CO,2,27,11
India,Bihar,Muzaffarpur,"Buddha Colony, Muzaffarpur - BSPCB",25-02-2024 22:00:00,26.11442,85.39813,OZONE,41,86,65
India,Bihar,Muzaffarpur,"MIT-Daudpur Kothi, Muzaffarpur - BSPCB",25-02-2024 22:00:00,26.1403345,85.3650192,CO,3,110,84
India,Bihar,Muzaffarpur,"Muzaffarpur Collectorate, Muzaffarpur - BSPCB",25-02-2024 22:00:00,26.1209,85.3647,SO2,5,7,6
India,Bihar,Patna,"DRM Office Danapur, Patna - BSPCB",25-02-2024 22:00:00,25.586562,85.043586,PM10,103,429,195
India,Bihar,Patna,"DRM Office Danapur, Patna - BSPCB",25-02-2024 22:00:00,25.586562,85.043586,NH3,3,4,3
India,Bihar,Patna,"DRM Office Danapur, Patna - BSPCB",25-02-2024 22:00:00,25.586562,85.043586,SO2,5,10,8
India,Bihar,Patna,"Govt. High School Shikarpur, Patna - BSPCB",25-02-2024 22:00:00,25.592539,85.227158,NO2,23,30,25
India,Bihar,Patna,"Govt. High School Shikarpur, Patna - BSPCB",25-02-2024 22:00:00,25.592539,85.227158,CO,24,101,42
India,Bihar,Patna,"IGSC Planetarium Complex, Patna - BSPCB",25-02-2024 22:00:00,25.610369,85.132568,PM2.5,44,265,109
India,Bihar,Patna,"IGSC Planetarium Complex, Patna - BSPCB",25-02-2024 22:00:00,25.610369,85.132568,NO2,14,14,14
India,Bihar,Patna,"IGSC Planetarium Complex, Patna - BSPCB",25-02-2024 22:00:00,25.610369,85.132568,CO,13,15,14
India,Bihar,Patna,"Muradpur, Patna - BSPCB",25-02-2024 22:00:00,25.619651,85.147382,NH3,2,5,3
India,Bihar,Patna,"Rajbansi Nagar, Patna - BSPCB",25-02-2024 22:00:00,25.599486,85.113666,NH3,1,3,3
India,Bihar,Patna,"Samanpura, Patna - BSPCB",25-02-2024 22:00:00,25.596727,85.085624,NH3,1,16,5
India,Bihar,Rajgir,"Dangi Tola, Rajgir - BSPCB",25-02-2024 22:00:00,25.03280,85.41948,CO,10,11,10
India,Bihar,Saharsa,"Police Line, Saharsa - BSPCB",25-02-2024 22:00:00,25.892357,86.590325,CO,2,103,44
India,Bihar,Samastipur,"DM Office_Kasipur, Samastipur - BSPCB",25-02-2024 22:00:00,25.859655,85.77944,NO2,8,42,15
India,Bihar,Samastipur,"DM Office_Kasipur, Samastipur - BSPCB",25-02-2024 22:00:00,25.859655,85.77944,CO,2,40,29
India,Bihar,Sasaram,"Dada Peer, Sasaram - BSPCB",25-02-2024 22:00:00,24.952822,84.002396,NH3,8,15,12
India,Bihar,Siwan,"Chitragupta Nagar, Siwan - BSPCB",25-02-2024 22:00:00,26.2271665,84.3570427,NO2,9,67,23
India,Bihar,Siwan,"Chitragupta Nagar, Siwan - BSPCB",25-02-2024 22:00:00,26.2271665,84.3570427,SO2,30,35,33
India,Bihar,Siwan,"Chitragupta Nagar, Siwan - BSPCB",25-02-2024 22:00:00,26.2271665,84.3570427,CO,46,149,121
India,Bihar,Siwan,"Chitragupta Nagar, Siwan - BSPCB",25-02-2024 22:00:00,26.2271665,84.3570427,OZONE,6,105,59
India,Chandigarh,Chandigarh,"Sector 22, Chandigarh - CPCC",25-02-2024 22:00:00,30.735567,76.775714,PM2.5,40,167,73
India,Chandigarh,Chandigarh,"Sector-25, Chandigarh - CPCC",25-02-2024 22:00:00,30.751462,76.762879,SO2,5,37,11
India,Chandigarh,Chandigarh,"Sector-25, Chandigarh - CPCC",25-02-2024 22:00:00,30.751462,76.762879,OZONE,1,45,26
India,Chhattisgarh,Bhilai,"32Bungalows, Bhilai - CECB",25-02-2024 22:00:00,21.194815,81.314770,PM10,36,101,58
India,Chhattisgarh,Bhilai,"32Bungalows, Bhilai - CECB",25-02-2024 22:00:00,21.194815,81.314770,NH3,6,7,7
India,Chhattisgarh,Bhilai,"Civic Center, Bhilai - Bhilai Steel Plant",25-02-2024 22:00:00,21.185571,81.343175,PM2.5,20,39,27
India,Chhattisgarh,Bhilai,"Civic Center, Bhilai - Bhilai Steel Plant",25-02-2024 22:00:00,21.185571,81.343175,SO2,7,12,10
India,Chhattisgarh,Bhilai,"Hathkhoj, Bhilai - CECB",25-02-2024 22:00:00,21.224231,81.408350,SO2,12,25,17
India,Chhattisgarh,Bilaspur,"Mangala, Bilaspur - NTPC",25-02-2024 22:00:00,22.08815,82.13737,PM10,22,77,50
India,Chhattisgarh,Bilaspur,"Mangala, Bilaspur - NTPC",25-02-2024 22:00:00,22.08815,82.13737,SO2,1,58,20
India,Chhattisgarh,Chhal,"Nawapara SECL Colony, Chhal - CECB",25-02-2024 22:00:00,22.118125,83.140608,NO2,13,41,21
India,Chhattisgarh,Korba,"Rampur, Korba - CECB",25-02-2024 22:00:00,22.368195,82.746431,PM10,27,51,41
India,Chhattisgarh,Korba,"Rampur, Korba - CECB",25-02-2024 22:00:00,22.368195,82.746431,OZONE,3,22,5
India,Chhattisgarh,Kunjemura,"OP Jindal School, Kunjemura - CECB",25-02-2024 22:00:00,22.126650,83.483212,PM2.5,15,32,23
India,Chhattisgarh,Kunjemura,"OP Jindal School, Kunjemura - CECB",25-02-2024 22:00:00,22.126650,83.483212,SO2,4,15,10
India,Chhattisgarh,Raipur,"AIIMS, Raipur - CECB",25-02-2024 22:00:00,21.258815,81.578979,PM2.5,45,85,64
India,Chhattisgarh,Raipur,"AIIMS, Raipur - CECB",25-02-2024 22:00:00,21.258815,81.578979,CO,28,48,32
India,Chhattisgarh,Raipur,"Bhatagaon New ISBT, Raipur - CECB",25-02-2024 22:00:00,21.219665,81.630094,PM2.5,31,66,44
India,Chhattisgarh,Raipur,"Bhatagaon New ISBT, Raipur - CECB",25-02-2024 22:00:00,21.219665,81.630094,PM10,52,90,67
India,Chhattisgarh,Raipur,"Bhatagaon New ISBT, Raipur - CECB",25-02-2024 22:00:00,21.219665,81.630094,NH3,1,2,1
India,Chhattisgarh,Raipur,"Krishak Nagar, Raipur - CECB",25-02-2024 22:00:00,21.237755,81.705301,PM10,56,111,78
India,Delhi,Delhi,"Alipur, Delhi - DPCC",25-02-2024 22:00:00,28.815329,77.153010,NH3,3,8,6
India,Delhi,Delhi,"Anand Vihar, Delhi - DPCC",25-02-2024 22:00:00,28.647622,77.3158090,PM2.5,42,341,225
India,Delhi,Delhi,"Anand Vihar, Delhi - DPCC",25-02-2024 22:00:00,28.647622,77.3158090,NO2,79,183,116
India,Delhi,Delhi,"Anand Vihar, Delhi - DPCC",25-02-2024 22:00:00,28.647622,77.3158090,OZONE,17,22,18
India,Delhi,Delhi,"Ashok Vihar, Delhi - DPCC",25-02-2024 22:00:00,28.695381,77.181665,NO2,12,101,59
India,Delhi,Delhi,"Ashok Vihar, Delhi - DPCC",25-02-2024 22:00:00,28.695381,77.181665,SO2,23,49,32
India,Delhi,Delhi,"Aya Nagar, Delhi - IMD",25-02-2024 22:00:00,28.4706914,77.1099364,PM10,55,222,137
India,Delhi,Delhi,"Bawana, Delhi - DPCC",25-02-2024 22:00:00,28.776200,77.051074,NH3,5,7,6
India,Delhi,Delhi,"Burari Crossing, Delhi - IMD",25-02-2024 22:00:00,28.7256504,77.2011573,CO,37,58,41
India,Delhi,Delhi,"Burari Crossing, Delhi - IMD",25-02-2024 22:00:00,28.7256504,77.2011573,OZONE,4,43,25
India,Delhi,Delhi,"CRRI Mathura Road, Delhi - IMD",25-02-2024 22:00:00,28.5512005,77.2735737,PM2.5,NA,NA,NA
India,Delhi,Delhi,"CRRI Mathura Road, Delhi - IMD",25-02-2024 22:00:00,28.5512005,77.2735737,NO2,NA,NA,NA
India,Delhi,Delhi,"CRRI Mathura Road, Delhi - IMD",25-02-2024 22:00:00,28.5512005,77.2735737,CO,1,27,9
India,Delhi,Delhi,"Chandni Chowk, Delhi - IITM",25-02-2024 22:00:00,28.656756,77.227234,PM10,40,394,126
India,Delhi,Delhi,"DTU, Delhi - CPCB",25-02-2024 22:00:00,28.7500499,77.1112615,PM10,53,308,173
India,Delhi,Delhi,"DTU, Delhi - CPCB",25-02-2024 22:00:00,28.7500499,77.1112615,SO2,30,34,32
India,Delhi,Delhi,"Dr. Karni Singh Shooting Range, Delhi - DPCC",25-02-2024 22:00:00,28.498571,77.264840,NO2,27,160,86
India,Delhi,Delhi,"Dr. Karni Singh Shooting Range, Delhi - DPCC",25-02-2024 22:00:00,28.498571,77.264840,OZONE,1,175,96
India,Delhi,Delhi,"Dwarka-Sector 8, Delhi - DPCC ",25-02-2024 22:00:00,28.5710274,77.0719006,PM2.5,60,308,169
India,Delhi,Delhi,"Dwarka-Sector 8, Delhi - DPCC ",25-02-2024 22:00:00,28.5710274,77.0719006,NH3,5,8,7
India,Delhi,Delhi,"Dwarka-Sector 8, Delhi - DPCC ",25-02-2024 22:00:00,28.5710274,77.0719006,SO2,3,18,8
India,Delhi,Delhi,"IGI Airport (T3), Delhi - IMD",25-02-2024 22:00:00,28.5627763,77.1180053,CO,2,62,12
India,Delhi,Delhi,"Jahangirpuri, Delhi - DPCC",25-02-2024 22:00:00,28.732820,77.170633,CO,54,106,73
India,Delhi,Delhi,"Jahangirpuri, Delhi - DPCC",25-02-2024 22:00:00,28.732820,77.170633,OZONE,3,32,18
India,Delhi,Delhi,"Jawaharlal Nehru Stadium, Delhi - DPCC",25-02-2024 22:00:00,28.580280,77.233829,PM2.5,28,301,160
India,Delhi,Delhi,"Jawaharlal Nehru Stadium, Delhi - DPCC",25-02-2024 22:00:00,28.580280,77.233829,SO2,2,39,20
India,Delhi,Delhi,"Jawaharlal Nehru Stadium, Delhi - DPCC",25-02-2024 22:00:00,28.580280,77.233829,CO,24,116,39
India,Delhi,Delhi,"Lodhi Road, Delhi - IMD",25-02-2024 22:00:00,28.5918245,77.2273074,PM2.5,47,242,141
India,Delhi,Delhi,"Lodhi Road, Delhi - IMD",25-02-2024 22:00:00,28.5918245,77.2273074,NO2,2,10,6
India,Delhi,Delhi,"Major Dhyan Chand National Stadium, Delhi - DPCC",25-02-2024 22:00:00,28.611281,77.237738,PM2.5,46,353,196
India,Delhi,Delhi,"Mandir Marg, Delhi - DPCC",25-02-2024 22:00:00,28.636429,77.201067,PM2.5,42,276,145
India,Delhi,Delhi,"Mundka, Delhi - DPCC",25-02-2024 22:00:00,28.684678,77.076574,SO2,8,22,12
India,Delhi,Delhi,"Mundka, Delhi - DPCC",25-02-2024 22:00:00,28.684678,77.076574,CO,18,80,42
India,Delhi,Delhi,"Najafgarh, Delhi - DPCC",25-02-2024 22:00:00,28.570173,76.933762,PM2.5,NA,NA,NA
India,Delhi,Delhi,"Narela, Delhi - DPCC",25-02-2024 22:00:00,28.822836,77.101981,PM10,63,277,178
India,Delhi,Delhi,"Narela, Delhi - DPCC",25-02-2024 22:00:00,28.822836,77.101981,SO2,2,26,14
India,Delhi,Delhi,"Nehru Nagar, Delhi - DPCC",25-02-2024 22:00:00,28.567890,77.250515,PM2.5,46,346,193
India,Delhi,Delhi,"Nehru Nagar, Delhi - DPCC",25-02-2024 22:00:00,28.567890,77.250515,PM10,72,348,165
India,Delhi,Delhi,"New Moti Bagh, Delhi - MHUA",25-02-2024 22:00:00,28.57834,77.18400,CO,17,86,29
India,Delhi,Delhi,"North Campus, DU, Delhi - IMD",25-02-2024 22:00:00,28.6573814,77.1585447,PM10,101,203,147
India,Delhi,Delhi,"Okhla Phase-2, Delhi - DPCC",25-02-2024 22:00:00,28.530785,77.271255,PM2.5,44,334,183
India,Delhi,Delhi,"Okhla Phase-2, Delhi - DPCC",25-02-2024 22:00:00,28.530785,77.271255,CO,40,113,50
India,Delhi,Delhi,"Okhla Phase-2, Delhi - DPCC",25-02-2024 22:00:00,28.530785,77.271255,OZONE,8,136,76
India,Delhi,Delhi,"Patparganj, Delhi - DPCC",25-02-2024 22:00:00,28.623763,77.287209,PM10,87,263,157
India,Delhi,Delhi,"Patparganj, Delhi - DPCC",25-02-2024 22:00:00,28.623763,77.287209,NH3,7,13,10
India,Delhi,Delhi,"Punjabi Bagh, Delhi - DPCC",25-02-2024 22:00:00,28.674045,77.131023,SO2,8,106,47
India,Delhi,Delhi,"Pusa, Delhi - DPCC",25-02-2024 22:00:00,28.639652,77.146275,NH3,4,9,7
India,Delhi,Delhi,"Pusa, Delhi - DPCC",25-02-2024 22:00:00,28.639652,77.146275,CO,98,119,107
India,Delhi,Delhi,"R K Puram, Delhi - DPCC",25-02-2024 22:00:00,28.563262,77.186937,NO2,13,47,30
India,Delhi,Delhi,"R K Puram, Delhi - DPCC",25-02-2024 22:00:00,28.563262,77.186937,CO,18,134,46
India,Delhi,Delhi,"Rohini, Delhi - DPCC",25-02-2024 22:00:00,28.732528,77.119920,PM10,56,357,182
India,Delhi,Delhi,"Rohini, Delhi - DPCC",25-02-2024 22:00:00,28.732528,77.119920,NH3,8,10,8
India,Delhi,Delhi,"Shadipur, Delhi - CPCB",25-02-2024 22:00:00,28.6514781,77.1473105,SO2,2,58,12
India,Delhi,Delhi,"Sonia Vihar, Delhi - DPCC",25-02-2024 22:00:00,28.710508,77.249485,NH3,4,13,6
India,Delhi,Delhi,"Sonia Vihar, Delhi - DPCC",25-02-2024 22:00:00,28.710508,77.249485,OZONE,5,204,75
India,Delhi,Delhi,"Vivek Vihar, Delhi - DPCC",25-02-2024 22:00:00,28.672342,77.315260,NH3,3,6,5
India,Gujarat,Ahmedabad,"Gyaspur, Ahmedabad - IITM",25-02-2024 22:00:00,22.977134,72.553024,PM10,30,30,30
India,Gujarat,Ahmedabad,"Gyaspur, Ahmedabad - IITM",25-02-2024 22:00:00,22.977134,72.553024,NH3,3,3,3
India,Gujarat,Ahmedabad,"Gyaspur, Ahmedabad - IITM",25-02-2024 22:00:00,22.977134,72.553024,CO,32,32,32
India,Gujarat,Ahmedabad,"Maninagar, Ahmedabad - GPCB",25-02-2024 22:00:00,23.002657,72.591912,NO2,10,12,11
India,Gujarat,Ahmedabad,"Maninagar, Ahmedabad - GPCB",25-02-2024 22:00:00,23.002657,72.591912,OZONE,7,37,26
India,Gujarat,Ahmedabad,"Raikhad, Ahmedabad - IITM",25-02-2024 22:00:00,23.020509,72.579261,NO2,13,52,23
India,Gujarat,Ahmedabad,"Rakhial, Ahmedabad - IITM",25-02-2024 22:00:00,23.016834,72.625775,NO2,68,97,75
India,Gujarat,Ahmedabad,"Rakhial, Ahmedabad - IITM",25-02-2024 22:00:00,23.016834,72.625775,SO2,2,12,5
India,Gujarat,Ahmedabad,"Rakhial, Ahmedabad - IITM",25-02-2024 22:00:00,23.016834,72.625775,OZONE,4,54,36
India,Gujarat,Ahmedabad,"SAC ISRO Bopal, Ahmedabad - IITM",25-02-2024 22:00:00,23.041137,72.456691,NO2,12,13,12
India,Gujarat,Ahmedabad,"SAC ISRO Satellite, Ahmedabad - IITM",25-02-2024 22:00:00,23.023389,72.515201,SO2,11,30,15
India,Gujarat,Ahmedabad,"SVPI Airport Hansol, Ahmedabad - IITM",25-02-2024 22:00:00,23.076793,72.627874,PM2.5,NA,NA,NA
India,Gujarat,Ahmedabad,"Sardar Vallabhbhai Patel Stadium, Ahmedabad - IITM",25-02-2024 22:00:00,23.043070,72.562968,PM10,63,117,89
India,Gujarat,Gandhinagar,"IIPHG Lekawada, Gandhinagar - IITM",25-02-2024 22:00:00,23.243639,72.68994,PM10,49,121,86
India,Gujarat,Gandhinagar,"IIPHG Lekawada, Gandhinagar - IITM",25-02-2024 22:00:00,23.243639,72.68994,NH3,3,3,3
India,Gujarat,Gandhinagar,"IIPHG Lekawada, Gandhinagar - IITM",25-02-2024 22:00:00,23.243639,72.68994,OZONE,26,155,33
India,Gujarat,Gandhinagar,"Sector-10, Gandhinagar - GPCB",25-02-2024 22:00:00,23.221714,72.654328,SO2,4,12,6
India,Gujarat,Vapi,"Phase-1 GIDC, Vapi - GPCB",25-02-2024 22:00:00,20.362421,72.918013,PM2.5,45,385,172
India,Gujarat,Vapi,"Phase-1 GIDC, Vapi - GPCB",25-02-2024 22:00:00,20.362421,72.918013,NH3,15,21,18
India,Gujarat,Vapi,"Phase-1 GIDC, Vapi - GPCB",25-02-2024 22:00:00,20.362421,72.918013,CO,105,186,183
India,Gujarat,Vatva,"Phase-4 GIDC, Vatva - GPCB",25-02-2024 22:00:00,22.969611,72.643500,NH3,1,2,1
India,Haryana,Ambala,"Patti Mehar, Ambala - HSPCB",25-02-2024 22:00:00,30.379589,76.778328,NH3,7,7,7
India,Haryana,Ambala,"Patti Mehar, Ambala - HSPCB",25-02-2024 22:00:00,30.379589,76.778328,SO2,4,26,12
India,Haryana,Bahadurgarh,"Arya Nagar, Bahadurgarh - HSPCB",25-02-2024 22:00:00,28.6701,76.9254,PM2.5,49,239,123
India,Haryana,Bahadurgarh,"Arya Nagar, Bahadurgarh - HSPCB",25-02-2024 22:00:00,28.6701,76.9254,NO2,33,39,36
India,Haryana,Bahadurgarh,"Arya Nagar, Bahadurgarh - HSPCB",25-02-2024 22:00:00,28.6701,76.9254,NH3,11,12,11
India,Haryana,Ballabgarh,"Nathu Colony, Ballabgarh - HSPCB",25-02-2024 22:00:00,28.3419248,77.319699,SO2,3,22,11
India,Haryana,Ballabgarh,"Nathu Colony, Ballabgarh - HSPCB",25-02-2024 22:00:00,28.3419248,77.319699,OZONE,2,23,16
India,Haryana,Charkhi Dadri,"Mini Secretariat, Charkhi Dadri - HSPCB",25-02-2024 22:00:00,28.593883,76.270653,CO,10,15,11
India,Haryana,Dharuhera,"Municipal Corporation Office, Dharuhera -  HSPCB",25-02-2024 22:00:00,28.206800,76.799700,PM10,95,203,159
India,Haryana,Dharuhera,"Municipal Corporation Office, Dharuhera -  HSPCB",25-02-2024 22:00:00,28.206800,76.799700,NO2,44,113,72
India,Haryana,Dharuhera,"Municipal Corporation Office, Dharuhera -  HSPCB",25-02-2024 22:00:00,28.206800,76.799700,CO,2,44,17
India,Haryana,Faridabad,"New Industrial Town, Faridabad - HSPCB",25-02-2024 22:00:00,28.39072,77.30059,CO,1,85,14
India,Haryana,Faridabad,"Sector 11, Faridabad - HSPCB",25-02-2024 22:00:00,28.376058,77.315741,PM10,45,401,164
India,Haryana,Faridabad,"Sector 11, Faridabad - HSPCB",25-02-2024 22:00:00,28.376058,77.315741,SO2,8,9,8
India,Haryana,Faridabad,"Sector 30, Faridabad - HSPCB",25-02-2024 22:00:00,28.4417,77.3217,NO2,NA,NA,NA
India,Haryana,Faridabad,"Sector 30, Faridabad - HSPCB",25-02-2024 22:00:00,28.4417,77.3217,CO,NA,NA,NA
India,Haryana,Fatehabad,"Huda Sector, Fatehabad - HSPCB",25-02-2024 22:00:00,29.503664,75.467934,PM2.5,NA,NA,NA
India,Haryana,Gurugram,"Teri Gram, Gurugram - HSPCB",25-02-2024 22:00:00,28.4275,77.1465,PM10,103,359,188
India,Haryana,Hisar,"Urban Estate-II, Hisar - HSPCB",25-02-2024 22:00:00,29.140560,75.744941,CO,40,131,57
India,Haryana,Kaithal,"Rishi Nagar, Kaithal - HSPCB",25-02-2024 22:00:00,29.8006,76.4155,NO2,NA,NA,NA
India,Haryana,Karnal,"Sector-12, Karnal - HSPCB",25-02-2024 22:00:00,29.695300,77.002700,CO,20,51,31
India,Haryana,Kurukshetra,"Sector-7, Kurukshetra - HSPCB",25-02-2024 22:00:00,29.966942,76.875879,PM10,57,118,94
India,Haryana,Kurukshetra,"Sector-7, Kurukshetra - HSPCB",25-02-2024 22:00:00,29.966942,76.875879,SO2,2,63,19
India,Haryana,Kurukshetra,"Sector-7, Kurukshetra - HSPCB",25-02-2024 22:00:00,29.966942,76.875879,CO,4,28,14
India,Haryana,Mandikhera,"General Hospital, Mandikhera - HSPCB",25-02-2024 22:00:00,27.9002,76.9938,PM2.5,26,75,50
India,Haryana,Mandikhera,"General Hospital, Mandikhera - HSPCB",25-02-2024 22:00:00,27.9002,76.9938,PM10,62,116,92
India,Haryana,Mandikhera,"General Hospital, Mandikhera - HSPCB",25-02-2024 22:00:00,27.9002,76.9938,NH3,18,21,19
India,Haryana,Manesar,"Sector-2 IMT, Manesar - HSPCB",25-02-2024 22:00:00,28.360699,76.936090,PM2.5,65,247,158
India,Haryana,Manesar,"Sector-2 IMT, Manesar - HSPCB",25-02-2024 22:00:00,28.360699,76.936090,NO2,11,28,20
India,Haryana,Narnaul,"Shastri Nagar, Narnaul - HSPCB",25-02-2024 22:00:00,28.060249,76.113115,OZONE,39,43,42
India,Haryana,Panchkula,"Sector-6, Panchkula - HSPCB ",25-02-2024 22:00:00,30.7057778,76.8531805555555,NO2,28,30,29
India,Haryana,Panchkula,"Sector-6, Panchkula - HSPCB ",25-02-2024 22:00:00,30.7057778,76.8531805555555,CO,4,193,14
India,Haryana,Panipat,"Sector-18, Panipat - HSPCB",25-02-2024 22:00:00,29.497973,76.993331,PM2.5,130,138,134
India,Haryana,Panipat,"Sector-18, Panipat - HSPCB",25-02-2024 22:00:00,29.497973,76.993331,OZONE,30,30,30
India,Haryana,Rohtak,"MD University, Rohtak - HSPCB",25-02-2024 22:00:00,28.52123,76.37138,NO2,45,57,51
India,Haryana,Sonipat,"Murthal, Sonipat - HSPCB",25-02-2024 22:00:00,29.027200,77.062100,PM10,66,130,110
India,Haryana,Sonipat,"Murthal, Sonipat - HSPCB",25-02-2024 22:00:00,29.027200,77.062100,NH3,2,10,8
India,Haryana,Sonipat,"Murthal, Sonipat - HSPCB",25-02-2024 22:00:00,29.027200,77.062100,OZONE,15,35,28
India,Haryana,Yamuna Nagar,"Gobind Pura, Yamuna Nagar - HSPCB",25-02-2024 22:00:00,30.1480566,77.2893471,NH3,1,6,4
India,Jharkhand,Dhanbad,"Kalakusuma, Dhanbad - DMC",25-02-2024 22:00:00,23.811548,86.481238,OZONE,25,30,29
India,Jharkhand,Dhanbad,"Sardar Patel Nagar, Dhanbad - JSPCB",25-02-2024 22:00:00,23.80569,86.44268,NO2,NA,NA,NA
India,Jharkhand,Dhanbad,"Sardar Patel Nagar, Dhanbad - JSPCB",25-02-2024 22:00:00,23.80569,86.44268,OZONE,NA,NA,NA
India,Jharkhand,Pathardih,"Mohalbani Ghat, Pathardih - DMC",25-02-2024 22:00:00,23.669880,86.411725,PM10,NA,NA,NA
India,Jharkhand,Pathardih,"Mohalbani Ghat, Pathardih - DMC",25-02-2024 22:00:00,23.669880,86.411725,OZONE,NA,NA,NA
India,Karnataka,Bagalkot,"Vidayagiri, Bagalkot - KSPCB",25-02-2024 22:00:00,16.172806,75.659694,PM10,41,42,42
India,Karnataka,Bagalkot,"Vidayagiri, Bagalkot - KSPCB",25-02-2024 22:00:00,16.172806,75.659694,NO2,9,10,9
India,Karnataka,Bagalkot,"Vidayagiri, Bagalkot - KSPCB",25-02-2024 22:00:00,16.172806,75.659694,NH3,1,2,1
India,Karnataka,Belgaum,"Ramteerth Nagar, Belgaum - KSPCB",25-02-2024 22:00:00,15.888653,74.541751,NO2,27,31,28
India,Karnataka,Belgaum,"Ramteerth Nagar, Belgaum - KSPCB",25-02-2024 22:00:00,15.888653,74.541751,SO2,8,10,9
India,Karnataka,Belgaum,"Ramteerth Nagar, Belgaum - KSPCB",25-02-2024 22:00:00,15.888653,74.541751,CO,36,59,41
India,Karnataka,Bengaluru,"Bapuji Nagar, Bengaluru - KSPCB",25-02-2024 22:00:00,12.951913,77.539784,NH3,1,1,1
India,Karnataka,Bengaluru,"City Railway Station, Bengaluru - KSPCB",25-02-2024 22:00:00,12.9756843,77.5660749,PM10,63,77,73
India,Karnataka,Bengaluru,"Hombegowda Nagar, Bengaluru - KSPCB",25-02-2024 22:00:00,12.938539,77.590100,PM10,52,93,74
India,Karnataka,Bengaluru,"Jayanagar 5th Block, Bengaluru - KSPCB",25-02-2024 22:00:00,12.920984,77.584908,CO,16,32,24
India,Karnataka,Bengaluru,"Kasturi Nagar, Bengaluru - KSPCB",25-02-2024 22:00:00,13.003872,77.664217,PM10,76,149,114
India,Karnataka,Bengaluru,"Kasturi Nagar, Bengaluru - KSPCB",25-02-2024 22:00:00,13.003872,77.664217,SO2,10,10,10
India,Karnataka,Bengaluru,"Kasturi Nagar, Bengaluru - KSPCB",25-02-2024 22:00:00,13.003872,77.664217,OZONE,43,98,80
India,Karnataka,Bengaluru,"Peenya, Bengaluru - CPCB",25-02-2024 22:00:00,13.0270199,77.494094,NO2,17,28,22
India,Karnataka,Bengaluru,"RVCE-Mailasandra, Bengaluru - KSPCB",25-02-2024 22:00:00,12.921418,77.502466,OZONE,29,69,53
India,Karnataka,Bengaluru,"Silk Board, Bengaluru - KSPCB",25-02-2024 22:00:00,12.917348,77.622813,OZONE,28,31,30
India,Karnataka,Chamarajanagar,"Urban, Chamarajanagar - KSPCB",25-02-2024 22:00:00,11.55358,76.55521,NH3,1,2,2
India,Karnataka,Chikkaballapur,"Chikkaballapur Rural, Chikkaballapur - KSPCB",25-02-2024 22:00:00,13.428828,77.731418,NO2,2,9,4
India,Karnataka,Chikkaballapur,"Chikkaballapur Rural, Chikkaballapur - KSPCB",25-02-2024 22:00:00,13.428828,77.731418,OZONE,24,25,24
India,Karnataka,Chikkamagaluru,"Kalyana Nagara, Chikkamagaluru - KSPCB",25-02-2024 22:00:00,13.328028,75.797056,PM2.5,27,60,40
India,Karnataka,Chikkamagaluru,"Kalyana Nagara, Chikkamagaluru - KSPCB",25-02-2024 22:00:00,13.328028,75.797056,NH3,2,5,3
India,Karnataka,Chikkamagaluru,"Kalyana Nagara, Chikkamagaluru - KSPCB",25-02-2024 22:00:00,13.328028,75.797056,OZONE,15,47,29
India,Karnataka,Davanagere,"Devaraj Urs Badavane, Davanagere - KSPCB",25-02-2024 22:00:00,14.475800,75.905200,NO2,3,14,9
India,Karnataka,Dharwad,"Kalabhavan, Dharwad - KSPCB",25-02-2024 22:00:00,15.459706,75.008381,PM2.5,53,76,66
India,Karnataka,Dharwad,"Kalabhavan, Dharwad - KSPCB",25-02-2024 22:00:00,15.459706,75.008381,NH3,3,3,3
India,Karnataka,Dharwad,"Kalabhavan, Dharwad - KSPCB",25-02-2024 22:00:00,15.459706,75.008381,SO2,3,17,8
India,Karnataka,Dharwad,"Kalabhavan, Dharwad - KSPCB",25-02-2024 22:00:00,15.459706,75.008381,OZONE,2,55,30
India,Karnataka,Gadag,"Panchal Nagar, Gadag - KSPCB",25-02-2024 22:00:00,15.411456,75.638133,PM2.5,24,54,40
India,Karnataka,Gadag,"Panchal Nagar, Gadag - KSPCB",25-02-2024 22:00:00,15.411456,75.638133,PM10,33,56,42
