country,state,city,station,last_update,latitude,longitude,pollutant_id,pollutant_min,pollutant_max,pollutant_avg
India,Andhra_Pradesh,Amaravati,"Secretariat, Amaravati - APPCB",23-06-2024 08:00:00,16.5150833,80.5181667,PM2.5,15,43,28
India,Andhra_Pradesh,Amaravati,"Secretariat, Amaravati - APPCB",23-06-2024 08:00:00,16.5150833,80.5181667,SO2,14,20,17
India,Andhra_Pradesh,Amaravati,"Secretariat, Amaravati - APPCB",23-06-2024 08:00:00,16.5150833,80.5181667,OZONE,2,41,7
India,Andhra_Pradesh,Anantapur,"Gulzarpet, Anantapur - APPCB",23-06-2024 08:00:00,14.675886,77.593027,PM10,NA,NA,NA
India,Andhra_Pradesh,Anantapur,"Gulzarpet, Anantapur - APPCB",23-06-2024 08:00:00,14.675886,77.593027,NH3,NA,NA,NA
India,Andhra_Pradesh,Kadapa,"Yerramukkapalli, Kadapa - APPCB",23-06-2024 08:00:00,14.465052,78.824187,PM2.5,NA,NA,NA
India,Andhra_Pradesh,Kadapa,"Yerramukkapalli, Kadapa - APPCB",23-06-2024 08:00:00,14.465052,78.824187,PM10,NA,NA,NA
India,Andhra_Pradesh,Tirupati,"Tirumala, Tirupati - APPCB",23-06-2024 08:00:00,13.67,79.35,NO2,17,34,25
India,Andhra_Pradesh,Tirupati,"Tirumala, Tirupati - APPCB",23-06-2024 08:00:00,13.67,79.35,CO,12,28,19
India,Andhra_Pradesh,Tirupati,"Vaikuntapuram, Tirupati - APPCB",23-06-2024 08:00:00,13.615387,79.409230,PM2.5,NA,NA,NA
India,Andhra_Pradesh,Tirupati,"Vaikuntapuram, Tirupati - APPCB",23-06-2024 08:00:00,13.615387,79.409230,PM10,NA,NA,NA
India,Andhra_Pradesh,Vijayawada,"Kanuru, Vijayawada - APPCB",23-06-2024 08:00:00,16.486692,80.699436,OZONE,40,40,40
India,Andhra_Pradesh,Vijayawada,"Rajiv Nagar, Vijayawada - APPCB",23-06-2024 08:00:00,16.554731,80.649110,SO2,26,27,26
India,Andhra_Pradesh,Visakhapatnam,"GVM Corporation, Visakhapatnam - APPCB",23-06-2024 08:00:00,17.72,83.3,NH3,3,4,3
India,Andhra_Pradesh,Visakhapatnam,"GVM Corporation, Visakhapatnam - APPCB",23-06-2024 08:00:00,17.72,83.3,CO,2,54,13
India,Assam,Byrnihat,"Central Academy for SFS, Byrnihat - PCBA",23-06-2024 08:00:00,26.071318,91.87488,NH3,14,33,17
India,Assam,Guwahati,"LGBI Airport, Guwahati - PCBA",23-06-2024 08:00:00,26.10887,91.589544,SO2,8,15,11
India,Assam,Guwahati,"Pan Bazaar, Guwahati - PCBA",23-06-2024 08:00:00,26.187500,91.744194,SO2,41,60,50
India,Assam,Guwahati,"Pan Bazaar, Guwahati - PCBA",23-06-2024 08:00:00,26.187500,91.744194,OZONE,17,17,17
India,Assam,Guwahati,"Railway Colony, Guwahati - PCBA",23-06-2024 08:00:00,26.181742,91.78063,PM10,27,139,55
India,Assam,Guwahati,"Railway Colony, Guwahati - PCBA",23-06-2024 08:00:00,26.181742,91.78063,SO2,1,2,2
India,Assam,Nagaon,"Christianpatty, Nagaon - PCBA",23-06-2024 08:00:00,26.349082,92.68449,PM2.5,25,121,36
India,Assam,Nagaon,"Christianpatty, Nagaon - PCBA",23-06-2024 08:00:00,26.349082,92.68449,NH3,1,10,2
India,Assam,Nalbari,"Bata Chowk, Nalbari - PCBA",23-06-2024 08:00:00,26.446912,91.439057,PM10,42,136,72
India,Assam,Nalbari,"Bata Chowk, Nalbari - PCBA",23-06-2024 08:00:00,26.446912,91.439057,CO,8,131,37
India,Assam,Sivasagar,"Girls College, Sivasagar - PCBA",23-06-2024 08:00:00,26.987634,94.636574,NO2,7,13,9
India,Assam,Sivasagar,"Girls College, Sivasagar - PCBA",23-06-2024 08:00:00,26.987634,94.636574,CO,4,12,5
India,Bihar,Araria,"Kharahiya Basti, Araria - BSPCB",23-06-2024 08:00:00,26.146529,87.454184,NO2,3,9,7
India,Bihar,Aurangabad,"Gurdeo Nagar, Aurangabad - BSPCB",23-06-2024 08:00:00,24.75746,84.366208,PM2.5,NA,NA,NA
India,Bihar,Aurangabad,"Gurdeo Nagar, Aurangabad - BSPCB",23-06-2024 08:00:00,24.75746,84.366208,NO2,2,11,6
India,Bihar,Aurangabad,"Gurdeo Nagar, Aurangabad - BSPCB",23-06-2024 08:00:00,24.75746,84.366208,SO2,6,26,19
India,Bihar,Bhagalpur,"Mayaganj, Bhagalpur - BSPCB",23-06-2024 08:00:00,25.265194,87.012947,PM10,65,267,101
India,Bihar,Bhagalpur,"Mayaganj, Bhagalpur - BSPCB",23-06-2024 08:00:00,25.265194,87.012947,SO2,33,34,33
India,Bihar,Bihar Sharif,"D M Colony, Bihar Sharif - BSPCB",23-06-2024 08:00:00,25.204762,85.514960,PM10,NA,NA,NA
India,Bihar,Bihar Sharif,"D M Colony, Bihar Sharif - BSPCB",23-06-2024 08:00:00,25.204762,85.514960,CO,26,30,28
India,Bihar,Buxar,"Charitra Van, Buxar - BSPCB (Formerly known as Central Jail)",23-06-2024 08:00:00,25.567520,83.966379,PM10,109,193,139
India,Bihar,Buxar,"Charitra Van, Buxar - BSPCB (Formerly known as Central Jail)",23-06-2024 08:00:00,25.567520,83.966379,SO2,2,4,3
India,Bihar,Buxar,"Charitra Van, Buxar - BSPCB (Formerly known as Central Jail)",23-06-2024 08:00:00,25.567520,83.966379,CO,43,68,48
India,Bihar,Buxar,"Charitra Van, Buxar - BSPCB (Formerly known as Central Jail)",23-06-2024 08:00:00,25.567520,83.966379,OZONE,6,83,25
India,Bihar,Chhapra,"Darshan Nagar, Chhapra - BSPCB",23-06-2024 08:00:00,25.7808257,84.7446768,NO2,NA,NA,NA
India,Bihar,Gaya,"Collectorate, Gaya - BSPCB",23-06-2024 08:00:00,24.7955,84.9994,NO2,4,5,4
India,Bihar,Gaya,"Collectorate, Gaya - BSPCB",23-06-2024 08:00:00,24.7955,84.9994,SO2,1,11,6
India,Bihar,Gaya,"Kareemganj, Gaya - BSPCB",23-06-2024 08:00:00,24.792403,84.992416,NO2,29,32,31
India,Bihar,Gaya,"Kareemganj, Gaya - BSPCB",23-06-2024 08:00:00,24.792403,84.992416,CO,29,30,30
India,Bihar,Katihar,"Mirchaibari, Katihar - BSPCB",23-06-2024 08:00:00,25.560083,87.553265,PM10,19,140,58
India,Bihar,Kishanganj,"SDM Office_Khagra, Kishanganj - BSPCB",23-06-2024 08:00:00,26.0881305,87.93840336,NO2,30,58,48
India,Bihar,Kishanganj,"SDM Office_Khagra, Kishanganj - BSPCB",23-06-2024 08:00:00,26.0881305,87.93840336,NH3,6,7,6
India,Bihar,Kishanganj,"SDM Office_Khagra, Kishanganj - BSPCB",23-06-2024 08:00:00,26.0881305,87.93840336,SO2,6,9,8
India,Bihar,Motihari,"Gandak Colony, Motihari - BSPCB",23-06-2024 08:00:00,26.63086,84.90051,OZONE,14,53,32
India,Bihar,Muzaffarpur,"Buddha Colony, Muzaffarpur - BSPCB",23-06-2024 08:00:00,26.11442,85.39813,PM2.5,61,83,74
India,Bihar,Muzaffarpur,"Buddha Colony, Muzaffarpur - BSPCB",23-06-2024 08:00:00,26.11442,85.39813,NH3,3,6,4
India,Bihar,Muzaffarpur,"Buddha Colony, Muzaffarpur - BSPCB",23-06-2024 08:00:00,26.11442,85.39813,SO2,1,5,3
India,Bihar,Muzaffarpur,"Buddha Colony, Muzaffarpur - BSPCB",23-06-2024 08:00:00,26.11442,85.39813,OZONE,38,106,49
India,Bihar,Muzaffarpur,"MIT-Daudpur Kothi, Muzaffarpur - BSPCB",23-06-2024 08:00:00,26.1403345,85.3650192,SO2,7,12,10
India,Bihar,Muzaffarpur,"MIT-Daudpur Kothi, Muzaffarpur - BSPCB",23-06-2024 08:00:00,26.1403345,85.3650192,OZONE,10,42,18
India,Bihar,Muzaffarpur,"Muzaffarpur Collectorate, Muzaffarpur - BSPCB",23-06-2024 08:00:00,26.1209,85.3647,NO2,25,58,37
India,Bihar,Muzaffarpur,"Muzaffarpur Collectorate, Muzaffarpur - BSPCB",23-06-2024 08:00:00,26.1209,85.3647,SO2,5,12,8
India,Bihar,Muzaffarpur,"Muzaffarpur Collectorate, Muzaffarpur - BSPCB",23-06-2024 08:00:00,26.1209,85.3647,CO,27,56,56
India,Bihar,Patna,"DRM Office Danapur, Patna - BSPCB",23-06-2024 08:00:00,25.586562,85.043586,PM2.5,77,148,107
India,Bihar,Patna,"DRM Office Danapur, Patna - BSPCB",23-06-2024 08:00:00,25.586562,85.043586,NH3,2,3,3
India,Bihar,Patna,"DRM Office Danapur, Patna - BSPCB",23-06-2024 08:00:00,25.586562,85.043586,OZONE,15,62,23
India,Bihar,Patna,"Govt. High School Shikarpur, Patna - BSPCB",23-06-2024 08:00:00,25.592539,85.227158,OZONE,1,59,3
India,Bihar,Patna,"IGSC Planetarium Complex, Patna - BSPCB",23-06-2024 08:00:00,25.610369,85.132568,NO2,12,12,12
India,Bihar,Patna,"IGSC Planetarium Complex, Patna - BSPCB",23-06-2024 08:00:00,25.610369,85.132568,CO,14,19,16
India,Bihar,Patna,"Muradpur, Patna - BSPCB",23-06-2024 08:00:00,25.619651,85.147382,SO2,3,20,7
India,Bihar,Patna,"Rajbansi Nagar, Patna - BSPCB",23-06-2024 08:00:00,25.599486,85.113666,NH3,4,6,5
India,Bihar,Patna,"Rajbansi Nagar, Patna - BSPCB",23-06-2024 08:00:00,25.599486,85.113666,SO2,2,12,8
India,Bihar,Purnia,"Mariam Nagar, Purnia - BSPCB",23-06-2024 08:00:00,25.366336,87.117468,NH3,1,1,1
India,Bihar,Rajgir,"Dangi Tola, Rajgir - BSPCB",23-06-2024 08:00:00,25.03280,85.41948,PM10,50,106,76
India,Bihar,Saharsa,"Police Line, Saharsa - BSPCB",23-06-2024 08:00:00,25.892357,86.590325,NH3,9,9,9
India,Bihar,Saharsa,"Police Line, Saharsa - BSPCB",23-06-2024 08:00:00,25.892357,86.590325,CO,53,55,54
India,Bihar,Samastipur,"DM Office_Kasipur, Samastipur - BSPCB",23-06-2024 08:00:00,25.859655,85.77944,PM2.5,5,32,13
India,Bihar,Samastipur,"DM Office_Kasipur, Samastipur - BSPCB",23-06-2024 08:00:00,25.859655,85.77944,NO2,NA,NA,NA
India,Bihar,Samastipur,"DM Office_Kasipur, Samastipur - BSPCB",23-06-2024 08:00:00,25.859655,85.77944,SO2,47,50,48
India,Bihar,Sasaram,"Dada Peer, Sasaram - BSPCB",23-06-2024 08:00:00,24.952822,84.002396,PM10,60,158,111
India,Bihar,Sasaram,"Dada Peer, Sasaram - BSPCB",23-06-2024 08:00:00,24.952822,84.002396,NH3,2,12,8
India,Bihar,Siwan,"Chitragupta Nagar, Siwan - BSPCB",23-06-2024 08:00:00,26.2271665,84.3570427,PM10,NA,NA,NA
India,Bihar,Siwan,"Chitragupta Nagar, Siwan - BSPCB",23-06-2024 08:00:00,26.2271665,84.3570427,SO2,2,33,16
India,Bihar,Siwan,"Chitragupta Nagar, Siwan - BSPCB",23-06-2024 08:00:00,26.2271665,84.3570427,OZONE,12,91,17
India,Chandigarh,Chandigarh,"Sector 22, Chandigarh - CPCC",23-06-2024 08:00:00,30.735567,76.775714,SO2,7,88,24
India,Chandigarh,Chandigarh,"Sector-25, Chandigarh - CPCC",23-06-2024 08:00:00,30.751462,76.762879,PM10,101,162,139
India,Chandigarh,Chandigarh,"Sector-25, Chandigarh - CPCC",23-06-2024 08:00:00,30.751462,76.762879,OZONE,5,53,17
India,Chhattisgarh,Bhilai,"32Bungalows, Bhilai - CECB",23-06-2024 08:00:00,21.194815,81.314770,SO2,9,11,10
India,Chhattisgarh,Bhilai,"32Bungalows, Bhilai - CECB",23-06-2024 08:00:00,21.194815,81.314770,CO,12,14,13
India,Chhattisgarh,Bhilai,"32Bungalows, Bhilai - CECB",23-06-2024 08:00:00,21.194815,81.314770,OZONE,8,14,8
India,Chhattisgarh,Bhilai,"Hathkhoj, Bhilai - CECB",23-06-2024 08:00:00,21.224231,81.408350,PM2.5,9,31,14
India,Chhattisgarh,Korba,"Rampur, Korba - CECB",23-06-2024 08:00:00,22.368195,82.746431,PM10,NA,NA,NA
India,Chhattisgarh,Korba,"Rampur, Korba - CECB",23-06-2024 08:00:00,22.368195,82.746431,NO2,NA,NA,NA
India,Chhattisgarh,Korba,"Rampur, Korba - CECB",23-06-2024 08:00:00,22.368195,82.746431,SO2,NA,NA,NA
India,Chhattisgarh,Korba,"Rampur, Korba - CECB",23-06-2024 08:00:00,22.368195,82.746431,CO,NA,NA,NA
India,Chhattisgarh,Milupara,"Govt. Higher Secondary School, Milupara - CECB",23-06-2024 08:00:00,22.1910172,83.5197009,CO,5,30,20
India,Chhattisgarh,Raipur,"AIIMS, Raipur - CECB",23-06-2024 08:00:00,21.258815,81.578979,CO,16,28,19
India,Chhattisgarh,Raipur,"Bhatagaon New ISBT, Raipur - CECB",23-06-2024 08:00:00,21.219665,81.630094,NO2,NA,NA,NA
India,Chhattisgarh,Raipur,"Bhatagaon New ISBT, Raipur - CECB",23-06-2024 08:00:00,21.219665,81.630094,CO,NA,NA,NA
India,Delhi,Delhi,"Alipur, Delhi - DPCC",23-06-2024 08:00:00,28.815329,77.153010,PM2.5,75,312,167
India,Delhi,Delhi,"Alipur, Delhi - DPCC",23-06-2024 08:00:00,28.815329,77.153010,NO2,26,58,38
India,Delhi,Delhi,"Anand Vihar, Delhi - DPCC",23-06-2024 08:00:00,28.647622,77.3158090,PM2.5,45,339,142
India,Delhi,Delhi,"Anand Vihar, Delhi - DPCC",23-06-2024 08:00:00,28.647622,77.3158090,PM10,67,352,167
India,Delhi,Delhi,"Anand Vihar, Delhi - DPCC",23-06-2024 08:00:00,28.647622,77.3158090,SO2,19,21,20
India,Delhi,Delhi,"Ashok Vihar, Delhi - DPCC",23-06-2024 08:00:00,28.695381,77.181665,NO2,25,88,46
India,Delhi,Delhi,"Ashok Vihar, Delhi - DPCC",23-06-2024 08:00:00,28.695381,77.181665,CO,23,72,34
India,Delhi,Delhi,"Bawana, Delhi - DPCC",23-06-2024 08:00:00,28.776200,77.051074,PM10,124,201,155
India,Delhi,Delhi,"Burari Crossing, Delhi - IMD",23-06-2024 08:00:00,28.7256504,77.2011573,PM10,71,182,130
India,Delhi,Delhi,"Burari Crossing, Delhi - IMD",23-06-2024 08:00:00,28.7256504,77.2011573,NO2,14,18,16
India,Delhi,Delhi,"Burari Crossing, Delhi - IMD",23-06-2024 08:00:00,28.7256504,77.2011573,OZONE,58,264,183
India,Delhi,Delhi,"CRRI Mathura Road, Delhi - IMD",23-06-2024 08:00:00,28.5512005,77.2735737,NO2,7,26,14
India,Delhi,Delhi,"Chandni Chowk, Delhi - IITM",23-06-2024 08:00:00,28.656756,77.227234,SO2,19,62,35
India,Delhi,Delhi,"Chandni Chowk, Delhi - IITM",23-06-2024 08:00:00,28.656756,77.227234,CO,52,86,58
India,Delhi,Delhi,"DTU, Delhi - CPCB",23-06-2024 08:00:00,28.7500499,77.1112615,SO2,40,42,41
India,Delhi,Delhi,"Dr. Karni Singh Shooting Range, Delhi - DPCC",23-06-2024 08:00:00,28.498571,77.264840,PM10,78,252,131
India,Delhi,Delhi,"Dr. Karni Singh Shooting Range, Delhi - DPCC",23-06-2024 08:00:00,28.498571,77.264840,NH3,8,17,12
India,Delhi,Delhi,"IGI Airport (T3), Delhi - IMD",23-06-2024 08:00:00,28.5627763,77.1180053,OZONE,8,66,10
India,Delhi,Delhi,"IHBAS, Dilshad Garden, Delhi - CPCB",23-06-2024 08:00:00,28.6811736,77.3025234,OZONE,17,43,32
India,Delhi,Delhi,"ITO, Delhi - CPCB",23-06-2024 08:00:00,28.628624,77.241060,NO2,15,66,36
India,Delhi,Delhi,"Jahangirpuri, Delhi - DPCC",23-06-2024 08:00:00,28.732820,77.170633,NH3,2,3,3
India,Delhi,Delhi,"Jawaharlal Nehru Stadium, Delhi - DPCC",23-06-2024 08:00:00,28.580280,77.233829,PM2.5,67,325,105
India,Delhi,Delhi,"Jawaharlal Nehru Stadium, Delhi - DPCC",23-06-2024 08:00:00,28.580280,77.233829,NH3,8,15,11
India,Delhi,Delhi,"Jawaharlal Nehru Stadium, Delhi - DPCC",23-06-2024 08:00:00,28.580280,77.233829,CO,40,64,46
India,Delhi,Delhi,"Major Dhyan Chand National Stadium, Delhi - DPCC",23-06-2024 08:00:00,28.611281,77.237738,PM10,111,285,147
India,Delhi,Delhi,"Mandir Marg, Delhi - DPCC",23-06-2024 08:00:00,28.636429,77.201067,PM2.5,62,302,115
India,Delhi,Delhi,"Mandir Marg, Delhi - DPCC",23-06-2024 08:00:00,28.636429,77.201067,PM10,85,168,121
India,Delhi,Delhi,"Mundka, Delhi - DPCC",23-06-2024 08:00:00,28.684678,77.076574,NO2,45,105,72
India,Delhi,Delhi,"Mundka, Delhi - DPCC",23-06-2024 08:00:00,28.684678,77.076574,NH3,11,28,18
India,Delhi,Delhi,"NSIT Dwarka, Delhi - CPCB",23-06-2024 08:00:00,28.60909,77.0325413,PM2.5,61,325,191
India,Delhi,Delhi,"NSIT Dwarka, Delhi - CPCB",23-06-2024 08:00:00,28.60909,77.0325413,NO2,17,30,25
India,Delhi,Delhi,"Najafgarh, Delhi - DPCC",23-06-2024 08:00:00,28.570173,76.933762,OZONE,10,46,19
India,Delhi,Delhi,"Nehru Nagar, Delhi - DPCC",23-06-2024 08:00:00,28.567890,77.250515,PM2.5,52,378,144
India,Delhi,Delhi,"Nehru Nagar, Delhi - DPCC",23-06-2024 08:00:00,28.567890,77.250515,OZONE,7,141,14
India,Delhi,Delhi,"New Moti Bagh, Delhi - MHUA",23-06-2024 08:00:00,28.57834,77.18400,NO2,7,52,14
India,Delhi,Delhi,"New Moti Bagh, Delhi - MHUA",23-06-2024 08:00:00,28.57834,77.18400,CO,41,78,47
India,Delhi,Delhi,"North Campus, DU, Delhi - IMD",23-06-2024 08:00:00,28.6573814,77.1585447,PM2.5,39,309,155
India,Delhi,Delhi,"Okhla Phase-2, Delhi - DPCC",23-06-2024 08:00:00,28.530785,77.271255,PM2.5,63,337,106
India,Delhi,Delhi,"Okhla Phase-2, Delhi - DPCC",23-06-2024 08:00:00,28.530785,77.271255,CO,50,107,74
India,Delhi,Delhi,"Patparganj, Delhi - DPCC",23-06-2024 08:00:00,28.623763,77.287209,NH3,7,10,8
India,Delhi,Delhi,"Patparganj, Delhi - DPCC",23-06-2024 08:00:00,28.623763,77.287209,CO,34,79,41
India,Delhi,Delhi,"Punjabi Bagh, Delhi - DPCC",23-06-2024 08:00:00,28.674045,77.131023,NO2,14,49,32
India,Delhi,Delhi,"Pusa, Delhi - DPCC",23-06-2024 08:00:00,28.639652,77.146275,CO,32,99,44
India,Delhi,Delhi,"Pusa, Delhi - DPCC",23-06-2024 08:00:00,28.639652,77.146275,OZONE,3,19,6
India,Delhi,Delhi,"Rohini, Delhi - DPCC",23-06-2024 08:00:00,28.732528,77.119920,OZONE,5,52,8
India,Delhi,Delhi,"Sonia Vihar, Delhi - DPCC",23-06-2024 08:00:00,28.710508,77.249485,PM2.5,73,332,142
India,Delhi,Delhi,"Wazirpur, Delhi - DPCC",23-06-2024 08:00:00,28.699793,77.165453,NO2,40,102,60
India,Gujarat,Ahmedabad,"Chandkheda, Ahmedabad - IITM",23-06-2024 08:00:00,23.107969,72.574648,PM2.5,50,235,102
India,Gujarat,Ahmedabad,"Gyaspur, Ahmedabad - IITM",23-06-2024 08:00:00,22.977134,72.553024,PM10,87,218,126
India,Gujarat,Ahmedabad,"Gyaspur, Ahmedabad - IITM",23-06-2024 08:00:00,22.977134,72.553024,SO2,16,24,18
India,Gujarat,Ahmedabad,"Maninagar, Ahmedabad - GPCB",23-06-2024 08:00:00,23.002657,72.591912,NO2,18,102,30
India,Gujarat,Ahmedabad,"Raikhad, Ahmedabad - IITM",23-06-2024 08:00:00,23.020509,72.579261,NH3,7,7,7
India,Gujarat,Ahmedabad,"Rakhial, Ahmedabad - IITM",23-06-2024 08:00:00,23.016834,72.625775,PM2.5,37,144,85
India,Gujarat,Ahmedabad,"Sardar Vallabhbhai Patel Stadium, Ahmedabad - IITM",23-06-2024 08:00:00,23.043070,72.562968,SO2,4,17,8
India,Gujarat,Ankleshwar,"GIDC, Ankleshwar - GPCB",23-06-2024 08:00:00,21.613267,73.010555,PM2.5,36,70,55
India,Gujarat,Ankleshwar,"GIDC, Ankleshwar - GPCB",23-06-2024 08:00:00,21.613267,73.010555,NO2,29,55,38
India,Gujarat,Ankleshwar,"GIDC, Ankleshwar - GPCB",23-06-2024 08:00:00,21.613267,73.010555,NH3,3,4,3
India,Gujarat,Ankleshwar,"GIDC, Ankleshwar - GPCB",23-06-2024 08:00:00,21.613267,73.010555,OZONE,24,34,27
India,Gujarat,Gandhinagar,"GIFT City, Gandhinagar - IITM",23-06-2024 08:00:00,23.163798,72.677768,PM10,67,153,109
India,Gujarat,Gandhinagar,"GIFT City, Gandhinagar - IITM",23-06-2024 08:00:00,23.163798,72.677768,NH3,7,8,8
India,Gujarat,Surat,"Science Center, Surat - SMC",23-06-2024 08:00:00,21.170046,72.795405,CO,66,72,68
India,Gujarat,Vapi,"Phase-1 GIDC, Vapi - GPCB",23-06-2024 08:00:00,20.362421,72.918013,NH3,2,2,2
India,Gujarat,Vatva,"Phase-4 GIDC, Vatva - GPCB",23-06-2024 08:00:00,22.969611,72.643500,SO2,NA,NA,NA
India,Haryana,Ambala,"Patti Mehar, Ambala - HSPCB",23-06-2024 08:00:00,30.379589,76.778328,PM2.5,15,90,32
India,Haryana,Ambala,"Patti Mehar, Ambala - HSPCB",23-06-2024 08:00:00,30.379589,76.778328,NO2,8,21,13
India,Haryana,Bahadurgarh,"Arya Nagar, Bahadurgarh - HSPCB",23-06-2024 08:00:00,28.6701,76.9254,NO2,20,26,22
India,Haryana,Bhiwani,"H.B. Colony, Bhiwani - HSPCB",23-06-2024 08:00:00,28.806223,76.141105,OZONE,24,113,37
India,Haryana,Charkhi Dadri,"Mini Secretariat, Charkhi Dadri - HSPCB",23-06-2024 08:00:00,28.593883,76.270653,CO,27,90,67
India,Haryana,Faridabad,"New Industrial Town, Faridabad - HSPCB",23-06-2024 08:00:00,28.39072,77.30059,PM10,NA,NA,NA
India,Haryana,Faridabad,"New Industrial Town, Faridabad - HSPCB",23-06-2024 08:00:00,28.39072,77.30059,NO2,NA,NA,NA
India,Haryana,Faridabad,"New Industrial Town, Faridabad - HSPCB",23-06-2024 08:00:00,28.39072,77.30059,SO2,NA,NA,NA
India,Haryana,Faridabad,"Sector 11, Faridabad - HSPCB",23-06-2024 08:00:00,28.376058,77.315741,NO2,30,33,31
India,Haryana,Faridabad,"Sector 30, Faridabad - HSPCB",23-06-2024 08:00:00,28.4417,77.3217,OZONE,19,27,19
India,Haryana,Gurugram,"NISE Gwal Pahari, Gurugram - IMD",23-06-2024 08:00:00,28.422681,77.148944,CO,23,36,31
India,Haryana,Gurugram,"Sector-51, Gurugram - HSPCB",23-06-2024 08:00:00,28.4227,77.0667,PM10,100,122,106
India,Haryana,Gurugram,"Sector-51, Gurugram - HSPCB",23-06-2024 08:00:00,28.4227,77.0667,NO2,13,29,23
India,Haryana,Gurugram,"Sector-51, Gurugram - HSPCB",23-06-2024 08:00:00,28.4227,77.0667,NH3,6,14,9
India,Haryana,Gurugram,"Sector-51, Gurugram - HSPCB",23-06-2024 08:00:00,28.4227,77.0667,CO,32,60,48
India,Haryana,Gurugram,"Vikas Sadan, Gurugram - HSPCB",23-06-2024 08:00:00,28.4501238,77.0263051,NO2,5,25,14
India,Haryana,Jind,"Police Lines, Jind - HSPCB",23-06-2024 08:00:00,29.307814,76.337619,NO2,NA,NA,NA
India,Haryana,Jind,"Police Lines, Jind - HSPCB",23-06-2024 08:00:00,29.307814,76.337619,OZONE,NA,NA,NA
India,Haryana,Kaithal,"Rishi Nagar, Kaithal - HSPCB",23-06-2024 08:00:00,29.8006,76.4155,PM2.5,50,93,67
India,Haryana,Kurukshetra,"Sector-7, Kurukshetra - HSPCB",23-06-2024 08:00:00,29.966942,76.875879,PM10,NA,NA,NA
India,Haryana,Kurukshetra,"Sector-7, Kurukshetra - HSPCB",23-06-2024 08:00:00,29.966942,76.875879,NO2,10,10,10
India,Haryana,Manesar,"Sector-2 IMT, Manesar - HSPCB",23-06-2024 08:00:00,28.360699,76.936090,OZONE,12,110,21
India,Haryana,Palwal,"Shyam Nagar, Palwal - HSPCB",23-06-2024 08:00:00,28.1485564,77.3320667,NO2,23,24,24
India,Haryana,Palwal,"Shyam Nagar, Palwal - HSPCB",23-06-2024 08:00:00,28.1485564,77.3320667,OZONE,75,241,241
India,Haryana,Panchkula,"Sector-6, Panchkula - HSPCB ",23-06-2024 08:00:00,30.7057778,76.8531805555555,OZONE,36,48,39
India,Haryana,Panipat,"Sector-18, Panipat - HSPCB",23-06-2024 08:00:00,29.432304,76.972765,OZONE,30,30,30
India,Haryana,Rohtak,"MD University, Rohtak - HSPCB",23-06-2024 08:00:00,28.52123,76.37138,NO2,46,62,51
India,Haryana,Sirsa,"F-Block, Sirsa - HSPCB",23-06-2024 08:00:00,29.536400,75.015800,SO2,2,9,6
India,Haryana,Sonipat,"Murthal, Sonipat - HSPCB",23-06-2024 08:00:00,29.027200,77.062100,PM2.5,10,369,87
India,Haryana,Sonipat,"Murthal, Sonipat - HSPCB",23-06-2024 08:00:00,29.027200,77.062100,OZONE,16,36,20
India,Himachal Pradesh,Baddi,"HIMUDA Complex Phase-1, Baddi - HPPCB",23-06-2024 08:00:00,30.943887,76.801991,PM10,111,259,164
India,Karnataka,Bagalkot,"Vidayagiri, Bagalkot - KSPCB",23-06-2024 08:00:00,16.172806,75.659694,PM10,42,42,42
India,Karnataka,Bengaluru,"Bapuji Nagar, Bengaluru - KSPCB",23-06-2024 08:00:00,12.951913,77.539784,PM2.5,13,48,28
India,Karnataka,Bengaluru,"Bapuji Nagar, Bengaluru - KSPCB",23-06-2024 08:00:00,12.951913,77.539784,CO,20,135,22
India,Karnataka,Bengaluru,"Hebbal, Bengaluru - KSPCB",23-06-2024 08:00:00,13.029152,77.585901,PM10,12,94,34
India,Karnataka,Bengaluru,"Hebbal, Bengaluru - KSPCB",23-06-2024 08:00:00,13.029152,77.585901,SO2,NA,NA,NA
India,Karnataka,Bengaluru,"Hombegowda Nagar, Bengaluru - KSPCB",23-06-2024 08:00:00,12.938539,77.590100,PM10,13,40,26
India,Karnataka,Bengaluru,"Jayanagar 5th Block, Bengaluru - KSPCB",23-06-2024 08:00:00,12.920984,77.584908,SO2,13,53,32
India,Karnataka,Bengaluru,"Jayanagar 5th Block, Bengaluru - KSPCB",23-06-2024 08:00:00,12.920984,77.584908,CO,20,26,21
India,Karnataka,Bengaluru,"Jigani, Bengaluru - KSPCB",23-06-2024 08:00:00,12.7816279,77.6299145,CO,28,40,33
India,Karnataka,Bengaluru,"Kasturi Nagar, Bengaluru - KSPCB",23-06-2024 08:00:00,13.003872,77.664217,NH3,3,4,4
India,Karnataka,Bengaluru,"Peenya, Bengaluru - CPCB",23-06-2024 08:00:00,13.0270199,77.494094,PM2.5,34,47,42
India,Karnataka,Bengaluru,"RVCE-Mailasandra, Bengaluru - KSPCB",23-06-2024 08:00:00,12.921418,77.502466,NO2,16,17,17
India,Karnataka,Bengaluru,"RVCE-Mailasandra, Bengaluru - KSPCB",23-06-2024 08:00:00,12.921418,77.502466,SO2,8,12,10
India,Karnataka,Bengaluru,"RVCE-Mailasandra, Bengaluru - KSPCB",23-06-2024 08:00:00,12.921418,77.502466,CO,26,42,35
India,Karnataka,Bengaluru,"Shivapura_Peenya, Bengaluru - KSPCB",23-06-2024 08:00:00,13.0246342,77.5080115,SO2,2,6,3
India,Karnataka,Bengaluru,"Silk Board, Bengaluru - KSPCB",23-06-2024 08:00:00,12.917348,77.622813,PM10,32,128,82
India,Karnataka,Bengaluru,"Silk Board, Bengaluru - KSPCB",23-06-2024 08:00:00,12.917348,77.622813,OZONE,11,21,16
India,Karnataka,Chikkaballapur,"Chikkaballapur Rural, Chikkaballapur - KSPCB",23-06-2024 08:00:00,13.428828,77.731418,SO2,18,22,20
India,Karnataka,Chikkamagaluru,"Kalyana Nagara, Chikkamagaluru - KSPCB",23-06-2024 08:00:00,13.328028,75.797056,PM2.5,7,31,17
India,Karnataka,Chikkamagaluru,"Kalyana Nagara, Chikkamagaluru - KSPCB",23-06-2024 08:00:00,13.328028,75.797056,NO2,18,32,26
India,Karnataka,Davanagere,"Devaraj Urs Badavane, Davanagere - KSPCB",23-06-2024 08:00:00,14.475800,75.905200,PM2.5,4,37,18
India,Karnataka,Gadag,"Panchal Nagar, Gadag - KSPCB",23-06-2024 08:00:00,15.411456,75.638133,PM2.5,8,28,16
India,Karnataka,Gadag,"Panchal Nagar, Gadag - KSPCB",23-06-2024 08:00:00,15.411456,75.638133,NH3,1,3,2
India,Karnataka,Hassan,"B.Katihalli, Hassan - KSPCB",23-06-2024 08:00:00,13.008556,76.125258,SO2,19,22,21
India,Karnataka,Hassan,"B.Katihalli, Hassan - KSPCB",23-06-2024 08:00:00,13.008556,76.125258,CO,7,38,12
India,Karnataka,Hubballi,"Lingaraj Nagar, Hubballi - KSPCB",23-06-2024 08:00:00,15.3714823,75.1160168,PM10,44,64,50
India,Karnataka,Hubballi,"Lingaraj Nagar, Hubballi - KSPCB",23-06-2024 08:00:00,15.3714823,75.1160168,OZONE,8,34,26
India,Karnataka,Kalaburagi,"Mahatma Basaveswar Colony, Kalaburgi - KSPCB",23-06-2024 08:00:00,17.336318,76.847397,PM2.5,7,36,17
India,Karnataka,Kalaburagi,"Mahatma Basaveswar Colony, Kalaburgi - KSPCB",23-06-2024 08:00:00,17.336318,76.847397,CO,28,36,29
India,Karnataka,Karwar,"KHB Colony, Karwar - KSPCB",23-06-2024 08:00:00,14.816666,74.141003,OZONE,21,22,22
India,Karnataka,Kolar,"Tamaka Ind. Area, Kolar - KSPCB",23-06-2024 08:00:00,13.1276288,78.1570122,CO,NA,NA,NA
India,Karnataka,Madikeri,"Stuart Hill, Madikeri - KSPCB",23-06-2024 08:00:00,12.415911,75.735050,NO2,1,4,2
India,Karnataka,Madikeri,"Stuart Hill, Madikeri - KSPCB",23-06-2024 08:00:00,12.415911,75.735050,SO2,4,4,4
India,Karnataka,Mangalore,"Kadri, Mangalore - KSPCB",23-06-2024 08:00:00,12.889250,74.853000,NO2,5,6,6
India,Karnataka,Mysuru,"Hebbal 1st Stage, Mysuru - KSPCB",23-06-2024 08:00:00,12.21041,76.37376,NH3,1,2,2
India,Karnataka,Mysuru,"Hebbal 1st Stage, Mysuru - KSPCB",23-06-2024 08:00:00,12.21041,76.37376,CO,2,31,8
India,Karnataka,Raichur,"Haji Colony, Raichur - KSPCB",23-06-2024 08:00:00,16.208139,77.348417,SO2,61,75,70
India,Karnataka,Ramanagara,"Vijay Nagar, Ramanagara - KSPCB",23-06-2024 08:00:00,12.733409,77.298051,PM10,8,59,26
India,Karnataka,Ramanagara,"Vijay Nagar, Ramanagara - KSPCB",23-06-2024 08:00:00,12.733409,77.298051,CO,5,122,26
India,Karnataka,Shivamogga,"Vinoba Nagara, Shivamogga - KSPCB",23-06-2024 08:00:00,13.940000,75.555917,NH3,1,5,3
India,Karnataka,Tumakuru,"Thimmalapura, Tumakuru - KSPCB",23-06-2024 08:00:00,13.377516,77.099072,PM10,59,184,114
India,Karnataka,Udupi,"Brahmagiri, Udupi - KSPCB",23-06-2024 08:00:00,13.34194444,74.74694444,NH3,1,1,1
India,Karnataka,Yadgir,"Collector Office, Yadgir - KSPCB",23-06-2024 08:00:00,16.7602,77.1428,SO2,NA,NA,NA
India,Karnataka,Yadgir,"Collector Office, Yadgir - KSPCB",23-06-2024 08:00:00,16.7602,77.1428,OZONE,18,21,19
India,Kerala,Eloor,"Udyogamandal, Eloor - Kerala PCB",23-06-2024 08:00:00,10.073232,76.302765,OZONE,10,11,10
India,Kerala,Kannur,"Thavakkara, Kannur - Kerala PCB",23-06-2024 08:00:00,11.875000,75.373200,PM2.5,41,48,45
India,Kerala,Kannur,"Thavakkara, Kannur - Kerala PCB",23-06-2024 08:00:00,11.875000,75.373200,PM10,38,45,42
India,Kerala,Kannur,"Thavakkara, Kannur - Kerala PCB",23-06-2024 08:00:00,11.875000,75.373200,CO,63,74,70
India,Kerala,Kollam,"Polayathode, Kollam - Kerala PCB",23-06-2024 08:00:00,8.8787,76.6073,PM2.5,10,70,44
India,Kerala,Kollam,"Polayathode, Kollam - Kerala PCB",23-06-2024 08:00:00,8.8787,76.6073,NO2,8,9,8
India,Kerala,Kollam,"Polayathode, Kollam - Kerala PCB",23-06-2024 08:00:00,8.8787,76.6073,NH3,1,1,1
India,Kerala,Thiruvananthapuram,"Kariavattom, Thiruvananthapuram - Kerala PCB",23-06-2024 08:00:00,8.563700,76.886500,SO2,1,9,4
India,Kerala,Thiruvananthapuram,"Plammoodu, Thiruvananthapuram - Kerala PCB",23-06-2024 08:00:00,8.5149093,76.9435879,PM10,2,29,12
India,Kerala,Thrissur,"Corporation Ground, Thrissur - Kerala PCB",23-06-2024 08:00:00,10.532400,76.215900,PM2.5,44,51,48
India,Kerala,Thrissur,"Corporation Ground, Thrissur - Kerala PCB",23-06-2024 08:00:00,10.532400,76.215900,PM10,59,69,65
India,Kerala,Thrissur,"Corporation Ground, Thrissur - Kerala PCB",23-06-2024 08:00:00,10.532400,76.215900,NO2,7,8,7
India,Kerala,Thrissur,"Corporation Ground, Thrissur - Kerala PCB",23-06-2024 08:00:00,10.532400,76.215900,OZONE,27,32,30
India,Madhya Pradesh,Bhopal,"Idgah Hills, Bhopal - MPPCB",23-06-2024 08:00:00,23.264759,77.381568,SO2,9,13,11
India,Madhya Pradesh,Bhopal,"T T Nagar, Bhopal - MPPCB",23-06-2024 08:00:00,23.233584,77.400574,OZONE,2,24,6
India,Madhya Pradesh,Dewas,"Bhopal Chauraha, Dewas - MPPCB",23-06-2024 08:00:00,22.9682591,76.064118,NH3,3,3,3
India,Madhya Pradesh,Gwalior,"City Center, Gwalior - MPPCB",23-06-2024 08:00:00,26.203442,78.193251,NO2,7,12,9
India,Madhya Pradesh,Gwalior,"City Center, Gwalior - MPPCB",23-06-2024 08:00:00,26.203442,78.193251,CO,38,53,44
India,Madhya Pradesh,Gwalior,"Deen Dayal Nagar, Gwalior - MPPCB",23-06-2024 08:00:00,26.259242,78.216432,PM10,49,179,89
India,Madhya Pradesh,Gwalior,"Maharaj Bada, Gwalior - MPPCB",23-06-2024 08:00:00,26.200388,78.147714,PM10,46,217,112
India,Madhya Pradesh,Gwalior,"Maharaj Bada, Gwalior - MPPCB",23-06-2024 08:00:00,26.200388,78.147714,SO2,8,14,12
India,Madhya Pradesh,Gwalior,"Maharaj Bada, Gwalior - MPPCB",23-06-2024 08:00:00,26.200388,78.147714,CO,8,46,21
India,Madhya Pradesh,Gwalior,"Maharaj Bada, Gwalior - MPPCB",23-06-2024 08:00:00,26.200388,78.147714,OZONE,32,126,50
India,Madhya Pradesh,Indore,"Chhoti Gwaltoli, Indore - MPPCB",23-06-2024 08:00:00,22.4310,75.5213,PM10,32,119,78
India,Madhya Pradesh,Indore,"Chhoti Gwaltoli, Indore - MPPCB",23-06-2024 08:00:00,22.4310,75.5213,NO2,34,73,53
India,Madhya Pradesh,Indore,"Maguda Nagar, Indore - IMC",23-06-2024 08:00:00,22.7524,75.8872,CO,NA,NA,NA
India,Madhya Pradesh,Indore,"Maguda Nagar, Indore - IMC",23-06-2024 08:00:00,22.7524,75.8872,OZONE,NA,NA,NA
India,Madhya Pradesh,Indore,"Regional Park, Indore - IMC",23-06-2024 08:00:00,22.6780,75.8559,CO,NA,NA,NA
India,Madhya Pradesh,Katni,"Gole Bazar, Katni - MPPCB",23-06-2024 08:00:00,23.50016,80.23284,PM2.5,27,77,49
India,Madhya Pradesh,Katni,"Gole Bazar, Katni - MPPCB",23-06-2024 08:00:00,23.50016,80.23284,SO2,12,42,18
India,Madhya Pradesh,Mandideep,"Sector-D Industrial Area, Mandideep - MPPCB",23-06-2024 08:00:00,23.108440,77.511428,PM2.5,NA,NA,NA
India,Madhya Pradesh,Pithampur,"Sector-2 Industrial Area, Pithampur - MPPCB",23-06-2024 08:00:00,22.624758,75.675238,PM10,45,125,82
India,Madhya Pradesh,Sagar,"Civil Lines, Sagar - MPPCB",23-06-2024 08:00:00,23.838586,78.759431,PM2.5,7,67,35
India,Madhya Pradesh,Sagar,"Deen Dayal Nagar, Sagar - MPPCB",23-06-2024 08:00:00,23.8640158,78.80289321,CO,56,61,60
India,Madhya Pradesh,Satna,"Bandhavgar Colony, Satna - Birla Cement",23-06-2024 08:00:00,24.58434363,80.8549414,NO2,14,33,23
India,Madhya Pradesh,Satna,"Bandhavgar Colony, Satna - Birla Cement",23-06-2024 08:00:00,24.58434363,80.8549414,OZONE,9,34,11
India,Madhya Pradesh,Ujjain,"Mahakaleshwar Temple, Ujjain - MPPCB",23-06-2024 08:00:00,23.182719 ,75.768218 ,NH3,3,5,5
India,Maharashtra,Ahmednagar,"Tarakpur, Ahmednagar - MPCB",23-06-2024 08:00:00,19.10122,74.73339,PM2.5,NA,NA,NA
India,Maharashtra,Ahmednagar,"Tarakpur, Ahmednagar - MPCB",23-06-2024 08:00:00,19.10122,74.73339,NO2,NA,NA,NA
India,Maharashtra,Ahmednagar,"Tarakpur, Ahmednagar - MPCB",23-06-2024 08:00:00,19.10122,74.73339,CO,NA,NA,NA
India,Maharashtra,Akola,"Ramdaspeth, Akola - MPCB",23-06-2024 08:00:00,20.719516,77.000253,PM2.5,29,85,48
India,Maharashtra,Amravati,"Shri Shivaji Science College, Amaravati - MPCB",23-06-2024 08:00:00,20.939198,77.765701,PM10,26,70,46
India,Maharashtra,Amravati,"Shri Shivaji Science College, Amaravati - MPCB",23-06-2024 08:00:00,20.939198,77.765701,SO2,1,2,2
India,Maharashtra,Aurangabad,"MIDC Chilkalthana, Aurangabad - MPCB",23-06-2024 08:00:00,19.875620,75.387310,PM2.5,41,85,65
India,Maharashtra,Aurangabad,"MIDC Chilkalthana, Aurangabad - MPCB",23-06-2024 08:00:00,19.875620,75.387310,NH3,5,6,5
India,Maharashtra,Aurangabad,"More Chowk Waluj, Aurangabad - MPCB",23-06-2024 08:00:00,19.8389439,75.244448,NO2,13,19,16
India,Maharashtra,Aurangabad,"More Chowk Waluj, Aurangabad - MPCB",23-06-2024 08:00:00,19.8389439,75.244448,CO,8,60,25
India,Maharashtra,Badlapur,"Katrap, Badlapur - MPCB",23-06-2024 08:00:00,19.16485,73.23409,PM10,NA,NA,NA
India,Maharashtra,Belapur,"CBD Belapur, Belapur - MPCB",23-06-2024 08:00:00,19.0243902,73.0406721,NH3,1,1,1
India,Maharashtra,Belapur,"CBD Belapur, Belapur - MPCB",23-06-2024 08:00:00,19.0243902,73.0406721,CO,14,36,20
India,Maharashtra,Bhiwandi,"Gokul Nagar, Bhiwandi - MPCB",23-06-2024 08:00:00,19.309073,73.057223,CO,22,104,75
India,Maharashtra,Bhiwandi,"Gokul Nagar, Bhiwandi - MPCB",23-06-2024 08:00:00,19.309073,73.057223,OZONE,18,64,29
India,Maharashtra,Chandrapur,"Chauhan Colony, Chandrapur - MPCB",23-06-2024 08:00:00,19.962900,79.298714,CO,26,31,28
India,Maharashtra,Chandrapur,"MIDC Khutala, Chandrapur - MPCB",23-06-2024 08:00:00,19.9775302,79.2337086,PM10,11,88,47
India,Maharashtra,Chandrapur,"MIDC Khutala, Chandrapur - MPCB",23-06-2024 08:00:00,19.9775302,79.2337086,NH3,7,16,11
India,Maharashtra,Jalgaon,"Prabhat Colony, Jalgaon - MPCB",23-06-2024 08:00:00,21.001264,75.565602,CO,8,28,10
India,Maharashtra,Jalna,"Old MIDC, Jalna - MPCB",23-06-2024 08:00:00,19.854616,75.905894,PM2.5,75,176,97
India,Maharashtra,Jalna,"Old MIDC, Jalna - MPCB",23-06-2024 08:00:00,19.854616,75.905894,OZONE,15,25,16
India,Maharashtra,Kalyan,"Khadakpada, Kalyan - MPCB",23-06-2024 08:00:00,19.25292,73.142019,NO2,23,47,33
India,Maharashtra,Kalyan,"Khadakpada, Kalyan - MPCB",23-06-2024 08:00:00,19.25292,73.142019,CO,13,27,23
India,Maharashtra,Kolhapur,"Sinchan Bhavan, Kolhapur - MPCB",23-06-2024 08:00:00,16.7143745,74.2426398,PM10,22,83,51
India,Maharashtra,Kolhapur,"Sinchan Bhavan, Kolhapur - MPCB",23-06-2024 08:00:00,16.7143745,74.2426398,OZONE,17,62,25
India,Maharashtra,Latur,"Sawe Wadi, Latur - MPCB",23-06-2024 08:00:00,18.39963,76.57452,PM10,46,97,66
India,Maharashtra,Latur,"Sawe Wadi, Latur - MPCB",23-06-2024 08:00:00,18.39963,76.57452,SO2,1,6,4
India,Maharashtra,Mahad,"Kamble Tarf Birwadi, Mahad - MPCB",23-06-2024 08:00:00,18.1023399,73.4783687,PM2.5,15,54,38
India,Maharashtra,Malegaon,"Mahesh Nagar, Malegaon - MPCB",23-06-2024 08:00:00,20.555712,74.529236,PM2.5,34,82,61
India,Maharashtra,Mira-Bhayandar,"Bhayandar West, Mira-Bhayandar - MPCB",23-06-2024 08:00:00,19.296481,72.840923,PM2.5,20,56,38
India,Maharashtra,Mumbai,"Bandra Kurla Complex, Mumbai - MPCB",23-06-2024 08:00:00,19.065931,72.862131,PM2.5,69,104,87
India,Maharashtra,Mumbai,"Bandra Kurla Complex, Mumbai - MPCB",23-06-2024 08:00:00,19.065931,72.862131,PM10,50,107,80
India,Maharashtra,Mumbai,"Bandra Kurla Complex, Mumbai - MPCB",23-06-2024 08:00:00,19.065931,72.862131,NO2,11,93,27
India,Maharashtra,Mumbai,"Byculla, Mumbai - BMC",23-06-2024 08:00:00,18.9767,72.8380,PM10,16,58,37
India,Maharashtra,Mumbai,"Chakala-Andheri East, Mumbai - IITM",23-06-2024 08:00:00,19.11074,72.86084,PM10,45,120,82
India,Maharashtra,Mumbai,"Chembur, Mumbai - MPCB",23-06-2024 08:00:00,19.0364585,72.8954371,PM10,30,63,47
India,Maharashtra,Mumbai,"Chembur, Mumbai - MPCB",23-06-2024 08:00:00,19.0364585,72.8954371,NH3,3,5,4
India,Maharashtra,Mumbai,"Chhatrapati Shivaji Intl. Airport (T2), Mumbai - MPCB",23-06-2024 08:00:00,19.10078,72.87462,NO2,NA,NA,NA
India,Maharashtra,Mumbai,"Colaba, Mumbai - MPCB",23-06-2024 08:00:00,18.910000,72.820000,PM10,38,162,90
India,Maharashtra,Mumbai,"Deonar, Mumbai - IITM",23-06-2024 08:00:00,19.04946,72.9230,OZONE,2,33,3
India,Maharashtra,Mumbai,"Ghatkopar, Mumbai - BMC",23-06-2024 08:00:00,19.083694,72.920967,PM10,12,45,33
India,Maharashtra,Mumbai,"Kandivali East, Mumbai - MPCB",23-06-2024 08:00:00,19.205800,72.868200,CO,36,41,39
India,Maharashtra,Mumbai,"Kandivali West, Mumbai - BMC",23-06-2024 08:00:00,19.215859,72.831718,PM2.5,5,58,32
India,Maharashtra,Mumbai,"Kandivali West, Mumbai - BMC",23-06-2024 08:00:00,19.215859,72.831718,NO2,10,48,30
India,Maharashtra,Mumbai,"Kherwadi_Bandra East, Mumbai - MPCB",23-06-2024 08:00:00,19.0632143,72.8456324,NO2,9,34,18
India,Maharashtra,Mumbai,"Kherwadi_Bandra East, Mumbai - MPCB",23-06-2024 08:00:00,19.0632143,72.8456324,SO2,1,2,2
India,Maharashtra,Mumbai,"Khindipada-Bhandup West, Mumbai - IITM",23-06-2024 08:00:00,19.1653323,72.922099,PM2.5,6,27,18
India,Maharashtra,Mumbai,"Khindipada-Bhandup West, Mumbai - IITM",23-06-2024 08:00:00,19.1653323,72.922099,NO2,1,8,4
India,Maharashtra,Mumbai,"Malad West, Mumbai - IITM",23-06-2024 08:00:00,19.19709,72.82204,PM2.5,6,64,30
India,Maharashtra,Mumbai,"Malad West, Mumbai - IITM",23-06-2024 08:00:00,19.19709,72.82204,CO,2,2,2
India,Maharashtra,Mumbai,"Mazgaon, Mumbai - IITM",23-06-2024 08:00:00,18.96702,72.84214,OZONE,3,28,5
India,Maharashtra,Mumbai,"Mindspace-Malad West, Mumbai - MPCB",23-06-2024 08:00:00,19.1878657,72.8304069,PM10,33,67,50
India,Maharashtra,Mumbai,"Mulund West, Mumbai - MPCB",23-06-2024 08:00:00,19.1750,72.9419,PM2.5,14,40,25
India,Maharashtra,Mumbai,"Mulund West, Mumbai - MPCB",23-06-2024 08:00:00,19.1750,72.9419,PM10,19,74,47
India,Maharashtra,Mumbai,"Navy Nagar-Colaba, Mumbai - IITM",23-06-2024 08:00:00,18.897756,72.813320,NO2,32,77,43
India,Maharashtra,Mumbai,"Powai, Mumbai - MPCB",23-06-2024 08:00:00,19.137500,72.915056,PM2.5,NA,NA,NA
India,Maharashtra,Mumbai,"Powai, Mumbai - MPCB",23-06-2024 08:00:00,19.137500,72.915056,NO2,1,18,11
India,Maharashtra,Mumbai,"Sewri, Mumbai - BMC",23-06-2024 08:00:00,19.000084,72.856730,NO2,34,36,35
India,Maharashtra,Mumbai,"Sewri, Mumbai - BMC",23-06-2024 08:00:00,19.000084,72.856730,CO,12,73,44
India,Maharashtra,Mumbai,"Sewri, Mumbai - BMC",23-06-2024 08:00:00,19.000084,72.856730,OZONE,5,32,9
India,Maharashtra,Mumbai,"Siddharth Nagar-Worli, Mumbai - IITM",23-06-2024 08:00:00,19.000083,72.813993,PM10,37,77,56
India,Maharashtra,Mumbai,"Siddharth Nagar-Worli, Mumbai - IITM",23-06-2024 08:00:00,19.000083,72.813993,NO2,21,106,49
India,Maharashtra,Mumbai,"Sion, Mumbai - MPCB",23-06-2024 08:00:00,19.047000,72.874600,CO,50,72,64
India,Maharashtra,Mumbai,"Vile Parle West, Mumbai - MPCB",23-06-2024 08:00:00,19.10861,72.83622,NO2,2,11,6
India,Maharashtra,Nagpur,"Ambazari, Nagpur - MPCB",23-06-2024 08:00:00,21.121801,79.04952,NH3,2,5,2
India,Maharashtra,Nagpur,"Ambazari, Nagpur - MPCB",23-06-2024 08:00:00,21.121801,79.04952,CO,13,50,24
India,Maharashtra,Nagpur,"Mahal, Nagpur - MPCB",23-06-2024 08:00:00,21.14472,79.107595,NO2,10,37,20
India,Maharashtra,Nagpur,"Opp GPO Civil Lines, Nagpur - MPCB",23-06-2024 08:00:00,21.152875,79.0517531,NH3,3,4,3
India,Maharashtra,Nanded,"Sneh Nagar, Nanded - MPCB",23-06-2024 08:00:00,19.173852,77.296291,PM10,24,75,53
India,Maharashtra,Nashik,"Gangapur Road, Nashik - MPCB",23-06-2024 08:00:00,20.0073285,73.7762427,PM10,23,109,67
India,Maharashtra,Nashik,"Gangapur Road, Nashik - MPCB",23-06-2024 08:00:00,20.0073285,73.7762427,NO2,6,13,9
India,Maharashtra,Nashik,"Hirawadi, Nashik - MPCB",23-06-2024 08:00:00,20.021503,73.813844,NO2,3,15,6
India,Maharashtra,Nashik,"Hirawadi, Nashik - MPCB",23-06-2024 08:00:00,20.021503,73.813844,NH3,2,6,4
India,Maharashtra,Nashik,"Hirawadi, Nashik - MPCB",23-06-2024 08:00:00,20.021503,73.813844,CO,4,43,9
India,Maharashtra,Nashik,"Hirawadi, Nashik - MPCB",23-06-2024 08:00:00,20.021503,73.813844,OZONE,22,58,26
India,Maharashtra,Nashik,"MIDC Ambad, Nashik - MPCB",23-06-2024 08:00:00,19.950220,73.731480,PM10,NA,NA,NA
India,Maharashtra,Nashik,"MIDC Ambad, Nashik - MPCB",23-06-2024 08:00:00,19.950220,73.731480,NH3,NA,NA,NA
India,Maharashtra,Nashik,"Pandav Nagari, Nashik - MPCB",23-06-2024 08:00:00,19.9591346,73.7788008,NH3,2,8,4
India,Maharashtra,Nashik,"Pandav Nagari, Nashik - MPCB",23-06-2024 08:00:00,19.9591346,73.7788008,OZONE,19,48,22
India,Maharashtra,Navi Mumbai,"Kopripada-Vashi, Navi Mumbai - MPCB",23-06-2024 08:00:00,19.090337,73.014232,NH3,5,18,10
India,Maharashtra,Navi Mumbai,"Mahape, Navi Mumbai - MPCB",23-06-2024 08:00:00,19.1135051,73.008978,NO2,41,44,43
India,Maharashtra,Navi Mumbai,"Mahape, Navi Mumbai - MPCB",23-06-2024 08:00:00,19.1135051,73.008978,CO,14,40,38
India,Maharashtra,Navi Mumbai,"Mahape, Navi Mumbai - MPCB",23-06-2024 08:00:00,19.1135051,73.008978,OZONE,22,58,37
India,Maharashtra,Navi Mumbai,"Nerul, Navi Mumbai - MPCB",23-06-2024 08:00:00,19.008751,73.016620,PM2.5,16,67,40
India,Maharashtra,Navi Mumbai,"Nerul, Navi Mumbai - MPCB",23-06-2024 08:00:00,19.008751,73.016620,NO2,29,48,40
India,Maharashtra,Navi Mumbai,"Nerul, Navi Mumbai - MPCB",23-06-2024 08:00:00,19.008751,73.016620,CO,20,33,32
India,Maharashtra,Navi Mumbai,"Sanpada, Navi Mumbai - MPCB",23-06-2024 08:00:00,19.0575752,73.0151367,OZONE,3,62,5
India,Maharashtra,Navi Mumbai,"Sector-19A Nerul, Navi Mumbai - IITM",23-06-2024 08:00:00,19.044,73.0325,NH3,2,3,2
India,Maharashtra,Navi Mumbai,"Tondare-Taloja, Navi Mumbai - MPCB",23-06-2024 08:00:00,19.0630,73.1209,NO2,4,50,14
India,Maharashtra,Navi Mumbai,"Tondare-Taloja, Navi Mumbai - MPCB",23-06-2024 08:00:00,19.0630,73.1209,OZONE,10,94,40
India,Maharashtra,Pimpri-Chinchwad,"Gavalinagar, Pimpri Chinchwad - MPCB",23-06-2024 08:00:00,18.63673,73.82487,PM10,28,54,43
India,Maharashtra,Pimpri-Chinchwad,"Gavalinagar, Pimpri Chinchwad - MPCB",23-06-2024 08:00:00,18.63673,73.82487,NH3,4,4,4
India,Maharashtra,Pimpri-Chinchwad,"Park Street Wakad, Pimpri Chinchwad - MPCB",23-06-2024 08:00:00,18.59051,73.77946,PM10,48,149,102
India,Maharashtra,Pune,"Hadapsar, Pune - IITM",23-06-2024 08:00:00,18.501793,73.927532,CO,40,106,47
India,Maharashtra,Pune,"Karve Road, Pune - MPCB",23-06-2024 08:00:00,18.5011743,73.8165527,PM2.5,1,62,32
India,Maharashtra,Pune,"Karve Road, Pune - MPCB",23-06-2024 08:00:00,18.5011743,73.8165527,CO,2,53,21
India,Maharashtra,Pune,"Karve Road, Pune - MPCB",23-06-2024 08:00:00,18.5011743,73.8165527,OZONE,1,57,22
India,Maharashtra,Pune,"Mhada Colony, Pune - IITM",23-06-2024 08:00:00,18.573040,73.927715,PM2.5,NA,NA,NA
India,Maharashtra,Pune,"Revenue Colony-Shivajinagar, Pune - IITM",23-06-2024 08:00:00,18.530085,73.849598,PM10,25,77,52
India,Maharashtra,Pune,"Revenue Colony-Shivajinagar, Pune - IITM",23-06-2024 08:00:00,18.530085,73.849598,SO2,8,14,10
India,Maharashtra,Pune,"Revenue Colony-Shivajinagar, Pune - IITM",23-06-2024 08:00:00,18.530085,73.849598,CO,16,40,21
India,Maharashtra,Pune,"Revenue Colony-Shivajinagar, Pune - IITM",23-06-2024 08:00:00,18.530085,73.849598,OZONE,8,49,14
India,Maharashtra,Pune,"Savitribai Phule Pune University, Pune - MPCB",23-06-2024 08:00:00,18.547056,73.826908,OZONE,3,70,10
India,Maharashtra,Pune,"Transport Nagar-Nigdi, Pune - IITM",23-06-2024 08:00:00,18.664282,73.763966,CO,10,57,45
India,Maharashtra,Sangli,"Vijay Nagar, Sangli - MPCB",23-06-2024 08:00:00, 16.5038,74.3623,SO2,10,16,13
India,Maharashtra,Solapur,"Dnyaneshwar Nagar, Solapur - MPCB",23-06-2024 08:00:00,17.6336264,75.9132495,OZONE,14,52,22
India,Maharashtra,Solapur,"Ratandeep Housing Society, Solapur - MPCB",23-06-2024 08:00:00,17.65439,75.90649,PM10,40,67,53
India,Maharashtra,Solapur,"Ratandeep Housing Society, Solapur - MPCB",23-06-2024 08:00:00,17.65439,75.90649,NH3,7,12,9
India,Maharashtra,Solapur,"Solapur, Solapur - MPCB",23-06-2024 08:00:00,17.6599188,75.9063906,PM2.5,33,65,40
India,Maharashtra,Solapur,"Solapur, Solapur - MPCB",23-06-2024 08:00:00,17.6599188,75.9063906,SO2,6,35,20
India,Maharashtra,Thane,"Kasarvadavali, Thane - MPCB",23-06-2024 08:00:00,19.26777,72.97182,SO2,4,7,5
India,Maharashtra,Thane,"Kasarvadavali, Thane - MPCB",23-06-2024 08:00:00,19.26777,72.97182,CO,8,22,9
India,Maharashtra,Thane,"Pimpleshwar Mandir, Thane - MPCB",23-06-2024 08:00:00,19.192056,72.9585188,CO,NA,NA,NA
India,Maharashtra,Thane,"Pimpleshwar Mandir, Thane - MPCB",23-06-2024 08:00:00,19.192056,72.9585188,OZONE,NA,NA,NA
India,Maharashtra,Thane,"Upvan Fort, Thane - MPCB",23-06-2024 08:00:00,19.222279,72.957979,CO,8,56,41
India,Maharashtra,Ulhasnagar,"Sidhi Vinayak Nagar, Ulhasnagar - MPCB",23-06-2024 08:00:00,19.235581,73.159121,NH3,1,3,2
India,Maharashtra,Virar,"Bolinj, Virar - MPCB",23-06-2024 08:00:00,19.4458210,72.7988231,CO,5,72,29
India,Manipur,Imphal,"Manipur University, Imphal - Manipur PCB",23-06-2024 08:00:00,24.7524239,93.9286218,PM2.5,1,83,28
India,Meghalaya,Shillong,"Lumpyngngad, Shillong - Meghalaya PCB",23-06-2024 08:00:00,25.5586,91.8985,CO,6,16,7
India,Nagaland,Kohima,"PWD Juction, Kohima - NPCB",23-06-2024 08:00:00,25.6635413,94.0989878,PM2.5,28,108,61
India,Odisha,Balasore,"Kalidaspur, Balasore - OSPCB",23-06-2024 08:00:00,21.51161,86.89088,NH3,NA,NA,NA
India,Odisha,Balasore,"Kalidaspur, Balasore - OSPCB",23-06-2024 08:00:00,21.51161,86.89088,SO2,14,21,15
India,Odisha,Barbil,"Forest Office, Barbil - OSPCB",23-06-2024 08:00:00,22.1166054,85.3945546,PM2.5,15,72,33
India,Odisha,Barbil,"Forest Office, Barbil - OSPCB",23-06-2024 08:00:00,22.1166054,85.3945546,NH3,2,3,3
India,Odisha,Barbil,"Forest Office, Barbil - OSPCB",23-06-2024 08:00:00,22.1166054,85.3945546,CO,23,44,37
India,Odisha,Baripada,"Meher Colony, Baripada - OSPCB",23-06-2024 08:00:00,21.941841,86.728318,NO2,5,22,8
India,Odisha,Baripada,"Meher Colony, Baripada - OSPCB",23-06-2024 08:00:00,21.941841,86.728318,CO,5,32,9
India,Odisha,Bhubaneswar,"Lingraj Mandir, Bhubaneswar - OSPCB",23-06-2024 08:00:00,20.240790,85.836784,NH3,NA,NA,NA
India,Odisha,Bhubaneswar,"Patia, Bhubaneswar - OSPCB",23-06-2024 08:00:00,20.34652,85.81630,PM10,10,452,72
India,Odisha,Byasanagar,"Ferro Chrome Colony, Byasanagar - OSPCB",23-06-2024 08:00:00,20.94185,86.11510,OZONE,7,81,38
India,Odisha,Keonjhar,"Jagamohanpur, Keonjhar - OSPCB",23-06-2024 08:00:00,21.643900,85.599355,PM10,NA,NA,NA
India,Odisha,Nayagarh,"Dabuna, Nayagarh - OSPCB",23-06-2024 08:00:00,21.847279,85.416905,CO,9,10,10
India,Odisha,Rairangpur,"Divisional Forest Office, Rairangpur - OSPCB",23-06-2024 08:00:00,22.265816,86.174829,OZONE,3,24,6
India,Odisha,Rourkela,"Fertilizer Township, Rourkela - OSPCB",23-06-2024 08:00:00,22.18972222,84.86277778,CO,16,24,21
India,Odisha,Rourkela,"Raghunathpali, Rourkela - OSPCB",23-06-2024 08:00:00,22.220833,84.809444,PM10,38,103,58
India,Odisha,Rourkela,"Raghunathpali, Rourkela - OSPCB",23-06-2024 08:00:00,22.220833,84.809444,CO,22,56,34
India,Odisha,Rourkela,"Sector-2, Rourkela - OSPCB",23-06-2024 08:00:00,22.24500000,84.88111111,PM10,NA,NA,NA
India,Odisha,Talcher,"Talcher Coalfields,Talcher - OSPCB",23-06-2024 08:00:00,20.9360711,85.1707021,SO2,20,26,23
India,Odisha,Tensa,"Barsua Iron Ore Mines, Tensa - OSPCB",23-06-2024 08:00:00,21.869985,85.167016,PM2.5,30,45,37
India,Puducherry,Puducherry,"Jawahar Nagar, Puducherry - PPCC",23-06-2024 08:00:00,11.9309,79.8027,OZONE,24,86,30
India,Punjab,Amritsar,"Golden Temple, Amritsar - PPCB",23-06-2024 08:00:00,31.620000,74.876512,NH3,4,27,7
India,Punjab,Bathinda,"Hardev Nagar, Bathinda - PPCB",23-06-2024 08:00:00,30.233011,74.907758,CO,6,125,53
India,Punjab,Jalandhar,"Civil Line, Jalandhar - PPCB",23-06-2024 08:00:00,31.321907,75.578914,OZONE,3,77,53
India,Punjab,Khanna,"Kalal Majra, Khanna - PPCB",23-06-2024 08:00:00,30.736056 ,76.209694,PM2.5,49,192,110
India,Punjab,Khanna,"Kalal Majra, Khanna - PPCB",23-06-2024 08:00:00,30.736056 ,76.209694,NO2,29,32,31
India,Punjab,Khanna,"Kalal Majra, Khanna - PPCB",23-06-2024 08:00:00,30.736056 ,76.209694,OZONE,31,64,33
India,Punjab,Patiala,"Model Town, Patiala - PPCB",23-06-2024 08:00:00,30.349388,76.366642,PM2.5,59,120,81
India,Punjab,Patiala,"Model Town, Patiala - PPCB",23-06-2024 08:00:00,30.349388,76.366642,PM10,69,124,97
India,Punjab,Patiala,"Model Town, Patiala - PPCB",23-06-2024 08:00:00,30.349388,76.366642,NH3,4,5,5
India,Rajasthan,Ajmer,"Civil Lines,  Ajmer - RSPCB",23-06-2024 08:00:00,26.470859,74.646594,OZONE,140,260,206
India,Rajasthan,Alwar,"Moti Doongri, Alwar - RSPCB",23-06-2024 08:00:00,27.554793,76.611536,NO2,NA,NA,NA
India,Rajasthan,Alwar,"Moti Doongri, Alwar - RSPCB",23-06-2024 08:00:00,27.554793,76.611536,NH3,NA,NA,NA
India,Rajasthan,Banswara,"Rati Talai, Banswara - RSPCB",23-06-2024 08:00:00,23.555190,74.440010,NO2,8,28,14
India,Rajasthan,Baran,"Bamboliya, Baran - RSPCB",23-06-2024 08:00:00,25.106006,76.469948,OZONE,3,82,40
India,Rajasthan,Barmer,"Railway Colony, Barmer - RSPCB",23-06-2024 08:00:00,25.747299,71.393989,NO2,7,24,12
India,Rajasthan,Bharatpur,"Krishna Nagar, Bharatpur - RSPCB",23-06-2024 08:00:00,27.215415,77.50873,CO,12,126,94
India,Rajasthan,Bharatpur,"Krishna Nagar, Bharatpur - RSPCB",23-06-2024 08:00:00,27.215415,77.50873,OZONE,7,107,24
India,Rajasthan,Bhilwara,"Pratap Nagar, Bhilwara - RSPCB",23-06-2024 08:00:00,25.339605,74.618883,PM2.5,NA,NA,NA
India,Rajasthan,Bhilwara,"Pratap Nagar, Bhilwara - RSPCB",23-06-2024 08:00:00,25.339605,74.618883,OZONE,NA,NA,NA
India,Rajasthan,Bhiwadi,"RIICO Ind. Area III, Bhiwadi - RSPCB",23-06-2024 08:00:00,28.194909,76.862296,NO2,57,96,79
India,Rajasthan,Bhiwadi,"RIICO Ind. Area III, Bhiwadi - RSPCB",23-06-2024 08:00:00,28.194909,76.862296,NH3,2,20,9
India,Rajasthan,Bhiwadi,"RIICO Ind. Area III, Bhiwadi - RSPCB",23-06-2024 08:00:00,28.194909,76.862296,OZONE,10,89,18
India,Rajasthan,Bhiwadi,"Vasundhara Nagar_UIT, Bhiwadi - RSPCB",23-06-2024 08:00:00,28.207266,76.829265,CO,22,44,40
India,Rajasthan,Bikaner,"MM Ground, Bikaner - RSPCB",23-06-2024 08:00:00,28.018792,73.292658,PM10,90,340,164
India,Rajasthan,Bikaner,"MM Ground, Bikaner - RSPCB",23-06-2024 08:00:00,28.018792,73.292658,NH3,9,14,11
India,Rajasthan,Bikaner,"MM Ground, Bikaner - RSPCB",23-06-2024 08:00:00,28.018792,73.292658,CO,12,111,26
India,Rajasthan,Bundi,"New Colony, Bundi - RSPCB",23-06-2024 08:00:00,25.435774,75.644272,PM2.5,18,31,24
India,Rajasthan,Bundi,"New Colony, Bundi - RSPCB",23-06-2024 08:00:00,25.435774,75.644272,NO2,12,69,26
India,Rajasthan,Chittorgarh,"Shastri Nagar, Chittorgarh - RSPCB",23-06-2024 08:00:00,24.892047,74.623527,CO,NA,NA,NA
India,Rajasthan,Churu,"Subash Chowk, Churu - RSPCB",23-06-2024 08:00:00,28.296139,74.961696,PM10,70,118,92
India,Rajasthan,Dausa,"Khatikan Mohalla, Dausa - RSPCB",23-06-2024 08:00:00,26.895552,76.334753,PM10,95,159,121
India,Rajasthan,Dholpur,"Raja Ganj, Dholpur - RSPCB",23-06-2024 08:00:00,26.699557,77.898881,PM2.5,42,95,65
India,Rajasthan,Dungarpur,"Bhoiwada, Dungarpur - RSPCB",23-06-2024 08:00:00,23.837789,73.714926,NO2,6,27,15
India,Rajasthan,Dungarpur,"Bhoiwada, Dungarpur - RSPCB",23-06-2024 08:00:00,23.837789,73.714926,SO2,8,12,11
India,Rajasthan,Dungarpur,"Bhoiwada, Dungarpur - RSPCB",23-06-2024 08:00:00,23.837789,73.714926,CO,2,49,8
India,Rajasthan,Dungarpur,"Bhoiwada, Dungarpur - RSPCB",23-06-2024 08:00:00,23.837789,73.714926,OZONE,32,80,49
India,Rajasthan,Hanumangarh,"Housing Board, Hanumangarh - RSPCB",23-06-2024 08:00:00,29.610750,74.283608,SO2,1,10,5
India,Rajasthan,Jaipur,"Adarsh Nagar, Jaipur - RSPCB",23-06-2024 08:00:00,26.902909,75.836858,PM10,48,119,80
India,Rajasthan,Jaipur,"Adarsh Nagar, Jaipur - RSPCB",23-06-2024 08:00:00,26.902909,75.836858,SO2,3,75,23
India,Rajasthan,Jaipur,"Police Commissionerate, Jaipur - RSPCB",23-06-2024 08:00:00,26.9164092,75.7994901,PM10,69,145,116
India,Rajasthan,Jaipur,"Police Commissionerate, Jaipur - RSPCB",23-06-2024 08:00:00,26.9164092,75.7994901,CO,25,103,45
India,Rajasthan,Jaipur,"Police Commissionerate, Jaipur - RSPCB",23-06-2024 08:00:00,26.9164092,75.7994901,OZONE,61,215,69
India,Rajasthan,Jaipur,"RIICO Sitapura, Jaipur - RSPCB",23-06-2024 08:00:00,26.786682,75.827928,PM2.5,34,83,57
India,Rajasthan,Jaipur,"RIICO Sitapura, Jaipur - RSPCB",23-06-2024 08:00:00,26.786682,75.827928,NH3,1,9,3
India,Rajasthan,Jaipur,"RIICO Sitapura, Jaipur - RSPCB",23-06-2024 08:00:00,26.786682,75.827928,CO,12,88,36
India,Rajasthan,Jaipur,"Sector-2 Murlipura, Jaipur - RSPCB",23-06-2024 08:00:00,26.960669,75.771817,PM2.5,21,79,41
India,Rajasthan,Jaipur,"Sector-2 Murlipura, Jaipur - RSPCB",23-06-2024 08:00:00,26.960669,75.771817,CO,96,112,107
India,Rajasthan,Jaisalmer,"Sadar Bazar, Jaisalmer - RSPCB",23-06-2024 08:00:00,26.912329,70.909168,NH3,4,9,5
India,Rajasthan,Jaisalmer,"Sadar Bazar, Jaisalmer - RSPCB",23-06-2024 08:00:00,26.912329,70.909168,SO2,3,4,4
India,Rajasthan,Jalore,"Mudtra Sili, Jalore - RSPCB",23-06-2024 08:00:00,25.344694,72.626208,OZONE,1,98,14
India,Rajasthan,Jhunjhunu,"Indra Nagar, Jhunjhunu - RSPCB",23-06-2024 08:00:00,28.108988,75.386577,NO2,24,76,35
India,Rajasthan,Jhunjhunu,"Indra Nagar, Jhunjhunu - RSPCB",23-06-2024 08:00:00,28.108988,75.386577,SO2,2,4,3
India,Rajasthan,Jhunjhunu,"Indra Nagar, Jhunjhunu - RSPCB",23-06-2024 08:00:00,28.108988,75.386577,CO,13,40,30
India,Rajasthan,Jodhpur,"Collectorate, Jodhpur - RSPCB",23-06-2024 08:00:00,26.268249,73.0193853,PM2.5,37,208,78
India,Rajasthan,Jodhpur,"Digari Kalan, Jodhpur - RSPCB",23-06-2024 08:00:00,26.295810,73.082283,PM2.5,28,69,48
India,Rajasthan,Jodhpur,"Digari Kalan, Jodhpur - RSPCB",23-06-2024 08:00:00,26.295810,73.082283,NH3,2,4,2
India,Rajasthan,Jodhpur,"Jhalamand, Jodhpur - RSPCB",23-06-2024 08:00:00,26.215415,73.070156,PM2.5,28,71,42
India,Rajasthan,Jodhpur,"Jhalamand, Jodhpur - RSPCB",23-06-2024 08:00:00,26.215415,73.070156,NH3,2,4,3
India,Rajasthan,Jodhpur,"Jhalamand, Jodhpur - RSPCB",23-06-2024 08:00:00,26.215415,73.070156,SO2,3,6,4
India,Rajasthan,Jodhpur,"Mandor, Jodhpur - RSPCB",23-06-2024 08:00:00,26.358805,73.047444,NO2,21,36,27
India,Rajasthan,Jodhpur,"Mandor, Jodhpur - RSPCB",23-06-2024 08:00:00,26.358805,73.047444,CO,24,32,31
India,Rajasthan,Kota,"Dhanmandi, Kota - RSPCB",23-06-2024 08:00:00,25.164090,75.858137,PM2.5,54,253,88
India,Rajasthan,Kota,"Dhanmandi, Kota - RSPCB",23-06-2024 08:00:00,25.164090,75.858137,OZONE,6,122,19
India,Rajasthan,Kota,"Shrinath Puram, Kota - RSPCB",23-06-2024 08:00:00,25.14389,75.821256,PM2.5,23,148,70
India,Rajasthan,Nagaur,"Karni Colony, Nagaur - RSPCB",23-06-2024 08:00:00,27.213494,73.734444,NH3,7,19,13
India,Rajasthan,Nagaur,"Karni Colony, Nagaur - RSPCB",23-06-2024 08:00:00,27.213494,73.734444,CO,14,76,25
India,Rajasthan,Nagaur,"Karni Colony, Nagaur - RSPCB",23-06-2024 08:00:00,27.213494,73.734444,OZONE,30,130,44
India,Rajasthan,Pali,"Indira Colony Vistar, Pali - RSPCB",23-06-2024 08:00:00,25.771061, 73.340227,PM2.5,40,270,113
India,Rajasthan,Pali,"Indira Colony Vistar, Pali - RSPCB",23-06-2024 08:00:00,25.771061, 73.340227,SO2,6,11,9
India,Rajasthan,Pratapgarh,"Pragati Nagar, Pratapgarh - RSPCB",23-06-2024 08:00:00,24.041198,74.780702,SO2,1,4,3
India,Rajasthan,Rajsamand,"Dhoinda, Rajsamand - RSPCB",23-06-2024 08:00:00,25.036360,73.883502,SO2,3,14,6
India,Rajasthan,Sawai Madhopur,"Sahu Nagar, Sawai Madhopur - RSPCB",23-06-2024 08:00:00,26.031443,76.359327,SO2,1,7,4
India,Rajasthan,Sawai Madhopur,"Sahu Nagar, Sawai Madhopur - RSPCB",23-06-2024 08:00:00,26.031443,76.359327,OZONE,31,126,58
India,Rajasthan,Sikar,"Radhakishan Pura, Sikar - RSPCB",23-06-2024 08:00:00,27.608912,75.153302,SO2,2,6,3
India,Rajasthan,Sikar,"Radhakishan Pura, Sikar - RSPCB",23-06-2024 08:00:00,27.608912,75.153302,CO,30,42,32
India,Rajasthan,Sri Ganganagar,"Old City, Sri Ganganagar - RSPCB",23-06-2024 08:00:00,29.931624,73.864511,NO2,NA,NA,NA
India,Rajasthan,Tonk,"Shastri Nagar, Tonk - RSPCB",23-06-2024 08:00:00,26.159933,75.780517,OZONE,22,82,46
India,Rajasthan,Udaipur,"Ashok Nagar, Udaipur - RSPCB",23-06-2024 08:00:00,24.5886166,73.6321397,NO2,29,94,60
India,Rajasthan,Udaipur,"Ashok Nagar, Udaipur - RSPCB",23-06-2024 08:00:00,24.5886166,73.6321397,SO2,2,12,8
India,Sikkim,Gangtok,"Zero Point GICI, Gangtok - SSPCB",23-06-2024 08:00:00,27.338530,88.614099,PM2.5,8,36,15
India,Sikkim,Gangtok,"Zero Point GICI, Gangtok - SSPCB",23-06-2024 08:00:00,27.338530,88.614099,PM10,8,34,16
India,Sikkim,Gangtok,"Zero Point GICI, Gangtok - SSPCB",23-06-2024 08:00:00,27.338530,88.614099,SO2,12,13,12
India,Sikkim,Gangtok,"Zero Point GICI, Gangtok - SSPCB",23-06-2024 08:00:00,27.338530,88.614099,OZONE,15,54,18
India,TamilNadu,Ariyalur,"Keelapalur, Ariyalur - TNPCB",23-06-2024 08:00:00,11.06825,79.07033,PM2.5,5,42,19
India,TamilNadu,Ariyalur,"Keelapalur, Ariyalur - TNPCB",23-06-2024 08:00:00,11.06825,79.07033,PM10,9,73,33
India,TamilNadu,Ariyalur,"Keelapalur, Ariyalur - TNPCB",23-06-2024 08:00:00,11.06825,79.07033,NO2,6,7,6
India,TamilNadu,Chennai,"Alandur Bus Depot, Chennai - CPCB",23-06-2024 08:00:00,12.9099161,80.1076538,PM10,24,26,24
India,TamilNadu,Chennai,"Arumbakkam, Chennai - TNPCB",23-06-2024 08:00:00,13.0664,80.2112 ,PM10,34,87,55
India,TamilNadu,Chennai,"Arumbakkam, Chennai - TNPCB",23-06-2024 08:00:00,13.0664,80.2112 ,SO2,5,10,7
India,TamilNadu,Chennai,"Kodungaiyur, Chennai - TNPCB",23-06-2024 08:00:00,13.1278,80.2642,NO2,9,26,15
India,TamilNadu,Chennai,"Manali, Chennai - CPCB",23-06-2024 08:00:00,13.164544,80.26285,PM2.5,39,171,74
India,TamilNadu,Chennai,"Manali, Chennai - CPCB",23-06-2024 08:00:00,13.164544,80.26285,PM10,36,117,66
India,TamilNadu,Chennai,"Manali, Chennai - CPCB",23-06-2024 08:00:00,13.164544,80.26285,NH3,5,6,5
India,TamilNadu,Chennai,"Manali, Chennai - CPCB",23-06-2024 08:00:00,13.164544,80.26285,OZONE,6,13,7
India,TamilNadu,Chennai,"Perungudi, Chennai - TNPCB",23-06-2024 08:00:00,12.9533,80.2357,PM2.5,4,60,24
India,TamilNadu,Chennai,"Perungudi, Chennai - TNPCB",23-06-2024 08:00:00,12.9533,80.2357,OZONE,6,15,12
India,TamilNadu,Chennai,"Royapuram, Chennai - TNPCB",23-06-2024 08:00:00,13.1036,80.2909,PM2.5,7,73,24
India,TamilNadu,Chennai,"Royapuram, Chennai - TNPCB",23-06-2024 08:00:00,13.1036,80.2909,NH3,1,4,2
India,TamilNadu,Chennai,"Velachery Res. Area, Chennai - CPCB",23-06-2024 08:00:00,13.0052189,80.2398125,PM10,20,52,34
India,TamilNadu,Cuddalore,"Semmandalam, Cuddalore - TNPCB",23-06-2024 08:00:00,11.7637683,79.7499835,NH3,1,1,1
India,TamilNadu,Gummidipoondi,"Anthoni Pillai Nagar, Gummidipoondi - TNPCB",23-06-2024 08:00:00,13.4127,80.1081,NO2,11,29,16
India,TamilNadu,Ooty,"Bombay Castel, Ooty - TNPCB",23-06-2024 08:00:00,11.4068288,76.7138973,CO,19,24,23
India,TamilNadu,Thoothukudi,"Meelavittan, Thoothukudi - TNPCB",23-06-2024 08:00:00,8.816428 ,78.099039,PM10,18,134,45
India,TamilNadu,Virudhunagar,"Collectorate Office, Virudhunagar - TNPCB",23-06-2024 08:00:00,9.559382,77.948828,PM2.5,1,104,33
India,TamilNadu,Virudhunagar,"Collectorate Office, Virudhunagar - TNPCB",23-06-2024 08:00:00,9.559382,77.948828,NH3,7,7,7
India,Telangana,Hyderabad,"Central University, Hyderabad - TSPCB",23-06-2024 08:00:00,17.460103,78.334361,NH3,2,6,4
India,Telangana,Hyderabad,"ICRISAT Patancheru, Hyderabad - TSPCB",23-06-2024 08:00:00,17.518400,78.278777,PM2.5,8,32,18
India,Telangana,Hyderabad,"IDA Pashamylaram, Hyderabad - TSPCB",23-06-2024 08:00:00,17.5316895,78.218939,PM10,29,155,73
India,Telangana,Hyderabad,"IITH Kandi, Hyderabad - TSPCB",23-06-2024 08:00:00,17.585705,78.126199,NO2,NA,NA,NA
India,Telangana,Hyderabad,"Nacharam_TSIIC IALA, Hyderabad - TSPCB",23-06-2024 08:00:00,17.429398,78.569354,NO2,10,12,10
India,Telangana,Hyderabad,"New Malakpet, Hyderabad - TSPCB",23-06-2024 08:00:00,17.37206,78.50864,SO2,7,65,22
India,Telangana,Hyderabad,"Ramachandrapuram, Hyderabad - TSPCB",23-06-2024 08:00:00,17.528544,78.286195,NO2,8,12,8
India,Telangana,Hyderabad,"Ramachandrapuram, Hyderabad - TSPCB",23-06-2024 08:00:00,17.528544,78.286195,SO2,11,13,13
India,Telangana,Hyderabad,"Somajiguda, Hyderabad - TSPCB",23-06-2024 08:00:00,17.417094,78.457437,PM2.5,NA,NA,NA
India,Telangana,Hyderabad,"Somajiguda, Hyderabad - TSPCB",23-06-2024 08:00:00,17.417094,78.457437,NO2,NA,NA,NA
India,Telangana,Hyderabad,"Somajiguda, Hyderabad - TSPCB",23-06-2024 08:00:00,17.417094,78.457437,SO2,NA,NA,NA
India,Telangana,Hyderabad,"Somajiguda, Hyderabad - TSPCB",23-06-2024 08:00:00,17.417094,78.457437,OZONE,NA,NA,NA
India,Telangana,Hyderabad,"Zoo Park, Hyderabad - TSPCB",23-06-2024 08:00:00,17.349694,78.451437,PM10,6,34,22
India,Tripura,Agartala,"Bardowali, Agartala - Tripura SPCB",23-06-2024 08:00:00,23.8175497,91.2726974,PM2.5,4,82,43
India,Uttar_Pradesh,Agra,"Rohta, Agra - UPPCB",23-06-2024 08:00:00,27.106972,78.000111,PM2.5,8,69,35
India,Uttar_Pradesh,Agra,"Rohta, Agra - UPPCB",23-06-2024 08:00:00,27.106972,78.000111,SO2,4,11,7
India,Uttar_Pradesh,Agra,"Sanjay Palace, Agra - UPPCB",23-06-2024 08:00:00,27.19865833,78.00598056,PM2.5,8,381,50
India,Uttar_Pradesh,Agra,"Sanjay Palace, Agra - UPPCB",23-06-2024 08:00:00,27.19865833,78.00598056,OZONE,30,215,215
India,Uttar_Pradesh,Agra,"Shahjahan Garden, Agra - UPPCB",23-06-2024 08:00:00,27.169338,78.03582,SO2,41,51,44
India,Uttar_Pradesh,Agra,"Shastripuram, Agra - UPPCB",23-06-2024 08:00:00,27.19862,77.92066,OZONE,1,15,3
India,Uttar_Pradesh,Baghpat,"Sardar Patel Inter College, Baghpat - UPPCB",23-06-2024 08:00:00,28.964949,77.278761,PM10,86,185,119
India,Uttar_Pradesh,Baghpat,"Sardar Patel Inter College, Baghpat - UPPCB",23-06-2024 08:00:00,28.964949,77.278761,NO2,14,28,19
India,Uttar_Pradesh,Baghpat,"Sardar Patel Inter College, Baghpat - UPPCB",23-06-2024 08:00:00,28.964949,77.278761,NH3,1,3,2
India,Uttar_Pradesh,Bulandshahr,"Yamunapuram, Bulandshahr - UPPCB",23-06-2024 08:00:00,28.406963,77.849831,NO2,7,37,17
India,Uttar_Pradesh,Firozabad,"Nagla Bhau, Firozabad - UPPCB",23-06-2024 08:00:00,27.168897,78.376960,PM2.5,27,112,56
India,Uttar_Pradesh,Firozabad,"Nagla Bhau, Firozabad - UPPCB",23-06-2024 08:00:00,27.168897,78.376960,NO2,17,17,17
India,Uttar_Pradesh,Firozabad,"Nagla Bhau, Firozabad - UPPCB",23-06-2024 08:00:00,27.168897,78.376960,OZONE,15,23,19
India,Uttar_Pradesh,Firozabad,"Vibhab Nagar, Firozabad - UPPCB",23-06-2024 08:00:00,27.1594,78.3953,CO,NA,NA,NA
India,Uttar_Pradesh,Firozabad,"Vibhab Nagar, Firozabad - UPPCB",23-06-2024 08:00:00,27.1594,78.3953,OZONE,NA,NA,NA
India,Uttar_Pradesh,Ghaziabad,"Indirapuram, Ghaziabad - UPPCB",23-06-2024 08:00:00,28.646233,77.358075,PM2.5,90,337,155
India,Uttar_Pradesh,Ghaziabad,"Indirapuram, Ghaziabad - UPPCB",23-06-2024 08:00:00,28.646233,77.358075,OZONE,21,116,31
India,Uttar_Pradesh,Ghaziabad,"Sanjay Nagar, Ghaziabad - UPPCB",23-06-2024 08:00:00,28.685382,77.453839,SO2,12,37,23
India,Uttar_Pradesh,Gorakhpur,"Madan Mohan Malaviya University of Technology, Gorakhpur - UPPCB",23-06-2024 08:00:00,26.730136,83.433859,NH3,1,1,1
India,Uttar_Pradesh,Gorakhpur,"Madan Mohan Malaviya University of Technology, Gorakhpur - UPPCB",23-06-2024 08:00:00,26.730136,83.433859,SO2,14,21,20
India,Uttar_Pradesh,Gorakhpur,"Madan Mohan Malaviya University of Technology, Gorakhpur - UPPCB",23-06-2024 08:00:00,26.730136,83.433859,OZONE,7,12,11
India,Uttar_Pradesh,Greater Noida,"Knowledge Park - V, Greater Noida - UPPCB",23-06-2024 08:00:00,28.557054,77.453663,NH3,5,6,5
India,Uttar_Pradesh,Greater Noida,"Knowledge Park - V, Greater Noida - UPPCB",23-06-2024 08:00:00,28.557054,77.453663,CO,18,62,50
India,Uttar_Pradesh,Hapur,"Anand Vihar, Hapur - UPPCB",23-06-2024 08:00:00,28.725645,77.749675,PM10,48,111,78
India,Uttar_Pradesh,Hapur,"Anand Vihar, Hapur - UPPCB",23-06-2024 08:00:00,28.725645,77.749675,NH3,14,18,16
India,Uttar_Pradesh,Hapur,"Anand Vihar, Hapur - UPPCB",23-06-2024 08:00:00,28.725645,77.749675,CO,28,58,51
India,Uttar_Pradesh,Jhansi,"Shivaji Nagar, Jhansi - UPPCB",23-06-2024 08:00:00,25.4547,78.6039,OZONE,10,99,66
India,Uttar_Pradesh,Kanpur,"FTI Kidwai Nagar, Kanpur - UPPCB",23-06-2024 08:00:00,26.428282,80.327067,NH3,6,24,20
India,Uttar_Pradesh,Kanpur,"FTI Kidwai Nagar, Kanpur - UPPCB",23-06-2024 08:00:00,26.428282,80.327067,OZONE,NA,NA,NA
India,Uttar_Pradesh,Kanpur,"NSI Kalyanpur, Kanpur - UPPCB",23-06-2024 08:00:00,26.509954,80.249612,NH3,1,1,1
India,Uttar_Pradesh,Kanpur,"NSI Kalyanpur, Kanpur - UPPCB",23-06-2024 08:00:00,26.509954,80.249612,CO,34,46,42
India,Uttar_Pradesh,Kanpur,"NSI Kalyanpur, Kanpur - UPPCB",23-06-2024 08:00:00,26.509954,80.249612,OZONE,18,52,43
India,Uttar_Pradesh,Kanpur,"Nehru Nagar, Kanpur - UPPCB",23-06-2024 08:00:00,26.4703136,80.3229863,CO,50,91,63
India,Uttar_Pradesh,Khurja,"Kalindi Kunj, Khurja - UPPCB",23-06-2024 08:00:00,28.2348927,77.8683002,SO2,32,59,42
India,Uttar_Pradesh,Lucknow,"Gomti Nagar, Lucknow - UPPCB",23-06-2024 08:00:00,26.868120,81.005119,PM2.5,8,56,35
India,Uttar_Pradesh,Lucknow,"Kendriya Vidyalaya, Lucknow - CPCB",23-06-2024 08:00:00,26.906111,80.948222,PM10,65,103,84
India,Uttar_Pradesh,Lucknow,"Kukrail Picnic Spot-1, Lucknow - UPPCB",23-06-2024 08:00:00,26.90723,80.98579,SO2,30,32,31
India,Uttar_Pradesh,Lucknow,"Lalbagh, Lucknow - CPCB",23-06-2024 08:00:00,26.8458805,80.9365541,NO2,25,27,26
India,Uttar_Pradesh,Lucknow,"Lalbagh, Lucknow - CPCB",23-06-2024 08:00:00,26.8458805,80.9365541,OZONE,26,98,34
India,Uttar_Pradesh,Lucknow,"Talkatora District Industries Center, Lucknow - CPCB",23-06-2024 08:00:00,26.83399722,80.8917361,PM2.5,67,210,114
India,Uttar_Pradesh,Lucknow,"Talkatora District Industries Center, Lucknow - CPCB",23-06-2024 08:00:00,26.83399722,80.8917361,NO2,11,13,12
India,Uttar_Pradesh,Lucknow,"Talkatora District Industries Center, Lucknow - CPCB",23-06-2024 08:00:00,26.83399722,80.8917361,SO2,4,15,9
India,Uttar_Pradesh,Meerut,"Ganga Nagar, Meerut - UPPCB",23-06-2024 08:00:00,28.999264,77.7590354,PM2.5,29,120,44
India,Uttar_Pradesh,Meerut,"Ganga Nagar, Meerut - UPPCB",23-06-2024 08:00:00,28.999264,77.7590354,PM10,45,162,85
India,Uttar_Pradesh,Meerut,"Ganga Nagar, Meerut - UPPCB",23-06-2024 08:00:00,28.999264,77.7590354,CO,20,97,80
India,Uttar_Pradesh,Meerut,"Jai Bhim Nagar, Meerut - UPPCB",23-06-2024 08:00:00,28.9535882,77.7622941,SO2,6,7,7
India,Uttar_Pradesh,Meerut,"Jai Bhim Nagar, Meerut - UPPCB",23-06-2024 08:00:00,28.9535882,77.7622941,CO,46,79,56
India,Uttar_Pradesh,Meerut,"Pallavpuram Phase 2, Meerut - UPPCB",23-06-2024 08:00:00,29.063510,77.709723,NH3,8,32,13
India,Uttar_Pradesh,Moradabad,"Buddhi Vihar, Moradabad - UPPCB",23-06-2024 08:00:00,28.83526,78.74460,PM10,45,115,74
India,Uttar_Pradesh,Moradabad,"Buddhi Vihar, Moradabad - UPPCB",23-06-2024 08:00:00,28.83526,78.74460,CO,22,28,28
India,Uttar_Pradesh,Moradabad,"Eco Herbal Park, Moradabad - UPPCB",23-06-2024 08:00:00,28.840739,78.697531,PM10,20,91,55
India,Uttar_Pradesh,Moradabad,"Eco Herbal Park, Moradabad - UPPCB",23-06-2024 08:00:00,28.840739,78.697531,NO2,10,48,27
India,Uttar_Pradesh,Moradabad,"Eco Herbal Park, Moradabad - UPPCB",23-06-2024 08:00:00,28.840739,78.697531,NH3,7,16,11
India,Uttar_Pradesh,Moradabad,"Jigar Colony, Moradabad - UPPCB",23-06-2024 08:00:00,28.856664,78.772638,PM2.5,35,71,50
India,Uttar_Pradesh,Moradabad,"Jigar Colony, Moradabad - UPPCB",23-06-2024 08:00:00,28.856664,78.772638,NO2,11,12,12
India,Uttar_Pradesh,Moradabad,"Kashiram Nagar, Moradabad - UPPCB",23-06-2024 08:00:00,28.849399,78.742362,OZONE,16,55,23
India,Uttar_Pradesh,Moradabad,"Transport Nagar, Moradabad - UPPCB",23-06-2024 08:00:00,28.802625,78.753728,NH3,5,5,5
India,Uttar_Pradesh,Moradabad,"Transport Nagar, Moradabad - UPPCB",23-06-2024 08:00:00,28.802625,78.753728,OZONE,14,51,21
India,Uttar_Pradesh,Muzaffarnagar,"New Mandi, Muzaffarnagar - UPPCB",23-06-2024 08:00:00,29.4723508,77.7194031,PM10,84,433,160
India,Uttar_Pradesh,Muzaffarnagar,"New Mandi, Muzaffarnagar - UPPCB",23-06-2024 08:00:00,29.4723508,77.7194031,NO2,4,57,20
India,Uttar_Pradesh,Muzaffarnagar,"New Mandi, Muzaffarnagar - UPPCB",23-06-2024 08:00:00,29.4723508,77.7194031,NH3,12,16,13
India,Uttar_Pradesh,Muzaffarnagar,"New Mandi, Muzaffarnagar - UPPCB",23-06-2024 08:00:00,29.4723508,77.7194031,CO,33,60,43
India,Uttar_Pradesh,Muzaffarnagar,"New Mandi, Muzaffarnagar - UPPCB",23-06-2024 08:00:00,29.4723508,77.7194031,OZONE,18,60,25
India,Uttar_Pradesh,Noida,"Sector - 125, Noida - UPPCB",23-06-2024 08:00:00,28.5447608,77.3231257,PM10,141,404,222
India,Uttar_Pradesh,Noida,"Sector - 125, Noida - UPPCB",23-06-2024 08:00:00,28.5447608,77.3231257,NH3,4,7,5
India,Uttar_Pradesh,Noida,"Sector - 62, Noida - IMD",23-06-2024 08:00:00,28.6245479,77.3577104,OZONE,22,52,29
India,Uttar_Pradesh,Noida,"Sector-1, Noida - UPPCB",23-06-2024 08:00:00,28.5898,77.3101,NO2,16,52,26
India,Uttar_Pradesh,Noida,"Sector-1, Noida - UPPCB",23-06-2024 08:00:00,28.5898,77.3101,CO,16,52,30
India,Uttar_Pradesh,Noida,"Sector-116, Noida - UPPCB",23-06-2024 08:00:00,28.569230,77.393848,PM2.5,70,313,121
India,Uttar_Pradesh,Noida,"Sector-116, Noida - UPPCB",23-06-2024 08:00:00,28.569230,77.393848,NO2,21,36,27
India,Uttar_Pradesh,Noida,"Sector-116, Noida - UPPCB",23-06-2024 08:00:00,28.569230,77.393848,NH3,10,18,14
India,Uttar_Pradesh,Prayagraj,"Jhunsi, Prayagraj - UPPCB",23-06-2024 08:00:00,25.425602,81.917152,PM2.5,NA,NA,NA
India,Uttar_Pradesh,Prayagraj,"Jhunsi, Prayagraj - UPPCB",23-06-2024 08:00:00,25.425602,81.917152,PM10,36,89,52
India,Uttar_Pradesh,Prayagraj,"Jhunsi, Prayagraj - UPPCB",23-06-2024 08:00:00,25.425602,81.917152,NO2,5,6,6
India,Uttar_Pradesh,Prayagraj,"Jhunsi, Prayagraj - UPPCB",23-06-2024 08:00:00,25.425602,81.917152,CO,12,18,15
India,Uttar_Pradesh,Prayagraj,"Motilal Nehru NIT, Prayagraj - UPPCB",23-06-2024 08:00:00,25.494,81.863,PM2.5,15,27,20
India,Uttar_Pradesh,Prayagraj,"Motilal Nehru NIT, Prayagraj - UPPCB",23-06-2024 08:00:00,25.494,81.863,NO2,11,12,12
India,Uttar_Pradesh,Prayagraj,"Motilal Nehru NIT, Prayagraj - UPPCB",23-06-2024 08:00:00,25.494,81.863,CO,20,30,26
India,Uttar_Pradesh,Prayagraj,"Nagar Nigam, Prayagraj - UPPCB",23-06-2024 08:00:00,25.44919916 ,81.82735986 ,NH3,3,4,4
India,Uttar_Pradesh,Prayagraj,"Nagar Nigam, Prayagraj - UPPCB",23-06-2024 08:00:00,25.44919916 ,81.82735986 ,CO,15,26,19
India,Uttar_Pradesh,Varanasi,"Ardhali Bazar, Varanasi - UPPCB",23-06-2024 08:00:00,25.3505986,82.9083074,PM2.5,27,51,37
India,Uttar_Pradesh,Varanasi,"Ardhali Bazar, Varanasi - UPPCB",23-06-2024 08:00:00,25.3505986,82.9083074,CO,24,58,37
India,Uttar_Pradesh,Varanasi,"Bhelupur, Varanasi - UPPCB",23-06-2024 08:00:00,25.301778,82.996789,SO2,32,33,33
India,Uttar_Pradesh,Varanasi,"IESD Banaras Hindu University, Varanasi - UPPCB",23-06-2024 08:00:00,25.262326,82.995408,NO2,2,3,2
India,Uttar_Pradesh,Varanasi,"IESD Banaras Hindu University, Varanasi - UPPCB",23-06-2024 08:00:00,25.262326,82.995408,CO,2,13,6
India,Uttar_Pradesh,Varanasi,"IESD Banaras Hindu University, Varanasi - UPPCB",23-06-2024 08:00:00,25.262326,82.995408,OZONE,10,21,11
India,Uttar_Pradesh,Vrindavan,"Omex Eternity, Vrindavan - UPPCB",23-06-2024 08:00:00,27.5714090,77.6557570,NH3,1,2,1
India,Uttarakhand,Dehradun,"Doon University, Dehradun - UKPCB",23-06-2024 08:00:00,30.269444,78.044167,CO,24,33,27
India,Uttarakhand,Rishikesh,"Shivaji Nagar, Rishikesh - UKPCB",23-06-2024 08:00:00,30.075911,78.2859547,OZONE,2,40,4
India,West_Bengal,Asansol,"Asansol Court Area, Asansol - WBPCB",23-06-2024 08:00:00,23.685297,86.945968,PM2.5,72,227,129
India,West_Bengal,Asansol,"Asansol Court Area, Asansol - WBPCB",23-06-2024 08:00:00,23.685297,86.945968,NH3,10,12,10
India,West_Bengal,Asansol,"Asansol Court Area, Asansol - WBPCB",23-06-2024 08:00:00,23.685297,86.945968,CO,12,44,22
India,West_Bengal,Asansol,"Asansol Court Area, Asansol - WBPCB",23-06-2024 08:00:00,23.685297,86.945968,OZONE,35,97,47
India,West_Bengal,Asansol,"Evelyn Lodge, Asansol - WBPCB",23-06-2024 08:00:00,23.6979360,86.9443950,CO,59,82,67
India,West_Bengal,Asansol,"Mahabir Colliery, Asansol - WBPCB",23-06-2024 08:00:00,23.6181830,87.1057180,SO2,NA,NA,NA
India,West_Bengal,Asansol,"Mahabir Colliery, Asansol - WBPCB",23-06-2024 08:00:00,23.6181830,87.1057180,OZONE,NA,NA,NA
India,West_Bengal,Durgapur,"Sidhu Kanhu Indoor Stadium, Durgapur - WBPCB",23-06-2024 08:00:00,23.5404352,87.2892225,OZONE,1,51,9
India,West_Bengal,Haldia,"Priyambada Housing Estate, Haldia - WBPCB",23-06-2024 08:00:00,22.06047,88.109737,PM2.5,15,24,19
India,West_Bengal,Haldia,"Priyambada Housing Estate, Haldia - WBPCB",23-06-2024 08:00:00,22.06047,88.109737,NH3,11,21,18
India,West_Bengal,Haldia,"Priyambada Housing Estate, Haldia - WBPCB",23-06-2024 08:00:00,22.06047,88.109737,CO,22,26,24
India,West_Bengal,Howrah,"Belur Math, Howrah - WBPCB",23-06-2024 08:00:00,22.629801,88.352017,PM2.5,17,40,24
India,West_Bengal,Howrah,"Botanical Garden, Howrah - WBPCB",23-06-2024 08:00:00,22.554954,88.292568,OZONE,14,57,20
India,West_Bengal,Howrah,"Padmapukur, Howrah - WBPCB",23-06-2024 08:00:00,22.5687319,88.2797276,OZONE,20,35,22
India,West_Bengal,Kolkata,"Ballygunge, Kolkata - WBPCB",23-06-2024 08:00:00,22.5367507,88.3638022,SO2,4,8,6
India,West_Bengal,Kolkata,"Ballygunge, Kolkata - WBPCB",23-06-2024 08:00:00,22.5367507,88.3638022,OZONE,5,11,6
India,West_Bengal,Kolkata,"Bidhannagar, Kolkata - WBPCB",23-06-2024 08:00:00,22.58157048,88.41002457,OZONE,10,17,13
India,West_Bengal,Kolkata,"Fort William, Kolkata - WBPCB",23-06-2024 08:00:00,22.556640,88.342674,PM10,25,52,36
India,West_Bengal,Kolkata,"Fort William, Kolkata - WBPCB",23-06-2024 08:00:00,22.556640,88.342674,OZONE,10,19,12
India,West_Bengal,Kolkata,"Jadavpur, Kolkata - WBPCB",23-06-2024 08:00:00,22.49929,88.36917,PM10,19,34,28
India,West_Bengal,Kolkata,"Rabindra Bharati University, Kolkata - WBPCB",23-06-2024 08:00:00,22.627847,88.380669,SO2,9,13,11
India,West_Bengal,Kolkata,"Rabindra Bharati University, Kolkata - WBPCB",23-06-2024 08:00:00,22.627847,88.380669,CO,22,30,24
India,West_Bengal,Kolkata,"Rabindra Sarobar, Kolkata - WBPCB",23-06-2024 08:00:00,22.51106,88.35142,NO2,26,38,30
India,West_Bengal,Kolkata,"Victoria, Kolkata - WBPCB",23-06-2024 08:00:00,22.5448082,88.3403691,PM10,40,55,46
India,West_Bengal,Kolkata,"Victoria, Kolkata - WBPCB",23-06-2024 08:00:00,22.5448082,88.3403691,NH3,6,6,6
India,West_Bengal,Kolkata,"Victoria, Kolkata - WBPCB",23-06-2024 08:00:00,22.5448082,88.3403691,OZONE,12,24,15
India,Andhra_Pradesh,Kadapa,"Yerramukkapalli, Kadapa - APPCB",23-06-2024 08:00:00,14.465052,78.824187,NO2,NA,NA,NA
India,Andhra_Pradesh,Rajamahendravaram,"Anand Kala Kshetram, Rajamahendravaram - APPCB",23-06-2024 08:00:00,16.9872867,81.7363176,SO2,11,13,12
India,Andhra_Pradesh,Rajamahendravaram,"Anand Kala Kshetram, Rajamahendravaram - APPCB",23-06-2024 08:00:00,16.9872867,81.7363176,OZONE,23,54,43
India,Andhra_Pradesh,Tirupati,"Tirumala, Tirupati - APPCB",23-06-2024 08:00:00,13.67,79.35,OZONE,10,20,16
India,Andhra_Pradesh,Tirupati,"Vaikuntapuram, Tirupati - APPCB",23-06-2024 08:00:00,13.615387,79.409230,NH3,2,3,2
India,Andhra_Pradesh,Vijayawada,"HB Colony, Vijayawada - APPCB",23-06-2024 08:00:00,16.536107,80.594233,CO,33,33,33
India,Andhra_Pradesh,Vijayawada,"Rajiv Gandhi Park, Vijayawada - APPCB",23-06-2024 08:00:00,16.509717,80.612222,NH3,4,6,5
India,Assam,Byrnihat,"Central Academy for SFS, Byrnihat - PCBA",23-06-2024 08:00:00,26.071318,91.87488,PM2.5,NA,NA,NA
India,Assam,Guwahati,"IITG, Guwahati - PCBA",23-06-2024 08:00:00,26.2028636,91.70046436,PM10,NA,NA,NA
India,Assam,Guwahati,"LGBI Airport, Guwahati - PCBA",23-06-2024 08:00:00,26.10887,91.589544,CO,36,65,47
India,Assam,Guwahati,"Pan Bazaar, Guwahati - PCBA",23-06-2024 08:00:00,26.187500,91.744194,CO,12,54,30
India,Assam,Nalbari,"Bata Chowk, Nalbari - PCBA",23-06-2024 08:00:00,26.446912,91.439057,NO2,6,24,16
India,Assam,Nalbari,"Bata Chowk, Nalbari - PCBA",23-06-2024 08:00:00,26.446912,91.439057,NH3,1,2,1
India,Assam,Silchar,"Tarapur, Silchar - PCBA",23-06-2024 08:00:00,24.82827,92.79525,NO2,9,9,9
India,Assam,Silchar,"Tarapur, Silchar - PCBA",23-06-2024 08:00:00,24.82827,92.79525,SO2,1,3,1
India,Bihar,Araria,"Kharahiya Basti, Araria - BSPCB",23-06-2024 08:00:00,26.146529,87.454184,PM2.5,NA,NA,NA
India,Bihar,Arrah,"New DM Office, Arrah - BSPCB",23-06-2024 08:00:00,25.5626095,84.663264,PM10,47,103,73
India,Bihar,Aurangabad,"Gurdeo Nagar, Aurangabad - BSPCB",23-06-2024 08:00:00,24.75746,84.366208,NH3,1,46,17
India,Bihar,Bhagalpur,"DM Office_Kachari Chowk, Bhagalpur - BSPCB",23-06-2024 08:00:00,25.251013,86.989001,PM10,58,151,92
India,Bihar,Chhapra,"Darshan Nagar, Chhapra - BSPCB",23-06-2024 08:00:00,25.7808257,84.7446768,OZONE,1,8,2
India,Bihar,Gaya,"Collectorate, Gaya - BSPCB",23-06-2024 08:00:00,24.7955,84.9994,PM2.5,30,310,114
India,Bihar,Gaya,"Collectorate, Gaya - BSPCB",23-06-2024 08:00:00,24.7955,84.9994,CO,22,33,26
India,Bihar,Gaya,"Kareemganj, Gaya - BSPCB",23-06-2024 08:00:00,24.792403,84.992416,PM10,26,49,36
India,Bihar,Gaya,"SFTI Kusdihra, Gaya - BSPCB",23-06-2024 08:00:00,24.762518,84.982348,NO2,NA,NA,NA
India,Bihar,Gaya,"SFTI Kusdihra, Gaya - BSPCB",23-06-2024 08:00:00,24.762518,84.982348,SO2,NA,NA,NA
India,Bihar,Hajipur,"Industrial Area, Hajipur - BSPCB",23-06-2024 08:00:00,25.697189,85.245900,PM2.5,86,210,149
India,Bihar,Kishanganj,"SDM Office_Khagra, Kishanganj - BSPCB",23-06-2024 08:00:00,26.0881305,87.93840336,PM2.5,20,57,40
India,Bihar,Manguraha,"Forest Rest House, Manguraha - BSPCB",23-06-2024 08:00:00,27.308328,84.531742,PM2.5,NA,NA,NA
India,Bihar,Manguraha,"Forest Rest House, Manguraha - BSPCB",23-06-2024 08:00:00,27.308328,84.531742,NH3,2,2,2
India,Bihar,Manguraha,"Forest Rest House, Manguraha - BSPCB",23-06-2024 08:00:00,27.308328,84.531742,OZONE,7,55,9
India,Bihar,Motihari,"Gandak Colony, Motihari - BSPCB",23-06-2024 08:00:00,26.63086,84.90051,PM2.5,40,77,55
India,Bihar,Munger,"Town Hall, Munger - BSPCB",23-06-2024 08:00:00,25.376776,86.471523,PM2.5,22,80,48
India,Bihar,Munger,"Town Hall, Munger - BSPCB",23-06-2024 08:00:00,25.376776,86.471523,PM10,34,113,72
India,Bihar,Munger,"Town Hall, Munger - BSPCB",23-06-2024 08:00:00,25.376776,86.471523,NO2,4,6,5
India,Bihar,Munger,"Town Hall, Munger - BSPCB",23-06-2024 08:00:00,25.376776,86.471523,SO2,5,30,16
India,Bihar,Munger,"Town Hall, Munger - BSPCB",23-06-2024 08:00:00,25.376776,86.471523,CO,82,103,98
India,Bihar,Munger,"Town Hall, Munger - BSPCB",23-06-2024 08:00:00,25.376776,86.471523,OZONE,1,6,2
India,Bihar,Muzaffarpur,"MIT-Daudpur Kothi, Muzaffarpur - BSPCB",23-06-2024 08:00:00,26.1403345,85.3650192,PM10,42,92,70
India,Bihar,Muzaffarpur,"MIT-Daudpur Kothi, Muzaffarpur - BSPCB",23-06-2024 08:00:00,26.1403345,85.3650192,CO,12,102,44
India,Bihar,Muzaffarpur,"Muzaffarpur Collectorate, Muzaffarpur - BSPCB",23-06-2024 08:00:00,26.1209,85.3647,PM2.5,65,312,118
India,Bihar,Patna,"DRM Office Danapur, Patna - BSPCB",23-06-2024 08:00:00,25.586562,85.043586,PM10,80,127,101
India,Bihar,Patna,"Govt. High School Shikarpur, Patna - BSPCB",23-06-2024 08:00:00,25.592539,85.227158,PM10,73,125,101
India,Bihar,Patna,"Govt. High School Shikarpur, Patna - BSPCB",23-06-2024 08:00:00,25.592539,85.227158,SO2,8,13,10
India,Bihar,Patna,"IGSC Planetarium Complex, Patna - BSPCB",23-06-2024 08:00:00,25.610369,85.132568,OZONE,40,101,78
India,Bihar,Patna,"Muradpur, Patna - BSPCB",23-06-2024 08:00:00,25.619651,85.147382,PM10,112,206,162
India,Bihar,Patna,"Rajbansi Nagar, Patna - BSPCB",23-06-2024 08:00:00,25.599486,85.113666,PM2.5,55,109,84
India,Bihar,Patna,"Rajbansi Nagar, Patna - BSPCB",23-06-2024 08:00:00,25.599486,85.113666,NO2,8,20,12
India,Bihar,Patna,"Samanpura, Patna - BSPCB",23-06-2024 08:00:00,25.596727,85.085624,SO2,2,7,4
India,Bihar,Patna,"Samanpura, Patna - BSPCB",23-06-2024 08:00:00,25.596727,85.085624,OZONE,15,90,28
India,Bihar,Purnia,"Mariam Nagar, Purnia - BSPCB",23-06-2024 08:00:00,25.366336,87.117468,PM10,NA,NA,NA
India,Bihar,Purnia,"Mariam Nagar, Purnia - BSPCB",23-06-2024 08:00:00,25.366336,87.117468,NO2,4,7,5
India,Bihar,Purnia,"Mariam Nagar, Purnia - BSPCB",23-06-2024 08:00:00,25.366336,87.117468,OZONE,1,17,3
India,Bihar,Samastipur,"DM Office_Kasipur, Samastipur - BSPCB",23-06-2024 08:00:00,25.859655,85.77944,PM10,6,34,14
India,Bihar,Samastipur,"DM Office_Kasipur, Samastipur - BSPCB",23-06-2024 08:00:00,25.859655,85.77944,CO,102,107,103
India,Bihar,Sasaram,"Dada Peer, Sasaram - BSPCB",23-06-2024 08:00:00,24.952822,84.002396,PM2.5,63,308,175
India,Chandigarh,Chandigarh,"Sector 22, Chandigarh - CPCC",23-06-2024 08:00:00,30.735567,76.775714,PM10,64,189,126
India,Chandigarh,Chandigarh,"Sector 22, Chandigarh - CPCC",23-06-2024 08:00:00,30.735567,76.775714,NO2,15,131,40
India,Chandigarh,Chandigarh,"Sector 22, Chandigarh - CPCC",23-06-2024 08:00:00,30.735567,76.775714,NH3,6,14,10
India,Chandigarh,Chandigarh,"Sector 22, Chandigarh - CPCC",23-06-2024 08:00:00,30.735567,76.775714,OZONE,37,305,85
India,Chandigarh,Chandigarh,"Sector-25, Chandigarh - CPCC",23-06-2024 08:00:00,30.751462,76.762879,PM2.5,92,232,170
India,Chandigarh,Chandigarh,"Sector-25, Chandigarh - CPCC",23-06-2024 08:00:00,30.751462,76.762879,SO2,5,17,8
India,Chandigarh,Chandigarh,"Sector-25, Chandigarh - CPCC",23-06-2024 08:00:00,30.751462,76.762879,CO,17,68,32
India,Chandigarh,Chandigarh,"Sector-53, Chandigarh - CPCC",23-06-2024 08:00:00,30.719859,76.738637,CO,33,111,46
India,Chandigarh,Chandigarh,"Sector-53, Chandigarh - CPCC",23-06-2024 08:00:00,30.719859,76.738637,OZONE,6,80,27
India,Chhattisgarh,Bhilai,"32Bungalows, Bhilai - CECB",23-06-2024 08:00:00,21.194815,81.314770,NO2,6,8,7
India,Chhattisgarh,Bhilai,"32Bungalows, Bhilai - CECB",23-06-2024 08:00:00,21.194815,81.314770,NH3,8,9,9
India,Chhattisgarh,Bhilai,"Hathkhoj, Bhilai - CECB",23-06-2024 08:00:00,21.224231,81.408350,SO2,9,10,10
India,Chhattisgarh,Bhilai,"Hathkhoj, Bhilai - CECB",23-06-2024 08:00:00,21.224231,81.408350,CO,4,331,13
India,Chhattisgarh,Bhilai,"Hathkhoj, Bhilai - CECB",23-06-2024 08:00:00,21.224231,81.408350,OZONE,26,46,31
India,Chhattisgarh,Bilaspur,"Mangala, Bilaspur - NTPC",23-06-2024 08:00:00,22.08815,82.13737,SO2,13,17,15
India,Chhattisgarh,Korba,"Urja Nagar, Korba - CECB",23-06-2024 08:00:00,22.348441,82.549611,NO2,36,45,42
India,Chhattisgarh,Kunjemura,"OP Jindal School, Kunjemura - CECB",23-06-2024 08:00:00,22.126650,83.483212,PM2.5,14,49,37
India,Chhattisgarh,Kunjemura,"OP Jindal School, Kunjemura - CECB",23-06-2024 08:00:00,22.126650,83.483212,CO,26,96,66
India,Chhattisgarh,Raipur,"AIIMS, Raipur - CECB",23-06-2024 08:00:00,21.258815,81.578979,NH3,6,6,6
India,Chhattisgarh,Raipur,"AIIMS, Raipur - CECB",23-06-2024 08:00:00,21.258815,81.578979,SO2,2,5,4
India,Chhattisgarh,Raipur,"Bhatagaon New ISBT, Raipur - CECB",23-06-2024 08:00:00,21.219665,81.630094,OZONE,NA,NA,NA
India,Chhattisgarh,Raipur,"Krishak Nagar, Raipur - CECB",23-06-2024 08:00:00,21.237755,81.705301,NO2,5,5,5
India,Chhattisgarh,Raipur,"Siltara Phase-II, Raipur - CECB",23-06-2024 08:00:00,21.371751,81.664929,NO2,14,34,20
India,Chhattisgarh,Raipur,"Siltara Phase-II, Raipur - CECB",23-06-2024 08:00:00,21.371751,81.664929,CO,20,39,27
India,Chhattisgarh,Tumidih,"OP Jindal Industrial Park, Tumidih - CECB",23-06-2024 08:00:00,22.06631475,83.33820077,NH3,1,2,1
India,Delhi,Delhi,"Alipur, Delhi - DPCC",23-06-2024 08:00:00,28.815329,77.153010,OZONE,6,112,11
India,Delhi,Delhi,"Anand Vihar, Delhi - DPCC",23-06-2024 08:00:00,28.647622,77.3158090,NO2,39,72,56
India,Delhi,Delhi,"Ashok Vihar, Delhi - DPCC",23-06-2024 08:00:00,28.695381,77.181665,NH3,4,9,7
India,Delhi,Delhi,"Aya Nagar, Delhi - IMD",23-06-2024 08:00:00,28.4706914,77.1099364,PM10,82,165,120
India,Delhi,Delhi,"Aya Nagar, Delhi - IMD",23-06-2024 08:00:00,28.4706914,77.1099364,NO2,18,39,34
India,Delhi,Delhi,"Aya Nagar, Delhi - IMD",23-06-2024 08:00:00,28.4706914,77.1099364,OZONE,16,74,17
India,Delhi,Delhi,"Bawana, Delhi - DPCC",23-06-2024 08:00:00,28.776200,77.051074,NH3,7,33,17
India,Delhi,Delhi,"Bawana, Delhi - DPCC",23-06-2024 08:00:00,28.776200,77.051074,CO,30,72,58
India,Delhi,Delhi,"Bawana, Delhi - DPCC",23-06-2024 08:00:00,28.776200,77.051074,OZONE,3,78,28
India,Delhi,Delhi,"CRRI Mathura Road, Delhi - IMD",23-06-2024 08:00:00,28.5512005,77.2735737,PM2.5,69,133,93
India,Delhi,Delhi,"CRRI Mathura Road, Delhi - IMD",23-06-2024 08:00:00,28.5512005,77.2735737,OZONE,6,47,6
India,Delhi,Delhi,"Chandni Chowk, Delhi - IITM",23-06-2024 08:00:00,28.656756,77.227234,PM10,115,334,155
India,Delhi,Delhi,"Dr. Karni Singh Shooting Range, Delhi - DPCC",23-06-2024 08:00:00,28.498571,77.264840,PM2.5,83,365,140
India,Delhi,Delhi,"Dr. Karni Singh Shooting Range, Delhi - DPCC",23-06-2024 08:00:00,28.498571,77.264840,NO2,24,50,32
India,Delhi,Delhi,"Dr. Karni Singh Shooting Range, Delhi - DPCC",23-06-2024 08:00:00,28.498571,77.264840,OZONE,20,229,44
India,Delhi,Delhi,"Dwarka-Sector 8, Delhi - DPCC ",23-06-2024 08:00:00,28.5710274,77.0719006,PM2.5,63,287,124
India,Delhi,Delhi,"Dwarka-Sector 8, Delhi - DPCC ",23-06-2024 08:00:00,28.5710274,77.0719006,CO,19,46,37
India,Delhi,Delhi,"IHBAS, Dilshad Garden, Delhi - CPCB",23-06-2024 08:00:00,28.6811736,77.3025234,NO2,13,56,33
India,Delhi,Delhi,"ITO, Delhi - CPCB",23-06-2024 08:00:00,28.628624,77.241060,CO,65,101,84
India,Delhi,Delhi,"ITO, Delhi - CPCB",23-06-2024 08:00:00,28.628624,77.241060,OZONE,34,54,39
India,Delhi,Delhi,"Jahangirpuri, Delhi - DPCC",23-06-2024 08:00:00,28.732820,77.170633,PM2.5,77,327,151
India,Delhi,Delhi,"Jahangirpuri, Delhi - DPCC",23-06-2024 08:00:00,28.732820,77.170633,NO2,13,60,28
India,Delhi,Delhi,"Jahangirpuri, Delhi - DPCC",23-06-2024 08:00:00,28.732820,77.170633,SO2,24,34,30
India,Delhi,Delhi,"Jahangirpuri, Delhi - DPCC",23-06-2024 08:00:00,28.732820,77.170633,CO,50,97,65
India,Delhi,Delhi,"Jawaharlal Nehru Stadium, Delhi - DPCC",23-06-2024 08:00:00,28.580280,77.233829,SO2,7,24,16
India,Delhi,Delhi,"Lodhi Road, Delhi - IMD",23-06-2024 08:00:00,28.5918245,77.2273074,PM2.5,52,271,122
India,Delhi,Delhi,"Major Dhyan Chand National Stadium, Delhi - DPCC",23-06-2024 08:00:00,28.611281,77.237738,NO2,21,90,54
India,Delhi,Delhi,"Major Dhyan Chand National Stadium, Delhi - DPCC",23-06-2024 08:00:00,28.611281,77.237738,SO2,8,23,14
India,Delhi,Delhi,"Mandir Marg, Delhi - DPCC",23-06-2024 08:00:00,28.636429,77.201067,CO,44,72,51
India,Delhi,Delhi,"Mandir Marg, Delhi - DPCC",23-06-2024 08:00:00,28.636429,77.201067,OZONE,17,103,28
India,Delhi,Delhi,"Mundka, Delhi - DPCC",23-06-2024 08:00:00,28.684678,77.076574,OZONE,28,226,54
India,Delhi,Delhi,"NSIT Dwarka, Delhi - CPCB",23-06-2024 08:00:00,28.60909,77.0325413,NH3,14,17,16
India,Delhi,Delhi,"NSIT Dwarka, Delhi - CPCB",23-06-2024 08:00:00,28.60909,77.0325413,CO,38,75,48
India,Delhi,Delhi,"Najafgarh, Delhi - DPCC",23-06-2024 08:00:00,28.570173,76.933762,PM10,94,254,142
India,Delhi,Delhi,"Najafgarh, Delhi - DPCC",23-06-2024 08:00:00,28.570173,76.933762,NO2,15,42,28
India,Delhi,Delhi,"Nehru Nagar, Delhi - DPCC",23-06-2024 08:00:00,28.567890,77.250515,PM10,105,250,142
India,Delhi,Delhi,"Okhla Phase-2, Delhi - DPCC",23-06-2024 08:00:00,28.530785,77.271255,NO2,33,108,59
India,Delhi,Delhi,"Okhla Phase-2, Delhi - DPCC",23-06-2024 08:00:00,28.530785,77.271255,SO2,5,19,10
India,Delhi,Delhi,"Okhla Phase-2, Delhi - DPCC",23-06-2024 08:00:00,28.530785,77.271255,OZONE,17,132,24
India,Delhi,Delhi,"Pusa, Delhi - DPCC",23-06-2024 08:00:00,28.639652,77.146275,PM10,122,256,147
India,Delhi,Delhi,"Pusa, Delhi - IMD",23-06-2024 08:00:00,28.636110,77.173332,PM2.5,38,239,114
India,Delhi,Delhi,"Pusa, Delhi - IMD",23-06-2024 08:00:00,28.636110,77.173332,PM10,87,168,119
India,Delhi,Delhi,"Pusa, Delhi - IMD",23-06-2024 08:00:00,28.636110,77.173332,NO2,25,39,30
India,Delhi,Delhi,"Pusa, Delhi - IMD",23-06-2024 08:00:00,28.636110,77.173332,CO,52,62,59
India,Delhi,Delhi,"R K Puram, Delhi - DPCC",23-06-2024 08:00:00,28.563262,77.186937,SO2,NA,NA,NA
India,Delhi,Delhi,"R K Puram, Delhi - DPCC",23-06-2024 08:00:00,28.563262,77.186937,CO,13,58,32
India,Delhi,Delhi,"Rohini, Delhi - DPCC",23-06-2024 08:00:00,28.732528,77.119920,PM2.5,67,316,138
India,Delhi,Delhi,"Rohini, Delhi - DPCC",23-06-2024 08:00:00,28.732528,77.119920,SO2,11,20,15
India,Delhi,Delhi,"Shadipur, Delhi - CPCB",23-06-2024 08:00:00,28.6514781,77.1473105,CO,32,72,41
India,Delhi,Delhi,"Sirifort, Delhi - CPCB",23-06-2024 08:00:00,28.5504249,77.2159377,PM2.5,84,339,136
India,Delhi,Delhi,"Sirifort, Delhi - CPCB",23-06-2024 08:00:00,28.5504249,77.2159377,PM10,99,278,145
India,Delhi,Delhi,"Sirifort, Delhi - CPCB",23-06-2024 08:00:00,28.5504249,77.2159377,SO2,34,56,49
India,Delhi,Delhi,"Sirifort, Delhi - CPCB",23-06-2024 08:00:00,28.5504249,77.2159377,CO,27,63,34
India,Delhi,Delhi,"Sonia Vihar, Delhi - DPCC",23-06-2024 08:00:00,28.710508,77.249485,NH3,8,63,24
India,Delhi,Delhi,"Sonia Vihar, Delhi - DPCC",23-06-2024 08:00:00,28.710508,77.249485,SO2,5,17,11
India,Delhi,Delhi,"Sonia Vihar, Delhi - DPCC",23-06-2024 08:00:00,28.710508,77.249485,CO,11,37,17
India,Delhi,Delhi,"Sri Aurobindo Marg, Delhi - DPCC",23-06-2024 08:00:00,28.531346,77.190156,PM2.5,75,348,139
India,Delhi,Delhi,"Sri Aurobindo Marg, Delhi - DPCC",23-06-2024 08:00:00,28.531346,77.190156,NO2,27,97,50
India,Delhi,Delhi,"Vivek Vihar, Delhi - DPCC",23-06-2024 08:00:00,28.672342,77.315260,SO2,13,49,22
India,Delhi,Delhi,"Wazirpur, Delhi - DPCC",23-06-2024 08:00:00,28.699793,77.165453,PM2.5,NA,NA,NA
India,Delhi,Delhi,"Wazirpur, Delhi - DPCC",23-06-2024 08:00:00,28.699793,77.165453,NH3,6,9,8
India,Delhi,Delhi,"Wazirpur, Delhi - DPCC",23-06-2024 08:00:00,28.699793,77.165453,OZONE,3,48,4
India,Gujarat,Ahmedabad,"Chandkheda, Ahmedabad - IITM",23-06-2024 08:00:00,23.107969,72.574648,SO2,5,14,10
India,Gujarat,Ahmedabad,"Gyaspur, Ahmedabad - IITM",23-06-2024 08:00:00,22.977134,72.553024,CO,20,64,32
India,Gujarat,Ahmedabad,"Maninagar, Ahmedabad - GPCB",23-06-2024 08:00:00,23.002657,72.591912,PM2.5,38,136,68
India,Gujarat,Ahmedabad,"Maninagar, Ahmedabad - GPCB",23-06-2024 08:00:00,23.002657,72.591912,CO,1,8,5
India,Gujarat,Ahmedabad,"Maninagar, Ahmedabad - GPCB",23-06-2024 08:00:00,23.002657,72.591912,OZONE,28,68,44
India,Gujarat,Ahmedabad,"Raikhad, Ahmedabad - IITM",23-06-2024 08:00:00,23.020509,72.579261,PM10,44,134,92
India,Gujarat,Ahmedabad,"Raikhad, Ahmedabad - IITM",23-06-2024 08:00:00,23.020509,72.579261,SO2,4,24,9
India,Gujarat,Ankleshwar,"GIDC, Ankleshwar - GPCB",23-06-2024 08:00:00,21.613267,73.010555,PM10,49,94,76
India,Gujarat,Ankleshwar,"GIDC, Ankleshwar - GPCB",23-06-2024 08:00:00,21.613267,73.010555,SO2,6,113,41
India,Gujarat,Gandhinagar,"GIFT City, Gandhinagar - IITM",23-06-2024 08:00:00,23.163798,72.677768,NO2,26,34,30
India,Gujarat,Gandhinagar,"GIFT City, Gandhinagar - IITM",23-06-2024 08:00:00,23.163798,72.677768,CO,7,14,9
India,Gujarat,Gandhinagar,"Sector-10, Gandhinagar - GPCB",23-06-2024 08:00:00,23.221714,72.654328,PM10,20,108,53
India,Gujarat,Gandhinagar,"Sector-10, Gandhinagar - GPCB",23-06-2024 08:00:00,23.221714,72.654328,NO2,20,24,22
India,Gujarat,Gandhinagar,"Sector-10, Gandhinagar - GPCB",23-06-2024 08:00:00,23.221714,72.654328,SO2,6,8,7
India,Gujarat,Nandesari,"GIDC, Nandesari - Nandesari Ind. Association",23-06-2024 08:00:00,22.410802,73.097923,PM2.5,65,329,117
India,Gujarat,Nandesari,"GIDC, Nandesari - Nandesari Ind. Association",23-06-2024 08:00:00,22.410802,73.097923,SO2,1,22,13
India,Gujarat,Surat,"Science Center, Surat - SMC",23-06-2024 08:00:00,21.170046,72.795405,NO2,21,32,26
India,Gujarat,Vapi,"Phase-1 GIDC, Vapi - GPCB",23-06-2024 08:00:00,20.362421,72.918013,PM2.5,17,40,26
India,Haryana,Ambala,"Patti Mehar, Ambala - HSPCB",23-06-2024 08:00:00,30.379589,76.778328,NH3,5,12,8
India,Haryana,Ambala,"Patti Mehar, Ambala - HSPCB",23-06-2024 08:00:00,30.379589,76.778328,OZONE,41,89,47
India,Haryana,Bahadurgarh,"Arya Nagar, Bahadurgarh - HSPCB",23-06-2024 08:00:00,28.6701,76.9254,PM10,99,148,119
India,Haryana,Bahadurgarh,"Arya Nagar, Bahadurgarh - HSPCB",23-06-2024 08:00:00,28.6701,76.9254,SO2,2,3,3
India,Haryana,Ballabgarh,"Nathu Colony, Ballabgarh - HSPCB",23-06-2024 08:00:00,28.3419248,77.319699,PM10,NA,NA,NA
India,Haryana,Ballabgarh,"Nathu Colony, Ballabgarh - HSPCB",23-06-2024 08:00:00,28.3419248,77.319699,NH3,NA,NA,NA
India,Haryana,Ballabgarh,"Nathu Colony, Ballabgarh - HSPCB",23-06-2024 08:00:00,28.3419248,77.319699,SO2,NA,NA,NA
India,Haryana,Bhiwani,"H.B. Colony, Bhiwani - HSPCB",23-06-2024 08:00:00,28.806223,76.141105,PM10,82,116,104
India,Haryana,Bhiwani,"H.B. Colony, Bhiwani - HSPCB",23-06-2024 08:00:00,28.806223,76.141105,NH3,6,6,6
India,Haryana,Bhiwani,"H.B. Colony, Bhiwani - HSPCB",23-06-2024 08:00:00,28.806223,76.141105,CO,32,77,66
India,Haryana,Charkhi Dadri,"Mini Secretariat, Charkhi Dadri - HSPCB",23-06-2024 08:00:00,28.593883,76.270653,PM2.5,93,302,162
India,Haryana,Charkhi Dadri,"Mini Secretariat, Charkhi Dadri - HSPCB",23-06-2024 08:00:00,28.593883,76.270653,OZONE,14,17,15
India,Haryana,Dharuhera,"Municipal Corporation Office, Dharuhera -  HSPCB",23-06-2024 08:00:00,28.206800,76.799700,NO2,NA,NA,NA
India,Haryana,Dharuhera,"Municipal Corporation Office, Dharuhera -  HSPCB",23-06-2024 08:00:00,28.206800,76.799700,SO2,NA,NA,NA
India,Haryana,Faridabad,"New Industrial Town, Faridabad - HSPCB",23-06-2024 08:00:00,28.39072,77.30059,CO,NA,NA,NA
India,Haryana,Faridabad,"New Industrial Town, Faridabad - HSPCB",23-06-2024 08:00:00,28.39072,77.30059,OZONE,NA,NA,NA
India,Haryana,Faridabad,"Sector 11, Faridabad - HSPCB",23-06-2024 08:00:00,28.376058,77.315741,PM2.5,87,310,192
India,Haryana,Faridabad,"Sector 11, Faridabad - HSPCB",23-06-2024 08:00:00,28.376058,77.315741,OZONE,10,48,13
India,Haryana,Faridabad,"Sector 30, Faridabad - HSPCB",23-06-2024 08:00:00,28.4417,77.3217,PM10,150,158,153
India,Haryana,Fatehabad,"Huda Sector, Fatehabad - HSPCB",23-06-2024 08:00:00,29.503664,75.467934,NH3,9,10,10
India,Haryana,Fatehabad,"Huda Sector, Fatehabad - HSPCB",23-06-2024 08:00:00,29.503664,75.467934,OZONE,14,41,33
India,Haryana,Gurugram,"NISE Gwal Pahari, Gurugram - IMD",23-06-2024 08:00:00,28.422681,77.148944,OZONE,1,105,8
India,Haryana,Gurugram,"Teri Gram, Gurugram - HSPCB",23-06-2024 08:00:00,28.4275,77.1465,PM10,NA,NA,NA
India,Haryana,Gurugram,"Teri Gram, Gurugram - HSPCB",23-06-2024 08:00:00,28.4275,77.1465,SO2,NA,NA,NA
India,Haryana,Hisar,"Urban Estate-II, Hisar - HSPCB",23-06-2024 08:00:00,29.140560,75.744941,OZONE,37,149,47
India,Haryana,Karnal,"Sector-12, Karnal - HSPCB",23-06-2024 08:00:00,29.695300,77.002700,NO2,7,12,10
India,Haryana,Karnal,"Sector-12, Karnal - HSPCB",23-06-2024 08:00:00,29.695300,77.002700,NH3,10,13,11
India,Haryana,Kurukshetra,"Sector-7, Kurukshetra - HSPCB",23-06-2024 08:00:00,29.966942,76.875879,NH3,5,5,5
India,Haryana,Kurukshetra,"Sector-7, Kurukshetra - HSPCB",23-06-2024 08:00:00,29.966942,76.875879,SO2,2,3,3
India,Haryana,Mandikhera,"General Hospital, Mandikhera - HSPCB",23-06-2024 08:00:00,27.9002,76.9938,PM2.5,11,94,30
India,Haryana,Mandikhera,"General Hospital, Mandikhera - HSPCB",23-06-2024 08:00:00,27.9002,76.9938,SO2,29,39,34
India,Haryana,Manesar,"Sector-2 IMT, Manesar - HSPCB",23-06-2024 08:00:00,28.360699,76.936090,PM10,86,149,118
India,Haryana,Narnaul,"Shastri Nagar, Narnaul - HSPCB",23-06-2024 08:00:00,28.060249,76.113115,PM10,30,69,47
India,Haryana,Narnaul,"Shastri Nagar, Narnaul - HSPCB",23-06-2024 08:00:00,28.060249,76.113115,NO2,15,83,48
India,Haryana,Palwal,"Shyam Nagar, Palwal - HSPCB",23-06-2024 08:00:00,28.1485564,77.3320667,PM2.5,50,78,63
India,Haryana,Palwal,"Shyam Nagar, Palwal - HSPCB",23-06-2024 08:00:00,28.1485564,77.3320667,NH3,8,9,9
India,Haryana,Panipat,"Sector-18, Panipat - HSPCB",23-06-2024 08:00:00,29.432304,76.972765,NH3,2,3,3
India,Haryana,Panipat,"Sector-18, Panipat - HSPCB",23-06-2024 08:00:00,29.432304,76.972765,SO2,18,19,19
India,Haryana,Rohtak,"MD University, Rohtak - HSPCB",23-06-2024 08:00:00,28.52123,76.37138,OZONE,45,54,48
India,Haryana,Sirsa,"F-Block, Sirsa - HSPCB",23-06-2024 08:00:00,29.536400,75.015800,NH3,12,13,12
India,Haryana,Sonipat,"Murthal, Sonipat - HSPCB",23-06-2024 08:00:00,29.027200,77.062100,NH3,7,10,9
India,Haryana,Yamuna Nagar,"Gobind Pura, Yamuna Nagar - HSPCB",23-06-2024 08:00:00,30.1480566,77.2893471,PM2.5,NA,NA,NA
India,Haryana,Yamuna Nagar,"Gobind Pura, Yamuna Nagar - HSPCB",23-06-2024 08:00:00,30.1480566,77.2893471,SO2,NA,NA,NA
India,Haryana,Yamuna Nagar,"Gobind Pura, Yamuna Nagar - HSPCB",23-06-2024 08:00:00,30.1480566,77.2893471,OZONE,28,57,29
India,Karnataka,Bagalkot,"Vidayagiri, Bagalkot - KSPCB",23-06-2024 08:00:00,16.172806,75.659694,PM2.5,25,37,36
India,Karnataka,Bagalkot,"Vidayagiri, Bagalkot - KSPCB",23-06-2024 08:00:00,16.172806,75.659694,NO2,9,10,9
India,Karnataka,Bengaluru,"Hebbal, Bengaluru - KSPCB",23-06-2024 08:00:00,13.029152,77.585901,PM2.5,4,36,18
India,Karnataka,Bengaluru,"Hebbal, Bengaluru - KSPCB",23-06-2024 08:00:00,13.029152,77.585901,CO,NA,NA,NA
India,Karnataka,Bengaluru,"Hombegowda Nagar, Bengaluru - KSPCB",23-06-2024 08:00:00,12.938539,77.590100,OZONE,13,27,19
India,Karnataka,Bengaluru,"Jayanagar 5th Block, Bengaluru - KSPCB",23-06-2024 08:00:00,12.920984,77.584908,PM10,14,39,28
India,Karnataka,Bengaluru,"Jayanagar 5th Block, Bengaluru - KSPCB",23-06-2024 08:00:00,12.920984,77.584908,NH3,2,2,2
India,Karnataka,Bengaluru,"Jigani, Bengaluru - KSPCB",23-06-2024 08:00:00,12.7816279,77.6299145,PM10,27,48,39
India,Karnataka,Bengaluru,"Peenya, Bengaluru - CPCB",23-06-2024 08:00:00,13.0270199,77.494094,NO2,17,26,22
India,Karnataka,Bengaluru,"Peenya, Bengaluru - CPCB",23-06-2024 08:00:00,13.0270199,77.494094,NH3,3,4,3
India,Karnataka,Bengaluru,"Peenya, Bengaluru - CPCB",23-06-2024 08:00:00,13.0270199,77.494094,SO2,13,16,15
India,Karnataka,Bengaluru,"Peenya, Bengaluru - CPCB",23-06-2024 08:00:00,13.0270199,77.494094,CO,78,84,79
India,Karnataka,Bengaluru,"Sanegurava Halli, Bengaluru - KSPCB",23-06-2024 08:00:00,12.990328,77.5431385,SO2,2,7,3
India,Karnataka,Chamarajanagar,"Urban, Chamarajanagar - KSPCB",23-06-2024 08:00:00,11.55358,76.55521,NO2,23,29,28
India,Karnataka,Chamarajanagar,"Urban, Chamarajanagar - KSPCB",23-06-2024 08:00:00,11.55358,76.55521,SO2,3,6,4
India,Karnataka,Chamarajanagar,"Urban, Chamarajanagar - KSPCB",23-06-2024 08:00:00,11.55358,76.55521,OZONE,25,27,26
India,Karnataka,Chikkamagaluru,"Kalyana Nagara, Chikkamagaluru - KSPCB",23-06-2024 08:00:00,13.328028,75.797056,NH3,2,4,3
India,Karnataka,Chikkamagaluru,"Kalyana Nagara, Chikkamagaluru - KSPCB",23-06-2024 08:00:00,13.328028,75.797056,CO,11,72,17
India,Karnataka,Hassan,"B.Katihalli, Hassan - KSPCB",23-06-2024 08:00:00,13.008556,76.125258,PM2.5,48,48,48
India,Karnataka,Hassan,"B.Katihalli, Hassan - KSPCB",23-06-2024 08:00:00,13.008556,76.125258,OZONE,7,15,10
India,Karnataka,Haveri,"Ashwini Nagar, Haveri - KSPCB",23-06-2024 08:00:00,14.791800,75.389600,PM2.5,9,32,20
India,Karnataka,Haveri,"Ashwini Nagar, Haveri - KSPCB",23-06-2024 08:00:00,14.791800,75.389600,NO2,18,72,35
India,Karnataka,Hubballi,"Lingaraj Nagar, Hubballi - KSPCB",23-06-2024 08:00:00,15.3714823,75.1160168,PM2.5,34,46,39
India,Karnataka,Hubballi,"Lingaraj Nagar, Hubballi - KSPCB",23-06-2024 08:00:00,15.3714823,75.1160168,NO2,7,17,12
India,Karnataka,Kalaburagi,"Mahatma Basaveswar Colony, Kalaburgi - KSPCB",23-06-2024 08:00:00,17.336318,76.847397,PM10,14,53,28
India,Karnataka,Kalaburagi,"Mahatma Basaveswar Colony, Kalaburgi - KSPCB",23-06-2024 08:00:00,17.336318,76.847397,SO2,2,5,3
India,Karnataka,Kolar,"Tamaka Ind. Area, Kolar - KSPCB",23-06-2024 08:00:00,13.1276288,78.1570122,PM10,NA,NA,NA
India,Karnataka,Kolar,"Tamaka Ind. Area, Kolar - KSPCB",23-06-2024 08:00:00,13.1276288,78.1570122,NO2,NA,NA,NA
India,Karnataka,Kolar,"Tamaka Ind. Area, Kolar - KSPCB",23-06-2024 08:00:00,13.1276288,78.1570122,SO2,NA,NA,NA
India,Karnataka,Kolar,"Tamaka Ind. Area, Kolar - KSPCB",23-06-2024 08:00:00,13.1276288,78.1570122,OZONE,NA,NA,NA
India,Karnataka,Koppal,"Diwator Nagar, Koppal - KSPCB",23-06-2024 08:00:00,15.347630,76.181767,PM10,NA,NA,NA
India,Karnataka,Koppal,"Diwator Nagar, Koppal - KSPCB",23-06-2024 08:00:00,15.347630,76.181767,NO2,NA,NA,NA
India,Karnataka,Koppal,"Diwator Nagar, Koppal - KSPCB",23-06-2024 08:00:00,15.347630,76.181767,SO2,NA,NA,NA
India,Karnataka,Madikeri,"Stuart Hill, Madikeri - KSPCB",23-06-2024 08:00:00,12.415911,75.735050,PM2.5,12,28,18
India,Karnataka,Madikeri,"Stuart Hill, Madikeri - KSPCB",23-06-2024 08:00:00,12.415911,75.735050,NH3,NA,NA,NA
India,Karnataka,Madikeri,"Stuart Hill, Madikeri - KSPCB",23-06-2024 08:00:00,12.415911,75.735050,CO,4,30,16
India,Karnataka,Mangalore,"Kadri, Mangalore - KSPCB",23-06-2024 08:00:00,12.889250,74.853000,OZONE,23,33,32
India,Karnataka,Ramanagara,"Vijay Nagar, Ramanagara - KSPCB",23-06-2024 08:00:00,12.733409,77.298051,NH3,2,3,2
India,Karnataka,Ramanagara,"Vijay Nagar, Ramanagara - KSPCB",23-06-2024 08:00:00,12.733409,77.298051,SO2,16,41,27
India,Karnataka,Shivamogga,"Vinoba Nagara, Shivamogga - KSPCB",23-06-2024 08:00:00,13.940000,75.555917,PM2.5,31,49,35
India,Karnataka,Shivamogga,"Vinoba Nagara, Shivamogga - KSPCB",23-06-2024 08:00:00,13.940000,75.555917,NO2,10,28,18
India,Karnataka,Shivamogga,"Vinoba Nagara, Shivamogga - KSPCB",23-06-2024 08:00:00,13.940000,75.555917,OZONE,54,80,66
India,Karnataka,Tumakuru,"Thimmalapura, Tumakuru - KSPCB",23-06-2024 08:00:00,13.377516,77.099072,CO,28,34,31
India,Karnataka,Udupi,"Brahmagiri, Udupi - KSPCB",23-06-2024 08:00:00,13.34194444,74.74694444,NO2,26,28,27
India,Karnataka,Udupi,"Brahmagiri, Udupi - KSPCB",23-06-2024 08:00:00,13.34194444,74.74694444,SO2,17,19,18
India,Karnataka,Udupi,"Brahmagiri, Udupi - KSPCB",23-06-2024 08:00:00,13.34194444,74.74694444,CO,50,55,51
India,Karnataka,Vijayapura,"Ibrahimpur, Vijayapura - KSPCB",23-06-2024 08:00:00,16.802639,75.722694,PM2.5,26,31,30
India,Karnataka,Vijayapura,"Ibrahimpur, Vijayapura - KSPCB",23-06-2024 08:00:00,16.802639,75.722694,PM10,40,43,42
India,Karnataka,Vijayapura,"Ibrahimpur, Vijayapura - KSPCB",23-06-2024 08:00:00,16.802639,75.722694,NH3,2,2,2
India,Karnataka,Vijayapura,"Ibrahimpur, Vijayapura - KSPCB",23-06-2024 08:00:00,16.802639,75.722694,OZONE,14,15,15
India,Karnataka,Yadgir,"Collector Office, Yadgir - KSPCB",23-06-2024 08:00:00,16.7602,77.1428,NO2,7,20,11
India,Kerala,Eloor,"Udyogamandal, Eloor - Kerala PCB",23-06-2024 08:00:00,10.073232,76.302765,PM2.5,16,38,22
India,Kerala,Eloor,"Udyogamandal, Eloor - Kerala PCB",23-06-2024 08:00:00,10.073232,76.302765,SO2,1,2,1
India,Kerala,Eloor,"Udyogamandal, Eloor - Kerala PCB",23-06-2024 08:00:00,10.073232,76.302765,CO,7,72,28
India,Kerala,Kannur,"Thavakkara, Kannur - Kerala PCB",23-06-2024 08:00:00,11.875000,75.373200,NO2,5,6,5
India,Kerala,Kannur,"Thavakkara, Kannur - Kerala PCB",23-06-2024 08:00:00,11.875000,75.373200,SO2,NA,NA,NA
India,Kerala,Thiruvananthapuram,"Plammoodu, Thiruvananthapuram - Kerala PCB",23-06-2024 08:00:00,8.5149093,76.9435879,PM2.5,NA,NA,NA
India,Kerala,Thiruvananthapuram,"Plammoodu, Thiruvananthapuram - Kerala PCB",23-06-2024 08:00:00,8.5149093,76.9435879,NO2,8,10,9
