country,state,city,station,last_update,latitude,longitude,pollutant_id,pollutant_min,pollutant_max,pollutant_avg
India,Andhra_Pradesh,Anantapur,"Gulzarpet, Anantapur - APPCB",31-01-2024 22:00:00,14.675886,77.593027,PM10,55,126,91
India,Andhra_Pradesh,Chittoor,"Gangineni Cheruvu, Chittoor - APPCB",31-01-2024 22:00:00,13.204880,79.097889,PM2.5,30,158,63
India,Andhra_Pradesh,Chittoor,"Gangineni Cheruvu, Chittoor - APPCB",31-01-2024 22:00:00,13.204880,79.097889,NO2,4,25,14
India,Andhra_Pradesh,Chittoor,"Gangineni Cheruvu, Chittoor - APPCB",31-01-2024 22:00:00,13.204880,79.097889,CO,34,100,68
India,Andhra_Pradesh,Kadapa,"Yerramukkapalli, Kadapa - APPCB",31-01-2024 22:00:00,14.465052,78.824187,CO,14,22,19
India,Andhra_Pradesh,Tirupati,"Tirumala, Tirupati - APPCB",31-01-2024 22:00:00,13.67,79.35,PM10,40,80,57
India,Andhra_Pradesh,Tirupati,"Tirumala, Tirupati - APPCB",31-01-2024 22:00:00,13.67,79.35,NO2,38,69,53
India,Andhra_Pradesh,Tirupati,"Vaikuntapuram, Tirupati - APPCB",31-01-2024 22:00:00,13.615387,79.409230,NO2,15,23,19
India,Andhra_Pradesh,Vijayawada,"HB Colony, Vijayawada - APPCB",31-01-2024 22:00:00,16.536107,80.594233,PM10,NA,NA,NA
India,Andhra_Pradesh,Vijayawada,"Kanuru, Vijayawada - APPCB",31-01-2024 22:00:00,16.486692,80.699436,NO2,NA,NA,NA
India,Andhra_Pradesh,Vijayawada,"Kanuru, Vijayawada - APPCB",31-01-2024 22:00:00,16.486692,80.699436,NH3,NA,NA,NA
India,Andhra_Pradesh,Vijayawada,"Kanuru, Vijayawada - APPCB",31-01-2024 22:00:00,16.486692,80.699436,CO,103,105,104
India,Andhra_Pradesh,Vijayawada,"Rajiv Nagar, Vijayawada - APPCB",31-01-2024 22:00:00,16.554731,80.649110,SO2,NA,NA,NA
India,Andhra_Pradesh,Visakhapatnam,"GVM Corporation, Visakhapatnam - APPCB",31-01-2024 22:00:00,17.72,83.3,NO2,16,103,54
India,Andhra_Pradesh,Visakhapatnam,"GVM Corporation, Visakhapatnam - APPCB",31-01-2024 22:00:00,17.72,83.3,NH3,2,7,4
India,Assam,Byrnihat,"Central Academy for SFS, Byrnihat - PCBA",31-01-2024 22:00:00,26.071318,91.87488,PM10,105,500,310
India,Assam,Byrnihat,"Central Academy for SFS, Byrnihat - PCBA",31-01-2024 22:00:00,26.071318,91.87488,SO2,9,18,14
India,Assam,Byrnihat,"Central Academy for SFS, Byrnihat - PCBA",31-01-2024 22:00:00,26.071318,91.87488,OZONE,12,14,12
India,Assam,Guwahati,"IITG, Guwahati - PCBA",31-01-2024 22:00:00,26.2028636,91.70046436,PM2.5,156,355,274
India,Assam,Guwahati,"IITG, Guwahati - PCBA",31-01-2024 22:00:00,26.2028636,91.70046436,NO2,2,13,6
India,Assam,Guwahati,"IITG, Guwahati - PCBA",31-01-2024 22:00:00,26.2028636,91.70046436,CO,14,40,17
India,Assam,Guwahati,"LGBI Airport, Guwahati - PCBA",31-01-2024 22:00:00,26.10887,91.589544,PM10,123,434,225
India,Assam,Guwahati,"LGBI Airport, Guwahati - PCBA",31-01-2024 22:00:00,26.10887,91.589544,CO,20,90,74
India,Assam,Guwahati,"Railway Colony, Guwahati - PCBA",31-01-2024 22:00:00,26.181742,91.78063,CO,30,111,51
India,Assam,Guwahati,"Railway Colony, Guwahati - PCBA",31-01-2024 22:00:00,26.181742,91.78063,OZONE,9,39,24
India,Assam,Nagaon,"Christianpatty, Nagaon - PCBA",31-01-2024 22:00:00,26.349082,92.68449,NH3,2,5,2
India,Assam,Nalbari,"Bata Chowk, Nalbari - PCBA",31-01-2024 22:00:00,26.446912,91.439057,PM2.5,73,407,200
India,Assam,Silchar,"Tarapur, Silchar - PCBA",31-01-2024 22:00:00,24.82827,92.79525,CO,20,70,50
India,Assam,Sivasagar,"Girls College, Sivasagar - PCBA",31-01-2024 22:00:00,26.987634,94.636574,PM2.5,23,63,40
India,Bihar,Arrah,"New DM Office, Arrah - BSPCB",31-01-2024 22:00:00,25.5626095,84.663264,NO2,20,132,51
India,Bihar,Arrah,"New DM Office, Arrah - BSPCB",31-01-2024 22:00:00,25.5626095,84.663264,OZONE,13,39,14
India,Bihar,Aurangabad,"Gurdeo Nagar, Aurangabad - BSPCB",31-01-2024 22:00:00,24.75746,84.366208,NH3,7,14,10
India,Bihar,Bettiah,"Kamalnath Nagar, Bettiah - BSPCB",31-01-2024 22:00:00,26.80365,84.51954,NO2,10,20,15
India,Bihar,Bettiah,"Kamalnath Nagar, Bettiah - BSPCB",31-01-2024 22:00:00,26.80365,84.51954,CO,75,78,77
India,Bihar,Bhagalpur,"DM Office_Kachari Chowk, Bhagalpur - BSPCB",31-01-2024 22:00:00,25.251013,86.989001,PM10,141,426,296
India,Bihar,Bhagalpur,"DM Office_Kachari Chowk, Bhagalpur - BSPCB",31-01-2024 22:00:00,25.251013,86.989001,SO2,5,10,6
India,Bihar,Chhapra,"Darshan Nagar, Chhapra - BSPCB",31-01-2024 22:00:00,25.7808257,84.7446768,NO2,18,38,27
India,Bihar,Chhapra,"Darshan Nagar, Chhapra - BSPCB",31-01-2024 22:00:00,25.7808257,84.7446768,NH3,10,18,14
India,Bihar,Gaya,"Collectorate, Gaya - BSPCB",31-01-2024 22:00:00,24.7955,84.9994,CO,30,52,32
India,Bihar,Gaya,"Kareemganj, Gaya - BSPCB",31-01-2024 22:00:00,24.792403,84.992416,PM10,140,402,224
India,Bihar,Gaya,"Kareemganj, Gaya - BSPCB",31-01-2024 22:00:00,24.792403,84.992416,NH3,1,6,3
India,Bihar,Gaya,"SFTI Kusdihra, Gaya - BSPCB",31-01-2024 22:00:00,24.762518,84.982348,NO2,18,41,32
India,Bihar,Katihar,"Mirchaibari, Katihar - BSPCB",31-01-2024 22:00:00,25.560083,87.553265,PM10,143,427,235
India,Bihar,Katihar,"Mirchaibari, Katihar - BSPCB",31-01-2024 22:00:00,25.560083,87.553265,NH3,3,6,4
India,Bihar,Katihar,"Mirchaibari, Katihar - BSPCB",31-01-2024 22:00:00,25.560083,87.553265,SO2,13,22,18
India,Bihar,Kishanganj,"SDM Office_Khagra, Kishanganj - BSPCB",31-01-2024 22:00:00,26.0881305,87.93840336,SO2,7,15,11
India,Bihar,Manguraha,"Forest Rest House, Manguraha - BSPCB",31-01-2024 22:00:00,27.308328,84.531742,PM2.5,60,307,119
India,Bihar,Manguraha,"Forest Rest House, Manguraha - BSPCB",31-01-2024 22:00:00,27.308328,84.531742,PM10,76,193,117
India,Bihar,Motihari,"Gandak Colony, Motihari - BSPCB",31-01-2024 22:00:00,26.63086,84.90051,PM2.5,143,369,289
India,Bihar,Munger,"Town Hall, Munger - BSPCB",31-01-2024 22:00:00,25.376776,86.471523,PM10,115,328,174
India,Bihar,Munger,"Town Hall, Munger - BSPCB",31-01-2024 22:00:00,25.376776,86.471523,CO,15,184,81
India,Bihar,Muzaffarpur,"Buddha Colony, Muzaffarpur - BSPCB",31-01-2024 22:00:00,26.11442,85.39813,NH3,6,17,12
India,Bihar,Muzaffarpur,"Buddha Colony, Muzaffarpur - BSPCB",31-01-2024 22:00:00,26.11442,85.39813,OZONE,59,168,81
India,Bihar,Muzaffarpur,"MIT-Daudpur Kothi, Muzaffarpur - BSPCB",31-01-2024 22:00:00,26.1403345,85.3650192,NO2,5,9,7
India,Bihar,Muzaffarpur,"MIT-Daudpur Kothi, Muzaffarpur - BSPCB",31-01-2024 22:00:00,26.1403345,85.3650192,OZONE,6,87,43
India,Bihar,Muzaffarpur,"Muzaffarpur Collectorate, Muzaffarpur - BSPCB",31-01-2024 22:00:00,26.1209,85.3647,PM2.5,129,354,287
India,Bihar,Patna,"DRM Office Danapur, Patna - BSPCB",31-01-2024 22:00:00,25.586562,85.043586,NH3,4,5,4
India,Bihar,Patna,"IGSC Planetarium Complex, Patna - BSPCB",31-01-2024 22:00:00,25.610369,85.132568,OZONE,7,24,14
India,Bihar,Patna,"Muradpur, Patna - BSPCB",31-01-2024 22:00:00,25.619651,85.147382,NH3,2,5,4
India,Bihar,Patna,"Muradpur, Patna - BSPCB",31-01-2024 22:00:00,25.619651,85.147382,CO,56,179,98
India,Bihar,Patna,"Rajbansi Nagar, Patna - BSPCB",31-01-2024 22:00:00,25.599486,85.113666,CO,36,119,75
India,Bihar,Patna,"Samanpura, Patna - BSPCB",31-01-2024 22:00:00,25.596727,85.085624,SO2,16,17,16
India,Bihar,Patna,"Samanpura, Patna - BSPCB",31-01-2024 22:00:00,25.596727,85.085624,CO,100,184,181
India,Bihar,Purnia,"Mariam Nagar, Purnia - BSPCB",31-01-2024 22:00:00,25.366336,87.117468,PM10,147,445,266
India,Bihar,Purnia,"Mariam Nagar, Purnia - BSPCB",31-01-2024 22:00:00,25.366336,87.117468,CO,4,137,80
India,Bihar,Rajgir,"Dangi Tola, Rajgir - BSPCB",31-01-2024 22:00:00,25.03280,85.41948,NO2,1,1,1
India,Bihar,Saharsa,"Police Line, Saharsa - BSPCB",31-01-2024 22:00:00,25.892357,86.590325,PM2.5,253,500,387
India,Bihar,Saharsa,"Police Line, Saharsa - BSPCB",31-01-2024 22:00:00,25.892357,86.590325,NO2,5,13,7
India,Bihar,Saharsa,"Police Line, Saharsa - BSPCB",31-01-2024 22:00:00,25.892357,86.590325,OZONE,10,82,49
India,Bihar,Samastipur,"DM Office_Kasipur, Samastipur - BSPCB",31-01-2024 22:00:00,25.859655,85.77944,SO2,2,12,8
India,Bihar,Samastipur,"DM Office_Kasipur, Samastipur - BSPCB",31-01-2024 22:00:00,25.859655,85.77944,CO,4,27,12
India,Bihar,Sasaram,"Dada Peer, Sasaram - BSPCB",31-01-2024 22:00:00,24.952822,84.002396,PM2.5,NA,NA,NA
India,Bihar,Siwan,"Chitragupta Nagar, Siwan - BSPCB",31-01-2024 22:00:00,26.2271665,84.3570427,NO2,21,215,59
India,Chandigarh,Chandigarh,"Sector 22, Chandigarh - CPCC",31-01-2024 22:00:00,30.735567,76.775714,CO,36,108,50
India,Chandigarh,Chandigarh,"Sector 22, Chandigarh - CPCC",31-01-2024 22:00:00,30.735567,76.775714,OZONE,1,151,89
India,Chandigarh,Chandigarh,"Sector-53, Chandigarh - CPCC",31-01-2024 22:00:00,30.719859,76.738637,PM2.5,240,472,362
India,Chandigarh,Chandigarh,"Sector-53, Chandigarh - CPCC",31-01-2024 22:00:00,30.719859,76.738637,PM10,123,449,273
India,Chandigarh,Chandigarh,"Sector-53, Chandigarh - CPCC",31-01-2024 22:00:00,30.719859,76.738637,NO2,29,89,55
India,Chhattisgarh,Bhilai,"32Bungalows, Bhilai - CECB",31-01-2024 22:00:00,21.194815,81.314770,PM2.5,53,84,65
India,Chhattisgarh,Bhilai,"Civic Center, Bhilai - Bhilai Steel Plant",31-01-2024 22:00:00,21.185571,81.343175,PM2.5,46,65,55
India,Chhattisgarh,Bhilai,"Civic Center, Bhilai - Bhilai Steel Plant",31-01-2024 22:00:00,21.185571,81.343175,SO2,6,12,9
India,Chhattisgarh,Bhilai,"Hathkhoj, Bhilai - CECB",31-01-2024 22:00:00,21.224231,81.408350,CO,26,80,34
India,Chhattisgarh,Bilaspur,"Mangala, Bilaspur - NTPC",31-01-2024 22:00:00,22.08815,82.13737,NO2,16,17,16
India,Chhattisgarh,Chhal,"Nawapara SECL Colony, Chhal - CECB",31-01-2024 22:00:00,22.118125,83.140608,PM2.5,80,163,104
India,Chhattisgarh,Korba,"Rampur, Korba - CECB",31-01-2024 22:00:00,22.368195,82.746431,NO2,43,57,52
India,Chhattisgarh,Kunjemura,"OP Jindal School, Kunjemura - CECB",31-01-2024 22:00:00,22.126650,83.483212,PM2.5,60,350,149
India,Chhattisgarh,Kunjemura,"OP Jindal School, Kunjemura - CECB",31-01-2024 22:00:00,22.126650,83.483212,CO,36,80,55
India,Chhattisgarh,Kunjemura,"OP Jindal School, Kunjemura - CECB",31-01-2024 22:00:00,22.126650,83.483212,OZONE,2,54,26
India,Chhattisgarh,Raipur,"AIIMS, Raipur - CECB",31-01-2024 22:00:00,21.258815,81.578979,CO,30,52,44
India,Chhattisgarh,Raipur,"Siltara Phase-II, Raipur - CECB",31-01-2024 22:00:00,21.371751,81.664929,CO,42,72,51
India,Delhi,Delhi,"Alipur, Delhi - DPCC",31-01-2024 22:00:00,28.815329,77.153010,CO,63,87,78
India,Delhi,Delhi,"Bawana, Delhi - DPCC",31-01-2024 22:00:00,28.776200,77.051074,OZONE,3,10,6
India,Delhi,Delhi,"Burari Crossing, Delhi - IMD",31-01-2024 22:00:00,28.7256504,77.2011573,NO2,5,11,8
India,Delhi,Delhi,"CRRI Mathura Road, Delhi - IMD",31-01-2024 22:00:00,28.5512005,77.2735737,NO2,13,89,44
India,Delhi,Delhi,"Dr. Karni Singh Shooting Range, Delhi - DPCC",31-01-2024 22:00:00,28.498571,77.264840,NO2,64,129,93
India,Delhi,Delhi,"ITO, Delhi - CPCB",31-01-2024 22:00:00,28.628624,77.241060,NO2,24,162,98
India,Delhi,Delhi,"ITO, Delhi - CPCB",31-01-2024 22:00:00,28.628624,77.241060,NH3,6,10,8
India,Delhi,Delhi,"Jahangirpuri, Delhi - DPCC",31-01-2024 22:00:00,28.732820,77.170633,NO2,42,106,65
India,Delhi,Delhi,"Jahangirpuri, Delhi - DPCC",31-01-2024 22:00:00,28.732820,77.170633,NH3,10,19,15
India,Delhi,Delhi,"Jahangirpuri, Delhi - DPCC",31-01-2024 22:00:00,28.732820,77.170633,OZONE,4,168,32
India,Delhi,Delhi,"Lodhi Road, Delhi - IITM",31-01-2024 22:00:00,28.588333,77.221667,SO2,NA,NA,NA
India,Delhi,Delhi,"Lodhi Road, Delhi - IITM",31-01-2024 22:00:00,28.588333,77.221667,CO,NA,NA,NA
India,Delhi,Delhi,"Lodhi Road, Delhi - IMD",31-01-2024 22:00:00,28.5918245,77.2273074,PM10,175,410,266
India,Delhi,Delhi,"Lodhi Road, Delhi - IMD",31-01-2024 22:00:00,28.5918245,77.2273074,NO2,5,7,6
India,Delhi,Delhi,"Major Dhyan Chand National Stadium, Delhi - DPCC",31-01-2024 22:00:00,28.611281,77.237738,PM10,163,419,295
India,Delhi,Delhi,"Major Dhyan Chand National Stadium, Delhi - DPCC",31-01-2024 22:00:00,28.611281,77.237738,CO,28,107,42
India,Delhi,Delhi,"Major Dhyan Chand National Stadium, Delhi - DPCC",31-01-2024 22:00:00,28.611281,77.237738,OZONE,2,11,6
India,Delhi,Delhi,"Mandir Marg, Delhi - DPCC",31-01-2024 22:00:00,28.636429,77.201067,NO2,92,125,109
India,Delhi,Delhi,"Mundka, Delhi - DPCC",31-01-2024 22:00:00,28.684678,77.076574,OZONE,3,9,6
India,Delhi,Delhi,"NSIT Dwarka, Delhi - CPCB",31-01-2024 22:00:00,28.60909,77.0325413,CO,32,108,62
India,Delhi,Delhi,"Narela, Delhi - DPCC",31-01-2024 22:00:00,28.822836,77.101981,NO2,36,71,51
India,Delhi,Delhi,"Narela, Delhi - DPCC",31-01-2024 22:00:00,28.822836,77.101981,CO,86,108,99
India,Delhi,Delhi,"Nehru Nagar, Delhi - DPCC",31-01-2024 22:00:00,28.567890,77.250515,NH3,11,20,15
India,Delhi,Delhi,"New Moti Bagh, Delhi - MHUA",31-01-2024 22:00:00,28.57834,77.18400,NO2,1,10,5
India,Delhi,Delhi,"North Campus, DU, Delhi - IMD",31-01-2024 22:00:00,28.6573814,77.1585447,CO,73,107,84
India,Delhi,Delhi,"Okhla Phase-2, Delhi - DPCC",31-01-2024 22:00:00,28.530785,77.271255,NH3,16,23,19
India,Delhi,Delhi,"Pusa, Delhi - DPCC",31-01-2024 22:00:00,28.639652,77.146275,SO2,6,14,11
India,Delhi,Delhi,"Pusa, Delhi - DPCC",31-01-2024 22:00:00,28.639652,77.146275,OZONE,18,35,20
India,Delhi,Delhi,"Pusa, Delhi - IMD",31-01-2024 22:00:00,28.636110,77.173332,OZONE,12,15,13
India,Delhi,Delhi,"R K Puram, Delhi - DPCC",31-01-2024 22:00:00,28.563262,77.186937,PM2.5,362,500,426
India,Delhi,Delhi,"R K Puram, Delhi - DPCC",31-01-2024 22:00:00,28.563262,77.186937,SO2,13,39,23
India,Delhi,Delhi,"R K Puram, Delhi - DPCC",31-01-2024 22:00:00,28.563262,77.186937,CO,110,165,113
India,Delhi,Delhi,"Rohini, Delhi - DPCC",31-01-2024 22:00:00,28.732528,77.119920,CO,14,121,89
India,Delhi,Delhi,"Rohini, Delhi - DPCC",31-01-2024 22:00:00,28.732528,77.119920,OZONE,3,46,11
India,Delhi,Delhi,"Shadipur, Delhi - CPCB",31-01-2024 22:00:00,28.6514781,77.1473105,NO2,38,64,52
India,Delhi,Delhi,"Sirifort, Delhi - CPCB",31-01-2024 22:00:00,28.5504249,77.2159377,OZONE,17,72,28
India,Delhi,Delhi,"Wazirpur, Delhi - DPCC",31-01-2024 22:00:00,28.699793,77.165453,SO2,21,76,47
India,Gujarat,Ahmedabad,"Chandkheda, Ahmedabad - IITM",31-01-2024 22:00:00,23.107969,72.574648,PM2.5,59,315,142
India,Gujarat,Ahmedabad,"Gyaspur, Ahmedabad - IITM",31-01-2024 22:00:00,22.977134,72.553024,PM2.5,44,314,110
India,Gujarat,Ahmedabad,"Gyaspur, Ahmedabad - IITM",31-01-2024 22:00:00,22.977134,72.553024,OZONE,10,19,18
India,Gujarat,Ahmedabad,"SAC ISRO Satellite, Ahmedabad - IITM",31-01-2024 22:00:00,23.023389,72.515201,CO,42,50,46
India,Gujarat,Ahmedabad,"SAC ISRO Satellite, Ahmedabad - IITM",31-01-2024 22:00:00,23.023389,72.515201,OZONE,2,25,13
India,Gujarat,Ahmedabad,"Sardar Vallabhbhai Patel Stadium, Ahmedabad - IITM",31-01-2024 22:00:00,23.043070,72.562968,NO2,12,14,13
India,Gujarat,Ahmedabad,"Sardar Vallabhbhai Patel Stadium, Ahmedabad - IITM",31-01-2024 22:00:00,23.043070,72.562968,CO,26,102,43
India,Gujarat,Ankleshwar,"GIDC, Ankleshwar - GPCB",31-01-2024 22:00:00,21.613267,73.010555,CO,34,128,59
India,Gujarat,Gandhinagar,"GIFT City, Gandhinagar - IITM",31-01-2024 22:00:00,23.163798,72.677768,PM2.5,72,319,148
India,Gujarat,Gandhinagar,"IIPHG Lekawada, Gandhinagar - IITM",31-01-2024 22:00:00,23.243639,72.68994,NO2,13,15,13
India,Gujarat,Gandhinagar,"Sector-10, Gandhinagar - GPCB",31-01-2024 22:00:00,23.221714,72.654328,PM10,60,240,99
India,Gujarat,Gandhinagar,"Sector-10, Gandhinagar - GPCB",31-01-2024 22:00:00,23.221714,72.654328,OZONE,1,29,15
India,Gujarat,Surat,"Science Center, Surat - SMC",31-01-2024 22:00:00,21.170046,72.795405,CO,49,106,66
India,Gujarat,Vatva,"Phase-4 GIDC, Vatva - GPCB",31-01-2024 22:00:00,22.969611,72.643500,CO,38,40,39
India,Haryana,Ambala,"Patti Mehar, Ambala - HSPCB",31-01-2024 22:00:00,30.379589,76.778328,PM2.5,1,216,98
India,Haryana,Ambala,"Patti Mehar, Ambala - HSPCB",31-01-2024 22:00:00,30.379589,76.778328,PM10,1,142,93
India,Haryana,Ambala,"Patti Mehar, Ambala - HSPCB",31-01-2024 22:00:00,30.379589,76.778328,NO2,2,3,3
India,Haryana,Ambala,"Patti Mehar, Ambala - HSPCB",31-01-2024 22:00:00,30.379589,76.778328,CO,30,54,40
India,Haryana,Ballabgarh,"Nathu Colony, Ballabgarh - HSPCB",31-01-2024 22:00:00,28.3419248,77.319699,NO2,9,13,12
India,Haryana,Ballabgarh,"Nathu Colony, Ballabgarh - HSPCB",31-01-2024 22:00:00,28.3419248,77.319699,SO2,5,131,25
India,Haryana,Charkhi Dadri,"Mini Secretariat, Charkhi Dadri - HSPCB",31-01-2024 22:00:00,28.593883,76.270653,PM10,45,144,99
India,Haryana,Charkhi Dadri,"Mini Secretariat, Charkhi Dadri - HSPCB",31-01-2024 22:00:00,28.593883,76.270653,OZONE,13,17,16
India,Haryana,Dharuhera,"Municipal Corporation Office, Dharuhera -  HSPCB",31-01-2024 22:00:00,28.206800,76.799700,NO2,45,112,72
India,Haryana,Dharuhera,"Municipal Corporation Office, Dharuhera -  HSPCB",31-01-2024 22:00:00,28.206800,76.799700,NH3,9,26,19
India,Haryana,Faridabad,"Sector 11, Faridabad - HSPCB",31-01-2024 22:00:00,28.376058,77.315741,CO,53,84,62
India,Haryana,Faridabad,"Sector 30, Faridabad - HSPCB",31-01-2024 22:00:00,28.4417,77.3217,CO,58,124,113
India,Haryana,Faridabad,"Sector- 16A, Faridabad - HSPCB",31-01-2024 22:00:00,28.4088421,77.3099081,CO,21,129,63
India,Haryana,Fatehabad,"Huda Sector, Fatehabad - HSPCB",31-01-2024 22:00:00,29.503664,75.467934,PM2.5,62,206,125
India,Haryana,Fatehabad,"Huda Sector, Fatehabad - HSPCB",31-01-2024 22:00:00,29.503664,75.467934,CO,5,10,8
India,Haryana,Fatehabad,"Huda Sector, Fatehabad - HSPCB",31-01-2024 22:00:00,29.503664,75.467934,OZONE,20,35,26
India,Haryana,Gurugram,"NISE Gwal Pahari, Gurugram - IMD",31-01-2024 22:00:00,28.422681,77.148944,NO2,NA,NA,NA
India,Haryana,Gurugram,"Sector-51, Gurugram - HSPCB",31-01-2024 22:00:00,28.4227,77.0667,NO2,13,29,25
India,Haryana,Gurugram,"Sector-51, Gurugram - HSPCB",31-01-2024 22:00:00,28.4227,77.0667,CO,96,125,107
India,Haryana,Gurugram,"Teri Gram, Gurugram - HSPCB",31-01-2024 22:00:00,28.4275,77.1465,PM2.5,262,422,349
India,Haryana,Gurugram,"Teri Gram, Gurugram - HSPCB",31-01-2024 22:00:00,28.4275,77.1465,SO2,3,5,4
India,Haryana,Gurugram,"Vikas Sadan, Gurugram - HSPCB",31-01-2024 22:00:00,28.4501238,77.0263051,CO,54,139,98
India,Haryana,Hisar,"Urban Estate-II, Hisar - HSPCB",31-01-2024 22:00:00,29.140560,75.744941,OZONE,25,41,36
India,Haryana,Jind,"Police Lines, Jind - HSPCB",31-01-2024 22:00:00,29.307814,76.337619,NO2,7,14,11
India,Haryana,Jind,"Police Lines, Jind - HSPCB",31-01-2024 22:00:00,29.307814,76.337619,OZONE,1,19,12
India,Haryana,Karnal,"Sector-12, Karnal - HSPCB",31-01-2024 22:00:00,29.695300,77.002700,NO2,7,12,10
India,Haryana,Kurukshetra,"Sector-7, Kurukshetra - HSPCB",31-01-2024 22:00:00,29.966942,76.875879,PM10,104,179,131
India,Haryana,Kurukshetra,"Sector-7, Kurukshetra - HSPCB",31-01-2024 22:00:00,29.966942,76.875879,OZONE,1,46,26
India,Haryana,Mandikhera,"General Hospital, Mandikhera - HSPCB",31-01-2024 22:00:00,27.9002,76.9938,PM10,107,201,157
India,Haryana,Mandikhera,"General Hospital, Mandikhera - HSPCB",31-01-2024 22:00:00,27.9002,76.9938,NO2,16,21,19
India,Haryana,Mandikhera,"General Hospital, Mandikhera - HSPCB",31-01-2024 22:00:00,27.9002,76.9938,OZONE,21,37,27
India,Haryana,Manesar,"Sector-2 IMT, Manesar - HSPCB",31-01-2024 22:00:00,28.360699,76.936090,PM10,146,231,187
India,Haryana,Narnaul,"Shastri Nagar, Narnaul - HSPCB",31-01-2024 22:00:00,28.060249,76.113115,PM10,56,179,103
India,Haryana,Narnaul,"Shastri Nagar, Narnaul - HSPCB",31-01-2024 22:00:00,28.060249,76.113115,NH3,5,18,11
India,Haryana,Narnaul,"Shastri Nagar, Narnaul - HSPCB",31-01-2024 22:00:00,28.060249,76.113115,OZONE,5,85,41
India,Haryana,Palwal,"Shyam Nagar, Palwal - HSPCB",31-01-2024 22:00:00,28.1485564,77.3320667,SO2,9,20,15
India,Haryana,Panchkula,"Sector-6, Panchkula - HSPCB ",31-01-2024 22:00:00,30.7057778,76.8531805555555,SO2,11,12,12
India,Haryana,Rohtak,"MD University, Rohtak - HSPCB",31-01-2024 22:00:00,28.52123,76.37138,PM2.5,11,437,154
India,Haryana,Rohtak,"MD University, Rohtak - HSPCB",31-01-2024 22:00:00,28.52123,76.37138,SO2,5,25,8
India,Haryana,Rohtak,"MD University, Rohtak - HSPCB",31-01-2024 22:00:00,28.52123,76.37138,CO,10,52,26
India,Haryana,Rohtak,"MD University, Rohtak - HSPCB",31-01-2024 22:00:00,28.52123,76.37138,OZONE,45,54,49
India,Haryana,Sirsa,"F-Block, Sirsa - HSPCB",31-01-2024 22:00:00,29.536400,75.015800,PM2.5,26,102,59
India,Haryana,Sirsa,"F-Block, Sirsa - HSPCB",31-01-2024 22:00:00,29.536400,75.015800,PM10,44,86,60
India,Haryana,Sirsa,"F-Block, Sirsa - HSPCB",31-01-2024 22:00:00,29.536400,75.015800,SO2,36,48,43
India,Haryana,Sirsa,"F-Block, Sirsa - HSPCB",31-01-2024 22:00:00,29.536400,75.015800,CO,68,79,71
India,Haryana,Sonipat,"Murthal, Sonipat - HSPCB",31-01-2024 22:00:00,29.027200,77.062100,SO2,12,29,20
India,Haryana,Yamuna Nagar,"Gobind Pura, Yamuna Nagar - HSPCB",31-01-2024 22:00:00,30.1480566,77.2893471,NH3,1,6,3
India,Himachal Pradesh,Baddi,"HIMUDA Complex Phase-1, Baddi - HPPCB",31-01-2024 22:00:00,30.943887,76.801991,PM2.5,48,358,239
India,Himachal Pradesh,Baddi,"HIMUDA Complex Phase-1, Baddi - HPPCB",31-01-2024 22:00:00,30.943887,76.801991,OZONE,9,84,67
India,Jammu_and_Kashmir,Srinagar,"Rajbagh, Srinagar - JKSPCB",31-01-2024 22:00:00,34.066206,74.819820,PM10,NA,NA,NA
India,Jammu_and_Kashmir,Srinagar,"Rajbagh, Srinagar - JKSPCB",31-01-2024 22:00:00,34.066206,74.819820,CO,NA,NA,NA
India,Jharkhand,Dhanbad,"Sardar Patel Nagar, Dhanbad - JSPCB",31-01-2024 22:00:00,23.80569,86.44268,PM2.5,70,346,179
India,Karnataka,Bagalkot,"Vidayagiri, Bagalkot - KSPCB",31-01-2024 22:00:00,16.172806,75.659694,NO2,10,11,10
India,Karnataka,Bengaluru,"BTM Layout, Bengaluru - CPCB",31-01-2024 22:00:00,12.9135218,77.5950804,NH3,2,6,4
India,Karnataka,Bengaluru,"Bapuji Nagar, Bengaluru - KSPCB",31-01-2024 22:00:00,12.951913,77.539784,PM10,87,236,128
India,Karnataka,Bengaluru,"City Railway Station, Bengaluru - KSPCB",31-01-2024 22:00:00,12.9756843,77.5660749,CO,50,148,72
India,Karnataka,Bengaluru,"Hebbal, Bengaluru - KSPCB",31-01-2024 22:00:00,13.029152,77.585901,CO,NA,NA,NA
India,Karnataka,Bengaluru,"Hombegowda Nagar, Bengaluru - KSPCB",31-01-2024 22:00:00,12.938539,77.590100,OZONE,4,5,4
India,Karnataka,Bengaluru,"Kasturi Nagar, Bengaluru - KSPCB",31-01-2024 22:00:00,13.003872,77.664217,CO,24,25,25
India,Karnataka,Bengaluru,"Peenya, Bengaluru - CPCB",31-01-2024 22:00:00,13.0270199,77.494094,PM2.5,63,188,86
India,Karnataka,Bengaluru,"Sanegurava Halli, Bengaluru - KSPCB",31-01-2024 22:00:00,12.990328,77.5431385,PM10,45,145,101
India,Karnataka,Bengaluru,"Sanegurava Halli, Bengaluru - KSPCB",31-01-2024 22:00:00,12.990328,77.5431385,CO,6,130,43
India,Karnataka,Bengaluru,"Shivapura_Peenya, Bengaluru - KSPCB",31-01-2024 22:00:00,13.0246342,77.5080115,NO2,NA,NA,NA
India,Karnataka,Bengaluru,"Silk Board, Bengaluru - KSPCB",31-01-2024 22:00:00,12.917348,77.622813,PM2.5,60,263,103
India,Karnataka,Bidar,"Naubad, Bidar - KSPCB",31-01-2024 22:00:00,17.930306,77.482194,PM10,78,117,99
India,Karnataka,Bidar,"Naubad, Bidar - KSPCB",31-01-2024 22:00:00,17.930306,77.482194,SO2,15,20,17
India,Karnataka,Chamarajanagar,"Urban, Chamarajanagar - KSPCB",31-01-2024 22:00:00,11.55358,76.55521,PM2.5,21,55,35
India,Karnataka,Chikkamagaluru,"Kalyana Nagara, Chikkamagaluru - KSPCB",31-01-2024 22:00:00,13.328028,75.797056,NH3,4,6,5
India,Karnataka,Dharwad,"Kalabhavan, Dharwad - KSPCB",31-01-2024 22:00:00,15.459706,75.008381,NH3,3,3,3
India,Karnataka,Gadag,"Panchal Nagar, Gadag - KSPCB",31-01-2024 22:00:00,15.411456,75.638133,NO2,7,22,13
India,Karnataka,Hassan,"B.Katihalli, Hassan - KSPCB",31-01-2024 22:00:00,13.008556,76.125258,PM10,NA,NA,NA
India,Karnataka,Hassan,"B.Katihalli, Hassan - KSPCB",31-01-2024 22:00:00,13.008556,76.125258,NO2,NA,NA,NA
India,Karnataka,Haveri,"Ashwini Nagar, Haveri - KSPCB",31-01-2024 22:00:00,14.791800,75.389600,SO2,13,14,14
India,Karnataka,Haveri,"Ashwini Nagar, Haveri - KSPCB",31-01-2024 22:00:00,14.791800,75.389600,CO,34,35,34
India,Karnataka,Haveri,"Ashwini Nagar, Haveri - KSPCB",31-01-2024 22:00:00,14.791800,75.389600,OZONE,18,20,19
India,Karnataka,Hubballi,"Deshpande Nagar, Hubballi - KSPCB",31-01-2024 22:00:00,15.351773,75.140726,PM2.5,NA,NA,NA
India,Karnataka,Hubballi,"Deshpande Nagar, Hubballi - KSPCB",31-01-2024 22:00:00,15.351773,75.140726,CO,NA,NA,NA
India,Karnataka,Hubballi,"Lingaraj Nagar, Hubballi - KSPCB",31-01-2024 22:00:00,15.3714823,75.1160168,NH3,2,2,2
India,Karnataka,Hubballi,"Lingaraj Nagar, Hubballi - KSPCB",31-01-2024 22:00:00,15.3714823,75.1160168,CO,33,99,50
India,Karnataka,Kalaburagi,"Lal Bahadur Shastri Nagar, Kalaburagi - KSPCB",31-01-2024 22:00:00,17.321993,76.822628,NO2,11,12,11
India,Karnataka,Kalaburagi,"Mahatma Basaveswar Colony, Kalaburgi - KSPCB",31-01-2024 22:00:00,17.336318,76.847397,SO2,5,9,6
India,Karnataka,Kalaburagi,"Mahatma Basaveswar Colony, Kalaburgi - KSPCB",31-01-2024 22:00:00,17.336318,76.847397,CO,38,92,60
India,Karnataka,Karwar,"KHB Colony, Karwar - KSPCB",31-01-2024 22:00:00,14.816666,74.141003,SO2,13,18,17
India,Karnataka,Karwar,"KHB Colony, Karwar - KSPCB",31-01-2024 22:00:00,14.816666,74.141003,OZONE,21,22,21
India,Karnataka,Kolar,"Tamaka Ind. Area, Kolar - KSPCB",31-01-2024 22:00:00,13.1276288,78.1570122,NO2,NA,NA,NA
India,Karnataka,Koppal,"Diwator Nagar, Koppal - KSPCB",31-01-2024 22:00:00,15.347630,76.181767,SO2,75,79,77
India,Karnataka,Madikeri,"Stuart Hill, Madikeri - KSPCB",31-01-2024 22:00:00,12.415911,75.735050,NH3,1,1,1
India,Karnataka,Madikeri,"Stuart Hill, Madikeri - KSPCB",31-01-2024 22:00:00,12.415911,75.735050,OZONE,38,52,43
India,Karnataka,Mangalore,"Kadri, Mangalore - KSPCB",31-01-2024 22:00:00,12.889250,74.853000,SO2,17,21,19
India,Karnataka,Mysuru,"Hebbal 1st Stage, Mysuru - KSPCB",31-01-2024 22:00:00,12.21041,76.37376,SO2,1,5,3
India,Karnataka,Ramanagara,"Vijay Nagar, Ramanagara - KSPCB",31-01-2024 22:00:00,12.733409,77.298051,PM2.5,49,132,80
India,Karnataka,Ramanagara,"Vijay Nagar, Ramanagara - KSPCB",31-01-2024 22:00:00,12.733409,77.298051,SO2,21,35,26
India,Karnataka,Tumakuru,"Thimmalapura, Tumakuru - KSPCB",31-01-2024 22:00:00,13.377516,77.099072,SO2,6,16,10
India,Karnataka,Udupi,"Brahmagiri, Udupi - KSPCB",31-01-2024 22:00:00,13.34194444,74.74694444,PM10,41,88,58
India,Karnataka,Udupi,"Brahmagiri, Udupi - KSPCB",31-01-2024 22:00:00,13.34194444,74.74694444,SO2,22,25,23
India,Karnataka,Vijayapura,"Ibrahimpur, Vijayapura - KSPCB",31-01-2024 22:00:00,16.802639,75.722694,PM2.5,25,31,30
India,Karnataka,Vijayapura,"Ibrahimpur, Vijayapura - KSPCB",31-01-2024 22:00:00,16.802639,75.722694,PM10,38,39,39
India,Karnataka,Vijayapura,"Ibrahimpur, Vijayapura - KSPCB",31-01-2024 22:00:00,16.802639,75.722694,NH3,2,2,2
India,Karnataka,Vijayapura,"Ibrahimpur, Vijayapura - KSPCB",31-01-2024 22:00:00,16.802639,75.722694,SO2,NA,NA,NA
India,Karnataka,Yadgir,"Collector Office, Yadgir - KSPCB",31-01-2024 22:00:00,16.7602,77.1428,NH3,1,2,1
India,Kerala,Kannur,"Thavakkara, Kannur - Kerala PCB",31-01-2024 22:00:00,11.875000,75.373200,PM2.5,44,53,47
India,Kerala,Kannur,"Thavakkara, Kannur - Kerala PCB",31-01-2024 22:00:00,11.875000,75.373200,PM10,58,70,62
India,Kerala,Kannur,"Thavakkara, Kannur - Kerala PCB",31-01-2024 22:00:00,11.875000,75.373200,OZONE,31,35,32
India,Kerala,Kochi,"Vyttila, Kochi - Kerala PCB",31-01-2024 22:00:00,9.969447,76.321186,NO2,2,12,4
India,Kerala,Kollam,"Polayathode, Kollam - Kerala PCB",31-01-2024 22:00:00,8.8787,76.6073,NO2,8,9,8
India,Kerala,Thiruvananthapuram,"Kariavattom, Thiruvananthapuram - Kerala PCB",31-01-2024 22:00:00,8.563700,76.886500,PM10,75,85,80
India,Kerala,Thiruvananthapuram,"Kariavattom, Thiruvananthapuram - Kerala PCB",31-01-2024 22:00:00,8.563700,76.886500,NH3,1,1,1
India,Kerala,Thiruvananthapuram,"Plammoodu, Thiruvananthapuram - Kerala PCB",31-01-2024 22:00:00,8.5149093,76.9435879,PM10,17,59,44
India,Kerala,Thiruvananthapuram,"Plammoodu, Thiruvananthapuram - Kerala PCB",31-01-2024 22:00:00,8.5149093,76.9435879,NH3,2,2,2
India,Kerala,Thiruvananthapuram,"Plammoodu, Thiruvananthapuram - Kerala PCB",31-01-2024 22:00:00,8.5149093,76.9435879,SO2,3,17,11
India,Kerala,Thiruvananthapuram,"Plammoodu, Thiruvananthapuram - Kerala PCB",31-01-2024 22:00:00,8.5149093,76.9435879,OZONE,4,36,14
India,Kerala,Thrissur,"Corporation Ground, Thrissur - Kerala PCB",31-01-2024 22:00:00,10.532400,76.215900,CO,14,133,38
India,Madhya Pradesh,Bhopal,"Idgah Hills, Bhopal - MPPCB",31-01-2024 22:00:00,23.264759,77.381568,NH3,4,4,4
India,Madhya Pradesh,Bhopal,"Idgah Hills, Bhopal - MPPCB",31-01-2024 22:00:00,23.264759,77.381568,OZONE,27,125,76
India,Madhya Pradesh,Bhopal,"Paryavaran Parisar, Bhopal - MPPCB",31-01-2024 22:00:00,23.210494,77.425409,CO,6,130,67
India,Madhya Pradesh,Bhopal,"T T Nagar, Bhopal - MPPCB",31-01-2024 22:00:00,23.233584,77.400574,OZONE,3,127,65
India,Madhya Pradesh,Dewas,"Bhopal Chauraha, Dewas - MPPCB",31-01-2024 22:00:00,22.9682591,76.064118,PM2.5,NA,NA,NA
India,Madhya Pradesh,Dewas,"Bhopal Chauraha, Dewas - MPPCB",31-01-2024 22:00:00,22.9682591,76.064118,NO2,NA,NA,NA
India,Madhya Pradesh,Gwalior,"City Center, Gwalior - MPPCB",31-01-2024 22:00:00,26.203442,78.193251,PM2.5,75,333,221
India,Madhya Pradesh,Gwalior,"Deen Dayal Nagar, Gwalior - MPPCB",31-01-2024 22:00:00,26.259242,78.216432,CO,4,110,37
India,Madhya Pradesh,Gwalior,"Phool Bagh, Gwalior - Mondelez Ind. Food",31-01-2024 22:00:00,26.210536,78.171,SO2,11,21,13
India,Madhya Pradesh,Gwalior,"Phool Bagh, Gwalior - Mondelez Ind. Food",31-01-2024 22:00:00,26.210536,78.171,CO,35,66,38
India,Madhya Pradesh,Indore,"Chhoti Gwaltoli, Indore - MPPCB",31-01-2024 22:00:00,22.4310,75.5213,PM2.5,68,378,161
India,Madhya Pradesh,Indore,"Chhoti Gwaltoli, Indore - MPPCB",31-01-2024 22:00:00,22.4310,75.5213,SO2,11,26,16
India,Madhya Pradesh,Indore,"Chhoti Gwaltoli, Indore - MPPCB",31-01-2024 22:00:00,22.4310,75.5213,CO,50,158,158
India,Madhya Pradesh,Indore,"Maguda Nagar, Indore - IMC",31-01-2024 22:00:00,22.7524,75.8872,NO2,5,7,6
India,Madhya Pradesh,Indore,"Maguda Nagar, Indore - IMC",31-01-2024 22:00:00,22.7524,75.8872,SO2,19,25,21
India,Madhya Pradesh,Indore,"Regional Park, Indore - IMC",31-01-2024 22:00:00,22.6780,75.8559,CO,8,48,28
India,Madhya Pradesh,Indore,"Residency Area, Indore - IMC",31-01-2024 22:00:00,22.7084,75.8815,OZONE,11,16,13
India,Madhya Pradesh,Jabalpur,"Govindh Bhavan Colony, Jabalpur - JMC",31-01-2024 22:00:00,23.163174,79.973061,CO,20,57,34
India,Madhya Pradesh,Jabalpur,"Marhatal, Jabalpur - MPPCB",31-01-2024 22:00:00,23.168606,79.932247,CO,54,138,109
India,Madhya Pradesh,Jabalpur,"Suhagi, Jabalpur - JMC",31-01-2024 22:00:00,23.218135,79.957770,SO2,17,96,46
India,Madhya Pradesh,Maihar,"Sahilara, Maihar - KJS Cements",31-01-2024 22:00:00,24.2613009,80.7231783,PM10,40,95,71
India,Madhya Pradesh,Maihar,"Sahilara, Maihar - KJS Cements",31-01-2024 22:00:00,24.2613009,80.7231783,NO2,14,14,14
India,Madhya Pradesh,Maihar,"Sahilara, Maihar - KJS Cements",31-01-2024 22:00:00,24.2613009,80.7231783,SO2,14,22,16
India,Madhya Pradesh,Maihar,"Sahilara, Maihar - KJS Cements",31-01-2024 22:00:00,24.2613009,80.7231783,CO,26,49,28
India,Madhya Pradesh,Mandideep,"Sector-D Industrial Area, Mandideep - MPPCB",31-01-2024 22:00:00,23.108440,77.511428,PM2.5,61,327,174
India,Madhya Pradesh,Pithampur,"Sector-2 Industrial Area, Pithampur - MPPCB",31-01-2024 22:00:00,22.624758,75.675238,PM2.5,39,301,116
India,Madhya Pradesh,Pithampur,"Sector-2 Industrial Area, Pithampur - MPPCB",31-01-2024 22:00:00,22.624758,75.675238,OZONE,30,70,59
India,Madhya Pradesh,Sagar,"Civil Lines, Sagar - MPPCB",31-01-2024 22:00:00,23.838586,78.759431,PM2.5,63,289,170
India,Madhya Pradesh,Sagar,"Civil Lines, Sagar - MPPCB",31-01-2024 22:00:00,23.838586,78.759431,PM10,86,148,119
India,Madhya Pradesh,Sagar,"Civil Lines, Sagar - MPPCB",31-01-2024 22:00:00,23.838586,78.759431,SO2,3,6,4
India,Madhya Pradesh,Sagar,"Deen Dayal Nagar, Sagar - MPPCB",31-01-2024 22:00:00,23.8640158,78.80289321,CO,50,107,78
India,Madhya Pradesh,Satna,"Bandhavgar Colony, Satna - Birla Cement",31-01-2024 22:00:00,24.58434363,80.8549414,SO2,6,26,11
India,Madhya Pradesh,Singrauli,"Suryakiran Bhawan NCL, Singrauli - MPPCB",31-01-2024 22:00:00,24.108970,82.645580,NO2,3,19,10
India,Madhya Pradesh,Singrauli,"Suryakiran Bhawan NCL, Singrauli - MPPCB",31-01-2024 22:00:00,24.108970,82.645580,CO,22,146,91
India,Madhya Pradesh,Singrauli,"Suryakiran Bhawan NCL, Singrauli - MPPCB",31-01-2024 22:00:00,24.108970,82.645580,OZONE,17,76,37
India,Madhya Pradesh,Ujjain,"Mahakaleshwar Temple, Ujjain - MPPCB",31-01-2024 22:00:00,23.182719 ,75.768218 ,PM2.5,42,310,137
India,Madhya Pradesh,Ujjain,"Mahakaleshwar Temple, Ujjain - MPPCB",31-01-2024 22:00:00,23.182719 ,75.768218 ,SO2,7,15,11
India,Maharashtra,Ahmednagar,"Tarakpur, Ahmednagar - MPCB",31-01-2024 22:00:00,19.10122,74.73339,NH3,3,6,4
India,Maharashtra,Ahmednagar,"Tarakpur, Ahmednagar - MPCB",31-01-2024 22:00:00,19.10122,74.73339,SO2,12,19,15
India,Maharashtra,Akola,"Ramdaspeth, Akola - MPCB",31-01-2024 22:00:00,20.719516,77.000253,PM10,73,284,126
India,Maharashtra,Akola,"Ramdaspeth, Akola - MPCB",31-01-2024 22:00:00,20.719516,77.000253,OZONE,6,69,43
India,Maharashtra,Amravati,"Shivneri Colony, Amravati - MPCB",31-01-2024 22:00:00,20.9402359,77.7895248,PM2.5,77,128,99
India,Maharashtra,Amravati,"Shivneri Colony, Amravati - MPCB",31-01-2024 22:00:00,20.9402359,77.7895248,CO,16,59,33
India,Maharashtra,Aurangabad,"More Chowk Waluj, Aurangabad - MPCB",31-01-2024 22:00:00,19.8389439,75.244448,PM10,52,142,102
India,Maharashtra,Aurangabad,"More Chowk Waluj, Aurangabad - MPCB",31-01-2024 22:00:00,19.8389439,75.244448,SO2,9,13,12
India,Maharashtra,Aurangabad,"More Chowk Waluj, Aurangabad - MPCB",31-01-2024 22:00:00,19.8389439,75.244448,OZONE,1,29,11
India,Maharashtra,Aurangabad,"Rachnakar Colony, Aurangabad - MPCB",31-01-2024 22:00:00,19.863756,75.321188,SO2,6,52,26
India,Maharashtra,Badlapur,"Katrap, Badlapur - MPCB",31-01-2024 22:00:00,19.16485,73.23409,NO2,23,97,54
India,Maharashtra,Belapur,"CBD Belapur, Belapur - MPCB",31-01-2024 22:00:00,19.0243902,73.0406721,NO2,19,86,54
India,Maharashtra,Belapur,"CBD Belapur, Belapur - MPCB",31-01-2024 22:00:00,19.0243902,73.0406721,SO2,2,11,4
India,Maharashtra,Bhiwandi,"Gokul Nagar, Bhiwandi - MPCB",31-01-2024 22:00:00,19.309073,73.057223,SO2,9,46,20
India,Maharashtra,Bhiwandi,"Gokul Nagar, Bhiwandi - MPCB",31-01-2024 22:00:00,19.309073,73.057223,OZONE,2,51,29
India,Maharashtra,Chandrapur,"Chauhan Colony, Chandrapur - MPCB",31-01-2024 22:00:00,19.962900,79.298714,NO2,13,29,17
India,Maharashtra,Chandrapur,"Chauhan Colony, Chandrapur - MPCB",31-01-2024 22:00:00,19.962900,79.298714,NH3,2,2,2
India,Maharashtra,Dhule,"Deopur, Dhule - MPCB",31-01-2024 22:00:00,20.918946,74.776388,NH3,1,10,4
India,Maharashtra,Dhule,"Deopur, Dhule - MPCB",31-01-2024 22:00:00,20.918946,74.776388,CO,20,38,23
India,Maharashtra,Jalgaon,"Prabhat Colony, Jalgaon - MPCB",31-01-2024 22:00:00,21.001264,75.565602,NH3,1,1,1
India,Maharashtra,Kalyan,"Khadakpada, Kalyan - MPCB",31-01-2024 22:00:00,19.25292,73.142019,PM10,94,184,133
India,Maharashtra,Kalyan,"Khadakpada, Kalyan - MPCB",31-01-2024 22:00:00,19.25292,73.142019,NH3,1,3,1
India,Maharashtra,Kolhapur,"Shivaji University, Kolhapur - MPCB",31-01-2024 22:00:00,16.6870449,74.2505872,PM10,101,219,132
India,Maharashtra,Kolhapur,"Shivaji University, Kolhapur - MPCB",31-01-2024 22:00:00,16.6870449,74.2505872,SO2,2,15,5
India,Maharashtra,Kolhapur,"Sinchan Bhavan, Kolhapur - MPCB",31-01-2024 22:00:00,16.7143745,74.2426398,SO2,NA,NA,NA
India,Maharashtra,Latur,"Sawe Wadi, Latur - MPCB",31-01-2024 22:00:00,18.39963,76.57452,PM2.5,94,194,134
India,Maharashtra,Latur,"Sawe Wadi, Latur - MPCB",31-01-2024 22:00:00,18.39963,76.57452,NH3,8,8,8
India,Maharashtra,Mahad,"Kamble Tarf Birwadi, Mahad - MPCB",31-01-2024 22:00:00,18.1023399,73.4783687,PM10,NA,NA,NA
India,Maharashtra,Mahad,"Kamble Tarf Birwadi, Mahad - MPCB",31-01-2024 22:00:00,18.1023399,73.4783687,NO2,NA,NA,NA
India,Maharashtra,Mahad,"Kamble Tarf Birwadi, Mahad - MPCB",31-01-2024 22:00:00,18.1023399,73.4783687,SO2,NA,NA,NA
India,Maharashtra,Malegaon,"Mahesh Nagar, Malegaon - MPCB",31-01-2024 22:00:00,20.555712,74.529236,PM2.5,NA,NA,NA
India,Maharashtra,Mira-Bhayandar,"Bhayandar West, Mira-Bhayandar - MPCB",31-01-2024 22:00:00,19.296481,72.840923,OZONE,1,64,44
India,Maharashtra,Mumbai,"Bandra Kurla Complex, Mumbai - MPCB",31-01-2024 22:00:00,19.065931,72.862131,NO2,18,69,40
India,Maharashtra,Mumbai,"Bandra Kurla Complex, Mumbai - MPCB",31-01-2024 22:00:00,19.065931,72.862131,NH3,18,28,21
India,Maharashtra,Mumbai,"Bandra Kurla Complex, Mumbai - MPCB",31-01-2024 22:00:00,19.065931,72.862131,OZONE,4,55,39
India,Maharashtra,Mumbai,"Borivali East, Mumbai - IITM",31-01-2024 22:00:00,19.23241,72.86895,PM10,81,145,109
India,Maharashtra,Mumbai,"Borivali East, Mumbai - IITM",31-01-2024 22:00:00,19.23241,72.86895,NH3,3,5,4
India,Maharashtra,Mumbai,"Borivali East, Mumbai - MPCB",31-01-2024 22:00:00,19.2243333,72.8658113,CO,2,118,36
India,Maharashtra,Mumbai,"Chembur, Mumbai - MPCB",31-01-2024 22:00:00,19.0364585,72.8954371,CO,12,46,16
India,Maharashtra,Mumbai,"Chhatrapati Shivaji Intl. Airport (T2), Mumbai - MPCB",31-01-2024 22:00:00,19.10078,72.87462,PM2.5,26,68,42
India,Maharashtra,Mumbai,"Chhatrapati Shivaji Intl. Airport (T2), Mumbai - MPCB",31-01-2024 22:00:00,19.10078,72.87462,NH3,4,6,5
India,Maharashtra,Mumbai,"Chhatrapati Shivaji Intl. Airport (T2), Mumbai - MPCB",31-01-2024 22:00:00,19.10078,72.87462,OZONE,1,19,9
India,Maharashtra,Mumbai,"Colaba, Mumbai - MPCB",31-01-2024 22:00:00,18.910000,72.820000,SO2,6,8,7
India,Maharashtra,Mumbai,"Kandivali West, Mumbai - BMC",31-01-2024 22:00:00,19.215859,72.831718,CO,15,40,20
India,Maharashtra,Mumbai,"Kherwadi_Bandra East, Mumbai - MPCB",31-01-2024 22:00:00,19.0632143,72.8456324,PM10,69,127,94
India,Maharashtra,Mumbai,"Kherwadi_Bandra East, Mumbai - MPCB",31-01-2024 22:00:00,19.0632143,72.8456324,CO,14,74,17
India,Maharashtra,Mumbai,"Khindipada-Bhandup West, Mumbai - IITM",31-01-2024 22:00:00,19.1653323,72.922099,PM2.5,86,223,120
India,Maharashtra,Mumbai,"Khindipada-Bhandup West, Mumbai - IITM",31-01-2024 22:00:00,19.1653323,72.922099,CO,30,172,109
India,Maharashtra,Mumbai,"Khindipada-Bhandup West, Mumbai - IITM",31-01-2024 22:00:00,19.1653323,72.922099,OZONE,17,190,190
India,Maharashtra,Mumbai,"Kurla, Mumbai - MPCB",31-01-2024 22:00:00,19.0863,72.8888,PM2.5,65,315,125
India,Maharashtra,Mumbai,"Kurla, Mumbai - MPCB",31-01-2024 22:00:00,19.0863,72.8888,PM10,66,188,102
India,Maharashtra,Mumbai,"Kurla, Mumbai - MPCB",31-01-2024 22:00:00,19.0863,72.8888,NH3,2,5,4
India,Maharashtra,Mumbai,"Malad West, Mumbai - IITM",31-01-2024 22:00:00,19.19709,72.82204,OZONE,5,54,32
India,Maharashtra,Mumbai,"Mazgaon, Mumbai - IITM",31-01-2024 22:00:00,18.96702,72.84214,PM2.5,117,262,174
India,Maharashtra,Mumbai,"Mazgaon, Mumbai - IITM",31-01-2024 22:00:00,18.96702,72.84214,NH3,11,33,23
India,Maharashtra,Mumbai,"Mazgaon, Mumbai - IITM",31-01-2024 22:00:00,18.96702,72.84214,CO,2,101,14
India,Maharashtra,Mumbai,"Mindspace-Malad West, Mumbai - MPCB",31-01-2024 22:00:00,19.1878657,72.8304069,CO,27,79,39
India,Maharashtra,Mumbai,"Sewri, Mumbai - BMC",31-01-2024 22:00:00,19.000084,72.856730,PM10,85,142,106
India,Maharashtra,Mumbai,"Sewri, Mumbai - BMC",31-01-2024 22:00:00,19.000084,72.856730,OZONE,4,119,80
India,Maharashtra,Mumbai,"Sion, Mumbai - MPCB",31-01-2024 22:00:00,19.047000,72.874600,OZONE,12,21,16
India,Maharashtra,Mumbai,"Vile Parle West, Mumbai - MPCB",31-01-2024 22:00:00,19.10861,72.83622,CO,2,2,2
India,Maharashtra,Mumbai,"Worli, Mumbai - MPCB",31-01-2024 22:00:00,18.9936162,72.8128113,PM2.5,31,154,57
India,Maharashtra,Nagpur,"Ambazari, Nagpur - MPCB",31-01-2024 22:00:00,21.121801,79.04952,NH3,2,19,5
India,Maharashtra,Nagpur,"Ambazari, Nagpur - MPCB",31-01-2024 22:00:00,21.121801,79.04952,SO2,18,45,29
India,Maharashtra,Nagpur,"Mahal, Nagpur - MPCB",31-01-2024 22:00:00,21.14472,79.107595,PM2.5,127,312,192
India,Maharashtra,Nagpur,"Mahal, Nagpur - MPCB",31-01-2024 22:00:00,21.14472,79.107595,OZONE,1,80,44
India,Maharashtra,Nagpur,"Opp GPO Civil Lines, Nagpur - MPCB",31-01-2024 22:00:00,21.152875,79.0517531,NH3,1,14,4
India,Maharashtra,Nagpur,"Opp GPO Civil Lines, Nagpur - MPCB",31-01-2024 22:00:00,21.152875,79.0517531,SO2,5,31,18
India,Maharashtra,Nagpur,"Ram Nagar, Nagpur - MPCB",31-01-2024 22:00:00,21.143383,79.048912,NH3,5,6,6
India,Maharashtra,Nagpur,"Ram Nagar, Nagpur - MPCB",31-01-2024 22:00:00,21.143383,79.048912,SO2,21,62,34
India,Maharashtra,Nagpur,"Ram Nagar, Nagpur - MPCB",31-01-2024 22:00:00,21.143383,79.048912,CO,18,104,42
India,Maharashtra,Nanded,"Sneh Nagar, Nanded - MPCB",31-01-2024 22:00:00,19.173852,77.296291,PM2.5,83,223,140
India,Maharashtra,Nanded,"Sneh Nagar, Nanded - MPCB",31-01-2024 22:00:00,19.173852,77.296291,NO2,35,99,59
India,Maharashtra,Nanded,"Sneh Nagar, Nanded - MPCB",31-01-2024 22:00:00,19.173852,77.296291,SO2,17,22,19
India,Maharashtra,Nanded,"Sneh Nagar, Nanded - MPCB",31-01-2024 22:00:00,19.173852,77.296291,OZONE,23,146,109
India,Maharashtra,Nashik,"Gangapur Road, Nashik - MPCB",31-01-2024 22:00:00,20.0073285,73.7762427,PM2.5,59,135,89
India,Maharashtra,Nashik,"Gangapur Road, Nashik - MPCB",31-01-2024 22:00:00,20.0073285,73.7762427,CO,18,18,18
India,Maharashtra,Nashik,"MIDC Ambad, Nashik - MPCB",31-01-2024 22:00:00,19.950220,73.731480,CO,35,66,37
India,Maharashtra,Nashik,"Pandav Nagari, Nashik - MPCB",31-01-2024 22:00:00,19.9591346,73.7788008,PM10,85,114,101
India,Maharashtra,Navi Mumbai,"Mahape, Navi Mumbai - MPCB",31-01-2024 22:00:00,19.1135051,73.008978,NH3,NA,NA,NA
India,Maharashtra,Navi Mumbai,"Nerul, Navi Mumbai - MPCB",31-01-2024 22:00:00,19.008751,73.016620,PM2.5,38,419,185
India,Maharashtra,Navi Mumbai,"Nerul, Navi Mumbai - MPCB",31-01-2024 22:00:00,19.008751,73.016620,NH3,3,7,6
India,Maharashtra,Navi Mumbai,"Sanpada, Navi Mumbai - MPCB",31-01-2024 22:00:00,19.0575752,73.0151367,OZONE,3,170,77
India,Maharashtra,Navi Mumbai,"Sector-19A Nerul, Navi Mumbai - IITM",31-01-2024 22:00:00,19.044,73.0325,PM10,62,500,272
India,Maharashtra,Navi Mumbai,"Sector-2E Kalamboli, Navi Mumbai - MPCB",31-01-2024 22:00:00,19.02579,73.10297,SO2,8,69,26
India,Maharashtra,Parbhani,"Masoom Colony, Parbhani - MPCB",31-01-2024 22:00:00,19.265594,76.761463,NO2,12,105,38
India,Maharashtra,Pimpri-Chinchwad,"Gavalinagar, Pimpri Chinchwad - MPCB",31-01-2024 22:00:00,18.63673,73.82487,NH3,1,14,6
India,Maharashtra,Pimpri-Chinchwad,"Gavalinagar, Pimpri Chinchwad - MPCB",31-01-2024 22:00:00,18.63673,73.82487,SO2,5,25,11
India,Maharashtra,Pimpri-Chinchwad,"Park Street Wakad, Pimpri Chinchwad - MPCB",31-01-2024 22:00:00,18.59051,73.77946,PM10,NA,NA,NA
India,Maharashtra,Pimpri-Chinchwad,"Park Street Wakad, Pimpri Chinchwad - MPCB",31-01-2024 22:00:00,18.59051,73.77946,NH3,NA,NA,NA
India,Maharashtra,Pimpri-Chinchwad,"Park Street Wakad, Pimpri Chinchwad - MPCB",31-01-2024 22:00:00,18.59051,73.77946,OZONE,64,161,111
India,Maharashtra,Pimpri-Chinchwad,"Thergaon, Pimpri Chinchwad - MPCB",31-01-2024 22:00:00,18.616318,73.765797,SO2,NA,NA,NA
India,Maharashtra,Pune,"Karve Road, Pune - MPCB",31-01-2024 22:00:00,18.5011743,73.8165527,PM2.5,82,82,82
India,Maharashtra,Pune,"Mhada Colony, Pune - IITM",31-01-2024 22:00:00,18.573040,73.927715,PM2.5,47,242,130
India,Maharashtra,Pune,"Savitribai Phule Pune University, Pune - MPCB",31-01-2024 22:00:00,18.547056,73.826908,NH3,3,10,6
India,Maharashtra,Pune,"Savitribai Phule Pune University, Pune - MPCB",31-01-2024 22:00:00,18.547056,73.826908,SO2,3,9,5
India,Maharashtra,Pune,"Transport Nagar-Nigdi, Pune - IITM",31-01-2024 22:00:00,18.664282,73.763966,OZONE,4,81,58
India,Maharashtra,Solapur,"Dnyaneshwar Nagar, Solapur - MPCB",31-01-2024 22:00:00,17.6336264,75.9132495,PM2.5,135,335,205
India,Maharashtra,Solapur,"Ratandeep Housing Society, Solapur - MPCB",31-01-2024 22:00:00,17.65439,75.90649,SO2,6,42,13
India,Maharashtra,Solapur,"Solapur, Solapur - MPCB",31-01-2024 22:00:00,17.6599188,75.9063906,PM2.5,46,122,72
India,Maharashtra,Thane,"Kasarvadavali, Thane - MPCB",31-01-2024 22:00:00,19.26777,72.97182,PM10,115,220,168
India,Maharashtra,Thane,"Upvan Fort, Thane - MPCB",31-01-2024 22:00:00,19.222279,72.957979,PM10,84,151,118
India,Maharashtra,Thane,"Upvan Fort, Thane - MPCB",31-01-2024 22:00:00,19.222279,72.957979,NO2,12,89,43
India,Maharashtra,Ulhasnagar,"Sidhi Vinayak Nagar, Ulhasnagar - MPCB",31-01-2024 22:00:00,19.235581,73.159121,NH3,1,4,3
India,Maharashtra,Virar,"Bolinj, Virar - MPCB",31-01-2024 22:00:00,19.4458210,72.7988231,NH3,4,5,5
India,Manipur,Imphal,"DM College of Science, Imphal - Manipur PCB",31-01-2024 22:00:00,24.8207389,93.9423085,SO2,79,84,81
India,Manipur,Imphal,"Manipur University, Imphal - Manipur PCB",31-01-2024 22:00:00,24.7524239,93.9286218,CO,16,64,31
India,Meghalaya,Shillong,"Lumpyngngad, Shillong - Meghalaya PCB",31-01-2024 22:00:00,25.5586,91.8985,PM2.5,94,368,224
India,Mizoram,Aizawl,"Sikulpuikawn, Aizawl - Mizoram PCB",31-01-2024 22:00:00,23.7176342,92.7192841,NH3,1,2,1
India,Mizoram,Aizawl,"Sikulpuikawn, Aizawl - Mizoram PCB",31-01-2024 22:00:00,23.7176342,92.7192841,OZONE,18,34,24
India,Nagaland,Kohima,"PWD Juction, Kohima - NPCB",31-01-2024 22:00:00,25.6635413,94.0989878,OZONE,10,30,15
India,Odisha,Balasore,"Kalidaspur, Balasore - OSPCB",31-01-2024 22:00:00,21.51161,86.89088,PM2.5,103,310,183
India,Odisha,Balasore,"Kalidaspur, Balasore - OSPCB",31-01-2024 22:00:00,21.51161,86.89088,PM10,88,179,130
India,Odisha,Balasore,"Kalidaspur, Balasore - OSPCB",31-01-2024 22:00:00,21.51161,86.89088,NO2,9,49,22
India,Odisha,Balasore,"Kalidaspur, Balasore - OSPCB",31-01-2024 22:00:00,21.51161,86.89088,NH3,3,7,5
India,Odisha,Barbil,"Forest Office, Barbil - OSPCB",31-01-2024 22:00:00,22.1166054,85.3945546,NH3,3,4,4
India,Odisha,Baripada,"Meher Colony, Baripada - OSPCB",31-01-2024 22:00:00,21.941841,86.728318,SO2,NA,NA,NA
India,Odisha,Bhubaneswar,"Patia, Bhubaneswar - OSPCB",31-01-2024 22:00:00,20.34652,85.81630,NH3,3,4,3
India,Odisha,Bileipada,"Tata Township, Bileipada - OSPCB",31-01-2024 22:00:00,22.06156703,85.47409613,PM10,163,411,281
India,Odisha,Bileipada,"Tata Township, Bileipada - OSPCB",31-01-2024 22:00:00,22.06156703,85.47409613,NO2,7,15,12
India,Odisha,Bileipada,"Tata Township, Bileipada - OSPCB",31-01-2024 22:00:00,22.06156703,85.47409613,CO,28,54,37
India,Odisha,Byasanagar,"Ferro Chrome Colony, Byasanagar - OSPCB",31-01-2024 22:00:00,20.94185,86.11510,PM10,74,126,100
India,Odisha,Byasanagar,"Ferro Chrome Colony, Byasanagar - OSPCB",31-01-2024 22:00:00,20.94185,86.11510,NH3,2,3,3
India,Odisha,Byasanagar,"Ferro Chrome Colony, Byasanagar - OSPCB",31-01-2024 22:00:00,20.94185,86.11510,SO2,3,14,7
India,Odisha,Cuttack,"CDA Area, Cuttack - OSPCB",31-01-2024 22:00:00,20.48891     ,85.84768     ,PM10,64,124,91
India,Odisha,Keonjhar,"Jagamohanpur, Keonjhar - OSPCB",31-01-2024 22:00:00,21.643900,85.599355,PM10,20,159,119
India,Odisha,Rairangpur,"Divisional Forest Office, Rairangpur - OSPCB",31-01-2024 22:00:00,22.265816,86.174829,PM2.5,NA,NA,NA
India,Odisha,Rairangpur,"Divisional Forest Office, Rairangpur - OSPCB",31-01-2024 22:00:00,22.265816,86.174829,NH3,NA,NA,NA
India,Odisha,Rairangpur,"Divisional Forest Office, Rairangpur - OSPCB",31-01-2024 22:00:00,22.265816,86.174829,OZONE,6,80,52
India,Odisha,Rourkela,"Fertilizer Township, Rourkela - OSPCB",31-01-2024 22:00:00,22.18972222,84.86277778,SO2,12,14,13
India,Odisha,Rourkela,"Fertilizer Township, Rourkela - OSPCB",31-01-2024 22:00:00,22.18972222,84.86277778,CO,13,24,20
India,Odisha,Rourkela,"Raghunathpali, Rourkela - OSPCB",31-01-2024 22:00:00,22.220833,84.809444,PM2.5,192,327,280
India,Odisha,Rourkela,"Raghunathpali, Rourkela - OSPCB",31-01-2024 22:00:00,22.220833,84.809444,NH3,NA,NA,NA
India,Odisha,Rourkela,"Raghunathpali, Rourkela - OSPCB",31-01-2024 22:00:00,22.220833,84.809444,SO2,2,21,8
India,Odisha,Rourkela,"Raghunathpali, Rourkela - OSPCB",31-01-2024 22:00:00,22.220833,84.809444,OZONE,18,128,67
India,Odisha,Suakati,"OMC Colony, Suakati - OSPCB",31-01-2024 22:00:00,21.606865,85.510538,SO2,NA,NA,NA
India,Odisha,Talcher,"Talcher Coalfields,Talcher - OSPCB",31-01-2024 22:00:00,20.9360711,85.1707021,NH3,7,7,7
India,Puducherry,Puducherry,"Jawahar Nagar, Puducherry - PPCC",31-01-2024 22:00:00,11.9309,79.8027,PM2.5,NA,NA,NA
India,Puducherry,Puducherry,"Jawahar Nagar, Puducherry - PPCC",31-01-2024 22:00:00,11.9309,79.8027,NH3,NA,NA,NA
India,Punjab,Amritsar,"Golden Temple, Amritsar - PPCB",31-01-2024 22:00:00,31.620000,74.876512,NH3,5,7,5
India,Punjab,Amritsar,"Golden Temple, Amritsar - PPCB",31-01-2024 22:00:00,31.620000,74.876512,OZONE,17,34,29
India,Punjab,Bathinda,"Hardev Nagar, Bathinda - PPCB",31-01-2024 22:00:00,30.233011,74.907758,PM10,NA,NA,NA
India,Punjab,Jalandhar,"Civil Line, Jalandhar - PPCB",31-01-2024 22:00:00,31.321907,75.578914,PM2.5,NA,NA,NA
India,Punjab,Khanna,"Kalal Majra, Khanna - PPCB",31-01-2024 22:00:00,30.736056 ,76.209694,PM2.5,58,132,89
India,Punjab,Ludhiana,"Punjab Agricultural University, Ludhiana - PPCB",31-01-2024 22:00:00,30.9028,75.8086,PM2.5,83,229,140
India,Punjab,Ludhiana,"Punjab Agricultural University, Ludhiana - PPCB",31-01-2024 22:00:00,30.9028,75.8086,NH3,5,7,6
India,Punjab,Patiala,"Model Town, Patiala - PPCB",31-01-2024 22:00:00,30.349388,76.366642,PM2.5,43,214,104
India,Punjab,Patiala,"Model Town, Patiala - PPCB",31-01-2024 22:00:00,30.349388,76.366642,NO2,17,26,22
India,Punjab,Patiala,"Model Town, Patiala - PPCB",31-01-2024 22:00:00,30.349388,76.366642,SO2,6,74,28
India,Punjab,Patiala,"Model Town, Patiala - PPCB",31-01-2024 22:00:00,30.349388,76.366642,OZONE,18,81,44
India,Rajasthan,Ajmer,"Civil Lines,  Ajmer - RSPCB",31-01-2024 22:00:00,26.470859,74.646594,PM10,73,166,110
India,Rajasthan,Ajmer,"Civil Lines,  Ajmer - RSPCB",31-01-2024 22:00:00,26.470859,74.646594,OZONE,1,76,49
India,Rajasthan,Alwar,"Moti Doongri, Alwar - RSPCB",31-01-2024 22:00:00,27.554793,76.611536,OZONE,6,19,13
India,Rajasthan,Banswara,"Rati Talai, Banswara - RSPCB",31-01-2024 22:00:00,23.555190,74.440010,PM10,97,289,145
India,Rajasthan,Banswara,"Rati Talai, Banswara - RSPCB",31-01-2024 22:00:00,23.555190,74.440010,CO,22,93,44
India,Rajasthan,Baran,"Bamboliya, Baran - RSPCB",31-01-2024 22:00:00,25.106006,76.469948,PM10,85,310,146
India,Rajasthan,Baran,"Bamboliya, Baran - RSPCB",31-01-2024 22:00:00,25.106006,76.469948,NH3,4,28,8
India,Rajasthan,Barmer,"Railway Colony, Barmer - RSPCB",31-01-2024 22:00:00,25.747299,71.393989,OZONE,3,69,46
India,Rajasthan,Bharatpur,"Krishna Nagar, Bharatpur - RSPCB",31-01-2024 22:00:00,27.215415,77.50873,OZONE,8,88,58
India,Rajasthan,Bhilwara,"Pratap Nagar, Bhilwara - RSPCB",31-01-2024 22:00:00,25.339605,74.618883,PM2.5,NA,NA,NA
India,Rajasthan,Bhiwadi,"RIICO Ind. Area III, Bhiwadi - RSPCB",31-01-2024 22:00:00,28.194909,76.862296,PM2.5,147,388,306
India,Rajasthan,Bhiwadi,"RIICO Ind. Area III, Bhiwadi - RSPCB",31-01-2024 22:00:00,28.194909,76.862296,NH3,8,27,17
India,Rajasthan,Bikaner,"MM Ground, Bikaner - RSPCB",31-01-2024 22:00:00,28.018792,73.292658,NH3,16,22,19
India,Rajasthan,Bikaner,"MM Ground, Bikaner - RSPCB",31-01-2024 22:00:00,28.018792,73.292658,CO,54,129,85
India,Rajasthan,Chittorgarh,"Shastri Nagar, Chittorgarh - RSPCB",31-01-2024 22:00:00,24.892047,74.623527,PM10,56,210,138
India,Rajasthan,Chittorgarh,"Shastri Nagar, Chittorgarh - RSPCB",31-01-2024 22:00:00,24.892047,74.623527,SO2,1,50,7
India,Rajasthan,Churu,"Subash Chowk, Churu - RSPCB",31-01-2024 22:00:00,28.296139,74.961696,NH3,14,19,16
India,Rajasthan,Dholpur,"Raja Ganj, Dholpur - RSPCB",31-01-2024 22:00:00,26.699557,77.898881,PM10,131,257,181
India,Rajasthan,Dholpur,"Raja Ganj, Dholpur - RSPCB",31-01-2024 22:00:00,26.699557,77.898881,NO2,3,41,21
India,Rajasthan,Dholpur,"Raja Ganj, Dholpur - RSPCB",31-01-2024 22:00:00,26.699557,77.898881,NH3,2,18,15
India,Rajasthan,Dholpur,"Raja Ganj, Dholpur - RSPCB",31-01-2024 22:00:00,26.699557,77.898881,SO2,2,19,13
India,Rajasthan,Dungarpur,"Bhoiwada, Dungarpur - RSPCB",31-01-2024 22:00:00,23.837789,73.714926,PM2.5,60,304,119
India,Rajasthan,Dungarpur,"Bhoiwada, Dungarpur - RSPCB",31-01-2024 22:00:00,23.837789,73.714926,NO2,14,57,30
India,Rajasthan,Dungarpur,"Bhoiwada, Dungarpur - RSPCB",31-01-2024 22:00:00,23.837789,73.714926,SO2,5,7,6
India,Rajasthan,Hanumangarh,"Housing Board, Hanumangarh - RSPCB",31-01-2024 22:00:00,29.610750,74.283608,PM2.5,183,356,297
India,Rajasthan,Hanumangarh,"Housing Board, Hanumangarh - RSPCB",31-01-2024 22:00:00,29.610750,74.283608,PM10,107,229,153
India,Rajasthan,Hanumangarh,"Housing Board, Hanumangarh - RSPCB",31-01-2024 22:00:00,29.610750,74.283608,NO2,31,62,41
India,Rajasthan,Hanumangarh,"Housing Board, Hanumangarh - RSPCB",31-01-2024 22:00:00,29.610750,74.283608,NH3,6,20,16
India,Rajasthan,Hanumangarh,"Housing Board, Hanumangarh - RSPCB",31-01-2024 22:00:00,29.610750,74.283608,SO2,6,13,10
India,Rajasthan,Jaipur,"Adarsh Nagar, Jaipur - RSPCB",31-01-2024 22:00:00,26.902909,75.836858,NO2,25,62,35
India,Rajasthan,Jaipur,"Adarsh Nagar, Jaipur - RSPCB",31-01-2024 22:00:00,26.902909,75.836858,NH3,2,4,3
India,Rajasthan,Jaipur,"Adarsh Nagar, Jaipur - RSPCB",31-01-2024 22:00:00,26.902909,75.836858,OZONE,28,74,63
India,Rajasthan,Jaipur,"Mansarovar Sector-12, Jaipur - RSPCB",31-01-2024 22:00:00,26.843698,75.766894,OZONE,2,41,14
India,Rajasthan,Jaipur,"Police Commissionerate, Jaipur - RSPCB",31-01-2024 22:00:00,26.9164092,75.7994901,NO2,NA,NA,NA
India,Rajasthan,Jaipur,"Police Commissionerate, Jaipur - RSPCB",31-01-2024 22:00:00,26.9164092,75.7994901,SO2,NA,NA,NA
India,Rajasthan,Jaipur,"RIICO Sitapura, Jaipur - RSPCB",31-01-2024 22:00:00,26.786682,75.827928,PM10,115,296,184
India,Rajasthan,Jaipur,"RIICO Sitapura, Jaipur - RSPCB",31-01-2024 22:00:00,26.786682,75.827928,NH3,3,6,4
India,Rajasthan,Jaipur,"Sector-2 Murlipura, Jaipur - RSPCB",31-01-2024 22:00:00,26.960669,75.771817,SO2,7,19,12
India,Rajasthan,Jaipur,"Sector-2 Murlipura, Jaipur - RSPCB",31-01-2024 22:00:00,26.960669,75.771817,OZONE,12,126,93
India,Rajasthan,Jaipur,"Shastri Nagar, Jaipur - RSPCB",31-01-2024 22:00:00,26.9502929,75.730943,CO,54,105,84
India,Rajasthan,Jaipur,"Shastri Nagar, Jaipur - RSPCB",31-01-2024 22:00:00,26.9502929,75.730943,OZONE,27,100,71
India,Rajasthan,Jaisalmer,"Sadar Bazar, Jaisalmer - RSPCB",31-01-2024 22:00:00,26.912329,70.909168,PM10,81,339,138
India,Rajasthan,Jaisalmer,"Sadar Bazar, Jaisalmer - RSPCB",31-01-2024 22:00:00,26.912329,70.909168,NH3,11,42,19
India,Rajasthan,Jaisalmer,"Sadar Bazar, Jaisalmer - RSPCB",31-01-2024 22:00:00,26.912329,70.909168,SO2,5,10,7
India,Rajasthan,Jaisalmer,"Sadar Bazar, Jaisalmer - RSPCB",31-01-2024 22:00:00,26.912329,70.909168,CO,22,80,33
India,Rajasthan,Jalore,"Mudtra Sili, Jalore - RSPCB",31-01-2024 22:00:00,25.344694,72.626208,PM10,78,377,152
India,Rajasthan,Jalore,"Mudtra Sili, Jalore - RSPCB",31-01-2024 22:00:00,25.344694,72.626208,NO2,7,85,34
India,Rajasthan,Jalore,"Mudtra Sili, Jalore - RSPCB",31-01-2024 22:00:00,25.344694,72.626208,NH3,5,11,8
India,Rajasthan,Jalore,"Mudtra Sili, Jalore - RSPCB",31-01-2024 22:00:00,25.344694,72.626208,SO2,4,12,7
India,Rajasthan,Jalore,"Mudtra Sili, Jalore - RSPCB",31-01-2024 22:00:00,25.344694,72.626208,OZONE,18,83,72
India,Rajasthan,Jodhpur,"Jhalamand, Jodhpur - RSPCB",31-01-2024 22:00:00,26.215415,73.070156,NH3,8,26,17
India,Rajasthan,Jodhpur,"Jhalamand, Jodhpur - RSPCB",31-01-2024 22:00:00,26.215415,73.070156,SO2,2,21,9
India,Rajasthan,Jodhpur,"Mandor, Jodhpur - RSPCB",31-01-2024 22:00:00,26.358805,73.047444,NO2,36,120,79
India,Rajasthan,Jodhpur,"Mandor, Jodhpur - RSPCB",31-01-2024 22:00:00,26.358805,73.047444,OZONE,1,72,57
India,Rajasthan,Jodhpur,"Samrat Ashok Udhyan, Jodhpur - RSPCB",31-01-2024 22:00:00,26.253384,72.976571,SO2,2,18,8
India,Rajasthan,Karauli,"Satyawati Vihar, Karauli - RSPCB",31-01-2024 22:00:00,26.506177,77.025989,PM10,163,388,257
India,Rajasthan,Karauli,"Satyawati Vihar, Karauli - RSPCB",31-01-2024 22:00:00,26.506177,77.025989,NH3,4,22,7
India,Rajasthan,Kota,"Dhanmandi, Kota - RSPCB",31-01-2024 22:00:00,25.164090,75.858137,PM10,128,236,180
India,Rajasthan,Kota,"Dhanmandi, Kota - RSPCB",31-01-2024 22:00:00,25.164090,75.858137,OZONE,13,95,79
India,Rajasthan,Kota,"Shrinath Puram, Kota - RSPCB",31-01-2024 22:00:00,25.14389,75.821256,NO2,NA,NA,NA
India,Rajasthan,Nagaur,"Karni Colony, Nagaur - RSPCB",31-01-2024 22:00:00,27.213494,73.734444,NH3,11,18,14
India,Rajasthan,Pali,"Indira Colony Vistar, Pali - RSPCB",31-01-2024 22:00:00,25.771061, 73.340227,PM10,83,296,129
India,Rajasthan,Pali,"Indira Colony Vistar, Pali - RSPCB",31-01-2024 22:00:00,25.771061, 73.340227,NO2,18,70,40
India,Rajasthan,Pali,"Indira Colony Vistar, Pali - RSPCB",31-01-2024 22:00:00,25.771061, 73.340227,NH3,6,17,13
India,Rajasthan,Pali,"Indira Colony Vistar, Pali - RSPCB",31-01-2024 22:00:00,25.771061, 73.340227,CO,5,87,42
India,Rajasthan,Pratapgarh,"Pragati Nagar, Pratapgarh - RSPCB",31-01-2024 22:00:00,24.041198,74.780702,CO,8,35,15
India,Rajasthan,Sawai Madhopur,"Sahu Nagar, Sawai Madhopur - RSPCB",31-01-2024 22:00:00,26.031443,76.359327,NO2,1,26,8
India,Rajasthan,Sawai Madhopur,"Sahu Nagar, Sawai Madhopur - RSPCB",31-01-2024 22:00:00,26.031443,76.359327,OZONE,1,84,70
India,Rajasthan,Sikar,"Radhakishan Pura, Sikar - RSPCB",31-01-2024 22:00:00,27.608912,75.153302,OZONE,40,119,81
India,Rajasthan,Sri Ganganagar,"Old City, Sri Ganganagar - RSPCB",31-01-2024 22:00:00,29.931624,73.864511,SO2,3,7,5
India,Rajasthan,Tonk,"Shastri Nagar, Tonk - RSPCB",31-01-2024 22:00:00,26.159933,75.780517,PM10,114,202,151
India,Sikkim,Gangtok,"Zero Point GICI, Gangtok - SSPCB",31-01-2024 22:00:00,27.338530,88.614099,NO2,1,16,5
India,TamilNadu,Chengalpattu,"Crescent University, Chengalpattu - TNPCB",31-01-2024 22:00:00,12.8777316,80.0834807,PM10,NA,NA,NA
India,TamilNadu,Chengalpattu,"Crescent University, Chengalpattu - TNPCB",31-01-2024 22:00:00,12.8777316,80.0834807,OZONE,6,6,6
India,TamilNadu,Chennai,"Arumbakkam, Chennai - TNPCB",31-01-2024 22:00:00,13.0664,80.2112 ,NH3,1,4,3
India,TamilNadu,Chennai,"Kodungaiyur, Chennai - TNPCB",31-01-2024 22:00:00,13.1278,80.2642,SO2,2,21,8
India,TamilNadu,Chennai,"Manali, Chennai - CPCB",31-01-2024 22:00:00,13.164544,80.26285,PM2.5,31,64,45
India,TamilNadu,Chennai,"Manali, Chennai - CPCB",31-01-2024 22:00:00,13.164544,80.26285,SO2,4,7,6
India,TamilNadu,Chennai,"Manali, Chennai - CPCB",31-01-2024 22:00:00,13.164544,80.26285,CO,22,100,36
India,TamilNadu,Chennai,"Perungudi, Chennai - TNPCB",31-01-2024 22:00:00,12.9533,80.2357,PM2.5,26,138,55
India,TamilNadu,Chennai,"Perungudi, Chennai - TNPCB",31-01-2024 22:00:00,12.9533,80.2357,SO2,1,7,4
India,TamilNadu,Chennai,"Royapuram, Chennai - TNPCB",31-01-2024 22:00:00,13.1036,80.2909,NH3,1,1,1
India,TamilNadu,Chennai,"Velachery Res. Area, Chennai - CPCB",31-01-2024 22:00:00,13.0052189,80.2398125,NO2,19,83,33
India,TamilNadu,Chennai,"Velachery Res. Area, Chennai - CPCB",31-01-2024 22:00:00,13.0052189,80.2398125,OZONE,8,36,30
India,TamilNadu,Coimbatore,"PSG College of Arts and Science, Coimbatore - TNPCB",31-01-2024 22:00:00,11.0328,77.0349,CO,5,83,27
India,TamilNadu,Coimbatore,"PSG College of Arts and Science, Coimbatore - TNPCB",31-01-2024 22:00:00,11.0328,77.0349,OZONE,2,5,4
India,TamilNadu,Cuddalore,"Kudikadu, Cuddalore - TNPCB",31-01-2024 22:00:00,11.6829898,79.7532099,NH3,5,6,5
India,TamilNadu,Kanchipuram,"Kilambi, Kanchipuram - TNPCB",31-01-2024 22:00:00,12.864618,79.659968,PM10,NA,NA,NA
India,TamilNadu,Kanchipuram,"Kilambi, Kanchipuram - TNPCB",31-01-2024 22:00:00,12.864618,79.659968,CO,NA,NA,NA
India,TamilNadu,Ooty,"Bombay Castel, Ooty - TNPCB",31-01-2024 22:00:00,11.4068288,76.7138973,PM10,16,142,74
India,TamilNadu,Ramanathapuram,"Chalai Bazaar, Ramanathapuram - TNPCB",31-01-2024 22:00:00,9.36399,78.831977,SO2,4,8,6
India,TamilNadu,Salem,"Sona College of Technology, Salem - TNPCB",31-01-2024 22:00:00,11.679111,78.125052,NO2,NA,NA,NA
India,TamilNadu,Salem,"Sona College of Technology, Salem - TNPCB",31-01-2024 22:00:00,11.679111,78.125052,NH3,NA,NA,NA
India,TamilNadu,Thoothukudi,"Meelavittan, Thoothukudi - TNPCB",31-01-2024 22:00:00,8.816428 ,78.099039,OZONE,1,72,49
India,TamilNadu,Tirupur,"Kumaran College, Tirupur - TNPCB",31-01-2024 22:00:00,11.0973603,77.3228673,CO,19,112,67
India,Telangana,Hyderabad,"Bollaram Industrial Area, Hyderabad - TSPCB",31-01-2024 22:00:00,17.540891,78.358528,CO,17,45,30
India,Telangana,Hyderabad,"Bollaram Industrial Area, Hyderabad - TSPCB",31-01-2024 22:00:00,17.540891,78.358528,OZONE,36,38,37
India,Telangana,Hyderabad,"Central University, Hyderabad - TSPCB",31-01-2024 22:00:00,17.460103,78.334361,NH3,3,6,5
India,Telangana,Hyderabad,"Central University, Hyderabad - TSPCB",31-01-2024 22:00:00,17.460103,78.334361,CO,16,57,38
India,Telangana,Hyderabad,"ECIL Kapra, Hyderabad - TSPCB",31-01-2024 22:00:00,17.470431,78.566959,OZONE,9,44,13
India,Telangana,Hyderabad,"ICRISAT Patancheru, Hyderabad - TSPCB",31-01-2024 22:00:00,17.518400,78.278777,NO2,16,17,16
India,Telangana,Hyderabad,"IITH Kandi, Hyderabad - TSPCB",31-01-2024 22:00:00,17.585705,78.126199,NO2,10,12,11
India,Telangana,Hyderabad,"Kompally Municipal Office, Hyderabad - TSPCB",31-01-2024 22:00:00,17.544899,78.486949,OZONE,NA,NA,NA
India,Telangana,Hyderabad,"Nacharam_TSIIC IALA, Hyderabad - TSPCB",31-01-2024 22:00:00,17.429398,78.569354,NO2,NA,NA,NA
India,Telangana,Hyderabad,"New Malakpet, Hyderabad - TSPCB",31-01-2024 22:00:00,17.37206,78.50864,NH3,2,3,2
India,Telangana,Hyderabad,"New Malakpet, Hyderabad - TSPCB",31-01-2024 22:00:00,17.37206,78.50864,SO2,13,27,20
India,Telangana,Hyderabad,"Ramachandrapuram, Hyderabad - TSPCB",31-01-2024 22:00:00,17.528544,78.286195,PM2.5,29,37,32
India,Telangana,Hyderabad,"Ramachandrapuram, Hyderabad - TSPCB",31-01-2024 22:00:00,17.528544,78.286195,SO2,1,23,13
India,Telangana,Hyderabad,"Somajiguda, Hyderabad - TSPCB",31-01-2024 22:00:00,17.417094,78.457437,NO2,21,31,25
India,Telangana,Hyderabad,"Somajiguda, Hyderabad - TSPCB",31-01-2024 22:00:00,17.417094,78.457437,SO2,13,25,16
India,Telangana,Hyderabad,"Somajiguda, Hyderabad - TSPCB",31-01-2024 22:00:00,17.417094,78.457437,OZONE,6,27,24
India,Telangana,Hyderabad,"Zoo Park, Hyderabad - TSPCB",31-01-2024 22:00:00,17.349694,78.451437,NO2,15,48,37
India,Uttar_Pradesh,Agra,"Manoharpur, Agra - UPPCB",31-01-2024 22:00:00,27.23711,78.01936,CO,24,39,26
India,Uttar_Pradesh,Agra,"Rohta, Agra - UPPCB",31-01-2024 22:00:00,27.106972,78.000111,PM10,65,188,109
India,Uttar_Pradesh,Agra,"Rohta, Agra - UPPCB",31-01-2024 22:00:00,27.106972,78.000111,NH3,1,1,1
India,Uttar_Pradesh,Agra,"Shastripuram, Agra - UPPCB",31-01-2024 22:00:00,27.19862,77.92066,CO,5,26,7
India,Uttar_Pradesh,Bareilly,"Civil Lines, Bareilly - UPPCB",31-01-2024 22:00:00,28.359581,79.414455,NO2,2,72,41
India,Uttar_Pradesh,Bareilly,"Civil Lines, Bareilly - UPPCB",31-01-2024 22:00:00,28.359581,79.414455,CO,10,104,52
India,Uttar_Pradesh,Bareilly,"Rajendra Nagar, Bareilly - UPPCB",31-01-2024 22:00:00,28.38910936,79.42963708,NH3,1,1,1
India,Uttar_Pradesh,Bareilly,"Rajendra Nagar, Bareilly - UPPCB",31-01-2024 22:00:00,28.38910936,79.42963708,CO,70,107,82
India,Uttar_Pradesh,Firozabad,"Nagla Bhau, Firozabad - UPPCB",31-01-2024 22:00:00,27.168897,78.376960,PM10,50,131,76
India,Uttar_Pradesh,Firozabad,"Vibhab Nagar, Firozabad - UPPCB",31-01-2024 22:00:00,27.1594,78.3953,NH3,2,2,2
India,Uttar_Pradesh,Ghaziabad,"Loni, Ghaziabad - UPPCB",31-01-2024 22:00:00,28.757294,77.278792,PM10,102,270,171
India,Uttar_Pradesh,Ghaziabad,"Loni, Ghaziabad - UPPCB",31-01-2024 22:00:00,28.757294,77.278792,NO2,29,55,36
India,Uttar_Pradesh,Ghaziabad,"Sanjay Nagar, Ghaziabad - UPPCB",31-01-2024 22:00:00,28.685382,77.453839,NO2,48,131,70
India,Uttar_Pradesh,Ghaziabad,"Sanjay Nagar, Ghaziabad - UPPCB",31-01-2024 22:00:00,28.685382,77.453839,SO2,5,10,8
India,Uttar_Pradesh,Ghaziabad,"Vasundhara, Ghaziabad - UPPCB",31-01-2024 22:00:00,28.6603346,77.3572563,PM2.5,255,423,324
India,Uttar_Pradesh,Ghaziabad,"Vasundhara, Ghaziabad - UPPCB",31-01-2024 22:00:00,28.6603346,77.3572563,PM10,120,331,174
India,Uttar_Pradesh,Ghaziabad,"Vasundhara, Ghaziabad - UPPCB",31-01-2024 22:00:00,28.6603346,77.3572563,NO2,1,111,73
India,Uttar_Pradesh,Ghaziabad,"Vasundhara, Ghaziabad - UPPCB",31-01-2024 22:00:00,28.6603346,77.3572563,OZONE,18,216,32
India,Uttar_Pradesh,Gorakhpur,"Madan Mohan Malaviya University of Technology, Gorakhpur - UPPCB",31-01-2024 22:00:00,26.730136,83.433859,PM10,75,196,119
India,Uttar_Pradesh,Gorakhpur,"Madan Mohan Malaviya University of Technology, Gorakhpur - UPPCB",31-01-2024 22:00:00,26.730136,83.433859,SO2,33,38,35
India,Uttar_Pradesh,Greater Noida,"Knowledge Park - III, Greater Noida - UPPCB",31-01-2024 22:00:00,28.47272,77.482000,CO,44,130,100
India,Uttar_Pradesh,Greater Noida,"Knowledge Park - V, Greater Noida - UPPCB",31-01-2024 22:00:00,28.557054,77.453663,PM2.5,180,444,315
India,Uttar_Pradesh,Greater Noida,"Knowledge Park - V, Greater Noida - UPPCB",31-01-2024 22:00:00,28.557054,77.453663,CO,19,185,91
India,Uttar_Pradesh,Greater Noida,"Knowledge Park - V, Greater Noida - UPPCB",31-01-2024 22:00:00,28.557054,77.453663,OZONE,2,24,13
India,Uttar_Pradesh,Hapur,"Anand Vihar, Hapur - UPPCB",31-01-2024 22:00:00,28.725645,77.749675,NH3,9,14,11
India,Uttar_Pradesh,Hapur,"Anand Vihar, Hapur - UPPCB",31-01-2024 22:00:00,28.725645,77.749675,CO,82,128,107
India,Uttar_Pradesh,Jhansi,"Shivaji Nagar, Jhansi - UPPCB",31-01-2024 22:00:00,25.4547,78.6039,PM10,69,197,126
India,Uttar_Pradesh,Jhansi,"Shivaji Nagar, Jhansi - UPPCB",31-01-2024 22:00:00,25.4547,78.6039,CO,32,44,35
India,Uttar_Pradesh,Jhansi,"Shivaji Nagar, Jhansi - UPPCB",31-01-2024 22:00:00,25.4547,78.6039,OZONE,1,6,4
India,Uttar_Pradesh,Kanpur,"FTI Kidwai Nagar, Kanpur - UPPCB",31-01-2024 22:00:00,26.428282,80.327067,PM10,71,225,136
India,Uttar_Pradesh,Kanpur,"FTI Kidwai Nagar, Kanpur - UPPCB",31-01-2024 22:00:00,26.428282,80.327067,OZONE,3,22,9
India,Uttar_Pradesh,Kanpur,"NSI Kalyanpur, Kanpur - UPPCB",31-01-2024 22:00:00,26.509954,80.249612,NO2,11,16,13
India,Uttar_Pradesh,Kanpur,"NSI Kalyanpur, Kanpur - UPPCB",31-01-2024 22:00:00,26.509954,80.249612,SO2,23,24,23
India,Uttar_Pradesh,Kanpur,"Nehru Nagar, Kanpur - UPPCB",31-01-2024 22:00:00,26.4703136,80.3229863,PM10,NA,NA,NA
India,Uttar_Pradesh,Khurja,"Kalindi Kunj, Khurja - UPPCB",31-01-2024 22:00:00,28.2348927,77.8683002,NO2,23,51,29
India,Uttar_Pradesh,Khurja,"Kalindi Kunj, Khurja - UPPCB",31-01-2024 22:00:00,28.2348927,77.8683002,SO2,38,92,51
India,Uttar_Pradesh,Khurja,"Kalindi Kunj, Khurja - UPPCB",31-01-2024 22:00:00,28.2348927,77.8683002,CO,46,105,58
India,Uttar_Pradesh,Lucknow,"B R Ambedkar University, Lucknow - UPPCB",31-01-2024 22:00:00,26.766433,80.927299,NO2,11,13,12
India,Uttar_Pradesh,Lucknow,"Gomti Nagar, Lucknow - UPPCB",31-01-2024 22:00:00,26.868120,81.005119,PM2.5,25,281,118
India,Uttar_Pradesh,Lucknow,"Gomti Nagar, Lucknow - UPPCB",31-01-2024 22:00:00,26.868120,81.005119,PM10,46,196,120
India,Uttar_Pradesh,Lucknow,"Gomti Nagar, Lucknow - UPPCB",31-01-2024 22:00:00,26.868120,81.005119,SO2,2,34,12
India,Uttar_Pradesh,Lucknow,"Kendriya Vidyalaya, Lucknow - CPCB",31-01-2024 22:00:00,26.906111,80.948222,PM2.5,99,333,219
India,Uttar_Pradesh,Lucknow,"Kendriya Vidyalaya, Lucknow - CPCB",31-01-2024 22:00:00,26.906111,80.948222,NO2,25,90,48
India,Uttar_Pradesh,Lucknow,"Kendriya Vidyalaya, Lucknow - CPCB",31-01-2024 22:00:00,26.906111,80.948222,CO,36,121,60
India,Uttar_Pradesh,Lucknow,"Kukrail Picnic Spot-1, Lucknow - UPPCB",31-01-2024 22:00:00,26.90723,80.98579,PM10,71,177,114
India,Uttar_Pradesh,Lucknow,"Kukrail Picnic Spot-1, Lucknow - UPPCB",31-01-2024 22:00:00,26.90723,80.98579,NO2,8,8,8
India,Uttar_Pradesh,Lucknow,"Lalbagh, Lucknow - CPCB",31-01-2024 22:00:00,26.8458805,80.9365541,CO,75,170,161
India,Uttar_Pradesh,Lucknow,"Talkatora District Industries Center, Lucknow - CPCB",31-01-2024 22:00:00,26.83399722,80.8917361,CO,2,123,72
India,Uttar_Pradesh,Meerut,"Ganga Nagar, Meerut - UPPCB",31-01-2024 22:00:00,28.999264,77.7590354,NO2,30,105,60
India,Uttar_Pradesh,Meerut,"Jai Bhim Nagar, Meerut - UPPCB",31-01-2024 22:00:00,28.9535882,77.7622941,SO2,15,23,19
India,Uttar_Pradesh,Meerut,"Pallavpuram Phase 2, Meerut - UPPCB",31-01-2024 22:00:00,29.063510,77.709723,NO2,34,89,55
India,Uttar_Pradesh,Meerut,"Pallavpuram Phase 2, Meerut - UPPCB",31-01-2024 22:00:00,29.063510,77.709723,NH3,12,25,16
India,Uttar_Pradesh,Meerut,"Pallavpuram Phase 2, Meerut - UPPCB",31-01-2024 22:00:00,29.063510,77.709723,OZONE,25,46,38
India,Uttar_Pradesh,Moradabad,"Buddhi Vihar, Moradabad - UPPCB",31-01-2024 22:00:00,28.83526,78.74460,SO2,14,22,17
India,Uttar_Pradesh,Moradabad,"Eco Herbal Park, Moradabad - UPPCB",31-01-2024 22:00:00,28.840739,78.697531,PM2.5,113,326,224
India,Uttar_Pradesh,Moradabad,"Employment Office, Moradabad - UPPCB",31-01-2024 22:00:00,28.88528,78.73880,PM2.5,74,311,167
India,Uttar_Pradesh,Moradabad,"Jigar Colony, Moradabad - UPPCB",31-01-2024 22:00:00,28.856664,78.772638,NH3,5,10,5
India,Uttar_Pradesh,Moradabad,"Kashiram Nagar, Moradabad - UPPCB",31-01-2024 22:00:00,28.849399,78.742362,NH3,4,4,4
India,Uttar_Pradesh,Moradabad,"Transport Nagar, Moradabad - UPPCB",31-01-2024 22:00:00,28.802625,78.753728,NH3,6,6,6
India,Uttar_Pradesh,Moradabad,"Transport Nagar, Moradabad - UPPCB",31-01-2024 22:00:00,28.802625,78.753728,CO,26,42,39
India,Uttar_Pradesh,Noida,"Sector - 62, Noida - IMD",31-01-2024 22:00:00,28.6245479,77.3577104,CO,101,106,103
India,Uttar_Pradesh,Prayagraj,"Motilal Nehru NIT, Prayagraj - UPPCB",31-01-2024 22:00:00,25.494,81.863,PM2.5,48,235,145
India,Uttar_Pradesh,Prayagraj,"Motilal Nehru NIT, Prayagraj - UPPCB",31-01-2024 22:00:00,25.494,81.863,SO2,44,58,52
India,Uttar_Pradesh,Prayagraj,"Motilal Nehru NIT, Prayagraj - UPPCB",31-01-2024 22:00:00,25.494,81.863,CO,1,62,15
India,Uttar_Pradesh,Prayagraj,"Nagar Nigam, Prayagraj - UPPCB",31-01-2024 22:00:00,25.44919916 ,81.82735986 ,PM2.5,73,322,225
India,Uttar_Pradesh,Varanasi,"Ardhali Bazar, Varanasi - UPPCB",31-01-2024 22:00:00,25.3505986,82.9083074,PM2.5,19,160,104
India,Uttar_Pradesh,Varanasi,"Ardhali Bazar, Varanasi - UPPCB",31-01-2024 22:00:00,25.3505986,82.9083074,SO2,13,45,20
India,Uttar_Pradesh,Varanasi,"Bhelupur, Varanasi - UPPCB",31-01-2024 22:00:00,25.301778,82.996789,SO2,21,24,22
India,Uttar_Pradesh,Varanasi,"IESD Banaras Hindu University, Varanasi - UPPCB",31-01-2024 22:00:00,25.262326,82.995408,NO2,2,2,2
India,Uttar_Pradesh,Varanasi,"Maldahiya, Varanasi - UPPCB",31-01-2024 22:00:00,25.32393,82.99687,NH3,1,2,1
India,Uttar_Pradesh,Varanasi,"Maldahiya, Varanasi - UPPCB",31-01-2024 22:00:00,25.32393,82.99687,SO2,34,36,35
India,Uttar_Pradesh,Vrindavan,"Omex Eternity, Vrindavan - UPPCB",31-01-2024 22:00:00,27.5714090,77.6557570,PM2.5,25,93,54
India,Uttarakhand,Kashipur,"Govt. Girls Inter College, Kashipur - UKPCB",31-01-2024 22:00:00,29.2124114,78.9611753,PM2.5,72,320,171
India,Uttarakhand,Kashipur,"Govt. Girls Inter College, Kashipur - UKPCB",31-01-2024 22:00:00,29.2124114,78.9611753,PM10,72,278,153
India,Uttarakhand,Kashipur,"Govt. Girls Inter College, Kashipur - UKPCB",31-01-2024 22:00:00,29.2124114,78.9611753,NO2,25,92,48
India,Uttarakhand,Kashipur,"Govt. Girls Inter College, Kashipur - UKPCB",31-01-2024 22:00:00,29.2124114,78.9611753,OZONE,2,29,20
India,West_Bengal,Asansol,"Asansol Court Area, Asansol - WBPCB",31-01-2024 22:00:00,23.685297,86.945968,PM2.5,122,355,275
India,West_Bengal,Durgapur,"Sidhu Kanhu Indoor Stadium, Durgapur - WBPCB",31-01-2024 22:00:00,23.5404352,87.2892225,PM2.5,NA,NA,NA
India,West_Bengal,Haldia,"Priyambada Housing Estate, Haldia - WBPCB",31-01-2024 22:00:00,22.06047,88.109737,PM2.5,49,89,67
India,West_Bengal,Haldia,"Priyambada Housing Estate, Haldia - WBPCB",31-01-2024 22:00:00,22.06047,88.109737,PM10,51,146,97
India,West_Bengal,Haldia,"Priyambada Housing Estate, Haldia - WBPCB",31-01-2024 22:00:00,22.06047,88.109737,SO2,8,14,12
India,West_Bengal,Howrah,"Belur Math, Howrah - WBPCB",31-01-2024 22:00:00,22.629801,88.352017,PM2.5,76,206,109
India,West_Bengal,Howrah,"Ghusuri, Howrah - WBPCB",31-01-2024 22:00:00,22.611968,88.347422,NH3,7,13,9
India,West_Bengal,Howrah,"Padmapukur, Howrah - WBPCB",31-01-2024 22:00:00,22.5687319,88.2797276,OZONE,3,39,21
India,West_Bengal,Kolkata,"Bidhannagar, Kolkata - WBPCB",31-01-2024 22:00:00,22.58157048,88.41002457,NH3,9,10,10
India,West_Bengal,Kolkata,"Bidhannagar, Kolkata - WBPCB",31-01-2024 22:00:00,22.58157048,88.41002457,SO2,5,13,8
India,West_Bengal,Kolkata,"Fort William, Kolkata - WBPCB",31-01-2024 22:00:00,22.556640,88.342674,NH3,7,9,8
India,West_Bengal,Kolkata,"Fort William, Kolkata - WBPCB",31-01-2024 22:00:00,22.556640,88.342674,SO2,9,25,15
India,West_Bengal,Kolkata,"Fort William, Kolkata - WBPCB",31-01-2024 22:00:00,22.556640,88.342674,CO,16,40,29
India,West_Bengal,Kolkata,"Fort William, Kolkata - WBPCB",31-01-2024 22:00:00,22.556640,88.342674,OZONE,12,86,51
India,West_Bengal,Kolkata,"Rabindra Bharati University, Kolkata - WBPCB",31-01-2024 22:00:00,22.627847,88.380669,OZONE,1,41,15
India,West_Bengal,Kolkata,"Rabindra Sarobar, Kolkata - WBPCB",31-01-2024 22:00:00,22.51106,88.35142,PM2.5,73,96,83
India,West_Bengal,Kolkata,"Rabindra Sarobar, Kolkata - WBPCB",31-01-2024 22:00:00,22.51106,88.35142,OZONE,3,90,45
India,West_Bengal,Kolkata,"Victoria, Kolkata - WBPCB",31-01-2024 22:00:00,22.5448082,88.3403691,OZONE,10,83,42
India,West_Bengal,Siliguri,"Ward-32 Bapupara, Siliguri - WBPCB",31-01-2024 22:00:00,26.6879226,88.4152495,PM2.5,81,317,163
India,West_Bengal,Siliguri,"Ward-32 Bapupara, Siliguri - WBPCB",31-01-2024 22:00:00,26.6879226,88.4152495,PM10,101,362,160
India,Andhra_Pradesh,Amaravati,"Secretariat, Amaravati - APPCB",31-01-2024 22:00:00,16.5150833,80.5181667,PM2.5,20,98,54
India,Andhra_Pradesh,Amaravati,"Secretariat, Amaravati - APPCB",31-01-2024 22:00:00,16.5150833,80.5181667,NO2,10,31,18
India,Andhra_Pradesh,Chittoor,"Gangineni Cheruvu, Chittoor - APPCB",31-01-2024 22:00:00,13.204880,79.097889,PM10,2,112,51
India,Andhra_Pradesh,Kadapa,"Yerramukkapalli, Kadapa - APPCB",31-01-2024 22:00:00,14.465052,78.824187,PM10,26,71,40
India,Andhra_Pradesh,Rajamahendravaram,"Anand Kala Kshetram, Rajamahendravaram - APPCB",31-01-2024 22:00:00,16.9872867,81.7363176,NH3,3,5,4
India,Andhra_Pradesh,Rajamahendravaram,"Anand Kala Kshetram, Rajamahendravaram - APPCB",31-01-2024 22:00:00,16.9872867,81.7363176,CO,2,72,2
India,Andhra_Pradesh,Tirupati,"Tirumala, Tirupati - APPCB",31-01-2024 22:00:00,13.67,79.35,PM2.5,36,99,59
India,Andhra_Pradesh,Vijayawada,"HB Colony, Vijayawada - APPCB",31-01-2024 22:00:00,16.536107,80.594233,NH3,NA,NA,NA
India,Andhra_Pradesh,Vijayawada,"HB Colony, Vijayawada - APPCB",31-01-2024 22:00:00,16.536107,80.594233,CO,24,24,24
India,Andhra_Pradesh,Vijayawada,"Kanuru, Vijayawada - APPCB",31-01-2024 22:00:00,16.486692,80.699436,PM2.5,NA,NA,NA
India,Andhra_Pradesh,Vijayawada,"Kanuru, Vijayawada - APPCB",31-01-2024 22:00:00,16.486692,80.699436,PM10,NA,NA,NA
India,Andhra_Pradesh,Vijayawada,"Rajiv Gandhi Park, Vijayawada - APPCB",31-01-2024 22:00:00,16.509717,80.612222,PM2.5,NA,NA,NA
India,Andhra_Pradesh,Vijayawada,"Rajiv Gandhi Park, Vijayawada - APPCB",31-01-2024 22:00:00,16.509717,80.612222,NH3,NA,NA,NA
India,Andhra_Pradesh,Vijayawada,"Rajiv Nagar, Vijayawada - APPCB",31-01-2024 22:00:00,16.554731,80.649110,OZONE,18,51,37
India,Andhra_Pradesh,Visakhapatnam,"GVM Corporation, Visakhapatnam - APPCB",31-01-2024 22:00:00,17.72,83.3,PM10,79,331,143
India,Assam,Byrnihat,"Central Academy for SFS, Byrnihat - PCBA",31-01-2024 22:00:00,26.071318,91.87488,PM2.5,167,500,366
India,Assam,Byrnihat,"Central Academy for SFS, Byrnihat - PCBA",31-01-2024 22:00:00,26.071318,91.87488,NO2,34,122,56
India,Assam,Byrnihat,"Central Academy for SFS, Byrnihat - PCBA",31-01-2024 22:00:00,26.071318,91.87488,NH3,1,5,4
India,Assam,Guwahati,"IITG, Guwahati - PCBA",31-01-2024 22:00:00,26.2028636,91.70046436,OZONE,1,17,9
India,Assam,Guwahati,"LGBI Airport, Guwahati - PCBA",31-01-2024 22:00:00,26.10887,91.589544,NO2,10,62,34
India,Assam,Guwahati,"LGBI Airport, Guwahati - PCBA",31-01-2024 22:00:00,26.10887,91.589544,OZONE,1,61,33
India,Assam,Guwahati,"Pan Bazaar, Guwahati - PCBA",31-01-2024 22:00:00,26.187500,91.744194,PM10,106,211,148
India,Assam,Guwahati,"Railway Colony, Guwahati - PCBA",31-01-2024 22:00:00,26.181742,91.78063,NO2,3,3,3
India,Assam,Guwahati,"Railway Colony, Guwahati - PCBA",31-01-2024 22:00:00,26.181742,91.78063,SO2,19,26,22
India,Assam,Nagaon,"Christianpatty, Nagaon - PCBA",31-01-2024 22:00:00,26.349082,92.68449,NO2,9,24,17
India,Assam,Nagaon,"Christianpatty, Nagaon - PCBA",31-01-2024 22:00:00,26.349082,92.68449,OZONE,2,69,49
India,Assam,Nalbari,"Bata Chowk, Nalbari - PCBA",31-01-2024 22:00:00,26.446912,91.439057,NH3,1,6,2
India,Assam,Nalbari,"Bata Chowk, Nalbari - PCBA",31-01-2024 22:00:00,26.446912,91.439057,CO,2,142,120
India,Assam,Silchar,"Tarapur, Silchar - PCBA",31-01-2024 22:00:00,24.82827,92.79525,PM2.5,36,48,41
India,Assam,Silchar,"Tarapur, Silchar - PCBA",31-01-2024 22:00:00,24.82827,92.79525,PM10,51,58,54
India,Assam,Silchar,"Tarapur, Silchar - PCBA",31-01-2024 22:00:00,24.82827,92.79525,NO2,38,38,38
India,Bihar,Aurangabad,"Gurdeo Nagar, Aurangabad - BSPCB",31-01-2024 22:00:00,24.75746,84.366208,PM2.5,267,372,320
India,Bihar,Bhagalpur,"Mayaganj, Bhagalpur - BSPCB",31-01-2024 22:00:00,25.265194,87.012947,PM2.5,223,500,391
India,Bihar,Bihar Sharif,"D M Colony, Bihar Sharif - BSPCB",31-01-2024 22:00:00,25.204762,85.514960,NO2,8,11,10
India,Bihar,Bihar Sharif,"D M Colony, Bihar Sharif - BSPCB",31-01-2024 22:00:00,25.204762,85.514960,OZONE,4,60,33
India,Bihar,Gaya,"Collectorate, Gaya - BSPCB",31-01-2024 22:00:00,24.7955,84.9994,SO2,16,32,22
India,Bihar,Gaya,"Collectorate, Gaya - BSPCB",31-01-2024 22:00:00,24.7955,84.9994,OZONE,47,76,62
India,Bihar,Gaya,"Kareemganj, Gaya - BSPCB",31-01-2024 22:00:00,24.792403,84.992416,CO,12,101,35
India,Bihar,Gaya,"Kareemganj, Gaya - BSPCB",31-01-2024 22:00:00,24.792403,84.992416,OZONE,4,34,19
India,Bihar,Hajipur,"Industrial Area, Hajipur - BSPCB",31-01-2024 22:00:00,25.697189,85.245900,SO2,5,7,6
India,Bihar,Hajipur,"Industrial Area, Hajipur - BSPCB",31-01-2024 22:00:00,25.697189,85.245900,OZONE,4,31,13
India,Bihar,Katihar,"Mirchaibari, Katihar - BSPCB",31-01-2024 22:00:00,25.560083,87.553265,OZONE,15,24,21
India,Bihar,Manguraha,"Forest Rest House, Manguraha - BSPCB",31-01-2024 22:00:00,27.308328,84.531742,SO2,8,9,8
India,Bihar,Manguraha,"Forest Rest House, Manguraha - BSPCB",31-01-2024 22:00:00,27.308328,84.531742,CO,104,107,105
India,Bihar,Motihari,"Gandak Colony, Motihari - BSPCB",31-01-2024 22:00:00,26.63086,84.90051,NH3,5,13,8
India,Bihar,Munger,"Town Hall, Munger - BSPCB",31-01-2024 22:00:00,25.376776,86.471523,PM2.5,103,351,208
India,Bihar,Muzaffarpur,"MIT-Daudpur Kothi, Muzaffarpur - BSPCB",31-01-2024 22:00:00,26.1403345,85.3650192,SO2,9,17,11
India,Bihar,Muzaffarpur,"MIT-Daudpur Kothi, Muzaffarpur - BSPCB",31-01-2024 22:00:00,26.1403345,85.3650192,CO,94,117,104
India,Bihar,Muzaffarpur,"Muzaffarpur Collectorate, Muzaffarpur - BSPCB",31-01-2024 22:00:00,26.1209,85.3647,NO2,2,10,8
India,Bihar,Muzaffarpur,"Muzaffarpur Collectorate, Muzaffarpur - BSPCB",31-01-2024 22:00:00,26.1209,85.3647,SO2,5,10,7
India,Bihar,Muzaffarpur,"Muzaffarpur Collectorate, Muzaffarpur - BSPCB",31-01-2024 22:00:00,26.1209,85.3647,CO,24,58,38
India,Bihar,Muzaffarpur,"Muzaffarpur Collectorate, Muzaffarpur - BSPCB",31-01-2024 22:00:00,26.1209,85.3647,OZONE,22,93,54
India,Bihar,Patna,"DRM Office Danapur, Patna - BSPCB",31-01-2024 22:00:00,25.586562,85.043586,PM2.5,304,495,391
India,Bihar,Patna,"DRM Office Danapur, Patna - BSPCB",31-01-2024 22:00:00,25.586562,85.043586,PM10,162,435,311
India,Bihar,Patna,"Govt. High School Shikarpur, Patna - BSPCB",31-01-2024 22:00:00,25.592539,85.227158,NO2,22,41,29
India,Bihar,Patna,"Govt. High School Shikarpur, Patna - BSPCB",31-01-2024 22:00:00,25.592539,85.227158,NH3,3,5,4
India,Bihar,Patna,"Govt. High School Shikarpur, Patna - BSPCB",31-01-2024 22:00:00,25.592539,85.227158,CO,28,173,173
India,Bihar,Patna,"Govt. High School Shikarpur, Patna - BSPCB",31-01-2024 22:00:00,25.592539,85.227158,OZONE,4,67,32
India,Bihar,Patna,"Rajbansi Nagar, Patna - BSPCB",31-01-2024 22:00:00,25.599486,85.113666,NO2,70,121,88
India,Bihar,Patna,"Rajbansi Nagar, Patna - BSPCB",31-01-2024 22:00:00,25.599486,85.113666,NH3,6,10,8
India,Bihar,Patna,"Rajbansi Nagar, Patna - BSPCB",31-01-2024 22:00:00,25.599486,85.113666,OZONE,3,85,29
India,Bihar,Purnia,"Mariam Nagar, Purnia - BSPCB",31-01-2024 22:00:00,25.366336,87.117468,NH3,1,1,1
India,Bihar,Purnia,"Mariam Nagar, Purnia - BSPCB",31-01-2024 22:00:00,25.366336,87.117468,SO2,15,28,19
India,Bihar,Purnia,"Mariam Nagar, Purnia - BSPCB",31-01-2024 22:00:00,25.366336,87.117468,OZONE,9,27,17
India,Bihar,Rajgir,"Dangi Tola, Rajgir - BSPCB",31-01-2024 22:00:00,25.03280,85.41948,PM2.5,223,499,346
India,Bihar,Rajgir,"Dangi Tola, Rajgir - BSPCB",31-01-2024 22:00:00,25.03280,85.41948,PM10,135,466,222
India,Bihar,Rajgir,"Dangi Tola, Rajgir - BSPCB",31-01-2024 22:00:00,25.03280,85.41948,OZONE,22,26,23
India,Bihar,Saharsa,"Police Line, Saharsa - BSPCB",31-01-2024 22:00:00,25.892357,86.590325,NH3,9,9,9
India,Bihar,Samastipur,"DM Office_Kasipur, Samastipur - BSPCB",31-01-2024 22:00:00,25.859655,85.77944,NH3,5,5,5
India,Bihar,Sasaram,"Dada Peer, Sasaram - BSPCB",31-01-2024 22:00:00,24.952822,84.002396,NH3,5,12,7
India,Bihar,Sasaram,"Dada Peer, Sasaram - BSPCB",31-01-2024 22:00:00,24.952822,84.002396,CO,42,77,54
India,Bihar,Siwan,"Chitragupta Nagar, Siwan - BSPCB",31-01-2024 22:00:00,26.2271665,84.3570427,CO,1,167,59
India,Chandigarh,Chandigarh,"Sector 22, Chandigarh - CPCC",31-01-2024 22:00:00,30.735567,76.775714,PM10,130,500,271
India,Chandigarh,Chandigarh,"Sector 22, Chandigarh - CPCC",31-01-2024 22:00:00,30.735567,76.775714,SO2,5,78,21
India,Chandigarh,Chandigarh,"Sector-25, Chandigarh - CPCC",31-01-2024 22:00:00,30.751462,76.762879,NH3,14,39,21
India,Chandigarh,Chandigarh,"Sector-25, Chandigarh - CPCC",31-01-2024 22:00:00,30.751462,76.762879,SO2,7,22,12
India,Chandigarh,Chandigarh,"Sector-25, Chandigarh - CPCC",31-01-2024 22:00:00,30.751462,76.762879,CO,34,104,42
India,Chandigarh,Chandigarh,"Sector-53, Chandigarh - CPCC",31-01-2024 22:00:00,30.719859,76.738637,OZONE,2,59,32
India,Chhattisgarh,Bhilai,"32Bungalows, Bhilai - CECB",31-01-2024 22:00:00,21.194815,81.314770,NH3,6,6,6
India,Chhattisgarh,Bhilai,"32Bungalows, Bhilai - CECB",31-01-2024 22:00:00,21.194815,81.314770,SO2,2,4,3
India,Chhattisgarh,Bhilai,"32Bungalows, Bhilai - CECB",31-01-2024 22:00:00,21.194815,81.314770,OZONE,4,9,6
India,Chhattisgarh,Bhilai,"Hathkhoj, Bhilai - CECB",31-01-2024 22:00:00,21.224231,81.408350,NO2,24,62,36
India,Chhattisgarh,Bilaspur,"Mangala, Bilaspur - NTPC",31-01-2024 22:00:00,22.08815,82.13737,PM2.5,37,116,65
India,Chhattisgarh,Bilaspur,"Mangala, Bilaspur - NTPC",31-01-2024 22:00:00,22.08815,82.13737,CO,26,39,36
India,Chhattisgarh,Chhal,"Nawapara SECL Colony, Chhal - CECB",31-01-2024 22:00:00,22.118125,83.140608,NH3,2,2,2
India,Chhattisgarh,Chhal,"Nawapara SECL Colony, Chhal - CECB",31-01-2024 22:00:00,22.118125,83.140608,CO,68,108,94
India,Chhattisgarh,Korba,"Rampur, Korba - CECB",31-01-2024 22:00:00,22.368195,82.746431,PM2.5,24,61,38
India,Chhattisgarh,Korba,"Rampur, Korba - CECB",31-01-2024 22:00:00,22.368195,82.746431,PM10,31,52,41
India,Chhattisgarh,Kunjemura,"OP Jindal School, Kunjemura - CECB",31-01-2024 22:00:00,22.126650,83.483212,PM10,60,500,301
India,Chhattisgarh,Raipur,"AIIMS, Raipur - CECB",31-01-2024 22:00:00,21.258815,81.578979,PM2.5,49,121,76
India,Chhattisgarh,Raipur,"AIIMS, Raipur - CECB",31-01-2024 22:00:00,21.258815,81.578979,NO2,55,69,61
India,Chhattisgarh,Raipur,"Bhatagaon New ISBT, Raipur - CECB",31-01-2024 22:00:00,21.219665,81.630094,PM2.5,53,84,69
India,Chhattisgarh,Raipur,"Bhatagaon New ISBT, Raipur - CECB",31-01-2024 22:00:00,21.219665,81.630094,NO2,66,114,81
India,Chhattisgarh,Raipur,"Bhatagaon New ISBT, Raipur - CECB",31-01-2024 22:00:00,21.219665,81.630094,NH3,2,3,2
India,Chhattisgarh,Raipur,"Krishak Nagar, Raipur - CECB",31-01-2024 22:00:00,21.237755,81.705301,PM2.5,52,82,61
India,Chhattisgarh,Raipur,"Krishak Nagar, Raipur - CECB",31-01-2024 22:00:00,21.237755,81.705301,PM10,59,111,79
India,Chhattisgarh,Raipur,"Krishak Nagar, Raipur - CECB",31-01-2024 22:00:00,21.237755,81.705301,CO,36,50,44
India,Chhattisgarh,Raipur,"Siltara Phase-II, Raipur - CECB",31-01-2024 22:00:00,21.371751,81.664929,PM2.5,46,98,63
India,Chhattisgarh,Raipur,"Siltara Phase-II, Raipur - CECB",31-01-2024 22:00:00,21.371751,81.664929,PM10,35,168,107
India,Chhattisgarh,Raipur,"Siltara Phase-II, Raipur - CECB",31-01-2024 22:00:00,21.371751,81.664929,NO2,33,46,38
India,Chhattisgarh,Raipur,"Siltara Phase-II, Raipur - CECB",31-01-2024 22:00:00,21.371751,81.664929,OZONE,3,8,5
India,Chhattisgarh,Tumidih,"OP Jindal Industrial Park, Tumidih - CECB",31-01-2024 22:00:00,22.06631475,83.33820077,NO2,13,44,24
India,Chhattisgarh,Tumidih,"OP Jindal Industrial Park, Tumidih - CECB",31-01-2024 22:00:00,22.06631475,83.33820077,NH3,1,3,2
India,Delhi,Delhi,"Anand Vihar, Delhi - DPCC",31-01-2024 22:00:00,28.647622,77.3158090,NH3,8,19,13
India,Delhi,Delhi,"Anand Vihar, Delhi - DPCC",31-01-2024 22:00:00,28.647622,77.3158090,SO2,5,58,23
India,Delhi,Delhi,"Anand Vihar, Delhi - DPCC",31-01-2024 22:00:00,28.647622,77.3158090,CO,17,70,38
India,Delhi,Delhi,"Ashok Vihar, Delhi - DPCC",31-01-2024 22:00:00,28.695381,77.181665,PM2.5,288,418,345
India,Delhi,Delhi,"Ashok Vihar, Delhi - DPCC",31-01-2024 22:00:00,28.695381,77.181665,CO,74,114,93
India,Delhi,Delhi,"Bawana, Delhi - DPCC",31-01-2024 22:00:00,28.776200,77.051074,SO2,5,8,6
India,Delhi,Delhi,"Bawana, Delhi - DPCC",31-01-2024 22:00:00,28.776200,77.051074,CO,100,115,105
India,Delhi,Delhi,"Burari Crossing, Delhi - IMD",31-01-2024 22:00:00,28.7256504,77.2011573,PM2.5,209,403,331
India,Delhi,Delhi,"Dr. Karni Singh Shooting Range, Delhi - DPCC",31-01-2024 22:00:00,28.498571,77.264840,NH3,12,17,14
India,Delhi,Delhi,"Dr. Karni Singh Shooting Range, Delhi - DPCC",31-01-2024 22:00:00,28.498571,77.264840,CO,64,150,96
India,Delhi,Delhi,"Dr. Karni Singh Shooting Range, Delhi - DPCC",31-01-2024 22:00:00,28.498571,77.264840,OZONE,2,51,16
India,Delhi,Delhi,"IHBAS, Dilshad Garden, Delhi - CPCB",31-01-2024 22:00:00,28.6811736,77.3025234,PM10,160,277,211
India,Delhi,Delhi,"IHBAS, Dilshad Garden, Delhi - CPCB",31-01-2024 22:00:00,28.6811736,77.3025234,OZONE,5,22,12
India,Delhi,Delhi,"ITO, Delhi - CPCB",31-01-2024 22:00:00,28.628624,77.241060,CO,76,117,101
India,Delhi,Delhi,"Jahangirpuri, Delhi - DPCC",31-01-2024 22:00:00,28.732820,77.170633,PM2.5,322,500,405
India,Delhi,Delhi,"Jahangirpuri, Delhi - DPCC",31-01-2024 22:00:00,28.732820,77.170633,CO,88,144,115
India,Delhi,Delhi,"Jawaharlal Nehru Stadium, Delhi - DPCC",31-01-2024 22:00:00,28.580280,77.233829,NO2,35,145,89
India,Delhi,Delhi,"Jawaharlal Nehru Stadium, Delhi - DPCC",31-01-2024 22:00:00,28.580280,77.233829,NH3,14,23,19
India,Delhi,Delhi,"Jawaharlal Nehru Stadium, Delhi - DPCC",31-01-2024 22:00:00,28.580280,77.233829,CO,100,127,103
India,Delhi,Delhi,"Jawaharlal Nehru Stadium, Delhi - DPCC",31-01-2024 22:00:00,28.580280,77.233829,OZONE,1,28,8
India,Delhi,Delhi,"Lodhi Road, Delhi - IITM",31-01-2024 22:00:00,28.588333,77.221667,PM2.5,NA,NA,NA
India,Delhi,Delhi,"Lodhi Road, Delhi - IITM",31-01-2024 22:00:00,28.588333,77.221667,NO2,NA,NA,NA
India,Delhi,Delhi,"Lodhi Road, Delhi - IMD",31-01-2024 22:00:00,28.5918245,77.2273074,OZONE,13,42,18
India,Delhi,Delhi,"Major Dhyan Chand National Stadium, Delhi - DPCC",31-01-2024 22:00:00,28.611281,77.237738,NH3,13,21,17
India,Delhi,Delhi,"Mandir Marg, Delhi - DPCC",31-01-2024 22:00:00,28.636429,77.201067,SO2,NA,NA,NA
India,Delhi,Delhi,"Mundka, Delhi - DPCC",31-01-2024 22:00:00,28.684678,77.076574,PM2.5,347,500,410
India,Delhi,Delhi,"Mundka, Delhi - DPCC",31-01-2024 22:00:00,28.684678,77.076574,NO2,61,158,97
India,Delhi,Delhi,"Mundka, Delhi - DPCC",31-01-2024 22:00:00,28.684678,77.076574,CO,58,114,96
India,Delhi,Delhi,"NSIT Dwarka, Delhi - CPCB",31-01-2024 22:00:00,28.60909,77.0325413,NO2,26,80,43
India,Delhi,Delhi,"NSIT Dwarka, Delhi - CPCB",31-01-2024 22:00:00,28.60909,77.0325413,NH3,7,14,9
India,Delhi,Delhi,"Najafgarh, Delhi - DPCC",31-01-2024 22:00:00,28.570173,76.933762,NH3,NA,NA,NA
India,Delhi,Delhi,"Najafgarh, Delhi - DPCC",31-01-2024 22:00:00,28.570173,76.933762,CO,16,76,25
India,Delhi,Delhi,"Nehru Nagar, Delhi - DPCC",31-01-2024 22:00:00,28.567890,77.250515,NO2,10,50,31
India,Delhi,Delhi,"Nehru Nagar, Delhi - DPCC",31-01-2024 22:00:00,28.567890,77.250515,SO2,5,23,14
India,Delhi,Delhi,"Okhla Phase-2, Delhi - DPCC",31-01-2024 22:00:00,28.530785,77.271255,SO2,5,17,9
India,Delhi,Delhi,"Okhla Phase-2, Delhi - DPCC",31-01-2024 22:00:00,28.530785,77.271255,CO,53,125,79
India,Delhi,Delhi,"Patparganj, Delhi - DPCC",31-01-2024 22:00:00,28.623763,77.287209,PM2.5,73,500,336
India,Delhi,Delhi,"Patparganj, Delhi - DPCC",31-01-2024 22:00:00,28.623763,77.287209,NO2,40,85,58
India,Delhi,Delhi,"Punjabi Bagh, Delhi - DPCC",31-01-2024 22:00:00,28.674045,77.131023,NO2,38,104,64
India,Delhi,Delhi,"Punjabi Bagh, Delhi - DPCC",31-01-2024 22:00:00,28.674045,77.131023,CO,30,64,54
India,Delhi,Delhi,"Pusa, Delhi - DPCC",31-01-2024 22:00:00,28.639652,77.146275,PM10,188,477,306
India,Delhi,Delhi,"R K Puram, Delhi - DPCC",31-01-2024 22:00:00,28.563262,77.186937,OZONE,9,35,13
India,Delhi,Delhi,"Rohini, Delhi - DPCC",31-01-2024 22:00:00,28.732528,77.119920,PM10,224,453,295
India,Delhi,Delhi,"Rohini, Delhi - DPCC",31-01-2024 22:00:00,28.732528,77.119920,NO2,38,104,66
India,Delhi,Delhi,"Shadipur, Delhi - CPCB",31-01-2024 22:00:00,28.6514781,77.1473105,SO2,10,29,17
India,Delhi,Delhi,"Sirifort, Delhi - CPCB",31-01-2024 22:00:00,28.5504249,77.2159377,PM10,207,454,369
India,Delhi,Delhi,"Sonia Vihar, Delhi - DPCC",31-01-2024 22:00:00,28.710508,77.249485,NH3,8,12,10
India,Delhi,Delhi,"Sonia Vihar, Delhi - DPCC",31-01-2024 22:00:00,28.710508,77.249485,SO2,5,14,10
India,Delhi,Delhi,"Sri Aurobindo Marg, Delhi - DPCC",31-01-2024 22:00:00,28.531346,77.190156,NO2,4,113,64
India,Delhi,Delhi,"Sri Aurobindo Marg, Delhi - DPCC",31-01-2024 22:00:00,28.531346,77.190156,SO2,10,16,13
India,Delhi,Delhi,"Wazirpur, Delhi - DPCC",31-01-2024 22:00:00,28.699793,77.165453,NO2,87,306,148
India,Gujarat,Ahmedabad,"Chandkheda, Ahmedabad - IITM",31-01-2024 22:00:00,23.107969,72.574648,NH3,4,5,4
India,Gujarat,Ahmedabad,"Gyaspur, Ahmedabad - IITM",31-01-2024 22:00:00,22.977134,72.553024,NO2,11,14,12
India,Gujarat,Ahmedabad,"Maninagar, Ahmedabad - GPCB",31-01-2024 22:00:00,23.002657,72.591912,PM10,61,319,134
India,Gujarat,Ahmedabad,"Maninagar, Ahmedabad - GPCB",31-01-2024 22:00:00,23.002657,72.591912,NO2,16,133,60
India,Gujarat,Ahmedabad,"Maninagar, Ahmedabad - GPCB",31-01-2024 22:00:00,23.002657,72.591912,CO,8,64,35
India,Gujarat,Ahmedabad,"Raikhad, Ahmedabad - IITM",31-01-2024 22:00:00,23.020509,72.579261,NO2,15,15,15
India,Gujarat,Ahmedabad,"Raikhad, Ahmedabad - IITM",31-01-2024 22:00:00,23.020509,72.579261,SO2,10,10,10
India,Gujarat,Ahmedabad,"Raikhad, Ahmedabad - IITM",31-01-2024 22:00:00,23.020509,72.579261,OZONE,12,20,17
India,Gujarat,Ahmedabad,"Rakhial, Ahmedabad - IITM",31-01-2024 22:00:00,23.016834,72.625775,PM10,71,158,114
India,Gujarat,Ahmedabad,"Rakhial, Ahmedabad - IITM",31-01-2024 22:00:00,23.016834,72.625775,OZONE,2,37,19
India,Gujarat,Ahmedabad,"SAC ISRO Bopal, Ahmedabad - IITM",31-01-2024 22:00:00,23.041137,72.456691,PM2.5,49,390,174
India,Gujarat,Ahmedabad,"SAC ISRO Bopal, Ahmedabad - IITM",31-01-2024 22:00:00,23.041137,72.456691,NO2,11,11,11
India,Gujarat,Ahmedabad,"SAC ISRO Bopal, Ahmedabad - IITM",31-01-2024 22:00:00,23.041137,72.456691,SO2,11,12,12
India,Gujarat,Ahmedabad,"SAC ISRO Bopal, Ahmedabad - IITM",31-01-2024 22:00:00,23.041137,72.456691,OZONE,15,23,17
India,Gujarat,Ahmedabad,"SAC ISRO Satellite, Ahmedabad - IITM",31-01-2024 22:00:00,23.023389,72.515201,NO2,17,17,17
India,Gujarat,Ahmedabad,"Sardar Vallabhbhai Patel Stadium, Ahmedabad - IITM",31-01-2024 22:00:00,23.043070,72.562968,NH3,3,3,3
India,Gujarat,Ahmedabad,"Sardar Vallabhbhai Patel Stadium, Ahmedabad - IITM",31-01-2024 22:00:00,23.043070,72.562968,OZONE,4,16,11
India,Gujarat,Ankleshwar,"GIDC, Ankleshwar - GPCB",31-01-2024 22:00:00,21.613267,73.010555,NO2,33,34,34
India,Gujarat,Gandhinagar,"GIFT City, Gandhinagar - IITM",31-01-2024 22:00:00,23.163798,72.677768,PM10,83,217,125
India,Gujarat,Gandhinagar,"Sector-10, Gandhinagar - GPCB",31-01-2024 22:00:00,23.221714,72.654328,NO2,7,14,10
India,Gujarat,Gandhinagar,"Sector-10, Gandhinagar - GPCB",31-01-2024 22:00:00,23.221714,72.654328,NH3,1,2,2
India,Gujarat,Surat,"Science Center, Surat - SMC",31-01-2024 22:00:00,21.170046,72.795405,PM10,8,134,54
India,Gujarat,Vapi,"Phase-1 GIDC, Vapi - GPCB",31-01-2024 22:00:00,20.362421,72.918013,PM10,89,377,204
India,Gujarat,Vapi,"Phase-1 GIDC, Vapi - GPCB",31-01-2024 22:00:00,20.362421,72.918013,SO2,43,44,44
India,Gujarat,Vapi,"Phase-1 GIDC, Vapi - GPCB",31-01-2024 22:00:00,20.362421,72.918013,CO,1,187,187
India,Gujarat,Vatva,"Phase-4 GIDC, Vatva - GPCB",31-01-2024 22:00:00,22.969611,72.643500,PM10,37,180,96
India,Haryana,Bahadurgarh,"Arya Nagar, Bahadurgarh - HSPCB",31-01-2024 22:00:00,28.6701,76.9254,PM10,110,244,155
India,Haryana,Bahadurgarh,"Arya Nagar, Bahadurgarh - HSPCB",31-01-2024 22:00:00,28.6701,76.9254,NO2,33,40,37
India,Haryana,Bahadurgarh,"Arya Nagar, Bahadurgarh - HSPCB",31-01-2024 22:00:00,28.6701,76.9254,SO2,15,17,16
India,Haryana,Ballabgarh,"Nathu Colony, Ballabgarh - HSPCB",31-01-2024 22:00:00,28.3419248,77.319699,NH3,1,2,2
India,Haryana,Ballabgarh,"Nathu Colony, Ballabgarh - HSPCB",31-01-2024 22:00:00,28.3419248,77.319699,OZONE,4,23,16
India,Haryana,Bhiwani,"H.B. Colony, Bhiwani - HSPCB",31-01-2024 22:00:00,28.806223,76.141105,PM10,59,105,86
India,Haryana,Bhiwani,"H.B. Colony, Bhiwani - HSPCB",31-01-2024 22:00:00,28.806223,76.141105,NH3,8,9,8
India,Haryana,Bhiwani,"H.B. Colony, Bhiwani - HSPCB",31-01-2024 22:00:00,28.806223,76.141105,CO,56,108,95
India,Haryana,Charkhi Dadri,"Mini Secretariat, Charkhi Dadri - HSPCB",31-01-2024 22:00:00,28.593883,76.270653,SO2,6,10,8
India,Haryana,Dharuhera,"Municipal Corporation Office, Dharuhera -  HSPCB",31-01-2024 22:00:00,28.206800,76.799700,PM2.5,56,308,131
India,Haryana,Dharuhera,"Municipal Corporation Office, Dharuhera -  HSPCB",31-01-2024 22:00:00,28.206800,76.799700,PM10,73,466,287
India,Haryana,Faridabad,"New Industrial Town, Faridabad - HSPCB",31-01-2024 22:00:00,28.39072,77.30059,NO2,2,19,11
India,Haryana,Faridabad,"New Industrial Town, Faridabad - HSPCB",31-01-2024 22:00:00,28.39072,77.30059,NH3,6,17,10
India,Haryana,Faridabad,"Sector 11, Faridabad - HSPCB",31-01-2024 22:00:00,28.376058,77.315741,SO2,8,9,8
India,Haryana,Faridabad,"Sector 30, Faridabad - HSPCB",31-01-2024 22:00:00,28.4417,77.3217,PM2.5,85,285,138
India,Haryana,Faridabad,"Sector 30, Faridabad - HSPCB",31-01-2024 22:00:00,28.4417,77.3217,PM10,120,201,182
India,Haryana,Faridabad,"Sector- 16A, Faridabad - HSPCB",31-01-2024 22:00:00,28.4088421,77.3099081,SO2,NA,NA,NA
India,Haryana,Fatehabad,"Huda Sector, Fatehabad - HSPCB",31-01-2024 22:00:00,29.503664,75.467934,NH3,9,11,10
India,Haryana,Fatehabad,"Huda Sector, Fatehabad - HSPCB",31-01-2024 22:00:00,29.503664,75.467934,SO2,6,15,9
India,Haryana,Gurugram,"NISE Gwal Pahari, Gurugram - IMD",31-01-2024 22:00:00,28.422681,77.148944,CO,114,150,128
India,Haryana,Gurugram,"NISE Gwal Pahari, Gurugram - IMD",31-01-2024 22:00:00,28.422681,77.148944,OZONE,1,18,8
India,Haryana,Gurugram,"Sector-51, Gurugram - HSPCB",31-01-2024 22:00:00,28.4227,77.0667,PM2.5,151,420,311
India,Haryana,Gurugram,"Sector-51, Gurugram - HSPCB",31-01-2024 22:00:00,28.4227,77.0667,PM10,129,446,255
India,Haryana,Gurugram,"Sector-51, Gurugram - HSPCB",31-01-2024 22:00:00,28.4227,77.0667,NH3,6,14,8
India,Haryana,Gurugram,"Teri Gram, Gurugram - HSPCB",31-01-2024 22:00:00,28.4275,77.1465,NO2,25,64,42
India,Haryana,Gurugram,"Teri Gram, Gurugram - HSPCB",31-01-2024 22:00:00,28.4275,77.1465,NH3,37,57,46
India,Haryana,Gurugram,"Teri Gram, Gurugram - HSPCB",31-01-2024 22:00:00,28.4275,77.1465,CO,60,104,77
India,Haryana,Gurugram,"Teri Gram, Gurugram - HSPCB",31-01-2024 22:00:00,28.4275,77.1465,OZONE,10,24,10
India,Haryana,Gurugram,"Vikas Sadan, Gurugram - HSPCB",31-01-2024 22:00:00,28.4501238,77.0263051,OZONE,8,67,45
India,Haryana,Hisar,"Urban Estate-II, Hisar - HSPCB",31-01-2024 22:00:00,29.140560,75.744941,PM2.5,88,206,126
India,Haryana,Hisar,"Urban Estate-II, Hisar - HSPCB",31-01-2024 22:00:00,29.140560,75.744941,NO2,8,11,9
India,Haryana,Hisar,"Urban Estate-II, Hisar - HSPCB",31-01-2024 22:00:00,29.140560,75.744941,SO2,3,56,30
India,Haryana,Kaithal,"Rishi Nagar, Kaithal - HSPCB",31-01-2024 22:00:00,29.8006,76.4155,NH3,8,35,13
India,Haryana,Kaithal,"Rishi Nagar, Kaithal - HSPCB",31-01-2024 22:00:00,29.8006,76.4155,SO2,1,109,17
India,Haryana,Karnal,"Sector-12, Karnal - HSPCB",31-01-2024 22:00:00,29.695300,77.002700,SO2,12,13,12
India,Haryana,Kurukshetra,"Sector-7, Kurukshetra - HSPCB",31-01-2024 22:00:00,29.966942,76.875879,CO,57,100,72
India,Haryana,Mandikhera,"General Hospital, Mandikhera - HSPCB",31-01-2024 22:00:00,27.9002,76.9938,PM2.5,8,36,18
India,Haryana,Mandikhera,"General Hospital, Mandikhera - HSPCB",31-01-2024 22:00:00,27.9002,76.9938,NH3,18,21,20
India,Haryana,Manesar,"Sector-2 IMT, Manesar - HSPCB",31-01-2024 22:00:00,28.360699,76.936090,NO2,14,27,20
India,Haryana,Manesar,"Sector-2 IMT, Manesar - HSPCB",31-01-2024 22:00:00,28.360699,76.936090,NH3,5,11,8
India,Haryana,Manesar,"Sector-2 IMT, Manesar - HSPCB",31-01-2024 22:00:00,28.360699,76.936090,CO,49,101,70
India,Haryana,Narnaul,"Shastri Nagar, Narnaul - HSPCB",31-01-2024 22:00:00,28.060249,76.113115,SO2,13,47,15
India,Haryana,Panipat,"Sector-18, Panipat - HSPCB",31-01-2024 22:00:00,29.497973,76.993331,PM10,104,112,107
India,Haryana,Panipat,"Sector-18, Panipat - HSPCB",31-01-2024 22:00:00,29.497973,76.993331,SO2,12,13,12
India,Haryana,Sirsa,"F-Block, Sirsa - HSPCB",31-01-2024 22:00:00,29.536400,75.015800,NH3,12,13,13
India,Haryana,Sirsa,"F-Block, Sirsa - HSPCB",31-01-2024 22:00:00,29.536400,75.015800,OZONE,17,48,32
India,Haryana,Sonipat,"Murthal, Sonipat - HSPCB",31-01-2024 22:00:00,29.027200,77.062100,PM10,128,164,154
India,Himachal Pradesh,Baddi,"HIMUDA Complex Phase-1, Baddi - HPPCB",31-01-2024 22:00:00,30.943887,76.801991,SO2,34,123,86
India,Jammu_and_Kashmir,Srinagar,"Rajbagh, Srinagar - JKSPCB",31-01-2024 22:00:00,34.066206,74.819820,OZONE,NA,NA,NA
India,Jharkhand,Dhanbad,"Kalakusuma, Dhanbad - DMC",31-01-2024 22:00:00,23.811548,86.481238,CO,1,116,2
India,Jharkhand,Dhanbad,"Sardar Patel Nagar, Dhanbad - JSPCB",31-01-2024 22:00:00,23.80569,86.44268,NO2,1,206,71
India,Jharkhand,Dhanbad,"Sardar Patel Nagar, Dhanbad - JSPCB",31-01-2024 22:00:00,23.80569,86.44268,SO2,9,67,25
India,Karnataka,Bagalkot,"Vidayagiri, Bagalkot - KSPCB",31-01-2024 22:00:00,16.172806,75.659694,OZONE,12,68,45
India,Karnataka,Belgaum,"Ramteerth Nagar, Belgaum - KSPCB",31-01-2024 22:00:00,15.888653,74.541751,PM10,44,119,73
India,Karnataka,Belgaum,"Ramteerth Nagar, Belgaum - KSPCB",31-01-2024 22:00:00,15.888653,74.541751,NH3,33,34,33
India,Karnataka,Bengaluru,"Bapuji Nagar, Bengaluru - KSPCB",31-01-2024 22:00:00,12.951913,77.539784,PM2.5,NA,NA,NA
India,Karnataka,Bengaluru,"Hebbal, Bengaluru - KSPCB",31-01-2024 22:00:00,13.029152,77.585901,PM2.5,76,261,111
India,Karnataka,Bengaluru,"Hebbal, Bengaluru - KSPCB",31-01-2024 22:00:00,13.029152,77.585901,SO2,NA,NA,NA
India,Karnataka,Bengaluru,"Hebbal, Bengaluru - KSPCB",31-01-2024 22:00:00,13.029152,77.585901,OZONE,NA,NA,NA
India,Karnataka,Bengaluru,"Hombegowda Nagar, Bengaluru - KSPCB",31-01-2024 22:00:00,12.938539,77.590100,PM2.5,38,188,73
India,Karnataka,Bengaluru,"Hombegowda Nagar, Bengaluru - KSPCB",31-01-2024 22:00:00,12.938539,77.590100,NO2,33,57,40
India,Karnataka,Bengaluru,"Hombegowda Nagar, Bengaluru - KSPCB",31-01-2024 22:00:00,12.938539,77.590100,SO2,3,5,4
India,Karnataka,Bengaluru,"Jayanagar 5th Block, Bengaluru - KSPCB",31-01-2024 22:00:00,12.920984,77.584908,CO,4,120,58
India,Karnataka,Bengaluru,"Jigani, Bengaluru - KSPCB",31-01-2024 22:00:00,12.7816279,77.6299145,NO2,25,30,28
India,Karnataka,Bengaluru,"Kasturi Nagar, Bengaluru - KSPCB",31-01-2024 22:00:00,13.003872,77.664217,PM2.5,21,383,145
India,Karnataka,Bengaluru,"Kasturi Nagar, Bengaluru - KSPCB",31-01-2024 22:00:00,13.003872,77.664217,SO2,9,10,10
India,Karnataka,Bengaluru,"Peenya, Bengaluru - CPCB",31-01-2024 22:00:00,13.0270199,77.494094,PM10,80,168,103
India,Karnataka,Bengaluru,"RVCE-Mailasandra, Bengaluru - KSPCB",31-01-2024 22:00:00,12.921418,77.502466,CO,NA,NA,NA
India,Karnataka,Bengaluru,"Shivapura_Peenya, Bengaluru - KSPCB",31-01-2024 22:00:00,13.0246342,77.5080115,CO,25,118,53
India,Karnataka,Bengaluru,"Shivapura_Peenya, Bengaluru - KSPCB",31-01-2024 22:00:00,13.0246342,77.5080115,OZONE,3,135,76
