country,state,city,station,last_update,latitude,longitude,pollutant_id,pollutant_min,pollutant_max,pollutant_avg
India,Andhra_Pradesh,Amaravati,"Secretariat, Amaravati - APPCB",18-01-2024 10:00:00,16.5150833,80.5181667,PM10,53,104,70
India,Andhra_Pradesh,Amaravati,"Secretariat, Amaravati - APPCB",18-01-2024 10:00:00,16.5150833,80.5181667,NH3,2,4,4
India,Andhra_Pradesh,Amaravati,"Secretariat, Amaravati - APPCB",18-01-2024 10:00:00,16.5150833,80.5181667,SO2,11,14,13
India,Andhra_Pradesh,Anantapur,"Gulzarpet, Anantapur - APPCB",18-01-2024 10:00:00,14.675886,77.593027,SO2,5,15,7
India,Andhra_Pradesh,Anantapur,"Gulzarpet, Anantapur - APPCB",18-01-2024 10:00:00,14.675886,77.593027,OZONE,16,61,26
India,Andhra_Pradesh,Kadapa,"Yerramukkapalli, Kadapa - APPCB",18-01-2024 10:00:00,14.465052,78.824187,NO2,9,12,10
India,Andhra_Pradesh,Rajamahendravaram,"Anand Kala Kshetram, Rajamahendravaram - APPCB",18-01-2024 10:00:00,16.9872867,81.7363176,SO2,13,26,18
India,Andhra_Pradesh,Rajamahendravaram,"Anand Kala Kshetram, Rajamahendravaram - APPCB",18-01-2024 10:00:00,16.9872867,81.7363176,CO,4,96,10
India,Andhra_Pradesh,Tirupati,"Tirumala, Tirupati - APPCB",18-01-2024 10:00:00,13.67,79.35,OZONE,7,48,17
India,Andhra_Pradesh,Tirupati,"Vaikuntapuram, Tirupati - APPCB",18-01-2024 10:00:00,13.615387,79.409230,NO2,16,29,20
India,Andhra_Pradesh,Tirupati,"Vaikuntapuram, Tirupati - APPCB",18-01-2024 10:00:00,13.615387,79.409230,CO,9,17,13
India,Andhra_Pradesh,Vijayawada,"Rajiv Gandhi Park, Vijayawada - APPCB",18-01-2024 10:00:00,16.509717,80.612222,NH3,NA,NA,NA
India,Andhra_Pradesh,Visakhapatnam,"GVM Corporation, Visakhapatnam - APPCB",18-01-2024 10:00:00,17.72,83.3,PM10,NA,NA,NA
India,Arunachal_Pradesh,Naharlagun,"Naharlagun, Naharlagun - APSPCB",18-01-2024 10:00:00,27.103358,93.679645,CO,12,59,21
India,Arunachal_Pradesh,Naharlagun,"Naharlagun, Naharlagun - APSPCB",18-01-2024 10:00:00,27.103358,93.679645,OZONE,2,2,2
India,Assam,Guwahati,"IITG, Guwahati - PCBA",18-01-2024 10:00:00,26.2028636,91.70046436,PM10,104,277,156
India,Assam,Guwahati,"IITG, Guwahati - PCBA",18-01-2024 10:00:00,26.2028636,91.70046436,CO,20,52,32
India,Assam,Guwahati,"IITG, Guwahati - PCBA",18-01-2024 10:00:00,26.2028636,91.70046436,OZONE,2,20,2
India,Assam,Guwahati,"Pan Bazaar, Guwahati - PCBA",18-01-2024 10:00:00,26.187500,91.744194,PM2.5,119,423,265
India,Assam,Guwahati,"Railway Colony, Guwahati - PCBA",18-01-2024 10:00:00,26.181742,91.78063,SO2,23,36,28
India,Assam,Guwahati,"Railway Colony, Guwahati - PCBA",18-01-2024 10:00:00,26.181742,91.78063,OZONE,9,39,24
India,Assam,Nagaon,"Christianpatty, Nagaon - PCBA",18-01-2024 10:00:00,26.349082,92.68449,OZONE,3,36,9
India,Assam,Nalbari,"Bata Chowk, Nalbari - PCBA",18-01-2024 10:00:00,26.446912,91.439057,PM10,55,320,116
India,Assam,Nalbari,"Bata Chowk, Nalbari - PCBA",18-01-2024 10:00:00,26.446912,91.439057,CO,20,136,43
India,Assam,Silchar,"Tarapur, Silchar - PCBA",18-01-2024 10:00:00,24.82827,92.79525,PM10,41,53,51
India,Assam,Silchar,"Tarapur, Silchar - PCBA",18-01-2024 10:00:00,24.82827,92.79525,NH3,1,1,1
India,Assam,Sivasagar,"Girls College, Sivasagar - PCBA",18-01-2024 10:00:00,26.987634,94.636574,NO2,11,35,24
India,Bihar,Araria,"Kharahiya Basti, Araria - BSPCB",18-01-2024 10:00:00,26.146529,87.454184,SO2,NA,NA,NA
India,Bihar,Arrah,"New DM Office, Arrah - BSPCB",18-01-2024 10:00:00,25.5626095,84.663264,PM2.5,308,352,324
India,Bihar,Arrah,"New DM Office, Arrah - BSPCB",18-01-2024 10:00:00,25.5626095,84.663264,SO2,11,22,18
India,Bihar,Arrah,"New DM Office, Arrah - BSPCB",18-01-2024 10:00:00,25.5626095,84.663264,OZONE,13,30,16
India,Bihar,Aurangabad,"Gurdeo Nagar, Aurangabad - BSPCB",18-01-2024 10:00:00,24.75746,84.366208,NO2,6,10,8
India,Bihar,Bhagalpur,"DM Office_Kachari Chowk, Bhagalpur - BSPCB",18-01-2024 10:00:00,25.251013,86.989001,PM10,123,252,170
India,Bihar,Bhagalpur,"DM Office_Kachari Chowk, Bhagalpur - BSPCB",18-01-2024 10:00:00,25.251013,86.989001,NH3,3,6,4
India,Bihar,Bhagalpur,"DM Office_Kachari Chowk, Bhagalpur - BSPCB",18-01-2024 10:00:00,25.251013,86.989001,CO,35,66,38
India,Bihar,Bhagalpur,"Mayaganj, Bhagalpur - BSPCB",18-01-2024 10:00:00,25.265194,87.012947,NO2,4,22,10
India,Bihar,Bhagalpur,"Mayaganj, Bhagalpur - BSPCB",18-01-2024 10:00:00,25.265194,87.012947,CO,7,11,9
India,Bihar,Bihar Sharif,"D M Colony, Bihar Sharif - BSPCB",18-01-2024 10:00:00,25.204762,85.514960,PM2.5,33,85,50
India,Bihar,Gaya,"Collectorate, Gaya - BSPCB",18-01-2024 10:00:00,24.7955,84.9994,SO2,13,25,19
India,Bihar,Gaya,"Kareemganj, Gaya - BSPCB",18-01-2024 10:00:00,24.792403,84.992416,OZONE,4,31,19
India,Bihar,Katihar,"Mirchaibari, Katihar - BSPCB",18-01-2024 10:00:00,25.560083,87.553265,PM10,61,141,108
India,Bihar,Katihar,"Mirchaibari, Katihar - BSPCB",18-01-2024 10:00:00,25.560083,87.553265,NO2,18,25,21
India,Bihar,Katihar,"Mirchaibari, Katihar - BSPCB",18-01-2024 10:00:00,25.560083,87.553265,CO,26,42,37
India,Bihar,Kishanganj,"SDM Office_Khagra, Kishanganj - BSPCB",18-01-2024 10:00:00,26.0881305,87.93840336,PM2.5,10,315,70
India,Bihar,Kishanganj,"SDM Office_Khagra, Kishanganj - BSPCB",18-01-2024 10:00:00,26.0881305,87.93840336,PM10,107,491,196
India,Bihar,Motihari,"Gandak Colony, Motihari - BSPCB",18-01-2024 10:00:00,26.63086,84.90051,PM10,52,177,108
India,Bihar,Motihari,"Gandak Colony, Motihari - BSPCB",18-01-2024 10:00:00,26.63086,84.90051,CO,62,103,78
India,Bihar,Motihari,"Gandak Colony, Motihari - BSPCB",18-01-2024 10:00:00,26.63086,84.90051,OZONE,22,61,46
India,Bihar,Munger,"Town Hall, Munger - BSPCB",18-01-2024 10:00:00,25.376776,86.471523,PM10,100,220,154
India,Bihar,Muzaffarpur,"Buddha Colony, Muzaffarpur - BSPCB",18-01-2024 10:00:00,26.11442,85.39813,NH3,17,23,20
India,Bihar,Muzaffarpur,"Buddha Colony, Muzaffarpur - BSPCB",18-01-2024 10:00:00,26.11442,85.39813,CO,44,113,69
India,Bihar,Muzaffarpur,"Buddha Colony, Muzaffarpur - BSPCB",18-01-2024 10:00:00,26.11442,85.39813,OZONE,24,53,29
India,Bihar,Muzaffarpur,"MIT-Daudpur Kothi, Muzaffarpur - BSPCB",18-01-2024 10:00:00,26.1403345,85.3650192,PM2.5,140,362,274
India,Bihar,Patna,"DRM Office Danapur, Patna - BSPCB",18-01-2024 10:00:00,25.586562,85.043586,PM2.5,342,396,367
India,Bihar,Patna,"DRM Office Danapur, Patna - BSPCB",18-01-2024 10:00:00,25.586562,85.043586,NH3,4,5,4
India,Bihar,Patna,"DRM Office Danapur, Patna - BSPCB",18-01-2024 10:00:00,25.586562,85.043586,SO2,9,14,11
India,Bihar,Patna,"Govt. High School Shikarpur, Patna - BSPCB",18-01-2024 10:00:00,25.592539,85.227158,PM2.5,24,256,120
India,Bihar,Patna,"Govt. High School Shikarpur, Patna - BSPCB",18-01-2024 10:00:00,25.592539,85.227158,PM10,51,172,102
India,Bihar,Patna,"Muradpur, Patna - BSPCB",18-01-2024 10:00:00,25.619651,85.147382,PM2.5,264,354,322
India,Bihar,Patna,"Muradpur, Patna - BSPCB",18-01-2024 10:00:00,25.619651,85.147382,PM10,331,438,396
India,Bihar,Patna,"Samanpura, Patna - BSPCB",18-01-2024 10:00:00,25.596727,85.085624,NH3,3,3,3
India,Bihar,Rajgir,"Dangi Tola, Rajgir - BSPCB",18-01-2024 10:00:00,25.03280,85.41948,PM10,173,231,197
India,Bihar,Rajgir,"Dangi Tola, Rajgir - BSPCB",18-01-2024 10:00:00,25.03280,85.41948,NO2,6,11,8
India,Bihar,Rajgir,"Dangi Tola, Rajgir - BSPCB",18-01-2024 10:00:00,25.03280,85.41948,OZONE,21,26,23
India,Bihar,Saharsa,"Police Line, Saharsa - BSPCB",18-01-2024 10:00:00,25.892357,86.590325,NH3,9,9,9
India,Bihar,Samastipur,"DM Office_Kasipur, Samastipur - BSPCB",18-01-2024 10:00:00,25.859655,85.77944,OZONE,6,7,6
India,Bihar,Siwan,"Chitragupta Nagar, Siwan - BSPCB",18-01-2024 10:00:00,26.2271665,84.3570427,OZONE,6,23,12
India,Chandigarh,Chandigarh,"Sector 22, Chandigarh - CPCC",18-01-2024 10:00:00,30.735567,76.775714,NH3,6,12,8
India,Chandigarh,Chandigarh,"Sector-25, Chandigarh - CPCC",18-01-2024 10:00:00,30.751462,76.762879,PM10,124,238,171
India,Chandigarh,Chandigarh,"Sector-25, Chandigarh - CPCC",18-01-2024 10:00:00,30.751462,76.762879,SO2,6,29,12
India,Chandigarh,Chandigarh,"Sector-25, Chandigarh - CPCC",18-01-2024 10:00:00,30.751462,76.762879,OZONE,1,26,1
India,Chhattisgarh,Bhilai,"32Bungalows, Bhilai - CECB",18-01-2024 10:00:00,21.194815,81.314770,NH3,6,6,6
India,Chhattisgarh,Bhilai,"32Bungalows, Bhilai - CECB",18-01-2024 10:00:00,21.194815,81.314770,CO,34,86,57
India,Chhattisgarh,Bhilai,"Civic Center, Bhilai - Bhilai Steel Plant",18-01-2024 10:00:00,21.185571,81.343175,OZONE,7,44,8
India,Chhattisgarh,Bhilai,"Hathkhoj, Bhilai - CECB",18-01-2024 10:00:00,21.224231,81.408350,PM10,103,159,128
India,Chhattisgarh,Bhilai,"Hathkhoj, Bhilai - CECB",18-01-2024 10:00:00,21.224231,81.408350,CO,22,62,44
India,Chhattisgarh,Chhal,"Nawapara SECL Colony, Chhal - CECB",18-01-2024 10:00:00,22.118125,83.140608,NO2,15,42,27
India,Chhattisgarh,Korba,"Rampur, Korba - CECB",18-01-2024 10:00:00,22.368195,82.746431,NH3,4,5,4
India,Chhattisgarh,Korba,"Rampur, Korba - CECB",18-01-2024 10:00:00,22.368195,82.746431,SO2,9,19,12
India,Chhattisgarh,Korba,"Urja Nagar, Korba - CECB",18-01-2024 10:00:00,22.348441,82.549611,NO2,42,76,65
India,Chhattisgarh,Kunjemura,"OP Jindal School, Kunjemura - CECB",18-01-2024 10:00:00,22.126650,83.483212,NH3,1,6,2
India,Chhattisgarh,Milupara,"Govt. Higher Secondary School, Milupara - CECB",18-01-2024 10:00:00,22.1910172,83.5197009,OZONE,7,62,9
India,Chhattisgarh,Raipur,"Krishak Nagar, Raipur - CECB",18-01-2024 10:00:00,21.237755,81.705301,NH3,1,1,1
India,Chhattisgarh,Raipur,"Siltara Phase-II, Raipur - CECB",18-01-2024 10:00:00,21.371751,81.664929,PM10,23,169,110
India,Chhattisgarh,Raipur,"Siltara Phase-II, Raipur - CECB",18-01-2024 10:00:00,21.371751,81.664929,SO2,2,19,6
India,Delhi,Delhi,"Alipur, Delhi - DPCC",18-01-2024 10:00:00,28.815329,77.153010,PM10,125,391,255
India,Delhi,Delhi,"Alipur, Delhi - DPCC",18-01-2024 10:00:00,28.815329,77.153010,NO2,NA,NA,NA
India,Delhi,Delhi,"Alipur, Delhi - DPCC",18-01-2024 10:00:00,28.815329,77.153010,CO,47,98,58
India,Delhi,Delhi,"Alipur, Delhi - DPCC",18-01-2024 10:00:00,28.815329,77.153010,OZONE,3,116,5
India,Delhi,Delhi,"Anand Vihar, Delhi - DPCC",18-01-2024 10:00:00,28.647622,77.3158090,PM10,133,420,266
India,Delhi,Delhi,"Anand Vihar, Delhi - DPCC",18-01-2024 10:00:00,28.647622,77.3158090,NH3,7,13,10
India,Delhi,Delhi,"Ashok Vihar, Delhi - DPCC",18-01-2024 10:00:00,28.695381,77.181665,SO2,12,25,20
India,Delhi,Delhi,"Burari Crossing, Delhi - IMD",18-01-2024 10:00:00,28.7256504,77.2011573,NO2,6,12,9
India,Delhi,Delhi,"Burari Crossing, Delhi - IMD",18-01-2024 10:00:00,28.7256504,77.2011573,CO,104,106,105
India,Delhi,Delhi,"DTU, Delhi - CPCB",18-01-2024 10:00:00,28.7500499,77.1112615,SO2,26,29,28
India,Delhi,Delhi,"Dr. Karni Singh Shooting Range, Delhi - DPCC",18-01-2024 10:00:00,28.498571,77.264840,OZONE,1,103,3
India,Delhi,Delhi,"Dwarka-Sector 8, Delhi - DPCC ",18-01-2024 10:00:00,28.5710274,77.0719006,NO2,1,59,25
India,Delhi,Delhi,"Dwarka-Sector 8, Delhi - DPCC ",18-01-2024 10:00:00,28.5710274,77.0719006,CO,44,104,54
India,Delhi,Delhi,"Dwarka-Sector 8, Delhi - DPCC ",18-01-2024 10:00:00,28.5710274,77.0719006,OZONE,2,60,3
India,Delhi,Delhi,"IHBAS, Dilshad Garden, Delhi - CPCB",18-01-2024 10:00:00,28.6811736,77.3025234,SO2,13,47,34
India,Delhi,Delhi,"IHBAS, Dilshad Garden, Delhi - CPCB",18-01-2024 10:00:00,28.6811736,77.3025234,CO,8,125,77
India,Delhi,Delhi,"ITO, Delhi - CPCB",18-01-2024 10:00:00,28.628624,77.241060,PM10,153,298,202
India,Delhi,Delhi,"ITO, Delhi - CPCB",18-01-2024 10:00:00,28.628624,77.241060,NH3,4,12,7
India,Delhi,Delhi,"ITO, Delhi - CPCB",18-01-2024 10:00:00,28.628624,77.241060,OZONE,20,45,28
India,Delhi,Delhi,"Jahangirpuri, Delhi - DPCC",18-01-2024 10:00:00,28.732820,77.170633,OZONE,8,36,9
India,Delhi,Delhi,"Jawaharlal Nehru Stadium, Delhi - DPCC",18-01-2024 10:00:00,28.580280,77.233829,NO2,62,120,85
India,Delhi,Delhi,"Jawaharlal Nehru Stadium, Delhi - DPCC",18-01-2024 10:00:00,28.580280,77.233829,NH3,10,13,11
India,Delhi,Delhi,"Jawaharlal Nehru Stadium, Delhi - DPCC",18-01-2024 10:00:00,28.580280,77.233829,SO2,5,24,10
India,Delhi,Delhi,"Jawaharlal Nehru Stadium, Delhi - DPCC",18-01-2024 10:00:00,28.580280,77.233829,CO,49,107,53
India,Delhi,Delhi,"Lodhi Road, Delhi - IITM",18-01-2024 10:00:00,28.588333,77.221667,NO2,66,87,83
India,Delhi,Delhi,"Lodhi Road, Delhi - IMD",18-01-2024 10:00:00,28.5918245,77.2273074,CO,28,65,30
India,Delhi,Delhi,"Major Dhyan Chand National Stadium, Delhi - DPCC",18-01-2024 10:00:00,28.611281,77.237738,NO2,46,116,67
India,Delhi,Delhi,"Major Dhyan Chand National Stadium, Delhi - DPCC",18-01-2024 10:00:00,28.611281,77.237738,SO2,13,32,20
India,Delhi,Delhi,"Mundka, Delhi - DPCC",18-01-2024 10:00:00,28.684678,77.076574,PM10,126,457,344
India,Delhi,Delhi,"Mundka, Delhi - DPCC",18-01-2024 10:00:00,28.684678,77.076574,NH3,6,10,8
India,Delhi,Delhi,"NSIT Dwarka, Delhi - CPCB",18-01-2024 10:00:00,28.60909,77.0325413,PM2.5,216,449,341
India,Delhi,Delhi,"NSIT Dwarka, Delhi - CPCB",18-01-2024 10:00:00,28.60909,77.0325413,NO2,39,79,53
India,Delhi,Delhi,"Najafgarh, Delhi - DPCC",18-01-2024 10:00:00,28.570173,76.933762,PM2.5,107,409,290
India,Delhi,Delhi,"Najafgarh, Delhi - DPCC",18-01-2024 10:00:00,28.570173,76.933762,PM10,75,309,183
India,Delhi,Delhi,"Narela, Delhi - DPCC",18-01-2024 10:00:00,28.822836,77.101981,PM2.5,243,466,377
India,Delhi,Delhi,"Nehru Nagar, Delhi - DPCC",18-01-2024 10:00:00,28.567890,77.250515,NO2,32,67,47
India,Delhi,Delhi,"North Campus, DU, Delhi - IMD",18-01-2024 10:00:00,28.6573814,77.1585447,PM2.5,172,499,321
India,Delhi,Delhi,"North Campus, DU, Delhi - IMD",18-01-2024 10:00:00,28.6573814,77.1585447,CO,34,69,47
India,Delhi,Delhi,"Okhla Phase-2, Delhi - DPCC",18-01-2024 10:00:00,28.530785,77.271255,PM10,120,399,243
India,Delhi,Delhi,"Okhla Phase-2, Delhi - DPCC",18-01-2024 10:00:00,28.530785,77.271255,NO2,47,114,65
India,Delhi,Delhi,"Okhla Phase-2, Delhi - DPCC",18-01-2024 10:00:00,28.530785,77.271255,SO2,5,13,8
India,Delhi,Delhi,"Patparganj, Delhi - DPCC",18-01-2024 10:00:00,28.623763,77.287209,PM2.5,199,373,314
India,Delhi,Delhi,"Patparganj, Delhi - DPCC",18-01-2024 10:00:00,28.623763,77.287209,NO2,34,69,48
India,Delhi,Delhi,"Pusa, Delhi - DPCC",18-01-2024 10:00:00,28.639652,77.146275,NH3,15,30,22
India,Delhi,Delhi,"Pusa, Delhi - IMD",18-01-2024 10:00:00,28.636110,77.173332,CO,100,112,103
India,Delhi,Delhi,"Pusa, Delhi - IMD",18-01-2024 10:00:00,28.636110,77.173332,OZONE,11,17,12
India,Delhi,Delhi,"Shadipur, Delhi - CPCB",18-01-2024 10:00:00,28.6514781,77.1473105,PM2.5,95,413,323
India,Delhi,Delhi,"Shadipur, Delhi - CPCB",18-01-2024 10:00:00,28.6514781,77.1473105,CO,11,102,74
India,Delhi,Delhi,"Sirifort, Delhi - CPCB",18-01-2024 10:00:00,28.5504249,77.2159377,PM2.5,300,423,362
India,Delhi,Delhi,"Sirifort, Delhi - CPCB",18-01-2024 10:00:00,28.5504249,77.2159377,PM10,145,401,276
India,Delhi,Delhi,"Sonia Vihar, Delhi - DPCC",18-01-2024 10:00:00,28.710508,77.249485,NO2,42,106,68
India,Delhi,Delhi,"Sonia Vihar, Delhi - DPCC",18-01-2024 10:00:00,28.710508,77.249485,NH3,8,11,9
India,Delhi,Delhi,"Sonia Vihar, Delhi - DPCC",18-01-2024 10:00:00,28.710508,77.249485,OZONE,3,127,4
India,Delhi,Delhi,"Vivek Vihar, Delhi - DPCC",18-01-2024 10:00:00,28.672342,77.315260,NO2,45,98,68
India,Delhi,Delhi,"Wazirpur, Delhi - DPCC",18-01-2024 10:00:00,28.699793,77.165453,PM10,137,482,306
India,Gujarat,Ahmedabad,"Raikhad, Ahmedabad - IITM",18-01-2024 10:00:00,23.020509,72.579261,PM10,NA,NA,NA
India,Gujarat,Ahmedabad,"Raikhad, Ahmedabad - IITM",18-01-2024 10:00:00,23.020509,72.579261,NO2,NA,NA,NA
India,Gujarat,Ahmedabad,"Raikhad, Ahmedabad - IITM",18-01-2024 10:00:00,23.020509,72.579261,OZONE,NA,NA,NA
India,Gujarat,Ahmedabad,"Rakhial, Ahmedabad - IITM",18-01-2024 10:00:00,23.016834,72.625775,NO2,9,79,25
India,Gujarat,Ahmedabad,"SAC ISRO Bopal, Ahmedabad - IITM",18-01-2024 10:00:00,23.041137,72.456691,NH3,4,4,4
India,Gujarat,Ahmedabad,"SAC ISRO Satellite, Ahmedabad - IITM",18-01-2024 10:00:00,23.023389,72.515201,OZONE,2,16,6
India,Gujarat,Ahmedabad,"Sardar Vallabhbhai Patel Stadium, Ahmedabad - IITM",18-01-2024 10:00:00,23.043070,72.562968,NO2,11,13,12
India,Gujarat,Ahmedabad,"Sardar Vallabhbhai Patel Stadium, Ahmedabad - IITM",18-01-2024 10:00:00,23.043070,72.562968,SO2,6,8,7
India,Gujarat,Ahmedabad,"Sardar Vallabhbhai Patel Stadium, Ahmedabad - IITM",18-01-2024 10:00:00,23.043070,72.562968,CO,13,110,28
India,Gujarat,Ankleshwar,"GIDC, Ankleshwar - GPCB",18-01-2024 10:00:00,21.613267,73.010555,PM10,57,168,94
India,Gujarat,Ankleshwar,"GIDC, Ankleshwar - GPCB",18-01-2024 10:00:00,21.613267,73.010555,OZONE,20,28,20
India,Gujarat,Gandhinagar,"GIFT City, Gandhinagar - IITM",18-01-2024 10:00:00,23.163798,72.677768,SO2,5,8,6
India,Gujarat,Gandhinagar,"GIFT City, Gandhinagar - IITM",18-01-2024 10:00:00,23.163798,72.677768,OZONE,1,24,7
India,Gujarat,Gandhinagar,"IIPHG Lekawada, Gandhinagar - IITM",18-01-2024 10:00:00,23.243639,72.68994,SO2,5,6,6
India,Gujarat,Surat,"Science Center, Surat - SMC",18-01-2024 10:00:00,21.170046,72.795405,PM2.5,18,78,48
India,Gujarat,Vapi,"Phase-1 GIDC, Vapi - GPCB",18-01-2024 10:00:00,20.362421,72.918013,PM2.5,75,360,237
India,Gujarat,Vapi,"Phase-1 GIDC, Vapi - GPCB",18-01-2024 10:00:00,20.362421,72.918013,PM10,99,338,186
India,Gujarat,Vatva,"Phase-4 GIDC, Vatva - GPCB",18-01-2024 10:00:00,22.969611,72.643500,OZONE,5,37,7
India,Haryana,Ambala,"Patti Mehar, Ambala - HSPCB",18-01-2024 10:00:00,30.379589,76.778328,PM2.5,82,313,182
India,Haryana,Ambala,"Patti Mehar, Ambala - HSPCB",18-01-2024 10:00:00,30.379589,76.778328,CO,30,60,51
India,Haryana,Ballabgarh,"Nathu Colony, Ballabgarh - HSPCB",18-01-2024 10:00:00,28.3419248,77.319699,PM10,91,189,155
India,Haryana,Ballabgarh,"Nathu Colony, Ballabgarh - HSPCB",18-01-2024 10:00:00,28.3419248,77.319699,NH3,1,2,2
India,Haryana,Bhiwani,"H.B. Colony, Bhiwani - HSPCB",18-01-2024 10:00:00,28.806223,76.141105,NH3,5,6,6
India,Haryana,Charkhi Dadri,"Mini Secretariat, Charkhi Dadri - HSPCB",18-01-2024 10:00:00,28.593883,76.270653,PM10,5,396,123
India,Haryana,Charkhi Dadri,"Mini Secretariat, Charkhi Dadri - HSPCB",18-01-2024 10:00:00,28.593883,76.270653,NH3,5,7,6
India,Haryana,Dharuhera,"Municipal Corporation Office, Dharuhera -  HSPCB",18-01-2024 10:00:00,28.206800,76.799700,PM2.5,45,315,178
India,Haryana,Dharuhera,"Municipal Corporation Office, Dharuhera -  HSPCB",18-01-2024 10:00:00,28.206800,76.799700,SO2,3,20,8
India,Haryana,Faridabad,"New Industrial Town, Faridabad - HSPCB",18-01-2024 10:00:00,28.39072,77.30059,OZONE,28,129,41
India,Haryana,Faridabad,"Sector 11, Faridabad - HSPCB",18-01-2024 10:00:00,28.376058,77.315741,NO2,31,32,32
India,Haryana,Faridabad,"Sector 11, Faridabad - HSPCB",18-01-2024 10:00:00,28.376058,77.315741,SO2,18,20,19
India,Haryana,Faridabad,"Sector 30, Faridabad - HSPCB",18-01-2024 10:00:00,28.4417,77.3217,PM10,120,135,129
India,Haryana,Faridabad,"Sector 30, Faridabad - HSPCB",18-01-2024 10:00:00,28.4417,77.3217,NH3,14,14,14
India,Haryana,Faridabad,"Sector 30, Faridabad - HSPCB",18-01-2024 10:00:00,28.4417,77.3217,SO2,3,4,3
India,Haryana,Faridabad,"Sector- 16A, Faridabad - HSPCB",18-01-2024 10:00:00,28.4088421,77.3099081,NO2,2,49,22
India,Haryana,Fatehabad,"Huda Sector, Fatehabad - HSPCB",18-01-2024 10:00:00,29.503664,75.467934,PM10,68,132,98
India,Haryana,Gurugram,"Sector-51, Gurugram - HSPCB",18-01-2024 10:00:00,28.4227,77.0667,PM10,93,343,207
India,Haryana,Gurugram,"Sector-51, Gurugram - HSPCB",18-01-2024 10:00:00,28.4227,77.0667,OZONE,27,67,44
India,Haryana,Gurugram,"Teri Gram, Gurugram - HSPCB",18-01-2024 10:00:00,28.4275,77.1465,PM2.5,54,358,249
India,Haryana,Gurugram,"Vikas Sadan, Gurugram - HSPCB",18-01-2024 10:00:00,28.4501238,77.0263051,OZONE,8,68,14
India,Haryana,Hisar,"Urban Estate-II, Hisar - HSPCB",18-01-2024 10:00:00,29.140560,75.744941,NO2,7,34,9
India,Haryana,Jind,"Police Lines, Jind - HSPCB",18-01-2024 10:00:00,29.307814,76.337619,CO,21,26,24
India,Haryana,Kaithal,"Rishi Nagar, Kaithal - HSPCB",18-01-2024 10:00:00,29.8006,76.4155,NO2,24,26,25
India,Haryana,Kaithal,"Rishi Nagar, Kaithal - HSPCB",18-01-2024 10:00:00,29.8006,76.4155,CO,28,135,66
India,Haryana,Karnal,"Sector-12, Karnal - HSPCB",18-01-2024 10:00:00,29.695300,77.002700,NO2,7,12,10
India,Haryana,Karnal,"Sector-12, Karnal - HSPCB",18-01-2024 10:00:00,29.695300,77.002700,OZONE,30,33,31
India,Haryana,Mandikhera,"General Hospital, Mandikhera - HSPCB",18-01-2024 10:00:00,27.9002,76.9938,NO2,16,21,19
India,Haryana,Mandikhera,"General Hospital, Mandikhera - HSPCB",18-01-2024 10:00:00,27.9002,76.9938,SO2,31,39,34
India,Haryana,Mandikhera,"General Hospital, Mandikhera - HSPCB",18-01-2024 10:00:00,27.9002,76.9938,OZONE,23,34,28
India,Haryana,Manesar,"Sector-2 IMT, Manesar - HSPCB",18-01-2024 10:00:00,28.360699,76.936090,OZONE,6,30,8
India,Haryana,Narnaul,"Shastri Nagar, Narnaul - HSPCB",18-01-2024 10:00:00,28.060249,76.113115,SO2,12,34,14
India,Haryana,Rohtak,"MD University, Rohtak - HSPCB",18-01-2024 10:00:00,28.52123,76.37138,SO2,1,27,9
India,Haryana,Sirsa,"F-Block, Sirsa - HSPCB",18-01-2024 10:00:00,29.536400,75.015800,PM10,63,122,101
India,Haryana,Sirsa,"F-Block, Sirsa - HSPCB",18-01-2024 10:00:00,29.536400,75.015800,NH3,13,13,13
India,Haryana,Sirsa,"F-Block, Sirsa - HSPCB",18-01-2024 10:00:00,29.536400,75.015800,CO,65,84,69
India,Haryana,Sonipat,"Murthal, Sonipat - HSPCB",18-01-2024 10:00:00,29.027200,77.062100,NH3,5,10,9
India,Haryana,Sonipat,"Murthal, Sonipat - HSPCB",18-01-2024 10:00:00,29.027200,77.062100,CO,4,62,53
India,Haryana,Yamuna Nagar,"Gobind Pura, Yamuna Nagar - HSPCB",18-01-2024 10:00:00,30.1480566,77.2893471,OZONE,5,19,5
India,Himachal Pradesh,Baddi,"HIMUDA Complex Phase-1, Baddi - HPPCB",18-01-2024 10:00:00,30.943887,76.801991,PM2.5,123,475,353
India,Jharkhand,Dhanbad,"Kalakusuma, Dhanbad - DMC",18-01-2024 10:00:00,23.811548,86.481238,PM2.5,NA,NA,NA
India,Jharkhand,Dhanbad,"Sardar Patel Nagar, Dhanbad - JSPCB",18-01-2024 10:00:00,23.80569,86.44268,SO2,NA,NA,NA
India,Jharkhand,Pathardih,"Mohalbani Ghat, Pathardih - DMC",18-01-2024 10:00:00,23.669880,86.411725,SO2,NA,NA,NA
India,Karnataka,Bagalkot,"Vidayagiri, Bagalkot - KSPCB",18-01-2024 10:00:00,16.172806,75.659694,PM2.5,19,36,28
India,Karnataka,Bagalkot,"Vidayagiri, Bagalkot - KSPCB",18-01-2024 10:00:00,16.172806,75.659694,NH3,1,2,1
India,Karnataka,Bengaluru,"BTM Layout, Bengaluru - CPCB",18-01-2024 10:00:00,12.9135218,77.5950804,OZONE,2,47,3
India,Karnataka,Bengaluru,"Bapuji Nagar, Bengaluru - KSPCB",18-01-2024 10:00:00,12.951913,77.539784,PM2.5,65,162,105
India,Karnataka,Bengaluru,"Hebbal, Bengaluru - KSPCB",18-01-2024 10:00:00,13.029152,77.585901,CO,2,44,14
India,Karnataka,Bengaluru,"Hombegowda Nagar, Bengaluru - KSPCB",18-01-2024 10:00:00,12.938539,77.590100,PM10,58,144,97
India,Karnataka,Bengaluru,"Hombegowda Nagar, Bengaluru - KSPCB",18-01-2024 10:00:00,12.938539,77.590100,NO2,36,46,40
India,Karnataka,Bengaluru,"Hombegowda Nagar, Bengaluru - KSPCB",18-01-2024 10:00:00,12.938539,77.590100,SO2,4,5,4
India,Karnataka,Bengaluru,"Hombegowda Nagar, Bengaluru - KSPCB",18-01-2024 10:00:00,12.938539,77.590100,CO,17,20,18
India,Karnataka,Bengaluru,"Jigani, Bengaluru - KSPCB",18-01-2024 10:00:00,12.7816279,77.6299145,CO,48,82,58
India,Karnataka,Bengaluru,"Kasturi Nagar, Bengaluru - KSPCB",18-01-2024 10:00:00,13.003872,77.664217,PM2.5,71,158,117
India,Karnataka,Bengaluru,"Peenya, Bengaluru - CPCB",18-01-2024 10:00:00,13.0270199,77.494094,PM10,32,154,102
India,Karnataka,Bengaluru,"RVCE-Mailasandra, Bengaluru - KSPCB",18-01-2024 10:00:00,12.921418,77.502466,CO,38,66,42
India,Karnataka,Bengaluru,"Silk Board, Bengaluru - KSPCB",18-01-2024 10:00:00,12.917348,77.622813,PM2.5,44,171,85
India,Karnataka,Bidar,"Naubad, Bidar - KSPCB",18-01-2024 10:00:00,17.930306,77.482194,NO2,7,8,8
India,Karnataka,Chamarajanagar,"Urban, Chamarajanagar - KSPCB",18-01-2024 10:00:00,11.55358,76.55521,PM2.5,20,45,27
India,Karnataka,Chamarajanagar,"Urban, Chamarajanagar - KSPCB",18-01-2024 10:00:00,11.55358,76.55521,PM10,39,55,46
India,Karnataka,Chamarajanagar,"Urban, Chamarajanagar - KSPCB",18-01-2024 10:00:00,11.55358,76.55521,NO2,19,34,26
India,Karnataka,Chamarajanagar,"Urban, Chamarajanagar - KSPCB",18-01-2024 10:00:00,11.55358,76.55521,SO2,2,7,4
India,Karnataka,Chikkamagaluru,"Kalyana Nagara, Chikkamagaluru - KSPCB",18-01-2024 10:00:00,13.328028,75.797056,PM2.5,NA,NA,NA
India,Karnataka,Chikkamagaluru,"Kalyana Nagara, Chikkamagaluru - KSPCB",18-01-2024 10:00:00,13.328028,75.797056,OZONE,17,18,18
India,Karnataka,Davanagere,"Devaraj Urs Badavane, Davanagere - KSPCB",18-01-2024 10:00:00,14.475800,75.905200,CO,16,20,17
India,Karnataka,Dharwad,"Kalabhavan, Dharwad - KSPCB",18-01-2024 10:00:00,15.459706,75.008381,NH3,3,3,3
India,Karnataka,Dharwad,"Kalabhavan, Dharwad - KSPCB",18-01-2024 10:00:00,15.459706,75.008381,CO,29,109,64
India,Karnataka,Gadag,"Panchal Nagar, Gadag - KSPCB",18-01-2024 10:00:00,15.411456,75.638133,PM10,40,94,56
India,Karnataka,Hassan,"B.Katihalli, Hassan - KSPCB",18-01-2024 10:00:00,13.008556,76.125258,NO2,NA,NA,NA
India,Karnataka,Haveri,"Ashwini Nagar, Haveri - KSPCB",18-01-2024 10:00:00,14.791800,75.389600,PM10,NA,NA,NA
India,Karnataka,Haveri,"Ashwini Nagar, Haveri - KSPCB",18-01-2024 10:00:00,14.791800,75.389600,SO2,NA,NA,NA
India,Karnataka,Hubballi,"Deshpande Nagar, Hubballi - KSPCB",18-01-2024 10:00:00,15.351773,75.140726,CO,76,100,87
India,Karnataka,Hubballi,"Lingaraj Nagar, Hubballi - KSPCB",18-01-2024 10:00:00,15.3714823,75.1160168,PM2.5,31,77,54
India,Karnataka,Hubballi,"Lingaraj Nagar, Hubballi - KSPCB",18-01-2024 10:00:00,15.3714823,75.1160168,NH3,2,2,2
India,Karnataka,Hubballi,"Lingaraj Nagar, Hubballi - KSPCB",18-01-2024 10:00:00,15.3714823,75.1160168,SO2,1,6,2
India,Karnataka,Hubballi,"Lingaraj Nagar, Hubballi - KSPCB",18-01-2024 10:00:00,15.3714823,75.1160168,OZONE,18,93,40
India,Karnataka,Kalaburagi,"Lal Bahadur Shastri Nagar, Kalaburagi - KSPCB",18-01-2024 10:00:00,17.321993,76.822628,NO2,11,12,12
India,Karnataka,Kalaburagi,"Lal Bahadur Shastri Nagar, Kalaburagi - KSPCB",18-01-2024 10:00:00,17.321993,76.822628,OZONE,18,77,43
India,Karnataka,Karwar,"KHB Colony, Karwar - KSPCB",18-01-2024 10:00:00,14.816666,74.141003,PM2.5,33,147,65
India,Karnataka,Karwar,"KHB Colony, Karwar - KSPCB",18-01-2024 10:00:00,14.816666,74.141003,PM10,40,127,73
India,Karnataka,Karwar,"KHB Colony, Karwar - KSPCB",18-01-2024 10:00:00,14.816666,74.141003,NH3,2,41,7
India,Karnataka,Karwar,"KHB Colony, Karwar - KSPCB",18-01-2024 10:00:00,14.816666,74.141003,SO2,13,18,17
India,Karnataka,Kolar,"Tamaka Ind. Area, Kolar - KSPCB",18-01-2024 10:00:00,13.1276288,78.1570122,SO2,13,14,13
India,Karnataka,Koppal,"Diwator Nagar, Koppal - KSPCB",18-01-2024 10:00:00,15.347630,76.181767,SO2,56,89,65
India,Karnataka,Mangalore,"Kadri, Mangalore - KSPCB",18-01-2024 10:00:00,12.889250,74.853000,PM2.5,45,87,61
India,Karnataka,Mangalore,"Kadri, Mangalore - KSPCB",18-01-2024 10:00:00,12.889250,74.853000,PM10,52,97,69
India,Karnataka,Mangalore,"Kadri, Mangalore - KSPCB",18-01-2024 10:00:00,12.889250,74.853000,NO2,9,10,10
India,Karnataka,Mangalore,"Kadri, Mangalore - KSPCB",18-01-2024 10:00:00,12.889250,74.853000,SO2,19,22,21
India,Karnataka,Raichur,"Haji Colony, Raichur - KSPCB",18-01-2024 10:00:00,16.208139,77.348417,PM2.5,NA,NA,NA
India,Karnataka,Raichur,"Haji Colony, Raichur - KSPCB",18-01-2024 10:00:00,16.208139,77.348417,NO2,NA,NA,NA
India,Karnataka,Ramanagara,"Vijay Nagar, Ramanagara - KSPCB",18-01-2024 10:00:00,12.733409,77.298051,CO,7,30,23
India,Karnataka,Shivamogga,"Vinoba Nagara, Shivamogga - KSPCB",18-01-2024 10:00:00,13.940000,75.555917,PM10,62,88,84
India,Karnataka,Shivamogga,"Vinoba Nagara, Shivamogga - KSPCB",18-01-2024 10:00:00,13.940000,75.555917,OZONE,25,58,30
India,Karnataka,Tumakuru,"Thimmalapura, Tumakuru - KSPCB",18-01-2024 10:00:00,13.377516,77.099072,PM10,109,301,143
India,Karnataka,Tumakuru,"Thimmalapura, Tumakuru - KSPCB",18-01-2024 10:00:00,13.377516,77.099072,OZONE,7,69,18
India,Karnataka,Udupi,"Brahmagiri, Udupi - KSPCB",18-01-2024 10:00:00,13.34194444,74.74694444,PM10,28,59,39
India,Karnataka,Yadgir,"Collector Office, Yadgir - KSPCB",18-01-2024 10:00:00,16.7602,77.1428,NH3,1,1,1
India,Kerala,Eloor,"Udyogamandal, Eloor - Kerala PCB",18-01-2024 10:00:00,10.073232,76.302765,CO,12,69,28
India,Kerala,Kollam,"Polayathode, Kollam - Kerala PCB",18-01-2024 10:00:00,8.8787,76.6073,PM10,66,129,94
India,Kerala,Kollam,"Polayathode, Kollam - Kerala PCB",18-01-2024 10:00:00,8.8787,76.6073,NO2,8,9,8
India,Kerala,Kollam,"Polayathode, Kollam - Kerala PCB",18-01-2024 10:00:00,8.8787,76.6073,OZONE,28,36,29
India,Kerala,Thiruvananthapuram,"Kariavattom, Thiruvananthapuram - Kerala PCB",18-01-2024 10:00:00,8.563700,76.886500,PM2.5,61,71,66
India,Kerala,Thiruvananthapuram,"Kariavattom, Thiruvananthapuram - Kerala PCB",18-01-2024 10:00:00,8.563700,76.886500,CO,18,56,27
India,Kerala,Thiruvananthapuram,"Plammoodu, Thiruvananthapuram - Kerala PCB",18-01-2024 10:00:00,8.5149093,76.9435879,PM2.5,32,117,63
India,Kerala,Thiruvananthapuram,"Plammoodu, Thiruvananthapuram - Kerala PCB",18-01-2024 10:00:00,8.5149093,76.9435879,PM10,52,146,94
India,Kerala,Thrissur,"Corporation Ground, Thrissur - Kerala PCB",18-01-2024 10:00:00,10.532400,76.215900,PM2.5,48,54,51
India,Madhya Pradesh,Bhopal,"Idgah Hills, Bhopal - MPPCB",18-01-2024 10:00:00,23.264759,77.381568,PM10,66,145,106
India,Madhya Pradesh,Bhopal,"Idgah Hills, Bhopal - MPPCB",18-01-2024 10:00:00,23.264759,77.381568,CO,28,68,53
India,Madhya Pradesh,Bhopal,"Idgah Hills, Bhopal - MPPCB",18-01-2024 10:00:00,23.264759,77.381568,OZONE,28,111,39
India,Madhya Pradesh,Bhopal,"T T Nagar, Bhopal - MPPCB",18-01-2024 10:00:00,23.233584,77.400574,PM2.5,65,217,133
India,Madhya Pradesh,Bhopal,"T T Nagar, Bhopal - MPPCB",18-01-2024 10:00:00,23.233584,77.400574,NO2,35,72,49
India,Madhya Pradesh,Damoh,"Shrivastav Colony, Damoh - MPPCB",18-01-2024 10:00:00,23.81748678,79.446246,PM2.5,18,56,32
India,Madhya Pradesh,Damoh,"Shrivastav Colony, Damoh - MPPCB",18-01-2024 10:00:00,23.81748678,79.446246,PM10,38,123,84
India,Madhya Pradesh,Dewas,"Bhopal Chauraha, Dewas - MPPCB",18-01-2024 10:00:00,22.9682591,76.064118,NH3,3,3,3
India,Madhya Pradesh,Gwalior,"City Center, Gwalior - MPPCB",18-01-2024 10:00:00,26.203442,78.193251,PM2.5,74,211,111
India,Madhya Pradesh,Gwalior,"City Center, Gwalior - MPPCB",18-01-2024 10:00:00,26.203442,78.193251,NO2,19,38,25
India,Madhya Pradesh,Gwalior,"City Center, Gwalior - MPPCB",18-01-2024 10:00:00,26.203442,78.193251,NH3,4,7,6
India,Madhya Pradesh,Gwalior,"Deen Dayal Nagar, Gwalior - MPPCB",18-01-2024 10:00:00,26.259242,78.216432,NH3,5,9,7
India,Madhya Pradesh,Indore,"Chhoti Gwaltoli, Indore - MPPCB",18-01-2024 10:00:00,22.4310,75.5213,NO2,44,160,92
India,Madhya Pradesh,Indore,"Regional Park, Indore - IMC",18-01-2024 10:00:00,22.6780,75.8559,SO2,43,48,46
India,Madhya Pradesh,Indore,"Regional Park, Indore - IMC",18-01-2024 10:00:00,22.6780,75.8559,OZONE,4,13,5
India,Madhya Pradesh,Jabalpur,"Govindh Bhavan Colony, Jabalpur - JMC",18-01-2024 10:00:00,23.163174,79.973061,SO2,2,29,17
India,Madhya Pradesh,Jabalpur,"Govindh Bhavan Colony, Jabalpur - JMC",18-01-2024 10:00:00,23.163174,79.973061,CO,26,116,50
India,Madhya Pradesh,Jabalpur,"Gupteshwar, Jabalpur - JMC",18-01-2024 10:00:00,23.142888,79.916147,NH3,6,9,7
India,Madhya Pradesh,Jabalpur,"Marhatal, Jabalpur - MPPCB",18-01-2024 10:00:00,23.168606,79.932247,PM10,74,213,145
India,Madhya Pradesh,Jabalpur,"Marhatal, Jabalpur - MPPCB",18-01-2024 10:00:00,23.168606,79.932247,SO2,11,21,17
India,Madhya Pradesh,Jabalpur,"Suhagi, Jabalpur - JMC",18-01-2024 10:00:00,23.218135,79.957770,PM2.5,60,312,200
India,Madhya Pradesh,Jabalpur,"Suhagi, Jabalpur - JMC",18-01-2024 10:00:00,23.218135,79.957770,NO2,35,41,39
India,Madhya Pradesh,Jabalpur,"Suhagi, Jabalpur - JMC",18-01-2024 10:00:00,23.218135,79.957770,NH3,3,4,4
India,Madhya Pradesh,Katni,"Gole Bazar, Katni - MPPCB",18-01-2024 10:00:00,23.50016,80.23284,PM2.5,43,198,132
India,Madhya Pradesh,Katni,"Gole Bazar, Katni - MPPCB",18-01-2024 10:00:00,23.50016,80.23284,OZONE,8,109,18
India,Madhya Pradesh,Mandideep,"Sector-D Industrial Area, Mandideep - MPPCB",18-01-2024 10:00:00,23.108440,77.511428,NH3,5,9,7
India,Madhya Pradesh,Pithampur,"Sector-2 Industrial Area, Pithampur - MPPCB",18-01-2024 10:00:00,22.624758,75.675238,PM10,80,236,144
India,Madhya Pradesh,Pithampur,"Sector-2 Industrial Area, Pithampur - MPPCB",18-01-2024 10:00:00,22.624758,75.675238,SO2,12,19,14
India,Madhya Pradesh,Ratlam,"Shasthri Nagar, Ratlam - IPCA Lab",18-01-2024 10:00:00,23.331731,75.045981,SO2,13,17,14
India,Madhya Pradesh,Sagar,"Civil Lines, Sagar - MPPCB",18-01-2024 10:00:00,23.838586,78.759431,NO2,11,17,13
India,Madhya Pradesh,Sagar,"Civil Lines, Sagar - MPPCB",18-01-2024 10:00:00,23.838586,78.759431,SO2,3,4,3
India,Madhya Pradesh,Satna,"Bandhavgar Colony, Satna - Birla Cement",18-01-2024 10:00:00,24.58434363,80.8549414,PM2.5,12,39,25
India,Madhya Pradesh,Singrauli,"Suryakiran Bhawan NCL, Singrauli - MPPCB",18-01-2024 10:00:00,24.108970,82.645580,PM2.5,NA,NA,NA
India,Madhya Pradesh,Singrauli,"Suryakiran Bhawan NCL, Singrauli - MPPCB",18-01-2024 10:00:00,24.108970,82.645580,PM10,126,252,199
India,Madhya Pradesh,Singrauli,"Suryakiran Bhawan NCL, Singrauli - MPPCB",18-01-2024 10:00:00,24.108970,82.645580,NO2,7,15,11
India,Maharashtra,Ahmednagar,"Tarakpur, Ahmednagar - MPCB",18-01-2024 10:00:00,19.10122,74.73339,PM2.5,53,86,68
India,Maharashtra,Akola,"Ramdaspeth, Akola - MPCB",18-01-2024 10:00:00,20.719516,77.000253,OZONE,8,76,21
India,Maharashtra,Amravati,"Shivneri Colony, Amravati - MPCB",18-01-2024 10:00:00,20.9402359,77.7895248,PM2.5,NA,NA,NA
India,Maharashtra,Amravati,"Shivneri Colony, Amravati - MPCB",18-01-2024 10:00:00,20.9402359,77.7895248,NO2,15,89,34
India,Maharashtra,Amravati,"Shivneri Colony, Amravati - MPCB",18-01-2024 10:00:00,20.9402359,77.7895248,SO2,3,15,7
India,Maharashtra,Amravati,"Shivneri Colony, Amravati - MPCB",18-01-2024 10:00:00,20.9402359,77.7895248,OZONE,8,92,29
India,Maharashtra,Amravati,"Shri Shivaji Science College, Amaravati - MPCB",18-01-2024 10:00:00,20.939198,77.765701,PM2.5,52,214,118
India,Maharashtra,Amravati,"Shri Shivaji Science College, Amaravati - MPCB",18-01-2024 10:00:00,20.939198,77.765701,NH3,2,9,3
India,Maharashtra,Amravati,"Shri Shivaji Science College, Amaravati - MPCB",18-01-2024 10:00:00,20.939198,77.765701,SO2,8,19,13
India,Maharashtra,Aurangabad,"MIDC Chilkalthana, Aurangabad - MPCB",18-01-2024 10:00:00,19.875620,75.387310,PM10,93,223,135
India,Maharashtra,Aurangabad,"MIDC Chilkalthana, Aurangabad - MPCB",18-01-2024 10:00:00,19.875620,75.387310,NH3,3,4,4
India,Maharashtra,Aurangabad,"MIDC Chilkalthana, Aurangabad - MPCB",18-01-2024 10:00:00,19.875620,75.387310,SO2,6,33,10
India,Maharashtra,Aurangabad,"MIDC Chilkalthana, Aurangabad - MPCB",18-01-2024 10:00:00,19.875620,75.387310,CO,26,90,39
India,Maharashtra,Aurangabad,"Rachnakar Colony, Aurangabad - MPCB",18-01-2024 10:00:00,19.863756,75.321188,PM10,117,275,165
India,Maharashtra,Badlapur,"Katrap, Badlapur - MPCB",18-01-2024 10:00:00,19.16485,73.23409,OZONE,1,303,1
India,Maharashtra,Belapur,"CBD Belapur, Belapur - MPCB",18-01-2024 10:00:00,19.0243902,73.0406721,PM10,85,178,111
India,Maharashtra,Belapur,"CBD Belapur, Belapur - MPCB",18-01-2024 10:00:00,19.0243902,73.0406721,OZONE,3,183,11
India,Maharashtra,Boisar,"Khaira, Boisar - MPCB",18-01-2024 10:00:00,19.786089,72.757971,PM2.5,NA,NA,NA
India,Maharashtra,Boisar,"Khaira, Boisar - MPCB",18-01-2024 10:00:00,19.786089,72.757971,PM10,NA,NA,NA
India,Maharashtra,Chandrapur,"Chauhan Colony, Chandrapur - MPCB",18-01-2024 10:00:00,19.962900,79.298714,PM2.5,90,196,128
India,Maharashtra,Chandrapur,"Chauhan Colony, Chandrapur - MPCB",18-01-2024 10:00:00,19.962900,79.298714,SO2,6,24,13
India,Maharashtra,Dhule,"Deopur, Dhule - MPCB",18-01-2024 10:00:00,20.918946,74.776388,CO,26,38,29
India,Maharashtra,Jalna,"Old MIDC, Jalna - MPCB",18-01-2024 10:00:00,19.854616,75.905894,PM2.5,77,162,108
India,Maharashtra,Jalna,"Old MIDC, Jalna - MPCB",18-01-2024 10:00:00,19.854616,75.905894,CO,31,48,36
India,Maharashtra,Kolhapur,"Shivaji University, Kolhapur - MPCB",18-01-2024 10:00:00,16.6870449,74.2505872,CO,83,106,95
India,Maharashtra,Kolhapur,"Sinchan Bhavan, Kolhapur - MPCB",18-01-2024 10:00:00,16.7143745,74.2426398,NH3,7,8,8
India,Maharashtra,Latur,"Sawe Wadi, Latur - MPCB",18-01-2024 10:00:00,18.39963,76.57452,PM2.5,101,268,165
India,Maharashtra,Mahad,"Kamble Tarf Birwadi, Mahad - MPCB",18-01-2024 10:00:00,18.1023399,73.4783687,OZONE,7,68,14
India,Maharashtra,Malegaon,"Mahesh Nagar, Malegaon - MPCB",18-01-2024 10:00:00,20.555712,74.529236,NO2,2,11,6
India,Maharashtra,Malegaon,"Mahesh Nagar, Malegaon - MPCB",18-01-2024 10:00:00,20.555712,74.529236,NH3,8,9,9
India,Maharashtra,Malegaon,"Mahesh Nagar, Malegaon - MPCB",18-01-2024 10:00:00,20.555712,74.529236,CO,20,37,24
India,Maharashtra,Mira-Bhayandar,"Bhayandar West, Mira-Bhayandar - MPCB",18-01-2024 10:00:00,19.296481,72.840923,PM2.5,52,161,87
India,Maharashtra,Mira-Bhayandar,"Bhayandar West, Mira-Bhayandar - MPCB",18-01-2024 10:00:00,19.296481,72.840923,NH3,4,9,6
India,Maharashtra,Mira-Bhayandar,"Bhayandar West, Mira-Bhayandar - MPCB",18-01-2024 10:00:00,19.296481,72.840923,OZONE,1,65,3
India,Maharashtra,Mumbai,"Bandra Kurla Complex, Mumbai - MPCB",18-01-2024 10:00:00,19.065931,72.862131,NO2,10,54,33
India,Maharashtra,Mumbai,"Borivali East, Mumbai - IITM",18-01-2024 10:00:00,19.23241,72.86895,CO,2,34,18
India,Maharashtra,Mumbai,"Byculla, Mumbai - BMC",18-01-2024 10:00:00,18.9767,72.8380,PM2.5,55,215,102
India,Maharashtra,Mumbai,"Chakala-Andheri East, Mumbai - IITM",18-01-2024 10:00:00,19.11074,72.86084,NO2,40,149,77
India,Maharashtra,Mumbai,"Chembur, Mumbai - MPCB",18-01-2024 10:00:00,19.0364585,72.8954371,PM2.5,59,155,96
India,Maharashtra,Mumbai,"Chhatrapati Shivaji Intl. Airport (T2), Mumbai - MPCB",18-01-2024 10:00:00,19.10078,72.87462,PM2.5,17,55,32
India,Maharashtra,Mumbai,"Colaba, Mumbai - MPCB",18-01-2024 10:00:00,18.910000,72.820000,NO2,14,27,18
India,Maharashtra,Mumbai,"Ghatkopar, Mumbai - BMC",18-01-2024 10:00:00,19.083694,72.920967,PM10,65,129,90
India,Maharashtra,Mumbai,"Kandivali East, Mumbai - MPCB",18-01-2024 10:00:00,19.205800,72.868200,OZONE,16,31,30
India,Maharashtra,Mumbai,"Kandivali West, Mumbai - BMC",18-01-2024 10:00:00,19.215859,72.831718,NH3,NA,NA,NA
India,Maharashtra,Mumbai,"Kherwadi_Bandra East, Mumbai - MPCB",18-01-2024 10:00:00,19.0632143,72.8456324,PM2.5,71,288,150
India,Maharashtra,Mumbai,"Khindipada-Bhandup West, Mumbai - IITM",18-01-2024 10:00:00,19.1653323,72.922099,NO2,2,6,4
India,Maharashtra,Mumbai,"Khindipada-Bhandup West, Mumbai - IITM",18-01-2024 10:00:00,19.1653323,72.922099,OZONE,8,82,30
India,Maharashtra,Mumbai,"Kurla, Mumbai - MPCB",18-01-2024 10:00:00,19.0863,72.8888,NH3,3,4,3
India,Maharashtra,Mumbai,"Malad West, Mumbai - IITM",18-01-2024 10:00:00,19.19709,72.82204,NH3,2,3,2
India,Maharashtra,Mumbai,"Mulund West, Mumbai - MPCB",18-01-2024 10:00:00,19.1750,72.9419,PM10,62,145,84
India,Maharashtra,Mumbai,"Sewri, Mumbai - BMC",18-01-2024 10:00:00,19.000084,72.856730,PM2.5,51,240,112
India,Maharashtra,Mumbai,"Sion, Mumbai - MPCB",18-01-2024 10:00:00,19.047000,72.874600,NO2,15,90,43
India,Maharashtra,Mumbai,"Vasai West, Mumbai - MPCB",18-01-2024 10:00:00,19.383200,72.820400,PM2.5,18,108,52
India,Maharashtra,Mumbai,"Vasai West, Mumbai - MPCB",18-01-2024 10:00:00,19.383200,72.820400,OZONE,5,59,8
India,Maharashtra,Mumbai,"Vile Parle West, Mumbai - MPCB",18-01-2024 10:00:00,19.10861,72.83622,CO,NA,NA,NA
India,Maharashtra,Mumbai,"Worli, Mumbai - MPCB",18-01-2024 10:00:00,18.9936162,72.8128113,NO2,14,16,16
India,Maharashtra,Mumbai,"Worli, Mumbai - MPCB",18-01-2024 10:00:00,18.9936162,72.8128113,SO2,10,14,11
India,Maharashtra,Nagpur,"Ambazari, Nagpur - MPCB",18-01-2024 10:00:00,21.121801,79.04952,SO2,NA,NA,NA
India,Maharashtra,Nagpur,"Ambazari, Nagpur - MPCB",18-01-2024 10:00:00,21.121801,79.04952,CO,NA,NA,NA
India,Maharashtra,Nagpur,"Mahal, Nagpur - MPCB",18-01-2024 10:00:00,21.14472,79.107595,NO2,6,29,14
India,Maharashtra,Nagpur,"Ram Nagar, Nagpur - MPCB",18-01-2024 10:00:00,21.143383,79.048912,NH3,5,5,5
India,Maharashtra,Nanded,"Sneh Nagar, Nanded - MPCB",18-01-2024 10:00:00,19.173852,77.296291,NH3,1,3,2
India,Maharashtra,Nanded,"Sneh Nagar, Nanded - MPCB",18-01-2024 10:00:00,19.173852,77.296291,CO,36,44,38
India,Maharashtra,Nashik,"Gangapur Road, Nashik - MPCB",18-01-2024 10:00:00,20.0073285,73.7762427,SO2,1,6,3
India,Maharashtra,Nashik,"Hirawadi, Nashik - MPCB",18-01-2024 10:00:00,20.021503,73.813844,NO2,11,99,46
India,Maharashtra,Nashik,"Hirawadi, Nashik - MPCB",18-01-2024 10:00:00,20.021503,73.813844,NH3,1,2,1
India,Maharashtra,Nashik,"MIDC Ambad, Nashik - MPCB",18-01-2024 10:00:00,19.950220,73.731480,NH3,2,3,2
India,Maharashtra,Nashik,"MIDC Ambad, Nashik - MPCB",18-01-2024 10:00:00,19.950220,73.731480,OZONE,8,62,15
India,Maharashtra,Nashik,"Pandav Nagari, Nashik - MPCB",18-01-2024 10:00:00,19.9591346,73.7788008,CO,25,88,45
India,Maharashtra,Navi Mumbai,"Kopripada-Vashi, Navi Mumbai - MPCB",18-01-2024 10:00:00,19.090337,73.014232,PM10,54,255,111
India,Maharashtra,Navi Mumbai,"Mahape, Navi Mumbai - MPCB",18-01-2024 10:00:00,19.1135051,73.008978,PM2.5,34,194,70
India,Maharashtra,Navi Mumbai,"Mahape, Navi Mumbai - MPCB",18-01-2024 10:00:00,19.1135051,73.008978,CO,28,48,43
India,Maharashtra,Navi Mumbai,"Mahape, Navi Mumbai - MPCB",18-01-2024 10:00:00,19.1135051,73.008978,OZONE,14,43,38
India,Maharashtra,Navi Mumbai,"Nerul, Navi Mumbai - MPCB",18-01-2024 10:00:00,19.008751,73.016620,PM10,68,177,119
India,Maharashtra,Navi Mumbai,"Sanpada, Navi Mumbai - MPCB",18-01-2024 10:00:00,19.0575752,73.0151367,PM2.5,NA,NA,NA
India,Maharashtra,Navi Mumbai,"Sanpada, Navi Mumbai - MPCB",18-01-2024 10:00:00,19.0575752,73.0151367,CO,28,68,61
India,Maharashtra,Navi Mumbai,"Sanpada, Navi Mumbai - MPCB",18-01-2024 10:00:00,19.0575752,73.0151367,OZONE,5,278,12
India,Maharashtra,Navi Mumbai,"Sector-19A Nerul, Navi Mumbai - IITM",18-01-2024 10:00:00,19.044,73.0325,PM10,111,236,154
India,Maharashtra,Navi Mumbai,"Sector-2E Kalamboli, Navi Mumbai - MPCB",18-01-2024 10:00:00,19.02579,73.10297,PM2.5,51,308,138
India,Maharashtra,Navi Mumbai,"Tondare-Taloja, Navi Mumbai - MPCB",18-01-2024 10:00:00,19.0630,73.1209,PM2.5,69,302,141
India,Maharashtra,Parbhani,"Masoom Colony, Parbhani - MPCB",18-01-2024 10:00:00,19.265594,76.761463,NH3,3,4,4
India,Maharashtra,Pimpri-Chinchwad,"Gavalinagar, Pimpri Chinchwad - MPCB",18-01-2024 10:00:00,18.63673,73.82487,NH3,2,7,3
India,Maharashtra,Pimpri-Chinchwad,"Gavalinagar, Pimpri Chinchwad - MPCB",18-01-2024 10:00:00,18.63673,73.82487,SO2,3,16,7
India,Maharashtra,Pimpri-Chinchwad,"Park Street Wakad, Pimpri Chinchwad - MPCB",18-01-2024 10:00:00,18.59051,73.77946,NO2,41,98,63
India,Maharashtra,Pimpri-Chinchwad,"Thergaon, Pimpri Chinchwad - MPCB",18-01-2024 10:00:00,18.616318,73.765797,CO,24,61,36
India,Maharashtra,Pune,"Alandi, Pune - IITM",18-01-2024 10:00:00,18.675076,73.892743,PM10,64,118,83
India,Maharashtra,Pune,"Alandi, Pune - IITM",18-01-2024 10:00:00,18.675076,73.892743,OZONE,1,22,2
India,Maharashtra,Pune,"Mhada Colony, Pune - IITM",18-01-2024 10:00:00,18.573040,73.927715,PM10,69,102,85
India,Maharashtra,Pune,"Mhada Colony, Pune - IITM",18-01-2024 10:00:00,18.573040,73.927715,CO,30,70,51
India,Maharashtra,Pune,"Revenue Colony-Shivajinagar, Pune - IITM",18-01-2024 10:00:00,18.530085,73.849598,PM2.5,35,99,60
India,Maharashtra,Pune,"Revenue Colony-Shivajinagar, Pune - IITM",18-01-2024 10:00:00,18.530085,73.849598,SO2,82,133,119
India,Maharashtra,Pune,"Savitribai Phule Pune University, Pune - MPCB",18-01-2024 10:00:00,18.547056,73.826908,PM2.5,47,135,82
India,Maharashtra,Pune,"Transport Nagar-Nigdi, Pune - IITM",18-01-2024 10:00:00,18.664282,73.763966,PM2.5,29,98,62
India,Maharashtra,Pune,"Transport Nagar-Nigdi, Pune - IITM",18-01-2024 10:00:00,18.664282,73.763966,NO2,23,37,30
India,Maharashtra,Sangli,"Vijay Nagar, Sangli - MPCB",18-01-2024 10:00:00, 16.5038,74.3623,PM2.5,71,305,198
India,Maharashtra,Sangli,"Vijay Nagar, Sangli - MPCB",18-01-2024 10:00:00, 16.5038,74.3623,SO2,4,17,9
India,Maharashtra,Solapur,"Dnyaneshwar Nagar, Solapur - MPCB",18-01-2024 10:00:00,17.6336264,75.9132495,PM10,59,309,142
India,Maharashtra,Solapur,"Dnyaneshwar Nagar, Solapur - MPCB",18-01-2024 10:00:00,17.6336264,75.9132495,NO2,14,151,53
India,Maharashtra,Solapur,"Ratandeep Housing Society, Solapur - MPCB",18-01-2024 10:00:00,17.65439,75.90649,PM2.5,79,269,142
India,Maharashtra,Solapur,"Ratandeep Housing Society, Solapur - MPCB",18-01-2024 10:00:00,17.65439,75.90649,NH3,9,15,11
India,Maharashtra,Solapur,"Ratandeep Housing Society, Solapur - MPCB",18-01-2024 10:00:00,17.65439,75.90649,SO2,6,14,10
India,Maharashtra,Solapur,"Solapur, Solapur - MPCB",18-01-2024 10:00:00,17.6599188,75.9063906,PM2.5,38,94,60
India,Maharashtra,Thane,"Kasarvadavali, Thane - MPCB",18-01-2024 10:00:00,19.26777,72.97182,PM10,127,170,148
India,Maharashtra,Thane,"Kasarvadavali, Thane - MPCB",18-01-2024 10:00:00,19.26777,72.97182,NO2,24,78,43
India,Maharashtra,Thane,"Kasarvadavali, Thane - MPCB",18-01-2024 10:00:00,19.26777,72.97182,CO,14,52,41
India,Maharashtra,Thane,"Upvan Fort, Thane - MPCB",18-01-2024 10:00:00,19.222279,72.957979,OZONE,23,156,63
India,Maharashtra,Ulhasnagar,"Sidhi Vinayak Nagar, Ulhasnagar - MPCB",18-01-2024 10:00:00,19.235581,73.159121,NO2,16,69,33
India,Maharashtra,Ulhasnagar,"Sidhi Vinayak Nagar, Ulhasnagar - MPCB",18-01-2024 10:00:00,19.235581,73.159121,SO2,17,118,57
India,Maharashtra,Virar,"Bolinj, Virar - MPCB",18-01-2024 10:00:00,19.4458210,72.7988231,NH3,4,7,5
India,Maharashtra,Virar,"Bolinj, Virar - MPCB",18-01-2024 10:00:00,19.4458210,72.7988231,OZONE,1,95,18
India,Manipur,Imphal,"DM College of Science, Imphal - Manipur PCB",18-01-2024 10:00:00,24.8207389,93.9423085,PM2.5,12,106,32
India,Manipur,Imphal,"DM College of Science, Imphal - Manipur PCB",18-01-2024 10:00:00,24.8207389,93.9423085,NH3,2,2,2
India,Manipur,Imphal,"Manipur University, Imphal - Manipur PCB",18-01-2024 10:00:00,24.7524239,93.9286218,SO2,59,66,62
India,Meghalaya,Shillong,"Lumpyngngad, Shillong - Meghalaya PCB",18-01-2024 10:00:00,25.5586,91.8985,NH3,1,1,1
India,Mizoram,Aizawl,"Sikulpuikawn, Aizawl - Mizoram PCB",18-01-2024 10:00:00,23.7176342,92.7192841,SO2,2,2,2
India,Nagaland,Kohima,"PWD Juction, Kohima - NPCB",18-01-2024 10:00:00,25.6635413,94.0989878,PM10,43,265,109
India,Nagaland,Kohima,"PWD Juction, Kohima - NPCB",18-01-2024 10:00:00,25.6635413,94.0989878,SO2,87,104,95
India,Nagaland,Kohima,"PWD Juction, Kohima - NPCB",18-01-2024 10:00:00,25.6635413,94.0989878,OZONE,8,16,10
India,Odisha,Angul,"Hakimapada, Angul - OSPCB",18-01-2024 10:00:00,20.832874,85.104082,OZONE,20,109,32
India,Odisha,Balasore,"Kalidaspur, Balasore - OSPCB",18-01-2024 10:00:00,21.51161,86.89088,PM10,135,250,186
India,Odisha,Balasore,"Kalidaspur, Balasore - OSPCB",18-01-2024 10:00:00,21.51161,86.89088,NH3,4,11,7
India,Odisha,Balasore,"Kalidaspur, Balasore - OSPCB",18-01-2024 10:00:00,21.51161,86.89088,CO,61,118,107
India,Odisha,Barbil,"Forest Office, Barbil - OSPCB",18-01-2024 10:00:00,22.1166054,85.3945546,PM2.5,72,335,244
India,Odisha,Barbil,"Forest Office, Barbil - OSPCB",18-01-2024 10:00:00,22.1166054,85.3945546,PM10,66,415,193
India,Odisha,Barbil,"Forest Office, Barbil - OSPCB",18-01-2024 10:00:00,22.1166054,85.3945546,OZONE,12,86,20
India,Odisha,Baripada,"Meher Colony, Baripada - OSPCB",18-01-2024 10:00:00,21.941841,86.728318,SO2,5,7,6
India,Odisha,Bhubaneswar,"Lingraj Mandir, Bhubaneswar - OSPCB",18-01-2024 10:00:00,20.240790,85.836784,PM10,80,223,146
India,Odisha,Bhubaneswar,"Lingraj Mandir, Bhubaneswar - OSPCB",18-01-2024 10:00:00,20.240790,85.836784,NO2,11,41,24
India,Odisha,Bhubaneswar,"Patia, Bhubaneswar - OSPCB",18-01-2024 10:00:00,20.34652,85.81630,PM10,92,186,132
India,Odisha,Bhubaneswar,"Patia, Bhubaneswar - OSPCB",18-01-2024 10:00:00,20.34652,85.81630,NH3,4,5,4
India,Odisha,Brajrajnagar,"GM Office, Brajrajnagar - OSPCB",18-01-2024 10:00:00,21.8004996,83.8396977,PM10,72,154,108
India,Odisha,Brajrajnagar,"GM Office, Brajrajnagar - OSPCB",18-01-2024 10:00:00,21.8004996,83.8396977,SO2,11,12,11
India,Odisha,Byasanagar,"Ferro Chrome Colony, Byasanagar - OSPCB",18-01-2024 10:00:00,20.94185,86.11510,NO2,14,25,19
India,Odisha,Cuttack,"CDA Area, Cuttack - OSPCB",18-01-2024 10:00:00,20.48891     ,85.84768     ,PM2.5,88,332,210
India,Odisha,Cuttack,"CDA Area, Cuttack - OSPCB",18-01-2024 10:00:00,20.48891     ,85.84768     ,OZONE,36,87,42
India,Odisha,Keonjhar,"Jagamohanpur, Keonjhar - OSPCB",18-01-2024 10:00:00,21.643900,85.599355,PM10,74,152,109
India,Odisha,Nayagarh,"Dabuna, Nayagarh - OSPCB",18-01-2024 10:00:00,21.847279,85.416905,NH3,4,5,4
India,Odisha,Rourkela,"Raghunathpali, Rourkela - OSPCB",18-01-2024 10:00:00,22.220833,84.809444,PM2.5,55,304,208
India,Odisha,Rourkela,"Sector-2, Rourkela - OSPCB",18-01-2024 10:00:00,22.24500000,84.88111111,NO2,33,34,33
India,Odisha,Rourkela,"Sector-2, Rourkela - OSPCB",18-01-2024 10:00:00,22.24500000,84.88111111,CO,39,60,40
India,Odisha,Tensa,"Barsua Iron Ore Mines, Tensa - OSPCB",18-01-2024 10:00:00,21.869985,85.167016,NO2,45,63,52
India,Odisha,Tensa,"Barsua Iron Ore Mines, Tensa - OSPCB",18-01-2024 10:00:00,21.869985,85.167016,CO,26,33,30
India,Puducherry,Puducherry,"Jawahar Nagar, Puducherry - PPCC",18-01-2024 10:00:00,11.9309,79.8027,PM2.5,11,55,26
India,Puducherry,Puducherry,"Jawahar Nagar, Puducherry - PPCC",18-01-2024 10:00:00,11.9309,79.8027,PM10,16,66,31
India,Puducherry,Puducherry,"Jawahar Nagar, Puducherry - PPCC",18-01-2024 10:00:00,11.9309,79.8027,SO2,1,9,6
India,Punjab,Bathinda,"Hardev Nagar, Bathinda - PPCB",18-01-2024 10:00:00,30.233011,74.907758,PM10,32,143,78
India,Punjab,Bathinda,"Hardev Nagar, Bathinda - PPCB",18-01-2024 10:00:00,30.233011,74.907758,CO,2,100,19
India,Punjab,Jalandhar,"Civil Line, Jalandhar - PPCB",18-01-2024 10:00:00,31.321907,75.578914,NO2,17,45,20
India,Punjab,Jalandhar,"Civil Line, Jalandhar - PPCB",18-01-2024 10:00:00,31.321907,75.578914,SO2,3,20,8
India,Punjab,Ludhiana,"Punjab Agricultural University, Ludhiana - PPCB",18-01-2024 10:00:00,30.9028,75.8086,NO2,26,30,28
India,Punjab,Ludhiana,"Punjab Agricultural University, Ludhiana - PPCB",18-01-2024 10:00:00,30.9028,75.8086,SO2,2,13,8
India,Punjab,Mandi Gobindgarh,"RIMT University, Mandi Gobindgarh - PPCB",18-01-2024 10:00:00,30.649961,76.331442,PM2.5,51,339,197
India,Punjab,Mandi Gobindgarh,"RIMT University, Mandi Gobindgarh - PPCB",18-01-2024 10:00:00,30.649961,76.331442,OZONE,22,33,33
India,Punjab,Patiala,"Model Town, Patiala - PPCB",18-01-2024 10:00:00,30.349388,76.366642,NH3,6,7,6
India,Punjab,Rupnagar,"Ratanpura, Rupnagar - Ambuja Cements",18-01-2024 10:00:00,31.0325454,76.5623046,PM2.5,90,322,234
India,Punjab,Rupnagar,"Ratanpura, Rupnagar - Ambuja Cements",18-01-2024 10:00:00,31.0325454,76.5623046,CO,65,110,95
India,Rajasthan,Ajmer,"Civil Lines,  Ajmer - RSPCB",18-01-2024 10:00:00,26.470859,74.646594,OZONE,4,65,8
India,Rajasthan,Alwar,"Moti Doongri, Alwar - RSPCB",18-01-2024 10:00:00,27.554793,76.611536,SO2,6,33,19
India,Rajasthan,Banswara,"Rati Talai, Banswara - RSPCB",18-01-2024 10:00:00,23.555190,74.440010,CO,28,95,46
India,Rajasthan,Baran,"Bamboliya, Baran - RSPCB",18-01-2024 10:00:00,25.106006,76.469948,SO2,1,6,2
India,Rajasthan,Baran,"Bamboliya, Baran - RSPCB",18-01-2024 10:00:00,25.106006,76.469948,OZONE,9,87,20
India,Rajasthan,Barmer,"Railway Colony, Barmer - RSPCB",18-01-2024 10:00:00,25.747299,71.393989,NO2,13,54,23
India,Rajasthan,Bhilwara,"Pratap Nagar, Bhilwara - RSPCB",18-01-2024 10:00:00,25.339605,74.618883,PM10,120,275,149
India,Rajasthan,Bhilwara,"Pratap Nagar, Bhilwara - RSPCB",18-01-2024 10:00:00,25.339605,74.618883,NO2,22,136,39
India,Rajasthan,Bhilwara,"Pratap Nagar, Bhilwara - RSPCB",18-01-2024 10:00:00,25.339605,74.618883,CO,26,105,46
India,Rajasthan,Bhiwadi,"RIICO Ind. Area III, Bhiwadi - RSPCB",18-01-2024 10:00:00,28.194909,76.862296,PM2.5,91,332,222
India,Rajasthan,Bhiwadi,"RIICO Ind. Area III, Bhiwadi - RSPCB",18-01-2024 10:00:00,28.194909,76.862296,SO2,2,19,10
India,Rajasthan,Bhiwadi,"RIICO Ind. Area III, Bhiwadi - RSPCB",18-01-2024 10:00:00,28.194909,76.862296,CO,8,107,71
India,Rajasthan,Bhiwadi,"RIICO Ind. Area III, Bhiwadi - RSPCB",18-01-2024 10:00:00,28.194909,76.862296,OZONE,6,9,6
India,Rajasthan,Bikaner,"MM Ground, Bikaner - RSPCB",18-01-2024 10:00:00,28.018792,73.292658,PM2.5,238,371,327
India,Rajasthan,Bikaner,"MM Ground, Bikaner - RSPCB",18-01-2024 10:00:00,28.018792,73.292658,PM10,131,260,207
India,Rajasthan,Bikaner,"MM Ground, Bikaner - RSPCB",18-01-2024 10:00:00,28.018792,73.292658,OZONE,6,54,18
India,Rajasthan,Churu,"Subash Chowk, Churu - RSPCB",18-01-2024 10:00:00,28.296139,74.961696,NH3,12,29,15
India,Rajasthan,Dausa,"Khatikan Mohalla, Dausa - RSPCB",18-01-2024 10:00:00,26.895552,76.334753,PM2.5,68,282,143
India,Rajasthan,Dausa,"Khatikan Mohalla, Dausa - RSPCB",18-01-2024 10:00:00,26.895552,76.334753,NO2,22,37,28
India,Rajasthan,Dausa,"Khatikan Mohalla, Dausa - RSPCB",18-01-2024 10:00:00,26.895552,76.334753,SO2,7,8,8
India,Rajasthan,Dholpur,"Raja Ganj, Dholpur - RSPCB",18-01-2024 10:00:00,26.699557,77.898881,SO2,2,30,13
India,Rajasthan,Dholpur,"Raja Ganj, Dholpur - RSPCB",18-01-2024 10:00:00,26.699557,77.898881,CO,10,62,34
India,Rajasthan,Dholpur,"Raja Ganj, Dholpur - RSPCB",18-01-2024 10:00:00,26.699557,77.898881,OZONE,22,62,27
India,Rajasthan,Dungarpur,"Bhoiwada, Dungarpur - RSPCB",18-01-2024 10:00:00,23.837789,73.714926,PM2.5,47,305,144
India,Rajasthan,Dungarpur,"Bhoiwada, Dungarpur - RSPCB",18-01-2024 10:00:00,23.837789,73.714926,NO2,21,61,36
India,Rajasthan,Hanumangarh,"Housing Board, Hanumangarh - RSPCB",18-01-2024 10:00:00,29.610750,74.283608,NO2,23,58,41
India,Rajasthan,Jaipur,"Adarsh Nagar, Jaipur - RSPCB",18-01-2024 10:00:00,26.902909,75.836858,PM10,88,167,113
India,Rajasthan,Jaipur,"Adarsh Nagar, Jaipur - RSPCB",18-01-2024 10:00:00,26.902909,75.836858,OZONE,9,84,25
India,Rajasthan,Jaipur,"Mansarovar Sector-12, Jaipur - RSPCB",18-01-2024 10:00:00,26.843698,75.766894,PM10,133,231,165
India,Rajasthan,Jaipur,"Sector-2 Murlipura, Jaipur - RSPCB",18-01-2024 10:00:00,26.960669,75.771817,NO2,5,17,9
India,Rajasthan,Jaipur,"Shastri Nagar, Jaipur - RSPCB",18-01-2024 10:00:00,26.9502929,75.730943,PM10,113,162,133
India,Rajasthan,Jaipur,"Shastri Nagar, Jaipur - RSPCB",18-01-2024 10:00:00,26.9502929,75.730943,NO2,45,116,71
India,Rajasthan,Jaipur,"Shastri Nagar, Jaipur - RSPCB",18-01-2024 10:00:00,26.9502929,75.730943,NH3,11,31,18
India,Rajasthan,Jaisalmer,"Sadar Bazar, Jaisalmer - RSPCB",18-01-2024 10:00:00,26.912329,70.909168,PM2.5,319,370,342
India,Rajasthan,Jaisalmer,"Sadar Bazar, Jaisalmer - RSPCB",18-01-2024 10:00:00,26.912329,70.909168,NH3,9,12,10
India,Rajasthan,Jaisalmer,"Sadar Bazar, Jaisalmer - RSPCB",18-01-2024 10:00:00,26.912329,70.909168,CO,50,92,56
India,Rajasthan,Jalore,"Mudtra Sili, Jalore - RSPCB",18-01-2024 10:00:00,25.344694,72.626208,PM2.5,45,323,205
India,Rajasthan,Jalore,"Mudtra Sili, Jalore - RSPCB",18-01-2024 10:00:00,25.344694,72.626208,NH3,8,12,10
India,Rajasthan,Jalore,"Mudtra Sili, Jalore - RSPCB",18-01-2024 10:00:00,25.344694,72.626208,CO,26,134,85
India,Rajasthan,Jhalawar,"Rajlaxmi Nagar, Jhalawar - RSPCB",18-01-2024 10:00:00,24.588397,76.172782,PM10,60,146,102
India,Rajasthan,Jhalawar,"Rajlaxmi Nagar, Jhalawar - RSPCB",18-01-2024 10:00:00,24.588397,76.172782,NH3,5,8,6
India,Rajasthan,Jodhpur,"Collectorate, Jodhpur - RSPCB",18-01-2024 10:00:00,26.268249,73.0193853,SO2,1,31,18
India,Rajasthan,Jodhpur,"Digari Kalan, Jodhpur - RSPCB",18-01-2024 10:00:00,26.295810,73.082283,PM2.5,27,315,161
India,Rajasthan,Jodhpur,"Digari Kalan, Jodhpur - RSPCB",18-01-2024 10:00:00,26.295810,73.082283,OZONE,17,122,33
India,Rajasthan,Jodhpur,"Jhalamand, Jodhpur - RSPCB",18-01-2024 10:00:00,26.215415,73.070156,PM2.5,41,309,175
India,Rajasthan,Jodhpur,"Jhalamand, Jodhpur - RSPCB",18-01-2024 10:00:00,26.215415,73.070156,PM10,87,411,158
India,Rajasthan,Jodhpur,"Mandor, Jodhpur - RSPCB",18-01-2024 10:00:00,26.358805,73.047444,PM10,45,147,113
India,Rajasthan,Jodhpur,"Mandor, Jodhpur - RSPCB",18-01-2024 10:00:00,26.358805,73.047444,NO2,25,47,34
India,Rajasthan,Jodhpur,"Mandor, Jodhpur - RSPCB",18-01-2024 10:00:00,26.358805,73.047444,SO2,1,6,2
India,Rajasthan,Jodhpur,"Samrat Ashok Udhyan, Jodhpur - RSPCB",18-01-2024 10:00:00,26.253384,72.976571,PM10,66,239,142
India,Rajasthan,Karauli,"Satyawati Vihar, Karauli - RSPCB",18-01-2024 10:00:00,26.506177,77.025989,OZONE,19,41,21
India,Rajasthan,Kota,"Dhanmandi, Kota - RSPCB",18-01-2024 10:00:00,25.164090,75.858137,NO2,24,119,52
India,Rajasthan,Kota,"Dhanmandi, Kota - RSPCB",18-01-2024 10:00:00,25.164090,75.858137,SO2,1,106,14
India,Rajasthan,Kota,"Dhanmandi, Kota - RSPCB",18-01-2024 10:00:00,25.164090,75.858137,OZONE,26,82,54
India,Rajasthan,Kota,"Nayapura, Kota - RSPCB",18-01-2024 10:00:00,25.196024,75.855668,PM10,88,172,121
India,Rajasthan,Kota,"Nayapura, Kota - RSPCB",18-01-2024 10:00:00,25.196024,75.855668,NH3,6,13,9
India,Rajasthan,Kota,"Nayapura, Kota - RSPCB",18-01-2024 10:00:00,25.196024,75.855668,CO,2,104,17
India,Rajasthan,Kota,"Nayapura, Kota - RSPCB",18-01-2024 10:00:00,25.196024,75.855668,OZONE,3,97,25
India,Rajasthan,Kota,"Shrinath Puram, Kota - RSPCB",18-01-2024 10:00:00,25.14389,75.821256,NO2,33,231,91
India,Rajasthan,Nagaur,"Karni Colony, Nagaur - RSPCB",18-01-2024 10:00:00,27.213494,73.734444,NO2,18,41,25
India,Rajasthan,Nagaur,"Karni Colony, Nagaur - RSPCB",18-01-2024 10:00:00,27.213494,73.734444,CO,34,95,85
India,Rajasthan,Pali,"Indira Colony Vistar, Pali - RSPCB",18-01-2024 10:00:00,25.771061, 73.340227,NO2,18,70,41
India,Rajasthan,Pratapgarh,"Pragati Nagar, Pratapgarh - RSPCB",18-01-2024 10:00:00,24.041198,74.780702,PM2.5,NA,NA,NA
India,Rajasthan,Pratapgarh,"Pragati Nagar, Pratapgarh - RSPCB",18-01-2024 10:00:00,24.041198,74.780702,NH3,NA,NA,NA
India,Rajasthan,Pratapgarh,"Pragati Nagar, Pratapgarh - RSPCB",18-01-2024 10:00:00,24.041198,74.780702,SO2,NA,NA,NA
India,Rajasthan,Rajsamand,"Dhoinda, Rajsamand - RSPCB",18-01-2024 10:00:00,25.036360,73.883502,PM2.5,40,321,153
India,Rajasthan,Rajsamand,"Dhoinda, Rajsamand - RSPCB",18-01-2024 10:00:00,25.036360,73.883502,OZONE,1,67,11
India,Rajasthan,Sawai Madhopur,"Sahu Nagar, Sawai Madhopur - RSPCB",18-01-2024 10:00:00,26.031443,76.359327,PM2.5,48,99,66
India,Rajasthan,Sikar,"Radhakishan Pura, Sikar - RSPCB",18-01-2024 10:00:00,27.608912,75.153302,NO2,11,64,23
India,Rajasthan,Sirohi,"Vedhaynath Colony, Sirohi - RSPCB",18-01-2024 10:00:00,24.885261,72.857549,CO,6,88,32
India,Rajasthan,Sirohi,"Vedhaynath Colony, Sirohi - RSPCB",18-01-2024 10:00:00,24.885261,72.857549,OZONE,1,135,25
India,Rajasthan,Sri Ganganagar,"Old City, Sri Ganganagar - RSPCB",18-01-2024 10:00:00,29.931624,73.864511,NO2,22,79,46
India,Rajasthan,Tonk,"Shastri Nagar, Tonk - RSPCB",18-01-2024 10:00:00,26.159933,75.780517,NO2,10,53,22
India,Rajasthan,Tonk,"Shastri Nagar, Tonk - RSPCB",18-01-2024 10:00:00,26.159933,75.780517,NH3,3,13,6
India,Rajasthan,Tonk,"Shastri Nagar, Tonk - RSPCB",18-01-2024 10:00:00,26.159933,75.780517,OZONE,13,54,20
India,Sikkim,Gangtok,"Zero Point GICI, Gangtok - SSPCB",18-01-2024 10:00:00,27.338530,88.614099,NH3,1,1,1
India,TamilNadu,Ariyalur,"Keelapalur, Ariyalur - TNPCB",18-01-2024 10:00:00,11.06825,79.07033,PM2.5,18,69,32
India,TamilNadu,Ariyalur,"Keelapalur, Ariyalur - TNPCB",18-01-2024 10:00:00,11.06825,79.07033,PM10,21,88,40
India,TamilNadu,Chennai,"Alandur Bus Depot, Chennai - CPCB",18-01-2024 10:00:00,12.9099161,80.1076538,CO,1,71,26
India,TamilNadu,Chennai,"Alandur Bus Depot, Chennai - CPCB",18-01-2024 10:00:00,12.9099161,80.1076538,OZONE,17,36,18
India,TamilNadu,Chennai,"Manali, Chennai - CPCB",18-01-2024 10:00:00,13.164544,80.26285,NO2,9,16,12
India,TamilNadu,Chennai,"Royapuram, Chennai - TNPCB",18-01-2024 10:00:00,13.1036,80.2909,SO2,1,7,2
India,TamilNadu,Chennai,"Royapuram, Chennai - TNPCB",18-01-2024 10:00:00,13.1036,80.2909,OZONE,9,10,9
India,TamilNadu,Chennai,"Velachery Res. Area, Chennai - CPCB",18-01-2024 10:00:00,13.0052189,80.2398125,PM2.5,21,48,32
India,TamilNadu,Cuddalore,"Kudikadu, Cuddalore - TNPCB",18-01-2024 10:00:00,11.6829898,79.7532099,NO2,NA,NA,NA
India,TamilNadu,Cuddalore,"Semmandalam, Cuddalore - TNPCB",18-01-2024 10:00:00,11.7637683,79.7499835,PM10,NA,NA,NA
India,TamilNadu,Cuddalore,"Semmandalam, Cuddalore - TNPCB",18-01-2024 10:00:00,11.7637683,79.7499835,NO2,NA,NA,NA
India,TamilNadu,Gummidipoondi,"Anthoni Pillai Nagar, Gummidipoondi - TNPCB",18-01-2024 10:00:00,13.4127,80.1081,SO2,1,104,35
India,TamilNadu,Ooty,"Bombay Castel, Ooty - TNPCB",18-01-2024 10:00:00,11.4068288,76.7138973,OZONE,5,6,5
India,TamilNadu,Thoothukudi,"Meelavittan, Thoothukudi - TNPCB",18-01-2024 10:00:00,8.816428 ,78.099039,NO2,17,40,24
India,TamilNadu,Thoothukudi,"Meelavittan, Thoothukudi - TNPCB",18-01-2024 10:00:00,8.816428 ,78.099039,OZONE,3,51,29
India,TamilNadu,Tirupur,"Kumaran College, Tirupur - TNPCB",18-01-2024 10:00:00,11.0973603,77.3228673,OZONE,6,7,7
India,Telangana,Hyderabad,"Bollaram Industrial Area, Hyderabad - TSPCB",18-01-2024 10:00:00,17.540891,78.358528,PM10,50,118,87
India,Telangana,Hyderabad,"Bollaram Industrial Area, Hyderabad - TSPCB",18-01-2024 10:00:00,17.540891,78.358528,NO2,15,47,24
India,Telangana,Hyderabad,"Bollaram Industrial Area, Hyderabad - TSPCB",18-01-2024 10:00:00,17.540891,78.358528,SO2,7,22,13
India,Telangana,Hyderabad,"Bollaram Industrial Area, Hyderabad - TSPCB",18-01-2024 10:00:00,17.540891,78.358528,CO,6,36,17
India,Telangana,Hyderabad,"Central University, Hyderabad - TSPCB",18-01-2024 10:00:00,17.460103,78.334361,PM2.5,27,54,42
India,Telangana,Hyderabad,"Central University, Hyderabad - TSPCB",18-01-2024 10:00:00,17.460103,78.334361,PM10,42,80,62
India,Telangana,Hyderabad,"Central University, Hyderabad - TSPCB",18-01-2024 10:00:00,17.460103,78.334361,NO2,10,32,23
India,Telangana,Hyderabad,"ECIL Kapra, Hyderabad - TSPCB",18-01-2024 10:00:00,17.470431,78.566959,PM2.5,51,64,58
India,Telangana,Hyderabad,"Kokapet, Hyderabad - TSPCB",18-01-2024 10:00:00,17.393559,78.339194,PM2.5,NA,NA,NA
India,Telangana,Hyderabad,"Kokapet, Hyderabad - TSPCB",18-01-2024 10:00:00,17.393559,78.339194,SO2,NA,NA,NA
India,Telangana,Hyderabad,"Kokapet, Hyderabad - TSPCB",18-01-2024 10:00:00,17.393559,78.339194,OZONE,NA,NA,NA
India,Telangana,Hyderabad,"Nacharam_TSIIC IALA, Hyderabad - TSPCB",18-01-2024 10:00:00,17.429398,78.569354,OZONE,NA,NA,NA
India,Telangana,Hyderabad,"New Malakpet, Hyderabad - TSPCB",18-01-2024 10:00:00,17.37206,78.50864,SO2,6,38,10
India,Telangana,Hyderabad,"Ramachandrapuram, Hyderabad - TSPCB",18-01-2024 10:00:00,17.528544,78.286195,OZONE,13,48,23
India,Telangana,Hyderabad,"Sanathnagar, Hyderabad - TSPCB",18-01-2024 10:00:00,17.4559458,78.4332152,NO2,24,317,47
India,Telangana,Hyderabad,"Sanathnagar, Hyderabad - TSPCB",18-01-2024 10:00:00,17.4559458,78.4332152,CO,31,42,34
India,Telangana,Hyderabad,"Somajiguda, Hyderabad - TSPCB",18-01-2024 10:00:00,17.417094,78.457437,PM2.5,NA,NA,NA
India,Telangana,Hyderabad,"Somajiguda, Hyderabad - TSPCB",18-01-2024 10:00:00,17.417094,78.457437,PM10,NA,NA,NA
India,Telangana,Hyderabad,"Zoo Park, Hyderabad - TSPCB",18-01-2024 10:00:00,17.349694,78.451437,PM2.5,70,182,126
India,Telangana,Hyderabad,"Zoo Park, Hyderabad - TSPCB",18-01-2024 10:00:00,17.349694,78.451437,CO,NA,NA,NA
India,Telangana,Hyderabad,"Zoo Park, Hyderabad - TSPCB",18-01-2024 10:00:00,17.349694,78.451437,OZONE,12,33,16
India,Tripura,Agartala,"Bardowali, Agartala - Tripura SPCB",18-01-2024 10:00:00,23.8175497,91.2726974,PM10,102,357,175
India,Tripura,Agartala,"Bardowali, Agartala - Tripura SPCB",18-01-2024 10:00:00,23.8175497,91.2726974,SO2,23,25,24
India,Uttar_Pradesh,Agra,"Manoharpur, Agra - UPPCB",18-01-2024 10:00:00,27.23711,78.01936,NH3,1,1,1
India,Uttar_Pradesh,Agra,"Rohta, Agra - UPPCB",18-01-2024 10:00:00,27.106972,78.000111,SO2,7,10,8
India,Uttar_Pradesh,Agra,"Sanjay Palace, Agra - UPPCB",18-01-2024 10:00:00,27.19865833,78.00598056,PM2.5,32,71,50
India,Uttar_Pradesh,Agra,"Sanjay Palace, Agra - UPPCB",18-01-2024 10:00:00,27.19865833,78.00598056,SO2,2,13,8
India,Uttar_Pradesh,Agra,"Sector-3B Avas Vikas Colony, Agra - UPPCB",18-01-2024 10:00:00,27.19412,77.96237,PM10,50,109,71
India,Uttar_Pradesh,Agra,"Sector-3B Avas Vikas Colony, Agra - UPPCB",18-01-2024 10:00:00,27.19412,77.96237,SO2,14,18,15
India,Uttar_Pradesh,Agra,"Shahjahan Garden, Agra - UPPCB",18-01-2024 10:00:00,27.169338,78.03582,PM10,41,69,51
India,Uttar_Pradesh,Agra,"Shahjahan Garden, Agra - UPPCB",18-01-2024 10:00:00,27.169338,78.03582,NO2,28,38,37
India,Uttar_Pradesh,Baghpat,"Sardar Patel Inter College, Baghpat - UPPCB",18-01-2024 10:00:00,28.964949,77.278761,SO2,1,86,34
India,Uttar_Pradesh,Bareilly,"Civil Lines, Bareilly - UPPCB",18-01-2024 10:00:00,28.359581,79.414455,NO2,NA,NA,NA
India,Uttar_Pradesh,Bareilly,"Rajendra Nagar, Bareilly - UPPCB",18-01-2024 10:00:00,28.38910936,79.42963708,CO,64,99,67
India,Uttar_Pradesh,Firozabad,"Vibhab Nagar, Firozabad - UPPCB",18-01-2024 10:00:00,27.1594,78.3953,NH3,2,2,2
India,Uttar_Pradesh,Firozabad,"Vibhab Nagar, Firozabad - UPPCB",18-01-2024 10:00:00,27.1594,78.3953,OZONE,19,54,27
India,Uttar_Pradesh,Ghaziabad,"Indirapuram, Ghaziabad - UPPCB",18-01-2024 10:00:00,28.646233,77.358075,CO,8,30,11
India,Uttar_Pradesh,Ghaziabad,"Loni, Ghaziabad - UPPCB",18-01-2024 10:00:00,28.757294,77.278792,SO2,4,20,10
India,Uttar_Pradesh,Ghaziabad,"Vasundhara, Ghaziabad - UPPCB",18-01-2024 10:00:00,28.6603346,77.3572563,SO2,NA,NA,NA
India,Uttar_Pradesh,Gorakhpur,"Madan Mohan Malaviya University of Technology, Gorakhpur - UPPCB",18-01-2024 10:00:00,26.730136,83.433859,OZONE,4,14,9
India,Uttar_Pradesh,Greater Noida,"Knowledge Park - III, Greater Noida - UPPCB",18-01-2024 10:00:00,28.47272,77.482000,NO2,16,55,27
India,Uttar_Pradesh,Greater Noida,"Knowledge Park - III, Greater Noida - UPPCB",18-01-2024 10:00:00,28.47272,77.482000,NH3,5,7,6
India,Uttar_Pradesh,Greater Noida,"Knowledge Park - III, Greater Noida - UPPCB",18-01-2024 10:00:00,28.47272,77.482000,SO2,14,30,20
India,Uttar_Pradesh,Greater Noida,"Knowledge Park - V, Greater Noida - UPPCB",18-01-2024 10:00:00,28.557054,77.453663,OZONE,4,70,10
India,Uttar_Pradesh,Hapur,"Anand Vihar, Hapur - UPPCB",18-01-2024 10:00:00,28.725645,77.749675,OZONE,13,44,18
India,Uttar_Pradesh,Kanpur,"FTI Kidwai Nagar, Kanpur - UPPCB",18-01-2024 10:00:00,26.428282,80.327067,NO2,14,56,17
India,Uttar_Pradesh,Kanpur,"NSI Kalyanpur, Kanpur - UPPCB",18-01-2024 10:00:00,26.509954,80.249612,SO2,21,24,23
India,Uttar_Pradesh,Kanpur,"Nehru Nagar, Kanpur - UPPCB",18-01-2024 10:00:00,26.4703136,80.3229863,NO2,6,106,41
India,Uttar_Pradesh,Khurja,"Kalindi Kunj, Khurja - UPPCB",18-01-2024 10:00:00,28.2348927,77.8683002,SO2,38,68,45
India,Uttar_Pradesh,Lucknow,"B R Ambedkar University, Lucknow - UPPCB",18-01-2024 10:00:00,26.766433,80.927299,SO2,23,24,23
India,Uttar_Pradesh,Lucknow,"Gomti Nagar, Lucknow - UPPCB",18-01-2024 10:00:00,26.868120,81.005119,PM2.5,23,68,40
India,Uttar_Pradesh,Lucknow,"Gomti Nagar, Lucknow - UPPCB",18-01-2024 10:00:00,26.868120,81.005119,NO2,5,6,6
India,Uttar_Pradesh,Lucknow,"Kendriya Vidyalaya, Lucknow - CPCB",18-01-2024 10:00:00,26.906111,80.948222,PM10,88,126,105
India,Uttar_Pradesh,Lucknow,"Kendriya Vidyalaya, Lucknow - CPCB",18-01-2024 10:00:00,26.906111,80.948222,OZONE,6,46,10
India,Uttar_Pradesh,Lucknow,"Kukrail Picnic Spot-1, Lucknow - UPPCB",18-01-2024 10:00:00,26.90723,80.98579,PM10,56,102,79
India,Uttar_Pradesh,Lucknow,"Lalbagh, Lucknow - CPCB",18-01-2024 10:00:00,26.8458805,80.9365541,PM10,114,218,164
India,Uttar_Pradesh,Lucknow,"Talkatora District Industries Center, Lucknow - CPCB",18-01-2024 10:00:00,26.83399722,80.8917361,PM10,118,212,156
India,Uttar_Pradesh,Lucknow,"Talkatora District Industries Center, Lucknow - CPCB",18-01-2024 10:00:00,26.83399722,80.8917361,SO2,2,12,7
India,Uttar_Pradesh,Meerut,"Ganga Nagar, Meerut - UPPCB",18-01-2024 10:00:00,28.999264,77.7590354,SO2,13,24,17
India,Uttar_Pradesh,Meerut,"Jai Bhim Nagar, Meerut - UPPCB",18-01-2024 10:00:00,28.9535882,77.7622941,PM2.5,37,272,115
India,Uttar_Pradesh,Meerut,"Jai Bhim Nagar, Meerut - UPPCB",18-01-2024 10:00:00,28.9535882,77.7622941,OZONE,13,45,17
India,Uttar_Pradesh,Meerut,"Pallavpuram Phase 2, Meerut - UPPCB",18-01-2024 10:00:00,29.063510,77.709723,SO2,4,7,6
India,Uttar_Pradesh,Moradabad,"Buddhi Vihar, Moradabad - UPPCB",18-01-2024 10:00:00,28.83526,78.74460,NO2,23,23,23
India,Uttar_Pradesh,Moradabad,"Eco Herbal Park, Moradabad - UPPCB",18-01-2024 10:00:00,28.840739,78.697531,NO2,1,42,16
India,Uttar_Pradesh,Moradabad,"Eco Herbal Park, Moradabad - UPPCB",18-01-2024 10:00:00,28.840739,78.697531,SO2,NA,NA,NA
India,Uttar_Pradesh,Moradabad,"Employment Office, Moradabad - UPPCB",18-01-2024 10:00:00,28.88528,78.73880,SO2,23,24,24
India,Uttar_Pradesh,Moradabad,"Kashiram Nagar, Moradabad - UPPCB",18-01-2024 10:00:00,28.849399,78.742362,CO,50,74,55
India,Uttar_Pradesh,Moradabad,"Transport Nagar, Moradabad - UPPCB",18-01-2024 10:00:00,28.802625,78.753728,PM10,35,112,70
India,Uttar_Pradesh,Moradabad,"Transport Nagar, Moradabad - UPPCB",18-01-2024 10:00:00,28.802625,78.753728,CO,40,42,40
India,Uttar_Pradesh,Moradabad,"Transport Nagar, Moradabad - UPPCB",18-01-2024 10:00:00,28.802625,78.753728,OZONE,15,18,17
India,Uttar_Pradesh,Muzaffarnagar,"New Mandi, Muzaffarnagar - UPPCB",18-01-2024 10:00:00,29.4723508,77.7194031,PM10,64,191,126
India,Uttar_Pradesh,Muzaffarnagar,"New Mandi, Muzaffarnagar - UPPCB",18-01-2024 10:00:00,29.4723508,77.7194031,NH3,7,13,9
India,Uttar_Pradesh,Noida,"Sector - 125, Noida - UPPCB",18-01-2024 10:00:00,28.5447608,77.3231257,CO,23,65,36
India,Uttar_Pradesh,Noida,"Sector-116, Noida - UPPCB",18-01-2024 10:00:00,28.569230,77.393848,OZONE,5,68,10
India,Uttar_Pradesh,Prayagraj,"Jhunsi, Prayagraj - UPPCB",18-01-2024 10:00:00,25.425602,81.917152,NH3,5,5,5
India,Uttar_Pradesh,Prayagraj,"Motilal Nehru NIT, Prayagraj - UPPCB",18-01-2024 10:00:00,25.494,81.863,PM10,89,131,108
India,Uttar_Pradesh,Prayagraj,"Motilal Nehru NIT, Prayagraj - UPPCB",18-01-2024 10:00:00,25.494,81.863,OZONE,10,22,13
India,Uttar_Pradesh,Prayagraj,"Nagar Nigam, Prayagraj - UPPCB",18-01-2024 10:00:00,25.44919916 ,81.82735986 ,PM10,86,158,133
India,Uttar_Pradesh,Prayagraj,"Nagar Nigam, Prayagraj - UPPCB",18-01-2024 10:00:00,25.44919916 ,81.82735986 ,SO2,9,68,25
India,Uttar_Pradesh,Varanasi,"Ardhali Bazar, Varanasi - UPPCB",18-01-2024 10:00:00,25.3505986,82.9083074,OZONE,17,20,18
India,Uttar_Pradesh,Varanasi,"Bhelupur, Varanasi - UPPCB",18-01-2024 10:00:00,25.301778,82.996789,PM2.5,24,33,28
India,Uttar_Pradesh,Varanasi,"Bhelupur, Varanasi - UPPCB",18-01-2024 10:00:00,25.301778,82.996789,PM10,54,68,60
India,Uttar_Pradesh,Varanasi,"IESD Banaras Hindu University, Varanasi - UPPCB",18-01-2024 10:00:00,25.262326,82.995408,PM10,39,63,48
India,Uttar_Pradesh,Varanasi,"IESD Banaras Hindu University, Varanasi - UPPCB",18-01-2024 10:00:00,25.262326,82.995408,NO2,2,3,2
India,Uttar_Pradesh,Varanasi,"IESD Banaras Hindu University, Varanasi - UPPCB",18-01-2024 10:00:00,25.262326,82.995408,SO2,15,16,15
India,Uttar_Pradesh,Vrindavan,"Omex Eternity, Vrindavan - UPPCB",18-01-2024 10:00:00,27.5714090,77.6557570,NO2,2,3,2
India,Uttar_Pradesh,Vrindavan,"Omex Eternity, Vrindavan - UPPCB",18-01-2024 10:00:00,27.5714090,77.6557570,SO2,35,39,35
India,Uttar_Pradesh,Vrindavan,"Omex Eternity, Vrindavan - UPPCB",18-01-2024 10:00:00,27.5714090,77.6557570,OZONE,29,31,30
India,Uttarakhand,Dehradun,"Doon University, Dehradun - UKPCB",18-01-2024 10:00:00,30.269444,78.044167,PM2.5,23,311,194
India,Uttarakhand,Dehradun,"Doon University, Dehradun - UKPCB",18-01-2024 10:00:00,30.269444,78.044167,NO2,1,11,4
India,Uttarakhand,Rishikesh,"Shivaji Nagar, Rishikesh - UKPCB",18-01-2024 10:00:00,30.075911,78.2859547,PM10,39,70,57
India,Uttarakhand,Rishikesh,"Shivaji Nagar, Rishikesh - UKPCB",18-01-2024 10:00:00,30.075911,78.2859547,CO,34,51,43
India,West_Bengal,Asansol,"Asansol Court Area, Asansol - WBPCB",18-01-2024 10:00:00,23.685297,86.945968,SO2,10,57,24
India,West_Bengal,Asansol,"Asansol Court Area, Asansol - WBPCB",18-01-2024 10:00:00,23.685297,86.945968,OZONE,9,50,15
India,West_Bengal,Durgapur,"Sidhu Kanhu Indoor Stadium, Durgapur - WBPCB",18-01-2024 10:00:00,23.5404352,87.2892225,SO2,NA,NA,NA
India,West_Bengal,Haldia,"Priyambada Housing Estate, Haldia - WBPCB",18-01-2024 10:00:00,22.06047,88.109737,NO2,26,45,32
India,West_Bengal,Haldia,"Priyambada Housing Estate, Haldia - WBPCB",18-01-2024 10:00:00,22.06047,88.109737,OZONE,15,114,16
India,West_Bengal,Howrah,"Belur Math, Howrah - WBPCB",18-01-2024 10:00:00,22.629801,88.352017,PM2.5,133,189,157
India,West_Bengal,Howrah,"Ghusuri, Howrah - WBPCB",18-01-2024 10:00:00,22.611968,88.347422,CO,28,48,37
India,West_Bengal,Howrah,"Padmapukur, Howrah - WBPCB",18-01-2024 10:00:00,22.5687319,88.2797276,NO2,36,57,44
India,West_Bengal,Kolkata,"Ballygunge, Kolkata - WBPCB",18-01-2024 10:00:00,22.5367507,88.3638022,PM10,126,156,137
India,West_Bengal,Kolkata,"Ballygunge, Kolkata - WBPCB",18-01-2024 10:00:00,22.5367507,88.3638022,CO,26,44,31
India,West_Bengal,Kolkata,"Bidhannagar, Kolkata - WBPCB",18-01-2024 10:00:00,22.58157048,88.41002457,NO2,19,27,23
India,West_Bengal,Kolkata,"Fort William, Kolkata - WBPCB",18-01-2024 10:00:00,22.556640,88.342674,SO2,8,14,10
India,West_Bengal,Kolkata,"Jadavpur, Kolkata - WBPCB",18-01-2024 10:00:00,22.49929,88.36917,SO2,4,5,4
India,West_Bengal,Kolkata,"Rabindra Bharati University, Kolkata - WBPCB",18-01-2024 10:00:00,22.627847,88.380669,OZONE,2,33,14
India,West_Bengal,Kolkata,"Victoria, Kolkata - WBPCB",18-01-2024 10:00:00,22.5448082,88.3403691,PM2.5,194,297,224
India,West_Bengal,Kolkata,"Victoria, Kolkata - WBPCB",18-01-2024 10:00:00,22.5448082,88.3403691,SO2,19,25,22
India,West_Bengal,Siliguri,"Ward-32 Bapupara, Siliguri - WBPCB",18-01-2024 10:00:00,26.6879226,88.4152495,OZONE,7,35,14
India,Andhra_Pradesh,Amaravati,"Secretariat, Amaravati - APPCB",18-01-2024 10:00:00,16.5150833,80.5181667,NO2,7,25,15
India,Andhra_Pradesh,Amaravati,"Secretariat, Amaravati - APPCB",18-01-2024 10:00:00,16.5150833,80.5181667,OZONE,1,49,7
India,Andhra_Pradesh,Anantapur,"Gulzarpet, Anantapur - APPCB",18-01-2024 10:00:00,14.675886,77.593027,PM10,49,88,72
India,Andhra_Pradesh,Chittoor,"Gangineni Cheruvu, Chittoor - APPCB",18-01-2024 10:00:00,13.204880,79.097889,PM2.5,31,71,48
India,Andhra_Pradesh,Chittoor,"Gangineni Cheruvu, Chittoor - APPCB",18-01-2024 10:00:00,13.204880,79.097889,NO2,6,27,13
India,Andhra_Pradesh,Kadapa,"Yerramukkapalli, Kadapa - APPCB",18-01-2024 10:00:00,14.465052,78.824187,SO2,1,2,1
India,Andhra_Pradesh,Kadapa,"Yerramukkapalli, Kadapa - APPCB",18-01-2024 10:00:00,14.465052,78.824187,OZONE,18,62,23
India,Andhra_Pradesh,Rajamahendravaram,"Anand Kala Kshetram, Rajamahendravaram - APPCB",18-01-2024 10:00:00,16.9872867,81.7363176,PM2.5,68,138,101
India,Andhra_Pradesh,Rajamahendravaram,"Anand Kala Kshetram, Rajamahendravaram - APPCB",18-01-2024 10:00:00,16.9872867,81.7363176,NO2,11,51,25
India,Andhra_Pradesh,Rajamahendravaram,"Anand Kala Kshetram, Rajamahendravaram - APPCB",18-01-2024 10:00:00,16.9872867,81.7363176,NH3,2,21,6
India,Andhra_Pradesh,Tirupati,"Vaikuntapuram, Tirupati - APPCB",18-01-2024 10:00:00,13.615387,79.409230,PM10,17,40,25
India,Andhra_Pradesh,Tirupati,"Vaikuntapuram, Tirupati - APPCB",18-01-2024 10:00:00,13.615387,79.409230,OZONE,2,43,6
India,Andhra_Pradesh,Vijayawada,"Rajiv Gandhi Park, Vijayawada - APPCB",18-01-2024 10:00:00,16.509717,80.612222,SO2,NA,NA,NA
India,Andhra_Pradesh,Vijayawada,"Rajiv Gandhi Park, Vijayawada - APPCB",18-01-2024 10:00:00,16.509717,80.612222,OZONE,21,21,21
India,Andhra_Pradesh,Visakhapatnam,"GVM Corporation, Visakhapatnam - APPCB",18-01-2024 10:00:00,17.72,83.3,NO2,NA,NA,NA
India,Andhra_Pradesh,Visakhapatnam,"GVM Corporation, Visakhapatnam - APPCB",18-01-2024 10:00:00,17.72,83.3,SO2,NA,NA,NA
India,Andhra_Pradesh,Visakhapatnam,"GVM Corporation, Visakhapatnam - APPCB",18-01-2024 10:00:00,17.72,83.3,OZONE,9,15,10
India,Arunachal_Pradesh,Naharlagun,"Naharlagun, Naharlagun - APSPCB",18-01-2024 10:00:00,27.103358,93.679645,PM2.5,41,256,92
India,Assam,Guwahati,"IITG, Guwahati - PCBA",18-01-2024 10:00:00,26.2028636,91.70046436,PM2.5,172,399,275
India,Assam,Guwahati,"IITG, Guwahati - PCBA",18-01-2024 10:00:00,26.2028636,91.70046436,NO2,2,14,7
India,Assam,Guwahati,"IITG, Guwahati - PCBA",18-01-2024 10:00:00,26.2028636,91.70046436,SO2,11,13,11
India,Assam,Guwahati,"LGBI Airport, Guwahati - PCBA",18-01-2024 10:00:00,26.10887,91.589544,PM2.5,82,428,252
India,Assam,Guwahati,"Pan Bazaar, Guwahati - PCBA",18-01-2024 10:00:00,26.187500,91.744194,PM10,99,404,186
India,Assam,Guwahati,"Pan Bazaar, Guwahati - PCBA",18-01-2024 10:00:00,26.187500,91.744194,NO2,NA,NA,NA
India,Assam,Guwahati,"Pan Bazaar, Guwahati - PCBA",18-01-2024 10:00:00,26.187500,91.744194,OZONE,17,17,17
India,Assam,Guwahati,"Railway Colony, Guwahati - PCBA",18-01-2024 10:00:00,26.181742,91.78063,NO2,3,3,3
India,Assam,Guwahati,"Railway Colony, Guwahati - PCBA",18-01-2024 10:00:00,26.181742,91.78063,CO,42,122,98
India,Assam,Nagaon,"Christianpatty, Nagaon - PCBA",18-01-2024 10:00:00,26.349082,92.68449,PM10,15,63,31
India,Assam,Nagaon,"Christianpatty, Nagaon - PCBA",18-01-2024 10:00:00,26.349082,92.68449,NO2,13,22,18
India,Assam,Nagaon,"Christianpatty, Nagaon - PCBA",18-01-2024 10:00:00,26.349082,92.68449,NH3,3,4,3
India,Assam,Nagaon,"Christianpatty, Nagaon - PCBA",18-01-2024 10:00:00,26.349082,92.68449,SO2,8,16,10
India,Assam,Sivasagar,"Girls College, Sivasagar - PCBA",18-01-2024 10:00:00,26.987634,94.636574,PM10,35,91,62
India,Bihar,Araria,"Kharahiya Basti, Araria - BSPCB",18-01-2024 10:00:00,26.146529,87.454184,PM2.5,NA,NA,NA
India,Bihar,Aurangabad,"Gurdeo Nagar, Aurangabad - BSPCB",18-01-2024 10:00:00,24.75746,84.366208,PM2.5,NA,NA,NA
India,Bihar,Aurangabad,"Gurdeo Nagar, Aurangabad - BSPCB",18-01-2024 10:00:00,24.75746,84.366208,CO,12,101,51
India,Bihar,Bettiah,"Kamalnath Nagar, Bettiah - BSPCB",18-01-2024 10:00:00,26.80365,84.51954,NO2,NA,NA,NA
India,Bihar,Bettiah,"Kamalnath Nagar, Bettiah - BSPCB",18-01-2024 10:00:00,26.80365,84.51954,NH3,3,4,3
India,Bihar,Bettiah,"Kamalnath Nagar, Bettiah - BSPCB",18-01-2024 10:00:00,26.80365,84.51954,SO2,10,23,17
India,Bihar,Bhagalpur,"DM Office_Kachari Chowk, Bhagalpur - BSPCB",18-01-2024 10:00:00,25.251013,86.989001,PM2.5,197,371,288
India,Bihar,Bhagalpur,"Mayaganj, Bhagalpur - BSPCB",18-01-2024 10:00:00,25.265194,87.012947,PM2.5,123,383,278
India,Bihar,Bhagalpur,"Mayaganj, Bhagalpur - BSPCB",18-01-2024 10:00:00,25.265194,87.012947,PM10,87,243,161
India,Bihar,Bihar Sharif,"D M Colony, Bihar Sharif - BSPCB",18-01-2024 10:00:00,25.204762,85.514960,PM10,107,200,152
India,Bihar,Bihar Sharif,"D M Colony, Bihar Sharif - BSPCB",18-01-2024 10:00:00,25.204762,85.514960,SO2,2,16,8
India,Bihar,Bihar Sharif,"D M Colony, Bihar Sharif - BSPCB",18-01-2024 10:00:00,25.204762,85.514960,OZONE,1,7,4
India,Bihar,Chhapra,"Darshan Nagar, Chhapra - BSPCB",18-01-2024 10:00:00,25.7808257,84.7446768,OZONE,1,2,2
India,Bihar,Gaya,"Collectorate, Gaya - BSPCB",18-01-2024 10:00:00,24.7955,84.9994,PM2.5,291,322,312
India,Bihar,Gaya,"Collectorate, Gaya - BSPCB",18-01-2024 10:00:00,24.7955,84.9994,NO2,17,21,19
India,Bihar,Gaya,"Kareemganj, Gaya - BSPCB",18-01-2024 10:00:00,24.792403,84.992416,PM10,145,189,167
India,Bihar,Gaya,"Kareemganj, Gaya - BSPCB",18-01-2024 10:00:00,24.792403,84.992416,NO2,30,31,30
India,Bihar,Gaya,"Kareemganj, Gaya - BSPCB",18-01-2024 10:00:00,24.792403,84.992416,NH3,1,6,3
India,Bihar,Gaya,"SFTI Kusdihra, Gaya - BSPCB",18-01-2024 10:00:00,24.762518,84.982348,SO2,7,10,9
India,Bihar,Hajipur,"Industrial Area, Hajipur - BSPCB",18-01-2024 10:00:00,25.697189,85.245900,PM10,166,264,205
India,Bihar,Hajipur,"Industrial Area, Hajipur - BSPCB",18-01-2024 10:00:00,25.697189,85.245900,OZONE,3,172,92
India,Bihar,Katihar,"Mirchaibari, Katihar - BSPCB",18-01-2024 10:00:00,25.560083,87.553265,PM2.5,53,187,112
India,Bihar,Kishanganj,"SDM Office_Khagra, Kishanganj - BSPCB",18-01-2024 10:00:00,26.0881305,87.93840336,SO2,5,18,13
India,Bihar,Kishanganj,"SDM Office_Khagra, Kishanganj - BSPCB",18-01-2024 10:00:00,26.0881305,87.93840336,CO,4,30,7
India,Bihar,Manguraha,"Forest Rest House, Manguraha - BSPCB",18-01-2024 10:00:00,27.308328,84.531742,PM2.5,22,173,73
India,Bihar,Manguraha,"Forest Rest House, Manguraha - BSPCB",18-01-2024 10:00:00,27.308328,84.531742,PM10,33,143,86
India,Bihar,Manguraha,"Forest Rest House, Manguraha - BSPCB",18-01-2024 10:00:00,27.308328,84.531742,SO2,1,2,1
India,Bihar,Manguraha,"Forest Rest House, Manguraha - BSPCB",18-01-2024 10:00:00,27.308328,84.531742,CO,2,37,15
India,Bihar,Motihari,"Gandak Colony, Motihari - BSPCB",18-01-2024 10:00:00,26.63086,84.90051,NH3,8,12,10
India,Bihar,Munger,"Town Hall, Munger - BSPCB",18-01-2024 10:00:00,25.376776,86.471523,OZONE,9,14,11
India,Bihar,Muzaffarpur,"MIT-Daudpur Kothi, Muzaffarpur - BSPCB",18-01-2024 10:00:00,26.1403345,85.3650192,NH3,3,6,6
India,Bihar,Muzaffarpur,"MIT-Daudpur Kothi, Muzaffarpur - BSPCB",18-01-2024 10:00:00,26.1403345,85.3650192,SO2,11,19,12
India,Bihar,Muzaffarpur,"MIT-Daudpur Kothi, Muzaffarpur - BSPCB",18-01-2024 10:00:00,26.1403345,85.3650192,OZONE,3,34,3
India,Bihar,Muzaffarpur,"Muzaffarpur Collectorate, Muzaffarpur - BSPCB",18-01-2024 10:00:00,26.1209,85.3647,PM2.5,84,405,303
India,Bihar,Muzaffarpur,"Muzaffarpur Collectorate, Muzaffarpur - BSPCB",18-01-2024 10:00:00,26.1209,85.3647,SO2,5,10,6
India,Bihar,Patna,"DRM Office Danapur, Patna - BSPCB",18-01-2024 10:00:00,25.586562,85.043586,PM10,178,438,355
India,Bihar,Patna,"Govt. High School Shikarpur, Patna - BSPCB",18-01-2024 10:00:00,25.592539,85.227158,SO2,2,13,6
India,Bihar,Patna,"IGSC Planetarium Complex, Patna - BSPCB",18-01-2024 10:00:00,25.610369,85.132568,SO2,74,86,80
India,Bihar,Patna,"IGSC Planetarium Complex, Patna - BSPCB",18-01-2024 10:00:00,25.610369,85.132568,CO,107,112,112
India,Bihar,Patna,"Muradpur, Patna - BSPCB",18-01-2024 10:00:00,25.619651,85.147382,OZONE,9,43,15
India,Bihar,Patna,"Rajbansi Nagar, Patna - BSPCB",18-01-2024 10:00:00,25.599486,85.113666,PM10,227,409,316
India,Bihar,Patna,"Rajbansi Nagar, Patna - BSPCB",18-01-2024 10:00:00,25.599486,85.113666,NO2,53,73,62
India,Bihar,Patna,"Rajbansi Nagar, Patna - BSPCB",18-01-2024 10:00:00,25.599486,85.113666,NH3,6,7,6
India,Bihar,Patna,"Samanpura, Patna - BSPCB",18-01-2024 10:00:00,25.596727,85.085624,NO2,14,16,15
India,Bihar,Purnia,"Mariam Nagar, Purnia - BSPCB",18-01-2024 10:00:00,25.366336,87.117468,NH3,1,2,1
India,Bihar,Rajgir,"Dangi Tola, Rajgir - BSPCB",18-01-2024 10:00:00,25.03280,85.41948,NH3,1,6,2
India,Bihar,Rajgir,"Dangi Tola, Rajgir - BSPCB",18-01-2024 10:00:00,25.03280,85.41948,SO2,4,9,5
India,Bihar,Saharsa,"Police Line, Saharsa - BSPCB",18-01-2024 10:00:00,25.892357,86.590325,CO,NA,NA,NA
India,Bihar,Saharsa,"Police Line, Saharsa - BSPCB",18-01-2024 10:00:00,25.892357,86.590325,OZONE,2,4,2
India,Bihar,Samastipur,"DM Office_Kasipur, Samastipur - BSPCB",18-01-2024 10:00:00,25.859655,85.77944,PM10,NA,NA,NA
India,Bihar,Sasaram,"Dada Peer, Sasaram - BSPCB",18-01-2024 10:00:00,24.952822,84.002396,NH3,4,7,5
India,Bihar,Siwan,"Chitragupta Nagar, Siwan - BSPCB",18-01-2024 10:00:00,26.2271665,84.3570427,PM2.5,78,177,101
India,Bihar,Siwan,"Chitragupta Nagar, Siwan - BSPCB",18-01-2024 10:00:00,26.2271665,84.3570427,CO,93,136,112
India,Chandigarh,Chandigarh,"Sector 22, Chandigarh - CPCC",18-01-2024 10:00:00,30.735567,76.775714,SO2,4,89,17
India,Chhattisgarh,Bhilai,"32Bungalows, Bhilai - CECB",18-01-2024 10:00:00,21.194815,81.314770,PM2.5,79,134,99
India,Chhattisgarh,Bhilai,"32Bungalows, Bhilai - CECB",18-01-2024 10:00:00,21.194815,81.314770,SO2,10,12,11
India,Chhattisgarh,Bhilai,"Civic Center, Bhilai - Bhilai Steel Plant",18-01-2024 10:00:00,21.185571,81.343175,SO2,9,11,10
India,Chhattisgarh,Bhilai,"Civic Center, Bhilai - Bhilai Steel Plant",18-01-2024 10:00:00,21.185571,81.343175,CO,29,58,37
India,Chhattisgarh,Bhilai,"Hathkhoj, Bhilai - CECB",18-01-2024 10:00:00,21.224231,81.408350,PM2.5,65,250,143
India,Chhattisgarh,Bhilai,"Hathkhoj, Bhilai - CECB",18-01-2024 10:00:00,21.224231,81.408350,NH3,7,8,7
India,Chhattisgarh,Bilaspur,"Mangala, Bilaspur - NTPC",18-01-2024 10:00:00,22.08815,82.13737,NO2,12,13,12
India,Chhattisgarh,Chhal,"Nawapara SECL Colony, Chhal - CECB",18-01-2024 10:00:00,22.118125,83.140608,PM2.5,80,199,131
India,Chhattisgarh,Chhal,"Nawapara SECL Colony, Chhal - CECB",18-01-2024 10:00:00,22.118125,83.140608,PM10,79,147,110
India,Chhattisgarh,Korba,"Rampur, Korba - CECB",18-01-2024 10:00:00,22.368195,82.746431,PM10,52,103,74
India,Chhattisgarh,Korba,"Urja Nagar, Korba - CECB",18-01-2024 10:00:00,22.348441,82.549611,PM2.5,22,95,44
India,Chhattisgarh,Korba,"Urja Nagar, Korba - CECB",18-01-2024 10:00:00,22.348441,82.549611,PM10,43,163,93
India,Chhattisgarh,Kunjemura,"OP Jindal School, Kunjemura - CECB",18-01-2024 10:00:00,22.126650,83.483212,PM10,58,188,99
India,Chhattisgarh,Kunjemura,"OP Jindal School, Kunjemura - CECB",18-01-2024 10:00:00,22.126650,83.483212,OZONE,3,48,5
India,Chhattisgarh,Milupara,"Govt. Higher Secondary School, Milupara - CECB",18-01-2024 10:00:00,22.1910172,83.5197009,PM2.5,42,112,80
India,Chhattisgarh,Milupara,"Govt. Higher Secondary School, Milupara - CECB",18-01-2024 10:00:00,22.1910172,83.5197009,PM10,52,123,88
India,Chhattisgarh,Raipur,"AIIMS, Raipur - CECB",18-01-2024 10:00:00,21.258815,81.578979,OZONE,1,5,1
India,Chhattisgarh,Raipur,"Krishak Nagar, Raipur - CECB",18-01-2024 10:00:00,21.237755,81.705301,PM2.5,55,89,75
India,Delhi,Delhi,"Anand Vihar, Delhi - DPCC",18-01-2024 10:00:00,28.647622,77.3158090,PM2.5,304,440,363
India,Delhi,Delhi,"Anand Vihar, Delhi - DPCC",18-01-2024 10:00:00,28.647622,77.3158090,NO2,51,134,85
India,Delhi,Delhi,"Aya Nagar, Delhi - IMD",18-01-2024 10:00:00,28.4706914,77.1099364,NO2,18,28,23
India,Delhi,Delhi,"Aya Nagar, Delhi - IMD",18-01-2024 10:00:00,28.4706914,77.1099364,CO,82,108,90
India,Delhi,Delhi,"Bawana, Delhi - DPCC",18-01-2024 10:00:00,28.776200,77.051074,SO2,4,10,6
India,Delhi,Delhi,"Bawana, Delhi - DPCC",18-01-2024 10:00:00,28.776200,77.051074,OZONE,2,98,3
India,Delhi,Delhi,"DTU, Delhi - CPCB",18-01-2024 10:00:00,28.7500499,77.1112615,NO2,7,97,52
India,Delhi,Delhi,"Dr. Karni Singh Shooting Range, Delhi - DPCC",18-01-2024 10:00:00,28.498571,77.264840,PM2.5,168,395,299
India,Delhi,Delhi,"Dr. Karni Singh Shooting Range, Delhi - DPCC",18-01-2024 10:00:00,28.498571,77.264840,SO2,4,9,7
India,Delhi,Delhi,"Dwarka-Sector 8, Delhi - DPCC ",18-01-2024 10:00:00,28.5710274,77.0719006,PM2.5,242,439,366
India,Delhi,Delhi,"Dwarka-Sector 8, Delhi - DPCC ",18-01-2024 10:00:00,28.5710274,77.0719006,NH3,4,11,6
India,Delhi,Delhi,"IHBAS, Dilshad Garden, Delhi - CPCB",18-01-2024 10:00:00,28.6811736,77.3025234,NO2,6,36,16
India,Delhi,Delhi,"ITO, Delhi - CPCB",18-01-2024 10:00:00,28.628624,77.241060,PM2.5,293,412,346
India,Delhi,Delhi,"Jahangirpuri, Delhi - DPCC",18-01-2024 10:00:00,28.732820,77.170633,NH3,7,10,9
India,Delhi,Delhi,"Jahangirpuri, Delhi - DPCC",18-01-2024 10:00:00,28.732820,77.170633,SO2,11,19,14
India,Delhi,Delhi,"Jawaharlal Nehru Stadium, Delhi - DPCC",18-01-2024 10:00:00,28.580280,77.233829,OZONE,1,42,2
India,Delhi,Delhi,"Lodhi Road, Delhi - IITM",18-01-2024 10:00:00,28.588333,77.221667,PM10,61,421,137
India,Delhi,Delhi,"Lodhi Road, Delhi - IITM",18-01-2024 10:00:00,28.588333,77.221667,NH3,9,15,10
India,Delhi,Delhi,"Lodhi Road, Delhi - IITM",18-01-2024 10:00:00,28.588333,77.221667,CO,66,69,68
India,Delhi,Delhi,"Lodhi Road, Delhi - IMD",18-01-2024 10:00:00,28.5918245,77.2273074,OZONE,13,66,14
India,Delhi,Delhi,"Major Dhyan Chand National Stadium, Delhi - DPCC",18-01-2024 10:00:00,28.611281,77.237738,CO,32,111,39
India,Delhi,Delhi,"Major Dhyan Chand National Stadium, Delhi - DPCC",18-01-2024 10:00:00,28.611281,77.237738,OZONE,3,3,3
India,Delhi,Delhi,"Mundka, Delhi - DPCC",18-01-2024 10:00:00,28.684678,77.076574,CO,50,110,58
India,Delhi,Delhi,"NSIT Dwarka, Delhi - CPCB",18-01-2024 10:00:00,28.60909,77.0325413,SO2,3,16,12
India,Delhi,Delhi,"NSIT Dwarka, Delhi - CPCB",18-01-2024 10:00:00,28.60909,77.0325413,CO,38,96,44
India,Delhi,Delhi,"Narela, Delhi - DPCC",18-01-2024 10:00:00,28.822836,77.101981,PM10,129,460,336
India,Delhi,Delhi,"Narela, Delhi - DPCC",18-01-2024 10:00:00,28.822836,77.101981,NO2,46,103,66
India,Delhi,Delhi,"Narela, Delhi - DPCC",18-01-2024 10:00:00,28.822836,77.101981,NH3,9,15,11
India,Delhi,Delhi,"Narela, Delhi - DPCC",18-01-2024 10:00:00,28.822836,77.101981,SO2,4,16,9
India,Delhi,Delhi,"Narela, Delhi - DPCC",18-01-2024 10:00:00,28.822836,77.101981,OZONE,6,165,7
India,Delhi,Delhi,"Nehru Nagar, Delhi - DPCC",18-01-2024 10:00:00,28.567890,77.250515,PM10,120,403,246
India,Delhi,Delhi,"Nehru Nagar, Delhi - DPCC",18-01-2024 10:00:00,28.567890,77.250515,OZONE,1,73,3
India,Delhi,Delhi,"New Moti Bagh, Delhi - MHUA",18-01-2024 10:00:00,28.57834,77.18400,NO2,1,7,3
India,Delhi,Delhi,"New Moti Bagh, Delhi - MHUA",18-01-2024 10:00:00,28.57834,77.18400,CO,44,104,50
India,Delhi,Delhi,"Okhla Phase-2, Delhi - DPCC",18-01-2024 10:00:00,28.530785,77.271255,CO,36,109,43
India,Delhi,Delhi,"Patparganj, Delhi - DPCC",18-01-2024 10:00:00,28.623763,77.287209,PM10,119,330,221
India,Delhi,Delhi,"Patparganj, Delhi - DPCC",18-01-2024 10:00:00,28.623763,77.287209,NH3,7,12,10
India,Delhi,Delhi,"Punjabi Bagh, Delhi - DPCC",18-01-2024 10:00:00,28.674045,77.131023,PM2.5,122,427,356
India,Delhi,Delhi,"Punjabi Bagh, Delhi - DPCC",18-01-2024 10:00:00,28.674045,77.131023,PM10,108,368,259
India,Delhi,Delhi,"Punjabi Bagh, Delhi - DPCC",18-01-2024 10:00:00,28.674045,77.131023,CO,30,90,40
India,Delhi,Delhi,"Punjabi Bagh, Delhi - DPCC",18-01-2024 10:00:00,28.674045,77.131023,OZONE,7,10,8
India,Delhi,Delhi,"Pusa, Delhi - DPCC",18-01-2024 10:00:00,28.639652,77.146275,PM2.5,134,395,300
India,Delhi,Delhi,"Pusa, Delhi - DPCC",18-01-2024 10:00:00,28.639652,77.146275,NO2,111,245,168
India,Delhi,Delhi,"Pusa, Delhi - DPCC",18-01-2024 10:00:00,28.639652,77.146275,CO,14,101,52
India,Delhi,Delhi,"Pusa, Delhi - IMD",18-01-2024 10:00:00,28.636110,77.173332,NO2,28,64,42
India,Delhi,Delhi,"R K Puram, Delhi - DPCC",18-01-2024 10:00:00,28.563262,77.186937,NO2,28,87,52
India,Delhi,Delhi,"Rohini, Delhi - DPCC",18-01-2024 10:00:00,28.732528,77.119920,SO2,8,16,12
India,Delhi,Delhi,"Shadipur, Delhi - CPCB",18-01-2024 10:00:00,28.6514781,77.1473105,NO2,42,91,59
India,Delhi,Delhi,"Shadipur, Delhi - CPCB",18-01-2024 10:00:00,28.6514781,77.1473105,SO2,7,27,15
India,Delhi,Delhi,"Sirifort, Delhi - CPCB",18-01-2024 10:00:00,28.5504249,77.2159377,NH3,7,12,10
India,Delhi,Delhi,"Sirifort, Delhi - CPCB",18-01-2024 10:00:00,28.5504249,77.2159377,SO2,28,31,29
India,Delhi,Delhi,"Sirifort, Delhi - CPCB",18-01-2024 10:00:00,28.5504249,77.2159377,OZONE,13,55,16
India,Delhi,Delhi,"Vivek Vihar, Delhi - DPCC",18-01-2024 10:00:00,28.672342,77.315260,NH3,5,10,8
India,Delhi,Delhi,"Vivek Vihar, Delhi - DPCC",18-01-2024 10:00:00,28.672342,77.315260,CO,26,120,39
India,Delhi,Delhi,"Wazirpur, Delhi - DPCC",18-01-2024 10:00:00,28.699793,77.165453,OZONE,2,86,3
India,Gujarat,Ahmedabad,"Chandkheda, Ahmedabad - IITM",18-01-2024 10:00:00,23.107969,72.574648,PM10,71,136,98
India,Gujarat,Ahmedabad,"Chandkheda, Ahmedabad - IITM",18-01-2024 10:00:00,23.107969,72.574648,NO2,25,33,29
India,Gujarat,Ahmedabad,"Gyaspur, Ahmedabad - IITM",18-01-2024 10:00:00,22.977134,72.553024,PM2.5,47,342,131
India,Gujarat,Ahmedabad,"Gyaspur, Ahmedabad - IITM",18-01-2024 10:00:00,22.977134,72.553024,CO,12,35,20
India,Gujarat,Ahmedabad,"Maninagar, Ahmedabad - GPCB",18-01-2024 10:00:00,23.002657,72.591912,NO2,15,115,57
India,Gujarat,Ahmedabad,"Maninagar, Ahmedabad - GPCB",18-01-2024 10:00:00,23.002657,72.591912,OZONE,4,77,20
India,Gujarat,Ahmedabad,"Raikhad, Ahmedabad - IITM",18-01-2024 10:00:00,23.020509,72.579261,NH3,NA,NA,NA
India,Gujarat,Ahmedabad,"Rakhial, Ahmedabad - IITM",18-01-2024 10:00:00,23.016834,72.625775,PM10,101,200,140
India,Gujarat,Ahmedabad,"SAC ISRO Bopal, Ahmedabad - IITM",18-01-2024 10:00:00,23.041137,72.456691,PM10,48,166,86
India,Gujarat,Ahmedabad,"SAC ISRO Bopal, Ahmedabad - IITM",18-01-2024 10:00:00,23.041137,72.456691,SO2,5,5,5
India,Gujarat,Ahmedabad,"SAC ISRO Bopal, Ahmedabad - IITM",18-01-2024 10:00:00,23.041137,72.456691,CO,40,42,40
India,Gujarat,Ahmedabad,"SAC ISRO Satellite, Ahmedabad - IITM",18-01-2024 10:00:00,23.023389,72.515201,SO2,5,10,7
India,Gujarat,Ahmedabad,"SVPI Airport Hansol, Ahmedabad - IITM",18-01-2024 10:00:00,23.076793,72.627874,NO2,14,14,14
India,Gujarat,Ahmedabad,"Sardar Vallabhbhai Patel Stadium, Ahmedabad - IITM",18-01-2024 10:00:00,23.043070,72.562968,PM2.5,67,216,126
India,Gujarat,Ankleshwar,"GIDC, Ankleshwar - GPCB",18-01-2024 10:00:00,21.613267,73.010555,CO,40,111,97
India,Gujarat,Gandhinagar,"GIFT City, Gandhinagar - IITM",18-01-2024 10:00:00,23.163798,72.677768,NO2,9,11,10
India,Gujarat,Gandhinagar,"GIFT City, Gandhinagar - IITM",18-01-2024 10:00:00,23.163798,72.677768,CO,2,28,21
India,Gujarat,Gandhinagar,"IIPHG Lekawada, Gandhinagar - IITM",18-01-2024 10:00:00,23.243639,72.68994,PM2.5,82,349,178
India,Gujarat,Gandhinagar,"IIPHG Lekawada, Gandhinagar - IITM",18-01-2024 10:00:00,23.243639,72.68994,NO2,13,15,14
India,Gujarat,Gandhinagar,"Sector-10, Gandhinagar - GPCB",18-01-2024 10:00:00,23.221714,72.654328,NO2,5,11,8
India,Gujarat,Gandhinagar,"Sector-10, Gandhinagar - GPCB",18-01-2024 10:00:00,23.221714,72.654328,OZONE,1,41,7
India,Gujarat,Surat,"Science Center, Surat - SMC",18-01-2024 10:00:00,21.170046,72.795405,PM10,29,93,55
India,Gujarat,Surat,"Science Center, Surat - SMC",18-01-2024 10:00:00,21.170046,72.795405,SO2,15,19,17
India,Gujarat,Vapi,"Phase-1 GIDC, Vapi - GPCB",18-01-2024 10:00:00,20.362421,72.918013,SO2,36,48,42
India,Gujarat,Vatva,"Phase-4 GIDC, Vatva - GPCB",18-01-2024 10:00:00,22.969611,72.643500,NH3,1,2,2
India,Haryana,Ambala,"Patti Mehar, Ambala - HSPCB",18-01-2024 10:00:00,30.379589,76.778328,NO2,7,21,14
India,Haryana,Ambala,"Patti Mehar, Ambala - HSPCB",18-01-2024 10:00:00,30.379589,76.778328,SO2,2,33,8
India,Haryana,Bahadurgarh,"Arya Nagar, Bahadurgarh - HSPCB",18-01-2024 10:00:00,28.6701,76.9254,SO2,8,12,10
India,Haryana,Bahadurgarh,"Arya Nagar, Bahadurgarh - HSPCB",18-01-2024 10:00:00,28.6701,76.9254,OZONE,39,51,45
India,Haryana,Ballabgarh,"Nathu Colony, Ballabgarh - HSPCB",18-01-2024 10:00:00,28.3419248,77.319699,NO2,11,14,13
India,Haryana,Ballabgarh,"Nathu Colony, Ballabgarh - HSPCB",18-01-2024 10:00:00,28.3419248,77.319699,SO2,1,19,11
India,Haryana,Ballabgarh,"Nathu Colony, Ballabgarh - HSPCB",18-01-2024 10:00:00,28.3419248,77.319699,CO,34,101,46
India,Haryana,Bhiwani,"H.B. Colony, Bhiwani - HSPCB",18-01-2024 10:00:00,28.806223,76.141105,PM10,93,231,151
India,Haryana,Bhiwani,"H.B. Colony, Bhiwani - HSPCB",18-01-2024 10:00:00,28.806223,76.141105,SO2,8,40,12
India,Haryana,Bhiwani,"H.B. Colony, Bhiwani - HSPCB",18-01-2024 10:00:00,28.806223,76.141105,CO,41,82,71
India,Haryana,Charkhi Dadri,"Mini Secretariat, Charkhi Dadri - HSPCB",18-01-2024 10:00:00,28.593883,76.270653,NO2,9,20,12
India,Haryana,Faridabad,"Sector 30, Faridabad - HSPCB",18-01-2024 10:00:00,28.4417,77.3217,NO2,30,33,31
India,Haryana,Faridabad,"Sector 30, Faridabad - HSPCB",18-01-2024 10:00:00,28.4417,77.3217,OZONE,3,22,4
India,Haryana,Gurugram,"Sector-51, Gurugram - HSPCB",18-01-2024 10:00:00,28.4227,77.0667,NO2,13,74,30
India,Haryana,Gurugram,"Sector-51, Gurugram - HSPCB",18-01-2024 10:00:00,28.4227,77.0667,NH3,7,14,10
India,Haryana,Gurugram,"Sector-51, Gurugram - HSPCB",18-01-2024 10:00:00,28.4227,77.0667,SO2,2,103,8
India,Haryana,Gurugram,"Teri Gram, Gurugram - HSPCB",18-01-2024 10:00:00,28.4275,77.1465,PM10,90,305,184
India,Haryana,Gurugram,"Teri Gram, Gurugram - HSPCB",18-01-2024 10:00:00,28.4275,77.1465,NO2,13,41,28
India,Haryana,Gurugram,"Vikas Sadan, Gurugram - HSPCB",18-01-2024 10:00:00,28.4501238,77.0263051,SO2,21,32,28
India,Haryana,Hisar,"Urban Estate-II, Hisar - HSPCB",18-01-2024 10:00:00,29.140560,75.744941,PM2.5,68,322,209
India,Haryana,Jind,"Police Lines, Jind - HSPCB",18-01-2024 10:00:00,29.307814,76.337619,SO2,6,110,12
India,Haryana,Kaithal,"Rishi Nagar, Kaithal - HSPCB",18-01-2024 10:00:00,29.8006,76.4155,PM2.5,NA,NA,NA
India,Haryana,Kaithal,"Rishi Nagar, Kaithal - HSPCB",18-01-2024 10:00:00,29.8006,76.4155,PM10,NA,NA,NA
India,Haryana,Karnal,"Sector-12, Karnal - HSPCB",18-01-2024 10:00:00,29.695300,77.002700,NH3,10,13,11
India,Haryana,Karnal,"Sector-12, Karnal - HSPCB",18-01-2024 10:00:00,29.695300,77.002700,CO,55,127,78
India,Haryana,Kurukshetra,"Sector-7, Kurukshetra - HSPCB",18-01-2024 10:00:00,29.966942,76.875879,PM10,85,336,146
India,Haryana,Kurukshetra,"Sector-7, Kurukshetra - HSPCB",18-01-2024 10:00:00,29.966942,76.875879,NO2,10,12,10
India,Haryana,Kurukshetra,"Sector-7, Kurukshetra - HSPCB",18-01-2024 10:00:00,29.966942,76.875879,OZONE,1,51,2
India,Haryana,Mandikhera,"General Hospital, Mandikhera - HSPCB",18-01-2024 10:00:00,27.9002,76.9938,NH3,17,21,20
India,Haryana,Manesar,"Sector-2 IMT, Manesar - HSPCB",18-01-2024 10:00:00,28.360699,76.936090,NH3,2,9,6
India,Haryana,Manesar,"Sector-2 IMT, Manesar - HSPCB",18-01-2024 10:00:00,28.360699,76.936090,CO,22,36,26
India,Haryana,Narnaul,"Shastri Nagar, Narnaul - HSPCB",18-01-2024 10:00:00,28.060249,76.113115,OZONE,16,81,77
India,Haryana,Palwal,"Shyam Nagar, Palwal - HSPCB",18-01-2024 10:00:00,28.1485564,77.3320667,PM2.5,NA,NA,NA
India,Haryana,Palwal,"Shyam Nagar, Palwal - HSPCB",18-01-2024 10:00:00,28.1485564,77.3320667,NH3,NA,NA,NA
India,Haryana,Panipat,"Sector-18, Panipat - HSPCB",18-01-2024 10:00:00,29.497973,76.993331,PM2.5,97,105,101
India,Haryana,Panipat,"Sector-18, Panipat - HSPCB",18-01-2024 10:00:00,29.497973,76.993331,NO2,28,31,30
India,Haryana,Panipat,"Sector-18, Panipat - HSPCB",18-01-2024 10:00:00,29.497973,76.993331,SO2,12,13,12
India,Haryana,Rohtak,"MD University, Rohtak - HSPCB",18-01-2024 10:00:00,28.52123,76.37138,NO2,32,40,36
India,Haryana,Sirsa,"F-Block, Sirsa - HSPCB",18-01-2024 10:00:00,29.536400,75.015800,PM2.5,89,248,188
India,Haryana,Sirsa,"F-Block, Sirsa - HSPCB",18-01-2024 10:00:00,29.536400,75.015800,OZONE,26,41,37
India,Haryana,Sonipat,"Murthal, Sonipat - HSPCB",18-01-2024 10:00:00,29.027200,77.062100,SO2,13,29,20
India,Haryana,Yamuna Nagar,"Gobind Pura, Yamuna Nagar - HSPCB",18-01-2024 10:00:00,30.1480566,77.2893471,NO2,11,29,19
India,Haryana,Yamuna Nagar,"Gobind Pura, Yamuna Nagar - HSPCB",18-01-2024 10:00:00,30.1480566,77.2893471,NH3,1,6,4
India,Himachal Pradesh,Baddi,"HIMUDA Complex Phase-1, Baddi - HPPCB",18-01-2024 10:00:00,30.943887,76.801991,NO2,24,101,55
India,Himachal Pradesh,Baddi,"HIMUDA Complex Phase-1, Baddi - HPPCB",18-01-2024 10:00:00,30.943887,76.801991,SO2,33,123,68
India,Himachal Pradesh,Baddi,"HIMUDA Complex Phase-1, Baddi - HPPCB",18-01-2024 10:00:00,30.943887,76.801991,CO,30,109,71
India,Jharkhand,Dhanbad,"Kalakusuma, Dhanbad - DMC",18-01-2024 10:00:00,23.811548,86.481238,SO2,108,112,110
India,Jharkhand,Dhanbad,"Kalakusuma, Dhanbad - DMC",18-01-2024 10:00:00,23.811548,86.481238,CO,88,104,98
India,Jharkhand,Dhanbad,"Sardar Patel Nagar, Dhanbad - JSPCB",18-01-2024 10:00:00,23.80569,86.44268,PM10,160,365,249
India,Jharkhand,Pathardih,"Mohalbani Ghat, Pathardih - DMC",18-01-2024 10:00:00,23.669880,86.411725,PM2.5,NA,NA,NA
India,Jharkhand,Pathardih,"Mohalbani Ghat, Pathardih - DMC",18-01-2024 10:00:00,23.669880,86.411725,PM10,NA,NA,NA
India,Jharkhand,Pathardih,"Mohalbani Ghat, Pathardih - DMC",18-01-2024 10:00:00,23.669880,86.411725,OZONE,15,24,16
India,Karnataka,Belgaum,"Ramteerth Nagar, Belgaum - KSPCB",18-01-2024 10:00:00,15.888653,74.541751,PM2.5,38,168,60
India,Karnataka,Belgaum,"Ramteerth Nagar, Belgaum - KSPCB",18-01-2024 10:00:00,15.888653,74.541751,SO2,8,9,8
India,Karnataka,Belgaum,"Ramteerth Nagar, Belgaum - KSPCB",18-01-2024 10:00:00,15.888653,74.541751,OZONE,19,20,19
India,Karnataka,Bengaluru,"Bapuji Nagar, Bengaluru - KSPCB",18-01-2024 10:00:00,12.951913,77.539784,OZONE,11,12,12
India,Karnataka,Bengaluru,"City Railway Station, Bengaluru - KSPCB",18-01-2024 10:00:00,12.9756843,77.5660749,PM10,46,72,58
India,Karnataka,Bengaluru,"City Railway Station, Bengaluru - KSPCB",18-01-2024 10:00:00,12.9756843,77.5660749,SO2,13,13,13
India,Karnataka,Bengaluru,"Hebbal, Bengaluru - KSPCB",18-01-2024 10:00:00,13.029152,77.585901,PM10,68,163,104
India,Karnataka,Bengaluru,"Hebbal, Bengaluru - KSPCB",18-01-2024 10:00:00,13.029152,77.585901,SO2,7,18,13
India,Karnataka,Bengaluru,"Jayanagar 5th Block, Bengaluru - KSPCB",18-01-2024 10:00:00,12.920984,77.584908,PM2.5,78,203,143
