country,state,city,station,last_update,latitude,longitude,pollutant_id,pollutant_min,pollutant_max,pollutant_avg
India,Andhra_Pradesh,Amaravati,"Secretariat, Amaravati - APPCB",24-04-2024 09:00:00,16.5150833,80.5181667,NH3,3,4,4
India,Andhra_Pradesh,Amaravati,"Secretariat, Amaravati - APPCB",24-04-2024 09:00:00,16.5150833,80.5181667,OZONE,5,35,8
India,Andhra_Pradesh,Anantapur,"Gulzarpet, Anantapur - APPCB",24-04-2024 09:00:00,14.675886,77.593027,PM2.5,24,72,45
India,Andhra_Pradesh,Anantapur,"Gulzarpet, Anantapur - APPCB",24-04-2024 09:00:00,14.675886,77.593027,NH3,NA,NA,NA
India,Andhra_Pradesh,Anantapur,"Gulzarpet, Anantapur - APPCB",24-04-2024 09:00:00,14.675886,77.593027,CO,20,50,29
India,Andhra_Pradesh,Anantapur,"Gulzarpet, Anantapur - APPCB",24-04-2024 09:00:00,14.675886,77.593027,OZONE,14,62,27
India,Andhra_Pradesh,Chittoor,"Gangineni Cheruvu, Chittoor - APPCB",24-04-2024 09:00:00,13.204880,79.097889,NH3,1,2,1
India,Andhra_Pradesh,Chittoor,"Gangineni Cheruvu, Chittoor - APPCB",24-04-2024 09:00:00,13.204880,79.097889,CO,4,24,18
India,Andhra_Pradesh,Rajamahendravaram,"Anand Kala Kshetram, Rajamahendravaram - APPCB",24-04-2024 09:00:00,16.9872867,81.7363176,PM2.5,6,61,30
India,Andhra_Pradesh,Rajamahendravaram,"Anand Kala Kshetram, Rajamahendravaram - APPCB",24-04-2024 09:00:00,16.9872867,81.7363176,NH3,3,4,4
India,Andhra_Pradesh,Rajamahendravaram,"Anand Kala Kshetram, Rajamahendravaram - APPCB",24-04-2024 09:00:00,16.9872867,81.7363176,CO,22,33,25
India,Andhra_Pradesh,Vijayawada,"HB Colony, Vijayawada - APPCB",24-04-2024 09:00:00,16.536107,80.594233,PM2.5,41,48,44
India,Andhra_Pradesh,Vijayawada,"HB Colony, Vijayawada - APPCB",24-04-2024 09:00:00,16.536107,80.594233,NO2,4,15,7
India,Andhra_Pradesh,Vijayawada,"HB Colony, Vijayawada - APPCB",24-04-2024 09:00:00,16.536107,80.594233,NH3,4,4,4
India,Andhra_Pradesh,Vijayawada,"HB Colony, Vijayawada - APPCB",24-04-2024 09:00:00,16.536107,80.594233,SO2,4,5,5
India,Andhra_Pradesh,Vijayawada,"Rajiv Gandhi Park, Vijayawada - APPCB",24-04-2024 09:00:00,16.509717,80.612222,PM2.5,32,66,46
India,Andhra_Pradesh,Vijayawada,"Rajiv Gandhi Park, Vijayawada - APPCB",24-04-2024 09:00:00,16.509717,80.612222,NO2,36,44,39
India,Andhra_Pradesh,Vijayawada,"Rajiv Gandhi Park, Vijayawada - APPCB",24-04-2024 09:00:00,16.509717,80.612222,SO2,4,9,6
India,Andhra_Pradesh,Vijayawada,"Rajiv Gandhi Park, Vijayawada - APPCB",24-04-2024 09:00:00,16.509717,80.612222,OZONE,44,51,49
India,Arunachal_Pradesh,Naharlagun,"Naharlagun, Naharlagun - APSPCB",24-04-2024 09:00:00,27.103358,93.679645,PM2.5,NA,NA,NA
India,Arunachal_Pradesh,Naharlagun,"Naharlagun, Naharlagun - APSPCB",24-04-2024 09:00:00,27.103358,93.679645,OZONE,NA,NA,NA
India,Assam,Guwahati,"IITG, Guwahati - PCBA",24-04-2024 09:00:00,26.2028636,91.70046436,PM10,61,224,132
India,Assam,Guwahati,"IITG, Guwahati - PCBA",24-04-2024 09:00:00,26.2028636,91.70046436,SO2,11,13,12
India,Assam,Guwahati,"LGBI Airport, Guwahati - PCBA",24-04-2024 09:00:00,26.10887,91.589544,NH3,2,11,6
India,Assam,Guwahati,"Pan Bazaar, Guwahati - PCBA",24-04-2024 09:00:00,26.187500,91.744194,OZONE,NA,NA,NA
India,Assam,Guwahati,"Railway Colony, Guwahati - PCBA",24-04-2024 09:00:00,26.181742,91.78063,NO2,3,4,3
India,Assam,Nagaon,"Christianpatty, Nagaon - PCBA",24-04-2024 09:00:00,26.349082,92.68449,PM10,71,138,101
India,Assam,Nalbari,"Bata Chowk, Nalbari - PCBA",24-04-2024 09:00:00,26.446912,91.439057,PM2.5,48,308,135
India,Assam,Nalbari,"Bata Chowk, Nalbari - PCBA",24-04-2024 09:00:00,26.446912,91.439057,PM10,92,493,223
India,Assam,Nalbari,"Bata Chowk, Nalbari - PCBA",24-04-2024 09:00:00,26.446912,91.439057,SO2,7,26,11
India,Assam,Nalbari,"Bata Chowk, Nalbari - PCBA",24-04-2024 09:00:00,26.446912,91.439057,OZONE,5,182,34
India,Assam,Silchar,"Tarapur, Silchar - PCBA",24-04-2024 09:00:00,24.82827,92.79525,PM10,35,70,43
India,Assam,Silchar,"Tarapur, Silchar - PCBA",24-04-2024 09:00:00,24.82827,92.79525,CO,23,37,33
India,Assam,Sivasagar,"Girls College, Sivasagar - PCBA",24-04-2024 09:00:00,26.987634,94.636574,PM10,49,95,68
India,Assam,Sivasagar,"Girls College, Sivasagar - PCBA",24-04-2024 09:00:00,26.987634,94.636574,SO2,3,14,6
India,Assam,Sivasagar,"Girls College, Sivasagar - PCBA",24-04-2024 09:00:00,26.987634,94.636574,OZONE,2,17,6
India,Bihar,Araria,"Kharahiya Basti, Araria - BSPCB",24-04-2024 09:00:00,26.146529,87.454184,PM2.5,51,95,71
India,Bihar,Araria,"Kharahiya Basti, Araria - BSPCB",24-04-2024 09:00:00,26.146529,87.454184,PM10,67,306,120
India,Bihar,Arrah,"New DM Office, Arrah - BSPCB",24-04-2024 09:00:00,25.5626095,84.663264,PM2.5,32,77,48
India,Bihar,Arrah,"New DM Office, Arrah - BSPCB",24-04-2024 09:00:00,25.5626095,84.663264,NO2,2,54,14
India,Bihar,Aurangabad,"Gurdeo Nagar, Aurangabad - BSPCB",24-04-2024 09:00:00,24.75746,84.366208,SO2,NA,NA,NA
India,Bihar,Bettiah,"Kamalnath Nagar, Bettiah - BSPCB",24-04-2024 09:00:00,26.80365,84.51954,PM2.5,67,318,146
India,Bihar,Bhagalpur,"Mayaganj, Bhagalpur - BSPCB",24-04-2024 09:00:00,25.265194,87.012947,NH3,9,10,9
India,Bihar,Bihar Sharif,"D M Colony, Bihar Sharif - BSPCB",24-04-2024 09:00:00,25.204762,85.514960,PM2.5,10,67,36
India,Bihar,Bihar Sharif,"D M Colony, Bihar Sharif - BSPCB",24-04-2024 09:00:00,25.204762,85.514960,CO,44,68,56
India,Bihar,Gaya,"Kareemganj, Gaya - BSPCB",24-04-2024 09:00:00,24.792403,84.992416,PM10,12,96,54
India,Bihar,Gaya,"Kareemganj, Gaya - BSPCB",24-04-2024 09:00:00,24.792403,84.992416,NO2,30,31,30
India,Bihar,Gaya,"Kareemganj, Gaya - BSPCB",24-04-2024 09:00:00,24.792403,84.992416,SO2,5,10,7
India,Bihar,Gaya,"SFTI Kusdihra, Gaya - BSPCB",24-04-2024 09:00:00,24.762518,84.982348,NH3,3,8,6
India,Bihar,Gaya,"SFTI Kusdihra, Gaya - BSPCB",24-04-2024 09:00:00,24.762518,84.982348,CO,17,36,28
India,Bihar,Hajipur,"Industrial Area, Hajipur - BSPCB",24-04-2024 09:00:00,25.697189,85.245900,SO2,7,8,7
India,Bihar,Katihar,"Mirchaibari, Katihar - BSPCB",24-04-2024 09:00:00,25.560083,87.553265,NO2,23,36,29
India,Bihar,Katihar,"Mirchaibari, Katihar - BSPCB",24-04-2024 09:00:00,25.560083,87.553265,OZONE,11,21,12
India,Bihar,Kishanganj,"SDM Office_Khagra, Kishanganj - BSPCB",24-04-2024 09:00:00,26.0881305,87.93840336,PM2.5,38,120,72
India,Bihar,Motihari,"Gandak Colony, Motihari - BSPCB",24-04-2024 09:00:00,26.63086,84.90051,SO2,2,12,6
India,Bihar,Motihari,"Gandak Colony, Motihari - BSPCB",24-04-2024 09:00:00,26.63086,84.90051,CO,9,50,14
India,Bihar,Munger,"Town Hall, Munger - BSPCB",24-04-2024 09:00:00,25.376776,86.471523,PM2.5,30,280,130
India,Bihar,Munger,"Town Hall, Munger - BSPCB",24-04-2024 09:00:00,25.376776,86.471523,SO2,10,25,15
India,Bihar,Munger,"Town Hall, Munger - BSPCB",24-04-2024 09:00:00,25.376776,86.471523,OZONE,27,156,29
India,Bihar,Muzaffarpur,"MIT-Daudpur Kothi, Muzaffarpur - BSPCB",24-04-2024 09:00:00,26.1403345,85.3650192,PM10,NA,NA,NA
India,Bihar,Patna,"DRM Office Danapur, Patna - BSPCB",24-04-2024 09:00:00,25.586562,85.043586,NH3,2,3,3
India,Bihar,Patna,"Govt. High School Shikarpur, Patna - BSPCB",24-04-2024 09:00:00,25.592539,85.227158,PM10,91,252,160
India,Bihar,Patna,"Rajbansi Nagar, Patna - BSPCB",24-04-2024 09:00:00,25.599486,85.113666,PM2.5,70,280,163
India,Bihar,Patna,"Rajbansi Nagar, Patna - BSPCB",24-04-2024 09:00:00,25.599486,85.113666,OZONE,3,99,37
India,Bihar,Patna,"Samanpura, Patna - BSPCB",24-04-2024 09:00:00,25.596727,85.085624,NO2,15,90,51
India,Bihar,Purnia,"Mariam Nagar, Purnia - BSPCB",24-04-2024 09:00:00,25.366336,87.117468,NH3,2,12,9
India,Bihar,Rajgir,"Dangi Tola, Rajgir - BSPCB",24-04-2024 09:00:00,25.03280,85.41948,CO,NA,NA,NA
India,Bihar,Saharsa,"Police Line, Saharsa - BSPCB",24-04-2024 09:00:00,25.892357,86.590325,PM2.5,NA,NA,NA
India,Bihar,Saharsa,"Police Line, Saharsa - BSPCB",24-04-2024 09:00:00,25.892357,86.590325,OZONE,9,49,20
India,Bihar,Siwan,"Chitragupta Nagar, Siwan - BSPCB",24-04-2024 09:00:00,26.2271665,84.3570427,OZONE,35,137,54
India,Chandigarh,Chandigarh,"Sector 22, Chandigarh - CPCC",24-04-2024 09:00:00,30.735567,76.775714,PM10,26,173,76
India,Chandigarh,Chandigarh,"Sector 22, Chandigarh - CPCC",24-04-2024 09:00:00,30.735567,76.775714,NO2,20,143,56
India,Chandigarh,Chandigarh,"Sector-25, Chandigarh - CPCC",24-04-2024 09:00:00,30.751462,76.762879,PM2.5,22,134,56
India,Chandigarh,Chandigarh,"Sector-25, Chandigarh - CPCC",24-04-2024 09:00:00,30.751462,76.762879,PM10,34,127,80
India,Chandigarh,Chandigarh,"Sector-53, Chandigarh - CPCC",24-04-2024 09:00:00,30.719859,76.738637,PM10,38,178,100
India,Chandigarh,Chandigarh,"Sector-53, Chandigarh - CPCC",24-04-2024 09:00:00,30.719859,76.738637,NH3,3,7,5
India,Chandigarh,Chandigarh,"Sector-53, Chandigarh - CPCC",24-04-2024 09:00:00,30.719859,76.738637,SO2,1,14,8
India,Chhattisgarh,Bhilai,"32Bungalows, Bhilai - CECB",24-04-2024 09:00:00,21.194815,81.314770,NO2,17,30,26
India,Chhattisgarh,Bhilai,"32Bungalows, Bhilai - CECB",24-04-2024 09:00:00,21.194815,81.314770,NH3,6,7,6
India,Chhattisgarh,Bhilai,"32Bungalows, Bhilai - CECB",24-04-2024 09:00:00,21.194815,81.314770,SO2,3,6,4
India,Chhattisgarh,Bhilai,"Civic Center, Bhilai - Bhilai Steel Plant",24-04-2024 09:00:00,21.185571,81.343175,CO,27,50,36
India,Chhattisgarh,Bilaspur,"Mangala, Bilaspur - NTPC",24-04-2024 09:00:00,22.08815,82.13737,NO2,NA,NA,NA
India,Chhattisgarh,Chhal,"Nawapara SECL Colony, Chhal - CECB",24-04-2024 09:00:00,22.118125,83.140608,OZONE,16,92,35
India,Chhattisgarh,Korba,"Rampur, Korba - CECB",24-04-2024 09:00:00,22.368195,82.746431,PM2.5,18,30,23
India,Chhattisgarh,Korba,"Rampur, Korba - CECB",24-04-2024 09:00:00,22.368195,82.746431,NO2,26,55,46
India,Chhattisgarh,Korba,"Rampur, Korba - CECB",24-04-2024 09:00:00,22.368195,82.746431,NH3,1,1,1
India,Chhattisgarh,Raipur,"AIIMS, Raipur - CECB",24-04-2024 09:00:00,21.258815,81.578979,CO,22,82,27
India,Chhattisgarh,Raipur,"AIIMS, Raipur - CECB",24-04-2024 09:00:00,21.258815,81.578979,OZONE,2,46,3
India,Chhattisgarh,Raipur,"Krishak Nagar, Raipur - CECB",24-04-2024 09:00:00,21.237755,81.705301,NO2,17,17,17
India,Chhattisgarh,Raipur,"Siltara Phase-II, Raipur - CECB",24-04-2024 09:00:00,21.371751,81.664929,OZONE,3,36,4
India,Chhattisgarh,Tumidih,"OP Jindal Industrial Park, Tumidih - CECB",24-04-2024 09:00:00,22.06631475,83.33820077,PM2.5,19,61,44
India,Chhattisgarh,Tumidih,"OP Jindal Industrial Park, Tumidih - CECB",24-04-2024 09:00:00,22.06631475,83.33820077,NH3,1,2,1
India,Chhattisgarh,Tumidih,"OP Jindal Industrial Park, Tumidih - CECB",24-04-2024 09:00:00,22.06631475,83.33820077,SO2,5,8,6
India,Delhi,Delhi,"Alipur, Delhi - DPCC",24-04-2024 09:00:00,28.815329,77.153010,PM10,56,436,217
India,Delhi,Delhi,"Alipur, Delhi - DPCC",24-04-2024 09:00:00,28.815329,77.153010,NO2,11,99,46
India,Delhi,Delhi,"Alipur, Delhi - DPCC",24-04-2024 09:00:00,28.815329,77.153010,SO2,8,83,24
India,Delhi,Delhi,"Anand Vihar, Delhi - DPCC",24-04-2024 09:00:00,28.647622,77.3158090,SO2,8,44,25
India,Delhi,Delhi,"Anand Vihar, Delhi - DPCC",24-04-2024 09:00:00,28.647622,77.3158090,CO,40,107,100
India,Delhi,Delhi,"Ashok Vihar, Delhi - DPCC",24-04-2024 09:00:00,28.695381,77.181665,PM2.5,37,237,134
India,Delhi,Delhi,"Aya Nagar, Delhi - IMD",24-04-2024 09:00:00,28.4706914,77.1099364,OZONE,1,45,6
India,Delhi,Delhi,"Chandni Chowk, Delhi - IITM",24-04-2024 09:00:00,28.656756,77.227234,SO2,14,74,36
India,Delhi,Delhi,"DTU, Delhi - CPCB",24-04-2024 09:00:00,28.7500499,77.1112615,PM2.5,98,478,232
India,Delhi,Delhi,"DTU, Delhi - CPCB",24-04-2024 09:00:00,28.7500499,77.1112615,NH3,11,15,13
India,Delhi,Delhi,"DTU, Delhi - CPCB",24-04-2024 09:00:00,28.7500499,77.1112615,OZONE,26,235,28
India,Delhi,Delhi,"Dr. Karni Singh Shooting Range, Delhi - DPCC",24-04-2024 09:00:00,28.498571,77.264840,NH3,5,7,6
India,Delhi,Delhi,"IGI Airport (T3), Delhi - IMD",24-04-2024 09:00:00,28.5627763,77.1180053,PM10,80,382,173
India,Delhi,Delhi,"IGI Airport (T3), Delhi - IMD",24-04-2024 09:00:00,28.5627763,77.1180053,CO,30,74,62
India,Delhi,Delhi,"Jahangirpuri, Delhi - DPCC",24-04-2024 09:00:00,28.732820,77.170633,NH3,12,24,17
India,Delhi,Delhi,"Jawaharlal Nehru Stadium, Delhi - DPCC",24-04-2024 09:00:00,28.580280,77.233829,PM2.5,41,261,77
India,Delhi,Delhi,"Jawaharlal Nehru Stadium, Delhi - DPCC",24-04-2024 09:00:00,28.580280,77.233829,PM10,86,495,156
India,Delhi,Delhi,"Jawaharlal Nehru Stadium, Delhi - DPCC",24-04-2024 09:00:00,28.580280,77.233829,NH3,5,10,7
India,Delhi,Delhi,"Jawaharlal Nehru Stadium, Delhi - DPCC",24-04-2024 09:00:00,28.580280,77.233829,CO,28,82,60
India,Delhi,Delhi,"Lodhi Road, Delhi - IITM",24-04-2024 09:00:00,28.588333,77.221667,NH3,NA,NA,NA
India,Delhi,Delhi,"Major Dhyan Chand National Stadium, Delhi - DPCC",24-04-2024 09:00:00,28.611281,77.237738,PM2.5,46,261,109
India,Delhi,Delhi,"Major Dhyan Chand National Stadium, Delhi - DPCC",24-04-2024 09:00:00,28.611281,77.237738,CO,24,101,62
India,Delhi,Delhi,"Mundka, Delhi - DPCC",24-04-2024 09:00:00,28.684678,77.076574,NH3,4,8,5
India,Delhi,Delhi,"Mundka, Delhi - DPCC",24-04-2024 09:00:00,28.684678,77.076574,SO2,7,45,19
India,Delhi,Delhi,"NSIT Dwarka, Delhi - CPCB",24-04-2024 09:00:00,28.60909,77.0325413,SO2,3,22,13
India,Delhi,Delhi,"Najafgarh, Delhi - DPCC",24-04-2024 09:00:00,28.570173,76.933762,PM10,25,403,164
India,Delhi,Delhi,"Narela, Delhi - DPCC",24-04-2024 09:00:00,28.822836,77.101981,NO2,12,100,46
India,Delhi,Delhi,"Narela, Delhi - DPCC",24-04-2024 09:00:00,28.822836,77.101981,CO,24,72,63
India,Delhi,Delhi,"Narela, Delhi - DPCC",24-04-2024 09:00:00,28.822836,77.101981,OZONE,4,195,13
India,Delhi,Delhi,"Nehru Nagar, Delhi - DPCC",24-04-2024 09:00:00,28.567890,77.250515,PM2.5,50,323,107
India,Delhi,Delhi,"Nehru Nagar, Delhi - DPCC",24-04-2024 09:00:00,28.567890,77.250515,CO,46,62,54
India,Delhi,Delhi,"Okhla Phase-2, Delhi - DPCC",24-04-2024 09:00:00,28.530785,77.271255,PM10,80,319,173
India,Delhi,Delhi,"Okhla Phase-2, Delhi - DPCC",24-04-2024 09:00:00,28.530785,77.271255,NH3,6,11,8
India,Delhi,Delhi,"Okhla Phase-2, Delhi - DPCC",24-04-2024 09:00:00,28.530785,77.271255,CO,46,114,79
India,Delhi,Delhi,"Patparganj, Delhi - DPCC",24-04-2024 09:00:00,28.623763,77.287209,NO2,21,96,57
India,Delhi,Delhi,"Patparganj, Delhi - DPCC",24-04-2024 09:00:00,28.623763,77.287209,SO2,3,6,4
India,Delhi,Delhi,"Punjabi Bagh, Delhi - DPCC",24-04-2024 09:00:00,28.674045,77.131023,PM2.5,30,343,163
India,Delhi,Delhi,"Pusa, Delhi - IMD",24-04-2024 09:00:00,28.636110,77.173332,OZONE,1,62,3
India,Delhi,Delhi,"R K Puram, Delhi - DPCC",24-04-2024 09:00:00,28.563262,77.186937,PM10,45,257,147
India,Delhi,Delhi,"R K Puram, Delhi - DPCC",24-04-2024 09:00:00,28.563262,77.186937,CO,1,103,67
India,Delhi,Delhi,"R K Puram, Delhi - DPCC",24-04-2024 09:00:00,28.563262,77.186937,OZONE,12,266,16
India,Delhi,Delhi,"Rohini, Delhi - DPCC",24-04-2024 09:00:00,28.732528,77.119920,NH3,7,14,9
India,Delhi,Delhi,"Rohini, Delhi - DPCC",24-04-2024 09:00:00,28.732528,77.119920,SO2,6,50,18
India,Delhi,Delhi,"Shadipur, Delhi - CPCB",24-04-2024 09:00:00,28.6514781,77.1473105,SO2,10,36,19
India,Delhi,Delhi,"Sirifort, Delhi - CPCB",24-04-2024 09:00:00,28.5504249,77.2159377,PM10,94,500,196
India,Delhi,Delhi,"Sri Aurobindo Marg, Delhi - DPCC",24-04-2024 09:00:00,28.531346,77.190156,PM10,79,500,154
India,Delhi,Delhi,"Vivek Vihar, Delhi - DPCC",24-04-2024 09:00:00,28.672342,77.315260,NO2,31,110,71
India,Delhi,Delhi,"Vivek Vihar, Delhi - DPCC",24-04-2024 09:00:00,28.672342,77.315260,NH3,15,16,15
India,Delhi,Delhi,"Wazirpur, Delhi - DPCC",24-04-2024 09:00:00,28.699793,77.165453,PM2.5,38,308,161
India,Gujarat,Ahmedabad,"Chandkheda, Ahmedabad - IITM",24-04-2024 09:00:00,23.107969,72.574648,NO2,57,178,118
India,Gujarat,Ahmedabad,"Chandkheda, Ahmedabad - IITM",24-04-2024 09:00:00,23.107969,72.574648,SO2,2,28,10
India,Gujarat,Ahmedabad,"Chandkheda, Ahmedabad - IITM",24-04-2024 09:00:00,23.107969,72.574648,CO,4,91,65
India,Gujarat,Ahmedabad,"Gyaspur, Ahmedabad - IITM",24-04-2024 09:00:00,22.977134,72.553024,NH3,2,3,2
India,Gujarat,Ahmedabad,"Raikhad, Ahmedabad - IITM",24-04-2024 09:00:00,23.020509,72.579261,PM2.5,54,362,120
India,Gujarat,Ahmedabad,"Raikhad, Ahmedabad - IITM",24-04-2024 09:00:00,23.020509,72.579261,CO,4,119,22
India,Gujarat,Ahmedabad,"Rakhial, Ahmedabad - IITM",24-04-2024 09:00:00,23.016834,72.625775,NH3,3,7,5
India,Gujarat,Ahmedabad,"SAC ISRO Satellite, Ahmedabad - IITM",24-04-2024 09:00:00,23.023389,72.515201,NH3,3,4,3
India,Gujarat,Ahmedabad,"SAC ISRO Satellite, Ahmedabad - IITM",24-04-2024 09:00:00,23.023389,72.515201,SO2,3,12,5
India,Gujarat,Ahmedabad,"SAC ISRO Satellite, Ahmedabad - IITM",24-04-2024 09:00:00,23.023389,72.515201,CO,26,28,26
India,Gujarat,Ahmedabad,"SAC ISRO Satellite, Ahmedabad - IITM",24-04-2024 09:00:00,23.023389,72.515201,OZONE,14,21,16
India,Gujarat,Ahmedabad,"SVPI Airport Hansol, Ahmedabad - IITM",24-04-2024 09:00:00,23.076793,72.627874,NH3,5,6,6
India,Gujarat,Ahmedabad,"SVPI Airport Hansol, Ahmedabad - IITM",24-04-2024 09:00:00,23.076793,72.627874,SO2,2,18,6
India,Gujarat,Ahmedabad,"SVPI Airport Hansol, Ahmedabad - IITM",24-04-2024 09:00:00,23.076793,72.627874,OZONE,7,36,14
India,Gujarat,Ankleshwar,"GIDC, Ankleshwar - GPCB",24-04-2024 09:00:00,21.613267,73.010555,CO,29,76,70
India,Gujarat,Gandhinagar,"Sector-10, Gandhinagar - GPCB",24-04-2024 09:00:00,23.221714,72.654328,NH3,1,1,1
India,Gujarat,Nandesari,"GIDC, Nandesari - Nandesari Ind. Association",24-04-2024 09:00:00,22.410802,73.097923,PM10,101,288,172
India,Gujarat,Vapi,"Phase-1 GIDC, Vapi - GPCB",24-04-2024 09:00:00,20.362421,72.918013,PM2.5,29,121,54
India,Gujarat,Vapi,"Phase-1 GIDC, Vapi - GPCB",24-04-2024 09:00:00,20.362421,72.918013,OZONE,8,14,13
India,Gujarat,Vatva,"Phase-4 GIDC, Vatva - GPCB",24-04-2024 09:00:00,22.969611,72.643500,PM10,56,263,114
India,Haryana,Bahadurgarh,"Arya Nagar, Bahadurgarh - HSPCB",24-04-2024 09:00:00,28.6701,76.9254,OZONE,32,41,36
India,Haryana,Ballabgarh,"Nathu Colony, Ballabgarh - HSPCB",24-04-2024 09:00:00,28.3419248,77.319699,PM2.5,99,348,188
India,Haryana,Ballabgarh,"Nathu Colony, Ballabgarh - HSPCB",24-04-2024 09:00:00,28.3419248,77.319699,CO,11,105,49
India,Haryana,Bhiwani,"H.B. Colony, Bhiwani - HSPCB",24-04-2024 09:00:00,28.806223,76.141105,OZONE,7,55,15
India,Haryana,Dharuhera,"Municipal Corporation Office, Dharuhera -  HSPCB",24-04-2024 09:00:00,28.206800,76.799700,CO,12,38,26
India,Haryana,Faridabad,"New Industrial Town, Faridabad - HSPCB",24-04-2024 09:00:00,28.39072,77.30059,NO2,NA,NA,NA
India,Haryana,Faridabad,"Sector 30, Faridabad - HSPCB",24-04-2024 09:00:00,28.4417,77.3217,PM10,NA,NA,NA
India,Haryana,Gurugram,"Sector-51, Gurugram - HSPCB",24-04-2024 09:00:00,28.4227,77.0667,PM10,105,197,151
India,Haryana,Gurugram,"Sector-51, Gurugram - HSPCB",24-04-2024 09:00:00,28.4227,77.0667,SO2,3,4,3
India,Haryana,Gurugram,"Teri Gram, Gurugram - HSPCB",24-04-2024 09:00:00,28.4275,77.1465,SO2,4,7,6
India,Haryana,Jind,"Police Lines, Jind - HSPCB",24-04-2024 09:00:00,29.307814,76.337619,OZONE,NA,NA,NA
India,Haryana,Kaithal,"Rishi Nagar, Kaithal - HSPCB",24-04-2024 09:00:00,29.8006,76.4155,PM10,55,159,107
India,Haryana,Karnal,"Sector-12, Karnal - HSPCB",24-04-2024 09:00:00,29.695300,77.002700,PM2.5,75,146,104
India,Haryana,Karnal,"Sector-12, Karnal - HSPCB",24-04-2024 09:00:00,29.695300,77.002700,NO2,7,12,10
India,Haryana,Karnal,"Sector-12, Karnal - HSPCB",24-04-2024 09:00:00,29.695300,77.002700,OZONE,27,37,27
India,Haryana,Kurukshetra,"Sector-7, Kurukshetra - HSPCB",24-04-2024 09:00:00,29.966942,76.875879,OZONE,4,63,13
India,Haryana,Mandikhera,"General Hospital, Mandikhera - HSPCB",24-04-2024 09:00:00,27.9002,76.9938,PM10,44,343,91
India,Haryana,Mandikhera,"General Hospital, Mandikhera - HSPCB",24-04-2024 09:00:00,27.9002,76.9938,SO2,29,42,34
India,Haryana,Mandikhera,"General Hospital, Mandikhera - HSPCB",24-04-2024 09:00:00,27.9002,76.9938,CO,10,22,18
India,Haryana,Manesar,"Sector-2 IMT, Manesar - HSPCB",24-04-2024 09:00:00,28.360699,76.936090,PM2.5,44,177,100
India,Haryana,Palwal,"Shyam Nagar, Palwal - HSPCB",24-04-2024 09:00:00,28.1485564,77.3320667,PM2.5,33,99,69
India,Haryana,Panchkula,"Sector-6, Panchkula - HSPCB ",24-04-2024 09:00:00,30.7057778,76.8531805555555,PM2.5,28,123,68
India,Haryana,Rohtak,"MD University, Rohtak - HSPCB",24-04-2024 09:00:00,28.52123,76.37138,NO2,48,56,52
India,Haryana,Sirsa,"F-Block, Sirsa - HSPCB",24-04-2024 09:00:00,29.536400,75.015800,SO2,5,13,9
India,Haryana,Yamuna Nagar,"Gobind Pura, Yamuna Nagar - HSPCB",24-04-2024 09:00:00,30.1480566,77.2893471,NH3,1,6,4
India,Haryana,Yamuna Nagar,"Gobind Pura, Yamuna Nagar - HSPCB",24-04-2024 09:00:00,30.1480566,77.2893471,OZONE,16,36,18
India,Himachal Pradesh,Baddi,"HIMUDA Complex Phase-1, Baddi - HPPCB",24-04-2024 09:00:00,30.943887,76.801991,PM2.5,8,68,25
India,Jharkhand,Dhanbad,"Kalakusuma, Dhanbad - DMC",24-04-2024 09:00:00,23.811548,86.481238,OZONE,26,31,29
India,Jharkhand,Dhanbad,"Sardar Patel Nagar, Dhanbad - JSPCB",24-04-2024 09:00:00,23.80569,86.44268,PM10,NA,NA,NA
India,Jharkhand,Dhanbad,"Sardar Patel Nagar, Dhanbad - JSPCB",24-04-2024 09:00:00,23.80569,86.44268,SO2,NA,NA,NA
India,Jharkhand,Dhanbad,"Sardar Patel Nagar, Dhanbad - JSPCB",24-04-2024 09:00:00,23.80569,86.44268,CO,NA,NA,NA
India,Jharkhand,Pathardih,"Mohalbani Ghat, Pathardih - DMC",24-04-2024 09:00:00,23.669880,86.411725,NO2,NA,NA,NA
India,Jharkhand,Pathardih,"Mohalbani Ghat, Pathardih - DMC",24-04-2024 09:00:00,23.669880,86.411725,CO,NA,NA,NA
India,Karnataka,Bengaluru,"BTM Layout, Bengaluru - CPCB",24-04-2024 09:00:00,12.9135218,77.5950804,PM10,37,76,52
India,Karnataka,Bengaluru,"BTM Layout, Bengaluru - CPCB",24-04-2024 09:00:00,12.9135218,77.5950804,NH3,4,5,4
India,Karnataka,Bengaluru,"BTM Layout, Bengaluru - CPCB",24-04-2024 09:00:00,12.9135218,77.5950804,OZONE,14,76,24
India,Karnataka,Bengaluru,"Hebbal, Bengaluru - KSPCB",24-04-2024 09:00:00,13.029152,77.585901,OZONE,7,27,8
India,Karnataka,Bengaluru,"Hombegowda Nagar, Bengaluru - KSPCB",24-04-2024 09:00:00,12.938539,77.590100,PM10,41,98,69
India,Karnataka,Bengaluru,"Hombegowda Nagar, Bengaluru - KSPCB",24-04-2024 09:00:00,12.938539,77.590100,NO2,11,21,16
India,Karnataka,Bengaluru,"Hombegowda Nagar, Bengaluru - KSPCB",24-04-2024 09:00:00,12.938539,77.590100,NH3,1,1,1
India,Karnataka,Bengaluru,"Jayanagar 5th Block, Bengaluru - KSPCB",24-04-2024 09:00:00,12.920984,77.584908,PM2.5,30,114,63
India,Karnataka,Bengaluru,"Jayanagar 5th Block, Bengaluru - KSPCB",24-04-2024 09:00:00,12.920984,77.584908,NO2,4,8,5
India,Karnataka,Bengaluru,"Jayanagar 5th Block, Bengaluru - KSPCB",24-04-2024 09:00:00,12.920984,77.584908,CO,4,7,6
India,Karnataka,Bengaluru,"Jayanagar 5th Block, Bengaluru - KSPCB",24-04-2024 09:00:00,12.920984,77.584908,OZONE,22,22,22
India,Karnataka,Bengaluru,"Peenya, Bengaluru - CPCB",24-04-2024 09:00:00,13.0270199,77.494094,SO2,9,12,11
India,Karnataka,Bengaluru,"Peenya, Bengaluru - CPCB",24-04-2024 09:00:00,13.0270199,77.494094,CO,31,39,33
India,Karnataka,Bengaluru,"RVCE-Mailasandra, Bengaluru - KSPCB",24-04-2024 09:00:00,12.921418,77.502466,PM10,45,109,84
India,Karnataka,Bengaluru,"Shivapura_Peenya, Bengaluru - KSPCB",24-04-2024 09:00:00,13.0246342,77.5080115,PM2.5,3,93,40
India,Karnataka,Bengaluru,"Shivapura_Peenya, Bengaluru - KSPCB",24-04-2024 09:00:00,13.0246342,77.5080115,NH3,4,4,4
India,Karnataka,Bengaluru,"Shivapura_Peenya, Bengaluru - KSPCB",24-04-2024 09:00:00,13.0246342,77.5080115,CO,22,38,28
India,Karnataka,Bengaluru,"Shivapura_Peenya, Bengaluru - KSPCB",24-04-2024 09:00:00,13.0246342,77.5080115,OZONE,53,55,54
India,Karnataka,Bengaluru,"Silk Board, Bengaluru - KSPCB",24-04-2024 09:00:00,12.917348,77.622813,NH3,NA,NA,NA
India,Karnataka,Bengaluru,"Silk Board, Bengaluru - KSPCB",24-04-2024 09:00:00,12.917348,77.622813,SO2,5,16,8
India,Karnataka,Chamarajanagar,"Urban, Chamarajanagar - KSPCB",24-04-2024 09:00:00,11.55358,76.55521,CO,12,121,35
India,Karnataka,Chikkaballapur,"Chikkaballapur Rural, Chikkaballapur - KSPCB",24-04-2024 09:00:00,13.428828,77.731418,OZONE,25,26,26
India,Karnataka,Chikkamagaluru,"Kalyana Nagara, Chikkamagaluru - KSPCB",24-04-2024 09:00:00,13.328028,75.797056,OZONE,15,63,17
India,Karnataka,Dharwad,"Kalabhavan, Dharwad - KSPCB",24-04-2024 09:00:00,15.459706,75.008381,PM10,61,122,91
India,Karnataka,Dharwad,"Kalabhavan, Dharwad - KSPCB",24-04-2024 09:00:00,15.459706,75.008381,SO2,1,5,3
India,Karnataka,Haveri,"Ashwini Nagar, Haveri - KSPCB",24-04-2024 09:00:00,14.791800,75.389600,NO2,26,34,32
India,Karnataka,Haveri,"Ashwini Nagar, Haveri - KSPCB",24-04-2024 09:00:00,14.791800,75.389600,NH3,3,3,3
India,Karnataka,Hubballi,"Lingaraj Nagar, Hubballi - KSPCB",24-04-2024 09:00:00,15.3714823,75.1160168,PM10,46,66,53
India,Karnataka,Kalaburagi,"Lal Bahadur Shastri Nagar, Kalaburagi - KSPCB",24-04-2024 09:00:00,17.321993,76.822628,SO2,18,21,20
India,Karnataka,Kalaburagi,"Mahatma Basaveswar Colony, Kalaburgi - KSPCB",24-04-2024 09:00:00,17.336318,76.847397,NO2,10,15,12
India,Karnataka,Kalaburagi,"Mahatma Basaveswar Colony, Kalaburgi - KSPCB",24-04-2024 09:00:00,17.336318,76.847397,OZONE,2,37,20
India,Karnataka,Karwar,"KHB Colony, Karwar - KSPCB",24-04-2024 09:00:00,14.816666,74.141003,PM2.5,NA,NA,NA
India,Karnataka,Kolar,"Tamaka Ind. Area, Kolar - KSPCB",24-04-2024 09:00:00,13.1276288,78.1570122,PM2.5,NA,NA,NA
India,Karnataka,Kolar,"Tamaka Ind. Area, Kolar - KSPCB",24-04-2024 09:00:00,13.1276288,78.1570122,PM10,NA,NA,NA
India,Karnataka,Kolar,"Tamaka Ind. Area, Kolar - KSPCB",24-04-2024 09:00:00,13.1276288,78.1570122,CO,6,6,6
India,Karnataka,Koppal,"Diwator Nagar, Koppal - KSPCB",24-04-2024 09:00:00,15.347630,76.181767,SO2,27,28,28
India,Karnataka,Madikeri,"Stuart Hill, Madikeri - KSPCB",24-04-2024 09:00:00,12.415911,75.735050,CO,4,156,24
India,Karnataka,Madikeri,"Stuart Hill, Madikeri - KSPCB",24-04-2024 09:00:00,12.415911,75.735050,OZONE,21,52,25
India,Karnataka,Mangalore,"Kadri, Mangalore - KSPCB",24-04-2024 09:00:00,12.889250,74.853000,PM2.5,21,64,42
India,Karnataka,Mangalore,"Kadri, Mangalore - KSPCB",24-04-2024 09:00:00,12.889250,74.853000,SO2,17,18,18
India,Karnataka,Raichur,"Haji Colony, Raichur - KSPCB",24-04-2024 09:00:00,16.208139,77.348417,NO2,NA,NA,NA
India,Karnataka,Raichur,"Haji Colony, Raichur - KSPCB",24-04-2024 09:00:00,16.208139,77.348417,SO2,NA,NA,NA
India,Karnataka,Ramanagara,"Vijay Nagar, Ramanagara - KSPCB",24-04-2024 09:00:00,12.733409,77.298051,NH3,1,2,1
India,Karnataka,Shivamogga,"Vinoba Nagara, Shivamogga - KSPCB",24-04-2024 09:00:00,13.940000,75.555917,SO2,2,11,6
India,Karnataka,Tumakuru,"Thimmalapura, Tumakuru - KSPCB",24-04-2024 09:00:00,13.377516,77.099072,PM10,NA,NA,NA
India,Karnataka,Tumakuru,"Thimmalapura, Tumakuru - KSPCB",24-04-2024 09:00:00,13.377516,77.099072,OZONE,18,49,27
India,Karnataka,Vijayapura,"Ibrahimpur, Vijayapura - KSPCB",24-04-2024 09:00:00,16.802639,75.722694,SO2,NA,NA,NA
India,Karnataka,Yadgir,"Collector Office, Yadgir - KSPCB",24-04-2024 09:00:00,16.7602,77.1428,SO2,4,105,22
India,Karnataka,Yadgir,"Collector Office, Yadgir - KSPCB",24-04-2024 09:00:00,16.7602,77.1428,CO,12,23,16
India,Kerala,Eloor,"Udyogamandal, Eloor - Kerala PCB",24-04-2024 09:00:00,10.073232,76.302765,NH3,1,1,1
India,Kerala,Eloor,"Udyogamandal, Eloor - Kerala PCB",24-04-2024 09:00:00,10.073232,76.302765,CO,8,100,18
India,Kerala,Kollam,"Polayathode, Kollam - Kerala PCB",24-04-2024 09:00:00,8.8787,76.6073,PM2.5,71,195,120
India,Kerala,Kollam,"Polayathode, Kollam - Kerala PCB",24-04-2024 09:00:00,8.8787,76.6073,PM10,65,107,86
India,Kerala,Thiruvananthapuram,"Kariavattom, Thiruvananthapuram - Kerala PCB",24-04-2024 09:00:00,8.563700,76.886500,PM10,82,94,86
India,Kerala,Thiruvananthapuram,"Kariavattom, Thiruvananthapuram - Kerala PCB",24-04-2024 09:00:00,8.563700,76.886500,SO2,1,14,7
India,Kerala,Thiruvananthapuram,"Plammoodu, Thiruvananthapuram - Kerala PCB",24-04-2024 09:00:00,8.5149093,76.9435879,PM10,29,64,41
India,Kerala,Thiruvananthapuram,"Plammoodu, Thiruvananthapuram - Kerala PCB",24-04-2024 09:00:00,8.5149093,76.9435879,NH3,1,5,1
India,Kerala,Thrissur,"Corporation Ground, Thrissur - Kerala PCB",24-04-2024 09:00:00,10.532400,76.215900,NH3,NA,NA,NA
India,Kerala,Thrissur,"Corporation Ground, Thrissur - Kerala PCB",24-04-2024 09:00:00,10.532400,76.215900,SO2,NA,NA,NA
India,Madhya Pradesh,Bhopal,"Idgah Hills, Bhopal - MPPCB",24-04-2024 09:00:00,23.264759,77.381568,SO2,14,23,17
India,Madhya Pradesh,Bhopal,"Idgah Hills, Bhopal - MPPCB",24-04-2024 09:00:00,23.264759,77.381568,OZONE,11,86,44
India,Madhya Pradesh,Bhopal,"Paryavaran Parisar, Bhopal - MPPCB",24-04-2024 09:00:00,23.210494,77.425409,OZONE,7,85,28
India,Madhya Pradesh,Bhopal,"T T Nagar, Bhopal - MPPCB",24-04-2024 09:00:00,23.233584,77.400574,SO2,13,28,21
India,Madhya Pradesh,Dewas,"Bhopal Chauraha, Dewas - MPPCB",24-04-2024 09:00:00,22.9682591,76.064118,PM10,25,121,56
India,Madhya Pradesh,Dewas,"Bhopal Chauraha, Dewas - MPPCB",24-04-2024 09:00:00,22.9682591,76.064118,NH3,3,3,3
India,Madhya Pradesh,Gwalior,"City Center, Gwalior - MPPCB",24-04-2024 09:00:00,26.203442,78.193251,PM2.5,19,202,65
India,Madhya Pradesh,Gwalior,"City Center, Gwalior - MPPCB",24-04-2024 09:00:00,26.203442,78.193251,PM10,63,219,109
India,Madhya Pradesh,Gwalior,"City Center, Gwalior - MPPCB",24-04-2024 09:00:00,26.203442,78.193251,NH3,1,7,4
India,Madhya Pradesh,Gwalior,"Deen Dayal Nagar, Gwalior - MPPCB",24-04-2024 09:00:00,26.259242,78.216432,SO2,8,25,14
India,Madhya Pradesh,Gwalior,"Deen Dayal Nagar, Gwalior - MPPCB",24-04-2024 09:00:00,26.259242,78.216432,OZONE,47,192,107
India,Madhya Pradesh,Gwalior,"Maharaj Bada, Gwalior - MPPCB",24-04-2024 09:00:00,26.200388,78.147714,NH3,2,22,5
India,Madhya Pradesh,Gwalior,"Maharaj Bada, Gwalior - MPPCB",24-04-2024 09:00:00,26.200388,78.147714,OZONE,30,158,80
India,Madhya Pradesh,Gwalior,"Phool Bagh, Gwalior - Mondelez Ind. Food",24-04-2024 09:00:00,26.210536,78.171,CO,40,59,42
India,Madhya Pradesh,Indore,"Chhoti Gwaltoli, Indore - MPPCB",24-04-2024 09:00:00,22.4310,75.5213,OZONE,23,92,54
India,Madhya Pradesh,Indore,"Regional Park, Indore - IMC",24-04-2024 09:00:00,22.6780,75.8559,PM10,19,69,39
India,Madhya Pradesh,Indore,"Residency Area, Indore - IMC",24-04-2024 09:00:00,22.7084,75.8815,NO2,33,55,43
India,Madhya Pradesh,Indore,"Residency Area, Indore - IMC",24-04-2024 09:00:00,22.7084,75.8815,CO,13,16,15
India,Madhya Pradesh,Indore,"Residency Area, Indore - IMC",24-04-2024 09:00:00,22.7084,75.8815,OZONE,10,19,11
India,Madhya Pradesh,Jabalpur,"Govindh Bhavan Colony, Jabalpur - JMC",24-04-2024 09:00:00,23.163174,79.973061,SO2,5,73,33
India,Madhya Pradesh,Jabalpur,"Gupteshwar, Jabalpur - JMC",24-04-2024 09:00:00,23.142888,79.916147,CO,NA,NA,NA
India,Madhya Pradesh,Jabalpur,"Gupteshwar, Jabalpur - JMC",24-04-2024 09:00:00,23.142888,79.916147,OZONE,NA,NA,NA
India,Madhya Pradesh,Jabalpur,"Marhatal, Jabalpur - MPPCB",24-04-2024 09:00:00,23.168606,79.932247,PM10,22,117,49
India,Madhya Pradesh,Jabalpur,"Marhatal, Jabalpur - MPPCB",24-04-2024 09:00:00,23.168606,79.932247,NH3,3,5,4
India,Madhya Pradesh,Jabalpur,"Marhatal, Jabalpur - MPPCB",24-04-2024 09:00:00,23.168606,79.932247,SO2,9,16,12
India,Madhya Pradesh,Jabalpur,"Marhatal, Jabalpur - MPPCB",24-04-2024 09:00:00,23.168606,79.932247,OZONE,61,91,65
India,Madhya Pradesh,Jabalpur,"Suhagi, Jabalpur - JMC",24-04-2024 09:00:00,23.218135,79.957770,NO2,39,44,42
India,Madhya Pradesh,Jabalpur,"Suhagi, Jabalpur - JMC",24-04-2024 09:00:00,23.218135,79.957770,CO,32,72,37
India,Madhya Pradesh,Jabalpur,"Suhagi, Jabalpur - JMC",24-04-2024 09:00:00,23.218135,79.957770,OZONE,14,169,81
India,Madhya Pradesh,Katni,"Gole Bazar, Katni - MPPCB",24-04-2024 09:00:00,23.50016,80.23284,PM10,51,150,83
India,Madhya Pradesh,Katni,"Gole Bazar, Katni - MPPCB",24-04-2024 09:00:00,23.50016,80.23284,NH3,2,8,5
India,Madhya Pradesh,Katni,"Gole Bazar, Katni - MPPCB",24-04-2024 09:00:00,23.50016,80.23284,OZONE,38,89,47
India,Madhya Pradesh,Maihar,"Sahilara, Maihar - KJS Cements",24-04-2024 09:00:00,24.2613009,80.7231783,PM2.5,10,56,30
India,Madhya Pradesh,Maihar,"Sahilara, Maihar - KJS Cements",24-04-2024 09:00:00,24.2613009,80.7231783,PM10,13,89,43
India,Madhya Pradesh,Maihar,"Sahilara, Maihar - KJS Cements",24-04-2024 09:00:00,24.2613009,80.7231783,NO2,19,22,21
India,Madhya Pradesh,Mandideep,"Sector-D Industrial Area, Mandideep - MPPCB",24-04-2024 09:00:00,23.108440,77.511428,PM10,52,207,95
India,Madhya Pradesh,Pithampur,"Sector-2 Industrial Area, Pithampur - MPPCB",24-04-2024 09:00:00,22.624758,75.675238,PM2.5,12,106,43
India,Madhya Pradesh,Pithampur,"Sector-2 Industrial Area, Pithampur - MPPCB",24-04-2024 09:00:00,22.624758,75.675238,NO2,6,20,12
India,Madhya Pradesh,Pithampur,"Sector-2 Industrial Area, Pithampur - MPPCB",24-04-2024 09:00:00,22.624758,75.675238,OZONE,20,60,27
India,Madhya Pradesh,Ratlam,"Shasthri Nagar, Ratlam - IPCA Lab",24-04-2024 09:00:00,23.331731,75.045981,PM10,36,233,126
India,Madhya Pradesh,Sagar,"Civil Lines, Sagar - MPPCB",24-04-2024 09:00:00,23.838586,78.759431,NH3,4,6,5
India,Madhya Pradesh,Singrauli,"Suryakiran Bhawan NCL, Singrauli - MPPCB",24-04-2024 09:00:00,24.108970,82.645580,SO2,40,57,46
India,Madhya Pradesh,Ujjain,"Mahakaleshwar Temple, Ujjain - MPPCB",24-04-2024 09:00:00,23.182719 ,75.768218 ,CO,14,57,35
India,Madhya Pradesh,Ujjain,"Mahakaleshwar Temple, Ujjain - MPPCB",24-04-2024 09:00:00,23.182719 ,75.768218 ,OZONE,112,154,128
India,Maharashtra,Ahmednagar,"Tarakpur, Ahmednagar - MPCB",24-04-2024 09:00:00,19.10122,74.73339,NO2,21,123,46
India,Maharashtra,Ahmednagar,"Tarakpur, Ahmednagar - MPCB",24-04-2024 09:00:00,19.10122,74.73339,OZONE,22,144,60
India,Maharashtra,Amravati,"Shivneri Colony, Amravati - MPCB",24-04-2024 09:00:00,20.9402359,77.7895248,PM2.5,32,64,45
India,Maharashtra,Amravati,"Shivneri Colony, Amravati - MPCB",24-04-2024 09:00:00,20.9402359,77.7895248,SO2,1,31,3
India,Maharashtra,Amravati,"Shri Shivaji Science College, Amaravati - MPCB",24-04-2024 09:00:00,20.939198,77.765701,CO,6,56,11
India,Maharashtra,Aurangabad,"MIDC Chilkalthana, Aurangabad - MPCB",24-04-2024 09:00:00,19.875620,75.387310,PM2.5,NA,NA,NA
India,Maharashtra,Aurangabad,"More Chowk Waluj, Aurangabad - MPCB",24-04-2024 09:00:00,19.8389439,75.244448,NO2,40,45,42
India,Maharashtra,Badlapur,"Katrap, Badlapur - MPCB",24-04-2024 09:00:00,19.16485,73.23409,NH3,2,4,3
India,Maharashtra,Belapur,"CBD Belapur, Belapur - MPCB",24-04-2024 09:00:00,19.0243902,73.0406721,PM2.5,36,105,73
India,Maharashtra,Belapur,"CBD Belapur, Belapur - MPCB",24-04-2024 09:00:00,19.0243902,73.0406721,SO2,2,10,4
India,Maharashtra,Bhiwandi,"Gokul Nagar, Bhiwandi - MPCB",24-04-2024 09:00:00,19.309073,73.057223,PM10,83,127,97
India,Maharashtra,Bhiwandi,"Gokul Nagar, Bhiwandi - MPCB",24-04-2024 09:00:00,19.309073,73.057223,NO2,13,70,26
India,Maharashtra,Bhiwandi,"Gokul Nagar, Bhiwandi - MPCB",24-04-2024 09:00:00,19.309073,73.057223,OZONE,17,85,32
India,Maharashtra,Boisar,"Khaira, Boisar - MPCB",24-04-2024 09:00:00,19.786089,72.757971,PM10,75,125,104
India,Maharashtra,Boisar,"Khaira, Boisar - MPCB",24-04-2024 09:00:00,19.786089,72.757971,SO2,1,75,40
India,Maharashtra,Chandrapur,"MIDC Khutala, Chandrapur - MPCB",24-04-2024 09:00:00,19.9775302,79.2337086,PM10,NA,NA,NA
India,Maharashtra,Chandrapur,"MIDC Khutala, Chandrapur - MPCB",24-04-2024 09:00:00,19.9775302,79.2337086,OZONE,3,69,43
India,Maharashtra,Dhule,"Deopur, Dhule - MPCB",24-04-2024 09:00:00,20.918946,74.776388,CO,16,30,21
India,Maharashtra,Dhule,"Deopur, Dhule - MPCB",24-04-2024 09:00:00,20.918946,74.776388,OZONE,20,99,28
India,Maharashtra,Jalgaon,"Prabhat Colony, Jalgaon - MPCB",24-04-2024 09:00:00,21.001264,75.565602,CO,12,42,14
India,Maharashtra,Jalna,"Old MIDC, Jalna - MPCB",24-04-2024 09:00:00,19.854616,75.905894,PM2.5,20,89,47
India,Maharashtra,Kalyan,"Khadakpada, Kalyan - MPCB",24-04-2024 09:00:00,19.25292,73.142019,PM10,102,168,123
India,Maharashtra,Kalyan,"Khadakpada, Kalyan - MPCB",24-04-2024 09:00:00,19.25292,73.142019,NH3,1,1,1
India,Maharashtra,Kalyan,"Khadakpada, Kalyan - MPCB",24-04-2024 09:00:00,19.25292,73.142019,SO2,25,37,29
India,Maharashtra,Kolhapur,"Shivaji University, Kolhapur - MPCB",24-04-2024 09:00:00,16.6870449,74.2505872,PM10,100,136,117
India,Maharashtra,Kolhapur,"Shivaji University, Kolhapur - MPCB",24-04-2024 09:00:00,16.6870449,74.2505872,NH3,4,7,5
India,Maharashtra,Kolhapur,"Shivaji University, Kolhapur - MPCB",24-04-2024 09:00:00,16.6870449,74.2505872,OZONE,23,160,39
India,Maharashtra,Kolhapur,"Sinchan Bhavan, Kolhapur - MPCB",24-04-2024 09:00:00,16.7143745,74.2426398,NH3,7,8,7
India,Maharashtra,Latur,"Sawe Wadi, Latur - MPCB",24-04-2024 09:00:00,18.39963,76.57452,NO2,5,197,34
India,Maharashtra,Latur,"Sawe Wadi, Latur - MPCB",24-04-2024 09:00:00,18.39963,76.57452,NH3,3,7,5
India,Maharashtra,Mahad,"Kamble Tarf Birwadi, Mahad - MPCB",24-04-2024 09:00:00,18.1023399,73.4783687,PM10,63,103,81
India,Maharashtra,Malegaon,"Mahesh Nagar, Malegaon - MPCB",24-04-2024 09:00:00,20.555712,74.529236,PM2.5,38,147,95
India,Maharashtra,Malegaon,"Mahesh Nagar, Malegaon - MPCB",24-04-2024 09:00:00,20.555712,74.529236,PM10,29,147,98
India,Maharashtra,Malegaon,"Mahesh Nagar, Malegaon - MPCB",24-04-2024 09:00:00,20.555712,74.529236,NH3,2,7,4
India,Maharashtra,Mira-Bhayandar,"Bhayandar West, Mira-Bhayandar - MPCB",24-04-2024 09:00:00,19.296481,72.840923,NO2,6,32,13
India,Maharashtra,Mira-Bhayandar,"Bhayandar West, Mira-Bhayandar - MPCB",24-04-2024 09:00:00,19.296481,72.840923,SO2,2,7,4
India,Maharashtra,Mumbai,"Bandra Kurla Complex, Mumbai - MPCB",24-04-2024 09:00:00,19.065931,72.862131,NO2,3,10,6
India,Maharashtra,Mumbai,"Borivali East, Mumbai - IITM",24-04-2024 09:00:00,19.23241,72.86895,OZONE,37,101,49
India,Maharashtra,Mumbai,"Borivali East, Mumbai - MPCB",24-04-2024 09:00:00,19.2243333,72.8658113,PM2.5,17,95,38
India,Maharashtra,Mumbai,"Borivali East, Mumbai - MPCB",24-04-2024 09:00:00,19.2243333,72.8658113,NH3,1,2,2
India,Maharashtra,Mumbai,"Byculla, Mumbai - BMC",24-04-2024 09:00:00,18.9767,72.8380,NO2,9,14,10
India,Maharashtra,Mumbai,"Chakala-Andheri East, Mumbai - IITM",24-04-2024 09:00:00,19.11074,72.86084,SO2,14,47,27
India,Maharashtra,Mumbai,"Chakala-Andheri East, Mumbai - IITM",24-04-2024 09:00:00,19.11074,72.86084,OZONE,17,48,33
India,Maharashtra,Mumbai,"Chembur, Mumbai - MPCB",24-04-2024 09:00:00,19.0364585,72.8954371,NO2,17,84,37
India,Maharashtra,Mumbai,"Chembur, Mumbai - MPCB",24-04-2024 09:00:00,19.0364585,72.8954371,SO2,1,2,1
India,Maharashtra,Mumbai,"Chhatrapati Shivaji Intl. Airport (T2), Mumbai - MPCB",24-04-2024 09:00:00,19.10078,72.87462,PM2.5,45,80,60
India,Maharashtra,Mumbai,"Chhatrapati Shivaji Intl. Airport (T2), Mumbai - MPCB",24-04-2024 09:00:00,19.10078,72.87462,CO,34,76,51
India,Maharashtra,Mumbai,"Deonar, Mumbai - IITM",24-04-2024 09:00:00,19.04946,72.9230,OZONE,4,62,18
India,Maharashtra,Mumbai,"Ghatkopar, Mumbai - BMC",24-04-2024 09:00:00,19.083694,72.920967,PM10,41,80,62
India,Maharashtra,Mumbai,"Ghatkopar, Mumbai - BMC",24-04-2024 09:00:00,19.083694,72.920967,NH3,1,11,6
India,Maharashtra,Mumbai,"Ghatkopar, Mumbai - BMC",24-04-2024 09:00:00,19.083694,72.920967,SO2,1,2,1
India,Maharashtra,Mumbai,"Kandivali East, Mumbai - MPCB",24-04-2024 09:00:00,19.205800,72.868200,NH3,3,50,7
India,Maharashtra,Mumbai,"Kherwadi_Bandra East, Mumbai - MPCB",24-04-2024 09:00:00,19.0632143,72.8456324,NH3,4,15,6
India,Maharashtra,Mumbai,"Kherwadi_Bandra East, Mumbai - MPCB",24-04-2024 09:00:00,19.0632143,72.8456324,SO2,8,10,9
India,Maharashtra,Mumbai,"Kherwadi_Bandra East, Mumbai - MPCB",24-04-2024 09:00:00,19.0632143,72.8456324,CO,6,35,13
India,Maharashtra,Mumbai,"Khindipada-Bhandup West, Mumbai - IITM",24-04-2024 09:00:00,19.1653323,72.922099,PM2.5,35,84,60
India,Maharashtra,Mumbai,"Khindipada-Bhandup West, Mumbai - IITM",24-04-2024 09:00:00,19.1653323,72.922099,PM10,40,101,71
India,Maharashtra,Mumbai,"Kurla, Mumbai - MPCB",24-04-2024 09:00:00,19.0863,72.8888,PM10,48,157,104
India,Maharashtra,Mumbai,"Kurla, Mumbai - MPCB",24-04-2024 09:00:00,19.0863,72.8888,NO2,14,19,16
India,Maharashtra,Mumbai,"Kurla, Mumbai - MPCB",24-04-2024 09:00:00,19.0863,72.8888,SO2,32,32,32
India,Maharashtra,Mumbai,"Kurla, Mumbai - MPCB",24-04-2024 09:00:00,19.0863,72.8888,CO,8,25,15
India,Maharashtra,Mumbai,"Mulund West, Mumbai - MPCB",24-04-2024 09:00:00,19.1750,72.9419,PM2.5,35,92,60
India,Maharashtra,Mumbai,"Mulund West, Mumbai - MPCB",24-04-2024 09:00:00,19.1750,72.9419,NO2,20,24,22
India,Maharashtra,Mumbai,"Mulund West, Mumbai - MPCB",24-04-2024 09:00:00,19.1750,72.9419,OZONE,10,12,12
India,Maharashtra,Mumbai,"Navy Nagar-Colaba, Mumbai - IITM",24-04-2024 09:00:00,18.897756,72.813320,NO2,14,23,17
India,Maharashtra,Mumbai,"Navy Nagar-Colaba, Mumbai - IITM",24-04-2024 09:00:00,18.897756,72.813320,SO2,4,10,8
India,Maharashtra,Mumbai,"Powai, Mumbai - MPCB",24-04-2024 09:00:00,19.137500,72.915056,NO2,16,29,22
India,Maharashtra,Mumbai,"Powai, Mumbai - MPCB",24-04-2024 09:00:00,19.137500,72.915056,CO,28,37,32
India,Maharashtra,Mumbai,"Sewri, Mumbai - BMC",24-04-2024 09:00:00,19.000084,72.856730,PM10,24,45,38
India,Maharashtra,Mumbai,"Sewri, Mumbai - BMC",24-04-2024 09:00:00,19.000084,72.856730,SO2,2,8,5
India,Maharashtra,Mumbai,"Sewri, Mumbai - BMC",24-04-2024 09:00:00,19.000084,72.856730,OZONE,4,62,30
India,Maharashtra,Mumbai,"Shivaji Nagar, Mumbai - BMC",24-04-2024 09:00:00,19.060498,72.923356,CO,2,72,23
India,Maharashtra,Mumbai,"Vasai West, Mumbai - MPCB",24-04-2024 09:00:00,19.383200,72.820400,NO2,26,28,27
India,Maharashtra,Mumbai,"Vasai West, Mumbai - MPCB",24-04-2024 09:00:00,19.383200,72.820400,NH3,4,4,4
India,Maharashtra,Mumbai,"Vile Parle West, Mumbai - MPCB",24-04-2024 09:00:00,19.10861,72.83622,PM2.5,29,62,44
India,Maharashtra,Mumbai,"Worli, Mumbai - MPCB",24-04-2024 09:00:00,18.9936162,72.8128113,PM2.5,19,59,30
India,Maharashtra,Mumbai,"Worli, Mumbai - MPCB",24-04-2024 09:00:00,18.9936162,72.8128113,OZONE,6,11,9
India,Maharashtra,Nagpur,"Mahal, Nagpur - MPCB",24-04-2024 09:00:00,21.14472,79.107595,CO,19,115,24
India,Maharashtra,Nagpur,"Opp GPO Civil Lines, Nagpur - MPCB",24-04-2024 09:00:00,21.152875,79.0517531,PM2.5,33,154,67
India,Maharashtra,Nagpur,"Opp GPO Civil Lines, Nagpur - MPCB",24-04-2024 09:00:00,21.152875,79.0517531,NO2,13,126,33
India,Maharashtra,Nanded,"Sneh Nagar, Nanded - MPCB",24-04-2024 09:00:00,19.173852,77.296291,PM10,42,108,72
India,Maharashtra,Nanded,"Sneh Nagar, Nanded - MPCB",24-04-2024 09:00:00,19.173852,77.296291,SO2,5,12,9
India,Maharashtra,Nashik,"Gangapur Road, Nashik - MPCB",24-04-2024 09:00:00,20.0073285,73.7762427,PM10,56,100,81
India,Maharashtra,Nashik,"Gangapur Road, Nashik - MPCB",24-04-2024 09:00:00,20.0073285,73.7762427,NO2,10,18,13
India,Maharashtra,Nashik,"Hirawadi, Nashik - MPCB",24-04-2024 09:00:00,20.021503,73.813844,OZONE,3,74,15
India,Maharashtra,Nashik,"Pandav Nagari, Nashik - MPCB",24-04-2024 09:00:00,19.9591346,73.7788008,PM10,73,118,90
India,Maharashtra,Navi Mumbai,"Kopripada-Vashi, Navi Mumbai - MPCB",24-04-2024 09:00:00,19.090337,73.014232,SO2,9,19,12
India,Maharashtra,Navi Mumbai,"Kopripada-Vashi, Navi Mumbai - MPCB",24-04-2024 09:00:00,19.090337,73.014232,OZONE,8,156,27
India,Maharashtra,Navi Mumbai,"Mahape, Navi Mumbai - MPCB",24-04-2024 09:00:00,19.1135051,73.008978,OZONE,46,65,52
India,Maharashtra,Navi Mumbai,"Nerul, Navi Mumbai - MPCB",24-04-2024 09:00:00,19.008751,73.016620,PM2.5,41,127,66
India,Maharashtra,Navi Mumbai,"Nerul, Navi Mumbai - MPCB",24-04-2024 09:00:00,19.008751,73.016620,NO2,31,47,41
India,Maharashtra,Navi Mumbai,"Sanpada, Navi Mumbai - MPCB",24-04-2024 09:00:00,19.0575752,73.0151367,NH3,1,7,4
India,Maharashtra,Navi Mumbai,"Sanpada, Navi Mumbai - MPCB",24-04-2024 09:00:00,19.0575752,73.0151367,SO2,1,5,2
India,Maharashtra,Navi Mumbai,"Sanpada, Navi Mumbai - MPCB",24-04-2024 09:00:00,19.0575752,73.0151367,CO,1,31,3
India,Maharashtra,Navi Mumbai,"Sector-19A Nerul, Navi Mumbai - IITM",24-04-2024 09:00:00,19.044,73.0325,NO2,17,91,48
India,Maharashtra,Navi Mumbai,"Sector-19A Nerul, Navi Mumbai - IITM",24-04-2024 09:00:00,19.044,73.0325,NH3,5,8,7
India,Maharashtra,Navi Mumbai,"Sector-2E Kalamboli, Navi Mumbai - MPCB",24-04-2024 09:00:00,19.02579,73.10297,PM10,84,149,107
India,Maharashtra,Parbhani,"Masoom Colony, Parbhani - MPCB",24-04-2024 09:00:00,19.265594,76.761463,OZONE,47,93,64
India,Maharashtra,Pimpri-Chinchwad,"Gavalinagar, Pimpri Chinchwad - MPCB",24-04-2024 09:00:00,18.63673,73.82487,PM2.5,5,368,69
India,Maharashtra,Pimpri-Chinchwad,"Gavalinagar, Pimpri Chinchwad - MPCB",24-04-2024 09:00:00,18.63673,73.82487,NH3,1,9,3
India,Maharashtra,Pimpri-Chinchwad,"Park Street Wakad, Pimpri Chinchwad - MPCB",24-04-2024 09:00:00,18.59051,73.77946,CO,1,46,29
India,Maharashtra,Pimpri-Chinchwad,"Thergaon, Pimpri Chinchwad - MPCB",24-04-2024 09:00:00,18.616318,73.765797,OZONE,11,175,41
India,Maharashtra,Pune,"Bhosari, Pune - IITM",24-04-2024 09:00:00,18.640051,73.848956,OZONE,7,132,28
India,Maharashtra,Pune,"Karve Road, Pune - MPCB",24-04-2024 09:00:00,18.5011743,73.8165527,PM2.5,28,174,64
India,Maharashtra,Pune,"Katraj Dairy, Pune - MPCB",24-04-2024 09:00:00,18.454450,73.854155,PM2.5,43,81,60
India,Maharashtra,Pune,"Mhada Colony, Pune - IITM",24-04-2024 09:00:00,18.573040,73.927715,PM10,55,128,90
India,Maharashtra,Pune,"Revenue Colony-Shivajinagar, Pune - IITM",24-04-2024 09:00:00,18.530085,73.849598,NH3,7,15,11
India,Maharashtra,Pune,"Revenue Colony-Shivajinagar, Pune - IITM",24-04-2024 09:00:00,18.530085,73.849598,SO2,47,102,78
India,Maharashtra,Pune,"Transport Nagar-Nigdi, Pune - IITM",24-04-2024 09:00:00,18.664282,73.763966,PM10,40,103,70
India,Maharashtra,Pune,"Transport Nagar-Nigdi, Pune - IITM",24-04-2024 09:00:00,18.664282,73.763966,OZONE,7,83,23
India,Maharashtra,Solapur,"Dnyaneshwar Nagar, Solapur - MPCB",24-04-2024 09:00:00,17.6336264,75.9132495,PM10,65,132,88
India,Maharashtra,Solapur,"Dnyaneshwar Nagar, Solapur - MPCB",24-04-2024 09:00:00,17.6336264,75.9132495,CO,3,108,5
India,Maharashtra,Solapur,"Ratandeep Housing Society, Solapur - MPCB",24-04-2024 09:00:00,17.65439,75.90649,PM2.5,NA,NA,NA
India,Maharashtra,Solapur,"Ratandeep Housing Society, Solapur - MPCB",24-04-2024 09:00:00,17.65439,75.90649,NH3,NA,NA,NA
India,Maharashtra,Solapur,"Solapur, Solapur - MPCB",24-04-2024 09:00:00,17.6599188,75.9063906,SO2,102,106,105
India,Maharashtra,Thane,"Kasarvadavali, Thane - MPCB",24-04-2024 09:00:00,19.26777,72.97182,PM10,68,113,92
India,Maharashtra,Thane,"Kasarvadavali, Thane - MPCB",24-04-2024 09:00:00,19.26777,72.97182,NH3,4,10,6
India,Maharashtra,Thane,"Upvan Fort, Thane - MPCB",24-04-2024 09:00:00,19.222279,72.957979,NO2,7,30,16
India,Maharashtra,Thane,"Upvan Fort, Thane - MPCB",24-04-2024 09:00:00,19.222279,72.957979,NH3,5,6,6
India,Maharashtra,Thane,"Upvan Fort, Thane - MPCB",24-04-2024 09:00:00,19.222279,72.957979,CO,10,34,26
India,Mizoram,Aizawl,"Sikulpuikawn, Aizawl - Mizoram PCB",24-04-2024 09:00:00,23.7176342,92.7192841,CO,NA,NA,NA
India,Nagaland,Kohima,"PWD Juction, Kohima - NPCB",24-04-2024 09:00:00,25.6635413,94.0989878,NH3,1,1,1
India,Nagaland,Kohima,"PWD Juction, Kohima - NPCB",24-04-2024 09:00:00,25.6635413,94.0989878,SO2,32,38,34
India,Odisha,Angul,"Hakimapada, Angul - OSPCB",24-04-2024 09:00:00,20.832874,85.104082,NH3,1,2,1
India,Odisha,Angul,"Hakimapada, Angul - OSPCB",24-04-2024 09:00:00,20.832874,85.104082,CO,8,117,79
India,Odisha,Balasore,"Kalidaspur, Balasore - OSPCB",24-04-2024 09:00:00,21.51161,86.89088,PM2.5,45,133,80
India,Odisha,Balasore,"Kalidaspur, Balasore - OSPCB",24-04-2024 09:00:00,21.51161,86.89088,PM10,57,183,116
India,Odisha,Balasore,"Kalidaspur, Balasore - OSPCB",24-04-2024 09:00:00,21.51161,86.89088,NO2,7,50,20
India,Odisha,Balasore,"Kalidaspur, Balasore - OSPCB",24-04-2024 09:00:00,21.51161,86.89088,CO,37,104,68
India,Odisha,Balasore,"Kalidaspur, Balasore - OSPCB",24-04-2024 09:00:00,21.51161,86.89088,OZONE,15,138,54
India,Odisha,Baripada,"Meher Colony, Baripada - OSPCB",24-04-2024 09:00:00,21.941841,86.728318,PM2.5,NA,NA,NA
India,Odisha,Baripada,"Meher Colony, Baripada - OSPCB",24-04-2024 09:00:00,21.941841,86.728318,NH3,1,5,3
India,Odisha,Baripada,"Meher Colony, Baripada - OSPCB",24-04-2024 09:00:00,21.941841,86.728318,SO2,1,6,4
India,Odisha,Bileipada,"Tata Township, Bileipada - OSPCB",24-04-2024 09:00:00,22.06156703,85.47409613,NO2,6,14,10
India,Odisha,Bileipada,"Tata Township, Bileipada - OSPCB",24-04-2024 09:00:00,22.06156703,85.47409613,NH3,11,11,11
India,Odisha,Bileipada,"Tata Township, Bileipada - OSPCB",24-04-2024 09:00:00,22.06156703,85.47409613,CO,14,76,34
India,Odisha,Brajrajnagar,"GM Office, Brajrajnagar - OSPCB",24-04-2024 09:00:00,21.8004996,83.8396977,PM10,2,135,71
India,Odisha,Byasanagar,"Ferro Chrome Colony, Byasanagar - OSPCB",24-04-2024 09:00:00,20.94185,86.11510,CO,60,107,85
India,Odisha,Cuttack,"CDA Area, Cuttack - OSPCB",24-04-2024 09:00:00,20.48891     ,85.84768     ,PM10,67,268,118
India,Odisha,Cuttack,"CDA Area, Cuttack - OSPCB",24-04-2024 09:00:00,20.48891     ,85.84768     ,SO2,3,38,16
India,Odisha,Cuttack,"CDA Area, Cuttack - OSPCB",24-04-2024 09:00:00,20.48891     ,85.84768     ,CO,22,46,33
India,Odisha,Keonjhar,"Jagamohanpur, Keonjhar - OSPCB",24-04-2024 09:00:00,21.643900,85.599355,PM10,63,116,79
India,Odisha,Rairangpur,"Divisional Forest Office, Rairangpur - OSPCB",24-04-2024 09:00:00,22.265816,86.174829,NO2,1,2,1
India,Odisha,Rairangpur,"Divisional Forest Office, Rairangpur - OSPCB",24-04-2024 09:00:00,22.265816,86.174829,SO2,13,19,14
India,Odisha,Rourkela,"Fertilizer Township, Rourkela - OSPCB",24-04-2024 09:00:00,22.18972222,84.86277778,CO,11,28,18
India,Odisha,Rourkela,"Raghunathpali, Rourkela - OSPCB",24-04-2024 09:00:00,22.220833,84.809444,PM10,60,157,115
India,Odisha,Rourkela,"Raghunathpali, Rourkela - OSPCB",24-04-2024 09:00:00,22.220833,84.809444,SO2,7,8,8
India,Odisha,Rourkela,"Raghunathpali, Rourkela - OSPCB",24-04-2024 09:00:00,22.220833,84.809444,OZONE,7,86,13
India,Odisha,Talcher,"Talcher Coalfields,Talcher - OSPCB",24-04-2024 09:00:00,20.9360711,85.1707021,PM10,64,437,184
India,Odisha,Tensa,"Barsua Iron Ore Mines, Tensa - OSPCB",24-04-2024 09:00:00,21.869985,85.167016,OZONE,27,83,55
India,Puducherry,Puducherry,"Jawahar Nagar, Puducherry - PPCC",24-04-2024 09:00:00,11.9309,79.8027,PM2.5,2,35,15
India,Puducherry,Puducherry,"Jawahar Nagar, Puducherry - PPCC",24-04-2024 09:00:00,11.9309,79.8027,PM10,6,49,19
India,Punjab,Amritsar,"Golden Temple, Amritsar - PPCB",24-04-2024 09:00:00,31.620000,74.876512,NO2,10,48,27
India,Punjab,Amritsar,"Golden Temple, Amritsar - PPCB",24-04-2024 09:00:00,31.620000,74.876512,SO2,15,20,18
India,Punjab,Amritsar,"Golden Temple, Amritsar - PPCB",24-04-2024 09:00:00,31.620000,74.876512,CO,24,40,30
India,Punjab,Bathinda,"Hardev Nagar, Bathinda - PPCB",24-04-2024 09:00:00,30.233011,74.907758,CO,3,41,23
India,Punjab,Jalandhar,"Civil Line, Jalandhar - PPCB",24-04-2024 09:00:00,31.321907,75.578914,PM10,41,87,59
India,Punjab,Jalandhar,"Civil Line, Jalandhar - PPCB",24-04-2024 09:00:00,31.321907,75.578914,NH3,2,5,5
India,Punjab,Khanna,"Kalal Majra, Khanna - PPCB",24-04-2024 09:00:00,30.736056 ,76.209694,PM10,62,119,94
India,Punjab,Khanna,"Kalal Majra, Khanna - PPCB",24-04-2024 09:00:00,30.736056 ,76.209694,SO2,8,20,12
India,Punjab,Ludhiana,"Punjab Agricultural University, Ludhiana - PPCB",24-04-2024 09:00:00,30.9028,75.8086,PM2.5,61,220,123
India,Punjab,Ludhiana,"Punjab Agricultural University, Ludhiana - PPCB",24-04-2024 09:00:00,30.9028,75.8086,NO2,17,19,18
India,Punjab,Ludhiana,"Punjab Agricultural University, Ludhiana - PPCB",24-04-2024 09:00:00,30.9028,75.8086,CO,5,60,36
India,Punjab,Ludhiana,"Punjab Agricultural University, Ludhiana - PPCB",24-04-2024 09:00:00,30.9028,75.8086,OZONE,13,48,16
India,Punjab,Mandi Gobindgarh,"RIMT University, Mandi Gobindgarh - PPCB",24-04-2024 09:00:00,30.649961,76.331442,NH3,6,6,6
India,Punjab,Mandi Gobindgarh,"RIMT University, Mandi Gobindgarh - PPCB",24-04-2024 09:00:00,30.649961,76.331442,OZONE,49,50,49
India,Punjab,Patiala,"Model Town, Patiala - PPCB",24-04-2024 09:00:00,30.349388,76.366642,NH3,6,7,6
India,Punjab,Patiala,"Model Town, Patiala - PPCB",24-04-2024 09:00:00,30.349388,76.366642,OZONE,13,113,18
India,Rajasthan,Ajmer,"Civil Lines,  Ajmer - RSPCB",24-04-2024 09:00:00,26.470859,74.646594,PM10,54,124,85
India,Rajasthan,Alwar,"Moti Doongri, Alwar - RSPCB",24-04-2024 09:00:00,27.554793,76.611536,CO,30,78,50
India,Rajasthan,Alwar,"Moti Doongri, Alwar - RSPCB",24-04-2024 09:00:00,27.554793,76.611536,OZONE,9,19,14
India,Rajasthan,Banswara,"Rati Talai, Banswara - RSPCB",24-04-2024 09:00:00,23.555190,74.440010,NH3,2,5,3
India,Rajasthan,Banswara,"Rati Talai, Banswara - RSPCB",24-04-2024 09:00:00,23.555190,74.440010,SO2,18,57,28
India,Rajasthan,Baran,"Bamboliya, Baran - RSPCB",24-04-2024 09:00:00,25.106006,76.469948,SO2,9,14,12
India,Rajasthan,Barmer,"Railway Colony, Barmer - RSPCB",24-04-2024 09:00:00,25.747299,71.393989,PM10,64,118,85
India,Rajasthan,Barmer,"Railway Colony, Barmer - RSPCB",24-04-2024 09:00:00,25.747299,71.393989,CO,64,100,68
India,Rajasthan,Bharatpur,"Krishna Nagar, Bharatpur - RSPCB",24-04-2024 09:00:00,27.215415,77.50873,PM2.5,35,290,78
India,Rajasthan,Bharatpur,"Krishna Nagar, Bharatpur - RSPCB",24-04-2024 09:00:00,27.215415,77.50873,CO,2,94,35
India,Rajasthan,Bhilwara,"Pratap Nagar, Bhilwara - RSPCB",24-04-2024 09:00:00,25.339605,74.618883,NH3,1,5,3
India,Rajasthan,Bikaner,"MM Ground, Bikaner - RSPCB",24-04-2024 09:00:00,28.018792,73.292658,PM10,86,440,145
India,Rajasthan,Chittorgarh,"Shastri Nagar, Chittorgarh - RSPCB",24-04-2024 09:00:00,24.892047,74.623527,PM2.5,3,352,76
India,Rajasthan,Chittorgarh,"Shastri Nagar, Chittorgarh - RSPCB",24-04-2024 09:00:00,24.892047,74.623527,NO2,12,110,41
India,Rajasthan,Chittorgarh,"Shastri Nagar, Chittorgarh - RSPCB",24-04-2024 09:00:00,24.892047,74.623527,SO2,2,122,10
India,Rajasthan,Chittorgarh,"Shastri Nagar, Chittorgarh - RSPCB",24-04-2024 09:00:00,24.892047,74.623527,CO,25,113,44
India,Rajasthan,Churu,"Subash Chowk, Churu - RSPCB",24-04-2024 09:00:00,28.296139,74.961696,CO,11,30,23
India,Rajasthan,Dausa,"Khatikan Mohalla, Dausa - RSPCB",24-04-2024 09:00:00,26.895552,76.334753,CO,3,94,33
India,Rajasthan,Dausa,"Khatikan Mohalla, Dausa - RSPCB",24-04-2024 09:00:00,26.895552,76.334753,OZONE,16,84,52
India,Rajasthan,Dholpur,"Raja Ganj, Dholpur - RSPCB",24-04-2024 09:00:00,26.699557,77.898881,PM10,52,414,132
India,Rajasthan,Dholpur,"Raja Ganj, Dholpur - RSPCB",24-04-2024 09:00:00,26.699557,77.898881,NO2,5,47,17
India,Rajasthan,Dungarpur,"Bhoiwada, Dungarpur - RSPCB",24-04-2024 09:00:00,23.837789,73.714926,PM10,46,103,70
India,Rajasthan,Dungarpur,"Bhoiwada, Dungarpur - RSPCB",24-04-2024 09:00:00,23.837789,73.714926,SO2,3,6,4
India,Rajasthan,Hanumangarh,"Housing Board, Hanumangarh - RSPCB",24-04-2024 09:00:00,29.610750,74.283608,PM2.5,13,421,96
India,Rajasthan,Hanumangarh,"Housing Board, Hanumangarh - RSPCB",24-04-2024 09:00:00,29.610750,74.283608,OZONE,7,74,14
India,Rajasthan,Jaipur,"Adarsh Nagar, Jaipur - RSPCB",24-04-2024 09:00:00,26.902909,75.836858,PM2.5,30,123,63
India,Rajasthan,Jaipur,"Mansarovar Sector-12, Jaipur - RSPCB",24-04-2024 09:00:00,26.843698,75.766894,NO2,9,120,34
India,Rajasthan,Jaipur,"Police Commissionerate, Jaipur - RSPCB",24-04-2024 09:00:00,26.9164092,75.7994901,PM2.5,37,97,58
India,Rajasthan,Jaipur,"Police Commissionerate, Jaipur - RSPCB",24-04-2024 09:00:00,26.9164092,75.7994901,PM10,47,177,101
India,Rajasthan,Jaipur,"Police Commissionerate, Jaipur - RSPCB",24-04-2024 09:00:00,26.9164092,75.7994901,SO2,6,80,27
India,Rajasthan,Jaipur,"RIICO Sitapura, Jaipur - RSPCB",24-04-2024 09:00:00,26.786682,75.827928,SO2,10,23,14
India,Rajasthan,Jaipur,"RIICO Sitapura, Jaipur - RSPCB",24-04-2024 09:00:00,26.786682,75.827928,OZONE,12,28,20
India,Rajasthan,Jaipur,"Sector-2 Murlipura, Jaipur - RSPCB",24-04-2024 09:00:00,26.960669,75.771817,PM10,61,206,114
India,Rajasthan,Jaipur,"Sector-2 Murlipura, Jaipur - RSPCB",24-04-2024 09:00:00,26.960669,75.771817,CO,32,90,47
India,Rajasthan,Jaipur,"Shastri Nagar, Jaipur - RSPCB",24-04-2024 09:00:00,26.9502929,75.730943,PM10,83,186,117
India,Rajasthan,Jaisalmer,"Sadar Bazar, Jaisalmer - RSPCB",24-04-2024 09:00:00,26.912329,70.909168,PM10,60,198,100
India,Rajasthan,Jaisalmer,"Sadar Bazar, Jaisalmer - RSPCB",24-04-2024 09:00:00,26.912329,70.909168,NH3,6,17,8
India,Rajasthan,Jalore,"Mudtra Sili, Jalore - RSPCB",24-04-2024 09:00:00,25.344694,72.626208,PM2.5,24,83,40
India,Rajasthan,Jalore,"Mudtra Sili, Jalore - RSPCB",24-04-2024 09:00:00,25.344694,72.626208,PM10,59,396,113
India,Rajasthan,Jalore,"Mudtra Sili, Jalore - RSPCB",24-04-2024 09:00:00,25.344694,72.626208,NO2,6,84,27
India,Rajasthan,Jalore,"Mudtra Sili, Jalore - RSPCB",24-04-2024 09:00:00,25.344694,72.626208,CO,7,56,16
India,Rajasthan,Jalore,"Mudtra Sili, Jalore - RSPCB",24-04-2024 09:00:00,25.344694,72.626208,OZONE,18,123,69
India,Rajasthan,Jhunjhunu,"Indra Nagar, Jhunjhunu - RSPCB",24-04-2024 09:00:00,28.108988,75.386577,NO2,13,50,27
India,Rajasthan,Jhunjhunu,"Indra Nagar, Jhunjhunu - RSPCB",24-04-2024 09:00:00,28.108988,75.386577,OZONE,22,92,41
India,Rajasthan,Jodhpur,"Collectorate, Jodhpur - RSPCB",24-04-2024 09:00:00,26.268249,73.0193853,PM10,64,250,139
India,Rajasthan,Jodhpur,"Collectorate, Jodhpur - RSPCB",24-04-2024 09:00:00,26.268249,73.0193853,NO2,4,101,35
India,Rajasthan,Jodhpur,"Digari Kalan, Jodhpur - RSPCB",24-04-2024 09:00:00,26.295810,73.082283,PM2.5,12,92,40
India,Rajasthan,Jodhpur,"Mandor, Jodhpur - RSPCB",24-04-2024 09:00:00,26.358805,73.047444,PM2.5,11,71,34
India,Rajasthan,Jodhpur,"Mandor, Jodhpur - RSPCB",24-04-2024 09:00:00,26.358805,73.047444,NO2,19,102,42
India,Rajasthan,Jodhpur,"Mandor, Jodhpur - RSPCB",24-04-2024 09:00:00,26.358805,73.047444,NH3,5,11,7
India,Rajasthan,Jodhpur,"Mandor, Jodhpur - RSPCB",24-04-2024 09:00:00,26.358805,73.047444,CO,7,24,18
India,Rajasthan,Jodhpur,"Samrat Ashok Udhyan, Jodhpur - RSPCB",24-04-2024 09:00:00,26.253384,72.976571,PM2.5,8,99,34
India,Rajasthan,Jodhpur,"Samrat Ashok Udhyan, Jodhpur - RSPCB",24-04-2024 09:00:00,26.253384,72.976571,PM10,66,252,125
India,Rajasthan,Karauli,"Satyawati Vihar, Karauli - RSPCB",24-04-2024 09:00:00,26.506177,77.025989,PM2.5,13,88,40
India,Rajasthan,Karauli,"Satyawati Vihar, Karauli - RSPCB",24-04-2024 09:00:00,26.506177,77.025989,PM10,53,246,113
India,Rajasthan,Karauli,"Satyawati Vihar, Karauli - RSPCB",24-04-2024 09:00:00,26.506177,77.025989,NH3,8,12,10
India,Rajasthan,Karauli,"Satyawati Vihar, Karauli - RSPCB",24-04-2024 09:00:00,26.506177,77.025989,SO2,19,30,24
India,Rajasthan,Kota,"Dhanmandi, Kota - RSPCB",24-04-2024 09:00:00,25.164090,75.858137,PM2.5,12,201,63
India,Rajasthan,Kota,"Dhanmandi, Kota - RSPCB",24-04-2024 09:00:00,25.164090,75.858137,SO2,7,23,13
India,Rajasthan,Kota,"Dhanmandi, Kota - RSPCB",24-04-2024 09:00:00,25.164090,75.858137,CO,12,125,56
India,Rajasthan,Kota,"Nayapura, Kota - RSPCB",24-04-2024 09:00:00,25.196024,75.855668,PM2.5,14,102,52
India,Rajasthan,Kota,"Shrinath Puram, Kota - RSPCB",24-04-2024 09:00:00,25.14389,75.821256,PM10,68,169,122
India,Rajasthan,Kota,"Shrinath Puram, Kota - RSPCB",24-04-2024 09:00:00,25.14389,75.821256,SO2,6,87,21
India,Rajasthan,Nagaur,"Karni Colony, Nagaur - RSPCB",24-04-2024 09:00:00,27.213494,73.734444,PM10,74,186,113
India,Rajasthan,Pali,"Indira Colony Vistar, Pali - RSPCB",24-04-2024 09:00:00,25.771061, 73.340227,NO2,19,70,40
India,Rajasthan,Pratapgarh,"Pragati Nagar, Pratapgarh - RSPCB",24-04-2024 09:00:00,24.041198,74.780702,PM2.5,18,68,34
India,Rajasthan,Pratapgarh,"Pragati Nagar, Pratapgarh - RSPCB",24-04-2024 09:00:00,24.041198,74.780702,NO2,5,43,20
India,Rajasthan,Pratapgarh,"Pragati Nagar, Pratapgarh - RSPCB",24-04-2024 09:00:00,24.041198,74.780702,OZONE,49,95,63
India,Rajasthan,Rajsamand,"Dhoinda, Rajsamand - RSPCB",24-04-2024 09:00:00,25.036360,73.883502,NH3,5,6,5
India,Rajasthan,Rajsamand,"Dhoinda, Rajsamand - RSPCB",24-04-2024 09:00:00,25.036360,73.883502,SO2,1,4,2
India,Rajasthan,Rajsamand,"Dhoinda, Rajsamand - RSPCB",24-04-2024 09:00:00,25.036360,73.883502,OZONE,36,69,49
India,Rajasthan,Sirohi,"Vedhaynath Colony, Sirohi - RSPCB",24-04-2024 09:00:00,24.885261,72.857549,PM2.5,19,126,38
India,Rajasthan,Sirohi,"Vedhaynath Colony, Sirohi - RSPCB",24-04-2024 09:00:00,24.885261,72.857549,CO,14,54,38
India,Rajasthan,Tonk,"Shastri Nagar, Tonk - RSPCB",24-04-2024 09:00:00,26.159933,75.780517,SO2,1,8,5
India,Rajasthan,Udaipur,"Ashok Nagar, Udaipur - RSPCB",24-04-2024 09:00:00,24.5886166,73.6321397,NO2,24,70,49
India,Rajasthan,Udaipur,"Ashok Nagar, Udaipur - RSPCB",24-04-2024 09:00:00,24.5886166,73.6321397,NH3,7,10,9
India,Sikkim,Gangtok,"Zero Point GICI, Gangtok - SSPCB",24-04-2024 09:00:00,27.338530,88.614099,PM10,54,86,70
India,TamilNadu,Ariyalur,"Keelapalur, Ariyalur - TNPCB",24-04-2024 09:00:00,11.06825,79.07033,PM10,12,34,24
India,TamilNadu,Chennai,"Alandur Bus Depot, Chennai - CPCB",24-04-2024 09:00:00,12.9099161,80.1076538,OZONE,2,16,5
India,TamilNadu,Chennai,"Manali, Chennai - CPCB",24-04-2024 09:00:00,13.164544,80.26285,PM2.5,31,82,53
India,TamilNadu,Chennai,"Manali, Chennai - CPCB",24-04-2024 09:00:00,13.164544,80.26285,PM10,32,83,54
India,TamilNadu,Chennai,"Perungudi, Chennai - TNPCB",24-04-2024 09:00:00,12.9533,80.2357,PM10,9,76,38
India,TamilNadu,Chennai,"Perungudi, Chennai - TNPCB",24-04-2024 09:00:00,12.9533,80.2357,SO2,1,7,4
India,TamilNadu,Chennai,"Velachery Res. Area, Chennai - CPCB",24-04-2024 09:00:00,13.0052189,80.2398125,PM2.5,16,34,25
India,TamilNadu,Coimbatore,"PSG College of Arts and Science, Coimbatore - TNPCB",24-04-2024 09:00:00,11.0328,77.0349,OZONE,3,5,4
India,TamilNadu,Cuddalore,"Kudikadu, Cuddalore - TNPCB",24-04-2024 09:00:00,11.6829898,79.7532099,PM2.5,18,112,45
India,TamilNadu,Cuddalore,"Semmandalam, Cuddalore - TNPCB",24-04-2024 09:00:00,11.7637683,79.7499835,NO2,NA,NA,NA
India,TamilNadu,Kanchipuram,"Kilambi, Kanchipuram - TNPCB",24-04-2024 09:00:00,12.864618,79.659968,NH3,NA,NA,NA
India,TamilNadu,Kanchipuram,"Kilambi, Kanchipuram - TNPCB",24-04-2024 09:00:00,12.864618,79.659968,CO,NA,NA,NA
India,TamilNadu,Ooty,"Bombay Castel, Ooty - TNPCB",24-04-2024 09:00:00,11.4068288,76.7138973,PM2.5,NA,NA,NA
India,TamilNadu,Ooty,"Bombay Castel, Ooty - TNPCB",24-04-2024 09:00:00,11.4068288,76.7138973,NH3,NA,NA,NA
India,TamilNadu,Ramanathapuram,"Chalai Bazaar, Ramanathapuram - TNPCB",24-04-2024 09:00:00,9.36399,78.831977,PM2.5,NA,NA,NA
India,TamilNadu,Ramanathapuram,"Chalai Bazaar, Ramanathapuram - TNPCB",24-04-2024 09:00:00,9.36399,78.831977,CO,NA,NA,NA
India,TamilNadu,Ramanathapuram,"Chalai Bazaar, Ramanathapuram - TNPCB",24-04-2024 09:00:00,9.36399,78.831977,OZONE,NA,NA,NA
India,TamilNadu,Salem,"Sona College of Technology, Salem - TNPCB",24-04-2024 09:00:00,11.679111,78.125052,PM2.5,NA,NA,NA
India,TamilNadu,Thoothukudi,"Meelavittan, Thoothukudi - TNPCB",24-04-2024 09:00:00,8.816428 ,78.099039,CO,10,48,28
India,TamilNadu,Vellore,"Vasanthapuram, Vellore - TNPCB",24-04-2024 09:00:00,12.909494,79.131861,NH3,NA,NA,NA
India,Telangana,Hyderabad,"Bollaram Industrial Area, Hyderabad - TSPCB",24-04-2024 09:00:00,17.540891,78.358528,CO,18,68,42
India,Telangana,Hyderabad,"Bollaram Industrial Area, Hyderabad - TSPCB",24-04-2024 09:00:00,17.540891,78.358528,OZONE,33,38,35
India,Telangana,Hyderabad,"ECIL Kapra, Hyderabad - TSPCB",24-04-2024 09:00:00,17.470431,78.566959,PM2.5,54,205,87
India,Telangana,Hyderabad,"ECIL Kapra, Hyderabad - TSPCB",24-04-2024 09:00:00,17.470431,78.566959,NO2,10,12,12
India,Telangana,Hyderabad,"ICRISAT Patancheru, Hyderabad - TSPCB",24-04-2024 09:00:00,17.518400,78.278777,PM2.5,20,126,55
India,Telangana,Hyderabad,"ICRISAT Patancheru, Hyderabad - TSPCB",24-04-2024 09:00:00,17.518400,78.278777,CO,18,102,47
India,Telangana,Hyderabad,"ICRISAT Patancheru, Hyderabad - TSPCB",24-04-2024 09:00:00,17.518400,78.278777,OZONE,18,104,44
India,Telangana,Hyderabad,"IITH Kandi, Hyderabad - TSPCB",24-04-2024 09:00:00,17.585705,78.126199,NO2,8,11,10
India,Telangana,Hyderabad,"IITH Kandi, Hyderabad - TSPCB",24-04-2024 09:00:00,17.585705,78.126199,OZONE,29,47,29
India,Telangana,Hyderabad,"Kokapet, Hyderabad - TSPCB",24-04-2024 09:00:00,17.393559,78.339194,NH3,3,3,3
India,Telangana,Hyderabad,"Kokapet, Hyderabad - TSPCB",24-04-2024 09:00:00,17.393559,78.339194,SO2,8,8,8
India,Telangana,Hyderabad,"Nacharam_TSIIC IALA, Hyderabad - TSPCB",24-04-2024 09:00:00,17.429398,78.569354,PM2.5,66,74,67
India,Telangana,Hyderabad,"Nacharam_TSIIC IALA, Hyderabad - TSPCB",24-04-2024 09:00:00,17.429398,78.569354,PM10,76,88,78
India,Telangana,Hyderabad,"New Malakpet, Hyderabad - TSPCB",24-04-2024 09:00:00,17.37206,78.50864,NH3,1,3,2
India,Telangana,Hyderabad,"New Malakpet, Hyderabad - TSPCB",24-04-2024 09:00:00,17.37206,78.50864,CO,12,62,27
India,Telangana,Hyderabad,"Ramachandrapuram, Hyderabad - TSPCB",24-04-2024 09:00:00,17.528544,78.286195,NO2,NA,NA,NA
India,Telangana,Hyderabad,"Ramachandrapuram, Hyderabad - TSPCB",24-04-2024 09:00:00,17.528544,78.286195,OZONE,NA,NA,NA
India,Telangana,Hyderabad,"Sanathnagar, Hyderabad - TSPCB",24-04-2024 09:00:00,17.4559458,78.4332152,NO2,19,31,29
India,Telangana,Hyderabad,"Sanathnagar, Hyderabad - TSPCB",24-04-2024 09:00:00,17.4559458,78.4332152,OZONE,10,17,16
India,Telangana,Hyderabad,"Zoo Park, Hyderabad - TSPCB",24-04-2024 09:00:00,17.349694,78.451437,CO,32,92,47
India,Tripura,Agartala,"Bardowali, Agartala - Tripura SPCB",24-04-2024 09:00:00,23.8175497,91.2726974,SO2,30,31,30
India,Uttar_Pradesh,Agra,"Rohta, Agra - UPPCB",24-04-2024 09:00:00,27.106972,78.000111,SO2,2,7,5
India,Uttar_Pradesh,Agra,"Rohta, Agra - UPPCB",24-04-2024 09:00:00,27.106972,78.000111,OZONE,13,17,15
India,Uttar_Pradesh,Agra,"Sector-3B Avas Vikas Colony, Agra - UPPCB",24-04-2024 09:00:00,27.19412,77.96237,NO2,25,26,26
India,Uttar_Pradesh,Agra,"Sector-3B Avas Vikas Colony, Agra - UPPCB",24-04-2024 09:00:00,27.19412,77.96237,NH3,4,13,7
India,Uttar_Pradesh,Agra,"Shahjahan Garden, Agra - UPPCB",24-04-2024 09:00:00,27.169338,78.03582,NO2,26,29,29
India,Uttar_Pradesh,Agra,"Shahjahan Garden, Agra - UPPCB",24-04-2024 09:00:00,27.169338,78.03582,OZONE,1,38,2
India,Uttar_Pradesh,Agra,"Shastripuram, Agra - UPPCB",24-04-2024 09:00:00,27.19862,77.92066,PM2.5,2,60,34
India,Uttar_Pradesh,Bareilly,"Civil Lines, Bareilly - UPPCB",24-04-2024 09:00:00,28.359581,79.414455,NO2,2,5,2
India,Uttar_Pradesh,Bareilly,"Civil Lines, Bareilly - UPPCB",24-04-2024 09:00:00,28.359581,79.414455,NH3,NA,NA,NA
India,Uttar_Pradesh,Bareilly,"Rajendra Nagar, Bareilly - UPPCB",24-04-2024 09:00:00,28.38910936,79.42963708,OZONE,3,44,2
India,Uttar_Pradesh,Bulandshahr,"Yamunapuram, Bulandshahr - UPPCB",24-04-2024 09:00:00,28.406963,77.849831,NH3,7,16,11
India,Uttar_Pradesh,Bulandshahr,"Yamunapuram, Bulandshahr - UPPCB",24-04-2024 09:00:00,28.406963,77.849831,OZONE,2,137,12
India,Uttar_Pradesh,Firozabad,"Vibhab Nagar, Firozabad - UPPCB",24-04-2024 09:00:00,27.1594,78.3953,PM2.5,30,240,70
India,Uttar_Pradesh,Firozabad,"Vibhab Nagar, Firozabad - UPPCB",24-04-2024 09:00:00,27.1594,78.3953,CO,16,22,18
India,Uttar_Pradesh,Firozabad,"Vibhab Nagar, Firozabad - UPPCB",24-04-2024 09:00:00,27.1594,78.3953,OZONE,19,99,39
India,Uttar_Pradesh,Ghaziabad,"Indirapuram, Ghaziabad - UPPCB",24-04-2024 09:00:00,28.646233,77.358075,PM2.5,32,312,109
India,Uttar_Pradesh,Ghaziabad,"Indirapuram, Ghaziabad - UPPCB",24-04-2024 09:00:00,28.646233,77.358075,NO2,23,66,46
India,Uttar_Pradesh,Ghaziabad,"Indirapuram, Ghaziabad - UPPCB",24-04-2024 09:00:00,28.646233,77.358075,SO2,2,25,15
India,Uttar_Pradesh,Ghaziabad,"Loni, Ghaziabad - UPPCB",24-04-2024 09:00:00,28.757294,77.278792,OZONE,1,72,4
India,Uttar_Pradesh,Ghaziabad,"Sanjay Nagar, Ghaziabad - UPPCB",24-04-2024 09:00:00,28.685382,77.453839,SO2,16,54,30
India,Uttar_Pradesh,Ghaziabad,"Vasundhara, Ghaziabad - UPPCB",24-04-2024 09:00:00,28.6603346,77.3572563,CO,12,75,46
India,Uttar_Pradesh,Gorakhpur,"Madan Mohan Malaviya University of Technology, Gorakhpur - UPPCB",24-04-2024 09:00:00,26.730136,83.433859,PM10,54,138,94
India,Uttar_Pradesh,Gorakhpur,"Madan Mohan Malaviya University of Technology, Gorakhpur - UPPCB",24-04-2024 09:00:00,26.730136,83.433859,CO,3,32,27
India,Uttar_Pradesh,Greater Noida,"Knowledge Park - V, Greater Noida - UPPCB",24-04-2024 09:00:00,28.557054,77.453663,CO,2,62,36
India,Uttar_Pradesh,Hapur,"Anand Vihar, Hapur - UPPCB",24-04-2024 09:00:00,28.725645,77.749675,NO2,6,91,20
India,Uttar_Pradesh,Hapur,"Anand Vihar, Hapur - UPPCB",24-04-2024 09:00:00,28.725645,77.749675,SO2,7,102,34
India,Uttar_Pradesh,Jhansi,"Shivaji Nagar, Jhansi - UPPCB",24-04-2024 09:00:00,25.4547,78.6039,NO2,2,75,19
India,Uttar_Pradesh,Jhansi,"Shivaji Nagar, Jhansi - UPPCB",24-04-2024 09:00:00,25.4547,78.6039,NH3,6,6,6
India,Uttar_Pradesh,Kanpur,"FTI Kidwai Nagar, Kanpur - UPPCB",24-04-2024 09:00:00,26.428282,80.327067,PM2.5,44,144,75
India,Uttar_Pradesh,Kanpur,"FTI Kidwai Nagar, Kanpur - UPPCB",24-04-2024 09:00:00,26.428282,80.327067,SO2,25,25,25
India,Uttar_Pradesh,Kanpur,"NSI Kalyanpur, Kanpur - UPPCB",24-04-2024 09:00:00,26.509954,80.249612,NH3,1,2,2
India,Uttar_Pradesh,Kanpur,"NSI Kalyanpur, Kanpur - UPPCB",24-04-2024 09:00:00,26.509954,80.249612,OZONE,23,63,56
India,Uttar_Pradesh,Kanpur,"Nehru Nagar, Kanpur - UPPCB",24-04-2024 09:00:00,26.4703136,80.3229863,PM2.5,42,192,64
India,Uttar_Pradesh,Kanpur,"Nehru Nagar, Kanpur - UPPCB",24-04-2024 09:00:00,26.4703136,80.3229863,PM10,37,121,55
India,Uttar_Pradesh,Kanpur,"Nehru Nagar, Kanpur - UPPCB",24-04-2024 09:00:00,26.4703136,80.3229863,SO2,5,11,8
India,Uttar_Pradesh,Khurja,"Kalindi Kunj, Khurja - UPPCB",24-04-2024 09:00:00,28.2348927,77.8683002,PM2.5,25,105,54
India,Uttar_Pradesh,Khurja,"Kalindi Kunj, Khurja - UPPCB",24-04-2024 09:00:00,28.2348927,77.8683002,PM10,24,98,52
India,Uttar_Pradesh,Khurja,"Kalindi Kunj, Khurja - UPPCB",24-04-2024 09:00:00,28.2348927,77.8683002,SO2,47,71,55
India,Uttar_Pradesh,Lucknow,"Kendriya Vidyalaya, Lucknow - CPCB",24-04-2024 09:00:00,26.906111,80.948222,CO,5,45,32
India,Uttar_Pradesh,Lucknow,"Kukrail Picnic Spot-1, Lucknow - UPPCB",24-04-2024 09:00:00,26.90723,80.98579,NO2,8,8,8
India,Uttar_Pradesh,Lucknow,"Lalbagh, Lucknow - CPCB",24-04-2024 09:00:00,26.8458805,80.9365541,SO2,4,15,10
India,Uttar_Pradesh,Lucknow,"Talkatora District Industries Center, Lucknow - CPCB",24-04-2024 09:00:00,26.83399722,80.8917361,PM10,105,188,141
India,Uttar_Pradesh,Lucknow,"Talkatora District Industries Center, Lucknow - CPCB",24-04-2024 09:00:00,26.83399722,80.8917361,NH3,8,22,12
India,Uttar_Pradesh,Meerut,"Ganga Nagar, Meerut - UPPCB",24-04-2024 09:00:00,28.999264,77.7590354,NH3,5,15,8
India,Uttar_Pradesh,Meerut,"Pallavpuram Phase 2, Meerut - UPPCB",24-04-2024 09:00:00,29.063510,77.709723,NO2,12,102,49
India,Uttar_Pradesh,Meerut,"Pallavpuram Phase 2, Meerut - UPPCB",24-04-2024 09:00:00,29.063510,77.709723,NH3,5,14,9
India,Uttar_Pradesh,Meerut,"Pallavpuram Phase 2, Meerut - UPPCB",24-04-2024 09:00:00,29.063510,77.709723,SO2,10,91,31
India,Uttar_Pradesh,Moradabad,"Buddhi Vihar, Moradabad - UPPCB",24-04-2024 09:00:00,28.83526,78.74460,SO2,5,16,15
India,Uttar_Pradesh,Moradabad,"Eco Herbal Park, Moradabad - UPPCB",24-04-2024 09:00:00,28.840739,78.697531,PM10,44,154,85
India,Uttar_Pradesh,Moradabad,"Eco Herbal Park, Moradabad - UPPCB",24-04-2024 09:00:00,28.840739,78.697531,NO2,11,38,23
India,Uttar_Pradesh,Moradabad,"Employment Office, Moradabad - UPPCB",24-04-2024 09:00:00,28.88528,78.73880,PM10,52,148,108
India,Uttar_Pradesh,Moradabad,"Employment Office, Moradabad - UPPCB",24-04-2024 09:00:00,28.88528,78.73880,NH3,3,4,4
India,Uttar_Pradesh,Moradabad,"Employment Office, Moradabad - UPPCB",24-04-2024 09:00:00,28.88528,78.73880,CO,10,41,22
India,Uttar_Pradesh,Moradabad,"Kashiram Nagar, Moradabad - UPPCB",24-04-2024 09:00:00,28.849399,78.742362,NH3,3,4,4
India,Uttar_Pradesh,Moradabad,"Kashiram Nagar, Moradabad - UPPCB",24-04-2024 09:00:00,28.849399,78.742362,CO,12,43,28
India,Uttar_Pradesh,Moradabad,"Transport Nagar, Moradabad - UPPCB",24-04-2024 09:00:00,28.802625,78.753728,PM2.5,15,77,37
India,Uttar_Pradesh,Noida,"Sector - 125, Noida - UPPCB",24-04-2024 09:00:00,28.5447608,77.3231257,PM10,69,194,119
India,Uttar_Pradesh,Noida,"Sector - 62, Noida - IMD",24-04-2024 09:00:00,28.6245479,77.3577104,NO2,1,26,7
India,Uttar_Pradesh,Noida,"Sector - 62, Noida - IMD",24-04-2024 09:00:00,28.6245479,77.3577104,CO,24,41,37
India,Uttar_Pradesh,Noida,"Sector-1, Noida - UPPCB",24-04-2024 09:00:00,28.5898,77.3101,OZONE,1,272,8
India,Uttar_Pradesh,Prayagraj,"Jhunsi, Prayagraj - UPPCB",24-04-2024 09:00:00,25.425602,81.917152,NO2,6,6,6
India,Uttar_Pradesh,Prayagraj,"Jhunsi, Prayagraj - UPPCB",24-04-2024 09:00:00,25.425602,81.917152,NH3,5,5,5
India,Uttar_Pradesh,Prayagraj,"Jhunsi, Prayagraj - UPPCB",24-04-2024 09:00:00,25.425602,81.917152,SO2,30,32,31
India,Uttar_Pradesh,Prayagraj,"Jhunsi, Prayagraj - UPPCB",24-04-2024 09:00:00,25.425602,81.917152,CO,5,72,16
India,Uttar_Pradesh,Prayagraj,"Jhunsi, Prayagraj - UPPCB",24-04-2024 09:00:00,25.425602,81.917152,OZONE,NA,NA,NA
India,Uttar_Pradesh,Prayagraj,"Motilal Nehru NIT, Prayagraj - UPPCB",24-04-2024 09:00:00,25.494,81.863,NH3,6,7,6
India,Uttar_Pradesh,Prayagraj,"Motilal Nehru NIT, Prayagraj - UPPCB",24-04-2024 09:00:00,25.494,81.863,CO,8,61,28
India,Uttar_Pradesh,Prayagraj,"Nagar Nigam, Prayagraj - UPPCB",24-04-2024 09:00:00,25.44919916 ,81.82735986 ,OZONE,11,16,13
India,Uttar_Pradesh,Varanasi,"Bhelupur, Varanasi - UPPCB",24-04-2024 09:00:00,25.301778,82.996789,SO2,27,29,28
India,Uttar_Pradesh,Varanasi,"Bhelupur, Varanasi - UPPCB",24-04-2024 09:00:00,25.301778,82.996789,CO,12,40,16
India,Uttar_Pradesh,Varanasi,"Maldahiya, Varanasi - UPPCB",24-04-2024 09:00:00,25.32393,82.99687,PM10,13,39,24
India,Uttar_Pradesh,Vrindavan,"Omex Eternity, Vrindavan - UPPCB",24-04-2024 09:00:00,27.5714090,77.6557570,NH3,1,3,1
India,Uttar_Pradesh,Vrindavan,"Omex Eternity, Vrindavan - UPPCB",24-04-2024 09:00:00,27.5714090,77.6557570,CO,22,40,32
India,Uttarakhand,Kashipur,"Govt. Girls Inter College, Kashipur - UKPCB",24-04-2024 09:00:00,29.2124114,78.9611753,PM2.5,54,149,83
India,Uttarakhand,Kashipur,"Govt. Girls Inter College, Kashipur - UKPCB",24-04-2024 09:00:00,29.2124114,78.9611753,NO2,77,99,87
India,Uttarakhand,Kashipur,"Govt. Girls Inter College, Kashipur - UKPCB",24-04-2024 09:00:00,29.2124114,78.9611753,OZONE,37,96,42
India,West_Bengal,Barrackpore,"SVSPA Campus, Barrackpore - WBPCB",24-04-2024 09:00:00,22.7605581,88.3617589,PM10,NA,NA,NA
India,West_Bengal,Barrackpore,"SVSPA Campus, Barrackpore - WBPCB",24-04-2024 09:00:00,22.7605581,88.3617589,NO2,NA,NA,NA
India,West_Bengal,Durgapur,"PCBL Residential Complex, Durgapur - WBPCB",24-04-2024 09:00:00,23.5087640,87.3544400,SO2,NA,NA,NA
India,West_Bengal,Durgapur,"Sidhu Kanhu Indoor Stadium, Durgapur - WBPCB",24-04-2024 09:00:00,23.5404352,87.2892225,NO2,26,56,40
India,West_Bengal,Haldia,"Priyambada Housing Estate, Haldia - WBPCB",24-04-2024 09:00:00,22.06047,88.109737,NH3,3,5,5
India,West_Bengal,Howrah,"Belur Math, Howrah - WBPCB",24-04-2024 09:00:00,22.629801,88.352017,PM2.5,53,128,79
India,West_Bengal,Howrah,"Belur Math, Howrah - WBPCB",24-04-2024 09:00:00,22.629801,88.352017,OZONE,14,79,35
India,West_Bengal,Howrah,"Ghusuri, Howrah - WBPCB",24-04-2024 09:00:00,22.611968,88.347422,PM10,61,156,100
India,West_Bengal,Howrah,"Ghusuri, Howrah - WBPCB",24-04-2024 09:00:00,22.611968,88.347422,NH3,3,10,4
India,West_Bengal,Howrah,"Padmapukur, Howrah - WBPCB",24-04-2024 09:00:00,22.5687319,88.2797276,NO2,15,104,29
India,West_Bengal,Howrah,"Padmapukur, Howrah - WBPCB",24-04-2024 09:00:00,22.5687319,88.2797276,NH3,6,15,9
India,West_Bengal,Kolkata,"Ballygunge, Kolkata - WBPCB",24-04-2024 09:00:00,22.5367507,88.3638022,CO,12,54,17
India,West_Bengal,Kolkata,"Bidhannagar, Kolkata - WBPCB",24-04-2024 09:00:00,22.58157048,88.41002457,PM2.5,51,148,79
India,West_Bengal,Kolkata,"Bidhannagar, Kolkata - WBPCB",24-04-2024 09:00:00,22.58157048,88.41002457,NO2,24,85,39
India,West_Bengal,Kolkata,"Bidhannagar, Kolkata - WBPCB",24-04-2024 09:00:00,22.58157048,88.41002457,OZONE,19,114,73
India,West_Bengal,Kolkata,"Jadavpur, Kolkata - WBPCB",24-04-2024 09:00:00,22.49929,88.36917,PM2.5,45,86,67
India,West_Bengal,Kolkata,"Rabindra Sarobar, Kolkata - WBPCB",24-04-2024 09:00:00,22.51106,88.35142,NO2,15,86,34
India,West_Bengal,Kolkata,"Victoria, Kolkata - WBPCB",24-04-2024 09:00:00,22.5448082,88.3403691,NH3,4,4,4
India,West_Bengal,Kolkata,"Victoria, Kolkata - WBPCB",24-04-2024 09:00:00,22.5448082,88.3403691,CO,68,106,75
India,Andhra_Pradesh,Anantapur,"Gulzarpet, Anantapur - APPCB",24-04-2024 09:00:00,14.675886,77.593027,PM10,111,139,114
India,Andhra_Pradesh,Anantapur,"Gulzarpet, Anantapur - APPCB",24-04-2024 09:00:00,14.675886,77.593027,NO2,NA,NA,NA
India,Andhra_Pradesh,Chittoor,"Gangineni Cheruvu, Chittoor - APPCB",24-04-2024 09:00:00,13.204880,79.097889,SO2,6,100,33
India,Andhra_Pradesh,Kadapa,"Yerramukkapalli, Kadapa - APPCB",24-04-2024 09:00:00,14.465052,78.824187,PM10,11,156,42
India,Andhra_Pradesh,Tirupati,"Vaikuntapuram, Tirupati - APPCB",24-04-2024 09:00:00,13.615387,79.409230,NH3,2,3,3
India,Andhra_Pradesh,Tirupati,"Vaikuntapuram, Tirupati - APPCB",24-04-2024 09:00:00,13.615387,79.409230,CO,8,15,12
India,Andhra_Pradesh,Vijayawada,"Kanuru, Vijayawada - APPCB",24-04-2024 09:00:00,16.486692,80.699436,SO2,NA,NA,NA
India,Andhra_Pradesh,Vijayawada,"Rajiv Nagar, Vijayawada - APPCB",24-04-2024 09:00:00,16.554731,80.649110,SO2,15,28,21
India,Andhra_Pradesh,Vijayawada,"Rajiv Nagar, Vijayawada - APPCB",24-04-2024 09:00:00,16.554731,80.649110,CO,40,40,40
India,Andhra_Pradesh,Visakhapatnam,"GVM Corporation, Visakhapatnam - APPCB",24-04-2024 09:00:00,17.72,83.3,PM2.5,52,238,97
India,Andhra_Pradesh,Visakhapatnam,"GVM Corporation, Visakhapatnam - APPCB",24-04-2024 09:00:00,17.72,83.3,NH3,3,6,4
India,Andhra_Pradesh,Visakhapatnam,"GVM Corporation, Visakhapatnam - APPCB",24-04-2024 09:00:00,17.72,83.3,OZONE,2,31,16
India,Assam,Byrnihat,"Central Academy for SFS, Byrnihat - PCBA",24-04-2024 09:00:00,26.071318,91.87488,NH3,NA,NA,NA
India,Assam,Guwahati,"IITG, Guwahati - PCBA",24-04-2024 09:00:00,26.2028636,91.70046436,OZONE,2,21,4
India,Assam,Guwahati,"LGBI Airport, Guwahati - PCBA",24-04-2024 09:00:00,26.10887,91.589544,CO,42,80,64
India,Assam,Guwahati,"Railway Colony, Guwahati - PCBA",24-04-2024 09:00:00,26.181742,91.78063,PM2.5,58,348,209
India,Assam,Nagaon,"Christianpatty, Nagaon - PCBA",24-04-2024 09:00:00,26.349082,92.68449,NO2,3,49,15
India,Assam,Nalbari,"Bata Chowk, Nalbari - PCBA",24-04-2024 09:00:00,26.446912,91.439057,NO2,9,52,21
India,Assam,Silchar,"Tarapur, Silchar - PCBA",24-04-2024 09:00:00,24.82827,92.79525,NH3,1,1,1
India,Assam,Silchar,"Tarapur, Silchar - PCBA",24-04-2024 09:00:00,24.82827,92.79525,SO2,1,16,7
India,Bihar,Araria,"Kharahiya Basti, Araria - BSPCB",24-04-2024 09:00:00,26.146529,87.454184,SO2,10,17,14
India,Bihar,Aurangabad,"Gurdeo Nagar, Aurangabad - BSPCB",24-04-2024 09:00:00,24.75746,84.366208,NH3,NA,NA,NA
India,Bihar,Bettiah,"Kamalnath Nagar, Bettiah - BSPCB",24-04-2024 09:00:00,26.80365,84.51954,PM10,75,218,123
India,Bihar,Bettiah,"Kamalnath Nagar, Bettiah - BSPCB",24-04-2024 09:00:00,26.80365,84.51954,NO2,NA,NA,NA
India,Bihar,Bettiah,"Kamalnath Nagar, Bettiah - BSPCB",24-04-2024 09:00:00,26.80365,84.51954,SO2,10,22,15
India,Bihar,Bhagalpur,"DM Office_Kachari Chowk, Bhagalpur - BSPCB",24-04-2024 09:00:00,25.251013,86.989001,PM2.5,NA,NA,NA
India,Bihar,Bhagalpur,"DM Office_Kachari Chowk, Bhagalpur - BSPCB",24-04-2024 09:00:00,25.251013,86.989001,NH3,NA,NA,NA
India,Bihar,Bhagalpur,"Mayaganj, Bhagalpur - BSPCB",24-04-2024 09:00:00,25.265194,87.012947,SO2,3,12,11
India,Bihar,Bhagalpur,"Mayaganj, Bhagalpur - BSPCB",24-04-2024 09:00:00,25.265194,87.012947,CO,8,10,9
India,Bihar,Bihar Sharif,"D M Colony, Bihar Sharif - BSPCB",24-04-2024 09:00:00,25.204762,85.514960,PM10,14,98,53
India,Bihar,Bihar Sharif,"D M Colony, Bihar Sharif - BSPCB",24-04-2024 09:00:00,25.204762,85.514960,NH3,2,2,2
India,Bihar,Chhapra,"Darshan Nagar, Chhapra - BSPCB",24-04-2024 09:00:00,25.7808257,84.7446768,PM10,70,138,104
India,Bihar,Gaya,"SFTI Kusdihra, Gaya - BSPCB",24-04-2024 09:00:00,24.762518,84.982348,PM10,48,88,66
India,Bihar,Gaya,"SFTI Kusdihra, Gaya - BSPCB",24-04-2024 09:00:00,24.762518,84.982348,NO2,19,82,46
India,Bihar,Hajipur,"Industrial Area, Hajipur - BSPCB",24-04-2024 09:00:00,25.697189,85.245900,PM2.5,48,220,91
India,Bihar,Katihar,"Mirchaibari, Katihar - BSPCB",24-04-2024 09:00:00,25.560083,87.553265,PM2.5,18,68,35
India,Bihar,Katihar,"Mirchaibari, Katihar - BSPCB",24-04-2024 09:00:00,25.560083,87.553265,CO,44,60,51
India,Bihar,Kishanganj,"SDM Office_Khagra, Kishanganj - BSPCB",24-04-2024 09:00:00,26.0881305,87.93840336,NH3,9,10,9
India,Bihar,Kishanganj,"SDM Office_Khagra, Kishanganj - BSPCB",24-04-2024 09:00:00,26.0881305,87.93840336,CO,4,7,4
India,Bihar,Muzaffarpur,"Buddha Colony, Muzaffarpur - BSPCB",24-04-2024 09:00:00,26.11442,85.39813,PM10,152,281,196
India,Bihar,Muzaffarpur,"Buddha Colony, Muzaffarpur - BSPCB",24-04-2024 09:00:00,26.11442,85.39813,NH3,14,26,20
India,Bihar,Muzaffarpur,"Muzaffarpur Collectorate, Muzaffarpur - BSPCB",24-04-2024 09:00:00,26.1209,85.3647,NO2,3,278,65
India,Bihar,Patna,"DRM Office Danapur, Patna - BSPCB",24-04-2024 09:00:00,25.586562,85.043586,PM10,102,164,124
India,Bihar,Patna,"DRM Office Danapur, Patna - BSPCB",24-04-2024 09:00:00,25.586562,85.043586,NO2,7,103,36
India,Bihar,Patna,"IGSC Planetarium Complex, Patna - BSPCB",24-04-2024 09:00:00,25.610369,85.132568,PM2.5,42,313,118
India,Bihar,Patna,"IGSC Planetarium Complex, Patna - BSPCB",24-04-2024 09:00:00,25.610369,85.132568,OZONE,28,53,50
India,Bihar,Patna,"Muradpur, Patna - BSPCB",24-04-2024 09:00:00,25.619651,85.147382,PM2.5,113,344,295
India,Bihar,Patna,"Muradpur, Patna - BSPCB",24-04-2024 09:00:00,25.619651,85.147382,NO2,10,23,14
India,Bihar,Patna,"Muradpur, Patna - BSPCB",24-04-2024 09:00:00,25.619651,85.147382,CO,7,109,13
India,Bihar,Patna,"Rajbansi Nagar, Patna - BSPCB",24-04-2024 09:00:00,25.599486,85.113666,PM10,119,173,143
India,Bihar,Patna,"Rajbansi Nagar, Patna - BSPCB",24-04-2024 09:00:00,25.599486,85.113666,NO2,14,42,22
India,Bihar,Patna,"Rajbansi Nagar, Patna - BSPCB",24-04-2024 09:00:00,25.599486,85.113666,CO,26,103,31
India,Bihar,Patna,"Samanpura, Patna - BSPCB",24-04-2024 09:00:00,25.596727,85.085624,PM10,112,474,226
India,Bihar,Purnia,"Mariam Nagar, Purnia - BSPCB",24-04-2024 09:00:00,25.366336,87.117468,NO2,5,11,8
India,Bihar,Rajgir,"Dangi Tola, Rajgir - BSPCB",24-04-2024 09:00:00,25.03280,85.41948,SO2,NA,NA,NA
India,Bihar,Rajgir,"Dangi Tola, Rajgir - BSPCB",24-04-2024 09:00:00,25.03280,85.41948,OZONE,NA,NA,NA
India,Bihar,Saharsa,"Police Line, Saharsa - BSPCB",24-04-2024 09:00:00,25.892357,86.590325,PM10,NA,NA,NA
India,Bihar,Saharsa,"Police Line, Saharsa - BSPCB",24-04-2024 09:00:00,25.892357,86.590325,NO2,6,8,7
India,Bihar,Saharsa,"Police Line, Saharsa - BSPCB",24-04-2024 09:00:00,25.892357,86.590325,CO,47,56,55
India,Bihar,Sasaram,"Dada Peer, Sasaram - BSPCB",24-04-2024 09:00:00,24.952822,84.002396,PM2.5,22,62,35
India,Bihar,Sasaram,"Dada Peer, Sasaram - BSPCB",24-04-2024 09:00:00,24.952822,84.002396,CO,60,87,79
India,Bihar,Siwan,"Chitragupta Nagar, Siwan - BSPCB",24-04-2024 09:00:00,26.2271665,84.3570427,NO2,14,39,25
India,Bihar,Siwan,"Chitragupta Nagar, Siwan - BSPCB",24-04-2024 09:00:00,26.2271665,84.3570427,NH3,1,4,2
India,Bihar,Siwan,"Chitragupta Nagar, Siwan - BSPCB",24-04-2024 09:00:00,26.2271665,84.3570427,CO,48,128,106
India,Chandigarh,Chandigarh,"Sector 22, Chandigarh - CPCC",24-04-2024 09:00:00,30.735567,76.775714,PM2.5,22,90,45
India,Chandigarh,Chandigarh,"Sector 22, Chandigarh - CPCC",24-04-2024 09:00:00,30.735567,76.775714,SO2,5,16,9
India,Chandigarh,Chandigarh,"Sector 22, Chandigarh - CPCC",24-04-2024 09:00:00,30.735567,76.775714,OZONE,3,137,55
India,Chandigarh,Chandigarh,"Sector-25, Chandigarh - CPCC",24-04-2024 09:00:00,30.751462,76.762879,OZONE,1,29,4
India,Chhattisgarh,Bhilai,"32Bungalows, Bhilai - CECB",24-04-2024 09:00:00,21.194815,81.314770,OZONE,6,53,7
India,Chhattisgarh,Bhilai,"Hathkhoj, Bhilai - CECB",24-04-2024 09:00:00,21.224231,81.408350,CO,10,110,33
India,Chhattisgarh,Bilaspur,"Mangala, Bilaspur - NTPC",24-04-2024 09:00:00,22.08815,82.13737,PM2.5,21,77,38
India,Chhattisgarh,Bilaspur,"Mangala, Bilaspur - NTPC",24-04-2024 09:00:00,22.08815,82.13737,SO2,9,19,15
India,Chhattisgarh,Chhal,"Nawapara SECL Colony, Chhal - CECB",24-04-2024 09:00:00,22.118125,83.140608,CO,22,108,39
India,Chhattisgarh,Korba,"Urja Nagar, Korba - CECB",24-04-2024 09:00:00,22.348441,82.549611,PM10,NA,NA,NA
India,Chhattisgarh,Raipur,"AIIMS, Raipur - CECB",24-04-2024 09:00:00,21.258815,81.578979,SO2,4,21,9
India,Chhattisgarh,Raipur,"Bhatagaon New ISBT, Raipur - CECB",24-04-2024 09:00:00,21.219665,81.630094,PM2.5,1,65,29
India,Chhattisgarh,Raipur,"Bhatagaon New ISBT, Raipur - CECB",24-04-2024 09:00:00,21.219665,81.630094,PM10,7,122,50
India,Chhattisgarh,Raipur,"Bhatagaon New ISBT, Raipur - CECB",24-04-2024 09:00:00,21.219665,81.630094,NO2,28,49,36
India,Chhattisgarh,Raipur,"Bhatagaon New ISBT, Raipur - CECB",24-04-2024 09:00:00,21.219665,81.630094,CO,16,104,28
India,Chhattisgarh,Raipur,"Bhatagaon New ISBT, Raipur - CECB",24-04-2024 09:00:00,21.219665,81.630094,OZONE,3,17,4
India,Chhattisgarh,Raipur,"Siltara Phase-II, Raipur - CECB",24-04-2024 09:00:00,21.371751,81.664929,NO2,37,84,44
India,Chhattisgarh,Tumidih,"OP Jindal Industrial Park, Tumidih - CECB",24-04-2024 09:00:00,22.06631475,83.33820077,PM10,21,91,56
India,Delhi,Delhi,"Alipur, Delhi - DPCC",24-04-2024 09:00:00,28.815329,77.153010,PM2.5,20,430,161
India,Delhi,Delhi,"Anand Vihar, Delhi - DPCC",24-04-2024 09:00:00,28.647622,77.3158090,NH3,5,14,9
India,Delhi,Delhi,"Aya Nagar, Delhi - IMD",24-04-2024 09:00:00,28.4706914,77.1099364,PM2.5,NA,NA,NA
India,Delhi,Delhi,"Bawana, Delhi - DPCC",24-04-2024 09:00:00,28.776200,77.051074,NH3,5,8,6
India,Delhi,Delhi,"Burari Crossing, Delhi - IMD",24-04-2024 09:00:00,28.7256504,77.2011573,CO,11,61,56
India,Delhi,Delhi,"CRRI Mathura Road, Delhi - IMD",24-04-2024 09:00:00,28.5512005,77.2735737,PM10,NA,NA,NA
India,Delhi,Delhi,"CRRI Mathura Road, Delhi - IMD",24-04-2024 09:00:00,28.5512005,77.2735737,NO2,NA,NA,NA
India,Delhi,Delhi,"Chandni Chowk, Delhi - IITM",24-04-2024 09:00:00,28.656756,77.227234,PM10,93,250,155
India,Delhi,Delhi,"Chandni Chowk, Delhi - IITM",24-04-2024 09:00:00,28.656756,77.227234,CO,38,50,45
India,Delhi,Delhi,"DTU, Delhi - CPCB",24-04-2024 09:00:00,28.7500499,77.1112615,SO2,33,42,36
India,Delhi,Delhi,"IGI Airport (T3), Delhi - IMD",24-04-2024 09:00:00,28.5627763,77.1180053,PM2.5,30,338,143
India,Delhi,Delhi,"IHBAS, Dilshad Garden, Delhi - CPCB",24-04-2024 09:00:00,28.6811736,77.3025234,PM10,94,448,156
India,Delhi,Delhi,"ITO, Delhi - CPCB",24-04-2024 09:00:00,28.628624,77.241060,NH3,2,8,4
India,Delhi,Delhi,"ITO, Delhi - CPCB",24-04-2024 09:00:00,28.628624,77.241060,CO,45,108,74
India,Delhi,Delhi,"Jawaharlal Nehru Stadium, Delhi - DPCC",24-04-2024 09:00:00,28.580280,77.233829,SO2,6,42,20
India,Delhi,Delhi,"Lodhi Road, Delhi - IITM",24-04-2024 09:00:00,28.588333,77.221667,PM10,NA,NA,NA
India,Delhi,Delhi,"Lodhi Road, Delhi - IMD",24-04-2024 09:00:00,28.5918245,77.2273074,PM2.5,7,246,77
India,Delhi,Delhi,"Lodhi Road, Delhi - IMD",24-04-2024 09:00:00,28.5918245,77.2273074,NO2,5,16,10
India,Delhi,Delhi,"Lodhi Road, Delhi - IMD",24-04-2024 09:00:00,28.5918245,77.2273074,OZONE,1,99,1
India,Delhi,Delhi,"Major Dhyan Chand National Stadium, Delhi - DPCC",24-04-2024 09:00:00,28.611281,77.237738,NH3,8,12,9
India,Delhi,Delhi,"Mandir Marg, Delhi - DPCC",24-04-2024 09:00:00,28.636429,77.201067,NH3,4,8,6
India,Delhi,Delhi,"Mandir Marg, Delhi - DPCC",24-04-2024 09:00:00,28.636429,77.201067,CO,2,60,46
India,Delhi,Delhi,"Mundka, Delhi - DPCC",24-04-2024 09:00:00,28.684678,77.076574,PM2.5,18,440,187
India,Delhi,Delhi,"Mundka, Delhi - DPCC",24-04-2024 09:00:00,28.684678,77.076574,PM10,33,500,261
India,Delhi,Delhi,"Mundka, Delhi - DPCC",24-04-2024 09:00:00,28.684678,77.076574,NO2,20,126,69
India,Delhi,Delhi,"Mundka, Delhi - DPCC",24-04-2024 09:00:00,28.684678,77.076574,CO,35,102,93
India,Delhi,Delhi,"Mundka, Delhi - DPCC",24-04-2024 09:00:00,28.684678,77.076574,OZONE,10,104,17
India,Delhi,Delhi,"NSIT Dwarka, Delhi - CPCB",24-04-2024 09:00:00,28.60909,77.0325413,NO2,17,44,32
India,Delhi,Delhi,"NSIT Dwarka, Delhi - CPCB",24-04-2024 09:00:00,28.60909,77.0325413,NH3,10,21,16
India,Delhi,Delhi,"Najafgarh, Delhi - DPCC",24-04-2024 09:00:00,28.570173,76.933762,NO2,24,102,58
India,Delhi,Delhi,"Narela, Delhi - DPCC",24-04-2024 09:00:00,28.822836,77.101981,PM10,103,483,258
India,Delhi,Delhi,"Nehru Nagar, Delhi - DPCC",24-04-2024 09:00:00,28.567890,77.250515,SO2,4,7,5
India,Delhi,Delhi,"New Moti Bagh, Delhi - MHUA",24-04-2024 09:00:00,28.57834,77.18400,CO,27,100,77
India,Delhi,Delhi,"North Campus, DU, Delhi - IMD",24-04-2024 09:00:00,28.6573814,77.1585447,NO2,13,48,28
India,Delhi,Delhi,"Okhla Phase-2, Delhi - DPCC",24-04-2024 09:00:00,28.530785,77.271255,NO2,32,111,78
India,Delhi,Delhi,"Patparganj, Delhi - DPCC",24-04-2024 09:00:00,28.623763,77.287209,CO,44,108,85
India,Delhi,Delhi,"Punjabi Bagh, Delhi - DPCC",24-04-2024 09:00:00,28.674045,77.131023,NO2,41,74,55
India,Delhi,Delhi,"Pusa, Delhi - DPCC",24-04-2024 09:00:00,28.639652,77.146275,PM2.5,22,237,83
India,Delhi,Delhi,"Pusa, Delhi - DPCC",24-04-2024 09:00:00,28.639652,77.146275,NH3,5,9,7
India,Delhi,Delhi,"Pusa, Delhi - DPCC",24-04-2024 09:00:00,28.639652,77.146275,OZONE,10,129,10
India,Delhi,Delhi,"Pusa, Delhi - IMD",24-04-2024 09:00:00,28.636110,77.173332,CO,83,104,103
India,Delhi,Delhi,"R K Puram, Delhi - DPCC",24-04-2024 09:00:00,28.563262,77.186937,SO2,14,49,30
India,Delhi,Delhi,"Shadipur, Delhi - CPCB",24-04-2024 09:00:00,28.6514781,77.1473105,PM10,113,500,204
India,Delhi,Delhi,"Shadipur, Delhi - CPCB",24-04-2024 09:00:00,28.6514781,77.1473105,NO2,47,83,64
India,Delhi,Delhi,"Shadipur, Delhi - CPCB",24-04-2024 09:00:00,28.6514781,77.1473105,NH3,6,10,8
India,Delhi,Delhi,"Sirifort, Delhi - CPCB",24-04-2024 09:00:00,28.5504249,77.2159377,OZONE,12,146,16
India,Delhi,Delhi,"Sonia Vihar, Delhi - DPCC",24-04-2024 09:00:00,28.710508,77.249485,NO2,15,104,53
India,Delhi,Delhi,"Sonia Vihar, Delhi - DPCC",24-04-2024 09:00:00,28.710508,77.249485,OZONE,7,172,11
India,Delhi,Delhi,"Sri Aurobindo Marg, Delhi - DPCC",24-04-2024 09:00:00,28.531346,77.190156,NO2,17,95,39
India,Delhi,Delhi,"Vivek Vihar, Delhi - DPCC",24-04-2024 09:00:00,28.672342,77.315260,PM2.5,33,314,123
India,Delhi,Delhi,"Vivek Vihar, Delhi - DPCC",24-04-2024 09:00:00,28.672342,77.315260,SO2,27,47,36
India,Delhi,Delhi,"Vivek Vihar, Delhi - DPCC",24-04-2024 09:00:00,28.672342,77.315260,CO,12,79,54
India,Delhi,Delhi,"Wazirpur, Delhi - DPCC",24-04-2024 09:00:00,28.699793,77.165453,NH3,12,13,12
India,Gujarat,Ahmedabad,"Chandkheda, Ahmedabad - IITM",24-04-2024 09:00:00,23.107969,72.574648,PM2.5,50,200,98
India,Gujarat,Ahmedabad,"Gyaspur, Ahmedabad - IITM",24-04-2024 09:00:00,22.977134,72.553024,NO2,19,62,42
India,Gujarat,Ahmedabad,"Maninagar, Ahmedabad - GPCB",24-04-2024 09:00:00,23.002657,72.591912,PM2.5,NA,NA,NA
India,Gujarat,Ahmedabad,"Maninagar, Ahmedabad - GPCB",24-04-2024 09:00:00,23.002657,72.591912,SO2,NA,NA,NA
India,Gujarat,Ahmedabad,"Raikhad, Ahmedabad - IITM",24-04-2024 09:00:00,23.020509,72.579261,NO2,41,57,46
India,Gujarat,Ahmedabad,"Rakhial, Ahmedabad - IITM",24-04-2024 09:00:00,23.016834,72.625775,OZONE,5,38,23
India,Gujarat,Ahmedabad,"SAC ISRO Satellite, Ahmedabad - IITM",24-04-2024 09:00:00,23.023389,72.515201,NO2,17,17,17
India,Gujarat,Ahmedabad,"SVPI Airport Hansol, Ahmedabad - IITM",24-04-2024 09:00:00,23.076793,72.627874,CO,11,115,42
India,Gujarat,Ahmedabad,"Sardar Vallabhbhai Patel Stadium, Ahmedabad - IITM",24-04-2024 09:00:00,23.043070,72.562968,PM2.5,67,158,100
India,Gujarat,Ahmedabad,"Sardar Vallabhbhai Patel Stadium, Ahmedabad - IITM",24-04-2024 09:00:00,23.043070,72.562968,PM10,80,130,104
India,Gujarat,Ahmedabad,"Sardar Vallabhbhai Patel Stadium, Ahmedabad - IITM",24-04-2024 09:00:00,23.043070,72.562968,NH3,7,9,9
India,Gujarat,Ahmedabad,"Sardar Vallabhbhai Patel Stadium, Ahmedabad - IITM",24-04-2024 09:00:00,23.043070,72.562968,SO2,5,24,12
India,Gujarat,Ankleshwar,"GIDC, Ankleshwar - GPCB",24-04-2024 09:00:00,21.613267,73.010555,PM10,50,89,70
India,Gujarat,Ankleshwar,"GIDC, Ankleshwar - GPCB",24-04-2024 09:00:00,21.613267,73.010555,NO2,32,33,32
India,Gujarat,Gandhinagar,"IIPHG Lekawada, Gandhinagar - IITM",24-04-2024 09:00:00,23.243639,72.68994,PM2.5,NA,NA,NA
India,Gujarat,Gandhinagar,"IIPHG Lekawada, Gandhinagar - IITM",24-04-2024 09:00:00,23.243639,72.68994,PM10,NA,NA,NA
India,Gujarat,Gandhinagar,"IIPHG Lekawada, Gandhinagar - IITM",24-04-2024 09:00:00,23.243639,72.68994,CO,NA,NA,NA
India,Gujarat,Gandhinagar,"Sector-10, Gandhinagar - GPCB",24-04-2024 09:00:00,23.221714,72.654328,PM2.5,28,64,45
India,Gujarat,Gandhinagar,"Sector-10, Gandhinagar - GPCB",24-04-2024 09:00:00,23.221714,72.654328,PM10,34,102,62
India,Gujarat,Gandhinagar,"Sector-10, Gandhinagar - GPCB",24-04-2024 09:00:00,23.221714,72.654328,SO2,5,6,5
India,Gujarat,Nandesari,"GIDC, Nandesari - Nandesari Ind. Association",24-04-2024 09:00:00,22.410802,73.097923,PM2.5,68,335,195
India,Gujarat,Surat,"Science Center, Surat - SMC",24-04-2024 09:00:00,21.170046,72.795405,PM2.5,2,25,10
India,Gujarat,Surat,"Science Center, Surat - SMC",24-04-2024 09:00:00,21.170046,72.795405,SO2,1,7,4
India,Gujarat,Vatva,"Phase-4 GIDC, Vatva - GPCB",24-04-2024 09:00:00,22.969611,72.643500,NH3,NA,NA,NA
India,Haryana,Ambala,"Patti Mehar, Ambala - HSPCB",24-04-2024 09:00:00,30.379589,76.778328,OZONE,31,52,36
India,Haryana,Bahadurgarh,"Arya Nagar, Bahadurgarh - HSPCB",24-04-2024 09:00:00,28.6701,76.9254,PM10,58,249,157
India,Haryana,Bahadurgarh,"Arya Nagar, Bahadurgarh - HSPCB",24-04-2024 09:00:00,28.6701,76.9254,NH3,8,10,9
India,Haryana,Ballabgarh,"Nathu Colony, Ballabgarh - HSPCB",24-04-2024 09:00:00,28.3419248,77.319699,NH3,1,2,2
India,Haryana,Ballabgarh,"Nathu Colony, Ballabgarh - HSPCB",24-04-2024 09:00:00,28.3419248,77.319699,SO2,1,129,20
India,Haryana,Bhiwani,"H.B. Colony, Bhiwani - HSPCB",24-04-2024 09:00:00,28.806223,76.141105,SO2,1,77,11
India,Haryana,Charkhi Dadri,"Mini Secretariat, Charkhi Dadri - HSPCB",24-04-2024 09:00:00,28.593883,76.270653,NH3,6,8,7
India,Haryana,Dharuhera,"Municipal Corporation Office, Dharuhera -  HSPCB",24-04-2024 09:00:00,28.206800,76.799700,PM10,83,500,160
India,Haryana,Dharuhera,"Municipal Corporation Office, Dharuhera -  HSPCB",24-04-2024 09:00:00,28.206800,76.799700,NH3,9,26,18
India,Haryana,Faridabad,"Sector 11, Faridabad - HSPCB",24-04-2024 09:00:00,28.376058,77.315741,PM10,63,401,182
India,Haryana,Faridabad,"Sector 11, Faridabad - HSPCB",24-04-2024 09:00:00,28.376058,77.315741,SO2,2,117,12
India,Haryana,Faridabad,"Sector- 16A, Faridabad - HSPCB",24-04-2024 09:00:00,28.4088421,77.3099081,PM2.5,NA,NA,NA
India,Haryana,Faridabad,"Sector- 16A, Faridabad - HSPCB",24-04-2024 09:00:00,28.4088421,77.3099081,SO2,NA,NA,NA
India,Haryana,Fatehabad,"Huda Sector, Fatehabad - HSPCB",24-04-2024 09:00:00,29.503664,75.467934,CO,6,12,8
India,Haryana,Gurugram,"Sector-51, Gurugram - HSPCB",24-04-2024 09:00:00,28.4227,77.0667,NO2,13,29,23
India,Haryana,Gurugram,"Sector-51, Gurugram - HSPCB",24-04-2024 09:00:00,28.4227,77.0667,NH3,7,14,9
India,Haryana,Gurugram,"Sector-51, Gurugram - HSPCB",24-04-2024 09:00:00,28.4227,77.0667,CO,35,77,60
India,Haryana,Gurugram,"Teri Gram, Gurugram - HSPCB",24-04-2024 09:00:00,28.4275,77.1465,PM2.5,2,321,119
India,Haryana,Gurugram,"Teri Gram, Gurugram - HSPCB",24-04-2024 09:00:00,28.4275,77.1465,NO2,23,57,32
India,Haryana,Gurugram,"Vikas Sadan, Gurugram - HSPCB",24-04-2024 09:00:00,28.4501238,77.0263051,CO,67,151,101
India,Haryana,Hisar,"Urban Estate-II, Hisar - HSPCB",24-04-2024 09:00:00,29.140560,75.744941,NH3,7,13,10
India,Haryana,Hisar,"Urban Estate-II, Hisar - HSPCB",24-04-2024 09:00:00,29.140560,75.744941,CO,25,54,39
India,Haryana,Jind,"Police Lines, Jind - HSPCB",24-04-2024 09:00:00,29.307814,76.337619,PM10,NA,NA,NA
India,Haryana,Jind,"Police Lines, Jind - HSPCB",24-04-2024 09:00:00,29.307814,76.337619,NO2,NA,NA,NA
India,Haryana,Kaithal,"Rishi Nagar, Kaithal - HSPCB",24-04-2024 09:00:00,29.8006,76.4155,CO,12,43,31
India,Haryana,Kurukshetra,"Sector-7, Kurukshetra - HSPCB",24-04-2024 09:00:00,29.966942,76.875879,PM10,27,252,117
India,Haryana,Kurukshetra,"Sector-7, Kurukshetra - HSPCB",24-04-2024 09:00:00,29.966942,76.875879,NH3,3,5,5
India,Haryana,Narnaul,"Shastri Nagar, Narnaul - HSPCB",24-04-2024 09:00:00,28.060249,76.113115,PM2.5,44,323,107
India,Haryana,Narnaul,"Shastri Nagar, Narnaul - HSPCB",24-04-2024 09:00:00,28.060249,76.113115,OZONE,25,61,56
India,Haryana,Palwal,"Shyam Nagar, Palwal - HSPCB",24-04-2024 09:00:00,28.1485564,77.3320667,OZONE,9,56,19
India,Haryana,Panchkula,"Sector-6, Panchkula - HSPCB ",24-04-2024 09:00:00,30.7057778,76.8531805555555,CO,2,18,17
India,Haryana,Panipat,"Sector-18, Panipat - HSPCB",24-04-2024 09:00:00,29.497973,76.993331,NO2,31,32,31
India,Haryana,Panipat,"Sector-18, Panipat - HSPCB",24-04-2024 09:00:00,29.497973,76.993331,SO2,18,19,19
India,Haryana,Panipat,"Sector-18, Panipat - HSPCB",24-04-2024 09:00:00,29.497973,76.993331,CO,24,26,25
India,Haryana,Rohtak,"MD University, Rohtak - HSPCB",24-04-2024 09:00:00,28.52123,76.37138,PM2.5,16,500,123
India,Haryana,Rohtak,"MD University, Rohtak - HSPCB",24-04-2024 09:00:00,28.52123,76.37138,SO2,6,8,7
India,Haryana,Sirsa,"F-Block, Sirsa - HSPCB",24-04-2024 09:00:00,29.536400,75.015800,CO,56,80,69
India,Haryana,Yamuna Nagar,"Gobind Pura, Yamuna Nagar - HSPCB",24-04-2024 09:00:00,30.1480566,77.2893471,CO,27,108,37
India,Himachal Pradesh,Baddi,"HIMUDA Complex Phase-1, Baddi - HPPCB",24-04-2024 09:00:00,30.943887,76.801991,PM10,29,210,71
India,Himachal Pradesh,Baddi,"HIMUDA Complex Phase-1, Baddi - HPPCB",24-04-2024 09:00:00,30.943887,76.801991,SO2,7,50,16
India,Himachal Pradesh,Baddi,"HIMUDA Complex Phase-1, Baddi - HPPCB",24-04-2024 09:00:00,30.943887,76.801991,OZONE,80,154,104
India,Jharkhand,Dhanbad,"Kalakusuma, Dhanbad - DMC",24-04-2024 09:00:00,23.811548,86.481238,SO2,NA,NA,NA
India,Jharkhand,Dhanbad,"Sardar Patel Nagar, Dhanbad - JSPCB",24-04-2024 09:00:00,23.80569,86.44268,PM2.5,NA,NA,NA
India,Jharkhand,Dhanbad,"Sardar Patel Nagar, Dhanbad - JSPCB",24-04-2024 09:00:00,23.80569,86.44268,NO2,NA,NA,NA
India,Karnataka,Bagalkot,"Vidayagiri, Bagalkot - KSPCB",24-04-2024 09:00:00,16.172806,75.659694,NO2,9,10,9
India,Karnataka,Belgaum,"Ramteerth Nagar, Belgaum - KSPCB",24-04-2024 09:00:00,15.888653,74.541751,PM10,32,78,49
India,Karnataka,Belgaum,"Ramteerth Nagar, Belgaum - KSPCB",24-04-2024 09:00:00,15.888653,74.541751,SO2,8,9,9
India,Karnataka,Bengaluru,"BTM Layout, Bengaluru - CPCB",24-04-2024 09:00:00,12.9135218,77.5950804,PM2.5,33,50,40
India,Karnataka,Bengaluru,"Bapuji Nagar, Bengaluru - KSPCB",24-04-2024 09:00:00,12.951913,77.539784,SO2,5,10,7
India,Karnataka,Bengaluru,"Hombegowda Nagar, Bengaluru - KSPCB",24-04-2024 09:00:00,12.938539,77.590100,CO,20,32,25
India,Karnataka,Bengaluru,"Hombegowda Nagar, Bengaluru - KSPCB",24-04-2024 09:00:00,12.938539,77.590100,OZONE,8,55,18
India,Karnataka,Bengaluru,"Jayanagar 5th Block, Bengaluru - KSPCB",24-04-2024 09:00:00,12.920984,77.584908,NH3,3,4,3
India,Karnataka,Bengaluru,"Kasturi Nagar, Bengaluru - KSPCB",24-04-2024 09:00:00,13.003872,77.664217,PM10,60,378,111
India,Karnataka,Bengaluru,"Kasturi Nagar, Bengaluru - KSPCB",24-04-2024 09:00:00,13.003872,77.664217,NH3,3,4,4
India,Karnataka,Bengaluru,"Kasturi Nagar, Bengaluru - KSPCB",24-04-2024 09:00:00,13.003872,77.664217,SO2,10,10,10
India,Karnataka,Bengaluru,"Peenya, Bengaluru - CPCB",24-04-2024 09:00:00,13.0270199,77.494094,PM2.5,55,72,63
India,Karnataka,Bengaluru,"RVCE-Mailasandra, Bengaluru - KSPCB",24-04-2024 09:00:00,12.921418,77.502466,PM2.5,31,97,69
India,Karnataka,Bengaluru,"Sanegurava Halli, Bengaluru - KSPCB",24-04-2024 09:00:00,12.990328,77.5431385,PM10,36,70,49
India,Karnataka,Bengaluru,"Shivapura_Peenya, Bengaluru - KSPCB",24-04-2024 09:00:00,13.0246342,77.5080115,NO2,15,16,15
India,Karnataka,Bengaluru,"Shivapura_Peenya, Bengaluru - KSPCB",24-04-2024 09:00:00,13.0246342,77.5080115,SO2,3,71,24
India,Karnataka,Chamarajanagar,"Urban, Chamarajanagar - KSPCB",24-04-2024 09:00:00,11.55358,76.55521,SO2,2,8,6
India,Karnataka,Chamarajanagar,"Urban, Chamarajanagar - KSPCB",24-04-2024 09:00:00,11.55358,76.55521,OZONE,17,29,20
India,Karnataka,Chikkamagaluru,"Kalyana Nagara, Chikkamagaluru - KSPCB",24-04-2024 09:00:00,13.328028,75.797056,PM2.5,44,67,53
India,Karnataka,Chikkamagaluru,"Kalyana Nagara, Chikkamagaluru - KSPCB",24-04-2024 09:00:00,13.328028,75.797056,NO2,16,35,27
