country,state,city,station,last_update,latitude,longitude,pollutant_id,pollutant_min,pollutant_max,pollutant_avg
India,Andhra_Pradesh,Amaravati,"Secretariat, Amaravati - APPCB",10-05-2024 20:00:00,16.5150833,80.5181667,NO2,5,31,12
India,Andhra_Pradesh,Amaravati,"Secretariat, Amaravati - APPCB",10-05-2024 20:00:00,16.5150833,80.5181667,OZONE,1,43,24
India,Andhra_Pradesh,Anantapur,"Gulzarpet, Anantapur - APPCB",10-05-2024 20:00:00,14.675886,77.593027,NO2,12,13,12
India,Andhra_Pradesh,Chittoor,"Gangineni Cheruvu, Chittoor - APPCB",10-05-2024 20:00:00,13.204880,79.097889,NO2,NA,NA,NA
India,Andhra_Pradesh,Chittoor,"Gangineni Cheruvu, Chittoor - APPCB",10-05-2024 20:00:00,13.204880,79.097889,OZONE,71,71,71
India,Andhra_Pradesh,Rajamahendravaram,"Anand Kala Kshetram, Rajamahendravaram - APPCB",10-05-2024 20:00:00,16.9872867,81.7363176,PM2.5,2,41,16
India,Andhra_Pradesh,Rajamahendravaram,"Anand Kala Kshetram, Rajamahendravaram - APPCB",10-05-2024 20:00:00,16.9872867,81.7363176,OZONE,24,57,48
India,Andhra_Pradesh,Tirupati,"Tirumala, Tirupati - APPCB",10-05-2024 20:00:00,13.67,79.35,NO2,13,31,21
India,Andhra_Pradesh,Tirupati,"Vaikuntapuram, Tirupati - APPCB",10-05-2024 20:00:00,13.615387,79.409230,PM10,13,296,74
India,Andhra_Pradesh,Vijayawada,"HB Colony, Vijayawada - APPCB",10-05-2024 20:00:00,16.536107,80.594233,PM2.5,35,491,239
India,Andhra_Pradesh,Vijayawada,"Kanuru, Vijayawada - APPCB",10-05-2024 20:00:00,16.486692,80.699436,CO,39,39,39
India,Andhra_Pradesh,Vijayawada,"Kanuru, Vijayawada - APPCB",10-05-2024 20:00:00,16.486692,80.699436,OZONE,29,29,29
India,Andhra_Pradesh,Vijayawada,"Rajiv Gandhi Park, Vijayawada - APPCB",10-05-2024 20:00:00,16.509717,80.612222,NO2,39,74,52
India,Andhra_Pradesh,Vijayawada,"Rajiv Gandhi Park, Vijayawada - APPCB",10-05-2024 20:00:00,16.509717,80.612222,SO2,6,12,8
India,Andhra_Pradesh,Vijayawada,"Rajiv Nagar, Vijayawada - APPCB",10-05-2024 20:00:00,16.554731,80.649110,PM10,60,64,61
India,Andhra_Pradesh,Vijayawada,"Rajiv Nagar, Vijayawada - APPCB",10-05-2024 20:00:00,16.554731,80.649110,SO2,13,17,15
India,Andhra_Pradesh,Visakhapatnam,"GVM Corporation, Visakhapatnam - APPCB",10-05-2024 20:00:00,17.72,83.3,PM2.5,18,78,36
India,Assam,Guwahati,"LGBI Airport, Guwahati - PCBA",10-05-2024 20:00:00,26.10887,91.589544,OZONE,1,51,21
India,Assam,Guwahati,"Pan Bazaar, Guwahati - PCBA",10-05-2024 20:00:00,26.187500,91.744194,PM2.5,13,39,21
India,Assam,Guwahati,"Pan Bazaar, Guwahati - PCBA",10-05-2024 20:00:00,26.187500,91.744194,CO,18,30,22
India,Assam,Nagaon,"Christianpatty, Nagaon - PCBA",10-05-2024 20:00:00,26.349082,92.68449,PM10,58,83,70
India,Assam,Sivasagar,"Girls College, Sivasagar - PCBA",10-05-2024 20:00:00,26.987634,94.636574,NH3,2,2,2
India,Assam,Sivasagar,"Girls College, Sivasagar - PCBA",10-05-2024 20:00:00,26.987634,94.636574,OZONE,1,7,4
India,Bihar,Araria,"Kharahiya Basti, Araria - BSPCB",10-05-2024 20:00:00,26.146529,87.454184,PM2.5,9,57,29
India,Bihar,Araria,"Kharahiya Basti, Araria - BSPCB",10-05-2024 20:00:00,26.146529,87.454184,NO2,2,177,15
India,Bihar,Araria,"Kharahiya Basti, Araria - BSPCB",10-05-2024 20:00:00,26.146529,87.454184,SO2,7,18,12
India,Bihar,Arrah,"New DM Office, Arrah - BSPCB",10-05-2024 20:00:00,25.5626095,84.663264,PM10,NA,NA,NA
India,Bihar,Aurangabad,"Gurdeo Nagar, Aurangabad - BSPCB",10-05-2024 20:00:00,24.75746,84.366208,NH3,6,16,11
India,Bihar,Aurangabad,"Gurdeo Nagar, Aurangabad - BSPCB",10-05-2024 20:00:00,24.75746,84.366208,SO2,16,22,20
India,Bihar,Aurangabad,"Gurdeo Nagar, Aurangabad - BSPCB",10-05-2024 20:00:00,24.75746,84.366208,CO,8,56,24
India,Bihar,Bettiah,"Kamalnath Nagar, Bettiah - BSPCB",10-05-2024 20:00:00,26.80365,84.51954,CO,61,88,65
India,Bihar,Bhagalpur,"DM Office_Kachari Chowk, Bhagalpur - BSPCB",10-05-2024 20:00:00,25.251013,86.989001,NO2,37,70,59
India,Bihar,Bhagalpur,"DM Office_Kachari Chowk, Bhagalpur - BSPCB",10-05-2024 20:00:00,25.251013,86.989001,NH3,5,9,8
India,Bihar,Bhagalpur,"DM Office_Kachari Chowk, Bhagalpur - BSPCB",10-05-2024 20:00:00,25.251013,86.989001,CO,24,68,36
India,Bihar,Bihar Sharif,"D M Colony, Bihar Sharif - BSPCB",10-05-2024 20:00:00,25.204762,85.514960,PM10,14,82,44
India,Bihar,Bihar Sharif,"D M Colony, Bihar Sharif - BSPCB",10-05-2024 20:00:00,25.204762,85.514960,SO2,5,16,11
India,Bihar,Buxar,"Charitra Van, Buxar - BSPCB (Formerly known as Central Jail)",10-05-2024 20:00:00,25.567520,83.966379,SO2,7,13,9
India,Bihar,Chhapra,"Darshan Nagar, Chhapra - BSPCB",10-05-2024 20:00:00,25.7808257,84.7446768,NO2,18,28,22
India,Bihar,Gaya,"Collectorate, Gaya - BSPCB",10-05-2024 20:00:00,24.7955,84.9994,PM2.5,26,196,85
India,Bihar,Gaya,"Collectorate, Gaya - BSPCB",10-05-2024 20:00:00,24.7955,84.9994,SO2,6,49,16
India,Bihar,Gaya,"Kareemganj, Gaya - BSPCB",10-05-2024 20:00:00,24.792403,84.992416,NO2,30,31,30
India,Bihar,Gaya,"SFTI Kusdihra, Gaya - BSPCB",10-05-2024 20:00:00,24.762518,84.982348,CO,24,46,28
India,Bihar,Hajipur,"Industrial Area, Hajipur - BSPCB",10-05-2024 20:00:00,25.697189,85.245900,PM2.5,16,40,27
India,Bihar,Katihar,"Mirchaibari, Katihar - BSPCB",10-05-2024 20:00:00,25.560083,87.553265,NO2,6,38,22
India,Bihar,Katihar,"Mirchaibari, Katihar - BSPCB",10-05-2024 20:00:00,25.560083,87.553265,OZONE,10,26,17
India,Bihar,Kishanganj,"SDM Office_Khagra, Kishanganj - BSPCB",10-05-2024 20:00:00,26.0881305,87.93840336,SO2,12,32,19
India,Bihar,Manguraha,"Forest Rest House, Manguraha - BSPCB",10-05-2024 20:00:00,27.308328,84.531742,CO,18,24,18
India,Bihar,Motihari,"Gandak Colony, Motihari - BSPCB",10-05-2024 20:00:00,26.63086,84.90051,SO2,7,21,14
India,Bihar,Munger,"Town Hall, Munger - BSPCB",10-05-2024 20:00:00,25.376776,86.471523,OZONE,26,39,30
India,Bihar,Muzaffarpur,"Buddha Colony, Muzaffarpur - BSPCB",10-05-2024 20:00:00,26.11442,85.39813,PM2.5,35,63,53
India,Bihar,Muzaffarpur,"Buddha Colony, Muzaffarpur - BSPCB",10-05-2024 20:00:00,26.11442,85.39813,NO2,8,23,12
India,Bihar,Muzaffarpur,"Buddha Colony, Muzaffarpur - BSPCB",10-05-2024 20:00:00,26.11442,85.39813,OZONE,16,48,42
India,Bihar,Muzaffarpur,"MIT-Daudpur Kothi, Muzaffarpur - BSPCB",10-05-2024 20:00:00,26.1403345,85.3650192,NO2,3,6,5
India,Bihar,Muzaffarpur,"MIT-Daudpur Kothi, Muzaffarpur - BSPCB",10-05-2024 20:00:00,26.1403345,85.3650192,OZONE,8,32,24
India,Bihar,Patna,"DRM Office Danapur, Patna - BSPCB",10-05-2024 20:00:00,25.586562,85.043586,PM10,47,83,70
India,Bihar,Patna,"IGSC Planetarium Complex, Patna - BSPCB",10-05-2024 20:00:00,25.610369,85.132568,PM2.5,65,130,90
India,Bihar,Patna,"Muradpur, Patna - BSPCB",10-05-2024 20:00:00,25.619651,85.147382,PM2.5,59,144,96
India,Bihar,Patna,"Muradpur, Patna - BSPCB",10-05-2024 20:00:00,25.619651,85.147382,PM10,99,293,156
India,Bihar,Patna,"Muradpur, Patna - BSPCB",10-05-2024 20:00:00,25.619651,85.147382,OZONE,29,32,31
India,Bihar,Purnia,"Mariam Nagar, Purnia - BSPCB",10-05-2024 20:00:00,25.366336,87.117468,OZONE,4,29,23
India,Bihar,Rajgir,"Dangi Tola, Rajgir - BSPCB",10-05-2024 20:00:00,25.03280,85.41948,NH3,2,3,3
India,Bihar,Rajgir,"Dangi Tola, Rajgir - BSPCB",10-05-2024 20:00:00,25.03280,85.41948,SO2,3,5,4
India,Bihar,Saharsa,"Police Line, Saharsa - BSPCB",10-05-2024 20:00:00,25.892357,86.590325,PM2.5,22,277,54
India,Bihar,Saharsa,"Police Line, Saharsa - BSPCB",10-05-2024 20:00:00,25.892357,86.590325,SO2,16,17,16
India,Bihar,Samastipur,"DM Office_Kasipur, Samastipur - BSPCB",10-05-2024 20:00:00,25.859655,85.77944,NO2,4,5,4
India,Bihar,Sasaram,"Dada Peer, Sasaram - BSPCB",10-05-2024 20:00:00,24.952822,84.002396,SO2,21,23,22
India,Bihar,Sasaram,"Dada Peer, Sasaram - BSPCB",10-05-2024 20:00:00,24.952822,84.002396,CO,44,88,82
India,Bihar,Siwan,"Chitragupta Nagar, Siwan - BSPCB",10-05-2024 20:00:00,26.2271665,84.3570427,PM10,NA,NA,NA
India,Bihar,Siwan,"Chitragupta Nagar, Siwan - BSPCB",10-05-2024 20:00:00,26.2271665,84.3570427,NO2,10,28,19
India,Bihar,Siwan,"Chitragupta Nagar, Siwan - BSPCB",10-05-2024 20:00:00,26.2271665,84.3570427,NH3,1,3,2
India,Bihar,Siwan,"Chitragupta Nagar, Siwan - BSPCB",10-05-2024 20:00:00,26.2271665,84.3570427,CO,54,136,124
India,Bihar,Siwan,"Chitragupta Nagar, Siwan - BSPCB",10-05-2024 20:00:00,26.2271665,84.3570427,OZONE,18,110,80
India,Chandigarh,Chandigarh,"Sector 22, Chandigarh - CPCC",10-05-2024 20:00:00,30.735567,76.775714,PM2.5,70,217,106
India,Chandigarh,Chandigarh,"Sector 22, Chandigarh - CPCC",10-05-2024 20:00:00,30.735567,76.775714,NH3,7,14,9
India,Chandigarh,Chandigarh,"Sector-25, Chandigarh - CPCC",10-05-2024 20:00:00,30.751462,76.762879,NO2,6,35,13
India,Chandigarh,Chandigarh,"Sector-25, Chandigarh - CPCC",10-05-2024 20:00:00,30.751462,76.762879,NH3,10,25,13
India,Chandigarh,Chandigarh,"Sector-53, Chandigarh - CPCC",10-05-2024 20:00:00,30.719859,76.738637,SO2,11,34,27
India,Chhattisgarh,Bhilai,"32Bungalows, Bhilai - CECB",10-05-2024 20:00:00,21.194815,81.314770,SO2,1,6,4
India,Chhattisgarh,Bhilai,"Civic Center, Bhilai - Bhilai Steel Plant",10-05-2024 20:00:00,21.185571,81.343175,NH3,4,7,5
India,Chhattisgarh,Bhilai,"Hathkhoj, Bhilai - CECB",10-05-2024 20:00:00,21.224231,81.408350,NO2,10,34,20
India,Chhattisgarh,Bhilai,"Hathkhoj, Bhilai - CECB",10-05-2024 20:00:00,21.224231,81.408350,CO,13,71,18
India,Chhattisgarh,Bhilai,"Hathkhoj, Bhilai - CECB",10-05-2024 20:00:00,21.224231,81.408350,OZONE,17,35,32
India,Chhattisgarh,Chhal,"Nawapara SECL Colony, Chhal - CECB",10-05-2024 20:00:00,22.118125,83.140608,NO2,12,62,22
India,Chhattisgarh,Chhal,"Nawapara SECL Colony, Chhal - CECB",10-05-2024 20:00:00,22.118125,83.140608,CO,21,89,39
India,Chhattisgarh,Kunjemura,"OP Jindal School, Kunjemura - CECB",10-05-2024 20:00:00,22.126650,83.483212,PM10,27,117,67
India,Chhattisgarh,Milupara,"Govt. Higher Secondary School, Milupara - CECB",10-05-2024 20:00:00,22.1910172,83.5197009,PM10,19,91,45
India,Chhattisgarh,Milupara,"Govt. Higher Secondary School, Milupara - CECB",10-05-2024 20:00:00,22.1910172,83.5197009,OZONE,8,24,19
India,Chhattisgarh,Raipur,"AIIMS, Raipur - CECB",10-05-2024 20:00:00,21.258815,81.578979,CO,25,37,37
India,Chhattisgarh,Raipur,"AIIMS, Raipur - CECB",10-05-2024 20:00:00,21.258815,81.578979,OZONE,1,8,5
India,Chhattisgarh,Raipur,"Bhatagaon New ISBT, Raipur - CECB",10-05-2024 20:00:00,21.219665,81.630094,NH3,2,2,2
India,Chhattisgarh,Raipur,"Krishak Nagar, Raipur - CECB",10-05-2024 20:00:00,21.237755,81.705301,NO2,16,17,16
India,Chhattisgarh,Raipur,"Krishak Nagar, Raipur - CECB",10-05-2024 20:00:00,21.237755,81.705301,CO,20,28,25
India,Chhattisgarh,Raipur,"Siltara Phase-II, Raipur - CECB",10-05-2024 20:00:00,21.371751,81.664929,PM2.5,33,94,61
India,Chhattisgarh,Raipur,"Siltara Phase-II, Raipur - CECB",10-05-2024 20:00:00,21.371751,81.664929,NO2,22,53,39
India,Chhattisgarh,Raipur,"Siltara Phase-II, Raipur - CECB",10-05-2024 20:00:00,21.371751,81.664929,NH3,3,3,3
India,Chhattisgarh,Raipur,"Siltara Phase-II, Raipur - CECB",10-05-2024 20:00:00,21.371751,81.664929,CO,22,66,33
India,Chhattisgarh,Tumidih,"OP Jindal Industrial Park, Tumidih - CECB",10-05-2024 20:00:00,22.06631475,83.33820077,SO2,5,9,6
India,Chhattisgarh,Tumidih,"OP Jindal Industrial Park, Tumidih - CECB",10-05-2024 20:00:00,22.06631475,83.33820077,OZONE,23,76,60
India,Delhi,Delhi,"Alipur, Delhi - DPCC",10-05-2024 20:00:00,28.815329,77.153010,PM2.5,92,290,137
India,Delhi,Delhi,"Alipur, Delhi - DPCC",10-05-2024 20:00:00,28.815329,77.153010,OZONE,42,221,163
India,Delhi,Delhi,"Anand Vihar, Delhi - DPCC",10-05-2024 20:00:00,28.647622,77.3158090,NO2,NA,NA,NA
India,Delhi,Delhi,"Ashok Vihar, Delhi - DPCC",10-05-2024 20:00:00,28.695381,77.181665,PM10,146,360,184
India,Delhi,Delhi,"Ashok Vihar, Delhi - DPCC",10-05-2024 20:00:00,28.695381,77.181665,CO,38,68,52
India,Delhi,Delhi,"Bawana, Delhi - DPCC",10-05-2024 20:00:00,28.776200,77.051074,NH3,6,15,10
India,Delhi,Delhi,"Bawana, Delhi - DPCC",10-05-2024 20:00:00,28.776200,77.051074,OZONE,37,265,194
India,Delhi,Delhi,"Burari Crossing, Delhi - IMD",10-05-2024 20:00:00,28.7256504,77.2011573,OZONE,24,142,114
India,Delhi,Delhi,"CRRI Mathura Road, Delhi - IMD",10-05-2024 20:00:00,28.5512005,77.2735737,OZONE,16,76,56
India,Delhi,Delhi,"Chandni Chowk, Delhi - IITM",10-05-2024 20:00:00,28.656756,77.227234,NO2,26,197,106
India,Delhi,Delhi,"IGI Airport (T3), Delhi - IMD",10-05-2024 20:00:00,28.5627763,77.1180053,PM2.5,75,175,109
India,Delhi,Delhi,"IHBAS, Dilshad Garden, Delhi - CPCB",10-05-2024 20:00:00,28.6811736,77.3025234,PM2.5,78,192,103
India,Delhi,Delhi,"IHBAS, Dilshad Garden, Delhi - CPCB",10-05-2024 20:00:00,28.6811736,77.3025234,PM10,108,131,120
India,Delhi,Delhi,"IHBAS, Dilshad Garden, Delhi - CPCB",10-05-2024 20:00:00,28.6811736,77.3025234,NH3,6,8,7
India,Delhi,Delhi,"ITO, Delhi - CPCB",10-05-2024 20:00:00,28.628624,77.241060,PM10,87,119,106
India,Delhi,Delhi,"ITO, Delhi - CPCB",10-05-2024 20:00:00,28.628624,77.241060,CO,41,103,69
India,Delhi,Delhi,"Jahangirpuri, Delhi - DPCC",10-05-2024 20:00:00,28.732820,77.170633,PM2.5,NA,NA,NA
India,Delhi,Delhi,"Jahangirpuri, Delhi - DPCC",10-05-2024 20:00:00,28.732820,77.170633,NH3,NA,NA,NA
India,Delhi,Delhi,"NSIT Dwarka, Delhi - CPCB",10-05-2024 20:00:00,28.60909,77.0325413,PM2.5,92,209,157
India,Delhi,Delhi,"NSIT Dwarka, Delhi - CPCB",10-05-2024 20:00:00,28.60909,77.0325413,PM10,127,160,143
India,Delhi,Delhi,"NSIT Dwarka, Delhi - CPCB",10-05-2024 20:00:00,28.60909,77.0325413,OZONE,26,83,63
India,Delhi,Delhi,"Najafgarh, Delhi - DPCC",10-05-2024 20:00:00,28.570173,76.933762,PM2.5,78,133,96
India,Delhi,Delhi,"Najafgarh, Delhi - DPCC",10-05-2024 20:00:00,28.570173,76.933762,SO2,10,19,15
India,Delhi,Delhi,"Narela, Delhi - DPCC",10-05-2024 20:00:00,28.822836,77.101981,SO2,17,35,22
India,Delhi,Delhi,"Nehru Nagar, Delhi - DPCC",10-05-2024 20:00:00,28.567890,77.250515,NO2,10,23,15
India,Delhi,Delhi,"Nehru Nagar, Delhi - DPCC",10-05-2024 20:00:00,28.567890,77.250515,SO2,5,7,6
India,Delhi,Delhi,"Nehru Nagar, Delhi - DPCC",10-05-2024 20:00:00,28.567890,77.250515,CO,51,57,53
India,Delhi,Delhi,"North Campus, DU, Delhi - IMD",10-05-2024 20:00:00,28.6573814,77.1585447,OZONE,18,143,57
India,Delhi,Delhi,"Patparganj, Delhi - DPCC",10-05-2024 20:00:00,28.623763,77.287209,SO2,3,9,6
India,Delhi,Delhi,"Patparganj, Delhi - DPCC",10-05-2024 20:00:00,28.623763,77.287209,OZONE,39,136,110
India,Delhi,Delhi,"Punjabi Bagh, Delhi - DPCC",10-05-2024 20:00:00,28.674045,77.131023,SO2,1,20,10
India,Delhi,Delhi,"Punjabi Bagh, Delhi - DPCC",10-05-2024 20:00:00,28.674045,77.131023,CO,37,84,54
India,Delhi,Delhi,"Pusa, Delhi - DPCC",10-05-2024 20:00:00,28.639652,77.146275,NO2,19,65,35
India,Delhi,Delhi,"Pusa, Delhi - DPCC",10-05-2024 20:00:00,28.639652,77.146275,NH3,7,9,8
India,Delhi,Delhi,"Pusa, Delhi - DPCC",10-05-2024 20:00:00,28.639652,77.146275,OZONE,38,153,119
India,Delhi,Delhi,"R K Puram, Delhi - DPCC",10-05-2024 20:00:00,28.563262,77.186937,PM2.5,107,203,152
India,Delhi,Delhi,"Rohini, Delhi - DPCC",10-05-2024 20:00:00,28.732528,77.119920,PM2.5,107,191,139
India,Delhi,Delhi,"Rohini, Delhi - DPCC",10-05-2024 20:00:00,28.732528,77.119920,SO2,7,43,19
India,Delhi,Delhi,"Shadipur, Delhi - CPCB",10-05-2024 20:00:00,28.6514781,77.1473105,PM2.5,80,500,239
India,Delhi,Delhi,"Sirifort, Delhi - CPCB",10-05-2024 20:00:00,28.5504249,77.2159377,PM2.5,126,204,161
India,Delhi,Delhi,"Sirifort, Delhi - CPCB",10-05-2024 20:00:00,28.5504249,77.2159377,NH3,21,22,21
India,Delhi,Delhi,"Sirifort, Delhi - CPCB",10-05-2024 20:00:00,28.5504249,77.2159377,SO2,75,77,76
India,Delhi,Delhi,"Sonia Vihar, Delhi - DPCC",10-05-2024 20:00:00,28.710508,77.249485,PM10,136,264,174
India,Delhi,Delhi,"Sonia Vihar, Delhi - DPCC",10-05-2024 20:00:00,28.710508,77.249485,OZONE,31,174,138
India,Delhi,Delhi,"Sri Aurobindo Marg, Delhi - DPCC",10-05-2024 20:00:00,28.531346,77.190156,NO2,22,90,39
India,Delhi,Delhi,"Wazirpur, Delhi - DPCC",10-05-2024 20:00:00,28.699793,77.165453,NH3,2,6,5
India,Delhi,Delhi,"Wazirpur, Delhi - DPCC",10-05-2024 20:00:00,28.699793,77.165453,SO2,13,32,20
India,Gujarat,Ahmedabad,"Chandkheda, Ahmedabad - IITM",10-05-2024 20:00:00,23.107969,72.574648,PM2.5,45,192,77
India,Gujarat,Ahmedabad,"Chandkheda, Ahmedabad - IITM",10-05-2024 20:00:00,23.107969,72.574648,NO2,23,24,23
India,Gujarat,Ahmedabad,"Gyaspur, Ahmedabad - IITM",10-05-2024 20:00:00,22.977134,72.553024,NO2,24,48,42
India,Gujarat,Ahmedabad,"Maninagar, Ahmedabad - GPCB",10-05-2024 20:00:00,23.002657,72.591912,SO2,3,103,44
India,Gujarat,Ahmedabad,"Maninagar, Ahmedabad - GPCB",10-05-2024 20:00:00,23.002657,72.591912,CO,64,103,98
India,Gujarat,Ahmedabad,"Rakhial, Ahmedabad - IITM",10-05-2024 20:00:00,23.016834,72.625775,NO2,32,91,56
India,Gujarat,Ahmedabad,"SVPI Airport Hansol, Ahmedabad - IITM",10-05-2024 20:00:00,23.076793,72.627874,PM10,81,125,103
India,Gujarat,Ahmedabad,"SVPI Airport Hansol, Ahmedabad - IITM",10-05-2024 20:00:00,23.076793,72.627874,SO2,5,12,7
India,Gujarat,Ahmedabad,"SVPI Airport Hansol, Ahmedabad - IITM",10-05-2024 20:00:00,23.076793,72.627874,OZONE,9,69,52
India,Gujarat,Ankleshwar,"GIDC, Ankleshwar - GPCB",10-05-2024 20:00:00,21.613267,73.010555,PM10,35,58,47
India,Gujarat,Ankleshwar,"GIDC, Ankleshwar - GPCB",10-05-2024 20:00:00,21.613267,73.010555,SO2,5,11,8
India,Gujarat,Ankleshwar,"GIDC, Ankleshwar - GPCB",10-05-2024 20:00:00,21.613267,73.010555,CO,8,82,63
India,Gujarat,Surat,"Science Center, Surat - SMC",10-05-2024 20:00:00,21.170046,72.795405,PM2.5,NA,NA,NA
India,Gujarat,Surat,"Science Center, Surat - SMC",10-05-2024 20:00:00,21.170046,72.795405,PM10,NA,NA,NA
India,Gujarat,Vapi,"Phase-1 GIDC, Vapi - GPCB",10-05-2024 20:00:00,20.362421,72.918013,NH3,2,3,2
India,Gujarat,Vatva,"Phase-4 GIDC, Vatva - GPCB",10-05-2024 20:00:00,22.969611,72.643500,NH3,NA,NA,NA
India,Haryana,Bahadurgarh,"Arya Nagar, Bahadurgarh - HSPCB",10-05-2024 20:00:00,28.6701,76.9254,NO2,20,24,22
India,Haryana,Bahadurgarh,"Arya Nagar, Bahadurgarh - HSPCB",10-05-2024 20:00:00,28.6701,76.9254,NH3,8,10,9
India,Haryana,Charkhi Dadri,"Mini Secretariat, Charkhi Dadri - HSPCB",10-05-2024 20:00:00,28.593883,76.270653,PM2.5,79,319,184
India,Haryana,Charkhi Dadri,"Mini Secretariat, Charkhi Dadri - HSPCB",10-05-2024 20:00:00,28.593883,76.270653,NH3,6,8,7
India,Haryana,Charkhi Dadri,"Mini Secretariat, Charkhi Dadri - HSPCB",10-05-2024 20:00:00,28.593883,76.270653,CO,22,94,48
India,Haryana,Faridabad,"Sector 11, Faridabad - HSPCB",10-05-2024 20:00:00,28.376058,77.315741,CO,32,44,37
India,Haryana,Faridabad,"Sector 30, Faridabad - HSPCB",10-05-2024 20:00:00,28.4417,77.3217,SO2,5,6,6
India,Haryana,Faridabad,"Sector- 16A, Faridabad - HSPCB",10-05-2024 20:00:00,28.4088421,77.3099081,NO2,NA,NA,NA
India,Haryana,Fatehabad,"Huda Sector, Fatehabad - HSPCB",10-05-2024 20:00:00,29.503664,75.467934,NH3,13,14,13
India,Haryana,Fatehabad,"Huda Sector, Fatehabad - HSPCB",10-05-2024 20:00:00,29.503664,75.467934,CO,5,11,6
India,Haryana,Gurugram,"NISE Gwal Pahari, Gurugram - IMD",10-05-2024 20:00:00,28.422681,77.148944,OZONE,43,131,114
India,Haryana,Gurugram,"Teri Gram, Gurugram - HSPCB",10-05-2024 20:00:00,28.4275,77.1465,PM10,149,199,177
India,Haryana,Gurugram,"Teri Gram, Gurugram - HSPCB",10-05-2024 20:00:00,28.4275,77.1465,NO2,13,39,22
India,Haryana,Gurugram,"Teri Gram, Gurugram - HSPCB",10-05-2024 20:00:00,28.4275,77.1465,CO,26,52,52
India,Haryana,Gurugram,"Teri Gram, Gurugram - HSPCB",10-05-2024 20:00:00,28.4275,77.1465,OZONE,70,105,105
India,Haryana,Kaithal,"Rishi Nagar, Kaithal - HSPCB",10-05-2024 20:00:00,29.8006,76.4155,PM2.5,NA,NA,NA
India,Haryana,Kaithal,"Rishi Nagar, Kaithal - HSPCB",10-05-2024 20:00:00,29.8006,76.4155,PM10,NA,NA,NA
India,Haryana,Kaithal,"Rishi Nagar, Kaithal - HSPCB",10-05-2024 20:00:00,29.8006,76.4155,NO2,NA,NA,NA
India,Haryana,Kaithal,"Rishi Nagar, Kaithal - HSPCB",10-05-2024 20:00:00,29.8006,76.4155,NH3,NA,NA,NA
India,Haryana,Kaithal,"Rishi Nagar, Kaithal - HSPCB",10-05-2024 20:00:00,29.8006,76.4155,CO,43,107,74
India,Haryana,Karnal,"Sector-12, Karnal - HSPCB",10-05-2024 20:00:00,29.695300,77.002700,NH3,10,13,11
India,Haryana,Kurukshetra,"Sector-7, Kurukshetra - HSPCB",10-05-2024 20:00:00,29.966942,76.875879,PM10,110,138,121
India,Haryana,Manesar,"Sector-2 IMT, Manesar - HSPCB",10-05-2024 20:00:00,28.360699,76.936090,PM2.5,95,154,118
India,Haryana,Manesar,"Sector-2 IMT, Manesar - HSPCB",10-05-2024 20:00:00,28.360699,76.936090,CO,16,26,19
India,Haryana,Narnaul,"Shastri Nagar, Narnaul - HSPCB",10-05-2024 20:00:00,28.060249,76.113115,CO,24,64,33
India,Haryana,Palwal,"Shyam Nagar, Palwal - HSPCB",10-05-2024 20:00:00,28.1485564,77.3320667,NO2,23,24,24
India,Haryana,Panchkula,"Sector-6, Panchkula - HSPCB ",10-05-2024 20:00:00,30.7057778,76.8531805555555,PM2.5,90,316,184
India,Haryana,Panchkula,"Sector-6, Panchkula - HSPCB ",10-05-2024 20:00:00,30.7057778,76.8531805555555,SO2,2,42,6
India,Haryana,Panchkula,"Sector-6, Panchkula - HSPCB ",10-05-2024 20:00:00,30.7057778,76.8531805555555,CO,6,59,14
India,Haryana,Panipat,"Sector-18, Panipat - HSPCB",10-05-2024 20:00:00,29.497973,76.993331,PM2.5,91,93,92
India,Haryana,Rohtak,"MD University, Rohtak - HSPCB",10-05-2024 20:00:00,28.52123,76.37138,PM2.5,8,225,121
India,Haryana,Rohtak,"MD University, Rohtak - HSPCB",10-05-2024 20:00:00,28.52123,76.37138,SO2,6,8,7
India,Haryana,Rohtak,"MD University, Rohtak - HSPCB",10-05-2024 20:00:00,28.52123,76.37138,CO,28,68,46
India,Haryana,Rohtak,"MD University, Rohtak - HSPCB",10-05-2024 20:00:00,28.52123,76.37138,OZONE,45,53,49
India,Haryana,Sonipat,"Murthal, Sonipat - HSPCB",10-05-2024 20:00:00,29.027200,77.062100,NH3,7,10,9
India,Haryana,Sonipat,"Murthal, Sonipat - HSPCB",10-05-2024 20:00:00,29.027200,77.062100,SO2,13,29,20
India,Himachal Pradesh,Baddi,"HIMUDA Complex Phase-1, Baddi - HPPCB",10-05-2024 20:00:00,30.943887,76.801991,PM2.5,72,304,119
India,Himachal Pradesh,Baddi,"HIMUDA Complex Phase-1, Baddi - HPPCB",10-05-2024 20:00:00,30.943887,76.801991,NO2,11,38,22
India,Himachal Pradesh,Baddi,"HIMUDA Complex Phase-1, Baddi - HPPCB",10-05-2024 20:00:00,30.943887,76.801991,SO2,10,112,49
India,Jammu_and_Kashmir,Srinagar,"Rajbagh, Srinagar - JKSPCB",10-05-2024 20:00:00,34.066206,74.819820,PM2.5,28,55,42
India,Jharkhand,Dhanbad,"Kalakusuma, Dhanbad - DMC",10-05-2024 20:00:00,23.811548,86.481238,PM2.5,NA,NA,NA
India,Karnataka,Belgaum,"Ramteerth Nagar, Belgaum - KSPCB",10-05-2024 20:00:00,15.888653,74.541751,PM2.5,14,40,21
India,Karnataka,Bengaluru,"Bapuji Nagar, Bengaluru - KSPCB",10-05-2024 20:00:00,12.951913,77.539784,PM2.5,72,303,110
India,Karnataka,Bengaluru,"Hebbal, Bengaluru - KSPCB",10-05-2024 20:00:00,13.029152,77.585901,PM10,38,94,57
India,Karnataka,Bengaluru,"Jayanagar 5th Block, Bengaluru - KSPCB",10-05-2024 20:00:00,12.920984,77.584908,CO,20,22,21
India,Karnataka,Bengaluru,"Peenya, Bengaluru - CPCB",10-05-2024 20:00:00,13.0270199,77.494094,NO2,13,25,21
India,Karnataka,Bengaluru,"Peenya, Bengaluru - CPCB",10-05-2024 20:00:00,13.0270199,77.494094,SO2,10,15,12
India,Karnataka,Bengaluru,"Peenya, Bengaluru - CPCB",10-05-2024 20:00:00,13.0270199,77.494094,CO,26,51,42
India,Karnataka,Bengaluru,"RVCE-Mailasandra, Bengaluru - KSPCB",10-05-2024 20:00:00,12.921418,77.502466,PM2.5,2,419,77
India,Karnataka,Bengaluru,"RVCE-Mailasandra, Bengaluru - KSPCB",10-05-2024 20:00:00,12.921418,77.502466,CO,28,62,52
India,Karnataka,Bengaluru,"RVCE-Mailasandra, Bengaluru - KSPCB",10-05-2024 20:00:00,12.921418,77.502466,OZONE,39,39,39
India,Karnataka,Bengaluru,"Shivapura_Peenya, Bengaluru - KSPCB",10-05-2024 20:00:00,13.0246342,77.5080115,PM10,38,114,73
India,Karnataka,Bengaluru,"Shivapura_Peenya, Bengaluru - KSPCB",10-05-2024 20:00:00,13.0246342,77.5080115,NH3,4,4,4
India,Karnataka,Bengaluru,"Shivapura_Peenya, Bengaluru - KSPCB",10-05-2024 20:00:00,13.0246342,77.5080115,OZONE,54,55,54
India,Karnataka,Bengaluru,"Silk Board, Bengaluru - KSPCB",10-05-2024 20:00:00,12.917348,77.622813,CO,7,12,11
India,Karnataka,Chamarajanagar,"Urban, Chamarajanagar - KSPCB",10-05-2024 20:00:00,11.55358,76.55521,NH3,2,3,2
India,Karnataka,Chikkaballapur,"Chikkaballapur Rural, Chikkaballapur - KSPCB",10-05-2024 20:00:00,13.428828,77.731418,PM2.5,19,87,50
India,Karnataka,Chikkaballapur,"Chikkaballapur Rural, Chikkaballapur - KSPCB",10-05-2024 20:00:00,13.428828,77.731418,NH3,1,1,1
India,Karnataka,Chikkaballapur,"Chikkaballapur Rural, Chikkaballapur - KSPCB",10-05-2024 20:00:00,13.428828,77.731418,OZONE,24,25,24
India,Karnataka,Chikkamagaluru,"Kalyana Nagara, Chikkamagaluru - KSPCB",10-05-2024 20:00:00,13.328028,75.797056,NO2,17,33,23
India,Karnataka,Chikkamagaluru,"Kalyana Nagara, Chikkamagaluru - KSPCB",10-05-2024 20:00:00,13.328028,75.797056,OZONE,15,25,20
India,Karnataka,Davanagere,"Devaraj Urs Badavane, Davanagere - KSPCB",10-05-2024 20:00:00,14.475800,75.905200,NH3,1,2,2
India,Karnataka,Davanagere,"Devaraj Urs Badavane, Davanagere - KSPCB",10-05-2024 20:00:00,14.475800,75.905200,CO,14,24,22
India,Karnataka,Dharwad,"Kalabhavan, Dharwad - KSPCB",10-05-2024 20:00:00,15.459706,75.008381,PM2.5,16,401,80
India,Karnataka,Dharwad,"Kalabhavan, Dharwad - KSPCB",10-05-2024 20:00:00,15.459706,75.008381,CO,20,82,58
India,Karnataka,Dharwad,"Kalabhavan, Dharwad - KSPCB",10-05-2024 20:00:00,15.459706,75.008381,OZONE,2,7,3
India,Karnataka,Gadag,"Panchal Nagar, Gadag - KSPCB",10-05-2024 20:00:00,15.411456,75.638133,NH3,2,3,2
India,Karnataka,Gadag,"Panchal Nagar, Gadag - KSPCB",10-05-2024 20:00:00,15.411456,75.638133,SO2,9,24,16
India,Karnataka,Hassan,"B.Katihalli, Hassan - KSPCB",10-05-2024 20:00:00,13.008556,76.125258,PM2.5,28,75,51
India,Karnataka,Hassan,"B.Katihalli, Hassan - KSPCB",10-05-2024 20:00:00,13.008556,76.125258,SO2,115,135,125
India,Karnataka,Hubballi,"Deshpande Nagar, Hubballi - KSPCB",10-05-2024 20:00:00,15.351773,75.140726,NO2,27,28,27
India,Karnataka,Hubballi,"Deshpande Nagar, Hubballi - KSPCB",10-05-2024 20:00:00,15.351773,75.140726,SO2,7,9,7
India,Karnataka,Hubballi,"Lingaraj Nagar, Hubballi - KSPCB",10-05-2024 20:00:00,15.3714823,75.1160168,NO2,10,10,10
India,Karnataka,Hubballi,"Lingaraj Nagar, Hubballi - KSPCB",10-05-2024 20:00:00,15.3714823,75.1160168,OZONE,24,64,55
India,Karnataka,Kalaburagi,"Lal Bahadur Shastri Nagar, Kalaburagi - KSPCB",10-05-2024 20:00:00,17.321993,76.822628,CO,42,51,42
India,Karnataka,Kalaburagi,"Lal Bahadur Shastri Nagar, Kalaburagi - KSPCB",10-05-2024 20:00:00,17.321993,76.822628,OZONE,24,105,84
India,Karnataka,Kalaburagi,"Mahatma Basaveswar Colony, Kalaburgi - KSPCB",10-05-2024 20:00:00,17.336318,76.847397,SO2,2,9,3
India,Karnataka,Kolar,"Tamaka Ind. Area, Kolar - KSPCB",10-05-2024 20:00:00,13.1276288,78.1570122,PM10,24,79,51
India,Karnataka,Kolar,"Tamaka Ind. Area, Kolar - KSPCB",10-05-2024 20:00:00,13.1276288,78.1570122,OZONE,19,83,72
India,Karnataka,Koppal,"Diwator Nagar, Koppal - KSPCB",10-05-2024 20:00:00,15.347630,76.181767,PM10,8,49,21
India,Karnataka,Koppal,"Diwator Nagar, Koppal - KSPCB",10-05-2024 20:00:00,15.347630,76.181767,NO2,27,68,47
India,Karnataka,Koppal,"Diwator Nagar, Koppal - KSPCB",10-05-2024 20:00:00,15.347630,76.181767,CO,56,57,56
India,Karnataka,Madikeri,"Stuart Hill, Madikeri - KSPCB",10-05-2024 20:00:00,12.415911,75.735050,PM2.5,17,54,31
India,Karnataka,Madikeri,"Stuart Hill, Madikeri - KSPCB",10-05-2024 20:00:00,12.415911,75.735050,NH3,1,2,1
India,Karnataka,Madikeri,"Stuart Hill, Madikeri - KSPCB",10-05-2024 20:00:00,12.415911,75.735050,CO,4,86,51
India,Karnataka,Mangalore,"Kadri, Mangalore - KSPCB",10-05-2024 20:00:00,12.889250,74.853000,OZONE,31,33,32
India,Karnataka,Mysuru,"Hebbal 1st Stage, Mysuru - KSPCB",10-05-2024 20:00:00,12.21041,76.37376,NH3,1,2,2
India,Karnataka,Raichur,"Haji Colony, Raichur - KSPCB",10-05-2024 20:00:00,16.208139,77.348417,NO2,25,49,36
India,Karnataka,Tumakuru,"Thimmalapura, Tumakuru - KSPCB",10-05-2024 20:00:00,13.377516,77.099072,SO2,7,10,8
India,Karnataka,Tumakuru,"Thimmalapura, Tumakuru - KSPCB",10-05-2024 20:00:00,13.377516,77.099072,OZONE,20,51,36
India,Karnataka,Udupi,"Brahmagiri, Udupi - KSPCB",10-05-2024 20:00:00,13.34194444,74.74694444,NO2,28,30,29
India,Karnataka,Yadgir,"Collector Office, Yadgir - KSPCB",10-05-2024 20:00:00,16.7602,77.1428,PM2.5,20,44,32
India,Kerala,Eloor,"Udyogamandal, Eloor - Kerala PCB",10-05-2024 20:00:00,10.073232,76.302765,CO,19,82,57
India,Kerala,Kannur,"Thavakkara, Kannur - Kerala PCB",10-05-2024 20:00:00,11.875000,75.373200,SO2,1,4,1
India,Kerala,Kannur,"Thavakkara, Kannur - Kerala PCB",10-05-2024 20:00:00,11.875000,75.373200,OZONE,31,36,33
India,Kerala,Kollam,"Polayathode, Kollam - Kerala PCB",10-05-2024 20:00:00,8.8787,76.6073,SO2,1,7,2
India,Kerala,Thiruvananthapuram,"Plammoodu, Thiruvananthapuram - Kerala PCB",10-05-2024 20:00:00,8.5149093,76.9435879,NO2,6,11,9
India,Kerala,Thiruvananthapuram,"Plammoodu, Thiruvananthapuram - Kerala PCB",10-05-2024 20:00:00,8.5149093,76.9435879,NH3,1,1,1
India,Kerala,Thrissur,"Corporation Ground, Thrissur - Kerala PCB",10-05-2024 20:00:00,10.532400,76.215900,CO,14,53,20
India,Madhya Pradesh,Bhopal,"Idgah Hills, Bhopal - MPPCB",10-05-2024 20:00:00,23.264759,77.381568,PM2.5,23,40,31
India,Madhya Pradesh,Bhopal,"Paryavaran Parisar, Bhopal - MPPCB",10-05-2024 20:00:00,23.210494,77.425409,NH3,7,9,8
India,Madhya Pradesh,Bhopal,"Paryavaran Parisar, Bhopal - MPPCB",10-05-2024 20:00:00,23.210494,77.425409,CO,16,50,30
India,Madhya Pradesh,Bhopal,"T T Nagar, Bhopal - MPPCB",10-05-2024 20:00:00,23.233584,77.400574,OZONE,53,87,79
India,Madhya Pradesh,Dewas,"Bhopal Chauraha, Dewas - MPPCB",10-05-2024 20:00:00,22.9682591,76.064118,OZONE,NA,NA,NA
India,Madhya Pradesh,Gwalior,"City Center, Gwalior - MPPCB",10-05-2024 20:00:00,26.203442,78.193251,PM2.5,40,140,68
India,Madhya Pradesh,Gwalior,"City Center, Gwalior - MPPCB",10-05-2024 20:00:00,26.203442,78.193251,NH3,3,4,3
India,Madhya Pradesh,Gwalior,"City Center, Gwalior - MPPCB",10-05-2024 20:00:00,26.203442,78.193251,SO2,2,23,15
India,Madhya Pradesh,Gwalior,"Deen Dayal Nagar, Gwalior - MPPCB",10-05-2024 20:00:00,26.259242,78.216432,NH3,5,8,7
India,Madhya Pradesh,Gwalior,"Deen Dayal Nagar, Gwalior - MPPCB",10-05-2024 20:00:00,26.259242,78.216432,SO2,14,17,16
India,Madhya Pradesh,Gwalior,"Maharaj Bada, Gwalior - MPPCB",10-05-2024 20:00:00,26.200388,78.147714,PM2.5,17,65,42
India,Madhya Pradesh,Gwalior,"Phool Bagh, Gwalior - Mondelez Ind. Food",10-05-2024 20:00:00,26.210536,78.171,PM2.5,73,170,118
India,Madhya Pradesh,Gwalior,"Phool Bagh, Gwalior - Mondelez Ind. Food",10-05-2024 20:00:00,26.210536,78.171,SO2,21,28,24
India,Madhya Pradesh,Indore,"Chhoti Gwaltoli, Indore - MPPCB",10-05-2024 20:00:00,22.4310,75.5213,SO2,12,27,18
India,Madhya Pradesh,Indore,"Maguda Nagar, Indore - IMC",10-05-2024 20:00:00,22.7524,75.8872,NO2,4,6,5
India,Madhya Pradesh,Indore,"Regional Park, Indore - IMC",10-05-2024 20:00:00,22.6780,75.8559,OZONE,8,26,22
India,Madhya Pradesh,Indore,"Residency Area, Indore - IMC",10-05-2024 20:00:00,22.7084,75.8815,PM10,47,89,57
India,Madhya Pradesh,Indore,"Residency Area, Indore - IMC",10-05-2024 20:00:00,22.7084,75.8815,OZONE,10,23,17
India,Madhya Pradesh,Jabalpur,"Suhagi, Jabalpur - JMC",10-05-2024 20:00:00,23.218135,79.957770,SO2,5,16,14
India,Madhya Pradesh,Katni,"Gole Bazar, Katni - MPPCB",10-05-2024 20:00:00,23.50016,80.23284,PM2.5,28,55,39
India,Madhya Pradesh,Katni,"Gole Bazar, Katni - MPPCB",10-05-2024 20:00:00,23.50016,80.23284,OZONE,13,131,98
India,Madhya Pradesh,Mandideep,"Sector-D Industrial Area, Mandideep - MPPCB",10-05-2024 20:00:00,23.108440,77.511428,SO2,7,53,16
India,Madhya Pradesh,Ratlam,"Shasthri Nagar, Ratlam - IPCA Lab",10-05-2024 20:00:00,23.331731,75.045981,PM2.5,18,82,50
India,Madhya Pradesh,Sagar,"Deen Dayal Nagar, Sagar - MPPCB",10-05-2024 20:00:00,23.8640158,78.80289321,PM10,28,111,48
India,Madhya Pradesh,Sagar,"Deen Dayal Nagar, Sagar - MPPCB",10-05-2024 20:00:00,23.8640158,78.80289321,SO2,9,21,12
India,Madhya Pradesh,Sagar,"Deen Dayal Nagar, Sagar - MPPCB",10-05-2024 20:00:00,23.8640158,78.80289321,CO,38,114,74
India,Madhya Pradesh,Satna,"Bandhavgar Colony, Satna - Birla Cement",10-05-2024 20:00:00,24.58434363,80.8549414,PM10,14,37,24
India,Madhya Pradesh,Ujjain,"Mahakaleshwar Temple, Ujjain - MPPCB",10-05-2024 20:00:00,23.182719 ,75.768218 ,SO2,8,24,18
India,Madhya Pradesh,Ujjain,"Mahakaleshwar Temple, Ujjain - MPPCB",10-05-2024 20:00:00,23.182719 ,75.768218 ,OZONE,69,125,84
India,Maharashtra,Ahmednagar,"Tarakpur, Ahmednagar - MPCB",10-05-2024 20:00:00,19.10122,74.73339,NO2,14,73,37
India,Maharashtra,Ahmednagar,"Tarakpur, Ahmednagar - MPCB",10-05-2024 20:00:00,19.10122,74.73339,NH3,5,9,6
India,Maharashtra,Amravati,"Shivneri Colony, Amravati - MPCB",10-05-2024 20:00:00,20.9402359,77.7895248,NH3,2,12,5
India,Maharashtra,Amravati,"Shri Shivaji Science College, Amaravati - MPCB",10-05-2024 20:00:00,20.939198,77.765701,PM2.5,44,76,59
India,Maharashtra,Amravati,"Shri Shivaji Science College, Amaravati - MPCB",10-05-2024 20:00:00,20.939198,77.765701,SO2,1,5,3
India,Maharashtra,Amravati,"Shri Shivaji Science College, Amaravati - MPCB",10-05-2024 20:00:00,20.939198,77.765701,CO,14,40,22
India,Maharashtra,Aurangabad,"MIDC Chilkalthana, Aurangabad - MPCB",10-05-2024 20:00:00,19.875620,75.387310,PM10,74,121,88
India,Maharashtra,Aurangabad,"MIDC Chilkalthana, Aurangabad - MPCB",10-05-2024 20:00:00,19.875620,75.387310,NH3,5,6,5
India,Maharashtra,Belapur,"CBD Belapur, Belapur - MPCB",10-05-2024 20:00:00,19.0243902,73.0406721,PM10,43,89,63
India,Maharashtra,Belapur,"CBD Belapur, Belapur - MPCB",10-05-2024 20:00:00,19.0243902,73.0406721,SO2,1,8,1
India,Maharashtra,Bhiwandi,"Gokul Nagar, Bhiwandi - MPCB",10-05-2024 20:00:00,19.309073,73.057223,NO2,9,29,13
India,Maharashtra,Boisar,"Khaira, Boisar - MPCB",10-05-2024 20:00:00,19.786089,72.757971,PM10,47,95,70
India,Maharashtra,Boisar,"Khaira, Boisar - MPCB",10-05-2024 20:00:00,19.786089,72.757971,CO,4,32,14
India,Maharashtra,Chandrapur,"Chauhan Colony, Chandrapur - MPCB",10-05-2024 20:00:00,19.962900,79.298714,NH3,1,2,1
India,Maharashtra,Chandrapur,"Chauhan Colony, Chandrapur - MPCB",10-05-2024 20:00:00,19.962900,79.298714,OZONE,11,11,11
India,Maharashtra,Dhule,"Deopur, Dhule - MPCB",10-05-2024 20:00:00,20.918946,74.776388,CO,20,42,24
India,Maharashtra,Dhule,"Deopur, Dhule - MPCB",10-05-2024 20:00:00,20.918946,74.776388,OZONE,6,111,84
India,Maharashtra,Jalgaon,"Prabhat Colony, Jalgaon - MPCB",10-05-2024 20:00:00,21.001264,75.565602,NO2,10,24,17
India,Maharashtra,Jalna,"Old MIDC, Jalna - MPCB",10-05-2024 20:00:00,19.854616,75.905894,NH3,2,4,3
India,Maharashtra,Kolhapur,"Sinchan Bhavan, Kolhapur - MPCB",10-05-2024 20:00:00,16.7143745,74.2426398,NO2,7,20,11
India,Maharashtra,Kolhapur,"Sinchan Bhavan, Kolhapur - MPCB",10-05-2024 20:00:00,16.7143745,74.2426398,OZONE,16,98,80
India,Maharashtra,Mahad,"Kamble Tarf Birwadi, Mahad - MPCB",10-05-2024 20:00:00,18.1023399,73.4783687,PM2.5,32,68,50
India,Maharashtra,Mahad,"Kamble Tarf Birwadi, Mahad - MPCB",10-05-2024 20:00:00,18.1023399,73.4783687,SO2,9,58,18
India,Maharashtra,Malegaon,"Mahesh Nagar, Malegaon - MPCB",10-05-2024 20:00:00,20.555712,74.529236,NH3,5,7,5
India,Maharashtra,Mira-Bhayandar,"Bhayandar West, Mira-Bhayandar - MPCB",10-05-2024 20:00:00,19.296481,72.840923,PM10,23,188,74
India,Maharashtra,Mumbai,"Bandra Kurla Complex, Mumbai - MPCB",10-05-2024 20:00:00,19.065931,72.862131,PM2.5,16,40,30
India,Maharashtra,Mumbai,"Bandra Kurla Complex, Mumbai - MPCB",10-05-2024 20:00:00,19.065931,72.862131,CO,18,41,20
India,Maharashtra,Mumbai,"Bandra Kurla Complex, Mumbai - MPCB",10-05-2024 20:00:00,19.065931,72.862131,OZONE,13,51,44
India,Maharashtra,Mumbai,"Borivali East, Mumbai - MPCB",10-05-2024 20:00:00,19.2243333,72.8658113,NH3,1,2,1
India,Maharashtra,Mumbai,"Byculla, Mumbai - BMC",10-05-2024 20:00:00,18.9767,72.8380,NH3,2,3,2
India,Maharashtra,Mumbai,"Chakala-Andheri East, Mumbai - IITM",10-05-2024 20:00:00,19.11074,72.86084,NO2,28,137,49
India,Maharashtra,Mumbai,"Chakala-Andheri East, Mumbai - IITM",10-05-2024 20:00:00,19.11074,72.86084,NH3,5,43,12
India,Maharashtra,Mumbai,"Chembur, Mumbai - MPCB",10-05-2024 20:00:00,19.0364585,72.8954371,PM10,34,72,50
India,Maharashtra,Mumbai,"Chembur, Mumbai - MPCB",10-05-2024 20:00:00,19.0364585,72.8954371,NO2,18,77,35
India,Maharashtra,Mumbai,"Chhatrapati Shivaji Intl. Airport (T2), Mumbai - MPCB",10-05-2024 20:00:00,19.10078,72.87462,PM10,54,106,71
India,Maharashtra,Mumbai,"Chhatrapati Shivaji Intl. Airport (T2), Mumbai - MPCB",10-05-2024 20:00:00,19.10078,72.87462,NH3,1,10,3
India,Maharashtra,Mumbai,"Colaba, Mumbai - MPCB",10-05-2024 20:00:00,18.910000,72.820000,PM2.5,16,58,31
India,Maharashtra,Mumbai,"Colaba, Mumbai - MPCB",10-05-2024 20:00:00,18.910000,72.820000,NH3,1,1,1
India,Maharashtra,Mumbai,"Colaba, Mumbai - MPCB",10-05-2024 20:00:00,18.910000,72.820000,OZONE,10,11,11
India,Maharashtra,Mumbai,"Deonar, Mumbai - IITM",10-05-2024 20:00:00,19.04946,72.9230,PM10,50,95,72
India,Maharashtra,Mumbai,"Deonar, Mumbai - IITM",10-05-2024 20:00:00,19.04946,72.9230,NH3,6,10,8
India,Maharashtra,Mumbai,"Ghatkopar, Mumbai - BMC",10-05-2024 20:00:00,19.083694,72.920967,PM2.5,6,30,15
India,Maharashtra,Mumbai,"Ghatkopar, Mumbai - BMC",10-05-2024 20:00:00,19.083694,72.920967,NO2,5,27,14
India,Maharashtra,Mumbai,"Kandivali East, Mumbai - MPCB",10-05-2024 20:00:00,19.205800,72.868200,SO2,8,9,8
India,Maharashtra,Mumbai,"Mindspace-Malad West, Mumbai - MPCB",10-05-2024 20:00:00,19.1878657,72.8304069,NH3,7,9,8
India,Maharashtra,Mumbai,"Mulund West, Mumbai - MPCB",10-05-2024 20:00:00,19.1750,72.9419,PM2.5,24,52,34
India,Maharashtra,Mumbai,"Mulund West, Mumbai - MPCB",10-05-2024 20:00:00,19.1750,72.9419,SO2,12,14,13
India,Maharashtra,Mumbai,"Navy Nagar-Colaba, Mumbai - IITM",10-05-2024 20:00:00,18.897756,72.813320,PM2.5,21,50,32
India,Maharashtra,Mumbai,"Navy Nagar-Colaba, Mumbai - IITM",10-05-2024 20:00:00,18.897756,72.813320,NO2,48,61,56
India,Maharashtra,Mumbai,"Navy Nagar-Colaba, Mumbai - IITM",10-05-2024 20:00:00,18.897756,72.813320,NH3,4,5,4
India,Maharashtra,Mumbai,"Powai, Mumbai - MPCB",10-05-2024 20:00:00,19.137500,72.915056,NH3,1,1,1
India,Maharashtra,Mumbai,"Powai, Mumbai - MPCB",10-05-2024 20:00:00,19.137500,72.915056,CO,28,37,35
India,Maharashtra,Mumbai,"Sewri, Mumbai - BMC",10-05-2024 20:00:00,19.000084,72.856730,PM10,2,10,4
India,Maharashtra,Mumbai,"Sewri, Mumbai - BMC",10-05-2024 20:00:00,19.000084,72.856730,NH3,3,5,4
India,Maharashtra,Mumbai,"Siddharth Nagar-Worli, Mumbai - IITM",10-05-2024 20:00:00,19.000083,72.813993,PM2.5,36,49,44
India,Maharashtra,Mumbai,"Siddharth Nagar-Worli, Mumbai - IITM",10-05-2024 20:00:00,19.000083,72.813993,NO2,15,24,21
India,Maharashtra,Mumbai,"Siddharth Nagar-Worli, Mumbai - IITM",10-05-2024 20:00:00,19.000083,72.813993,CO,67,93,75
India,Maharashtra,Mumbai,"Siddharth Nagar-Worli, Mumbai - IITM",10-05-2024 20:00:00,19.000083,72.813993,OZONE,33,68,59
India,Maharashtra,Mumbai,"Sion, Mumbai - MPCB",10-05-2024 20:00:00,19.047000,72.874600,PM10,42,84,62
India,Maharashtra,Mumbai,"Sion, Mumbai - MPCB",10-05-2024 20:00:00,19.047000,72.874600,OZONE,78,97,85
India,Maharashtra,Mumbai,"Vasai West, Mumbai - MPCB",10-05-2024 20:00:00,19.383200,72.820400,PM2.5,20,115,38
India,Maharashtra,Mumbai,"Vile Parle West, Mumbai - MPCB",10-05-2024 20:00:00,19.10861,72.83622,PM10,40,97,64
India,Maharashtra,Nagpur,"Ambazari, Nagpur - MPCB",10-05-2024 20:00:00,21.121801,79.04952,PM2.5,29,107,59
India,Maharashtra,Nagpur,"Mahal, Nagpur - MPCB",10-05-2024 20:00:00,21.14472,79.107595,SO2,6,35,15
India,Maharashtra,Nagpur,"Opp GPO Civil Lines, Nagpur - MPCB",10-05-2024 20:00:00,21.152875,79.0517531,NO2,18,104,46
India,Maharashtra,Nashik,"Gangapur Road, Nashik - MPCB",10-05-2024 20:00:00,20.0073285,73.7762427,SO2,3,10,6
India,Maharashtra,Nashik,"Gangapur Road, Nashik - MPCB",10-05-2024 20:00:00,20.0073285,73.7762427,CO,23,133,60
India,Maharashtra,Nashik,"Hirawadi, Nashik - MPCB",10-05-2024 20:00:00,20.021503,73.813844,CO,14,36,21
India,Maharashtra,Nashik,"Hirawadi, Nashik - MPCB",10-05-2024 20:00:00,20.021503,73.813844,OZONE,8,81,73
India,Maharashtra,Nashik,"MIDC Ambad, Nashik - MPCB",10-05-2024 20:00:00,19.950220,73.731480,OZONE,17,73,63
India,Maharashtra,Nashik,"Pandav Nagari, Nashik - MPCB",10-05-2024 20:00:00,19.9591346,73.7788008,PM10,47,83,61
India,Maharashtra,Nashik,"Pandav Nagari, Nashik - MPCB",10-05-2024 20:00:00,19.9591346,73.7788008,NH3,2,12,6
India,Maharashtra,Navi Mumbai,"Kopripada-Vashi, Navi Mumbai - MPCB",10-05-2024 20:00:00,19.090337,73.014232,SO2,1,11,3
India,Maharashtra,Navi Mumbai,"Mahape, Navi Mumbai - MPCB",10-05-2024 20:00:00,19.1135051,73.008978,PM10,30,129,78
India,Maharashtra,Navi Mumbai,"Nerul, Navi Mumbai - MPCB",10-05-2024 20:00:00,19.008751,73.016620,OZONE,27,35,29
India,Maharashtra,Navi Mumbai,"Sanpada, Navi Mumbai - MPCB",10-05-2024 20:00:00,19.0575752,73.0151367,PM10,39,87,58
India,Maharashtra,Navi Mumbai,"Sanpada, Navi Mumbai - MPCB",10-05-2024 20:00:00,19.0575752,73.0151367,NH3,1,5,1
India,Maharashtra,Navi Mumbai,"Sanpada, Navi Mumbai - MPCB",10-05-2024 20:00:00,19.0575752,73.0151367,OZONE,4,32,23
India,Maharashtra,Navi Mumbai,"Sector-19A Nerul, Navi Mumbai - IITM",10-05-2024 20:00:00,19.044,73.0325,PM2.5,17,64,36
India,Maharashtra,Navi Mumbai,"Tondare-Taloja, Navi Mumbai - MPCB",10-05-2024 20:00:00,19.0630,73.1209,SO2,NA,NA,NA
India,Maharashtra,Parbhani,"Masoom Colony, Parbhani - MPCB",10-05-2024 20:00:00,19.265594,76.761463,NO2,18,45,27
India,Maharashtra,Parbhani,"Masoom Colony, Parbhani - MPCB",10-05-2024 20:00:00,19.265594,76.761463,CO,18,54,28
India,Maharashtra,Pimpri-Chinchwad,"Gavalinagar, Pimpri Chinchwad - MPCB",10-05-2024 20:00:00,18.63673,73.82487,PM10,58,95,73
India,Maharashtra,Pimpri-Chinchwad,"Gavalinagar, Pimpri Chinchwad - MPCB",10-05-2024 20:00:00,18.63673,73.82487,SO2,2,10,5
India,Maharashtra,Pimpri-Chinchwad,"Gavalinagar, Pimpri Chinchwad - MPCB",10-05-2024 20:00:00,18.63673,73.82487,OZONE,11,145,108
India,Maharashtra,Pimpri-Chinchwad,"Park Street Wakad, Pimpri Chinchwad - MPCB",10-05-2024 20:00:00,18.59051,73.77946,PM2.5,14,475,115
India,Maharashtra,Pimpri-Chinchwad,"Park Street Wakad, Pimpri Chinchwad - MPCB",10-05-2024 20:00:00,18.59051,73.77946,NO2,27,118,45
India,Maharashtra,Pimpri-Chinchwad,"Park Street Wakad, Pimpri Chinchwad - MPCB",10-05-2024 20:00:00,18.59051,73.77946,CO,42,116,65
India,Maharashtra,Pimpri-Chinchwad,"Thergaon, Pimpri Chinchwad - MPCB",10-05-2024 20:00:00,18.616318,73.765797,SO2,1,2,2
India,Maharashtra,Pune,"Bhosari, Pune - IITM",10-05-2024 20:00:00,18.640051,73.848956,NO2,8,22,14
India,Maharashtra,Pune,"Bhosari, Pune - IITM",10-05-2024 20:00:00,18.640051,73.848956,OZONE,11,128,84
India,Maharashtra,Pune,"Karve Road, Pune - MPCB",10-05-2024 20:00:00,18.5011743,73.8165527,CO,1,63,38
India,Maharashtra,Pune,"Katraj Dairy, Pune - MPCB",10-05-2024 20:00:00,18.454450,73.854155,NO2,14,43,22
India,Maharashtra,Pune,"Katraj Dairy, Pune - MPCB",10-05-2024 20:00:00,18.454450,73.854155,SO2,1,4,2
India,Maharashtra,Pune,"Mhada Colony, Pune - IITM",10-05-2024 20:00:00,18.573040,73.927715,PM10,73,122,92
India,Maharashtra,Pune,"Savitribai Phule Pune University, Pune - MPCB",10-05-2024 20:00:00,18.547056,73.826908,SO2,1,9,4
India,Maharashtra,Pune,"Transport Nagar-Nigdi, Pune - IITM",10-05-2024 20:00:00,18.664282,73.763966,CO,33,94,48
India,Maharashtra,Sangli,"Vijay Nagar, Sangli - MPCB",10-05-2024 20:00:00, 16.5038,74.3623,PM10,45,89,65
India,Maharashtra,Sangli,"Vijay Nagar, Sangli - MPCB",10-05-2024 20:00:00, 16.5038,74.3623,NH3,2,5,4
India,Maharashtra,Solapur,"Dnyaneshwar Nagar, Solapur - MPCB",10-05-2024 20:00:00,17.6336264,75.9132495,PM2.5,3,181,53
India,Maharashtra,Solapur,"Dnyaneshwar Nagar, Solapur - MPCB",10-05-2024 20:00:00,17.6336264,75.9132495,OZONE,31,76,56
India,Maharashtra,Solapur,"Ratandeep Housing Society, Solapur - MPCB",10-05-2024 20:00:00,17.65439,75.90649,PM2.5,32,51,44
India,Maharashtra,Solapur,"Ratandeep Housing Society, Solapur - MPCB",10-05-2024 20:00:00,17.65439,75.90649,PM10,33,74,51
India,Maharashtra,Solapur,"Ratandeep Housing Society, Solapur - MPCB",10-05-2024 20:00:00,17.65439,75.90649,NO2,9,40,21
India,Maharashtra,Solapur,"Solapur, Solapur - MPCB",10-05-2024 20:00:00,17.6599188,75.9063906,NO2,54,55,55
India,Maharashtra,Thane,"Kasarvadavali, Thane - MPCB",10-05-2024 20:00:00,19.26777,72.97182,NH3,4,6,5
India,Maharashtra,Thane,"Kasarvadavali, Thane - MPCB",10-05-2024 20:00:00,19.26777,72.97182,SO2,1,8,2
India,Maharashtra,Thane,"Kasarvadavali, Thane - MPCB",10-05-2024 20:00:00,19.26777,72.97182,CO,4,16,7
India,Maharashtra,Thane,"Upvan Fort, Thane - MPCB",10-05-2024 20:00:00,19.222279,72.957979,PM2.5,17,54,32
India,Maharashtra,Thane,"Upvan Fort, Thane - MPCB",10-05-2024 20:00:00,19.222279,72.957979,NH3,4,5,4
India,Maharashtra,Ulhasnagar,"Sidhi Vinayak Nagar, Ulhasnagar - MPCB",10-05-2024 20:00:00,19.235581,73.159121,PM2.5,32,89,48
India,Maharashtra,Virar,"Bolinj, Virar - MPCB",10-05-2024 20:00:00,19.4458210,72.7988231,PM10,33,101,49
India,Maharashtra,Virar,"Bolinj, Virar - MPCB",10-05-2024 20:00:00,19.4458210,72.7988231,CO,8,100,13
India,Manipur,Imphal,"DM College of Science, Imphal - Manipur PCB",10-05-2024 20:00:00,24.8207389,93.9423085,NO2,NA,NA,NA
India,Manipur,Imphal,"DM College of Science, Imphal - Manipur PCB",10-05-2024 20:00:00,24.8207389,93.9423085,NH3,NA,NA,NA
India,Meghalaya,Shillong,"Lumpyngngad, Shillong - Meghalaya PCB",10-05-2024 20:00:00,25.5586,91.8985,NO2,NA,NA,NA
India,Meghalaya,Shillong,"Lumpyngngad, Shillong - Meghalaya PCB",10-05-2024 20:00:00,25.5586,91.8985,SO2,NA,NA,NA
India,Mizoram,Aizawl,"Sikulpuikawn, Aizawl - Mizoram PCB",10-05-2024 20:00:00,23.7176342,92.7192841,PM2.5,3,23,11
India,Mizoram,Aizawl,"Sikulpuikawn, Aizawl - Mizoram PCB",10-05-2024 20:00:00,23.7176342,92.7192841,NH3,1,3,1
India,Nagaland,Kohima,"PWD Juction, Kohima - NPCB",10-05-2024 20:00:00,25.6635413,94.0989878,NH3,1,1,1
India,Odisha,Angul,"Hakimapada, Angul - OSPCB",10-05-2024 20:00:00,20.832874,85.104082,CO,8,63,23
India,Odisha,Barbil,"Forest Office, Barbil - OSPCB",10-05-2024 20:00:00,22.1166054,85.3945546,SO2,5,13,8
India,Odisha,Baripada,"Meher Colony, Baripada - OSPCB",10-05-2024 20:00:00,21.941841,86.728318,SO2,2,4,3
India,Odisha,Baripada,"Meher Colony, Baripada - OSPCB",10-05-2024 20:00:00,21.941841,86.728318,OZONE,27,84,66
India,Odisha,Brajrajnagar,"GM Office, Brajrajnagar - OSPCB",10-05-2024 20:00:00,21.8004996,83.8396977,PM2.5,8,52,28
India,Odisha,Brajrajnagar,"GM Office, Brajrajnagar - OSPCB",10-05-2024 20:00:00,21.8004996,83.8396977,NH3,13,13,13
India,Odisha,Byasanagar,"Ferro Chrome Colony, Byasanagar - OSPCB",10-05-2024 20:00:00,20.94185,86.11510,SO2,5,25,9
India,Odisha,Cuttack,"CDA Area, Cuttack - OSPCB",10-05-2024 20:00:00,20.48891     ,85.84768     ,NO2,12,35,21
India,Odisha,Cuttack,"CDA Area, Cuttack - OSPCB",10-05-2024 20:00:00,20.48891     ,85.84768     ,OZONE,28,85,58
India,Odisha,Keonjhar,"Jagamohanpur, Keonjhar - OSPCB",10-05-2024 20:00:00,21.643900,85.599355,NH3,1,3,2
India,Odisha,Nayagarh,"Dabuna, Nayagarh - OSPCB",10-05-2024 20:00:00,21.847279,85.416905,PM10,30,66,41
India,Odisha,Rairangpur,"Divisional Forest Office, Rairangpur - OSPCB",10-05-2024 20:00:00,22.265816,86.174829,OZONE,2,28,19
India,Odisha,Rourkela,"Fertilizer Township, Rourkela - OSPCB",10-05-2024 20:00:00,22.18972222,84.86277778,CO,17,24,20
India,Odisha,Rourkela,"Raghunathpali, Rourkela - OSPCB",10-05-2024 20:00:00,22.220833,84.809444,PM10,38,110,71
India,Odisha,Rourkela,"Raghunathpali, Rourkela - OSPCB",10-05-2024 20:00:00,22.220833,84.809444,CO,26,60,37
India,Odisha,Rourkela,"Sector-2, Rourkela - OSPCB",10-05-2024 20:00:00,22.24500000,84.88111111,PM2.5,57,191,89
India,Odisha,Rourkela,"Sector-2, Rourkela - OSPCB",10-05-2024 20:00:00,22.24500000,84.88111111,PM10,42,140,80
India,Odisha,Suakati,"OMC Colony, Suakati - OSPCB",10-05-2024 20:00:00,21.606865,85.510538,CO,14,30,26
India,Odisha,Suakati,"OMC Colony, Suakati - OSPCB",10-05-2024 20:00:00,21.606865,85.510538,OZONE,17,81,65
India,Odisha,Talcher,"Talcher Coalfields,Talcher - OSPCB",10-05-2024 20:00:00,20.9360711,85.1707021,SO2,30,39,35
India,Odisha,Tensa,"Barsua Iron Ore Mines, Tensa - OSPCB",10-05-2024 20:00:00,21.869985,85.167016,NO2,NA,NA,NA
India,Punjab,Amritsar,"Golden Temple, Amritsar - PPCB",10-05-2024 20:00:00,31.620000,74.876512,PM2.5,20,141,100
India,Punjab,Amritsar,"Golden Temple, Amritsar - PPCB",10-05-2024 20:00:00,31.620000,74.876512,SO2,6,28,15
India,Punjab,Amritsar,"Golden Temple, Amritsar - PPCB",10-05-2024 20:00:00,31.620000,74.876512,OZONE,10,59,47
India,Punjab,Bathinda,"Hardev Nagar, Bathinda - PPCB",10-05-2024 20:00:00,30.233011,74.907758,NO2,25,31,27
India,Punjab,Bathinda,"Hardev Nagar, Bathinda - PPCB",10-05-2024 20:00:00,30.233011,74.907758,CO,2,141,55
India,Punjab,Jalandhar,"Civil Line, Jalandhar - PPCB",10-05-2024 20:00:00,31.321907,75.578914,PM2.5,68,164,94
India,Punjab,Ludhiana,"Punjab Agricultural University, Ludhiana - PPCB",10-05-2024 20:00:00,30.9028,75.8086,OZONE,25,61,45
India,Punjab,Mandi Gobindgarh,"RIMT University, Mandi Gobindgarh - PPCB",10-05-2024 20:00:00,30.649961,76.331442,CO,30,46,32
India,Punjab,Rupnagar,"Ratanpura, Rupnagar - Ambuja Cements",10-05-2024 20:00:00,31.0325454,76.5623046,SO2,4,7,6
India,Rajasthan,Ajmer,"Civil Lines,  Ajmer - RSPCB",10-05-2024 20:00:00,26.470859,74.646594,PM10,79,153,108
India,Rajasthan,Ajmer,"Civil Lines,  Ajmer - RSPCB",10-05-2024 20:00:00,26.470859,74.646594,NO2,12,15,14
India,Rajasthan,Alwar,"Moti Doongri, Alwar - RSPCB",10-05-2024 20:00:00,27.554793,76.611536,PM2.5,70,124,89
India,Rajasthan,Alwar,"Moti Doongri, Alwar - RSPCB",10-05-2024 20:00:00,27.554793,76.611536,OZONE,17,51,39
India,Rajasthan,Banswara,"Rati Talai, Banswara - RSPCB",10-05-2024 20:00:00,23.555190,74.440010,SO2,1,46,14
India,Rajasthan,Banswara,"Rati Talai, Banswara - RSPCB",10-05-2024 20:00:00,23.555190,74.440010,OZONE,9,113,92
India,Rajasthan,Barmer,"Railway Colony, Barmer - RSPCB",10-05-2024 20:00:00,25.747299,71.393989,PM2.5,NA,NA,NA
India,Rajasthan,Barmer,"Railway Colony, Barmer - RSPCB",10-05-2024 20:00:00,25.747299,71.393989,NO2,NA,NA,NA
India,Rajasthan,Bharatpur,"Krishna Nagar, Bharatpur - RSPCB",10-05-2024 20:00:00,27.215415,77.50873,PM2.5,86,500,164
India,Rajasthan,Bharatpur,"Krishna Nagar, Bharatpur - RSPCB",10-05-2024 20:00:00,27.215415,77.50873,PM10,108,500,161
India,Rajasthan,Bhilwara,"Pratap Nagar, Bhilwara - RSPCB",10-05-2024 20:00:00,25.339605,74.618883,PM2.5,32,78,52
India,Rajasthan,Bhilwara,"Pratap Nagar, Bhilwara - RSPCB",10-05-2024 20:00:00,25.339605,74.618883,SO2,10,48,19
India,Rajasthan,Bhiwadi,"RIICO Ind. Area III, Bhiwadi - RSPCB",10-05-2024 20:00:00,28.194909,76.862296,PM2.5,96,245,179
India,Rajasthan,Bhiwadi,"RIICO Ind. Area III, Bhiwadi - RSPCB",10-05-2024 20:00:00,28.194909,76.862296,PM10,131,180,155
India,Rajasthan,Bhiwadi,"RIICO Ind. Area III, Bhiwadi - RSPCB",10-05-2024 20:00:00,28.194909,76.862296,NO2,7,18,12
India,Rajasthan,Bhiwadi,"RIICO Ind. Area III, Bhiwadi - RSPCB",10-05-2024 20:00:00,28.194909,76.862296,NH3,1,12,5
India,Rajasthan,Bhiwadi,"Vasundhara Nagar_UIT, Bhiwadi - RSPCB",10-05-2024 20:00:00,28.207266,76.829265,PM2.5,76,316,181
India,Rajasthan,Bhiwadi,"Vasundhara Nagar_UIT, Bhiwadi - RSPCB",10-05-2024 20:00:00,28.207266,76.829265,SO2,4,60,27
India,Rajasthan,Bhiwadi,"Vasundhara Nagar_UIT, Bhiwadi - RSPCB",10-05-2024 20:00:00,28.207266,76.829265,CO,20,46,27
India,Rajasthan,Bhiwadi,"Vasundhara Nagar_UIT, Bhiwadi - RSPCB",10-05-2024 20:00:00,28.207266,76.829265,OZONE,45,321,121
India,Rajasthan,Bikaner,"MM Ground, Bikaner - RSPCB",10-05-2024 20:00:00,28.018792,73.292658,PM2.5,27,300,68
India,Rajasthan,Bikaner,"MM Ground, Bikaner - RSPCB",10-05-2024 20:00:00,28.018792,73.292658,SO2,3,14,6
India,Rajasthan,Bikaner,"MM Ground, Bikaner - RSPCB",10-05-2024 20:00:00,28.018792,73.292658,OZONE,5,79,68
India,Rajasthan,Bundi,"New Colony, Bundi - RSPCB",10-05-2024 20:00:00,25.435774,75.644272,NO2,6,108,21
India,Rajasthan,Bundi,"New Colony, Bundi - RSPCB",10-05-2024 20:00:00,25.435774,75.644272,OZONE,18,140,100
India,Rajasthan,Chittorgarh,"Shastri Nagar, Chittorgarh - RSPCB",10-05-2024 20:00:00,24.892047,74.623527,NO2,5,70,31
India,Rajasthan,Dungarpur,"Bhoiwada, Dungarpur - RSPCB",10-05-2024 20:00:00,23.837789,73.714926,SO2,4,12,8
India,Rajasthan,Dungarpur,"Bhoiwada, Dungarpur - RSPCB",10-05-2024 20:00:00,23.837789,73.714926,OZONE,20,64,48
India,Rajasthan,Hanumangarh,"Housing Board, Hanumangarh - RSPCB",10-05-2024 20:00:00,29.610750,74.283608,NO2,13,117,33
India,Rajasthan,Jaipur,"Mansarovar Sector-12, Jaipur - RSPCB",10-05-2024 20:00:00,26.843698,75.766894,NH3,2,7,6
India,Rajasthan,Jaipur,"Police Commissionerate, Jaipur - RSPCB",10-05-2024 20:00:00,26.9164092,75.7994901,CO,18,83,36
India,Rajasthan,Jaipur,"RIICO Sitapura, Jaipur - RSPCB",10-05-2024 20:00:00,26.786682,75.827928,NO2,NA,NA,NA
India,Rajasthan,Jaipur,"Sector-2 Murlipura, Jaipur - RSPCB",10-05-2024 20:00:00,26.960669,75.771817,SO2,6,15,11
India,Rajasthan,Jaipur,"Sector-2 Murlipura, Jaipur - RSPCB",10-05-2024 20:00:00,26.960669,75.771817,CO,30,66,36
India,Rajasthan,Jaipur,"Sector-2 Murlipura, Jaipur - RSPCB",10-05-2024 20:00:00,26.960669,75.771817,OZONE,60,96,75
India,Rajasthan,Jaipur,"Shastri Nagar, Jaipur - RSPCB",10-05-2024 20:00:00,26.9502929,75.730943,NO2,13,42,26
India,Rajasthan,Jaipur,"Shastri Nagar, Jaipur - RSPCB",10-05-2024 20:00:00,26.9502929,75.730943,NH3,2,3,3
India,Rajasthan,Jaisalmer,"Sadar Bazar, Jaisalmer - RSPCB",10-05-2024 20:00:00,26.912329,70.909168,OZONE,26,95,71
India,Rajasthan,Jhalawar,"Rajlaxmi Nagar, Jhalawar - RSPCB",10-05-2024 20:00:00,24.588397,76.172782,NO2,20,33,26
India,Rajasthan,Jhalawar,"Rajlaxmi Nagar, Jhalawar - RSPCB",10-05-2024 20:00:00,24.588397,76.172782,OZONE,41,137,112
India,Rajasthan,Jodhpur,"Collectorate, Jodhpur - RSPCB",10-05-2024 20:00:00,26.268249,73.0193853,PM2.5,17,261,88
India,Rajasthan,Jodhpur,"Collectorate, Jodhpur - RSPCB",10-05-2024 20:00:00,26.268249,73.0193853,OZONE,26,82,70
India,Rajasthan,Jodhpur,"Jhalamand, Jodhpur - RSPCB",10-05-2024 20:00:00,26.215415,73.070156,NH3,4,7,5
India,Rajasthan,Jodhpur,"Mandor, Jodhpur - RSPCB",10-05-2024 20:00:00,26.358805,73.047444,PM2.5,14,40,24
India,Rajasthan,Jodhpur,"Samrat Ashok Udhyan, Jodhpur - RSPCB",10-05-2024 20:00:00,26.253384,72.976571,PM2.5,15,46,23
India,Rajasthan,Karauli,"Satyawati Vihar, Karauli - RSPCB",10-05-2024 20:00:00,26.506177,77.025989,NO2,11,22,16
India,Rajasthan,Karauli,"Satyawati Vihar, Karauli - RSPCB",10-05-2024 20:00:00,26.506177,77.025989,SO2,9,24,19
India,Rajasthan,Kota,"Dhanmandi, Kota - RSPCB",10-05-2024 20:00:00,25.164090,75.858137,PM10,84,179,140
India,Rajasthan,Kota,"Dhanmandi, Kota - RSPCB",10-05-2024 20:00:00,25.164090,75.858137,SO2,4,104,17
India,Rajasthan,Kota,"Nayapura, Kota - RSPCB",10-05-2024 20:00:00,25.196024,75.855668,CO,14,113,23
India,Rajasthan,Nagaur,"Karni Colony, Nagaur - RSPCB",10-05-2024 20:00:00,27.213494,73.734444,PM10,90,268,143
India,Rajasthan,Pali,"Indira Colony Vistar, Pali - RSPCB",10-05-2024 20:00:00,25.771061, 73.340227,PM2.5,53,170,90
India,Rajasthan,Pali,"Indira Colony Vistar, Pali - RSPCB",10-05-2024 20:00:00,25.771061, 73.340227,PM10,98,141,121
India,Rajasthan,Pali,"Indira Colony Vistar, Pali - RSPCB",10-05-2024 20:00:00,25.771061, 73.340227,NO2,17,59,30
India,Rajasthan,Pali,"Indira Colony Vistar, Pali - RSPCB",10-05-2024 20:00:00,25.771061, 73.340227,NH3,6,17,12
India,Rajasthan,Pratapgarh,"Pragati Nagar, Pratapgarh - RSPCB",10-05-2024 20:00:00,24.041198,74.780702,NH3,6,8,7
India,Rajasthan,Pratapgarh,"Pragati Nagar, Pratapgarh - RSPCB",10-05-2024 20:00:00,24.041198,74.780702,SO2,3,28,10
India,Rajasthan,Pratapgarh,"Pragati Nagar, Pratapgarh - RSPCB",10-05-2024 20:00:00,24.041198,74.780702,CO,9,24,16
India,Rajasthan,Rajsamand,"Dhoinda, Rajsamand - RSPCB",10-05-2024 20:00:00,25.036360,73.883502,NO2,6,27,13
India,Rajasthan,Sawai Madhopur,"Sahu Nagar, Sawai Madhopur - RSPCB",10-05-2024 20:00:00,26.031443,76.359327,PM2.5,40,71,54
India,Rajasthan,Sikar,"Radhakishan Pura, Sikar - RSPCB",10-05-2024 20:00:00,27.608912,75.153302,PM10,105,500,159
India,Rajasthan,Sikar,"Radhakishan Pura, Sikar - RSPCB",10-05-2024 20:00:00,27.608912,75.153302,SO2,4,14,8
India,Rajasthan,Sri Ganganagar,"Old City, Sri Ganganagar - RSPCB",10-05-2024 20:00:00,29.931624,73.864511,CO,2,110,64
India,Rajasthan,Tonk,"Shastri Nagar, Tonk - RSPCB",10-05-2024 20:00:00,26.159933,75.780517,PM2.5,27,127,61
India,Sikkim,Gangtok,"Zero Point GICI, Gangtok - SSPCB",10-05-2024 20:00:00,27.338530,88.614099,CO,7,19,9
India,TamilNadu,Ariyalur,"Keelapalur, Ariyalur - TNPCB",10-05-2024 20:00:00,11.06825,79.07033,NO2,5,6,6
India,TamilNadu,Chengalpattu,"Crescent University, Chengalpattu - TNPCB",10-05-2024 20:00:00,12.8777316,80.0834807,PM2.5,NA,NA,NA
India,TamilNadu,Chengalpattu,"Crescent University, Chengalpattu - TNPCB",10-05-2024 20:00:00,12.8777316,80.0834807,NH3,23,24,24
India,TamilNadu,Chengalpattu,"Crescent University, Chengalpattu - TNPCB",10-05-2024 20:00:00,12.8777316,80.0834807,CO,26,28,27
India,TamilNadu,Chengalpattu,"Crescent University, Chengalpattu - TNPCB",10-05-2024 20:00:00,12.8777316,80.0834807,OZONE,6,6,6
India,TamilNadu,Chennai,"Alandur Bus Depot, Chennai - CPCB",10-05-2024 20:00:00,12.9099161,80.1076538,NO2,5,12,9
India,TamilNadu,Chennai,"Alandur Bus Depot, Chennai - CPCB",10-05-2024 20:00:00,12.9099161,80.1076538,OZONE,1,28,10
India,TamilNadu,Chennai,"Kodungaiyur, Chennai - TNPCB",10-05-2024 20:00:00,13.1278,80.2642,NO2,6,21,11
India,TamilNadu,Chennai,"Kodungaiyur, Chennai - TNPCB",10-05-2024 20:00:00,13.1278,80.2642,CO,18,49,29
India,TamilNadu,Chennai,"Manali, Chennai - CPCB",10-05-2024 20:00:00,13.164544,80.26285,NH3,4,5,4
India,TamilNadu,Chennai,"Perungudi, Chennai - TNPCB",10-05-2024 20:00:00,12.9533,80.2357,PM2.5,NA,NA,NA
India,TamilNadu,Chennai,"Perungudi, Chennai - TNPCB",10-05-2024 20:00:00,12.9533,80.2357,CO,12,20,17
India,TamilNadu,Chennai,"Royapuram, Chennai - TNPCB",10-05-2024 20:00:00,13.1036,80.2909,NO2,6,24,16
India,TamilNadu,Chennai,"Velachery Res. Area, Chennai - CPCB",10-05-2024 20:00:00,13.0052189,80.2398125,NH3,9,15,12
India,TamilNadu,Cuddalore,"Kudikadu, Cuddalore - TNPCB",10-05-2024 20:00:00,11.6829898,79.7532099,PM2.5,13,92,42
India,TamilNadu,Cuddalore,"Semmandalam, Cuddalore - TNPCB",10-05-2024 20:00:00,11.7637683,79.7499835,PM10,1,77,16
India,TamilNadu,Gummidipoondi,"Anthoni Pillai Nagar, Gummidipoondi - TNPCB",10-05-2024 20:00:00,13.4127,80.1081,SO2,1,36,11
India,TamilNadu,Ooty,"Bombay Castel, Ooty - TNPCB",10-05-2024 20:00:00,11.4068288,76.7138973,CO,19,23,22
India,TamilNadu,Ramanathapuram,"Chalai Bazaar, Ramanathapuram - TNPCB",10-05-2024 20:00:00,9.36399,78.831977,OZONE,13,14,14
India,TamilNadu,Salem,"Sona College of Technology, Salem - TNPCB",10-05-2024 20:00:00,11.679111,78.125052,PM2.5,1,61,26
India,TamilNadu,Salem,"Sona College of Technology, Salem - TNPCB",10-05-2024 20:00:00,11.679111,78.125052,CO,47,51,48
India,TamilNadu,Thoothukudi,"Meelavittan, Thoothukudi - TNPCB",10-05-2024 20:00:00,8.816428 ,78.099039,NO2,31,59,37
India,TamilNadu,Vellore,"Vasanthapuram, Vellore - TNPCB",10-05-2024 20:00:00,12.909494,79.131861,NO2,5,22,14
India,TamilNadu,Vellore,"Vasanthapuram, Vellore - TNPCB",10-05-2024 20:00:00,12.909494,79.131861,OZONE,1,2,2
India,Telangana,Hyderabad,"Bollaram Industrial Area, Hyderabad - TSPCB",10-05-2024 20:00:00,17.540891,78.358528,CO,3,117,23
India,Telangana,Hyderabad,"ICRISAT Patancheru, Hyderabad - TSPCB",10-05-2024 20:00:00,17.518400,78.278777,PM2.5,8,75,31
India,Telangana,Hyderabad,"ICRISAT Patancheru, Hyderabad - TSPCB",10-05-2024 20:00:00,17.518400,78.278777,NH3,2,2,2
India,Telangana,Hyderabad,"IITH Kandi, Hyderabad - TSPCB",10-05-2024 20:00:00,17.585705,78.126199,NO2,NA,NA,NA
India,Telangana,Hyderabad,"IITH Kandi, Hyderabad - TSPCB",10-05-2024 20:00:00,17.585705,78.126199,NH3,NA,NA,NA
India,Telangana,Hyderabad,"Kokapet, Hyderabad - TSPCB",10-05-2024 20:00:00,17.393559,78.339194,PM2.5,NA,NA,NA
India,Telangana,Hyderabad,"Kompally Municipal Office, Hyderabad - TSPCB",10-05-2024 20:00:00,17.544899,78.486949,PM10,52,63,56
India,Telangana,Hyderabad,"Kompally Municipal Office, Hyderabad - TSPCB",10-05-2024 20:00:00,17.544899,78.486949,NO2,11,14,12
India,Telangana,Hyderabad,"Nacharam_TSIIC IALA, Hyderabad - TSPCB",10-05-2024 20:00:00,17.429398,78.569354,PM2.5,NA,NA,NA
India,Telangana,Hyderabad,"New Malakpet, Hyderabad - TSPCB",10-05-2024 20:00:00,17.37206,78.50864,PM2.5,29,60,44
India,Telangana,Hyderabad,"New Malakpet, Hyderabad - TSPCB",10-05-2024 20:00:00,17.37206,78.50864,PM10,72,93,80
India,Telangana,Hyderabad,"New Malakpet, Hyderabad - TSPCB",10-05-2024 20:00:00,17.37206,78.50864,NH3,3,3,3
India,Telangana,Hyderabad,"New Malakpet, Hyderabad - TSPCB",10-05-2024 20:00:00,17.37206,78.50864,SO2,14,21,19
India,Telangana,Hyderabad,"Ramachandrapuram, Hyderabad - TSPCB",10-05-2024 20:00:00,17.528544,78.286195,NH3,NA,NA,NA
India,Telangana,Hyderabad,"Ramachandrapuram, Hyderabad - TSPCB",10-05-2024 20:00:00,17.528544,78.286195,SO2,NA,NA,NA
India,Telangana,Hyderabad,"Sanathnagar, Hyderabad - TSPCB",10-05-2024 20:00:00,17.4559458,78.4332152,NO2,12,384,94
India,Telangana,Hyderabad,"Sanathnagar, Hyderabad - TSPCB",10-05-2024 20:00:00,17.4559458,78.4332152,OZONE,4,175,73
India,Telangana,Hyderabad,"Zoo Park, Hyderabad - TSPCB",10-05-2024 20:00:00,17.349694,78.451437,PM2.5,10,61,35
India,Telangana,Hyderabad,"Zoo Park, Hyderabad - TSPCB",10-05-2024 20:00:00,17.349694,78.451437,OZONE,13,37,29
India,Tripura,Agartala,"Bardowali, Agartala - Tripura SPCB",10-05-2024 20:00:00,23.8175497,91.2726974,PM10,87,142,109
India,Uttar_Pradesh,Agra,"Manoharpur, Agra - UPPCB",10-05-2024 20:00:00,27.23711,78.01936,NO2,35,35,35
India,Uttar_Pradesh,Agra,"Rohta, Agra - UPPCB",10-05-2024 20:00:00,27.106972,78.000111,PM10,8,57,39
India,Uttar_Pradesh,Agra,"Rohta, Agra - UPPCB",10-05-2024 20:00:00,27.106972,78.000111,CO,3,16,7
India,Uttar_Pradesh,Agra,"Sanjay Palace, Agra - UPPCB",10-05-2024 20:00:00,27.19865833,78.00598056,PM2.5,20,37,27
India,Uttar_Pradesh,Agra,"Sanjay Palace, Agra - UPPCB",10-05-2024 20:00:00,27.19865833,78.00598056,SO2,2,45,9
India,Uttar_Pradesh,Agra,"Sector-3B Avas Vikas Colony, Agra - UPPCB",10-05-2024 20:00:00,27.19412,77.96237,NO2,47,60,51
India,Uttar_Pradesh,Baghpat,"Sardar Patel Inter College, Baghpat - UPPCB",10-05-2024 20:00:00,28.964949,77.278761,PM10,90,168,121
India,Uttar_Pradesh,Baghpat,"Sardar Patel Inter College, Baghpat - UPPCB",10-05-2024 20:00:00,28.964949,77.278761,NO2,16,30,23
India,Uttar_Pradesh,Baghpat,"Sardar Patel Inter College, Baghpat - UPPCB",10-05-2024 20:00:00,28.964949,77.278761,CO,52,78,64
India,Uttar_Pradesh,Baghpat,"Sardar Patel Inter College, Baghpat - UPPCB",10-05-2024 20:00:00,28.964949,77.278761,OZONE,46,114,96
India,Uttar_Pradesh,Bareilly,"Civil Lines, Bareilly - UPPCB",10-05-2024 20:00:00,28.359581,79.414455,PM10,11,28,18
India,Uttar_Pradesh,Bareilly,"Civil Lines, Bareilly - UPPCB",10-05-2024 20:00:00,28.359581,79.414455,NH3,1,1,1
India,Uttar_Pradesh,Bareilly,"Civil Lines, Bareilly - UPPCB",10-05-2024 20:00:00,28.359581,79.414455,OZONE,1,13,8
India,Uttar_Pradesh,Bareilly,"Rajendra Nagar, Bareilly - UPPCB",10-05-2024 20:00:00,28.38910936,79.42963708,NO2,2,2,2
India,Uttar_Pradesh,Firozabad,"Nagla Bhau, Firozabad - UPPCB",10-05-2024 20:00:00,27.168897,78.376960,NO2,17,17,17
India,Uttar_Pradesh,Firozabad,"Nagla Bhau, Firozabad - UPPCB",10-05-2024 20:00:00,27.168897,78.376960,OZONE,18,24,21
India,Uttar_Pradesh,Firozabad,"Vibhab Nagar, Firozabad - UPPCB",10-05-2024 20:00:00,27.1594,78.3953,SO2,5,17,10
India,Uttar_Pradesh,Ghaziabad,"Indirapuram, Ghaziabad - UPPCB",10-05-2024 20:00:00,28.646233,77.358075,PM10,146,190,162
India,Uttar_Pradesh,Ghaziabad,"Indirapuram, Ghaziabad - UPPCB",10-05-2024 20:00:00,28.646233,77.358075,NO2,29,42,34
India,Uttar_Pradesh,Ghaziabad,"Indirapuram, Ghaziabad - UPPCB",10-05-2024 20:00:00,28.646233,77.358075,OZONE,9,35,30
India,Uttar_Pradesh,Ghaziabad,"Loni, Ghaziabad - UPPCB",10-05-2024 20:00:00,28.757294,77.278792,SO2,16,66,31
India,Uttar_Pradesh,Ghaziabad,"Sanjay Nagar, Ghaziabad - UPPCB",10-05-2024 20:00:00,28.685382,77.453839,CO,28,70,41
India,Uttar_Pradesh,Gorakhpur,"Madan Mohan Malaviya University of Technology, Gorakhpur - UPPCB",10-05-2024 20:00:00,26.730136,83.433859,NH3,1,2,2
India,Uttar_Pradesh,Gorakhpur,"Madan Mohan Malaviya University of Technology, Gorakhpur - UPPCB",10-05-2024 20:00:00,26.730136,83.433859,OZONE,9,47,42
India,Uttar_Pradesh,Greater Noida,"Knowledge Park - III, Greater Noida - UPPCB",10-05-2024 20:00:00,28.47272,77.482000,PM2.5,85,191,115
India,Uttar_Pradesh,Greater Noida,"Knowledge Park - III, Greater Noida - UPPCB",10-05-2024 20:00:00,28.47272,77.482000,PM10,137,218,162
India,Uttar_Pradesh,Greater Noida,"Knowledge Park - III, Greater Noida - UPPCB",10-05-2024 20:00:00,28.47272,77.482000,NO2,20,69,38
India,Uttar_Pradesh,Hapur,"Anand Vihar, Hapur - UPPCB",10-05-2024 20:00:00,28.725645,77.749675,OZONE,23,87,67
India,Uttar_Pradesh,Jhansi,"Shivaji Nagar, Jhansi - UPPCB",10-05-2024 20:00:00,25.4547,78.6039,PM2.5,5,66,41
India,Uttar_Pradesh,Jhansi,"Shivaji Nagar, Jhansi - UPPCB",10-05-2024 20:00:00,25.4547,78.6039,PM10,5,67,40
India,Uttar_Pradesh,Jhansi,"Shivaji Nagar, Jhansi - UPPCB",10-05-2024 20:00:00,25.4547,78.6039,NO2,1,21,7
India,Uttar_Pradesh,Jhansi,"Shivaji Nagar, Jhansi - UPPCB",10-05-2024 20:00:00,25.4547,78.6039,CO,10,22,12
India,Uttar_Pradesh,Kanpur,"FTI Kidwai Nagar, Kanpur - UPPCB",10-05-2024 20:00:00,26.428282,80.327067,NO2,12,18,17
India,Uttar_Pradesh,Kanpur,"FTI Kidwai Nagar, Kanpur - UPPCB",10-05-2024 20:00:00,26.428282,80.327067,SO2,25,26,26
India,Uttar_Pradesh,Kanpur,"FTI Kidwai Nagar, Kanpur - UPPCB",10-05-2024 20:00:00,26.428282,80.327067,OZONE,15,70,45
India,Uttar_Pradesh,Kanpur,"NSI Kalyanpur, Kanpur - UPPCB",10-05-2024 20:00:00,26.509954,80.249612,PM2.5,63,143,92
India,Uttar_Pradesh,Kanpur,"Nehru Nagar, Kanpur - UPPCB",10-05-2024 20:00:00,26.4703136,80.3229863,PM10,NA,NA,NA
India,Uttar_Pradesh,Khurja,"Kalindi Kunj, Khurja - UPPCB",10-05-2024 20:00:00,28.2348927,77.8683002,PM2.5,48,155,85
India,Uttar_Pradesh,Khurja,"Kalindi Kunj, Khurja - UPPCB",10-05-2024 20:00:00,28.2348927,77.8683002,PM10,46,115,76
India,Uttar_Pradesh,Khurja,"Kalindi Kunj, Khurja - UPPCB",10-05-2024 20:00:00,28.2348927,77.8683002,NH3,1,1,1
India,Uttar_Pradesh,Khurja,"Kalindi Kunj, Khurja - UPPCB",10-05-2024 20:00:00,28.2348927,77.8683002,CO,31,44,37
India,Uttar_Pradesh,Lucknow,"Kukrail Picnic Spot-1, Lucknow - UPPCB",10-05-2024 20:00:00,26.90723,80.98579,NO2,8,8,8
India,Uttar_Pradesh,Lucknow,"Talkatora District Industries Center, Lucknow - CPCB",10-05-2024 20:00:00,26.83399722,80.8917361,NO2,45,61,52
India,Uttar_Pradesh,Lucknow,"Talkatora District Industries Center, Lucknow - CPCB",10-05-2024 20:00:00,26.83399722,80.8917361,SO2,2,15,6
India,Uttar_Pradesh,Meerut,"Jai Bhim Nagar, Meerut - UPPCB",10-05-2024 20:00:00,28.9535882,77.7622941,PM10,124,194,154
India,Uttar_Pradesh,Meerut,"Pallavpuram Phase 2, Meerut - UPPCB",10-05-2024 20:00:00,29.063510,77.709723,PM10,92,157,117
India,Uttar_Pradesh,Moradabad,"Eco Herbal Park, Moradabad - UPPCB",10-05-2024 20:00:00,28.840739,78.697531,NO2,11,30,18
India,Uttar_Pradesh,Moradabad,"Eco Herbal Park, Moradabad - UPPCB",10-05-2024 20:00:00,28.840739,78.697531,NH3,4,9,6
India,Uttar_Pradesh,Moradabad,"Eco Herbal Park, Moradabad - UPPCB",10-05-2024 20:00:00,28.840739,78.697531,CO,1,31,13
India,Uttar_Pradesh,Moradabad,"Employment Office, Moradabad - UPPCB",10-05-2024 20:00:00,28.88528,78.73880,PM10,58,245,113
India,Uttar_Pradesh,Moradabad,"Jigar Colony, Moradabad - UPPCB",10-05-2024 20:00:00,28.856664,78.772638,OZONE,48,81,66
India,Uttar_Pradesh,Moradabad,"Kashiram Nagar, Moradabad - UPPCB",10-05-2024 20:00:00,28.849399,78.742362,SO2,33,49,41
India,Uttar_Pradesh,Muzaffarnagar,"New Mandi, Muzaffarnagar - UPPCB",10-05-2024 20:00:00,29.4723508,77.7194031,NH3,9,12,10
India,Uttar_Pradesh,Muzaffarnagar,"New Mandi, Muzaffarnagar - UPPCB",10-05-2024 20:00:00,29.4723508,77.7194031,SO2,8,34,16
India,Uttar_Pradesh,Noida,"Sector - 125, Noida - UPPCB",10-05-2024 20:00:00,28.5447608,77.3231257,NH3,13,20,16
India,Uttar_Pradesh,Noida,"Sector - 125, Noida - UPPCB",10-05-2024 20:00:00,28.5447608,77.3231257,SO2,11,20,16
India,Uttar_Pradesh,Noida,"Sector - 125, Noida - UPPCB",10-05-2024 20:00:00,28.5447608,77.3231257,CO,44,68,57
India,Uttar_Pradesh,Noida,"Sector - 62, Noida - IMD",10-05-2024 20:00:00,28.6245479,77.3577104,PM2.5,NA,NA,NA
India,Uttar_Pradesh,Noida,"Sector - 62, Noida - IMD",10-05-2024 20:00:00,28.6245479,77.3577104,PM10,NA,NA,NA
India,Uttar_Pradesh,Noida,"Sector - 62, Noida - IMD",10-05-2024 20:00:00,28.6245479,77.3577104,CO,27,30,28
India,Uttar_Pradesh,Prayagraj,"Motilal Nehru NIT, Prayagraj - UPPCB",10-05-2024 20:00:00,25.494,81.863,NH3,7,7,7
India,Uttar_Pradesh,Prayagraj,"Nagar Nigam, Prayagraj - UPPCB",10-05-2024 20:00:00,25.44919916 ,81.82735986 ,PM2.5,26,75,42
India,Uttar_Pradesh,Prayagraj,"Nagar Nigam, Prayagraj - UPPCB",10-05-2024 20:00:00,25.44919916 ,81.82735986 ,PM10,23,67,38
India,Uttar_Pradesh,Prayagraj,"Nagar Nigam, Prayagraj - UPPCB",10-05-2024 20:00:00,25.44919916 ,81.82735986 ,NO2,5,5,5
India,Uttar_Pradesh,Prayagraj,"Nagar Nigam, Prayagraj - UPPCB",10-05-2024 20:00:00,25.44919916 ,81.82735986 ,NH3,3,7,6
India,Uttar_Pradesh,Prayagraj,"Nagar Nigam, Prayagraj - UPPCB",10-05-2024 20:00:00,25.44919916 ,81.82735986 ,SO2,1,35,21
India,Uttar_Pradesh,Prayagraj,"Nagar Nigam, Prayagraj - UPPCB",10-05-2024 20:00:00,25.44919916 ,81.82735986 ,OZONE,11,13,11
India,Uttar_Pradesh,Varanasi,"Bhelupur, Varanasi - UPPCB",10-05-2024 20:00:00,25.301778,82.996789,PM2.5,6,11,8
India,Uttar_Pradesh,Varanasi,"Bhelupur, Varanasi - UPPCB",10-05-2024 20:00:00,25.301778,82.996789,NO2,7,8,8
India,Uttar_Pradesh,Varanasi,"IESD Banaras Hindu University, Varanasi - UPPCB",10-05-2024 20:00:00,25.262326,82.995408,NO2,2,3,2
India,Uttar_Pradesh,Varanasi,"Maldahiya, Varanasi - UPPCB",10-05-2024 20:00:00,25.32393,82.99687,PM10,14,29,19
India,Uttar_Pradesh,Varanasi,"Maldahiya, Varanasi - UPPCB",10-05-2024 20:00:00,25.32393,82.99687,OZONE,4,28,24
India,Uttar_Pradesh,Vrindavan,"Omex Eternity, Vrindavan - UPPCB",10-05-2024 20:00:00,27.5714090,77.6557570,NO2,2,3,2
India,Uttar_Pradesh,Vrindavan,"Omex Eternity, Vrindavan - UPPCB",10-05-2024 20:00:00,27.5714090,77.6557570,SO2,43,46,44
India,Uttar_Pradesh,Vrindavan,"Omex Eternity, Vrindavan - UPPCB",10-05-2024 20:00:00,27.5714090,77.6557570,OZONE,26,34,29
India,Uttarakhand,Dehradun,"Doon University, Dehradun - UKPCB",10-05-2024 20:00:00,30.269444,78.044167,NO2,1,4,2
India,Uttarakhand,Dehradun,"Doon University, Dehradun - UKPCB",10-05-2024 20:00:00,30.269444,78.044167,OZONE,33,96,85
India,Uttarakhand,Kashipur,"Govt. Girls Inter College, Kashipur - UKPCB",10-05-2024 20:00:00,29.2124114,78.9611753,NH3,4,9,7
India,Uttarakhand,Rishikesh,"Shivaji Nagar, Rishikesh - UKPCB",10-05-2024 20:00:00,30.075911,78.2859547,NH3,2,4,2
India,West_Bengal,Barrackpore,"SVSPA Campus, Barrackpore - WBPCB",10-05-2024 20:00:00,22.7605581,88.3617589,SO2,7,10,8
India,West_Bengal,Durgapur,"Sidhu Kanhu Indoor Stadium, Durgapur - WBPCB",10-05-2024 20:00:00,23.5404352,87.2892225,NH3,4,6,5
India,West_Bengal,Durgapur,"Sidhu Kanhu Indoor Stadium, Durgapur - WBPCB",10-05-2024 20:00:00,23.5404352,87.2892225,CO,33,68,39
India,West_Bengal,Haldia,"Priyambada Housing Estate, Haldia - WBPCB",10-05-2024 20:00:00,22.06047,88.109737,NO2,12,45,21
India,West_Bengal,Haldia,"Priyambada Housing Estate, Haldia - WBPCB",10-05-2024 20:00:00,22.06047,88.109737,SO2,8,20,14
India,West_Bengal,Howrah,"Belur Math, Howrah - WBPCB",10-05-2024 20:00:00,22.629801,88.352017,NO2,6,23,12
India,West_Bengal,Howrah,"Belur Math, Howrah - WBPCB",10-05-2024 20:00:00,22.629801,88.352017,NH3,1,2,1
India,West_Bengal,Howrah,"Ghusuri, Howrah - WBPCB",10-05-2024 20:00:00,22.611968,88.347422,NO2,15,21,18
India,West_Bengal,Howrah,"Ghusuri, Howrah - WBPCB",10-05-2024 20:00:00,22.611968,88.347422,SO2,5,6,5
India,West_Bengal,Kolkata,"Bidhannagar, Kolkata - WBPCB",10-05-2024 20:00:00,22.58157048,88.41002457,SO2,11,14,12
India,West_Bengal,Kolkata,"Fort William, Kolkata - WBPCB",10-05-2024 20:00:00,22.556640,88.342674,PM2.5,37,56,47
India,West_Bengal,Kolkata,"Fort William, Kolkata - WBPCB",10-05-2024 20:00:00,22.556640,88.342674,PM10,32,49,41
India,West_Bengal,Kolkata,"Fort William, Kolkata - WBPCB",10-05-2024 20:00:00,22.556640,88.342674,SO2,8,16,12
India,West_Bengal,Kolkata,"Jadavpur, Kolkata - WBPCB",10-05-2024 20:00:00,22.49929,88.36917,SO2,4,6,5
India,West_Bengal,Kolkata,"Jadavpur, Kolkata - WBPCB",10-05-2024 20:00:00,22.49929,88.36917,CO,18,44,24
India,West_Bengal,Kolkata,"Rabindra Bharati University, Kolkata - WBPCB",10-05-2024 20:00:00,22.627847,88.380669,PM2.5,14,25,20
India,West_Bengal,Kolkata,"Rabindra Bharati University, Kolkata - WBPCB",10-05-2024 20:00:00,22.627847,88.380669,NO2,23,24,23
India,West_Bengal,Kolkata,"Rabindra Sarobar, Kolkata - WBPCB",10-05-2024 20:00:00,22.51106,88.35142,PM10,39,61,46
India,West_Bengal,Kolkata,"Rabindra Sarobar, Kolkata - WBPCB",10-05-2024 20:00:00,22.51106,88.35142,CO,20,38,23
India,West_Bengal,Kolkata,"Rabindra Sarobar, Kolkata - WBPCB",10-05-2024 20:00:00,22.51106,88.35142,OZONE,13,54,40
India,West_Bengal,Kolkata,"Victoria, Kolkata - WBPCB",10-05-2024 20:00:00,22.5448082,88.3403691,NH3,6,6,6
India,West_Bengal,Kolkata,"Victoria, Kolkata - WBPCB",10-05-2024 20:00:00,22.5448082,88.3403691,CO,8,33,16
India,West_Bengal,Siliguri,"Ward-32 Bapupara, Siliguri - WBPCB",10-05-2024 20:00:00,26.6879226,88.4152495,PM2.5,37,59,49
India,West_Bengal,Siliguri,"Ward-32 Bapupara, Siliguri - WBPCB",10-05-2024 20:00:00,26.6879226,88.4152495,NO2,28,78,50
India,West_Bengal,Siliguri,"Ward-32 Bapupara, Siliguri - WBPCB",10-05-2024 20:00:00,26.6879226,88.4152495,NH3,6,12,9
India,West_Bengal,Siliguri,"Ward-32 Bapupara, Siliguri - WBPCB",10-05-2024 20:00:00,26.6879226,88.4152495,CO,15,35,23
India,Andhra_Pradesh,Amaravati,"Secretariat, Amaravati - APPCB",10-05-2024 20:00:00,16.5150833,80.5181667,PM2.5,2,36,14
India,Andhra_Pradesh,Anantapur,"Gulzarpet, Anantapur - APPCB",10-05-2024 20:00:00,14.675886,77.593027,PM10,NA,NA,NA
India,Andhra_Pradesh,Anantapur,"Gulzarpet, Anantapur - APPCB",10-05-2024 20:00:00,14.675886,77.593027,NH3,4,4,4
India,Andhra_Pradesh,Anantapur,"Gulzarpet, Anantapur - APPCB",10-05-2024 20:00:00,14.675886,77.593027,SO2,3,6,5
India,Andhra_Pradesh,Chittoor,"Gangineni Cheruvu, Chittoor - APPCB",10-05-2024 20:00:00,13.204880,79.097889,NH3,NA,NA,NA
India,Andhra_Pradesh,Chittoor,"Gangineni Cheruvu, Chittoor - APPCB",10-05-2024 20:00:00,13.204880,79.097889,SO2,NA,NA,NA
India,Andhra_Pradesh,Chittoor,"Gangineni Cheruvu, Chittoor - APPCB",10-05-2024 20:00:00,13.204880,79.097889,CO,14,22,19
India,Andhra_Pradesh,Rajamahendravaram,"Anand Kala Kshetram, Rajamahendravaram - APPCB",10-05-2024 20:00:00,16.9872867,81.7363176,NO2,8,44,22
India,Andhra_Pradesh,Tirupati,"Tirumala, Tirupati - APPCB",10-05-2024 20:00:00,13.67,79.35,PM10,10,126,37
India,Andhra_Pradesh,Tirupati,"Tirumala, Tirupati - APPCB",10-05-2024 20:00:00,13.67,79.35,SO2,2,19,8
India,Andhra_Pradesh,Tirupati,"Tirumala, Tirupati - APPCB",10-05-2024 20:00:00,13.67,79.35,OZONE,14,46,35
India,Andhra_Pradesh,Tirupati,"Vaikuntapuram, Tirupati - APPCB",10-05-2024 20:00:00,13.615387,79.409230,NH3,2,2,2
India,Andhra_Pradesh,Vijayawada,"HB Colony, Vijayawada - APPCB",10-05-2024 20:00:00,16.536107,80.594233,NH3,4,4,4
India,Andhra_Pradesh,Vijayawada,"HB Colony, Vijayawada - APPCB",10-05-2024 20:00:00,16.536107,80.594233,SO2,4,8,6
India,Andhra_Pradesh,Vijayawada,"HB Colony, Vijayawada - APPCB",10-05-2024 20:00:00,16.536107,80.594233,OZONE,12,73,40
India,Andhra_Pradesh,Vijayawada,"Kanuru, Vijayawada - APPCB",10-05-2024 20:00:00,16.486692,80.699436,SO2,5,8,7
India,Andhra_Pradesh,Vijayawada,"Rajiv Gandhi Park, Vijayawada - APPCB",10-05-2024 20:00:00,16.509717,80.612222,NH3,2,5,4
India,Andhra_Pradesh,Vijayawada,"Rajiv Nagar, Vijayawada - APPCB",10-05-2024 20:00:00,16.554731,80.649110,OZONE,14,28,25
India,Andhra_Pradesh,Visakhapatnam,"GVM Corporation, Visakhapatnam - APPCB",10-05-2024 20:00:00,17.72,83.3,NO2,24,54,37
India,Andhra_Pradesh,Visakhapatnam,"GVM Corporation, Visakhapatnam - APPCB",10-05-2024 20:00:00,17.72,83.3,CO,6,42,17
India,Arunachal_Pradesh,Naharlagun,"Naharlagun, Naharlagun - APSPCB",10-05-2024 20:00:00,27.103358,93.679645,PM10,10,45,32
India,Arunachal_Pradesh,Naharlagun,"Naharlagun, Naharlagun - APSPCB",10-05-2024 20:00:00,27.103358,93.679645,OZONE,2,2,2
India,Assam,Byrnihat,"Central Academy for SFS, Byrnihat - PCBA",10-05-2024 20:00:00,26.071318,91.87488,PM10,28,260,121
India,Assam,Guwahati,"IITG, Guwahati - PCBA",10-05-2024 20:00:00,26.2028636,91.70046436,PM2.5,13,44,25
India,Assam,Guwahati,"IITG, Guwahati - PCBA",10-05-2024 20:00:00,26.2028636,91.70046436,NO2,1,3,1
India,Assam,Guwahati,"IITG, Guwahati - PCBA",10-05-2024 20:00:00,26.2028636,91.70046436,OZONE,10,31,25
India,Assam,Guwahati,"LGBI Airport, Guwahati - PCBA",10-05-2024 20:00:00,26.10887,91.589544,NO2,13,71,40
India,Assam,Guwahati,"LGBI Airport, Guwahati - PCBA",10-05-2024 20:00:00,26.10887,91.589544,NH3,1,6,3
India,Assam,Guwahati,"Pan Bazaar, Guwahati - PCBA",10-05-2024 20:00:00,26.187500,91.744194,NO2,1,7,1
India,Assam,Guwahati,"Pan Bazaar, Guwahati - PCBA",10-05-2024 20:00:00,26.187500,91.744194,NH3,2,3,2
India,Assam,Guwahati,"Railway Colony, Guwahati - PCBA",10-05-2024 20:00:00,26.181742,91.78063,PM2.5,26,55,41
India,Assam,Nagaon,"Christianpatty, Nagaon - PCBA",10-05-2024 20:00:00,26.349082,92.68449,NH3,2,4,3
India,Assam,Nalbari,"Bata Chowk, Nalbari - PCBA",10-05-2024 20:00:00,26.446912,91.439057,PM10,35,140,72
India,Assam,Silchar,"Tarapur, Silchar - PCBA",10-05-2024 20:00:00,24.82827,92.79525,NO2,14,16,16
India,Assam,Silchar,"Tarapur, Silchar - PCBA",10-05-2024 20:00:00,24.82827,92.79525,NH3,1,1,1
India,Assam,Silchar,"Tarapur, Silchar - PCBA",10-05-2024 20:00:00,24.82827,92.79525,OZONE,1,13,7
India,Bihar,Araria,"Kharahiya Basti, Araria - BSPCB",10-05-2024 20:00:00,26.146529,87.454184,CO,12,31,15
India,Bihar,Arrah,"New DM Office, Arrah - BSPCB",10-05-2024 20:00:00,25.5626095,84.663264,SO2,NA,NA,NA
India,Bihar,Arrah,"New DM Office, Arrah - BSPCB",10-05-2024 20:00:00,25.5626095,84.663264,CO,12,26,18
India,Bihar,Bhagalpur,"Mayaganj, Bhagalpur - BSPCB",10-05-2024 20:00:00,25.265194,87.012947,PM10,4,213,102
India,Bihar,Bhagalpur,"Mayaganj, Bhagalpur - BSPCB",10-05-2024 20:00:00,25.265194,87.012947,OZONE,8,29,22
India,Bihar,Bihar Sharif,"D M Colony, Bihar Sharif - BSPCB",10-05-2024 20:00:00,25.204762,85.514960,PM2.5,10,57,30
India,Bihar,Buxar,"Charitra Van, Buxar - BSPCB (Formerly known as Central Jail)",10-05-2024 20:00:00,25.567520,83.966379,NH3,3,3,3
India,Bihar,Chhapra,"Darshan Nagar, Chhapra - BSPCB",10-05-2024 20:00:00,25.7808257,84.7446768,PM10,34,111,64
India,Bihar,Chhapra,"Darshan Nagar, Chhapra - BSPCB",10-05-2024 20:00:00,25.7808257,84.7446768,NH3,7,18,12
India,Bihar,Gaya,"Collectorate, Gaya - BSPCB",10-05-2024 20:00:00,24.7955,84.9994,CO,1,24,19
India,Bihar,Gaya,"Collectorate, Gaya - BSPCB",10-05-2024 20:00:00,24.7955,84.9994,OZONE,49,82,69
India,Bihar,Gaya,"Kareemganj, Gaya - BSPCB",10-05-2024 20:00:00,24.792403,84.992416,NH3,2,6,4
India,Bihar,Gaya,"Kareemganj, Gaya - BSPCB",10-05-2024 20:00:00,24.792403,84.992416,SO2,3,12,9
India,Bihar,Gaya,"Kareemganj, Gaya - BSPCB",10-05-2024 20:00:00,24.792403,84.992416,OZONE,2,54,14
India,Bihar,Hajipur,"Industrial Area, Hajipur - BSPCB",10-05-2024 20:00:00,25.697189,85.245900,NH3,7,16,9
India,Bihar,Katihar,"Mirchaibari, Katihar - BSPCB",10-05-2024 20:00:00,25.560083,87.553265,PM10,NA,NA,NA
India,Bihar,Katihar,"Mirchaibari, Katihar - BSPCB",10-05-2024 20:00:00,25.560083,87.553265,SO2,7,33,16
India,Bihar,Kishanganj,"SDM Office_Khagra, Kishanganj - BSPCB",10-05-2024 20:00:00,26.0881305,87.93840336,NO2,27,30,29
India,Bihar,Motihari,"Gandak Colony, Motihari - BSPCB",10-05-2024 20:00:00,26.63086,84.90051,OZONE,6,56,30
India,Bihar,Munger,"Town Hall, Munger - BSPCB",10-05-2024 20:00:00,25.376776,86.471523,PM2.5,37,77,51
India,Bihar,Munger,"Town Hall, Munger - BSPCB",10-05-2024 20:00:00,25.376776,86.471523,PM10,44,93,62
India,Bihar,Munger,"Town Hall, Munger - BSPCB",10-05-2024 20:00:00,25.376776,86.471523,NH3,2,3,3
India,Bihar,Muzaffarpur,"Buddha Colony, Muzaffarpur - BSPCB",10-05-2024 20:00:00,26.11442,85.39813,PM10,37,72,59
India,Bihar,Muzaffarpur,"Buddha Colony, Muzaffarpur - BSPCB",10-05-2024 20:00:00,26.11442,85.39813,NH3,10,13,12
India,Bihar,Muzaffarpur,"Buddha Colony, Muzaffarpur - BSPCB",10-05-2024 20:00:00,26.11442,85.39813,SO2,3,8,5
India,Bihar,Muzaffarpur,"Muzaffarpur Collectorate, Muzaffarpur - BSPCB",10-05-2024 20:00:00,26.1209,85.3647,PM2.5,37,192,77
India,Bihar,Patna,"DRM Office Danapur, Patna - BSPCB",10-05-2024 20:00:00,25.586562,85.043586,PM2.5,49,119,79
India,Bihar,Patna,"DRM Office Danapur, Patna - BSPCB",10-05-2024 20:00:00,25.586562,85.043586,NO2,16,431,253
India,Bihar,Patna,"DRM Office Danapur, Patna - BSPCB",10-05-2024 20:00:00,25.586562,85.043586,OZONE,17,45,38
India,Bihar,Patna,"Govt. High School Shikarpur, Patna - BSPCB",10-05-2024 20:00:00,25.592539,85.227158,PM10,47,90,72
India,Bihar,Patna,"Govt. High School Shikarpur, Patna - BSPCB",10-05-2024 20:00:00,25.592539,85.227158,SO2,8,12,9
India,Bihar,Patna,"IGSC Planetarium Complex, Patna - BSPCB",10-05-2024 20:00:00,25.610369,85.132568,OZONE,41,65,49
India,Bihar,Patna,"Muradpur, Patna - BSPCB",10-05-2024 20:00:00,25.619651,85.147382,NH3,1,5,4
India,Bihar,Patna,"Rajbansi Nagar, Patna - BSPCB",10-05-2024 20:00:00,25.599486,85.113666,PM10,NA,NA,NA
India,Bihar,Patna,"Samanpura, Patna - BSPCB",10-05-2024 20:00:00,25.596727,85.085624,PM2.5,64,129,86
India,Bihar,Patna,"Samanpura, Patna - BSPCB",10-05-2024 20:00:00,25.596727,85.085624,PM10,111,198,132
India,Bihar,Purnia,"Mariam Nagar, Purnia - BSPCB",10-05-2024 20:00:00,25.366336,87.117468,PM10,NA,NA,NA
India,Bihar,Purnia,"Mariam Nagar, Purnia - BSPCB",10-05-2024 20:00:00,25.366336,87.117468,NO2,5,7,6
India,Bihar,Rajgir,"Dangi Tola, Rajgir - BSPCB",10-05-2024 20:00:00,25.03280,85.41948,OZONE,31,36,33
India,Bihar,Samastipur,"DM Office_Kasipur, Samastipur - BSPCB",10-05-2024 20:00:00,25.859655,85.77944,SO2,9,86,53
India,Bihar,Samastipur,"DM Office_Kasipur, Samastipur - BSPCB",10-05-2024 20:00:00,25.859655,85.77944,CO,20,122,121
India,Chandigarh,Chandigarh,"Sector 22, Chandigarh - CPCC",10-05-2024 20:00:00,30.735567,76.775714,SO2,8,27,14
India,Chandigarh,Chandigarh,"Sector-25, Chandigarh - CPCC",10-05-2024 20:00:00,30.751462,76.762879,SO2,10,14,12
India,Chandigarh,Chandigarh,"Sector-25, Chandigarh - CPCC",10-05-2024 20:00:00,30.751462,76.762879,OZONE,19,55,44
India,Chandigarh,Chandigarh,"Sector-53, Chandigarh - CPCC",10-05-2024 20:00:00,30.719859,76.738637,NH3,5,8,6
India,Chhattisgarh,Bhilai,"32Bungalows, Bhilai - CECB",10-05-2024 20:00:00,21.194815,81.314770,NH3,6,7,6
India,Chhattisgarh,Bhilai,"Civic Center, Bhilai - Bhilai Steel Plant",10-05-2024 20:00:00,21.185571,81.343175,CO,27,64,48
India,Chhattisgarh,Chhal,"Nawapara SECL Colony, Chhal - CECB",10-05-2024 20:00:00,22.118125,83.140608,PM2.5,34,77,51
India,Chhattisgarh,Chhal,"Nawapara SECL Colony, Chhal - CECB",10-05-2024 20:00:00,22.118125,83.140608,NH3,2,2,2
India,Chhattisgarh,Korba,"Rampur, Korba - CECB",10-05-2024 20:00:00,22.368195,82.746431,PM10,12,69,37
India,Chhattisgarh,Korba,"Urja Nagar, Korba - CECB",10-05-2024 20:00:00,22.348441,82.549611,PM2.5,8,40,21
India,Chhattisgarh,Korba,"Urja Nagar, Korba - CECB",10-05-2024 20:00:00,22.348441,82.549611,NH3,3,9,6
India,Chhattisgarh,Kunjemura,"OP Jindal School, Kunjemura - CECB",10-05-2024 20:00:00,22.126650,83.483212,NO2,14,124,40
India,Chhattisgarh,Milupara,"Govt. Higher Secondary School, Milupara - CECB",10-05-2024 20:00:00,22.1910172,83.5197009,PM2.5,14,46,27
India,Chhattisgarh,Milupara,"Govt. Higher Secondary School, Milupara - CECB",10-05-2024 20:00:00,22.1910172,83.5197009,NO2,12,65,27
India,Chhattisgarh,Raipur,"Bhatagaon New ISBT, Raipur - CECB",10-05-2024 20:00:00,21.219665,81.630094,PM2.5,11,21,17
India,Chhattisgarh,Raipur,"Bhatagaon New ISBT, Raipur - CECB",10-05-2024 20:00:00,21.219665,81.630094,NO2,5,30,17
India,Chhattisgarh,Raipur,"Siltara Phase-II, Raipur - CECB",10-05-2024 20:00:00,21.371751,81.664929,SO2,16,62,32
India,Chhattisgarh,Tumidih,"OP Jindal Industrial Park, Tumidih - CECB",10-05-2024 20:00:00,22.06631475,83.33820077,PM2.5,22,74,43
India,Chhattisgarh,Tumidih,"OP Jindal Industrial Park, Tumidih - CECB",10-05-2024 20:00:00,22.06631475,83.33820077,NH3,1,2,1
India,Delhi,Delhi,"Ashok Vihar, Delhi - DPCC",10-05-2024 20:00:00,28.695381,77.181665,PM2.5,89,147,101
India,Delhi,Delhi,"Ashok Vihar, Delhi - DPCC",10-05-2024 20:00:00,28.695381,77.181665,NO2,23,96,45
India,Delhi,Delhi,"Ashok Vihar, Delhi - DPCC",10-05-2024 20:00:00,28.695381,77.181665,SO2,22,65,30
India,Delhi,Delhi,"Aya Nagar, Delhi - IMD",10-05-2024 20:00:00,28.4706914,77.1099364,PM10,NA,NA,NA
India,Delhi,Delhi,"Aya Nagar, Delhi - IMD",10-05-2024 20:00:00,28.4706914,77.1099364,OZONE,NA,NA,NA
India,Delhi,Delhi,"Bawana, Delhi - DPCC",10-05-2024 20:00:00,28.776200,77.051074,PM2.5,123,233,167
India,Delhi,Delhi,"Bawana, Delhi - DPCC",10-05-2024 20:00:00,28.776200,77.051074,PM10,131,334,191
India,Delhi,Delhi,"Bawana, Delhi - DPCC",10-05-2024 20:00:00,28.776200,77.051074,SO2,9,22,15
India,Delhi,Delhi,"Burari Crossing, Delhi - IMD",10-05-2024 20:00:00,28.7256504,77.2011573,PM2.5,77,198,116
India,Delhi,Delhi,"Burari Crossing, Delhi - IMD",10-05-2024 20:00:00,28.7256504,77.2011573,CO,40,56,42
India,Delhi,Delhi,"CRRI Mathura Road, Delhi - IMD",10-05-2024 20:00:00,28.5512005,77.2735737,PM2.5,99,162,129
India,Delhi,Delhi,"Chandni Chowk, Delhi - IITM",10-05-2024 20:00:00,28.656756,77.227234,NH3,19,49,31
India,Delhi,Delhi,"Chandni Chowk, Delhi - IITM",10-05-2024 20:00:00,28.656756,77.227234,OZONE,10,15,12
India,Delhi,Delhi,"DTU, Delhi - CPCB",10-05-2024 20:00:00,28.7500499,77.1112615,PM10,127,211,163
India,Delhi,Delhi,"DTU, Delhi - CPCB",10-05-2024 20:00:00,28.7500499,77.1112615,SO2,26,115,42
India,Delhi,Delhi,"DTU, Delhi - CPCB",10-05-2024 20:00:00,28.7500499,77.1112615,OZONE,36,262,170
India,Delhi,Delhi,"Dr. Karni Singh Shooting Range, Delhi - DPCC",10-05-2024 20:00:00,28.498571,77.264840,PM10,135,185,154
India,Delhi,Delhi,"Dr. Karni Singh Shooting Range, Delhi - DPCC",10-05-2024 20:00:00,28.498571,77.264840,OZONE,91,272,195
India,Delhi,Delhi,"IGI Airport (T3), Delhi - IMD",10-05-2024 20:00:00,28.5627763,77.1180053,CO,40,62,43
India,Delhi,Delhi,"Jawaharlal Nehru Stadium, Delhi - DPCC",10-05-2024 20:00:00,28.580280,77.233829,PM2.5,73,106,86
India,Delhi,Delhi,"Jawaharlal Nehru Stadium, Delhi - DPCC",10-05-2024 20:00:00,28.580280,77.233829,PM10,127,159,141
India,Delhi,Delhi,"Jawaharlal Nehru Stadium, Delhi - DPCC",10-05-2024 20:00:00,28.580280,77.233829,NH3,10,14,12
India,Delhi,Delhi,"Major Dhyan Chand National Stadium, Delhi - DPCC",10-05-2024 20:00:00,28.611281,77.237738,PM2.5,98,177,136
India,Delhi,Delhi,"Major Dhyan Chand National Stadium, Delhi - DPCC",10-05-2024 20:00:00,28.611281,77.237738,SO2,12,20,16
India,Delhi,Delhi,"Mundka, Delhi - DPCC",10-05-2024 20:00:00,28.684678,77.076574,PM2.5,80,170,115
India,Delhi,Delhi,"Mundka, Delhi - DPCC",10-05-2024 20:00:00,28.684678,77.076574,OZONE,41,228,135
India,Delhi,Delhi,"Najafgarh, Delhi - DPCC",10-05-2024 20:00:00,28.570173,76.933762,PM10,101,186,133
India,Delhi,Delhi,"Najafgarh, Delhi - DPCC",10-05-2024 20:00:00,28.570173,76.933762,CO,44,64,47
India,Delhi,Delhi,"Narela, Delhi - DPCC",10-05-2024 20:00:00,28.822836,77.101981,CO,42,66,46
India,Delhi,Delhi,"Nehru Nagar, Delhi - DPCC",10-05-2024 20:00:00,28.567890,77.250515,PM2.5,91,176,129
India,Delhi,Delhi,"Nehru Nagar, Delhi - DPCC",10-05-2024 20:00:00,28.567890,77.250515,NH3,2,3,3
India,Delhi,Delhi,"New Moti Bagh, Delhi - MHUA",10-05-2024 20:00:00,28.57834,77.18400,CO,44,76,51
India,Delhi,Delhi,"North Campus, DU, Delhi - IMD",10-05-2024 20:00:00,28.6573814,77.1585447,PM2.5,79,162,105
India,Delhi,Delhi,"North Campus, DU, Delhi - IMD",10-05-2024 20:00:00,28.6573814,77.1585447,CO,88,110,97
India,Delhi,Delhi,"Okhla Phase-2, Delhi - DPCC",10-05-2024 20:00:00,28.530785,77.271255,PM10,149,190,166
India,Delhi,Delhi,"Okhla Phase-2, Delhi - DPCC",10-05-2024 20:00:00,28.530785,77.271255,OZONE,43,146,119
India,Delhi,Delhi,"Patparganj, Delhi - DPCC",10-05-2024 20:00:00,28.623763,77.287209,NO2,19,46,27
India,Delhi,Delhi,"Punjabi Bagh, Delhi - DPCC",10-05-2024 20:00:00,28.674045,77.131023,PM2.5,70,267,144
India,Delhi,Delhi,"Pusa, Delhi - DPCC",10-05-2024 20:00:00,28.639652,77.146275,CO,17,38,29
India,Delhi,Delhi,"Pusa, Delhi - IMD",10-05-2024 20:00:00,28.636110,77.173332,NO2,5,18,10
India,Delhi,Delhi,"Pusa, Delhi - IMD",10-05-2024 20:00:00,28.636110,77.173332,CO,48,58,48
India,Delhi,Delhi,"R K Puram, Delhi - DPCC",10-05-2024 20:00:00,28.563262,77.186937,NO2,2,55,10
India,Delhi,Delhi,"R K Puram, Delhi - DPCC",10-05-2024 20:00:00,28.563262,77.186937,CO,4,130,37
India,Delhi,Delhi,"Rohini, Delhi - DPCC",10-05-2024 20:00:00,28.732528,77.119920,PM10,169,232,192
India,Delhi,Delhi,"Rohini, Delhi - DPCC",10-05-2024 20:00:00,28.732528,77.119920,NO2,22,75,45
India,Delhi,Delhi,"Sonia Vihar, Delhi - DPCC",10-05-2024 20:00:00,28.710508,77.249485,NH3,7,12,9
India,Delhi,Delhi,"Sonia Vihar, Delhi - DPCC",10-05-2024 20:00:00,28.710508,77.249485,SO2,16,38,22
India,Delhi,Delhi,"Sri Aurobindo Marg, Delhi - DPCC",10-05-2024 20:00:00,28.531346,77.190156,SO2,16,25,19
India,Delhi,Delhi,"Sri Aurobindo Marg, Delhi - DPCC",10-05-2024 20:00:00,28.531346,77.190156,CO,24,60,32
India,Delhi,Delhi,"Sri Aurobindo Marg, Delhi - DPCC",10-05-2024 20:00:00,28.531346,77.190156,OZONE,27,87,74
India,Delhi,Delhi,"Vivek Vihar, Delhi - DPCC",10-05-2024 20:00:00,28.672342,77.315260,NO2,28,77,45
India,Gujarat,Ahmedabad,"Chandkheda, Ahmedabad - IITM",10-05-2024 20:00:00,23.107969,72.574648,CO,21,46,33
India,Gujarat,Ahmedabad,"Maninagar, Ahmedabad - GPCB",10-05-2024 20:00:00,23.002657,72.591912,NO2,34,54,43
India,Gujarat,Ahmedabad,"Maninagar, Ahmedabad - GPCB",10-05-2024 20:00:00,23.002657,72.591912,OZONE,8,223,157
India,Gujarat,Ahmedabad,"Raikhad, Ahmedabad - IITM",10-05-2024 20:00:00,23.020509,72.579261,PM2.5,84,325,250
India,Gujarat,Ahmedabad,"Raikhad, Ahmedabad - IITM",10-05-2024 20:00:00,23.020509,72.579261,NO2,26,35,32
India,Gujarat,Ahmedabad,"SVPI Airport Hansol, Ahmedabad - IITM",10-05-2024 20:00:00,23.076793,72.627874,NO2,32,42,38
India,Gujarat,Ahmedabad,"Sardar Vallabhbhai Patel Stadium, Ahmedabad - IITM",10-05-2024 20:00:00,23.043070,72.562968,SO2,11,22,16
India,Gujarat,Ankleshwar,"GIDC, Ankleshwar - GPCB",10-05-2024 20:00:00,21.613267,73.010555,PM2.5,19,69,39
India,Gujarat,Ankleshwar,"GIDC, Ankleshwar - GPCB",10-05-2024 20:00:00,21.613267,73.010555,NH3,6,6,6
India,Gujarat,Gandhinagar,"Sector-10, Gandhinagar - GPCB",10-05-2024 20:00:00,23.221714,72.654328,PM10,NA,NA,NA
India,Gujarat,Gandhinagar,"Sector-10, Gandhinagar - GPCB",10-05-2024 20:00:00,23.221714,72.654328,NH3,1,2,1
India,Gujarat,Gandhinagar,"Sector-10, Gandhinagar - GPCB",10-05-2024 20:00:00,23.221714,72.654328,SO2,5,6,5
India,Gujarat,Nandesari,"GIDC, Nandesari - Nandesari Ind. Association",10-05-2024 20:00:00,22.410802,73.097923,PM2.5,58,248,117
India,Gujarat,Vatva,"Phase-4 GIDC, Vatva - GPCB",10-05-2024 20:00:00,22.969611,72.643500,PM2.5,NA,NA,NA
India,Gujarat,Vatva,"Phase-4 GIDC, Vatva - GPCB",10-05-2024 20:00:00,22.969611,72.643500,SO2,NA,NA,NA
India,Haryana,Ambala,"Patti Mehar, Ambala - HSPCB",10-05-2024 20:00:00,30.379589,76.778328,SO2,3,33,28
India,Haryana,Bhiwani,"H.B. Colony, Bhiwani - HSPCB",10-05-2024 20:00:00,28.806223,76.141105,PM2.5,123,304,190
India,Haryana,Bhiwani,"H.B. Colony, Bhiwani - HSPCB",10-05-2024 20:00:00,28.806223,76.141105,NH3,4,6,6
India,Haryana,Bhiwani,"H.B. Colony, Bhiwani - HSPCB",10-05-2024 20:00:00,28.806223,76.141105,SO2,1,17,7
India,Haryana,Bhiwani,"H.B. Colony, Bhiwani - HSPCB",10-05-2024 20:00:00,28.806223,76.141105,CO,15,61,26
India,Haryana,Charkhi Dadri,"Mini Secretariat, Charkhi Dadri - HSPCB",10-05-2024 20:00:00,28.593883,76.270653,PM10,80,194,127
India,Haryana,Charkhi Dadri,"Mini Secretariat, Charkhi Dadri - HSPCB",10-05-2024 20:00:00,28.593883,76.270653,OZONE,14,18,15
India,Haryana,Dharuhera,"Municipal Corporation Office, Dharuhera -  HSPCB",10-05-2024 20:00:00,28.206800,76.799700,NO2,46,113,74
India,Haryana,Faridabad,"New Industrial Town, Faridabad - HSPCB",10-05-2024 20:00:00,28.39072,77.30059,NO2,5,18,13
India,Haryana,Faridabad,"Sector 11, Faridabad - HSPCB",10-05-2024 20:00:00,28.376058,77.315741,OZONE,11,55,30
India,Haryana,Faridabad,"Sector 30, Faridabad - HSPCB",10-05-2024 20:00:00,28.4417,77.3217,NO2,30,33,31
India,Haryana,Faridabad,"Sector- 16A, Faridabad - HSPCB",10-05-2024 20:00:00,28.4088421,77.3099081,SO2,NA,NA,NA
India,Haryana,Fatehabad,"Huda Sector, Fatehabad - HSPCB",10-05-2024 20:00:00,29.503664,75.467934,PM2.5,59,268,137
India,Haryana,Fatehabad,"Huda Sector, Fatehabad - HSPCB",10-05-2024 20:00:00,29.503664,75.467934,OZONE,39,66,48
India,Haryana,Gurugram,"NISE Gwal Pahari, Gurugram - IMD",10-05-2024 20:00:00,28.422681,77.148944,PM2.5,83,234,139
India,Haryana,Gurugram,"NISE Gwal Pahari, Gurugram - IMD",10-05-2024 20:00:00,28.422681,77.148944,PM10,122,196,159
India,Haryana,Gurugram,"NISE Gwal Pahari, Gurugram - IMD",10-05-2024 20:00:00,28.422681,77.148944,CO,18,84,30
India,Haryana,Gurugram,"Teri Gram, Gurugram - HSPCB",10-05-2024 20:00:00,28.4275,77.1465,PM2.5,158,321,228
India,Haryana,Gurugram,"Vikas Sadan, Gurugram - HSPCB",10-05-2024 20:00:00,28.4501238,77.0263051,PM2.5,88,152,110
India,Haryana,Gurugram,"Vikas Sadan, Gurugram - HSPCB",10-05-2024 20:00:00,28.4501238,77.0263051,NO2,5,26,14
India,Haryana,Gurugram,"Vikas Sadan, Gurugram - HSPCB",10-05-2024 20:00:00,28.4501238,77.0263051,OZONE,8,67,50
India,Haryana,Hisar,"Urban Estate-II, Hisar - HSPCB",10-05-2024 20:00:00,29.140560,75.744941,OZONE,22,215,171
India,Haryana,Jind,"Police Lines, Jind - HSPCB",10-05-2024 20:00:00,29.307814,76.337619,NO2,9,16,12
India,Haryana,Jind,"Police Lines, Jind - HSPCB",10-05-2024 20:00:00,29.307814,76.337619,SO2,9,25,16
India,Haryana,Jind,"Police Lines, Jind - HSPCB",10-05-2024 20:00:00,29.307814,76.337619,CO,1,62,11
India,Haryana,Jind,"Police Lines, Jind - HSPCB",10-05-2024 20:00:00,29.307814,76.337619,OZONE,28,73,64
India,Haryana,Kaithal,"Rishi Nagar, Kaithal - HSPCB",10-05-2024 20:00:00,29.8006,76.4155,OZONE,23,56,32
India,Haryana,Karnal,"Sector-12, Karnal - HSPCB",10-05-2024 20:00:00,29.695300,77.002700,PM2.5,71,110,90
India,Haryana,Karnal,"Sector-12, Karnal - HSPCB",10-05-2024 20:00:00,29.695300,77.002700,PM10,86,112,102
India,Haryana,Karnal,"Sector-12, Karnal - HSPCB",10-05-2024 20:00:00,29.695300,77.002700,NO2,7,12,10
India,Haryana,Kurukshetra,"Sector-7, Kurukshetra - HSPCB",10-05-2024 20:00:00,29.966942,76.875879,SO2,2,3,3
India,Haryana,Mandikhera,"General Hospital, Mandikhera - HSPCB",10-05-2024 20:00:00,27.9002,76.9938,NH3,17,20,18
India,Haryana,Narnaul,"Shastri Nagar, Narnaul - HSPCB",10-05-2024 20:00:00,28.060249,76.113115,SO2,12,53,16
India,Haryana,Palwal,"Shyam Nagar, Palwal - HSPCB",10-05-2024 20:00:00,28.1485564,77.3320667,PM2.5,54,97,70
India,Haryana,Palwal,"Shyam Nagar, Palwal - HSPCB",10-05-2024 20:00:00,28.1485564,77.3320667,OZONE,10,38,31
India,Haryana,Panchkula,"Sector-6, Panchkula - HSPCB ",10-05-2024 20:00:00,30.7057778,76.8531805555555,NO2,9,11,10
India,Haryana,Panipat,"Sector-18, Panipat - HSPCB",10-05-2024 20:00:00,29.497973,76.993331,SO2,18,19,19
India,Haryana,Sirsa,"F-Block, Sirsa - HSPCB",10-05-2024 20:00:00,29.536400,75.015800,NH3,4,13,12
India,Haryana,Sonipat,"Murthal, Sonipat - HSPCB",10-05-2024 20:00:00,29.027200,77.062100,PM10,86,88,87
India,Haryana,Yamuna Nagar,"Gobind Pura, Yamuna Nagar - HSPCB",10-05-2024 20:00:00,30.1480566,77.2893471,PM10,95,260,129
India,Haryana,Yamuna Nagar,"Gobind Pura, Yamuna Nagar - HSPCB",10-05-2024 20:00:00,30.1480566,77.2893471,NH3,1,6,4
India,Haryana,Yamuna Nagar,"Gobind Pura, Yamuna Nagar - HSPCB",10-05-2024 20:00:00,30.1480566,77.2893471,SO2,3,26,9
India,Haryana,Yamuna Nagar,"Gobind Pura, Yamuna Nagar - HSPCB",10-05-2024 20:00:00,30.1480566,77.2893471,CO,7,106,42
India,Himachal Pradesh,Baddi,"HIMUDA Complex Phase-1, Baddi - HPPCB",10-05-2024 20:00:00,30.943887,76.801991,NH3,3,7,6
India,Himachal Pradesh,Baddi,"HIMUDA Complex Phase-1, Baddi - HPPCB",10-05-2024 20:00:00,30.943887,76.801991,CO,2,39,19
India,Jammu_and_Kashmir,Srinagar,"Rajbagh, Srinagar - JKSPCB",10-05-2024 20:00:00,34.066206,74.819820,SO2,9,19,12
India,Jharkhand,Dhanbad,"Kalakusuma, Dhanbad - DMC",10-05-2024 20:00:00,23.811548,86.481238,NO2,13,20,17
India,Jharkhand,Dhanbad,"Sardar Patel Nagar, Dhanbad - JSPCB",10-05-2024 20:00:00,23.80569,86.44268,PM2.5,NA,NA,NA
India,Karnataka,Belgaum,"Ramteerth Nagar, Belgaum - KSPCB",10-05-2024 20:00:00,15.888653,74.541751,SO2,8,9,8
India,Karnataka,Bengaluru,"Hebbal, Bengaluru - KSPCB",10-05-2024 20:00:00,13.029152,77.585901,PM2.5,40,84,65
India,Karnataka,Bengaluru,"Hebbal, Bengaluru - KSPCB",10-05-2024 20:00:00,13.029152,77.585901,OZONE,7,80,44
India,Karnataka,Bengaluru,"Jayanagar 5th Block, Bengaluru - KSPCB",10-05-2024 20:00:00,12.920984,77.584908,OZONE,21,23,22
India,Karnataka,Bengaluru,"Kasturi Nagar, Bengaluru - KSPCB",10-05-2024 20:00:00,13.003872,77.664217,PM10,10,10,10
India,Karnataka,Bengaluru,"Kasturi Nagar, Bengaluru - KSPCB",10-05-2024 20:00:00,13.003872,77.664217,NO2,16,17,17
India,Karnataka,Bengaluru,"Kasturi Nagar, Bengaluru - KSPCB",10-05-2024 20:00:00,13.003872,77.664217,NH3,3,4,4
India,Karnataka,Bengaluru,"Kasturi Nagar, Bengaluru - KSPCB",10-05-2024 20:00:00,13.003872,77.664217,CO,24,25,24
India,Karnataka,Bengaluru,"Sanegurava Halli, Bengaluru - KSPCB",10-05-2024 20:00:00,12.990328,77.5431385,PM10,NA,NA,NA
India,Karnataka,Bengaluru,"Sanegurava Halli, Bengaluru - KSPCB",10-05-2024 20:00:00,12.990328,77.5431385,NO2,NA,NA,NA
India,Karnataka,Bengaluru,"Silk Board, Bengaluru - KSPCB",10-05-2024 20:00:00,12.917348,77.622813,PM10,34,206,94
India,Karnataka,Bengaluru,"Silk Board, Bengaluru - KSPCB",10-05-2024 20:00:00,12.917348,77.622813,NH3,NA,NA,NA
India,Karnataka,Bidar,"Naubad, Bidar - KSPCB",10-05-2024 20:00:00,17.930306,77.482194,SO2,17,25,20
India,Karnataka,Chamarajanagar,"Urban, Chamarajanagar - KSPCB",10-05-2024 20:00:00,11.55358,76.55521,CO,19,28,24
India,Karnataka,Chikkaballapur,"Chikkaballapur Rural, Chikkaballapur - KSPCB",10-05-2024 20:00:00,13.428828,77.731418,CO,14,24,20
India,Karnataka,Chikkamagaluru,"Kalyana Nagara, Chikkamagaluru - KSPCB",10-05-2024 20:00:00,13.328028,75.797056,PM10,25,50,42
India,Karnataka,Chikkamagaluru,"Kalyana Nagara, Chikkamagaluru - KSPCB",10-05-2024 20:00:00,13.328028,75.797056,SO2,1,28,3
India,Karnataka,Chikkamagaluru,"Kalyana Nagara, Chikkamagaluru - KSPCB",10-05-2024 20:00:00,13.328028,75.797056,CO,6,102,32
India,Karnataka,Davanagere,"Devaraj Urs Badavane, Davanagere - KSPCB",10-05-2024 20:00:00,14.475800,75.905200,PM2.5,11,51,30
India,Karnataka,Davanagere,"Devaraj Urs Badavane, Davanagere - KSPCB",10-05-2024 20:00:00,14.475800,75.905200,PM10,22,94,53
India,Karnataka,Gadag,"Panchal Nagar, Gadag - KSPCB",10-05-2024 20:00:00,15.411456,75.638133,PM2.5,7,43,30
India,Karnataka,Hassan,"B.Katihalli, Hassan - KSPCB",10-05-2024 20:00:00,13.008556,76.125258,PM10,51,151,88
India,Karnataka,Haveri,"Ashwini Nagar, Haveri - KSPCB",10-05-2024 20:00:00,14.791800,75.389600,OZONE,31,50,42
India,Karnataka,Hubballi,"Deshpande Nagar, Hubballi - KSPCB",10-05-2024 20:00:00,15.351773,75.140726,PM10,38,89,62
India,Karnataka,Hubballi,"Deshpande Nagar, Hubballi - KSPCB",10-05-2024 20:00:00,15.351773,75.140726,OZONE,NA,NA,NA
India,Karnataka,Hubballi,"Lingaraj Nagar, Hubballi - KSPCB",10-05-2024 20:00:00,15.3714823,75.1160168,CO,1,40,8
India,Karnataka,Kalaburagi,"Mahatma Basaveswar Colony, Kalaburgi - KSPCB",10-05-2024 20:00:00,17.336318,76.847397,NH3,2,4,3
India,Karnataka,Kolar,"Tamaka Ind. Area, Kolar - KSPCB",10-05-2024 20:00:00,13.1276288,78.1570122,NO2,18,27,22
India,Karnataka,Madikeri,"Stuart Hill, Madikeri - KSPCB",10-05-2024 20:00:00,12.415911,75.735050,NO2,3,19,6
India,Karnataka,Mangalore,"Kadri, Mangalore - KSPCB",10-05-2024 20:00:00,12.889250,74.853000,PM2.5,12,42,27
India,Karnataka,Mangalore,"Kadri, Mangalore - KSPCB",10-05-2024 20:00:00,12.889250,74.853000,NH3,2,2,2
India,Karnataka,Mangalore,"Kadri, Mangalore - KSPCB",10-05-2024 20:00:00,12.889250,74.853000,SO2,16,18,17
India,Karnataka,Mysuru,"Hebbal 1st Stage, Mysuru - KSPCB",10-05-2024 20:00:00,12.21041,76.37376,PM10,29,65,38
India,Karnataka,Mysuru,"Hebbal 1st Stage, Mysuru - KSPCB",10-05-2024 20:00:00,12.21041,76.37376,OZONE,19,92,58
India,Karnataka,Raichur,"Haji Colony, Raichur - KSPCB",10-05-2024 20:00:00,16.208139,77.348417,PM2.5,13,33,19
