country,state,city,station,last_update,latitude,longitude,pollutant_id,pollutant_min,pollutant_max,pollutant_avg
India,Andhra_Pradesh,Amaravati,"Secretariat, Amaravati - APPCB",09-01-2024 20:00:00,16.5150833,80.5181667,PM2.5,152,302,244
India,Andhra_Pradesh,Amaravati,"Secretariat, Amaravati - APPCB",09-01-2024 20:00:00,16.5150833,80.5181667,CO,30,56,48
India,Andhra_Pradesh,Chittoor,"Gangineni Cheruvu, Chittoor - APPCB",09-01-2024 20:00:00,13.204880,79.097889,NO2,3,25,10
India,Andhra_Pradesh,Chittoor,"Gangineni Cheruvu, Chittoor - APPCB",09-01-2024 20:00:00,13.204880,79.097889,SO2,2,12,6
India,Andhra_Pradesh,Rajamahendravaram,"Anand Kala Kshetram, Rajamahendravaram - APPCB",09-01-2024 20:00:00,16.9872867,81.7363176,NH3,3,5,4
India,Andhra_Pradesh,Tirupati,"Tirumala, Tirupati - APPCB",09-01-2024 20:00:00,13.67,79.35,OZONE,31,47,38
India,Andhra_Pradesh,Tirupati,"Vaikuntapuram, Tirupati - APPCB",09-01-2024 20:00:00,13.615387,79.409230,PM2.5,13,49,14
India,Andhra_Pradesh,Tirupati,"Vaikuntapuram, Tirupati - APPCB",09-01-2024 20:00:00,13.615387,79.409230,NH3,2,3,3
India,Andhra_Pradesh,Tirupati,"Vaikuntapuram, Tirupati - APPCB",09-01-2024 20:00:00,13.615387,79.409230,OZONE,8,36,31
India,Andhra_Pradesh,Vijayawada,"HB Colony, Vijayawada - APPCB",09-01-2024 20:00:00,16.536107,80.594233,SO2,5,31,12
India,Andhra_Pradesh,Vijayawada,"Kanuru, Vijayawada - APPCB",09-01-2024 20:00:00,16.486692,80.699436,OZONE,30,30,30
India,Andhra_Pradesh,Visakhapatnam,"GVM Corporation, Visakhapatnam - APPCB",09-01-2024 20:00:00,17.72,83.3,PM2.5,NA,NA,NA
India,Arunachal_Pradesh,Naharlagun,"Naharlagun, Naharlagun - APSPCB",09-01-2024 20:00:00,27.103358,93.679645,NO2,2,2,2
India,Assam,Byrnihat,"Central Academy for SFS, Byrnihat - PCBA",09-01-2024 20:00:00,26.071318,91.87488,PM2.5,137,453,352
India,Assam,Byrnihat,"Central Academy for SFS, Byrnihat - PCBA",09-01-2024 20:00:00,26.071318,91.87488,NO2,33,86,50
India,Assam,Byrnihat,"Central Academy for SFS, Byrnihat - PCBA",09-01-2024 20:00:00,26.071318,91.87488,SO2,12,21,15
India,Assam,Guwahati,"IITG, Guwahati - PCBA",09-01-2024 20:00:00,26.2028636,91.70046436,PM10,140,229,175
India,Assam,Guwahati,"LGBI Airport, Guwahati - PCBA",09-01-2024 20:00:00,26.10887,91.589544,PM10,118,402,186
India,Assam,Guwahati,"LGBI Airport, Guwahati - PCBA",09-01-2024 20:00:00,26.10887,91.589544,NH3,1,6,2
India,Assam,Guwahati,"Railway Colony, Guwahati - PCBA",09-01-2024 20:00:00,26.181742,91.78063,PM2.5,273,437,326
India,Assam,Nagaon,"Christianpatty, Nagaon - PCBA",09-01-2024 20:00:00,26.349082,92.68449,SO2,1,4,2
India,Assam,Nagaon,"Christianpatty, Nagaon - PCBA",09-01-2024 20:00:00,26.349082,92.68449,CO,1,6,4
India,Assam,Nagaon,"Christianpatty, Nagaon - PCBA",09-01-2024 20:00:00,26.349082,92.68449,OZONE,5,53,34
India,Assam,Nalbari,"Bata Chowk, Nalbari - PCBA",09-01-2024 20:00:00,26.446912,91.439057,PM2.5,80,500,286
India,Assam,Nalbari,"Bata Chowk, Nalbari - PCBA",09-01-2024 20:00:00,26.446912,91.439057,NH3,8,15,10
India,Assam,Silchar,"Tarapur, Silchar - PCBA",09-01-2024 20:00:00,24.82827,92.79525,PM10,48,49,48
India,Assam,Silchar,"Tarapur, Silchar - PCBA",09-01-2024 20:00:00,24.82827,92.79525,CO,20,34,30
India,Assam,Silchar,"Tarapur, Silchar - PCBA",09-01-2024 20:00:00,24.82827,92.79525,OZONE,1,4,2
India,Assam,Sivasagar,"Girls College, Sivasagar - PCBA",09-01-2024 20:00:00,26.987634,94.636574,PM10,31,93,57
India,Assam,Sivasagar,"Girls College, Sivasagar - PCBA",09-01-2024 20:00:00,26.987634,94.636574,NH3,2,11,6
India,Assam,Sivasagar,"Girls College, Sivasagar - PCBA",09-01-2024 20:00:00,26.987634,94.636574,CO,1,58,10
India,Bihar,Araria,"Kharahiya Basti, Araria - BSPCB",09-01-2024 20:00:00,26.146529,87.454184,NH3,6,8,7
India,Bihar,Aurangabad,"Gurdeo Nagar, Aurangabad - BSPCB",09-01-2024 20:00:00,24.75746,84.366208,PM2.5,30,163,73
India,Bihar,Aurangabad,"Gurdeo Nagar, Aurangabad - BSPCB",09-01-2024 20:00:00,24.75746,84.366208,PM10,45,162,91
India,Bihar,Aurangabad,"Gurdeo Nagar, Aurangabad - BSPCB",09-01-2024 20:00:00,24.75746,84.366208,NO2,8,23,12
India,Bihar,Aurangabad,"Gurdeo Nagar, Aurangabad - BSPCB",09-01-2024 20:00:00,24.75746,84.366208,NH3,5,77,9
India,Bihar,Aurangabad,"Gurdeo Nagar, Aurangabad - BSPCB",09-01-2024 20:00:00,24.75746,84.366208,SO2,NA,NA,NA
India,Bihar,Bhagalpur,"Mayaganj, Bhagalpur - BSPCB",09-01-2024 20:00:00,25.265194,87.012947,SO2,11,13,12
India,Bihar,Chhapra,"Darshan Nagar, Chhapra - BSPCB",09-01-2024 20:00:00,25.7808257,84.7446768,SO2,NA,NA,NA
India,Bihar,Gaya,"Collectorate, Gaya - BSPCB",09-01-2024 20:00:00,24.7955,84.9994,PM2.5,204,362,284
India,Bihar,Gaya,"Collectorate, Gaya - BSPCB",09-01-2024 20:00:00,24.7955,84.9994,OZONE,41,74,62
India,Bihar,Gaya,"Kareemganj, Gaya - BSPCB",09-01-2024 20:00:00,24.792403,84.992416,OZONE,5,35,20
India,Bihar,Hajipur,"Industrial Area, Hajipur - BSPCB",09-01-2024 20:00:00,25.697189,85.245900,OZONE,1,74,29
India,Bihar,Katihar,"Mirchaibari, Katihar - BSPCB",09-01-2024 20:00:00,25.560083,87.553265,PM2.5,67,355,167
India,Bihar,Katihar,"Mirchaibari, Katihar - BSPCB",09-01-2024 20:00:00,25.560083,87.553265,PM10,85,340,155
India,Bihar,Katihar,"Mirchaibari, Katihar - BSPCB",09-01-2024 20:00:00,25.560083,87.553265,SO2,20,26,23
India,Bihar,Katihar,"Mirchaibari, Katihar - BSPCB",09-01-2024 20:00:00,25.560083,87.553265,OZONE,22,28,26
India,Bihar,Kishanganj,"SDM Office_Khagra, Kishanganj - BSPCB",09-01-2024 20:00:00,26.0881305,87.93840336,PM2.5,5,250,41
India,Bihar,Kishanganj,"SDM Office_Khagra, Kishanganj - BSPCB",09-01-2024 20:00:00,26.0881305,87.93840336,PM10,130,439,178
India,Bihar,Kishanganj,"SDM Office_Khagra, Kishanganj - BSPCB",09-01-2024 20:00:00,26.0881305,87.93840336,NH3,7,12,8
India,Bihar,Manguraha,"Forest Rest House, Manguraha - BSPCB",09-01-2024 20:00:00,27.308328,84.531742,CO,4,28,17
India,Bihar,Munger,"Town Hall, Munger - BSPCB",09-01-2024 20:00:00,25.376776,86.471523,NO2,7,9,8
India,Bihar,Muzaffarpur,"Buddha Colony, Muzaffarpur - BSPCB",09-01-2024 20:00:00,26.11442,85.39813,PM2.5,204,344,285
India,Bihar,Muzaffarpur,"MIT-Daudpur Kothi, Muzaffarpur - BSPCB",09-01-2024 20:00:00,26.1403345,85.3650192,NH3,8,16,10
India,Bihar,Muzaffarpur,"Muzaffarpur Collectorate, Muzaffarpur - BSPCB",09-01-2024 20:00:00,26.1209,85.3647,SO2,7,37,10
India,Bihar,Patna,"DRM Office Danapur, Patna - BSPCB",09-01-2024 20:00:00,25.586562,85.043586,NO2,14,68,34
India,Bihar,Patna,"Govt. High School Shikarpur, Patna - BSPCB",09-01-2024 20:00:00,25.592539,85.227158,PM2.5,102,316,212
India,Bihar,Patna,"Govt. High School Shikarpur, Patna - BSPCB",09-01-2024 20:00:00,25.592539,85.227158,PM10,103,167,133
India,Bihar,Patna,"IGSC Planetarium Complex, Patna - BSPCB",09-01-2024 20:00:00,25.610369,85.132568,PM2.5,43,333,185
India,Bihar,Patna,"IGSC Planetarium Complex, Patna - BSPCB",09-01-2024 20:00:00,25.610369,85.132568,NO2,9,10,10
India,Bihar,Patna,"Muradpur, Patna - BSPCB",09-01-2024 20:00:00,25.619651,85.147382,NH3,1,9,4
India,Bihar,Patna,"Rajbansi Nagar, Patna - BSPCB",09-01-2024 20:00:00,25.599486,85.113666,PM10,163,281,210
India,Bihar,Patna,"Rajbansi Nagar, Patna - BSPCB",09-01-2024 20:00:00,25.599486,85.113666,NH3,6,8,7
India,Bihar,Patna,"Rajbansi Nagar, Patna - BSPCB",09-01-2024 20:00:00,25.599486,85.113666,SO2,10,23,17
India,Bihar,Patna,"Samanpura, Patna - BSPCB",09-01-2024 20:00:00,25.596727,85.085624,NH3,2,3,3
India,Bihar,Purnia,"Mariam Nagar, Purnia - BSPCB",09-01-2024 20:00:00,25.366336,87.117468,CO,44,110,65
India,Bihar,Purnia,"Mariam Nagar, Purnia - BSPCB",09-01-2024 20:00:00,25.366336,87.117468,OZONE,9,17,14
India,Bihar,Rajgir,"Dangi Tola, Rajgir - BSPCB",09-01-2024 20:00:00,25.03280,85.41948,NO2,4,29,11
India,Bihar,Rajgir,"Dangi Tola, Rajgir - BSPCB",09-01-2024 20:00:00,25.03280,85.41948,NH3,1,7,1
India,Bihar,Saharsa,"Police Line, Saharsa - BSPCB",09-01-2024 20:00:00,25.892357,86.590325,SO2,18,18,18
India,Bihar,Samastipur,"DM Office_Kasipur, Samastipur - BSPCB",09-01-2024 20:00:00,25.859655,85.77944,SO2,10,16,14
India,Bihar,Sasaram,"Dada Peer, Sasaram - BSPCB",09-01-2024 20:00:00,24.952822,84.002396,NH3,4,9,6
India,Bihar,Siwan,"Chitragupta Nagar, Siwan - BSPCB",09-01-2024 20:00:00,26.2271665,84.3570427,PM10,NA,NA,NA
India,Bihar,Siwan,"Chitragupta Nagar, Siwan - BSPCB",09-01-2024 20:00:00,26.2271665,84.3570427,NO2,28,91,45
India,Bihar,Siwan,"Chitragupta Nagar, Siwan - BSPCB",09-01-2024 20:00:00,26.2271665,84.3570427,SO2,27,35,30
India,Chandigarh,Chandigarh,"Sector 22, Chandigarh - CPCC",09-01-2024 20:00:00,30.735567,76.775714,NO2,NA,NA,NA
India,Chandigarh,Chandigarh,"Sector 22, Chandigarh - CPCC",09-01-2024 20:00:00,30.735567,76.775714,OZONE,4,31,21
India,Chandigarh,Chandigarh,"Sector-53, Chandigarh - CPCC",09-01-2024 20:00:00,30.719859,76.738637,NO2,11,14,12
India,Chandigarh,Chandigarh,"Sector-53, Chandigarh - CPCC",09-01-2024 20:00:00,30.719859,76.738637,NH3,5,7,6
India,Chhattisgarh,Bhilai,"32Bungalows, Bhilai - CECB",09-01-2024 20:00:00,21.194815,81.314770,PM10,107,178,134
India,Chhattisgarh,Bhilai,"32Bungalows, Bhilai - CECB",09-01-2024 20:00:00,21.194815,81.314770,NO2,18,33,24
India,Chhattisgarh,Bhilai,"Civic Center, Bhilai - Bhilai Steel Plant",09-01-2024 20:00:00,21.185571,81.343175,PM10,NA,NA,NA
India,Chhattisgarh,Bhilai,"Civic Center, Bhilai - Bhilai Steel Plant",09-01-2024 20:00:00,21.185571,81.343175,NO2,NA,NA,NA
India,Chhattisgarh,Bhilai,"Hathkhoj, Bhilai - CECB",09-01-2024 20:00:00,21.224231,81.408350,PM2.5,116,272,178
India,Chhattisgarh,Bhilai,"Hathkhoj, Bhilai - CECB",09-01-2024 20:00:00,21.224231,81.408350,PM10,103,176,138
India,Chhattisgarh,Bilaspur,"Mangala, Bilaspur - NTPC",09-01-2024 20:00:00,22.08815,82.13737,PM10,67,171,103
India,Chhattisgarh,Bilaspur,"Mangala, Bilaspur - NTPC",09-01-2024 20:00:00,22.08815,82.13737,NO2,8,11,10
India,Chhattisgarh,Korba,"Rampur, Korba - CECB",09-01-2024 20:00:00,22.368195,82.746431,NH3,2,6,4
India,Chhattisgarh,Korba,"Rampur, Korba - CECB",09-01-2024 20:00:00,22.368195,82.746431,OZONE,2,38,21
India,Chhattisgarh,Korba,"Urja Nagar, Korba - CECB",09-01-2024 20:00:00,22.348441,82.549611,SO2,3,31,6
India,Chhattisgarh,Kunjemura,"OP Jindal School, Kunjemura - CECB",09-01-2024 20:00:00,22.126650,83.483212,OZONE,3,76,57
India,Chhattisgarh,Milupara,"Govt. Higher Secondary School, Milupara - CECB",09-01-2024 20:00:00,22.1910172,83.5197009,OZONE,11,112,73
India,Chhattisgarh,Raipur,"AIIMS, Raipur - CECB",09-01-2024 20:00:00,21.258815,81.578979,SO2,6,10,8
India,Chhattisgarh,Raipur,"Bhatagaon New ISBT, Raipur - CECB",09-01-2024 20:00:00,21.219665,81.630094,NH3,1,3,2
India,Chhattisgarh,Raipur,"Siltara Phase-II, Raipur - CECB",09-01-2024 20:00:00,21.371751,81.664929,NO2,NA,NA,NA
India,Chhattisgarh,Raipur,"Siltara Phase-II, Raipur - CECB",09-01-2024 20:00:00,21.371751,81.664929,NH3,NA,NA,NA
India,Chhattisgarh,Tumidih,"OP Jindal Industrial Park, Tumidih - CECB",09-01-2024 20:00:00,22.06631475,83.33820077,PM2.5,73,166,111
India,Chhattisgarh,Tumidih,"OP Jindal Industrial Park, Tumidih - CECB",09-01-2024 20:00:00,22.06631475,83.33820077,NO2,10,45,22
India,Delhi,Delhi,"Alipur, Delhi - DPCC",09-01-2024 20:00:00,28.815329,77.153010,OZONE,4,41,30
India,Delhi,Delhi,"Ashok Vihar, Delhi - DPCC",09-01-2024 20:00:00,28.695381,77.181665,PM2.5,212,410,291
India,Delhi,Delhi,"Ashok Vihar, Delhi - DPCC",09-01-2024 20:00:00,28.695381,77.181665,PM10,150,452,247
India,Delhi,Delhi,"Aya Nagar, Delhi - IMD",09-01-2024 20:00:00,28.4706914,77.1099364,PM2.5,79,361,200
India,Delhi,Delhi,"Burari Crossing, Delhi - IMD",09-01-2024 20:00:00,28.7256504,77.2011573,PM10,136,500,233
India,Delhi,Delhi,"CRRI Mathura Road, Delhi - IMD",09-01-2024 20:00:00,28.5512005,77.2735737,PM2.5,167,412,292
India,Delhi,Delhi,"Dr. Karni Singh Shooting Range, Delhi - DPCC",09-01-2024 20:00:00,28.498571,77.264840,PM2.5,305,404,343
India,Delhi,Delhi,"Dr. Karni Singh Shooting Range, Delhi - DPCC",09-01-2024 20:00:00,28.498571,77.264840,NO2,49,95,68
India,Delhi,Delhi,"Dwarka-Sector 8, Delhi - DPCC ",09-01-2024 20:00:00,28.5710274,77.0719006,NO2,30,76,47
India,Delhi,Delhi,"Dwarka-Sector 8, Delhi - DPCC ",09-01-2024 20:00:00,28.5710274,77.0719006,CO,41,103,47
India,Delhi,Delhi,"Dwarka-Sector 8, Delhi - DPCC ",09-01-2024 20:00:00,28.5710274,77.0719006,OZONE,8,24,18
India,Delhi,Delhi,"IGI Airport (T3), Delhi - IMD",09-01-2024 20:00:00,28.5627763,77.1180053,CO,40,92,71
India,Delhi,Delhi,"IHBAS, Dilshad Garden, Delhi - CPCB",09-01-2024 20:00:00,28.6811736,77.3025234,NH3,1,9,6
India,Delhi,Delhi,"ITO, Delhi - CPCB",09-01-2024 20:00:00,28.628624,77.241060,NH3,5,15,7
India,Delhi,Delhi,"Jawaharlal Nehru Stadium, Delhi - DPCC",09-01-2024 20:00:00,28.580280,77.233829,OZONE,4,20,17
India,Delhi,Delhi,"Lodhi Road, Delhi - IMD",09-01-2024 20:00:00,28.5918245,77.2273074,CO,66,112,70
India,Delhi,Delhi,"Lodhi Road, Delhi - IMD",09-01-2024 20:00:00,28.5918245,77.2273074,OZONE,14,33,26
India,Delhi,Delhi,"Major Dhyan Chand National Stadium, Delhi - DPCC",09-01-2024 20:00:00,28.611281,77.237738,SO2,13,20,15
India,Delhi,Delhi,"Mundka, Delhi - DPCC",09-01-2024 20:00:00,28.684678,77.076574,SO2,12,18,14
India,Delhi,Delhi,"Mundka, Delhi - DPCC",09-01-2024 20:00:00,28.684678,77.076574,CO,46,90,50
India,Delhi,Delhi,"NSIT Dwarka, Delhi - CPCB",09-01-2024 20:00:00,28.60909,77.0325413,PM2.5,228,424,315
India,Delhi,Delhi,"North Campus, DU, Delhi - IMD",09-01-2024 20:00:00,28.6573814,77.1585447,PM2.5,217,400,310
India,Delhi,Delhi,"North Campus, DU, Delhi - IMD",09-01-2024 20:00:00,28.6573814,77.1585447,NO2,32,73,45
India,Delhi,Delhi,"Okhla Phase-2, Delhi - DPCC",09-01-2024 20:00:00,28.530785,77.271255,NO2,59,103,82
India,Delhi,Delhi,"Okhla Phase-2, Delhi - DPCC",09-01-2024 20:00:00,28.530785,77.271255,NH3,12,17,14
India,Delhi,Delhi,"Okhla Phase-2, Delhi - DPCC",09-01-2024 20:00:00,28.530785,77.271255,SO2,4,15,8
India,Delhi,Delhi,"Okhla Phase-2, Delhi - DPCC",09-01-2024 20:00:00,28.530785,77.271255,CO,20,106,81
India,Delhi,Delhi,"Okhla Phase-2, Delhi - DPCC",09-01-2024 20:00:00,28.530785,77.271255,OZONE,5,26,16
India,Delhi,Delhi,"Pusa, Delhi - DPCC",09-01-2024 20:00:00,28.639652,77.146275,PM10,185,500,299
India,Delhi,Delhi,"Pusa, Delhi - DPCC",09-01-2024 20:00:00,28.639652,77.146275,SO2,4,22,10
India,Delhi,Delhi,"Pusa, Delhi - DPCC",09-01-2024 20:00:00,28.639652,77.146275,CO,18,119,56
India,Delhi,Delhi,"Pusa, Delhi - IMD",09-01-2024 20:00:00,28.636110,77.173332,NO2,21,58,33
India,Delhi,Delhi,"Pusa, Delhi - IMD",09-01-2024 20:00:00,28.636110,77.173332,OZONE,26,31,29
India,Delhi,Delhi,"R K Puram, Delhi - DPCC",09-01-2024 20:00:00,28.563262,77.186937,PM2.5,291,500,358
India,Delhi,Delhi,"R K Puram, Delhi - DPCC",09-01-2024 20:00:00,28.563262,77.186937,PM10,138,500,275
India,Delhi,Delhi,"R K Puram, Delhi - DPCC",09-01-2024 20:00:00,28.563262,77.186937,SO2,8,64,20
India,Delhi,Delhi,"R K Puram, Delhi - DPCC",09-01-2024 20:00:00,28.563262,77.186937,OZONE,9,32,23
India,Delhi,Delhi,"Rohini, Delhi - DPCC",09-01-2024 20:00:00,28.732528,77.119920,PM2.5,253,417,294
India,Delhi,Delhi,"Shadipur, Delhi - CPCB",09-01-2024 20:00:00,28.6514781,77.1473105,CO,25,106,64
India,Delhi,Delhi,"Shadipur, Delhi - CPCB",09-01-2024 20:00:00,28.6514781,77.1473105,OZONE,17,39,25
India,Delhi,Delhi,"Sirifort, Delhi - CPCB",09-01-2024 20:00:00,28.5504249,77.2159377,PM10,148,488,268
India,Delhi,Delhi,"Sirifort, Delhi - CPCB",09-01-2024 20:00:00,28.5504249,77.2159377,NH3,8,12,10
India,Delhi,Delhi,"Sirifort, Delhi - CPCB",09-01-2024 20:00:00,28.5504249,77.2159377,SO2,26,31,28
India,Delhi,Delhi,"Sirifort, Delhi - CPCB",09-01-2024 20:00:00,28.5504249,77.2159377,OZONE,13,37,15
India,Delhi,Delhi,"Sonia Vihar, Delhi - DPCC",09-01-2024 20:00:00,28.710508,77.249485,PM10,125,405,220
India,Delhi,Delhi,"Sonia Vihar, Delhi - DPCC",09-01-2024 20:00:00,28.710508,77.249485,NH3,6,10,7
India,Delhi,Delhi,"Sonia Vihar, Delhi - DPCC",09-01-2024 20:00:00,28.710508,77.249485,OZONE,4,37,25
India,Delhi,Delhi,"Sri Aurobindo Marg, Delhi - DPCC",09-01-2024 20:00:00,28.531346,77.190156,CO,30,102,39
India,Delhi,Delhi,"Vivek Vihar, Delhi - DPCC",09-01-2024 20:00:00,28.672342,77.315260,PM2.5,301,482,360
India,Delhi,Delhi,"Vivek Vihar, Delhi - DPCC",09-01-2024 20:00:00,28.672342,77.315260,SO2,7,8,7
India,Delhi,Delhi,"Wazirpur, Delhi - DPCC",09-01-2024 20:00:00,28.699793,77.165453,NO2,109,214,144
India,Delhi,Delhi,"Wazirpur, Delhi - DPCC",09-01-2024 20:00:00,28.699793,77.165453,CO,13,102,48
India,Gujarat,Ahmedabad,"Chandkheda, Ahmedabad - IITM",09-01-2024 20:00:00,23.107969,72.574648,PM2.5,70,191,114
India,Gujarat,Ahmedabad,"Chandkheda, Ahmedabad - IITM",09-01-2024 20:00:00,23.107969,72.574648,NO2,6,10,8
India,Gujarat,Ahmedabad,"Gyaspur, Ahmedabad - IITM",09-01-2024 20:00:00,22.977134,72.553024,NO2,13,19,15
India,Gujarat,Ahmedabad,"Gyaspur, Ahmedabad - IITM",09-01-2024 20:00:00,22.977134,72.553024,OZONE,11,17,15
India,Gujarat,Ahmedabad,"Raikhad, Ahmedabad - IITM",09-01-2024 20:00:00,23.020509,72.579261,NH3,5,6,6
India,Gujarat,Ahmedabad,"Raikhad, Ahmedabad - IITM",09-01-2024 20:00:00,23.020509,72.579261,SO2,6,6,6
India,Gujarat,Ahmedabad,"Rakhial, Ahmedabad - IITM",09-01-2024 20:00:00,23.016834,72.625775,PM2.5,73,311,201
India,Gujarat,Ahmedabad,"Rakhial, Ahmedabad - IITM",09-01-2024 20:00:00,23.016834,72.625775,SO2,2,6,3
India,Gujarat,Ahmedabad,"Rakhial, Ahmedabad - IITM",09-01-2024 20:00:00,23.016834,72.625775,CO,40,98,51
India,Gujarat,Ahmedabad,"SAC ISRO Bopal, Ahmedabad - IITM",09-01-2024 20:00:00,23.041137,72.456691,PM10,76,155,116
India,Gujarat,Ahmedabad,"SAC ISRO Bopal, Ahmedabad - IITM",09-01-2024 20:00:00,23.041137,72.456691,OZONE,9,13,12
India,Gujarat,Ahmedabad,"SVPI Airport Hansol, Ahmedabad - IITM",09-01-2024 20:00:00,23.076793,72.627874,SO2,4,8,6
India,Gujarat,Ahmedabad,"Sardar Vallabhbhai Patel Stadium, Ahmedabad - IITM",09-01-2024 20:00:00,23.043070,72.562968,PM10,81,173,130
India,Gujarat,Ahmedabad,"Sardar Vallabhbhai Patel Stadium, Ahmedabad - IITM",09-01-2024 20:00:00,23.043070,72.562968,SO2,6,6,6
India,Gujarat,Gandhinagar,"GIFT City, Gandhinagar - IITM",09-01-2024 20:00:00,23.163798,72.677768,OZONE,2,25,20
India,Gujarat,Gandhinagar,"Sector-10, Gandhinagar - GPCB",09-01-2024 20:00:00,23.221714,72.654328,CO,19,20,20
India,Gujarat,Surat,"Science Center, Surat - SMC",09-01-2024 20:00:00,21.170046,72.795405,SO2,13,16,15
India,Gujarat,Vapi,"Phase-1 GIDC, Vapi - GPCB",09-01-2024 20:00:00,20.362421,72.918013,PM10,132,204,170
India,Gujarat,Vatva,"Phase-4 GIDC, Vatva - GPCB",09-01-2024 20:00:00,22.969611,72.643500,PM2.5,73,128,91
India,Gujarat,Vatva,"Phase-4 GIDC, Vatva - GPCB",09-01-2024 20:00:00,22.969611,72.643500,NO2,14,55,27
India,Gujarat,Vatva,"Phase-4 GIDC, Vatva - GPCB",09-01-2024 20:00:00,22.969611,72.643500,CO,38,40,40
India,Haryana,Ambala,"Patti Mehar, Ambala - HSPCB",09-01-2024 20:00:00,30.379589,76.778328,PM2.5,58,220,103
India,Haryana,Ambala,"Patti Mehar, Ambala - HSPCB",09-01-2024 20:00:00,30.379589,76.778328,PM10,76,190,116
India,Haryana,Ambala,"Patti Mehar, Ambala - HSPCB",09-01-2024 20:00:00,30.379589,76.778328,CO,30,60,43
India,Haryana,Ballabgarh,"Nathu Colony, Ballabgarh - HSPCB",09-01-2024 20:00:00,28.3419248,77.319699,OZONE,4,9,8
India,Haryana,Bhiwani,"H.B. Colony, Bhiwani - HSPCB",09-01-2024 20:00:00,28.806223,76.141105,CO,88,101,97
India,Haryana,Dharuhera,"Municipal Corporation Office, Dharuhera -  HSPCB",09-01-2024 20:00:00,28.206800,76.799700,PM2.5,71,341,174
India,Haryana,Faridabad,"New Industrial Town, Faridabad - HSPCB",09-01-2024 20:00:00,28.39072,77.30059,SO2,1,11,4
India,Haryana,Faridabad,"Sector 11, Faridabad - HSPCB",09-01-2024 20:00:00,28.376058,77.315741,PM2.5,156,183,165
India,Haryana,Faridabad,"Sector 11, Faridabad - HSPCB",09-01-2024 20:00:00,28.376058,77.315741,NH3,6,6,6
India,Haryana,Faridabad,"Sector 11, Faridabad - HSPCB",09-01-2024 20:00:00,28.376058,77.315741,SO2,18,20,19
India,Haryana,Fatehabad,"Huda Sector, Fatehabad - HSPCB",09-01-2024 20:00:00,29.503664,75.467934,PM2.5,96,310,153
India,Haryana,Fatehabad,"Huda Sector, Fatehabad - HSPCB",09-01-2024 20:00:00,29.503664,75.467934,NH3,10,10,10
India,Haryana,Gurugram,"Sector-51, Gurugram - HSPCB",09-01-2024 20:00:00,28.4227,77.0667,NO2,13,29,23
India,Haryana,Gurugram,"Teri Gram, Gurugram - HSPCB",09-01-2024 20:00:00,28.4275,77.1465,PM10,79,204,136
India,Haryana,Gurugram,"Teri Gram, Gurugram - HSPCB",09-01-2024 20:00:00,28.4275,77.1465,CO,32,74,37
India,Haryana,Gurugram,"Teri Gram, Gurugram - HSPCB",09-01-2024 20:00:00,28.4275,77.1465,OZONE,8,11,11
India,Haryana,Hisar,"Urban Estate-II, Hisar - HSPCB",09-01-2024 20:00:00,29.140560,75.744941,CO,101,105,102
India,Haryana,Jind,"Police Lines, Jind - HSPCB",09-01-2024 20:00:00,29.307814,76.337619,PM2.5,57,204,99
India,Haryana,Jind,"Police Lines, Jind - HSPCB",09-01-2024 20:00:00,29.307814,76.337619,NH3,2,6,4
India,Haryana,Jind,"Police Lines, Jind - HSPCB",09-01-2024 20:00:00,29.307814,76.337619,OZONE,2,11,9
India,Haryana,Kaithal,"Rishi Nagar, Kaithal - HSPCB",09-01-2024 20:00:00,29.8006,76.4155,SO2,6,16,11
India,Haryana,Kurukshetra,"Sector-7, Kurukshetra - HSPCB",09-01-2024 20:00:00,29.966942,76.875879,PM2.5,62,117,89
India,Haryana,Kurukshetra,"Sector-7, Kurukshetra - HSPCB",09-01-2024 20:00:00,29.966942,76.875879,NH3,1,5,5
India,Haryana,Mandikhera,"General Hospital, Mandikhera - HSPCB",09-01-2024 20:00:00,27.9002,76.9938,PM2.5,3,17,8
India,Haryana,Mandikhera,"General Hospital, Mandikhera - HSPCB",09-01-2024 20:00:00,27.9002,76.9938,NH3,17,21,19
India,Haryana,Manesar,"Sector-2 IMT, Manesar - HSPCB",09-01-2024 20:00:00,28.360699,76.936090,NO2,12,23,18
India,Haryana,Manesar,"Sector-2 IMT, Manesar - HSPCB",09-01-2024 20:00:00,28.360699,76.936090,SO2,3,33,20
India,Haryana,Manesar,"Sector-2 IMT, Manesar - HSPCB",09-01-2024 20:00:00,28.360699,76.936090,OZONE,8,22,15
India,Haryana,Narnaul,"Shastri Nagar, Narnaul - HSPCB",09-01-2024 20:00:00,28.060249,76.113115,PM10,NA,NA,NA
India,Haryana,Narnaul,"Shastri Nagar, Narnaul - HSPCB",09-01-2024 20:00:00,28.060249,76.113115,CO,10,39,29
India,Haryana,Narnaul,"Shastri Nagar, Narnaul - HSPCB",09-01-2024 20:00:00,28.060249,76.113115,OZONE,11,64,33
India,Haryana,Palwal,"Shyam Nagar, Palwal - HSPCB",09-01-2024 20:00:00,28.1485564,77.3320667,PM2.5,NA,NA,NA
India,Haryana,Palwal,"Shyam Nagar, Palwal - HSPCB",09-01-2024 20:00:00,28.1485564,77.3320667,PM10,NA,NA,NA
India,Haryana,Sirsa,"F-Block, Sirsa - HSPCB",09-01-2024 20:00:00,29.536400,75.015800,OZONE,20,36,33
India,Haryana,Sonipat,"Murthal, Sonipat - HSPCB",09-01-2024 20:00:00,29.027200,77.062100,PM2.5,92,290,175
India,Haryana,Sonipat,"Murthal, Sonipat - HSPCB",09-01-2024 20:00:00,29.027200,77.062100,NH3,7,10,9
India,Haryana,Sonipat,"Murthal, Sonipat - HSPCB",09-01-2024 20:00:00,29.027200,77.062100,SO2,13,29,20
India,Haryana,Yamuna Nagar,"Gobind Pura, Yamuna Nagar - HSPCB",09-01-2024 20:00:00,30.1480566,77.2893471,PM2.5,20,214,103
India,Haryana,Yamuna Nagar,"Gobind Pura, Yamuna Nagar - HSPCB",09-01-2024 20:00:00,30.1480566,77.2893471,SO2,3,45,8
India,Himachal Pradesh,Baddi,"HIMUDA Complex Phase-1, Baddi - HPPCB",09-01-2024 20:00:00,30.943887,76.801991,PM2.5,85,355,274
India,Himachal Pradesh,Baddi,"HIMUDA Complex Phase-1, Baddi - HPPCB",09-01-2024 20:00:00,30.943887,76.801991,PM10,107,326,197
India,Himachal Pradesh,Baddi,"HIMUDA Complex Phase-1, Baddi - HPPCB",09-01-2024 20:00:00,30.943887,76.801991,SO2,23,103,58
India,Himachal Pradesh,Baddi,"HIMUDA Complex Phase-1, Baddi - HPPCB",09-01-2024 20:00:00,30.943887,76.801991,OZONE,9,23,18
India,Jharkhand,Pathardih,"Mohalbani Ghat, Pathardih - DMC",09-01-2024 20:00:00,23.669880,86.411725,OZONE,16,38,22
India,Karnataka,Bagalkot,"Vidayagiri, Bagalkot - KSPCB",09-01-2024 20:00:00,16.172806,75.659694,PM10,53,58,57
India,Karnataka,Bagalkot,"Vidayagiri, Bagalkot - KSPCB",09-01-2024 20:00:00,16.172806,75.659694,NO2,10,11,10
India,Karnataka,Bagalkot,"Vidayagiri, Bagalkot - KSPCB",09-01-2024 20:00:00,16.172806,75.659694,SO2,9,9,9
India,Karnataka,Bengaluru,"BTM Layout, Bengaluru - CPCB",09-01-2024 20:00:00,12.9135218,77.5950804,PM2.5,NA,NA,NA
India,Karnataka,Bengaluru,"Bapuji Nagar, Bengaluru - KSPCB",09-01-2024 20:00:00,12.951913,77.539784,NO2,9,12,10
India,Karnataka,Bengaluru,"Hebbal, Bengaluru - KSPCB",09-01-2024 20:00:00,13.029152,77.585901,NO2,5,5,5
India,Karnataka,Bengaluru,"Hombegowda Nagar, Bengaluru - KSPCB",09-01-2024 20:00:00,12.938539,77.590100,NO2,32,37,33
India,Karnataka,Bengaluru,"Hombegowda Nagar, Bengaluru - KSPCB",09-01-2024 20:00:00,12.938539,77.590100,OZONE,4,5,4
India,Karnataka,Bengaluru,"Jayanagar 5th Block, Bengaluru - KSPCB",09-01-2024 20:00:00,12.920984,77.584908,PM2.5,17,86,60
India,Karnataka,Bengaluru,"Jayanagar 5th Block, Bengaluru - KSPCB",09-01-2024 20:00:00,12.920984,77.584908,PM10,32,167,82
India,Karnataka,Bengaluru,"Jayanagar 5th Block, Bengaluru - KSPCB",09-01-2024 20:00:00,12.920984,77.584908,SO2,14,19,16
India,Karnataka,Bengaluru,"Jayanagar 5th Block, Bengaluru - KSPCB",09-01-2024 20:00:00,12.920984,77.584908,OZONE,18,19,18
India,Karnataka,Bengaluru,"Jigani, Bengaluru - KSPCB",09-01-2024 20:00:00,12.7816279,77.6299145,NO2,30,37,31
India,Karnataka,Bengaluru,"Kasturi Nagar, Bengaluru - KSPCB",09-01-2024 20:00:00,13.003872,77.664217,NH3,4,4,4
India,Karnataka,Bengaluru,"Peenya, Bengaluru - CPCB",09-01-2024 20:00:00,13.0270199,77.494094,NH3,1,2,1
India,Karnataka,Bengaluru,"Shivapura_Peenya, Bengaluru - KSPCB",09-01-2024 20:00:00,13.0246342,77.5080115,CO,24,42,30
India,Karnataka,Bengaluru,"Silk Board, Bengaluru - KSPCB",09-01-2024 20:00:00,12.917348,77.622813,SO2,4,12,9
India,Karnataka,Bengaluru,"Silk Board, Bengaluru - KSPCB",09-01-2024 20:00:00,12.917348,77.622813,CO,4,32,18
India,Karnataka,Bidar,"Naubad, Bidar - KSPCB",09-01-2024 20:00:00,17.930306,77.482194,PM10,87,120,102
India,Karnataka,Bidar,"Naubad, Bidar - KSPCB",09-01-2024 20:00:00,17.930306,77.482194,CO,40,60,47
India,Karnataka,Bidar,"Naubad, Bidar - KSPCB",09-01-2024 20:00:00,17.930306,77.482194,OZONE,22,55,50
India,Karnataka,Chamarajanagar,"Urban, Chamarajanagar - KSPCB",09-01-2024 20:00:00,11.55358,76.55521,PM2.5,21,45,29
India,Karnataka,Chamarajanagar,"Urban, Chamarajanagar - KSPCB",09-01-2024 20:00:00,11.55358,76.55521,NH3,1,2,1
India,Karnataka,Chikkaballapur,"Chikkaballapur Rural, Chikkaballapur - KSPCB",09-01-2024 20:00:00,13.428828,77.731418,CO,7,18,14
India,Karnataka,Davanagere,"Devaraj Urs Badavane, Davanagere - KSPCB",09-01-2024 20:00:00,14.475800,75.905200,CO,7,18,15
India,Karnataka,Davanagere,"Devaraj Urs Badavane, Davanagere - KSPCB",09-01-2024 20:00:00,14.475800,75.905200,OZONE,18,28,25
India,Karnataka,Dharwad,"Kalabhavan, Dharwad - KSPCB",09-01-2024 20:00:00,15.459706,75.008381,PM10,46,165,75
India,Karnataka,Gadag,"Panchal Nagar, Gadag - KSPCB",09-01-2024 20:00:00,15.411456,75.638133,SO2,9,11,10
India,Karnataka,Haveri,"Ashwini Nagar, Haveri - KSPCB",09-01-2024 20:00:00,14.791800,75.389600,PM2.5,NA,NA,NA
India,Karnataka,Haveri,"Ashwini Nagar, Haveri - KSPCB",09-01-2024 20:00:00,14.791800,75.389600,SO2,13,14,14
India,Karnataka,Hubballi,"Deshpande Nagar, Hubballi - KSPCB",09-01-2024 20:00:00,15.351773,75.140726,SO2,13,19,18
India,Karnataka,Hubballi,"Lingaraj Nagar, Hubballi - KSPCB",09-01-2024 20:00:00,15.3714823,75.1160168,NO2,16,16,16
India,Karnataka,Kalaburagi,"Lal Bahadur Shastri Nagar, Kalaburagi - KSPCB",09-01-2024 20:00:00,17.321993,76.822628,PM10,NA,NA,NA
India,Karnataka,Kalaburagi,"Lal Bahadur Shastri Nagar, Kalaburagi - KSPCB",09-01-2024 20:00:00,17.321993,76.822628,SO2,16,18,17
India,Karnataka,Kalaburagi,"Mahatma Basaveswar Colony, Kalaburgi - KSPCB",09-01-2024 20:00:00,17.336318,76.847397,PM2.5,9,42,25
India,Karnataka,Kalaburagi,"Mahatma Basaveswar Colony, Kalaburgi - KSPCB",09-01-2024 20:00:00,17.336318,76.847397,NO2,8,27,18
India,Karnataka,Kalaburagi,"Mahatma Basaveswar Colony, Kalaburgi - KSPCB",09-01-2024 20:00:00,17.336318,76.847397,NH3,2,4,3
India,Karnataka,Karwar,"KHB Colony, Karwar - KSPCB",09-01-2024 20:00:00,14.816666,74.141003,NH3,2,3,3
India,Karnataka,Karwar,"KHB Colony, Karwar - KSPCB",09-01-2024 20:00:00,14.816666,74.141003,CO,1,160,74
India,Karnataka,Kolar,"Tamaka Ind. Area, Kolar - KSPCB",09-01-2024 20:00:00,13.1276288,78.1570122,NO2,3,9,5
India,Karnataka,Kolar,"Tamaka Ind. Area, Kolar - KSPCB",09-01-2024 20:00:00,13.1276288,78.1570122,NH3,5,6,6
India,Karnataka,Madikeri,"Stuart Hill, Madikeri - KSPCB",09-01-2024 20:00:00,12.415911,75.735050,PM2.5,38,74,52
India,Karnataka,Mangalore,"Kadri, Mangalore - KSPCB",09-01-2024 20:00:00,12.889250,74.853000,PM2.5,7,86,30
India,Karnataka,Mangalore,"Kadri, Mangalore - KSPCB",09-01-2024 20:00:00,12.889250,74.853000,NH3,1,2,2
India,Karnataka,Mysuru,"Hebbal 1st Stage, Mysuru - KSPCB",09-01-2024 20:00:00,12.21041,76.37376,PM2.5,9,65,25
India,Karnataka,Mysuru,"Hebbal 1st Stage, Mysuru - KSPCB",09-01-2024 20:00:00,12.21041,76.37376,SO2,1,4,2
India,Karnataka,Mysuru,"Hebbal 1st Stage, Mysuru - KSPCB",09-01-2024 20:00:00,12.21041,76.37376,CO,7,46,23
India,Karnataka,Raichur,"Haji Colony, Raichur - KSPCB",09-01-2024 20:00:00,16.208139,77.348417,NH3,NA,NA,NA
India,Karnataka,Raichur,"Haji Colony, Raichur - KSPCB",09-01-2024 20:00:00,16.208139,77.348417,OZONE,1,23,12
India,Karnataka,Ramanagara,"Vijay Nagar, Ramanagara - KSPCB",09-01-2024 20:00:00,12.733409,77.298051,PM2.5,3,78,38
India,Karnataka,Ramanagara,"Vijay Nagar, Ramanagara - KSPCB",09-01-2024 20:00:00,12.733409,77.298051,NH3,3,3,3
India,Karnataka,Shivamogga,"Vinoba Nagara, Shivamogga - KSPCB",09-01-2024 20:00:00,13.940000,75.555917,NO2,31,140,71
India,Karnataka,Shivamogga,"Vinoba Nagara, Shivamogga - KSPCB",09-01-2024 20:00:00,13.940000,75.555917,SO2,4,11,7
India,Karnataka,Shivamogga,"Vinoba Nagara, Shivamogga - KSPCB",09-01-2024 20:00:00,13.940000,75.555917,CO,12,44,39
India,Karnataka,Tumakuru,"Thimmalapura, Tumakuru - KSPCB",09-01-2024 20:00:00,13.377516,77.099072,PM2.5,30,56,42
India,Karnataka,Udupi,"Brahmagiri, Udupi - KSPCB",09-01-2024 20:00:00,13.34194444,74.74694444,PM10,NA,NA,NA
India,Karnataka,Udupi,"Brahmagiri, Udupi - KSPCB",09-01-2024 20:00:00,13.34194444,74.74694444,SO2,NA,NA,NA
India,Kerala,Eloor,"Udyogamandal, Eloor - Kerala PCB",09-01-2024 20:00:00,10.073232,76.302765,PM10,NA,NA,NA
India,Kerala,Eloor,"Udyogamandal, Eloor - Kerala PCB",09-01-2024 20:00:00,10.073232,76.302765,NH3,NA,NA,NA
India,Kerala,Eloor,"Udyogamandal, Eloor - Kerala PCB",09-01-2024 20:00:00,10.073232,76.302765,OZONE,10,38,20
India,Kerala,Kollam,"Polayathode, Kollam - Kerala PCB",09-01-2024 20:00:00,8.8787,76.6073,NO2,8,9,8
India,Kerala,Kollam,"Polayathode, Kollam - Kerala PCB",09-01-2024 20:00:00,8.8787,76.6073,OZONE,30,33,32
India,Kerala,Thiruvananthapuram,"Kariavattom, Thiruvananthapuram - Kerala PCB",09-01-2024 20:00:00,8.563700,76.886500,NO2,8,10,9
India,Kerala,Thrissur,"Corporation Ground, Thrissur - Kerala PCB",09-01-2024 20:00:00,10.532400,76.215900,PM10,54,63,59
India,Madhya Pradesh,Bhopal,"Idgah Hills, Bhopal - MPPCB",09-01-2024 20:00:00,23.264759,77.381568,OZONE,14,101,74
India,Madhya Pradesh,Bhopal,"T T Nagar, Bhopal - MPPCB",09-01-2024 20:00:00,23.233584,77.400574,PM10,122,186,147
India,Madhya Pradesh,Bhopal,"T T Nagar, Bhopal - MPPCB",09-01-2024 20:00:00,23.233584,77.400574,NH3,1,3,1
India,Madhya Pradesh,Gwalior,"City Center, Gwalior - MPPCB",09-01-2024 20:00:00,26.203442,78.193251,PM2.5,22,344,182
India,Madhya Pradesh,Gwalior,"Deen Dayal Nagar, Gwalior - MPPCB",09-01-2024 20:00:00,26.259242,78.216432,SO2,12,18,15
India,Madhya Pradesh,Gwalior,"Maharaj Bada, Gwalior - MPPCB",09-01-2024 20:00:00,26.200388,78.147714,PM10,74,370,196
India,Madhya Pradesh,Gwalior,"Maharaj Bada, Gwalior - MPPCB",09-01-2024 20:00:00,26.200388,78.147714,NO2,18,68,40
India,Madhya Pradesh,Gwalior,"Maharaj Bada, Gwalior - MPPCB",09-01-2024 20:00:00,26.200388,78.147714,NH3,8,14,12
India,Madhya Pradesh,Indore,"Chhoti Gwaltoli, Indore - MPPCB",09-01-2024 20:00:00,22.4310,75.5213,NO2,39,108,62
India,Madhya Pradesh,Indore,"Maguda Nagar, Indore - IMC",09-01-2024 20:00:00,22.7524,75.8872,NH3,2,3,2
India,Madhya Pradesh,Indore,"Regional Park, Indore - IMC",09-01-2024 20:00:00,22.6780,75.8559,PM2.5,32,193,84
India,Madhya Pradesh,Indore,"Regional Park, Indore - IMC",09-01-2024 20:00:00,22.6780,75.8559,PM10,33,132,76
India,Madhya Pradesh,Indore,"Residency Area, Indore - IMC",09-01-2024 20:00:00,22.7084,75.8815,PM10,37,117,76
India,Madhya Pradesh,Jabalpur,"Govindh Bhavan Colony, Jabalpur - JMC",09-01-2024 20:00:00,23.163174,79.973061,PM2.5,50,243,106
India,Madhya Pradesh,Jabalpur,"Govindh Bhavan Colony, Jabalpur - JMC",09-01-2024 20:00:00,23.163174,79.973061,SO2,1,48,11
India,Madhya Pradesh,Jabalpur,"Gupteshwar, Jabalpur - JMC",09-01-2024 20:00:00,23.142888,79.916147,PM2.5,48,227,106
India,Madhya Pradesh,Jabalpur,"Gupteshwar, Jabalpur - JMC",09-01-2024 20:00:00,23.142888,79.916147,OZONE,1,133,78
India,Madhya Pradesh,Jabalpur,"Marhatal, Jabalpur - MPPCB",09-01-2024 20:00:00,23.168606,79.932247,PM2.5,89,322,193
India,Madhya Pradesh,Jabalpur,"Marhatal, Jabalpur - MPPCB",09-01-2024 20:00:00,23.168606,79.932247,CO,6,106,50
India,Madhya Pradesh,Jabalpur,"Marhatal, Jabalpur - MPPCB",09-01-2024 20:00:00,23.168606,79.932247,OZONE,1,86,58
India,Madhya Pradesh,Katni,"Gole Bazar, Katni - MPPCB",09-01-2024 20:00:00,23.50016,80.23284,PM10,56,160,98
India,Madhya Pradesh,Katni,"Gole Bazar, Katni - MPPCB",09-01-2024 20:00:00,23.50016,80.23284,OZONE,16,80,51
India,Madhya Pradesh,Maihar,"Sahilara, Maihar - KJS Cements",09-01-2024 20:00:00,24.2613009,80.7231783,SO2,12,15,13
India,Madhya Pradesh,Mandideep,"Sector-D Industrial Area, Mandideep - MPPCB",09-01-2024 20:00:00,23.108440,77.511428,OZONE,15,55,42
India,Madhya Pradesh,Pithampur,"Sector-2 Industrial Area, Pithampur - MPPCB",09-01-2024 20:00:00,22.624758,75.675238,PM10,56,286,149
India,Madhya Pradesh,Pithampur,"Sector-2 Industrial Area, Pithampur - MPPCB",09-01-2024 20:00:00,22.624758,75.675238,NH3,2,3,2
India,Madhya Pradesh,Pithampur,"Sector-2 Industrial Area, Pithampur - MPPCB",09-01-2024 20:00:00,22.624758,75.675238,OZONE,29,63,55
India,Madhya Pradesh,Ratlam,"Shasthri Nagar, Ratlam - IPCA Lab",09-01-2024 20:00:00,23.331731,75.045981,PM10,99,266,127
India,Madhya Pradesh,Sagar,"Civil Lines, Sagar - MPPCB",09-01-2024 20:00:00,23.838586,78.759431,PM2.5,98,344,246
India,Madhya Pradesh,Sagar,"Deen Dayal Nagar, Sagar - MPPCB",09-01-2024 20:00:00,23.8640158,78.80289321,PM10,38,186,95
India,Madhya Pradesh,Sagar,"Deen Dayal Nagar, Sagar - MPPCB",09-01-2024 20:00:00,23.8640158,78.80289321,SO2,5,13,9
India,Madhya Pradesh,Satna,"Bandhavgar Colony, Satna - Birla Cement",09-01-2024 20:00:00,24.58434363,80.8549414,CO,30,50,35
India,Madhya Pradesh,Ujjain,"Mahakaleshwar Temple, Ujjain - MPPCB",09-01-2024 20:00:00,23.182719 ,75.768218 ,PM10,103,170,136
India,Maharashtra,Ahmednagar,"Tarakpur, Ahmednagar - MPCB",09-01-2024 20:00:00,19.10122,74.73339,PM2.5,19,142,70
India,Maharashtra,Akola,"Ramdaspeth, Akola - MPCB",09-01-2024 20:00:00,20.719516,77.000253,OZONE,12,79,59
India,Maharashtra,Amravati,"Shivneri Colony, Amravati - MPCB",09-01-2024 20:00:00,20.9402359,77.7895248,PM10,60,125,102
India,Maharashtra,Amravati,"Shivneri Colony, Amravati - MPCB",09-01-2024 20:00:00,20.9402359,77.7895248,NH3,2,3,3
India,Maharashtra,Aurangabad,"Rachnakar Colony, Aurangabad - MPCB",09-01-2024 20:00:00,19.863756,75.321188,PM2.5,72,199,181
India,Maharashtra,Badlapur,"Katrap, Badlapur - MPCB",09-01-2024 20:00:00,19.16485,73.23409,NO2,35,82,49
India,Maharashtra,Badlapur,"Katrap, Badlapur - MPCB",09-01-2024 20:00:00,19.16485,73.23409,NH3,1,3,2
India,Maharashtra,Belapur,"CBD Belapur, Belapur - MPCB",09-01-2024 20:00:00,19.0243902,73.0406721,PM2.5,50,128,87
India,Maharashtra,Belapur,"CBD Belapur, Belapur - MPCB",09-01-2024 20:00:00,19.0243902,73.0406721,CO,30,80,40
India,Maharashtra,Bhiwandi,"Gokul Nagar, Bhiwandi - MPCB",09-01-2024 20:00:00,19.309073,73.057223,PM10,121,220,174
India,Maharashtra,Bhiwandi,"Gokul Nagar, Bhiwandi - MPCB",09-01-2024 20:00:00,19.309073,73.057223,SO2,5,16,10
India,Maharashtra,Bhiwandi,"Gokul Nagar, Bhiwandi - MPCB",09-01-2024 20:00:00,19.309073,73.057223,CO,34,103,43
India,Maharashtra,Boisar,"Khaira, Boisar - MPCB",09-01-2024 20:00:00,19.786089,72.757971,OZONE,29,30,30
India,Maharashtra,Chandrapur,"Chauhan Colony, Chandrapur - MPCB",09-01-2024 20:00:00,19.962900,79.298714,OZONE,9,18,12
India,Maharashtra,Chandrapur,"MIDC Khutala, Chandrapur - MPCB",09-01-2024 20:00:00,19.9775302,79.2337086,CO,32,106,46
India,Maharashtra,Dhule,"Deopur, Dhule - MPCB",09-01-2024 20:00:00,20.918946,74.776388,PM10,69,287,152
India,Maharashtra,Dhule,"Deopur, Dhule - MPCB",09-01-2024 20:00:00,20.918946,74.776388,NO2,12,29,17
India,Maharashtra,Dhule,"Deopur, Dhule - MPCB",09-01-2024 20:00:00,20.918946,74.776388,NH3,1,10,5
India,Maharashtra,Dhule,"Deopur, Dhule - MPCB",09-01-2024 20:00:00,20.918946,74.776388,OZONE,3,62,45
India,Maharashtra,Jalna,"Old MIDC, Jalna - MPCB",09-01-2024 20:00:00,19.854616,75.905894,NO2,11,31,16
India,Maharashtra,Kalyan,"Khadakpada, Kalyan - MPCB",09-01-2024 20:00:00,19.25292,73.142019,NO2,20,121,45
India,Maharashtra,Kolhapur,"Shivaji University, Kolhapur - MPCB",09-01-2024 20:00:00,16.6870449,74.2505872,CO,26,43,28
India,Maharashtra,Kolhapur,"Shivaji University, Kolhapur - MPCB",09-01-2024 20:00:00,16.6870449,74.2505872,OZONE,9,34,31
India,Maharashtra,Kolhapur,"Sinchan Bhavan, Kolhapur - MPCB",09-01-2024 20:00:00,16.7143745,74.2426398,PM2.5,82,198,120
India,Maharashtra,Kolhapur,"Sinchan Bhavan, Kolhapur - MPCB",09-01-2024 20:00:00,16.7143745,74.2426398,SO2,1,11,3
India,Maharashtra,Kolhapur,"Sinchan Bhavan, Kolhapur - MPCB",09-01-2024 20:00:00,16.7143745,74.2426398,OZONE,7,34,22
India,Maharashtra,Latur,"Sawe Wadi, Latur - MPCB",09-01-2024 20:00:00,18.39963,76.57452,NO2,15,79,45
India,Maharashtra,Malegaon,"Mahesh Nagar, Malegaon - MPCB",09-01-2024 20:00:00,20.555712,74.529236,NO2,8,35,15
India,Maharashtra,Malegaon,"Mahesh Nagar, Malegaon - MPCB",09-01-2024 20:00:00,20.555712,74.529236,NH3,8,17,10
India,Maharashtra,Mira-Bhayandar,"Bhayandar West, Mira-Bhayandar - MPCB",09-01-2024 20:00:00,19.296481,72.840923,SO2,6,72,13
India,Maharashtra,Mira-Bhayandar,"Bhayandar West, Mira-Bhayandar - MPCB",09-01-2024 20:00:00,19.296481,72.840923,OZONE,1,102,79
India,Maharashtra,Mumbai,"Bandra Kurla Complex, Mumbai - MPCB",09-01-2024 20:00:00,19.065931,72.862131,PM10,56,131,104
India,Maharashtra,Mumbai,"Bandra Kurla Complex, Mumbai - MPCB",09-01-2024 20:00:00,19.065931,72.862131,NH3,15,22,18
India,Maharashtra,Mumbai,"Borivali East, Mumbai - MPCB",09-01-2024 20:00:00,19.2243333,72.8658113,PM10,73,133,92
India,Maharashtra,Mumbai,"Borivali East, Mumbai - MPCB",09-01-2024 20:00:00,19.2243333,72.8658113,SO2,7,9,8
India,Maharashtra,Mumbai,"Borivali East, Mumbai - MPCB",09-01-2024 20:00:00,19.2243333,72.8658113,CO,3,105,65
India,Maharashtra,Mumbai,"Borivali East, Mumbai - MPCB",09-01-2024 20:00:00,19.2243333,72.8658113,OZONE,8,9,8
India,Maharashtra,Mumbai,"Byculla, Mumbai - BMC",09-01-2024 20:00:00,18.9767,72.8380,PM2.5,20,90,54
India,Maharashtra,Mumbai,"Byculla, Mumbai - BMC",09-01-2024 20:00:00,18.9767,72.8380,CO,10,55,25
India,Maharashtra,Mumbai,"Byculla, Mumbai - BMC",09-01-2024 20:00:00,18.9767,72.8380,OZONE,1,87,67
India,Maharashtra,Mumbai,"Chakala-Andheri East, Mumbai - IITM",09-01-2024 20:00:00,19.11074,72.86084,NO2,47,157,100
India,Maharashtra,Mumbai,"Chakala-Andheri East, Mumbai - IITM",09-01-2024 20:00:00,19.11074,72.86084,NH3,2,8,4
India,Maharashtra,Mumbai,"Chakala-Andheri East, Mumbai - IITM",09-01-2024 20:00:00,19.11074,72.86084,OZONE,33,68,61
India,Maharashtra,Mumbai,"Chembur, Mumbai - MPCB",09-01-2024 20:00:00,19.0364585,72.8954371,PM10,63,127,94
India,Maharashtra,Mumbai,"Chhatrapati Shivaji Intl. Airport (T2), Mumbai - MPCB",09-01-2024 20:00:00,19.10078,72.87462,CO,50,101,63
India,Maharashtra,Mumbai,"Chhatrapati Shivaji Intl. Airport (T2), Mumbai - MPCB",09-01-2024 20:00:00,19.10078,72.87462,OZONE,1,14,10
India,Maharashtra,Mumbai,"Kandivali East, Mumbai - MPCB",09-01-2024 20:00:00,19.205800,72.868200,SO2,18,66,31
India,Maharashtra,Mumbai,"Kandivali East, Mumbai - MPCB",09-01-2024 20:00:00,19.205800,72.868200,CO,54,106,71
India,Maharashtra,Mumbai,"Kandivali West, Mumbai - BMC",09-01-2024 20:00:00,19.215859,72.831718,NO2,NA,NA,NA
India,Maharashtra,Mumbai,"Kherwadi_Bandra East, Mumbai - MPCB",09-01-2024 20:00:00,19.0632143,72.8456324,PM2.5,55,176,99
India,Maharashtra,Mumbai,"Kherwadi_Bandra East, Mumbai - MPCB",09-01-2024 20:00:00,19.0632143,72.8456324,NH3,5,7,6
India,Maharashtra,Mumbai,"Khindipada-Bhandup West, Mumbai - IITM",09-01-2024 20:00:00,19.1653323,72.922099,PM2.5,63,166,97
India,Maharashtra,Mumbai,"Khindipada-Bhandup West, Mumbai - IITM",09-01-2024 20:00:00,19.1653323,72.922099,PM10,74,141,104
India,Maharashtra,Mumbai,"Khindipada-Bhandup West, Mumbai - IITM",09-01-2024 20:00:00,19.1653323,72.922099,CO,36,91,55
India,Maharashtra,Mumbai,"Malad West, Mumbai - IITM",09-01-2024 20:00:00,19.19709,72.82204,NO2,10,21,15
India,Maharashtra,Mumbai,"Malad West, Mumbai - IITM",09-01-2024 20:00:00,19.19709,72.82204,SO2,1,22,10
India,Maharashtra,Mumbai,"Malad West, Mumbai - IITM",09-01-2024 20:00:00,19.19709,72.82204,CO,8,67,30
India,Maharashtra,Mumbai,"Mulund West, Mumbai - MPCB",09-01-2024 20:00:00,19.1750,72.9419,NO2,22,26,23
India,Maharashtra,Mumbai,"Sewri, Mumbai - BMC",09-01-2024 20:00:00,19.000084,72.856730,NH3,3,13,9
India,Maharashtra,Mumbai,"Sewri, Mumbai - BMC",09-01-2024 20:00:00,19.000084,72.856730,CO,12,88,20
India,Maharashtra,Mumbai,"Vasai West, Mumbai - MPCB",09-01-2024 20:00:00,19.383200,72.820400,PM2.5,42,71,54
India,Maharashtra,Mumbai,"Vasai West, Mumbai - MPCB",09-01-2024 20:00:00,19.383200,72.820400,NO2,26,28,27
India,Maharashtra,Mumbai,"Vile Parle West, Mumbai - MPCB",09-01-2024 20:00:00,19.10861,72.83622,PM2.5,40,128,89
India,Maharashtra,Mumbai,"Vile Parle West, Mumbai - MPCB",09-01-2024 20:00:00,19.10861,72.83622,NO2,5,83,18
India,Maharashtra,Nagpur,"Opp GPO Civil Lines, Nagpur - MPCB",09-01-2024 20:00:00,21.152875,79.0517531,SO2,4,26,15
India,Maharashtra,Nagpur,"Opp GPO Civil Lines, Nagpur - MPCB",09-01-2024 20:00:00,21.152875,79.0517531,CO,34,125,65
India,Maharashtra,Nagpur,"Ram Nagar, Nagpur - MPCB",09-01-2024 20:00:00,21.143383,79.048912,NH3,5,5,5
India,Maharashtra,Nagpur,"Ram Nagar, Nagpur - MPCB",09-01-2024 20:00:00,21.143383,79.048912,OZONE,12,91,67
India,Maharashtra,Nanded,"Sneh Nagar, Nanded - MPCB",09-01-2024 20:00:00,19.173852,77.296291,NH3,2,2,2
India,Maharashtra,Nashik,"Gangapur Road, Nashik - MPCB",09-01-2024 20:00:00,20.0073285,73.7762427,PM10,45,117,74
India,Maharashtra,Nashik,"MIDC Ambad, Nashik - MPCB",09-01-2024 20:00:00,19.950220,73.731480,NO2,22,115,64
India,Maharashtra,Nashik,"MIDC Ambad, Nashik - MPCB",09-01-2024 20:00:00,19.950220,73.731480,SO2,5,40,11
India,Maharashtra,Nashik,"Pandav Nagari, Nashik - MPCB",09-01-2024 20:00:00,19.9591346,73.7788008,PM2.5,47,150,94
India,Maharashtra,Nashik,"Pandav Nagari, Nashik - MPCB",09-01-2024 20:00:00,19.9591346,73.7788008,NO2,18,108,47
India,Maharashtra,Navi Mumbai,"Kopripada-Vashi, Navi Mumbai - MPCB",09-01-2024 20:00:00,19.090337,73.014232,NO2,40,184,96
India,Maharashtra,Navi Mumbai,"Kopripada-Vashi, Navi Mumbai - MPCB",09-01-2024 20:00:00,19.090337,73.014232,NH3,5,43,16
India,Maharashtra,Navi Mumbai,"Kopripada-Vashi, Navi Mumbai - MPCB",09-01-2024 20:00:00,19.090337,73.014232,SO2,11,100,29
India,Maharashtra,Navi Mumbai,"Mahape, Navi Mumbai - MPCB",09-01-2024 20:00:00,19.1135051,73.008978,PM10,82,183,134
India,Maharashtra,Navi Mumbai,"Nerul, Navi Mumbai - MPCB",09-01-2024 20:00:00,19.008751,73.016620,PM2.5,33,156,88
India,Maharashtra,Navi Mumbai,"Nerul, Navi Mumbai - MPCB",09-01-2024 20:00:00,19.008751,73.016620,PM10,60,197,124
India,Maharashtra,Navi Mumbai,"Sanpada, Navi Mumbai - MPCB",09-01-2024 20:00:00,19.0575752,73.0151367,PM10,63,159,121
India,Maharashtra,Navi Mumbai,"Sanpada, Navi Mumbai - MPCB",09-01-2024 20:00:00,19.0575752,73.0151367,NO2,4,35,15
India,Maharashtra,Navi Mumbai,"Sanpada, Navi Mumbai - MPCB",09-01-2024 20:00:00,19.0575752,73.0151367,NH3,9,19,14
India,Maharashtra,Navi Mumbai,"Sanpada, Navi Mumbai - MPCB",09-01-2024 20:00:00,19.0575752,73.0151367,SO2,9,45,25
India,Maharashtra,Navi Mumbai,"Sanpada, Navi Mumbai - MPCB",09-01-2024 20:00:00,19.0575752,73.0151367,OZONE,1,128,66
India,Maharashtra,Navi Mumbai,"Sector-19A Nerul, Navi Mumbai - IITM",09-01-2024 20:00:00,19.044,73.0325,PM2.5,138,307,233
India,Maharashtra,Navi Mumbai,"Sector-2E Kalamboli, Navi Mumbai - MPCB",09-01-2024 20:00:00,19.02579,73.10297,PM2.5,57,303,192
India,Maharashtra,Navi Mumbai,"Sector-2E Kalamboli, Navi Mumbai - MPCB",09-01-2024 20:00:00,19.02579,73.10297,PM10,78,217,155
India,Maharashtra,Navi Mumbai,"Sector-2E Kalamboli, Navi Mumbai - MPCB",09-01-2024 20:00:00,19.02579,73.10297,NH3,10,16,12
India,Maharashtra,Navi Mumbai,"Sector-2E Kalamboli, Navi Mumbai - MPCB",09-01-2024 20:00:00,19.02579,73.10297,SO2,14,49,23
India,Maharashtra,Navi Mumbai,"Sector-2E Kalamboli, Navi Mumbai - MPCB",09-01-2024 20:00:00,19.02579,73.10297,OZONE,1,108,68
India,Maharashtra,Navi Mumbai,"Tondare-Taloja, Navi Mumbai - MPCB",09-01-2024 20:00:00,19.0630,73.1209,NH3,3,9,5
India,Maharashtra,Parbhani,"Masoom Colony, Parbhani - MPCB",09-01-2024 20:00:00,19.265594,76.761463,PM2.5,42,108,78
India,Maharashtra,Pimpri-Chinchwad,"Gavalinagar, Pimpri Chinchwad - MPCB",09-01-2024 20:00:00,18.63673,73.82487,PM10,85,206,139
India,Maharashtra,Pimpri-Chinchwad,"Gavalinagar, Pimpri Chinchwad - MPCB",09-01-2024 20:00:00,18.63673,73.82487,CO,28,86,41
India,Maharashtra,Pimpri-Chinchwad,"Thergaon, Pimpri Chinchwad - MPCB",09-01-2024 20:00:00,18.616318,73.765797,PM10,61,146,117
India,Maharashtra,Pimpri-Chinchwad,"Thergaon, Pimpri Chinchwad - MPCB",09-01-2024 20:00:00,18.616318,73.765797,OZONE,1,37,25
India,Maharashtra,Pune,"Alandi, Pune - IITM",09-01-2024 20:00:00,18.675076,73.892743,CO,33,82,41
India,Maharashtra,Pune,"Bhosari, Pune - IITM",09-01-2024 20:00:00,18.640051,73.848956,PM10,55,174,111
India,Maharashtra,Pune,"Katraj Dairy, Pune - MPCB",09-01-2024 20:00:00,18.454450,73.854155,NH3,3,6,4
India,Maharashtra,Pune,"Mhada Colony, Pune - IITM",09-01-2024 20:00:00,18.573040,73.927715,PM10,NA,NA,NA
India,Maharashtra,Sangli,"Vijay Nagar, Sangli - MPCB",09-01-2024 20:00:00, 16.5038,74.3623,NO2,11,47,24
India,Maharashtra,Solapur,"Dnyaneshwar Nagar, Solapur - MPCB",09-01-2024 20:00:00,17.6336264,75.9132495,CO,16,39,20
India,Maharashtra,Solapur,"Dnyaneshwar Nagar, Solapur - MPCB",09-01-2024 20:00:00,17.6336264,75.9132495,OZONE,29,68,57
India,Maharashtra,Thane,"Kasarvadavali, Thane - MPCB",09-01-2024 20:00:00,19.26777,72.97182,PM2.5,79,83,81
India,Maharashtra,Thane,"Kasarvadavali, Thane - MPCB",09-01-2024 20:00:00,19.26777,72.97182,NH3,5,13,9
India,Maharashtra,Thane,"Kasarvadavali, Thane - MPCB",09-01-2024 20:00:00,19.26777,72.97182,CO,36,74,46
India,Maharashtra,Thane,"Kasarvadavali, Thane - MPCB",09-01-2024 20:00:00,19.26777,72.97182,OZONE,1,108,79
India,Maharashtra,Thane,"Upvan Fort, Thane - MPCB",09-01-2024 20:00:00,19.222279,72.957979,NH3,8,15,11
India,Maharashtra,Thane,"Upvan Fort, Thane - MPCB",09-01-2024 20:00:00,19.222279,72.957979,CO,26,76,36
India,Maharashtra,Ulhasnagar,"Sidhi Vinayak Nagar, Ulhasnagar - MPCB",09-01-2024 20:00:00,19.235581,73.159121,CO,8,104,18
India,Maharashtra,Virar,"Bolinj, Virar - MPCB",09-01-2024 20:00:00,19.4458210,72.7988231,PM2.5,58,136,82
India,Maharashtra,Virar,"Bolinj, Virar - MPCB",09-01-2024 20:00:00,19.4458210,72.7988231,SO2,8,38,15
India,Manipur,Imphal,"Manipur University, Imphal - Manipur PCB",09-01-2024 20:00:00,24.7524239,93.9286218,NO2,8,36,15
India,Meghalaya,Shillong,"Lumpyngngad, Shillong - Meghalaya PCB",09-01-2024 20:00:00,25.5586,91.8985,NO2,5,7,6
India,Mizoram,Aizawl,"Sikulpuikawn, Aizawl - Mizoram PCB",09-01-2024 20:00:00,23.7176342,92.7192841,SO2,2,2,2
India,Mizoram,Aizawl,"Sikulpuikawn, Aizawl - Mizoram PCB",09-01-2024 20:00:00,23.7176342,92.7192841,OZONE,1,9,2
India,Nagaland,Kohima,"PWD Juction, Kohima - NPCB",09-01-2024 20:00:00,25.6635413,94.0989878,PM2.5,24,237,74
India,Odisha,Angul,"Hakimapada, Angul - OSPCB",09-01-2024 20:00:00,20.832874,85.104082,PM10,175,457,245
India,Odisha,Angul,"Hakimapada, Angul - OSPCB",09-01-2024 20:00:00,20.832874,85.104082,SO2,12,140,71
India,Odisha,Balasore,"Kalidaspur, Balasore - OSPCB",09-01-2024 20:00:00,21.51161,86.89088,NO2,10,61,22
India,Odisha,Balasore,"Kalidaspur, Balasore - OSPCB",09-01-2024 20:00:00,21.51161,86.89088,NH3,4,9,5
India,Odisha,Bhubaneswar,"Lingraj Mandir, Bhubaneswar - OSPCB",09-01-2024 20:00:00,20.240790,85.836784,NO2,20,67,39
India,Odisha,Bhubaneswar,"Patia, Bhubaneswar - OSPCB",09-01-2024 20:00:00,20.34652,85.81630,PM2.5,233,348,319
India,Odisha,Bhubaneswar,"Patia, Bhubaneswar - OSPCB",09-01-2024 20:00:00,20.34652,85.81630,NH3,3,6,5
India,Odisha,Bhubaneswar,"Patia, Bhubaneswar - OSPCB",09-01-2024 20:00:00,20.34652,85.81630,CO,28,88,43
India,Odisha,Bileipada,"Tata Township, Bileipada - OSPCB",09-01-2024 20:00:00,22.06156703,85.47409613,SO2,NA,NA,NA
India,Odisha,Bileipada,"Tata Township, Bileipada - OSPCB",09-01-2024 20:00:00,22.06156703,85.47409613,CO,NA,NA,NA
India,Odisha,Brajrajnagar,"GM Office, Brajrajnagar - OSPCB",09-01-2024 20:00:00,21.8004996,83.8396977,PM10,99,188,126
India,Odisha,Byasanagar,"Ferro Chrome Colony, Byasanagar - OSPCB",09-01-2024 20:00:00,20.94185,86.11510,SO2,4,24,11
India,Odisha,Byasanagar,"Ferro Chrome Colony, Byasanagar - OSPCB",09-01-2024 20:00:00,20.94185,86.11510,CO,60,123,105
India,Odisha,Cuttack,"CDA Area, Cuttack - OSPCB",09-01-2024 20:00:00,20.48891     ,85.84768     ,SO2,4,56,20
India,Odisha,Keonjhar,"Jagamohanpur, Keonjhar - OSPCB",09-01-2024 20:00:00,21.643900,85.599355,CO,12,69,28
India,Odisha,Keonjhar,"Jagamohanpur, Keonjhar - OSPCB",09-01-2024 20:00:00,21.643900,85.599355,OZONE,2,38,14
India,Odisha,Rourkela,"Fertilizer Township, Rourkela - OSPCB",09-01-2024 20:00:00,22.18972222,84.86277778,PM2.5,34,346,136
India,Odisha,Rourkela,"Raghunathpali, Rourkela - OSPCB",09-01-2024 20:00:00,22.220833,84.809444,NO2,20,134,67
India,Odisha,Rourkela,"Sector-2, Rourkela - OSPCB",09-01-2024 20:00:00,22.24500000,84.88111111,NO2,33,34,33
India,Odisha,Talcher,"Talcher Coalfields,Talcher - OSPCB",09-01-2024 20:00:00,20.9360711,85.1707021,NH3,7,8,7
India,Odisha,Talcher,"Talcher Coalfields,Talcher - OSPCB",09-01-2024 20:00:00,20.9360711,85.1707021,SO2,20,58,30
India,Odisha,Tensa,"Barsua Iron Ore Mines, Tensa - OSPCB",09-01-2024 20:00:00,21.869985,85.167016,CO,24,71,26
India,Puducherry,Puducherry,"Jawahar Nagar, Puducherry - PPCC",09-01-2024 20:00:00,11.9309,79.8027,CO,42,74,55
India,Punjab,Amritsar,"Golden Temple, Amritsar - PPCB",09-01-2024 20:00:00,31.620000,74.876512,PM2.5,97,266,157
India,Punjab,Amritsar,"Golden Temple, Amritsar - PPCB",09-01-2024 20:00:00,31.620000,74.876512,PM10,117,204,149
India,Punjab,Bathinda,"Hardev Nagar, Bathinda - PPCB",09-01-2024 20:00:00,30.233011,74.907758,PM2.5,46,302,97
India,Punjab,Bathinda,"Hardev Nagar, Bathinda - PPCB",09-01-2024 20:00:00,30.233011,74.907758,CO,4,104,34
India,Punjab,Jalandhar,"Civil Line, Jalandhar - PPCB",09-01-2024 20:00:00,31.321907,75.578914,NO2,30,32,31
India,Punjab,Jalandhar,"Civil Line, Jalandhar - PPCB",09-01-2024 20:00:00,31.321907,75.578914,OZONE,17,37,30
India,Punjab,Khanna,"Kalal Majra, Khanna - PPCB",09-01-2024 20:00:00,30.736056 ,76.209694,PM2.5,68,313,167
India,Punjab,Khanna,"Kalal Majra, Khanna - PPCB",09-01-2024 20:00:00,30.736056 ,76.209694,NO2,30,33,32
India,Punjab,Khanna,"Kalal Majra, Khanna - PPCB",09-01-2024 20:00:00,30.736056 ,76.209694,OZONE,16,23,19
India,Punjab,Ludhiana,"Punjab Agricultural University, Ludhiana - PPCB",09-01-2024 20:00:00,30.9028,75.8086,PM10,68,189,127
India,Punjab,Ludhiana,"Punjab Agricultural University, Ludhiana - PPCB",09-01-2024 20:00:00,30.9028,75.8086,SO2,5,16,10
India,Punjab,Ludhiana,"Punjab Agricultural University, Ludhiana - PPCB",09-01-2024 20:00:00,30.9028,75.8086,OZONE,9,33,18
India,Punjab,Mandi Gobindgarh,"RIMT University, Mandi Gobindgarh - PPCB",09-01-2024 20:00:00,30.649961,76.331442,CO,6,107,25
India,Punjab,Patiala,"Model Town, Patiala - PPCB",09-01-2024 20:00:00,30.349388,76.366642,SO2,2,20,10
India,Punjab,Rupnagar,"Ratanpura, Rupnagar - Ambuja Cements",09-01-2024 20:00:00,31.0325454,76.5623046,PM10,62,181,118
India,Rajasthan,Ajmer,"Civil Lines,  Ajmer - RSPCB",09-01-2024 20:00:00,26.470859,74.646594,OZONE,3,38,32
India,Rajasthan,Alwar,"Moti Doongri, Alwar - RSPCB",09-01-2024 20:00:00,27.554793,76.611536,SO2,6,33,18
India,Rajasthan,Banswara,"Rati Talai, Banswara - RSPCB",09-01-2024 20:00:00,23.555190,74.440010,PM10,111,201,154
India,Rajasthan,Barmer,"Railway Colony, Barmer - RSPCB",09-01-2024 20:00:00,25.747299,71.393989,NO2,8,28,14
India,Rajasthan,Barmer,"Railway Colony, Barmer - RSPCB",09-01-2024 20:00:00,25.747299,71.393989,CO,32,79,45
India,Rajasthan,Bhilwara,"Pratap Nagar, Bhilwara - RSPCB",09-01-2024 20:00:00,25.339605,74.618883,PM10,107,166,145
India,Rajasthan,Bhilwara,"Pratap Nagar, Bhilwara - RSPCB",09-01-2024 20:00:00,25.339605,74.618883,NO2,20,44,26
India,Rajasthan,Bhilwara,"Pratap Nagar, Bhilwara - RSPCB",09-01-2024 20:00:00,25.339605,74.618883,NH3,4,7,5
India,Rajasthan,Bikaner,"MM Ground, Bikaner - RSPCB",09-01-2024 20:00:00,28.018792,73.292658,NH3,11,15,12
India,Rajasthan,Bikaner,"MM Ground, Bikaner - RSPCB",09-01-2024 20:00:00,28.018792,73.292658,SO2,3,7,5
India,Rajasthan,Chittorgarh,"Shastri Nagar, Chittorgarh - RSPCB",09-01-2024 20:00:00,24.892047,74.623527,NH3,3,6,5
India,Rajasthan,Chittorgarh,"Shastri Nagar, Chittorgarh - RSPCB",09-01-2024 20:00:00,24.892047,74.623527,OZONE,9,62,46
India,Rajasthan,Churu,"Subash Chowk, Churu - RSPCB",09-01-2024 20:00:00,28.296139,74.961696,PM10,111,185,132
India,Rajasthan,Dausa,"Khatikan Mohalla, Dausa - RSPCB",09-01-2024 20:00:00,26.895552,76.334753,PM2.5,100,311,188
India,Rajasthan,Dungarpur,"Bhoiwada, Dungarpur - RSPCB",09-01-2024 20:00:00,23.837789,73.714926,PM2.5,160,310,244
India,Rajasthan,Jaipur,"Adarsh Nagar, Jaipur - RSPCB",09-01-2024 20:00:00,26.902909,75.836858,PM2.5,87,329,229
India,Rajasthan,Jaipur,"Adarsh Nagar, Jaipur - RSPCB",09-01-2024 20:00:00,26.902909,75.836858,PM10,89,179,124
India,Rajasthan,Jaipur,"Adarsh Nagar, Jaipur - RSPCB",09-01-2024 20:00:00,26.902909,75.836858,CO,38,68,48
India,Rajasthan,Jaipur,"Adarsh Nagar, Jaipur - RSPCB",09-01-2024 20:00:00,26.902909,75.836858,OZONE,11,60,39
India,Rajasthan,Jaipur,"Mansarovar Sector-12, Jaipur - RSPCB",09-01-2024 20:00:00,26.843698,75.766894,OZONE,1,43,23
India,Rajasthan,Jaipur,"Police Commissionerate, Jaipur - RSPCB",09-01-2024 20:00:00,26.9164092,75.7994901,PM2.5,169,329,272
India,Rajasthan,Jaipur,"Police Commissionerate, Jaipur - RSPCB",09-01-2024 20:00:00,26.9164092,75.7994901,OZONE,13,56,41
India,Rajasthan,Jaipur,"RIICO Sitapura, Jaipur - RSPCB",09-01-2024 20:00:00,26.786682,75.827928,PM10,143,401,210
India,Rajasthan,Jaipur,"RIICO Sitapura, Jaipur - RSPCB",09-01-2024 20:00:00,26.786682,75.827928,OZONE,1,53,32
India,Rajasthan,Jaipur,"Sector-2 Murlipura, Jaipur - RSPCB",09-01-2024 20:00:00,26.960669,75.771817,PM10,113,422,258
India,Rajasthan,Jaipur,"Sector-2 Murlipura, Jaipur - RSPCB",09-01-2024 20:00:00,26.960669,75.771817,NH3,8,8,8
India,Rajasthan,Jaipur,"Shastri Nagar, Jaipur - RSPCB",09-01-2024 20:00:00,26.9502929,75.730943,NH3,10,25,16
India,Rajasthan,Jaisalmer,"Sadar Bazar, Jaisalmer - RSPCB",09-01-2024 20:00:00,26.912329,70.909168,NH3,9,13,10
India,Rajasthan,Jaisalmer,"Sadar Bazar, Jaisalmer - RSPCB",09-01-2024 20:00:00,26.912329,70.909168,SO2,3,9,7
India,Rajasthan,Jalore,"Mudtra Sili, Jalore - RSPCB",09-01-2024 20:00:00,25.344694,72.626208,OZONE,8,83,53
India,Rajasthan,Jhalawar,"Rajlaxmi Nagar, Jhalawar - RSPCB",09-01-2024 20:00:00,24.588397,76.172782,PM10,119,188,154
India,Rajasthan,Jhalawar,"Rajlaxmi Nagar, Jhalawar - RSPCB",09-01-2024 20:00:00,24.588397,76.172782,OZONE,21,37,33
India,Rajasthan,Jhunjhunu,"Indra Nagar, Jhunjhunu - RSPCB",09-01-2024 20:00:00,28.108988,75.386577,SO2,2,4,3
India,Rajasthan,Jodhpur,"Digari Kalan, Jodhpur - RSPCB",09-01-2024 20:00:00,26.295810,73.082283,PM10,54,125,92
India,Rajasthan,Jodhpur,"Digari Kalan, Jodhpur - RSPCB",09-01-2024 20:00:00,26.295810,73.082283,SO2,1,4,1
India,Rajasthan,Jodhpur,"Digari Kalan, Jodhpur - RSPCB",09-01-2024 20:00:00,26.295810,73.082283,CO,31,62,48
India,Rajasthan,Jodhpur,"Digari Kalan, Jodhpur - RSPCB",09-01-2024 20:00:00,26.295810,73.082283,OZONE,32,92,76
India,Rajasthan,Jodhpur,"Jhalamand, Jodhpur - RSPCB",09-01-2024 20:00:00,26.215415,73.070156,PM2.5,73,207,130
India,Rajasthan,Jodhpur,"Jhalamand, Jodhpur - RSPCB",09-01-2024 20:00:00,26.215415,73.070156,NH3,5,8,6
India,Rajasthan,Jodhpur,"Jhalamand, Jodhpur - RSPCB",09-01-2024 20:00:00,26.215415,73.070156,CO,18,38,27
India,Rajasthan,Jodhpur,"Samrat Ashok Udhyan, Jodhpur - RSPCB",09-01-2024 20:00:00,26.253384,72.976571,PM10,72,142,118
India,Rajasthan,Jodhpur,"Samrat Ashok Udhyan, Jodhpur - RSPCB",09-01-2024 20:00:00,26.253384,72.976571,SO2,4,9,5
India,Rajasthan,Karauli,"Satyawati Vihar, Karauli - RSPCB",09-01-2024 20:00:00,26.506177,77.025989,PM2.5,231,379,344
India,Rajasthan,Karauli,"Satyawati Vihar, Karauli - RSPCB",09-01-2024 20:00:00,26.506177,77.025989,NH3,8,9,8
India,Rajasthan,Karauli,"Satyawati Vihar, Karauli - RSPCB",09-01-2024 20:00:00,26.506177,77.025989,OZONE,7,23,17
India,Rajasthan,Kota,"Dhanmandi, Kota - RSPCB",09-01-2024 20:00:00,25.164090,75.858137,PM10,150,292,192
India,Rajasthan,Kota,"Dhanmandi, Kota - RSPCB",09-01-2024 20:00:00,25.164090,75.858137,SO2,3,22,6
India,Rajasthan,Kota,"Nayapura, Kota - RSPCB",09-01-2024 20:00:00,25.196024,75.855668,NO2,37,71,52
India,Rajasthan,Kota,"Nayapura, Kota - RSPCB",09-01-2024 20:00:00,25.196024,75.855668,OZONE,2,34,21
India,Rajasthan,Kota,"Shrinath Puram, Kota - RSPCB",09-01-2024 20:00:00,25.14389,75.821256,PM10,108,156,123
India,Rajasthan,Pali,"Indira Colony Vistar, Pali - RSPCB",09-01-2024 20:00:00,25.771061, 73.340227,PM2.5,140,310,236
India,Rajasthan,Pali,"Indira Colony Vistar, Pali - RSPCB",09-01-2024 20:00:00,25.771061, 73.340227,NH3,6,17,13
India,Rajasthan,Pratapgarh,"Pragati Nagar, Pratapgarh - RSPCB",09-01-2024 20:00:00,24.041198,74.780702,PM2.5,67,303,171
India,Rajasthan,Pratapgarh,"Pragati Nagar, Pratapgarh - RSPCB",09-01-2024 20:00:00,24.041198,74.780702,NO2,16,31,21
India,Rajasthan,Pratapgarh,"Pragati Nagar, Pratapgarh - RSPCB",09-01-2024 20:00:00,24.041198,74.780702,CO,34,50,41
India,Rajasthan,Rajsamand,"Dhoinda, Rajsamand - RSPCB",09-01-2024 20:00:00,25.036360,73.883502,NH3,2,6,4
India,Rajasthan,Rajsamand,"Dhoinda, Rajsamand - RSPCB",09-01-2024 20:00:00,25.036360,73.883502,CO,20,64,31
India,Rajasthan,Rajsamand,"Dhoinda, Rajsamand - RSPCB",09-01-2024 20:00:00,25.036360,73.883502,OZONE,4,56,45
India,Rajasthan,Sawai Madhopur,"Sahu Nagar, Sawai Madhopur - RSPCB",09-01-2024 20:00:00,26.031443,76.359327,NH3,3,3,3
India,Rajasthan,Sawai Madhopur,"Sahu Nagar, Sawai Madhopur - RSPCB",09-01-2024 20:00:00,26.031443,76.359327,CO,9,66,27
India,Rajasthan,Sikar,"Radhakishan Pura, Sikar - RSPCB",09-01-2024 20:00:00,27.608912,75.153302,PM2.5,83,339,195
India,Rajasthan,Sri Ganganagar,"Old City, Sri Ganganagar - RSPCB",09-01-2024 20:00:00,29.931624,73.864511,NH3,4,14,8
India,Rajasthan,Tonk,"Shastri Nagar, Tonk - RSPCB",09-01-2024 20:00:00,26.159933,75.780517,NH3,5,12,7
India,Rajasthan,Tonk,"Shastri Nagar, Tonk - RSPCB",09-01-2024 20:00:00,26.159933,75.780517,SO2,3,10,5
India,Rajasthan,Udaipur,"Ashok Nagar, Udaipur - RSPCB",09-01-2024 20:00:00,24.5886166,73.6321397,PM2.5,56,278,136
India,Rajasthan,Udaipur,"Ashok Nagar, Udaipur - RSPCB",09-01-2024 20:00:00,24.5886166,73.6321397,NO2,27,90,45
India,Rajasthan,Udaipur,"Ashok Nagar, Udaipur - RSPCB",09-01-2024 20:00:00,24.5886166,73.6321397,CO,42,101,82
India,Sikkim,Gangtok,"Zero Point GICI, Gangtok - SSPCB",09-01-2024 20:00:00,27.338530,88.614099,SO2,50,57,52
India,TamilNadu,Ariyalur,"Keelapalur, Ariyalur - TNPCB",09-01-2024 20:00:00,11.06825,79.07033,SO2,2,3,3
India,TamilNadu,Chengalpattu,"Crescent University, Chengalpattu - TNPCB",09-01-2024 20:00:00,12.8777316,80.0834807,CO,26,32,27
India,TamilNadu,Chennai,"Arumbakkam, Chennai - TNPCB",09-01-2024 20:00:00,13.0664,80.2112 ,PM10,60,103,82
India,TamilNadu,Chennai,"Arumbakkam, Chennai - TNPCB",09-01-2024 20:00:00,13.0664,80.2112 ,NO2,11,30,19
India,TamilNadu,Chennai,"Gandhi Nagar_Ennore, Chennai - TNPCB",09-01-2024 20:00:00,13.218341,80.32027,OZONE,2,4,3
India,TamilNadu,Chennai,"Kodungaiyur, Chennai - TNPCB",09-01-2024 20:00:00,13.1278,80.2642,NO2,8,16,11
India,TamilNadu,Chennai,"Kodungaiyur, Chennai - TNPCB",09-01-2024 20:00:00,13.1278,80.2642,CO,30,40,36
India,TamilNadu,Chennai,"Kodungaiyur, Chennai - TNPCB",09-01-2024 20:00:00,13.1278,80.2642,OZONE,5,6,6
India,TamilNadu,Chennai,"Manali, Chennai - CPCB",09-01-2024 20:00:00,13.164544,80.26285,PM10,52,133,110
India,TamilNadu,Chennai,"Perungudi, Chennai - TNPCB",09-01-2024 20:00:00,12.9533,80.2357,PM10,63,92,80
India,TamilNadu,Chennai,"Royapuram, Chennai - TNPCB",09-01-2024 20:00:00,13.1036,80.2909,PM10,47,97,61
India,TamilNadu,Gummidipoondi,"Anthoni Pillai Nagar, Gummidipoondi - TNPCB",09-01-2024 20:00:00,13.4127,80.1081,SO2,1,32,8
India,TamilNadu,Kanchipuram,"Kilambi, Kanchipuram - TNPCB",09-01-2024 20:00:00,12.864618,79.659968,CO,1,111,60
India,TamilNadu,Ooty,"Bombay Castel, Ooty - TNPCB",09-01-2024 20:00:00,11.4068288,76.7138973,NO2,NA,NA,NA
India,TamilNadu,Ooty,"Bombay Castel, Ooty - TNPCB",09-01-2024 20:00:00,11.4068288,76.7138973,CO,18,20,18
India,TamilNadu,Palkalaiperur,"Bharathidasan University, Palkalaiperur - TNPCB",09-01-2024 20:00:00,10.681158,78.741746,SO2,26,28,27
India,TamilNadu,Palkalaiperur,"Bharathidasan University, Palkalaiperur - TNPCB",09-01-2024 20:00:00,10.681158,78.741746,OZONE,1,1,1
India,TamilNadu,Ramanathapuram,"Chalai Bazaar, Ramanathapuram - TNPCB",09-01-2024 20:00:00,9.36399,78.831977,PM2.5,3,46,21
India,TamilNadu,Salem,"Sona College of Technology, Salem - TNPCB",09-01-2024 20:00:00,11.679111,78.125052,PM2.5,7,80,33
India,TamilNadu,Salem,"Sona College of Technology, Salem - TNPCB",09-01-2024 20:00:00,11.679111,78.125052,NO2,8,13,10
India,TamilNadu,Thoothukudi,"Meelavittan, Thoothukudi - TNPCB",09-01-2024 20:00:00,8.816428 ,78.099039,PM10,4,96,22
India,TamilNadu,Thoothukudi,"Meelavittan, Thoothukudi - TNPCB",09-01-2024 20:00:00,8.816428 ,78.099039,SO2,5,17,11
India,TamilNadu,Tiruchirappalli,"St Joseph College, Tiruchirappalli - TNPCB",09-01-2024 20:00:00,10.830158,78.691849,NO2,5,5,5
India,TamilNadu,Tiruchirappalli,"St Joseph College, Tiruchirappalli - TNPCB",09-01-2024 20:00:00,10.830158,78.691849,NH3,3,3,3
India,TamilNadu,Tiruchirappalli,"St Joseph College, Tiruchirappalli - TNPCB",09-01-2024 20:00:00,10.830158,78.691849,SO2,3,17,4
India,TamilNadu,Tirupur,"Kumaran College, Tirupur - TNPCB",09-01-2024 20:00:00,11.0973603,77.3228673,NO2,12,31,18
India,TamilNadu,Tirupur,"Kumaran College, Tirupur - TNPCB",09-01-2024 20:00:00,11.0973603,77.3228673,CO,20,84,46
India,TamilNadu,Vellore,"Vasanthapuram, Vellore - TNPCB",09-01-2024 20:00:00,12.909494,79.131861,NO2,3,12,8
India,TamilNadu,Vellore,"Vasanthapuram, Vellore - TNPCB",09-01-2024 20:00:00,12.909494,79.131861,NH3,1,1,1
India,TamilNadu,Virudhunagar,"Collectorate Office, Virudhunagar - TNPCB",09-01-2024 20:00:00,9.559382,77.948828,CO,20,26,23
India,Telangana,Hyderabad,"Bollaram Industrial Area, Hyderabad - TSPCB",09-01-2024 20:00:00,17.540891,78.358528,PM10,101,131,113
India,Telangana,Hyderabad,"Central University, Hyderabad - TSPCB",09-01-2024 20:00:00,17.460103,78.334361,SO2,6,10,8
India,Telangana,Hyderabad,"ICRISAT Patancheru, Hyderabad - TSPCB",09-01-2024 20:00:00,17.518400,78.278777,CO,52,95,64
India,Telangana,Hyderabad,"Kokapet, Hyderabad - TSPCB",09-01-2024 20:00:00,17.393559,78.339194,NO2,NA,NA,NA
India,Telangana,Hyderabad,"Kokapet, Hyderabad - TSPCB",09-01-2024 20:00:00,17.393559,78.339194,SO2,NA,NA,NA
India,Telangana,Hyderabad,"Kompally Municipal Office, Hyderabad - TSPCB",09-01-2024 20:00:00,17.544899,78.486949,OZONE,19,56,51
India,Telangana,Hyderabad,"Nacharam_TSIIC IALA, Hyderabad - TSPCB",09-01-2024 20:00:00,17.429398,78.569354,PM10,NA,NA,NA
India,Telangana,Hyderabad,"Nacharam_TSIIC IALA, Hyderabad - TSPCB",09-01-2024 20:00:00,17.429398,78.569354,OZONE,24,33,28
India,Telangana,Hyderabad,"New Malakpet, Hyderabad - TSPCB",09-01-2024 20:00:00,17.37206,78.50864,PM10,54,67,59
India,Telangana,Hyderabad,"Ramachandrapuram, Hyderabad - TSPCB",09-01-2024 20:00:00,17.528544,78.286195,PM10,78,82,80
India,Telangana,Hyderabad,"Ramachandrapuram, Hyderabad - TSPCB",09-01-2024 20:00:00,17.528544,78.286195,SO2,8,13,12
India,Telangana,Hyderabad,"Sanathnagar, Hyderabad - TSPCB",09-01-2024 20:00:00,17.4559458,78.4332152,PM2.5,100,223,153
India,Telangana,Hyderabad,"Sanathnagar, Hyderabad - TSPCB",09-01-2024 20:00:00,17.4559458,78.4332152,CO,43,52,50
India,Telangana,Hyderabad,"Somajiguda, Hyderabad - TSPCB",09-01-2024 20:00:00,17.417094,78.457437,NH3,NA,NA,NA
India,Telangana,Hyderabad,"Somajiguda, Hyderabad - TSPCB",09-01-2024 20:00:00,17.417094,78.457437,SO2,NA,NA,NA
India,Telangana,Hyderabad,"Somajiguda, Hyderabad - TSPCB",09-01-2024 20:00:00,17.417094,78.457437,CO,14,23,17
India,Telangana,Hyderabad,"Zoo Park, Hyderabad - TSPCB",09-01-2024 20:00:00,17.349694,78.451437,NO2,35,52,44
India,Telangana,Hyderabad,"Zoo Park, Hyderabad - TSPCB",09-01-2024 20:00:00,17.349694,78.451437,CO,39,76,55
India,Tripura,Agartala,"Bardowali, Agartala - Tripura SPCB",09-01-2024 20:00:00,23.8175497,91.2726974,CO,46,107,70
India,Tripura,Agartala,"Bardowali, Agartala - Tripura SPCB",09-01-2024 20:00:00,23.8175497,91.2726974,OZONE,1,2,1
India,Uttar_Pradesh,Agra,"Rohta, Agra - UPPCB",09-01-2024 20:00:00,27.106972,78.000111,OZONE,22,23,22
India,Uttar_Pradesh,Agra,"Sanjay Palace, Agra - UPPCB",09-01-2024 20:00:00,27.19865833,78.00598056,PM2.5,41,146,79
India,Uttar_Pradesh,Agra,"Sanjay Palace, Agra - UPPCB",09-01-2024 20:00:00,27.19865833,78.00598056,PM10,63,178,107
India,Uttar_Pradesh,Agra,"Shahjahan Garden, Agra - UPPCB",09-01-2024 20:00:00,27.169338,78.03582,PM10,NA,NA,NA
India,Uttar_Pradesh,Agra,"Shahjahan Garden, Agra - UPPCB",09-01-2024 20:00:00,27.169338,78.03582,NH3,5,6,6
India,Uttar_Pradesh,Baghpat,"Sardar Patel Inter College, Baghpat - UPPCB",09-01-2024 20:00:00,28.964949,77.278761,SO2,8,46,16
India,Uttar_Pradesh,Bareilly,"Civil Lines, Bareilly - UPPCB",09-01-2024 20:00:00,28.359581,79.414455,PM10,24,88,43
India,Uttar_Pradesh,Bareilly,"Civil Lines, Bareilly - UPPCB",09-01-2024 20:00:00,28.359581,79.414455,SO2,36,41,38
India,Uttar_Pradesh,Bareilly,"Civil Lines, Bareilly - UPPCB",09-01-2024 20:00:00,28.359581,79.414455,CO,17,44,31
India,Uttar_Pradesh,Bareilly,"Civil Lines, Bareilly - UPPCB",09-01-2024 20:00:00,28.359581,79.414455,OZONE,1,13,8
India,Uttar_Pradesh,Firozabad,"Vibhab Nagar, Firozabad - UPPCB",09-01-2024 20:00:00,27.1594,78.3953,NO2,6,41,19
India,Uttar_Pradesh,Ghaziabad,"Indirapuram, Ghaziabad - UPPCB",09-01-2024 20:00:00,28.646233,77.358075,NH3,9,14,12
India,Uttar_Pradesh,Ghaziabad,"Indirapuram, Ghaziabad - UPPCB",09-01-2024 20:00:00,28.646233,77.358075,OZONE,5,34,12
India,Uttar_Pradesh,Ghaziabad,"Loni, Ghaziabad - UPPCB",09-01-2024 20:00:00,28.757294,77.278792,PM10,94,400,158
India,Uttar_Pradesh,Ghaziabad,"Loni, Ghaziabad - UPPCB",09-01-2024 20:00:00,28.757294,77.278792,NH3,1,4,2
India,Uttar_Pradesh,Ghaziabad,"Loni, Ghaziabad - UPPCB",09-01-2024 20:00:00,28.757294,77.278792,SO2,3,21,8
India,Uttar_Pradesh,Ghaziabad,"Loni, Ghaziabad - UPPCB",09-01-2024 20:00:00,28.757294,77.278792,OZONE,1,29,18
India,Uttar_Pradesh,Ghaziabad,"Sanjay Nagar, Ghaziabad - UPPCB",09-01-2024 20:00:00,28.685382,77.453839,PM2.5,165,455,283
India,Uttar_Pradesh,Ghaziabad,"Sanjay Nagar, Ghaziabad - UPPCB",09-01-2024 20:00:00,28.685382,77.453839,SO2,NA,NA,NA
India,Uttar_Pradesh,Ghaziabad,"Vasundhara, Ghaziabad - UPPCB",09-01-2024 20:00:00,28.6603346,77.3572563,NH3,11,23,16
India,Uttar_Pradesh,Greater Noida,"Knowledge Park - III, Greater Noida - UPPCB",09-01-2024 20:00:00,28.47272,77.482000,PM10,138,314,223
India,Uttar_Pradesh,Greater Noida,"Knowledge Park - III, Greater Noida - UPPCB",09-01-2024 20:00:00,28.47272,77.482000,SO2,9,25,16
India,Uttar_Pradesh,Greater Noida,"Knowledge Park - III, Greater Noida - UPPCB",09-01-2024 20:00:00,28.47272,77.482000,OZONE,1,43,22
India,Uttar_Pradesh,Greater Noida,"Knowledge Park - V, Greater Noida - UPPCB",09-01-2024 20:00:00,28.557054,77.453663,OZONE,3,25,16
India,Uttar_Pradesh,Hapur,"Anand Vihar, Hapur - UPPCB",09-01-2024 20:00:00,28.725645,77.749675,NO2,64,126,99
India,Uttar_Pradesh,Hapur,"Anand Vihar, Hapur - UPPCB",09-01-2024 20:00:00,28.725645,77.749675,SO2,8,97,29
India,Uttar_Pradesh,Hapur,"Anand Vihar, Hapur - UPPCB",09-01-2024 20:00:00,28.725645,77.749675,OZONE,4,10,6
India,Uttar_Pradesh,Jhansi,"Shivaji Nagar, Jhansi - UPPCB",09-01-2024 20:00:00,25.4547,78.6039,PM10,98,135,117
India,Uttar_Pradesh,Jhansi,"Shivaji Nagar, Jhansi - UPPCB",09-01-2024 20:00:00,25.4547,78.6039,OZONE,1,18,9
India,Uttar_Pradesh,Kanpur,"FTI Kidwai Nagar, Kanpur - UPPCB",09-01-2024 20:00:00,26.428282,80.327067,OZONE,2,4,3
India,Uttar_Pradesh,Kanpur,"NSI Kalyanpur, Kanpur - UPPCB",09-01-2024 20:00:00,26.509954,80.249612,OZONE,26,52,47
India,Uttar_Pradesh,Kanpur,"Nehru Nagar, Kanpur - UPPCB",09-01-2024 20:00:00,26.4703136,80.3229863,PM2.5,43,233,112
India,Uttar_Pradesh,Kanpur,"Nehru Nagar, Kanpur - UPPCB",09-01-2024 20:00:00,26.4703136,80.3229863,PM10,38,133,86
India,Uttar_Pradesh,Kanpur,"Nehru Nagar, Kanpur - UPPCB",09-01-2024 20:00:00,26.4703136,80.3229863,SO2,1,34,12
India,Uttar_Pradesh,Lucknow,"Gomti Nagar, Lucknow - UPPCB",09-01-2024 20:00:00,26.868120,81.005119,PM2.5,25,88,60
India,Uttar_Pradesh,Lucknow,"Kendriya Vidyalaya, Lucknow - CPCB",09-01-2024 20:00:00,26.906111,80.948222,NO2,1,8,5
India,Uttar_Pradesh,Lucknow,"Kendriya Vidyalaya, Lucknow - CPCB",09-01-2024 20:00:00,26.906111,80.948222,NH3,3,20,14
India,Uttar_Pradesh,Lucknow,"Kukrail Picnic Spot-1, Lucknow - UPPCB",09-01-2024 20:00:00,26.90723,80.98579,PM2.5,33,183,104
India,Uttar_Pradesh,Lucknow,"Kukrail Picnic Spot-1, Lucknow - UPPCB",09-01-2024 20:00:00,26.90723,80.98579,NH3,2,2,2
India,Uttar_Pradesh,Lucknow,"Kukrail Picnic Spot-1, Lucknow - UPPCB",09-01-2024 20:00:00,26.90723,80.98579,SO2,26,27,26
India,Uttar_Pradesh,Lucknow,"Talkatora District Industries Center, Lucknow - CPCB",09-01-2024 20:00:00,26.83399722,80.8917361,NH3,12,32,18
India,Uttar_Pradesh,Lucknow,"Talkatora District Industries Center, Lucknow - CPCB",09-01-2024 20:00:00,26.83399722,80.8917361,CO,4,56,29
India,Uttar_Pradesh,Meerut,"Ganga Nagar, Meerut - UPPCB",09-01-2024 20:00:00,28.999264,77.7590354,SO2,8,37,16
India,Uttar_Pradesh,Meerut,"Ganga Nagar, Meerut - UPPCB",09-01-2024 20:00:00,28.999264,77.7590354,OZONE,2,5,4
India,Uttar_Pradesh,Meerut,"Pallavpuram Phase 2, Meerut - UPPCB",09-01-2024 20:00:00,29.063510,77.709723,NH3,3,4,3
India,Uttar_Pradesh,Moradabad,"Eco Herbal Park, Moradabad - UPPCB",09-01-2024 20:00:00,28.840739,78.697531,SO2,2,15,9
India,Uttar_Pradesh,Moradabad,"Employment Office, Moradabad - UPPCB",09-01-2024 20:00:00,28.88528,78.73880,NO2,25,26,26
India,Uttar_Pradesh,Moradabad,"Jigar Colony, Moradabad - UPPCB",09-01-2024 20:00:00,28.856664,78.772638,PM2.5,35,138,58
India,Uttar_Pradesh,Moradabad,"Jigar Colony, Moradabad - UPPCB",09-01-2024 20:00:00,28.856664,78.772638,PM10,56,150,81
India,Uttar_Pradesh,Moradabad,"Transport Nagar, Moradabad - UPPCB",09-01-2024 20:00:00,28.802625,78.753728,SO2,40,42,41
India,Uttar_Pradesh,Noida,"Sector - 125, Noida - UPPCB",09-01-2024 20:00:00,28.5447608,77.3231257,PM2.5,NA,NA,NA
India,Uttar_Pradesh,Noida,"Sector - 125, Noida - UPPCB",09-01-2024 20:00:00,28.5447608,77.3231257,CO,32,106,36
India,Uttar_Pradesh,Noida,"Sector - 62, Noida - IMD",09-01-2024 20:00:00,28.6245479,77.3577104,PM10,142,500,311
India,Uttar_Pradesh,Noida,"Sector - 62, Noida - IMD",09-01-2024 20:00:00,28.6245479,77.3577104,CO,82,108,85
India,Uttar_Pradesh,Noida,"Sector-1, Noida - UPPCB",09-01-2024 20:00:00,28.5898,77.3101,NO2,39,111,64
India,Uttar_Pradesh,Noida,"Sector-1, Noida - UPPCB",09-01-2024 20:00:00,28.5898,77.3101,SO2,6,23,12
India,Uttar_Pradesh,Noida,"Sector-116, Noida - UPPCB",09-01-2024 20:00:00,28.569230,77.393848,PM2.5,218,429,329
India,Uttar_Pradesh,Noida,"Sector-116, Noida - UPPCB",09-01-2024 20:00:00,28.569230,77.393848,CO,14,106,54
India,Uttar_Pradesh,Prayagraj,"Jhunsi, Prayagraj - UPPCB",09-01-2024 20:00:00,25.425602,81.917152,PM10,83,189,129
India,Uttar_Pradesh,Prayagraj,"Jhunsi, Prayagraj - UPPCB",09-01-2024 20:00:00,25.425602,81.917152,OZONE,1,11,7
India,Uttar_Pradesh,Prayagraj,"Motilal Nehru NIT, Prayagraj - UPPCB",09-01-2024 20:00:00,25.494,81.863,NO2,12,12,12
India,Uttar_Pradesh,Prayagraj,"Motilal Nehru NIT, Prayagraj - UPPCB",09-01-2024 20:00:00,25.494,81.863,OZONE,6,20,15
India,Uttar_Pradesh,Prayagraj,"Nagar Nigam, Prayagraj - UPPCB",09-01-2024 20:00:00,25.44919916 ,81.82735986 ,NH3,4,13,8
India,Uttar_Pradesh,Varanasi,"Bhelupur, Varanasi - UPPCB",09-01-2024 20:00:00,25.301778,82.996789,PM10,34,89,62
India,Uttar_Pradesh,Varanasi,"IESD Banaras Hindu University, Varanasi - UPPCB",09-01-2024 20:00:00,25.262326,82.995408,PM2.5,16,26,22
India,Uttar_Pradesh,Varanasi,"IESD Banaras Hindu University, Varanasi - UPPCB",09-01-2024 20:00:00,25.262326,82.995408,NO2,2,3,2
India,Uttar_Pradesh,Varanasi,"Maldahiya, Varanasi - UPPCB",09-01-2024 20:00:00,25.32393,82.99687,PM10,42,75,59
India,Uttar_Pradesh,Varanasi,"Maldahiya, Varanasi - UPPCB",09-01-2024 20:00:00,25.32393,82.99687,NH3,1,1,1
India,Uttar_Pradesh,Vrindavan,"Omex Eternity, Vrindavan - UPPCB",09-01-2024 20:00:00,27.5714090,77.6557570,PM2.5,35,140,62
India,Uttarakhand,Dehradun,"Doon University, Dehradun - UKPCB",09-01-2024 20:00:00,30.269444,78.044167,OZONE,1,12,7
India,Uttarakhand,Kashipur,"Govt. Girls Inter College, Kashipur - UKPCB",09-01-2024 20:00:00,29.2124114,78.9611753,NH3,8,10,9
India,Uttarakhand,Kashipur,"Govt. Girls Inter College, Kashipur - UKPCB",09-01-2024 20:00:00,29.2124114,78.9611753,OZONE,1,7,5
India,West_Bengal,Asansol,"Asansol Court Area, Asansol - WBPCB",09-01-2024 20:00:00,23.685297,86.945968,PM10,115,168,149
India,West_Bengal,Durgapur,"Sidhu Kanhu Indoor Stadium, Durgapur - WBPCB",09-01-2024 20:00:00,23.5404352,87.2892225,PM10,89,148,121
India,West_Bengal,Durgapur,"Sidhu Kanhu Indoor Stadium, Durgapur - WBPCB",09-01-2024 20:00:00,23.5404352,87.2892225,NH3,3,8,4
India,West_Bengal,Durgapur,"Sidhu Kanhu Indoor Stadium, Durgapur - WBPCB",09-01-2024 20:00:00,23.5404352,87.2892225,CO,37,61,42
India,West_Bengal,Haldia,"Priyambada Housing Estate, Haldia - WBPCB",09-01-2024 20:00:00,22.06047,88.109737,NH3,4,6,4
India,West_Bengal,Howrah,"Belur Math, Howrah - WBPCB",09-01-2024 20:00:00,22.629801,88.352017,SO2,7,16,11
India,West_Bengal,Howrah,"Ghusuri, Howrah - WBPCB",09-01-2024 20:00:00,22.611968,88.347422,PM2.5,255,348,311
India,West_Bengal,Howrah,"Ghusuri, Howrah - WBPCB",09-01-2024 20:00:00,22.611968,88.347422,NH3,7,13,9
India,West_Bengal,Howrah,"Padmapukur, Howrah - WBPCB",09-01-2024 20:00:00,22.5687319,88.2797276,NO2,24,60,42
India,West_Bengal,Kolkata,"Ballygunge, Kolkata - WBPCB",09-01-2024 20:00:00,22.5367507,88.3638022,PM10,129,207,158
India,West_Bengal,Kolkata,"Ballygunge, Kolkata - WBPCB",09-01-2024 20:00:00,22.5367507,88.3638022,NO2,38,154,69
India,West_Bengal,Kolkata,"Bidhannagar, Kolkata - WBPCB",09-01-2024 20:00:00,22.58157048,88.41002457,OZONE,2,88,31
India,West_Bengal,Kolkata,"Fort William, Kolkata - WBPCB",09-01-2024 20:00:00,22.556640,88.342674,PM2.5,242,315,285
India,West_Bengal,Kolkata,"Fort William, Kolkata - WBPCB",09-01-2024 20:00:00,22.556640,88.342674,CO,22,70,28
India,West_Bengal,Kolkata,"Jadavpur, Kolkata - WBPCB",09-01-2024 20:00:00,22.49929,88.36917,NH3,4,8,7
India,West_Bengal,Kolkata,"Jadavpur, Kolkata - WBPCB",09-01-2024 20:00:00,22.49929,88.36917,OZONE,11,56,26
India,West_Bengal,Kolkata,"Rabindra Sarobar, Kolkata - WBPCB",09-01-2024 20:00:00,22.51106,88.35142,CO,16,88,25
India,West_Bengal,Kolkata,"Victoria, Kolkata - WBPCB",09-01-2024 20:00:00,22.5448082,88.3403691,NO2,1,17,7
India,West_Bengal,Siliguri,"Ward-32 Bapupara, Siliguri - WBPCB",09-01-2024 20:00:00,26.6879226,88.4152495,NO2,28,77,48
India,West_Bengal,Siliguri,"Ward-32 Bapupara, Siliguri - WBPCB",09-01-2024 20:00:00,26.6879226,88.4152495,NH3,8,32,18
India,Andhra_Pradesh,Amaravati,"Secretariat, Amaravati - APPCB",09-01-2024 20:00:00,16.5150833,80.5181667,SO2,8,27,16
India,Andhra_Pradesh,Anantapur,"Gulzarpet, Anantapur - APPCB",09-01-2024 20:00:00,14.675886,77.593027,PM2.5,45,62,54
India,Andhra_Pradesh,Anantapur,"Gulzarpet, Anantapur - APPCB",09-01-2024 20:00:00,14.675886,77.593027,NO2,NA,NA,NA
India,Andhra_Pradesh,Anantapur,"Gulzarpet, Anantapur - APPCB",09-01-2024 20:00:00,14.675886,77.593027,NH3,NA,NA,NA
India,Andhra_Pradesh,Anantapur,"Gulzarpet, Anantapur - APPCB",09-01-2024 20:00:00,14.675886,77.593027,CO,26,38,32
India,Andhra_Pradesh,Rajamahendravaram,"Anand Kala Kshetram, Rajamahendravaram - APPCB",09-01-2024 20:00:00,16.9872867,81.7363176,PM2.5,203,306,285
India,Andhra_Pradesh,Tirupati,"Tirumala, Tirupati - APPCB",09-01-2024 20:00:00,13.67,79.35,PM2.5,17,93,63
India,Andhra_Pradesh,Tirupati,"Tirumala, Tirupati - APPCB",09-01-2024 20:00:00,13.67,79.35,CO,38,54,43
India,Andhra_Pradesh,Tirupati,"Vaikuntapuram, Tirupati - APPCB",09-01-2024 20:00:00,13.615387,79.409230,PM10,13,49,16
India,Andhra_Pradesh,Vijayawada,"HB Colony, Vijayawada - APPCB",09-01-2024 20:00:00,16.536107,80.594233,NH3,4,4,4
India,Andhra_Pradesh,Vijayawada,"HB Colony, Vijayawada - APPCB",09-01-2024 20:00:00,16.536107,80.594233,CO,19,22,21
India,Andhra_Pradesh,Vijayawada,"HB Colony, Vijayawada - APPCB",09-01-2024 20:00:00,16.536107,80.594233,OZONE,34,79,66
India,Andhra_Pradesh,Vijayawada,"Kanuru, Vijayawada - APPCB",09-01-2024 20:00:00,16.486692,80.699436,PM10,NA,NA,NA
India,Andhra_Pradesh,Vijayawada,"Kanuru, Vijayawada - APPCB",09-01-2024 20:00:00,16.486692,80.699436,NO2,NA,NA,NA
India,Andhra_Pradesh,Vijayawada,"Kanuru, Vijayawada - APPCB",09-01-2024 20:00:00,16.486692,80.699436,CO,43,44,44
India,Andhra_Pradesh,Vijayawada,"Rajiv Gandhi Park, Vijayawada - APPCB",09-01-2024 20:00:00,16.509717,80.612222,CO,36,42,38
India,Arunachal_Pradesh,Naharlagun,"Naharlagun, Naharlagun - APSPCB",09-01-2024 20:00:00,27.103358,93.679645,PM10,36,132,87
India,Arunachal_Pradesh,Naharlagun,"Naharlagun, Naharlagun - APSPCB",09-01-2024 20:00:00,27.103358,93.679645,SO2,3,3,3
India,Arunachal_Pradesh,Naharlagun,"Naharlagun, Naharlagun - APSPCB",09-01-2024 20:00:00,27.103358,93.679645,OZONE,2,2,2
India,Assam,Guwahati,"IITG, Guwahati - PCBA",09-01-2024 20:00:00,26.2028636,91.70046436,NO2,6,19,10
India,Assam,Guwahati,"LGBI Airport, Guwahati - PCBA",09-01-2024 20:00:00,26.10887,91.589544,OZONE,2,83,57
India,Assam,Guwahati,"Pan Bazaar, Guwahati - PCBA",09-01-2024 20:00:00,26.187500,91.744194,PM2.5,246,352,310
India,Assam,Guwahati,"Pan Bazaar, Guwahati - PCBA",09-01-2024 20:00:00,26.187500,91.744194,SO2,59,100,70
India,Assam,Guwahati,"Railway Colony, Guwahati - PCBA",09-01-2024 20:00:00,26.181742,91.78063,CO,49,125,64
India,Assam,Nagaon,"Christianpatty, Nagaon - PCBA",09-01-2024 20:00:00,26.349082,92.68449,NH3,3,6,4
India,Assam,Nalbari,"Bata Chowk, Nalbari - PCBA",09-01-2024 20:00:00,26.446912,91.439057,NO2,45,71,53
India,Assam,Nalbari,"Bata Chowk, Nalbari - PCBA",09-01-2024 20:00:00,26.446912,91.439057,SO2,4,15,10
India,Assam,Nalbari,"Bata Chowk, Nalbari - PCBA",09-01-2024 20:00:00,26.446912,91.439057,OZONE,18,20,19
India,Assam,Silchar,"Tarapur, Silchar - PCBA",09-01-2024 20:00:00,24.82827,92.79525,NH3,1,1,1
India,Assam,Sivasagar,"Girls College, Sivasagar - PCBA",09-01-2024 20:00:00,26.987634,94.636574,OZONE,1,31,12
India,Bihar,Araria,"Kharahiya Basti, Araria - BSPCB",09-01-2024 20:00:00,26.146529,87.454184,PM10,100,413,187
India,Bihar,Araria,"Kharahiya Basti, Araria - BSPCB",09-01-2024 20:00:00,26.146529,87.454184,CO,14,119,55
India,Bihar,Arrah,"New DM Office, Arrah - BSPCB",09-01-2024 20:00:00,25.5626095,84.663264,OZONE,12,35,17
India,Bihar,Bettiah,"Kamalnath Nagar, Bettiah - BSPCB",09-01-2024 20:00:00,26.80365,84.51954,SO2,12,21,19
India,Bihar,Bettiah,"Kamalnath Nagar, Bettiah - BSPCB",09-01-2024 20:00:00,26.80365,84.51954,CO,24,108,88
India,Bihar,Bhagalpur,"DM Office_Kachari Chowk, Bhagalpur - BSPCB",09-01-2024 20:00:00,25.251013,86.989001,CO,36,59,50
India,Bihar,Bhagalpur,"Mayaganj, Bhagalpur - BSPCB",09-01-2024 20:00:00,25.265194,87.012947,CO,8,10,9
India,Bihar,Chhapra,"Darshan Nagar, Chhapra - BSPCB",09-01-2024 20:00:00,25.7808257,84.7446768,CO,16,34,25
India,Bihar,Gaya,"Kareemganj, Gaya - BSPCB",09-01-2024 20:00:00,24.792403,84.992416,PM10,99,321,162
India,Bihar,Gaya,"Kareemganj, Gaya - BSPCB",09-01-2024 20:00:00,24.792403,84.992416,NH3,1,6,3
India,Bihar,Hajipur,"Industrial Area, Hajipur - BSPCB",09-01-2024 20:00:00,25.697189,85.245900,CO,46,99,61
India,Bihar,Katihar,"Mirchaibari, Katihar - BSPCB",09-01-2024 20:00:00,25.560083,87.553265,NO2,22,38,28
India,Bihar,Kishanganj,"SDM Office_Khagra, Kishanganj - BSPCB",09-01-2024 20:00:00,26.0881305,87.93840336,CO,2,18,7
India,Bihar,Kishanganj,"SDM Office_Khagra, Kishanganj - BSPCB",09-01-2024 20:00:00,26.0881305,87.93840336,OZONE,20,44,38
India,Bihar,Manguraha,"Forest Rest House, Manguraha - BSPCB",09-01-2024 20:00:00,27.308328,84.531742,PM2.5,32,305,61
India,Bihar,Manguraha,"Forest Rest House, Manguraha - BSPCB",09-01-2024 20:00:00,27.308328,84.531742,NH3,2,3,2
India,Bihar,Munger,"Town Hall, Munger - BSPCB",09-01-2024 20:00:00,25.376776,86.471523,CO,6,32,14
India,Bihar,Muzaffarpur,"Buddha Colony, Muzaffarpur - BSPCB",09-01-2024 20:00:00,26.11442,85.39813,SO2,6,7,7
India,Bihar,Muzaffarpur,"Muzaffarpur Collectorate, Muzaffarpur - BSPCB",09-01-2024 20:00:00,26.1209,85.3647,PM2.5,97,300,205
India,Bihar,Muzaffarpur,"Muzaffarpur Collectorate, Muzaffarpur - BSPCB",09-01-2024 20:00:00,26.1209,85.3647,CO,28,89,52
India,Bihar,Patna,"DRM Office Danapur, Patna - BSPCB",09-01-2024 20:00:00,25.586562,85.043586,NH3,4,5,4
India,Bihar,Patna,"Govt. High School Shikarpur, Patna - BSPCB",09-01-2024 20:00:00,25.592539,85.227158,SO2,1,7,4
India,Bihar,Patna,"Govt. High School Shikarpur, Patna - BSPCB",09-01-2024 20:00:00,25.592539,85.227158,OZONE,4,46,29
India,Bihar,Patna,"Samanpura, Patna - BSPCB",09-01-2024 20:00:00,25.596727,85.085624,PM2.5,182,500,325
India,Bihar,Patna,"Samanpura, Patna - BSPCB",09-01-2024 20:00:00,25.596727,85.085624,PM10,184,498,312
India,Bihar,Patna,"Samanpura, Patna - BSPCB",09-01-2024 20:00:00,25.596727,85.085624,NO2,16,23,18
India,Bihar,Purnia,"Mariam Nagar, Purnia - BSPCB",09-01-2024 20:00:00,25.366336,87.117468,NH3,2,2,2
India,Bihar,Rajgir,"Dangi Tola, Rajgir - BSPCB",09-01-2024 20:00:00,25.03280,85.41948,CO,11,30,13
India,Bihar,Saharsa,"Police Line, Saharsa - BSPCB",09-01-2024 20:00:00,25.892357,86.590325,NH3,9,9,9
India,Bihar,Saharsa,"Police Line, Saharsa - BSPCB",09-01-2024 20:00:00,25.892357,86.590325,CO,1,30,3
India,Bihar,Saharsa,"Police Line, Saharsa - BSPCB",09-01-2024 20:00:00,25.892357,86.590325,OZONE,2,7,5
India,Bihar,Samastipur,"DM Office_Kasipur, Samastipur - BSPCB",09-01-2024 20:00:00,25.859655,85.77944,NH3,4,4,4
India,Bihar,Samastipur,"DM Office_Kasipur, Samastipur - BSPCB",09-01-2024 20:00:00,25.859655,85.77944,CO,20,35,31
India,Bihar,Sasaram,"Dada Peer, Sasaram - BSPCB",09-01-2024 20:00:00,24.952822,84.002396,NO2,3,14,8
India,Chhattisgarh,Bhilai,"32Bungalows, Bhilai - CECB",09-01-2024 20:00:00,21.194815,81.314770,OZONE,4,9,6
India,Chhattisgarh,Bhilai,"Civic Center, Bhilai - Bhilai Steel Plant",09-01-2024 20:00:00,21.185571,81.343175,NH3,NA,NA,NA
India,Chhattisgarh,Bhilai,"Civic Center, Bhilai - Bhilai Steel Plant",09-01-2024 20:00:00,21.185571,81.343175,OZONE,8,49,33
India,Chhattisgarh,Chhal,"Nawapara SECL Colony, Chhal - CECB",09-01-2024 20:00:00,22.118125,83.140608,NO2,13,71,29
India,Chhattisgarh,Chhal,"Nawapara SECL Colony, Chhal - CECB",09-01-2024 20:00:00,22.118125,83.140608,SO2,10,71,25
India,Chhattisgarh,Korba,"Rampur, Korba - CECB",09-01-2024 20:00:00,22.368195,82.746431,PM10,67,153,98
India,Chhattisgarh,Korba,"Urja Nagar, Korba - CECB",09-01-2024 20:00:00,22.348441,82.549611,PM2.5,27,64,41
India,Chhattisgarh,Korba,"Urja Nagar, Korba - CECB",09-01-2024 20:00:00,22.348441,82.549611,NH3,4,8,5
India,Chhattisgarh,Korba,"Urja Nagar, Korba - CECB",09-01-2024 20:00:00,22.348441,82.549611,OZONE,47,70,51
India,Chhattisgarh,Kunjemura,"OP Jindal School, Kunjemura - CECB",09-01-2024 20:00:00,22.126650,83.483212,PM2.5,59,96,77
India,Chhattisgarh,Kunjemura,"OP Jindal School, Kunjemura - CECB",09-01-2024 20:00:00,22.126650,83.483212,PM10,65,296,122
India,Chhattisgarh,Kunjemura,"OP Jindal School, Kunjemura - CECB",09-01-2024 20:00:00,22.126650,83.483212,NO2,31,103,60
India,Chhattisgarh,Kunjemura,"OP Jindal School, Kunjemura - CECB",09-01-2024 20:00:00,22.126650,83.483212,CO,45,100,62
India,Chhattisgarh,Milupara,"Govt. Higher Secondary School, Milupara - CECB",09-01-2024 20:00:00,22.1910172,83.5197009,NO2,14,83,32
India,Chhattisgarh,Milupara,"Govt. Higher Secondary School, Milupara - CECB",09-01-2024 20:00:00,22.1910172,83.5197009,NH3,1,2,2
India,Chhattisgarh,Milupara,"Govt. Higher Secondary School, Milupara - CECB",09-01-2024 20:00:00,22.1910172,83.5197009,CO,39,86,61
India,Chhattisgarh,Raipur,"Krishak Nagar, Raipur - CECB",09-01-2024 20:00:00,21.237755,81.705301,PM10,67,140,107
India,Chhattisgarh,Raipur,"Krishak Nagar, Raipur - CECB",09-01-2024 20:00:00,21.237755,81.705301,NO2,25,41,34
India,Chhattisgarh,Raipur,"Krishak Nagar, Raipur - CECB",09-01-2024 20:00:00,21.237755,81.705301,SO2,7,12,10
India,Chhattisgarh,Raipur,"Siltara Phase-II, Raipur - CECB",09-01-2024 20:00:00,21.371751,81.664929,PM10,NA,NA,NA
India,Chhattisgarh,Raipur,"Siltara Phase-II, Raipur - CECB",09-01-2024 20:00:00,21.371751,81.664929,OZONE,3,14,7
India,Chhattisgarh,Tumidih,"OP Jindal Industrial Park, Tumidih - CECB",09-01-2024 20:00:00,22.06631475,83.33820077,OZONE,5,68,51
India,Delhi,Delhi,"Alipur, Delhi - DPCC",09-01-2024 20:00:00,28.815329,77.153010,PM2.5,128,358,233
India,Delhi,Delhi,"Alipur, Delhi - DPCC",09-01-2024 20:00:00,28.815329,77.153010,PM10,83,311,151
India,Delhi,Delhi,"Burari Crossing, Delhi - IMD",09-01-2024 20:00:00,28.7256504,77.2011573,CO,86,104,103
India,Delhi,Delhi,"DTU, Delhi - CPCB",09-01-2024 20:00:00,28.7500499,77.1112615,PM2.5,54,309,112
India,Delhi,Delhi,"DTU, Delhi - CPCB",09-01-2024 20:00:00,28.7500499,77.1112615,SO2,27,29,28
India,Delhi,Delhi,"Dr. Karni Singh Shooting Range, Delhi - DPCC",09-01-2024 20:00:00,28.498571,77.264840,NH3,6,35,11
India,Delhi,Delhi,"Dr. Karni Singh Shooting Range, Delhi - DPCC",09-01-2024 20:00:00,28.498571,77.264840,SO2,4,13,8
India,Delhi,Delhi,"Dr. Karni Singh Shooting Range, Delhi - DPCC",09-01-2024 20:00:00,28.498571,77.264840,CO,56,109,69
India,Delhi,Delhi,"Dwarka-Sector 8, Delhi - DPCC ",09-01-2024 20:00:00,28.5710274,77.0719006,PM10,142,425,250
India,Delhi,Delhi,"IGI Airport (T3), Delhi - IMD",09-01-2024 20:00:00,28.5627763,77.1180053,PM10,113,402,212
India,Delhi,Delhi,"IHBAS, Dilshad Garden, Delhi - CPCB",09-01-2024 20:00:00,28.6811736,77.3025234,PM10,116,367,193
India,Delhi,Delhi,"IHBAS, Dilshad Garden, Delhi - CPCB",09-01-2024 20:00:00,28.6811736,77.3025234,CO,14,104,41
India,Delhi,Delhi,"Jahangirpuri, Delhi - DPCC",09-01-2024 20:00:00,28.732820,77.170633,NO2,29,53,37
India,Delhi,Delhi,"Jahangirpuri, Delhi - DPCC",09-01-2024 20:00:00,28.732820,77.170633,NH3,7,10,8
India,Delhi,Delhi,"Jahangirpuri, Delhi - DPCC",09-01-2024 20:00:00,28.732820,77.170633,CO,34,102,54
India,Delhi,Delhi,"Jawaharlal Nehru Stadium, Delhi - DPCC",09-01-2024 20:00:00,28.580280,77.233829,PM2.5,230,427,323
India,Delhi,Delhi,"Jawaharlal Nehru Stadium, Delhi - DPCC",09-01-2024 20:00:00,28.580280,77.233829,CO,44,116,53
India,Delhi,Delhi,"Lodhi Road, Delhi - IMD",09-01-2024 20:00:00,28.5918245,77.2273074,NO2,14,17,14
India,Delhi,Delhi,"Major Dhyan Chand National Stadium, Delhi - DPCC",09-01-2024 20:00:00,28.611281,77.237738,CO,53,120,60
India,Delhi,Delhi,"Major Dhyan Chand National Stadium, Delhi - DPCC",09-01-2024 20:00:00,28.611281,77.237738,OZONE,5,16,12
India,Delhi,Delhi,"Mandir Marg, Delhi - DPCC",09-01-2024 20:00:00,28.636429,77.201067,NO2,55,112,69
India,Delhi,Delhi,"Mandir Marg, Delhi - DPCC",09-01-2024 20:00:00,28.636429,77.201067,NH3,15,22,20
India,Delhi,Delhi,"Mundka, Delhi - DPCC",09-01-2024 20:00:00,28.684678,77.076574,PM10,125,414,228
India,Delhi,Delhi,"NSIT Dwarka, Delhi - CPCB",09-01-2024 20:00:00,28.60909,77.0325413,NH3,7,8,8
India,Delhi,Delhi,"Najafgarh, Delhi - DPCC",09-01-2024 20:00:00,28.570173,76.933762,PM2.5,147,345,254
India,Delhi,Delhi,"Najafgarh, Delhi - DPCC",09-01-2024 20:00:00,28.570173,76.933762,PM10,89,382,194
India,Delhi,Delhi,"Narela, Delhi - DPCC",09-01-2024 20:00:00,28.822836,77.101981,PM2.5,162,353,258
India,Delhi,Delhi,"Narela, Delhi - DPCC",09-01-2024 20:00:00,28.822836,77.101981,NO2,19,48,29
India,Delhi,Delhi,"Narela, Delhi - DPCC",09-01-2024 20:00:00,28.822836,77.101981,CO,64,103,81
India,Delhi,Delhi,"Narela, Delhi - DPCC",09-01-2024 20:00:00,28.822836,77.101981,OZONE,6,54,39
India,Delhi,Delhi,"New Moti Bagh, Delhi - MHUA",09-01-2024 20:00:00,28.57834,77.18400,CO,38,109,45
India,Delhi,Delhi,"Patparganj, Delhi - DPCC",09-01-2024 20:00:00,28.623763,77.287209,NO2,38,74,54
India,Delhi,Delhi,"Patparganj, Delhi - DPCC",09-01-2024 20:00:00,28.623763,77.287209,SO2,9,14,11
India,Delhi,Delhi,"Patparganj, Delhi - DPCC",09-01-2024 20:00:00,28.623763,77.287209,OZONE,7,36,11
India,Delhi,Delhi,"Punjabi Bagh, Delhi - DPCC",09-01-2024 20:00:00,28.674045,77.131023,NO2,77,91,82
India,Delhi,Delhi,"Punjabi Bagh, Delhi - DPCC",09-01-2024 20:00:00,28.674045,77.131023,CO,40,88,43
India,Delhi,Delhi,"Pusa, Delhi - DPCC",09-01-2024 20:00:00,28.639652,77.146275,NO2,37,66,52
India,Delhi,Delhi,"Pusa, Delhi - DPCC",09-01-2024 20:00:00,28.639652,77.146275,NH3,2,12,3
India,Delhi,Delhi,"R K Puram, Delhi - DPCC",09-01-2024 20:00:00,28.563262,77.186937,NH3,2,9,5
India,Delhi,Delhi,"Rohini, Delhi - DPCC",09-01-2024 20:00:00,28.732528,77.119920,OZONE,2,36,26
India,Delhi,Delhi,"Shadipur, Delhi - CPCB",09-01-2024 20:00:00,28.6514781,77.1473105,PM10,145,487,250
India,Delhi,Delhi,"Shadipur, Delhi - CPCB",09-01-2024 20:00:00,28.6514781,77.1473105,SO2,14,42,25
India,Delhi,Delhi,"Sirifort, Delhi - CPCB",09-01-2024 20:00:00,28.5504249,77.2159377,PM2.5,280,500,354
India,Delhi,Delhi,"Sirifort, Delhi - CPCB",09-01-2024 20:00:00,28.5504249,77.2159377,CO,28,102,30
India,Delhi,Delhi,"Sonia Vihar, Delhi - DPCC",09-01-2024 20:00:00,28.710508,77.249485,PM2.5,NA,NA,NA
India,Delhi,Delhi,"Sonia Vihar, Delhi - DPCC",09-01-2024 20:00:00,28.710508,77.249485,CO,59,110,67
India,Delhi,Delhi,"Sri Aurobindo Marg, Delhi - DPCC",09-01-2024 20:00:00,28.531346,77.190156,NH3,9,12,10
India,Delhi,Delhi,"Sri Aurobindo Marg, Delhi - DPCC",09-01-2024 20:00:00,28.531346,77.190156,SO2,9,12,11
India,Delhi,Delhi,"Vivek Vihar, Delhi - DPCC",09-01-2024 20:00:00,28.672342,77.315260,NO2,45,84,61
India,Gujarat,Ahmedabad,"Chandkheda, Ahmedabad - IITM",09-01-2024 20:00:00,23.107969,72.574648,CO,4,76,16
India,Gujarat,Ahmedabad,"Gyaspur, Ahmedabad - IITM",09-01-2024 20:00:00,22.977134,72.553024,PM2.5,87,302,151
India,Gujarat,Ahmedabad,"Gyaspur, Ahmedabad - IITM",09-01-2024 20:00:00,22.977134,72.553024,CO,22,41,28
India,Gujarat,Ahmedabad,"Raikhad, Ahmedabad - IITM",09-01-2024 20:00:00,23.020509,72.579261,PM10,87,90,89
India,Gujarat,Ahmedabad,"Raikhad, Ahmedabad - IITM",09-01-2024 20:00:00,23.020509,72.579261,NO2,17,18,17
India,Gujarat,Ahmedabad,"Rakhial, Ahmedabad - IITM",09-01-2024 20:00:00,23.016834,72.625775,NO2,7,22,12
India,Gujarat,Ahmedabad,"SAC ISRO Satellite, Ahmedabad - IITM",09-01-2024 20:00:00,23.023389,72.515201,PM2.5,75,98,86
India,Gujarat,Ahmedabad,"SAC ISRO Satellite, Ahmedabad - IITM",09-01-2024 20:00:00,23.023389,72.515201,PM10,76,108,89
India,Gujarat,Ahmedabad,"SVPI Airport Hansol, Ahmedabad - IITM",09-01-2024 20:00:00,23.076793,72.627874,NO2,10,10,10
India,Gujarat,Ahmedabad,"SVPI Airport Hansol, Ahmedabad - IITM",09-01-2024 20:00:00,23.076793,72.627874,OZONE,4,19,15
India,Gujarat,Ahmedabad,"Sardar Vallabhbhai Patel Stadium, Ahmedabad - IITM",09-01-2024 20:00:00,23.043070,72.562968,PM2.5,60,243,141
India,Gujarat,Ankleshwar,"GIDC, Ankleshwar - GPCB",09-01-2024 20:00:00,21.613267,73.010555,NH3,6,6,6
India,Gujarat,Ankleshwar,"GIDC, Ankleshwar - GPCB",09-01-2024 20:00:00,21.613267,73.010555,OZONE,20,27,26
India,Gujarat,Gandhinagar,"GIFT City, Gandhinagar - IITM",09-01-2024 20:00:00,23.163798,72.677768,PM10,84,156,108
India,Gujarat,Gandhinagar,"GIFT City, Gandhinagar - IITM",09-01-2024 20:00:00,23.163798,72.677768,NH3,2,2,2
India,Gujarat,Gandhinagar,"IIPHG Lekawada, Gandhinagar - IITM",09-01-2024 20:00:00,23.243639,72.68994,PM10,57,81,69
India,Gujarat,Gandhinagar,"IIPHG Lekawada, Gandhinagar - IITM",09-01-2024 20:00:00,23.243639,72.68994,NH3,3,5,3
India,Gujarat,Gandhinagar,"IIPHG Lekawada, Gandhinagar - IITM",09-01-2024 20:00:00,23.243639,72.68994,SO2,4,7,6
India,Gujarat,Gandhinagar,"IIPHG Lekawada, Gandhinagar - IITM",09-01-2024 20:00:00,23.243639,72.68994,OZONE,14,18,17
India,Gujarat,Surat,"Science Center, Surat - SMC",09-01-2024 20:00:00,21.170046,72.795405,PM10,51,90,65
India,Gujarat,Vapi,"Phase-1 GIDC, Vapi - GPCB",09-01-2024 20:00:00,20.362421,72.918013,NH3,6,6,6
India,Gujarat,Vapi,"Phase-1 GIDC, Vapi - GPCB",09-01-2024 20:00:00,20.362421,72.918013,OZONE,1,4,2
India,Haryana,Bahadurgarh,"Arya Nagar, Bahadurgarh - HSPCB",09-01-2024 20:00:00,28.6701,76.9254,PM10,96,246,144
India,Haryana,Bahadurgarh,"Arya Nagar, Bahadurgarh - HSPCB",09-01-2024 20:00:00,28.6701,76.9254,SO2,13,16,14
India,Haryana,Bahadurgarh,"Arya Nagar, Bahadurgarh - HSPCB",09-01-2024 20:00:00,28.6701,76.9254,CO,38,56,50
India,Haryana,Ballabgarh,"Nathu Colony, Ballabgarh - HSPCB",09-01-2024 20:00:00,28.3419248,77.319699,PM10,152,368,228
India,Haryana,Charkhi Dadri,"Mini Secretariat, Charkhi Dadri - HSPCB",09-01-2024 20:00:00,28.593883,76.270653,NH3,4,6,5
India,Haryana,Charkhi Dadri,"Mini Secretariat, Charkhi Dadri - HSPCB",09-01-2024 20:00:00,28.593883,76.270653,SO2,9,19,14
India,Haryana,Charkhi Dadri,"Mini Secretariat, Charkhi Dadri - HSPCB",09-01-2024 20:00:00,28.593883,76.270653,CO,36,56,43
India,Haryana,Charkhi Dadri,"Mini Secretariat, Charkhi Dadri - HSPCB",09-01-2024 20:00:00,28.593883,76.270653,OZONE,13,17,15
India,Haryana,Faridabad,"New Industrial Town, Faridabad - HSPCB",09-01-2024 20:00:00,28.39072,77.30059,CO,34,65,39
India,Haryana,Faridabad,"Sector 11, Faridabad - HSPCB",09-01-2024 20:00:00,28.376058,77.315741,NO2,30,33,31
India,Haryana,Faridabad,"Sector 30, Faridabad - HSPCB",09-01-2024 20:00:00,28.4417,77.3217,CO,50,109,63
India,Haryana,Faridabad,"Sector- 16A, Faridabad - HSPCB",09-01-2024 20:00:00,28.4088421,77.3099081,OZONE,14,14,14
India,Haryana,Fatehabad,"Huda Sector, Fatehabad - HSPCB",09-01-2024 20:00:00,29.503664,75.467934,SO2,6,13,9
India,Haryana,Gurugram,"Sector-51, Gurugram - HSPCB",09-01-2024 20:00:00,28.4227,77.0667,PM10,95,286,164
India,Haryana,Gurugram,"Sector-51, Gurugram - HSPCB",09-01-2024 20:00:00,28.4227,77.0667,NH3,7,14,9
India,Haryana,Gurugram,"Sector-51, Gurugram - HSPCB",09-01-2024 20:00:00,28.4227,77.0667,CO,62,112,69
India,Haryana,Gurugram,"Teri Gram, Gurugram - HSPCB",09-01-2024 20:00:00,28.4275,77.1465,NO2,32,45,40
India,Haryana,Gurugram,"Vikas Sadan, Gurugram - HSPCB",09-01-2024 20:00:00,28.4501238,77.0263051,PM2.5,45,312,144
India,Haryana,Gurugram,"Vikas Sadan, Gurugram - HSPCB",09-01-2024 20:00:00,28.4501238,77.0263051,CO,52,138,95
India,Haryana,Hisar,"Urban Estate-II, Hisar - HSPCB",09-01-2024 20:00:00,29.140560,75.744941,PM2.5,78,157,104
India,Haryana,Hisar,"Urban Estate-II, Hisar - HSPCB",09-01-2024 20:00:00,29.140560,75.744941,NO2,6,9,8
India,Haryana,Kaithal,"Rishi Nagar, Kaithal - HSPCB",09-01-2024 20:00:00,29.8006,76.4155,OZONE,7,10,9
India,Haryana,Karnal,"Sector-12, Karnal - HSPCB",09-01-2024 20:00:00,29.695300,77.002700,OZONE,32,32,32
India,Haryana,Kurukshetra,"Sector-7, Kurukshetra - HSPCB",09-01-2024 20:00:00,29.966942,76.875879,SO2,1,58,20
India,Haryana,Mandikhera,"General Hospital, Mandikhera - HSPCB",09-01-2024 20:00:00,27.9002,76.9938,NO2,14,21,19
India,Haryana,Mandikhera,"General Hospital, Mandikhera - HSPCB",09-01-2024 20:00:00,27.9002,76.9938,SO2,31,37,34
India,Haryana,Manesar,"Sector-2 IMT, Manesar - HSPCB",09-01-2024 20:00:00,28.360699,76.936090,PM2.5,50,332,172
India,Haryana,Palwal,"Shyam Nagar, Palwal - HSPCB",09-01-2024 20:00:00,28.1485564,77.3320667,OZONE,1,17,4
India,Haryana,Panchkula,"Sector-6, Panchkula - HSPCB ",09-01-2024 20:00:00,30.7057778,76.8531805555555,NO2,28,31,29
India,Haryana,Panchkula,"Sector-6, Panchkula - HSPCB ",09-01-2024 20:00:00,30.7057778,76.8531805555555,OZONE,45,59,54
India,Haryana,Panipat,"Sector-18, Panipat - HSPCB",09-01-2024 20:00:00,29.497973,76.993331,OZONE,30,50,32
India,Haryana,Sirsa,"F-Block, Sirsa - HSPCB",09-01-2024 20:00:00,29.536400,75.015800,NO2,10,10,10
India,Haryana,Sonipat,"Murthal, Sonipat - HSPCB",09-01-2024 20:00:00,29.027200,77.062100,CO,21,32,24
India,Haryana,Sonipat,"Murthal, Sonipat - HSPCB",09-01-2024 20:00:00,29.027200,77.062100,OZONE,16,36,35
India,Haryana,Yamuna Nagar,"Gobind Pura, Yamuna Nagar - HSPCB",09-01-2024 20:00:00,30.1480566,77.2893471,PM10,25,165,107
India,Haryana,Yamuna Nagar,"Gobind Pura, Yamuna Nagar - HSPCB",09-01-2024 20:00:00,30.1480566,77.2893471,NO2,11,29,18
India,Haryana,Yamuna Nagar,"Gobind Pura, Yamuna Nagar - HSPCB",09-01-2024 20:00:00,30.1480566,77.2893471,OZONE,7,10,9
India,Jharkhand,Dhanbad,"Kalakusuma, Dhanbad - DMC",09-01-2024 20:00:00,23.811548,86.481238,NO2,32,34,33
India,Jharkhand,Dhanbad,"Sardar Patel Nagar, Dhanbad - JSPCB",09-01-2024 20:00:00,23.80569,86.44268,PM2.5,NA,NA,NA
India,Jharkhand,Dhanbad,"Sardar Patel Nagar, Dhanbad - JSPCB",09-01-2024 20:00:00,23.80569,86.44268,NO2,NA,NA,NA
India,Karnataka,Belgaum,"Ramteerth Nagar, Belgaum - KSPCB",09-01-2024 20:00:00,15.888653,74.541751,PM10,22,97,56
India,Karnataka,Belgaum,"Ramteerth Nagar, Belgaum - KSPCB",09-01-2024 20:00:00,15.888653,74.541751,NH3,33,33,33
India,Karnataka,Belgaum,"Ramteerth Nagar, Belgaum - KSPCB",09-01-2024 20:00:00,15.888653,74.541751,OZONE,19,20,20
India,Karnataka,Bengaluru,"BTM Layout, Bengaluru - CPCB",09-01-2024 20:00:00,12.9135218,77.5950804,CO,18,32,21
India,Karnataka,Bengaluru,"Bapuji Nagar, Bengaluru - KSPCB",09-01-2024 20:00:00,12.951913,77.539784,OZONE,11,12,11
India,Karnataka,Bengaluru,"Hebbal, Bengaluru - KSPCB",09-01-2024 20:00:00,13.029152,77.585901,PM10,30,83,55
India,Karnataka,Bengaluru,"Hebbal, Bengaluru - KSPCB",09-01-2024 20:00:00,13.029152,77.585901,SO2,7,14,11
India,Karnataka,Bengaluru,"Hombegowda Nagar, Bengaluru - KSPCB",09-01-2024 20:00:00,12.938539,77.590100,PM2.5,8,42,30
India,Karnataka,Bengaluru,"Hombegowda Nagar, Bengaluru - KSPCB",09-01-2024 20:00:00,12.938539,77.590100,CO,12,20,17
India,Karnataka,Bengaluru,"Jayanagar 5th Block, Bengaluru - KSPCB",09-01-2024 20:00:00,12.920984,77.584908,NO2,10,14,12
India,Karnataka,Bengaluru,"Jigani, Bengaluru - KSPCB",09-01-2024 20:00:00,12.7816279,77.6299145,PM10,56,100,74
India,Karnataka,Bengaluru,"Jigani, Bengaluru - KSPCB",09-01-2024 20:00:00,12.7816279,77.6299145,NH3,2,4,2
India,Karnataka,Bengaluru,"Jigani, Bengaluru - KSPCB",09-01-2024 20:00:00,12.7816279,77.6299145,CO,39,67,58
India,Karnataka,Bengaluru,"Kasturi Nagar, Bengaluru - KSPCB",09-01-2024 20:00:00,13.003872,77.664217,PM10,31,117,77
India,Karnataka,Bengaluru,"Kasturi Nagar, Bengaluru - KSPCB",09-01-2024 20:00:00,13.003872,77.664217,SO2,8,8,8
India,Karnataka,Bengaluru,"Peenya, Bengaluru - CPCB",09-01-2024 20:00:00,13.0270199,77.494094,PM10,36,90,61
India,Karnataka,Bengaluru,"Peenya, Bengaluru - CPCB",09-01-2024 20:00:00,13.0270199,77.494094,CO,36,63,41
India,Karnataka,Bengaluru,"Peenya, Bengaluru - CPCB",09-01-2024 20:00:00,13.0270199,77.494094,OZONE,17,42,36
India,Karnataka,Bengaluru,"RVCE-Mailasandra, Bengaluru - KSPCB",09-01-2024 20:00:00,12.921418,77.502466,NO2,31,31,31
India,Karnataka,Bengaluru,"RVCE-Mailasandra, Bengaluru - KSPCB",09-01-2024 20:00:00,12.921418,77.502466,NH3,4,4,4
India,Karnataka,Bengaluru,"Shivapura_Peenya, Bengaluru - KSPCB",09-01-2024 20:00:00,13.0246342,77.5080115,NH3,4,4,4
India,Karnataka,Bengaluru,"Silk Board, Bengaluru - KSPCB",09-01-2024 20:00:00,12.917348,77.622813,OZONE,3,18,8
India,Karnataka,Bidar,"Naubad, Bidar - KSPCB",09-01-2024 20:00:00,17.930306,77.482194,PM2.5,79,186,118
India,Karnataka,Bidar,"Naubad, Bidar - KSPCB",09-01-2024 20:00:00,17.930306,77.482194,NH3,3,3,3
India,Karnataka,Chamarajanagar,"Urban, Chamarajanagar - KSPCB",09-01-2024 20:00:00,11.55358,76.55521,CO,18,120,33
