country,state,city,station,last_update,latitude,longitude,pollutant_id,pollutant_min,pollutant_max,pollutant_avg
India,Andhra_Pradesh,Amaravati,"Secretariat, Amaravati - APPCB",23-01-2024 06:00:00,16.5150833,80.5181667,PM2.5,27,49,38
India,Andhra_Pradesh,Amaravati,"Secretariat, Amaravati - APPCB",23-01-2024 06:00:00,16.5150833,80.5181667,CO,7,30,24
India,Andhra_Pradesh,Anantapur,"Gulzarpet, Anantapur - APPCB",23-01-2024 06:00:00,14.675886,77.593027,PM2.5,35,61,48
India,Andhra_Pradesh,Anantapur,"Gulzarpet, Anantapur - APPCB",23-01-2024 06:00:00,14.675886,77.593027,PM10,47,128,69
India,Andhra_Pradesh,Chittoor,"Gangineni Cheruvu, Chittoor - APPCB",23-01-2024 06:00:00,13.204880,79.097889,NH3,NA,NA,NA
India,Andhra_Pradesh,Kadapa,"Yerramukkapalli, Kadapa - APPCB",23-01-2024 06:00:00,14.465052,78.824187,NO2,9,10,9
India,Andhra_Pradesh,Kadapa,"Yerramukkapalli, Kadapa - APPCB",23-01-2024 06:00:00,14.465052,78.824187,OZONE,19,59,36
India,Andhra_Pradesh,Rajamahendravaram,"Anand Kala Kshetram, Rajamahendravaram - APPCB",23-01-2024 06:00:00,16.9872867,81.7363176,NH3,3,12,6
India,Andhra_Pradesh,Tirupati,"Tirumala, Tirupati - APPCB",23-01-2024 06:00:00,13.67,79.35,PM10,47,93,63
India,Andhra_Pradesh,Tirupati,"Tirumala, Tirupati - APPCB",23-01-2024 06:00:00,13.67,79.35,CO,34,54,39
India,Andhra_Pradesh,Visakhapatnam,"GVM Corporation, Visakhapatnam - APPCB",23-01-2024 06:00:00,17.72,83.3,NH3,2,6,4
India,Andhra_Pradesh,Visakhapatnam,"GVM Corporation, Visakhapatnam - APPCB",23-01-2024 06:00:00,17.72,83.3,SO2,10,16,13
India,Arunachal_Pradesh,Naharlagun,"Naharlagun, Naharlagun - APSPCB",23-01-2024 06:00:00,27.103358,93.679645,SO2,3,3,3
India,Assam,Byrnihat,"Central Academy for SFS, Byrnihat - PCBA",23-01-2024 06:00:00,26.071318,91.87488,OZONE,5,8,6
India,Assam,Guwahati,"LGBI Airport, Guwahati - PCBA",23-01-2024 06:00:00,26.10887,91.589544,PM2.5,150,420,321
India,Assam,Guwahati,"LGBI Airport, Guwahati - PCBA",23-01-2024 06:00:00,26.10887,91.589544,CO,66,83,74
India,Assam,Guwahati,"LGBI Airport, Guwahati - PCBA",23-01-2024 06:00:00,26.10887,91.589544,OZONE,1,58,2
India,Assam,Guwahati,"Pan Bazaar, Guwahati - PCBA",23-01-2024 06:00:00,26.187500,91.744194,PM2.5,302,432,346
India,Assam,Guwahati,"Pan Bazaar, Guwahati - PCBA",23-01-2024 06:00:00,26.187500,91.744194,CO,53,109,97
India,Assam,Nagaon,"Christianpatty, Nagaon - PCBA",23-01-2024 06:00:00,26.349082,92.68449,SO2,8,11,10
India,Assam,Nagaon,"Christianpatty, Nagaon - PCBA",23-01-2024 06:00:00,26.349082,92.68449,CO,11,14,12
India,Assam,Nalbari,"Bata Chowk, Nalbari - PCBA",23-01-2024 06:00:00,26.446912,91.439057,PM10,86,410,196
India,Assam,Nalbari,"Bata Chowk, Nalbari - PCBA",23-01-2024 06:00:00,26.446912,91.439057,NO2,9,38,24
India,Assam,Silchar,"Tarapur, Silchar - PCBA",23-01-2024 06:00:00,24.82827,92.79525,PM10,54,65,58
India,Assam,Sivasagar,"Girls College, Sivasagar - PCBA",23-01-2024 06:00:00,26.987634,94.636574,NO2,16,27,21
India,Assam,Sivasagar,"Girls College, Sivasagar - PCBA",23-01-2024 06:00:00,26.987634,94.636574,CO,4,51,39
India,Bihar,Arrah,"New DM Office, Arrah - BSPCB",23-01-2024 06:00:00,25.5626095,84.663264,SO2,6,21,17
India,Bihar,Bettiah,"Kamalnath Nagar, Bettiah - BSPCB",23-01-2024 06:00:00,26.80365,84.51954,PM2.5,22,113,46
India,Bihar,Bettiah,"Kamalnath Nagar, Bettiah - BSPCB",23-01-2024 06:00:00,26.80365,84.51954,PM10,26,119,55
India,Bihar,Bhagalpur,"DM Office_Kachari Chowk, Bhagalpur - BSPCB",23-01-2024 06:00:00,25.251013,86.989001,SO2,18,29,25
India,Bihar,Bhagalpur,"Mayaganj, Bhagalpur - BSPCB",23-01-2024 06:00:00,25.265194,87.012947,NH3,9,10,10
India,Bihar,Bhagalpur,"Mayaganj, Bhagalpur - BSPCB",23-01-2024 06:00:00,25.265194,87.012947,OZONE,8,70,33
India,Bihar,Bihar Sharif,"D M Colony, Bihar Sharif - BSPCB",23-01-2024 06:00:00,25.204762,85.514960,CO,13,48,31
India,Bihar,Gaya,"Kareemganj, Gaya - BSPCB",23-01-2024 06:00:00,24.792403,84.992416,PM10,73,332,156
India,Bihar,Gaya,"Kareemganj, Gaya - BSPCB",23-01-2024 06:00:00,24.792403,84.992416,CO,14,103,42
India,Bihar,Katihar,"Mirchaibari, Katihar - BSPCB",23-01-2024 06:00:00,25.560083,87.553265,PM10,125,378,186
India,Bihar,Katihar,"Mirchaibari, Katihar - BSPCB",23-01-2024 06:00:00,25.560083,87.553265,NH3,1,3,2
India,Bihar,Katihar,"Mirchaibari, Katihar - BSPCB",23-01-2024 06:00:00,25.560083,87.553265,SO2,20,28,24
India,Bihar,Kishanganj,"SDM Office_Khagra, Kishanganj - BSPCB",23-01-2024 06:00:00,26.0881305,87.93840336,CO,6,24,12
India,Bihar,Manguraha,"Forest Rest House, Manguraha - BSPCB",23-01-2024 06:00:00,27.308328,84.531742,PM10,64,119,84
India,Bihar,Motihari,"Gandak Colony, Motihari - BSPCB",23-01-2024 06:00:00,26.63086,84.90051,PM10,55,157,96
India,Bihar,Munger,"Town Hall, Munger - BSPCB",23-01-2024 06:00:00,25.376776,86.471523,SO2,30,47,39
India,Bihar,Muzaffarpur,"MIT-Daudpur Kothi, Muzaffarpur - BSPCB",23-01-2024 06:00:00,26.1403345,85.3650192,PM10,60,441,237
India,Bihar,Muzaffarpur,"MIT-Daudpur Kothi, Muzaffarpur - BSPCB",23-01-2024 06:00:00,26.1403345,85.3650192,CO,56,130,84
India,Bihar,Muzaffarpur,"Muzaffarpur Collectorate, Muzaffarpur - BSPCB",23-01-2024 06:00:00,26.1209,85.3647,SO2,5,7,6
India,Bihar,Muzaffarpur,"Muzaffarpur Collectorate, Muzaffarpur - BSPCB",23-01-2024 06:00:00,26.1209,85.3647,OZONE,16,86,56
India,Bihar,Patna,"DRM Office Danapur, Patna - BSPCB",23-01-2024 06:00:00,25.586562,85.043586,PM2.5,328,455,373
India,Bihar,Patna,"Govt. High School Shikarpur, Patna - BSPCB",23-01-2024 06:00:00,25.592539,85.227158,SO2,2,9,4
India,Bihar,Patna,"Rajbansi Nagar, Patna - BSPCB",23-01-2024 06:00:00,25.599486,85.113666,OZONE,2,42,4
India,Bihar,Patna,"Samanpura, Patna - BSPCB",23-01-2024 06:00:00,25.596727,85.085624,PM10,197,500,303
India,Bihar,Patna,"Samanpura, Patna - BSPCB",23-01-2024 06:00:00,25.596727,85.085624,NO2,14,21,16
India,Bihar,Patna,"Samanpura, Patna - BSPCB",23-01-2024 06:00:00,25.596727,85.085624,NH3,2,3,3
India,Bihar,Patna,"Samanpura, Patna - BSPCB",23-01-2024 06:00:00,25.596727,85.085624,CO,84,184,143
India,Bihar,Purnia,"Mariam Nagar, Purnia - BSPCB",23-01-2024 06:00:00,25.366336,87.117468,SO2,16,18,17
India,Bihar,Rajgir,"Dangi Tola, Rajgir - BSPCB",23-01-2024 06:00:00,25.03280,85.41948,SO2,4,62,13
India,Bihar,Rajgir,"Dangi Tola, Rajgir - BSPCB",23-01-2024 06:00:00,25.03280,85.41948,OZONE,22,26,23
India,Bihar,Saharsa,"Police Line, Saharsa - BSPCB",23-01-2024 06:00:00,25.892357,86.590325,SO2,28,29,28
India,Bihar,Samastipur,"DM Office_Kasipur, Samastipur - BSPCB",23-01-2024 06:00:00,25.859655,85.77944,PM10,71,394,184
India,Bihar,Samastipur,"DM Office_Kasipur, Samastipur - BSPCB",23-01-2024 06:00:00,25.859655,85.77944,CO,8,29,20
India,Bihar,Sasaram,"Dada Peer, Sasaram - BSPCB",23-01-2024 06:00:00,24.952822,84.002396,NH3,4,8,5
India,Bihar,Sasaram,"Dada Peer, Sasaram - BSPCB",23-01-2024 06:00:00,24.952822,84.002396,CO,24,76,38
India,Bihar,Siwan,"Chitragupta Nagar, Siwan - BSPCB",23-01-2024 06:00:00,26.2271665,84.3570427,NO2,16,52,27
India,Bihar,Siwan,"Chitragupta Nagar, Siwan - BSPCB",23-01-2024 06:00:00,26.2271665,84.3570427,NH3,2,6,3
India,Chandigarh,Chandigarh,"Sector-25, Chandigarh - CPCC",23-01-2024 06:00:00,30.751462,76.762879,NO2,15,33,21
India,Chandigarh,Chandigarh,"Sector-53, Chandigarh - CPCC",23-01-2024 06:00:00,30.719859,76.738637,PM2.5,315,423,377
India,Chandigarh,Chandigarh,"Sector-53, Chandigarh - CPCC",23-01-2024 06:00:00,30.719859,76.738637,SO2,8,44,19
India,Chandigarh,Chandigarh,"Sector-53, Chandigarh - CPCC",23-01-2024 06:00:00,30.719859,76.738637,CO,65,100,70
India,Chhattisgarh,Bhilai,"32Bungalows, Bhilai - CECB",23-01-2024 06:00:00,21.194815,81.314770,PM2.5,63,171,107
India,Chhattisgarh,Bhilai,"32Bungalows, Bhilai - CECB",23-01-2024 06:00:00,21.194815,81.314770,PM10,65,127,103
India,Chhattisgarh,Bhilai,"32Bungalows, Bhilai - CECB",23-01-2024 06:00:00,21.194815,81.314770,NH3,6,6,6
India,Chhattisgarh,Bhilai,"Civic Center, Bhilai - Bhilai Steel Plant",23-01-2024 06:00:00,21.185571,81.343175,NO2,10,13,11
India,Chhattisgarh,Bhilai,"Hathkhoj, Bhilai - CECB",23-01-2024 06:00:00,21.224231,81.408350,SO2,31,121,77
India,Chhattisgarh,Bhilai,"Hathkhoj, Bhilai - CECB",23-01-2024 06:00:00,21.224231,81.408350,CO,21,38,35
India,Chhattisgarh,Chhal,"Nawapara SECL Colony, Chhal - CECB",23-01-2024 06:00:00,22.118125,83.140608,PM2.5,36,96,61
India,Chhattisgarh,Chhal,"Nawapara SECL Colony, Chhal - CECB",23-01-2024 06:00:00,22.118125,83.140608,NH3,2,2,2
India,Chhattisgarh,Chhal,"Nawapara SECL Colony, Chhal - CECB",23-01-2024 06:00:00,22.118125,83.140608,CO,50,98,71
India,Chhattisgarh,Korba,"Rampur, Korba - CECB",23-01-2024 06:00:00,22.368195,82.746431,NH3,1,4,3
India,Chhattisgarh,Kunjemura,"OP Jindal School, Kunjemura - CECB",23-01-2024 06:00:00,22.126650,83.483212,CO,24,59,41
India,Chhattisgarh,Milupara,"Govt. Higher Secondary School, Milupara - CECB",23-01-2024 06:00:00,22.1910172,83.5197009,NH3,1,2,1
India,Chhattisgarh,Raipur,"Bhatagaon New ISBT, Raipur - CECB",23-01-2024 06:00:00,21.219665,81.630094,OZONE,3,6,3
India,Chhattisgarh,Tumidih,"OP Jindal Industrial Park, Tumidih - CECB",23-01-2024 06:00:00,22.06631475,83.33820077,NO2,NA,NA,NA
India,Chhattisgarh,Tumidih,"OP Jindal Industrial Park, Tumidih - CECB",23-01-2024 06:00:00,22.06631475,83.33820077,SO2,NA,NA,NA
India,Delhi,Delhi,"Alipur, Delhi - DPCC",23-01-2024 06:00:00,28.815329,77.153010,PM2.5,272,422,368
India,Delhi,Delhi,"Alipur, Delhi - DPCC",23-01-2024 06:00:00,28.815329,77.153010,PM10,140,413,280
India,Delhi,Delhi,"Anand Vihar, Delhi - DPCC",23-01-2024 06:00:00,28.647622,77.3158090,CO,44,104,70
India,Delhi,Delhi,"Aya Nagar, Delhi - IMD",23-01-2024 06:00:00,28.4706914,77.1099364,PM2.5,NA,NA,NA
India,Delhi,Delhi,"Aya Nagar, Delhi - IMD",23-01-2024 06:00:00,28.4706914,77.1099364,PM10,NA,NA,NA
India,Delhi,Delhi,"Bawana, Delhi - DPCC",23-01-2024 06:00:00,28.776200,77.051074,NH3,5,10,8
India,Delhi,Delhi,"Burari Crossing, Delhi - IMD",23-01-2024 06:00:00,28.7256504,77.2011573,PM2.5,NA,NA,NA
India,Delhi,Delhi,"Dr. Karni Singh Shooting Range, Delhi - DPCC",23-01-2024 06:00:00,28.498571,77.264840,NO2,32,79,56
India,Delhi,Delhi,"Dr. Karni Singh Shooting Range, Delhi - DPCC",23-01-2024 06:00:00,28.498571,77.264840,SO2,5,10,8
India,Delhi,Delhi,"IGI Airport (T3), Delhi - IMD",23-01-2024 06:00:00,28.5627763,77.1180053,PM2.5,NA,NA,NA
India,Delhi,Delhi,"IHBAS, Dilshad Garden, Delhi - CPCB",23-01-2024 06:00:00,28.6811736,77.3025234,OZONE,5,46,12
India,Delhi,Delhi,"ITO, Delhi - CPCB",23-01-2024 06:00:00,28.628624,77.241060,NH3,5,10,7
India,Delhi,Delhi,"Jahangirpuri, Delhi - DPCC",23-01-2024 06:00:00,28.732820,77.170633,PM10,214,500,395
India,Delhi,Delhi,"Jahangirpuri, Delhi - DPCC",23-01-2024 06:00:00,28.732820,77.170633,SO2,15,37,22
India,Delhi,Delhi,"Jawaharlal Nehru Stadium, Delhi - DPCC",23-01-2024 06:00:00,28.580280,77.233829,SO2,2,20,8
India,Delhi,Delhi,"Jawaharlal Nehru Stadium, Delhi - DPCC",23-01-2024 06:00:00,28.580280,77.233829,CO,48,105,75
India,Delhi,Delhi,"Lodhi Road, Delhi - IITM",23-01-2024 06:00:00,28.588333,77.221667,OZONE,15,16,15
India,Delhi,Delhi,"Major Dhyan Chand National Stadium, Delhi - DPCC",23-01-2024 06:00:00,28.611281,77.237738,PM2.5,301,465,376
India,Delhi,Delhi,"Major Dhyan Chand National Stadium, Delhi - DPCC",23-01-2024 06:00:00,28.611281,77.237738,CO,33,119,64
India,Delhi,Delhi,"NSIT Dwarka, Delhi - CPCB",23-01-2024 06:00:00,28.60909,77.0325413,NH3,9,19,13
India,Delhi,Delhi,"Najafgarh, Delhi - DPCC",23-01-2024 06:00:00,28.570173,76.933762,NH3,6,8,7
India,Delhi,Delhi,"Narela, Delhi - DPCC",23-01-2024 06:00:00,28.822836,77.101981,PM10,180,462,370
India,Delhi,Delhi,"Narela, Delhi - DPCC",23-01-2024 06:00:00,28.822836,77.101981,NH3,8,13,10
India,Delhi,Delhi,"Narela, Delhi - DPCC",23-01-2024 06:00:00,28.822836,77.101981,SO2,4,32,10
India,Delhi,Delhi,"Nehru Nagar, Delhi - DPCC",23-01-2024 06:00:00,28.567890,77.250515,PM10,180,462,344
India,Delhi,Delhi,"Nehru Nagar, Delhi - DPCC",23-01-2024 06:00:00,28.567890,77.250515,OZONE,2,81,10
India,Delhi,Delhi,"North Campus, DU, Delhi - IMD",23-01-2024 06:00:00,28.6573814,77.1585447,OZONE,25,53,27
India,Delhi,Delhi,"Patparganj, Delhi - DPCC",23-01-2024 06:00:00,28.623763,77.287209,NO2,37,57,48
India,Delhi,Delhi,"Punjabi Bagh, Delhi - DPCC",23-01-2024 06:00:00,28.674045,77.131023,PM2.5,322,487,407
India,Delhi,Delhi,"Punjabi Bagh, Delhi - DPCC",23-01-2024 06:00:00,28.674045,77.131023,CO,56,64,62
India,Delhi,Delhi,"Pusa, Delhi - DPCC",23-01-2024 06:00:00,28.639652,77.146275,NO2,116,263,168
India,Delhi,Delhi,"Pusa, Delhi - DPCC",23-01-2024 06:00:00,28.639652,77.146275,SO2,6,16,11
India,Delhi,Delhi,"Pusa, Delhi - DPCC",23-01-2024 06:00:00,28.639652,77.146275,CO,28,102,52
India,Delhi,Delhi,"R K Puram, Delhi - DPCC",23-01-2024 06:00:00,28.563262,77.186937,PM2.5,320,418,385
India,Delhi,Delhi,"R K Puram, Delhi - DPCC",23-01-2024 06:00:00,28.563262,77.186937,NO2,18,75,45
India,Delhi,Delhi,"Rohini, Delhi - DPCC",23-01-2024 06:00:00,28.732528,77.119920,NO2,41,120,69
India,Delhi,Delhi,"Rohini, Delhi - DPCC",23-01-2024 06:00:00,28.732528,77.119920,SO2,7,24,13
India,Delhi,Delhi,"Sirifort, Delhi - CPCB",23-01-2024 06:00:00,28.5504249,77.2159377,PM10,179,429,331
India,Delhi,Delhi,"Sirifort, Delhi - CPCB",23-01-2024 06:00:00,28.5504249,77.2159377,SO2,28,29,28
India,Delhi,Delhi,"Sirifort, Delhi - CPCB",23-01-2024 06:00:00,28.5504249,77.2159377,CO,26,70,56
India,Delhi,Delhi,"Sri Aurobindo Marg, Delhi - DPCC",23-01-2024 06:00:00,28.531346,77.190156,SO2,10,16,13
India,Delhi,Delhi,"Vivek Vihar, Delhi - DPCC",23-01-2024 06:00:00,28.672342,77.315260,PM10,192,478,351
India,Delhi,Delhi,"Vivek Vihar, Delhi - DPCC",23-01-2024 06:00:00,28.672342,77.315260,NO2,40,90,64
India,Delhi,Delhi,"Vivek Vihar, Delhi - DPCC",23-01-2024 06:00:00,28.672342,77.315260,SO2,7,8,8
India,Delhi,Delhi,"Vivek Vihar, Delhi - DPCC",23-01-2024 06:00:00,28.672342,77.315260,OZONE,1,12,3
India,Delhi,Delhi,"Wazirpur, Delhi - DPCC",23-01-2024 06:00:00,28.699793,77.165453,PM10,190,500,394
India,Gujarat,Ahmedabad,"Chandkheda, Ahmedabad - IITM",23-01-2024 06:00:00,23.107969,72.574648,NH3,3,4,4
India,Gujarat,Ahmedabad,"Gyaspur, Ahmedabad - IITM",23-01-2024 06:00:00,22.977134,72.553024,PM10,69,460,167
India,Gujarat,Ahmedabad,"Gyaspur, Ahmedabad - IITM",23-01-2024 06:00:00,22.977134,72.553024,NH3,2,4,3
India,Gujarat,Ahmedabad,"Raikhad, Ahmedabad - IITM",23-01-2024 06:00:00,23.020509,72.579261,PM2.5,25,316,110
India,Gujarat,Ahmedabad,"Rakhial, Ahmedabad - IITM",23-01-2024 06:00:00,23.016834,72.625775,NH3,2,6,5
India,Gujarat,Ahmedabad,"Rakhial, Ahmedabad - IITM",23-01-2024 06:00:00,23.016834,72.625775,SO2,3,55,11
India,Gujarat,Ahmedabad,"SAC ISRO Bopal, Ahmedabad - IITM",23-01-2024 06:00:00,23.041137,72.456691,PM10,53,162,104
India,Gujarat,Ahmedabad,"SAC ISRO Bopal, Ahmedabad - IITM",23-01-2024 06:00:00,23.041137,72.456691,NH3,3,4,3
India,Gujarat,Ahmedabad,"SVPI Airport Hansol, Ahmedabad - IITM",23-01-2024 06:00:00,23.076793,72.627874,PM2.5,59,392,164
India,Gujarat,Ahmedabad,"SVPI Airport Hansol, Ahmedabad - IITM",23-01-2024 06:00:00,23.076793,72.627874,SO2,5,7,6
India,Gujarat,Ahmedabad,"SVPI Airport Hansol, Ahmedabad - IITM",23-01-2024 06:00:00,23.076793,72.627874,OZONE,5,22,5
India,Gujarat,Ahmedabad,"Sardar Vallabhbhai Patel Stadium, Ahmedabad - IITM",23-01-2024 06:00:00,23.043070,72.562968,SO2,7,9,8
India,Gujarat,Gandhinagar,"GIFT City, Gandhinagar - IITM",23-01-2024 06:00:00,23.163798,72.677768,PM10,47,133,80
India,Gujarat,Gandhinagar,"Sector-10, Gandhinagar - GPCB",23-01-2024 06:00:00,23.221714,72.654328,NO2,NA,NA,NA
India,Gujarat,Gandhinagar,"Sector-10, Gandhinagar - GPCB",23-01-2024 06:00:00,23.221714,72.654328,SO2,NA,NA,NA
India,Gujarat,Gandhinagar,"Sector-10, Gandhinagar - GPCB",23-01-2024 06:00:00,23.221714,72.654328,CO,19,20,20
India,Gujarat,Surat,"Science Center, Surat - SMC",23-01-2024 06:00:00,21.170046,72.795405,CO,40,61,51
India,Gujarat,Vapi,"Phase-1 GIDC, Vapi - GPCB",23-01-2024 06:00:00,20.362421,72.918013,PM10,109,309,159
India,Haryana,Ambala,"Patti Mehar, Ambala - HSPCB",23-01-2024 06:00:00,30.379589,76.778328,SO2,1,30,9
India,Haryana,Ambala,"Patti Mehar, Ambala - HSPCB",23-01-2024 06:00:00,30.379589,76.778328,OZONE,25,40,34
India,Haryana,Bahadurgarh,"Arya Nagar, Bahadurgarh - HSPCB",23-01-2024 06:00:00,28.6701,76.9254,PM10,128,239,182
India,Haryana,Bahadurgarh,"Arya Nagar, Bahadurgarh - HSPCB",23-01-2024 06:00:00,28.6701,76.9254,SO2,6,11,8
India,Haryana,Bhiwani,"H.B. Colony, Bhiwani - HSPCB",23-01-2024 06:00:00,28.806223,76.141105,NH3,6,6,6
India,Haryana,Bhiwani,"H.B. Colony, Bhiwani - HSPCB",23-01-2024 06:00:00,28.806223,76.141105,CO,34,64,58
India,Haryana,Bhiwani,"H.B. Colony, Bhiwani - HSPCB",23-01-2024 06:00:00,28.806223,76.141105,OZONE,16,21,19
India,Haryana,Charkhi Dadri,"Mini Secretariat, Charkhi Dadri - HSPCB",23-01-2024 06:00:00,28.593883,76.270653,SO2,7,13,10
India,Haryana,Charkhi Dadri,"Mini Secretariat, Charkhi Dadri - HSPCB",23-01-2024 06:00:00,28.593883,76.270653,CO,54,102,100
India,Haryana,Charkhi Dadri,"Mini Secretariat, Charkhi Dadri - HSPCB",23-01-2024 06:00:00,28.593883,76.270653,OZONE,14,17,16
India,Haryana,Dharuhera,"Municipal Corporation Office, Dharuhera -  HSPCB",23-01-2024 06:00:00,28.206800,76.799700,PM2.5,57,305,178
India,Haryana,Faridabad,"New Industrial Town, Faridabad - HSPCB",23-01-2024 06:00:00,28.39072,77.30059,NO2,5,17,11
India,Haryana,Faridabad,"Sector 11, Faridabad - HSPCB",23-01-2024 06:00:00,28.376058,77.315741,CO,20,84,54
India,Haryana,Gurugram,"Sector-51, Gurugram - HSPCB",23-01-2024 06:00:00,28.4227,77.0667,SO2,3,4,3
India,Haryana,Gurugram,"Teri Gram, Gurugram - HSPCB",23-01-2024 06:00:00,28.4275,77.1465,PM10,66,351,252
India,Haryana,Gurugram,"Vikas Sadan, Gurugram - HSPCB",23-01-2024 06:00:00,28.4501238,77.0263051,NO2,5,25,14
India,Haryana,Gurugram,"Vikas Sadan, Gurugram - HSPCB",23-01-2024 06:00:00,28.4501238,77.0263051,SO2,17,44,27
India,Haryana,Gurugram,"Vikas Sadan, Gurugram - HSPCB",23-01-2024 06:00:00,28.4501238,77.0263051,CO,54,139,107
India,Haryana,Hisar,"Urban Estate-II, Hisar - HSPCB",23-01-2024 06:00:00,29.140560,75.744941,PM2.5,105,264,190
India,Haryana,Hisar,"Urban Estate-II, Hisar - HSPCB",23-01-2024 06:00:00,29.140560,75.744941,PM10,92,168,131
India,Haryana,Hisar,"Urban Estate-II, Hisar - HSPCB",23-01-2024 06:00:00,29.140560,75.744941,NH3,3,4,3
India,Haryana,Jind,"Police Lines, Jind - HSPCB",23-01-2024 06:00:00,29.307814,76.337619,OZONE,1,14,2
India,Haryana,Kaithal,"Rishi Nagar, Kaithal - HSPCB",23-01-2024 06:00:00,29.8006,76.4155,PM10,112,178,145
India,Haryana,Karnal,"Sector-12, Karnal - HSPCB",23-01-2024 06:00:00,29.695300,77.002700,NO2,7,12,10
India,Haryana,Karnal,"Sector-12, Karnal - HSPCB",23-01-2024 06:00:00,29.695300,77.002700,OZONE,31,34,31
India,Haryana,Kurukshetra,"Sector-7, Kurukshetra - HSPCB",23-01-2024 06:00:00,29.966942,76.875879,PM2.5,169,343,302
India,Haryana,Kurukshetra,"Sector-7, Kurukshetra - HSPCB",23-01-2024 06:00:00,29.966942,76.875879,CO,2,74,65
India,Haryana,Kurukshetra,"Sector-7, Kurukshetra - HSPCB",23-01-2024 06:00:00,29.966942,76.875879,OZONE,1,38,2
India,Haryana,Mandikhera,"General Hospital, Mandikhera - HSPCB",23-01-2024 06:00:00,27.9002,76.9938,NH3,18,21,20
India,Haryana,Mandikhera,"General Hospital, Mandikhera - HSPCB",23-01-2024 06:00:00,27.9002,76.9938,CO,44,60,53
India,Haryana,Manesar,"Sector-2 IMT, Manesar - HSPCB",23-01-2024 06:00:00,28.360699,76.936090,SO2,9,29,18
India,Haryana,Palwal,"Shyam Nagar, Palwal - HSPCB",23-01-2024 06:00:00,28.1485564,77.3320667,PM10,93,113,107
India,Haryana,Panchkula,"Sector-6, Panchkula - HSPCB ",23-01-2024 06:00:00,30.7057778,76.8531805555555,NO2,28,31,29
India,Haryana,Panchkula,"Sector-6, Panchkula - HSPCB ",23-01-2024 06:00:00,30.7057778,76.8531805555555,SO2,11,12,12
India,Haryana,Panchkula,"Sector-6, Panchkula - HSPCB ",23-01-2024 06:00:00,30.7057778,76.8531805555555,OZONE,38,57,48
India,Haryana,Panipat,"Sector-18, Panipat - HSPCB",23-01-2024 06:00:00,29.497973,76.993331,PM10,103,110,106
India,Haryana,Rohtak,"MD University, Rohtak - HSPCB",23-01-2024 06:00:00,28.52123,76.37138,OZONE,45,103,50
India,Haryana,Sirsa,"F-Block, Sirsa - HSPCB",23-01-2024 06:00:00,29.536400,75.015800,CO,45,54,52
India,Haryana,Sonipat,"Murthal, Sonipat - HSPCB",23-01-2024 06:00:00,29.027200,77.062100,PM10,164,164,164
India,Haryana,Yamuna Nagar,"Gobind Pura, Yamuna Nagar - HSPCB",23-01-2024 06:00:00,30.1480566,77.2893471,PM10,95,225,153
India,Himachal Pradesh,Baddi,"HIMUDA Complex Phase-1, Baddi - HPPCB",23-01-2024 06:00:00,30.943887,76.801991,PM2.5,85,381,300
India,Himachal Pradesh,Baddi,"HIMUDA Complex Phase-1, Baddi - HPPCB",23-01-2024 06:00:00,30.943887,76.801991,NO2,24,70,42
India,Jharkhand,Dhanbad,"Kalakusuma, Dhanbad - DMC",23-01-2024 06:00:00,23.811548,86.481238,PM2.5,2,282,64
India,Jharkhand,Dhanbad,"Sardar Patel Nagar, Dhanbad - JSPCB",23-01-2024 06:00:00,23.80569,86.44268,PM2.5,NA,NA,NA
India,Jharkhand,Dhanbad,"Sardar Patel Nagar, Dhanbad - JSPCB",23-01-2024 06:00:00,23.80569,86.44268,PM10,NA,NA,NA
India,Karnataka,Bagalkot,"Vidayagiri, Bagalkot - KSPCB",23-01-2024 06:00:00,16.172806,75.659694,PM2.5,14,27,26
India,Karnataka,Bagalkot,"Vidayagiri, Bagalkot - KSPCB",23-01-2024 06:00:00,16.172806,75.659694,PM10,50,51,51
India,Karnataka,Bagalkot,"Vidayagiri, Bagalkot - KSPCB",23-01-2024 06:00:00,16.172806,75.659694,NO2,10,11,10
India,Karnataka,Belgaum,"Ramteerth Nagar, Belgaum - KSPCB",23-01-2024 06:00:00,15.888653,74.541751,NO2,26,30,28
India,Karnataka,Belgaum,"Ramteerth Nagar, Belgaum - KSPCB",23-01-2024 06:00:00,15.888653,74.541751,NH3,33,34,33
India,Karnataka,Bengaluru,"BTM Layout, Bengaluru - CPCB",23-01-2024 06:00:00,12.9135218,77.5950804,NO2,33,41,38
India,Karnataka,Bengaluru,"Bapuji Nagar, Bengaluru - KSPCB",23-01-2024 06:00:00,12.951913,77.539784,SO2,5,8,6
India,Karnataka,Bengaluru,"Bapuji Nagar, Bengaluru - KSPCB",23-01-2024 06:00:00,12.951913,77.539784,OZONE,7,12,11
India,Karnataka,Bengaluru,"City Railway Station, Bengaluru - KSPCB",23-01-2024 06:00:00,12.9756843,77.5660749,SO2,13,16,14
India,Karnataka,Bengaluru,"Hebbal, Bengaluru - KSPCB",23-01-2024 06:00:00,13.029152,77.585901,NO2,5,5,5
India,Karnataka,Bengaluru,"Hebbal, Bengaluru - KSPCB",23-01-2024 06:00:00,13.029152,77.585901,OZONE,7,25,8
India,Karnataka,Bengaluru,"Hombegowda Nagar, Bengaluru - KSPCB",23-01-2024 06:00:00,12.938539,77.590100,PM10,54,112,78
India,Karnataka,Bengaluru,"Jayanagar 5th Block, Bengaluru - KSPCB",23-01-2024 06:00:00,12.920984,77.584908,NO2,10,12,11
India,Karnataka,Bengaluru,"Jayanagar 5th Block, Bengaluru - KSPCB",23-01-2024 06:00:00,12.920984,77.584908,CO,3,42,10
India,Karnataka,Bengaluru,"Jigani, Bengaluru - KSPCB",23-01-2024 06:00:00,12.7816279,77.6299145,CO,36,90,56
India,Karnataka,Bengaluru,"Kasturi Nagar, Bengaluru - KSPCB",23-01-2024 06:00:00,13.003872,77.664217,PM2.5,70,162,91
India,Karnataka,Bengaluru,"Kasturi Nagar, Bengaluru - KSPCB",23-01-2024 06:00:00,13.003872,77.664217,OZONE,17,121,50
India,Karnataka,Bengaluru,"Peenya, Bengaluru - CPCB",23-01-2024 06:00:00,13.0270199,77.494094,NH3,4,5,5
India,Karnataka,Bengaluru,"RVCE-Mailasandra, Bengaluru - KSPCB",23-01-2024 06:00:00,12.921418,77.502466,OZONE,40,40,40
India,Karnataka,Bengaluru,"Shivapura_Peenya, Bengaluru - KSPCB",23-01-2024 06:00:00,13.0246342,77.5080115,PM2.5,NA,NA,NA
India,Karnataka,Bengaluru,"Shivapura_Peenya, Bengaluru - KSPCB",23-01-2024 06:00:00,13.0246342,77.5080115,SO2,NA,NA,NA
India,Karnataka,Bengaluru,"Silk Board, Bengaluru - KSPCB",23-01-2024 06:00:00,12.917348,77.622813,PM10,64,141,95
India,Karnataka,Bengaluru,"Silk Board, Bengaluru - KSPCB",23-01-2024 06:00:00,12.917348,77.622813,NO2,20,28,23
India,Karnataka,Bidar,"Naubad, Bidar - KSPCB",23-01-2024 06:00:00,17.930306,77.482194,PM2.5,66,167,101
India,Karnataka,Bidar,"Naubad, Bidar - KSPCB",23-01-2024 06:00:00,17.930306,77.482194,SO2,15,18,16
India,Karnataka,Chamarajanagar,"Urban, Chamarajanagar - KSPCB",23-01-2024 06:00:00,11.55358,76.55521,SO2,2,8,4
India,Karnataka,Chikkaballapur,"Chikkaballapur Rural, Chikkaballapur - KSPCB",23-01-2024 06:00:00,13.428828,77.731418,PM10,45,101,67
India,Karnataka,Chikkaballapur,"Chikkaballapur Rural, Chikkaballapur - KSPCB",23-01-2024 06:00:00,13.428828,77.731418,NH3,1,2,1
India,Karnataka,Chikkaballapur,"Chikkaballapur Rural, Chikkaballapur - KSPCB",23-01-2024 06:00:00,13.428828,77.731418,CO,2,25,4
India,Karnataka,Chikkaballapur,"Chikkaballapur Rural, Chikkaballapur - KSPCB",23-01-2024 06:00:00,13.428828,77.731418,OZONE,24,25,25
India,Karnataka,Chikkamagaluru,"Kalyana Nagara, Chikkamagaluru - KSPCB",23-01-2024 06:00:00,13.328028,75.797056,NO2,17,30,21
India,Karnataka,Davanagere,"Devaraj Urs Badavane, Davanagere - KSPCB",23-01-2024 06:00:00,14.475800,75.905200,NO2,1,25,12
India,Karnataka,Davanagere,"Devaraj Urs Badavane, Davanagere - KSPCB",23-01-2024 06:00:00,14.475800,75.905200,CO,15,22,18
India,Karnataka,Dharwad,"Kalabhavan, Dharwad - KSPCB",23-01-2024 06:00:00,15.459706,75.008381,CO,36,96,46
India,Karnataka,Gadag,"Panchal Nagar, Gadag - KSPCB",23-01-2024 06:00:00,15.411456,75.638133,NH3,2,3,2
India,Karnataka,Hassan,"B.Katihalli, Hassan - KSPCB",23-01-2024 06:00:00,13.008556,76.125258,CO,16,27,21
India,Karnataka,Haveri,"Ashwini Nagar, Haveri - KSPCB",23-01-2024 06:00:00,14.791800,75.389600,OZONE,18,22,18
India,Karnataka,Hubballi,"Deshpande Nagar, Hubballi - KSPCB",23-01-2024 06:00:00,15.351773,75.140726,NH3,6,7,6
India,Karnataka,Hubballi,"Lingaraj Nagar, Hubballi - KSPCB",23-01-2024 06:00:00,15.3714823,75.1160168,PM10,22,83,63
India,Karnataka,Kalaburagi,"Lal Bahadur Shastri Nagar, Kalaburagi - KSPCB",23-01-2024 06:00:00,17.321993,76.822628,NO2,12,12,12
India,Karnataka,Kalaburagi,"Mahatma Basaveswar Colony, Kalaburgi - KSPCB",23-01-2024 06:00:00,17.336318,76.847397,PM2.5,17,44,30
India,Karnataka,Kalaburagi,"Mahatma Basaveswar Colony, Kalaburgi - KSPCB",23-01-2024 06:00:00,17.336318,76.847397,CO,36,88,56
India,Karnataka,Karwar,"KHB Colony, Karwar - KSPCB",23-01-2024 06:00:00,14.816666,74.141003,SO2,18,18,18
India,Karnataka,Kolar,"Tamaka Ind. Area, Kolar - KSPCB",23-01-2024 06:00:00,13.1276288,78.1570122,PM10,48,125,75
India,Karnataka,Koppal,"Diwator Nagar, Koppal - KSPCB",23-01-2024 06:00:00,15.347630,76.181767,SO2,NA,NA,NA
India,Karnataka,Koppal,"Diwator Nagar, Koppal - KSPCB",23-01-2024 06:00:00,15.347630,76.181767,CO,NA,NA,NA
India,Karnataka,Koppal,"Diwator Nagar, Koppal - KSPCB",23-01-2024 06:00:00,15.347630,76.181767,OZONE,NA,NA,NA
India,Karnataka,Madikeri,"Stuart Hill, Madikeri - KSPCB",23-01-2024 06:00:00,12.415911,75.735050,NO2,4,11,6
India,Karnataka,Madikeri,"Stuart Hill, Madikeri - KSPCB",23-01-2024 06:00:00,12.415911,75.735050,NH3,1,1,1
India,Karnataka,Mangalore,"Kadri, Mangalore - KSPCB",23-01-2024 06:00:00,12.889250,74.853000,NO2,8,10,9
India,Karnataka,Mangalore,"Kadri, Mangalore - KSPCB",23-01-2024 06:00:00,12.889250,74.853000,SO2,17,19,18
India,Karnataka,Mysuru,"Hebbal 1st Stage, Mysuru - KSPCB",23-01-2024 06:00:00,12.21041,76.37376,PM10,53,77,70
India,Karnataka,Mysuru,"Hebbal 1st Stage, Mysuru - KSPCB",23-01-2024 06:00:00,12.21041,76.37376,NO2,5,50,26
India,Karnataka,Mysuru,"Hebbal 1st Stage, Mysuru - KSPCB",23-01-2024 06:00:00,12.21041,76.37376,SO2,1,12,3
India,Karnataka,Raichur,"Haji Colony, Raichur - KSPCB",23-01-2024 06:00:00,16.208139,77.348417,PM10,NA,NA,NA
India,Karnataka,Ramanagara,"Vijay Nagar, Ramanagara - KSPCB",23-01-2024 06:00:00,12.733409,77.298051,SO2,24,30,27
India,Karnataka,Ramanagara,"Vijay Nagar, Ramanagara - KSPCB",23-01-2024 06:00:00,12.733409,77.298051,CO,10,37,21
India,Karnataka,Shivamogga,"Vinoba Nagara, Shivamogga - KSPCB",23-01-2024 06:00:00,13.940000,75.555917,PM2.5,36,61,45
India,Karnataka,Tumakuru,"Thimmalapura, Tumakuru - KSPCB",23-01-2024 06:00:00,13.377516,77.099072,SO2,8,14,10
India,Karnataka,Udupi,"Brahmagiri, Udupi - KSPCB",23-01-2024 06:00:00,13.34194444,74.74694444,PM10,19,63,35
India,Karnataka,Yadgir,"Collector Office, Yadgir - KSPCB",23-01-2024 06:00:00,16.7602,77.1428,PM10,57,88,70
India,Karnataka,Yadgir,"Collector Office, Yadgir - KSPCB",23-01-2024 06:00:00,16.7602,77.1428,NH3,1,1,1
India,Kerala,Eloor,"Udyogamandal, Eloor - Kerala PCB",23-01-2024 06:00:00,10.073232,76.302765,SO2,1,15,4
India,Kerala,Kannur,"Thavakkara, Kannur - Kerala PCB",23-01-2024 06:00:00,11.875000,75.373200,NO2,6,7,6
India,Kerala,Kochi,"Vyttila, Kochi - Kerala PCB",23-01-2024 06:00:00,9.969447,76.321186,PM2.5,48,48,48
India,Kerala,Thiruvananthapuram,"Plammoodu, Thiruvananthapuram - Kerala PCB",23-01-2024 06:00:00,8.5149093,76.9435879,SO2,5,17,9
India,Kerala,Thrissur,"Corporation Ground, Thrissur - Kerala PCB",23-01-2024 06:00:00,10.532400,76.215900,OZONE,22,33,23
India,Madhya Pradesh,Bhopal,"Idgah Hills, Bhopal - MPPCB",23-01-2024 06:00:00,23.264759,77.381568,NH3,2,5,3
India,Madhya Pradesh,Damoh,"Shrivastav Colony, Damoh - MPPCB",23-01-2024 06:00:00,23.81748678,79.446246,PM10,NA,NA,NA
India,Madhya Pradesh,Dewas,"Bhopal Chauraha, Dewas - MPPCB",23-01-2024 06:00:00,22.9682591,76.064118,NH3,3,3,3
India,Madhya Pradesh,Gwalior,"City Center, Gwalior - MPPCB",23-01-2024 06:00:00,26.203442,78.193251,PM2.5,133,359,238
India,Madhya Pradesh,Gwalior,"City Center, Gwalior - MPPCB",23-01-2024 06:00:00,26.203442,78.193251,CO,16,56,36
India,Madhya Pradesh,Gwalior,"Deen Dayal Nagar, Gwalior - MPPCB",23-01-2024 06:00:00,26.259242,78.216432,CO,48,57,52
India,Madhya Pradesh,Gwalior,"Maharaj Bada, Gwalior - MPPCB",23-01-2024 06:00:00,26.200388,78.147714,OZONE,25,68,52
India,Madhya Pradesh,Gwalior,"Phool Bagh, Gwalior - Mondelez Ind. Food",23-01-2024 06:00:00,26.210536,78.171,CO,32,37,33
India,Madhya Pradesh,Indore,"Maguda Nagar, Indore - IMC",23-01-2024 06:00:00,22.7524,75.8872,PM2.5,54,347,105
India,Madhya Pradesh,Indore,"Maguda Nagar, Indore - IMC",23-01-2024 06:00:00,22.7524,75.8872,OZONE,37,43,40
India,Madhya Pradesh,Indore,"Regional Park, Indore - IMC",23-01-2024 06:00:00,22.6780,75.8559,CO,20,54,40
India,Madhya Pradesh,Indore,"Residency Area, Indore - IMC",23-01-2024 06:00:00,22.7084,75.8815,NO2,28,60,42
India,Madhya Pradesh,Indore,"Residency Area, Indore - IMC",23-01-2024 06:00:00,22.7084,75.8815,NH3,NA,NA,NA
India,Madhya Pradesh,Indore,"Residency Area, Indore - IMC",23-01-2024 06:00:00,22.7084,75.8815,CO,3,14,9
India,Madhya Pradesh,Jabalpur,"Gupteshwar, Jabalpur - JMC",23-01-2024 06:00:00,23.142888,79.916147,SO2,4,96,22
India,Madhya Pradesh,Jabalpur,"Marhatal, Jabalpur - MPPCB",23-01-2024 06:00:00,23.168606,79.932247,PM2.5,76,381,190
India,Madhya Pradesh,Jabalpur,"Suhagi, Jabalpur - JMC",23-01-2024 06:00:00,23.218135,79.957770,NO2,37,42,39
India,Madhya Pradesh,Katni,"Gole Bazar, Katni - MPPCB",23-01-2024 06:00:00,23.50016,80.23284,SO2,7,43,18
India,Madhya Pradesh,Katni,"Gole Bazar, Katni - MPPCB",23-01-2024 06:00:00,23.50016,80.23284,CO,24,79,62
India,Madhya Pradesh,Maihar,"Sahilara, Maihar - KJS Cements",23-01-2024 06:00:00,24.2613009,80.7231783,PM10,31,97,58
India,Madhya Pradesh,Maihar,"Sahilara, Maihar - KJS Cements",23-01-2024 06:00:00,24.2613009,80.7231783,CO,36,92,82
India,Madhya Pradesh,Pithampur,"Sector-2 Industrial Area, Pithampur - MPPCB",23-01-2024 06:00:00,22.624758,75.675238,PM10,88,215,148
India,Madhya Pradesh,Pithampur,"Sector-2 Industrial Area, Pithampur - MPPCB",23-01-2024 06:00:00,22.624758,75.675238,SO2,11,17,14
India,Madhya Pradesh,Sagar,"Civil Lines, Sagar - MPPCB",23-01-2024 06:00:00,23.838586,78.759431,NH3,2,2,2
India,Madhya Pradesh,Sagar,"Deen Dayal Nagar, Sagar - MPPCB",23-01-2024 06:00:00,23.8640158,78.80289321,PM10,32,189,98
India,Madhya Pradesh,Satna,"Bandhavgar Colony, Satna - Birla Cement",23-01-2024 06:00:00,24.58434363,80.8549414,PM2.5,2,31,10
India,Madhya Pradesh,Satna,"Bandhavgar Colony, Satna - Birla Cement",23-01-2024 06:00:00,24.58434363,80.8549414,NO2,5,15,8
India,Madhya Pradesh,Satna,"Bandhavgar Colony, Satna - Birla Cement",23-01-2024 06:00:00,24.58434363,80.8549414,SO2,3,19,8
India,Madhya Pradesh,Satna,"Bandhavgar Colony, Satna - Birla Cement",23-01-2024 06:00:00,24.58434363,80.8549414,OZONE,57,95,62
India,Madhya Pradesh,Ujjain,"Mahakaleshwar Temple, Ujjain - MPPCB",23-01-2024 06:00:00,23.182719 ,75.768218 ,CO,30,100,49
India,Maharashtra,Ahmednagar,"Tarakpur, Ahmednagar - MPCB",23-01-2024 06:00:00,19.10122,74.73339,NH3,3,5,4
India,Maharashtra,Ahmednagar,"Tarakpur, Ahmednagar - MPCB",23-01-2024 06:00:00,19.10122,74.73339,OZONE,9,159,82
India,Maharashtra,Akola,"Ramdaspeth, Akola - MPCB",23-01-2024 06:00:00,20.719516,77.000253,SO2,2,14,9
India,Maharashtra,Amravati,"Shivneri Colony, Amravati - MPCB",23-01-2024 06:00:00,20.9402359,77.7895248,SO2,11,41,22
India,Maharashtra,Amravati,"Shri Shivaji Science College, Amaravati - MPCB",23-01-2024 06:00:00,20.939198,77.765701,PM10,116,185,146
India,Maharashtra,Amravati,"Shri Shivaji Science College, Amaravati - MPCB",23-01-2024 06:00:00,20.939198,77.765701,CO,36,77,47
India,Maharashtra,Aurangabad,"MIDC Chilkalthana, Aurangabad - MPCB",23-01-2024 06:00:00,19.875620,75.387310,PM2.5,98,235,149
India,Maharashtra,Aurangabad,"Rachnakar Colony, Aurangabad - MPCB",23-01-2024 06:00:00,19.863756,75.321188,SO2,26,100,41
India,Maharashtra,Badlapur,"Katrap, Badlapur - MPCB",23-01-2024 06:00:00,19.16485,73.23409,NH3,1,4,3
India,Maharashtra,Badlapur,"Katrap, Badlapur - MPCB",23-01-2024 06:00:00,19.16485,73.23409,SO2,16,47,24
India,Maharashtra,Badlapur,"Katrap, Badlapur - MPCB",23-01-2024 06:00:00,19.16485,73.23409,CO,26,98,50
India,Maharashtra,Chandrapur,"Chauhan Colony, Chandrapur - MPCB",23-01-2024 06:00:00,19.962900,79.298714,OZONE,3,21,8
India,Maharashtra,Dhule,"Deopur, Dhule - MPCB",23-01-2024 06:00:00,20.918946,74.776388,NO2,8,24,15
India,Maharashtra,Dhule,"Deopur, Dhule - MPCB",23-01-2024 06:00:00,20.918946,74.776388,SO2,3,37,14
India,Maharashtra,Dhule,"Deopur, Dhule - MPCB",23-01-2024 06:00:00,20.918946,74.776388,OZONE,6,84,11
India,Maharashtra,Jalgaon,"Prabhat Colony, Jalgaon - MPCB",23-01-2024 06:00:00,21.001264,75.565602,PM10,54,500,181
India,Maharashtra,Jalgaon,"Prabhat Colony, Jalgaon - MPCB",23-01-2024 06:00:00,21.001264,75.565602,OZONE,1,97,17
India,Maharashtra,Jalna,"Old MIDC, Jalna - MPCB",23-01-2024 06:00:00,19.854616,75.905894,PM10,84,199,136
India,Maharashtra,Kalyan,"Khadakpada, Kalyan - MPCB",23-01-2024 06:00:00,19.25292,73.142019,PM10,70,134,103
India,Maharashtra,Kalyan,"Khadakpada, Kalyan - MPCB",23-01-2024 06:00:00,19.25292,73.142019,OZONE,9,46,15
India,Maharashtra,Kolhapur,"Shivaji University, Kolhapur - MPCB",23-01-2024 06:00:00,16.6870449,74.2505872,PM2.5,80,125,96
India,Maharashtra,Kolhapur,"Sinchan Bhavan, Kolhapur - MPCB",23-01-2024 06:00:00,16.7143745,74.2426398,NO2,8,45,22
India,Maharashtra,Kolhapur,"Sinchan Bhavan, Kolhapur - MPCB",23-01-2024 06:00:00,16.7143745,74.2426398,SO2,1,4,1
India,Maharashtra,Latur,"Sawe Wadi, Latur - MPCB",23-01-2024 06:00:00,18.39963,76.57452,CO,22,96,35
India,Maharashtra,Latur,"Sawe Wadi, Latur - MPCB",23-01-2024 06:00:00,18.39963,76.57452,OZONE,22,80,45
India,Maharashtra,Mahad,"Kamble Tarf Birwadi, Mahad - MPCB",23-01-2024 06:00:00,18.1023399,73.4783687,NH3,4,6,5
India,Maharashtra,Mira-Bhayandar,"Bhayandar West, Mira-Bhayandar - MPCB",23-01-2024 06:00:00,19.296481,72.840923,PM2.5,69,134,93
India,Maharashtra,Mumbai,"Bandra Kurla Complex, Mumbai - MPCB",23-01-2024 06:00:00,19.065931,72.862131,NO2,13,60,38
India,Maharashtra,Mumbai,"Bandra Kurla Complex, Mumbai - MPCB",23-01-2024 06:00:00,19.065931,72.862131,OZONE,1,46,2
India,Maharashtra,Mumbai,"Borivali East, Mumbai - IITM",23-01-2024 06:00:00,19.23241,72.86895,PM2.5,51,193,92
India,Maharashtra,Mumbai,"Borivali East, Mumbai - MPCB",23-01-2024 06:00:00,19.2243333,72.8658113,PM10,27,122,74
India,Maharashtra,Mumbai,"Chakala-Andheri East, Mumbai - IITM",23-01-2024 06:00:00,19.11074,72.86084,PM2.5,20,79,39
India,Maharashtra,Mumbai,"Chakala-Andheri East, Mumbai - IITM",23-01-2024 06:00:00,19.11074,72.86084,OZONE,42,72,62
India,Maharashtra,Mumbai,"Chembur, Mumbai - MPCB",23-01-2024 06:00:00,19.0364585,72.8954371,PM2.5,65,295,130
India,Maharashtra,Mumbai,"Chembur, Mumbai - MPCB",23-01-2024 06:00:00,19.0364585,72.8954371,PM10,88,166,124
India,Maharashtra,Mumbai,"Colaba, Mumbai - MPCB",23-01-2024 06:00:00,18.910000,72.820000,PM2.5,31,116,71
India,Maharashtra,Mumbai,"Colaba, Mumbai - MPCB",23-01-2024 06:00:00,18.910000,72.820000,NH3,1,1,1
India,Maharashtra,Mumbai,"Colaba, Mumbai - MPCB",23-01-2024 06:00:00,18.910000,72.820000,CO,12,26,15
India,Maharashtra,Mumbai,"Ghatkopar, Mumbai - BMC",23-01-2024 06:00:00,19.083694,72.920967,NH3,NA,NA,NA
India,Maharashtra,Mumbai,"Kandivali East, Mumbai - MPCB",23-01-2024 06:00:00,19.205800,72.868200,NO2,44,122,84
India,Maharashtra,Mumbai,"Kandivali East, Mumbai - MPCB",23-01-2024 06:00:00,19.205800,72.868200,NH3,5,9,7
India,Maharashtra,Mumbai,"Kandivali West, Mumbai - BMC",23-01-2024 06:00:00,19.215859,72.831718,NH3,1,3,2
India,Maharashtra,Mumbai,"Kandivali West, Mumbai - BMC",23-01-2024 06:00:00,19.215859,72.831718,SO2,5,17,11
India,Maharashtra,Mumbai,"Kandivali West, Mumbai - BMC",23-01-2024 06:00:00,19.215859,72.831718,OZONE,1,66,15
India,Maharashtra,Mumbai,"Kherwadi_Bandra East, Mumbai - MPCB",23-01-2024 06:00:00,19.0632143,72.8456324,PM2.5,71,294,149
India,Maharashtra,Mumbai,"Khindipada-Bhandup West, Mumbai - IITM",23-01-2024 06:00:00,19.1653323,72.922099,PM2.5,34,144,94
India,Maharashtra,Mumbai,"Khindipada-Bhandup West, Mumbai - IITM",23-01-2024 06:00:00,19.1653323,72.922099,OZONE,24,125,49
India,Maharashtra,Mumbai,"Kurla, Mumbai - MPCB",23-01-2024 06:00:00,19.0863,72.8888,PM2.5,28,217,107
India,Maharashtra,Mumbai,"Kurla, Mumbai - MPCB",23-01-2024 06:00:00,19.0863,72.8888,PM10,28,139,92
India,Maharashtra,Mumbai,"Kurla, Mumbai - MPCB",23-01-2024 06:00:00,19.0863,72.8888,NH3,3,4,3
India,Maharashtra,Mumbai,"Mazgaon, Mumbai - IITM",23-01-2024 06:00:00,18.96702,72.84214,PM2.5,138,297,196
India,Maharashtra,Mumbai,"Mazgaon, Mumbai - IITM",23-01-2024 06:00:00,18.96702,72.84214,OZONE,40,154,71
India,Maharashtra,Mumbai,"Navy Nagar-Colaba, Mumbai - IITM",23-01-2024 06:00:00,18.897756,72.813320,OZONE,17,136,44
India,Maharashtra,Mumbai,"Powai, Mumbai - MPCB",23-01-2024 06:00:00,19.137500,72.915056,NO2,24,41,29
India,Maharashtra,Mumbai,"Powai, Mumbai - MPCB",23-01-2024 06:00:00,19.137500,72.915056,NH3,1,1,1
India,Maharashtra,Mumbai,"Powai, Mumbai - MPCB",23-01-2024 06:00:00,19.137500,72.915056,SO2,16,18,17
India,Maharashtra,Mumbai,"Sewri, Mumbai - BMC",23-01-2024 06:00:00,19.000084,72.856730,PM2.5,80,217,143
India,Maharashtra,Mumbai,"Shivaji Nagar, Mumbai - BMC",23-01-2024 06:00:00,19.060498,72.923356,NO2,41,144,86
India,Maharashtra,Mumbai,"Siddharth Nagar-Worli, Mumbai - IITM",23-01-2024 06:00:00,19.000083,72.813993,PM10,113,230,149
India,Maharashtra,Mumbai,"Siddharth Nagar-Worli, Mumbai - IITM",23-01-2024 06:00:00,19.000083,72.813993,CO,1,53,15
India,Maharashtra,Mumbai,"Sion, Mumbai - MPCB",23-01-2024 06:00:00,19.047000,72.874600,CO,21,80,58
India,Maharashtra,Mumbai,"Vasai West, Mumbai - MPCB",23-01-2024 06:00:00,19.383200,72.820400,NH3,NA,NA,NA
India,Maharashtra,Mumbai,"Vasai West, Mumbai - MPCB",23-01-2024 06:00:00,19.383200,72.820400,OZONE,5,87,40
India,Maharashtra,Mumbai,"Vile Parle West, Mumbai - MPCB",23-01-2024 06:00:00,19.10861,72.83622,SO2,13,14,14
India,Maharashtra,Nagpur,"Ambazari, Nagpur - MPCB",23-01-2024 06:00:00,21.121801,79.04952,PM10,113,178,138
India,Maharashtra,Nagpur,"Ambazari, Nagpur - MPCB",23-01-2024 06:00:00,21.121801,79.04952,CO,20,68,41
India,Maharashtra,Nagpur,"Mahal, Nagpur - MPCB",23-01-2024 06:00:00,21.14472,79.107595,PM10,107,261,156
India,Maharashtra,Nagpur,"Ram Nagar, Nagpur - MPCB",23-01-2024 06:00:00,21.143383,79.048912,NH3,4,6,5
India,Maharashtra,Nagpur,"Ram Nagar, Nagpur - MPCB",23-01-2024 06:00:00,21.143383,79.048912,OZONE,19,86,31
India,Maharashtra,Nashik,"Gangapur Road, Nashik - MPCB",23-01-2024 06:00:00,20.0073285,73.7762427,PM10,48,102,75
India,Maharashtra,Nashik,"Gangapur Road, Nashik - MPCB",23-01-2024 06:00:00,20.0073285,73.7762427,CO,18,18,18
India,Maharashtra,Nashik,"Hirawadi, Nashik - MPCB",23-01-2024 06:00:00,20.021503,73.813844,PM10,43,94,74
India,Maharashtra,Nashik,"Hirawadi, Nashik - MPCB",23-01-2024 06:00:00,20.021503,73.813844,NH3,1,2,1
India,Maharashtra,Nashik,"MIDC Ambad, Nashik - MPCB",23-01-2024 06:00:00,19.950220,73.731480,PM2.5,47,110,80
India,Maharashtra,Nashik,"Pandav Nagari, Nashik - MPCB",23-01-2024 06:00:00,19.9591346,73.7788008,NO2,27,56,39
India,Maharashtra,Nashik,"Pandav Nagari, Nashik - MPCB",23-01-2024 06:00:00,19.9591346,73.7788008,CO,26,48,31
India,Maharashtra,Navi Mumbai,"Kopripada-Vashi, Navi Mumbai - MPCB",23-01-2024 06:00:00,19.090337,73.014232,PM2.5,NA,NA,NA
India,Maharashtra,Navi Mumbai,"Nerul, Navi Mumbai - MPCB",23-01-2024 06:00:00,19.008751,73.016620,NH3,3,6,5
India,Maharashtra,Navi Mumbai,"Nerul, Navi Mumbai - MPCB",23-01-2024 06:00:00,19.008751,73.016620,CO,44,80,71
India,Maharashtra,Navi Mumbai,"Sanpada, Navi Mumbai - MPCB",23-01-2024 06:00:00,19.0575752,73.0151367,NH3,9,52,21
India,Maharashtra,Navi Mumbai,"Sector-2E Kalamboli, Navi Mumbai - MPCB",23-01-2024 06:00:00,19.02579,73.10297,PM10,88,269,158
India,Maharashtra,Navi Mumbai,"Sector-2E Kalamboli, Navi Mumbai - MPCB",23-01-2024 06:00:00,19.02579,73.10297,NO2,7,115,59
India,Maharashtra,Navi Mumbai,"Sector-2E Kalamboli, Navi Mumbai - MPCB",23-01-2024 06:00:00,19.02579,73.10297,NH3,7,18,13
India,Maharashtra,Navi Mumbai,"Sector-2E Kalamboli, Navi Mumbai - MPCB",23-01-2024 06:00:00,19.02579,73.10297,OZONE,1,107,1
India,Maharashtra,Parbhani,"Masoom Colony, Parbhani - MPCB",23-01-2024 06:00:00,19.265594,76.761463,PM2.5,66,339,154
India,Maharashtra,Parbhani,"Masoom Colony, Parbhani - MPCB",23-01-2024 06:00:00,19.265594,76.761463,SO2,11,57,27
India,Maharashtra,Pimpri-Chinchwad,"Gavalinagar, Pimpri Chinchwad - MPCB",23-01-2024 06:00:00,18.63673,73.82487,PM2.5,53,224,124
India,Maharashtra,Pimpri-Chinchwad,"Gavalinagar, Pimpri Chinchwad - MPCB",23-01-2024 06:00:00,18.63673,73.82487,PM10,44,159,108
India,Maharashtra,Pimpri-Chinchwad,"Gavalinagar, Pimpri Chinchwad - MPCB",23-01-2024 06:00:00,18.63673,73.82487,SO2,4,18,9
India,Maharashtra,Pimpri-Chinchwad,"Park Street Wakad, Pimpri Chinchwad - MPCB",23-01-2024 06:00:00,18.59051,73.77946,NO2,58,123,79
India,Maharashtra,Pimpri-Chinchwad,"Park Street Wakad, Pimpri Chinchwad - MPCB",23-01-2024 06:00:00,18.59051,73.77946,NH3,8,18,11
India,Maharashtra,Pimpri-Chinchwad,"Thergaon, Pimpri Chinchwad - MPCB",23-01-2024 06:00:00,18.616318,73.765797,SO2,3,10,5
India,Maharashtra,Pune,"Alandi, Pune - IITM",23-01-2024 06:00:00,18.675076,73.892743,CO,30,62,49
India,Maharashtra,Pune,"Katraj Dairy, Pune - MPCB",23-01-2024 06:00:00,18.454450,73.854155,OZONE,1,36,14
India,Maharashtra,Pune,"Mhada Colony, Pune - IITM",23-01-2024 06:00:00,18.573040,73.927715,CO,42,61,50
India,Maharashtra,Pune,"Revenue Colony-Shivajinagar, Pune - IITM",23-01-2024 06:00:00,18.530085,73.849598,PM2.5,24,240,83
India,Maharashtra,Pune,"Revenue Colony-Shivajinagar, Pune - IITM",23-01-2024 06:00:00,18.530085,73.849598,PM10,30,156,82
India,Maharashtra,Pune,"Revenue Colony-Shivajinagar, Pune - IITM",23-01-2024 06:00:00,18.530085,73.849598,NH3,12,30,21
India,Maharashtra,Pune,"Revenue Colony-Shivajinagar, Pune - IITM",23-01-2024 06:00:00,18.530085,73.849598,OZONE,6,68,33
India,Maharashtra,Pune,"Savitribai Phule Pune University, Pune - MPCB",23-01-2024 06:00:00,18.547056,73.826908,SO2,2,7,4
India,Maharashtra,Pune,"Transport Nagar-Nigdi, Pune - IITM",23-01-2024 06:00:00,18.664282,73.763966,PM2.5,23,208,82
India,Maharashtra,Solapur,"Dnyaneshwar Nagar, Solapur - MPCB",23-01-2024 06:00:00,17.6336264,75.9132495,CO,14,100,32
India,Maharashtra,Solapur,"Ratandeep Housing Society, Solapur - MPCB",23-01-2024 06:00:00,17.65439,75.90649,PM10,66,257,115
India,Maharashtra,Solapur,"Ratandeep Housing Society, Solapur - MPCB",23-01-2024 06:00:00,17.65439,75.90649,OZONE,1,47,24
India,Maharashtra,Solapur,"Solapur, Solapur - MPCB",23-01-2024 06:00:00,17.6599188,75.9063906,PM10,86,160,119
India,Maharashtra,Thane,"Kasarvadavali, Thane - MPCB",23-01-2024 06:00:00,19.26777,72.97182,NO2,18,103,46
India,Maharashtra,Thane,"Upvan Fort, Thane - MPCB",23-01-2024 06:00:00,19.222279,72.957979,SO2,15,81,34
India,Maharashtra,Thane,"Upvan Fort, Thane - MPCB",23-01-2024 06:00:00,19.222279,72.957979,CO,3,58,15
India,Maharashtra,Thane,"Upvan Fort, Thane - MPCB",23-01-2024 06:00:00,19.222279,72.957979,OZONE,32,191,61
India,Maharashtra,Ulhasnagar,"Sidhi Vinayak Nagar, Ulhasnagar - MPCB",23-01-2024 06:00:00,19.235581,73.159121,PM2.5,131,359,236
India,Manipur,Imphal,"DM College of Science, Imphal - Manipur PCB",23-01-2024 06:00:00,24.8207389,93.9423085,PM2.5,17,179,47
India,Meghalaya,Shillong,"JN Stadium, Shillong - Meghalaya PCB",23-01-2024 06:00:00,25.5803419,91.8942571,NO2,11,71,35
India,Meghalaya,Shillong,"Lumpyngngad, Shillong - Meghalaya PCB",23-01-2024 06:00:00,25.5586,91.8985,SO2,15,22,16
India,Meghalaya,Shillong,"Lumpyngngad, Shillong - Meghalaya PCB",23-01-2024 06:00:00,25.5586,91.8985,OZONE,53,96,84
India,Mizoram,Aizawl,"Sikulpuikawn, Aizawl - Mizoram PCB",23-01-2024 06:00:00,23.7176342,92.7192841,CO,12,22,17
India,Mizoram,Aizawl,"Sikulpuikawn, Aizawl - Mizoram PCB",23-01-2024 06:00:00,23.7176342,92.7192841,OZONE,11,25,20
India,Nagaland,Kohima,"PWD Juction, Kohima - NPCB",23-01-2024 06:00:00,25.6635413,94.0989878,SO2,87,95,91
India,Odisha,Angul,"Hakimapada, Angul - OSPCB",23-01-2024 06:00:00,20.832874,85.104082,PM2.5,240,334,306
India,Odisha,Angul,"Hakimapada, Angul - OSPCB",23-01-2024 06:00:00,20.832874,85.104082,NO2,14,48,25
India,Odisha,Angul,"Hakimapada, Angul - OSPCB",23-01-2024 06:00:00,20.832874,85.104082,SO2,18,130,56
India,Odisha,Balasore,"Kalidaspur, Balasore - OSPCB",23-01-2024 06:00:00,21.51161,86.89088,PM10,109,457,204
India,Odisha,Balasore,"Kalidaspur, Balasore - OSPCB",23-01-2024 06:00:00,21.51161,86.89088,NH3,4,12,6
India,Odisha,Baripada,"Meher Colony, Baripada - OSPCB",23-01-2024 06:00:00,21.941841,86.728318,PM10,86,224,137
India,Odisha,Baripada,"Meher Colony, Baripada - OSPCB",23-01-2024 06:00:00,21.941841,86.728318,OZONE,10,32,11
India,Odisha,Bhubaneswar,"Lingraj Mandir, Bhubaneswar - OSPCB",23-01-2024 06:00:00,20.240790,85.836784,NO2,31,63,41
India,Odisha,Bileipada,"Tata Township, Bileipada - OSPCB",23-01-2024 06:00:00,22.06156703,85.47409613,NO2,6,12,9
India,Odisha,Brajrajnagar,"GM Office, Brajrajnagar - OSPCB",23-01-2024 06:00:00,21.8004996,83.8396977,CO,42,104,62
India,Odisha,Byasanagar,"Ferro Chrome Colony, Byasanagar - OSPCB",23-01-2024 06:00:00,20.94185,86.11510,SO2,5,16,10
India,Odisha,Cuttack,"CDA Area, Cuttack - OSPCB",23-01-2024 06:00:00,20.48891     ,85.84768     ,NO2,23,62,37
India,Odisha,Keonjhar,"Jagamohanpur, Keonjhar - OSPCB",23-01-2024 06:00:00,21.643900,85.599355,SO2,9,12,10
India,Odisha,Rairangpur,"Divisional Forest Office, Rairangpur - OSPCB",23-01-2024 06:00:00,22.265816,86.174829,NO2,7,8,7
India,Odisha,Rourkela,"Raghunathpali, Rourkela - OSPCB",23-01-2024 06:00:00,22.220833,84.809444,PM10,66,161,108
India,Odisha,Suakati,"OMC Colony, Suakati - OSPCB",23-01-2024 06:00:00,21.606865,85.510538,NO2,NA,NA,NA
India,Odisha,Suakati,"OMC Colony, Suakati - OSPCB",23-01-2024 06:00:00,21.606865,85.510538,CO,12,32,21
India,Odisha,Talcher,"Talcher Coalfields,Talcher - OSPCB",23-01-2024 06:00:00,20.9360711,85.1707021,PM2.5,54,351,164
India,Odisha,Talcher,"Talcher Coalfields,Talcher - OSPCB",23-01-2024 06:00:00,20.9360711,85.1707021,CO,7,34,16
India,Odisha,Tensa,"Barsua Iron Ore Mines, Tensa - OSPCB",23-01-2024 06:00:00,21.869985,85.167016,PM2.5,28,165,95
India,Punjab,Amritsar,"Golden Temple, Amritsar - PPCB",23-01-2024 06:00:00,31.620000,74.876512,PM2.5,96,220,151
India,Punjab,Amritsar,"Golden Temple, Amritsar - PPCB",23-01-2024 06:00:00,31.620000,74.876512,NH3,5,6,5
India,Punjab,Amritsar,"Golden Temple, Amritsar - PPCB",23-01-2024 06:00:00,31.620000,74.876512,SO2,19,22,21
India,Punjab,Jalandhar,"Civil Line, Jalandhar - PPCB",23-01-2024 06:00:00,31.321907,75.578914,SO2,10,15,11
India,Punjab,Khanna,"Kalal Majra, Khanna - PPCB",23-01-2024 06:00:00,30.736056 ,76.209694,PM2.5,46,194,134
India,Punjab,Khanna,"Kalal Majra, Khanna - PPCB",23-01-2024 06:00:00,30.736056 ,76.209694,SO2,7,35,17
India,Punjab,Ludhiana,"Punjab Agricultural University, Ludhiana - PPCB",23-01-2024 06:00:00,30.9028,75.8086,NH3,8,12,10
India,Punjab,Ludhiana,"Punjab Agricultural University, Ludhiana - PPCB",23-01-2024 06:00:00,30.9028,75.8086,SO2,4,33,16
India,Punjab,Ludhiana,"Punjab Agricultural University, Ludhiana - PPCB",23-01-2024 06:00:00,30.9028,75.8086,CO,4,109,64
India,Punjab,Mandi Gobindgarh,"RIMT University, Mandi Gobindgarh - PPCB",23-01-2024 06:00:00,30.649961,76.331442,PM10,122,201,162
India,Punjab,Mandi Gobindgarh,"RIMT University, Mandi Gobindgarh - PPCB",23-01-2024 06:00:00,30.649961,76.331442,SO2,4,31,14
India,Punjab,Mandi Gobindgarh,"RIMT University, Mandi Gobindgarh - PPCB",23-01-2024 06:00:00,30.649961,76.331442,OZONE,29,34,33
India,Punjab,Patiala,"Model Town, Patiala - PPCB",23-01-2024 06:00:00,30.349388,76.366642,PM2.5,91,280,213
India,Punjab,Patiala,"Model Town, Patiala - PPCB",23-01-2024 06:00:00,30.349388,76.366642,NO2,19,34,29
India,Punjab,Rupnagar,"Ratanpura, Rupnagar - Ambuja Cements",23-01-2024 06:00:00,31.0325454,76.5623046,SO2,3,6,5
India,Punjab,Rupnagar,"Ratanpura, Rupnagar - Ambuja Cements",23-01-2024 06:00:00,31.0325454,76.5623046,CO,68,104,84
India,Rajasthan,Ajmer,"Civil Lines,  Ajmer - RSPCB",23-01-2024 06:00:00,26.470859,74.646594,OZONE,4,68,11
India,Rajasthan,Baran,"Bamboliya, Baran - RSPCB",23-01-2024 06:00:00,25.106006,76.469948,PM10,39,123,89
India,Rajasthan,Baran,"Bamboliya, Baran - RSPCB",23-01-2024 06:00:00,25.106006,76.469948,OZONE,16,120,40
India,Rajasthan,Barmer,"Railway Colony, Barmer - RSPCB",23-01-2024 06:00:00,25.747299,71.393989,OZONE,42,102,68
India,Rajasthan,Bhilwara,"Pratap Nagar, Bhilwara - RSPCB",23-01-2024 06:00:00,25.339605,74.618883,PM10,15,381,154
India,Rajasthan,Bhilwara,"Pratap Nagar, Bhilwara - RSPCB",23-01-2024 06:00:00,25.339605,74.618883,OZONE,6,109,27
India,Rajasthan,Bhiwadi,"RIICO Ind. Area III, Bhiwadi - RSPCB",23-01-2024 06:00:00,28.194909,76.862296,PM2.5,103,441,271
India,Rajasthan,Bhiwadi,"RIICO Ind. Area III, Bhiwadi - RSPCB",23-01-2024 06:00:00,28.194909,76.862296,PM10,112,414,204
India,Rajasthan,Bikaner,"MM Ground, Bikaner - RSPCB",23-01-2024 06:00:00,28.018792,73.292658,OZONE,2,88,20
India,Rajasthan,Chittorgarh,"Shastri Nagar, Chittorgarh - RSPCB",23-01-2024 06:00:00,24.892047,74.623527,PM2.5,8,199,82
India,Rajasthan,Chittorgarh,"Shastri Nagar, Chittorgarh - RSPCB",23-01-2024 06:00:00,24.892047,74.623527,CO,50,102,67
India,Rajasthan,Churu,"Subash Chowk, Churu - RSPCB",23-01-2024 06:00:00,28.296139,74.961696,PM2.5,79,302,167
India,Rajasthan,Dausa,"Khatikan Mohalla, Dausa - RSPCB",23-01-2024 06:00:00,26.895552,76.334753,SO2,3,72,8
India,Rajasthan,Dholpur,"Raja Ganj, Dholpur - RSPCB",23-01-2024 06:00:00,26.699557,77.898881,PM2.5,82,323,243
India,Rajasthan,Dholpur,"Raja Ganj, Dholpur - RSPCB",23-01-2024 06:00:00,26.699557,77.898881,PM10,106,180,148
India,Rajasthan,Dholpur,"Raja Ganj, Dholpur - RSPCB",23-01-2024 06:00:00,26.699557,77.898881,CO,1,71,44
India,Rajasthan,Dungarpur,"Bhoiwada, Dungarpur - RSPCB",23-01-2024 06:00:00,23.837789,73.714926,PM10,55,186,120
India,Rajasthan,Jaipur,"Adarsh Nagar, Jaipur - RSPCB",23-01-2024 06:00:00,26.902909,75.836858,PM2.5,58,338,178
India,Rajasthan,Jaipur,"Adarsh Nagar, Jaipur - RSPCB",23-01-2024 06:00:00,26.902909,75.836858,PM10,78,175,111
India,Rajasthan,Jaipur,"Adarsh Nagar, Jaipur - RSPCB",23-01-2024 06:00:00,26.902909,75.836858,CO,18,90,56
India,Rajasthan,Jaipur,"Adarsh Nagar, Jaipur - RSPCB",23-01-2024 06:00:00,26.902909,75.836858,OZONE,20,81,40
India,Rajasthan,Jaipur,"Mansarovar Sector-12, Jaipur - RSPCB",23-01-2024 06:00:00,26.843698,75.766894,PM10,93,377,191
India,Rajasthan,Jaipur,"Sector-2 Murlipura, Jaipur - RSPCB",23-01-2024 06:00:00,26.960669,75.771817,NH3,1,10,3
India,Rajasthan,Jaipur,"Sector-2 Murlipura, Jaipur - RSPCB",23-01-2024 06:00:00,26.960669,75.771817,SO2,6,23,12
India,Rajasthan,Jaipur,"Sector-2 Murlipura, Jaipur - RSPCB",23-01-2024 06:00:00,26.960669,75.771817,CO,42,115,71
India,Rajasthan,Jaipur,"Shastri Nagar, Jaipur - RSPCB",23-01-2024 06:00:00,26.9502929,75.730943,PM10,10,210,121
India,Rajasthan,Jaisalmer,"Sadar Bazar, Jaisalmer - RSPCB",23-01-2024 06:00:00,26.912329,70.909168,PM10,77,288,124
India,Rajasthan,Jaisalmer,"Sadar Bazar, Jaisalmer - RSPCB",23-01-2024 06:00:00,26.912329,70.909168,SO2,5,24,9
India,Rajasthan,Jaisalmer,"Sadar Bazar, Jaisalmer - RSPCB",23-01-2024 06:00:00,26.912329,70.909168,CO,17,80,54
India,Rajasthan,Jalore,"Mudtra Sili, Jalore - RSPCB",23-01-2024 06:00:00,25.344694,72.626208,PM2.5,23,419,194
India,Rajasthan,Jalore,"Mudtra Sili, Jalore - RSPCB",23-01-2024 06:00:00,25.344694,72.626208,NO2,10,116,58
India,Rajasthan,Jalore,"Mudtra Sili, Jalore - RSPCB",23-01-2024 06:00:00,25.344694,72.626208,CO,27,139,77
India,Rajasthan,Jhunjhunu,"Indra Nagar, Jhunjhunu - RSPCB",23-01-2024 06:00:00,28.108988,75.386577,SO2,1,3,1
India,Rajasthan,Jodhpur,"Collectorate, Jodhpur - RSPCB",23-01-2024 06:00:00,26.268249,73.0193853,PM10,75,500,271
India,Rajasthan,Jodhpur,"Jhalamand, Jodhpur - RSPCB",23-01-2024 06:00:00,26.215415,73.070156,PM2.5,18,395,152
India,Rajasthan,Jodhpur,"Jhalamand, Jodhpur - RSPCB",23-01-2024 06:00:00,26.215415,73.070156,CO,12,108,79
India,Rajasthan,Karauli,"Satyawati Vihar, Karauli - RSPCB",23-01-2024 06:00:00,26.506177,77.025989,PM10,185,421,300
India,Rajasthan,Kota,"Nayapura, Kota - RSPCB",23-01-2024 06:00:00,25.196024,75.855668,CO,5,152,51
India,Rajasthan,Kota,"Shrinath Puram, Kota - RSPCB",23-01-2024 06:00:00,25.14389,75.821256,CO,10,64,20
India,Rajasthan,Nagaur,"Karni Colony, Nagaur - RSPCB",23-01-2024 06:00:00,27.213494,73.734444,PM2.5,17,359,146
India,Rajasthan,Nagaur,"Karni Colony, Nagaur - RSPCB",23-01-2024 06:00:00,27.213494,73.734444,SO2,2,43,8
India,Rajasthan,Pali,"Indira Colony Vistar, Pali - RSPCB",23-01-2024 06:00:00,25.771061, 73.340227,CO,2,104,45
India,Rajasthan,Pratapgarh,"Pragati Nagar, Pratapgarh - RSPCB",23-01-2024 06:00:00,24.041198,74.780702,NO2,14,31,19
India,Rajasthan,Rajsamand,"Dhoinda, Rajsamand - RSPCB",23-01-2024 06:00:00,25.036360,73.883502,SO2,4,16,9
India,Rajasthan,Sawai Madhopur,"Sahu Nagar, Sawai Madhopur - RSPCB",23-01-2024 06:00:00,26.031443,76.359327,PM10,74,212,141
India,Rajasthan,Sikar,"Radhakishan Pura, Sikar - RSPCB",23-01-2024 06:00:00,27.608912,75.153302,PM10,83,382,178
India,Rajasthan,Sikar,"Radhakishan Pura, Sikar - RSPCB",23-01-2024 06:00:00,27.608912,75.153302,NH3,2,5,4
India,Rajasthan,Sikar,"Radhakishan Pura, Sikar - RSPCB",23-01-2024 06:00:00,27.608912,75.153302,CO,19,98,58
India,Rajasthan,Sirohi,"Vedhaynath Colony, Sirohi - RSPCB",23-01-2024 06:00:00,24.885261,72.857549,PM2.5,20,345,90
India,Rajasthan,Sirohi,"Vedhaynath Colony, Sirohi - RSPCB",23-01-2024 06:00:00,24.885261,72.857549,NO2,10,109,45
India,Rajasthan,Sri Ganganagar,"Old City, Sri Ganganagar - RSPCB",23-01-2024 06:00:00,29.931624,73.864511,PM2.5,167,419,324
India,Rajasthan,Sri Ganganagar,"Old City, Sri Ganganagar - RSPCB",23-01-2024 06:00:00,29.931624,73.864511,SO2,4,11,6
India,Rajasthan,Sri Ganganagar,"Old City, Sri Ganganagar - RSPCB",23-01-2024 06:00:00,29.931624,73.864511,CO,39,110,59
India,Rajasthan,Tonk,"Shastri Nagar, Tonk - RSPCB",23-01-2024 06:00:00,26.159933,75.780517,NO2,21,113,41
India,Rajasthan,Tonk,"Shastri Nagar, Tonk - RSPCB",23-01-2024 06:00:00,26.159933,75.780517,SO2,1,4,3
India,Rajasthan,Tonk,"Shastri Nagar, Tonk - RSPCB",23-01-2024 06:00:00,26.159933,75.780517,OZONE,2,76,21
India,Rajasthan,Udaipur,"Ashok Nagar, Udaipur - RSPCB",23-01-2024 06:00:00,24.5886166,73.6321397,SO2,17,88,29
India,Rajasthan,Udaipur,"Ashok Nagar, Udaipur - RSPCB",23-01-2024 06:00:00,24.5886166,73.6321397,OZONE,10,16,12
India,TamilNadu,Ariyalur,"Keelapalur, Ariyalur - TNPCB",23-01-2024 06:00:00,11.06825,79.07033,PM2.5,25,38,30
India,TamilNadu,Chengalpattu,"Crescent University, Chengalpattu - TNPCB",23-01-2024 06:00:00,12.8777316,80.0834807,OZONE,NA,NA,NA
India,TamilNadu,Chennai,"Alandur Bus Depot, Chennai - CPCB",23-01-2024 06:00:00,12.9099161,80.1076538,NH3,6,23,10
India,TamilNadu,Chennai,"Arumbakkam, Chennai - TNPCB",23-01-2024 06:00:00,13.0664,80.2112 ,NO2,7,49,18
India,TamilNadu,Chennai,"Kodungaiyur, Chennai - TNPCB",23-01-2024 06:00:00,13.1278,80.2642,SO2,1,8,3
India,TamilNadu,Chennai,"Manali, Chennai - CPCB",23-01-2024 06:00:00,13.164544,80.26285,SO2,5,9,6
India,TamilNadu,Chennai,"Manali, Chennai - CPCB",23-01-2024 06:00:00,13.164544,80.26285,OZONE,8,14,10
India,TamilNadu,Chennai,"Royapuram, Chennai - TNPCB",23-01-2024 06:00:00,13.1036,80.2909,SO2,1,6,3
India,TamilNadu,Chennai,"Velachery Res. Area, Chennai - CPCB",23-01-2024 06:00:00,13.0052189,80.2398125,OZONE,20,39,25
India,TamilNadu,Coimbatore,"PSG College of Arts and Science, Coimbatore - TNPCB",23-01-2024 06:00:00,11.0328,77.0349,NO2,1,15,5
India,TamilNadu,Coimbatore,"PSG College of Arts and Science, Coimbatore - TNPCB",23-01-2024 06:00:00,11.0328,77.0349,SO2,15,21,18
India,TamilNadu,Coimbatore,"PSG College of Arts and Science, Coimbatore - TNPCB",23-01-2024 06:00:00,11.0328,77.0349,CO,3,56,22
India,TamilNadu,Cuddalore,"Semmandalam, Cuddalore - TNPCB",23-01-2024 06:00:00,11.7637683,79.7499835,PM2.5,17,91,51
India,TamilNadu,Cuddalore,"Semmandalam, Cuddalore - TNPCB",23-01-2024 06:00:00,11.7637683,79.7499835,PM10,13,69,38
India,TamilNadu,Cuddalore,"Semmandalam, Cuddalore - TNPCB",23-01-2024 06:00:00,11.7637683,79.7499835,NO2,10,52,24
India,TamilNadu,Cuddalore,"Semmandalam, Cuddalore - TNPCB",23-01-2024 06:00:00,11.7637683,79.7499835,OZONE,1,2,2
India,TamilNadu,Kanchipuram,"Kilambi, Kanchipuram - TNPCB",23-01-2024 06:00:00,12.864618,79.659968,PM2.5,NA,NA,NA
India,TamilNadu,Kanchipuram,"Kilambi, Kanchipuram - TNPCB",23-01-2024 06:00:00,12.864618,79.659968,NO2,NA,NA,NA
India,TamilNadu,Ooty,"Bombay Castel, Ooty - TNPCB",23-01-2024 06:00:00,11.4068288,76.7138973,NO2,NA,NA,NA
India,TamilNadu,Ooty,"Bombay Castel, Ooty - TNPCB",23-01-2024 06:00:00,11.4068288,76.7138973,SO2,13,13,13
India,TamilNadu,Palkalaiperur,"Bharathidasan University, Palkalaiperur - TNPCB",23-01-2024 06:00:00,10.681158,78.741746,PM2.5,23,41,33
India,TamilNadu,Palkalaiperur,"Bharathidasan University, Palkalaiperur - TNPCB",23-01-2024 06:00:00,10.681158,78.741746,PM10,28,51,41
India,TamilNadu,Ramanathapuram,"Chalai Bazaar, Ramanathapuram - TNPCB",23-01-2024 06:00:00,9.36399,78.831977,SO2,5,8,6
India,TamilNadu,Salem,"Sona College of Technology, Salem - TNPCB",23-01-2024 06:00:00,11.679111,78.125052,PM10,NA,NA,NA
India,TamilNadu,Salem,"Sona College of Technology, Salem - TNPCB",23-01-2024 06:00:00,11.679111,78.125052,SO2,21,22,21
India,TamilNadu,Salem,"Sona College of Technology, Salem - TNPCB",23-01-2024 06:00:00,11.679111,78.125052,CO,34,36,35
India,TamilNadu,Thoothukudi,"Meelavittan, Thoothukudi - TNPCB",23-01-2024 06:00:00,8.816428 ,78.099039,PM10,27,63,42
India,TamilNadu,Tirupur,"Kumaran College, Tirupur - TNPCB",23-01-2024 06:00:00,11.0973603,77.3228673,OZONE,6,7,7
India,TamilNadu,Vellore,"Vasanthapuram, Vellore - TNPCB",23-01-2024 06:00:00,12.909494,79.131861,NO2,NA,NA,NA
India,TamilNadu,Vellore,"Vasanthapuram, Vellore - TNPCB",23-01-2024 06:00:00,12.909494,79.131861,OZONE,NA,NA,NA
India,Telangana,Hyderabad,"Bollaram Industrial Area, Hyderabad - TSPCB",23-01-2024 06:00:00,17.540891,78.358528,NH3,2,3,3
India,Telangana,Hyderabad,"Central University, Hyderabad - TSPCB",23-01-2024 06:00:00,17.460103,78.334361,SO2,3,9,6
India,Telangana,Hyderabad,"ECIL Kapra, Hyderabad - TSPCB",23-01-2024 06:00:00,17.470431,78.566959,SO2,1,19,7
India,Telangana,Hyderabad,"ICRISAT Patancheru, Hyderabad - TSPCB",23-01-2024 06:00:00,17.518400,78.278777,NO2,15,18,17
India,Telangana,Hyderabad,"IITH Kandi, Hyderabad - TSPCB",23-01-2024 06:00:00,17.585705,78.126199,NO2,11,13,12
India,Telangana,Hyderabad,"IITH Kandi, Hyderabad - TSPCB",23-01-2024 06:00:00,17.585705,78.126199,OZONE,28,28,28
India,Telangana,Hyderabad,"Kokapet, Hyderabad - TSPCB",23-01-2024 06:00:00,17.393559,78.339194,SO2,5,8,6
India,Telangana,Hyderabad,"Kokapet, Hyderabad - TSPCB",23-01-2024 06:00:00,17.393559,78.339194,OZONE,2,17,3
India,Telangana,Hyderabad,"Kompally Municipal Office, Hyderabad - TSPCB",23-01-2024 06:00:00,17.544899,78.486949,NO2,5,8,5
India,Telangana,Hyderabad,"Nacharam_TSIIC IALA, Hyderabad - TSPCB",23-01-2024 06:00:00,17.429398,78.569354,CO,20,23,20
India,Telangana,Hyderabad,"New Malakpet, Hyderabad - TSPCB",23-01-2024 06:00:00,17.37206,78.50864,NO2,17,27,21
India,Telangana,Hyderabad,"Ramachandrapuram, Hyderabad - TSPCB",23-01-2024 06:00:00,17.528544,78.286195,PM2.5,30,37,35
India,Telangana,Hyderabad,"Ramachandrapuram, Hyderabad - TSPCB",23-01-2024 06:00:00,17.528544,78.286195,CO,21,34,22
India,Telangana,Hyderabad,"Sanathnagar, Hyderabad - TSPCB",23-01-2024 06:00:00,17.4559458,78.4332152,PM2.5,49,98,74
India,Telangana,Hyderabad,"Somajiguda, Hyderabad - TSPCB",23-01-2024 06:00:00,17.417094,78.457437,CO,NA,NA,NA
India,Telangana,Hyderabad,"Zoo Park, Hyderabad - TSPCB",23-01-2024 06:00:00,17.349694,78.451437,NO2,16,35,26
India,Uttar_Pradesh,Agra,"Rohta, Agra - UPPCB",23-01-2024 06:00:00,27.106972,78.000111,PM10,60,176,96
India,Uttar_Pradesh,Agra,"Rohta, Agra - UPPCB",23-01-2024 06:00:00,27.106972,78.000111,SO2,13,25,17
India,Uttar_Pradesh,Agra,"Sanjay Palace, Agra - UPPCB",23-01-2024 06:00:00,27.19865833,78.00598056,PM10,NA,NA,NA
India,Uttar_Pradesh,Agra,"Sector-3B Avas Vikas Colony, Agra - UPPCB",23-01-2024 06:00:00,27.19412,77.96237,SO2,14,17,15
India,Uttar_Pradesh,Agra,"Sector-3B Avas Vikas Colony, Agra - UPPCB",23-01-2024 06:00:00,27.19412,77.96237,OZONE,13,14,14
India,Uttar_Pradesh,Agra,"Shastripuram, Agra - UPPCB",23-01-2024 06:00:00,27.19862,77.92066,CO,8,15,10
India,Uttar_Pradesh,Bareilly,"Civil Lines, Bareilly - UPPCB",23-01-2024 06:00:00,28.359581,79.414455,SO2,40,42,40
India,Uttar_Pradesh,Bareilly,"Rajendra Nagar, Bareilly - UPPCB",23-01-2024 06:00:00,28.38910936,79.42963708,NH3,1,1,1
India,Uttar_Pradesh,Bareilly,"Rajendra Nagar, Bareilly - UPPCB",23-01-2024 06:00:00,28.38910936,79.42963708,SO2,39,40,40
India,Uttar_Pradesh,Bulandshahr,"Yamunapuram, Bulandshahr - UPPCB",23-01-2024 06:00:00,28.406963,77.849831,NH3,11,17,13
India,Uttar_Pradesh,Firozabad,"Nagla Bhau, Firozabad - UPPCB",23-01-2024 06:00:00,27.168897,78.376960,PM2.5,56,339,151
India,Uttar_Pradesh,Firozabad,"Vibhab Nagar, Firozabad - UPPCB",23-01-2024 06:00:00,27.1594,78.3953,PM10,36,185,78
India,Uttar_Pradesh,Firozabad,"Vibhab Nagar, Firozabad - UPPCB",23-01-2024 06:00:00,27.1594,78.3953,NO2,14,14,14
India,Uttar_Pradesh,Ghaziabad,"Loni, Ghaziabad - UPPCB",23-01-2024 06:00:00,28.757294,77.278792,NH3,2,16,6
India,Uttar_Pradesh,Ghaziabad,"Vasundhara, Ghaziabad - UPPCB",23-01-2024 06:00:00,28.6603346,77.3572563,SO2,2,28,14
India,Uttar_Pradesh,Ghaziabad,"Vasundhara, Ghaziabad - UPPCB",23-01-2024 06:00:00,28.6603346,77.3572563,CO,27,113,61
India,Uttar_Pradesh,Gorakhpur,"Madan Mohan Malaviya University of Technology, Gorakhpur - UPPCB",23-01-2024 06:00:00,26.730136,83.433859,PM2.5,103,266,158
India,Uttar_Pradesh,Gorakhpur,"Madan Mohan Malaviya University of Technology, Gorakhpur - UPPCB",23-01-2024 06:00:00,26.730136,83.433859,SO2,43,43,43
India,Uttar_Pradesh,Greater Noida,"Knowledge Park - III, Greater Noida - UPPCB",23-01-2024 06:00:00,28.47272,77.482000,PM10,140,214,178
India,Uttar_Pradesh,Greater Noida,"Knowledge Park - III, Greater Noida - UPPCB",23-01-2024 06:00:00,28.47272,77.482000,NO2,12,65,34
India,Uttar_Pradesh,Hapur,"Anand Vihar, Hapur - UPPCB",23-01-2024 06:00:00,28.725645,77.749675,NO2,4,58,26
India,Uttar_Pradesh,Kanpur,"FTI Kidwai Nagar, Kanpur - UPPCB",23-01-2024 06:00:00,26.428282,80.327067,NO2,14,38,15
India,Uttar_Pradesh,Kanpur,"FTI Kidwai Nagar, Kanpur - UPPCB",23-01-2024 06:00:00,26.428282,80.327067,SO2,21,22,21
India,Uttar_Pradesh,Kanpur,"Nehru Nagar, Kanpur - UPPCB",23-01-2024 06:00:00,26.4703136,80.3229863,PM2.5,106,500,250
India,Uttar_Pradesh,Kanpur,"Nehru Nagar, Kanpur - UPPCB",23-01-2024 06:00:00,26.4703136,80.3229863,SO2,1,37,12
India,Uttar_Pradesh,Kanpur,"Nehru Nagar, Kanpur - UPPCB",23-01-2024 06:00:00,26.4703136,80.3229863,OZONE,16,84,18
India,Uttar_Pradesh,Lucknow,"Gomti Nagar, Lucknow - UPPCB",23-01-2024 06:00:00,26.868120,81.005119,OZONE,37,51,39
India,Uttar_Pradesh,Lucknow,"Kendriya Vidyalaya, Lucknow - CPCB",23-01-2024 06:00:00,26.906111,80.948222,CO,36,104,67
India,Uttar_Pradesh,Lucknow,"Kukrail Picnic Spot-1, Lucknow - UPPCB",23-01-2024 06:00:00,26.90723,80.98579,PM10,108,170,130
India,Uttar_Pradesh,Lucknow,"Lalbagh, Lucknow - CPCB",23-01-2024 06:00:00,26.8458805,80.9365541,SO2,1,28,10
India,Uttar_Pradesh,Lucknow,"Lalbagh, Lucknow - CPCB",23-01-2024 06:00:00,26.8458805,80.9365541,CO,74,173,117
India,Uttar_Pradesh,Lucknow,"Talkatora District Industries Center, Lucknow - CPCB",23-01-2024 06:00:00,26.83399722,80.8917361,SO2,2,36,11
India,Uttar_Pradesh,Lucknow,"Talkatora District Industries Center, Lucknow - CPCB",23-01-2024 06:00:00,26.83399722,80.8917361,CO,5,140,44
India,Uttar_Pradesh,Meerut,"Ganga Nagar, Meerut - UPPCB",23-01-2024 06:00:00,28.999264,77.7590354,SO2,NA,NA,NA
India,Uttar_Pradesh,Meerut,"Pallavpuram Phase 2, Meerut - UPPCB",23-01-2024 06:00:00,29.063510,77.709723,PM2.5,96,343,215
India,Uttar_Pradesh,Moradabad,"Buddhi Vihar, Moradabad - UPPCB",23-01-2024 06:00:00,28.83526,78.74460,NH3,6,8,7
India,Uttar_Pradesh,Moradabad,"Buddhi Vihar, Moradabad - UPPCB",23-01-2024 06:00:00,28.83526,78.74460,SO2,12,17,14
India,Uttar_Pradesh,Moradabad,"Eco Herbal Park, Moradabad - UPPCB",23-01-2024 06:00:00,28.840739,78.697531,NO2,18,37,26
India,Uttar_Pradesh,Moradabad,"Eco Herbal Park, Moradabad - UPPCB",23-01-2024 06:00:00,28.840739,78.697531,SO2,4,27,17
India,Uttar_Pradesh,Moradabad,"Employment Office, Moradabad - UPPCB",23-01-2024 06:00:00,28.88528,78.73880,NH3,4,4,4
India,Uttar_Pradesh,Moradabad,"Employment Office, Moradabad - UPPCB",23-01-2024 06:00:00,28.88528,78.73880,SO2,24,48,27
India,Uttar_Pradesh,Moradabad,"Kashiram Nagar, Moradabad - UPPCB",23-01-2024 06:00:00,28.849399,78.742362,PM2.5,68,278,127
India,Uttar_Pradesh,Moradabad,"Kashiram Nagar, Moradabad - UPPCB",23-01-2024 06:00:00,28.849399,78.742362,NO2,11,29,21
India,Uttar_Pradesh,Moradabad,"Transport Nagar, Moradabad - UPPCB",23-01-2024 06:00:00,28.802625,78.753728,PM2.5,70,246,145
India,Uttar_Pradesh,Moradabad,"Transport Nagar, Moradabad - UPPCB",23-01-2024 06:00:00,28.802625,78.753728,NO2,5,35,26
India,Uttar_Pradesh,Muzaffarnagar,"New Mandi, Muzaffarnagar - UPPCB",23-01-2024 06:00:00,29.4723508,77.7194031,PM10,116,217,174
India,Uttar_Pradesh,Noida,"Sector - 125, Noida - UPPCB",23-01-2024 06:00:00,28.5447608,77.3231257,SO2,15,46,26
India,Uttar_Pradesh,Noida,"Sector - 125, Noida - UPPCB",23-01-2024 06:00:00,28.5447608,77.3231257,CO,42,96,62
India,Uttar_Pradesh,Noida,"Sector - 62, Noida - IMD",23-01-2024 06:00:00,28.6245479,77.3577104,OZONE,29,53,36
India,Uttar_Pradesh,Noida,"Sector-116, Noida - UPPCB",23-01-2024 06:00:00,28.569230,77.393848,PM2.5,217,374,319
India,Uttar_Pradesh,Noida,"Sector-116, Noida - UPPCB",23-01-2024 06:00:00,28.569230,77.393848,NO2,14,63,33
India,Uttar_Pradesh,Noida,"Sector-116, Noida - UPPCB",23-01-2024 06:00:00,28.569230,77.393848,OZONE,5,54,15
India,Uttar_Pradesh,Prayagraj,"Jhunsi, Prayagraj - UPPCB",23-01-2024 06:00:00,25.425602,81.917152,SO2,31,32,31
India,Uttar_Pradesh,Prayagraj,"Motilal Nehru NIT, Prayagraj - UPPCB",23-01-2024 06:00:00,25.494,81.863,CO,14,105,69
India,Uttar_Pradesh,Prayagraj,"Motilal Nehru NIT, Prayagraj - UPPCB",23-01-2024 06:00:00,25.494,81.863,OZONE,6,13,6
India,Uttar_Pradesh,Prayagraj,"Nagar Nigam, Prayagraj - UPPCB",23-01-2024 06:00:00,25.44919916 ,81.82735986 ,NO2,9,9,9
India,Uttar_Pradesh,Prayagraj,"Nagar Nigam, Prayagraj - UPPCB",23-01-2024 06:00:00,25.44919916 ,81.82735986 ,SO2,12,40,24
India,Uttar_Pradesh,Varanasi,"Ardhali Bazar, Varanasi - UPPCB",23-01-2024 06:00:00,25.3505986,82.9083074,PM10,37,161,82
India,Uttar_Pradesh,Varanasi,"IESD Banaras Hindu University, Varanasi - UPPCB",23-01-2024 06:00:00,25.262326,82.995408,PM2.5,13,49,27
India,Uttar_Pradesh,Varanasi,"IESD Banaras Hindu University, Varanasi - UPPCB",23-01-2024 06:00:00,25.262326,82.995408,NH3,1,1,1
India,Uttar_Pradesh,Varanasi,"IESD Banaras Hindu University, Varanasi - UPPCB",23-01-2024 06:00:00,25.262326,82.995408,CO,38,56,44
India,Uttar_Pradesh,Varanasi,"IESD Banaras Hindu University, Varanasi - UPPCB",23-01-2024 06:00:00,25.262326,82.995408,OZONE,1,2,1
India,Uttar_Pradesh,Varanasi,"Maldahiya, Varanasi - UPPCB",23-01-2024 06:00:00,25.32393,82.99687,NO2,5,23,13
India,Uttar_Pradesh,Varanasi,"Maldahiya, Varanasi - UPPCB",23-01-2024 06:00:00,25.32393,82.99687,CO,20,100,58
India,Uttar_Pradesh,Varanasi,"Maldahiya, Varanasi - UPPCB",23-01-2024 06:00:00,25.32393,82.99687,OZONE,4,8,4
India,Uttar_Pradesh,Vrindavan,"Omex Eternity, Vrindavan - UPPCB",23-01-2024 06:00:00,27.5714090,77.6557570,PM10,54,84,71
India,Uttarakhand,Dehradun,"Doon University, Dehradun - UKPCB",23-01-2024 06:00:00,30.269444,78.044167,PM2.5,214,329,274
India,Uttarakhand,Dehradun,"Doon University, Dehradun - UKPCB",23-01-2024 06:00:00,30.269444,78.044167,CO,41,54,48
India,Uttarakhand,Rishikesh,"Shivaji Nagar, Rishikesh - UKPCB",23-01-2024 06:00:00,30.075911,78.2859547,SO2,4,5,4
India,Uttarakhand,Rishikesh,"Shivaji Nagar, Rishikesh - UKPCB",23-01-2024 06:00:00,30.075911,78.2859547,CO,46,56,51
India,West_Bengal,Asansol,"Asansol Court Area, Asansol - WBPCB",23-01-2024 06:00:00,23.685297,86.945968,PM2.5,241,394,300
India,West_Bengal,Asansol,"Asansol Court Area, Asansol - WBPCB",23-01-2024 06:00:00,23.685297,86.945968,CO,8,57,28
India,West_Bengal,Asansol,"Asansol Court Area, Asansol - WBPCB",23-01-2024 06:00:00,23.685297,86.945968,OZONE,12,70,28
India,West_Bengal,Barrackpore,"SVSPA Campus, Barrackpore - WBPCB",23-01-2024 06:00:00,22.7605581,88.3617589,PM10,116,379,184
India,West_Bengal,Barrackpore,"SVSPA Campus, Barrackpore - WBPCB",23-01-2024 06:00:00,22.7605581,88.3617589,NH3,1,5,4
India,West_Bengal,Barrackpore,"SVSPA Campus, Barrackpore - WBPCB",23-01-2024 06:00:00,22.7605581,88.3617589,OZONE,8,67,9
India,West_Bengal,Durgapur,"Sidhu Kanhu Indoor Stadium, Durgapur - WBPCB",23-01-2024 06:00:00,23.5404352,87.2892225,PM10,120,211,157
India,West_Bengal,Durgapur,"Sidhu Kanhu Indoor Stadium, Durgapur - WBPCB",23-01-2024 06:00:00,23.5404352,87.2892225,NH3,3,4,3
India,West_Bengal,Durgapur,"Sidhu Kanhu Indoor Stadium, Durgapur - WBPCB",23-01-2024 06:00:00,23.5404352,87.2892225,SO2,7,77,41
India,West_Bengal,Durgapur,"Sidhu Kanhu Indoor Stadium, Durgapur - WBPCB",23-01-2024 06:00:00,23.5404352,87.2892225,CO,30,64,55
India,West_Bengal,Haldia,"Priyambada Housing Estate, Haldia - WBPCB",23-01-2024 06:00:00,22.06047,88.109737,PM10,127,172,151
India,West_Bengal,Haldia,"Priyambada Housing Estate, Haldia - WBPCB",23-01-2024 06:00:00,22.06047,88.109737,NO2,27,53,36
India,West_Bengal,Howrah,"Belur Math, Howrah - WBPCB",23-01-2024 06:00:00,22.629801,88.352017,NH3,4,12,4
India,West_Bengal,Howrah,"Belur Math, Howrah - WBPCB",23-01-2024 06:00:00,22.629801,88.352017,OZONE,10,58,14
India,West_Bengal,Howrah,"Ghusuri, Howrah - WBPCB",23-01-2024 06:00:00,22.611968,88.347422,PM2.5,NA,NA,NA
India,West_Bengal,Howrah,"Ghusuri, Howrah - WBPCB",23-01-2024 06:00:00,22.611968,88.347422,PM10,NA,NA,NA
India,West_Bengal,Howrah,"Ghusuri, Howrah - WBPCB",23-01-2024 06:00:00,22.611968,88.347422,SO2,5,8,6
India,West_Bengal,Howrah,"Ghusuri, Howrah - WBPCB",23-01-2024 06:00:00,22.611968,88.347422,OZONE,9,16,9
India,West_Bengal,Howrah,"Padmapukur, Howrah - WBPCB",23-01-2024 06:00:00,22.5687319,88.2797276,PM2.5,154,328,248
India,West_Bengal,Howrah,"Padmapukur, Howrah - WBPCB",23-01-2024 06:00:00,22.5687319,88.2797276,NO2,26,83,43
India,West_Bengal,Howrah,"Padmapukur, Howrah - WBPCB",23-01-2024 06:00:00,22.5687319,88.2797276,NH3,10,36,18
India,West_Bengal,Howrah,"Padmapukur, Howrah - WBPCB",23-01-2024 06:00:00,22.5687319,88.2797276,SO2,10,27,14
India,West_Bengal,Howrah,"Padmapukur, Howrah - WBPCB",23-01-2024 06:00:00,22.5687319,88.2797276,CO,16,102,55
India,West_Bengal,Howrah,"Padmapukur, Howrah - WBPCB",23-01-2024 06:00:00,22.5687319,88.2797276,OZONE,1,45,2
India,West_Bengal,Kolkata,"Ballygunge, Kolkata - WBPCB",23-01-2024 06:00:00,22.5367507,88.3638022,NO2,45,145,92
India,West_Bengal,Kolkata,"Bidhannagar, Kolkata - WBPCB",23-01-2024 06:00:00,22.58157048,88.41002457,OZONE,5,50,6
India,West_Bengal,Kolkata,"Fort William, Kolkata - WBPCB",23-01-2024 06:00:00,22.556640,88.342674,NO2,34,126,71
India,West_Bengal,Kolkata,"Jadavpur, Kolkata - WBPCB",23-01-2024 06:00:00,22.49929,88.36917,NH3,2,4,3
India,West_Bengal,Kolkata,"Jadavpur, Kolkata - WBPCB",23-01-2024 06:00:00,22.49929,88.36917,OZONE,9,21,13
India,West_Bengal,Kolkata,"Rabindra Sarobar, Kolkata - WBPCB",23-01-2024 06:00:00,22.51106,88.35142,SO2,7,28,15
India,West_Bengal,Kolkata,"Victoria, Kolkata - WBPCB",23-01-2024 06:00:00,22.5448082,88.3403691,PM10,139,198,167
India,West_Bengal,Kolkata,"Victoria, Kolkata - WBPCB",23-01-2024 06:00:00,22.5448082,88.3403691,CO,27,101,73
India,West_Bengal,Siliguri,"Ward-32 Bapupara, Siliguri - WBPCB",23-01-2024 06:00:00,26.6879226,88.4152495,PM2.5,17,224,130
India,West_Bengal,Siliguri,"Ward-32 Bapupara, Siliguri - WBPCB",23-01-2024 06:00:00,26.6879226,88.4152495,SO2,12,14,13
India,West_Bengal,Siliguri,"Ward-32 Bapupara, Siliguri - WBPCB",23-01-2024 06:00:00,26.6879226,88.4152495,OZONE,7,60,9
India,Andhra_Pradesh,Amaravati,"Secretariat, Amaravati - APPCB",23-01-2024 06:00:00,16.5150833,80.5181667,NH3,4,4,4
India,Andhra_Pradesh,Amaravati,"Secretariat, Amaravati - APPCB",23-01-2024 06:00:00,16.5150833,80.5181667,SO2,11,13,12
India,Andhra_Pradesh,Anantapur,"Gulzarpet, Anantapur - APPCB",23-01-2024 06:00:00,14.675886,77.593027,SO2,4,8,5
India,Andhra_Pradesh,Chittoor,"Gangineni Cheruvu, Chittoor - APPCB",23-01-2024 06:00:00,13.204880,79.097889,NO2,NA,NA,NA
India,Andhra_Pradesh,Tirupati,"Tirumala, Tirupati - APPCB",23-01-2024 06:00:00,13.67,79.35,PM2.5,48,86,66
India,Andhra_Pradesh,Tirupati,"Tirumala, Tirupati - APPCB",23-01-2024 06:00:00,13.67,79.35,NH3,1,2,1
India,Andhra_Pradesh,Tirupati,"Tirumala, Tirupati - APPCB",23-01-2024 06:00:00,13.67,79.35,SO2,7,57,15
India,Andhra_Pradesh,Tirupati,"Vaikuntapuram, Tirupati - APPCB",23-01-2024 06:00:00,13.615387,79.409230,PM2.5,19,35,25
India,Andhra_Pradesh,Tirupati,"Vaikuntapuram, Tirupati - APPCB",23-01-2024 06:00:00,13.615387,79.409230,CO,9,16,13
India,Andhra_Pradesh,Vijayawada,"HB Colony, Vijayawada - APPCB",23-01-2024 06:00:00,16.536107,80.594233,OZONE,NA,NA,NA
India,Andhra_Pradesh,Vijayawada,"Rajiv Gandhi Park, Vijayawada - APPCB",23-01-2024 06:00:00,16.509717,80.612222,NO2,NA,NA,NA
India,Andhra_Pradesh,Vijayawada,"Rajiv Gandhi Park, Vijayawada - APPCB",23-01-2024 06:00:00,16.509717,80.612222,NH3,NA,NA,NA
India,Andhra_Pradesh,Visakhapatnam,"GVM Corporation, Visakhapatnam - APPCB",23-01-2024 06:00:00,17.72,83.3,PM2.5,58,310,200
India,Andhra_Pradesh,Visakhapatnam,"GVM Corporation, Visakhapatnam - APPCB",23-01-2024 06:00:00,17.72,83.3,OZONE,6,35,15
India,Arunachal_Pradesh,Naharlagun,"Naharlagun, Naharlagun - APSPCB",23-01-2024 06:00:00,27.103358,93.679645,PM2.5,16,305,97
India,Arunachal_Pradesh,Naharlagun,"Naharlagun, Naharlagun - APSPCB",23-01-2024 06:00:00,27.103358,93.679645,NO2,2,2,2
India,Arunachal_Pradesh,Naharlagun,"Naharlagun, Naharlagun - APSPCB",23-01-2024 06:00:00,27.103358,93.679645,CO,10,65,27
India,Assam,Byrnihat,"Central Academy for SFS, Byrnihat - PCBA",23-01-2024 06:00:00,26.071318,91.87488,PM2.5,233,451,345
India,Assam,Byrnihat,"Central Academy for SFS, Byrnihat - PCBA",23-01-2024 06:00:00,26.071318,91.87488,NO2,30,137,50
India,Assam,Guwahati,"LGBI Airport, Guwahati - PCBA",23-01-2024 06:00:00,26.10887,91.589544,PM10,76,421,278
India,Assam,Silchar,"Tarapur, Silchar - PCBA",23-01-2024 06:00:00,24.82827,92.79525,SO2,4,12,7
India,Assam,Sivasagar,"Girls College, Sivasagar - PCBA",23-01-2024 06:00:00,26.987634,94.636574,PM2.5,13,50,33
India,Bihar,Araria,"Kharahiya Basti, Araria - BSPCB",23-01-2024 06:00:00,26.146529,87.454184,SO2,9,17,15
India,Bihar,Aurangabad,"Gurdeo Nagar, Aurangabad - BSPCB",23-01-2024 06:00:00,24.75746,84.366208,PM10,NA,NA,NA
India,Bihar,Bettiah,"Kamalnath Nagar, Bettiah - BSPCB",23-01-2024 06:00:00,26.80365,84.51954,NO2,1,4,1
India,Bihar,Bettiah,"Kamalnath Nagar, Bettiah - BSPCB",23-01-2024 06:00:00,26.80365,84.51954,NH3,3,3,3
India,Bihar,Bhagalpur,"Mayaganj, Bhagalpur - BSPCB",23-01-2024 06:00:00,25.265194,87.012947,PM2.5,305,409,341
India,Bihar,Bhagalpur,"Mayaganj, Bhagalpur - BSPCB",23-01-2024 06:00:00,25.265194,87.012947,NO2,4,34,10
India,Bihar,Bihar Sharif,"D M Colony, Bihar Sharif - BSPCB",23-01-2024 06:00:00,25.204762,85.514960,PM10,69,187,132
India,Bihar,Bihar Sharif,"D M Colony, Bihar Sharif - BSPCB",23-01-2024 06:00:00,25.204762,85.514960,NO2,8,11,10
India,Bihar,Bihar Sharif,"D M Colony, Bihar Sharif - BSPCB",23-01-2024 06:00:00,25.204762,85.514960,NH3,2,2,2
India,Bihar,Bihar Sharif,"D M Colony, Bihar Sharif - BSPCB",23-01-2024 06:00:00,25.204762,85.514960,OZONE,4,32,9
India,Bihar,Chhapra,"Darshan Nagar, Chhapra - BSPCB",23-01-2024 06:00:00,25.7808257,84.7446768,SO2,8,41,23
India,Bihar,Gaya,"Collectorate, Gaya - BSPCB",23-01-2024 06:00:00,24.7955,84.9994,OZONE,51,78,61
India,Bihar,Gaya,"Kareemganj, Gaya - BSPCB",23-01-2024 06:00:00,24.792403,84.992416,NH3,1,5,3
India,Bihar,Gaya,"SFTI Kusdihra, Gaya - BSPCB",23-01-2024 06:00:00,24.762518,84.982348,NO2,25,38,30
India,Bihar,Gaya,"SFTI Kusdihra, Gaya - BSPCB",23-01-2024 06:00:00,24.762518,84.982348,SO2,7,11,9
India,Bihar,Gaya,"SFTI Kusdihra, Gaya - BSPCB",23-01-2024 06:00:00,24.762518,84.982348,OZONE,11,60,15
India,Bihar,Hajipur,"Industrial Area, Hajipur - BSPCB",23-01-2024 06:00:00,25.697189,85.245900,PM10,163,353,218
India,Bihar,Hajipur,"Industrial Area, Hajipur - BSPCB",23-01-2024 06:00:00,25.697189,85.245900,CO,43,88,65
India,Bihar,Hajipur,"Industrial Area, Hajipur - BSPCB",23-01-2024 06:00:00,25.697189,85.245900,OZONE,3,69,15
India,Bihar,Katihar,"Mirchaibari, Katihar - BSPCB",23-01-2024 06:00:00,25.560083,87.553265,PM2.5,95,351,191
India,Bihar,Kishanganj,"SDM Office_Khagra, Kishanganj - BSPCB",23-01-2024 06:00:00,26.0881305,87.93840336,PM2.5,8,113,52
India,Bihar,Kishanganj,"SDM Office_Khagra, Kishanganj - BSPCB",23-01-2024 06:00:00,26.0881305,87.93840336,PM10,121,306,203
India,Bihar,Kishanganj,"SDM Office_Khagra, Kishanganj - BSPCB",23-01-2024 06:00:00,26.0881305,87.93840336,NH3,10,11,10
India,Bihar,Kishanganj,"SDM Office_Khagra, Kishanganj - BSPCB",23-01-2024 06:00:00,26.0881305,87.93840336,OZONE,11,19,18
India,Bihar,Manguraha,"Forest Rest House, Manguraha - BSPCB",23-01-2024 06:00:00,27.308328,84.531742,SO2,NA,NA,NA
India,Bihar,Manguraha,"Forest Rest House, Manguraha - BSPCB",23-01-2024 06:00:00,27.308328,84.531742,CO,2,18,4
India,Bihar,Manguraha,"Forest Rest House, Manguraha - BSPCB",23-01-2024 06:00:00,27.308328,84.531742,OZONE,44,82,46
India,Bihar,Motihari,"Gandak Colony, Motihari - BSPCB",23-01-2024 06:00:00,26.63086,84.90051,NO2,65,108,83
India,Bihar,Motihari,"Gandak Colony, Motihari - BSPCB",23-01-2024 06:00:00,26.63086,84.90051,SO2,1,2,1
India,Bihar,Motihari,"Gandak Colony, Motihari - BSPCB",23-01-2024 06:00:00,26.63086,84.90051,OZONE,34,104,60
India,Bihar,Muzaffarpur,"Buddha Colony, Muzaffarpur - BSPCB",23-01-2024 06:00:00,26.11442,85.39813,NO2,21,83,40
India,Bihar,Muzaffarpur,"Buddha Colony, Muzaffarpur - BSPCB",23-01-2024 06:00:00,26.11442,85.39813,CO,52,107,97
India,Bihar,Muzaffarpur,"MIT-Daudpur Kothi, Muzaffarpur - BSPCB",23-01-2024 06:00:00,26.1403345,85.3650192,SO2,11,13,12
India,Bihar,Muzaffarpur,"MIT-Daudpur Kothi, Muzaffarpur - BSPCB",23-01-2024 06:00:00,26.1403345,85.3650192,OZONE,7,59,7
India,Bihar,Patna,"DRM Office Danapur, Patna - BSPCB",23-01-2024 06:00:00,25.586562,85.043586,PM10,142,495,340
India,Bihar,Patna,"Govt. High School Shikarpur, Patna - BSPCB",23-01-2024 06:00:00,25.592539,85.227158,CO,30,118,66
India,Bihar,Patna,"Govt. High School Shikarpur, Patna - BSPCB",23-01-2024 06:00:00,25.592539,85.227158,OZONE,7,41,12
India,Bihar,Patna,"IGSC Planetarium Complex, Patna - BSPCB",23-01-2024 06:00:00,25.610369,85.132568,PM2.5,108,357,206
India,Bihar,Patna,"Muradpur, Patna - BSPCB",23-01-2024 06:00:00,25.619651,85.147382,SO2,2,9,6
India,Bihar,Patna,"Rajbansi Nagar, Patna - BSPCB",23-01-2024 06:00:00,25.599486,85.113666,PM2.5,164,378,285
India,Bihar,Patna,"Rajbansi Nagar, Patna - BSPCB",23-01-2024 06:00:00,25.599486,85.113666,NO2,53,226,107
India,Bihar,Purnia,"Mariam Nagar, Purnia - BSPCB",23-01-2024 06:00:00,25.366336,87.117468,CO,52,105,89
India,Bihar,Rajgir,"Dangi Tola, Rajgir - BSPCB",23-01-2024 06:00:00,25.03280,85.41948,NO2,14,84,34
India,Bihar,Rajgir,"Dangi Tola, Rajgir - BSPCB",23-01-2024 06:00:00,25.03280,85.41948,CO,11,113,25
India,Bihar,Saharsa,"Police Line, Saharsa - BSPCB",23-01-2024 06:00:00,25.892357,86.590325,PM2.5,193,456,349
India,Bihar,Saharsa,"Police Line, Saharsa - BSPCB",23-01-2024 06:00:00,25.892357,86.590325,NO2,6,9,7
India,Bihar,Samastipur,"DM Office_Kasipur, Samastipur - BSPCB",23-01-2024 06:00:00,25.859655,85.77944,NH3,5,5,5
India,Bihar,Sasaram,"Dada Peer, Sasaram - BSPCB",23-01-2024 06:00:00,24.952822,84.002396,PM10,108,174,134
India,Bihar,Sasaram,"Dada Peer, Sasaram - BSPCB",23-01-2024 06:00:00,24.952822,84.002396,NO2,3,11,6
India,Bihar,Sasaram,"Dada Peer, Sasaram - BSPCB",23-01-2024 06:00:00,24.952822,84.002396,SO2,9,39,23
India,Chandigarh,Chandigarh,"Sector 22, Chandigarh - CPCC",23-01-2024 06:00:00,30.735567,76.775714,PM2.5,280,424,365
India,Chandigarh,Chandigarh,"Sector-25, Chandigarh - CPCC",23-01-2024 06:00:00,30.751462,76.762879,PM10,165,275,211
India,Chandigarh,Chandigarh,"Sector-25, Chandigarh - CPCC",23-01-2024 06:00:00,30.751462,76.762879,SO2,8,13,10
India,Chandigarh,Chandigarh,"Sector-53, Chandigarh - CPCC",23-01-2024 06:00:00,30.719859,76.738637,PM10,187,365,277
India,Chhattisgarh,Bhilai,"32Bungalows, Bhilai - CECB",23-01-2024 06:00:00,21.194815,81.314770,OZONE,4,5,4
India,Chhattisgarh,Bhilai,"Civic Center, Bhilai - Bhilai Steel Plant",23-01-2024 06:00:00,21.185571,81.343175,PM2.5,34,158,76
India,Chhattisgarh,Bhilai,"Civic Center, Bhilai - Bhilai Steel Plant",23-01-2024 06:00:00,21.185571,81.343175,SO2,9,11,10
India,Chhattisgarh,Bilaspur,"Mangala, Bilaspur - NTPC",23-01-2024 06:00:00,22.08815,82.13737,PM10,46,339,119
India,Chhattisgarh,Chhal,"Nawapara SECL Colony, Chhal - CECB",23-01-2024 06:00:00,22.118125,83.140608,SO2,11,66,20
India,Chhattisgarh,Korba,"Rampur, Korba - CECB",23-01-2024 06:00:00,22.368195,82.746431,NO2,17,42,32
India,Chhattisgarh,Korba,"Rampur, Korba - CECB",23-01-2024 06:00:00,22.368195,82.746431,OZONE,2,57,9
India,Chhattisgarh,Korba,"Urja Nagar, Korba - CECB",23-01-2024 06:00:00,22.348441,82.549611,NH3,2,10,5
India,Chhattisgarh,Kunjemura,"OP Jindal School, Kunjemura - CECB",23-01-2024 06:00:00,22.126650,83.483212,PM10,23,346,118
India,Chhattisgarh,Kunjemura,"OP Jindal School, Kunjemura - CECB",23-01-2024 06:00:00,22.126650,83.483212,NH3,1,3,2
India,Chhattisgarh,Kunjemura,"OP Jindal School, Kunjemura - CECB",23-01-2024 06:00:00,22.126650,83.483212,OZONE,3,63,5
India,Chhattisgarh,Milupara,"Govt. Higher Secondary School, Milupara - CECB",23-01-2024 06:00:00,22.1910172,83.5197009,PM10,13,52,34
India,Chhattisgarh,Milupara,"Govt. Higher Secondary School, Milupara - CECB",23-01-2024 06:00:00,22.1910172,83.5197009,NO2,10,37,20
India,Chhattisgarh,Raipur,"AIIMS, Raipur - CECB",23-01-2024 06:00:00,21.258815,81.578979,SO2,4,30,11
India,Chhattisgarh,Raipur,"Bhatagaon New ISBT, Raipur - CECB",23-01-2024 06:00:00,21.219665,81.630094,PM2.5,22,286,71
India,Delhi,Delhi,"Alipur, Delhi - DPCC",23-01-2024 06:00:00,28.815329,77.153010,NO2,28,91,47
India,Delhi,Delhi,"Anand Vihar, Delhi - DPCC",23-01-2024 06:00:00,28.647622,77.3158090,SO2,5,23,16
India,Delhi,Delhi,"Ashok Vihar, Delhi - DPCC",23-01-2024 06:00:00,28.695381,77.181665,CO,35,112,73
India,Delhi,Delhi,"Aya Nagar, Delhi - IMD",23-01-2024 06:00:00,28.4706914,77.1099364,NO2,NA,NA,NA
India,Delhi,Delhi,"Bawana, Delhi - DPCC",23-01-2024 06:00:00,28.776200,77.051074,NO2,22,103,59
India,Delhi,Delhi,"Bawana, Delhi - DPCC",23-01-2024 06:00:00,28.776200,77.051074,SO2,4,12,7
India,Delhi,Delhi,"Burari Crossing, Delhi - IMD",23-01-2024 06:00:00,28.7256504,77.2011573,OZONE,22,84,24
India,Delhi,Delhi,"DTU, Delhi - CPCB",23-01-2024 06:00:00,28.7500499,77.1112615,PM2.5,92,370,271
India,Delhi,Delhi,"DTU, Delhi - CPCB",23-01-2024 06:00:00,28.7500499,77.1112615,PM10,177,474,362
India,Delhi,Delhi,"DTU, Delhi - CPCB",23-01-2024 06:00:00,28.7500499,77.1112615,NO2,9,85,52
India,Delhi,Delhi,"DTU, Delhi - CPCB",23-01-2024 06:00:00,28.7500499,77.1112615,SO2,26,29,27
India,Delhi,Delhi,"DTU, Delhi - CPCB",23-01-2024 06:00:00,28.7500499,77.1112615,CO,25,96,77
India,Delhi,Delhi,"DTU, Delhi - CPCB",23-01-2024 06:00:00,28.7500499,77.1112615,OZONE,26,33,27
India,Delhi,Delhi,"Dwarka-Sector 8, Delhi - DPCC ",23-01-2024 06:00:00,28.5710274,77.0719006,PM10,185,420,304
India,Delhi,Delhi,"Dwarka-Sector 8, Delhi - DPCC ",23-01-2024 06:00:00,28.5710274,77.0719006,SO2,4,11,8
India,Delhi,Delhi,"Dwarka-Sector 8, Delhi - DPCC ",23-01-2024 06:00:00,28.5710274,77.0719006,OZONE,4,52,12
India,Delhi,Delhi,"IGI Airport (T3), Delhi - IMD",23-01-2024 06:00:00,28.5627763,77.1180053,PM10,NA,NA,NA
India,Delhi,Delhi,"IHBAS, Dilshad Garden, Delhi - CPCB",23-01-2024 06:00:00,28.6811736,77.3025234,SO2,3,62,22
India,Delhi,Delhi,"IHBAS, Dilshad Garden, Delhi - CPCB",23-01-2024 06:00:00,28.6811736,77.3025234,CO,12,90,56
India,Delhi,Delhi,"ITO, Delhi - CPCB",23-01-2024 06:00:00,28.628624,77.241060,PM2.5,NA,NA,NA
India,Delhi,Delhi,"Jahangirpuri, Delhi - DPCC",23-01-2024 06:00:00,28.732820,77.170633,NO2,23,54,36
India,Delhi,Delhi,"Jawaharlal Nehru Stadium, Delhi - DPCC",23-01-2024 06:00:00,28.580280,77.233829,PM10,161,411,290
India,Delhi,Delhi,"Lodhi Road, Delhi - IITM",23-01-2024 06:00:00,28.588333,77.221667,PM2.5,NA,NA,NA
India,Delhi,Delhi,"Lodhi Road, Delhi - IITM",23-01-2024 06:00:00,28.588333,77.221667,NH3,NA,NA,NA
India,Delhi,Delhi,"Lodhi Road, Delhi - IITM",23-01-2024 06:00:00,28.588333,77.221667,SO2,NA,NA,NA
India,Delhi,Delhi,"Major Dhyan Chand National Stadium, Delhi - DPCC",23-01-2024 06:00:00,28.611281,77.237738,NH3,11,16,14
India,Delhi,Delhi,"Mandir Marg, Delhi - DPCC",23-01-2024 06:00:00,28.636429,77.201067,PM2.5,292,420,367
India,Delhi,Delhi,"Mandir Marg, Delhi - DPCC",23-01-2024 06:00:00,28.636429,77.201067,OZONE,1,11,2
India,Delhi,Delhi,"Mundka, Delhi - DPCC",23-01-2024 06:00:00,28.684678,77.076574,SO2,1,12,5
India,Delhi,Delhi,"NSIT Dwarka, Delhi - CPCB",23-01-2024 06:00:00,28.60909,77.0325413,NO2,26,68,42
India,Delhi,Delhi,"Najafgarh, Delhi - DPCC",23-01-2024 06:00:00,28.570173,76.933762,PM10,156,342,222
India,Delhi,Delhi,"Nehru Nagar, Delhi - DPCC",23-01-2024 06:00:00,28.567890,77.250515,NO2,32,71,49
India,Delhi,Delhi,"Nehru Nagar, Delhi - DPCC",23-01-2024 06:00:00,28.567890,77.250515,NH3,12,25,17
India,Delhi,Delhi,"New Moti Bagh, Delhi - MHUA",23-01-2024 06:00:00,28.57834,77.18400,NO2,NA,NA,NA
India,Delhi,Delhi,"Okhla Phase-2, Delhi - DPCC",23-01-2024 06:00:00,28.530785,77.271255,NO2,38,119,73
India,Delhi,Delhi,"Patparganj, Delhi - DPCC",23-01-2024 06:00:00,28.623763,77.287209,PM10,172,435,328
India,Delhi,Delhi,"Patparganj, Delhi - DPCC",23-01-2024 06:00:00,28.623763,77.287209,NH3,8,13,9
India,Delhi,Delhi,"Patparganj, Delhi - DPCC",23-01-2024 06:00:00,28.623763,77.287209,OZONE,1,7,4
India,Delhi,Delhi,"Punjabi Bagh, Delhi - DPCC",23-01-2024 06:00:00,28.674045,77.131023,SO2,6,10,8
India,Delhi,Delhi,"Pusa, Delhi - DPCC",23-01-2024 06:00:00,28.639652,77.146275,NH3,24,34,30
India,Delhi,Delhi,"Pusa, Delhi - IMD",23-01-2024 06:00:00,28.636110,77.173332,PM10,NA,NA,NA
India,Delhi,Delhi,"Pusa, Delhi - IMD",23-01-2024 06:00:00,28.636110,77.173332,CO,98,114,107
India,Delhi,Delhi,"R K Puram, Delhi - DPCC",23-01-2024 06:00:00,28.563262,77.186937,PM10,178,381,298
India,Delhi,Delhi,"R K Puram, Delhi - DPCC",23-01-2024 06:00:00,28.563262,77.186937,OZONE,9,100,21
India,Delhi,Delhi,"Shadipur, Delhi - CPCB",23-01-2024 06:00:00,28.6514781,77.1473105,NH3,11,17,14
India,Delhi,Delhi,"Shadipur, Delhi - CPCB",23-01-2024 06:00:00,28.6514781,77.1473105,SO2,9,14,11
India,Delhi,Delhi,"Sirifort, Delhi - CPCB",23-01-2024 06:00:00,28.5504249,77.2159377,PM2.5,318,455,389
India,Delhi,Delhi,"Sirifort, Delhi - CPCB",23-01-2024 06:00:00,28.5504249,77.2159377,NO2,138,184,162
India,Delhi,Delhi,"Sri Aurobindo Marg, Delhi - DPCC",23-01-2024 06:00:00,28.531346,77.190156,OZONE,2,16,5
India,Delhi,Delhi,"Vivek Vihar, Delhi - DPCC",23-01-2024 06:00:00,28.672342,77.315260,NH3,5,9,7
India,Delhi,Delhi,"Wazirpur, Delhi - DPCC",23-01-2024 06:00:00,28.699793,77.165453,OZONE,3,92,7
India,Gujarat,Ahmedabad,"Chandkheda, Ahmedabad - IITM",23-01-2024 06:00:00,23.107969,72.574648,PM2.5,42,394,159
India,Gujarat,Ahmedabad,"Gyaspur, Ahmedabad - IITM",23-01-2024 06:00:00,22.977134,72.553024,NO2,9,16,11
India,Gujarat,Ahmedabad,"Gyaspur, Ahmedabad - IITM",23-01-2024 06:00:00,22.977134,72.553024,SO2,6,6,6
India,Gujarat,Ahmedabad,"Maninagar, Ahmedabad - GPCB",23-01-2024 06:00:00,23.002657,72.591912,PM2.5,24,462,188
India,Gujarat,Ahmedabad,"Maninagar, Ahmedabad - GPCB",23-01-2024 06:00:00,23.002657,72.591912,NO2,13,129,61
India,Gujarat,Ahmedabad,"Raikhad, Ahmedabad - IITM",23-01-2024 06:00:00,23.020509,72.579261,PM10,24,180,80
India,Gujarat,Ahmedabad,"Raikhad, Ahmedabad - IITM",23-01-2024 06:00:00,23.020509,72.579261,NO2,14,17,16
India,Gujarat,Ahmedabad,"Raikhad, Ahmedabad - IITM",23-01-2024 06:00:00,23.020509,72.579261,SO2,4,5,4
India,Gujarat,Ahmedabad,"Rakhial, Ahmedabad - IITM",23-01-2024 06:00:00,23.016834,72.625775,NO2,7,109,32
India,Gujarat,Ahmedabad,"SVPI Airport Hansol, Ahmedabad - IITM",23-01-2024 06:00:00,23.076793,72.627874,PM10,48,297,112
India,Gujarat,Ahmedabad,"Sardar Vallabhbhai Patel Stadium, Ahmedabad - IITM",23-01-2024 06:00:00,23.043070,72.562968,OZONE,1,12,2
India,Gujarat,Ankleshwar,"GIDC, Ankleshwar - GPCB",23-01-2024 06:00:00,21.613267,73.010555,NO2,33,34,34
India,Gujarat,Ankleshwar,"GIDC, Ankleshwar - GPCB",23-01-2024 06:00:00,21.613267,73.010555,NH3,6,6,6
India,Gujarat,Gandhinagar,"GIFT City, Gandhinagar - IITM",23-01-2024 06:00:00,23.163798,72.677768,CO,2,14,11
India,Gujarat,Gandhinagar,"IIPHG Lekawada, Gandhinagar - IITM",23-01-2024 06:00:00,23.243639,72.68994,PM2.5,63,318,179
India,Gujarat,Surat,"Science Center, Surat - SMC",23-01-2024 06:00:00,21.170046,72.795405,SO2,13,21,18
India,Gujarat,Vapi,"Phase-1 GIDC, Vapi - GPCB",23-01-2024 06:00:00,20.362421,72.918013,NH3,6,34,17
India,Gujarat,Vapi,"Phase-1 GIDC, Vapi - GPCB",23-01-2024 06:00:00,20.362421,72.918013,CO,99,182,182
India,Gujarat,Vatva,"Phase-4 GIDC, Vatva - GPCB",23-01-2024 06:00:00,22.969611,72.643500,PM2.5,30,419,110
India,Gujarat,Vatva,"Phase-4 GIDC, Vatva - GPCB",23-01-2024 06:00:00,22.969611,72.643500,PM10,39,447,106
India,Gujarat,Vatva,"Phase-4 GIDC, Vatva - GPCB",23-01-2024 06:00:00,22.969611,72.643500,NO2,14,334,75
India,Gujarat,Vatva,"Phase-4 GIDC, Vatva - GPCB",23-01-2024 06:00:00,22.969611,72.643500,NH3,1,2,2
India,Gujarat,Vatva,"Phase-4 GIDC, Vatva - GPCB",23-01-2024 06:00:00,22.969611,72.643500,OZONE,7,36,22
India,Haryana,Ambala,"Patti Mehar, Ambala - HSPCB",23-01-2024 06:00:00,30.379589,76.778328,PM10,NA,NA,NA
India,Haryana,Ambala,"Patti Mehar, Ambala - HSPCB",23-01-2024 06:00:00,30.379589,76.778328,NO2,7,21,14
India,Haryana,Ambala,"Patti Mehar, Ambala - HSPCB",23-01-2024 06:00:00,30.379589,76.778328,CO,30,60,45
India,Haryana,Bahadurgarh,"Arya Nagar, Bahadurgarh - HSPCB",23-01-2024 06:00:00,28.6701,76.9254,CO,37,57,48
India,Haryana,Bahadurgarh,"Arya Nagar, Bahadurgarh - HSPCB",23-01-2024 06:00:00,28.6701,76.9254,OZONE,37,49,44
India,Haryana,Ballabgarh,"Nathu Colony, Ballabgarh - HSPCB",23-01-2024 06:00:00,28.3419248,77.319699,NO2,12,14,12
India,Haryana,Ballabgarh,"Nathu Colony, Ballabgarh - HSPCB",23-01-2024 06:00:00,28.3419248,77.319699,NH3,1,2,2
India,Haryana,Ballabgarh,"Nathu Colony, Ballabgarh - HSPCB",23-01-2024 06:00:00,28.3419248,77.319699,CO,25,67,33
India,Haryana,Charkhi Dadri,"Mini Secretariat, Charkhi Dadri - HSPCB",23-01-2024 06:00:00,28.593883,76.270653,PM2.5,71,211,148
India,Haryana,Charkhi Dadri,"Mini Secretariat, Charkhi Dadri - HSPCB",23-01-2024 06:00:00,28.593883,76.270653,NO2,10,14,11
India,Haryana,Faridabad,"New Industrial Town, Faridabad - HSPCB",23-01-2024 06:00:00,28.39072,77.30059,PM2.5,331,498,375
India,Haryana,Faridabad,"New Industrial Town, Faridabad - HSPCB",23-01-2024 06:00:00,28.39072,77.30059,PM10,272,452,370
India,Haryana,Faridabad,"New Industrial Town, Faridabad - HSPCB",23-01-2024 06:00:00,28.39072,77.30059,CO,26,57,39
India,Haryana,Faridabad,"Sector 11, Faridabad - HSPCB",23-01-2024 06:00:00,28.376058,77.315741,PM2.5,55,314,255
India,Haryana,Faridabad,"Sector 30, Faridabad - HSPCB",23-01-2024 06:00:00,28.4417,77.3217,PM10,129,149,140
India,Haryana,Faridabad,"Sector 30, Faridabad - HSPCB",23-01-2024 06:00:00,28.4417,77.3217,CO,66,119,100
India,Haryana,Faridabad,"Sector- 16A, Faridabad - HSPCB",23-01-2024 06:00:00,28.4088421,77.3099081,NO2,1,44,20
India,Haryana,Faridabad,"Sector- 16A, Faridabad - HSPCB",23-01-2024 06:00:00,28.4088421,77.3099081,CO,2,104,54
India,Haryana,Fatehabad,"Huda Sector, Fatehabad - HSPCB",23-01-2024 06:00:00,29.503664,75.467934,PM2.5,136,246,197
India,Haryana,Fatehabad,"Huda Sector, Fatehabad - HSPCB",23-01-2024 06:00:00,29.503664,75.467934,SO2,2,12,7
India,Haryana,Gurugram,"Sector-51, Gurugram - HSPCB",23-01-2024 06:00:00,28.4227,77.0667,PM10,169,358,259
India,Haryana,Gurugram,"Teri Gram, Gurugram - HSPCB",23-01-2024 06:00:00,28.4275,77.1465,CO,32,67,45
India,Haryana,Gurugram,"Teri Gram, Gurugram - HSPCB",23-01-2024 06:00:00,28.4275,77.1465,OZONE,10,14,11
India,Haryana,Jind,"Police Lines, Jind - HSPCB",23-01-2024 06:00:00,29.307814,76.337619,NO2,7,18,11
India,Haryana,Kaithal,"Rishi Nagar, Kaithal - HSPCB",23-01-2024 06:00:00,29.8006,76.4155,PM2.5,95,278,184
India,Haryana,Kaithal,"Rishi Nagar, Kaithal - HSPCB",23-01-2024 06:00:00,29.8006,76.4155,NO2,24,26,25
India,Haryana,Kaithal,"Rishi Nagar, Kaithal - HSPCB",23-01-2024 06:00:00,29.8006,76.4155,NH3,8,8,8
India,Haryana,Kaithal,"Rishi Nagar, Kaithal - HSPCB",23-01-2024 06:00:00,29.8006,76.4155,OZONE,1,34,2
India,Haryana,Kurukshetra,"Sector-7, Kurukshetra - HSPCB",23-01-2024 06:00:00,29.966942,76.875879,PM10,95,193,156
India,Haryana,Kurukshetra,"Sector-7, Kurukshetra - HSPCB",23-01-2024 06:00:00,29.966942,76.875879,NH3,5,5,5
India,Haryana,Mandikhera,"General Hospital, Mandikhera - HSPCB",23-01-2024 06:00:00,27.9002,76.9938,NO2,16,21,19
India,Haryana,Manesar,"Sector-2 IMT, Manesar - HSPCB",23-01-2024 06:00:00,28.360699,76.936090,PM2.5,54,307,172
India,Haryana,Manesar,"Sector-2 IMT, Manesar - HSPCB",23-01-2024 06:00:00,28.360699,76.936090,PM10,68,190,142
India,Haryana,Narnaul,"Shastri Nagar, Narnaul - HSPCB",23-01-2024 06:00:00,28.060249,76.113115,SO2,12,55,18
India,Haryana,Narnaul,"Shastri Nagar, Narnaul - HSPCB",23-01-2024 06:00:00,28.060249,76.113115,OZONE,21,85,72
India,Haryana,Palwal,"Shyam Nagar, Palwal - HSPCB",23-01-2024 06:00:00,28.1485564,77.3320667,PM2.5,11,67,38
India,Haryana,Palwal,"Shyam Nagar, Palwal - HSPCB",23-01-2024 06:00:00,28.1485564,77.3320667,NH3,2,3,3
India,Haryana,Panchkula,"Sector-6, Panchkula - HSPCB ",23-01-2024 06:00:00,30.7057778,76.8531805555555,PM2.5,89,324,216
India,Haryana,Panipat,"Sector-18, Panipat - HSPCB",23-01-2024 06:00:00,29.497973,76.993331,NO2,28,32,30
India,Haryana,Panipat,"Sector-18, Panipat - HSPCB",23-01-2024 06:00:00,29.497973,76.993331,CO,23,27,26
India,Haryana,Panipat,"Sector-18, Panipat - HSPCB",23-01-2024 06:00:00,29.497973,76.993331,OZONE,30,34,32
India,Haryana,Sirsa,"F-Block, Sirsa - HSPCB",23-01-2024 06:00:00,29.536400,75.015800,PM2.5,101,169,134
India,Haryana,Sirsa,"F-Block, Sirsa - HSPCB",23-01-2024 06:00:00,29.536400,75.015800,SO2,17,25,21
India,Haryana,Sonipat,"Murthal, Sonipat - HSPCB",23-01-2024 06:00:00,29.027200,77.062100,NO2,37,44,40
India,Haryana,Sonipat,"Murthal, Sonipat - HSPCB",23-01-2024 06:00:00,29.027200,77.062100,SO2,13,29,20
India,Haryana,Sonipat,"Murthal, Sonipat - HSPCB",23-01-2024 06:00:00,29.027200,77.062100,CO,2,51,48
India,Haryana,Sonipat,"Murthal, Sonipat - HSPCB",23-01-2024 06:00:00,29.027200,77.062100,OZONE,16,36,19
India,Haryana,Yamuna Nagar,"Gobind Pura, Yamuna Nagar - HSPCB",23-01-2024 06:00:00,30.1480566,77.2893471,NH3,1,6,4
India,Haryana,Yamuna Nagar,"Gobind Pura, Yamuna Nagar - HSPCB",23-01-2024 06:00:00,30.1480566,77.2893471,CO,76,112,96
India,Himachal Pradesh,Baddi,"HIMUDA Complex Phase-1, Baddi - HPPCB",23-01-2024 06:00:00,30.943887,76.801991,OZONE,8,46,9
India,Jharkhand,Dhanbad,"Kalakusuma, Dhanbad - DMC",23-01-2024 06:00:00,23.811548,86.481238,NO2,32,34,33
India,Jharkhand,Dhanbad,"Kalakusuma, Dhanbad - DMC",23-01-2024 06:00:00,23.811548,86.481238,SO2,108,113,111
India,Jharkhand,Pathardih,"Mohalbani Ghat, Pathardih - DMC",23-01-2024 06:00:00,23.669880,86.411725,CO,102,118,112
India,Karnataka,Bagalkot,"Vidayagiri, Bagalkot - KSPCB",23-01-2024 06:00:00,16.172806,75.659694,NH3,1,2,1
India,Karnataka,Bagalkot,"Vidayagiri, Bagalkot - KSPCB",23-01-2024 06:00:00,16.172806,75.659694,SO2,NA,NA,NA
India,Karnataka,Bagalkot,"Vidayagiri, Bagalkot - KSPCB",23-01-2024 06:00:00,16.172806,75.659694,CO,28,56,42
India,Karnataka,Belgaum,"Ramteerth Nagar, Belgaum - KSPCB",23-01-2024 06:00:00,15.888653,74.541751,PM2.5,18,78,40
India,Karnataka,Bengaluru,"City Railway Station, Bengaluru - KSPCB",23-01-2024 06:00:00,12.9756843,77.5660749,PM10,66,82,75
India,Karnataka,Bengaluru,"Hebbal, Bengaluru - KSPCB",23-01-2024 06:00:00,13.029152,77.585901,CO,5,44,12
India,Karnataka,Bengaluru,"Hombegowda Nagar, Bengaluru - KSPCB",23-01-2024 06:00:00,12.938539,77.590100,PM2.5,36,79,53
India,Karnataka,Bengaluru,"Jayanagar 5th Block, Bengaluru - KSPCB",23-01-2024 06:00:00,12.920984,77.584908,PM2.5,69,137,87
India,Karnataka,Bengaluru,"Jayanagar 5th Block, Bengaluru - KSPCB",23-01-2024 06:00:00,12.920984,77.584908,SO2,21,38,29
India,Karnataka,Bengaluru,"Kasturi Nagar, Bengaluru - KSPCB",23-01-2024 06:00:00,13.003872,77.664217,SO2,9,10,10
India,Karnataka,Bengaluru,"RVCE-Mailasandra, Bengaluru - KSPCB",23-01-2024 06:00:00,12.921418,77.502466,PM2.5,60,99,78
India,Karnataka,Bengaluru,"RVCE-Mailasandra, Bengaluru - KSPCB",23-01-2024 06:00:00,12.921418,77.502466,CO,34,72,39
India,Karnataka,Bengaluru,"Shivapura_Peenya, Bengaluru - KSPCB",23-01-2024 06:00:00,13.0246342,77.5080115,OZONE,NA,NA,NA
India,Karnataka,Bengaluru,"Silk Board, Bengaluru - KSPCB",23-01-2024 06:00:00,12.917348,77.622813,PM2.5,50,92,64
India,Karnataka,Bengaluru,"Silk Board, Bengaluru - KSPCB",23-01-2024 06:00:00,12.917348,77.622813,CO,6,49,11
India,Karnataka,Bidar,"Naubad, Bidar - KSPCB",23-01-2024 06:00:00,17.930306,77.482194,NH3,2,3,3
India,Karnataka,Chamarajanagar,"Urban, Chamarajanagar - KSPCB",23-01-2024 06:00:00,11.55358,76.55521,PM2.5,20,53,28
India,Karnataka,Chikkaballapur,"Chikkaballapur Rural, Chikkaballapur - KSPCB",23-01-2024 06:00:00,13.428828,77.731418,PM2.5,54,81,64
India,Karnataka,Chikkaballapur,"Chikkaballapur Rural, Chikkaballapur - KSPCB",23-01-2024 06:00:00,13.428828,77.731418,NO2,7,13,9
India,Karnataka,Chikkamagaluru,"Kalyana Nagara, Chikkamagaluru - KSPCB",23-01-2024 06:00:00,13.328028,75.797056,PM10,36,87,58
India,Karnataka,Chikkamagaluru,"Kalyana Nagara, Chikkamagaluru - KSPCB",23-01-2024 06:00:00,13.328028,75.797056,NH3,3,5,3
India,Karnataka,Davanagere,"Devaraj Urs Badavane, Davanagere - KSPCB",23-01-2024 06:00:00,14.475800,75.905200,PM2.5,36,183,67
India,Karnataka,Dharwad,"Kalabhavan, Dharwad - KSPCB",23-01-2024 06:00:00,15.459706,75.008381,PM2.5,47,63,53
India,Karnataka,Dharwad,"Kalabhavan, Dharwad - KSPCB",23-01-2024 06:00:00,15.459706,75.008381,PM10,71,87,79
India,Karnataka,Dharwad,"Kalabhavan, Dharwad - KSPCB",23-01-2024 06:00:00,15.459706,75.008381,SO2,3,6,4
India,Karnataka,Gadag,"Panchal Nagar, Gadag - KSPCB",23-01-2024 06:00:00,15.411456,75.638133,CO,48,62,53
India,Karnataka,Hassan,"B.Katihalli, Hassan - KSPCB",23-01-2024 06:00:00,13.008556,76.125258,NH3,3,5,3
India,Karnataka,Haveri,"Ashwini Nagar, Haveri - KSPCB",23-01-2024 06:00:00,14.791800,75.389600,CO,32,34,32
India,Karnataka,Hubballi,"Deshpande Nagar, Hubballi - KSPCB",23-01-2024 06:00:00,15.351773,75.140726,NO2,19,27,24
India,Karnataka,Hubballi,"Lingaraj Nagar, Hubballi - KSPCB",23-01-2024 06:00:00,15.3714823,75.1160168,NH3,2,2,2
India,Karnataka,Kalaburagi,"Lal Bahadur Shastri Nagar, Kalaburagi - KSPCB",23-01-2024 06:00:00,17.321993,76.822628,CO,35,57,42
