country,state,city,station,last_update,latitude,longitude,pollutant_id,pollutant_min,pollutant_max,pollutant_avg
India,Andhra_Pradesh,Amaravati,"Secretariat, Amaravati - APPCB",10-06-2024 23:00:00,16.5150833,80.5181667,PM10,NA,NA,NA
India,Andhra_Pradesh,Amaravati,"Secretariat, Amaravati - APPCB",10-06-2024 23:00:00,16.5150833,80.5181667,OZONE,NA,NA,NA
India,Andhra_Pradesh,Chittoor,"Gangineni Cheruvu, Chittoor - APPCB",10-06-2024 23:00:00,13.204880,79.097889,PM10,9,61,34
India,Andhra_Pradesh,Chittoor,"Gangineni Cheruvu, Chittoor - APPCB",10-06-2024 23:00:00,13.204880,79.097889,OZONE,67,67,67
India,Andhra_Pradesh,Rajamahendravaram,"Anand Kala Kshetram, Rajamahendravaram - APPCB",10-06-2024 23:00:00,16.9872867,81.7363176,PM10,18,48,33
India,Andhra_Pradesh,Rajamahendravaram,"Anand Kala Kshetram, Rajamahendravaram - APPCB",10-06-2024 23:00:00,16.9872867,81.7363176,NO2,7,23,13
India,Andhra_Pradesh,Tirupati,"Tirumala, Tirupati - APPCB",10-06-2024 23:00:00,13.67,79.35,PM2.5,3,35,16
India,Andhra_Pradesh,Tirupati,"Tirumala, Tirupati - APPCB",10-06-2024 23:00:00,13.67,79.35,PM10,19,40,28
India,Andhra_Pradesh,Tirupati,"Vaikuntapuram, Tirupati - APPCB",10-06-2024 23:00:00,13.615387,79.409230,PM2.5,NA,NA,NA
India,Andhra_Pradesh,Tirupati,"Vaikuntapuram, Tirupati - APPCB",10-06-2024 23:00:00,13.615387,79.409230,NH3,2,3,2
India,Andhra_Pradesh,Tirupati,"Vaikuntapuram, Tirupati - APPCB",10-06-2024 23:00:00,13.615387,79.409230,SO2,7,8,8
India,Andhra_Pradesh,Tirupati,"Vaikuntapuram, Tirupati - APPCB",10-06-2024 23:00:00,13.615387,79.409230,CO,9,15,12
India,Andhra_Pradesh,Tirupati,"Vaikuntapuram, Tirupati - APPCB",10-06-2024 23:00:00,13.615387,79.409230,OZONE,1,52,17
India,Andhra_Pradesh,Vijayawada,"Kanuru, Vijayawada - APPCB",10-06-2024 23:00:00,16.486692,80.699436,SO2,6,9,7
India,Andhra_Pradesh,Vijayawada,"Rajiv Gandhi Park, Vijayawada - APPCB",10-06-2024 23:00:00,16.509717,80.612222,PM2.5,38,51,44
India,Andhra_Pradesh,Vijayawada,"Rajiv Gandhi Park, Vijayawada - APPCB",10-06-2024 23:00:00,16.509717,80.612222,NO2,19,27,22
India,Andhra_Pradesh,Vijayawada,"Rajiv Gandhi Park, Vijayawada - APPCB",10-06-2024 23:00:00,16.509717,80.612222,NH3,4,6,5
India,Andhra_Pradesh,Vijayawada,"Rajiv Nagar, Vijayawada - APPCB",10-06-2024 23:00:00,16.554731,80.649110,PM10,53,77,60
India,Andhra_Pradesh,Vijayawada,"Rajiv Nagar, Vijayawada - APPCB",10-06-2024 23:00:00,16.554731,80.649110,SO2,12,23,17
India,Andhra_Pradesh,Visakhapatnam,"GVM Corporation, Visakhapatnam - APPCB",10-06-2024 23:00:00,17.72,83.3,CO,6,79,36
India,Andhra_Pradesh,Visakhapatnam,"GVM Corporation, Visakhapatnam - APPCB",10-06-2024 23:00:00,17.72,83.3,OZONE,8,193,11
India,Arunachal_Pradesh,Naharlagun,"Naharlagun, Naharlagun - APSPCB",10-06-2024 23:00:00,27.103358,93.679645,CO,8,18,16
India,Assam,Byrnihat,"Central Academy for SFS, Byrnihat - PCBA",10-06-2024 23:00:00,26.071318,91.87488,PM10,84,481,218
India,Assam,Byrnihat,"Central Academy for SFS, Byrnihat - PCBA",10-06-2024 23:00:00,26.071318,91.87488,NO2,5,15,8
India,Assam,Byrnihat,"Central Academy for SFS, Byrnihat - PCBA",10-06-2024 23:00:00,26.071318,91.87488,SO2,9,43,22
India,Assam,Guwahati,"IITG, Guwahati - PCBA",10-06-2024 23:00:00,26.2028636,91.70046436,PM10,73,113,94
India,Assam,Guwahati,"IITG, Guwahati - PCBA",10-06-2024 23:00:00,26.2028636,91.70046436,OZONE,3,31,14
India,Assam,Guwahati,"LGBI Airport, Guwahati - PCBA",10-06-2024 23:00:00,26.10887,91.589544,PM2.5,57,473,165
India,Assam,Guwahati,"LGBI Airport, Guwahati - PCBA",10-06-2024 23:00:00,26.10887,91.589544,PM10,54,438,163
India,Assam,Guwahati,"LGBI Airport, Guwahati - PCBA",10-06-2024 23:00:00,26.10887,91.589544,NO2,13,57,28
India,Assam,Guwahati,"Pan Bazaar, Guwahati - PCBA",10-06-2024 23:00:00,26.187500,91.744194,NO2,1,2,1
India,Assam,Guwahati,"Railway Colony, Guwahati - PCBA",10-06-2024 23:00:00,26.181742,91.78063,PM10,71,173,104
India,Assam,Guwahati,"Railway Colony, Guwahati - PCBA",10-06-2024 23:00:00,26.181742,91.78063,NO2,3,3,3
India,Assam,Nagaon,"Christianpatty, Nagaon - PCBA",10-06-2024 23:00:00,26.349082,92.68449,PM10,17,190,36
India,Assam,Nalbari,"Bata Chowk, Nalbari - PCBA",10-06-2024 23:00:00,26.446912,91.439057,CO,22,40,36
India,Assam,Sivasagar,"Girls College, Sivasagar - PCBA",10-06-2024 23:00:00,26.987634,94.636574,PM10,49,94,60
India,Assam,Sivasagar,"Girls College, Sivasagar - PCBA",10-06-2024 23:00:00,26.987634,94.636574,CO,7,13,10
India,Bihar,Arrah,"New DM Office, Arrah - BSPCB",10-06-2024 23:00:00,25.5626095,84.663264,NH3,NA,NA,NA
India,Bihar,Bettiah,"Kamalnath Nagar, Bettiah - BSPCB",10-06-2024 23:00:00,26.80365,84.51954,OZONE,3,13,9
India,Bihar,Bhagalpur,"DM Office_Kachari Chowk, Bhagalpur - BSPCB",10-06-2024 23:00:00,25.251013,86.989001,NH3,3,9,5
India,Bihar,Bhagalpur,"DM Office_Kachari Chowk, Bhagalpur - BSPCB",10-06-2024 23:00:00,25.251013,86.989001,CO,32,101,89
India,Bihar,Bhagalpur,"Mayaganj, Bhagalpur - BSPCB",10-06-2024 23:00:00,25.265194,87.012947,SO2,11,12,12
India,Bihar,Bhagalpur,"Mayaganj, Bhagalpur - BSPCB",10-06-2024 23:00:00,25.265194,87.012947,CO,26,37,32
India,Bihar,Bhagalpur,"Mayaganj, Bhagalpur - BSPCB",10-06-2024 23:00:00,25.265194,87.012947,OZONE,2,43,33
India,Bihar,Bihar Sharif,"D M Colony, Bihar Sharif - BSPCB",10-06-2024 23:00:00,25.204762,85.514960,CO,21,28,22
India,Bihar,Buxar,"Charitra Van, Buxar - BSPCB (Formerly known as Central Jail)",10-06-2024 23:00:00,25.567520,83.966379,PM2.5,37,331,159
India,Bihar,Buxar,"Charitra Van, Buxar - BSPCB (Formerly known as Central Jail)",10-06-2024 23:00:00,25.567520,83.966379,NH3,3,3,3
India,Bihar,Buxar,"Charitra Van, Buxar - BSPCB (Formerly known as Central Jail)",10-06-2024 23:00:00,25.567520,83.966379,OZONE,4,236,149
India,Bihar,Chhapra,"Darshan Nagar, Chhapra - BSPCB",10-06-2024 23:00:00,25.7808257,84.7446768,PM2.5,50,150,85
India,Bihar,Chhapra,"Darshan Nagar, Chhapra - BSPCB",10-06-2024 23:00:00,25.7808257,84.7446768,OZONE,1,8,3
India,Bihar,Gaya,"Collectorate, Gaya - BSPCB",10-06-2024 23:00:00,24.7955,84.9994,CO,74,130,120
India,Bihar,Gaya,"Kareemganj, Gaya - BSPCB",10-06-2024 23:00:00,24.792403,84.992416,NO2,19,22,21
India,Bihar,Gaya,"Kareemganj, Gaya - BSPCB",10-06-2024 23:00:00,24.792403,84.992416,OZONE,3,36,20
India,Bihar,Gaya,"SFTI Kusdihra, Gaya - BSPCB",10-06-2024 23:00:00,24.762518,84.982348,PM2.5,57,250,184
India,Bihar,Kishanganj,"SDM Office_Khagra, Kishanganj - BSPCB",10-06-2024 23:00:00,26.0881305,87.93840336,SO2,6,12,8
India,Bihar,Kishanganj,"SDM Office_Khagra, Kishanganj - BSPCB",10-06-2024 23:00:00,26.0881305,87.93840336,OZONE,1,72,34
India,Bihar,Munger,"Town Hall, Munger - BSPCB",10-06-2024 23:00:00,25.376776,86.471523,NH3,2,3,3
India,Bihar,Munger,"Town Hall, Munger - BSPCB",10-06-2024 23:00:00,25.376776,86.471523,SO2,19,39,26
India,Bihar,Munger,"Town Hall, Munger - BSPCB",10-06-2024 23:00:00,25.376776,86.471523,OZONE,25,34,29
India,Bihar,Muzaffarpur,"Buddha Colony, Muzaffarpur - BSPCB",10-06-2024 23:00:00,26.11442,85.39813,CO,18,37,28
India,Bihar,Muzaffarpur,"Muzaffarpur Collectorate, Muzaffarpur - BSPCB",10-06-2024 23:00:00,26.1209,85.3647,PM2.5,48,138,90
India,Bihar,Muzaffarpur,"Muzaffarpur Collectorate, Muzaffarpur - BSPCB",10-06-2024 23:00:00,26.1209,85.3647,NO2,27,34,32
India,Bihar,Muzaffarpur,"Muzaffarpur Collectorate, Muzaffarpur - BSPCB",10-06-2024 23:00:00,26.1209,85.3647,SO2,6,14,9
India,Bihar,Muzaffarpur,"Muzaffarpur Collectorate, Muzaffarpur - BSPCB",10-06-2024 23:00:00,26.1209,85.3647,CO,28,58,48
India,Bihar,Muzaffarpur,"Muzaffarpur Collectorate, Muzaffarpur - BSPCB",10-06-2024 23:00:00,26.1209,85.3647,OZONE,66,227,189
India,Bihar,Patna,"DRM Office Danapur, Patna - BSPCB",10-06-2024 23:00:00,25.586562,85.043586,NO2,8,39,19
India,Bihar,Patna,"DRM Office Danapur, Patna - BSPCB",10-06-2024 23:00:00,25.586562,85.043586,CO,21,54,39
India,Bihar,Patna,"IGSC Planetarium Complex, Patna - BSPCB",10-06-2024 23:00:00,25.610369,85.132568,NO2,13,13,13
India,Bihar,Patna,"Muradpur, Patna - BSPCB",10-06-2024 23:00:00,25.619651,85.147382,PM2.5,5,339,231
India,Bihar,Patna,"Muradpur, Patna - BSPCB",10-06-2024 23:00:00,25.619651,85.147382,NO2,9,83,40
India,Bihar,Patna,"Rajbansi Nagar, Patna - BSPCB",10-06-2024 23:00:00,25.599486,85.113666,PM2.5,91,280,169
India,Bihar,Patna,"Samanpura, Patna - BSPCB",10-06-2024 23:00:00,25.596727,85.085624,NH3,6,12,8
India,Bihar,Rajgir,"Dangi Tola, Rajgir - BSPCB",10-06-2024 23:00:00,25.03280,85.41948,PM2.5,53,398,146
India,Bihar,Rajgir,"Dangi Tola, Rajgir - BSPCB",10-06-2024 23:00:00,25.03280,85.41948,SO2,3,5,4
India,Bihar,Rajgir,"Dangi Tola, Rajgir - BSPCB",10-06-2024 23:00:00,25.03280,85.41948,CO,29,44,38
India,Bihar,Rajgir,"Dangi Tola, Rajgir - BSPCB",10-06-2024 23:00:00,25.03280,85.41948,OZONE,17,42,34
India,Bihar,Sasaram,"Dada Peer, Sasaram - BSPCB",10-06-2024 23:00:00,24.952822,84.002396,NO2,4,71,30
India,Bihar,Sasaram,"Dada Peer, Sasaram - BSPCB",10-06-2024 23:00:00,24.952822,84.002396,NH3,2,19,10
India,Bihar,Sasaram,"Dada Peer, Sasaram - BSPCB",10-06-2024 23:00:00,24.952822,84.002396,SO2,NA,NA,NA
India,Bihar,Siwan,"Chitragupta Nagar, Siwan - BSPCB",10-06-2024 23:00:00,26.2271665,84.3570427,PM2.5,NA,NA,NA
India,Bihar,Siwan,"Chitragupta Nagar, Siwan - BSPCB",10-06-2024 23:00:00,26.2271665,84.3570427,NO2,5,63,20
India,Chandigarh,Chandigarh,"Sector 22, Chandigarh - CPCC",10-06-2024 23:00:00,30.735567,76.775714,PM2.5,17,113,57
India,Chandigarh,Chandigarh,"Sector 22, Chandigarh - CPCC",10-06-2024 23:00:00,30.735567,76.775714,NO2,16,152,43
India,Chandigarh,Chandigarh,"Sector 22, Chandigarh - CPCC",10-06-2024 23:00:00,30.735567,76.775714,CO,30,68,40
India,Chandigarh,Chandigarh,"Sector-25, Chandigarh - CPCC",10-06-2024 23:00:00,30.751462,76.762879,OZONE,4,56,38
India,Chhattisgarh,Bhilai,"32Bungalows, Bhilai - CECB",10-06-2024 23:00:00,21.194815,81.314770,PM10,31,114,56
India,Chhattisgarh,Bhilai,"32Bungalows, Bhilai - CECB",10-06-2024 23:00:00,21.194815,81.314770,CO,12,48,17
India,Chhattisgarh,Bhilai,"32Bungalows, Bhilai - CECB",10-06-2024 23:00:00,21.194815,81.314770,OZONE,7,67,50
India,Chhattisgarh,Bhilai,"Civic Center, Bhilai - Bhilai Steel Plant",10-06-2024 23:00:00,21.185571,81.343175,NH3,3,4,4
India,Chhattisgarh,Bhilai,"Hathkhoj, Bhilai - CECB",10-06-2024 23:00:00,21.224231,81.408350,PM10,NA,NA,NA
India,Chhattisgarh,Bilaspur,"Mangala, Bilaspur - NTPC",10-06-2024 23:00:00,22.08815,82.13737,SO2,14,22,17
India,Chhattisgarh,Bilaspur,"Mangala, Bilaspur - NTPC",10-06-2024 23:00:00,22.08815,82.13737,CO,44,50,48
India,Chhattisgarh,Chhal,"Nawapara SECL Colony, Chhal - CECB",10-06-2024 23:00:00,22.118125,83.140608,PM10,42,116,72
India,Chhattisgarh,Kunjemura,"OP Jindal School, Kunjemura - CECB",10-06-2024 23:00:00,22.126650,83.483212,PM2.5,40,274,102
India,Chhattisgarh,Kunjemura,"OP Jindal School, Kunjemura - CECB",10-06-2024 23:00:00,22.126650,83.483212,CO,24,72,27
India,Chhattisgarh,Milupara,"Govt. Higher Secondary School, Milupara - CECB",10-06-2024 23:00:00,22.1910172,83.5197009,PM2.5,NA,NA,NA
India,Chhattisgarh,Milupara,"Govt. Higher Secondary School, Milupara - CECB",10-06-2024 23:00:00,22.1910172,83.5197009,NO2,NA,NA,NA
India,Chhattisgarh,Milupara,"Govt. Higher Secondary School, Milupara - CECB",10-06-2024 23:00:00,22.1910172,83.5197009,NH3,NA,NA,NA
India,Chhattisgarh,Milupara,"Govt. Higher Secondary School, Milupara - CECB",10-06-2024 23:00:00,22.1910172,83.5197009,CO,20,92,29
India,Chhattisgarh,Raipur,"AIIMS, Raipur - CECB",10-06-2024 23:00:00,21.258815,81.578979,PM2.5,14,56,33
India,Chhattisgarh,Raipur,"AIIMS, Raipur - CECB",10-06-2024 23:00:00,21.258815,81.578979,PM10,30,104,48
India,Chhattisgarh,Raipur,"AIIMS, Raipur - CECB",10-06-2024 23:00:00,21.258815,81.578979,SO2,4,20,8
India,Chhattisgarh,Raipur,"Bhatagaon New ISBT, Raipur - CECB",10-06-2024 23:00:00,21.219665,81.630094,PM2.5,14,54,25
India,Chhattisgarh,Raipur,"Bhatagaon New ISBT, Raipur - CECB",10-06-2024 23:00:00,21.219665,81.630094,NO2,1,8,5
India,Chhattisgarh,Raipur,"Bhatagaon New ISBT, Raipur - CECB",10-06-2024 23:00:00,21.219665,81.630094,SO2,1,10,3
India,Chhattisgarh,Raipur,"Bhatagaon New ISBT, Raipur - CECB",10-06-2024 23:00:00,21.219665,81.630094,CO,14,38,21
India,Chhattisgarh,Raipur,"Krishak Nagar, Raipur - CECB",10-06-2024 23:00:00,21.237755,81.705301,NH3,NA,NA,NA
India,Chhattisgarh,Raipur,"Krishak Nagar, Raipur - CECB",10-06-2024 23:00:00,21.237755,81.705301,SO2,NA,NA,NA
India,Chhattisgarh,Raipur,"Siltara Phase-II, Raipur - CECB",10-06-2024 23:00:00,21.371751,81.664929,NO2,18,76,29
India,Chhattisgarh,Raipur,"Siltara Phase-II, Raipur - CECB",10-06-2024 23:00:00,21.371751,81.664929,CO,20,62,33
India,Delhi,Delhi,"Alipur, Delhi - DPCC",10-06-2024 23:00:00,28.815329,77.153010,NO2,6,44,18
India,Delhi,Delhi,"Alipur, Delhi - DPCC",10-06-2024 23:00:00,28.815329,77.153010,OZONE,61,271,189
India,Delhi,Delhi,"Ashok Vihar, Delhi - DPCC",10-06-2024 23:00:00,28.695381,77.181665,SO2,14,64,30
India,Delhi,Delhi,"Aya Nagar, Delhi - IMD",10-06-2024 23:00:00,28.4706914,77.1099364,OZONE,10,50,33
India,Delhi,Delhi,"Bawana, Delhi - DPCC",10-06-2024 23:00:00,28.776200,77.051074,PM10,127,312,178
India,Delhi,Delhi,"Chandni Chowk, Delhi - IITM",10-06-2024 23:00:00,28.656756,77.227234,PM2.5,NA,NA,NA
India,Delhi,Delhi,"Chandni Chowk, Delhi - IITM",10-06-2024 23:00:00,28.656756,77.227234,SO2,NA,NA,NA
India,Delhi,Delhi,"DTU, Delhi - CPCB",10-06-2024 23:00:00,28.7500499,77.1112615,PM2.5,64,223,107
India,Delhi,Delhi,"DTU, Delhi - CPCB",10-06-2024 23:00:00,28.7500499,77.1112615,CO,28,66,41
India,Delhi,Delhi,"DTU, Delhi - CPCB",10-06-2024 23:00:00,28.7500499,77.1112615,OZONE,47,147,104
India,Delhi,Delhi,"Dr. Karni Singh Shooting Range, Delhi - DPCC",10-06-2024 23:00:00,28.498571,77.264840,NO2,24,112,53
India,Delhi,Delhi,"IHBAS, Dilshad Garden, Delhi - CPCB",10-06-2024 23:00:00,28.6811736,77.3025234,NO2,12,36,23
India,Delhi,Delhi,"IHBAS, Dilshad Garden, Delhi - CPCB",10-06-2024 23:00:00,28.6811736,77.3025234,SO2,3,98,29
India,Delhi,Delhi,"ITO, Delhi - CPCB",10-06-2024 23:00:00,28.628624,77.241060,PM2.5,77,173,116
India,Delhi,Delhi,"ITO, Delhi - CPCB",10-06-2024 23:00:00,28.628624,77.241060,CO,22,102,55
India,Delhi,Delhi,"Jahangirpuri, Delhi - DPCC",10-06-2024 23:00:00,28.732820,77.170633,PM10,135,436,239
India,Delhi,Delhi,"Jahangirpuri, Delhi - DPCC",10-06-2024 23:00:00,28.732820,77.170633,NH3,16,23,19
India,Delhi,Delhi,"Jahangirpuri, Delhi - DPCC",10-06-2024 23:00:00,28.732820,77.170633,SO2,28,59,41
India,Delhi,Delhi,"Jawaharlal Nehru Stadium, Delhi - DPCC",10-06-2024 23:00:00,28.580280,77.233829,PM10,97,155,123
India,Delhi,Delhi,"Jawaharlal Nehru Stadium, Delhi - DPCC",10-06-2024 23:00:00,28.580280,77.233829,NH3,2,16,6
India,Delhi,Delhi,"Jawaharlal Nehru Stadium, Delhi - DPCC",10-06-2024 23:00:00,28.580280,77.233829,OZONE,5,258,165
India,Delhi,Delhi,"Lodhi Road, Delhi - IMD",10-06-2024 23:00:00,28.5918245,77.2273074,NO2,NA,NA,NA
India,Delhi,Delhi,"Major Dhyan Chand National Stadium, Delhi - DPCC",10-06-2024 23:00:00,28.611281,77.237738,PM10,94,254,137
India,Delhi,Delhi,"Mandir Marg, Delhi - DPCC",10-06-2024 23:00:00,28.636429,77.201067,NO2,NA,NA,NA
India,Delhi,Delhi,"Mandir Marg, Delhi - DPCC",10-06-2024 23:00:00,28.636429,77.201067,CO,NA,NA,NA
India,Delhi,Delhi,"Mundka, Delhi - DPCC",10-06-2024 23:00:00,28.684678,77.076574,PM2.5,33,318,140
India,Delhi,Delhi,"Mundka, Delhi - DPCC",10-06-2024 23:00:00,28.684678,77.076574,NH3,5,8,6
India,Delhi,Delhi,"Mundka, Delhi - DPCC",10-06-2024 23:00:00,28.684678,77.076574,OZONE,39,174,121
India,Delhi,Delhi,"NSIT Dwarka, Delhi - CPCB",10-06-2024 23:00:00,28.60909,77.0325413,CO,40,109,78
India,Delhi,Delhi,"Najafgarh, Delhi - DPCC",10-06-2024 23:00:00,28.570173,76.933762,SO2,15,35,24
India,Delhi,Delhi,"Najafgarh, Delhi - DPCC",10-06-2024 23:00:00,28.570173,76.933762,CO,28,57,33
India,Delhi,Delhi,"Najafgarh, Delhi - DPCC",10-06-2024 23:00:00,28.570173,76.933762,OZONE,41,116,85
India,Delhi,Delhi,"Nehru Nagar, Delhi - DPCC",10-06-2024 23:00:00,28.567890,77.250515,NO2,6,64,24
India,Delhi,Delhi,"Nehru Nagar, Delhi - DPCC",10-06-2024 23:00:00,28.567890,77.250515,NH3,2,8,5
India,Delhi,Delhi,"Nehru Nagar, Delhi - DPCC",10-06-2024 23:00:00,28.567890,77.250515,SO2,5,12,8
India,Delhi,Delhi,"North Campus, DU, Delhi - IMD",10-06-2024 23:00:00,28.6573814,77.1585447,NO2,7,40,17
India,Delhi,Delhi,"North Campus, DU, Delhi - IMD",10-06-2024 23:00:00,28.6573814,77.1585447,CO,52,120,83
India,Delhi,Delhi,"Okhla Phase-2, Delhi - DPCC",10-06-2024 23:00:00,28.530785,77.271255,SO2,8,14,10
India,Delhi,Delhi,"Punjabi Bagh, Delhi - DPCC",10-06-2024 23:00:00,28.674045,77.131023,OZONE,10,133,64
India,Delhi,Delhi,"Pusa, Delhi - DPCC",10-06-2024 23:00:00,28.639652,77.146275,PM2.5,37,167,65
India,Delhi,Delhi,"Pusa, Delhi - IMD",10-06-2024 23:00:00,28.636110,77.173332,NO2,21,148,34
India,Delhi,Delhi,"Pusa, Delhi - IMD",10-06-2024 23:00:00,28.636110,77.173332,OZONE,6,52,29
India,Delhi,Delhi,"R K Puram, Delhi - DPCC",10-06-2024 23:00:00,28.563262,77.186937,PM2.5,53,172,96
India,Delhi,Delhi,"R K Puram, Delhi - DPCC",10-06-2024 23:00:00,28.563262,77.186937,CO,15,103,52
India,Delhi,Delhi,"Rohini, Delhi - DPCC",10-06-2024 23:00:00,28.732528,77.119920,PM2.5,20,277,86
India,Delhi,Delhi,"Sirifort, Delhi - CPCB",10-06-2024 23:00:00,28.5504249,77.2159377,NH3,19,24,22
India,Delhi,Delhi,"Sri Aurobindo Marg, Delhi - DPCC",10-06-2024 23:00:00,28.531346,77.190156,PM2.5,29,92,55
India,Delhi,Delhi,"Vivek Vihar, Delhi - DPCC",10-06-2024 23:00:00,28.672342,77.315260,SO2,13,67,24
India,Delhi,Delhi,"Wazirpur, Delhi - DPCC",10-06-2024 23:00:00,28.699793,77.165453,PM2.5,23,193,73
India,Delhi,Delhi,"Wazirpur, Delhi - DPCC",10-06-2024 23:00:00,28.699793,77.165453,NH3,1,22,12
India,Gujarat,Ahmedabad,"Chandkheda, Ahmedabad - IITM",10-06-2024 23:00:00,23.107969,72.574648,SO2,14,19,18
India,Gujarat,Ahmedabad,"Chandkheda, Ahmedabad - IITM",10-06-2024 23:00:00,23.107969,72.574648,OZONE,6,29,19
India,Gujarat,Ahmedabad,"Gyaspur, Ahmedabad - IITM",10-06-2024 23:00:00,22.977134,72.553024,SO2,18,23,20
India,Gujarat,Ahmedabad,"Rakhial, Ahmedabad - IITM",10-06-2024 23:00:00,23.016834,72.625775,OZONE,16,99,64
India,Gujarat,Ahmedabad,"SVPI Airport Hansol, Ahmedabad - IITM",10-06-2024 23:00:00,23.076793,72.627874,OZONE,6,68,47
India,Gujarat,Ahmedabad,"Sardar Vallabhbhai Patel Stadium, Ahmedabad - IITM",10-06-2024 23:00:00,23.043070,72.562968,PM2.5,41,108,73
India,Gujarat,Ahmedabad,"Sardar Vallabhbhai Patel Stadium, Ahmedabad - IITM",10-06-2024 23:00:00,23.043070,72.562968,PM10,44,115,83
India,Gujarat,Ahmedabad,"Sardar Vallabhbhai Patel Stadium, Ahmedabad - IITM",10-06-2024 23:00:00,23.043070,72.562968,NH3,6,6,6
India,Gujarat,Ahmedabad,"Sardar Vallabhbhai Patel Stadium, Ahmedabad - IITM",10-06-2024 23:00:00,23.043070,72.562968,CO,47,51,50
India,Gujarat,Ankleshwar,"GIDC, Ankleshwar - GPCB",10-06-2024 23:00:00,21.613267,73.010555,OZONE,22,34,29
India,Gujarat,Gandhinagar,"GIFT City, Gandhinagar - IITM",10-06-2024 23:00:00,23.163798,72.677768,NO2,38,45,42
India,Gujarat,Nandesari,"GIDC, Nandesari - Nandesari Ind. Association",10-06-2024 23:00:00,22.410802,73.097923,PM2.5,NA,NA,NA
India,Gujarat,Nandesari,"GIDC, Nandesari - Nandesari Ind. Association",10-06-2024 23:00:00,22.410802,73.097923,SO2,NA,NA,NA
India,Gujarat,Vapi,"Phase-1 GIDC, Vapi - GPCB",10-06-2024 23:00:00,20.362421,72.918013,PM10,12,105,48
India,Gujarat,Vapi,"Phase-1 GIDC, Vapi - GPCB",10-06-2024 23:00:00,20.362421,72.918013,NH3,2,2,2
India,Gujarat,Vatva,"Phase-4 GIDC, Vatva - GPCB",10-06-2024 23:00:00,22.969611,72.643500,PM10,55,92,71
India,Haryana,Bahadurgarh,"Arya Nagar, Bahadurgarh - HSPCB",10-06-2024 23:00:00,28.6701,76.9254,PM2.5,78,325,146
India,Haryana,Bahadurgarh,"Arya Nagar, Bahadurgarh - HSPCB",10-06-2024 23:00:00,28.6701,76.9254,PM10,108,146,125
India,Haryana,Bahadurgarh,"Arya Nagar, Bahadurgarh - HSPCB",10-06-2024 23:00:00,28.6701,76.9254,NH3,8,9,9
India,Haryana,Bahadurgarh,"Arya Nagar, Bahadurgarh - HSPCB",10-06-2024 23:00:00,28.6701,76.9254,CO,88,104,99
India,Haryana,Bhiwani,"H.B. Colony, Bhiwani - HSPCB",10-06-2024 23:00:00,28.806223,76.141105,PM2.5,57,113,81
India,Haryana,Bhiwani,"H.B. Colony, Bhiwani - HSPCB",10-06-2024 23:00:00,28.806223,76.141105,SO2,4,74,16
India,Haryana,Dharuhera,"Municipal Corporation Office, Dharuhera -  HSPCB",10-06-2024 23:00:00,28.206800,76.799700,PM2.5,40,205,84
India,Haryana,Faridabad,"Sector 11, Faridabad - HSPCB",10-06-2024 23:00:00,28.376058,77.315741,OZONE,6,23,14
India,Haryana,Faridabad,"Sector 30, Faridabad - HSPCB",10-06-2024 23:00:00,28.4417,77.3217,NO2,NA,NA,NA
India,Haryana,Faridabad,"Sector 30, Faridabad - HSPCB",10-06-2024 23:00:00,28.4417,77.3217,OZONE,13,35,26
India,Haryana,Fatehabad,"Huda Sector, Fatehabad - HSPCB",10-06-2024 23:00:00,29.503664,75.467934,PM2.5,34,89,51
India,Haryana,Fatehabad,"Huda Sector, Fatehabad - HSPCB",10-06-2024 23:00:00,29.503664,75.467934,CO,44,46,44
India,Haryana,Gurugram,"NISE Gwal Pahari, Gurugram - IMD",10-06-2024 23:00:00,28.422681,77.148944,NO2,NA,NA,NA
India,Haryana,Gurugram,"Sector-51, Gurugram - HSPCB",10-06-2024 23:00:00,28.4227,77.0667,PM10,NA,NA,NA
India,Haryana,Gurugram,"Sector-51, Gurugram - HSPCB",10-06-2024 23:00:00,28.4227,77.0667,NH3,NA,NA,NA
India,Haryana,Gurugram,"Vikas Sadan, Gurugram - HSPCB",10-06-2024 23:00:00,28.4501238,77.0263051,OZONE,8,67,35
India,Haryana,Hisar,"Urban Estate-II, Hisar - HSPCB",10-06-2024 23:00:00,29.140560,75.744941,PM2.5,47,115,72
India,Haryana,Hisar,"Urban Estate-II, Hisar - HSPCB",10-06-2024 23:00:00,29.140560,75.744941,NO2,8,11,10
India,Haryana,Hisar,"Urban Estate-II, Hisar - HSPCB",10-06-2024 23:00:00,29.140560,75.744941,NH3,3,4,4
India,Haryana,Jind,"Police Lines, Jind - HSPCB",10-06-2024 23:00:00,29.307814,76.337619,NH3,1,5,1
India,Haryana,Kaithal,"Rishi Nagar, Kaithal - HSPCB",10-06-2024 23:00:00,29.8006,76.4155,SO2,6,101,29
India,Haryana,Karnal,"Sector-12, Karnal - HSPCB",10-06-2024 23:00:00,29.695300,77.002700,PM10,60,148,73
India,Haryana,Karnal,"Sector-12, Karnal - HSPCB",10-06-2024 23:00:00,29.695300,77.002700,OZONE,1,60,27
India,Haryana,Kurukshetra,"Sector-7, Kurukshetra - HSPCB",10-06-2024 23:00:00,29.966942,76.875879,NH3,5,5,5
India,Haryana,Mandikhera,"General Hospital, Mandikhera - HSPCB",10-06-2024 23:00:00,27.9002,76.9938,CO,23,34,26
India,Haryana,Manesar,"Sector-2 IMT, Manesar - HSPCB",10-06-2024 23:00:00,28.360699,76.936090,PM10,62,125,82
India,Haryana,Manesar,"Sector-2 IMT, Manesar - HSPCB",10-06-2024 23:00:00,28.360699,76.936090,OZONE,19,120,61
India,Haryana,Narnaul,"Shastri Nagar, Narnaul - HSPCB",10-06-2024 23:00:00,28.060249,76.113115,NH3,3,17,10
India,Haryana,Palwal,"Shyam Nagar, Palwal - HSPCB",10-06-2024 23:00:00,28.1485564,77.3320667,NO2,23,24,24
India,Haryana,Palwal,"Shyam Nagar, Palwal - HSPCB",10-06-2024 23:00:00,28.1485564,77.3320667,NH3,8,9,9
India,Haryana,Palwal,"Shyam Nagar, Palwal - HSPCB",10-06-2024 23:00:00,28.1485564,77.3320667,OZONE,16,100,25
India,Haryana,Panchkula,"Sector-6, Panchkula - HSPCB ",10-06-2024 23:00:00,30.7057778,76.8531805555555,NO2,NA,NA,NA
India,Haryana,Panchkula,"Sector-6, Panchkula - HSPCB ",10-06-2024 23:00:00,30.7057778,76.8531805555555,SO2,NA,NA,NA
India,Haryana,Panipat,"Sector-18, Panipat - HSPCB",10-06-2024 23:00:00,29.432304,76.972765,NH3,2,3,3
India,Haryana,Rohtak,"MD University, Rohtak - HSPCB",10-06-2024 23:00:00,28.52123,76.37138,PM2.5,18,370,176
India,Haryana,Sirsa,"F-Block, Sirsa - HSPCB",10-06-2024 23:00:00,29.536400,75.015800,SO2,1,5,3
India,Haryana,Yamuna Nagar,"Gobind Pura, Yamuna Nagar - HSPCB",10-06-2024 23:00:00,30.1480566,77.2893471,PM10,73,131,103
India,Haryana,Yamuna Nagar,"Gobind Pura, Yamuna Nagar - HSPCB",10-06-2024 23:00:00,30.1480566,77.2893471,SO2,1,86,17
India,Himachal Pradesh,Baddi,"HIMUDA Complex Phase-1, Baddi - HPPCB",10-06-2024 23:00:00,30.943887,76.801991,CO,12,54,26
India,Jharkhand,Dhanbad,"Sardar Patel Nagar, Dhanbad - JSPCB",10-06-2024 23:00:00,23.80569,86.44268,NO2,NA,NA,NA
India,Karnataka,Bagalkot,"Vidayagiri, Bagalkot - KSPCB",10-06-2024 23:00:00,16.172806,75.659694,PM2.5,NA,NA,NA
India,Karnataka,Bagalkot,"Vidayagiri, Bagalkot - KSPCB",10-06-2024 23:00:00,16.172806,75.659694,NO2,NA,NA,NA
India,Karnataka,Bagalkot,"Vidayagiri, Bagalkot - KSPCB",10-06-2024 23:00:00,16.172806,75.659694,OZONE,26,44,36
India,Karnataka,Bengaluru,"Bapuji Nagar, Bengaluru - KSPCB",10-06-2024 23:00:00,12.951913,77.539784,NO2,14,16,15
India,Karnataka,Bengaluru,"Bapuji Nagar, Bengaluru - KSPCB",10-06-2024 23:00:00,12.951913,77.539784,SO2,5,7,7
India,Karnataka,Bengaluru,"Bapuji Nagar, Bengaluru - KSPCB",10-06-2024 23:00:00,12.951913,77.539784,CO,13,30,23
India,Karnataka,Bengaluru,"Hebbal, Bengaluru - KSPCB",10-06-2024 23:00:00,13.029152,77.585901,PM10,13,218,30
India,Karnataka,Bengaluru,"Hebbal, Bengaluru - KSPCB",10-06-2024 23:00:00,13.029152,77.585901,NH3,1,1,1
India,Karnataka,Bengaluru,"Hombegowda Nagar, Bengaluru - KSPCB",10-06-2024 23:00:00,12.938539,77.590100,PM10,9,23,14
India,Karnataka,Bengaluru,"Hombegowda Nagar, Bengaluru - KSPCB",10-06-2024 23:00:00,12.938539,77.590100,OZONE,18,29,24
India,Karnataka,Bengaluru,"Jayanagar 5th Block, Bengaluru - KSPCB",10-06-2024 23:00:00,12.920984,77.584908,CO,20,22,21
India,Karnataka,Bengaluru,"Jigani, Bengaluru - KSPCB",10-06-2024 23:00:00,12.7816279,77.6299145,NO2,38,39,39
India,Karnataka,Bengaluru,"Jigani, Bengaluru - KSPCB",10-06-2024 23:00:00,12.7816279,77.6299145,NH3,4,4,4
India,Karnataka,Bengaluru,"Jigani, Bengaluru - KSPCB",10-06-2024 23:00:00,12.7816279,77.6299145,OZONE,25,44,36
India,Karnataka,Bengaluru,"Kasturi Nagar, Bengaluru - KSPCB",10-06-2024 23:00:00,13.003872,77.664217,PM10,37,52,43
India,Karnataka,Bengaluru,"Kasturi Nagar, Bengaluru - KSPCB",10-06-2024 23:00:00,13.003872,77.664217,NO2,16,17,17
India,Karnataka,Bengaluru,"Peenya, Bengaluru - CPCB",10-06-2024 23:00:00,13.0270199,77.494094,PM2.5,33,45,38
India,Karnataka,Bengaluru,"Peenya, Bengaluru - CPCB",10-06-2024 23:00:00,13.0270199,77.494094,CO,77,82,78
India,Karnataka,Bengaluru,"RVCE-Mailasandra, Bengaluru - KSPCB",10-06-2024 23:00:00,12.921418,77.502466,NO2,16,17,17
India,Karnataka,Bengaluru,"RVCE-Mailasandra, Bengaluru - KSPCB",10-06-2024 23:00:00,12.921418,77.502466,OZONE,39,39,39
India,Karnataka,Bengaluru,"Shivapura_Peenya, Bengaluru - KSPCB",10-06-2024 23:00:00,13.0246342,77.5080115,NH3,4,4,4
India,Karnataka,Bengaluru,"Silk Board, Bengaluru - KSPCB",10-06-2024 23:00:00,12.917348,77.622813,NO2,9,29,18
India,Karnataka,Bidar,"Naubad, Bidar - KSPCB",10-06-2024 23:00:00,17.930306,77.482194,PM10,32,78,46
India,Karnataka,Bidar,"Naubad, Bidar - KSPCB",10-06-2024 23:00:00,17.930306,77.482194,NO2,7,8,8
India,Karnataka,Bidar,"Naubad, Bidar - KSPCB",10-06-2024 23:00:00,17.930306,77.482194,OZONE,13,36,25
India,Karnataka,Chamarajanagar,"Urban, Chamarajanagar - KSPCB",10-06-2024 23:00:00,11.55358,76.55521,NH3,2,2,2
India,Karnataka,Chamarajanagar,"Urban, Chamarajanagar - KSPCB",10-06-2024 23:00:00,11.55358,76.55521,SO2,2,8,4
India,Karnataka,Chamarajanagar,"Urban, Chamarajanagar - KSPCB",10-06-2024 23:00:00,11.55358,76.55521,CO,20,122,22
India,Karnataka,Chamarajanagar,"Urban, Chamarajanagar - KSPCB",10-06-2024 23:00:00,11.55358,76.55521,OZONE,25,31,29
India,Karnataka,Chikkaballapur,"Chikkaballapur Rural, Chikkaballapur - KSPCB",10-06-2024 23:00:00,13.428828,77.731418,SO2,14,24,18
India,Karnataka,Chikkamagaluru,"Kalyana Nagara, Chikkamagaluru - KSPCB",10-06-2024 23:00:00,13.328028,75.797056,PM10,25,67,38
India,Karnataka,Chikkamagaluru,"Kalyana Nagara, Chikkamagaluru - KSPCB",10-06-2024 23:00:00,13.328028,75.797056,NH3,2,4,3
India,Karnataka,Chikkamagaluru,"Kalyana Nagara, Chikkamagaluru - KSPCB",10-06-2024 23:00:00,13.328028,75.797056,CO,8,14,8
India,Karnataka,Davanagere,"Devaraj Urs Badavane, Davanagere - KSPCB",10-06-2024 23:00:00,14.475800,75.905200,PM10,7,24,15
India,Karnataka,Dharwad,"Kalabhavan, Dharwad - KSPCB",10-06-2024 23:00:00,15.459706,75.008381,CO,12,45,38
India,Karnataka,Gadag,"Panchal Nagar, Gadag - KSPCB",10-06-2024 23:00:00,15.411456,75.638133,PM2.5,2,37,17
India,Karnataka,Gadag,"Panchal Nagar, Gadag - KSPCB",10-06-2024 23:00:00,15.411456,75.638133,PM10,25,55,34
India,Karnataka,Gadag,"Panchal Nagar, Gadag - KSPCB",10-06-2024 23:00:00,15.411456,75.638133,NH3,1,4,2
India,Karnataka,Gadag,"Panchal Nagar, Gadag - KSPCB",10-06-2024 23:00:00,15.411456,75.638133,CO,40,50,47
India,Karnataka,Hassan,"B.Katihalli, Hassan - KSPCB",10-06-2024 23:00:00,13.008556,76.125258,OZONE,13,21,18
India,Karnataka,Haveri,"Ashwini Nagar, Haveri - KSPCB",10-06-2024 23:00:00,14.791800,75.389600,CO,37,38,38
India,Karnataka,Kalaburagi,"Mahatma Basaveswar Colony, Kalaburgi - KSPCB",10-06-2024 23:00:00,17.336318,76.847397,PM2.5,7,22,13
India,Karnataka,Kalaburagi,"Mahatma Basaveswar Colony, Kalaburgi - KSPCB",10-06-2024 23:00:00,17.336318,76.847397,NO2,8,15,10
India,Karnataka,Kolar,"Tamaka Ind. Area, Kolar - KSPCB",10-06-2024 23:00:00,13.1276288,78.1570122,OZONE,20,31,22
India,Karnataka,Koppal,"Diwator Nagar, Koppal - KSPCB",10-06-2024 23:00:00,15.347630,76.181767,PM10,6,14,8
India,Karnataka,Madikeri,"Stuart Hill, Madikeri - KSPCB",10-06-2024 23:00:00,12.415911,75.735050,PM10,9,23,17
India,Karnataka,Madikeri,"Stuart Hill, Madikeri - KSPCB",10-06-2024 23:00:00,12.415911,75.735050,OZONE,15,26,19
India,Karnataka,Mangalore,"Kadri, Mangalore - KSPCB",10-06-2024 23:00:00,12.889250,74.853000,PM10,30,72,49
India,Karnataka,Mangalore,"Kadri, Mangalore - KSPCB",10-06-2024 23:00:00,12.889250,74.853000,NO2,5,6,6
India,Karnataka,Mangalore,"Kadri, Mangalore - KSPCB",10-06-2024 23:00:00,12.889250,74.853000,OZONE,31,33,32
India,Karnataka,Mysuru,"Hebbal 1st Stage, Mysuru - KSPCB",10-06-2024 23:00:00,12.21041,76.37376,SO2,1,5,3
India,Karnataka,Mysuru,"Hebbal 1st Stage, Mysuru - KSPCB",10-06-2024 23:00:00,12.21041,76.37376,OZONE,10,48,38
India,Karnataka,Ramanagara,"Vijay Nagar, Ramanagara - KSPCB",10-06-2024 23:00:00,12.733409,77.298051,PM2.5,2,57,12
India,Karnataka,Shivamogga,"Vinoba Nagara, Shivamogga - KSPCB",10-06-2024 23:00:00,13.940000,75.555917,PM2.5,30,52,37
India,Karnataka,Shivamogga,"Vinoba Nagara, Shivamogga - KSPCB",10-06-2024 23:00:00,13.940000,75.555917,SO2,3,10,6
India,Karnataka,Udupi,"Brahmagiri, Udupi - KSPCB",10-06-2024 23:00:00,13.34194444,74.74694444,PM10,2,33,15
India,Karnataka,Udupi,"Brahmagiri, Udupi - KSPCB",10-06-2024 23:00:00,13.34194444,74.74694444,NH3,1,2,1
India,Karnataka,Vijayapura,"Ibrahimpur, Vijayapura - KSPCB",10-06-2024 23:00:00,16.802639,75.722694,PM10,41,43,42
India,Karnataka,Vijayapura,"Ibrahimpur, Vijayapura - KSPCB",10-06-2024 23:00:00,16.802639,75.722694,OZONE,13,16,15
India,Karnataka,Yadgir,"Collector Office, Yadgir - KSPCB",10-06-2024 23:00:00,16.7602,77.1428,CO,14,27,21
India,Kerala,Kannur,"Thavakkara, Kannur - Kerala PCB",10-06-2024 23:00:00,11.875000,75.373200,CO,62,72,66
India,Kerala,Kollam,"Polayathode, Kollam - Kerala PCB",10-06-2024 23:00:00,8.8787,76.6073,PM2.5,25,136,66
India,Kerala,Kollam,"Polayathode, Kollam - Kerala PCB",10-06-2024 23:00:00,8.8787,76.6073,PM10,38,93,61
India,Kerala,Kollam,"Polayathode, Kollam - Kerala PCB",10-06-2024 23:00:00,8.8787,76.6073,NO2,8,9,8
India,Kerala,Kollam,"Polayathode, Kollam - Kerala PCB",10-06-2024 23:00:00,8.8787,76.6073,CO,14,19,16
India,Kerala,Thiruvananthapuram,"Kariavattom, Thiruvananthapuram - Kerala PCB",10-06-2024 23:00:00,8.563700,76.886500,PM10,55,63,58
India,Kerala,Thiruvananthapuram,"Plammoodu, Thiruvananthapuram - Kerala PCB",10-06-2024 23:00:00,8.5149093,76.9435879,NO2,8,11,9
India,Kerala,Thrissur,"Corporation Ground, Thrissur - Kerala PCB",10-06-2024 23:00:00,10.532400,76.215900,CO,14,100,33
India,Madhya Pradesh,Bhopal,"Paryavaran Parisar, Bhopal - MPPCB",10-06-2024 23:00:00,23.210494,77.425409,NO2,11,62,21
India,Madhya Pradesh,Bhopal,"Paryavaran Parisar, Bhopal - MPPCB",10-06-2024 23:00:00,23.210494,77.425409,SO2,6,12,8
India,Madhya Pradesh,Bhopal,"Paryavaran Parisar, Bhopal - MPPCB",10-06-2024 23:00:00,23.210494,77.425409,CO,14,51,32
India,Madhya Pradesh,Bhopal,"T T Nagar, Bhopal - MPPCB",10-06-2024 23:00:00,23.233584,77.400574,CO,2,53,38
India,Madhya Pradesh,Dewas,"Bhopal Chauraha, Dewas - MPPCB",10-06-2024 23:00:00,22.9682591,76.064118,PM10,38,90,59
India,Madhya Pradesh,Gwalior,"City Center, Gwalior - MPPCB",10-06-2024 23:00:00,26.203442,78.193251,NO2,11,45,24
India,Madhya Pradesh,Gwalior,"City Center, Gwalior - MPPCB",10-06-2024 23:00:00,26.203442,78.193251,NH3,1,3,2
India,Madhya Pradesh,Gwalior,"Deen Dayal Nagar, Gwalior - MPPCB",10-06-2024 23:00:00,26.259242,78.216432,NO2,22,116,54
India,Madhya Pradesh,Gwalior,"Deen Dayal Nagar, Gwalior - MPPCB",10-06-2024 23:00:00,26.259242,78.216432,NH3,5,8,6
India,Madhya Pradesh,Gwalior,"Deen Dayal Nagar, Gwalior - MPPCB",10-06-2024 23:00:00,26.259242,78.216432,OZONE,26,190,70
India,Madhya Pradesh,Gwalior,"Maharaj Bada, Gwalior - MPPCB",10-06-2024 23:00:00,26.200388,78.147714,SO2,8,102,53
India,Madhya Pradesh,Gwalior,"Phool Bagh, Gwalior - Mondelez Ind. Food",10-06-2024 23:00:00,26.210536,78.171,PM2.5,49,276,165
India,Madhya Pradesh,Gwalior,"Phool Bagh, Gwalior - Mondelez Ind. Food",10-06-2024 23:00:00,26.210536,78.171,PM10,31,130,97
India,Madhya Pradesh,Gwalior,"Phool Bagh, Gwalior - Mondelez Ind. Food",10-06-2024 23:00:00,26.210536,78.171,CO,76,101,94
India,Madhya Pradesh,Indore,"Chhoti Gwaltoli, Indore - MPPCB",10-06-2024 23:00:00,22.4310,75.5213,NH3,5,6,5
India,Madhya Pradesh,Indore,"Regional Park, Indore - IMC",10-06-2024 23:00:00,22.6780,75.8559,SO2,49,51,50
India,Madhya Pradesh,Jabalpur,"Govindh Bhavan Colony, Jabalpur - JMC",10-06-2024 23:00:00,23.163174,79.973061,NO2,4,19,8
India,Madhya Pradesh,Jabalpur,"Govindh Bhavan Colony, Jabalpur - JMC",10-06-2024 23:00:00,23.163174,79.973061,OZONE,47,108,86
India,Madhya Pradesh,Jabalpur,"Gupteshwar, Jabalpur - JMC",10-06-2024 23:00:00,23.142888,79.916147,PM10,50,118,77
India,Madhya Pradesh,Jabalpur,"Gupteshwar, Jabalpur - JMC",10-06-2024 23:00:00,23.142888,79.916147,CO,20,61,33
India,Madhya Pradesh,Jabalpur,"Marhatal, Jabalpur - MPPCB",10-06-2024 23:00:00,23.168606,79.932247,PM10,66,156,101
India,Madhya Pradesh,Jabalpur,"Marhatal, Jabalpur - MPPCB",10-06-2024 23:00:00,23.168606,79.932247,SO2,17,22,19
India,Madhya Pradesh,Jabalpur,"Marhatal, Jabalpur - MPPCB",10-06-2024 23:00:00,23.168606,79.932247,OZONE,32,71,60
India,Madhya Pradesh,Katni,"Gole Bazar, Katni - MPPCB",10-06-2024 23:00:00,23.50016,80.23284,PM10,74,134,99
India,Madhya Pradesh,Maihar,"Sahilara, Maihar - KJS Cements",10-06-2024 23:00:00,24.2613009,80.7231783,NO2,11,20,15
India,Madhya Pradesh,Maihar,"Sahilara, Maihar - KJS Cements",10-06-2024 23:00:00,24.2613009,80.7231783,CO,42,60,47
India,Madhya Pradesh,Mandideep,"Sector-D Industrial Area, Mandideep - MPPCB",10-06-2024 23:00:00,23.108440,77.511428,NO2,3,42,17
India,Madhya Pradesh,Mandideep,"Sector-D Industrial Area, Mandideep - MPPCB",10-06-2024 23:00:00,23.108440,77.511428,NH3,5,9,7
India,Madhya Pradesh,Mandideep,"Sector-D Industrial Area, Mandideep - MPPCB",10-06-2024 23:00:00,23.108440,77.511428,SO2,1,101,21
India,Madhya Pradesh,Satna,"Bandhavgar Colony, Satna - Birla Cement",10-06-2024 23:00:00,24.58434363,80.8549414,NO2,24,55,41
India,Madhya Pradesh,Ujjain,"Mahakaleshwar Temple, Ujjain - MPPCB",10-06-2024 23:00:00,23.182719 ,75.768218 ,NO2,17,34,22
India,Madhya Pradesh,Ujjain,"Mahakaleshwar Temple, Ujjain - MPPCB",10-06-2024 23:00:00,23.182719 ,75.768218 ,NH3,6,9,8
India,Maharashtra,Ahmednagar,"Tarakpur, Ahmednagar - MPCB",10-06-2024 23:00:00,19.10122,74.73339,PM2.5,NA,NA,NA
India,Maharashtra,Akola,"Ramdaspeth, Akola - MPCB",10-06-2024 23:00:00,20.719516,77.000253,CO,30,64,41
India,Maharashtra,Amravati,"Shivneri Colony, Amravati - MPCB",10-06-2024 23:00:00,20.9402359,77.7895248,NH3,4,6,5
India,Maharashtra,Amravati,"Shivneri Colony, Amravati - MPCB",10-06-2024 23:00:00,20.9402359,77.7895248,SO2,3,9,4
India,Maharashtra,Amravati,"Shri Shivaji Science College, Amaravati - MPCB",10-06-2024 23:00:00,20.939198,77.765701,NH3,2,5,4
India,Maharashtra,Amravati,"Shri Shivaji Science College, Amaravati - MPCB",10-06-2024 23:00:00,20.939198,77.765701,OZONE,31,87,54
India,Maharashtra,Aurangabad,"MIDC Chilkalthana, Aurangabad - MPCB",10-06-2024 23:00:00,19.875620,75.387310,NO2,NA,NA,NA
India,Maharashtra,Aurangabad,"Rachnakar Colony, Aurangabad - MPCB",10-06-2024 23:00:00,19.863756,75.321188,PM2.5,NA,NA,NA
India,Maharashtra,Aurangabad,"Rachnakar Colony, Aurangabad - MPCB",10-06-2024 23:00:00,19.863756,75.321188,PM10,NA,NA,NA
India,Maharashtra,Aurangabad,"Rachnakar Colony, Aurangabad - MPCB",10-06-2024 23:00:00,19.863756,75.321188,NH3,NA,NA,NA
India,Maharashtra,Aurangabad,"Rachnakar Colony, Aurangabad - MPCB",10-06-2024 23:00:00,19.863756,75.321188,OZONE,55,89,72
India,Maharashtra,Badlapur,"Katrap, Badlapur - MPCB",10-06-2024 23:00:00,19.16485,73.23409,PM2.5,42,175,78
India,Maharashtra,Badlapur,"Katrap, Badlapur - MPCB",10-06-2024 23:00:00,19.16485,73.23409,SO2,8,27,16
India,Maharashtra,Badlapur,"Katrap, Badlapur - MPCB",10-06-2024 23:00:00,19.16485,73.23409,OZONE,12,82,54
India,Maharashtra,Belapur,"CBD Belapur, Belapur - MPCB",10-06-2024 23:00:00,19.0243902,73.0406721,PM2.5,20,44,30
India,Maharashtra,Belapur,"CBD Belapur, Belapur - MPCB",10-06-2024 23:00:00,19.0243902,73.0406721,NO2,13,32,21
India,Maharashtra,Bhiwandi,"Gokul Nagar, Bhiwandi - MPCB",10-06-2024 23:00:00,19.309073,73.057223,PM10,58,91,74
India,Maharashtra,Bhiwandi,"Gokul Nagar, Bhiwandi - MPCB",10-06-2024 23:00:00,19.309073,73.057223,NH3,2,3,2
India,Maharashtra,Bhiwandi,"Gokul Nagar, Bhiwandi - MPCB",10-06-2024 23:00:00,19.309073,73.057223,OZONE,13,89,57
India,Maharashtra,Chandrapur,"MIDC Khutala, Chandrapur - MPCB",10-06-2024 23:00:00,19.9775302,79.2337086,OZONE,21,70,53
India,Maharashtra,Dhule,"Deopur, Dhule - MPCB",10-06-2024 23:00:00,20.918946,74.776388,PM10,37,113,95
India,Maharashtra,Dhule,"Deopur, Dhule - MPCB",10-06-2024 23:00:00,20.918946,74.776388,OZONE,1,126,52
India,Maharashtra,Jalgaon,"Prabhat Colony, Jalgaon - MPCB",10-06-2024 23:00:00,21.001264,75.565602,CO,28,45,40
India,Maharashtra,Kalyan,"Khadakpada, Kalyan - MPCB",10-06-2024 23:00:00,19.25292,73.142019,PM10,10,115,64
India,Maharashtra,Kalyan,"Khadakpada, Kalyan - MPCB",10-06-2024 23:00:00,19.25292,73.142019,SO2,19,28,25
India,Maharashtra,Kolhapur,"Shivaji University, Kolhapur - MPCB",10-06-2024 23:00:00,16.6870449,74.2505872,PM2.5,35,69,53
India,Maharashtra,Kolhapur,"Shivaji University, Kolhapur - MPCB",10-06-2024 23:00:00,16.6870449,74.2505872,PM10,34,66,50
India,Maharashtra,Kolhapur,"Shivaji University, Kolhapur - MPCB",10-06-2024 23:00:00,16.6870449,74.2505872,CO,36,64,47
India,Maharashtra,Mahad,"Kamble Tarf Birwadi, Mahad - MPCB",10-06-2024 23:00:00,18.1023399,73.4783687,NO2,7,41,23
India,Maharashtra,Mahad,"Kamble Tarf Birwadi, Mahad - MPCB",10-06-2024 23:00:00,18.1023399,73.4783687,CO,2,42,22
India,Maharashtra,Mahad,"Kamble Tarf Birwadi, Mahad - MPCB",10-06-2024 23:00:00,18.1023399,73.4783687,OZONE,9,40,17
India,Maharashtra,Malegaon,"Mahesh Nagar, Malegaon - MPCB",10-06-2024 23:00:00,20.555712,74.529236,PM10,53,115,81
India,Maharashtra,Malegaon,"Mahesh Nagar, Malegaon - MPCB",10-06-2024 23:00:00,20.555712,74.529236,NH3,4,7,6
India,Maharashtra,Mira-Bhayandar,"Bhayandar West, Mira-Bhayandar - MPCB",10-06-2024 23:00:00,19.296481,72.840923,PM10,12,38,24
India,Maharashtra,Mumbai,"Bandra Kurla Complex, Mumbai - MPCB",10-06-2024 23:00:00,19.065931,72.862131,CO,20,46,34
India,Maharashtra,Mumbai,"Borivali East, Mumbai - IITM",10-06-2024 23:00:00,19.23241,72.86895,PM10,14,58,35
India,Maharashtra,Mumbai,"Borivali East, Mumbai - IITM",10-06-2024 23:00:00,19.23241,72.86895,NH3,9,12,11
India,Maharashtra,Mumbai,"Chakala-Andheri East, Mumbai - IITM",10-06-2024 23:00:00,19.11074,72.86084,PM2.5,NA,NA,NA
India,Maharashtra,Mumbai,"Chakala-Andheri East, Mumbai - IITM",10-06-2024 23:00:00,19.11074,72.86084,NH3,4,17,9
India,Maharashtra,Mumbai,"Chakala-Andheri East, Mumbai - IITM",10-06-2024 23:00:00,19.11074,72.86084,CO,9,34,18
India,Maharashtra,Mumbai,"Chembur, Mumbai - MPCB",10-06-2024 23:00:00,19.0364585,72.8954371,NH3,6,7,6
India,Maharashtra,Mumbai,"Chembur, Mumbai - MPCB",10-06-2024 23:00:00,19.0364585,72.8954371,SO2,1,4,1
India,Maharashtra,Mumbai,"Deonar, Mumbai - IITM",10-06-2024 23:00:00,19.04946,72.9230,SO2,2,31,12
India,Maharashtra,Mumbai,"Ghatkopar, Mumbai - BMC",10-06-2024 23:00:00,19.083694,72.920967,PM2.5,4,16,8
India,Maharashtra,Mumbai,"Ghatkopar, Mumbai - BMC",10-06-2024 23:00:00,19.083694,72.920967,CO,6,18,10
India,Maharashtra,Mumbai,"Ghatkopar, Mumbai - BMC",10-06-2024 23:00:00,19.083694,72.920967,OZONE,1,21,9
India,Maharashtra,Mumbai,"Kandivali East, Mumbai - MPCB",10-06-2024 23:00:00,19.205800,72.868200,PM10,5,417,77
India,Maharashtra,Mumbai,"Kandivali East, Mumbai - MPCB",10-06-2024 23:00:00,19.205800,72.868200,NO2,14,117,37
India,Maharashtra,Mumbai,"Kandivali East, Mumbai - MPCB",10-06-2024 23:00:00,19.205800,72.868200,OZONE,29,31,30
India,Maharashtra,Mumbai,"Kandivali West, Mumbai - BMC",10-06-2024 23:00:00,19.215859,72.831718,PM2.5,5,17,11
India,Maharashtra,Mumbai,"Kurla, Mumbai - MPCB",10-06-2024 23:00:00,19.0863,72.8888,NO2,NA,NA,NA
India,Maharashtra,Mumbai,"Mazgaon, Mumbai - IITM",10-06-2024 23:00:00,18.96702,72.84214,OZONE,13,47,28
India,Maharashtra,Mumbai,"Navy Nagar-Colaba, Mumbai - IITM",10-06-2024 23:00:00,18.897756,72.813320,NO2,49,105,65
India,Maharashtra,Mumbai,"Powai, Mumbai - MPCB",10-06-2024 23:00:00,19.137500,72.915056,PM2.5,14,64,31
India,Maharashtra,Mumbai,"Powai, Mumbai - MPCB",10-06-2024 23:00:00,19.137500,72.915056,PM10,15,75,39
India,Maharashtra,Mumbai,"Powai, Mumbai - MPCB",10-06-2024 23:00:00,19.137500,72.915056,NH3,2,3,2
India,Maharashtra,Mumbai,"Powai, Mumbai - MPCB",10-06-2024 23:00:00,19.137500,72.915056,SO2,14,15,14
India,Maharashtra,Mumbai,"Vasai West, Mumbai - MPCB",10-06-2024 23:00:00,19.383200,72.820400,PM2.5,NA,NA,NA
India,Maharashtra,Mumbai,"Vasai West, Mumbai - MPCB",10-06-2024 23:00:00,19.383200,72.820400,PM10,NA,NA,NA
India,Maharashtra,Mumbai,"Vasai West, Mumbai - MPCB",10-06-2024 23:00:00,19.383200,72.820400,NH3,4,5,4
India,Maharashtra,Mumbai,"Vile Parle West, Mumbai - MPCB",10-06-2024 23:00:00,19.10861,72.83622,OZONE,8,8,8
India,Maharashtra,Nagpur,"Ambazari, Nagpur - MPCB",10-06-2024 23:00:00,21.121801,79.04952,PM2.5,47,103,69
India,Maharashtra,Nagpur,"Ambazari, Nagpur - MPCB",10-06-2024 23:00:00,21.121801,79.04952,OZONE,38,126,91
India,Maharashtra,Nagpur,"Mahal, Nagpur - MPCB",10-06-2024 23:00:00,21.14472,79.107595,PM2.5,45,104,68
India,Maharashtra,Nagpur,"Mahal, Nagpur - MPCB",10-06-2024 23:00:00,21.14472,79.107595,CO,18,104,63
India,Maharashtra,Nanded,"Sneh Nagar, Nanded - MPCB",10-06-2024 23:00:00,19.173852,77.296291,PM10,NA,NA,NA
India,Maharashtra,Nashik,"Gangapur Road, Nashik - MPCB",10-06-2024 23:00:00,20.0073285,73.7762427,PM2.5,17,47,33
India,Maharashtra,Nashik,"Gangapur Road, Nashik - MPCB",10-06-2024 23:00:00,20.0073285,73.7762427,NH3,2,4,3
India,Maharashtra,Nashik,"Hirawadi, Nashik - MPCB",10-06-2024 23:00:00,20.021503,73.813844,NO2,7,23,14
India,Maharashtra,Nashik,"MIDC Ambad, Nashik - MPCB",10-06-2024 23:00:00,19.950220,73.731480,PM2.5,23,68,44
India,Maharashtra,Nashik,"MIDC Ambad, Nashik - MPCB",10-06-2024 23:00:00,19.950220,73.731480,NO2,4,17,10
India,Maharashtra,Nashik,"Pandav Nagari, Nashik - MPCB",10-06-2024 23:00:00,19.9591346,73.7788008,PM10,17,52,35
India,Maharashtra,Nashik,"Pandav Nagari, Nashik - MPCB",10-06-2024 23:00:00,19.9591346,73.7788008,OZONE,28,61,46
India,Maharashtra,Navi Mumbai,"Kopripada-Vashi, Navi Mumbai - MPCB",10-06-2024 23:00:00,19.090337,73.014232,PM10,28,57,45
India,Maharashtra,Navi Mumbai,"Kopripada-Vashi, Navi Mumbai - MPCB",10-06-2024 23:00:00,19.090337,73.014232,NO2,21,42,32
India,Maharashtra,Navi Mumbai,"Mahape, Navi Mumbai - MPCB",10-06-2024 23:00:00,19.1135051,73.008978,PM2.5,7,51,27
India,Maharashtra,Navi Mumbai,"Mahape, Navi Mumbai - MPCB",10-06-2024 23:00:00,19.1135051,73.008978,PM10,NA,NA,NA
India,Maharashtra,Navi Mumbai,"Nerul, Navi Mumbai - MPCB",10-06-2024 23:00:00,19.008751,73.016620,NO2,22,30,26
India,Maharashtra,Navi Mumbai,"Nerul, Navi Mumbai - MPCB",10-06-2024 23:00:00,19.008751,73.016620,OZONE,19,28,26
India,Maharashtra,Navi Mumbai,"Sector-19A Nerul, Navi Mumbai - IITM",10-06-2024 23:00:00,19.044,73.0325,SO2,5,8,7
India,Maharashtra,Navi Mumbai,"Sector-2E Kalamboli, Navi Mumbai - MPCB",10-06-2024 23:00:00,19.02579,73.10297,PM10,21,67,49
India,Maharashtra,Navi Mumbai,"Sector-2E Kalamboli, Navi Mumbai - MPCB",10-06-2024 23:00:00,19.02579,73.10297,NO2,15,36,24
India,Maharashtra,Navi Mumbai,"Sector-2E Kalamboli, Navi Mumbai - MPCB",10-06-2024 23:00:00,19.02579,73.10297,CO,6,19,11
India,Maharashtra,Navi Mumbai,"Tondare-Taloja, Navi Mumbai - MPCB",10-06-2024 23:00:00,19.0630,73.1209,PM10,17,95,57
India,Maharashtra,Navi Mumbai,"Tondare-Taloja, Navi Mumbai - MPCB",10-06-2024 23:00:00,19.0630,73.1209,CO,5,21,15
India,Maharashtra,Parbhani,"Masoom Colony, Parbhani - MPCB",10-06-2024 23:00:00,19.265594,76.761463,PM2.5,18,47,31
India,Maharashtra,Parbhani,"Masoom Colony, Parbhani - MPCB",10-06-2024 23:00:00,19.265594,76.761463,SO2,4,9,6
India,Maharashtra,Parbhani,"Masoom Colony, Parbhani - MPCB",10-06-2024 23:00:00,19.265594,76.761463,OZONE,55,98,70
India,Maharashtra,Pimpri-Chinchwad,"Gavalinagar, Pimpri Chinchwad - MPCB",10-06-2024 23:00:00,18.63673,73.82487,CO,12,26,16
India,Maharashtra,Pune,"Bhumkar Nagar, Pune - IITM",10-06-2024 23:00:00,18.605770,73.749976,PM10,NA,NA,NA
India,Maharashtra,Pune,"Bhumkar Nagar, Pune - IITM",10-06-2024 23:00:00,18.605770,73.749976,NO2,NA,NA,NA
India,Maharashtra,Pune,"Bhumkar Nagar, Pune - IITM",10-06-2024 23:00:00,18.605770,73.749976,OZONE,30,60,30
India,Maharashtra,Pune,"Hadapsar, Pune - IITM",10-06-2024 23:00:00,18.501793,73.927532,OZONE,NA,NA,NA
India,Maharashtra,Pune,"Revenue Colony-Shivajinagar, Pune - IITM",10-06-2024 23:00:00,18.530085,73.849598,PM2.5,19,59,40
India,Maharashtra,Pune,"Savitribai Phule Pune University, Pune - MPCB",10-06-2024 23:00:00,18.547056,73.826908,NO2,20,43,30
India,Maharashtra,Pune,"Savitribai Phule Pune University, Pune - MPCB",10-06-2024 23:00:00,18.547056,73.826908,SO2,2,5,4
India,Maharashtra,Sangli,"Vijay Nagar, Sangli - MPCB",10-06-2024 23:00:00, 16.5038,74.3623,NO2,4,46,15
India,Maharashtra,Sangli,"Vijay Nagar, Sangli - MPCB",10-06-2024 23:00:00, 16.5038,74.3623,OZONE,7,55,32
India,Maharashtra,Solapur,"Ratandeep Housing Society, Solapur - MPCB",10-06-2024 23:00:00,17.65439,75.90649,PM2.5,12,47,30
India,Maharashtra,Solapur,"Ratandeep Housing Society, Solapur - MPCB",10-06-2024 23:00:00,17.65439,75.90649,NO2,1,49,23
India,Maharashtra,Solapur,"Solapur, Solapur - MPCB",10-06-2024 23:00:00,17.6599188,75.9063906,PM2.5,53,72,61
India,Maharashtra,Thane,"Kasarvadavali, Thane - MPCB",10-06-2024 23:00:00,19.26777,72.97182,PM2.5,NA,NA,NA
India,Maharashtra,Thane,"Kasarvadavali, Thane - MPCB",10-06-2024 23:00:00,19.26777,72.97182,PM10,NA,NA,NA
India,Maharashtra,Thane,"Kasarvadavali, Thane - MPCB",10-06-2024 23:00:00,19.26777,72.97182,SO2,NA,NA,NA
India,Maharashtra,Thane,"Kasarvadavali, Thane - MPCB",10-06-2024 23:00:00,19.26777,72.97182,CO,16,37,25
India,Maharashtra,Thane,"Pimpleshwar Mandir, Thane - MPCB",10-06-2024 23:00:00,19.192056,72.9585188,CO,4,88,44
India,Maharashtra,Ulhasnagar,"Sidhi Vinayak Nagar, Ulhasnagar - MPCB",10-06-2024 23:00:00,19.235581,73.159121,SO2,6,11,8
India,Maharashtra,Ulhasnagar,"Sidhi Vinayak Nagar, Ulhasnagar - MPCB",10-06-2024 23:00:00,19.235581,73.159121,CO,20,55,41
India,Maharashtra,Ulhasnagar,"Sidhi Vinayak Nagar, Ulhasnagar - MPCB",10-06-2024 23:00:00,19.235581,73.159121,OZONE,8,141,50
India,Maharashtra,Virar,"Bolinj, Virar - MPCB",10-06-2024 23:00:00,19.4458210,72.7988231,SO2,NA,NA,NA
India,Maharashtra,Virar,"Bolinj, Virar - MPCB",10-06-2024 23:00:00,19.4458210,72.7988231,OZONE,63,85,80
India,Manipur,Imphal,"Manipur University, Imphal - Manipur PCB",10-06-2024 23:00:00,24.7524239,93.9286218,CO,10,14,11
India,Meghalaya,Shillong,"Lumpyngngad, Shillong - Meghalaya PCB",10-06-2024 23:00:00,25.5586,91.8985,PM2.5,NA,NA,NA
India,Meghalaya,Shillong,"Lumpyngngad, Shillong - Meghalaya PCB",10-06-2024 23:00:00,25.5586,91.8985,PM10,NA,NA,NA
India,Meghalaya,Shillong,"Lumpyngngad, Shillong - Meghalaya PCB",10-06-2024 23:00:00,25.5586,91.8985,NO2,1,2,1
India,Meghalaya,Shillong,"Lumpyngngad, Shillong - Meghalaya PCB",10-06-2024 23:00:00,25.5586,91.8985,SO2,36,37,37
India,Meghalaya,Shillong,"Lumpyngngad, Shillong - Meghalaya PCB",10-06-2024 23:00:00,25.5586,91.8985,OZONE,4,14,14
India,Mizoram,Aizawl,"Sikulpuikawn, Aizawl - Mizoram PCB",10-06-2024 23:00:00,23.7176342,92.7192841,PM2.5,4,25,14
India,Mizoram,Aizawl,"Sikulpuikawn, Aizawl - Mizoram PCB",10-06-2024 23:00:00,23.7176342,92.7192841,CO,8,17,15
India,Nagaland,Kohima,"PWD Juction, Kohima - NPCB",10-06-2024 23:00:00,25.6635413,94.0989878,PM10,50,132,84
India,Odisha,Balasore,"Kalidaspur, Balasore - OSPCB",10-06-2024 23:00:00,21.51161,86.89088,PM2.5,10,65,34
India,Odisha,Barbil,"Forest Office, Barbil - OSPCB",10-06-2024 23:00:00,22.1166054,85.3945546,PM10,96,229,129
India,Odisha,Baripada,"Meher Colony, Baripada - OSPCB",10-06-2024 23:00:00,21.941841,86.728318,PM10,69,107,89
India,Odisha,Baripada,"Meher Colony, Baripada - OSPCB",10-06-2024 23:00:00,21.941841,86.728318,CO,9,48,31
India,Odisha,Bhubaneswar,"Lingraj Mandir, Bhubaneswar - OSPCB",10-06-2024 23:00:00,20.240790,85.836784,PM2.5,10,57,27
India,Odisha,Bhubaneswar,"Lingraj Mandir, Bhubaneswar - OSPCB",10-06-2024 23:00:00,20.240790,85.836784,CO,47,107,103
India,Odisha,Bileipada,"Tata Township, Bileipada - OSPCB",10-06-2024 23:00:00,22.06156703,85.47409613,PM2.5,75,207,112
India,Odisha,Bileipada,"Tata Township, Bileipada - OSPCB",10-06-2024 23:00:00,22.06156703,85.47409613,PM10,90,413,184
India,Odisha,Bileipada,"Tata Township, Bileipada - OSPCB",10-06-2024 23:00:00,22.06156703,85.47409613,NH3,11,12,12
India,Odisha,Byasanagar,"Ferro Chrome Colony, Byasanagar - OSPCB",10-06-2024 23:00:00,20.94185,86.11510,PM2.5,18,77,43
India,Odisha,Byasanagar,"Ferro Chrome Colony, Byasanagar - OSPCB",10-06-2024 23:00:00,20.94185,86.11510,PM10,36,95,67
India,Odisha,Byasanagar,"Ferro Chrome Colony, Byasanagar - OSPCB",10-06-2024 23:00:00,20.94185,86.11510,CO,24,40,33
India,Odisha,Cuttack,"CDA Area, Cuttack - OSPCB",10-06-2024 23:00:00,20.48891     ,85.84768     ,PM2.5,5,83,31
India,Odisha,Cuttack,"CDA Area, Cuttack - OSPCB",10-06-2024 23:00:00,20.48891     ,85.84768     ,NH3,1,10,1
India,Odisha,Cuttack,"CDA Area, Cuttack - OSPCB",10-06-2024 23:00:00,20.48891     ,85.84768     ,CO,4,23,17
India,Odisha,Nayagarh,"Dabuna, Nayagarh - OSPCB",10-06-2024 23:00:00,21.847279,85.416905,CO,16,28,20
India,Odisha,Rairangpur,"Divisional Forest Office, Rairangpur - OSPCB",10-06-2024 23:00:00,22.265816,86.174829,NO2,2,3,2
India,Odisha,Rairangpur,"Divisional Forest Office, Rairangpur - OSPCB",10-06-2024 23:00:00,22.265816,86.174829,CO,14,28,19
India,Odisha,Rourkela,"Fertilizer Township, Rourkela - OSPCB",10-06-2024 23:00:00,22.18972222,84.86277778,PM10,NA,NA,NA
India,Odisha,Rourkela,"Fertilizer Township, Rourkela - OSPCB",10-06-2024 23:00:00,22.18972222,84.86277778,CO,NA,NA,NA
India,Odisha,Rourkela,"Raghunathpali, Rourkela - OSPCB",10-06-2024 23:00:00,22.220833,84.809444,PM2.5,77,180,123
India,Odisha,Talcher,"Talcher Coalfields,Talcher - OSPCB",10-06-2024 23:00:00,20.9360711,85.1707021,PM2.5,14,324,71
India,Odisha,Talcher,"Talcher Coalfields,Talcher - OSPCB",10-06-2024 23:00:00,20.9360711,85.1707021,NH3,3,4,3
India,Odisha,Tensa,"Barsua Iron Ore Mines, Tensa - OSPCB",10-06-2024 23:00:00,21.869985,85.167016,PM2.5,51,64,56
India,Odisha,Tensa,"Barsua Iron Ore Mines, Tensa - OSPCB",10-06-2024 23:00:00,21.869985,85.167016,NO2,13,46,21
India,Odisha,Tensa,"Barsua Iron Ore Mines, Tensa - OSPCB",10-06-2024 23:00:00,21.869985,85.167016,CO,22,37,29
India,Odisha,Tensa,"Barsua Iron Ore Mines, Tensa - OSPCB",10-06-2024 23:00:00,21.869985,85.167016,OZONE,107,301,171
India,Puducherry,Puducherry,"Jawahar Nagar, Puducherry - PPCC",10-06-2024 23:00:00,11.9309,79.8027,NH3,2,6,3
India,Puducherry,Puducherry,"Jawahar Nagar, Puducherry - PPCC",10-06-2024 23:00:00,11.9309,79.8027,OZONE,24,76,62
India,Punjab,Amritsar,"Golden Temple, Amritsar - PPCB",10-06-2024 23:00:00,31.620000,74.876512,PM10,84,254,128
India,Punjab,Amritsar,"Golden Temple, Amritsar - PPCB",10-06-2024 23:00:00,31.620000,74.876512,NO2,6,146,44
India,Punjab,Amritsar,"Golden Temple, Amritsar - PPCB",10-06-2024 23:00:00,31.620000,74.876512,NH3,4,14,7
India,Punjab,Amritsar,"Golden Temple, Amritsar - PPCB",10-06-2024 23:00:00,31.620000,74.876512,CO,18,42,30
India,Punjab,Bathinda,"Hardev Nagar, Bathinda - PPCB",10-06-2024 23:00:00,30.233011,74.907758,NO2,NA,NA,NA
India,Punjab,Bathinda,"Hardev Nagar, Bathinda - PPCB",10-06-2024 23:00:00,30.233011,74.907758,CO,2,112,35
India,Punjab,Jalandhar,"Civil Line, Jalandhar - PPCB",10-06-2024 23:00:00,31.321907,75.578914,PM10,77,137,110
India,Punjab,Jalandhar,"Civil Line, Jalandhar - PPCB",10-06-2024 23:00:00,31.321907,75.578914,NO2,32,41,37
India,Punjab,Jalandhar,"Civil Line, Jalandhar - PPCB",10-06-2024 23:00:00,31.321907,75.578914,SO2,8,12,10
India,Punjab,Jalandhar,"Civil Line, Jalandhar - PPCB",10-06-2024 23:00:00,31.321907,75.578914,CO,16,57,32
India,Punjab,Khanna,"Kalal Majra, Khanna - PPCB",10-06-2024 23:00:00,30.736056 ,76.209694,SO2,NA,NA,NA
India,Punjab,Ludhiana,"Punjab Agricultural University, Ludhiana - PPCB",10-06-2024 23:00:00,30.9028,75.8086,NH3,3,5,4
India,Punjab,Mandi Gobindgarh,"RIMT University, Mandi Gobindgarh - PPCB",10-06-2024 23:00:00,30.649961,76.331442,SO2,26,51,35
India,Punjab,Patiala,"Model Town, Patiala - PPCB",10-06-2024 23:00:00,30.349388,76.366642,SO2,12,41,20
India,Punjab,Rupnagar,"Ratanpura, Rupnagar - Ambuja Cements",10-06-2024 23:00:00,31.0325454,76.5623046,NO2,1,47,14
India,Rajasthan,Ajmer,"Civil Lines,  Ajmer - RSPCB",10-06-2024 23:00:00,26.470859,74.646594,NH3,5,5,5
India,Rajasthan,Banswara,"Rati Talai, Banswara - RSPCB",10-06-2024 23:00:00,23.555190,74.440010,SO2,2,7,4
India,Rajasthan,Baran,"Bamboliya, Baran - RSPCB",10-06-2024 23:00:00,25.106006,76.469948,NH3,4,7,5
India,Rajasthan,Bhilwara,"Pratap Nagar, Bhilwara - RSPCB",10-06-2024 23:00:00,25.339605,74.618883,SO2,5,15,10
India,Rajasthan,Bhiwadi,"RIICO Ind. Area III, Bhiwadi - RSPCB",10-06-2024 23:00:00,28.194909,76.862296,PM2.5,95,296,188
India,Rajasthan,Bhiwadi,"RIICO Ind. Area III, Bhiwadi - RSPCB",10-06-2024 23:00:00,28.194909,76.862296,NH3,1,6,3
India,Rajasthan,Bhiwadi,"Vasundhara Nagar_UIT, Bhiwadi - RSPCB",10-06-2024 23:00:00,28.207266,76.829265,PM10,105,249,164
India,Rajasthan,Bhiwadi,"Vasundhara Nagar_UIT, Bhiwadi - RSPCB",10-06-2024 23:00:00,28.207266,76.829265,NO2,9,88,34
India,Rajasthan,Bhiwadi,"Vasundhara Nagar_UIT, Bhiwadi - RSPCB",10-06-2024 23:00:00,28.207266,76.829265,NH3,8,19,14
India,Rajasthan,Bikaner,"MM Ground, Bikaner - RSPCB",10-06-2024 23:00:00,28.018792,73.292658,SO2,1,10,4
India,Rajasthan,Bikaner,"MM Ground, Bikaner - RSPCB",10-06-2024 23:00:00,28.018792,73.292658,OZONE,16,94,65
India,Rajasthan,Bundi,"New Colony, Bundi - RSPCB",10-06-2024 23:00:00,25.435774,75.644272,OZONE,16,166,77
India,Rajasthan,Chittorgarh,"Shastri Nagar, Chittorgarh - RSPCB",10-06-2024 23:00:00,24.892047,74.623527,PM10,NA,NA,NA
India,Rajasthan,Chittorgarh,"Shastri Nagar, Chittorgarh - RSPCB",10-06-2024 23:00:00,24.892047,74.623527,NH3,NA,NA,NA
India,Rajasthan,Chittorgarh,"Shastri Nagar, Chittorgarh - RSPCB",10-06-2024 23:00:00,24.892047,74.623527,CO,13,20,16
India,Rajasthan,Dausa,"Khatikan Mohalla, Dausa - RSPCB",10-06-2024 23:00:00,26.895552,76.334753,NH3,2,29,7
India,Rajasthan,Dausa,"Khatikan Mohalla, Dausa - RSPCB",10-06-2024 23:00:00,26.895552,76.334753,SO2,2,103,11
India,Rajasthan,Dausa,"Khatikan Mohalla, Dausa - RSPCB",10-06-2024 23:00:00,26.895552,76.334753,OZONE,6,112,64
India,Rajasthan,Dungarpur,"Bhoiwada, Dungarpur - RSPCB",10-06-2024 23:00:00,23.837789,73.714926,PM2.5,28,73,45
India,Rajasthan,Dungarpur,"Bhoiwada, Dungarpur - RSPCB",10-06-2024 23:00:00,23.837789,73.714926,SO2,1,10,4
India,Rajasthan,Dungarpur,"Bhoiwada, Dungarpur - RSPCB",10-06-2024 23:00:00,23.837789,73.714926,CO,4,76,32
India,Rajasthan,Hanumangarh,"Housing Board, Hanumangarh - RSPCB",10-06-2024 23:00:00,29.610750,74.283608,PM2.5,43,327,112
India,Rajasthan,Jaipur,"Adarsh Nagar, Jaipur - RSPCB",10-06-2024 23:00:00,26.902909,75.836858,PM2.5,60,152,88
India,Rajasthan,Jaipur,"Adarsh Nagar, Jaipur - RSPCB",10-06-2024 23:00:00,26.902909,75.836858,SO2,6,44,16
India,Rajasthan,Jaipur,"Adarsh Nagar, Jaipur - RSPCB",10-06-2024 23:00:00,26.902909,75.836858,CO,12,60,41
India,Rajasthan,Jaipur,"Mansarovar Sector-12, Jaipur - RSPCB",10-06-2024 23:00:00,26.843698,75.766894,PM2.5,23,134,66
India,Rajasthan,Jaipur,"Mansarovar Sector-12, Jaipur - RSPCB",10-06-2024 23:00:00,26.843698,75.766894,NH3,1,6,3
India,Rajasthan,Jaipur,"Police Commissionerate, Jaipur - RSPCB",10-06-2024 23:00:00,26.9164092,75.7994901,PM2.5,60,135,86
India,Rajasthan,Jaipur,"Police Commissionerate, Jaipur - RSPCB",10-06-2024 23:00:00,26.9164092,75.7994901,CO,22,80,41
India,Rajasthan,Jaipur,"RIICO Sitapura, Jaipur - RSPCB",10-06-2024 23:00:00,26.786682,75.827928,NH3,1,9,4
India,Rajasthan,Jaipur,"RIICO Sitapura, Jaipur - RSPCB",10-06-2024 23:00:00,26.786682,75.827928,OZONE,21,302,106
India,Rajasthan,Jaipur,"Sector-2 Murlipura, Jaipur - RSPCB",10-06-2024 23:00:00,26.960669,75.771817,PM2.5,30,315,98
India,Rajasthan,Jaipur,"Sector-2 Murlipura, Jaipur - RSPCB",10-06-2024 23:00:00,26.960669,75.771817,SO2,6,120,38
India,Rajasthan,Jaipur,"Sector-2 Murlipura, Jaipur - RSPCB",10-06-2024 23:00:00,26.960669,75.771817,CO,96,119,104
India,Rajasthan,Jaipur,"Sector-2 Murlipura, Jaipur - RSPCB",10-06-2024 23:00:00,26.960669,75.771817,OZONE,12,166,79
India,Rajasthan,Jaipur,"Shastri Nagar, Jaipur - RSPCB",10-06-2024 23:00:00,26.9502929,75.730943,NO2,15,72,37
India,Rajasthan,Jaipur,"Shastri Nagar, Jaipur - RSPCB",10-06-2024 23:00:00,26.9502929,75.730943,SO2,1,35,14
India,Rajasthan,Jaisalmer,"Sadar Bazar, Jaisalmer - RSPCB",10-06-2024 23:00:00,26.912329,70.909168,CO,1,38,11
India,Rajasthan,Jalore,"Mudtra Sili, Jalore - RSPCB",10-06-2024 23:00:00,25.344694,72.626208,SO2,2,8,4
India,Rajasthan,Jhalawar,"Rajlaxmi Nagar, Jhalawar - RSPCB",10-06-2024 23:00:00,24.588397,76.172782,PM2.5,27,102,46
India,Rajasthan,Jhalawar,"Rajlaxmi Nagar, Jhalawar - RSPCB",10-06-2024 23:00:00,24.588397,76.172782,PM10,76,179,114
India,Rajasthan,Jhalawar,"Rajlaxmi Nagar, Jhalawar - RSPCB",10-06-2024 23:00:00,24.588397,76.172782,OZONE,40,67,51
India,Rajasthan,Jhunjhunu,"Indra Nagar, Jhunjhunu - RSPCB",10-06-2024 23:00:00,28.108988,75.386577,CO,12,62,28
India,Rajasthan,Jodhpur,"Collectorate, Jodhpur - RSPCB",10-06-2024 23:00:00,26.268249,73.0193853,PM10,44,298,148
India,Rajasthan,Jodhpur,"Jhalamand, Jodhpur - RSPCB",10-06-2024 23:00:00,26.215415,73.070156,PM10,56,227,117
India,Rajasthan,Jodhpur,"Jhalamand, Jodhpur - RSPCB",10-06-2024 23:00:00,26.215415,73.070156,SO2,2,8,5
India,Rajasthan,Jodhpur,"Jhalamand, Jodhpur - RSPCB",10-06-2024 23:00:00,26.215415,73.070156,CO,6,16,10
India,Rajasthan,Jodhpur,"Mandor, Jodhpur - RSPCB",10-06-2024 23:00:00,26.358805,73.047444,NH3,4,8,6
India,Rajasthan,Jodhpur,"Samrat Ashok Udhyan, Jodhpur - RSPCB",10-06-2024 23:00:00,26.253384,72.976571,NO2,1,56,13
India,Rajasthan,Jodhpur,"Samrat Ashok Udhyan, Jodhpur - RSPCB",10-06-2024 23:00:00,26.253384,72.976571,NH3,2,4,3
India,Rajasthan,Karauli,"Satyawati Vihar, Karauli - RSPCB",10-06-2024 23:00:00,26.506177,77.025989,SO2,1,25,15
India,Rajasthan,Karauli,"Satyawati Vihar, Karauli - RSPCB",10-06-2024 23:00:00,26.506177,77.025989,CO,10,61,14
India,Rajasthan,Kota,"Nayapura, Kota - RSPCB",10-06-2024 23:00:00,25.196024,75.855668,PM2.5,32,95,60
India,Rajasthan,Kota,"Nayapura, Kota - RSPCB",10-06-2024 23:00:00,25.196024,75.855668,NH3,1,3,1
India,Rajasthan,Kota,"Nayapura, Kota - RSPCB",10-06-2024 23:00:00,25.196024,75.855668,SO2,6,26,10
India,Rajasthan,Kota,"Nayapura, Kota - RSPCB",10-06-2024 23:00:00,25.196024,75.855668,OZONE,15,83,64
India,Rajasthan,Kota,"Shrinath Puram, Kota - RSPCB",10-06-2024 23:00:00,25.14389,75.821256,PM10,62,107,83
India,Rajasthan,Nagaur,"Karni Colony, Nagaur - RSPCB",10-06-2024 23:00:00,27.213494,73.734444,OZONE,41,78,62
India,Rajasthan,Pali,"Indira Colony Vistar, Pali - RSPCB",10-06-2024 23:00:00,25.771061, 73.340227,NO2,22,53,35
India,Rajasthan,Pali,"Indira Colony Vistar, Pali - RSPCB",10-06-2024 23:00:00,25.771061, 73.340227,SO2,4,11,7
India,Rajasthan,Rajsamand,"Dhoinda, Rajsamand - RSPCB",10-06-2024 23:00:00,25.036360,73.883502,NH3,1,5,2
India,Rajasthan,Rajsamand,"Dhoinda, Rajsamand - RSPCB",10-06-2024 23:00:00,25.036360,73.883502,OZONE,2,96,54
India,Rajasthan,Sawai Madhopur,"Sahu Nagar, Sawai Madhopur - RSPCB",10-06-2024 23:00:00,26.031443,76.359327,OZONE,19,128,84
India,Rajasthan,Sikar,"Radhakishan Pura, Sikar - RSPCB",10-06-2024 23:00:00,27.608912,75.153302,PM10,88,500,257
India,Rajasthan,Sikar,"Radhakishan Pura, Sikar - RSPCB",10-06-2024 23:00:00,27.608912,75.153302,NH3,5,10,6
India,Rajasthan,Sikar,"Radhakishan Pura, Sikar - RSPCB",10-06-2024 23:00:00,27.608912,75.153302,CO,1,73,22
India,Rajasthan,Sirohi,"Vedhaynath Colony, Sirohi - RSPCB",10-06-2024 23:00:00,24.885261,72.857549,PM2.5,14,47,24
India,Rajasthan,Sirohi,"Vedhaynath Colony, Sirohi - RSPCB",10-06-2024 23:00:00,24.885261,72.857549,OZONE,9,94,72
India,Rajasthan,Sri Ganganagar,"Old City, Sri Ganganagar - RSPCB",10-06-2024 23:00:00,29.931624,73.864511,PM2.5,65,200,112
India,Rajasthan,Sri Ganganagar,"Old City, Sri Ganganagar - RSPCB",10-06-2024 23:00:00,29.931624,73.864511,NH3,20,31,13
India,Rajasthan,Udaipur,"Ashok Nagar, Udaipur - RSPCB",10-06-2024 23:00:00,24.5886166,73.6321397,PM10,34,147,105
India,Rajasthan,Udaipur,"Ashok Nagar, Udaipur - RSPCB",10-06-2024 23:00:00,24.5886166,73.6321397,OZONE,10,130,30
India,Sikkim,Gangtok,"Zero Point GICI, Gangtok - SSPCB",10-06-2024 23:00:00,27.338530,88.614099,SO2,12,13,12
India,TamilNadu,Chennai,"Alandur Bus Depot, Chennai - CPCB",10-06-2024 23:00:00,12.9099161,80.1076538,NH3,5,21,8
India,TamilNadu,Chennai,"Kodungaiyur, Chennai - TNPCB",10-06-2024 23:00:00,13.1278,80.2642,NO2,11,35,20
India,TamilNadu,Chennai,"Kodungaiyur, Chennai - TNPCB",10-06-2024 23:00:00,13.1278,80.2642,CO,18,70,50
India,TamilNadu,Chennai,"Kodungaiyur, Chennai - TNPCB",10-06-2024 23:00:00,13.1278,80.2642,OZONE,22,65,39
India,TamilNadu,Chennai,"Royapuram, Chennai - TNPCB",10-06-2024 23:00:00,13.1036,80.2909,PM10,38,80,62
India,TamilNadu,Cuddalore,"Kudikadu, Cuddalore - TNPCB",10-06-2024 23:00:00,11.6829898,79.7532099,PM2.5,10,43,20
India,TamilNadu,Cuddalore,"Kudikadu, Cuddalore - TNPCB",10-06-2024 23:00:00,11.6829898,79.7532099,NO2,NA,NA,NA
India,TamilNadu,Cuddalore,"Semmandalam, Cuddalore - TNPCB",10-06-2024 23:00:00,11.7637683,79.7499835,OZONE,1,4,2
India,TamilNadu,Gummidipoondi,"Anthoni Pillai Nagar, Gummidipoondi - TNPCB",10-06-2024 23:00:00,13.4127,80.1081,PM10,32,124,66
India,TamilNadu,Ooty,"Bombay Castel, Ooty - TNPCB",10-06-2024 23:00:00,11.4068288,76.7138973,CO,22,22,22
India,TamilNadu,Ramanathapuram,"Chalai Bazaar, Ramanathapuram - TNPCB",10-06-2024 23:00:00,9.36399,78.831977,PM2.5,7,32,16
India,TamilNadu,Salem,"Sona College of Technology, Salem - TNPCB",10-06-2024 23:00:00,11.679111,78.125052,CO,36,38,37
India,TamilNadu,Thoothukudi,"Meelavittan, Thoothukudi - TNPCB",10-06-2024 23:00:00,8.816428 ,78.099039,CO,1,147,70
India,TamilNadu,Tirupur,"Kumaran College, Tirupur - TNPCB",10-06-2024 23:00:00,11.0973603,77.3228673,PM10,NA,NA,NA
India,TamilNadu,Tirupur,"Kumaran College, Tirupur - TNPCB",10-06-2024 23:00:00,11.0973603,77.3228673,CO,18,26,24
India,TamilNadu,Virudhunagar,"Collectorate Office, Virudhunagar - TNPCB",10-06-2024 23:00:00,9.559382,77.948828,SO2,NA,NA,NA
India,TamilNadu,Virudhunagar,"Collectorate Office, Virudhunagar - TNPCB",10-06-2024 23:00:00,9.559382,77.948828,OZONE,6,6,6
India,Telangana,Hyderabad,"Bollaram Industrial Area, Hyderabad - TSPCB",10-06-2024 23:00:00,17.540891,78.358528,PM2.5,NA,NA,NA
India,Telangana,Hyderabad,"Bollaram Industrial Area, Hyderabad - TSPCB",10-06-2024 23:00:00,17.540891,78.358528,SO2,11,30,19
India,Telangana,Hyderabad,"IITH Kandi, Hyderabad - TSPCB",10-06-2024 23:00:00,17.585705,78.126199,PM10,43,64,49
India,Telangana,Hyderabad,"IITH Kandi, Hyderabad - TSPCB",10-06-2024 23:00:00,17.585705,78.126199,NO2,7,9,7
India,Telangana,Hyderabad,"IITH Kandi, Hyderabad - TSPCB",10-06-2024 23:00:00,17.585705,78.126199,CO,4,32,12
India,Telangana,Hyderabad,"Kokapet, Hyderabad - TSPCB",10-06-2024 23:00:00,17.393559,78.339194,PM10,NA,NA,NA
India,Telangana,Hyderabad,"Kompally Municipal Office, Hyderabad - TSPCB",10-06-2024 23:00:00,17.544899,78.486949,PM10,52,75,60
India,Telangana,Hyderabad,"Nacharam_TSIIC IALA, Hyderabad - TSPCB",10-06-2024 23:00:00,17.429398,78.569354,CO,30,42,35
India,Telangana,Hyderabad,"Ramachandrapuram, Hyderabad - TSPCB",10-06-2024 23:00:00,17.528544,78.286195,SO2,NA,NA,NA
India,Telangana,Hyderabad,"Sanathnagar, Hyderabad - TSPCB",10-06-2024 23:00:00,17.4559458,78.4332152,NO2,8,287,153
India,Telangana,Hyderabad,"Somajiguda, Hyderabad - TSPCB",10-06-2024 23:00:00,17.417094,78.457437,NH3,NA,NA,NA
India,Telangana,Hyderabad,"Zoo Park, Hyderabad - TSPCB",10-06-2024 23:00:00,17.349694,78.451437,PM10,NA,NA,NA
India,Telangana,Hyderabad,"Zoo Park, Hyderabad - TSPCB",10-06-2024 23:00:00,17.349694,78.451437,NO2,8,17,14
India,Telangana,Hyderabad,"Zoo Park, Hyderabad - TSPCB",10-06-2024 23:00:00,17.349694,78.451437,OZONE,16,30,23
India,Tripura,Agartala,"Bardowali, Agartala - Tripura SPCB",10-06-2024 23:00:00,23.8175497,91.2726974,NO2,4,11,7
India,Tripura,Agartala,"Bardowali, Agartala - Tripura SPCB",10-06-2024 23:00:00,23.8175497,91.2726974,SO2,35,38,36
India,Tripura,Agartala,"Bardowali, Agartala - Tripura SPCB",10-06-2024 23:00:00,23.8175497,91.2726974,CO,10,39,25
India,Uttar_Pradesh,Agra,"Manoharpur, Agra - UPPCB",10-06-2024 23:00:00,27.23711,78.01936,PM2.5,32,88,54
India,Uttar_Pradesh,Agra,"Manoharpur, Agra - UPPCB",10-06-2024 23:00:00,27.23711,78.01936,PM10,24,65,40
India,Uttar_Pradesh,Agra,"Manoharpur, Agra - UPPCB",10-06-2024 23:00:00,27.23711,78.01936,SO2,21,42,31
India,Uttar_Pradesh,Agra,"Rohta, Agra - UPPCB",10-06-2024 23:00:00,27.106972,78.000111,NH3,2,3,3
India,Uttar_Pradesh,Agra,"Rohta, Agra - UPPCB",10-06-2024 23:00:00,27.106972,78.000111,SO2,4,16,8
India,Uttar_Pradesh,Agra,"Sanjay Palace, Agra - UPPCB",10-06-2024 23:00:00,27.19865833,78.00598056,SO2,2,11,7
India,Uttar_Pradesh,Agra,"Sanjay Palace, Agra - UPPCB",10-06-2024 23:00:00,27.19865833,78.00598056,OZONE,6,38,14
India,Uttar_Pradesh,Agra,"Sector-3B Avas Vikas Colony, Agra - UPPCB",10-06-2024 23:00:00,27.19412,77.96237,SO2,15,20,16
India,Uttar_Pradesh,Agra,"Sector-3B Avas Vikas Colony, Agra - UPPCB",10-06-2024 23:00:00,27.19412,77.96237,OZONE,10,21,14
India,Uttar_Pradesh,Agra,"Shastripuram, Agra - UPPCB",10-06-2024 23:00:00,27.19862,77.92066,PM2.5,17,95,60
India,Uttar_Pradesh,Baghpat,"Sardar Patel Inter College, Baghpat - UPPCB",10-06-2024 23:00:00,28.964949,77.278761,OZONE,16,63,39
India,Uttar_Pradesh,Bareilly,"Rajendra Nagar, Bareilly - UPPCB",10-06-2024 23:00:00,28.38910936,79.42963708,SO2,19,27,21
India,Uttar_Pradesh,Bareilly,"Rajendra Nagar, Bareilly - UPPCB",10-06-2024 23:00:00,28.38910936,79.42963708,OZONE,1,19,9
India,Uttar_Pradesh,Bulandshahr,"Yamunapuram, Bulandshahr - UPPCB",10-06-2024 23:00:00,28.406963,77.849831,PM10,91,191,130
India,Uttar_Pradesh,Bulandshahr,"Yamunapuram, Bulandshahr - UPPCB",10-06-2024 23:00:00,28.406963,77.849831,NH3,10,20,14
India,Uttar_Pradesh,Firozabad,"Vibhab Nagar, Firozabad - UPPCB",10-06-2024 23:00:00,27.1594,78.3953,NH3,2,2,2
India,Uttar_Pradesh,Firozabad,"Vibhab Nagar, Firozabad - UPPCB",10-06-2024 23:00:00,27.1594,78.3953,CO,18,38,22
India,Uttar_Pradesh,Ghaziabad,"Loni, Ghaziabad - UPPCB",10-06-2024 23:00:00,28.757294,77.278792,PM2.5,25,362,81
India,Uttar_Pradesh,Ghaziabad,"Loni, Ghaziabad - UPPCB",10-06-2024 23:00:00,28.757294,77.278792,CO,12,82,40
India,Uttar_Pradesh,Ghaziabad,"Loni, Ghaziabad - UPPCB",10-06-2024 23:00:00,28.757294,77.278792,OZONE,8,59,28
India,Uttar_Pradesh,Ghaziabad,"Sanjay Nagar, Ghaziabad - UPPCB",10-06-2024 23:00:00,28.685382,77.453839,PM2.5,23,147,61
India,Uttar_Pradesh,Ghaziabad,"Sanjay Nagar, Ghaziabad - UPPCB",10-06-2024 23:00:00,28.685382,77.453839,CO,4,108,60
India,Uttar_Pradesh,Ghaziabad,"Vasundhara, Ghaziabad - UPPCB",10-06-2024 23:00:00,28.6603346,77.3572563,PM10,92,183,123
India,Uttar_Pradesh,Ghaziabad,"Vasundhara, Ghaziabad - UPPCB",10-06-2024 23:00:00,28.6603346,77.3572563,NO2,2,98,52
India,Uttar_Pradesh,Ghaziabad,"Vasundhara, Ghaziabad - UPPCB",10-06-2024 23:00:00,28.6603346,77.3572563,NH3,4,15,9
India,Uttar_Pradesh,Ghaziabad,"Vasundhara, Ghaziabad - UPPCB",10-06-2024 23:00:00,28.6603346,77.3572563,SO2,8,58,22
India,Uttar_Pradesh,Ghaziabad,"Vasundhara, Ghaziabad - UPPCB",10-06-2024 23:00:00,28.6603346,77.3572563,OZONE,13,157,90
India,Uttar_Pradesh,Greater Noida,"Knowledge Park - III, Greater Noida - UPPCB",10-06-2024 23:00:00,28.47272,77.482000,NH3,2,8,5
India,Uttar_Pradesh,Greater Noida,"Knowledge Park - III, Greater Noida - UPPCB",10-06-2024 23:00:00,28.47272,77.482000,CO,12,103,59
India,Uttar_Pradesh,Greater Noida,"Knowledge Park - III, Greater Noida - UPPCB",10-06-2024 23:00:00,28.47272,77.482000,OZONE,1,274,110
India,Uttar_Pradesh,Greater Noida,"Knowledge Park - V, Greater Noida - UPPCB",10-06-2024 23:00:00,28.557054,77.453663,NO2,23,61,39
India,Uttar_Pradesh,Greater Noida,"Knowledge Park - V, Greater Noida - UPPCB",10-06-2024 23:00:00,28.557054,77.453663,CO,3,102,53
India,Uttar_Pradesh,Greater Noida,"Knowledge Park - V, Greater Noida - UPPCB",10-06-2024 23:00:00,28.557054,77.453663,OZONE,16,222,89
India,Uttar_Pradesh,Hapur,"Anand Vihar, Hapur - UPPCB",10-06-2024 23:00:00,28.725645,77.749675,PM10,69,139,115
India,Uttar_Pradesh,Jhansi,"Shivaji Nagar, Jhansi - UPPCB",10-06-2024 23:00:00,25.4547,78.6039,SO2,17,25,20
India,Uttar_Pradesh,Kanpur,"FTI Kidwai Nagar, Kanpur - UPPCB",10-06-2024 23:00:00,26.428282,80.327067,NO2,12,24,16
India,Uttar_Pradesh,Khurja,"Kalindi Kunj, Khurja - UPPCB",10-06-2024 23:00:00,28.2348927,77.8683002,PM2.5,NA,NA,NA
India,Uttar_Pradesh,Khurja,"Kalindi Kunj, Khurja - UPPCB",10-06-2024 23:00:00,28.2348927,77.8683002,NO2,NA,NA,NA
India,Uttar_Pradesh,Khurja,"Kalindi Kunj, Khurja - UPPCB",10-06-2024 23:00:00,28.2348927,77.8683002,CO,20,32,25
India,Uttar_Pradesh,Lucknow,"B R Ambedkar University, Lucknow - UPPCB",10-06-2024 23:00:00,26.766433,80.927299,PM2.5,29,310,77
India,Uttar_Pradesh,Lucknow,"B R Ambedkar University, Lucknow - UPPCB",10-06-2024 23:00:00,26.766433,80.927299,CO,20,30,24
India,Uttar_Pradesh,Lucknow,"Gomti Nagar, Lucknow - UPPCB",10-06-2024 23:00:00,26.868120,81.005119,PM2.5,42,90,67
India,Uttar_Pradesh,Lucknow,"Kendriya Vidyalaya, Lucknow - CPCB",10-06-2024 23:00:00,26.906111,80.948222,PM10,104,133,115
India,Uttar_Pradesh,Lucknow,"Kendriya Vidyalaya, Lucknow - CPCB",10-06-2024 23:00:00,26.906111,80.948222,NO2,8,26,18
India,Uttar_Pradesh,Lucknow,"Kendriya Vidyalaya, Lucknow - CPCB",10-06-2024 23:00:00,26.906111,80.948222,SO2,2,13,8
India,Uttar_Pradesh,Lucknow,"Kukrail Picnic Spot-1, Lucknow - UPPCB",10-06-2024 23:00:00,26.90723,80.98579,SO2,32,38,35
India,Uttar_Pradesh,Lucknow,"Lalbagh, Lucknow - CPCB",10-06-2024 23:00:00,26.8458805,80.9365541,PM10,104,189,128
India,Uttar_Pradesh,Lucknow,"Lalbagh, Lucknow - CPCB",10-06-2024 23:00:00,26.8458805,80.9365541,NH3,17,17,17
India,Uttar_Pradesh,Lucknow,"Talkatora District Industries Center, Lucknow - CPCB",10-06-2024 23:00:00,26.83399722,80.8917361,PM10,14,174,138
India,Uttar_Pradesh,Meerut,"Jai Bhim Nagar, Meerut - UPPCB",10-06-2024 23:00:00,28.9535882,77.7622941,NH3,6,9,7
India,Uttar_Pradesh,Meerut,"Pallavpuram Phase 2, Meerut - UPPCB",10-06-2024 23:00:00,29.063510,77.709723,CO,4,85,48
India,Uttar_Pradesh,Moradabad,"Buddhi Vihar, Moradabad - UPPCB",10-06-2024 23:00:00,28.83526,78.74460,NO2,23,23,23
India,Uttar_Pradesh,Moradabad,"Buddhi Vihar, Moradabad - UPPCB",10-06-2024 23:00:00,28.83526,78.74460,OZONE,40,125,89
India,Uttar_Pradesh,Moradabad,"Eco Herbal Park, Moradabad - UPPCB",10-06-2024 23:00:00,28.840739,78.697531,OZONE,52,168,146
India,Uttar_Pradesh,Moradabad,"Employment Office, Moradabad - UPPCB",10-06-2024 23:00:00,28.88528,78.73880,NO2,17,17,17
India,Uttar_Pradesh,Moradabad,"Employment Office, Moradabad - UPPCB",10-06-2024 23:00:00,28.88528,78.73880,CO,14,38,24
India,Uttar_Pradesh,Moradabad,"Jigar Colony, Moradabad - UPPCB",10-06-2024 23:00:00,28.856664,78.772638,PM10,73,156,112
India,Uttar_Pradesh,Moradabad,"Kashiram Nagar, Moradabad - UPPCB",10-06-2024 23:00:00,28.849399,78.742362,NH3,3,4,4
India,Uttar_Pradesh,Moradabad,"Transport Nagar, Moradabad - UPPCB",10-06-2024 23:00:00,28.802625,78.753728,PM2.5,17,88,47
India,Uttar_Pradesh,Moradabad,"Transport Nagar, Moradabad - UPPCB",10-06-2024 23:00:00,28.802625,78.753728,PM10,49,118,92
India,Uttar_Pradesh,Moradabad,"Transport Nagar, Moradabad - UPPCB",10-06-2024 23:00:00,28.802625,78.753728,NH3,5,5,5
India,Uttar_Pradesh,Moradabad,"Transport Nagar, Moradabad - UPPCB",10-06-2024 23:00:00,28.802625,78.753728,SO2,66,92,80
India,Uttar_Pradesh,Muzaffarnagar,"New Mandi, Muzaffarnagar - UPPCB",10-06-2024 23:00:00,29.4723508,77.7194031,PM2.5,52,226,115
India,Uttar_Pradesh,Noida,"Sector - 125, Noida - UPPCB",10-06-2024 23:00:00,28.5447608,77.3231257,PM10,125,296,176
India,Uttar_Pradesh,Noida,"Sector - 125, Noida - UPPCB",10-06-2024 23:00:00,28.5447608,77.3231257,SO2,1,22,14
India,Uttar_Pradesh,Noida,"Sector - 62, Noida - IMD",10-06-2024 23:00:00,28.6245479,77.3577104,PM10,121,264,160
India,Uttar_Pradesh,Noida,"Sector-1, Noida - UPPCB",10-06-2024 23:00:00,28.5898,77.3101,CO,3,103,56
India,Uttar_Pradesh,Noida,"Sector-116, Noida - UPPCB",10-06-2024 23:00:00,28.569230,77.393848,PM2.5,33,111,67
India,Uttar_Pradesh,Noida,"Sector-116, Noida - UPPCB",10-06-2024 23:00:00,28.569230,77.393848,NH3,6,10,8
India,Uttar_Pradesh,Prayagraj,"Jhunsi, Prayagraj - UPPCB",10-06-2024 23:00:00,25.425602,81.917152,CO,2,34,8
India,Uttar_Pradesh,Prayagraj,"Motilal Nehru NIT, Prayagraj - UPPCB",10-06-2024 23:00:00,25.494,81.863,PM10,45,117,75
India,Uttar_Pradesh,Prayagraj,"Nagar Nigam, Prayagraj - UPPCB",10-06-2024 23:00:00,25.44919916 ,81.82735986 ,OZONE,11,12,11
India,Uttar_Pradesh,Varanasi,"Ardhali Bazar, Varanasi - UPPCB",10-06-2024 23:00:00,25.3505986,82.9083074,SO2,44,61,51
India,Uttar_Pradesh,Varanasi,"Bhelupur, Varanasi - UPPCB",10-06-2024 23:00:00,25.301778,82.996789,PM2.5,3,19,10
India,Uttar_Pradesh,Varanasi,"IESD Banaras Hindu University, Varanasi - UPPCB",10-06-2024 23:00:00,25.262326,82.995408,CO,2,20,8
India,Uttar_Pradesh,Varanasi,"Maldahiya, Varanasi - UPPCB",10-06-2024 23:00:00,25.32393,82.99687,NO2,1,2,2
India,Uttar_Pradesh,Varanasi,"Maldahiya, Varanasi - UPPCB",10-06-2024 23:00:00,25.32393,82.99687,OZONE,1,29,17
India,Uttar_Pradesh,Vrindavan,"Omex Eternity, Vrindavan - UPPCB",10-06-2024 23:00:00,27.5714090,77.6557570,PM2.5,15,75,38
India,Uttarakhand,Kashipur,"Govt. Girls Inter College, Kashipur - UKPCB",10-06-2024 23:00:00,29.2124114,78.9611753,PM10,106,158,130
India,West_Bengal,Asansol,"Asansol Court Area, Asansol - WBPCB",10-06-2024 23:00:00,23.685297,86.945968,PM2.5,107,327,240
India,West_Bengal,Asansol,"Asansol Court Area, Asansol - WBPCB",10-06-2024 23:00:00,23.685297,86.945968,NO2,34,59,45
India,West_Bengal,Asansol,"Evelyn Lodge, Asansol - WBPCB",10-06-2024 23:00:00,23.6979360,86.9443950,SO2,13,21,17
India,West_Bengal,Asansol,"Evelyn Lodge, Asansol - WBPCB",10-06-2024 23:00:00,23.6979360,86.9443950,CO,62,86,71
India,West_Bengal,Barrackpore,"SVSPA Campus, Barrackpore - WBPCB",10-06-2024 23:00:00,22.7605581,88.3617589,PM2.5,30,124,62
India,West_Bengal,Durgapur,"PCBL Residential Complex, Durgapur - WBPCB",10-06-2024 23:00:00,23.5087640,87.3544400,PM2.5,NA,NA,NA
India,West_Bengal,Durgapur,"PCBL Residential Complex, Durgapur - WBPCB",10-06-2024 23:00:00,23.5087640,87.3544400,NH3,NA,NA,NA
India,West_Bengal,Durgapur,"Sidhu Kanhu Indoor Stadium, Durgapur - WBPCB",10-06-2024 23:00:00,23.5404352,87.2892225,PM2.5,58,300,157
India,West_Bengal,Durgapur,"Sidhu Kanhu Indoor Stadium, Durgapur - WBPCB",10-06-2024 23:00:00,23.5404352,87.2892225,NO2,17,48,27
India,West_Bengal,Durgapur,"Sidhu Kanhu Indoor Stadium, Durgapur - WBPCB",10-06-2024 23:00:00,23.5404352,87.2892225,CO,24,64,44
India,West_Bengal,Durgapur,"Sidhu Kanhu Indoor Stadium, Durgapur - WBPCB",10-06-2024 23:00:00,23.5404352,87.2892225,OZONE,14,83,49
India,West_Bengal,Haldia,"Priyambada Housing Estate, Haldia - WBPCB",10-06-2024 23:00:00,22.06047,88.109737,PM10,4,77,46
India,West_Bengal,Howrah,"Belur Math, Howrah - WBPCB",10-06-2024 23:00:00,22.629801,88.352017,OZONE,23,75,40
India,West_Bengal,Howrah,"Ghusuri, Howrah - WBPCB",10-06-2024 23:00:00,22.611968,88.347422,PM2.5,39,76,56
India,West_Bengal,Howrah,"Ghusuri, Howrah - WBPCB",10-06-2024 23:00:00,22.611968,88.347422,NO2,14,23,19
India,West_Bengal,Howrah,"Ghusuri, Howrah - WBPCB",10-06-2024 23:00:00,22.611968,88.347422,NH3,6,6,6
India,West_Bengal,Howrah,"Ghusuri, Howrah - WBPCB",10-06-2024 23:00:00,22.611968,88.347422,SO2,4,5,5
India,West_Bengal,Howrah,"Padmapukur, Howrah - WBPCB",10-06-2024 23:00:00,22.5687319,88.2797276,PM2.5,50,91,67
India,West_Bengal,Howrah,"Padmapukur, Howrah - WBPCB",10-06-2024 23:00:00,22.5687319,88.2797276,PM10,72,99,81
India,West_Bengal,Howrah,"Padmapukur, Howrah - WBPCB",10-06-2024 23:00:00,22.5687319,88.2797276,NO2,25,37,30
India,West_Bengal,Howrah,"Padmapukur, Howrah - WBPCB",10-06-2024 23:00:00,22.5687319,88.2797276,NH3,6,9,7
India,West_Bengal,Kolkata,"Ballygunge, Kolkata - WBPCB",10-06-2024 23:00:00,22.5367507,88.3638022,NO2,8,22,13
India,West_Bengal,Kolkata,"Ballygunge, Kolkata - WBPCB",10-06-2024 23:00:00,22.5367507,88.3638022,OZONE,39,74,56
India,West_Bengal,Kolkata,"Fort William, Kolkata - WBPCB",10-06-2024 23:00:00,22.556640,88.342674,NH3,1,9,2
India,West_Bengal,Kolkata,"Fort William, Kolkata - WBPCB",10-06-2024 23:00:00,22.556640,88.342674,CO,18,24,21
India,West_Bengal,Kolkata,"Jadavpur, Kolkata - WBPCB",10-06-2024 23:00:00,22.49929,88.36917,NH3,5,6,6
India,West_Bengal,Kolkata,"Jadavpur, Kolkata - WBPCB",10-06-2024 23:00:00,22.49929,88.36917,CO,16,24,21
India,West_Bengal,Kolkata,"Jadavpur, Kolkata - WBPCB",10-06-2024 23:00:00,22.49929,88.36917,OZONE,33,82,51
India,West_Bengal,Kolkata,"Rabindra Bharati University, Kolkata - WBPCB",10-06-2024 23:00:00,22.627847,88.380669,SO2,4,8,6
India,West_Bengal,Kolkata,"Rabindra Bharati University, Kolkata - WBPCB",10-06-2024 23:00:00,22.627847,88.380669,OZONE,13,95,50
India,West_Bengal,Kolkata,"Rabindra Sarobar, Kolkata - WBPCB",10-06-2024 23:00:00,22.51106,88.35142,PM2.5,9,47,33
India,West_Bengal,Kolkata,"Rabindra Sarobar, Kolkata - WBPCB",10-06-2024 23:00:00,22.51106,88.35142,CO,16,25,23
India,Andhra_Pradesh,Amaravati,"Secretariat, Amaravati - APPCB",10-06-2024 23:00:00,16.5150833,80.5181667,PM2.5,NA,NA,NA
India,Andhra_Pradesh,Kadapa,"Yerramukkapalli, Kadapa - APPCB",10-06-2024 23:00:00,14.465052,78.824187,PM2.5,32,33,32
India,Andhra_Pradesh,Kadapa,"Yerramukkapalli, Kadapa - APPCB",10-06-2024 23:00:00,14.465052,78.824187,NO2,12,13,12
India,Andhra_Pradesh,Kadapa,"Yerramukkapalli, Kadapa - APPCB",10-06-2024 23:00:00,14.465052,78.824187,CO,14,34,24
India,Andhra_Pradesh,Tirupati,"Tirumala, Tirupati - APPCB",10-06-2024 23:00:00,13.67,79.35,OZONE,20,32,29
India,Andhra_Pradesh,Tirupati,"Vaikuntapuram, Tirupati - APPCB",10-06-2024 23:00:00,13.615387,79.409230,PM10,NA,NA,NA
India,Andhra_Pradesh,Vijayawada,"HB Colony, Vijayawada - APPCB",10-06-2024 23:00:00,16.536107,80.594233,PM2.5,37,62,46
India,Andhra_Pradesh,Vijayawada,"HB Colony, Vijayawada - APPCB",10-06-2024 23:00:00,16.536107,80.594233,CO,34,34,34
India,Andhra_Pradesh,Vijayawada,"HB Colony, Vijayawada - APPCB",10-06-2024 23:00:00,16.536107,80.594233,OZONE,14,27,19
India,Andhra_Pradesh,Vijayawada,"Kanuru, Vijayawada - APPCB",10-06-2024 23:00:00,16.486692,80.699436,PM2.5,38,49,44
India,Andhra_Pradesh,Vijayawada,"Kanuru, Vijayawada - APPCB",10-06-2024 23:00:00,16.486692,80.699436,PM10,44,58,52
India,Andhra_Pradesh,Vijayawada,"Rajiv Gandhi Park, Vijayawada - APPCB",10-06-2024 23:00:00,16.509717,80.612222,SO2,7,11,7
India,Andhra_Pradesh,Visakhapatnam,"GVM Corporation, Visakhapatnam - APPCB",10-06-2024 23:00:00,17.72,83.3,NH3,NA,NA,NA
India,Arunachal_Pradesh,Naharlagun,"Naharlagun, Naharlagun - APSPCB",10-06-2024 23:00:00,27.103358,93.679645,OZONE,3,3,3
India,Assam,Byrnihat,"Central Academy for SFS, Byrnihat - PCBA",10-06-2024 23:00:00,26.071318,91.87488,PM2.5,80,477,275
India,Assam,Guwahati,"LGBI Airport, Guwahati - PCBA",10-06-2024 23:00:00,26.10887,91.589544,OZONE,10,30,22
India,Assam,Guwahati,"Pan Bazaar, Guwahati - PCBA",10-06-2024 23:00:00,26.187500,91.744194,OZONE,16,17,16
India,Assam,Guwahati,"Railway Colony, Guwahati - PCBA",10-06-2024 23:00:00,26.181742,91.78063,CO,28,73,42
India,Assam,Nagaon,"Christianpatty, Nagaon - PCBA",10-06-2024 23:00:00,26.349082,92.68449,CO,34,87,62
India,Assam,Nagaon,"Christianpatty, Nagaon - PCBA",10-06-2024 23:00:00,26.349082,92.68449,OZONE,22,82,32
India,Assam,Nalbari,"Bata Chowk, Nalbari - PCBA",10-06-2024 23:00:00,26.446912,91.439057,NO2,17,26,22
India,Assam,Silchar,"Tarapur, Silchar - PCBA",10-06-2024 23:00:00,24.82827,92.79525,NH3,1,1,1
India,Assam,Silchar,"Tarapur, Silchar - PCBA",10-06-2024 23:00:00,24.82827,92.79525,CO,20,30,23
India,Assam,Silchar,"Tarapur, Silchar - PCBA",10-06-2024 23:00:00,24.82827,92.79525,OZONE,1,5,2
India,Assam,Sivasagar,"Girls College, Sivasagar - PCBA",10-06-2024 23:00:00,26.987634,94.636574,SO2,7,9,8
India,Bihar,Arrah,"New DM Office, Arrah - BSPCB",10-06-2024 23:00:00,25.5626095,84.663264,PM10,NA,NA,NA
India,Bihar,Arrah,"New DM Office, Arrah - BSPCB",10-06-2024 23:00:00,25.5626095,84.663264,OZONE,2,85,33
India,Bihar,Aurangabad,"Gurdeo Nagar, Aurangabad - BSPCB",10-06-2024 23:00:00,24.75746,84.366208,NO2,1,10,6
India,Bihar,Aurangabad,"Gurdeo Nagar, Aurangabad - BSPCB",10-06-2024 23:00:00,24.75746,84.366208,NH3,1,22,10
India,Bihar,Bettiah,"Kamalnath Nagar, Bettiah - BSPCB",10-06-2024 23:00:00,26.80365,84.51954,PM10,NA,NA,NA
India,Bihar,Bettiah,"Kamalnath Nagar, Bettiah - BSPCB",10-06-2024 23:00:00,26.80365,84.51954,NH3,NA,NA,NA
India,Bihar,Bhagalpur,"DM Office_Kachari Chowk, Bhagalpur - BSPCB",10-06-2024 23:00:00,25.251013,86.989001,NO2,18,63,33
India,Bihar,Bhagalpur,"DM Office_Kachari Chowk, Bhagalpur - BSPCB",10-06-2024 23:00:00,25.251013,86.989001,OZONE,44,54,47
India,Bihar,Bhagalpur,"Mayaganj, Bhagalpur - BSPCB",10-06-2024 23:00:00,25.265194,87.012947,PM10,NA,NA,NA
India,Bihar,Bihar Sharif,"D M Colony, Bihar Sharif - BSPCB",10-06-2024 23:00:00,25.204762,85.514960,PM10,NA,NA,NA
India,Bihar,Bihar Sharif,"D M Colony, Bihar Sharif - BSPCB",10-06-2024 23:00:00,25.204762,85.514960,NH3,NA,NA,NA
India,Bihar,Bihar Sharif,"D M Colony, Bihar Sharif - BSPCB",10-06-2024 23:00:00,25.204762,85.514960,OZONE,5,90,27
India,Bihar,Chhapra,"Darshan Nagar, Chhapra - BSPCB",10-06-2024 23:00:00,25.7808257,84.7446768,CO,27,52,45
India,Bihar,Gaya,"Kareemganj, Gaya - BSPCB",10-06-2024 23:00:00,24.792403,84.992416,SO2,9,10,10
India,Bihar,Hajipur,"Industrial Area, Hajipur - BSPCB",10-06-2024 23:00:00,25.697189,85.245900,SO2,4,6,5
India,Bihar,Katihar,"Mirchaibari, Katihar - BSPCB",10-06-2024 23:00:00,25.560083,87.553265,PM10,48,177,87
India,Bihar,Katihar,"Mirchaibari, Katihar - BSPCB",10-06-2024 23:00:00,25.560083,87.553265,NO2,NA,NA,NA
India,Bihar,Katihar,"Mirchaibari, Katihar - BSPCB",10-06-2024 23:00:00,25.560083,87.553265,CO,28,40,37
India,Bihar,Kishanganj,"SDM Office_Khagra, Kishanganj - BSPCB",10-06-2024 23:00:00,26.0881305,87.93840336,NH3,6,8,6
India,Bihar,Kishanganj,"SDM Office_Khagra, Kishanganj - BSPCB",10-06-2024 23:00:00,26.0881305,87.93840336,CO,4,9,7
India,Bihar,Manguraha,"Forest Rest House, Manguraha - BSPCB",10-06-2024 23:00:00,27.308328,84.531742,PM10,NA,NA,NA
India,Bihar,Manguraha,"Forest Rest House, Manguraha - BSPCB",10-06-2024 23:00:00,27.308328,84.531742,CO,33,56,48
India,Bihar,Manguraha,"Forest Rest House, Manguraha - BSPCB",10-06-2024 23:00:00,27.308328,84.531742,OZONE,8,76,22
India,Bihar,Munger,"Town Hall, Munger - BSPCB",10-06-2024 23:00:00,25.376776,86.471523,PM10,NA,NA,NA
India,Bihar,Patna,"DRM Office Danapur, Patna - BSPCB",10-06-2024 23:00:00,25.586562,85.043586,NH3,2,3,3
India,Bihar,Patna,"DRM Office Danapur, Patna - BSPCB",10-06-2024 23:00:00,25.586562,85.043586,OZONE,15,65,53
India,Bihar,Patna,"IGSC Planetarium Complex, Patna - BSPCB",10-06-2024 23:00:00,25.610369,85.132568,SO2,4,6,5
India,Bihar,Patna,"IGSC Planetarium Complex, Patna - BSPCB",10-06-2024 23:00:00,25.610369,85.132568,OZONE,52,224,89
India,Bihar,Patna,"Muradpur, Patna - BSPCB",10-06-2024 23:00:00,25.619651,85.147382,NH3,1,6,4
India,Bihar,Patna,"Rajbansi Nagar, Patna - BSPCB",10-06-2024 23:00:00,25.599486,85.113666,PM10,108,184,150
India,Bihar,Patna,"Rajbansi Nagar, Patna - BSPCB",10-06-2024 23:00:00,25.599486,85.113666,SO2,2,18,9
India,Bihar,Patna,"Rajbansi Nagar, Patna - BSPCB",10-06-2024 23:00:00,25.599486,85.113666,OZONE,18,72,41
India,Bihar,Patna,"Samanpura, Patna - BSPCB",10-06-2024 23:00:00,25.596727,85.085624,NO2,5,45,12
India,Bihar,Patna,"Samanpura, Patna - BSPCB",10-06-2024 23:00:00,25.596727,85.085624,CO,56,93,70
India,Bihar,Saharsa,"Police Line, Saharsa - BSPCB",10-06-2024 23:00:00,25.892357,86.590325,NO2,6,8,7
India,Bihar,Saharsa,"Police Line, Saharsa - BSPCB",10-06-2024 23:00:00,25.892357,86.590325,OZONE,14,67,43
India,Bihar,Siwan,"Chitragupta Nagar, Siwan - BSPCB",10-06-2024 23:00:00,26.2271665,84.3570427,OZONE,12,78,52
India,Chandigarh,Chandigarh,"Sector 22, Chandigarh - CPCC",10-06-2024 23:00:00,30.735567,76.775714,SO2,6,42,19
India,Chandigarh,Chandigarh,"Sector-25, Chandigarh - CPCC",10-06-2024 23:00:00,30.751462,76.762879,CO,6,37,15
India,Chhattisgarh,Bhilai,"32Bungalows, Bhilai - CECB",10-06-2024 23:00:00,21.194815,81.314770,NO2,10,18,13
India,Chhattisgarh,Bhilai,"Civic Center, Bhilai - Bhilai Steel Plant",10-06-2024 23:00:00,21.185571,81.343175,SO2,9,11,10
India,Chhattisgarh,Bhilai,"Hathkhoj, Bhilai - CECB",10-06-2024 23:00:00,21.224231,81.408350,PM2.5,NA,NA,NA
India,Chhattisgarh,Bhilai,"Hathkhoj, Bhilai - CECB",10-06-2024 23:00:00,21.224231,81.408350,NH3,NA,NA,NA
India,Chhattisgarh,Bhilai,"Hathkhoj, Bhilai - CECB",10-06-2024 23:00:00,21.224231,81.408350,SO2,NA,NA,NA
India,Chhattisgarh,Bhilai,"Hathkhoj, Bhilai - CECB",10-06-2024 23:00:00,21.224231,81.408350,CO,8,52,28
India,Chhattisgarh,Bhilai,"Hathkhoj, Bhilai - CECB",10-06-2024 23:00:00,21.224231,81.408350,OZONE,28,48,38
India,Chhattisgarh,Bilaspur,"Mangala, Bilaspur - NTPC",10-06-2024 23:00:00,22.08815,82.13737,PM2.5,24,74,51
India,Chhattisgarh,Chhal,"Nawapara SECL Colony, Chhal - CECB",10-06-2024 23:00:00,22.118125,83.140608,NO2,10,45,22
India,Chhattisgarh,Chhal,"Nawapara SECL Colony, Chhal - CECB",10-06-2024 23:00:00,22.118125,83.140608,CO,26,94,28
India,Chhattisgarh,Korba,"Urja Nagar, Korba - CECB",10-06-2024 23:00:00,22.348441,82.549611,PM10,4,267,61
India,Chhattisgarh,Milupara,"Govt. Higher Secondary School, Milupara - CECB",10-06-2024 23:00:00,22.1910172,83.5197009,PM10,NA,NA,NA
India,Chhattisgarh,Raipur,"AIIMS, Raipur - CECB",10-06-2024 23:00:00,21.258815,81.578979,NO2,NA,NA,NA
India,Chhattisgarh,Raipur,"Siltara Phase-II, Raipur - CECB",10-06-2024 23:00:00,21.371751,81.664929,PM10,38,175,111
India,Delhi,Delhi,"Anand Vihar, Delhi - DPCC",10-06-2024 23:00:00,28.647622,77.3158090,PM2.5,32,305,120
India,Delhi,Delhi,"Chandni Chowk, Delhi - IITM",10-06-2024 23:00:00,28.656756,77.227234,OZONE,1,10,5
India,Delhi,Delhi,"Dr. Karni Singh Shooting Range, Delhi - DPCC",10-06-2024 23:00:00,28.498571,77.264840,PM2.5,35,97,59
India,Delhi,Delhi,"Dwarka-Sector 8, Delhi - DPCC ",10-06-2024 23:00:00,28.5710274,77.0719006,NO2,12,101,31
India,Delhi,Delhi,"Dwarka-Sector 8, Delhi - DPCC ",10-06-2024 23:00:00,28.5710274,77.0719006,NH3,4,7,5
India,Delhi,Delhi,"IGI Airport (T3), Delhi - IMD",10-06-2024 23:00:00,28.5627763,77.1180053,PM2.5,12,81,56
India,Delhi,Delhi,"IGI Airport (T3), Delhi - IMD",10-06-2024 23:00:00,28.5627763,77.1180053,CO,38,73,54
India,Delhi,Delhi,"Jahangirpuri, Delhi - DPCC",10-06-2024 23:00:00,28.732820,77.170633,PM2.5,37,307,140
India,Delhi,Delhi,"Jahangirpuri, Delhi - DPCC",10-06-2024 23:00:00,28.732820,77.170633,OZONE,4,110,52
India,Delhi,Delhi,"Jawaharlal Nehru Stadium, Delhi - DPCC",10-06-2024 23:00:00,28.580280,77.233829,SO2,11,47,26
India,Delhi,Delhi,"Lodhi Road, Delhi - IMD",10-06-2024 23:00:00,28.5918245,77.2273074,PM10,NA,NA,NA
India,Delhi,Delhi,"Major Dhyan Chand National Stadium, Delhi - DPCC",10-06-2024 23:00:00,28.611281,77.237738,PM2.5,47,197,89
India,Delhi,Delhi,"Mundka, Delhi - DPCC",10-06-2024 23:00:00,28.684678,77.076574,PM10,118,288,180
India,Delhi,Delhi,"NSIT Dwarka, Delhi - CPCB",10-06-2024 23:00:00,28.60909,77.0325413,PM2.5,15,212,99
India,Delhi,Delhi,"NSIT Dwarka, Delhi - CPCB",10-06-2024 23:00:00,28.60909,77.0325413,PM10,137,262,171
India,Delhi,Delhi,"NSIT Dwarka, Delhi - CPCB",10-06-2024 23:00:00,28.60909,77.0325413,SO2,13,34,21
India,Delhi,Delhi,"Najafgarh, Delhi - DPCC",10-06-2024 23:00:00,28.570173,76.933762,NO2,5,37,15
India,Delhi,Delhi,"Narela, Delhi - DPCC",10-06-2024 23:00:00,28.822836,77.101981,PM2.5,30,205,80
India,Delhi,Delhi,"Narela, Delhi - DPCC",10-06-2024 23:00:00,28.822836,77.101981,PM10,123,238,165
India,Delhi,Delhi,"Narela, Delhi - DPCC",10-06-2024 23:00:00,28.822836,77.101981,NH3,4,5,5
India,Delhi,Delhi,"Narela, Delhi - DPCC",10-06-2024 23:00:00,28.822836,77.101981,OZONE,18,166,95
India,Delhi,Delhi,"Patparganj, Delhi - DPCC",10-06-2024 23:00:00,28.623763,77.287209,PM2.5,48,197,88
India,Delhi,Delhi,"Patparganj, Delhi - DPCC",10-06-2024 23:00:00,28.623763,77.287209,SO2,2,21,8
India,Delhi,Delhi,"Punjabi Bagh, Delhi - DPCC",10-06-2024 23:00:00,28.674045,77.131023,PM2.5,2,230,99
India,Delhi,Delhi,"Punjabi Bagh, Delhi - DPCC",10-06-2024 23:00:00,28.674045,77.131023,PM10,104,425,174
India,Delhi,Delhi,"Punjabi Bagh, Delhi - DPCC",10-06-2024 23:00:00,28.674045,77.131023,NO2,18,113,43
India,Delhi,Delhi,"Punjabi Bagh, Delhi - DPCC",10-06-2024 23:00:00,28.674045,77.131023,SO2,13,45,31
India,Delhi,Delhi,"Pusa, Delhi - DPCC",10-06-2024 23:00:00,28.639652,77.146275,PM10,122,396,168
India,Delhi,Delhi,"Pusa, Delhi - DPCC",10-06-2024 23:00:00,28.639652,77.146275,NH3,4,7,6
India,Delhi,Delhi,"Pusa, Delhi - IMD",10-06-2024 23:00:00,28.636110,77.173332,CO,26,68,40
India,Delhi,Delhi,"R K Puram, Delhi - DPCC",10-06-2024 23:00:00,28.563262,77.186937,NO2,22,160,71
India,Delhi,Delhi,"Rohini, Delhi - DPCC",10-06-2024 23:00:00,28.732528,77.119920,NO2,14,153,44
India,Delhi,Delhi,"Sonia Vihar, Delhi - DPCC",10-06-2024 23:00:00,28.710508,77.249485,PM10,101,290,148
India,Delhi,Delhi,"Sonia Vihar, Delhi - DPCC",10-06-2024 23:00:00,28.710508,77.249485,SO2,8,37,16
India,Delhi,Delhi,"Sri Aurobindo Marg, Delhi - DPCC",10-06-2024 23:00:00,28.531346,77.190156,PM10,118,148,131
India,Delhi,Delhi,"Sri Aurobindo Marg, Delhi - DPCC",10-06-2024 23:00:00,28.531346,77.190156,NH3,3,5,4
India,Delhi,Delhi,"Sri Aurobindo Marg, Delhi - DPCC",10-06-2024 23:00:00,28.531346,77.190156,CO,35,60,42
India,Delhi,Delhi,"Vivek Vihar, Delhi - DPCC",10-06-2024 23:00:00,28.672342,77.315260,NH3,16,17,16
India,Delhi,Delhi,"Vivek Vihar, Delhi - DPCC",10-06-2024 23:00:00,28.672342,77.315260,CO,57,107,79
India,Gujarat,Ahmedabad,"Chandkheda, Ahmedabad - IITM",10-06-2024 23:00:00,23.107969,72.574648,PM10,21,101,64
India,Gujarat,Ahmedabad,"Gyaspur, Ahmedabad - IITM",10-06-2024 23:00:00,22.977134,72.553024,PM2.5,23,106,52
India,Gujarat,Ahmedabad,"Gyaspur, Ahmedabad - IITM",10-06-2024 23:00:00,22.977134,72.553024,NO2,37,55,44
India,Gujarat,Ahmedabad,"Gyaspur, Ahmedabad - IITM",10-06-2024 23:00:00,22.977134,72.553024,CO,45,50,49
India,Gujarat,Ahmedabad,"Gyaspur, Ahmedabad - IITM",10-06-2024 23:00:00,22.977134,72.553024,OZONE,37,56,51
India,Gujarat,Ahmedabad,"Maninagar, Ahmedabad - GPCB",10-06-2024 23:00:00,23.002657,72.591912,SO2,93,138,113
India,Gujarat,Ahmedabad,"Rakhial, Ahmedabad - IITM",10-06-2024 23:00:00,23.016834,72.625775,PM2.5,16,61,41
India,Gujarat,Ahmedabad,"Rakhial, Ahmedabad - IITM",10-06-2024 23:00:00,23.016834,72.625775,SO2,19,61,33
India,Gujarat,Ahmedabad,"SVPI Airport Hansol, Ahmedabad - IITM",10-06-2024 23:00:00,23.076793,72.627874,NH3,3,4,4
India,Gujarat,Gandhinagar,"Sector-10, Gandhinagar - GPCB",10-06-2024 23:00:00,23.221714,72.654328,PM2.5,25,54,40
India,Gujarat,Gandhinagar,"Sector-10, Gandhinagar - GPCB",10-06-2024 23:00:00,23.221714,72.654328,NH3,2,2,2
India,Gujarat,Gandhinagar,"Sector-10, Gandhinagar - GPCB",10-06-2024 23:00:00,23.221714,72.654328,SO2,2,3,2
India,Gujarat,Nandesari,"GIDC, Nandesari - Nandesari Ind. Association",10-06-2024 23:00:00,22.410802,73.097923,NO2,NA,NA,NA
India,Gujarat,Surat,"Science Center, Surat - SMC",10-06-2024 23:00:00,21.170046,72.795405,PM10,NA,NA,NA
India,Gujarat,Vatva,"Phase-4 GIDC, Vatva - GPCB",10-06-2024 23:00:00,22.969611,72.643500,NH3,8,11,9
India,Gujarat,Vatva,"Phase-4 GIDC, Vatva - GPCB",10-06-2024 23:00:00,22.969611,72.643500,SO2,1,28,6
India,Haryana,Bahadurgarh,"Arya Nagar, Bahadurgarh - HSPCB",10-06-2024 23:00:00,28.6701,76.9254,SO2,4,27,12
India,Haryana,Ballabgarh,"Nathu Colony, Ballabgarh - HSPCB",10-06-2024 23:00:00,28.3419248,77.319699,NO2,12,14,12
India,Haryana,Charkhi Dadri,"Mini Secretariat, Charkhi Dadri - HSPCB",10-06-2024 23:00:00,28.593883,76.270653,SO2,NA,NA,NA
India,Haryana,Dharuhera,"Municipal Corporation Office, Dharuhera -  HSPCB",10-06-2024 23:00:00,28.206800,76.799700,NO2,48,110,82
India,Haryana,Dharuhera,"Municipal Corporation Office, Dharuhera -  HSPCB",10-06-2024 23:00:00,28.206800,76.799700,SO2,6,15,10
India,Haryana,Dharuhera,"Municipal Corporation Office, Dharuhera -  HSPCB",10-06-2024 23:00:00,28.206800,76.799700,CO,6,40,17
India,Haryana,Faridabad,"New Industrial Town, Faridabad - HSPCB",10-06-2024 23:00:00,28.39072,77.30059,PM10,110,411,175
India,Haryana,Faridabad,"New Industrial Town, Faridabad - HSPCB",10-06-2024 23:00:00,28.39072,77.30059,NO2,9,14,12
India,Haryana,Faridabad,"Sector 11, Faridabad - HSPCB",10-06-2024 23:00:00,28.376058,77.315741,NH3,6,6,6
India,Haryana,Gurugram,"NISE Gwal Pahari, Gurugram - IMD",10-06-2024 23:00:00,28.422681,77.148944,CO,2,44,18
India,Haryana,Gurugram,"NISE Gwal Pahari, Gurugram - IMD",10-06-2024 23:00:00,28.422681,77.148944,OZONE,35,75,54
India,Haryana,Gurugram,"Sector-51, Gurugram - HSPCB",10-06-2024 23:00:00,28.4227,77.0667,SO2,NA,NA,NA
India,Haryana,Gurugram,"Sector-51, Gurugram - HSPCB",10-06-2024 23:00:00,28.4227,77.0667,CO,23,71,40
India,Haryana,Gurugram,"Teri Gram, Gurugram - HSPCB",10-06-2024 23:00:00,28.4275,77.1465,PM10,74,163,113
India,Haryana,Gurugram,"Teri Gram, Gurugram - HSPCB",10-06-2024 23:00:00,28.4275,77.1465,NO2,1,67,28
India,Haryana,Gurugram,"Teri Gram, Gurugram - HSPCB",10-06-2024 23:00:00,28.4275,77.1465,SO2,4,5,4
India,Haryana,Gurugram,"Vikas Sadan, Gurugram - HSPCB",10-06-2024 23:00:00,28.4501238,77.0263051,CO,50,129,101
India,Haryana,Hisar,"Urban Estate-II, Hisar - HSPCB",10-06-2024 23:00:00,29.140560,75.744941,OZONE,49,157,110
India,Haryana,Jind,"Police Lines, Jind - HSPCB",10-06-2024 23:00:00,29.307814,76.337619,CO,6,84,26
India,Haryana,Kaithal,"Rishi Nagar, Kaithal - HSPCB",10-06-2024 23:00:00,29.8006,76.4155,PM10,113,217,138
India,Haryana,Karnal,"Sector-12, Karnal - HSPCB",10-06-2024 23:00:00,29.695300,77.002700,CO,2,58,24
India,Haryana,Kurukshetra,"Sector-7, Kurukshetra - HSPCB",10-06-2024 23:00:00,29.966942,76.875879,CO,2,39,14
India,Haryana,Mandikhera,"General Hospital, Mandikhera - HSPCB",10-06-2024 23:00:00,27.9002,76.9938,PM10,63,500,114
India,Haryana,Mandikhera,"General Hospital, Mandikhera - HSPCB",10-06-2024 23:00:00,27.9002,76.9938,NO2,19,25,21
India,Haryana,Mandikhera,"General Hospital, Mandikhera - HSPCB",10-06-2024 23:00:00,27.9002,76.9938,NH3,17,19,18
India,Haryana,Manesar,"Sector-2 IMT, Manesar - HSPCB",10-06-2024 23:00:00,28.360699,76.936090,SO2,13,25,18
India,Haryana,Narnaul,"Shastri Nagar, Narnaul - HSPCB",10-06-2024 23:00:00,28.060249,76.113115,NO2,15,83,47
India,Haryana,Narnaul,"Shastri Nagar, Narnaul - HSPCB",10-06-2024 23:00:00,28.060249,76.113115,CO,7,34,17
India,Haryana,Palwal,"Shyam Nagar, Palwal - HSPCB",10-06-2024 23:00:00,28.1485564,77.3320667,PM2.5,56,82,66
India,Haryana,Palwal,"Shyam Nagar, Palwal - HSPCB",10-06-2024 23:00:00,28.1485564,77.3320667,PM10,62,99,79
India,Haryana,Panchkula,"Sector-6, Panchkula - HSPCB ",10-06-2024 23:00:00,30.7057778,76.8531805555555,PM2.5,NA,NA,NA
India,Haryana,Rohtak,"MD University, Rohtak - HSPCB",10-06-2024 23:00:00,28.52123,76.37138,NO2,47,56,51
India,Haryana,Rohtak,"MD University, Rohtak - HSPCB",10-06-2024 23:00:00,28.52123,76.37138,SO2,5,8,7
India,Haryana,Sirsa,"F-Block, Sirsa - HSPCB",10-06-2024 23:00:00,29.536400,75.015800,NH3,8,13,12
India,Haryana,Sirsa,"F-Block, Sirsa - HSPCB",10-06-2024 23:00:00,29.536400,75.015800,CO,117,121,118
India,Haryana,Sonipat,"Murthal, Sonipat - HSPCB",10-06-2024 23:00:00,29.027200,77.062100,SO2,13,29,20
India,Haryana,Sonipat,"Murthal, Sonipat - HSPCB",10-06-2024 23:00:00,29.027200,77.062100,CO,24,26,25
India,Haryana,Yamuna Nagar,"Gobind Pura, Yamuna Nagar - HSPCB",10-06-2024 23:00:00,30.1480566,77.2893471,OZONE,15,42,36
India,Jammu_and_Kashmir,Srinagar,"Rajbagh, Srinagar - JKSPCB",10-06-2024 23:00:00,34.066206,74.819820,PM2.5,NA,NA,NA
India,Jharkhand,Dhanbad,"Kalakusuma, Dhanbad - DMC",10-06-2024 23:00:00,23.811548,86.481238,NO2,115,424,342
India,Jharkhand,Dhanbad,"Kalakusuma, Dhanbad - DMC",10-06-2024 23:00:00,23.811548,86.481238,CO,128,135,132
India,Jharkhand,Dhanbad,"Kalakusuma, Dhanbad - DMC",10-06-2024 23:00:00,23.811548,86.481238,OZONE,28,38,31
India,Jharkhand,Dhanbad,"Sardar Patel Nagar, Dhanbad - JSPCB",10-06-2024 23:00:00,23.80569,86.44268,PM10,NA,NA,NA
India,Karnataka,Bagalkot,"Vidayagiri, Bagalkot - KSPCB",10-06-2024 23:00:00,16.172806,75.659694,PM10,NA,NA,NA
India,Karnataka,Bagalkot,"Vidayagiri, Bagalkot - KSPCB",10-06-2024 23:00:00,16.172806,75.659694,CO,27,56,40
India,Karnataka,Belgaum,"Ramteerth Nagar, Belgaum - KSPCB",10-06-2024 23:00:00,15.888653,74.541751,PM2.5,8,40,17
India,Karnataka,Belgaum,"Ramteerth Nagar, Belgaum - KSPCB",10-06-2024 23:00:00,15.888653,74.541751,SO2,9,9,9
India,Karnataka,Bengaluru,"Bapuji Nagar, Bengaluru - KSPCB",10-06-2024 23:00:00,12.951913,77.539784,NH3,1,1,1
India,Karnataka,Bengaluru,"Hebbal, Bengaluru - KSPCB",10-06-2024 23:00:00,13.029152,77.585901,CO,12,21,15
India,Karnataka,Bengaluru,"Hombegowda Nagar, Bengaluru - KSPCB",10-06-2024 23:00:00,12.938539,77.590100,NO2,7,15,11
India,Karnataka,Bengaluru,"Jayanagar 5th Block, Bengaluru - KSPCB",10-06-2024 23:00:00,12.920984,77.584908,NO2,8,10,9
India,Karnataka,Bengaluru,"Jigani, Bengaluru - KSPCB",10-06-2024 23:00:00,12.7816279,77.6299145,PM2.5,39,41,40
India,Karnataka,Bengaluru,"Jigani, Bengaluru - KSPCB",10-06-2024 23:00:00,12.7816279,77.6299145,CO,24,41,29
India,Karnataka,Bengaluru,"Kasturi Nagar, Bengaluru - KSPCB",10-06-2024 23:00:00,13.003872,77.664217,NH3,3,4,4
India,Karnataka,Bengaluru,"Kasturi Nagar, Bengaluru - KSPCB",10-06-2024 23:00:00,13.003872,77.664217,OZONE,39,39,39
India,Karnataka,Bengaluru,"RVCE-Mailasandra, Bengaluru - KSPCB",10-06-2024 23:00:00,12.921418,77.502466,PM2.5,4,20,10
India,Karnataka,Bengaluru,"RVCE-Mailasandra, Bengaluru - KSPCB",10-06-2024 23:00:00,12.921418,77.502466,CO,38,58,48
India,Karnataka,Bengaluru,"Shivapura_Peenya, Bengaluru - KSPCB",10-06-2024 23:00:00,13.0246342,77.5080115,NO2,15,16,15
India,Karnataka,Bengaluru,"Shivapura_Peenya, Bengaluru - KSPCB",10-06-2024 23:00:00,13.0246342,77.5080115,CO,15,28,19
India,Karnataka,Chamarajanagar,"Urban, Chamarajanagar - KSPCB",10-06-2024 23:00:00,11.55358,76.55521,PM10,41,53,50
India,Karnataka,Chikkaballapur,"Chikkaballapur Rural, Chikkaballapur - KSPCB",10-06-2024 23:00:00,13.428828,77.731418,PM2.5,4,25,14
India,Karnataka,Chikkaballapur,"Chikkaballapur Rural, Chikkaballapur - KSPCB",10-06-2024 23:00:00,13.428828,77.731418,PM10,9,37,21
India,Karnataka,Chikkamagaluru,"Kalyana Nagara, Chikkamagaluru - KSPCB",10-06-2024 23:00:00,13.328028,75.797056,NO2,13,30,22
India,Karnataka,Chikkamagaluru,"Kalyana Nagara, Chikkamagaluru - KSPCB",10-06-2024 23:00:00,13.328028,75.797056,OZONE,11,25,17
India,Karnataka,Davanagere,"Devaraj Urs Badavane, Davanagere - KSPCB",10-06-2024 23:00:00,14.475800,75.905200,SO2,4,7,6
India,Karnataka,Davanagere,"Devaraj Urs Badavane, Davanagere - KSPCB",10-06-2024 23:00:00,14.475800,75.905200,CO,16,18,16
India,Karnataka,Dharwad,"Kalabhavan, Dharwad - KSPCB",10-06-2024 23:00:00,15.459706,75.008381,PM10,22,61,40
