country,state,city,station,last_update,latitude,longitude,pollutant_id,pollutant_min,pollutant_max,pollutant_avg
India,Andhra_Pradesh,Chittoor,"Gangineni Cheruvu, Chittoor - APPCB",10-04-2024 10:00:00,13.204880,79.097889,CO,31,38,35
India,Andhra_Pradesh,Kadapa,"Yerramukkapalli, Kadapa - APPCB",10-04-2024 10:00:00,14.465052,78.824187,OZONE,13,71,25
India,Andhra_Pradesh,Tirupati,"Tirumala, Tirupati - APPCB",10-04-2024 10:00:00,13.67,79.35,PM2.5,50,118,69
India,Andhra_Pradesh,Tirupati,"Tirumala, Tirupati - APPCB",10-04-2024 10:00:00,13.67,79.35,PM10,50,116,68
India,Andhra_Pradesh,Tirupati,"Tirumala, Tirupati - APPCB",10-04-2024 10:00:00,13.67,79.35,NO2,14,24,18
India,Andhra_Pradesh,Tirupati,"Tirumala, Tirupati - APPCB",10-04-2024 10:00:00,13.67,79.35,SO2,2,13,6
India,Andhra_Pradesh,Tirupati,"Tirumala, Tirupati - APPCB",10-04-2024 10:00:00,13.67,79.35,CO,18,34,25
India,Andhra_Pradesh,Tirupati,"Tirumala, Tirupati - APPCB",10-04-2024 10:00:00,13.67,79.35,OZONE,16,66,27
India,Andhra_Pradesh,Tirupati,"Vaikuntapuram, Tirupati - APPCB",10-04-2024 10:00:00,13.615387,79.409230,NO2,15,28,21
India,Andhra_Pradesh,Vijayawada,"HB Colony, Vijayawada - APPCB",10-04-2024 10:00:00,16.536107,80.594233,CO,37,39,38
India,Andhra_Pradesh,Vijayawada,"Kanuru, Vijayawada - APPCB",10-04-2024 10:00:00,16.486692,80.699436,PM2.5,NA,NA,NA
India,Andhra_Pradesh,Vijayawada,"Kanuru, Vijayawada - APPCB",10-04-2024 10:00:00,16.486692,80.699436,PM10,NA,NA,NA
India,Andhra_Pradesh,Vijayawada,"Rajiv Gandhi Park, Vijayawada - APPCB",10-04-2024 10:00:00,16.509717,80.612222,NH3,4,7,6
India,Andhra_Pradesh,Vijayawada,"Rajiv Gandhi Park, Vijayawada - APPCB",10-04-2024 10:00:00,16.509717,80.612222,CO,38,38,38
India,Andhra_Pradesh,Vijayawada,"Rajiv Nagar, Vijayawada - APPCB",10-04-2024 10:00:00,16.554731,80.649110,PM10,61,70,64
India,Andhra_Pradesh,Vijayawada,"Rajiv Nagar, Vijayawada - APPCB",10-04-2024 10:00:00,16.554731,80.649110,CO,44,44,44
India,Andhra_Pradesh,Vijayawada,"Rajiv Nagar, Vijayawada - APPCB",10-04-2024 10:00:00,16.554731,80.649110,OZONE,10,42,21
India,Andhra_Pradesh,Visakhapatnam,"GVM Corporation, Visakhapatnam - APPCB",10-04-2024 10:00:00,17.72,83.3,PM2.5,48,157,89
India,Arunachal_Pradesh,Naharlagun,"Naharlagun, Naharlagun - APSPCB",10-04-2024 10:00:00,27.103358,93.679645,PM10,74,128,100
India,Arunachal_Pradesh,Naharlagun,"Naharlagun, Naharlagun - APSPCB",10-04-2024 10:00:00,27.103358,93.679645,NO2,3,3,3
India,Arunachal_Pradesh,Naharlagun,"Naharlagun, Naharlagun - APSPCB",10-04-2024 10:00:00,27.103358,93.679645,OZONE,2,2,2
India,Assam,Byrnihat,"Central Academy for SFS, Byrnihat - PCBA",10-04-2024 10:00:00,26.071318,91.87488,PM2.5,90,500,353
India,Assam,Byrnihat,"Central Academy for SFS, Byrnihat - PCBA",10-04-2024 10:00:00,26.071318,91.87488,NH3,4,8,8
India,Assam,Guwahati,"LGBI Airport, Guwahati - PCBA",10-04-2024 10:00:00,26.10887,91.589544,NH3,2,8,5
India,Assam,Guwahati,"LGBI Airport, Guwahati - PCBA",10-04-2024 10:00:00,26.10887,91.589544,OZONE,1,50,6
India,Assam,Guwahati,"Pan Bazaar, Guwahati - PCBA",10-04-2024 10:00:00,26.187500,91.744194,PM10,NA,NA,NA
India,Assam,Guwahati,"Pan Bazaar, Guwahati - PCBA",10-04-2024 10:00:00,26.187500,91.744194,SO2,50,78,60
India,Assam,Nagaon,"Christianpatty, Nagaon - PCBA",10-04-2024 10:00:00,26.349082,92.68449,OZONE,23,168,44
India,Assam,Nalbari,"Bata Chowk, Nalbari - PCBA",10-04-2024 10:00:00,26.446912,91.439057,PM2.5,93,332,205
India,Assam,Nalbari,"Bata Chowk, Nalbari - PCBA",10-04-2024 10:00:00,26.446912,91.439057,SO2,1,5,3
India,Assam,Silchar,"Tarapur, Silchar - PCBA",10-04-2024 10:00:00,24.82827,92.79525,NH3,1,1,1
India,Assam,Sivasagar,"Girls College, Sivasagar - PCBA",10-04-2024 10:00:00,26.987634,94.636574,NO2,10,19,14
India,Bihar,Araria,"Kharahiya Basti, Araria - BSPCB",10-04-2024 10:00:00,26.146529,87.454184,NH3,6,8,7
India,Bihar,Arrah,"New DM Office, Arrah - BSPCB",10-04-2024 10:00:00,25.5626095,84.663264,PM2.5,32,133,66
India,Bihar,Arrah,"New DM Office, Arrah - BSPCB",10-04-2024 10:00:00,25.5626095,84.663264,NO2,5,66,20
India,Bihar,Bettiah,"Kamalnath Nagar, Bettiah - BSPCB",10-04-2024 10:00:00,26.80365,84.51954,PM10,93,220,125
India,Bihar,Bettiah,"Kamalnath Nagar, Bettiah - BSPCB",10-04-2024 10:00:00,26.80365,84.51954,CO,62,66,63
India,Bihar,Bhagalpur,"Mayaganj, Bhagalpur - BSPCB",10-04-2024 10:00:00,25.265194,87.012947,NH3,6,9,7
India,Bihar,Bihar Sharif,"D M Colony, Bihar Sharif - BSPCB",10-04-2024 10:00:00,25.204762,85.514960,NO2,9,10,9
India,Bihar,Gaya,"Kareemganj, Gaya - BSPCB",10-04-2024 10:00:00,24.792403,84.992416,PM10,53,187,102
India,Bihar,Gaya,"SFTI Kusdihra, Gaya - BSPCB",10-04-2024 10:00:00,24.762518,84.982348,NH3,5,6,6
India,Bihar,Hajipur,"Industrial Area, Hajipur - BSPCB",10-04-2024 10:00:00,25.697189,85.245900,NH3,1,8,5
India,Bihar,Hajipur,"Industrial Area, Hajipur - BSPCB",10-04-2024 10:00:00,25.697189,85.245900,SO2,5,8,7
India,Bihar,Katihar,"Mirchaibari, Katihar - BSPCB",10-04-2024 10:00:00,25.560083,87.553265,OZONE,10,18,11
India,Bihar,Kishanganj,"SDM Office_Khagra, Kishanganj - BSPCB",10-04-2024 10:00:00,26.0881305,87.93840336,NO2,27,31,29
India,Bihar,Kishanganj,"SDM Office_Khagra, Kishanganj - BSPCB",10-04-2024 10:00:00,26.0881305,87.93840336,SO2,1,4,2
India,Bihar,Manguraha,"Forest Rest House, Manguraha - BSPCB",10-04-2024 10:00:00,27.308328,84.531742,NO2,14,31,21
India,Bihar,Motihari,"Gandak Colony, Motihari - BSPCB",10-04-2024 10:00:00,26.63086,84.90051,PM10,35,413,86
India,Bihar,Motihari,"Gandak Colony, Motihari - BSPCB",10-04-2024 10:00:00,26.63086,84.90051,CO,4,35,18
India,Bihar,Munger,"Town Hall, Munger - BSPCB",10-04-2024 10:00:00,25.376776,86.471523,NO2,7,10,9
India,Bihar,Munger,"Town Hall, Munger - BSPCB",10-04-2024 10:00:00,25.376776,86.471523,OZONE,25,39,29
India,Bihar,Muzaffarpur,"Buddha Colony, Muzaffarpur - BSPCB",10-04-2024 10:00:00,26.11442,85.39813,PM10,138,415,239
India,Bihar,Muzaffarpur,"Buddha Colony, Muzaffarpur - BSPCB",10-04-2024 10:00:00,26.11442,85.39813,NH3,1,6,5
India,Bihar,Muzaffarpur,"Buddha Colony, Muzaffarpur - BSPCB",10-04-2024 10:00:00,26.11442,85.39813,CO,24,116,59
India,Bihar,Muzaffarpur,"MIT-Daudpur Kothi, Muzaffarpur - BSPCB",10-04-2024 10:00:00,26.1403345,85.3650192,NO2,3,8,7
India,Bihar,Muzaffarpur,"MIT-Daudpur Kothi, Muzaffarpur - BSPCB",10-04-2024 10:00:00,26.1403345,85.3650192,SO2,8,20,17
India,Bihar,Muzaffarpur,"MIT-Daudpur Kothi, Muzaffarpur - BSPCB",10-04-2024 10:00:00,26.1403345,85.3650192,CO,18,111,47
India,Bihar,Patna,"DRM Office Danapur, Patna - BSPCB",10-04-2024 10:00:00,25.586562,85.043586,NH3,3,3,3
India,Bihar,Patna,"DRM Office Danapur, Patna - BSPCB",10-04-2024 10:00:00,25.586562,85.043586,CO,14,137,34
India,Bihar,Patna,"Govt. High School Shikarpur, Patna - BSPCB",10-04-2024 10:00:00,25.592539,85.227158,PM2.5,58,263,136
India,Bihar,Patna,"IGSC Planetarium Complex, Patna - BSPCB",10-04-2024 10:00:00,25.610369,85.132568,PM2.5,48,366,182
India,Bihar,Patna,"IGSC Planetarium Complex, Patna - BSPCB",10-04-2024 10:00:00,25.610369,85.132568,NO2,11,12,11
India,Bihar,Patna,"Rajbansi Nagar, Patna - BSPCB",10-04-2024 10:00:00,25.599486,85.113666,NH3,6,19,10
India,Bihar,Patna,"Rajbansi Nagar, Patna - BSPCB",10-04-2024 10:00:00,25.599486,85.113666,SO2,6,33,13
India,Bihar,Patna,"Samanpura, Patna - BSPCB",10-04-2024 10:00:00,25.596727,85.085624,PM10,123,500,276
India,Bihar,Patna,"Samanpura, Patna - BSPCB",10-04-2024 10:00:00,25.596727,85.085624,NH3,5,62,23
India,Bihar,Patna,"Samanpura, Patna - BSPCB",10-04-2024 10:00:00,25.596727,85.085624,SO2,8,16,11
India,Bihar,Patna,"Samanpura, Patna - BSPCB",10-04-2024 10:00:00,25.596727,85.085624,OZONE,NA,NA,NA
India,Bihar,Rajgir,"Dangi Tola, Rajgir - BSPCB",10-04-2024 10:00:00,25.03280,85.41948,PM2.5,10,97,50
India,Bihar,Rajgir,"Dangi Tola, Rajgir - BSPCB",10-04-2024 10:00:00,25.03280,85.41948,NH3,1,2,2
India,Bihar,Saharsa,"Police Line, Saharsa - BSPCB",10-04-2024 10:00:00,25.892357,86.590325,NO2,6,9,7
India,Bihar,Sasaram,"Dada Peer, Sasaram - BSPCB",10-04-2024 10:00:00,24.952822,84.002396,PM2.5,NA,NA,NA
India,Bihar,Sasaram,"Dada Peer, Sasaram - BSPCB",10-04-2024 10:00:00,24.952822,84.002396,NH3,NA,NA,NA
India,Bihar,Siwan,"Chitragupta Nagar, Siwan - BSPCB",10-04-2024 10:00:00,26.2271665,84.3570427,CO,57,161,105
India,Chandigarh,Chandigarh,"Sector 22, Chandigarh - CPCC",10-04-2024 10:00:00,30.735567,76.775714,PM2.5,20,103,48
India,Chandigarh,Chandigarh,"Sector 22, Chandigarh - CPCC",10-04-2024 10:00:00,30.735567,76.775714,CO,31,70,44
India,Chandigarh,Chandigarh,"Sector-25, Chandigarh - CPCC",10-04-2024 10:00:00,30.751462,76.762879,PM10,72,166,112
India,Chandigarh,Chandigarh,"Sector-25, Chandigarh - CPCC",10-04-2024 10:00:00,30.751462,76.762879,NO2,5,62,27
India,Chandigarh,Chandigarh,"Sector-25, Chandigarh - CPCC",10-04-2024 10:00:00,30.751462,76.762879,SO2,7,13,9
India,Chandigarh,Chandigarh,"Sector-53, Chandigarh - CPCC",10-04-2024 10:00:00,30.719859,76.738637,SO2,7,39,13
India,Chandigarh,Chandigarh,"Sector-53, Chandigarh - CPCC",10-04-2024 10:00:00,30.719859,76.738637,OZONE,10,72,24
India,Chhattisgarh,Bhilai,"32Bungalows, Bhilai - CECB",10-04-2024 10:00:00,21.194815,81.314770,PM2.5,25,47,32
India,Chhattisgarh,Bhilai,"Civic Center, Bhilai - Bhilai Steel Plant",10-04-2024 10:00:00,21.185571,81.343175,NO2,15,16,16
India,Chhattisgarh,Bhilai,"Civic Center, Bhilai - Bhilai Steel Plant",10-04-2024 10:00:00,21.185571,81.343175,CO,38,58,40
India,Chhattisgarh,Bhilai,"Hathkhoj, Bhilai - CECB",10-04-2024 10:00:00,21.224231,81.408350,PM2.5,22,89,38
India,Chhattisgarh,Bhilai,"Hathkhoj, Bhilai - CECB",10-04-2024 10:00:00,21.224231,81.408350,SO2,9,26,12
India,Chhattisgarh,Bilaspur,"Mangala, Bilaspur - NTPC",10-04-2024 10:00:00,22.08815,82.13737,NO2,12,15,14
India,Chhattisgarh,Chhal,"Nawapara SECL Colony, Chhal - CECB",10-04-2024 10:00:00,22.118125,83.140608,NH3,2,2,2
India,Chhattisgarh,Chhal,"Nawapara SECL Colony, Chhal - CECB",10-04-2024 10:00:00,22.118125,83.140608,CO,18,55,47
India,Chhattisgarh,Chhal,"Nawapara SECL Colony, Chhal - CECB",10-04-2024 10:00:00,22.118125,83.140608,OZONE,1,25,2
India,Chhattisgarh,Korba,"Rampur, Korba - CECB",10-04-2024 10:00:00,22.368195,82.746431,NH3,NA,NA,NA
India,Chhattisgarh,Korba,"Urja Nagar, Korba - CECB",10-04-2024 10:00:00,22.348441,82.549611,PM10,30,125,60
India,Chhattisgarh,Korba,"Urja Nagar, Korba - CECB",10-04-2024 10:00:00,22.348441,82.549611,SO2,2,7,4
India,Chhattisgarh,Milupara,"Govt. Higher Secondary School, Milupara - CECB",10-04-2024 10:00:00,22.1910172,83.5197009,OZONE,5,23,8
India,Chhattisgarh,Raipur,"AIIMS, Raipur - CECB",10-04-2024 10:00:00,21.258815,81.578979,CO,26,49,35
India,Chhattisgarh,Raipur,"Bhatagaon New ISBT, Raipur - CECB",10-04-2024 10:00:00,21.219665,81.630094,PM2.5,6,43,24
India,Chhattisgarh,Tumidih,"OP Jindal Industrial Park, Tumidih - CECB",10-04-2024 10:00:00,22.06631475,83.33820077,SO2,5,11,7
India,Chhattisgarh,Tumidih,"OP Jindal Industrial Park, Tumidih - CECB",10-04-2024 10:00:00,22.06631475,83.33820077,CO,18,73,48
India,Delhi,Delhi,"Anand Vihar, Delhi - DPCC",10-04-2024 10:00:00,28.647622,77.3158090,PM10,86,467,283
India,Delhi,Delhi,"Anand Vihar, Delhi - DPCC",10-04-2024 10:00:00,28.647622,77.3158090,NO2,63,153,118
India,Delhi,Delhi,"Anand Vihar, Delhi - DPCC",10-04-2024 10:00:00,28.647622,77.3158090,SO2,1,125,27
India,Delhi,Delhi,"Anand Vihar, Delhi - DPCC",10-04-2024 10:00:00,28.647622,77.3158090,CO,67,138,118
India,Delhi,Delhi,"Ashok Vihar, Delhi - DPCC",10-04-2024 10:00:00,28.695381,77.181665,CO,9,75,52
India,Delhi,Delhi,"Aya Nagar, Delhi - IMD",10-04-2024 10:00:00,28.4706914,77.1099364,PM2.5,50,321,174
India,Delhi,Delhi,"Aya Nagar, Delhi - IMD",10-04-2024 10:00:00,28.4706914,77.1099364,PM10,77,270,150
India,Delhi,Delhi,"Aya Nagar, Delhi - IMD",10-04-2024 10:00:00,28.4706914,77.1099364,NO2,13,24,19
India,Delhi,Delhi,"Aya Nagar, Delhi - IMD",10-04-2024 10:00:00,28.4706914,77.1099364,OZONE,3,21,8
India,Delhi,Delhi,"Bawana, Delhi - DPCC",10-04-2024 10:00:00,28.776200,77.051074,PM2.5,45,392,227
India,Delhi,Delhi,"Bawana, Delhi - DPCC",10-04-2024 10:00:00,28.776200,77.051074,NH3,4,7,5
India,Delhi,Delhi,"Bawana, Delhi - DPCC",10-04-2024 10:00:00,28.776200,77.051074,SO2,11,53,27
India,Delhi,Delhi,"Bawana, Delhi - DPCC",10-04-2024 10:00:00,28.776200,77.051074,CO,12,83,70
India,Delhi,Delhi,"CRRI Mathura Road, Delhi - IMD",10-04-2024 10:00:00,28.5512005,77.2735737,PM10,NA,NA,NA
India,Delhi,Delhi,"Chandni Chowk, Delhi - IITM",10-04-2024 10:00:00,28.656756,77.227234,NO2,3,81,40
India,Delhi,Delhi,"Chandni Chowk, Delhi - IITM",10-04-2024 10:00:00,28.656756,77.227234,SO2,20,80,47
India,Delhi,Delhi,"DTU, Delhi - CPCB",10-04-2024 10:00:00,28.7500499,77.1112615,NH3,14,35,21
India,Delhi,Delhi,"Dr. Karni Singh Shooting Range, Delhi - DPCC",10-04-2024 10:00:00,28.498571,77.264840,OZONE,4,245,194
India,Delhi,Delhi,"Dwarka-Sector 8, Delhi - DPCC ",10-04-2024 10:00:00,28.5710274,77.0719006,NO2,20,114,75
India,Delhi,Delhi,"Dwarka-Sector 8, Delhi - DPCC ",10-04-2024 10:00:00,28.5710274,77.0719006,NH3,5,9,7
India,Delhi,Delhi,"Dwarka-Sector 8, Delhi - DPCC ",10-04-2024 10:00:00,28.5710274,77.0719006,SO2,8,29,16
India,Delhi,Delhi,"Dwarka-Sector 8, Delhi - DPCC ",10-04-2024 10:00:00,28.5710274,77.0719006,CO,40,140,87
India,Delhi,Delhi,"IHBAS, Dilshad Garden, Delhi - CPCB",10-04-2024 10:00:00,28.6811736,77.3025234,PM2.5,NA,NA,NA
India,Delhi,Delhi,"IHBAS, Dilshad Garden, Delhi - CPCB",10-04-2024 10:00:00,28.6811736,77.3025234,OZONE,9,64,19
India,Delhi,Delhi,"Jawaharlal Nehru Stadium, Delhi - DPCC",10-04-2024 10:00:00,28.580280,77.233829,PM10,69,371,155
India,Delhi,Delhi,"Jawaharlal Nehru Stadium, Delhi - DPCC",10-04-2024 10:00:00,28.580280,77.233829,SO2,9,84,33
India,Delhi,Delhi,"Lodhi Road, Delhi - IITM",10-04-2024 10:00:00,28.588333,77.221667,NH3,7,11,10
India,Delhi,Delhi,"Lodhi Road, Delhi - IITM",10-04-2024 10:00:00,28.588333,77.221667,OZONE,15,20,16
India,Delhi,Delhi,"Lodhi Road, Delhi - IMD",10-04-2024 10:00:00,28.5918245,77.2273074,CO,11,34,33
India,Delhi,Delhi,"Major Dhyan Chand National Stadium, Delhi - DPCC",10-04-2024 10:00:00,28.611281,77.237738,SO2,10,33,17
India,Delhi,Delhi,"Mandir Marg, Delhi - DPCC",10-04-2024 10:00:00,28.636429,77.201067,PM2.5,41,295,125
India,Delhi,Delhi,"Mandir Marg, Delhi - DPCC",10-04-2024 10:00:00,28.636429,77.201067,PM10,65,193,116
India,Delhi,Delhi,"Mundka, Delhi - DPCC",10-04-2024 10:00:00,28.684678,77.076574,NO2,15,120,69
India,Delhi,Delhi,"Mundka, Delhi - DPCC",10-04-2024 10:00:00,28.684678,77.076574,NH3,2,4,3
India,Delhi,Delhi,"NSIT Dwarka, Delhi - CPCB",10-04-2024 10:00:00,28.60909,77.0325413,PM2.5,97,344,267
India,Delhi,Delhi,"Najafgarh, Delhi - DPCC",10-04-2024 10:00:00,28.570173,76.933762,PM10,52,232,142
India,Delhi,Delhi,"Najafgarh, Delhi - DPCC",10-04-2024 10:00:00,28.570173,76.933762,NO2,15,128,71
India,Delhi,Delhi,"Najafgarh, Delhi - DPCC",10-04-2024 10:00:00,28.570173,76.933762,SO2,12,18,14
India,Delhi,Delhi,"Narela, Delhi - DPCC",10-04-2024 10:00:00,28.822836,77.101981,PM10,118,455,254
India,Delhi,Delhi,"Narela, Delhi - DPCC",10-04-2024 10:00:00,28.822836,77.101981,NH3,5,14,8
India,Delhi,Delhi,"Narela, Delhi - DPCC",10-04-2024 10:00:00,28.822836,77.101981,CO,16,112,88
India,Delhi,Delhi,"Nehru Nagar, Delhi - DPCC",10-04-2024 10:00:00,28.567890,77.250515,NO2,9,25,13
India,Delhi,Delhi,"North Campus, DU, Delhi - IMD",10-04-2024 10:00:00,28.6573814,77.1585447,NO2,NA,NA,NA
India,Delhi,Delhi,"Okhla Phase-2, Delhi - DPCC",10-04-2024 10:00:00,28.530785,77.271255,PM2.5,32,347,196
India,Delhi,Delhi,"Patparganj, Delhi - DPCC",10-04-2024 10:00:00,28.623763,77.287209,PM2.5,42,297,148
India,Delhi,Delhi,"Punjabi Bagh, Delhi - DPCC",10-04-2024 10:00:00,28.674045,77.131023,OZONE,3,84,4
India,Delhi,Delhi,"Pusa, Delhi - DPCC",10-04-2024 10:00:00,28.639652,77.146275,PM2.5,40,223,121
India,Delhi,Delhi,"Pusa, Delhi - DPCC",10-04-2024 10:00:00,28.639652,77.146275,NO2,84,201,126
India,Delhi,Delhi,"Pusa, Delhi - DPCC",10-04-2024 10:00:00,28.639652,77.146275,CO,14,109,48
India,Delhi,Delhi,"Pusa, Delhi - DPCC",10-04-2024 10:00:00,28.639652,77.146275,OZONE,10,179,21
India,Delhi,Delhi,"Pusa, Delhi - IMD",10-04-2024 10:00:00,28.636110,77.173332,PM10,NA,NA,NA
India,Delhi,Delhi,"R K Puram, Delhi - DPCC",10-04-2024 10:00:00,28.563262,77.186937,PM2.5,51,334,183
India,Delhi,Delhi,"R K Puram, Delhi - DPCC",10-04-2024 10:00:00,28.563262,77.186937,SO2,2,39,16
India,Delhi,Delhi,"Shadipur, Delhi - CPCB",10-04-2024 10:00:00,28.6514781,77.1473105,PM2.5,108,425,279
India,Delhi,Delhi,"Sirifort, Delhi - CPCB",10-04-2024 10:00:00,28.5504249,77.2159377,OZONE,7,57,10
India,Delhi,Delhi,"Vivek Vihar, Delhi - DPCC",10-04-2024 10:00:00,28.672342,77.315260,PM10,119,388,187
India,Delhi,Delhi,"Vivek Vihar, Delhi - DPCC",10-04-2024 10:00:00,28.672342,77.315260,SO2,31,137,56
India,Delhi,Delhi,"Wazirpur, Delhi - DPCC",10-04-2024 10:00:00,28.699793,77.165453,PM2.5,51,321,192
India,Delhi,Delhi,"Wazirpur, Delhi - DPCC",10-04-2024 10:00:00,28.699793,77.165453,OZONE,6,216,20
India,Gujarat,Ahmedabad,"Chandkheda, Ahmedabad - IITM",10-04-2024 10:00:00,23.107969,72.574648,PM2.5,60,340,169
India,Gujarat,Ahmedabad,"Gyaspur, Ahmedabad - IITM",10-04-2024 10:00:00,22.977134,72.553024,PM2.5,76,413,227
India,Gujarat,Ahmedabad,"Gyaspur, Ahmedabad - IITM",10-04-2024 10:00:00,22.977134,72.553024,NH3,10,14,12
India,Gujarat,Ahmedabad,"Maninagar, Ahmedabad - GPCB",10-04-2024 10:00:00,23.002657,72.591912,NO2,27,113,58
India,Gujarat,Ahmedabad,"Raikhad, Ahmedabad - IITM",10-04-2024 10:00:00,23.020509,72.579261,PM10,49,477,156
India,Gujarat,Ahmedabad,"Rakhial, Ahmedabad - IITM",10-04-2024 10:00:00,23.016834,72.625775,CO,17,120,54
India,Gujarat,Ahmedabad,"SVPI Airport Hansol, Ahmedabad - IITM",10-04-2024 10:00:00,23.076793,72.627874,PM2.5,70,306,130
India,Gujarat,Ankleshwar,"GIDC, Ankleshwar - GPCB",10-04-2024 10:00:00,21.613267,73.010555,NH3,7,7,7
India,Gujarat,Gandhinagar,"Sector-10, Gandhinagar - GPCB",10-04-2024 10:00:00,23.221714,72.654328,NH3,1,2,1
India,Gujarat,Gandhinagar,"Sector-10, Gandhinagar - GPCB",10-04-2024 10:00:00,23.221714,72.654328,SO2,6,13,8
India,Gujarat,Gandhinagar,"Sector-10, Gandhinagar - GPCB",10-04-2024 10:00:00,23.221714,72.654328,OZONE,2,85,15
India,Gujarat,Nandesari,"GIDC, Nandesari - Nandesari Ind. Association",10-04-2024 10:00:00,22.410802,73.097923,PM2.5,83,375,232
India,Gujarat,Surat,"Science Center, Surat - SMC",10-04-2024 10:00:00,21.170046,72.795405,PM2.5,7,35,15
India,Gujarat,Surat,"Science Center, Surat - SMC",10-04-2024 10:00:00,21.170046,72.795405,PM10,NA,NA,NA
India,Gujarat,Vatva,"Phase-4 GIDC, Vatva - GPCB",10-04-2024 10:00:00,22.969611,72.643500,PM2.5,48,224,108
India,Gujarat,Vatva,"Phase-4 GIDC, Vatva - GPCB",10-04-2024 10:00:00,22.969611,72.643500,PM10,71,162,119
India,Gujarat,Vatva,"Phase-4 GIDC, Vatva - GPCB",10-04-2024 10:00:00,22.969611,72.643500,SO2,9,84,37
India,Haryana,Bahadurgarh,"Arya Nagar, Bahadurgarh - HSPCB",10-04-2024 10:00:00,28.6701,76.9254,PM2.5,31,303,153
India,Haryana,Bahadurgarh,"Arya Nagar, Bahadurgarh - HSPCB",10-04-2024 10:00:00,28.6701,76.9254,PM10,64,399,163
India,Haryana,Bahadurgarh,"Arya Nagar, Bahadurgarh - HSPCB",10-04-2024 10:00:00,28.6701,76.9254,CO,38,57,50
India,Haryana,Ballabgarh,"Nathu Colony, Ballabgarh - HSPCB",10-04-2024 10:00:00,28.3419248,77.319699,PM10,96,220,158
India,Haryana,Bhiwani,"H.B. Colony, Bhiwani - HSPCB",10-04-2024 10:00:00,28.806223,76.141105,NH3,6,6,6
India,Haryana,Charkhi Dadri,"Mini Secretariat, Charkhi Dadri - HSPCB",10-04-2024 10:00:00,28.593883,76.270653,NH3,6,8,7
India,Haryana,Charkhi Dadri,"Mini Secretariat, Charkhi Dadri - HSPCB",10-04-2024 10:00:00,28.593883,76.270653,SO2,8,104,31
India,Haryana,Dharuhera,"Municipal Corporation Office, Dharuhera -  HSPCB",10-04-2024 10:00:00,28.206800,76.799700,NH3,9,28,19
India,Haryana,Faridabad,"New Industrial Town, Faridabad - HSPCB",10-04-2024 10:00:00,28.39072,77.30059,SO2,7,10,9
India,Haryana,Faridabad,"Sector 11, Faridabad - HSPCB",10-04-2024 10:00:00,28.376058,77.315741,PM2.5,65,460,269
India,Haryana,Faridabad,"Sector 30, Faridabad - HSPCB",10-04-2024 10:00:00,28.4417,77.3217,PM2.5,92,102,96
India,Haryana,Faridabad,"Sector 30, Faridabad - HSPCB",10-04-2024 10:00:00,28.4417,77.3217,NO2,NA,NA,NA
India,Haryana,Faridabad,"Sector- 16A, Faridabad - HSPCB",10-04-2024 10:00:00,28.4088421,77.3099081,SO2,13,28,22
India,Haryana,Faridabad,"Sector- 16A, Faridabad - HSPCB",10-04-2024 10:00:00,28.4088421,77.3099081,OZONE,14,14,14
India,Haryana,Fatehabad,"Huda Sector, Fatehabad - HSPCB",10-04-2024 10:00:00,29.503664,75.467934,SO2,10,11,11
India,Haryana,Gurugram,"Sector-51, Gurugram - HSPCB",10-04-2024 10:00:00,28.4227,77.0667,PM10,89,327,184
India,Haryana,Gurugram,"Sector-51, Gurugram - HSPCB",10-04-2024 10:00:00,28.4227,77.0667,NO2,13,29,23
India,Haryana,Gurugram,"Sector-51, Gurugram - HSPCB",10-04-2024 10:00:00,28.4227,77.0667,CO,29,85,77
India,Haryana,Gurugram,"Teri Gram, Gurugram - HSPCB",10-04-2024 10:00:00,28.4275,77.1465,CO,14,39,37
India,Haryana,Jind,"Police Lines, Jind - HSPCB",10-04-2024 10:00:00,29.307814,76.337619,OZONE,4,20,9
India,Haryana,Karnal,"Sector-12, Karnal - HSPCB",10-04-2024 10:00:00,29.695300,77.002700,NO2,7,12,10
India,Haryana,Kurukshetra,"Sector-7, Kurukshetra - HSPCB",10-04-2024 10:00:00,29.966942,76.875879,CO,9,36,23
India,Haryana,Mandikhera,"General Hospital, Mandikhera - HSPCB",10-04-2024 10:00:00,27.9002,76.9938,CO,10,104,39
India,Haryana,Manesar,"Sector-2 IMT, Manesar - HSPCB",10-04-2024 10:00:00,28.360699,76.936090,PM10,51,134,94
India,Haryana,Manesar,"Sector-2 IMT, Manesar - HSPCB",10-04-2024 10:00:00,28.360699,76.936090,NO2,15,25,20
India,Haryana,Manesar,"Sector-2 IMT, Manesar - HSPCB",10-04-2024 10:00:00,28.360699,76.936090,OZONE,9,101,10
India,Haryana,Palwal,"Shyam Nagar, Palwal - HSPCB",10-04-2024 10:00:00,28.1485564,77.3320667,SO2,5,21,12
India,Haryana,Panchkula,"Sector-6, Panchkula - HSPCB ",10-04-2024 10:00:00,30.7057778,76.8531805555555,PM2.5,6,158,40
India,Haryana,Panipat,"Sector-18, Panipat - HSPCB",10-04-2024 10:00:00,29.497973,76.993331,NO2,31,32,31
India,Haryana,Panipat,"Sector-18, Panipat - HSPCB",10-04-2024 10:00:00,29.497973,76.993331,SO2,18,19,19
India,Haryana,Rohtak,"MD University, Rohtak - HSPCB",10-04-2024 10:00:00,28.52123,76.37138,SO2,6,8,7
India,Haryana,Sirsa,"F-Block, Sirsa - HSPCB",10-04-2024 10:00:00,29.536400,75.015800,PM2.5,24,74,47
India,Haryana,Sirsa,"F-Block, Sirsa - HSPCB",10-04-2024 10:00:00,29.536400,75.015800,PM10,33,84,53
India,Haryana,Sirsa,"F-Block, Sirsa - HSPCB",10-04-2024 10:00:00,29.536400,75.015800,NH3,12,13,13
India,Haryana,Sirsa,"F-Block, Sirsa - HSPCB",10-04-2024 10:00:00,29.536400,75.015800,CO,28,46,43
India,Haryana,Sonipat,"Murthal, Sonipat - HSPCB",10-04-2024 10:00:00,29.027200,77.062100,PM10,19,114,97
India,Haryana,Sonipat,"Murthal, Sonipat - HSPCB",10-04-2024 10:00:00,29.027200,77.062100,SO2,13,29,21
India,Haryana,Yamuna Nagar,"Gobind Pura, Yamuna Nagar - HSPCB",10-04-2024 10:00:00,30.1480566,77.2893471,CO,31,98,48
India,Himachal Pradesh,Baddi,"HIMUDA Complex Phase-1, Baddi - HPPCB",10-04-2024 10:00:00,30.943887,76.801991,NO2,8,78,22
India,Jharkhand,Dhanbad,"Kalakusuma, Dhanbad - DMC",10-04-2024 10:00:00,23.811548,86.481238,SO2,9,30,19
India,Jharkhand,Dhanbad,"Kalakusuma, Dhanbad - DMC",10-04-2024 10:00:00,23.811548,86.481238,CO,128,135,131
India,Jharkhand,Dhanbad,"Sardar Patel Nagar, Dhanbad - JSPCB",10-04-2024 10:00:00,23.80569,86.44268,PM2.5,3,301,69
India,Jharkhand,Dhanbad,"Sardar Patel Nagar, Dhanbad - JSPCB",10-04-2024 10:00:00,23.80569,86.44268,CO,100,193,180
India,Jharkhand,Dhanbad,"Sardar Patel Nagar, Dhanbad - JSPCB",10-04-2024 10:00:00,23.80569,86.44268,OZONE,13,36,17
India,Karnataka,Bagalkot,"Vidayagiri, Bagalkot - KSPCB",10-04-2024 10:00:00,16.172806,75.659694,PM10,49,50,50
India,Karnataka,Belgaum,"Ramteerth Nagar, Belgaum - KSPCB",10-04-2024 10:00:00,15.888653,74.541751,OZONE,19,20,20
India,Karnataka,Bengaluru,"Bapuji Nagar, Bengaluru - KSPCB",10-04-2024 10:00:00,12.951913,77.539784,CO,36,51,46
India,Karnataka,Bengaluru,"Hebbal, Bengaluru - KSPCB",10-04-2024 10:00:00,13.029152,77.585901,CO,13,32,27
India,Karnataka,Bengaluru,"Hombegowda Nagar, Bengaluru - KSPCB",10-04-2024 10:00:00,12.938539,77.590100,PM2.5,48,115,70
India,Karnataka,Bengaluru,"Hombegowda Nagar, Bengaluru - KSPCB",10-04-2024 10:00:00,12.938539,77.590100,NO2,8,20,13
India,Karnataka,Bengaluru,"Hombegowda Nagar, Bengaluru - KSPCB",10-04-2024 10:00:00,12.938539,77.590100,NH3,1,2,2
India,Karnataka,Bengaluru,"Jayanagar 5th Block, Bengaluru - KSPCB",10-04-2024 10:00:00,12.920984,77.584908,SO2,11,32,19
India,Karnataka,Bengaluru,"Jayanagar 5th Block, Bengaluru - KSPCB",10-04-2024 10:00:00,12.920984,77.584908,OZONE,21,23,22
India,Karnataka,Bengaluru,"Kasturi Nagar, Bengaluru - KSPCB",10-04-2024 10:00:00,13.003872,77.664217,NO2,16,17,16
India,Karnataka,Bengaluru,"RVCE-Mailasandra, Bengaluru - KSPCB",10-04-2024 10:00:00,12.921418,77.502466,NO2,16,17,17
India,Karnataka,Bengaluru,"RVCE-Mailasandra, Bengaluru - KSPCB",10-04-2024 10:00:00,12.921418,77.502466,SO2,7,16,9
India,Karnataka,Bengaluru,"Sanegurava Halli, Bengaluru - KSPCB",10-04-2024 10:00:00,12.990328,77.5431385,PM10,37,53,43
India,Karnataka,Bengaluru,"Shivapura_Peenya, Bengaluru - KSPCB",10-04-2024 10:00:00,13.0246342,77.5080115,NH3,4,4,4
India,Karnataka,Bengaluru,"Silk Board, Bengaluru - KSPCB",10-04-2024 10:00:00,12.917348,77.622813,NH3,3,5,4
India,Karnataka,Bengaluru,"Silk Board, Bengaluru - KSPCB",10-04-2024 10:00:00,12.917348,77.622813,SO2,3,18,8
India,Karnataka,Bidar,"Naubad, Bidar - KSPCB",10-04-2024 10:00:00,17.930306,77.482194,OZONE,20,40,27
India,Karnataka,Chamarajanagar,"Urban, Chamarajanagar - KSPCB",10-04-2024 10:00:00,11.55358,76.55521,NO2,21,35,27
India,Karnataka,Chamarajanagar,"Urban, Chamarajanagar - KSPCB",10-04-2024 10:00:00,11.55358,76.55521,OZONE,15,36,20
India,Karnataka,Chikkaballapur,"Chikkaballapur Rural, Chikkaballapur - KSPCB",10-04-2024 10:00:00,13.428828,77.731418,OZONE,25,27,25
India,Karnataka,Chikkamagaluru,"Kalyana Nagara, Chikkamagaluru - KSPCB",10-04-2024 10:00:00,13.328028,75.797056,NO2,18,35,22
India,Karnataka,Chikkamagaluru,"Kalyana Nagara, Chikkamagaluru - KSPCB",10-04-2024 10:00:00,13.328028,75.797056,SO2,1,9,2
India,Karnataka,Gadag,"Panchal Nagar, Gadag - KSPCB",10-04-2024 10:00:00,15.411456,75.638133,NO2,2,26,13
India,Karnataka,Gadag,"Panchal Nagar, Gadag - KSPCB",10-04-2024 10:00:00,15.411456,75.638133,SO2,11,17,14
India,Karnataka,Gadag,"Panchal Nagar, Gadag - KSPCB",10-04-2024 10:00:00,15.411456,75.638133,OZONE,29,81,38
India,Karnataka,Hassan,"B.Katihalli, Hassan - KSPCB",10-04-2024 10:00:00,13.008556,76.125258,CO,NA,NA,NA
India,Karnataka,Haveri,"Ashwini Nagar, Haveri - KSPCB",10-04-2024 10:00:00,14.791800,75.389600,PM10,NA,NA,NA
India,Karnataka,Hubballi,"Deshpande Nagar, Hubballi - KSPCB",10-04-2024 10:00:00,15.351773,75.140726,PM2.5,45,66,57
India,Karnataka,Hubballi,"Lingaraj Nagar, Hubballi - KSPCB",10-04-2024 10:00:00,15.3714823,75.1160168,CO,10,39,30
India,Karnataka,Hubballi,"Lingaraj Nagar, Hubballi - KSPCB",10-04-2024 10:00:00,15.3714823,75.1160168,OZONE,14,53,20
India,Karnataka,Kalaburagi,"Lal Bahadur Shastri Nagar, Kalaburagi - KSPCB",10-04-2024 10:00:00,17.321993,76.822628,PM10,42,77,54
India,Karnataka,Kalaburagi,"Lal Bahadur Shastri Nagar, Kalaburagi - KSPCB",10-04-2024 10:00:00,17.321993,76.822628,CO,41,46,42
India,Karnataka,Kalaburagi,"Mahatma Basaveswar Colony, Kalaburgi - KSPCB",10-04-2024 10:00:00,17.336318,76.847397,CO,26,42,26
India,Karnataka,Kalaburagi,"Mahatma Basaveswar Colony, Kalaburgi - KSPCB",10-04-2024 10:00:00,17.336318,76.847397,OZONE,11,23,11
India,Karnataka,Karwar,"KHB Colony, Karwar - KSPCB",10-04-2024 10:00:00,14.816666,74.141003,NO2,1,19,4
India,Karnataka,Kolar,"Tamaka Ind. Area, Kolar - KSPCB",10-04-2024 10:00:00,13.1276288,78.1570122,PM2.5,44,60,54
India,Karnataka,Madikeri,"Stuart Hill, Madikeri - KSPCB",10-04-2024 10:00:00,12.415911,75.735050,PM2.5,28,54,38
India,Karnataka,Madikeri,"Stuart Hill, Madikeri - KSPCB",10-04-2024 10:00:00,12.415911,75.735050,NH3,1,2,1
India,Karnataka,Mangalore,"Kadri, Mangalore - KSPCB",10-04-2024 10:00:00,12.889250,74.853000,PM2.5,38,72,52
India,Karnataka,Shivamogga,"Vinoba Nagara, Shivamogga - KSPCB",10-04-2024 10:00:00,13.940000,75.555917,SO2,3,12,9
India,Karnataka,Shivamogga,"Vinoba Nagara, Shivamogga - KSPCB",10-04-2024 10:00:00,13.940000,75.555917,OZONE,28,88,46
India,Karnataka,Tumakuru,"Thimmalapura, Tumakuru - KSPCB",10-04-2024 10:00:00,13.377516,77.099072,PM2.5,NA,NA,NA
India,Karnataka,Tumakuru,"Thimmalapura, Tumakuru - KSPCB",10-04-2024 10:00:00,13.377516,77.099072,SO2,NA,NA,NA
India,Kerala,Kollam,"Polayathode, Kollam - Kerala PCB",10-04-2024 10:00:00,8.8787,76.6073,PM2.5,NA,NA,NA
India,Kerala,Thiruvananthapuram,"Kariavattom, Thiruvananthapuram - Kerala PCB",10-04-2024 10:00:00,8.563700,76.886500,CO,18,45,27
India,Kerala,Thrissur,"Corporation Ground, Thrissur - Kerala PCB",10-04-2024 10:00:00,10.532400,76.215900,NO2,7,8,7
India,Madhya Pradesh,Bhopal,"Idgah Hills, Bhopal - MPPCB",10-04-2024 10:00:00,23.264759,77.381568,NO2,20,38,26
India,Madhya Pradesh,Bhopal,"Paryavaran Parisar, Bhopal - MPPCB",10-04-2024 10:00:00,23.210494,77.425409,OZONE,44,105,56
India,Madhya Pradesh,Bhopal,"T T Nagar, Bhopal - MPPCB",10-04-2024 10:00:00,23.233584,77.400574,OZONE,30,110,48
India,Madhya Pradesh,Dewas,"Bhopal Chauraha, Dewas - MPPCB",10-04-2024 10:00:00,22.9682591,76.064118,CO,15,26,16
India,Madhya Pradesh,Dewas,"Bhopal Chauraha, Dewas - MPPCB",10-04-2024 10:00:00,22.9682591,76.064118,OZONE,34,81,46
India,Madhya Pradesh,Gwalior,"City Center, Gwalior - MPPCB",10-04-2024 10:00:00,26.203442,78.193251,PM2.5,16,162,67
India,Madhya Pradesh,Gwalior,"City Center, Gwalior - MPPCB",10-04-2024 10:00:00,26.203442,78.193251,OZONE,9,61,31
India,Madhya Pradesh,Gwalior,"Maharaj Bada, Gwalior - MPPCB",10-04-2024 10:00:00,26.200388,78.147714,PM10,66,212,129
India,Madhya Pradesh,Gwalior,"Maharaj Bada, Gwalior - MPPCB",10-04-2024 10:00:00,26.200388,78.147714,NO2,12,121,40
India,Madhya Pradesh,Indore,"Chhoti Gwaltoli, Indore - MPPCB",10-04-2024 10:00:00,22.4310,75.5213,CO,20,64,30
India,Madhya Pradesh,Indore,"Maguda Nagar, Indore - IMC",10-04-2024 10:00:00,22.7524,75.8872,NH3,1,2,2
India,Madhya Pradesh,Indore,"Regional Park, Indore - IMC",10-04-2024 10:00:00,22.6780,75.8559,NH3,1,4,2
India,Madhya Pradesh,Jabalpur,"Govindh Bhavan Colony, Jabalpur - JMC",10-04-2024 10:00:00,23.163174,79.973061,PM2.5,38,90,55
India,Madhya Pradesh,Jabalpur,"Gupteshwar, Jabalpur - JMC",10-04-2024 10:00:00,23.142888,79.916147,PM2.5,33,77,54
India,Madhya Pradesh,Jabalpur,"Gupteshwar, Jabalpur - JMC",10-04-2024 10:00:00,23.142888,79.916147,PM10,28,115,58
India,Madhya Pradesh,Katni,"Gole Bazar, Katni - MPPCB",10-04-2024 10:00:00,23.50016,80.23284,SO2,11,120,39
India,Madhya Pradesh,Katni,"Gole Bazar, Katni - MPPCB",10-04-2024 10:00:00,23.50016,80.23284,CO,34,127,90
India,Madhya Pradesh,Maihar,"Sahilara, Maihar - KJS Cements",10-04-2024 10:00:00,24.2613009,80.7231783,SO2,12,18,14
India,Madhya Pradesh,Pithampur,"Sector-2 Industrial Area, Pithampur - MPPCB",10-04-2024 10:00:00,22.624758,75.675238,SO2,12,18,14
India,Madhya Pradesh,Pithampur,"Sector-2 Industrial Area, Pithampur - MPPCB",10-04-2024 10:00:00,22.624758,75.675238,CO,26,68,29
India,Madhya Pradesh,Ratlam,"Shasthri Nagar, Ratlam - IPCA Lab",10-04-2024 10:00:00,23.331731,75.045981,NO2,18,102,32
India,Madhya Pradesh,Sagar,"Civil Lines, Sagar - MPPCB",10-04-2024 10:00:00,23.838586,78.759431,PM10,35,88,53
India,Madhya Pradesh,Sagar,"Civil Lines, Sagar - MPPCB",10-04-2024 10:00:00,23.838586,78.759431,SO2,6,29,11
India,Madhya Pradesh,Sagar,"Civil Lines, Sagar - MPPCB",10-04-2024 10:00:00,23.838586,78.759431,CO,7,26,17
India,Madhya Pradesh,Satna,"Bandhavgar Colony, Satna - Birla Cement",10-04-2024 10:00:00,24.58434363,80.8549414,PM10,20,80,47
India,Madhya Pradesh,Satna,"Bandhavgar Colony, Satna - Birla Cement",10-04-2024 10:00:00,24.58434363,80.8549414,NO2,25,72,38
India,Madhya Pradesh,Satna,"Bandhavgar Colony, Satna - Birla Cement",10-04-2024 10:00:00,24.58434363,80.8549414,OZONE,56,83,65
India,Madhya Pradesh,Singrauli,"Suryakiran Bhawan NCL, Singrauli - MPPCB",10-04-2024 10:00:00,24.108970,82.645580,OZONE,14,74,31
India,Maharashtra,Ahmednagar,"Tarakpur, Ahmednagar - MPCB",10-04-2024 10:00:00,19.10122,74.73339,NH3,NA,NA,NA
India,Maharashtra,Aurangabad,"More Chowk Waluj, Aurangabad - MPCB",10-04-2024 10:00:00,19.8389439,75.244448,PM10,23,135,65
India,Maharashtra,Aurangabad,"More Chowk Waluj, Aurangabad - MPCB",10-04-2024 10:00:00,19.8389439,75.244448,SO2,1,4,2
India,Maharashtra,Aurangabad,"More Chowk Waluj, Aurangabad - MPCB",10-04-2024 10:00:00,19.8389439,75.244448,OZONE,26,82,47
India,Maharashtra,Aurangabad,"Rachnakar Colony, Aurangabad - MPCB",10-04-2024 10:00:00,19.863756,75.321188,PM2.5,48,127,78
India,Maharashtra,Aurangabad,"Rachnakar Colony, Aurangabad - MPCB",10-04-2024 10:00:00,19.863756,75.321188,PM10,66,182,98
India,Maharashtra,Badlapur,"Katrap, Badlapur - MPCB",10-04-2024 10:00:00,19.16485,73.23409,NH3,1,4,2
India,Maharashtra,Badlapur,"Katrap, Badlapur - MPCB",10-04-2024 10:00:00,19.16485,73.23409,SO2,5,17,10
India,Maharashtra,Badlapur,"Katrap, Badlapur - MPCB",10-04-2024 10:00:00,19.16485,73.23409,CO,12,60,43
India,Maharashtra,Badlapur,"Katrap, Badlapur - MPCB",10-04-2024 10:00:00,19.16485,73.23409,OZONE,1,104,6
India,Maharashtra,Belapur,"CBD Belapur, Belapur - MPCB",10-04-2024 10:00:00,19.0243902,73.0406721,PM2.5,29,83,53
India,Maharashtra,Belapur,"CBD Belapur, Belapur - MPCB",10-04-2024 10:00:00,19.0243902,73.0406721,NO2,10,31,18
India,Maharashtra,Bhiwandi,"Gokul Nagar, Bhiwandi - MPCB",10-04-2024 10:00:00,19.309073,73.057223,NH3,3,5,4
India,Maharashtra,Bhiwandi,"Gokul Nagar, Bhiwandi - MPCB",10-04-2024 10:00:00,19.309073,73.057223,CO,10,60,35
India,Maharashtra,Bhiwandi,"Gokul Nagar, Bhiwandi - MPCB",10-04-2024 10:00:00,19.309073,73.057223,OZONE,13,71,21
India,Maharashtra,Chandrapur,"MIDC Khutala, Chandrapur - MPCB",10-04-2024 10:00:00,19.9775302,79.2337086,PM2.5,NA,NA,NA
India,Maharashtra,Chandrapur,"MIDC Khutala, Chandrapur - MPCB",10-04-2024 10:00:00,19.9775302,79.2337086,PM10,NA,NA,NA
India,Maharashtra,Chandrapur,"MIDC Khutala, Chandrapur - MPCB",10-04-2024 10:00:00,19.9775302,79.2337086,NH3,1,16,2
India,Maharashtra,Chandrapur,"MIDC Khutala, Chandrapur - MPCB",10-04-2024 10:00:00,19.9775302,79.2337086,SO2,20,23,21
India,Maharashtra,Dhule,"Deopur, Dhule - MPCB",10-04-2024 10:00:00,20.918946,74.776388,NO2,5,16,7
India,Maharashtra,Dhule,"Deopur, Dhule - MPCB",10-04-2024 10:00:00,20.918946,74.776388,SO2,20,54,32
India,Maharashtra,Jalgaon,"Prabhat Colony, Jalgaon - MPCB",10-04-2024 10:00:00,21.001264,75.565602,CO,10,18,13
India,Maharashtra,Jalna,"Old MIDC, Jalna - MPCB",10-04-2024 10:00:00,19.854616,75.905894,PM2.5,NA,NA,NA
India,Maharashtra,Jalna,"Old MIDC, Jalna - MPCB",10-04-2024 10:00:00,19.854616,75.905894,OZONE,14,36,18
India,Maharashtra,Kolhapur,"Shivaji University, Kolhapur - MPCB",10-04-2024 10:00:00,16.6870449,74.2505872,SO2,4,12,7
India,Maharashtra,Kolhapur,"Shivaji University, Kolhapur - MPCB",10-04-2024 10:00:00,16.6870449,74.2505872,CO,30,69,54
India,Maharashtra,Kolhapur,"Sinchan Bhavan, Kolhapur - MPCB",10-04-2024 10:00:00,16.7143745,74.2426398,NH3,7,8,8
India,Maharashtra,Mahad,"Kamble Tarf Birwadi, Mahad - MPCB",10-04-2024 10:00:00,18.1023399,73.4783687,PM2.5,53,151,81
India,Maharashtra,Mahad,"Kamble Tarf Birwadi, Mahad - MPCB",10-04-2024 10:00:00,18.1023399,73.4783687,NO2,24,101,42
India,Maharashtra,Mira-Bhayandar,"Bhayandar West, Mira-Bhayandar - MPCB",10-04-2024 10:00:00,19.296481,72.840923,NO2,2,36,13
India,Maharashtra,Mira-Bhayandar,"Bhayandar West, Mira-Bhayandar - MPCB",10-04-2024 10:00:00,19.296481,72.840923,CO,8,30,19
India,Maharashtra,Mumbai,"Bandra Kurla Complex, Mumbai - MPCB",10-04-2024 10:00:00,19.065931,72.862131,NH3,NA,NA,NA
India,Maharashtra,Mumbai,"Borivali East, Mumbai - IITM",10-04-2024 10:00:00,19.23241,72.86895,PM2.5,32,86,54
India,Maharashtra,Mumbai,"Borivali East, Mumbai - IITM",10-04-2024 10:00:00,19.23241,72.86895,NO2,104,193,140
India,Maharashtra,Mumbai,"Borivali East, Mumbai - IITM",10-04-2024 10:00:00,19.23241,72.86895,OZONE,30,136,38
India,Maharashtra,Mumbai,"Borivali East, Mumbai - MPCB",10-04-2024 10:00:00,19.2243333,72.8658113,OZONE,14,15,15
India,Maharashtra,Mumbai,"Byculla, Mumbai - BMC",10-04-2024 10:00:00,18.9767,72.8380,NO2,12,29,17
India,Maharashtra,Mumbai,"Byculla, Mumbai - BMC",10-04-2024 10:00:00,18.9767,72.8380,CO,10,30,13
India,Maharashtra,Mumbai,"Chakala-Andheri East, Mumbai - IITM",10-04-2024 10:00:00,19.11074,72.86084,PM10,40,174,95
India,Maharashtra,Mumbai,"Chakala-Andheri East, Mumbai - IITM",10-04-2024 10:00:00,19.11074,72.86084,NO2,51,112,74
India,Maharashtra,Mumbai,"Chembur, Mumbai - MPCB",10-04-2024 10:00:00,19.0364585,72.8954371,NO2,17,48,27
India,Maharashtra,Mumbai,"Chembur, Mumbai - MPCB",10-04-2024 10:00:00,19.0364585,72.8954371,CO,8,28,13
India,Maharashtra,Mumbai,"Chembur, Mumbai - MPCB",10-04-2024 10:00:00,19.0364585,72.8954371,OZONE,11,195,24
India,Maharashtra,Mumbai,"Chhatrapati Shivaji Intl. Airport (T2), Mumbai - MPCB",10-04-2024 10:00:00,19.10078,72.87462,PM2.5,32,90,58
India,Maharashtra,Mumbai,"Chhatrapati Shivaji Intl. Airport (T2), Mumbai - MPCB",10-04-2024 10:00:00,19.10078,72.87462,PM10,58,143,96
India,Maharashtra,Mumbai,"Chhatrapati Shivaji Intl. Airport (T2), Mumbai - MPCB",10-04-2024 10:00:00,19.10078,72.87462,NO2,6,40,15
India,Maharashtra,Mumbai,"Chhatrapati Shivaji Intl. Airport (T2), Mumbai - MPCB",10-04-2024 10:00:00,19.10078,72.87462,CO,38,68,52
India,Maharashtra,Mumbai,"Colaba, Mumbai - MPCB",10-04-2024 10:00:00,18.910000,72.820000,PM2.5,42,123,59
India,Maharashtra,Mumbai,"Colaba, Mumbai - MPCB",10-04-2024 10:00:00,18.910000,72.820000,CO,12,17,13
India,Maharashtra,Mumbai,"Kandivali East, Mumbai - MPCB",10-04-2024 10:00:00,19.205800,72.868200,NH3,4,53,8
India,Maharashtra,Mumbai,"Kandivali East, Mumbai - MPCB",10-04-2024 10:00:00,19.205800,72.868200,CO,26,30,27
India,Maharashtra,Mumbai,"Kandivali East, Mumbai - MPCB",10-04-2024 10:00:00,19.205800,72.868200,OZONE,30,31,30
India,Maharashtra,Mumbai,"Kandivali West, Mumbai - BMC",10-04-2024 10:00:00,19.215859,72.831718,PM2.5,5,71,43
India,Maharashtra,Mumbai,"Kherwadi_Bandra East, Mumbai - MPCB",10-04-2024 10:00:00,19.0632143,72.8456324,PM10,49,154,87
India,Maharashtra,Mumbai,"Kherwadi_Bandra East, Mumbai - MPCB",10-04-2024 10:00:00,19.0632143,72.8456324,NH3,2,17,5
India,Maharashtra,Mumbai,"Khindipada-Bhandup West, Mumbai - IITM",10-04-2024 10:00:00,19.1653323,72.922099,OZONE,3,23,5
India,Maharashtra,Mumbai,"Kurla, Mumbai - MPCB",10-04-2024 10:00:00,19.0863,72.8888,NH3,2,2,2
India,Maharashtra,Mumbai,"Mazgaon, Mumbai - IITM",10-04-2024 10:00:00,18.96702,72.84214,NO2,107,287,215
India,Maharashtra,Mumbai,"Mindspace-Malad West, Mumbai - MPCB",10-04-2024 10:00:00,19.1878657,72.8304069,PM10,39,97,61
India,Maharashtra,Mumbai,"Mindspace-Malad West, Mumbai - MPCB",10-04-2024 10:00:00,19.1878657,72.8304069,NH3,8,8,8
India,Maharashtra,Mumbai,"Mindspace-Malad West, Mumbai - MPCB",10-04-2024 10:00:00,19.1878657,72.8304069,OZONE,12,56,20
India,Maharashtra,Mumbai,"Mulund West, Mumbai - MPCB",10-04-2024 10:00:00,19.1750,72.9419,PM2.5,44,179,76
India,Maharashtra,Mumbai,"Mulund West, Mumbai - MPCB",10-04-2024 10:00:00,19.1750,72.9419,NH3,10,11,11
India,Maharashtra,Mumbai,"Mulund West, Mumbai - MPCB",10-04-2024 10:00:00,19.1750,72.9419,OZONE,7,7,7
India,Maharashtra,Mumbai,"Powai, Mumbai - MPCB",10-04-2024 10:00:00,19.137500,72.915056,CO,30,38,33
India,Maharashtra,Mumbai,"Sewri, Mumbai - BMC",10-04-2024 10:00:00,19.000084,72.856730,PM10,27,104,59
India,Maharashtra,Mumbai,"Sewri, Mumbai - BMC",10-04-2024 10:00:00,19.000084,72.856730,NH3,1,5,4
India,Maharashtra,Mumbai,"Sewri, Mumbai - BMC",10-04-2024 10:00:00,19.000084,72.856730,SO2,2,15,6
India,Maharashtra,Mumbai,"Sion, Mumbai - MPCB",10-04-2024 10:00:00,19.047000,72.874600,NH3,NA,NA,NA
India,Maharashtra,Mumbai,"Vasai West, Mumbai - MPCB",10-04-2024 10:00:00,19.383200,72.820400,PM10,53,130,79
India,Maharashtra,Mumbai,"Vasai West, Mumbai - MPCB",10-04-2024 10:00:00,19.383200,72.820400,NO2,26,28,27
India,Maharashtra,Mumbai,"Vasai West, Mumbai - MPCB",10-04-2024 10:00:00,19.383200,72.820400,SO2,16,17,16
India,Maharashtra,Mumbai,"Vile Parle West, Mumbai - MPCB",10-04-2024 10:00:00,19.10861,72.83622,OZONE,NA,NA,NA
India,Maharashtra,Mumbai,"Worli, Mumbai - MPCB",10-04-2024 10:00:00,18.9936162,72.8128113,SO2,11,12,11
India,Maharashtra,Nagpur,"Ambazari, Nagpur - MPCB",10-04-2024 10:00:00,21.121801,79.04952,PM10,62,105,86
India,Maharashtra,Nagpur,"Mahal, Nagpur - MPCB",10-04-2024 10:00:00,21.14472,79.107595,PM10,48,113,70
India,Maharashtra,Nagpur,"Mahal, Nagpur - MPCB",10-04-2024 10:00:00,21.14472,79.107595,CO,24,113,31
India,Maharashtra,Nagpur,"Opp GPO Civil Lines, Nagpur - MPCB",10-04-2024 10:00:00,21.152875,79.0517531,NH3,5,8,6
India,Maharashtra,Nagpur,"Opp GPO Civil Lines, Nagpur - MPCB",10-04-2024 10:00:00,21.152875,79.0517531,CO,18,44,30
India,Maharashtra,Nanded,"Sneh Nagar, Nanded - MPCB",10-04-2024 10:00:00,19.173852,77.296291,PM10,61,121,94
India,Maharashtra,Nanded,"Sneh Nagar, Nanded - MPCB",10-04-2024 10:00:00,19.173852,77.296291,SO2,3,10,7
India,Maharashtra,Nashik,"Gangapur Road, Nashik - MPCB",10-04-2024 10:00:00,20.0073285,73.7762427,SO2,1,7,5
India,Maharashtra,Nashik,"Gangapur Road, Nashik - MPCB",10-04-2024 10:00:00,20.0073285,73.7762427,OZONE,6,71,22
India,Maharashtra,Nashik,"Hirawadi, Nashik - MPCB",10-04-2024 10:00:00,20.021503,73.813844,SO2,5,12,9
India,Maharashtra,Nashik,"MIDC Ambad, Nashik - MPCB",10-04-2024 10:00:00,19.950220,73.731480,CO,12,90,49
India,Maharashtra,Nashik,"Pandav Nagari, Nashik - MPCB",10-04-2024 10:00:00,19.9591346,73.7788008,NO2,9,40,22
India,Maharashtra,Nashik,"Pandav Nagari, Nashik - MPCB",10-04-2024 10:00:00,19.9591346,73.7788008,SO2,8,24,16
India,Maharashtra,Navi Mumbai,"Kopripada-Vashi, Navi Mumbai - MPCB",10-04-2024 10:00:00,19.090337,73.014232,NH3,NA,NA,NA
India,Maharashtra,Navi Mumbai,"Mahape, Navi Mumbai - MPCB",10-04-2024 10:00:00,19.1135051,73.008978,NO2,84,87,85
India,Maharashtra,Navi Mumbai,"Nerul, Navi Mumbai - MPCB",10-04-2024 10:00:00,19.008751,73.016620,NO2,44,70,49
India,Maharashtra,Navi Mumbai,"Nerul, Navi Mumbai - MPCB",10-04-2024 10:00:00,19.008751,73.016620,OZONE,41,66,43
India,Maharashtra,Navi Mumbai,"Sanpada, Navi Mumbai - MPCB",10-04-2024 10:00:00,19.0575752,73.0151367,PM2.5,40,82,56
India,Maharashtra,Navi Mumbai,"Sanpada, Navi Mumbai - MPCB",10-04-2024 10:00:00,19.0575752,73.0151367,PM10,56,131,86
India,Maharashtra,Navi Mumbai,"Sector-2E Kalamboli, Navi Mumbai - MPCB",10-04-2024 10:00:00,19.02579,73.10297,SO2,1,15,5
India,Maharashtra,Parbhani,"Masoom Colony, Parbhani - MPCB",10-04-2024 10:00:00,19.265594,76.761463,PM10,52,151,94
India,Maharashtra,Pimpri-Chinchwad,"Gavalinagar, Pimpri Chinchwad - MPCB",10-04-2024 10:00:00,18.63673,73.82487,SO2,8,30,16
India,Maharashtra,Pimpri-Chinchwad,"Gavalinagar, Pimpri Chinchwad - MPCB",10-04-2024 10:00:00,18.63673,73.82487,CO,10,78,37
India,Maharashtra,Pimpri-Chinchwad,"Gavalinagar, Pimpri Chinchwad - MPCB",10-04-2024 10:00:00,18.63673,73.82487,OZONE,4,217,41
India,Maharashtra,Pimpri-Chinchwad,"Park Street Wakad, Pimpri Chinchwad - MPCB",10-04-2024 10:00:00,18.59051,73.77946,NO2,61,122,89
India,Maharashtra,Pimpri-Chinchwad,"Thergaon, Pimpri Chinchwad - MPCB",10-04-2024 10:00:00,18.616318,73.765797,PM2.5,83,330,126
India,Maharashtra,Pune,"Bhosari, Pune - IITM",10-04-2024 10:00:00,18.640051,73.848956,NO2,6,9,7
India,Maharashtra,Pune,"Karve Road, Pune - MPCB",10-04-2024 10:00:00,18.5011743,73.8165527,CO,76,76,76
India,Maharashtra,Pune,"Katraj Dairy, Pune - MPCB",10-04-2024 10:00:00,18.454450,73.854155,NH3,2,5,3
India,Maharashtra,Pune,"Mhada Colony, Pune - IITM",10-04-2024 10:00:00,18.573040,73.927715,PM10,41,118,75
India,Maharashtra,Pune,"Mhada Colony, Pune - IITM",10-04-2024 10:00:00,18.573040,73.927715,OZONE,12,28,14
India,Maharashtra,Pune,"Revenue Colony-Shivajinagar, Pune - IITM",10-04-2024 10:00:00,18.530085,73.849598,NO2,66,155,112
India,Maharashtra,Pune,"Revenue Colony-Shivajinagar, Pune - IITM",10-04-2024 10:00:00,18.530085,73.849598,NH3,7,20,14
India,Maharashtra,Pune,"Savitribai Phule Pune University, Pune - MPCB",10-04-2024 10:00:00,18.547056,73.826908,PM2.5,51,108,74
India,Maharashtra,Pune,"Savitribai Phule Pune University, Pune - MPCB",10-04-2024 10:00:00,18.547056,73.826908,PM10,67,122,89
India,Maharashtra,Pune,"Savitribai Phule Pune University, Pune - MPCB",10-04-2024 10:00:00,18.547056,73.826908,NH3,1,2,1
India,Maharashtra,Pune,"Savitribai Phule Pune University, Pune - MPCB",10-04-2024 10:00:00,18.547056,73.826908,SO2,8,21,13
India,Maharashtra,Pune,"Transport Nagar-Nigdi, Pune - IITM",10-04-2024 10:00:00,18.664282,73.763966,PM10,34,105,77
India,Maharashtra,Sangli,"Vijay Nagar, Sangli - MPCB",10-04-2024 10:00:00, 16.5038,74.3623,NO2,10,49,28
India,Maharashtra,Sangli,"Vijay Nagar, Sangli - MPCB",10-04-2024 10:00:00, 16.5038,74.3623,CO,12,54,37
India,Maharashtra,Sangli,"Vijay Nagar, Sangli - MPCB",10-04-2024 10:00:00, 16.5038,74.3623,OZONE,11,81,21
India,Maharashtra,Solapur,"Dnyaneshwar Nagar, Solapur - MPCB",10-04-2024 10:00:00,17.6336264,75.9132495,PM2.5,44,123,63
India,Maharashtra,Solapur,"Ratandeep Housing Society, Solapur - MPCB",10-04-2024 10:00:00,17.65439,75.90649,PM10,NA,NA,NA
India,Maharashtra,Thane,"Kasarvadavali, Thane - MPCB",10-04-2024 10:00:00,19.26777,72.97182,PM2.5,55,95,73
India,Maharashtra,Thane,"Kasarvadavali, Thane - MPCB",10-04-2024 10:00:00,19.26777,72.97182,SO2,1,19,5
India,Maharashtra,Thane,"Upvan Fort, Thane - MPCB",10-04-2024 10:00:00,19.222279,72.957979,CO,10,47,17
India,Maharashtra,Ulhasnagar,"Sidhi Vinayak Nagar, Ulhasnagar - MPCB",10-04-2024 10:00:00,19.235581,73.159121,NH3,2,3,2
India,Maharashtra,Virar,"Bolinj, Virar - MPCB",10-04-2024 10:00:00,19.4458210,72.7988231,NO2,10,48,25
India,Manipur,Imphal,"DM College of Science, Imphal - Manipur PCB",10-04-2024 10:00:00,24.8207389,93.9423085,PM2.5,15,54,29
India,Manipur,Imphal,"DM College of Science, Imphal - Manipur PCB",10-04-2024 10:00:00,24.8207389,93.9423085,PM10,22,78,39
India,Manipur,Imphal,"DM College of Science, Imphal - Manipur PCB",10-04-2024 10:00:00,24.8207389,93.9423085,SO2,92,98,95
India,Manipur,Imphal,"Manipur University, Imphal - Manipur PCB",10-04-2024 10:00:00,24.7524239,93.9286218,NH3,NA,NA,NA
India,Meghalaya,Shillong,"Lumpyngngad, Shillong - Meghalaya PCB",10-04-2024 10:00:00,25.5586,91.8985,PM10,18,103,49
India,Meghalaya,Shillong,"Lumpyngngad, Shillong - Meghalaya PCB",10-04-2024 10:00:00,25.5586,91.8985,NO2,1,1,1
India,Mizoram,Aizawl,"Sikulpuikawn, Aizawl - Mizoram PCB",10-04-2024 10:00:00,23.7176342,92.7192841,CO,19,23,20
India,Nagaland,Kohima,"PWD Juction, Kohima - NPCB",10-04-2024 10:00:00,25.6635413,94.0989878,SO2,31,34,32
India,Nagaland,Kohima,"PWD Juction, Kohima - NPCB",10-04-2024 10:00:00,25.6635413,94.0989878,CO,18,45,20
India,Odisha,Angul,"Hakimapada, Angul - OSPCB",10-04-2024 10:00:00,20.832874,85.104082,PM10,58,181,121
India,Odisha,Angul,"Hakimapada, Angul - OSPCB",10-04-2024 10:00:00,20.832874,85.104082,CO,18,62,51
India,Odisha,Balasore,"Kalidaspur, Balasore - OSPCB",10-04-2024 10:00:00,21.51161,86.89088,PM10,61,185,120
India,Odisha,Barbil,"Forest Office, Barbil - OSPCB",10-04-2024 10:00:00,22.1166054,85.3945546,NO2,NA,NA,NA
India,Odisha,Baripada,"Meher Colony, Baripada - OSPCB",10-04-2024 10:00:00,21.941841,86.728318,CO,20,32,25
India,Odisha,Bhubaneswar,"Lingraj Mandir, Bhubaneswar - OSPCB",10-04-2024 10:00:00,20.240790,85.836784,NH3,1,5,3
India,Odisha,Bhubaneswar,"Lingraj Mandir, Bhubaneswar - OSPCB",10-04-2024 10:00:00,20.240790,85.836784,SO2,2,106,39
India,Odisha,Bhubaneswar,"Patia, Bhubaneswar - OSPCB",10-04-2024 10:00:00,20.34652,85.81630,SO2,6,117,50
India,Odisha,Bileipada,"Tata Township, Bileipada - OSPCB",10-04-2024 10:00:00,22.06156703,85.47409613,SO2,20,58,40
India,Odisha,Byasanagar,"Ferro Chrome Colony, Byasanagar - OSPCB",10-04-2024 10:00:00,20.94185,86.11510,NH3,2,4,3
India,Odisha,Byasanagar,"Ferro Chrome Colony, Byasanagar - OSPCB",10-04-2024 10:00:00,20.94185,86.11510,CO,73,106,91
India,Odisha,Cuttack,"CDA Area, Cuttack - OSPCB",10-04-2024 10:00:00,20.48891     ,85.84768     ,PM10,73,163,109
India,Odisha,Keonjhar,"Jagamohanpur, Keonjhar - OSPCB",10-04-2024 10:00:00,21.643900,85.599355,NH3,7,10,7
India,Odisha,Keonjhar,"Jagamohanpur, Keonjhar - OSPCB",10-04-2024 10:00:00,21.643900,85.599355,SO2,4,20,5
India,Odisha,Nayagarh,"Dabuna, Nayagarh - OSPCB",10-04-2024 10:00:00,21.847279,85.416905,CO,15,22,16
India,Odisha,Rairangpur,"Divisional Forest Office, Rairangpur - OSPCB",10-04-2024 10:00:00,22.265816,86.174829,PM2.5,44,101,73
India,Odisha,Rairangpur,"Divisional Forest Office, Rairangpur - OSPCB",10-04-2024 10:00:00,22.265816,86.174829,PM10,46,117,78
India,Odisha,Rairangpur,"Divisional Forest Office, Rairangpur - OSPCB",10-04-2024 10:00:00,22.265816,86.174829,NO2,7,8,7
India,Odisha,Rairangpur,"Divisional Forest Office, Rairangpur - OSPCB",10-04-2024 10:00:00,22.265816,86.174829,OZONE,2,41,10
India,Odisha,Rourkela,"Raghunathpali, Rourkela - OSPCB",10-04-2024 10:00:00,22.220833,84.809444,SO2,2,12,6
India,Odisha,Rourkela,"Sector-2, Rourkela - OSPCB",10-04-2024 10:00:00,22.24500000,84.88111111,CO,NA,NA,NA
India,Odisha,Suakati,"OMC Colony, Suakati - OSPCB",10-04-2024 10:00:00,21.606865,85.510538,CO,18,27,18
India,Odisha,Talcher,"Talcher Coalfields,Talcher - OSPCB",10-04-2024 10:00:00,20.9360711,85.1707021,SO2,NA,NA,NA
India,Puducherry,Puducherry,"Jawahar Nagar, Puducherry - PPCC",10-04-2024 10:00:00,11.9309,79.8027,PM10,44,154,74
India,Puducherry,Puducherry,"Jawahar Nagar, Puducherry - PPCC",10-04-2024 10:00:00,11.9309,79.8027,SO2,3,15,8
India,Punjab,Amritsar,"Golden Temple, Amritsar - PPCB",10-04-2024 10:00:00,31.620000,74.876512,PM2.5,104,257,164
India,Punjab,Amritsar,"Golden Temple, Amritsar - PPCB",10-04-2024 10:00:00,31.620000,74.876512,PM10,102,152,121
India,Punjab,Khanna,"Kalal Majra, Khanna - PPCB",10-04-2024 10:00:00,30.736056 ,76.209694,PM10,42,95,71
India,Punjab,Khanna,"Kalal Majra, Khanna - PPCB",10-04-2024 10:00:00,30.736056 ,76.209694,NH3,15,17,16
India,Punjab,Ludhiana,"Punjab Agricultural University, Ludhiana - PPCB",10-04-2024 10:00:00,30.9028,75.8086,SO2,5,47,15
India,Punjab,Mandi Gobindgarh,"RIMT University, Mandi Gobindgarh - PPCB",10-04-2024 10:00:00,30.649961,76.331442,PM2.5,34,314,146
India,Punjab,Mandi Gobindgarh,"RIMT University, Mandi Gobindgarh - PPCB",10-04-2024 10:00:00,30.649961,76.331442,NH3,9,9,9
India,Punjab,Mandi Gobindgarh,"RIMT University, Mandi Gobindgarh - PPCB",10-04-2024 10:00:00,30.649961,76.331442,SO2,5,99,26
India,Rajasthan,Ajmer,"Civil Lines,  Ajmer - RSPCB",10-04-2024 10:00:00,26.470859,74.646594,SO2,11,15,12
India,Rajasthan,Alwar,"Moti Doongri, Alwar - RSPCB",10-04-2024 10:00:00,27.554793,76.611536,NO2,32,91,50
India,Rajasthan,Alwar,"Moti Doongri, Alwar - RSPCB",10-04-2024 10:00:00,27.554793,76.611536,NH3,4,13,7
India,Rajasthan,Banswara,"Rati Talai, Banswara - RSPCB",10-04-2024 10:00:00,23.555190,74.440010,NO2,5,134,38
India,Rajasthan,Banswara,"Rati Talai, Banswara - RSPCB",10-04-2024 10:00:00,23.555190,74.440010,NH3,2,37,8
India,Rajasthan,Baran,"Bamboliya, Baran - RSPCB",10-04-2024 10:00:00,25.106006,76.469948,PM2.5,39,120,72
India,Rajasthan,Barmer,"Railway Colony, Barmer - RSPCB",10-04-2024 10:00:00,25.747299,71.393989,CO,12,164,17
India,Rajasthan,Bharatpur,"Krishna Nagar, Bharatpur - RSPCB",10-04-2024 10:00:00,27.215415,77.50873,CO,13,145,42
India,Rajasthan,Bhilwara,"Pratap Nagar, Bhilwara - RSPCB",10-04-2024 10:00:00,25.339605,74.618883,PM10,NA,NA,NA
India,Rajasthan,Bhilwara,"Pratap Nagar, Bhilwara - RSPCB",10-04-2024 10:00:00,25.339605,74.618883,NO2,NA,NA,NA
India,Rajasthan,Bhiwadi,"RIICO Ind. Area III, Bhiwadi - RSPCB",10-04-2024 10:00:00,28.194909,76.862296,PM10,NA,NA,NA
India,Rajasthan,Bhiwadi,"Vasundhara Nagar_UIT, Bhiwadi - RSPCB",10-04-2024 10:00:00,28.207266,76.829265,NH3,7,27,16
India,Rajasthan,Bikaner,"MM Ground, Bikaner - RSPCB",10-04-2024 10:00:00,28.018792,73.292658,PM10,89,429,190
India,Rajasthan,Bikaner,"MM Ground, Bikaner - RSPCB",10-04-2024 10:00:00,28.018792,73.292658,NO2,25,101,58
India,Rajasthan,Bikaner,"MM Ground, Bikaner - RSPCB",10-04-2024 10:00:00,28.018792,73.292658,SO2,1,11,7
India,Rajasthan,Dausa,"Khatikan Mohalla, Dausa - RSPCB",10-04-2024 10:00:00,26.895552,76.334753,NO2,22,117,51
India,Rajasthan,Dholpur,"Raja Ganj, Dholpur - RSPCB",10-04-2024 10:00:00,26.699557,77.898881,SO2,4,7,5
India,Rajasthan,Dungarpur,"Bhoiwada, Dungarpur - RSPCB",10-04-2024 10:00:00,23.837789,73.714926,NO2,13,24,18
India,Rajasthan,Dungarpur,"Bhoiwada, Dungarpur - RSPCB",10-04-2024 10:00:00,23.837789,73.714926,NH3,3,5,4
India,Rajasthan,Dungarpur,"Bhoiwada, Dungarpur - RSPCB",10-04-2024 10:00:00,23.837789,73.714926,OZONE,42,104,59
India,Rajasthan,Hanumangarh,"Housing Board, Hanumangarh - RSPCB",10-04-2024 10:00:00,29.610750,74.283608,NO2,13,46,28
India,Rajasthan,Hanumangarh,"Housing Board, Hanumangarh - RSPCB",10-04-2024 10:00:00,29.610750,74.283608,OZONE,33,85,45
India,Rajasthan,Jaipur,"Adarsh Nagar, Jaipur - RSPCB",10-04-2024 10:00:00,26.902909,75.836858,PM2.5,28,90,60
India,Rajasthan,Jaipur,"Adarsh Nagar, Jaipur - RSPCB",10-04-2024 10:00:00,26.902909,75.836858,NO2,20,109,43
India,Rajasthan,Jaipur,"Adarsh Nagar, Jaipur - RSPCB",10-04-2024 10:00:00,26.902909,75.836858,CO,22,68,32
India,Rajasthan,Jaipur,"Adarsh Nagar, Jaipur - RSPCB",10-04-2024 10:00:00,26.902909,75.836858,OZONE,18,40,36
India,Rajasthan,Jaipur,"Mansarovar Sector-12, Jaipur - RSPCB",10-04-2024 10:00:00,26.843698,75.766894,NO2,7,109,33
India,Rajasthan,Jaipur,"Sector-2 Murlipura, Jaipur - RSPCB",10-04-2024 10:00:00,26.960669,75.771817,NH3,2,18,7
India,Rajasthan,Jaipur,"Sector-2 Murlipura, Jaipur - RSPCB",10-04-2024 10:00:00,26.960669,75.771817,OZONE,6,106,89
India,Rajasthan,Jaipur,"Shastri Nagar, Jaipur - RSPCB",10-04-2024 10:00:00,26.9502929,75.730943,NH3,1,17,5
India,Rajasthan,Jaisalmer,"Sadar Bazar, Jaisalmer - RSPCB",10-04-2024 10:00:00,26.912329,70.909168,NH3,6,25,10
India,Rajasthan,Jaisalmer,"Sadar Bazar, Jaisalmer - RSPCB",10-04-2024 10:00:00,26.912329,70.909168,OZONE,2,110,75
India,Rajasthan,Jalore,"Mudtra Sili, Jalore - RSPCB",10-04-2024 10:00:00,25.344694,72.626208,NO2,20,166,59
India,Rajasthan,Jhalawar,"Rajlaxmi Nagar, Jhalawar - RSPCB",10-04-2024 10:00:00,24.588397,76.172782,NO2,17,73,24
India,Rajasthan,Jhunjhunu,"Indra Nagar, Jhunjhunu - RSPCB",10-04-2024 10:00:00,28.108988,75.386577,SO2,4,19,10
India,Rajasthan,Jodhpur,"Collectorate, Jodhpur - RSPCB",10-04-2024 10:00:00,26.268249,73.0193853,PM2.5,24,348,168
India,Rajasthan,Jodhpur,"Digari Kalan, Jodhpur - RSPCB",10-04-2024 10:00:00,26.295810,73.082283,SO2,3,11,6
India,Rajasthan,Jodhpur,"Jhalamand, Jodhpur - RSPCB",10-04-2024 10:00:00,26.215415,73.070156,CO,10,82,33
India,Rajasthan,Jodhpur,"Mandor, Jodhpur - RSPCB",10-04-2024 10:00:00,26.358805,73.047444,NH3,5,13,8
India,Rajasthan,Jodhpur,"Mandor, Jodhpur - RSPCB",10-04-2024 10:00:00,26.358805,73.047444,SO2,4,9,5
India,Rajasthan,Jodhpur,"Samrat Ashok Udhyan, Jodhpur - RSPCB",10-04-2024 10:00:00,26.253384,72.976571,OZONE,4,110,21
India,Rajasthan,Kota,"Dhanmandi, Kota - RSPCB",10-04-2024 10:00:00,25.164090,75.858137,NH3,4,7,5
India,Rajasthan,Kota,"Shrinath Puram, Kota - RSPCB",10-04-2024 10:00:00,25.14389,75.821256,PM10,59,140,105
India,Rajasthan,Kota,"Shrinath Puram, Kota - RSPCB",10-04-2024 10:00:00,25.14389,75.821256,NO2,10,147,50
India,Rajasthan,Kota,"Shrinath Puram, Kota - RSPCB",10-04-2024 10:00:00,25.14389,75.821256,NH3,6,17,11
India,Rajasthan,Nagaur,"Karni Colony, Nagaur - RSPCB",10-04-2024 10:00:00,27.213494,73.734444,PM2.5,21,147,61
India,Rajasthan,Pali,"Indira Colony Vistar, Pali - RSPCB",10-04-2024 10:00:00,25.771061, 73.340227,NO2,15,73,32
India,Rajasthan,Pali,"Indira Colony Vistar, Pali - RSPCB",10-04-2024 10:00:00,25.771061, 73.340227,OZONE,26,91,46
India,Rajasthan,Pratapgarh,"Pragati Nagar, Pratapgarh - RSPCB",10-04-2024 10:00:00,24.041198,74.780702,PM10,65,180,107
India,Rajasthan,Rajsamand,"Dhoinda, Rajsamand - RSPCB",10-04-2024 10:00:00,25.036360,73.883502,PM10,37,205,107
India,Rajasthan,Rajsamand,"Dhoinda, Rajsamand - RSPCB",10-04-2024 10:00:00,25.036360,73.883502,NO2,8,52,24
India,Rajasthan,Rajsamand,"Dhoinda, Rajsamand - RSPCB",10-04-2024 10:00:00,25.036360,73.883502,SO2,8,9,8
India,Rajasthan,Sawai Madhopur,"Sahu Nagar, Sawai Madhopur - RSPCB",10-04-2024 10:00:00,26.031443,76.359327,CO,6,88,34
India,Rajasthan,Sri Ganganagar,"Old City, Sri Ganganagar - RSPCB",10-04-2024 10:00:00,29.931624,73.864511,PM10,110,457,233
India,Rajasthan,Sri Ganganagar,"Old City, Sri Ganganagar - RSPCB",10-04-2024 10:00:00,29.931624,73.864511,SO2,4,40,13
India,Rajasthan,Sri Ganganagar,"Old City, Sri Ganganagar - RSPCB",10-04-2024 10:00:00,29.931624,73.864511,CO,92,124,99
India,Rajasthan,Tonk,"Shastri Nagar, Tonk - RSPCB",10-04-2024 10:00:00,26.159933,75.780517,NH3,4,24,9
India,Rajasthan,Tonk,"Shastri Nagar, Tonk - RSPCB",10-04-2024 10:00:00,26.159933,75.780517,OZONE,26,98,50
India,Rajasthan,Udaipur,"Ashok Nagar, Udaipur - RSPCB",10-04-2024 10:00:00,24.5886166,73.6321397,PM2.5,73,440,168
India,Rajasthan,Udaipur,"Ashok Nagar, Udaipur - RSPCB",10-04-2024 10:00:00,24.5886166,73.6321397,PM10,102,175,137
India,Rajasthan,Udaipur,"Ashok Nagar, Udaipur - RSPCB",10-04-2024 10:00:00,24.5886166,73.6321397,NH3,12,24,16
India,Sikkim,Gangtok,"Zero Point GICI, Gangtok - SSPCB",10-04-2024 10:00:00,27.338530,88.614099,PM2.5,20,36,26
India,Sikkim,Gangtok,"Zero Point GICI, Gangtok - SSPCB",10-04-2024 10:00:00,27.338530,88.614099,PM10,23,73,42
India,Sikkim,Gangtok,"Zero Point GICI, Gangtok - SSPCB",10-04-2024 10:00:00,27.338530,88.614099,NO2,1,7,2
India,TamilNadu,Ariyalur,"Keelapalur, Ariyalur - TNPCB",10-04-2024 10:00:00,11.06825,79.07033,NO2,130,162,148
India,TamilNadu,Chennai,"Alandur Bus Depot, Chennai - CPCB",10-04-2024 10:00:00,12.9099161,80.1076538,PM10,33,52,40
India,TamilNadu,Chennai,"Kodungaiyur, Chennai - TNPCB",10-04-2024 10:00:00,13.1278,80.2642,PM2.5,10,49,26
India,TamilNadu,Chennai,"Manali, Chennai - CPCB",10-04-2024 10:00:00,13.164544,80.26285,OZONE,21,51,42
India,TamilNadu,Chennai,"Perungudi, Chennai - TNPCB",10-04-2024 10:00:00,12.9533,80.2357,PM2.5,30,65,47
India,TamilNadu,Chennai,"Royapuram, Chennai - TNPCB",10-04-2024 10:00:00,13.1036,80.2909,PM2.5,27,138,49
India,TamilNadu,Chennai,"Royapuram, Chennai - TNPCB",10-04-2024 10:00:00,13.1036,80.2909,NH3,1,2,1
India,TamilNadu,Chennai,"Velachery Res. Area, Chennai - CPCB",10-04-2024 10:00:00,13.0052189,80.2398125,PM10,32,57,45
India,TamilNadu,Cuddalore,"Semmandalam, Cuddalore - TNPCB",10-04-2024 10:00:00,11.7637683,79.7499835,PM2.5,22,73,42
India,TamilNadu,Cuddalore,"Semmandalam, Cuddalore - TNPCB",10-04-2024 10:00:00,11.7637683,79.7499835,PM10,17,55,30
India,TamilNadu,Gummidipoondi,"Anthoni Pillai Nagar, Gummidipoondi - TNPCB",10-04-2024 10:00:00,13.4127,80.1081,PM2.5,30,223,73
India,TamilNadu,Gummidipoondi,"Anthoni Pillai Nagar, Gummidipoondi - TNPCB",10-04-2024 10:00:00,13.4127,80.1081,NH3,1,2,2
India,TamilNadu,Ooty,"Bombay Castel, Ooty - TNPCB",10-04-2024 10:00:00,11.4068288,76.7138973,OZONE,5,5,5
India,TamilNadu,Ramanathapuram,"Chalai Bazaar, Ramanathapuram - TNPCB",10-04-2024 10:00:00,9.36399,78.831977,PM2.5,22,98,58
India,TamilNadu,Ramanathapuram,"Chalai Bazaar, Ramanathapuram - TNPCB",10-04-2024 10:00:00,9.36399,78.831977,CO,2,7,4
India,TamilNadu,Ramanathapuram,"Chalai Bazaar, Ramanathapuram - TNPCB",10-04-2024 10:00:00,9.36399,78.831977,OZONE,14,14,14
India,TamilNadu,Salem,"Sona College of Technology, Salem - TNPCB",10-04-2024 10:00:00,11.679111,78.125052,PM10,65,119,88
India,TamilNadu,Salem,"Sona College of Technology, Salem - TNPCB",10-04-2024 10:00:00,11.679111,78.125052,NO2,7,10,9
India,TamilNadu,Salem,"Sona College of Technology, Salem - TNPCB",10-04-2024 10:00:00,11.679111,78.125052,CO,58,62,61
India,TamilNadu,Tirupur,"Kumaran College, Tirupur - TNPCB",10-04-2024 10:00:00,11.0973603,77.3228673,OZONE,6,7,7
India,TamilNadu,Vellore,"Vasanthapuram, Vellore - TNPCB",10-04-2024 10:00:00,12.909494,79.131861,NO2,6,17,11
India,TamilNadu,Virudhunagar,"Collectorate Office, Virudhunagar - TNPCB",10-04-2024 10:00:00,9.559382,77.948828,PM2.5,34,69,49
India,TamilNadu,Virudhunagar,"Collectorate Office, Virudhunagar - TNPCB",10-04-2024 10:00:00,9.559382,77.948828,PM10,41,87,60
India,TamilNadu,Virudhunagar,"Collectorate Office, Virudhunagar - TNPCB",10-04-2024 10:00:00,9.559382,77.948828,NO2,3,8,6
India,TamilNadu,Virudhunagar,"Collectorate Office, Virudhunagar - TNPCB",10-04-2024 10:00:00,9.559382,77.948828,NH3,6,7,6
India,Telangana,Hyderabad,"ECIL Kapra, Hyderabad - TSPCB",10-04-2024 10:00:00,17.470431,78.566959,OZONE,30,56,45
India,Telangana,Hyderabad,"ICRISAT Patancheru, Hyderabad - TSPCB",10-04-2024 10:00:00,17.518400,78.278777,PM2.5,28,132,47
India,Telangana,Hyderabad,"ICRISAT Patancheru, Hyderabad - TSPCB",10-04-2024 10:00:00,17.518400,78.278777,NO2,15,17,16
India,Telangana,Hyderabad,"Kokapet, Hyderabad - TSPCB",10-04-2024 10:00:00,17.393559,78.339194,PM10,74,94,81
India,Telangana,Hyderabad,"Nacharam_TSIIC IALA, Hyderabad - TSPCB",10-04-2024 10:00:00,17.429398,78.569354,PM2.5,80,88,87
India,Telangana,Hyderabad,"Nacharam_TSIIC IALA, Hyderabad - TSPCB",10-04-2024 10:00:00,17.429398,78.569354,PM10,90,97,96
India,Telangana,Hyderabad,"Nacharam_TSIIC IALA, Hyderabad - TSPCB",10-04-2024 10:00:00,17.429398,78.569354,OZONE,22,75,22
India,Telangana,Hyderabad,"New Malakpet, Hyderabad - TSPCB",10-04-2024 10:00:00,17.37206,78.50864,SO2,NA,NA,NA
India,Telangana,Hyderabad,"Somajiguda, Hyderabad - TSPCB",10-04-2024 10:00:00,17.417094,78.457437,PM10,66,94,76
India,Telangana,Hyderabad,"Somajiguda, Hyderabad - TSPCB",10-04-2024 10:00:00,17.417094,78.457437,SO2,10,11,11
India,Telangana,Hyderabad,"Somajiguda, Hyderabad - TSPCB",10-04-2024 10:00:00,17.417094,78.457437,CO,15,36,25
India,Telangana,Hyderabad,"Zoo Park, Hyderabad - TSPCB",10-04-2024 10:00:00,17.349694,78.451437,NH3,NA,NA,NA
India,Uttar_Pradesh,Agra,"Manoharpur, Agra - UPPCB",10-04-2024 10:00:00,27.23711,78.01936,NH3,1,3,3
India,Uttar_Pradesh,Agra,"Manoharpur, Agra - UPPCB",10-04-2024 10:00:00,27.23711,78.01936,SO2,12,22,15
India,Uttar_Pradesh,Agra,"Rohta, Agra - UPPCB",10-04-2024 10:00:00,27.106972,78.000111,NO2,2,2,2
India,Uttar_Pradesh,Agra,"Rohta, Agra - UPPCB",10-04-2024 10:00:00,27.106972,78.000111,OZONE,14,17,16
India,Uttar_Pradesh,Agra,"Sanjay Palace, Agra - UPPCB",10-04-2024 10:00:00,27.19865833,78.00598056,NO2,33,80,47
India,Uttar_Pradesh,Agra,"Shastripuram, Agra - UPPCB",10-04-2024 10:00:00,27.19862,77.92066,PM10,26,185,109
India,Uttar_Pradesh,Agra,"Shastripuram, Agra - UPPCB",10-04-2024 10:00:00,27.19862,77.92066,NO2,47,115,55
India,Uttar_Pradesh,Agra,"Shastripuram, Agra - UPPCB",10-04-2024 10:00:00,27.19862,77.92066,CO,10,32,14
India,Uttar_Pradesh,Agra,"Shastripuram, Agra - UPPCB",10-04-2024 10:00:00,27.19862,77.92066,OZONE,1,17,6
India,Uttar_Pradesh,Baghpat,"Sardar Patel Inter College, Baghpat - UPPCB",10-04-2024 10:00:00,28.964949,77.278761,NH3,1,6,2
India,Uttar_Pradesh,Baghpat,"Sardar Patel Inter College, Baghpat - UPPCB",10-04-2024 10:00:00,28.964949,77.278761,OZONE,11,88,25
India,Uttar_Pradesh,Bareilly,"Civil Lines, Bareilly - UPPCB",10-04-2024 10:00:00,28.359581,79.414455,PM2.5,4,15,8
India,Uttar_Pradesh,Bareilly,"Rajendra Nagar, Bareilly - UPPCB",10-04-2024 10:00:00,28.38910936,79.42963708,PM2.5,14,60,32
India,Uttar_Pradesh,Bareilly,"Rajendra Nagar, Bareilly - UPPCB",10-04-2024 10:00:00,28.38910936,79.42963708,PM10,33,113,63
India,Uttar_Pradesh,Bareilly,"Rajendra Nagar, Bareilly - UPPCB",10-04-2024 10:00:00,28.38910936,79.42963708,CO,8,42,36
India,Uttar_Pradesh,Bulandshahr,"Yamunapuram, Bulandshahr - UPPCB",10-04-2024 10:00:00,28.406963,77.849831,CO,29,91,57
India,Uttar_Pradesh,Firozabad,"Vibhab Nagar, Firozabad - UPPCB",10-04-2024 10:00:00,27.1594,78.3953,NO2,14,14,14
India,Uttar_Pradesh,Firozabad,"Vibhab Nagar, Firozabad - UPPCB",10-04-2024 10:00:00,27.1594,78.3953,CO,18,66,27
India,Uttar_Pradesh,Ghaziabad,"Loni, Ghaziabad - UPPCB",10-04-2024 10:00:00,28.757294,77.278792,NO2,28,120,70
India,Uttar_Pradesh,Ghaziabad,"Loni, Ghaziabad - UPPCB",10-04-2024 10:00:00,28.757294,77.278792,SO2,11,101,38
India,Uttar_Pradesh,Ghaziabad,"Loni, Ghaziabad - UPPCB",10-04-2024 10:00:00,28.757294,77.278792,OZONE,1,216,24
India,Uttar_Pradesh,Ghaziabad,"Sanjay Nagar, Ghaziabad - UPPCB",10-04-2024 10:00:00,28.685382,77.453839,PM10,93,212,136
India,Uttar_Pradesh,Ghaziabad,"Sanjay Nagar, Ghaziabad - UPPCB",10-04-2024 10:00:00,28.685382,77.453839,OZONE,5,246,34
India,Uttar_Pradesh,Ghaziabad,"Vasundhara, Ghaziabad - UPPCB",10-04-2024 10:00:00,28.6603346,77.3572563,PM2.5,58,306,140
India,Uttar_Pradesh,Gorakhpur,"Madan Mohan Malaviya University of Technology, Gorakhpur - UPPCB",10-04-2024 10:00:00,26.730136,83.433859,NH3,1,2,2
India,Uttar_Pradesh,Greater Noida,"Knowledge Park - V, Greater Noida - UPPCB",10-04-2024 10:00:00,28.557054,77.453663,CO,30,104,65
India,Uttar_Pradesh,Jhansi,"Shivaji Nagar, Jhansi - UPPCB",10-04-2024 10:00:00,25.4547,78.6039,PM10,3,60,27
India,Uttar_Pradesh,Kanpur,"FTI Kidwai Nagar, Kanpur - UPPCB",10-04-2024 10:00:00,26.428282,80.327067,PM2.5,44,132,76
India,Uttar_Pradesh,Kanpur,"NSI Kalyanpur, Kanpur - UPPCB",10-04-2024 10:00:00,26.509954,80.249612,NO2,12,13,13
India,Uttar_Pradesh,Kanpur,"NSI Kalyanpur, Kanpur - UPPCB",10-04-2024 10:00:00,26.509954,80.249612,OZONE,34,59,54
India,Uttar_Pradesh,Khurja,"Kalindi Kunj, Khurja - UPPCB",10-04-2024 10:00:00,28.2348927,77.8683002,PM10,24,114,71
India,Uttar_Pradesh,Khurja,"Kalindi Kunj, Khurja - UPPCB",10-04-2024 10:00:00,28.2348927,77.8683002,SO2,40,62,49
India,Uttar_Pradesh,Lucknow,"B R Ambedkar University, Lucknow - UPPCB",10-04-2024 10:00:00,26.766433,80.927299,NH3,5,6,5
India,Uttar_Pradesh,Lucknow,"B R Ambedkar University, Lucknow - UPPCB",10-04-2024 10:00:00,26.766433,80.927299,SO2,32,53,35
India,Uttar_Pradesh,Lucknow,"B R Ambedkar University, Lucknow - UPPCB",10-04-2024 10:00:00,26.766433,80.927299,CO,22,36,28
India,Uttar_Pradesh,Lucknow,"Gomti Nagar, Lucknow - UPPCB",10-04-2024 10:00:00,26.868120,81.005119,PM2.5,NA,NA,NA
India,Uttar_Pradesh,Lucknow,"Kendriya Vidyalaya, Lucknow - CPCB",10-04-2024 10:00:00,26.906111,80.948222,NO2,12,71,34
India,Uttar_Pradesh,Lucknow,"Kukrail Picnic Spot-1, Lucknow - UPPCB",10-04-2024 10:00:00,26.90723,80.98579,PM2.5,31,171,81
India,Uttar_Pradesh,Lucknow,"Kukrail Picnic Spot-1, Lucknow - UPPCB",10-04-2024 10:00:00,26.90723,80.98579,NH3,2,2,2
India,Uttar_Pradesh,Lucknow,"Lalbagh, Lucknow - CPCB",10-04-2024 10:00:00,26.8458805,80.9365541,NO2,3,22,9
India,Uttar_Pradesh,Lucknow,"Lalbagh, Lucknow - CPCB",10-04-2024 10:00:00,26.8458805,80.9365541,OZONE,12,41,16
India,Uttar_Pradesh,Lucknow,"Talkatora District Industries Center, Lucknow - CPCB",10-04-2024 10:00:00,26.83399722,80.8917361,PM2.5,39,175,83
India,Uttar_Pradesh,Lucknow,"Talkatora District Industries Center, Lucknow - CPCB",10-04-2024 10:00:00,26.83399722,80.8917361,PM10,90,215,142
India,Uttar_Pradesh,Lucknow,"Talkatora District Industries Center, Lucknow - CPCB",10-04-2024 10:00:00,26.83399722,80.8917361,NO2,36,111,69
India,Uttar_Pradesh,Lucknow,"Talkatora District Industries Center, Lucknow - CPCB",10-04-2024 10:00:00,26.83399722,80.8917361,OZONE,2,81,9
India,Uttar_Pradesh,Meerut,"Ganga Nagar, Meerut - UPPCB",10-04-2024 10:00:00,28.999264,77.7590354,SO2,6,34,17
India,Uttar_Pradesh,Meerut,"Pallavpuram Phase 2, Meerut - UPPCB",10-04-2024 10:00:00,29.063510,77.709723,OZONE,4,99,36
India,Uttar_Pradesh,Moradabad,"Buddhi Vihar, Moradabad - UPPCB",10-04-2024 10:00:00,28.83526,78.74460,PM2.5,19,218,84
India,Uttar_Pradesh,Moradabad,"Buddhi Vihar, Moradabad - UPPCB",10-04-2024 10:00:00,28.83526,78.74460,CO,24,44,35
India,Uttar_Pradesh,Moradabad,"Employment Office, Moradabad - UPPCB",10-04-2024 10:00:00,28.88528,78.73880,NO2,19,19,19
India,Uttar_Pradesh,Moradabad,"Jigar Colony, Moradabad - UPPCB",10-04-2024 10:00:00,28.856664,78.772638,NO2,16,19,17
India,Uttar_Pradesh,Moradabad,"Jigar Colony, Moradabad - UPPCB",10-04-2024 10:00:00,28.856664,78.772638,CO,14,46,30
India,Uttar_Pradesh,Moradabad,"Kashiram Nagar, Moradabad - UPPCB",10-04-2024 10:00:00,28.849399,78.742362,CO,30,55,39
India,Uttar_Pradesh,Moradabad,"Transport Nagar, Moradabad - UPPCB",10-04-2024 10:00:00,28.802625,78.753728,CO,39,42,40
India,Uttar_Pradesh,Muzaffarnagar,"New Mandi, Muzaffarnagar - UPPCB",10-04-2024 10:00:00,29.4723508,77.7194031,PM10,72,411,196
India,Uttar_Pradesh,Noida,"Sector - 62, Noida - IMD",10-04-2024 10:00:00,28.6245479,77.3577104,NO2,3,23,14
India,Uttar_Pradesh,Noida,"Sector - 62, Noida - IMD",10-04-2024 10:00:00,28.6245479,77.3577104,OZONE,11,57,20
India,Uttar_Pradesh,Noida,"Sector-1, Noida - UPPCB",10-04-2024 10:00:00,28.5898,77.3101,NO2,NA,NA,NA
India,Uttar_Pradesh,Noida,"Sector-1, Noida - UPPCB",10-04-2024 10:00:00,28.5898,77.3101,NH3,NA,NA,NA
India,Uttar_Pradesh,Noida,"Sector-1, Noida - UPPCB",10-04-2024 10:00:00,28.5898,77.3101,OZONE,3,245,58
India,Uttar_Pradesh,Noida,"Sector-116, Noida - UPPCB",10-04-2024 10:00:00,28.569230,77.393848,SO2,27,54,38
India,Uttar_Pradesh,Prayagraj,"Jhunsi, Prayagraj - UPPCB",10-04-2024 10:00:00,25.425602,81.917152,SO2,30,32,31
India,Uttar_Pradesh,Prayagraj,"Jhunsi, Prayagraj - UPPCB",10-04-2024 10:00:00,25.425602,81.917152,OZONE,6,49,16
India,Uttar_Pradesh,Prayagraj,"Motilal Nehru NIT, Prayagraj - UPPCB",10-04-2024 10:00:00,25.494,81.863,PM10,26,104,54
India,Uttar_Pradesh,Prayagraj,"Motilal Nehru NIT, Prayagraj - UPPCB",10-04-2024 10:00:00,25.494,81.863,CO,6,16,12
India,Uttar_Pradesh,Prayagraj,"Nagar Nigam, Prayagraj - UPPCB",10-04-2024 10:00:00,25.44919916 ,81.82735986 ,PM2.5,23,74,37
India,Uttar_Pradesh,Prayagraj,"Nagar Nigam, Prayagraj - UPPCB",10-04-2024 10:00:00,25.44919916 ,81.82735986 ,PM10,48,402,125
India,Uttar_Pradesh,Varanasi,"Bhelupur, Varanasi - UPPCB",10-04-2024 10:00:00,25.301778,82.996789,PM2.5,2,21,8
India,Uttar_Pradesh,Varanasi,"Maldahiya, Varanasi - UPPCB",10-04-2024 10:00:00,25.32393,82.99687,NO2,1,2,2
India,Uttar_Pradesh,Vrindavan,"Omex Eternity, Vrindavan - UPPCB",10-04-2024 10:00:00,27.5714090,77.6557570,NO2,2,3,3
India,Uttar_Pradesh,Vrindavan,"Omex Eternity, Vrindavan - UPPCB",10-04-2024 10:00:00,27.5714090,77.6557570,CO,27,61,55
India,Uttarakhand,Dehradun,"Doon University, Dehradun - UKPCB",10-04-2024 10:00:00,30.269444,78.044167,SO2,1,4,3
India,Uttarakhand,Kashipur,"Govt. Girls Inter College, Kashipur - UKPCB",10-04-2024 10:00:00,29.2124114,78.9611753,OZONE,15,83,30
India,West_Bengal,Asansol,"Asansol Court Area, Asansol - WBPCB",10-04-2024 10:00:00,23.685297,86.945968,PM2.5,107,183,148
India,West_Bengal,Durgapur,"PCBL Residential Complex, Durgapur - WBPCB",10-04-2024 10:00:00,23.5087640,87.3544400,NO2,23,97,57
India,West_Bengal,Durgapur,"PCBL Residential Complex, Durgapur - WBPCB",10-04-2024 10:00:00,23.5087640,87.3544400,NH3,1,3,2
India,West_Bengal,Durgapur,"PCBL Residential Complex, Durgapur - WBPCB",10-04-2024 10:00:00,23.5087640,87.3544400,SO2,29,115,61
India,West_Bengal,Durgapur,"Sidhu Kanhu Indoor Stadium, Durgapur - WBPCB",10-04-2024 10:00:00,23.5404352,87.2892225,OZONE,3,95,8
India,West_Bengal,Haldia,"Priyambada Housing Estate, Haldia - WBPCB",10-04-2024 10:00:00,22.06047,88.109737,OZONE,19,29,20
India,West_Bengal,Howrah,"Belur Math, Howrah - WBPCB",10-04-2024 10:00:00,22.629801,88.352017,NO2,5,50,28
India,West_Bengal,Howrah,"Belur Math, Howrah - WBPCB",10-04-2024 10:00:00,22.629801,88.352017,SO2,3,15,8
India,West_Bengal,Howrah,"Ghusuri, Howrah - WBPCB",10-04-2024 10:00:00,22.611968,88.347422,PM10,72,241,149
India,West_Bengal,Howrah,"Padmapukur, Howrah - WBPCB",10-04-2024 10:00:00,22.5687319,88.2797276,PM10,71,148,113
India,West_Bengal,Howrah,"Padmapukur, Howrah - WBPCB",10-04-2024 10:00:00,22.5687319,88.2797276,NH3,1,2,1
India,West_Bengal,Howrah,"Padmapukur, Howrah - WBPCB",10-04-2024 10:00:00,22.5687319,88.2797276,CO,4,60,22
India,West_Bengal,Howrah,"Padmapukur, Howrah - WBPCB",10-04-2024 10:00:00,22.5687319,88.2797276,OZONE,2,64,9
India,West_Bengal,Kolkata,"Ballygunge, Kolkata - WBPCB",10-04-2024 10:00:00,22.5367507,88.3638022,SO2,17,52,24
India,West_Bengal,Kolkata,"Bidhannagar, Kolkata - WBPCB",10-04-2024 10:00:00,22.58157048,88.41002457,PM2.5,50,306,129
India,West_Bengal,Kolkata,"Bidhannagar, Kolkata - WBPCB",10-04-2024 10:00:00,22.58157048,88.41002457,PM10,62,189,110
India,West_Bengal,Kolkata,"Bidhannagar, Kolkata - WBPCB",10-04-2024 10:00:00,22.58157048,88.41002457,OZONE,6,109,23
India,West_Bengal,Kolkata,"Fort William, Kolkata - WBPCB",10-04-2024 10:00:00,22.556640,88.342674,PM2.5,57,187,106
India,West_Bengal,Kolkata,"Fort William, Kolkata - WBPCB",10-04-2024 10:00:00,22.556640,88.342674,NH3,4,9,5
India,West_Bengal,Kolkata,"Jadavpur, Kolkata - WBPCB",10-04-2024 10:00:00,22.49929,88.36917,CO,14,98,36
India,West_Bengal,Kolkata,"Rabindra Sarobar, Kolkata - WBPCB",10-04-2024 10:00:00,22.51106,88.35142,PM2.5,48,103,73
India,West_Bengal,Kolkata,"Victoria, Kolkata - WBPCB",10-04-2024 10:00:00,22.5448082,88.3403691,NH3,1,8,4
India,West_Bengal,Siliguri,"Ward-32 Bapupara, Siliguri - WBPCB",10-04-2024 10:00:00,26.6879226,88.4152495,SO2,8,14,10
India,Andhra_Pradesh,Amaravati,"Secretariat, Amaravati - APPCB",10-04-2024 10:00:00,16.5150833,80.5181667,SO2,12,16,14
India,Andhra_Pradesh,Amaravati,"Secretariat, Amaravati - APPCB",10-04-2024 10:00:00,16.5150833,80.5181667,OZONE,28,69,52
India,Andhra_Pradesh,Anantapur,"Gulzarpet, Anantapur - APPCB",10-04-2024 10:00:00,14.675886,77.593027,PM2.5,NA,NA,NA
India,Andhra_Pradesh,Anantapur,"Gulzarpet, Anantapur - APPCB",10-04-2024 10:00:00,14.675886,77.593027,PM10,NA,NA,NA
India,Andhra_Pradesh,Rajamahendravaram,"Anand Kala Kshetram, Rajamahendravaram - APPCB",10-04-2024 10:00:00,16.9872867,81.7363176,CO,NA,NA,NA
India,Andhra_Pradesh,Rajamahendravaram,"Anand Kala Kshetram, Rajamahendravaram - APPCB",10-04-2024 10:00:00,16.9872867,81.7363176,OZONE,14,39,22
India,Andhra_Pradesh,Tirupati,"Vaikuntapuram, Tirupati - APPCB",10-04-2024 10:00:00,13.615387,79.409230,PM10,13,253,77
India,Andhra_Pradesh,Vijayawada,"HB Colony, Vijayawada - APPCB",10-04-2024 10:00:00,16.536107,80.594233,OZONE,13,46,30
India,Andhra_Pradesh,Vijayawada,"Kanuru, Vijayawada - APPCB",10-04-2024 10:00:00,16.486692,80.699436,NO2,NA,NA,NA
India,Andhra_Pradesh,Vijayawada,"Kanuru, Vijayawada - APPCB",10-04-2024 10:00:00,16.486692,80.699436,SO2,NA,NA,NA
India,Andhra_Pradesh,Vijayawada,"Kanuru, Vijayawada - APPCB",10-04-2024 10:00:00,16.486692,80.699436,CO,NA,NA,NA
India,Andhra_Pradesh,Vijayawada,"Rajiv Gandhi Park, Vijayawada - APPCB",10-04-2024 10:00:00,16.509717,80.612222,OZONE,20,82,58
India,Andhra_Pradesh,Visakhapatnam,"GVM Corporation, Visakhapatnam - APPCB",10-04-2024 10:00:00,17.72,83.3,PM10,68,277,126
India,Andhra_Pradesh,Visakhapatnam,"GVM Corporation, Visakhapatnam - APPCB",10-04-2024 10:00:00,17.72,83.3,CO,8,80,34
India,Arunachal_Pradesh,Naharlagun,"Naharlagun, Naharlagun - APSPCB",10-04-2024 10:00:00,27.103358,93.679645,PM2.5,79,190,119
India,Assam,Guwahati,"IITG, Guwahati - PCBA",10-04-2024 10:00:00,26.2028636,91.70046436,PM10,121,321,180
India,Assam,Guwahati,"IITG, Guwahati - PCBA",10-04-2024 10:00:00,26.2028636,91.70046436,NO2,2,18,6
India,Assam,Guwahati,"LGBI Airport, Guwahati - PCBA",10-04-2024 10:00:00,26.10887,91.589544,PM10,121,275,184
India,Assam,Guwahati,"LGBI Airport, Guwahati - PCBA",10-04-2024 10:00:00,26.10887,91.589544,CO,34,71,65
India,Assam,Guwahati,"Railway Colony, Guwahati - PCBA",10-04-2024 10:00:00,26.181742,91.78063,PM2.5,116,333,248
India,Assam,Guwahati,"Railway Colony, Guwahati - PCBA",10-04-2024 10:00:00,26.181742,91.78063,CO,24,102,50
India,Assam,Nalbari,"Bata Chowk, Nalbari - PCBA",10-04-2024 10:00:00,26.446912,91.439057,NH3,1,3,1
India,Assam,Nalbari,"Bata Chowk, Nalbari - PCBA",10-04-2024 10:00:00,26.446912,91.439057,OZONE,24,200,57
India,Assam,Silchar,"Tarapur, Silchar - PCBA",10-04-2024 10:00:00,24.82827,92.79525,CO,20,34,23
India,Assam,Sivasagar,"Girls College, Sivasagar - PCBA",10-04-2024 10:00:00,26.987634,94.636574,PM10,44,72,58
India,Assam,Sivasagar,"Girls College, Sivasagar - PCBA",10-04-2024 10:00:00,26.987634,94.636574,CO,2,9,6
India,Bihar,Araria,"Kharahiya Basti, Araria - BSPCB",10-04-2024 10:00:00,26.146529,87.454184,PM2.5,56,318,179
India,Bihar,Araria,"Kharahiya Basti, Araria - BSPCB",10-04-2024 10:00:00,26.146529,87.454184,PM10,56,197,129
India,Bihar,Araria,"Kharahiya Basti, Araria - BSPCB",10-04-2024 10:00:00,26.146529,87.454184,SO2,16,20,17
India,Bihar,Arrah,"New DM Office, Arrah - BSPCB",10-04-2024 10:00:00,25.5626095,84.663264,NH3,3,7,4
India,Bihar,Arrah,"New DM Office, Arrah - BSPCB",10-04-2024 10:00:00,25.5626095,84.663264,SO2,15,21,18
India,Bihar,Aurangabad,"Gurdeo Nagar, Aurangabad - BSPCB",10-04-2024 10:00:00,24.75746,84.366208,PM2.5,NA,NA,NA
India,Bihar,Aurangabad,"Gurdeo Nagar, Aurangabad - BSPCB",10-04-2024 10:00:00,24.75746,84.366208,NO2,NA,NA,NA
India,Bihar,Aurangabad,"Gurdeo Nagar, Aurangabad - BSPCB",10-04-2024 10:00:00,24.75746,84.366208,CO,NA,NA,NA
India,Bihar,Bettiah,"Kamalnath Nagar, Bettiah - BSPCB",10-04-2024 10:00:00,26.80365,84.51954,SO2,6,24,15
India,Bihar,Bettiah,"Kamalnath Nagar, Bettiah - BSPCB",10-04-2024 10:00:00,26.80365,84.51954,OZONE,1,21,2
India,Bihar,Bhagalpur,"DM Office_Kachari Chowk, Bhagalpur - BSPCB",10-04-2024 10:00:00,25.251013,86.989001,NO2,43,192,94
India,Bihar,Bhagalpur,"DM Office_Kachari Chowk, Bhagalpur - BSPCB",10-04-2024 10:00:00,25.251013,86.989001,OZONE,41,51,47
India,Bihar,Bhagalpur,"Mayaganj, Bhagalpur - BSPCB",10-04-2024 10:00:00,25.265194,87.012947,PM2.5,63,332,190
India,Bihar,Bhagalpur,"Mayaganj, Bhagalpur - BSPCB",10-04-2024 10:00:00,25.265194,87.012947,SO2,11,12,12
India,Bihar,Bihar Sharif,"D M Colony, Bihar Sharif - BSPCB",10-04-2024 10:00:00,25.204762,85.514960,SO2,1,11,6
India,Bihar,Chhapra,"Darshan Nagar, Chhapra - BSPCB",10-04-2024 10:00:00,25.7808257,84.7446768,CO,44,76,56
India,Bihar,Gaya,"Collectorate, Gaya - BSPCB",10-04-2024 10:00:00,24.7955,84.9994,OZONE,46,87,67
India,Bihar,Gaya,"Kareemganj, Gaya - BSPCB",10-04-2024 10:00:00,24.792403,84.992416,NO2,30,31,30
India,Bihar,Gaya,"Kareemganj, Gaya - BSPCB",10-04-2024 10:00:00,24.792403,84.992416,SO2,6,11,9
India,Bihar,Hajipur,"Industrial Area, Hajipur - BSPCB",10-04-2024 10:00:00,25.697189,85.245900,PM2.5,53,309,172
India,Bihar,Kishanganj,"SDM Office_Khagra, Kishanganj - BSPCB",10-04-2024 10:00:00,26.0881305,87.93840336,PM10,122,299,188
India,Bihar,Kishanganj,"SDM Office_Khagra, Kishanganj - BSPCB",10-04-2024 10:00:00,26.0881305,87.93840336,NH3,9,11,10
India,Bihar,Manguraha,"Forest Rest House, Manguraha - BSPCB",10-04-2024 10:00:00,27.308328,84.531742,NH3,2,4,3
India,Bihar,Motihari,"Gandak Colony, Motihari - BSPCB",10-04-2024 10:00:00,26.63086,84.90051,PM2.5,37,423,95
India,Bihar,Munger,"Town Hall, Munger - BSPCB",10-04-2024 10:00:00,25.376776,86.471523,PM10,76,287,144
India,Bihar,Munger,"Town Hall, Munger - BSPCB",10-04-2024 10:00:00,25.376776,86.471523,SO2,6,55,29
India,Bihar,Muzaffarpur,"Buddha Colony, Muzaffarpur - BSPCB",10-04-2024 10:00:00,26.11442,85.39813,PM2.5,160,383,284
India,Bihar,Muzaffarpur,"Buddha Colony, Muzaffarpur - BSPCB",10-04-2024 10:00:00,26.11442,85.39813,NO2,17,151,62
India,Bihar,Muzaffarpur,"Buddha Colony, Muzaffarpur - BSPCB",10-04-2024 10:00:00,26.11442,85.39813,SO2,13,97,23
India,Bihar,Muzaffarpur,"Buddha Colony, Muzaffarpur - BSPCB",10-04-2024 10:00:00,26.11442,85.39813,OZONE,13,29,16
India,Bihar,Muzaffarpur,"MIT-Daudpur Kothi, Muzaffarpur - BSPCB",10-04-2024 10:00:00,26.1403345,85.3650192,PM2.5,NA,NA,NA
India,Bihar,Muzaffarpur,"MIT-Daudpur Kothi, Muzaffarpur - BSPCB",10-04-2024 10:00:00,26.1403345,85.3650192,OZONE,7,78,24
India,Bihar,Muzaffarpur,"Muzaffarpur Collectorate, Muzaffarpur - BSPCB",10-04-2024 10:00:00,26.1209,85.3647,SO2,8,22,11
India,Bihar,Patna,"DRM Office Danapur, Patna - BSPCB",10-04-2024 10:00:00,25.586562,85.043586,PM10,100,333,164
India,Bihar,Patna,"IGSC Planetarium Complex, Patna - BSPCB",10-04-2024 10:00:00,25.610369,85.132568,OZONE,20,50,34
India,Bihar,Patna,"Muradpur, Patna - BSPCB",10-04-2024 10:00:00,25.619651,85.147382,OZONE,2,84,17
India,Bihar,Patna,"Samanpura, Patna - BSPCB",10-04-2024 10:00:00,25.596727,85.085624,NO2,11,104,45
India,Bihar,Purnia,"Mariam Nagar, Purnia - BSPCB",10-04-2024 10:00:00,25.366336,87.117468,PM10,104,283,165
India,Bihar,Purnia,"Mariam Nagar, Purnia - BSPCB",10-04-2024 10:00:00,25.366336,87.117468,NO2,5,7,6
India,Bihar,Purnia,"Mariam Nagar, Purnia - BSPCB",10-04-2024 10:00:00,25.366336,87.117468,CO,35,86,76
India,Bihar,Rajgir,"Dangi Tola, Rajgir - BSPCB",10-04-2024 10:00:00,25.03280,85.41948,NO2,18,37,23
India,Bihar,Rajgir,"Dangi Tola, Rajgir - BSPCB",10-04-2024 10:00:00,25.03280,85.41948,SO2,4,6,5
India,Bihar,Rajgir,"Dangi Tola, Rajgir - BSPCB",10-04-2024 10:00:00,25.03280,85.41948,CO,4,60,28
India,Bihar,Saharsa,"Police Line, Saharsa - BSPCB",10-04-2024 10:00:00,25.892357,86.590325,PM10,79,416,161
India,Bihar,Saharsa,"Police Line, Saharsa - BSPCB",10-04-2024 10:00:00,25.892357,86.590325,CO,9,103,27
India,Bihar,Samastipur,"DM Office_Kasipur, Samastipur - BSPCB",10-04-2024 10:00:00,25.859655,85.77944,PM2.5,47,373,237
India,Bihar,Samastipur,"DM Office_Kasipur, Samastipur - BSPCB",10-04-2024 10:00:00,25.859655,85.77944,PM10,63,372,187
India,Bihar,Samastipur,"DM Office_Kasipur, Samastipur - BSPCB",10-04-2024 10:00:00,25.859655,85.77944,NH3,2,5,4
India,Chandigarh,Chandigarh,"Sector-53, Chandigarh - CPCC",10-04-2024 10:00:00,30.719859,76.738637,NH3,3,5,4
India,Chhattisgarh,Bhilai,"32Bungalows, Bhilai - CECB",10-04-2024 10:00:00,21.194815,81.314770,NH3,7,7,7
India,Chhattisgarh,Bhilai,"Civic Center, Bhilai - Bhilai Steel Plant",10-04-2024 10:00:00,21.185571,81.343175,SO2,9,18,11
India,Chhattisgarh,Bhilai,"Civic Center, Bhilai - Bhilai Steel Plant",10-04-2024 10:00:00,21.185571,81.343175,OZONE,7,48,20
India,Chhattisgarh,Bhilai,"Hathkhoj, Bhilai - CECB",10-04-2024 10:00:00,21.224231,81.408350,PM10,28,101,54
India,Chhattisgarh,Bhilai,"Hathkhoj, Bhilai - CECB",10-04-2024 10:00:00,21.224231,81.408350,NO2,18,41,30
India,Chhattisgarh,Korba,"Rampur, Korba - CECB",10-04-2024 10:00:00,22.368195,82.746431,CO,14,38,38
India,Chhattisgarh,Kunjemura,"OP Jindal School, Kunjemura - CECB",10-04-2024 10:00:00,22.126650,83.483212,PM10,38,343,131
India,Chhattisgarh,Kunjemura,"OP Jindal School, Kunjemura - CECB",10-04-2024 10:00:00,22.126650,83.483212,CO,27,79,58
India,Chhattisgarh,Milupara,"Govt. Higher Secondary School, Milupara - CECB",10-04-2024 10:00:00,22.1910172,83.5197009,PM2.5,19,56,36
India,Chhattisgarh,Milupara,"Govt. Higher Secondary School, Milupara - CECB",10-04-2024 10:00:00,22.1910172,83.5197009,NO2,25,80,53
India,Chhattisgarh,Raipur,"AIIMS, Raipur - CECB",10-04-2024 10:00:00,21.258815,81.578979,OZONE,1,6,2
India,Chhattisgarh,Raipur,"Bhatagaon New ISBT, Raipur - CECB",10-04-2024 10:00:00,21.219665,81.630094,SO2,1,4,2
India,Chhattisgarh,Raipur,"Siltara Phase-II, Raipur - CECB",10-04-2024 10:00:00,21.371751,81.664929,OZONE,3,25,3
India,Chhattisgarh,Tumidih,"OP Jindal Industrial Park, Tumidih - CECB",10-04-2024 10:00:00,22.06631475,83.33820077,PM10,32,240,105
India,Chhattisgarh,Tumidih,"OP Jindal Industrial Park, Tumidih - CECB",10-04-2024 10:00:00,22.06631475,83.33820077,NO2,15,40,26
India,Delhi,Delhi,"Alipur, Delhi - DPCC",10-04-2024 10:00:00,28.815329,77.153010,PM10,97,290,177
India,Delhi,Delhi,"Alipur, Delhi - DPCC",10-04-2024 10:00:00,28.815329,77.153010,NH3,3,9,5
India,Delhi,Delhi,"Alipur, Delhi - DPCC",10-04-2024 10:00:00,28.815329,77.153010,CO,28,98,75
India,Delhi,Delhi,"Ashok Vihar, Delhi - DPCC",10-04-2024 10:00:00,28.695381,77.181665,PM2.5,42,310,165
India,Delhi,Delhi,"Ashok Vihar, Delhi - DPCC",10-04-2024 10:00:00,28.695381,77.181665,PM10,130,289,196
India,Delhi,Delhi,"Burari Crossing, Delhi - IMD",10-04-2024 10:00:00,28.7256504,77.2011573,OZONE,20,196,24
India,Delhi,Delhi,"CRRI Mathura Road, Delhi - IMD",10-04-2024 10:00:00,28.5512005,77.2735737,NO2,NA,NA,NA
India,Delhi,Delhi,"CRRI Mathura Road, Delhi - IMD",10-04-2024 10:00:00,28.5512005,77.2735737,CO,64,78,78
India,Delhi,Delhi,"CRRI Mathura Road, Delhi - IMD",10-04-2024 10:00:00,28.5512005,77.2735737,OZONE,3,17,3
India,Delhi,Delhi,"Dr. Karni Singh Shooting Range, Delhi - DPCC",10-04-2024 10:00:00,28.498571,77.264840,NO2,25,172,83
India,Delhi,Delhi,"Dr. Karni Singh Shooting Range, Delhi - DPCC",10-04-2024 10:00:00,28.498571,77.264840,SO2,21,57,32
India,Delhi,Delhi,"Dwarka-Sector 8, Delhi - DPCC ",10-04-2024 10:00:00,28.5710274,77.0719006,OZONE,2,161,11
India,Delhi,Delhi,"IGI Airport (T3), Delhi - IMD",10-04-2024 10:00:00,28.5627763,77.1180053,PM10,NA,NA,NA
India,Delhi,Delhi,"IGI Airport (T3), Delhi - IMD",10-04-2024 10:00:00,28.5627763,77.1180053,CO,13,86,47
India,Delhi,Delhi,"ITO, Delhi - CPCB",10-04-2024 10:00:00,28.628624,77.241060,NO2,7,216,120
India,Delhi,Delhi,"Jahangirpuri, Delhi - DPCC",10-04-2024 10:00:00,28.732820,77.170633,NH3,6,18,12
India,Delhi,Delhi,"Jahangirpuri, Delhi - DPCC",10-04-2024 10:00:00,28.732820,77.170633,OZONE,5,125,12
India,Delhi,Delhi,"Lodhi Road, Delhi - IITM",10-04-2024 10:00:00,28.588333,77.221667,PM2.5,223,378,325
India,Delhi,Delhi,"Lodhi Road, Delhi - IITM",10-04-2024 10:00:00,28.588333,77.221667,NO2,65,142,104
India,Delhi,Delhi,"Lodhi Road, Delhi - IMD",10-04-2024 10:00:00,28.5918245,77.2273074,PM2.5,32,315,108
India,Delhi,Delhi,"Lodhi Road, Delhi - IMD",10-04-2024 10:00:00,28.5918245,77.2273074,PM10,70,238,117
India,Delhi,Delhi,"Major Dhyan Chand National Stadium, Delhi - DPCC",10-04-2024 10:00:00,28.611281,77.237738,PM2.5,51,311,162
India,Delhi,Delhi,"Mandir Marg, Delhi - DPCC",10-04-2024 10:00:00,28.636429,77.201067,CO,2,88,61
India,Delhi,Delhi,"NSIT Dwarka, Delhi - CPCB",10-04-2024 10:00:00,28.60909,77.0325413,NH3,5,15,9
India,Delhi,Delhi,"NSIT Dwarka, Delhi - CPCB",10-04-2024 10:00:00,28.60909,77.0325413,SO2,6,50,29
India,Delhi,Delhi,"NSIT Dwarka, Delhi - CPCB",10-04-2024 10:00:00,28.60909,77.0325413,OZONE,3,182,14
India,Delhi,Delhi,"New Moti Bagh, Delhi - MHUA",10-04-2024 10:00:00,28.57834,77.18400,NO2,7,36,15
India,Delhi,Delhi,"North Campus, DU, Delhi - IMD",10-04-2024 10:00:00,28.6573814,77.1585447,PM10,NA,NA,NA
India,Delhi,Delhi,"North Campus, DU, Delhi - IMD",10-04-2024 10:00:00,28.6573814,77.1585447,CO,NA,NA,NA
India,Delhi,Delhi,"Okhla Phase-2, Delhi - DPCC",10-04-2024 10:00:00,28.530785,77.271255,NH3,6,11,8
India,Delhi,Delhi,"Okhla Phase-2, Delhi - DPCC",10-04-2024 10:00:00,28.530785,77.271255,SO2,15,21,18
India,Delhi,Delhi,"Patparganj, Delhi - DPCC",10-04-2024 10:00:00,28.623763,77.287209,PM10,114,266,173
India,Delhi,Delhi,"Patparganj, Delhi - DPCC",10-04-2024 10:00:00,28.623763,77.287209,NH3,8,11,9
India,Delhi,Delhi,"Punjabi Bagh, Delhi - DPCC",10-04-2024 10:00:00,28.674045,77.131023,PM2.5,39,302,168
India,Delhi,Delhi,"Pusa, Delhi - DPCC",10-04-2024 10:00:00,28.639652,77.146275,NH3,5,14,8
India,Delhi,Delhi,"Pusa, Delhi - DPCC",10-04-2024 10:00:00,28.639652,77.146275,SO2,8,37,23
India,Delhi,Delhi,"Pusa, Delhi - IMD",10-04-2024 10:00:00,28.636110,77.173332,NO2,NA,NA,NA
India,Delhi,Delhi,"Rohini, Delhi - DPCC",10-04-2024 10:00:00,28.732528,77.119920,PM10,87,415,219
India,Delhi,Delhi,"Rohini, Delhi - DPCC",10-04-2024 10:00:00,28.732528,77.119920,NH3,8,14,11
India,Delhi,Delhi,"Sirifort, Delhi - CPCB",10-04-2024 10:00:00,28.5504249,77.2159377,NO2,48,79,67
India,Delhi,Delhi,"Sirifort, Delhi - CPCB",10-04-2024 10:00:00,28.5504249,77.2159377,NH3,1,9,5
India,Delhi,Delhi,"Sonia Vihar, Delhi - DPCC",10-04-2024 10:00:00,28.710508,77.249485,NO2,18,117,65
India,Delhi,Delhi,"Sonia Vihar, Delhi - DPCC",10-04-2024 10:00:00,28.710508,77.249485,CO,49,110,104
India,Delhi,Delhi,"Sri Aurobindo Marg, Delhi - DPCC",10-04-2024 10:00:00,28.531346,77.190156,NH3,4,10,7
India,Delhi,Delhi,"Sri Aurobindo Marg, Delhi - DPCC",10-04-2024 10:00:00,28.531346,77.190156,SO2,12,32,17
India,Delhi,Delhi,"Wazirpur, Delhi - DPCC",10-04-2024 10:00:00,28.699793,77.165453,NO2,64,209,137
India,Delhi,Delhi,"Wazirpur, Delhi - DPCC",10-04-2024 10:00:00,28.699793,77.165453,CO,40,113,93
India,Gujarat,Ahmedabad,"Chandkheda, Ahmedabad - IITM",10-04-2024 10:00:00,23.107969,72.574648,PM10,67,232,125
India,Gujarat,Ahmedabad,"Chandkheda, Ahmedabad - IITM",10-04-2024 10:00:00,23.107969,72.574648,SO2,6,14,9
India,Gujarat,Ahmedabad,"Gyaspur, Ahmedabad - IITM",10-04-2024 10:00:00,22.977134,72.553024,CO,2,48,19
India,Gujarat,Ahmedabad,"Gyaspur, Ahmedabad - IITM",10-04-2024 10:00:00,22.977134,72.553024,OZONE,2,67,4
India,Gujarat,Ahmedabad,"Maninagar, Ahmedabad - GPCB",10-04-2024 10:00:00,23.002657,72.591912,PM10,79,385,146
India,Gujarat,Ahmedabad,"Rakhial, Ahmedabad - IITM",10-04-2024 10:00:00,23.016834,72.625775,PM10,85,203,136
India,Gujarat,Ahmedabad,"SAC ISRO Satellite, Ahmedabad - IITM",10-04-2024 10:00:00,23.023389,72.515201,PM2.5,72,109,105
India,Gujarat,Ahmedabad,"SAC ISRO Satellite, Ahmedabad - IITM",10-04-2024 10:00:00,23.023389,72.515201,PM10,81,93,92
India,Gujarat,Ahmedabad,"SAC ISRO Satellite, Ahmedabad - IITM",10-04-2024 10:00:00,23.023389,72.515201,NO2,17,17,17
India,Gujarat,Ahmedabad,"SAC ISRO Satellite, Ahmedabad - IITM",10-04-2024 10:00:00,23.023389,72.515201,NH3,3,3,3
India,Gujarat,Ahmedabad,"SVPI Airport Hansol, Ahmedabad - IITM",10-04-2024 10:00:00,23.076793,72.627874,PM10,106,341,159
India,Gujarat,Ahmedabad,"SVPI Airport Hansol, Ahmedabad - IITM",10-04-2024 10:00:00,23.076793,72.627874,CO,13,112,27
India,Gujarat,Ahmedabad,"SVPI Airport Hansol, Ahmedabad - IITM",10-04-2024 10:00:00,23.076793,72.627874,OZONE,7,62,14
India,Gujarat,Ankleshwar,"GIDC, Ankleshwar - GPCB",10-04-2024 10:00:00,21.613267,73.010555,CO,48,84,79
India,Gujarat,Ankleshwar,"GIDC, Ankleshwar - GPCB",10-04-2024 10:00:00,21.613267,73.010555,OZONE,25,41,30
India,Gujarat,Gandhinagar,"Sector-10, Gandhinagar - GPCB",10-04-2024 10:00:00,23.221714,72.654328,NO2,16,27,20
India,Gujarat,Nandesari,"GIDC, Nandesari - Nandesari Ind. Association",10-04-2024 10:00:00,22.410802,73.097923,PM10,110,411,190
India,Gujarat,Surat,"Science Center, Surat - SMC",10-04-2024 10:00:00,21.170046,72.795405,CO,23,48,29
India,Gujarat,Vapi,"Phase-1 GIDC, Vapi - GPCB",10-04-2024 10:00:00,20.362421,72.918013,PM10,42,92,62
India,Gujarat,Vapi,"Phase-1 GIDC, Vapi - GPCB",10-04-2024 10:00:00,20.362421,72.918013,OZONE,1,2,1
India,Haryana,Ambala,"Patti Mehar, Ambala - HSPCB",10-04-2024 10:00:00,30.379589,76.778328,PM2.5,25,89,56
India,Haryana,Ambala,"Patti Mehar, Ambala - HSPCB",10-04-2024 10:00:00,30.379589,76.778328,NO2,8,21,14
India,Haryana,Ambala,"Patti Mehar, Ambala - HSPCB",10-04-2024 10:00:00,30.379589,76.778328,OZONE,40,70,48
India,Haryana,Ballabgarh,"Nathu Colony, Ballabgarh - HSPCB",10-04-2024 10:00:00,28.3419248,77.319699,PM2.5,71,315,217
India,Haryana,Ballabgarh,"Nathu Colony, Ballabgarh - HSPCB",10-04-2024 10:00:00,28.3419248,77.319699,SO2,16,99,30
India,Haryana,Ballabgarh,"Nathu Colony, Ballabgarh - HSPCB",10-04-2024 10:00:00,28.3419248,77.319699,OZONE,5,26,12
India,Haryana,Bhiwani,"H.B. Colony, Bhiwani - HSPCB",10-04-2024 10:00:00,28.806223,76.141105,PM2.5,47,368,126
India,Haryana,Bhiwani,"H.B. Colony, Bhiwani - HSPCB",10-04-2024 10:00:00,28.806223,76.141105,NO2,6,11,9
India,Haryana,Charkhi Dadri,"Mini Secretariat, Charkhi Dadri - HSPCB",10-04-2024 10:00:00,28.593883,76.270653,PM2.5,33,354,164
India,Haryana,Charkhi Dadri,"Mini Secretariat, Charkhi Dadri - HSPCB",10-04-2024 10:00:00,28.593883,76.270653,PM10,33,267,118
India,Haryana,Charkhi Dadri,"Mini Secretariat, Charkhi Dadri - HSPCB",10-04-2024 10:00:00,28.593883,76.270653,CO,20,101,74
India,Haryana,Dharuhera,"Municipal Corporation Office, Dharuhera -  HSPCB",10-04-2024 10:00:00,28.206800,76.799700,SO2,8,102,30
India,Haryana,Faridabad,"New Industrial Town, Faridabad - HSPCB",10-04-2024 10:00:00,28.39072,77.30059,CO,12,77,39
India,Haryana,Faridabad,"Sector 11, Faridabad - HSPCB",10-04-2024 10:00:00,28.376058,77.315741,NH3,6,6,6
India,Haryana,Faridabad,"Sector 11, Faridabad - HSPCB",10-04-2024 10:00:00,28.376058,77.315741,OZONE,4,27,6
India,Haryana,Faridabad,"Sector 30, Faridabad - HSPCB",10-04-2024 10:00:00,28.4417,77.3217,SO2,12,13,12
India,Haryana,Faridabad,"Sector 30, Faridabad - HSPCB",10-04-2024 10:00:00,28.4417,77.3217,CO,58,63,60
India,Haryana,Fatehabad,"Huda Sector, Fatehabad - HSPCB",10-04-2024 10:00:00,29.503664,75.467934,PM2.5,18,77,40
India,Haryana,Gurugram,"Sector-51, Gurugram - HSPCB",10-04-2024 10:00:00,28.4227,77.0667,PM2.5,107,406,288
India,Haryana,Gurugram,"Sector-51, Gurugram - HSPCB",10-04-2024 10:00:00,28.4227,77.0667,NH3,7,14,9
India,Haryana,Gurugram,"Sector-51, Gurugram - HSPCB",10-04-2024 10:00:00,28.4227,77.0667,OZONE,27,67,42
India,Haryana,Gurugram,"Teri Gram, Gurugram - HSPCB",10-04-2024 10:00:00,28.4275,77.1465,PM2.5,59,348,222
India,Haryana,Gurugram,"Teri Gram, Gurugram - HSPCB",10-04-2024 10:00:00,28.4275,77.1465,NO2,33,58,44
India,Haryana,Gurugram,"Teri Gram, Gurugram - HSPCB",10-04-2024 10:00:00,28.4275,77.1465,SO2,3,5,4
India,Haryana,Gurugram,"Teri Gram, Gurugram - HSPCB",10-04-2024 10:00:00,28.4275,77.1465,OZONE,6,39,14
India,Haryana,Gurugram,"Vikas Sadan, Gurugram - HSPCB",10-04-2024 10:00:00,28.4501238,77.0263051,CO,54,150,101
India,Haryana,Hisar,"Urban Estate-II, Hisar - HSPCB",10-04-2024 10:00:00,29.140560,75.744941,SO2,13,72,37
India,Haryana,Hisar,"Urban Estate-II, Hisar - HSPCB",10-04-2024 10:00:00,29.140560,75.744941,OZONE,62,178,76
India,Haryana,Jind,"Police Lines, Jind - HSPCB",10-04-2024 10:00:00,29.307814,76.337619,PM2.5,32,177,63
India,Haryana,Jind,"Police Lines, Jind - HSPCB",10-04-2024 10:00:00,29.307814,76.337619,SO2,3,66,15
India,Haryana,Kaithal,"Rishi Nagar, Kaithal - HSPCB",10-04-2024 10:00:00,29.8006,76.4155,PM2.5,36,166,72
India,Haryana,Kaithal,"Rishi Nagar, Kaithal - HSPCB",10-04-2024 10:00:00,29.8006,76.4155,CO,5,60,42
India,Haryana,Karnal,"Sector-12, Karnal - HSPCB",10-04-2024 10:00:00,29.695300,77.002700,CO,24,70,36
India,Haryana,Karnal,"Sector-12, Karnal - HSPCB",10-04-2024 10:00:00,29.695300,77.002700,OZONE,27,36,29
India,Haryana,Kurukshetra,"Sector-7, Kurukshetra - HSPCB",10-04-2024 10:00:00,29.966942,76.875879,PM10,38,104,74
India,Haryana,Kurukshetra,"Sector-7, Kurukshetra - HSPCB",10-04-2024 10:00:00,29.966942,76.875879,NH3,4,5,5
India,Haryana,Mandikhera,"General Hospital, Mandikhera - HSPCB",10-04-2024 10:00:00,27.9002,76.9938,NO2,19,24,21
India,Haryana,Mandikhera,"General Hospital, Mandikhera - HSPCB",10-04-2024 10:00:00,27.9002,76.9938,OZONE,24,33,28
India,Haryana,Manesar,"Sector-2 IMT, Manesar - HSPCB",10-04-2024 10:00:00,28.360699,76.936090,SO2,8,20,14
India,Haryana,Narnaul,"Shastri Nagar, Narnaul - HSPCB",10-04-2024 10:00:00,28.060249,76.113115,PM10,36,141,62
India,Haryana,Narnaul,"Shastri Nagar, Narnaul - HSPCB",10-04-2024 10:00:00,28.060249,76.113115,NO2,12,75,34
India,Haryana,Narnaul,"Shastri Nagar, Narnaul - HSPCB",10-04-2024 10:00:00,28.060249,76.113115,SO2,12,43,14
India,Haryana,Palwal,"Shyam Nagar, Palwal - HSPCB",10-04-2024 10:00:00,28.1485564,77.3320667,PM2.5,60,96,77
India,Haryana,Palwal,"Shyam Nagar, Palwal - HSPCB",10-04-2024 10:00:00,28.1485564,77.3320667,CO,12,36,32
India,Haryana,Panchkula,"Sector-6, Panchkula - HSPCB ",10-04-2024 10:00:00,30.7057778,76.8531805555555,OZONE,39,56,48
India,Haryana,Panipat,"Sector-18, Panipat - HSPCB",10-04-2024 10:00:00,29.497973,76.993331,PM10,69,81,78
India,Haryana,Panipat,"Sector-18, Panipat - HSPCB",10-04-2024 10:00:00,29.497973,76.993331,NH3,2,3,2
India,Haryana,Panipat,"Sector-18, Panipat - HSPCB",10-04-2024 10:00:00,29.497973,76.993331,CO,24,26,25
India,Haryana,Rohtak,"MD University, Rohtak - HSPCB",10-04-2024 10:00:00,28.52123,76.37138,NO2,46,55,51
India,Haryana,Sonipat,"Murthal, Sonipat - HSPCB",10-04-2024 10:00:00,29.027200,77.062100,PM2.5,15,48,41
India,Himachal Pradesh,Baddi,"HIMUDA Complex Phase-1, Baddi - HPPCB",10-04-2024 10:00:00,30.943887,76.801991,PM10,25,200,71
India,Himachal Pradesh,Baddi,"HIMUDA Complex Phase-1, Baddi - HPPCB",10-04-2024 10:00:00,30.943887,76.801991,CO,10,56,15
India,Jharkhand,Dhanbad,"Sardar Patel Nagar, Dhanbad - JSPCB",10-04-2024 10:00:00,23.80569,86.44268,SO2,3,22,12
India,Jharkhand,Pathardih,"Mohalbani Ghat, Pathardih - DMC",10-04-2024 10:00:00,23.669880,86.411725,NO2,14,125,36
India,Jharkhand,Pathardih,"Mohalbani Ghat, Pathardih - DMC",10-04-2024 10:00:00,23.669880,86.411725,SO2,13,135,30
India,Karnataka,Bagalkot,"Vidayagiri, Bagalkot - KSPCB",10-04-2024 10:00:00,16.172806,75.659694,PM2.5,27,41,39
India,Karnataka,Belgaum,"Ramteerth Nagar, Belgaum - KSPCB",10-04-2024 10:00:00,15.888653,74.541751,PM2.5,30,72,45
India,Karnataka,Bengaluru,"BTM Layout, Bengaluru - CPCB",10-04-2024 10:00:00,12.9135218,77.5950804,CO,NA,NA,NA
India,Karnataka,Bengaluru,"Bapuji Nagar, Bengaluru - KSPCB",10-04-2024 10:00:00,12.951913,77.539784,PM10,70,138,97
India,Karnataka,Bengaluru,"Bapuji Nagar, Bengaluru - KSPCB",10-04-2024 10:00:00,12.951913,77.539784,NH3,1,1,1
India,Karnataka,Bengaluru,"Bapuji Nagar, Bengaluru - KSPCB",10-04-2024 10:00:00,12.951913,77.539784,SO2,6,9,8
India,Karnataka,Bengaluru,"Hebbal, Bengaluru - KSPCB",10-04-2024 10:00:00,13.029152,77.585901,OZONE,12,103,30
India,Karnataka,Bengaluru,"Hombegowda Nagar, Bengaluru - KSPCB",10-04-2024 10:00:00,12.938539,77.590100,OZONE,4,5,4
India,Karnataka,Bengaluru,"Jayanagar 5th Block, Bengaluru - KSPCB",10-04-2024 10:00:00,12.920984,77.584908,PM10,73,124,97
India,Karnataka,Bengaluru,"Jayanagar 5th Block, Bengaluru - KSPCB",10-04-2024 10:00:00,12.920984,77.584908,NH3,NA,NA,NA
India,Karnataka,Bengaluru,"Kasturi Nagar, Bengaluru - KSPCB",10-04-2024 10:00:00,13.003872,77.664217,PM2.5,60,253,104
India,Karnataka,Bengaluru,"Kasturi Nagar, Bengaluru - KSPCB",10-04-2024 10:00:00,13.003872,77.664217,NH3,3,4,4
India,Karnataka,Bengaluru,"Kasturi Nagar, Bengaluru - KSPCB",10-04-2024 10:00:00,13.003872,77.664217,SO2,10,10,10
India,Karnataka,Bengaluru,"Kasturi Nagar, Bengaluru - KSPCB",10-04-2024 10:00:00,13.003872,77.664217,CO,20,28,27
India,Karnataka,Bengaluru,"RVCE-Mailasandra, Bengaluru - KSPCB",10-04-2024 10:00:00,12.921418,77.502466,PM2.5,48,152,93
India,Karnataka,Bengaluru,"RVCE-Mailasandra, Bengaluru - KSPCB",10-04-2024 10:00:00,12.921418,77.502466,PM10,78,114,95
India,Karnataka,Bengaluru,"RVCE-Mailasandra, Bengaluru - KSPCB",10-04-2024 10:00:00,12.921418,77.502466,CO,32,53,43
India,Karnataka,Bengaluru,"Shivapura_Peenya, Bengaluru - KSPCB",10-04-2024 10:00:00,13.0246342,77.5080115,PM2.5,4,154,38
India,Karnataka,Bengaluru,"Shivapura_Peenya, Bengaluru - KSPCB",10-04-2024 10:00:00,13.0246342,77.5080115,PM10,54,83,66
India,Karnataka,Bengaluru,"Shivapura_Peenya, Bengaluru - KSPCB",10-04-2024 10:00:00,13.0246342,77.5080115,SO2,3,24,10
India,Karnataka,Bengaluru,"Shivapura_Peenya, Bengaluru - KSPCB",10-04-2024 10:00:00,13.0246342,77.5080115,OZONE,53,55,55
India,Karnataka,Bengaluru,"Silk Board, Bengaluru - KSPCB",10-04-2024 10:00:00,12.917348,77.622813,OZONE,16,21,20
India,Karnataka,Bidar,"Naubad, Bidar - KSPCB",10-04-2024 10:00:00,17.930306,77.482194,NO2,7,8,8
India,Karnataka,Bidar,"Naubad, Bidar - KSPCB",10-04-2024 10:00:00,17.930306,77.482194,SO2,14,20,17
India,Karnataka,Chamarajanagar,"Urban, Chamarajanagar - KSPCB",10-04-2024 10:00:00,11.55358,76.55521,CO,19,28,22
India,Karnataka,Chikkaballapur,"Chikkaballapur Rural, Chikkaballapur - KSPCB",10-04-2024 10:00:00,13.428828,77.731418,PM2.5,46,104,71
India,Karnataka,Chikkamagaluru,"Kalyana Nagara, Chikkamagaluru - KSPCB",10-04-2024 10:00:00,13.328028,75.797056,NH3,2,4,2
India,Karnataka,Chikkamagaluru,"Kalyana Nagara, Chikkamagaluru - KSPCB",10-04-2024 10:00:00,13.328028,75.797056,OZONE,20,50,23
India,Karnataka,Davanagere,"Devaraj Urs Badavane, Davanagere - KSPCB",10-04-2024 10:00:00,14.475800,75.905200,CO,17,18,18
India,Karnataka,Gadag,"Panchal Nagar, Gadag - KSPCB",10-04-2024 10:00:00,15.411456,75.638133,PM2.5,17,43,30
India,Karnataka,Gadag,"Panchal Nagar, Gadag - KSPCB",10-04-2024 10:00:00,15.411456,75.638133,PM10,40,53,47
India,Karnataka,Hassan,"B.Katihalli, Hassan - KSPCB",10-04-2024 10:00:00,13.008556,76.125258,PM10,NA,NA,NA
India,Karnataka,Hassan,"B.Katihalli, Hassan - KSPCB",10-04-2024 10:00:00,13.008556,76.125258,NH3,NA,NA,NA
India,Karnataka,Haveri,"Ashwini Nagar, Haveri - KSPCB",10-04-2024 10:00:00,14.791800,75.389600,NH3,3,3,3
India,Karnataka,Haveri,"Ashwini Nagar, Haveri - KSPCB",10-04-2024 10:00:00,14.791800,75.389600,CO,36,38,38
India,Karnataka,Hubballi,"Deshpande Nagar, Hubballi - KSPCB",10-04-2024 10:00:00,15.351773,75.140726,OZONE,1,10,1
