country,state,city,station,last_update,latitude,longitude,pollutant_id,pollutant_min,pollutant_max,pollutant_avg
India,Andhra_Pradesh,Amaravati,"Secretariat, Amaravati - APPCB",20-05-2024 09:00:00,16.5150833,80.5181667,SO2,9,12,10
India,Andhra_Pradesh,Anantapur,"Gulzarpet, Anantapur - APPCB",20-05-2024 09:00:00,14.675886,77.593027,NH3,4,4,4
India,Andhra_Pradesh,Chittoor,"Gangineni Cheruvu, Chittoor - APPCB",20-05-2024 09:00:00,13.204880,79.097889,PM10,14,253,64
India,Andhra_Pradesh,Chittoor,"Gangineni Cheruvu, Chittoor - APPCB",20-05-2024 09:00:00,13.204880,79.097889,NH3,1,2,1
India,Andhra_Pradesh,Chittoor,"Gangineni Cheruvu, Chittoor - APPCB",20-05-2024 09:00:00,13.204880,79.097889,SO2,2,13,5
India,Andhra_Pradesh,Chittoor,"Gangineni Cheruvu, Chittoor - APPCB",20-05-2024 09:00:00,13.204880,79.097889,CO,14,25,18
India,Andhra_Pradesh,Chittoor,"Gangineni Cheruvu, Chittoor - APPCB",20-05-2024 09:00:00,13.204880,79.097889,OZONE,13,13,13
India,Andhra_Pradesh,Rajamahendravaram,"Anand Kala Kshetram, Rajamahendravaram - APPCB",20-05-2024 09:00:00,16.9872867,81.7363176,PM10,6,57,20
India,Andhra_Pradesh,Tirupati,"Tirumala, Tirupati - APPCB",20-05-2024 09:00:00,13.67,79.35,NO2,14,31,22
India,Andhra_Pradesh,Tirupati,"Vaikuntapuram, Tirupati - APPCB",20-05-2024 09:00:00,13.615387,79.409230,PM10,NA,NA,NA
India,Andhra_Pradesh,Tirupati,"Vaikuntapuram, Tirupati - APPCB",20-05-2024 09:00:00,13.615387,79.409230,NO2,NA,NA,NA
India,Andhra_Pradesh,Tirupati,"Vaikuntapuram, Tirupati - APPCB",20-05-2024 09:00:00,13.615387,79.409230,OZONE,NA,NA,NA
India,Andhra_Pradesh,Vijayawada,"HB Colony, Vijayawada - APPCB",20-05-2024 09:00:00,16.536107,80.594233,SO2,4,6,5
India,Andhra_Pradesh,Vijayawada,"Kanuru, Vijayawada - APPCB",20-05-2024 09:00:00,16.486692,80.699436,PM2.5,44,57,50
India,Andhra_Pradesh,Vijayawada,"Kanuru, Vijayawada - APPCB",20-05-2024 09:00:00,16.486692,80.699436,CO,40,40,40
India,Andhra_Pradesh,Vijayawada,"Rajiv Nagar, Vijayawada - APPCB",20-05-2024 09:00:00,16.554731,80.649110,PM10,59,62,60
India,Andhra_Pradesh,Visakhapatnam,"GVM Corporation, Visakhapatnam - APPCB",20-05-2024 09:00:00,17.72,83.3,NO2,26,41,33
India,Andhra_Pradesh,Visakhapatnam,"GVM Corporation, Visakhapatnam - APPCB",20-05-2024 09:00:00,17.72,83.3,NH3,2,5,3
India,Arunachal_Pradesh,Naharlagun,"Naharlagun, Naharlagun - APSPCB",20-05-2024 09:00:00,27.103358,93.679645,OZONE,2,2,2
India,Assam,Byrnihat,"Central Academy for SFS, Byrnihat - PCBA",20-05-2024 09:00:00,26.071318,91.87488,OZONE,23,108,33
India,Assam,Guwahati,"LGBI Airport, Guwahati - PCBA",20-05-2024 09:00:00,26.10887,91.589544,PM2.5,8,347,85
India,Assam,Guwahati,"LGBI Airport, Guwahati - PCBA",20-05-2024 09:00:00,26.10887,91.589544,NH3,1,3,2
India,Assam,Guwahati,"Pan Bazaar, Guwahati - PCBA",20-05-2024 09:00:00,26.187500,91.744194,CO,18,20,19
India,Assam,Nagaon,"Christianpatty, Nagaon - PCBA",20-05-2024 09:00:00,26.349082,92.68449,PM2.5,57,140,78
India,Assam,Nagaon,"Christianpatty, Nagaon - PCBA",20-05-2024 09:00:00,26.349082,92.68449,PM10,63,114,80
India,Assam,Nagaon,"Christianpatty, Nagaon - PCBA",20-05-2024 09:00:00,26.349082,92.68449,NH3,1,3,2
India,Assam,Nalbari,"Bata Chowk, Nalbari - PCBA",20-05-2024 09:00:00,26.446912,91.439057,NH3,1,3,2
India,Assam,Nalbari,"Bata Chowk, Nalbari - PCBA",20-05-2024 09:00:00,26.446912,91.439057,OZONE,3,139,10
India,Assam,Silchar,"Tarapur, Silchar - PCBA",20-05-2024 09:00:00,24.82827,92.79525,NH3,1,1,1
India,Assam,Sivasagar,"Girls College, Sivasagar - PCBA",20-05-2024 09:00:00,26.987634,94.636574,PM2.5,26,73,41
India,Bihar,Araria,"Kharahiya Basti, Araria - BSPCB",20-05-2024 09:00:00,26.146529,87.454184,OZONE,NA,NA,NA
India,Bihar,Arrah,"New DM Office, Arrah - BSPCB",20-05-2024 09:00:00,25.5626095,84.663264,SO2,1,44,13
India,Bihar,Arrah,"New DM Office, Arrah - BSPCB",20-05-2024 09:00:00,25.5626095,84.663264,OZONE,14,59,20
India,Bihar,Aurangabad,"Gurdeo Nagar, Aurangabad - BSPCB",20-05-2024 09:00:00,24.75746,84.366208,NH3,3,18,9
India,Bihar,Aurangabad,"Gurdeo Nagar, Aurangabad - BSPCB",20-05-2024 09:00:00,24.75746,84.366208,SO2,NA,NA,NA
India,Bihar,Aurangabad,"Gurdeo Nagar, Aurangabad - BSPCB",20-05-2024 09:00:00,24.75746,84.366208,OZONE,54,153,65
India,Bihar,Bettiah,"Kamalnath Nagar, Bettiah - BSPCB",20-05-2024 09:00:00,26.80365,84.51954,NO2,28,33,29
India,Bihar,Bhagalpur,"Mayaganj, Bhagalpur - BSPCB",20-05-2024 09:00:00,25.265194,87.012947,PM10,29,144,97
India,Bihar,Bhagalpur,"Mayaganj, Bhagalpur - BSPCB",20-05-2024 09:00:00,25.265194,87.012947,NO2,4,11,7
India,Bihar,Bhagalpur,"Mayaganj, Bhagalpur - BSPCB",20-05-2024 09:00:00,25.265194,87.012947,NH3,7,9,8
India,Bihar,Bhagalpur,"Mayaganj, Bhagalpur - BSPCB",20-05-2024 09:00:00,25.265194,87.012947,OZONE,14,52,20
India,Bihar,Bihar Sharif,"D M Colony, Bihar Sharif - BSPCB",20-05-2024 09:00:00,25.204762,85.514960,CO,50,58,57
India,Bihar,Buxar,"Charitra Van, Buxar - BSPCB (Formerly known as Central Jail)",20-05-2024 09:00:00,25.567520,83.966379,NO2,1,1,1
India,Bihar,Buxar,"Charitra Van, Buxar - BSPCB (Formerly known as Central Jail)",20-05-2024 09:00:00,25.567520,83.966379,CO,6,125,59
India,Bihar,Buxar,"Charitra Van, Buxar - BSPCB (Formerly known as Central Jail)",20-05-2024 09:00:00,25.567520,83.966379,OZONE,5,280,69
India,Bihar,Gaya,"Collectorate, Gaya - BSPCB",20-05-2024 09:00:00,24.7955,84.9994,CO,101,134,121
India,Bihar,Gaya,"Kareemganj, Gaya - BSPCB",20-05-2024 09:00:00,24.792403,84.992416,NO2,16,17,16
India,Bihar,Gaya,"SFTI Kusdihra, Gaya - BSPCB",20-05-2024 09:00:00,24.762518,84.982348,NH3,3,6,5
India,Bihar,Gaya,"SFTI Kusdihra, Gaya - BSPCB",20-05-2024 09:00:00,24.762518,84.982348,SO2,8,12,9
India,Bihar,Gaya,"SFTI Kusdihra, Gaya - BSPCB",20-05-2024 09:00:00,24.762518,84.982348,OZONE,8,58,16
India,Bihar,Hajipur,"Industrial Area, Hajipur - BSPCB",20-05-2024 09:00:00,25.697189,85.245900,PM2.5,82,249,140
India,Bihar,Hajipur,"Industrial Area, Hajipur - BSPCB",20-05-2024 09:00:00,25.697189,85.245900,NH3,16,23,20
India,Bihar,Hajipur,"Industrial Area, Hajipur - BSPCB",20-05-2024 09:00:00,25.697189,85.245900,CO,28,38,33
India,Bihar,Motihari,"Gandak Colony, Motihari - BSPCB",20-05-2024 09:00:00,26.63086,84.90051,CO,4,41,6
India,Bihar,Munger,"Town Hall, Munger - BSPCB",20-05-2024 09:00:00,25.376776,86.471523,NO2,4,6,5
India,Bihar,Munger,"Town Hall, Munger - BSPCB",20-05-2024 09:00:00,25.376776,86.471523,OZONE,25,41,31
India,Bihar,Muzaffarpur,"Buddha Colony, Muzaffarpur - BSPCB",20-05-2024 09:00:00,26.11442,85.39813,PM2.5,72,179,109
India,Bihar,Muzaffarpur,"Buddha Colony, Muzaffarpur - BSPCB",20-05-2024 09:00:00,26.11442,85.39813,NH3,7,12,10
India,Bihar,Muzaffarpur,"Buddha Colony, Muzaffarpur - BSPCB",20-05-2024 09:00:00,26.11442,85.39813,SO2,6,19,10
India,Bihar,Muzaffarpur,"Buddha Colony, Muzaffarpur - BSPCB",20-05-2024 09:00:00,26.11442,85.39813,CO,16,29,19
India,Bihar,Muzaffarpur,"MIT-Daudpur Kothi, Muzaffarpur - BSPCB",20-05-2024 09:00:00,26.1403345,85.3650192,CO,5,111,22
India,Bihar,Muzaffarpur,"Muzaffarpur Collectorate, Muzaffarpur - BSPCB",20-05-2024 09:00:00,26.1209,85.3647,NO2,23,46,34
India,Bihar,Patna,"Govt. High School Shikarpur, Patna - BSPCB",20-05-2024 09:00:00,25.592539,85.227158,NO2,22,23,22
India,Bihar,Patna,"IGSC Planetarium Complex, Patna - BSPCB",20-05-2024 09:00:00,25.610369,85.132568,SO2,3,6,4
India,Bihar,Patna,"Muradpur, Patna - BSPCB",20-05-2024 09:00:00,25.619651,85.147382,NO2,12,125,39
India,Bihar,Patna,"Rajbansi Nagar, Patna - BSPCB",20-05-2024 09:00:00,25.599486,85.113666,OZONE,2,80,10
India,Bihar,Patna,"Samanpura, Patna - BSPCB",20-05-2024 09:00:00,25.596727,85.085624,PM10,161,456,197
India,Bihar,Patna,"Samanpura, Patna - BSPCB",20-05-2024 09:00:00,25.596727,85.085624,NO2,4,33,10
India,Bihar,Patna,"Samanpura, Patna - BSPCB",20-05-2024 09:00:00,25.596727,85.085624,NH3,6,15,10
India,Bihar,Rajgir,"Dangi Tola, Rajgir - BSPCB",20-05-2024 09:00:00,25.03280,85.41948,CO,26,46,36
India,Bihar,Saharsa,"Police Line, Saharsa - BSPCB",20-05-2024 09:00:00,25.892357,86.590325,NO2,6,8,7
India,Bihar,Saharsa,"Police Line, Saharsa - BSPCB",20-05-2024 09:00:00,25.892357,86.590325,NH3,9,9,9
India,Bihar,Saharsa,"Police Line, Saharsa - BSPCB",20-05-2024 09:00:00,25.892357,86.590325,OZONE,1,56,24
India,Bihar,Samastipur,"DM Office_Kasipur, Samastipur - BSPCB",20-05-2024 09:00:00,25.859655,85.77944,PM10,NA,NA,NA
India,Bihar,Sasaram,"Dada Peer, Sasaram - BSPCB",20-05-2024 09:00:00,24.952822,84.002396,NO2,21,279,72
India,Bihar,Siwan,"Chitragupta Nagar, Siwan - BSPCB",20-05-2024 09:00:00,26.2271665,84.3570427,NO2,6,19,12
India,Bihar,Siwan,"Chitragupta Nagar, Siwan - BSPCB",20-05-2024 09:00:00,26.2271665,84.3570427,OZONE,44,80,46
India,Chandigarh,Chandigarh,"Sector-25, Chandigarh - CPCC",20-05-2024 09:00:00,30.751462,76.762879,PM2.5,112,222,164
India,Chandigarh,Chandigarh,"Sector-25, Chandigarh - CPCC",20-05-2024 09:00:00,30.751462,76.762879,CO,18,62,43
India,Chandigarh,Chandigarh,"Sector-53, Chandigarh - CPCC",20-05-2024 09:00:00,30.719859,76.738637,NH3,4,7,6
India,Chandigarh,Chandigarh,"Sector-53, Chandigarh - CPCC",20-05-2024 09:00:00,30.719859,76.738637,CO,30,112,56
India,Chhattisgarh,Bhilai,"32Bungalows, Bhilai - CECB",20-05-2024 09:00:00,21.194815,81.314770,PM10,26,64,41
India,Chhattisgarh,Bhilai,"32Bungalows, Bhilai - CECB",20-05-2024 09:00:00,21.194815,81.314770,CO,10,19,15
India,Chhattisgarh,Bhilai,"Civic Center, Bhilai - Bhilai Steel Plant",20-05-2024 09:00:00,21.185571,81.343175,NO2,11,18,15
India,Chhattisgarh,Bhilai,"Civic Center, Bhilai - Bhilai Steel Plant",20-05-2024 09:00:00,21.185571,81.343175,SO2,9,12,10
India,Chhattisgarh,Bhilai,"Civic Center, Bhilai - Bhilai Steel Plant",20-05-2024 09:00:00,21.185571,81.343175,OZONE,23,61,41
India,Chhattisgarh,Bhilai,"Hathkhoj, Bhilai - CECB",20-05-2024 09:00:00,21.224231,81.408350,NH3,8,9,8
India,Chhattisgarh,Chhal,"Nawapara SECL Colony, Chhal - CECB",20-05-2024 09:00:00,22.118125,83.140608,PM2.5,27,81,45
India,Chhattisgarh,Chhal,"Nawapara SECL Colony, Chhal - CECB",20-05-2024 09:00:00,22.118125,83.140608,NH3,2,2,2
India,Chhattisgarh,Korba,"Rampur, Korba - CECB",20-05-2024 09:00:00,22.368195,82.746431,SO2,3,67,8
India,Chhattisgarh,Milupara,"Govt. Higher Secondary School, Milupara - CECB",20-05-2024 09:00:00,22.1910172,83.5197009,PM10,NA,NA,NA
India,Chhattisgarh,Milupara,"Govt. Higher Secondary School, Milupara - CECB",20-05-2024 09:00:00,22.1910172,83.5197009,NO2,NA,NA,NA
India,Chhattisgarh,Milupara,"Govt. Higher Secondary School, Milupara - CECB",20-05-2024 09:00:00,22.1910172,83.5197009,SO2,NA,NA,NA
India,Chhattisgarh,Raipur,"Bhatagaon New ISBT, Raipur - CECB",20-05-2024 09:00:00,21.219665,81.630094,NO2,3,11,6
India,Chhattisgarh,Raipur,"Bhatagaon New ISBT, Raipur - CECB",20-05-2024 09:00:00,21.219665,81.630094,NH3,2,2,2
India,Chhattisgarh,Raipur,"Krishak Nagar, Raipur - CECB",20-05-2024 09:00:00,21.237755,81.705301,SO2,11,26,17
India,Chhattisgarh,Raipur,"Siltara Phase-II, Raipur - CECB",20-05-2024 09:00:00,21.371751,81.664929,CO,13,38,31
India,Chhattisgarh,Raipur,"Siltara Phase-II, Raipur - CECB",20-05-2024 09:00:00,21.371751,81.664929,OZONE,4,40,5
India,Delhi,Delhi,"Alipur, Delhi - DPCC",20-05-2024 09:00:00,28.815329,77.153010,PM10,159,328,226
India,Delhi,Delhi,"Anand Vihar, Delhi - DPCC",20-05-2024 09:00:00,28.647622,77.3158090,NH3,3,13,7
India,Delhi,Delhi,"Anand Vihar, Delhi - DPCC",20-05-2024 09:00:00,28.647622,77.3158090,CO,112,132,126
India,Delhi,Delhi,"Anand Vihar, Delhi - DPCC",20-05-2024 09:00:00,28.647622,77.3158090,OZONE,9,153,63
India,Delhi,Delhi,"Ashok Vihar, Delhi - DPCC",20-05-2024 09:00:00,28.695381,77.181665,CO,20,98,66
India,Delhi,Delhi,"Aya Nagar, Delhi - IMD",20-05-2024 09:00:00,28.4706914,77.1099364,OZONE,8,88,16
India,Delhi,Delhi,"Bawana, Delhi - DPCC",20-05-2024 09:00:00,28.776200,77.051074,PM2.5,82,392,226
India,Delhi,Delhi,"Bawana, Delhi - DPCC",20-05-2024 09:00:00,28.776200,77.051074,NO2,7,48,22
India,Delhi,Delhi,"Bawana, Delhi - DPCC",20-05-2024 09:00:00,28.776200,77.051074,SO2,9,103,47
India,Delhi,Delhi,"Burari Crossing, Delhi - IMD",20-05-2024 09:00:00,28.7256504,77.2011573,NO2,11,43,25
India,Delhi,Delhi,"CRRI Mathura Road, Delhi - IMD",20-05-2024 09:00:00,28.5512005,77.2735737,NO2,9,24,17
India,Delhi,Delhi,"Chandni Chowk, Delhi - IITM",20-05-2024 09:00:00,28.656756,77.227234,CO,50,80,60
India,Delhi,Delhi,"Dr. Karni Singh Shooting Range, Delhi - DPCC",20-05-2024 09:00:00,28.498571,77.264840,NO2,26,119,62
India,Delhi,Delhi,"Dr. Karni Singh Shooting Range, Delhi - DPCC",20-05-2024 09:00:00,28.498571,77.264840,OZONE,8,277,36
India,Delhi,Delhi,"IGI Airport (T3), Delhi - IMD",20-05-2024 09:00:00,28.5627763,77.1180053,NO2,20,65,37
India,Delhi,Delhi,"IHBAS, Dilshad Garden, Delhi - CPCB",20-05-2024 09:00:00,28.6811736,77.3025234,PM2.5,83,254,129
India,Delhi,Delhi,"IHBAS, Dilshad Garden, Delhi - CPCB",20-05-2024 09:00:00,28.6811736,77.3025234,NH3,1,8,3
India,Delhi,Delhi,"ITO, Delhi - CPCB",20-05-2024 09:00:00,28.628624,77.241060,NH3,3,8,6
India,Delhi,Delhi,"Jahangirpuri, Delhi - DPCC",20-05-2024 09:00:00,28.732820,77.170633,PM2.5,58,401,222
India,Delhi,Delhi,"Jahangirpuri, Delhi - DPCC",20-05-2024 09:00:00,28.732820,77.170633,SO2,11,84,46
India,Delhi,Delhi,"Lodhi Road, Delhi - IITM",20-05-2024 09:00:00,28.588333,77.221667,PM2.5,62,229,120
India,Delhi,Delhi,"Lodhi Road, Delhi - IITM",20-05-2024 09:00:00,28.588333,77.221667,SO2,18,53,28
India,Delhi,Delhi,"Major Dhyan Chand National Stadium, Delhi - DPCC",20-05-2024 09:00:00,28.611281,77.237738,NH3,6,10,8
India,Delhi,Delhi,"Major Dhyan Chand National Stadium, Delhi - DPCC",20-05-2024 09:00:00,28.611281,77.237738,SO2,11,37,19
India,Delhi,Delhi,"Major Dhyan Chand National Stadium, Delhi - DPCC",20-05-2024 09:00:00,28.611281,77.237738,CO,140,159,156
India,Delhi,Delhi,"Mandir Marg, Delhi - DPCC",20-05-2024 09:00:00,28.636429,77.201067,PM2.5,38,329,128
India,Delhi,Delhi,"Mandir Marg, Delhi - DPCC",20-05-2024 09:00:00,28.636429,77.201067,PM10,99,227,146
India,Delhi,Delhi,"NSIT Dwarka, Delhi - CPCB",20-05-2024 09:00:00,28.60909,77.0325413,PM10,164,435,269
India,Delhi,Delhi,"NSIT Dwarka, Delhi - CPCB",20-05-2024 09:00:00,28.60909,77.0325413,SO2,1,29,12
India,Delhi,Delhi,"NSIT Dwarka, Delhi - CPCB",20-05-2024 09:00:00,28.60909,77.0325413,CO,26,69,32
India,Delhi,Delhi,"Najafgarh, Delhi - DPCC",20-05-2024 09:00:00,28.570173,76.933762,PM2.5,18,325,115
India,Delhi,Delhi,"Najafgarh, Delhi - DPCC",20-05-2024 09:00:00,28.570173,76.933762,PM10,96,421,205
India,Delhi,Delhi,"Narela, Delhi - DPCC",20-05-2024 09:00:00,28.822836,77.101981,NO2,7,86,32
India,Delhi,Delhi,"Narela, Delhi - DPCC",20-05-2024 09:00:00,28.822836,77.101981,NH3,5,15,9
India,Delhi,Delhi,"Nehru Nagar, Delhi - DPCC",20-05-2024 09:00:00,28.567890,77.250515,NO2,9,67,33
India,Delhi,Delhi,"New Moti Bagh, Delhi - MHUA",20-05-2024 09:00:00,28.57834,77.18400,PM2.5,41,353,150
India,Delhi,Delhi,"New Moti Bagh, Delhi - MHUA",20-05-2024 09:00:00,28.57834,77.18400,CO,22,82,57
India,Delhi,Delhi,"North Campus, DU, Delhi - IMD",20-05-2024 09:00:00,28.6573814,77.1585447,PM10,133,491,212
India,Delhi,Delhi,"North Campus, DU, Delhi - IMD",20-05-2024 09:00:00,28.6573814,77.1585447,OZONE,3,73,12
India,Delhi,Delhi,"Okhla Phase-2, Delhi - DPCC",20-05-2024 09:00:00,28.530785,77.271255,CO,56,118,77
India,Delhi,Delhi,"Punjabi Bagh, Delhi - DPCC",20-05-2024 09:00:00,28.674045,77.131023,NO2,46,108,69
India,Delhi,Delhi,"Punjabi Bagh, Delhi - DPCC",20-05-2024 09:00:00,28.674045,77.131023,SO2,2,60,31
India,Delhi,Delhi,"Pusa, Delhi - DPCC",20-05-2024 09:00:00,28.639652,77.146275,PM2.5,NA,NA,NA
India,Delhi,Delhi,"Pusa, Delhi - DPCC",20-05-2024 09:00:00,28.639652,77.146275,NH3,6,9,7
India,Delhi,Delhi,"Pusa, Delhi - DPCC",20-05-2024 09:00:00,28.639652,77.146275,CO,10,111,41
India,Delhi,Delhi,"Pusa, Delhi - IMD",20-05-2024 09:00:00,28.636110,77.173332,CO,38,71,59
India,Delhi,Delhi,"R K Puram, Delhi - DPCC",20-05-2024 09:00:00,28.563262,77.186937,PM10,135,433,239
India,Delhi,Delhi,"R K Puram, Delhi - DPCC",20-05-2024 09:00:00,28.563262,77.186937,SO2,13,52,33
India,Delhi,Delhi,"R K Puram, Delhi - DPCC",20-05-2024 09:00:00,28.563262,77.186937,OZONE,16,261,29
India,Delhi,Delhi,"Rohini, Delhi - DPCC",20-05-2024 09:00:00,28.732528,77.119920,NO2,9,103,46
India,Delhi,Delhi,"Sonia Vihar, Delhi - DPCC",20-05-2024 09:00:00,28.710508,77.249485,NO2,15,76,42
India,Delhi,Delhi,"Sonia Vihar, Delhi - DPCC",20-05-2024 09:00:00,28.710508,77.249485,NH3,5,9,6
India,Delhi,Delhi,"Sonia Vihar, Delhi - DPCC",20-05-2024 09:00:00,28.710508,77.249485,OZONE,6,172,19
India,Delhi,Delhi,"Sri Aurobindo Marg, Delhi - DPCC",20-05-2024 09:00:00,28.531346,77.190156,NH3,7,11,8
India,Delhi,Delhi,"Sri Aurobindo Marg, Delhi - DPCC",20-05-2024 09:00:00,28.531346,77.190156,OZONE,2,130,8
India,Delhi,Delhi,"Wazirpur, Delhi - DPCC",20-05-2024 09:00:00,28.699793,77.165453,PM10,141,415,229
India,Delhi,Delhi,"Wazirpur, Delhi - DPCC",20-05-2024 09:00:00,28.699793,77.165453,NH3,8,16,13
India,Delhi,Delhi,"Wazirpur, Delhi - DPCC",20-05-2024 09:00:00,28.699793,77.165453,OZONE,2,234,13
India,Gujarat,Ahmedabad,"Chandkheda, Ahmedabad - IITM",20-05-2024 09:00:00,23.107969,72.574648,NO2,33,53,43
India,Gujarat,Ahmedabad,"Chandkheda, Ahmedabad - IITM",20-05-2024 09:00:00,23.107969,72.574648,CO,1,66,19
India,Gujarat,Ahmedabad,"Gyaspur, Ahmedabad - IITM",20-05-2024 09:00:00,22.977134,72.553024,OZONE,37,94,73
India,Gujarat,Ahmedabad,"Maninagar, Ahmedabad - GPCB",20-05-2024 09:00:00,23.002657,72.591912,CO,44,98,74
India,Gujarat,Ahmedabad,"Raikhad, Ahmedabad - IITM",20-05-2024 09:00:00,23.020509,72.579261,NH3,7,39,21
India,Gujarat,Ahmedabad,"Rakhial, Ahmedabad - IITM",20-05-2024 09:00:00,23.016834,72.625775,NO2,62,217,104
India,Gujarat,Ahmedabad,"Sardar Vallabhbhai Patel Stadium, Ahmedabad - IITM",20-05-2024 09:00:00,23.043070,72.562968,NO2,29,174,40
India,Gujarat,Ahmedabad,"Sardar Vallabhbhai Patel Stadium, Ahmedabad - IITM",20-05-2024 09:00:00,23.043070,72.562968,SO2,12,22,16
India,Gujarat,Ahmedabad,"Sardar Vallabhbhai Patel Stadium, Ahmedabad - IITM",20-05-2024 09:00:00,23.043070,72.562968,CO,17,44,24
India,Gujarat,Gandhinagar,"Sector-10, Gandhinagar - GPCB",20-05-2024 09:00:00,23.221714,72.654328,OZONE,14,68,21
India,Gujarat,Surat,"Science Center, Surat - SMC",20-05-2024 09:00:00,21.170046,72.795405,PM2.5,2,36,17
India,Gujarat,Vatva,"Phase-4 GIDC, Vatva - GPCB",20-05-2024 09:00:00,22.969611,72.643500,NO2,18,62,31
India,Haryana,Ambala,"Patti Mehar, Ambala - HSPCB",20-05-2024 09:00:00,30.379589,76.778328,SO2,NA,NA,NA
India,Haryana,Bahadurgarh,"Arya Nagar, Bahadurgarh - HSPCB",20-05-2024 09:00:00,28.6701,76.9254,PM10,NA,NA,NA
India,Haryana,Bahadurgarh,"Arya Nagar, Bahadurgarh - HSPCB",20-05-2024 09:00:00,28.6701,76.9254,CO,NA,NA,NA
India,Haryana,Ballabgarh,"Nathu Colony, Ballabgarh - HSPCB",20-05-2024 09:00:00,28.3419248,77.319699,PM2.5,82,307,192
India,Haryana,Ballabgarh,"Nathu Colony, Ballabgarh - HSPCB",20-05-2024 09:00:00,28.3419248,77.319699,NO2,10,14,13
India,Haryana,Charkhi Dadri,"Mini Secretariat, Charkhi Dadri - HSPCB",20-05-2024 09:00:00,28.593883,76.270653,SO2,9,27,22
India,Haryana,Dharuhera,"Municipal Corporation Office, Dharuhera -  HSPCB",20-05-2024 09:00:00,28.206800,76.799700,PM10,64,411,143
India,Haryana,Dharuhera,"Municipal Corporation Office, Dharuhera -  HSPCB",20-05-2024 09:00:00,28.206800,76.799700,CO,12,49,42
India,Haryana,Faridabad,"New Industrial Town, Faridabad - HSPCB",20-05-2024 09:00:00,28.39072,77.30059,NO2,7,23,14
India,Haryana,Faridabad,"New Industrial Town, Faridabad - HSPCB",20-05-2024 09:00:00,28.39072,77.30059,SO2,12,16,13
India,Haryana,Faridabad,"Sector 11, Faridabad - HSPCB",20-05-2024 09:00:00,28.376058,77.315741,PM10,140,325,183
India,Haryana,Faridabad,"Sector- 16A, Faridabad - HSPCB",20-05-2024 09:00:00,28.4088421,77.3099081,PM2.5,12,301,92
India,Haryana,Faridabad,"Sector- 16A, Faridabad - HSPCB",20-05-2024 09:00:00,28.4088421,77.3099081,NO2,4,17,10
India,Haryana,Fatehabad,"Huda Sector, Fatehabad - HSPCB",20-05-2024 09:00:00,29.503664,75.467934,NO2,29,31,30
India,Haryana,Gurugram,"NISE Gwal Pahari, Gurugram - IMD",20-05-2024 09:00:00,28.422681,77.148944,CO,NA,NA,NA
India,Haryana,Gurugram,"NISE Gwal Pahari, Gurugram - IMD",20-05-2024 09:00:00,28.422681,77.148944,OZONE,NA,NA,NA
India,Haryana,Gurugram,"Sector-51, Gurugram - HSPCB",20-05-2024 09:00:00,28.4227,77.0667,NH3,1,1,1
India,Haryana,Gurugram,"Teri Gram, Gurugram - HSPCB",20-05-2024 09:00:00,28.4275,77.1465,CO,10,38,19
India,Haryana,Gurugram,"Teri Gram, Gurugram - HSPCB",20-05-2024 09:00:00,28.4275,77.1465,OZONE,30,78,66
India,Haryana,Hisar,"Urban Estate-II, Hisar - HSPCB",20-05-2024 09:00:00,29.140560,75.744941,NO2,22,26,23
India,Haryana,Hisar,"Urban Estate-II, Hisar - HSPCB",20-05-2024 09:00:00,29.140560,75.744941,SO2,NA,NA,NA
India,Haryana,Hisar,"Urban Estate-II, Hisar - HSPCB",20-05-2024 09:00:00,29.140560,75.744941,OZONE,47,160,67
India,Haryana,Kaithal,"Rishi Nagar, Kaithal - HSPCB",20-05-2024 09:00:00,29.8006,76.4155,PM2.5,56,212,122
India,Haryana,Karnal,"Sector-12, Karnal - HSPCB",20-05-2024 09:00:00,29.695300,77.002700,PM2.5,49,197,62
India,Haryana,Kurukshetra,"Sector-7, Kurukshetra - HSPCB",20-05-2024 09:00:00,29.966942,76.875879,NH3,4,6,5
India,Haryana,Kurukshetra,"Sector-7, Kurukshetra - HSPCB",20-05-2024 09:00:00,29.966942,76.875879,OZONE,72,110,91
India,Haryana,Manesar,"Sector-2 IMT, Manesar - HSPCB",20-05-2024 09:00:00,28.360699,76.936090,PM10,46,122,82
India,Haryana,Manesar,"Sector-2 IMT, Manesar - HSPCB",20-05-2024 09:00:00,28.360699,76.936090,SO2,8,21,12
India,Haryana,Palwal,"Shyam Nagar, Palwal - HSPCB",20-05-2024 09:00:00,28.1485564,77.3320667,PM10,75,136,100
India,Haryana,Panchkula,"Sector-6, Panchkula - HSPCB ",20-05-2024 09:00:00,30.7057778,76.8531805555555,PM2.5,93,326,206
India,Haryana,Panchkula,"Sector-6, Panchkula - HSPCB ",20-05-2024 09:00:00,30.7057778,76.8531805555555,OZONE,25,61,39
India,Haryana,Panipat,"Sector-18, Panipat - HSPCB",20-05-2024 09:00:00,29.432304,76.972765,NO2,31,32,31
India,Haryana,Panipat,"Sector-18, Panipat - HSPCB",20-05-2024 09:00:00,29.432304,76.972765,NH3,2,3,2
India,Haryana,Panipat,"Sector-18, Panipat - HSPCB",20-05-2024 09:00:00,29.432304,76.972765,CO,24,26,25
India,Haryana,Sonipat,"Murthal, Sonipat - HSPCB",20-05-2024 09:00:00,29.027200,77.062100,NO2,NA,NA,NA
India,Haryana,Sonipat,"Murthal, Sonipat - HSPCB",20-05-2024 09:00:00,29.027200,77.062100,SO2,NA,NA,NA
India,Haryana,Sonipat,"Murthal, Sonipat - HSPCB",20-05-2024 09:00:00,29.027200,77.062100,CO,NA,NA,NA
India,Haryana,Sonipat,"Murthal, Sonipat - HSPCB",20-05-2024 09:00:00,29.027200,77.062100,OZONE,NA,NA,NA
India,Haryana,Yamuna Nagar,"Gobind Pura, Yamuna Nagar - HSPCB",20-05-2024 09:00:00,30.1480566,77.2893471,PM10,101,159,125
India,Haryana,Yamuna Nagar,"Gobind Pura, Yamuna Nagar - HSPCB",20-05-2024 09:00:00,30.1480566,77.2893471,NH3,1,6,4
India,Haryana,Yamuna Nagar,"Gobind Pura, Yamuna Nagar - HSPCB",20-05-2024 09:00:00,30.1480566,77.2893471,OZONE,48,81,57
India,Himachal Pradesh,Baddi,"HIMUDA Complex Phase-1, Baddi - HPPCB",20-05-2024 09:00:00,30.943887,76.801991,CO,34,68,41
India,Jammu_and_Kashmir,Srinagar,"Rajbagh, Srinagar - JKSPCB",20-05-2024 09:00:00,34.066206,74.819820,PM2.5,NA,NA,NA
India,Jharkhand,Dhanbad,"Kalakusuma, Dhanbad - DMC",20-05-2024 09:00:00,23.811548,86.481238,SO2,NA,NA,NA
India,Karnataka,Bagalkot,"Vidayagiri, Bagalkot - KSPCB",20-05-2024 09:00:00,16.172806,75.659694,NO2,9,10,9
India,Karnataka,Belgaum,"Ramteerth Nagar, Belgaum - KSPCB",20-05-2024 09:00:00,15.888653,74.541751,NH3,5,12,10
India,Karnataka,Belgaum,"Ramteerth Nagar, Belgaum - KSPCB",20-05-2024 09:00:00,15.888653,74.541751,SO2,9,9,9
India,Karnataka,Bengaluru,"Bapuji Nagar, Bengaluru - KSPCB",20-05-2024 09:00:00,12.951913,77.539784,NO2,14,16,15
India,Karnataka,Bengaluru,"Bapuji Nagar, Bengaluru - KSPCB",20-05-2024 09:00:00,12.951913,77.539784,CO,31,56,41
India,Karnataka,Bengaluru,"Hebbal, Bengaluru - KSPCB",20-05-2024 09:00:00,13.029152,77.585901,SO2,16,22,19
India,Karnataka,Bengaluru,"Jayanagar 5th Block, Bengaluru - KSPCB",20-05-2024 09:00:00,12.920984,77.584908,PM10,14,60,36
India,Karnataka,Bengaluru,"Kasturi Nagar, Bengaluru - KSPCB",20-05-2024 09:00:00,13.003872,77.664217,OZONE,2,60,9
India,Karnataka,Bengaluru,"RVCE-Mailasandra, Bengaluru - KSPCB",20-05-2024 09:00:00,12.921418,77.502466,PM2.5,7,60,33
India,Karnataka,Bengaluru,"Shivapura_Peenya, Bengaluru - KSPCB",20-05-2024 09:00:00,13.0246342,77.5080115,PM10,26,72,52
India,Karnataka,Bengaluru,"Shivapura_Peenya, Bengaluru - KSPCB",20-05-2024 09:00:00,13.0246342,77.5080115,NO2,15,16,16
India,Karnataka,Bengaluru,"Shivapura_Peenya, Bengaluru - KSPCB",20-05-2024 09:00:00,13.0246342,77.5080115,SO2,1,8,3
India,Karnataka,Bengaluru,"Shivapura_Peenya, Bengaluru - KSPCB",20-05-2024 09:00:00,13.0246342,77.5080115,CO,14,50,45
India,Karnataka,Bengaluru,"Shivapura_Peenya, Bengaluru - KSPCB",20-05-2024 09:00:00,13.0246342,77.5080115,OZONE,53,56,54
India,Karnataka,Bidar,"Naubad, Bidar - KSPCB",20-05-2024 09:00:00,17.930306,77.482194,OZONE,10,35,15
India,Karnataka,Chamarajanagar,"Urban, Chamarajanagar - KSPCB",20-05-2024 09:00:00,11.55358,76.55521,NO2,22,36,33
India,Karnataka,Chikkamagaluru,"Kalyana Nagara, Chikkamagaluru - KSPCB",20-05-2024 09:00:00,13.328028,75.797056,PM2.5,3,39,23
India,Karnataka,Chikkamagaluru,"Kalyana Nagara, Chikkamagaluru - KSPCB",20-05-2024 09:00:00,13.328028,75.797056,SO2,1,4,1
India,Karnataka,Chikkamagaluru,"Kalyana Nagara, Chikkamagaluru - KSPCB",20-05-2024 09:00:00,13.328028,75.797056,CO,11,69,27
India,Karnataka,Davanagere,"Devaraj Urs Badavane, Davanagere - KSPCB",20-05-2024 09:00:00,14.475800,75.905200,NO2,7,17,13
India,Karnataka,Davanagere,"Devaraj Urs Badavane, Davanagere - KSPCB",20-05-2024 09:00:00,14.475800,75.905200,OZONE,16,20,19
India,Karnataka,Dharwad,"Kalabhavan, Dharwad - KSPCB",20-05-2024 09:00:00,15.459706,75.008381,SO2,2,4,3
India,Karnataka,Dharwad,"Kalabhavan, Dharwad - KSPCB",20-05-2024 09:00:00,15.459706,75.008381,CO,2,96,29
India,Karnataka,Dharwad,"Kalabhavan, Dharwad - KSPCB",20-05-2024 09:00:00,15.459706,75.008381,OZONE,2,25,4
India,Karnataka,Gadag,"Panchal Nagar, Gadag - KSPCB",20-05-2024 09:00:00,15.411456,75.638133,PM2.5,2,22,11
India,Karnataka,Gadag,"Panchal Nagar, Gadag - KSPCB",20-05-2024 09:00:00,15.411456,75.638133,SO2,8,19,14
India,Karnataka,Haveri,"Ashwini Nagar, Haveri - KSPCB",20-05-2024 09:00:00,14.791800,75.389600,NO2,NA,NA,NA
India,Karnataka,Hubballi,"Deshpande Nagar, Hubballi - KSPCB",20-05-2024 09:00:00,15.351773,75.140726,OZONE,NA,NA,NA
India,Karnataka,Hubballi,"Lingaraj Nagar, Hubballi - KSPCB",20-05-2024 09:00:00,15.3714823,75.1160168,PM2.5,33,62,47
India,Karnataka,Hubballi,"Lingaraj Nagar, Hubballi - KSPCB",20-05-2024 09:00:00,15.3714823,75.1160168,NO2,10,10,10
India,Karnataka,Hubballi,"Lingaraj Nagar, Hubballi - KSPCB",20-05-2024 09:00:00,15.3714823,75.1160168,NH3,2,2,2
India,Karnataka,Hubballi,"Lingaraj Nagar, Hubballi - KSPCB",20-05-2024 09:00:00,15.3714823,75.1160168,SO2,1,3,1
India,Karnataka,Kalaburagi,"Lal Bahadur Shastri Nagar, Kalaburagi - KSPCB",20-05-2024 09:00:00,17.321993,76.822628,CO,44,49,46
India,Karnataka,Koppal,"Diwator Nagar, Koppal - KSPCB",20-05-2024 09:00:00,15.347630,76.181767,NH3,6,10,7
India,Karnataka,Koppal,"Diwator Nagar, Koppal - KSPCB",20-05-2024 09:00:00,15.347630,76.181767,SO2,27,28,28
India,Karnataka,Madikeri,"Stuart Hill, Madikeri - KSPCB",20-05-2024 09:00:00,12.415911,75.735050,NH3,1,2,1
India,Karnataka,Mysuru,"Hebbal 1st Stage, Mysuru - KSPCB",20-05-2024 09:00:00,12.21041,76.37376,PM2.5,14,36,20
India,Karnataka,Mysuru,"Hebbal 1st Stage, Mysuru - KSPCB",20-05-2024 09:00:00,12.21041,76.37376,PM10,22,54,33
India,Karnataka,Mysuru,"Hebbal 1st Stage, Mysuru - KSPCB",20-05-2024 09:00:00,12.21041,76.37376,NH3,1,2,2
India,Karnataka,Mysuru,"Hebbal 1st Stage, Mysuru - KSPCB",20-05-2024 09:00:00,12.21041,76.37376,SO2,NA,NA,NA
India,Karnataka,Mysuru,"Hebbal 1st Stage, Mysuru - KSPCB",20-05-2024 09:00:00,12.21041,76.37376,OZONE,5,30,9
India,Karnataka,Raichur,"Haji Colony, Raichur - KSPCB",20-05-2024 09:00:00,16.208139,77.348417,SO2,73,84,77
India,Karnataka,Ramanagara,"Vijay Nagar, Ramanagara - KSPCB",20-05-2024 09:00:00,12.733409,77.298051,PM2.5,5,50,24
India,Karnataka,Ramanagara,"Vijay Nagar, Ramanagara - KSPCB",20-05-2024 09:00:00,12.733409,77.298051,CO,4,28,17
India,Karnataka,Shivamogga,"Vinoba Nagara, Shivamogga - KSPCB",20-05-2024 09:00:00,13.940000,75.555917,PM10,37,67,52
India,Karnataka,Shivamogga,"Vinoba Nagara, Shivamogga - KSPCB",20-05-2024 09:00:00,13.940000,75.555917,SO2,2,11,6
India,Karnataka,Udupi,"Brahmagiri, Udupi - KSPCB",20-05-2024 09:00:00,13.34194444,74.74694444,PM10,NA,NA,NA
India,Karnataka,Udupi,"Brahmagiri, Udupi - KSPCB",20-05-2024 09:00:00,13.34194444,74.74694444,OZONE,23,23,23
India,Karnataka,Vijayapura,"Ibrahimpur, Vijayapura - KSPCB",20-05-2024 09:00:00,16.802639,75.722694,SO2,NA,NA,NA
India,Karnataka,Yadgir,"Collector Office, Yadgir - KSPCB",20-05-2024 09:00:00,16.7602,77.1428,PM10,19,94,44
India,Karnataka,Yadgir,"Collector Office, Yadgir - KSPCB",20-05-2024 09:00:00,16.7602,77.1428,NO2,2,11,9
India,Kerala,Kannur,"Thavakkara, Kannur - Kerala PCB",20-05-2024 09:00:00,11.875000,75.373200,PM2.5,61,74,69
India,Kerala,Thiruvananthapuram,"Kariavattom, Thiruvananthapuram - Kerala PCB",20-05-2024 09:00:00,8.563700,76.886500,PM2.5,77,90,84
India,Kerala,Thiruvananthapuram,"Plammoodu, Thiruvananthapuram - Kerala PCB",20-05-2024 09:00:00,8.5149093,76.9435879,PM10,3,32,16
India,Kerala,Thiruvananthapuram,"Plammoodu, Thiruvananthapuram - Kerala PCB",20-05-2024 09:00:00,8.5149093,76.9435879,NH3,1,1,1
India,Kerala,Thiruvananthapuram,"Plammoodu, Thiruvananthapuram - Kerala PCB",20-05-2024 09:00:00,8.5149093,76.9435879,OZONE,6,56,19
India,Kerala,Thrissur,"Corporation Ground, Thrissur - Kerala PCB",20-05-2024 09:00:00,10.532400,76.215900,OZONE,28,32,30
India,Madhya Pradesh,Bhopal,"Idgah Hills, Bhopal - MPPCB",20-05-2024 09:00:00,23.264759,77.381568,NO2,NA,NA,NA
India,Madhya Pradesh,Bhopal,"Idgah Hills, Bhopal - MPPCB",20-05-2024 09:00:00,23.264759,77.381568,OZONE,NA,NA,NA
India,Madhya Pradesh,Bhopal,"Paryavaran Parisar, Bhopal - MPPCB",20-05-2024 09:00:00,23.210494,77.425409,NO2,10,40,19
India,Madhya Pradesh,Bhopal,"Paryavaran Parisar, Bhopal - MPPCB",20-05-2024 09:00:00,23.210494,77.425409,SO2,8,12,9
India,Madhya Pradesh,Bhopal,"T T Nagar, Bhopal - MPPCB",20-05-2024 09:00:00,23.233584,77.400574,OZONE,72,110,79
India,Madhya Pradesh,Dewas,"Bhopal Chauraha, Dewas - MPPCB",20-05-2024 09:00:00,22.9682591,76.064118,SO2,18,40,26
India,Madhya Pradesh,Gwalior,"City Center, Gwalior - MPPCB",20-05-2024 09:00:00,26.203442,78.193251,PM2.5,35,123,59
India,Madhya Pradesh,Gwalior,"City Center, Gwalior - MPPCB",20-05-2024 09:00:00,26.203442,78.193251,NO2,6,60,15
India,Madhya Pradesh,Gwalior,"City Center, Gwalior - MPPCB",20-05-2024 09:00:00,26.203442,78.193251,CO,24,101,42
India,Madhya Pradesh,Gwalior,"Deen Dayal Nagar, Gwalior - MPPCB",20-05-2024 09:00:00,26.259242,78.216432,PM2.5,NA,NA,NA
India,Madhya Pradesh,Gwalior,"Deen Dayal Nagar, Gwalior - MPPCB",20-05-2024 09:00:00,26.259242,78.216432,PM10,124,500,193
India,Madhya Pradesh,Gwalior,"Maharaj Bada, Gwalior - MPPCB",20-05-2024 09:00:00,26.200388,78.147714,SO2,8,13,9
India,Madhya Pradesh,Gwalior,"Phool Bagh, Gwalior - Mondelez Ind. Food",20-05-2024 09:00:00,26.210536,78.171,PM10,19,186,106
India,Madhya Pradesh,Gwalior,"Phool Bagh, Gwalior - Mondelez Ind. Food",20-05-2024 09:00:00,26.210536,78.171,SO2,26,33,28
India,Madhya Pradesh,Indore,"Chhoti Gwaltoli, Indore - MPPCB",20-05-2024 09:00:00,22.4310,75.5213,SO2,11,26,17
India,Madhya Pradesh,Indore,"Chhoti Gwaltoli, Indore - MPPCB",20-05-2024 09:00:00,22.4310,75.5213,OZONE,13,128,48
India,Madhya Pradesh,Indore,"Maguda Nagar, Indore - IMC",20-05-2024 09:00:00,22.7524,75.8872,NO2,4,6,5
India,Madhya Pradesh,Indore,"Maguda Nagar, Indore - IMC",20-05-2024 09:00:00,22.7524,75.8872,NH3,1,2,1
India,Madhya Pradesh,Indore,"Maguda Nagar, Indore - IMC",20-05-2024 09:00:00,22.7524,75.8872,OZONE,36,51,37
India,Madhya Pradesh,Indore,"Regional Park, Indore - IMC",20-05-2024 09:00:00,22.6780,75.8559,PM10,NA,NA,NA
India,Madhya Pradesh,Jabalpur,"Govindh Bhavan Colony, Jabalpur - JMC",20-05-2024 09:00:00,23.163174,79.973061,SO2,2,52,18
India,Madhya Pradesh,Jabalpur,"Govindh Bhavan Colony, Jabalpur - JMC",20-05-2024 09:00:00,23.163174,79.973061,CO,22,40,25
India,Madhya Pradesh,Jabalpur,"Gupteshwar, Jabalpur - JMC",20-05-2024 09:00:00,23.142888,79.916147,PM10,38,144,54
India,Madhya Pradesh,Jabalpur,"Gupteshwar, Jabalpur - JMC",20-05-2024 09:00:00,23.142888,79.916147,OZONE,60,153,92
India,Madhya Pradesh,Jabalpur,"Marhatal, Jabalpur - MPPCB",20-05-2024 09:00:00,23.168606,79.932247,PM10,42,206,80
India,Madhya Pradesh,Jabalpur,"Suhagi, Jabalpur - JMC",20-05-2024 09:00:00,23.218135,79.957770,OZONE,63,176,104
India,Madhya Pradesh,Mandideep,"Sector-D Industrial Area, Mandideep - MPPCB",20-05-2024 09:00:00,23.108440,77.511428,PM10,60,384,156
India,Madhya Pradesh,Mandideep,"Sector-D Industrial Area, Mandideep - MPPCB",20-05-2024 09:00:00,23.108440,77.511428,NH3,5,10,7
India,Madhya Pradesh,Sagar,"Civil Lines, Sagar - MPPCB",20-05-2024 09:00:00,23.838586,78.759431,CO,17,31,21
India,Madhya Pradesh,Sagar,"Civil Lines, Sagar - MPPCB",20-05-2024 09:00:00,23.838586,78.759431,OZONE,31,111,54
India,Madhya Pradesh,Satna,"Bandhavgar Colony, Satna - Birla Cement",20-05-2024 09:00:00,24.58434363,80.8549414,NO2,29,62,40
India,Madhya Pradesh,Singrauli,"Suryakiran Bhawan NCL, Singrauli - MPPCB",20-05-2024 09:00:00,24.108970,82.645580,SO2,45,78,53
India,Madhya Pradesh,Ujjain,"Mahakaleshwar Temple, Ujjain - MPPCB",20-05-2024 09:00:00,23.182719 ,75.768218 ,NH3,6,7,6
India,Maharashtra,Ahmednagar,"Tarakpur, Ahmednagar - MPCB",20-05-2024 09:00:00,19.10122,74.73339,PM10,60,325,123
India,Maharashtra,Akola,"Ramdaspeth, Akola - MPCB",20-05-2024 09:00:00,20.719516,77.000253,SO2,11,17,13
India,Maharashtra,Amravati,"Shivneri Colony, Amravati - MPCB",20-05-2024 09:00:00,20.9402359,77.7895248,NO2,2,20,9
India,Maharashtra,Amravati,"Shri Shivaji Science College, Amaravati - MPCB",20-05-2024 09:00:00,20.939198,77.765701,PM10,36,340,71
India,Maharashtra,Amravati,"Shri Shivaji Science College, Amaravati - MPCB",20-05-2024 09:00:00,20.939198,77.765701,OZONE,27,85,34
India,Maharashtra,Aurangabad,"More Chowk Waluj, Aurangabad - MPCB",20-05-2024 09:00:00,19.8389439,75.244448,NO2,41,48,45
India,Maharashtra,Aurangabad,"More Chowk Waluj, Aurangabad - MPCB",20-05-2024 09:00:00,19.8389439,75.244448,NH3,9,10,10
India,Maharashtra,Aurangabad,"More Chowk Waluj, Aurangabad - MPCB",20-05-2024 09:00:00,19.8389439,75.244448,CO,12,60,33
India,Maharashtra,Badlapur,"Katrap, Badlapur - MPCB",20-05-2024 09:00:00,19.16485,73.23409,PM2.5,42,72,57
India,Maharashtra,Badlapur,"Katrap, Badlapur - MPCB",20-05-2024 09:00:00,19.16485,73.23409,PM10,45,80,61
India,Maharashtra,Badlapur,"Katrap, Badlapur - MPCB",20-05-2024 09:00:00,19.16485,73.23409,NH3,6,8,7
India,Maharashtra,Bhiwandi,"Gokul Nagar, Bhiwandi - MPCB",20-05-2024 09:00:00,19.309073,73.057223,PM10,66,110,88
India,Maharashtra,Bhiwandi,"Gokul Nagar, Bhiwandi - MPCB",20-05-2024 09:00:00,19.309073,73.057223,SO2,14,16,15
India,Maharashtra,Bhiwandi,"Gokul Nagar, Bhiwandi - MPCB",20-05-2024 09:00:00,19.309073,73.057223,OZONE,38,156,83
India,Maharashtra,Boisar,"Khaira, Boisar - MPCB",20-05-2024 09:00:00,19.786089,72.757971,CO,1,24,6
India,Maharashtra,Jalgaon,"Prabhat Colony, Jalgaon - MPCB",20-05-2024 09:00:00,21.001264,75.565602,PM2.5,70,234,120
India,Maharashtra,Jalgaon,"Prabhat Colony, Jalgaon - MPCB",20-05-2024 09:00:00,21.001264,75.565602,PM10,86,423,170
India,Maharashtra,Jalgaon,"Prabhat Colony, Jalgaon - MPCB",20-05-2024 09:00:00,21.001264,75.565602,NH3,2,17,11
India,Maharashtra,Jalgaon,"Prabhat Colony, Jalgaon - MPCB",20-05-2024 09:00:00,21.001264,75.565602,SO2,1,7,3
India,Maharashtra,Jalna,"Old MIDC, Jalna - MPCB",20-05-2024 09:00:00,19.854616,75.905894,CO,18,26,23
India,Maharashtra,Kalyan,"Khadakpada, Kalyan - MPCB",20-05-2024 09:00:00,19.25292,73.142019,PM2.5,19,42,26
India,Maharashtra,Kolhapur,"Shivaji University, Kolhapur - MPCB",20-05-2024 09:00:00,16.6870449,74.2505872,PM2.5,64,173,102
India,Maharashtra,Kolhapur,"Sinchan Bhavan, Kolhapur - MPCB",20-05-2024 09:00:00,16.7143745,74.2426398,NO2,6,24,10
India,Maharashtra,Kolhapur,"Sinchan Bhavan, Kolhapur - MPCB",20-05-2024 09:00:00,16.7143745,74.2426398,CO,NA,NA,NA
India,Maharashtra,Latur,"Sawe Wadi, Latur - MPCB",20-05-2024 09:00:00,18.39963,76.57452,PM2.5,15,67,41
India,Maharashtra,Latur,"Sawe Wadi, Latur - MPCB",20-05-2024 09:00:00,18.39963,76.57452,CO,2,110,8
India,Maharashtra,Mahad,"Kamble Tarf Birwadi, Mahad - MPCB",20-05-2024 09:00:00,18.1023399,73.4783687,NO2,14,53,23
India,Maharashtra,Mahad,"Kamble Tarf Birwadi, Mahad - MPCB",20-05-2024 09:00:00,18.1023399,73.4783687,SO2,10,112,38
India,Maharashtra,Malegaon,"Mahesh Nagar, Malegaon - MPCB",20-05-2024 09:00:00,20.555712,74.529236,PM2.5,107,234,155
India,Maharashtra,Malegaon,"Mahesh Nagar, Malegaon - MPCB",20-05-2024 09:00:00,20.555712,74.529236,NH3,6,11,7
India,Maharashtra,Malegaon,"Mahesh Nagar, Malegaon - MPCB",20-05-2024 09:00:00,20.555712,74.529236,CO,10,52,30
India,Maharashtra,Mira-Bhayandar,"Bhayandar West, Mira-Bhayandar - MPCB",20-05-2024 09:00:00,19.296481,72.840923,SO2,1,6,4
India,Maharashtra,Mumbai,"Bandra Kurla Complex, Mumbai - MPCB",20-05-2024 09:00:00,19.065931,72.862131,NH3,8,23,14
India,Maharashtra,Mumbai,"Bandra Kurla Complex, Mumbai - MPCB",20-05-2024 09:00:00,19.065931,72.862131,OZONE,11,63,20
India,Maharashtra,Mumbai,"Borivali East, Mumbai - IITM",20-05-2024 09:00:00,19.23241,72.86895,PM2.5,25,57,41
India,Maharashtra,Mumbai,"Borivali East, Mumbai - IITM",20-05-2024 09:00:00,19.23241,72.86895,NO2,27,54,36
India,Maharashtra,Mumbai,"Byculla, Mumbai - BMC",20-05-2024 09:00:00,18.9767,72.8380,PM10,19,52,36
India,Maharashtra,Mumbai,"Chakala-Andheri East, Mumbai - IITM",20-05-2024 09:00:00,19.11074,72.86084,NO2,38,51,43
India,Maharashtra,Mumbai,"Chhatrapati Shivaji Intl. Airport (T2), Mumbai - MPCB",20-05-2024 09:00:00,19.10078,72.87462,PM2.5,22,57,37
India,Maharashtra,Mumbai,"Chhatrapati Shivaji Intl. Airport (T2), Mumbai - MPCB",20-05-2024 09:00:00,19.10078,72.87462,NO2,NA,NA,NA
India,Maharashtra,Mumbai,"Chhatrapati Shivaji Intl. Airport (T2), Mumbai - MPCB",20-05-2024 09:00:00,19.10078,72.87462,SO2,17,21,19
India,Maharashtra,Mumbai,"Colaba, Mumbai - MPCB",20-05-2024 09:00:00,18.910000,72.820000,PM2.5,17,49,32
India,Maharashtra,Mumbai,"Deonar, Mumbai - IITM",20-05-2024 09:00:00,19.04946,72.9230,PM2.5,12,100,43
India,Maharashtra,Mumbai,"Deonar, Mumbai - IITM",20-05-2024 09:00:00,19.04946,72.9230,SO2,5,18,14
India,Maharashtra,Mumbai,"Ghatkopar, Mumbai - BMC",20-05-2024 09:00:00,19.083694,72.920967,PM10,26,56,42
India,Maharashtra,Mumbai,"Kandivali East, Mumbai - MPCB",20-05-2024 09:00:00,19.205800,72.868200,SO2,8,10,9
India,Maharashtra,Mumbai,"Kandivali East, Mumbai - MPCB",20-05-2024 09:00:00,19.205800,72.868200,CO,30,33,32
India,Maharashtra,Mumbai,"Kandivali East, Mumbai - MPCB",20-05-2024 09:00:00,19.205800,72.868200,OZONE,26,109,55
India,Maharashtra,Mumbai,"Kherwadi_Bandra East, Mumbai - MPCB",20-05-2024 09:00:00,19.0632143,72.8456324,NO2,4,14,9
India,Maharashtra,Mumbai,"Khindipada-Bhandup West, Mumbai - IITM",20-05-2024 09:00:00,19.1653323,72.922099,PM10,29,95,58
India,Maharashtra,Mumbai,"Mindspace-Malad West, Mumbai - MPCB",20-05-2024 09:00:00,19.1878657,72.8304069,NH3,6,7,7
India,Maharashtra,Mumbai,"Mulund West, Mumbai - MPCB",20-05-2024 09:00:00,19.1750,72.9419,PM2.5,32,79,49
India,Maharashtra,Mumbai,"Mulund West, Mumbai - MPCB",20-05-2024 09:00:00,19.1750,72.9419,SO2,12,13,12
India,Maharashtra,Mumbai,"Sewri, Mumbai - BMC",20-05-2024 09:00:00,19.000084,72.856730,NO2,NA,NA,NA
India,Maharashtra,Mumbai,"Sewri, Mumbai - BMC",20-05-2024 09:00:00,19.000084,72.856730,SO2,NA,NA,NA
India,Maharashtra,Mumbai,"Sewri, Mumbai - BMC",20-05-2024 09:00:00,19.000084,72.856730,CO,8,20,9
India,Maharashtra,Mumbai,"Sewri, Mumbai - BMC",20-05-2024 09:00:00,19.000084,72.856730,OZONE,21,43,29
India,Maharashtra,Mumbai,"Siddharth Nagar-Worli, Mumbai - IITM",20-05-2024 09:00:00,19.000083,72.813993,PM2.5,51,98,77
India,Maharashtra,Mumbai,"Sion, Mumbai - MPCB",20-05-2024 09:00:00,19.047000,72.874600,SO2,NA,NA,NA
India,Maharashtra,Mumbai,"Vasai West, Mumbai - MPCB",20-05-2024 09:00:00,19.383200,72.820400,PM2.5,15,56,38
India,Maharashtra,Mumbai,"Vasai West, Mumbai - MPCB",20-05-2024 09:00:00,19.383200,72.820400,CO,7,21,11
India,Maharashtra,Mumbai,"Worli, Mumbai - MPCB",20-05-2024 09:00:00,18.9936162,72.8128113,PM2.5,17,45,30
India,Maharashtra,Nagpur,"Ambazari, Nagpur - MPCB",20-05-2024 09:00:00,21.121801,79.04952,NH3,1,8,3
India,Maharashtra,Nagpur,"Ambazari, Nagpur - MPCB",20-05-2024 09:00:00,21.121801,79.04952,OZONE,9,104,23
India,Maharashtra,Nagpur,"Mahal, Nagpur - MPCB",20-05-2024 09:00:00,21.14472,79.107595,PM2.5,2,412,60
India,Maharashtra,Nagpur,"Opp GPO Civil Lines, Nagpur - MPCB",20-05-2024 09:00:00,21.152875,79.0517531,PM10,27,107,52
India,Maharashtra,Nagpur,"Opp GPO Civil Lines, Nagpur - MPCB",20-05-2024 09:00:00,21.152875,79.0517531,CO,3,98,21
India,Maharashtra,Nashik,"Gangapur Road, Nashik - MPCB",20-05-2024 09:00:00,20.0073285,73.7762427,PM2.5,50,90,67
India,Maharashtra,Nashik,"Gangapur Road, Nashik - MPCB",20-05-2024 09:00:00,20.0073285,73.7762427,NO2,1,15,7
India,Maharashtra,Nashik,"MIDC Ambad, Nashik - MPCB",20-05-2024 09:00:00,19.950220,73.731480,NH3,NA,NA,NA
India,Maharashtra,Nashik,"MIDC Ambad, Nashik - MPCB",20-05-2024 09:00:00,19.950220,73.731480,OZONE,44,79,44
India,Maharashtra,Nashik,"Pandav Nagari, Nashik - MPCB",20-05-2024 09:00:00,19.9591346,73.7788008,PM10,3,294,84
India,Maharashtra,Navi Mumbai,"Kopripada-Vashi, Navi Mumbai - MPCB",20-05-2024 09:00:00,19.090337,73.014232,OZONE,NA,NA,NA
India,Maharashtra,Navi Mumbai,"Nerul, Navi Mumbai - MPCB",20-05-2024 09:00:00,19.008751,73.016620,PM2.5,35,78,55
India,Maharashtra,Navi Mumbai,"Nerul, Navi Mumbai - MPCB",20-05-2024 09:00:00,19.008751,73.016620,CO,20,24,23
India,Maharashtra,Navi Mumbai,"Nerul, Navi Mumbai - MPCB",20-05-2024 09:00:00,19.008751,73.016620,OZONE,26,32,31
India,Maharashtra,Navi Mumbai,"Sanpada, Navi Mumbai - MPCB",20-05-2024 09:00:00,19.0575752,73.0151367,OZONE,1,73,20
India,Maharashtra,Navi Mumbai,"Sector-19A Nerul, Navi Mumbai - IITM",20-05-2024 09:00:00,19.044,73.0325,PM10,NA,NA,NA
India,Maharashtra,Navi Mumbai,"Sector-2E Kalamboli, Navi Mumbai - MPCB",20-05-2024 09:00:00,19.02579,73.10297,SO2,1,5,3
India,Maharashtra,Navi Mumbai,"Sector-2E Kalamboli, Navi Mumbai - MPCB",20-05-2024 09:00:00,19.02579,73.10297,OZONE,7,39,15
India,Maharashtra,Pimpri-Chinchwad,"Park Street Wakad, Pimpri Chinchwad - MPCB",20-05-2024 09:00:00,18.59051,73.77946,PM10,82,132,109
India,Maharashtra,Pimpri-Chinchwad,"Thergaon, Pimpri Chinchwad - MPCB",20-05-2024 09:00:00,18.616318,73.765797,PM10,48,75,60
India,Maharashtra,Pune,"Bhosari, Pune - IITM",20-05-2024 09:00:00,18.640051,73.848956,PM10,55,91,71
India,Maharashtra,Pune,"Karve Road, Pune - MPCB",20-05-2024 09:00:00,18.5011743,73.8165527,PM10,31,500,91
India,Maharashtra,Pune,"Transport Nagar-Nigdi, Pune - IITM",20-05-2024 09:00:00,18.664282,73.763966,PM2.5,48,108,76
India,Maharashtra,Pune,"Transport Nagar-Nigdi, Pune - IITM",20-05-2024 09:00:00,18.664282,73.763966,CO,45,65,55
India,Maharashtra,Pune,"Transport Nagar-Nigdi, Pune - IITM",20-05-2024 09:00:00,18.664282,73.763966,OZONE,12,70,17
India,Maharashtra,Solapur,"Dnyaneshwar Nagar, Solapur - MPCB",20-05-2024 09:00:00,17.6336264,75.9132495,PM10,47,84,65
India,Maharashtra,Thane,"Kasarvadavali, Thane - MPCB",20-05-2024 09:00:00,19.26777,72.97182,NH3,3,5,4
India,Maharashtra,Thane,"Kasarvadavali, Thane - MPCB",20-05-2024 09:00:00,19.26777,72.97182,CO,8,20,14
India,Maharashtra,Thane,"Kasarvadavali, Thane - MPCB",20-05-2024 09:00:00,19.26777,72.97182,OZONE,12,61,20
India,Maharashtra,Thane,"Pimpleshwar Mandir, Thane - MPCB",20-05-2024 09:00:00,19.192056,72.9585188,CO,10,54,28
India,Maharashtra,Thane,"Pimpleshwar Mandir, Thane - MPCB",20-05-2024 09:00:00,19.192056,72.9585188,OZONE,7,61,10
India,Maharashtra,Ulhasnagar,"Sidhi Vinayak Nagar, Ulhasnagar - MPCB",20-05-2024 09:00:00,19.235581,73.159121,CO,19,42,27
India,Maharashtra,Virar,"Bolinj, Virar - MPCB",20-05-2024 09:00:00,19.4458210,72.7988231,CO,10,54,24
India,Manipur,Imphal,"DM College of Science, Imphal - Manipur PCB",20-05-2024 09:00:00,24.8207389,93.9423085,NO2,7,8,7
India,Manipur,Imphal,"DM College of Science, Imphal - Manipur PCB",20-05-2024 09:00:00,24.8207389,93.9423085,NH3,2,2,2
India,Manipur,Imphal,"DM College of Science, Imphal - Manipur PCB",20-05-2024 09:00:00,24.8207389,93.9423085,SO2,98,101,99
India,Manipur,Imphal,"DM College of Science, Imphal - Manipur PCB",20-05-2024 09:00:00,24.8207389,93.9423085,CO,6,6,6
India,Manipur,Imphal,"Manipur University, Imphal - Manipur PCB",20-05-2024 09:00:00,24.7524239,93.9286218,NH3,1,1,1
India,Meghalaya,Shillong,"Lumpyngngad, Shillong - Meghalaya PCB",20-05-2024 09:00:00,25.5586,91.8985,PM10,NA,NA,NA
India,Mizoram,Aizawl,"Sikulpuikawn, Aizawl - Mizoram PCB",20-05-2024 09:00:00,23.7176342,92.7192841,CO,10,14,12
India,Mizoram,Aizawl,"Sikulpuikawn, Aizawl - Mizoram PCB",20-05-2024 09:00:00,23.7176342,92.7192841,OZONE,3,19,6
India,Nagaland,Kohima,"PWD Juction, Kohima - NPCB",20-05-2024 09:00:00,25.6635413,94.0989878,CO,12,22,15
India,Nagaland,Kohima,"PWD Juction, Kohima - NPCB",20-05-2024 09:00:00,25.6635413,94.0989878,OZONE,6,16,9
India,Odisha,Angul,"Hakimapada, Angul - OSPCB",20-05-2024 09:00:00,20.832874,85.104082,NO2,2,35,11
India,Odisha,Angul,"Hakimapada, Angul - OSPCB",20-05-2024 09:00:00,20.832874,85.104082,SO2,7,112,31
India,Odisha,Balasore,"Kalidaspur, Balasore - OSPCB",20-05-2024 09:00:00,21.51161,86.89088,NO2,1,10,1
India,Odisha,Barbil,"Forest Office, Barbil - OSPCB",20-05-2024 09:00:00,22.1166054,85.3945546,CO,13,46,27
India,Odisha,Baripada,"Meher Colony, Baripada - OSPCB",20-05-2024 09:00:00,21.941841,86.728318,PM10,42,88,54
India,Odisha,Bhubaneswar,"Lingraj Mandir, Bhubaneswar - OSPCB",20-05-2024 09:00:00,20.240790,85.836784,NO2,4,25,12
India,Odisha,Bhubaneswar,"Lingraj Mandir, Bhubaneswar - OSPCB",20-05-2024 09:00:00,20.240790,85.836784,OZONE,7,63,14
India,Odisha,Bileipada,"Tata Township, Bileipada - OSPCB",20-05-2024 09:00:00,22.06156703,85.47409613,PM10,72,150,103
India,Odisha,Bileipada,"Tata Township, Bileipada - OSPCB",20-05-2024 09:00:00,22.06156703,85.47409613,SO2,16,46,29
India,Odisha,Brajrajnagar,"GM Office, Brajrajnagar - OSPCB",20-05-2024 09:00:00,21.8004996,83.8396977,PM2.5,10,46,27
India,Odisha,Brajrajnagar,"GM Office, Brajrajnagar - OSPCB",20-05-2024 09:00:00,21.8004996,83.8396977,NO2,16,25,17
India,Odisha,Byasanagar,"Ferro Chrome Colony, Byasanagar - OSPCB",20-05-2024 09:00:00,20.94185,86.11510,CO,65,92,74
India,Odisha,Cuttack,"CDA Area, Cuttack - OSPCB",20-05-2024 09:00:00,20.48891     ,85.84768     ,CO,14,35,23
India,Odisha,Keonjhar,"Jagamohanpur, Keonjhar - OSPCB",20-05-2024 09:00:00,21.643900,85.599355,NH3,2,4,3
India,Odisha,Keonjhar,"Jagamohanpur, Keonjhar - OSPCB",20-05-2024 09:00:00,21.643900,85.599355,OZONE,16,16,16
India,Odisha,Nayagarh,"Dabuna, Nayagarh - OSPCB",20-05-2024 09:00:00,21.847279,85.416905,PM10,37,103,61
India,Odisha,Nayagarh,"Dabuna, Nayagarh - OSPCB",20-05-2024 09:00:00,21.847279,85.416905,NH3,5,5,5
India,Odisha,Rairangpur,"Divisional Forest Office, Rairangpur - OSPCB",20-05-2024 09:00:00,22.265816,86.174829,OZONE,4,15,9
India,Odisha,Rourkela,"Raghunathpali, Rourkela - OSPCB",20-05-2024 09:00:00,22.220833,84.809444,NH3,2,3,3
India,Odisha,Rourkela,"Sector-2, Rourkela - OSPCB",20-05-2024 09:00:00,22.24500000,84.88111111,PM2.5,35,92,65
India,Odisha,Suakati,"OMC Colony, Suakati - OSPCB",20-05-2024 09:00:00,21.606865,85.510538,OZONE,11,67,37
India,Odisha,Talcher,"Talcher Coalfields,Talcher - OSPCB",20-05-2024 09:00:00,20.9360711,85.1707021,NO2,18,21,20
India,Odisha,Talcher,"Talcher Coalfields,Talcher - OSPCB",20-05-2024 09:00:00,20.9360711,85.1707021,NH3,3,4,3
India,Odisha,Talcher,"Talcher Coalfields,Talcher - OSPCB",20-05-2024 09:00:00,20.9360711,85.1707021,SO2,22,92,35
India,Odisha,Tensa,"Barsua Iron Ore Mines, Tensa - OSPCB",20-05-2024 09:00:00,21.869985,85.167016,PM2.5,24,40,31
India,Odisha,Tensa,"Barsua Iron Ore Mines, Tensa - OSPCB",20-05-2024 09:00:00,21.869985,85.167016,PM10,25,56,43
India,Odisha,Tensa,"Barsua Iron Ore Mines, Tensa - OSPCB",20-05-2024 09:00:00,21.869985,85.167016,SO2,1,25,6
India,Odisha,Tensa,"Barsua Iron Ore Mines, Tensa - OSPCB",20-05-2024 09:00:00,21.869985,85.167016,CO,12,26,19
India,Puducherry,Puducherry,"Jawahar Nagar, Puducherry - PPCC",20-05-2024 09:00:00,11.9309,79.8027,PM10,3,44,18
India,Puducherry,Puducherry,"Jawahar Nagar, Puducherry - PPCC",20-05-2024 09:00:00,11.9309,79.8027,NH3,3,5,4
India,Punjab,Amritsar,"Golden Temple, Amritsar - PPCB",20-05-2024 09:00:00,31.620000,74.876512,PM10,85,115,103
India,Punjab,Amritsar,"Golden Temple, Amritsar - PPCB",20-05-2024 09:00:00,31.620000,74.876512,NH3,5,7,5
India,Punjab,Bathinda,"Hardev Nagar, Bathinda - PPCB",20-05-2024 09:00:00,30.233011,74.907758,PM2.5,58,96,75
India,Punjab,Jalandhar,"Civil Line, Jalandhar - PPCB",20-05-2024 09:00:00,31.321907,75.578914,PM10,66,145,106
India,Punjab,Jalandhar,"Civil Line, Jalandhar - PPCB",20-05-2024 09:00:00,31.321907,75.578914,NH3,5,5,5
India,Punjab,Jalandhar,"Civil Line, Jalandhar - PPCB",20-05-2024 09:00:00,31.321907,75.578914,CO,7,62,46
India,Punjab,Khanna,"Kalal Majra, Khanna - PPCB",20-05-2024 09:00:00,30.736056 ,76.209694,NH3,NA,NA,NA
India,Punjab,Khanna,"Kalal Majra, Khanna - PPCB",20-05-2024 09:00:00,30.736056 ,76.209694,CO,7,43,37
India,Punjab,Ludhiana,"Punjab Agricultural University, Ludhiana - PPCB",20-05-2024 09:00:00,30.9028,75.8086,NH3,NA,NA,NA
India,Punjab,Mandi Gobindgarh,"RIMT University, Mandi Gobindgarh - PPCB",20-05-2024 09:00:00,30.649961,76.331442,PM2.5,88,392,273
India,Punjab,Patiala,"Model Town, Patiala - PPCB",20-05-2024 09:00:00,30.349388,76.366642,OZONE,19,101,28
India,Punjab,Rupnagar,"Ratanpura, Rupnagar - Ambuja Cements",20-05-2024 09:00:00,31.0325454,76.5623046,PM2.5,36,206,108
India,Rajasthan,Ajmer,"Civil Lines,  Ajmer - RSPCB",20-05-2024 09:00:00,26.470859,74.646594,CO,5,58,31
India,Rajasthan,Alwar,"Moti Doongri, Alwar - RSPCB",20-05-2024 09:00:00,27.554793,76.611536,NH3,2,5,4
India,Rajasthan,Alwar,"Moti Doongri, Alwar - RSPCB",20-05-2024 09:00:00,27.554793,76.611536,CO,25,57,38
India,Rajasthan,Banswara,"Rati Talai, Banswara - RSPCB",20-05-2024 09:00:00,23.555190,74.440010,NH3,4,6,5
India,Rajasthan,Baran,"Bamboliya, Baran - RSPCB",20-05-2024 09:00:00,25.106006,76.469948,NO2,4,34,12
India,Rajasthan,Barmer,"Railway Colony, Barmer - RSPCB",20-05-2024 09:00:00,25.747299,71.393989,PM10,72,156,113
India,Rajasthan,Barmer,"Railway Colony, Barmer - RSPCB",20-05-2024 09:00:00,25.747299,71.393989,NO2,6,16,10
India,Rajasthan,Barmer,"Railway Colony, Barmer - RSPCB",20-05-2024 09:00:00,25.747299,71.393989,SO2,1,3,2
India,Rajasthan,Barmer,"Railway Colony, Barmer - RSPCB",20-05-2024 09:00:00,25.747299,71.393989,CO,66,78,68
India,Rajasthan,Bharatpur,"Krishna Nagar, Bharatpur - RSPCB",20-05-2024 09:00:00,27.215415,77.50873,PM2.5,81,324,158
India,Rajasthan,Bharatpur,"Krishna Nagar, Bharatpur - RSPCB",20-05-2024 09:00:00,27.215415,77.50873,OZONE,26,301,56
India,Rajasthan,Bhilwara,"Pratap Nagar, Bhilwara - RSPCB",20-05-2024 09:00:00,25.339605,74.618883,PM10,41,103,65
India,Rajasthan,Bhilwara,"Pratap Nagar, Bhilwara - RSPCB",20-05-2024 09:00:00,25.339605,74.618883,CO,8,42,36
India,Rajasthan,Bhiwadi,"RIICO Ind. Area III, Bhiwadi - RSPCB",20-05-2024 09:00:00,28.194909,76.862296,NH3,3,15,8
India,Rajasthan,Bhiwadi,"Vasundhara Nagar_UIT, Bhiwadi - RSPCB",20-05-2024 09:00:00,28.207266,76.829265,PM2.5,24,197,75
India,Rajasthan,Bhiwadi,"Vasundhara Nagar_UIT, Bhiwadi - RSPCB",20-05-2024 09:00:00,28.207266,76.829265,CO,12,34,24
India,Rajasthan,Bikaner,"MM Ground, Bikaner - RSPCB",20-05-2024 09:00:00,28.018792,73.292658,PM10,100,496,171
India,Rajasthan,Bundi,"New Colony, Bundi - RSPCB",20-05-2024 09:00:00,25.435774,75.644272,NO2,6,21,11
India,Rajasthan,Chittorgarh,"Shastri Nagar, Chittorgarh - RSPCB",20-05-2024 09:00:00,24.892047,74.623527,NO2,5,10,7
India,Rajasthan,Dausa,"Khatikan Mohalla, Dausa - RSPCB",20-05-2024 09:00:00,26.895552,76.334753,PM10,110,332,183
India,Rajasthan,Dausa,"Khatikan Mohalla, Dausa - RSPCB",20-05-2024 09:00:00,26.895552,76.334753,SO2,1,16,5
India,Rajasthan,Jaipur,"Adarsh Nagar, Jaipur - RSPCB",20-05-2024 09:00:00,26.902909,75.836858,NO2,20,106,43
India,Rajasthan,Jaipur,"Adarsh Nagar, Jaipur - RSPCB",20-05-2024 09:00:00,26.902909,75.836858,NH3,3,9,5
India,Rajasthan,Jaipur,"Adarsh Nagar, Jaipur - RSPCB",20-05-2024 09:00:00,26.902909,75.836858,CO,12,60,37
India,Rajasthan,Jaipur,"Police Commissionerate, Jaipur - RSPCB",20-05-2024 09:00:00,26.9164092,75.7994901,PM10,72,341,173
India,Rajasthan,Jaipur,"RIICO Sitapura, Jaipur - RSPCB",20-05-2024 09:00:00,26.786682,75.827928,CO,26,104,99
India,Rajasthan,Jaipur,"Sector-2 Murlipura, Jaipur - RSPCB",20-05-2024 09:00:00,26.960669,75.771817,PM2.5,67,370,128
India,Rajasthan,Jaipur,"Sector-2 Murlipura, Jaipur - RSPCB",20-05-2024 09:00:00,26.960669,75.771817,NH3,1,8,3
India,Rajasthan,Jaipur,"Sector-2 Murlipura, Jaipur - RSPCB",20-05-2024 09:00:00,26.960669,75.771817,CO,46,93,72
India,Rajasthan,Jaipur,"Sector-2 Murlipura, Jaipur - RSPCB",20-05-2024 09:00:00,26.960669,75.771817,OZONE,15,128,34
India,Rajasthan,Jaisalmer,"Sadar Bazar, Jaisalmer - RSPCB",20-05-2024 09:00:00,26.912329,70.909168,NO2,11,28,21
India,Rajasthan,Jaisalmer,"Sadar Bazar, Jaisalmer - RSPCB",20-05-2024 09:00:00,26.912329,70.909168,NH3,2,23,9
India,Rajasthan,Jalore,"Mudtra Sili, Jalore - RSPCB",20-05-2024 09:00:00,25.344694,72.626208,PM10,104,281,130
India,Rajasthan,Jhunjhunu,"Indra Nagar, Jhunjhunu - RSPCB",20-05-2024 09:00:00,28.108988,75.386577,NH3,13,26,20
India,Rajasthan,Jhunjhunu,"Indra Nagar, Jhunjhunu - RSPCB",20-05-2024 09:00:00,28.108988,75.386577,CO,13,36,20
India,Rajasthan,Jodhpur,"Collectorate, Jodhpur - RSPCB",20-05-2024 09:00:00,26.268249,73.0193853,PM2.5,49,177,94
India,Rajasthan,Jodhpur,"Collectorate, Jodhpur - RSPCB",20-05-2024 09:00:00,26.268249,73.0193853,PM10,48,252,125
India,Rajasthan,Jodhpur,"Collectorate, Jodhpur - RSPCB",20-05-2024 09:00:00,26.268249,73.0193853,CO,2,105,53
India,Rajasthan,Jodhpur,"Digari Kalan, Jodhpur - RSPCB",20-05-2024 09:00:00,26.295810,73.082283,PM10,67,196,127
India,Rajasthan,Jodhpur,"Digari Kalan, Jodhpur - RSPCB",20-05-2024 09:00:00,26.295810,73.082283,NH3,3,6,4
India,Rajasthan,Jodhpur,"Jhalamand, Jodhpur - RSPCB",20-05-2024 09:00:00,26.215415,73.070156,NH3,3,10,6
India,Rajasthan,Jodhpur,"Samrat Ashok Udhyan, Jodhpur - RSPCB",20-05-2024 09:00:00,26.253384,72.976571,NH3,2,5,4
India,Rajasthan,Jodhpur,"Samrat Ashok Udhyan, Jodhpur - RSPCB",20-05-2024 09:00:00,26.253384,72.976571,CO,12,46,19
India,Rajasthan,Karauli,"Satyawati Vihar, Karauli - RSPCB",20-05-2024 09:00:00,26.506177,77.025989,PM2.5,NA,NA,NA
India,Rajasthan,Karauli,"Satyawati Vihar, Karauli - RSPCB",20-05-2024 09:00:00,26.506177,77.025989,SO2,3,36,22
India,Rajasthan,Kota,"Dhanmandi, Kota - RSPCB",20-05-2024 09:00:00,25.164090,75.858137,CO,1,87,8
India,Rajasthan,Kota,"Nayapura, Kota - RSPCB",20-05-2024 09:00:00,25.196024,75.855668,NH3,2,4,3
India,Rajasthan,Kota,"Nayapura, Kota - RSPCB",20-05-2024 09:00:00,25.196024,75.855668,SO2,4,8,6
India,Rajasthan,Nagaur,"Karni Colony, Nagaur - RSPCB",20-05-2024 09:00:00,27.213494,73.734444,PM2.5,22,59,40
India,Rajasthan,Nagaur,"Karni Colony, Nagaur - RSPCB",20-05-2024 09:00:00,27.213494,73.734444,SO2,2,8,5
India,Rajasthan,Pali,"Indira Colony Vistar, Pali - RSPCB",20-05-2024 09:00:00,25.771061, 73.340227,PM10,100,152,127
India,Rajasthan,Pali,"Indira Colony Vistar, Pali - RSPCB",20-05-2024 09:00:00,25.771061, 73.340227,OZONE,29,107,45
India,Rajasthan,Rajsamand,"Dhoinda, Rajsamand - RSPCB",20-05-2024 09:00:00,25.036360,73.883502,CO,15,32,28
India,Rajasthan,Sawai Madhopur,"Sahu Nagar, Sawai Madhopur - RSPCB",20-05-2024 09:00:00,26.031443,76.359327,PM10,94,177,120
India,Rajasthan,Sawai Madhopur,"Sahu Nagar, Sawai Madhopur - RSPCB",20-05-2024 09:00:00,26.031443,76.359327,CO,12,121,46
India,Rajasthan,Sri Ganganagar,"Old City, Sri Ganganagar - RSPCB",20-05-2024 09:00:00,29.931624,73.864511,PM10,131,339,198
India,Rajasthan,Sri Ganganagar,"Old City, Sri Ganganagar - RSPCB",20-05-2024 09:00:00,29.931624,73.864511,NH3,13,21,16
India,Rajasthan,Udaipur,"Ashok Nagar, Udaipur - RSPCB",20-05-2024 09:00:00,24.5886166,73.6321397,PM2.5,41,188,91
India,Rajasthan,Udaipur,"Ashok Nagar, Udaipur - RSPCB",20-05-2024 09:00:00,24.5886166,73.6321397,NH3,2,5,4
India,Rajasthan,Udaipur,"Ashok Nagar, Udaipur - RSPCB",20-05-2024 09:00:00,24.5886166,73.6321397,CO,2,111,17
India,TamilNadu,Ariyalur,"Keelapalur, Ariyalur - TNPCB",20-05-2024 09:00:00,11.06825,79.07033,PM2.5,9,38,21
India,TamilNadu,Chennai,"Alandur Bus Depot, Chennai - CPCB",20-05-2024 09:00:00,12.9099161,80.1076538,PM2.5,23,23,23
India,TamilNadu,Chennai,"Alandur Bus Depot, Chennai - CPCB",20-05-2024 09:00:00,12.9099161,80.1076538,SO2,1,14,4
India,TamilNadu,Chennai,"Kodungaiyur, Chennai - TNPCB",20-05-2024 09:00:00,13.1278,80.2642,PM2.5,2,15,8
India,TamilNadu,Chennai,"Kodungaiyur, Chennai - TNPCB",20-05-2024 09:00:00,13.1278,80.2642,PM10,NA,NA,NA
India,TamilNadu,Chennai,"Kodungaiyur, Chennai - TNPCB",20-05-2024 09:00:00,13.1278,80.2642,NH3,3,5,4
India,TamilNadu,Chennai,"Manali, Chennai - CPCB",20-05-2024 09:00:00,13.164544,80.26285,SO2,1,8,4
India,TamilNadu,Chennai,"Royapuram, Chennai - TNPCB",20-05-2024 09:00:00,13.1036,80.2909,PM10,NA,NA,NA
India,TamilNadu,Chennai,"Royapuram, Chennai - TNPCB",20-05-2024 09:00:00,13.1036,80.2909,NO2,7,13,10
India,TamilNadu,Chennai,"Royapuram, Chennai - TNPCB",20-05-2024 09:00:00,13.1036,80.2909,SO2,3,9,5
India,TamilNadu,Chennai,"Velachery Res. Area, Chennai - CPCB",20-05-2024 09:00:00,13.0052189,80.2398125,SO2,11,11,11
India,TamilNadu,Coimbatore,"PSG College of Arts and Science, Coimbatore - TNPCB",20-05-2024 09:00:00,11.0328,77.0349,NO2,1,3,2
India,TamilNadu,Coimbatore,"PSG College of Arts and Science, Coimbatore - TNPCB",20-05-2024 09:00:00,11.0328,77.0349,SO2,35,43,40
India,TamilNadu,Cuddalore,"Semmandalam, Cuddalore - TNPCB",20-05-2024 09:00:00,11.7637683,79.7499835,PM2.5,12,44,20
India,TamilNadu,Cuddalore,"Semmandalam, Cuddalore - TNPCB",20-05-2024 09:00:00,11.7637683,79.7499835,NO2,3,14,7
India,TamilNadu,Ooty,"Bombay Castel, Ooty - TNPCB",20-05-2024 09:00:00,11.4068288,76.7138973,PM2.5,15,78,42
India,TamilNadu,Ooty,"Bombay Castel, Ooty - TNPCB",20-05-2024 09:00:00,11.4068288,76.7138973,SO2,15,15,15
India,TamilNadu,Ramanathapuram,"Chalai Bazaar, Ramanathapuram - TNPCB",20-05-2024 09:00:00,9.36399,78.831977,PM10,7,61,27
India,TamilNadu,Ramanathapuram,"Chalai Bazaar, Ramanathapuram - TNPCB",20-05-2024 09:00:00,9.36399,78.831977,NH3,1,1,1
India,TamilNadu,Ramanathapuram,"Chalai Bazaar, Ramanathapuram - TNPCB",20-05-2024 09:00:00,9.36399,78.831977,OZONE,13,14,14
India,TamilNadu,Thoothukudi,"Meelavittan, Thoothukudi - TNPCB",20-05-2024 09:00:00,8.816428 ,78.099039,NO2,18,30,22
India,TamilNadu,Thoothukudi,"Meelavittan, Thoothukudi - TNPCB",20-05-2024 09:00:00,8.816428 ,78.099039,SO2,5,9,7
India,TamilNadu,Thoothukudi,"Meelavittan, Thoothukudi - TNPCB",20-05-2024 09:00:00,8.816428 ,78.099039,CO,36,146,115
India,TamilNadu,Vellore,"Vasanthapuram, Vellore - TNPCB",20-05-2024 09:00:00,12.909494,79.131861,PM2.5,20,68,37
India,Telangana,Hyderabad,"Bollaram Industrial Area, Hyderabad - TSPCB",20-05-2024 09:00:00,17.540891,78.358528,OZONE,19,36,34
India,Telangana,Hyderabad,"Central University, Hyderabad - TSPCB",20-05-2024 09:00:00,17.460103,78.334361,PM10,12,67,32
India,Telangana,Hyderabad,"Central University, Hyderabad - TSPCB",20-05-2024 09:00:00,17.460103,78.334361,NH3,3,6,4
India,Telangana,Hyderabad,"ICRISAT Patancheru, Hyderabad - TSPCB",20-05-2024 09:00:00,17.518400,78.278777,CO,17,51,26
India,Telangana,Hyderabad,"IITH Kandi, Hyderabad - TSPCB",20-05-2024 09:00:00,17.585705,78.126199,PM10,NA,NA,NA
India,Telangana,Hyderabad,"IITH Kandi, Hyderabad - TSPCB",20-05-2024 09:00:00,17.585705,78.126199,CO,4,33,9
India,Telangana,Hyderabad,"IITH Kandi, Hyderabad - TSPCB",20-05-2024 09:00:00,17.585705,78.126199,OZONE,22,33,22
India,Telangana,Hyderabad,"Kompally Municipal Office, Hyderabad - TSPCB",20-05-2024 09:00:00,17.544899,78.486949,SO2,NA,NA,NA
India,Telangana,Hyderabad,"Sanathnagar, Hyderabad - TSPCB",20-05-2024 09:00:00,17.4559458,78.4332152,NO2,65,420,207
India,Telangana,Hyderabad,"Zoo Park, Hyderabad - TSPCB",20-05-2024 09:00:00,17.349694,78.451437,PM10,NA,NA,NA
India,Uttar_Pradesh,Agra,"Manoharpur, Agra - UPPCB",20-05-2024 09:00:00,27.23711,78.01936,PM10,21,60,33
India,Uttar_Pradesh,Agra,"Manoharpur, Agra - UPPCB",20-05-2024 09:00:00,27.23711,78.01936,NH3,2,5,4
India,Uttar_Pradesh,Agra,"Manoharpur, Agra - UPPCB",20-05-2024 09:00:00,27.23711,78.01936,OZONE,2,73,9
India,Uttar_Pradesh,Agra,"Rohta, Agra - UPPCB",20-05-2024 09:00:00,27.106972,78.000111,NH3,4,4,4
India,Uttar_Pradesh,Agra,"Sanjay Palace, Agra - UPPCB",20-05-2024 09:00:00,27.19865833,78.00598056,SO2,1,17,8
India,Uttar_Pradesh,Agra,"Sector-3B Avas Vikas Colony, Agra - UPPCB",20-05-2024 09:00:00,27.19412,77.96237,PM2.5,NA,NA,NA
India,Uttar_Pradesh,Agra,"Sector-3B Avas Vikas Colony, Agra - UPPCB",20-05-2024 09:00:00,27.19412,77.96237,PM10,NA,NA,NA
India,Uttar_Pradesh,Agra,"Shahjahan Garden, Agra - UPPCB",20-05-2024 09:00:00,27.169338,78.03582,SO2,60,83,68
India,Uttar_Pradesh,Agra,"Shahjahan Garden, Agra - UPPCB",20-05-2024 09:00:00,27.169338,78.03582,CO,14,46,17
India,Uttar_Pradesh,Agra,"Shastripuram, Agra - UPPCB",20-05-2024 09:00:00,27.19862,77.92066,PM10,74,150,104
India,Uttar_Pradesh,Agra,"Shastripuram, Agra - UPPCB",20-05-2024 09:00:00,27.19862,77.92066,SO2,14,21,16
India,Uttar_Pradesh,Agra,"Shastripuram, Agra - UPPCB",20-05-2024 09:00:00,27.19862,77.92066,OZONE,1,20,1
India,Uttar_Pradesh,Bareilly,"Civil Lines, Bareilly - UPPCB",20-05-2024 09:00:00,28.359581,79.414455,NO2,2,3,2
India,Uttar_Pradesh,Bareilly,"Civil Lines, Bareilly - UPPCB",20-05-2024 09:00:00,28.359581,79.414455,NH3,1,2,1
India,Uttar_Pradesh,Bulandshahr,"Yamunapuram, Bulandshahr - UPPCB",20-05-2024 09:00:00,28.406963,77.849831,PM10,70,284,152
India,Uttar_Pradesh,Firozabad,"Nagla Bhau, Firozabad - UPPCB",20-05-2024 09:00:00,27.168897,78.376960,PM10,32,137,69
India,Uttar_Pradesh,Firozabad,"Nagla Bhau, Firozabad - UPPCB",20-05-2024 09:00:00,27.168897,78.376960,SO2,20,40,24
India,Uttar_Pradesh,Firozabad,"Vibhab Nagar, Firozabad - UPPCB",20-05-2024 09:00:00,27.1594,78.3953,CO,8,31,16
India,Uttar_Pradesh,Ghaziabad,"Indirapuram, Ghaziabad - UPPCB",20-05-2024 09:00:00,28.646233,77.358075,PM2.5,53,301,140
India,Uttar_Pradesh,Ghaziabad,"Loni, Ghaziabad - UPPCB",20-05-2024 09:00:00,28.757294,77.278792,NH3,1,11,4
India,Uttar_Pradesh,Ghaziabad,"Sanjay Nagar, Ghaziabad - UPPCB",20-05-2024 09:00:00,28.685382,77.453839,NH3,7,18,11
India,Uttar_Pradesh,Ghaziabad,"Sanjay Nagar, Ghaziabad - UPPCB",20-05-2024 09:00:00,28.685382,77.453839,CO,2,110,24
India,Uttar_Pradesh,Ghaziabad,"Vasundhara, Ghaziabad - UPPCB",20-05-2024 09:00:00,28.6603346,77.3572563,NO2,42,113,66
India,Uttar_Pradesh,Ghaziabad,"Vasundhara, Ghaziabad - UPPCB",20-05-2024 09:00:00,28.6603346,77.3572563,NH3,5,11,8
India,Uttar_Pradesh,Ghaziabad,"Vasundhara, Ghaziabad - UPPCB",20-05-2024 09:00:00,28.6603346,77.3572563,SO2,1,49,15
India,Uttar_Pradesh,Greater Noida,"Knowledge Park - III, Greater Noida - UPPCB",20-05-2024 09:00:00,28.47272,77.482000,PM10,189,384,264
India,Uttar_Pradesh,Greater Noida,"Knowledge Park - III, Greater Noida - UPPCB",20-05-2024 09:00:00,28.47272,77.482000,OZONE,4,260,20
India,Uttar_Pradesh,Hapur,"Anand Vihar, Hapur - UPPCB",20-05-2024 09:00:00,28.725645,77.749675,PM2.5,42,184,75
India,Uttar_Pradesh,Hapur,"Anand Vihar, Hapur - UPPCB",20-05-2024 09:00:00,28.725645,77.749675,PM10,100,175,125
India,Uttar_Pradesh,Hapur,"Anand Vihar, Hapur - UPPCB",20-05-2024 09:00:00,28.725645,77.749675,NO2,6,20,11
India,Uttar_Pradesh,Hapur,"Anand Vihar, Hapur - UPPCB",20-05-2024 09:00:00,28.725645,77.749675,CO,20,34,31
India,Uttar_Pradesh,Hapur,"Anand Vihar, Hapur - UPPCB",20-05-2024 09:00:00,28.725645,77.749675,OZONE,2,72,6
India,Uttar_Pradesh,Jhansi,"Shivaji Nagar, Jhansi - UPPCB",20-05-2024 09:00:00,25.4547,78.6039,PM2.5,NA,NA,NA
India,Uttar_Pradesh,Jhansi,"Shivaji Nagar, Jhansi - UPPCB",20-05-2024 09:00:00,25.4547,78.6039,CO,5,16,13
India,Uttar_Pradesh,Kanpur,"FTI Kidwai Nagar, Kanpur - UPPCB",20-05-2024 09:00:00,26.428282,80.327067,PM10,74,384,143
India,Uttar_Pradesh,Kanpur,"FTI Kidwai Nagar, Kanpur - UPPCB",20-05-2024 09:00:00,26.428282,80.327067,NO2,12,13,13
India,Uttar_Pradesh,Kanpur,"FTI Kidwai Nagar, Kanpur - UPPCB",20-05-2024 09:00:00,26.428282,80.327067,CO,29,68,44
India,Uttar_Pradesh,Kanpur,"NSI Kalyanpur, Kanpur - UPPCB",20-05-2024 09:00:00,26.509954,80.249612,PM2.5,13,178,110
India,Uttar_Pradesh,Kanpur,"NSI Kalyanpur, Kanpur - UPPCB",20-05-2024 09:00:00,26.509954,80.249612,SO2,20,42,24
India,Uttar_Pradesh,Kanpur,"NSI Kalyanpur, Kanpur - UPPCB",20-05-2024 09:00:00,26.509954,80.249612,OZONE,4,40,32
India,Uttar_Pradesh,Kanpur,"Nehru Nagar, Kanpur - UPPCB",20-05-2024 09:00:00,26.4703136,80.3229863,NO2,2,34,13
India,Uttar_Pradesh,Kanpur,"Nehru Nagar, Kanpur - UPPCB",20-05-2024 09:00:00,26.4703136,80.3229863,OZONE,42,100,79
India,Uttar_Pradesh,Khurja,"Kalindi Kunj, Khurja - UPPCB",20-05-2024 09:00:00,28.2348927,77.8683002,OZONE,33,65,34
India,Uttar_Pradesh,Lucknow,"B R Ambedkar University, Lucknow - UPPCB",20-05-2024 09:00:00,26.766433,80.927299,OZONE,29,89,34
India,Uttar_Pradesh,Lucknow,"Gomti Nagar, Lucknow - UPPCB",20-05-2024 09:00:00,26.868120,81.005119,NO2,10,13,11
India,Uttar_Pradesh,Lucknow,"Gomti Nagar, Lucknow - UPPCB",20-05-2024 09:00:00,26.868120,81.005119,CO,40,48,41
India,Uttar_Pradesh,Lucknow,"Gomti Nagar, Lucknow - UPPCB",20-05-2024 09:00:00,26.868120,81.005119,OZONE,35,46,36
India,Uttar_Pradesh,Lucknow,"Lalbagh, Lucknow - CPCB",20-05-2024 09:00:00,26.8458805,80.9365541,CO,50,137,77
India,Uttar_Pradesh,Lucknow,"Talkatora District Industries Center, Lucknow - CPCB",20-05-2024 09:00:00,26.83399722,80.8917361,PM2.5,218,327,283
India,Uttar_Pradesh,Lucknow,"Talkatora District Industries Center, Lucknow - CPCB",20-05-2024 09:00:00,26.83399722,80.8917361,OZONE,2,81,7
India,Uttar_Pradesh,Meerut,"Ganga Nagar, Meerut - UPPCB",20-05-2024 09:00:00,28.999264,77.7590354,NH3,8,15,10
India,Uttar_Pradesh,Meerut,"Ganga Nagar, Meerut - UPPCB",20-05-2024 09:00:00,28.999264,77.7590354,OZONE,4,91,24
India,Uttar_Pradesh,Meerut,"Jai Bhim Nagar, Meerut - UPPCB",20-05-2024 09:00:00,28.9535882,77.7622941,NH3,7,14,9
India,Uttar_Pradesh,Meerut,"Jai Bhim Nagar, Meerut - UPPCB",20-05-2024 09:00:00,28.9535882,77.7622941,SO2,9,11,10
India,Uttar_Pradesh,Meerut,"Pallavpuram Phase 2, Meerut - UPPCB",20-05-2024 09:00:00,29.063510,77.709723,PM10,110,235,143
India,Uttar_Pradesh,Meerut,"Pallavpuram Phase 2, Meerut - UPPCB",20-05-2024 09:00:00,29.063510,77.709723,CO,22,58,38
India,Uttar_Pradesh,Moradabad,"Eco Herbal Park, Moradabad - UPPCB",20-05-2024 09:00:00,28.840739,78.697531,PM2.5,34,93,61
India,Uttar_Pradesh,Moradabad,"Eco Herbal Park, Moradabad - UPPCB",20-05-2024 09:00:00,28.840739,78.697531,PM10,52,186,117
India,Uttar_Pradesh,Moradabad,"Eco Herbal Park, Moradabad - UPPCB",20-05-2024 09:00:00,28.840739,78.697531,SO2,8,28,19
India,Uttar_Pradesh,Moradabad,"Employment Office, Moradabad - UPPCB",20-05-2024 09:00:00,28.88528,78.73880,NO2,16,17,16
India,Uttar_Pradesh,Moradabad,"Employment Office, Moradabad - UPPCB",20-05-2024 09:00:00,28.88528,78.73880,CO,35,53,38
India,Uttar_Pradesh,Moradabad,"Employment Office, Moradabad - UPPCB",20-05-2024 09:00:00,28.88528,78.73880,OZONE,NA,NA,NA
India,Uttar_Pradesh,Moradabad,"Jigar Colony, Moradabad - UPPCB",20-05-2024 09:00:00,28.856664,78.772638,OZONE,13,30,15
India,Uttar_Pradesh,Moradabad,"Kashiram Nagar, Moradabad - UPPCB",20-05-2024 09:00:00,28.849399,78.742362,OZONE,35,149,49
India,Uttar_Pradesh,Moradabad,"Transport Nagar, Moradabad - UPPCB",20-05-2024 09:00:00,28.802625,78.753728,SO2,48,55,52
India,Uttar_Pradesh,Muzaffarnagar,"New Mandi, Muzaffarnagar - UPPCB",20-05-2024 09:00:00,29.4723508,77.7194031,PM10,144,422,241
India,Uttar_Pradesh,Muzaffarnagar,"New Mandi, Muzaffarnagar - UPPCB",20-05-2024 09:00:00,29.4723508,77.7194031,NH3,11,15,12
India,Uttar_Pradesh,Muzaffarnagar,"New Mandi, Muzaffarnagar - UPPCB",20-05-2024 09:00:00,29.4723508,77.7194031,SO2,18,108,41
India,Uttar_Pradesh,Noida,"Sector-116, Noida - UPPCB",20-05-2024 09:00:00,28.569230,77.393848,PM2.5,45,327,169
India,Uttar_Pradesh,Noida,"Sector-116, Noida - UPPCB",20-05-2024 09:00:00,28.569230,77.393848,OZONE,3,212,12
India,Uttar_Pradesh,Prayagraj,"Jhunsi, Prayagraj - UPPCB",20-05-2024 09:00:00,25.425602,81.917152,NH3,5,5,5
India,Uttar_Pradesh,Prayagraj,"Motilal Nehru NIT, Prayagraj - UPPCB",20-05-2024 09:00:00,25.494,81.863,PM2.5,24,98,39
India,Uttar_Pradesh,Prayagraj,"Nagar Nigam, Prayagraj - UPPCB",20-05-2024 09:00:00,25.44919916 ,81.82735986 ,OZONE,NA,NA,NA
India,Uttar_Pradesh,Varanasi,"Ardhali Bazar, Varanasi - UPPCB",20-05-2024 09:00:00,25.3505986,82.9083074,CO,7,48,24
India,Uttar_Pradesh,Varanasi,"Bhelupur, Varanasi - UPPCB",20-05-2024 09:00:00,25.301778,82.996789,SO2,NA,NA,NA
India,Uttar_Pradesh,Varanasi,"Bhelupur, Varanasi - UPPCB",20-05-2024 09:00:00,25.301778,82.996789,OZONE,NA,NA,NA
India,Uttar_Pradesh,Vrindavan,"Omex Eternity, Vrindavan - UPPCB",20-05-2024 09:00:00,27.5714090,77.6557570,SO2,44,50,45
India,Uttar_Pradesh,Vrindavan,"Omex Eternity, Vrindavan - UPPCB",20-05-2024 09:00:00,27.5714090,77.6557570,CO,24,68,31
India,Uttarakhand,Kashipur,"Govt. Girls Inter College, Kashipur - UKPCB",20-05-2024 09:00:00,29.2124114,78.9611753,PM10,59,241,109
India,Uttarakhand,Kashipur,"Govt. Girls Inter College, Kashipur - UKPCB",20-05-2024 09:00:00,29.2124114,78.9611753,NH3,4,9,6
India,Uttarakhand,Kashipur,"Govt. Girls Inter College, Kashipur - UKPCB",20-05-2024 09:00:00,29.2124114,78.9611753,SO2,5,10,8
India,Uttarakhand,Rishikesh,"Shivaji Nagar, Rishikesh - UKPCB",20-05-2024 09:00:00,30.075911,78.2859547,SO2,2,6,3
India,West_Bengal,Asansol,"Asansol Court Area, Asansol - WBPCB",20-05-2024 09:00:00,23.685297,86.945968,NO2,29,40,35
India,West_Bengal,Asansol,"Asansol Court Area, Asansol - WBPCB",20-05-2024 09:00:00,23.685297,86.945968,OZONE,74,225,105
India,West_Bengal,Durgapur,"PCBL Residential Complex, Durgapur - WBPCB",20-05-2024 09:00:00,23.5087640,87.3544400,CO,36,98,51
India,West_Bengal,Durgapur,"Sidhu Kanhu Indoor Stadium, Durgapur - WBPCB",20-05-2024 09:00:00,23.5404352,87.2892225,PM10,73,147,102
India,West_Bengal,Durgapur,"Sidhu Kanhu Indoor Stadium, Durgapur - WBPCB",20-05-2024 09:00:00,23.5404352,87.2892225,OZONE,5,44,7
India,West_Bengal,Howrah,"Ghusuri, Howrah - WBPCB",20-05-2024 09:00:00,22.611968,88.347422,NO2,15,20,18
India,West_Bengal,Howrah,"Ghusuri, Howrah - WBPCB",20-05-2024 09:00:00,22.611968,88.347422,NH3,2,3,3
India,West_Bengal,Howrah,"Ghusuri, Howrah - WBPCB",20-05-2024 09:00:00,22.611968,88.347422,SO2,4,6,6
India,West_Bengal,Kolkata,"Ballygunge, Kolkata - WBPCB",20-05-2024 09:00:00,22.5367507,88.3638022,PM10,16,66,39
India,West_Bengal,Kolkata,"Ballygunge, Kolkata - WBPCB",20-05-2024 09:00:00,22.5367507,88.3638022,NH3,6,6,6
India,West_Bengal,Kolkata,"Bidhannagar, Kolkata - WBPCB",20-05-2024 09:00:00,22.58157048,88.41002457,PM10,12,78,41
India,West_Bengal,Kolkata,"Bidhannagar, Kolkata - WBPCB",20-05-2024 09:00:00,22.58157048,88.41002457,SO2,5,16,9
India,West_Bengal,Kolkata,"Bidhannagar, Kolkata - WBPCB",20-05-2024 09:00:00,22.58157048,88.41002457,OZONE,8,81,11
India,West_Bengal,Kolkata,"Fort William, Kolkata - WBPCB",20-05-2024 09:00:00,22.556640,88.342674,PM10,24,88,53
India,West_Bengal,Kolkata,"Fort William, Kolkata - WBPCB",20-05-2024 09:00:00,22.556640,88.342674,NO2,15,39,22
India,West_Bengal,Kolkata,"Fort William, Kolkata - WBPCB",20-05-2024 09:00:00,22.556640,88.342674,NH3,2,9,4
India,West_Bengal,Kolkata,"Jadavpur, Kolkata - WBPCB",20-05-2024 09:00:00,22.49929,88.36917,PM2.5,6,39,15
India,West_Bengal,Kolkata,"Jadavpur, Kolkata - WBPCB",20-05-2024 09:00:00,22.49929,88.36917,SO2,1,8,5
India,West_Bengal,Kolkata,"Victoria, Kolkata - WBPCB",20-05-2024 09:00:00,22.5448082,88.3403691,NH3,6,6,6
India,West_Bengal,Kolkata,"Victoria, Kolkata - WBPCB",20-05-2024 09:00:00,22.5448082,88.3403691,OZONE,12,59,15
India,Andhra_Pradesh,Amaravati,"Secretariat, Amaravati - APPCB",20-05-2024 09:00:00,16.5150833,80.5181667,NO2,5,14,10
India,Andhra_Pradesh,Chittoor,"Gangineni Cheruvu, Chittoor - APPCB",20-05-2024 09:00:00,13.204880,79.097889,PM2.5,12,340,76
India,Andhra_Pradesh,Rajamahendravaram,"Anand Kala Kshetram, Rajamahendravaram - APPCB",20-05-2024 09:00:00,16.9872867,81.7363176,CO,20,38,30
India,Andhra_Pradesh,Tirupati,"Tirumala, Tirupati - APPCB",20-05-2024 09:00:00,13.67,79.35,NH3,1,1,1
India,Andhra_Pradesh,Vijayawada,"HB Colony, Vijayawada - APPCB",20-05-2024 09:00:00,16.536107,80.594233,PM2.5,41,41,41
India,Andhra_Pradesh,Vijayawada,"HB Colony, Vijayawada - APPCB",20-05-2024 09:00:00,16.536107,80.594233,NO2,20,34,27
India,Andhra_Pradesh,Vijayawada,"Kanuru, Vijayawada - APPCB",20-05-2024 09:00:00,16.486692,80.699436,PM10,49,63,55
India,Andhra_Pradesh,Vijayawada,"Rajiv Gandhi Park, Vijayawada - APPCB",20-05-2024 09:00:00,16.509717,80.612222,CO,36,36,36
India,Andhra_Pradesh,Vijayawada,"Rajiv Nagar, Vijayawada - APPCB",20-05-2024 09:00:00,16.554731,80.649110,OZONE,15,24,16
India,Arunachal_Pradesh,Naharlagun,"Naharlagun, Naharlagun - APSPCB",20-05-2024 09:00:00,27.103358,93.679645,PM2.5,12,59,31
India,Arunachal_Pradesh,Naharlagun,"Naharlagun, Naharlagun - APSPCB",20-05-2024 09:00:00,27.103358,93.679645,NO2,3,3,3
India,Assam,Byrnihat,"Central Academy for SFS, Byrnihat - PCBA",20-05-2024 09:00:00,26.071318,91.87488,PM2.5,40,317,104
India,Assam,Guwahati,"IITG, Guwahati - PCBA",20-05-2024 09:00:00,26.2028636,91.70046436,CO,8,12,8
India,Assam,Guwahati,"IITG, Guwahati - PCBA",20-05-2024 09:00:00,26.2028636,91.70046436,OZONE,15,68,25
India,Assam,Guwahati,"LGBI Airport, Guwahati - PCBA",20-05-2024 09:00:00,26.10887,91.589544,CO,32,67,61
India,Assam,Guwahati,"Pan Bazaar, Guwahati - PCBA",20-05-2024 09:00:00,26.187500,91.744194,PM2.5,NA,NA,NA
India,Assam,Nagaon,"Christianpatty, Nagaon - PCBA",20-05-2024 09:00:00,26.349082,92.68449,NO2,1,61,13
India,Assam,Nalbari,"Bata Chowk, Nalbari - PCBA",20-05-2024 09:00:00,26.446912,91.439057,NO2,8,21,14
India,Assam,Silchar,"Tarapur, Silchar - PCBA",20-05-2024 09:00:00,24.82827,92.79525,OZONE,NA,NA,NA
India,Assam,Sivasagar,"Girls College, Sivasagar - PCBA",20-05-2024 09:00:00,26.987634,94.636574,PM10,45,98,68
India,Assam,Sivasagar,"Girls College, Sivasagar - PCBA",20-05-2024 09:00:00,26.987634,94.636574,SO2,9,11,10
India,Bihar,Araria,"Kharahiya Basti, Araria - BSPCB",20-05-2024 09:00:00,26.146529,87.454184,CO,NA,NA,NA
India,Bihar,Arrah,"New DM Office, Arrah - BSPCB",20-05-2024 09:00:00,25.5626095,84.663264,NH3,7,13,10
India,Bihar,Arrah,"New DM Office, Arrah - BSPCB",20-05-2024 09:00:00,25.5626095,84.663264,CO,12,28,20
India,Bihar,Aurangabad,"Gurdeo Nagar, Aurangabad - BSPCB",20-05-2024 09:00:00,24.75746,84.366208,PM2.5,NA,NA,NA
India,Bihar,Aurangabad,"Gurdeo Nagar, Aurangabad - BSPCB",20-05-2024 09:00:00,24.75746,84.366208,CO,8,26,18
India,Bihar,Bettiah,"Kamalnath Nagar, Bettiah - BSPCB",20-05-2024 09:00:00,26.80365,84.51954,PM2.5,37,97,65
India,Bihar,Bettiah,"Kamalnath Nagar, Bettiah - BSPCB",20-05-2024 09:00:00,26.80365,84.51954,NH3,6,26,13
India,Bihar,Bettiah,"Kamalnath Nagar, Bettiah - BSPCB",20-05-2024 09:00:00,26.80365,84.51954,SO2,13,22,18
India,Bihar,Bettiah,"Kamalnath Nagar, Bettiah - BSPCB",20-05-2024 09:00:00,26.80365,84.51954,OZONE,8,19,11
India,Bihar,Bhagalpur,"DM Office_Kachari Chowk, Bhagalpur - BSPCB",20-05-2024 09:00:00,25.251013,86.989001,CO,33,68,51
India,Bihar,Bhagalpur,"DM Office_Kachari Chowk, Bhagalpur - BSPCB",20-05-2024 09:00:00,25.251013,86.989001,OZONE,44,60,48
India,Bihar,Bihar Sharif,"D M Colony, Bihar Sharif - BSPCB",20-05-2024 09:00:00,25.204762,85.514960,NH3,NA,NA,NA
India,Bihar,Buxar,"Charitra Van, Buxar - BSPCB (Formerly known as Central Jail)",20-05-2024 09:00:00,25.567520,83.966379,NH3,3,4,3
India,Bihar,Gaya,"Collectorate, Gaya - BSPCB",20-05-2024 09:00:00,24.7955,84.9994,PM2.5,23,417,108
India,Bihar,Gaya,"Kareemganj, Gaya - BSPCB",20-05-2024 09:00:00,24.792403,84.992416,PM2.5,NA,NA,NA
India,Bihar,Gaya,"Kareemganj, Gaya - BSPCB",20-05-2024 09:00:00,24.792403,84.992416,CO,16,22,19
India,Bihar,Gaya,"SFTI Kusdihra, Gaya - BSPCB",20-05-2024 09:00:00,24.762518,84.982348,CO,14,40,30
India,Bihar,Hajipur,"Industrial Area, Hajipur - BSPCB",20-05-2024 09:00:00,25.697189,85.245900,OZONE,7,74,13
India,Bihar,Katihar,"Mirchaibari, Katihar - BSPCB",20-05-2024 09:00:00,25.560083,87.553265,PM2.5,10,70,39
India,Bihar,Katihar,"Mirchaibari, Katihar - BSPCB",20-05-2024 09:00:00,25.560083,87.553265,PM10,16,145,75
India,Bihar,Katihar,"Mirchaibari, Katihar - BSPCB",20-05-2024 09:00:00,25.560083,87.553265,SO2,7,11,10
India,Bihar,Manguraha,"Forest Rest House, Manguraha - BSPCB",20-05-2024 09:00:00,27.308328,84.531742,SO2,NA,NA,NA
India,Bihar,Motihari,"Gandak Colony, Motihari - BSPCB",20-05-2024 09:00:00,26.63086,84.90051,PM2.5,38,113,71
India,Bihar,Motihari,"Gandak Colony, Motihari - BSPCB",20-05-2024 09:00:00,26.63086,84.90051,PM10,52,128,92
India,Bihar,Motihari,"Gandak Colony, Motihari - BSPCB",20-05-2024 09:00:00,26.63086,84.90051,SO2,10,12,11
India,Bihar,Munger,"Town Hall, Munger - BSPCB",20-05-2024 09:00:00,25.376776,86.471523,NH3,2,3,3
India,Bihar,Muzaffarpur,"Buddha Colony, Muzaffarpur - BSPCB",20-05-2024 09:00:00,26.11442,85.39813,NO2,14,26,19
India,Bihar,Patna,"DRM Office Danapur, Patna - BSPCB",20-05-2024 09:00:00,25.586562,85.043586,PM10,126,402,156
India,Bihar,Patna,"DRM Office Danapur, Patna - BSPCB",20-05-2024 09:00:00,25.586562,85.043586,NO2,11,19,14
India,Bihar,Patna,"DRM Office Danapur, Patna - BSPCB",20-05-2024 09:00:00,25.586562,85.043586,CO,26,42,37
India,Bihar,Patna,"Govt. High School Shikarpur, Patna - BSPCB",20-05-2024 09:00:00,25.592539,85.227158,PM2.5,79,186,140
India,Bihar,Patna,"Govt. High School Shikarpur, Patna - BSPCB",20-05-2024 09:00:00,25.592539,85.227158,SO2,8,12,10
India,Bihar,Patna,"Muradpur, Patna - BSPCB",20-05-2024 09:00:00,25.619651,85.147382,PM10,162,467,247
India,Bihar,Patna,"Muradpur, Patna - BSPCB",20-05-2024 09:00:00,25.619651,85.147382,OZONE,NA,NA,NA
India,Bihar,Patna,"Rajbansi Nagar, Patna - BSPCB",20-05-2024 09:00:00,25.599486,85.113666,CO,12,38,24
India,Bihar,Rajgir,"Dangi Tola, Rajgir - BSPCB",20-05-2024 09:00:00,25.03280,85.41948,PM2.5,NA,NA,NA
India,Bihar,Rajgir,"Dangi Tola, Rajgir - BSPCB",20-05-2024 09:00:00,25.03280,85.41948,PM10,NA,NA,NA
India,Bihar,Samastipur,"DM Office_Kasipur, Samastipur - BSPCB",20-05-2024 09:00:00,25.859655,85.77944,NO2,NA,NA,NA
India,Bihar,Samastipur,"DM Office_Kasipur, Samastipur - BSPCB",20-05-2024 09:00:00,25.859655,85.77944,NH3,NA,NA,NA
India,Bihar,Siwan,"Chitragupta Nagar, Siwan - BSPCB",20-05-2024 09:00:00,26.2271665,84.3570427,SO2,15,35,31
India,Chandigarh,Chandigarh,"Sector 22, Chandigarh - CPCC",20-05-2024 09:00:00,30.735567,76.775714,PM10,93,167,130
India,Chandigarh,Chandigarh,"Sector 22, Chandigarh - CPCC",20-05-2024 09:00:00,30.735567,76.775714,OZONE,2,155,79
India,Chandigarh,Chandigarh,"Sector-25, Chandigarh - CPCC",20-05-2024 09:00:00,30.751462,76.762879,SO2,8,25,13
India,Chandigarh,Chandigarh,"Sector-25, Chandigarh - CPCC",20-05-2024 09:00:00,30.751462,76.762879,OZONE,1,44,13
India,Chandigarh,Chandigarh,"Sector-53, Chandigarh - CPCC",20-05-2024 09:00:00,30.719859,76.738637,PM2.5,50,318,168
India,Chandigarh,Chandigarh,"Sector-53, Chandigarh - CPCC",20-05-2024 09:00:00,30.719859,76.738637,SO2,8,38,17
India,Chhattisgarh,Bhilai,"32Bungalows, Bhilai - CECB",20-05-2024 09:00:00,21.194815,81.314770,SO2,2,6,3
India,Chhattisgarh,Bilaspur,"Mangala, Bilaspur - NTPC",20-05-2024 09:00:00,22.08815,82.13737,SO2,16,22,19
India,Chhattisgarh,Chhal,"Nawapara SECL Colony, Chhal - CECB",20-05-2024 09:00:00,22.118125,83.140608,SO2,20,60,37
India,Chhattisgarh,Chhal,"Nawapara SECL Colony, Chhal - CECB",20-05-2024 09:00:00,22.118125,83.140608,CO,21,42,34
India,Chhattisgarh,Korba,"Rampur, Korba - CECB",20-05-2024 09:00:00,22.368195,82.746431,PM10,29,426,75
India,Chhattisgarh,Korba,"Rampur, Korba - CECB",20-05-2024 09:00:00,22.368195,82.746431,NO2,33,53,39
India,Chhattisgarh,Korba,"Rampur, Korba - CECB",20-05-2024 09:00:00,22.368195,82.746431,NH3,1,1,1
India,Chhattisgarh,Korba,"Urja Nagar, Korba - CECB",20-05-2024 09:00:00,22.348441,82.549611,NH3,3,9,5
India,Chhattisgarh,Korba,"Urja Nagar, Korba - CECB",20-05-2024 09:00:00,22.348441,82.549611,CO,19,88,71
India,Chhattisgarh,Korba,"Urja Nagar, Korba - CECB",20-05-2024 09:00:00,22.348441,82.549611,OZONE,NA,NA,NA
India,Chhattisgarh,Kunjemura,"OP Jindal School, Kunjemura - CECB",20-05-2024 09:00:00,22.126650,83.483212,PM10,33,149,64
India,Chhattisgarh,Kunjemura,"OP Jindal School, Kunjemura - CECB",20-05-2024 09:00:00,22.126650,83.483212,CO,23,33,29
India,Chhattisgarh,Raipur,"Bhatagaon New ISBT, Raipur - CECB",20-05-2024 09:00:00,21.219665,81.630094,PM10,19,53,33
India,Chhattisgarh,Raipur,"Bhatagaon New ISBT, Raipur - CECB",20-05-2024 09:00:00,21.219665,81.630094,SO2,1,3,2
India,Chhattisgarh,Raipur,"Bhatagaon New ISBT, Raipur - CECB",20-05-2024 09:00:00,21.219665,81.630094,CO,14,28,18
India,Chhattisgarh,Raipur,"Bhatagaon New ISBT, Raipur - CECB",20-05-2024 09:00:00,21.219665,81.630094,OZONE,3,6,5
India,Chhattisgarh,Raipur,"Krishak Nagar, Raipur - CECB",20-05-2024 09:00:00,21.237755,81.705301,PM10,16,48,32
India,Chhattisgarh,Raipur,"Krishak Nagar, Raipur - CECB",20-05-2024 09:00:00,21.237755,81.705301,NH3,NA,NA,NA
India,Chhattisgarh,Raipur,"Siltara Phase-II, Raipur - CECB",20-05-2024 09:00:00,21.371751,81.664929,NO2,20,51,30
India,Chhattisgarh,Raipur,"Siltara Phase-II, Raipur - CECB",20-05-2024 09:00:00,21.371751,81.664929,NH3,3,3,3
India,Chhattisgarh,Raipur,"Siltara Phase-II, Raipur - CECB",20-05-2024 09:00:00,21.371751,81.664929,SO2,1,54,16
India,Delhi,Delhi,"Alipur, Delhi - DPCC",20-05-2024 09:00:00,28.815329,77.153010,CO,36,72,60
India,Delhi,Delhi,"Ashok Vihar, Delhi - DPCC",20-05-2024 09:00:00,28.695381,77.181665,NO2,14,117,56
India,Delhi,Delhi,"Ashok Vihar, Delhi - DPCC",20-05-2024 09:00:00,28.695381,77.181665,NH3,10,21,16
India,Delhi,Delhi,"Aya Nagar, Delhi - IMD",20-05-2024 09:00:00,28.4706914,77.1099364,PM10,102,303,172
India,Delhi,Delhi,"Burari Crossing, Delhi - IMD",20-05-2024 09:00:00,28.7256504,77.2011573,PM2.5,54,323,168
India,Delhi,Delhi,"Burari Crossing, Delhi - IMD",20-05-2024 09:00:00,28.7256504,77.2011573,PM10,151,405,257
India,Delhi,Delhi,"Burari Crossing, Delhi - IMD",20-05-2024 09:00:00,28.7256504,77.2011573,OZONE,6,111,14
India,Delhi,Delhi,"CRRI Mathura Road, Delhi - IMD",20-05-2024 09:00:00,28.5512005,77.2735737,CO,20,84,51
India,Delhi,Delhi,"CRRI Mathura Road, Delhi - IMD",20-05-2024 09:00:00,28.5512005,77.2735737,OZONE,3,100,7
India,Delhi,Delhi,"Chandni Chowk, Delhi - IITM",20-05-2024 09:00:00,28.656756,77.227234,NH3,21,25,22
India,Delhi,Delhi,"Dr. Karni Singh Shooting Range, Delhi - DPCC",20-05-2024 09:00:00,28.498571,77.264840,PM10,129,400,211
India,Delhi,Delhi,"IGI Airport (T3), Delhi - IMD",20-05-2024 09:00:00,28.5627763,77.1180053,PM10,99,430,166
India,Delhi,Delhi,"IHBAS, Dilshad Garden, Delhi - CPCB",20-05-2024 09:00:00,28.6811736,77.3025234,SO2,5,52,29
India,Delhi,Delhi,"IHBAS, Dilshad Garden, Delhi - CPCB",20-05-2024 09:00:00,28.6811736,77.3025234,CO,22,106,86
India,Delhi,Delhi,"ITO, Delhi - CPCB",20-05-2024 09:00:00,28.628624,77.241060,PM2.5,118,374,240
India,Delhi,Delhi,"ITO, Delhi - CPCB",20-05-2024 09:00:00,28.628624,77.241060,OZONE,1,83,10
India,Delhi,Delhi,"Jahangirpuri, Delhi - DPCC",20-05-2024 09:00:00,28.732820,77.170633,PM10,179,491,325
India,Delhi,Delhi,"Jawaharlal Nehru Stadium, Delhi - DPCC",20-05-2024 09:00:00,28.580280,77.233829,NO2,2,28,14
India,Delhi,Delhi,"Jawaharlal Nehru Stadium, Delhi - DPCC",20-05-2024 09:00:00,28.580280,77.233829,CO,30,83,58
India,Delhi,Delhi,"Jawaharlal Nehru Stadium, Delhi - DPCC",20-05-2024 09:00:00,28.580280,77.233829,OZONE,1,276,16
India,Delhi,Delhi,"Lodhi Road, Delhi - IMD",20-05-2024 09:00:00,28.5918245,77.2273074,PM10,110,448,177
India,Delhi,Delhi,"Lodhi Road, Delhi - IMD",20-05-2024 09:00:00,28.5918245,77.2273074,OZONE,3,68,6
India,Delhi,Delhi,"Major Dhyan Chand National Stadium, Delhi - DPCC",20-05-2024 09:00:00,28.611281,77.237738,PM10,108,389,176
India,Delhi,Delhi,"Mundka, Delhi - DPCC",20-05-2024 09:00:00,28.684678,77.076574,SO2,9,77,32
India,Delhi,Delhi,"NSIT Dwarka, Delhi - CPCB",20-05-2024 09:00:00,28.60909,77.0325413,NO2,24,50,34
India,Delhi,Delhi,"Narela, Delhi - DPCC",20-05-2024 09:00:00,28.822836,77.101981,SO2,5,77,37
India,Delhi,Delhi,"Nehru Nagar, Delhi - DPCC",20-05-2024 09:00:00,28.567890,77.250515,SO2,5,21,10
India,Delhi,Delhi,"North Campus, DU, Delhi - IMD",20-05-2024 09:00:00,28.6573814,77.1585447,NO2,11,64,29
India,Delhi,Delhi,"Okhla Phase-2, Delhi - DPCC",20-05-2024 09:00:00,28.530785,77.271255,PM10,141,374,209
India,Delhi,Delhi,"Okhla Phase-2, Delhi - DPCC",20-05-2024 09:00:00,28.530785,77.271255,NH3,11,17,13
India,Delhi,Delhi,"Okhla Phase-2, Delhi - DPCC",20-05-2024 09:00:00,28.530785,77.271255,SO2,2,16,10
India,Delhi,Delhi,"Patparganj, Delhi - DPCC",20-05-2024 09:00:00,28.623763,77.287209,PM2.5,67,342,180
India,Delhi,Delhi,"Patparganj, Delhi - DPCC",20-05-2024 09:00:00,28.623763,77.287209,PM10,163,442,255
India,Delhi,Delhi,"Patparganj, Delhi - DPCC",20-05-2024 09:00:00,28.623763,77.287209,CO,28,50,36
India,Delhi,Delhi,"Punjabi Bagh, Delhi - DPCC",20-05-2024 09:00:00,28.674045,77.131023,PM2.5,15,388,185
India,Delhi,Delhi,"Punjabi Bagh, Delhi - DPCC",20-05-2024 09:00:00,28.674045,77.131023,PM10,130,443,215
India,Delhi,Delhi,"Pusa, Delhi - DPCC",20-05-2024 09:00:00,28.639652,77.146275,OZONE,8,143,18
India,Delhi,Delhi,"Pusa, Delhi - IMD",20-05-2024 09:00:00,28.636110,77.173332,PM10,1,247,158
India,Delhi,Delhi,"R K Puram, Delhi - DPCC",20-05-2024 09:00:00,28.563262,77.186937,PM2.5,55,358,172
India,Delhi,Delhi,"Rohini, Delhi - DPCC",20-05-2024 09:00:00,28.732528,77.119920,SO2,12,82,46
India,Delhi,Delhi,"Rohini, Delhi - DPCC",20-05-2024 09:00:00,28.732528,77.119920,OZONE,6,213,19
India,Delhi,Delhi,"Shadipur, Delhi - CPCB",20-05-2024 09:00:00,28.6514781,77.1473105,PM2.5,158,407,285
India,Delhi,Delhi,"Sirifort, Delhi - CPCB",20-05-2024 09:00:00,28.5504249,77.2159377,PM10,117,419,202
India,Delhi,Delhi,"Sonia Vihar, Delhi - DPCC",20-05-2024 09:00:00,28.710508,77.249485,PM2.5,38,393,156
India,Delhi,Delhi,"Sonia Vihar, Delhi - DPCC",20-05-2024 09:00:00,28.710508,77.249485,SO2,7,40,20
India,Delhi,Delhi,"Sri Aurobindo Marg, Delhi - DPCC",20-05-2024 09:00:00,28.531346,77.190156,PM2.5,40,347,116
India,Delhi,Delhi,"Sri Aurobindo Marg, Delhi - DPCC",20-05-2024 09:00:00,28.531346,77.190156,PM10,140,351,200
India,Delhi,Delhi,"Vivek Vihar, Delhi - DPCC",20-05-2024 09:00:00,28.672342,77.315260,NH3,12,16,15
India,Delhi,Delhi,"Vivek Vihar, Delhi - DPCC",20-05-2024 09:00:00,28.672342,77.315260,CO,14,98,50
India,Gujarat,Ahmedabad,"Chandkheda, Ahmedabad - IITM",20-05-2024 09:00:00,23.107969,72.574648,OZONE,32,69,39
India,Gujarat,Ahmedabad,"Maninagar, Ahmedabad - GPCB",20-05-2024 09:00:00,23.002657,72.591912,PM2.5,16,57,33
India,Gujarat,Ahmedabad,"Maninagar, Ahmedabad - GPCB",20-05-2024 09:00:00,23.002657,72.591912,NO2,31,89,42
India,Gujarat,Ahmedabad,"Rakhial, Ahmedabad - IITM",20-05-2024 09:00:00,23.016834,72.625775,PM2.5,48,76,57
India,Gujarat,Ahmedabad,"SVPI Airport Hansol, Ahmedabad - IITM",20-05-2024 09:00:00,23.076793,72.627874,SO2,4,18,9
India,Gujarat,Ahmedabad,"SVPI Airport Hansol, Ahmedabad - IITM",20-05-2024 09:00:00,23.076793,72.627874,CO,10,39,15
India,Gujarat,Gandhinagar,"Sector-10, Gandhinagar - GPCB",20-05-2024 09:00:00,23.221714,72.654328,PM10,21,101,57
India,Gujarat,Surat,"Science Center, Surat - SMC",20-05-2024 09:00:00,21.170046,72.795405,PM10,9,36,21
India,Gujarat,Vapi,"Phase-1 GIDC, Vapi - GPCB",20-05-2024 09:00:00,20.362421,72.918013,NO2,6,7,7
India,Gujarat,Vapi,"Phase-1 GIDC, Vapi - GPCB",20-05-2024 09:00:00,20.362421,72.918013,NH3,2,2,2
India,Gujarat,Vatva,"Phase-4 GIDC, Vatva - GPCB",20-05-2024 09:00:00,22.969611,72.643500,PM2.5,16,32,22
India,Gujarat,Vatva,"Phase-4 GIDC, Vatva - GPCB",20-05-2024 09:00:00,22.969611,72.643500,PM10,41,82,61
India,Haryana,Ambala,"Patti Mehar, Ambala - HSPCB",20-05-2024 09:00:00,30.379589,76.778328,PM2.5,64,152,100
India,Haryana,Ambala,"Patti Mehar, Ambala - HSPCB",20-05-2024 09:00:00,30.379589,76.778328,PM10,71,362,123
India,Haryana,Ambala,"Patti Mehar, Ambala - HSPCB",20-05-2024 09:00:00,30.379589,76.778328,CO,30,60,41
India,Haryana,Bahadurgarh,"Arya Nagar, Bahadurgarh - HSPCB",20-05-2024 09:00:00,28.6701,76.9254,NO2,NA,NA,NA
India,Haryana,Bahadurgarh,"Arya Nagar, Bahadurgarh - HSPCB",20-05-2024 09:00:00,28.6701,76.9254,SO2,NA,NA,NA
India,Haryana,Bahadurgarh,"Arya Nagar, Bahadurgarh - HSPCB",20-05-2024 09:00:00,28.6701,76.9254,OZONE,NA,NA,NA
India,Haryana,Ballabgarh,"Nathu Colony, Ballabgarh - HSPCB",20-05-2024 09:00:00,28.3419248,77.319699,NH3,1,3,2
India,Haryana,Bhiwani,"H.B. Colony, Bhiwani - HSPCB",20-05-2024 09:00:00,28.806223,76.141105,NO2,6,11,8
India,Haryana,Bhiwani,"H.B. Colony, Bhiwani - HSPCB",20-05-2024 09:00:00,28.806223,76.141105,NH3,3,6,6
India,Haryana,Bhiwani,"H.B. Colony, Bhiwani - HSPCB",20-05-2024 09:00:00,28.806223,76.141105,OZONE,11,87,16
India,Haryana,Charkhi Dadri,"Mini Secretariat, Charkhi Dadri - HSPCB",20-05-2024 09:00:00,28.593883,76.270653,OZONE,13,18,15
India,Haryana,Dharuhera,"Municipal Corporation Office, Dharuhera -  HSPCB",20-05-2024 09:00:00,28.206800,76.799700,PM2.5,36,278,99
India,Haryana,Dharuhera,"Municipal Corporation Office, Dharuhera -  HSPCB",20-05-2024 09:00:00,28.206800,76.799700,NH3,9,27,19
India,Haryana,Dharuhera,"Municipal Corporation Office, Dharuhera -  HSPCB",20-05-2024 09:00:00,28.206800,76.799700,SO2,4,103,28
India,Haryana,Dharuhera,"Municipal Corporation Office, Dharuhera -  HSPCB",20-05-2024 09:00:00,28.206800,76.799700,OZONE,6,43,13
India,Haryana,Faridabad,"Sector 11, Faridabad - HSPCB",20-05-2024 09:00:00,28.376058,77.315741,PM2.5,126,292,219
India,Haryana,Faridabad,"Sector 11, Faridabad - HSPCB",20-05-2024 09:00:00,28.376058,77.315741,SO2,4,5,4
India,Haryana,Faridabad,"Sector 11, Faridabad - HSPCB",20-05-2024 09:00:00,28.376058,77.315741,OZONE,5,32,8
India,Haryana,Fatehabad,"Huda Sector, Fatehabad - HSPCB",20-05-2024 09:00:00,29.503664,75.467934,NH3,10,11,10
India,Haryana,Hisar,"Urban Estate-II, Hisar - HSPCB",20-05-2024 09:00:00,29.140560,75.744941,CO,25,40,27
India,Haryana,Kaithal,"Rishi Nagar, Kaithal - HSPCB",20-05-2024 09:00:00,29.8006,76.4155,NH3,8,8,8
India,Haryana,Karnal,"Sector-12, Karnal - HSPCB",20-05-2024 09:00:00,29.695300,77.002700,NO2,7,12,10
India,Haryana,Karnal,"Sector-12, Karnal - HSPCB",20-05-2024 09:00:00,29.695300,77.002700,NH3,10,13,11
India,Haryana,Karnal,"Sector-12, Karnal - HSPCB",20-05-2024 09:00:00,29.695300,77.002700,CO,21,64,41
India,Haryana,Karnal,"Sector-12, Karnal - HSPCB",20-05-2024 09:00:00,29.695300,77.002700,OZONE,27,37,30
India,Haryana,Kurukshetra,"Sector-7, Kurukshetra - HSPCB",20-05-2024 09:00:00,29.966942,76.875879,NO2,10,21,14
India,Haryana,Manesar,"Sector-2 IMT, Manesar - HSPCB",20-05-2024 09:00:00,28.360699,76.936090,PM2.5,46,168,87
India,Haryana,Manesar,"Sector-2 IMT, Manesar - HSPCB",20-05-2024 09:00:00,28.360699,76.936090,NO2,9,16,13
India,Haryana,Manesar,"Sector-2 IMT, Manesar - HSPCB",20-05-2024 09:00:00,28.360699,76.936090,OZONE,13,121,31
India,Haryana,Palwal,"Shyam Nagar, Palwal - HSPCB",20-05-2024 09:00:00,28.1485564,77.3320667,NO2,23,24,24
India,Haryana,Palwal,"Shyam Nagar, Palwal - HSPCB",20-05-2024 09:00:00,28.1485564,77.3320667,CO,20,36,27
India,Haryana,Panchkula,"Sector-6, Panchkula - HSPCB ",20-05-2024 09:00:00,30.7057778,76.8531805555555,NO2,9,11,10
India,Haryana,Rohtak,"MD University, Rohtak - HSPCB",20-05-2024 09:00:00,28.52123,76.37138,NO2,46,55,51
India,Haryana,Rohtak,"MD University, Rohtak - HSPCB",20-05-2024 09:00:00,28.52123,76.37138,CO,9,59,45
India,Haryana,Sonipat,"Murthal, Sonipat - HSPCB",20-05-2024 09:00:00,29.027200,77.062100,NH3,NA,NA,NA
India,Haryana,Yamuna Nagar,"Gobind Pura, Yamuna Nagar - HSPCB",20-05-2024 09:00:00,30.1480566,77.2893471,PM2.5,77,184,109
India,Himachal Pradesh,Baddi,"HIMUDA Complex Phase-1, Baddi - HPPCB",20-05-2024 09:00:00,30.943887,76.801991,PM2.5,58,390,159
India,Jammu_and_Kashmir,Srinagar,"Rajbagh, Srinagar - JKSPCB",20-05-2024 09:00:00,34.066206,74.819820,OZONE,12,12,12
India,Jharkhand,Dhanbad,"Kalakusuma, Dhanbad - DMC",20-05-2024 09:00:00,23.811548,86.481238,PM2.5,NA,NA,NA
India,Karnataka,Bagalkot,"Vidayagiri, Bagalkot - KSPCB",20-05-2024 09:00:00,16.172806,75.659694,PM2.5,25,37,36
India,Karnataka,Bagalkot,"Vidayagiri, Bagalkot - KSPCB",20-05-2024 09:00:00,16.172806,75.659694,PM10,45,46,46
India,Karnataka,Belgaum,"Ramteerth Nagar, Belgaum - KSPCB",20-05-2024 09:00:00,15.888653,74.541751,PM2.5,12,32,19
India,Karnataka,Bengaluru,"Bapuji Nagar, Bengaluru - KSPCB",20-05-2024 09:00:00,12.951913,77.539784,OZONE,21,32,25
India,Karnataka,Bengaluru,"Hombegowda Nagar, Bengaluru - KSPCB",20-05-2024 09:00:00,12.938539,77.590100,NO2,16,25,21
India,Karnataka,Bengaluru,"Hombegowda Nagar, Bengaluru - KSPCB",20-05-2024 09:00:00,12.938539,77.590100,NH3,1,2,2
India,Karnataka,Bengaluru,"Kasturi Nagar, Bengaluru - KSPCB",20-05-2024 09:00:00,13.003872,77.664217,PM2.5,23,23,23
India,Karnataka,Bengaluru,"Kasturi Nagar, Bengaluru - KSPCB",20-05-2024 09:00:00,13.003872,77.664217,PM10,51,52,52
India,Karnataka,Bengaluru,"Kasturi Nagar, Bengaluru - KSPCB",20-05-2024 09:00:00,13.003872,77.664217,SO2,9,10,10
India,Karnataka,Bengaluru,"RVCE-Mailasandra, Bengaluru - KSPCB",20-05-2024 09:00:00,12.921418,77.502466,PM10,13,75,35
India,Karnataka,Bengaluru,"Sanegurava Halli, Bengaluru - KSPCB",20-05-2024 09:00:00,12.990328,77.5431385,NO2,23,37,28
India,Karnataka,Bengaluru,"Silk Board, Bengaluru - KSPCB",20-05-2024 09:00:00,12.917348,77.622813,PM2.5,14,62,32
India,Karnataka,Bengaluru,"Silk Board, Bengaluru - KSPCB",20-05-2024 09:00:00,12.917348,77.622813,SO2,5,14,9
India,Karnataka,Bidar,"Naubad, Bidar - KSPCB",20-05-2024 09:00:00,17.930306,77.482194,NH3,2,3,3
India,Karnataka,Chikkaballapur,"Chikkaballapur Rural, Chikkaballapur - KSPCB",20-05-2024 09:00:00,13.428828,77.731418,PM2.5,9,39,24
India,Karnataka,Chikkaballapur,"Chikkaballapur Rural, Chikkaballapur - KSPCB",20-05-2024 09:00:00,13.428828,77.731418,CO,12,22,20
India,Karnataka,Chikkamagaluru,"Kalyana Nagara, Chikkamagaluru - KSPCB",20-05-2024 09:00:00,13.328028,75.797056,NO2,14,26,21
India,Karnataka,Davanagere,"Devaraj Urs Badavane, Davanagere - KSPCB",20-05-2024 09:00:00,14.475800,75.905200,CO,12,21,20
India,Karnataka,Gadag,"Panchal Nagar, Gadag - KSPCB",20-05-2024 09:00:00,15.411456,75.638133,CO,46,51,48
India,Karnataka,Gadag,"Panchal Nagar, Gadag - KSPCB",20-05-2024 09:00:00,15.411456,75.638133,OZONE,34,92,40
India,Karnataka,Haveri,"Ashwini Nagar, Haveri - KSPCB",20-05-2024 09:00:00,14.791800,75.389600,PM10,NA,NA,NA
India,Karnataka,Hubballi,"Lingaraj Nagar, Hubballi - KSPCB",20-05-2024 09:00:00,15.3714823,75.1160168,CO,13,110,19
India,Karnataka,Kolar,"Tamaka Ind. Area, Kolar - KSPCB",20-05-2024 09:00:00,13.1276288,78.1570122,NH3,9,13,10
India,Karnataka,Kolar,"Tamaka Ind. Area, Kolar - KSPCB",20-05-2024 09:00:00,13.1276288,78.1570122,CO,8,18,10
India,Karnataka,Kolar,"Tamaka Ind. Area, Kolar - KSPCB",20-05-2024 09:00:00,13.1276288,78.1570122,OZONE,20,45,25
India,Karnataka,Koppal,"Diwator Nagar, Koppal - KSPCB",20-05-2024 09:00:00,15.347630,76.181767,PM2.5,1,16,9
India,Karnataka,Koppal,"Diwator Nagar, Koppal - KSPCB",20-05-2024 09:00:00,15.347630,76.181767,PM10,4,16,10
India,Karnataka,Madikeri,"Stuart Hill, Madikeri - KSPCB",20-05-2024 09:00:00,12.415911,75.735050,CO,4,86,26
India,Karnataka,Madikeri,"Stuart Hill, Madikeri - KSPCB",20-05-2024 09:00:00,12.415911,75.735050,OZONE,20,34,24
India,Karnataka,Mangalore,"Kadri, Mangalore - KSPCB",20-05-2024 09:00:00,12.889250,74.853000,PM10,44,61,51
India,Karnataka,Mangalore,"Kadri, Mangalore - KSPCB",20-05-2024 09:00:00,12.889250,74.853000,NO2,5,6,6
India,Karnataka,Mangalore,"Kadri, Mangalore - KSPCB",20-05-2024 09:00:00,12.889250,74.853000,CO,38,44,40
India,Karnataka,Mysuru,"Hebbal 1st Stage, Mysuru - KSPCB",20-05-2024 09:00:00,12.21041,76.37376,NO2,11,37,21
India,Karnataka,Raichur,"Haji Colony, Raichur - KSPCB",20-05-2024 09:00:00,16.208139,77.348417,PM2.5,2,32,12
India,Karnataka,Raichur,"Haji Colony, Raichur - KSPCB",20-05-2024 09:00:00,16.208139,77.348417,NO2,13,33,23
India,Karnataka,Raichur,"Haji Colony, Raichur - KSPCB",20-05-2024 09:00:00,16.208139,77.348417,NH3,1,3,2
India,Karnataka,Ramanagara,"Vijay Nagar, Ramanagara - KSPCB",20-05-2024 09:00:00,12.733409,77.298051,PM10,11,35,23
India,Karnataka,Shivamogga,"Vinoba Nagara, Shivamogga - KSPCB",20-05-2024 09:00:00,13.940000,75.555917,CO,14,48,37
India,Karnataka,Udupi,"Brahmagiri, Udupi - KSPCB",20-05-2024 09:00:00,13.34194444,74.74694444,PM2.5,NA,NA,NA
India,Karnataka,Udupi,"Brahmagiri, Udupi - KSPCB",20-05-2024 09:00:00,13.34194444,74.74694444,SO2,NA,NA,NA
India,Karnataka,Vijayapura,"Ibrahimpur, Vijayapura - KSPCB",20-05-2024 09:00:00,16.802639,75.722694,PM10,42,43,42
India,Karnataka,Vijayapura,"Ibrahimpur, Vijayapura - KSPCB",20-05-2024 09:00:00,16.802639,75.722694,CO,22,64,22
India,Karnataka,Yadgir,"Collector Office, Yadgir - KSPCB",20-05-2024 09:00:00,16.7602,77.1428,SO2,3,25,14
India,Kerala,Kannur,"Thavakkara, Kannur - Kerala PCB",20-05-2024 09:00:00,11.875000,75.373200,PM10,66,77,71
India,Kerala,Kannur,"Thavakkara, Kannur - Kerala PCB",20-05-2024 09:00:00,11.875000,75.373200,SO2,1,4,1
India,Kerala,Kollam,"Polayathode, Kollam - Kerala PCB",20-05-2024 09:00:00,8.8787,76.6073,PM2.5,29,131,72
India,Kerala,Kollam,"Polayathode, Kollam - Kerala PCB",20-05-2024 09:00:00,8.8787,76.6073,NO2,8,9,8
India,Kerala,Kollam,"Polayathode, Kollam - Kerala PCB",20-05-2024 09:00:00,8.8787,76.6073,SO2,1,4,1
India,Kerala,Thiruvananthapuram,"Kariavattom, Thiruvananthapuram - Kerala PCB",20-05-2024 09:00:00,8.563700,76.886500,PM10,81,95,88
India,Kerala,Thiruvananthapuram,"Kariavattom, Thiruvananthapuram - Kerala PCB",20-05-2024 09:00:00,8.563700,76.886500,OZONE,27,32,30
India,Kerala,Thiruvananthapuram,"Plammoodu, Thiruvananthapuram - Kerala PCB",20-05-2024 09:00:00,8.5149093,76.9435879,PM2.5,5,20,13
India,Kerala,Thrissur,"Corporation Ground, Thrissur - Kerala PCB",20-05-2024 09:00:00,10.532400,76.215900,PM10,61,70,64
India,Kerala,Thrissur,"Corporation Ground, Thrissur - Kerala PCB",20-05-2024 09:00:00,10.532400,76.215900,NH3,NA,NA,NA
India,Madhya Pradesh,Bhopal,"Idgah Hills, Bhopal - MPPCB",20-05-2024 09:00:00,23.264759,77.381568,PM2.5,NA,NA,NA
India,Madhya Pradesh,Bhopal,"Paryavaran Parisar, Bhopal - MPPCB",20-05-2024 09:00:00,23.210494,77.425409,PM10,49,100,67
India,Madhya Pradesh,Bhopal,"Paryavaran Parisar, Bhopal - MPPCB",20-05-2024 09:00:00,23.210494,77.425409,OZONE,59,121,66
India,Madhya Pradesh,Bhopal,"T T Nagar, Bhopal - MPPCB",20-05-2024 09:00:00,23.233584,77.400574,PM10,46,158,92
India,Madhya Pradesh,Dewas,"Bhopal Chauraha, Dewas - MPPCB",20-05-2024 09:00:00,22.9682591,76.064118,CO,13,49,27
India,Madhya Pradesh,Gwalior,"City Center, Gwalior - MPPCB",20-05-2024 09:00:00,26.203442,78.193251,PM10,71,444,125
India,Madhya Pradesh,Gwalior,"Deen Dayal Nagar, Gwalior - MPPCB",20-05-2024 09:00:00,26.259242,78.216432,NO2,9,106,34
India,Madhya Pradesh,Gwalior,"Deen Dayal Nagar, Gwalior - MPPCB",20-05-2024 09:00:00,26.259242,78.216432,NH3,6,10,8
India,Madhya Pradesh,Gwalior,"Maharaj Bada, Gwalior - MPPCB",20-05-2024 09:00:00,26.200388,78.147714,PM10,60,478,120
India,Madhya Pradesh,Gwalior,"Maharaj Bada, Gwalior - MPPCB",20-05-2024 09:00:00,26.200388,78.147714,NO2,10,74,27
India,Madhya Pradesh,Gwalior,"Maharaj Bada, Gwalior - MPPCB",20-05-2024 09:00:00,26.200388,78.147714,OZONE,81,194,108
India,Madhya Pradesh,Indore,"Chhoti Gwaltoli, Indore - MPPCB",20-05-2024 09:00:00,22.4310,75.5213,PM10,75,152,112
India,Madhya Pradesh,Indore,"Chhoti Gwaltoli, Indore - MPPCB",20-05-2024 09:00:00,22.4310,75.5213,NO2,47,141,73
India,Madhya Pradesh,Indore,"Regional Park, Indore - IMC",20-05-2024 09:00:00,22.6780,75.8559,OZONE,NA,NA,NA
