country,state,city,station,last_update,latitude,longitude,pollutant_id,pollutant_min,pollutant_max,pollutant_avg
India,Andhra_Pradesh,Amaravati,"Secretariat, Amaravati - APPCB",27-04-2024 22:00:00,16.5150833,80.5181667,NH3,4,4,4
India,Andhra_Pradesh,Anantapur,"Gulzarpet, Anantapur - APPCB",27-04-2024 22:00:00,14.675886,77.593027,SO2,NA,NA,NA
India,Andhra_Pradesh,Chittoor,"Gangineni Cheruvu, Chittoor - APPCB",27-04-2024 22:00:00,13.204880,79.097889,OZONE,5,25,20
India,Andhra_Pradesh,Rajamahendravaram,"Anand Kala Kshetram, Rajamahendravaram - APPCB",27-04-2024 22:00:00,16.9872867,81.7363176,PM2.5,17,89,38
India,Andhra_Pradesh,Rajamahendravaram,"Anand Kala Kshetram, Rajamahendravaram - APPCB",27-04-2024 22:00:00,16.9872867,81.7363176,NO2,4,11,8
India,Andhra_Pradesh,Tirupati,"Tirumala, Tirupati - APPCB",27-04-2024 22:00:00,13.67,79.35,PM10,46,102,67
India,Andhra_Pradesh,Tirupati,"Tirumala, Tirupati - APPCB",27-04-2024 22:00:00,13.67,79.35,NH3,1,2,1
India,Andhra_Pradesh,Tirupati,"Tirumala, Tirupati - APPCB",27-04-2024 22:00:00,13.67,79.35,CO,32,52,44
India,Andhra_Pradesh,Vijayawada,"HB Colony, Vijayawada - APPCB",27-04-2024 22:00:00,16.536107,80.594233,PM10,49,74,57
India,Andhra_Pradesh,Vijayawada,"HB Colony, Vijayawada - APPCB",27-04-2024 22:00:00,16.536107,80.594233,NH3,4,4,4
India,Andhra_Pradesh,Vijayawada,"HB Colony, Vijayawada - APPCB",27-04-2024 22:00:00,16.536107,80.594233,OZONE,11,63,34
India,Andhra_Pradesh,Vijayawada,"Kanuru, Vijayawada - APPCB",27-04-2024 22:00:00,16.486692,80.699436,SO2,10,14,12
India,Andhra_Pradesh,Vijayawada,"Kanuru, Vijayawada - APPCB",27-04-2024 22:00:00,16.486692,80.699436,CO,29,58,42
India,Arunachal_Pradesh,Naharlagun,"Naharlagun, Naharlagun - APSPCB",27-04-2024 22:00:00,27.103358,93.679645,NO2,NA,NA,NA
India,Assam,Byrnihat,"Central Academy for SFS, Byrnihat - PCBA",27-04-2024 22:00:00,26.071318,91.87488,PM10,55,122,82
India,Assam,Guwahati,"IITG, Guwahati - PCBA",27-04-2024 22:00:00,26.2028636,91.70046436,PM10,38,104,62
India,Assam,Guwahati,"IITG, Guwahati - PCBA",27-04-2024 22:00:00,26.2028636,91.70046436,NH3,5,5,5
India,Assam,Guwahati,"IITG, Guwahati - PCBA",27-04-2024 22:00:00,26.2028636,91.70046436,SO2,11,13,12
India,Assam,Guwahati,"IITG, Guwahati - PCBA",27-04-2024 22:00:00,26.2028636,91.70046436,OZONE,9,42,24
India,Assam,Guwahati,"Pan Bazaar, Guwahati - PCBA",27-04-2024 22:00:00,26.187500,91.744194,PM2.5,28,78,44
India,Assam,Guwahati,"Pan Bazaar, Guwahati - PCBA",27-04-2024 22:00:00,26.187500,91.744194,SO2,37,59,47
India,Assam,Guwahati,"Railway Colony, Guwahati - PCBA",27-04-2024 22:00:00,26.181742,91.78063,NO2,3,3,3
India,Assam,Guwahati,"Railway Colony, Guwahati - PCBA",27-04-2024 22:00:00,26.181742,91.78063,OZONE,3,25,15
India,Assam,Nagaon,"Christianpatty, Nagaon - PCBA",27-04-2024 22:00:00,26.349082,92.68449,NO2,3,41,13
India,Assam,Nagaon,"Christianpatty, Nagaon - PCBA",27-04-2024 22:00:00,26.349082,92.68449,SO2,5,59,18
India,Assam,Nalbari,"Bata Chowk, Nalbari - PCBA",27-04-2024 22:00:00,26.446912,91.439057,PM2.5,43,127,64
India,Assam,Nalbari,"Bata Chowk, Nalbari - PCBA",27-04-2024 22:00:00,26.446912,91.439057,NO2,6,26,12
India,Assam,Nalbari,"Bata Chowk, Nalbari - PCBA",27-04-2024 22:00:00,26.446912,91.439057,OZONE,6,130,47
India,Assam,Silchar,"Tarapur, Silchar - PCBA",27-04-2024 22:00:00,24.82827,92.79525,PM10,42,59,45
India,Assam,Silchar,"Tarapur, Silchar - PCBA",27-04-2024 22:00:00,24.82827,92.79525,OZONE,1,9,5
India,Assam,Sivasagar,"Girls College, Sivasagar - PCBA",27-04-2024 22:00:00,26.987634,94.636574,NO2,10,17,13
India,Assam,Sivasagar,"Girls College, Sivasagar - PCBA",27-04-2024 22:00:00,26.987634,94.636574,NH3,1,2,1
India,Bihar,Araria,"Kharahiya Basti, Araria - BSPCB",27-04-2024 22:00:00,26.146529,87.454184,CO,22,30,27
India,Bihar,Arrah,"New DM Office, Arrah - BSPCB",27-04-2024 22:00:00,25.5626095,84.663264,NO2,5,32,14
India,Bihar,Aurangabad,"Gurdeo Nagar, Aurangabad - BSPCB",27-04-2024 22:00:00,24.75746,84.366208,NO2,3,9,5
India,Bihar,Aurangabad,"Gurdeo Nagar, Aurangabad - BSPCB",27-04-2024 22:00:00,24.75746,84.366208,NH3,3,35,17
India,Bihar,Aurangabad,"Gurdeo Nagar, Aurangabad - BSPCB",27-04-2024 22:00:00,24.75746,84.366208,OZONE,9,72,48
India,Bihar,Bhagalpur,"DM Office_Kachari Chowk, Bhagalpur - BSPCB",27-04-2024 22:00:00,25.251013,86.989001,NO2,53,116,87
India,Bihar,Bhagalpur,"Mayaganj, Bhagalpur - BSPCB",27-04-2024 22:00:00,25.265194,87.012947,NH3,7,10,8
India,Bihar,Bhagalpur,"Mayaganj, Bhagalpur - BSPCB",27-04-2024 22:00:00,25.265194,87.012947,SO2,8,13,12
India,Bihar,Buxar,"Charitra Van, Buxar - BSPCB (Formerly known as Central Jail)",27-04-2024 22:00:00,25.567520,83.966379,NH3,3,4,3
India,Bihar,Gaya,"Collectorate, Gaya - BSPCB",27-04-2024 22:00:00,24.7955,84.9994,OZONE,44,81,62
India,Bihar,Gaya,"Kareemganj, Gaya - BSPCB",27-04-2024 22:00:00,24.792403,84.992416,NO2,30,31,30
India,Bihar,Gaya,"Kareemganj, Gaya - BSPCB",27-04-2024 22:00:00,24.792403,84.992416,NH3,1,4,3
India,Bihar,Gaya,"SFTI Kusdihra, Gaya - BSPCB",27-04-2024 22:00:00,24.762518,84.982348,NO2,20,106,48
India,Bihar,Katihar,"Mirchaibari, Katihar - BSPCB",27-04-2024 22:00:00,25.560083,87.553265,PM2.5,35,77,54
India,Bihar,Katihar,"Mirchaibari, Katihar - BSPCB",27-04-2024 22:00:00,25.560083,87.553265,OZONE,10,17,13
India,Bihar,Manguraha,"Forest Rest House, Manguraha - BSPCB",27-04-2024 22:00:00,27.308328,84.531742,PM10,114,165,141
India,Bihar,Manguraha,"Forest Rest House, Manguraha - BSPCB",27-04-2024 22:00:00,27.308328,84.531742,SO2,NA,NA,NA
India,Bihar,Motihari,"Gandak Colony, Motihari - BSPCB",27-04-2024 22:00:00,26.63086,84.90051,SO2,10,19,14
India,Bihar,Munger,"Town Hall, Munger - BSPCB",27-04-2024 22:00:00,25.376776,86.471523,PM10,84,197,121
India,Bihar,Munger,"Town Hall, Munger - BSPCB",27-04-2024 22:00:00,25.376776,86.471523,NH3,2,3,2
India,Bihar,Munger,"Town Hall, Munger - BSPCB",27-04-2024 22:00:00,25.376776,86.471523,SO2,19,29,25
India,Bihar,Muzaffarpur,"Buddha Colony, Muzaffarpur - BSPCB",27-04-2024 22:00:00,26.11442,85.39813,PM2.5,191,394,270
India,Bihar,Muzaffarpur,"Buddha Colony, Muzaffarpur - BSPCB",27-04-2024 22:00:00,26.11442,85.39813,SO2,9,83,16
India,Bihar,Muzaffarpur,"MIT-Daudpur Kothi, Muzaffarpur - BSPCB",27-04-2024 22:00:00,26.1403345,85.3650192,CO,16,105,30
India,Bihar,Muzaffarpur,"Muzaffarpur Collectorate, Muzaffarpur - BSPCB",27-04-2024 22:00:00,26.1209,85.3647,PM2.5,56,270,94
India,Bihar,Muzaffarpur,"Muzaffarpur Collectorate, Muzaffarpur - BSPCB",27-04-2024 22:00:00,26.1209,85.3647,NO2,NA,NA,NA
India,Bihar,Patna,"Govt. High School Shikarpur, Patna - BSPCB",27-04-2024 22:00:00,25.592539,85.227158,CO,32,67,40
India,Bihar,Patna,"IGSC Planetarium Complex, Patna - BSPCB",27-04-2024 22:00:00,25.610369,85.132568,PM2.5,NA,NA,NA
India,Bihar,Patna,"IGSC Planetarium Complex, Patna - BSPCB",27-04-2024 22:00:00,25.610369,85.132568,OZONE,34,45,36
India,Bihar,Patna,"Muradpur, Patna - BSPCB",27-04-2024 22:00:00,25.619651,85.147382,PM10,138,500,334
India,Bihar,Patna,"Muradpur, Patna - BSPCB",27-04-2024 22:00:00,25.619651,85.147382,NO2,9,19,13
India,Bihar,Patna,"Rajbansi Nagar, Patna - BSPCB",27-04-2024 22:00:00,25.599486,85.113666,PM10,96,208,148
India,Bihar,Patna,"Rajbansi Nagar, Patna - BSPCB",27-04-2024 22:00:00,25.599486,85.113666,OZONE,5,97,75
India,Bihar,Patna,"Samanpura, Patna - BSPCB",27-04-2024 22:00:00,25.596727,85.085624,NO2,8,78,36
India,Bihar,Patna,"Samanpura, Patna - BSPCB",27-04-2024 22:00:00,25.596727,85.085624,SO2,5,12,9
India,Bihar,Purnia,"Mariam Nagar, Purnia - BSPCB",27-04-2024 22:00:00,25.366336,87.117468,PM10,11,161,40
India,Bihar,Purnia,"Mariam Nagar, Purnia - BSPCB",27-04-2024 22:00:00,25.366336,87.117468,OZONE,4,19,12
India,Bihar,Rajgir,"Dangi Tola, Rajgir - BSPCB",27-04-2024 22:00:00,25.03280,85.41948,PM2.5,23,88,56
India,Bihar,Rajgir,"Dangi Tola, Rajgir - BSPCB",27-04-2024 22:00:00,25.03280,85.41948,NO2,18,22,19
India,Bihar,Rajgir,"Dangi Tola, Rajgir - BSPCB",27-04-2024 22:00:00,25.03280,85.41948,CO,22,47,39
India,Bihar,Rajgir,"Dangi Tola, Rajgir - BSPCB",27-04-2024 22:00:00,25.03280,85.41948,OZONE,32,40,33
India,Bihar,Saharsa,"Police Line, Saharsa - BSPCB",27-04-2024 22:00:00,25.892357,86.590325,CO,54,55,55
India,Bihar,Samastipur,"DM Office_Kasipur, Samastipur - BSPCB",27-04-2024 22:00:00,25.859655,85.77944,PM10,88,421,155
India,Bihar,Samastipur,"DM Office_Kasipur, Samastipur - BSPCB",27-04-2024 22:00:00,25.859655,85.77944,CO,NA,NA,NA
India,Bihar,Samastipur,"DM Office_Kasipur, Samastipur - BSPCB",27-04-2024 22:00:00,25.859655,85.77944,OZONE,9,42,27
India,Bihar,Sasaram,"Dada Peer, Sasaram - BSPCB",27-04-2024 22:00:00,24.952822,84.002396,SO2,20,26,21
India,Bihar,Siwan,"Chitragupta Nagar, Siwan - BSPCB",27-04-2024 22:00:00,26.2271665,84.3570427,OZONE,11,70,43
India,Chandigarh,Chandigarh,"Sector-25, Chandigarh - CPCC",27-04-2024 22:00:00,30.751462,76.762879,PM10,101,164,126
India,Chandigarh,Chandigarh,"Sector-53, Chandigarh - CPCC",27-04-2024 22:00:00,30.719859,76.738637,PM10,43,168,102
India,Chandigarh,Chandigarh,"Sector-53, Chandigarh - CPCC",27-04-2024 22:00:00,30.719859,76.738637,NH3,3,7,5
India,Chhattisgarh,Bhilai,"32Bungalows, Bhilai - CECB",27-04-2024 22:00:00,21.194815,81.314770,PM10,38,197,69
India,Chhattisgarh,Bhilai,"32Bungalows, Bhilai - CECB",27-04-2024 22:00:00,21.194815,81.314770,NH3,6,7,6
India,Chhattisgarh,Bhilai,"Civic Center, Bhilai - Bhilai Steel Plant",27-04-2024 22:00:00,21.185571,81.343175,CO,9,63,40
India,Chhattisgarh,Bhilai,"Hathkhoj, Bhilai - CECB",27-04-2024 22:00:00,21.224231,81.408350,SO2,16,79,26
India,Chhattisgarh,Bilaspur,"Mangala, Bilaspur - NTPC",27-04-2024 22:00:00,22.08815,82.13737,PM10,24,87,39
India,Chhattisgarh,Chhal,"Nawapara SECL Colony, Chhal - CECB",27-04-2024 22:00:00,22.118125,83.140608,NO2,11,35,21
India,Chhattisgarh,Chhal,"Nawapara SECL Colony, Chhal - CECB",27-04-2024 22:00:00,22.118125,83.140608,NH3,2,2,2
India,Chhattisgarh,Korba,"Rampur, Korba - CECB",27-04-2024 22:00:00,22.368195,82.746431,PM10,34,297,58
India,Chhattisgarh,Korba,"Rampur, Korba - CECB",27-04-2024 22:00:00,22.368195,82.746431,NH3,1,2,1
India,Chhattisgarh,Korba,"Urja Nagar, Korba - CECB",27-04-2024 22:00:00,22.348441,82.549611,PM2.5,NA,NA,NA
India,Chhattisgarh,Korba,"Urja Nagar, Korba - CECB",27-04-2024 22:00:00,22.348441,82.549611,NH3,3,9,5
India,Chhattisgarh,Korba,"Urja Nagar, Korba - CECB",27-04-2024 22:00:00,22.348441,82.549611,CO,14,38,22
India,Chhattisgarh,Milupara,"Govt. Higher Secondary School, Milupara - CECB",27-04-2024 22:00:00,22.1910172,83.5197009,PM10,NA,NA,NA
India,Chhattisgarh,Milupara,"Govt. Higher Secondary School, Milupara - CECB",27-04-2024 22:00:00,22.1910172,83.5197009,SO2,NA,NA,NA
India,Chhattisgarh,Milupara,"Govt. Higher Secondary School, Milupara - CECB",27-04-2024 22:00:00,22.1910172,83.5197009,OZONE,9,17,13
India,Chhattisgarh,Raipur,"AIIMS, Raipur - CECB",27-04-2024 22:00:00,21.258815,81.578979,PM10,NA,NA,NA
India,Chhattisgarh,Raipur,"AIIMS, Raipur - CECB",27-04-2024 22:00:00,21.258815,81.578979,NH3,NA,NA,NA
India,Chhattisgarh,Raipur,"AIIMS, Raipur - CECB",27-04-2024 22:00:00,21.258815,81.578979,OZONE,8,58,32
India,Chhattisgarh,Raipur,"Krishak Nagar, Raipur - CECB",27-04-2024 22:00:00,21.237755,81.705301,CO,23,48,32
India,Chhattisgarh,Raipur,"Siltara Phase-II, Raipur - CECB",27-04-2024 22:00:00,21.371751,81.664929,PM10,31,133,84
India,Chhattisgarh,Raipur,"Siltara Phase-II, Raipur - CECB",27-04-2024 22:00:00,21.371751,81.664929,NO2,26,67,43
India,Chhattisgarh,Tumidih,"OP Jindal Industrial Park, Tumidih - CECB",27-04-2024 22:00:00,22.06631475,83.33820077,PM10,NA,NA,NA
India,Delhi,Delhi,"Alipur, Delhi - DPCC",27-04-2024 22:00:00,28.815329,77.153010,PM10,89,211,156
India,Delhi,Delhi,"Alipur, Delhi - DPCC",27-04-2024 22:00:00,28.815329,77.153010,NH3,5,10,7
India,Delhi,Delhi,"Anand Vihar, Delhi - DPCC",27-04-2024 22:00:00,28.647622,77.3158090,PM2.5,NA,NA,NA
India,Delhi,Delhi,"Anand Vihar, Delhi - DPCC",27-04-2024 22:00:00,28.647622,77.3158090,NO2,NA,NA,NA
India,Delhi,Delhi,"Ashok Vihar, Delhi - DPCC",27-04-2024 22:00:00,28.695381,77.181665,PM2.5,46,374,123
India,Delhi,Delhi,"Ashok Vihar, Delhi - DPCC",27-04-2024 22:00:00,28.695381,77.181665,PM10,92,290,188
India,Delhi,Delhi,"Aya Nagar, Delhi - IMD",27-04-2024 22:00:00,28.4706914,77.1099364,PM10,NA,NA,NA
India,Delhi,Delhi,"Bawana, Delhi - DPCC",27-04-2024 22:00:00,28.776200,77.051074,NO2,12,86,38
India,Delhi,Delhi,"Bawana, Delhi - DPCC",27-04-2024 22:00:00,28.776200,77.051074,OZONE,5,115,86
India,Delhi,Delhi,"Burari Crossing, Delhi - IMD",27-04-2024 22:00:00,28.7256504,77.2011573,CO,22,44,25
India,Delhi,Delhi,"Chandni Chowk, Delhi - IITM",27-04-2024 22:00:00,28.656756,77.227234,PM10,102,199,148
India,Delhi,Delhi,"Chandni Chowk, Delhi - IITM",27-04-2024 22:00:00,28.656756,77.227234,SO2,13,57,31
India,Delhi,Delhi,"DTU, Delhi - CPCB",27-04-2024 22:00:00,28.7500499,77.1112615,PM2.5,69,263,165
India,Delhi,Delhi,"DTU, Delhi - CPCB",27-04-2024 22:00:00,28.7500499,77.1112615,NH3,12,14,13
India,Delhi,Delhi,"Dr. Karni Singh Shooting Range, Delhi - DPCC",27-04-2024 22:00:00,28.498571,77.264840,NH3,7,11,9
India,Delhi,Delhi,"Dr. Karni Singh Shooting Range, Delhi - DPCC",27-04-2024 22:00:00,28.498571,77.264840,SO2,14,22,19
India,Delhi,Delhi,"Dr. Karni Singh Shooting Range, Delhi - DPCC",27-04-2024 22:00:00,28.498571,77.264840,CO,27,104,51
India,Delhi,Delhi,"Dr. Karni Singh Shooting Range, Delhi - DPCC",27-04-2024 22:00:00,28.498571,77.264840,OZONE,2,197,124
India,Delhi,Delhi,"Dwarka-Sector 8, Delhi - DPCC ",27-04-2024 22:00:00,28.5710274,77.0719006,PM2.5,50,184,80
India,Delhi,Delhi,"Dwarka-Sector 8, Delhi - DPCC ",27-04-2024 22:00:00,28.5710274,77.0719006,PM10,104,402,212
India,Delhi,Delhi,"Dwarka-Sector 8, Delhi - DPCC ",27-04-2024 22:00:00,28.5710274,77.0719006,NH3,3,4,4
India,Delhi,Delhi,"Dwarka-Sector 8, Delhi - DPCC ",27-04-2024 22:00:00,28.5710274,77.0719006,OZONE,2,57,41
India,Delhi,Delhi,"IGI Airport (T3), Delhi - IMD",27-04-2024 22:00:00,28.5627763,77.1180053,PM2.5,18,109,62
India,Delhi,Delhi,"IGI Airport (T3), Delhi - IMD",27-04-2024 22:00:00,28.5627763,77.1180053,NO2,4,10,7
India,Delhi,Delhi,"ITO, Delhi - CPCB",27-04-2024 22:00:00,28.628624,77.241060,PM2.5,46,125,78
India,Delhi,Delhi,"ITO, Delhi - CPCB",27-04-2024 22:00:00,28.628624,77.241060,PM10,88,217,140
India,Delhi,Delhi,"Jahangirpuri, Delhi - DPCC",27-04-2024 22:00:00,28.732820,77.170633,NO2,35,121,78
India,Delhi,Delhi,"Jawaharlal Nehru Stadium, Delhi - DPCC",27-04-2024 22:00:00,28.580280,77.233829,OZONE,3,172,107
India,Delhi,Delhi,"Lodhi Road, Delhi - IITM",27-04-2024 22:00:00,28.588333,77.221667,PM2.5,88,381,200
India,Delhi,Delhi,"Lodhi Road, Delhi - IITM",27-04-2024 22:00:00,28.588333,77.221667,PM10,71,500,157
India,Delhi,Delhi,"Lodhi Road, Delhi - IITM",27-04-2024 22:00:00,28.588333,77.221667,SO2,15,36,26
India,Delhi,Delhi,"Lodhi Road, Delhi - IMD",27-04-2024 22:00:00,28.5918245,77.2273074,OZONE,5,50,37
India,Delhi,Delhi,"Mundka, Delhi - DPCC",27-04-2024 22:00:00,28.684678,77.076574,PM10,113,336,210
India,Delhi,Delhi,"Mundka, Delhi - DPCC",27-04-2024 22:00:00,28.684678,77.076574,NO2,15,95,46
India,Delhi,Delhi,"NSIT Dwarka, Delhi - CPCB",27-04-2024 22:00:00,28.60909,77.0325413,NH3,9,13,11
India,Delhi,Delhi,"NSIT Dwarka, Delhi - CPCB",27-04-2024 22:00:00,28.60909,77.0325413,OZONE,10,55,32
India,Delhi,Delhi,"Najafgarh, Delhi - DPCC",27-04-2024 22:00:00,28.570173,76.933762,PM10,53,321,159
India,Delhi,Delhi,"Najafgarh, Delhi - DPCC",27-04-2024 22:00:00,28.570173,76.933762,SO2,7,17,12
India,Delhi,Delhi,"Najafgarh, Delhi - DPCC",27-04-2024 22:00:00,28.570173,76.933762,OZONE,23,118,86
India,Delhi,Delhi,"Narela, Delhi - DPCC",27-04-2024 22:00:00,28.822836,77.101981,NO2,8,91,35
India,Delhi,Delhi,"Narela, Delhi - DPCC",27-04-2024 22:00:00,28.822836,77.101981,OZONE,4,135,104
India,Delhi,Delhi,"Nehru Nagar, Delhi - DPCC",27-04-2024 22:00:00,28.567890,77.250515,PM2.5,46,203,84
India,Delhi,Delhi,"Nehru Nagar, Delhi - DPCC",27-04-2024 22:00:00,28.567890,77.250515,CO,35,146,62
India,Delhi,Delhi,"New Moti Bagh, Delhi - MHUA",27-04-2024 22:00:00,28.57834,77.18400,NO2,6,30,14
India,Delhi,Delhi,"New Moti Bagh, Delhi - MHUA",27-04-2024 22:00:00,28.57834,77.18400,CO,17,76,34
India,Delhi,Delhi,"Okhla Phase-2, Delhi - DPCC",27-04-2024 22:00:00,28.530785,77.271255,NO2,34,115,64
India,Delhi,Delhi,"Patparganj, Delhi - DPCC",27-04-2024 22:00:00,28.623763,77.287209,NH3,7,12,10
India,Delhi,Delhi,"Punjabi Bagh, Delhi - DPCC",27-04-2024 22:00:00,28.674045,77.131023,PM10,72,312,167
India,Delhi,Delhi,"Pusa, Delhi - DPCC",27-04-2024 22:00:00,28.639652,77.146275,SO2,4,23,13
India,Delhi,Delhi,"Pusa, Delhi - DPCC",27-04-2024 22:00:00,28.639652,77.146275,CO,18,96,54
India,Delhi,Delhi,"Pusa, Delhi - IMD",27-04-2024 22:00:00,28.636110,77.173332,CO,33,51,37
India,Delhi,Delhi,"R K Puram, Delhi - DPCC",27-04-2024 22:00:00,28.563262,77.186937,PM10,82,317,171
India,Delhi,Delhi,"R K Puram, Delhi - DPCC",27-04-2024 22:00:00,28.563262,77.186937,SO2,1,61,33
India,Delhi,Delhi,"Shadipur, Delhi - CPCB",27-04-2024 22:00:00,28.6514781,77.1473105,PM10,57,500,221
India,Delhi,Delhi,"Sirifort, Delhi - CPCB",27-04-2024 22:00:00,28.5504249,77.2159377,NO2,56,67,60
India,Delhi,Delhi,"Sonia Vihar, Delhi - DPCC",27-04-2024 22:00:00,28.710508,77.249485,NO2,14,111,46
India,Delhi,Delhi,"Sonia Vihar, Delhi - DPCC",27-04-2024 22:00:00,28.710508,77.249485,NH3,6,17,7
India,Delhi,Delhi,"Sri Aurobindo Marg, Delhi - DPCC",27-04-2024 22:00:00,28.531346,77.190156,PM10,70,329,165
India,Delhi,Delhi,"Sri Aurobindo Marg, Delhi - DPCC",27-04-2024 22:00:00,28.531346,77.190156,SO2,7,29,14
India,Delhi,Delhi,"Vivek Vihar, Delhi - DPCC",27-04-2024 22:00:00,28.672342,77.315260,PM2.5,50,297,96
India,Delhi,Delhi,"Wazirpur, Delhi - DPCC",27-04-2024 22:00:00,28.699793,77.165453,PM2.5,64,316,104
India,Delhi,Delhi,"Wazirpur, Delhi - DPCC",27-04-2024 22:00:00,28.699793,77.165453,OZONE,6,125,58
India,Gujarat,Ahmedabad,"Chandkheda, Ahmedabad - IITM",27-04-2024 22:00:00,23.107969,72.574648,PM2.5,66,301,140
India,Gujarat,Ahmedabad,"Chandkheda, Ahmedabad - IITM",27-04-2024 22:00:00,23.107969,72.574648,PM10,69,174,112
India,Gujarat,Ahmedabad,"Maninagar, Ahmedabad - GPCB",27-04-2024 22:00:00,23.002657,72.591912,OZONE,8,70,28
India,Gujarat,Ahmedabad,"Raikhad, Ahmedabad - IITM",27-04-2024 22:00:00,23.020509,72.579261,PM2.5,138,327,239
India,Gujarat,Ahmedabad,"Raikhad, Ahmedabad - IITM",27-04-2024 22:00:00,23.020509,72.579261,PM10,124,226,162
India,Gujarat,Ahmedabad,"Raikhad, Ahmedabad - IITM",27-04-2024 22:00:00,23.020509,72.579261,NH3,5,6,5
India,Gujarat,Ahmedabad,"SAC ISRO Satellite, Ahmedabad - IITM",27-04-2024 22:00:00,23.023389,72.515201,NO2,17,32,20
India,Gujarat,Ahmedabad,"SAC ISRO Satellite, Ahmedabad - IITM",27-04-2024 22:00:00,23.023389,72.515201,CO,22,40,26
India,Gujarat,Ahmedabad,"SVPI Airport Hansol, Ahmedabad - IITM",27-04-2024 22:00:00,23.076793,72.627874,PM2.5,125,290,196
India,Gujarat,Ahmedabad,"SVPI Airport Hansol, Ahmedabad - IITM",27-04-2024 22:00:00,23.076793,72.627874,PM10,100,154,122
India,Gujarat,Ahmedabad,"Sardar Vallabhbhai Patel Stadium, Ahmedabad - IITM",27-04-2024 22:00:00,23.043070,72.562968,OZONE,2,41,24
India,Gujarat,Ankleshwar,"GIDC, Ankleshwar - GPCB",27-04-2024 22:00:00,21.613267,73.010555,OZONE,23,35,32
India,Gujarat,Gandhinagar,"Sector-10, Gandhinagar - GPCB",27-04-2024 22:00:00,23.221714,72.654328,PM10,27,85,53
India,Gujarat,Gandhinagar,"Sector-10, Gandhinagar - GPCB",27-04-2024 22:00:00,23.221714,72.654328,NH3,1,1,1
India,Gujarat,Surat,"Science Center, Surat - SMC",27-04-2024 22:00:00,21.170046,72.795405,CO,22,57,35
India,Gujarat,Vapi,"Phase-1 GIDC, Vapi - GPCB",27-04-2024 22:00:00,20.362421,72.918013,SO2,53,54,53
India,Gujarat,Vatva,"Phase-4 GIDC, Vatva - GPCB",27-04-2024 22:00:00,22.969611,72.643500,NH3,6,12,9
India,Gujarat,Vatva,"Phase-4 GIDC, Vatva - GPCB",27-04-2024 22:00:00,22.969611,72.643500,CO,34,36,36
India,Haryana,Ambala,"Patti Mehar, Ambala - HSPCB",27-04-2024 22:00:00,30.379589,76.778328,NO2,NA,NA,NA
India,Haryana,Ballabgarh,"Nathu Colony, Ballabgarh - HSPCB",27-04-2024 22:00:00,28.3419248,77.319699,PM10,106,223,161
India,Haryana,Bhiwani,"H.B. Colony, Bhiwani - HSPCB",27-04-2024 22:00:00,28.806223,76.141105,OZONE,22,45,25
India,Haryana,Charkhi Dadri,"Mini Secretariat, Charkhi Dadri - HSPCB",27-04-2024 22:00:00,28.593883,76.270653,PM2.5,58,362,207
India,Haryana,Dharuhera,"Municipal Corporation Office, Dharuhera -  HSPCB",27-04-2024 22:00:00,28.206800,76.799700,PM2.5,33,180,102
India,Haryana,Dharuhera,"Municipal Corporation Office, Dharuhera -  HSPCB",27-04-2024 22:00:00,28.206800,76.799700,PM10,94,407,190
India,Haryana,Dharuhera,"Municipal Corporation Office, Dharuhera -  HSPCB",27-04-2024 22:00:00,28.206800,76.799700,NO2,44,115,69
India,Haryana,Dharuhera,"Municipal Corporation Office, Dharuhera -  HSPCB",27-04-2024 22:00:00,28.206800,76.799700,OZONE,6,30,21
India,Haryana,Faridabad,"New Industrial Town, Faridabad - HSPCB",27-04-2024 22:00:00,28.39072,77.30059,SO2,NA,NA,NA
India,Haryana,Faridabad,"Sector 30, Faridabad - HSPCB",27-04-2024 22:00:00,28.4417,77.3217,PM2.5,NA,NA,NA
India,Haryana,Faridabad,"Sector 30, Faridabad - HSPCB",27-04-2024 22:00:00,28.4417,77.3217,CO,56,62,59
India,Haryana,Faridabad,"Sector- 16A, Faridabad - HSPCB",27-04-2024 22:00:00,28.4088421,77.3099081,SO2,1,24,12
India,Haryana,Faridabad,"Sector- 16A, Faridabad - HSPCB",27-04-2024 22:00:00,28.4088421,77.3099081,OZONE,14,14,14
India,Haryana,Fatehabad,"Huda Sector, Fatehabad - HSPCB",27-04-2024 22:00:00,29.503664,75.467934,PM2.5,28,98,51
India,Haryana,Gurugram,"Teri Gram, Gurugram - HSPCB",27-04-2024 22:00:00,28.4275,77.1465,PM2.5,18,314,176
India,Haryana,Gurugram,"Teri Gram, Gurugram - HSPCB",27-04-2024 22:00:00,28.4275,77.1465,PM10,109,335,224
India,Haryana,Jind,"Police Lines, Jind - HSPCB",27-04-2024 22:00:00,29.307814,76.337619,PM2.5,NA,NA,NA
India,Haryana,Jind,"Police Lines, Jind - HSPCB",27-04-2024 22:00:00,29.307814,76.337619,NO2,NA,NA,NA
India,Haryana,Jind,"Police Lines, Jind - HSPCB",27-04-2024 22:00:00,29.307814,76.337619,OZONE,18,35,24
India,Haryana,Kaithal,"Rishi Nagar, Kaithal - HSPCB",27-04-2024 22:00:00,29.8006,76.4155,SO2,NA,NA,NA
India,Haryana,Kaithal,"Rishi Nagar, Kaithal - HSPCB",27-04-2024 22:00:00,29.8006,76.4155,CO,13,52,39
India,Haryana,Karnal,"Sector-12, Karnal - HSPCB",27-04-2024 22:00:00,29.695300,77.002700,PM2.5,37,111,68
India,Haryana,Karnal,"Sector-12, Karnal - HSPCB",27-04-2024 22:00:00,29.695300,77.002700,PM10,29,114,72
India,Haryana,Kurukshetra,"Sector-7, Kurukshetra - HSPCB",27-04-2024 22:00:00,29.966942,76.875879,NO2,10,10,10
India,Haryana,Manesar,"Sector-2 IMT, Manesar - HSPCB",27-04-2024 22:00:00,28.360699,76.936090,CO,18,56,27
India,Haryana,Palwal,"Shyam Nagar, Palwal - HSPCB",27-04-2024 22:00:00,28.1485564,77.3320667,PM2.5,43,87,56
India,Haryana,Palwal,"Shyam Nagar, Palwal - HSPCB",27-04-2024 22:00:00,28.1485564,77.3320667,NO2,23,24,24
India,Haryana,Panipat,"Sector-18, Panipat - HSPCB",27-04-2024 22:00:00,29.497973,76.993331,PM2.5,127,132,130
India,Haryana,Panipat,"Sector-18, Panipat - HSPCB",27-04-2024 22:00:00,29.497973,76.993331,CO,24,26,25
India,Haryana,Rohtak,"MD University, Rohtak - HSPCB",27-04-2024 22:00:00,28.52123,76.37138,CO,NA,NA,NA
India,Haryana,Sirsa,"F-Block, Sirsa - HSPCB",27-04-2024 22:00:00,29.536400,75.015800,PM10,74,322,122
India,Haryana,Sirsa,"F-Block, Sirsa - HSPCB",27-04-2024 22:00:00,29.536400,75.015800,NH3,3,13,12
India,Haryana,Sirsa,"F-Block, Sirsa - HSPCB",27-04-2024 22:00:00,29.536400,75.015800,OZONE,20,104,92
India,Haryana,Sonipat,"Murthal, Sonipat - HSPCB",27-04-2024 22:00:00,29.027200,77.062100,NH3,5,10,9
India,Haryana,Yamuna Nagar,"Gobind Pura, Yamuna Nagar - HSPCB",27-04-2024 22:00:00,30.1480566,77.2893471,OZONE,22,30,23
India,Himachal Pradesh,Baddi,"HIMUDA Complex Phase-1, Baddi - HPPCB",27-04-2024 22:00:00,30.943887,76.801991,PM10,55,401,145
India,Himachal Pradesh,Baddi,"HIMUDA Complex Phase-1, Baddi - HPPCB",27-04-2024 22:00:00,30.943887,76.801991,SO2,11,31,17
India,Jharkhand,Dhanbad,"Sardar Patel Nagar, Dhanbad - JSPCB",27-04-2024 22:00:00,23.80569,86.44268,SO2,4,134,16
India,Jharkhand,Pathardih,"Mohalbani Ghat, Pathardih - DMC",27-04-2024 22:00:00,23.669880,86.411725,PM10,NA,NA,NA
India,Karnataka,Bagalkot,"Vidayagiri, Bagalkot - KSPCB",27-04-2024 22:00:00,16.172806,75.659694,PM10,49,50,50
India,Karnataka,Bagalkot,"Vidayagiri, Bagalkot - KSPCB",27-04-2024 22:00:00,16.172806,75.659694,NH3,1,2,1
India,Karnataka,Bagalkot,"Vidayagiri, Bagalkot - KSPCB",27-04-2024 22:00:00,16.172806,75.659694,SO2,8,10,9
India,Karnataka,Belgaum,"Ramteerth Nagar, Belgaum - KSPCB",27-04-2024 22:00:00,15.888653,74.541751,PM10,31,93,52
India,Karnataka,Belgaum,"Ramteerth Nagar, Belgaum - KSPCB",27-04-2024 22:00:00,15.888653,74.541751,NO2,11,65,35
India,Karnataka,Bengaluru,"BTM Layout, Bengaluru - CPCB",27-04-2024 22:00:00,12.9135218,77.5950804,PM2.5,NA,NA,NA
India,Karnataka,Bengaluru,"Bapuji Nagar, Bengaluru - KSPCB",27-04-2024 22:00:00,12.951913,77.539784,SO2,6,11,8
India,Karnataka,Bengaluru,"Bapuji Nagar, Bengaluru - KSPCB",27-04-2024 22:00:00,12.951913,77.539784,OZONE,27,33,31
India,Karnataka,Bengaluru,"Hebbal, Bengaluru - KSPCB",27-04-2024 22:00:00,13.029152,77.585901,PM2.5,22,148,82
India,Karnataka,Bengaluru,"Hombegowda Nagar, Bengaluru - KSPCB",27-04-2024 22:00:00,12.938539,77.590100,PM10,49,115,83
India,Karnataka,Bengaluru,"Kasturi Nagar, Bengaluru - KSPCB",27-04-2024 22:00:00,13.003872,77.664217,NO2,16,17,17
India,Karnataka,Bengaluru,"Peenya, Bengaluru - CPCB",27-04-2024 22:00:00,13.0270199,77.494094,OZONE,22,44,28
India,Karnataka,Bengaluru,"RVCE-Mailasandra, Bengaluru - KSPCB",27-04-2024 22:00:00,12.921418,77.502466,PM2.5,53,183,103
India,Karnataka,Bengaluru,"RVCE-Mailasandra, Bengaluru - KSPCB",27-04-2024 22:00:00,12.921418,77.502466,SO2,8,24,13
India,Karnataka,Bengaluru,"Shivapura_Peenya, Bengaluru - KSPCB",27-04-2024 22:00:00,13.0246342,77.5080115,PM10,59,105,80
India,Karnataka,Bengaluru,"Silk Board, Bengaluru - KSPCB",27-04-2024 22:00:00,12.917348,77.622813,NO2,7,28,12
India,Karnataka,Bengaluru,"Silk Board, Bengaluru - KSPCB",27-04-2024 22:00:00,12.917348,77.622813,SO2,1,10,5
India,Karnataka,Chamarajanagar,"Urban, Chamarajanagar - KSPCB",27-04-2024 22:00:00,11.55358,76.55521,NO2,17,23,22
India,Karnataka,Chikkaballapur,"Chikkaballapur Rural, Chikkaballapur - KSPCB",27-04-2024 22:00:00,13.428828,77.731418,CO,16,60,24
India,Karnataka,Chikkamagaluru,"Kalyana Nagara, Chikkamagaluru - KSPCB",27-04-2024 22:00:00,13.328028,75.797056,PM2.5,NA,NA,NA
India,Karnataka,Chikkamagaluru,"Kalyana Nagara, Chikkamagaluru - KSPCB",27-04-2024 22:00:00,13.328028,75.797056,SO2,NA,NA,NA
India,Karnataka,Davanagere,"Devaraj Urs Badavane, Davanagere - KSPCB",27-04-2024 22:00:00,14.475800,75.905200,NO2,10,19,12
India,Karnataka,Davanagere,"Devaraj Urs Badavane, Davanagere - KSPCB",27-04-2024 22:00:00,14.475800,75.905200,NH3,1,2,2
India,Karnataka,Dharwad,"Kalabhavan, Dharwad - KSPCB",27-04-2024 22:00:00,15.459706,75.008381,PM2.5,48,113,71
India,Karnataka,Dharwad,"Kalabhavan, Dharwad - KSPCB",27-04-2024 22:00:00,15.459706,75.008381,PM10,67,132,96
India,Karnataka,Dharwad,"Kalabhavan, Dharwad - KSPCB",27-04-2024 22:00:00,15.459706,75.008381,NH3,3,3,3
India,Karnataka,Gadag,"Panchal Nagar, Gadag - KSPCB",27-04-2024 22:00:00,15.411456,75.638133,PM2.5,24,47,32
India,Karnataka,Gadag,"Panchal Nagar, Gadag - KSPCB",27-04-2024 22:00:00,15.411456,75.638133,CO,44,57,47
India,Karnataka,Hubballi,"Deshpande Nagar, Hubballi - KSPCB",27-04-2024 22:00:00,15.351773,75.140726,PM2.5,28,70,48
India,Karnataka,Hubballi,"Deshpande Nagar, Hubballi - KSPCB",27-04-2024 22:00:00,15.351773,75.140726,NO2,27,27,27
India,Karnataka,Hubballi,"Deshpande Nagar, Hubballi - KSPCB",27-04-2024 22:00:00,15.351773,75.140726,OZONE,1,9,6
India,Karnataka,Hubballi,"Lingaraj Nagar, Hubballi - KSPCB",27-04-2024 22:00:00,15.3714823,75.1160168,NO2,6,6,6
India,Karnataka,Hubballi,"Lingaraj Nagar, Hubballi - KSPCB",27-04-2024 22:00:00,15.3714823,75.1160168,SO2,1,28,3
India,Karnataka,Hubballi,"Lingaraj Nagar, Hubballi - KSPCB",27-04-2024 22:00:00,15.3714823,75.1160168,CO,1,44,18
India,Karnataka,Kalaburagi,"Lal Bahadur Shastri Nagar, Kalaburagi - KSPCB",27-04-2024 22:00:00,17.321993,76.822628,SO2,21,122,28
India,Karnataka,Kalaburagi,"Lal Bahadur Shastri Nagar, Kalaburagi - KSPCB",27-04-2024 22:00:00,17.321993,76.822628,CO,43,62,45
India,Karnataka,Kalaburagi,"Lal Bahadur Shastri Nagar, Kalaburagi - KSPCB",27-04-2024 22:00:00,17.321993,76.822628,OZONE,2,75,52
India,Karnataka,Kalaburagi,"Mahatma Basaveswar Colony, Kalaburgi - KSPCB",27-04-2024 22:00:00,17.336318,76.847397,PM10,NA,NA,NA
India,Karnataka,Koppal,"Diwator Nagar, Koppal - KSPCB",27-04-2024 22:00:00,15.347630,76.181767,NO2,22,67,47
India,Karnataka,Koppal,"Diwator Nagar, Koppal - KSPCB",27-04-2024 22:00:00,15.347630,76.181767,NH3,6,9,8
India,Karnataka,Koppal,"Diwator Nagar, Koppal - KSPCB",27-04-2024 22:00:00,15.347630,76.181767,OZONE,59,153,119
India,Karnataka,Madikeri,"Stuart Hill, Madikeri - KSPCB",27-04-2024 22:00:00,12.415911,75.735050,PM2.5,15,68,35
India,Karnataka,Madikeri,"Stuart Hill, Madikeri - KSPCB",27-04-2024 22:00:00,12.415911,75.735050,PM10,26,71,42
India,Karnataka,Mysuru,"Hebbal 1st Stage, Mysuru - KSPCB",27-04-2024 22:00:00,12.21041,76.37376,PM10,34,60,46
India,Karnataka,Mysuru,"Hebbal 1st Stage, Mysuru - KSPCB",27-04-2024 22:00:00,12.21041,76.37376,NO2,16,22,20
India,Karnataka,Mysuru,"Hebbal 1st Stage, Mysuru - KSPCB",27-04-2024 22:00:00,12.21041,76.37376,SO2,1,3,2
India,Karnataka,Mysuru,"Hebbal 1st Stage, Mysuru - KSPCB",27-04-2024 22:00:00,12.21041,76.37376,CO,6,32,16
India,Karnataka,Ramanagara,"Vijay Nagar, Ramanagara - KSPCB",27-04-2024 22:00:00,12.733409,77.298051,OZONE,27,35,29
India,Karnataka,Shivamogga,"Vinoba Nagara, Shivamogga - KSPCB",27-04-2024 22:00:00,13.940000,75.555917,SO2,2,10,4
India,Karnataka,Tumakuru,"Thimmalapura, Tumakuru - KSPCB",27-04-2024 22:00:00,13.377516,77.099072,SO2,9,14,11
India,Karnataka,Tumakuru,"Thimmalapura, Tumakuru - KSPCB",27-04-2024 22:00:00,13.377516,77.099072,CO,29,36,31
India,Karnataka,Yadgir,"Collector Office, Yadgir - KSPCB",27-04-2024 22:00:00,16.7602,77.1428,SO2,6,30,18
India,Karnataka,Yadgir,"Collector Office, Yadgir - KSPCB",27-04-2024 22:00:00,16.7602,77.1428,CO,10,22,17
India,Kerala,Eloor,"Udyogamandal, Eloor - Kerala PCB",27-04-2024 22:00:00,10.073232,76.302765,NH3,1,1,1
India,Kerala,Eloor,"Udyogamandal, Eloor - Kerala PCB",27-04-2024 22:00:00,10.073232,76.302765,OZONE,11,18,15
India,Kerala,Kannur,"Thavakkara, Kannur - Kerala PCB",27-04-2024 22:00:00,11.875000,75.373200,PM2.5,66,79,73
India,Kerala,Kannur,"Thavakkara, Kannur - Kerala PCB",27-04-2024 22:00:00,11.875000,75.373200,CO,30,36,32
India,Kerala,Thiruvananthapuram,"Kariavattom, Thiruvananthapuram - Kerala PCB",27-04-2024 22:00:00,8.563700,76.886500,OZONE,27,32,30
India,Kerala,Thiruvananthapuram,"Plammoodu, Thiruvananthapuram - Kerala PCB",27-04-2024 22:00:00,8.5149093,76.9435879,SO2,5,13,8
India,Kerala,Thiruvananthapuram,"Plammoodu, Thiruvananthapuram - Kerala PCB",27-04-2024 22:00:00,8.5149093,76.9435879,CO,10,28,19
India,Kerala,Thiruvananthapuram,"Plammoodu, Thiruvananthapuram - Kerala PCB",27-04-2024 22:00:00,8.5149093,76.9435879,OZONE,7,71,16
India,Kerala,Thrissur,"Corporation Ground, Thrissur - Kerala PCB",27-04-2024 22:00:00,10.532400,76.215900,PM2.5,45,52,48
India,Kerala,Thrissur,"Corporation Ground, Thrissur - Kerala PCB",27-04-2024 22:00:00,10.532400,76.215900,PM10,61,70,64
India,Kerala,Thrissur,"Corporation Ground, Thrissur - Kerala PCB",27-04-2024 22:00:00,10.532400,76.215900,SO2,NA,NA,NA
India,Madhya Pradesh,Bhopal,"Idgah Hills, Bhopal - MPPCB",27-04-2024 22:00:00,23.264759,77.381568,NH3,4,6,5
India,Madhya Pradesh,Bhopal,"Idgah Hills, Bhopal - MPPCB",27-04-2024 22:00:00,23.264759,77.381568,OZONE,35,87,72
India,Madhya Pradesh,Bhopal,"Paryavaran Parisar, Bhopal - MPPCB",27-04-2024 22:00:00,23.210494,77.425409,SO2,8,19,11
India,Madhya Pradesh,Dewas,"Bhopal Chauraha, Dewas - MPPCB",27-04-2024 22:00:00,22.9682591,76.064118,PM2.5,31,80,47
India,Madhya Pradesh,Dewas,"Bhopal Chauraha, Dewas - MPPCB",27-04-2024 22:00:00,22.9682591,76.064118,PM10,40,87,56
India,Madhya Pradesh,Dewas,"Bhopal Chauraha, Dewas - MPPCB",27-04-2024 22:00:00,22.9682591,76.064118,NO2,12,14,13
India,Madhya Pradesh,Dewas,"Bhopal Chauraha, Dewas - MPPCB",27-04-2024 22:00:00,22.9682591,76.064118,SO2,9,47,31
India,Madhya Pradesh,Dewas,"Bhopal Chauraha, Dewas - MPPCB",27-04-2024 22:00:00,22.9682591,76.064118,CO,14,33,19
India,Madhya Pradesh,Gwalior,"City Center, Gwalior - MPPCB",27-04-2024 22:00:00,26.203442,78.193251,PM10,NA,NA,NA
India,Madhya Pradesh,Gwalior,"City Center, Gwalior - MPPCB",27-04-2024 22:00:00,26.203442,78.193251,NH3,NA,NA,NA
India,Madhya Pradesh,Gwalior,"City Center, Gwalior - MPPCB",27-04-2024 22:00:00,26.203442,78.193251,SO2,NA,NA,NA
India,Madhya Pradesh,Gwalior,"Deen Dayal Nagar, Gwalior - MPPCB",27-04-2024 22:00:00,26.259242,78.216432,NH3,5,27,10
India,Madhya Pradesh,Gwalior,"Maharaj Bada, Gwalior - MPPCB",27-04-2024 22:00:00,26.200388,78.147714,SO2,12,20,14
India,Madhya Pradesh,Gwalior,"Maharaj Bada, Gwalior - MPPCB",27-04-2024 22:00:00,26.200388,78.147714,OZONE,64,92,82
India,Madhya Pradesh,Indore,"Chhoti Gwaltoli, Indore - MPPCB",27-04-2024 22:00:00,22.4310,75.5213,PM10,66,159,94
India,Madhya Pradesh,Indore,"Chhoti Gwaltoli, Indore - MPPCB",27-04-2024 22:00:00,22.4310,75.5213,CO,32,80,51
India,Madhya Pradesh,Indore,"Maguda Nagar, Indore - IMC",27-04-2024 22:00:00,22.7524,75.8872,PM2.5,38,126,63
India,Madhya Pradesh,Indore,"Regional Park, Indore - IMC",27-04-2024 22:00:00,22.6780,75.8559,PM2.5,NA,NA,NA
India,Madhya Pradesh,Jabalpur,"Govindh Bhavan Colony, Jabalpur - JMC",27-04-2024 22:00:00,23.163174,79.973061,PM2.5,10,53,29
India,Madhya Pradesh,Pithampur,"Sector-2 Industrial Area, Pithampur - MPPCB",27-04-2024 22:00:00,22.624758,75.675238,CO,22,66,26
India,Madhya Pradesh,Ratlam,"Shasthri Nagar, Ratlam - IPCA Lab",27-04-2024 22:00:00,23.331731,75.045981,NO2,14,93,40
India,Madhya Pradesh,Ratlam,"Shasthri Nagar, Ratlam - IPCA Lab",27-04-2024 22:00:00,23.331731,75.045981,SO2,36,38,37
India,Madhya Pradesh,Sagar,"Civil Lines, Sagar - MPPCB",27-04-2024 22:00:00,23.838586,78.759431,PM10,33,128,54
India,Madhya Pradesh,Sagar,"Civil Lines, Sagar - MPPCB",27-04-2024 22:00:00,23.838586,78.759431,NH3,4,5,5
India,Madhya Pradesh,Sagar,"Deen Dayal Nagar, Sagar - MPPCB",27-04-2024 22:00:00,23.8640158,78.80289321,CO,36,81,60
India,Madhya Pradesh,Satna,"Bandhavgar Colony, Satna - Birla Cement",27-04-2024 22:00:00,24.58434363,80.8549414,SO2,4,4,4
India,Madhya Pradesh,Singrauli,"Suryakiran Bhawan NCL, Singrauli - MPPCB",27-04-2024 22:00:00,24.108970,82.645580,PM10,49,252,111
India,Madhya Pradesh,Singrauli,"Suryakiran Bhawan NCL, Singrauli - MPPCB",27-04-2024 22:00:00,24.108970,82.645580,NH3,3,5,4
India,Madhya Pradesh,Singrauli,"Suryakiran Bhawan NCL, Singrauli - MPPCB",27-04-2024 22:00:00,24.108970,82.645580,OZONE,28,84,64
India,Madhya Pradesh,Ujjain,"Mahakaleshwar Temple, Ujjain - MPPCB",27-04-2024 22:00:00,23.182719 ,75.768218 ,NO2,NA,NA,NA
India,Madhya Pradesh,Ujjain,"Mahakaleshwar Temple, Ujjain - MPPCB",27-04-2024 22:00:00,23.182719 ,75.768218 ,NH3,NA,NA,NA
India,Maharashtra,Ahmednagar,"Tarakpur, Ahmednagar - MPCB",27-04-2024 22:00:00,19.10122,74.73339,PM10,NA,NA,NA
India,Maharashtra,Akola,"Ramdaspeth, Akola - MPCB",27-04-2024 22:00:00,20.719516,77.000253,PM10,50,267,78
India,Maharashtra,Akola,"Ramdaspeth, Akola - MPCB",27-04-2024 22:00:00,20.719516,77.000253,NO2,11,118,28
India,Maharashtra,Akola,"Ramdaspeth, Akola - MPCB",27-04-2024 22:00:00,20.719516,77.000253,SO2,10,15,12
India,Maharashtra,Amravati,"Shivneri Colony, Amravati - MPCB",27-04-2024 22:00:00,20.9402359,77.7895248,NH3,1,3,2
India,Maharashtra,Amravati,"Shri Shivaji Science College, Amaravati - MPCB",27-04-2024 22:00:00,20.939198,77.765701,CO,6,112,44
India,Maharashtra,Aurangabad,"MIDC Chilkalthana, Aurangabad - MPCB",27-04-2024 22:00:00,19.875620,75.387310,PM10,68,118,86
India,Maharashtra,Aurangabad,"More Chowk Waluj, Aurangabad - MPCB",27-04-2024 22:00:00,19.8389439,75.244448,CO,6,102,35
India,Maharashtra,Aurangabad,"More Chowk Waluj, Aurangabad - MPCB",27-04-2024 22:00:00,19.8389439,75.244448,OZONE,10,125,82
India,Maharashtra,Aurangabad,"Rachnakar Colony, Aurangabad - MPCB",27-04-2024 22:00:00,19.863756,75.321188,PM2.5,1,87,65
India,Maharashtra,Aurangabad,"Rachnakar Colony, Aurangabad - MPCB",27-04-2024 22:00:00,19.863756,75.321188,NO2,13,76,30
India,Maharashtra,Aurangabad,"Rachnakar Colony, Aurangabad - MPCB",27-04-2024 22:00:00,19.863756,75.321188,SO2,9,16,12
India,Maharashtra,Aurangabad,"Rachnakar Colony, Aurangabad - MPCB",27-04-2024 22:00:00,19.863756,75.321188,CO,11,86,33
India,Maharashtra,Belapur,"CBD Belapur, Belapur - MPCB",27-04-2024 22:00:00,19.0243902,73.0406721,NH3,2,3,2
India,Maharashtra,Belapur,"CBD Belapur, Belapur - MPCB",27-04-2024 22:00:00,19.0243902,73.0406721,SO2,3,8,5
India,Maharashtra,Bhiwandi,"Gokul Nagar, Bhiwandi - MPCB",27-04-2024 22:00:00,19.309073,73.057223,NO2,12,55,23
India,Maharashtra,Boisar,"Khaira, Boisar - MPCB",27-04-2024 22:00:00,19.786089,72.757971,NO2,33,93,56
India,Maharashtra,Boisar,"Khaira, Boisar - MPCB",27-04-2024 22:00:00,19.786089,72.757971,SO2,6,83,41
India,Maharashtra,Chandrapur,"Chauhan Colony, Chandrapur - MPCB",27-04-2024 22:00:00,19.962900,79.298714,NH3,1,1,1
India,Maharashtra,Dhule,"Deopur, Dhule - MPCB",27-04-2024 22:00:00,20.918946,74.776388,PM10,93,136,112
India,Maharashtra,Dhule,"Deopur, Dhule - MPCB",27-04-2024 22:00:00,20.918946,74.776388,NH3,7,12,10
India,Maharashtra,Jalgaon,"Prabhat Colony, Jalgaon - MPCB",27-04-2024 22:00:00,21.001264,75.565602,PM2.5,43,88,72
India,Maharashtra,Jalgaon,"Prabhat Colony, Jalgaon - MPCB",27-04-2024 22:00:00,21.001264,75.565602,SO2,6,27,12
India,Maharashtra,Jalgaon,"Prabhat Colony, Jalgaon - MPCB",27-04-2024 22:00:00,21.001264,75.565602,OZONE,13,115,80
India,Maharashtra,Jalna,"Old MIDC, Jalna - MPCB",27-04-2024 22:00:00,19.854616,75.905894,PM2.5,NA,NA,NA
India,Maharashtra,Jalna,"Old MIDC, Jalna - MPCB",27-04-2024 22:00:00,19.854616,75.905894,NH3,NA,NA,NA
India,Maharashtra,Latur,"Sawe Wadi, Latur - MPCB",27-04-2024 22:00:00,18.39963,76.57452,PM10,54,410,102
India,Maharashtra,Latur,"Sawe Wadi, Latur - MPCB",27-04-2024 22:00:00,18.39963,76.57452,NH3,NA,NA,NA
India,Maharashtra,Latur,"Sawe Wadi, Latur - MPCB",27-04-2024 22:00:00,18.39963,76.57452,SO2,4,10,6
India,Maharashtra,Mahad,"Kamble Tarf Birwadi, Mahad - MPCB",27-04-2024 22:00:00,18.1023399,73.4783687,PM2.5,58,111,74
India,Maharashtra,Mahad,"Kamble Tarf Birwadi, Mahad - MPCB",27-04-2024 22:00:00,18.1023399,73.4783687,NO2,18,99,34
India,Maharashtra,Mahad,"Kamble Tarf Birwadi, Mahad - MPCB",27-04-2024 22:00:00,18.1023399,73.4783687,SO2,13,91,38
India,Maharashtra,Mahad,"Kamble Tarf Birwadi, Mahad - MPCB",27-04-2024 22:00:00,18.1023399,73.4783687,OZONE,7,123,77
India,Maharashtra,Malegaon,"Mahesh Nagar, Malegaon - MPCB",27-04-2024 22:00:00,20.555712,74.529236,NH3,4,19,7
India,Maharashtra,Malegaon,"Mahesh Nagar, Malegaon - MPCB",27-04-2024 22:00:00,20.555712,74.529236,CO,12,43,16
India,Maharashtra,Mira-Bhayandar,"Bhayandar West, Mira-Bhayandar - MPCB",27-04-2024 22:00:00,19.296481,72.840923,NH3,2,4,3
India,Maharashtra,Mira-Bhayandar,"Bhayandar West, Mira-Bhayandar - MPCB",27-04-2024 22:00:00,19.296481,72.840923,SO2,3,10,5
India,Maharashtra,Mumbai,"Bandra Kurla Complex, Mumbai - MPCB",27-04-2024 22:00:00,19.065931,72.862131,SO2,4,6,5
India,Maharashtra,Mumbai,"Byculla, Mumbai - BMC",27-04-2024 22:00:00,18.9767,72.8380,PM2.5,9,29,20
India,Maharashtra,Mumbai,"Byculla, Mumbai - BMC",27-04-2024 22:00:00,18.9767,72.8380,NO2,7,17,10
India,Maharashtra,Mumbai,"Byculla, Mumbai - BMC",27-04-2024 22:00:00,18.9767,72.8380,OZONE,14,145,90
India,Maharashtra,Mumbai,"Chakala-Andheri East, Mumbai - IITM",27-04-2024 22:00:00,19.11074,72.86084,PM2.5,50,315,159
India,Maharashtra,Mumbai,"Chakala-Andheri East, Mumbai - IITM",27-04-2024 22:00:00,19.11074,72.86084,PM10,64,410,170
India,Maharashtra,Mumbai,"Chakala-Andheri East, Mumbai - IITM",27-04-2024 22:00:00,19.11074,72.86084,NH3,7,25,14
India,Maharashtra,Mumbai,"Chakala-Andheri East, Mumbai - IITM",27-04-2024 22:00:00,19.11074,72.86084,SO2,18,58,30
India,Maharashtra,Mumbai,"Chembur, Mumbai - MPCB",27-04-2024 22:00:00,19.0364585,72.8954371,PM10,46,107,85
India,Maharashtra,Mumbai,"Colaba, Mumbai - MPCB",27-04-2024 22:00:00,18.910000,72.820000,PM10,56,122,80
India,Maharashtra,Mumbai,"Colaba, Mumbai - MPCB",27-04-2024 22:00:00,18.910000,72.820000,CO,13,18,15
India,Maharashtra,Mumbai,"Ghatkopar, Mumbai - BMC",27-04-2024 22:00:00,19.083694,72.920967,NO2,1,37,18
India,Maharashtra,Mumbai,"Kandivali East, Mumbai - MPCB",27-04-2024 22:00:00,19.205800,72.868200,CO,30,38,33
India,Maharashtra,Mumbai,"Kurla, Mumbai - MPCB",27-04-2024 22:00:00,19.0863,72.8888,PM2.5,15,92,50
India,Maharashtra,Mumbai,"Kurla, Mumbai - MPCB",27-04-2024 22:00:00,19.0863,72.8888,NH3,2,5,3
India,Maharashtra,Mumbai,"Mazgaon, Mumbai - IITM",27-04-2024 22:00:00,18.96702,72.84214,OZONE,43,156,99
India,Maharashtra,Mumbai,"Mulund West, Mumbai - MPCB",27-04-2024 22:00:00,19.1750,72.9419,PM10,35,147,93
India,Maharashtra,Mumbai,"Navy Nagar-Colaba, Mumbai - IITM",27-04-2024 22:00:00,18.897756,72.813320,PM2.5,37,76,52
India,Maharashtra,Mumbai,"Navy Nagar-Colaba, Mumbai - IITM",27-04-2024 22:00:00,18.897756,72.813320,NO2,53,87,64
India,Maharashtra,Mumbai,"Powai, Mumbai - MPCB",27-04-2024 22:00:00,19.137500,72.915056,SO2,38,55,45
India,Maharashtra,Mumbai,"Sewri, Mumbai - BMC",27-04-2024 22:00:00,19.000084,72.856730,CO,NA,NA,NA
India,Maharashtra,Mumbai,"Sewri, Mumbai - BMC",27-04-2024 22:00:00,19.000084,72.856730,OZONE,6,109,74
India,Maharashtra,Mumbai,"Shivaji Nagar, Mumbai - BMC",27-04-2024 22:00:00,19.060498,72.923356,NO2,19,122,59
India,Maharashtra,Mumbai,"Shivaji Nagar, Mumbai - BMC",27-04-2024 22:00:00,19.060498,72.923356,NH3,1,8,6
India,Maharashtra,Mumbai,"Shivaji Nagar, Mumbai - BMC",27-04-2024 22:00:00,19.060498,72.923356,CO,1,104,39
India,Maharashtra,Mumbai,"Siddharth Nagar-Worli, Mumbai - IITM",27-04-2024 22:00:00,19.000083,72.813993,NH3,5,7,6
India,Maharashtra,Mumbai,"Sion, Mumbai - MPCB",27-04-2024 22:00:00,19.047000,72.874600,PM2.5,30,109,55
India,Maharashtra,Mumbai,"Sion, Mumbai - MPCB",27-04-2024 22:00:00,19.047000,72.874600,NO2,72,79,75
India,Maharashtra,Mumbai,"Vasai West, Mumbai - MPCB",27-04-2024 22:00:00,19.383200,72.820400,PM2.5,32,188,67
India,Maharashtra,Mumbai,"Vasai West, Mumbai - MPCB",27-04-2024 22:00:00,19.383200,72.820400,NH3,4,4,4
India,Maharashtra,Mumbai,"Vile Parle West, Mumbai - MPCB",27-04-2024 22:00:00,19.10861,72.83622,CO,46,46,46
India,Maharashtra,Mumbai,"Vile Parle West, Mumbai - MPCB",27-04-2024 22:00:00,19.10861,72.83622,OZONE,3,3,3
India,Maharashtra,Nagpur,"Ambazari, Nagpur - MPCB",27-04-2024 22:00:00,21.121801,79.04952,OZONE,4,198,100
India,Maharashtra,Nagpur,"Mahal, Nagpur - MPCB",27-04-2024 22:00:00,21.14472,79.107595,SO2,17,80,33
India,Maharashtra,Nagpur,"Mahal, Nagpur - MPCB",27-04-2024 22:00:00,21.14472,79.107595,CO,18,184,90
India,Maharashtra,Nagpur,"Opp GPO Civil Lines, Nagpur - MPCB",27-04-2024 22:00:00,21.152875,79.0517531,NO2,14,17,16
India,Maharashtra,Nanded,"Sneh Nagar, Nanded - MPCB",27-04-2024 22:00:00,19.173852,77.296291,PM2.5,58,113,73
India,Maharashtra,Nanded,"Sneh Nagar, Nanded - MPCB",27-04-2024 22:00:00,19.173852,77.296291,NO2,11,77,24
India,Maharashtra,Nanded,"Sneh Nagar, Nanded - MPCB",27-04-2024 22:00:00,19.173852,77.296291,CO,2,58,25
India,Maharashtra,Nashik,"Gangapur Road, Nashik - MPCB",27-04-2024 22:00:00,20.0073285,73.7762427,NO2,5,18,13
India,Maharashtra,Nashik,"Hirawadi, Nashik - MPCB",27-04-2024 22:00:00,20.021503,73.813844,PM2.5,18,75,43
India,Maharashtra,Nashik,"MIDC Ambad, Nashik - MPCB",27-04-2024 22:00:00,19.950220,73.731480,PM2.5,44,94,64
India,Maharashtra,Nashik,"MIDC Ambad, Nashik - MPCB",27-04-2024 22:00:00,19.950220,73.731480,NH3,2,4,3
India,Maharashtra,Nashik,"MIDC Ambad, Nashik - MPCB",27-04-2024 22:00:00,19.950220,73.731480,SO2,13,96,27
India,Maharashtra,Nashik,"Pandav Nagari, Nashik - MPCB",27-04-2024 22:00:00,19.9591346,73.7788008,NH3,4,5,4
India,Maharashtra,Navi Mumbai,"Mahape, Navi Mumbai - MPCB",27-04-2024 22:00:00,19.1135051,73.008978,PM2.5,43,189,80
India,Maharashtra,Navi Mumbai,"Mahape, Navi Mumbai - MPCB",27-04-2024 22:00:00,19.1135051,73.008978,NH3,1,3,1
India,Maharashtra,Navi Mumbai,"Mahape, Navi Mumbai - MPCB",27-04-2024 22:00:00,19.1135051,73.008978,CO,102,124,107
India,Maharashtra,Navi Mumbai,"Mahape, Navi Mumbai - MPCB",27-04-2024 22:00:00,19.1135051,73.008978,OZONE,45,60,52
India,Maharashtra,Navi Mumbai,"Nerul, Navi Mumbai - MPCB",27-04-2024 22:00:00,19.008751,73.016620,NH3,2,4,3
India,Maharashtra,Navi Mumbai,"Sanpada, Navi Mumbai - MPCB",27-04-2024 22:00:00,19.0575752,73.0151367,NH3,1,12,5
India,Maharashtra,Navi Mumbai,"Sanpada, Navi Mumbai - MPCB",27-04-2024 22:00:00,19.0575752,73.0151367,OZONE,4,176,129
India,Maharashtra,Navi Mumbai,"Sector-19A Nerul, Navi Mumbai - IITM",27-04-2024 22:00:00,19.044,73.0325,NO2,11,159,59
India,Maharashtra,Navi Mumbai,"Sector-19A Nerul, Navi Mumbai - IITM",27-04-2024 22:00:00,19.044,73.0325,CO,28,88,53
India,Maharashtra,Navi Mumbai,"Sector-2E Kalamboli, Navi Mumbai - MPCB",27-04-2024 22:00:00,19.02579,73.10297,CO,5,61,29
India,Maharashtra,Navi Mumbai,"Sector-2E Kalamboli, Navi Mumbai - MPCB",27-04-2024 22:00:00,19.02579,73.10297,OZONE,4,81,53
India,Maharashtra,Navi Mumbai,"Tondare-Taloja, Navi Mumbai - MPCB",27-04-2024 22:00:00,19.0630,73.1209,CO,12,48,18
India,Maharashtra,Pimpri-Chinchwad,"Gavalinagar, Pimpri Chinchwad - MPCB",27-04-2024 22:00:00,18.63673,73.82487,PM10,80,112,98
India,Maharashtra,Pimpri-Chinchwad,"Gavalinagar, Pimpri Chinchwad - MPCB",27-04-2024 22:00:00,18.63673,73.82487,SO2,7,27,12
India,Maharashtra,Pimpri-Chinchwad,"Gavalinagar, Pimpri Chinchwad - MPCB",27-04-2024 22:00:00,18.63673,73.82487,OZONE,2,161,134
India,Maharashtra,Pimpri-Chinchwad,"Thergaon, Pimpri Chinchwad - MPCB",27-04-2024 22:00:00,18.616318,73.765797,OZONE,82,191,142
India,Maharashtra,Pune,"Bhosari, Pune - IITM",27-04-2024 22:00:00,18.640051,73.848956,NO2,14,16,15
India,Maharashtra,Pune,"Karve Road, Pune - MPCB",27-04-2024 22:00:00,18.5011743,73.8165527,PM2.5,32,126,64
India,Maharashtra,Pune,"Mhada Colony, Pune - IITM",27-04-2024 22:00:00,18.573040,73.927715,CO,42,120,72
India,Maharashtra,Pune,"Savitribai Phule Pune University, Pune - MPCB",27-04-2024 22:00:00,18.547056,73.826908,PM2.5,NA,NA,NA
India,Maharashtra,Pune,"Savitribai Phule Pune University, Pune - MPCB",27-04-2024 22:00:00,18.547056,73.826908,NH3,NA,NA,NA
India,Maharashtra,Pune,"Transport Nagar-Nigdi, Pune - IITM",27-04-2024 22:00:00,18.664282,73.763966,PM2.5,26,88,55
India,Maharashtra,Pune,"Transport Nagar-Nigdi, Pune - IITM",27-04-2024 22:00:00,18.664282,73.763966,OZONE,9,64,58
India,Maharashtra,Sangli,"Vijay Nagar, Sangli - MPCB",27-04-2024 22:00:00, 16.5038,74.3623,PM10,47,101,66
India,Maharashtra,Sangli,"Vijay Nagar, Sangli - MPCB",27-04-2024 22:00:00, 16.5038,74.3623,OZONE,30,140,103
India,Maharashtra,Solapur,"Ratandeep Housing Society, Solapur - MPCB",27-04-2024 22:00:00,17.65439,75.90649,SO2,4,31,14
India,Maharashtra,Solapur,"Ratandeep Housing Society, Solapur - MPCB",27-04-2024 22:00:00,17.65439,75.90649,OZONE,3,173,87
India,Maharashtra,Thane,"Kasarvadavali, Thane - MPCB",27-04-2024 22:00:00,19.26777,72.97182,NH3,5,10,6
India,Maharashtra,Thane,"Pimpleshwar Mandir, Thane - MPCB",27-04-2024 22:00:00,19.192056,72.9585188,PM10,68,139,113
India,Maharashtra,Thane,"Pimpleshwar Mandir, Thane - MPCB",27-04-2024 22:00:00,19.192056,72.9585188,SO2,2,97,21
India,Maharashtra,Thane,"Upvan Fort, Thane - MPCB",27-04-2024 22:00:00,19.222279,72.957979,NO2,5,29,16
India,Maharashtra,Ulhasnagar,"Sidhi Vinayak Nagar, Ulhasnagar - MPCB",27-04-2024 22:00:00,19.235581,73.159121,NH3,2,4,3
India,Maharashtra,Virar,"Bolinj, Virar - MPCB",27-04-2024 22:00:00,19.4458210,72.7988231,NH3,9,9,9
India,Maharashtra,Virar,"Bolinj, Virar - MPCB",27-04-2024 22:00:00,19.4458210,72.7988231,SO2,6,22,10
India,Maharashtra,Virar,"Bolinj, Virar - MPCB",27-04-2024 22:00:00,19.4458210,72.7988231,OZONE,15,90,71
India,Mizoram,Aizawl,"Sikulpuikawn, Aizawl - Mizoram PCB",27-04-2024 22:00:00,23.7176342,92.7192841,NH3,1,2,1
India,Odisha,Angul,"Hakimapada, Angul - OSPCB",27-04-2024 22:00:00,20.832874,85.104082,NH3,1,2,1
India,Odisha,Balasore,"Kalidaspur, Balasore - OSPCB",27-04-2024 22:00:00,21.51161,86.89088,NO2,1,47,13
India,Odisha,Barbil,"Forest Office, Barbil - OSPCB",27-04-2024 22:00:00,22.1166054,85.3945546,PM2.5,52,352,186
India,Odisha,Barbil,"Forest Office, Barbil - OSPCB",27-04-2024 22:00:00,22.1166054,85.3945546,SO2,9,46,21
India,Odisha,Baripada,"Meher Colony, Baripada - OSPCB",27-04-2024 22:00:00,21.941841,86.728318,PM10,87,119,104
India,Odisha,Baripada,"Meher Colony, Baripada - OSPCB",27-04-2024 22:00:00,21.941841,86.728318,SO2,1,8,3
India,Odisha,Bhubaneswar,"Lingraj Mandir, Bhubaneswar - OSPCB",27-04-2024 22:00:00,20.240790,85.836784,OZONE,24,122,75
India,Odisha,Bhubaneswar,"Patia, Bhubaneswar - OSPCB",27-04-2024 22:00:00,20.34652,85.81630,OZONE,16,302,134
India,Odisha,Bileipada,"Tata Township, Bileipada - OSPCB",27-04-2024 22:00:00,22.06156703,85.47409613,PM2.5,66,291,137
India,Odisha,Bileipada,"Tata Township, Bileipada - OSPCB",27-04-2024 22:00:00,22.06156703,85.47409613,NH3,11,12,12
India,Odisha,Brajrajnagar,"GM Office, Brajrajnagar - OSPCB",27-04-2024 22:00:00,21.8004996,83.8396977,NO2,15,17,16
India,Odisha,Byasanagar,"Ferro Chrome Colony, Byasanagar - OSPCB",27-04-2024 22:00:00,20.94185,86.11510,NH3,2,6,3
India,Odisha,Byasanagar,"Ferro Chrome Colony, Byasanagar - OSPCB",27-04-2024 22:00:00,20.94185,86.11510,SO2,6,49,22
India,Odisha,Cuttack,"CDA Area, Cuttack - OSPCB",27-04-2024 22:00:00,20.48891     ,85.84768     ,NO2,17,39,26
India,Odisha,Cuttack,"CDA Area, Cuttack - OSPCB",27-04-2024 22:00:00,20.48891     ,85.84768     ,NH3,1,2,1
India,Odisha,Cuttack,"CDA Area, Cuttack - OSPCB",27-04-2024 22:00:00,20.48891     ,85.84768     ,OZONE,1,211,109
India,Odisha,Keonjhar,"Jagamohanpur, Keonjhar - OSPCB",27-04-2024 22:00:00,21.643900,85.599355,NO2,4,35,18
India,Odisha,Keonjhar,"Jagamohanpur, Keonjhar - OSPCB",27-04-2024 22:00:00,21.643900,85.599355,CO,33,91,59
India,Odisha,Suakati,"OMC Colony, Suakati - OSPCB",27-04-2024 22:00:00,21.606865,85.510538,PM2.5,84,140,110
India,Odisha,Talcher,"Talcher Coalfields,Talcher - OSPCB",27-04-2024 22:00:00,20.9360711,85.1707021,OZONE,17,36,23
India,Odisha,Tensa,"Barsua Iron Ore Mines, Tensa - OSPCB",27-04-2024 22:00:00,21.869985,85.167016,NH3,1,2,2
India,Puducherry,Puducherry,"Jawahar Nagar, Puducherry - PPCC",27-04-2024 22:00:00,11.9309,79.8027,CO,20,38,26
India,Punjab,Bathinda,"Hardev Nagar, Bathinda - PPCB",27-04-2024 22:00:00,30.233011,74.907758,SO2,1,12,3
India,Punjab,Jalandhar,"Civil Line, Jalandhar - PPCB",27-04-2024 22:00:00,31.321907,75.578914,NH3,2,2,2
India,Punjab,Jalandhar,"Civil Line, Jalandhar - PPCB",27-04-2024 22:00:00,31.321907,75.578914,CO,18,101,43
India,Punjab,Ludhiana,"Punjab Agricultural University, Ludhiana - PPCB",27-04-2024 22:00:00,30.9028,75.8086,NO2,12,23,14
India,Punjab,Ludhiana,"Punjab Agricultural University, Ludhiana - PPCB",27-04-2024 22:00:00,30.9028,75.8086,NH3,2,5,3
India,Punjab,Ludhiana,"Punjab Agricultural University, Ludhiana - PPCB",27-04-2024 22:00:00,30.9028,75.8086,OZONE,16,57,42
India,Punjab,Mandi Gobindgarh,"RIMT University, Mandi Gobindgarh - PPCB",27-04-2024 22:00:00,30.649961,76.331442,CO,10,24,18
India,Punjab,Patiala,"Model Town, Patiala - PPCB",27-04-2024 22:00:00,30.349388,76.366642,PM10,42,140,88
India,Punjab,Rupnagar,"Ratanpura, Rupnagar - Ambuja Cements",27-04-2024 22:00:00,31.0325454,76.5623046,CO,28,62,33
India,Rajasthan,Ajmer,"Civil Lines,  Ajmer - RSPCB",27-04-2024 22:00:00,26.470859,74.646594,NH3,9,11,10
India,Rajasthan,Alwar,"Moti Doongri, Alwar - RSPCB",27-04-2024 22:00:00,27.554793,76.611536,NO2,30,55,39
India,Rajasthan,Alwar,"Moti Doongri, Alwar - RSPCB",27-04-2024 22:00:00,27.554793,76.611536,SO2,2,65,19
India,Rajasthan,Alwar,"Moti Doongri, Alwar - RSPCB",27-04-2024 22:00:00,27.554793,76.611536,CO,28,70,45
India,Rajasthan,Banswara,"Rati Talai, Banswara - RSPCB",27-04-2024 22:00:00,23.555190,74.440010,OZONE,23,87,57
India,Rajasthan,Baran,"Bamboliya, Baran - RSPCB",27-04-2024 22:00:00,25.106006,76.469948,PM2.5,10,83,41
India,Rajasthan,Baran,"Bamboliya, Baran - RSPCB",27-04-2024 22:00:00,25.106006,76.469948,CO,12,62,25
India,Rajasthan,Barmer,"Railway Colony, Barmer - RSPCB",27-04-2024 22:00:00,25.747299,71.393989,NH3,10,16,12
India,Rajasthan,Barmer,"Railway Colony, Barmer - RSPCB",27-04-2024 22:00:00,25.747299,71.393989,OZONE,52,91,89
India,Rajasthan,Bharatpur,"Krishna Nagar, Bharatpur - RSPCB",27-04-2024 22:00:00,27.215415,77.50873,PM2.5,28,243,97
India,Rajasthan,Bharatpur,"Krishna Nagar, Bharatpur - RSPCB",27-04-2024 22:00:00,27.215415,77.50873,NH3,2,6,4
India,Rajasthan,Bharatpur,"Krishna Nagar, Bharatpur - RSPCB",27-04-2024 22:00:00,27.215415,77.50873,OZONE,35,101,79
India,Rajasthan,Bhiwadi,"RIICO Ind. Area III, Bhiwadi - RSPCB",27-04-2024 22:00:00,28.194909,76.862296,CO,2,136,69
India,Rajasthan,Bundi,"New Colony, Bundi - RSPCB",27-04-2024 22:00:00,25.435774,75.644272,PM2.5,18,68,38
India,Rajasthan,Bundi,"New Colony, Bundi - RSPCB",27-04-2024 22:00:00,25.435774,75.644272,PM10,56,243,104
India,Rajasthan,Bundi,"New Colony, Bundi - RSPCB",27-04-2024 22:00:00,25.435774,75.644272,OZONE,7,80,71
India,Rajasthan,Chittorgarh,"Shastri Nagar, Chittorgarh - RSPCB",27-04-2024 22:00:00,24.892047,74.623527,PM10,81,140,104
India,Rajasthan,Churu,"Subash Chowk, Churu - RSPCB",27-04-2024 22:00:00,28.296139,74.961696,PM2.5,NA,NA,NA
India,Rajasthan,Churu,"Subash Chowk, Churu - RSPCB",27-04-2024 22:00:00,28.296139,74.961696,PM10,NA,NA,NA
India,Rajasthan,Dausa,"Khatikan Mohalla, Dausa - RSPCB",27-04-2024 22:00:00,26.895552,76.334753,SO2,1,24,5
India,Rajasthan,Dausa,"Khatikan Mohalla, Dausa - RSPCB",27-04-2024 22:00:00,26.895552,76.334753,CO,3,106,43
India,Rajasthan,Dholpur,"Raja Ganj, Dholpur - RSPCB",27-04-2024 22:00:00,26.699557,77.898881,PM10,38,151,97
India,Rajasthan,Dholpur,"Raja Ganj, Dholpur - RSPCB",27-04-2024 22:00:00,26.699557,77.898881,NH3,7,12,10
India,Rajasthan,Hanumangarh,"Housing Board, Hanumangarh - RSPCB",27-04-2024 22:00:00,29.610750,74.283608,PM10,NA,NA,NA
India,Rajasthan,Jaipur,"Adarsh Nagar, Jaipur - RSPCB",27-04-2024 22:00:00,26.902909,75.836858,PM2.5,45,179,95
India,Rajasthan,Jaipur,"Adarsh Nagar, Jaipur - RSPCB",27-04-2024 22:00:00,26.902909,75.836858,NO2,21,122,41
India,Rajasthan,Jaipur,"Mansarovar Sector-12, Jaipur - RSPCB",27-04-2024 22:00:00,26.843698,75.766894,SO2,6,10,8
India,Rajasthan,Jaipur,"Mansarovar Sector-12, Jaipur - RSPCB",27-04-2024 22:00:00,26.843698,75.766894,OZONE,8,86,59
India,Rajasthan,Jaipur,"Police Commissionerate, Jaipur - RSPCB",27-04-2024 22:00:00,26.9164092,75.7994901,NO2,16,101,39
India,Rajasthan,Jaipur,"Police Commissionerate, Jaipur - RSPCB",27-04-2024 22:00:00,26.9164092,75.7994901,NH3,5,9,8
India,Rajasthan,Jaipur,"RIICO Sitapura, Jaipur - RSPCB",27-04-2024 22:00:00,26.786682,75.827928,PM2.5,29,216,84
India,Rajasthan,Jaipur,"RIICO Sitapura, Jaipur - RSPCB",27-04-2024 22:00:00,26.786682,75.827928,NO2,15,149,48
India,Rajasthan,Jaipur,"Sector-2 Murlipura, Jaipur - RSPCB",27-04-2024 22:00:00,26.960669,75.771817,PM2.5,37,149,83
India,Rajasthan,Jaipur,"Sector-2 Murlipura, Jaipur - RSPCB",27-04-2024 22:00:00,26.960669,75.771817,NO2,29,149,55
India,Rajasthan,Jaipur,"Shastri Nagar, Jaipur - RSPCB",27-04-2024 22:00:00,26.9502929,75.730943,NH3,6,21,11
India,Rajasthan,Jalore,"Mudtra Sili, Jalore - RSPCB",27-04-2024 22:00:00,25.344694,72.626208,NH3,3,5,4
India,Rajasthan,Jalore,"Mudtra Sili, Jalore - RSPCB",27-04-2024 22:00:00,25.344694,72.626208,CO,8,34,16
India,Rajasthan,Jhunjhunu,"Indra Nagar, Jhunjhunu - RSPCB",27-04-2024 22:00:00,28.108988,75.386577,PM2.5,31,331,96
India,Rajasthan,Jhunjhunu,"Indra Nagar, Jhunjhunu - RSPCB",27-04-2024 22:00:00,28.108988,75.386577,PM10,53,500,259
India,Rajasthan,Jhunjhunu,"Indra Nagar, Jhunjhunu - RSPCB",27-04-2024 22:00:00,28.108988,75.386577,NO2,6,20,12
India,Rajasthan,Jhunjhunu,"Indra Nagar, Jhunjhunu - RSPCB",27-04-2024 22:00:00,28.108988,75.386577,NH3,6,7,6
India,Rajasthan,Jodhpur,"Collectorate, Jodhpur - RSPCB",27-04-2024 22:00:00,26.268249,73.0193853,PM10,32,500,178
India,Rajasthan,Jodhpur,"Collectorate, Jodhpur - RSPCB",27-04-2024 22:00:00,26.268249,73.0193853,NO2,4,43,21
India,Rajasthan,Jodhpur,"Collectorate, Jodhpur - RSPCB",27-04-2024 22:00:00,26.268249,73.0193853,OZONE,28,111,93
India,Rajasthan,Jodhpur,"Digari Kalan, Jodhpur - RSPCB",27-04-2024 22:00:00,26.295810,73.082283,PM10,77,500,236
India,Rajasthan,Jodhpur,"Digari Kalan, Jodhpur - RSPCB",27-04-2024 22:00:00,26.295810,73.082283,NH3,2,4,3
India,Rajasthan,Jodhpur,"Jhalamand, Jodhpur - RSPCB",27-04-2024 22:00:00,26.215415,73.070156,CO,8,62,18
India,Rajasthan,Jodhpur,"Jhalamand, Jodhpur - RSPCB",27-04-2024 22:00:00,26.215415,73.070156,OZONE,38,85,74
India,Rajasthan,Jodhpur,"Mandor, Jodhpur - RSPCB",27-04-2024 22:00:00,26.358805,73.047444,PM2.5,28,354,153
India,Rajasthan,Jodhpur,"Mandor, Jodhpur - RSPCB",27-04-2024 22:00:00,26.358805,73.047444,PM10,92,500,203
India,Rajasthan,Jodhpur,"Mandor, Jodhpur - RSPCB",27-04-2024 22:00:00,26.358805,73.047444,CO,2,29,17
India,Rajasthan,Jodhpur,"Samrat Ashok Udhyan, Jodhpur - RSPCB",27-04-2024 22:00:00,26.253384,72.976571,SO2,3,15,5
India,Rajasthan,Jodhpur,"Samrat Ashok Udhyan, Jodhpur - RSPCB",27-04-2024 22:00:00,26.253384,72.976571,OZONE,44,122,101
India,Rajasthan,Karauli,"Satyawati Vihar, Karauli - RSPCB",27-04-2024 22:00:00,26.506177,77.025989,PM2.5,5,72,39
India,Rajasthan,Kota,"Dhanmandi, Kota - RSPCB",27-04-2024 22:00:00,25.164090,75.858137,PM2.5,17,180,44
India,Rajasthan,Kota,"Nayapura, Kota - RSPCB",27-04-2024 22:00:00,25.196024,75.855668,PM2.5,20,143,52
India,Rajasthan,Kota,"Nayapura, Kota - RSPCB",27-04-2024 22:00:00,25.196024,75.855668,PM10,30,138,66
India,Rajasthan,Kota,"Shrinath Puram, Kota - RSPCB",27-04-2024 22:00:00,25.14389,75.821256,PM2.5,36,215,80
India,Rajasthan,Kota,"Shrinath Puram, Kota - RSPCB",27-04-2024 22:00:00,25.14389,75.821256,CO,7,56,32
India,Rajasthan,Nagaur,"Karni Colony, Nagaur - RSPCB",27-04-2024 22:00:00,27.213494,73.734444,PM2.5,21,303,152
India,Rajasthan,Nagaur,"Karni Colony, Nagaur - RSPCB",27-04-2024 22:00:00,27.213494,73.734444,PM10,100,500,281
India,Rajasthan,Pratapgarh,"Pragati Nagar, Pratapgarh - RSPCB",27-04-2024 22:00:00,24.041198,74.780702,OZONE,14,73,56
India,Rajasthan,Rajsamand,"Dhoinda, Rajsamand - RSPCB",27-04-2024 22:00:00,25.036360,73.883502,CO,49,80,64
India,Rajasthan,Sawai Madhopur,"Sahu Nagar, Sawai Madhopur - RSPCB",27-04-2024 22:00:00,26.031443,76.359327,PM2.5,NA,NA,NA
India,Rajasthan,Sawai Madhopur,"Sahu Nagar, Sawai Madhopur - RSPCB",27-04-2024 22:00:00,26.031443,76.359327,NH3,NA,NA,NA
India,Rajasthan,Sawai Madhopur,"Sahu Nagar, Sawai Madhopur - RSPCB",27-04-2024 22:00:00,26.031443,76.359327,SO2,NA,NA,NA
India,Rajasthan,Sawai Madhopur,"Sahu Nagar, Sawai Madhopur - RSPCB",27-04-2024 22:00:00,26.031443,76.359327,CO,14,35,25
India,Rajasthan,Sirohi,"Vedhaynath Colony, Sirohi - RSPCB",27-04-2024 22:00:00,24.885261,72.857549,PM2.5,31,90,45
India,Rajasthan,Sirohi,"Vedhaynath Colony, Sirohi - RSPCB",27-04-2024 22:00:00,24.885261,72.857549,NO2,3,16,8
India,Rajasthan,Tonk,"Shastri Nagar, Tonk - RSPCB",27-04-2024 22:00:00,26.159933,75.780517,NO2,12,51,21
India,Rajasthan,Tonk,"Shastri Nagar, Tonk - RSPCB",27-04-2024 22:00:00,26.159933,75.780517,CO,3,30,13
India,Rajasthan,Udaipur,"Ashok Nagar, Udaipur - RSPCB",27-04-2024 22:00:00,24.5886166,73.6321397,SO2,5,10,7
India,Sikkim,Gangtok,"Zero Point GICI, Gangtok - SSPCB",27-04-2024 22:00:00,27.338530,88.614099,PM2.5,33,41,36
India,Sikkim,Gangtok,"Zero Point GICI, Gangtok - SSPCB",27-04-2024 22:00:00,27.338530,88.614099,PM10,58,74,65
India,Sikkim,Gangtok,"Zero Point GICI, Gangtok - SSPCB",27-04-2024 22:00:00,27.338530,88.614099,NO2,1,3,1
India,Sikkim,Gangtok,"Zero Point GICI, Gangtok - SSPCB",27-04-2024 22:00:00,27.338530,88.614099,CO,20,26,21
India,TamilNadu,Chennai,"Kodungaiyur, Chennai - TNPCB",27-04-2024 22:00:00,13.1278,80.2642,PM10,28,68,40
India,TamilNadu,Chennai,"Perungudi, Chennai - TNPCB",27-04-2024 22:00:00,12.9533,80.2357,SO2,1,7,2
India,TamilNadu,Chennai,"Royapuram, Chennai - TNPCB",27-04-2024 22:00:00,13.1036,80.2909,PM10,32,92,49
India,TamilNadu,Chennai,"Royapuram, Chennai - TNPCB",27-04-2024 22:00:00,13.1036,80.2909,NO2,6,17,11
India,TamilNadu,Chennai,"Velachery Res. Area, Chennai - CPCB",27-04-2024 22:00:00,13.0052189,80.2398125,PM2.5,26,61,38
India,TamilNadu,Coimbatore,"PSG College of Arts and Science, Coimbatore - TNPCB",27-04-2024 22:00:00,11.0328,77.0349,PM2.5,NA,NA,NA
India,TamilNadu,Coimbatore,"PSG College of Arts and Science, Coimbatore - TNPCB",27-04-2024 22:00:00,11.0328,77.0349,NO2,NA,NA,NA
India,TamilNadu,Cuddalore,"Kudikadu, Cuddalore - TNPCB",27-04-2024 22:00:00,11.6829898,79.7532099,PM10,29,75,52
India,TamilNadu,Cuddalore,"Kudikadu, Cuddalore - TNPCB",27-04-2024 22:00:00,11.6829898,79.7532099,SO2,8,9,8
India,TamilNadu,Gummidipoondi,"Anthoni Pillai Nagar, Gummidipoondi - TNPCB",27-04-2024 22:00:00,13.4127,80.1081,PM10,67,134,95
India,TamilNadu,Gummidipoondi,"Anthoni Pillai Nagar, Gummidipoondi - TNPCB",27-04-2024 22:00:00,13.4127,80.1081,SO2,3,45,13
India,TamilNadu,Palkalaiperur,"Bharathidasan University, Palkalaiperur - TNPCB",27-04-2024 22:00:00,10.681158,78.741746,PM2.5,17,37,30
India,TamilNadu,Palkalaiperur,"Bharathidasan University, Palkalaiperur - TNPCB",27-04-2024 22:00:00,10.681158,78.741746,PM10,20,46,37
India,TamilNadu,Palkalaiperur,"Bharathidasan University, Palkalaiperur - TNPCB",27-04-2024 22:00:00,10.681158,78.741746,OZONE,1,1,1
India,TamilNadu,Ramanathapuram,"Chalai Bazaar, Ramanathapuram - TNPCB",27-04-2024 22:00:00,9.36399,78.831977,NH3,1,1,1
India,TamilNadu,Thoothukudi,"Meelavittan, Thoothukudi - TNPCB",27-04-2024 22:00:00,8.816428 ,78.099039,OZONE,1,18,7
India,TamilNadu,Virudhunagar,"Collectorate Office, Virudhunagar - TNPCB",27-04-2024 22:00:00,9.559382,77.948828,CO,27,28,28
India,Telangana,Hyderabad,"Bollaram Industrial Area, Hyderabad - TSPCB",27-04-2024 22:00:00,17.540891,78.358528,SO2,17,54,27
India,Telangana,Hyderabad,"Central University, Hyderabad - TSPCB",27-04-2024 22:00:00,17.460103,78.334361,PM2.5,34,60,48
India,Telangana,Hyderabad,"Central University, Hyderabad - TSPCB",27-04-2024 22:00:00,17.460103,78.334361,PM10,67,109,91
India,Telangana,Hyderabad,"Central University, Hyderabad - TSPCB",27-04-2024 22:00:00,17.460103,78.334361,SO2,5,11,8
India,Telangana,Hyderabad,"Central University, Hyderabad - TSPCB",27-04-2024 22:00:00,17.460103,78.334361,CO,14,47,23
India,Telangana,Hyderabad,"Central University, Hyderabad - TSPCB",27-04-2024 22:00:00,17.460103,78.334361,OZONE,3,4,4
India,Telangana,Hyderabad,"ECIL Kapra, Hyderabad - TSPCB",27-04-2024 22:00:00,17.470431,78.566959,NH3,6,9,8
India,Telangana,Hyderabad,"ICRISAT Patancheru, Hyderabad - TSPCB",27-04-2024 22:00:00,17.518400,78.278777,NH3,2,2,2
India,Telangana,Hyderabad,"Kokapet, Hyderabad - TSPCB",27-04-2024 22:00:00,17.393559,78.339194,NH3,2,3,3
India,Telangana,Hyderabad,"Kokapet, Hyderabad - TSPCB",27-04-2024 22:00:00,17.393559,78.339194,CO,20,32,30
India,Telangana,Hyderabad,"Nacharam_TSIIC IALA, Hyderabad - TSPCB",27-04-2024 22:00:00,17.429398,78.569354,PM2.5,NA,NA,NA
India,Telangana,Hyderabad,"Nacharam_TSIIC IALA, Hyderabad - TSPCB",27-04-2024 22:00:00,17.429398,78.569354,CO,24,32,30
India,Telangana,Hyderabad,"New Malakpet, Hyderabad - TSPCB",27-04-2024 22:00:00,17.37206,78.50864,PM10,76,277,99
India,Telangana,Hyderabad,"New Malakpet, Hyderabad - TSPCB",27-04-2024 22:00:00,17.37206,78.50864,SO2,7,18,10
India,Telangana,Hyderabad,"Ramachandrapuram, Hyderabad - TSPCB",27-04-2024 22:00:00,17.528544,78.286195,OZONE,12,88,60
India,Telangana,Hyderabad,"Somajiguda, Hyderabad - TSPCB",27-04-2024 22:00:00,17.417094,78.457437,PM2.5,61,225,126
India,Telangana,Hyderabad,"Somajiguda, Hyderabad - TSPCB",27-04-2024 22:00:00,17.417094,78.457437,CO,26,52,35
India,Telangana,Hyderabad,"Zoo Park, Hyderabad - TSPCB",27-04-2024 22:00:00,17.349694,78.451437,PM10,48,157,119
India,Tripura,Agartala,"Bardowali, Agartala - Tripura SPCB",27-04-2024 22:00:00,23.8175497,91.2726974,OZONE,5,40,22
India,Uttar_Pradesh,Agra,"Manoharpur, Agra - UPPCB",27-04-2024 22:00:00,27.23711,78.01936,PM10,18,38,27
India,Uttar_Pradesh,Agra,"Manoharpur, Agra - UPPCB",27-04-2024 22:00:00,27.23711,78.01936,OZONE,4,42,25
India,Uttar_Pradesh,Agra,"Sanjay Palace, Agra - UPPCB",27-04-2024 22:00:00,27.19865833,78.00598056,PM10,12,123,45
India,Uttar_Pradesh,Agra,"Sanjay Palace, Agra - UPPCB",27-04-2024 22:00:00,27.19865833,78.00598056,CO,3,56,38
India,Uttar_Pradesh,Agra,"Sector-3B Avas Vikas Colony, Agra - UPPCB",27-04-2024 22:00:00,27.19412,77.96237,NO2,24,26,25
India,Uttar_Pradesh,Agra,"Sector-3B Avas Vikas Colony, Agra - UPPCB",27-04-2024 22:00:00,27.19412,77.96237,CO,6,10,7
India,Uttar_Pradesh,Agra,"Shahjahan Garden, Agra - UPPCB",27-04-2024 22:00:00,27.169338,78.03582,SO2,15,24,18
India,Uttar_Pradesh,Agra,"Shastripuram, Agra - UPPCB",27-04-2024 22:00:00,27.19862,77.92066,CO,8,12,9
India,Uttar_Pradesh,Bareilly,"Civil Lines, Bareilly - UPPCB",27-04-2024 22:00:00,28.359581,79.414455,NO2,2,3,2
India,Uttar_Pradesh,Bareilly,"Rajendra Nagar, Bareilly - UPPCB",27-04-2024 22:00:00,28.38910936,79.42963708,PM10,42,108,76
India,Uttar_Pradesh,Bareilly,"Rajendra Nagar, Bareilly - UPPCB",27-04-2024 22:00:00,28.38910936,79.42963708,CO,2,38,14
India,Uttar_Pradesh,Bareilly,"Rajendra Nagar, Bareilly - UPPCB",27-04-2024 22:00:00,28.38910936,79.42963708,OZONE,1,34,17
India,Uttar_Pradesh,Bulandshahr,"Yamunapuram, Bulandshahr - UPPCB",27-04-2024 22:00:00,28.406963,77.849831,PM2.5,27,85,45
India,Uttar_Pradesh,Bulandshahr,"Yamunapuram, Bulandshahr - UPPCB",27-04-2024 22:00:00,28.406963,77.849831,NH3,10,18,12
India,Uttar_Pradesh,Bulandshahr,"Yamunapuram, Bulandshahr - UPPCB",27-04-2024 22:00:00,28.406963,77.849831,SO2,5,36,22
India,Uttar_Pradesh,Firozabad,"Nagla Bhau, Firozabad - UPPCB",27-04-2024 22:00:00,27.168897,78.376960,NO2,17,17,17
India,Uttar_Pradesh,Firozabad,"Nagla Bhau, Firozabad - UPPCB",27-04-2024 22:00:00,27.168897,78.376960,SO2,18,26,21
India,Uttar_Pradesh,Firozabad,"Nagla Bhau, Firozabad - UPPCB",27-04-2024 22:00:00,27.168897,78.376960,CO,22,28,24
India,Uttar_Pradesh,Firozabad,"Vibhab Nagar, Firozabad - UPPCB",27-04-2024 22:00:00,27.1594,78.3953,NO2,NA,NA,NA
India,Uttar_Pradesh,Firozabad,"Vibhab Nagar, Firozabad - UPPCB",27-04-2024 22:00:00,27.1594,78.3953,CO,NA,NA,NA
India,Uttar_Pradesh,Ghaziabad,"Indirapuram, Ghaziabad - UPPCB",27-04-2024 22:00:00,28.646233,77.358075,OZONE,14,113,71
India,Uttar_Pradesh,Ghaziabad,"Sanjay Nagar, Ghaziabad - UPPCB",27-04-2024 22:00:00,28.685382,77.453839,NH3,6,12,8
India,Uttar_Pradesh,Ghaziabad,"Sanjay Nagar, Ghaziabad - UPPCB",27-04-2024 22:00:00,28.685382,77.453839,OZONE,8,162,118
India,Uttar_Pradesh,Ghaziabad,"Vasundhara, Ghaziabad - UPPCB",27-04-2024 22:00:00,28.6603346,77.3572563,PM2.5,24,59,43
India,Uttar_Pradesh,Ghaziabad,"Vasundhara, Ghaziabad - UPPCB",27-04-2024 22:00:00,28.6603346,77.3572563,CO,19,106,39
India,Uttar_Pradesh,Gorakhpur,"Madan Mohan Malaviya University of Technology, Gorakhpur - UPPCB",27-04-2024 22:00:00,26.730136,83.433859,CO,10,19,13
India,Uttar_Pradesh,Greater Noida,"Knowledge Park - III, Greater Noida - UPPCB",27-04-2024 22:00:00,28.47272,77.482000,SO2,8,30,17
India,Uttar_Pradesh,Greater Noida,"Knowledge Park - III, Greater Noida - UPPCB",27-04-2024 22:00:00,28.47272,77.482000,OZONE,21,147,101
India,Uttar_Pradesh,Greater Noida,"Knowledge Park - V, Greater Noida - UPPCB",27-04-2024 22:00:00,28.557054,77.453663,PM10,116,308,193
India,Uttar_Pradesh,Greater Noida,"Knowledge Park - V, Greater Noida - UPPCB",27-04-2024 22:00:00,28.557054,77.453663,NO2,25,60,41
India,Uttar_Pradesh,Greater Noida,"Knowledge Park - V, Greater Noida - UPPCB",27-04-2024 22:00:00,28.557054,77.453663,OZONE,11,162,95
India,Uttar_Pradesh,Jhansi,"Shivaji Nagar, Jhansi - UPPCB",27-04-2024 22:00:00,25.4547,78.6039,PM10,12,500,55
India,Uttar_Pradesh,Jhansi,"Shivaji Nagar, Jhansi - UPPCB",27-04-2024 22:00:00,25.4547,78.6039,CO,6,22,11
India,Uttar_Pradesh,Jhansi,"Shivaji Nagar, Jhansi - UPPCB",27-04-2024 22:00:00,25.4547,78.6039,OZONE,29,42,34
India,Uttar_Pradesh,Kanpur,"NSI Kalyanpur, Kanpur - UPPCB",27-04-2024 22:00:00,26.509954,80.249612,NO2,15,16,15
India,Uttar_Pradesh,Kanpur,"NSI Kalyanpur, Kanpur - UPPCB",27-04-2024 22:00:00,26.509954,80.249612,NH3,2,3,2
India,Uttar_Pradesh,Kanpur,"Nehru Nagar, Kanpur - UPPCB",27-04-2024 22:00:00,26.4703136,80.3229863,PM10,28,131,54
India,Uttar_Pradesh,Khurja,"Kalindi Kunj, Khurja - UPPCB",27-04-2024 22:00:00,28.2348927,77.8683002,NH3,1,2,1
India,Uttar_Pradesh,Lucknow,"B R Ambedkar University, Lucknow - UPPCB",27-04-2024 22:00:00,26.766433,80.927299,PM2.5,45,118,63
India,Uttar_Pradesh,Lucknow,"B R Ambedkar University, Lucknow - UPPCB",27-04-2024 22:00:00,26.766433,80.927299,NH3,5,6,6
India,Uttar_Pradesh,Lucknow,"B R Ambedkar University, Lucknow - UPPCB",27-04-2024 22:00:00,26.766433,80.927299,CO,20,36,25
India,Uttar_Pradesh,Lucknow,"Gomti Nagar, Lucknow - UPPCB",27-04-2024 22:00:00,26.868120,81.005119,PM2.5,52,229,121
India,Uttar_Pradesh,Lucknow,"Gomti Nagar, Lucknow - UPPCB",27-04-2024 22:00:00,26.868120,81.005119,PM10,54,137,97
India,Uttar_Pradesh,Lucknow,"Gomti Nagar, Lucknow - UPPCB",27-04-2024 22:00:00,26.868120,81.005119,NO2,10,12,11
India,Uttar_Pradesh,Lucknow,"Kendriya Vidyalaya, Lucknow - CPCB",27-04-2024 22:00:00,26.906111,80.948222,PM10,94,134,112
India,Uttar_Pradesh,Lucknow,"Kendriya Vidyalaya, Lucknow - CPCB",27-04-2024 22:00:00,26.906111,80.948222,NH3,4,23,15
India,Uttar_Pradesh,Lucknow,"Kendriya Vidyalaya, Lucknow - CPCB",27-04-2024 22:00:00,26.906111,80.948222,OZONE,10,96,68
India,Uttar_Pradesh,Lucknow,"Kukrail Picnic Spot-1, Lucknow - UPPCB",27-04-2024 22:00:00,26.90723,80.98579,PM2.5,35,86,60
India,Uttar_Pradesh,Lucknow,"Kukrail Picnic Spot-1, Lucknow - UPPCB",27-04-2024 22:00:00,26.90723,80.98579,NO2,8,9,8
India,Uttar_Pradesh,Lucknow,"Lalbagh, Lucknow - CPCB",27-04-2024 22:00:00,26.8458805,80.9365541,NO2,12,58,21
India,Uttar_Pradesh,Lucknow,"Talkatora District Industries Center, Lucknow - CPCB",27-04-2024 22:00:00,26.83399722,80.8917361,OZONE,2,81,40
India,Uttar_Pradesh,Meerut,"Jai Bhim Nagar, Meerut - UPPCB",27-04-2024 22:00:00,28.9535882,77.7622941,PM2.5,15,189,50
India,Uttar_Pradesh,Meerut,"Jai Bhim Nagar, Meerut - UPPCB",27-04-2024 22:00:00,28.9535882,77.7622941,PM10,34,154,94
India,Uttar_Pradesh,Meerut,"Pallavpuram Phase 2, Meerut - UPPCB",27-04-2024 22:00:00,29.063510,77.709723,NO2,22,105,53
India,Uttar_Pradesh,Moradabad,"Buddhi Vihar, Moradabad - UPPCB",27-04-2024 22:00:00,28.83526,78.74460,PM2.5,20,84,46
India,Uttar_Pradesh,Moradabad,"Buddhi Vihar, Moradabad - UPPCB",27-04-2024 22:00:00,28.83526,78.74460,CO,18,38,21
India,Uttar_Pradesh,Moradabad,"Buddhi Vihar, Moradabad - UPPCB",27-04-2024 22:00:00,28.83526,78.74460,OZONE,16,42,34
India,Uttar_Pradesh,Moradabad,"Employment Office, Moradabad - UPPCB",27-04-2024 22:00:00,28.88528,78.73880,PM2.5,28,57,39
India,Uttar_Pradesh,Moradabad,"Employment Office, Moradabad - UPPCB",27-04-2024 22:00:00,28.88528,78.73880,SO2,29,104,37
India,Uttar_Pradesh,Moradabad,"Employment Office, Moradabad - UPPCB",27-04-2024 22:00:00,28.88528,78.73880,CO,14,34,20
India,Uttar_Pradesh,Moradabad,"Employment Office, Moradabad - UPPCB",27-04-2024 22:00:00,28.88528,78.73880,OZONE,17,130,88
India,Uttar_Pradesh,Moradabad,"Jigar Colony, Moradabad - UPPCB",27-04-2024 22:00:00,28.856664,78.772638,SO2,6,10,8
India,Uttar_Pradesh,Moradabad,"Kashiram Nagar, Moradabad - UPPCB",27-04-2024 22:00:00,28.849399,78.742362,NO2,3,5,4
India,Uttar_Pradesh,Moradabad,"Transport Nagar, Moradabad - UPPCB",27-04-2024 22:00:00,28.802625,78.753728,PM2.5,14,75,32
India,Uttar_Pradesh,Muzaffarnagar,"New Mandi, Muzaffarnagar - UPPCB",27-04-2024 22:00:00,29.4723508,77.7194031,OZONE,29,99,80
India,Uttar_Pradesh,Noida,"Sector - 125, Noida - UPPCB",27-04-2024 22:00:00,28.5447608,77.3231257,PM2.5,32,84,47
India,Uttar_Pradesh,Noida,"Sector - 125, Noida - UPPCB",27-04-2024 22:00:00,28.5447608,77.3231257,SO2,13,27,19
India,Uttar_Pradesh,Noida,"Sector - 125, Noida - UPPCB",27-04-2024 22:00:00,28.5447608,77.3231257,OZONE,5,138,91
India,Uttar_Pradesh,Noida,"Sector - 62, Noida - IMD",27-04-2024 22:00:00,28.6245479,77.3577104,NO2,6,19,14
India,Uttar_Pradesh,Noida,"Sector-116, Noida - UPPCB",27-04-2024 22:00:00,28.569230,77.393848,OZONE,14,97,72
India,Uttar_Pradesh,Prayagraj,"Jhunsi, Prayagraj - UPPCB",27-04-2024 22:00:00,25.425602,81.917152,CO,2,41,15
India,Uttar_Pradesh,Prayagraj,"Motilal Nehru NIT, Prayagraj - UPPCB",27-04-2024 22:00:00,25.494,81.863,NH3,6,7,7
India,Uttar_Pradesh,Varanasi,"Ardhali Bazar, Varanasi - UPPCB",27-04-2024 22:00:00,25.3505986,82.9083074,PM10,10,74,28
India,Uttar_Pradesh,Varanasi,"Ardhali Bazar, Varanasi - UPPCB",27-04-2024 22:00:00,25.3505986,82.9083074,SO2,17,32,24
India,Uttar_Pradesh,Varanasi,"Ardhali Bazar, Varanasi - UPPCB",27-04-2024 22:00:00,25.3505986,82.9083074,OZONE,31,38,34
India,Uttar_Pradesh,Varanasi,"Bhelupur, Varanasi - UPPCB",27-04-2024 22:00:00,25.301778,82.996789,NH3,1,2,1
India,Uttar_Pradesh,Varanasi,"Bhelupur, Varanasi - UPPCB",27-04-2024 22:00:00,25.301778,82.996789,CO,8,38,20
India,Uttar_Pradesh,Varanasi,"Maldahiya, Varanasi - UPPCB",27-04-2024 22:00:00,25.32393,82.99687,NH3,1,1,1
India,Uttar_Pradesh,Vrindavan,"Omex Eternity, Vrindavan - UPPCB",27-04-2024 22:00:00,27.5714090,77.6557570,PM2.5,15,70,27
India,Uttar_Pradesh,Vrindavan,"Omex Eternity, Vrindavan - UPPCB",27-04-2024 22:00:00,27.5714090,77.6557570,PM10,34,276,113
India,Uttar_Pradesh,Vrindavan,"Omex Eternity, Vrindavan - UPPCB",27-04-2024 22:00:00,27.5714090,77.6557570,SO2,40,43,41
India,Uttarakhand,Dehradun,"Doon University, Dehradun - UKPCB",27-04-2024 22:00:00,30.269444,78.044167,NO2,1,5,2
India,Uttarakhand,Dehradun,"Doon University, Dehradun - UKPCB",27-04-2024 22:00:00,30.269444,78.044167,SO2,1,5,2
India,Uttarakhand,Dehradun,"Doon University, Dehradun - UKPCB",27-04-2024 22:00:00,30.269444,78.044167,OZONE,46,112,92
India,Uttarakhand,Kashipur,"Govt. Girls Inter College, Kashipur - UKPCB",27-04-2024 22:00:00,29.2124114,78.9611753,NO2,37,63,48
India,Uttarakhand,Kashipur,"Govt. Girls Inter College, Kashipur - UKPCB",27-04-2024 22:00:00,29.2124114,78.9611753,SO2,4,10,8
India,Uttarakhand,Rishikesh,"Shivaji Nagar, Rishikesh - UKPCB",27-04-2024 22:00:00,30.075911,78.2859547,PM10,60,98,73
India,West_Bengal,Asansol,"Asansol Court Area, Asansol - WBPCB",27-04-2024 22:00:00,23.685297,86.945968,CO,24,76,31
India,West_Bengal,Barrackpore,"SVSPA Campus, Barrackpore - WBPCB",27-04-2024 22:00:00,22.7605581,88.3617589,NO2,9,24,16
India,West_Bengal,Durgapur,"PCBL Residential Complex, Durgapur - WBPCB",27-04-2024 22:00:00,23.5087640,87.3544400,PM10,NA,NA,NA
India,West_Bengal,Durgapur,"PCBL Residential Complex, Durgapur - WBPCB",27-04-2024 22:00:00,23.5087640,87.3544400,NO2,NA,NA,NA
India,West_Bengal,Durgapur,"Sidhu Kanhu Indoor Stadium, Durgapur - WBPCB",27-04-2024 22:00:00,23.5404352,87.2892225,NO2,10,74,27
India,West_Bengal,Durgapur,"Sidhu Kanhu Indoor Stadium, Durgapur - WBPCB",27-04-2024 22:00:00,23.5404352,87.2892225,NH3,5,11,7
India,West_Bengal,Durgapur,"Sidhu Kanhu Indoor Stadium, Durgapur - WBPCB",27-04-2024 22:00:00,23.5404352,87.2892225,SO2,16,50,29
India,West_Bengal,Howrah,"Belur Math, Howrah - WBPCB",27-04-2024 22:00:00,22.629801,88.352017,OZONE,15,96,62
India,West_Bengal,Howrah,"Ghusuri, Howrah - WBPCB",27-04-2024 22:00:00,22.611968,88.347422,NO2,16,20,18
India,West_Bengal,Howrah,"Padmapukur, Howrah - WBPCB",27-04-2024 22:00:00,22.5687319,88.2797276,PM10,49,116,75
India,West_Bengal,Kolkata,"Ballygunge, Kolkata - WBPCB",27-04-2024 22:00:00,22.5367507,88.3638022,PM10,46,122,77
India,West_Bengal,Kolkata,"Ballygunge, Kolkata - WBPCB",27-04-2024 22:00:00,22.5367507,88.3638022,OZONE,51,168,124
India,West_Bengal,Kolkata,"Bidhannagar, Kolkata - WBPCB",27-04-2024 22:00:00,22.58157048,88.41002457,PM2.5,30,66,48
India,West_Bengal,Kolkata,"Bidhannagar, Kolkata - WBPCB",27-04-2024 22:00:00,22.58157048,88.41002457,NO2,17,26,21
India,West_Bengal,Kolkata,"Bidhannagar, Kolkata - WBPCB",27-04-2024 22:00:00,22.58157048,88.41002457,SO2,7,17,11
India,West_Bengal,Kolkata,"Fort William, Kolkata - WBPCB",27-04-2024 22:00:00,22.556640,88.342674,PM10,47,120,74
India,West_Bengal,Kolkata,"Jadavpur, Kolkata - WBPCB",27-04-2024 22:00:00,22.49929,88.36917,PM2.5,31,66,47
India,West_Bengal,Kolkata,"Jadavpur, Kolkata - WBPCB",27-04-2024 22:00:00,22.49929,88.36917,PM10,41,103,65
India,West_Bengal,Kolkata,"Rabindra Bharati University, Kolkata - WBPCB",27-04-2024 22:00:00,22.627847,88.380669,NH3,17,18,18
India,West_Bengal,Kolkata,"Rabindra Bharati University, Kolkata - WBPCB",27-04-2024 22:00:00,22.627847,88.380669,CO,24,37,30
India,West_Bengal,Kolkata,"Rabindra Sarobar, Kolkata - WBPCB",27-04-2024 22:00:00,22.51106,88.35142,NO2,10,42,24
India,West_Bengal,Kolkata,"Victoria, Kolkata - WBPCB",27-04-2024 22:00:00,22.5448082,88.3403691,PM2.5,32,90,62
India,West_Bengal,Kolkata,"Victoria, Kolkata - WBPCB",27-04-2024 22:00:00,22.5448082,88.3403691,NH3,4,4,4
India,Andhra_Pradesh,Amaravati,"Secretariat, Amaravati - APPCB",27-04-2024 22:00:00,16.5150833,80.5181667,NO2,4,9,6
India,Andhra_Pradesh,Amaravati,"Secretariat, Amaravati - APPCB",27-04-2024 22:00:00,16.5150833,80.5181667,CO,1,96,39
India,Andhra_Pradesh,Anantapur,"Gulzarpet, Anantapur - APPCB",27-04-2024 22:00:00,14.675886,77.593027,PM10,NA,NA,NA
India,Andhra_Pradesh,Anantapur,"Gulzarpet, Anantapur - APPCB",27-04-2024 22:00:00,14.675886,77.593027,OZONE,10,54,49
India,Andhra_Pradesh,Kadapa,"Yerramukkapalli, Kadapa - APPCB",27-04-2024 22:00:00,14.465052,78.824187,SO2,NA,NA,NA
India,Andhra_Pradesh,Tirupati,"Vaikuntapuram, Tirupati - APPCB",27-04-2024 22:00:00,13.615387,79.409230,OZONE,2,43,32
India,Andhra_Pradesh,Vijayawada,"HB Colony, Vijayawada - APPCB",27-04-2024 22:00:00,16.536107,80.594233,PM2.5,40,52,44
India,Andhra_Pradesh,Vijayawada,"HB Colony, Vijayawada - APPCB",27-04-2024 22:00:00,16.536107,80.594233,NO2,4,7,5
India,Andhra_Pradesh,Vijayawada,"HB Colony, Vijayawada - APPCB",27-04-2024 22:00:00,16.536107,80.594233,CO,38,38,38
India,Andhra_Pradesh,Vijayawada,"Kanuru, Vijayawada - APPCB",27-04-2024 22:00:00,16.486692,80.699436,PM2.5,NA,NA,NA
India,Andhra_Pradesh,Vijayawada,"Kanuru, Vijayawada - APPCB",27-04-2024 22:00:00,16.486692,80.699436,NH3,1,1,1
India,Andhra_Pradesh,Vijayawada,"Rajiv Gandhi Park, Vijayawada - APPCB",27-04-2024 22:00:00,16.509717,80.612222,NO2,28,74,52
India,Andhra_Pradesh,Vijayawada,"Rajiv Nagar, Vijayawada - APPCB",27-04-2024 22:00:00,16.554731,80.649110,PM10,59,95,63
India,Andhra_Pradesh,Visakhapatnam,"GVM Corporation, Visakhapatnam - APPCB",27-04-2024 22:00:00,17.72,83.3,PM2.5,20,117,62
India,Andhra_Pradesh,Visakhapatnam,"GVM Corporation, Visakhapatnam - APPCB",27-04-2024 22:00:00,17.72,83.3,NH3,3,7,4
India,Andhra_Pradesh,Visakhapatnam,"GVM Corporation, Visakhapatnam - APPCB",27-04-2024 22:00:00,17.72,83.3,SO2,11,17,13
India,Andhra_Pradesh,Visakhapatnam,"GVM Corporation, Visakhapatnam - APPCB",27-04-2024 22:00:00,17.72,83.3,OZONE,1,86,17
India,Arunachal_Pradesh,Naharlagun,"Naharlagun, Naharlagun - APSPCB",27-04-2024 22:00:00,27.103358,93.679645,PM10,NA,NA,NA
India,Assam,Byrnihat,"Central Academy for SFS, Byrnihat - PCBA",27-04-2024 22:00:00,26.071318,91.87488,NO2,38,81,56
India,Assam,Guwahati,"IITG, Guwahati - PCBA",27-04-2024 22:00:00,26.2028636,91.70046436,PM2.5,33,94,52
India,Assam,Guwahati,"LGBI Airport, Guwahati - PCBA",27-04-2024 22:00:00,26.10887,91.589544,NO2,17,81,50
India,Assam,Guwahati,"LGBI Airport, Guwahati - PCBA",27-04-2024 22:00:00,26.10887,91.589544,SO2,7,12,9
India,Assam,Nagaon,"Christianpatty, Nagaon - PCBA",27-04-2024 22:00:00,26.349082,92.68449,PM10,71,119,86
India,Assam,Nagaon,"Christianpatty, Nagaon - PCBA",27-04-2024 22:00:00,26.349082,92.68449,NH3,2,4,3
India,Assam,Nalbari,"Bata Chowk, Nalbari - PCBA",27-04-2024 22:00:00,26.446912,91.439057,NH3,1,2,2
India,Assam,Silchar,"Tarapur, Silchar - PCBA",27-04-2024 22:00:00,24.82827,92.79525,PM2.5,23,45,28
India,Assam,Silchar,"Tarapur, Silchar - PCBA",27-04-2024 22:00:00,24.82827,92.79525,NH3,1,1,1
India,Assam,Sivasagar,"Girls College, Sivasagar - PCBA",27-04-2024 22:00:00,26.987634,94.636574,OZONE,1,10,9
India,Bihar,Araria,"Kharahiya Basti, Araria - BSPCB",27-04-2024 22:00:00,26.146529,87.454184,PM10,71,144,101
India,Bihar,Arrah,"New DM Office, Arrah - BSPCB",27-04-2024 22:00:00,25.5626095,84.663264,CO,4,12,9
India,Bihar,Aurangabad,"Gurdeo Nagar, Aurangabad - BSPCB",27-04-2024 22:00:00,24.75746,84.366208,CO,2,48,28
India,Bihar,Bettiah,"Kamalnath Nagar, Bettiah - BSPCB",27-04-2024 22:00:00,26.80365,84.51954,PM10,NA,NA,NA
India,Bihar,Bettiah,"Kamalnath Nagar, Bettiah - BSPCB",27-04-2024 22:00:00,26.80365,84.51954,NH3,3,6,4
India,Bihar,Bettiah,"Kamalnath Nagar, Bettiah - BSPCB",27-04-2024 22:00:00,26.80365,84.51954,CO,60,64,63
India,Bihar,Bhagalpur,"DM Office_Kachari Chowk, Bhagalpur - BSPCB",27-04-2024 22:00:00,25.251013,86.989001,PM2.5,60,190,105
India,Bihar,Bhagalpur,"DM Office_Kachari Chowk, Bhagalpur - BSPCB",27-04-2024 22:00:00,25.251013,86.989001,NH3,3,7,5
India,Bihar,Bhagalpur,"Mayaganj, Bhagalpur - BSPCB",27-04-2024 22:00:00,25.265194,87.012947,CO,4,10,9
India,Bihar,Bihar Sharif,"D M Colony, Bihar Sharif - BSPCB",27-04-2024 22:00:00,25.204762,85.514960,NH3,2,2,2
India,Bihar,Buxar,"Charitra Van, Buxar - BSPCB (Formerly known as Central Jail)",27-04-2024 22:00:00,25.567520,83.966379,PM2.5,31,235,89
India,Bihar,Buxar,"Charitra Van, Buxar - BSPCB (Formerly known as Central Jail)",27-04-2024 22:00:00,25.567520,83.966379,CO,40,94,71
India,Bihar,Chhapra,"Darshan Nagar, Chhapra - BSPCB",27-04-2024 22:00:00,25.7808257,84.7446768,PM10,63,116,92
India,Bihar,Chhapra,"Darshan Nagar, Chhapra - BSPCB",27-04-2024 22:00:00,25.7808257,84.7446768,NH3,8,15,11
India,Bihar,Chhapra,"Darshan Nagar, Chhapra - BSPCB",27-04-2024 22:00:00,25.7808257,84.7446768,SO2,4,32,12
India,Bihar,Gaya,"Collectorate, Gaya - BSPCB",27-04-2024 22:00:00,24.7955,84.9994,CO,20,78,51
India,Bihar,Gaya,"SFTI Kusdihra, Gaya - BSPCB",27-04-2024 22:00:00,24.762518,84.982348,OZONE,6,152,72
India,Bihar,Hajipur,"Industrial Area, Hajipur - BSPCB",27-04-2024 22:00:00,25.697189,85.245900,NH3,1,10,6
India,Bihar,Katihar,"Mirchaibari, Katihar - BSPCB",27-04-2024 22:00:00,25.560083,87.553265,PM10,80,189,122
India,Bihar,Katihar,"Mirchaibari, Katihar - BSPCB",27-04-2024 22:00:00,25.560083,87.553265,SO2,16,22,19
India,Bihar,Kishanganj,"SDM Office_Khagra, Kishanganj - BSPCB",27-04-2024 22:00:00,26.0881305,87.93840336,PM2.5,47,273,101
India,Bihar,Manguraha,"Forest Rest House, Manguraha - BSPCB",27-04-2024 22:00:00,27.308328,84.531742,PM2.5,75,210,122
India,Bihar,Manguraha,"Forest Rest House, Manguraha - BSPCB",27-04-2024 22:00:00,27.308328,84.531742,NO2,17,25,19
India,Bihar,Manguraha,"Forest Rest House, Manguraha - BSPCB",27-04-2024 22:00:00,27.308328,84.531742,NH3,2,3,2
India,Bihar,Motihari,"Gandak Colony, Motihari - BSPCB",27-04-2024 22:00:00,26.63086,84.90051,NO2,38,115,79
India,Bihar,Munger,"Town Hall, Munger - BSPCB",27-04-2024 22:00:00,25.376776,86.471523,NO2,4,8,7
India,Bihar,Muzaffarpur,"MIT-Daudpur Kothi, Muzaffarpur - BSPCB",27-04-2024 22:00:00,26.1403345,85.3650192,PM2.5,NA,NA,NA
India,Bihar,Muzaffarpur,"MIT-Daudpur Kothi, Muzaffarpur - BSPCB",27-04-2024 22:00:00,26.1403345,85.3650192,PM10,NA,NA,NA
India,Bihar,Muzaffarpur,"Muzaffarpur Collectorate, Muzaffarpur - BSPCB",27-04-2024 22:00:00,26.1209,85.3647,CO,28,90,36
India,Bihar,Patna,"DRM Office Danapur, Patna - BSPCB",27-04-2024 22:00:00,25.586562,85.043586,PM2.5,NA,NA,NA
India,Bihar,Patna,"DRM Office Danapur, Patna - BSPCB",27-04-2024 22:00:00,25.586562,85.043586,NO2,6,90,34
India,Bihar,Patna,"Govt. High School Shikarpur, Patna - BSPCB",27-04-2024 22:00:00,25.592539,85.227158,NO2,18,22,20
India,Bihar,Patna,"IGSC Planetarium Complex, Patna - BSPCB",27-04-2024 22:00:00,25.610369,85.132568,NO2,NA,NA,NA
India,Bihar,Patna,"IGSC Planetarium Complex, Patna - BSPCB",27-04-2024 22:00:00,25.610369,85.132568,SO2,NA,NA,NA
India,Bihar,Patna,"Muradpur, Patna - BSPCB",27-04-2024 22:00:00,25.619651,85.147382,CO,2,109,33
India,Bihar,Purnia,"Mariam Nagar, Purnia - BSPCB",27-04-2024 22:00:00,25.366336,87.117468,NO2,4,64,14
India,Bihar,Purnia,"Mariam Nagar, Purnia - BSPCB",27-04-2024 22:00:00,25.366336,87.117468,SO2,6,18,11
India,Bihar,Purnia,"Mariam Nagar, Purnia - BSPCB",27-04-2024 22:00:00,25.366336,87.117468,CO,34,90,59
India,Bihar,Saharsa,"Police Line, Saharsa - BSPCB",27-04-2024 22:00:00,25.892357,86.590325,NH3,9,9,9
India,Bihar,Saharsa,"Police Line, Saharsa - BSPCB",27-04-2024 22:00:00,25.892357,86.590325,OZONE,11,45,32
India,Bihar,Samastipur,"DM Office_Kasipur, Samastipur - BSPCB",27-04-2024 22:00:00,25.859655,85.77944,PM2.5,60,329,143
India,Bihar,Samastipur,"DM Office_Kasipur, Samastipur - BSPCB",27-04-2024 22:00:00,25.859655,85.77944,SO2,NA,NA,NA
India,Bihar,Sasaram,"Dada Peer, Sasaram - BSPCB",27-04-2024 22:00:00,24.952822,84.002396,CO,78,100,80
India,Bihar,Siwan,"Chitragupta Nagar, Siwan - BSPCB",27-04-2024 22:00:00,26.2271665,84.3570427,NO2,9,39,25
India,Chandigarh,Chandigarh,"Sector 22, Chandigarh - CPCC",27-04-2024 22:00:00,30.735567,76.775714,NO2,16,94,47
India,Chandigarh,Chandigarh,"Sector 22, Chandigarh - CPCC",27-04-2024 22:00:00,30.735567,76.775714,CO,36,76,49
India,Chandigarh,Chandigarh,"Sector-25, Chandigarh - CPCC",27-04-2024 22:00:00,30.751462,76.762879,CO,20,46,25
India,Chandigarh,Chandigarh,"Sector-25, Chandigarh - CPCC",27-04-2024 22:00:00,30.751462,76.762879,OZONE,4,83,30
India,Chandigarh,Chandigarh,"Sector-53, Chandigarh - CPCC",27-04-2024 22:00:00,30.719859,76.738637,SO2,6,27,14
India,Chhattisgarh,Bhilai,"32Bungalows, Bhilai - CECB",27-04-2024 22:00:00,21.194815,81.314770,NO2,15,31,25
India,Chhattisgarh,Bhilai,"32Bungalows, Bhilai - CECB",27-04-2024 22:00:00,21.194815,81.314770,CO,14,76,26
India,Chhattisgarh,Bhilai,"Civic Center, Bhilai - Bhilai Steel Plant",27-04-2024 22:00:00,21.185571,81.343175,NO2,7,15,13
India,Chhattisgarh,Bhilai,"Civic Center, Bhilai - Bhilai Steel Plant",27-04-2024 22:00:00,21.185571,81.343175,NH3,2,7,4
India,Chhattisgarh,Bhilai,"Civic Center, Bhilai - Bhilai Steel Plant",27-04-2024 22:00:00,21.185571,81.343175,SO2,8,11,10
India,Chhattisgarh,Bhilai,"Hathkhoj, Bhilai - CECB",27-04-2024 22:00:00,21.224231,81.408350,CO,8,103,33
India,Chhattisgarh,Bilaspur,"Mangala, Bilaspur - NTPC",27-04-2024 22:00:00,22.08815,82.13737,CO,24,34,33
India,Chhattisgarh,Korba,"Rampur, Korba - CECB",27-04-2024 22:00:00,22.368195,82.746431,SO2,6,42,20
India,Chhattisgarh,Milupara,"Govt. Higher Secondary School, Milupara - CECB",27-04-2024 22:00:00,22.1910172,83.5197009,PM2.5,NA,NA,NA
India,Chhattisgarh,Milupara,"Govt. Higher Secondary School, Milupara - CECB",27-04-2024 22:00:00,22.1910172,83.5197009,NH3,NA,NA,NA
India,Chhattisgarh,Raipur,"AIIMS, Raipur - CECB",27-04-2024 22:00:00,21.258815,81.578979,NO2,NA,NA,NA
India,Chhattisgarh,Raipur,"AIIMS, Raipur - CECB",27-04-2024 22:00:00,21.258815,81.578979,SO2,NA,NA,NA
India,Chhattisgarh,Raipur,"Bhatagaon New ISBT, Raipur - CECB",27-04-2024 22:00:00,21.219665,81.630094,OZONE,3,7,5
India,Chhattisgarh,Raipur,"Siltara Phase-II, Raipur - CECB",27-04-2024 22:00:00,21.371751,81.664929,SO2,13,94,49
India,Chhattisgarh,Raipur,"Siltara Phase-II, Raipur - CECB",27-04-2024 22:00:00,21.371751,81.664929,CO,14,50,28
India,Chhattisgarh,Tumidih,"OP Jindal Industrial Park, Tumidih - CECB",27-04-2024 22:00:00,22.06631475,83.33820077,PM2.5,NA,NA,NA
India,Delhi,Delhi,"Alipur, Delhi - DPCC",27-04-2024 22:00:00,28.815329,77.153010,SO2,12,35,19
India,Delhi,Delhi,"Anand Vihar, Delhi - DPCC",27-04-2024 22:00:00,28.647622,77.3158090,PM10,NA,NA,NA
India,Delhi,Delhi,"Anand Vihar, Delhi - DPCC",27-04-2024 22:00:00,28.647622,77.3158090,CO,36,57,44
India,Delhi,Delhi,"Ashok Vihar, Delhi - DPCC",27-04-2024 22:00:00,28.695381,77.181665,NH3,11,19,16
India,Delhi,Delhi,"Aya Nagar, Delhi - IMD",27-04-2024 22:00:00,28.4706914,77.1099364,NO2,13,38,31
India,Delhi,Delhi,"Burari Crossing, Delhi - IMD",27-04-2024 22:00:00,28.7256504,77.2011573,PM2.5,73,322,140
India,Delhi,Delhi,"Burari Crossing, Delhi - IMD",27-04-2024 22:00:00,28.7256504,77.2011573,PM10,83,210,167
India,Delhi,Delhi,"CRRI Mathura Road, Delhi - IMD",27-04-2024 22:00:00,28.5512005,77.2735737,PM10,89,368,183
India,Delhi,Delhi,"CRRI Mathura Road, Delhi - IMD",27-04-2024 22:00:00,28.5512005,77.2735737,CO,20,74,35
India,Delhi,Delhi,"Chandni Chowk, Delhi - IITM",27-04-2024 22:00:00,28.656756,77.227234,CO,72,104,94
India,Delhi,Delhi,"DTU, Delhi - CPCB",27-04-2024 22:00:00,28.7500499,77.1112615,SO2,34,39,36
India,Delhi,Delhi,"DTU, Delhi - CPCB",27-04-2024 22:00:00,28.7500499,77.1112615,CO,18,48,25
India,Delhi,Delhi,"IHBAS, Dilshad Garden, Delhi - CPCB",27-04-2024 22:00:00,28.6811736,77.3025234,PM10,66,187,135
India,Delhi,Delhi,"IHBAS, Dilshad Garden, Delhi - CPCB",27-04-2024 22:00:00,28.6811736,77.3025234,NH3,7,11,9
India,Delhi,Delhi,"ITO, Delhi - CPCB",27-04-2024 22:00:00,28.628624,77.241060,NO2,1,161,71
India,Delhi,Delhi,"ITO, Delhi - CPCB",27-04-2024 22:00:00,28.628624,77.241060,SO2,3,23,14
India,Delhi,Delhi,"Jawaharlal Nehru Stadium, Delhi - DPCC",27-04-2024 22:00:00,28.580280,77.233829,CO,25,90,44
India,Delhi,Delhi,"Lodhi Road, Delhi - IITM",27-04-2024 22:00:00,28.588333,77.221667,NH3,7,10,8
India,Delhi,Delhi,"Lodhi Road, Delhi - IMD",27-04-2024 22:00:00,28.5918245,77.2273074,NO2,4,24,12
India,Delhi,Delhi,"NSIT Dwarka, Delhi - CPCB",27-04-2024 22:00:00,28.60909,77.0325413,PM2.5,36,122,64
India,Delhi,Delhi,"NSIT Dwarka, Delhi - CPCB",27-04-2024 22:00:00,28.60909,77.0325413,CO,24,50,44
India,Delhi,Delhi,"Najafgarh, Delhi - DPCC",27-04-2024 22:00:00,28.570173,76.933762,NO2,20,72,43
India,Delhi,Delhi,"Najafgarh, Delhi - DPCC",27-04-2024 22:00:00,28.570173,76.933762,CO,34,51,39
India,Delhi,Delhi,"Narela, Delhi - DPCC",27-04-2024 22:00:00,28.822836,77.101981,PM10,107,401,192
India,Delhi,Delhi,"Nehru Nagar, Delhi - DPCC",27-04-2024 22:00:00,28.567890,77.250515,NH3,2,10,3
India,Delhi,Delhi,"Nehru Nagar, Delhi - DPCC",27-04-2024 22:00:00,28.567890,77.250515,OZONE,2,143,95
India,Delhi,Delhi,"Okhla Phase-2, Delhi - DPCC",27-04-2024 22:00:00,28.530785,77.271255,PM10,126,445,209
India,Delhi,Delhi,"Okhla Phase-2, Delhi - DPCC",27-04-2024 22:00:00,28.530785,77.271255,OZONE,11,96,61
India,Delhi,Delhi,"Patparganj, Delhi - DPCC",27-04-2024 22:00:00,28.623763,77.287209,PM2.5,48,143,77
India,Delhi,Delhi,"Pusa, Delhi - DPCC",27-04-2024 22:00:00,28.639652,77.146275,PM2.5,37,113,63
India,Delhi,Delhi,"Pusa, Delhi - DPCC",27-04-2024 22:00:00,28.639652,77.146275,NH3,6,11,9
India,Delhi,Delhi,"Pusa, Delhi - IMD",27-04-2024 22:00:00,28.636110,77.173332,PM10,65,394,191
India,Delhi,Delhi,"Pusa, Delhi - IMD",27-04-2024 22:00:00,28.636110,77.173332,NO2,5,24,12
India,Delhi,Delhi,"R K Puram, Delhi - DPCC",27-04-2024 22:00:00,28.563262,77.186937,CO,6,100,39
India,Delhi,Delhi,"Rohini, Delhi - DPCC",27-04-2024 22:00:00,28.732528,77.119920,NH3,9,18,13
India,Delhi,Delhi,"Sri Aurobindo Marg, Delhi - DPCC",27-04-2024 22:00:00,28.531346,77.190156,CO,10,49,15
India,Delhi,Delhi,"Vivek Vihar, Delhi - DPCC",27-04-2024 22:00:00,28.672342,77.315260,OZONE,3,120,73
India,Delhi,Delhi,"Wazirpur, Delhi - DPCC",27-04-2024 22:00:00,28.699793,77.165453,NH3,12,13,12
India,Delhi,Delhi,"Wazirpur, Delhi - DPCC",27-04-2024 22:00:00,28.699793,77.165453,SO2,4,19,11
India,Gujarat,Ahmedabad,"Chandkheda, Ahmedabad - IITM",27-04-2024 22:00:00,23.107969,72.574648,NH3,2,4,2
India,Gujarat,Ahmedabad,"Chandkheda, Ahmedabad - IITM",27-04-2024 22:00:00,23.107969,72.574648,CO,10,68,28
India,Gujarat,Ahmedabad,"Maninagar, Ahmedabad - GPCB",27-04-2024 22:00:00,23.002657,72.591912,PM10,37,233,107
India,Gujarat,Ahmedabad,"Rakhial, Ahmedabad - IITM",27-04-2024 22:00:00,23.016834,72.625775,PM10,96,197,130
India,Gujarat,Ahmedabad,"Sardar Vallabhbhai Patel Stadium, Ahmedabad - IITM",27-04-2024 22:00:00,23.043070,72.562968,NO2,26,48,44
India,Gujarat,Ankleshwar,"GIDC, Ankleshwar - GPCB",27-04-2024 22:00:00,21.613267,73.010555,NH3,7,7,7
India,Gujarat,Ankleshwar,"GIDC, Ankleshwar - GPCB",27-04-2024 22:00:00,21.613267,73.010555,SO2,11,63,32
India,Gujarat,Ankleshwar,"GIDC, Ankleshwar - GPCB",27-04-2024 22:00:00,21.613267,73.010555,CO,44,98,50
India,Gujarat,Gandhinagar,"Sector-10, Gandhinagar - GPCB",27-04-2024 22:00:00,23.221714,72.654328,PM2.5,27,72,42
India,Gujarat,Gandhinagar,"Sector-10, Gandhinagar - GPCB",27-04-2024 22:00:00,23.221714,72.654328,NO2,19,23,21
India,Gujarat,Nandesari,"GIDC, Nandesari - Nandesari Ind. Association",27-04-2024 22:00:00,22.410802,73.097923,NO2,NA,NA,NA
India,Gujarat,Vapi,"Phase-1 GIDC, Vapi - GPCB",27-04-2024 22:00:00,20.362421,72.918013,PM2.5,28,106,54
India,Gujarat,Vapi,"Phase-1 GIDC, Vapi - GPCB",27-04-2024 22:00:00,20.362421,72.918013,NO2,6,7,7
India,Gujarat,Vapi,"Phase-1 GIDC, Vapi - GPCB",27-04-2024 22:00:00,20.362421,72.918013,NH3,2,2,2
India,Gujarat,Vatva,"Phase-4 GIDC, Vatva - GPCB",27-04-2024 22:00:00,22.969611,72.643500,NO2,27,169,61
India,Gujarat,Vatva,"Phase-4 GIDC, Vatva - GPCB",27-04-2024 22:00:00,22.969611,72.643500,OZONE,6,36,23
India,Haryana,Ambala,"Patti Mehar, Ambala - HSPCB",27-04-2024 22:00:00,30.379589,76.778328,CO,39,60,40
India,Haryana,Bahadurgarh,"Arya Nagar, Bahadurgarh - HSPCB",27-04-2024 22:00:00,28.6701,76.9254,PM2.5,48,161,81
India,Haryana,Bahadurgarh,"Arya Nagar, Bahadurgarh - HSPCB",27-04-2024 22:00:00,28.6701,76.9254,PM10,88,194,144
India,Haryana,Ballabgarh,"Nathu Colony, Ballabgarh - HSPCB",27-04-2024 22:00:00,28.3419248,77.319699,CO,4,66,30
India,Haryana,Ballabgarh,"Nathu Colony, Ballabgarh - HSPCB",27-04-2024 22:00:00,28.3419248,77.319699,OZONE,4,28,19
India,Haryana,Charkhi Dadri,"Mini Secretariat, Charkhi Dadri - HSPCB",27-04-2024 22:00:00,28.593883,76.270653,PM10,58,284,153
India,Haryana,Charkhi Dadri,"Mini Secretariat, Charkhi Dadri - HSPCB",27-04-2024 22:00:00,28.593883,76.270653,CO,21,72,35
India,Haryana,Faridabad,"New Industrial Town, Faridabad - HSPCB",27-04-2024 22:00:00,28.39072,77.30059,CO,6,35,16
India,Haryana,Faridabad,"New Industrial Town, Faridabad - HSPCB",27-04-2024 22:00:00,28.39072,77.30059,OZONE,24,263,83
India,Haryana,Faridabad,"Sector 11, Faridabad - HSPCB",27-04-2024 22:00:00,28.376058,77.315741,CO,32,47,36
India,Haryana,Faridabad,"Sector 30, Faridabad - HSPCB",27-04-2024 22:00:00,28.4417,77.3217,SO2,NA,NA,NA
India,Haryana,Fatehabad,"Huda Sector, Fatehabad - HSPCB",27-04-2024 22:00:00,29.503664,75.467934,NH3,10,10,10
India,Haryana,Fatehabad,"Huda Sector, Fatehabad - HSPCB",27-04-2024 22:00:00,29.503664,75.467934,SO2,10,11,11
India,Haryana,Gurugram,"Sector-51, Gurugram - HSPCB",27-04-2024 22:00:00,28.4227,77.0667,SO2,2,4,3
India,Haryana,Gurugram,"Teri Gram, Gurugram - HSPCB",27-04-2024 22:00:00,28.4275,77.1465,NH3,35,46,40
India,Haryana,Gurugram,"Teri Gram, Gurugram - HSPCB",27-04-2024 22:00:00,28.4275,77.1465,OZONE,27,36,34
India,Haryana,Gurugram,"Vikas Sadan, Gurugram - HSPCB",27-04-2024 22:00:00,28.4501238,77.0263051,NO2,5,26,14
India,Haryana,Hisar,"Urban Estate-II, Hisar - HSPCB",27-04-2024 22:00:00,29.140560,75.744941,PM2.5,48,89,72
India,Haryana,Hisar,"Urban Estate-II, Hisar - HSPCB",27-04-2024 22:00:00,29.140560,75.744941,NH3,7,11,9
India,Haryana,Mandikhera,"General Hospital, Mandikhera - HSPCB",27-04-2024 22:00:00,27.9002,76.9938,SO2,29,37,34
India,Haryana,Narnaul,"Shastri Nagar, Narnaul - HSPCB",27-04-2024 22:00:00,28.060249,76.113115,PM2.5,42,122,83
India,Haryana,Narnaul,"Shastri Nagar, Narnaul - HSPCB",27-04-2024 22:00:00,28.060249,76.113115,NH3,5,24,15
India,Haryana,Narnaul,"Shastri Nagar, Narnaul - HSPCB",27-04-2024 22:00:00,28.060249,76.113115,SO2,13,43,18
India,Haryana,Palwal,"Shyam Nagar, Palwal - HSPCB",27-04-2024 22:00:00,28.1485564,77.3320667,PM10,44,144,97
India,Haryana,Palwal,"Shyam Nagar, Palwal - HSPCB",27-04-2024 22:00:00,28.1485564,77.3320667,CO,20,30,24
India,Haryana,Panchkula,"Sector-6, Panchkula - HSPCB ",27-04-2024 22:00:00,30.7057778,76.8531805555555,NO2,8,11,10
India,Haryana,Panipat,"Sector-18, Panipat - HSPCB",27-04-2024 22:00:00,29.497973,76.993331,PM10,98,100,99
India,Haryana,Panipat,"Sector-18, Panipat - HSPCB",27-04-2024 22:00:00,29.497973,76.993331,NO2,31,32,31
India,Haryana,Panipat,"Sector-18, Panipat - HSPCB",27-04-2024 22:00:00,29.497973,76.993331,NH3,2,3,2
India,Haryana,Panipat,"Sector-18, Panipat - HSPCB",27-04-2024 22:00:00,29.497973,76.993331,SO2,18,19,19
India,Haryana,Panipat,"Sector-18, Panipat - HSPCB",27-04-2024 22:00:00,29.497973,76.993331,OZONE,30,30,30
India,Haryana,Rohtak,"MD University, Rohtak - HSPCB",27-04-2024 22:00:00,28.52123,76.37138,NO2,47,57,51
India,Haryana,Rohtak,"MD University, Rohtak - HSPCB",27-04-2024 22:00:00,28.52123,76.37138,OZONE,46,53,49
India,Haryana,Sirsa,"F-Block, Sirsa - HSPCB",27-04-2024 22:00:00,29.536400,75.015800,PM2.5,47,177,79
India,Haryana,Sirsa,"F-Block, Sirsa - HSPCB",27-04-2024 22:00:00,29.536400,75.015800,NO2,9,23,10
India,Haryana,Sonipat,"Murthal, Sonipat - HSPCB",27-04-2024 22:00:00,29.027200,77.062100,CO,2,21,10
India,Haryana,Yamuna Nagar,"Gobind Pura, Yamuna Nagar - HSPCB",27-04-2024 22:00:00,30.1480566,77.2893471,PM10,38,202,90
India,Himachal Pradesh,Baddi,"HIMUDA Complex Phase-1, Baddi - HPPCB",27-04-2024 22:00:00,30.943887,76.801991,PM2.5,10,70,38
India,Jharkhand,Dhanbad,"Kalakusuma, Dhanbad - DMC",27-04-2024 22:00:00,23.811548,86.481238,PM10,64,415,159
India,Jharkhand,Dhanbad,"Kalakusuma, Dhanbad - DMC",27-04-2024 22:00:00,23.811548,86.481238,SO2,9,54,17
India,Jharkhand,Dhanbad,"Sardar Patel Nagar, Dhanbad - JSPCB",27-04-2024 22:00:00,23.80569,86.44268,NO2,NA,NA,NA
India,Jharkhand,Dhanbad,"Sardar Patel Nagar, Dhanbad - JSPCB",27-04-2024 22:00:00,23.80569,86.44268,OZONE,13,25,23
India,Jharkhand,Pathardih,"Mohalbani Ghat, Pathardih - DMC",27-04-2024 22:00:00,23.669880,86.411725,PM2.5,NA,NA,NA
India,Jharkhand,Pathardih,"Mohalbani Ghat, Pathardih - DMC",27-04-2024 22:00:00,23.669880,86.411725,SO2,NA,NA,NA
India,Jharkhand,Pathardih,"Mohalbani Ghat, Pathardih - DMC",27-04-2024 22:00:00,23.669880,86.411725,CO,2,19,14
India,Jharkhand,Pathardih,"Mohalbani Ghat, Pathardih - DMC",27-04-2024 22:00:00,23.669880,86.411725,OZONE,17,28,22
India,Karnataka,Bengaluru,"BTM Layout, Bengaluru - CPCB",27-04-2024 22:00:00,12.9135218,77.5950804,OZONE,61,100,77
India,Karnataka,Bengaluru,"Bapuji Nagar, Bengaluru - KSPCB",27-04-2024 22:00:00,12.951913,77.539784,NO2,10,11,11
India,Karnataka,Bengaluru,"Hebbal, Bengaluru - KSPCB",27-04-2024 22:00:00,13.029152,77.585901,OZONE,8,40,14
India,Karnataka,Bengaluru,"Kasturi Nagar, Bengaluru - KSPCB",27-04-2024 22:00:00,13.003872,77.664217,PM2.5,65,500,154
India,Karnataka,Bengaluru,"Kasturi Nagar, Bengaluru - KSPCB",27-04-2024 22:00:00,13.003872,77.664217,SO2,10,10,10
India,Karnataka,Bengaluru,"Peenya, Bengaluru - CPCB",27-04-2024 22:00:00,13.0270199,77.494094,NH3,3,6,4
India,Karnataka,Bengaluru,"Peenya, Bengaluru - CPCB",27-04-2024 22:00:00,13.0270199,77.494094,SO2,8,13,11
India,Karnataka,Bengaluru,"Sanegurava Halli, Bengaluru - KSPCB",27-04-2024 22:00:00,12.990328,77.5431385,SO2,2,3,3
India,Karnataka,Bengaluru,"Silk Board, Bengaluru - KSPCB",27-04-2024 22:00:00,12.917348,77.622813,PM10,61,133,102
India,Karnataka,Bidar,"Naubad, Bidar - KSPCB",27-04-2024 22:00:00,17.930306,77.482194,CO,62,107,89
India,Karnataka,Chamarajanagar,"Urban, Chamarajanagar - KSPCB",27-04-2024 22:00:00,11.55358,76.55521,PM2.5,21,30,25
India,Karnataka,Chikkaballapur,"Chikkaballapur Rural, Chikkaballapur - KSPCB",27-04-2024 22:00:00,13.428828,77.731418,PM2.5,29,147,74
India,Karnataka,Chikkaballapur,"Chikkaballapur Rural, Chikkaballapur - KSPCB",27-04-2024 22:00:00,13.428828,77.731418,NO2,6,19,9
India,Karnataka,Gadag,"Panchal Nagar, Gadag - KSPCB",27-04-2024 22:00:00,15.411456,75.638133,NH3,1,3,2
India,Karnataka,Gadag,"Panchal Nagar, Gadag - KSPCB",27-04-2024 22:00:00,15.411456,75.638133,OZONE,21,88,72
India,Karnataka,Haveri,"Ashwini Nagar, Haveri - KSPCB",27-04-2024 22:00:00,14.791800,75.389600,SO2,14,14,14
India,Karnataka,Hubballi,"Deshpande Nagar, Hubballi - KSPCB",27-04-2024 22:00:00,15.351773,75.140726,PM10,NA,NA,NA
India,Karnataka,Hubballi,"Lingaraj Nagar, Hubballi - KSPCB",27-04-2024 22:00:00,15.3714823,75.1160168,PM2.5,36,59,46
