country,state,city,station,last_update,latitude,longitude,pollutant_id,pollutant_min,pollutant_max,pollutant_avg
India,Andhra_Pradesh,Amaravati,"Secretariat, Amaravati - APPCB",03-02-2024 22:00:00,16.5150833,80.5181667,PM10,34,66,51
India,Andhra_Pradesh,Anantapur,"Gulzarpet, Anantapur - APPCB",03-02-2024 22:00:00,14.675886,77.593027,CO,39,76,44
India,Andhra_Pradesh,Anantapur,"Gulzarpet, Anantapur - APPCB",03-02-2024 22:00:00,14.675886,77.593027,OZONE,2,50,43
India,Andhra_Pradesh,Chittoor,"Gangineni Cheruvu, Chittoor - APPCB",03-02-2024 22:00:00,13.204880,79.097889,PM10,NA,NA,NA
India,Andhra_Pradesh,Chittoor,"Gangineni Cheruvu, Chittoor - APPCB",03-02-2024 22:00:00,13.204880,79.097889,OZONE,58,131,105
India,Andhra_Pradesh,Kadapa,"Yerramukkapalli, Kadapa - APPCB",03-02-2024 22:00:00,14.465052,78.824187,OZONE,17,74,57
India,Andhra_Pradesh,Rajamahendravaram,"Anand Kala Kshetram, Rajamahendravaram - APPCB",03-02-2024 22:00:00,16.9872867,81.7363176,PM2.5,37,92,64
India,Andhra_Pradesh,Rajamahendravaram,"Anand Kala Kshetram, Rajamahendravaram - APPCB",03-02-2024 22:00:00,16.9872867,81.7363176,NH3,4,8,6
India,Andhra_Pradesh,Tirupati,"Tirumala, Tirupati - APPCB",03-02-2024 22:00:00,13.67,79.35,NO2,30,44,36
India,Andhra_Pradesh,Tirupati,"Vaikuntapuram, Tirupati - APPCB",03-02-2024 22:00:00,13.615387,79.409230,NH3,2,4,3
India,Andhra_Pradesh,Vijayawada,"HB Colony, Vijayawada - APPCB",03-02-2024 22:00:00,16.536107,80.594233,SO2,4,6,4
India,Andhra_Pradesh,Vijayawada,"Kanuru, Vijayawada - APPCB",03-02-2024 22:00:00,16.486692,80.699436,PM2.5,57,72,62
India,Assam,Byrnihat,"Central Academy for SFS, Byrnihat - PCBA",03-02-2024 22:00:00,26.071318,91.87488,OZONE,11,15,13
India,Assam,Guwahati,"IITG, Guwahati - PCBA",03-02-2024 22:00:00,26.2028636,91.70046436,SO2,11,13,12
India,Assam,Guwahati,"IITG, Guwahati - PCBA",03-02-2024 22:00:00,26.2028636,91.70046436,CO,10,19,14
India,Assam,Guwahati,"LGBI Airport, Guwahati - PCBA",03-02-2024 22:00:00,26.10887,91.589544,PM2.5,43,335,131
India,Assam,Guwahati,"Pan Bazaar, Guwahati - PCBA",03-02-2024 22:00:00,26.187500,91.744194,PM10,52,173,116
India,Assam,Guwahati,"Railway Colony, Guwahati - PCBA",03-02-2024 22:00:00,26.181742,91.78063,PM2.5,17,332,152
India,Assam,Guwahati,"Railway Colony, Guwahati - PCBA",03-02-2024 22:00:00,26.181742,91.78063,NO2,3,3,3
India,Assam,Guwahati,"Railway Colony, Guwahati - PCBA",03-02-2024 22:00:00,26.181742,91.78063,SO2,18,23,21
India,Assam,Nagaon,"Christianpatty, Nagaon - PCBA",03-02-2024 22:00:00,26.349082,92.68449,PM2.5,NA,NA,NA
India,Assam,Nagaon,"Christianpatty, Nagaon - PCBA",03-02-2024 22:00:00,26.349082,92.68449,NO2,NA,NA,NA
India,Assam,Nagaon,"Christianpatty, Nagaon - PCBA",03-02-2024 22:00:00,26.349082,92.68449,SO2,NA,NA,NA
India,Assam,Nalbari,"Bata Chowk, Nalbari - PCBA",03-02-2024 22:00:00,26.446912,91.439057,PM10,41,278,91
India,Assam,Nalbari,"Bata Chowk, Nalbari - PCBA",03-02-2024 22:00:00,26.446912,91.439057,NH3,1,2,1
India,Assam,Nalbari,"Bata Chowk, Nalbari - PCBA",03-02-2024 22:00:00,26.446912,91.439057,SO2,4,10,7
India,Assam,Nalbari,"Bata Chowk, Nalbari - PCBA",03-02-2024 22:00:00,26.446912,91.439057,CO,2,105,42
India,Assam,Silchar,"Tarapur, Silchar - PCBA",03-02-2024 22:00:00,24.82827,92.79525,PM2.5,28,39,33
India,Assam,Silchar,"Tarapur, Silchar - PCBA",03-02-2024 22:00:00,24.82827,92.79525,PM10,50,54,50
India,Assam,Sivasagar,"Girls College, Sivasagar - PCBA",03-02-2024 22:00:00,26.987634,94.636574,PM10,25,95,43
India,Assam,Sivasagar,"Girls College, Sivasagar - PCBA",03-02-2024 22:00:00,26.987634,94.636574,NH3,2,2,2
India,Bihar,Araria,"Kharahiya Basti, Araria - BSPCB",03-02-2024 22:00:00,26.146529,87.454184,NH3,6,8,7
India,Bihar,Araria,"Kharahiya Basti, Araria - BSPCB",03-02-2024 22:00:00,26.146529,87.454184,CO,15,31,27
India,Bihar,Araria,"Kharahiya Basti, Araria - BSPCB",03-02-2024 22:00:00,26.146529,87.454184,OZONE,6,11,9
India,Bihar,Aurangabad,"Gurdeo Nagar, Aurangabad - BSPCB",03-02-2024 22:00:00,24.75746,84.366208,NH3,1,8,4
India,Bihar,Aurangabad,"Gurdeo Nagar, Aurangabad - BSPCB",03-02-2024 22:00:00,24.75746,84.366208,CO,2,70,42
India,Bihar,Aurangabad,"Gurdeo Nagar, Aurangabad - BSPCB",03-02-2024 22:00:00,24.75746,84.366208,OZONE,11,74,48
India,Bihar,Bettiah,"Kamalnath Nagar, Bettiah - BSPCB",03-02-2024 22:00:00,26.80365,84.51954,SO2,8,26,17
India,Bihar,Bhagalpur,"DM Office_Kachari Chowk, Bhagalpur - BSPCB",03-02-2024 22:00:00,25.251013,86.989001,NH3,3,6,5
India,Bihar,Bhagalpur,"Mayaganj, Bhagalpur - BSPCB",03-02-2024 22:00:00,25.265194,87.012947,PM10,57,176,107
India,Bihar,Bhagalpur,"Mayaganj, Bhagalpur - BSPCB",03-02-2024 22:00:00,25.265194,87.012947,SO2,3,13,11
India,Bihar,Bhagalpur,"Mayaganj, Bhagalpur - BSPCB",03-02-2024 22:00:00,25.265194,87.012947,CO,8,10,9
India,Bihar,Bihar Sharif,"D M Colony, Bihar Sharif - BSPCB",03-02-2024 22:00:00,25.204762,85.514960,CO,4,67,28
India,Bihar,Buxar,"Charitra Van, Buxar - BSPCB (Formerly known as Central Jail)",03-02-2024 22:00:00,25.567520,83.966379,PM10,165,419,294
India,Bihar,Buxar,"Charitra Van, Buxar - BSPCB (Formerly known as Central Jail)",03-02-2024 22:00:00,25.567520,83.966379,NH3,1,3,2
India,Bihar,Buxar,"Charitra Van, Buxar - BSPCB (Formerly known as Central Jail)",03-02-2024 22:00:00,25.567520,83.966379,CO,10,68,46
India,Bihar,Chhapra,"Darshan Nagar, Chhapra - BSPCB",03-02-2024 22:00:00,25.7808257,84.7446768,PM10,NA,NA,NA
India,Bihar,Chhapra,"Darshan Nagar, Chhapra - BSPCB",03-02-2024 22:00:00,25.7808257,84.7446768,NO2,16,30,23
India,Bihar,Gaya,"Kareemganj, Gaya - BSPCB",03-02-2024 22:00:00,24.792403,84.992416,PM10,79,179,121
India,Bihar,Gaya,"SFTI Kusdihra, Gaya - BSPCB",03-02-2024 22:00:00,24.762518,84.982348,PM2.5,13,120,81
India,Bihar,Hajipur,"Industrial Area, Hajipur - BSPCB",03-02-2024 22:00:00,25.697189,85.245900,NO2,40,66,48
India,Bihar,Katihar,"Mirchaibari, Katihar - BSPCB",03-02-2024 22:00:00,25.560083,87.553265,PM10,76,204,134
India,Bihar,Manguraha,"Forest Rest House, Manguraha - BSPCB",03-02-2024 22:00:00,27.308328,84.531742,SO2,1,9,5
India,Bihar,Motihari,"Gandak Colony, Motihari - BSPCB",03-02-2024 22:00:00,26.63086,84.90051,NH3,7,11,8
India,Bihar,Motihari,"Gandak Colony, Motihari - BSPCB",03-02-2024 22:00:00,26.63086,84.90051,CO,7,112,70
India,Bihar,Munger,"Town Hall, Munger - BSPCB",03-02-2024 22:00:00,25.376776,86.471523,NO2,8,9,9
India,Bihar,Munger,"Town Hall, Munger - BSPCB",03-02-2024 22:00:00,25.376776,86.471523,OZONE,11,70,34
India,Bihar,Muzaffarpur,"Buddha Colony, Muzaffarpur - BSPCB",03-02-2024 22:00:00,26.11442,85.39813,PM2.5,NA,NA,NA
India,Bihar,Muzaffarpur,"Buddha Colony, Muzaffarpur - BSPCB",03-02-2024 22:00:00,26.11442,85.39813,PM10,NA,NA,NA
India,Bihar,Muzaffarpur,"Muzaffarpur Collectorate, Muzaffarpur - BSPCB",03-02-2024 22:00:00,26.1209,85.3647,NO2,1,11,7
India,Bihar,Patna,"DRM Office Danapur, Patna - BSPCB",03-02-2024 22:00:00,25.586562,85.043586,OZONE,2,72,46
India,Bihar,Patna,"Govt. High School Shikarpur, Patna - BSPCB",03-02-2024 22:00:00,25.592539,85.227158,PM10,114,183,153
India,Bihar,Patna,"Govt. High School Shikarpur, Patna - BSPCB",03-02-2024 22:00:00,25.592539,85.227158,CO,50,101,57
India,Bihar,Patna,"IGSC Planetarium Complex, Patna - BSPCB",03-02-2024 22:00:00,25.610369,85.132568,NO2,14,15,15
India,Bihar,Patna,"IGSC Planetarium Complex, Patna - BSPCB",03-02-2024 22:00:00,25.610369,85.132568,CO,10,15,11
India,Bihar,Patna,"IGSC Planetarium Complex, Patna - BSPCB",03-02-2024 22:00:00,25.610369,85.132568,OZONE,4,15,11
India,Bihar,Patna,"Muradpur, Patna - BSPCB",03-02-2024 22:00:00,25.619651,85.147382,NO2,9,20,12
India,Bihar,Patna,"Rajbansi Nagar, Patna - BSPCB",03-02-2024 22:00:00,25.599486,85.113666,SO2,NA,NA,NA
India,Bihar,Patna,"Samanpura, Patna - BSPCB",03-02-2024 22:00:00,25.596727,85.085624,PM2.5,78,459,244
India,Bihar,Patna,"Samanpura, Patna - BSPCB",03-02-2024 22:00:00,25.596727,85.085624,NO2,30,63,40
India,Bihar,Patna,"Samanpura, Patna - BSPCB",03-02-2024 22:00:00,25.596727,85.085624,OZONE,7,42,17
India,Bihar,Rajgir,"Dangi Tola, Rajgir - BSPCB",03-02-2024 22:00:00,25.03280,85.41948,CO,10,11,10
India,Bihar,Saharsa,"Police Line, Saharsa - BSPCB",03-02-2024 22:00:00,25.892357,86.590325,PM2.5,67,331,188
India,Bihar,Samastipur,"DM Office_Kasipur, Samastipur - BSPCB",03-02-2024 22:00:00,25.859655,85.77944,CO,6,30,14
India,Bihar,Siwan,"Chitragupta Nagar, Siwan - BSPCB",03-02-2024 22:00:00,26.2271665,84.3570427,PM2.5,35,82,61
India,Chandigarh,Chandigarh,"Sector 22, Chandigarh - CPCC",03-02-2024 22:00:00,30.735567,76.775714,NH3,3,6,4
India,Chandigarh,Chandigarh,"Sector-25, Chandigarh - CPCC",03-02-2024 22:00:00,30.751462,76.762879,SO2,6,16,9
India,Chhattisgarh,Bhilai,"32Bungalows, Bhilai - CECB",03-02-2024 22:00:00,21.194815,81.314770,PM2.5,25,56,43
India,Chhattisgarh,Bhilai,"32Bungalows, Bhilai - CECB",03-02-2024 22:00:00,21.194815,81.314770,NO2,18,29,22
India,Chhattisgarh,Bhilai,"32Bungalows, Bhilai - CECB",03-02-2024 22:00:00,21.194815,81.314770,CO,22,46,28
India,Chhattisgarh,Bhilai,"32Bungalows, Bhilai - CECB",03-02-2024 22:00:00,21.194815,81.314770,OZONE,4,7,5
India,Chhattisgarh,Bhilai,"Civic Center, Bhilai - Bhilai Steel Plant",03-02-2024 22:00:00,21.185571,81.343175,NO2,NA,NA,NA
India,Chhattisgarh,Bhilai,"Civic Center, Bhilai - Bhilai Steel Plant",03-02-2024 22:00:00,21.185571,81.343175,CO,26,56,48
India,Chhattisgarh,Bhilai,"Hathkhoj, Bhilai - CECB",03-02-2024 22:00:00,21.224231,81.408350,NO2,23,65,32
India,Chhattisgarh,Bhilai,"Hathkhoj, Bhilai - CECB",03-02-2024 22:00:00,21.224231,81.408350,SO2,14,104,31
India,Chhattisgarh,Bilaspur,"Mangala, Bilaspur - NTPC",03-02-2024 22:00:00,22.08815,82.13737,PM2.5,19,89,49
India,Chhattisgarh,Bilaspur,"Mangala, Bilaspur - NTPC",03-02-2024 22:00:00,22.08815,82.13737,CO,26,36,34
India,Chhattisgarh,Chhal,"Nawapara SECL Colony, Chhal - CECB",03-02-2024 22:00:00,22.118125,83.140608,PM10,44,107,71
India,Chhattisgarh,Kunjemura,"OP Jindal School, Kunjemura - CECB",03-02-2024 22:00:00,22.126650,83.483212,PM10,61,500,163
India,Chhattisgarh,Milupara,"Govt. Higher Secondary School, Milupara - CECB",03-02-2024 22:00:00,22.1910172,83.5197009,PM2.5,25,62,39
India,Chhattisgarh,Milupara,"Govt. Higher Secondary School, Milupara - CECB",03-02-2024 22:00:00,22.1910172,83.5197009,CO,16,62,31
India,Chhattisgarh,Raipur,"Krishak Nagar, Raipur - CECB",03-02-2024 22:00:00,21.237755,81.705301,PM2.5,35,60,49
India,Chhattisgarh,Raipur,"Krishak Nagar, Raipur - CECB",03-02-2024 22:00:00,21.237755,81.705301,NO2,25,38,31
India,Chhattisgarh,Raipur,"Krishak Nagar, Raipur - CECB",03-02-2024 22:00:00,21.237755,81.705301,NH3,1,1,1
India,Chhattisgarh,Raipur,"Siltara Phase-II, Raipur - CECB",03-02-2024 22:00:00,21.371751,81.664929,PM2.5,28,65,40
India,Chhattisgarh,Raipur,"Siltara Phase-II, Raipur - CECB",03-02-2024 22:00:00,21.371751,81.664929,PM10,47,166,96
India,Chhattisgarh,Raipur,"Siltara Phase-II, Raipur - CECB",03-02-2024 22:00:00,21.371751,81.664929,CO,24,64,32
India,Delhi,Delhi,"Alipur, Delhi - DPCC",03-02-2024 22:00:00,28.815329,77.153010,PM10,69,334,134
India,Delhi,Delhi,"Anand Vihar, Delhi - DPCC",03-02-2024 22:00:00,28.647622,77.3158090,PM2.5,99,375,231
India,Delhi,Delhi,"Anand Vihar, Delhi - DPCC",03-02-2024 22:00:00,28.647622,77.3158090,CO,77,148,117
India,Delhi,Delhi,"Ashok Vihar, Delhi - DPCC",03-02-2024 22:00:00,28.695381,77.181665,NH3,7,10,8
India,Delhi,Delhi,"Ashok Vihar, Delhi - DPCC",03-02-2024 22:00:00,28.695381,77.181665,SO2,22,50,28
India,Delhi,Delhi,"Ashok Vihar, Delhi - DPCC",03-02-2024 22:00:00,28.695381,77.181665,OZONE,4,11,7
India,Delhi,Delhi,"Aya Nagar, Delhi - IMD",03-02-2024 22:00:00,28.4706914,77.1099364,PM10,NA,NA,NA
India,Delhi,Delhi,"Bawana, Delhi - DPCC",03-02-2024 22:00:00,28.776200,77.051074,CO,39,104,67
India,Delhi,Delhi,"Burari Crossing, Delhi - IMD",03-02-2024 22:00:00,28.7256504,77.2011573,OZONE,20,45,42
India,Delhi,Delhi,"CRRI Mathura Road, Delhi - IMD",03-02-2024 22:00:00,28.5512005,77.2735737,CO,84,106,93
India,Delhi,Delhi,"Dr. Karni Singh Shooting Range, Delhi - DPCC",03-02-2024 22:00:00,28.498571,77.264840,PM10,103,422,166
India,Delhi,Delhi,"IGI Airport (T3), Delhi - IMD",03-02-2024 22:00:00,28.5627763,77.1180053,NO2,41,75,53
India,Delhi,Delhi,"ITO, Delhi - CPCB",03-02-2024 22:00:00,28.628624,77.241060,NH3,3,8,5
India,Delhi,Delhi,"ITO, Delhi - CPCB",03-02-2024 22:00:00,28.628624,77.241060,SO2,12,41,22
India,Delhi,Delhi,"Jahangirpuri, Delhi - DPCC",03-02-2024 22:00:00,28.732820,77.170633,PM2.5,124,500,285
India,Delhi,Delhi,"Jahangirpuri, Delhi - DPCC",03-02-2024 22:00:00,28.732820,77.170633,OZONE,4,92,37
India,Delhi,Delhi,"Jawaharlal Nehru Stadium, Delhi - DPCC",03-02-2024 22:00:00,28.580280,77.233829,SO2,1,29,10
India,Delhi,Delhi,"Major Dhyan Chand National Stadium, Delhi - DPCC",03-02-2024 22:00:00,28.611281,77.237738,OZONE,1,92,35
India,Delhi,Delhi,"Najafgarh, Delhi - DPCC",03-02-2024 22:00:00,28.570173,76.933762,PM2.5,37,197,92
India,Delhi,Delhi,"Narela, Delhi - DPCC",03-02-2024 22:00:00,28.822836,77.101981,CO,NA,NA,NA
India,Delhi,Delhi,"Nehru Nagar, Delhi - DPCC",03-02-2024 22:00:00,28.567890,77.250515,CO,20,126,92
India,Delhi,Delhi,"North Campus, DU, Delhi - IMD",03-02-2024 22:00:00,28.6573814,77.1585447,CO,25,43,30
India,Delhi,Delhi,"Okhla Phase-2, Delhi - DPCC",03-02-2024 22:00:00,28.530785,77.271255,NH3,8,16,11
India,Delhi,Delhi,"Patparganj, Delhi - DPCC",03-02-2024 22:00:00,28.623763,77.287209,PM10,112,420,184
India,Delhi,Delhi,"Patparganj, Delhi - DPCC",03-02-2024 22:00:00,28.623763,77.287209,NO2,32,87,59
India,Delhi,Delhi,"Patparganj, Delhi - DPCC",03-02-2024 22:00:00,28.623763,77.287209,NH3,6,14,11
India,Delhi,Delhi,"Patparganj, Delhi - DPCC",03-02-2024 22:00:00,28.623763,77.287209,SO2,9,13,11
India,Delhi,Delhi,"Punjabi Bagh, Delhi - DPCC",03-02-2024 22:00:00,28.674045,77.131023,PM2.5,149,404,256
India,Delhi,Delhi,"Punjabi Bagh, Delhi - DPCC",03-02-2024 22:00:00,28.674045,77.131023,NO2,38,66,52
India,Delhi,Delhi,"Pusa, Delhi - DPCC",03-02-2024 22:00:00,28.639652,77.146275,PM10,165,486,307
India,Delhi,Delhi,"R K Puram, Delhi - DPCC",03-02-2024 22:00:00,28.563262,77.186937,OZONE,7,58,29
India,Delhi,Delhi,"Shadipur, Delhi - CPCB",03-02-2024 22:00:00,28.6514781,77.1473105,CO,22,94,61
India,Delhi,Delhi,"Sonia Vihar, Delhi - DPCC",03-02-2024 22:00:00,28.710508,77.249485,NO2,36,105,71
India,Delhi,Delhi,"Sonia Vihar, Delhi - DPCC",03-02-2024 22:00:00,28.710508,77.249485,SO2,5,38,14
India,Delhi,Delhi,"Sri Aurobindo Marg, Delhi - DPCC",03-02-2024 22:00:00,28.531346,77.190156,NO2,37,65,47
India,Delhi,Delhi,"Vivek Vihar, Delhi - DPCC",03-02-2024 22:00:00,28.672342,77.315260,CO,18,153,153
India,Delhi,Delhi,"Wazirpur, Delhi - DPCC",03-02-2024 22:00:00,28.699793,77.165453,PM10,113,472,269
India,Gujarat,Ahmedabad,"Chandkheda, Ahmedabad - IITM",03-02-2024 22:00:00,23.107969,72.574648,NO2,26,38,31
India,Gujarat,Ahmedabad,"Chandkheda, Ahmedabad - IITM",03-02-2024 22:00:00,23.107969,72.574648,NH3,4,6,5
India,Gujarat,Ahmedabad,"Chandkheda, Ahmedabad - IITM",03-02-2024 22:00:00,23.107969,72.574648,CO,10,118,54
India,Gujarat,Ahmedabad,"Gyaspur, Ahmedabad - IITM",03-02-2024 22:00:00,22.977134,72.553024,NO2,16,22,18
India,Gujarat,Ahmedabad,"Gyaspur, Ahmedabad - IITM",03-02-2024 22:00:00,22.977134,72.553024,SO2,16,29,20
India,Gujarat,Ahmedabad,"Rakhial, Ahmedabad - IITM",03-02-2024 22:00:00,23.016834,72.625775,NO2,8,140,43
India,Gujarat,Ahmedabad,"Rakhial, Ahmedabad - IITM",03-02-2024 22:00:00,23.016834,72.625775,OZONE,1,47,26
India,Gujarat,Ahmedabad,"SAC ISRO Bopal, Ahmedabad - IITM",03-02-2024 22:00:00,23.041137,72.456691,SO2,13,18,15
India,Gujarat,Ahmedabad,"SAC ISRO Satellite, Ahmedabad - IITM",03-02-2024 22:00:00,23.023389,72.515201,SO2,12,21,14
India,Gujarat,Ahmedabad,"Sardar Vallabhbhai Patel Stadium, Ahmedabad - IITM",03-02-2024 22:00:00,23.043070,72.562968,CO,22,129,62
India,Gujarat,Ankleshwar,"GIDC, Ankleshwar - GPCB",03-02-2024 22:00:00,21.613267,73.010555,NH3,6,6,6
India,Gujarat,Gandhinagar,"GIFT City, Gandhinagar - IITM",03-02-2024 22:00:00,23.163798,72.677768,PM10,54,162,100
India,Gujarat,Gandhinagar,"IIPHG Lekawada, Gandhinagar - IITM",03-02-2024 22:00:00,23.243639,72.68994,PM10,56,124,90
India,Gujarat,Gandhinagar,"Sector-10, Gandhinagar - GPCB",03-02-2024 22:00:00,23.221714,72.654328,PM2.5,22,74,41
India,Gujarat,Surat,"Science Center, Surat - SMC",03-02-2024 22:00:00,21.170046,72.795405,PM10,22,131,55
India,Gujarat,Vapi,"Phase-1 GIDC, Vapi - GPCB",03-02-2024 22:00:00,20.362421,72.918013,PM2.5,48,386,215
India,Gujarat,Vatva,"Phase-4 GIDC, Vatva - GPCB",03-02-2024 22:00:00,22.969611,72.643500,PM2.5,55,309,139
India,Gujarat,Vatva,"Phase-4 GIDC, Vatva - GPCB",03-02-2024 22:00:00,22.969611,72.643500,PM10,62,187,111
India,Gujarat,Vatva,"Phase-4 GIDC, Vatva - GPCB",03-02-2024 22:00:00,22.969611,72.643500,CO,38,40,40
India,Haryana,Ambala,"Patti Mehar, Ambala - HSPCB",03-02-2024 22:00:00,30.379589,76.778328,OZONE,30,46,39
India,Haryana,Bahadurgarh,"Arya Nagar, Bahadurgarh - HSPCB",03-02-2024 22:00:00,28.6701,76.9254,PM10,42,194,81
India,Haryana,Ballabgarh,"Nathu Colony, Ballabgarh - HSPCB",03-02-2024 22:00:00,28.3419248,77.319699,CO,2,161,161
India,Haryana,Bhiwani,"H.B. Colony, Bhiwani - HSPCB",03-02-2024 22:00:00,28.806223,76.141105,SO2,6,14,10
India,Haryana,Charkhi Dadri,"Mini Secretariat, Charkhi Dadri - HSPCB",03-02-2024 22:00:00,28.593883,76.270653,PM2.5,33,229,115
India,Haryana,Faridabad,"New Industrial Town, Faridabad - HSPCB",03-02-2024 22:00:00,28.39072,77.30059,PM2.5,93,471,232
India,Haryana,Faridabad,"New Industrial Town, Faridabad - HSPCB",03-02-2024 22:00:00,28.39072,77.30059,CO,14,63,30
India,Haryana,Faridabad,"Sector 30, Faridabad - HSPCB",03-02-2024 22:00:00,28.4417,77.3217,OZONE,8,22,13
India,Haryana,Faridabad,"Sector- 16A, Faridabad - HSPCB",03-02-2024 22:00:00,28.4088421,77.3099081,NO2,7,84,36
India,Haryana,Fatehabad,"Huda Sector, Fatehabad - HSPCB",03-02-2024 22:00:00,29.503664,75.467934,NO2,29,32,30
India,Haryana,Fatehabad,"Huda Sector, Fatehabad - HSPCB",03-02-2024 22:00:00,29.503664,75.467934,CO,5,16,7
India,Haryana,Gurugram,"NISE Gwal Pahari, Gurugram - IMD",03-02-2024 22:00:00,28.422681,77.148944,PM10,2,143,97
India,Haryana,Gurugram,"NISE Gwal Pahari, Gurugram - IMD",03-02-2024 22:00:00,28.422681,77.148944,CO,42,80,60
India,Haryana,Gurugram,"NISE Gwal Pahari, Gurugram - IMD",03-02-2024 22:00:00,28.422681,77.148944,OZONE,1,49,25
India,Haryana,Gurugram,"Sector-51, Gurugram - HSPCB",03-02-2024 22:00:00,28.4227,77.0667,PM2.5,68,440,176
India,Haryana,Gurugram,"Sector-51, Gurugram - HSPCB",03-02-2024 22:00:00,28.4227,77.0667,SO2,3,6,3
India,Haryana,Gurugram,"Teri Gram, Gurugram - HSPCB",03-02-2024 22:00:00,28.4275,77.1465,NO2,25,47,36
India,Haryana,Gurugram,"Teri Gram, Gurugram - HSPCB",03-02-2024 22:00:00,28.4275,77.1465,OZONE,10,24,10
India,Haryana,Gurugram,"Vikas Sadan, Gurugram - HSPCB",03-02-2024 22:00:00,28.4501238,77.0263051,PM2.5,96,296,157
India,Haryana,Gurugram,"Vikas Sadan, Gurugram - HSPCB",03-02-2024 22:00:00,28.4501238,77.0263051,OZONE,8,68,40
India,Haryana,Hisar,"Urban Estate-II, Hisar - HSPCB",03-02-2024 22:00:00,29.140560,75.744941,OZONE,24,84,54
India,Haryana,Jind,"Police Lines, Jind - HSPCB",03-02-2024 22:00:00,29.307814,76.337619,OZONE,1,15,9
India,Haryana,Kaithal,"Rishi Nagar, Kaithal - HSPCB",03-02-2024 22:00:00,29.8006,76.4155,SO2,14,104,26
India,Haryana,Karnal,"Sector-12, Karnal - HSPCB",03-02-2024 22:00:00,29.695300,77.002700,PM10,39,105,58
India,Haryana,Karnal,"Sector-12, Karnal - HSPCB",03-02-2024 22:00:00,29.695300,77.002700,NH3,10,13,11
India,Haryana,Karnal,"Sector-12, Karnal - HSPCB",03-02-2024 22:00:00,29.695300,77.002700,OZONE,31,33,31
India,Haryana,Kurukshetra,"Sector-7, Kurukshetra - HSPCB",03-02-2024 22:00:00,29.966942,76.875879,PM2.5,56,234,81
India,Haryana,Kurukshetra,"Sector-7, Kurukshetra - HSPCB",03-02-2024 22:00:00,29.966942,76.875879,PM10,50,202,75
India,Haryana,Kurukshetra,"Sector-7, Kurukshetra - HSPCB",03-02-2024 22:00:00,29.966942,76.875879,CO,15,100,42
India,Haryana,Mandikhera,"General Hospital, Mandikhera - HSPCB",03-02-2024 22:00:00,27.9002,76.9938,OZONE,24,32,27
India,Haryana,Manesar,"Sector-2 IMT, Manesar - HSPCB",03-02-2024 22:00:00,28.360699,76.936090,PM2.5,72,345,141
India,Haryana,Manesar,"Sector-2 IMT, Manesar - HSPCB",03-02-2024 22:00:00,28.360699,76.936090,NO2,14,25,18
India,Haryana,Manesar,"Sector-2 IMT, Manesar - HSPCB",03-02-2024 22:00:00,28.360699,76.936090,NH3,1,10,5
India,Haryana,Manesar,"Sector-2 IMT, Manesar - HSPCB",03-02-2024 22:00:00,28.360699,76.936090,SO2,1,49,32
India,Haryana,Narnaul,"Shastri Nagar, Narnaul - HSPCB",03-02-2024 22:00:00,28.060249,76.113115,NO2,16,58,35
India,Haryana,Narnaul,"Shastri Nagar, Narnaul - HSPCB",03-02-2024 22:00:00,28.060249,76.113115,NH3,5,18,11
India,Haryana,Narnaul,"Shastri Nagar, Narnaul - HSPCB",03-02-2024 22:00:00,28.060249,76.113115,CO,4,22,6
India,Haryana,Palwal,"Shyam Nagar, Palwal - HSPCB",03-02-2024 22:00:00,28.1485564,77.3320667,NO2,5,6,5
India,Haryana,Palwal,"Shyam Nagar, Palwal - HSPCB",03-02-2024 22:00:00,28.1485564,77.3320667,CO,8,14,10
India,Haryana,Palwal,"Shyam Nagar, Palwal - HSPCB",03-02-2024 22:00:00,28.1485564,77.3320667,OZONE,1,30,15
India,Haryana,Panipat,"Sector-18, Panipat - HSPCB",03-02-2024 22:00:00,29.497973,76.993331,NO2,28,33,30
India,Haryana,Panipat,"Sector-18, Panipat - HSPCB",03-02-2024 22:00:00,29.497973,76.993331,NH3,2,3,2
India,Haryana,Panipat,"Sector-18, Panipat - HSPCB",03-02-2024 22:00:00,29.497973,76.993331,SO2,12,13,12
India,Haryana,Sirsa,"F-Block, Sirsa - HSPCB",03-02-2024 22:00:00,29.536400,75.015800,CO,6,82,66
India,Haryana,Sonipat,"Murthal, Sonipat - HSPCB",03-02-2024 22:00:00,29.027200,77.062100,PM10,48,109,79
India,Haryana,Sonipat,"Murthal, Sonipat - HSPCB",03-02-2024 22:00:00,29.027200,77.062100,NH3,5,10,9
India,Haryana,Sonipat,"Murthal, Sonipat - HSPCB",03-02-2024 22:00:00,29.027200,77.062100,SO2,13,29,20
India,Haryana,Sonipat,"Murthal, Sonipat - HSPCB",03-02-2024 22:00:00,29.027200,77.062100,OZONE,16,36,29
India,Haryana,Yamuna Nagar,"Gobind Pura, Yamuna Nagar - HSPCB",03-02-2024 22:00:00,30.1480566,77.2893471,OZONE,5,19,10
India,Himachal Pradesh,Baddi,"HIMUDA Complex Phase-1, Baddi - HPPCB",03-02-2024 22:00:00,30.943887,76.801991,SO2,NA,NA,NA
India,Himachal Pradesh,Baddi,"HIMUDA Complex Phase-1, Baddi - HPPCB",03-02-2024 22:00:00,30.943887,76.801991,CO,16,30,19
India,Jammu_and_Kashmir,Srinagar,"Rajbagh, Srinagar - JKSPCB",03-02-2024 22:00:00,34.066206,74.819820,PM2.5,NA,NA,NA
India,Jharkhand,Dhanbad,"Kalakusuma, Dhanbad - DMC",03-02-2024 22:00:00,23.811548,86.481238,NO2,NA,NA,NA
India,Jharkhand,Dhanbad,"Kalakusuma, Dhanbad - DMC",03-02-2024 22:00:00,23.811548,86.481238,CO,1,76,2
India,Jharkhand,Dhanbad,"Kalakusuma, Dhanbad - DMC",03-02-2024 22:00:00,23.811548,86.481238,OZONE,27,65,35
India,Jharkhand,Dhanbad,"Sardar Patel Nagar, Dhanbad - JSPCB",03-02-2024 22:00:00,23.80569,86.44268,NO2,NA,NA,NA
India,Jharkhand,Dhanbad,"Sardar Patel Nagar, Dhanbad - JSPCB",03-02-2024 22:00:00,23.80569,86.44268,OZONE,14,16,15
India,Jharkhand,Pathardih,"Mohalbani Ghat, Pathardih - DMC",03-02-2024 22:00:00,23.669880,86.411725,PM2.5,NA,NA,NA
India,Karnataka,Bengaluru,"BTM Layout, Bengaluru - CPCB",03-02-2024 22:00:00,12.9135218,77.5950804,SO2,7,13,10
India,Karnataka,Bengaluru,"Bapuji Nagar, Bengaluru - KSPCB",03-02-2024 22:00:00,12.951913,77.539784,OZONE,11,12,11
India,Karnataka,Bengaluru,"City Railway Station, Bengaluru - KSPCB",03-02-2024 22:00:00,12.9756843,77.5660749,CO,51,112,75
India,Karnataka,Bengaluru,"Hebbal, Bengaluru - KSPCB",03-02-2024 22:00:00,13.029152,77.585901,PM2.5,NA,NA,NA
India,Karnataka,Bengaluru,"Hebbal, Bengaluru - KSPCB",03-02-2024 22:00:00,13.029152,77.585901,OZONE,7,47,14
India,Karnataka,Bengaluru,"Hombegowda Nagar, Bengaluru - KSPCB",03-02-2024 22:00:00,12.938539,77.590100,OZONE,4,5,4
India,Karnataka,Bengaluru,"Peenya, Bengaluru - CPCB",03-02-2024 22:00:00,13.0270199,77.494094,CO,30,56,49
India,Karnataka,Bengaluru,"RVCE-Mailasandra, Bengaluru - KSPCB",03-02-2024 22:00:00,12.921418,77.502466,PM2.5,65,117,78
India,Karnataka,Bengaluru,"RVCE-Mailasandra, Bengaluru - KSPCB",03-02-2024 22:00:00,12.921418,77.502466,NH3,4,4,4
India,Karnataka,Bengaluru,"Sanegurava Halli, Bengaluru - KSPCB",03-02-2024 22:00:00,12.990328,77.5431385,CO,3,35,16
India,Karnataka,Bengaluru,"Shivapura_Peenya, Bengaluru - KSPCB",03-02-2024 22:00:00,13.0246342,77.5080115,PM10,42,160,84
India,Karnataka,Bidar,"Naubad, Bidar - KSPCB",03-02-2024 22:00:00,17.930306,77.482194,SO2,15,18,16
India,Karnataka,Chamarajanagar,"Urban, Chamarajanagar - KSPCB",03-02-2024 22:00:00,11.55358,76.55521,NO2,23,29,29
India,Karnataka,Chamarajanagar,"Urban, Chamarajanagar - KSPCB",03-02-2024 22:00:00,11.55358,76.55521,NH3,2,2,2
India,Karnataka,Chamarajanagar,"Urban, Chamarajanagar - KSPCB",03-02-2024 22:00:00,11.55358,76.55521,CO,19,38,25
India,Karnataka,Chikkaballapur,"Chikkaballapur Rural, Chikkaballapur - KSPCB",03-02-2024 22:00:00,13.428828,77.731418,PM2.5,48,87,64
India,Karnataka,Chikkaballapur,"Chikkaballapur Rural, Chikkaballapur - KSPCB",03-02-2024 22:00:00,13.428828,77.731418,PM10,40,105,68
India,Karnataka,Chikkaballapur,"Chikkaballapur Rural, Chikkaballapur - KSPCB",03-02-2024 22:00:00,13.428828,77.731418,OZONE,24,25,24
India,Karnataka,Chikkamagaluru,"Kalyana Nagara, Chikkamagaluru - KSPCB",03-02-2024 22:00:00,13.328028,75.797056,PM10,24,64,45
India,Karnataka,Chikkamagaluru,"Kalyana Nagara, Chikkamagaluru - KSPCB",03-02-2024 22:00:00,13.328028,75.797056,OZONE,16,77,68
India,Karnataka,Davanagere,"Devaraj Urs Badavane, Davanagere - KSPCB",03-02-2024 22:00:00,14.475800,75.905200,PM2.5,30,94,53
India,Karnataka,Davanagere,"Devaraj Urs Badavane, Davanagere - KSPCB",03-02-2024 22:00:00,14.475800,75.905200,SO2,3,6,5
India,Karnataka,Davanagere,"Devaraj Urs Badavane, Davanagere - KSPCB",03-02-2024 22:00:00,14.475800,75.905200,CO,17,20,18
India,Karnataka,Gadag,"Panchal Nagar, Gadag - KSPCB",03-02-2024 22:00:00,15.411456,75.638133,PM2.5,21,80,48
India,Karnataka,Gadag,"Panchal Nagar, Gadag - KSPCB",03-02-2024 22:00:00,15.411456,75.638133,CO,37,70,46
India,Karnataka,Haveri,"Ashwini Nagar, Haveri - KSPCB",03-02-2024 22:00:00,14.791800,75.389600,PM2.5,NA,NA,NA
India,Karnataka,Kalaburagi,"Lal Bahadur Shastri Nagar, Kalaburagi - KSPCB",03-02-2024 22:00:00,17.321993,76.822628,CO,NA,NA,NA
India,Karnataka,Kalaburagi,"Mahatma Basaveswar Colony, Kalaburgi - KSPCB",03-02-2024 22:00:00,17.336318,76.847397,SO2,4,20,6
India,Karnataka,Karwar,"KHB Colony, Karwar - KSPCB",03-02-2024 22:00:00,14.816666,74.141003,PM2.5,38,243,69
India,Karnataka,Kolar,"Tamaka Ind. Area, Kolar - KSPCB",03-02-2024 22:00:00,13.1276288,78.1570122,NO2,3,14,6
India,Karnataka,Kolar,"Tamaka Ind. Area, Kolar - KSPCB",03-02-2024 22:00:00,13.1276288,78.1570122,SO2,9,10,9
India,Karnataka,Madikeri,"Stuart Hill, Madikeri - KSPCB",03-02-2024 22:00:00,12.415911,75.735050,NH3,NA,NA,NA
India,Karnataka,Madikeri,"Stuart Hill, Madikeri - KSPCB",03-02-2024 22:00:00,12.415911,75.735050,OZONE,25,41,34
India,Karnataka,Mangalore,"Kadri, Mangalore - KSPCB",03-02-2024 22:00:00,12.889250,74.853000,NH3,2,3,3
India,Karnataka,Mysuru,"Hebbal 1st Stage, Mysuru - KSPCB",03-02-2024 22:00:00,12.21041,76.37376,PM10,55,82,64
India,Karnataka,Mysuru,"Hebbal 1st Stage, Mysuru - KSPCB",03-02-2024 22:00:00,12.21041,76.37376,NH3,1,4,2
India,Karnataka,Mysuru,"Hebbal 1st Stage, Mysuru - KSPCB",03-02-2024 22:00:00,12.21041,76.37376,CO,10,62,28
India,Karnataka,Tumakuru,"Thimmalapura, Tumakuru - KSPCB",03-02-2024 22:00:00,13.377516,77.099072,SO2,8,14,10
India,Karnataka,Udupi,"Brahmagiri, Udupi - KSPCB",03-02-2024 22:00:00,13.34194444,74.74694444,OZONE,23,23,23
India,Karnataka,Yadgir,"Collector Office, Yadgir - KSPCB",03-02-2024 22:00:00,16.7602,77.1428,PM2.5,42,116,72
India,Karnataka,Yadgir,"Collector Office, Yadgir - KSPCB",03-02-2024 22:00:00,16.7602,77.1428,PM10,42,134,81
India,Karnataka,Yadgir,"Collector Office, Yadgir - KSPCB",03-02-2024 22:00:00,16.7602,77.1428,NH3,1,1,1
India,Kerala,Eloor,"Udyogamandal, Eloor - Kerala PCB",03-02-2024 22:00:00,10.073232,76.302765,NO2,4,4,4
India,Kerala,Eloor,"Udyogamandal, Eloor - Kerala PCB",03-02-2024 22:00:00,10.073232,76.302765,CO,8,91,63
India,Kerala,Eloor,"Udyogamandal, Eloor - Kerala PCB",03-02-2024 22:00:00,10.073232,76.302765,OZONE,10,15,13
India,Kerala,Kochi,"Vyttila, Kochi - Kerala PCB",03-02-2024 22:00:00,9.969447,76.321186,PM10,44,136,80
India,Kerala,Thiruvananthapuram,"Plammoodu, Thiruvananthapuram - Kerala PCB",03-02-2024 22:00:00,8.5149093,76.9435879,NH3,2,2,2
India,Kerala,Thiruvananthapuram,"Plammoodu, Thiruvananthapuram - Kerala PCB",03-02-2024 22:00:00,8.5149093,76.9435879,SO2,5,13,10
India,Kerala,Thrissur,"Corporation Ground, Thrissur - Kerala PCB",03-02-2024 22:00:00,10.532400,76.215900,PM10,54,77,59
India,Madhya Pradesh,Bhopal,"Idgah Hills, Bhopal - MPPCB",03-02-2024 22:00:00,23.264759,77.381568,OZONE,18,103,59
India,Madhya Pradesh,Bhopal,"Paryavaran Parisar, Bhopal - MPPCB",03-02-2024 22:00:00,23.210494,77.425409,OZONE,2,77,40
India,Madhya Pradesh,Bhopal,"T T Nagar, Bhopal - MPPCB",03-02-2024 22:00:00,23.233584,77.400574,PM2.5,48,247,155
India,Madhya Pradesh,Bhopal,"T T Nagar, Bhopal - MPPCB",03-02-2024 22:00:00,23.233584,77.400574,CO,40,109,70
India,Madhya Pradesh,Gwalior,"City Center, Gwalior - MPPCB",03-02-2024 22:00:00,26.203442,78.193251,NH3,NA,NA,NA
India,Madhya Pradesh,Gwalior,"City Center, Gwalior - MPPCB",03-02-2024 22:00:00,26.203442,78.193251,OZONE,29,90,56
India,Madhya Pradesh,Gwalior,"Deen Dayal Nagar, Gwalior - MPPCB",03-02-2024 22:00:00,26.259242,78.216432,NO2,23,111,55
India,Madhya Pradesh,Gwalior,"Maharaj Bada, Gwalior - MPPCB",03-02-2024 22:00:00,26.200388,78.147714,NO2,24,151,53
India,Madhya Pradesh,Indore,"Chhoti Gwaltoli, Indore - MPPCB",03-02-2024 22:00:00,22.4310,75.5213,PM10,64,196,112
India,Madhya Pradesh,Indore,"Regional Park, Indore - IMC",03-02-2024 22:00:00,22.6780,75.8559,PM2.5,36,162,83
India,Madhya Pradesh,Indore,"Regional Park, Indore - IMC",03-02-2024 22:00:00,22.6780,75.8559,NO2,6,11,8
India,Madhya Pradesh,Indore,"Regional Park, Indore - IMC",03-02-2024 22:00:00,22.6780,75.8559,CO,16,46,20
India,Madhya Pradesh,Indore,"Residency Area, Indore - IMC",03-02-2024 22:00:00,22.7084,75.8815,PM10,33,109,64
India,Madhya Pradesh,Indore,"Residency Area, Indore - IMC",03-02-2024 22:00:00,22.7084,75.8815,SO2,24,27,25
India,Madhya Pradesh,Jabalpur,"Govindh Bhavan Colony, Jabalpur - JMC",03-02-2024 22:00:00,23.163174,79.973061,PM2.5,28,97,68
India,Madhya Pradesh,Jabalpur,"Govindh Bhavan Colony, Jabalpur - JMC",03-02-2024 22:00:00,23.163174,79.973061,PM10,44,96,66
India,Madhya Pradesh,Jabalpur,"Gupteshwar, Jabalpur - JMC",03-02-2024 22:00:00,23.142888,79.916147,NH3,2,4,3
India,Madhya Pradesh,Jabalpur,"Gupteshwar, Jabalpur - JMC",03-02-2024 22:00:00,23.142888,79.916147,CO,16,128,67
India,Madhya Pradesh,Jabalpur,"Marhatal, Jabalpur - MPPCB",03-02-2024 22:00:00,23.168606,79.932247,SO2,14,18,15
India,Madhya Pradesh,Jabalpur,"Suhagi, Jabalpur - JMC",03-02-2024 22:00:00,23.218135,79.957770,NH3,NA,NA,NA
India,Madhya Pradesh,Jabalpur,"Suhagi, Jabalpur - JMC",03-02-2024 22:00:00,23.218135,79.957770,CO,33,109,74
India,Madhya Pradesh,Katni,"Gole Bazar, Katni - MPPCB",03-02-2024 22:00:00,23.50016,80.23284,PM10,55,196,99
India,Madhya Pradesh,Katni,"Gole Bazar, Katni - MPPCB",03-02-2024 22:00:00,23.50016,80.23284,NO2,9,109,46
India,Madhya Pradesh,Katni,"Gole Bazar, Katni - MPPCB",03-02-2024 22:00:00,23.50016,80.23284,SO2,3,67,16
India,Madhya Pradesh,Maihar,"Sahilara, Maihar - KJS Cements",03-02-2024 22:00:00,24.2613009,80.7231783,PM10,17,84,44
India,Madhya Pradesh,Mandideep,"Sector-D Industrial Area, Mandideep - MPPCB",03-02-2024 22:00:00,23.108440,77.511428,PM2.5,NA,NA,NA
India,Madhya Pradesh,Mandideep,"Sector-D Industrial Area, Mandideep - MPPCB",03-02-2024 22:00:00,23.108440,77.511428,NH3,NA,NA,NA
India,Madhya Pradesh,Pithampur,"Sector-2 Industrial Area, Pithampur - MPPCB",03-02-2024 22:00:00,22.624758,75.675238,CO,48,70,55
India,Madhya Pradesh,Ratlam,"Shasthri Nagar, Ratlam - IPCA Lab",03-02-2024 22:00:00,23.331731,75.045981,PM10,81,308,133
India,Madhya Pradesh,Sagar,"Civil Lines, Sagar - MPPCB",03-02-2024 22:00:00,23.838586,78.759431,NH3,2,10,7
India,Madhya Pradesh,Sagar,"Civil Lines, Sagar - MPPCB",03-02-2024 22:00:00,23.838586,78.759431,CO,21,48,37
India,Madhya Pradesh,Sagar,"Deen Dayal Nagar, Sagar - MPPCB",03-02-2024 22:00:00,23.8640158,78.80289321,PM2.5,20,66,44
India,Madhya Pradesh,Sagar,"Deen Dayal Nagar, Sagar - MPPCB",03-02-2024 22:00:00,23.8640158,78.80289321,NO2,23,24,24
India,Madhya Pradesh,Singrauli,"Suryakiran Bhawan NCL, Singrauli - MPPCB",03-02-2024 22:00:00,24.108970,82.645580,OZONE,29,76,57
India,Maharashtra,Ahmednagar,"Tarakpur, Ahmednagar - MPCB",03-02-2024 22:00:00,19.10122,74.73339,NH3,2,4,3
India,Maharashtra,Akola,"Ramdaspeth, Akola - MPCB",03-02-2024 22:00:00,20.719516,77.000253,CO,25,128,65
India,Maharashtra,Amravati,"Shivneri Colony, Amravati - MPCB",03-02-2024 22:00:00,20.9402359,77.7895248,PM2.5,33,80,51
India,Maharashtra,Amravati,"Shivneri Colony, Amravati - MPCB",03-02-2024 22:00:00,20.9402359,77.7895248,NO2,15,104,37
India,Maharashtra,Amravati,"Shivneri Colony, Amravati - MPCB",03-02-2024 22:00:00,20.9402359,77.7895248,NH3,2,3,3
India,Maharashtra,Aurangabad,"MIDC Chilkalthana, Aurangabad - MPCB",03-02-2024 22:00:00,19.875620,75.387310,PM2.5,66,258,107
India,Maharashtra,Aurangabad,"MIDC Chilkalthana, Aurangabad - MPCB",03-02-2024 22:00:00,19.875620,75.387310,SO2,3,17,11
India,Maharashtra,Aurangabad,"More Chowk Waluj, Aurangabad - MPCB",03-02-2024 22:00:00,19.8389439,75.244448,OZONE,5,20,12
India,Maharashtra,Badlapur,"Katrap, Badlapur - MPCB",03-02-2024 22:00:00,19.16485,73.23409,SO2,10,24,17
India,Maharashtra,Belapur,"CBD Belapur, Belapur - MPCB",03-02-2024 22:00:00,19.0243902,73.0406721,OZONE,2,196,92
India,Maharashtra,Bhiwandi,"Gokul Nagar, Bhiwandi - MPCB",03-02-2024 22:00:00,19.309073,73.057223,NO2,24,90,46
India,Maharashtra,Bhiwandi,"Gokul Nagar, Bhiwandi - MPCB",03-02-2024 22:00:00,19.309073,73.057223,OZONE,2,38,33
India,Maharashtra,Boisar,"Khaira, Boisar - MPCB",03-02-2024 22:00:00,19.786089,72.757971,PM2.5,NA,NA,NA
India,Maharashtra,Boisar,"Khaira, Boisar - MPCB",03-02-2024 22:00:00,19.786089,72.757971,PM10,NA,NA,NA
India,Maharashtra,Dhule,"Deopur, Dhule - MPCB",03-02-2024 22:00:00,20.918946,74.776388,PM2.5,66,238,145
India,Maharashtra,Jalgaon,"Prabhat Colony, Jalgaon - MPCB",03-02-2024 22:00:00,21.001264,75.565602,CO,12,26,16
India,Maharashtra,Jalgaon,"Prabhat Colony, Jalgaon - MPCB",03-02-2024 22:00:00,21.001264,75.565602,OZONE,4,86,57
India,Maharashtra,Jalna,"Old MIDC, Jalna - MPCB",03-02-2024 22:00:00,19.854616,75.905894,PM2.5,42,138,79
India,Maharashtra,Jalna,"Old MIDC, Jalna - MPCB",03-02-2024 22:00:00,19.854616,75.905894,NH3,6,8,7
India,Maharashtra,Kalyan,"Khadakpada, Kalyan - MPCB",03-02-2024 22:00:00,19.25292,73.142019,NO2,19,37,25
India,Maharashtra,Kalyan,"Khadakpada, Kalyan - MPCB",03-02-2024 22:00:00,19.25292,73.142019,SO2,16,32,22
India,Maharashtra,Kolhapur,"Sinchan Bhavan, Kolhapur - MPCB",03-02-2024 22:00:00,16.7143745,74.2426398,NH3,7,8,8
India,Maharashtra,Latur,"Sawe Wadi, Latur - MPCB",03-02-2024 22:00:00,18.39963,76.57452,PM10,67,105,87
India,Maharashtra,Mahad,"Kamble Tarf Birwadi, Mahad - MPCB",03-02-2024 22:00:00,18.1023399,73.4783687,SO2,11,14,12
India,Maharashtra,Mahad,"Kamble Tarf Birwadi, Mahad - MPCB",03-02-2024 22:00:00,18.1023399,73.4783687,OZONE,13,59,39
India,Maharashtra,Mira-Bhayandar,"Bhayandar West, Mira-Bhayandar - MPCB",03-02-2024 22:00:00,19.296481,72.840923,PM10,NA,NA,NA
India,Maharashtra,Mira-Bhayandar,"Bhayandar West, Mira-Bhayandar - MPCB",03-02-2024 22:00:00,19.296481,72.840923,OZONE,NA,NA,NA
India,Maharashtra,Mumbai,"Bandra Kurla Complex, Mumbai - MPCB",03-02-2024 22:00:00,19.065931,72.862131,PM10,115,297,172
India,Maharashtra,Mumbai,"Bandra Kurla Complex, Mumbai - MPCB",03-02-2024 22:00:00,19.065931,72.862131,CO,22,77,32
India,Maharashtra,Mumbai,"Borivali East, Mumbai - IITM",03-02-2024 22:00:00,19.23241,72.86895,PM2.5,49,149,74
India,Maharashtra,Mumbai,"Borivali East, Mumbai - IITM",03-02-2024 22:00:00,19.23241,72.86895,PM10,88,158,116
India,Maharashtra,Mumbai,"Byculla, Mumbai - BMC",03-02-2024 22:00:00,18.9767,72.8380,PM10,59,125,98
India,Maharashtra,Mumbai,"Byculla, Mumbai - BMC",03-02-2024 22:00:00,18.9767,72.8380,NO2,26,89,54
India,Maharashtra,Mumbai,"Byculla, Mumbai - BMC",03-02-2024 22:00:00,18.9767,72.8380,SO2,2,9,5
India,Maharashtra,Mumbai,"Chakala-Andheri East, Mumbai - IITM",03-02-2024 22:00:00,19.11074,72.86084,CO,62,112,91
India,Maharashtra,Mumbai,"Chembur, Mumbai - MPCB",03-02-2024 22:00:00,19.0364585,72.8954371,PM2.5,62,128,91
India,Maharashtra,Mumbai,"Chembur, Mumbai - MPCB",03-02-2024 22:00:00,19.0364585,72.8954371,PM10,107,142,119
India,Maharashtra,Mumbai,"Chhatrapati Shivaji Intl. Airport (T2), Mumbai - MPCB",03-02-2024 22:00:00,19.10078,72.87462,OZONE,1,30,15
India,Maharashtra,Mumbai,"Colaba, Mumbai - MPCB",03-02-2024 22:00:00,18.910000,72.820000,NO2,17,31,22
India,Maharashtra,Mumbai,"Colaba, Mumbai - MPCB",03-02-2024 22:00:00,18.910000,72.820000,NH3,1,1,1
India,Maharashtra,Mumbai,"Kandivali East, Mumbai - MPCB",03-02-2024 22:00:00,19.205800,72.868200,CO,100,120,104
India,Maharashtra,Mumbai,"Kandivali West, Mumbai - BMC",03-02-2024 22:00:00,19.215859,72.831718,NO2,19,95,38
India,Maharashtra,Mumbai,"Kandivali West, Mumbai - BMC",03-02-2024 22:00:00,19.215859,72.831718,OZONE,1,72,47
India,Maharashtra,Mumbai,"Kherwadi_Bandra East, Mumbai - MPCB",03-02-2024 22:00:00,19.0632143,72.8456324,PM10,108,163,141
India,Maharashtra,Mumbai,"Mazgaon, Mumbai - IITM",03-02-2024 22:00:00,18.96702,72.84214,NH3,15,28,22
India,Maharashtra,Mumbai,"Mazgaon, Mumbai - IITM",03-02-2024 22:00:00,18.96702,72.84214,SO2,6,34,15
India,Maharashtra,Mumbai,"Mindspace-Malad West, Mumbai - MPCB",03-02-2024 22:00:00,19.1878657,72.8304069,NO2,5,20,11
India,Maharashtra,Mumbai,"Mindspace-Malad West, Mumbai - MPCB",03-02-2024 22:00:00,19.1878657,72.8304069,NH3,8,9,8
India,Maharashtra,Mumbai,"Mulund West, Mumbai - MPCB",03-02-2024 22:00:00,19.1750,72.9419,NO2,23,27,24
India,Maharashtra,Mumbai,"Mulund West, Mumbai - MPCB",03-02-2024 22:00:00,19.1750,72.9419,CO,30,32,31
India,Maharashtra,Mumbai,"Navy Nagar-Colaba, Mumbai - IITM",03-02-2024 22:00:00,18.897756,72.813320,PM10,101,171,135
India,Maharashtra,Mumbai,"Navy Nagar-Colaba, Mumbai - IITM",03-02-2024 22:00:00,18.897756,72.813320,CO,9,62,29
India,Maharashtra,Mumbai,"Navy Nagar-Colaba, Mumbai - IITM",03-02-2024 22:00:00,18.897756,72.813320,OZONE,4,165,114
India,Maharashtra,Mumbai,"Powai, Mumbai - MPCB",03-02-2024 22:00:00,19.137500,72.915056,SO2,25,27,26
India,Maharashtra,Mumbai,"Powai, Mumbai - MPCB",03-02-2024 22:00:00,19.137500,72.915056,CO,30,44,42
India,Maharashtra,Mumbai,"Powai, Mumbai - MPCB",03-02-2024 22:00:00,19.137500,72.915056,OZONE,21,66,48
India,Maharashtra,Mumbai,"Sewri, Mumbai - BMC",03-02-2024 22:00:00,19.000084,72.856730,PM10,91,131,113
India,Maharashtra,Mumbai,"Sewri, Mumbai - BMC",03-02-2024 22:00:00,19.000084,72.856730,CO,10,85,32
India,Maharashtra,Mumbai,"Shivaji Nagar, Mumbai - BMC",03-02-2024 22:00:00,19.060498,72.923356,PM10,94,157,118
India,Maharashtra,Mumbai,"Shivaji Nagar, Mumbai - BMC",03-02-2024 22:00:00,19.060498,72.923356,NO2,45,136,87
India,Maharashtra,Mumbai,"Shivaji Nagar, Mumbai - BMC",03-02-2024 22:00:00,19.060498,72.923356,OZONE,2,143,90
India,Maharashtra,Mumbai,"Siddharth Nagar-Worli, Mumbai - IITM",03-02-2024 22:00:00,19.000083,72.813993,OZONE,4,172,98
India,Maharashtra,Mumbai,"Sion, Mumbai - MPCB",03-02-2024 22:00:00,19.047000,72.874600,NH3,1,1,1
India,Maharashtra,Mumbai,"Vile Parle West, Mumbai - MPCB",03-02-2024 22:00:00,19.10861,72.83622,OZONE,6,21,14
India,Maharashtra,Mumbai,"Worli, Mumbai - MPCB",03-02-2024 22:00:00,18.9936162,72.8128113,OZONE,6,11,9
India,Maharashtra,Nagpur,"Ambazari, Nagpur - MPCB",03-02-2024 22:00:00,21.121801,79.04952,NO2,17,142,49
India,Maharashtra,Nagpur,"Ambazari, Nagpur - MPCB",03-02-2024 22:00:00,21.121801,79.04952,CO,14,108,62
India,Maharashtra,Nagpur,"Mahal, Nagpur - MPCB",03-02-2024 22:00:00,21.14472,79.107595,PM2.5,67,145,85
India,Maharashtra,Nagpur,"Opp GPO Civil Lines, Nagpur - MPCB",03-02-2024 22:00:00,21.152875,79.0517531,PM10,64,183,107
India,Maharashtra,Nagpur,"Opp GPO Civil Lines, Nagpur - MPCB",03-02-2024 22:00:00,21.152875,79.0517531,NH3,2,17,4
India,Maharashtra,Nagpur,"Opp GPO Civil Lines, Nagpur - MPCB",03-02-2024 22:00:00,21.152875,79.0517531,CO,12,126,57
India,Maharashtra,Nagpur,"Ram Nagar, Nagpur - MPCB",03-02-2024 22:00:00,21.143383,79.048912,PM10,88,168,116
India,Maharashtra,Nagpur,"Ram Nagar, Nagpur - MPCB",03-02-2024 22:00:00,21.143383,79.048912,NH3,5,7,6
India,Maharashtra,Nagpur,"Ram Nagar, Nagpur - MPCB",03-02-2024 22:00:00,21.143383,79.048912,CO,17,104,48
India,Maharashtra,Nanded,"Sneh Nagar, Nanded - MPCB",03-02-2024 22:00:00,19.173852,77.296291,PM10,80,141,104
India,Maharashtra,Nashik,"Hirawadi, Nashik - MPCB",03-02-2024 22:00:00,20.021503,73.813844,CO,4,88,39
India,Maharashtra,Nashik,"Pandav Nagari, Nashik - MPCB",03-02-2024 22:00:00,19.9591346,73.7788008,CO,25,86,39
India,Maharashtra,Navi Mumbai,"Kopripada-Vashi, Navi Mumbai - MPCB",03-02-2024 22:00:00,19.090337,73.014232,NH3,5,25,10
India,Maharashtra,Navi Mumbai,"Mahape, Navi Mumbai - MPCB",03-02-2024 22:00:00,19.1135051,73.008978,NH3,3,4,3
India,Maharashtra,Navi Mumbai,"Nerul, Navi Mumbai - MPCB",03-02-2024 22:00:00,19.008751,73.016620,PM2.5,36,145,76
India,Maharashtra,Navi Mumbai,"Sanpada, Navi Mumbai - MPCB",03-02-2024 22:00:00,19.0575752,73.0151367,PM2.5,NA,NA,NA
India,Maharashtra,Navi Mumbai,"Sector-19A Nerul, Navi Mumbai - IITM",03-02-2024 22:00:00,19.044,73.0325,CO,41,111,74
India,Maharashtra,Navi Mumbai,"Sector-2E Kalamboli, Navi Mumbai - MPCB",03-02-2024 22:00:00,19.02579,73.10297,PM2.5,NA,NA,NA
India,Maharashtra,Navi Mumbai,"Tondare-Taloja, Navi Mumbai - MPCB",03-02-2024 22:00:00,19.0630,73.1209,PM2.5,40,196,102
India,Maharashtra,Navi Mumbai,"Tondare-Taloja, Navi Mumbai - MPCB",03-02-2024 22:00:00,19.0630,73.1209,PM10,61,161,117
India,Maharashtra,Navi Mumbai,"Tondare-Taloja, Navi Mumbai - MPCB",03-02-2024 22:00:00,19.0630,73.1209,NH3,3,7,5
India,Maharashtra,Pimpri-Chinchwad,"Gavalinagar, Pimpri Chinchwad - MPCB",03-02-2024 22:00:00,18.63673,73.82487,NH3,3,39,12
India,Maharashtra,Pimpri-Chinchwad,"Gavalinagar, Pimpri Chinchwad - MPCB",03-02-2024 22:00:00,18.63673,73.82487,OZONE,1,129,63
India,Maharashtra,Pimpri-Chinchwad,"Thergaon, Pimpri Chinchwad - MPCB",03-02-2024 22:00:00,18.616318,73.765797,PM10,116,228,160
India,Maharashtra,Pimpri-Chinchwad,"Thergaon, Pimpri Chinchwad - MPCB",03-02-2024 22:00:00,18.616318,73.765797,NO2,47,142,85
India,Maharashtra,Pune,"Alandi, Pune - IITM",03-02-2024 22:00:00,18.675076,73.892743,PM2.5,40,326,127
India,Maharashtra,Pune,"Alandi, Pune - IITM",03-02-2024 22:00:00,18.675076,73.892743,PM10,54,156,103
India,Maharashtra,Pune,"Bhosari, Pune - IITM",03-02-2024 22:00:00,18.640051,73.848956,PM10,73,273,143
India,Maharashtra,Pune,"Bhosari, Pune - IITM",03-02-2024 22:00:00,18.640051,73.848956,NO2,14,28,19
India,Maharashtra,Pune,"Karve Road, Pune - MPCB",03-02-2024 22:00:00,18.5011743,73.8165527,NO2,2,2,2
India,Maharashtra,Pune,"Katraj Dairy, Pune - MPCB",03-02-2024 22:00:00,18.454450,73.854155,OZONE,1,35,18
India,Maharashtra,Pune,"Mhada Colony, Pune - IITM",03-02-2024 22:00:00,18.573040,73.927715,CO,48,101,71
India,Maharashtra,Pune,"Savitribai Phule Pune University, Pune - MPCB",03-02-2024 22:00:00,18.547056,73.826908,NH3,2,14,7
India,Maharashtra,Pune,"Transport Nagar-Nigdi, Pune - IITM",03-02-2024 22:00:00,18.664282,73.763966,PM2.5,17,160,83
India,Maharashtra,Solapur,"Dnyaneshwar Nagar, Solapur - MPCB",03-02-2024 22:00:00,17.6336264,75.9132495,SO2,5,16,9
India,Maharashtra,Solapur,"Ratandeep Housing Society, Solapur - MPCB",03-02-2024 22:00:00,17.65439,75.90649,CO,18,129,63
India,Maharashtra,Solapur,"Ratandeep Housing Society, Solapur - MPCB",03-02-2024 22:00:00,17.65439,75.90649,OZONE,1,70,22
India,Maharashtra,Solapur,"Solapur, Solapur - MPCB",03-02-2024 22:00:00,17.6599188,75.9063906,NO2,54,55,55
India,Maharashtra,Thane,"Upvan Fort, Thane - MPCB",03-02-2024 22:00:00,19.222279,72.957979,PM2.5,79,136,97
India,Maharashtra,Thane,"Upvan Fort, Thane - MPCB",03-02-2024 22:00:00,19.222279,72.957979,SO2,28,56,36
India,Maharashtra,Ulhasnagar,"Sidhi Vinayak Nagar, Ulhasnagar - MPCB",03-02-2024 22:00:00,19.235581,73.159121,PM10,82,140,114
India,Maharashtra,Ulhasnagar,"Sidhi Vinayak Nagar, Ulhasnagar - MPCB",03-02-2024 22:00:00,19.235581,73.159121,NH3,1,2,1
India,Maharashtra,Virar,"Bolinj, Virar - MPCB",03-02-2024 22:00:00,19.4458210,72.7988231,SO2,13,29,19
India,Manipur,Imphal,"Manipur University, Imphal - Manipur PCB",03-02-2024 22:00:00,24.7524239,93.9286218,OZONE,NA,NA,NA
India,Meghalaya,Shillong,"Lumpyngngad, Shillong - Meghalaya PCB",03-02-2024 22:00:00,25.5586,91.8985,CO,9,28,22
India,Mizoram,Aizawl,"Sikulpuikawn, Aizawl - Mizoram PCB",03-02-2024 22:00:00,23.7176342,92.7192841,NH3,1,2,1
India,Mizoram,Aizawl,"Sikulpuikawn, Aizawl - Mizoram PCB",03-02-2024 22:00:00,23.7176342,92.7192841,CO,10,14,13
India,Nagaland,Kohima,"PWD Juction, Kohima - NPCB",03-02-2024 22:00:00,25.6635413,94.0989878,PM10,53,174,101
India,Nagaland,Kohima,"PWD Juction, Kohima - NPCB",03-02-2024 22:00:00,25.6635413,94.0989878,NH3,NA,NA,NA
India,Nagaland,Kohima,"PWD Juction, Kohima - NPCB",03-02-2024 22:00:00,25.6635413,94.0989878,OZONE,11,18,15
India,Odisha,Angul,"Hakimapada, Angul - OSPCB",03-02-2024 22:00:00,20.832874,85.104082,NH3,2,4,2
India,Odisha,Barbil,"Forest Office, Barbil - OSPCB",03-02-2024 22:00:00,22.1166054,85.3945546,PM10,82,254,145
India,Odisha,Barbil,"Forest Office, Barbil - OSPCB",03-02-2024 22:00:00,22.1166054,85.3945546,NH3,4,5,4
India,Odisha,Barbil,"Forest Office, Barbil - OSPCB",03-02-2024 22:00:00,22.1166054,85.3945546,SO2,2,24,8
India,Odisha,Baripada,"Meher Colony, Baripada - OSPCB",03-02-2024 22:00:00,21.941841,86.728318,PM10,73,192,132
India,Odisha,Baripada,"Meher Colony, Baripada - OSPCB",03-02-2024 22:00:00,21.941841,86.728318,OZONE,9,49,35
India,Odisha,Bhubaneswar,"Lingraj Mandir, Bhubaneswar - OSPCB",03-02-2024 22:00:00,20.240790,85.836784,NO2,NA,NA,NA
India,Odisha,Bhubaneswar,"Patia, Bhubaneswar - OSPCB",03-02-2024 22:00:00,20.34652,85.81630,CO,24,60,44
India,Odisha,Bileipada,"Tata Township, Bileipada - OSPCB",03-02-2024 22:00:00,22.06156703,85.47409613,PM10,20,452,213
India,Odisha,Bileipada,"Tata Township, Bileipada - OSPCB",03-02-2024 22:00:00,22.06156703,85.47409613,CO,10,62,21
India,Odisha,Brajrajnagar,"GM Office, Brajrajnagar - OSPCB",03-02-2024 22:00:00,21.8004996,83.8396977,PM10,NA,NA,NA
India,Odisha,Brajrajnagar,"GM Office, Brajrajnagar - OSPCB",03-02-2024 22:00:00,21.8004996,83.8396977,OZONE,19,20,20
India,Odisha,Byasanagar,"Ferro Chrome Colony, Byasanagar - OSPCB",03-02-2024 22:00:00,20.94185,86.11510,PM2.5,58,183,103
India,Odisha,Byasanagar,"Ferro Chrome Colony, Byasanagar - OSPCB",03-02-2024 22:00:00,20.94185,86.11510,PM10,59,135,91
India,Odisha,Byasanagar,"Ferro Chrome Colony, Byasanagar - OSPCB",03-02-2024 22:00:00,20.94185,86.11510,NH3,2,3,3
India,Odisha,Byasanagar,"Ferro Chrome Colony, Byasanagar - OSPCB",03-02-2024 22:00:00,20.94185,86.11510,OZONE,17,143,86
India,Odisha,Cuttack,"CDA Area, Cuttack - OSPCB",03-02-2024 22:00:00,20.48891     ,85.84768     ,PM10,70,245,118
India,Odisha,Keonjhar,"Jagamohanpur, Keonjhar - OSPCB",03-02-2024 22:00:00,21.643900,85.599355,PM10,76,135,105
India,Odisha,Keonjhar,"Jagamohanpur, Keonjhar - OSPCB",03-02-2024 22:00:00,21.643900,85.599355,CO,12,52,25
India,Odisha,Nayagarh,"Dabuna, Nayagarh - OSPCB",03-02-2024 22:00:00,21.847279,85.416905,PM2.5,67,226,125
India,Odisha,Nayagarh,"Dabuna, Nayagarh - OSPCB",03-02-2024 22:00:00,21.847279,85.416905,NO2,29,33,31
India,Odisha,Nayagarh,"Dabuna, Nayagarh - OSPCB",03-02-2024 22:00:00,21.847279,85.416905,NH3,4,5,4
India,Odisha,Rairangpur,"Divisional Forest Office, Rairangpur - OSPCB",03-02-2024 22:00:00,22.265816,86.174829,SO2,4,25,11
India,Odisha,Rairangpur,"Divisional Forest Office, Rairangpur - OSPCB",03-02-2024 22:00:00,22.265816,86.174829,CO,12,38,22
India,Odisha,Rourkela,"Raghunathpali, Rourkela - OSPCB",03-02-2024 22:00:00,22.220833,84.809444,PM10,110,188,144
India,Odisha,Talcher,"Talcher Coalfields,Talcher - OSPCB",03-02-2024 22:00:00,20.9360711,85.1707021,NO2,NA,NA,NA
India,Odisha,Talcher,"Talcher Coalfields,Talcher - OSPCB",03-02-2024 22:00:00,20.9360711,85.1707021,OZONE,NA,NA,NA
India,Puducherry,Puducherry,"Jawahar Nagar, Puducherry - PPCC",03-02-2024 22:00:00,11.9309,79.8027,PM2.5,4,66,27
India,Puducherry,Puducherry,"Jawahar Nagar, Puducherry - PPCC",03-02-2024 22:00:00,11.9309,79.8027,PM10,15,84,36
India,Punjab,Bathinda,"Hardev Nagar, Bathinda - PPCB",03-02-2024 22:00:00,30.233011,74.907758,NO2,31,33,32
India,Punjab,Bathinda,"Hardev Nagar, Bathinda - PPCB",03-02-2024 22:00:00,30.233011,74.907758,CO,5,72,18
India,Punjab,Jalandhar,"Civil Line, Jalandhar - PPCB",03-02-2024 22:00:00,31.321907,75.578914,PM10,85,131,102
India,Punjab,Khanna,"Kalal Majra, Khanna - PPCB",03-02-2024 22:00:00,30.736056 ,76.209694,NO2,35,36,35
India,Punjab,Ludhiana,"Punjab Agricultural University, Ludhiana - PPCB",03-02-2024 22:00:00,30.9028,75.8086,NH3,6,9,7
India,Punjab,Ludhiana,"Punjab Agricultural University, Ludhiana - PPCB",03-02-2024 22:00:00,30.9028,75.8086,SO2,2,21,10
India,Punjab,Mandi Gobindgarh,"RIMT University, Mandi Gobindgarh - PPCB",03-02-2024 22:00:00,30.649961,76.331442,SO2,2,2,2
India,Punjab,Patiala,"Model Town, Patiala - PPCB",03-02-2024 22:00:00,30.349388,76.366642,SO2,NA,NA,NA
India,Punjab,Patiala,"Model Town, Patiala - PPCB",03-02-2024 22:00:00,30.349388,76.366642,OZONE,16,36,21
India,Punjab,Rupnagar,"Ratanpura, Rupnagar - Ambuja Cements",03-02-2024 22:00:00,31.0325454,76.5623046,PM2.5,17,142,59
India,Rajasthan,Banswara,"Rati Talai, Banswara - RSPCB",03-02-2024 22:00:00,23.555190,74.440010,SO2,4,18,11
India,Rajasthan,Baran,"Bamboliya, Baran - RSPCB",03-02-2024 22:00:00,25.106006,76.469948,CO,27,49,32
India,Rajasthan,Baran,"Bamboliya, Baran - RSPCB",03-02-2024 22:00:00,25.106006,76.469948,OZONE,23,129,92
India,Rajasthan,Bharatpur,"Krishna Nagar, Bharatpur - RSPCB",03-02-2024 22:00:00,27.215415,77.50873,CO,76,112,99
India,Rajasthan,Bharatpur,"Krishna Nagar, Bharatpur - RSPCB",03-02-2024 22:00:00,27.215415,77.50873,OZONE,13,88,58
India,Rajasthan,Bhiwadi,"RIICO Ind. Area III, Bhiwadi - RSPCB",03-02-2024 22:00:00,28.194909,76.862296,PM2.5,88,337,168
India,Rajasthan,Bikaner,"MM Ground, Bikaner - RSPCB",03-02-2024 22:00:00,28.018792,73.292658,PM2.5,70,180,107
India,Rajasthan,Bundi,"New Colony, Bundi - RSPCB",03-02-2024 22:00:00,25.435774,75.644272,NH3,3,5,4
India,Rajasthan,Chittorgarh,"Shastri Nagar, Chittorgarh - RSPCB",03-02-2024 22:00:00,24.892047,74.623527,OZONE,2,110,54
India,Rajasthan,Churu,"Subash Chowk, Churu - RSPCB",03-02-2024 22:00:00,28.296139,74.961696,PM2.5,40,83,60
India,Rajasthan,Churu,"Subash Chowk, Churu - RSPCB",03-02-2024 22:00:00,28.296139,74.961696,NO2,11,47,25
India,Rajasthan,Churu,"Subash Chowk, Churu - RSPCB",03-02-2024 22:00:00,28.296139,74.961696,NH3,9,17,13
India,Rajasthan,Churu,"Subash Chowk, Churu - RSPCB",03-02-2024 22:00:00,28.296139,74.961696,SO2,12,17,14
India,Rajasthan,Dholpur,"Raja Ganj, Dholpur - RSPCB",03-02-2024 22:00:00,26.699557,77.898881,PM10,30,153,99
India,Rajasthan,Dholpur,"Raja Ganj, Dholpur - RSPCB",03-02-2024 22:00:00,26.699557,77.898881,NH3,2,11,6
India,Rajasthan,Hanumangarh,"Housing Board, Hanumangarh - RSPCB",03-02-2024 22:00:00,29.610750,74.283608,PM10,85,399,159
India,Rajasthan,Hanumangarh,"Housing Board, Hanumangarh - RSPCB",03-02-2024 22:00:00,29.610750,74.283608,OZONE,5,25,11
India,Rajasthan,Jaipur,"Adarsh Nagar, Jaipur - RSPCB",03-02-2024 22:00:00,26.902909,75.836858,PM2.5,50,181,87
India,Rajasthan,Jaipur,"Adarsh Nagar, Jaipur - RSPCB",03-02-2024 22:00:00,26.902909,75.836858,NH3,4,6,5
India,Rajasthan,Jaipur,"Mansarovar Sector-12, Jaipur - RSPCB",03-02-2024 22:00:00,26.843698,75.766894,PM10,78,263,141
India,Rajasthan,Jaipur,"RIICO Sitapura, Jaipur - RSPCB",03-02-2024 22:00:00,26.786682,75.827928,PM2.5,78,380,230
India,Rajasthan,Jaipur,"RIICO Sitapura, Jaipur - RSPCB",03-02-2024 22:00:00,26.786682,75.827928,OZONE,1,75,38
India,Rajasthan,Jaipur,"Sector-2 Murlipura, Jaipur - RSPCB",03-02-2024 22:00:00,26.960669,75.771817,NO2,7,72,15
India,Rajasthan,Jaipur,"Sector-2 Murlipura, Jaipur - RSPCB",03-02-2024 22:00:00,26.960669,75.771817,SO2,7,89,23
India,Rajasthan,Jaipur,"Sector-2 Murlipura, Jaipur - RSPCB",03-02-2024 22:00:00,26.960669,75.771817,CO,22,114,78
India,Rajasthan,Jaipur,"Shastri Nagar, Jaipur - RSPCB",03-02-2024 22:00:00,26.9502929,75.730943,NO2,29,146,78
India,Rajasthan,Jaisalmer,"Sadar Bazar, Jaisalmer - RSPCB",03-02-2024 22:00:00,26.912329,70.909168,PM2.5,58,178,93
India,Rajasthan,Jaisalmer,"Sadar Bazar, Jaisalmer - RSPCB",03-02-2024 22:00:00,26.912329,70.909168,NO2,5,34,14
India,Rajasthan,Jalore,"Mudtra Sili, Jalore - RSPCB",03-02-2024 22:00:00,25.344694,72.626208,PM10,65,405,178
India,Rajasthan,Jalore,"Mudtra Sili, Jalore - RSPCB",03-02-2024 22:00:00,25.344694,72.626208,NO2,8,100,47
India,Rajasthan,Jalore,"Mudtra Sili, Jalore - RSPCB",03-02-2024 22:00:00,25.344694,72.626208,CO,16,112,61
India,Rajasthan,Jhalawar,"Rajlaxmi Nagar, Jhalawar - RSPCB",03-02-2024 22:00:00,24.588397,76.172782,PM2.5,34,303,145
India,Rajasthan,Jhalawar,"Rajlaxmi Nagar, Jhalawar - RSPCB",03-02-2024 22:00:00,24.588397,76.172782,NH3,5,7,6
India,Rajasthan,Jhalawar,"Rajlaxmi Nagar, Jhalawar - RSPCB",03-02-2024 22:00:00,24.588397,76.172782,SO2,3,40,8
India,Rajasthan,Jhunjhunu,"Indra Nagar, Jhunjhunu - RSPCB",03-02-2024 22:00:00,28.108988,75.386577,PM2.5,28,227,108
India,Rajasthan,Jhunjhunu,"Indra Nagar, Jhunjhunu - RSPCB",03-02-2024 22:00:00,28.108988,75.386577,NO2,22,80,42
India,Rajasthan,Jhunjhunu,"Indra Nagar, Jhunjhunu - RSPCB",03-02-2024 22:00:00,28.108988,75.386577,SO2,2,14,6
India,Rajasthan,Jodhpur,"Collectorate, Jodhpur - RSPCB",03-02-2024 22:00:00,26.268249,73.0193853,NO2,24,33,28
India,Rajasthan,Jodhpur,"Digari Kalan, Jodhpur - RSPCB",03-02-2024 22:00:00,26.295810,73.082283,NO2,14,86,32
India,Rajasthan,Jodhpur,"Jhalamand, Jodhpur - RSPCB",03-02-2024 22:00:00,26.215415,73.070156,PM10,106,425,156
India,Rajasthan,Jodhpur,"Jhalamand, Jodhpur - RSPCB",03-02-2024 22:00:00,26.215415,73.070156,OZONE,3,86,48
India,Rajasthan,Jodhpur,"Mandor, Jodhpur - RSPCB",03-02-2024 22:00:00,26.358805,73.047444,PM2.5,22,237,90
India,Rajasthan,Jodhpur,"Mandor, Jodhpur - RSPCB",03-02-2024 22:00:00,26.358805,73.047444,NO2,32,75,45
India,Rajasthan,Jodhpur,"Mandor, Jodhpur - RSPCB",03-02-2024 22:00:00,26.358805,73.047444,CO,8,39,17
India,Rajasthan,Jodhpur,"Mandor, Jodhpur - RSPCB",03-02-2024 22:00:00,26.358805,73.047444,OZONE,6,75,50
India,Rajasthan,Jodhpur,"Samrat Ashok Udhyan, Jodhpur - RSPCB",03-02-2024 22:00:00,26.253384,72.976571,PM10,94,404,143
India,Rajasthan,Karauli,"Satyawati Vihar, Karauli - RSPCB",03-02-2024 22:00:00,26.506177,77.025989,SO2,13,22,17
India,Rajasthan,Kota,"Dhanmandi, Kota - RSPCB",03-02-2024 22:00:00,25.164090,75.858137,NO2,32,112,62
India,Rajasthan,Kota,"Nayapura, Kota - RSPCB",03-02-2024 22:00:00,25.196024,75.855668,OZONE,1,97,56
India,Rajasthan,Kota,"Shrinath Puram, Kota - RSPCB",03-02-2024 22:00:00,25.14389,75.821256,CO,14,36,22
India,Rajasthan,Nagaur,"Karni Colony, Nagaur - RSPCB",03-02-2024 22:00:00,27.213494,73.734444,PM2.5,26,132,74
India,Rajasthan,Nagaur,"Karni Colony, Nagaur - RSPCB",03-02-2024 22:00:00,27.213494,73.734444,PM10,76,202,111
India,Rajasthan,Pali,"Indira Colony Vistar, Pali - RSPCB",03-02-2024 22:00:00,25.771061, 73.340227,PM10,95,273,128
India,Rajasthan,Pratapgarh,"Pragati Nagar, Pratapgarh - RSPCB",03-02-2024 22:00:00,24.041198,74.780702,OZONE,12,89,67
India,Rajasthan,Rajsamand,"Dhoinda, Rajsamand - RSPCB",03-02-2024 22:00:00,25.036360,73.883502,OZONE,3,51,30
India,Rajasthan,Sawai Madhopur,"Sahu Nagar, Sawai Madhopur - RSPCB",03-02-2024 22:00:00,26.031443,76.359327,PM10,80,305,131
India,Rajasthan,Sawai Madhopur,"Sahu Nagar, Sawai Madhopur - RSPCB",03-02-2024 22:00:00,26.031443,76.359327,SO2,14,29,23
India,Rajasthan,Sikar,"Radhakishan Pura, Sikar - RSPCB",03-02-2024 22:00:00,27.608912,75.153302,NH3,6,11,8
India,Rajasthan,Sikar,"Radhakishan Pura, Sikar - RSPCB",03-02-2024 22:00:00,27.608912,75.153302,SO2,3,14,7
India,Rajasthan,Sirohi,"Vedhaynath Colony, Sirohi - RSPCB",03-02-2024 22:00:00,24.885261,72.857549,PM10,34,195,76
India,Rajasthan,Sirohi,"Vedhaynath Colony, Sirohi - RSPCB",03-02-2024 22:00:00,24.885261,72.857549,CO,11,55,26
India,Rajasthan,Tonk,"Shastri Nagar, Tonk - RSPCB",03-02-2024 22:00:00,26.159933,75.780517,PM2.5,68,322,137
India,Rajasthan,Tonk,"Shastri Nagar, Tonk - RSPCB",03-02-2024 22:00:00,26.159933,75.780517,SO2,2,9,5
India,Rajasthan,Udaipur,"Ashok Nagar, Udaipur - RSPCB",03-02-2024 22:00:00,24.5886166,73.6321397,SO2,4,48,17
India,Sikkim,Gangtok,"Zero Point GICI, Gangtok - SSPCB",03-02-2024 22:00:00,27.338530,88.614099,SO2,9,9,9
India,TamilNadu,Chennai,"Alandur Bus Depot, Chennai - CPCB",03-02-2024 22:00:00,12.9099161,80.1076538,NO2,12,51,20
India,TamilNadu,Chennai,"Alandur Bus Depot, Chennai - CPCB",03-02-2024 22:00:00,12.9099161,80.1076538,OZONE,3,5,4
India,TamilNadu,Chennai,"Arumbakkam, Chennai - TNPCB",03-02-2024 22:00:00,13.0664,80.2112 ,PM10,28,103,55
India,TamilNadu,Chennai,"Arumbakkam, Chennai - TNPCB",03-02-2024 22:00:00,13.0664,80.2112 ,SO2,2,7,4
India,TamilNadu,Chennai,"Gandhi Nagar_Ennore, Chennai - TNPCB",03-02-2024 22:00:00,13.218341,80.32027,PM10,15,47,29
India,TamilNadu,Chennai,"Kodungaiyur, Chennai - TNPCB",03-02-2024 22:00:00,13.1278,80.2642,PM2.5,3,43,20
India,TamilNadu,Chennai,"Manali, Chennai - CPCB",03-02-2024 22:00:00,13.164544,80.26285,SO2,1,28,7
India,TamilNadu,Chennai,"Perungudi, Chennai - TNPCB",03-02-2024 22:00:00,12.9533,80.2357,SO2,1,5,2
India,TamilNadu,Chennai,"Royapuram, Chennai - TNPCB",03-02-2024 22:00:00,13.1036,80.2909,PM2.5,15,28,21
India,TamilNadu,Coimbatore,"PSG College of Arts and Science, Coimbatore - TNPCB",03-02-2024 22:00:00,11.0328,77.0349,NH3,1,1,1
India,TamilNadu,Cuddalore,"Semmandalam, Cuddalore - TNPCB",03-02-2024 22:00:00,11.7637683,79.7499835,PM2.5,10,79,30
India,TamilNadu,Ramanathapuram,"Chalai Bazaar, Ramanathapuram - TNPCB",03-02-2024 22:00:00,9.36399,78.831977,NH3,NA,NA,NA
India,TamilNadu,Salem,"Sona College of Technology, Salem - TNPCB",03-02-2024 22:00:00,11.679111,78.125052,PM2.5,20,205,69
India,TamilNadu,Thoothukudi,"Meelavittan, Thoothukudi - TNPCB",03-02-2024 22:00:00,8.816428 ,78.099039,SO2,6,15,10
India,TamilNadu,Thoothukudi,"Meelavittan, Thoothukudi - TNPCB",03-02-2024 22:00:00,8.816428 ,78.099039,CO,10,27,20
India,TamilNadu,Thoothukudi,"Meelavittan, Thoothukudi - TNPCB",03-02-2024 22:00:00,8.816428 ,78.099039,OZONE,5,111,39
India,TamilNadu,Tirupur,"Kumaran College, Tirupur - TNPCB",03-02-2024 22:00:00,11.0973603,77.3228673,CO,18,114,52
India,TamilNadu,Virudhunagar,"Collectorate Office, Virudhunagar - TNPCB",03-02-2024 22:00:00,9.559382,77.948828,PM2.5,NA,NA,NA
India,Telangana,Hyderabad,"Bollaram Industrial Area, Hyderabad - TSPCB",03-02-2024 22:00:00,17.540891,78.358528,PM2.5,45,78,63
India,Telangana,Hyderabad,"Bollaram Industrial Area, Hyderabad - TSPCB",03-02-2024 22:00:00,17.540891,78.358528,PM10,57,108,84
India,Telangana,Hyderabad,"Bollaram Industrial Area, Hyderabad - TSPCB",03-02-2024 22:00:00,17.540891,78.358528,NO2,14,34,22
India,Telangana,Hyderabad,"Bollaram Industrial Area, Hyderabad - TSPCB",03-02-2024 22:00:00,17.540891,78.358528,CO,17,40,28
India,Telangana,Hyderabad,"Central University, Hyderabad - TSPCB",03-02-2024 22:00:00,17.460103,78.334361,SO2,2,9,6
India,Telangana,Hyderabad,"ECIL Kapra, Hyderabad - TSPCB",03-02-2024 22:00:00,17.470431,78.566959,PM2.5,40,80,51
India,Telangana,Hyderabad,"ECIL Kapra, Hyderabad - TSPCB",03-02-2024 22:00:00,17.470431,78.566959,CO,8,16,12
India,Telangana,Hyderabad,"Kokapet, Hyderabad - TSPCB",03-02-2024 22:00:00,17.393559,78.339194,NO2,5,12,9
India,Telangana,Hyderabad,"Kompally Municipal Office, Hyderabad - TSPCB",03-02-2024 22:00:00,17.544899,78.486949,PM2.5,26,137,65
India,Telangana,Hyderabad,"Kompally Municipal Office, Hyderabad - TSPCB",03-02-2024 22:00:00,17.544899,78.486949,SO2,6,11,8
India,Telangana,Hyderabad,"Kompally Municipal Office, Hyderabad - TSPCB",03-02-2024 22:00:00,17.544899,78.486949,OZONE,5,43,33
India,Telangana,Hyderabad,"New Malakpet, Hyderabad - TSPCB",03-02-2024 22:00:00,17.37206,78.50864,PM2.5,17,43,28
India,Telangana,Hyderabad,"New Malakpet, Hyderabad - TSPCB",03-02-2024 22:00:00,17.37206,78.50864,NH3,2,2,2
India,Telangana,Hyderabad,"Ramachandrapuram, Hyderabad - TSPCB",03-02-2024 22:00:00,17.528544,78.286195,NH3,2,3,3
India,Telangana,Hyderabad,"Ramachandrapuram, Hyderabad - TSPCB",03-02-2024 22:00:00,17.528544,78.286195,SO2,7,32,18
India,Telangana,Hyderabad,"Ramachandrapuram, Hyderabad - TSPCB",03-02-2024 22:00:00,17.528544,78.286195,OZONE,4,50,37
India,Telangana,Hyderabad,"Sanathnagar, Hyderabad - TSPCB",03-02-2024 22:00:00,17.4559458,78.4332152,SO2,1,24,7
India,Telangana,Hyderabad,"Sanathnagar, Hyderabad - TSPCB",03-02-2024 22:00:00,17.4559458,78.4332152,OZONE,13,134,15
India,Telangana,Hyderabad,"Zoo Park, Hyderabad - TSPCB",03-02-2024 22:00:00,17.349694,78.451437,PM2.5,51,132,71
India,Tripura,Agartala,"Bardowali, Agartala - Tripura SPCB",03-02-2024 22:00:00,23.8175497,91.2726974,PM2.5,NA,NA,NA
India,Tripura,Agartala,"Bardowali, Agartala - Tripura SPCB",03-02-2024 22:00:00,23.8175497,91.2726974,PM10,NA,NA,NA
India,Tripura,Agartala,"Bardowali, Agartala - Tripura SPCB",03-02-2024 22:00:00,23.8175497,91.2726974,NO2,NA,NA,NA
India,Tripura,Agartala,"Bardowali, Agartala - Tripura SPCB",03-02-2024 22:00:00,23.8175497,91.2726974,NH3,NA,NA,NA
India,Tripura,Agartala,"Bardowali, Agartala - Tripura SPCB",03-02-2024 22:00:00,23.8175497,91.2726974,CO,26,102,62
India,Uttar_Pradesh,Agra,"Manoharpur, Agra - UPPCB",03-02-2024 22:00:00,27.23711,78.01936,SO2,23,24,23
India,Uttar_Pradesh,Agra,"Rohta, Agra - UPPCB",03-02-2024 22:00:00,27.106972,78.000111,PM2.5,21,123,66
India,Uttar_Pradesh,Agra,"Sector-3B Avas Vikas Colony, Agra - UPPCB",03-02-2024 22:00:00,27.19412,77.96237,PM10,36,97,68
India,Uttar_Pradesh,Agra,"Shastripuram, Agra - UPPCB",03-02-2024 22:00:00,27.19862,77.92066,PM10,41,139,76
India,Uttar_Pradesh,Baghpat,"Sardar Patel Inter College, Baghpat - UPPCB",03-02-2024 22:00:00,28.964949,77.278761,SO2,12,73,28
India,Uttar_Pradesh,Baghpat,"Sardar Patel Inter College, Baghpat - UPPCB",03-02-2024 22:00:00,28.964949,77.278761,OZONE,3,25,15
India,Uttar_Pradesh,Bareilly,"Civil Lines, Bareilly - UPPCB",03-02-2024 22:00:00,28.359581,79.414455,PM2.5,27,57,41
India,Uttar_Pradesh,Bareilly,"Civil Lines, Bareilly - UPPCB",03-02-2024 22:00:00,28.359581,79.414455,NH3,NA,NA,NA
India,Uttar_Pradesh,Bareilly,"Rajendra Nagar, Bareilly - UPPCB",03-02-2024 22:00:00,28.38910936,79.42963708,NH3,1,2,1
India,Uttar_Pradesh,Bareilly,"Rajendra Nagar, Bareilly - UPPCB",03-02-2024 22:00:00,28.38910936,79.42963708,CO,18,110,30
India,Uttar_Pradesh,Bareilly,"Rajendra Nagar, Bareilly - UPPCB",03-02-2024 22:00:00,28.38910936,79.42963708,OZONE,9,17,12
India,Uttar_Pradesh,Bulandshahr,"Yamunapuram, Bulandshahr - UPPCB",03-02-2024 22:00:00,28.406963,77.849831,NO2,18,53,31
India,Uttar_Pradesh,Bulandshahr,"Yamunapuram, Bulandshahr - UPPCB",03-02-2024 22:00:00,28.406963,77.849831,CO,15,104,39
India,Uttar_Pradesh,Firozabad,"Nagla Bhau, Firozabad - UPPCB",03-02-2024 22:00:00,27.168897,78.376960,PM10,36,108,54
India,Uttar_Pradesh,Ghaziabad,"Indirapuram, Ghaziabad - UPPCB",03-02-2024 22:00:00,28.646233,77.358075,SO2,4,32,16
India,Uttar_Pradesh,Ghaziabad,"Loni, Ghaziabad - UPPCB",03-02-2024 22:00:00,28.757294,77.278792,CO,18,133,99
India,Uttar_Pradesh,Ghaziabad,"Sanjay Nagar, Ghaziabad - UPPCB",03-02-2024 22:00:00,28.685382,77.453839,OZONE,23,102,60
India,Uttar_Pradesh,Gorakhpur,"Madan Mohan Malaviya University of Technology, Gorakhpur - UPPCB",03-02-2024 22:00:00,26.730136,83.433859,PM10,54,122,77
India,Uttar_Pradesh,Gorakhpur,"Madan Mohan Malaviya University of Technology, Gorakhpur - UPPCB",03-02-2024 22:00:00,26.730136,83.433859,NH3,2,2,2
India,Uttar_Pradesh,Gorakhpur,"Madan Mohan Malaviya University of Technology, Gorakhpur - UPPCB",03-02-2024 22:00:00,26.730136,83.433859,OZONE,10,43,28
India,Uttar_Pradesh,Greater Noida,"Knowledge Park - III, Greater Noida - UPPCB",03-02-2024 22:00:00,28.47272,77.482000,PM2.5,62,308,204
India,Uttar_Pradesh,Greater Noida,"Knowledge Park - III, Greater Noida - UPPCB",03-02-2024 22:00:00,28.47272,77.482000,PM10,78,500,220
India,Uttar_Pradesh,Greater Noida,"Knowledge Park - III, Greater Noida - UPPCB",03-02-2024 22:00:00,28.47272,77.482000,OZONE,6,80,27
India,Uttar_Pradesh,Greater Noida,"Knowledge Park - V, Greater Noida - UPPCB",03-02-2024 22:00:00,28.557054,77.453663,NO2,15,50,29
India,Uttar_Pradesh,Greater Noida,"Knowledge Park - V, Greater Noida - UPPCB",03-02-2024 22:00:00,28.557054,77.453663,NH3,3,7,4
India,Uttar_Pradesh,Hapur,"Anand Vihar, Hapur - UPPCB",03-02-2024 22:00:00,28.725645,77.749675,PM2.5,83,361,238
India,Uttar_Pradesh,Hapur,"Anand Vihar, Hapur - UPPCB",03-02-2024 22:00:00,28.725645,77.749675,NO2,31,132,56
India,Uttar_Pradesh,Jhansi,"Shivaji Nagar, Jhansi - UPPCB",03-02-2024 22:00:00,25.4547,78.6039,NH3,6,6,6
India,Uttar_Pradesh,Kanpur,"FTI Kidwai Nagar, Kanpur - UPPCB",03-02-2024 22:00:00,26.428282,80.327067,PM10,66,138,101
India,Uttar_Pradesh,Kanpur,"FTI Kidwai Nagar, Kanpur - UPPCB",03-02-2024 22:00:00,26.428282,80.327067,OZONE,3,7,6
India,Uttar_Pradesh,Kanpur,"NSI Kalyanpur, Kanpur - UPPCB",03-02-2024 22:00:00,26.509954,80.249612,CO,16,33,17
India,Uttar_Pradesh,Kanpur,"Nehru Nagar, Kanpur - UPPCB",03-02-2024 22:00:00,26.4703136,80.3229863,PM2.5,21,88,52
India,Uttar_Pradesh,Kanpur,"Nehru Nagar, Kanpur - UPPCB",03-02-2024 22:00:00,26.4703136,80.3229863,SO2,4,22,8
India,Uttar_Pradesh,Kanpur,"Nehru Nagar, Kanpur - UPPCB",03-02-2024 22:00:00,26.4703136,80.3229863,CO,21,106,34
India,Uttar_Pradesh,Khurja,"Kalindi Kunj, Khurja - UPPCB",03-02-2024 22:00:00,28.2348927,77.8683002,NO2,20,29,24
India,Uttar_Pradesh,Lucknow,"Gomti Nagar, Lucknow - UPPCB",03-02-2024 22:00:00,26.868120,81.005119,SO2,2,17,9
India,Uttar_Pradesh,Lucknow,"Kukrail Picnic Spot-1, Lucknow - UPPCB",03-02-2024 22:00:00,26.90723,80.98579,SO2,28,30,29
India,Uttar_Pradesh,Lucknow,"Kukrail Picnic Spot-1, Lucknow - UPPCB",03-02-2024 22:00:00,26.90723,80.98579,OZONE,16,50,37
India,Uttar_Pradesh,Lucknow,"Lalbagh, Lucknow - CPCB",03-02-2024 22:00:00,26.8458805,80.9365541,NO2,16,76,36
India,Uttar_Pradesh,Lucknow,"Lalbagh, Lucknow - CPCB",03-02-2024 22:00:00,26.8458805,80.9365541,NH3,10,13,11
India,Uttar_Pradesh,Lucknow,"Talkatora District Industries Center, Lucknow - CPCB",03-02-2024 22:00:00,26.83399722,80.8917361,PM2.5,48,87,70
India,Uttar_Pradesh,Lucknow,"Talkatora District Industries Center, Lucknow - CPCB",03-02-2024 22:00:00,26.83399722,80.8917361,NO2,41,63,53
India,Uttar_Pradesh,Lucknow,"Talkatora District Industries Center, Lucknow - CPCB",03-02-2024 22:00:00,26.83399722,80.8917361,CO,32,77,46
India,Uttar_Pradesh,Meerut,"Ganga Nagar, Meerut - UPPCB",03-02-2024 22:00:00,28.999264,77.7590354,CO,19,52,36
India,Uttar_Pradesh,Meerut,"Jai Bhim Nagar, Meerut - UPPCB",03-02-2024 22:00:00,28.9535882,77.7622941,NH3,5,9,7
India,Uttar_Pradesh,Meerut,"Pallavpuram Phase 2, Meerut - UPPCB",03-02-2024 22:00:00,29.063510,77.709723,PM2.5,55,150,88
India,Uttar_Pradesh,Meerut,"Pallavpuram Phase 2, Meerut - UPPCB",03-02-2024 22:00:00,29.063510,77.709723,SO2,8,21,14
India,Uttar_Pradesh,Meerut,"Pallavpuram Phase 2, Meerut - UPPCB",03-02-2024 22:00:00,29.063510,77.709723,OZONE,2,51,27
India,Uttar_Pradesh,Moradabad,"Buddhi Vihar, Moradabad - UPPCB",03-02-2024 22:00:00,28.83526,78.74460,NH3,2,2,2
India,Uttar_Pradesh,Moradabad,"Buddhi Vihar, Moradabad - UPPCB",03-02-2024 22:00:00,28.83526,78.74460,CO,26,35,30
India,Uttar_Pradesh,Moradabad,"Eco Herbal Park, Moradabad - UPPCB",03-02-2024 22:00:00,28.840739,78.697531,NO2,6,60,13
India,Uttar_Pradesh,Moradabad,"Eco Herbal Park, Moradabad - UPPCB",03-02-2024 22:00:00,28.840739,78.697531,SO2,3,30,14
India,Uttar_Pradesh,Moradabad,"Jigar Colony, Moradabad - UPPCB",03-02-2024 22:00:00,28.856664,78.772638,PM10,57,109,79
India,Uttar_Pradesh,Moradabad,"Kashiram Nagar, Moradabad - UPPCB",03-02-2024 22:00:00,28.849399,78.742362,PM2.5,34,86,50
India,Uttar_Pradesh,Moradabad,"Kashiram Nagar, Moradabad - UPPCB",03-02-2024 22:00:00,28.849399,78.742362,NH3,4,4,4
India,Uttar_Pradesh,Moradabad,"Kashiram Nagar, Moradabad - UPPCB",03-02-2024 22:00:00,28.849399,78.742362,CO,12,47,36
India,Uttar_Pradesh,Moradabad,"Kashiram Nagar, Moradabad - UPPCB",03-02-2024 22:00:00,28.849399,78.742362,OZONE,14,23,18
India,Uttar_Pradesh,Moradabad,"Transport Nagar, Moradabad - UPPCB",03-02-2024 22:00:00,28.802625,78.753728,PM10,40,109,61
India,Uttar_Pradesh,Muzaffarnagar,"New Mandi, Muzaffarnagar - UPPCB",03-02-2024 22:00:00,29.4723508,77.7194031,PM10,46,128,79
India,Uttar_Pradesh,Muzaffarnagar,"New Mandi, Muzaffarnagar - UPPCB",03-02-2024 22:00:00,29.4723508,77.7194031,SO2,1,16,9
India,Uttar_Pradesh,Noida,"Sector-1, Noida - UPPCB",03-02-2024 22:00:00,28.5898,77.3101,NO2,50,94,71
India,Uttar_Pradesh,Noida,"Sector-1, Noida - UPPCB",03-02-2024 22:00:00,28.5898,77.3101,NH3,8,14,11
India,Uttar_Pradesh,Noida,"Sector-1, Noida - UPPCB",03-02-2024 22:00:00,28.5898,77.3101,CO,21,101,56
India,Uttar_Pradesh,Noida,"Sector-116, Noida - UPPCB",03-02-2024 22:00:00,28.569230,77.393848,PM10,57,194,116
India,Uttar_Pradesh,Noida,"Sector-116, Noida - UPPCB",03-02-2024 22:00:00,28.569230,77.393848,NO2,26,138,70
India,Uttar_Pradesh,Noida,"Sector-116, Noida - UPPCB",03-02-2024 22:00:00,28.569230,77.393848,CO,22,105,80
India,Uttar_Pradesh,Noida,"Sector-116, Noida - UPPCB",03-02-2024 22:00:00,28.569230,77.393848,OZONE,1,34,11
India,Uttar_Pradesh,Prayagraj,"Motilal Nehru NIT, Prayagraj - UPPCB",03-02-2024 22:00:00,25.494,81.863,NO2,12,12,12
India,Uttar_Pradesh,Prayagraj,"Nagar Nigam, Prayagraj - UPPCB",03-02-2024 22:00:00,25.44919916 ,81.82735986 ,PM10,57,96,81
India,Uttar_Pradesh,Prayagraj,"Nagar Nigam, Prayagraj - UPPCB",03-02-2024 22:00:00,25.44919916 ,81.82735986 ,NO2,11,11,11
India,Uttar_Pradesh,Prayagraj,"Nagar Nigam, Prayagraj - UPPCB",03-02-2024 22:00:00,25.44919916 ,81.82735986 ,CO,6,24,13
India,Uttar_Pradesh,Varanasi,"Bhelupur, Varanasi - UPPCB",03-02-2024 22:00:00,25.301778,82.996789,PM2.5,7,41,18
India,Uttar_Pradesh,Varanasi,"Bhelupur, Varanasi - UPPCB",03-02-2024 22:00:00,25.301778,82.996789,NH3,1,2,1
India,Uttar_Pradesh,Varanasi,"IESD Banaras Hindu University, Varanasi - UPPCB",03-02-2024 22:00:00,25.262326,82.995408,PM10,19,48,31
India,Uttar_Pradesh,Varanasi,"Maldahiya, Varanasi - UPPCB",03-02-2024 22:00:00,25.32393,82.99687,PM2.5,6,55,24
India,Uttar_Pradesh,Varanasi,"Maldahiya, Varanasi - UPPCB",03-02-2024 22:00:00,25.32393,82.99687,CO,2,34,8
India,Uttarakhand,Kashipur,"Govt. Girls Inter College, Kashipur - UKPCB",03-02-2024 22:00:00,29.2124114,78.9611753,NO2,12,44,25
India,Uttarakhand,Kashipur,"Govt. Girls Inter College, Kashipur - UKPCB",03-02-2024 22:00:00,29.2124114,78.9611753,NH3,2,10,6
India,Uttarakhand,Kashipur,"Govt. Girls Inter College, Kashipur - UKPCB",03-02-2024 22:00:00,29.2124114,78.9611753,CO,27,53,43
India,Uttarakhand,Rishikesh,"Shivaji Nagar, Rishikesh - UKPCB",03-02-2024 22:00:00,30.075911,78.2859547,PM2.5,19,50,33
India,Uttarakhand,Rishikesh,"Shivaji Nagar, Rishikesh - UKPCB",03-02-2024 22:00:00,30.075911,78.2859547,NH3,3,4,4
India,Uttarakhand,Rishikesh,"Shivaji Nagar, Rishikesh - UKPCB",03-02-2024 22:00:00,30.075911,78.2859547,SO2,3,5,4
India,West_Bengal,Asansol,"Asansol Court Area, Asansol - WBPCB",03-02-2024 22:00:00,23.685297,86.945968,PM2.5,76,259,173
India,West_Bengal,Asansol,"Asansol Court Area, Asansol - WBPCB",03-02-2024 22:00:00,23.685297,86.945968,NH3,5,8,6
India,West_Bengal,Haldia,"Priyambada Housing Estate, Haldia - WBPCB",03-02-2024 22:00:00,22.06047,88.109737,PM10,21,188,88
India,West_Bengal,Haldia,"Priyambada Housing Estate, Haldia - WBPCB",03-02-2024 22:00:00,22.06047,88.109737,CO,28,61,44
India,West_Bengal,Howrah,"Belur Math, Howrah - WBPCB",03-02-2024 22:00:00,22.629801,88.352017,PM2.5,NA,NA,NA
India,West_Bengal,Howrah,"Belur Math, Howrah - WBPCB",03-02-2024 22:00:00,22.629801,88.352017,NH3,NA,NA,NA
India,West_Bengal,Howrah,"Ghusuri, Howrah - WBPCB",03-02-2024 22:00:00,22.611968,88.347422,NO2,24,100,44
India,West_Bengal,Howrah,"Ghusuri, Howrah - WBPCB",03-02-2024 22:00:00,22.611968,88.347422,NH3,7,13,9
India,West_Bengal,Howrah,"Padmapukur, Howrah - WBPCB",03-02-2024 22:00:00,22.5687319,88.2797276,PM10,103,156,129
India,West_Bengal,Howrah,"Padmapukur, Howrah - WBPCB",03-02-2024 22:00:00,22.5687319,88.2797276,NH3,9,17,12
India,West_Bengal,Howrah,"Padmapukur, Howrah - WBPCB",03-02-2024 22:00:00,22.5687319,88.2797276,CO,8,66,41
India,West_Bengal,Kolkata,"Ballygunge, Kolkata - WBPCB",03-02-2024 22:00:00,22.5367507,88.3638022,PM2.5,71,279,140
India,West_Bengal,Kolkata,"Ballygunge, Kolkata - WBPCB",03-02-2024 22:00:00,22.5367507,88.3638022,PM10,86,158,119
India,West_Bengal,Kolkata,"Ballygunge, Kolkata - WBPCB",03-02-2024 22:00:00,22.5367507,88.3638022,CO,14,100,46
India,West_Bengal,Kolkata,"Bidhannagar, Kolkata - WBPCB",03-02-2024 22:00:00,22.58157048,88.41002457,NH3,9,13,11
India,West_Bengal,Kolkata,"Fort William, Kolkata - WBPCB",03-02-2024 22:00:00,22.556640,88.342674,PM10,89,191,128
India,West_Bengal,Kolkata,"Fort William, Kolkata - WBPCB",03-02-2024 22:00:00,22.556640,88.342674,NH3,6,8,6
India,West_Bengal,Kolkata,"Fort William, Kolkata - WBPCB",03-02-2024 22:00:00,22.556640,88.342674,OZONE,12,87,51
India,West_Bengal,Kolkata,"Jadavpur, Kolkata - WBPCB",03-02-2024 22:00:00,22.49929,88.36917,PM10,8,164,110
India,West_Bengal,Kolkata,"Jadavpur, Kolkata - WBPCB",03-02-2024 22:00:00,22.49929,88.36917,SO2,4,16,7
India,West_Bengal,Kolkata,"Rabindra Bharati University, Kolkata - WBPCB",03-02-2024 22:00:00,22.627847,88.380669,NH3,7,8,7
India,West_Bengal,Kolkata,"Victoria, Kolkata - WBPCB",03-02-2024 22:00:00,22.5448082,88.3403691,NO2,10,43,20
India,West_Bengal,Siliguri,"Ward-32 Bapupara, Siliguri - WBPCB",03-02-2024 22:00:00,26.6879226,88.4152495,PM10,128,235,144
India,Andhra_Pradesh,Amaravati,"Secretariat, Amaravati - APPCB",03-02-2024 22:00:00,16.5150833,80.5181667,PM2.5,23,49,34
India,Andhra_Pradesh,Amaravati,"Secretariat, Amaravati - APPCB",03-02-2024 22:00:00,16.5150833,80.5181667,OZONE,4,46,29
India,Andhra_Pradesh,Anantapur,"Gulzarpet, Anantapur - APPCB",03-02-2024 22:00:00,14.675886,77.593027,SO2,6,33,10
India,Andhra_Pradesh,Chittoor,"Gangineni Cheruvu, Chittoor - APPCB",03-02-2024 22:00:00,13.204880,79.097889,SO2,NA,NA,NA
India,Andhra_Pradesh,Kadapa,"Yerramukkapalli, Kadapa - APPCB",03-02-2024 22:00:00,14.465052,78.824187,PM10,20,60,39
India,Andhra_Pradesh,Kadapa,"Yerramukkapalli, Kadapa - APPCB",03-02-2024 22:00:00,14.465052,78.824187,SO2,1,2,2
India,Andhra_Pradesh,Rajamahendravaram,"Anand Kala Kshetram, Rajamahendravaram - APPCB",03-02-2024 22:00:00,16.9872867,81.7363176,PM10,49,117,79
India,Andhra_Pradesh,Rajamahendravaram,"Anand Kala Kshetram, Rajamahendravaram - APPCB",03-02-2024 22:00:00,16.9872867,81.7363176,CO,2,39,15
India,Andhra_Pradesh,Tirupati,"Tirumala, Tirupati - APPCB",03-02-2024 22:00:00,13.67,79.35,NH3,1,2,1
India,Andhra_Pradesh,Tirupati,"Tirumala, Tirupati - APPCB",03-02-2024 22:00:00,13.67,79.35,SO2,2,14,6
India,Andhra_Pradesh,Tirupati,"Tirumala, Tirupati - APPCB",03-02-2024 22:00:00,13.67,79.35,CO,36,60,46
India,Andhra_Pradesh,Tirupati,"Tirumala, Tirupati - APPCB",03-02-2024 22:00:00,13.67,79.35,OZONE,8,49,34
India,Andhra_Pradesh,Tirupati,"Vaikuntapuram, Tirupati - APPCB",03-02-2024 22:00:00,13.615387,79.409230,PM10,17,37,23
India,Andhra_Pradesh,Vijayawada,"HB Colony, Vijayawada - APPCB",03-02-2024 22:00:00,16.536107,80.594233,PM10,33,68,44
India,Andhra_Pradesh,Vijayawada,"HB Colony, Vijayawada - APPCB",03-02-2024 22:00:00,16.536107,80.594233,NO2,9,23,15
India,Andhra_Pradesh,Vijayawada,"Kanuru, Vijayawada - APPCB",03-02-2024 22:00:00,16.486692,80.699436,NO2,14,20,16
India,Andhra_Pradesh,Vijayawada,"Kanuru, Vijayawada - APPCB",03-02-2024 22:00:00,16.486692,80.699436,NH3,1,1,1
India,Andhra_Pradesh,Vijayawada,"Kanuru, Vijayawada - APPCB",03-02-2024 22:00:00,16.486692,80.699436,CO,4,68,4
India,Andhra_Pradesh,Vijayawada,"Rajiv Nagar, Vijayawada - APPCB",03-02-2024 22:00:00,16.554731,80.649110,NH3,1,2,2
India,Andhra_Pradesh,Visakhapatnam,"GVM Corporation, Visakhapatnam - APPCB",03-02-2024 22:00:00,17.72,83.3,PM2.5,42,92,63
India,Andhra_Pradesh,Visakhapatnam,"GVM Corporation, Visakhapatnam - APPCB",03-02-2024 22:00:00,17.72,83.3,SO2,10,21,13
India,Andhra_Pradesh,Visakhapatnam,"GVM Corporation, Visakhapatnam - APPCB",03-02-2024 22:00:00,17.72,83.3,CO,7,60,25
India,Andhra_Pradesh,Visakhapatnam,"GVM Corporation, Visakhapatnam - APPCB",03-02-2024 22:00:00,17.72,83.3,OZONE,7,46,14
India,Arunachal_Pradesh,Naharlagun,"Naharlagun, Naharlagun - APSPCB",03-02-2024 22:00:00,27.103358,93.679645,PM10,16,135,55
India,Arunachal_Pradesh,Naharlagun,"Naharlagun, Naharlagun - APSPCB",03-02-2024 22:00:00,27.103358,93.679645,NO2,2,2,2
India,Assam,Byrnihat,"Central Academy for SFS, Byrnihat - PCBA",03-02-2024 22:00:00,26.071318,91.87488,PM2.5,127,500,373
India,Assam,Guwahati,"IITG, Guwahati - PCBA",03-02-2024 22:00:00,26.2028636,91.70046436,NO2,1,6,3
India,Assam,Guwahati,"IITG, Guwahati - PCBA",03-02-2024 22:00:00,26.2028636,91.70046436,NH3,5,6,5
India,Assam,Guwahati,"IITG, Guwahati - PCBA",03-02-2024 22:00:00,26.2028636,91.70046436,OZONE,3,28,17
India,Assam,Guwahati,"LGBI Airport, Guwahati - PCBA",03-02-2024 22:00:00,26.10887,91.589544,PM10,66,277,134
India,Assam,Guwahati,"LGBI Airport, Guwahati - PCBA",03-02-2024 22:00:00,26.10887,91.589544,SO2,NA,NA,NA
India,Assam,Guwahati,"Pan Bazaar, Guwahati - PCBA",03-02-2024 22:00:00,26.187500,91.744194,PM2.5,47,314,148
India,Assam,Guwahati,"Pan Bazaar, Guwahati - PCBA",03-02-2024 22:00:00,26.187500,91.744194,NH3,3,4,3
India,Assam,Guwahati,"Railway Colony, Guwahati - PCBA",03-02-2024 22:00:00,26.181742,91.78063,PM10,54,189,114
India,Assam,Guwahati,"Railway Colony, Guwahati - PCBA",03-02-2024 22:00:00,26.181742,91.78063,CO,20,53,36
India,Assam,Nagaon,"Christianpatty, Nagaon - PCBA",03-02-2024 22:00:00,26.349082,92.68449,PM10,NA,NA,NA
India,Assam,Sivasagar,"Girls College, Sivasagar - PCBA",03-02-2024 22:00:00,26.987634,94.636574,CO,6,40,25
India,Bihar,Aurangabad,"Gurdeo Nagar, Aurangabad - BSPCB",03-02-2024 22:00:00,24.75746,84.366208,PM10,90,167,120
India,Bihar,Bettiah,"Kamalnath Nagar, Bettiah - BSPCB",03-02-2024 22:00:00,26.80365,84.51954,OZONE,1,5,3
India,Bihar,Bhagalpur,"DM Office_Kachari Chowk, Bhagalpur - BSPCB",03-02-2024 22:00:00,25.251013,86.989001,NO2,45,91,68
India,Bihar,Bhagalpur,"Mayaganj, Bhagalpur - BSPCB",03-02-2024 22:00:00,25.265194,87.012947,NO2,2,18,9
India,Bihar,Bihar Sharif,"D M Colony, Bihar Sharif - BSPCB",03-02-2024 22:00:00,25.204762,85.514960,OZONE,4,45,26
India,Bihar,Chhapra,"Darshan Nagar, Chhapra - BSPCB",03-02-2024 22:00:00,25.7808257,84.7446768,CO,24,46,40
India,Bihar,Gaya,"SFTI Kusdihra, Gaya - BSPCB",03-02-2024 22:00:00,24.762518,84.982348,OZONE,6,47,26
India,Bihar,Katihar,"Mirchaibari, Katihar - BSPCB",03-02-2024 22:00:00,25.560083,87.553265,NO2,8,43,16
India,Bihar,Katihar,"Mirchaibari, Katihar - BSPCB",03-02-2024 22:00:00,25.560083,87.553265,CO,3,59,19
India,Bihar,Katihar,"Mirchaibari, Katihar - BSPCB",03-02-2024 22:00:00,25.560083,87.553265,OZONE,19,23,21
India,Bihar,Kishanganj,"SDM Office_Khagra, Kishanganj - BSPCB",03-02-2024 22:00:00,26.0881305,87.93840336,NO2,29,39,33
India,Bihar,Kishanganj,"SDM Office_Khagra, Kishanganj - BSPCB",03-02-2024 22:00:00,26.0881305,87.93840336,NH3,12,17,14
India,Bihar,Kishanganj,"SDM Office_Khagra, Kishanganj - BSPCB",03-02-2024 22:00:00,26.0881305,87.93840336,CO,2,29,12
India,Bihar,Motihari,"Gandak Colony, Motihari - BSPCB",03-02-2024 22:00:00,26.63086,84.90051,SO2,1,7,4
India,Bihar,Muzaffarpur,"Buddha Colony, Muzaffarpur - BSPCB",03-02-2024 22:00:00,26.11442,85.39813,NO2,NA,NA,NA
India,Bihar,Muzaffarpur,"Buddha Colony, Muzaffarpur - BSPCB",03-02-2024 22:00:00,26.11442,85.39813,SO2,NA,NA,NA
India,Bihar,Muzaffarpur,"Buddha Colony, Muzaffarpur - BSPCB",03-02-2024 22:00:00,26.11442,85.39813,OZONE,34,84,61
India,Bihar,Muzaffarpur,"MIT-Daudpur Kothi, Muzaffarpur - BSPCB",03-02-2024 22:00:00,26.1403345,85.3650192,PM2.5,80,457,219
India,Bihar,Patna,"DRM Office Danapur, Patna - BSPCB",03-02-2024 22:00:00,25.586562,85.043586,PM2.5,67,309,184
India,Bihar,Patna,"DRM Office Danapur, Patna - BSPCB",03-02-2024 22:00:00,25.586562,85.043586,NO2,14,73,31
India,Bihar,Patna,"DRM Office Danapur, Patna - BSPCB",03-02-2024 22:00:00,25.586562,85.043586,NH3,4,5,4
India,Bihar,Patna,"DRM Office Danapur, Patna - BSPCB",03-02-2024 22:00:00,25.586562,85.043586,CO,20,90,45
India,Bihar,Patna,"Muradpur, Patna - BSPCB",03-02-2024 22:00:00,25.619651,85.147382,PM10,181,345,230
India,Bihar,Patna,"Rajbansi Nagar, Patna - BSPCB",03-02-2024 22:00:00,25.599486,85.113666,PM2.5,NA,NA,NA
India,Bihar,Purnia,"Mariam Nagar, Purnia - BSPCB",03-02-2024 22:00:00,25.366336,87.117468,NO2,12,13,13
India,Bihar,Purnia,"Mariam Nagar, Purnia - BSPCB",03-02-2024 22:00:00,25.366336,87.117468,CO,31,102,50
India,Bihar,Rajgir,"Dangi Tola, Rajgir - BSPCB",03-02-2024 22:00:00,25.03280,85.41948,NH3,NA,NA,NA
India,Bihar,Rajgir,"Dangi Tola, Rajgir - BSPCB",03-02-2024 22:00:00,25.03280,85.41948,SO2,4,4,4
India,Bihar,Samastipur,"DM Office_Kasipur, Samastipur - BSPCB",03-02-2024 22:00:00,25.859655,85.77944,PM10,72,384,127
India,Bihar,Samastipur,"DM Office_Kasipur, Samastipur - BSPCB",03-02-2024 22:00:00,25.859655,85.77944,NO2,3,7,4
India,Bihar,Samastipur,"DM Office_Kasipur, Samastipur - BSPCB",03-02-2024 22:00:00,25.859655,85.77944,SO2,3,14,9
India,Bihar,Sasaram,"Dada Peer, Sasaram - BSPCB",03-02-2024 22:00:00,24.952822,84.002396,PM10,55,121,81
India,Bihar,Sasaram,"Dada Peer, Sasaram - BSPCB",03-02-2024 22:00:00,24.952822,84.002396,SO2,19,23,21
India,Bihar,Sasaram,"Dada Peer, Sasaram - BSPCB",03-02-2024 22:00:00,24.952822,84.002396,CO,28,48,44
India,Chandigarh,Chandigarh,"Sector 22, Chandigarh - CPCC",03-02-2024 22:00:00,30.735567,76.775714,OZONE,3,78,29
India,Chandigarh,Chandigarh,"Sector-25, Chandigarh - CPCC",03-02-2024 22:00:00,30.751462,76.762879,OZONE,1,24,8
India,Chandigarh,Chandigarh,"Sector-53, Chandigarh - CPCC",03-02-2024 22:00:00,30.719859,76.738637,NO2,23,74,41
India,Chandigarh,Chandigarh,"Sector-53, Chandigarh - CPCC",03-02-2024 22:00:00,30.719859,76.738637,NH3,4,7,6
India,Chhattisgarh,Bhilai,"32Bungalows, Bhilai - CECB",03-02-2024 22:00:00,21.194815,81.314770,NH3,6,6,6
India,Chhattisgarh,Bhilai,"Hathkhoj, Bhilai - CECB",03-02-2024 22:00:00,21.224231,81.408350,OZONE,8,18,14
India,Chhattisgarh,Chhal,"Nawapara SECL Colony, Chhal - CECB",03-02-2024 22:00:00,22.118125,83.140608,NO2,12,58,24
India,Chhattisgarh,Chhal,"Nawapara SECL Colony, Chhal - CECB",03-02-2024 22:00:00,22.118125,83.140608,CO,36,98,54
India,Chhattisgarh,Chhal,"Nawapara SECL Colony, Chhal - CECB",03-02-2024 22:00:00,22.118125,83.140608,OZONE,1,63,30
India,Chhattisgarh,Kunjemura,"OP Jindal School, Kunjemura - CECB",03-02-2024 22:00:00,22.126650,83.483212,OZONE,2,75,41
India,Chhattisgarh,Milupara,"Govt. Higher Secondary School, Milupara - CECB",03-02-2024 22:00:00,22.1910172,83.5197009,PM10,31,156,50
India,Chhattisgarh,Milupara,"Govt. Higher Secondary School, Milupara - CECB",03-02-2024 22:00:00,22.1910172,83.5197009,NO2,11,60,22
India,Chhattisgarh,Raipur,"Bhatagaon New ISBT, Raipur - CECB",03-02-2024 22:00:00,21.219665,81.630094,PM10,40,161,85
India,Chhattisgarh,Raipur,"Bhatagaon New ISBT, Raipur - CECB",03-02-2024 22:00:00,21.219665,81.630094,CO,22,94,39
India,Chhattisgarh,Raipur,"Bhatagaon New ISBT, Raipur - CECB",03-02-2024 22:00:00,21.219665,81.630094,OZONE,3,5,4
India,Chhattisgarh,Raipur,"Krishak Nagar, Raipur - CECB",03-02-2024 22:00:00,21.237755,81.705301,SO2,8,11,9
India,Delhi,Delhi,"Anand Vihar, Delhi - DPCC",03-02-2024 22:00:00,28.647622,77.3158090,PM10,108,481,277
India,Delhi,Delhi,"Bawana, Delhi - DPCC",03-02-2024 22:00:00,28.776200,77.051074,SO2,3,8,5
India,Delhi,Delhi,"Burari Crossing, Delhi - IMD",03-02-2024 22:00:00,28.7256504,77.2011573,CO,104,106,105
India,Delhi,Delhi,"CRRI Mathura Road, Delhi - IMD",03-02-2024 22:00:00,28.5512005,77.2735737,PM2.5,44,207,124
India,Delhi,Delhi,"CRRI Mathura Road, Delhi - IMD",03-02-2024 22:00:00,28.5512005,77.2735737,OZONE,3,10,6
India,Delhi,Delhi,"DTU, Delhi - CPCB",03-02-2024 22:00:00,28.7500499,77.1112615,SO2,26,28,27
India,Delhi,Delhi,"Dr. Karni Singh Shooting Range, Delhi - DPCC",03-02-2024 22:00:00,28.498571,77.264840,CO,34,136,82
India,Delhi,Delhi,"Dwarka-Sector 8, Delhi - DPCC ",03-02-2024 22:00:00,28.5710274,77.0719006,PM2.5,68,375,179
India,Delhi,Delhi,"Dwarka-Sector 8, Delhi - DPCC ",03-02-2024 22:00:00,28.5710274,77.0719006,OZONE,2,27,11
India,Delhi,Delhi,"IGI Airport (T3), Delhi - IMD",03-02-2024 22:00:00,28.5627763,77.1180053,OZONE,11,24,16
India,Delhi,Delhi,"IHBAS, Dilshad Garden, Delhi - CPCB",03-02-2024 22:00:00,28.6811736,77.3025234,SO2,5,52,18
India,Delhi,Delhi,"IHBAS, Dilshad Garden, Delhi - CPCB",03-02-2024 22:00:00,28.6811736,77.3025234,OZONE,5,29,19
India,Delhi,Delhi,"ITO, Delhi - CPCB",03-02-2024 22:00:00,28.628624,77.241060,NO2,6,139,38
India,Delhi,Delhi,"ITO, Delhi - CPCB",03-02-2024 22:00:00,28.628624,77.241060,CO,13,120,78
India,Delhi,Delhi,"Jahangirpuri, Delhi - DPCC",03-02-2024 22:00:00,28.732820,77.170633,SO2,13,54,24
India,Delhi,Delhi,"Lodhi Road, Delhi - IMD",03-02-2024 22:00:00,28.5918245,77.2273074,PM2.5,34,152,64
India,Delhi,Delhi,"Major Dhyan Chand National Stadium, Delhi - DPCC",03-02-2024 22:00:00,28.611281,77.237738,PM10,72,192,119
India,Delhi,Delhi,"Major Dhyan Chand National Stadium, Delhi - DPCC",03-02-2024 22:00:00,28.611281,77.237738,SO2,2,31,12
India,Delhi,Delhi,"Mundka, Delhi - DPCC",03-02-2024 22:00:00,28.684678,77.076574,NO2,36,117,66
India,Delhi,Delhi,"NSIT Dwarka, Delhi - CPCB",03-02-2024 22:00:00,28.60909,77.0325413,NH3,7,10,8
India,Delhi,Delhi,"NSIT Dwarka, Delhi - CPCB",03-02-2024 22:00:00,28.60909,77.0325413,SO2,9,19,14
India,Delhi,Delhi,"Najafgarh, Delhi - DPCC",03-02-2024 22:00:00,28.570173,76.933762,PM10,38,101,65
India,Delhi,Delhi,"Najafgarh, Delhi - DPCC",03-02-2024 22:00:00,28.570173,76.933762,NH3,5,7,6
India,Delhi,Delhi,"Najafgarh, Delhi - DPCC",03-02-2024 22:00:00,28.570173,76.933762,SO2,6,14,9
India,Delhi,Delhi,"Najafgarh, Delhi - DPCC",03-02-2024 22:00:00,28.570173,76.933762,CO,22,101,37
India,Delhi,Delhi,"Narela, Delhi - DPCC",03-02-2024 22:00:00,28.822836,77.101981,OZONE,NA,NA,NA
India,Delhi,Delhi,"Nehru Nagar, Delhi - DPCC",03-02-2024 22:00:00,28.567890,77.250515,NO2,12,54,29
India,Delhi,Delhi,"New Moti Bagh, Delhi - MHUA",03-02-2024 22:00:00,28.57834,77.18400,PM2.5,71,344,218
India,Delhi,Delhi,"North Campus, DU, Delhi - IMD",03-02-2024 22:00:00,28.6573814,77.1585447,PM2.5,118,306,206
India,Delhi,Delhi,"North Campus, DU, Delhi - IMD",03-02-2024 22:00:00,28.6573814,77.1585447,NO2,24,32,28
India,Delhi,Delhi,"Okhla Phase-2, Delhi - DPCC",03-02-2024 22:00:00,28.530785,77.271255,PM2.5,46,316,174
India,Delhi,Delhi,"Punjabi Bagh, Delhi - DPCC",03-02-2024 22:00:00,28.674045,77.131023,SO2,12,20,16
India,Delhi,Delhi,"Pusa, Delhi - DPCC",03-02-2024 22:00:00,28.639652,77.146275,NH3,23,38,29
India,Delhi,Delhi,"Pusa, Delhi - DPCC",03-02-2024 22:00:00,28.639652,77.146275,SO2,7,42,16
India,Delhi,Delhi,"Rohini, Delhi - DPCC",03-02-2024 22:00:00,28.732528,77.119920,CO,18,123,65
India,Delhi,Delhi,"Shadipur, Delhi - CPCB",03-02-2024 22:00:00,28.6514781,77.1473105,PM2.5,65,454,237
India,Delhi,Delhi,"Shadipur, Delhi - CPCB",03-02-2024 22:00:00,28.6514781,77.1473105,PM10,124,500,208
India,Delhi,Delhi,"Shadipur, Delhi - CPCB",03-02-2024 22:00:00,28.6514781,77.1473105,SO2,13,24,18
India,Delhi,Delhi,"Shadipur, Delhi - CPCB",03-02-2024 22:00:00,28.6514781,77.1473105,OZONE,2,36,20
India,Delhi,Delhi,"Sirifort, Delhi - CPCB",03-02-2024 22:00:00,28.5504249,77.2159377,PM10,22,102,47
India,Delhi,Delhi,"Sirifort, Delhi - CPCB",03-02-2024 22:00:00,28.5504249,77.2159377,SO2,32,39,34
India,Delhi,Delhi,"Sirifort, Delhi - CPCB",03-02-2024 22:00:00,28.5504249,77.2159377,OZONE,2,12,5
India,Delhi,Delhi,"Sonia Vihar, Delhi - DPCC",03-02-2024 22:00:00,28.710508,77.249485,PM10,100,485,198
India,Delhi,Delhi,"Sonia Vihar, Delhi - DPCC",03-02-2024 22:00:00,28.710508,77.249485,NH3,5,8,7
India,Delhi,Delhi,"Sonia Vihar, Delhi - DPCC",03-02-2024 22:00:00,28.710508,77.249485,OZONE,4,77,32
India,Delhi,Delhi,"Sri Aurobindo Marg, Delhi - DPCC",03-02-2024 22:00:00,28.531346,77.190156,PM2.5,27,257,136
India,Delhi,Delhi,"Sri Aurobindo Marg, Delhi - DPCC",03-02-2024 22:00:00,28.531346,77.190156,PM10,67,143,118
India,Delhi,Delhi,"Vivek Vihar, Delhi - DPCC",03-02-2024 22:00:00,28.672342,77.315260,PM2.5,142,397,259
India,Delhi,Delhi,"Wazirpur, Delhi - DPCC",03-02-2024 22:00:00,28.699793,77.165453,NO2,87,221,152
India,Gujarat,Ahmedabad,"Gyaspur, Ahmedabad - IITM",03-02-2024 22:00:00,22.977134,72.553024,PM2.5,78,412,247
India,Gujarat,Ahmedabad,"Gyaspur, Ahmedabad - IITM",03-02-2024 22:00:00,22.977134,72.553024,OZONE,9,13,12
India,Gujarat,Ahmedabad,"SAC ISRO Bopal, Ahmedabad - IITM",03-02-2024 22:00:00,23.041137,72.456691,OZONE,12,14,13
India,Gujarat,Ahmedabad,"SAC ISRO Satellite, Ahmedabad - IITM",03-02-2024 22:00:00,23.023389,72.515201,PM2.5,137,180,157
India,Gujarat,Ahmedabad,"SAC ISRO Satellite, Ahmedabad - IITM",03-02-2024 22:00:00,23.023389,72.515201,NH3,3,3,3
India,Gujarat,Ahmedabad,"SVPI Airport Hansol, Ahmedabad - IITM",03-02-2024 22:00:00,23.076793,72.627874,OZONE,5,23,16
India,Gujarat,Ahmedabad,"Sardar Vallabhbhai Patel Stadium, Ahmedabad - IITM",03-02-2024 22:00:00,23.043070,72.562968,PM10,84,168,135
India,Gujarat,Ahmedabad,"Sardar Vallabhbhai Patel Stadium, Ahmedabad - IITM",03-02-2024 22:00:00,23.043070,72.562968,NO2,12,14,13
India,Gujarat,Ankleshwar,"GIDC, Ankleshwar - GPCB",03-02-2024 22:00:00,21.613267,73.010555,PM2.5,50,201,102
India,Gujarat,Ankleshwar,"GIDC, Ankleshwar - GPCB",03-02-2024 22:00:00,21.613267,73.010555,PM10,56,112,90
India,Gujarat,Ankleshwar,"GIDC, Ankleshwar - GPCB",03-02-2024 22:00:00,21.613267,73.010555,NO2,33,34,34
India,Gujarat,Gandhinagar,"GIFT City, Gandhinagar - IITM",03-02-2024 22:00:00,23.163798,72.677768,NO2,9,13,10
India,Gujarat,Gandhinagar,"GIFT City, Gandhinagar - IITM",03-02-2024 22:00:00,23.163798,72.677768,NH3,2,3,2
India,Gujarat,Gandhinagar,"GIFT City, Gandhinagar - IITM",03-02-2024 22:00:00,23.163798,72.677768,CO,16,34,26
India,Gujarat,Gandhinagar,"IIPHG Lekawada, Gandhinagar - IITM",03-02-2024 22:00:00,23.243639,72.68994,NH3,3,3,3
India,Gujarat,Gandhinagar,"Sector-10, Gandhinagar - GPCB",03-02-2024 22:00:00,23.221714,72.654328,CO,19,20,20
India,Gujarat,Gandhinagar,"Sector-10, Gandhinagar - GPCB",03-02-2024 22:00:00,23.221714,72.654328,OZONE,2,40,24
India,Gujarat,Surat,"Science Center, Surat - SMC",03-02-2024 22:00:00,21.170046,72.795405,PM2.5,15,83,34
India,Gujarat,Surat,"Science Center, Surat - SMC",03-02-2024 22:00:00,21.170046,72.795405,CO,43,76,53
India,Gujarat,Vapi,"Phase-1 GIDC, Vapi - GPCB",03-02-2024 22:00:00,20.362421,72.918013,PM10,67,366,170
India,Gujarat,Vapi,"Phase-1 GIDC, Vapi - GPCB",03-02-2024 22:00:00,20.362421,72.918013,SO2,44,45,44
India,Haryana,Ambala,"Patti Mehar, Ambala - HSPCB",03-02-2024 22:00:00,30.379589,76.778328,NH3,4,11,8
India,Haryana,Ambala,"Patti Mehar, Ambala - HSPCB",03-02-2024 22:00:00,30.379589,76.778328,SO2,1,47,13
India,Haryana,Bahadurgarh,"Arya Nagar, Bahadurgarh - HSPCB",03-02-2024 22:00:00,28.6701,76.9254,PM2.5,46,203,83
India,Haryana,Bahadurgarh,"Arya Nagar, Bahadurgarh - HSPCB",03-02-2024 22:00:00,28.6701,76.9254,SO2,12,26,16
India,Haryana,Bahadurgarh,"Arya Nagar, Bahadurgarh - HSPCB",03-02-2024 22:00:00,28.6701,76.9254,CO,40,62,52
India,Haryana,Ballabgarh,"Nathu Colony, Ballabgarh - HSPCB",03-02-2024 22:00:00,28.3419248,77.319699,PM10,96,429,151
India,Haryana,Ballabgarh,"Nathu Colony, Ballabgarh - HSPCB",03-02-2024 22:00:00,28.3419248,77.319699,NO2,11,14,13
India,Haryana,Ballabgarh,"Nathu Colony, Ballabgarh - HSPCB",03-02-2024 22:00:00,28.3419248,77.319699,NH3,1,2,2
India,Haryana,Bhiwani,"H.B. Colony, Bhiwani - HSPCB",03-02-2024 22:00:00,28.806223,76.141105,PM2.5,66,184,111
India,Haryana,Bhiwani,"H.B. Colony, Bhiwani - HSPCB",03-02-2024 22:00:00,28.806223,76.141105,CO,31,52,39
India,Haryana,Charkhi Dadri,"Mini Secretariat, Charkhi Dadri - HSPCB",03-02-2024 22:00:00,28.593883,76.270653,NH3,5,6,5
India,Haryana,Charkhi Dadri,"Mini Secretariat, Charkhi Dadri - HSPCB",03-02-2024 22:00:00,28.593883,76.270653,SO2,6,11,8
India,Haryana,Dharuhera,"Municipal Corporation Office, Dharuhera -  HSPCB",03-02-2024 22:00:00,28.206800,76.799700,PM2.5,27,172,78
India,Haryana,Dharuhera,"Municipal Corporation Office, Dharuhera -  HSPCB",03-02-2024 22:00:00,28.206800,76.799700,CO,101,102,102
India,Haryana,Dharuhera,"Municipal Corporation Office, Dharuhera -  HSPCB",03-02-2024 22:00:00,28.206800,76.799700,OZONE,8,81,39
India,Haryana,Faridabad,"Sector 11, Faridabad - HSPCB",03-02-2024 22:00:00,28.376058,77.315741,NO2,30,34,31
India,Haryana,Faridabad,"Sector 30, Faridabad - HSPCB",03-02-2024 22:00:00,28.4417,77.3217,PM2.5,169,213,187
India,Haryana,Faridabad,"Sector- 16A, Faridabad - HSPCB",03-02-2024 22:00:00,28.4088421,77.3099081,PM2.5,71,328,198
India,Haryana,Faridabad,"Sector- 16A, Faridabad - HSPCB",03-02-2024 22:00:00,28.4088421,77.3099081,SO2,2,26,22
India,Haryana,Faridabad,"Sector- 16A, Faridabad - HSPCB",03-02-2024 22:00:00,28.4088421,77.3099081,CO,6,124,19
India,Haryana,Fatehabad,"Huda Sector, Fatehabad - HSPCB",03-02-2024 22:00:00,29.503664,75.467934,PM10,49,119,80
India,Haryana,Gurugram,"Sector-51, Gurugram - HSPCB",03-02-2024 22:00:00,28.4227,77.0667,CO,28,108,48
India,Haryana,Gurugram,"Sector-51, Gurugram - HSPCB",03-02-2024 22:00:00,28.4227,77.0667,OZONE,27,67,56
India,Haryana,Gurugram,"Vikas Sadan, Gurugram - HSPCB",03-02-2024 22:00:00,28.4501238,77.0263051,SO2,22,31,27
India,Haryana,Hisar,"Urban Estate-II, Hisar - HSPCB",03-02-2024 22:00:00,29.140560,75.744941,PM2.5,NA,NA,NA
India,Haryana,Hisar,"Urban Estate-II, Hisar - HSPCB",03-02-2024 22:00:00,29.140560,75.744941,NH3,2,3,3
India,Haryana,Jind,"Police Lines, Jind - HSPCB",03-02-2024 22:00:00,29.307814,76.337619,NO2,NA,NA,NA
India,Haryana,Jind,"Police Lines, Jind - HSPCB",03-02-2024 22:00:00,29.307814,76.337619,NH3,NA,NA,NA
India,Haryana,Karnal,"Sector-12, Karnal - HSPCB",03-02-2024 22:00:00,29.695300,77.002700,CO,26,56,39
India,Haryana,Kurukshetra,"Sector-7, Kurukshetra - HSPCB",03-02-2024 22:00:00,29.966942,76.875879,NO2,10,10,10
India,Haryana,Mandikhera,"General Hospital, Mandikhera - HSPCB",03-02-2024 22:00:00,27.9002,76.9938,NO2,17,22,19
India,Haryana,Mandikhera,"General Hospital, Mandikhera - HSPCB",03-02-2024 22:00:00,27.9002,76.9938,SO2,31,38,34
India,Haryana,Manesar,"Sector-2 IMT, Manesar - HSPCB",03-02-2024 22:00:00,28.360699,76.936090,CO,5,102,36
India,Haryana,Narnaul,"Shastri Nagar, Narnaul - HSPCB",03-02-2024 22:00:00,28.060249,76.113115,SO2,12,13,13
India,Haryana,Palwal,"Shyam Nagar, Palwal - HSPCB",03-02-2024 22:00:00,28.1485564,77.3320667,PM2.5,31,58,44
India,Haryana,Palwal,"Shyam Nagar, Palwal - HSPCB",03-02-2024 22:00:00,28.1485564,77.3320667,PM10,24,109,82
India,Haryana,Panchkula,"Sector-6, Panchkula - HSPCB ",03-02-2024 22:00:00,30.7057778,76.8531805555555,PM2.5,NA,NA,NA
India,Haryana,Panchkula,"Sector-6, Panchkula - HSPCB ",03-02-2024 22:00:00,30.7057778,76.8531805555555,NO2,28,30,29
India,Haryana,Panipat,"Sector-18, Panipat - HSPCB",03-02-2024 22:00:00,29.497973,76.993331,PM2.5,126,140,133
India,Haryana,Panipat,"Sector-18, Panipat - HSPCB",03-02-2024 22:00:00,29.497973,76.993331,CO,22,28,25
India,Haryana,Rohtak,"MD University, Rohtak - HSPCB",03-02-2024 22:00:00,28.52123,76.37138,CO,1,160,65
India,Haryana,Sirsa,"F-Block, Sirsa - HSPCB",03-02-2024 22:00:00,29.536400,75.015800,PM10,NA,NA,NA
India,Haryana,Sonipat,"Murthal, Sonipat - HSPCB",03-02-2024 22:00:00,29.027200,77.062100,PM2.5,64,113,87
India,Haryana,Sonipat,"Murthal, Sonipat - HSPCB",03-02-2024 22:00:00,29.027200,77.062100,NO2,37,44,40
India,Haryana,Yamuna Nagar,"Gobind Pura, Yamuna Nagar - HSPCB",03-02-2024 22:00:00,30.1480566,77.2893471,PM10,39,165,92
India,Himachal Pradesh,Baddi,"HIMUDA Complex Phase-1, Baddi - HPPCB",03-02-2024 22:00:00,30.943887,76.801991,NO2,NA,NA,NA
India,Jammu_and_Kashmir,Srinagar,"Rajbagh, Srinagar - JKSPCB",03-02-2024 22:00:00,34.066206,74.819820,CO,NA,NA,NA
India,Jharkhand,Dhanbad,"Kalakusuma, Dhanbad - DMC",03-02-2024 22:00:00,23.811548,86.481238,PM10,NA,NA,NA
India,Jharkhand,Dhanbad,"Kalakusuma, Dhanbad - DMC",03-02-2024 22:00:00,23.811548,86.481238,SO2,NA,NA,NA
India,Jharkhand,Dhanbad,"Sardar Patel Nagar, Dhanbad - JSPCB",03-02-2024 22:00:00,23.80569,86.44268,PM2.5,NA,NA,NA
India,Jharkhand,Dhanbad,"Sardar Patel Nagar, Dhanbad - JSPCB",03-02-2024 22:00:00,23.80569,86.44268,PM10,NA,NA,NA
India,Karnataka,Bagalkot,"Vidayagiri, Bagalkot - KSPCB",03-02-2024 22:00:00,16.172806,75.659694,NO2,10,11,10
India,Karnataka,Belgaum,"Ramteerth Nagar, Belgaum - KSPCB",03-02-2024 22:00:00,15.888653,74.541751,SO2,8,9,8
India,Karnataka,Bengaluru,"BTM Layout, Bengaluru - CPCB",03-02-2024 22:00:00,12.9135218,77.5950804,NO2,32,39,36
India,Karnataka,Bengaluru,"BTM Layout, Bengaluru - CPCB",03-02-2024 22:00:00,12.9135218,77.5950804,OZONE,20,56,34
India,Karnataka,Bengaluru,"Bapuji Nagar, Bengaluru - KSPCB",03-02-2024 22:00:00,12.951913,77.539784,PM2.5,40,88,62
India,Karnataka,Bengaluru,"Bapuji Nagar, Bengaluru - KSPCB",03-02-2024 22:00:00,12.951913,77.539784,PM10,61,122,92
India,Karnataka,Bengaluru,"City Railway Station, Bengaluru - KSPCB",03-02-2024 22:00:00,12.9756843,77.5660749,SO2,13,13,13
India,Karnataka,Bengaluru,"Hombegowda Nagar, Bengaluru - KSPCB",03-02-2024 22:00:00,12.938539,77.590100,PM2.5,37,80,53
India,Karnataka,Bengaluru,"Jayanagar 5th Block, Bengaluru - KSPCB",03-02-2024 22:00:00,12.920984,77.584908,PM10,56,344,137
India,Karnataka,Bengaluru,"Jigani, Bengaluru - KSPCB",03-02-2024 22:00:00,12.7816279,77.6299145,NH3,3,5,4
India,Karnataka,Bengaluru,"Kasturi Nagar, Bengaluru - KSPCB",03-02-2024 22:00:00,13.003872,77.664217,CO,24,25,25
India,Karnataka,Bengaluru,"Peenya, Bengaluru - CPCB",03-02-2024 22:00:00,13.0270199,77.494094,PM10,69,129,91
India,Karnataka,Bengaluru,"RVCE-Mailasandra, Bengaluru - KSPCB",03-02-2024 22:00:00,12.921418,77.502466,PM10,82,342,137
India,Karnataka,Bengaluru,"RVCE-Mailasandra, Bengaluru - KSPCB",03-02-2024 22:00:00,12.921418,77.502466,SO2,4,5,4
India,Karnataka,Bengaluru,"Sanegurava Halli, Bengaluru - KSPCB",03-02-2024 22:00:00,12.990328,77.5431385,PM10,12,299,92
India,Karnataka,Bengaluru,"Sanegurava Halli, Bengaluru - KSPCB",03-02-2024 22:00:00,12.990328,77.5431385,SO2,2,3,2
India,Karnataka,Bengaluru,"Shivapura_Peenya, Bengaluru - KSPCB",03-02-2024 22:00:00,13.0246342,77.5080115,NO2,15,16,16
India,Karnataka,Bengaluru,"Shivapura_Peenya, Bengaluru - KSPCB",03-02-2024 22:00:00,13.0246342,77.5080115,OZONE,16,140,81
India,Karnataka,Bengaluru,"Silk Board, Bengaluru - KSPCB",03-02-2024 22:00:00,12.917348,77.622813,PM2.5,42,119,60
India,Karnataka,Bengaluru,"Silk Board, Bengaluru - KSPCB",03-02-2024 22:00:00,12.917348,77.622813,SO2,3,11,9
India,Karnataka,Chamarajanagar,"Urban, Chamarajanagar - KSPCB",03-02-2024 22:00:00,11.55358,76.55521,PM10,34,59,44
India,Karnataka,Chikkaballapur,"Chikkaballapur Rural, Chikkaballapur - KSPCB",03-02-2024 22:00:00,13.428828,77.731418,NH3,1,1,1
India,Karnataka,Davanagere,"Devaraj Urs Badavane, Davanagere - KSPCB",03-02-2024 22:00:00,14.475800,75.905200,NO2,9,16,11
India,Karnataka,Dharwad,"Kalabhavan, Dharwad - KSPCB",03-02-2024 22:00:00,15.459706,75.008381,CO,27,163,94
India,Karnataka,Gadag,"Panchal Nagar, Gadag - KSPCB",03-02-2024 22:00:00,15.411456,75.638133,OZONE,17,81,68
India,Karnataka,Hassan,"B.Katihalli, Hassan - KSPCB",03-02-2024 22:00:00,13.008556,76.125258,PM10,NA,NA,NA
India,Karnataka,Hassan,"B.Katihalli, Hassan - KSPCB",03-02-2024 22:00:00,13.008556,76.125258,SO2,NA,NA,NA
India,Karnataka,Hassan,"B.Katihalli, Hassan - KSPCB",03-02-2024 22:00:00,13.008556,76.125258,CO,5,14,11
India,Karnataka,Hassan,"B.Katihalli, Hassan - KSPCB",03-02-2024 22:00:00,13.008556,76.125258,OZONE,4,34,31
India,Karnataka,Haveri,"Ashwini Nagar, Haveri - KSPCB",03-02-2024 22:00:00,14.791800,75.389600,NH3,NA,NA,NA
