country,state,city,station,last_update,latitude,longitude,pollutant_id,pollutant_min,pollutant_max,pollutant_avg
India,Andhra_Pradesh,Anantapur,"Gulzarpet, Anantapur - APPCB",28-05-2024 14:00:00,14.675886,77.593027,NO2,12,13,12
India,Andhra_Pradesh,Anantapur,"Gulzarpet, Anantapur - APPCB",28-05-2024 14:00:00,14.675886,77.593027,NH3,4,4,4
India,Andhra_Pradesh,Chittoor,"Gangineni Cheruvu, Chittoor - APPCB",28-05-2024 14:00:00,13.204880,79.097889,PM2.5,28,134,75
India,Andhra_Pradesh,Chittoor,"Gangineni Cheruvu, Chittoor - APPCB",28-05-2024 14:00:00,13.204880,79.097889,SO2,6,16,11
India,Andhra_Pradesh,Chittoor,"Gangineni Cheruvu, Chittoor - APPCB",28-05-2024 14:00:00,13.204880,79.097889,CO,20,30,20
India,Andhra_Pradesh,Chittoor,"Gangineni Cheruvu, Chittoor - APPCB",28-05-2024 14:00:00,13.204880,79.097889,OZONE,25,25,25
India,Andhra_Pradesh,Kadapa,"Yerramukkapalli, Kadapa - APPCB",28-05-2024 14:00:00,14.465052,78.824187,PM2.5,39,71,51
India,Andhra_Pradesh,Kadapa,"Yerramukkapalli, Kadapa - APPCB",28-05-2024 14:00:00,14.465052,78.824187,CO,7,16,12
India,Andhra_Pradesh,Rajamahendravaram,"Anand Kala Kshetram, Rajamahendravaram - APPCB",28-05-2024 14:00:00,16.9872867,81.7363176,NO2,14,33,21
India,Andhra_Pradesh,Rajamahendravaram,"Anand Kala Kshetram, Rajamahendravaram - APPCB",28-05-2024 14:00:00,16.9872867,81.7363176,SO2,9,55,17
India,Andhra_Pradesh,Tirupati,"Vaikuntapuram, Tirupati - APPCB",28-05-2024 14:00:00,13.615387,79.409230,SO2,7,8,8
India,Andhra_Pradesh,Vijayawada,"Kanuru, Vijayawada - APPCB",28-05-2024 14:00:00,16.486692,80.699436,NH3,5,6,6
India,Andhra_Pradesh,Vijayawada,"Kanuru, Vijayawada - APPCB",28-05-2024 14:00:00,16.486692,80.699436,CO,38,39,39
India,Andhra_Pradesh,Vijayawada,"Kanuru, Vijayawada - APPCB",28-05-2024 14:00:00,16.486692,80.699436,OZONE,33,40,38
India,Andhra_Pradesh,Vijayawada,"Rajiv Gandhi Park, Vijayawada - APPCB",28-05-2024 14:00:00,16.509717,80.612222,SO2,8,10,9
India,Andhra_Pradesh,Vijayawada,"Rajiv Nagar, Vijayawada - APPCB",28-05-2024 14:00:00,16.554731,80.649110,PM10,54,104,60
India,Andhra_Pradesh,Vijayawada,"Rajiv Nagar, Vijayawada - APPCB",28-05-2024 14:00:00,16.554731,80.649110,NH3,2,3,3
India,Andhra_Pradesh,Vijayawada,"Rajiv Nagar, Vijayawada - APPCB",28-05-2024 14:00:00,16.554731,80.649110,CO,34,38,36
India,Andhra_Pradesh,Vijayawada,"Rajiv Nagar, Vijayawada - APPCB",28-05-2024 14:00:00,16.554731,80.649110,OZONE,18,33,23
India,Andhra_Pradesh,Visakhapatnam,"GVM Corporation, Visakhapatnam - APPCB",28-05-2024 14:00:00,17.72,83.3,NO2,38,82,48
India,Andhra_Pradesh,Visakhapatnam,"GVM Corporation, Visakhapatnam - APPCB",28-05-2024 14:00:00,17.72,83.3,SO2,9,24,15
India,Andhra_Pradesh,Visakhapatnam,"GVM Corporation, Visakhapatnam - APPCB",28-05-2024 14:00:00,17.72,83.3,OZONE,3,50,33
India,Arunachal_Pradesh,Naharlagun,"Naharlagun, Naharlagun - APSPCB",28-05-2024 14:00:00,27.103358,93.679645,SO2,4,4,4
India,Assam,Guwahati,"IITG, Guwahati - PCBA",28-05-2024 14:00:00,26.2028636,91.70046436,NH3,5,5,5
India,Assam,Guwahati,"LGBI Airport, Guwahati - PCBA",28-05-2024 14:00:00,26.10887,91.589544,NH3,1,2,1
India,Assam,Guwahati,"Pan Bazaar, Guwahati - PCBA",28-05-2024 14:00:00,26.187500,91.744194,PM2.5,NA,NA,NA
India,Assam,Guwahati,"Pan Bazaar, Guwahati - PCBA",28-05-2024 14:00:00,26.187500,91.744194,CO,NA,NA,NA
India,Assam,Guwahati,"Railway Colony, Guwahati - PCBA",28-05-2024 14:00:00,26.181742,91.78063,OZONE,NA,NA,NA
India,Assam,Nagaon,"Christianpatty, Nagaon - PCBA",28-05-2024 14:00:00,26.349082,92.68449,NH3,NA,NA,NA
India,Assam,Nagaon,"Christianpatty, Nagaon - PCBA",28-05-2024 14:00:00,26.349082,92.68449,OZONE,NA,NA,NA
India,Assam,Nalbari,"Bata Chowk, Nalbari - PCBA",28-05-2024 14:00:00,26.446912,91.439057,PM10,NA,NA,NA
India,Assam,Nalbari,"Bata Chowk, Nalbari - PCBA",28-05-2024 14:00:00,26.446912,91.439057,OZONE,2,66,23
India,Assam,Silchar,"Tarapur, Silchar - PCBA",28-05-2024 14:00:00,24.82827,92.79525,NH3,NA,NA,NA
India,Assam,Sivasagar,"Girls College, Sivasagar - PCBA",28-05-2024 14:00:00,26.987634,94.636574,NH3,2,2,2
India,Assam,Sivasagar,"Girls College, Sivasagar - PCBA",28-05-2024 14:00:00,26.987634,94.636574,SO2,4,6,5
India,Assam,Sivasagar,"Girls College, Sivasagar - PCBA",28-05-2024 14:00:00,26.987634,94.636574,CO,6,10,7
India,Bihar,Arrah,"New DM Office, Arrah - BSPCB",28-05-2024 14:00:00,25.5626095,84.663264,PM10,9,78,41
India,Bihar,Arrah,"New DM Office, Arrah - BSPCB",28-05-2024 14:00:00,25.5626095,84.663264,NO2,9,14,11
India,Bihar,Arrah,"New DM Office, Arrah - BSPCB",28-05-2024 14:00:00,25.5626095,84.663264,SO2,1,59,12
India,Bihar,Aurangabad,"Gurdeo Nagar, Aurangabad - BSPCB",28-05-2024 14:00:00,24.75746,84.366208,PM2.5,NA,NA,NA
India,Bihar,Aurangabad,"Gurdeo Nagar, Aurangabad - BSPCB",28-05-2024 14:00:00,24.75746,84.366208,CO,8,20,13
India,Bihar,Aurangabad,"Gurdeo Nagar, Aurangabad - BSPCB",28-05-2024 14:00:00,24.75746,84.366208,OZONE,19,122,64
India,Bihar,Bettiah,"Kamalnath Nagar, Bettiah - BSPCB",28-05-2024 14:00:00,26.80365,84.51954,NO2,NA,NA,NA
India,Bihar,Bettiah,"Kamalnath Nagar, Bettiah - BSPCB",28-05-2024 14:00:00,26.80365,84.51954,NH3,NA,NA,NA
India,Bihar,Bettiah,"Kamalnath Nagar, Bettiah - BSPCB",28-05-2024 14:00:00,26.80365,84.51954,OZONE,9,24,16
India,Bihar,Bhagalpur,"DM Office_Kachari Chowk, Bhagalpur - BSPCB",28-05-2024 14:00:00,25.251013,86.989001,PM2.5,5,38,19
India,Bihar,Bhagalpur,"DM Office_Kachari Chowk, Bhagalpur - BSPCB",28-05-2024 14:00:00,25.251013,86.989001,NH3,4,8,6
India,Bihar,Bhagalpur,"Mayaganj, Bhagalpur - BSPCB",28-05-2024 14:00:00,25.265194,87.012947,PM10,17,108,39
India,Bihar,Bihar Sharif,"D M Colony, Bihar Sharif - BSPCB",28-05-2024 14:00:00,25.204762,85.514960,PM2.5,17,263,63
India,Bihar,Gaya,"Kareemganj, Gaya - BSPCB",28-05-2024 14:00:00,24.792403,84.992416,PM2.5,7,60,30
India,Bihar,Gaya,"SFTI Kusdihra, Gaya - BSPCB",28-05-2024 14:00:00,24.762518,84.982348,PM10,42,104,56
India,Bihar,Hajipur,"Industrial Area, Hajipur - BSPCB",28-05-2024 14:00:00,25.697189,85.245900,NO2,17,41,27
India,Bihar,Hajipur,"Industrial Area, Hajipur - BSPCB",28-05-2024 14:00:00,25.697189,85.245900,NH3,7,15,12
India,Bihar,Katihar,"Mirchaibari, Katihar - BSPCB",28-05-2024 14:00:00,25.560083,87.553265,PM10,2,27,13
India,Bihar,Kishanganj,"SDM Office_Khagra, Kishanganj - BSPCB",28-05-2024 14:00:00,26.0881305,87.93840336,PM2.5,NA,NA,NA
India,Bihar,Kishanganj,"SDM Office_Khagra, Kishanganj - BSPCB",28-05-2024 14:00:00,26.0881305,87.93840336,NH3,8,10,9
India,Bihar,Manguraha,"Forest Rest House, Manguraha - BSPCB",28-05-2024 14:00:00,27.308328,84.531742,PM2.5,NA,NA,NA
India,Bihar,Manguraha,"Forest Rest House, Manguraha - BSPCB",28-05-2024 14:00:00,27.308328,84.531742,SO2,NA,NA,NA
India,Bihar,Munger,"Town Hall, Munger - BSPCB",28-05-2024 14:00:00,25.376776,86.471523,PM2.5,25,322,83
India,Bihar,Munger,"Town Hall, Munger - BSPCB",28-05-2024 14:00:00,25.376776,86.471523,PM10,22,175,63
India,Bihar,Munger,"Town Hall, Munger - BSPCB",28-05-2024 14:00:00,25.376776,86.471523,CO,14,83,46
India,Bihar,Muzaffarpur,"Buddha Colony, Muzaffarpur - BSPCB",28-05-2024 14:00:00,26.11442,85.39813,SO2,2,9,4
India,Bihar,Muzaffarpur,"Buddha Colony, Muzaffarpur - BSPCB",28-05-2024 14:00:00,26.11442,85.39813,CO,8,24,15
India,Bihar,Muzaffarpur,"MIT-Daudpur Kothi, Muzaffarpur - BSPCB",28-05-2024 14:00:00,26.1403345,85.3650192,NO2,3,5,5
India,Bihar,Muzaffarpur,"MIT-Daudpur Kothi, Muzaffarpur - BSPCB",28-05-2024 14:00:00,26.1403345,85.3650192,OZONE,8,27,16
India,Bihar,Muzaffarpur,"Muzaffarpur Collectorate, Muzaffarpur - BSPCB",28-05-2024 14:00:00,26.1209,85.3647,CO,28,54,46
India,Bihar,Muzaffarpur,"Muzaffarpur Collectorate, Muzaffarpur - BSPCB",28-05-2024 14:00:00,26.1209,85.3647,OZONE,73,103,83
India,Bihar,Patna,"DRM Office Danapur, Patna - BSPCB",28-05-2024 14:00:00,25.586562,85.043586,CO,19,32,24
India,Bihar,Patna,"Govt. High School Shikarpur, Patna - BSPCB",28-05-2024 14:00:00,25.592539,85.227158,PM2.5,37,51,45
India,Bihar,Patna,"Muradpur, Patna - BSPCB",28-05-2024 14:00:00,25.619651,85.147382,NH3,1,6,5
India,Bihar,Patna,"Rajbansi Nagar, Patna - BSPCB",28-05-2024 14:00:00,25.599486,85.113666,NO2,10,29,16
India,Bihar,Patna,"Rajbansi Nagar, Patna - BSPCB",28-05-2024 14:00:00,25.599486,85.113666,SO2,1,6,3
India,Bihar,Patna,"Rajbansi Nagar, Patna - BSPCB",28-05-2024 14:00:00,25.599486,85.113666,CO,10,38,18
India,Bihar,Patna,"Rajbansi Nagar, Patna - BSPCB",28-05-2024 14:00:00,25.599486,85.113666,OZONE,25,80,46
India,Bihar,Patna,"Samanpura, Patna - BSPCB",28-05-2024 14:00:00,25.596727,85.085624,NH3,NA,NA,NA
India,Bihar,Rajgir,"Dangi Tola, Rajgir - BSPCB",28-05-2024 14:00:00,25.03280,85.41948,NH3,2,2,2
India,Bihar,Rajgir,"Dangi Tola, Rajgir - BSPCB",28-05-2024 14:00:00,25.03280,85.41948,OZONE,30,37,33
India,Bihar,Saharsa,"Police Line, Saharsa - BSPCB",28-05-2024 14:00:00,25.892357,86.590325,NO2,6,8,7
India,Bihar,Saharsa,"Police Line, Saharsa - BSPCB",28-05-2024 14:00:00,25.892357,86.590325,OZONE,6,65,28
India,Bihar,Samastipur,"DM Office_Kasipur, Samastipur - BSPCB",28-05-2024 14:00:00,25.859655,85.77944,OZONE,1,10,5
India,Bihar,Sasaram,"Dada Peer, Sasaram - BSPCB",28-05-2024 14:00:00,24.952822,84.002396,NO2,NA,NA,NA
India,Bihar,Sasaram,"Dada Peer, Sasaram - BSPCB",28-05-2024 14:00:00,24.952822,84.002396,NH3,NA,NA,NA
India,Chandigarh,Chandigarh,"Sector 22, Chandigarh - CPCC",28-05-2024 14:00:00,30.735567,76.775714,CO,35,88,47
India,Chandigarh,Chandigarh,"Sector-25, Chandigarh - CPCC",28-05-2024 14:00:00,30.751462,76.762879,PM2.5,28,218,155
India,Chandigarh,Chandigarh,"Sector-25, Chandigarh - CPCC",28-05-2024 14:00:00,30.751462,76.762879,NO2,3,51,19
India,Chandigarh,Chandigarh,"Sector-53, Chandigarh - CPCC",28-05-2024 14:00:00,30.719859,76.738637,NO2,6,121,50
India,Chandigarh,Chandigarh,"Sector-53, Chandigarh - CPCC",28-05-2024 14:00:00,30.719859,76.738637,NH3,6,8,7
India,Chandigarh,Chandigarh,"Sector-53, Chandigarh - CPCC",28-05-2024 14:00:00,30.719859,76.738637,CO,32,116,47
India,Chhattisgarh,Bhilai,"32Bungalows, Bhilai - CECB",28-05-2024 14:00:00,21.194815,81.314770,PM2.5,51,72,59
India,Chhattisgarh,Bhilai,"Hathkhoj, Bhilai - CECB",28-05-2024 14:00:00,21.224231,81.408350,PM10,49,158,91
India,Chhattisgarh,Bilaspur,"Mangala, Bilaspur - NTPC",28-05-2024 14:00:00,22.08815,82.13737,PM10,50,98,75
India,Chhattisgarh,Bilaspur,"Mangala, Bilaspur - NTPC",28-05-2024 14:00:00,22.08815,82.13737,SO2,9,16,12
India,Chhattisgarh,Chhal,"Nawapara SECL Colony, Chhal - CECB",28-05-2024 14:00:00,22.118125,83.140608,NH3,2,2,2
India,Chhattisgarh,Korba,"Rampur, Korba - CECB",28-05-2024 14:00:00,22.368195,82.746431,CO,17,32,25
India,Chhattisgarh,Korba,"Urja Nagar, Korba - CECB",28-05-2024 14:00:00,22.348441,82.549611,SO2,NA,NA,NA
India,Chhattisgarh,Kunjemura,"OP Jindal School, Kunjemura - CECB",28-05-2024 14:00:00,22.126650,83.483212,NO2,11,107,52
India,Chhattisgarh,Kunjemura,"OP Jindal School, Kunjemura - CECB",28-05-2024 14:00:00,22.126650,83.483212,NH3,1,3,2
India,Chhattisgarh,Kunjemura,"OP Jindal School, Kunjemura - CECB",28-05-2024 14:00:00,22.126650,83.483212,SO2,1,8,5
India,Chhattisgarh,Raipur,"AIIMS, Raipur - CECB",28-05-2024 14:00:00,21.258815,81.578979,SO2,6,18,11
India,Chhattisgarh,Raipur,"Krishak Nagar, Raipur - CECB",28-05-2024 14:00:00,21.237755,81.705301,PM10,40,82,60
India,Chhattisgarh,Raipur,"Siltara Phase-II, Raipur - CECB",28-05-2024 14:00:00,21.371751,81.664929,CO,17,79,33
India,Chhattisgarh,Tumidih,"OP Jindal Industrial Park, Tumidih - CECB",28-05-2024 14:00:00,22.06631475,83.33820077,SO2,5,9,7
India,Chhattisgarh,Tumidih,"OP Jindal Industrial Park, Tumidih - CECB",28-05-2024 14:00:00,22.06631475,83.33820077,CO,17,86,42
India,Delhi,Delhi,"Alipur, Delhi - DPCC",28-05-2024 14:00:00,28.815329,77.153010,PM10,133,444,287
India,Delhi,Delhi,"Anand Vihar, Delhi - DPCC",28-05-2024 14:00:00,28.647622,77.3158090,NH3,5,13,9
India,Delhi,Delhi,"Anand Vihar, Delhi - DPCC",28-05-2024 14:00:00,28.647622,77.3158090,SO2,12,54,32
India,Delhi,Delhi,"Ashok Vihar, Delhi - DPCC",28-05-2024 14:00:00,28.695381,77.181665,PM2.5,48,362,181
India,Delhi,Delhi,"Ashok Vihar, Delhi - DPCC",28-05-2024 14:00:00,28.695381,77.181665,PM10,149,431,243
India,Delhi,Delhi,"Ashok Vihar, Delhi - DPCC",28-05-2024 14:00:00,28.695381,77.181665,OZONE,7,278,278
India,Delhi,Delhi,"Aya Nagar, Delhi - IMD",28-05-2024 14:00:00,28.4706914,77.1099364,PM2.5,50,368,144
India,Delhi,Delhi,"Aya Nagar, Delhi - IMD",28-05-2024 14:00:00,28.4706914,77.1099364,NO2,10,18,14
India,Delhi,Delhi,"Bawana, Delhi - DPCC",28-05-2024 14:00:00,28.776200,77.051074,PM10,153,463,287
India,Delhi,Delhi,"CRRI Mathura Road, Delhi - IMD",28-05-2024 14:00:00,28.5512005,77.2735737,PM2.5,76,317,192
India,Delhi,Delhi,"Chandni Chowk, Delhi - IITM",28-05-2024 14:00:00,28.656756,77.227234,PM10,NA,NA,NA
India,Delhi,Delhi,"Chandni Chowk, Delhi - IITM",28-05-2024 14:00:00,28.656756,77.227234,NH3,NA,NA,NA
India,Delhi,Delhi,"Chandni Chowk, Delhi - IITM",28-05-2024 14:00:00,28.656756,77.227234,CO,48,61,52
India,Delhi,Delhi,"DTU, Delhi - CPCB",28-05-2024 14:00:00,28.7500499,77.1112615,PM2.5,114,350,270
India,Delhi,Delhi,"DTU, Delhi - CPCB",28-05-2024 14:00:00,28.7500499,77.1112615,NH3,17,42,29
India,Delhi,Delhi,"IGI Airport (T3), Delhi - IMD",28-05-2024 14:00:00,28.5627763,77.1180053,PM2.5,29,301,148
India,Delhi,Delhi,"IGI Airport (T3), Delhi - IMD",28-05-2024 14:00:00,28.5627763,77.1180053,OZONE,4,80,40
India,Delhi,Delhi,"IHBAS, Dilshad Garden, Delhi - CPCB",28-05-2024 14:00:00,28.6811736,77.3025234,SO2,9,34,20
India,Delhi,Delhi,"ITO, Delhi - CPCB",28-05-2024 14:00:00,28.628624,77.241060,NO2,10,105,62
India,Delhi,Delhi,"ITO, Delhi - CPCB",28-05-2024 14:00:00,28.628624,77.241060,CO,8,140,43
India,Delhi,Delhi,"Jahangirpuri, Delhi - DPCC",28-05-2024 14:00:00,28.732820,77.170633,SO2,36,112,80
India,Delhi,Delhi,"Jahangirpuri, Delhi - DPCC",28-05-2024 14:00:00,28.732820,77.170633,CO,34,146,76
India,Delhi,Delhi,"Jahangirpuri, Delhi - DPCC",28-05-2024 14:00:00,28.732820,77.170633,OZONE,1,268,226
India,Delhi,Delhi,"Jawaharlal Nehru Stadium, Delhi - DPCC",28-05-2024 14:00:00,28.580280,77.233829,PM2.5,40,200,115
India,Delhi,Delhi,"Jawaharlal Nehru Stadium, Delhi - DPCC",28-05-2024 14:00:00,28.580280,77.233829,OZONE,3,239,79
India,Delhi,Delhi,"Lodhi Road, Delhi - IITM",28-05-2024 14:00:00,28.588333,77.221667,PM2.5,62,279,136
India,Delhi,Delhi,"Lodhi Road, Delhi - IITM",28-05-2024 14:00:00,28.588333,77.221667,SO2,15,55,32
India,Delhi,Delhi,"Lodhi Road, Delhi - IMD",28-05-2024 14:00:00,28.5918245,77.2273074,PM10,121,484,211
India,Delhi,Delhi,"Lodhi Road, Delhi - IMD",28-05-2024 14:00:00,28.5918245,77.2273074,CO,14,74,37
India,Delhi,Delhi,"Major Dhyan Chand National Stadium, Delhi - DPCC",28-05-2024 14:00:00,28.611281,77.237738,PM2.5,103,331,248
India,Delhi,Delhi,"Mandir Marg, Delhi - DPCC",28-05-2024 14:00:00,28.636429,77.201067,CO,30,105,58
India,Delhi,Delhi,"Mandir Marg, Delhi - DPCC",28-05-2024 14:00:00,28.636429,77.201067,OZONE,8,196,112
India,Delhi,Delhi,"Okhla Phase-2, Delhi - DPCC",28-05-2024 14:00:00,28.530785,77.271255,NO2,26,192,91
India,Delhi,Delhi,"Okhla Phase-2, Delhi - DPCC",28-05-2024 14:00:00,28.530785,77.271255,CO,55,118,75
India,Delhi,Delhi,"Patparganj, Delhi - DPCC",28-05-2024 14:00:00,28.623763,77.287209,OZONE,1,261,261
India,Delhi,Delhi,"Pusa, Delhi - DPCC",28-05-2024 14:00:00,28.639652,77.146275,NO2,49,175,112
India,Delhi,Delhi,"Pusa, Delhi - IMD",28-05-2024 14:00:00,28.636110,77.173332,PM10,NA,NA,NA
India,Delhi,Delhi,"Pusa, Delhi - IMD",28-05-2024 14:00:00,28.636110,77.173332,OZONE,NA,NA,NA
India,Delhi,Delhi,"R K Puram, Delhi - DPCC",28-05-2024 14:00:00,28.563262,77.186937,PM2.5,70,345,227
India,Delhi,Delhi,"Rohini, Delhi - DPCC",28-05-2024 14:00:00,28.732528,77.119920,NH3,6,11,9
India,Delhi,Delhi,"Rohini, Delhi - DPCC",28-05-2024 14:00:00,28.732528,77.119920,SO2,13,74,30
India,Delhi,Delhi,"Rohini, Delhi - DPCC",28-05-2024 14:00:00,28.732528,77.119920,CO,16,135,47
India,Delhi,Delhi,"Rohini, Delhi - DPCC",28-05-2024 14:00:00,28.732528,77.119920,OZONE,5,245,231
India,Delhi,Delhi,"Shadipur, Delhi - CPCB",28-05-2024 14:00:00,28.6514781,77.1473105,SO2,3,113,33
India,Delhi,Delhi,"Sri Aurobindo Marg, Delhi - DPCC",28-05-2024 14:00:00,28.531346,77.190156,PM2.5,48,292,136
India,Delhi,Delhi,"Sri Aurobindo Marg, Delhi - DPCC",28-05-2024 14:00:00,28.531346,77.190156,PM10,134,212,167
India,Delhi,Delhi,"Sri Aurobindo Marg, Delhi - DPCC",28-05-2024 14:00:00,28.531346,77.190156,NO2,5,110,48
India,Delhi,Delhi,"Vivek Vihar, Delhi - DPCC",28-05-2024 14:00:00,28.672342,77.315260,CO,12,142,99
India,Delhi,Delhi,"Wazirpur, Delhi - DPCC",28-05-2024 14:00:00,28.699793,77.165453,NH3,5,13,10
India,Delhi,Delhi,"Wazirpur, Delhi - DPCC",28-05-2024 14:00:00,28.699793,77.165453,SO2,15,102,34
India,Gujarat,Ahmedabad,"Chandkheda, Ahmedabad - IITM",28-05-2024 14:00:00,23.107969,72.574648,PM2.5,59,196,102
India,Gujarat,Ahmedabad,"Gyaspur, Ahmedabad - IITM",28-05-2024 14:00:00,22.977134,72.553024,OZONE,89,116,115
India,Gujarat,Ahmedabad,"Maninagar, Ahmedabad - GPCB",28-05-2024 14:00:00,23.002657,72.591912,SO2,NA,NA,NA
India,Gujarat,Ahmedabad,"Maninagar, Ahmedabad - GPCB",28-05-2024 14:00:00,23.002657,72.591912,OZONE,71,118,95
India,Gujarat,Ahmedabad,"Raikhad, Ahmedabad - IITM",28-05-2024 14:00:00,23.020509,72.579261,PM2.5,NA,NA,NA
India,Gujarat,Ahmedabad,"SVPI Airport Hansol, Ahmedabad - IITM",28-05-2024 14:00:00,23.076793,72.627874,NH3,5,6,5
India,Gujarat,Ahmedabad,"Sardar Vallabhbhai Patel Stadium, Ahmedabad - IITM",28-05-2024 14:00:00,23.043070,72.562968,PM2.5,19,197,95
India,Gujarat,Ahmedabad,"Sardar Vallabhbhai Patel Stadium, Ahmedabad - IITM",28-05-2024 14:00:00,23.043070,72.562968,CO,48,51,49
India,Gujarat,Ankleshwar,"GIDC, Ankleshwar - GPCB",28-05-2024 14:00:00,21.613267,73.010555,PM2.5,23,64,41
India,Haryana,Ambala,"Patti Mehar, Ambala - HSPCB",28-05-2024 14:00:00,30.379589,76.778328,PM10,48,96,75
India,Haryana,Ambala,"Patti Mehar, Ambala - HSPCB",28-05-2024 14:00:00,30.379589,76.778328,NH3,5,12,8
India,Haryana,Bahadurgarh,"Arya Nagar, Bahadurgarh - HSPCB",28-05-2024 14:00:00,28.6701,76.9254,SO2,9,120,43
India,Haryana,Ballabgarh,"Nathu Colony, Ballabgarh - HSPCB",28-05-2024 14:00:00,28.3419248,77.319699,SO2,4,17,14
India,Haryana,Bhiwani,"H.B. Colony, Bhiwani - HSPCB",28-05-2024 14:00:00,28.806223,76.141105,OZONE,8,100,14
India,Haryana,Charkhi Dadri,"Mini Secretariat, Charkhi Dadri - HSPCB",28-05-2024 14:00:00,28.593883,76.270653,NO2,15,23,18
India,Haryana,Charkhi Dadri,"Mini Secretariat, Charkhi Dadri - HSPCB",28-05-2024 14:00:00,28.593883,76.270653,SO2,6,47,19
India,Haryana,Dharuhera,"Municipal Corporation Office, Dharuhera -  HSPCB",28-05-2024 14:00:00,28.206800,76.799700,CO,5,71,32
India,Haryana,Faridabad,"New Industrial Town, Faridabad - HSPCB",28-05-2024 14:00:00,28.39072,77.30059,PM2.5,278,500,365
India,Haryana,Faridabad,"New Industrial Town, Faridabad - HSPCB",28-05-2024 14:00:00,28.39072,77.30059,OZONE,1,181,151
India,Haryana,Faridabad,"Sector 11, Faridabad - HSPCB",28-05-2024 14:00:00,28.376058,77.315741,NO2,30,33,31
India,Haryana,Faridabad,"Sector 11, Faridabad - HSPCB",28-05-2024 14:00:00,28.376058,77.315741,NH3,6,6,6
India,Haryana,Faridabad,"Sector 11, Faridabad - HSPCB",28-05-2024 14:00:00,28.376058,77.315741,SO2,3,116,19
India,Haryana,Faridabad,"Sector 30, Faridabad - HSPCB",28-05-2024 14:00:00,28.4417,77.3217,PM10,NA,NA,NA
India,Haryana,Faridabad,"Sector 30, Faridabad - HSPCB",28-05-2024 14:00:00,28.4417,77.3217,SO2,NA,NA,NA
India,Haryana,Faridabad,"Sector- 16A, Faridabad - HSPCB",28-05-2024 14:00:00,28.4088421,77.3099081,SO2,11,31,25
India,Haryana,Fatehabad,"Huda Sector, Fatehabad - HSPCB",28-05-2024 14:00:00,29.503664,75.467934,NO2,29,31,30
India,Haryana,Fatehabad,"Huda Sector, Fatehabad - HSPCB",28-05-2024 14:00:00,29.503664,75.467934,NH3,10,11,10
India,Haryana,Fatehabad,"Huda Sector, Fatehabad - HSPCB",28-05-2024 14:00:00,29.503664,75.467934,SO2,5,11,9
India,Haryana,Gurugram,"Sector-51, Gurugram - HSPCB",28-05-2024 14:00:00,28.4227,77.0667,SO2,2,6,4
India,Haryana,Gurugram,"Teri Gram, Gurugram - HSPCB",28-05-2024 14:00:00,28.4275,77.1465,NO2,25,124,76
India,Haryana,Gurugram,"Teri Gram, Gurugram - HSPCB",28-05-2024 14:00:00,28.4275,77.1465,CO,4,54,26
India,Haryana,Gurugram,"Vikas Sadan, Gurugram - HSPCB",28-05-2024 14:00:00,28.4501238,77.0263051,OZONE,8,67,35
India,Haryana,Jind,"Police Lines, Jind - HSPCB",28-05-2024 14:00:00,29.307814,76.337619,CO,2,104,25
India,Haryana,Kaithal,"Rishi Nagar, Kaithal - HSPCB",28-05-2024 14:00:00,29.8006,76.4155,NO2,NA,NA,NA
India,Haryana,Karnal,"Sector-12, Karnal - HSPCB",28-05-2024 14:00:00,29.695300,77.002700,SO2,12,13,12
India,Haryana,Karnal,"Sector-12, Karnal - HSPCB",28-05-2024 14:00:00,29.695300,77.002700,CO,8,55,37
India,Haryana,Kurukshetra,"Sector-7, Kurukshetra - HSPCB",28-05-2024 14:00:00,29.966942,76.875879,OZONE,45,116,96
India,Haryana,Narnaul,"Shastri Nagar, Narnaul - HSPCB",28-05-2024 14:00:00,28.060249,76.113115,PM2.5,110,346,194
India,Haryana,Narnaul,"Shastri Nagar, Narnaul - HSPCB",28-05-2024 14:00:00,28.060249,76.113115,PM10,116,307,154
India,Haryana,Narnaul,"Shastri Nagar, Narnaul - HSPCB",28-05-2024 14:00:00,28.060249,76.113115,SO2,13,45,18
India,Haryana,Narnaul,"Shastri Nagar, Narnaul - HSPCB",28-05-2024 14:00:00,28.060249,76.113115,CO,8,66,35
India,Haryana,Narnaul,"Shastri Nagar, Narnaul - HSPCB",28-05-2024 14:00:00,28.060249,76.113115,OZONE,56,78,72
India,Haryana,Palwal,"Shyam Nagar, Palwal - HSPCB",28-05-2024 14:00:00,28.1485564,77.3320667,NH3,8,9,9
India,Haryana,Panchkula,"Sector-6, Panchkula - HSPCB ",28-05-2024 14:00:00,30.7057778,76.8531805555555,SO2,2,22,7
India,Haryana,Panchkula,"Sector-6, Panchkula - HSPCB ",28-05-2024 14:00:00,30.7057778,76.8531805555555,CO,7,22,16
India,Haryana,Rohtak,"MD University, Rohtak - HSPCB",28-05-2024 14:00:00,28.52123,76.37138,CO,14,88,41
India,Haryana,Sirsa,"F-Block, Sirsa - HSPCB",28-05-2024 14:00:00,29.536400,75.015800,NO2,9,11,10
India,Haryana,Sirsa,"F-Block, Sirsa - HSPCB",28-05-2024 14:00:00,29.536400,75.015800,NH3,11,13,13
India,Haryana,Sirsa,"F-Block, Sirsa - HSPCB",28-05-2024 14:00:00,29.536400,75.015800,CO,58,86,76
India,Haryana,Yamuna Nagar,"Gobind Pura, Yamuna Nagar - HSPCB",28-05-2024 14:00:00,30.1480566,77.2893471,PM10,92,148,115
India,Himachal Pradesh,Baddi,"HIMUDA Complex Phase-1, Baddi - HPPCB",28-05-2024 14:00:00,30.943887,76.801991,CO,20,80,31
India,Jharkhand,Dhanbad,"Kalakusuma, Dhanbad - DMC",28-05-2024 14:00:00,23.811548,86.481238,CO,NA,NA,NA
India,Jharkhand,Dhanbad,"Sardar Patel Nagar, Dhanbad - JSPCB",28-05-2024 14:00:00,23.80569,86.44268,SO2,NA,NA,NA
India,Karnataka,Belgaum,"Ramteerth Nagar, Belgaum - KSPCB",28-05-2024 14:00:00,15.888653,74.541751,PM2.5,11,25,18
India,Karnataka,Belgaum,"Ramteerth Nagar, Belgaum - KSPCB",28-05-2024 14:00:00,15.888653,74.541751,PM10,22,50,35
India,Karnataka,Bengaluru,"Hebbal, Bengaluru - KSPCB",28-05-2024 14:00:00,13.029152,77.585901,CO,4,26,18
India,Karnataka,Bengaluru,"Kasturi Nagar, Bengaluru - KSPCB",28-05-2024 14:00:00,13.003872,77.664217,NO2,16,17,17
India,Karnataka,Bengaluru,"Peenya, Bengaluru - CPCB",28-05-2024 14:00:00,13.0270199,77.494094,PM2.5,33,45,37
India,Karnataka,Bengaluru,"Peenya, Bengaluru - CPCB",28-05-2024 14:00:00,13.0270199,77.494094,NH3,2,4,3
India,Karnataka,Bengaluru,"RVCE-Mailasandra, Bengaluru - KSPCB",28-05-2024 14:00:00,12.921418,77.502466,NO2,16,17,17
India,Karnataka,Bengaluru,"RVCE-Mailasandra, Bengaluru - KSPCB",28-05-2024 14:00:00,12.921418,77.502466,SO2,8,10,8
India,Karnataka,Bengaluru,"RVCE-Mailasandra, Bengaluru - KSPCB",28-05-2024 14:00:00,12.921418,77.502466,CO,29,48,37
India,Karnataka,Bengaluru,"Sanegurava Halli, Bengaluru - KSPCB",28-05-2024 14:00:00,12.990328,77.5431385,CO,12,28,20
India,Karnataka,Bengaluru,"Shivapura_Peenya, Bengaluru - KSPCB",28-05-2024 14:00:00,13.0246342,77.5080115,SO2,2,7,4
India,Karnataka,Bidar,"Naubad, Bidar - KSPCB",28-05-2024 14:00:00,17.930306,77.482194,NO2,6,8,7
India,Karnataka,Chamarajanagar,"Urban, Chamarajanagar - KSPCB",28-05-2024 14:00:00,11.55358,76.55521,NO2,22,36,29
India,Karnataka,Chikkaballapur,"Chikkaballapur Rural, Chikkaballapur - KSPCB",28-05-2024 14:00:00,13.428828,77.731418,PM2.5,25,50,37
India,Karnataka,Chikkaballapur,"Chikkaballapur Rural, Chikkaballapur - KSPCB",28-05-2024 14:00:00,13.428828,77.731418,CO,10,20,16
India,Karnataka,Dharwad,"Kalabhavan, Dharwad - KSPCB",28-05-2024 14:00:00,15.459706,75.008381,NH3,2,3,3
India,Karnataka,Gadag,"Panchal Nagar, Gadag - KSPCB",28-05-2024 14:00:00,15.411456,75.638133,PM2.5,17,42,29
India,Karnataka,Haveri,"Ashwini Nagar, Haveri - KSPCB",28-05-2024 14:00:00,14.791800,75.389600,CO,38,38,38
India,Karnataka,Hubballi,"Lingaraj Nagar, Hubballi - KSPCB",28-05-2024 14:00:00,15.3714823,75.1160168,SO2,1,2,1
India,Karnataka,Kalaburagi,"Lal Bahadur Shastri Nagar, Kalaburagi - KSPCB",28-05-2024 14:00:00,17.321993,76.822628,PM10,18,128,53
India,Karnataka,Kalaburagi,"Lal Bahadur Shastri Nagar, Kalaburagi - KSPCB",28-05-2024 14:00:00,17.321993,76.822628,CO,44,50,47
India,Karnataka,Kalaburagi,"Mahatma Basaveswar Colony, Kalaburgi - KSPCB",28-05-2024 14:00:00,17.336318,76.847397,SO2,NA,NA,NA
India,Karnataka,Kolar,"Tamaka Ind. Area, Kolar - KSPCB",28-05-2024 14:00:00,13.1276288,78.1570122,CO,14,22,18
India,Karnataka,Madikeri,"Stuart Hill, Madikeri - KSPCB",28-05-2024 14:00:00,12.415911,75.735050,PM10,17,44,32
India,Karnataka,Mangalore,"Kadri, Mangalore - KSPCB",28-05-2024 14:00:00,12.889250,74.853000,PM2.5,24,45,33
India,Karnataka,Mangalore,"Kadri, Mangalore - KSPCB",28-05-2024 14:00:00,12.889250,74.853000,PM10,57,99,76
India,Karnataka,Mangalore,"Kadri, Mangalore - KSPCB",28-05-2024 14:00:00,12.889250,74.853000,SO2,23,30,25
India,Karnataka,Raichur,"Haji Colony, Raichur - KSPCB",28-05-2024 14:00:00,16.208139,77.348417,PM2.5,10,28,17
India,Karnataka,Ramanagara,"Vijay Nagar, Ramanagara - KSPCB",28-05-2024 14:00:00,12.733409,77.298051,SO2,32,46,37
India,Karnataka,Shivamogga,"Vinoba Nagara, Shivamogga - KSPCB",28-05-2024 14:00:00,13.940000,75.555917,SO2,4,12,6
India,Karnataka,Udupi,"Brahmagiri, Udupi - KSPCB",28-05-2024 14:00:00,13.34194444,74.74694444,PM2.5,18,39,29
India,Karnataka,Vijayapura,"Ibrahimpur, Vijayapura - KSPCB",28-05-2024 14:00:00,16.802639,75.722694,PM10,41,44,42
India,Karnataka,Yadgir,"Collector Office, Yadgir - KSPCB",28-05-2024 14:00:00,16.7602,77.1428,NH3,1,5,3
India,Kerala,Eloor,"Udyogamandal, Eloor - Kerala PCB",28-05-2024 14:00:00,10.073232,76.302765,OZONE,11,14,12
India,Kerala,Kannur,"Thavakkara, Kannur - Kerala PCB",28-05-2024 14:00:00,11.875000,75.373200,SO2,NA,NA,NA
India,Kerala,Kollam,"Polayathode, Kollam - Kerala PCB",28-05-2024 14:00:00,8.8787,76.6073,NO2,NA,NA,NA
India,Kerala,Thiruvananthapuram,"Kariavattom, Thiruvananthapuram - Kerala PCB",28-05-2024 14:00:00,8.563700,76.886500,NH3,1,1,1
India,Kerala,Thrissur,"Corporation Ground, Thrissur - Kerala PCB",28-05-2024 14:00:00,10.532400,76.215900,SO2,NA,NA,NA
India,Madhya Pradesh,Bhopal,"Paryavaran Parisar, Bhopal - MPPCB",28-05-2024 14:00:00,23.210494,77.425409,NH3,3,9,5
India,Madhya Pradesh,Bhopal,"T T Nagar, Bhopal - MPPCB",28-05-2024 14:00:00,23.233584,77.400574,OZONE,17,82,38
India,Madhya Pradesh,Dewas,"Bhopal Chauraha, Dewas - MPPCB",28-05-2024 14:00:00,22.9682591,76.064118,NH3,3,3,3
India,Madhya Pradesh,Dewas,"Bhopal Chauraha, Dewas - MPPCB",28-05-2024 14:00:00,22.9682591,76.064118,CO,8,32,15
India,Madhya Pradesh,Gwalior,"Deen Dayal Nagar, Gwalior - MPPCB",28-05-2024 14:00:00,26.259242,78.216432,PM10,90,407,186
India,Madhya Pradesh,Gwalior,"Deen Dayal Nagar, Gwalior - MPPCB",28-05-2024 14:00:00,26.259242,78.216432,SO2,3,111,15
India,Madhya Pradesh,Gwalior,"Maharaj Bada, Gwalior - MPPCB",28-05-2024 14:00:00,26.200388,78.147714,NH3,3,20,7
India,Madhya Pradesh,Gwalior,"Maharaj Bada, Gwalior - MPPCB",28-05-2024 14:00:00,26.200388,78.147714,SO2,9,21,13
India,Madhya Pradesh,Gwalior,"Phool Bagh, Gwalior - Mondelez Ind. Food",28-05-2024 14:00:00,26.210536,78.171,PM2.5,32,258,134
India,Madhya Pradesh,Gwalior,"Phool Bagh, Gwalior - Mondelez Ind. Food",28-05-2024 14:00:00,26.210536,78.171,PM10,29,141,96
India,Madhya Pradesh,Gwalior,"Phool Bagh, Gwalior - Mondelez Ind. Food",28-05-2024 14:00:00,26.210536,78.171,NO2,4,5,4
India,Madhya Pradesh,Indore,"Chhoti Gwaltoli, Indore - MPPCB",28-05-2024 14:00:00,22.4310,75.5213,PM2.5,29,131,64
India,Madhya Pradesh,Indore,"Chhoti Gwaltoli, Indore - MPPCB",28-05-2024 14:00:00,22.4310,75.5213,NO2,32,91,52
India,Madhya Pradesh,Indore,"Chhoti Gwaltoli, Indore - MPPCB",28-05-2024 14:00:00,22.4310,75.5213,CO,22,82,41
India,Madhya Pradesh,Indore,"Regional Park, Indore - IMC",28-05-2024 14:00:00,22.6780,75.8559,PM2.5,45,80,61
India,Madhya Pradesh,Indore,"Regional Park, Indore - IMC",28-05-2024 14:00:00,22.6780,75.8559,OZONE,6,35,11
India,Madhya Pradesh,Indore,"Residency Area, Indore - IMC",28-05-2024 14:00:00,22.7084,75.8815,PM10,50,101,72
India,Madhya Pradesh,Indore,"Residency Area, Indore - IMC",28-05-2024 14:00:00,22.7084,75.8815,SO2,27,33,30
India,Madhya Pradesh,Jabalpur,"Govindh Bhavan Colony, Jabalpur - JMC",28-05-2024 14:00:00,23.163174,79.973061,PM10,77,120,103
India,Madhya Pradesh,Jabalpur,"Gupteshwar, Jabalpur - JMC",28-05-2024 14:00:00,23.142888,79.916147,NH3,5,5,5
India,Madhya Pradesh,Jabalpur,"Gupteshwar, Jabalpur - JMC",28-05-2024 14:00:00,23.142888,79.916147,CO,23,53,25
India,Madhya Pradesh,Jabalpur,"Marhatal, Jabalpur - MPPCB",28-05-2024 14:00:00,23.168606,79.932247,NO2,10,88,34
India,Madhya Pradesh,Jabalpur,"Marhatal, Jabalpur - MPPCB",28-05-2024 14:00:00,23.168606,79.932247,NH3,3,7,4
India,Madhya Pradesh,Jabalpur,"Suhagi, Jabalpur - JMC",28-05-2024 14:00:00,23.218135,79.957770,PM2.5,33,95,59
India,Madhya Pradesh,Katni,"Gole Bazar, Katni - MPPCB",28-05-2024 14:00:00,23.50016,80.23284,NH3,2,6,4
India,Madhya Pradesh,Mandideep,"Sector-D Industrial Area, Mandideep - MPPCB",28-05-2024 14:00:00,23.108440,77.511428,CO,17,76,33
India,Madhya Pradesh,Pithampur,"Sector-2 Industrial Area, Pithampur - MPPCB",28-05-2024 14:00:00,22.624758,75.675238,PM2.5,25,77,47
India,Madhya Pradesh,Pithampur,"Sector-2 Industrial Area, Pithampur - MPPCB",28-05-2024 14:00:00,22.624758,75.675238,NH3,2,3,2
India,Madhya Pradesh,Ratlam,"Shasthri Nagar, Ratlam - IPCA Lab",28-05-2024 14:00:00,23.331731,75.045981,PM2.5,13,186,59
India,Madhya Pradesh,Ratlam,"Shasthri Nagar, Ratlam - IPCA Lab",28-05-2024 14:00:00,23.331731,75.045981,SO2,29,31,30
India,Madhya Pradesh,Satna,"Bandhavgar Colony, Satna - Birla Cement",28-05-2024 14:00:00,24.58434363,80.8549414,PM2.5,31,104,66
India,Madhya Pradesh,Singrauli,"Suryakiran Bhawan NCL, Singrauli - MPPCB",28-05-2024 14:00:00,24.108970,82.645580,SO2,13,100,37
India,Maharashtra,Ahmednagar,"Tarakpur, Ahmednagar - MPCB",28-05-2024 14:00:00,19.10122,74.73339,NO2,8,18,12
India,Maharashtra,Ahmednagar,"Tarakpur, Ahmednagar - MPCB",28-05-2024 14:00:00,19.10122,74.73339,NH3,2,7,5
India,Maharashtra,Ahmednagar,"Tarakpur, Ahmednagar - MPCB",28-05-2024 14:00:00,19.10122,74.73339,SO2,8,24,16
India,Maharashtra,Akola,"Ramdaspeth, Akola - MPCB",28-05-2024 14:00:00,20.719516,77.000253,PM10,73,120,96
India,Maharashtra,Akola,"Ramdaspeth, Akola - MPCB",28-05-2024 14:00:00,20.719516,77.000253,NH3,2,11,6
India,Maharashtra,Akola,"Ramdaspeth, Akola - MPCB",28-05-2024 14:00:00,20.719516,77.000253,SO2,11,21,16
India,Maharashtra,Amravati,"Shivneri Colony, Amravati - MPCB",28-05-2024 14:00:00,20.9402359,77.7895248,SO2,1,18,5
India,Maharashtra,Amravati,"Shivneri Colony, Amravati - MPCB",28-05-2024 14:00:00,20.9402359,77.7895248,CO,10,36,18
India,Maharashtra,Amravati,"Shri Shivaji Science College, Amaravati - MPCB",28-05-2024 14:00:00,20.939198,77.765701,PM2.5,33,77,46
India,Maharashtra,Amravati,"Shri Shivaji Science College, Amaravati - MPCB",28-05-2024 14:00:00,20.939198,77.765701,NO2,6,18,9
India,Maharashtra,Amravati,"Shri Shivaji Science College, Amaravati - MPCB",28-05-2024 14:00:00,20.939198,77.765701,SO2,2,7,4
India,Maharashtra,Aurangabad,"MIDC Chilkalthana, Aurangabad - MPCB",28-05-2024 14:00:00,19.875620,75.387310,NH3,NA,NA,NA
India,Maharashtra,Aurangabad,"More Chowk Waluj, Aurangabad - MPCB",28-05-2024 14:00:00,19.8389439,75.244448,NO2,40,48,44
India,Maharashtra,Aurangabad,"More Chowk Waluj, Aurangabad - MPCB",28-05-2024 14:00:00,19.8389439,75.244448,SO2,1,15,5
India,Maharashtra,Aurangabad,"Rachnakar Colony, Aurangabad - MPCB",28-05-2024 14:00:00,19.863756,75.321188,PM10,89,409,152
India,Maharashtra,Aurangabad,"Rachnakar Colony, Aurangabad - MPCB",28-05-2024 14:00:00,19.863756,75.321188,NO2,14,29,20
India,Maharashtra,Badlapur,"Katrap, Badlapur - MPCB",28-05-2024 14:00:00,19.16485,73.23409,NO2,8,36,20
India,Maharashtra,Belapur,"CBD Belapur, Belapur - MPCB",28-05-2024 14:00:00,19.0243902,73.0406721,SO2,6,12,9
India,Maharashtra,Belapur,"CBD Belapur, Belapur - MPCB",28-05-2024 14:00:00,19.0243902,73.0406721,CO,6,23,13
India,Maharashtra,Bhiwandi,"Gokul Nagar, Bhiwandi - MPCB",28-05-2024 14:00:00,19.309073,73.057223,SO2,7,15,11
India,Maharashtra,Chandrapur,"Chauhan Colony, Chandrapur - MPCB",28-05-2024 14:00:00,19.962900,79.298714,PM10,82,111,94
India,Maharashtra,Dhule,"Deopur, Dhule - MPCB",28-05-2024 14:00:00,20.918946,74.776388,PM10,86,154,117
India,Maharashtra,Dhule,"Deopur, Dhule - MPCB",28-05-2024 14:00:00,20.918946,74.776388,SO2,9,21,15
India,Maharashtra,Jalgaon,"Prabhat Colony, Jalgaon - MPCB",28-05-2024 14:00:00,21.001264,75.565602,CO,8,37,12
India,Maharashtra,Jalna,"Old MIDC, Jalna - MPCB",28-05-2024 14:00:00,19.854616,75.905894,NO2,22,29,25
India,Maharashtra,Kalyan,"Khadakpada, Kalyan - MPCB",28-05-2024 14:00:00,19.25292,73.142019,PM2.5,11,49,21
India,Maharashtra,Kalyan,"Khadakpada, Kalyan - MPCB",28-05-2024 14:00:00,19.25292,73.142019,NH3,1,1,1
India,Maharashtra,Kolhapur,"Shivaji University, Kolhapur - MPCB",28-05-2024 14:00:00,16.6870449,74.2505872,PM2.5,48,83,67
India,Maharashtra,Kolhapur,"Shivaji University, Kolhapur - MPCB",28-05-2024 14:00:00,16.6870449,74.2505872,OZONE,6,46,23
India,Maharashtra,Mahad,"Kamble Tarf Birwadi, Mahad - MPCB",28-05-2024 14:00:00,18.1023399,73.4783687,PM10,35,146,70
India,Maharashtra,Malegaon,"Mahesh Nagar, Malegaon - MPCB",28-05-2024 14:00:00,20.555712,74.529236,PM10,87,137,115
India,Maharashtra,Malegaon,"Mahesh Nagar, Malegaon - MPCB",28-05-2024 14:00:00,20.555712,74.529236,CO,8,25,17
India,Maharashtra,Malegaon,"Mahesh Nagar, Malegaon - MPCB",28-05-2024 14:00:00,20.555712,74.529236,OZONE,20,94,45
India,Maharashtra,Mumbai,"Bandra Kurla Complex, Mumbai - MPCB",28-05-2024 14:00:00,19.065931,72.862131,SO2,2,3,3
India,Maharashtra,Mumbai,"Borivali East, Mumbai - IITM",28-05-2024 14:00:00,19.23241,72.86895,CO,3,52,13
India,Maharashtra,Mumbai,"Byculla, Mumbai - BMC",28-05-2024 14:00:00,18.9767,72.8380,NO2,22,39,28
India,Maharashtra,Mumbai,"Chakala-Andheri East, Mumbai - IITM",28-05-2024 14:00:00,19.11074,72.86084,NO2,27,37,32
India,Maharashtra,Mumbai,"Chakala-Andheri East, Mumbai - IITM",28-05-2024 14:00:00,19.11074,72.86084,CO,2,10,4
India,Maharashtra,Mumbai,"Ghatkopar, Mumbai - BMC",28-05-2024 14:00:00,19.083694,72.920967,PM2.5,6,29,18
India,Maharashtra,Mumbai,"Kandivali East, Mumbai - MPCB",28-05-2024 14:00:00,19.205800,72.868200,PM10,57,232,113
India,Maharashtra,Mumbai,"Kandivali East, Mumbai - MPCB",28-05-2024 14:00:00,19.205800,72.868200,NO2,13,113,27
India,Maharashtra,Mumbai,"Kandivali West, Mumbai - BMC",28-05-2024 14:00:00,19.215859,72.831718,SO2,NA,NA,NA
India,Maharashtra,Mumbai,"Khindipada-Bhandup West, Mumbai - IITM",28-05-2024 14:00:00,19.1653323,72.922099,SO2,1,6,3
India,Maharashtra,Mumbai,"Khindipada-Bhandup West, Mumbai - IITM",28-05-2024 14:00:00,19.1653323,72.922099,CO,10,14,13
India,Maharashtra,Mumbai,"Kurla, Mumbai - MPCB",28-05-2024 14:00:00,19.0863,72.8888,NO2,13,14,14
India,Maharashtra,Mumbai,"Mazgaon, Mumbai - IITM",28-05-2024 14:00:00,18.96702,72.84214,PM10,NA,NA,NA
India,Maharashtra,Mumbai,"Mazgaon, Mumbai - IITM",28-05-2024 14:00:00,18.96702,72.84214,NH3,10,21,14
India,Maharashtra,Mumbai,"Mindspace-Malad West, Mumbai - MPCB",28-05-2024 14:00:00,19.1878657,72.8304069,PM10,34,62,48
India,Maharashtra,Mumbai,"Navy Nagar-Colaba, Mumbai - IITM",28-05-2024 14:00:00,18.897756,72.813320,SO2,1,6,2
India,Maharashtra,Mumbai,"Powai, Mumbai - MPCB",28-05-2024 14:00:00,19.137500,72.915056,PM10,61,95,72
India,Maharashtra,Mumbai,"Powai, Mumbai - MPCB",28-05-2024 14:00:00,19.137500,72.915056,NH3,3,9,4
India,Maharashtra,Mumbai,"Powai, Mumbai - MPCB",28-05-2024 14:00:00,19.137500,72.915056,SO2,15,17,15
India,Maharashtra,Mumbai,"Sewri, Mumbai - BMC",28-05-2024 14:00:00,19.000084,72.856730,CO,4,20,7
India,Maharashtra,Mumbai,"Siddharth Nagar-Worli, Mumbai - IITM",28-05-2024 14:00:00,19.000083,72.813993,OZONE,26,44,37
India,Maharashtra,Mumbai,"Vile Parle West, Mumbai - MPCB",28-05-2024 14:00:00,19.10861,72.83622,PM10,NA,NA,NA
India,Maharashtra,Mumbai,"Worli, Mumbai - MPCB",28-05-2024 14:00:00,18.9936162,72.8128113,SO2,11,12,12
India,Maharashtra,Nagpur,"Mahal, Nagpur - MPCB",28-05-2024 14:00:00,21.14472,79.107595,NH3,4,8,6
India,Maharashtra,Nagpur,"Opp GPO Civil Lines, Nagpur - MPCB",28-05-2024 14:00:00,21.152875,79.0517531,NO2,11,106,28
India,Maharashtra,Nanded,"Sneh Nagar, Nanded - MPCB",28-05-2024 14:00:00,19.173852,77.296291,PM10,84,126,106
India,Maharashtra,Nashik,"Gangapur Road, Nashik - MPCB",28-05-2024 14:00:00,20.0073285,73.7762427,CO,10,42,23
India,Maharashtra,Nashik,"Hirawadi, Nashik - MPCB",28-05-2024 14:00:00,20.021503,73.813844,NO2,13,34,21
India,Maharashtra,Nashik,"Hirawadi, Nashik - MPCB",28-05-2024 14:00:00,20.021503,73.813844,NH3,3,6,5
India,Maharashtra,Nashik,"Pandav Nagari, Nashik - MPCB",28-05-2024 14:00:00,19.9591346,73.7788008,PM2.5,34,81,59
India,Maharashtra,Navi Mumbai,"Mahape, Navi Mumbai - MPCB",28-05-2024 14:00:00,19.1135051,73.008978,NO2,41,44,42
India,Maharashtra,Navi Mumbai,"Nerul, Navi Mumbai - MPCB",28-05-2024 14:00:00,19.008751,73.016620,NH3,2,3,2
India,Maharashtra,Navi Mumbai,"Sanpada, Navi Mumbai - MPCB",28-05-2024 14:00:00,19.0575752,73.0151367,PM2.5,13,46,28
India,Maharashtra,Navi Mumbai,"Sanpada, Navi Mumbai - MPCB",28-05-2024 14:00:00,19.0575752,73.0151367,PM10,51,108,69
India,Maharashtra,Navi Mumbai,"Sector-19A Nerul, Navi Mumbai - IITM",28-05-2024 14:00:00,19.044,73.0325,NO2,5,24,13
India,Maharashtra,Navi Mumbai,"Sector-19A Nerul, Navi Mumbai - IITM",28-05-2024 14:00:00,19.044,73.0325,CO,2,108,60
India,Maharashtra,Navi Mumbai,"Sector-19A Nerul, Navi Mumbai - IITM",28-05-2024 14:00:00,19.044,73.0325,OZONE,5,19,13
India,Maharashtra,Navi Mumbai,"Tondare-Taloja, Navi Mumbai - MPCB",28-05-2024 14:00:00,19.0630,73.1209,NO2,17,34,26
India,Maharashtra,Navi Mumbai,"Tondare-Taloja, Navi Mumbai - MPCB",28-05-2024 14:00:00,19.0630,73.1209,NH3,3,9,6
India,Maharashtra,Navi Mumbai,"Tondare-Taloja, Navi Mumbai - MPCB",28-05-2024 14:00:00,19.0630,73.1209,OZONE,8,176,36
India,Maharashtra,Pimpri-Chinchwad,"Gavalinagar, Pimpri Chinchwad - MPCB",28-05-2024 14:00:00,18.63673,73.82487,PM2.5,27,48,38
India,Maharashtra,Pimpri-Chinchwad,"Gavalinagar, Pimpri Chinchwad - MPCB",28-05-2024 14:00:00,18.63673,73.82487,NO2,4,17,9
India,Maharashtra,Pimpri-Chinchwad,"Park Street Wakad, Pimpri Chinchwad - MPCB",28-05-2024 14:00:00,18.59051,73.77946,PM10,69,143,96
India,Maharashtra,Pimpri-Chinchwad,"Park Street Wakad, Pimpri Chinchwad - MPCB",28-05-2024 14:00:00,18.59051,73.77946,NO2,9,40,17
India,Maharashtra,Pimpri-Chinchwad,"Park Street Wakad, Pimpri Chinchwad - MPCB",28-05-2024 14:00:00,18.59051,73.77946,NH3,1,5,2
India,Maharashtra,Pimpri-Chinchwad,"Park Street Wakad, Pimpri Chinchwad - MPCB",28-05-2024 14:00:00,18.59051,73.77946,SO2,3,4,4
India,Maharashtra,Pimpri-Chinchwad,"Park Street Wakad, Pimpri Chinchwad - MPCB",28-05-2024 14:00:00,18.59051,73.77946,CO,34,44,38
India,Maharashtra,Pune,"Alandi, Pune - IITM",28-05-2024 14:00:00,18.675076,73.892743,PM10,35,81,56
India,Maharashtra,Pune,"Hadapsar, Pune - IITM",28-05-2024 14:00:00,18.501793,73.927532,NO2,1,14,4
India,Maharashtra,Pune,"Mhada Colony, Pune - IITM",28-05-2024 14:00:00,18.573040,73.927715,PM10,NA,NA,NA
India,Maharashtra,Pune,"Mhada Colony, Pune - IITM",28-05-2024 14:00:00,18.573040,73.927715,NO2,NA,NA,NA
India,Maharashtra,Pune,"Revenue Colony-Shivajinagar, Pune - IITM",28-05-2024 14:00:00,18.530085,73.849598,OZONE,12,45,27
India,Maharashtra,Solapur,"Dnyaneshwar Nagar, Solapur - MPCB",28-05-2024 14:00:00,17.6336264,75.9132495,NO2,8,18,12
India,Maharashtra,Solapur,"Dnyaneshwar Nagar, Solapur - MPCB",28-05-2024 14:00:00,17.6336264,75.9132495,SO2,1,2,1
India,Maharashtra,Solapur,"Dnyaneshwar Nagar, Solapur - MPCB",28-05-2024 14:00:00,17.6336264,75.9132495,OZONE,7,47,23
India,Maharashtra,Solapur,"Ratandeep Housing Society, Solapur - MPCB",28-05-2024 14:00:00,17.65439,75.90649,SO2,1,2,1
India,Maharashtra,Solapur,"Ratandeep Housing Society, Solapur - MPCB",28-05-2024 14:00:00,17.65439,75.90649,CO,14,38,25
India,Maharashtra,Solapur,"Ratandeep Housing Society, Solapur - MPCB",28-05-2024 14:00:00,17.65439,75.90649,OZONE,10,67,36
India,Maharashtra,Solapur,"Solapur, Solapur - MPCB",28-05-2024 14:00:00,17.6599188,75.9063906,NO2,55,55,55
India,Maharashtra,Thane,"Kasarvadavali, Thane - MPCB",28-05-2024 14:00:00,19.26777,72.97182,PM10,26,57,44
India,Maharashtra,Thane,"Pimpleshwar Mandir, Thane - MPCB",28-05-2024 14:00:00,19.192056,72.9585188,NH3,NA,NA,NA
India,Maharashtra,Thane,"Upvan Fort, Thane - MPCB",28-05-2024 14:00:00,19.222279,72.957979,SO2,NA,NA,NA
India,Maharashtra,Thane,"Upvan Fort, Thane - MPCB",28-05-2024 14:00:00,19.222279,72.957979,OZONE,14,40,37
India,Maharashtra,Ulhasnagar,"Sidhi Vinayak Nagar, Ulhasnagar - MPCB",28-05-2024 14:00:00,19.235581,73.159121,NO2,14,36,25
India,Maharashtra,Ulhasnagar,"Sidhi Vinayak Nagar, Ulhasnagar - MPCB",28-05-2024 14:00:00,19.235581,73.159121,OZONE,6,60,37
India,Maharashtra,Virar,"Bolinj, Virar - MPCB",28-05-2024 14:00:00,19.4458210,72.7988231,OZONE,22,41,34
India,Manipur,Imphal,"DM College of Science, Imphal - Manipur PCB",28-05-2024 14:00:00,24.8207389,93.9423085,NH3,2,2,2
India,Manipur,Imphal,"Manipur University, Imphal - Manipur PCB",28-05-2024 14:00:00,24.7524239,93.9286218,NO2,6,15,9
India,Manipur,Imphal,"Manipur University, Imphal - Manipur PCB",28-05-2024 14:00:00,24.7524239,93.9286218,NH3,NA,NA,NA
India,Mizoram,Aizawl,"Sikulpuikawn, Aizawl - Mizoram PCB",28-05-2024 14:00:00,23.7176342,92.7192841,PM2.5,2,15,7
India,Mizoram,Aizawl,"Sikulpuikawn, Aizawl - Mizoram PCB",28-05-2024 14:00:00,23.7176342,92.7192841,PM10,NA,NA,NA
India,Odisha,Angul,"Hakimapada, Angul - OSPCB",28-05-2024 14:00:00,20.832874,85.104082,NO2,4,17,7
India,Odisha,Balasore,"Kalidaspur, Balasore - OSPCB",28-05-2024 14:00:00,21.51161,86.89088,NO2,6,14,9
India,Odisha,Balasore,"Kalidaspur, Balasore - OSPCB",28-05-2024 14:00:00,21.51161,86.89088,SO2,14,16,15
India,Odisha,Barbil,"Forest Office, Barbil - OSPCB",28-05-2024 14:00:00,22.1166054,85.3945546,PM2.5,10,160,59
India,Odisha,Barbil,"Forest Office, Barbil - OSPCB",28-05-2024 14:00:00,22.1166054,85.3945546,NH3,1,2,2
India,Odisha,Baripada,"Meher Colony, Baripada - OSPCB",28-05-2024 14:00:00,21.941841,86.728318,PM10,40,105,67
India,Odisha,Baripada,"Meher Colony, Baripada - OSPCB",28-05-2024 14:00:00,21.941841,86.728318,CO,11,86,26
India,Odisha,Bhubaneswar,"Lingraj Mandir, Bhubaneswar - OSPCB",28-05-2024 14:00:00,20.240790,85.836784,NO2,3,25,11
India,Odisha,Bhubaneswar,"Lingraj Mandir, Bhubaneswar - OSPCB",28-05-2024 14:00:00,20.240790,85.836784,NH3,2,3,2
India,Odisha,Bhubaneswar,"Lingraj Mandir, Bhubaneswar - OSPCB",28-05-2024 14:00:00,20.240790,85.836784,OZONE,42,83,61
India,Odisha,Bileipada,"Tata Township, Bileipada - OSPCB",28-05-2024 14:00:00,22.06156703,85.47409613,PM10,NA,NA,NA
India,Odisha,Bileipada,"Tata Township, Bileipada - OSPCB",28-05-2024 14:00:00,22.06156703,85.47409613,OZONE,15,128,79
India,Odisha,Brajrajnagar,"GM Office, Brajrajnagar - OSPCB",28-05-2024 14:00:00,21.8004996,83.8396977,PM10,16,86,65
India,Odisha,Brajrajnagar,"GM Office, Brajrajnagar - OSPCB",28-05-2024 14:00:00,21.8004996,83.8396977,CO,57,90,88
India,Odisha,Byasanagar,"Ferro Chrome Colony, Byasanagar - OSPCB",28-05-2024 14:00:00,20.94185,86.11510,CO,44,102,77
India,Odisha,Cuttack,"CDA Area, Cuttack - OSPCB",28-05-2024 14:00:00,20.48891     ,85.84768     ,PM2.5,8,67,49
India,Odisha,Cuttack,"CDA Area, Cuttack - OSPCB",28-05-2024 14:00:00,20.48891     ,85.84768     ,NH3,1,1,1
India,Odisha,Cuttack,"CDA Area, Cuttack - OSPCB",28-05-2024 14:00:00,20.48891     ,85.84768     ,SO2,1,13,6
India,Odisha,Keonjhar,"Jagamohanpur, Keonjhar - OSPCB",28-05-2024 14:00:00,21.643900,85.599355,NH3,1,2,1
India,Odisha,Keonjhar,"Jagamohanpur, Keonjhar - OSPCB",28-05-2024 14:00:00,21.643900,85.599355,OZONE,10,35,18
India,Odisha,Rairangpur,"Divisional Forest Office, Rairangpur - OSPCB",28-05-2024 14:00:00,22.265816,86.174829,PM2.5,17,52,35
India,Odisha,Rairangpur,"Divisional Forest Office, Rairangpur - OSPCB",28-05-2024 14:00:00,22.265816,86.174829,NO2,NA,NA,NA
India,Odisha,Rourkela,"Fertilizer Township, Rourkela - OSPCB",28-05-2024 14:00:00,22.18972222,84.86277778,SO2,12,14,13
India,Odisha,Rourkela,"Raghunathpali, Rourkela - OSPCB",28-05-2024 14:00:00,22.220833,84.809444,CO,16,52,40
India,Odisha,Suakati,"OMC Colony, Suakati - OSPCB",28-05-2024 14:00:00,21.606865,85.510538,PM2.5,28,95,55
India,Odisha,Suakati,"OMC Colony, Suakati - OSPCB",28-05-2024 14:00:00,21.606865,85.510538,NO2,7,9,8
India,Odisha,Suakati,"OMC Colony, Suakati - OSPCB",28-05-2024 14:00:00,21.606865,85.510538,CO,17,22,19
India,Odisha,Talcher,"Talcher Coalfields,Talcher - OSPCB",28-05-2024 14:00:00,20.9360711,85.1707021,NO2,17,22,20
India,Odisha,Tensa,"Barsua Iron Ore Mines, Tensa - OSPCB",28-05-2024 14:00:00,21.869985,85.167016,SO2,1,25,14
India,Puducherry,Puducherry,"Jawahar Nagar, Puducherry - PPCC",28-05-2024 14:00:00,11.9309,79.8027,PM10,32,73,55
India,Puducherry,Puducherry,"Jawahar Nagar, Puducherry - PPCC",28-05-2024 14:00:00,11.9309,79.8027,CO,20,36,30
India,Punjab,Amritsar,"Golden Temple, Amritsar - PPCB",28-05-2024 14:00:00,31.620000,74.876512,CO,6,74,53
India,Punjab,Amritsar,"Golden Temple, Amritsar - PPCB",28-05-2024 14:00:00,31.620000,74.876512,OZONE,28,63,47
India,Punjab,Jalandhar,"Civil Line, Jalandhar - PPCB",28-05-2024 14:00:00,31.321907,75.578914,PM10,107,161,134
India,Punjab,Jalandhar,"Civil Line, Jalandhar - PPCB",28-05-2024 14:00:00,31.321907,75.578914,NH3,2,5,5
India,Punjab,Khanna,"Kalal Majra, Khanna - PPCB",28-05-2024 14:00:00,30.736056 ,76.209694,PM10,10,155,105
India,Punjab,Khanna,"Kalal Majra, Khanna - PPCB",28-05-2024 14:00:00,30.736056 ,76.209694,NH3,NA,NA,NA
India,Punjab,Ludhiana,"Punjab Agricultural University, Ludhiana - PPCB",28-05-2024 14:00:00,30.9028,75.8086,CO,4,57,39
India,Punjab,Mandi Gobindgarh,"RIMT University, Mandi Gobindgarh - PPCB",28-05-2024 14:00:00,30.649961,76.331442,PM10,99,425,255
India,Punjab,Mandi Gobindgarh,"RIMT University, Mandi Gobindgarh - PPCB",28-05-2024 14:00:00,30.649961,76.331442,NO2,22,28,28
India,Punjab,Patiala,"Model Town, Patiala - PPCB",28-05-2024 14:00:00,30.349388,76.366642,PM2.5,73,137,98
India,Punjab,Patiala,"Model Town, Patiala - PPCB",28-05-2024 14:00:00,30.349388,76.366642,PM10,107,140,123
India,Punjab,Patiala,"Model Town, Patiala - PPCB",28-05-2024 14:00:00,30.349388,76.366642,OZONE,10,146,85
India,Punjab,Rupnagar,"Ratanpura, Rupnagar - Ambuja Cements",28-05-2024 14:00:00,31.0325454,76.5623046,CO,24,60,43
India,Rajasthan,Alwar,"Moti Doongri, Alwar - RSPCB",28-05-2024 14:00:00,27.554793,76.611536,PM2.5,62,143,100
India,Rajasthan,Alwar,"Moti Doongri, Alwar - RSPCB",28-05-2024 14:00:00,27.554793,76.611536,NO2,23,101,42
India,Rajasthan,Alwar,"Moti Doongri, Alwar - RSPCB",28-05-2024 14:00:00,27.554793,76.611536,OZONE,14,118,34
India,Rajasthan,Banswara,"Rati Talai, Banswara - RSPCB",28-05-2024 14:00:00,23.555190,74.440010,SO2,1,10,3
India,Rajasthan,Barmer,"Railway Colony, Barmer - RSPCB",28-05-2024 14:00:00,25.747299,71.393989,NH3,3,45,14
India,Rajasthan,Bundi,"New Colony, Bundi - RSPCB",28-05-2024 14:00:00,25.435774,75.644272,PM10,77,341,159
India,Rajasthan,Chittorgarh,"Shastri Nagar, Chittorgarh - RSPCB",28-05-2024 14:00:00,24.892047,74.623527,SO2,1,8,4
India,Rajasthan,Chittorgarh,"Shastri Nagar, Chittorgarh - RSPCB",28-05-2024 14:00:00,24.892047,74.623527,CO,10,46,15
India,Rajasthan,Dausa,"Khatikan Mohalla, Dausa - RSPCB",28-05-2024 14:00:00,26.895552,76.334753,SO2,3,11,6
India,Rajasthan,Dausa,"Khatikan Mohalla, Dausa - RSPCB",28-05-2024 14:00:00,26.895552,76.334753,CO,30,118,61
India,Rajasthan,Dholpur,"Raja Ganj, Dholpur - RSPCB",28-05-2024 14:00:00,26.699557,77.898881,OZONE,43,208,65
India,Rajasthan,Dungarpur,"Bhoiwada, Dungarpur - RSPCB",28-05-2024 14:00:00,23.837789,73.714926,NO2,8,14,11
India,Rajasthan,Dungarpur,"Bhoiwada, Dungarpur - RSPCB",28-05-2024 14:00:00,23.837789,73.714926,CO,6,124,23
India,Rajasthan,Hanumangarh,"Housing Board, Hanumangarh - RSPCB",28-05-2024 14:00:00,29.610750,74.283608,OZONE,4,76,49
India,Rajasthan,Jaipur,"Adarsh Nagar, Jaipur - RSPCB",28-05-2024 14:00:00,26.902909,75.836858,SO2,5,35,18
India,Rajasthan,Jaipur,"Mansarovar Sector-12, Jaipur - RSPCB",28-05-2024 14:00:00,26.843698,75.766894,CO,2,117,7
India,Rajasthan,Jaipur,"RIICO Sitapura, Jaipur - RSPCB",28-05-2024 14:00:00,26.786682,75.827928,PM2.5,23,306,88
India,Rajasthan,Jaipur,"Sector-2 Murlipura, Jaipur - RSPCB",28-05-2024 14:00:00,26.960669,75.771817,PM2.5,69,314,136
India,Rajasthan,Jaipur,"Sector-2 Murlipura, Jaipur - RSPCB",28-05-2024 14:00:00,26.960669,75.771817,NO2,12,108,30
India,Rajasthan,Jaipur,"Shastri Nagar, Jaipur - RSPCB",28-05-2024 14:00:00,26.9502929,75.730943,NO2,18,178,64
India,Rajasthan,Jaipur,"Shastri Nagar, Jaipur - RSPCB",28-05-2024 14:00:00,26.9502929,75.730943,CO,7,146,24
India,Rajasthan,Jaisalmer,"Sadar Bazar, Jaisalmer - RSPCB",28-05-2024 14:00:00,26.912329,70.909168,PM2.5,43,99,62
India,Rajasthan,Jaisalmer,"Sadar Bazar, Jaisalmer - RSPCB",28-05-2024 14:00:00,26.912329,70.909168,PM10,109,251,141
India,Rajasthan,Jhalawar,"Rajlaxmi Nagar, Jhalawar - RSPCB",28-05-2024 14:00:00,24.588397,76.172782,PM2.5,13,83,51
India,Rajasthan,Jhunjhunu,"Indra Nagar, Jhunjhunu - RSPCB",28-05-2024 14:00:00,28.108988,75.386577,NH3,17,45,31
India,Rajasthan,Jodhpur,"Collectorate, Jodhpur - RSPCB",28-05-2024 14:00:00,26.268249,73.0193853,PM10,75,333,167
India,Rajasthan,Jodhpur,"Digari Kalan, Jodhpur - RSPCB",28-05-2024 14:00:00,26.295810,73.082283,PM2.5,22,71,47
India,Rajasthan,Jodhpur,"Jhalamand, Jodhpur - RSPCB",28-05-2024 14:00:00,26.215415,73.070156,CO,6,46,9
India,Rajasthan,Kota,"Dhanmandi, Kota - RSPCB",28-05-2024 14:00:00,25.164090,75.858137,SO2,4,80,16
India,Rajasthan,Kota,"Nayapura, Kota - RSPCB",28-05-2024 14:00:00,25.196024,75.855668,PM10,58,173,108
India,Rajasthan,Kota,"Nayapura, Kota - RSPCB",28-05-2024 14:00:00,25.196024,75.855668,CO,13,64,18
India,Rajasthan,Kota,"Shrinath Puram, Kota - RSPCB",28-05-2024 14:00:00,25.14389,75.821256,PM2.5,22,146,89
India,Rajasthan,Nagaur,"Karni Colony, Nagaur - RSPCB",28-05-2024 14:00:00,27.213494,73.734444,PM2.5,26,92,46
India,Rajasthan,Pali,"Indira Colony Vistar, Pali - RSPCB",28-05-2024 14:00:00,25.771061, 73.340227,PM10,106,267,160
India,Rajasthan,Pratapgarh,"Pragati Nagar, Pratapgarh - RSPCB",28-05-2024 14:00:00,24.041198,74.780702,PM2.5,13,184,42
India,Rajasthan,Rajsamand,"Dhoinda, Rajsamand - RSPCB",28-05-2024 14:00:00,25.036360,73.883502,NH3,1,2,1
India,Rajasthan,Rajsamand,"Dhoinda, Rajsamand - RSPCB",28-05-2024 14:00:00,25.036360,73.883502,OZONE,8,114,72
India,Rajasthan,Sawai Madhopur,"Sahu Nagar, Sawai Madhopur - RSPCB",28-05-2024 14:00:00,26.031443,76.359327,SO2,1,14,7
India,Rajasthan,Sikar,"Radhakishan Pura, Sikar - RSPCB",28-05-2024 14:00:00,27.608912,75.153302,OZONE,15,111,72
India,Rajasthan,Sirohi,"Vedhaynath Colony, Sirohi - RSPCB",28-05-2024 14:00:00,24.885261,72.857549,PM2.5,26,55,38
India,Rajasthan,Sirohi,"Vedhaynath Colony, Sirohi - RSPCB",28-05-2024 14:00:00,24.885261,72.857549,NO2,2,15,5
India,Rajasthan,Sirohi,"Vedhaynath Colony, Sirohi - RSPCB",28-05-2024 14:00:00,24.885261,72.857549,SO2,1,19,9
India,Rajasthan,Sri Ganganagar,"Old City, Sri Ganganagar - RSPCB",28-05-2024 14:00:00,29.931624,73.864511,PM2.5,NA,NA,NA
India,Rajasthan,Sri Ganganagar,"Old City, Sri Ganganagar - RSPCB",28-05-2024 14:00:00,29.931624,73.864511,PM10,129,500,304
India,Rajasthan,Udaipur,"Ashok Nagar, Udaipur - RSPCB",28-05-2024 14:00:00,24.5886166,73.6321397,PM2.5,65,192,104
India,Sikkim,Gangtok,"Zero Point GICI, Gangtok - SSPCB",28-05-2024 14:00:00,27.338530,88.614099,OZONE,9,52,28
India,TamilNadu,Ariyalur,"Keelapalur, Ariyalur - TNPCB",28-05-2024 14:00:00,11.06825,79.07033,NO2,6,8,7
India,TamilNadu,Ariyalur,"Keelapalur, Ariyalur - TNPCB",28-05-2024 14:00:00,11.06825,79.07033,SO2,10,106,33
India,TamilNadu,Chennai,"Alandur Bus Depot, Chennai - CPCB",28-05-2024 14:00:00,12.9099161,80.1076538,PM10,25,152,60
India,TamilNadu,Chennai,"Alandur Bus Depot, Chennai - CPCB",28-05-2024 14:00:00,12.9099161,80.1076538,CO,59,65,62
India,TamilNadu,Chennai,"Alandur Bus Depot, Chennai - CPCB",28-05-2024 14:00:00,12.9099161,80.1076538,OZONE,2,12,6
India,TamilNadu,Chennai,"Arumbakkam, Chennai - TNPCB",28-05-2024 14:00:00,13.0664,80.2112 ,PM2.5,28,72,37
India,TamilNadu,Chennai,"Kodungaiyur, Chennai - TNPCB",28-05-2024 14:00:00,13.1278,80.2642,PM2.5,22,53,32
India,TamilNadu,Chennai,"Kodungaiyur, Chennai - TNPCB",28-05-2024 14:00:00,13.1278,80.2642,NO2,12,29,18
India,TamilNadu,Chennai,"Manali, Chennai - CPCB",28-05-2024 14:00:00,13.164544,80.26285,NH3,4,4,4
India,TamilNadu,Chennai,"Perungudi, Chennai - TNPCB",28-05-2024 14:00:00,12.9533,80.2357,SO2,1,5,3
India,TamilNadu,Chennai,"Perungudi, Chennai - TNPCB",28-05-2024 14:00:00,12.9533,80.2357,CO,10,118,47
India,TamilNadu,Chennai,"Royapuram, Chennai - TNPCB",28-05-2024 14:00:00,13.1036,80.2909,SO2,2,14,4
India,TamilNadu,Chennai,"Velachery Res. Area, Chennai - CPCB",28-05-2024 14:00:00,13.0052189,80.2398125,PM10,23,68,35
India,TamilNadu,Chennai,"Velachery Res. Area, Chennai - CPCB",28-05-2024 14:00:00,13.0052189,80.2398125,NO2,NA,NA,NA
India,TamilNadu,Chennai,"Velachery Res. Area, Chennai - CPCB",28-05-2024 14:00:00,13.0052189,80.2398125,SO2,11,11,11
India,TamilNadu,Coimbatore,"PSG College of Arts and Science, Coimbatore - TNPCB",28-05-2024 14:00:00,11.0328,77.0349,CO,50,57,54
India,TamilNadu,Cuddalore,"Kudikadu, Cuddalore - TNPCB",28-05-2024 14:00:00,11.6829898,79.7532099,NH3,3,4,3
India,TamilNadu,Cuddalore,"Kudikadu, Cuddalore - TNPCB",28-05-2024 14:00:00,11.6829898,79.7532099,SO2,10,12,10
India,TamilNadu,Cuddalore,"Semmandalam, Cuddalore - TNPCB",28-05-2024 14:00:00,11.7637683,79.7499835,PM10,23,50,36
India,TamilNadu,Ooty,"Bombay Castel, Ooty - TNPCB",28-05-2024 14:00:00,11.4068288,76.7138973,NH3,NA,NA,NA
India,TamilNadu,Ooty,"Bombay Castel, Ooty - TNPCB",28-05-2024 14:00:00,11.4068288,76.7138973,SO2,NA,NA,NA
India,TamilNadu,Ramanathapuram,"Chalai Bazaar, Ramanathapuram - TNPCB",28-05-2024 14:00:00,9.36399,78.831977,PM10,22,51,36
India,TamilNadu,Ramanathapuram,"Chalai Bazaar, Ramanathapuram - TNPCB",28-05-2024 14:00:00,9.36399,78.831977,NH3,1,1,1
India,TamilNadu,Ramanathapuram,"Chalai Bazaar, Ramanathapuram - TNPCB",28-05-2024 14:00:00,9.36399,78.831977,CO,1,8,4
India,TamilNadu,Salem,"Sona College of Technology, Salem - TNPCB",28-05-2024 14:00:00,11.679111,78.125052,PM10,39,84,57
India,TamilNadu,Salem,"Sona College of Technology, Salem - TNPCB",28-05-2024 14:00:00,11.679111,78.125052,NH3,1,1,1
India,TamilNadu,Salem,"Sona College of Technology, Salem - TNPCB",28-05-2024 14:00:00,11.679111,78.125052,CO,40,41,40
India,TamilNadu,Thoothukudi,"Meelavittan, Thoothukudi - TNPCB",28-05-2024 14:00:00,8.816428 ,78.099039,NO2,19,35,24
India,TamilNadu,Tirupur,"Kumaran College, Tirupur - TNPCB",28-05-2024 14:00:00,11.0973603,77.3228673,PM10,37,97,62
India,TamilNadu,Tirupur,"Kumaran College, Tirupur - TNPCB",28-05-2024 14:00:00,11.0973603,77.3228673,CO,15,36,27
India,TamilNadu,Vellore,"Vasanthapuram, Vellore - TNPCB",28-05-2024 14:00:00,12.909494,79.131861,NH3,1,1,1
India,TamilNadu,Vellore,"Vasanthapuram, Vellore - TNPCB",28-05-2024 14:00:00,12.909494,79.131861,OZONE,NA,NA,NA
India,Telangana,Hyderabad,"Bollaram Industrial Area, Hyderabad - TSPCB",28-05-2024 14:00:00,17.540891,78.358528,SO2,16,30,23
India,Telangana,Hyderabad,"Central University, Hyderabad - TSPCB",28-05-2024 14:00:00,17.460103,78.334361,PM10,54,96,72
India,Telangana,Hyderabad,"Central University, Hyderabad - TSPCB",28-05-2024 14:00:00,17.460103,78.334361,SO2,4,10,8
India,Telangana,Hyderabad,"ICRISAT Patancheru, Hyderabad - TSPCB",28-05-2024 14:00:00,17.518400,78.278777,PM10,48,137,67
India,Telangana,Hyderabad,"IITH Kandi, Hyderabad - TSPCB",28-05-2024 14:00:00,17.585705,78.126199,PM2.5,NA,NA,NA
India,Telangana,Hyderabad,"IITH Kandi, Hyderabad - TSPCB",28-05-2024 14:00:00,17.585705,78.126199,NH3,NA,NA,NA
India,Telangana,Hyderabad,"Kompally Municipal Office, Hyderabad - TSPCB",28-05-2024 14:00:00,17.544899,78.486949,PM2.5,42,84,56
India,Telangana,Hyderabad,"Ramachandrapuram, Hyderabad - TSPCB",28-05-2024 14:00:00,17.528544,78.286195,OZONE,53,53,53
India,Telangana,Hyderabad,"Sanathnagar, Hyderabad - TSPCB",28-05-2024 14:00:00,17.4559458,78.4332152,CO,24,39,26
India,Telangana,Hyderabad,"Sanathnagar, Hyderabad - TSPCB",28-05-2024 14:00:00,17.4559458,78.4332152,OZONE,14,18,16
India,Telangana,Hyderabad,"Somajiguda, Hyderabad - TSPCB",28-05-2024 14:00:00,17.417094,78.457437,NO2,NA,NA,NA
India,Telangana,Hyderabad,"Somajiguda, Hyderabad - TSPCB",28-05-2024 14:00:00,17.417094,78.457437,CO,16,16,16
India,Telangana,Hyderabad,"Zoo Park, Hyderabad - TSPCB",28-05-2024 14:00:00,17.349694,78.451437,OZONE,16,24,18
India,Uttar_Pradesh,Agra,"Manoharpur, Agra - UPPCB",28-05-2024 14:00:00,27.23711,78.01936,CO,10,19,15
India,Uttar_Pradesh,Agra,"Rohta, Agra - UPPCB",28-05-2024 14:00:00,27.106972,78.000111,OZONE,15,18,16
India,Uttar_Pradesh,Agra,"Sanjay Palace, Agra - UPPCB",28-05-2024 14:00:00,27.19865833,78.00598056,PM10,29,72,50
India,Uttar_Pradesh,Agra,"Sanjay Palace, Agra - UPPCB",28-05-2024 14:00:00,27.19865833,78.00598056,OZONE,20,41,26
India,Uttar_Pradesh,Agra,"Shahjahan Garden, Agra - UPPCB",28-05-2024 14:00:00,27.169338,78.03582,PM10,69,127,100
India,Uttar_Pradesh,Agra,"Shastripuram, Agra - UPPCB",28-05-2024 14:00:00,27.19862,77.92066,NO2,NA,NA,NA
India,Uttar_Pradesh,Baghpat,"Sardar Patel Inter College, Baghpat - UPPCB",28-05-2024 14:00:00,28.964949,77.278761,NO2,21,122,58
India,Uttar_Pradesh,Bareilly,"Civil Lines, Bareilly - UPPCB",28-05-2024 14:00:00,28.359581,79.414455,OZONE,1,23,6
India,Uttar_Pradesh,Bareilly,"Rajendra Nagar, Bareilly - UPPCB",28-05-2024 14:00:00,28.38910936,79.42963708,CO,10,68,12
India,Uttar_Pradesh,Bulandshahr,"Yamunapuram, Bulandshahr - UPPCB",28-05-2024 14:00:00,28.406963,77.849831,SO2,21,67,39
India,Uttar_Pradesh,Bulandshahr,"Yamunapuram, Bulandshahr - UPPCB",28-05-2024 14:00:00,28.406963,77.849831,OZONE,7,196,196
India,Uttar_Pradesh,Firozabad,"Vibhab Nagar, Firozabad - UPPCB",28-05-2024 14:00:00,27.1594,78.3953,NO2,13,15,14
India,Uttar_Pradesh,Firozabad,"Vibhab Nagar, Firozabad - UPPCB",28-05-2024 14:00:00,27.1594,78.3953,CO,11,30,21
India,Uttar_Pradesh,Ghaziabad,"Indirapuram, Ghaziabad - UPPCB",28-05-2024 14:00:00,28.646233,77.358075,PM10,150,432,287
India,Uttar_Pradesh,Ghaziabad,"Sanjay Nagar, Ghaziabad - UPPCB",28-05-2024 14:00:00,28.685382,77.453839,PM10,110,361,189
India,Uttar_Pradesh,Ghaziabad,"Sanjay Nagar, Ghaziabad - UPPCB",28-05-2024 14:00:00,28.685382,77.453839,NH3,8,16,12
India,Uttar_Pradesh,Ghaziabad,"Vasundhara, Ghaziabad - UPPCB",28-05-2024 14:00:00,28.6603346,77.3572563,SO2,4,36,15
India,Uttar_Pradesh,Greater Noida,"Knowledge Park - III, Greater Noida - UPPCB",28-05-2024 14:00:00,28.47272,77.482000,NH3,1,6,3
India,Uttar_Pradesh,Greater Noida,"Knowledge Park - III, Greater Noida - UPPCB",28-05-2024 14:00:00,28.47272,77.482000,CO,16,117,48
India,Uttar_Pradesh,Greater Noida,"Knowledge Park - V, Greater Noida - UPPCB",28-05-2024 14:00:00,28.557054,77.453663,NH3,3,7,4
India,Uttar_Pradesh,Greater Noida,"Knowledge Park - V, Greater Noida - UPPCB",28-05-2024 14:00:00,28.557054,77.453663,OZONE,5,253,211
India,Uttar_Pradesh,Kanpur,"FTI Kidwai Nagar, Kanpur - UPPCB",28-05-2024 14:00:00,26.428282,80.327067,PM10,NA,NA,NA
India,Uttar_Pradesh,Kanpur,"NSI Kalyanpur, Kanpur - UPPCB",28-05-2024 14:00:00,26.509954,80.249612,PM2.5,14,164,82
India,Uttar_Pradesh,Kanpur,"NSI Kalyanpur, Kanpur - UPPCB",28-05-2024 14:00:00,26.509954,80.249612,PM10,23,126,99
India,Uttar_Pradesh,Kanpur,"NSI Kalyanpur, Kanpur - UPPCB",28-05-2024 14:00:00,26.509954,80.249612,NO2,19,24,22
India,Uttar_Pradesh,Kanpur,"NSI Kalyanpur, Kanpur - UPPCB",28-05-2024 14:00:00,26.509954,80.249612,SO2,16,30,21
India,Uttar_Pradesh,Khurja,"Kalindi Kunj, Khurja - UPPCB",28-05-2024 14:00:00,28.2348927,77.8683002,OZONE,103,289,135
India,Uttar_Pradesh,Lucknow,"B R Ambedkar University, Lucknow - UPPCB",28-05-2024 14:00:00,26.766433,80.927299,OZONE,6,58,26
India,Uttar_Pradesh,Lucknow,"Gomti Nagar, Lucknow - UPPCB",28-05-2024 14:00:00,26.868120,81.005119,PM2.5,33,129,63
India,Uttar_Pradesh,Lucknow,"Kendriya Vidyalaya, Lucknow - CPCB",28-05-2024 14:00:00,26.906111,80.948222,PM2.5,50,248,120
India,Uttar_Pradesh,Lucknow,"Kukrail Picnic Spot-1, Lucknow - UPPCB",28-05-2024 14:00:00,26.90723,80.98579,SO2,33,36,34
India,Uttar_Pradesh,Lucknow,"Lalbagh, Lucknow - CPCB",28-05-2024 14:00:00,26.8458805,80.9365541,SO2,1,11,6
India,Uttar_Pradesh,Lucknow,"Talkatora District Industries Center, Lucknow - CPCB",28-05-2024 14:00:00,26.83399722,80.8917361,CO,4,97,33
India,Uttar_Pradesh,Meerut,"Jai Bhim Nagar, Meerut - UPPCB",28-05-2024 14:00:00,28.9535882,77.7622941,NO2,13,89,43
India,Uttar_Pradesh,Meerut,"Jai Bhim Nagar, Meerut - UPPCB",28-05-2024 14:00:00,28.9535882,77.7622941,OZONE,14,174,153
India,Uttar_Pradesh,Meerut,"Pallavpuram Phase 2, Meerut - UPPCB",28-05-2024 14:00:00,29.063510,77.709723,PM2.5,39,304,139
India,Uttar_Pradesh,Meerut,"Pallavpuram Phase 2, Meerut - UPPCB",28-05-2024 14:00:00,29.063510,77.709723,PM10,102,272,181
India,Uttar_Pradesh,Meerut,"Pallavpuram Phase 2, Meerut - UPPCB",28-05-2024 14:00:00,29.063510,77.709723,NH3,4,26,8
India,Uttar_Pradesh,Meerut,"Pallavpuram Phase 2, Meerut - UPPCB",28-05-2024 14:00:00,29.063510,77.709723,SO2,22,105,45
India,Uttar_Pradesh,Moradabad,"Eco Herbal Park, Moradabad - UPPCB",28-05-2024 14:00:00,28.840739,78.697531,NO2,16,74,35
India,Uttar_Pradesh,Moradabad,"Eco Herbal Park, Moradabad - UPPCB",28-05-2024 14:00:00,28.840739,78.697531,SO2,13,103,38
India,Uttar_Pradesh,Moradabad,"Employment Office, Moradabad - UPPCB",28-05-2024 14:00:00,28.88528,78.73880,PM10,69,186,115
India,Uttar_Pradesh,Moradabad,"Jigar Colony, Moradabad - UPPCB",28-05-2024 14:00:00,28.856664,78.772638,PM2.5,32,144,59
India,Uttar_Pradesh,Moradabad,"Jigar Colony, Moradabad - UPPCB",28-05-2024 14:00:00,28.856664,78.772638,NO2,16,17,17
India,Uttar_Pradesh,Moradabad,"Jigar Colony, Moradabad - UPPCB",28-05-2024 14:00:00,28.856664,78.772638,SO2,16,22,19
India,Uttar_Pradesh,Moradabad,"Kashiram Nagar, Moradabad - UPPCB",28-05-2024 14:00:00,28.849399,78.742362,PM2.5,59,166,92
India,Uttar_Pradesh,Moradabad,"Kashiram Nagar, Moradabad - UPPCB",28-05-2024 14:00:00,28.849399,78.742362,SO2,32,104,51
India,Uttar_Pradesh,Moradabad,"Kashiram Nagar, Moradabad - UPPCB",28-05-2024 14:00:00,28.849399,78.742362,OZONE,12,148,47
India,Uttar_Pradesh,Moradabad,"Transport Nagar, Moradabad - UPPCB",28-05-2024 14:00:00,28.802625,78.753728,PM2.5,37,145,72
India,Uttar_Pradesh,Muzaffarnagar,"New Mandi, Muzaffarnagar - UPPCB",28-05-2024 14:00:00,29.4723508,77.7194031,NH3,10,15,12
India,Uttar_Pradesh,Muzaffarnagar,"New Mandi, Muzaffarnagar - UPPCB",28-05-2024 14:00:00,29.4723508,77.7194031,SO2,11,102,40
India,Uttar_Pradesh,Noida,"Sector - 125, Noida - UPPCB",28-05-2024 14:00:00,28.5447608,77.3231257,PM2.5,NA,NA,NA
India,Uttar_Pradesh,Noida,"Sector-116, Noida - UPPCB",28-05-2024 14:00:00,28.569230,77.393848,NH3,6,12,9
India,Uttar_Pradesh,Prayagraj,"Jhunsi, Prayagraj - UPPCB",28-05-2024 14:00:00,25.425602,81.917152,PM10,32,121,75
India,Uttar_Pradesh,Prayagraj,"Nagar Nigam, Prayagraj - UPPCB",28-05-2024 14:00:00,25.44919916 ,81.82735986 ,CO,12,46,20
India,Uttar_Pradesh,Prayagraj,"Nagar Nigam, Prayagraj - UPPCB",28-05-2024 14:00:00,25.44919916 ,81.82735986 ,OZONE,11,13,12
India,Uttar_Pradesh,Varanasi,"Ardhali Bazar, Varanasi - UPPCB",28-05-2024 14:00:00,25.3505986,82.9083074,NO2,14,20,17
India,Uttar_Pradesh,Varanasi,"Bhelupur, Varanasi - UPPCB",28-05-2024 14:00:00,25.301778,82.996789,PM2.5,3,9,5
India,Uttar_Pradesh,Varanasi,"Bhelupur, Varanasi - UPPCB",28-05-2024 14:00:00,25.301778,82.996789,NH3,1,2,1
India,Uttar_Pradesh,Varanasi,"Bhelupur, Varanasi - UPPCB",28-05-2024 14:00:00,25.301778,82.996789,SO2,30,31,30
India,Uttar_Pradesh,Varanasi,"IESD Banaras Hindu University, Varanasi - UPPCB",28-05-2024 14:00:00,25.262326,82.995408,PM2.5,NA,NA,NA
India,Uttar_Pradesh,Varanasi,"IESD Banaras Hindu University, Varanasi - UPPCB",28-05-2024 14:00:00,25.262326,82.995408,OZONE,1,5,2
India,Uttar_Pradesh,Vrindavan,"Omex Eternity, Vrindavan - UPPCB",28-05-2024 14:00:00,27.5714090,77.6557570,SO2,46,53,49
India,Uttar_Pradesh,Vrindavan,"Omex Eternity, Vrindavan - UPPCB",28-05-2024 14:00:00,27.5714090,77.6557570,CO,30,63,50
India,Uttarakhand,Dehradun,"Doon University, Dehradun - UKPCB",28-05-2024 14:00:00,30.269444,78.044167,OZONE,76,216,104
India,Uttarakhand,Kashipur,"Govt. Girls Inter College, Kashipur - UKPCB",28-05-2024 14:00:00,29.2124114,78.9611753,NO2,16,30,22
India,Uttarakhand,Kashipur,"Govt. Girls Inter College, Kashipur - UKPCB",28-05-2024 14:00:00,29.2124114,78.9611753,OZONE,30,140,48
India,Uttarakhand,Rishikesh,"Shivaji Nagar, Rishikesh - UKPCB",28-05-2024 14:00:00,30.075911,78.2859547,PM2.5,52,95,72
India,West_Bengal,Asansol,"Asansol Court Area, Asansol - WBPCB",28-05-2024 14:00:00,23.685297,86.945968,NO2,16,40,27
India,West_Bengal,Asansol,"Asansol Court Area, Asansol - WBPCB",28-05-2024 14:00:00,23.685297,86.945968,CO,10,30,22
India,West_Bengal,Asansol,"Asansol Court Area, Asansol - WBPCB",28-05-2024 14:00:00,23.685297,86.945968,OZONE,11,85,24
India,West_Bengal,Durgapur,"PCBL Residential Complex, Durgapur - WBPCB",28-05-2024 14:00:00,23.5087640,87.3544400,NO2,4,67,24
India,West_Bengal,Durgapur,"PCBL Residential Complex, Durgapur - WBPCB",28-05-2024 14:00:00,23.5087640,87.3544400,NH3,NA,NA,NA
India,West_Bengal,Durgapur,"Sidhu Kanhu Indoor Stadium, Durgapur - WBPCB",28-05-2024 14:00:00,23.5404352,87.2892225,PM10,11,155,68
India,West_Bengal,Haldia,"Priyambada Housing Estate, Haldia - WBPCB",28-05-2024 14:00:00,22.06047,88.109737,PM2.5,4,40,19
India,West_Bengal,Haldia,"Priyambada Housing Estate, Haldia - WBPCB",28-05-2024 14:00:00,22.06047,88.109737,OZONE,21,36,29
India,West_Bengal,Howrah,"Belur Math, Howrah - WBPCB",28-05-2024 14:00:00,22.629801,88.352017,PM2.5,7,62,26
India,West_Bengal,Howrah,"Belur Math, Howrah - WBPCB",28-05-2024 14:00:00,22.629801,88.352017,NH3,1,2,1
India,West_Bengal,Howrah,"Belur Math, Howrah - WBPCB",28-05-2024 14:00:00,22.629801,88.352017,SO2,3,9,7
India,West_Bengal,Howrah,"Padmapukur, Howrah - WBPCB",28-05-2024 14:00:00,22.5687319,88.2797276,OZONE,20,81,35
India,West_Bengal,Kolkata,"Bidhannagar, Kolkata - WBPCB",28-05-2024 14:00:00,22.58157048,88.41002457,PM10,NA,NA,NA
India,West_Bengal,Kolkata,"Fort William, Kolkata - WBPCB",28-05-2024 14:00:00,22.556640,88.342674,NO2,14,48,27
India,West_Bengal,Kolkata,"Fort William, Kolkata - WBPCB",28-05-2024 14:00:00,22.556640,88.342674,CO,20,33,28
India,West_Bengal,Kolkata,"Jadavpur, Kolkata - WBPCB",28-05-2024 14:00:00,22.49929,88.36917,PM2.5,NA,NA,NA
India,West_Bengal,Kolkata,"Jadavpur, Kolkata - WBPCB",28-05-2024 14:00:00,22.49929,88.36917,PM10,NA,NA,NA
India,West_Bengal,Kolkata,"Rabindra Bharati University, Kolkata - WBPCB",28-05-2024 14:00:00,22.627847,88.380669,PM2.5,3,36,15
India,West_Bengal,Kolkata,"Rabindra Sarobar, Kolkata - WBPCB",28-05-2024 14:00:00,22.51106,88.35142,PM2.5,9,40,17
India,West_Bengal,Kolkata,"Rabindra Sarobar, Kolkata - WBPCB",28-05-2024 14:00:00,22.51106,88.35142,NH3,7,9,8
India,West_Bengal,Kolkata,"Victoria, Kolkata - WBPCB",28-05-2024 14:00:00,22.5448082,88.3403691,SO2,6,10,8
India,West_Bengal,Kolkata,"Victoria, Kolkata - WBPCB",28-05-2024 14:00:00,22.5448082,88.3403691,OZONE,9,39,25
India,West_Bengal,Siliguri,"Ward-32 Bapupara, Siliguri - WBPCB",28-05-2024 14:00:00,26.6879226,88.4152495,PM2.5,26,49,39
India,West_Bengal,Siliguri,"Ward-32 Bapupara, Siliguri - WBPCB",28-05-2024 14:00:00,26.6879226,88.4152495,PM10,34,58,43
India,West_Bengal,Siliguri,"Ward-32 Bapupara, Siliguri - WBPCB",28-05-2024 14:00:00,26.6879226,88.4152495,SO2,3,8,6
India,West_Bengal,Siliguri,"Ward-32 Bapupara, Siliguri - WBPCB",28-05-2024 14:00:00,26.6879226,88.4152495,OZONE,17,47,40
India,Andhra_Pradesh,Amaravati,"Secretariat, Amaravati - APPCB",28-05-2024 14:00:00,16.5150833,80.5181667,PM2.5,27,63,41
India,Andhra_Pradesh,Amaravati,"Secretariat, Amaravati - APPCB",28-05-2024 14:00:00,16.5150833,80.5181667,PM10,56,83,70
India,Andhra_Pradesh,Amaravati,"Secretariat, Amaravati - APPCB",28-05-2024 14:00:00,16.5150833,80.5181667,NO2,5,11,8
India,Andhra_Pradesh,Anantapur,"Gulzarpet, Anantapur - APPCB",28-05-2024 14:00:00,14.675886,77.593027,PM10,31,101,65
India,Andhra_Pradesh,Anantapur,"Gulzarpet, Anantapur - APPCB",28-05-2024 14:00:00,14.675886,77.593027,CO,24,37,32
India,Andhra_Pradesh,Kadapa,"Yerramukkapalli, Kadapa - APPCB",28-05-2024 14:00:00,14.465052,78.824187,PM10,37,78,53
India,Andhra_Pradesh,Kadapa,"Yerramukkapalli, Kadapa - APPCB",28-05-2024 14:00:00,14.465052,78.824187,NH3,3,3,3
India,Andhra_Pradesh,Tirupati,"Tirumala, Tirupati - APPCB",28-05-2024 14:00:00,13.67,79.35,PM10,56,84,66
India,Andhra_Pradesh,Tirupati,"Vaikuntapuram, Tirupati - APPCB",28-05-2024 14:00:00,13.615387,79.409230,NO2,14,32,17
India,Andhra_Pradesh,Tirupati,"Vaikuntapuram, Tirupati - APPCB",28-05-2024 14:00:00,13.615387,79.409230,NH3,2,4,2
India,Andhra_Pradesh,Tirupati,"Vaikuntapuram, Tirupati - APPCB",28-05-2024 14:00:00,13.615387,79.409230,CO,8,16,12
India,Andhra_Pradesh,Tirupati,"Vaikuntapuram, Tirupati - APPCB",28-05-2024 14:00:00,13.615387,79.409230,OZONE,10,28,15
India,Andhra_Pradesh,Vijayawada,"HB Colony, Vijayawada - APPCB",28-05-2024 14:00:00,16.536107,80.594233,PM10,45,65,51
India,Andhra_Pradesh,Vijayawada,"HB Colony, Vijayawada - APPCB",28-05-2024 14:00:00,16.536107,80.594233,NO2,18,30,22
India,Andhra_Pradesh,Vijayawada,"HB Colony, Vijayawada - APPCB",28-05-2024 14:00:00,16.536107,80.594233,NH3,5,5,5
India,Andhra_Pradesh,Vijayawada,"Rajiv Gandhi Park, Vijayawada - APPCB",28-05-2024 14:00:00,16.509717,80.612222,PM2.5,50,68,59
India,Assam,Byrnihat,"Central Academy for SFS, Byrnihat - PCBA",28-05-2024 14:00:00,26.071318,91.87488,PM2.5,NA,NA,NA
India,Assam,Byrnihat,"Central Academy for SFS, Byrnihat - PCBA",28-05-2024 14:00:00,26.071318,91.87488,NH3,NA,NA,NA
India,Assam,Guwahati,"IITG, Guwahati - PCBA",28-05-2024 14:00:00,26.2028636,91.70046436,SO2,13,13,13
India,Assam,Guwahati,"LGBI Airport, Guwahati - PCBA",28-05-2024 14:00:00,26.10887,91.589544,PM2.5,NA,NA,NA
India,Assam,Guwahati,"Railway Colony, Guwahati - PCBA",28-05-2024 14:00:00,26.181742,91.78063,PM2.5,NA,NA,NA
India,Assam,Guwahati,"Railway Colony, Guwahati - PCBA",28-05-2024 14:00:00,26.181742,91.78063,PM10,NA,NA,NA
India,Assam,Nagaon,"Christianpatty, Nagaon - PCBA",28-05-2024 14:00:00,26.349082,92.68449,NO2,NA,NA,NA
India,Assam,Nalbari,"Bata Chowk, Nalbari - PCBA",28-05-2024 14:00:00,26.446912,91.439057,NH3,NA,NA,NA
India,Assam,Nalbari,"Bata Chowk, Nalbari - PCBA",28-05-2024 14:00:00,26.446912,91.439057,SO2,NA,NA,NA
India,Assam,Sivasagar,"Girls College, Sivasagar - PCBA",28-05-2024 14:00:00,26.987634,94.636574,NO2,8,13,10
India,Bihar,Aurangabad,"Gurdeo Nagar, Aurangabad - BSPCB",28-05-2024 14:00:00,24.75746,84.366208,PM10,NA,NA,NA
India,Bihar,Bettiah,"Kamalnath Nagar, Bettiah - BSPCB",28-05-2024 14:00:00,26.80365,84.51954,PM2.5,NA,NA,NA
India,Bihar,Bettiah,"Kamalnath Nagar, Bettiah - BSPCB",28-05-2024 14:00:00,26.80365,84.51954,SO2,NA,NA,NA
India,Bihar,Bhagalpur,"Mayaganj, Bhagalpur - BSPCB",28-05-2024 14:00:00,25.265194,87.012947,NO2,2,11,7
India,Bihar,Bihar Sharif,"D M Colony, Bihar Sharif - BSPCB",28-05-2024 14:00:00,25.204762,85.514960,PM10,25,215,82
India,Bihar,Bihar Sharif,"D M Colony, Bihar Sharif - BSPCB",28-05-2024 14:00:00,25.204762,85.514960,CO,103,105,104
India,Bihar,Bihar Sharif,"D M Colony, Bihar Sharif - BSPCB",28-05-2024 14:00:00,25.204762,85.514960,OZONE,7,27,20
India,Bihar,Buxar,"Charitra Van, Buxar - BSPCB (Formerly known as Central Jail)",28-05-2024 14:00:00,25.567520,83.966379,CO,17,120,45
India,Bihar,Gaya,"Kareemganj, Gaya - BSPCB",28-05-2024 14:00:00,24.792403,84.992416,NH3,1,8,4
India,Bihar,Gaya,"SFTI Kusdihra, Gaya - BSPCB",28-05-2024 14:00:00,24.762518,84.982348,PM2.5,13,154,61
India,Bihar,Gaya,"SFTI Kusdihra, Gaya - BSPCB",28-05-2024 14:00:00,24.762518,84.982348,NO2,10,28,18
India,Bihar,Gaya,"SFTI Kusdihra, Gaya - BSPCB",28-05-2024 14:00:00,24.762518,84.982348,NH3,2,4,3
India,Bihar,Hajipur,"Industrial Area, Hajipur - BSPCB",28-05-2024 14:00:00,25.697189,85.245900,PM2.5,56,88,71
India,Bihar,Hajipur,"Industrial Area, Hajipur - BSPCB",28-05-2024 14:00:00,25.697189,85.245900,CO,14,36,25
India,Bihar,Katihar,"Mirchaibari, Katihar - BSPCB",28-05-2024 14:00:00,25.560083,87.553265,PM2.5,2,30,14
India,Bihar,Katihar,"Mirchaibari, Katihar - BSPCB",28-05-2024 14:00:00,25.560083,87.553265,SO2,5,24,13
India,Bihar,Motihari,"Gandak Colony, Motihari - BSPCB",28-05-2024 14:00:00,26.63086,84.90051,PM2.5,NA,NA,NA
India,Bihar,Motihari,"Gandak Colony, Motihari - BSPCB",28-05-2024 14:00:00,26.63086,84.90051,PM10,NA,NA,NA
India,Bihar,Muzaffarpur,"Buddha Colony, Muzaffarpur - BSPCB",28-05-2024 14:00:00,26.11442,85.39813,NH3,4,9,6
India,Bihar,Muzaffarpur,"MIT-Daudpur Kothi, Muzaffarpur - BSPCB",28-05-2024 14:00:00,26.1403345,85.3650192,PM10,NA,NA,NA
India,Bihar,Muzaffarpur,"MIT-Daudpur Kothi, Muzaffarpur - BSPCB",28-05-2024 14:00:00,26.1403345,85.3650192,CO,14,90,40
India,Bihar,Patna,"DRM Office Danapur, Patna - BSPCB",28-05-2024 14:00:00,25.586562,85.043586,PM2.5,5,117,55
India,Bihar,Patna,"DRM Office Danapur, Patna - BSPCB",28-05-2024 14:00:00,25.586562,85.043586,NH3,2,3,3
India,Bihar,Patna,"DRM Office Danapur, Patna - BSPCB",28-05-2024 14:00:00,25.586562,85.043586,OZONE,21,76,42
India,Bihar,Patna,"Govt. High School Shikarpur, Patna - BSPCB",28-05-2024 14:00:00,25.592539,85.227158,PM10,68,107,85
India,Bihar,Patna,"IGSC Planetarium Complex, Patna - BSPCB",28-05-2024 14:00:00,25.610369,85.132568,CO,15,20,17
India,Bihar,Patna,"Rajbansi Nagar, Patna - BSPCB",28-05-2024 14:00:00,25.599486,85.113666,NH3,4,5,4
India,Bihar,Patna,"Samanpura, Patna - BSPCB",28-05-2024 14:00:00,25.596727,85.085624,CO,30,50,46
India,Bihar,Purnia,"Mariam Nagar, Purnia - BSPCB",28-05-2024 14:00:00,25.366336,87.117468,PM2.5,NA,NA,NA
India,Bihar,Purnia,"Mariam Nagar, Purnia - BSPCB",28-05-2024 14:00:00,25.366336,87.117468,PM10,NA,NA,NA
India,Bihar,Purnia,"Mariam Nagar, Purnia - BSPCB",28-05-2024 14:00:00,25.366336,87.117468,NH3,6,9,7
India,Bihar,Rajgir,"Dangi Tola, Rajgir - BSPCB",28-05-2024 14:00:00,25.03280,85.41948,SO2,4,5,4
India,Bihar,Samastipur,"DM Office_Kasipur, Samastipur - BSPCB",28-05-2024 14:00:00,25.859655,85.77944,SO2,34,66,56
India,Bihar,Sasaram,"Dada Peer, Sasaram - BSPCB",28-05-2024 14:00:00,24.952822,84.002396,CO,47,80,72
India,Bihar,Sasaram,"Dada Peer, Sasaram - BSPCB",28-05-2024 14:00:00,24.952822,84.002396,OZONE,8,74,43
India,Bihar,Siwan,"Chitragupta Nagar, Siwan - BSPCB",28-05-2024 14:00:00,26.2271665,84.3570427,PM10,NA,NA,NA
India,Bihar,Siwan,"Chitragupta Nagar, Siwan - BSPCB",28-05-2024 14:00:00,26.2271665,84.3570427,NH3,1,53,4
India,Bihar,Siwan,"Chitragupta Nagar, Siwan - BSPCB",28-05-2024 14:00:00,26.2271665,84.3570427,SO2,6,32,25
India,Chandigarh,Chandigarh,"Sector 22, Chandigarh - CPCC",28-05-2024 14:00:00,30.735567,76.775714,NO2,25,162,74
India,Chandigarh,Chandigarh,"Sector 22, Chandigarh - CPCC",28-05-2024 14:00:00,30.735567,76.775714,NH3,8,19,13
India,Chandigarh,Chandigarh,"Sector 22, Chandigarh - CPCC",28-05-2024 14:00:00,30.735567,76.775714,SO2,7,71,28
India,Chandigarh,Chandigarh,"Sector-25, Chandigarh - CPCC",28-05-2024 14:00:00,30.751462,76.762879,CO,8,52,32
India,Chandigarh,Chandigarh,"Sector-53, Chandigarh - CPCC",28-05-2024 14:00:00,30.719859,76.738637,PM10,79,215,147
India,Chandigarh,Chandigarh,"Sector-53, Chandigarh - CPCC",28-05-2024 14:00:00,30.719859,76.738637,SO2,8,43,21
India,Chandigarh,Chandigarh,"Sector-53, Chandigarh - CPCC",28-05-2024 14:00:00,30.719859,76.738637,OZONE,3,75,44
India,Chhattisgarh,Bhilai,"32Bungalows, Bhilai - CECB",28-05-2024 14:00:00,21.194815,81.314770,OZONE,8,101,41
India,Chhattisgarh,Bhilai,"Civic Center, Bhilai - Bhilai Steel Plant",28-05-2024 14:00:00,21.185571,81.343175,PM10,41,80,53
India,Chhattisgarh,Bhilai,"Hathkhoj, Bhilai - CECB",28-05-2024 14:00:00,21.224231,81.408350,PM2.5,32,104,59
India,Chhattisgarh,Bhilai,"Hathkhoj, Bhilai - CECB",28-05-2024 14:00:00,21.224231,81.408350,NH3,9,9,9
India,Chhattisgarh,Chhal,"Nawapara SECL Colony, Chhal - CECB",28-05-2024 14:00:00,22.118125,83.140608,PM2.5,50,149,102
India,Chhattisgarh,Korba,"Urja Nagar, Korba - CECB",28-05-2024 14:00:00,22.348441,82.549611,CO,NA,NA,NA
India,Chhattisgarh,Korba,"Urja Nagar, Korba - CECB",28-05-2024 14:00:00,22.348441,82.549611,OZONE,NA,NA,NA
India,Chhattisgarh,Kunjemura,"OP Jindal School, Kunjemura - CECB",28-05-2024 14:00:00,22.126650,83.483212,CO,22,86,52
India,Chhattisgarh,Kunjemura,"OP Jindal School, Kunjemura - CECB",28-05-2024 14:00:00,22.126650,83.483212,OZONE,5,57,24
India,Chhattisgarh,Milupara,"Govt. Higher Secondary School, Milupara - CECB",28-05-2024 14:00:00,22.1910172,83.5197009,NH3,NA,NA,NA
India,Chhattisgarh,Milupara,"Govt. Higher Secondary School, Milupara - CECB",28-05-2024 14:00:00,22.1910172,83.5197009,OZONE,27,47,46
India,Chhattisgarh,Raipur,"AIIMS, Raipur - CECB",28-05-2024 14:00:00,21.258815,81.578979,OZONE,5,72,22
India,Chhattisgarh,Raipur,"Bhatagaon New ISBT, Raipur - CECB",28-05-2024 14:00:00,21.219665,81.630094,PM10,40,96,61
India,Chhattisgarh,Tumidih,"OP Jindal Industrial Park, Tumidih - CECB",28-05-2024 14:00:00,22.06631475,83.33820077,NO2,10,89,42
India,Delhi,Delhi,"Alipur, Delhi - DPCC",28-05-2024 14:00:00,28.815329,77.153010,SO2,12,101,37
India,Delhi,Delhi,"Anand Vihar, Delhi - DPCC",28-05-2024 14:00:00,28.647622,77.3158090,NO2,54,154,117
India,Delhi,Delhi,"Anand Vihar, Delhi - DPCC",28-05-2024 14:00:00,28.647622,77.3158090,CO,87,151,107
India,Delhi,Delhi,"Ashok Vihar, Delhi - DPCC",28-05-2024 14:00:00,28.695381,77.181665,NH3,3,19,11
India,Delhi,Delhi,"Bawana, Delhi - DPCC",28-05-2024 14:00:00,28.776200,77.051074,PM2.5,47,434,230
India,Delhi,Delhi,"Bawana, Delhi - DPCC",28-05-2024 14:00:00,28.776200,77.051074,SO2,12,121,53
India,Delhi,Delhi,"Burari Crossing, Delhi - IMD",28-05-2024 14:00:00,28.7256504,77.2011573,PM10,141,429,256
India,Delhi,Delhi,"Burari Crossing, Delhi - IMD",28-05-2024 14:00:00,28.7256504,77.2011573,CO,14,345,82
India,Delhi,Delhi,"CRRI Mathura Road, Delhi - IMD",28-05-2024 14:00:00,28.5512005,77.2735737,PM10,128,421,232
India,Delhi,Delhi,"Chandni Chowk, Delhi - IITM",28-05-2024 14:00:00,28.656756,77.227234,PM2.5,NA,NA,NA
India,Delhi,Delhi,"Chandni Chowk, Delhi - IITM",28-05-2024 14:00:00,28.656756,77.227234,SO2,NA,NA,NA
India,Delhi,Delhi,"Chandni Chowk, Delhi - IITM",28-05-2024 14:00:00,28.656756,77.227234,OZONE,6,12,9
India,Delhi,Delhi,"DTU, Delhi - CPCB",28-05-2024 14:00:00,28.7500499,77.1112615,NO2,29,39,34
India,Delhi,Delhi,"DTU, Delhi - CPCB",28-05-2024 14:00:00,28.7500499,77.1112615,CO,7,111,44
India,Delhi,Delhi,"Dr. Karni Singh Shooting Range, Delhi - DPCC",28-05-2024 14:00:00,28.498571,77.264840,PM2.5,58,326,216
India,Delhi,Delhi,"Dr. Karni Singh Shooting Range, Delhi - DPCC",28-05-2024 14:00:00,28.498571,77.264840,PM10,123,279,167
India,Delhi,Delhi,"Dr. Karni Singh Shooting Range, Delhi - DPCC",28-05-2024 14:00:00,28.498571,77.264840,NO2,23,131,52
India,Delhi,Delhi,"Dr. Karni Singh Shooting Range, Delhi - DPCC",28-05-2024 14:00:00,28.498571,77.264840,CO,23,102,37
India,Delhi,Delhi,"Dwarka-Sector 8, Delhi - DPCC ",28-05-2024 14:00:00,28.5710274,77.0719006,PM2.5,42,321,172
India,Delhi,Delhi,"Dwarka-Sector 8, Delhi - DPCC ",28-05-2024 14:00:00,28.5710274,77.0719006,PM10,127,480,285
India,Delhi,Delhi,"IGI Airport (T3), Delhi - IMD",28-05-2024 14:00:00,28.5627763,77.1180053,NO2,22,92,55
India,Delhi,Delhi,"Jahangirpuri, Delhi - DPCC",28-05-2024 14:00:00,28.732820,77.170633,PM2.5,67,424,240
India,Delhi,Delhi,"Jawaharlal Nehru Stadium, Delhi - DPCC",28-05-2024 14:00:00,28.580280,77.233829,NO2,17,174,85
India,Delhi,Delhi,"Jawaharlal Nehru Stadium, Delhi - DPCC",28-05-2024 14:00:00,28.580280,77.233829,NH3,6,8,7
India,Delhi,Delhi,"Lodhi Road, Delhi - IMD",28-05-2024 14:00:00,28.5918245,77.2273074,PM2.5,69,294,164
India,Delhi,Delhi,"Lodhi Road, Delhi - IMD",28-05-2024 14:00:00,28.5918245,77.2273074,NO2,7,53,31
India,Delhi,Delhi,"Major Dhyan Chand National Stadium, Delhi - DPCC",28-05-2024 14:00:00,28.611281,77.237738,CO,50,145,87
India,Delhi,Delhi,"Mandir Marg, Delhi - DPCC",28-05-2024 14:00:00,28.636429,77.201067,PM2.5,50,313,136
India,Delhi,Delhi,"Mandir Marg, Delhi - DPCC",28-05-2024 14:00:00,28.636429,77.201067,NO2,78,140,108
India,Delhi,Delhi,"Mundka, Delhi - DPCC",28-05-2024 14:00:00,28.684678,77.076574,NO2,42,156,97
India,Delhi,Delhi,"NSIT Dwarka, Delhi - CPCB",28-05-2024 14:00:00,28.60909,77.0325413,PM10,165,294,223
India,Delhi,Delhi,"Najafgarh, Delhi - DPCC",28-05-2024 14:00:00,28.570173,76.933762,PM10,79,225,145
India,Delhi,Delhi,"Najafgarh, Delhi - DPCC",28-05-2024 14:00:00,28.570173,76.933762,NO2,11,53,26
India,Delhi,Delhi,"Najafgarh, Delhi - DPCC",28-05-2024 14:00:00,28.570173,76.933762,SO2,8,24,17
India,Delhi,Delhi,"Narela, Delhi - DPCC",28-05-2024 14:00:00,28.822836,77.101981,PM10,138,455,303
India,Delhi,Delhi,"Nehru Nagar, Delhi - DPCC",28-05-2024 14:00:00,28.567890,77.250515,SO2,6,12,9
India,Delhi,Delhi,"North Campus, DU, Delhi - IMD",28-05-2024 14:00:00,28.6573814,77.1585447,PM10,85,414,221
India,Delhi,Delhi,"North Campus, DU, Delhi - IMD",28-05-2024 14:00:00,28.6573814,77.1585447,OZONE,7,86,41
India,Delhi,Delhi,"Patparganj, Delhi - DPCC",28-05-2024 14:00:00,28.623763,77.287209,CO,28,57,35
India,Delhi,Delhi,"Punjabi Bagh, Delhi - DPCC",28-05-2024 14:00:00,28.674045,77.131023,NH3,6,9,7
India,Delhi,Delhi,"Pusa, Delhi - DPCC",28-05-2024 14:00:00,28.639652,77.146275,PM10,139,455,199
India,Delhi,Delhi,"Pusa, Delhi - DPCC",28-05-2024 14:00:00,28.639652,77.146275,NH3,5,7,6
India,Delhi,Delhi,"Pusa, Delhi - DPCC",28-05-2024 14:00:00,28.639652,77.146275,CO,7,91,39
India,Delhi,Delhi,"Pusa, Delhi - IMD",28-05-2024 14:00:00,28.636110,77.173332,PM2.5,NA,NA,NA
India,Delhi,Delhi,"Pusa, Delhi - IMD",28-05-2024 14:00:00,28.636110,77.173332,NO2,NA,NA,NA
India,Delhi,Delhi,"R K Puram, Delhi - DPCC",28-05-2024 14:00:00,28.563262,77.186937,PM10,123,405,205
India,Delhi,Delhi,"R K Puram, Delhi - DPCC",28-05-2024 14:00:00,28.563262,77.186937,NH3,6,18,9
India,Delhi,Delhi,"Shadipur, Delhi - CPCB",28-05-2024 14:00:00,28.6514781,77.1473105,NO2,75,230,164
India,Delhi,Delhi,"Shadipur, Delhi - CPCB",28-05-2024 14:00:00,28.6514781,77.1473105,OZONE,22,149,72
India,Delhi,Delhi,"Sirifort, Delhi - CPCB",28-05-2024 14:00:00,28.5504249,77.2159377,PM10,158,500,270
India,Delhi,Delhi,"Sirifort, Delhi - CPCB",28-05-2024 14:00:00,28.5504249,77.2159377,SO2,42,54,47
India,Delhi,Delhi,"Sonia Vihar, Delhi - DPCC",28-05-2024 14:00:00,28.710508,77.249485,PM2.5,78,367,237
India,Delhi,Delhi,"Sonia Vihar, Delhi - DPCC",28-05-2024 14:00:00,28.710508,77.249485,SO2,14,75,26
India,Delhi,Delhi,"Sonia Vihar, Delhi - DPCC",28-05-2024 14:00:00,28.710508,77.249485,OZONE,6,171,160
India,Delhi,Delhi,"Sri Aurobindo Marg, Delhi - DPCC",28-05-2024 14:00:00,28.531346,77.190156,OZONE,1,270,196
India,Delhi,Delhi,"Vivek Vihar, Delhi - DPCC",28-05-2024 14:00:00,28.672342,77.315260,PM2.5,80,333,192
India,Delhi,Delhi,"Vivek Vihar, Delhi - DPCC",28-05-2024 14:00:00,28.672342,77.315260,NH3,14,16,15
India,Gujarat,Ahmedabad,"Chandkheda, Ahmedabad - IITM",28-05-2024 14:00:00,23.107969,72.574648,NH3,8,9,9
India,Gujarat,Ahmedabad,"Chandkheda, Ahmedabad - IITM",28-05-2024 14:00:00,23.107969,72.574648,CO,34,76,43
India,Gujarat,Ahmedabad,"Gyaspur, Ahmedabad - IITM",28-05-2024 14:00:00,22.977134,72.553024,PM2.5,59,341,159
India,Gujarat,Ahmedabad,"Gyaspur, Ahmedabad - IITM",28-05-2024 14:00:00,22.977134,72.553024,PM10,63,285,135
India,Gujarat,Ahmedabad,"Gyaspur, Ahmedabad - IITM",28-05-2024 14:00:00,22.977134,72.553024,CO,32,41,34
India,Gujarat,Ahmedabad,"Maninagar, Ahmedabad - GPCB",28-05-2024 14:00:00,23.002657,72.591912,PM2.5,NA,NA,NA
India,Gujarat,Ahmedabad,"Maninagar, Ahmedabad - GPCB",28-05-2024 14:00:00,23.002657,72.591912,PM10,NA,NA,NA
India,Gujarat,Ahmedabad,"Raikhad, Ahmedabad - IITM",28-05-2024 14:00:00,23.020509,72.579261,PM10,NA,NA,NA
India,Gujarat,Ahmedabad,"SVPI Airport Hansol, Ahmedabad - IITM",28-05-2024 14:00:00,23.076793,72.627874,PM2.5,75,272,157
India,Gujarat,Ahmedabad,"SVPI Airport Hansol, Ahmedabad - IITM",28-05-2024 14:00:00,23.076793,72.627874,OZONE,31,64,42
India,Gujarat,Ahmedabad,"Sardar Vallabhbhai Patel Stadium, Ahmedabad - IITM",28-05-2024 14:00:00,23.043070,72.562968,NO2,NA,NA,NA
India,Gujarat,Ankleshwar,"GIDC, Ankleshwar - GPCB",28-05-2024 14:00:00,21.613267,73.010555,PM10,44,90,64
India,Gujarat,Ankleshwar,"GIDC, Ankleshwar - GPCB",28-05-2024 14:00:00,21.613267,73.010555,SO2,1,50,16
India,Gujarat,Gandhinagar,"Sector-10, Gandhinagar - GPCB",28-05-2024 14:00:00,23.221714,72.654328,NO2,14,20,19
India,Gujarat,Gandhinagar,"Sector-10, Gandhinagar - GPCB",28-05-2024 14:00:00,23.221714,72.654328,NH3,1,2,2
India,Gujarat,Gandhinagar,"Sector-10, Gandhinagar - GPCB",28-05-2024 14:00:00,23.221714,72.654328,SO2,3,4,4
India,Gujarat,Nandesari,"GIDC, Nandesari - Nandesari Ind. Association",28-05-2024 14:00:00,22.410802,73.097923,PM2.5,56,280,131
India,Gujarat,Nandesari,"GIDC, Nandesari - Nandesari Ind. Association",28-05-2024 14:00:00,22.410802,73.097923,PM10,79,171,124
India,Gujarat,Surat,"Science Center, Surat - SMC",28-05-2024 14:00:00,21.170046,72.795405,PM2.5,NA,NA,NA
India,Haryana,Ambala,"Patti Mehar, Ambala - HSPCB",28-05-2024 14:00:00,30.379589,76.778328,PM2.5,10,168,51
India,Haryana,Ambala,"Patti Mehar, Ambala - HSPCB",28-05-2024 14:00:00,30.379589,76.778328,SO2,11,18,14
India,Haryana,Bahadurgarh,"Arya Nagar, Bahadurgarh - HSPCB",28-05-2024 14:00:00,28.6701,76.9254,PM10,109,416,262
India,Haryana,Bahadurgarh,"Arya Nagar, Bahadurgarh - HSPCB",28-05-2024 14:00:00,28.6701,76.9254,NO2,20,29,22
India,Haryana,Ballabgarh,"Nathu Colony, Ballabgarh - HSPCB",28-05-2024 14:00:00,28.3419248,77.319699,PM10,104,311,212
India,Haryana,Ballabgarh,"Nathu Colony, Ballabgarh - HSPCB",28-05-2024 14:00:00,28.3419248,77.319699,OZONE,4,58,28
India,Haryana,Bhiwani,"H.B. Colony, Bhiwani - HSPCB",28-05-2024 14:00:00,28.806223,76.141105,SO2,NA,NA,NA
India,Haryana,Bhiwani,"H.B. Colony, Bhiwani - HSPCB",28-05-2024 14:00:00,28.806223,76.141105,CO,17,67,27
India,Haryana,Charkhi Dadri,"Mini Secretariat, Charkhi Dadri - HSPCB",28-05-2024 14:00:00,28.593883,76.270653,PM2.5,53,200,102
India,Haryana,Charkhi Dadri,"Mini Secretariat, Charkhi Dadri - HSPCB",28-05-2024 14:00:00,28.593883,76.270653,PM10,42,113,74
India,Haryana,Charkhi Dadri,"Mini Secretariat, Charkhi Dadri - HSPCB",28-05-2024 14:00:00,28.593883,76.270653,OZONE,14,18,15
India,Haryana,Dharuhera,"Municipal Corporation Office, Dharuhera -  HSPCB",28-05-2024 14:00:00,28.206800,76.799700,SO2,NA,NA,NA
India,Haryana,Faridabad,"New Industrial Town, Faridabad - HSPCB",28-05-2024 14:00:00,28.39072,77.30059,PM10,159,500,286
India,Haryana,Faridabad,"New Industrial Town, Faridabad - HSPCB",28-05-2024 14:00:00,28.39072,77.30059,NH3,2,8,4
India,Haryana,Faridabad,"Sector 11, Faridabad - HSPCB",28-05-2024 14:00:00,28.376058,77.315741,PM2.5,215,428,343
India,Haryana,Faridabad,"Sector 11, Faridabad - HSPCB",28-05-2024 14:00:00,28.376058,77.315741,OZONE,7,56,19
India,Haryana,Faridabad,"Sector 30, Faridabad - HSPCB",28-05-2024 14:00:00,28.4417,77.3217,NH3,NA,NA,NA
India,Haryana,Faridabad,"Sector 30, Faridabad - HSPCB",28-05-2024 14:00:00,28.4417,77.3217,CO,16,108,17
India,Haryana,Faridabad,"Sector 30, Faridabad - HSPCB",28-05-2024 14:00:00,28.4417,77.3217,OZONE,6,130,90
India,Haryana,Faridabad,"Sector- 16A, Faridabad - HSPCB",28-05-2024 14:00:00,28.4088421,77.3099081,PM2.5,53,385,159
India,Haryana,Faridabad,"Sector- 16A, Faridabad - HSPCB",28-05-2024 14:00:00,28.4088421,77.3099081,CO,12,103,30
India,Haryana,Faridabad,"Sector- 16A, Faridabad - HSPCB",28-05-2024 14:00:00,28.4088421,77.3099081,OZONE,14,14,14
India,Haryana,Gurugram,"NISE Gwal Pahari, Gurugram - IMD",28-05-2024 14:00:00,28.422681,77.148944,CO,99,114,107
India,Haryana,Gurugram,"Sector-51, Gurugram - HSPCB",28-05-2024 14:00:00,28.4227,77.0667,PM2.5,86,357,198
India,Haryana,Gurugram,"Sector-51, Gurugram - HSPCB",28-05-2024 14:00:00,28.4227,77.0667,NH3,7,14,9
India,Haryana,Gurugram,"Sector-51, Gurugram - HSPCB",28-05-2024 14:00:00,28.4227,77.0667,OZONE,29,73,41
India,Haryana,Gurugram,"Teri Gram, Gurugram - HSPCB",28-05-2024 14:00:00,28.4275,77.1465,OZONE,29,76,69
India,Haryana,Gurugram,"Vikas Sadan, Gurugram - HSPCB",28-05-2024 14:00:00,28.4501238,77.0263051,SO2,9,104,42
India,Haryana,Karnal,"Sector-12, Karnal - HSPCB",28-05-2024 14:00:00,29.695300,77.002700,NH3,10,13,11
India,Haryana,Kurukshetra,"Sector-7, Kurukshetra - HSPCB",28-05-2024 14:00:00,29.966942,76.875879,PM10,91,174,122
India,Haryana,Kurukshetra,"Sector-7, Kurukshetra - HSPCB",28-05-2024 14:00:00,29.966942,76.875879,NO2,15,21,18
India,Haryana,Kurukshetra,"Sector-7, Kurukshetra - HSPCB",28-05-2024 14:00:00,29.966942,76.875879,NH3,4,6,6
India,Haryana,Mandikhera,"General Hospital, Mandikhera - HSPCB",28-05-2024 14:00:00,27.9002,76.9938,PM2.5,13,68,46
India,Haryana,Mandikhera,"General Hospital, Mandikhera - HSPCB",28-05-2024 14:00:00,27.9002,76.9938,SO2,29,38,33
India,Haryana,Manesar,"Sector-2 IMT, Manesar - HSPCB",28-05-2024 14:00:00,28.360699,76.936090,PM2.5,44,208,116
India,Haryana,Manesar,"Sector-2 IMT, Manesar - HSPCB",28-05-2024 14:00:00,28.360699,76.936090,NH3,2,5,4
India,Haryana,Palwal,"Shyam Nagar, Palwal - HSPCB",28-05-2024 14:00:00,28.1485564,77.3320667,PM10,96,133,112
India,Haryana,Palwal,"Shyam Nagar, Palwal - HSPCB",28-05-2024 14:00:00,28.1485564,77.3320667,SO2,6,14,10
India,Haryana,Sonipat,"Murthal, Sonipat - HSPCB",28-05-2024 14:00:00,29.027200,77.062100,NH3,7,10,9
India,Haryana,Sonipat,"Murthal, Sonipat - HSPCB",28-05-2024 14:00:00,29.027200,77.062100,CO,24,26,25
India,Haryana,Sonipat,"Murthal, Sonipat - HSPCB",28-05-2024 14:00:00,29.027200,77.062100,OZONE,16,35,27
India,Himachal Pradesh,Baddi,"HIMUDA Complex Phase-1, Baddi - HPPCB",28-05-2024 14:00:00,30.943887,76.801991,PM2.5,43,351,116
India,Himachal Pradesh,Baddi,"HIMUDA Complex Phase-1, Baddi - HPPCB",28-05-2024 14:00:00,30.943887,76.801991,SO2,14,124,49
India,Himachal Pradesh,Baddi,"HIMUDA Complex Phase-1, Baddi - HPPCB",28-05-2024 14:00:00,30.943887,76.801991,OZONE,62,301,293
India,Jharkhand,Dhanbad,"Sardar Patel Nagar, Dhanbad - JSPCB",28-05-2024 14:00:00,23.80569,86.44268,PM2.5,2,135,23
India,Jharkhand,Dhanbad,"Sardar Patel Nagar, Dhanbad - JSPCB",28-05-2024 14:00:00,23.80569,86.44268,OZONE,17,50,34
India,Karnataka,Belgaum,"Ramteerth Nagar, Belgaum - KSPCB",28-05-2024 14:00:00,15.888653,74.541751,NO2,17,48,30
India,Karnataka,Bengaluru,"Bapuji Nagar, Bengaluru - KSPCB",28-05-2024 14:00:00,12.951913,77.539784,NO2,14,16,15
India,Karnataka,Bengaluru,"Bapuji Nagar, Bengaluru - KSPCB",28-05-2024 14:00:00,12.951913,77.539784,NH3,1,1,1
India,Karnataka,Bengaluru,"Bapuji Nagar, Bengaluru - KSPCB",28-05-2024 14:00:00,12.951913,77.539784,SO2,6,8,7
India,Karnataka,Bengaluru,"Hombegowda Nagar, Bengaluru - KSPCB",28-05-2024 14:00:00,12.938539,77.590100,PM2.5,28,41,35
India,Karnataka,Bengaluru,"Hombegowda Nagar, Bengaluru - KSPCB",28-05-2024 14:00:00,12.938539,77.590100,PM10,42,61,53
India,Karnataka,Bengaluru,"Hombegowda Nagar, Bengaluru - KSPCB",28-05-2024 14:00:00,12.938539,77.590100,NH3,1,2,1
India,Karnataka,Bengaluru,"Jayanagar 5th Block, Bengaluru - KSPCB",28-05-2024 14:00:00,12.920984,77.584908,PM2.5,38,72,51
India,Karnataka,Bengaluru,"Kasturi Nagar, Bengaluru - KSPCB",28-05-2024 14:00:00,13.003872,77.664217,PM2.5,10,500,68
India,Karnataka,Bengaluru,"Kasturi Nagar, Bengaluru - KSPCB",28-05-2024 14:00:00,13.003872,77.664217,NH3,3,4,4
India,Karnataka,Bengaluru,"Peenya, Bengaluru - CPCB",28-05-2024 14:00:00,13.0270199,77.494094,CO,74,89,78
India,Karnataka,Bengaluru,"Peenya, Bengaluru - CPCB",28-05-2024 14:00:00,13.0270199,77.494094,OZONE,22,28,25
India,Karnataka,Bengaluru,"RVCE-Mailasandra, Bengaluru - KSPCB",28-05-2024 14:00:00,12.921418,77.502466,PM10,NA,NA,NA
India,Karnataka,Bengaluru,"Sanegurava Halli, Bengaluru - KSPCB",28-05-2024 14:00:00,12.990328,77.5431385,PM10,34,74,47
India,Karnataka,Bengaluru,"Shivapura_Peenya, Bengaluru - KSPCB",28-05-2024 14:00:00,13.0246342,77.5080115,CO,20,32,25
India,Karnataka,Bidar,"Naubad, Bidar - KSPCB",28-05-2024 14:00:00,17.930306,77.482194,PM2.5,36,100,55
India,Karnataka,Bidar,"Naubad, Bidar - KSPCB",28-05-2024 14:00:00,17.930306,77.482194,PM10,91,121,106
India,Karnataka,Bidar,"Naubad, Bidar - KSPCB",28-05-2024 14:00:00,17.930306,77.482194,NH3,3,3,3
India,Karnataka,Chamarajanagar,"Urban, Chamarajanagar - KSPCB",28-05-2024 14:00:00,11.55358,76.55521,PM2.5,21,42,33
India,Karnataka,Chamarajanagar,"Urban, Chamarajanagar - KSPCB",28-05-2024 14:00:00,11.55358,76.55521,CO,14,28,23
India,Karnataka,Chikkaballapur,"Chikkaballapur Rural, Chikkaballapur - KSPCB",28-05-2024 14:00:00,13.428828,77.731418,OZONE,24,26,25
India,Karnataka,Chikkamagaluru,"Kalyana Nagara, Chikkamagaluru - KSPCB",28-05-2024 14:00:00,13.328028,75.797056,NH3,2,5,3
India,Karnataka,Chikkamagaluru,"Kalyana Nagara, Chikkamagaluru - KSPCB",28-05-2024 14:00:00,13.328028,75.797056,OZONE,15,67,30
India,Karnataka,Davanagere,"Devaraj Urs Badavane, Davanagere - KSPCB",28-05-2024 14:00:00,14.475800,75.905200,PM2.5,25,60,42
India,Karnataka,Dharwad,"Kalabhavan, Dharwad - KSPCB",28-05-2024 14:00:00,15.459706,75.008381,PM2.5,35,78,56
India,Karnataka,Dharwad,"Kalabhavan, Dharwad - KSPCB",28-05-2024 14:00:00,15.459706,75.008381,NO2,5,16,10
India,Karnataka,Gadag,"Panchal Nagar, Gadag - KSPCB",28-05-2024 14:00:00,15.411456,75.638133,PM10,27,40,34
India,Karnataka,Hassan,"B.Katihalli, Hassan - KSPCB",28-05-2024 14:00:00,13.008556,76.125258,PM2.5,25,67,36
India,Karnataka,Hassan,"B.Katihalli, Hassan - KSPCB",28-05-2024 14:00:00,13.008556,76.125258,OZONE,1,35,2
India,Karnataka,Haveri,"Ashwini Nagar, Haveri - KSPCB",28-05-2024 14:00:00,14.791800,75.389600,NH3,NA,NA,NA
India,Karnataka,Haveri,"Ashwini Nagar, Haveri - KSPCB",28-05-2024 14:00:00,14.791800,75.389600,SO2,14,15,14
India,Karnataka,Haveri,"Ashwini Nagar, Haveri - KSPCB",28-05-2024 14:00:00,14.791800,75.389600,OZONE,26,44,35
India,Karnataka,Hubballi,"Lingaraj Nagar, Hubballi - KSPCB",28-05-2024 14:00:00,15.3714823,75.1160168,NH3,2,4,3
India,Karnataka,Kalaburagi,"Lal Bahadur Shastri Nagar, Kalaburagi - KSPCB",28-05-2024 14:00:00,17.321993,76.822628,SO2,NA,NA,NA
India,Karnataka,Kalaburagi,"Mahatma Basaveswar Colony, Kalaburgi - KSPCB",28-05-2024 14:00:00,17.336318,76.847397,PM2.5,15,34,26
India,Karnataka,Kalaburagi,"Mahatma Basaveswar Colony, Kalaburgi - KSPCB",28-05-2024 14:00:00,17.336318,76.847397,NO2,10,16,13
India,Karnataka,Karwar,"KHB Colony, Karwar - KSPCB",28-05-2024 14:00:00,14.816666,74.141003,PM2.5,22,46,33
India,Karnataka,Karwar,"KHB Colony, Karwar - KSPCB",28-05-2024 14:00:00,14.816666,74.141003,NO2,1,5,2
India,Karnataka,Koppal,"Diwator Nagar, Koppal - KSPCB",28-05-2024 14:00:00,15.347630,76.181767,PM2.5,13,20,16
India,Karnataka,Madikeri,"Stuart Hill, Madikeri - KSPCB",28-05-2024 14:00:00,12.415911,75.735050,NO2,1,9,2
India,Karnataka,Mangalore,"Kadri, Mangalore - KSPCB",28-05-2024 14:00:00,12.889250,74.853000,NH3,2,2,2
India,Karnataka,Mangalore,"Kadri, Mangalore - KSPCB",28-05-2024 14:00:00,12.889250,74.853000,CO,34,42,38
India,Karnataka,Mysuru,"Hebbal 1st Stage, Mysuru - KSPCB",28-05-2024 14:00:00,12.21041,76.37376,PM2.5,14,55,26
India,Karnataka,Mysuru,"Hebbal 1st Stage, Mysuru - KSPCB",28-05-2024 14:00:00,12.21041,76.37376,PM10,23,77,41
India,Karnataka,Raichur,"Haji Colony, Raichur - KSPCB",28-05-2024 14:00:00,16.208139,77.348417,PM10,30,79,58
India,Karnataka,Raichur,"Haji Colony, Raichur - KSPCB",28-05-2024 14:00:00,16.208139,77.348417,SO2,70,82,75
India,Karnataka,Ramanagara,"Vijay Nagar, Ramanagara - KSPCB",28-05-2024 14:00:00,12.733409,77.298051,PM2.5,25,73,44
India,Karnataka,Ramanagara,"Vijay Nagar, Ramanagara - KSPCB",28-05-2024 14:00:00,12.733409,77.298051,CO,12,27,22
India,Karnataka,Shivamogga,"Vinoba Nagara, Shivamogga - KSPCB",28-05-2024 14:00:00,13.940000,75.555917,PM2.5,19,54,28
India,Karnataka,Shivamogga,"Vinoba Nagara, Shivamogga - KSPCB",28-05-2024 14:00:00,13.940000,75.555917,PM10,38,75,49
India,Karnataka,Shivamogga,"Vinoba Nagara, Shivamogga - KSPCB",28-05-2024 14:00:00,13.940000,75.555917,NH3,2,34,16
India,Karnataka,Tumakuru,"Thimmalapura, Tumakuru - KSPCB",28-05-2024 14:00:00,13.377516,77.099072,OZONE,14,30,19
India,Karnataka,Udupi,"Brahmagiri, Udupi - KSPCB",28-05-2024 14:00:00,13.34194444,74.74694444,NH3,1,2,1
India,Karnataka,Udupi,"Brahmagiri, Udupi - KSPCB",28-05-2024 14:00:00,13.34194444,74.74694444,OZONE,23,24,23
India,Karnataka,Yadgir,"Collector Office, Yadgir - KSPCB",28-05-2024 14:00:00,16.7602,77.1428,NO2,6,19,11
India,Karnataka,Yadgir,"Collector Office, Yadgir - KSPCB",28-05-2024 14:00:00,16.7602,77.1428,CO,15,35,20
India,Karnataka,Yadgir,"Collector Office, Yadgir - KSPCB",28-05-2024 14:00:00,16.7602,77.1428,OZONE,17,19,18
India,Kerala,Eloor,"Udyogamandal, Eloor - Kerala PCB",28-05-2024 14:00:00,10.073232,76.302765,PM10,28,38,31
India,Kerala,Eloor,"Udyogamandal, Eloor - Kerala PCB",28-05-2024 14:00:00,10.073232,76.302765,NH3,1,1,1
India,Kerala,Kannur,"Thavakkara, Kannur - Kerala PCB",28-05-2024 14:00:00,11.875000,75.373200,OZONE,32,33,32
India,Kerala,Kollam,"Polayathode, Kollam - Kerala PCB",28-05-2024 14:00:00,8.8787,76.6073,PM2.5,NA,NA,NA
India,Kerala,Kollam,"Polayathode, Kollam - Kerala PCB",28-05-2024 14:00:00,8.8787,76.6073,PM10,NA,NA,NA
India,Kerala,Kollam,"Polayathode, Kollam - Kerala PCB",28-05-2024 14:00:00,8.8787,76.6073,NH3,NA,NA,NA
India,Kerala,Kollam,"Polayathode, Kollam - Kerala PCB",28-05-2024 14:00:00,8.8787,76.6073,OZONE,29,32,30
India,Kerala,Thiruvananthapuram,"Plammoodu, Thiruvananthapuram - Kerala PCB",28-05-2024 14:00:00,8.5149093,76.9435879,PM2.5,2,16,7
India,Kerala,Thiruvananthapuram,"Plammoodu, Thiruvananthapuram - Kerala PCB",28-05-2024 14:00:00,8.5149093,76.9435879,PM10,4,35,19
India,Kerala,Thiruvananthapuram,"Plammoodu, Thiruvananthapuram - Kerala PCB",28-05-2024 14:00:00,8.5149093,76.9435879,OZONE,8,40,13
India,Madhya Pradesh,Bhopal,"Paryavaran Parisar, Bhopal - MPPCB",28-05-2024 14:00:00,23.210494,77.425409,PM10,101,170,118
India,Madhya Pradesh,Bhopal,"T T Nagar, Bhopal - MPPCB",28-05-2024 14:00:00,23.233584,77.400574,PM2.5,30,62,42
India,Madhya Pradesh,Dewas,"Bhopal Chauraha, Dewas - MPPCB",28-05-2024 14:00:00,22.9682591,76.064118,PM10,32,71,50
India,Madhya Pradesh,Dewas,"Bhopal Chauraha, Dewas - MPPCB",28-05-2024 14:00:00,22.9682591,76.064118,NO2,12,15,13
India,Madhya Pradesh,Dewas,"Bhopal Chauraha, Dewas - MPPCB",28-05-2024 14:00:00,22.9682591,76.064118,OZONE,1,51,16
India,Madhya Pradesh,Gwalior,"City Center, Gwalior - MPPCB",28-05-2024 14:00:00,26.203442,78.193251,NH3,2,9,3
India,Madhya Pradesh,Gwalior,"Deen Dayal Nagar, Gwalior - MPPCB",28-05-2024 14:00:00,26.259242,78.216432,OZONE,65,209,99
India,Madhya Pradesh,Gwalior,"Maharaj Bada, Gwalior - MPPCB",28-05-2024 14:00:00,26.200388,78.147714,NO2,16,118,43
India,Madhya Pradesh,Gwalior,"Phool Bagh, Gwalior - Mondelez Ind. Food",28-05-2024 14:00:00,26.210536,78.171,CO,72,102,82
India,Madhya Pradesh,Indore,"Chhoti Gwaltoli, Indore - MPPCB",28-05-2024 14:00:00,22.4310,75.5213,SO2,11,22,16
India,Madhya Pradesh,Indore,"Maguda Nagar, Indore - IMC",28-05-2024 14:00:00,22.7524,75.8872,NH3,1,4,2
India,Madhya Pradesh,Indore,"Maguda Nagar, Indore - IMC",28-05-2024 14:00:00,22.7524,75.8872,SO2,31,39,35
India,Madhya Pradesh,Indore,"Regional Park, Indore - IMC",28-05-2024 14:00:00,22.6780,75.8559,CO,15,25,21
India,Madhya Pradesh,Indore,"Residency Area, Indore - IMC",28-05-2024 14:00:00,22.7084,75.8815,NO2,28,45,36
