country,state,city,station,last_update,latitude,longitude,pollutant_id,pollutant_min,pollutant_max,pollutant_avg
India,Andhra_Pradesh,Amaravati,"Secretariat, Amaravati - APPCB",27-07-2024 21:00:00,16.5150833,80.5181667,PM2.5,2,26,12
India,Andhra_Pradesh,Amaravati,"Secretariat, Amaravati - APPCB",27-07-2024 21:00:00,16.5150833,80.5181667,NO2,2,7,4
India,Andhra_Pradesh,Amaravati,"Secretariat, Amaravati - APPCB",27-07-2024 21:00:00,16.5150833,80.5181667,NH3,4,4,4
India,Andhra_Pradesh,Amaravati,"Secretariat, Amaravati - APPCB",27-07-2024 21:00:00,16.5150833,80.5181667,CO,5,46,24
India,Andhra_Pradesh,Anantapur,"Gulzarpet, Anantapur - APPCB",27-07-2024 21:00:00,14.675886,77.593027,PM2.5,28,39,32
India,Andhra_Pradesh,Anantapur,"Gulzarpet, Anantapur - APPCB",27-07-2024 21:00:00,14.675886,77.593027,CO,16,39,31
India,Andhra_Pradesh,Chittoor,"Gangineni Cheruvu, Chittoor - APPCB",27-07-2024 21:00:00,13.204880,79.097889,NH3,3,4,3
India,Andhra_Pradesh,Chittoor,"Gangineni Cheruvu, Chittoor - APPCB",27-07-2024 21:00:00,13.204880,79.097889,SO2,5,6,6
India,Andhra_Pradesh,Kadapa,"Yerramukkapalli, Kadapa - APPCB",27-07-2024 21:00:00,14.465052,78.824187,NO2,NA,NA,NA
India,Andhra_Pradesh,Rajamahendravaram,"Anand Kala Kshetram, Rajamahendravaram - APPCB",27-07-2024 21:00:00,16.9872867,81.7363176,PM10,14,40,24
India,Andhra_Pradesh,Rajamahendravaram,"Anand Kala Kshetram, Rajamahendravaram - APPCB",27-07-2024 21:00:00,16.9872867,81.7363176,NO2,3,21,8
India,Andhra_Pradesh,Rajamahendravaram,"Anand Kala Kshetram, Rajamahendravaram - APPCB",27-07-2024 21:00:00,16.9872867,81.7363176,NH3,1,6,3
India,Andhra_Pradesh,Rajamahendravaram,"Anand Kala Kshetram, Rajamahendravaram - APPCB",27-07-2024 21:00:00,16.9872867,81.7363176,OZONE,5,6,5
India,Andhra_Pradesh,Tirupati,"Tirumala, Tirupati - APPCB",27-07-2024 21:00:00,13.67,79.35,PM2.5,10,31,20
India,Andhra_Pradesh,Tirupati,"Tirumala, Tirupati - APPCB",27-07-2024 21:00:00,13.67,79.35,NH3,1,2,1
India,Andhra_Pradesh,Tirupati,"Tirumala, Tirupati - APPCB",27-07-2024 21:00:00,13.67,79.35,SO2,1,13,8
India,Andhra_Pradesh,Tirupati,"Tirumala, Tirupati - APPCB",27-07-2024 21:00:00,13.67,79.35,CO,12,30,23
India,Andhra_Pradesh,Tirupati,"Vaikuntapuram, Tirupati - APPCB",27-07-2024 21:00:00,13.615387,79.409230,PM10,45,122,75
India,Andhra_Pradesh,Vijayawada,"Kanuru, Vijayawada - APPCB",27-07-2024 21:00:00,16.486692,80.699436,OZONE,23,37,28
India,Andhra_Pradesh,Vijayawada,"Rajiv Gandhi Park, Vijayawada - APPCB",27-07-2024 21:00:00,16.509717,80.612222,PM10,37,69,49
India,Andhra_Pradesh,Vijayawada,"Rajiv Gandhi Park, Vijayawada - APPCB",27-07-2024 21:00:00,16.509717,80.612222,NH3,2,6,5
India,Andhra_Pradesh,Vijayawada,"Rajiv Gandhi Park, Vijayawada - APPCB",27-07-2024 21:00:00,16.509717,80.612222,CO,33,40,39
India,Andhra_Pradesh,Vijayawada,"Rajiv Nagar, Vijayawada - APPCB",27-07-2024 21:00:00,16.554731,80.649110,PM2.5,30,42,34
India,Andhra_Pradesh,Visakhapatnam,"GVM Corporation, Visakhapatnam - APPCB",27-07-2024 21:00:00,17.72,83.3,PM2.5,32,64,48
India,Andhra_Pradesh,Visakhapatnam,"GVM Corporation, Visakhapatnam - APPCB",27-07-2024 21:00:00,17.72,83.3,NO2,36,76,53
India,Assam,Byrnihat,"Central Academy for SFS, Byrnihat - PCBA",27-07-2024 21:00:00,26.071318,91.87488,SO2,9,44,23
India,Assam,Byrnihat,"Central Academy for SFS, Byrnihat - PCBA",27-07-2024 21:00:00,26.071318,91.87488,CO,NA,NA,NA
India,Assam,Guwahati,"IITG, Guwahati - PCBA",27-07-2024 21:00:00,26.2028636,91.70046436,PM10,15,61,32
India,Assam,Guwahati,"IITG, Guwahati - PCBA",27-07-2024 21:00:00,26.2028636,91.70046436,NH3,5,5,5
India,Assam,Guwahati,"Pan Bazaar, Guwahati - PCBA",27-07-2024 21:00:00,26.187500,91.744194,SO2,34,77,51
India,Assam,Guwahati,"Pan Bazaar, Guwahati - PCBA",27-07-2024 21:00:00,26.187500,91.744194,OZONE,17,18,18
India,Assam,Guwahati,"Railway Colony, Guwahati - PCBA",27-07-2024 21:00:00,26.181742,91.78063,NO2,3,3,3
India,Assam,Nalbari,"Bata Chowk, Nalbari - PCBA",27-07-2024 21:00:00,26.446912,91.439057,PM2.5,12,110,30
India,Assam,Nalbari,"Bata Chowk, Nalbari - PCBA",27-07-2024 21:00:00,26.446912,91.439057,NH3,1,2,1
India,Assam,Nalbari,"Bata Chowk, Nalbari - PCBA",27-07-2024 21:00:00,26.446912,91.439057,SO2,5,8,7
India,Assam,Nalbari,"Bata Chowk, Nalbari - PCBA",27-07-2024 21:00:00,26.446912,91.439057,CO,9,44,37
India,Assam,Sivasagar,"Girls College, Sivasagar - PCBA",27-07-2024 21:00:00,26.987634,94.636574,OZONE,1,10,5
India,Bihar,Aurangabad,"Gurdeo Nagar, Aurangabad - BSPCB",27-07-2024 21:00:00,24.75746,84.366208,PM2.5,15,237,71
India,Bihar,Aurangabad,"Gurdeo Nagar, Aurangabad - BSPCB",27-07-2024 21:00:00,24.75746,84.366208,OZONE,13,44,34
India,Bihar,Bettiah,"Kamalnath Nagar, Bettiah - BSPCB",27-07-2024 21:00:00,26.80365,84.51954,SO2,10,17,14
India,Bihar,Bhagalpur,"DM Office_Kachari Chowk, Bhagalpur - BSPCB",27-07-2024 21:00:00,25.251013,86.989001,PM2.5,8,60,38
India,Bihar,Bhagalpur,"DM Office_Kachari Chowk, Bhagalpur - BSPCB",27-07-2024 21:00:00,25.251013,86.989001,NO2,16,38,29
India,Bihar,Bhagalpur,"DM Office_Kachari Chowk, Bhagalpur - BSPCB",27-07-2024 21:00:00,25.251013,86.989001,OZONE,44,50,47
India,Bihar,Bhagalpur,"Mayaganj, Bhagalpur - BSPCB",27-07-2024 21:00:00,25.265194,87.012947,NO2,4,20,9
India,Bihar,Bihar Sharif,"D M Colony, Bihar Sharif - BSPCB",27-07-2024 21:00:00,25.204762,85.514960,SO2,2,5,3
India,Bihar,Bihar Sharif,"D M Colony, Bihar Sharif - BSPCB",27-07-2024 21:00:00,25.204762,85.514960,OZONE,17,51,36
India,Bihar,Buxar,"Charitra Van, Buxar - BSPCB (Formerly known as Central Jail)",27-07-2024 21:00:00,25.567520,83.966379,OZONE,7,15,11
India,Bihar,Chhapra,"Darshan Nagar, Chhapra - BSPCB",27-07-2024 21:00:00,25.7808257,84.7446768,NH3,8,20,12
India,Bihar,Gaya,"Collectorate, Gaya - BSPCB",27-07-2024 21:00:00,24.7955,84.9994,CO,32,93,44
India,Bihar,Gaya,"Kareemganj, Gaya - BSPCB",27-07-2024 21:00:00,24.792403,84.992416,PM2.5,5,68,28
India,Bihar,Gaya,"Kareemganj, Gaya - BSPCB",27-07-2024 21:00:00,24.792403,84.992416,NO2,6,25,12
India,Bihar,Gaya,"Kareemganj, Gaya - BSPCB",27-07-2024 21:00:00,24.792403,84.992416,CO,16,59,33
India,Bihar,Hajipur,"Industrial Area, Hajipur - BSPCB",27-07-2024 21:00:00,25.697189,85.245900,PM2.5,34,107,64
India,Bihar,Hajipur,"Industrial Area, Hajipur - BSPCB",27-07-2024 21:00:00,25.697189,85.245900,NH3,12,15,14
India,Bihar,Katihar,"Mirchaibari, Katihar - BSPCB",27-07-2024 21:00:00,25.560083,87.553265,PM2.5,NA,NA,NA
India,Bihar,Katihar,"Mirchaibari, Katihar - BSPCB",27-07-2024 21:00:00,25.560083,87.553265,NO2,9,9,9
India,Bihar,Katihar,"Mirchaibari, Katihar - BSPCB",27-07-2024 21:00:00,25.560083,87.553265,NH3,1,6,3
India,Bihar,Motihari,"Gandak Colony, Motihari - BSPCB",27-07-2024 21:00:00,26.63086,84.90051,PM2.5,7,113,22
India,Bihar,Motihari,"Gandak Colony, Motihari - BSPCB",27-07-2024 21:00:00,26.63086,84.90051,CO,4,32,13
India,Bihar,Munger,"Town Hall, Munger - BSPCB",27-07-2024 21:00:00,25.376776,86.471523,PM10,17,464,163
India,Bihar,Munger,"Town Hall, Munger - BSPCB",27-07-2024 21:00:00,25.376776,86.471523,NO2,9,12,10
India,Bihar,Munger,"Town Hall, Munger - BSPCB",27-07-2024 21:00:00,25.376776,86.471523,SO2,14,58,26
India,Bihar,Munger,"Town Hall, Munger - BSPCB",27-07-2024 21:00:00,25.376776,86.471523,CO,55,102,77
India,Bihar,Muzaffarpur,"Buddha Colony, Muzaffarpur - BSPCB",27-07-2024 21:00:00,26.11442,85.39813,SO2,2,6,4
India,Bihar,Muzaffarpur,"Buddha Colony, Muzaffarpur - BSPCB",27-07-2024 21:00:00,26.11442,85.39813,OZONE,2,143,65
India,Bihar,Muzaffarpur,"MIT-Daudpur Kothi, Muzaffarpur - BSPCB",27-07-2024 21:00:00,26.1403345,85.3650192,OZONE,14,42,34
India,Bihar,Muzaffarpur,"Muzaffarpur Collectorate, Muzaffarpur - BSPCB",27-07-2024 21:00:00,26.1209,85.3647,NO2,33,34,34
India,Bihar,Muzaffarpur,"Muzaffarpur Collectorate, Muzaffarpur - BSPCB",27-07-2024 21:00:00,26.1209,85.3647,SO2,7,18,10
India,Bihar,Muzaffarpur,"Muzaffarpur Collectorate, Muzaffarpur - BSPCB",27-07-2024 21:00:00,26.1209,85.3647,CO,27,45,40
India,Bihar,Patna,"DRM Office Danapur, Patna - BSPCB",27-07-2024 21:00:00,25.586562,85.043586,PM10,29,81,51
India,Bihar,Patna,"DRM Office Danapur, Patna - BSPCB",27-07-2024 21:00:00,25.586562,85.043586,NO2,39,80,52
India,Bihar,Patna,"Govt. High School Shikarpur, Patna - BSPCB",27-07-2024 21:00:00,25.592539,85.227158,PM2.5,41,76,59
India,Bihar,Patna,"Govt. High School Shikarpur, Patna - BSPCB",27-07-2024 21:00:00,25.592539,85.227158,OZONE,32,54,33
India,Bihar,Patna,"IGSC Planetarium Complex, Patna - BSPCB",27-07-2024 21:00:00,25.610369,85.132568,PM2.5,28,84,48
India,Bihar,Patna,"IGSC Planetarium Complex, Patna - BSPCB",27-07-2024 21:00:00,25.610369,85.132568,NO2,12,14,12
India,Bihar,Patna,"Rajbansi Nagar, Patna - BSPCB",27-07-2024 21:00:00,25.599486,85.113666,NH3,2,3,2
India,Bihar,Patna,"Samanpura, Patna - BSPCB",27-07-2024 21:00:00,25.596727,85.085624,NO2,7,26,13
India,Bihar,Patna,"Samanpura, Patna - BSPCB",27-07-2024 21:00:00,25.596727,85.085624,SO2,3,5,4
India,Bihar,Purnia,"Mariam Nagar, Purnia - BSPCB",27-07-2024 21:00:00,25.366336,87.117468,PM10,3,25,17
India,Bihar,Purnia,"Mariam Nagar, Purnia - BSPCB",27-07-2024 21:00:00,25.366336,87.117468,NO2,5,6,5
India,Bihar,Saharsa,"Police Line, Saharsa - BSPCB",27-07-2024 21:00:00,25.892357,86.590325,OZONE,14,71,40
India,Bihar,Samastipur,"DM Office_Kasipur, Samastipur - BSPCB",27-07-2024 21:00:00,25.859655,85.77944,PM10,35,105,64
India,Bihar,Sasaram,"Dada Peer, Sasaram - BSPCB",27-07-2024 21:00:00,24.952822,84.002396,PM10,3,73,24
India,Bihar,Sasaram,"Dada Peer, Sasaram - BSPCB",27-07-2024 21:00:00,24.952822,84.002396,OZONE,1,39,15
India,Bihar,Siwan,"Chitragupta Nagar, Siwan - BSPCB",27-07-2024 21:00:00,26.2271665,84.3570427,PM2.5,NA,NA,NA
India,Bihar,Siwan,"Chitragupta Nagar, Siwan - BSPCB",27-07-2024 21:00:00,26.2271665,84.3570427,SO2,2,25,8
India,Bihar,Siwan,"Chitragupta Nagar, Siwan - BSPCB",27-07-2024 21:00:00,26.2271665,84.3570427,OZONE,1,16,3
India,Chandigarh,Chandigarh,"Sector 22, Chandigarh - CPCC",27-07-2024 21:00:00,30.735567,76.775714,CO,30,68,46
India,Chandigarh,Chandigarh,"Sector 22, Chandigarh - CPCC",27-07-2024 21:00:00,30.735567,76.775714,OZONE,10,57,29
India,Chandigarh,Chandigarh,"Sector-53, Chandigarh - CPCC",27-07-2024 21:00:00,30.719859,76.738637,NO2,13,63,28
India,Chandigarh,Chandigarh,"Sector-53, Chandigarh - CPCC",27-07-2024 21:00:00,30.719859,76.738637,NH3,3,13,9
India,Chandigarh,Chandigarh,"Sector-53, Chandigarh - CPCC",27-07-2024 21:00:00,30.719859,76.738637,SO2,2,11,5
India,Chhattisgarh,Bhilai,"32Bungalows, Bhilai - CECB",27-07-2024 21:00:00,21.194815,81.314770,PM2.5,8,31,20
India,Chhattisgarh,Bhilai,"32Bungalows, Bhilai - CECB",27-07-2024 21:00:00,21.194815,81.314770,CO,9,12,11
India,Chhattisgarh,Bhilai,"Civic Center, Bhilai - Bhilai Steel Plant",27-07-2024 21:00:00,21.185571,81.343175,PM10,15,22,19
India,Chhattisgarh,Bhilai,"Civic Center, Bhilai - Bhilai Steel Plant",27-07-2024 21:00:00,21.185571,81.343175,NO2,7,8,8
India,Chhattisgarh,Bhilai,"Civic Center, Bhilai - Bhilai Steel Plant",27-07-2024 21:00:00,21.185571,81.343175,NH3,3,4,4
India,Chhattisgarh,Bhilai,"Hathkhoj, Bhilai - CECB",27-07-2024 21:00:00,21.224231,81.408350,NO2,16,33,22
India,Chhattisgarh,Bhilai,"Hathkhoj, Bhilai - CECB",27-07-2024 21:00:00,21.224231,81.408350,CO,9,26,18
India,Chhattisgarh,Chhal,"Nawapara SECL Colony, Chhal - CECB",27-07-2024 21:00:00,22.118125,83.140608,NH3,2,2,2
India,Chhattisgarh,Korba,"Urja Nagar, Korba - CECB",27-07-2024 21:00:00,22.348441,82.549611,CO,14,39,25
India,Chhattisgarh,Kunjemura,"OP Jindal School, Kunjemura - CECB",27-07-2024 21:00:00,22.126650,83.483212,CO,24,31,28
India,Chhattisgarh,Raipur,"AIIMS, Raipur - CECB",27-07-2024 21:00:00,21.258815,81.578979,PM2.5,6,35,18
India,Chhattisgarh,Raipur,"AIIMS, Raipur - CECB",27-07-2024 21:00:00,21.258815,81.578979,PM10,16,45,30
India,Chhattisgarh,Raipur,"AIIMS, Raipur - CECB",27-07-2024 21:00:00,21.258815,81.578979,NH3,6,6,6
India,Chhattisgarh,Raipur,"AIIMS, Raipur - CECB",27-07-2024 21:00:00,21.258815,81.578979,CO,16,28,22
India,Chhattisgarh,Raipur,"Bhatagaon New ISBT, Raipur - CECB",27-07-2024 21:00:00,21.219665,81.630094,CO,15,36,29
India,Chhattisgarh,Raipur,"Krishak Nagar, Raipur - CECB",27-07-2024 21:00:00,21.237755,81.705301,OZONE,4,11,7
India,Chhattisgarh,Raipur,"Siltara Phase-II, Raipur - CECB",27-07-2024 21:00:00,21.371751,81.664929,OZONE,3,4,3
India,Delhi,Delhi,"Alipur, Delhi - DPCC",27-07-2024 21:00:00,28.815329,77.153010,PM10,50,164,111
India,Delhi,Delhi,"Alipur, Delhi - DPCC",27-07-2024 21:00:00,28.815329,77.153010,OZONE,1,24,16
India,Delhi,Delhi,"Anand Vihar, Delhi - DPCC",27-07-2024 21:00:00,28.647622,77.3158090,CO,51,107,100
India,Delhi,Delhi,"Ashok Vihar, Delhi - DPCC",27-07-2024 21:00:00,28.695381,77.181665,PM2.5,20,200,92
India,Delhi,Delhi,"Ashok Vihar, Delhi - DPCC",27-07-2024 21:00:00,28.695381,77.181665,PM10,29,173,99
India,Delhi,Delhi,"Bawana, Delhi - DPCC",27-07-2024 21:00:00,28.776200,77.051074,PM2.5,17,303,133
India,Delhi,Delhi,"Bawana, Delhi - DPCC",27-07-2024 21:00:00,28.776200,77.051074,NH3,6,15,9
India,Delhi,Delhi,"Bawana, Delhi - DPCC",27-07-2024 21:00:00,28.776200,77.051074,OZONE,2,69,40
India,Delhi,Delhi,"Burari Crossing, Delhi - IMD",27-07-2024 21:00:00,28.7256504,77.2011573,OZONE,16,56,44
India,Delhi,Delhi,"CRRI Mathura Road, Delhi - IMD",27-07-2024 21:00:00,28.5512005,77.2735737,PM2.5,NA,NA,NA
India,Delhi,Delhi,"Chandni Chowk, Delhi - IITM",27-07-2024 21:00:00,28.656756,77.227234,CO,8,89,47
India,Delhi,Delhi,"DTU, Delhi - CPCB",27-07-2024 21:00:00,28.7500499,77.1112615,NO2,39,47,42
India,Delhi,Delhi,"Dr. Karni Singh Shooting Range, Delhi - DPCC",27-07-2024 21:00:00,28.498571,77.264840,CO,36,101,49
India,Delhi,Delhi,"IGI Airport (T3), Delhi - IMD",27-07-2024 21:00:00,28.5627763,77.1180053,PM2.5,14,206,90
India,Delhi,Delhi,"IGI Airport (T3), Delhi - IMD",27-07-2024 21:00:00,28.5627763,77.1180053,PM10,25,184,93
India,Delhi,Delhi,"IGI Airport (T3), Delhi - IMD",27-07-2024 21:00:00,28.5627763,77.1180053,NO2,15,61,30
India,Delhi,Delhi,"IHBAS, Dilshad Garden, Delhi - CPCB",27-07-2024 21:00:00,28.6811736,77.3025234,PM10,35,89,66
India,Delhi,Delhi,"IHBAS, Dilshad Garden, Delhi - CPCB",27-07-2024 21:00:00,28.6811736,77.3025234,NO2,14,42,30
India,Delhi,Delhi,"IHBAS, Dilshad Garden, Delhi - CPCB",27-07-2024 21:00:00,28.6811736,77.3025234,SO2,4,60,20
India,Delhi,Delhi,"ITO, Delhi - CPCB",27-07-2024 21:00:00,28.628624,77.241060,PM10,24,500,114
India,Delhi,Delhi,"ITO, Delhi - CPCB",27-07-2024 21:00:00,28.628624,77.241060,NO2,72,210,125
India,Delhi,Delhi,"ITO, Delhi - CPCB",27-07-2024 21:00:00,28.628624,77.241060,OZONE,5,165,165
India,Delhi,Delhi,"Jahangirpuri, Delhi - DPCC",27-07-2024 21:00:00,28.732820,77.170633,OZONE,31,45,40
India,Delhi,Delhi,"Jawaharlal Nehru Stadium, Delhi - DPCC",27-07-2024 21:00:00,28.580280,77.233829,SO2,1,19,6
India,Delhi,Delhi,"Lodhi Road, Delhi - IMD",27-07-2024 21:00:00,28.5918245,77.2273074,CO,16,20,17
India,Delhi,Delhi,"Major Dhyan Chand National Stadium, Delhi - DPCC",27-07-2024 21:00:00,28.611281,77.237738,PM2.5,22,220,93
India,Delhi,Delhi,"Major Dhyan Chand National Stadium, Delhi - DPCC",27-07-2024 21:00:00,28.611281,77.237738,NH3,6,12,10
India,Delhi,Delhi,"Mandir Marg, Delhi - DPCC",27-07-2024 21:00:00,28.636429,77.201067,SO2,2,10,7
India,Delhi,Delhi,"Mundka, Delhi - DPCC",27-07-2024 21:00:00,28.684678,77.076574,PM10,78,468,202
India,Delhi,Delhi,"Mundka, Delhi - DPCC",27-07-2024 21:00:00,28.684678,77.076574,NO2,27,115,56
India,Delhi,Delhi,"Najafgarh, Delhi - DPCC",27-07-2024 21:00:00,28.570173,76.933762,SO2,13,15,15
India,Delhi,Delhi,"Najafgarh, Delhi - DPCC",27-07-2024 21:00:00,28.570173,76.933762,CO,39,56,41
India,Delhi,Delhi,"Narela, Delhi - DPCC",27-07-2024 21:00:00,28.822836,77.101981,NH3,7,10,8
India,Delhi,Delhi,"Narela, Delhi - DPCC",27-07-2024 21:00:00,28.822836,77.101981,OZONE,112,214,155
India,Delhi,Delhi,"Nehru Nagar, Delhi - DPCC",27-07-2024 21:00:00,28.567890,77.250515,PM2.5,33,324,106
India,Delhi,Delhi,"Nehru Nagar, Delhi - DPCC",27-07-2024 21:00:00,28.567890,77.250515,CO,44,100,70
India,Delhi,Delhi,"Nehru Nagar, Delhi - DPCC",27-07-2024 21:00:00,28.567890,77.250515,OZONE,2,124,76
India,Delhi,Delhi,"Okhla Phase-2, Delhi - DPCC",27-07-2024 21:00:00,28.530785,77.271255,PM10,36,192,105
India,Delhi,Delhi,"Pusa, Delhi - DPCC",27-07-2024 21:00:00,28.639652,77.146275,NO2,44,115,67
India,Delhi,Delhi,"Pusa, Delhi - DPCC",27-07-2024 21:00:00,28.639652,77.146275,SO2,4,8,6
India,Delhi,Delhi,"Pusa, Delhi - DPCC",27-07-2024 21:00:00,28.639652,77.146275,CO,21,104,55
India,Delhi,Delhi,"R K Puram, Delhi - DPCC",27-07-2024 21:00:00,28.563262,77.186937,NO2,16,152,44
India,Delhi,Delhi,"Rohini, Delhi - DPCC",27-07-2024 21:00:00,28.732528,77.119920,NH3,13,23,16
India,Delhi,Delhi,"Rohini, Delhi - DPCC",27-07-2024 21:00:00,28.732528,77.119920,OZONE,3,31,10
India,Delhi,Delhi,"Shadipur, Delhi - CPCB",27-07-2024 21:00:00,28.6514781,77.1473105,OZONE,9,39,18
India,Delhi,Delhi,"Sirifort, Delhi - CPCB",27-07-2024 21:00:00,28.5504249,77.2159377,PM10,38,185,99
India,Delhi,Delhi,"Sirifort, Delhi - CPCB",27-07-2024 21:00:00,28.5504249,77.2159377,NO2,18,53,37
India,Delhi,Delhi,"Sonia Vihar, Delhi - DPCC",27-07-2024 21:00:00,28.710508,77.249485,OZONE,8,60,34
India,Delhi,Delhi,"Sri Aurobindo Marg, Delhi - DPCC",27-07-2024 21:00:00,28.531346,77.190156,NO2,10,82,30
India,Delhi,Delhi,"Wazirpur, Delhi - DPCC",27-07-2024 21:00:00,28.699793,77.165453,NH3,NA,NA,NA
India,Gujarat,Ahmedabad,"Chandkheda, Ahmedabad - IITM",27-07-2024 21:00:00,23.107969,72.574648,PM2.5,37,78,51
India,Gujarat,Ahmedabad,"Chandkheda, Ahmedabad - IITM",27-07-2024 21:00:00,23.107969,72.574648,OZONE,8,38,31
India,Gujarat,Ahmedabad,"Maninagar, Ahmedabad - GPCB",27-07-2024 21:00:00,23.002657,72.591912,NO2,23,66,29
India,Gujarat,Ahmedabad,"Raikhad, Ahmedabad - IITM",27-07-2024 21:00:00,23.020509,72.579261,SO2,12,14,13
India,Gujarat,Ahmedabad,"SVPI Airport Hansol, Ahmedabad - IITM",27-07-2024 21:00:00,23.076793,72.627874,NH3,5,7,6
India,Gujarat,Ahmedabad,"SVPI Airport Hansol, Ahmedabad - IITM",27-07-2024 21:00:00,23.076793,72.627874,SO2,9,17,12
India,Gujarat,Ahmedabad,"Sardar Vallabhbhai Patel Stadium, Ahmedabad - IITM",27-07-2024 21:00:00,23.043070,72.562968,CO,13,46,33
India,Gujarat,Ankleshwar,"GIDC, Ankleshwar - GPCB",27-07-2024 21:00:00,21.613267,73.010555,PM2.5,19,43,31
India,Gujarat,Ankleshwar,"GIDC, Ankleshwar - GPCB",27-07-2024 21:00:00,21.613267,73.010555,SO2,4,35,21
India,Gujarat,Vatva,"Phase-4 GIDC, Vatva - GPCB",27-07-2024 21:00:00,22.969611,72.643500,NO2,1,8,2
India,Haryana,Ambala,"Patti Mehar, Ambala - HSPCB",27-07-2024 21:00:00,30.379589,76.778328,OZONE,37,47,42
India,Haryana,Bahadurgarh,"Arya Nagar, Bahadurgarh - HSPCB",27-07-2024 21:00:00,28.6701,76.9254,PM2.5,43,124,84
India,Haryana,Bahadurgarh,"Arya Nagar, Bahadurgarh - HSPCB",27-07-2024 21:00:00,28.6701,76.9254,OZONE,31,41,37
India,Haryana,Ballabgarh,"Nathu Colony, Ballabgarh - HSPCB",27-07-2024 21:00:00,28.3419248,77.319699,PM2.5,56,125,77
India,Haryana,Ballabgarh,"Nathu Colony, Ballabgarh - HSPCB",27-07-2024 21:00:00,28.3419248,77.319699,NH3,1,2,1
India,Haryana,Charkhi Dadri,"Mini Secretariat, Charkhi Dadri - HSPCB",27-07-2024 21:00:00,28.593883,76.270653,PM10,29,85,54
India,Haryana,Charkhi Dadri,"Mini Secretariat, Charkhi Dadri - HSPCB",27-07-2024 21:00:00,28.593883,76.270653,SO2,9,20,15
India,Haryana,Dharuhera,"Municipal Corporation Office, Dharuhera -  HSPCB",27-07-2024 21:00:00,28.206800,76.799700,CO,30,68,38
India,Haryana,Faridabad,"New Industrial Town, Faridabad - HSPCB",27-07-2024 21:00:00,28.39072,77.30059,PM10,NA,NA,NA
India,Haryana,Faridabad,"New Industrial Town, Faridabad - HSPCB",27-07-2024 21:00:00,28.39072,77.30059,NO2,NA,NA,NA
India,Haryana,Faridabad,"New Industrial Town, Faridabad - HSPCB",27-07-2024 21:00:00,28.39072,77.30059,NH3,NA,NA,NA
India,Haryana,Faridabad,"Sector 30, Faridabad - HSPCB",27-07-2024 21:00:00,28.4417,77.3217,PM10,NA,NA,NA
India,Haryana,Fatehabad,"Huda Sector, Fatehabad - HSPCB",27-07-2024 21:00:00,29.503664,75.467934,PM10,38,86,58
India,Haryana,Fatehabad,"Huda Sector, Fatehabad - HSPCB",27-07-2024 21:00:00,29.503664,75.467934,CO,119,120,119
India,Haryana,Gurugram,"Sector-51, Gurugram - HSPCB",27-07-2024 21:00:00,28.4227,77.0667,PM2.5,34,312,123
India,Haryana,Gurugram,"Teri Gram, Gurugram - HSPCB",27-07-2024 21:00:00,28.4275,77.1465,NO2,3,9,7
India,Haryana,Gurugram,"Vikas Sadan, Gurugram - HSPCB",27-07-2024 21:00:00,28.4501238,77.0263051,CO,49,131,105
India,Haryana,Hisar,"Urban Estate-II, Hisar - HSPCB",27-07-2024 21:00:00,29.140560,75.744941,PM2.5,NA,NA,NA
India,Haryana,Jind,"Police Lines, Jind - HSPCB",27-07-2024 21:00:00,29.307814,76.337619,PM2.5,29,60,40
India,Haryana,Jind,"Police Lines, Jind - HSPCB",27-07-2024 21:00:00,29.307814,76.337619,NO2,1,16,7
India,Haryana,Jind,"Police Lines, Jind - HSPCB",27-07-2024 21:00:00,29.307814,76.337619,SO2,NA,NA,NA
India,Haryana,Jind,"Police Lines, Jind - HSPCB",27-07-2024 21:00:00,29.307814,76.337619,CO,4,121,12
India,Haryana,Kaithal,"Rishi Nagar, Kaithal - HSPCB",27-07-2024 21:00:00,29.8006,76.4155,NH3,13,13,13
India,Haryana,Kaithal,"Rishi Nagar, Kaithal - HSPCB",27-07-2024 21:00:00,29.8006,76.4155,OZONE,23,61,36
India,Haryana,Karnal,"Sector-12, Karnal - HSPCB",27-07-2024 21:00:00,29.695300,77.002700,NH3,10,13,11
India,Haryana,Kurukshetra,"Sector-7, Kurukshetra - HSPCB",27-07-2024 21:00:00,29.966942,76.875879,PM10,35,85,56
India,Haryana,Kurukshetra,"Sector-7, Kurukshetra - HSPCB",27-07-2024 21:00:00,29.966942,76.875879,SO2,1,49,11
India,Haryana,Kurukshetra,"Sector-7, Kurukshetra - HSPCB",27-07-2024 21:00:00,29.966942,76.875879,OZONE,2,84,47
India,Haryana,Manesar,"Sector-2 IMT, Manesar - HSPCB",27-07-2024 21:00:00,28.360699,76.936090,NH3,1,49,8
India,Haryana,Panchkula,"Sector-6, Panchkula - HSPCB ",27-07-2024 21:00:00,30.7057778,76.8531805555555,NO2,18,22,20
India,Haryana,Panipat,"Sector-18, Panipat - HSPCB",27-07-2024 21:00:00,29.432304,76.972765,OZONE,30,30,30
India,Haryana,Rohtak,"MD University, Rohtak - HSPCB",27-07-2024 21:00:00,28.52123,76.37138,NO2,49,68,53
India,Haryana,Sirsa,"F-Block, Sirsa - HSPCB",27-07-2024 21:00:00,29.536400,75.015800,PM2.5,4,40,18
India,Haryana,Sonipat,"Murthal, Sonipat - HSPCB",27-07-2024 21:00:00,29.027200,77.062100,CO,6,19,15
India,Haryana,Yamuna Nagar,"Gobind Pura, Yamuna Nagar - HSPCB",27-07-2024 21:00:00,30.1480566,77.2893471,CO,29,52,50
India,Haryana,Yamuna Nagar,"Gobind Pura, Yamuna Nagar - HSPCB",27-07-2024 21:00:00,30.1480566,77.2893471,OZONE,5,28,12
India,Himachal Pradesh,Baddi,"HIMUDA Complex Phase-1, Baddi - HPPCB",27-07-2024 21:00:00,30.943887,76.801991,PM10,18,178,74
India,Himachal Pradesh,Baddi,"HIMUDA Complex Phase-1, Baddi - HPPCB",27-07-2024 21:00:00,30.943887,76.801991,SO2,11,44,22
India,Karnataka,Bagalkot,"Vidayagiri, Bagalkot - KSPCB",27-07-2024 21:00:00,16.172806,75.659694,PM2.5,27,40,39
India,Karnataka,Bagalkot,"Vidayagiri, Bagalkot - KSPCB",27-07-2024 21:00:00,16.172806,75.659694,NH3,2,2,2
India,Karnataka,Bagalkot,"Vidayagiri, Bagalkot - KSPCB",27-07-2024 21:00:00,16.172806,75.659694,SO2,4,4,4
India,Karnataka,Bagalkot,"Vidayagiri, Bagalkot - KSPCB",27-07-2024 21:00:00,16.172806,75.659694,OZONE,NA,NA,NA
India,Karnataka,Belgaum,"Ramteerth Nagar, Belgaum - KSPCB",27-07-2024 21:00:00,15.888653,74.541751,PM10,19,52,30
India,Karnataka,Bengaluru,"BTM Layout, Bengaluru - CPCB",27-07-2024 21:00:00,12.9135218,77.5950804,PM2.5,17,22,19
India,Karnataka,Bengaluru,"BTM Layout, Bengaluru - CPCB",27-07-2024 21:00:00,12.9135218,77.5950804,PM10,18,45,31
India,Karnataka,Bengaluru,"BTM Layout, Bengaluru - CPCB",27-07-2024 21:00:00,12.9135218,77.5950804,NO2,42,68,61
India,Karnataka,Bengaluru,"BTM Layout, Bengaluru - CPCB",27-07-2024 21:00:00,12.9135218,77.5950804,OZONE,18,19,18
India,Karnataka,Bengaluru,"Hombegowda Nagar, Bengaluru - KSPCB",27-07-2024 21:00:00,12.938539,77.590100,PM2.5,3,23,13
India,Karnataka,Bengaluru,"Hombegowda Nagar, Bengaluru - KSPCB",27-07-2024 21:00:00,12.938539,77.590100,NO2,6,14,9
India,Karnataka,Bengaluru,"Jayanagar 5th Block, Bengaluru - KSPCB",27-07-2024 21:00:00,12.920984,77.584908,PM2.5,12,31,21
India,Karnataka,Bengaluru,"Jayanagar 5th Block, Bengaluru - KSPCB",27-07-2024 21:00:00,12.920984,77.584908,PM10,9,55,29
India,Karnataka,Bengaluru,"Jigani, Bengaluru - KSPCB",27-07-2024 21:00:00,12.7816279,77.6299145,SO2,9,10,9
India,Karnataka,Bengaluru,"Kasturi Nagar, Bengaluru - KSPCB",27-07-2024 21:00:00,13.003872,77.664217,NH3,3,4,4
India,Karnataka,Bengaluru,"Kasturi Nagar, Bengaluru - KSPCB",27-07-2024 21:00:00,13.003872,77.664217,OZONE,4,7,5
India,Karnataka,Bengaluru,"Peenya, Bengaluru - CPCB",27-07-2024 21:00:00,13.0270199,77.494094,OZONE,27,32,29
India,Karnataka,Bengaluru,"Sanegurava Halli, Bengaluru - KSPCB",27-07-2024 21:00:00,12.990328,77.5431385,CO,12,21,17
India,Karnataka,Bengaluru,"Silk Board, Bengaluru - KSPCB",27-07-2024 21:00:00,12.917348,77.622813,PM2.5,4,21,14
India,Karnataka,Bidar,"Naubad, Bidar - KSPCB",27-07-2024 21:00:00,17.930306,77.482194,PM10,12,35,21
India,Karnataka,Bidar,"Naubad, Bidar - KSPCB",27-07-2024 21:00:00,17.930306,77.482194,SO2,18,63,22
India,Karnataka,Bidar,"Naubad, Bidar - KSPCB",27-07-2024 21:00:00,17.930306,77.482194,CO,36,78,51
India,Karnataka,Chikkamagaluru,"Kalyana Nagara, Chikkamagaluru - KSPCB",27-07-2024 21:00:00,13.328028,75.797056,SO2,NA,NA,NA
India,Karnataka,Davanagere,"Devaraj Urs Badavane, Davanagere - KSPCB",27-07-2024 21:00:00,14.475800,75.905200,PM2.5,8,45,20
India,Karnataka,Davanagere,"Devaraj Urs Badavane, Davanagere - KSPCB",27-07-2024 21:00:00,14.475800,75.905200,NO2,6,9,8
India,Karnataka,Davanagere,"Devaraj Urs Badavane, Davanagere - KSPCB",27-07-2024 21:00:00,14.475800,75.905200,NH3,2,16,3
India,Karnataka,Dharwad,"Kalabhavan, Dharwad - KSPCB",27-07-2024 21:00:00,15.459706,75.008381,NO2,9,15,11
India,Karnataka,Gadag,"Panchal Nagar, Gadag - KSPCB",27-07-2024 21:00:00,15.411456,75.638133,PM2.5,3,17,8
India,Karnataka,Gadag,"Panchal Nagar, Gadag - KSPCB",27-07-2024 21:00:00,15.411456,75.638133,NO2,7,28,14
India,Karnataka,Hassan,"B.Katihalli, Hassan - KSPCB",27-07-2024 21:00:00,13.008556,76.125258,PM2.5,12,50,24
India,Karnataka,Hassan,"B.Katihalli, Hassan - KSPCB",27-07-2024 21:00:00,13.008556,76.125258,NH3,1,5,2
India,Karnataka,Hassan,"B.Katihalli, Hassan - KSPCB",27-07-2024 21:00:00,13.008556,76.125258,SO2,2,25,12
India,Karnataka,Haveri,"Ashwini Nagar, Haveri - KSPCB",27-07-2024 21:00:00,14.791800,75.389600,PM10,7,23,18
India,Karnataka,Hubballi,"Lingaraj Nagar, Hubballi - KSPCB",27-07-2024 21:00:00,15.3714823,75.1160168,CO,1,24,16
India,Karnataka,Hubballi,"Lingaraj Nagar, Hubballi - KSPCB",27-07-2024 21:00:00,15.3714823,75.1160168,OZONE,10,14,12
India,Karnataka,Kalaburagi,"Lal Bahadur Shastri Nagar, Kalaburagi - KSPCB",27-07-2024 21:00:00,17.321993,76.822628,OZONE,4,9,7
India,Karnataka,Kalaburagi,"Mahatma Basaveswar Colony, Kalaburgi - KSPCB",27-07-2024 21:00:00,17.336318,76.847397,PM2.5,7,34,20
India,Karnataka,Kalaburagi,"Mahatma Basaveswar Colony, Kalaburgi - KSPCB",27-07-2024 21:00:00,17.336318,76.847397,NH3,2,4,3
India,Karnataka,Kalaburagi,"Mahatma Basaveswar Colony, Kalaburgi - KSPCB",27-07-2024 21:00:00,17.336318,76.847397,CO,17,46,21
India,Karnataka,Kalaburagi,"Mahatma Basaveswar Colony, Kalaburgi - KSPCB",27-07-2024 21:00:00,17.336318,76.847397,OZONE,13,21,18
India,Karnataka,Madikeri,"Stuart Hill, Madikeri - KSPCB",27-07-2024 21:00:00,12.415911,75.735050,CO,3,21,15
India,Karnataka,Mangalore,"Kadri, Mangalore - KSPCB",27-07-2024 21:00:00,12.889250,74.853000,NO2,6,7,6
India,Karnataka,Mysuru,"Hebbal 1st Stage, Mysuru - KSPCB",27-07-2024 21:00:00,12.21041,76.37376,PM2.5,11,28,20
India,Karnataka,Raichur,"Haji Colony, Raichur - KSPCB",27-07-2024 21:00:00,16.208139,77.348417,NH3,NA,NA,NA
India,Karnataka,Raichur,"Haji Colony, Raichur - KSPCB",27-07-2024 21:00:00,16.208139,77.348417,CO,100,102,101
India,Karnataka,Ramanagara,"Vijay Nagar, Ramanagara - KSPCB",27-07-2024 21:00:00,12.733409,77.298051,NH3,1,3,2
India,Karnataka,Tumakuru,"Thimmalapura, Tumakuru - KSPCB",27-07-2024 21:00:00,13.377516,77.099072,NO2,16,18,17
India,Karnataka,Udupi,"Brahmagiri, Udupi - KSPCB",27-07-2024 21:00:00,13.34194444,74.74694444,NH3,NA,NA,NA
India,Karnataka,Vijayapura,"Ibrahimpur, Vijayapura - KSPCB",27-07-2024 21:00:00,16.802639,75.722694,CO,NA,NA,NA
India,Karnataka,Yadgir,"Collector Office, Yadgir - KSPCB",27-07-2024 21:00:00,16.7602,77.1428,PM2.5,NA,NA,NA
India,Karnataka,Yadgir,"Collector Office, Yadgir - KSPCB",27-07-2024 21:00:00,16.7602,77.1428,PM10,NA,NA,NA
India,Karnataka,Yadgir,"Collector Office, Yadgir - KSPCB",27-07-2024 21:00:00,16.7602,77.1428,NO2,NA,NA,NA
India,Karnataka,Yadgir,"Collector Office, Yadgir - KSPCB",27-07-2024 21:00:00,16.7602,77.1428,OZONE,17,20,19
India,Kerala,Eloor,"Udyogamandal, Eloor - Kerala PCB",27-07-2024 21:00:00,10.073232,76.302765,PM2.5,44,86,58
India,Kerala,Kollam,"Polayathode, Kollam - Kerala PCB",27-07-2024 21:00:00,8.8787,76.6073,NO2,NA,NA,NA
India,Kerala,Kollam,"Polayathode, Kollam - Kerala PCB",27-07-2024 21:00:00,8.8787,76.6073,CO,14,17,16
India,Kerala,Thiruvananthapuram,"Kariavattom, Thiruvananthapuram - Kerala PCB",27-07-2024 21:00:00,8.563700,76.886500,NH3,1,1,1
India,Kerala,Thrissur,"Corporation Ground, Thrissur - Kerala PCB",27-07-2024 21:00:00,10.532400,76.215900,PM2.5,31,41,35
India,Madhya Pradesh,Bhopal,"Paryavaran Parisar, Bhopal - MPPCB",27-07-2024 21:00:00,23.210494,77.425409,PM10,1,84,49
India,Madhya Pradesh,Bhopal,"Paryavaran Parisar, Bhopal - MPPCB",27-07-2024 21:00:00,23.210494,77.425409,NH3,2,6,3
India,Madhya Pradesh,Bhopal,"Paryavaran Parisar, Bhopal - MPPCB",27-07-2024 21:00:00,23.210494,77.425409,CO,6,28,17
India,Madhya Pradesh,Bhopal,"T T Nagar, Bhopal - MPPCB",27-07-2024 21:00:00,23.233584,77.400574,NH3,4,5,4
India,Madhya Pradesh,Bhopal,"T T Nagar, Bhopal - MPPCB",27-07-2024 21:00:00,23.233584,77.400574,CO,12,37,28
India,Madhya Pradesh,Bhopal,"T T Nagar, Bhopal - MPPCB",27-07-2024 21:00:00,23.233584,77.400574,OZONE,35,47,40
India,Madhya Pradesh,Damoh,"Shrivastav Colony, Damoh - MPPCB",27-07-2024 21:00:00,23.81748678,79.446246,PM2.5,5,58,27
India,Madhya Pradesh,Damoh,"Shrivastav Colony, Damoh - MPPCB",27-07-2024 21:00:00,23.81748678,79.446246,CO,13,14,14
India,Madhya Pradesh,Dewas,"Bhopal Chauraha, Dewas - MPPCB",27-07-2024 21:00:00,22.9682591,76.064118,PM2.5,21,49,36
India,Madhya Pradesh,Dewas,"Bhopal Chauraha, Dewas - MPPCB",27-07-2024 21:00:00,22.9682591,76.064118,NH3,3,3,3
India,Madhya Pradesh,Dewas,"Bhopal Chauraha, Dewas - MPPCB",27-07-2024 21:00:00,22.9682591,76.064118,CO,6,27,21
India,Madhya Pradesh,Gwalior,"Deen Dayal Nagar, Gwalior - MPPCB",27-07-2024 21:00:00,26.259242,78.216432,CO,43,51,47
India,Madhya Pradesh,Gwalior,"Maharaj Bada, Gwalior - MPPCB",27-07-2024 21:00:00,26.200388,78.147714,SO2,8,23,16
India,Madhya Pradesh,Gwalior,"Maharaj Bada, Gwalior - MPPCB",27-07-2024 21:00:00,26.200388,78.147714,CO,15,67,49
India,Madhya Pradesh,Indore,"Maguda Nagar, Indore - IMC",27-07-2024 21:00:00,22.7524,75.8872,OZONE,1,2,1
India,Madhya Pradesh,Indore,"Regional Park, Indore - IMC",27-07-2024 21:00:00,22.6780,75.8559,SO2,41,42,41
India,Madhya Pradesh,Indore,"Residency Area, Indore - IMC",27-07-2024 21:00:00,22.7084,75.8815,PM10,9,43,24
India,Madhya Pradesh,Indore,"Residency Area, Indore - IMC",27-07-2024 21:00:00,22.7084,75.8815,NO2,22,27,24
India,Madhya Pradesh,Jabalpur,"Gupteshwar, Jabalpur - JMC",27-07-2024 21:00:00,23.142888,79.916147,PM10,8,139,32
India,Madhya Pradesh,Jabalpur,"Gupteshwar, Jabalpur - JMC",27-07-2024 21:00:00,23.142888,79.916147,NO2,5,10,8
India,Madhya Pradesh,Jabalpur,"Gupteshwar, Jabalpur - JMC",27-07-2024 21:00:00,23.142888,79.916147,CO,10,27,22
India,Madhya Pradesh,Jabalpur,"Gupteshwar, Jabalpur - JMC",27-07-2024 21:00:00,23.142888,79.916147,OZONE,17,29,24
India,Madhya Pradesh,Jabalpur,"Suhagi, Jabalpur - JMC",27-07-2024 21:00:00,23.218135,79.957770,PM2.5,18,30,21
India,Madhya Pradesh,Katni,"Gole Bazar, Katni - MPPCB",27-07-2024 21:00:00,23.50016,80.23284,PM2.5,20,51,30
India,Madhya Pradesh,Mandideep,"Sector-D Industrial Area, Mandideep - MPPCB",27-07-2024 21:00:00,23.108440,77.511428,NO2,3,13,7
India,Madhya Pradesh,Mandideep,"Sector-D Industrial Area, Mandideep - MPPCB",27-07-2024 21:00:00,23.108440,77.511428,NH3,5,6,6
India,Madhya Pradesh,Mandideep,"Sector-D Industrial Area, Mandideep - MPPCB",27-07-2024 21:00:00,23.108440,77.511428,SO2,4,10,8
India,Madhya Pradesh,Pithampur,"Sector-2 Industrial Area, Pithampur - MPPCB",27-07-2024 21:00:00,22.624758,75.675238,OZONE,31,55,35
India,Madhya Pradesh,Sagar,"Civil Lines, Sagar - MPPCB",27-07-2024 21:00:00,23.838586,78.759431,NO2,1,11,5
India,Madhya Pradesh,Sagar,"Civil Lines, Sagar - MPPCB",27-07-2024 21:00:00,23.838586,78.759431,NH3,2,11,8
India,Madhya Pradesh,Sagar,"Deen Dayal Nagar, Sagar - MPPCB",27-07-2024 21:00:00,23.8640158,78.80289321,NO2,2,24,22
India,Madhya Pradesh,Sagar,"Deen Dayal Nagar, Sagar - MPPCB",27-07-2024 21:00:00,23.8640158,78.80289321,CO,20,38,36
India,Madhya Pradesh,Satna,"Bandhavgar Colony, Satna - Birla Cement",27-07-2024 21:00:00,24.58434363,80.8549414,CO,10,108,50
India,Madhya Pradesh,Satna,"Bandhavgar Colony, Satna - Birla Cement",27-07-2024 21:00:00,24.58434363,80.8549414,OZONE,8,57,39
India,Madhya Pradesh,Singrauli,"Suryakiran Bhawan NCL, Singrauli - MPPCB",27-07-2024 21:00:00,24.108970,82.645580,PM2.5,32,45,35
India,Madhya Pradesh,Singrauli,"Suryakiran Bhawan NCL, Singrauli - MPPCB",27-07-2024 21:00:00,24.108970,82.645580,NO2,4,26,14
India,Madhya Pradesh,Singrauli,"Suryakiran Bhawan NCL, Singrauli - MPPCB",27-07-2024 21:00:00,24.108970,82.645580,SO2,81,103,95
India,Madhya Pradesh,Ujjain,"Mahakaleshwar Temple, Ujjain - MPPCB",27-07-2024 21:00:00,23.182719 ,75.768218 ,PM10,42,85,65
India,Madhya Pradesh,Ujjain,"Mahakaleshwar Temple, Ujjain - MPPCB",27-07-2024 21:00:00,23.182719 ,75.768218 ,NO2,6,8,8
India,Madhya Pradesh,Ujjain,"Mahakaleshwar Temple, Ujjain - MPPCB",27-07-2024 21:00:00,23.182719 ,75.768218 ,CO,8,13,11
India,Maharashtra,Ahmednagar,"Tarakpur, Ahmednagar - MPCB",27-07-2024 21:00:00,19.10122,74.73339,NO2,9,23,15
India,Maharashtra,Ahmednagar,"Tarakpur, Ahmednagar - MPCB",27-07-2024 21:00:00,19.10122,74.73339,NH3,1,7,5
India,Maharashtra,Akola,"Ramdaspeth, Akola - MPCB",27-07-2024 21:00:00,20.719516,77.000253,NO2,7,16,10
India,Maharashtra,Akola,"Ramdaspeth, Akola - MPCB",27-07-2024 21:00:00,20.719516,77.000253,CO,4,30,12
India,Maharashtra,Akola,"Ramdaspeth, Akola - MPCB",27-07-2024 21:00:00,20.719516,77.000253,OZONE,5,12,10
India,Maharashtra,Amravati,"Shivneri Colony, Amravati - MPCB",27-07-2024 21:00:00,20.9402359,77.7895248,OZONE,7,12,10
India,Maharashtra,Badlapur,"Katrap, Badlapur - MPCB",27-07-2024 21:00:00,19.16485,73.23409,NO2,19,26,21
India,Maharashtra,Belapur,"CBD Belapur, Belapur - MPCB",27-07-2024 21:00:00,19.0243902,73.0406721,OZONE,12,17,13
India,Maharashtra,Bhiwandi,"Gokul Nagar, Bhiwandi - MPCB",27-07-2024 21:00:00,19.309073,73.057223,PM2.5,NA,NA,NA
India,Maharashtra,Bhiwandi,"Gokul Nagar, Bhiwandi - MPCB",27-07-2024 21:00:00,19.309073,73.057223,SO2,NA,NA,NA
India,Maharashtra,Bhiwandi,"Gokul Nagar, Bhiwandi - MPCB",27-07-2024 21:00:00,19.309073,73.057223,OZONE,NA,NA,NA
India,Maharashtra,Boisar,"Khaira, Boisar - MPCB",27-07-2024 21:00:00,19.786089,72.757971,NO2,17,42,25
India,Maharashtra,Chandrapur,"MIDC Khutala, Chandrapur - MPCB",27-07-2024 21:00:00,19.9775302,79.2337086,OZONE,4,8,7
India,Maharashtra,Dhule,"Deopur, Dhule - MPCB",27-07-2024 21:00:00,20.918946,74.776388,OZONE,14,36,32
India,Maharashtra,Jalgaon,"Prabhat Colony, Jalgaon - MPCB",27-07-2024 21:00:00,21.001264,75.565602,PM2.5,20,61,32
India,Maharashtra,Jalgaon,"Prabhat Colony, Jalgaon - MPCB",27-07-2024 21:00:00,21.001264,75.565602,CO,12,24,20
India,Maharashtra,Kalyan,"Khadakpada, Kalyan - MPCB",27-07-2024 21:00:00,19.25292,73.142019,PM2.5,10,20,14
India,Maharashtra,Kalyan,"Khadakpada, Kalyan - MPCB",27-07-2024 21:00:00,19.25292,73.142019,NO2,6,17,13
India,Maharashtra,Kalyan,"Khadakpada, Kalyan - MPCB",27-07-2024 21:00:00,19.25292,73.142019,CO,8,22,19
India,Maharashtra,Kolhapur,"Shivaji University, Kolhapur - MPCB",27-07-2024 21:00:00,16.6870449,74.2505872,NO2,5,14,11
India,Maharashtra,Kolhapur,"Sinchan Bhavan, Kolhapur - MPCB",27-07-2024 21:00:00,16.7143745,74.2426398,PM10,25,47,37
India,Maharashtra,Kolhapur,"Sinchan Bhavan, Kolhapur - MPCB",27-07-2024 21:00:00,16.7143745,74.2426398,SO2,NA,NA,NA
India,Maharashtra,Latur,"Sawe Wadi, Latur - MPCB",27-07-2024 21:00:00,18.39963,76.57452,PM10,32,69,45
India,Maharashtra,Latur,"Sawe Wadi, Latur - MPCB",27-07-2024 21:00:00,18.39963,76.57452,CO,4,22,16
India,Maharashtra,Mahad,"Kamble Tarf Birwadi, Mahad - MPCB",27-07-2024 21:00:00,18.1023399,73.4783687,PM2.5,12,30,20
India,Maharashtra,Mahad,"Kamble Tarf Birwadi, Mahad - MPCB",27-07-2024 21:00:00,18.1023399,73.4783687,CO,8,34,29
India,Maharashtra,Malegaon,"Mahesh Nagar, Malegaon - MPCB",27-07-2024 21:00:00,20.555712,74.529236,PM10,32,80,64
India,Maharashtra,Mira-Bhayandar,"Bhayandar West, Mira-Bhayandar - MPCB",27-07-2024 21:00:00,19.296481,72.840923,NO2,2,4,3
India,Maharashtra,Mira-Bhayandar,"Bhayandar West, Mira-Bhayandar - MPCB",27-07-2024 21:00:00,19.296481,72.840923,SO2,3,4,4
India,Maharashtra,Mumbai,"Bandra Kurla Complex, Mumbai - MPCB",27-07-2024 21:00:00,19.065931,72.862131,PM2.5,17,48,26
India,Maharashtra,Mumbai,"Bandra Kurla Complex, Mumbai - MPCB",27-07-2024 21:00:00,19.065931,72.862131,NO2,3,12,7
India,Maharashtra,Mumbai,"Bandra Kurla Complex, Mumbai - MPCB",27-07-2024 21:00:00,19.065931,72.862131,NH3,1,5,3
India,Maharashtra,Mumbai,"Bandra Kurla Complex, Mumbai - MPCB",27-07-2024 21:00:00,19.065931,72.862131,OZONE,4,20,9
India,Maharashtra,Mumbai,"Borivali East, Mumbai - IITM",27-07-2024 21:00:00,19.23241,72.86895,PM2.5,18,35,25
India,Maharashtra,Mumbai,"Borivali East, Mumbai - IITM",27-07-2024 21:00:00,19.23241,72.86895,NO2,63,81,73
India,Maharashtra,Mumbai,"Borivali East, Mumbai - IITM",27-07-2024 21:00:00,19.23241,72.86895,NH3,3,4,4
India,Maharashtra,Mumbai,"Byculla, Mumbai - BMC",27-07-2024 21:00:00,18.9767,72.8380,NO2,4,14,8
India,Maharashtra,Mumbai,"Chembur, Mumbai - MPCB",27-07-2024 21:00:00,19.0364585,72.8954371,NH3,7,8,8
India,Maharashtra,Mumbai,"Chhatrapati Shivaji Intl. Airport (T2), Mumbai - MPCB",27-07-2024 21:00:00,19.10078,72.87462,SO2,15,19,17
India,Maharashtra,Mumbai,"Colaba, Mumbai - MPCB",27-07-2024 21:00:00,18.910000,72.820000,PM2.5,6,13,9
India,Maharashtra,Mumbai,"Colaba, Mumbai - MPCB",27-07-2024 21:00:00,18.910000,72.820000,PM10,13,31,22
India,Maharashtra,Mumbai,"Deonar, Mumbai - IITM",27-07-2024 21:00:00,19.04946,72.9230,PM2.5,NA,NA,NA
India,Maharashtra,Mumbai,"Deonar, Mumbai - IITM",27-07-2024 21:00:00,19.04946,72.9230,NO2,NA,NA,NA
India,Maharashtra,Mumbai,"Deonar, Mumbai - IITM",27-07-2024 21:00:00,19.04946,72.9230,SO2,NA,NA,NA
India,Maharashtra,Mumbai,"Kandivali West, Mumbai - BMC",27-07-2024 21:00:00,19.215859,72.831718,SO2,1,2,2
India,Maharashtra,Mumbai,"Kandivali West, Mumbai - BMC",27-07-2024 21:00:00,19.215859,72.831718,CO,4,20,15
India,Maharashtra,Mumbai,"Kherwadi_Bandra East, Mumbai - MPCB",27-07-2024 21:00:00,19.0632143,72.8456324,CO,8,18,15
India,Maharashtra,Mumbai,"Kherwadi_Bandra East, Mumbai - MPCB",27-07-2024 21:00:00,19.0632143,72.8456324,OZONE,6,31,17
India,Maharashtra,Mumbai,"Khindipada-Bhandup West, Mumbai - IITM",27-07-2024 21:00:00,19.1653323,72.922099,NH3,1,1,1
India,Maharashtra,Mumbai,"Kurla, Mumbai - MPCB",27-07-2024 21:00:00,19.0863,72.8888,SO2,31,32,32
India,Maharashtra,Mumbai,"Kurla, Mumbai - MPCB",27-07-2024 21:00:00,19.0863,72.8888,OZONE,28,29,29
India,Maharashtra,Mumbai,"Malad West, Mumbai - IITM",27-07-2024 21:00:00,19.19709,72.82204,PM2.5,9,44,22
India,Maharashtra,Mumbai,"Navy Nagar-Colaba, Mumbai - IITM",27-07-2024 21:00:00,18.897756,72.813320,PM10,23,42,33
India,Maharashtra,Mumbai,"Powai, Mumbai - MPCB",27-07-2024 21:00:00,19.137500,72.915056,NO2,13,18,16
India,Maharashtra,Mumbai,"Powai, Mumbai - MPCB",27-07-2024 21:00:00,19.137500,72.915056,SO2,14,14,14
India,Maharashtra,Mumbai,"Sewri, Mumbai - BMC",27-07-2024 21:00:00,19.000084,72.856730,PM10,19,48,37
India,Maharashtra,Mumbai,"Shivaji Nagar, Mumbai - BMC",27-07-2024 21:00:00,19.060498,72.923356,SO2,1,6,4
India,Maharashtra,Mumbai,"Shivaji Nagar, Mumbai - BMC",27-07-2024 21:00:00,19.060498,72.923356,CO,1,82,28
India,Maharashtra,Mumbai,"Sion, Mumbai - MPCB",27-07-2024 21:00:00,19.047000,72.874600,PM2.5,19,50,35
India,Maharashtra,Mumbai,"Sion, Mumbai - MPCB",27-07-2024 21:00:00,19.047000,72.874600,OZONE,17,20,18
India,Maharashtra,Mumbai,"Vile Parle West, Mumbai - MPCB",27-07-2024 21:00:00,19.10861,72.83622,NH3,11,11,11
India,Maharashtra,Mumbai,"Worli, Mumbai - MPCB",27-07-2024 21:00:00,18.9936162,72.8128113,CO,54,56,54
India,Maharashtra,Nagpur,"Ambazari, Nagpur - MPCB",27-07-2024 21:00:00,21.121801,79.04952,NO2,11,22,18
India,Maharashtra,Nagpur,"Opp GPO Civil Lines, Nagpur - MPCB",27-07-2024 21:00:00,21.152875,79.0517531,CO,8,32,24
India,Maharashtra,Nagpur,"Ram Nagar, Nagpur - MPCB",27-07-2024 21:00:00,21.143383,79.048912,PM10,13,33,23
India,Maharashtra,Nanded,"Sneh Nagar, Nanded - MPCB",27-07-2024 21:00:00,19.173852,77.296291,PM10,28,44,35
India,Maharashtra,Nashik,"Hirawadi, Nashik - MPCB",27-07-2024 21:00:00,20.021503,73.813844,SO2,1,6,3
India,Maharashtra,Navi Mumbai,"Kopripada-Vashi, Navi Mumbai - MPCB",27-07-2024 21:00:00,19.090337,73.014232,CO,8,32,22
India,Maharashtra,Navi Mumbai,"Mahape, Navi Mumbai - MPCB",27-07-2024 21:00:00,19.1135051,73.008978,NH3,2,3,2
India,Maharashtra,Navi Mumbai,"Nerul, Navi Mumbai - MPCB",27-07-2024 21:00:00,19.008751,73.016620,PM2.5,10,30,19
India,Maharashtra,Navi Mumbai,"Sanpada, Navi Mumbai - MPCB",27-07-2024 21:00:00,19.0575752,73.0151367,PM2.5,6,35,20
India,Maharashtra,Navi Mumbai,"Sanpada, Navi Mumbai - MPCB",27-07-2024 21:00:00,19.0575752,73.0151367,NH3,3,6,4
India,Maharashtra,Navi Mumbai,"Sanpada, Navi Mumbai - MPCB",27-07-2024 21:00:00,19.0575752,73.0151367,SO2,1,2,1
India,Maharashtra,Navi Mumbai,"Sector-19A Nerul, Navi Mumbai - IITM",27-07-2024 21:00:00,19.044,73.0325,PM10,8,40,21
India,Maharashtra,Navi Mumbai,"Sector-2E Kalamboli, Navi Mumbai - MPCB",27-07-2024 21:00:00,19.02579,73.10297,SO2,1,4,2
India,Maharashtra,Navi Mumbai,"Tondare-Taloja, Navi Mumbai - MPCB",27-07-2024 21:00:00,19.0630,73.1209,NO2,7,29,13
India,Maharashtra,Parbhani,"Masoom Colony, Parbhani - MPCB",27-07-2024 21:00:00,19.265594,76.761463,PM10,NA,NA,NA
India,Maharashtra,Parbhani,"Masoom Colony, Parbhani - MPCB",27-07-2024 21:00:00,19.265594,76.761463,SO2,NA,NA,NA
India,Maharashtra,Pune,"Bhumkar Nagar, Pune - IITM",27-07-2024 21:00:00,18.605770,73.749976,PM2.5,9,44,20
India,Maharashtra,Pune,"Karve Road, Pune - MPCB",27-07-2024 21:00:00,18.5011743,73.8165527,CO,5,104,26
India,Maharashtra,Pune,"Katraj Dairy, Pune - MPCB",27-07-2024 21:00:00,18.454450,73.854155,PM10,NA,NA,NA
India,Maharashtra,Pune,"Katraj Dairy, Pune - MPCB",27-07-2024 21:00:00,18.454450,73.854155,NO2,NA,NA,NA
India,Maharashtra,Pune,"Mhada Colony, Pune - IITM",27-07-2024 21:00:00,18.573040,73.927715,NO2,23,38,29
India,Maharashtra,Pune,"Panchawati_Pashan, Pune - IITM",27-07-2024 21:00:00,18.536457,73.805454,PM10,NA,NA,NA
India,Maharashtra,Pune,"Revenue Colony-Shivajinagar, Pune - IITM",27-07-2024 21:00:00,18.530085,73.849598,PM10,NA,NA,NA
India,Maharashtra,Pune,"Revenue Colony-Shivajinagar, Pune - IITM",27-07-2024 21:00:00,18.530085,73.849598,SO2,6,21,13
India,Maharashtra,Pune,"Savitribai Phule Pune University, Pune - MPCB",27-07-2024 21:00:00,18.547056,73.826908,PM10,36,66,48
India,Maharashtra,Pune,"Savitribai Phule Pune University, Pune - MPCB",27-07-2024 21:00:00,18.547056,73.826908,CO,10,22,19
India,Maharashtra,Pune,"Savitribai Phule Pune University, Pune - MPCB",27-07-2024 21:00:00,18.547056,73.826908,OZONE,16,24,19
India,Maharashtra,Solapur,"Dnyaneshwar Nagar, Solapur - MPCB",27-07-2024 21:00:00,17.6336264,75.9132495,PM10,26,81,51
India,Maharashtra,Solapur,"Dnyaneshwar Nagar, Solapur - MPCB",27-07-2024 21:00:00,17.6336264,75.9132495,CO,8,20,13
India,Maharashtra,Solapur,"Ratandeep Housing Society, Solapur - MPCB",27-07-2024 21:00:00,17.65439,75.90649,OZONE,10,26,23
India,Maharashtra,Solapur,"Solapur, Solapur - MPCB",27-07-2024 21:00:00,17.6599188,75.9063906,SO2,1,42,6
India,Maharashtra,Thane,"Kasarvadavali, Thane - MPCB",27-07-2024 21:00:00,19.26777,72.97182,NH3,1,2,1
India,Maharashtra,Thane,"Pimpleshwar Mandir, Thane - MPCB",27-07-2024 21:00:00,19.192056,72.9585188,NH3,3,4,4
India,Maharashtra,Thane,"Upvan Fort, Thane - MPCB",27-07-2024 21:00:00,19.222279,72.957979,OZONE,4,7,6
India,Maharashtra,Ulhasnagar,"Sidhi Vinayak Nagar, Ulhasnagar - MPCB",27-07-2024 21:00:00,19.235581,73.159121,CO,16,45,32
India,Maharashtra,Ulhasnagar,"Sidhi Vinayak Nagar, Ulhasnagar - MPCB",27-07-2024 21:00:00,19.235581,73.159121,OZONE,4,16,10
India,Manipur,Imphal,"DM College of Science, Imphal - Manipur PCB",27-07-2024 21:00:00,24.8207389,93.9423085,PM10,5,38,14
India,Meghalaya,Shillong,"Lumpyngngad, Shillong - Meghalaya PCB",27-07-2024 21:00:00,25.5586,91.8985,CO,2,8,6
India,Mizoram,Aizawl,"Sikulpuikawn, Aizawl - Mizoram PCB",27-07-2024 21:00:00,23.7176342,92.7192841,PM10,3,30,17
India,Mizoram,Aizawl,"Sikulpuikawn, Aizawl - Mizoram PCB",27-07-2024 21:00:00,23.7176342,92.7192841,OZONE,1,6,3
India,Odisha,Balasore,"Kalidaspur, Balasore - OSPCB",27-07-2024 21:00:00,21.51161,86.89088,PM2.5,2,90,38
India,Odisha,Balasore,"Kalidaspur, Balasore - OSPCB",27-07-2024 21:00:00,21.51161,86.89088,NO2,5,26,11
India,Odisha,Barbil,"Forest Office, Barbil - OSPCB",27-07-2024 21:00:00,22.1166054,85.3945546,PM2.5,2,82,25
India,Odisha,Barbil,"Forest Office, Barbil - OSPCB",27-07-2024 21:00:00,22.1166054,85.3945546,NO2,3,6,4
India,Odisha,Barbil,"Forest Office, Barbil - OSPCB",27-07-2024 21:00:00,22.1166054,85.3945546,CO,1,50,29
India,Odisha,Bhubaneswar,"Lingraj Mandir, Bhubaneswar - OSPCB",27-07-2024 21:00:00,20.240790,85.836784,PM2.5,8,35,22
India,Odisha,Bhubaneswar,"Lingraj Mandir, Bhubaneswar - OSPCB",27-07-2024 21:00:00,20.240790,85.836784,PM10,19,72,40
India,Odisha,Bhubaneswar,"Patia, Bhubaneswar - OSPCB",27-07-2024 21:00:00,20.34652,85.81630,PM2.5,3,33,20
India,Odisha,Bileipada,"Tata Township, Bileipada - OSPCB",27-07-2024 21:00:00,22.06156703,85.47409613,PM2.5,24,50,33
India,Odisha,Keonjhar,"Jagamohanpur, Keonjhar - OSPCB",27-07-2024 21:00:00,21.643900,85.599355,NO2,14,18,17
India,Odisha,Keonjhar,"Jagamohanpur, Keonjhar - OSPCB",27-07-2024 21:00:00,21.643900,85.599355,SO2,3,11,5
India,Odisha,Nayagarh,"Dabuna, Nayagarh - OSPCB",27-07-2024 21:00:00,21.847279,85.416905,PM10,21,35,24
India,Odisha,Rourkela,"Raghunathpali, Rourkela - OSPCB",27-07-2024 21:00:00,22.220833,84.809444,PM2.5,16,64,36
India,Odisha,Rourkela,"Sector-2, Rourkela - OSPCB",27-07-2024 21:00:00,22.24500000,84.88111111,CO,7,32,9
India,Odisha,Suakati,"OMC Colony, Suakati - OSPCB",27-07-2024 21:00:00,21.606865,85.510538,PM10,20,36,27
India,Odisha,Suakati,"OMC Colony, Suakati - OSPCB",27-07-2024 21:00:00,21.606865,85.510538,OZONE,8,42,28
India,Odisha,Talcher,"Talcher Coalfields,Talcher - OSPCB",27-07-2024 21:00:00,20.9360711,85.1707021,PM10,1,41,21
India,Odisha,Talcher,"Talcher Coalfields,Talcher - OSPCB",27-07-2024 21:00:00,20.9360711,85.1707021,NO2,22,25,24
India,Odisha,Talcher,"Talcher Coalfields,Talcher - OSPCB",27-07-2024 21:00:00,20.9360711,85.1707021,NH3,4,4,4
India,Odisha,Tensa,"Barsua Iron Ore Mines, Tensa - OSPCB",27-07-2024 21:00:00,21.869985,85.167016,NH3,NA,NA,NA
India,Puducherry,Puducherry,"Jawahar Nagar, Puducherry - PPCC",27-07-2024 21:00:00,11.9309,79.8027,PM10,18,104,49
India,Punjab,Jalandhar,"Civil Line, Jalandhar - PPCB",27-07-2024 21:00:00,31.321907,75.578914,NO2,26,27,26
India,Punjab,Jalandhar,"Civil Line, Jalandhar - PPCB",27-07-2024 21:00:00,31.321907,75.578914,CO,38,104,56
India,Punjab,Khanna,"Kalal Majra, Khanna - PPCB",27-07-2024 21:00:00,30.736056 ,76.209694,OZONE,28,41,30
India,Punjab,Mandi Gobindgarh,"RIMT University, Mandi Gobindgarh - PPCB",27-07-2024 21:00:00,30.649961,76.331442,NH3,7,7,7
India,Punjab,Rupnagar,"Ratanpura, Rupnagar - Ambuja Cements",27-07-2024 21:00:00,31.0325454,76.5623046,PM10,51,110,72
India,Rajasthan,Ajmer,"Civil Lines,  Ajmer - RSPCB",27-07-2024 21:00:00,26.470859,74.646594,NH3,4,4,4
India,Rajasthan,Alwar,"Moti Doongri, Alwar - RSPCB",27-07-2024 21:00:00,27.554793,76.611536,NO2,33,44,38
India,Rajasthan,Banswara,"Rati Talai, Banswara - RSPCB",27-07-2024 21:00:00,23.555190,74.440010,PM2.5,31,151,64
India,Rajasthan,Banswara,"Rati Talai, Banswara - RSPCB",27-07-2024 21:00:00,23.555190,74.440010,NH3,1,7,4
India,Rajasthan,Baran,"Bamboliya, Baran - RSPCB",27-07-2024 21:00:00,25.106006,76.469948,OZONE,25,51,46
India,Rajasthan,Barmer,"Railway Colony, Barmer - RSPCB",27-07-2024 21:00:00,25.747299,71.393989,NH3,2,5,3
India,Rajasthan,Bharatpur,"Krishna Nagar, Bharatpur - RSPCB",27-07-2024 21:00:00,27.215415,77.50873,PM2.5,12,38,27
India,Rajasthan,Bhilwara,"Pratap Nagar, Bhilwara - RSPCB",27-07-2024 21:00:00,25.339605,74.618883,NH3,1,2,2
India,Rajasthan,Bikaner,"MM Ground, Bikaner - RSPCB",27-07-2024 21:00:00,28.018792,73.292658,PM10,13,149,76
India,Rajasthan,Bikaner,"MM Ground, Bikaner - RSPCB",27-07-2024 21:00:00,28.018792,73.292658,OZONE,7,36,21
India,Rajasthan,Bundi,"New Colony, Bundi - RSPCB",27-07-2024 21:00:00,25.435774,75.644272,PM10,12,113,69
India,Rajasthan,Bundi,"New Colony, Bundi - RSPCB",27-07-2024 21:00:00,25.435774,75.644272,NH3,2,4,3
India,Rajasthan,Chittorgarh,"Shastri Nagar, Chittorgarh - RSPCB",27-07-2024 21:00:00,24.892047,74.623527,PM2.5,8,163,71
India,Rajasthan,Chittorgarh,"Shastri Nagar, Chittorgarh - RSPCB",27-07-2024 21:00:00,24.892047,74.623527,PM10,42,117,86
India,Rajasthan,Chittorgarh,"Shastri Nagar, Chittorgarh - RSPCB",27-07-2024 21:00:00,24.892047,74.623527,SO2,3,7,5
India,Rajasthan,Chittorgarh,"Shastri Nagar, Chittorgarh - RSPCB",27-07-2024 21:00:00,24.892047,74.623527,OZONE,9,51,33
India,Rajasthan,Churu,"Subash Chowk, Churu - RSPCB",27-07-2024 21:00:00,28.296139,74.961696,PM2.5,17,46,33
India,Rajasthan,Churu,"Subash Chowk, Churu - RSPCB",27-07-2024 21:00:00,28.296139,74.961696,PM10,37,121,74
India,Rajasthan,Dholpur,"Raja Ganj, Dholpur - RSPCB",27-07-2024 21:00:00,26.699557,77.898881,NH3,NA,NA,NA
India,Rajasthan,Dholpur,"Raja Ganj, Dholpur - RSPCB",27-07-2024 21:00:00,26.699557,77.898881,SO2,NA,NA,NA
India,Rajasthan,Dungarpur,"Bhoiwada, Dungarpur - RSPCB",27-07-2024 21:00:00,23.837789,73.714926,CO,71,102,91
India,Rajasthan,Hanumangarh,"Housing Board, Hanumangarh - RSPCB",27-07-2024 21:00:00,29.610750,74.283608,PM2.5,8,45,26
India,Rajasthan,Jaipur,"Adarsh Nagar, Jaipur - RSPCB",27-07-2024 21:00:00,26.902909,75.836858,PM10,43,106,75
India,Rajasthan,Jaipur,"Adarsh Nagar, Jaipur - RSPCB",27-07-2024 21:00:00,26.902909,75.836858,OZONE,4,36,29
India,Rajasthan,Jaipur,"Police Commissionerate, Jaipur - RSPCB",27-07-2024 21:00:00,26.9164092,75.7994901,PM2.5,44,194,75
India,Rajasthan,Jaipur,"Police Commissionerate, Jaipur - RSPCB",27-07-2024 21:00:00,26.9164092,75.7994901,NO2,46,60,52
India,Rajasthan,Jaipur,"RIICO Sitapura, Jaipur - RSPCB",27-07-2024 21:00:00,26.786682,75.827928,PM2.5,23,77,47
India,Rajasthan,Jaipur,"RIICO Sitapura, Jaipur - RSPCB",27-07-2024 21:00:00,26.786682,75.827928,NO2,18,127,39
India,Rajasthan,Jaipur,"Sector-2 Murlipura, Jaipur - RSPCB",27-07-2024 21:00:00,26.960669,75.771817,PM10,24,79,44
India,Rajasthan,Jaipur,"Sector-2 Murlipura, Jaipur - RSPCB",27-07-2024 21:00:00,26.960669,75.771817,NH3,1,9,4
India,Rajasthan,Jaipur,"Shastri Nagar, Jaipur - RSPCB",27-07-2024 21:00:00,26.9502929,75.730943,PM2.5,51,140,74
India,Rajasthan,Jalore,"Mudtra Sili, Jalore - RSPCB",27-07-2024 21:00:00,25.344694,72.626208,SO2,4,7,5
India,Rajasthan,Jalore,"Mudtra Sili, Jalore - RSPCB",27-07-2024 21:00:00,25.344694,72.626208,CO,14,26,20
India,Rajasthan,Jhalawar,"Rajlaxmi Nagar, Jhalawar - RSPCB",27-07-2024 21:00:00,24.588397,76.172782,NO2,8,17,12
India,Rajasthan,Jhalawar,"Rajlaxmi Nagar, Jhalawar - RSPCB",27-07-2024 21:00:00,24.588397,76.172782,OZONE,19,49,28
India,Rajasthan,Jhunjhunu,"Indra Nagar, Jhunjhunu - RSPCB",27-07-2024 21:00:00,28.108988,75.386577,OZONE,4,73,33
India,Rajasthan,Jodhpur,"Collectorate, Jodhpur - RSPCB",27-07-2024 21:00:00,26.268249,73.0193853,PM10,38,156,98
India,Rajasthan,Jodhpur,"Collectorate, Jodhpur - RSPCB",27-07-2024 21:00:00,26.268249,73.0193853,SO2,3,17,7
India,Rajasthan,Jodhpur,"Digari Kalan, Jodhpur - RSPCB",27-07-2024 21:00:00,26.295810,73.082283,PM10,68,117,91
India,Rajasthan,Jodhpur,"Digari Kalan, Jodhpur - RSPCB",27-07-2024 21:00:00,26.295810,73.082283,CO,16,32,26
India,Rajasthan,Jodhpur,"Digari Kalan, Jodhpur - RSPCB",27-07-2024 21:00:00,26.295810,73.082283,OZONE,21,35,26
India,Rajasthan,Jodhpur,"Jhalamand, Jodhpur - RSPCB",27-07-2024 21:00:00,26.215415,73.070156,SO2,2,5,3
India,Rajasthan,Jodhpur,"Jhalamand, Jodhpur - RSPCB",27-07-2024 21:00:00,26.215415,73.070156,OZONE,13,37,24
India,Rajasthan,Jodhpur,"Mandor, Jodhpur - RSPCB",27-07-2024 21:00:00,26.358805,73.047444,PM2.5,23,50,34
India,Rajasthan,Jodhpur,"Samrat Ashok Udhyan, Jodhpur - RSPCB",27-07-2024 21:00:00,26.253384,72.976571,NO2,3,15,7
India,Rajasthan,Jodhpur,"Samrat Ashok Udhyan, Jodhpur - RSPCB",27-07-2024 21:00:00,26.253384,72.976571,CO,8,53,34
India,Rajasthan,Jodhpur,"Samrat Ashok Udhyan, Jodhpur - RSPCB",27-07-2024 21:00:00,26.253384,72.976571,OZONE,11,39,27
India,Rajasthan,Karauli,"Satyawati Vihar, Karauli - RSPCB",27-07-2024 21:00:00,26.506177,77.025989,CO,10,28,16
India,Rajasthan,Kota,"Dhanmandi, Kota - RSPCB",27-07-2024 21:00:00,25.164090,75.858137,PM10,15,83,46
India,Rajasthan,Kota,"Nayapura, Kota - RSPCB",27-07-2024 21:00:00,25.196024,75.855668,PM2.5,5,58,27
India,Rajasthan,Kota,"Nayapura, Kota - RSPCB",27-07-2024 21:00:00,25.196024,75.855668,NO2,9,30,17
India,Rajasthan,Kota,"Nayapura, Kota - RSPCB",27-07-2024 21:00:00,25.196024,75.855668,SO2,3,7,6
India,Rajasthan,Kota,"Nayapura, Kota - RSPCB",27-07-2024 21:00:00,25.196024,75.855668,CO,14,66,35
India,Rajasthan,Kota,"Shrinath Puram, Kota - RSPCB",27-07-2024 21:00:00,25.14389,75.821256,PM10,42,414,140
India,Rajasthan,Kota,"Shrinath Puram, Kota - RSPCB",27-07-2024 21:00:00,25.14389,75.821256,OZONE,23,42,33
India,Rajasthan,Pali,"Indira Colony Vistar, Pali - RSPCB",27-07-2024 21:00:00,25.771061, 73.340227,PM2.5,16,145,73
India,Rajasthan,Pali,"Indira Colony Vistar, Pali - RSPCB",27-07-2024 21:00:00,25.771061, 73.340227,SO2,6,10,9
India,Rajasthan,Pratapgarh,"Pragati Nagar, Pratapgarh - RSPCB",27-07-2024 21:00:00,24.041198,74.780702,NH3,3,4,3
India,Rajasthan,Pratapgarh,"Pragati Nagar, Pratapgarh - RSPCB",27-07-2024 21:00:00,24.041198,74.780702,OZONE,21,39,27
India,Rajasthan,Rajsamand,"Dhoinda, Rajsamand - RSPCB",27-07-2024 21:00:00,25.036360,73.883502,NO2,8,18,11
India,Rajasthan,Sawai Madhopur,"Sahu Nagar, Sawai Madhopur - RSPCB",27-07-2024 21:00:00,26.031443,76.359327,NH3,1,2,2
India,Rajasthan,Sirohi,"Vedhaynath Colony, Sirohi - RSPCB",27-07-2024 21:00:00,24.885261,72.857549,SO2,5,8,7
India,Rajasthan,Sri Ganganagar,"Old City, Sri Ganganagar - RSPCB",27-07-2024 21:00:00,29.931624,73.864511,PM10,38,386,147
India,Rajasthan,Sri Ganganagar,"Old City, Sri Ganganagar - RSPCB",27-07-2024 21:00:00,29.931624,73.864511,NO2,12,62,24
India,Rajasthan,Sri Ganganagar,"Old City, Sri Ganganagar - RSPCB",27-07-2024 21:00:00,29.931624,73.864511,NH3,NA,NA,NA
India,Rajasthan,Tonk,"Shastri Nagar, Tonk - RSPCB",27-07-2024 21:00:00,26.159933,75.780517,PM2.5,15,43,23
India,Rajasthan,Tonk,"Shastri Nagar, Tonk - RSPCB",27-07-2024 21:00:00,26.159933,75.780517,NO2,3,17,8
India,Rajasthan,Udaipur,"Ashok Nagar, Udaipur - RSPCB",27-07-2024 21:00:00,24.5886166,73.6321397,NH3,7,20,13
India,Rajasthan,Udaipur,"Ashok Nagar, Udaipur - RSPCB",27-07-2024 21:00:00,24.5886166,73.6321397,OZONE,7,23,14
India,Sikkim,Gangtok,"Zero Point GICI, Gangtok - SSPCB",27-07-2024 21:00:00,27.338530,88.614099,PM2.5,5,14,9
India,Sikkim,Gangtok,"Zero Point GICI, Gangtok - SSPCB",27-07-2024 21:00:00,27.338530,88.614099,NH3,1,1,1
India,TamilNadu,Ariyalur,"Keelapalur, Ariyalur - TNPCB",27-07-2024 21:00:00,11.06825,79.07033,NO2,44,70,60
India,TamilNadu,Chennai,"Alandur Bus Depot, Chennai - CPCB",27-07-2024 21:00:00,12.9099161,80.1076538,NH3,1,36,5
India,TamilNadu,Chennai,"Alandur Bus Depot, Chennai - CPCB",27-07-2024 21:00:00,12.9099161,80.1076538,SO2,1,9,3
India,TamilNadu,Chennai,"Kodungaiyur, Chennai - TNPCB",27-07-2024 21:00:00,13.1278,80.2642,PM2.5,5,45,19
India,TamilNadu,Chennai,"Manali, Chennai - CPCB",27-07-2024 21:00:00,13.164544,80.26285,NH3,5,5,5
India,TamilNadu,Chennai,"Perungudi, Chennai - TNPCB",27-07-2024 21:00:00,12.9533,80.2357,OZONE,8,17,11
India,TamilNadu,Chennai,"Royapuram, Chennai - TNPCB",27-07-2024 21:00:00,13.1036,80.2909,PM10,19,115,68
India,TamilNadu,Coimbatore,"PSG College of Arts and Science, Coimbatore - TNPCB",27-07-2024 21:00:00,11.0328,77.0349,PM2.5,13,33,23
India,TamilNadu,Coimbatore,"PSG College of Arts and Science, Coimbatore - TNPCB",27-07-2024 21:00:00,11.0328,77.0349,PM10,19,46,32
India,TamilNadu,Cuddalore,"Semmandalam, Cuddalore - TNPCB",27-07-2024 21:00:00,11.7637683,79.7499835,NH3,1,1,1
India,TamilNadu,Cuddalore,"Semmandalam, Cuddalore - TNPCB",27-07-2024 21:00:00,11.7637683,79.7499835,OZONE,1,23,4
India,TamilNadu,Ooty,"Bombay Castel, Ooty - TNPCB",27-07-2024 21:00:00,11.4068288,76.7138973,PM2.5,NA,NA,NA
India,TamilNadu,Ooty,"Bombay Castel, Ooty - TNPCB",27-07-2024 21:00:00,11.4068288,76.7138973,NO2,NA,NA,NA
India,TamilNadu,Palkalaiperur,"Bharathidasan University, Palkalaiperur - TNPCB",27-07-2024 21:00:00,10.681158,78.741746,OZONE,1,2,1
India,TamilNadu,Ramanathapuram,"Chalai Bazaar, Ramanathapuram - TNPCB",27-07-2024 21:00:00,9.36399,78.831977,OZONE,13,14,14
India,TamilNadu,Tirupur,"Kumaran College, Tirupur - TNPCB",27-07-2024 21:00:00,11.0973603,77.3228673,OZONE,6,7,7
India,TamilNadu,Vellore,"Vasanthapuram, Vellore - TNPCB",27-07-2024 21:00:00,12.909494,79.131861,PM10,NA,NA,NA
India,Telangana,Hyderabad,"Bollaram Industrial Area, Hyderabad - TSPCB",27-07-2024 21:00:00,17.540891,78.358528,NH3,2,8,3
India,Telangana,Hyderabad,"Central University, Hyderabad - TSPCB",27-07-2024 21:00:00,17.460103,78.334361,SO2,4,7,6
India,Telangana,Hyderabad,"ECIL Kapra, Hyderabad - TSPCB",27-07-2024 21:00:00,17.470431,78.566959,PM10,59,80,65
India,Telangana,Hyderabad,"ECIL Kapra, Hyderabad - TSPCB",27-07-2024 21:00:00,17.470431,78.566959,SO2,4,8,5
India,Telangana,Hyderabad,"ECIL Kapra, Hyderabad - TSPCB",27-07-2024 21:00:00,17.470431,78.566959,OZONE,16,28,24
India,Telangana,Hyderabad,"ICRISAT Patancheru, Hyderabad - TSPCB",27-07-2024 21:00:00,17.518400,78.278777,PM2.5,2,22,12
India,Telangana,Hyderabad,"ICRISAT Patancheru, Hyderabad - TSPCB",27-07-2024 21:00:00,17.518400,78.278777,OZONE,7,17,12
India,Telangana,Hyderabad,"IDA Pashamylaram, Hyderabad - TSPCB",27-07-2024 21:00:00,17.5316895,78.218939,PM2.5,3,34,14
India,Telangana,Hyderabad,"IDA Pashamylaram, Hyderabad - TSPCB",27-07-2024 21:00:00,17.5316895,78.218939,OZONE,5,10,6
India,Telangana,Hyderabad,"Kokapet, Hyderabad - TSPCB",27-07-2024 21:00:00,17.393559,78.339194,NO2,8,12,9
India,Telangana,Hyderabad,"Kokapet, Hyderabad - TSPCB",27-07-2024 21:00:00,17.393559,78.339194,CO,20,30,28
India,Telangana,Hyderabad,"Kompally Municipal Office, Hyderabad - TSPCB",27-07-2024 21:00:00,17.544899,78.486949,NO2,9,9,9
India,Telangana,Hyderabad,"Nacharam_TSIIC IALA, Hyderabad - TSPCB",27-07-2024 21:00:00,17.429398,78.569354,NO2,13,17,14
India,Telangana,Hyderabad,"Ramachandrapuram, Hyderabad - TSPCB",27-07-2024 21:00:00,17.528544,78.286195,CO,20,34,24
India,Telangana,Hyderabad,"Sanathnagar, Hyderabad - TSPCB",27-07-2024 21:00:00,17.4559458,78.4332152,PM2.5,21,41,27
India,Telangana,Hyderabad,"Somajiguda, Hyderabad - TSPCB",27-07-2024 21:00:00,17.417094,78.457437,NO2,13,30,20
India,Telangana,Hyderabad,"Zoo Park, Hyderabad - TSPCB",27-07-2024 21:00:00,17.349694,78.451437,OZONE,16,22,18
India,Tripura,Agartala,"Bardowali, Agartala - Tripura SPCB",27-07-2024 21:00:00,23.8175497,91.2726974,NH3,7,9,8
India,Uttar_Pradesh,Agra,"Manoharpur, Agra - UPPCB",27-07-2024 21:00:00,27.23711,78.01936,PM10,5,24,14
India,Uttar_Pradesh,Agra,"Rohta, Agra - UPPCB",27-07-2024 21:00:00,27.106972,78.000111,NO2,3,4,4
India,Uttar_Pradesh,Agra,"Rohta, Agra - UPPCB",27-07-2024 21:00:00,27.106972,78.000111,CO,4,11,8
India,Uttar_Pradesh,Agra,"Rohta, Agra - UPPCB",27-07-2024 21:00:00,27.106972,78.000111,OZONE,8,12,9
India,Uttar_Pradesh,Agra,"Sector-3B Avas Vikas Colony, Agra - UPPCB",27-07-2024 21:00:00,27.19412,77.96237,PM10,8,36,20
India,Uttar_Pradesh,Agra,"Sector-3B Avas Vikas Colony, Agra - UPPCB",27-07-2024 21:00:00,27.19412,77.96237,OZONE,20,36,22
India,Uttar_Pradesh,Agra,"Shahjahan Garden, Agra - UPPCB",27-07-2024 21:00:00,27.169338,78.03582,NH3,1,1,1
India,Uttar_Pradesh,Agra,"Shastripuram, Agra - UPPCB",27-07-2024 21:00:00,27.19862,77.92066,SO2,16,17,17
India,Uttar_Pradesh,Bareilly,"Civil Lines, Bareilly - UPPCB",27-07-2024 21:00:00,28.359581,79.414455,NO2,2,8,2
India,Uttar_Pradesh,Bareilly,"Rajendra Nagar, Bareilly - UPPCB",27-07-2024 21:00:00,28.38910936,79.42963708,NO2,2,3,2
India,Uttar_Pradesh,Bareilly,"Rajendra Nagar, Bareilly - UPPCB",27-07-2024 21:00:00,28.38910936,79.42963708,SO2,19,20,19
India,Uttar_Pradesh,Firozabad,"Nagla Bhau, Firozabad - UPPCB",27-07-2024 21:00:00,27.168897,78.376960,NO2,17,17,17
India,Uttar_Pradesh,Firozabad,"Vibhab Nagar, Firozabad - UPPCB",27-07-2024 21:00:00,27.1594,78.3953,PM10,NA,NA,NA
India,Uttar_Pradesh,Firozabad,"Vibhab Nagar, Firozabad - UPPCB",27-07-2024 21:00:00,27.1594,78.3953,NO2,NA,NA,NA
India,Uttar_Pradesh,Ghaziabad,"Indirapuram, Ghaziabad - UPPCB",27-07-2024 21:00:00,28.646233,77.358075,PM2.5,29,142,61
India,Uttar_Pradesh,Ghaziabad,"Indirapuram, Ghaziabad - UPPCB",27-07-2024 21:00:00,28.646233,77.358075,SO2,15,24,19
India,Uttar_Pradesh,Ghaziabad,"Loni, Ghaziabad - UPPCB",27-07-2024 21:00:00,28.757294,77.278792,NO2,3,48,22
India,Uttar_Pradesh,Ghaziabad,"Sanjay Nagar, Ghaziabad - UPPCB",27-07-2024 21:00:00,28.685382,77.453839,SO2,9,29,15
India,Uttar_Pradesh,Ghaziabad,"Vasundhara, Ghaziabad - UPPCB",27-07-2024 21:00:00,28.6603346,77.3572563,PM2.5,25,144,64
India,Uttar_Pradesh,Ghaziabad,"Vasundhara, Ghaziabad - UPPCB",27-07-2024 21:00:00,28.6603346,77.3572563,NO2,21,51,29
India,Uttar_Pradesh,Ghaziabad,"Vasundhara, Ghaziabad - UPPCB",27-07-2024 21:00:00,28.6603346,77.3572563,NH3,4,7,5
India,Uttar_Pradesh,Gorakhpur,"Madan Mohan Malaviya University of Technology, Gorakhpur - UPPCB",27-07-2024 21:00:00,26.730136,83.433859,CO,2,13,5
India,Uttar_Pradesh,Greater Noida,"Knowledge Park - III, Greater Noida - UPPCB",27-07-2024 21:00:00,28.47272,77.482000,CO,16,68,26
India,Uttar_Pradesh,Greater Noida,"Knowledge Park - V, Greater Noida - UPPCB",27-07-2024 21:00:00,28.557054,77.453663,NO2,15,27,21
India,Uttar_Pradesh,Greater Noida,"Knowledge Park - V, Greater Noida - UPPCB",27-07-2024 21:00:00,28.557054,77.453663,NH3,4,6,4
India,Uttar_Pradesh,Hapur,"Anand Vihar, Hapur - UPPCB",27-07-2024 21:00:00,28.725645,77.749675,NH3,6,12,9
India,Uttar_Pradesh,Jhansi,"Shivaji Nagar, Jhansi - UPPCB",27-07-2024 21:00:00,25.4547,78.6039,PM2.5,5,41,19
India,Uttar_Pradesh,Jhansi,"Shivaji Nagar, Jhansi - UPPCB",27-07-2024 21:00:00,25.4547,78.6039,PM10,6,53,25
India,Uttar_Pradesh,Jhansi,"Shivaji Nagar, Jhansi - UPPCB",27-07-2024 21:00:00,25.4547,78.6039,NO2,5,13,6
India,Uttar_Pradesh,Jhansi,"Shivaji Nagar, Jhansi - UPPCB",27-07-2024 21:00:00,25.4547,78.6039,SO2,36,58,46
India,Uttar_Pradesh,Kanpur,"NSI Kalyanpur, Kanpur - UPPCB",27-07-2024 21:00:00,26.509954,80.249612,PM2.5,5,39,26
India,Uttar_Pradesh,Kanpur,"NSI Kalyanpur, Kanpur - UPPCB",27-07-2024 21:00:00,26.509954,80.249612,OZONE,23,67,54
India,Uttar_Pradesh,Khurja,"Kalindi Kunj, Khurja - UPPCB",27-07-2024 21:00:00,28.2348927,77.8683002,PM2.5,16,142,51
India,Uttar_Pradesh,Khurja,"Kalindi Kunj, Khurja - UPPCB",27-07-2024 21:00:00,28.2348927,77.8683002,NH3,1,2,1
India,Uttar_Pradesh,Lucknow,"B R Ambedkar University, Lucknow - UPPCB",27-07-2024 21:00:00,26.766433,80.927299,PM2.5,4,64,31
India,Uttar_Pradesh,Lucknow,"B R Ambedkar University, Lucknow - UPPCB",27-07-2024 21:00:00,26.766433,80.927299,NH3,3,3,3
India,Uttar_Pradesh,Lucknow,"Kendriya Vidyalaya, Lucknow - CPCB",27-07-2024 21:00:00,26.906111,80.948222,SO2,5,8,6
India,Uttar_Pradesh,Lucknow,"Kendriya Vidyalaya, Lucknow - CPCB",27-07-2024 21:00:00,26.906111,80.948222,CO,18,47,26
India,Uttar_Pradesh,Lucknow,"Kukrail Picnic Spot-1, Lucknow - UPPCB",27-07-2024 21:00:00,26.90723,80.98579,PM10,16,37,29
India,Uttar_Pradesh,Lucknow,"Lalbagh, Lucknow - CPCB",27-07-2024 21:00:00,26.8458805,80.9365541,PM2.5,21,47,33
India,Uttar_Pradesh,Lucknow,"Talkatora District Industries Center, Lucknow - CPCB",27-07-2024 21:00:00,26.83399722,80.8917361,PM10,65,109,87
India,Uttar_Pradesh,Meerut,"Jai Bhim Nagar, Meerut - UPPCB",27-07-2024 21:00:00,28.9535882,77.7622941,NO2,6,38,16
India,Uttar_Pradesh,Meerut,"Jai Bhim Nagar, Meerut - UPPCB",27-07-2024 21:00:00,28.9535882,77.7622941,SO2,1,8,6
India,Uttar_Pradesh,Moradabad,"Buddhi Vihar, Moradabad - UPPCB",27-07-2024 21:00:00,28.83526,78.74460,NO2,20,23,23
India,Uttar_Pradesh,Moradabad,"Buddhi Vihar, Moradabad - UPPCB",27-07-2024 21:00:00,28.83526,78.74460,CO,16,30,23
India,Uttar_Pradesh,Moradabad,"Eco Herbal Park, Moradabad - UPPCB",27-07-2024 21:00:00,28.840739,78.697531,CO,14,64,30
India,Uttar_Pradesh,Moradabad,"Eco Herbal Park, Moradabad - UPPCB",27-07-2024 21:00:00,28.840739,78.697531,OZONE,2,47,33
India,Uttar_Pradesh,Moradabad,"Employment Office, Moradabad - UPPCB",27-07-2024 21:00:00,28.88528,78.73880,PM10,24,68,38
India,Uttar_Pradesh,Moradabad,"Transport Nagar, Moradabad - UPPCB",27-07-2024 21:00:00,28.802625,78.753728,NH3,5,5,5
India,Uttar_Pradesh,Moradabad,"Transport Nagar, Moradabad - UPPCB",27-07-2024 21:00:00,28.802625,78.753728,CO,39,42,41
India,Uttar_Pradesh,Muzaffarnagar,"New Mandi, Muzaffarnagar - UPPCB",27-07-2024 21:00:00,29.4723508,77.7194031,SO2,NA,NA,NA
India,Uttar_Pradesh,Muzaffarnagar,"New Mandi, Muzaffarnagar - UPPCB",27-07-2024 21:00:00,29.4723508,77.7194031,CO,19,52,39
India,Uttar_Pradesh,Noida,"Sector - 62, Noida - IMD",27-07-2024 21:00:00,28.6245479,77.3577104,PM10,42,154,83
India,Uttar_Pradesh,Noida,"Sector-1, Noida - UPPCB",27-07-2024 21:00:00,28.5898,77.3101,OZONE,6,47,30
India,Uttar_Pradesh,Noida,"Sector-116, Noida - UPPCB",27-07-2024 21:00:00,28.569230,77.393848,NO2,12,62,26
India,Uttar_Pradesh,Prayagraj,"Jhunsi, Prayagraj - UPPCB",27-07-2024 21:00:00,25.425602,81.917152,NO2,5,6,6
India,Uttar_Pradesh,Prayagraj,"Motilal Nehru NIT, Prayagraj - UPPCB",27-07-2024 21:00:00,25.494,81.863,SO2,23,38,28
India,Uttar_Pradesh,Prayagraj,"Nagar Nigam, Prayagraj - UPPCB",27-07-2024 21:00:00,25.44919916 ,81.82735986 ,SO2,7,113,28
India,Uttar_Pradesh,Varanasi,"Ardhali Bazar, Varanasi - UPPCB",27-07-2024 21:00:00,25.3505986,82.9083074,CO,15,42,18
India,Uttar_Pradesh,Varanasi,"Bhelupur, Varanasi - UPPCB",27-07-2024 21:00:00,25.301778,82.996789,PM2.5,14,71,43
India,Uttar_Pradesh,Varanasi,"Bhelupur, Varanasi - UPPCB",27-07-2024 21:00:00,25.301778,82.996789,PM10,13,127,64
India,Uttar_Pradesh,Varanasi,"Bhelupur, Varanasi - UPPCB",27-07-2024 21:00:00,25.301778,82.996789,OZONE,1,11,5
India,Uttar_Pradesh,Varanasi,"Maldahiya, Varanasi - UPPCB",27-07-2024 21:00:00,25.32393,82.99687,NH3,NA,NA,NA
India,Uttar_Pradesh,Varanasi,"Maldahiya, Varanasi - UPPCB",27-07-2024 21:00:00,25.32393,82.99687,CO,4,43,15
India,Uttar_Pradesh,Vrindavan,"Omex Eternity, Vrindavan - UPPCB",27-07-2024 21:00:00,27.5714090,77.6557570,NH3,2,2,2
India,Uttarakhand,Dehradun,"Doon University, Dehradun - UKPCB",27-07-2024 21:00:00,30.269444,78.044167,CO,26,45,37
India,Uttarakhand,Rishikesh,"Shivaji Nagar, Rishikesh - UKPCB",27-07-2024 21:00:00,30.075911,78.2859547,PM10,22,42,33
India,Uttarakhand,Rishikesh,"Shivaji Nagar, Rishikesh - UKPCB",27-07-2024 21:00:00,30.075911,78.2859547,OZONE,8,41,31
India,West_Bengal,Asansol,"Asansol Court Area, Asansol - WBPCB",27-07-2024 21:00:00,23.685297,86.945968,PM10,35,56,41
India,West_Bengal,Asansol,"Asansol Court Area, Asansol - WBPCB",27-07-2024 21:00:00,23.685297,86.945968,NH3,5,9,6
India,West_Bengal,Asansol,"Asansol Court Area, Asansol - WBPCB",27-07-2024 21:00:00,23.685297,86.945968,OZONE,11,41,34
India,West_Bengal,Asansol,"Evelyn Lodge, Asansol - WBPCB",27-07-2024 21:00:00,23.6979360,86.9443950,PM2.5,4,53,25
India,West_Bengal,Asansol,"Evelyn Lodge, Asansol - WBPCB",27-07-2024 21:00:00,23.6979360,86.9443950,PM10,2,63,29
India,West_Bengal,Asansol,"Evelyn Lodge, Asansol - WBPCB",27-07-2024 21:00:00,23.6979360,86.9443950,NO2,24,36,28
India,West_Bengal,Asansol,"Evelyn Lodge, Asansol - WBPCB",27-07-2024 21:00:00,23.6979360,86.9443950,CO,7,30,14
India,West_Bengal,Asansol,"Trivenidevi Bhalotia College, Asansol - WBPCB",27-07-2024 21:00:00,23.616515,87.119133,PM10,30,103,51
India,West_Bengal,Asansol,"Trivenidevi Bhalotia College, Asansol - WBPCB",27-07-2024 21:00:00,23.616515,87.119133,SO2,28,32,30
India,West_Bengal,Asansol,"Trivenidevi Bhalotia College, Asansol - WBPCB",27-07-2024 21:00:00,23.616515,87.119133,CO,10,46,28
India,West_Bengal,Barrackpore,"SVSPA Campus, Barrackpore - WBPCB",27-07-2024 21:00:00,22.7605581,88.3617589,CO,20,31,23
India,West_Bengal,Durgapur,"Sidhu Kanhu Indoor Stadium, Durgapur - WBPCB",27-07-2024 21:00:00,23.5404352,87.2892225,PM10,23,79,48
India,West_Bengal,Howrah,"Padmapukur, Howrah - WBPCB",27-07-2024 21:00:00,22.5687319,88.2797276,NH3,4,7,5
India,West_Bengal,Kolkata,"Ballygunge, Kolkata - WBPCB",27-07-2024 21:00:00,22.5367507,88.3638022,PM2.5,20,31,22
India,West_Bengal,Kolkata,"Jadavpur, Kolkata - WBPCB",27-07-2024 21:00:00,22.49929,88.36917,PM2.5,NA,NA,NA
India,West_Bengal,Kolkata,"Jadavpur, Kolkata - WBPCB",27-07-2024 21:00:00,22.49929,88.36917,NH3,NA,NA,NA
India,West_Bengal,Kolkata,"Victoria, Kolkata - WBPCB",27-07-2024 21:00:00,22.5448082,88.3403691,PM2.5,21,36,30
India,West_Bengal,Kolkata,"Victoria, Kolkata - WBPCB",27-07-2024 21:00:00,22.5448082,88.3403691,CO,16,28,25
India,Andhra_Pradesh,Anantapur,"Gulzarpet, Anantapur - APPCB",27-07-2024 21:00:00,14.675886,77.593027,NO2,17,18,18
India,Andhra_Pradesh,Anantapur,"Gulzarpet, Anantapur - APPCB",27-07-2024 21:00:00,14.675886,77.593027,OZONE,1,9,6
India,Andhra_Pradesh,Chittoor,"Gangineni Cheruvu, Chittoor - APPCB",27-07-2024 21:00:00,13.204880,79.097889,CO,22,36,30
India,Andhra_Pradesh,Kadapa,"Yerramukkapalli, Kadapa - APPCB",27-07-2024 21:00:00,14.465052,78.824187,PM10,NA,NA,NA
India,Andhra_Pradesh,Kadapa,"Yerramukkapalli, Kadapa - APPCB",27-07-2024 21:00:00,14.465052,78.824187,CO,26,33,28
India,Andhra_Pradesh,Rajamahendravaram,"Anand Kala Kshetram, Rajamahendravaram - APPCB",27-07-2024 21:00:00,16.9872867,81.7363176,CO,14,80,40
India,Andhra_Pradesh,Vijayawada,"HB Colony, Vijayawada - APPCB",27-07-2024 21:00:00,16.536107,80.594233,PM10,43,85,51
India,Andhra_Pradesh,Vijayawada,"HB Colony, Vijayawada - APPCB",27-07-2024 21:00:00,16.536107,80.594233,NO2,8,23,13
India,Andhra_Pradesh,Vijayawada,"HB Colony, Vijayawada - APPCB",27-07-2024 21:00:00,16.536107,80.594233,CO,32,38,38
India,Andhra_Pradesh,Vijayawada,"Kanuru, Vijayawada - APPCB",27-07-2024 21:00:00,16.486692,80.699436,NH3,4,4,4
India,Andhra_Pradesh,Vijayawada,"Kanuru, Vijayawada - APPCB",27-07-2024 21:00:00,16.486692,80.699436,SO2,6,9,7
India,Andhra_Pradesh,Vijayawada,"Rajiv Gandhi Park, Vijayawada - APPCB",27-07-2024 21:00:00,16.509717,80.612222,OZONE,27,33,27
India,Andhra_Pradesh,Vijayawada,"Rajiv Nagar, Vijayawada - APPCB",27-07-2024 21:00:00,16.554731,80.649110,PM10,28,42,32
India,Andhra_Pradesh,Visakhapatnam,"GVM Corporation, Visakhapatnam - APPCB",27-07-2024 21:00:00,17.72,83.3,SO2,8,12,10
India,Assam,Byrnihat,"Central Academy for SFS, Byrnihat - PCBA",27-07-2024 21:00:00,26.071318,91.87488,PM2.5,NA,NA,NA
India,Assam,Byrnihat,"Central Academy for SFS, Byrnihat - PCBA",27-07-2024 21:00:00,26.071318,91.87488,PM10,NA,NA,NA
India,Assam,Byrnihat,"Central Academy for SFS, Byrnihat - PCBA",27-07-2024 21:00:00,26.071318,91.87488,NH3,13,35,19
India,Assam,Guwahati,"IITG, Guwahati - PCBA",27-07-2024 21:00:00,26.2028636,91.70046436,SO2,14,15,15
India,Assam,Guwahati,"IITG, Guwahati - PCBA",27-07-2024 21:00:00,26.2028636,91.70046436,CO,6,10,7
India,Assam,Guwahati,"LGBI Airport, Guwahati - PCBA",27-07-2024 21:00:00,26.10887,91.589544,PM2.5,NA,NA,NA
India,Assam,Guwahati,"LGBI Airport, Guwahati - PCBA",27-07-2024 21:00:00,26.10887,91.589544,NO2,3,32,11
India,Assam,Guwahati,"LGBI Airport, Guwahati - PCBA",27-07-2024 21:00:00,26.10887,91.589544,OZONE,12,16,12
India,Assam,Guwahati,"Railway Colony, Guwahati - PCBA",27-07-2024 21:00:00,26.181742,91.78063,PM10,28,90,44
India,Assam,Guwahati,"Railway Colony, Guwahati - PCBA",27-07-2024 21:00:00,26.181742,91.78063,SO2,3,4,3
India,Assam,Guwahati,"Railway Colony, Guwahati - PCBA",27-07-2024 21:00:00,26.181742,91.78063,CO,20,32,23
India,Assam,Nagaon,"Christianpatty, Nagaon - PCBA",27-07-2024 21:00:00,26.349082,92.68449,CO,19,100,23
India,Assam,Nagaon,"Christianpatty, Nagaon - PCBA",27-07-2024 21:00:00,26.349082,92.68449,OZONE,NA,NA,NA
India,Assam,Nalbari,"Bata Chowk, Nalbari - PCBA",27-07-2024 21:00:00,26.446912,91.439057,PM10,53,161,78
India,Assam,Nalbari,"Bata Chowk, Nalbari - PCBA",27-07-2024 21:00:00,26.446912,91.439057,NO2,7,18,13
India,Assam,Silchar,"Tarapur, Silchar - PCBA",27-07-2024 21:00:00,24.82827,92.79525,NO2,9,9,9
India,Assam,Silchar,"Tarapur, Silchar - PCBA",27-07-2024 21:00:00,24.82827,92.79525,OZONE,1,1,1
India,Bihar,Araria,"Kharahiya Basti, Araria - BSPCB",27-07-2024 21:00:00,26.146529,87.454184,OZONE,18,63,32
India,Bihar,Arrah,"New DM Office, Arrah - BSPCB",27-07-2024 21:00:00,25.5626095,84.663264,NH3,NA,NA,NA
India,Bihar,Aurangabad,"Gurdeo Nagar, Aurangabad - BSPCB",27-07-2024 21:00:00,24.75746,84.366208,PM10,25,240,102
India,Bihar,Aurangabad,"Gurdeo Nagar, Aurangabad - BSPCB",27-07-2024 21:00:00,24.75746,84.366208,NO2,9,13,11
India,Bihar,Aurangabad,"Gurdeo Nagar, Aurangabad - BSPCB",27-07-2024 21:00:00,24.75746,84.366208,SO2,8,15,11
India,Bihar,Bettiah,"Kamalnath Nagar, Bettiah - BSPCB",27-07-2024 21:00:00,26.80365,84.51954,OZONE,1,13,8
India,Bihar,Bhagalpur,"DM Office_Kachari Chowk, Bhagalpur - BSPCB",27-07-2024 21:00:00,25.251013,86.989001,SO2,12,64,37
India,Bihar,Bhagalpur,"Mayaganj, Bhagalpur - BSPCB",27-07-2024 21:00:00,25.265194,87.012947,PM10,35,238,77
India,Bihar,Bhagalpur,"Mayaganj, Bhagalpur - BSPCB",27-07-2024 21:00:00,25.265194,87.012947,OZONE,1,22,10
India,Bihar,Bihar Sharif,"D M Colony, Bihar Sharif - BSPCB",27-07-2024 21:00:00,25.204762,85.514960,NH3,17,80,27
India,Bihar,Bihar Sharif,"D M Colony, Bihar Sharif - BSPCB",27-07-2024 21:00:00,25.204762,85.514960,CO,18,40,28
India,Bihar,Buxar,"Charitra Van, Buxar - BSPCB (Formerly known as Central Jail)",27-07-2024 21:00:00,25.567520,83.966379,NH3,1,1,1
India,Bihar,Gaya,"Collectorate, Gaya - BSPCB",27-07-2024 21:00:00,24.7955,84.9994,NO2,4,6,5
India,Bihar,Gaya,"SFTI Kusdihra, Gaya - BSPCB",27-07-2024 21:00:00,24.762518,84.982348,PM2.5,2,35,9
India,Bihar,Gaya,"SFTI Kusdihra, Gaya - BSPCB",27-07-2024 21:00:00,24.762518,84.982348,NO2,8,14,10
India,Bihar,Gaya,"SFTI Kusdihra, Gaya - BSPCB",27-07-2024 21:00:00,24.762518,84.982348,SO2,6,10,8
India,Bihar,Katihar,"Mirchaibari, Katihar - BSPCB",27-07-2024 21:00:00,25.560083,87.553265,PM10,NA,NA,NA
India,Bihar,Kishanganj,"SDM Office_Khagra, Kishanganj - BSPCB",27-07-2024 21:00:00,26.0881305,87.93840336,CO,8,10,10
India,Bihar,Kishanganj,"SDM Office_Khagra, Kishanganj - BSPCB",27-07-2024 21:00:00,26.0881305,87.93840336,OZONE,11,54,43
India,Bihar,Manguraha,"Forest Rest House, Manguraha - BSPCB",27-07-2024 21:00:00,27.308328,84.531742,PM10,1,30,10
India,Bihar,Manguraha,"Forest Rest House, Manguraha - BSPCB",27-07-2024 21:00:00,27.308328,84.531742,NO2,16,74,29
India,Bihar,Manguraha,"Forest Rest House, Manguraha - BSPCB",27-07-2024 21:00:00,27.308328,84.531742,CO,20,58,25
India,Bihar,Motihari,"Gandak Colony, Motihari - BSPCB",27-07-2024 21:00:00,26.63086,84.90051,PM10,9,118,25
India,Bihar,Motihari,"Gandak Colony, Motihari - BSPCB",27-07-2024 21:00:00,26.63086,84.90051,NH3,1,12,5
India,Bihar,Motihari,"Gandak Colony, Motihari - BSPCB",27-07-2024 21:00:00,26.63086,84.90051,SO2,2,82,34
India,Bihar,Motihari,"Gandak Colony, Motihari - BSPCB",27-07-2024 21:00:00,26.63086,84.90051,OZONE,8,37,22
India,Bihar,Munger,"Town Hall, Munger - BSPCB",27-07-2024 21:00:00,25.376776,86.471523,NH3,3,3,3
India,Bihar,Munger,"Town Hall, Munger - BSPCB",27-07-2024 21:00:00,25.376776,86.471523,OZONE,1,11,3
India,Bihar,Muzaffarpur,"Buddha Colony, Muzaffarpur - BSPCB",27-07-2024 21:00:00,26.11442,85.39813,NH3,1,5,2
India,Bihar,Muzaffarpur,"MIT-Daudpur Kothi, Muzaffarpur - BSPCB",27-07-2024 21:00:00,26.1403345,85.3650192,PM10,NA,NA,NA
India,Bihar,Muzaffarpur,"Muzaffarpur Collectorate, Muzaffarpur - BSPCB",27-07-2024 21:00:00,26.1209,85.3647,OZONE,16,205,99
India,Bihar,Patna,"Govt. High School Shikarpur, Patna - BSPCB",27-07-2024 21:00:00,25.592539,85.227158,PM10,50,87,70
India,Bihar,Patna,"Govt. High School Shikarpur, Patna - BSPCB",27-07-2024 21:00:00,25.592539,85.227158,NO2,32,35,33
India,Bihar,Patna,"IGSC Planetarium Complex, Patna - BSPCB",27-07-2024 21:00:00,25.610369,85.132568,OZONE,11,88,51
India,Bihar,Patna,"Muradpur, Patna - BSPCB",27-07-2024 21:00:00,25.619651,85.147382,PM2.5,22,73,42
India,Bihar,Patna,"Muradpur, Patna - BSPCB",27-07-2024 21:00:00,25.619651,85.147382,SO2,5,6,5
India,Bihar,Patna,"Rajbansi Nagar, Patna - BSPCB",27-07-2024 21:00:00,25.599486,85.113666,SO2,1,8,3
India,Bihar,Patna,"Rajbansi Nagar, Patna - BSPCB",27-07-2024 21:00:00,25.599486,85.113666,OZONE,11,32,17
India,Bihar,Purnia,"Mariam Nagar, Purnia - BSPCB",27-07-2024 21:00:00,25.366336,87.117468,NH3,1,1,1
India,Bihar,Purnia,"Mariam Nagar, Purnia - BSPCB",27-07-2024 21:00:00,25.366336,87.117468,CO,12,83,73
India,Bihar,Rajgir,"Dangi Tola, Rajgir - BSPCB",27-07-2024 21:00:00,25.03280,85.41948,NO2,2,4,3
India,Bihar,Samastipur,"DM Office_Kasipur, Samastipur - BSPCB",27-07-2024 21:00:00,25.859655,85.77944,PM2.5,33,100,59
India,Bihar,Samastipur,"DM Office_Kasipur, Samastipur - BSPCB",27-07-2024 21:00:00,25.859655,85.77944,NO2,NA,NA,NA
India,Bihar,Sasaram,"Dada Peer, Sasaram - BSPCB",27-07-2024 21:00:00,24.952822,84.002396,PM2.5,2,60,20
India,Bihar,Sasaram,"Dada Peer, Sasaram - BSPCB",27-07-2024 21:00:00,24.952822,84.002396,SO2,2,9,6
India,Bihar,Siwan,"Chitragupta Nagar, Siwan - BSPCB",27-07-2024 21:00:00,26.2271665,84.3570427,NH3,2,7,4
India,Chandigarh,Chandigarh,"Sector 22, Chandigarh - CPCC",27-07-2024 21:00:00,30.735567,76.775714,PM10,47,103,74
India,Chandigarh,Chandigarh,"Sector 22, Chandigarh - CPCC",27-07-2024 21:00:00,30.735567,76.775714,NH3,4,33,12
India,Chandigarh,Chandigarh,"Sector-53, Chandigarh - CPCC",27-07-2024 21:00:00,30.719859,76.738637,PM2.5,23,83,50
India,Chandigarh,Chandigarh,"Sector-53, Chandigarh - CPCC",27-07-2024 21:00:00,30.719859,76.738637,OZONE,5,37,24
India,Chhattisgarh,Bhilai,"32Bungalows, Bhilai - CECB",27-07-2024 21:00:00,21.194815,81.314770,PM10,14,35,22
India,Chhattisgarh,Bhilai,"32Bungalows, Bhilai - CECB",27-07-2024 21:00:00,21.194815,81.314770,NO2,7,9,8
India,Chhattisgarh,Bhilai,"Hathkhoj, Bhilai - CECB",27-07-2024 21:00:00,21.224231,81.408350,NH3,7,7,7
India,Chhattisgarh,Bhilai,"Hathkhoj, Bhilai - CECB",27-07-2024 21:00:00,21.224231,81.408350,OZONE,5,14,12
India,Chhattisgarh,Bilaspur,"Mangala, Bilaspur - NTPC",27-07-2024 21:00:00,22.08815,82.13737,NO2,NA,NA,NA
India,Chhattisgarh,Bilaspur,"Mangala, Bilaspur - NTPC",27-07-2024 21:00:00,22.08815,82.13737,SO2,NA,NA,NA
India,Chhattisgarh,Chhal,"Nawapara SECL Colony, Chhal - CECB",27-07-2024 21:00:00,22.118125,83.140608,PM2.5,10,161,35
India,Chhattisgarh,Chhal,"Nawapara SECL Colony, Chhal - CECB",27-07-2024 21:00:00,22.118125,83.140608,CO,10,54,20
India,Chhattisgarh,Chhal,"Nawapara SECL Colony, Chhal - CECB",27-07-2024 21:00:00,22.118125,83.140608,OZONE,4,92,73
India,Chhattisgarh,Korba,"Rampur, Korba - CECB",27-07-2024 21:00:00,22.368195,82.746431,PM2.5,11,31,20
India,Chhattisgarh,Korba,"Rampur, Korba - CECB",27-07-2024 21:00:00,22.368195,82.746431,SO2,5,11,8
India,Chhattisgarh,Korba,"Rampur, Korba - CECB",27-07-2024 21:00:00,22.368195,82.746431,OZONE,4,5,4
India,Chhattisgarh,Korba,"Urja Nagar, Korba - CECB",27-07-2024 21:00:00,22.348441,82.549611,PM10,NA,NA,NA
India,Chhattisgarh,Korba,"Urja Nagar, Korba - CECB",27-07-2024 21:00:00,22.348441,82.549611,NO2,NA,NA,NA
India,Chhattisgarh,Korba,"Urja Nagar, Korba - CECB",27-07-2024 21:00:00,22.348441,82.549611,SO2,NA,NA,NA
India,Chhattisgarh,Kunjemura,"OP Jindal School, Kunjemura - CECB",27-07-2024 21:00:00,22.126650,83.483212,NO2,4,30,15
India,Chhattisgarh,Kunjemura,"OP Jindal School, Kunjemura - CECB",27-07-2024 21:00:00,22.126650,83.483212,NH3,2,3,2
India,Chhattisgarh,Kunjemura,"OP Jindal School, Kunjemura - CECB",27-07-2024 21:00:00,22.126650,83.483212,SO2,2,6,4
India,Chhattisgarh,Raipur,"AIIMS, Raipur - CECB",27-07-2024 21:00:00,21.258815,81.578979,SO2,1,4,3
India,Chhattisgarh,Raipur,"Bhatagaon New ISBT, Raipur - CECB",27-07-2024 21:00:00,21.219665,81.630094,OZONE,3,4,4
India,Chhattisgarh,Raipur,"Krishak Nagar, Raipur - CECB",27-07-2024 21:00:00,21.237755,81.705301,CO,22,32,27
India,Chhattisgarh,Raipur,"Siltara Phase-II, Raipur - CECB",27-07-2024 21:00:00,21.371751,81.664929,NH3,3,3,3
India,Chhattisgarh,Raipur,"Siltara Phase-II, Raipur - CECB",27-07-2024 21:00:00,21.371751,81.664929,SO2,7,9,8
India,Chhattisgarh,Tumidih,"OP Jindal Industrial Park, Tumidih - CECB",27-07-2024 21:00:00,22.06631475,83.33820077,NH3,NA,NA,NA
India,Chhattisgarh,Tumidih,"OP Jindal Industrial Park, Tumidih - CECB",27-07-2024 21:00:00,22.06631475,83.33820077,SO2,NA,NA,NA
India,Delhi,Delhi,"Alipur, Delhi - DPCC",27-07-2024 21:00:00,28.815329,77.153010,CO,10,29,13
India,Delhi,Delhi,"Anand Vihar, Delhi - DPCC",27-07-2024 21:00:00,28.647622,77.3158090,PM2.5,10,303,112
India,Delhi,Delhi,"Ashok Vihar, Delhi - DPCC",27-07-2024 21:00:00,28.695381,77.181665,NH3,7,18,11
India,Delhi,Delhi,"Ashok Vihar, Delhi - DPCC",27-07-2024 21:00:00,28.695381,77.181665,SO2,12,18,14
India,Delhi,Delhi,"Ashok Vihar, Delhi - DPCC",27-07-2024 21:00:00,28.695381,77.181665,OZONE,6,129,60
India,Delhi,Delhi,"Bawana, Delhi - DPCC",27-07-2024 21:00:00,28.776200,77.051074,SO2,10,18,12
India,Delhi,Delhi,"Bawana, Delhi - DPCC",27-07-2024 21:00:00,28.776200,77.051074,CO,28,88,34
India,Delhi,Delhi,"Burari Crossing, Delhi - IMD",27-07-2024 21:00:00,28.7256504,77.2011573,PM2.5,NA,NA,NA
India,Delhi,Delhi,"CRRI Mathura Road, Delhi - IMD",27-07-2024 21:00:00,28.5512005,77.2735737,OZONE,NA,NA,NA
India,Delhi,Delhi,"Chandni Chowk, Delhi - IITM",27-07-2024 21:00:00,28.656756,77.227234,NH3,7,13,11
India,Delhi,Delhi,"DTU, Delhi - CPCB",27-07-2024 21:00:00,28.7500499,77.1112615,NH3,12,14,13
India,Delhi,Delhi,"DTU, Delhi - CPCB",27-07-2024 21:00:00,28.7500499,77.1112615,SO2,45,46,46
India,Delhi,Delhi,"Dr. Karni Singh Shooting Range, Delhi - DPCC",27-07-2024 21:00:00,28.498571,77.264840,PM2.5,40,240,103
India,Delhi,Delhi,"Dr. Karni Singh Shooting Range, Delhi - DPCC",27-07-2024 21:00:00,28.498571,77.264840,OZONE,1,23,13
India,Delhi,Delhi,"IGI Airport (T3), Delhi - IMD",27-07-2024 21:00:00,28.5627763,77.1180053,CO,22,74,28
India,Delhi,Delhi,"IHBAS, Dilshad Garden, Delhi - CPCB",27-07-2024 21:00:00,28.6811736,77.3025234,PM2.5,NA,NA,NA
India,Delhi,Delhi,"ITO, Delhi - CPCB",27-07-2024 21:00:00,28.628624,77.241060,SO2,15,23,19
India,Delhi,Delhi,"Jawaharlal Nehru Stadium, Delhi - DPCC",27-07-2024 21:00:00,28.580280,77.233829,PM2.5,22,221,74
India,Delhi,Delhi,"Lodhi Road, Delhi - IMD",27-07-2024 21:00:00,28.5918245,77.2273074,PM10,NA,NA,NA
India,Delhi,Delhi,"Major Dhyan Chand National Stadium, Delhi - DPCC",27-07-2024 21:00:00,28.611281,77.237738,OZONE,2,46,18
India,Delhi,Delhi,"Mandir Marg, Delhi - DPCC",27-07-2024 21:00:00,28.636429,77.201067,NH3,5,10,8
India,Delhi,Delhi,"Mundka, Delhi - DPCC",27-07-2024 21:00:00,28.684678,77.076574,PM2.5,30,280,114
India,Delhi,Delhi,"NSIT Dwarka, Delhi - CPCB",27-07-2024 21:00:00,28.60909,77.0325413,PM2.5,74,214,143
India,Delhi,Delhi,"NSIT Dwarka, Delhi - CPCB",27-07-2024 21:00:00,28.60909,77.0325413,NH3,5,9,7
India,Delhi,Delhi,"NSIT Dwarka, Delhi - CPCB",27-07-2024 21:00:00,28.60909,77.0325413,OZONE,4,13,10
India,Delhi,Delhi,"Najafgarh, Delhi - DPCC",27-07-2024 21:00:00,28.570173,76.933762,NO2,7,11,8
India,Delhi,Delhi,"Narela, Delhi - DPCC",27-07-2024 21:00:00,28.822836,77.101981,NO2,15,57,36
India,Delhi,Delhi,"Narela, Delhi - DPCC",27-07-2024 21:00:00,28.822836,77.101981,SO2,5,21,11
India,Delhi,Delhi,"North Campus, DU, Delhi - IMD",27-07-2024 21:00:00,28.6573814,77.1585447,PM10,NA,NA,NA
India,Delhi,Delhi,"North Campus, DU, Delhi - IMD",27-07-2024 21:00:00,28.6573814,77.1585447,NO2,NA,NA,NA
India,Delhi,Delhi,"Okhla Phase-2, Delhi - DPCC",27-07-2024 21:00:00,28.530785,77.271255,NO2,29,102,50
India,Delhi,Delhi,"Okhla Phase-2, Delhi - DPCC",27-07-2024 21:00:00,28.530785,77.271255,SO2,8,20,11
India,Delhi,Delhi,"Patparganj, Delhi - DPCC",27-07-2024 21:00:00,28.623763,77.287209,NO2,14,67,31
India,Delhi,Delhi,"Punjabi Bagh, Delhi - DPCC",27-07-2024 21:00:00,28.674045,77.131023,OZONE,4,90,36
India,Delhi,Delhi,"Pusa, Delhi - DPCC",27-07-2024 21:00:00,28.639652,77.146275,OZONE,6,31,19
India,Delhi,Delhi,"Pusa, Delhi - IMD",27-07-2024 21:00:00,28.636110,77.173332,OZONE,1,70,20
India,Delhi,Delhi,"R K Puram, Delhi - DPCC",27-07-2024 21:00:00,28.563262,77.186937,NH3,5,11,7
India,Delhi,Delhi,"Shadipur, Delhi - CPCB",27-07-2024 21:00:00,28.6514781,77.1473105,PM10,40,145,83
India,Delhi,Delhi,"Sri Aurobindo Marg, Delhi - DPCC",27-07-2024 21:00:00,28.531346,77.190156,SO2,5,56,13
India,Delhi,Delhi,"Sri Aurobindo Marg, Delhi - DPCC",27-07-2024 21:00:00,28.531346,77.190156,CO,48,110,63
India,Delhi,Delhi,"Vivek Vihar, Delhi - DPCC",27-07-2024 21:00:00,28.672342,77.315260,NH3,17,17,17
India,Delhi,Delhi,"Vivek Vihar, Delhi - DPCC",27-07-2024 21:00:00,28.672342,77.315260,SO2,5,15,8
India,Delhi,Delhi,"Wazirpur, Delhi - DPCC",27-07-2024 21:00:00,28.699793,77.165453,CO,4,92,46
India,Gujarat,Ahmedabad,"Chandkheda, Ahmedabad - IITM",27-07-2024 21:00:00,23.107969,72.574648,PM10,37,86,53
India,Gujarat,Ahmedabad,"Chandkheda, Ahmedabad - IITM",27-07-2024 21:00:00,23.107969,72.574648,CO,28,52,38
India,Gujarat,Ahmedabad,"Gyaspur, Ahmedabad - IITM",27-07-2024 21:00:00,22.977134,72.553024,PM2.5,49,196,94
India,Gujarat,Ahmedabad,"Maninagar, Ahmedabad - GPCB",27-07-2024 21:00:00,23.002657,72.591912,PM2.5,43,125,76
India,Gujarat,Ahmedabad,"Maninagar, Ahmedabad - GPCB",27-07-2024 21:00:00,23.002657,72.591912,SO2,28,44,38
India,Gujarat,Ahmedabad,"Maninagar, Ahmedabad - GPCB",27-07-2024 21:00:00,23.002657,72.591912,OZONE,17,21,19
India,Gujarat,Ahmedabad,"Rakhial, Ahmedabad - IITM",27-07-2024 21:00:00,23.016834,72.625775,CO,30,46,38
India,Gujarat,Ahmedabad,"SVPI Airport Hansol, Ahmedabad - IITM",27-07-2024 21:00:00,23.076793,72.627874,NO2,54,89,64
India,Gujarat,Ahmedabad,"SVPI Airport Hansol, Ahmedabad - IITM",27-07-2024 21:00:00,23.076793,72.627874,CO,16,48,27
India,Gujarat,Ahmedabad,"Sardar Vallabhbhai Patel Stadium, Ahmedabad - IITM",27-07-2024 21:00:00,23.043070,72.562968,PM10,52,98,80
India,Gujarat,Ahmedabad,"Sardar Vallabhbhai Patel Stadium, Ahmedabad - IITM",27-07-2024 21:00:00,23.043070,72.562968,NH3,5,6,5
India,Gujarat,Gandhinagar,"GIFT City, Gandhinagar - IITM",27-07-2024 21:00:00,23.163798,72.677768,NO2,1,164,22
India,Gujarat,Gandhinagar,"GIFT City, Gandhinagar - IITM",27-07-2024 21:00:00,23.163798,72.677768,SO2,9,15,11
India,Gujarat,Gandhinagar,"Sector-10, Gandhinagar - GPCB",27-07-2024 21:00:00,23.221714,72.654328,PM10,37,79,54
India,Gujarat,Surat,"Science Center, Surat - SMC",27-07-2024 21:00:00,21.170046,72.795405,NO2,17,25,20
India,Gujarat,Surat,"Science Center, Surat - SMC",27-07-2024 21:00:00,21.170046,72.795405,CO,63,76,70
India,Gujarat,Vapi,"Phase-1 GIDC, Vapi - GPCB",27-07-2024 21:00:00,20.362421,72.918013,PM2.5,20,45,34
India,Haryana,Ambala,"Patti Mehar, Ambala - HSPCB",27-07-2024 21:00:00,30.379589,76.778328,NO2,7,21,14
India,Haryana,Ambala,"Patti Mehar, Ambala - HSPCB",27-07-2024 21:00:00,30.379589,76.778328,NH3,5,12,8
India,Haryana,Bahadurgarh,"Arya Nagar, Bahadurgarh - HSPCB",27-07-2024 21:00:00,28.6701,76.9254,PM10,71,145,102
India,Haryana,Ballabgarh,"Nathu Colony, Ballabgarh - HSPCB",27-07-2024 21:00:00,28.3419248,77.319699,OZONE,8,34,17
India,Haryana,Bhiwani,"H.B. Colony, Bhiwani - HSPCB",27-07-2024 21:00:00,28.806223,76.141105,SO2,6,14,11
India,Haryana,Bhiwani,"H.B. Colony, Bhiwani - HSPCB",27-07-2024 21:00:00,28.806223,76.141105,OZONE,28,76,31
India,Haryana,Dharuhera,"Municipal Corporation Office, Dharuhera -  HSPCB",27-07-2024 21:00:00,28.206800,76.799700,OZONE,NA,NA,NA
India,Haryana,Faridabad,"Sector 30, Faridabad - HSPCB",27-07-2024 21:00:00,28.4417,77.3217,CO,18,65,35
India,Haryana,Faridabad,"Sector 30, Faridabad - HSPCB",27-07-2024 21:00:00,28.4417,77.3217,OZONE,7,11,9
India,Haryana,Faridabad,"Sector- 16A, Faridabad - HSPCB",27-07-2024 21:00:00,28.4088421,77.3099081,PM2.5,14,203,62
India,Haryana,Fatehabad,"Huda Sector, Fatehabad - HSPCB",27-07-2024 21:00:00,29.503664,75.467934,NH3,9,10,10
India,Haryana,Gurugram,"Sector-51, Gurugram - HSPCB",27-07-2024 21:00:00,28.4227,77.0667,NO2,13,29,22
India,Haryana,Gurugram,"Sector-51, Gurugram - HSPCB",27-07-2024 21:00:00,28.4227,77.0667,OZONE,28,35,33
India,Haryana,Gurugram,"Teri Gram, Gurugram - HSPCB",27-07-2024 21:00:00,28.4275,77.1465,PM2.5,28,295,122
India,Haryana,Hisar,"Urban Estate-II, Hisar - HSPCB",27-07-2024 21:00:00,29.140560,75.744941,SO2,NA,NA,NA
India,Haryana,Hisar,"Urban Estate-II, Hisar - HSPCB",27-07-2024 21:00:00,29.140560,75.744941,OZONE,10,255,54
India,Haryana,Jind,"Police Lines, Jind - HSPCB",27-07-2024 21:00:00,29.307814,76.337619,PM10,58,133,85
India,Haryana,Kaithal,"Rishi Nagar, Kaithal - HSPCB",27-07-2024 21:00:00,29.8006,76.4155,PM2.5,20,95,49
India,Haryana,Karnal,"Sector-12, Karnal - HSPCB",27-07-2024 21:00:00,29.695300,77.002700,NO2,7,12,10
India,Haryana,Karnal,"Sector-12, Karnal - HSPCB",27-07-2024 21:00:00,29.695300,77.002700,CO,10,36,24
India,Haryana,Mandikhera,"General Hospital, Mandikhera - HSPCB",27-07-2024 21:00:00,27.9002,76.9938,SO2,NA,NA,NA
India,Haryana,Manesar,"Sector-2 IMT, Manesar - HSPCB",27-07-2024 21:00:00,28.360699,76.936090,CO,18,30,20
India,Haryana,Palwal,"Shyam Nagar, Palwal - HSPCB",27-07-2024 21:00:00,28.1485564,77.3320667,PM10,47,98,59
India,Haryana,Palwal,"Shyam Nagar, Palwal - HSPCB",27-07-2024 21:00:00,28.1485564,77.3320667,NO2,23,24,24
India,Haryana,Palwal,"Shyam Nagar, Palwal - HSPCB",27-07-2024 21:00:00,28.1485564,77.3320667,CO,14,26,16
India,Haryana,Panchkula,"Sector-6, Panchkula - HSPCB ",27-07-2024 21:00:00,30.7057778,76.8531805555555,SO2,2,37,6
India,Haryana,Panipat,"Sector-18, Panipat - HSPCB",27-07-2024 21:00:00,29.432304,76.972765,PM2.5,61,82,72
India,Haryana,Panipat,"Sector-18, Panipat - HSPCB",27-07-2024 21:00:00,29.432304,76.972765,NO2,31,32,31
India,Haryana,Rohtak,"MD University, Rohtak - HSPCB",27-07-2024 21:00:00,28.52123,76.37138,PM2.5,1,312,152
India,Haryana,Rohtak,"MD University, Rohtak - HSPCB",27-07-2024 21:00:00,28.52123,76.37138,CO,2,46,3
India,Haryana,Sirsa,"F-Block, Sirsa - HSPCB",27-07-2024 21:00:00,29.536400,75.015800,NO2,9,12,10
India,Haryana,Sonipat,"Murthal, Sonipat - HSPCB",27-07-2024 21:00:00,29.027200,77.062100,PM2.5,NA,NA,NA
India,Haryana,Sonipat,"Murthal, Sonipat - HSPCB",27-07-2024 21:00:00,29.027200,77.062100,PM10,NA,NA,NA
India,Haryana,Sonipat,"Murthal, Sonipat - HSPCB",27-07-2024 21:00:00,29.027200,77.062100,SO2,12,29,20
India,Haryana,Yamuna Nagar,"Gobind Pura, Yamuna Nagar - HSPCB",27-07-2024 21:00:00,30.1480566,77.2893471,PM10,33,66,46
India,Haryana,Yamuna Nagar,"Gobind Pura, Yamuna Nagar - HSPCB",27-07-2024 21:00:00,30.1480566,77.2893471,NO2,11,19,14
India,Himachal Pradesh,Baddi,"HIMUDA Complex Phase-1, Baddi - HPPCB",27-07-2024 21:00:00,30.943887,76.801991,PM2.5,18,312,95
India,Himachal Pradesh,Baddi,"HIMUDA Complex Phase-1, Baddi - HPPCB",27-07-2024 21:00:00,30.943887,76.801991,OZONE,10,51,38
India,Jammu_and_Kashmir,Srinagar,"Rajbagh, Srinagar - JKSPCB",27-07-2024 21:00:00,34.066206,74.819820,CO,11,20,16
India,Jharkhand,Dhanbad,"Kalakusuma, Dhanbad - DMC",27-07-2024 21:00:00,23.811548,86.481238,PM10,68,74,71
India,Jharkhand,Dhanbad,"Kalakusuma, Dhanbad - DMC",27-07-2024 21:00:00,23.811548,86.481238,NO2,33,34,33
India,Jharkhand,Jorapokhar,"Tata Stadium, Jorapokhar - JSPCB",27-07-2024 21:00:00,23.707909,86.414670,SO2,NA,NA,NA
India,Karnataka,Bengaluru,"BTM Layout, Bengaluru - CPCB",27-07-2024 21:00:00,12.9135218,77.5950804,NH3,9,10,10
India,Karnataka,Bengaluru,"Bapuji Nagar, Bengaluru - KSPCB",27-07-2024 21:00:00,12.951913,77.539784,PM10,18,127,70
India,Karnataka,Bengaluru,"City Railway Station, Bengaluru - KSPCB",27-07-2024 21:00:00,12.9756843,77.5660749,SO2,21,21,21
India,Karnataka,Bengaluru,"City Railway Station, Bengaluru - KSPCB",27-07-2024 21:00:00,12.9756843,77.5660749,CO,54,101,60
India,Karnataka,Bengaluru,"Hebbal, Bengaluru - KSPCB",27-07-2024 21:00:00,13.029152,77.585901,PM2.5,2,41,20
India,Karnataka,Bengaluru,"Hebbal, Bengaluru - KSPCB",27-07-2024 21:00:00,13.029152,77.585901,PM10,14,48,29
India,Karnataka,Bengaluru,"Hebbal, Bengaluru - KSPCB",27-07-2024 21:00:00,13.029152,77.585901,NO2,5,6,5
India,Karnataka,Bengaluru,"Hebbal, Bengaluru - KSPCB",27-07-2024 21:00:00,13.029152,77.585901,SO2,6,14,10
India,Karnataka,Bengaluru,"Jayanagar 5th Block, Bengaluru - KSPCB",27-07-2024 21:00:00,12.920984,77.584908,SO2,10,18,14
India,Karnataka,Bengaluru,"Jigani, Bengaluru - KSPCB",27-07-2024 21:00:00,12.7816279,77.6299145,OZONE,18,19,19
India,Karnataka,Bengaluru,"Kasturi Nagar, Bengaluru - KSPCB",27-07-2024 21:00:00,13.003872,77.664217,PM2.5,41,45,42
India,Karnataka,Bengaluru,"Peenya, Bengaluru - CPCB",27-07-2024 21:00:00,13.0270199,77.494094,PM2.5,47,48,47
India,Karnataka,Bengaluru,"RVCE-Mailasandra, Bengaluru - KSPCB",27-07-2024 21:00:00,12.921418,77.502466,PM2.5,28,68,44
India,Karnataka,Bengaluru,"RVCE-Mailasandra, Bengaluru - KSPCB",27-07-2024 21:00:00,12.921418,77.502466,PM10,42,99,63
India,Karnataka,Bengaluru,"RVCE-Mailasandra, Bengaluru - KSPCB",27-07-2024 21:00:00,12.921418,77.502466,SO2,10,20,11
India,Karnataka,Bengaluru,"Shivapura_Peenya, Bengaluru - KSPCB",27-07-2024 21:00:00,13.0246342,77.5080115,SO2,3,8,4
India,Karnataka,Bengaluru,"Shivapura_Peenya, Bengaluru - KSPCB",27-07-2024 21:00:00,13.0246342,77.5080115,OZONE,32,32,32
India,Karnataka,Bengaluru,"Silk Board, Bengaluru - KSPCB",27-07-2024 21:00:00,12.917348,77.622813,OZONE,8,15,12
India,Karnataka,Bidar,"Naubad, Bidar - KSPCB",27-07-2024 21:00:00,17.930306,77.482194,NH3,3,18,4
India,Karnataka,Chamarajanagar,"Urban, Chamarajanagar - KSPCB",27-07-2024 21:00:00,11.55358,76.55521,NO2,23,30,29
India,Karnataka,Chamarajanagar,"Urban, Chamarajanagar - KSPCB",27-07-2024 21:00:00,11.55358,76.55521,SO2,2,6,3
India,Karnataka,Chikkaballapur,"Chikkaballapur Rural, Chikkaballapur - KSPCB",27-07-2024 21:00:00,13.428828,77.731418,SO2,NA,NA,NA
India,Karnataka,Chikkamagaluru,"Kalyana Nagara, Chikkamagaluru - KSPCB",27-07-2024 21:00:00,13.328028,75.797056,NO2,NA,NA,NA
India,Karnataka,Chikkamagaluru,"Kalyana Nagara, Chikkamagaluru - KSPCB",27-07-2024 21:00:00,13.328028,75.797056,NH3,NA,NA,NA
India,Karnataka,Davanagere,"Devaraj Urs Badavane, Davanagere - KSPCB",27-07-2024 21:00:00,14.475800,75.905200,OZONE,20,39,22
India,Karnataka,Dharwad,"Kalabhavan, Dharwad - KSPCB",27-07-2024 21:00:00,15.459706,75.008381,PM10,28,471,102
India,Karnataka,Dharwad,"Kalabhavan, Dharwad - KSPCB",27-07-2024 21:00:00,15.459706,75.008381,SO2,2,13,4
India,Karnataka,Hassan,"B.Katihalli, Hassan - KSPCB",27-07-2024 21:00:00,13.008556,76.125258,OZONE,4,15,5
India,Karnataka,Haveri,"Ashwini Nagar, Haveri - KSPCB",27-07-2024 21:00:00,14.791800,75.389600,NO2,83,85,84
India,Karnataka,Haveri,"Ashwini Nagar, Haveri - KSPCB",27-07-2024 21:00:00,14.791800,75.389600,OZONE,17,19,18
India,Karnataka,Hubballi,"Lingaraj Nagar, Hubballi - KSPCB",27-07-2024 21:00:00,15.3714823,75.1160168,PM10,33,48,40
India,Karnataka,Karwar,"KHB Colony, Karwar - KSPCB",27-07-2024 21:00:00,14.816666,74.141003,NO2,NA,NA,NA
India,Karnataka,Kolar,"Tamaka Ind. Area, Kolar - KSPCB",27-07-2024 21:00:00,13.1276288,78.1570122,CO,6,10,10
India,Karnataka,Koppal,"Diwator Nagar, Koppal - KSPCB",27-07-2024 21:00:00,15.347630,76.181767,SO2,30,60,31
India,Karnataka,Mysuru,"Hebbal 1st Stage, Mysuru - KSPCB",27-07-2024 21:00:00,12.21041,76.37376,NH3,1,4,2
India,Karnataka,Mysuru,"Hebbal 1st Stage, Mysuru - KSPCB",27-07-2024 21:00:00,12.21041,76.37376,SO2,1,3,2
India,Karnataka,Raichur,"Haji Colony, Raichur - KSPCB",27-07-2024 21:00:00,16.208139,77.348417,SO2,NA,NA,NA
India,Karnataka,Ramanagara,"Vijay Nagar, Ramanagara - KSPCB",27-07-2024 21:00:00,12.733409,77.298051,PM10,10,26,17
India,Karnataka,Ramanagara,"Vijay Nagar, Ramanagara - KSPCB",27-07-2024 21:00:00,12.733409,77.298051,NO2,5,16,8
India,Karnataka,Tumakuru,"Thimmalapura, Tumakuru - KSPCB",27-07-2024 21:00:00,13.377516,77.099072,PM2.5,15,81,29
India,Karnataka,Tumakuru,"Thimmalapura, Tumakuru - KSPCB",27-07-2024 21:00:00,13.377516,77.099072,PM10,NA,NA,NA
India,Karnataka,Tumakuru,"Thimmalapura, Tumakuru - KSPCB",27-07-2024 21:00:00,13.377516,77.099072,SO2,3,17,7
India,Karnataka,Udupi,"Brahmagiri, Udupi - KSPCB",27-07-2024 21:00:00,13.34194444,74.74694444,PM2.5,NA,NA,NA
India,Karnataka,Udupi,"Brahmagiri, Udupi - KSPCB",27-07-2024 21:00:00,13.34194444,74.74694444,SO2,NA,NA,NA
India,Karnataka,Vijayapura,"Ibrahimpur, Vijayapura - KSPCB",27-07-2024 21:00:00,16.802639,75.722694,PM10,NA,NA,NA
India,Karnataka,Vijayapura,"Ibrahimpur, Vijayapura - KSPCB",27-07-2024 21:00:00,16.802639,75.722694,NO2,NA,NA,NA
India,Karnataka,Vijayapura,"Ibrahimpur, Vijayapura - KSPCB",27-07-2024 21:00:00,16.802639,75.722694,NH3,NA,NA,NA
India,Kerala,Eloor,"Udyogamandal, Eloor - Kerala PCB",27-07-2024 21:00:00,10.073232,76.302765,NH3,1,1,1
India,Kerala,Eloor,"Udyogamandal, Eloor - Kerala PCB",27-07-2024 21:00:00,10.073232,76.302765,SO2,1,3,1
India,Kerala,Eloor,"Udyogamandal, Eloor - Kerala PCB",27-07-2024 21:00:00,10.073232,76.302765,OZONE,10,11,11
India,Kerala,Kollam,"Polayathode, Kollam - Kerala PCB",27-07-2024 21:00:00,8.8787,76.6073,PM2.5,NA,NA,NA
India,Kerala,Kollam,"Polayathode, Kollam - Kerala PCB",27-07-2024 21:00:00,8.8787,76.6073,OZONE,32,34,33
India,Kerala,Thiruvananthapuram,"Kariavattom, Thiruvananthapuram - Kerala PCB",27-07-2024 21:00:00,8.563700,76.886500,PM10,52,62,58
India,Kerala,Thiruvananthapuram,"Kariavattom, Thiruvananthapuram - Kerala PCB",27-07-2024 21:00:00,8.563700,76.886500,NO2,6,7,7
India,Kerala,Thiruvananthapuram,"Kariavattom, Thiruvananthapuram - Kerala PCB",27-07-2024 21:00:00,8.563700,76.886500,CO,14,30,21
India,Kerala,Thiruvananthapuram,"Kariavattom, Thiruvananthapuram - Kerala PCB",27-07-2024 21:00:00,8.563700,76.886500,OZONE,36,36,36
India,Kerala,Thiruvananthapuram,"Plammoodu, Thiruvananthapuram - Kerala PCB",27-07-2024 21:00:00,8.5149093,76.9435879,PM2.5,NA,NA,NA
India,Kerala,Thiruvananthapuram,"Plammoodu, Thiruvananthapuram - Kerala PCB",27-07-2024 21:00:00,8.5149093,76.9435879,NO2,36,78,56
India,Kerala,Thiruvananthapuram,"Plammoodu, Thiruvananthapuram - Kerala PCB",27-07-2024 21:00:00,8.5149093,76.9435879,OZONE,1,174,14
India,Kerala,Thrissur,"Corporation Ground, Thrissur - Kerala PCB",27-07-2024 21:00:00,10.532400,76.215900,NO2,6,9,8
India,Kerala,Thrissur,"Corporation Ground, Thrissur - Kerala PCB",27-07-2024 21:00:00,10.532400,76.215900,SO2,1,2,1
India,Kerala,Thrissur,"Corporation Ground, Thrissur - Kerala PCB",27-07-2024 21:00:00,10.532400,76.215900,CO,34,45,38
India,Kerala,Thrissur,"Corporation Ground, Thrissur - Kerala PCB",27-07-2024 21:00:00,10.532400,76.215900,OZONE,19,24,21
India,Madhya Pradesh,Bhopal,"Idgah Hills, Bhopal - MPPCB",27-07-2024 21:00:00,23.264759,77.381568,PM2.5,2,42,31
India,Madhya Pradesh,Bhopal,"Idgah Hills, Bhopal - MPPCB",27-07-2024 21:00:00,23.264759,77.381568,PM10,3,167,64
India,Madhya Pradesh,Bhopal,"Idgah Hills, Bhopal - MPPCB",27-07-2024 21:00:00,23.264759,77.381568,NO2,6,30,15
India,Madhya Pradesh,Bhopal,"Idgah Hills, Bhopal - MPPCB",27-07-2024 21:00:00,23.264759,77.381568,NH3,2,3,3
India,Madhya Pradesh,Bhopal,"Idgah Hills, Bhopal - MPPCB",27-07-2024 21:00:00,23.264759,77.381568,CO,4,35,26
India,Madhya Pradesh,Bhopal,"Idgah Hills, Bhopal - MPPCB",27-07-2024 21:00:00,23.264759,77.381568,OZONE,10,22,16
India,Madhya Pradesh,Dewas,"Bhopal Chauraha, Dewas - MPPCB",27-07-2024 21:00:00,22.9682591,76.064118,OZONE,28,36,32
India,Madhya Pradesh,Gwalior,"City Center, Gwalior - MPPCB",27-07-2024 21:00:00,26.203442,78.193251,PM2.5,5,42,23
