country,state,city,station,last_update,latitude,longitude,pollutant_id,pollutant_min,pollutant_max,pollutant_avg
India,Andhra_Pradesh,Chittoor,"Gangineni Cheruvu, Chittoor - APPCB",29-03-2024 15:00:00,13.204880,79.097889,NO2,NA,NA,NA
India,Andhra_Pradesh,Rajamahendravaram,"Anand Kala Kshetram, Rajamahendravaram - APPCB",29-03-2024 15:00:00,16.9872867,81.7363176,CO,12,30,26
India,Andhra_Pradesh,Tirupati,"Tirumala, Tirupati - APPCB",29-03-2024 15:00:00,13.67,79.35,PM10,21,73,49
India,Andhra_Pradesh,Vijayawada,"HB Colony, Vijayawada - APPCB",29-03-2024 15:00:00,16.536107,80.594233,NO2,5,12,8
India,Andhra_Pradesh,Vijayawada,"HB Colony, Vijayawada - APPCB",29-03-2024 15:00:00,16.536107,80.594233,NH3,4,4,4
India,Andhra_Pradesh,Vijayawada,"Kanuru, Vijayawada - APPCB",29-03-2024 15:00:00,16.486692,80.699436,PM10,55,69,64
India,Andhra_Pradesh,Vijayawada,"Kanuru, Vijayawada - APPCB",29-03-2024 15:00:00,16.486692,80.699436,SO2,7,11,9
India,Andhra_Pradesh,Vijayawada,"Kanuru, Vijayawada - APPCB",29-03-2024 15:00:00,16.486692,80.699436,OZONE,28,28,28
India,Andhra_Pradesh,Vijayawada,"Rajiv Gandhi Park, Vijayawada - APPCB",29-03-2024 15:00:00,16.509717,80.612222,NO2,3,55,30
India,Andhra_Pradesh,Vijayawada,"Rajiv Nagar, Vijayawada - APPCB",29-03-2024 15:00:00,16.554731,80.649110,PM10,61,65,62
India,Andhra_Pradesh,Visakhapatnam,"GVM Corporation, Visakhapatnam - APPCB",29-03-2024 15:00:00,17.72,83.3,NO2,34,53,42
India,Andhra_Pradesh,Visakhapatnam,"GVM Corporation, Visakhapatnam - APPCB",29-03-2024 15:00:00,17.72,83.3,NH3,3,7,4
India,Assam,Byrnihat,"Central Academy for SFS, Byrnihat - PCBA",29-03-2024 15:00:00,26.071318,91.87488,OZONE,11,12,11
India,Assam,Guwahati,"IITG, Guwahati - PCBA",29-03-2024 15:00:00,26.2028636,91.70046436,NH3,5,5,5
India,Assam,Guwahati,"IITG, Guwahati - PCBA",29-03-2024 15:00:00,26.2028636,91.70046436,CO,9,33,14
India,Assam,Guwahati,"Pan Bazaar, Guwahati - PCBA",29-03-2024 15:00:00,26.187500,91.744194,PM2.5,38,211,95
India,Assam,Guwahati,"Pan Bazaar, Guwahati - PCBA",29-03-2024 15:00:00,26.187500,91.744194,OZONE,17,17,17
India,Assam,Guwahati,"Railway Colony, Guwahati - PCBA",29-03-2024 15:00:00,26.181742,91.78063,CO,16,50,27
India,Assam,Nagaon,"Christianpatty, Nagaon - PCBA",29-03-2024 15:00:00,26.349082,92.68449,PM10,56,163,93
India,Assam,Nagaon,"Christianpatty, Nagaon - PCBA",29-03-2024 15:00:00,26.349082,92.68449,NO2,9,86,32
India,Assam,Nagaon,"Christianpatty, Nagaon - PCBA",29-03-2024 15:00:00,26.349082,92.68449,NH3,9,16,11
India,Assam,Nagaon,"Christianpatty, Nagaon - PCBA",29-03-2024 15:00:00,26.349082,92.68449,CO,10,124,18
India,Assam,Nalbari,"Bata Chowk, Nalbari - PCBA",29-03-2024 15:00:00,26.446912,91.439057,PM2.5,32,287,110
India,Assam,Nalbari,"Bata Chowk, Nalbari - PCBA",29-03-2024 15:00:00,26.446912,91.439057,SO2,4,9,8
India,Assam,Silchar,"Tarapur, Silchar - PCBA",29-03-2024 15:00:00,24.82827,92.79525,NH3,1,1,1
India,Assam,Sivasagar,"Girls College, Sivasagar - PCBA",29-03-2024 15:00:00,26.987634,94.636574,OZONE,1,66,14
India,Bihar,Araria,"Kharahiya Basti, Araria - BSPCB",29-03-2024 15:00:00,26.146529,87.454184,NO2,7,9,7
India,Bihar,Araria,"Kharahiya Basti, Araria - BSPCB",29-03-2024 15:00:00,26.146529,87.454184,NH3,7,8,7
India,Bihar,Aurangabad,"Gurdeo Nagar, Aurangabad - BSPCB",29-03-2024 15:00:00,24.75746,84.366208,NH3,6,9,7
India,Bihar,Aurangabad,"Gurdeo Nagar, Aurangabad - BSPCB",29-03-2024 15:00:00,24.75746,84.366208,SO2,2,12,8
India,Bihar,Bettiah,"Kamalnath Nagar, Bettiah - BSPCB",29-03-2024 15:00:00,26.80365,84.51954,CO,62,78,68
India,Bihar,Bhagalpur,"DM Office_Kachari Chowk, Bhagalpur - BSPCB",29-03-2024 15:00:00,25.251013,86.989001,OZONE,42,62,48
India,Bihar,Bhagalpur,"Mayaganj, Bhagalpur - BSPCB",29-03-2024 15:00:00,25.265194,87.012947,CO,9,10,9
India,Bihar,Buxar,"Charitra Van, Buxar - BSPCB (Formerly known as Central Jail)",29-03-2024 15:00:00,25.567520,83.966379,NO2,NA,NA,NA
India,Bihar,Chhapra,"Darshan Nagar, Chhapra - BSPCB",29-03-2024 15:00:00,25.7808257,84.7446768,PM2.5,93,233,152
India,Bihar,Chhapra,"Darshan Nagar, Chhapra - BSPCB",29-03-2024 15:00:00,25.7808257,84.7446768,PM10,91,141,115
India,Bihar,Gaya,"Collectorate, Gaya - BSPCB",29-03-2024 15:00:00,24.7955,84.9994,CO,28,64,39
India,Bihar,Gaya,"Collectorate, Gaya - BSPCB",29-03-2024 15:00:00,24.7955,84.9994,OZONE,50,78,60
India,Bihar,Gaya,"Kareemganj, Gaya - BSPCB",29-03-2024 15:00:00,24.792403,84.992416,PM10,51,106,77
India,Bihar,Gaya,"Kareemganj, Gaya - BSPCB",29-03-2024 15:00:00,24.792403,84.992416,NO2,30,31,30
India,Bihar,Gaya,"Kareemganj, Gaya - BSPCB",29-03-2024 15:00:00,24.792403,84.992416,NH3,2,5,3
India,Bihar,Gaya,"SFTI Kusdihra, Gaya - BSPCB",29-03-2024 15:00:00,24.762518,84.982348,NO2,14,48,30
India,Bihar,Hajipur,"Industrial Area, Hajipur - BSPCB",29-03-2024 15:00:00,25.697189,85.245900,NH3,5,6,6
India,Bihar,Hajipur,"Industrial Area, Hajipur - BSPCB",29-03-2024 15:00:00,25.697189,85.245900,CO,18,41,35
India,Bihar,Manguraha,"Forest Rest House, Manguraha - BSPCB",29-03-2024 15:00:00,27.308328,84.531742,PM2.5,32,63,48
India,Bihar,Manguraha,"Forest Rest House, Manguraha - BSPCB",29-03-2024 15:00:00,27.308328,84.531742,OZONE,5,80,21
India,Bihar,Motihari,"Gandak Colony, Motihari - BSPCB",29-03-2024 15:00:00,26.63086,84.90051,SO2,4,11,6
India,Bihar,Motihari,"Gandak Colony, Motihari - BSPCB",29-03-2024 15:00:00,26.63086,84.90051,OZONE,19,47,32
India,Bihar,Muzaffarpur,"MIT-Daudpur Kothi, Muzaffarpur - BSPCB",29-03-2024 15:00:00,26.1403345,85.3650192,NO2,5,9,7
India,Bihar,Muzaffarpur,"MIT-Daudpur Kothi, Muzaffarpur - BSPCB",29-03-2024 15:00:00,26.1403345,85.3650192,OZONE,14,58,34
India,Bihar,Muzaffarpur,"Muzaffarpur Collectorate, Muzaffarpur - BSPCB",29-03-2024 15:00:00,26.1209,85.3647,OZONE,11,99,24
India,Bihar,Patna,"DRM Office Danapur, Patna - BSPCB",29-03-2024 15:00:00,25.586562,85.043586,PM10,95,127,112
India,Bihar,Patna,"DRM Office Danapur, Patna - BSPCB",29-03-2024 15:00:00,25.586562,85.043586,NO2,8,20,15
India,Bihar,Patna,"DRM Office Danapur, Patna - BSPCB",29-03-2024 15:00:00,25.586562,85.043586,CO,27,52,42
India,Bihar,Patna,"Govt. High School Shikarpur, Patna - BSPCB",29-03-2024 15:00:00,25.592539,85.227158,OZONE,1,59,36
India,Bihar,Patna,"IGSC Planetarium Complex, Patna - BSPCB",29-03-2024 15:00:00,25.610369,85.132568,PM2.5,93,179,115
India,Bihar,Patna,"IGSC Planetarium Complex, Patna - BSPCB",29-03-2024 15:00:00,25.610369,85.132568,SO2,5,5,5
India,Bihar,Patna,"Muradpur, Patna - BSPCB",29-03-2024 15:00:00,25.619651,85.147382,NH3,2,5,3
India,Bihar,Patna,"Muradpur, Patna - BSPCB",29-03-2024 15:00:00,25.619651,85.147382,OZONE,1,31,15
India,Bihar,Patna,"Rajbansi Nagar, Patna - BSPCB",29-03-2024 15:00:00,25.599486,85.113666,CO,26,48,40
India,Bihar,Patna,"Samanpura, Patna - BSPCB",29-03-2024 15:00:00,25.596727,85.085624,CO,52,76,64
India,Bihar,Rajgir,"Dangi Tola, Rajgir - BSPCB",29-03-2024 15:00:00,25.03280,85.41948,NO2,1,1,1
India,Bihar,Rajgir,"Dangi Tola, Rajgir - BSPCB",29-03-2024 15:00:00,25.03280,85.41948,NH3,1,7,1
India,Bihar,Saharsa,"Police Line, Saharsa - BSPCB",29-03-2024 15:00:00,25.892357,86.590325,OZONE,4,73,40
India,Bihar,Samastipur,"DM Office_Kasipur, Samastipur - BSPCB",29-03-2024 15:00:00,25.859655,85.77944,NH3,3,4,3
India,Bihar,Sasaram,"Dada Peer, Sasaram - BSPCB",29-03-2024 15:00:00,24.952822,84.002396,NO2,6,25,15
India,Bihar,Sasaram,"Dada Peer, Sasaram - BSPCB",29-03-2024 15:00:00,24.952822,84.002396,SO2,15,21,19
India,Bihar,Sasaram,"Dada Peer, Sasaram - BSPCB",29-03-2024 15:00:00,24.952822,84.002396,OZONE,14,86,57
India,Chandigarh,Chandigarh,"Sector-25, Chandigarh - CPCC",29-03-2024 15:00:00,30.751462,76.762879,NO2,7,19,13
India,Chandigarh,Chandigarh,"Sector-25, Chandigarh - CPCC",29-03-2024 15:00:00,30.751462,76.762879,NH3,13,24,16
India,Chandigarh,Chandigarh,"Sector-53, Chandigarh - CPCC",29-03-2024 15:00:00,30.719859,76.738637,OZONE,4,58,35
India,Chhattisgarh,Bhilai,"32Bungalows, Bhilai - CECB",29-03-2024 15:00:00,21.194815,81.314770,OZONE,4,24,12
India,Chhattisgarh,Bhilai,"Civic Center, Bhilai - Bhilai Steel Plant",29-03-2024 15:00:00,21.185571,81.343175,PM10,37,70,53
India,Chhattisgarh,Bhilai,"Hathkhoj, Bhilai - CECB",29-03-2024 15:00:00,21.224231,81.408350,NO2,16,46,29
India,Chhattisgarh,Chhal,"Nawapara SECL Colony, Chhal - CECB",29-03-2024 15:00:00,22.118125,83.140608,SO2,12,14,12
India,Chhattisgarh,Korba,"Rampur, Korba - CECB",29-03-2024 15:00:00,22.368195,82.746431,PM10,38,108,80
India,Chhattisgarh,Korba,"Rampur, Korba - CECB",29-03-2024 15:00:00,22.368195,82.746431,NO2,18,35,27
India,Chhattisgarh,Korba,"Rampur, Korba - CECB",29-03-2024 15:00:00,22.368195,82.746431,SO2,6,45,13
India,Chhattisgarh,Korba,"Urja Nagar, Korba - CECB",29-03-2024 15:00:00,22.348441,82.549611,PM10,31,212,87
India,Chhattisgarh,Korba,"Urja Nagar, Korba - CECB",29-03-2024 15:00:00,22.348441,82.549611,NO2,61,80,72
India,Chhattisgarh,Korba,"Urja Nagar, Korba - CECB",29-03-2024 15:00:00,22.348441,82.549611,NH3,4,12,8
India,Chhattisgarh,Milupara,"Govt. Higher Secondary School, Milupara - CECB",29-03-2024 15:00:00,22.1910172,83.5197009,PM2.5,NA,NA,NA
India,Chhattisgarh,Milupara,"Govt. Higher Secondary School, Milupara - CECB",29-03-2024 15:00:00,22.1910172,83.5197009,CO,24,30,26
India,Chhattisgarh,Raipur,"Krishak Nagar, Raipur - CECB",29-03-2024 15:00:00,21.237755,81.705301,NO2,19,35,28
India,Chhattisgarh,Raipur,"Siltara Phase-II, Raipur - CECB",29-03-2024 15:00:00,21.371751,81.664929,SO2,16,79,39
India,Delhi,Delhi,"Alipur, Delhi - DPCC",29-03-2024 15:00:00,28.815329,77.153010,PM2.5,41,285,135
India,Delhi,Delhi,"Anand Vihar, Delhi - DPCC",29-03-2024 15:00:00,28.647622,77.3158090,PM2.5,52,343,168
India,Delhi,Delhi,"Anand Vihar, Delhi - DPCC",29-03-2024 15:00:00,28.647622,77.3158090,NH3,1,7,3
India,Delhi,Delhi,"Ashok Vihar, Delhi - DPCC",29-03-2024 15:00:00,28.695381,77.181665,PM10,116,246,166
India,Delhi,Delhi,"Aya Nagar, Delhi - IMD",29-03-2024 15:00:00,28.4706914,77.1099364,PM10,44,205,132
India,Delhi,Delhi,"Aya Nagar, Delhi - IMD",29-03-2024 15:00:00,28.4706914,77.1099364,OZONE,2,41,20
India,Delhi,Delhi,"Bawana, Delhi - DPCC",29-03-2024 15:00:00,28.776200,77.051074,NH3,6,10,8
India,Delhi,Delhi,"CRRI Mathura Road, Delhi - IMD",29-03-2024 15:00:00,28.5512005,77.2735737,PM10,NA,NA,NA
India,Delhi,Delhi,"CRRI Mathura Road, Delhi - IMD",29-03-2024 15:00:00,28.5512005,77.2735737,NO2,NA,NA,NA
India,Delhi,Delhi,"Chandni Chowk, Delhi - IITM",29-03-2024 15:00:00,28.656756,77.227234,SO2,2,113,48
India,Delhi,Delhi,"Dr. Karni Singh Shooting Range, Delhi - DPCC",29-03-2024 15:00:00,28.498571,77.264840,PM2.5,47,312,139
India,Delhi,Delhi,"Dwarka-Sector 8, Delhi - DPCC ",29-03-2024 15:00:00,28.5710274,77.0719006,PM2.5,57,401,170
India,Delhi,Delhi,"Dwarka-Sector 8, Delhi - DPCC ",29-03-2024 15:00:00,28.5710274,77.0719006,PM10,110,415,197
India,Delhi,Delhi,"Dwarka-Sector 8, Delhi - DPCC ",29-03-2024 15:00:00,28.5710274,77.0719006,SO2,9,32,16
India,Delhi,Delhi,"IGI Airport (T3), Delhi - IMD",29-03-2024 15:00:00,28.5627763,77.1180053,OZONE,2,97,38
India,Delhi,Delhi,"IHBAS, Dilshad Garden, Delhi - CPCB",29-03-2024 15:00:00,28.6811736,77.3025234,PM2.5,107,195,148
India,Delhi,Delhi,"IHBAS, Dilshad Garden, Delhi - CPCB",29-03-2024 15:00:00,28.6811736,77.3025234,PM10,119,169,141
India,Delhi,Delhi,"IHBAS, Dilshad Garden, Delhi - CPCB",29-03-2024 15:00:00,28.6811736,77.3025234,NO2,30,78,47
India,Delhi,Delhi,"ITO, Delhi - CPCB",29-03-2024 15:00:00,28.628624,77.241060,NO2,11,129,55
India,Delhi,Delhi,"Jahangirpuri, Delhi - DPCC",29-03-2024 15:00:00,28.732820,77.170633,NO2,35,103,72
India,Delhi,Delhi,"Jahangirpuri, Delhi - DPCC",29-03-2024 15:00:00,28.732820,77.170633,NH3,4,13,9
India,Delhi,Delhi,"Jawaharlal Nehru Stadium, Delhi - DPCC",29-03-2024 15:00:00,28.580280,77.233829,NH3,6,11,9
India,Delhi,Delhi,"Jawaharlal Nehru Stadium, Delhi - DPCC",29-03-2024 15:00:00,28.580280,77.233829,OZONE,1,226,75
India,Delhi,Delhi,"Lodhi Road, Delhi - IITM",29-03-2024 15:00:00,28.588333,77.221667,PM2.5,55,500,263
India,Delhi,Delhi,"Lodhi Road, Delhi - IITM",29-03-2024 15:00:00,28.588333,77.221667,CO,59,68,64
India,Delhi,Delhi,"Lodhi Road, Delhi - IMD",29-03-2024 15:00:00,28.5918245,77.2273074,OZONE,9,69,32
India,Delhi,Delhi,"Major Dhyan Chand National Stadium, Delhi - DPCC",29-03-2024 15:00:00,28.611281,77.237738,SO2,9,36,18
India,Delhi,Delhi,"Mundka, Delhi - DPCC",29-03-2024 15:00:00,28.684678,77.076574,PM2.5,45,392,209
India,Delhi,Delhi,"Mundka, Delhi - DPCC",29-03-2024 15:00:00,28.684678,77.076574,PM10,105,362,207
India,Delhi,Delhi,"Mundka, Delhi - DPCC",29-03-2024 15:00:00,28.684678,77.076574,NH3,5,10,7
India,Delhi,Delhi,"NSIT Dwarka, Delhi - CPCB",29-03-2024 15:00:00,28.60909,77.0325413,CO,27,84,39
India,Delhi,Delhi,"North Campus, DU, Delhi - IMD",29-03-2024 15:00:00,28.6573814,77.1585447,OZONE,1,132,55
India,Delhi,Delhi,"Okhla Phase-2, Delhi - DPCC",29-03-2024 15:00:00,28.530785,77.271255,PM10,113,204,152
India,Delhi,Delhi,"Punjabi Bagh, Delhi - DPCC",29-03-2024 15:00:00,28.674045,77.131023,PM2.5,55,316,171
India,Delhi,Delhi,"Punjabi Bagh, Delhi - DPCC",29-03-2024 15:00:00,28.674045,77.131023,CO,31,56,52
India,Delhi,Delhi,"Pusa, Delhi - DPCC",29-03-2024 15:00:00,28.639652,77.146275,PM2.5,56,301,134
India,Delhi,Delhi,"Pusa, Delhi - IMD",29-03-2024 15:00:00,28.636110,77.173332,PM2.5,NA,NA,NA
India,Delhi,Delhi,"R K Puram, Delhi - DPCC",29-03-2024 15:00:00,28.563262,77.186937,PM10,104,249,142
India,Delhi,Delhi,"R K Puram, Delhi - DPCC",29-03-2024 15:00:00,28.563262,77.186937,NO2,16,39,27
India,Delhi,Delhi,"Rohini, Delhi - DPCC",29-03-2024 15:00:00,28.732528,77.119920,PM2.5,33,342,186
India,Delhi,Delhi,"Rohini, Delhi - DPCC",29-03-2024 15:00:00,28.732528,77.119920,NO2,15,47,32
India,Delhi,Delhi,"Rohini, Delhi - DPCC",29-03-2024 15:00:00,28.732528,77.119920,OZONE,3,273,207
India,Delhi,Delhi,"Sirifort, Delhi - CPCB",29-03-2024 15:00:00,28.5504249,77.2159377,NH3,4,9,7
India,Delhi,Delhi,"Sonia Vihar, Delhi - DPCC",29-03-2024 15:00:00,28.710508,77.249485,SO2,12,62,24
India,Delhi,Delhi,"Sonia Vihar, Delhi - DPCC",29-03-2024 15:00:00,28.710508,77.249485,CO,52,92,74
India,Delhi,Delhi,"Sri Aurobindo Marg, Delhi - DPCC",29-03-2024 15:00:00,28.531346,77.190156,SO2,10,58,24
India,Delhi,Delhi,"Wazirpur, Delhi - DPCC",29-03-2024 15:00:00,28.699793,77.165453,PM10,142,256,186
India,Delhi,Delhi,"Wazirpur, Delhi - DPCC",29-03-2024 15:00:00,28.699793,77.165453,OZONE,9,154,78
India,Gujarat,Ahmedabad,"Chandkheda, Ahmedabad - IITM",29-03-2024 15:00:00,23.107969,72.574648,PM10,67,160,103
India,Gujarat,Ahmedabad,"Chandkheda, Ahmedabad - IITM",29-03-2024 15:00:00,23.107969,72.574648,NO2,24,41,35
India,Gujarat,Ahmedabad,"Chandkheda, Ahmedabad - IITM",29-03-2024 15:00:00,23.107969,72.574648,SO2,2,10,7
India,Gujarat,Ahmedabad,"Chandkheda, Ahmedabad - IITM",29-03-2024 15:00:00,23.107969,72.574648,OZONE,5,46,31
India,Gujarat,Ahmedabad,"Gyaspur, Ahmedabad - IITM",29-03-2024 15:00:00,22.977134,72.553024,NO2,9,67,38
India,Gujarat,Ahmedabad,"Gyaspur, Ahmedabad - IITM",29-03-2024 15:00:00,22.977134,72.553024,NH3,8,13,10
India,Gujarat,Ahmedabad,"Gyaspur, Ahmedabad - IITM",29-03-2024 15:00:00,22.977134,72.553024,OZONE,7,30,17
India,Gujarat,Ahmedabad,"Maninagar, Ahmedabad - GPCB",29-03-2024 15:00:00,23.002657,72.591912,CO,31,88,51
India,Gujarat,Ahmedabad,"Maninagar, Ahmedabad - GPCB",29-03-2024 15:00:00,23.002657,72.591912,OZONE,13,74,56
India,Gujarat,Ahmedabad,"Raikhad, Ahmedabad - IITM",29-03-2024 15:00:00,23.020509,72.579261,CO,12,104,26
India,Gujarat,Ahmedabad,"Rakhial, Ahmedabad - IITM",29-03-2024 15:00:00,23.016834,72.625775,PM2.5,57,117,68
India,Gujarat,Ahmedabad,"Rakhial, Ahmedabad - IITM",29-03-2024 15:00:00,23.016834,72.625775,PM10,72,134,87
India,Gujarat,Ahmedabad,"SAC ISRO Satellite, Ahmedabad - IITM",29-03-2024 15:00:00,23.023389,72.515201,PM2.5,95,143,132
India,Gujarat,Ahmedabad,"SAC ISRO Satellite, Ahmedabad - IITM",29-03-2024 15:00:00,23.023389,72.515201,OZONE,11,20,18
India,Gujarat,Ahmedabad,"SVPI Airport Hansol, Ahmedabad - IITM",29-03-2024 15:00:00,23.076793,72.627874,PM10,56,118,84
India,Gujarat,Ahmedabad,"SVPI Airport Hansol, Ahmedabad - IITM",29-03-2024 15:00:00,23.076793,72.627874,NO2,15,20,17
India,Gujarat,Ahmedabad,"Sardar Vallabhbhai Patel Stadium, Ahmedabad - IITM",29-03-2024 15:00:00,23.043070,72.562968,OZONE,17,26,23
India,Gujarat,Gandhinagar,"GIFT City, Gandhinagar - IITM",29-03-2024 15:00:00,23.163798,72.677768,CO,17,42,22
India,Gujarat,Gandhinagar,"IIPHG Lekawada, Gandhinagar - IITM",29-03-2024 15:00:00,23.243639,72.68994,PM2.5,65,282,121
India,Gujarat,Gandhinagar,"Sector-10, Gandhinagar - GPCB",29-03-2024 15:00:00,23.221714,72.654328,CO,22,59,27
India,Gujarat,Nandesari,"GIDC, Nandesari - Nandesari Ind. Association",29-03-2024 15:00:00,22.410802,73.097923,SO2,8,15,12
India,Gujarat,Surat,"Science Center, Surat - SMC",29-03-2024 15:00:00,21.170046,72.795405,SO2,1,7,4
India,Gujarat,Vapi,"Phase-1 GIDC, Vapi - GPCB",29-03-2024 15:00:00,20.362421,72.918013,PM10,55,104,73
India,Gujarat,Vapi,"Phase-1 GIDC, Vapi - GPCB",29-03-2024 15:00:00,20.362421,72.918013,SO2,50,52,51
India,Gujarat,Vatva,"Phase-4 GIDC, Vatva - GPCB",29-03-2024 15:00:00,22.969611,72.643500,NO2,33,177,72
India,Gujarat,Vatva,"Phase-4 GIDC, Vatva - GPCB",29-03-2024 15:00:00,22.969611,72.643500,OZONE,7,50,31
India,Haryana,Ambala,"Patti Mehar, Ambala - HSPCB",29-03-2024 15:00:00,30.379589,76.778328,NH3,5,12,9
India,Haryana,Bahadurgarh,"Arya Nagar, Bahadurgarh - HSPCB",29-03-2024 15:00:00,28.6701,76.9254,PM2.5,14,225,54
India,Haryana,Ballabgarh,"Nathu Colony, Ballabgarh - HSPCB",29-03-2024 15:00:00,28.3419248,77.319699,OZONE,6,50,24
India,Haryana,Bhiwani,"H.B. Colony, Bhiwani - HSPCB",29-03-2024 15:00:00,28.806223,76.141105,PM10,57,176,90
India,Haryana,Charkhi Dadri,"Mini Secretariat, Charkhi Dadri - HSPCB",29-03-2024 15:00:00,28.593883,76.270653,NO2,15,22,18
India,Haryana,Charkhi Dadri,"Mini Secretariat, Charkhi Dadri - HSPCB",29-03-2024 15:00:00,28.593883,76.270653,NH3,6,8,7
India,Haryana,Charkhi Dadri,"Mini Secretariat, Charkhi Dadri - HSPCB",29-03-2024 15:00:00,28.593883,76.270653,OZONE,13,17,15
India,Haryana,Dharuhera,"Municipal Corporation Office, Dharuhera -  HSPCB",29-03-2024 15:00:00,28.206800,76.799700,NH3,NA,NA,NA
India,Haryana,Dharuhera,"Municipal Corporation Office, Dharuhera -  HSPCB",29-03-2024 15:00:00,28.206800,76.799700,OZONE,51,67,62
India,Haryana,Faridabad,"New Industrial Town, Faridabad - HSPCB",29-03-2024 15:00:00,28.39072,77.30059,PM10,121,253,163
India,Haryana,Faridabad,"New Industrial Town, Faridabad - HSPCB",29-03-2024 15:00:00,28.39072,77.30059,CO,11,32,20
India,Haryana,Faridabad,"Sector 11, Faridabad - HSPCB",29-03-2024 15:00:00,28.376058,77.315741,OZONE,4,113,8
India,Haryana,Faridabad,"Sector 30, Faridabad - HSPCB",29-03-2024 15:00:00,28.4417,77.3217,NH3,8,9,9
India,Haryana,Faridabad,"Sector- 16A, Faridabad - HSPCB",29-03-2024 15:00:00,28.4088421,77.3099081,SO2,2,26,22
India,Haryana,Fatehabad,"Huda Sector, Fatehabad - HSPCB",29-03-2024 15:00:00,29.503664,75.467934,NO2,36,56,39
India,Haryana,Fatehabad,"Huda Sector, Fatehabad - HSPCB",29-03-2024 15:00:00,29.503664,75.467934,OZONE,82,113,96
India,Haryana,Gurugram,"Sector-51, Gurugram - HSPCB",29-03-2024 15:00:00,28.4227,77.0667,PM2.5,81,324,198
India,Haryana,Gurugram,"Sector-51, Gurugram - HSPCB",29-03-2024 15:00:00,28.4227,77.0667,PM10,136,242,166
India,Haryana,Gurugram,"Sector-51, Gurugram - HSPCB",29-03-2024 15:00:00,28.4227,77.0667,NH3,6,14,9
India,Haryana,Gurugram,"Teri Gram, Gurugram - HSPCB",29-03-2024 15:00:00,28.4275,77.1465,CO,14,24,22
India,Haryana,Gurugram,"Vikas Sadan, Gurugram - HSPCB",29-03-2024 15:00:00,28.4501238,77.0263051,CO,54,146,106
India,Haryana,Hisar,"Urban Estate-II, Hisar - HSPCB",29-03-2024 15:00:00,29.140560,75.744941,NH3,8,9,8
India,Haryana,Hisar,"Urban Estate-II, Hisar - HSPCB",29-03-2024 15:00:00,29.140560,75.744941,OZONE,17,97,56
India,Haryana,Jind,"Police Lines, Jind - HSPCB",29-03-2024 15:00:00,29.307814,76.337619,SO2,4,31,9
India,Haryana,Jind,"Police Lines, Jind - HSPCB",29-03-2024 15:00:00,29.307814,76.337619,OZONE,8,32,22
India,Haryana,Kaithal,"Rishi Nagar, Kaithal - HSPCB",29-03-2024 15:00:00,29.8006,76.4155,CO,14,28,22
India,Haryana,Karnal,"Sector-12, Karnal - HSPCB",29-03-2024 15:00:00,29.695300,77.002700,CO,26,44,34
India,Haryana,Kurukshetra,"Sector-7, Kurukshetra - HSPCB",29-03-2024 15:00:00,29.966942,76.875879,NH3,5,5,5
India,Haryana,Kurukshetra,"Sector-7, Kurukshetra - HSPCB",29-03-2024 15:00:00,29.966942,76.875879,CO,10,34,26
India,Haryana,Mandikhera,"General Hospital, Mandikhera - HSPCB",29-03-2024 15:00:00,27.9002,76.9938,PM2.5,17,48,32
India,Haryana,Mandikhera,"General Hospital, Mandikhera - HSPCB",29-03-2024 15:00:00,27.9002,76.9938,NO2,19,23,21
India,Haryana,Manesar,"Sector-2 IMT, Manesar - HSPCB",29-03-2024 15:00:00,28.360699,76.936090,OZONE,1,62,34
India,Haryana,Narnaul,"Shastri Nagar, Narnaul - HSPCB",29-03-2024 15:00:00,28.060249,76.113115,PM2.5,29,84,44
India,Haryana,Narnaul,"Shastri Nagar, Narnaul - HSPCB",29-03-2024 15:00:00,28.060249,76.113115,PM10,29,84,44
India,Haryana,Narnaul,"Shastri Nagar, Narnaul - HSPCB",29-03-2024 15:00:00,28.060249,76.113115,CO,8,30,17
India,Haryana,Palwal,"Shyam Nagar, Palwal - HSPCB",29-03-2024 15:00:00,28.1485564,77.3320667,PM2.5,53,93,72
India,Haryana,Palwal,"Shyam Nagar, Palwal - HSPCB",29-03-2024 15:00:00,28.1485564,77.3320667,NH3,8,9,9
India,Haryana,Panipat,"Sector-18, Panipat - HSPCB",29-03-2024 15:00:00,29.497973,76.993331,PM10,64,67,65
India,Haryana,Panipat,"Sector-18, Panipat - HSPCB",29-03-2024 15:00:00,29.497973,76.993331,NH3,2,3,3
India,Haryana,Rohtak,"MD University, Rohtak - HSPCB",29-03-2024 15:00:00,28.52123,76.37138,PM2.5,1,26,7
India,Haryana,Sirsa,"F-Block, Sirsa - HSPCB",29-03-2024 15:00:00,29.536400,75.015800,NH3,12,13,13
India,Haryana,Sirsa,"F-Block, Sirsa - HSPCB",29-03-2024 15:00:00,29.536400,75.015800,SO2,3,79,26
India,Haryana,Sonipat,"Murthal, Sonipat - HSPCB",29-03-2024 15:00:00,29.027200,77.062100,NO2,37,44,40
India,Haryana,Yamuna Nagar,"Gobind Pura, Yamuna Nagar - HSPCB",29-03-2024 15:00:00,30.1480566,77.2893471,NH3,5,5,5
India,Haryana,Yamuna Nagar,"Gobind Pura, Yamuna Nagar - HSPCB",29-03-2024 15:00:00,30.1480566,77.2893471,SO2,3,108,15
India,Himachal Pradesh,Baddi,"HIMUDA Complex Phase-1, Baddi - HPPCB",29-03-2024 15:00:00,30.943887,76.801991,PM2.5,3,75,43
India,Jharkhand,Dhanbad,"Kalakusuma, Dhanbad - DMC",29-03-2024 15:00:00,23.811548,86.481238,NO2,13,14,14
India,Jharkhand,Dhanbad,"Kalakusuma, Dhanbad - DMC",29-03-2024 15:00:00,23.811548,86.481238,OZONE,26,73,36
India,Jharkhand,Dhanbad,"Sardar Patel Nagar, Dhanbad - JSPCB",29-03-2024 15:00:00,23.80569,86.44268,OZONE,8,63,30
India,Karnataka,Bagalkot,"Vidayagiri, Bagalkot - KSPCB",29-03-2024 15:00:00,16.172806,75.659694,CO,17,48,38
India,Karnataka,Bengaluru,"BTM Layout, Bengaluru - CPCB",29-03-2024 15:00:00,12.9135218,77.5950804,NH3,4,4,4
India,Karnataka,Bengaluru,"Bapuji Nagar, Bengaluru - KSPCB",29-03-2024 15:00:00,12.951913,77.539784,OZONE,18,33,30
India,Karnataka,Bengaluru,"Hebbal, Bengaluru - KSPCB",29-03-2024 15:00:00,13.029152,77.585901,SO2,NA,NA,NA
India,Karnataka,Bengaluru,"Hombegowda Nagar, Bengaluru - KSPCB",29-03-2024 15:00:00,12.938539,77.590100,PM10,47,105,77
India,Karnataka,Bengaluru,"Hombegowda Nagar, Bengaluru - KSPCB",29-03-2024 15:00:00,12.938539,77.590100,NO2,10,38,17
India,Karnataka,Bengaluru,"Jayanagar 5th Block, Bengaluru - KSPCB",29-03-2024 15:00:00,12.920984,77.584908,PM2.5,52,179,86
India,Karnataka,Bengaluru,"Jayanagar 5th Block, Bengaluru - KSPCB",29-03-2024 15:00:00,12.920984,77.584908,NH3,3,5,4
India,Karnataka,Bengaluru,"Kasturi Nagar, Bengaluru - KSPCB",29-03-2024 15:00:00,13.003872,77.664217,NO2,16,17,16
India,Karnataka,Bengaluru,"Sanegurava Halli, Bengaluru - KSPCB",29-03-2024 15:00:00,12.990328,77.5431385,PM10,36,157,58
India,Karnataka,Bengaluru,"Shivapura_Peenya, Bengaluru - KSPCB",29-03-2024 15:00:00,13.0246342,77.5080115,CO,20,64,36
India,Karnataka,Bengaluru,"Silk Board, Bengaluru - KSPCB",29-03-2024 15:00:00,12.917348,77.622813,PM2.5,30,117,65
India,Karnataka,Chikkaballapur,"Chikkaballapur Rural, Chikkaballapur - KSPCB",29-03-2024 15:00:00,13.428828,77.731418,PM10,42,105,76
India,Karnataka,Chikkaballapur,"Chikkaballapur Rural, Chikkaballapur - KSPCB",29-03-2024 15:00:00,13.428828,77.731418,NO2,7,15,10
India,Karnataka,Chikkamagaluru,"Kalyana Nagara, Chikkamagaluru - KSPCB",29-03-2024 15:00:00,13.328028,75.797056,PM2.5,9,67,27
India,Karnataka,Davanagere,"Devaraj Urs Badavane, Davanagere - KSPCB",29-03-2024 15:00:00,14.475800,75.905200,SO2,3,6,5
India,Karnataka,Davanagere,"Devaraj Urs Badavane, Davanagere - KSPCB",29-03-2024 15:00:00,14.475800,75.905200,CO,16,22,17
India,Karnataka,Davanagere,"Devaraj Urs Badavane, Davanagere - KSPCB",29-03-2024 15:00:00,14.475800,75.905200,OZONE,21,28,22
India,Karnataka,Hubballi,"Deshpande Nagar, Hubballi - KSPCB",29-03-2024 15:00:00,15.351773,75.140726,OZONE,1,30,3
India,Karnataka,Kalaburagi,"Lal Bahadur Shastri Nagar, Kalaburagi - KSPCB",29-03-2024 15:00:00,17.321993,76.822628,PM2.5,36,93,59
India,Karnataka,Kalaburagi,"Lal Bahadur Shastri Nagar, Kalaburagi - KSPCB",29-03-2024 15:00:00,17.321993,76.822628,NO2,12,12,12
India,Karnataka,Kalaburagi,"Mahatma Basaveswar Colony, Kalaburgi - KSPCB",29-03-2024 15:00:00,17.336318,76.847397,NH3,2,3,3
India,Karnataka,Karwar,"KHB Colony, Karwar - KSPCB",29-03-2024 15:00:00,14.816666,74.141003,NH3,1,7,1
India,Karnataka,Kolar,"Tamaka Ind. Area, Kolar - KSPCB",29-03-2024 15:00:00,13.1276288,78.1570122,NH3,NA,NA,NA
India,Karnataka,Madikeri,"Stuart Hill, Madikeri - KSPCB",29-03-2024 15:00:00,12.415911,75.735050,PM2.5,32,61,50
India,Karnataka,Madikeri,"Stuart Hill, Madikeri - KSPCB",29-03-2024 15:00:00,12.415911,75.735050,CO,2,195,20
India,Karnataka,Madikeri,"Stuart Hill, Madikeri - KSPCB",29-03-2024 15:00:00,12.415911,75.735050,OZONE,26,53,44
India,Karnataka,Mysuru,"Hebbal 1st Stage, Mysuru - KSPCB",29-03-2024 15:00:00,12.21041,76.37376,NO2,5,41,23
India,Karnataka,Mysuru,"Hebbal 1st Stage, Mysuru - KSPCB",29-03-2024 15:00:00,12.21041,76.37376,SO2,1,15,4
India,Karnataka,Raichur,"Haji Colony, Raichur - KSPCB",29-03-2024 15:00:00,16.208139,77.348417,PM10,49,139,100
India,Karnataka,Raichur,"Haji Colony, Raichur - KSPCB",29-03-2024 15:00:00,16.208139,77.348417,SO2,68,90,78
India,Karnataka,Ramanagara,"Vijay Nagar, Ramanagara - KSPCB",29-03-2024 15:00:00,12.733409,77.298051,PM2.5,21,50,34
India,Karnataka,Ramanagara,"Vijay Nagar, Ramanagara - KSPCB",29-03-2024 15:00:00,12.733409,77.298051,NH3,1,1,1
India,Karnataka,Ramanagara,"Vijay Nagar, Ramanagara - KSPCB",29-03-2024 15:00:00,12.733409,77.298051,SO2,13,31,23
India,Karnataka,Udupi,"Brahmagiri, Udupi - KSPCB",29-03-2024 15:00:00,13.34194444,74.74694444,SO2,12,16,13
India,Karnataka,Udupi,"Brahmagiri, Udupi - KSPCB",29-03-2024 15:00:00,13.34194444,74.74694444,OZONE,23,23,23
India,Karnataka,Vijayapura,"Ibrahimpur, Vijayapura - KSPCB",29-03-2024 15:00:00,16.802639,75.722694,PM10,38,43,39
India,Karnataka,Vijayapura,"Ibrahimpur, Vijayapura - KSPCB",29-03-2024 15:00:00,16.802639,75.722694,NH3,2,2,2
India,Kerala,Eloor,"Udyogamandal, Eloor - Kerala PCB",29-03-2024 15:00:00,10.073232,76.302765,SO2,1,5,2
India,Kerala,Kannur,"Thavakkara, Kannur - Kerala PCB",29-03-2024 15:00:00,11.875000,75.373200,PM2.5,52,60,56
India,Kerala,Thiruvananthapuram,"Kariavattom, Thiruvananthapuram - Kerala PCB",29-03-2024 15:00:00,8.563700,76.886500,PM2.5,77,88,82
India,Kerala,Thiruvananthapuram,"Kariavattom, Thiruvananthapuram - Kerala PCB",29-03-2024 15:00:00,8.563700,76.886500,CO,18,35,22
India,Kerala,Thiruvananthapuram,"Plammoodu, Thiruvananthapuram - Kerala PCB",29-03-2024 15:00:00,8.5149093,76.9435879,NO2,7,9,8
India,Madhya Pradesh,Bhopal,"Idgah Hills, Bhopal - MPPCB",29-03-2024 15:00:00,23.264759,77.381568,CO,20,66,33
India,Madhya Pradesh,Bhopal,"Idgah Hills, Bhopal - MPPCB",29-03-2024 15:00:00,23.264759,77.381568,OZONE,32,89,60
India,Madhya Pradesh,Bhopal,"Paryavaran Parisar, Bhopal - MPPCB",29-03-2024 15:00:00,23.210494,77.425409,PM2.5,35,98,67
India,Madhya Pradesh,Bhopal,"Paryavaran Parisar, Bhopal - MPPCB",29-03-2024 15:00:00,23.210494,77.425409,SO2,5,9,7
India,Madhya Pradesh,Bhopal,"Paryavaran Parisar, Bhopal - MPPCB",29-03-2024 15:00:00,23.210494,77.425409,CO,4,113,64
India,Madhya Pradesh,Dewas,"Bhopal Chauraha, Dewas - MPPCB",29-03-2024 15:00:00,22.9682591,76.064118,PM2.5,43,314,117
India,Madhya Pradesh,Dewas,"Bhopal Chauraha, Dewas - MPPCB",29-03-2024 15:00:00,22.9682591,76.064118,OZONE,23,93,60
India,Madhya Pradesh,Gwalior,"City Center, Gwalior - MPPCB",29-03-2024 15:00:00,26.203442,78.193251,PM10,86,172,121
India,Madhya Pradesh,Gwalior,"Deen Dayal Nagar, Gwalior - MPPCB",29-03-2024 15:00:00,26.259242,78.216432,PM10,NA,NA,NA
India,Madhya Pradesh,Gwalior,"Maharaj Bada, Gwalior - MPPCB",29-03-2024 15:00:00,26.200388,78.147714,NH3,3,25,8
India,Madhya Pradesh,Gwalior,"Maharaj Bada, Gwalior - MPPCB",29-03-2024 15:00:00,26.200388,78.147714,SO2,15,32,20
India,Madhya Pradesh,Indore,"Chhoti Gwaltoli, Indore - MPPCB",29-03-2024 15:00:00,22.4310,75.5213,PM2.5,47,118,86
India,Madhya Pradesh,Indore,"Chhoti Gwaltoli, Indore - MPPCB",29-03-2024 15:00:00,22.4310,75.5213,PM10,74,174,113
India,Madhya Pradesh,Jabalpur,"Govindh Bhavan Colony, Jabalpur - JMC",29-03-2024 15:00:00,23.163174,79.973061,NO2,10,25,17
India,Madhya Pradesh,Jabalpur,"Govindh Bhavan Colony, Jabalpur - JMC",29-03-2024 15:00:00,23.163174,79.973061,OZONE,28,112,73
India,Madhya Pradesh,Jabalpur,"Gupteshwar, Jabalpur - JMC",29-03-2024 15:00:00,23.142888,79.916147,PM2.5,72,257,126
India,Madhya Pradesh,Jabalpur,"Marhatal, Jabalpur - MPPCB",29-03-2024 15:00:00,23.168606,79.932247,PM2.5,43,224,103
India,Madhya Pradesh,Jabalpur,"Marhatal, Jabalpur - MPPCB",29-03-2024 15:00:00,23.168606,79.932247,NO2,14,117,39
India,Madhya Pradesh,Jabalpur,"Marhatal, Jabalpur - MPPCB",29-03-2024 15:00:00,23.168606,79.932247,SO2,8,37,14
India,Madhya Pradesh,Jabalpur,"Suhagi, Jabalpur - JMC",29-03-2024 15:00:00,23.218135,79.957770,OZONE,18,148,97
India,Madhya Pradesh,Katni,"Gole Bazar, Katni - MPPCB",29-03-2024 15:00:00,23.50016,80.23284,OZONE,7,96,95
India,Madhya Pradesh,Pithampur,"Sector-2 Industrial Area, Pithampur - MPPCB",29-03-2024 15:00:00,22.624758,75.675238,PM10,83,159,122
India,Madhya Pradesh,Sagar,"Civil Lines, Sagar - MPPCB",29-03-2024 15:00:00,23.838586,78.759431,PM2.5,37,126,71
India,Madhya Pradesh,Sagar,"Civil Lines, Sagar - MPPCB",29-03-2024 15:00:00,23.838586,78.759431,PM10,78,170,114
India,Madhya Pradesh,Sagar,"Civil Lines, Sagar - MPPCB",29-03-2024 15:00:00,23.838586,78.759431,OZONE,27,151,93
India,Madhya Pradesh,Sagar,"Deen Dayal Nagar, Sagar - MPPCB",29-03-2024 15:00:00,23.8640158,78.80289321,NO2,7,24,23
India,Madhya Pradesh,Sagar,"Deen Dayal Nagar, Sagar - MPPCB",29-03-2024 15:00:00,23.8640158,78.80289321,CO,8,100,72
India,Madhya Pradesh,Singrauli,"Suryakiran Bhawan NCL, Singrauli - MPPCB",29-03-2024 15:00:00,24.108970,82.645580,OZONE,6,66,34
India,Maharashtra,Ahmednagar,"Tarakpur, Ahmednagar - MPCB",29-03-2024 15:00:00,19.10122,74.73339,OZONE,14,182,172
India,Maharashtra,Akola,"Ramdaspeth, Akola - MPCB",29-03-2024 15:00:00,20.719516,77.000253,PM2.5,45,335,92
India,Maharashtra,Akola,"Ramdaspeth, Akola - MPCB",29-03-2024 15:00:00,20.719516,77.000253,NO2,11,110,35
India,Maharashtra,Akola,"Ramdaspeth, Akola - MPCB",29-03-2024 15:00:00,20.719516,77.000253,NH3,6,14,10
India,Maharashtra,Akola,"Ramdaspeth, Akola - MPCB",29-03-2024 15:00:00,20.719516,77.000253,SO2,10,22,16
India,Maharashtra,Amravati,"Shivneri Colony, Amravati - MPCB",29-03-2024 15:00:00,20.9402359,77.7895248,CO,20,65,33
India,Maharashtra,Amravati,"Shivneri Colony, Amravati - MPCB",29-03-2024 15:00:00,20.9402359,77.7895248,OZONE,15,158,152
India,Maharashtra,Amravati,"Shri Shivaji Science College, Amaravati - MPCB",29-03-2024 15:00:00,20.939198,77.765701,PM2.5,62,245,132
India,Maharashtra,Amravati,"Shri Shivaji Science College, Amaravati - MPCB",29-03-2024 15:00:00,20.939198,77.765701,PM10,98,491,160
India,Maharashtra,Amravati,"Shri Shivaji Science College, Amaravati - MPCB",29-03-2024 15:00:00,20.939198,77.765701,NO2,6,107,28
India,Maharashtra,Amravati,"Shri Shivaji Science College, Amaravati - MPCB",29-03-2024 15:00:00,20.939198,77.765701,NH3,6,35,11
India,Maharashtra,Aurangabad,"MIDC Chilkalthana, Aurangabad - MPCB",29-03-2024 15:00:00,19.875620,75.387310,NH3,3,4,4
India,Maharashtra,Badlapur,"Katrap, Badlapur - MPCB",29-03-2024 15:00:00,19.16485,73.23409,PM10,71,134,103
India,Maharashtra,Badlapur,"Katrap, Badlapur - MPCB",29-03-2024 15:00:00,19.16485,73.23409,NO2,11,198,36
India,Maharashtra,Bhiwandi,"Gokul Nagar, Bhiwandi - MPCB",29-03-2024 15:00:00,19.309073,73.057223,PM2.5,NA,NA,NA
India,Maharashtra,Bhiwandi,"Gokul Nagar, Bhiwandi - MPCB",29-03-2024 15:00:00,19.309073,73.057223,OZONE,59,59,59
India,Maharashtra,Boisar,"Khaira, Boisar - MPCB",29-03-2024 15:00:00,19.786089,72.757971,NH3,2,15,7
India,Maharashtra,Boisar,"Khaira, Boisar - MPCB",29-03-2024 15:00:00,19.786089,72.757971,CO,12,54,27
India,Maharashtra,Chandrapur,"Chauhan Colony, Chandrapur - MPCB",29-03-2024 15:00:00,19.962900,79.298714,SO2,8,25,14
India,Maharashtra,Chandrapur,"Chauhan Colony, Chandrapur - MPCB",29-03-2024 15:00:00,19.962900,79.298714,OZONE,9,9,9
India,Maharashtra,Chandrapur,"MIDC Khutala, Chandrapur - MPCB",29-03-2024 15:00:00,19.9775302,79.2337086,PM2.5,52,243,114
India,Maharashtra,Chandrapur,"MIDC Khutala, Chandrapur - MPCB",29-03-2024 15:00:00,19.9775302,79.2337086,OZONE,4,85,45
India,Maharashtra,Dhule,"Deopur, Dhule - MPCB",29-03-2024 15:00:00,20.918946,74.776388,PM2.5,69,251,147
India,Maharashtra,Jalgaon,"Prabhat Colony, Jalgaon - MPCB",29-03-2024 15:00:00,21.001264,75.565602,PM10,76,128,101
India,Maharashtra,Jalgaon,"Prabhat Colony, Jalgaon - MPCB",29-03-2024 15:00:00,21.001264,75.565602,NH3,7,14,9
India,Maharashtra,Jalna,"Old MIDC, Jalna - MPCB",29-03-2024 15:00:00,19.854616,75.905894,PM2.5,56,176,95
India,Maharashtra,Jalna,"Old MIDC, Jalna - MPCB",29-03-2024 15:00:00,19.854616,75.905894,NO2,13,59,28
India,Maharashtra,Kalyan,"Khadakpada, Kalyan - MPCB",29-03-2024 15:00:00,19.25292,73.142019,PM10,73,141,113
India,Maharashtra,Kolhapur,"Shivaji University, Kolhapur - MPCB",29-03-2024 15:00:00,16.6870449,74.2505872,PM2.5,168,316,244
India,Maharashtra,Kolhapur,"Shivaji University, Kolhapur - MPCB",29-03-2024 15:00:00,16.6870449,74.2505872,NO2,13,36,21
India,Maharashtra,Kolhapur,"Shivaji University, Kolhapur - MPCB",29-03-2024 15:00:00,16.6870449,74.2505872,OZONE,1,83,33
India,Maharashtra,Kolhapur,"Sinchan Bhavan, Kolhapur - MPCB",29-03-2024 15:00:00,16.7143745,74.2426398,PM10,69,101,80
India,Maharashtra,Kolhapur,"Sinchan Bhavan, Kolhapur - MPCB",29-03-2024 15:00:00,16.7143745,74.2426398,OZONE,31,178,170
India,Maharashtra,Mahad,"Kamble Tarf Birwadi, Mahad - MPCB",29-03-2024 15:00:00,18.1023399,73.4783687,NH3,10,10,10
India,Maharashtra,Mahad,"Kamble Tarf Birwadi, Mahad - MPCB",29-03-2024 15:00:00,18.1023399,73.4783687,CO,10,62,40
India,Maharashtra,Mira-Bhayandar,"Bhayandar West, Mira-Bhayandar - MPCB",29-03-2024 15:00:00,19.296481,72.840923,SO2,2,10,4
India,Maharashtra,Mira-Bhayandar,"Bhayandar West, Mira-Bhayandar - MPCB",29-03-2024 15:00:00,19.296481,72.840923,CO,10,36,16
India,Maharashtra,Mumbai,"Bandra Kurla Complex, Mumbai - MPCB",29-03-2024 15:00:00,19.065931,72.862131,NO2,4,25,11
India,Maharashtra,Mumbai,"Borivali East, Mumbai - IITM",29-03-2024 15:00:00,19.23241,72.86895,OZONE,30,75,52
India,Maharashtra,Mumbai,"Borivali East, Mumbai - MPCB",29-03-2024 15:00:00,19.2243333,72.8658113,SO2,6,9,7
India,Maharashtra,Mumbai,"Byculla, Mumbai - BMC",29-03-2024 15:00:00,18.9767,72.8380,SO2,2,9,4
India,Maharashtra,Mumbai,"Chhatrapati Shivaji Intl. Airport (T2), Mumbai - MPCB",29-03-2024 15:00:00,19.10078,72.87462,OZONE,4,5,4
India,Maharashtra,Mumbai,"Colaba, Mumbai - MPCB",29-03-2024 15:00:00,18.910000,72.820000,PM2.5,21,83,42
India,Maharashtra,Mumbai,"Colaba, Mumbai - MPCB",29-03-2024 15:00:00,18.910000,72.820000,PM10,26,105,42
India,Maharashtra,Mumbai,"Colaba, Mumbai - MPCB",29-03-2024 15:00:00,18.910000,72.820000,NH3,1,1,1
India,Maharashtra,Mumbai,"Colaba, Mumbai - MPCB",29-03-2024 15:00:00,18.910000,72.820000,CO,12,18,15
India,Maharashtra,Mumbai,"Ghatkopar, Mumbai - BMC",29-03-2024 15:00:00,19.083694,72.920967,SO2,1,4,1
India,Maharashtra,Mumbai,"Ghatkopar, Mumbai - BMC",29-03-2024 15:00:00,19.083694,72.920967,CO,2,27,11
India,Maharashtra,Mumbai,"Ghatkopar, Mumbai - BMC",29-03-2024 15:00:00,19.083694,72.920967,OZONE,1,20,7
India,Maharashtra,Mumbai,"Kandivali East, Mumbai - MPCB",29-03-2024 15:00:00,19.205800,72.868200,CO,40,50,46
India,Maharashtra,Mumbai,"Kandivali East, Mumbai - MPCB",29-03-2024 15:00:00,19.205800,72.868200,OZONE,29,31,30
India,Maharashtra,Mumbai,"Kandivali West, Mumbai - BMC",29-03-2024 15:00:00,19.215859,72.831718,PM10,27,54,38
India,Maharashtra,Mumbai,"Kherwadi_Bandra East, Mumbai - MPCB",29-03-2024 15:00:00,19.0632143,72.8456324,NH3,4,14,7
India,Maharashtra,Mumbai,"Kherwadi_Bandra East, Mumbai - MPCB",29-03-2024 15:00:00,19.0632143,72.8456324,OZONE,1,51,28
India,Maharashtra,Mumbai,"Khindipada-Bhandup West, Mumbai - IITM",29-03-2024 15:00:00,19.1653323,72.922099,NO2,1,169,45
India,Maharashtra,Mumbai,"Kurla, Mumbai - MPCB",29-03-2024 15:00:00,19.0863,72.8888,SO2,32,32,32
India,Maharashtra,Mumbai,"Mazgaon, Mumbai - IITM",29-03-2024 15:00:00,18.96702,72.84214,NH3,17,41,24
India,Maharashtra,Mumbai,"Mindspace-Malad West, Mumbai - MPCB",29-03-2024 15:00:00,19.1878657,72.8304069,NH3,4,5,5
India,Maharashtra,Mumbai,"Navy Nagar-Colaba, Mumbai - IITM",29-03-2024 15:00:00,18.897756,72.813320,PM2.5,37,92,53
India,Maharashtra,Mumbai,"Navy Nagar-Colaba, Mumbai - IITM",29-03-2024 15:00:00,18.897756,72.813320,NH3,11,16,12
India,Maharashtra,Mumbai,"Powai, Mumbai - MPCB",29-03-2024 15:00:00,19.137500,72.915056,PM2.5,31,55,41
India,Maharashtra,Mumbai,"Powai, Mumbai - MPCB",29-03-2024 15:00:00,19.137500,72.915056,SO2,32,40,36
India,Maharashtra,Mumbai,"Sewri, Mumbai - BMC",29-03-2024 15:00:00,19.000084,72.856730,SO2,1,13,5
India,Maharashtra,Mumbai,"Vasai West, Mumbai - MPCB",29-03-2024 15:00:00,19.383200,72.820400,OZONE,12,43,28
India,Maharashtra,Mumbai,"Worli, Mumbai - MPCB",29-03-2024 15:00:00,18.9936162,72.8128113,NO2,14,14,14
India,Maharashtra,Mumbai,"Worli, Mumbai - MPCB",29-03-2024 15:00:00,18.9936162,72.8128113,SO2,11,12,11
India,Maharashtra,Nagpur,"Ambazari, Nagpur - MPCB",29-03-2024 15:00:00,21.121801,79.04952,NH3,1,15,5
India,Maharashtra,Nagpur,"Ambazari, Nagpur - MPCB",29-03-2024 15:00:00,21.121801,79.04952,CO,5,129,27
India,Maharashtra,Nagpur,"Ambazari, Nagpur - MPCB",29-03-2024 15:00:00,21.121801,79.04952,OZONE,3,112,71
India,Maharashtra,Nagpur,"Mahal, Nagpur - MPCB",29-03-2024 15:00:00,21.14472,79.107595,NH3,2,11,8
India,Maharashtra,Nagpur,"Opp GPO Civil Lines, Nagpur - MPCB",29-03-2024 15:00:00,21.152875,79.0517531,PM2.5,59,210,125
India,Maharashtra,Nagpur,"Opp GPO Civil Lines, Nagpur - MPCB",29-03-2024 15:00:00,21.152875,79.0517531,NO2,22,196,87
India,Maharashtra,Nagpur,"Opp GPO Civil Lines, Nagpur - MPCB",29-03-2024 15:00:00,21.152875,79.0517531,CO,26,138,42
India,Maharashtra,Nagpur,"Ram Nagar, Nagpur - MPCB",29-03-2024 15:00:00,21.143383,79.048912,PM10,89,159,119
India,Maharashtra,Nagpur,"Ram Nagar, Nagpur - MPCB",29-03-2024 15:00:00,21.143383,79.048912,SO2,8,54,23
India,Maharashtra,Nagpur,"Ram Nagar, Nagpur - MPCB",29-03-2024 15:00:00,21.143383,79.048912,OZONE,12,149,75
India,Maharashtra,Nanded,"Sneh Nagar, Nanded - MPCB",29-03-2024 15:00:00,19.173852,77.296291,PM2.5,36,216,111
India,Maharashtra,Nanded,"Sneh Nagar, Nanded - MPCB",29-03-2024 15:00:00,19.173852,77.296291,PM10,91,240,141
India,Maharashtra,Nanded,"Sneh Nagar, Nanded - MPCB",29-03-2024 15:00:00,19.173852,77.296291,OZONE,16,199,199
India,Maharashtra,Nashik,"Gangapur Road, Nashik - MPCB",29-03-2024 15:00:00,20.0073285,73.7762427,PM2.5,50,99,67
India,Maharashtra,Nashik,"Hirawadi, Nashik - MPCB",29-03-2024 15:00:00,20.021503,73.813844,PM10,73,99,83
India,Maharashtra,Nashik,"Hirawadi, Nashik - MPCB",29-03-2024 15:00:00,20.021503,73.813844,NO2,8,50,21
India,Maharashtra,Nashik,"MIDC Ambad, Nashik - MPCB",29-03-2024 15:00:00,19.950220,73.731480,PM10,57,113,80
India,Maharashtra,Nashik,"MIDC Ambad, Nashik - MPCB",29-03-2024 15:00:00,19.950220,73.731480,SO2,8,20,13
India,Maharashtra,Nashik,"Pandav Nagari, Nashik - MPCB",29-03-2024 15:00:00,19.9591346,73.7788008,CO,15,36,26
India,Maharashtra,Navi Mumbai,"Kopripada-Vashi, Navi Mumbai - MPCB",29-03-2024 15:00:00,19.090337,73.014232,NO2,29,71,48
India,Maharashtra,Navi Mumbai,"Kopripada-Vashi, Navi Mumbai - MPCB",29-03-2024 15:00:00,19.090337,73.014232,NH3,7,17,10
India,Maharashtra,Navi Mumbai,"Kopripada-Vashi, Navi Mumbai - MPCB",29-03-2024 15:00:00,19.090337,73.014232,CO,11,48,32
India,Maharashtra,Navi Mumbai,"Mahape, Navi Mumbai - MPCB",29-03-2024 15:00:00,19.1135051,73.008978,CO,44,59,53
India,Maharashtra,Navi Mumbai,"Mahape, Navi Mumbai - MPCB",29-03-2024 15:00:00,19.1135051,73.008978,OZONE,23,44,33
India,Maharashtra,Navi Mumbai,"Nerul, Navi Mumbai - MPCB",29-03-2024 15:00:00,19.008751,73.016620,SO2,10,10,10
India,Maharashtra,Navi Mumbai,"Nerul, Navi Mumbai - MPCB",29-03-2024 15:00:00,19.008751,73.016620,CO,26,53,46
India,Maharashtra,Navi Mumbai,"Sector-19A Nerul, Navi Mumbai - IITM",29-03-2024 15:00:00,19.044,73.0325,PM2.5,53,160,89
India,Maharashtra,Navi Mumbai,"Sector-19A Nerul, Navi Mumbai - IITM",29-03-2024 15:00:00,19.044,73.0325,OZONE,1,75,45
India,Maharashtra,Parbhani,"Masoom Colony, Parbhani - MPCB",29-03-2024 15:00:00,19.265594,76.761463,PM10,35,329,136
India,Maharashtra,Parbhani,"Masoom Colony, Parbhani - MPCB",29-03-2024 15:00:00,19.265594,76.761463,CO,19,123,25
India,Maharashtra,Pimpri-Chinchwad,"Gavalinagar, Pimpri Chinchwad - MPCB",29-03-2024 15:00:00,18.63673,73.82487,OZONE,9,168,82
India,Maharashtra,Pimpri-Chinchwad,"Thergaon, Pimpri Chinchwad - MPCB",29-03-2024 15:00:00,18.616318,73.765797,PM10,77,107,90
India,Maharashtra,Pune,"Bhosari, Pune - IITM",29-03-2024 15:00:00,18.640051,73.848956,OZONE,11,110,57
India,Maharashtra,Pune,"Katraj Dairy, Pune - MPCB",29-03-2024 15:00:00,18.454450,73.854155,NO2,11,50,24
India,Maharashtra,Pune,"Katraj Dairy, Pune - MPCB",29-03-2024 15:00:00,18.454450,73.854155,OZONE,28,76,50
India,Maharashtra,Pune,"Mhada Colony, Pune - IITM",29-03-2024 15:00:00,18.573040,73.927715,PM2.5,37,97,68
India,Maharashtra,Pune,"Revenue Colony-Shivajinagar, Pune - IITM",29-03-2024 15:00:00,18.530085,73.849598,NO2,91,177,137
India,Maharashtra,Pune,"Savitribai Phule Pune University, Pune - MPCB",29-03-2024 15:00:00,18.547056,73.826908,SO2,9,15,12
India,Maharashtra,Pune,"Transport Nagar-Nigdi, Pune - IITM",29-03-2024 15:00:00,18.664282,73.763966,PM2.5,NA,NA,NA
India,Maharashtra,Sangli,"Vijay Nagar, Sangli - MPCB",29-03-2024 15:00:00, 16.5038,74.3623,NH3,1,2,2
India,Maharashtra,Solapur,"Dnyaneshwar Nagar, Solapur - MPCB",29-03-2024 15:00:00,17.6336264,75.9132495,CO,12,106,24
India,Maharashtra,Solapur,"Ratandeep Housing Society, Solapur - MPCB",29-03-2024 15:00:00,17.65439,75.90649,SO2,5,23,12
India,Maharashtra,Thane,"Kasarvadavali, Thane - MPCB",29-03-2024 15:00:00,19.26777,72.97182,PM2.5,48,82,64
India,Maharashtra,Thane,"Kasarvadavali, Thane - MPCB",29-03-2024 15:00:00,19.26777,72.97182,PM10,70,129,99
India,Maharashtra,Thane,"Kasarvadavali, Thane - MPCB",29-03-2024 15:00:00,19.26777,72.97182,NO2,28,67,42
India,Maharashtra,Thane,"Pimpleshwar Mandir, Thane - MPCB",29-03-2024 15:00:00,19.192056,72.9585188,PM10,18,331,142
India,Maharashtra,Thane,"Upvan Fort, Thane - MPCB",29-03-2024 15:00:00,19.222279,72.957979,SO2,2,35,10
India,Maharashtra,Thane,"Upvan Fort, Thane - MPCB",29-03-2024 15:00:00,19.222279,72.957979,CO,2,58,30
India,Maharashtra,Thane,"Upvan Fort, Thane - MPCB",29-03-2024 15:00:00,19.222279,72.957979,OZONE,7,115,57
India,Maharashtra,Ulhasnagar,"Sidhi Vinayak Nagar, Ulhasnagar - MPCB",29-03-2024 15:00:00,19.235581,73.159121,PM2.5,92,178,121
India,Maharashtra,Ulhasnagar,"Sidhi Vinayak Nagar, Ulhasnagar - MPCB",29-03-2024 15:00:00,19.235581,73.159121,PM10,107,145,126
India,Maharashtra,Virar,"Bolinj, Virar - MPCB",29-03-2024 15:00:00,19.4458210,72.7988231,PM2.5,30,67,48
India,Mizoram,Aizawl,"Sikulpuikawn, Aizawl - Mizoram PCB",29-03-2024 15:00:00,23.7176342,92.7192841,PM2.5,21,67,40
India,Mizoram,Aizawl,"Sikulpuikawn, Aizawl - Mizoram PCB",29-03-2024 15:00:00,23.7176342,92.7192841,NO2,1,2,1
India,Odisha,Angul,"Hakimapada, Angul - OSPCB",29-03-2024 15:00:00,20.832874,85.104082,PM2.5,92,466,213
India,Odisha,Angul,"Hakimapada, Angul - OSPCB",29-03-2024 15:00:00,20.832874,85.104082,PM10,115,446,183
India,Odisha,Balasore,"Kalidaspur, Balasore - OSPCB",29-03-2024 15:00:00,21.51161,86.89088,PM10,59,138,105
India,Odisha,Balasore,"Kalidaspur, Balasore - OSPCB",29-03-2024 15:00:00,21.51161,86.89088,OZONE,4,92,56
India,Odisha,Barbil,"Forest Office, Barbil - OSPCB",29-03-2024 15:00:00,22.1166054,85.3945546,PM10,135,426,209
India,Odisha,Baripada,"Meher Colony, Baripada - OSPCB",29-03-2024 15:00:00,21.941841,86.728318,NO2,NA,NA,NA
India,Odisha,Baripada,"Meher Colony, Baripada - OSPCB",29-03-2024 15:00:00,21.941841,86.728318,OZONE,21,112,60
India,Odisha,Bhubaneswar,"Lingraj Mandir, Bhubaneswar - OSPCB",29-03-2024 15:00:00,20.240790,85.836784,SO2,1,13,7
India,Odisha,Bhubaneswar,"Lingraj Mandir, Bhubaneswar - OSPCB",29-03-2024 15:00:00,20.240790,85.836784,CO,46,67,57
India,Odisha,Bhubaneswar,"Patia, Bhubaneswar - OSPCB",29-03-2024 15:00:00,20.34652,85.81630,NO2,3,13,8
India,Odisha,Brajrajnagar,"GM Office, Brajrajnagar - OSPCB",29-03-2024 15:00:00,21.8004996,83.8396977,PM10,70,183,124
India,Odisha,Brajrajnagar,"GM Office, Brajrajnagar - OSPCB",29-03-2024 15:00:00,21.8004996,83.8396977,SO2,20,21,21
India,Odisha,Byasanagar,"Ferro Chrome Colony, Byasanagar - OSPCB",29-03-2024 15:00:00,20.94185,86.11510,NH3,1,4,2
India,Odisha,Cuttack,"CDA Area, Cuttack - OSPCB",29-03-2024 15:00:00,20.48891     ,85.84768     ,OZONE,8,145,74
India,Odisha,Nayagarh,"Dabuna, Nayagarh - OSPCB",29-03-2024 15:00:00,21.847279,85.416905,OZONE,4,55,36
India,Odisha,Rairangpur,"Divisional Forest Office, Rairangpur - OSPCB",29-03-2024 15:00:00,22.265816,86.174829,PM2.5,55,196,112
India,Odisha,Rairangpur,"Divisional Forest Office, Rairangpur - OSPCB",29-03-2024 15:00:00,22.265816,86.174829,NO2,7,8,8
India,Odisha,Rairangpur,"Divisional Forest Office, Rairangpur - OSPCB",29-03-2024 15:00:00,22.265816,86.174829,NH3,5,5,5
India,Odisha,Rourkela,"Raghunathpali, Rourkela - OSPCB",29-03-2024 15:00:00,22.220833,84.809444,PM2.5,73,185,114
India,Puducherry,Puducherry,"Jawahar Nagar, Puducherry - PPCC",29-03-2024 15:00:00,11.9309,79.8027,NH3,2,8,4
India,Punjab,Amritsar,"Golden Temple, Amritsar - PPCB",29-03-2024 15:00:00,31.620000,74.876512,PM10,66,100,82
India,Punjab,Bathinda,"Hardev Nagar, Bathinda - PPCB",29-03-2024 15:00:00,30.233011,74.907758,PM2.5,7,88,44
India,Punjab,Bathinda,"Hardev Nagar, Bathinda - PPCB",29-03-2024 15:00:00,30.233011,74.907758,SO2,2,27,14
India,Punjab,Jalandhar,"Civil Line, Jalandhar - PPCB",29-03-2024 15:00:00,31.321907,75.578914,OZONE,32,89,60
India,Punjab,Khanna,"Kalal Majra, Khanna - PPCB",29-03-2024 15:00:00,30.736056 ,76.209694,PM2.5,27,73,43
India,Punjab,Khanna,"Kalal Majra, Khanna - PPCB",29-03-2024 15:00:00,30.736056 ,76.209694,PM10,46,95,65
India,Punjab,Khanna,"Kalal Majra, Khanna - PPCB",29-03-2024 15:00:00,30.736056 ,76.209694,NO2,24,24,24
India,Punjab,Khanna,"Kalal Majra, Khanna - PPCB",29-03-2024 15:00:00,30.736056 ,76.209694,SO2,10,31,15
India,Punjab,Ludhiana,"Punjab Agricultural University, Ludhiana - PPCB",29-03-2024 15:00:00,30.9028,75.8086,PM2.5,35,101,60
India,Punjab,Ludhiana,"Punjab Agricultural University, Ludhiana - PPCB",29-03-2024 15:00:00,30.9028,75.8086,SO2,12,17,14
India,Punjab,Patiala,"Model Town, Patiala - PPCB",29-03-2024 15:00:00,30.349388,76.366642,SO2,1,67,20
India,Punjab,Rupnagar,"Ratanpura, Rupnagar - Ambuja Cements",29-03-2024 15:00:00,31.0325454,76.5623046,PM10,124,284,210
India,Rajasthan,Banswara,"Rati Talai, Banswara - RSPCB",29-03-2024 15:00:00,23.555190,74.440010,PM2.5,45,219,101
India,Rajasthan,Banswara,"Rati Talai, Banswara - RSPCB",29-03-2024 15:00:00,23.555190,74.440010,OZONE,8,116,36
India,Rajasthan,Baran,"Bamboliya, Baran - RSPCB",29-03-2024 15:00:00,25.106006,76.469948,NO2,10,108,39
India,Rajasthan,Baran,"Bamboliya, Baran - RSPCB",29-03-2024 15:00:00,25.106006,76.469948,SO2,7,31,12
India,Rajasthan,Barmer,"Railway Colony, Barmer - RSPCB",29-03-2024 15:00:00,25.747299,71.393989,PM2.5,14,57,37
India,Rajasthan,Barmer,"Railway Colony, Barmer - RSPCB",29-03-2024 15:00:00,25.747299,71.393989,PM10,63,190,131
India,Rajasthan,Barmer,"Railway Colony, Barmer - RSPCB",29-03-2024 15:00:00,25.747299,71.393989,NH3,9,18,12
India,Rajasthan,Barmer,"Railway Colony, Barmer - RSPCB",29-03-2024 15:00:00,25.747299,71.393989,CO,3,25,20
India,Rajasthan,Bharatpur,"Krishna Nagar, Bharatpur - RSPCB",29-03-2024 15:00:00,27.215415,77.50873,PM10,100,234,151
India,Rajasthan,Bhilwara,"Pratap Nagar, Bhilwara - RSPCB",29-03-2024 15:00:00,25.339605,74.618883,NO2,12,60,23
India,Rajasthan,Bhiwadi,"RIICO Ind. Area III, Bhiwadi - RSPCB",29-03-2024 15:00:00,28.194909,76.862296,PM2.5,51,273,136
India,Rajasthan,Bhiwadi,"RIICO Ind. Area III, Bhiwadi - RSPCB",29-03-2024 15:00:00,28.194909,76.862296,PM10,93,184,140
India,Rajasthan,Bhiwadi,"RIICO Ind. Area III, Bhiwadi - RSPCB",29-03-2024 15:00:00,28.194909,76.862296,OZONE,3,54,26
India,Rajasthan,Bhiwadi,"Vasundhara Nagar_UIT, Bhiwadi - RSPCB",29-03-2024 15:00:00,28.207266,76.829265,PM2.5,14,88,40
India,Rajasthan,Bhiwadi,"Vasundhara Nagar_UIT, Bhiwadi - RSPCB",29-03-2024 15:00:00,28.207266,76.829265,CO,16,38,30
India,Rajasthan,Bhiwadi,"Vasundhara Nagar_UIT, Bhiwadi - RSPCB",29-03-2024 15:00:00,28.207266,76.829265,OZONE,8,84,40
India,Rajasthan,Bikaner,"MM Ground, Bikaner - RSPCB",29-03-2024 15:00:00,28.018792,73.292658,PM2.5,28,84,45
India,Rajasthan,Bikaner,"MM Ground, Bikaner - RSPCB",29-03-2024 15:00:00,28.018792,73.292658,OZONE,24,79,49
India,Rajasthan,Bundi,"New Colony, Bundi - RSPCB",29-03-2024 15:00:00,25.435774,75.644272,CO,8,101,16
India,Rajasthan,Churu,"Subash Chowk, Churu - RSPCB",29-03-2024 15:00:00,28.296139,74.961696,NO2,NA,NA,NA
India,Rajasthan,Churu,"Subash Chowk, Churu - RSPCB",29-03-2024 15:00:00,28.296139,74.961696,OZONE,45,153,153
India,Rajasthan,Dholpur,"Raja Ganj, Dholpur - RSPCB",29-03-2024 15:00:00,26.699557,77.898881,CO,7,57,29
India,Rajasthan,Dholpur,"Raja Ganj, Dholpur - RSPCB",29-03-2024 15:00:00,26.699557,77.898881,OZONE,16,140,80
India,Rajasthan,Dungarpur,"Bhoiwada, Dungarpur - RSPCB",29-03-2024 15:00:00,23.837789,73.714926,CO,26,45,34
India,Rajasthan,Hanumangarh,"Housing Board, Hanumangarh - RSPCB",29-03-2024 15:00:00,29.610750,74.283608,NH3,6,17,11
India,Rajasthan,Hanumangarh,"Housing Board, Hanumangarh - RSPCB",29-03-2024 15:00:00,29.610750,74.283608,OZONE,6,51,31
India,Rajasthan,Jaipur,"Adarsh Nagar, Jaipur - RSPCB",29-03-2024 15:00:00,26.902909,75.836858,NH3,2,10,4
India,Rajasthan,Jaipur,"Adarsh Nagar, Jaipur - RSPCB",29-03-2024 15:00:00,26.902909,75.836858,CO,16,68,30
India,Rajasthan,Jaipur,"Adarsh Nagar, Jaipur - RSPCB",29-03-2024 15:00:00,26.902909,75.836858,OZONE,12,48,42
India,Rajasthan,Jaipur,"Mansarovar Sector-12, Jaipur - RSPCB",29-03-2024 15:00:00,26.843698,75.766894,PM10,NA,NA,NA
India,Rajasthan,Jaipur,"Mansarovar Sector-12, Jaipur - RSPCB",29-03-2024 15:00:00,26.843698,75.766894,NH3,NA,NA,NA
India,Rajasthan,Jaipur,"Mansarovar Sector-12, Jaipur - RSPCB",29-03-2024 15:00:00,26.843698,75.766894,CO,28,48,39
India,Rajasthan,Jaipur,"Police Commissionerate, Jaipur - RSPCB",29-03-2024 15:00:00,26.9164092,75.7994901,OZONE,16,112,86
India,Rajasthan,Jaipur,"RIICO Sitapura, Jaipur - RSPCB",29-03-2024 15:00:00,26.786682,75.827928,NH3,1,23,6
India,Rajasthan,Jaipur,"RIICO Sitapura, Jaipur - RSPCB",29-03-2024 15:00:00,26.786682,75.827928,SO2,15,33,21
India,Rajasthan,Jaipur,"RIICO Sitapura, Jaipur - RSPCB",29-03-2024 15:00:00,26.786682,75.827928,CO,27,114,50
India,Rajasthan,Jaipur,"Sector-2 Murlipura, Jaipur - RSPCB",29-03-2024 15:00:00,26.960669,75.771817,CO,29,88,45
India,Rajasthan,Jaipur,"Shastri Nagar, Jaipur - RSPCB",29-03-2024 15:00:00,26.9502929,75.730943,NO2,1,76,16
India,Rajasthan,Jaipur,"Shastri Nagar, Jaipur - RSPCB",29-03-2024 15:00:00,26.9502929,75.730943,CO,20,105,55
India,Rajasthan,Jaisalmer,"Sadar Bazar, Jaisalmer - RSPCB",29-03-2024 15:00:00,26.912329,70.909168,PM2.5,11,78,31
India,Rajasthan,Jhalawar,"Rajlaxmi Nagar, Jhalawar - RSPCB",29-03-2024 15:00:00,24.588397,76.172782,NH3,4,10,7
India,Rajasthan,Jhunjhunu,"Indra Nagar, Jhunjhunu - RSPCB",29-03-2024 15:00:00,28.108988,75.386577,PM2.5,22,144,48
India,Rajasthan,Jhunjhunu,"Indra Nagar, Jhunjhunu - RSPCB",29-03-2024 15:00:00,28.108988,75.386577,NO2,18,32,25
India,Rajasthan,Jhunjhunu,"Indra Nagar, Jhunjhunu - RSPCB",29-03-2024 15:00:00,28.108988,75.386577,SO2,5,18,10
India,Rajasthan,Jhunjhunu,"Indra Nagar, Jhunjhunu - RSPCB",29-03-2024 15:00:00,28.108988,75.386577,CO,2,33,24
India,Rajasthan,Jhunjhunu,"Indra Nagar, Jhunjhunu - RSPCB",29-03-2024 15:00:00,28.108988,75.386577,OZONE,3,76,50
India,Rajasthan,Jodhpur,"Collectorate, Jodhpur - RSPCB",29-03-2024 15:00:00,26.268249,73.0193853,PM2.5,20,123,65
India,Rajasthan,Jodhpur,"Digari Kalan, Jodhpur - RSPCB",29-03-2024 15:00:00,26.295810,73.082283,PM10,100,390,168
India,Rajasthan,Jodhpur,"Jhalamand, Jodhpur - RSPCB",29-03-2024 15:00:00,26.215415,73.070156,SO2,4,19,7
India,Rajasthan,Jodhpur,"Mandor, Jodhpur - RSPCB",29-03-2024 15:00:00,26.358805,73.047444,NH3,5,11,8
India,Rajasthan,Jodhpur,"Mandor, Jodhpur - RSPCB",29-03-2024 15:00:00,26.358805,73.047444,SO2,1,2,2
India,Rajasthan,Kota,"Dhanmandi, Kota - RSPCB",29-03-2024 15:00:00,25.164090,75.858137,PM2.5,11,93,42
India,Rajasthan,Kota,"Shrinath Puram, Kota - RSPCB",29-03-2024 15:00:00,25.14389,75.821256,NH3,3,4,4
India,Rajasthan,Kota,"Shrinath Puram, Kota - RSPCB",29-03-2024 15:00:00,25.14389,75.821256,SO2,6,14,10
India,Rajasthan,Nagaur,"Karni Colony, Nagaur - RSPCB",29-03-2024 15:00:00,27.213494,73.734444,PM2.5,22,62,38
India,Rajasthan,Pratapgarh,"Pragati Nagar, Pratapgarh - RSPCB",29-03-2024 15:00:00,24.041198,74.780702,NH3,5,8,6
India,Rajasthan,Rajsamand,"Dhoinda, Rajsamand - RSPCB",29-03-2024 15:00:00,25.036360,73.883502,OZONE,25,66,42
India,Rajasthan,Sawai Madhopur,"Sahu Nagar, Sawai Madhopur - RSPCB",29-03-2024 15:00:00,26.031443,76.359327,PM10,67,282,127
India,Rajasthan,Sawai Madhopur,"Sahu Nagar, Sawai Madhopur - RSPCB",29-03-2024 15:00:00,26.031443,76.359327,CO,9,118,22
India,Rajasthan,Sikar,"Radhakishan Pura, Sikar - RSPCB",29-03-2024 15:00:00,27.608912,75.153302,OZONE,43,138,86
India,Rajasthan,Sirohi,"Vedhaynath Colony, Sirohi - RSPCB",29-03-2024 15:00:00,24.885261,72.857549,NO2,4,27,10
India,Rajasthan,Udaipur,"Ashok Nagar, Udaipur - RSPCB",29-03-2024 15:00:00,24.5886166,73.6321397,PM2.5,66,302,125
India,Rajasthan,Udaipur,"Ashok Nagar, Udaipur - RSPCB",29-03-2024 15:00:00,24.5886166,73.6321397,CO,8,72,34
India,Sikkim,Gangtok,"Zero Point GICI, Gangtok - SSPCB",29-03-2024 15:00:00,27.338530,88.614099,NO2,1,8,3
India,Sikkim,Gangtok,"Zero Point GICI, Gangtok - SSPCB",29-03-2024 15:00:00,27.338530,88.614099,OZONE,21,65,44
India,TamilNadu,Ariyalur,"Keelapalur, Ariyalur - TNPCB",29-03-2024 15:00:00,11.06825,79.07033,PM2.5,NA,NA,NA
India,TamilNadu,Ariyalur,"Keelapalur, Ariyalur - TNPCB",29-03-2024 15:00:00,11.06825,79.07033,PM10,24,43,31
India,TamilNadu,Chengalpattu,"Crescent University, Chengalpattu - TNPCB",29-03-2024 15:00:00,12.8777316,80.0834807,PM2.5,NA,NA,NA
India,TamilNadu,Chengalpattu,"Crescent University, Chengalpattu - TNPCB",29-03-2024 15:00:00,12.8777316,80.0834807,CO,24,28,26
India,TamilNadu,Chennai,"Alandur Bus Depot, Chennai - CPCB",29-03-2024 15:00:00,12.9099161,80.1076538,PM10,36,60,45
India,TamilNadu,Chennai,"Arumbakkam, Chennai - TNPCB",29-03-2024 15:00:00,13.0664,80.2112 ,NO2,9,21,14
India,TamilNadu,Chennai,"Kodungaiyur, Chennai - TNPCB",29-03-2024 15:00:00,13.1278,80.2642,PM10,30,82,54
India,TamilNadu,Chennai,"Kodungaiyur, Chennai - TNPCB",29-03-2024 15:00:00,13.1278,80.2642,OZONE,5,7,6
India,TamilNadu,Chennai,"Perungudi, Chennai - TNPCB",29-03-2024 15:00:00,12.9533,80.2357,PM10,34,93,54
India,TamilNadu,Chennai,"Perungudi, Chennai - TNPCB",29-03-2024 15:00:00,12.9533,80.2357,NH3,2,3,2
India,TamilNadu,Chennai,"Royapuram, Chennai - TNPCB",29-03-2024 15:00:00,13.1036,80.2909,PM2.5,14,42,25
India,TamilNadu,Chennai,"Royapuram, Chennai - TNPCB",29-03-2024 15:00:00,13.1036,80.2909,NH3,1,1,1
India,TamilNadu,Chennai,"Royapuram, Chennai - TNPCB",29-03-2024 15:00:00,13.1036,80.2909,OZONE,9,11,10
India,TamilNadu,Coimbatore,"PSG College of Arts and Science, Coimbatore - TNPCB",29-03-2024 15:00:00,11.0328,77.0349,PM2.5,8,80,49
India,TamilNadu,Coimbatore,"PSG College of Arts and Science, Coimbatore - TNPCB",29-03-2024 15:00:00,11.0328,77.0349,SO2,8,51,27
India,TamilNadu,Cuddalore,"Kudikadu, Cuddalore - TNPCB",29-03-2024 15:00:00,11.6829898,79.7532099,PM10,30,126,62
India,TamilNadu,Cuddalore,"Kudikadu, Cuddalore - TNPCB",29-03-2024 15:00:00,11.6829898,79.7532099,SO2,14,20,16
India,TamilNadu,Cuddalore,"Semmandalam, Cuddalore - TNPCB",29-03-2024 15:00:00,11.7637683,79.7499835,PM10,8,37,16
India,TamilNadu,Cuddalore,"Semmandalam, Cuddalore - TNPCB",29-03-2024 15:00:00,11.7637683,79.7499835,NO2,3,18,10
India,TamilNadu,Cuddalore,"Semmandalam, Cuddalore - TNPCB",29-03-2024 15:00:00,11.7637683,79.7499835,OZONE,1,2,2
India,TamilNadu,Gummidipoondi,"Anthoni Pillai Nagar, Gummidipoondi - TNPCB",29-03-2024 15:00:00,13.4127,80.1081,PM2.5,23,253,84
India,TamilNadu,Ooty,"Bombay Castel, Ooty - TNPCB",29-03-2024 15:00:00,11.4068288,76.7138973,PM2.5,28,157,64
India,TamilNadu,Ramanathapuram,"Chalai Bazaar, Ramanathapuram - TNPCB",29-03-2024 15:00:00,9.36399,78.831977,PM2.5,24,48,37
India,TamilNadu,Ramanathapuram,"Chalai Bazaar, Ramanathapuram - TNPCB",29-03-2024 15:00:00,9.36399,78.831977,SO2,6,10,8
India,TamilNadu,Ramanathapuram,"Chalai Bazaar, Ramanathapuram - TNPCB",29-03-2024 15:00:00,9.36399,78.831977,OZONE,12,14,14
India,TamilNadu,Salem,"Sona College of Technology, Salem - TNPCB",29-03-2024 15:00:00,11.679111,78.125052,PM2.5,NA,NA,NA
India,TamilNadu,Salem,"Sona College of Technology, Salem - TNPCB",29-03-2024 15:00:00,11.679111,78.125052,PM10,NA,NA,NA
India,TamilNadu,Vellore,"Vasanthapuram, Vellore - TNPCB",29-03-2024 15:00:00,12.909494,79.131861,PM10,32,90,57
India,TamilNadu,Vellore,"Vasanthapuram, Vellore - TNPCB",29-03-2024 15:00:00,12.909494,79.131861,CO,64,66,66
India,TamilNadu,Virudhunagar,"Collectorate Office, Virudhunagar - TNPCB",29-03-2024 15:00:00,9.559382,77.948828,CO,32,42,33
India,Telangana,Hyderabad,"Bollaram Industrial Area, Hyderabad - TSPCB",29-03-2024 15:00:00,17.540891,78.358528,NO2,21,61,40
India,Telangana,Hyderabad,"Bollaram Industrial Area, Hyderabad - TSPCB",29-03-2024 15:00:00,17.540891,78.358528,NH3,2,5,4
India,Telangana,Hyderabad,"Central University, Hyderabad - TSPCB",29-03-2024 15:00:00,17.460103,78.334361,SO2,6,11,9
India,Telangana,Hyderabad,"Central University, Hyderabad - TSPCB",29-03-2024 15:00:00,17.460103,78.334361,OZONE,3,4,4
India,Telangana,Hyderabad,"ECIL Kapra, Hyderabad - TSPCB",29-03-2024 15:00:00,17.470431,78.566959,NH3,NA,NA,NA
India,Telangana,Hyderabad,"ECIL Kapra, Hyderabad - TSPCB",29-03-2024 15:00:00,17.470431,78.566959,CO,14,20,16
India,Telangana,Hyderabad,"ICRISAT Patancheru, Hyderabad - TSPCB",29-03-2024 15:00:00,17.518400,78.278777,PM2.5,47,87,63
India,Telangana,Hyderabad,"ICRISAT Patancheru, Hyderabad - TSPCB",29-03-2024 15:00:00,17.518400,78.278777,CO,34,92,56
India,Telangana,Hyderabad,"Kokapet, Hyderabad - TSPCB",29-03-2024 15:00:00,17.393559,78.339194,CO,20,26,25
India,Telangana,Hyderabad,"Kompally Municipal Office, Hyderabad - TSPCB",29-03-2024 15:00:00,17.544899,78.486949,CO,27,44,33
India,Telangana,Hyderabad,"Kompally Municipal Office, Hyderabad - TSPCB",29-03-2024 15:00:00,17.544899,78.486949,OZONE,33,93,85
India,Telangana,Hyderabad,"Nacharam_TSIIC IALA, Hyderabad - TSPCB",29-03-2024 15:00:00,17.429398,78.569354,SO2,9,24,17
India,Telangana,Hyderabad,"Nacharam_TSIIC IALA, Hyderabad - TSPCB",29-03-2024 15:00:00,17.429398,78.569354,CO,26,44,32
India,Telangana,Hyderabad,"New Malakpet, Hyderabad - TSPCB",29-03-2024 15:00:00,17.37206,78.50864,NO2,17,34,23
India,Telangana,Hyderabad,"Ramachandrapuram, Hyderabad - TSPCB",29-03-2024 15:00:00,17.528544,78.286195,PM2.5,NA,NA,NA
India,Telangana,Hyderabad,"Sanathnagar, Hyderabad - TSPCB",29-03-2024 15:00:00,17.4559458,78.4332152,NO2,18,30,28
India,Telangana,Hyderabad,"Sanathnagar, Hyderabad - TSPCB",29-03-2024 15:00:00,17.4559458,78.4332152,SO2,1,42,8
India,Telangana,Hyderabad,"Somajiguda, Hyderabad - TSPCB",29-03-2024 15:00:00,17.417094,78.457437,NO2,22,33,28
India,Uttar_Pradesh,Agra,"Rohta, Agra - UPPCB",29-03-2024 15:00:00,27.106972,78.000111,OZONE,15,18,16
India,Uttar_Pradesh,Agra,"Sanjay Palace, Agra - UPPCB",29-03-2024 15:00:00,27.19865833,78.00598056,PM2.5,10,38,25
India,Uttar_Pradesh,Agra,"Sanjay Palace, Agra - UPPCB",29-03-2024 15:00:00,27.19865833,78.00598056,NO2,27,46,38
India,Uttar_Pradesh,Agra,"Sanjay Palace, Agra - UPPCB",29-03-2024 15:00:00,27.19865833,78.00598056,SO2,6,10,8
India,Uttar_Pradesh,Agra,"Sector-3B Avas Vikas Colony, Agra - UPPCB",29-03-2024 15:00:00,27.19412,77.96237,PM2.5,12,67,35
India,Uttar_Pradesh,Agra,"Shahjahan Garden, Agra - UPPCB",29-03-2024 15:00:00,27.169338,78.03582,PM2.5,17,97,51
India,Uttar_Pradesh,Agra,"Shahjahan Garden, Agra - UPPCB",29-03-2024 15:00:00,27.169338,78.03582,SO2,17,42,34
India,Uttar_Pradesh,Agra,"Shastripuram, Agra - UPPCB",29-03-2024 15:00:00,27.19862,77.92066,NO2,37,144,52
India,Uttar_Pradesh,Baghpat,"Sardar Patel Inter College, Baghpat - UPPCB",29-03-2024 15:00:00,28.964949,77.278761,PM10,71,142,101
India,Uttar_Pradesh,Baghpat,"Sardar Patel Inter College, Baghpat - UPPCB",29-03-2024 15:00:00,28.964949,77.278761,NH3,1,3,3
India,Uttar_Pradesh,Bareilly,"Rajendra Nagar, Bareilly - UPPCB",29-03-2024 15:00:00,28.38910936,79.42963708,PM10,50,122,82
India,Uttar_Pradesh,Firozabad,"Nagla Bhau, Firozabad - UPPCB",29-03-2024 15:00:00,27.168897,78.376960,SO2,12,21,15
India,Uttar_Pradesh,Firozabad,"Vibhab Nagar, Firozabad - UPPCB",29-03-2024 15:00:00,27.1594,78.3953,SO2,14,77,28
India,Uttar_Pradesh,Ghaziabad,"Loni, Ghaziabad - UPPCB",29-03-2024 15:00:00,28.757294,77.278792,SO2,12,47,22
India,Uttar_Pradesh,Ghaziabad,"Sanjay Nagar, Ghaziabad - UPPCB",29-03-2024 15:00:00,28.685382,77.453839,NO2,33,65,46
India,Uttar_Pradesh,Ghaziabad,"Vasundhara, Ghaziabad - UPPCB",29-03-2024 15:00:00,28.6603346,77.3572563,SO2,3,101,40
India,Uttar_Pradesh,Gorakhpur,"Madan Mohan Malaviya University of Technology, Gorakhpur - UPPCB",29-03-2024 15:00:00,26.730136,83.433859,NO2,2,2,2
India,Uttar_Pradesh,Gorakhpur,"Madan Mohan Malaviya University of Technology, Gorakhpur - UPPCB",29-03-2024 15:00:00,26.730136,83.433859,CO,9,20,16
India,Uttar_Pradesh,Greater Noida,"Knowledge Park - V, Greater Noida - UPPCB",29-03-2024 15:00:00,28.557054,77.453663,PM2.5,67,238,114
India,Uttar_Pradesh,Greater Noida,"Knowledge Park - V, Greater Noida - UPPCB",29-03-2024 15:00:00,28.557054,77.453663,CO,56,113,110
India,Uttar_Pradesh,Greater Noida,"Knowledge Park - V, Greater Noida - UPPCB",29-03-2024 15:00:00,28.557054,77.453663,OZONE,3,227,153
India,Uttar_Pradesh,Hapur,"Anand Vihar, Hapur - UPPCB",29-03-2024 15:00:00,28.725645,77.749675,PM10,77,137,107
India,Uttar_Pradesh,Hapur,"Anand Vihar, Hapur - UPPCB",29-03-2024 15:00:00,28.725645,77.749675,CO,14,104,86
India,Uttar_Pradesh,Kanpur,"FTI Kidwai Nagar, Kanpur - UPPCB",29-03-2024 15:00:00,26.428282,80.327067,PM2.5,54,306,119
India,Uttar_Pradesh,Kanpur,"FTI Kidwai Nagar, Kanpur - UPPCB",29-03-2024 15:00:00,26.428282,80.327067,CO,30,82,38
India,Uttar_Pradesh,Kanpur,"FTI Kidwai Nagar, Kanpur - UPPCB",29-03-2024 15:00:00,26.428282,80.327067,OZONE,3,8,6
India,Uttar_Pradesh,Kanpur,"NSI Kalyanpur, Kanpur - UPPCB",29-03-2024 15:00:00,26.509954,80.249612,PM10,76,140,113
India,Uttar_Pradesh,Kanpur,"Nehru Nagar, Kanpur - UPPCB",29-03-2024 15:00:00,26.4703136,80.3229863,PM10,29,151,92
India,Uttar_Pradesh,Kanpur,"Nehru Nagar, Kanpur - UPPCB",29-03-2024 15:00:00,26.4703136,80.3229863,SO2,1,9,7
India,Uttar_Pradesh,Kanpur,"Nehru Nagar, Kanpur - UPPCB",29-03-2024 15:00:00,26.4703136,80.3229863,CO,2,66,60
India,Uttar_Pradesh,Kanpur,"Nehru Nagar, Kanpur - UPPCB",29-03-2024 15:00:00,26.4703136,80.3229863,OZONE,8,60,44
India,Uttar_Pradesh,Khurja,"Kalindi Kunj, Khurja - UPPCB",29-03-2024 15:00:00,28.2348927,77.8683002,PM2.5,40,155,89
India,Uttar_Pradesh,Khurja,"Kalindi Kunj, Khurja - UPPCB",29-03-2024 15:00:00,28.2348927,77.8683002,SO2,45,65,49
India,Uttar_Pradesh,Khurja,"Kalindi Kunj, Khurja - UPPCB",29-03-2024 15:00:00,28.2348927,77.8683002,CO,36,59,53
India,Uttar_Pradesh,Lucknow,"B R Ambedkar University, Lucknow - UPPCB",29-03-2024 15:00:00,26.766433,80.927299,OZONE,24,78,52
India,Uttar_Pradesh,Lucknow,"Kendriya Vidyalaya, Lucknow - CPCB",29-03-2024 15:00:00,26.906111,80.948222,PM2.5,67,131,86
India,Uttar_Pradesh,Lucknow,"Kendriya Vidyalaya, Lucknow - CPCB",29-03-2024 15:00:00,26.906111,80.948222,NH3,3,17,11
India,Uttar_Pradesh,Lucknow,"Kukrail Picnic Spot-1, Lucknow - UPPCB",29-03-2024 15:00:00,26.90723,80.98579,CO,20,31,24
India,Uttar_Pradesh,Lucknow,"Lalbagh, Lucknow - CPCB",29-03-2024 15:00:00,26.8458805,80.9365541,NO2,2,30,7
India,Uttar_Pradesh,Lucknow,"Lalbagh, Lucknow - CPCB",29-03-2024 15:00:00,26.8458805,80.9365541,NH3,12,15,12
India,Uttar_Pradesh,Lucknow,"Lalbagh, Lucknow - CPCB",29-03-2024 15:00:00,26.8458805,80.9365541,CO,64,119,71
India,Uttar_Pradesh,Meerut,"Ganga Nagar, Meerut - UPPCB",29-03-2024 15:00:00,28.999264,77.7590354,NH3,8,13,10
India,Uttar_Pradesh,Meerut,"Jai Bhim Nagar, Meerut - UPPCB",29-03-2024 15:00:00,28.9535882,77.7622941,PM2.5,25,205,71
India,Uttar_Pradesh,Meerut,"Jai Bhim Nagar, Meerut - UPPCB",29-03-2024 15:00:00,28.9535882,77.7622941,NH3,7,10,8
India,Uttar_Pradesh,Meerut,"Pallavpuram Phase 2, Meerut - UPPCB",29-03-2024 15:00:00,29.063510,77.709723,PM10,98,180,123
India,Uttar_Pradesh,Meerut,"Pallavpuram Phase 2, Meerut - UPPCB",29-03-2024 15:00:00,29.063510,77.709723,NH3,10,15,12
India,Uttar_Pradesh,Meerut,"Pallavpuram Phase 2, Meerut - UPPCB",29-03-2024 15:00:00,29.063510,77.709723,OZONE,3,96,56
India,Uttar_Pradesh,Moradabad,"Eco Herbal Park, Moradabad - UPPCB",29-03-2024 15:00:00,28.840739,78.697531,PM10,80,124,99
India,Uttar_Pradesh,Moradabad,"Eco Herbal Park, Moradabad - UPPCB",29-03-2024 15:00:00,28.840739,78.697531,CO,24,54,34
India,Uttar_Pradesh,Moradabad,"Employment Office, Moradabad - UPPCB",29-03-2024 15:00:00,28.88528,78.73880,PM2.5,51,99,71
India,Uttar_Pradesh,Moradabad,"Jigar Colony, Moradabad - UPPCB",29-03-2024 15:00:00,28.856664,78.772638,NO2,23,25,24
India,Uttar_Pradesh,Moradabad,"Jigar Colony, Moradabad - UPPCB",29-03-2024 15:00:00,28.856664,78.772638,NH3,5,5,5
India,Uttar_Pradesh,Moradabad,"Jigar Colony, Moradabad - UPPCB",29-03-2024 15:00:00,28.856664,78.772638,SO2,16,21,19
India,Uttar_Pradesh,Moradabad,"Transport Nagar, Moradabad - UPPCB",29-03-2024 15:00:00,28.802625,78.753728,SO2,43,54,48
India,Uttar_Pradesh,Muzaffarnagar,"New Mandi, Muzaffarnagar - UPPCB",29-03-2024 15:00:00,29.4723508,77.7194031,NH3,10,19,12
India,Uttar_Pradesh,Muzaffarnagar,"New Mandi, Muzaffarnagar - UPPCB",29-03-2024 15:00:00,29.4723508,77.7194031,CO,17,66,58
India,Uttar_Pradesh,Noida,"Sector - 125, Noida - UPPCB",29-03-2024 15:00:00,28.5447608,77.3231257,PM2.5,35,149,74
India,Uttar_Pradesh,Noida,"Sector - 125, Noida - UPPCB",29-03-2024 15:00:00,28.5447608,77.3231257,NO2,20,141,78
India,Uttar_Pradesh,Noida,"Sector - 125, Noida - UPPCB",29-03-2024 15:00:00,28.5447608,77.3231257,NH3,7,15,10
India,Uttar_Pradesh,Noida,"Sector - 125, Noida - UPPCB",29-03-2024 15:00:00,28.5447608,77.3231257,OZONE,5,241,182
India,Uttar_Pradesh,Noida,"Sector-1, Noida - UPPCB",29-03-2024 15:00:00,28.5898,77.3101,PM2.5,58,304,126
India,Uttar_Pradesh,Noida,"Sector-1, Noida - UPPCB",29-03-2024 15:00:00,28.5898,77.3101,NH3,3,7,4
India,Uttar_Pradesh,Noida,"Sector-1, Noida - UPPCB",29-03-2024 15:00:00,28.5898,77.3101,SO2,14,49,26
India,Uttar_Pradesh,Noida,"Sector-116, Noida - UPPCB",29-03-2024 15:00:00,28.569230,77.393848,NO2,14,92,48
India,Uttar_Pradesh,Noida,"Sector-116, Noida - UPPCB",29-03-2024 15:00:00,28.569230,77.393848,CO,41,100,69
India,Uttar_Pradesh,Noida,"Sector-116, Noida - UPPCB",29-03-2024 15:00:00,28.569230,77.393848,OZONE,2,45,19
India,Uttar_Pradesh,Prayagraj,"Motilal Nehru NIT, Prayagraj - UPPCB",29-03-2024 15:00:00,25.494,81.863,CO,12,33,21
India,Uttar_Pradesh,Prayagraj,"Nagar Nigam, Prayagraj - UPPCB",29-03-2024 15:00:00,25.44919916 ,81.82735986 ,CO,14,66,21
India,Uttar_Pradesh,Varanasi,"Ardhali Bazar, Varanasi - UPPCB",29-03-2024 15:00:00,25.3505986,82.9083074,PM10,16,160,35
India,Uttar_Pradesh,Varanasi,"Bhelupur, Varanasi - UPPCB",29-03-2024 15:00:00,25.301778,82.996789,PM10,24,42,32
India,Uttar_Pradesh,Varanasi,"IESD Banaras Hindu University, Varanasi - UPPCB",29-03-2024 15:00:00,25.262326,82.995408,NO2,2,3,2
India,Uttar_Pradesh,Varanasi,"IESD Banaras Hindu University, Varanasi - UPPCB",29-03-2024 15:00:00,25.262326,82.995408,NH3,1,2,1
India,Uttar_Pradesh,Varanasi,"IESD Banaras Hindu University, Varanasi - UPPCB",29-03-2024 15:00:00,25.262326,82.995408,CO,8,13,9
India,Uttar_Pradesh,Vrindavan,"Omex Eternity, Vrindavan - UPPCB",29-03-2024 15:00:00,27.5714090,77.6557570,SO2,40,46,42
India,Uttarakhand,Dehradun,"Doon University, Dehradun - UKPCB",29-03-2024 15:00:00,30.269444,78.044167,PM2.5,31,81,54
India,Uttarakhand,Kashipur,"Govt. Girls Inter College, Kashipur - UKPCB",29-03-2024 15:00:00,29.2124114,78.9611753,PM2.5,55,254,122
India,Uttarakhand,Kashipur,"Govt. Girls Inter College, Kashipur - UKPCB",29-03-2024 15:00:00,29.2124114,78.9611753,NO2,4,20,8
India,Uttarakhand,Rishikesh,"Shivaji Nagar, Rishikesh - UKPCB",29-03-2024 15:00:00,30.075911,78.2859547,PM2.5,13,79,52
India,Uttarakhand,Rishikesh,"Shivaji Nagar, Rishikesh - UKPCB",29-03-2024 15:00:00,30.075911,78.2859547,SO2,4,6,5
India,West_Bengal,Asansol,"Asansol Court Area, Asansol - WBPCB",29-03-2024 15:00:00,23.685297,86.945968,CO,12,70,45
India,West_Bengal,Barrackpore,"SVSPA Campus, Barrackpore - WBPCB",29-03-2024 15:00:00,22.7605581,88.3617589,PM10,72,153,109
India,West_Bengal,Barrackpore,"SVSPA Campus, Barrackpore - WBPCB",29-03-2024 15:00:00,22.7605581,88.3617589,SO2,4,12,7
India,West_Bengal,Durgapur,"Sidhu Kanhu Indoor Stadium, Durgapur - WBPCB",29-03-2024 15:00:00,23.5404352,87.2892225,PM10,90,155,114
India,West_Bengal,Durgapur,"Sidhu Kanhu Indoor Stadium, Durgapur - WBPCB",29-03-2024 15:00:00,23.5404352,87.2892225,SO2,8,81,33
India,West_Bengal,Durgapur,"Sidhu Kanhu Indoor Stadium, Durgapur - WBPCB",29-03-2024 15:00:00,23.5404352,87.2892225,OZONE,7,79,29
India,West_Bengal,Haldia,"Priyambada Housing Estate, Haldia - WBPCB",29-03-2024 15:00:00,22.06047,88.109737,NO2,10,21,14
India,West_Bengal,Howrah,"Belur Math, Howrah - WBPCB",29-03-2024 15:00:00,22.629801,88.352017,PM10,48,111,80
India,West_Bengal,Howrah,"Belur Math, Howrah - WBPCB",29-03-2024 15:00:00,22.629801,88.352017,NH3,2,14,3
India,West_Bengal,Howrah,"Belur Math, Howrah - WBPCB",29-03-2024 15:00:00,22.629801,88.352017,CO,3,36,12
India,West_Bengal,Howrah,"Ghusuri, Howrah - WBPCB",29-03-2024 15:00:00,22.611968,88.347422,CO,2,36,9
India,West_Bengal,Howrah,"Padmapukur, Howrah - WBPCB",29-03-2024 15:00:00,22.5687319,88.2797276,PM2.5,43,89,64
India,West_Bengal,Howrah,"Padmapukur, Howrah - WBPCB",29-03-2024 15:00:00,22.5687319,88.2797276,NO2,6,8,7
India,West_Bengal,Kolkata,"Ballygunge, Kolkata - WBPCB",29-03-2024 15:00:00,22.5367507,88.3638022,PM2.5,41,141,77
India,West_Bengal,Kolkata,"Bidhannagar, Kolkata - WBPCB",29-03-2024 15:00:00,22.58157048,88.41002457,CO,20,42,23
India,West_Bengal,Kolkata,"Fort William, Kolkata - WBPCB",29-03-2024 15:00:00,22.556640,88.342674,NO2,9,101,29
India,West_Bengal,Kolkata,"Jadavpur, Kolkata - WBPCB",29-03-2024 15:00:00,22.49929,88.36917,SO2,5,18,8
India,West_Bengal,Kolkata,"Rabindra Bharati University, Kolkata - WBPCB",29-03-2024 15:00:00,22.627847,88.380669,NH3,7,7,7
India,West_Bengal,Kolkata,"Rabindra Sarobar, Kolkata - WBPCB",29-03-2024 15:00:00,22.51106,88.35142,NO2,5,59,23
India,West_Bengal,Kolkata,"Rabindra Sarobar, Kolkata - WBPCB",29-03-2024 15:00:00,22.51106,88.35142,NH3,4,7,5
India,West_Bengal,Kolkata,"Rabindra Sarobar, Kolkata - WBPCB",29-03-2024 15:00:00,22.51106,88.35142,CO,5,40,16
India,West_Bengal,Kolkata,"Victoria, Kolkata - WBPCB",29-03-2024 15:00:00,22.5448082,88.3403691,NH3,2,2,2
India,West_Bengal,Kolkata,"Victoria, Kolkata - WBPCB",29-03-2024 15:00:00,22.5448082,88.3403691,CO,18,64,24
India,West_Bengal,Siliguri,"Ward-32 Bapupara, Siliguri - WBPCB",29-03-2024 15:00:00,26.6879226,88.4152495,PM10,51,136,74
India,West_Bengal,Siliguri,"Ward-32 Bapupara, Siliguri - WBPCB",29-03-2024 15:00:00,26.6879226,88.4152495,NO2,28,130,70
India,West_Bengal,Siliguri,"Ward-32 Bapupara, Siliguri - WBPCB",29-03-2024 15:00:00,26.6879226,88.4152495,OZONE,3,53,32
India,Andhra_Pradesh,Amaravati,"Secretariat, Amaravati - APPCB",29-03-2024 15:00:00,16.5150833,80.5181667,PM10,25,54,39
India,Andhra_Pradesh,Amaravati,"Secretariat, Amaravati - APPCB",29-03-2024 15:00:00,16.5150833,80.5181667,SO2,8,14,10
India,Andhra_Pradesh,Amaravati,"Secretariat, Amaravati - APPCB",29-03-2024 15:00:00,16.5150833,80.5181667,OZONE,1,24,11
India,Andhra_Pradesh,Chittoor,"Gangineni Cheruvu, Chittoor - APPCB",29-03-2024 15:00:00,13.204880,79.097889,PM10,NA,NA,NA
India,Andhra_Pradesh,Chittoor,"Gangineni Cheruvu, Chittoor - APPCB",29-03-2024 15:00:00,13.204880,79.097889,NH3,NA,NA,NA
India,Andhra_Pradesh,Chittoor,"Gangineni Cheruvu, Chittoor - APPCB",29-03-2024 15:00:00,13.204880,79.097889,SO2,NA,NA,NA
India,Andhra_Pradesh,Rajamahendravaram,"Anand Kala Kshetram, Rajamahendravaram - APPCB",29-03-2024 15:00:00,16.9872867,81.7363176,NH3,3,5,3
India,Andhra_Pradesh,Tirupati,"Vaikuntapuram, Tirupati - APPCB",29-03-2024 15:00:00,13.615387,79.409230,PM2.5,13,226,50
India,Andhra_Pradesh,Tirupati,"Vaikuntapuram, Tirupati - APPCB",29-03-2024 15:00:00,13.615387,79.409230,OZONE,2,51,24
India,Andhra_Pradesh,Vijayawada,"HB Colony, Vijayawada - APPCB",29-03-2024 15:00:00,16.536107,80.594233,PM2.5,47,61,53
India,Andhra_Pradesh,Vijayawada,"HB Colony, Vijayawada - APPCB",29-03-2024 15:00:00,16.536107,80.594233,PM10,47,68,57
India,Andhra_Pradesh,Visakhapatnam,"GVM Corporation, Visakhapatnam - APPCB",29-03-2024 15:00:00,17.72,83.3,PM2.5,32,82,55
India,Arunachal_Pradesh,Naharlagun,"Naharlagun, Naharlagun - APSPCB",29-03-2024 15:00:00,27.103358,93.679645,PM2.5,19,500,104
India,Arunachal_Pradesh,Naharlagun,"Naharlagun, Naharlagun - APSPCB",29-03-2024 15:00:00,27.103358,93.679645,NO2,3,3,3
India,Arunachal_Pradesh,Naharlagun,"Naharlagun, Naharlagun - APSPCB",29-03-2024 15:00:00,27.103358,93.679645,SO2,4,4,4
India,Arunachal_Pradesh,Naharlagun,"Naharlagun, Naharlagun - APSPCB",29-03-2024 15:00:00,27.103358,93.679645,OZONE,2,2,2
India,Assam,Guwahati,"IITG, Guwahati - PCBA",29-03-2024 15:00:00,26.2028636,91.70046436,PM2.5,22,251,127
India,Assam,Guwahati,"IITG, Guwahati - PCBA",29-03-2024 15:00:00,26.2028636,91.70046436,PM10,45,194,111
India,Assam,Guwahati,"LGBI Airport, Guwahati - PCBA",29-03-2024 15:00:00,26.10887,91.589544,NO2,12,76,38
India,Assam,Guwahati,"LGBI Airport, Guwahati - PCBA",29-03-2024 15:00:00,26.10887,91.589544,SO2,1,30,11
India,Assam,Guwahati,"LGBI Airport, Guwahati - PCBA",29-03-2024 15:00:00,26.10887,91.589544,CO,5,83,16
India,Assam,Guwahati,"Pan Bazaar, Guwahati - PCBA",29-03-2024 15:00:00,26.187500,91.744194,NH3,5,7,5
India,Assam,Guwahati,"Railway Colony, Guwahati - PCBA",29-03-2024 15:00:00,26.181742,91.78063,PM2.5,NA,NA,NA
India,Assam,Nagaon,"Christianpatty, Nagaon - PCBA",29-03-2024 15:00:00,26.349082,92.68449,SO2,13,100,55
India,Assam,Nagaon,"Christianpatty, Nagaon - PCBA",29-03-2024 15:00:00,26.349082,92.68449,OZONE,6,103,78
India,Assam,Silchar,"Tarapur, Silchar - PCBA",29-03-2024 15:00:00,24.82827,92.79525,CO,22,48,41
India,Assam,Sivasagar,"Girls College, Sivasagar - PCBA",29-03-2024 15:00:00,26.987634,94.636574,NH3,1,2,1
India,Assam,Sivasagar,"Girls College, Sivasagar - PCBA",29-03-2024 15:00:00,26.987634,94.636574,SO2,4,4,4
India,Bihar,Araria,"Kharahiya Basti, Araria - BSPCB",29-03-2024 15:00:00,26.146529,87.454184,PM2.5,30,337,105
India,Bihar,Arrah,"New DM Office, Arrah - BSPCB",29-03-2024 15:00:00,25.5626095,84.663264,NO2,4,30,18
India,Bihar,Arrah,"New DM Office, Arrah - BSPCB",29-03-2024 15:00:00,25.5626095,84.663264,OZONE,14,48,20
India,Bihar,Aurangabad,"Gurdeo Nagar, Aurangabad - BSPCB",29-03-2024 15:00:00,24.75746,84.366208,CO,17,67,51
India,Bihar,Bettiah,"Kamalnath Nagar, Bettiah - BSPCB",29-03-2024 15:00:00,26.80365,84.51954,PM2.5,48,120,72
India,Bihar,Bettiah,"Kamalnath Nagar, Bettiah - BSPCB",29-03-2024 15:00:00,26.80365,84.51954,PM10,54,115,80
India,Bihar,Bhagalpur,"DM Office_Kachari Chowk, Bhagalpur - BSPCB",29-03-2024 15:00:00,25.251013,86.989001,PM10,101,145,115
India,Bihar,Bhagalpur,"Mayaganj, Bhagalpur - BSPCB",29-03-2024 15:00:00,25.265194,87.012947,NO2,NA,NA,NA
India,Bihar,Bhagalpur,"Mayaganj, Bhagalpur - BSPCB",29-03-2024 15:00:00,25.265194,87.012947,OZONE,15,18,16
India,Bihar,Bihar Sharif,"D M Colony, Bihar Sharif - BSPCB",29-03-2024 15:00:00,25.204762,85.514960,NO2,7,10,9
India,Bihar,Bihar Sharif,"D M Colony, Bihar Sharif - BSPCB",29-03-2024 15:00:00,25.204762,85.514960,SO2,4,16,8
India,Bihar,Bihar Sharif,"D M Colony, Bihar Sharif - BSPCB",29-03-2024 15:00:00,25.204762,85.514960,OZONE,NA,NA,NA
India,Bihar,Buxar,"Charitra Van, Buxar - BSPCB (Formerly known as Central Jail)",29-03-2024 15:00:00,25.567520,83.966379,OZONE,42,171,171
India,Bihar,Chhapra,"Darshan Nagar, Chhapra - BSPCB",29-03-2024 15:00:00,25.7808257,84.7446768,OZONE,1,14,4
India,Bihar,Gaya,"Collectorate, Gaya - BSPCB",29-03-2024 15:00:00,24.7955,84.9994,PM2.5,62,150,96
India,Bihar,Gaya,"Kareemganj, Gaya - BSPCB",29-03-2024 15:00:00,24.792403,84.992416,SO2,4,10,7
India,Bihar,Gaya,"Kareemganj, Gaya - BSPCB",29-03-2024 15:00:00,24.792403,84.992416,OZONE,2,59,20
India,Bihar,Gaya,"SFTI Kusdihra, Gaya - BSPCB",29-03-2024 15:00:00,24.762518,84.982348,PM10,70,120,89
India,Bihar,Gaya,"SFTI Kusdihra, Gaya - BSPCB",29-03-2024 15:00:00,24.762518,84.982348,OZONE,9,99,58
India,Bihar,Hajipur,"Industrial Area, Hajipur - BSPCB",29-03-2024 15:00:00,25.697189,85.245900,NO2,11,19,15
India,Bihar,Hajipur,"Industrial Area, Hajipur - BSPCB",29-03-2024 15:00:00,25.697189,85.245900,OZONE,8,52,32
India,Bihar,Katihar,"Mirchaibari, Katihar - BSPCB",29-03-2024 15:00:00,25.560083,87.553265,SO2,18,24,22
India,Bihar,Motihari,"Gandak Colony, Motihari - BSPCB",29-03-2024 15:00:00,26.63086,84.90051,NH3,9,13,11
India,Bihar,Muzaffarpur,"Buddha Colony, Muzaffarpur - BSPCB",29-03-2024 15:00:00,26.11442,85.39813,NO2,13,242,48
India,Bihar,Muzaffarpur,"MIT-Daudpur Kothi, Muzaffarpur - BSPCB",29-03-2024 15:00:00,26.1403345,85.3650192,CO,38,113,91
India,Bihar,Patna,"DRM Office Danapur, Patna - BSPCB",29-03-2024 15:00:00,25.586562,85.043586,SO2,6,8,7
India,Bihar,Patna,"DRM Office Danapur, Patna - BSPCB",29-03-2024 15:00:00,25.586562,85.043586,OZONE,11,58,34
India,Bihar,Patna,"Govt. High School Shikarpur, Patna - BSPCB",29-03-2024 15:00:00,25.592539,85.227158,PM10,117,147,135
India,Bihar,Patna,"Govt. High School Shikarpur, Patna - BSPCB",29-03-2024 15:00:00,25.592539,85.227158,SO2,9,12,10
India,Bihar,Patna,"IGSC Planetarium Complex, Patna - BSPCB",29-03-2024 15:00:00,25.610369,85.132568,CO,12,13,12
India,Bihar,Patna,"Rajbansi Nagar, Patna - BSPCB",29-03-2024 15:00:00,25.599486,85.113666,PM2.5,99,215,137
India,Bihar,Patna,"Rajbansi Nagar, Patna - BSPCB",29-03-2024 15:00:00,25.599486,85.113666,NO2,13,25,16
India,Bihar,Patna,"Samanpura, Patna - BSPCB",29-03-2024 15:00:00,25.596727,85.085624,NH3,5,11,8
India,Bihar,Purnia,"Mariam Nagar, Purnia - BSPCB",29-03-2024 15:00:00,25.366336,87.117468,SO2,5,9,7
India,Bihar,Purnia,"Mariam Nagar, Purnia - BSPCB",29-03-2024 15:00:00,25.366336,87.117468,OZONE,3,20,8
India,Bihar,Rajgir,"Dangi Tola, Rajgir - BSPCB",29-03-2024 15:00:00,25.03280,85.41948,SO2,4,4,4
India,Bihar,Saharsa,"Police Line, Saharsa - BSPCB",29-03-2024 15:00:00,25.892357,86.590325,PM10,46,133,99
India,Bihar,Saharsa,"Police Line, Saharsa - BSPCB",29-03-2024 15:00:00,25.892357,86.590325,CO,20,42,24
India,Bihar,Samastipur,"DM Office_Kasipur, Samastipur - BSPCB",29-03-2024 15:00:00,25.859655,85.77944,PM2.5,50,247,100
India,Bihar,Samastipur,"DM Office_Kasipur, Samastipur - BSPCB",29-03-2024 15:00:00,25.859655,85.77944,NO2,12,24,17
India,Bihar,Sasaram,"Dada Peer, Sasaram - BSPCB",29-03-2024 15:00:00,24.952822,84.002396,PM10,48,123,78
India,Bihar,Siwan,"Chitragupta Nagar, Siwan - BSPCB",29-03-2024 15:00:00,26.2271665,84.3570427,PM10,NA,NA,NA
India,Bihar,Siwan,"Chitragupta Nagar, Siwan - BSPCB",29-03-2024 15:00:00,26.2271665,84.3570427,OZONE,21,93,47
India,Chandigarh,Chandigarh,"Sector 22, Chandigarh - CPCC",29-03-2024 15:00:00,30.735567,76.775714,NO2,20,59,35
India,Chandigarh,Chandigarh,"Sector 22, Chandigarh - CPCC",29-03-2024 15:00:00,30.735567,76.775714,CO,27,48,39
India,Chandigarh,Chandigarh,"Sector-25, Chandigarh - CPCC",29-03-2024 15:00:00,30.751462,76.762879,OZONE,1,43,24
India,Chandigarh,Chandigarh,"Sector-53, Chandigarh - CPCC",29-03-2024 15:00:00,30.719859,76.738637,PM10,81,177,116
India,Chandigarh,Chandigarh,"Sector-53, Chandigarh - CPCC",29-03-2024 15:00:00,30.719859,76.738637,NH3,4,7,6
India,Chhattisgarh,Bhilai,"32Bungalows, Bhilai - CECB",29-03-2024 15:00:00,21.194815,81.314770,NH3,6,7,6
India,Chhattisgarh,Bhilai,"32Bungalows, Bhilai - CECB",29-03-2024 15:00:00,21.194815,81.314770,SO2,4,8,6
India,Chhattisgarh,Bhilai,"Civic Center, Bhilai - Bhilai Steel Plant",29-03-2024 15:00:00,21.185571,81.343175,SO2,2,19,9
India,Chhattisgarh,Bhilai,"Civic Center, Bhilai - Bhilai Steel Plant",29-03-2024 15:00:00,21.185571,81.343175,CO,34,80,48
India,Chhattisgarh,Bhilai,"Hathkhoj, Bhilai - CECB",29-03-2024 15:00:00,21.224231,81.408350,CO,13,59,39
India,Chhattisgarh,Bhilai,"Hathkhoj, Bhilai - CECB",29-03-2024 15:00:00,21.224231,81.408350,OZONE,6,21,15
India,Chhattisgarh,Bilaspur,"Mangala, Bilaspur - NTPC",29-03-2024 15:00:00,22.08815,82.13737,PM2.5,42,106,73
India,Chhattisgarh,Bilaspur,"Mangala, Bilaspur - NTPC",29-03-2024 15:00:00,22.08815,82.13737,PM10,40,104,77
India,Chhattisgarh,Bilaspur,"Mangala, Bilaspur - NTPC",29-03-2024 15:00:00,22.08815,82.13737,NO2,13,16,14
India,Chhattisgarh,Chhal,"Nawapara SECL Colony, Chhal - CECB",29-03-2024 15:00:00,22.118125,83.140608,PM2.5,96,171,137
India,Chhattisgarh,Korba,"Rampur, Korba - CECB",29-03-2024 15:00:00,22.368195,82.746431,PM2.5,28,64,44
India,Chhattisgarh,Milupara,"Govt. Higher Secondary School, Milupara - CECB",29-03-2024 15:00:00,22.1910172,83.5197009,SO2,NA,NA,NA
India,Chhattisgarh,Milupara,"Govt. Higher Secondary School, Milupara - CECB",29-03-2024 15:00:00,22.1910172,83.5197009,OZONE,30,42,39
India,Chhattisgarh,Raipur,"AIIMS, Raipur - CECB",29-03-2024 15:00:00,21.258815,81.578979,PM2.5,29,57,43
India,Chhattisgarh,Raipur,"AIIMS, Raipur - CECB",29-03-2024 15:00:00,21.258815,81.578979,SO2,5,15,9
India,Chhattisgarh,Raipur,"AIIMS, Raipur - CECB",29-03-2024 15:00:00,21.258815,81.578979,OZONE,2,40,11
India,Chhattisgarh,Raipur,"Bhatagaon New ISBT, Raipur - CECB",29-03-2024 15:00:00,21.219665,81.630094,PM2.5,39,58,49
India,Chhattisgarh,Raipur,"Bhatagaon New ISBT, Raipur - CECB",29-03-2024 15:00:00,21.219665,81.630094,PM10,49,80,61
India,Chhattisgarh,Raipur,"Krishak Nagar, Raipur - CECB",29-03-2024 15:00:00,21.237755,81.705301,PM2.5,34,63,50
India,Chhattisgarh,Raipur,"Krishak Nagar, Raipur - CECB",29-03-2024 15:00:00,21.237755,81.705301,PM10,46,71,59
India,Chhattisgarh,Raipur,"Siltara Phase-II, Raipur - CECB",29-03-2024 15:00:00,21.371751,81.664929,NO2,30,76,56
India,Chhattisgarh,Raipur,"Siltara Phase-II, Raipur - CECB",29-03-2024 15:00:00,21.371751,81.664929,CO,18,88,64
India,Delhi,Delhi,"Alipur, Delhi - DPCC",29-03-2024 15:00:00,28.815329,77.153010,PM10,84,188,139
India,Delhi,Delhi,"Anand Vihar, Delhi - DPCC",29-03-2024 15:00:00,28.647622,77.3158090,PM10,140,323,194
India,Delhi,Delhi,"Ashok Vihar, Delhi - DPCC",29-03-2024 15:00:00,28.695381,77.181665,SO2,23,58,38
India,Delhi,Delhi,"Ashok Vihar, Delhi - DPCC",29-03-2024 15:00:00,28.695381,77.181665,OZONE,2,28,13
India,Delhi,Delhi,"Aya Nagar, Delhi - IMD",29-03-2024 15:00:00,28.4706914,77.1099364,CO,4,24,20
India,Delhi,Delhi,"Bawana, Delhi - DPCC",29-03-2024 15:00:00,28.776200,77.051074,PM2.5,60,356,197
India,Delhi,Delhi,"Bawana, Delhi - DPCC",29-03-2024 15:00:00,28.776200,77.051074,PM10,99,270,167
India,Delhi,Delhi,"Burari Crossing, Delhi - IMD",29-03-2024 15:00:00,28.7256504,77.2011573,OZONE,13,172,76
India,Delhi,Delhi,"CRRI Mathura Road, Delhi - IMD",29-03-2024 15:00:00,28.5512005,77.2735737,CO,32,51,42
India,Delhi,Delhi,"CRRI Mathura Road, Delhi - IMD",29-03-2024 15:00:00,28.5512005,77.2735737,OZONE,2,91,44
India,Delhi,Delhi,"Chandni Chowk, Delhi - IITM",29-03-2024 15:00:00,28.656756,77.227234,NO2,NA,NA,NA
India,Delhi,Delhi,"DTU, Delhi - CPCB",29-03-2024 15:00:00,28.7500499,77.1112615,NO2,1,31,16
India,Delhi,Delhi,"DTU, Delhi - CPCB",29-03-2024 15:00:00,28.7500499,77.1112615,OZONE,26,117,28
India,Delhi,Delhi,"Dwarka-Sector 8, Delhi - DPCC ",29-03-2024 15:00:00,28.5710274,77.0719006,OZONE,2,184,180
India,Delhi,Delhi,"IHBAS, Dilshad Garden, Delhi - CPCB",29-03-2024 15:00:00,28.6811736,77.3025234,CO,9,66,52
India,Delhi,Delhi,"ITO, Delhi - CPCB",29-03-2024 15:00:00,28.628624,77.241060,NH3,2,9,5
India,Delhi,Delhi,"ITO, Delhi - CPCB",29-03-2024 15:00:00,28.628624,77.241060,CO,31,84,52
India,Delhi,Delhi,"Jawaharlal Nehru Stadium, Delhi - DPCC",29-03-2024 15:00:00,28.580280,77.233829,SO2,19,67,36
India,Delhi,Delhi,"Lodhi Road, Delhi - IITM",29-03-2024 15:00:00,28.588333,77.221667,PM10,92,480,229
India,Delhi,Delhi,"Lodhi Road, Delhi - IITM",29-03-2024 15:00:00,28.588333,77.221667,NH3,8,10,9
India,Delhi,Delhi,"Lodhi Road, Delhi - IMD",29-03-2024 15:00:00,28.5918245,77.2273074,PM2.5,35,269,103
India,Delhi,Delhi,"Lodhi Road, Delhi - IMD",29-03-2024 15:00:00,28.5918245,77.2273074,CO,9,20,18
India,Delhi,Delhi,"Major Dhyan Chand National Stadium, Delhi - DPCC",29-03-2024 15:00:00,28.611281,77.237738,OZONE,6,274,133
India,Delhi,Delhi,"Mandir Marg, Delhi - DPCC",29-03-2024 15:00:00,28.636429,77.201067,SO2,4,11,7
India,Delhi,Delhi,"Mundka, Delhi - DPCC",29-03-2024 15:00:00,28.684678,77.076574,CO,26,68,56
India,Delhi,Delhi,"Najafgarh, Delhi - DPCC",29-03-2024 15:00:00,28.570173,76.933762,PM10,80,288,147
India,Delhi,Delhi,"Narela, Delhi - DPCC",29-03-2024 15:00:00,28.822836,77.101981,CO,52,79,64
India,Delhi,Delhi,"Nehru Nagar, Delhi - DPCC",29-03-2024 15:00:00,28.567890,77.250515,PM10,107,203,149
India,Delhi,Delhi,"Nehru Nagar, Delhi - DPCC",29-03-2024 15:00:00,28.567890,77.250515,SO2,11,43,20
India,Delhi,Delhi,"New Moti Bagh, Delhi - MHUA",29-03-2024 15:00:00,28.57834,77.18400,NO2,1,18,6
India,Delhi,Delhi,"New Moti Bagh, Delhi - MHUA",29-03-2024 15:00:00,28.57834,77.18400,CO,18,44,33
India,Delhi,Delhi,"North Campus, DU, Delhi - IMD",29-03-2024 15:00:00,28.6573814,77.1585447,CO,54,101,80
India,Delhi,Delhi,"Okhla Phase-2, Delhi - DPCC",29-03-2024 15:00:00,28.530785,77.271255,NH3,10,19,15
India,Delhi,Delhi,"Okhla Phase-2, Delhi - DPCC",29-03-2024 15:00:00,28.530785,77.271255,CO,7,114,49
India,Delhi,Delhi,"Patparganj, Delhi - DPCC",29-03-2024 15:00:00,28.623763,77.287209,PM10,123,420,172
India,Delhi,Delhi,"Punjabi Bagh, Delhi - DPCC",29-03-2024 15:00:00,28.674045,77.131023,NH3,4,5,5
India,Delhi,Delhi,"Punjabi Bagh, Delhi - DPCC",29-03-2024 15:00:00,28.674045,77.131023,SO2,21,30,25
India,Delhi,Delhi,"Pusa, Delhi - DPCC",29-03-2024 15:00:00,28.639652,77.146275,NO2,45,107,83
India,Delhi,Delhi,"Pusa, Delhi - DPCC",29-03-2024 15:00:00,28.639652,77.146275,CO,25,78,41
India,Delhi,Delhi,"Pusa, Delhi - IMD",29-03-2024 15:00:00,28.636110,77.173332,CO,74,82,76
India,Delhi,Delhi,"R K Puram, Delhi - DPCC",29-03-2024 15:00:00,28.563262,77.186937,SO2,19,52,28
India,Delhi,Delhi,"R K Puram, Delhi - DPCC",29-03-2024 15:00:00,28.563262,77.186937,OZONE,9,251,67
India,Delhi,Delhi,"Shadipur, Delhi - CPCB",29-03-2024 15:00:00,28.6514781,77.1473105,NO2,32,45,37
India,Delhi,Delhi,"Shadipur, Delhi - CPCB",29-03-2024 15:00:00,28.6514781,77.1473105,NH3,6,9,7
India,Delhi,Delhi,"Sri Aurobindo Marg, Delhi - DPCC",29-03-2024 15:00:00,28.531346,77.190156,NH3,7,10,8
India,Delhi,Delhi,"Sri Aurobindo Marg, Delhi - DPCC",29-03-2024 15:00:00,28.531346,77.190156,OZONE,2,68,21
India,Delhi,Delhi,"Vivek Vihar, Delhi - DPCC",29-03-2024 15:00:00,28.672342,77.315260,OZONE,1,131,64
India,Delhi,Delhi,"Wazirpur, Delhi - DPCC",29-03-2024 15:00:00,28.699793,77.165453,PM2.5,58,325,191
India,Gujarat,Ahmedabad,"Chandkheda, Ahmedabad - IITM",29-03-2024 15:00:00,23.107969,72.574648,PM2.5,63,242,113
India,Gujarat,Ahmedabad,"Chandkheda, Ahmedabad - IITM",29-03-2024 15:00:00,23.107969,72.574648,CO,23,101,72
India,Gujarat,Ahmedabad,"Gyaspur, Ahmedabad - IITM",29-03-2024 15:00:00,22.977134,72.553024,PM10,81,390,142
India,Gujarat,Ahmedabad,"Raikhad, Ahmedabad - IITM",29-03-2024 15:00:00,23.020509,72.579261,OZONE,7,34,25
India,Gujarat,Ahmedabad,"Rakhial, Ahmedabad - IITM",29-03-2024 15:00:00,23.016834,72.625775,OZONE,8,46,34
India,Gujarat,Ahmedabad,"SVPI Airport Hansol, Ahmedabad - IITM",29-03-2024 15:00:00,23.076793,72.627874,PM2.5,41,106,65
India,Gujarat,Ahmedabad,"SVPI Airport Hansol, Ahmedabad - IITM",29-03-2024 15:00:00,23.076793,72.627874,NH3,4,5,4
India,Gujarat,Ahmedabad,"SVPI Airport Hansol, Ahmedabad - IITM",29-03-2024 15:00:00,23.076793,72.627874,SO2,7,8,8
India,Gujarat,Ahmedabad,"SVPI Airport Hansol, Ahmedabad - IITM",29-03-2024 15:00:00,23.076793,72.627874,OZONE,10,40,29
India,Gujarat,Ahmedabad,"Sardar Vallabhbhai Patel Stadium, Ahmedabad - IITM",29-03-2024 15:00:00,23.043070,72.562968,NH3,6,6,6
India,Gujarat,Gandhinagar,"GIFT City, Gandhinagar - IITM",29-03-2024 15:00:00,23.163798,72.677768,PM10,72,138,100
India,Gujarat,Gandhinagar,"GIFT City, Gandhinagar - IITM",29-03-2024 15:00:00,23.163798,72.677768,SO2,8,15,11
India,Gujarat,Gandhinagar,"IIPHG Lekawada, Gandhinagar - IITM",29-03-2024 15:00:00,23.243639,72.68994,SO2,5,33,15
India,Gujarat,Gandhinagar,"IIPHG Lekawada, Gandhinagar - IITM",29-03-2024 15:00:00,23.243639,72.68994,OZONE,11,44,32
India,Gujarat,Gandhinagar,"Sector-10, Gandhinagar - GPCB",29-03-2024 15:00:00,23.221714,72.654328,PM2.5,22,64,38
India,Gujarat,Gandhinagar,"Sector-10, Gandhinagar - GPCB",29-03-2024 15:00:00,23.221714,72.654328,PM10,44,105,71
India,Gujarat,Surat,"Science Center, Surat - SMC",29-03-2024 15:00:00,21.170046,72.795405,PM10,14,500,211
India,Gujarat,Surat,"Science Center, Surat - SMC",29-03-2024 15:00:00,21.170046,72.795405,CO,32,57,42
India,Gujarat,Vapi,"Phase-1 GIDC, Vapi - GPCB",29-03-2024 15:00:00,20.362421,72.918013,NH3,2,2,2
India,Gujarat,Vapi,"Phase-1 GIDC, Vapi - GPCB",29-03-2024 15:00:00,20.362421,72.918013,OZONE,1,2,1
India,Gujarat,Vatva,"Phase-4 GIDC, Vatva - GPCB",29-03-2024 15:00:00,22.969611,72.643500,NH3,2,10,8
India,Haryana,Ambala,"Patti Mehar, Ambala - HSPCB",29-03-2024 15:00:00,30.379589,76.778328,SO2,2,45,18
India,Haryana,Ambala,"Patti Mehar, Ambala - HSPCB",29-03-2024 15:00:00,30.379589,76.778328,CO,30,60,47
India,Haryana,Bahadurgarh,"Arya Nagar, Bahadurgarh - HSPCB",29-03-2024 15:00:00,28.6701,76.9254,PM10,93,127,109
India,Haryana,Ballabgarh,"Nathu Colony, Ballabgarh - HSPCB",29-03-2024 15:00:00,28.3419248,77.319699,PM2.5,85,266,185
India,Haryana,Bhiwani,"H.B. Colony, Bhiwani - HSPCB",29-03-2024 15:00:00,28.806223,76.141105,NH3,5,6,6
India,Haryana,Bhiwani,"H.B. Colony, Bhiwani - HSPCB",29-03-2024 15:00:00,28.806223,76.141105,CO,6,42,17
India,Haryana,Dharuhera,"Municipal Corporation Office, Dharuhera -  HSPCB",29-03-2024 15:00:00,28.206800,76.799700,PM2.5,NA,NA,NA
India,Haryana,Dharuhera,"Municipal Corporation Office, Dharuhera -  HSPCB",29-03-2024 15:00:00,28.206800,76.799700,PM10,NA,NA,NA
India,Haryana,Faridabad,"Sector 30, Faridabad - HSPCB",29-03-2024 15:00:00,28.4417,77.3217,PM2.5,90,102,95
India,Haryana,Faridabad,"Sector 30, Faridabad - HSPCB",29-03-2024 15:00:00,28.4417,77.3217,SO2,3,7,5
India,Haryana,Faridabad,"Sector 30, Faridabad - HSPCB",29-03-2024 15:00:00,28.4417,77.3217,OZONE,5,81,27
India,Haryana,Gurugram,"Teri Gram, Gurugram - HSPCB",29-03-2024 15:00:00,28.4275,77.1465,NO2,25,43,33
India,Haryana,Gurugram,"Teri Gram, Gurugram - HSPCB",29-03-2024 15:00:00,28.4275,77.1465,SO2,3,4,4
India,Haryana,Gurugram,"Teri Gram, Gurugram - HSPCB",29-03-2024 15:00:00,28.4275,77.1465,OZONE,13,18,15
India,Haryana,Gurugram,"Vikas Sadan, Gurugram - HSPCB",29-03-2024 15:00:00,28.4501238,77.0263051,PM2.5,31,236,89
India,Haryana,Gurugram,"Vikas Sadan, Gurugram - HSPCB",29-03-2024 15:00:00,28.4501238,77.0263051,NO2,4,26,13
India,Haryana,Hisar,"Urban Estate-II, Hisar - HSPCB",29-03-2024 15:00:00,29.140560,75.744941,SO2,3,61,40
India,Haryana,Hisar,"Urban Estate-II, Hisar - HSPCB",29-03-2024 15:00:00,29.140560,75.744941,CO,41,58,48
India,Haryana,Jind,"Police Lines, Jind - HSPCB",29-03-2024 15:00:00,29.307814,76.337619,PM2.5,24,68,42
India,Haryana,Jind,"Police Lines, Jind - HSPCB",29-03-2024 15:00:00,29.307814,76.337619,NO2,7,16,12
India,Haryana,Kaithal,"Rishi Nagar, Kaithal - HSPCB",29-03-2024 15:00:00,29.8006,76.4155,OZONE,10,30,22
India,Haryana,Karnal,"Sector-12, Karnal - HSPCB",29-03-2024 15:00:00,29.695300,77.002700,PM10,50,113,65
India,Haryana,Karnal,"Sector-12, Karnal - HSPCB",29-03-2024 15:00:00,29.695300,77.002700,NO2,7,12,10
India,Haryana,Kurukshetra,"Sector-7, Kurukshetra - HSPCB",29-03-2024 15:00:00,29.966942,76.875879,SO2,1,70,30
India,Haryana,Mandikhera,"General Hospital, Mandikhera - HSPCB",29-03-2024 15:00:00,27.9002,76.9938,NH3,16,19,18
India,Haryana,Narnaul,"Shastri Nagar, Narnaul - HSPCB",29-03-2024 15:00:00,28.060249,76.113115,NH3,4,24,11
India,Haryana,Palwal,"Shyam Nagar, Palwal - HSPCB",29-03-2024 15:00:00,28.1485564,77.3320667,NO2,23,24,24
India,Haryana,Panchkula,"Sector-6, Panchkula - HSPCB ",29-03-2024 15:00:00,30.7057778,76.8531805555555,SO2,11,12,12
India,Haryana,Panipat,"Sector-18, Panipat - HSPCB",29-03-2024 15:00:00,29.497973,76.993331,PM2.5,89,94,92
India,Haryana,Rohtak,"MD University, Rohtak - HSPCB",29-03-2024 15:00:00,28.52123,76.37138,NO2,48,56,51
India,Haryana,Sirsa,"F-Block, Sirsa - HSPCB",29-03-2024 15:00:00,29.536400,75.015800,OZONE,23,98,63
India,Haryana,Sonipat,"Murthal, Sonipat - HSPCB",29-03-2024 15:00:00,29.027200,77.062100,SO2,13,29,20
India,Haryana,Yamuna Nagar,"Gobind Pura, Yamuna Nagar - HSPCB",29-03-2024 15:00:00,30.1480566,77.2893471,PM10,58,149,98
India,Haryana,Yamuna Nagar,"Gobind Pura, Yamuna Nagar - HSPCB",29-03-2024 15:00:00,30.1480566,77.2893471,NO2,3,4,4
India,Haryana,Yamuna Nagar,"Gobind Pura, Yamuna Nagar - HSPCB",29-03-2024 15:00:00,30.1480566,77.2893471,OZONE,15,35,26
India,Himachal Pradesh,Baddi,"HIMUDA Complex Phase-1, Baddi - HPPCB",29-03-2024 15:00:00,30.943887,76.801991,NO2,8,33,20
India,Himachal Pradesh,Baddi,"HIMUDA Complex Phase-1, Baddi - HPPCB",29-03-2024 15:00:00,30.943887,76.801991,NH3,2,8,5
India,Jharkhand,Dhanbad,"Kalakusuma, Dhanbad - DMC",29-03-2024 15:00:00,23.811548,86.481238,CO,129,135,131
India,Jharkhand,Dhanbad,"Sardar Patel Nagar, Dhanbad - JSPCB",29-03-2024 15:00:00,23.80569,86.44268,CO,36,143,118
India,Karnataka,Bagalkot,"Vidayagiri, Bagalkot - KSPCB",29-03-2024 15:00:00,16.172806,75.659694,PM10,45,50,47
India,Karnataka,Bagalkot,"Vidayagiri, Bagalkot - KSPCB",29-03-2024 15:00:00,16.172806,75.659694,OZONE,26,41,30
India,Karnataka,Bengaluru,"BTM Layout, Bengaluru - CPCB",29-03-2024 15:00:00,12.9135218,77.5950804,SO2,9,10,9
India,Karnataka,Bengaluru,"Bapuji Nagar, Bengaluru - KSPCB",29-03-2024 15:00:00,12.951913,77.539784,NH3,1,1,1
India,Karnataka,Bengaluru,"Hombegowda Nagar, Bengaluru - KSPCB",29-03-2024 15:00:00,12.938539,77.590100,PM2.5,31,136,72
India,Karnataka,Bengaluru,"Jayanagar 5th Block, Bengaluru - KSPCB",29-03-2024 15:00:00,12.920984,77.584908,PM10,71,279,106
India,Karnataka,Bengaluru,"Jayanagar 5th Block, Bengaluru - KSPCB",29-03-2024 15:00:00,12.920984,77.584908,CO,4,66,12
India,Karnataka,Bengaluru,"Jigani, Bengaluru - KSPCB",29-03-2024 15:00:00,12.7816279,77.6299145,NO2,31,32,32
India,Karnataka,Bengaluru,"Jigani, Bengaluru - KSPCB",29-03-2024 15:00:00,12.7816279,77.6299145,OZONE,8,84,52
India,Karnataka,Bengaluru,"Kasturi Nagar, Bengaluru - KSPCB",29-03-2024 15:00:00,13.003872,77.664217,PM2.5,72,151,102
India,Karnataka,Bengaluru,"Peenya, Bengaluru - CPCB",29-03-2024 15:00:00,13.0270199,77.494094,NO2,NA,NA,NA
India,Karnataka,Bengaluru,"Peenya, Bengaluru - CPCB",29-03-2024 15:00:00,13.0270199,77.494094,NH3,NA,NA,NA
India,Karnataka,Bengaluru,"RVCE-Mailasandra, Bengaluru - KSPCB",29-03-2024 15:00:00,12.921418,77.502466,NO2,16,17,17
India,Karnataka,Bengaluru,"RVCE-Mailasandra, Bengaluru - KSPCB",29-03-2024 15:00:00,12.921418,77.502466,SO2,9,15,12
India,Karnataka,Bengaluru,"Sanegurava Halli, Bengaluru - KSPCB",29-03-2024 15:00:00,12.990328,77.5431385,NO2,22,50,28
India,Karnataka,Bengaluru,"Shivapura_Peenya, Bengaluru - KSPCB",29-03-2024 15:00:00,13.0246342,77.5080115,PM10,54,97,72
India,Karnataka,Bengaluru,"Shivapura_Peenya, Bengaluru - KSPCB",29-03-2024 15:00:00,13.0246342,77.5080115,NH3,4,4,4
India,Karnataka,Bengaluru,"Silk Board, Bengaluru - KSPCB",29-03-2024 15:00:00,12.917348,77.622813,PM10,40,128,83
India,Karnataka,Bengaluru,"Silk Board, Bengaluru - KSPCB",29-03-2024 15:00:00,12.917348,77.622813,NH3,4,8,5
India,Karnataka,Chamarajanagar,"Urban, Chamarajanagar - KSPCB",29-03-2024 15:00:00,11.55358,76.55521,PM10,40,56,54
India,Karnataka,Chamarajanagar,"Urban, Chamarajanagar - KSPCB",29-03-2024 15:00:00,11.55358,76.55521,SO2,2,8,5
India,Karnataka,Chikkaballapur,"Chikkaballapur Rural, Chikkaballapur - KSPCB",29-03-2024 15:00:00,13.428828,77.731418,PM2.5,37,95,63
India,Karnataka,Chikkaballapur,"Chikkaballapur Rural, Chikkaballapur - KSPCB",29-03-2024 15:00:00,13.428828,77.731418,SO2,11,24,17
India,Karnataka,Chikkaballapur,"Chikkaballapur Rural, Chikkaballapur - KSPCB",29-03-2024 15:00:00,13.428828,77.731418,CO,10,21,16
India,Karnataka,Chikkaballapur,"Chikkaballapur Rural, Chikkaballapur - KSPCB",29-03-2024 15:00:00,13.428828,77.731418,OZONE,25,26,26
India,Karnataka,Chikkamagaluru,"Kalyana Nagara, Chikkamagaluru - KSPCB",29-03-2024 15:00:00,13.328028,75.797056,NO2,16,27,19
India,Karnataka,Chikkamagaluru,"Kalyana Nagara, Chikkamagaluru - KSPCB",29-03-2024 15:00:00,13.328028,75.797056,OZONE,12,60,42
India,Karnataka,Davanagere,"Devaraj Urs Badavane, Davanagere - KSPCB",29-03-2024 15:00:00,14.475800,75.905200,PM10,48,165,84
India,Karnataka,Dharwad,"Kalabhavan, Dharwad - KSPCB",29-03-2024 15:00:00,15.459706,75.008381,SO2,1,4,2
India,Karnataka,Gadag,"Panchal Nagar, Gadag - KSPCB",29-03-2024 15:00:00,15.411456,75.638133,NH3,2,3,2
India,Karnataka,Hassan,"B.Katihalli, Hassan - KSPCB",29-03-2024 15:00:00,13.008556,76.125258,PM2.5,47,88,73
India,Karnataka,Hassan,"B.Katihalli, Hassan - KSPCB",29-03-2024 15:00:00,13.008556,76.125258,SO2,18,41,26
India,Karnataka,Hubballi,"Deshpande Nagar, Hubballi - KSPCB",29-03-2024 15:00:00,15.351773,75.140726,CO,4,75,7
India,Karnataka,Hubballi,"Lingaraj Nagar, Hubballi - KSPCB",29-03-2024 15:00:00,15.3714823,75.1160168,PM10,48,86,65
India,Karnataka,Hubballi,"Lingaraj Nagar, Hubballi - KSPCB",29-03-2024 15:00:00,15.3714823,75.1160168,SO2,1,4,1
India,Karnataka,Kalaburagi,"Lal Bahadur Shastri Nagar, Kalaburagi - KSPCB",29-03-2024 15:00:00,17.321993,76.822628,NH3,2,2,2
India,Karnataka,Kalaburagi,"Lal Bahadur Shastri Nagar, Kalaburagi - KSPCB",29-03-2024 15:00:00,17.321993,76.822628,CO,42,52,43
India,Karnataka,Kalaburagi,"Mahatma Basaveswar Colony, Kalaburgi - KSPCB",29-03-2024 15:00:00,17.336318,76.847397,PM2.5,22,59,37
India,Karnataka,Kalaburagi,"Mahatma Basaveswar Colony, Kalaburgi - KSPCB",29-03-2024 15:00:00,17.336318,76.847397,OZONE,4,18,12
India,Karnataka,Karwar,"KHB Colony, Karwar - KSPCB",29-03-2024 15:00:00,14.816666,74.141003,PM10,44,90,56
India,Karnataka,Karwar,"KHB Colony, Karwar - KSPCB",29-03-2024 15:00:00,14.816666,74.141003,SO2,18,21,20
India,Karnataka,Madikeri,"Stuart Hill, Madikeri - KSPCB",29-03-2024 15:00:00,12.415911,75.735050,PM10,31,56,43
India,Karnataka,Madikeri,"Stuart Hill, Madikeri - KSPCB",29-03-2024 15:00:00,12.415911,75.735050,NO2,2,15,5
India,Karnataka,Mangalore,"Kadri, Mangalore - KSPCB",29-03-2024 15:00:00,12.889250,74.853000,SO2,21,24,23
