country,state,city,station,last_update,latitude,longitude,pollutant_id,pollutant_min,pollutant_max,pollutant_avg
India,Andhra_Pradesh,Amaravati,"Secretariat, Amaravati - APPCB",24-01-2024 15:00:00,16.5150833,80.5181667,SO2,10,13,12
India,Andhra_Pradesh,Amaravati,"Secretariat, Amaravati - APPCB",24-01-2024 15:00:00,16.5150833,80.5181667,CO,7,42,26
India,Andhra_Pradesh,Anantapur,"Gulzarpet, Anantapur - APPCB",24-01-2024 15:00:00,14.675886,77.593027,OZONE,23,58,23
India,Andhra_Pradesh,Rajamahendravaram,"Anand Kala Kshetram, Rajamahendravaram - APPCB",24-01-2024 15:00:00,16.9872867,81.7363176,PM2.5,54,85,67
India,Andhra_Pradesh,Rajamahendravaram,"Anand Kala Kshetram, Rajamahendravaram - APPCB",24-01-2024 15:00:00,16.9872867,81.7363176,SO2,14,19,16
India,Andhra_Pradesh,Tirupati,"Tirumala, Tirupati - APPCB",24-01-2024 15:00:00,13.67,79.35,PM2.5,45,88,61
India,Andhra_Pradesh,Tirupati,"Vaikuntapuram, Tirupati - APPCB",24-01-2024 15:00:00,13.615387,79.409230,NO2,14,25,19
India,Andhra_Pradesh,Tirupati,"Vaikuntapuram, Tirupati - APPCB",24-01-2024 15:00:00,13.615387,79.409230,SO2,4,5,5
India,Andhra_Pradesh,Vijayawada,"HB Colony, Vijayawada - APPCB",24-01-2024 15:00:00,16.536107,80.594233,SO2,NA,NA,NA
India,Andhra_Pradesh,Vijayawada,"Rajiv Gandhi Park, Vijayawada - APPCB",24-01-2024 15:00:00,16.509717,80.612222,PM10,NA,NA,NA
India,Andhra_Pradesh,Vijayawada,"Rajiv Gandhi Park, Vijayawada - APPCB",24-01-2024 15:00:00,16.509717,80.612222,NH3,NA,NA,NA
India,Andhra_Pradesh,Visakhapatnam,"GVM Corporation, Visakhapatnam - APPCB",24-01-2024 15:00:00,17.72,83.3,PM10,83,279,146
India,Arunachal_Pradesh,Naharlagun,"Naharlagun, Naharlagun - APSPCB",24-01-2024 15:00:00,27.103358,93.679645,CO,10,65,16
India,Assam,Byrnihat,"Central Academy for SFS, Byrnihat - PCBA",24-01-2024 15:00:00,26.071318,91.87488,PM10,66,409,213
India,Assam,Guwahati,"IITG, Guwahati - PCBA",24-01-2024 15:00:00,26.2028636,91.70046436,PM10,109,331,176
India,Assam,Guwahati,"Pan Bazaar, Guwahati - PCBA",24-01-2024 15:00:00,26.187500,91.744194,NH3,4,6,4
India,Assam,Guwahati,"Pan Bazaar, Guwahati - PCBA",24-01-2024 15:00:00,26.187500,91.744194,CO,36,128,58
India,Assam,Guwahati,"Railway Colony, Guwahati - PCBA",24-01-2024 15:00:00,26.181742,91.78063,PM10,91,433,233
India,Assam,Guwahati,"Railway Colony, Guwahati - PCBA",24-01-2024 15:00:00,26.181742,91.78063,NO2,3,3,3
India,Assam,Nagaon,"Christianpatty, Nagaon - PCBA",24-01-2024 15:00:00,26.349082,92.68449,OZONE,3,94,48
India,Assam,Nalbari,"Bata Chowk, Nalbari - PCBA",24-01-2024 15:00:00,26.446912,91.439057,SO2,3,9,5
India,Assam,Silchar,"Tarapur, Silchar - PCBA",24-01-2024 15:00:00,24.82827,92.79525,PM10,46,52,47
India,Assam,Silchar,"Tarapur, Silchar - PCBA",24-01-2024 15:00:00,24.82827,92.79525,CO,27,59,31
India,Assam,Sivasagar,"Girls College, Sivasagar - PCBA",24-01-2024 15:00:00,26.987634,94.636574,SO2,4,6,4
India,Bihar,Araria,"Kharahiya Basti, Araria - BSPCB",24-01-2024 15:00:00,26.146529,87.454184,NH3,6,7,6
India,Bihar,Arrah,"New DM Office, Arrah - BSPCB",24-01-2024 15:00:00,25.5626095,84.663264,PM2.5,NA,NA,NA
India,Bihar,Arrah,"New DM Office, Arrah - BSPCB",24-01-2024 15:00:00,25.5626095,84.663264,PM10,NA,NA,NA
India,Bihar,Aurangabad,"Gurdeo Nagar, Aurangabad - BSPCB",24-01-2024 15:00:00,24.75746,84.366208,SO2,13,103,20
India,Bihar,Bettiah,"Kamalnath Nagar, Bettiah - BSPCB",24-01-2024 15:00:00,26.80365,84.51954,NO2,1,4,2
India,Bihar,Bhagalpur,"DM Office_Kachari Chowk, Bhagalpur - BSPCB",24-01-2024 15:00:00,25.251013,86.989001,NO2,18,77,39
India,Bihar,Bhagalpur,"DM Office_Kachari Chowk, Bhagalpur - BSPCB",24-01-2024 15:00:00,25.251013,86.989001,NH3,3,5,4
India,Bihar,Bhagalpur,"DM Office_Kachari Chowk, Bhagalpur - BSPCB",24-01-2024 15:00:00,25.251013,86.989001,SO2,8,49,26
India,Bihar,Bhagalpur,"DM Office_Kachari Chowk, Bhagalpur - BSPCB",24-01-2024 15:00:00,25.251013,86.989001,CO,28,68,45
India,Bihar,Bhagalpur,"Mayaganj, Bhagalpur - BSPCB",24-01-2024 15:00:00,25.265194,87.012947,PM2.5,160,379,286
India,Bihar,Bhagalpur,"Mayaganj, Bhagalpur - BSPCB",24-01-2024 15:00:00,25.265194,87.012947,NH3,9,10,10
India,Bihar,Bihar Sharif,"D M Colony, Bihar Sharif - BSPCB",24-01-2024 15:00:00,25.204762,85.514960,PM2.5,23,57,39
India,Bihar,Bihar Sharif,"D M Colony, Bihar Sharif - BSPCB",24-01-2024 15:00:00,25.204762,85.514960,SO2,2,14,8
India,Bihar,Bihar Sharif,"D M Colony, Bihar Sharif - BSPCB",24-01-2024 15:00:00,25.204762,85.514960,CO,8,62,29
India,Bihar,Chhapra,"Darshan Nagar, Chhapra - BSPCB",24-01-2024 15:00:00,25.7808257,84.7446768,PM10,116,240,158
India,Bihar,Chhapra,"Darshan Nagar, Chhapra - BSPCB",24-01-2024 15:00:00,25.7808257,84.7446768,CO,22,34,25
India,Bihar,Gaya,"Collectorate, Gaya - BSPCB",24-01-2024 15:00:00,24.7955,84.9994,NO2,17,22,19
India,Bihar,Gaya,"Kareemganj, Gaya - BSPCB",24-01-2024 15:00:00,24.792403,84.992416,PM2.5,27,157,65
India,Bihar,Hajipur,"Industrial Area, Hajipur - BSPCB",24-01-2024 15:00:00,25.697189,85.245900,NO2,NA,NA,NA
India,Bihar,Hajipur,"Industrial Area, Hajipur - BSPCB",24-01-2024 15:00:00,25.697189,85.245900,SO2,NA,NA,NA
India,Bihar,Hajipur,"Industrial Area, Hajipur - BSPCB",24-01-2024 15:00:00,25.697189,85.245900,CO,31,82,70
India,Bihar,Katihar,"Mirchaibari, Katihar - BSPCB",24-01-2024 15:00:00,25.560083,87.553265,PM10,86,311,169
India,Bihar,Kishanganj,"SDM Office_Khagra, Kishanganj - BSPCB",24-01-2024 15:00:00,26.0881305,87.93840336,CO,8,16,10
India,Bihar,Manguraha,"Forest Rest House, Manguraha - BSPCB",24-01-2024 15:00:00,27.308328,84.531742,PM10,NA,NA,NA
India,Bihar,Manguraha,"Forest Rest House, Manguraha - BSPCB",24-01-2024 15:00:00,27.308328,84.531742,NH3,NA,NA,NA
India,Bihar,Motihari,"Gandak Colony, Motihari - BSPCB",24-01-2024 15:00:00,26.63086,84.90051,NO2,61,109,82
India,Bihar,Motihari,"Gandak Colony, Motihari - BSPCB",24-01-2024 15:00:00,26.63086,84.90051,NH3,10,17,13
India,Bihar,Munger,"Town Hall, Munger - BSPCB",24-01-2024 15:00:00,25.376776,86.471523,OZONE,7,18,16
India,Bihar,Muzaffarpur,"Buddha Colony, Muzaffarpur - BSPCB",24-01-2024 15:00:00,26.11442,85.39813,OZONE,50,104,86
India,Bihar,Muzaffarpur,"MIT-Daudpur Kothi, Muzaffarpur - BSPCB",24-01-2024 15:00:00,26.1403345,85.3650192,PM10,119,268,167
India,Bihar,Muzaffarpur,"MIT-Daudpur Kothi, Muzaffarpur - BSPCB",24-01-2024 15:00:00,26.1403345,85.3650192,NH3,3,4,4
India,Bihar,Muzaffarpur,"MIT-Daudpur Kothi, Muzaffarpur - BSPCB",24-01-2024 15:00:00,26.1403345,85.3650192,SO2,11,12,11
India,Bihar,Muzaffarpur,"MIT-Daudpur Kothi, Muzaffarpur - BSPCB",24-01-2024 15:00:00,26.1403345,85.3650192,OZONE,10,25,17
India,Bihar,Muzaffarpur,"Muzaffarpur Collectorate, Muzaffarpur - BSPCB",24-01-2024 15:00:00,26.1209,85.3647,PM2.5,200,323,261
India,Bihar,Muzaffarpur,"Muzaffarpur Collectorate, Muzaffarpur - BSPCB",24-01-2024 15:00:00,26.1209,85.3647,OZONE,14,52,24
India,Bihar,Patna,"DRM Office Danapur, Patna - BSPCB",24-01-2024 15:00:00,25.586562,85.043586,SO2,7,9,8
India,Bihar,Patna,"Muradpur, Patna - BSPCB",24-01-2024 15:00:00,25.619651,85.147382,PM2.5,211,324,287
India,Bihar,Patna,"Rajbansi Nagar, Patna - BSPCB",24-01-2024 15:00:00,25.599486,85.113666,SO2,11,23,17
India,Bihar,Patna,"Rajbansi Nagar, Patna - BSPCB",24-01-2024 15:00:00,25.599486,85.113666,CO,58,92,78
India,Bihar,Purnia,"Mariam Nagar, Purnia - BSPCB",24-01-2024 15:00:00,25.366336,87.117468,NO2,12,14,13
India,Bihar,Rajgir,"Dangi Tola, Rajgir - BSPCB",24-01-2024 15:00:00,25.03280,85.41948,NO2,1,1,1
India,Bihar,Samastipur,"DM Office_Kasipur, Samastipur - BSPCB",24-01-2024 15:00:00,25.859655,85.77944,PM2.5,NA,NA,NA
India,Bihar,Samastipur,"DM Office_Kasipur, Samastipur - BSPCB",24-01-2024 15:00:00,25.859655,85.77944,PM10,NA,NA,NA
India,Bihar,Samastipur,"DM Office_Kasipur, Samastipur - BSPCB",24-01-2024 15:00:00,25.859655,85.77944,NO2,NA,NA,NA
India,Bihar,Samastipur,"DM Office_Kasipur, Samastipur - BSPCB",24-01-2024 15:00:00,25.859655,85.77944,SO2,NA,NA,NA
India,Bihar,Samastipur,"DM Office_Kasipur, Samastipur - BSPCB",24-01-2024 15:00:00,25.859655,85.77944,OZONE,10,16,11
India,Chandigarh,Chandigarh,"Sector 22, Chandigarh - CPCC",24-01-2024 15:00:00,30.735567,76.775714,NH3,6,10,7
India,Chandigarh,Chandigarh,"Sector-53, Chandigarh - CPCC",24-01-2024 15:00:00,30.719859,76.738637,NO2,27,70,46
India,Chhattisgarh,Bhilai,"32Bungalows, Bhilai - CECB",24-01-2024 15:00:00,21.194815,81.314770,PM2.5,71,109,84
India,Chhattisgarh,Bhilai,"32Bungalows, Bhilai - CECB",24-01-2024 15:00:00,21.194815,81.314770,SO2,9,13,11
India,Chhattisgarh,Bhilai,"32Bungalows, Bhilai - CECB",24-01-2024 15:00:00,21.194815,81.314770,CO,43,50,47
India,Chhattisgarh,Bhilai,"Civic Center, Bhilai - Bhilai Steel Plant",24-01-2024 15:00:00,21.185571,81.343175,NH3,2,3,2
India,Chhattisgarh,Bhilai,"Civic Center, Bhilai - Bhilai Steel Plant",24-01-2024 15:00:00,21.185571,81.343175,OZONE,6,20,9
India,Chhattisgarh,Korba,"Urja Nagar, Korba - CECB",24-01-2024 15:00:00,22.348441,82.549611,NO2,61,77,67
India,Chhattisgarh,Korba,"Urja Nagar, Korba - CECB",24-01-2024 15:00:00,22.348441,82.549611,SO2,3,7,5
India,Chhattisgarh,Korba,"Urja Nagar, Korba - CECB",24-01-2024 15:00:00,22.348441,82.549611,OZONE,47,47,47
India,Chhattisgarh,Kunjemura,"OP Jindal School, Kunjemura - CECB",24-01-2024 15:00:00,22.126650,83.483212,NH3,1,4,2
India,Chhattisgarh,Milupara,"Govt. Higher Secondary School, Milupara - CECB",24-01-2024 15:00:00,22.1910172,83.5197009,OZONE,5,61,34
India,Chhattisgarh,Raipur,"AIIMS, Raipur - CECB",24-01-2024 15:00:00,21.258815,81.578979,PM10,73,162,108
India,Chhattisgarh,Raipur,"AIIMS, Raipur - CECB",24-01-2024 15:00:00,21.258815,81.578979,SO2,7,20,11
India,Chhattisgarh,Raipur,"Krishak Nagar, Raipur - CECB",24-01-2024 15:00:00,21.237755,81.705301,CO,50,60,55
India,Chhattisgarh,Raipur,"Siltara Phase-II, Raipur - CECB",24-01-2024 15:00:00,21.371751,81.664929,NO2,NA,NA,NA
India,Chhattisgarh,Tumidih,"OP Jindal Industrial Park, Tumidih - CECB",24-01-2024 15:00:00,22.06631475,83.33820077,NH3,1,3,2
India,Delhi,Delhi,"Anand Vihar, Delhi - DPCC",24-01-2024 15:00:00,28.647622,77.3158090,NH3,6,12,9
India,Delhi,Delhi,"Anand Vihar, Delhi - DPCC",24-01-2024 15:00:00,28.647622,77.3158090,SO2,12,24,18
India,Delhi,Delhi,"Anand Vihar, Delhi - DPCC",24-01-2024 15:00:00,28.647622,77.3158090,OZONE,14,16,14
India,Delhi,Delhi,"Ashok Vihar, Delhi - DPCC",24-01-2024 15:00:00,28.695381,77.181665,PM10,266,474,375
India,Delhi,Delhi,"Aya Nagar, Delhi - IMD",24-01-2024 15:00:00,28.4706914,77.1099364,PM2.5,318,420,365
India,Delhi,Delhi,"Aya Nagar, Delhi - IMD",24-01-2024 15:00:00,28.4706914,77.1099364,CO,98,113,110
India,Delhi,Delhi,"CRRI Mathura Road, Delhi - IMD",24-01-2024 15:00:00,28.5512005,77.2735737,PM10,188,360,262
India,Delhi,Delhi,"CRRI Mathura Road, Delhi - IMD",24-01-2024 15:00:00,28.5512005,77.2735737,OZONE,3,31,4
India,Delhi,Delhi,"DTU, Delhi - CPCB",24-01-2024 15:00:00,28.7500499,77.1112615,PM10,273,467,382
India,Delhi,Delhi,"Dr. Karni Singh Shooting Range, Delhi - DPCC",24-01-2024 15:00:00,28.498571,77.264840,NH3,7,15,10
India,Delhi,Delhi,"Dwarka-Sector 8, Delhi - DPCC ",24-01-2024 15:00:00,28.5710274,77.0719006,PM2.5,371,496,437
India,Delhi,Delhi,"Dwarka-Sector 8, Delhi - DPCC ",24-01-2024 15:00:00,28.5710274,77.0719006,NO2,2,30,12
India,Delhi,Delhi,"Dwarka-Sector 8, Delhi - DPCC ",24-01-2024 15:00:00,28.5710274,77.0719006,NH3,3,7,4
India,Delhi,Delhi,"IGI Airport (T3), Delhi - IMD",24-01-2024 15:00:00,28.5627763,77.1180053,PM2.5,331,444,399
India,Delhi,Delhi,"IGI Airport (T3), Delhi - IMD",24-01-2024 15:00:00,28.5627763,77.1180053,PM10,242,444,368
India,Delhi,Delhi,"IGI Airport (T3), Delhi - IMD",24-01-2024 15:00:00,28.5627763,77.1180053,NO2,17,41,27
India,Delhi,Delhi,"IGI Airport (T3), Delhi - IMD",24-01-2024 15:00:00,28.5627763,77.1180053,CO,33,82,70
India,Delhi,Delhi,"IHBAS, Dilshad Garden, Delhi - CPCB",24-01-2024 15:00:00,28.6811736,77.3025234,NH3,3,7,5
India,Delhi,Delhi,"IHBAS, Dilshad Garden, Delhi - CPCB",24-01-2024 15:00:00,28.6811736,77.3025234,SO2,6,63,25
India,Delhi,Delhi,"ITO, Delhi - CPCB",24-01-2024 15:00:00,28.628624,77.241060,CO,69,108,83
India,Delhi,Delhi,"Jawaharlal Nehru Stadium, Delhi - DPCC",24-01-2024 15:00:00,28.580280,77.233829,SO2,1,13,7
India,Delhi,Delhi,"Jawaharlal Nehru Stadium, Delhi - DPCC",24-01-2024 15:00:00,28.580280,77.233829,CO,82,104,88
India,Delhi,Delhi,"Jawaharlal Nehru Stadium, Delhi - DPCC",24-01-2024 15:00:00,28.580280,77.233829,OZONE,1,59,7
India,Delhi,Delhi,"Lodhi Road, Delhi - IITM",24-01-2024 15:00:00,28.588333,77.221667,PM10,116,406,217
India,Delhi,Delhi,"Lodhi Road, Delhi - IITM",24-01-2024 15:00:00,28.588333,77.221667,NO2,67,124,92
India,Delhi,Delhi,"Lodhi Road, Delhi - IITM",24-01-2024 15:00:00,28.588333,77.221667,NH3,11,14,12
India,Delhi,Delhi,"Lodhi Road, Delhi - IMD",24-01-2024 15:00:00,28.5918245,77.2273074,PM10,270,442,356
India,Delhi,Delhi,"Lodhi Road, Delhi - IMD",24-01-2024 15:00:00,28.5918245,77.2273074,NO2,5,6,6
India,Delhi,Delhi,"Major Dhyan Chand National Stadium, Delhi - DPCC",24-01-2024 15:00:00,28.611281,77.237738,CO,54,103,63
India,Delhi,Delhi,"Major Dhyan Chand National Stadium, Delhi - DPCC",24-01-2024 15:00:00,28.611281,77.237738,OZONE,2,3,3
India,Delhi,Delhi,"Mandir Marg, Delhi - DPCC",24-01-2024 15:00:00,28.636429,77.201067,PM2.5,362,483,422
India,Delhi,Delhi,"Najafgarh, Delhi - DPCC",24-01-2024 15:00:00,28.570173,76.933762,OZONE,3,89,17
India,Delhi,Delhi,"Narela, Delhi - DPCC",24-01-2024 15:00:00,28.822836,77.101981,SO2,6,65,15
India,Delhi,Delhi,"Narela, Delhi - DPCC",24-01-2024 15:00:00,28.822836,77.101981,OZONE,4,152,20
India,Delhi,Delhi,"Nehru Nagar, Delhi - DPCC",24-01-2024 15:00:00,28.567890,77.250515,PM10,302,486,410
India,Delhi,Delhi,"Okhla Phase-2, Delhi - DPCC",24-01-2024 15:00:00,28.530785,77.271255,SO2,6,14,10
India,Delhi,Delhi,"Okhla Phase-2, Delhi - DPCC",24-01-2024 15:00:00,28.530785,77.271255,CO,56,115,70
India,Delhi,Delhi,"Patparganj, Delhi - DPCC",24-01-2024 15:00:00,28.623763,77.287209,CO,52,86,63
India,Delhi,Delhi,"Patparganj, Delhi - DPCC",24-01-2024 15:00:00,28.623763,77.287209,OZONE,2,7,4
India,Delhi,Delhi,"Punjabi Bagh, Delhi - DPCC",24-01-2024 15:00:00,28.674045,77.131023,PM2.5,414,500,452
India,Delhi,Delhi,"Punjabi Bagh, Delhi - DPCC",24-01-2024 15:00:00,28.674045,77.131023,SO2,7,10,9
India,Delhi,Delhi,"Pusa, Delhi - DPCC",24-01-2024 15:00:00,28.639652,77.146275,PM2.5,402,490,431
India,Delhi,Delhi,"R K Puram, Delhi - DPCC",24-01-2024 15:00:00,28.563262,77.186937,PM2.5,358,486,436
India,Delhi,Delhi,"R K Puram, Delhi - DPCC",24-01-2024 15:00:00,28.563262,77.186937,CO,102,118,106
India,Delhi,Delhi,"Rohini, Delhi - DPCC",24-01-2024 15:00:00,28.732528,77.119920,PM2.5,391,475,426
India,Delhi,Delhi,"Rohini, Delhi - DPCC",24-01-2024 15:00:00,28.732528,77.119920,NO2,42,78,56
India,Delhi,Delhi,"Sonia Vihar, Delhi - DPCC",24-01-2024 15:00:00,28.710508,77.249485,NH3,6,9,7
India,Delhi,Delhi,"Sonia Vihar, Delhi - DPCC",24-01-2024 15:00:00,28.710508,77.249485,CO,66,103,73
India,Delhi,Delhi,"Sri Aurobindo Marg, Delhi - DPCC",24-01-2024 15:00:00,28.531346,77.190156,SO2,9,27,13
India,Delhi,Delhi,"Vivek Vihar, Delhi - DPCC",24-01-2024 15:00:00,28.672342,77.315260,NO2,51,107,70
India,Delhi,Delhi,"Vivek Vihar, Delhi - DPCC",24-01-2024 15:00:00,28.672342,77.315260,SO2,7,8,8
India,Delhi,Delhi,"Vivek Vihar, Delhi - DPCC",24-01-2024 15:00:00,28.672342,77.315260,CO,56,103,81
India,Delhi,Delhi,"Wazirpur, Delhi - DPCC",24-01-2024 15:00:00,28.699793,77.165453,PM2.5,383,494,428
India,Delhi,Delhi,"Wazirpur, Delhi - DPCC",24-01-2024 15:00:00,28.699793,77.165453,NO2,47,102,70
India,Delhi,Delhi,"Wazirpur, Delhi - DPCC",24-01-2024 15:00:00,28.699793,77.165453,SO2,22,49,30
India,Delhi,Delhi,"Wazirpur, Delhi - DPCC",24-01-2024 15:00:00,28.699793,77.165453,CO,24,60,39
India,Gujarat,Ahmedabad,"Chandkheda, Ahmedabad - IITM",24-01-2024 15:00:00,23.107969,72.574648,OZONE,21,23,22
India,Gujarat,Ahmedabad,"Maninagar, Ahmedabad - GPCB",24-01-2024 15:00:00,23.002657,72.591912,PM2.5,32,197,111
India,Gujarat,Ahmedabad,"Maninagar, Ahmedabad - GPCB",24-01-2024 15:00:00,23.002657,72.591912,CO,14,80,26
India,Gujarat,Ahmedabad,"Maninagar, Ahmedabad - GPCB",24-01-2024 15:00:00,23.002657,72.591912,OZONE,1,55,26
India,Gujarat,Ahmedabad,"Raikhad, Ahmedabad - IITM",24-01-2024 15:00:00,23.020509,72.579261,NO2,15,15,15
India,Gujarat,Ahmedabad,"Raikhad, Ahmedabad - IITM",24-01-2024 15:00:00,23.020509,72.579261,SO2,3,4,4
India,Gujarat,Ahmedabad,"SAC ISRO Satellite, Ahmedabad - IITM",24-01-2024 15:00:00,23.023389,72.515201,NO2,14,15,15
India,Gujarat,Ahmedabad,"SAC ISRO Satellite, Ahmedabad - IITM",24-01-2024 15:00:00,23.023389,72.515201,NH3,3,3,3
India,Gujarat,Ahmedabad,"SVPI Airport Hansol, Ahmedabad - IITM",24-01-2024 15:00:00,23.076793,72.627874,SO2,6,8,7
India,Gujarat,Ahmedabad,"Sardar Vallabhbhai Patel Stadium, Ahmedabad - IITM",24-01-2024 15:00:00,23.043070,72.562968,PM10,94,281,152
India,Gujarat,Ahmedabad,"Sardar Vallabhbhai Patel Stadium, Ahmedabad - IITM",24-01-2024 15:00:00,23.043070,72.562968,SO2,5,8,7
India,Gujarat,Ankleshwar,"GIDC, Ankleshwar - GPCB",24-01-2024 15:00:00,21.613267,73.010555,NH3,6,6,6
India,Gujarat,Ankleshwar,"GIDC, Ankleshwar - GPCB",24-01-2024 15:00:00,21.613267,73.010555,SO2,20,118,73
India,Gujarat,Gandhinagar,"GIFT City, Gandhinagar - IITM",24-01-2024 15:00:00,23.163798,72.677768,PM10,55,141,91
India,Gujarat,Gandhinagar,"IIPHG Lekawada, Gandhinagar - IITM",24-01-2024 15:00:00,23.243639,72.68994,NO2,13,15,14
India,Gujarat,Gandhinagar,"IIPHG Lekawada, Gandhinagar - IITM",24-01-2024 15:00:00,23.243639,72.68994,NH3,3,3,3
India,Gujarat,Gandhinagar,"IIPHG Lekawada, Gandhinagar - IITM",24-01-2024 15:00:00,23.243639,72.68994,CO,36,76,54
India,Gujarat,Gandhinagar,"IIPHG Lekawada, Gandhinagar - IITM",24-01-2024 15:00:00,23.243639,72.68994,OZONE,7,18,13
India,Gujarat,Vapi,"Phase-1 GIDC, Vapi - GPCB",24-01-2024 15:00:00,20.362421,72.918013,CO,1,185,185
India,Haryana,Ambala,"Patti Mehar, Ambala - HSPCB",24-01-2024 15:00:00,30.379589,76.778328,PM2.5,45,225,120
India,Haryana,Bahadurgarh,"Arya Nagar, Bahadurgarh - HSPCB",24-01-2024 15:00:00,28.6701,76.9254,CO,37,58,49
India,Haryana,Ballabgarh,"Nathu Colony, Ballabgarh - HSPCB",24-01-2024 15:00:00,28.3419248,77.319699,NH3,1,2,2
India,Haryana,Bhiwani,"H.B. Colony, Bhiwani - HSPCB",24-01-2024 15:00:00,28.806223,76.141105,PM2.5,84,293,158
India,Haryana,Bhiwani,"H.B. Colony, Bhiwani - HSPCB",24-01-2024 15:00:00,28.806223,76.141105,PM10,77,154,110
India,Haryana,Bhiwani,"H.B. Colony, Bhiwani - HSPCB",24-01-2024 15:00:00,28.806223,76.141105,NH3,3,6,6
India,Haryana,Bhiwani,"H.B. Colony, Bhiwani - HSPCB",24-01-2024 15:00:00,28.806223,76.141105,CO,18,68,33
India,Haryana,Charkhi Dadri,"Mini Secretariat, Charkhi Dadri - HSPCB",24-01-2024 15:00:00,28.593883,76.270653,CO,103,194,189
India,Haryana,Dharuhera,"Municipal Corporation Office, Dharuhera -  HSPCB",24-01-2024 15:00:00,28.206800,76.799700,NH3,9,26,18
India,Haryana,Faridabad,"New Industrial Town, Faridabad - HSPCB",24-01-2024 15:00:00,28.39072,77.30059,SO2,22,27,24
India,Haryana,Faridabad,"Sector 11, Faridabad - HSPCB",24-01-2024 15:00:00,28.376058,77.315741,NH3,6,6,6
India,Haryana,Faridabad,"Sector 30, Faridabad - HSPCB",24-01-2024 15:00:00,28.4417,77.3217,OZONE,3,22,4
India,Haryana,Gurugram,"Vikas Sadan, Gurugram - HSPCB",24-01-2024 15:00:00,28.4501238,77.0263051,SO2,15,43,28
India,Haryana,Hisar,"Urban Estate-II, Hisar - HSPCB",24-01-2024 15:00:00,29.140560,75.744941,OZONE,12,55,25
India,Haryana,Jind,"Police Lines, Jind - HSPCB",24-01-2024 15:00:00,29.307814,76.337619,PM10,94,151,125
India,Haryana,Jind,"Police Lines, Jind - HSPCB",24-01-2024 15:00:00,29.307814,76.337619,NO2,7,16,12
India,Haryana,Kaithal,"Rishi Nagar, Kaithal - HSPCB",24-01-2024 15:00:00,29.8006,76.4155,NO2,24,144,31
India,Haryana,Karnal,"Sector-12, Karnal - HSPCB",24-01-2024 15:00:00,29.695300,77.002700,PM10,87,126,108
India,Haryana,Karnal,"Sector-12, Karnal - HSPCB",24-01-2024 15:00:00,29.695300,77.002700,NO2,7,12,10
India,Haryana,Manesar,"Sector-2 IMT, Manesar - HSPCB",24-01-2024 15:00:00,28.360699,76.936090,PM2.5,162,346,294
India,Haryana,Manesar,"Sector-2 IMT, Manesar - HSPCB",24-01-2024 15:00:00,28.360699,76.936090,SO2,19,140,51
India,Haryana,Narnaul,"Shastri Nagar, Narnaul - HSPCB",24-01-2024 15:00:00,28.060249,76.113115,SO2,12,41,14
India,Haryana,Palwal,"Shyam Nagar, Palwal - HSPCB",24-01-2024 15:00:00,28.1485564,77.3320667,PM2.5,50,77,63
India,Haryana,Palwal,"Shyam Nagar, Palwal - HSPCB",24-01-2024 15:00:00,28.1485564,77.3320667,SO2,4,28,18
India,Haryana,Panchkula,"Sector-6, Panchkula - HSPCB ",24-01-2024 15:00:00,30.7057778,76.8531805555555,PM2.5,74,325,205
India,Haryana,Panipat,"Sector-18, Panipat - HSPCB",24-01-2024 15:00:00,29.497973,76.993331,PM2.5,111,121,116
India,Haryana,Panipat,"Sector-18, Panipat - HSPCB",24-01-2024 15:00:00,29.497973,76.993331,NO2,28,31,30
India,Haryana,Panipat,"Sector-18, Panipat - HSPCB",24-01-2024 15:00:00,29.497973,76.993331,OZONE,30,34,32
India,Haryana,Rohtak,"MD University, Rohtak - HSPCB",24-01-2024 15:00:00,28.52123,76.37138,SO2,1,36,10
India,Haryana,Sonipat,"Murthal, Sonipat - HSPCB",24-01-2024 15:00:00,29.027200,77.062100,PM10,164,164,164
India,Haryana,Sonipat,"Murthal, Sonipat - HSPCB",24-01-2024 15:00:00,29.027200,77.062100,OZONE,17,36,27
India,Himachal Pradesh,Baddi,"HIMUDA Complex Phase-1, Baddi - HPPCB",24-01-2024 15:00:00,30.943887,76.801991,PM2.5,243,404,326
India,Jharkhand,Dhanbad,"Kalakusuma, Dhanbad - DMC",24-01-2024 15:00:00,23.811548,86.481238,PM2.5,NA,NA,NA
India,Jharkhand,Dhanbad,"Kalakusuma, Dhanbad - DMC",24-01-2024 15:00:00,23.811548,86.481238,OZONE,20,39,22
India,Jharkhand,Dhanbad,"Sardar Patel Nagar, Dhanbad - JSPCB",24-01-2024 15:00:00,23.80569,86.44268,SO2,9,111,30
India,Jharkhand,Pathardih,"Mohalbani Ghat, Pathardih - DMC",24-01-2024 15:00:00,23.669880,86.411725,PM2.5,NA,NA,NA
India,Karnataka,Belgaum,"Ramteerth Nagar, Belgaum - KSPCB",24-01-2024 15:00:00,15.888653,74.541751,NH3,33,34,33
India,Karnataka,Belgaum,"Ramteerth Nagar, Belgaum - KSPCB",24-01-2024 15:00:00,15.888653,74.541751,SO2,8,9,8
India,Karnataka,Bengaluru,"BTM Layout, Bengaluru - CPCB",24-01-2024 15:00:00,12.9135218,77.5950804,SO2,4,9,8
India,Karnataka,Bengaluru,"BTM Layout, Bengaluru - CPCB",24-01-2024 15:00:00,12.9135218,77.5950804,OZONE,16,41,19
India,Karnataka,Bengaluru,"Bapuji Nagar, Bengaluru - KSPCB",24-01-2024 15:00:00,12.951913,77.539784,PM10,54,114,87
India,Karnataka,Bengaluru,"City Railway Station, Bengaluru - KSPCB",24-01-2024 15:00:00,12.9756843,77.5660749,PM10,60,90,73
India,Karnataka,Bengaluru,"Hebbal, Bengaluru - KSPCB",24-01-2024 15:00:00,13.029152,77.585901,CO,6,48,22
India,Karnataka,Bengaluru,"Jayanagar 5th Block, Bengaluru - KSPCB",24-01-2024 15:00:00,12.920984,77.584908,PM10,55,140,100
India,Karnataka,Bengaluru,"Jayanagar 5th Block, Bengaluru - KSPCB",24-01-2024 15:00:00,12.920984,77.584908,SO2,14,32,24
India,Karnataka,Bengaluru,"Jigani, Bengaluru - KSPCB",24-01-2024 15:00:00,12.7816279,77.6299145,PM2.5,26,142,73
India,Karnataka,Bengaluru,"Jigani, Bengaluru - KSPCB",24-01-2024 15:00:00,12.7816279,77.6299145,NO2,22,37,34
India,Karnataka,Bengaluru,"Kasturi Nagar, Bengaluru - KSPCB",24-01-2024 15:00:00,13.003872,77.664217,PM10,105,156,131
India,Karnataka,Bengaluru,"Kasturi Nagar, Bengaluru - KSPCB",24-01-2024 15:00:00,13.003872,77.664217,OZONE,31,150,70
India,Karnataka,Bengaluru,"Peenya, Bengaluru - CPCB",24-01-2024 15:00:00,13.0270199,77.494094,CO,24,62,35
India,Karnataka,Bengaluru,"RVCE-Mailasandra, Bengaluru - KSPCB",24-01-2024 15:00:00,12.921418,77.502466,NO2,31,31,31
India,Karnataka,Bengaluru,"Sanegurava Halli, Bengaluru - KSPCB",24-01-2024 15:00:00,12.990328,77.5431385,NO2,22,53,31
India,Karnataka,Bengaluru,"Silk Board, Bengaluru - KSPCB",24-01-2024 15:00:00,12.917348,77.622813,PM10,54,138,102
India,Karnataka,Chamarajanagar,"Urban, Chamarajanagar - KSPCB",24-01-2024 15:00:00,11.55358,76.55521,OZONE,14,39,24
India,Karnataka,Chikkaballapur,"Chikkaballapur Rural, Chikkaballapur - KSPCB",24-01-2024 15:00:00,13.428828,77.731418,PM10,50,175,82
India,Karnataka,Chikkaballapur,"Chikkaballapur Rural, Chikkaballapur - KSPCB",24-01-2024 15:00:00,13.428828,77.731418,NO2,7,14,10
India,Karnataka,Chikkaballapur,"Chikkaballapur Rural, Chikkaballapur - KSPCB",24-01-2024 15:00:00,13.428828,77.731418,SO2,12,21,18
India,Karnataka,Chikkamagaluru,"Kalyana Nagara, Chikkamagaluru - KSPCB",24-01-2024 15:00:00,13.328028,75.797056,NO2,16,37,24
India,Karnataka,Chikkamagaluru,"Kalyana Nagara, Chikkamagaluru - KSPCB",24-01-2024 15:00:00,13.328028,75.797056,CO,8,113,37
India,Karnataka,Davanagere,"Devaraj Urs Badavane, Davanagere - KSPCB",24-01-2024 15:00:00,14.475800,75.905200,NH3,1,1,1
India,Karnataka,Dharwad,"Kalabhavan, Dharwad - KSPCB",24-01-2024 15:00:00,15.459706,75.008381,PM2.5,48,71,60
India,Karnataka,Dharwad,"Kalabhavan, Dharwad - KSPCB",24-01-2024 15:00:00,15.459706,75.008381,PM10,63,117,93
India,Karnataka,Dharwad,"Kalabhavan, Dharwad - KSPCB",24-01-2024 15:00:00,15.459706,75.008381,SO2,5,8,5
India,Karnataka,Gadag,"Panchal Nagar, Gadag - KSPCB",24-01-2024 15:00:00,15.411456,75.638133,PM10,26,73,44
India,Karnataka,Gadag,"Panchal Nagar, Gadag - KSPCB",24-01-2024 15:00:00,15.411456,75.638133,CO,46,62,55
India,Karnataka,Hassan,"B.Katihalli, Hassan - KSPCB",24-01-2024 15:00:00,13.008556,76.125258,PM10,NA,NA,NA
India,Karnataka,Hassan,"B.Katihalli, Hassan - KSPCB",24-01-2024 15:00:00,13.008556,76.125258,CO,125,131,127
India,Karnataka,Hubballi,"Deshpande Nagar, Hubballi - KSPCB",24-01-2024 15:00:00,15.351773,75.140726,NH3,5,6,6
India,Karnataka,Hubballi,"Deshpande Nagar, Hubballi - KSPCB",24-01-2024 15:00:00,15.351773,75.140726,CO,70,93,80
India,Karnataka,Kalaburagi,"Lal Bahadur Shastri Nagar, Kalaburagi - KSPCB",24-01-2024 15:00:00,17.321993,76.822628,NH3,2,2,2
India,Karnataka,Kalaburagi,"Mahatma Basaveswar Colony, Kalaburgi - KSPCB",24-01-2024 15:00:00,17.336318,76.847397,OZONE,4,33,27
India,Karnataka,Karwar,"KHB Colony, Karwar - KSPCB",24-01-2024 15:00:00,14.816666,74.141003,CO,1,129,13
India,Karnataka,Kolar,"Tamaka Ind. Area, Kolar - KSPCB",24-01-2024 15:00:00,13.1276288,78.1570122,NH3,6,9,8
India,Karnataka,Koppal,"Diwator Nagar, Koppal - KSPCB",24-01-2024 15:00:00,15.347630,76.181767,SO2,69,74,71
India,Karnataka,Madikeri,"Stuart Hill, Madikeri - KSPCB",24-01-2024 15:00:00,12.415911,75.735050,PM2.5,NA,NA,NA
India,Karnataka,Madikeri,"Stuart Hill, Madikeri - KSPCB",24-01-2024 15:00:00,12.415911,75.735050,NO2,NA,NA,NA
India,Karnataka,Madikeri,"Stuart Hill, Madikeri - KSPCB",24-01-2024 15:00:00,12.415911,75.735050,SO2,NA,NA,NA
India,Karnataka,Mangalore,"Kadri, Mangalore - KSPCB",24-01-2024 15:00:00,12.889250,74.853000,PM2.5,37,100,54
India,Karnataka,Mysuru,"Hebbal 1st Stage, Mysuru - KSPCB",24-01-2024 15:00:00,12.21041,76.37376,PM2.5,5,63,27
India,Karnataka,Ramanagara,"Vijay Nagar, Ramanagara - KSPCB",24-01-2024 15:00:00,12.733409,77.298051,PM2.5,35,93,67
India,Karnataka,Ramanagara,"Vijay Nagar, Ramanagara - KSPCB",24-01-2024 15:00:00,12.733409,77.298051,OZONE,28,30,29
India,Karnataka,Udupi,"Brahmagiri, Udupi - KSPCB",24-01-2024 15:00:00,13.34194444,74.74694444,NO2,13,14,14
India,Karnataka,Udupi,"Brahmagiri, Udupi - KSPCB",24-01-2024 15:00:00,13.34194444,74.74694444,CO,40,50,44
India,Karnataka,Yadgir,"Collector Office, Yadgir - KSPCB",24-01-2024 15:00:00,16.7602,77.1428,PM2.5,44,101,67
India,Kerala,Kannur,"Thavakkara, Kannur - Kerala PCB",24-01-2024 15:00:00,11.875000,75.373200,CO,29,34,32
India,Kerala,Thiruvananthapuram,"Plammoodu, Thiruvananthapuram - Kerala PCB",24-01-2024 15:00:00,8.5149093,76.9435879,PM2.5,25,47,36
India,Kerala,Thiruvananthapuram,"Plammoodu, Thiruvananthapuram - Kerala PCB",24-01-2024 15:00:00,8.5149093,76.9435879,CO,19,34,25
India,Madhya Pradesh,Bhopal,"Idgah Hills, Bhopal - MPPCB",24-01-2024 15:00:00,23.264759,77.381568,SO2,5,28,14
India,Madhya Pradesh,Bhopal,"Idgah Hills, Bhopal - MPPCB",24-01-2024 15:00:00,23.264759,77.381568,CO,26,79,40
India,Madhya Pradesh,Bhopal,"Paryavaran Parisar, Bhopal - MPPCB",24-01-2024 15:00:00,23.210494,77.425409,SO2,19,26,22
India,Madhya Pradesh,Bhopal,"T T Nagar, Bhopal - MPPCB",24-01-2024 15:00:00,23.233584,77.400574,NO2,39,88,56
India,Madhya Pradesh,Bhopal,"T T Nagar, Bhopal - MPPCB",24-01-2024 15:00:00,23.233584,77.400574,SO2,2,40,27
India,Madhya Pradesh,Bhopal,"T T Nagar, Bhopal - MPPCB",24-01-2024 15:00:00,23.233584,77.400574,OZONE,9,140,79
India,Madhya Pradesh,Dewas,"Bhopal Chauraha, Dewas - MPPCB",24-01-2024 15:00:00,22.9682591,76.064118,CO,16,47,20
India,Madhya Pradesh,Gwalior,"Deen Dayal Nagar, Gwalior - MPPCB",24-01-2024 15:00:00,26.259242,78.216432,SO2,19,23,21
India,Madhya Pradesh,Gwalior,"Deen Dayal Nagar, Gwalior - MPPCB",24-01-2024 15:00:00,26.259242,78.216432,OZONE,8,119,24
India,Madhya Pradesh,Gwalior,"Maharaj Bada, Gwalior - MPPCB",24-01-2024 15:00:00,26.200388,78.147714,PM10,113,374,204
India,Madhya Pradesh,Gwalior,"Maharaj Bada, Gwalior - MPPCB",24-01-2024 15:00:00,26.200388,78.147714,NO2,21,116,51
India,Madhya Pradesh,Gwalior,"Maharaj Bada, Gwalior - MPPCB",24-01-2024 15:00:00,26.200388,78.147714,CO,9,108,37
India,Madhya Pradesh,Gwalior,"Phool Bagh, Gwalior - Mondelez Ind. Food",24-01-2024 15:00:00,26.210536,78.171,PM10,20,174,99
India,Madhya Pradesh,Indore,"Chhoti Gwaltoli, Indore - MPPCB",24-01-2024 15:00:00,22.4310,75.5213,PM10,59,443,163
India,Madhya Pradesh,Indore,"Chhoti Gwaltoli, Indore - MPPCB",24-01-2024 15:00:00,22.4310,75.5213,NO2,56,177,104
India,Madhya Pradesh,Indore,"Chhoti Gwaltoli, Indore - MPPCB",24-01-2024 15:00:00,22.4310,75.5213,NH3,3,6,4
India,Madhya Pradesh,Indore,"Chhoti Gwaltoli, Indore - MPPCB",24-01-2024 15:00:00,22.4310,75.5213,SO2,12,37,19
India,Madhya Pradesh,Indore,"Chhoti Gwaltoli, Indore - MPPCB",24-01-2024 15:00:00,22.4310,75.5213,CO,21,140,86
India,Madhya Pradesh,Indore,"Maguda Nagar, Indore - IMC",24-01-2024 15:00:00,22.7524,75.8872,NO2,5,7,6
India,Madhya Pradesh,Indore,"Regional Park, Indore - IMC",24-01-2024 15:00:00,22.6780,75.8559,OZONE,4,17,8
India,Madhya Pradesh,Indore,"Residency Area, Indore - IMC",24-01-2024 15:00:00,22.7084,75.8815,PM2.5,NA,NA,NA
India,Madhya Pradesh,Jabalpur,"Govindh Bhavan Colony, Jabalpur - JMC",24-01-2024 15:00:00,23.163174,79.973061,NO2,17,52,30
India,Madhya Pradesh,Jabalpur,"Gupteshwar, Jabalpur - JMC",24-01-2024 15:00:00,23.142888,79.916147,PM2.5,42,332,119
India,Madhya Pradesh,Jabalpur,"Suhagi, Jabalpur - JMC",24-01-2024 15:00:00,23.218135,79.957770,NH3,NA,NA,NA
India,Madhya Pradesh,Katni,"Gole Bazar, Katni - MPPCB",24-01-2024 15:00:00,23.50016,80.23284,NO2,8,115,52
India,Madhya Pradesh,Katni,"Gole Bazar, Katni - MPPCB",24-01-2024 15:00:00,23.50016,80.23284,SO2,10,41,17
India,Madhya Pradesh,Maihar,"Sahilara, Maihar - KJS Cements",24-01-2024 15:00:00,24.2613009,80.7231783,NO2,14,14,14
India,Madhya Pradesh,Mandideep,"Sector-D Industrial Area, Mandideep - MPPCB",24-01-2024 15:00:00,23.108440,77.511428,SO2,46,137,84
India,Madhya Pradesh,Ratlam,"Shasthri Nagar, Ratlam - IPCA Lab",24-01-2024 15:00:00,23.331731,75.045981,PM10,84,411,149
India,Madhya Pradesh,Sagar,"Civil Lines, Sagar - MPPCB",24-01-2024 15:00:00,23.838586,78.759431,PM10,35,103,63
India,Madhya Pradesh,Sagar,"Civil Lines, Sagar - MPPCB",24-01-2024 15:00:00,23.838586,78.759431,NO2,9,16,12
India,Madhya Pradesh,Sagar,"Civil Lines, Sagar - MPPCB",24-01-2024 15:00:00,23.838586,78.759431,OZONE,42,73,48
India,Madhya Pradesh,Sagar,"Deen Dayal Nagar, Sagar - MPPCB",24-01-2024 15:00:00,23.8640158,78.80289321,PM10,35,101,68
India,Madhya Pradesh,Satna,"Bandhavgar Colony, Satna - Birla Cement",24-01-2024 15:00:00,24.58434363,80.8549414,PM10,35,76,55
India,Madhya Pradesh,Singrauli,"Suryakiran Bhawan NCL, Singrauli - MPPCB",24-01-2024 15:00:00,24.108970,82.645580,NO2,6,22,13
India,Madhya Pradesh,Ujjain,"Mahakaleshwar Temple, Ujjain - MPPCB",24-01-2024 15:00:00,23.182719 ,75.768218 ,NH3,4,9,7
India,Maharashtra,Akola,"Ramdaspeth, Akola - MPCB",24-01-2024 15:00:00,20.719516,77.000253,NO2,14,44,24
India,Maharashtra,Akola,"Ramdaspeth, Akola - MPCB",24-01-2024 15:00:00,20.719516,77.000253,SO2,4,10,7
India,Maharashtra,Amravati,"Shivneri Colony, Amravati - MPCB",24-01-2024 15:00:00,20.9402359,77.7895248,CO,12,72,21
India,Maharashtra,Aurangabad,"MIDC Chilkalthana, Aurangabad - MPCB",24-01-2024 15:00:00,19.875620,75.387310,NH3,3,4,4
India,Maharashtra,Aurangabad,"Rachnakar Colony, Aurangabad - MPCB",24-01-2024 15:00:00,19.863756,75.321188,PM2.5,125,220,149
India,Maharashtra,Aurangabad,"Rachnakar Colony, Aurangabad - MPCB",24-01-2024 15:00:00,19.863756,75.321188,OZONE,12,85,51
India,Maharashtra,Badlapur,"Katrap, Badlapur - MPCB",24-01-2024 15:00:00,19.16485,73.23409,NO2,25,86,44
India,Maharashtra,Belapur,"CBD Belapur, Belapur - MPCB",24-01-2024 15:00:00,19.0243902,73.0406721,SO2,2,6,4
India,Maharashtra,Boisar,"Khaira, Boisar - MPCB",24-01-2024 15:00:00,19.786089,72.757971,PM2.5,57,139,87
India,Maharashtra,Boisar,"Khaira, Boisar - MPCB",24-01-2024 15:00:00,19.786089,72.757971,PM10,97,140,119
India,Maharashtra,Chandrapur,"Chauhan Colony, Chandrapur - MPCB",24-01-2024 15:00:00,19.962900,79.298714,NO2,22,73,40
India,Maharashtra,Chandrapur,"Chauhan Colony, Chandrapur - MPCB",24-01-2024 15:00:00,19.962900,79.298714,SO2,1,114,18
India,Maharashtra,Chandrapur,"Chauhan Colony, Chandrapur - MPCB",24-01-2024 15:00:00,19.962900,79.298714,OZONE,3,52,22
India,Maharashtra,Jalgaon,"Prabhat Colony, Jalgaon - MPCB",24-01-2024 15:00:00,21.001264,75.565602,NH3,5,9,7
India,Maharashtra,Jalgaon,"Prabhat Colony, Jalgaon - MPCB",24-01-2024 15:00:00,21.001264,75.565602,CO,12,31,18
India,Maharashtra,Jalna,"Old MIDC, Jalna - MPCB",24-01-2024 15:00:00,19.854616,75.905894,NO2,19,40,31
India,Maharashtra,Jalna,"Old MIDC, Jalna - MPCB",24-01-2024 15:00:00,19.854616,75.905894,SO2,1,15,6
India,Maharashtra,Jalna,"Old MIDC, Jalna - MPCB",24-01-2024 15:00:00,19.854616,75.905894,OZONE,24,127,61
India,Maharashtra,Kalyan,"Khadakpada, Kalyan - MPCB",24-01-2024 15:00:00,19.25292,73.142019,PM2.5,16,81,51
India,Maharashtra,Kalyan,"Khadakpada, Kalyan - MPCB",24-01-2024 15:00:00,19.25292,73.142019,PM10,40,153,99
India,Maharashtra,Kolhapur,"Shivaji University, Kolhapur - MPCB",24-01-2024 15:00:00,16.6870449,74.2505872,PM10,83,173,119
India,Maharashtra,Kolhapur,"Sinchan Bhavan, Kolhapur - MPCB",24-01-2024 15:00:00,16.7143745,74.2426398,CO,2,66,38
India,Maharashtra,Kolhapur,"Sinchan Bhavan, Kolhapur - MPCB",24-01-2024 15:00:00,16.7143745,74.2426398,OZONE,8,158,68
India,Maharashtra,Mahad,"Kamble Tarf Birwadi, Mahad - MPCB",24-01-2024 15:00:00,18.1023399,73.4783687,NH3,4,5,5
India,Maharashtra,Mahad,"Kamble Tarf Birwadi, Mahad - MPCB",24-01-2024 15:00:00,18.1023399,73.4783687,CO,22,26,25
India,Maharashtra,Malegaon,"Mahesh Nagar, Malegaon - MPCB",24-01-2024 15:00:00,20.555712,74.529236,OZONE,9,86,42
India,Maharashtra,Mira-Bhayandar,"Bhayandar West, Mira-Bhayandar - MPCB",24-01-2024 15:00:00,19.296481,72.840923,NO2,15,60,33
India,Maharashtra,Mumbai,"Borivali East, Mumbai - MPCB",24-01-2024 15:00:00,19.2243333,72.8658113,NO2,9,25,15
India,Maharashtra,Mumbai,"Byculla, Mumbai - BMC",24-01-2024 15:00:00,18.9767,72.8380,PM10,NA,NA,NA
India,Maharashtra,Mumbai,"Chembur, Mumbai - MPCB",24-01-2024 15:00:00,19.0364585,72.8954371,OZONE,3,96,44
India,Maharashtra,Mumbai,"Colaba, Mumbai - MPCB",24-01-2024 15:00:00,18.910000,72.820000,PM2.5,29,63,45
India,Maharashtra,Mumbai,"Colaba, Mumbai - MPCB",24-01-2024 15:00:00,18.910000,72.820000,OZONE,11,15,12
India,Maharashtra,Mumbai,"Deonar, Mumbai - IITM",24-01-2024 15:00:00,19.04946,72.9230,PM10,109,246,174
India,Maharashtra,Mumbai,"Kandivali East, Mumbai - MPCB",24-01-2024 15:00:00,19.205800,72.868200,PM2.5,7,80,35
India,Maharashtra,Mumbai,"Kandivali East, Mumbai - MPCB",24-01-2024 15:00:00,19.205800,72.868200,NO2,32,138,88
India,Maharashtra,Mumbai,"Kherwadi_Bandra East, Mumbai - MPCB",24-01-2024 15:00:00,19.0632143,72.8456324,NH3,4,7,5
India,Maharashtra,Mumbai,"Khindipada-Bhandup West, Mumbai - IITM",24-01-2024 15:00:00,19.1653323,72.922099,PM10,74,148,116
India,Maharashtra,Mumbai,"Kurla, Mumbai - MPCB",24-01-2024 15:00:00,19.0863,72.8888,NO2,17,37,26
India,Maharashtra,Mumbai,"Mazgaon, Mumbai - IITM",24-01-2024 15:00:00,18.96702,72.84214,NO2,52,157,96
India,Maharashtra,Mumbai,"Navy Nagar-Colaba, Mumbai - IITM",24-01-2024 15:00:00,18.897756,72.813320,CO,4,30,21
India,Maharashtra,Mumbai,"Powai, Mumbai - MPCB",24-01-2024 15:00:00,19.137500,72.915056,SO2,17,19,18
India,Maharashtra,Mumbai,"Powai, Mumbai - MPCB",24-01-2024 15:00:00,19.137500,72.915056,OZONE,23,49,25
India,Maharashtra,Mumbai,"Sewri, Mumbai - BMC",24-01-2024 15:00:00,19.000084,72.856730,PM2.5,50,167,86
India,Maharashtra,Mumbai,"Sewri, Mumbai - BMC",24-01-2024 15:00:00,19.000084,72.856730,NO2,36,103,71
India,Maharashtra,Mumbai,"Sewri, Mumbai - BMC",24-01-2024 15:00:00,19.000084,72.856730,NH3,5,12,10
India,Maharashtra,Mumbai,"Shivaji Nagar, Mumbai - BMC",24-01-2024 15:00:00,19.060498,72.923356,NH3,2,6,4
India,Maharashtra,Mumbai,"Shivaji Nagar, Mumbai - BMC",24-01-2024 15:00:00,19.060498,72.923356,CO,6,60,12
India,Maharashtra,Mumbai,"Siddharth Nagar-Worli, Mumbai - IITM",24-01-2024 15:00:00,19.000083,72.813993,NO2,18,170,79
India,Maharashtra,Mumbai,"Sion, Mumbai - MPCB",24-01-2024 15:00:00,19.047000,72.874600,PM10,66,128,99
India,Maharashtra,Mumbai,"Sion, Mumbai - MPCB",24-01-2024 15:00:00,19.047000,72.874600,OZONE,10,24,13
India,Maharashtra,Mumbai,"Vasai West, Mumbai - MPCB",24-01-2024 15:00:00,19.383200,72.820400,CO,11,38,20
India,Maharashtra,Mumbai,"Vile Parle West, Mumbai - MPCB",24-01-2024 15:00:00,19.10861,72.83622,SO2,13,14,14
India,Maharashtra,Mumbai,"Worli, Mumbai - MPCB",24-01-2024 15:00:00,18.9936162,72.8128113,CO,30,34,31
India,Maharashtra,Mumbai,"Worli, Mumbai - MPCB",24-01-2024 15:00:00,18.9936162,72.8128113,OZONE,8,10,9
India,Maharashtra,Nagpur,"Ambazari, Nagpur - MPCB",24-01-2024 15:00:00,21.121801,79.04952,NO2,21,43,31
India,Maharashtra,Nagpur,"Ambazari, Nagpur - MPCB",24-01-2024 15:00:00,21.121801,79.04952,NH3,1,3,2
India,Maharashtra,Nagpur,"Ambazari, Nagpur - MPCB",24-01-2024 15:00:00,21.121801,79.04952,CO,16,57,24
India,Maharashtra,Nagpur,"Mahal, Nagpur - MPCB",24-01-2024 15:00:00,21.14472,79.107595,CO,36,105,55
India,Maharashtra,Nagpur,"Opp GPO Civil Lines, Nagpur - MPCB",24-01-2024 15:00:00,21.152875,79.0517531,PM2.5,86,263,196
India,Maharashtra,Nagpur,"Opp GPO Civil Lines, Nagpur - MPCB",24-01-2024 15:00:00,21.152875,79.0517531,SO2,13,128,44
India,Maharashtra,Nagpur,"Opp GPO Civil Lines, Nagpur - MPCB",24-01-2024 15:00:00,21.152875,79.0517531,OZONE,15,81,50
India,Maharashtra,Nagpur,"Ram Nagar, Nagpur - MPCB",24-01-2024 15:00:00,21.143383,79.048912,PM2.5,94,204,149
India,Maharashtra,Nanded,"Sneh Nagar, Nanded - MPCB",24-01-2024 15:00:00,19.173852,77.296291,PM10,NA,NA,NA
India,Maharashtra,Nanded,"Sneh Nagar, Nanded - MPCB",24-01-2024 15:00:00,19.173852,77.296291,SO2,NA,NA,NA
India,Maharashtra,Nanded,"Sneh Nagar, Nanded - MPCB",24-01-2024 15:00:00,19.173852,77.296291,OZONE,NA,NA,NA
India,Maharashtra,Nashik,"Gangapur Road, Nashik - MPCB",24-01-2024 15:00:00,20.0073285,73.7762427,PM2.5,43,291,107
India,Maharashtra,Nashik,"Hirawadi, Nashik - MPCB",24-01-2024 15:00:00,20.021503,73.813844,SO2,6,6,6
India,Maharashtra,Nashik,"MIDC Ambad, Nashik - MPCB",24-01-2024 15:00:00,19.950220,73.731480,PM10,77,162,117
India,Maharashtra,Nashik,"MIDC Ambad, Nashik - MPCB",24-01-2024 15:00:00,19.950220,73.731480,NH3,2,2,2
India,Maharashtra,Nashik,"Pandav Nagari, Nashik - MPCB",24-01-2024 15:00:00,19.9591346,73.7788008,CO,24,100,34
India,Maharashtra,Navi Mumbai,"Kopripada-Vashi, Navi Mumbai - MPCB",24-01-2024 15:00:00,19.090337,73.014232,NO2,28,153,72
India,Maharashtra,Navi Mumbai,"Kopripada-Vashi, Navi Mumbai - MPCB",24-01-2024 15:00:00,19.090337,73.014232,NH3,2,24,7
India,Maharashtra,Navi Mumbai,"Kopripada-Vashi, Navi Mumbai - MPCB",24-01-2024 15:00:00,19.090337,73.014232,SO2,23,54,32
India,Maharashtra,Navi Mumbai,"Mahape, Navi Mumbai - MPCB",24-01-2024 15:00:00,19.1135051,73.008978,NO2,37,38,38
India,Maharashtra,Navi Mumbai,"Nerul, Navi Mumbai - MPCB",24-01-2024 15:00:00,19.008751,73.016620,NH3,3,5,4
India,Maharashtra,Navi Mumbai,"Nerul, Navi Mumbai - MPCB",24-01-2024 15:00:00,19.008751,73.016620,OZONE,33,46,41
India,Maharashtra,Navi Mumbai,"Sanpada, Navi Mumbai - MPCB",24-01-2024 15:00:00,19.0575752,73.0151367,CO,10,74,17
India,Maharashtra,Parbhani,"Masoom Colony, Parbhani - MPCB",24-01-2024 15:00:00,19.265594,76.761463,OZONE,NA,NA,NA
India,Maharashtra,Pimpri-Chinchwad,"Park Street Wakad, Pimpri Chinchwad - MPCB",24-01-2024 15:00:00,18.59051,73.77946,PM10,104,189,149
India,Maharashtra,Pune,"Alandi, Pune - IITM",24-01-2024 15:00:00,18.675076,73.892743,NO2,13,35,20
India,Maharashtra,Pune,"Alandi, Pune - IITM",24-01-2024 15:00:00,18.675076,73.892743,CO,26,88,44
India,Maharashtra,Pune,"Bhosari, Pune - IITM",24-01-2024 15:00:00,18.640051,73.848956,NO2,8,26,18
India,Maharashtra,Pune,"Karve Road, Pune - MPCB",24-01-2024 15:00:00,18.5011743,73.8165527,PM10,127,138,135
India,Maharashtra,Pune,"Mhada Colony, Pune - IITM",24-01-2024 15:00:00,18.573040,73.927715,CO,14,55,42
India,Maharashtra,Pune,"Mhada Colony, Pune - IITM",24-01-2024 15:00:00,18.573040,73.927715,OZONE,1,40,16
India,Maharashtra,Pune,"Revenue Colony-Shivajinagar, Pune - IITM",24-01-2024 15:00:00,18.530085,73.849598,SO2,84,133,107
India,Maharashtra,Pune,"Savitribai Phule Pune University, Pune - MPCB",24-01-2024 15:00:00,18.547056,73.826908,PM2.5,57,150,97
India,Maharashtra,Pune,"Savitribai Phule Pune University, Pune - MPCB",24-01-2024 15:00:00,18.547056,73.826908,NH3,2,11,7
India,Maharashtra,Pune,"Savitribai Phule Pune University, Pune - MPCB",24-01-2024 15:00:00,18.547056,73.826908,SO2,3,7,4
India,Maharashtra,Pune,"Savitribai Phule Pune University, Pune - MPCB",24-01-2024 15:00:00,18.547056,73.826908,CO,13,84,26
India,Maharashtra,Pune,"Transport Nagar-Nigdi, Pune - IITM",24-01-2024 15:00:00,18.664282,73.763966,PM10,72,140,110
India,Maharashtra,Solapur,"Dnyaneshwar Nagar, Solapur - MPCB",24-01-2024 15:00:00,17.6336264,75.9132495,PM10,82,195,142
India,Maharashtra,Solapur,"Dnyaneshwar Nagar, Solapur - MPCB",24-01-2024 15:00:00,17.6336264,75.9132495,CO,16,84,30
India,Maharashtra,Solapur,"Ratandeep Housing Society, Solapur - MPCB",24-01-2024 15:00:00,17.65439,75.90649,SO2,5,24,13
India,Maharashtra,Solapur,"Ratandeep Housing Society, Solapur - MPCB",24-01-2024 15:00:00,17.65439,75.90649,OZONE,4,45,23
India,Maharashtra,Thane,"Kasarvadavali, Thane - MPCB",24-01-2024 15:00:00,19.26777,72.97182,PM2.5,61,309,156
India,Maharashtra,Thane,"Kasarvadavali, Thane - MPCB",24-01-2024 15:00:00,19.26777,72.97182,NH3,2,5,4
India,Maharashtra,Thane,"Upvan Fort, Thane - MPCB",24-01-2024 15:00:00,19.222279,72.957979,SO2,18,51,29
India,Maharashtra,Ulhasnagar,"Sidhi Vinayak Nagar, Ulhasnagar - MPCB",24-01-2024 15:00:00,19.235581,73.159121,NO2,9,57,29
India,Maharashtra,Ulhasnagar,"Sidhi Vinayak Nagar, Ulhasnagar - MPCB",24-01-2024 15:00:00,19.235581,73.159121,SO2,6,129,34
India,Maharashtra,Virar,"Bolinj, Virar - MPCB",24-01-2024 15:00:00,19.4458210,72.7988231,PM10,101,125,117
India,Manipur,Imphal,"Manipur University, Imphal - Manipur PCB",24-01-2024 15:00:00,24.7524239,93.9286218,OZONE,1,26,13
India,Meghalaya,Shillong,"JN Stadium, Shillong - Meghalaya PCB",24-01-2024 15:00:00,25.5803419,91.8942571,CO,22,106,30
India,Nagaland,Kohima,"PWD Juction, Kohima - NPCB",24-01-2024 15:00:00,25.6635413,94.0989878,PM2.5,45,306,104
India,Nagaland,Kohima,"PWD Juction, Kohima - NPCB",24-01-2024 15:00:00,25.6635413,94.0989878,NO2,3,4,3
India,Nagaland,Kohima,"PWD Juction, Kohima - NPCB",24-01-2024 15:00:00,25.6635413,94.0989878,CO,8,50,13
India,Odisha,Angul,"Hakimapada, Angul - OSPCB",24-01-2024 15:00:00,20.832874,85.104082,PM10,99,263,152
India,Odisha,Angul,"Hakimapada, Angul - OSPCB",24-01-2024 15:00:00,20.832874,85.104082,OZONE,22,86,41
India,Odisha,Balasore,"Kalidaspur, Balasore - OSPCB",24-01-2024 15:00:00,21.51161,86.89088,NO2,6,45,23
India,Odisha,Balasore,"Kalidaspur, Balasore - OSPCB",24-01-2024 15:00:00,21.51161,86.89088,OZONE,37,96,50
India,Odisha,Barbil,"Forest Office, Barbil - OSPCB",24-01-2024 15:00:00,22.1166054,85.3945546,PM2.5,72,331,173
India,Odisha,Barbil,"Forest Office, Barbil - OSPCB",24-01-2024 15:00:00,22.1166054,85.3945546,NO2,16,33,22
India,Odisha,Bhubaneswar,"Lingraj Mandir, Bhubaneswar - OSPCB",24-01-2024 15:00:00,20.240790,85.836784,PM2.5,157,315,262
India,Odisha,Bhubaneswar,"Patia, Bhubaneswar - OSPCB",24-01-2024 15:00:00,20.34652,85.81630,SO2,4,26,13
India,Odisha,Bhubaneswar,"Patia, Bhubaneswar - OSPCB",24-01-2024 15:00:00,20.34652,85.81630,CO,22,197,189
India,Odisha,Bhubaneswar,"Patia, Bhubaneswar - OSPCB",24-01-2024 15:00:00,20.34652,85.81630,OZONE,71,127,83
India,Odisha,Bileipada,"Tata Township, Bileipada - OSPCB",24-01-2024 15:00:00,22.06156703,85.47409613,NO2,8,15,11
India,Odisha,Bileipada,"Tata Township, Bileipada - OSPCB",24-01-2024 15:00:00,22.06156703,85.47409613,SO2,30,37,33
India,Odisha,Cuttack,"CDA Area, Cuttack - OSPCB",24-01-2024 15:00:00,20.48891     ,85.84768     ,PM10,113,188,145
India,Odisha,Cuttack,"CDA Area, Cuttack - OSPCB",24-01-2024 15:00:00,20.48891     ,85.84768     ,NO2,22,36,28
India,Odisha,Keonjhar,"Jagamohanpur, Keonjhar - OSPCB",24-01-2024 15:00:00,21.643900,85.599355,PM2.5,94,195,144
India,Odisha,Nayagarh,"Dabuna, Nayagarh - OSPCB",24-01-2024 15:00:00,21.847279,85.416905,PM10,50,111,72
India,Odisha,Nayagarh,"Dabuna, Nayagarh - OSPCB",24-01-2024 15:00:00,21.847279,85.416905,NO2,29,75,33
India,Odisha,Nayagarh,"Dabuna, Nayagarh - OSPCB",24-01-2024 15:00:00,21.847279,85.416905,CO,20,28,21
India,Odisha,Rairangpur,"Divisional Forest Office, Rairangpur - OSPCB",24-01-2024 15:00:00,22.265816,86.174829,PM10,105,145,122
India,Odisha,Rourkela,"Sector-2, Rourkela - OSPCB",24-01-2024 15:00:00,22.24500000,84.88111111,PM2.5,47,185,98
India,Odisha,Rourkela,"Sector-2, Rourkela - OSPCB",24-01-2024 15:00:00,22.24500000,84.88111111,CO,30,66,36
India,Odisha,Suakati,"OMC Colony, Suakati - OSPCB",24-01-2024 15:00:00,21.606865,85.510538,PM10,85,143,120
India,Odisha,Talcher,"Talcher Coalfields,Talcher - OSPCB",24-01-2024 15:00:00,20.9360711,85.1707021,CO,6,44,24
India,Odisha,Tensa,"Barsua Iron Ore Mines, Tensa - OSPCB",24-01-2024 15:00:00,21.869985,85.167016,PM2.5,NA,NA,NA
India,Puducherry,Puducherry,"Jawahar Nagar, Puducherry - PPCC",24-01-2024 15:00:00,11.9309,79.8027,SO2,4,14,8
India,Punjab,Amritsar,"Golden Temple, Amritsar - PPCB",24-01-2024 15:00:00,31.620000,74.876512,NO2,16,52,28
India,Punjab,Amritsar,"Golden Temple, Amritsar - PPCB",24-01-2024 15:00:00,31.620000,74.876512,CO,30,36,34
India,Punjab,Jalandhar,"Civil Line, Jalandhar - PPCB",24-01-2024 15:00:00,31.321907,75.578914,PM10,61,142,108
India,Punjab,Ludhiana,"Punjab Agricultural University, Ludhiana - PPCB",24-01-2024 15:00:00,30.9028,75.8086,NH3,8,11,9
India,Punjab,Ludhiana,"Punjab Agricultural University, Ludhiana - PPCB",24-01-2024 15:00:00,30.9028,75.8086,SO2,2,17,7
India,Punjab,Mandi Gobindgarh,"RIMT University, Mandi Gobindgarh - PPCB",24-01-2024 15:00:00,30.649961,76.331442,PM10,75,206,148
India,Punjab,Mandi Gobindgarh,"RIMT University, Mandi Gobindgarh - PPCB",24-01-2024 15:00:00,30.649961,76.331442,OZONE,29,33,32
India,Punjab,Patiala,"Model Town, Patiala - PPCB",24-01-2024 15:00:00,30.349388,76.366642,SO2,3,27,14
India,Punjab,Rupnagar,"Ratanpura, Rupnagar - Ambuja Cements",24-01-2024 15:00:00,31.0325454,76.5623046,SO2,3,6,4
India,Punjab,Rupnagar,"Ratanpura, Rupnagar - Ambuja Cements",24-01-2024 15:00:00,31.0325454,76.5623046,CO,72,116,93
India,Rajasthan,Ajmer,"Civil Lines,  Ajmer - RSPCB",24-01-2024 15:00:00,26.470859,74.646594,PM10,46,159,103
India,Rajasthan,Ajmer,"Civil Lines,  Ajmer - RSPCB",24-01-2024 15:00:00,26.470859,74.646594,OZONE,10,63,32
India,Rajasthan,Banswara,"Rati Talai, Banswara - RSPCB",24-01-2024 15:00:00,23.555190,74.440010,PM2.5,38,193,93
India,Rajasthan,Banswara,"Rati Talai, Banswara - RSPCB",24-01-2024 15:00:00,23.555190,74.440010,SO2,6,18,14
India,Rajasthan,Banswara,"Rati Talai, Banswara - RSPCB",24-01-2024 15:00:00,23.555190,74.440010,CO,36,100,42
India,Rajasthan,Baran,"Bamboliya, Baran - RSPCB",24-01-2024 15:00:00,25.106006,76.469948,PM2.5,37,264,90
India,Rajasthan,Baran,"Bamboliya, Baran - RSPCB",24-01-2024 15:00:00,25.106006,76.469948,NH3,4,14,6
India,Rajasthan,Baran,"Bamboliya, Baran - RSPCB",24-01-2024 15:00:00,25.106006,76.469948,CO,24,67,32
India,Rajasthan,Bhilwara,"Pratap Nagar, Bhilwara - RSPCB",24-01-2024 15:00:00,25.339605,74.618883,PM10,6,228,126
India,Rajasthan,Bhiwadi,"RIICO Ind. Area III, Bhiwadi - RSPCB",24-01-2024 15:00:00,28.194909,76.862296,NH3,9,27,17
India,Rajasthan,Bikaner,"MM Ground, Bikaner - RSPCB",24-01-2024 15:00:00,28.018792,73.292658,PM10,171,345,228
India,Rajasthan,Bundi,"New Colony, Bundi - RSPCB",24-01-2024 15:00:00,25.435774,75.644272,NO2,15,85,42
India,Rajasthan,Churu,"Subash Chowk, Churu - RSPCB",24-01-2024 15:00:00,28.296139,74.961696,PM10,96,171,131
India,Rajasthan,Dausa,"Khatikan Mohalla, Dausa - RSPCB",24-01-2024 15:00:00,26.895552,76.334753,PM10,118,211,166
India,Rajasthan,Dausa,"Khatikan Mohalla, Dausa - RSPCB",24-01-2024 15:00:00,26.895552,76.334753,NO2,14,108,38
India,Rajasthan,Dholpur,"Raja Ganj, Dholpur - RSPCB",24-01-2024 15:00:00,26.699557,77.898881,NH3,9,11,10
India,Rajasthan,Dungarpur,"Bhoiwada, Dungarpur - RSPCB",24-01-2024 15:00:00,23.837789,73.714926,PM2.5,38,344,185
India,Rajasthan,Dungarpur,"Bhoiwada, Dungarpur - RSPCB",24-01-2024 15:00:00,23.837789,73.714926,OZONE,5,60,30
India,Rajasthan,Jaipur,"Adarsh Nagar, Jaipur - RSPCB",24-01-2024 15:00:00,26.902909,75.836858,PM2.5,11,294,115
India,Rajasthan,Jaipur,"Adarsh Nagar, Jaipur - RSPCB",24-01-2024 15:00:00,26.902909,75.836858,OZONE,10,80,42
India,Rajasthan,Jaipur,"RIICO Sitapura, Jaipur - RSPCB",24-01-2024 15:00:00,26.786682,75.827928,NO2,26,194,78
India,Rajasthan,Jaipur,"Sector-2 Murlipura, Jaipur - RSPCB",24-01-2024 15:00:00,26.960669,75.771817,OZONE,7,157,62
India,Rajasthan,Jaipur,"Shastri Nagar, Jaipur - RSPCB",24-01-2024 15:00:00,26.9502929,75.730943,PM2.5,67,253,162
India,Rajasthan,Jaipur,"Shastri Nagar, Jaipur - RSPCB",24-01-2024 15:00:00,26.9502929,75.730943,PM10,78,155,122
India,Rajasthan,Jaipur,"Shastri Nagar, Jaipur - RSPCB",24-01-2024 15:00:00,26.9502929,75.730943,NH3,6,30,16
India,Rajasthan,Jaipur,"Shastri Nagar, Jaipur - RSPCB",24-01-2024 15:00:00,26.9502929,75.730943,SO2,4,34,20
India,Rajasthan,Jaipur,"Shastri Nagar, Jaipur - RSPCB",24-01-2024 15:00:00,26.9502929,75.730943,CO,8,106,54
India,Rajasthan,Jaisalmer,"Sadar Bazar, Jaisalmer - RSPCB",24-01-2024 15:00:00,26.912329,70.909168,SO2,4,6,5
India,Rajasthan,Jaisalmer,"Sadar Bazar, Jaisalmer - RSPCB",24-01-2024 15:00:00,26.912329,70.909168,CO,10,68,53
India,Rajasthan,Jalore,"Mudtra Sili, Jalore - RSPCB",24-01-2024 15:00:00,25.344694,72.626208,NO2,9,122,36
India,Rajasthan,Jalore,"Mudtra Sili, Jalore - RSPCB",24-01-2024 15:00:00,25.344694,72.626208,CO,28,132,65
India,Rajasthan,Jhalawar,"Rajlaxmi Nagar, Jhalawar - RSPCB",24-01-2024 15:00:00,24.588397,76.172782,PM2.5,32,357,170
India,Rajasthan,Jhalawar,"Rajlaxmi Nagar, Jhalawar - RSPCB",24-01-2024 15:00:00,24.588397,76.172782,NO2,8,78,28
India,Rajasthan,Jhalawar,"Rajlaxmi Nagar, Jhalawar - RSPCB",24-01-2024 15:00:00,24.588397,76.172782,NH3,4,7,6
India,Rajasthan,Jhunjhunu,"Indra Nagar, Jhunjhunu - RSPCB",24-01-2024 15:00:00,28.108988,75.386577,PM10,96,193,156
India,Rajasthan,Jhunjhunu,"Indra Nagar, Jhunjhunu - RSPCB",24-01-2024 15:00:00,28.108988,75.386577,NO2,26,45,34
India,Rajasthan,Jhunjhunu,"Indra Nagar, Jhunjhunu - RSPCB",24-01-2024 15:00:00,28.108988,75.386577,NH3,14,23,19
India,Rajasthan,Jhunjhunu,"Indra Nagar, Jhunjhunu - RSPCB",24-01-2024 15:00:00,28.108988,75.386577,OZONE,9,100,21
India,Rajasthan,Jodhpur,"Collectorate, Jodhpur - RSPCB",24-01-2024 15:00:00,26.268249,73.0193853,SO2,2,52,19
India,Rajasthan,Jodhpur,"Digari Kalan, Jodhpur - RSPCB",24-01-2024 15:00:00,26.295810,73.082283,SO2,4,8,5
India,Rajasthan,Jodhpur,"Jhalamand, Jodhpur - RSPCB",24-01-2024 15:00:00,26.215415,73.070156,NH3,5,9,8
India,Rajasthan,Jodhpur,"Mandor, Jodhpur - RSPCB",24-01-2024 15:00:00,26.358805,73.047444,NH3,6,9,7
India,Rajasthan,Jodhpur,"Samrat Ashok Udhyan, Jodhpur - RSPCB",24-01-2024 15:00:00,26.253384,72.976571,NH3,6,30,8
India,Rajasthan,Kota,"Dhanmandi, Kota - RSPCB",24-01-2024 15:00:00,25.164090,75.858137,SO2,4,105,22
India,Rajasthan,Kota,"Dhanmandi, Kota - RSPCB",24-01-2024 15:00:00,25.164090,75.858137,OZONE,3,93,40
India,Rajasthan,Kota,"Nayapura, Kota - RSPCB",24-01-2024 15:00:00,25.196024,75.855668,PM2.5,72,360,233
India,Rajasthan,Kota,"Shrinath Puram, Kota - RSPCB",24-01-2024 15:00:00,25.14389,75.821256,CO,4,52,19
India,Rajasthan,Kota,"Shrinath Puram, Kota - RSPCB",24-01-2024 15:00:00,25.14389,75.821256,OZONE,32,100,80
India,Rajasthan,Nagaur,"Karni Colony, Nagaur - RSPCB",24-01-2024 15:00:00,27.213494,73.734444,PM2.5,73,500,293
India,Rajasthan,Pali,"Indira Colony Vistar, Pali - RSPCB",24-01-2024 15:00:00,25.771061, 73.340227,SO2,6,18,11
India,Rajasthan,Pratapgarh,"Pragati Nagar, Pratapgarh - RSPCB",24-01-2024 15:00:00,24.041198,74.780702,NO2,11,81,31
India,Rajasthan,Pratapgarh,"Pragati Nagar, Pratapgarh - RSPCB",24-01-2024 15:00:00,24.041198,74.780702,NH3,4,8,6
India,Rajasthan,Rajsamand,"Dhoinda, Rajsamand - RSPCB",24-01-2024 15:00:00,25.036360,73.883502,CO,22,78,34
India,Rajasthan,Sawai Madhopur,"Sahu Nagar, Sawai Madhopur - RSPCB",24-01-2024 15:00:00,26.031443,76.359327,PM10,75,252,123
India,Rajasthan,Sikar,"Radhakishan Pura, Sikar - RSPCB",24-01-2024 15:00:00,27.608912,75.153302,PM10,101,200,145
India,Rajasthan,Sikar,"Radhakishan Pura, Sikar - RSPCB",24-01-2024 15:00:00,27.608912,75.153302,CO,24,86,70
India,Rajasthan,Sirohi,"Vedhaynath Colony, Sirohi - RSPCB",24-01-2024 15:00:00,24.885261,72.857549,PM2.5,22,260,83
India,Rajasthan,Sri Ganganagar,"Old City, Sri Ganganagar - RSPCB",24-01-2024 15:00:00,29.931624,73.864511,OZONE,3,29,17
India,Rajasthan,Udaipur,"Ashok Nagar, Udaipur - RSPCB",24-01-2024 15:00:00,24.5886166,73.6321397,PM10,62,151,96
India,Rajasthan,Udaipur,"Ashok Nagar, Udaipur - RSPCB",24-01-2024 15:00:00,24.5886166,73.6321397,NH3,5,13,8
India,Sikkim,Gangtok,"Zero Point GICI, Gangtok - SSPCB",24-01-2024 15:00:00,27.338530,88.614099,SO2,9,10,9
India,TamilNadu,Chengalpattu,"Crescent University, Chengalpattu - TNPCB",24-01-2024 15:00:00,12.8777316,80.0834807,PM2.5,17,136,63
India,TamilNadu,Chengalpattu,"Crescent University, Chengalpattu - TNPCB",24-01-2024 15:00:00,12.8777316,80.0834807,OZONE,6,6,6
India,TamilNadu,Chennai,"Arumbakkam, Chennai - TNPCB",24-01-2024 15:00:00,13.0664,80.2112 ,PM2.5,47,143,71
India,TamilNadu,Chennai,"Gandhi Nagar_Ennore, Chennai - TNPCB",24-01-2024 15:00:00,13.218341,80.32027,NO2,11,33,20
India,TamilNadu,Chennai,"Manali, Chennai - CPCB",24-01-2024 15:00:00,13.164544,80.26285,PM2.5,21,111,56
India,TamilNadu,Chennai,"Manali, Chennai - CPCB",24-01-2024 15:00:00,13.164544,80.26285,NO2,7,20,12
India,TamilNadu,Chennai,"Manali, Chennai - CPCB",24-01-2024 15:00:00,13.164544,80.26285,NH3,3,9,6
India,TamilNadu,Chennai,"Royapuram, Chennai - TNPCB",24-01-2024 15:00:00,13.1036,80.2909,NO2,NA,NA,NA
India,TamilNadu,Chennai,"Velachery Res. Area, Chennai - CPCB",24-01-2024 15:00:00,13.0052189,80.2398125,SO2,10,11,11
India,TamilNadu,Cuddalore,"Kudikadu, Cuddalore - TNPCB",24-01-2024 15:00:00,11.6829898,79.7532099,PM10,62,122,85
India,TamilNadu,Cuddalore,"Semmandalam, Cuddalore - TNPCB",24-01-2024 15:00:00,11.7637683,79.7499835,PM10,30,99,58
India,TamilNadu,Gummidipoondi,"Anthoni Pillai Nagar, Gummidipoondi - TNPCB",24-01-2024 15:00:00,13.4127,80.1081,NH3,2,2,2
India,TamilNadu,Gummidipoondi,"Anthoni Pillai Nagar, Gummidipoondi - TNPCB",24-01-2024 15:00:00,13.4127,80.1081,SO2,2,30,13
India,TamilNadu,Ooty,"Bombay Castel, Ooty - TNPCB",24-01-2024 15:00:00,11.4068288,76.7138973,PM10,34,143,85
India,TamilNadu,Ooty,"Bombay Castel, Ooty - TNPCB",24-01-2024 15:00:00,11.4068288,76.7138973,NO2,NA,NA,NA
India,TamilNadu,Ooty,"Bombay Castel, Ooty - TNPCB",24-01-2024 15:00:00,11.4068288,76.7138973,SO2,13,13,13
India,TamilNadu,Palkalaiperur,"Bharathidasan University, Palkalaiperur - TNPCB",24-01-2024 15:00:00,10.681158,78.741746,PM2.5,NA,NA,NA
India,TamilNadu,Palkalaiperur,"Bharathidasan University, Palkalaiperur - TNPCB",24-01-2024 15:00:00,10.681158,78.741746,PM10,NA,NA,NA
India,TamilNadu,Ramanathapuram,"Chalai Bazaar, Ramanathapuram - TNPCB",24-01-2024 15:00:00,9.36399,78.831977,PM2.5,29,61,45
India,TamilNadu,Ramanathapuram,"Chalai Bazaar, Ramanathapuram - TNPCB",24-01-2024 15:00:00,9.36399,78.831977,PM10,43,101,65
India,TamilNadu,Ramanathapuram,"Chalai Bazaar, Ramanathapuram - TNPCB",24-01-2024 15:00:00,9.36399,78.831977,NH3,1,1,1
India,TamilNadu,Salem,"Sona College of Technology, Salem - TNPCB",24-01-2024 15:00:00,11.679111,78.125052,PM2.5,44,110,69
India,TamilNadu,Thoothukudi,"Meelavittan, Thoothukudi - TNPCB",24-01-2024 15:00:00,8.816428 ,78.099039,SO2,5,19,12
India,TamilNadu,Thoothukudi,"Meelavittan, Thoothukudi - TNPCB",24-01-2024 15:00:00,8.816428 ,78.099039,OZONE,16,97,54
India,TamilNadu,Vellore,"Vasanthapuram, Vellore - TNPCB",24-01-2024 15:00:00,12.909494,79.131861,NO2,3,24,8
India,TamilNadu,Vellore,"Vasanthapuram, Vellore - TNPCB",24-01-2024 15:00:00,12.909494,79.131861,NH3,1,2,1
India,TamilNadu,Virudhunagar,"Collectorate Office, Virudhunagar - TNPCB",24-01-2024 15:00:00,9.559382,77.948828,PM2.5,29,150,51
India,TamilNadu,Virudhunagar,"Collectorate Office, Virudhunagar - TNPCB",24-01-2024 15:00:00,9.559382,77.948828,NH3,2,3,2
India,TamilNadu,Virudhunagar,"Collectorate Office, Virudhunagar - TNPCB",24-01-2024 15:00:00,9.559382,77.948828,SO2,16,17,17
India,Telangana,Hyderabad,"Bollaram Industrial Area, Hyderabad - TSPCB",24-01-2024 15:00:00,17.540891,78.358528,PM10,NA,NA,NA
India,Telangana,Hyderabad,"Bollaram Industrial Area, Hyderabad - TSPCB",24-01-2024 15:00:00,17.540891,78.358528,SO2,12,35,19
India,Telangana,Hyderabad,"Central University, Hyderabad - TSPCB",24-01-2024 15:00:00,17.460103,78.334361,NH3,3,5,4
India,Telangana,Hyderabad,"ECIL Kapra, Hyderabad - TSPCB",24-01-2024 15:00:00,17.470431,78.566959,PM2.5,44,51,46
India,Telangana,Hyderabad,"ECIL Kapra, Hyderabad - TSPCB",24-01-2024 15:00:00,17.470431,78.566959,PM10,70,88,76
India,Telangana,Hyderabad,"ECIL Kapra, Hyderabad - TSPCB",24-01-2024 15:00:00,17.470431,78.566959,CO,8,42,24
India,Telangana,Hyderabad,"ICRISAT Patancheru, Hyderabad - TSPCB",24-01-2024 15:00:00,17.518400,78.278777,CO,62,100,87
India,Telangana,Hyderabad,"IITH Kandi, Hyderabad - TSPCB",24-01-2024 15:00:00,17.585705,78.126199,PM2.5,9,29,19
India,Telangana,Hyderabad,"IITH Kandi, Hyderabad - TSPCB",24-01-2024 15:00:00,17.585705,78.126199,SO2,9,13,10
India,Telangana,Hyderabad,"Kokapet, Hyderabad - TSPCB",24-01-2024 15:00:00,17.393559,78.339194,PM10,65,87,73
India,Telangana,Hyderabad,"Kompally Municipal Office, Hyderabad - TSPCB",24-01-2024 15:00:00,17.544899,78.486949,CO,5,60,27
India,Telangana,Hyderabad,"Nacharam_TSIIC IALA, Hyderabad - TSPCB",24-01-2024 15:00:00,17.429398,78.569354,PM10,NA,NA,NA
India,Telangana,Hyderabad,"Nacharam_TSIIC IALA, Hyderabad - TSPCB",24-01-2024 15:00:00,17.429398,78.569354,SO2,NA,NA,NA
India,Telangana,Hyderabad,"Ramachandrapuram, Hyderabad - TSPCB",24-01-2024 15:00:00,17.528544,78.286195,SO2,10,20,11
India,Telangana,Hyderabad,"Sanathnagar, Hyderabad - TSPCB",24-01-2024 15:00:00,17.4559458,78.4332152,SO2,4,11,7
India,Telangana,Hyderabad,"Sanathnagar, Hyderabad - TSPCB",24-01-2024 15:00:00,17.4559458,78.4332152,OZONE,12,102,46
India,Telangana,Hyderabad,"Somajiguda, Hyderabad - TSPCB",24-01-2024 15:00:00,17.417094,78.457437,CO,8,60,25
India,Telangana,Hyderabad,"Zoo Park, Hyderabad - TSPCB",24-01-2024 15:00:00,17.349694,78.451437,OZONE,16,48,24
India,Uttar_Pradesh,Agra,"Rohta, Agra - UPPCB",24-01-2024 15:00:00,27.106972,78.000111,NO2,NA,NA,NA
India,Uttar_Pradesh,Agra,"Rohta, Agra - UPPCB",24-01-2024 15:00:00,27.106972,78.000111,NH3,NA,NA,NA
India,Uttar_Pradesh,Agra,"Rohta, Agra - UPPCB",24-01-2024 15:00:00,27.106972,78.000111,CO,20,36,27
India,Uttar_Pradesh,Agra,"Rohta, Agra - UPPCB",24-01-2024 15:00:00,27.106972,78.000111,OZONE,14,17,15
India,Uttar_Pradesh,Agra,"Sanjay Palace, Agra - UPPCB",24-01-2024 15:00:00,27.19865833,78.00598056,SO2,2,13,8
India,Uttar_Pradesh,Agra,"Sector-3B Avas Vikas Colony, Agra - UPPCB",24-01-2024 15:00:00,27.19412,77.96237,PM2.5,37,309,98
India,Uttar_Pradesh,Agra,"Shastripuram, Agra - UPPCB",24-01-2024 15:00:00,27.19862,77.92066,NH3,2,3,3
India,Uttar_Pradesh,Agra,"Shastripuram, Agra - UPPCB",24-01-2024 15:00:00,27.19862,77.92066,SO2,17,30,20
India,Uttar_Pradesh,Agra,"Shastripuram, Agra - UPPCB",24-01-2024 15:00:00,27.19862,77.92066,CO,6,36,12
India,Uttar_Pradesh,Baghpat,"Sardar Patel Inter College, Baghpat - UPPCB",24-01-2024 15:00:00,28.964949,77.278761,NH3,3,5,4
India,Uttar_Pradesh,Baghpat,"Sardar Patel Inter College, Baghpat - UPPCB",24-01-2024 15:00:00,28.964949,77.278761,OZONE,3,36,10
India,Uttar_Pradesh,Bareilly,"Civil Lines, Bareilly - UPPCB",24-01-2024 15:00:00,28.359581,79.414455,PM2.5,29,91,63
India,Uttar_Pradesh,Bareilly,"Civil Lines, Bareilly - UPPCB",24-01-2024 15:00:00,28.359581,79.414455,NO2,17,41,23
India,Uttar_Pradesh,Bulandshahr,"Yamunapuram, Bulandshahr - UPPCB",24-01-2024 15:00:00,28.406963,77.849831,PM10,128,380,214
India,Uttar_Pradesh,Firozabad,"Nagla Bhau, Firozabad - UPPCB",24-01-2024 15:00:00,27.168897,78.376960,NO2,16,18,17
India,Uttar_Pradesh,Firozabad,"Nagla Bhau, Firozabad - UPPCB",24-01-2024 15:00:00,27.168897,78.376960,OZONE,20,56,24
India,Uttar_Pradesh,Firozabad,"Vibhab Nagar, Firozabad - UPPCB",24-01-2024 15:00:00,27.1594,78.3953,PM2.5,48,196,93
India,Uttar_Pradesh,Firozabad,"Vibhab Nagar, Firozabad - UPPCB",24-01-2024 15:00:00,27.1594,78.3953,CO,32,64,40
India,Uttar_Pradesh,Firozabad,"Vibhab Nagar, Firozabad - UPPCB",24-01-2024 15:00:00,27.1594,78.3953,OZONE,20,25,20
India,Uttar_Pradesh,Ghaziabad,"Indirapuram, Ghaziabad - UPPCB",24-01-2024 15:00:00,28.646233,77.358075,SO2,16,18,16
India,Uttar_Pradesh,Ghaziabad,"Loni, Ghaziabad - UPPCB",24-01-2024 15:00:00,28.757294,77.278792,PM2.5,243,350,304
India,Uttar_Pradesh,Ghaziabad,"Loni, Ghaziabad - UPPCB",24-01-2024 15:00:00,28.757294,77.278792,NH3,2,5,4
India,Uttar_Pradesh,Ghaziabad,"Vasundhara, Ghaziabad - UPPCB",24-01-2024 15:00:00,28.6603346,77.3572563,PM2.5,309,372,342
India,Uttar_Pradesh,Ghaziabad,"Vasundhara, Ghaziabad - UPPCB",24-01-2024 15:00:00,28.6603346,77.3572563,SO2,5,47,15
India,Uttar_Pradesh,Greater Noida,"Knowledge Park - III, Greater Noida - UPPCB",24-01-2024 15:00:00,28.47272,77.482000,PM10,NA,NA,NA
India,Uttar_Pradesh,Hapur,"Anand Vihar, Hapur - UPPCB",24-01-2024 15:00:00,28.725645,77.749675,PM2.5,195,351,266
India,Uttar_Pradesh,Hapur,"Anand Vihar, Hapur - UPPCB",24-01-2024 15:00:00,28.725645,77.749675,PM10,152,327,195
India,Uttar_Pradesh,Kanpur,"FTI Kidwai Nagar, Kanpur - UPPCB",24-01-2024 15:00:00,26.428282,80.327067,PM10,25,222,106
India,Uttar_Pradesh,Kanpur,"FTI Kidwai Nagar, Kanpur - UPPCB",24-01-2024 15:00:00,26.428282,80.327067,CO,46,66,49
India,Uttar_Pradesh,Kanpur,"FTI Kidwai Nagar, Kanpur - UPPCB",24-01-2024 15:00:00,26.428282,80.327067,OZONE,3,7,4
India,Uttar_Pradesh,Kanpur,"NSI Kalyanpur, Kanpur - UPPCB",24-01-2024 15:00:00,26.509954,80.249612,CO,44,66,47
India,Uttar_Pradesh,Kanpur,"Nehru Nagar, Kanpur - UPPCB",24-01-2024 15:00:00,26.4703136,80.3229863,PM10,46,132,90
India,Uttar_Pradesh,Khurja,"Kalindi Kunj, Khurja - UPPCB",24-01-2024 15:00:00,28.2348927,77.8683002,PM10,29,136,69
India,Uttar_Pradesh,Lucknow,"B R Ambedkar University, Lucknow - UPPCB",24-01-2024 15:00:00,26.766433,80.927299,CO,20,38,23
India,Uttar_Pradesh,Lucknow,"Gomti Nagar, Lucknow - UPPCB",24-01-2024 15:00:00,26.868120,81.005119,SO2,2,31,15
India,Uttar_Pradesh,Lucknow,"Kendriya Vidyalaya, Lucknow - CPCB",24-01-2024 15:00:00,26.906111,80.948222,PM10,71,164,110
India,Uttar_Pradesh,Lucknow,"Kendriya Vidyalaya, Lucknow - CPCB",24-01-2024 15:00:00,26.906111,80.948222,NO2,3,9,5
India,Uttar_Pradesh,Lucknow,"Kendriya Vidyalaya, Lucknow - CPCB",24-01-2024 15:00:00,26.906111,80.948222,SO2,6,12,9
India,Uttar_Pradesh,Lucknow,"Kendriya Vidyalaya, Lucknow - CPCB",24-01-2024 15:00:00,26.906111,80.948222,OZONE,14,52,25
India,Uttar_Pradesh,Lucknow,"Kukrail Picnic Spot-1, Lucknow - UPPCB",24-01-2024 15:00:00,26.90723,80.98579,SO2,27,28,28
India,Uttar_Pradesh,Lucknow,"Talkatora District Industries Center, Lucknow - CPCB",24-01-2024 15:00:00,26.83399722,80.8917361,NO2,51,110,82
India,Uttar_Pradesh,Meerut,"Ganga Nagar, Meerut - UPPCB",24-01-2024 15:00:00,28.999264,77.7590354,CO,38,88,44
India,Uttar_Pradesh,Meerut,"Jai Bhim Nagar, Meerut - UPPCB",24-01-2024 15:00:00,28.9535882,77.7622941,PM2.5,151,324,229
India,Uttar_Pradesh,Moradabad,"Buddhi Vihar, Moradabad - UPPCB",24-01-2024 15:00:00,28.83526,78.74460,OZONE,13,18,16
India,Uttar_Pradesh,Moradabad,"Eco Herbal Park, Moradabad - UPPCB",24-01-2024 15:00:00,28.840739,78.697531,PM2.5,83,278,147
India,Uttar_Pradesh,Moradabad,"Eco Herbal Park, Moradabad - UPPCB",24-01-2024 15:00:00,28.840739,78.697531,NH3,4,48,8
India,Uttar_Pradesh,Moradabad,"Eco Herbal Park, Moradabad - UPPCB",24-01-2024 15:00:00,28.840739,78.697531,OZONE,3,21,7
India,Uttar_Pradesh,Moradabad,"Jigar Colony, Moradabad - UPPCB",24-01-2024 15:00:00,28.856664,78.772638,CO,36,64,42
India,Uttar_Pradesh,Moradabad,"Jigar Colony, Moradabad - UPPCB",24-01-2024 15:00:00,28.856664,78.772638,OZONE,10,18,11
India,Uttar_Pradesh,Moradabad,"Kashiram Nagar, Moradabad - UPPCB",24-01-2024 15:00:00,28.849399,78.742362,SO2,24,29,27
India,Uttar_Pradesh,Moradabad,"Kashiram Nagar, Moradabad - UPPCB",24-01-2024 15:00:00,28.849399,78.742362,CO,48,58,51
India,Uttar_Pradesh,Muzaffarnagar,"New Mandi, Muzaffarnagar - UPPCB",24-01-2024 15:00:00,29.4723508,77.7194031,PM2.5,113,359,278
India,Uttar_Pradesh,Noida,"Sector - 125, Noida - UPPCB",24-01-2024 15:00:00,28.5447608,77.3231257,PM10,NA,NA,NA
India,Uttar_Pradesh,Noida,"Sector - 125, Noida - UPPCB",24-01-2024 15:00:00,28.5447608,77.3231257,SO2,16,28,22
India,Uttar_Pradesh,Noida,"Sector - 62, Noida - IMD",24-01-2024 15:00:00,28.6245479,77.3577104,NO2,18,32,23
India,Uttar_Pradesh,Noida,"Sector - 62, Noida - IMD",24-01-2024 15:00:00,28.6245479,77.3577104,CO,102,103,102
India,Uttar_Pradesh,Noida,"Sector-1, Noida - UPPCB",24-01-2024 15:00:00,28.5898,77.3101,NO2,43,118,74
India,Uttar_Pradesh,Noida,"Sector-116, Noida - UPPCB",24-01-2024 15:00:00,28.569230,77.393848,CO,14,116,71
India,Uttar_Pradesh,Prayagraj,"Jhunsi, Prayagraj - UPPCB",24-01-2024 15:00:00,25.425602,81.917152,NO2,5,6,6
India,Uttar_Pradesh,Prayagraj,"Motilal Nehru NIT, Prayagraj - UPPCB",24-01-2024 15:00:00,25.494,81.863,NO2,12,12,12
India,Uttar_Pradesh,Prayagraj,"Motilal Nehru NIT, Prayagraj - UPPCB",24-01-2024 15:00:00,25.494,81.863,SO2,38,39,39
India,Uttar_Pradesh,Varanasi,"Ardhali Bazar, Varanasi - UPPCB",24-01-2024 15:00:00,25.3505986,82.9083074,PM2.5,32,156,62
India,Uttar_Pradesh,Varanasi,"IESD Banaras Hindu University, Varanasi - UPPCB",24-01-2024 15:00:00,25.262326,82.995408,PM2.5,14,51,27
India,Uttar_Pradesh,Varanasi,"IESD Banaras Hindu University, Varanasi - UPPCB",24-01-2024 15:00:00,25.262326,82.995408,OZONE,1,3,1
India,Uttar_Pradesh,Varanasi,"Maldahiya, Varanasi - UPPCB",24-01-2024 15:00:00,25.32393,82.99687,OZONE,4,6,4
India,Uttar_Pradesh,Vrindavan,"Omex Eternity, Vrindavan - UPPCB",24-01-2024 15:00:00,27.5714090,77.6557570,PM2.5,15,92,50
India,Uttar_Pradesh,Vrindavan,"Omex Eternity, Vrindavan - UPPCB",24-01-2024 15:00:00,27.5714090,77.6557570,NH3,3,7,3
India,Uttarakhand,Kashipur,"Govt. Girls Inter College, Kashipur - UKPCB",24-01-2024 15:00:00,29.2124114,78.9611753,PM2.5,10,354,134
India,Uttarakhand,Kashipur,"Govt. Girls Inter College, Kashipur - UKPCB",24-01-2024 15:00:00,29.2124114,78.9611753,PM10,55,195,108
India,Uttarakhand,Kashipur,"Govt. Girls Inter College, Kashipur - UKPCB",24-01-2024 15:00:00,29.2124114,78.9611753,NO2,20,85,49
India,Uttarakhand,Kashipur,"Govt. Girls Inter College, Kashipur - UKPCB",24-01-2024 15:00:00,29.2124114,78.9611753,SO2,4,9,8
India,Uttarakhand,Rishikesh,"Shivaji Nagar, Rishikesh - UKPCB",24-01-2024 15:00:00,30.075911,78.2859547,SO2,3,5,4
India,West_Bengal,Asansol,"Asansol Court Area, Asansol - WBPCB",24-01-2024 15:00:00,23.685297,86.945968,CO,3,117,19
India,West_Bengal,Barrackpore,"SVSPA Campus, Barrackpore - WBPCB",24-01-2024 15:00:00,22.7605581,88.3617589,PM2.5,135,339,279
India,West_Bengal,Barrackpore,"SVSPA Campus, Barrackpore - WBPCB",24-01-2024 15:00:00,22.7605581,88.3617589,NO2,20,88,47
India,West_Bengal,Barrackpore,"SVSPA Campus, Barrackpore - WBPCB",24-01-2024 15:00:00,22.7605581,88.3617589,OZONE,8,103,44
India,West_Bengal,Durgapur,"Sidhu Kanhu Indoor Stadium, Durgapur - WBPCB",24-01-2024 15:00:00,23.5404352,87.2892225,NO2,29,56,38
India,West_Bengal,Durgapur,"Sidhu Kanhu Indoor Stadium, Durgapur - WBPCB",24-01-2024 15:00:00,23.5404352,87.2892225,OZONE,2,40,12
India,West_Bengal,Haldia,"Priyambada Housing Estate, Haldia - WBPCB",24-01-2024 15:00:00,22.06047,88.109737,NO2,32,102,51
India,West_Bengal,Haldia,"Priyambada Housing Estate, Haldia - WBPCB",24-01-2024 15:00:00,22.06047,88.109737,NH3,4,8,5
India,West_Bengal,Haldia,"Priyambada Housing Estate, Haldia - WBPCB",24-01-2024 15:00:00,22.06047,88.109737,OZONE,15,40,23
India,West_Bengal,Howrah,"Belur Math, Howrah - WBPCB",24-01-2024 15:00:00,22.629801,88.352017,NO2,16,41,29
India,West_Bengal,Howrah,"Ghusuri, Howrah - WBPCB",24-01-2024 15:00:00,22.611968,88.347422,NH3,7,13,9
India,West_Bengal,Howrah,"Ghusuri, Howrah - WBPCB",24-01-2024 15:00:00,22.611968,88.347422,OZONE,10,17,14
India,West_Bengal,Kolkata,"Bidhannagar, Kolkata - WBPCB",24-01-2024 15:00:00,22.58157048,88.41002457,NH3,9,17,12
India,West_Bengal,Kolkata,"Bidhannagar, Kolkata - WBPCB",24-01-2024 15:00:00,22.58157048,88.41002457,CO,42,95,57
India,West_Bengal,Kolkata,"Bidhannagar, Kolkata - WBPCB",24-01-2024 15:00:00,22.58157048,88.41002457,OZONE,6,94,28
India,West_Bengal,Kolkata,"Fort William, Kolkata - WBPCB",24-01-2024 15:00:00,22.556640,88.342674,PM2.5,143,390,310
India,West_Bengal,Kolkata,"Jadavpur, Kolkata - WBPCB",24-01-2024 15:00:00,22.49929,88.36917,PM2.5,199,330,267
India,West_Bengal,Kolkata,"Jadavpur, Kolkata - WBPCB",24-01-2024 15:00:00,22.49929,88.36917,NH3,2,5,3
India,West_Bengal,Kolkata,"Rabindra Bharati University, Kolkata - WBPCB",24-01-2024 15:00:00,22.627847,88.380669,PM10,111,188,145
India,West_Bengal,Kolkata,"Rabindra Bharati University, Kolkata - WBPCB",24-01-2024 15:00:00,22.627847,88.380669,OZONE,1,79,40
India,West_Bengal,Kolkata,"Rabindra Sarobar, Kolkata - WBPCB",24-01-2024 15:00:00,22.51106,88.35142,SO2,10,29,19
India,West_Bengal,Kolkata,"Victoria, Kolkata - WBPCB",24-01-2024 15:00:00,22.5448082,88.3403691,PM2.5,148,351,257
India,West_Bengal,Kolkata,"Victoria, Kolkata - WBPCB",24-01-2024 15:00:00,22.5448082,88.3403691,NO2,7,35,17
India,West_Bengal,Kolkata,"Victoria, Kolkata - WBPCB",24-01-2024 15:00:00,22.5448082,88.3403691,NH3,1,2,1
India,West_Bengal,Kolkata,"Victoria, Kolkata - WBPCB",24-01-2024 15:00:00,22.5448082,88.3403691,OZONE,4,113,49
India,West_Bengal,Siliguri,"Ward-32 Bapupara, Siliguri - WBPCB",24-01-2024 15:00:00,26.6879226,88.4152495,OZONE,7,66,21
India,Andhra_Pradesh,Amaravati,"Secretariat, Amaravati - APPCB",24-01-2024 15:00:00,16.5150833,80.5181667,PM2.5,39,60,46
India,Andhra_Pradesh,Amaravati,"Secretariat, Amaravati - APPCB",24-01-2024 15:00:00,16.5150833,80.5181667,NO2,6,15,10
India,Andhra_Pradesh,Anantapur,"Gulzarpet, Anantapur - APPCB",24-01-2024 15:00:00,14.675886,77.593027,PM10,NA,NA,NA
India,Andhra_Pradesh,Anantapur,"Gulzarpet, Anantapur - APPCB",24-01-2024 15:00:00,14.675886,77.593027,CO,26,46,30
India,Andhra_Pradesh,Chittoor,"Gangineni Cheruvu, Chittoor - APPCB",24-01-2024 15:00:00,13.204880,79.097889,PM2.5,41,81,53
India,Andhra_Pradesh,Chittoor,"Gangineni Cheruvu, Chittoor - APPCB",24-01-2024 15:00:00,13.204880,79.097889,CO,20,44,32
India,Andhra_Pradesh,Kadapa,"Yerramukkapalli, Kadapa - APPCB",24-01-2024 15:00:00,14.465052,78.824187,PM2.5,35,66,47
India,Andhra_Pradesh,Kadapa,"Yerramukkapalli, Kadapa - APPCB",24-01-2024 15:00:00,14.465052,78.824187,PM10,31,55,40
India,Andhra_Pradesh,Kadapa,"Yerramukkapalli, Kadapa - APPCB",24-01-2024 15:00:00,14.465052,78.824187,SO2,1,2,2
India,Andhra_Pradesh,Kadapa,"Yerramukkapalli, Kadapa - APPCB",24-01-2024 15:00:00,14.465052,78.824187,CO,14,24,21
India,Andhra_Pradesh,Rajamahendravaram,"Anand Kala Kshetram, Rajamahendravaram - APPCB",24-01-2024 15:00:00,16.9872867,81.7363176,PM10,62,96,74
India,Andhra_Pradesh,Rajamahendravaram,"Anand Kala Kshetram, Rajamahendravaram - APPCB",24-01-2024 15:00:00,16.9872867,81.7363176,NO2,13,31,21
India,Andhra_Pradesh,Rajamahendravaram,"Anand Kala Kshetram, Rajamahendravaram - APPCB",24-01-2024 15:00:00,16.9872867,81.7363176,NH3,3,14,5
India,Andhra_Pradesh,Rajamahendravaram,"Anand Kala Kshetram, Rajamahendravaram - APPCB",24-01-2024 15:00:00,16.9872867,81.7363176,OZONE,5,8,6
India,Andhra_Pradesh,Tirupati,"Tirumala, Tirupati - APPCB",24-01-2024 15:00:00,13.67,79.35,NO2,18,41,28
India,Andhra_Pradesh,Tirupati,"Tirumala, Tirupati - APPCB",24-01-2024 15:00:00,13.67,79.35,CO,36,56,40
India,Andhra_Pradesh,Tirupati,"Tirumala, Tirupati - APPCB",24-01-2024 15:00:00,13.67,79.35,OZONE,19,47,30
India,Andhra_Pradesh,Vijayawada,"HB Colony, Vijayawada - APPCB",24-01-2024 15:00:00,16.536107,80.594233,NO2,NA,NA,NA
India,Andhra_Pradesh,Vijayawada,"HB Colony, Vijayawada - APPCB",24-01-2024 15:00:00,16.536107,80.594233,CO,24,24,24
India,Andhra_Pradesh,Vijayawada,"Rajiv Gandhi Park, Vijayawada - APPCB",24-01-2024 15:00:00,16.509717,80.612222,NO2,NA,NA,NA
India,Andhra_Pradesh,Vijayawada,"Rajiv Gandhi Park, Vijayawada - APPCB",24-01-2024 15:00:00,16.509717,80.612222,SO2,NA,NA,NA
India,Andhra_Pradesh,Vijayawada,"Rajiv Gandhi Park, Vijayawada - APPCB",24-01-2024 15:00:00,16.509717,80.612222,CO,35,35,35
India,Andhra_Pradesh,Vijayawada,"Rajiv Gandhi Park, Vijayawada - APPCB",24-01-2024 15:00:00,16.509717,80.612222,OZONE,39,43,41
India,Arunachal_Pradesh,Naharlagun,"Naharlagun, Naharlagun - APSPCB",24-01-2024 15:00:00,27.103358,93.679645,SO2,3,3,3
India,Assam,Byrnihat,"Central Academy for SFS, Byrnihat - PCBA",24-01-2024 15:00:00,26.071318,91.87488,NO2,36,111,53
India,Assam,Byrnihat,"Central Academy for SFS, Byrnihat - PCBA",24-01-2024 15:00:00,26.071318,91.87488,SO2,4,21,17
India,Assam,Byrnihat,"Central Academy for SFS, Byrnihat - PCBA",24-01-2024 15:00:00,26.071318,91.87488,CO,2,106,58
India,Assam,Guwahati,"LGBI Airport, Guwahati - PCBA",24-01-2024 15:00:00,26.10887,91.589544,PM2.5,113,321,247
India,Assam,Guwahati,"LGBI Airport, Guwahati - PCBA",24-01-2024 15:00:00,26.10887,91.589544,PM10,105,279,179
India,Assam,Guwahati,"LGBI Airport, Guwahati - PCBA",24-01-2024 15:00:00,26.10887,91.589544,NO2,13,84,33
India,Assam,Guwahati,"LGBI Airport, Guwahati - PCBA",24-01-2024 15:00:00,26.10887,91.589544,CO,57,81,75
India,Assam,Guwahati,"Pan Bazaar, Guwahati - PCBA",24-01-2024 15:00:00,26.187500,91.744194,OZONE,17,17,17
India,Assam,Guwahati,"Railway Colony, Guwahati - PCBA",24-01-2024 15:00:00,26.181742,91.78063,SO2,21,40,27
India,Assam,Guwahati,"Railway Colony, Guwahati - PCBA",24-01-2024 15:00:00,26.181742,91.78063,OZONE,7,42,25
India,Assam,Nagaon,"Christianpatty, Nagaon - PCBA",24-01-2024 15:00:00,26.349082,92.68449,CO,14,42,17
India,Assam,Nalbari,"Bata Chowk, Nalbari - PCBA",24-01-2024 15:00:00,26.446912,91.439057,NO2,19,56,32
India,Assam,Nalbari,"Bata Chowk, Nalbari - PCBA",24-01-2024 15:00:00,26.446912,91.439057,NH3,1,8,3
India,Assam,Silchar,"Tarapur, Silchar - PCBA",24-01-2024 15:00:00,24.82827,92.79525,SO2,1,12,6
India,Assam,Sivasagar,"Girls College, Sivasagar - PCBA",24-01-2024 15:00:00,26.987634,94.636574,PM10,25,95,55
India,Assam,Sivasagar,"Girls College, Sivasagar - PCBA",24-01-2024 15:00:00,26.987634,94.636574,NO2,10,39,23
India,Bihar,Arrah,"New DM Office, Arrah - BSPCB",24-01-2024 15:00:00,25.5626095,84.663264,NO2,11,70,28
India,Bihar,Arrah,"New DM Office, Arrah - BSPCB",24-01-2024 15:00:00,25.5626095,84.663264,SO2,15,21,19
India,Bihar,Arrah,"New DM Office, Arrah - BSPCB",24-01-2024 15:00:00,25.5626095,84.663264,OZONE,11,28,17
India,Bihar,Aurangabad,"Gurdeo Nagar, Aurangabad - BSPCB",24-01-2024 15:00:00,24.75746,84.366208,PM10,75,147,114
India,Bihar,Aurangabad,"Gurdeo Nagar, Aurangabad - BSPCB",24-01-2024 15:00:00,24.75746,84.366208,NO2,7,14,9
India,Bihar,Bettiah,"Kamalnath Nagar, Bettiah - BSPCB",24-01-2024 15:00:00,26.80365,84.51954,NH3,3,3,3
India,Bihar,Bhagalpur,"DM Office_Kachari Chowk, Bhagalpur - BSPCB",24-01-2024 15:00:00,25.251013,86.989001,PM2.5,290,365,333
India,Bihar,Chhapra,"Darshan Nagar, Chhapra - BSPCB",24-01-2024 15:00:00,25.7808257,84.7446768,SO2,2,41,22
India,Bihar,Chhapra,"Darshan Nagar, Chhapra - BSPCB",24-01-2024 15:00:00,25.7808257,84.7446768,OZONE,1,2,1
India,Bihar,Gaya,"Collectorate, Gaya - BSPCB",24-01-2024 15:00:00,24.7955,84.9994,PM2.5,191,416,300
India,Bihar,Gaya,"Collectorate, Gaya - BSPCB",24-01-2024 15:00:00,24.7955,84.9994,OZONE,40,80,62
India,Bihar,Gaya,"SFTI Kusdihra, Gaya - BSPCB",24-01-2024 15:00:00,24.762518,84.982348,PM2.5,98,315,198
India,Bihar,Hajipur,"Industrial Area, Hajipur - BSPCB",24-01-2024 15:00:00,25.697189,85.245900,NH3,NA,NA,NA
India,Bihar,Katihar,"Mirchaibari, Katihar - BSPCB",24-01-2024 15:00:00,25.560083,87.553265,NH3,1,4,2
India,Bihar,Kishanganj,"SDM Office_Khagra, Kishanganj - BSPCB",24-01-2024 15:00:00,26.0881305,87.93840336,NH3,9,13,11
India,Bihar,Kishanganj,"SDM Office_Khagra, Kishanganj - BSPCB",24-01-2024 15:00:00,26.0881305,87.93840336,SO2,8,20,12
India,Bihar,Manguraha,"Forest Rest House, Manguraha - BSPCB",24-01-2024 15:00:00,27.308328,84.531742,OZONE,NA,NA,NA
India,Bihar,Motihari,"Gandak Colony, Motihari - BSPCB",24-01-2024 15:00:00,26.63086,84.90051,PM2.5,78,300,144
India,Bihar,Motihari,"Gandak Colony, Motihari - BSPCB",24-01-2024 15:00:00,26.63086,84.90051,CO,55,95,76
India,Bihar,Munger,"Town Hall, Munger - BSPCB",24-01-2024 15:00:00,25.376776,86.471523,NH3,1,3,2
India,Bihar,Munger,"Town Hall, Munger - BSPCB",24-01-2024 15:00:00,25.376776,86.471523,SO2,32,45,40
India,Bihar,Muzaffarpur,"Buddha Colony, Muzaffarpur - BSPCB",24-01-2024 15:00:00,26.11442,85.39813,CO,84,102,94
India,Bihar,Muzaffarpur,"MIT-Daudpur Kothi, Muzaffarpur - BSPCB",24-01-2024 15:00:00,26.1403345,85.3650192,NO2,6,8,7
India,Bihar,Patna,"Govt. High School Shikarpur, Patna - BSPCB",24-01-2024 15:00:00,25.592539,85.227158,OZONE,2,35,15
India,Bihar,Patna,"Muradpur, Patna - BSPCB",24-01-2024 15:00:00,25.619651,85.147382,OZONE,4,44,17
India,Bihar,Patna,"Samanpura, Patna - BSPCB",24-01-2024 15:00:00,25.596727,85.085624,SO2,4,6,5
India,Bihar,Rajgir,"Dangi Tola, Rajgir - BSPCB",24-01-2024 15:00:00,25.03280,85.41948,PM2.5,103,447,268
India,Bihar,Saharsa,"Police Line, Saharsa - BSPCB",24-01-2024 15:00:00,25.892357,86.590325,NH3,9,9,9
India,Bihar,Saharsa,"Police Line, Saharsa - BSPCB",24-01-2024 15:00:00,25.892357,86.590325,SO2,26,29,28
India,Bihar,Saharsa,"Police Line, Saharsa - BSPCB",24-01-2024 15:00:00,25.892357,86.590325,CO,13,70,46
India,Bihar,Saharsa,"Police Line, Saharsa - BSPCB",24-01-2024 15:00:00,25.892357,86.590325,OZONE,10,59,29
India,Bihar,Samastipur,"DM Office_Kasipur, Samastipur - BSPCB",24-01-2024 15:00:00,25.859655,85.77944,NH3,NA,NA,NA
India,Bihar,Sasaram,"Dada Peer, Sasaram - BSPCB",24-01-2024 15:00:00,24.952822,84.002396,CO,31,63,44
India,Bihar,Siwan,"Chitragupta Nagar, Siwan - BSPCB",24-01-2024 15:00:00,26.2271665,84.3570427,PM10,81,159,111
India,Bihar,Siwan,"Chitragupta Nagar, Siwan - BSPCB",24-01-2024 15:00:00,26.2271665,84.3570427,NO2,14,60,28
India,Chandigarh,Chandigarh,"Sector 22, Chandigarh - CPCC",24-01-2024 15:00:00,30.735567,76.775714,NO2,12,39,22
India,Chandigarh,Chandigarh,"Sector 22, Chandigarh - CPCC",24-01-2024 15:00:00,30.735567,76.775714,OZONE,2,71,9
India,Chandigarh,Chandigarh,"Sector-25, Chandigarh - CPCC",24-01-2024 15:00:00,30.751462,76.762879,PM10,125,272,203
India,Chandigarh,Chandigarh,"Sector-25, Chandigarh - CPCC",24-01-2024 15:00:00,30.751462,76.762879,NO2,1,41,19
India,Chandigarh,Chandigarh,"Sector-25, Chandigarh - CPCC",24-01-2024 15:00:00,30.751462,76.762879,CO,48,91,57
India,Chhattisgarh,Bhilai,"32Bungalows, Bhilai - CECB",24-01-2024 15:00:00,21.194815,81.314770,NO2,21,31,25
India,Chhattisgarh,Bhilai,"Civic Center, Bhilai - Bhilai Steel Plant",24-01-2024 15:00:00,21.185571,81.343175,CO,28,61,42
India,Chhattisgarh,Bhilai,"Hathkhoj, Bhilai - CECB",24-01-2024 15:00:00,21.224231,81.408350,NH3,7,8,8
India,Chhattisgarh,Bhilai,"Hathkhoj, Bhilai - CECB",24-01-2024 15:00:00,21.224231,81.408350,CO,22,54,35
India,Chhattisgarh,Chhal,"Nawapara SECL Colony, Chhal - CECB",24-01-2024 15:00:00,22.118125,83.140608,SO2,8,47,19
India,Chhattisgarh,Chhal,"Nawapara SECL Colony, Chhal - CECB",24-01-2024 15:00:00,22.118125,83.140608,OZONE,5,66,28
India,Chhattisgarh,Korba,"Rampur, Korba - CECB",24-01-2024 15:00:00,22.368195,82.746431,SO2,9,75,21
India,Chhattisgarh,Korba,"Urja Nagar, Korba - CECB",24-01-2024 15:00:00,22.348441,82.549611,CO,32,91,45
India,Chhattisgarh,Kunjemura,"OP Jindal School, Kunjemura - CECB",24-01-2024 15:00:00,22.126650,83.483212,PM2.5,38,56,45
India,Chhattisgarh,Kunjemura,"OP Jindal School, Kunjemura - CECB",24-01-2024 15:00:00,22.126650,83.483212,NO2,20,74,44
India,Chhattisgarh,Milupara,"Govt. Higher Secondary School, Milupara - CECB",24-01-2024 15:00:00,22.1910172,83.5197009,NO2,16,43,26
India,Chhattisgarh,Raipur,"Bhatagaon New ISBT, Raipur - CECB",24-01-2024 15:00:00,21.219665,81.630094,PM2.5,9,75,55
India,Chhattisgarh,Raipur,"Bhatagaon New ISBT, Raipur - CECB",24-01-2024 15:00:00,21.219665,81.630094,SO2,NA,NA,NA
India,Chhattisgarh,Raipur,"Bhatagaon New ISBT, Raipur - CECB",24-01-2024 15:00:00,21.219665,81.630094,OZONE,3,4,3
India,Chhattisgarh,Raipur,"Krishak Nagar, Raipur - CECB",24-01-2024 15:00:00,21.237755,81.705301,NO2,30,41,34
India,Chhattisgarh,Raipur,"Krishak Nagar, Raipur - CECB",24-01-2024 15:00:00,21.237755,81.705301,NH3,1,1,1
India,Chhattisgarh,Raipur,"Krishak Nagar, Raipur - CECB",24-01-2024 15:00:00,21.237755,81.705301,SO2,5,11,8
India,Chhattisgarh,Raipur,"Siltara Phase-II, Raipur - CECB",24-01-2024 15:00:00,21.371751,81.664929,PM2.5,NA,NA,NA
India,Chhattisgarh,Raipur,"Siltara Phase-II, Raipur - CECB",24-01-2024 15:00:00,21.371751,81.664929,PM10,NA,NA,NA
India,Chhattisgarh,Raipur,"Siltara Phase-II, Raipur - CECB",24-01-2024 15:00:00,21.371751,81.664929,SO2,NA,NA,NA
India,Chhattisgarh,Tumidih,"OP Jindal Industrial Park, Tumidih - CECB",24-01-2024 15:00:00,22.06631475,83.33820077,PM2.5,35,82,57
India,Chhattisgarh,Tumidih,"OP Jindal Industrial Park, Tumidih - CECB",24-01-2024 15:00:00,22.06631475,83.33820077,PM10,44,107,63
India,Chhattisgarh,Tumidih,"OP Jindal Industrial Park, Tumidih - CECB",24-01-2024 15:00:00,22.06631475,83.33820077,CO,30,62,42
India,Chhattisgarh,Tumidih,"OP Jindal Industrial Park, Tumidih - CECB",24-01-2024 15:00:00,22.06631475,83.33820077,OZONE,6,39,23
India,Delhi,Delhi,"Ashok Vihar, Delhi - DPCC",24-01-2024 15:00:00,28.695381,77.181665,PM2.5,333,434,369
India,Delhi,Delhi,"Aya Nagar, Delhi - IMD",24-01-2024 15:00:00,28.4706914,77.1099364,PM10,233,426,341
India,Delhi,Delhi,"Bawana, Delhi - DPCC",24-01-2024 15:00:00,28.776200,77.051074,PM2.5,352,490,421
India,Delhi,Delhi,"Bawana, Delhi - DPCC",24-01-2024 15:00:00,28.776200,77.051074,SO2,5,34,9
India,Delhi,Delhi,"Bawana, Delhi - DPCC",24-01-2024 15:00:00,28.776200,77.051074,OZONE,3,72,8
India,Delhi,Delhi,"CRRI Mathura Road, Delhi - IMD",24-01-2024 15:00:00,28.5512005,77.2735737,NO2,22,73,54
India,Delhi,Delhi,"Dr. Karni Singh Shooting Range, Delhi - DPCC",24-01-2024 15:00:00,28.498571,77.264840,OZONE,1,79,7
India,Delhi,Delhi,"Dwarka-Sector 8, Delhi - DPCC ",24-01-2024 15:00:00,28.5710274,77.0719006,PM10,333,460,397
India,Delhi,Delhi,"Dwarka-Sector 8, Delhi - DPCC ",24-01-2024 15:00:00,28.5710274,77.0719006,CO,78,110,95
India,Delhi,Delhi,"IGI Airport (T3), Delhi - IMD",24-01-2024 15:00:00,28.5627763,77.1180053,OZONE,11,47,13
India,Delhi,Delhi,"IHBAS, Dilshad Garden, Delhi - CPCB",24-01-2024 15:00:00,28.6811736,77.3025234,OZONE,6,50,19
India,Delhi,Delhi,"ITO, Delhi - CPCB",24-01-2024 15:00:00,28.628624,77.241060,PM2.5,305,416,360
India,Delhi,Delhi,"ITO, Delhi - CPCB",24-01-2024 15:00:00,28.628624,77.241060,SO2,1,24,18
India,Delhi,Delhi,"Jahangirpuri, Delhi - DPCC",24-01-2024 15:00:00,28.732820,77.170633,PM2.5,355,478,408
India,Delhi,Delhi,"Jahangirpuri, Delhi - DPCC",24-01-2024 15:00:00,28.732820,77.170633,CO,56,88,70
India,Delhi,Delhi,"Jawaharlal Nehru Stadium, Delhi - DPCC",24-01-2024 15:00:00,28.580280,77.233829,PM2.5,344,451,404
India,Delhi,Delhi,"Lodhi Road, Delhi - IITM",24-01-2024 15:00:00,28.588333,77.221667,PM2.5,117,500,322
India,Delhi,Delhi,"Mandir Marg, Delhi - DPCC",24-01-2024 15:00:00,28.636429,77.201067,PM10,276,500,382
India,Delhi,Delhi,"Mandir Marg, Delhi - DPCC",24-01-2024 15:00:00,28.636429,77.201067,NO2,104,145,121
India,Delhi,Delhi,"Mundka, Delhi - DPCC",24-01-2024 15:00:00,28.684678,77.076574,NO2,47,109,66
India,Delhi,Delhi,"Mundka, Delhi - DPCC",24-01-2024 15:00:00,28.684678,77.076574,SO2,2,41,6
India,Delhi,Delhi,"Mundka, Delhi - DPCC",24-01-2024 15:00:00,28.684678,77.076574,CO,49,102,67
India,Delhi,Delhi,"NSIT Dwarka, Delhi - CPCB",24-01-2024 15:00:00,28.60909,77.0325413,PM10,349,441,400
India,Delhi,Delhi,"NSIT Dwarka, Delhi - CPCB",24-01-2024 15:00:00,28.60909,77.0325413,NO2,33,65,44
India,Delhi,Delhi,"Najafgarh, Delhi - DPCC",24-01-2024 15:00:00,28.570173,76.933762,PM2.5,314,500,394
India,Delhi,Delhi,"Najafgarh, Delhi - DPCC",24-01-2024 15:00:00,28.570173,76.933762,PM10,143,478,326
India,Delhi,Delhi,"Najafgarh, Delhi - DPCC",24-01-2024 15:00:00,28.570173,76.933762,SO2,7,12,9
India,Delhi,Delhi,"Najafgarh, Delhi - DPCC",24-01-2024 15:00:00,28.570173,76.933762,CO,5,102,23
India,Delhi,Delhi,"Narela, Delhi - DPCC",24-01-2024 15:00:00,28.822836,77.101981,NO2,44,131,66
India,Delhi,Delhi,"Nehru Nagar, Delhi - DPCC",24-01-2024 15:00:00,28.567890,77.250515,NO2,21,82,42
India,Delhi,Delhi,"Nehru Nagar, Delhi - DPCC",24-01-2024 15:00:00,28.567890,77.250515,SO2,7,12,10
India,Delhi,Delhi,"Nehru Nagar, Delhi - DPCC",24-01-2024 15:00:00,28.567890,77.250515,OZONE,2,96,9
India,Delhi,Delhi,"North Campus, DU, Delhi - IMD",24-01-2024 15:00:00,28.6573814,77.1585447,OZONE,25,53,27
India,Delhi,Delhi,"Okhla Phase-2, Delhi - DPCC",24-01-2024 15:00:00,28.530785,77.271255,PM10,342,452,408
India,Delhi,Delhi,"Okhla Phase-2, Delhi - DPCC",24-01-2024 15:00:00,28.530785,77.271255,NH3,16,21,19
India,Delhi,Delhi,"Patparganj, Delhi - DPCC",24-01-2024 15:00:00,28.623763,77.287209,NH3,7,12,10
India,Delhi,Delhi,"Punjabi Bagh, Delhi - DPCC",24-01-2024 15:00:00,28.674045,77.131023,NH3,7,9,7
India,Delhi,Delhi,"Punjabi Bagh, Delhi - DPCC",24-01-2024 15:00:00,28.674045,77.131023,OZONE,9,11,10
India,Delhi,Delhi,"Pusa, Delhi - DPCC",24-01-2024 15:00:00,28.639652,77.146275,PM10,408,500,443
India,Delhi,Delhi,"Pusa, Delhi - IMD",24-01-2024 15:00:00,28.636110,77.173332,CO,1,111,94
India,Delhi,Delhi,"R K Puram, Delhi - DPCC",24-01-2024 15:00:00,28.563262,77.186937,NO2,34,146,74
India,Delhi,Delhi,"Shadipur, Delhi - CPCB",24-01-2024 15:00:00,28.6514781,77.1473105,OZONE,9,29,18
India,Delhi,Delhi,"Sirifort, Delhi - CPCB",24-01-2024 15:00:00,28.5504249,77.2159377,PM2.5,336,483,428
India,Delhi,Delhi,"Sonia Vihar, Delhi - DPCC",24-01-2024 15:00:00,28.710508,77.249485,OZONE,3,106,17
India,Delhi,Delhi,"Sri Aurobindo Marg, Delhi - DPCC",24-01-2024 15:00:00,28.531346,77.190156,NH3,10,13,12
India,Delhi,Delhi,"Wazirpur, Delhi - DPCC",24-01-2024 15:00:00,28.699793,77.165453,PM10,306,488,398
India,Gujarat,Ahmedabad,"Chandkheda, Ahmedabad - IITM",24-01-2024 15:00:00,23.107969,72.574648,NO2,20,23,22
India,Gujarat,Ahmedabad,"Chandkheda, Ahmedabad - IITM",24-01-2024 15:00:00,23.107969,72.574648,NH3,4,4,4
India,Gujarat,Ahmedabad,"Chandkheda, Ahmedabad - IITM",24-01-2024 15:00:00,23.107969,72.574648,SO2,4,7,6
India,Gujarat,Ahmedabad,"Gyaspur, Ahmedabad - IITM",24-01-2024 15:00:00,22.977134,72.553024,PM2.5,60,366,191
India,Gujarat,Ahmedabad,"Gyaspur, Ahmedabad - IITM",24-01-2024 15:00:00,22.977134,72.553024,SO2,8,8,8
India,Gujarat,Ahmedabad,"Maninagar, Ahmedabad - GPCB",24-01-2024 15:00:00,23.002657,72.591912,PM10,70,227,139
India,Gujarat,Ahmedabad,"Raikhad, Ahmedabad - IITM",24-01-2024 15:00:00,23.020509,72.579261,OZONE,8,9,9
India,Gujarat,Ahmedabad,"Rakhial, Ahmedabad - IITM",24-01-2024 15:00:00,23.016834,72.625775,PM10,80,190,126
India,Gujarat,Ahmedabad,"Rakhial, Ahmedabad - IITM",24-01-2024 15:00:00,23.016834,72.625775,CO,2,94,26
India,Gujarat,Ahmedabad,"SAC ISRO Bopal, Ahmedabad - IITM",24-01-2024 15:00:00,23.041137,72.456691,SO2,15,15,15
India,Gujarat,Ahmedabad,"SAC ISRO Satellite, Ahmedabad - IITM",24-01-2024 15:00:00,23.023389,72.515201,PM2.5,113,155,146
India,Gujarat,Ahmedabad,"SAC ISRO Satellite, Ahmedabad - IITM",24-01-2024 15:00:00,23.023389,72.515201,PM10,91,104,102
India,Gujarat,Ahmedabad,"SVPI Airport Hansol, Ahmedabad - IITM",24-01-2024 15:00:00,23.076793,72.627874,OZONE,4,20,10
India,Gujarat,Ahmedabad,"Sardar Vallabhbhai Patel Stadium, Ahmedabad - IITM",24-01-2024 15:00:00,23.043070,72.562968,PM2.5,80,343,203
India,Gujarat,Ahmedabad,"Sardar Vallabhbhai Patel Stadium, Ahmedabad - IITM",24-01-2024 15:00:00,23.043070,72.562968,NH3,3,3,3
India,Gujarat,Ahmedabad,"Sardar Vallabhbhai Patel Stadium, Ahmedabad - IITM",24-01-2024 15:00:00,23.043070,72.562968,CO,1,114,27
India,Gujarat,Ankleshwar,"GIDC, Ankleshwar - GPCB",24-01-2024 15:00:00,21.613267,73.010555,PM2.5,43,226,103
India,Gujarat,Ankleshwar,"GIDC, Ankleshwar - GPCB",24-01-2024 15:00:00,21.613267,73.010555,NO2,34,34,34
India,Gujarat,Ankleshwar,"GIDC, Ankleshwar - GPCB",24-01-2024 15:00:00,21.613267,73.010555,OZONE,20,28,25
India,Gujarat,Gandhinagar,"GIFT City, Gandhinagar - IITM",24-01-2024 15:00:00,23.163798,72.677768,CO,1,22,9
India,Gujarat,Surat,"Science Center, Surat - SMC",24-01-2024 15:00:00,21.170046,72.795405,PM2.5,12,57,34
India,Gujarat,Surat,"Science Center, Surat - SMC",24-01-2024 15:00:00,21.170046,72.795405,PM10,12,75,44
India,Gujarat,Surat,"Science Center, Surat - SMC",24-01-2024 15:00:00,21.170046,72.795405,SO2,14,27,19
India,Gujarat,Surat,"Science Center, Surat - SMC",24-01-2024 15:00:00,21.170046,72.795405,CO,37,59,50
India,Haryana,Ballabgarh,"Nathu Colony, Ballabgarh - HSPCB",24-01-2024 15:00:00,28.3419248,77.319699,PM10,156,361,209
India,Haryana,Bhiwani,"H.B. Colony, Bhiwani - HSPCB",24-01-2024 15:00:00,28.806223,76.141105,NO2,2,10,8
India,Haryana,Bhiwani,"H.B. Colony, Bhiwani - HSPCB",24-01-2024 15:00:00,28.806223,76.141105,OZONE,13,77,26
India,Haryana,Charkhi Dadri,"Mini Secretariat, Charkhi Dadri - HSPCB",24-01-2024 15:00:00,28.593883,76.270653,NH3,5,6,6
India,Haryana,Dharuhera,"Municipal Corporation Office, Dharuhera -  HSPCB",24-01-2024 15:00:00,28.206800,76.799700,OZONE,1,37,2
India,Haryana,Faridabad,"Sector 30, Faridabad - HSPCB",24-01-2024 15:00:00,28.4417,77.3217,CO,101,129,112
India,Haryana,Fatehabad,"Huda Sector, Fatehabad - HSPCB",24-01-2024 15:00:00,29.503664,75.467934,PM10,NA,NA,NA
India,Haryana,Fatehabad,"Huda Sector, Fatehabad - HSPCB",24-01-2024 15:00:00,29.503664,75.467934,NH3,NA,NA,NA
India,Haryana,Fatehabad,"Huda Sector, Fatehabad - HSPCB",24-01-2024 15:00:00,29.503664,75.467934,OZONE,NA,NA,NA
India,Haryana,Gurugram,"NISE Gwal Pahari, Gurugram - IMD",24-01-2024 15:00:00,28.422681,77.148944,PM10,165,429,337
India,Haryana,Gurugram,"NISE Gwal Pahari, Gurugram - IMD",24-01-2024 15:00:00,28.422681,77.148944,CO,22,50,46
India,Haryana,Gurugram,"NISE Gwal Pahari, Gurugram - IMD",24-01-2024 15:00:00,28.422681,77.148944,OZONE,33,151,111
India,Haryana,Gurugram,"Sector-51, Gurugram - HSPCB",24-01-2024 15:00:00,28.4227,77.0667,SO2,3,4,4
India,Haryana,Gurugram,"Teri Gram, Gurugram - HSPCB",24-01-2024 15:00:00,28.4275,77.1465,NO2,31,66,43
India,Haryana,Gurugram,"Teri Gram, Gurugram - HSPCB",24-01-2024 15:00:00,28.4275,77.1465,SO2,4,7,6
India,Haryana,Gurugram,"Vikas Sadan, Gurugram - HSPCB",24-01-2024 15:00:00,28.4501238,77.0263051,PM2.5,224,341,293
India,Haryana,Gurugram,"Vikas Sadan, Gurugram - HSPCB",24-01-2024 15:00:00,28.4501238,77.0263051,CO,54,139,107
India,Haryana,Hisar,"Urban Estate-II, Hisar - HSPCB",24-01-2024 15:00:00,29.140560,75.744941,PM2.5,56,274,148
India,Haryana,Jind,"Police Lines, Jind - HSPCB",24-01-2024 15:00:00,29.307814,76.337619,OZONE,5,12,6
India,Haryana,Kaithal,"Rishi Nagar, Kaithal - HSPCB",24-01-2024 15:00:00,29.8006,76.4155,PM2.5,52,278,140
India,Haryana,Kaithal,"Rishi Nagar, Kaithal - HSPCB",24-01-2024 15:00:00,29.8006,76.4155,NH3,8,9,8
India,Haryana,Kaithal,"Rishi Nagar, Kaithal - HSPCB",24-01-2024 15:00:00,29.8006,76.4155,OZONE,3,19,7
India,Haryana,Karnal,"Sector-12, Karnal - HSPCB",24-01-2024 15:00:00,29.695300,77.002700,PM2.5,98,174,114
India,Haryana,Karnal,"Sector-12, Karnal - HSPCB",24-01-2024 15:00:00,29.695300,77.002700,CO,50,78,59
India,Haryana,Kurukshetra,"Sector-7, Kurukshetra - HSPCB",24-01-2024 15:00:00,29.966942,76.875879,PM2.5,76,305,163
India,Haryana,Kurukshetra,"Sector-7, Kurukshetra - HSPCB",24-01-2024 15:00:00,29.966942,76.875879,SO2,1,62,16
India,Haryana,Mandikhera,"General Hospital, Mandikhera - HSPCB",24-01-2024 15:00:00,27.9002,76.9938,PM2.5,20,336,56
India,Haryana,Mandikhera,"General Hospital, Mandikhera - HSPCB",24-01-2024 15:00:00,27.9002,76.9938,PM10,98,172,138
India,Haryana,Mandikhera,"General Hospital, Mandikhera - HSPCB",24-01-2024 15:00:00,27.9002,76.9938,NH3,18,21,19
India,Haryana,Manesar,"Sector-2 IMT, Manesar - HSPCB",24-01-2024 15:00:00,28.360699,76.936090,NH3,4,11,8
India,Haryana,Manesar,"Sector-2 IMT, Manesar - HSPCB",24-01-2024 15:00:00,28.360699,76.936090,CO,30,76,55
India,Haryana,Narnaul,"Shastri Nagar, Narnaul - HSPCB",24-01-2024 15:00:00,28.060249,76.113115,NO2,17,46,33
India,Haryana,Narnaul,"Shastri Nagar, Narnaul - HSPCB",24-01-2024 15:00:00,28.060249,76.113115,NH3,5,15,11
India,Haryana,Narnaul,"Shastri Nagar, Narnaul - HSPCB",24-01-2024 15:00:00,28.060249,76.113115,CO,18,37,26
India,Haryana,Palwal,"Shyam Nagar, Palwal - HSPCB",24-01-2024 15:00:00,28.1485564,77.3320667,NH3,2,3,3
India,Haryana,Panipat,"Sector-18, Panipat - HSPCB",24-01-2024 15:00:00,29.497973,76.993331,PM10,103,109,107
India,Haryana,Rohtak,"MD University, Rohtak - HSPCB",24-01-2024 15:00:00,28.52123,76.37138,CO,20,54,29
India,Haryana,Sirsa,"F-Block, Sirsa - HSPCB",24-01-2024 15:00:00,29.536400,75.015800,NO2,10,11,10
India,Haryana,Sirsa,"F-Block, Sirsa - HSPCB",24-01-2024 15:00:00,29.536400,75.015800,NH3,12,15,13
India,Haryana,Sonipat,"Murthal, Sonipat - HSPCB",24-01-2024 15:00:00,29.027200,77.062100,NH3,5,10,9
India,Haryana,Yamuna Nagar,"Gobind Pura, Yamuna Nagar - HSPCB",24-01-2024 15:00:00,30.1480566,77.2893471,PM2.5,50,316,136
India,Haryana,Yamuna Nagar,"Gobind Pura, Yamuna Nagar - HSPCB",24-01-2024 15:00:00,30.1480566,77.2893471,NH3,1,6,4
India,Haryana,Yamuna Nagar,"Gobind Pura, Yamuna Nagar - HSPCB",24-01-2024 15:00:00,30.1480566,77.2893471,SO2,3,50,11
India,Himachal Pradesh,Baddi,"HIMUDA Complex Phase-1, Baddi - HPPCB",24-01-2024 15:00:00,30.943887,76.801991,PM10,155,415,261
India,Himachal Pradesh,Baddi,"HIMUDA Complex Phase-1, Baddi - HPPCB",24-01-2024 15:00:00,30.943887,76.801991,CO,34,108,89
India,Jharkhand,Pathardih,"Mohalbani Ghat, Pathardih - DMC",24-01-2024 15:00:00,23.669880,86.411725,PM10,11,372,132
India,Jharkhand,Pathardih,"Mohalbani Ghat, Pathardih - DMC",24-01-2024 15:00:00,23.669880,86.411725,NO2,6,248,99
India,Jharkhand,Pathardih,"Mohalbani Ghat, Pathardih - DMC",24-01-2024 15:00:00,23.669880,86.411725,CO,130,156,142
India,Jharkhand,Pathardih,"Mohalbani Ghat, Pathardih - DMC",24-01-2024 15:00:00,23.669880,86.411725,OZONE,13,33,21
India,Karnataka,Bagalkot,"Vidayagiri, Bagalkot - KSPCB",24-01-2024 15:00:00,16.172806,75.659694,NH3,1,2,1
India,Karnataka,Bagalkot,"Vidayagiri, Bagalkot - KSPCB",24-01-2024 15:00:00,16.172806,75.659694,OZONE,10,55,30
India,Karnataka,Bengaluru,"BTM Layout, Bengaluru - CPCB",24-01-2024 15:00:00,12.9135218,77.5950804,PM2.5,12,64,33
India,Karnataka,Bengaluru,"BTM Layout, Bengaluru - CPCB",24-01-2024 15:00:00,12.9135218,77.5950804,NO2,29,41,39
India,Karnataka,Bengaluru,"Bapuji Nagar, Bengaluru - KSPCB",24-01-2024 15:00:00,12.951913,77.539784,NO2,10,12,11
India,Karnataka,Bengaluru,"Bapuji Nagar, Bengaluru - KSPCB",24-01-2024 15:00:00,12.951913,77.539784,NH3,1,1,1
India,Karnataka,Bengaluru,"City Railway Station, Bengaluru - KSPCB",24-01-2024 15:00:00,12.9756843,77.5660749,CO,50,107,70
India,Karnataka,Bengaluru,"Hebbal, Bengaluru - KSPCB",24-01-2024 15:00:00,13.029152,77.585901,PM2.5,55,148,84
India,Karnataka,Bengaluru,"Hebbal, Bengaluru - KSPCB",24-01-2024 15:00:00,13.029152,77.585901,PM10,54,144,91
India,Karnataka,Bengaluru,"Hebbal, Bengaluru - KSPCB",24-01-2024 15:00:00,13.029152,77.585901,OZONE,7,21,9
India,Karnataka,Bengaluru,"Hombegowda Nagar, Bengaluru - KSPCB",24-01-2024 15:00:00,12.938539,77.590100,PM2.5,36,87,57
India,Karnataka,Bengaluru,"Jayanagar 5th Block, Bengaluru - KSPCB",24-01-2024 15:00:00,12.920984,77.584908,CO,2,30,12
India,Karnataka,Bengaluru,"Kasturi Nagar, Bengaluru - KSPCB",24-01-2024 15:00:00,13.003872,77.664217,NH3,3,4,4
India,Karnataka,Bengaluru,"Kasturi Nagar, Bengaluru - KSPCB",24-01-2024 15:00:00,13.003872,77.664217,SO2,10,10,10
India,Karnataka,Bengaluru,"Peenya, Bengaluru - CPCB",24-01-2024 15:00:00,13.0270199,77.494094,PM10,16,122,81
India,Karnataka,Bengaluru,"Peenya, Bengaluru - CPCB",24-01-2024 15:00:00,13.0270199,77.494094,NO2,19,28,23
India,Karnataka,Bengaluru,"Silk Board, Bengaluru - KSPCB",24-01-2024 15:00:00,12.917348,77.622813,OZONE,29,30,30
India,Karnataka,Bidar,"Naubad, Bidar - KSPCB",24-01-2024 15:00:00,17.930306,77.482194,NH3,NA,NA,NA
India,Karnataka,Bidar,"Naubad, Bidar - KSPCB",24-01-2024 15:00:00,17.930306,77.482194,OZONE,23,40,37
India,Karnataka,Chamarajanagar,"Urban, Chamarajanagar - KSPCB",24-01-2024 15:00:00,11.55358,76.55521,PM10,34,60,42
India,Karnataka,Chamarajanagar,"Urban, Chamarajanagar - KSPCB",24-01-2024 15:00:00,11.55358,76.55521,SO2,2,8,4
India,Karnataka,Chikkamagaluru,"Kalyana Nagara, Chikkamagaluru - KSPCB",24-01-2024 15:00:00,13.328028,75.797056,PM10,24,102,51
India,Karnataka,Chikkamagaluru,"Kalyana Nagara, Chikkamagaluru - KSPCB",24-01-2024 15:00:00,13.328028,75.797056,SO2,2,6,3
India,Karnataka,Chikkamagaluru,"Kalyana Nagara, Chikkamagaluru - KSPCB",24-01-2024 15:00:00,13.328028,75.797056,OZONE,17,80,37
India,Karnataka,Davanagere,"Devaraj Urs Badavane, Davanagere - KSPCB",24-01-2024 15:00:00,14.475800,75.905200,PM10,22,137,49
India,Karnataka,Davanagere,"Devaraj Urs Badavane, Davanagere - KSPCB",24-01-2024 15:00:00,14.475800,75.905200,NO2,9,13,12
India,Karnataka,Davanagere,"Devaraj Urs Badavane, Davanagere - KSPCB",24-01-2024 15:00:00,14.475800,75.905200,SO2,1,10,4
India,Karnataka,Dharwad,"Kalabhavan, Dharwad - KSPCB",24-01-2024 15:00:00,15.459706,75.008381,CO,27,107,56
India,Karnataka,Gadag,"Panchal Nagar, Gadag - KSPCB",24-01-2024 15:00:00,15.411456,75.638133,NO2,7,38,15
India,Karnataka,Haveri,"Ashwini Nagar, Haveri - KSPCB",24-01-2024 15:00:00,14.791800,75.389600,PM10,NA,NA,NA
India,Karnataka,Hubballi,"Deshpande Nagar, Hubballi - KSPCB",24-01-2024 15:00:00,15.351773,75.140726,NO2,21,26,25
India,Karnataka,Hubballi,"Deshpande Nagar, Hubballi - KSPCB",24-01-2024 15:00:00,15.351773,75.140726,SO2,NA,NA,NA
India,Karnataka,Hubballi,"Deshpande Nagar, Hubballi - KSPCB",24-01-2024 15:00:00,15.351773,75.140726,OZONE,12,59,46
India,Karnataka,Hubballi,"Lingaraj Nagar, Hubballi - KSPCB",24-01-2024 15:00:00,15.3714823,75.1160168,PM2.5,16,83,34
India,Karnataka,Hubballi,"Lingaraj Nagar, Hubballi - KSPCB",24-01-2024 15:00:00,15.3714823,75.1160168,NO2,16,16,16
India,Karnataka,Hubballi,"Lingaraj Nagar, Hubballi - KSPCB",24-01-2024 15:00:00,15.3714823,75.1160168,NH3,2,2,2
India,Karnataka,Kalaburagi,"Lal Bahadur Shastri Nagar, Kalaburagi - KSPCB",24-01-2024 15:00:00,17.321993,76.822628,NO2,11,12,12
India,Karnataka,Kalaburagi,"Lal Bahadur Shastri Nagar, Kalaburagi - KSPCB",24-01-2024 15:00:00,17.321993,76.822628,SO2,18,19,19
India,Karnataka,Kalaburagi,"Mahatma Basaveswar Colony, Kalaburgi - KSPCB",24-01-2024 15:00:00,17.336318,76.847397,SO2,5,11,7
India,Karnataka,Karwar,"KHB Colony, Karwar - KSPCB",24-01-2024 15:00:00,14.816666,74.141003,NO2,5,37,9
India,Karnataka,Karwar,"KHB Colony, Karwar - KSPCB",24-01-2024 15:00:00,14.816666,74.141003,SO2,17,18,18
India,Karnataka,Koppal,"Diwator Nagar, Koppal - KSPCB",24-01-2024 15:00:00,15.347630,76.181767,PM2.5,12,60,29
India,Karnataka,Koppal,"Diwator Nagar, Koppal - KSPCB",24-01-2024 15:00:00,15.347630,76.181767,NO2,2,30,14
