country,state,city,station,last_update,latitude,longitude,pollutant_id,pollutant_min,pollutant_max,pollutant_avg
India,Andhra_Pradesh,Amaravati,"Secretariat, Amaravati - APPCB",21-04-2024 03:00:00,16.5150833,80.5181667,PM10,32,93,56
India,Andhra_Pradesh,Rajamahendravaram,"Anand Kala Kshetram, Rajamahendravaram - APPCB",21-04-2024 03:00:00,16.9872867,81.7363176,PM10,8,44,30
India,Andhra_Pradesh,Rajamahendravaram,"Anand Kala Kshetram, Rajamahendravaram - APPCB",21-04-2024 03:00:00,16.9872867,81.7363176,OZONE,17,25,17
India,Andhra_Pradesh,Tirupati,"Tirumala, Tirupati - APPCB",21-04-2024 03:00:00,13.67,79.35,PM2.5,18,72,51
India,Andhra_Pradesh,Tirupati,"Tirumala, Tirupati - APPCB",21-04-2024 03:00:00,13.67,79.35,PM10,27,80,61
India,Andhra_Pradesh,Tirupati,"Tirumala, Tirupati - APPCB",21-04-2024 03:00:00,13.67,79.35,SO2,1,14,9
India,Andhra_Pradesh,Vijayawada,"HB Colony, Vijayawada - APPCB",21-04-2024 03:00:00,16.536107,80.594233,PM2.5,NA,NA,NA
India,Andhra_Pradesh,Vijayawada,"HB Colony, Vijayawada - APPCB",21-04-2024 03:00:00,16.536107,80.594233,NO2,NA,NA,NA
India,Andhra_Pradesh,Vijayawada,"HB Colony, Vijayawada - APPCB",21-04-2024 03:00:00,16.536107,80.594233,SO2,NA,NA,NA
India,Andhra_Pradesh,Vijayawada,"Rajiv Gandhi Park, Vijayawada - APPCB",21-04-2024 03:00:00,16.509717,80.612222,CO,33,40,33
India,Andhra_Pradesh,Visakhapatnam,"GVM Corporation, Visakhapatnam - APPCB",21-04-2024 03:00:00,17.72,83.3,PM10,60,131,96
India,Andhra_Pradesh,Visakhapatnam,"GVM Corporation, Visakhapatnam - APPCB",21-04-2024 03:00:00,17.72,83.3,NO2,44,59,51
India,Andhra_Pradesh,Visakhapatnam,"GVM Corporation, Visakhapatnam - APPCB",21-04-2024 03:00:00,17.72,83.3,CO,2,102,31
India,Assam,Byrnihat,"Central Academy for SFS, Byrnihat - PCBA",21-04-2024 03:00:00,26.071318,91.87488,PM2.5,NA,NA,NA
India,Assam,Byrnihat,"Central Academy for SFS, Byrnihat - PCBA",21-04-2024 03:00:00,26.071318,91.87488,CO,32,94,36
India,Assam,Guwahati,"IITG, Guwahati - PCBA",21-04-2024 03:00:00,26.2028636,91.70046436,SO2,11,13,11
India,Assam,Guwahati,"LGBI Airport, Guwahati - PCBA",21-04-2024 03:00:00,26.10887,91.589544,PM2.5,15,58,35
India,Assam,Guwahati,"LGBI Airport, Guwahati - PCBA",21-04-2024 03:00:00,26.10887,91.589544,PM10,26,144,71
India,Assam,Guwahati,"LGBI Airport, Guwahati - PCBA",21-04-2024 03:00:00,26.10887,91.589544,NO2,19,116,60
India,Assam,Guwahati,"LGBI Airport, Guwahati - PCBA",21-04-2024 03:00:00,26.10887,91.589544,SO2,7,12,8
India,Assam,Guwahati,"Railway Colony, Guwahati - PCBA",21-04-2024 03:00:00,26.181742,91.78063,NO2,3,4,3
India,Assam,Nagaon,"Christianpatty, Nagaon - PCBA",21-04-2024 03:00:00,26.349082,92.68449,PM10,67,91,77
India,Assam,Nalbari,"Bata Chowk, Nalbari - PCBA",21-04-2024 03:00:00,26.446912,91.439057,NO2,4,17,10
India,Assam,Nalbari,"Bata Chowk, Nalbari - PCBA",21-04-2024 03:00:00,26.446912,91.439057,SO2,4,10,9
India,Assam,Silchar,"Tarapur, Silchar - PCBA",21-04-2024 03:00:00,24.82827,92.79525,NO2,13,13,13
India,Assam,Silchar,"Tarapur, Silchar - PCBA",21-04-2024 03:00:00,24.82827,92.79525,SO2,NA,NA,NA
India,Assam,Sivasagar,"Girls College, Sivasagar - PCBA",21-04-2024 03:00:00,26.987634,94.636574,NH3,1,2,2
India,Bihar,Araria,"Kharahiya Basti, Araria - BSPCB",21-04-2024 03:00:00,26.146529,87.454184,PM10,55,131,82
India,Bihar,Araria,"Kharahiya Basti, Araria - BSPCB",21-04-2024 03:00:00,26.146529,87.454184,CO,19,30,26
India,Bihar,Aurangabad,"Gurdeo Nagar, Aurangabad - BSPCB",21-04-2024 03:00:00,24.75746,84.366208,PM2.5,7,80,41
India,Bihar,Aurangabad,"Gurdeo Nagar, Aurangabad - BSPCB",21-04-2024 03:00:00,24.75746,84.366208,PM10,39,87,62
India,Bihar,Bhagalpur,"DM Office_Kachari Chowk, Bhagalpur - BSPCB",21-04-2024 03:00:00,25.251013,86.989001,CO,36,92,56
India,Bihar,Bhagalpur,"DM Office_Kachari Chowk, Bhagalpur - BSPCB",21-04-2024 03:00:00,25.251013,86.989001,OZONE,42,64,45
India,Bihar,Bhagalpur,"Mayaganj, Bhagalpur - BSPCB",21-04-2024 03:00:00,25.265194,87.012947,NH3,6,9,8
India,Bihar,Bihar Sharif,"D M Colony, Bihar Sharif - BSPCB",21-04-2024 03:00:00,25.204762,85.514960,OZONE,29,55,45
India,Bihar,Gaya,"Kareemganj, Gaya - BSPCB",21-04-2024 03:00:00,24.792403,84.992416,NH3,1,5,3
India,Bihar,Gaya,"Kareemganj, Gaya - BSPCB",21-04-2024 03:00:00,24.792403,84.992416,CO,12,22,15
India,Bihar,Gaya,"SFTI Kusdihra, Gaya - BSPCB",21-04-2024 03:00:00,24.762518,84.982348,PM2.5,37,142,80
India,Bihar,Gaya,"SFTI Kusdihra, Gaya - BSPCB",21-04-2024 03:00:00,24.762518,84.982348,NH3,3,6,5
India,Bihar,Hajipur,"Industrial Area, Hajipur - BSPCB",21-04-2024 03:00:00,25.697189,85.245900,PM2.5,33,183,80
India,Bihar,Hajipur,"Industrial Area, Hajipur - BSPCB",21-04-2024 03:00:00,25.697189,85.245900,CO,16,44,33
India,Bihar,Hajipur,"Industrial Area, Hajipur - BSPCB",21-04-2024 03:00:00,25.697189,85.245900,OZONE,15,92,30
India,Bihar,Kishanganj,"SDM Office_Khagra, Kishanganj - BSPCB",21-04-2024 03:00:00,26.0881305,87.93840336,PM2.5,30,85,51
India,Bihar,Kishanganj,"SDM Office_Khagra, Kishanganj - BSPCB",21-04-2024 03:00:00,26.0881305,87.93840336,OZONE,26,69,27
India,Bihar,Motihari,"Gandak Colony, Motihari - BSPCB",21-04-2024 03:00:00,26.63086,84.90051,PM10,27,111,59
India,Bihar,Motihari,"Gandak Colony, Motihari - BSPCB",21-04-2024 03:00:00,26.63086,84.90051,OZONE,20,122,71
India,Bihar,Munger,"Town Hall, Munger - BSPCB",21-04-2024 03:00:00,25.376776,86.471523,PM2.5,77,329,169
India,Bihar,Muzaffarpur,"Muzaffarpur Collectorate, Muzaffarpur - BSPCB",21-04-2024 03:00:00,26.1209,85.3647,OZONE,51,129,51
India,Bihar,Patna,"DRM Office Danapur, Patna - BSPCB",21-04-2024 03:00:00,25.586562,85.043586,OZONE,30,61,43
India,Bihar,Patna,"Govt. High School Shikarpur, Patna - BSPCB",21-04-2024 03:00:00,25.592539,85.227158,PM10,116,421,216
India,Bihar,Patna,"Govt. High School Shikarpur, Patna - BSPCB",21-04-2024 03:00:00,25.592539,85.227158,SO2,8,11,9
India,Bihar,Patna,"Rajbansi Nagar, Patna - BSPCB",21-04-2024 03:00:00,25.599486,85.113666,CO,22,57,35
India,Bihar,Patna,"Samanpura, Patna - BSPCB",21-04-2024 03:00:00,25.596727,85.085624,NO2,12,74,40
India,Bihar,Rajgir,"Dangi Tola, Rajgir - BSPCB",21-04-2024 03:00:00,25.03280,85.41948,PM10,28,105,60
India,Bihar,Rajgir,"Dangi Tola, Rajgir - BSPCB",21-04-2024 03:00:00,25.03280,85.41948,OZONE,33,40,33
India,Bihar,Saharsa,"Police Line, Saharsa - BSPCB",21-04-2024 03:00:00,25.892357,86.590325,NO2,6,9,7
India,Bihar,Saharsa,"Police Line, Saharsa - BSPCB",21-04-2024 03:00:00,25.892357,86.590325,SO2,15,17,16
India,Bihar,Saharsa,"Police Line, Saharsa - BSPCB",21-04-2024 03:00:00,25.892357,86.590325,OZONE,10,87,22
India,Bihar,Samastipur,"DM Office_Kasipur, Samastipur - BSPCB",21-04-2024 03:00:00,25.859655,85.77944,SO2,8,67,13
India,Bihar,Sasaram,"Dada Peer, Sasaram - BSPCB",21-04-2024 03:00:00,24.952822,84.002396,NO2,9,21,13
India,Bihar,Sasaram,"Dada Peer, Sasaram - BSPCB",21-04-2024 03:00:00,24.952822,84.002396,NH3,8,11,9
India,Bihar,Siwan,"Chitragupta Nagar, Siwan - BSPCB",21-04-2024 03:00:00,26.2271665,84.3570427,NO2,NA,NA,NA
India,Bihar,Siwan,"Chitragupta Nagar, Siwan - BSPCB",21-04-2024 03:00:00,26.2271665,84.3570427,SO2,NA,NA,NA
India,Bihar,Siwan,"Chitragupta Nagar, Siwan - BSPCB",21-04-2024 03:00:00,26.2271665,84.3570427,CO,NA,NA,NA
India,Chandigarh,Chandigarh,"Sector 22, Chandigarh - CPCC",21-04-2024 03:00:00,30.735567,76.775714,PM2.5,27,98,57
India,Chandigarh,Chandigarh,"Sector 22, Chandigarh - CPCC",21-04-2024 03:00:00,30.735567,76.775714,PM10,53,123,90
India,Chandigarh,Chandigarh,"Sector 22, Chandigarh - CPCC",21-04-2024 03:00:00,30.735567,76.775714,NO2,11,74,33
India,Chandigarh,Chandigarh,"Sector-25, Chandigarh - CPCC",21-04-2024 03:00:00,30.751462,76.762879,CO,10,31,24
India,Chandigarh,Chandigarh,"Sector-25, Chandigarh - CPCC",21-04-2024 03:00:00,30.751462,76.762879,OZONE,4,65,14
India,Chandigarh,Chandigarh,"Sector-53, Chandigarh - CPCC",21-04-2024 03:00:00,30.719859,76.738637,NO2,7,73,26
India,Chhattisgarh,Bhilai,"Civic Center, Bhilai - Bhilai Steel Plant",21-04-2024 03:00:00,21.185571,81.343175,NO2,11,16,15
India,Chhattisgarh,Bilaspur,"Mangala, Bilaspur - NTPC",21-04-2024 03:00:00,22.08815,82.13737,PM10,36,69,53
India,Chhattisgarh,Bilaspur,"Mangala, Bilaspur - NTPC",21-04-2024 03:00:00,22.08815,82.13737,CO,28,136,132
India,Chhattisgarh,Chhal,"Nawapara SECL Colony, Chhal - CECB",21-04-2024 03:00:00,22.118125,83.140608,PM2.5,NA,NA,NA
India,Chhattisgarh,Chhal,"Nawapara SECL Colony, Chhal - CECB",21-04-2024 03:00:00,22.118125,83.140608,NO2,NA,NA,NA
India,Chhattisgarh,Korba,"Rampur, Korba - CECB",21-04-2024 03:00:00,22.368195,82.746431,CO,10,72,31
India,Chhattisgarh,Raipur,"AIIMS, Raipur - CECB",21-04-2024 03:00:00,21.258815,81.578979,NH3,6,6,6
India,Chhattisgarh,Raipur,"Bhatagaon New ISBT, Raipur - CECB",21-04-2024 03:00:00,21.219665,81.630094,PM10,23,151,57
India,Chhattisgarh,Raipur,"Krishak Nagar, Raipur - CECB",21-04-2024 03:00:00,21.237755,81.705301,SO2,10,79,23
India,Chhattisgarh,Raipur,"Krishak Nagar, Raipur - CECB",21-04-2024 03:00:00,21.237755,81.705301,CO,16,38,19
India,Chhattisgarh,Raipur,"Siltara Phase-II, Raipur - CECB",21-04-2024 03:00:00,21.371751,81.664929,NO2,25,80,42
India,Chhattisgarh,Raipur,"Siltara Phase-II, Raipur - CECB",21-04-2024 03:00:00,21.371751,81.664929,OZONE,3,69,14
India,Delhi,Delhi,"Alipur, Delhi - DPCC",21-04-2024 03:00:00,28.815329,77.153010,PM10,118,190,142
India,Delhi,Delhi,"Alipur, Delhi - DPCC",21-04-2024 03:00:00,28.815329,77.153010,NH3,4,8,6
India,Delhi,Delhi,"Ashok Vihar, Delhi - DPCC",21-04-2024 03:00:00,28.695381,77.181665,NH3,13,18,16
India,Delhi,Delhi,"Aya Nagar, Delhi - IMD",21-04-2024 03:00:00,28.4706914,77.1099364,NO2,14,38,29
India,Delhi,Delhi,"Aya Nagar, Delhi - IMD",21-04-2024 03:00:00,28.4706914,77.1099364,OZONE,1,35,19
India,Delhi,Delhi,"Bawana, Delhi - DPCC",21-04-2024 03:00:00,28.776200,77.051074,SO2,7,35,18
India,Delhi,Delhi,"Burari Crossing, Delhi - IMD",21-04-2024 03:00:00,28.7256504,77.2011573,CO,2,34,14
India,Delhi,Delhi,"Chandni Chowk, Delhi - IITM",21-04-2024 03:00:00,28.656756,77.227234,SO2,33,69,51
India,Delhi,Delhi,"DTU, Delhi - CPCB",21-04-2024 03:00:00,28.7500499,77.1112615,NH3,11,13,12
India,Delhi,Delhi,"DTU, Delhi - CPCB",21-04-2024 03:00:00,28.7500499,77.1112615,CO,14,41,23
India,Delhi,Delhi,"Dr. Karni Singh Shooting Range, Delhi - DPCC",21-04-2024 03:00:00,28.498571,77.264840,PM2.5,42,327,104
India,Delhi,Delhi,"Dr. Karni Singh Shooting Range, Delhi - DPCC",21-04-2024 03:00:00,28.498571,77.264840,SO2,18,48,28
India,Delhi,Delhi,"Dwarka-Sector 8, Delhi - DPCC ",21-04-2024 03:00:00,28.5710274,77.0719006,SO2,4,26,13
India,Delhi,Delhi,"IGI Airport (T3), Delhi - IMD",21-04-2024 03:00:00,28.5627763,77.1180053,PM10,114,422,173
India,Delhi,Delhi,"IGI Airport (T3), Delhi - IMD",21-04-2024 03:00:00,28.5627763,77.1180053,NO2,27,48,36
India,Delhi,Delhi,"IHBAS, Dilshad Garden, Delhi - CPCB",21-04-2024 03:00:00,28.6811736,77.3025234,PM10,102,197,139
India,Delhi,Delhi,"IHBAS, Dilshad Garden, Delhi - CPCB",21-04-2024 03:00:00,28.6811736,77.3025234,NO2,20,62,39
India,Delhi,Delhi,"IHBAS, Dilshad Garden, Delhi - CPCB",21-04-2024 03:00:00,28.6811736,77.3025234,SO2,7,38,21
India,Delhi,Delhi,"ITO, Delhi - CPCB",21-04-2024 03:00:00,28.628624,77.241060,PM10,88,183,116
India,Delhi,Delhi,"ITO, Delhi - CPCB",21-04-2024 03:00:00,28.628624,77.241060,NH3,2,6,4
India,Delhi,Delhi,"Jawaharlal Nehru Stadium, Delhi - DPCC",21-04-2024 03:00:00,28.580280,77.233829,PM10,102,242,141
India,Delhi,Delhi,"Jawaharlal Nehru Stadium, Delhi - DPCC",21-04-2024 03:00:00,28.580280,77.233829,NH3,6,9,7
India,Delhi,Delhi,"Lodhi Road, Delhi - IITM",21-04-2024 03:00:00,28.588333,77.221667,NO2,60,112,88
India,Delhi,Delhi,"Lodhi Road, Delhi - IMD",21-04-2024 03:00:00,28.5918245,77.2273074,PM2.5,38,295,84
India,Delhi,Delhi,"Lodhi Road, Delhi - IMD",21-04-2024 03:00:00,28.5918245,77.2273074,NO2,4,11,7
India,Delhi,Delhi,"Mundka, Delhi - DPCC",21-04-2024 03:00:00,28.684678,77.076574,NH3,4,10,6
India,Delhi,Delhi,"Mundka, Delhi - DPCC",21-04-2024 03:00:00,28.684678,77.076574,OZONE,11,157,68
India,Delhi,Delhi,"NSIT Dwarka, Delhi - CPCB",21-04-2024 03:00:00,28.60909,77.0325413,PM2.5,253,386,309
India,Delhi,Delhi,"NSIT Dwarka, Delhi - CPCB",21-04-2024 03:00:00,28.60909,77.0325413,OZONE,4,66,37
India,Delhi,Delhi,"Nehru Nagar, Delhi - DPCC",21-04-2024 03:00:00,28.567890,77.250515,PM2.5,35,308,96
India,Delhi,Delhi,"Nehru Nagar, Delhi - DPCC",21-04-2024 03:00:00,28.567890,77.250515,PM10,107,294,155
India,Delhi,Delhi,"Nehru Nagar, Delhi - DPCC",21-04-2024 03:00:00,28.567890,77.250515,NO2,8,12,10
India,Delhi,Delhi,"Nehru Nagar, Delhi - DPCC",21-04-2024 03:00:00,28.567890,77.250515,NH3,2,3,2
India,Delhi,Delhi,"Nehru Nagar, Delhi - DPCC",21-04-2024 03:00:00,28.567890,77.250515,OZONE,2,131,63
India,Delhi,Delhi,"Pusa, Delhi - DPCC",21-04-2024 03:00:00,28.639652,77.146275,SO2,7,62,21
India,Delhi,Delhi,"Pusa, Delhi - IMD",21-04-2024 03:00:00,28.636110,77.173332,OZONE,2,37,27
India,Delhi,Delhi,"R K Puram, Delhi - DPCC",21-04-2024 03:00:00,28.563262,77.186937,PM2.5,57,338,111
India,Delhi,Delhi,"Rohini, Delhi - DPCC",21-04-2024 03:00:00,28.732528,77.119920,PM10,127,298,154
India,Delhi,Delhi,"Rohini, Delhi - DPCC",21-04-2024 03:00:00,28.732528,77.119920,NO2,9,58,26
India,Delhi,Delhi,"Rohini, Delhi - DPCC",21-04-2024 03:00:00,28.732528,77.119920,SO2,8,34,19
India,Delhi,Delhi,"Rohini, Delhi - DPCC",21-04-2024 03:00:00,28.732528,77.119920,CO,18,50,26
India,Delhi,Delhi,"Vivek Vihar, Delhi - DPCC",21-04-2024 03:00:00,28.672342,77.315260,SO2,28,56,37
India,Delhi,Delhi,"Wazirpur, Delhi - DPCC",21-04-2024 03:00:00,28.699793,77.165453,OZONE,6,70,31
India,Gujarat,Ahmedabad,"Gyaspur, Ahmedabad - IITM",21-04-2024 03:00:00,22.977134,72.553024,PM2.5,35,345,81
India,Gujarat,Ahmedabad,"Gyaspur, Ahmedabad - IITM",21-04-2024 03:00:00,22.977134,72.553024,SO2,3,8,5
India,Gujarat,Ahmedabad,"Maninagar, Ahmedabad - GPCB",21-04-2024 03:00:00,23.002657,72.591912,PM2.5,18,217,54
India,Gujarat,Ahmedabad,"Raikhad, Ahmedabad - IITM",21-04-2024 03:00:00,23.020509,72.579261,CO,7,60,44
India,Gujarat,Ahmedabad,"Raikhad, Ahmedabad - IITM",21-04-2024 03:00:00,23.020509,72.579261,OZONE,12,33,20
India,Gujarat,Ahmedabad,"Rakhial, Ahmedabad - IITM",21-04-2024 03:00:00,23.016834,72.625775,NO2,6,29,20
India,Gujarat,Ahmedabad,"SAC ISRO Satellite, Ahmedabad - IITM",21-04-2024 03:00:00,23.023389,72.515201,CO,32,39,37
India,Gujarat,Ahmedabad,"SVPI Airport Hansol, Ahmedabad - IITM",21-04-2024 03:00:00,23.076793,72.627874,PM10,51,115,78
India,Gujarat,Ahmedabad,"SVPI Airport Hansol, Ahmedabad - IITM",21-04-2024 03:00:00,23.076793,72.627874,NH3,1,2,2
India,Gujarat,Ahmedabad,"SVPI Airport Hansol, Ahmedabad - IITM",21-04-2024 03:00:00,23.076793,72.627874,CO,12,16,14
India,Gujarat,Ahmedabad,"Sardar Vallabhbhai Patel Stadium, Ahmedabad - IITM",21-04-2024 03:00:00,23.043070,72.562968,PM10,40,107,68
India,Gujarat,Ahmedabad,"Sardar Vallabhbhai Patel Stadium, Ahmedabad - IITM",21-04-2024 03:00:00,23.043070,72.562968,NH3,7,7,7
India,Gujarat,Ankleshwar,"GIDC, Ankleshwar - GPCB",21-04-2024 03:00:00,21.613267,73.010555,NH3,7,7,7
India,Gujarat,Gandhinagar,"Sector-10, Gandhinagar - GPCB",21-04-2024 03:00:00,23.221714,72.654328,PM2.5,23,50,35
India,Gujarat,Gandhinagar,"Sector-10, Gandhinagar - GPCB",21-04-2024 03:00:00,23.221714,72.654328,NO2,17,24,21
India,Gujarat,Gandhinagar,"Sector-10, Gandhinagar - GPCB",21-04-2024 03:00:00,23.221714,72.654328,SO2,4,6,5
India,Gujarat,Nandesari,"GIDC, Nandesari - Nandesari Ind. Association",21-04-2024 03:00:00,22.410802,73.097923,PM10,75,382,150
India,Gujarat,Surat,"Science Center, Surat - SMC",21-04-2024 03:00:00,21.170046,72.795405,PM2.5,1,15,7
India,Gujarat,Surat,"Science Center, Surat - SMC",21-04-2024 03:00:00,21.170046,72.795405,PM10,5,39,16
India,Gujarat,Vapi,"Phase-1 GIDC, Vapi - GPCB",21-04-2024 03:00:00,20.362421,72.918013,NO2,6,7,7
India,Gujarat,Vatva,"Phase-4 GIDC, Vatva - GPCB",21-04-2024 03:00:00,22.969611,72.643500,PM10,43,102,64
India,Gujarat,Vatva,"Phase-4 GIDC, Vatva - GPCB",21-04-2024 03:00:00,22.969611,72.643500,SO2,10,64,28
India,Haryana,Ambala,"Patti Mehar, Ambala - HSPCB",21-04-2024 03:00:00,30.379589,76.778328,NO2,3,5,4
India,Haryana,Ambala,"Patti Mehar, Ambala - HSPCB",21-04-2024 03:00:00,30.379589,76.778328,SO2,NA,NA,NA
India,Haryana,Ambala,"Patti Mehar, Ambala - HSPCB",21-04-2024 03:00:00,30.379589,76.778328,OZONE,24,56,32
India,Haryana,Bahadurgarh,"Arya Nagar, Bahadurgarh - HSPCB",21-04-2024 03:00:00,28.6701,76.9254,PM10,69,140,118
India,Haryana,Bahadurgarh,"Arya Nagar, Bahadurgarh - HSPCB",21-04-2024 03:00:00,28.6701,76.9254,NH3,8,12,9
India,Haryana,Bahadurgarh,"Arya Nagar, Bahadurgarh - HSPCB",21-04-2024 03:00:00,28.6701,76.9254,CO,44,102,97
India,Haryana,Charkhi Dadri,"Mini Secretariat, Charkhi Dadri - HSPCB",21-04-2024 03:00:00,28.593883,76.270653,NO2,14,25,18
India,Haryana,Charkhi Dadri,"Mini Secretariat, Charkhi Dadri - HSPCB",21-04-2024 03:00:00,28.593883,76.270653,CO,20,76,45
India,Haryana,Dharuhera,"Municipal Corporation Office, Dharuhera -  HSPCB",21-04-2024 03:00:00,28.206800,76.799700,OZONE,22,47,34
India,Haryana,Faridabad,"New Industrial Town, Faridabad - HSPCB",21-04-2024 03:00:00,28.39072,77.30059,PM2.5,108,492,316
India,Haryana,Faridabad,"New Industrial Town, Faridabad - HSPCB",21-04-2024 03:00:00,28.39072,77.30059,NH3,1,6,3
India,Haryana,Faridabad,"Sector 11, Faridabad - HSPCB",21-04-2024 03:00:00,28.376058,77.315741,PM10,127,451,275
India,Haryana,Faridabad,"Sector 11, Faridabad - HSPCB",21-04-2024 03:00:00,28.376058,77.315741,SO2,1,3,2
India,Haryana,Faridabad,"Sector 30, Faridabad - HSPCB",21-04-2024 03:00:00,28.4417,77.3217,SO2,5,6,6
India,Haryana,Faridabad,"Sector 30, Faridabad - HSPCB",21-04-2024 03:00:00,28.4417,77.3217,OZONE,5,69,37
India,Haryana,Gurugram,"Sector-51, Gurugram - HSPCB",21-04-2024 03:00:00,28.4227,77.0667,CO,22,75,44
India,Haryana,Gurugram,"Teri Gram, Gurugram - HSPCB",21-04-2024 03:00:00,28.4275,77.1465,PM2.5,23,410,246
India,Haryana,Gurugram,"Teri Gram, Gurugram - HSPCB",21-04-2024 03:00:00,28.4275,77.1465,PM10,57,485,272
India,Haryana,Gurugram,"Vikas Sadan, Gurugram - HSPCB",21-04-2024 03:00:00,28.4501238,77.0263051,PM2.5,77,390,285
India,Haryana,Gurugram,"Vikas Sadan, Gurugram - HSPCB",21-04-2024 03:00:00,28.4501238,77.0263051,CO,54,147,104
India,Haryana,Hisar,"Urban Estate-II, Hisar - HSPCB",21-04-2024 03:00:00,29.140560,75.744941,PM2.5,31,128,56
India,Haryana,Hisar,"Urban Estate-II, Hisar - HSPCB",21-04-2024 03:00:00,29.140560,75.744941,CO,25,40,32
India,Haryana,Jind,"Police Lines, Jind - HSPCB",21-04-2024 03:00:00,29.307814,76.337619,PM10,60,127,87
India,Haryana,Jind,"Police Lines, Jind - HSPCB",21-04-2024 03:00:00,29.307814,76.337619,NH3,2,5,4
India,Haryana,Jind,"Police Lines, Jind - HSPCB",21-04-2024 03:00:00,29.307814,76.337619,SO2,NA,NA,NA
India,Haryana,Kaithal,"Rishi Nagar, Kaithal - HSPCB",21-04-2024 03:00:00,29.8006,76.4155,PM10,NA,NA,NA
India,Haryana,Kaithal,"Rishi Nagar, Kaithal - HSPCB",21-04-2024 03:00:00,29.8006,76.4155,NO2,NA,NA,NA
India,Haryana,Kaithal,"Rishi Nagar, Kaithal - HSPCB",21-04-2024 03:00:00,29.8006,76.4155,NH3,NA,NA,NA
India,Haryana,Karnal,"Sector-12, Karnal - HSPCB",21-04-2024 03:00:00,29.695300,77.002700,PM2.5,59,89,73
India,Haryana,Karnal,"Sector-12, Karnal - HSPCB",21-04-2024 03:00:00,29.695300,77.002700,PM10,60,95,76
India,Haryana,Karnal,"Sector-12, Karnal - HSPCB",21-04-2024 03:00:00,29.695300,77.002700,NH3,10,13,11
India,Haryana,Karnal,"Sector-12, Karnal - HSPCB",21-04-2024 03:00:00,29.695300,77.002700,SO2,12,13,12
India,Haryana,Mandikhera,"General Hospital, Mandikhera - HSPCB",21-04-2024 03:00:00,27.9002,76.9938,CO,9,12,12
India,Haryana,Manesar,"Sector-2 IMT, Manesar - HSPCB",21-04-2024 03:00:00,28.360699,76.936090,NH3,1,4,3
India,Haryana,Narnaul,"Shastri Nagar, Narnaul - HSPCB",21-04-2024 03:00:00,28.060249,76.113115,PM2.5,43,189,95
India,Haryana,Palwal,"Shyam Nagar, Palwal - HSPCB",21-04-2024 03:00:00,28.1485564,77.3320667,SO2,4,18,11
India,Haryana,Panchkula,"Sector-6, Panchkula - HSPCB ",21-04-2024 03:00:00,30.7057778,76.8531805555555,SO2,NA,NA,NA
India,Haryana,Panipat,"Sector-18, Panipat - HSPCB",21-04-2024 03:00:00,29.497973,76.993331,NO2,31,31,31
India,Haryana,Panipat,"Sector-18, Panipat - HSPCB",21-04-2024 03:00:00,29.497973,76.993331,SO2,18,19,19
India,Haryana,Panipat,"Sector-18, Panipat - HSPCB",21-04-2024 03:00:00,29.497973,76.993331,OZONE,30,30,30
India,Haryana,Rohtak,"MD University, Rohtak - HSPCB",21-04-2024 03:00:00,28.52123,76.37138,OZONE,44,54,49
India,Haryana,Sirsa,"F-Block, Sirsa - HSPCB",21-04-2024 03:00:00,29.536400,75.015800,PM2.5,28,71,47
India,Haryana,Sirsa,"F-Block, Sirsa - HSPCB",21-04-2024 03:00:00,29.536400,75.015800,PM10,31,97,52
India,Haryana,Sirsa,"F-Block, Sirsa - HSPCB",21-04-2024 03:00:00,29.536400,75.015800,NH3,12,13,13
India,Haryana,Sonipat,"Murthal, Sonipat - HSPCB",21-04-2024 03:00:00,29.027200,77.062100,PM2.5,48,48,48
India,Haryana,Sonipat,"Murthal, Sonipat - HSPCB",21-04-2024 03:00:00,29.027200,77.062100,PM10,106,106,106
India,Haryana,Sonipat,"Murthal, Sonipat - HSPCB",21-04-2024 03:00:00,29.027200,77.062100,NH3,7,10,9
India,Haryana,Sonipat,"Murthal, Sonipat - HSPCB",21-04-2024 03:00:00,29.027200,77.062100,OZONE,17,36,20
India,Himachal Pradesh,Baddi,"HIMUDA Complex Phase-1, Baddi - HPPCB",21-04-2024 03:00:00,30.943887,76.801991,NO2,4,41,14
India,Jharkhand,Dhanbad,"Sardar Patel Nagar, Dhanbad - JSPCB",21-04-2024 03:00:00,23.80569,86.44268,CO,1,72,25
India,Karnataka,Belgaum,"Ramteerth Nagar, Belgaum - KSPCB",21-04-2024 03:00:00,15.888653,74.541751,PM2.5,19,35,26
India,Karnataka,Belgaum,"Ramteerth Nagar, Belgaum - KSPCB",21-04-2024 03:00:00,15.888653,74.541751,PM10,25,78,49
India,Karnataka,Bengaluru,"BTM Layout, Bengaluru - CPCB",21-04-2024 03:00:00,12.9135218,77.5950804,CO,NA,NA,NA
India,Karnataka,Bengaluru,"BTM Layout, Bengaluru - CPCB",21-04-2024 03:00:00,12.9135218,77.5950804,OZONE,NA,NA,NA
India,Karnataka,Bengaluru,"Hebbal, Bengaluru - KSPCB",21-04-2024 03:00:00,13.029152,77.585901,CO,6,28,17
India,Karnataka,Bengaluru,"Hombegowda Nagar, Bengaluru - KSPCB",21-04-2024 03:00:00,12.938539,77.590100,OZONE,4,5,4
India,Karnataka,Bengaluru,"Jayanagar 5th Block, Bengaluru - KSPCB",21-04-2024 03:00:00,12.920984,77.584908,OZONE,22,28,22
India,Karnataka,Bengaluru,"Kasturi Nagar, Bengaluru - KSPCB",21-04-2024 03:00:00,13.003872,77.664217,SO2,10,10,10
India,Karnataka,Bengaluru,"Kasturi Nagar, Bengaluru - KSPCB",21-04-2024 03:00:00,13.003872,77.664217,CO,20,27,25
India,Karnataka,Bengaluru,"RVCE-Mailasandra, Bengaluru - KSPCB",21-04-2024 03:00:00,12.921418,77.502466,PM10,NA,NA,NA
India,Karnataka,Bengaluru,"RVCE-Mailasandra, Bengaluru - KSPCB",21-04-2024 03:00:00,12.921418,77.502466,OZONE,39,39,39
India,Karnataka,Bengaluru,"Shivapura_Peenya, Bengaluru - KSPCB",21-04-2024 03:00:00,13.0246342,77.5080115,NO2,15,16,15
India,Karnataka,Bidar,"Naubad, Bidar - KSPCB",21-04-2024 03:00:00,17.930306,77.482194,NH3,NA,NA,NA
India,Karnataka,Chamarajanagar,"Urban, Chamarajanagar - KSPCB",21-04-2024 03:00:00,11.55358,76.55521,NH3,2,3,2
India,Karnataka,Chamarajanagar,"Urban, Chamarajanagar - KSPCB",21-04-2024 03:00:00,11.55358,76.55521,SO2,4,8,5
India,Karnataka,Chikkaballapur,"Chikkaballapur Rural, Chikkaballapur - KSPCB",21-04-2024 03:00:00,13.428828,77.731418,NO2,9,16,11
India,Karnataka,Chikkaballapur,"Chikkaballapur Rural, Chikkaballapur - KSPCB",21-04-2024 03:00:00,13.428828,77.731418,NH3,1,1,1
India,Karnataka,Chikkaballapur,"Chikkaballapur Rural, Chikkaballapur - KSPCB",21-04-2024 03:00:00,13.428828,77.731418,CO,12,26,17
India,Karnataka,Chikkaballapur,"Chikkaballapur Rural, Chikkaballapur - KSPCB",21-04-2024 03:00:00,13.428828,77.731418,OZONE,25,26,26
India,Karnataka,Chikkamagaluru,"Kalyana Nagara, Chikkamagaluru - KSPCB",21-04-2024 03:00:00,13.328028,75.797056,NH3,2,3,3
India,Karnataka,Davanagere,"Devaraj Urs Badavane, Davanagere - KSPCB",21-04-2024 03:00:00,14.475800,75.905200,CO,18,26,25
India,Karnataka,Hassan,"B.Katihalli, Hassan - KSPCB",21-04-2024 03:00:00,13.008556,76.125258,OZONE,4,20,6
India,Karnataka,Haveri,"Ashwini Nagar, Haveri - KSPCB",21-04-2024 03:00:00,14.791800,75.389600,NH3,3,3,3
India,Karnataka,Hubballi,"Deshpande Nagar, Hubballi - KSPCB",21-04-2024 03:00:00,15.351773,75.140726,OZONE,1,11,1
India,Karnataka,Kalaburagi,"Lal Bahadur Shastri Nagar, Kalaburagi - KSPCB",21-04-2024 03:00:00,17.321993,76.822628,PM2.5,NA,NA,NA
India,Karnataka,Kalaburagi,"Lal Bahadur Shastri Nagar, Kalaburagi - KSPCB",21-04-2024 03:00:00,17.321993,76.822628,PM10,10,38,20
India,Karnataka,Kalaburagi,"Mahatma Basaveswar Colony, Kalaburgi - KSPCB",21-04-2024 03:00:00,17.336318,76.847397,PM2.5,23,73,43
India,Karnataka,Kalaburagi,"Mahatma Basaveswar Colony, Kalaburgi - KSPCB",21-04-2024 03:00:00,17.336318,76.847397,CO,33,56,42
India,Karnataka,Karwar,"KHB Colony, Karwar - KSPCB",21-04-2024 03:00:00,14.816666,74.141003,SO2,NA,NA,NA
India,Karnataka,Kolar,"Tamaka Ind. Area, Kolar - KSPCB",21-04-2024 03:00:00,13.1276288,78.1570122,CO,6,6,6
India,Karnataka,Koppal,"Diwator Nagar, Koppal - KSPCB",21-04-2024 03:00:00,15.347630,76.181767,NH3,6,10,8
India,Karnataka,Koppal,"Diwator Nagar, Koppal - KSPCB",21-04-2024 03:00:00,15.347630,76.181767,CO,129,130,130
India,Karnataka,Koppal,"Diwator Nagar, Koppal - KSPCB",21-04-2024 03:00:00,15.347630,76.181767,OZONE,47,90,60
India,Karnataka,Madikeri,"Stuart Hill, Madikeri - KSPCB",21-04-2024 03:00:00,12.415911,75.735050,PM10,22,49,38
India,Karnataka,Madikeri,"Stuart Hill, Madikeri - KSPCB",21-04-2024 03:00:00,12.415911,75.735050,SO2,4,4,4
India,Karnataka,Mangalore,"Kadri, Mangalore - KSPCB",21-04-2024 03:00:00,12.889250,74.853000,PM2.5,32,107,58
India,Karnataka,Mangalore,"Kadri, Mangalore - KSPCB",21-04-2024 03:00:00,12.889250,74.853000,NO2,5,7,6
India,Karnataka,Mysuru,"Hebbal 1st Stage, Mysuru - KSPCB",21-04-2024 03:00:00,12.21041,76.37376,SO2,1,3,1
India,Karnataka,Ramanagara,"Vijay Nagar, Ramanagara - KSPCB",21-04-2024 03:00:00,12.733409,77.298051,PM2.5,47,87,63
India,Karnataka,Shivamogga,"Vinoba Nagara, Shivamogga - KSPCB",21-04-2024 03:00:00,13.940000,75.555917,PM2.5,28,51,43
India,Karnataka,Tumakuru,"Thimmalapura, Tumakuru - KSPCB",21-04-2024 03:00:00,13.377516,77.099072,NH3,NA,NA,NA
India,Karnataka,Tumakuru,"Thimmalapura, Tumakuru - KSPCB",21-04-2024 03:00:00,13.377516,77.099072,SO2,7,18,9
India,Karnataka,Vijayapura,"Ibrahimpur, Vijayapura - KSPCB",21-04-2024 03:00:00,16.802639,75.722694,NH3,2,2,2
India,Karnataka,Yadgir,"Collector Office, Yadgir - KSPCB",21-04-2024 03:00:00,16.7602,77.1428,PM10,62,93,76
India,Kerala,Eloor,"Udyogamandal, Eloor - Kerala PCB",21-04-2024 03:00:00,10.073232,76.302765,PM2.5,31,58,42
India,Kerala,Eloor,"Udyogamandal, Eloor - Kerala PCB",21-04-2024 03:00:00,10.073232,76.302765,NH3,1,1,1
India,Kerala,Eloor,"Udyogamandal, Eloor - Kerala PCB",21-04-2024 03:00:00,10.073232,76.302765,CO,14,114,33
India,Kerala,Kannur,"Thavakkara, Kannur - Kerala PCB",21-04-2024 03:00:00,11.875000,75.373200,NH3,1,1,1
India,Kerala,Kannur,"Thavakkara, Kannur - Kerala PCB",21-04-2024 03:00:00,11.875000,75.373200,OZONE,31,36,32
India,Kerala,Kollam,"Polayathode, Kollam - Kerala PCB",21-04-2024 03:00:00,8.8787,76.6073,NH3,NA,NA,NA
India,Kerala,Kollam,"Polayathode, Kollam - Kerala PCB",21-04-2024 03:00:00,8.8787,76.6073,OZONE,NA,NA,NA
India,Kerala,Thiruvananthapuram,"Kariavattom, Thiruvananthapuram - Kerala PCB",21-04-2024 03:00:00,8.563700,76.886500,NO2,8,9,9
India,Kerala,Thiruvananthapuram,"Plammoodu, Thiruvananthapuram - Kerala PCB",21-04-2024 03:00:00,8.5149093,76.9435879,NO2,7,10,9
India,Kerala,Thiruvananthapuram,"Plammoodu, Thiruvananthapuram - Kerala PCB",21-04-2024 03:00:00,8.5149093,76.9435879,NH3,1,1,1
India,Kerala,Thiruvananthapuram,"Plammoodu, Thiruvananthapuram - Kerala PCB",21-04-2024 03:00:00,8.5149093,76.9435879,SO2,5,12,9
India,Madhya Pradesh,Bhopal,"Idgah Hills, Bhopal - MPPCB",21-04-2024 03:00:00,23.264759,77.381568,PM2.5,28,53,40
India,Madhya Pradesh,Bhopal,"Paryavaran Parisar, Bhopal - MPPCB",21-04-2024 03:00:00,23.210494,77.425409,NO2,6,32,13
India,Madhya Pradesh,Bhopal,"Paryavaran Parisar, Bhopal - MPPCB",21-04-2024 03:00:00,23.210494,77.425409,OZONE,31,81,53
India,Madhya Pradesh,Bhopal,"T T Nagar, Bhopal - MPPCB",21-04-2024 03:00:00,23.233584,77.400574,PM2.5,30,65,47
India,Madhya Pradesh,Bhopal,"T T Nagar, Bhopal - MPPCB",21-04-2024 03:00:00,23.233584,77.400574,PM10,83,126,104
India,Madhya Pradesh,Dewas,"Bhopal Chauraha, Dewas - MPPCB",21-04-2024 03:00:00,22.9682591,76.064118,PM2.5,23,59,42
India,Madhya Pradesh,Gwalior,"City Center, Gwalior - MPPCB",21-04-2024 03:00:00,26.203442,78.193251,PM2.5,16,65,36
India,Madhya Pradesh,Gwalior,"Deen Dayal Nagar, Gwalior - MPPCB",21-04-2024 03:00:00,26.259242,78.216432,PM10,59,208,126
India,Madhya Pradesh,Gwalior,"Maharaj Bada, Gwalior - MPPCB",21-04-2024 03:00:00,26.200388,78.147714,PM2.5,20,48,31
India,Madhya Pradesh,Gwalior,"Maharaj Bada, Gwalior - MPPCB",21-04-2024 03:00:00,26.200388,78.147714,PM10,52,206,121
India,Madhya Pradesh,Gwalior,"Maharaj Bada, Gwalior - MPPCB",21-04-2024 03:00:00,26.200388,78.147714,CO,16,89,47
India,Madhya Pradesh,Gwalior,"Maharaj Bada, Gwalior - MPPCB",21-04-2024 03:00:00,26.200388,78.147714,OZONE,58,110,85
India,Madhya Pradesh,Indore,"Residency Area, Indore - IMC",21-04-2024 03:00:00,22.7084,75.8815,SO2,23,30,26
India,Madhya Pradesh,Jabalpur,"Govindh Bhavan Colony, Jabalpur - JMC",21-04-2024 03:00:00,23.163174,79.973061,PM2.5,NA,NA,NA
India,Madhya Pradesh,Jabalpur,"Govindh Bhavan Colony, Jabalpur - JMC",21-04-2024 03:00:00,23.163174,79.973061,PM10,NA,NA,NA
India,Madhya Pradesh,Jabalpur,"Marhatal, Jabalpur - MPPCB",21-04-2024 03:00:00,23.168606,79.932247,PM2.5,18,74,50
India,Madhya Pradesh,Jabalpur,"Marhatal, Jabalpur - MPPCB",21-04-2024 03:00:00,23.168606,79.932247,NO2,8,72,29
India,Madhya Pradesh,Jabalpur,"Marhatal, Jabalpur - MPPCB",21-04-2024 03:00:00,23.168606,79.932247,NH3,2,4,3
India,Madhya Pradesh,Jabalpur,"Marhatal, Jabalpur - MPPCB",21-04-2024 03:00:00,23.168606,79.932247,SO2,6,17,14
India,Madhya Pradesh,Jabalpur,"Suhagi, Jabalpur - JMC",21-04-2024 03:00:00,23.218135,79.957770,NO2,38,46,42
India,Madhya Pradesh,Katni,"Gole Bazar, Katni - MPPCB",21-04-2024 03:00:00,23.50016,80.23284,PM2.5,18,116,52
India,Madhya Pradesh,Katni,"Gole Bazar, Katni - MPPCB",21-04-2024 03:00:00,23.50016,80.23284,NO2,34,126,64
India,Madhya Pradesh,Maihar,"Sahilara, Maihar - KJS Cements",21-04-2024 03:00:00,24.2613009,80.7231783,PM2.5,10,51,27
India,Madhya Pradesh,Mandideep,"Sector-D Industrial Area, Mandideep - MPPCB",21-04-2024 03:00:00,23.108440,77.511428,NH3,6,9,8
India,Madhya Pradesh,Mandideep,"Sector-D Industrial Area, Mandideep - MPPCB",21-04-2024 03:00:00,23.108440,77.511428,SO2,2,37,11
India,Madhya Pradesh,Mandideep,"Sector-D Industrial Area, Mandideep - MPPCB",21-04-2024 03:00:00,23.108440,77.511428,OZONE,12,39,24
India,Madhya Pradesh,Pithampur,"Sector-2 Industrial Area, Pithampur - MPPCB",21-04-2024 03:00:00,22.624758,75.675238,SO2,10,14,12
India,Madhya Pradesh,Sagar,"Civil Lines, Sagar - MPPCB",21-04-2024 03:00:00,23.838586,78.759431,CO,8,44,32
India,Madhya Pradesh,Sagar,"Civil Lines, Sagar - MPPCB",21-04-2024 03:00:00,23.838586,78.759431,OZONE,9,100,22
India,Madhya Pradesh,Sagar,"Deen Dayal Nagar, Sagar - MPPCB",21-04-2024 03:00:00,23.8640158,78.80289321,SO2,4,15,11
India,Madhya Pradesh,Singrauli,"Suryakiran Bhawan NCL, Singrauli - MPPCB",21-04-2024 03:00:00,24.108970,82.645580,NH3,3,5,4
India,Madhya Pradesh,Ujjain,"Mahakaleshwar Temple, Ujjain - MPPCB",21-04-2024 03:00:00,23.182719 ,75.768218 ,NO2,NA,NA,NA
India,Maharashtra,Ahmednagar,"Tarakpur, Ahmednagar - MPCB",21-04-2024 03:00:00,19.10122,74.73339,PM2.5,34,297,101
India,Maharashtra,Akola,"Ramdaspeth, Akola - MPCB",21-04-2024 03:00:00,20.719516,77.000253,NH3,5,13,8
India,Maharashtra,Amravati,"Shivneri Colony, Amravati - MPCB",21-04-2024 03:00:00,20.9402359,77.7895248,CO,12,47,26
India,Maharashtra,Amravati,"Shri Shivaji Science College, Amaravati - MPCB",21-04-2024 03:00:00,20.939198,77.765701,NO2,4,106,26
India,Maharashtra,Amravati,"Shri Shivaji Science College, Amaravati - MPCB",21-04-2024 03:00:00,20.939198,77.765701,NH3,2,3,2
India,Maharashtra,Amravati,"Shri Shivaji Science College, Amaravati - MPCB",21-04-2024 03:00:00,20.939198,77.765701,OZONE,17,106,51
India,Maharashtra,Aurangabad,"More Chowk Waluj, Aurangabad - MPCB",21-04-2024 03:00:00,19.8389439,75.244448,NO2,NA,NA,NA
India,Maharashtra,Aurangabad,"Rachnakar Colony, Aurangabad - MPCB",21-04-2024 03:00:00,19.863756,75.321188,CO,11,23,20
India,Maharashtra,Badlapur,"Katrap, Badlapur - MPCB",21-04-2024 03:00:00,19.16485,73.23409,NO2,4,44,14
India,Maharashtra,Belapur,"CBD Belapur, Belapur - MPCB",21-04-2024 03:00:00,19.0243902,73.0406721,SO2,1,12,4
India,Maharashtra,Bhiwandi,"Gokul Nagar, Bhiwandi - MPCB",21-04-2024 03:00:00,19.309073,73.057223,PM2.5,33,70,46
India,Maharashtra,Bhiwandi,"Gokul Nagar, Bhiwandi - MPCB",21-04-2024 03:00:00,19.309073,73.057223,SO2,19,25,21
India,Maharashtra,Bhiwandi,"Gokul Nagar, Bhiwandi - MPCB",21-04-2024 03:00:00,19.309073,73.057223,CO,12,46,21
India,Maharashtra,Boisar,"Khaira, Boisar - MPCB",21-04-2024 03:00:00,19.786089,72.757971,CO,6,54,19
India,Maharashtra,Boisar,"Khaira, Boisar - MPCB",21-04-2024 03:00:00,19.786089,72.757971,OZONE,6,98,38
India,Maharashtra,Chandrapur,"Chauhan Colony, Chandrapur - MPCB",21-04-2024 03:00:00,19.962900,79.298714,SO2,5,67,19
India,Maharashtra,Chandrapur,"MIDC Khutala, Chandrapur - MPCB",21-04-2024 03:00:00,19.9775302,79.2337086,NO2,23,50,37
India,Maharashtra,Chandrapur,"MIDC Khutala, Chandrapur - MPCB",21-04-2024 03:00:00,19.9775302,79.2337086,NH3,1,2,1
India,Maharashtra,Dhule,"Deopur, Dhule - MPCB",21-04-2024 03:00:00,20.918946,74.776388,PM2.5,52,230,104
India,Maharashtra,Dhule,"Deopur, Dhule - MPCB",21-04-2024 03:00:00,20.918946,74.776388,CO,8,32,20
India,Maharashtra,Jalgaon,"Prabhat Colony, Jalgaon - MPCB",21-04-2024 03:00:00,21.001264,75.565602,PM10,87,189,134
India,Maharashtra,Jalgaon,"Prabhat Colony, Jalgaon - MPCB",21-04-2024 03:00:00,21.001264,75.565602,SO2,2,31,15
India,Maharashtra,Kalyan,"Khadakpada, Kalyan - MPCB",21-04-2024 03:00:00,19.25292,73.142019,NH3,1,1,1
India,Maharashtra,Latur,"Sawe Wadi, Latur - MPCB",21-04-2024 03:00:00,18.39963,76.57452,OZONE,34,91,43
India,Maharashtra,Mira-Bhayandar,"Bhayandar West, Mira-Bhayandar - MPCB",21-04-2024 03:00:00,19.296481,72.840923,NH3,3,4,3
India,Maharashtra,Mira-Bhayandar,"Bhayandar West, Mira-Bhayandar - MPCB",21-04-2024 03:00:00,19.296481,72.840923,OZONE,8,175,74
India,Maharashtra,Mumbai,"Bandra Kurla Complex, Mumbai - MPCB",21-04-2024 03:00:00,19.065931,72.862131,SO2,1,2,1
India,Maharashtra,Mumbai,"Bandra Kurla Complex, Mumbai - MPCB",21-04-2024 03:00:00,19.065931,72.862131,CO,21,38,27
India,Maharashtra,Mumbai,"Borivali East, Mumbai - MPCB",21-04-2024 03:00:00,19.2243333,72.8658113,PM2.5,15,45,29
India,Maharashtra,Mumbai,"Borivali East, Mumbai - MPCB",21-04-2024 03:00:00,19.2243333,72.8658113,PM10,27,135,83
India,Maharashtra,Mumbai,"Borivali East, Mumbai - MPCB",21-04-2024 03:00:00,19.2243333,72.8658113,OZONE,14,15,14
India,Maharashtra,Mumbai,"Byculla, Mumbai - BMC",21-04-2024 03:00:00,18.9767,72.8380,CO,6,32,17
India,Maharashtra,Mumbai,"Chembur, Mumbai - MPCB",21-04-2024 03:00:00,19.0364585,72.8954371,OZONE,1,208,2
India,Maharashtra,Mumbai,"Chhatrapati Shivaji Intl. Airport (T2), Mumbai - MPCB",21-04-2024 03:00:00,19.10078,72.87462,NH3,1,3,1
India,Maharashtra,Mumbai,"Chhatrapati Shivaji Intl. Airport (T2), Mumbai - MPCB",21-04-2024 03:00:00,19.10078,72.87462,CO,37,48,42
India,Maharashtra,Mumbai,"Colaba, Mumbai - MPCB",21-04-2024 03:00:00,18.910000,72.820000,PM2.5,14,66,30
India,Maharashtra,Mumbai,"Colaba, Mumbai - MPCB",21-04-2024 03:00:00,18.910000,72.820000,NO2,21,25,22
India,Maharashtra,Mumbai,"Colaba, Mumbai - MPCB",21-04-2024 03:00:00,18.910000,72.820000,OZONE,10,11,11
India,Maharashtra,Mumbai,"Ghatkopar, Mumbai - BMC",21-04-2024 03:00:00,19.083694,72.920967,OZONE,1,43,24
India,Maharashtra,Mumbai,"Kandivali East, Mumbai - MPCB",21-04-2024 03:00:00,19.205800,72.868200,PM2.5,20,160,50
India,Maharashtra,Mumbai,"Kandivali East, Mumbai - MPCB",21-04-2024 03:00:00,19.205800,72.868200,NH3,4,51,10
India,Maharashtra,Mumbai,"Kandivali East, Mumbai - MPCB",21-04-2024 03:00:00,19.205800,72.868200,CO,28,32,31
India,Maharashtra,Mumbai,"Kandivali West, Mumbai - BMC",21-04-2024 03:00:00,19.215859,72.831718,PM2.5,24,53,37
India,Maharashtra,Mumbai,"Kherwadi_Bandra East, Mumbai - MPCB",21-04-2024 03:00:00,19.0632143,72.8456324,NH3,7,37,11
India,Maharashtra,Mumbai,"Kherwadi_Bandra East, Mumbai - MPCB",21-04-2024 03:00:00,19.0632143,72.8456324,OZONE,31,117,78
India,Maharashtra,Mumbai,"Kurla, Mumbai - MPCB",21-04-2024 03:00:00,19.0863,72.8888,PM2.5,25,132,58
India,Maharashtra,Mumbai,"Kurla, Mumbai - MPCB",21-04-2024 03:00:00,19.0863,72.8888,OZONE,28,49,29
India,Maharashtra,Mumbai,"Mazgaon, Mumbai - IITM",21-04-2024 03:00:00,18.96702,72.84214,PM2.5,NA,NA,NA
India,Maharashtra,Mumbai,"Mazgaon, Mumbai - IITM",21-04-2024 03:00:00,18.96702,72.84214,NH3,18,26,21
India,Maharashtra,Mumbai,"Mazgaon, Mumbai - IITM",21-04-2024 03:00:00,18.96702,72.84214,CO,8,60,30
India,Maharashtra,Mumbai,"Mindspace-Malad West, Mumbai - MPCB",21-04-2024 03:00:00,19.1878657,72.8304069,PM10,49,88,72
India,Maharashtra,Mumbai,"Mindspace-Malad West, Mumbai - MPCB",21-04-2024 03:00:00,19.1878657,72.8304069,OZONE,16,194,38
India,Maharashtra,Mumbai,"Mulund West, Mumbai - MPCB",21-04-2024 03:00:00,19.1750,72.9419,NO2,20,25,22
India,Maharashtra,Mumbai,"Navy Nagar-Colaba, Mumbai - IITM",21-04-2024 03:00:00,18.897756,72.813320,PM10,58,133,93
India,Maharashtra,Mumbai,"Navy Nagar-Colaba, Mumbai - IITM",21-04-2024 03:00:00,18.897756,72.813320,OZONE,60,185,113
India,Maharashtra,Mumbai,"Shivaji Nagar, Mumbai - BMC",21-04-2024 03:00:00,19.060498,72.923356,CO,2,76,41
India,Maharashtra,Mumbai,"Sion, Mumbai - MPCB",21-04-2024 03:00:00,19.047000,72.874600,NH3,1,1,1
India,Maharashtra,Mumbai,"Sion, Mumbai - MPCB",21-04-2024 03:00:00,19.047000,72.874600,OZONE,32,50,38
India,Maharashtra,Nagpur,"Mahal, Nagpur - MPCB",21-04-2024 03:00:00,21.14472,79.107595,CO,14,144,72
India,Maharashtra,Nagpur,"Opp GPO Civil Lines, Nagpur - MPCB",21-04-2024 03:00:00,21.152875,79.0517531,SO2,4,22,13
India,Maharashtra,Nanded,"Sneh Nagar, Nanded - MPCB",21-04-2024 03:00:00,19.173852,77.296291,PM10,38,102,67
India,Maharashtra,Nashik,"Hirawadi, Nashik - MPCB",21-04-2024 03:00:00,20.021503,73.813844,NH3,1,2,2
India,Maharashtra,Nashik,"MIDC Ambad, Nashik - MPCB",21-04-2024 03:00:00,19.950220,73.731480,NO2,7,24,12
India,Maharashtra,Nashik,"MIDC Ambad, Nashik - MPCB",21-04-2024 03:00:00,19.950220,73.731480,NH3,1,4,2
India,Maharashtra,Nashik,"Pandav Nagari, Nashik - MPCB",21-04-2024 03:00:00,19.9591346,73.7788008,CO,10,31,24
India,Maharashtra,Navi Mumbai,"Kopripada-Vashi, Navi Mumbai - MPCB",21-04-2024 03:00:00,19.090337,73.014232,PM10,75,178,117
India,Maharashtra,Navi Mumbai,"Kopripada-Vashi, Navi Mumbai - MPCB",21-04-2024 03:00:00,19.090337,73.014232,NO2,22,64,40
India,Maharashtra,Navi Mumbai,"Mahape, Navi Mumbai - MPCB",21-04-2024 03:00:00,19.1135051,73.008978,SO2,22,23,23
India,Maharashtra,Navi Mumbai,"Sanpada, Navi Mumbai - MPCB",21-04-2024 03:00:00,19.0575752,73.0151367,OZONE,57,130,79
India,Maharashtra,Navi Mumbai,"Sector-2E Kalamboli, Navi Mumbai - MPCB",21-04-2024 03:00:00,19.02579,73.10297,NH3,1,7,3
India,Maharashtra,Navi Mumbai,"Sector-2E Kalamboli, Navi Mumbai - MPCB",21-04-2024 03:00:00,19.02579,73.10297,SO2,2,30,16
India,Maharashtra,Navi Mumbai,"Tondare-Taloja, Navi Mumbai - MPCB",21-04-2024 03:00:00,19.0630,73.1209,NH3,NA,NA,NA
India,Maharashtra,Navi Mumbai,"Tondare-Taloja, Navi Mumbai - MPCB",21-04-2024 03:00:00,19.0630,73.1209,OZONE,1,76,16
India,Maharashtra,Parbhani,"Masoom Colony, Parbhani - MPCB",21-04-2024 03:00:00,19.265594,76.761463,PM2.5,35,196,87
India,Maharashtra,Parbhani,"Masoom Colony, Parbhani - MPCB",21-04-2024 03:00:00,19.265594,76.761463,NH3,3,6,4
India,Maharashtra,Parbhani,"Masoom Colony, Parbhani - MPCB",21-04-2024 03:00:00,19.265594,76.761463,SO2,2,8,5
India,Maharashtra,Pimpri-Chinchwad,"Park Street Wakad, Pimpri Chinchwad - MPCB",21-04-2024 03:00:00,18.59051,73.77946,PM10,13,242,61
India,Maharashtra,Pimpri-Chinchwad,"Park Street Wakad, Pimpri Chinchwad - MPCB",21-04-2024 03:00:00,18.59051,73.77946,NO2,54,91,73
India,Maharashtra,Pimpri-Chinchwad,"Thergaon, Pimpri Chinchwad - MPCB",21-04-2024 03:00:00,18.616318,73.765797,CO,14,94,49
India,Maharashtra,Pune,"Katraj Dairy, Pune - MPCB",21-04-2024 03:00:00,18.454450,73.854155,NO2,9,23,18
India,Maharashtra,Pune,"Revenue Colony-Shivajinagar, Pune - IITM",21-04-2024 03:00:00,18.530085,73.849598,NH3,12,30,18
India,Maharashtra,Pune,"Savitribai Phule Pune University, Pune - MPCB",21-04-2024 03:00:00,18.547056,73.826908,NO2,NA,NA,NA
India,Maharashtra,Pune,"Savitribai Phule Pune University, Pune - MPCB",21-04-2024 03:00:00,18.547056,73.826908,SO2,NA,NA,NA
India,Maharashtra,Pune,"Transport Nagar-Nigdi, Pune - IITM",21-04-2024 03:00:00,18.664282,73.763966,CO,28,43,35
India,Maharashtra,Sangli,"Vijay Nagar, Sangli - MPCB",21-04-2024 03:00:00, 16.5038,74.3623,PM2.5,50,84,61
India,Maharashtra,Solapur,"Ratandeep Housing Society, Solapur - MPCB",21-04-2024 03:00:00,17.65439,75.90649,SO2,NA,NA,NA
India,Maharashtra,Thane,"Kasarvadavali, Thane - MPCB",21-04-2024 03:00:00,19.26777,72.97182,SO2,1,14,5
India,Maharashtra,Thane,"Pimpleshwar Mandir, Thane - MPCB",21-04-2024 03:00:00,19.192056,72.9585188,PM10,56,71,60
India,Maharashtra,Thane,"Pimpleshwar Mandir, Thane - MPCB",21-04-2024 03:00:00,19.192056,72.9585188,NH3,1,3,3
India,Maharashtra,Thane,"Pimpleshwar Mandir, Thane - MPCB",21-04-2024 03:00:00,19.192056,72.9585188,OZONE,6,65,28
India,Maharashtra,Thane,"Upvan Fort, Thane - MPCB",21-04-2024 03:00:00,19.222279,72.957979,CO,10,34,24
India,Maharashtra,Thane,"Upvan Fort, Thane - MPCB",21-04-2024 03:00:00,19.222279,72.957979,OZONE,30,143,61
India,Maharashtra,Ulhasnagar,"Sidhi Vinayak Nagar, Ulhasnagar - MPCB",21-04-2024 03:00:00,19.235581,73.159121,OZONE,16,255,78
India,Maharashtra,Virar,"Bolinj, Virar - MPCB",21-04-2024 03:00:00,19.4458210,72.7988231,NO2,6,42,17
India,Manipur,Imphal,"DM College of Science, Imphal - Manipur PCB",21-04-2024 03:00:00,24.8207389,93.9423085,NH3,2,2,2
India,Manipur,Imphal,"Manipur University, Imphal - Manipur PCB",21-04-2024 03:00:00,24.7524239,93.9286218,NH3,1,1,1
India,Manipur,Imphal,"Manipur University, Imphal - Manipur PCB",21-04-2024 03:00:00,24.7524239,93.9286218,OZONE,9,49,21
India,Meghalaya,Shillong,"Lumpyngngad, Shillong - Meghalaya PCB",21-04-2024 03:00:00,25.5586,91.8985,NO2,1,2,1
India,Nagaland,Kohima,"PWD Juction, Kohima - NPCB",21-04-2024 03:00:00,25.6635413,94.0989878,PM10,56,114,84
India,Nagaland,Kohima,"PWD Juction, Kohima - NPCB",21-04-2024 03:00:00,25.6635413,94.0989878,NH3,1,1,1
India,Odisha,Angul,"Hakimapada, Angul - OSPCB",21-04-2024 03:00:00,20.832874,85.104082,PM10,101,394,206
India,Odisha,Angul,"Hakimapada, Angul - OSPCB",21-04-2024 03:00:00,20.832874,85.104082,CO,1,188,65
India,Odisha,Balasore,"Kalidaspur, Balasore - OSPCB",21-04-2024 03:00:00,21.51161,86.89088,PM2.5,27,117,54
India,Odisha,Balasore,"Kalidaspur, Balasore - OSPCB",21-04-2024 03:00:00,21.51161,86.89088,SO2,14,39,22
India,Odisha,Baripada,"Meher Colony, Baripada - OSPCB",21-04-2024 03:00:00,21.941841,86.728318,PM10,102,159,120
India,Odisha,Baripada,"Meher Colony, Baripada - OSPCB",21-04-2024 03:00:00,21.941841,86.728318,NO2,11,19,15
India,Odisha,Baripada,"Meher Colony, Baripada - OSPCB",21-04-2024 03:00:00,21.941841,86.728318,NH3,1,6,2
India,Odisha,Bhubaneswar,"Lingraj Mandir, Bhubaneswar - OSPCB",21-04-2024 03:00:00,20.240790,85.836784,SO2,2,10,5
India,Odisha,Bhubaneswar,"Patia, Bhubaneswar - OSPCB",21-04-2024 03:00:00,20.34652,85.81630,PM10,37,101,67
India,Odisha,Brajrajnagar,"GM Office, Brajrajnagar - OSPCB",21-04-2024 03:00:00,21.8004996,83.8396977,NO2,14,19,17
India,Odisha,Brajrajnagar,"GM Office, Brajrajnagar - OSPCB",21-04-2024 03:00:00,21.8004996,83.8396977,SO2,30,30,30
India,Odisha,Byasanagar,"Ferro Chrome Colony, Byasanagar - OSPCB",21-04-2024 03:00:00,20.94185,86.11510,CO,60,111,90
India,Odisha,Cuttack,"CDA Area, Cuttack - OSPCB",21-04-2024 03:00:00,20.48891     ,85.84768     ,OZONE,3,98,16
India,Odisha,Keonjhar,"Jagamohanpur, Keonjhar - OSPCB",21-04-2024 03:00:00,21.643900,85.599355,NH3,1,3,1
India,Odisha,Keonjhar,"Jagamohanpur, Keonjhar - OSPCB",21-04-2024 03:00:00,21.643900,85.599355,SO2,2,5,3
India,Odisha,Nayagarh,"Dabuna, Nayagarh - OSPCB",21-04-2024 03:00:00,21.847279,85.416905,NH3,5,5,5
India,Odisha,Rairangpur,"Divisional Forest Office, Rairangpur - OSPCB",21-04-2024 03:00:00,22.265816,86.174829,SO2,4,13,9
India,Odisha,Rairangpur,"Divisional Forest Office, Rairangpur - OSPCB",21-04-2024 03:00:00,22.265816,86.174829,OZONE,38,75,51
India,Odisha,Rourkela,"Raghunathpali, Rourkela - OSPCB",21-04-2024 03:00:00,22.220833,84.809444,NH3,1,3,2
India,Odisha,Rourkela,"Raghunathpali, Rourkela - OSPCB",21-04-2024 03:00:00,22.220833,84.809444,CO,33,104,54
India,Odisha,Rourkela,"Sector-2, Rourkela - OSPCB",21-04-2024 03:00:00,22.24500000,84.88111111,PM2.5,60,380,191
India,Odisha,Suakati,"OMC Colony, Suakati - OSPCB",21-04-2024 03:00:00,21.606865,85.510538,NO2,7,16,13
India,Odisha,Suakati,"OMC Colony, Suakati - OSPCB",21-04-2024 03:00:00,21.606865,85.510538,NH3,5,8,6
India,Odisha,Tensa,"Barsua Iron Ore Mines, Tensa - OSPCB",21-04-2024 03:00:00,21.869985,85.167016,PM2.5,20,306,124
India,Odisha,Tensa,"Barsua Iron Ore Mines, Tensa - OSPCB",21-04-2024 03:00:00,21.869985,85.167016,PM10,20,136,110
India,Odisha,Tensa,"Barsua Iron Ore Mines, Tensa - OSPCB",21-04-2024 03:00:00,21.869985,85.167016,SO2,NA,NA,NA
India,Puducherry,Puducherry,"Jawahar Nagar, Puducherry - PPCC",21-04-2024 03:00:00,11.9309,79.8027,PM2.5,7,35,15
India,Punjab,Bathinda,"Hardev Nagar, Bathinda - PPCB",21-04-2024 03:00:00,30.233011,74.907758,PM10,NA,NA,NA
India,Punjab,Bathinda,"Hardev Nagar, Bathinda - PPCB",21-04-2024 03:00:00,30.233011,74.907758,NO2,32,33,33
India,Punjab,Khanna,"Kalal Majra, Khanna - PPCB",21-04-2024 03:00:00,30.736056 ,76.209694,OZONE,34,84,44
India,Punjab,Ludhiana,"Punjab Agricultural University, Ludhiana - PPCB",21-04-2024 03:00:00,30.9028,75.8086,PM10,55,132,89
India,Punjab,Ludhiana,"Punjab Agricultural University, Ludhiana - PPCB",21-04-2024 03:00:00,30.9028,75.8086,OZONE,16,40,30
India,Punjab,Patiala,"Model Town, Patiala - PPCB",21-04-2024 03:00:00,30.349388,76.366642,PM10,56,108,77
India,Punjab,Patiala,"Model Town, Patiala - PPCB",21-04-2024 03:00:00,30.349388,76.366642,SO2,6,12,8
India,Punjab,Patiala,"Model Town, Patiala - PPCB",21-04-2024 03:00:00,30.349388,76.366642,OZONE,23,83,41
India,Punjab,Rupnagar,"Ratanpura, Rupnagar - Ambuja Cements",21-04-2024 03:00:00,31.0325454,76.5623046,PM10,17,55,38
India,Rajasthan,Ajmer,"Civil Lines,  Ajmer - RSPCB",21-04-2024 03:00:00,26.470859,74.646594,PM2.5,30,73,50
India,Rajasthan,Ajmer,"Civil Lines,  Ajmer - RSPCB",21-04-2024 03:00:00,26.470859,74.646594,NH3,9,40,14
India,Rajasthan,Ajmer,"Civil Lines,  Ajmer - RSPCB",21-04-2024 03:00:00,26.470859,74.646594,CO,5,34,27
India,Rajasthan,Banswara,"Rati Talai, Banswara - RSPCB",21-04-2024 03:00:00,23.555190,74.440010,CO,7,156,16
India,Rajasthan,Banswara,"Rati Talai, Banswara - RSPCB",21-04-2024 03:00:00,23.555190,74.440010,OZONE,41,109,75
India,Rajasthan,Baran,"Bamboliya, Baran - RSPCB",21-04-2024 03:00:00,25.106006,76.469948,SO2,9,17,12
India,Rajasthan,Bharatpur,"Krishna Nagar, Bharatpur - RSPCB",21-04-2024 03:00:00,27.215415,77.50873,SO2,6,28,13
India,Rajasthan,Bharatpur,"Krishna Nagar, Bharatpur - RSPCB",21-04-2024 03:00:00,27.215415,77.50873,OZONE,16,102,71
India,Rajasthan,Bhilwara,"Pratap Nagar, Bhilwara - RSPCB",21-04-2024 03:00:00,25.339605,74.618883,NO2,11,28,18
India,Rajasthan,Bhiwadi,"Vasundhara Nagar_UIT, Bhiwadi - RSPCB",21-04-2024 03:00:00,28.207266,76.829265,NO2,6,47,23
India,Rajasthan,Bikaner,"MM Ground, Bikaner - RSPCB",21-04-2024 03:00:00,28.018792,73.292658,PM2.5,10,54,29
India,Rajasthan,Bikaner,"MM Ground, Bikaner - RSPCB",21-04-2024 03:00:00,28.018792,73.292658,PM10,62,151,100
India,Rajasthan,Bundi,"New Colony, Bundi - RSPCB",21-04-2024 03:00:00,25.435774,75.644272,PM10,34,128,78
India,Rajasthan,Bundi,"New Colony, Bundi - RSPCB",21-04-2024 03:00:00,25.435774,75.644272,NO2,3,34,11
India,Rajasthan,Bundi,"New Colony, Bundi - RSPCB",21-04-2024 03:00:00,25.435774,75.644272,OZONE,36,122,91
India,Rajasthan,Chittorgarh,"Shastri Nagar, Chittorgarh - RSPCB",21-04-2024 03:00:00,24.892047,74.623527,PM10,46,149,92
India,Rajasthan,Churu,"Subash Chowk, Churu - RSPCB",21-04-2024 03:00:00,28.296139,74.961696,PM2.5,NA,NA,NA
India,Rajasthan,Dausa,"Khatikan Mohalla, Dausa - RSPCB",21-04-2024 03:00:00,26.895552,76.334753,SO2,1,8,3
India,Rajasthan,Dholpur,"Raja Ganj, Dholpur - RSPCB",21-04-2024 03:00:00,26.699557,77.898881,NO2,12,37,23
India,Rajasthan,Dholpur,"Raja Ganj, Dholpur - RSPCB",21-04-2024 03:00:00,26.699557,77.898881,OZONE,2,7,4
India,Rajasthan,Dungarpur,"Bhoiwada, Dungarpur - RSPCB",21-04-2024 03:00:00,23.837789,73.714926,PM10,37,114,66
India,Rajasthan,Hanumangarh,"Housing Board, Hanumangarh - RSPCB",21-04-2024 03:00:00,29.610750,74.283608,PM2.5,12,345,88
India,Rajasthan,Hanumangarh,"Housing Board, Hanumangarh - RSPCB",21-04-2024 03:00:00,29.610750,74.283608,PM10,67,409,163
India,Rajasthan,Hanumangarh,"Housing Board, Hanumangarh - RSPCB",21-04-2024 03:00:00,29.610750,74.283608,NH3,6,13,9
India,Rajasthan,Hanumangarh,"Housing Board, Hanumangarh - RSPCB",21-04-2024 03:00:00,29.610750,74.283608,CO,54,103,81
India,Rajasthan,Hanumangarh,"Housing Board, Hanumangarh - RSPCB",21-04-2024 03:00:00,29.610750,74.283608,OZONE,17,55,27
India,Rajasthan,Jaipur,"Adarsh Nagar, Jaipur - RSPCB",21-04-2024 03:00:00,26.902909,75.836858,PM2.5,34,130,71
India,Rajasthan,Jaipur,"Adarsh Nagar, Jaipur - RSPCB",21-04-2024 03:00:00,26.902909,75.836858,NO2,25,87,46
India,Rajasthan,Jaipur,"Mansarovar Sector-12, Jaipur - RSPCB",21-04-2024 03:00:00,26.843698,75.766894,NH3,2,11,6
India,Rajasthan,Jaipur,"Police Commissionerate, Jaipur - RSPCB",21-04-2024 03:00:00,26.9164092,75.7994901,NH3,5,7,6
India,Rajasthan,Jaipur,"Police Commissionerate, Jaipur - RSPCB",21-04-2024 03:00:00,26.9164092,75.7994901,SO2,6,35,24
India,Rajasthan,Jaipur,"RIICO Sitapura, Jaipur - RSPCB",21-04-2024 03:00:00,26.786682,75.827928,PM10,68,281,141
India,Rajasthan,Jaipur,"RIICO Sitapura, Jaipur - RSPCB",21-04-2024 03:00:00,26.786682,75.827928,OZONE,13,251,22
India,Rajasthan,Jaipur,"Sector-2 Murlipura, Jaipur - RSPCB",21-04-2024 03:00:00,26.960669,75.771817,PM10,NA,NA,NA
India,Rajasthan,Jaipur,"Sector-2 Murlipura, Jaipur - RSPCB",21-04-2024 03:00:00,26.960669,75.771817,NO2,17,79,47
India,Rajasthan,Jaipur,"Shastri Nagar, Jaipur - RSPCB",21-04-2024 03:00:00,26.9502929,75.730943,SO2,NA,NA,NA
India,Rajasthan,Jaipur,"Shastri Nagar, Jaipur - RSPCB",21-04-2024 03:00:00,26.9502929,75.730943,CO,NA,NA,NA
India,Rajasthan,Jalore,"Mudtra Sili, Jalore - RSPCB",21-04-2024 03:00:00,25.344694,72.626208,PM2.5,17,46,31
India,Rajasthan,Jalore,"Mudtra Sili, Jalore - RSPCB",21-04-2024 03:00:00,25.344694,72.626208,NH3,3,6,4
India,Rajasthan,Jalore,"Mudtra Sili, Jalore - RSPCB",21-04-2024 03:00:00,25.344694,72.626208,CO,8,28,15
India,Rajasthan,Jhalawar,"Rajlaxmi Nagar, Jhalawar - RSPCB",21-04-2024 03:00:00,24.588397,76.172782,PM10,64,186,98
India,Rajasthan,Jhalawar,"Rajlaxmi Nagar, Jhalawar - RSPCB",21-04-2024 03:00:00,24.588397,76.172782,NO2,11,30,17
India,Rajasthan,Jhalawar,"Rajlaxmi Nagar, Jhalawar - RSPCB",21-04-2024 03:00:00,24.588397,76.172782,NH3,2,4,2
India,Rajasthan,Jhalawar,"Rajlaxmi Nagar, Jhalawar - RSPCB",21-04-2024 03:00:00,24.588397,76.172782,SO2,1,9,2
India,Rajasthan,Jodhpur,"Collectorate, Jodhpur - RSPCB",21-04-2024 03:00:00,26.268249,73.0193853,PM10,42,149,90
India,Rajasthan,Jodhpur,"Collectorate, Jodhpur - RSPCB",21-04-2024 03:00:00,26.268249,73.0193853,CO,45,100,61
India,Rajasthan,Jodhpur,"Digari Kalan, Jodhpur - RSPCB",21-04-2024 03:00:00,26.295810,73.082283,PM10,43,129,68
India,Rajasthan,Jodhpur,"Jhalamand, Jodhpur - RSPCB",21-04-2024 03:00:00,26.215415,73.070156,OZONE,46,85,58
India,Rajasthan,Jodhpur,"Mandor, Jodhpur - RSPCB",21-04-2024 03:00:00,26.358805,73.047444,PM10,51,103,77
India,Rajasthan,Jodhpur,"Mandor, Jodhpur - RSPCB",21-04-2024 03:00:00,26.358805,73.047444,NH3,6,11,8
India,Rajasthan,Jodhpur,"Samrat Ashok Udhyan, Jodhpur - RSPCB",21-04-2024 03:00:00,26.253384,72.976571,OZONE,67,137,88
India,Rajasthan,Karauli,"Satyawati Vihar, Karauli - RSPCB",21-04-2024 03:00:00,26.506177,77.025989,SO2,17,24,22
India,Rajasthan,Karauli,"Satyawati Vihar, Karauli - RSPCB",21-04-2024 03:00:00,26.506177,77.025989,CO,8,72,11
India,Rajasthan,Kota,"Nayapura, Kota - RSPCB",21-04-2024 03:00:00,25.196024,75.855668,PM2.5,8,104,44
India,Rajasthan,Kota,"Shrinath Puram, Kota - RSPCB",21-04-2024 03:00:00,25.14389,75.821256,PM10,52,109,85
India,Rajasthan,Kota,"Shrinath Puram, Kota - RSPCB",21-04-2024 03:00:00,25.14389,75.821256,CO,14,55,23
India,Rajasthan,Nagaur,"Karni Colony, Nagaur - RSPCB",21-04-2024 03:00:00,27.213494,73.734444,CO,10,26,21
India,Rajasthan,Pali,"Indira Colony Vistar, Pali - RSPCB",21-04-2024 03:00:00,25.771061, 73.340227,SO2,6,11,9
India,Rajasthan,Pratapgarh,"Pragati Nagar, Pratapgarh - RSPCB",21-04-2024 03:00:00,24.041198,74.780702,SO2,3,8,5
India,Rajasthan,Pratapgarh,"Pragati Nagar, Pratapgarh - RSPCB",21-04-2024 03:00:00,24.041198,74.780702,CO,8,24,13
India,Rajasthan,Pratapgarh,"Pragati Nagar, Pratapgarh - RSPCB",21-04-2024 03:00:00,24.041198,74.780702,OZONE,36,99,88
India,Rajasthan,Rajsamand,"Dhoinda, Rajsamand - RSPCB",21-04-2024 03:00:00,25.036360,73.883502,NH3,NA,NA,NA
India,Rajasthan,Sawai Madhopur,"Sahu Nagar, Sawai Madhopur - RSPCB",21-04-2024 03:00:00,26.031443,76.359327,PM10,53,145,93
India,Rajasthan,Sikar,"Radhakishan Pura, Sikar - RSPCB",21-04-2024 03:00:00,27.608912,75.153302,PM10,51,183,131
India,Rajasthan,Sirohi,"Vedhaynath Colony, Sirohi - RSPCB",21-04-2024 03:00:00,24.885261,72.857549,PM2.5,10,37,19
India,Rajasthan,Sri Ganganagar,"Old City, Sri Ganganagar - RSPCB",21-04-2024 03:00:00,29.931624,73.864511,PM10,90,181,128
India,Rajasthan,Udaipur,"Ashok Nagar, Udaipur - RSPCB",21-04-2024 03:00:00,24.5886166,73.6321397,PM2.5,34,82,51
India,Rajasthan,Udaipur,"Ashok Nagar, Udaipur - RSPCB",21-04-2024 03:00:00,24.5886166,73.6321397,OZONE,39,69,50
India,Sikkim,Gangtok,"Zero Point GICI, Gangtok - SSPCB",21-04-2024 03:00:00,27.338530,88.614099,PM10,28,60,44
India,Sikkim,Gangtok,"Zero Point GICI, Gangtok - SSPCB",21-04-2024 03:00:00,27.338530,88.614099,SO2,11,12,11
India,TamilNadu,Chengalpattu,"Crescent University, Chengalpattu - TNPCB",21-04-2024 03:00:00,12.8777316,80.0834807,NH3,23,24,23
India,TamilNadu,Chennai,"Alandur Bus Depot, Chennai - CPCB",21-04-2024 03:00:00,12.9099161,80.1076538,PM2.5,27,72,40
India,TamilNadu,Chennai,"Alandur Bus Depot, Chennai - CPCB",21-04-2024 03:00:00,12.9099161,80.1076538,SO2,1,5,2
India,TamilNadu,Chennai,"Alandur Bus Depot, Chennai - CPCB",21-04-2024 03:00:00,12.9099161,80.1076538,OZONE,4,10,6
India,TamilNadu,Chennai,"Arumbakkam, Chennai - TNPCB",21-04-2024 03:00:00,13.0664,80.2112 ,PM10,13,55,37
India,TamilNadu,Chennai,"Manali, Chennai - CPCB",21-04-2024 03:00:00,13.164544,80.26285,OZONE,14,19,18
India,TamilNadu,Chennai,"Royapuram, Chennai - TNPCB",21-04-2024 03:00:00,13.1036,80.2909,PM2.5,9,28,17
India,TamilNadu,Chennai,"Royapuram, Chennai - TNPCB",21-04-2024 03:00:00,13.1036,80.2909,NO2,5,15,10
India,TamilNadu,Chennai,"Royapuram, Chennai - TNPCB",21-04-2024 03:00:00,13.1036,80.2909,OZONE,9,10,9
India,TamilNadu,Chennai,"Velachery Res. Area, Chennai - CPCB",21-04-2024 03:00:00,13.0052189,80.2398125,NH3,12,23,16
India,TamilNadu,Cuddalore,"Semmandalam, Cuddalore - TNPCB",21-04-2024 03:00:00,11.7637683,79.7499835,PM2.5,NA,NA,NA
India,TamilNadu,Cuddalore,"Semmandalam, Cuddalore - TNPCB",21-04-2024 03:00:00,11.7637683,79.7499835,NH3,NA,NA,NA
India,TamilNadu,Gummidipoondi,"Anthoni Pillai Nagar, Gummidipoondi - TNPCB",21-04-2024 03:00:00,13.4127,80.1081,NO2,9,15,12
India,TamilNadu,Ooty,"Bombay Castel, Ooty - TNPCB",21-04-2024 03:00:00,11.4068288,76.7138973,NH3,NA,NA,NA
India,TamilNadu,Ooty,"Bombay Castel, Ooty - TNPCB",21-04-2024 03:00:00,11.4068288,76.7138973,CO,17,22,19
India,TamilNadu,Thoothukudi,"Meelavittan, Thoothukudi - TNPCB",21-04-2024 03:00:00,8.816428 ,78.099039,OZONE,NA,NA,NA
India,TamilNadu,Tirupur,"Kumaran College, Tirupur - TNPCB",21-04-2024 03:00:00,11.0973603,77.3228673,PM10,NA,NA,NA
India,Telangana,Hyderabad,"Bollaram Industrial Area, Hyderabad - TSPCB",21-04-2024 03:00:00,17.540891,78.358528,NO2,22,61,41
India,Telangana,Hyderabad,"Bollaram Industrial Area, Hyderabad - TSPCB",21-04-2024 03:00:00,17.540891,78.358528,NH3,3,12,5
India,Telangana,Hyderabad,"Central University, Hyderabad - TSPCB",21-04-2024 03:00:00,17.460103,78.334361,PM2.5,28,75,54
India,Telangana,Hyderabad,"Central University, Hyderabad - TSPCB",21-04-2024 03:00:00,17.460103,78.334361,CO,10,40,29
India,Telangana,Hyderabad,"ECIL Kapra, Hyderabad - TSPCB",21-04-2024 03:00:00,17.470431,78.566959,NH3,7,11,9
India,Telangana,Hyderabad,"IITH Kandi, Hyderabad - TSPCB",21-04-2024 03:00:00,17.585705,78.126199,CO,3,24,14
India,Telangana,Hyderabad,"IITH Kandi, Hyderabad - TSPCB",21-04-2024 03:00:00,17.585705,78.126199,OZONE,24,33,26
India,Telangana,Hyderabad,"Kokapet, Hyderabad - TSPCB",21-04-2024 03:00:00,17.393559,78.339194,NH3,NA,NA,NA
India,Telangana,Hyderabad,"Kompally Municipal Office, Hyderabad - TSPCB",21-04-2024 03:00:00,17.544899,78.486949,PM10,42,75,55
India,Telangana,Hyderabad,"Kompally Municipal Office, Hyderabad - TSPCB",21-04-2024 03:00:00,17.544899,78.486949,NH3,5,7,6
India,Telangana,Hyderabad,"Nacharam_TSIIC IALA, Hyderabad - TSPCB",21-04-2024 03:00:00,17.429398,78.569354,PM10,NA,NA,NA
India,Telangana,Hyderabad,"Nacharam_TSIIC IALA, Hyderabad - TSPCB",21-04-2024 03:00:00,17.429398,78.569354,NO2,NA,NA,NA
India,Telangana,Hyderabad,"Nacharam_TSIIC IALA, Hyderabad - TSPCB",21-04-2024 03:00:00,17.429398,78.569354,CO,NA,NA,NA
India,Telangana,Hyderabad,"New Malakpet, Hyderabad - TSPCB",21-04-2024 03:00:00,17.37206,78.50864,NO2,19,35,27
India,Telangana,Hyderabad,"Sanathnagar, Hyderabad - TSPCB",21-04-2024 03:00:00,17.4559458,78.4332152,SO2,2,9,7
India,Telangana,Hyderabad,"Somajiguda, Hyderabad - TSPCB",21-04-2024 03:00:00,17.417094,78.457437,SO2,17,19,18
India,Tripura,Agartala,"Bardowali, Agartala - Tripura SPCB",21-04-2024 03:00:00,23.8175497,91.2726974,OZONE,9,46,14
India,Uttar_Pradesh,Agra,"Manoharpur, Agra - UPPCB",21-04-2024 03:00:00,27.23711,78.01936,PM10,15,61,36
India,Uttar_Pradesh,Agra,"Manoharpur, Agra - UPPCB",21-04-2024 03:00:00,27.23711,78.01936,NO2,31,31,31
India,Uttar_Pradesh,Agra,"Rohta, Agra - UPPCB",21-04-2024 03:00:00,27.106972,78.000111,SO2,3,9,5
India,Uttar_Pradesh,Agra,"Rohta, Agra - UPPCB",21-04-2024 03:00:00,27.106972,78.000111,CO,5,16,13
India,Uttar_Pradesh,Agra,"Sanjay Palace, Agra - UPPCB",21-04-2024 03:00:00,27.19865833,78.00598056,SO2,7,9,8
India,Uttar_Pradesh,Agra,"Sanjay Palace, Agra - UPPCB",21-04-2024 03:00:00,27.19865833,78.00598056,OZONE,15,48,29
India,Uttar_Pradesh,Agra,"Shahjahan Garden, Agra - UPPCB",21-04-2024 03:00:00,27.169338,78.03582,NH3,1,3,2
India,Uttar_Pradesh,Agra,"Shastripuram, Agra - UPPCB",21-04-2024 03:00:00,27.19862,77.92066,PM2.5,3,90,48
India,Uttar_Pradesh,Agra,"Shastripuram, Agra - UPPCB",21-04-2024 03:00:00,27.19862,77.92066,OZONE,1,8,1
India,Uttar_Pradesh,Baghpat,"Sardar Patel Inter College, Baghpat - UPPCB",21-04-2024 03:00:00,28.964949,77.278761,OZONE,7,70,38
India,Uttar_Pradesh,Bareilly,"Civil Lines, Bareilly - UPPCB",21-04-2024 03:00:00,28.359581,79.414455,PM10,84,500,131
India,Uttar_Pradesh,Bareilly,"Civil Lines, Bareilly - UPPCB",21-04-2024 03:00:00,28.359581,79.414455,NO2,2,3,2
India,Uttar_Pradesh,Bareilly,"Civil Lines, Bareilly - UPPCB",21-04-2024 03:00:00,28.359581,79.414455,OZONE,1,18,2
India,Uttar_Pradesh,Bareilly,"Rajendra Nagar, Bareilly - UPPCB",21-04-2024 03:00:00,28.38910936,79.42963708,NH3,1,1,1
India,Uttar_Pradesh,Bareilly,"Rajendra Nagar, Bareilly - UPPCB",21-04-2024 03:00:00,28.38910936,79.42963708,OZONE,3,38,12
India,Uttar_Pradesh,Bulandshahr,"Yamunapuram, Bulandshahr - UPPCB",21-04-2024 03:00:00,28.406963,77.849831,SO2,6,36,21
India,Uttar_Pradesh,Bulandshahr,"Yamunapuram, Bulandshahr - UPPCB",21-04-2024 03:00:00,28.406963,77.849831,OZONE,5,118,37
India,Uttar_Pradesh,Firozabad,"Nagla Bhau, Firozabad - UPPCB",21-04-2024 03:00:00,27.168897,78.376960,OZONE,16,17,16
India,Uttar_Pradesh,Firozabad,"Vibhab Nagar, Firozabad - UPPCB",21-04-2024 03:00:00,27.1594,78.3953,PM2.5,63,173,108
India,Uttar_Pradesh,Ghaziabad,"Indirapuram, Ghaziabad - UPPCB",21-04-2024 03:00:00,28.646233,77.358075,NH3,7,10,8
India,Uttar_Pradesh,Ghaziabad,"Loni, Ghaziabad - UPPCB",21-04-2024 03:00:00,28.757294,77.278792,SO2,9,128,22
India,Uttar_Pradesh,Ghaziabad,"Sanjay Nagar, Ghaziabad - UPPCB",21-04-2024 03:00:00,28.685382,77.453839,CO,24,52,40
India,Uttar_Pradesh,Ghaziabad,"Sanjay Nagar, Ghaziabad - UPPCB",21-04-2024 03:00:00,28.685382,77.453839,OZONE,5,114,70
India,Uttar_Pradesh,Ghaziabad,"Vasundhara, Ghaziabad - UPPCB",21-04-2024 03:00:00,28.6603346,77.3572563,PM2.5,24,100,55
India,Uttar_Pradesh,Ghaziabad,"Vasundhara, Ghaziabad - UPPCB",21-04-2024 03:00:00,28.6603346,77.3572563,NH3,8,14,11
India,Uttar_Pradesh,Gorakhpur,"Madan Mohan Malaviya University of Technology, Gorakhpur - UPPCB",21-04-2024 03:00:00,26.730136,83.433859,PM2.5,36,122,70
India,Uttar_Pradesh,Greater Noida,"Knowledge Park - V, Greater Noida - UPPCB",21-04-2024 03:00:00,28.557054,77.453663,PM2.5,48,290,115
India,Uttar_Pradesh,Greater Noida,"Knowledge Park - V, Greater Noida - UPPCB",21-04-2024 03:00:00,28.557054,77.453663,OZONE,4,169,77
India,Uttar_Pradesh,Hapur,"Anand Vihar, Hapur - UPPCB",21-04-2024 03:00:00,28.725645,77.749675,PM2.5,28,146,60
India,Uttar_Pradesh,Hapur,"Anand Vihar, Hapur - UPPCB",21-04-2024 03:00:00,28.725645,77.749675,NO2,8,72,20
India,Uttar_Pradesh,Jhansi,"Shivaji Nagar, Jhansi - UPPCB",21-04-2024 03:00:00,25.4547,78.6039,NO2,1,12,6
India,Uttar_Pradesh,Kanpur,"FTI Kidwai Nagar, Kanpur - UPPCB",21-04-2024 03:00:00,26.428282,80.327067,PM2.5,69,163,106
India,Uttar_Pradesh,Kanpur,"FTI Kidwai Nagar, Kanpur - UPPCB",21-04-2024 03:00:00,26.428282,80.327067,SO2,25,26,25
India,Uttar_Pradesh,Kanpur,"Nehru Nagar, Kanpur - UPPCB",21-04-2024 03:00:00,26.4703136,80.3229863,NO2,NA,NA,NA
India,Uttar_Pradesh,Khurja,"Kalindi Kunj, Khurja - UPPCB",21-04-2024 03:00:00,28.2348927,77.8683002,PM10,40,134,76
India,Uttar_Pradesh,Lucknow,"B R Ambedkar University, Lucknow - UPPCB",21-04-2024 03:00:00,26.766433,80.927299,SO2,31,36,33
India,Uttar_Pradesh,Lucknow,"B R Ambedkar University, Lucknow - UPPCB",21-04-2024 03:00:00,26.766433,80.927299,OZONE,8,68,34
India,Uttar_Pradesh,Lucknow,"Gomti Nagar, Lucknow - UPPCB",21-04-2024 03:00:00,26.868120,81.005119,NO2,10,12,11
India,Uttar_Pradesh,Lucknow,"Kendriya Vidyalaya, Lucknow - CPCB",21-04-2024 03:00:00,26.906111,80.948222,NO2,6,51,20
India,Uttar_Pradesh,Lucknow,"Kendriya Vidyalaya, Lucknow - CPCB",21-04-2024 03:00:00,26.906111,80.948222,SO2,2,7,5
India,Uttar_Pradesh,Lucknow,"Kukrail Picnic Spot-1, Lucknow - UPPCB",21-04-2024 03:00:00,26.90723,80.98579,SO2,26,29,28
India,Uttar_Pradesh,Lucknow,"Kukrail Picnic Spot-1, Lucknow - UPPCB",21-04-2024 03:00:00,26.90723,80.98579,OZONE,17,45,29
India,Uttar_Pradesh,Lucknow,"Lalbagh, Lucknow - CPCB",21-04-2024 03:00:00,26.8458805,80.9365541,NO2,14,41,22
India,Uttar_Pradesh,Lucknow,"Talkatora District Industries Center, Lucknow - CPCB",21-04-2024 03:00:00,26.83399722,80.8917361,NH3,8,20,14
India,Uttar_Pradesh,Meerut,"Ganga Nagar, Meerut - UPPCB",21-04-2024 03:00:00,28.999264,77.7590354,PM2.5,25,75,46
India,Uttar_Pradesh,Meerut,"Ganga Nagar, Meerut - UPPCB",21-04-2024 03:00:00,28.999264,77.7590354,OZONE,34,263,160
India,Uttar_Pradesh,Meerut,"Jai Bhim Nagar, Meerut - UPPCB",21-04-2024 03:00:00,28.9535882,77.7622941,PM2.5,13,70,35
India,Uttar_Pradesh,Meerut,"Jai Bhim Nagar, Meerut - UPPCB",21-04-2024 03:00:00,28.9535882,77.7622941,PM10,86,144,110
India,Uttar_Pradesh,Meerut,"Pallavpuram Phase 2, Meerut - UPPCB",21-04-2024 03:00:00,29.063510,77.709723,OZONE,10,80,34
India,Uttar_Pradesh,Moradabad,"Buddhi Vihar, Moradabad - UPPCB",21-04-2024 03:00:00,28.83526,78.74460,NO2,23,23,23
India,Uttar_Pradesh,Moradabad,"Buddhi Vihar, Moradabad - UPPCB",21-04-2024 03:00:00,28.83526,78.74460,OZONE,15,35,21
India,Uttar_Pradesh,Moradabad,"Employment Office, Moradabad - UPPCB",21-04-2024 03:00:00,28.88528,78.73880,PM10,68,146,113
India,Uttar_Pradesh,Moradabad,"Jigar Colony, Moradabad - UPPCB",21-04-2024 03:00:00,28.856664,78.772638,PM2.5,26,84,49
India,Uttar_Pradesh,Moradabad,"Jigar Colony, Moradabad - UPPCB",21-04-2024 03:00:00,28.856664,78.772638,PM10,75,189,123
India,Uttar_Pradesh,Moradabad,"Transport Nagar, Moradabad - UPPCB",21-04-2024 03:00:00,28.802625,78.753728,PM10,56,154,111
India,Uttar_Pradesh,Moradabad,"Transport Nagar, Moradabad - UPPCB",21-04-2024 03:00:00,28.802625,78.753728,NO2,4,25,12
India,Uttar_Pradesh,Moradabad,"Transport Nagar, Moradabad - UPPCB",21-04-2024 03:00:00,28.802625,78.753728,CO,38,41,40
India,Uttar_Pradesh,Noida,"Sector - 125, Noida - UPPCB",21-04-2024 03:00:00,28.5447608,77.3231257,PM10,80,262,130
India,Uttar_Pradesh,Noida,"Sector - 125, Noida - UPPCB",21-04-2024 03:00:00,28.5447608,77.3231257,OZONE,6,111,57
India,Uttar_Pradesh,Noida,"Sector - 62, Noida - IMD",21-04-2024 03:00:00,28.6245479,77.3577104,PM10,132,201,159
India,Uttar_Pradesh,Noida,"Sector - 62, Noida - IMD",21-04-2024 03:00:00,28.6245479,77.3577104,CO,67,86,72
India,Uttar_Pradesh,Noida,"Sector-1, Noida - UPPCB",21-04-2024 03:00:00,28.5898,77.3101,PM10,128,250,172
India,Uttar_Pradesh,Noida,"Sector-116, Noida - UPPCB",21-04-2024 03:00:00,28.569230,77.393848,NO2,16,64,38
India,Uttar_Pradesh,Noida,"Sector-116, Noida - UPPCB",21-04-2024 03:00:00,28.569230,77.393848,SO2,24,54,35
India,Uttar_Pradesh,Prayagraj,"Jhunsi, Prayagraj - UPPCB",21-04-2024 03:00:00,25.425602,81.917152,NH3,5,5,5
India,Uttar_Pradesh,Prayagraj,"Jhunsi, Prayagraj - UPPCB",21-04-2024 03:00:00,25.425602,81.917152,OZONE,2,36,13
India,Uttar_Pradesh,Varanasi,"Bhelupur, Varanasi - UPPCB",21-04-2024 03:00:00,25.301778,82.996789,PM2.5,NA,NA,NA
India,Uttar_Pradesh,Varanasi,"Bhelupur, Varanasi - UPPCB",21-04-2024 03:00:00,25.301778,82.996789,PM10,26,55,41
India,Uttar_Pradesh,Varanasi,"Bhelupur, Varanasi - UPPCB",21-04-2024 03:00:00,25.301778,82.996789,SO2,27,29,28
India,Uttar_Pradesh,Varanasi,"Bhelupur, Varanasi - UPPCB",21-04-2024 03:00:00,25.301778,82.996789,OZONE,1,3,2
India,Uttar_Pradesh,Varanasi,"IESD Banaras Hindu University, Varanasi - UPPCB",21-04-2024 03:00:00,25.262326,82.995408,SO2,16,17,16
India,Uttar_Pradesh,Varanasi,"Maldahiya, Varanasi - UPPCB",21-04-2024 03:00:00,25.32393,82.99687,PM2.5,17,51,30
India,Uttar_Pradesh,Varanasi,"Maldahiya, Varanasi - UPPCB",21-04-2024 03:00:00,25.32393,82.99687,NO2,1,2,2
India,Uttar_Pradesh,Varanasi,"Maldahiya, Varanasi - UPPCB",21-04-2024 03:00:00,25.32393,82.99687,CO,1,29,21
India,Uttar_Pradesh,Varanasi,"Maldahiya, Varanasi - UPPCB",21-04-2024 03:00:00,25.32393,82.99687,OZONE,1,19,2
India,Uttar_Pradesh,Vrindavan,"Omex Eternity, Vrindavan - UPPCB",21-04-2024 03:00:00,27.5714090,77.6557570,OZONE,27,33,31
India,Uttarakhand,Dehradun,"Doon University, Dehradun - UKPCB",21-04-2024 03:00:00,30.269444,78.044167,SO2,1,2,1
India,Uttarakhand,Kashipur,"Govt. Girls Inter College, Kashipur - UKPCB",21-04-2024 03:00:00,29.2124114,78.9611753,CO,10,52,36
India,Uttarakhand,Rishikesh,"Shivaji Nagar, Rishikesh - UKPCB",21-04-2024 03:00:00,30.075911,78.2859547,PM2.5,12,500,67
India,West_Bengal,Asansol,"Asansol Court Area, Asansol - WBPCB",21-04-2024 03:00:00,23.685297,86.945968,NH3,8,17,12
India,West_Bengal,Barrackpore,"SVSPA Campus, Barrackpore - WBPCB",21-04-2024 03:00:00,22.7605581,88.3617589,NO2,9,27,18
India,West_Bengal,Durgapur,"PCBL Residential Complex, Durgapur - WBPCB",21-04-2024 03:00:00,23.5087640,87.3544400,PM10,92,277,169
India,West_Bengal,Durgapur,"PCBL Residential Complex, Durgapur - WBPCB",21-04-2024 03:00:00,23.5087640,87.3544400,NH3,1,3,2
India,West_Bengal,Durgapur,"PCBL Residential Complex, Durgapur - WBPCB",21-04-2024 03:00:00,23.5087640,87.3544400,SO2,24,113,63
India,West_Bengal,Durgapur,"PCBL Residential Complex, Durgapur - WBPCB",21-04-2024 03:00:00,23.5087640,87.3544400,CO,8,57,42
India,West_Bengal,Durgapur,"Sidhu Kanhu Indoor Stadium, Durgapur - WBPCB",21-04-2024 03:00:00,23.5404352,87.2892225,NO2,23,67,42
India,West_Bengal,Haldia,"Priyambada Housing Estate, Haldia - WBPCB",21-04-2024 03:00:00,22.06047,88.109737,PM10,22,71,41
India,West_Bengal,Howrah,"Belur Math, Howrah - WBPCB",21-04-2024 03:00:00,22.629801,88.352017,PM2.5,31,91,58
India,West_Bengal,Howrah,"Ghusuri, Howrah - WBPCB",21-04-2024 03:00:00,22.611968,88.347422,PM10,62,150,103
India,West_Bengal,Howrah,"Padmapukur, Howrah - WBPCB",21-04-2024 03:00:00,22.5687319,88.2797276,CO,6,54,26
India,West_Bengal,Howrah,"Padmapukur, Howrah - WBPCB",21-04-2024 03:00:00,22.5687319,88.2797276,OZONE,6,86,10
India,West_Bengal,Kolkata,"Ballygunge, Kolkata - WBPCB",21-04-2024 03:00:00,22.5367507,88.3638022,PM2.5,28,81,49
India,West_Bengal,Kolkata,"Ballygunge, Kolkata - WBPCB",21-04-2024 03:00:00,22.5367507,88.3638022,PM10,37,96,67
India,West_Bengal,Kolkata,"Ballygunge, Kolkata - WBPCB",21-04-2024 03:00:00,22.5367507,88.3638022,NO2,15,30,21
India,West_Bengal,Kolkata,"Bidhannagar, Kolkata - WBPCB",21-04-2024 03:00:00,22.58157048,88.41002457,CO,22,38,24
India,West_Bengal,Kolkata,"Fort William, Kolkata - WBPCB",21-04-2024 03:00:00,22.556640,88.342674,PM10,52,108,79
India,West_Bengal,Kolkata,"Fort William, Kolkata - WBPCB",21-04-2024 03:00:00,22.556640,88.342674,SO2,8,33,15
India,West_Bengal,Kolkata,"Rabindra Bharati University, Kolkata - WBPCB",21-04-2024 03:00:00,22.627847,88.380669,PM2.5,37,81,58
India,West_Bengal,Kolkata,"Rabindra Sarobar, Kolkata - WBPCB",21-04-2024 03:00:00,22.51106,88.35142,PM2.5,26,66,44
India,West_Bengal,Kolkata,"Victoria, Kolkata - WBPCB",21-04-2024 03:00:00,22.5448082,88.3403691,PM10,55,112,82
India,West_Bengal,Kolkata,"Victoria, Kolkata - WBPCB",21-04-2024 03:00:00,22.5448082,88.3403691,NO2,6,7,6
India,West_Bengal,Siliguri,"Ward-32 Bapupara, Siliguri - WBPCB",21-04-2024 03:00:00,26.6879226,88.4152495,NO2,26,65,39
India,West_Bengal,Siliguri,"Ward-32 Bapupara, Siliguri - WBPCB",21-04-2024 03:00:00,26.6879226,88.4152495,CO,14,32,28
India,West_Bengal,Siliguri,"Ward-32 Bapupara, Siliguri - WBPCB",21-04-2024 03:00:00,26.6879226,88.4152495,OZONE,30,53,35
India,Andhra_Pradesh,Amaravati,"Secretariat, Amaravati - APPCB",21-04-2024 03:00:00,16.5150833,80.5181667,NH3,3,4,4
India,Andhra_Pradesh,Anantapur,"Gulzarpet, Anantapur - APPCB",21-04-2024 03:00:00,14.675886,77.593027,PM10,56,97,75
India,Andhra_Pradesh,Anantapur,"Gulzarpet, Anantapur - APPCB",21-04-2024 03:00:00,14.675886,77.593027,CO,19,61,45
India,Andhra_Pradesh,Rajamahendravaram,"Anand Kala Kshetram, Rajamahendravaram - APPCB",21-04-2024 03:00:00,16.9872867,81.7363176,NO2,1,54,8
India,Andhra_Pradesh,Tirupati,"Tirumala, Tirupati - APPCB",21-04-2024 03:00:00,13.67,79.35,NO2,12,45,26
India,Andhra_Pradesh,Tirupati,"Tirumala, Tirupati - APPCB",21-04-2024 03:00:00,13.67,79.35,CO,36,53,42
India,Andhra_Pradesh,Tirupati,"Tirumala, Tirupati - APPCB",21-04-2024 03:00:00,13.67,79.35,OZONE,20,71,42
India,Andhra_Pradesh,Vijayawada,"HB Colony, Vijayawada - APPCB",21-04-2024 03:00:00,16.536107,80.594233,NH3,NA,NA,NA
India,Andhra_Pradesh,Vijayawada,"Rajiv Gandhi Park, Vijayawada - APPCB",21-04-2024 03:00:00,16.509717,80.612222,NO2,NA,NA,NA
India,Andhra_Pradesh,Vijayawada,"Rajiv Gandhi Park, Vijayawada - APPCB",21-04-2024 03:00:00,16.509717,80.612222,SO2,NA,NA,NA
India,Andhra_Pradesh,Vijayawada,"Rajiv Nagar, Vijayawada - APPCB",21-04-2024 03:00:00,16.554731,80.649110,PM10,59,78,61
India,Andhra_Pradesh,Vijayawada,"Rajiv Nagar, Vijayawada - APPCB",21-04-2024 03:00:00,16.554731,80.649110,OZONE,11,28,14
India,Andhra_Pradesh,Visakhapatnam,"GVM Corporation, Visakhapatnam - APPCB",21-04-2024 03:00:00,17.72,83.3,NH3,3,4,3
India,Assam,Byrnihat,"Central Academy for SFS, Byrnihat - PCBA",21-04-2024 03:00:00,26.071318,91.87488,PM10,NA,NA,NA
India,Assam,Guwahati,"IITG, Guwahati - PCBA",21-04-2024 03:00:00,26.2028636,91.70046436,NO2,NA,NA,NA
India,Assam,Guwahati,"Railway Colony, Guwahati - PCBA",21-04-2024 03:00:00,26.181742,91.78063,PM10,30,66,39
India,Assam,Nagaon,"Christianpatty, Nagaon - PCBA",21-04-2024 03:00:00,26.349082,92.68449,NH3,3,4,4
India,Assam,Nalbari,"Bata Chowk, Nalbari - PCBA",21-04-2024 03:00:00,26.446912,91.439057,PM2.5,32,65,49
India,Assam,Silchar,"Tarapur, Silchar - PCBA",21-04-2024 03:00:00,24.82827,92.79525,PM10,27,55,42
India,Assam,Sivasagar,"Girls College, Sivasagar - PCBA",21-04-2024 03:00:00,26.987634,94.636574,CO,6,22,21
India,Assam,Sivasagar,"Girls College, Sivasagar - PCBA",21-04-2024 03:00:00,26.987634,94.636574,OZONE,1,61,3
India,Bihar,Araria,"Kharahiya Basti, Araria - BSPCB",21-04-2024 03:00:00,26.146529,87.454184,SO2,11,17,15
India,Bihar,Aurangabad,"Gurdeo Nagar, Aurangabad - BSPCB",21-04-2024 03:00:00,24.75746,84.366208,OZONE,33,79,39
India,Bihar,Bettiah,"Kamalnath Nagar, Bettiah - BSPCB",21-04-2024 03:00:00,26.80365,84.51954,PM2.5,117,500,237
India,Bihar,Bettiah,"Kamalnath Nagar, Bettiah - BSPCB",21-04-2024 03:00:00,26.80365,84.51954,NH3,3,9,6
India,Bihar,Bettiah,"Kamalnath Nagar, Bettiah - BSPCB",21-04-2024 03:00:00,26.80365,84.51954,OZONE,1,11,4
India,Bihar,Bhagalpur,"Mayaganj, Bhagalpur - BSPCB",21-04-2024 03:00:00,25.265194,87.012947,NO2,2,12,7
India,Bihar,Chhapra,"Darshan Nagar, Chhapra - BSPCB",21-04-2024 03:00:00,25.7808257,84.7446768,PM10,107,185,132
India,Bihar,Chhapra,"Darshan Nagar, Chhapra - BSPCB",21-04-2024 03:00:00,25.7808257,84.7446768,NO2,19,26,23
India,Bihar,Chhapra,"Darshan Nagar, Chhapra - BSPCB",21-04-2024 03:00:00,25.7808257,84.7446768,NH3,8,14,10
India,Bihar,Gaya,"Collectorate, Gaya - BSPCB",21-04-2024 03:00:00,24.7955,84.9994,OZONE,56,86,70
India,Bihar,Gaya,"SFTI Kusdihra, Gaya - BSPCB",21-04-2024 03:00:00,24.762518,84.982348,NO2,16,100,46
India,Bihar,Gaya,"SFTI Kusdihra, Gaya - BSPCB",21-04-2024 03:00:00,24.762518,84.982348,SO2,7,9,8
India,Bihar,Hajipur,"Industrial Area, Hajipur - BSPCB",21-04-2024 03:00:00,25.697189,85.245900,NH3,2,11,7
India,Bihar,Katihar,"Mirchaibari, Katihar - BSPCB",21-04-2024 03:00:00,25.560083,87.553265,PM10,81,159,115
India,Bihar,Katihar,"Mirchaibari, Katihar - BSPCB",21-04-2024 03:00:00,25.560083,87.553265,NH3,4,8,6
India,Bihar,Katihar,"Mirchaibari, Katihar - BSPCB",21-04-2024 03:00:00,25.560083,87.553265,SO2,18,25,21
India,Bihar,Katihar,"Mirchaibari, Katihar - BSPCB",21-04-2024 03:00:00,25.560083,87.553265,CO,50,71,55
India,Bihar,Kishanganj,"SDM Office_Khagra, Kishanganj - BSPCB",21-04-2024 03:00:00,26.0881305,87.93840336,PM10,103,227,152
India,Bihar,Motihari,"Gandak Colony, Motihari - BSPCB",21-04-2024 03:00:00,26.63086,84.90051,NH3,7,19,13
India,Bihar,Motihari,"Gandak Colony, Motihari - BSPCB",21-04-2024 03:00:00,26.63086,84.90051,SO2,1,6,3
India,Bihar,Munger,"Town Hall, Munger - BSPCB",21-04-2024 03:00:00,25.376776,86.471523,NO2,6,8,7
India,Bihar,Munger,"Town Hall, Munger - BSPCB",21-04-2024 03:00:00,25.376776,86.471523,NH3,1,2,2
India,Bihar,Munger,"Town Hall, Munger - BSPCB",21-04-2024 03:00:00,25.376776,86.471523,CO,8,75,66
India,Bihar,Muzaffarpur,"Buddha Colony, Muzaffarpur - BSPCB",21-04-2024 03:00:00,26.11442,85.39813,CO,16,48,25
India,Bihar,Muzaffarpur,"MIT-Daudpur Kothi, Muzaffarpur - BSPCB",21-04-2024 03:00:00,26.1403345,85.3650192,PM2.5,85,457,240
India,Bihar,Muzaffarpur,"MIT-Daudpur Kothi, Muzaffarpur - BSPCB",21-04-2024 03:00:00,26.1403345,85.3650192,PM10,85,342,154
India,Bihar,Muzaffarpur,"MIT-Daudpur Kothi, Muzaffarpur - BSPCB",21-04-2024 03:00:00,26.1403345,85.3650192,NO2,3,9,7
India,Bihar,Muzaffarpur,"MIT-Daudpur Kothi, Muzaffarpur - BSPCB",21-04-2024 03:00:00,26.1403345,85.3650192,OZONE,12,62,45
India,Bihar,Patna,"DRM Office Danapur, Patna - BSPCB",21-04-2024 03:00:00,25.586562,85.043586,PM10,133,171,152
India,Bihar,Patna,"DRM Office Danapur, Patna - BSPCB",21-04-2024 03:00:00,25.586562,85.043586,SO2,7,14,11
India,Bihar,Patna,"Govt. High School Shikarpur, Patna - BSPCB",21-04-2024 03:00:00,25.592539,85.227158,CO,24,54,39
India,Bihar,Patna,"Muradpur, Patna - BSPCB",21-04-2024 03:00:00,25.619651,85.147382,PM10,114,500,315
India,Bihar,Patna,"Muradpur, Patna - BSPCB",21-04-2024 03:00:00,25.619651,85.147382,SO2,5,10,7
India,Bihar,Patna,"Rajbansi Nagar, Patna - BSPCB",21-04-2024 03:00:00,25.599486,85.113666,NH3,5,9,6
India,Bihar,Purnia,"Mariam Nagar, Purnia - BSPCB",21-04-2024 03:00:00,25.366336,87.117468,NO2,NA,NA,NA
India,Bihar,Purnia,"Mariam Nagar, Purnia - BSPCB",21-04-2024 03:00:00,25.366336,87.117468,NH3,NA,NA,NA
India,Bihar,Purnia,"Mariam Nagar, Purnia - BSPCB",21-04-2024 03:00:00,25.366336,87.117468,CO,24,102,81
India,Bihar,Purnia,"Mariam Nagar, Purnia - BSPCB",21-04-2024 03:00:00,25.366336,87.117468,OZONE,4,30,11
India,Bihar,Rajgir,"Dangi Tola, Rajgir - BSPCB",21-04-2024 03:00:00,25.03280,85.41948,PM2.5,25,97,54
India,Bihar,Rajgir,"Dangi Tola, Rajgir - BSPCB",21-04-2024 03:00:00,25.03280,85.41948,NO2,17,23,19
India,Bihar,Rajgir,"Dangi Tola, Rajgir - BSPCB",21-04-2024 03:00:00,25.03280,85.41948,CO,28,44,38
India,Bihar,Saharsa,"Police Line, Saharsa - BSPCB",21-04-2024 03:00:00,25.892357,86.590325,NH3,9,9,9
India,Bihar,Samastipur,"DM Office_Kasipur, Samastipur - BSPCB",21-04-2024 03:00:00,25.859655,85.77944,PM2.5,40,309,112
India,Bihar,Samastipur,"DM Office_Kasipur, Samastipur - BSPCB",21-04-2024 03:00:00,25.859655,85.77944,NO2,1,22,8
India,Bihar,Samastipur,"DM Office_Kasipur, Samastipur - BSPCB",21-04-2024 03:00:00,25.859655,85.77944,NH3,1,4,3
India,Bihar,Samastipur,"DM Office_Kasipur, Samastipur - BSPCB",21-04-2024 03:00:00,25.859655,85.77944,OZONE,9,14,10
India,Bihar,Sasaram,"Dada Peer, Sasaram - BSPCB",21-04-2024 03:00:00,24.952822,84.002396,PM2.5,12,56,30
India,Chandigarh,Chandigarh,"Sector-25, Chandigarh - CPCC",21-04-2024 03:00:00,30.751462,76.762879,NO2,4,32,12
India,Chandigarh,Chandigarh,"Sector-53, Chandigarh - CPCC",21-04-2024 03:00:00,30.719859,76.738637,PM2.5,20,130,63
India,Chandigarh,Chandigarh,"Sector-53, Chandigarh - CPCC",21-04-2024 03:00:00,30.719859,76.738637,NH3,5,7,6
India,Chhattisgarh,Bhilai,"32Bungalows, Bhilai - CECB",21-04-2024 03:00:00,21.194815,81.314770,OZONE,7,63,15
India,Chhattisgarh,Bhilai,"Civic Center, Bhilai - Bhilai Steel Plant",21-04-2024 03:00:00,21.185571,81.343175,PM10,NA,NA,NA
India,Chhattisgarh,Bilaspur,"Mangala, Bilaspur - NTPC",21-04-2024 03:00:00,22.08815,82.13737,NO2,8,32,21
India,Chhattisgarh,Korba,"Rampur, Korba - CECB",21-04-2024 03:00:00,22.368195,82.746431,NO2,16,49,34
India,Chhattisgarh,Korba,"Rampur, Korba - CECB",21-04-2024 03:00:00,22.368195,82.746431,OZONE,8,37,10
India,Chhattisgarh,Kunjemura,"OP Jindal School, Kunjemura - CECB",21-04-2024 03:00:00,22.126650,83.483212,PM2.5,NA,NA,NA
India,Chhattisgarh,Kunjemura,"OP Jindal School, Kunjemura - CECB",21-04-2024 03:00:00,22.126650,83.483212,NH3,NA,NA,NA
India,Chhattisgarh,Kunjemura,"OP Jindal School, Kunjemura - CECB",21-04-2024 03:00:00,22.126650,83.483212,CO,NA,NA,NA
India,Chhattisgarh,Milupara,"Govt. Higher Secondary School, Milupara - CECB",21-04-2024 03:00:00,22.1910172,83.5197009,PM10,49,164,90
India,Chhattisgarh,Milupara,"Govt. Higher Secondary School, Milupara - CECB",21-04-2024 03:00:00,22.1910172,83.5197009,NO2,15,79,41
India,Chhattisgarh,Milupara,"Govt. Higher Secondary School, Milupara - CECB",21-04-2024 03:00:00,22.1910172,83.5197009,NH3,1,1,1
India,Chhattisgarh,Milupara,"Govt. Higher Secondary School, Milupara - CECB",21-04-2024 03:00:00,22.1910172,83.5197009,SO2,12,49,20
India,Chhattisgarh,Milupara,"Govt. Higher Secondary School, Milupara - CECB",21-04-2024 03:00:00,22.1910172,83.5197009,CO,20,75,44
India,Chhattisgarh,Raipur,"AIIMS, Raipur - CECB",21-04-2024 03:00:00,21.258815,81.578979,SO2,5,27,13
India,Chhattisgarh,Raipur,"AIIMS, Raipur - CECB",21-04-2024 03:00:00,21.258815,81.578979,CO,20,34,26
India,Chhattisgarh,Raipur,"Bhatagaon New ISBT, Raipur - CECB",21-04-2024 03:00:00,21.219665,81.630094,PM2.5,20,49,36
India,Chhattisgarh,Raipur,"Bhatagaon New ISBT, Raipur - CECB",21-04-2024 03:00:00,21.219665,81.630094,OZONE,3,11,5
India,Chhattisgarh,Raipur,"Krishak Nagar, Raipur - CECB",21-04-2024 03:00:00,21.237755,81.705301,PM2.5,6,38,29
India,Chhattisgarh,Raipur,"Siltara Phase-II, Raipur - CECB",21-04-2024 03:00:00,21.371751,81.664929,PM2.5,39,266,103
India,Chhattisgarh,Tumidih,"OP Jindal Industrial Park, Tumidih - CECB",21-04-2024 03:00:00,22.06631475,83.33820077,NO2,NA,NA,NA
India,Chhattisgarh,Tumidih,"OP Jindal Industrial Park, Tumidih - CECB",21-04-2024 03:00:00,22.06631475,83.33820077,NH3,NA,NA,NA
India,Chhattisgarh,Tumidih,"OP Jindal Industrial Park, Tumidih - CECB",21-04-2024 03:00:00,22.06631475,83.33820077,SO2,NA,NA,NA
India,Delhi,Delhi,"Ashok Vihar, Delhi - DPCC",21-04-2024 03:00:00,28.695381,77.181665,CO,10,36,26
India,Delhi,Delhi,"Aya Nagar, Delhi - IMD",21-04-2024 03:00:00,28.4706914,77.1099364,CO,28,83,59
India,Delhi,Delhi,"Bawana, Delhi - DPCC",21-04-2024 03:00:00,28.776200,77.051074,PM10,137,401,188
India,Delhi,Delhi,"Bawana, Delhi - DPCC",21-04-2024 03:00:00,28.776200,77.051074,CO,8,42,18
India,Delhi,Delhi,"Bawana, Delhi - DPCC",21-04-2024 03:00:00,28.776200,77.051074,OZONE,3,95,62
India,Delhi,Delhi,"CRRI Mathura Road, Delhi - IMD",21-04-2024 03:00:00,28.5512005,77.2735737,PM2.5,54,317,105
India,Delhi,Delhi,"Chandni Chowk, Delhi - IITM",21-04-2024 03:00:00,28.656756,77.227234,OZONE,5,7,6
India,Delhi,Delhi,"DTU, Delhi - CPCB",21-04-2024 03:00:00,28.7500499,77.1112615,NO2,4,9,6
India,Delhi,Delhi,"DTU, Delhi - CPCB",21-04-2024 03:00:00,28.7500499,77.1112615,OZONE,34,180,126
India,Delhi,Delhi,"Dr. Karni Singh Shooting Range, Delhi - DPCC",21-04-2024 03:00:00,28.498571,77.264840,OZONE,4,191,68
India,Delhi,Delhi,"Dwarka-Sector 8, Delhi - DPCC ",21-04-2024 03:00:00,28.5710274,77.0719006,CO,31,70,45
India,Delhi,Delhi,"IGI Airport (T3), Delhi - IMD",21-04-2024 03:00:00,28.5627763,77.1180053,CO,14,47,21
India,Delhi,Delhi,"IHBAS, Dilshad Garden, Delhi - CPCB",21-04-2024 03:00:00,28.6811736,77.3025234,PM2.5,64,136,84
India,Delhi,Delhi,"ITO, Delhi - CPCB",21-04-2024 03:00:00,28.628624,77.241060,PM2.5,48,272,87
India,Delhi,Delhi,"Jahangirpuri, Delhi - DPCC",21-04-2024 03:00:00,28.732820,77.170633,PM2.5,35,266,100
India,Delhi,Delhi,"Jahangirpuri, Delhi - DPCC",21-04-2024 03:00:00,28.732820,77.170633,NO2,22,120,70
India,Delhi,Delhi,"Jawaharlal Nehru Stadium, Delhi - DPCC",21-04-2024 03:00:00,28.580280,77.233829,SO2,3,56,18
India,Delhi,Delhi,"Lodhi Road, Delhi - IITM",21-04-2024 03:00:00,28.588333,77.221667,OZONE,16,22,16
India,Delhi,Delhi,"Major Dhyan Chand National Stadium, Delhi - DPCC",21-04-2024 03:00:00,28.611281,77.237738,NH3,6,9,7
India,Delhi,Delhi,"Major Dhyan Chand National Stadium, Delhi - DPCC",21-04-2024 03:00:00,28.611281,77.237738,SO2,6,11,8
India,Delhi,Delhi,"Mundka, Delhi - DPCC",21-04-2024 03:00:00,28.684678,77.076574,SO2,10,106,33
India,Delhi,Delhi,"NSIT Dwarka, Delhi - CPCB",21-04-2024 03:00:00,28.60909,77.0325413,NO2,26,50,39
India,Delhi,Delhi,"Najafgarh, Delhi - DPCC",21-04-2024 03:00:00,28.570173,76.933762,PM2.5,22,321,107
India,Delhi,Delhi,"Najafgarh, Delhi - DPCC",21-04-2024 03:00:00,28.570173,76.933762,SO2,6,32,12
India,Delhi,Delhi,"Narela, Delhi - DPCC",21-04-2024 03:00:00,28.822836,77.101981,SO2,5,48,21
India,Delhi,Delhi,"Nehru Nagar, Delhi - DPCC",21-04-2024 03:00:00,28.567890,77.250515,SO2,4,9,5
India,Delhi,Delhi,"New Moti Bagh, Delhi - MHUA",21-04-2024 03:00:00,28.57834,77.18400,NO2,5,19,10
India,Delhi,Delhi,"New Moti Bagh, Delhi - MHUA",21-04-2024 03:00:00,28.57834,77.18400,CO,11,62,35
India,Delhi,Delhi,"North Campus, DU, Delhi - IMD",21-04-2024 03:00:00,28.6573814,77.1585447,PM10,109,284,157
India,Delhi,Delhi,"North Campus, DU, Delhi - IMD",21-04-2024 03:00:00,28.6573814,77.1585447,CO,24,104,88
India,Delhi,Delhi,"Punjabi Bagh, Delhi - DPCC",21-04-2024 03:00:00,28.674045,77.131023,NO2,34,58,43
India,Delhi,Delhi,"Pusa, Delhi - DPCC",21-04-2024 03:00:00,28.639652,77.146275,OZONE,10,76,44
India,Delhi,Delhi,"Shadipur, Delhi - CPCB",21-04-2024 03:00:00,28.6514781,77.1473105,PM10,109,418,172
India,Delhi,Delhi,"Shadipur, Delhi - CPCB",21-04-2024 03:00:00,28.6514781,77.1473105,CO,19,36,28
India,Delhi,Delhi,"Shadipur, Delhi - CPCB",21-04-2024 03:00:00,28.6514781,77.1473105,OZONE,45,109,63
India,Delhi,Delhi,"Sirifort, Delhi - CPCB",21-04-2024 03:00:00,28.5504249,77.2159377,PM10,112,348,161
India,Delhi,Delhi,"Sirifort, Delhi - CPCB",21-04-2024 03:00:00,28.5504249,77.2159377,CO,8,107,39
India,Delhi,Delhi,"Sri Aurobindo Marg, Delhi - DPCC",21-04-2024 03:00:00,28.531346,77.190156,NO2,11,65,33
India,Delhi,Delhi,"Vivek Vihar, Delhi - DPCC",21-04-2024 03:00:00,28.672342,77.315260,PM10,137,248,169
India,Delhi,Delhi,"Wazirpur, Delhi - DPCC",21-04-2024 03:00:00,28.699793,77.165453,PM2.5,53,268,105
India,Gujarat,Ahmedabad,"Chandkheda, Ahmedabad - IITM",21-04-2024 03:00:00,23.107969,72.574648,PM2.5,39,223,90
India,Gujarat,Ahmedabad,"Chandkheda, Ahmedabad - IITM",21-04-2024 03:00:00,23.107969,72.574648,NH3,5,5,5
India,Gujarat,Ahmedabad,"Chandkheda, Ahmedabad - IITM",21-04-2024 03:00:00,23.107969,72.574648,SO2,8,22,10
India,Gujarat,Ahmedabad,"Chandkheda, Ahmedabad - IITM",21-04-2024 03:00:00,23.107969,72.574648,OZONE,8,46,31
India,Gujarat,Ahmedabad,"Gyaspur, Ahmedabad - IITM",21-04-2024 03:00:00,22.977134,72.553024,NO2,19,117,73
India,Gujarat,Ahmedabad,"Maninagar, Ahmedabad - GPCB",21-04-2024 03:00:00,23.002657,72.591912,SO2,3,135,66
India,Gujarat,Ahmedabad,"SAC ISRO Satellite, Ahmedabad - IITM",21-04-2024 03:00:00,23.023389,72.515201,PM10,96,101,97
India,Gujarat,Ahmedabad,"SAC ISRO Satellite, Ahmedabad - IITM",21-04-2024 03:00:00,23.023389,72.515201,SO2,3,18,6
India,Gujarat,Ahmedabad,"SVPI Airport Hansol, Ahmedabad - IITM",21-04-2024 03:00:00,23.076793,72.627874,OZONE,10,30,21
India,Gujarat,Ahmedabad,"Sardar Vallabhbhai Patel Stadium, Ahmedabad - IITM",21-04-2024 03:00:00,23.043070,72.562968,SO2,3,17,11
India,Gujarat,Ankleshwar,"GIDC, Ankleshwar - GPCB",21-04-2024 03:00:00,21.613267,73.010555,PM2.5,39,69,51
India,Gujarat,Gandhinagar,"IIPHG Lekawada, Gandhinagar - IITM",21-04-2024 03:00:00,23.243639,72.68994,PM10,35,111,70
India,Gujarat,Gandhinagar,"IIPHG Lekawada, Gandhinagar - IITM",21-04-2024 03:00:00,23.243639,72.68994,OZONE,10,26,15
India,Gujarat,Gandhinagar,"Sector-10, Gandhinagar - GPCB",21-04-2024 03:00:00,23.221714,72.654328,NH3,1,1,1
India,Gujarat,Gandhinagar,"Sector-10, Gandhinagar - GPCB",21-04-2024 03:00:00,23.221714,72.654328,CO,28,56,45
India,Gujarat,Nandesari,"GIDC, Nandesari - Nandesari Ind. Association",21-04-2024 03:00:00,22.410802,73.097923,NO2,10,37,23
India,Gujarat,Vapi,"Phase-1 GIDC, Vapi - GPCB",21-04-2024 03:00:00,20.362421,72.918013,PM2.5,28,74,49
India,Gujarat,Vapi,"Phase-1 GIDC, Vapi - GPCB",21-04-2024 03:00:00,20.362421,72.918013,NH3,2,2,2
India,Gujarat,Vatva,"Phase-4 GIDC, Vatva - GPCB",21-04-2024 03:00:00,22.969611,72.643500,NO2,27,114,46
India,Haryana,Bahadurgarh,"Arya Nagar, Bahadurgarh - HSPCB",21-04-2024 03:00:00,28.6701,76.9254,OZONE,33,44,36
India,Haryana,Ballabgarh,"Nathu Colony, Ballabgarh - HSPCB",21-04-2024 03:00:00,28.3419248,77.319699,SO2,1,135,26
India,Haryana,Bhiwani,"H.B. Colony, Bhiwani - HSPCB",21-04-2024 03:00:00,28.806223,76.141105,PM10,72,137,114
India,Haryana,Bhiwani,"H.B. Colony, Bhiwani - HSPCB",21-04-2024 03:00:00,28.806223,76.141105,CO,12,37,25
India,Haryana,Bhiwani,"H.B. Colony, Bhiwani - HSPCB",21-04-2024 03:00:00,28.806223,76.141105,OZONE,12,23,16
India,Haryana,Charkhi Dadri,"Mini Secretariat, Charkhi Dadri - HSPCB",21-04-2024 03:00:00,28.593883,76.270653,NH3,6,8,7
India,Haryana,Faridabad,"New Industrial Town, Faridabad - HSPCB",21-04-2024 03:00:00,28.39072,77.30059,CO,4,31,14
India,Haryana,Faridabad,"Sector 11, Faridabad - HSPCB",21-04-2024 03:00:00,28.376058,77.315741,PM2.5,73,383,245
India,Haryana,Faridabad,"Sector 11, Faridabad - HSPCB",21-04-2024 03:00:00,28.376058,77.315741,OZONE,3,13,8
India,Haryana,Faridabad,"Sector 30, Faridabad - HSPCB",21-04-2024 03:00:00,28.4417,77.3217,NH3,9,9,9
India,Haryana,Fatehabad,"Huda Sector, Fatehabad - HSPCB",21-04-2024 03:00:00,29.503664,75.467934,PM10,29,103,66
India,Haryana,Fatehabad,"Huda Sector, Fatehabad - HSPCB",21-04-2024 03:00:00,29.503664,75.467934,NO2,29,32,30
India,Haryana,Fatehabad,"Huda Sector, Fatehabad - HSPCB",21-04-2024 03:00:00,29.503664,75.467934,CO,5,15,9
India,Haryana,Gurugram,"Sector-51, Gurugram - HSPCB",21-04-2024 03:00:00,28.4227,77.0667,PM2.5,245,500,353
India,Haryana,Gurugram,"Sector-51, Gurugram - HSPCB",21-04-2024 03:00:00,28.4227,77.0667,OZONE,27,67,50
India,Haryana,Gurugram,"Teri Gram, Gurugram - HSPCB",21-04-2024 03:00:00,28.4275,77.1465,CO,9,26,15
India,Haryana,Gurugram,"Vikas Sadan, Gurugram - HSPCB",21-04-2024 03:00:00,28.4501238,77.0263051,NO2,5,25,14
India,Haryana,Gurugram,"Vikas Sadan, Gurugram - HSPCB",21-04-2024 03:00:00,28.4501238,77.0263051,OZONE,8,69,16
India,Haryana,Hisar,"Urban Estate-II, Hisar - HSPCB",21-04-2024 03:00:00,29.140560,75.744941,PM10,54,117,91
India,Haryana,Hisar,"Urban Estate-II, Hisar - HSPCB",21-04-2024 03:00:00,29.140560,75.744941,OZONE,23,158,95
India,Haryana,Kaithal,"Rishi Nagar, Kaithal - HSPCB",21-04-2024 03:00:00,29.8006,76.4155,SO2,NA,NA,NA
India,Haryana,Kaithal,"Rishi Nagar, Kaithal - HSPCB",21-04-2024 03:00:00,29.8006,76.4155,OZONE,2,94,43
India,Haryana,Mandikhera,"General Hospital, Mandikhera - HSPCB",21-04-2024 03:00:00,27.9002,76.9938,SO2,31,38,34
India,Haryana,Narnaul,"Shastri Nagar, Narnaul - HSPCB",21-04-2024 03:00:00,28.060249,76.113115,NH3,5,27,15
India,Haryana,Panipat,"Sector-18, Panipat - HSPCB",21-04-2024 03:00:00,29.497973,76.993331,CO,24,26,25
India,Haryana,Rohtak,"MD University, Rohtak - HSPCB",21-04-2024 03:00:00,28.52123,76.37138,NO2,45,57,51
India,Haryana,Rohtak,"MD University, Rohtak - HSPCB",21-04-2024 03:00:00,28.52123,76.37138,CO,21,69,48
India,Haryana,Sirsa,"F-Block, Sirsa - HSPCB",21-04-2024 03:00:00,29.536400,75.015800,SO2,1,11,5
India,Haryana,Sonipat,"Murthal, Sonipat - HSPCB",21-04-2024 03:00:00,29.027200,77.062100,NO2,37,44,40
India,Haryana,Sonipat,"Murthal, Sonipat - HSPCB",21-04-2024 03:00:00,29.027200,77.062100,CO,8,26,14
India,Haryana,Yamuna Nagar,"Gobind Pura, Yamuna Nagar - HSPCB",21-04-2024 03:00:00,30.1480566,77.2893471,NO2,11,28,18
India,Haryana,Yamuna Nagar,"Gobind Pura, Yamuna Nagar - HSPCB",21-04-2024 03:00:00,30.1480566,77.2893471,NH3,1,6,4
India,Haryana,Yamuna Nagar,"Gobind Pura, Yamuna Nagar - HSPCB",21-04-2024 03:00:00,30.1480566,77.2893471,CO,3,56,46
India,Himachal Pradesh,Baddi,"HIMUDA Complex Phase-1, Baddi - HPPCB",21-04-2024 03:00:00,30.943887,76.801991,NH3,3,4,3
India,Jharkhand,Dhanbad,"Sardar Patel Nagar, Dhanbad - JSPCB",21-04-2024 03:00:00,23.80569,86.44268,PM2.5,2,290,59
India,Karnataka,Bagalkot,"Vidayagiri, Bagalkot - KSPCB",21-04-2024 03:00:00,16.172806,75.659694,PM2.5,19,37,36
India,Karnataka,Bagalkot,"Vidayagiri, Bagalkot - KSPCB",21-04-2024 03:00:00,16.172806,75.659694,PM10,45,46,46
India,Karnataka,Bagalkot,"Vidayagiri, Bagalkot - KSPCB",21-04-2024 03:00:00,16.172806,75.659694,NH3,1,2,1
India,Karnataka,Bagalkot,"Vidayagiri, Bagalkot - KSPCB",21-04-2024 03:00:00,16.172806,75.659694,OZONE,6,26,11
India,Karnataka,Belgaum,"Ramteerth Nagar, Belgaum - KSPCB",21-04-2024 03:00:00,15.888653,74.541751,OZONE,19,20,20
India,Karnataka,Bengaluru,"BTM Layout, Bengaluru - CPCB",21-04-2024 03:00:00,12.9135218,77.5950804,PM2.5,NA,NA,NA
India,Karnataka,Bengaluru,"Bapuji Nagar, Bengaluru - KSPCB",21-04-2024 03:00:00,12.951913,77.539784,SO2,5,8,7
India,Karnataka,Bengaluru,"Bapuji Nagar, Bengaluru - KSPCB",21-04-2024 03:00:00,12.951913,77.539784,OZONE,25,33,27
India,Karnataka,Bengaluru,"Hombegowda Nagar, Bengaluru - KSPCB",21-04-2024 03:00:00,12.938539,77.590100,CO,9,14,12
India,Karnataka,Bengaluru,"Kasturi Nagar, Bengaluru - KSPCB",21-04-2024 03:00:00,13.003872,77.664217,PM10,72,164,111
India,Karnataka,Bengaluru,"RVCE-Mailasandra, Bengaluru - KSPCB",21-04-2024 03:00:00,12.921418,77.502466,PM2.5,20,109,78
India,Karnataka,Bengaluru,"RVCE-Mailasandra, Bengaluru - KSPCB",21-04-2024 03:00:00,12.921418,77.502466,NO2,17,17,17
India,Karnataka,Bengaluru,"RVCE-Mailasandra, Bengaluru - KSPCB",21-04-2024 03:00:00,12.921418,77.502466,CO,32,70,55
India,Karnataka,Bengaluru,"Sanegurava Halli, Bengaluru - KSPCB",21-04-2024 03:00:00,12.990328,77.5431385,CO,6,38,19
India,Karnataka,Bengaluru,"Shivapura_Peenya, Bengaluru - KSPCB",21-04-2024 03:00:00,13.0246342,77.5080115,PM10,52,268,84
India,Karnataka,Bengaluru,"Silk Board, Bengaluru - KSPCB",21-04-2024 03:00:00,12.917348,77.622813,PM10,61,124,87
India,Karnataka,Bengaluru,"Silk Board, Bengaluru - KSPCB",21-04-2024 03:00:00,12.917348,77.622813,SO2,9,15,12
India,Karnataka,Bengaluru,"Silk Board, Bengaluru - KSPCB",21-04-2024 03:00:00,12.917348,77.622813,CO,11,54,34
India,Karnataka,Bidar,"Naubad, Bidar - KSPCB",21-04-2024 03:00:00,17.930306,77.482194,NO2,NA,NA,NA
India,Karnataka,Bidar,"Naubad, Bidar - KSPCB",21-04-2024 03:00:00,17.930306,77.482194,OZONE,31,42,35
India,Karnataka,Chamarajanagar,"Urban, Chamarajanagar - KSPCB",21-04-2024 03:00:00,11.55358,76.55521,NO2,23,35,30
India,Karnataka,Chamarajanagar,"Urban, Chamarajanagar - KSPCB",21-04-2024 03:00:00,11.55358,76.55521,CO,22,120,33
India,Karnataka,Chikkaballapur,"Chikkaballapur Rural, Chikkaballapur - KSPCB",21-04-2024 03:00:00,13.428828,77.731418,PM2.5,55,95,72
India,Karnataka,Davanagere,"Devaraj Urs Badavane, Davanagere - KSPCB",21-04-2024 03:00:00,14.475800,75.905200,PM10,22,104,47
India,Karnataka,Davanagere,"Devaraj Urs Badavane, Davanagere - KSPCB",21-04-2024 03:00:00,14.475800,75.905200,NO2,11,18,14
India,Karnataka,Davanagere,"Devaraj Urs Badavane, Davanagere - KSPCB",21-04-2024 03:00:00,14.475800,75.905200,OZONE,20,22,21
India,Karnataka,Dharwad,"Kalabhavan, Dharwad - KSPCB",21-04-2024 03:00:00,15.459706,75.008381,CO,12,108,104
India,Karnataka,Hassan,"B.Katihalli, Hassan - KSPCB",21-04-2024 03:00:00,13.008556,76.125258,PM10,NA,NA,NA
India,Karnataka,Hassan,"B.Katihalli, Hassan - KSPCB",21-04-2024 03:00:00,13.008556,76.125258,NH3,NA,NA,NA
India,Karnataka,Haveri,"Ashwini Nagar, Haveri - KSPCB",21-04-2024 03:00:00,14.791800,75.389600,PM2.5,42,79,59
India,Karnataka,Haveri,"Ashwini Nagar, Haveri - KSPCB",21-04-2024 03:00:00,14.791800,75.389600,PM10,NA,NA,NA
India,Karnataka,Haveri,"Ashwini Nagar, Haveri - KSPCB",21-04-2024 03:00:00,14.791800,75.389600,CO,37,39,38
India,Karnataka,Kalaburagi,"Mahatma Basaveswar Colony, Kalaburgi - KSPCB",21-04-2024 03:00:00,17.336318,76.847397,SO2,3,22,6
India,Karnataka,Karwar,"KHB Colony, Karwar - KSPCB",21-04-2024 03:00:00,14.816666,74.141003,NO2,NA,NA,NA
India,Karnataka,Karwar,"KHB Colony, Karwar - KSPCB",21-04-2024 03:00:00,14.816666,74.141003,NH3,NA,NA,NA
India,Karnataka,Karwar,"KHB Colony, Karwar - KSPCB",21-04-2024 03:00:00,14.816666,74.141003,CO,12,18,12
India,Karnataka,Kolar,"Tamaka Ind. Area, Kolar - KSPCB",21-04-2024 03:00:00,13.1276288,78.1570122,SO2,NA,NA,NA
India,Karnataka,Koppal,"Diwator Nagar, Koppal - KSPCB",21-04-2024 03:00:00,15.347630,76.181767,PM10,14,36,22
India,Karnataka,Madikeri,"Stuart Hill, Madikeri - KSPCB",21-04-2024 03:00:00,12.415911,75.735050,PM2.5,22,56,42
India,Karnataka,Mangalore,"Kadri, Mangalore - KSPCB",21-04-2024 03:00:00,12.889250,74.853000,PM10,39,170,90
India,Karnataka,Ramanagara,"Vijay Nagar, Ramanagara - KSPCB",21-04-2024 03:00:00,12.733409,77.298051,PM10,39,56,48
India,Karnataka,Shivamogga,"Vinoba Nagara, Shivamogga - KSPCB",21-04-2024 03:00:00,13.940000,75.555917,PM10,40,69,62
India,Karnataka,Shivamogga,"Vinoba Nagara, Shivamogga - KSPCB",21-04-2024 03:00:00,13.940000,75.555917,SO2,1,8,6
India,Karnataka,Shivamogga,"Vinoba Nagara, Shivamogga - KSPCB",21-04-2024 03:00:00,13.940000,75.555917,OZONE,6,76,11
India,Karnataka,Tumakuru,"Thimmalapura, Tumakuru - KSPCB",21-04-2024 03:00:00,13.377516,77.099072,NO2,NA,NA,NA
India,Karnataka,Tumakuru,"Thimmalapura, Tumakuru - KSPCB",21-04-2024 03:00:00,13.377516,77.099072,OZONE,7,39,12
India,Karnataka,Vijayapura,"Ibrahimpur, Vijayapura - KSPCB",21-04-2024 03:00:00,16.802639,75.722694,PM10,41,43,42
India,Karnataka,Vijayapura,"Ibrahimpur, Vijayapura - KSPCB",21-04-2024 03:00:00,16.802639,75.722694,SO2,2,26,9
India,Karnataka,Yadgir,"Collector Office, Yadgir - KSPCB",21-04-2024 03:00:00,16.7602,77.1428,PM2.5,52,78,64
India,Karnataka,Yadgir,"Collector Office, Yadgir - KSPCB",21-04-2024 03:00:00,16.7602,77.1428,NH3,NA,NA,NA
India,Karnataka,Yadgir,"Collector Office, Yadgir - KSPCB",21-04-2024 03:00:00,16.7602,77.1428,CO,10,26,15
India,Kerala,Eloor,"Udyogamandal, Eloor - Kerala PCB",21-04-2024 03:00:00,10.073232,76.302765,NO2,4,4,4
India,Kerala,Eloor,"Udyogamandal, Eloor - Kerala PCB",21-04-2024 03:00:00,10.073232,76.302765,SO2,1,26,5
India,Kerala,Kannur,"Thavakkara, Kannur - Kerala PCB",21-04-2024 03:00:00,11.875000,75.373200,PM10,61,74,62
India,Kerala,Kannur,"Thavakkara, Kannur - Kerala PCB",21-04-2024 03:00:00,11.875000,75.373200,CO,30,35,32
India,Kerala,Thiruvananthapuram,"Kariavattom, Thiruvananthapuram - Kerala PCB",21-04-2024 03:00:00,8.563700,76.886500,SO2,1,12,6
India,Kerala,Thiruvananthapuram,"Kariavattom, Thiruvananthapuram - Kerala PCB",21-04-2024 03:00:00,8.563700,76.886500,CO,18,44,24
India,Kerala,Thiruvananthapuram,"Kariavattom, Thiruvananthapuram - Kerala PCB",21-04-2024 03:00:00,8.563700,76.886500,OZONE,27,32,29
India,Madhya Pradesh,Bhopal,"T T Nagar, Bhopal - MPPCB",21-04-2024 03:00:00,23.233584,77.400574,OZONE,42,74,51
India,Madhya Pradesh,Gwalior,"City Center, Gwalior - MPPCB",21-04-2024 03:00:00,26.203442,78.193251,PM10,88,189,118
India,Madhya Pradesh,Gwalior,"City Center, Gwalior - MPPCB",21-04-2024 03:00:00,26.203442,78.193251,OZONE,24,61,39
India,Madhya Pradesh,Gwalior,"Deen Dayal Nagar, Gwalior - MPPCB",21-04-2024 03:00:00,26.259242,78.216432,NH3,4,8,6
India,Madhya Pradesh,Gwalior,"Deen Dayal Nagar, Gwalior - MPPCB",21-04-2024 03:00:00,26.259242,78.216432,CO,32,44,39
India,Madhya Pradesh,Gwalior,"Deen Dayal Nagar, Gwalior - MPPCB",21-04-2024 03:00:00,26.259242,78.216432,OZONE,61,147,100
India,Madhya Pradesh,Gwalior,"Maharaj Bada, Gwalior - MPPCB",21-04-2024 03:00:00,26.200388,78.147714,NH3,2,13,5
India,Madhya Pradesh,Gwalior,"Maharaj Bada, Gwalior - MPPCB",21-04-2024 03:00:00,26.200388,78.147714,SO2,3,11,7
India,Madhya Pradesh,Gwalior,"Phool Bagh, Gwalior - Mondelez Ind. Food",21-04-2024 03:00:00,26.210536,78.171,PM10,22,56,44
India,Madhya Pradesh,Gwalior,"Phool Bagh, Gwalior - Mondelez Ind. Food",21-04-2024 03:00:00,26.210536,78.171,SO2,14,16,15
India,Madhya Pradesh,Gwalior,"Phool Bagh, Gwalior - Mondelez Ind. Food",21-04-2024 03:00:00,26.210536,78.171,CO,44,50,48
India,Madhya Pradesh,Indore,"Maguda Nagar, Indore - IMC",21-04-2024 03:00:00,22.7524,75.8872,NH3,1,2,1
India,Madhya Pradesh,Indore,"Maguda Nagar, Indore - IMC",21-04-2024 03:00:00,22.7524,75.8872,OZONE,28,45,37
India,Madhya Pradesh,Indore,"Residency Area, Indore - IMC",21-04-2024 03:00:00,22.7084,75.8815,NO2,32,51,40
India,Madhya Pradesh,Indore,"Residency Area, Indore - IMC",21-04-2024 03:00:00,22.7084,75.8815,OZONE,11,16,13
India,Madhya Pradesh,Jabalpur,"Govindh Bhavan Colony, Jabalpur - JMC",21-04-2024 03:00:00,23.163174,79.973061,NH3,NA,NA,NA
India,Madhya Pradesh,Jabalpur,"Gupteshwar, Jabalpur - JMC",21-04-2024 03:00:00,23.142888,79.916147,NH3,7,9,8
India,Madhya Pradesh,Jabalpur,"Suhagi, Jabalpur - JMC",21-04-2024 03:00:00,23.218135,79.957770,OZONE,2,138,69
India,Madhya Pradesh,Katni,"Gole Bazar, Katni - MPPCB",21-04-2024 03:00:00,23.50016,80.23284,CO,34,142,100
India,Madhya Pradesh,Pithampur,"Sector-2 Industrial Area, Pithampur - MPPCB",21-04-2024 03:00:00,22.624758,75.675238,NO2,7,19,11
India,Madhya Pradesh,Pithampur,"Sector-2 Industrial Area, Pithampur - MPPCB",21-04-2024 03:00:00,22.624758,75.675238,OZONE,24,61,43
India,Madhya Pradesh,Ratlam,"Shasthri Nagar, Ratlam - IPCA Lab",21-04-2024 03:00:00,23.331731,75.045981,PM2.5,2,227,68
India,Madhya Pradesh,Ratlam,"Shasthri Nagar, Ratlam - IPCA Lab",21-04-2024 03:00:00,23.331731,75.045981,NO2,14,32,23
India,Madhya Pradesh,Sagar,"Civil Lines, Sagar - MPPCB",21-04-2024 03:00:00,23.838586,78.759431,PM2.5,NA,NA,NA
India,Madhya Pradesh,Sagar,"Deen Dayal Nagar, Sagar - MPPCB",21-04-2024 03:00:00,23.8640158,78.80289321,PM2.5,11,38,23
India,Madhya Pradesh,Ujjain,"Mahakaleshwar Temple, Ujjain - MPPCB",21-04-2024 03:00:00,23.182719 ,75.768218 ,NH3,NA,NA,NA
