country,state,city,station,last_update,latitude,longitude,pollutant_id,pollutant_min,pollutant_max,pollutant_avg
India,Andhra_Pradesh,Amaravati,"Secretariat, Amaravati - APPCB",05-03-2024 03:00:00,16.5150833,80.5181667,PM2.5,33,71,53
India,Andhra_Pradesh,Amaravati,"Secretariat, Amaravati - APPCB",05-03-2024 03:00:00,16.5150833,80.5181667,NO2,8,18,11
India,Andhra_Pradesh,Amaravati,"Secretariat, Amaravati - APPCB",05-03-2024 03:00:00,16.5150833,80.5181667,NH3,3,5,4
India,Andhra_Pradesh,Anantapur,"Gulzarpet, Anantapur - APPCB",05-03-2024 03:00:00,14.675886,77.593027,NH3,NA,NA,NA
India,Andhra_Pradesh,Chittoor,"Gangineni Cheruvu, Chittoor - APPCB",05-03-2024 03:00:00,13.204880,79.097889,PM10,36,71,57
India,Andhra_Pradesh,Kadapa,"Yerramukkapalli, Kadapa - APPCB",05-03-2024 03:00:00,14.465052,78.824187,OZONE,24,82,46
India,Andhra_Pradesh,Rajamahendravaram,"Anand Kala Kshetram, Rajamahendravaram - APPCB",05-03-2024 03:00:00,16.9872867,81.7363176,SO2,3,15,10
India,Andhra_Pradesh,Tirupati,"Tirumala, Tirupati - APPCB",05-03-2024 03:00:00,13.67,79.35,PM10,45,100,69
India,Andhra_Pradesh,Tirupati,"Tirumala, Tirupati - APPCB",05-03-2024 03:00:00,13.67,79.35,CO,30,57,48
India,Andhra_Pradesh,Tirupati,"Vaikuntapuram, Tirupati - APPCB",05-03-2024 03:00:00,13.615387,79.409230,PM2.5,20,326,110
India,Andhra_Pradesh,Tirupati,"Vaikuntapuram, Tirupati - APPCB",05-03-2024 03:00:00,13.615387,79.409230,NO2,15,26,20
India,Andhra_Pradesh,Tirupati,"Vaikuntapuram, Tirupati - APPCB",05-03-2024 03:00:00,13.615387,79.409230,SO2,4,5,5
India,Andhra_Pradesh,Vijayawada,"HB Colony, Vijayawada - APPCB",05-03-2024 03:00:00,16.536107,80.594233,PM2.5,64,90,77
India,Andhra_Pradesh,Vijayawada,"Kanuru, Vijayawada - APPCB",05-03-2024 03:00:00,16.486692,80.699436,PM10,63,88,76
India,Andhra_Pradesh,Vijayawada,"Kanuru, Vijayawada - APPCB",05-03-2024 03:00:00,16.486692,80.699436,NH3,1,1,1
India,Andhra_Pradesh,Vijayawada,"Kanuru, Vijayawada - APPCB",05-03-2024 03:00:00,16.486692,80.699436,CO,48,48,48
India,Andhra_Pradesh,Vijayawada,"Kanuru, Vijayawada - APPCB",05-03-2024 03:00:00,16.486692,80.699436,OZONE,25,25,25
India,Andhra_Pradesh,Vijayawada,"Rajiv Nagar, Vijayawada - APPCB",05-03-2024 03:00:00,16.554731,80.649110,NH3,1,2,1
India,Andhra_Pradesh,Visakhapatnam,"GVM Corporation, Visakhapatnam - APPCB",05-03-2024 03:00:00,17.72,83.3,CO,9,70,41
India,Assam,Guwahati,"IITG, Guwahati - PCBA",05-03-2024 03:00:00,26.2028636,91.70046436,PM10,108,207,158
India,Assam,Guwahati,"IITG, Guwahati - PCBA",05-03-2024 03:00:00,26.2028636,91.70046436,NO2,1,8,4
India,Assam,Guwahati,"IITG, Guwahati - PCBA",05-03-2024 03:00:00,26.2028636,91.70046436,OZONE,5,44,10
India,Assam,Guwahati,"LGBI Airport, Guwahati - PCBA",05-03-2024 03:00:00,26.10887,91.589544,NH3,1,4,2
India,Assam,Guwahati,"LGBI Airport, Guwahati - PCBA",05-03-2024 03:00:00,26.10887,91.589544,SO2,11,14,13
India,Assam,Guwahati,"Pan Bazaar, Guwahati - PCBA",05-03-2024 03:00:00,26.187500,91.744194,PM2.5,54,242,135
India,Assam,Guwahati,"Pan Bazaar, Guwahati - PCBA",05-03-2024 03:00:00,26.187500,91.744194,PM10,129,415,211
India,Assam,Guwahati,"Pan Bazaar, Guwahati - PCBA",05-03-2024 03:00:00,26.187500,91.744194,OZONE,17,19,18
India,Assam,Nalbari,"Bata Chowk, Nalbari - PCBA",05-03-2024 03:00:00,26.446912,91.439057,PM2.5,60,283,174
India,Assam,Nalbari,"Bata Chowk, Nalbari - PCBA",05-03-2024 03:00:00,26.446912,91.439057,CO,55,114,102
India,Assam,Silchar,"Tarapur, Silchar - PCBA",05-03-2024 03:00:00,24.82827,92.79525,PM10,48,59,54
India,Assam,Silchar,"Tarapur, Silchar - PCBA",05-03-2024 03:00:00,24.82827,92.79525,CO,20,33,27
India,Assam,Sivasagar,"Girls College, Sivasagar - PCBA",05-03-2024 03:00:00,26.987634,94.636574,OZONE,1,6,1
India,Bihar,Araria,"Kharahiya Basti, Araria - BSPCB",05-03-2024 03:00:00,26.146529,87.454184,CO,22,30,25
India,Bihar,Aurangabad,"Gurdeo Nagar, Aurangabad - BSPCB",05-03-2024 03:00:00,24.75746,84.366208,PM2.5,NA,NA,NA
India,Bihar,Bettiah,"Kamalnath Nagar, Bettiah - BSPCB",05-03-2024 03:00:00,26.80365,84.51954,SO2,5,21,16
India,Bihar,Bhagalpur,"DM Office_Kachari Chowk, Bhagalpur - BSPCB",05-03-2024 03:00:00,25.251013,86.989001,NO2,25,67,39
India,Bihar,Bhagalpur,"DM Office_Kachari Chowk, Bhagalpur - BSPCB",05-03-2024 03:00:00,25.251013,86.989001,SO2,8,17,15
India,Bihar,Bhagalpur,"Mayaganj, Bhagalpur - BSPCB",05-03-2024 03:00:00,25.265194,87.012947,NO2,5,17,9
India,Bihar,Bhagalpur,"Mayaganj, Bhagalpur - BSPCB",05-03-2024 03:00:00,25.265194,87.012947,NH3,6,9,8
India,Bihar,Bhagalpur,"Mayaganj, Bhagalpur - BSPCB",05-03-2024 03:00:00,25.265194,87.012947,CO,8,10,9
India,Bihar,Buxar,"Charitra Van, Buxar - BSPCB (Formerly known as Central Jail)",05-03-2024 03:00:00,25.567520,83.966379,PM10,NA,NA,NA
India,Bihar,Buxar,"Charitra Van, Buxar - BSPCB (Formerly known as Central Jail)",05-03-2024 03:00:00,25.567520,83.966379,SO2,16,18,17
India,Bihar,Buxar,"Charitra Van, Buxar - BSPCB (Formerly known as Central Jail)",05-03-2024 03:00:00,25.567520,83.966379,OZONE,1,92,18
India,Bihar,Chhapra,"Darshan Nagar, Chhapra - BSPCB",05-03-2024 03:00:00,25.7808257,84.7446768,NO2,14,22,18
India,Bihar,Chhapra,"Darshan Nagar, Chhapra - BSPCB",05-03-2024 03:00:00,25.7808257,84.7446768,SO2,25,110,58
India,Bihar,Gaya,"Collectorate, Gaya - BSPCB",05-03-2024 03:00:00,24.7955,84.9994,CO,30,61,46
India,Bihar,Gaya,"Kareemganj, Gaya - BSPCB",05-03-2024 03:00:00,24.792403,84.992416,CO,4,101,48
India,Bihar,Gaya,"SFTI Kusdihra, Gaya - BSPCB",05-03-2024 03:00:00,24.762518,84.982348,CO,16,45,29
India,Bihar,Hajipur,"Industrial Area, Hajipur - BSPCB",05-03-2024 03:00:00,25.697189,85.245900,NH3,8,17,14
India,Bihar,Hajipur,"Industrial Area, Hajipur - BSPCB",05-03-2024 03:00:00,25.697189,85.245900,SO2,8,9,8
India,Bihar,Hajipur,"Industrial Area, Hajipur - BSPCB",05-03-2024 03:00:00,25.697189,85.245900,OZONE,5,26,8
India,Bihar,Katihar,"Mirchaibari, Katihar - BSPCB",05-03-2024 03:00:00,25.560083,87.553265,PM10,12,137,77
India,Bihar,Kishanganj,"SDM Office_Khagra, Kishanganj - BSPCB",05-03-2024 03:00:00,26.0881305,87.93840336,PM2.5,NA,NA,NA
India,Bihar,Kishanganj,"SDM Office_Khagra, Kishanganj - BSPCB",05-03-2024 03:00:00,26.0881305,87.93840336,PM10,NA,NA,NA
India,Bihar,Motihari,"Gandak Colony, Motihari - BSPCB",05-03-2024 03:00:00,26.63086,84.90051,NH3,9,15,11
India,Bihar,Motihari,"Gandak Colony, Motihari - BSPCB",05-03-2024 03:00:00,26.63086,84.90051,SO2,1,11,6
India,Bihar,Motihari,"Gandak Colony, Motihari - BSPCB",05-03-2024 03:00:00,26.63086,84.90051,OZONE,32,90,50
India,Bihar,Munger,"Town Hall, Munger - BSPCB",05-03-2024 03:00:00,25.376776,86.471523,SO2,21,40,31
India,Bihar,Munger,"Town Hall, Munger - BSPCB",05-03-2024 03:00:00,25.376776,86.471523,CO,56,66,62
India,Bihar,Muzaffarpur,"Buddha Colony, Muzaffarpur - BSPCB",05-03-2024 03:00:00,26.11442,85.39813,PM10,84,134,106
India,Bihar,Muzaffarpur,"MIT-Daudpur Kothi, Muzaffarpur - BSPCB",05-03-2024 03:00:00,26.1403345,85.3650192,PM10,56,116,85
India,Bihar,Muzaffarpur,"MIT-Daudpur Kothi, Muzaffarpur - BSPCB",05-03-2024 03:00:00,26.1403345,85.3650192,NH3,1,2,1
India,Bihar,Muzaffarpur,"Muzaffarpur Collectorate, Muzaffarpur - BSPCB",05-03-2024 03:00:00,26.1209,85.3647,OZONE,13,118,22
India,Bihar,Patna,"DRM Office Danapur, Patna - BSPCB",05-03-2024 03:00:00,25.586562,85.043586,PM2.5,84,152,111
India,Bihar,Patna,"DRM Office Danapur, Patna - BSPCB",05-03-2024 03:00:00,25.586562,85.043586,NO2,9,63,25
India,Bihar,Patna,"Muradpur, Patna - BSPCB",05-03-2024 03:00:00,25.619651,85.147382,PM10,82,498,156
India,Bihar,Patna,"Muradpur, Patna - BSPCB",05-03-2024 03:00:00,25.619651,85.147382,NO2,8,19,16
India,Bihar,Patna,"Muradpur, Patna - BSPCB",05-03-2024 03:00:00,25.619651,85.147382,CO,19,58,44
India,Bihar,Patna,"Rajbansi Nagar, Patna - BSPCB",05-03-2024 03:00:00,25.599486,85.113666,PM2.5,29,70,44
India,Bihar,Patna,"Rajbansi Nagar, Patna - BSPCB",05-03-2024 03:00:00,25.599486,85.113666,NO2,24,44,31
India,Bihar,Patna,"Rajbansi Nagar, Patna - BSPCB",05-03-2024 03:00:00,25.599486,85.113666,CO,7,40,28
India,Bihar,Patna,"Samanpura, Patna - BSPCB",05-03-2024 03:00:00,25.596727,85.085624,PM2.5,52,311,156
India,Bihar,Patna,"Samanpura, Patna - BSPCB",05-03-2024 03:00:00,25.596727,85.085624,NO2,18,46,28
India,Bihar,Patna,"Samanpura, Patna - BSPCB",05-03-2024 03:00:00,25.596727,85.085624,NH3,5,9,7
India,Bihar,Purnia,"Mariam Nagar, Purnia - BSPCB",05-03-2024 03:00:00,25.366336,87.117468,PM10,53,127,79
India,Bihar,Purnia,"Mariam Nagar, Purnia - BSPCB",05-03-2024 03:00:00,25.366336,87.117468,NH3,1,1,1
India,Bihar,Purnia,"Mariam Nagar, Purnia - BSPCB",05-03-2024 03:00:00,25.366336,87.117468,OZONE,8,32,12
India,Bihar,Rajgir,"Dangi Tola, Rajgir - BSPCB",05-03-2024 03:00:00,25.03280,85.41948,CO,10,11,10
India,Bihar,Saharsa,"Police Line, Saharsa - BSPCB",05-03-2024 03:00:00,25.892357,86.590325,NH3,8,9,9
India,Bihar,Samastipur,"DM Office_Kasipur, Samastipur - BSPCB",05-03-2024 03:00:00,25.859655,85.77944,NH3,3,4,3
India,Bihar,Samastipur,"DM Office_Kasipur, Samastipur - BSPCB",05-03-2024 03:00:00,25.859655,85.77944,CO,2,30,16
India,Bihar,Sasaram,"Dada Peer, Sasaram - BSPCB",05-03-2024 03:00:00,24.952822,84.002396,NO2,9,21,15
India,Bihar,Sasaram,"Dada Peer, Sasaram - BSPCB",05-03-2024 03:00:00,24.952822,84.002396,NH3,8,11,9
India,Bihar,Sasaram,"Dada Peer, Sasaram - BSPCB",05-03-2024 03:00:00,24.952822,84.002396,OZONE,5,64,28
India,Bihar,Siwan,"Chitragupta Nagar, Siwan - BSPCB",05-03-2024 03:00:00,26.2271665,84.3570427,PM10,NA,NA,NA
India,Bihar,Siwan,"Chitragupta Nagar, Siwan - BSPCB",05-03-2024 03:00:00,26.2271665,84.3570427,NO2,10,27,17
India,Chandigarh,Chandigarh,"Sector 22, Chandigarh - CPCC",05-03-2024 03:00:00,30.735567,76.775714,PM10,52,127,84
India,Chandigarh,Chandigarh,"Sector 22, Chandigarh - CPCC",05-03-2024 03:00:00,30.735567,76.775714,NO2,13,47,27
India,Chandigarh,Chandigarh,"Sector 22, Chandigarh - CPCC",05-03-2024 03:00:00,30.735567,76.775714,SO2,4,18,8
India,Chandigarh,Chandigarh,"Sector-53, Chandigarh - CPCC",05-03-2024 03:00:00,30.719859,76.738637,PM10,60,138,94
India,Chandigarh,Chandigarh,"Sector-53, Chandigarh - CPCC",05-03-2024 03:00:00,30.719859,76.738637,NO2,28,80,48
India,Chhattisgarh,Bhilai,"32Bungalows, Bhilai - CECB",05-03-2024 03:00:00,21.194815,81.314770,NO2,30,38,35
India,Chhattisgarh,Bhilai,"32Bungalows, Bhilai - CECB",05-03-2024 03:00:00,21.194815,81.314770,NH3,6,6,6
India,Chhattisgarh,Bhilai,"32Bungalows, Bhilai - CECB",05-03-2024 03:00:00,21.194815,81.314770,OZONE,4,16,5
India,Chhattisgarh,Bhilai,"Civic Center, Bhilai - Bhilai Steel Plant",05-03-2024 03:00:00,21.185571,81.343175,SO2,6,13,9
India,Chhattisgarh,Bhilai,"Hathkhoj, Bhilai - CECB",05-03-2024 03:00:00,21.224231,81.408350,CO,16,44,32
India,Chhattisgarh,Chhal,"Nawapara SECL Colony, Chhal - CECB",05-03-2024 03:00:00,22.118125,83.140608,PM10,49,113,77
India,Chhattisgarh,Chhal,"Nawapara SECL Colony, Chhal - CECB",05-03-2024 03:00:00,22.118125,83.140608,NH3,2,2,2
India,Chhattisgarh,Chhal,"Nawapara SECL Colony, Chhal - CECB",05-03-2024 03:00:00,22.118125,83.140608,CO,40,104,50
India,Chhattisgarh,Chhal,"Nawapara SECL Colony, Chhal - CECB",05-03-2024 03:00:00,22.118125,83.140608,OZONE,2,66,9
India,Chhattisgarh,Korba,"Rampur, Korba - CECB",05-03-2024 03:00:00,22.368195,82.746431,NO2,30,58,37
India,Chhattisgarh,Korba,"Rampur, Korba - CECB",05-03-2024 03:00:00,22.368195,82.746431,CO,16,30,21
India,Chhattisgarh,Korba,"Urja Nagar, Korba - CECB",05-03-2024 03:00:00,22.348441,82.549611,PM10,19,69,43
India,Chhattisgarh,Korba,"Urja Nagar, Korba - CECB",05-03-2024 03:00:00,22.348441,82.549611,NO2,60,74,67
India,Chhattisgarh,Kunjemura,"OP Jindal School, Kunjemura - CECB",05-03-2024 03:00:00,22.126650,83.483212,NO2,20,88,45
India,Chhattisgarh,Raipur,"AIIMS, Raipur - CECB",05-03-2024 03:00:00,21.258815,81.578979,PM2.5,NA,NA,NA
India,Chhattisgarh,Raipur,"AIIMS, Raipur - CECB",05-03-2024 03:00:00,21.258815,81.578979,SO2,5,32,14
India,Chhattisgarh,Raipur,"Bhatagaon New ISBT, Raipur - CECB",05-03-2024 03:00:00,21.219665,81.630094,PM2.5,39,89,58
India,Chhattisgarh,Raipur,"Bhatagaon New ISBT, Raipur - CECB",05-03-2024 03:00:00,21.219665,81.630094,NH3,2,3,2
India,Chhattisgarh,Raipur,"Krishak Nagar, Raipur - CECB",05-03-2024 03:00:00,21.237755,81.705301,NO2,NA,NA,NA
India,Chhattisgarh,Raipur,"Krishak Nagar, Raipur - CECB",05-03-2024 03:00:00,21.237755,81.705301,NH3,NA,NA,NA
India,Chhattisgarh,Raipur,"Siltara Phase-II, Raipur - CECB",05-03-2024 03:00:00,21.371751,81.664929,PM2.5,46,75,62
India,Chhattisgarh,Tumidih,"OP Jindal Industrial Park, Tumidih - CECB",05-03-2024 03:00:00,22.06631475,83.33820077,NO2,NA,NA,NA
India,Chhattisgarh,Tumidih,"OP Jindal Industrial Park, Tumidih - CECB",05-03-2024 03:00:00,22.06631475,83.33820077,OZONE,19,51,23
India,Delhi,Delhi,"Alipur, Delhi - DPCC",05-03-2024 03:00:00,28.815329,77.153010,NH3,3,6,5
India,Delhi,Delhi,"Anand Vihar, Delhi - DPCC",05-03-2024 03:00:00,28.647622,77.3158090,PM10,94,189,141
India,Delhi,Delhi,"Anand Vihar, Delhi - DPCC",05-03-2024 03:00:00,28.647622,77.3158090,OZONE,12,40,22
India,Delhi,Delhi,"Ashok Vihar, Delhi - DPCC",05-03-2024 03:00:00,28.695381,77.181665,PM2.5,27,179,81
India,Delhi,Delhi,"Ashok Vihar, Delhi - DPCC",05-03-2024 03:00:00,28.695381,77.181665,PM10,86,188,129
India,Delhi,Delhi,"Ashok Vihar, Delhi - DPCC",05-03-2024 03:00:00,28.695381,77.181665,NO2,12,76,39
India,Delhi,Delhi,"Aya Nagar, Delhi - IMD",05-03-2024 03:00:00,28.4706914,77.1099364,CO,18,24,21
India,Delhi,Delhi,"Bawana, Delhi - DPCC",05-03-2024 03:00:00,28.776200,77.051074,OZONE,3,98,46
India,Delhi,Delhi,"Burari Crossing, Delhi - IMD",05-03-2024 03:00:00,28.7256504,77.2011573,OZONE,4,39,13
India,Delhi,Delhi,"Chandni Chowk, Delhi - IITM",05-03-2024 03:00:00,28.656756,77.227234,OZONE,14,123,17
India,Delhi,Delhi,"DTU, Delhi - CPCB",05-03-2024 03:00:00,28.7500499,77.1112615,PM10,59,205,122
India,Delhi,Delhi,"Dwarka-Sector 8, Delhi - DPCC ",05-03-2024 03:00:00,28.5710274,77.0719006,PM2.5,42,340,114
India,Delhi,Delhi,"Dwarka-Sector 8, Delhi - DPCC ",05-03-2024 03:00:00,28.5710274,77.0719006,NO2,22,111,64
India,Delhi,Delhi,"Dwarka-Sector 8, Delhi - DPCC ",05-03-2024 03:00:00,28.5710274,77.0719006,SO2,2,10,6
India,Delhi,Delhi,"IGI Airport (T3), Delhi - IMD",05-03-2024 03:00:00,28.5627763,77.1180053,PM2.5,NA,NA,NA
India,Delhi,Delhi,"IGI Airport (T3), Delhi - IMD",05-03-2024 03:00:00,28.5627763,77.1180053,PM10,NA,NA,NA
India,Delhi,Delhi,"IGI Airport (T3), Delhi - IMD",05-03-2024 03:00:00,28.5627763,77.1180053,OZONE,NA,NA,NA
India,Delhi,Delhi,"IHBAS, Dilshad Garden, Delhi - CPCB",05-03-2024 03:00:00,28.6811736,77.3025234,PM2.5,NA,NA,NA
India,Delhi,Delhi,"IHBAS, Dilshad Garden, Delhi - CPCB",05-03-2024 03:00:00,28.6811736,77.3025234,NO2,NA,NA,NA
India,Delhi,Delhi,"IHBAS, Dilshad Garden, Delhi - CPCB",05-03-2024 03:00:00,28.6811736,77.3025234,CO,NA,NA,NA
India,Delhi,Delhi,"Jawaharlal Nehru Stadium, Delhi - DPCC",05-03-2024 03:00:00,28.580280,77.233829,SO2,4,20,8
India,Delhi,Delhi,"Jawaharlal Nehru Stadium, Delhi - DPCC",05-03-2024 03:00:00,28.580280,77.233829,CO,24,52,39
India,Delhi,Delhi,"Jawaharlal Nehru Stadium, Delhi - DPCC",05-03-2024 03:00:00,28.580280,77.233829,OZONE,1,158,41
India,Delhi,Delhi,"Lodhi Road, Delhi - IITM",05-03-2024 03:00:00,28.588333,77.221667,CO,61,69,68
India,Delhi,Delhi,"Major Dhyan Chand National Stadium, Delhi - DPCC",05-03-2024 03:00:00,28.611281,77.237738,SO2,2,19,14
India,Delhi,Delhi,"Major Dhyan Chand National Stadium, Delhi - DPCC",05-03-2024 03:00:00,28.611281,77.237738,OZONE,3,157,44
India,Delhi,Delhi,"Mandir Marg, Delhi - DPCC",05-03-2024 03:00:00,28.636429,77.201067,NO2,102,142,122
India,Delhi,Delhi,"Mundka, Delhi - DPCC",05-03-2024 03:00:00,28.684678,77.076574,PM2.5,22,336,121
India,Delhi,Delhi,"Mundka, Delhi - DPCC",05-03-2024 03:00:00,28.684678,77.076574,NO2,22,71,43
India,Delhi,Delhi,"NSIT Dwarka, Delhi - CPCB",05-03-2024 03:00:00,28.60909,77.0325413,PM2.5,99,366,216
India,Delhi,Delhi,"NSIT Dwarka, Delhi - CPCB",05-03-2024 03:00:00,28.60909,77.0325413,NH3,10,11,10
India,Delhi,Delhi,"NSIT Dwarka, Delhi - CPCB",05-03-2024 03:00:00,28.60909,77.0325413,OZONE,19,95,40
India,Delhi,Delhi,"Narela, Delhi - DPCC",05-03-2024 03:00:00,28.822836,77.101981,PM2.5,28,257,110
India,Delhi,Delhi,"Narela, Delhi - DPCC",05-03-2024 03:00:00,28.822836,77.101981,PM10,67,366,130
India,Delhi,Delhi,"Narela, Delhi - DPCC",05-03-2024 03:00:00,28.822836,77.101981,SO2,4,17,9
India,Delhi,Delhi,"North Campus, DU, Delhi - IMD",05-03-2024 03:00:00,28.6573814,77.1585447,PM10,74,151,115
India,Delhi,Delhi,"Okhla Phase-2, Delhi - DPCC",05-03-2024 03:00:00,28.530785,77.271255,PM10,80,144,108
India,Delhi,Delhi,"Okhla Phase-2, Delhi - DPCC",05-03-2024 03:00:00,28.530785,77.271255,SO2,9,11,10
India,Delhi,Delhi,"Okhla Phase-2, Delhi - DPCC",05-03-2024 03:00:00,28.530785,77.271255,OZONE,11,144,29
India,Delhi,Delhi,"Punjabi Bagh, Delhi - DPCC",05-03-2024 03:00:00,28.674045,77.131023,PM10,81,148,115
India,Delhi,Delhi,"Punjabi Bagh, Delhi - DPCC",05-03-2024 03:00:00,28.674045,77.131023,NH3,2,2,2
India,Delhi,Delhi,"Shadipur, Delhi - CPCB",05-03-2024 03:00:00,28.6514781,77.1473105,PM10,98,182,125
India,Delhi,Delhi,"Sirifort, Delhi - CPCB",05-03-2024 03:00:00,28.5504249,77.2159377,PM10,70,152,99
India,Delhi,Delhi,"Sirifort, Delhi - CPCB",05-03-2024 03:00:00,28.5504249,77.2159377,NO2,130,173,151
India,Delhi,Delhi,"Sonia Vihar, Delhi - DPCC",05-03-2024 03:00:00,28.710508,77.249485,PM2.5,28,116,72
India,Delhi,Delhi,"Sri Aurobindo Marg, Delhi - DPCC",05-03-2024 03:00:00,28.531346,77.190156,PM10,65,262,120
India,Delhi,Delhi,"Sri Aurobindo Marg, Delhi - DPCC",05-03-2024 03:00:00,28.531346,77.190156,NO2,23,116,55
India,Delhi,Delhi,"Sri Aurobindo Marg, Delhi - DPCC",05-03-2024 03:00:00,28.531346,77.190156,NH3,5,12,7
India,Delhi,Delhi,"Vivek Vihar, Delhi - DPCC",05-03-2024 03:00:00,28.672342,77.315260,PM2.5,30,321,131
India,Delhi,Delhi,"Vivek Vihar, Delhi - DPCC",05-03-2024 03:00:00,28.672342,77.315260,SO2,23,27,24
India,Delhi,Delhi,"Vivek Vihar, Delhi - DPCC",05-03-2024 03:00:00,28.672342,77.315260,CO,6,45,31
India,Delhi,Delhi,"Wazirpur, Delhi - DPCC",05-03-2024 03:00:00,28.699793,77.165453,CO,36,101,76
India,Gujarat,Ahmedabad,"Chandkheda, Ahmedabad - IITM",05-03-2024 03:00:00,23.107969,72.574648,NO2,43,77,53
India,Gujarat,Ahmedabad,"Gyaspur, Ahmedabad - IITM",05-03-2024 03:00:00,22.977134,72.553024,PM10,39,218,78
India,Gujarat,Ahmedabad,"Gyaspur, Ahmedabad - IITM",05-03-2024 03:00:00,22.977134,72.553024,NO2,21,22,22
India,Gujarat,Ahmedabad,"Gyaspur, Ahmedabad - IITM",05-03-2024 03:00:00,22.977134,72.553024,CO,23,26,25
India,Gujarat,Ahmedabad,"Rakhial, Ahmedabad - IITM",05-03-2024 03:00:00,23.016834,72.625775,PM2.5,58,259,126
India,Gujarat,Ahmedabad,"Rakhial, Ahmedabad - IITM",05-03-2024 03:00:00,23.016834,72.625775,CO,30,104,41
India,Gujarat,Ahmedabad,"SAC ISRO Bopal, Ahmedabad - IITM",05-03-2024 03:00:00,23.041137,72.456691,PM10,20,249,81
India,Gujarat,Ahmedabad,"SAC ISRO Satellite, Ahmedabad - IITM",05-03-2024 03:00:00,23.023389,72.515201,PM10,78,93,83
India,Gujarat,Ahmedabad,"SAC ISRO Satellite, Ahmedabad - IITM",05-03-2024 03:00:00,23.023389,72.515201,NO2,17,17,17
India,Gujarat,Ahmedabad,"SAC ISRO Satellite, Ahmedabad - IITM",05-03-2024 03:00:00,23.023389,72.515201,SO2,12,29,16
India,Gujarat,Ahmedabad,"SVPI Airport Hansol, Ahmedabad - IITM",05-03-2024 03:00:00,23.076793,72.627874,PM10,81,243,137
India,Gujarat,Ahmedabad,"Sardar Vallabhbhai Patel Stadium, Ahmedabad - IITM",05-03-2024 03:00:00,23.043070,72.562968,OZONE,14,25,19
India,Gujarat,Ankleshwar,"GIDC, Ankleshwar - GPCB",05-03-2024 03:00:00,21.613267,73.010555,NO2,NA,NA,NA
India,Gujarat,Ankleshwar,"GIDC, Ankleshwar - GPCB",05-03-2024 03:00:00,21.613267,73.010555,NH3,NA,NA,NA
India,Gujarat,Ankleshwar,"GIDC, Ankleshwar - GPCB",05-03-2024 03:00:00,21.613267,73.010555,OZONE,20,31,23
India,Gujarat,Gandhinagar,"IIPHG Lekawada, Gandhinagar - IITM",05-03-2024 03:00:00,23.243639,72.68994,NH3,3,3,3
India,Gujarat,Gandhinagar,"IIPHG Lekawada, Gandhinagar - IITM",05-03-2024 03:00:00,23.243639,72.68994,OZONE,30,121,52
India,Gujarat,Gandhinagar,"Sector-10, Gandhinagar - GPCB",05-03-2024 03:00:00,23.221714,72.654328,PM2.5,15,46,28
India,Gujarat,Gandhinagar,"Sector-10, Gandhinagar - GPCB",05-03-2024 03:00:00,23.221714,72.654328,NO2,5,15,8
India,Gujarat,Nandesari,"GIDC, Nandesari - Nandesari Ind. Association",05-03-2024 03:00:00,22.410802,73.097923,SO2,4,66,45
India,Gujarat,Vapi,"Phase-1 GIDC, Vapi - GPCB",05-03-2024 03:00:00,20.362421,72.918013,CO,1,194,12
India,Gujarat,Vatva,"Phase-4 GIDC, Vatva - GPCB",05-03-2024 03:00:00,22.969611,72.643500,NH3,1,2,1
India,Gujarat,Vatva,"Phase-4 GIDC, Vatva - GPCB",05-03-2024 03:00:00,22.969611,72.643500,OZONE,9,65,22
India,Haryana,Ambala,"Patti Mehar, Ambala - HSPCB",05-03-2024 03:00:00,30.379589,76.778328,PM2.5,1,32,10
India,Haryana,Ambala,"Patti Mehar, Ambala - HSPCB",05-03-2024 03:00:00,30.379589,76.778328,NH3,8,8,8
India,Haryana,Bahadurgarh,"Arya Nagar, Bahadurgarh - HSPCB",05-03-2024 03:00:00,28.6701,76.9254,NO2,34,39,36
India,Haryana,Bahadurgarh,"Arya Nagar, Bahadurgarh - HSPCB",05-03-2024 03:00:00,28.6701,76.9254,OZONE,39,49,42
India,Haryana,Ballabgarh,"Nathu Colony, Ballabgarh - HSPCB",05-03-2024 03:00:00,28.3419248,77.319699,PM2.5,55,192,92
India,Haryana,Charkhi Dadri,"Mini Secretariat, Charkhi Dadri - HSPCB",05-03-2024 03:00:00,28.593883,76.270653,NH3,5,6,6
India,Haryana,Charkhi Dadri,"Mini Secretariat, Charkhi Dadri - HSPCB",05-03-2024 03:00:00,28.593883,76.270653,SO2,50,54,51
India,Haryana,Dharuhera,"Municipal Corporation Office, Dharuhera -  HSPCB",05-03-2024 03:00:00,28.206800,76.799700,NH3,9,27,19
India,Haryana,Faridabad,"New Industrial Town, Faridabad - HSPCB",05-03-2024 03:00:00,28.39072,77.30059,NH3,NA,NA,NA
India,Haryana,Faridabad,"Sector 11, Faridabad - HSPCB",05-03-2024 03:00:00,28.376058,77.315741,NO2,30,32,31
India,Haryana,Fatehabad,"Huda Sector, Fatehabad - HSPCB",05-03-2024 03:00:00,29.503664,75.467934,NO2,28,31,30
India,Haryana,Gurugram,"Teri Gram, Gurugram - HSPCB",05-03-2024 03:00:00,28.4275,77.1465,PM2.5,98,306,233
India,Haryana,Gurugram,"Teri Gram, Gurugram - HSPCB",05-03-2024 03:00:00,28.4275,77.1465,SO2,4,4,4
India,Haryana,Gurugram,"Vikas Sadan, Gurugram - HSPCB",05-03-2024 03:00:00,28.4501238,77.0263051,SO2,30,47,40
India,Haryana,Jind,"Police Lines, Jind - HSPCB",05-03-2024 03:00:00,29.307814,76.337619,NO2,6,15,11
India,Haryana,Kaithal,"Rishi Nagar, Kaithal - HSPCB",05-03-2024 03:00:00,29.8006,76.4155,SO2,12,47,27
India,Haryana,Karnal,"Sector-12, Karnal - HSPCB",05-03-2024 03:00:00,29.695300,77.002700,SO2,12,13,12
India,Haryana,Kurukshetra,"Sector-7, Kurukshetra - HSPCB",05-03-2024 03:00:00,29.966942,76.875879,PM2.5,37,70,50
India,Haryana,Kurukshetra,"Sector-7, Kurukshetra - HSPCB",05-03-2024 03:00:00,29.966942,76.875879,CO,1,34,9
India,Haryana,Manesar,"Sector-2 IMT, Manesar - HSPCB",05-03-2024 03:00:00,28.360699,76.936090,CO,6,41,14
India,Haryana,Narnaul,"Shastri Nagar, Narnaul - HSPCB",05-03-2024 03:00:00,28.060249,76.113115,PM2.5,15,81,37
India,Haryana,Narnaul,"Shastri Nagar, Narnaul - HSPCB",05-03-2024 03:00:00,28.060249,76.113115,PM10,18,97,44
India,Haryana,Narnaul,"Shastri Nagar, Narnaul - HSPCB",05-03-2024 03:00:00,28.060249,76.113115,NO2,16,58,35
India,Haryana,Narnaul,"Shastri Nagar, Narnaul - HSPCB",05-03-2024 03:00:00,28.060249,76.113115,NH3,5,18,11
India,Haryana,Narnaul,"Shastri Nagar, Narnaul - HSPCB",05-03-2024 03:00:00,28.060249,76.113115,OZONE,31,62,48
India,Haryana,Palwal,"Shyam Nagar, Palwal - HSPCB",05-03-2024 03:00:00,28.1485564,77.3320667,NO2,23,24,24
India,Haryana,Palwal,"Shyam Nagar, Palwal - HSPCB",05-03-2024 03:00:00,28.1485564,77.3320667,CO,21,32,27
India,Haryana,Panipat,"Sector-18, Panipat - HSPCB",05-03-2024 03:00:00,29.497973,76.993331,NH3,2,3,3
India,Haryana,Panipat,"Sector-18, Panipat - HSPCB",05-03-2024 03:00:00,29.497973,76.993331,SO2,18,19,19
India,Haryana,Rohtak,"MD University, Rohtak - HSPCB",05-03-2024 03:00:00,28.52123,76.37138,PM2.5,NA,NA,NA
India,Haryana,Rohtak,"MD University, Rohtak - HSPCB",05-03-2024 03:00:00,28.52123,76.37138,OZONE,43,52,50
India,Haryana,Yamuna Nagar,"Gobind Pura, Yamuna Nagar - HSPCB",05-03-2024 03:00:00,30.1480566,77.2893471,PM10,52,121,77
India,Haryana,Yamuna Nagar,"Gobind Pura, Yamuna Nagar - HSPCB",05-03-2024 03:00:00,30.1480566,77.2893471,NO2,11,29,18
India,Haryana,Yamuna Nagar,"Gobind Pura, Yamuna Nagar - HSPCB",05-03-2024 03:00:00,30.1480566,77.2893471,CO,27,101,44
India,Himachal Pradesh,Baddi,"HIMUDA Complex Phase-1, Baddi - HPPCB",05-03-2024 03:00:00,30.943887,76.801991,PM10,58,191,108
India,Jharkhand,Pathardih,"Mohalbani Ghat, Pathardih - DMC",05-03-2024 03:00:00,23.669880,86.411725,OZONE,8,25,12
India,Karnataka,Belgaum,"Ramteerth Nagar, Belgaum - KSPCB",05-03-2024 03:00:00,15.888653,74.541751,PM2.5,20,82,36
India,Karnataka,Belgaum,"Ramteerth Nagar, Belgaum - KSPCB",05-03-2024 03:00:00,15.888653,74.541751,NH3,33,34,34
India,Karnataka,Belgaum,"Ramteerth Nagar, Belgaum - KSPCB",05-03-2024 03:00:00,15.888653,74.541751,CO,44,61,51
India,Karnataka,Belgaum,"Ramteerth Nagar, Belgaum - KSPCB",05-03-2024 03:00:00,15.888653,74.541751,OZONE,19,20,19
India,Karnataka,Bengaluru,"BTM Layout, Bengaluru - CPCB",05-03-2024 03:00:00,12.9135218,77.5950804,PM10,NA,NA,NA
India,Karnataka,Bengaluru,"BTM Layout, Bengaluru - CPCB",05-03-2024 03:00:00,12.9135218,77.5950804,NH3,NA,NA,NA
India,Karnataka,Bengaluru,"BTM Layout, Bengaluru - CPCB",05-03-2024 03:00:00,12.9135218,77.5950804,SO2,NA,NA,NA
India,Karnataka,Bengaluru,"Bapuji Nagar, Bengaluru - KSPCB",05-03-2024 03:00:00,12.951913,77.539784,PM10,66,155,104
India,Karnataka,Bengaluru,"Bapuji Nagar, Bengaluru - KSPCB",05-03-2024 03:00:00,12.951913,77.539784,NH3,1,1,1
India,Karnataka,Bengaluru,"Jayanagar 5th Block, Bengaluru - KSPCB",05-03-2024 03:00:00,12.920984,77.584908,NH3,3,6,4
India,Karnataka,Bengaluru,"Kasturi Nagar, Bengaluru - KSPCB",05-03-2024 03:00:00,13.003872,77.664217,PM10,122,172,142
India,Karnataka,Bengaluru,"Kasturi Nagar, Bengaluru - KSPCB",05-03-2024 03:00:00,13.003872,77.664217,SO2,10,10,10
India,Karnataka,Bengaluru,"Peenya, Bengaluru - CPCB",05-03-2024 03:00:00,13.0270199,77.494094,CO,10,68,33
India,Karnataka,Bengaluru,"Sanegurava Halli, Bengaluru - KSPCB",05-03-2024 03:00:00,12.990328,77.5431385,CO,2,80,16
India,Karnataka,Bengaluru,"Shivapura_Peenya, Bengaluru - KSPCB",05-03-2024 03:00:00,13.0246342,77.5080115,PM2.5,19,178,65
India,Karnataka,Bengaluru,"Shivapura_Peenya, Bengaluru - KSPCB",05-03-2024 03:00:00,13.0246342,77.5080115,NO2,15,16,16
India,Karnataka,Bengaluru,"Shivapura_Peenya, Bengaluru - KSPCB",05-03-2024 03:00:00,13.0246342,77.5080115,OZONE,53,55,54
India,Karnataka,Bengaluru,"Silk Board, Bengaluru - KSPCB",05-03-2024 03:00:00,12.917348,77.622813,OZONE,28,31,31
India,Karnataka,Chamarajanagar,"Urban, Chamarajanagar - KSPCB",05-03-2024 03:00:00,11.55358,76.55521,OZONE,15,56,21
India,Karnataka,Davanagere,"Devaraj Urs Badavane, Davanagere - KSPCB",05-03-2024 03:00:00,14.475800,75.905200,PM2.5,28,115,52
India,Karnataka,Davanagere,"Devaraj Urs Badavane, Davanagere - KSPCB",05-03-2024 03:00:00,14.475800,75.905200,NO2,11,16,13
India,Karnataka,Davanagere,"Devaraj Urs Badavane, Davanagere - KSPCB",05-03-2024 03:00:00,14.475800,75.905200,NH3,1,1,1
India,Karnataka,Davanagere,"Devaraj Urs Badavane, Davanagere - KSPCB",05-03-2024 03:00:00,14.475800,75.905200,OZONE,19,27,23
India,Karnataka,Dharwad,"Kalabhavan, Dharwad - KSPCB",05-03-2024 03:00:00,15.459706,75.008381,NH3,3,3,3
India,Karnataka,Gadag,"Panchal Nagar, Gadag - KSPCB",05-03-2024 03:00:00,15.411456,75.638133,PM10,32,55,39
India,Karnataka,Hassan,"B.Katihalli, Hassan - KSPCB",05-03-2024 03:00:00,13.008556,76.125258,NH3,NA,NA,NA
India,Karnataka,Hubballi,"Deshpande Nagar, Hubballi - KSPCB",05-03-2024 03:00:00,15.351773,75.140726,PM10,38,107,72
India,Karnataka,Kalaburagi,"Lal Bahadur Shastri Nagar, Kalaburagi - KSPCB",05-03-2024 03:00:00,17.321993,76.822628,NO2,10,12,11
India,Karnataka,Kalaburagi,"Mahatma Basaveswar Colony, Kalaburgi - KSPCB",05-03-2024 03:00:00,17.336318,76.847397,SO2,4,10,6
India,Karnataka,Karwar,"KHB Colony, Karwar - KSPCB",05-03-2024 03:00:00,14.816666,74.141003,PM2.5,23,110,45
India,Karnataka,Karwar,"KHB Colony, Karwar - KSPCB",05-03-2024 03:00:00,14.816666,74.141003,PM10,29,113,52
India,Karnataka,Karwar,"KHB Colony, Karwar - KSPCB",05-03-2024 03:00:00,14.816666,74.141003,CO,7,8,7
India,Karnataka,Koppal,"Diwator Nagar, Koppal - KSPCB",05-03-2024 03:00:00,15.347630,76.181767,PM2.5,20,65,30
India,Karnataka,Koppal,"Diwator Nagar, Koppal - KSPCB",05-03-2024 03:00:00,15.347630,76.181767,NO2,3,23,11
India,Karnataka,Madikeri,"Stuart Hill, Madikeri - KSPCB",05-03-2024 03:00:00,12.415911,75.735050,PM2.5,32,56,41
India,Karnataka,Madikeri,"Stuart Hill, Madikeri - KSPCB",05-03-2024 03:00:00,12.415911,75.735050,PM10,30,60,43
India,Karnataka,Madikeri,"Stuart Hill, Madikeri - KSPCB",05-03-2024 03:00:00,12.415911,75.735050,NO2,3,8,5
India,Karnataka,Mangalore,"Kadri, Mangalore - KSPCB",05-03-2024 03:00:00,12.889250,74.853000,PM2.5,25,50,37
India,Karnataka,Mangalore,"Kadri, Mangalore - KSPCB",05-03-2024 03:00:00,12.889250,74.853000,PM10,52,100,76
India,Karnataka,Mangalore,"Kadri, Mangalore - KSPCB",05-03-2024 03:00:00,12.889250,74.853000,CO,32,42,36
India,Karnataka,Mysuru,"Hebbal 1st Stage, Mysuru - KSPCB",05-03-2024 03:00:00,12.21041,76.37376,NO2,6,35,22
India,Karnataka,Raichur,"Haji Colony, Raichur - KSPCB",05-03-2024 03:00:00,16.208139,77.348417,PM10,62,221,117
India,Karnataka,Raichur,"Haji Colony, Raichur - KSPCB",05-03-2024 03:00:00,16.208139,77.348417,SO2,63,77,70
India,Karnataka,Raichur,"Haji Colony, Raichur - KSPCB",05-03-2024 03:00:00,16.208139,77.348417,CO,90,125,112
India,Karnataka,Raichur,"Haji Colony, Raichur - KSPCB",05-03-2024 03:00:00,16.208139,77.348417,OZONE,1,12,4
India,Karnataka,Ramanagara,"Vijay Nagar, Ramanagara - KSPCB",05-03-2024 03:00:00,12.733409,77.298051,NH3,1,1,1
India,Karnataka,Ramanagara,"Vijay Nagar, Ramanagara - KSPCB",05-03-2024 03:00:00,12.733409,77.298051,SO2,21,40,28
India,Karnataka,Shivamogga,"Vinoba Nagara, Shivamogga - KSPCB",05-03-2024 03:00:00,13.940000,75.555917,SO2,4,11,7
India,Karnataka,Udupi,"Brahmagiri, Udupi - KSPCB",05-03-2024 03:00:00,13.34194444,74.74694444,CO,44,48,44
India,Karnataka,Vijayapura,"Ibrahimpur, Vijayapura - KSPCB",05-03-2024 03:00:00,16.802639,75.722694,NO2,17,19,19
India,Karnataka,Vijayapura,"Ibrahimpur, Vijayapura - KSPCB",05-03-2024 03:00:00,16.802639,75.722694,SO2,3,39,19
India,Kerala,Eloor,"Udyogamandal, Eloor - Kerala PCB",05-03-2024 03:00:00,10.073232,76.302765,SO2,1,9,3
India,Kerala,Eloor,"Udyogamandal, Eloor - Kerala PCB",05-03-2024 03:00:00,10.073232,76.302765,OZONE,10,15,13
India,Kerala,Kannur,"Thavakkara, Kannur - Kerala PCB",05-03-2024 03:00:00,11.875000,75.373200,PM2.5,52,60,56
India,Kerala,Kannur,"Thavakkara, Kannur - Kerala PCB",05-03-2024 03:00:00,11.875000,75.373200,NH3,1,1,1
India,Kerala,Kochi,"Vyttila, Kochi - Kerala PCB",05-03-2024 03:00:00,9.969447,76.321186,NO2,1,2,1
India,Kerala,Kochi,"Vyttila, Kochi - Kerala PCB",05-03-2024 03:00:00,9.969447,76.321186,SO2,1,31,5
India,Kerala,Kollam,"Polayathode, Kollam - Kerala PCB",05-03-2024 03:00:00,8.8787,76.6073,SO2,1,19,4
India,Kerala,Thiruvananthapuram,"Kariavattom, Thiruvananthapuram - Kerala PCB",05-03-2024 03:00:00,8.563700,76.886500,NO2,8,10,9
India,Kerala,Thiruvananthapuram,"Kariavattom, Thiruvananthapuram - Kerala PCB",05-03-2024 03:00:00,8.563700,76.886500,NH3,1,1,1
India,Kerala,Thiruvananthapuram,"Kariavattom, Thiruvananthapuram - Kerala PCB",05-03-2024 03:00:00,8.563700,76.886500,CO,18,42,20
India,Kerala,Thiruvananthapuram,"Kariavattom, Thiruvananthapuram - Kerala PCB",05-03-2024 03:00:00,8.563700,76.886500,OZONE,27,30,29
India,Kerala,Thiruvananthapuram,"Plammoodu, Thiruvananthapuram - Kerala PCB",05-03-2024 03:00:00,8.5149093,76.9435879,PM10,58,83,68
India,Kerala,Thrissur,"Corporation Ground, Thrissur - Kerala PCB",05-03-2024 03:00:00,10.532400,76.215900,NH3,NA,NA,NA
India,Madhya Pradesh,Bhopal,"Idgah Hills, Bhopal - MPPCB",05-03-2024 03:00:00,23.264759,77.381568,PM2.5,15,67,32
India,Madhya Pradesh,Bhopal,"Paryavaran Parisar, Bhopal - MPPCB",05-03-2024 03:00:00,23.210494,77.425409,NH3,7,14,9
India,Madhya Pradesh,Bhopal,"Paryavaran Parisar, Bhopal - MPPCB",05-03-2024 03:00:00,23.210494,77.425409,CO,2,119,41
India,Madhya Pradesh,Bhopal,"T T Nagar, Bhopal - MPPCB",05-03-2024 03:00:00,23.233584,77.400574,NH3,3,7,6
India,Madhya Pradesh,Bhopal,"T T Nagar, Bhopal - MPPCB",05-03-2024 03:00:00,23.233584,77.400574,SO2,30,46,39
India,Madhya Pradesh,Bhopal,"T T Nagar, Bhopal - MPPCB",05-03-2024 03:00:00,23.233584,77.400574,CO,8,101,44
India,Madhya Pradesh,Dewas,"Bhopal Chauraha, Dewas - MPPCB",05-03-2024 03:00:00,22.9682591,76.064118,NO2,9,13,11
India,Madhya Pradesh,Gwalior,"City Center, Gwalior - MPPCB",05-03-2024 03:00:00,26.203442,78.193251,PM10,68,200,114
India,Madhya Pradesh,Gwalior,"Deen Dayal Nagar, Gwalior - MPPCB",05-03-2024 03:00:00,26.259242,78.216432,PM10,65,163,102
India,Madhya Pradesh,Gwalior,"Maharaj Bada, Gwalior - MPPCB",05-03-2024 03:00:00,26.200388,78.147714,PM10,76,245,138
India,Madhya Pradesh,Indore,"Maguda Nagar, Indore - IMC",05-03-2024 03:00:00,22.7524,75.8872,PM10,22,96,45
India,Madhya Pradesh,Indore,"Maguda Nagar, Indore - IMC",05-03-2024 03:00:00,22.7524,75.8872,SO2,9,23,14
India,Madhya Pradesh,Indore,"Maguda Nagar, Indore - IMC",05-03-2024 03:00:00,22.7524,75.8872,OZONE,36,47,38
India,Madhya Pradesh,Indore,"Regional Park, Indore - IMC",05-03-2024 03:00:00,22.6780,75.8559,NO2,NA,NA,NA
India,Madhya Pradesh,Indore,"Regional Park, Indore - IMC",05-03-2024 03:00:00,22.6780,75.8559,SO2,39,45,41
India,Madhya Pradesh,Indore,"Regional Park, Indore - IMC",05-03-2024 03:00:00,22.6780,75.8559,CO,15,56,39
India,Madhya Pradesh,Indore,"Regional Park, Indore - IMC",05-03-2024 03:00:00,22.6780,75.8559,OZONE,5,24,13
India,Madhya Pradesh,Jabalpur,"Govindh Bhavan Colony, Jabalpur - JMC",05-03-2024 03:00:00,23.163174,79.973061,NH3,6,10,8
India,Madhya Pradesh,Jabalpur,"Gupteshwar, Jabalpur - JMC",05-03-2024 03:00:00,23.142888,79.916147,NO2,5,103,22
India,Madhya Pradesh,Jabalpur,"Gupteshwar, Jabalpur - JMC",05-03-2024 03:00:00,23.142888,79.916147,SO2,2,12,7
India,Madhya Pradesh,Jabalpur,"Suhagi, Jabalpur - JMC",05-03-2024 03:00:00,23.218135,79.957770,NH3,5,5,5
India,Madhya Pradesh,Jabalpur,"Suhagi, Jabalpur - JMC",05-03-2024 03:00:00,23.218135,79.957770,OZONE,11,111,23
India,Madhya Pradesh,Katni,"Gole Bazar, Katni - MPPCB",05-03-2024 03:00:00,23.50016,80.23284,NH3,2,4,3
India,Madhya Pradesh,Mandideep,"Sector-D Industrial Area, Mandideep - MPPCB",05-03-2024 03:00:00,23.108440,77.511428,PM2.5,27,161,77
India,Madhya Pradesh,Mandideep,"Sector-D Industrial Area, Mandideep - MPPCB",05-03-2024 03:00:00,23.108440,77.511428,SO2,5,126,62
India,Madhya Pradesh,Pithampur,"Sector-2 Industrial Area, Pithampur - MPPCB",05-03-2024 03:00:00,22.624758,75.675238,NH3,4,7,5
India,Madhya Pradesh,Pithampur,"Sector-2 Industrial Area, Pithampur - MPPCB",05-03-2024 03:00:00,22.624758,75.675238,CO,52,74,64
India,Madhya Pradesh,Pithampur,"Sector-2 Industrial Area, Pithampur - MPPCB",05-03-2024 03:00:00,22.624758,75.675238,OZONE,27,58,44
India,Madhya Pradesh,Sagar,"Civil Lines, Sagar - MPPCB",05-03-2024 03:00:00,23.838586,78.759431,CO,10,22,17
India,Madhya Pradesh,Sagar,"Deen Dayal Nagar, Sagar - MPPCB",05-03-2024 03:00:00,23.8640158,78.80289321,PM2.5,6,29,16
India,Madhya Pradesh,Singrauli,"Suryakiran Bhawan NCL, Singrauli - MPPCB",05-03-2024 03:00:00,24.108970,82.645580,OZONE,11,56,28
India,Madhya Pradesh,Ujjain,"Mahakaleshwar Temple, Ujjain - MPPCB",05-03-2024 03:00:00,23.182719 ,75.768218 ,PM10,31,122,68
India,Maharashtra,Akola,"Ramdaspeth, Akola - MPCB",05-03-2024 03:00:00,20.719516,77.000253,NO2,11,44,22
India,Maharashtra,Akola,"Ramdaspeth, Akola - MPCB",05-03-2024 03:00:00,20.719516,77.000253,NH3,3,8,5
India,Maharashtra,Amravati,"Shivneri Colony, Amravati - MPCB",05-03-2024 03:00:00,20.9402359,77.7895248,SO2,1,14,4
India,Maharashtra,Amravati,"Shivneri Colony, Amravati - MPCB",05-03-2024 03:00:00,20.9402359,77.7895248,CO,10,40,23
India,Maharashtra,Amravati,"Shivneri Colony, Amravati - MPCB",05-03-2024 03:00:00,20.9402359,77.7895248,OZONE,34,121,60
India,Maharashtra,Amravati,"Shri Shivaji Science College, Amaravati - MPCB",05-03-2024 03:00:00,20.939198,77.765701,PM2.5,41,74,52
India,Maharashtra,Amravati,"Shri Shivaji Science College, Amaravati - MPCB",05-03-2024 03:00:00,20.939198,77.765701,PM10,53,95,66
India,Maharashtra,Aurangabad,"MIDC Chilkalthana, Aurangabad - MPCB",05-03-2024 03:00:00,19.875620,75.387310,PM2.5,26,111,65
India,Maharashtra,Aurangabad,"MIDC Chilkalthana, Aurangabad - MPCB",05-03-2024 03:00:00,19.875620,75.387310,NH3,3,4,4
India,Maharashtra,Aurangabad,"More Chowk Waluj, Aurangabad - MPCB",05-03-2024 03:00:00,19.8389439,75.244448,SO2,10,12,11
India,Maharashtra,Aurangabad,"Rachnakar Colony, Aurangabad - MPCB",05-03-2024 03:00:00,19.863756,75.321188,NO2,14,58,27
India,Maharashtra,Badlapur,"Katrap, Badlapur - MPCB",05-03-2024 03:00:00,19.16485,73.23409,NO2,4,33,14
India,Maharashtra,Belapur,"CBD Belapur, Belapur - MPCB",05-03-2024 03:00:00,19.0243902,73.0406721,OZONE,6,109,25
India,Maharashtra,Bhiwandi,"Gokul Nagar, Bhiwandi - MPCB",05-03-2024 03:00:00,19.309073,73.057223,NO2,13,74,37
India,Maharashtra,Bhiwandi,"Gokul Nagar, Bhiwandi - MPCB",05-03-2024 03:00:00,19.309073,73.057223,OZONE,3,54,29
India,Maharashtra,Boisar,"Khaira, Boisar - MPCB",05-03-2024 03:00:00,19.786089,72.757971,SO2,NA,NA,NA
India,Maharashtra,Chandrapur,"Chauhan Colony, Chandrapur - MPCB",05-03-2024 03:00:00,19.962900,79.298714,PM2.5,60,103,81
India,Maharashtra,Dhule,"Deopur, Dhule - MPCB",05-03-2024 03:00:00,20.918946,74.776388,SO2,2,29,13
India,Maharashtra,Jalgaon,"Prabhat Colony, Jalgaon - MPCB",05-03-2024 03:00:00,21.001264,75.565602,PM2.5,39,300,113
India,Maharashtra,Jalna,"Old MIDC, Jalna - MPCB",05-03-2024 03:00:00,19.854616,75.905894,PM10,35,115,73
India,Maharashtra,Kalyan,"Khadakpada, Kalyan - MPCB",05-03-2024 03:00:00,19.25292,73.142019,CO,12,27,22
India,Maharashtra,Kolhapur,"Shivaji University, Kolhapur - MPCB",05-03-2024 03:00:00,16.6870449,74.2505872,NO2,6,64,43
India,Maharashtra,Kolhapur,"Sinchan Bhavan, Kolhapur - MPCB",05-03-2024 03:00:00,16.7143745,74.2426398,PM10,33,108,72
India,Maharashtra,Kolhapur,"Sinchan Bhavan, Kolhapur - MPCB",05-03-2024 03:00:00,16.7143745,74.2426398,NO2,11,40,26
India,Maharashtra,Latur,"Sawe Wadi, Latur - MPCB",05-03-2024 03:00:00,18.39963,76.57452,PM10,47,83,61
India,Maharashtra,Mahad,"Kamble Tarf Birwadi, Mahad - MPCB",05-03-2024 03:00:00,18.1023399,73.4783687,OZONE,2,87,48
India,Maharashtra,Mira-Bhayandar,"Bhayandar West, Mira-Bhayandar - MPCB",05-03-2024 03:00:00,19.296481,72.840923,NO2,11,71,21
India,Maharashtra,Mumbai,"Borivali East, Mumbai - IITM",05-03-2024 03:00:00,19.23241,72.86895,NH3,3,7,4
India,Maharashtra,Mumbai,"Borivali East, Mumbai - IITM",05-03-2024 03:00:00,19.23241,72.86895,CO,14,52,36
India,Maharashtra,Mumbai,"Borivali East, Mumbai - MPCB",05-03-2024 03:00:00,19.2243333,72.8658113,PM2.5,7,72,25
India,Maharashtra,Mumbai,"Borivali East, Mumbai - MPCB",05-03-2024 03:00:00,19.2243333,72.8658113,PM10,8,64,39
India,Maharashtra,Mumbai,"Colaba, Mumbai - MPCB",05-03-2024 03:00:00,18.910000,72.820000,CO,10,14,12
India,Maharashtra,Mumbai,"Ghatkopar, Mumbai - BMC",05-03-2024 03:00:00,19.083694,72.920967,PM2.5,20,78,34
India,Maharashtra,Mumbai,"Kandivali East, Mumbai - MPCB",05-03-2024 03:00:00,19.205800,72.868200,PM10,24,150,65
India,Maharashtra,Mumbai,"Kherwadi_Bandra East, Mumbai - MPCB",05-03-2024 03:00:00,19.0632143,72.8456324,PM2.5,20,87,37
India,Maharashtra,Mumbai,"Kherwadi_Bandra East, Mumbai - MPCB",05-03-2024 03:00:00,19.0632143,72.8456324,PM10,48,102,66
India,Maharashtra,Mumbai,"Kurla, Mumbai - MPCB",05-03-2024 03:00:00,19.0863,72.8888,PM2.5,15,155,60
India,Maharashtra,Mumbai,"Kurla, Mumbai - MPCB",05-03-2024 03:00:00,19.0863,72.8888,CO,2,24,18
India,Maharashtra,Mumbai,"Mazgaon, Mumbai - IITM",05-03-2024 03:00:00,18.96702,72.84214,PM10,36,100,73
India,Maharashtra,Mumbai,"Mazgaon, Mumbai - IITM",05-03-2024 03:00:00,18.96702,72.84214,CO,24,60,41
India,Maharashtra,Mumbai,"Mazgaon, Mumbai - IITM",05-03-2024 03:00:00,18.96702,72.84214,OZONE,22,127,94
India,Maharashtra,Mumbai,"Mulund West, Mumbai - MPCB",05-03-2024 03:00:00,19.1750,72.9419,NO2,22,25,24
India,Maharashtra,Mumbai,"Navy Nagar-Colaba, Mumbai - IITM",05-03-2024 03:00:00,18.897756,72.813320,PM10,45,79,58
India,Maharashtra,Mumbai,"Navy Nagar-Colaba, Mumbai - IITM",05-03-2024 03:00:00,18.897756,72.813320,OZONE,23,105,81
India,Maharashtra,Mumbai,"Powai, Mumbai - MPCB",05-03-2024 03:00:00,19.137500,72.915056,NO2,17,33,23
India,Maharashtra,Mumbai,"Sewri, Mumbai - BMC",05-03-2024 03:00:00,19.000084,72.856730,PM10,29,77,56
India,Maharashtra,Mumbai,"Sewri, Mumbai - BMC",05-03-2024 03:00:00,19.000084,72.856730,NO2,30,73,49
India,Maharashtra,Mumbai,"Siddharth Nagar-Worli, Mumbai - IITM",05-03-2024 03:00:00,19.000083,72.813993,PM2.5,59,276,162
India,Maharashtra,Mumbai,"Siddharth Nagar-Worli, Mumbai - IITM",05-03-2024 03:00:00,19.000083,72.813993,NH3,3,5,4
India,Maharashtra,Mumbai,"Sion, Mumbai - MPCB",05-03-2024 03:00:00,19.047000,72.874600,SO2,33,37,35
India,Maharashtra,Mumbai,"Sion, Mumbai - MPCB",05-03-2024 03:00:00,19.047000,72.874600,OZONE,12,19,14
India,Maharashtra,Mumbai,"Vasai West, Mumbai - MPCB",05-03-2024 03:00:00,19.383200,72.820400,PM2.5,7,170,47
India,Maharashtra,Mumbai,"Vasai West, Mumbai - MPCB",05-03-2024 03:00:00,19.383200,72.820400,NH3,4,4,4
India,Maharashtra,Mumbai,"Vasai West, Mumbai - MPCB",05-03-2024 03:00:00,19.383200,72.820400,SO2,16,27,21
India,Maharashtra,Mumbai,"Vile Parle West, Mumbai - MPCB",05-03-2024 03:00:00,19.10861,72.83622,SO2,13,14,13
India,Maharashtra,Mumbai,"Worli, Mumbai - MPCB",05-03-2024 03:00:00,18.9936162,72.8128113,CO,29,31,30
India,Maharashtra,Nagpur,"Ambazari, Nagpur - MPCB",05-03-2024 03:00:00,21.121801,79.04952,PM2.5,33,97,59
India,Maharashtra,Nagpur,"Ambazari, Nagpur - MPCB",05-03-2024 03:00:00,21.121801,79.04952,PM10,46,131,79
India,Maharashtra,Nagpur,"Mahal, Nagpur - MPCB",05-03-2024 03:00:00,21.14472,79.107595,SO2,32,106,61
India,Maharashtra,Nagpur,"Ram Nagar, Nagpur - MPCB",05-03-2024 03:00:00,21.143383,79.048912,PM2.5,24,85,52
India,Maharashtra,Nagpur,"Ram Nagar, Nagpur - MPCB",05-03-2024 03:00:00,21.143383,79.048912,NH3,2,13,4
India,Maharashtra,Nashik,"Gangapur Road, Nashik - MPCB",05-03-2024 03:00:00,20.0073285,73.7762427,PM2.5,22,70,47
India,Maharashtra,Nashik,"Gangapur Road, Nashik - MPCB",05-03-2024 03:00:00,20.0073285,73.7762427,NO2,13,14,13
India,Maharashtra,Nashik,"Hirawadi, Nashik - MPCB",05-03-2024 03:00:00,20.021503,73.813844,NO2,4,95,31
India,Maharashtra,Nashik,"Hirawadi, Nashik - MPCB",05-03-2024 03:00:00,20.021503,73.813844,SO2,1,6,4
India,Maharashtra,Nashik,"Hirawadi, Nashik - MPCB",05-03-2024 03:00:00,20.021503,73.813844,CO,1,53,29
India,Maharashtra,Nashik,"MIDC Ambad, Nashik - MPCB",05-03-2024 03:00:00,19.950220,73.731480,PM2.5,19,82,42
India,Maharashtra,Nashik,"MIDC Ambad, Nashik - MPCB",05-03-2024 03:00:00,19.950220,73.731480,PM10,25,65,44
India,Maharashtra,Nashik,"MIDC Ambad, Nashik - MPCB",05-03-2024 03:00:00,19.950220,73.731480,OZONE,27,74,43
India,Maharashtra,Navi Mumbai,"Kopripada-Vashi, Navi Mumbai - MPCB",05-03-2024 03:00:00,19.090337,73.014232,CO,8,69,38
India,Maharashtra,Navi Mumbai,"Kopripada-Vashi, Navi Mumbai - MPCB",05-03-2024 03:00:00,19.090337,73.014232,OZONE,10,79,32
India,Maharashtra,Navi Mumbai,"Mahape, Navi Mumbai - MPCB",05-03-2024 03:00:00,19.1135051,73.008978,PM10,49,236,101
India,Maharashtra,Navi Mumbai,"Mahape, Navi Mumbai - MPCB",05-03-2024 03:00:00,19.1135051,73.008978,OZONE,15,50,39
India,Maharashtra,Navi Mumbai,"Sanpada, Navi Mumbai - MPCB",05-03-2024 03:00:00,19.0575752,73.0151367,SO2,4,50,14
India,Maharashtra,Navi Mumbai,"Sector-19A Nerul, Navi Mumbai - IITM",05-03-2024 03:00:00,19.044,73.0325,NO2,22,67,40
India,Maharashtra,Navi Mumbai,"Sector-19A Nerul, Navi Mumbai - IITM",05-03-2024 03:00:00,19.044,73.0325,CO,2,50,30
India,Maharashtra,Navi Mumbai,"Sector-2E Kalamboli, Navi Mumbai - MPCB",05-03-2024 03:00:00,19.02579,73.10297,CO,9,45,32
India,Maharashtra,Navi Mumbai,"Tondare-Taloja, Navi Mumbai - MPCB",05-03-2024 03:00:00,19.0630,73.1209,NH3,1,10,5
India,Maharashtra,Navi Mumbai,"Tondare-Taloja, Navi Mumbai - MPCB",05-03-2024 03:00:00,19.0630,73.1209,CO,4,40,29
India,Maharashtra,Pimpri-Chinchwad,"Gavalinagar, Pimpri Chinchwad - MPCB",05-03-2024 03:00:00,18.63673,73.82487,CO,6,74,40
India,Maharashtra,Pimpri-Chinchwad,"Thergaon, Pimpri Chinchwad - MPCB",05-03-2024 03:00:00,18.616318,73.765797,CO,8,58,40
India,Maharashtra,Pimpri-Chinchwad,"Thergaon, Pimpri Chinchwad - MPCB",05-03-2024 03:00:00,18.616318,73.765797,OZONE,1,105,50
India,Maharashtra,Pune,"Karve Road, Pune - MPCB",05-03-2024 03:00:00,18.5011743,73.8165527,SO2,4,41,17
India,Maharashtra,Pune,"Katraj Dairy, Pune - MPCB",05-03-2024 03:00:00,18.454450,73.854155,PM2.5,27,157,63
India,Maharashtra,Pune,"Katraj Dairy, Pune - MPCB",05-03-2024 03:00:00,18.454450,73.854155,NO2,17,21,19
India,Maharashtra,Pune,"Mhada Colony, Pune - IITM",05-03-2024 03:00:00,18.573040,73.927715,NO2,4,20,13
India,Maharashtra,Pune,"Revenue Colony-Shivajinagar, Pune - IITM",05-03-2024 03:00:00,18.530085,73.849598,PM10,34,117,75
India,Maharashtra,Pune,"Revenue Colony-Shivajinagar, Pune - IITM",05-03-2024 03:00:00,18.530085,73.849598,NO2,75,225,142
India,Maharashtra,Pune,"Revenue Colony-Shivajinagar, Pune - IITM",05-03-2024 03:00:00,18.530085,73.849598,SO2,62,133,101
India,Maharashtra,Pune,"Transport Nagar-Nigdi, Pune - IITM",05-03-2024 03:00:00,18.664282,73.763966,OZONE,1,45,34
India,Maharashtra,Solapur,"Dnyaneshwar Nagar, Solapur - MPCB",05-03-2024 03:00:00,17.6336264,75.9132495,OZONE,12,82,35
India,Maharashtra,Solapur,"Ratandeep Housing Society, Solapur - MPCB",05-03-2024 03:00:00,17.65439,75.90649,PM2.5,54,241,83
India,Maharashtra,Solapur,"Solapur, Solapur - MPCB",05-03-2024 03:00:00,17.6599188,75.9063906,OZONE,34,75,50
India,Maharashtra,Thane,"Kasarvadavali, Thane - MPCB",05-03-2024 03:00:00,19.26777,72.97182,PM10,35,90,55
India,Maharashtra,Thane,"Kasarvadavali, Thane - MPCB",05-03-2024 03:00:00,19.26777,72.97182,OZONE,6,94,42
India,Maharashtra,Thane,"Pimpleshwar Mandir, Thane - MPCB",05-03-2024 03:00:00,19.192056,72.9585188,OZONE,2,49,13
India,Maharashtra,Thane,"Upvan Fort, Thane - MPCB",05-03-2024 03:00:00,19.222279,72.957979,NH3,NA,NA,NA
India,Maharashtra,Thane,"Upvan Fort, Thane - MPCB",05-03-2024 03:00:00,19.222279,72.957979,SO2,NA,NA,NA
India,Maharashtra,Ulhasnagar,"Sidhi Vinayak Nagar, Ulhasnagar - MPCB",05-03-2024 03:00:00,19.235581,73.159121,PM10,47,113,78
India,Maharashtra,Ulhasnagar,"Sidhi Vinayak Nagar, Ulhasnagar - MPCB",05-03-2024 03:00:00,19.235581,73.159121,OZONE,9,71,40
India,Maharashtra,Virar,"Bolinj, Virar - MPCB",05-03-2024 03:00:00,19.4458210,72.7988231,PM2.5,44,95,63
India,Maharashtra,Virar,"Bolinj, Virar - MPCB",05-03-2024 03:00:00,19.4458210,72.7988231,NH3,5,8,6
India,Manipur,Imphal,"DM College of Science, Imphal - Manipur PCB",05-03-2024 03:00:00,24.8207389,93.9423085,NO2,7,8,8
India,Manipur,Imphal,"DM College of Science, Imphal - Manipur PCB",05-03-2024 03:00:00,24.8207389,93.9423085,NH3,2,2,2
India,Manipur,Imphal,"Manipur University, Imphal - Manipur PCB",05-03-2024 03:00:00,24.7524239,93.9286218,SO2,71,73,72
India,Meghalaya,Shillong,"Lumpyngngad, Shillong - Meghalaya PCB",05-03-2024 03:00:00,25.5586,91.8985,OZONE,49,102,84
India,Mizoram,Aizawl,"Sikulpuikawn, Aizawl - Mizoram PCB",05-03-2024 03:00:00,23.7176342,92.7192841,PM10,31,115,75
India,Mizoram,Aizawl,"Sikulpuikawn, Aizawl - Mizoram PCB",05-03-2024 03:00:00,23.7176342,92.7192841,SO2,2,2,2
India,Nagaland,Kohima,"PWD Juction, Kohima - NPCB",05-03-2024 03:00:00,25.6635413,94.0989878,OZONE,13,47,18
India,Odisha,Angul,"Hakimapada, Angul - OSPCB",05-03-2024 03:00:00,20.832874,85.104082,CO,24,121,60
India,Odisha,Angul,"Hakimapada, Angul - OSPCB",05-03-2024 03:00:00,20.832874,85.104082,OZONE,15,133,49
India,Odisha,Baripada,"Meher Colony, Baripada - OSPCB",05-03-2024 03:00:00,21.941841,86.728318,PM2.5,141,221,183
India,Odisha,Bhubaneswar,"Lingraj Mandir, Bhubaneswar - OSPCB",05-03-2024 03:00:00,20.240790,85.836784,SO2,2,5,3
India,Odisha,Bhubaneswar,"Patia, Bhubaneswar - OSPCB",05-03-2024 03:00:00,20.34652,85.81630,PM10,69,116,95
India,Odisha,Bhubaneswar,"Patia, Bhubaneswar - OSPCB",05-03-2024 03:00:00,20.34652,85.81630,NO2,2,11,8
India,Odisha,Bhubaneswar,"Patia, Bhubaneswar - OSPCB",05-03-2024 03:00:00,20.34652,85.81630,NH3,2,6,3
India,Odisha,Bhubaneswar,"Patia, Bhubaneswar - OSPCB",05-03-2024 03:00:00,20.34652,85.81630,OZONE,27,79,37
India,Odisha,Bileipada,"Tata Township, Bileipada - OSPCB",05-03-2024 03:00:00,22.06156703,85.47409613,PM10,123,235,155
India,Odisha,Brajrajnagar,"GM Office, Brajrajnagar - OSPCB",05-03-2024 03:00:00,21.8004996,83.8396977,NO2,16,27,18
India,Odisha,Brajrajnagar,"GM Office, Brajrajnagar - OSPCB",05-03-2024 03:00:00,21.8004996,83.8396977,OZONE,19,21,20
India,Odisha,Byasanagar,"Ferro Chrome Colony, Byasanagar - OSPCB",05-03-2024 03:00:00,20.94185,86.11510,PM10,21,121,74
India,Odisha,Byasanagar,"Ferro Chrome Colony, Byasanagar - OSPCB",05-03-2024 03:00:00,20.94185,86.11510,CO,74,124,100
India,Odisha,Byasanagar,"Ferro Chrome Colony, Byasanagar - OSPCB",05-03-2024 03:00:00,20.94185,86.11510,OZONE,17,98,37
India,Odisha,Cuttack,"CDA Area, Cuttack - OSPCB",05-03-2024 03:00:00,20.48891     ,85.84768     ,PM2.5,45,72,59
India,Odisha,Cuttack,"CDA Area, Cuttack - OSPCB",05-03-2024 03:00:00,20.48891     ,85.84768     ,PM10,63,95,78
India,Odisha,Nayagarh,"Dabuna, Nayagarh - OSPCB",05-03-2024 03:00:00,21.847279,85.416905,OZONE,NA,NA,NA
India,Odisha,Rourkela,"Fertilizer Township, Rourkela - OSPCB",05-03-2024 03:00:00,22.18972222,84.86277778,CO,NA,NA,NA
India,Odisha,Rourkela,"Raghunathpali, Rourkela - OSPCB",05-03-2024 03:00:00,22.220833,84.809444,NO2,NA,NA,NA
India,Odisha,Rourkela,"Raghunathpali, Rourkela - OSPCB",05-03-2024 03:00:00,22.220833,84.809444,SO2,2,17,7
India,Odisha,Rourkela,"Sector-2, Rourkela - OSPCB",05-03-2024 03:00:00,22.24500000,84.88111111,PM10,28,145,112
India,Odisha,Rourkela,"Sector-2, Rourkela - OSPCB",05-03-2024 03:00:00,22.24500000,84.88111111,CO,24,47,36
India,Odisha,Suakati,"OMC Colony, Suakati - OSPCB",05-03-2024 03:00:00,21.606865,85.510538,PM2.5,74,154,105
India,Odisha,Suakati,"OMC Colony, Suakati - OSPCB",05-03-2024 03:00:00,21.606865,85.510538,OZONE,16,151,39
India,Odisha,Talcher,"Talcher Coalfields,Talcher - OSPCB",05-03-2024 03:00:00,20.9360711,85.1707021,PM10,39,115,76
India,Odisha,Tensa,"Barsua Iron Ore Mines, Tensa - OSPCB",05-03-2024 03:00:00,21.869985,85.167016,NH3,6,8,7
India,Puducherry,Puducherry,"Jawahar Nagar, Puducherry - PPCC",05-03-2024 03:00:00,11.9309,79.8027,NH3,2,3,2
India,Punjab,Bathinda,"Hardev Nagar, Bathinda - PPCB",05-03-2024 03:00:00,30.233011,74.907758,SO2,1,77,21
India,Punjab,Jalandhar,"Civil Line, Jalandhar - PPCB",05-03-2024 03:00:00,31.321907,75.578914,PM10,24,45,34
India,Punjab,Ludhiana,"Punjab Agricultural University, Ludhiana - PPCB",05-03-2024 03:00:00,30.9028,75.8086,PM2.5,23,79,50
India,Punjab,Ludhiana,"Punjab Agricultural University, Ludhiana - PPCB",05-03-2024 03:00:00,30.9028,75.8086,SO2,7,15,10
India,Punjab,Ludhiana,"Punjab Agricultural University, Ludhiana - PPCB",05-03-2024 03:00:00,30.9028,75.8086,CO,6,70,36
India,Punjab,Mandi Gobindgarh,"RIMT University, Mandi Gobindgarh - PPCB",05-03-2024 03:00:00,30.649961,76.331442,PM2.5,37,348,166
India,Punjab,Mandi Gobindgarh,"RIMT University, Mandi Gobindgarh - PPCB",05-03-2024 03:00:00,30.649961,76.331442,NH3,2,2,2
India,Punjab,Mandi Gobindgarh,"RIMT University, Mandi Gobindgarh - PPCB",05-03-2024 03:00:00,30.649961,76.331442,OZONE,30,34,33
India,Punjab,Patiala,"Model Town, Patiala - PPCB",05-03-2024 03:00:00,30.349388,76.366642,PM10,52,116,67
India,Punjab,Patiala,"Model Town, Patiala - PPCB",05-03-2024 03:00:00,30.349388,76.366642,OZONE,9,78,24
India,Punjab,Rupnagar,"Ratanpura, Rupnagar - Ambuja Cements",05-03-2024 03:00:00,31.0325454,76.5623046,PM10,31,346,163
India,Rajasthan,Alwar,"Moti Doongri, Alwar - RSPCB",05-03-2024 03:00:00,27.554793,76.611536,PM2.5,18,54,38
India,Rajasthan,Alwar,"Moti Doongri, Alwar - RSPCB",05-03-2024 03:00:00,27.554793,76.611536,NO2,35,64,44
India,Rajasthan,Alwar,"Moti Doongri, Alwar - RSPCB",05-03-2024 03:00:00,27.554793,76.611536,NH3,4,11,6
India,Rajasthan,Banswara,"Rati Talai, Banswara - RSPCB",05-03-2024 03:00:00,23.555190,74.440010,NH3,5,8,6
India,Rajasthan,Baran,"Bamboliya, Baran - RSPCB",05-03-2024 03:00:00,25.106006,76.469948,NH3,2,18,6
India,Rajasthan,Bharatpur,"Krishna Nagar, Bharatpur - RSPCB",05-03-2024 03:00:00,27.215415,77.50873,NO2,21,110,44
India,Rajasthan,Bharatpur,"Krishna Nagar, Bharatpur - RSPCB",05-03-2024 03:00:00,27.215415,77.50873,CO,6,62,43
India,Rajasthan,Bhilwara,"Pratap Nagar, Bhilwara - RSPCB",05-03-2024 03:00:00,25.339605,74.618883,NH3,NA,NA,NA
India,Rajasthan,Bhilwara,"Pratap Nagar, Bhilwara - RSPCB",05-03-2024 03:00:00,25.339605,74.618883,SO2,NA,NA,NA
India,Rajasthan,Bhiwadi,"RIICO Ind. Area III, Bhiwadi - RSPCB",05-03-2024 03:00:00,28.194909,76.862296,PM2.5,73,296,172
India,Rajasthan,Bhiwadi,"RIICO Ind. Area III, Bhiwadi - RSPCB",05-03-2024 03:00:00,28.194909,76.862296,OZONE,1,30,3
India,Rajasthan,Bikaner,"MM Ground, Bikaner - RSPCB",05-03-2024 03:00:00,28.018792,73.292658,SO2,1,8,4
India,Rajasthan,Bundi,"New Colony, Bundi - RSPCB",05-03-2024 03:00:00,25.435774,75.644272,OZONE,20,130,52
India,Rajasthan,Chittorgarh,"Shastri Nagar, Chittorgarh - RSPCB",05-03-2024 03:00:00,24.892047,74.623527,NO2,13,111,46
India,Rajasthan,Chittorgarh,"Shastri Nagar, Chittorgarh - RSPCB",05-03-2024 03:00:00,24.892047,74.623527,SO2,1,92,20
India,Rajasthan,Chittorgarh,"Shastri Nagar, Chittorgarh - RSPCB",05-03-2024 03:00:00,24.892047,74.623527,OZONE,1,126,48
India,Rajasthan,Churu,"Subash Chowk, Churu - RSPCB",05-03-2024 03:00:00,28.296139,74.961696,CO,8,48,23
India,Rajasthan,Churu,"Subash Chowk, Churu - RSPCB",05-03-2024 03:00:00,28.296139,74.961696,OZONE,54,118,86
India,Rajasthan,Dausa,"Khatikan Mohalla, Dausa - RSPCB",05-03-2024 03:00:00,26.895552,76.334753,PM10,65,158,92
India,Rajasthan,Dausa,"Khatikan Mohalla, Dausa - RSPCB",05-03-2024 03:00:00,26.895552,76.334753,CO,60,104,75
India,Rajasthan,Dholpur,"Raja Ganj, Dholpur - RSPCB",05-03-2024 03:00:00,26.699557,77.898881,PM2.5,22,122,65
India,Rajasthan,Dholpur,"Raja Ganj, Dholpur - RSPCB",05-03-2024 03:00:00,26.699557,77.898881,NH3,8,14,11
India,Rajasthan,Dholpur,"Raja Ganj, Dholpur - RSPCB",05-03-2024 03:00:00,26.699557,77.898881,CO,9,35,23
India,Rajasthan,Dungarpur,"Bhoiwada, Dungarpur - RSPCB",05-03-2024 03:00:00,23.837789,73.714926,OZONE,12,71,35
India,Rajasthan,Hanumangarh,"Housing Board, Hanumangarh - RSPCB",05-03-2024 03:00:00,29.610750,74.283608,PM10,108,335,169
India,Rajasthan,Hanumangarh,"Housing Board, Hanumangarh - RSPCB",05-03-2024 03:00:00,29.610750,74.283608,NO2,20,105,43
India,Rajasthan,Hanumangarh,"Housing Board, Hanumangarh - RSPCB",05-03-2024 03:00:00,29.610750,74.283608,NH3,5,11,7
India,Rajasthan,Jaipur,"Adarsh Nagar, Jaipur - RSPCB",05-03-2024 03:00:00,26.902909,75.836858,PM10,39,111,66
India,Rajasthan,Jaipur,"Mansarovar Sector-12, Jaipur - RSPCB",05-03-2024 03:00:00,26.843698,75.766894,NO2,19,61,32
India,Rajasthan,Jaipur,"Mansarovar Sector-12, Jaipur - RSPCB",05-03-2024 03:00:00,26.843698,75.766894,SO2,3,6,4
India,Rajasthan,Jaipur,"Mansarovar Sector-12, Jaipur - RSPCB",05-03-2024 03:00:00,26.843698,75.766894,OZONE,6,23,11
India,Rajasthan,Jaipur,"Police Commissionerate, Jaipur - RSPCB",05-03-2024 03:00:00,26.9164092,75.7994901,PM2.5,28,93,51
India,Rajasthan,Jaipur,"RIICO Sitapura, Jaipur - RSPCB",05-03-2024 03:00:00,26.786682,75.827928,NO2,18,177,67
India,Rajasthan,Jaipur,"RIICO Sitapura, Jaipur - RSPCB",05-03-2024 03:00:00,26.786682,75.827928,CO,16,111,71
India,Rajasthan,Jaipur,"Shastri Nagar, Jaipur - RSPCB",05-03-2024 03:00:00,26.9502929,75.730943,SO2,11,32,18
India,Rajasthan,Jaipur,"Shastri Nagar, Jaipur - RSPCB",05-03-2024 03:00:00,26.9502929,75.730943,OZONE,15,50,31
India,Rajasthan,Jaisalmer,"Sadar Bazar, Jaisalmer - RSPCB",05-03-2024 03:00:00,26.912329,70.909168,SO2,4,10,5
India,Rajasthan,Jaisalmer,"Sadar Bazar, Jaisalmer - RSPCB",05-03-2024 03:00:00,26.912329,70.909168,OZONE,9,92,75
India,Rajasthan,Jalore,"Mudtra Sili, Jalore - RSPCB",05-03-2024 03:00:00,25.344694,72.626208,PM10,68,150,102
India,Rajasthan,Jalore,"Mudtra Sili, Jalore - RSPCB",05-03-2024 03:00:00,25.344694,72.626208,NH3,2,4,3
India,Rajasthan,Jalore,"Mudtra Sili, Jalore - RSPCB",05-03-2024 03:00:00,25.344694,72.626208,SO2,2,5,4
India,Rajasthan,Jodhpur,"Collectorate, Jodhpur - RSPCB",05-03-2024 03:00:00,26.268249,73.0193853,SO2,2,54,19
India,Rajasthan,Jodhpur,"Collectorate, Jodhpur - RSPCB",05-03-2024 03:00:00,26.268249,73.0193853,CO,24,90,52
India,Rajasthan,Jodhpur,"Digari Kalan, Jodhpur - RSPCB",05-03-2024 03:00:00,26.295810,73.082283,PM2.5,4,53,22
India,Rajasthan,Jodhpur,"Digari Kalan, Jodhpur - RSPCB",05-03-2024 03:00:00,26.295810,73.082283,SO2,2,10,5
India,Rajasthan,Jodhpur,"Jhalamand, Jodhpur - RSPCB",05-03-2024 03:00:00,26.215415,73.070156,PM10,53,159,82
India,Rajasthan,Jodhpur,"Jhalamand, Jodhpur - RSPCB",05-03-2024 03:00:00,26.215415,73.070156,OZONE,37,112,62
India,Rajasthan,Jodhpur,"Mandor, Jodhpur - RSPCB",05-03-2024 03:00:00,26.358805,73.047444,NO2,16,29,23
India,Rajasthan,Jodhpur,"Mandor, Jodhpur - RSPCB",05-03-2024 03:00:00,26.358805,73.047444,SO2,2,17,4
India,Rajasthan,Jodhpur,"Samrat Ashok Udhyan, Jodhpur - RSPCB",05-03-2024 03:00:00,26.253384,72.976571,PM10,70,130,92
India,Rajasthan,Jodhpur,"Samrat Ashok Udhyan, Jodhpur - RSPCB",05-03-2024 03:00:00,26.253384,72.976571,OZONE,51,143,78
India,Rajasthan,Kota,"Dhanmandi, Kota - RSPCB",05-03-2024 03:00:00,25.164090,75.858137,PM2.5,17,322,118
India,Rajasthan,Kota,"Dhanmandi, Kota - RSPCB",05-03-2024 03:00:00,25.164090,75.858137,NO2,38,145,79
India,Rajasthan,Kota,"Dhanmandi, Kota - RSPCB",05-03-2024 03:00:00,25.164090,75.858137,SO2,5,22,9
India,Rajasthan,Kota,"Dhanmandi, Kota - RSPCB",05-03-2024 03:00:00,25.164090,75.858137,CO,36,109,90
India,Rajasthan,Kota,"Nayapura, Kota - RSPCB",05-03-2024 03:00:00,25.196024,75.855668,NO2,23,112,56
India,Rajasthan,Kota,"Nayapura, Kota - RSPCB",05-03-2024 03:00:00,25.196024,75.855668,NH3,5,12,7
India,Rajasthan,Kota,"Shrinath Puram, Kota - RSPCB",05-03-2024 03:00:00,25.14389,75.821256,PM10,76,156,112
India,Rajasthan,Nagaur,"Karni Colony, Nagaur - RSPCB",05-03-2024 03:00:00,27.213494,73.734444,NH3,4,6,5
India,Rajasthan,Nagaur,"Karni Colony, Nagaur - RSPCB",05-03-2024 03:00:00,27.213494,73.734444,CO,14,29,20
India,Rajasthan,Pali,"Indira Colony Vistar, Pali - RSPCB",05-03-2024 03:00:00,25.771061, 73.340227,OZONE,29,82,48
India,Rajasthan,Pratapgarh,"Pragati Nagar, Pratapgarh - RSPCB",05-03-2024 03:00:00,24.041198,74.780702,NH3,2,5,4
India,Rajasthan,Rajsamand,"Dhoinda, Rajsamand - RSPCB",05-03-2024 03:00:00,25.036360,73.883502,PM2.5,8,100,38
India,Rajasthan,Sikar,"Radhakishan Pura, Sikar - RSPCB",05-03-2024 03:00:00,27.608912,75.153302,PM2.5,12,191,79
India,Rajasthan,Sikar,"Radhakishan Pura, Sikar - RSPCB",05-03-2024 03:00:00,27.608912,75.153302,SO2,4,8,5
India,Rajasthan,Sirohi,"Vedhaynath Colony, Sirohi - RSPCB",05-03-2024 03:00:00,24.885261,72.857549,PM2.5,12,137,44
India,Rajasthan,Sirohi,"Vedhaynath Colony, Sirohi - RSPCB",05-03-2024 03:00:00,24.885261,72.857549,NH3,3,8,5
India,Rajasthan,Sirohi,"Vedhaynath Colony, Sirohi - RSPCB",05-03-2024 03:00:00,24.885261,72.857549,OZONE,10,116,47
India,Rajasthan,Sri Ganganagar,"Old City, Sri Ganganagar - RSPCB",05-03-2024 03:00:00,29.931624,73.864511,OZONE,10,92,31
India,Rajasthan,Tonk,"Shastri Nagar, Tonk - RSPCB",05-03-2024 03:00:00,26.159933,75.780517,PM10,48,290,116
India,Sikkim,Gangtok,"Zero Point GICI, Gangtok - SSPCB",05-03-2024 03:00:00,27.338530,88.614099,NH3,1,1,1
India,TamilNadu,Chengalpattu,"Crescent University, Chengalpattu - TNPCB",05-03-2024 03:00:00,12.8777316,80.0834807,CO,NA,NA,NA
India,TamilNadu,Chennai,"Alandur Bus Depot, Chennai - CPCB",05-03-2024 03:00:00,12.9099161,80.1076538,NH3,3,18,6
India,TamilNadu,Chennai,"Arumbakkam, Chennai - TNPCB",05-03-2024 03:00:00,13.0664,80.2112 ,PM2.5,39,142,68
India,TamilNadu,Chennai,"Arumbakkam, Chennai - TNPCB",05-03-2024 03:00:00,13.0664,80.2112 ,SO2,1,10,4
India,TamilNadu,Chennai,"Kodungaiyur, Chennai - TNPCB",05-03-2024 03:00:00,13.1278,80.2642,PM2.5,15,62,29
India,TamilNadu,Chennai,"Kodungaiyur, Chennai - TNPCB",05-03-2024 03:00:00,13.1278,80.2642,OZONE,5,6,6
India,TamilNadu,Chennai,"Manali, Chennai - CPCB",05-03-2024 03:00:00,13.164544,80.26285,PM2.5,33,174,65
India,TamilNadu,Chennai,"Manali, Chennai - CPCB",05-03-2024 03:00:00,13.164544,80.26285,PM10,39,143,71
India,TamilNadu,Chennai,"Manali, Chennai - CPCB",05-03-2024 03:00:00,13.164544,80.26285,NO2,6,14,10
India,TamilNadu,Chennai,"Manali, Chennai - CPCB",05-03-2024 03:00:00,13.164544,80.26285,NH3,4,6,5
India,TamilNadu,Chennai,"Manali, Chennai - CPCB",05-03-2024 03:00:00,13.164544,80.26285,SO2,5,38,12
India,TamilNadu,Chennai,"Manali, Chennai - CPCB",05-03-2024 03:00:00,13.164544,80.26285,OZONE,6,17,9
India,TamilNadu,Chennai,"Perungudi, Chennai - TNPCB",05-03-2024 03:00:00,12.9533,80.2357,PM2.5,40,172,79
India,TamilNadu,Chennai,"Perungudi, Chennai - TNPCB",05-03-2024 03:00:00,12.9533,80.2357,PM10,49,186,96
India,TamilNadu,Chennai,"Perungudi, Chennai - TNPCB",05-03-2024 03:00:00,12.9533,80.2357,NO2,3,22,9
India,TamilNadu,Chennai,"Perungudi, Chennai - TNPCB",05-03-2024 03:00:00,12.9533,80.2357,OZONE,3,11,10
India,TamilNadu,Chennai,"Royapuram, Chennai - TNPCB",05-03-2024 03:00:00,13.1036,80.2909,SO2,1,4,2
India,TamilNadu,Chennai,"Royapuram, Chennai - TNPCB",05-03-2024 03:00:00,13.1036,80.2909,CO,16,52,21
India,TamilNadu,Chennai,"Velachery Res. Area, Chennai - CPCB",05-03-2024 03:00:00,13.0052189,80.2398125,CO,5,104,56
India,TamilNadu,Chennai,"Velachery Res. Area, Chennai - CPCB",05-03-2024 03:00:00,13.0052189,80.2398125,OZONE,1,17,6
India,TamilNadu,Coimbatore,"PSG College of Arts and Science, Coimbatore - TNPCB",05-03-2024 03:00:00,11.0328,77.0349,OZONE,3,5,4
India,TamilNadu,Cuddalore,"Kudikadu, Cuddalore - TNPCB",05-03-2024 03:00:00,11.6829898,79.7532099,SO2,11,12,11
India,TamilNadu,Cuddalore,"Semmandalam, Cuddalore - TNPCB",05-03-2024 03:00:00,11.7637683,79.7499835,PM2.5,NA,NA,NA
India,TamilNadu,Gummidipoondi,"Anthoni Pillai Nagar, Gummidipoondi - TNPCB",05-03-2024 03:00:00,13.4127,80.1081,NH3,1,2,2
India,TamilNadu,Kanchipuram,"Kilambi, Kanchipuram - TNPCB",05-03-2024 03:00:00,12.864618,79.659968,PM2.5,NA,NA,NA
India,TamilNadu,Kanchipuram,"Kilambi, Kanchipuram - TNPCB",05-03-2024 03:00:00,12.864618,79.659968,SO2,NA,NA,NA
India,TamilNadu,Kanchipuram,"Kilambi, Kanchipuram - TNPCB",05-03-2024 03:00:00,12.864618,79.659968,CO,19,144,119
India,TamilNadu,Ooty,"Bombay Castel, Ooty - TNPCB",05-03-2024 03:00:00,11.4068288,76.7138973,NH3,NA,NA,NA
India,TamilNadu,Ooty,"Bombay Castel, Ooty - TNPCB",05-03-2024 03:00:00,11.4068288,76.7138973,SO2,13,13,13
India,TamilNadu,Palkalaiperur,"Bharathidasan University, Palkalaiperur - TNPCB",05-03-2024 03:00:00,10.681158,78.741746,PM10,NA,NA,NA
India,TamilNadu,Ramanathapuram,"Chalai Bazaar, Ramanathapuram - TNPCB",05-03-2024 03:00:00,9.36399,78.831977,NH3,1,1,1
India,TamilNadu,Thoothukudi,"Meelavittan, Thoothukudi - TNPCB",05-03-2024 03:00:00,8.816428 ,78.099039,SO2,10,20,14
India,TamilNadu,Tirupur,"Kumaran College, Tirupur - TNPCB",05-03-2024 03:00:00,11.0973603,77.3228673,OZONE,6,7,7
India,TamilNadu,Vellore,"Vasanthapuram, Vellore - TNPCB",05-03-2024 03:00:00,12.909494,79.131861,PM2.5,NA,NA,NA
India,TamilNadu,Vellore,"Vasanthapuram, Vellore - TNPCB",05-03-2024 03:00:00,12.909494,79.131861,OZONE,1,2,2
India,TamilNadu,Virudhunagar,"Collectorate Office, Virudhunagar - TNPCB",05-03-2024 03:00:00,9.559382,77.948828,NO2,12,23,17
India,TamilNadu,Virudhunagar,"Collectorate Office, Virudhunagar - TNPCB",05-03-2024 03:00:00,9.559382,77.948828,SO2,3,8,6
India,Telangana,Hyderabad,"Bollaram Industrial Area, Hyderabad - TSPCB",05-03-2024 03:00:00,17.540891,78.358528,NO2,17,52,27
India,Telangana,Hyderabad,"Bollaram Industrial Area, Hyderabad - TSPCB",05-03-2024 03:00:00,17.540891,78.358528,OZONE,35,37,36
India,Telangana,Hyderabad,"ECIL Kapra, Hyderabad - TSPCB",05-03-2024 03:00:00,17.470431,78.566959,CO,16,56,22
India,Telangana,Hyderabad,"ECIL Kapra, Hyderabad - TSPCB",05-03-2024 03:00:00,17.470431,78.566959,OZONE,10,50,23
India,Telangana,Hyderabad,"ICRISAT Patancheru, Hyderabad - TSPCB",05-03-2024 03:00:00,17.518400,78.278777,PM2.5,7,52,30
India,Telangana,Hyderabad,"ICRISAT Patancheru, Hyderabad - TSPCB",05-03-2024 03:00:00,17.518400,78.278777,OZONE,28,136,57
India,Telangana,Hyderabad,"Kokapet, Hyderabad - TSPCB",05-03-2024 03:00:00,17.393559,78.339194,PM2.5,49,100,65
India,Telangana,Hyderabad,"Kompally Municipal Office, Hyderabad - TSPCB",05-03-2024 03:00:00,17.544899,78.486949,PM2.5,30,153,66
India,Telangana,Hyderabad,"Kompally Municipal Office, Hyderabad - TSPCB",05-03-2024 03:00:00,17.544899,78.486949,OZONE,16,103,40
India,Telangana,Hyderabad,"New Malakpet, Hyderabad - TSPCB",05-03-2024 03:00:00,17.37206,78.50864,PM10,57,80,66
India,Telangana,Hyderabad,"New Malakpet, Hyderabad - TSPCB",05-03-2024 03:00:00,17.37206,78.50864,OZONE,2,28,9
India,Telangana,Hyderabad,"Ramachandrapuram, Hyderabad - TSPCB",05-03-2024 03:00:00,17.528544,78.286195,NO2,11,11,11
India,Telangana,Hyderabad,"Sanathnagar, Hyderabad - TSPCB",05-03-2024 03:00:00,17.4559458,78.4332152,PM2.5,68,111,80
India,Telangana,Hyderabad,"Sanathnagar, Hyderabad - TSPCB",05-03-2024 03:00:00,17.4559458,78.4332152,CO,34,43,41
India,Telangana,Hyderabad,"Somajiguda, Hyderabad - TSPCB",05-03-2024 03:00:00,17.417094,78.457437,PM2.5,33,63,49
India,Telangana,Hyderabad,"Somajiguda, Hyderabad - TSPCB",05-03-2024 03:00:00,17.417094,78.457437,NO2,19,27,22
India,Telangana,Hyderabad,"Somajiguda, Hyderabad - TSPCB",05-03-2024 03:00:00,17.417094,78.457437,NH3,5,5,5
India,Telangana,Hyderabad,"Zoo Park, Hyderabad - TSPCB",05-03-2024 03:00:00,17.349694,78.451437,PM2.5,45,92,68
India,Telangana,Hyderabad,"Zoo Park, Hyderabad - TSPCB",05-03-2024 03:00:00,17.349694,78.451437,PM10,57,144,112
India,Telangana,Hyderabad,"Zoo Park, Hyderabad - TSPCB",05-03-2024 03:00:00,17.349694,78.451437,SO2,1,8,3
India,Tripura,Agartala,"Bardowali, Agartala - Tripura SPCB",05-03-2024 03:00:00,23.8175497,91.2726974,PM2.5,88,341,238
India,Tripura,Agartala,"Bardowali, Agartala - Tripura SPCB",05-03-2024 03:00:00,23.8175497,91.2726974,NH3,2,3,3
India,Uttar_Pradesh,Agra,"Manoharpur, Agra - UPPCB",05-03-2024 03:00:00,27.23711,78.01936,PM10,12,42,26
India,Uttar_Pradesh,Agra,"Manoharpur, Agra - UPPCB",05-03-2024 03:00:00,27.23711,78.01936,SO2,13,16,14
India,Uttar_Pradesh,Agra,"Rohta, Agra - UPPCB",05-03-2024 03:00:00,27.106972,78.000111,OZONE,21,22,22
India,Uttar_Pradesh,Agra,"Sector-3B Avas Vikas Colony, Agra - UPPCB",05-03-2024 03:00:00,27.19412,77.96237,PM2.5,NA,NA,NA
India,Uttar_Pradesh,Agra,"Sector-3B Avas Vikas Colony, Agra - UPPCB",05-03-2024 03:00:00,27.19412,77.96237,PM10,30,64,40
India,Uttar_Pradesh,Agra,"Sector-3B Avas Vikas Colony, Agra - UPPCB",05-03-2024 03:00:00,27.19412,77.96237,CO,8,13,12
India,Uttar_Pradesh,Agra,"Sector-3B Avas Vikas Colony, Agra - UPPCB",05-03-2024 03:00:00,27.19412,77.96237,OZONE,2,13,4
India,Uttar_Pradesh,Agra,"Shahjahan Garden, Agra - UPPCB",05-03-2024 03:00:00,27.169338,78.03582,PM2.5,19,60,37
India,Uttar_Pradesh,Agra,"Shastripuram, Agra - UPPCB",05-03-2024 03:00:00,27.19862,77.92066,PM10,38,123,60
India,Uttar_Pradesh,Agra,"Shastripuram, Agra - UPPCB",05-03-2024 03:00:00,27.19862,77.92066,NH3,1,4,1
India,Uttar_Pradesh,Baghpat,"Sardar Patel Inter College, Baghpat - UPPCB",05-03-2024 03:00:00,28.964949,77.278761,PM2.5,13,99,46
India,Uttar_Pradesh,Baghpat,"Sardar Patel Inter College, Baghpat - UPPCB",05-03-2024 03:00:00,28.964949,77.278761,OZONE,13,78,32
India,Uttar_Pradesh,Bareilly,"Rajendra Nagar, Bareilly - UPPCB",05-03-2024 03:00:00,28.38910936,79.42963708,PM10,9,64,22
India,Uttar_Pradesh,Bareilly,"Rajendra Nagar, Bareilly - UPPCB",05-03-2024 03:00:00,28.38910936,79.42963708,SO2,42,43,42
India,Uttar_Pradesh,Bareilly,"Rajendra Nagar, Bareilly - UPPCB",05-03-2024 03:00:00,28.38910936,79.42963708,OZONE,9,54,13
India,Uttar_Pradesh,Bulandshahr,"Yamunapuram, Bulandshahr - UPPCB",05-03-2024 03:00:00,28.406963,77.849831,PM10,10,140,73
India,Uttar_Pradesh,Bulandshahr,"Yamunapuram, Bulandshahr - UPPCB",05-03-2024 03:00:00,28.406963,77.849831,SO2,6,53,21
India,Uttar_Pradesh,Firozabad,"Vibhab Nagar, Firozabad - UPPCB",05-03-2024 03:00:00,27.1594,78.3953,PM2.5,15,42,28
India,Uttar_Pradesh,Firozabad,"Vibhab Nagar, Firozabad - UPPCB",05-03-2024 03:00:00,27.1594,78.3953,SO2,13,14,13
India,Uttar_Pradesh,Firozabad,"Vibhab Nagar, Firozabad - UPPCB",05-03-2024 03:00:00,27.1594,78.3953,CO,16,20,19
India,Uttar_Pradesh,Ghaziabad,"Indirapuram, Ghaziabad - UPPCB",05-03-2024 03:00:00,28.646233,77.358075,PM10,50,139,92
India,Uttar_Pradesh,Ghaziabad,"Indirapuram, Ghaziabad - UPPCB",05-03-2024 03:00:00,28.646233,77.358075,NO2,21,61,34
India,Uttar_Pradesh,Ghaziabad,"Sanjay Nagar, Ghaziabad - UPPCB",05-03-2024 03:00:00,28.685382,77.453839,SO2,15,32,24
India,Uttar_Pradesh,Ghaziabad,"Vasundhara, Ghaziabad - UPPCB",05-03-2024 03:00:00,28.6603346,77.3572563,PM10,39,121,74
India,Uttar_Pradesh,Ghaziabad,"Vasundhara, Ghaziabad - UPPCB",05-03-2024 03:00:00,28.6603346,77.3572563,SO2,1,133,15
India,Uttar_Pradesh,Ghaziabad,"Vasundhara, Ghaziabad - UPPCB",05-03-2024 03:00:00,28.6603346,77.3572563,OZONE,4,85,32
India,Uttar_Pradesh,Greater Noida,"Knowledge Park - III, Greater Noida - UPPCB",05-03-2024 03:00:00,28.47272,77.482000,CO,17,57,43
India,Uttar_Pradesh,Greater Noida,"Knowledge Park - V, Greater Noida - UPPCB",05-03-2024 03:00:00,28.557054,77.453663,PM2.5,31,128,60
India,Uttar_Pradesh,Hapur,"Anand Vihar, Hapur - UPPCB",05-03-2024 03:00:00,28.725645,77.749675,PM2.5,NA,NA,NA
India,Uttar_Pradesh,Hapur,"Anand Vihar, Hapur - UPPCB",05-03-2024 03:00:00,28.725645,77.749675,PM10,NA,NA,NA
India,Uttar_Pradesh,Hapur,"Anand Vihar, Hapur - UPPCB",05-03-2024 03:00:00,28.725645,77.749675,SO2,NA,NA,NA
India,Uttar_Pradesh,Hapur,"Anand Vihar, Hapur - UPPCB",05-03-2024 03:00:00,28.725645,77.749675,OZONE,30,108,41
India,Uttar_Pradesh,Jhansi,"Shivaji Nagar, Jhansi - UPPCB",05-03-2024 03:00:00,25.4547,78.6039,NO2,17,81,34
India,Uttar_Pradesh,Jhansi,"Shivaji Nagar, Jhansi - UPPCB",05-03-2024 03:00:00,25.4547,78.6039,CO,14,134,27
India,Uttar_Pradesh,Jhansi,"Shivaji Nagar, Jhansi - UPPCB",05-03-2024 03:00:00,25.4547,78.6039,OZONE,1,15,4
India,Uttar_Pradesh,Kanpur,"NSI Kalyanpur, Kanpur - UPPCB",05-03-2024 03:00:00,26.509954,80.249612,PM2.5,22,52,36
India,Uttar_Pradesh,Kanpur,"NSI Kalyanpur, Kanpur - UPPCB",05-03-2024 03:00:00,26.509954,80.249612,CO,28,38,36
India,Uttar_Pradesh,Khurja,"Kalindi Kunj, Khurja - UPPCB",05-03-2024 03:00:00,28.2348927,77.8683002,NH3,1,1,1
India,Uttar_Pradesh,Khurja,"Kalindi Kunj, Khurja - UPPCB",05-03-2024 03:00:00,28.2348927,77.8683002,CO,32,45,39
India,Uttar_Pradesh,Lucknow,"B R Ambedkar University, Lucknow - UPPCB",05-03-2024 03:00:00,26.766433,80.927299,NO2,11,12,12
India,Uttar_Pradesh,Lucknow,"B R Ambedkar University, Lucknow - UPPCB",05-03-2024 03:00:00,26.766433,80.927299,CO,20,30,27
India,Uttar_Pradesh,Lucknow,"B R Ambedkar University, Lucknow - UPPCB",05-03-2024 03:00:00,26.766433,80.927299,OZONE,1,63,21
India,Uttar_Pradesh,Lucknow,"Gomti Nagar, Lucknow - UPPCB",05-03-2024 03:00:00,26.868120,81.005119,SO2,3,16,10
India,Uttar_Pradesh,Lucknow,"Gomti Nagar, Lucknow - UPPCB",05-03-2024 03:00:00,26.868120,81.005119,OZONE,36,50,44
India,Uttar_Pradesh,Lucknow,"Kendriya Vidyalaya, Lucknow - CPCB",05-03-2024 03:00:00,26.906111,80.948222,PM10,19,62,35
India,Uttar_Pradesh,Lucknow,"Kukrail Picnic Spot-1, Lucknow - UPPCB",05-03-2024 03:00:00,26.90723,80.98579,SO2,33,34,33
India,Uttar_Pradesh,Lucknow,"Lalbagh, Lucknow - CPCB",05-03-2024 03:00:00,26.8458805,80.9365541,NO2,9,36,17
India,Uttar_Pradesh,Lucknow,"Lalbagh, Lucknow - CPCB",05-03-2024 03:00:00,26.8458805,80.9365541,OZONE,8,64,23
India,Uttar_Pradesh,Meerut,"Jai Bhim Nagar, Meerut - UPPCB",05-03-2024 03:00:00,28.9535882,77.7622941,PM2.5,7,55,25
India,Uttar_Pradesh,Meerut,"Jai Bhim Nagar, Meerut - UPPCB",05-03-2024 03:00:00,28.9535882,77.7622941,SO2,10,19,12
India,Uttar_Pradesh,Meerut,"Pallavpuram Phase 2, Meerut - UPPCB",05-03-2024 03:00:00,29.063510,77.709723,PM2.5,6,75,34
India,Uttar_Pradesh,Meerut,"Pallavpuram Phase 2, Meerut - UPPCB",05-03-2024 03:00:00,29.063510,77.709723,PM10,16,111,66
India,Uttar_Pradesh,Meerut,"Pallavpuram Phase 2, Meerut - UPPCB",05-03-2024 03:00:00,29.063510,77.709723,CO,8,60,37
India,Uttar_Pradesh,Meerut,"Pallavpuram Phase 2, Meerut - UPPCB",05-03-2024 03:00:00,29.063510,77.709723,OZONE,6,96,43
India,Uttar_Pradesh,Moradabad,"Buddhi Vihar, Moradabad - UPPCB",05-03-2024 03:00:00,28.83526,78.74460,NO2,23,24,23
India,Uttar_Pradesh,Moradabad,"Buddhi Vihar, Moradabad - UPPCB",05-03-2024 03:00:00,28.83526,78.74460,NH3,2,2,2
India,Uttar_Pradesh,Moradabad,"Buddhi Vihar, Moradabad - UPPCB",05-03-2024 03:00:00,28.83526,78.74460,SO2,21,29,23
India,Uttar_Pradesh,Moradabad,"Eco Herbal Park, Moradabad - UPPCB",05-03-2024 03:00:00,28.840739,78.697531,NH3,3,68,9
India,Uttar_Pradesh,Moradabad,"Eco Herbal Park, Moradabad - UPPCB",05-03-2024 03:00:00,28.840739,78.697531,CO,2,23,4
India,Uttar_Pradesh,Moradabad,"Employment Office, Moradabad - UPPCB",05-03-2024 03:00:00,28.88528,78.73880,OZONE,12,19,16
India,Uttar_Pradesh,Moradabad,"Jigar Colony, Moradabad - UPPCB",05-03-2024 03:00:00,28.856664,78.772638,PM2.5,16,38,25
India,Uttar_Pradesh,Moradabad,"Jigar Colony, Moradabad - UPPCB",05-03-2024 03:00:00,28.856664,78.772638,PM10,25,94,52
India,Uttar_Pradesh,Moradabad,"Kashiram Nagar, Moradabad - UPPCB",05-03-2024 03:00:00,28.849399,78.742362,PM2.5,5,39,22
India,Uttar_Pradesh,Moradabad,"Kashiram Nagar, Moradabad - UPPCB",05-03-2024 03:00:00,28.849399,78.742362,NO2,12,25,18
India,Uttar_Pradesh,Moradabad,"Kashiram Nagar, Moradabad - UPPCB",05-03-2024 03:00:00,28.849399,78.742362,SO2,26,35,31
India,Uttar_Pradesh,Moradabad,"Transport Nagar, Moradabad - UPPCB",05-03-2024 03:00:00,28.802625,78.753728,PM10,NA,NA,NA
India,Uttar_Pradesh,Moradabad,"Transport Nagar, Moradabad - UPPCB",05-03-2024 03:00:00,28.802625,78.753728,NO2,12,24,18
India,Uttar_Pradesh,Muzaffarnagar,"New Mandi, Muzaffarnagar - UPPCB",05-03-2024 03:00:00,29.4723508,77.7194031,PM2.5,NA,NA,NA
India,Uttar_Pradesh,Muzaffarnagar,"New Mandi, Muzaffarnagar - UPPCB",05-03-2024 03:00:00,29.4723508,77.7194031,NO2,NA,NA,NA
India,Uttar_Pradesh,Muzaffarnagar,"New Mandi, Muzaffarnagar - UPPCB",05-03-2024 03:00:00,29.4723508,77.7194031,NH3,NA,NA,NA
India,Uttar_Pradesh,Muzaffarnagar,"New Mandi, Muzaffarnagar - UPPCB",05-03-2024 03:00:00,29.4723508,77.7194031,SO2,NA,NA,NA
India,Uttar_Pradesh,Noida,"Sector - 125, Noida - UPPCB",05-03-2024 03:00:00,28.5447608,77.3231257,NH3,9,13,11
India,Uttar_Pradesh,Noida,"Sector-1, Noida - UPPCB",05-03-2024 03:00:00,28.5898,77.3101,SO2,4,16,7
India,Uttar_Pradesh,Noida,"Sector-116, Noida - UPPCB",05-03-2024 03:00:00,28.569230,77.393848,PM2.5,21,81,46
India,Uttar_Pradesh,Prayagraj,"Jhunsi, Prayagraj - UPPCB",05-03-2024 03:00:00,25.425602,81.917152,PM2.5,15,57,31
India,Uttar_Pradesh,Prayagraj,"Jhunsi, Prayagraj - UPPCB",05-03-2024 03:00:00,25.425602,81.917152,PM10,23,129,60
India,Uttar_Pradesh,Prayagraj,"Motilal Nehru NIT, Prayagraj - UPPCB",05-03-2024 03:00:00,25.494,81.863,CO,8,26,22
India,Uttar_Pradesh,Prayagraj,"Nagar Nigam, Prayagraj - UPPCB",05-03-2024 03:00:00,25.44919916 ,81.82735986 ,PM2.5,21,64,40
India,Uttar_Pradesh,Prayagraj,"Nagar Nigam, Prayagraj - UPPCB",05-03-2024 03:00:00,25.44919916 ,81.82735986 ,SO2,11,35,24
India,Uttar_Pradesh,Varanasi,"Ardhali Bazar, Varanasi - UPPCB",05-03-2024 03:00:00,25.3505986,82.9083074,CO,1,14,11
India,Uttar_Pradesh,Varanasi,"Bhelupur, Varanasi - UPPCB",05-03-2024 03:00:00,25.301778,82.996789,NO2,8,8,8
India,Uttar_Pradesh,Varanasi,"Bhelupur, Varanasi - UPPCB",05-03-2024 03:00:00,25.301778,82.996789,SO2,23,24,24
India,Uttar_Pradesh,Varanasi,"Bhelupur, Varanasi - UPPCB",05-03-2024 03:00:00,25.301778,82.996789,CO,11,28,23
India,Uttar_Pradesh,Varanasi,"Bhelupur, Varanasi - UPPCB",05-03-2024 03:00:00,25.301778,82.996789,OZONE,NA,NA,NA
India,Uttar_Pradesh,Varanasi,"IESD Banaras Hindu University, Varanasi - UPPCB",05-03-2024 03:00:00,25.262326,82.995408,PM2.5,6,20,12
India,Uttar_Pradesh,Varanasi,"IESD Banaras Hindu University, Varanasi - UPPCB",05-03-2024 03:00:00,25.262326,82.995408,OZONE,NA,NA,NA
India,Uttar_Pradesh,Varanasi,"Maldahiya, Varanasi - UPPCB",05-03-2024 03:00:00,25.32393,82.99687,NH3,1,1,1
India,Uttar_Pradesh,Varanasi,"Maldahiya, Varanasi - UPPCB",05-03-2024 03:00:00,25.32393,82.99687,SO2,42,49,46
India,Uttar_Pradesh,Vrindavan,"Omex Eternity, Vrindavan - UPPCB",05-03-2024 03:00:00,27.5714090,77.6557570,CO,26,70,53
India,Uttar_Pradesh,Vrindavan,"Omex Eternity, Vrindavan - UPPCB",05-03-2024 03:00:00,27.5714090,77.6557570,OZONE,29,32,31
India,Uttarakhand,Dehradun,"Doon University, Dehradun - UKPCB",05-03-2024 03:00:00,30.269444,78.044167,NO2,1,6,2
India,Uttarakhand,Kashipur,"Govt. Girls Inter College, Kashipur - UKPCB",05-03-2024 03:00:00,29.2124114,78.9611753,PM10,4,89,49
India,Uttarakhand,Kashipur,"Govt. Girls Inter College, Kashipur - UKPCB",05-03-2024 03:00:00,29.2124114,78.9611753,NO2,4,23,9
India,Uttarakhand,Kashipur,"Govt. Girls Inter College, Kashipur - UKPCB",05-03-2024 03:00:00,29.2124114,78.9611753,SO2,3,8,7
India,Uttarakhand,Kashipur,"Govt. Girls Inter College, Kashipur - UKPCB",05-03-2024 03:00:00,29.2124114,78.9611753,CO,10,56,33
India,Uttarakhand,Rishikesh,"Shivaji Nagar, Rishikesh - UKPCB",05-03-2024 03:00:00,30.075911,78.2859547,PM10,3,64,35
India,Uttarakhand,Rishikesh,"Shivaji Nagar, Rishikesh - UKPCB",05-03-2024 03:00:00,30.075911,78.2859547,NH3,2,3,3
India,West_Bengal,Asansol,"Asansol Court Area, Asansol - WBPCB",05-03-2024 03:00:00,23.685297,86.945968,SO2,7,13,10
India,West_Bengal,Barrackpore,"SVSPA Campus, Barrackpore - WBPCB",05-03-2024 03:00:00,22.7605581,88.3617589,OZONE,12,119,40
India,West_Bengal,Durgapur,"Sidhu Kanhu Indoor Stadium, Durgapur - WBPCB",05-03-2024 03:00:00,23.5404352,87.2892225,PM2.5,NA,NA,NA
India,West_Bengal,Durgapur,"Sidhu Kanhu Indoor Stadium, Durgapur - WBPCB",05-03-2024 03:00:00,23.5404352,87.2892225,OZONE,4,55,5
India,West_Bengal,Howrah,"Belur Math, Howrah - WBPCB",05-03-2024 03:00:00,22.629801,88.352017,PM10,52,142,104
India,West_Bengal,Howrah,"Ghusuri, Howrah - WBPCB",05-03-2024 03:00:00,22.611968,88.347422,PM10,77,134,114
India,West_Bengal,Howrah,"Ghusuri, Howrah - WBPCB",05-03-2024 03:00:00,22.611968,88.347422,NH3,7,12,9
India,West_Bengal,Howrah,"Ghusuri, Howrah - WBPCB",05-03-2024 03:00:00,22.611968,88.347422,SO2,5,52,8
India,West_Bengal,Kolkata,"Bidhannagar, Kolkata - WBPCB",05-03-2024 03:00:00,22.58157048,88.41002457,CO,4,102,59
India,West_Bengal,Kolkata,"Fort William, Kolkata - WBPCB",05-03-2024 03:00:00,22.556640,88.342674,OZONE,24,82,47
India,West_Bengal,Kolkata,"Jadavpur, Kolkata - WBPCB",05-03-2024 03:00:00,22.49929,88.36917,PM2.5,69,168,105
India,West_Bengal,Kolkata,"Jadavpur, Kolkata - WBPCB",05-03-2024 03:00:00,22.49929,88.36917,CO,10,30,21
India,West_Bengal,Kolkata,"Jadavpur, Kolkata - WBPCB",05-03-2024 03:00:00,22.49929,88.36917,OZONE,18,79,38
India,West_Bengal,Kolkata,"Rabindra Bharati University, Kolkata - WBPCB",05-03-2024 03:00:00,22.627847,88.380669,NO2,NA,NA,NA
India,West_Bengal,Kolkata,"Rabindra Sarobar, Kolkata - WBPCB",05-03-2024 03:00:00,22.51106,88.35142,PM2.5,59,141,87
India,West_Bengal,Kolkata,"Rabindra Sarobar, Kolkata - WBPCB",05-03-2024 03:00:00,22.51106,88.35142,PM10,57,109,84
India,West_Bengal,Kolkata,"Rabindra Sarobar, Kolkata - WBPCB",05-03-2024 03:00:00,22.51106,88.35142,OZONE,3,91,10
India,West_Bengal,Siliguri,"Ward-32 Bapupara, Siliguri - WBPCB",05-03-2024 03:00:00,26.6879226,88.4152495,PM2.5,54,108,74
India,West_Bengal,Siliguri,"Ward-32 Bapupara, Siliguri - WBPCB",05-03-2024 03:00:00,26.6879226,88.4152495,NO2,27,78,48
India,West_Bengal,Siliguri,"Ward-32 Bapupara, Siliguri - WBPCB",05-03-2024 03:00:00,26.6879226,88.4152495,SO2,NA,NA,NA
India,Andhra_Pradesh,Anantapur,"Gulzarpet, Anantapur - APPCB",05-03-2024 03:00:00,14.675886,77.593027,PM10,NA,NA,NA
India,Andhra_Pradesh,Anantapur,"Gulzarpet, Anantapur - APPCB",05-03-2024 03:00:00,14.675886,77.593027,SO2,5,28,7
India,Andhra_Pradesh,Chittoor,"Gangineni Cheruvu, Chittoor - APPCB",05-03-2024 03:00:00,13.204880,79.097889,CO,34,52,44
India,Andhra_Pradesh,Chittoor,"Gangineni Cheruvu, Chittoor - APPCB",05-03-2024 03:00:00,13.204880,79.097889,OZONE,10,117,58
India,Andhra_Pradesh,Kadapa,"Yerramukkapalli, Kadapa - APPCB",05-03-2024 03:00:00,14.465052,78.824187,PM10,25,111,54
India,Andhra_Pradesh,Kadapa,"Yerramukkapalli, Kadapa - APPCB",05-03-2024 03:00:00,14.465052,78.824187,NO2,8,8,8
India,Andhra_Pradesh,Rajamahendravaram,"Anand Kala Kshetram, Rajamahendravaram - APPCB",05-03-2024 03:00:00,16.9872867,81.7363176,PM2.5,NA,NA,NA
India,Andhra_Pradesh,Tirupati,"Tirumala, Tirupati - APPCB",05-03-2024 03:00:00,13.67,79.35,NO2,28,61,40
India,Andhra_Pradesh,Tirupati,"Tirumala, Tirupati - APPCB",05-03-2024 03:00:00,13.67,79.35,SO2,1,8,5
India,Andhra_Pradesh,Vijayawada,"HB Colony, Vijayawada - APPCB",05-03-2024 03:00:00,16.536107,80.594233,PM10,62,88,74
India,Andhra_Pradesh,Vijayawada,"HB Colony, Vijayawada - APPCB",05-03-2024 03:00:00,16.536107,80.594233,NO2,6,20,11
India,Andhra_Pradesh,Vijayawada,"Kanuru, Vijayawada - APPCB",05-03-2024 03:00:00,16.486692,80.699436,NO2,14,20,15
India,Andhra_Pradesh,Vijayawada,"Rajiv Gandhi Park, Vijayawada - APPCB",05-03-2024 03:00:00,16.509717,80.612222,PM10,52,92,69
India,Andhra_Pradesh,Vijayawada,"Rajiv Gandhi Park, Vijayawada - APPCB",05-03-2024 03:00:00,16.509717,80.612222,NO2,4,71,31
India,Andhra_Pradesh,Vijayawada,"Rajiv Nagar, Vijayawada - APPCB",05-03-2024 03:00:00,16.554731,80.649110,NO2,7,11,9
India,Andhra_Pradesh,Visakhapatnam,"GVM Corporation, Visakhapatnam - APPCB",05-03-2024 03:00:00,17.72,83.3,PM10,82,203,126
India,Andhra_Pradesh,Visakhapatnam,"GVM Corporation, Visakhapatnam - APPCB",05-03-2024 03:00:00,17.72,83.3,NO2,29,81,48
India,Andhra_Pradesh,Visakhapatnam,"GVM Corporation, Visakhapatnam - APPCB",05-03-2024 03:00:00,17.72,83.3,SO2,9,18,13
India,Assam,Byrnihat,"Central Academy for SFS, Byrnihat - PCBA",05-03-2024 03:00:00,26.071318,91.87488,PM2.5,NA,NA,NA
India,Assam,Byrnihat,"Central Academy for SFS, Byrnihat - PCBA",05-03-2024 03:00:00,26.071318,91.87488,PM10,NA,NA,NA
India,Assam,Byrnihat,"Central Academy for SFS, Byrnihat - PCBA",05-03-2024 03:00:00,26.071318,91.87488,NH3,5,8,7
India,Assam,Guwahati,"LGBI Airport, Guwahati - PCBA",05-03-2024 03:00:00,26.10887,91.589544,PM2.5,63,263,144
India,Assam,Guwahati,"Pan Bazaar, Guwahati - PCBA",05-03-2024 03:00:00,26.187500,91.744194,NH3,5,7,6
India,Assam,Guwahati,"Pan Bazaar, Guwahati - PCBA",05-03-2024 03:00:00,26.187500,91.744194,SO2,65,95,76
India,Assam,Guwahati,"Railway Colony, Guwahati - PCBA",05-03-2024 03:00:00,26.181742,91.78063,PM10,100,246,143
India,Assam,Guwahati,"Railway Colony, Guwahati - PCBA",05-03-2024 03:00:00,26.181742,91.78063,NO2,3,3,3
India,Assam,Nagaon,"Christianpatty, Nagaon - PCBA",05-03-2024 03:00:00,26.349082,92.68449,PM2.5,50,330,157
India,Assam,Nalbari,"Bata Chowk, Nalbari - PCBA",05-03-2024 03:00:00,26.446912,91.439057,OZONE,37,93,54
India,Assam,Silchar,"Tarapur, Silchar - PCBA",05-03-2024 03:00:00,24.82827,92.79525,NO2,21,40,30
India,Assam,Sivasagar,"Girls College, Sivasagar - PCBA",05-03-2024 03:00:00,26.987634,94.636574,SO2,8,8,8
India,Bihar,Araria,"Kharahiya Basti, Araria - BSPCB",05-03-2024 03:00:00,26.146529,87.454184,PM2.5,31,69,51
India,Bihar,Araria,"Kharahiya Basti, Araria - BSPCB",05-03-2024 03:00:00,26.146529,87.454184,NH3,7,9,8
India,Bihar,Araria,"Kharahiya Basti, Araria - BSPCB",05-03-2024 03:00:00,26.146529,87.454184,SO2,12,17,15
India,Bihar,Arrah,"New DM Office, Arrah - BSPCB",05-03-2024 03:00:00,25.5626095,84.663264,NO2,5,56,21
India,Bihar,Bettiah,"Kamalnath Nagar, Bettiah - BSPCB",05-03-2024 03:00:00,26.80365,84.51954,PM2.5,15,82,53
India,Bihar,Bettiah,"Kamalnath Nagar, Bettiah - BSPCB",05-03-2024 03:00:00,26.80365,84.51954,NH3,3,7,3
India,Bihar,Bettiah,"Kamalnath Nagar, Bettiah - BSPCB",05-03-2024 03:00:00,26.80365,84.51954,CO,62,70,63
India,Bihar,Bhagalpur,"DM Office_Kachari Chowk, Bhagalpur - BSPCB",05-03-2024 03:00:00,25.251013,86.989001,NH3,8,11,10
India,Bihar,Bhagalpur,"Mayaganj, Bhagalpur - BSPCB",05-03-2024 03:00:00,25.265194,87.012947,PM10,34,127,79
India,Bihar,Bhagalpur,"Mayaganj, Bhagalpur - BSPCB",05-03-2024 03:00:00,25.265194,87.012947,OZONE,9,48,31
India,Bihar,Bihar Sharif,"D M Colony, Bihar Sharif - BSPCB",05-03-2024 03:00:00,25.204762,85.514960,NH3,2,2,2
India,Bihar,Bihar Sharif,"D M Colony, Bihar Sharif - BSPCB",05-03-2024 03:00:00,25.204762,85.514960,OZONE,3,3,3
India,Bihar,Buxar,"Charitra Van, Buxar - BSPCB (Formerly known as Central Jail)",05-03-2024 03:00:00,25.567520,83.966379,PM2.5,NA,NA,NA
India,Bihar,Chhapra,"Darshan Nagar, Chhapra - BSPCB",05-03-2024 03:00:00,25.7808257,84.7446768,OZONE,7,23,11
India,Bihar,Gaya,"Collectorate, Gaya - BSPCB",05-03-2024 03:00:00,24.7955,84.9994,SO2,5,22,11
India,Bihar,Gaya,"Kareemganj, Gaya - BSPCB",05-03-2024 03:00:00,24.792403,84.992416,NH3,1,5,3
India,Bihar,Gaya,"SFTI Kusdihra, Gaya - BSPCB",05-03-2024 03:00:00,24.762518,84.982348,PM2.5,26,98,58
India,Bihar,Gaya,"SFTI Kusdihra, Gaya - BSPCB",05-03-2024 03:00:00,24.762518,84.982348,NH3,3,6,4
India,Bihar,Hajipur,"Industrial Area, Hajipur - BSPCB",05-03-2024 03:00:00,25.697189,85.245900,CO,26,50,38
India,Bihar,Katihar,"Mirchaibari, Katihar - BSPCB",05-03-2024 03:00:00,25.560083,87.553265,NO2,14,32,21
India,Bihar,Katihar,"Mirchaibari, Katihar - BSPCB",05-03-2024 03:00:00,25.560083,87.553265,NH3,2,5,4
India,Bihar,Kishanganj,"SDM Office_Khagra, Kishanganj - BSPCB",05-03-2024 03:00:00,26.0881305,87.93840336,NO2,32,39,37
India,Bihar,Kishanganj,"SDM Office_Khagra, Kishanganj - BSPCB",05-03-2024 03:00:00,26.0881305,87.93840336,NH3,11,13,12
India,Bihar,Manguraha,"Forest Rest House, Manguraha - BSPCB",05-03-2024 03:00:00,27.308328,84.531742,PM10,NA,NA,NA
India,Bihar,Motihari,"Gandak Colony, Motihari - BSPCB",05-03-2024 03:00:00,26.63086,84.90051,PM10,12,67,32
India,Bihar,Munger,"Town Hall, Munger - BSPCB",05-03-2024 03:00:00,25.376776,86.471523,NO2,8,10,9
India,Bihar,Muzaffarpur,"Buddha Colony, Muzaffarpur - BSPCB",05-03-2024 03:00:00,26.11442,85.39813,PM2.5,73,152,97
India,Bihar,Muzaffarpur,"MIT-Daudpur Kothi, Muzaffarpur - BSPCB",05-03-2024 03:00:00,26.1403345,85.3650192,CO,22,60,46
India,Bihar,Patna,"DRM Office Danapur, Patna - BSPCB",05-03-2024 03:00:00,25.586562,85.043586,CO,24,88,51
India,Bihar,Patna,"Govt. High School Shikarpur, Patna - BSPCB",05-03-2024 03:00:00,25.592539,85.227158,PM2.5,87,125,102
India,Bihar,Patna,"Govt. High School Shikarpur, Patna - BSPCB",05-03-2024 03:00:00,25.592539,85.227158,NO2,23,26,25
India,Bihar,Patna,"Govt. High School Shikarpur, Patna - BSPCB",05-03-2024 03:00:00,25.592539,85.227158,NH3,4,4,4
India,Bihar,Patna,"Govt. High School Shikarpur, Patna - BSPCB",05-03-2024 03:00:00,25.592539,85.227158,SO2,6,9,8
India,Bihar,Patna,"Govt. High School Shikarpur, Patna - BSPCB",05-03-2024 03:00:00,25.592539,85.227158,OZONE,46,82,61
India,Bihar,Patna,"IGSC Planetarium Complex, Patna - BSPCB",05-03-2024 03:00:00,25.610369,85.132568,PM2.5,40,86,56
India,Bihar,Patna,"IGSC Planetarium Complex, Patna - BSPCB",05-03-2024 03:00:00,25.610369,85.132568,SO2,3,4,4
India,Bihar,Patna,"IGSC Planetarium Complex, Patna - BSPCB",05-03-2024 03:00:00,25.610369,85.132568,OZONE,11,64,31
India,Bihar,Patna,"Muradpur, Patna - BSPCB",05-03-2024 03:00:00,25.619651,85.147382,SO2,3,13,8
India,Bihar,Patna,"Rajbansi Nagar, Patna - BSPCB",05-03-2024 03:00:00,25.599486,85.113666,NH3,3,3,3
India,Bihar,Patna,"Rajbansi Nagar, Patna - BSPCB",05-03-2024 03:00:00,25.599486,85.113666,OZONE,2,43,10
India,Bihar,Purnia,"Mariam Nagar, Purnia - BSPCB",05-03-2024 03:00:00,25.366336,87.117468,PM2.5,13,207,92
India,Bihar,Purnia,"Mariam Nagar, Purnia - BSPCB",05-03-2024 03:00:00,25.366336,87.117468,NO2,12,14,13
India,Bihar,Rajgir,"Dangi Tola, Rajgir - BSPCB",05-03-2024 03:00:00,25.03280,85.41948,PM2.5,7,160,51
India,Bihar,Rajgir,"Dangi Tola, Rajgir - BSPCB",05-03-2024 03:00:00,25.03280,85.41948,PM10,7,130,55
India,Bihar,Rajgir,"Dangi Tola, Rajgir - BSPCB",05-03-2024 03:00:00,25.03280,85.41948,NH3,1,3,1
India,Bihar,Saharsa,"Police Line, Saharsa - BSPCB",05-03-2024 03:00:00,25.892357,86.590325,NO2,NA,NA,NA
India,Bihar,Saharsa,"Police Line, Saharsa - BSPCB",05-03-2024 03:00:00,25.892357,86.590325,CO,4,34,27
India,Bihar,Sasaram,"Dada Peer, Sasaram - BSPCB",05-03-2024 03:00:00,24.952822,84.002396,CO,97,113,106
India,Bihar,Siwan,"Chitragupta Nagar, Siwan - BSPCB",05-03-2024 03:00:00,26.2271665,84.3570427,SO2,10,34,29
India,Chandigarh,Chandigarh,"Sector 22, Chandigarh - CPCC",05-03-2024 03:00:00,30.735567,76.775714,CO,26,50,41
India,Chandigarh,Chandigarh,"Sector 22, Chandigarh - CPCC",05-03-2024 03:00:00,30.735567,76.775714,OZONE,26,129,44
India,Chandigarh,Chandigarh,"Sector-25, Chandigarh - CPCC",05-03-2024 03:00:00,30.751462,76.762879,NO2,2,29,15
India,Chandigarh,Chandigarh,"Sector-25, Chandigarh - CPCC",05-03-2024 03:00:00,30.751462,76.762879,NH3,11,37,18
India,Chhattisgarh,Bhilai,"Civic Center, Bhilai - Bhilai Steel Plant",05-03-2024 03:00:00,21.185571,81.343175,PM10,28,91,49
India,Chhattisgarh,Bhilai,"Civic Center, Bhilai - Bhilai Steel Plant",05-03-2024 03:00:00,21.185571,81.343175,CO,30,52,45
India,Chhattisgarh,Bhilai,"Hathkhoj, Bhilai - CECB",05-03-2024 03:00:00,21.224231,81.408350,PM10,51,121,82
India,Chhattisgarh,Bhilai,"Hathkhoj, Bhilai - CECB",05-03-2024 03:00:00,21.224231,81.408350,NO2,16,43,25
India,Chhattisgarh,Bhilai,"Hathkhoj, Bhilai - CECB",05-03-2024 03:00:00,21.224231,81.408350,OZONE,12,23,17
India,Chhattisgarh,Bilaspur,"Mangala, Bilaspur - NTPC",05-03-2024 03:00:00,22.08815,82.13737,PM2.5,25,55,41
India,Chhattisgarh,Bilaspur,"Mangala, Bilaspur - NTPC",05-03-2024 03:00:00,22.08815,82.13737,PM10,18,39,30
India,Chhattisgarh,Korba,"Rampur, Korba - CECB",05-03-2024 03:00:00,22.368195,82.746431,SO2,6,78,16
India,Chhattisgarh,Korba,"Urja Nagar, Korba - CECB",05-03-2024 03:00:00,22.348441,82.549611,NH3,5,8,6
India,Chhattisgarh,Korba,"Urja Nagar, Korba - CECB",05-03-2024 03:00:00,22.348441,82.549611,SO2,3,5,4
India,Chhattisgarh,Korba,"Urja Nagar, Korba - CECB",05-03-2024 03:00:00,22.348441,82.549611,CO,20,38,25
India,Chhattisgarh,Kunjemura,"OP Jindal School, Kunjemura - CECB",05-03-2024 03:00:00,22.126650,83.483212,NH3,1,3,2
India,Chhattisgarh,Kunjemura,"OP Jindal School, Kunjemura - CECB",05-03-2024 03:00:00,22.126650,83.483212,CO,34,64,46
India,Chhattisgarh,Milupara,"Govt. Higher Secondary School, Milupara - CECB",05-03-2024 03:00:00,22.1910172,83.5197009,SO2,NA,NA,NA
India,Chhattisgarh,Raipur,"AIIMS, Raipur - CECB",05-03-2024 03:00:00,21.258815,81.578979,NO2,26,62,46
India,Chhattisgarh,Raipur,"Bhatagaon New ISBT, Raipur - CECB",05-03-2024 03:00:00,21.219665,81.630094,CO,31,64,52
India,Chhattisgarh,Raipur,"Siltara Phase-II, Raipur - CECB",05-03-2024 03:00:00,21.371751,81.664929,OZONE,3,26,4
India,Chhattisgarh,Tumidih,"OP Jindal Industrial Park, Tumidih - CECB",05-03-2024 03:00:00,22.06631475,83.33820077,PM2.5,NA,NA,NA
India,Chhattisgarh,Tumidih,"OP Jindal Industrial Park, Tumidih - CECB",05-03-2024 03:00:00,22.06631475,83.33820077,NH3,NA,NA,NA
India,Delhi,Delhi,"Anand Vihar, Delhi - DPCC",05-03-2024 03:00:00,28.647622,77.3158090,SO2,12,30,19
India,Delhi,Delhi,"Ashok Vihar, Delhi - DPCC",05-03-2024 03:00:00,28.695381,77.181665,SO2,20,31,24
India,Delhi,Delhi,"Aya Nagar, Delhi - IMD",05-03-2024 03:00:00,28.4706914,77.1099364,PM2.5,4,206,63
India,Delhi,Delhi,"Aya Nagar, Delhi - IMD",05-03-2024 03:00:00,28.4706914,77.1099364,OZONE,11,46,23
India,Delhi,Delhi,"Bawana, Delhi - DPCC",05-03-2024 03:00:00,28.776200,77.051074,PM10,66,178,121
India,Delhi,Delhi,"Burari Crossing, Delhi - IMD",05-03-2024 03:00:00,28.7256504,77.2011573,NO2,12,15,13
India,Delhi,Delhi,"CRRI Mathura Road, Delhi - IMD",05-03-2024 03:00:00,28.5512005,77.2735737,PM2.5,28,89,61
India,Delhi,Delhi,"CRRI Mathura Road, Delhi - IMD",05-03-2024 03:00:00,28.5512005,77.2735737,PM10,57,93,75
India,Delhi,Delhi,"CRRI Mathura Road, Delhi - IMD",05-03-2024 03:00:00,28.5512005,77.2735737,CO,11,76,70
India,Delhi,Delhi,"Chandni Chowk, Delhi - IITM",05-03-2024 03:00:00,28.656756,77.227234,PM10,47,111,81
India,Delhi,Delhi,"Chandni Chowk, Delhi - IITM",05-03-2024 03:00:00,28.656756,77.227234,NO2,19,20,19
India,Delhi,Delhi,"Dr. Karni Singh Shooting Range, Delhi - DPCC",05-03-2024 03:00:00,28.498571,77.264840,CO,22,98,53
India,Delhi,Delhi,"ITO, Delhi - CPCB",05-03-2024 03:00:00,28.628624,77.241060,NH3,3,8,5
India,Delhi,Delhi,"ITO, Delhi - CPCB",05-03-2024 03:00:00,28.628624,77.241060,SO2,4,20,11
India,Delhi,Delhi,"Lodhi Road, Delhi - IMD",05-03-2024 03:00:00,28.5918245,77.2273074,PM10,40,136,82
India,Delhi,Delhi,"Lodhi Road, Delhi - IMD",05-03-2024 03:00:00,28.5918245,77.2273074,NO2,2,11,5
India,Delhi,Delhi,"Lodhi Road, Delhi - IMD",05-03-2024 03:00:00,28.5918245,77.2273074,CO,16,24,19
India,Delhi,Delhi,"Major Dhyan Chand National Stadium, Delhi - DPCC",05-03-2024 03:00:00,28.611281,77.237738,NH3,5,7,6
India,Delhi,Delhi,"Mandir Marg, Delhi - DPCC",05-03-2024 03:00:00,28.636429,77.201067,PM2.5,23,126,71
India,Delhi,Delhi,"Mandir Marg, Delhi - DPCC",05-03-2024 03:00:00,28.636429,77.201067,PM10,35,122,87
India,Delhi,Delhi,"Mandir Marg, Delhi - DPCC",05-03-2024 03:00:00,28.636429,77.201067,OZONE,8,19,10
India,Delhi,Delhi,"Mundka, Delhi - DPCC",05-03-2024 03:00:00,28.684678,77.076574,SO2,5,20,10
India,Delhi,Delhi,"Mundka, Delhi - DPCC",05-03-2024 03:00:00,28.684678,77.076574,CO,20,80,41
India,Delhi,Delhi,"NSIT Dwarka, Delhi - CPCB",05-03-2024 03:00:00,28.60909,77.0325413,PM10,83,284,153
India,Delhi,Delhi,"NSIT Dwarka, Delhi - CPCB",05-03-2024 03:00:00,28.60909,77.0325413,CO,30,93,58
India,Delhi,Delhi,"Okhla Phase-2, Delhi - DPCC",05-03-2024 03:00:00,28.530785,77.271255,NH3,4,8,6
India,Delhi,Delhi,"Patparganj, Delhi - DPCC",05-03-2024 03:00:00,28.623763,77.287209,SO2,14,18,16
India,Delhi,Delhi,"Pusa, Delhi - DPCC",05-03-2024 03:00:00,28.639652,77.146275,PM2.5,39,114,70
India,Delhi,Delhi,"R K Puram, Delhi - DPCC",05-03-2024 03:00:00,28.563262,77.186937,PM10,75,170,121
India,Delhi,Delhi,"Rohini, Delhi - DPCC",05-03-2024 03:00:00,28.732528,77.119920,PM2.5,27,304,100
India,Delhi,Delhi,"Rohini, Delhi - DPCC",05-03-2024 03:00:00,28.732528,77.119920,SO2,5,19,8
India,Delhi,Delhi,"Rohini, Delhi - DPCC",05-03-2024 03:00:00,28.732528,77.119920,CO,8,48,25
India,Delhi,Delhi,"Shadipur, Delhi - CPCB",05-03-2024 03:00:00,28.6514781,77.1473105,OZONE,11,91,42
India,Delhi,Delhi,"Sonia Vihar, Delhi - DPCC",05-03-2024 03:00:00,28.710508,77.249485,CO,44,72,61
India,Delhi,Delhi,"Sri Aurobindo Marg, Delhi - DPCC",05-03-2024 03:00:00,28.531346,77.190156,PM2.5,37,308,94
India,Delhi,Delhi,"Wazirpur, Delhi - DPCC",05-03-2024 03:00:00,28.699793,77.165453,PM10,100,234,154
India,Delhi,Delhi,"Wazirpur, Delhi - DPCC",05-03-2024 03:00:00,28.699793,77.165453,NH3,8,9,9
India,Delhi,Delhi,"Wazirpur, Delhi - DPCC",05-03-2024 03:00:00,28.699793,77.165453,SO2,14,33,22
India,Gujarat,Ahmedabad,"Raikhad, Ahmedabad - IITM",05-03-2024 03:00:00,23.020509,72.579261,NH3,1,2,1
India,Gujarat,Ahmedabad,"SAC ISRO Bopal, Ahmedabad - IITM",05-03-2024 03:00:00,23.041137,72.456691,NH3,3,4,4
India,Gujarat,Ahmedabad,"SAC ISRO Bopal, Ahmedabad - IITM",05-03-2024 03:00:00,23.041137,72.456691,CO,20,28,28
India,Gujarat,Ahmedabad,"SVPI Airport Hansol, Ahmedabad - IITM",05-03-2024 03:00:00,23.076793,72.627874,PM2.5,84,347,208
India,Gujarat,Ankleshwar,"GIDC, Ankleshwar - GPCB",05-03-2024 03:00:00,21.613267,73.010555,CO,54,106,87
India,Gujarat,Gandhinagar,"Sector-10, Gandhinagar - GPCB",05-03-2024 03:00:00,23.221714,72.654328,NH3,1,2,2
India,Gujarat,Gandhinagar,"Sector-10, Gandhinagar - GPCB",05-03-2024 03:00:00,23.221714,72.654328,SO2,4,17,7
India,Gujarat,Nandesari,"GIDC, Nandesari - Nandesari Ind. Association",05-03-2024 03:00:00,22.410802,73.097923,PM10,59,199,118
India,Gujarat,Surat,"Science Center, Surat - SMC",05-03-2024 03:00:00,21.170046,72.795405,PM2.5,NA,NA,NA
India,Gujarat,Surat,"Science Center, Surat - SMC",05-03-2024 03:00:00,21.170046,72.795405,PM10,NA,NA,NA
India,Gujarat,Surat,"Science Center, Surat - SMC",05-03-2024 03:00:00,21.170046,72.795405,SO2,NA,NA,NA
India,Gujarat,Surat,"Science Center, Surat - SMC",05-03-2024 03:00:00,21.170046,72.795405,CO,NA,NA,NA
India,Gujarat,Vapi,"Phase-1 GIDC, Vapi - GPCB",05-03-2024 03:00:00,20.362421,72.918013,PM2.5,15,327,91
India,Gujarat,Vapi,"Phase-1 GIDC, Vapi - GPCB",05-03-2024 03:00:00,20.362421,72.918013,PM10,39,228,99
India,Gujarat,Vapi,"Phase-1 GIDC, Vapi - GPCB",05-03-2024 03:00:00,20.362421,72.918013,NH3,8,10,9
India,Gujarat,Vapi,"Phase-1 GIDC, Vapi - GPCB",05-03-2024 03:00:00,20.362421,72.918013,SO2,46,47,47
India,Haryana,Ambala,"Patti Mehar, Ambala - HSPCB",05-03-2024 03:00:00,30.379589,76.778328,PM10,30,107,63
India,Haryana,Ambala,"Patti Mehar, Ambala - HSPCB",05-03-2024 03:00:00,30.379589,76.778328,OZONE,1,8,3
India,Haryana,Ballabgarh,"Nathu Colony, Ballabgarh - HSPCB",05-03-2024 03:00:00,28.3419248,77.319699,NH3,1,2,2
India,Haryana,Ballabgarh,"Nathu Colony, Ballabgarh - HSPCB",05-03-2024 03:00:00,28.3419248,77.319699,CO,8,64,26
India,Haryana,Ballabgarh,"Nathu Colony, Ballabgarh - HSPCB",05-03-2024 03:00:00,28.3419248,77.319699,OZONE,1,38,5
India,Haryana,Bhiwani,"H.B. Colony, Bhiwani - HSPCB",05-03-2024 03:00:00,28.806223,76.141105,NO2,33,35,33
India,Haryana,Bhiwani,"H.B. Colony, Bhiwani - HSPCB",05-03-2024 03:00:00,28.806223,76.141105,SO2,10,14,11
India,Haryana,Bhiwani,"H.B. Colony, Bhiwani - HSPCB",05-03-2024 03:00:00,28.806223,76.141105,OZONE,12,15,13
India,Haryana,Dharuhera,"Municipal Corporation Office, Dharuhera -  HSPCB",05-03-2024 03:00:00,28.206800,76.799700,PM2.5,24,178,80
India,Haryana,Dharuhera,"Municipal Corporation Office, Dharuhera -  HSPCB",05-03-2024 03:00:00,28.206800,76.799700,PM10,86,285,170
India,Haryana,Faridabad,"Sector 11, Faridabad - HSPCB",05-03-2024 03:00:00,28.376058,77.315741,NH3,6,6,6
India,Haryana,Faridabad,"Sector 11, Faridabad - HSPCB",05-03-2024 03:00:00,28.376058,77.315741,SO2,NA,NA,NA
India,Haryana,Faridabad,"Sector 11, Faridabad - HSPCB",05-03-2024 03:00:00,28.376058,77.315741,OZONE,3,7,3
India,Haryana,Fatehabad,"Huda Sector, Fatehabad - HSPCB",05-03-2024 03:00:00,29.503664,75.467934,PM2.5,40,89,55
India,Haryana,Fatehabad,"Huda Sector, Fatehabad - HSPCB",05-03-2024 03:00:00,29.503664,75.467934,OZONE,33,40,40
India,Haryana,Gurugram,"Sector-51, Gurugram - HSPCB",05-03-2024 03:00:00,28.4227,77.0667,NH3,6,14,9
India,Haryana,Gurugram,"Sector-51, Gurugram - HSPCB",05-03-2024 03:00:00,28.4227,77.0667,SO2,2,136,9
India,Haryana,Gurugram,"Teri Gram, Gurugram - HSPCB",05-03-2024 03:00:00,28.4275,77.1465,CO,14,24,21
India,Haryana,Gurugram,"Teri Gram, Gurugram - HSPCB",05-03-2024 03:00:00,28.4275,77.1465,OZONE,10,46,29
India,Haryana,Gurugram,"Vikas Sadan, Gurugram - HSPCB",05-03-2024 03:00:00,28.4501238,77.0263051,OZONE,7,68,16
India,Haryana,Hisar,"Urban Estate-II, Hisar - HSPCB",05-03-2024 03:00:00,29.140560,75.744941,PM10,NA,NA,NA
India,Haryana,Hisar,"Urban Estate-II, Hisar - HSPCB",05-03-2024 03:00:00,29.140560,75.744941,CO,40,108,66
India,Haryana,Jind,"Police Lines, Jind - HSPCB",05-03-2024 03:00:00,29.307814,76.337619,NH3,1,5,4
India,Haryana,Jind,"Police Lines, Jind - HSPCB",05-03-2024 03:00:00,29.307814,76.337619,SO2,4,23,10
India,Haryana,Jind,"Police Lines, Jind - HSPCB",05-03-2024 03:00:00,29.307814,76.337619,CO,1,110,44
India,Haryana,Kaithal,"Rishi Nagar, Kaithal - HSPCB",05-03-2024 03:00:00,29.8006,76.4155,PM10,52,124,80
India,Haryana,Karnal,"Sector-12, Karnal - HSPCB",05-03-2024 03:00:00,29.695300,77.002700,PM2.5,NA,NA,NA
India,Haryana,Karnal,"Sector-12, Karnal - HSPCB",05-03-2024 03:00:00,29.695300,77.002700,NO2,7,12,10
India,Haryana,Karnal,"Sector-12, Karnal - HSPCB",05-03-2024 03:00:00,29.695300,77.002700,NH3,10,13,11
India,Haryana,Kurukshetra,"Sector-7, Kurukshetra - HSPCB",05-03-2024 03:00:00,29.966942,76.875879,PM10,55,97,71
India,Haryana,Kurukshetra,"Sector-7, Kurukshetra - HSPCB",05-03-2024 03:00:00,29.966942,76.875879,NH3,3,5,5
