country,state,city,station,last_update,latitude,longitude,pollutant_id,pollutant_min,pollutant_max,pollutant_avg
India,Andhra_Pradesh,Amaravati,"Secretariat, Amaravati - APPCB",09-07-2024 12:00:00,16.5150833,80.5181667,PM10,6,64,30
India,Andhra_Pradesh,Amaravati,"Secretariat, Amaravati - APPCB",09-07-2024 12:00:00,16.5150833,80.5181667,CO,10,46,22
India,Andhra_Pradesh,Anantapur,"Gulzarpet, Anantapur - APPCB",09-07-2024 12:00:00,14.675886,77.593027,PM2.5,30,51,40
India,Andhra_Pradesh,Anantapur,"Gulzarpet, Anantapur - APPCB",09-07-2024 12:00:00,14.675886,77.593027,SO2,2,6,4
India,Andhra_Pradesh,Chittoor,"Gangineni Cheruvu, Chittoor - APPCB",09-07-2024 12:00:00,13.204880,79.097889,NH3,NA,NA,NA
India,Andhra_Pradesh,Kadapa,"Yerramukkapalli, Kadapa - APPCB",09-07-2024 12:00:00,14.465052,78.824187,SO2,2,3,2
India,Andhra_Pradesh,Kadapa,"Yerramukkapalli, Kadapa - APPCB",09-07-2024 12:00:00,14.465052,78.824187,CO,20,51,31
India,Andhra_Pradesh,Kadapa,"Yerramukkapalli, Kadapa - APPCB",09-07-2024 12:00:00,14.465052,78.824187,OZONE,7,7,7
India,Andhra_Pradesh,Rajamahendravaram,"Anand Kala Kshetram, Rajamahendravaram - APPCB",09-07-2024 12:00:00,16.9872867,81.7363176,PM10,17,59,40
India,Andhra_Pradesh,Rajamahendravaram,"Anand Kala Kshetram, Rajamahendravaram - APPCB",09-07-2024 12:00:00,16.9872867,81.7363176,SO2,11,13,12
India,Andhra_Pradesh,Tirupati,"Tirumala, Tirupati - APPCB",09-07-2024 12:00:00,13.67,79.35,PM10,7,48,26
India,Andhra_Pradesh,Tirupati,"Tirumala, Tirupati - APPCB",09-07-2024 12:00:00,13.67,79.35,OZONE,13,26,17
India,Andhra_Pradesh,Tirupati,"Vaikuntapuram, Tirupati - APPCB",09-07-2024 12:00:00,13.615387,79.409230,OZONE,24,41,27
India,Andhra_Pradesh,Vijayawada,"HB Colony, Vijayawada - APPCB",09-07-2024 12:00:00,16.536107,80.594233,NO2,11,29,18
India,Andhra_Pradesh,Vijayawada,"Kanuru, Vijayawada - APPCB",09-07-2024 12:00:00,16.486692,80.699436,SO2,7,10,8
India,Andhra_Pradesh,Vijayawada,"Rajiv Gandhi Park, Vijayawada - APPCB",09-07-2024 12:00:00,16.509717,80.612222,PM2.5,35,79,57
India,Andhra_Pradesh,Vijayawada,"Rajiv Gandhi Park, Vijayawada - APPCB",09-07-2024 12:00:00,16.509717,80.612222,PM10,34,78,56
India,Andhra_Pradesh,Vijayawada,"Rajiv Gandhi Park, Vijayawada - APPCB",09-07-2024 12:00:00,16.509717,80.612222,NH3,5,6,6
India,Andhra_Pradesh,Vijayawada,"Rajiv Nagar, Vijayawada - APPCB",09-07-2024 12:00:00,16.554731,80.649110,NO2,10,10,10
India,Andhra_Pradesh,Vijayawada,"Rajiv Nagar, Vijayawada - APPCB",09-07-2024 12:00:00,16.554731,80.649110,SO2,26,26,26
India,Andhra_Pradesh,Vijayawada,"Rajiv Nagar, Vijayawada - APPCB",09-07-2024 12:00:00,16.554731,80.649110,OZONE,15,23,18
India,Andhra_Pradesh,Visakhapatnam,"GVM Corporation, Visakhapatnam - APPCB",09-07-2024 12:00:00,17.72,83.3,PM2.5,23,107,58
India,Andhra_Pradesh,Visakhapatnam,"GVM Corporation, Visakhapatnam - APPCB",09-07-2024 12:00:00,17.72,83.3,NH3,3,9,5
India,Andhra_Pradesh,Visakhapatnam,"GVM Corporation, Visakhapatnam - APPCB",09-07-2024 12:00:00,17.72,83.3,SO2,3,21,12
India,Arunachal_Pradesh,Naharlagun,"Naharlagun, Naharlagun - APSPCB",09-07-2024 12:00:00,27.103358,93.679645,SO2,4,5,5
India,Arunachal_Pradesh,Naharlagun,"Naharlagun, Naharlagun - APSPCB",09-07-2024 12:00:00,27.103358,93.679645,OZONE,3,3,3
India,Assam,Byrnihat,"Central Academy for SFS, Byrnihat - PCBA",09-07-2024 12:00:00,26.071318,91.87488,PM2.5,NA,NA,NA
India,Assam,Byrnihat,"Central Academy for SFS, Byrnihat - PCBA",09-07-2024 12:00:00,26.071318,91.87488,PM10,NA,NA,NA
India,Assam,Byrnihat,"Central Academy for SFS, Byrnihat - PCBA",09-07-2024 12:00:00,26.071318,91.87488,SO2,NA,NA,NA
India,Assam,Byrnihat,"Central Academy for SFS, Byrnihat - PCBA",09-07-2024 12:00:00,26.071318,91.87488,CO,4,18,16
India,Assam,Guwahati,"IITG, Guwahati - PCBA",09-07-2024 12:00:00,26.2028636,91.70046436,CO,6,6,6
India,Assam,Guwahati,"IITG, Guwahati - PCBA",09-07-2024 12:00:00,26.2028636,91.70046436,OZONE,17,30,28
India,Assam,Guwahati,"LGBI Airport, Guwahati - PCBA",09-07-2024 12:00:00,26.10887,91.589544,CO,33,56,45
India,Assam,Guwahati,"Pan Bazaar, Guwahati - PCBA",09-07-2024 12:00:00,26.187500,91.744194,PM2.5,NA,NA,NA
India,Assam,Guwahati,"Railway Colony, Guwahati - PCBA",09-07-2024 12:00:00,26.181742,91.78063,PM2.5,19,52,38
India,Assam,Nagaon,"Christianpatty, Nagaon - PCBA",09-07-2024 12:00:00,26.349082,92.68449,PM10,15,50,18
India,Assam,Nagaon,"Christianpatty, Nagaon - PCBA",09-07-2024 12:00:00,26.349082,92.68449,SO2,10,12,11
India,Assam,Silchar,"Tarapur, Silchar - PCBA",09-07-2024 12:00:00,24.82827,92.79525,PM10,40,81,56
India,Assam,Sivasagar,"Girls College, Sivasagar - PCBA",09-07-2024 12:00:00,26.987634,94.636574,PM10,38,60,49
India,Bihar,Araria,"Kharahiya Basti, Araria - BSPCB",09-07-2024 12:00:00,26.146529,87.454184,PM2.5,NA,NA,NA
India,Bihar,Araria,"Kharahiya Basti, Araria - BSPCB",09-07-2024 12:00:00,26.146529,87.454184,PM10,NA,NA,NA
India,Bihar,Araria,"Kharahiya Basti, Araria - BSPCB",09-07-2024 12:00:00,26.146529,87.454184,NO2,4,11,6
India,Bihar,Araria,"Kharahiya Basti, Araria - BSPCB",09-07-2024 12:00:00,26.146529,87.454184,NH3,4,5,5
India,Bihar,Araria,"Kharahiya Basti, Araria - BSPCB",09-07-2024 12:00:00,26.146529,87.454184,OZONE,6,16,15
India,Bihar,Arrah,"New DM Office, Arrah - BSPCB",09-07-2024 12:00:00,25.5626095,84.663264,CO,11,26,19
India,Bihar,Aurangabad,"Gurdeo Nagar, Aurangabad - BSPCB",09-07-2024 12:00:00,24.75746,84.366208,NH3,2,20,4
India,Bihar,Bettiah,"Kamalnath Nagar, Bettiah - BSPCB",09-07-2024 12:00:00,26.80365,84.51954,NO2,26,29,28
India,Bihar,Bhagalpur,"DM Office_Kachari Chowk, Bhagalpur - BSPCB",09-07-2024 12:00:00,25.251013,86.989001,PM2.5,20,88,49
India,Bihar,Bhagalpur,"DM Office_Kachari Chowk, Bhagalpur - BSPCB",09-07-2024 12:00:00,25.251013,86.989001,SO2,12,22,19
India,Bihar,Bhagalpur,"DM Office_Kachari Chowk, Bhagalpur - BSPCB",09-07-2024 12:00:00,25.251013,86.989001,OZONE,29,54,47
India,Bihar,Bihar Sharif,"D M Colony, Bihar Sharif - BSPCB",09-07-2024 12:00:00,25.204762,85.514960,PM2.5,NA,NA,NA
India,Bihar,Bihar Sharif,"D M Colony, Bihar Sharif - BSPCB",09-07-2024 12:00:00,25.204762,85.514960,NO2,NA,NA,NA
India,Bihar,Buxar,"Charitra Van, Buxar - BSPCB (Formerly known as Central Jail)",09-07-2024 12:00:00,25.567520,83.966379,NH3,1,1,1
India,Bihar,Chhapra,"Darshan Nagar, Chhapra - BSPCB",09-07-2024 12:00:00,25.7808257,84.7446768,NO2,NA,NA,NA
India,Bihar,Chhapra,"Darshan Nagar, Chhapra - BSPCB",09-07-2024 12:00:00,25.7808257,84.7446768,OZONE,9,64,21
India,Bihar,Gaya,"SFTI Kusdihra, Gaya - BSPCB",09-07-2024 12:00:00,24.762518,84.982348,PM2.5,20,56,38
India,Bihar,Gaya,"SFTI Kusdihra, Gaya - BSPCB",09-07-2024 12:00:00,24.762518,84.982348,NH3,3,4,3
India,Bihar,Hajipur,"Industrial Area, Hajipur - BSPCB",09-07-2024 12:00:00,25.697189,85.245900,CO,18,26,24
India,Bihar,Kishanganj,"SDM Office_Khagra, Kishanganj - BSPCB",09-07-2024 12:00:00,26.0881305,87.93840336,NO2,43,71,60
India,Bihar,Motihari,"Gandak Colony, Motihari - BSPCB",09-07-2024 12:00:00,26.63086,84.90051,NH3,1,3,2
India,Bihar,Munger,"Town Hall, Munger - BSPCB",09-07-2024 12:00:00,25.376776,86.471523,PM10,38,135,79
India,Bihar,Munger,"Town Hall, Munger - BSPCB",09-07-2024 12:00:00,25.376776,86.471523,SO2,11,30,20
India,Bihar,Munger,"Town Hall, Munger - BSPCB",09-07-2024 12:00:00,25.376776,86.471523,CO,17,51,31
India,Bihar,Muzaffarpur,"Buddha Colony, Muzaffarpur - BSPCB",09-07-2024 12:00:00,26.11442,85.39813,SO2,4,8,7
India,Bihar,Muzaffarpur,"Buddha Colony, Muzaffarpur - BSPCB",09-07-2024 12:00:00,26.11442,85.39813,CO,14,55,37
India,Bihar,Muzaffarpur,"MIT-Daudpur Kothi, Muzaffarpur - BSPCB",09-07-2024 12:00:00,26.1403345,85.3650192,NH3,NA,NA,NA
India,Bihar,Muzaffarpur,"Muzaffarpur Collectorate, Muzaffarpur - BSPCB",09-07-2024 12:00:00,26.1209,85.3647,PM2.5,63,110,105
India,Bihar,Patna,"DRM Office Danapur, Patna - BSPCB",09-07-2024 12:00:00,25.586562,85.043586,PM10,51,84,69
India,Bihar,Patna,"DRM Office Danapur, Patna - BSPCB",09-07-2024 12:00:00,25.586562,85.043586,NH3,2,3,3
India,Bihar,Patna,"DRM Office Danapur, Patna - BSPCB",09-07-2024 12:00:00,25.586562,85.043586,SO2,1,5,3
India,Bihar,Patna,"Govt. High School Shikarpur, Patna - BSPCB",09-07-2024 12:00:00,25.592539,85.227158,NO2,33,38,34
India,Bihar,Patna,"IGSC Planetarium Complex, Patna - BSPCB",09-07-2024 12:00:00,25.610369,85.132568,SO2,6,8,7
India,Bihar,Patna,"Muradpur, Patna - BSPCB",09-07-2024 12:00:00,25.619651,85.147382,PM2.5,70,144,92
India,Bihar,Patna,"Muradpur, Patna - BSPCB",09-07-2024 12:00:00,25.619651,85.147382,NH3,1,5,3
India,Bihar,Patna,"Rajbansi Nagar, Patna - BSPCB",09-07-2024 12:00:00,25.599486,85.113666,NH3,3,7,5
India,Bihar,Patna,"Rajbansi Nagar, Patna - BSPCB",09-07-2024 12:00:00,25.599486,85.113666,OZONE,2,63,15
India,Bihar,Patna,"Samanpura, Patna - BSPCB",09-07-2024 12:00:00,25.596727,85.085624,PM2.5,48,81,69
India,Bihar,Patna,"Samanpura, Patna - BSPCB",09-07-2024 12:00:00,25.596727,85.085624,NO2,NA,NA,NA
India,Bihar,Saharsa,"Police Line, Saharsa - BSPCB",09-07-2024 12:00:00,25.892357,86.590325,SO2,16,17,17
India,Bihar,Samastipur,"DM Office_Kasipur, Samastipur - BSPCB",09-07-2024 12:00:00,25.859655,85.77944,PM2.5,20,140,85
India,Bihar,Samastipur,"DM Office_Kasipur, Samastipur - BSPCB",09-07-2024 12:00:00,25.859655,85.77944,PM10,21,119,86
India,Bihar,Samastipur,"DM Office_Kasipur, Samastipur - BSPCB",09-07-2024 12:00:00,25.859655,85.77944,NH3,2,2,2
India,Bihar,Sasaram,"Dada Peer, Sasaram - BSPCB",09-07-2024 12:00:00,24.952822,84.002396,CO,22,60,22
India,Bihar,Siwan,"Chitragupta Nagar, Siwan - BSPCB",09-07-2024 12:00:00,26.2271665,84.3570427,SO2,17,139,61
India,Chhattisgarh,Bhilai,"32Bungalows, Bhilai - CECB",09-07-2024 12:00:00,21.194815,81.314770,PM10,9,75,31
India,Chhattisgarh,Bhilai,"Hathkhoj, Bhilai - CECB",09-07-2024 12:00:00,21.224231,81.408350,PM10,22,45,38
India,Chhattisgarh,Bhilai,"Hathkhoj, Bhilai - CECB",09-07-2024 12:00:00,21.224231,81.408350,NO2,9,35,19
India,Chhattisgarh,Bilaspur,"Mangala, Bilaspur - NTPC",09-07-2024 12:00:00,22.08815,82.13737,PM2.5,12,53,29
India,Chhattisgarh,Chhal,"Nawapara SECL Colony, Chhal - CECB",09-07-2024 12:00:00,22.118125,83.140608,NH3,2,2,2
India,Chhattisgarh,Korba,"Rampur, Korba - CECB",09-07-2024 12:00:00,22.368195,82.746431,NO2,15,23,20
India,Chhattisgarh,Korba,"Urja Nagar, Korba - CECB",09-07-2024 12:00:00,22.348441,82.549611,PM10,31,121,53
India,Chhattisgarh,Kunjemura,"OP Jindal School, Kunjemura - CECB",09-07-2024 12:00:00,22.126650,83.483212,CO,18,53,41
India,Chhattisgarh,Milupara,"Govt. Higher Secondary School, Milupara - CECB",09-07-2024 12:00:00,22.1910172,83.5197009,PM2.5,12,42,30
India,Chhattisgarh,Milupara,"Govt. Higher Secondary School, Milupara - CECB",09-07-2024 12:00:00,22.1910172,83.5197009,NO2,9,47,19
India,Chhattisgarh,Raipur,"Bhatagaon New ISBT, Raipur - CECB",09-07-2024 12:00:00,21.219665,81.630094,PM2.5,2,39,19
India,Chhattisgarh,Raipur,"Bhatagaon New ISBT, Raipur - CECB",09-07-2024 12:00:00,21.219665,81.630094,NO2,4,4,4
India,Chhattisgarh,Raipur,"Bhatagaon New ISBT, Raipur - CECB",09-07-2024 12:00:00,21.219665,81.630094,OZONE,3,6,4
India,Chhattisgarh,Raipur,"Siltara Phase-II, Raipur - CECB",09-07-2024 12:00:00,21.371751,81.664929,SO2,4,17,8
India,Chhattisgarh,Tumidih,"OP Jindal Industrial Park, Tumidih - CECB",09-07-2024 12:00:00,22.06631475,83.33820077,OZONE,NA,NA,NA
India,Delhi,Delhi,"Alipur, Delhi - DPCC",09-07-2024 12:00:00,28.815329,77.153010,SO2,7,14,9
India,Delhi,Delhi,"Alipur, Delhi - DPCC",09-07-2024 12:00:00,28.815329,77.153010,OZONE,3,49,15
India,Delhi,Delhi,"Anand Vihar, Delhi - DPCC",09-07-2024 12:00:00,28.647622,77.3158090,SO2,7,21,19
India,Delhi,Delhi,"Ashok Vihar, Delhi - DPCC",09-07-2024 12:00:00,28.695381,77.181665,PM2.5,8,127,54
India,Delhi,Delhi,"Ashok Vihar, Delhi - DPCC",09-07-2024 12:00:00,28.695381,77.181665,SO2,9,16,13
India,Delhi,Delhi,"Aya Nagar, Delhi - IMD",09-07-2024 12:00:00,28.4706914,77.1099364,NO2,17,51,35
India,Delhi,Delhi,"CRRI Mathura Road, Delhi - IMD",09-07-2024 12:00:00,28.5512005,77.2735737,CO,28,40,34
India,Delhi,Delhi,"CRRI Mathura Road, Delhi - IMD",09-07-2024 12:00:00,28.5512005,77.2735737,OZONE,11,44,17
India,Delhi,Delhi,"Chandni Chowk, Delhi - IITM",09-07-2024 12:00:00,28.656756,77.227234,NO2,55,134,95
India,Delhi,Delhi,"Chandni Chowk, Delhi - IITM",09-07-2024 12:00:00,28.656756,77.227234,NH3,12,25,16
India,Delhi,Delhi,"Chandni Chowk, Delhi - IITM",09-07-2024 12:00:00,28.656756,77.227234,SO2,15,103,61
India,Delhi,Delhi,"DTU, Delhi - CPCB",09-07-2024 12:00:00,28.7500499,77.1112615,NH3,13,34,18
India,Delhi,Delhi,"Dr. Karni Singh Shooting Range, Delhi - DPCC",09-07-2024 12:00:00,28.498571,77.264840,NH3,3,7,5
India,Delhi,Delhi,"IHBAS, Dilshad Garden, Delhi - CPCB",09-07-2024 12:00:00,28.6811736,77.3025234,PM2.5,44,80,55
India,Delhi,Delhi,"ITO, Delhi - CPCB",09-07-2024 12:00:00,28.628624,77.241060,NO2,5,17,11
India,Delhi,Delhi,"Jahangirpuri, Delhi - DPCC",09-07-2024 12:00:00,28.732820,77.170633,NO2,NA,NA,NA
India,Delhi,Delhi,"Jawaharlal Nehru Stadium, Delhi - DPCC",09-07-2024 12:00:00,28.580280,77.233829,NH3,5,7,6
India,Delhi,Delhi,"Lodhi Road, Delhi - IMD",09-07-2024 12:00:00,28.5918245,77.2273074,PM10,32,107,71
India,Delhi,Delhi,"Major Dhyan Chand National Stadium, Delhi - DPCC",09-07-2024 12:00:00,28.611281,77.237738,PM10,16,115,66
India,Delhi,Delhi,"Mandir Marg, Delhi - DPCC",09-07-2024 12:00:00,28.636429,77.201067,NH3,4,11,7
India,Delhi,Delhi,"Mundka, Delhi - DPCC",09-07-2024 12:00:00,28.684678,77.076574,CO,38,60,47
India,Delhi,Delhi,"NSIT Dwarka, Delhi - CPCB",09-07-2024 12:00:00,28.60909,77.0325413,NH3,10,11,10
India,Delhi,Delhi,"Najafgarh, Delhi - DPCC",09-07-2024 12:00:00,28.570173,76.933762,PM10,23,103,63
India,Delhi,Delhi,"Narela, Delhi - DPCC",09-07-2024 12:00:00,28.822836,77.101981,PM2.5,3,75,37
India,Delhi,Delhi,"Narela, Delhi - DPCC",09-07-2024 12:00:00,28.822836,77.101981,NH3,9,11,10
India,Delhi,Delhi,"Narela, Delhi - DPCC",09-07-2024 12:00:00,28.822836,77.101981,OZONE,39,85,68
India,Delhi,Delhi,"Nehru Nagar, Delhi - DPCC",09-07-2024 12:00:00,28.567890,77.250515,NO2,8,42,25
India,Delhi,Delhi,"North Campus, DU, Delhi - IMD",09-07-2024 12:00:00,28.6573814,77.1585447,PM10,11,131,64
India,Delhi,Delhi,"North Campus, DU, Delhi - IMD",09-07-2024 12:00:00,28.6573814,77.1585447,NO2,10,20,15
India,Delhi,Delhi,"Okhla Phase-2, Delhi - DPCC",09-07-2024 12:00:00,28.530785,77.271255,CO,42,66,56
India,Delhi,Delhi,"Patparganj, Delhi - DPCC",09-07-2024 12:00:00,28.623763,77.287209,CO,14,36,22
India,Delhi,Delhi,"Punjabi Bagh, Delhi - DPCC",09-07-2024 12:00:00,28.674045,77.131023,PM10,56,141,99
India,Delhi,Delhi,"Pusa, Delhi - DPCC",09-07-2024 12:00:00,28.639652,77.146275,PM2.5,5,130,49
India,Delhi,Delhi,"Pusa, Delhi - DPCC",09-07-2024 12:00:00,28.639652,77.146275,SO2,1,12,6
India,Delhi,Delhi,"Pusa, Delhi - DPCC",09-07-2024 12:00:00,28.639652,77.146275,OZONE,9,23,15
India,Delhi,Delhi,"Pusa, Delhi - IMD",09-07-2024 12:00:00,28.636110,77.173332,CO,54,70,62
India,Delhi,Delhi,"R K Puram, Delhi - DPCC",09-07-2024 12:00:00,28.563262,77.186937,NH3,4,9,6
India,Delhi,Delhi,"R K Puram, Delhi - DPCC",09-07-2024 12:00:00,28.563262,77.186937,SO2,7,21,14
India,Delhi,Delhi,"Rohini, Delhi - DPCC",09-07-2024 12:00:00,28.732528,77.119920,PM10,46,126,86
India,Delhi,Delhi,"Rohini, Delhi - DPCC",09-07-2024 12:00:00,28.732528,77.119920,NH3,11,15,11
India,Delhi,Delhi,"Rohini, Delhi - DPCC",09-07-2024 12:00:00,28.732528,77.119920,SO2,7,11,8
India,Delhi,Delhi,"Shadipur, Delhi - CPCB",09-07-2024 12:00:00,28.6514781,77.1473105,CO,32,104,51
India,Delhi,Delhi,"Shadipur, Delhi - CPCB",09-07-2024 12:00:00,28.6514781,77.1473105,OZONE,11,35,22
India,Delhi,Delhi,"Sirifort, Delhi - CPCB",09-07-2024 12:00:00,28.5504249,77.2159377,CO,26,50,35
India,Delhi,Delhi,"Sonia Vihar, Delhi - DPCC",09-07-2024 12:00:00,28.710508,77.249485,SO2,2,9,6
India,Delhi,Delhi,"Sonia Vihar, Delhi - DPCC",09-07-2024 12:00:00,28.710508,77.249485,CO,12,40,23
India,Delhi,Delhi,"Sri Aurobindo Marg, Delhi - DPCC",09-07-2024 12:00:00,28.531346,77.190156,CO,42,64,50
India,Delhi,Delhi,"Vivek Vihar, Delhi - DPCC",09-07-2024 12:00:00,28.672342,77.315260,SO2,NA,NA,NA
India,Delhi,Delhi,"Wazirpur, Delhi - DPCC",09-07-2024 12:00:00,28.699793,77.165453,SO2,1,7,5
India,Gujarat,Ahmedabad,"Gyaspur, Ahmedabad - IITM",09-07-2024 12:00:00,22.977134,72.553024,PM2.5,21,60,34
India,Gujarat,Ahmedabad,"Maninagar, Ahmedabad - GPCB",09-07-2024 12:00:00,23.002657,72.591912,PM10,89,141,109
India,Gujarat,Ahmedabad,"Maninagar, Ahmedabad - GPCB",09-07-2024 12:00:00,23.002657,72.591912,NO2,20,66,29
India,Gujarat,Ahmedabad,"Raikhad, Ahmedabad - IITM",09-07-2024 12:00:00,23.020509,72.579261,PM10,87,159,120
India,Gujarat,Ahmedabad,"Rakhial, Ahmedabad - IITM",09-07-2024 12:00:00,23.016834,72.625775,NO2,7,91,28
India,Gujarat,Ahmedabad,"Rakhial, Ahmedabad - IITM",09-07-2024 12:00:00,23.016834,72.625775,SO2,9,102,29
India,Gujarat,Ahmedabad,"Rakhial, Ahmedabad - IITM",09-07-2024 12:00:00,23.016834,72.625775,CO,2,51,12
India,Gujarat,Ahmedabad,"Sardar Vallabhbhai Patel Stadium, Ahmedabad - IITM",09-07-2024 12:00:00,23.043070,72.562968,OZONE,7,31,12
India,Gujarat,Ankleshwar,"GIDC, Ankleshwar - GPCB",09-07-2024 12:00:00,21.613267,73.010555,PM10,51,93,76
India,Gujarat,Gandhinagar,"GIFT City, Gandhinagar - IITM",09-07-2024 12:00:00,23.163798,72.677768,SO2,12,19,15
India,Gujarat,Nandesari,"GIDC, Nandesari - Nandesari Ind. Association",09-07-2024 12:00:00,22.410802,73.097923,PM2.5,74,324,210
India,Gujarat,Surat,"Science Center, Surat - SMC",09-07-2024 12:00:00,21.170046,72.795405,CO,65,76,67
India,Gujarat,Vatva,"Phase-4 GIDC, Vatva - GPCB",09-07-2024 12:00:00,22.969611,72.643500,NH3,4,5,4
India,Gujarat,Vatva,"Phase-4 GIDC, Vatva - GPCB",09-07-2024 12:00:00,22.969611,72.643500,CO,22,22,22
India,Gujarat,Vatva,"Phase-4 GIDC, Vatva - GPCB",09-07-2024 12:00:00,22.969611,72.643500,OZONE,26,40,31
India,Haryana,Ambala,"Patti Mehar, Ambala - HSPCB",09-07-2024 12:00:00,30.379589,76.778328,NO2,3,5,4
India,Haryana,Ambala,"Patti Mehar, Ambala - HSPCB",09-07-2024 12:00:00,30.379589,76.778328,NH3,6,8,8
India,Haryana,Ambala,"Patti Mehar, Ambala - HSPCB",09-07-2024 12:00:00,30.379589,76.778328,OZONE,38,58,44
India,Haryana,Bahadurgarh,"Arya Nagar, Bahadurgarh - HSPCB",09-07-2024 12:00:00,28.6701,76.9254,CO,44,55,49
India,Haryana,Dharuhera,"Municipal Corporation Office, Dharuhera -  HSPCB",09-07-2024 12:00:00,28.206800,76.799700,PM2.5,21,401,156
India,Haryana,Dharuhera,"Municipal Corporation Office, Dharuhera -  HSPCB",09-07-2024 12:00:00,28.206800,76.799700,SO2,6,14,9
India,Haryana,Faridabad,"Sector 11, Faridabad - HSPCB",09-07-2024 12:00:00,28.376058,77.315741,SO2,3,113,8
India,Haryana,Faridabad,"Sector 11, Faridabad - HSPCB",09-07-2024 12:00:00,28.376058,77.315741,CO,18,40,35
India,Haryana,Faridabad,"Sector 30, Faridabad - HSPCB",09-07-2024 12:00:00,28.4417,77.3217,CO,22,42,34
India,Haryana,Faridabad,"Sector- 16A, Faridabad - HSPCB",09-07-2024 12:00:00,28.4088421,77.3099081,NO2,54,380,117
India,Haryana,Fatehabad,"Huda Sector, Fatehabad - HSPCB",09-07-2024 12:00:00,29.503664,75.467934,NH3,10,10,10
India,Haryana,Gurugram,"Sector-51, Gurugram - HSPCB",09-07-2024 12:00:00,28.4227,77.0667,CO,2,119,105
India,Haryana,Gurugram,"Teri Gram, Gurugram - HSPCB",09-07-2024 12:00:00,28.4275,77.1465,CO,6,97,78
India,Haryana,Gurugram,"Vikas Sadan, Gurugram - HSPCB",09-07-2024 12:00:00,28.4501238,77.0263051,NO2,5,26,14
India,Haryana,Gurugram,"Vikas Sadan, Gurugram - HSPCB",09-07-2024 12:00:00,28.4501238,77.0263051,OZONE,8,68,17
India,Haryana,Hisar,"Urban Estate-II, Hisar - HSPCB",09-07-2024 12:00:00,29.140560,75.744941,NO2,8,12,10
India,Haryana,Hisar,"Urban Estate-II, Hisar - HSPCB",09-07-2024 12:00:00,29.140560,75.744941,SO2,1,71,11
India,Haryana,Hisar,"Urban Estate-II, Hisar - HSPCB",09-07-2024 12:00:00,29.140560,75.744941,CO,25,40,29
India,Haryana,Hisar,"Urban Estate-II, Hisar - HSPCB",09-07-2024 12:00:00,29.140560,75.744941,OZONE,10,41,18
India,Haryana,Jind,"Police Lines, Jind - HSPCB",09-07-2024 12:00:00,29.307814,76.337619,NH3,4,7,4
India,Haryana,Jind,"Police Lines, Jind - HSPCB",09-07-2024 12:00:00,29.307814,76.337619,SO2,1,10,4
India,Haryana,Kaithal,"Rishi Nagar, Kaithal - HSPCB",09-07-2024 12:00:00,29.8006,76.4155,OZONE,14,29,18
India,Haryana,Karnal,"Sector-12, Karnal - HSPCB",09-07-2024 12:00:00,29.695300,77.002700,NO2,7,12,10
India,Haryana,Karnal,"Sector-12, Karnal - HSPCB",09-07-2024 12:00:00,29.695300,77.002700,SO2,12,13,13
India,Haryana,Karnal,"Sector-12, Karnal - HSPCB",09-07-2024 12:00:00,29.695300,77.002700,CO,12,30,23
India,Haryana,Kurukshetra,"Sector-7, Kurukshetra - HSPCB",09-07-2024 12:00:00,29.966942,76.875879,PM2.5,16,54,31
India,Haryana,Kurukshetra,"Sector-7, Kurukshetra - HSPCB",09-07-2024 12:00:00,29.966942,76.875879,CO,12,24,20
India,Haryana,Mandikhera,"General Hospital, Mandikhera - HSPCB",09-07-2024 12:00:00,27.9002,76.9938,NH3,17,20,18
India,Haryana,Manesar,"Sector-2 IMT, Manesar - HSPCB",09-07-2024 12:00:00,28.360699,76.936090,PM2.5,18,113,47
India,Haryana,Palwal,"Shyam Nagar, Palwal - HSPCB",09-07-2024 12:00:00,28.1485564,77.3320667,CO,10,22,15
India,Haryana,Palwal,"Shyam Nagar, Palwal - HSPCB",09-07-2024 12:00:00,28.1485564,77.3320667,OZONE,6,15,7
India,Haryana,Panchkula,"Sector-6, Panchkula - HSPCB ",09-07-2024 12:00:00,30.7057778,76.8531805555555,NO2,10,11,11
India,Haryana,Panipat,"Sector-18, Panipat - HSPCB",09-07-2024 12:00:00,29.432304,76.972765,OZONE,30,30,30
India,Haryana,Rohtak,"MD University, Rohtak - HSPCB",09-07-2024 12:00:00,28.52123,76.37138,NO2,32,39,35
India,Haryana,Sirsa,"F-Block, Sirsa - HSPCB",09-07-2024 12:00:00,29.536400,75.015800,CO,109,111,109
India,Haryana,Sonipat,"Murthal, Sonipat - HSPCB",09-07-2024 12:00:00,29.027200,77.062100,PM2.5,2,48,27
India,Himachal Pradesh,Baddi,"HIMUDA Complex Phase-1, Baddi - HPPCB",09-07-2024 12:00:00,30.943887,76.801991,PM10,85,242,126
India,Himachal Pradesh,Baddi,"HIMUDA Complex Phase-1, Baddi - HPPCB",09-07-2024 12:00:00,30.943887,76.801991,OZONE,2,95,29
India,Jammu_and_Kashmir,Srinagar,"Rajbagh, Srinagar - JKSPCB",09-07-2024 12:00:00,34.066206,74.819820,NO2,6,6,6
India,Jammu_and_Kashmir,Srinagar,"Rajbagh, Srinagar - JKSPCB",09-07-2024 12:00:00,34.066206,74.819820,OZONE,12,30,14
India,Jharkhand,Dhanbad,"Kalakusuma, Dhanbad - DMC",09-07-2024 12:00:00,23.811548,86.481238,PM2.5,NA,NA,NA
India,Jharkhand,Dhanbad,"Kalakusuma, Dhanbad - DMC",09-07-2024 12:00:00,23.811548,86.481238,PM10,12,62,17
India,Jharkhand,Dhanbad,"Sardar Patel Nagar, Dhanbad - JSPCB",09-07-2024 12:00:00,23.80569,86.44268,NO2,4,28,7
India,Jharkhand,Dhanbad,"Sardar Patel Nagar, Dhanbad - JSPCB",09-07-2024 12:00:00,23.80569,86.44268,OZONE,9,34,16
India,Jharkhand,Pathardih,"Mohalbani Ghat, Pathardih - DMC",09-07-2024 12:00:00,23.669880,86.411725,OZONE,8,34,16
India,Karnataka,Bagalkot,"Vidayagiri, Bagalkot - KSPCB",09-07-2024 12:00:00,16.172806,75.659694,PM10,49,54,53
India,Karnataka,Bagalkot,"Vidayagiri, Bagalkot - KSPCB",09-07-2024 12:00:00,16.172806,75.659694,CO,20,45,38
India,Karnataka,Belgaum,"Ramteerth Nagar, Belgaum - KSPCB",09-07-2024 12:00:00,15.888653,74.541751,CO,58,70,67
India,Karnataka,Bengaluru,"BTM Layout, Bengaluru - CPCB",09-07-2024 12:00:00,12.9135218,77.5950804,PM2.5,17,21,18
India,Karnataka,Bengaluru,"BTM Layout, Bengaluru - CPCB",09-07-2024 12:00:00,12.9135218,77.5950804,PM10,20,61,32
India,Karnataka,Bengaluru,"Bapuji Nagar, Bengaluru - KSPCB",09-07-2024 12:00:00,12.951913,77.539784,NO2,14,16,15
India,Karnataka,Bengaluru,"Bapuji Nagar, Bengaluru - KSPCB",09-07-2024 12:00:00,12.951913,77.539784,OZONE,28,45,32
India,Karnataka,Bengaluru,"Hebbal, Bengaluru - KSPCB",09-07-2024 12:00:00,13.029152,77.585901,PM10,19,50,30
India,Karnataka,Bengaluru,"Hebbal, Bengaluru - KSPCB",09-07-2024 12:00:00,13.029152,77.585901,SO2,19,25,21
India,Karnataka,Bengaluru,"Hombegowda Nagar, Bengaluru - KSPCB",09-07-2024 12:00:00,12.938539,77.590100,NO2,8,20,13
India,Karnataka,Bengaluru,"Hombegowda Nagar, Bengaluru - KSPCB",09-07-2024 12:00:00,12.938539,77.590100,OZONE,10,20,14
India,Karnataka,Bengaluru,"Jayanagar 5th Block, Bengaluru - KSPCB",09-07-2024 12:00:00,12.920984,77.584908,SO2,11,19,15
India,Karnataka,Bengaluru,"Jayanagar 5th Block, Bengaluru - KSPCB",09-07-2024 12:00:00,12.920984,77.584908,CO,1,48,6
India,Karnataka,Bengaluru,"Jigani, Bengaluru - KSPCB",09-07-2024 12:00:00,12.7816279,77.6299145,NO2,33,37,37
India,Karnataka,Bengaluru,"Jigani, Bengaluru - KSPCB",09-07-2024 12:00:00,12.7816279,77.6299145,SO2,12,18,17
India,Karnataka,Bengaluru,"Jigani, Bengaluru - KSPCB",09-07-2024 12:00:00,12.7816279,77.6299145,CO,24,44,38
India,Karnataka,Bengaluru,"Kasturi Nagar, Bengaluru - KSPCB",09-07-2024 12:00:00,13.003872,77.664217,PM10,35,43,38
India,Karnataka,Bengaluru,"RVCE-Mailasandra, Bengaluru - KSPCB",09-07-2024 12:00:00,12.921418,77.502466,PM2.5,38,91,68
India,Karnataka,Bengaluru,"RVCE-Mailasandra, Bengaluru - KSPCB",09-07-2024 12:00:00,12.921418,77.502466,OZONE,39,39,39
India,Karnataka,Bengaluru,"Silk Board, Bengaluru - KSPCB",09-07-2024 12:00:00,12.917348,77.622813,PM10,19,128,67
India,Karnataka,Bengaluru,"Silk Board, Bengaluru - KSPCB",09-07-2024 12:00:00,12.917348,77.622813,CO,12,62,22
India,Karnataka,Bidar,"Naubad, Bidar - KSPCB",09-07-2024 12:00:00,17.930306,77.482194,PM10,NA,NA,NA
India,Karnataka,Chamarajanagar,"Urban, Chamarajanagar - KSPCB",09-07-2024 12:00:00,11.55358,76.55521,OZONE,25,38,27
India,Karnataka,Chikkaballapur,"Chikkaballapur Rural, Chikkaballapur - KSPCB",09-07-2024 12:00:00,13.428828,77.731418,PM2.5,3,25,15
India,Karnataka,Chikkamagaluru,"Kalyana Nagara, Chikkamagaluru - KSPCB",09-07-2024 12:00:00,13.328028,75.797056,PM10,20,50,33
India,Karnataka,Chikkamagaluru,"Kalyana Nagara, Chikkamagaluru - KSPCB",09-07-2024 12:00:00,13.328028,75.797056,OZONE,9,28,16
India,Karnataka,Dharwad,"Kalabhavan, Dharwad - KSPCB",09-07-2024 12:00:00,15.459706,75.008381,PM2.5,NA,NA,NA
India,Karnataka,Gadag,"Panchal Nagar, Gadag - KSPCB",09-07-2024 12:00:00,15.411456,75.638133,OZONE,9,12,11
India,Karnataka,Kalaburagi,"Lal Bahadur Shastri Nagar, Kalaburagi - KSPCB",09-07-2024 12:00:00,17.321993,76.822628,PM10,22,64,37
India,Karnataka,Kalaburagi,"Lal Bahadur Shastri Nagar, Kalaburagi - KSPCB",09-07-2024 12:00:00,17.321993,76.822628,OZONE,2,8,4
India,Karnataka,Kalaburagi,"Mahatma Basaveswar Colony, Kalaburgi - KSPCB",09-07-2024 12:00:00,17.336318,76.847397,PM2.5,7,34,20
India,Karnataka,Karwar,"KHB Colony, Karwar - KSPCB",09-07-2024 12:00:00,14.816666,74.141003,OZONE,21,22,22
India,Karnataka,Kolar,"Tamaka Ind. Area, Kolar - KSPCB",09-07-2024 12:00:00,13.1276288,78.1570122,NO2,19,30,24
India,Karnataka,Kolar,"Tamaka Ind. Area, Kolar - KSPCB",09-07-2024 12:00:00,13.1276288,78.1570122,NH3,10,14,12
India,Karnataka,Koppal,"Diwator Nagar, Koppal - KSPCB",09-07-2024 12:00:00,15.347630,76.181767,PM10,4,13,7
India,Karnataka,Koppal,"Diwator Nagar, Koppal - KSPCB",09-07-2024 12:00:00,15.347630,76.181767,NH3,6,9,8
India,Karnataka,Madikeri,"Stuart Hill, Madikeri - KSPCB",09-07-2024 12:00:00,12.415911,75.735050,SO2,4,4,4
India,Karnataka,Mangalore,"Kadri, Mangalore - KSPCB",09-07-2024 12:00:00,12.889250,74.853000,NH3,2,2,2
India,Karnataka,Mysuru,"Hebbal 1st Stage, Mysuru - KSPCB",09-07-2024 12:00:00,12.21041,76.37376,NO2,12,46,24
India,Karnataka,Mysuru,"Hebbal 1st Stage, Mysuru - KSPCB",09-07-2024 12:00:00,12.21041,76.37376,CO,2,25,14
India,Karnataka,Raichur,"Haji Colony, Raichur - KSPCB",09-07-2024 12:00:00,16.208139,77.348417,CO,94,104,95
India,Karnataka,Shivamogga,"Vinoba Nagara, Shivamogga - KSPCB",09-07-2024 12:00:00,13.940000,75.555917,CO,8,38,18
India,Karnataka,Shivamogga,"Vinoba Nagara, Shivamogga - KSPCB",09-07-2024 12:00:00,13.940000,75.555917,OZONE,28,49,36
India,Karnataka,Udupi,"Brahmagiri, Udupi - KSPCB",09-07-2024 12:00:00,13.34194444,74.74694444,NH3,2,4,3
India,Karnataka,Vijayapura,"Ibrahimpur, Vijayapura - KSPCB",09-07-2024 12:00:00,16.802639,75.722694,NH3,2,2,2
India,Kerala,Eloor,"Udyogamandal, Eloor - Kerala PCB",09-07-2024 12:00:00,10.073232,76.302765,SO2,1,2,1
India,Kerala,Kannur,"Thavakkara, Kannur - Kerala PCB",09-07-2024 12:00:00,11.875000,75.373200,SO2,NA,NA,NA
India,Kerala,Kollam,"Polayathode, Kollam - Kerala PCB",09-07-2024 12:00:00,8.8787,76.6073,OZONE,32,34,33
India,Kerala,Thiruvananthapuram,"Kariavattom, Thiruvananthapuram - Kerala PCB",09-07-2024 12:00:00,8.563700,76.886500,NH3,1,1,1
India,Kerala,Thiruvananthapuram,"Kariavattom, Thiruvananthapuram - Kerala PCB",09-07-2024 12:00:00,8.563700,76.886500,CO,18,60,30
India,Kerala,Thiruvananthapuram,"Kariavattom, Thiruvananthapuram - Kerala PCB",09-07-2024 12:00:00,8.563700,76.886500,OZONE,36,36,36
India,Kerala,Thiruvananthapuram,"Plammoodu, Thiruvananthapuram - Kerala PCB",09-07-2024 12:00:00,8.5149093,76.9435879,PM2.5,NA,NA,NA
India,Kerala,Thiruvananthapuram,"Plammoodu, Thiruvananthapuram - Kerala PCB",09-07-2024 12:00:00,8.5149093,76.9435879,CO,8,31,17
India,Madhya Pradesh,Bhopal,"Idgah Hills, Bhopal - MPPCB",09-07-2024 12:00:00,23.264759,77.381568,PM2.5,7,45,24
India,Madhya Pradesh,Bhopal,"Idgah Hills, Bhopal - MPPCB",09-07-2024 12:00:00,23.264759,77.381568,NO2,6,44,18
India,Madhya Pradesh,Bhopal,"Paryavaran Parisar, Bhopal - MPPCB",09-07-2024 12:00:00,23.210494,77.425409,NO2,8,53,25
India,Madhya Pradesh,Bhopal,"Paryavaran Parisar, Bhopal - MPPCB",09-07-2024 12:00:00,23.210494,77.425409,NH3,2,12,4
India,Madhya Pradesh,Bhopal,"T T Nagar, Bhopal - MPPCB",09-07-2024 12:00:00,23.233584,77.400574,PM2.5,8,48,23
India,Madhya Pradesh,Bhopal,"T T Nagar, Bhopal - MPPCB",09-07-2024 12:00:00,23.233584,77.400574,PM10,16,86,38
India,Madhya Pradesh,Bhopal,"T T Nagar, Bhopal - MPPCB",09-07-2024 12:00:00,23.233584,77.400574,CO,30,102,42
India,Madhya Pradesh,Dewas,"Bhopal Chauraha, Dewas - MPPCB",09-07-2024 12:00:00,22.9682591,76.064118,PM2.5,25,137,64
India,Madhya Pradesh,Dewas,"Bhopal Chauraha, Dewas - MPPCB",09-07-2024 12:00:00,22.9682591,76.064118,PM10,34,123,72
India,Madhya Pradesh,Dewas,"Bhopal Chauraha, Dewas - MPPCB",09-07-2024 12:00:00,22.9682591,76.064118,NH3,1,3,3
India,Madhya Pradesh,Dewas,"Bhopal Chauraha, Dewas - MPPCB",09-07-2024 12:00:00,22.9682591,76.064118,SO2,4,52,30
India,Madhya Pradesh,Gwalior,"City Center, Gwalior - MPPCB",09-07-2024 12:00:00,26.203442,78.193251,CO,34,61,39
India,Madhya Pradesh,Gwalior,"Deen Dayal Nagar, Gwalior - MPPCB",09-07-2024 12:00:00,26.259242,78.216432,PM10,37,171,92
India,Madhya Pradesh,Gwalior,"Deen Dayal Nagar, Gwalior - MPPCB",09-07-2024 12:00:00,26.259242,78.216432,OZONE,12,220,189
India,Madhya Pradesh,Gwalior,"Maharaj Bada, Gwalior - MPPCB",09-07-2024 12:00:00,26.200388,78.147714,PM10,29,122,66
India,Madhya Pradesh,Gwalior,"Maharaj Bada, Gwalior - MPPCB",09-07-2024 12:00:00,26.200388,78.147714,NO2,14,44,20
India,Madhya Pradesh,Gwalior,"Phool Bagh, Gwalior - Mondelez Ind. Food",09-07-2024 12:00:00,26.210536,78.171,PM10,14,91,50
India,Madhya Pradesh,Indore,"Chhoti Gwaltoli, Indore - MPPCB",09-07-2024 12:00:00,22.4310,75.5213,CO,50,98,59
India,Madhya Pradesh,Indore,"Maguda Nagar, Indore - IMC",09-07-2024 12:00:00,22.7524,75.8872,NO2,3,3,3
India,Madhya Pradesh,Indore,"Maguda Nagar, Indore - IMC",09-07-2024 12:00:00,22.7524,75.8872,OZONE,1,3,2
India,Madhya Pradesh,Indore,"Regional Park, Indore - IMC",09-07-2024 12:00:00,22.6780,75.8559,PM2.5,23,66,37
India,Madhya Pradesh,Indore,"Regional Park, Indore - IMC",09-07-2024 12:00:00,22.6780,75.8559,PM10,14,69,36
India,Madhya Pradesh,Indore,"Residency Area, Indore - IMC",09-07-2024 12:00:00,22.7084,75.8815,PM2.5,17,55,31
India,Madhya Pradesh,Indore,"Residency Area, Indore - IMC",09-07-2024 12:00:00,22.7084,75.8815,OZONE,8,13,12
India,Madhya Pradesh,Jabalpur,"Suhagi, Jabalpur - JMC",09-07-2024 12:00:00,23.218135,79.957770,NO2,21,28,25
India,Madhya Pradesh,Jabalpur,"Suhagi, Jabalpur - JMC",09-07-2024 12:00:00,23.218135,79.957770,OZONE,10,44,24
India,Madhya Pradesh,Katni,"Gole Bazar, Katni - MPPCB",09-07-2024 12:00:00,23.50016,80.23284,PM10,30,80,56
India,Madhya Pradesh,Katni,"Gole Bazar, Katni - MPPCB",09-07-2024 12:00:00,23.50016,80.23284,NO2,19,28,22
India,Madhya Pradesh,Maihar,"Sahilara, Maihar - KJS Cements",09-07-2024 12:00:00,24.2613009,80.7231783,SO2,9,10,9
India,Madhya Pradesh,Maihar,"Sahilara, Maihar - KJS Cements",09-07-2024 12:00:00,24.2613009,80.7231783,CO,38,50,50
India,Madhya Pradesh,Mandideep,"Sector-D Industrial Area, Mandideep - MPPCB",09-07-2024 12:00:00,23.108440,77.511428,SO2,6,102,41
India,Madhya Pradesh,Pithampur,"Sector-2 Industrial Area, Pithampur - MPPCB",09-07-2024 12:00:00,22.624758,75.675238,PM2.5,27,79,53
India,Madhya Pradesh,Sagar,"Civil Lines, Sagar - MPPCB",09-07-2024 12:00:00,23.838586,78.759431,PM2.5,6,45,18
India,Madhya Pradesh,Sagar,"Civil Lines, Sagar - MPPCB",09-07-2024 12:00:00,23.838586,78.759431,CO,32,53,35
India,Madhya Pradesh,Satna,"Bandhavgar Colony, Satna - Birla Cement",09-07-2024 12:00:00,24.58434363,80.8549414,PM10,17,39,28
India,Madhya Pradesh,Singrauli,"Suryakiran Bhawan NCL, Singrauli - MPPCB",09-07-2024 12:00:00,24.108970,82.645580,PM10,13,107,49
India,Madhya Pradesh,Singrauli,"Suryakiran Bhawan NCL, Singrauli - MPPCB",09-07-2024 12:00:00,24.108970,82.645580,NH3,3,5,4
India,Madhya Pradesh,Singrauli,"Suryakiran Bhawan NCL, Singrauli - MPPCB",09-07-2024 12:00:00,24.108970,82.645580,CO,17,72,24
India,Madhya Pradesh,Ujjain,"Mahakaleshwar Temple, Ujjain - MPPCB",09-07-2024 12:00:00,23.182719 ,75.768218 ,PM2.5,NA,NA,NA
India,Madhya Pradesh,Ujjain,"Mahakaleshwar Temple, Ujjain - MPPCB",09-07-2024 12:00:00,23.182719 ,75.768218 ,NO2,NA,NA,NA
India,Maharashtra,Ahmednagar,"Tarakpur, Ahmednagar - MPCB",09-07-2024 12:00:00,19.10122,74.73339,PM2.5,NA,NA,NA
India,Maharashtra,Ahmednagar,"Tarakpur, Ahmednagar - MPCB",09-07-2024 12:00:00,19.10122,74.73339,CO,10,42,32
India,Maharashtra,Akola,"Ramdaspeth, Akola - MPCB",09-07-2024 12:00:00,20.719516,77.000253,NH3,1,9,4
India,Maharashtra,Amravati,"Shivneri Colony, Amravati - MPCB",09-07-2024 12:00:00,20.9402359,77.7895248,PM2.5,10,47,30
India,Maharashtra,Amravati,"Shivneri Colony, Amravati - MPCB",09-07-2024 12:00:00,20.9402359,77.7895248,OZONE,2,29,12
India,Maharashtra,Amravati,"Shri Shivaji Science College, Amaravati - MPCB",09-07-2024 12:00:00,20.939198,77.765701,SO2,1,4,2
India,Maharashtra,Aurangabad,"MIDC Chilkalthana, Aurangabad - MPCB",09-07-2024 12:00:00,19.875620,75.387310,NO2,2,34,12
India,Maharashtra,Aurangabad,"MIDC Chilkalthana, Aurangabad - MPCB",09-07-2024 12:00:00,19.875620,75.387310,SO2,1,2,1
India,Maharashtra,Aurangabad,"MIDC Chilkalthana, Aurangabad - MPCB",09-07-2024 12:00:00,19.875620,75.387310,CO,2,44,9
India,Maharashtra,Aurangabad,"MIDC Chilkalthana, Aurangabad - MPCB",09-07-2024 12:00:00,19.875620,75.387310,OZONE,10,40,19
India,Maharashtra,Badlapur,"Katrap, Badlapur - MPCB",09-07-2024 12:00:00,19.16485,73.23409,PM10,6,68,47
India,Maharashtra,Badlapur,"Katrap, Badlapur - MPCB",09-07-2024 12:00:00,19.16485,73.23409,NO2,9,113,37
India,Maharashtra,Belapur,"CBD Belapur, Belapur - MPCB",09-07-2024 12:00:00,19.0243902,73.0406721,SO2,4,6,5
India,Maharashtra,Bhiwandi,"Gokul Nagar, Bhiwandi - MPCB",09-07-2024 12:00:00,19.309073,73.057223,NO2,9,40,23
India,Maharashtra,Bhiwandi,"Gokul Nagar, Bhiwandi - MPCB",09-07-2024 12:00:00,19.309073,73.057223,NH3,2,5,3
India,Maharashtra,Boisar,"Khaira, Boisar - MPCB",09-07-2024 12:00:00,19.786089,72.757971,PM2.5,16,41,30
India,Maharashtra,Boisar,"Khaira, Boisar - MPCB",09-07-2024 12:00:00,19.786089,72.757971,NO2,1,27,15
India,Maharashtra,Chandrapur,"Chauhan Colony, Chandrapur - MPCB",09-07-2024 12:00:00,19.962900,79.298714,PM10,14,48,25
India,Maharashtra,Chandrapur,"Chauhan Colony, Chandrapur - MPCB",09-07-2024 12:00:00,19.962900,79.298714,SO2,3,3,3
India,Maharashtra,Chandrapur,"MIDC Khutala, Chandrapur - MPCB",09-07-2024 12:00:00,19.9775302,79.2337086,PM10,14,40,24
India,Maharashtra,Chandrapur,"MIDC Khutala, Chandrapur - MPCB",09-07-2024 12:00:00,19.9775302,79.2337086,NH3,7,21,12
India,Maharashtra,Chandrapur,"MIDC Khutala, Chandrapur - MPCB",09-07-2024 12:00:00,19.9775302,79.2337086,CO,16,44,27
India,Maharashtra,Jalgaon,"Prabhat Colony, Jalgaon - MPCB",09-07-2024 12:00:00,21.001264,75.565602,SO2,2,9,4
India,Maharashtra,Jalgaon,"Prabhat Colony, Jalgaon - MPCB",09-07-2024 12:00:00,21.001264,75.565602,CO,10,61,14
India,Maharashtra,Jalgaon,"Prabhat Colony, Jalgaon - MPCB",09-07-2024 12:00:00,21.001264,75.565602,OZONE,9,169,16
India,Maharashtra,Jalna,"Old MIDC, Jalna - MPCB",09-07-2024 12:00:00,19.854616,75.905894,CO,20,38,27
India,Maharashtra,Kalyan,"Khadakpada, Kalyan - MPCB",09-07-2024 12:00:00,19.25292,73.142019,PM10,9,64,27
India,Maharashtra,Kalyan,"Khadakpada, Kalyan - MPCB",09-07-2024 12:00:00,19.25292,73.142019,NH3,1,1,1
India,Maharashtra,Kolhapur,"Shivaji University, Kolhapur - MPCB",09-07-2024 12:00:00,16.6870449,74.2505872,PM2.5,22,161,49
India,Maharashtra,Kolhapur,"Shivaji University, Kolhapur - MPCB",09-07-2024 12:00:00,16.6870449,74.2505872,PM10,37,83,57
India,Maharashtra,Kolhapur,"Sinchan Bhavan, Kolhapur - MPCB",09-07-2024 12:00:00,16.7143745,74.2426398,PM2.5,NA,NA,NA
India,Maharashtra,Kolhapur,"Sinchan Bhavan, Kolhapur - MPCB",09-07-2024 12:00:00,16.7143745,74.2426398,NO2,1,10,5
India,Maharashtra,Kolhapur,"Sinchan Bhavan, Kolhapur - MPCB",09-07-2024 12:00:00,16.7143745,74.2426398,NH3,7,8,7
India,Maharashtra,Mahad,"Kamble Tarf Birwadi, Mahad - MPCB",09-07-2024 12:00:00,18.1023399,73.4783687,SO2,2,101,27
India,Maharashtra,Mahad,"Kamble Tarf Birwadi, Mahad - MPCB",09-07-2024 12:00:00,18.1023399,73.4783687,CO,10,38,23
India,Maharashtra,Malegaon,"Mahesh Nagar, Malegaon - MPCB",09-07-2024 12:00:00,20.555712,74.529236,PM2.5,40,73,53
India,Maharashtra,Malegaon,"Mahesh Nagar, Malegaon - MPCB",09-07-2024 12:00:00,20.555712,74.529236,CO,5,35,13
India,Maharashtra,Mira-Bhayandar,"Bhayandar West, Mira-Bhayandar - MPCB",09-07-2024 12:00:00,19.296481,72.840923,SO2,2,4,3
India,Maharashtra,Mira-Bhayandar,"Bhayandar West, Mira-Bhayandar - MPCB",09-07-2024 12:00:00,19.296481,72.840923,CO,22,44,29
India,Maharashtra,Mumbai,"Bandra Kurla Complex, Mumbai - MPCB",09-07-2024 12:00:00,19.065931,72.862131,NH3,15,72,20
India,Maharashtra,Mumbai,"Borivali East, Mumbai - IITM",09-07-2024 12:00:00,19.23241,72.86895,PM2.5,7,34,20
India,Maharashtra,Mumbai,"Borivali East, Mumbai - IITM",09-07-2024 12:00:00,19.23241,72.86895,CO,32,67,38
India,Maharashtra,Mumbai,"Borivali East, Mumbai - IITM",09-07-2024 12:00:00,19.23241,72.86895,OZONE,47,61,53
India,Maharashtra,Mumbai,"Borivali East, Mumbai - MPCB",09-07-2024 12:00:00,19.2243333,72.8658113,PM10,5,45,17
India,Maharashtra,Mumbai,"Borivali East, Mumbai - MPCB",09-07-2024 12:00:00,19.2243333,72.8658113,NH3,2,3,2
India,Maharashtra,Mumbai,"Byculla, Mumbai - BMC",09-07-2024 12:00:00,18.9767,72.8380,PM10,9,29,16
India,Maharashtra,Mumbai,"Byculla, Mumbai - BMC",09-07-2024 12:00:00,18.9767,72.8380,SO2,1,2,1
India,Maharashtra,Mumbai,"Chakala-Andheri East, Mumbai - IITM",09-07-2024 12:00:00,19.11074,72.86084,NO2,27,56,36
India,Maharashtra,Mumbai,"Chembur, Mumbai - MPCB",09-07-2024 12:00:00,19.0364585,72.8954371,CO,32,66,40
India,Maharashtra,Mumbai,"Chhatrapati Shivaji Intl. Airport (T2), Mumbai - MPCB",09-07-2024 12:00:00,19.10078,72.87462,PM2.5,10,58,25
India,Maharashtra,Mumbai,"Chhatrapati Shivaji Intl. Airport (T2), Mumbai - MPCB",09-07-2024 12:00:00,19.10078,72.87462,CO,12,22,15
India,Maharashtra,Mumbai,"Ghatkopar, Mumbai - BMC",09-07-2024 12:00:00,19.083694,72.920967,NH3,2,3,3
India,Maharashtra,Mumbai,"Ghatkopar, Mumbai - BMC",09-07-2024 12:00:00,19.083694,72.920967,SO2,1,2,1
India,Maharashtra,Mumbai,"Ghatkopar, Mumbai - BMC",09-07-2024 12:00:00,19.083694,72.920967,CO,11,22,15
India,Maharashtra,Mumbai,"Kandivali East, Mumbai - MPCB",09-07-2024 12:00:00,19.205800,72.868200,CO,27,55,27
India,Maharashtra,Mumbai,"Kandivali West, Mumbai - BMC",09-07-2024 12:00:00,19.215859,72.831718,NH3,1,2,1
India,Maharashtra,Mumbai,"Kherwadi_Bandra East, Mumbai - MPCB",09-07-2024 12:00:00,19.0632143,72.8456324,OZONE,2,30,7
India,Maharashtra,Mumbai,"Khindipada-Bhandup West, Mumbai - IITM",09-07-2024 12:00:00,19.1653323,72.922099,NO2,6,8,7
India,Maharashtra,Mumbai,"Kurla, Mumbai - MPCB",09-07-2024 12:00:00,19.0863,72.8888,NO2,NA,NA,NA
India,Maharashtra,Mumbai,"Kurla, Mumbai - MPCB",09-07-2024 12:00:00,19.0863,72.8888,NH3,NA,NA,NA
India,Maharashtra,Mumbai,"Mazgaon, Mumbai - IITM",09-07-2024 12:00:00,18.96702,72.84214,CO,6,75,45
India,Maharashtra,Mumbai,"Mindspace-Malad West, Mumbai - MPCB",09-07-2024 12:00:00,19.1878657,72.8304069,NH3,NA,NA,NA
India,Maharashtra,Mumbai,"Mindspace-Malad West, Mumbai - MPCB",09-07-2024 12:00:00,19.1878657,72.8304069,CO,28,54,38
India,Maharashtra,Mumbai,"Mulund West, Mumbai - MPCB",09-07-2024 12:00:00,19.1750,72.9419,SO2,18,18,18
India,Maharashtra,Mumbai,"Navy Nagar-Colaba, Mumbai - IITM",09-07-2024 12:00:00,18.897756,72.813320,PM2.5,11,44,25
India,Maharashtra,Mumbai,"Navy Nagar-Colaba, Mumbai - IITM",09-07-2024 12:00:00,18.897756,72.813320,PM10,23,47,33
India,Maharashtra,Mumbai,"Navy Nagar-Colaba, Mumbai - IITM",09-07-2024 12:00:00,18.897756,72.813320,OZONE,10,36,20
India,Maharashtra,Mumbai,"Powai, Mumbai - MPCB",09-07-2024 12:00:00,19.137500,72.915056,NH3,2,3,2
India,Maharashtra,Mumbai,"Sewri, Mumbai - BMC",09-07-2024 12:00:00,19.000084,72.856730,OZONE,9,25,13
India,Maharashtra,Mumbai,"Shivaji Nagar, Mumbai - BMC",09-07-2024 12:00:00,19.060498,72.923356,SO2,1,9,5
India,Maharashtra,Mumbai,"Shivaji Nagar, Mumbai - BMC",09-07-2024 12:00:00,19.060498,72.923356,OZONE,1,21,6
India,Maharashtra,Mumbai,"Siddharth Nagar-Worli, Mumbai - IITM",09-07-2024 12:00:00,19.000083,72.813993,PM10,14,41,25
India,Maharashtra,Mumbai,"Sion, Mumbai - MPCB",09-07-2024 12:00:00,19.047000,72.874600,PM10,35,91,59
India,Maharashtra,Mumbai,"Sion, Mumbai - MPCB",09-07-2024 12:00:00,19.047000,72.874600,OZONE,20,42,27
India,Maharashtra,Mumbai,"Vasai West, Mumbai - MPCB",09-07-2024 12:00:00,19.383200,72.820400,PM10,21,58,41
India,Maharashtra,Mumbai,"Vasai West, Mumbai - MPCB",09-07-2024 12:00:00,19.383200,72.820400,NH3,4,4,4
India,Maharashtra,Mumbai,"Vile Parle West, Mumbai - MPCB",09-07-2024 12:00:00,19.10861,72.83622,PM10,3,52,9
India,Maharashtra,Mumbai,"Vile Parle West, Mumbai - MPCB",09-07-2024 12:00:00,19.10861,72.83622,CO,16,17,16
India,Maharashtra,Mumbai,"Worli, Mumbai - MPCB",09-07-2024 12:00:00,18.9936162,72.8128113,PM10,NA,NA,NA
India,Maharashtra,Mumbai,"Worli, Mumbai - MPCB",09-07-2024 12:00:00,18.9936162,72.8128113,SO2,NA,NA,NA
India,Maharashtra,Nagpur,"Ambazari, Nagpur - MPCB",09-07-2024 12:00:00,21.121801,79.04952,NO2,3,26,15
India,Maharashtra,Nagpur,"Mahal, Nagpur - MPCB",09-07-2024 12:00:00,21.14472,79.107595,PM10,18,73,43
India,Maharashtra,Nagpur,"Mahal, Nagpur - MPCB",09-07-2024 12:00:00,21.14472,79.107595,CO,12,94,23
India,Maharashtra,Nagpur,"Opp GPO Civil Lines, Nagpur - MPCB",09-07-2024 12:00:00,21.152875,79.0517531,PM2.5,19,68,42
India,Maharashtra,Nagpur,"Opp GPO Civil Lines, Nagpur - MPCB",09-07-2024 12:00:00,21.152875,79.0517531,OZONE,2,22,4
India,Maharashtra,Nagpur,"Ram Nagar, Nagpur - MPCB",09-07-2024 12:00:00,21.143383,79.048912,PM2.5,9,41,22
India,Maharashtra,Nagpur,"Ram Nagar, Nagpur - MPCB",09-07-2024 12:00:00,21.143383,79.048912,PM10,26,55,38
India,Maharashtra,Nanded,"Sneh Nagar, Nanded - MPCB",09-07-2024 12:00:00,19.173852,77.296291,PM10,15,61,34
India,Maharashtra,Nanded,"Sneh Nagar, Nanded - MPCB",09-07-2024 12:00:00,19.173852,77.296291,NO2,5,33,9
India,Maharashtra,Nashik,"Gangapur Road, Nashik - MPCB",09-07-2024 12:00:00,20.0073285,73.7762427,CO,12,62,34
India,Maharashtra,Nashik,"Hirawadi, Nashik - MPCB",09-07-2024 12:00:00,20.021503,73.813844,NH3,2,3,3
India,Maharashtra,Nashik,"MIDC Ambad, Nashik - MPCB",09-07-2024 12:00:00,19.950220,73.731480,PM10,28,83,55
India,Maharashtra,Nashik,"MIDC Ambad, Nashik - MPCB",09-07-2024 12:00:00,19.950220,73.731480,CO,2,28,19
India,Maharashtra,Nashik,"Pandav Nagari, Nashik - MPCB",09-07-2024 12:00:00,19.9591346,73.7788008,NO2,11,52,33
India,Maharashtra,Nashik,"Pandav Nagari, Nashik - MPCB",09-07-2024 12:00:00,19.9591346,73.7788008,NH3,2,7,4
India,Maharashtra,Nashik,"Pandav Nagari, Nashik - MPCB",09-07-2024 12:00:00,19.9591346,73.7788008,CO,6,20,17
India,Maharashtra,Nashik,"Pandav Nagari, Nashik - MPCB",09-07-2024 12:00:00,19.9591346,73.7788008,OZONE,16,30,25
India,Maharashtra,Navi Mumbai,"Kopripada-Vashi, Navi Mumbai - MPCB",09-07-2024 12:00:00,19.090337,73.014232,PM10,19,49,31
India,Maharashtra,Navi Mumbai,"Kopripada-Vashi, Navi Mumbai - MPCB",09-07-2024 12:00:00,19.090337,73.014232,NH3,4,4,4
India,Maharashtra,Navi Mumbai,"Mahape, Navi Mumbai - MPCB",09-07-2024 12:00:00,19.1135051,73.008978,NO2,33,35,34
India,Maharashtra,Navi Mumbai,"Mahape, Navi Mumbai - MPCB",09-07-2024 12:00:00,19.1135051,73.008978,CO,18,34,20
India,Maharashtra,Navi Mumbai,"Mahape, Navi Mumbai - MPCB",09-07-2024 12:00:00,19.1135051,73.008978,OZONE,20,29,23
India,Maharashtra,Navi Mumbai,"Nerul, Navi Mumbai - MPCB",09-07-2024 12:00:00,19.008751,73.016620,CO,NA,NA,NA
India,Maharashtra,Navi Mumbai,"Sector-19A Nerul, Navi Mumbai - IITM",09-07-2024 12:00:00,19.044,73.0325,PM10,3,21,7
India,Maharashtra,Navi Mumbai,"Sector-19A Nerul, Navi Mumbai - IITM",09-07-2024 12:00:00,19.044,73.0325,NH3,7,10,8
India,Maharashtra,Navi Mumbai,"Sector-19A Nerul, Navi Mumbai - IITM",09-07-2024 12:00:00,19.044,73.0325,SO2,1,5,3
India,Maharashtra,Navi Mumbai,"Sector-2E Kalamboli, Navi Mumbai - MPCB",09-07-2024 12:00:00,19.02579,73.10297,PM10,8,55,26
India,Maharashtra,Navi Mumbai,"Sector-2E Kalamboli, Navi Mumbai - MPCB",09-07-2024 12:00:00,19.02579,73.10297,NO2,34,90,64
India,Maharashtra,Navi Mumbai,"Sector-2E Kalamboli, Navi Mumbai - MPCB",09-07-2024 12:00:00,19.02579,73.10297,OZONE,1,9,2
India,Maharashtra,Pimpri-Chinchwad,"Park Street Wakad, Pimpri Chinchwad - MPCB",09-07-2024 12:00:00,18.59051,73.77946,NH3,2,4,3
India,Maharashtra,Pimpri-Chinchwad,"Park Street Wakad, Pimpri Chinchwad - MPCB",09-07-2024 12:00:00,18.59051,73.77946,SO2,1,2,1
India,Maharashtra,Pimpri-Chinchwad,"Park Street Wakad, Pimpri Chinchwad - MPCB",09-07-2024 12:00:00,18.59051,73.77946,CO,10,34,21
India,Maharashtra,Pimpri-Chinchwad,"Thergaon, Pimpri Chinchwad - MPCB",09-07-2024 12:00:00,18.616318,73.765797,PM10,15,47,27
India,Maharashtra,Pimpri-Chinchwad,"Thergaon, Pimpri Chinchwad - MPCB",09-07-2024 12:00:00,18.616318,73.765797,NH3,1,9,5
India,Maharashtra,Pune,"Alandi, Pune - IITM",09-07-2024 12:00:00,18.675076,73.892743,CO,36,55,42
India,Maharashtra,Pune,"Bhosari, Pune - IITM",09-07-2024 12:00:00,18.640051,73.848956,PM2.5,7,50,24
India,Maharashtra,Pune,"Bhosari, Pune - IITM",09-07-2024 12:00:00,18.640051,73.848956,OZONE,3,40,17
India,Maharashtra,Pune,"Bhumkar Nagar, Pune - IITM",09-07-2024 12:00:00,18.605770,73.749976,NO2,NA,NA,NA
India,Maharashtra,Pune,"Hadapsar, Pune - IITM",09-07-2024 12:00:00,18.501793,73.927532,PM10,11,53,28
India,Maharashtra,Pune,"Karve Road, Pune - MPCB",09-07-2024 12:00:00,18.5011743,73.8165527,NO2,1,10,3
India,Maharashtra,Pune,"Katraj Dairy, Pune - MPCB",09-07-2024 12:00:00,18.454450,73.854155,NH3,NA,NA,NA
India,Maharashtra,Pune,"Savitribai Phule Pune University, Pune - MPCB",09-07-2024 12:00:00,18.547056,73.826908,OZONE,3,29,9
India,Maharashtra,Pune,"Transport Nagar-Nigdi, Pune - IITM",09-07-2024 12:00:00,18.664282,73.763966,PM10,23,65,43
India,Maharashtra,Sangli,"Vijay Nagar, Sangli - MPCB",09-07-2024 12:00:00, 16.5038,74.3623,PM10,21,44,31
India,Maharashtra,Solapur,"Dnyaneshwar Nagar, Solapur - MPCB",09-07-2024 12:00:00,17.6336264,75.9132495,PM10,20,48,33
India,Maharashtra,Solapur,"Dnyaneshwar Nagar, Solapur - MPCB",09-07-2024 12:00:00,17.6336264,75.9132495,SO2,2,4,3
India,Maharashtra,Solapur,"Dnyaneshwar Nagar, Solapur - MPCB",09-07-2024 12:00:00,17.6336264,75.9132495,CO,18,29,21
India,Maharashtra,Solapur,"Dnyaneshwar Nagar, Solapur - MPCB",09-07-2024 12:00:00,17.6336264,75.9132495,OZONE,25,38,29
India,Maharashtra,Solapur,"Ratandeep Housing Society, Solapur - MPCB",09-07-2024 12:00:00,17.65439,75.90649,OZONE,18,34,23
India,Maharashtra,Thane,"Pimpleshwar Mandir, Thane - MPCB",09-07-2024 12:00:00,19.192056,72.9585188,NH3,NA,NA,NA
India,Maharashtra,Thane,"Upvan Fort, Thane - MPCB",09-07-2024 12:00:00,19.222279,72.957979,PM10,6,44,23
India,Maharashtra,Thane,"Upvan Fort, Thane - MPCB",09-07-2024 12:00:00,19.222279,72.957979,SO2,3,7,5
India,Maharashtra,Thane,"Upvan Fort, Thane - MPCB",09-07-2024 12:00:00,19.222279,72.957979,OZONE,1,12,4
India,Maharashtra,Virar,"Bolinj, Virar - MPCB",09-07-2024 12:00:00,19.4458210,72.7988231,NO2,12,34,23
India,Manipur,Imphal,"Manipur University, Imphal - Manipur PCB",09-07-2024 12:00:00,24.7524239,93.9286218,SO2,NA,NA,NA
India,Mizoram,Aizawl,"Sikulpuikawn, Aizawl - Mizoram PCB",09-07-2024 12:00:00,23.7176342,92.7192841,NO2,1,7,2
India,Mizoram,Aizawl,"Sikulpuikawn, Aizawl - Mizoram PCB",09-07-2024 12:00:00,23.7176342,92.7192841,OZONE,1,20,11
India,Nagaland,Kohima,"PWD Juction, Kohima - NPCB",09-07-2024 12:00:00,25.6635413,94.0989878,PM2.5,4,100,31
India,Nagaland,Kohima,"PWD Juction, Kohima - NPCB",09-07-2024 12:00:00,25.6635413,94.0989878,SO2,38,42,39
India,Odisha,Angul,"Hakimapada, Angul - OSPCB",09-07-2024 12:00:00,20.832874,85.104082,NH3,1,1,1
India,Odisha,Balasore,"Kalidaspur, Balasore - OSPCB",09-07-2024 12:00:00,21.51161,86.89088,NO2,NA,NA,NA
India,Odisha,Balasore,"Kalidaspur, Balasore - OSPCB",09-07-2024 12:00:00,21.51161,86.89088,NH3,1,18,2
India,Odisha,Balasore,"Kalidaspur, Balasore - OSPCB",09-07-2024 12:00:00,21.51161,86.89088,SO2,14,19,15
India,Odisha,Barbil,"Forest Office, Barbil - OSPCB",09-07-2024 12:00:00,22.1166054,85.3945546,NH3,3,4,3
India,Odisha,Barbil,"Forest Office, Barbil - OSPCB",09-07-2024 12:00:00,22.1166054,85.3945546,CO,8,35,27
India,Odisha,Baripada,"Meher Colony, Baripada - OSPCB",09-07-2024 12:00:00,21.941841,86.728318,PM2.5,NA,NA,NA
India,Odisha,Bhubaneswar,"Lingraj Mandir, Bhubaneswar - OSPCB",09-07-2024 12:00:00,20.240790,85.836784,SO2,2,23,10
India,Odisha,Bhubaneswar,"Lingraj Mandir, Bhubaneswar - OSPCB",09-07-2024 12:00:00,20.240790,85.836784,OZONE,16,43,26
India,Odisha,Bhubaneswar,"Patia, Bhubaneswar - OSPCB",09-07-2024 12:00:00,20.34652,85.81630,SO2,2,6,4
India,Odisha,Bhubaneswar,"Patia, Bhubaneswar - OSPCB",09-07-2024 12:00:00,20.34652,85.81630,CO,10,18,18
India,Odisha,Bileipada,"Tata Township, Bileipada - OSPCB",09-07-2024 12:00:00,22.06156703,85.47409613,SO2,14,19,16
India,Odisha,Brajrajnagar,"GM Office, Brajrajnagar - OSPCB",09-07-2024 12:00:00,21.8004996,83.8396977,PM2.5,8,36,23
India,Odisha,Brajrajnagar,"GM Office, Brajrajnagar - OSPCB",09-07-2024 12:00:00,21.8004996,83.8396977,NO2,22,23,22
India,Odisha,Brajrajnagar,"GM Office, Brajrajnagar - OSPCB",09-07-2024 12:00:00,21.8004996,83.8396977,SO2,14,14,14
India,Odisha,Byasanagar,"Ferro Chrome Colony, Byasanagar - OSPCB",09-07-2024 12:00:00,20.94185,86.11510,CO,20,28,24
India,Odisha,Byasanagar,"Ferro Chrome Colony, Byasanagar - OSPCB",09-07-2024 12:00:00,20.94185,86.11510,OZONE,9,64,20
India,Odisha,Cuttack,"CDA Area, Cuttack - OSPCB",09-07-2024 12:00:00,20.48891     ,85.84768     ,CO,8,24,11
India,Odisha,Cuttack,"CDA Area, Cuttack - OSPCB",09-07-2024 12:00:00,20.48891     ,85.84768     ,OZONE,13,39,22
India,Odisha,Keonjhar,"Jagamohanpur, Keonjhar - OSPCB",09-07-2024 12:00:00,21.643900,85.599355,PM10,NA,NA,NA
India,Odisha,Keonjhar,"Jagamohanpur, Keonjhar - OSPCB",09-07-2024 12:00:00,21.643900,85.599355,NO2,NA,NA,NA
India,Odisha,Keonjhar,"Jagamohanpur, Keonjhar - OSPCB",09-07-2024 12:00:00,21.643900,85.599355,OZONE,40,304,99
India,Odisha,Nayagarh,"Dabuna, Nayagarh - OSPCB",09-07-2024 12:00:00,21.847279,85.416905,PM10,NA,NA,NA
India,Odisha,Rairangpur,"Divisional Forest Office, Rairangpur - OSPCB",09-07-2024 12:00:00,22.265816,86.174829,OZONE,30,40,34
India,Odisha,Rourkela,"Raghunathpali, Rourkela - OSPCB",09-07-2024 12:00:00,22.220833,84.809444,PM2.5,25,52,37
India,Odisha,Suakati,"OMC Colony, Suakati - OSPCB",09-07-2024 12:00:00,21.606865,85.510538,NO2,11,12,11
India,Odisha,Talcher,"Talcher Coalfields,Talcher - OSPCB",09-07-2024 12:00:00,20.9360711,85.1707021,SO2,17,24,21
India,Odisha,Tensa,"Barsua Iron Ore Mines, Tensa - OSPCB",09-07-2024 12:00:00,21.869985,85.167016,NH3,3,3,3
India,Odisha,Tensa,"Barsua Iron Ore Mines, Tensa - OSPCB",09-07-2024 12:00:00,21.869985,85.167016,SO2,5,7,5
India,Puducherry,Puducherry,"Jawahar Nagar, Puducherry - PPCC",09-07-2024 12:00:00,11.9309,79.8027,CO,20,40,27
India,Punjab,Amritsar,"Golden Temple, Amritsar - PPCB",09-07-2024 12:00:00,31.620000,74.876512,SO2,7,19,12
India,Punjab,Amritsar,"Golden Temple, Amritsar - PPCB",09-07-2024 12:00:00,31.620000,74.876512,OZONE,42,59,50
India,Punjab,Bathinda,"Hardev Nagar, Bathinda - PPCB",09-07-2024 12:00:00,30.233011,74.907758,PM10,39,165,83
India,Punjab,Jalandhar,"Civil Line, Jalandhar - PPCB",09-07-2024 12:00:00,31.321907,75.578914,PM2.5,24,50,39
India,Punjab,Jalandhar,"Civil Line, Jalandhar - PPCB",09-07-2024 12:00:00,31.321907,75.578914,SO2,11,14,13
India,Punjab,Khanna,"Kalal Majra, Khanna - PPCB",09-07-2024 12:00:00,30.736056 ,76.209694,NH3,7,7,7
India,Punjab,Khanna,"Kalal Majra, Khanna - PPCB",09-07-2024 12:00:00,30.736056 ,76.209694,SO2,3,10,5
India,Punjab,Ludhiana,"Punjab Agricultural University, Ludhiana - PPCB",09-07-2024 12:00:00,30.9028,75.8086,NO2,22,26,24
India,Punjab,Ludhiana,"Punjab Agricultural University, Ludhiana - PPCB",09-07-2024 12:00:00,30.9028,75.8086,SO2,6,11,8
India,Punjab,Ludhiana,"Punjab Agricultural University, Ludhiana - PPCB",09-07-2024 12:00:00,30.9028,75.8086,CO,24,56,42
India,Punjab,Mandi Gobindgarh,"RIMT University, Mandi Gobindgarh - PPCB",09-07-2024 12:00:00,30.649961,76.331442,SO2,8,11,9
India,Punjab,Mandi Gobindgarh,"RIMT University, Mandi Gobindgarh - PPCB",09-07-2024 12:00:00,30.649961,76.331442,CO,47,60,54
India,Punjab,Rupnagar,"Ratanpura, Rupnagar - Ambuja Cements",09-07-2024 12:00:00,31.0325454,76.5623046,PM10,38,114,70
India,Rajasthan,Ajmer,"Civil Lines,  Ajmer - RSPCB",09-07-2024 12:00:00,26.470859,74.646594,PM2.5,21,83,58
India,Rajasthan,Ajmer,"Civil Lines,  Ajmer - RSPCB",09-07-2024 12:00:00,26.470859,74.646594,NH3,6,9,8
India,Rajasthan,Alwar,"Moti Doongri, Alwar - RSPCB",09-07-2024 12:00:00,27.554793,76.611536,PM10,36,83,48
India,Rajasthan,Alwar,"Moti Doongri, Alwar - RSPCB",09-07-2024 12:00:00,27.554793,76.611536,CO,10,30,16
India,Rajasthan,Alwar,"Moti Doongri, Alwar - RSPCB",09-07-2024 12:00:00,27.554793,76.611536,OZONE,13,38,16
India,Rajasthan,Banswara,"Rati Talai, Banswara - RSPCB",09-07-2024 12:00:00,23.555190,74.440010,OZONE,25,60,38
India,Rajasthan,Baran,"Bamboliya, Baran - RSPCB",09-07-2024 12:00:00,25.106006,76.469948,PM10,18,100,44
India,Rajasthan,Baran,"Bamboliya, Baran - RSPCB",09-07-2024 12:00:00,25.106006,76.469948,SO2,6,80,9
India,Rajasthan,Barmer,"Railway Colony, Barmer - RSPCB",09-07-2024 12:00:00,25.747299,71.393989,PM2.5,24,96,55
India,Rajasthan,Barmer,"Railway Colony, Barmer - RSPCB",09-07-2024 12:00:00,25.747299,71.393989,SO2,6,13,9
India,Rajasthan,Bharatpur,"Krishna Nagar, Bharatpur - RSPCB",09-07-2024 12:00:00,27.215415,77.50873,PM2.5,7,92,34
India,Rajasthan,Bhilwara,"Pratap Nagar, Bhilwara - RSPCB",09-07-2024 12:00:00,25.339605,74.618883,PM10,45,99,73
India,Rajasthan,Bhilwara,"Pratap Nagar, Bhilwara - RSPCB",09-07-2024 12:00:00,25.339605,74.618883,NH3,2,2,2
India,Rajasthan,Bhilwara,"Pratap Nagar, Bhilwara - RSPCB",09-07-2024 12:00:00,25.339605,74.618883,SO2,4,119,10
India,Rajasthan,Bhiwadi,"RIICO Ind. Area III, Bhiwadi - RSPCB",09-07-2024 12:00:00,28.194909,76.862296,PM2.5,39,223,84
India,Rajasthan,Bhiwadi,"RIICO Ind. Area III, Bhiwadi - RSPCB",09-07-2024 12:00:00,28.194909,76.862296,NH3,3,8,5
India,Rajasthan,Bhiwadi,"RIICO Ind. Area III, Bhiwadi - RSPCB",09-07-2024 12:00:00,28.194909,76.862296,SO2,9,26,14
India,Rajasthan,Bhiwadi,"RIICO Ind. Area III, Bhiwadi - RSPCB",09-07-2024 12:00:00,28.194909,76.862296,OZONE,10,96,27
India,Rajasthan,Bhiwadi,"Vasundhara Nagar_UIT, Bhiwadi - RSPCB",09-07-2024 12:00:00,28.207266,76.829265,PM2.5,3,104,58
India,Rajasthan,Bhiwadi,"Vasundhara Nagar_UIT, Bhiwadi - RSPCB",09-07-2024 12:00:00,28.207266,76.829265,CO,13,30,26
India,Rajasthan,Bundi,"New Colony, Bundi - RSPCB",09-07-2024 12:00:00,25.435774,75.644272,PM10,25,101,52
India,Rajasthan,Chittorgarh,"Shastri Nagar, Chittorgarh - RSPCB",09-07-2024 12:00:00,24.892047,74.623527,PM2.5,28,177,81
India,Rajasthan,Chittorgarh,"Shastri Nagar, Chittorgarh - RSPCB",09-07-2024 12:00:00,24.892047,74.623527,NO2,12,29,20
India,Rajasthan,Chittorgarh,"Shastri Nagar, Chittorgarh - RSPCB",09-07-2024 12:00:00,24.892047,74.623527,OZONE,9,83,27
India,Rajasthan,Churu,"Subash Chowk, Churu - RSPCB",09-07-2024 12:00:00,28.296139,74.961696,PM2.5,15,50,32
India,Rajasthan,Churu,"Subash Chowk, Churu - RSPCB",09-07-2024 12:00:00,28.296139,74.961696,OZONE,13,87,36
India,Rajasthan,Dausa,"Khatikan Mohalla, Dausa - RSPCB",09-07-2024 12:00:00,26.895552,76.334753,CO,6,76,44
India,Rajasthan,Dholpur,"Raja Ganj, Dholpur - RSPCB",09-07-2024 12:00:00,26.699557,77.898881,PM2.5,25,300,103
India,Rajasthan,Dholpur,"Raja Ganj, Dholpur - RSPCB",09-07-2024 12:00:00,26.699557,77.898881,CO,2,54,14
India,Rajasthan,Dungarpur,"Bhoiwada, Dungarpur - RSPCB",09-07-2024 12:00:00,23.837789,73.714926,PM10,114,161,134
India,Rajasthan,Dungarpur,"Bhoiwada, Dungarpur - RSPCB",09-07-2024 12:00:00,23.837789,73.714926,NH3,2,5,4
India,Rajasthan,Jaipur,"Adarsh Nagar, Jaipur - RSPCB",09-07-2024 12:00:00,26.902909,75.836858,PM10,15,57,35
India,Rajasthan,Jaipur,"Adarsh Nagar, Jaipur - RSPCB",09-07-2024 12:00:00,26.902909,75.836858,SO2,1,22,13
India,Rajasthan,Jaipur,"Mansarovar Sector-12, Jaipur - RSPCB",09-07-2024 12:00:00,26.843698,75.766894,PM2.5,14,72,40
India,Rajasthan,Jaipur,"Police Commissionerate, Jaipur - RSPCB",09-07-2024 12:00:00,26.9164092,75.7994901,NO2,3,7,5
India,Rajasthan,Jaipur,"Police Commissionerate, Jaipur - RSPCB",09-07-2024 12:00:00,26.9164092,75.7994901,NH3,16,22,20
India,Rajasthan,Jaipur,"Police Commissionerate, Jaipur - RSPCB",09-07-2024 12:00:00,26.9164092,75.7994901,SO2,4,47,25
India,Rajasthan,Jaipur,"Police Commissionerate, Jaipur - RSPCB",09-07-2024 12:00:00,26.9164092,75.7994901,CO,4,48,22
India,Rajasthan,Jaipur,"RIICO Sitapura, Jaipur - RSPCB",09-07-2024 12:00:00,26.786682,75.827928,PM2.5,2,30,14
India,Rajasthan,Jaipur,"RIICO Sitapura, Jaipur - RSPCB",09-07-2024 12:00:00,26.786682,75.827928,CO,45,69,52
India,Rajasthan,Jaipur,"RIICO Sitapura, Jaipur - RSPCB",09-07-2024 12:00:00,26.786682,75.827928,OZONE,40,112,44
India,Rajasthan,Jaipur,"Sector-2 Murlipura, Jaipur - RSPCB",09-07-2024 12:00:00,26.960669,75.771817,PM10,6,59,28
India,Rajasthan,Jaipur,"Shastri Nagar, Jaipur - RSPCB",09-07-2024 12:00:00,26.9502929,75.730943,OZONE,22,36,26
India,Rajasthan,Jaisalmer,"Sadar Bazar, Jaisalmer - RSPCB",09-07-2024 12:00:00,26.912329,70.909168,OZONE,19,40,25
India,Rajasthan,Jalore,"Mudtra Sili, Jalore - RSPCB",09-07-2024 12:00:00,25.344694,72.626208,PM10,52,133,98
India,Rajasthan,Jhunjhunu,"Indra Nagar, Jhunjhunu - RSPCB",09-07-2024 12:00:00,28.108988,75.386577,PM10,72,192,100
India,Rajasthan,Jhunjhunu,"Indra Nagar, Jhunjhunu - RSPCB",09-07-2024 12:00:00,28.108988,75.386577,SO2,2,5,4
India,Rajasthan,Jodhpur,"Digari Kalan, Jodhpur - RSPCB",09-07-2024 12:00:00,26.295810,73.082283,NO2,8,22,12
India,Rajasthan,Jodhpur,"Jhalamand, Jodhpur - RSPCB",09-07-2024 12:00:00,26.215415,73.070156,PM2.5,14,60,32
India,Rajasthan,Jodhpur,"Jhalamand, Jodhpur - RSPCB",09-07-2024 12:00:00,26.215415,73.070156,NH3,2,18,6
India,Rajasthan,Jodhpur,"Jhalamand, Jodhpur - RSPCB",09-07-2024 12:00:00,26.215415,73.070156,CO,4,30,14
India,Rajasthan,Jodhpur,"Mandor, Jodhpur - RSPCB",09-07-2024 12:00:00,26.358805,73.047444,NH3,NA,NA,NA
India,Rajasthan,Jodhpur,"Mandor, Jodhpur - RSPCB",09-07-2024 12:00:00,26.358805,73.047444,CO,10,30,30
India,Rajasthan,Jodhpur,"Samrat Ashok Udhyan, Jodhpur - RSPCB",09-07-2024 12:00:00,26.253384,72.976571,PM10,28,172,83
India,Rajasthan,Karauli,"Satyawati Vihar, Karauli - RSPCB",09-07-2024 12:00:00,26.506177,77.025989,PM2.5,30,78,41
India,Rajasthan,Karauli,"Satyawati Vihar, Karauli - RSPCB",09-07-2024 12:00:00,26.506177,77.025989,OZONE,39,53,44
India,Rajasthan,Kota,"Dhanmandi, Kota - RSPCB",09-07-2024 12:00:00,25.164090,75.858137,NH3,3,4,3
India,Rajasthan,Kota,"Dhanmandi, Kota - RSPCB",09-07-2024 12:00:00,25.164090,75.858137,OZONE,13,75,31
India,Rajasthan,Kota,"Nayapura, Kota - RSPCB",09-07-2024 12:00:00,25.196024,75.855668,NO2,10,23,15
India,Rajasthan,Kota,"Shrinath Puram, Kota - RSPCB",09-07-2024 12:00:00,25.14389,75.821256,PM2.5,23,262,79
India,Rajasthan,Kota,"Shrinath Puram, Kota - RSPCB",09-07-2024 12:00:00,25.14389,75.821256,NH3,4,7,6
India,Rajasthan,Kota,"Shrinath Puram, Kota - RSPCB",09-07-2024 12:00:00,25.14389,75.821256,SO2,5,10,8
India,Rajasthan,Kota,"Shrinath Puram, Kota - RSPCB",09-07-2024 12:00:00,25.14389,75.821256,CO,28,70,52
India,Rajasthan,Nagaur,"Karni Colony, Nagaur - RSPCB",09-07-2024 12:00:00,27.213494,73.734444,NH3,4,17,10
India,Rajasthan,Pali,"Indira Colony Vistar, Pali - RSPCB",09-07-2024 12:00:00,25.771061, 73.340227,NH3,2,8,4
India,Rajasthan,Pratapgarh,"Pragati Nagar, Pratapgarh - RSPCB",09-07-2024 12:00:00,24.041198,74.780702,NO2,6,25,13
India,Rajasthan,Pratapgarh,"Pragati Nagar, Pratapgarh - RSPCB",09-07-2024 12:00:00,24.041198,74.780702,SO2,2,3,2
India,Rajasthan,Rajsamand,"Dhoinda, Rajsamand - RSPCB",09-07-2024 12:00:00,25.036360,73.883502,PM10,38,107,68
India,Rajasthan,Sikar,"Radhakishan Pura, Sikar - RSPCB",09-07-2024 12:00:00,27.608912,75.153302,PM10,10,81,40
India,Rajasthan,Sikar,"Radhakishan Pura, Sikar - RSPCB",09-07-2024 12:00:00,27.608912,75.153302,SO2,2,7,3
India,Rajasthan,Sikar,"Radhakishan Pura, Sikar - RSPCB",09-07-2024 12:00:00,27.608912,75.153302,OZONE,27,89,43
India,Rajasthan,Sirohi,"Vedhaynath Colony, Sirohi - RSPCB",09-07-2024 12:00:00,24.885261,72.857549,SO2,1,8,6
India,Rajasthan,Sirohi,"Vedhaynath Colony, Sirohi - RSPCB",09-07-2024 12:00:00,24.885261,72.857549,CO,1,33,15
India,Rajasthan,Sri Ganganagar,"Old City, Sri Ganganagar - RSPCB",09-07-2024 12:00:00,29.931624,73.864511,NH3,19,35,28
India,Rajasthan,Sri Ganganagar,"Old City, Sri Ganganagar - RSPCB",09-07-2024 12:00:00,29.931624,73.864511,SO2,1,8,3
India,Rajasthan,Udaipur,"Ashok Nagar, Udaipur - RSPCB",09-07-2024 12:00:00,24.5886166,73.6321397,OZONE,10,34,17
India,Sikkim,Gangtok,"Zero Point GICI, Gangtok - SSPCB",09-07-2024 12:00:00,27.338530,88.614099,NO2,NA,NA,NA
India,TamilNadu,Ariyalur,"Keelapalur, Ariyalur - TNPCB",09-07-2024 12:00:00,11.06825,79.07033,PM2.5,12,40,20
India,TamilNadu,Ariyalur,"Keelapalur, Ariyalur - TNPCB",09-07-2024 12:00:00,11.06825,79.07033,NO2,8,10,9
India,TamilNadu,Chennai,"Arumbakkam, Chennai - TNPCB",09-07-2024 12:00:00,13.0664,80.2112 ,PM2.5,14,64,29
India,TamilNadu,Chennai,"Arumbakkam, Chennai - TNPCB",09-07-2024 12:00:00,13.0664,80.2112 ,PM10,26,101,55
India,TamilNadu,Chennai,"Kodungaiyur, Chennai - TNPCB",09-07-2024 12:00:00,13.1278,80.2642,NH3,2,5,3
India,TamilNadu,Chennai,"Manali, Chennai - CPCB",09-07-2024 12:00:00,13.164544,80.26285,NO2,NA,NA,NA
India,TamilNadu,Chennai,"Manali, Chennai - CPCB",09-07-2024 12:00:00,13.164544,80.26285,NH3,NA,NA,NA
India,TamilNadu,Chennai,"Manali, Chennai - CPCB",09-07-2024 12:00:00,13.164544,80.26285,CO,NA,NA,NA
India,TamilNadu,Chennai,"Perungudi, Chennai - TNPCB",09-07-2024 12:00:00,12.9533,80.2357,NO2,7,20,13
India,TamilNadu,Chennai,"Royapuram, Chennai - TNPCB",09-07-2024 12:00:00,13.1036,80.2909,PM10,34,88,59
India,TamilNadu,Coimbatore,"PSG College of Arts and Science, Coimbatore - TNPCB",09-07-2024 12:00:00,11.0328,77.0349,OZONE,4,5,4
India,TamilNadu,Gummidipoondi,"Anthoni Pillai Nagar, Gummidipoondi - TNPCB",09-07-2024 12:00:00,13.4127,80.1081,PM2.5,50,303,142
India,TamilNadu,Gummidipoondi,"Anthoni Pillai Nagar, Gummidipoondi - TNPCB",09-07-2024 12:00:00,13.4127,80.1081,PM10,57,152,101
India,TamilNadu,Ooty,"Bombay Castel, Ooty - TNPCB",09-07-2024 12:00:00,11.4068288,76.7138973,PM2.5,10,42,24
India,TamilNadu,Ooty,"Bombay Castel, Ooty - TNPCB",09-07-2024 12:00:00,11.4068288,76.7138973,PM10,10,41,24
India,TamilNadu,Palkalaiperur,"Bharathidasan University, Palkalaiperur - TNPCB",09-07-2024 12:00:00,10.681158,78.741746,PM10,13,31,20
India,TamilNadu,Ramanathapuram,"Chalai Bazaar, Ramanathapuram - TNPCB",09-07-2024 12:00:00,9.36399,78.831977,PM2.5,NA,NA,NA
India,TamilNadu,Ramanathapuram,"Chalai Bazaar, Ramanathapuram - TNPCB",09-07-2024 12:00:00,9.36399,78.831977,SO2,9,138,18
India,TamilNadu,Ramanathapuram,"Chalai Bazaar, Ramanathapuram - TNPCB",09-07-2024 12:00:00,9.36399,78.831977,CO,1,7,4
India,TamilNadu,Thoothukudi,"Meelavittan, Thoothukudi - TNPCB",09-07-2024 12:00:00,8.816428 ,78.099039,NO2,19,27,22
India,TamilNadu,Thoothukudi,"Meelavittan, Thoothukudi - TNPCB",09-07-2024 12:00:00,8.816428 ,78.099039,OZONE,1,7,4
India,TamilNadu,Tirupur,"Kumaran College, Tirupur - TNPCB",09-07-2024 12:00:00,11.0973603,77.3228673,PM10,NA,NA,NA
India,TamilNadu,Tirupur,"Kumaran College, Tirupur - TNPCB",09-07-2024 12:00:00,11.0973603,77.3228673,NO2,NA,NA,NA
India,TamilNadu,Vellore,"Vasanthapuram, Vellore - TNPCB",09-07-2024 12:00:00,12.909494,79.131861,PM10,6,49,28
India,TamilNadu,Vellore,"Vasanthapuram, Vellore - TNPCB",09-07-2024 12:00:00,12.909494,79.131861,SO2,NA,NA,NA
India,TamilNadu,Vellore,"Vasanthapuram, Vellore - TNPCB",09-07-2024 12:00:00,12.909494,79.131861,CO,NA,NA,NA
India,TamilNadu,Vellore,"Vasanthapuram, Vellore - TNPCB",09-07-2024 12:00:00,12.909494,79.131861,OZONE,NA,NA,NA
India,TamilNadu,Virudhunagar,"Collectorate Office, Virudhunagar - TNPCB",09-07-2024 12:00:00,9.559382,77.948828,SO2,17,25,23
India,Telangana,Hyderabad,"Bollaram Industrial Area, Hyderabad - TSPCB",09-07-2024 12:00:00,17.540891,78.358528,PM2.5,NA,NA,NA
India,Telangana,Hyderabad,"Bollaram Industrial Area, Hyderabad - TSPCB",09-07-2024 12:00:00,17.540891,78.358528,PM10,NA,NA,NA
India,Telangana,Hyderabad,"Central University, Hyderabad - TSPCB",09-07-2024 12:00:00,17.460103,78.334361,SO2,5,9,7
India,Telangana,Hyderabad,"ECIL Kapra, Hyderabad - TSPCB",09-07-2024 12:00:00,17.470431,78.566959,PM10,67,77,72
India,Telangana,Hyderabad,"ECIL Kapra, Hyderabad - TSPCB",09-07-2024 12:00:00,17.470431,78.566959,NH3,2,7,4
India,Telangana,Hyderabad,"ICRISAT Patancheru, Hyderabad - TSPCB",09-07-2024 12:00:00,17.518400,78.278777,NH3,1,33,3
India,Telangana,Hyderabad,"ICRISAT Patancheru, Hyderabad - TSPCB",09-07-2024 12:00:00,17.518400,78.278777,CO,18,29,22
India,Telangana,Hyderabad,"IDA Pashamylaram, Hyderabad - TSPCB",09-07-2024 12:00:00,17.5316895,78.218939,PM2.5,7,125,29
India,Telangana,Hyderabad,"IDA Pashamylaram, Hyderabad - TSPCB",09-07-2024 12:00:00,17.5316895,78.218939,NH3,1,4,2
India,Telangana,Hyderabad,"Nacharam_TSIIC IALA, Hyderabad - TSPCB",09-07-2024 12:00:00,17.429398,78.569354,SO2,9,23,13
India,Telangana,Hyderabad,"New Malakpet, Hyderabad - TSPCB",09-07-2024 12:00:00,17.37206,78.50864,PM10,57,64,59
India,Telangana,Hyderabad,"New Malakpet, Hyderabad - TSPCB",09-07-2024 12:00:00,17.37206,78.50864,NO2,14,18,15
India,Telangana,Hyderabad,"Ramachandrapuram, Hyderabad - TSPCB",09-07-2024 12:00:00,17.528544,78.286195,NH3,2,2,2
India,Telangana,Hyderabad,"Sanathnagar, Hyderabad - TSPCB",09-07-2024 12:00:00,17.4559458,78.4332152,NO2,26,32,30
India,Telangana,Hyderabad,"Somajiguda, Hyderabad - TSPCB",09-07-2024 12:00:00,17.417094,78.457437,PM2.5,35,154,77
India,Telangana,Hyderabad,"Somajiguda, Hyderabad - TSPCB",09-07-2024 12:00:00,17.417094,78.457437,SO2,6,24,15
India,Telangana,Hyderabad,"Zoo Park, Hyderabad - TSPCB",09-07-2024 12:00:00,17.349694,78.451437,SO2,1,7,2
India,Telangana,Hyderabad,"Zoo Park, Hyderabad - TSPCB",09-07-2024 12:00:00,17.349694,78.451437,CO,3,38,15
India,Tripura,Agartala,"Bardowali, Agartala - Tripura SPCB",09-07-2024 12:00:00,23.8175497,91.2726974,SO2,38,48,45
India,Tripura,Agartala,"Bardowali, Agartala - Tripura SPCB",09-07-2024 12:00:00,23.8175497,91.2726974,CO,8,47,10
India,Uttar_Pradesh,Agra,"Rohta, Agra - UPPCB",09-07-2024 12:00:00,27.106972,78.000111,PM10,7,58,31
India,Uttar_Pradesh,Agra,"Rohta, Agra - UPPCB",09-07-2024 12:00:00,27.106972,78.000111,NO2,5,6,6
India,Uttar_Pradesh,Agra,"Rohta, Agra - UPPCB",09-07-2024 12:00:00,27.106972,78.000111,NH3,2,2,2
India,Uttar_Pradesh,Agra,"Sector-3B Avas Vikas Colony, Agra - UPPCB",09-07-2024 12:00:00,27.19412,77.96237,OZONE,12,15,13
India,Uttar_Pradesh,Agra,"Shahjahan Garden, Agra - UPPCB",09-07-2024 12:00:00,27.169338,78.03582,NO2,18,19,18
India,Uttar_Pradesh,Agra,"Shahjahan Garden, Agra - UPPCB",09-07-2024 12:00:00,27.169338,78.03582,SO2,35,66,52
India,Uttar_Pradesh,Agra,"Shahjahan Garden, Agra - UPPCB",09-07-2024 12:00:00,27.169338,78.03582,CO,10,26,19
India,Uttar_Pradesh,Agra,"Shastripuram, Agra - UPPCB",09-07-2024 12:00:00,27.19862,77.92066,NH3,1,10,4
India,Uttar_Pradesh,Agra,"Shastripuram, Agra - UPPCB",09-07-2024 12:00:00,27.19862,77.92066,OZONE,1,6,2
India,Uttar_Pradesh,Baghpat,"Sardar Patel Inter College, Baghpat - UPPCB",09-07-2024 12:00:00,28.964949,77.278761,PM2.5,2,19,8
India,Uttar_Pradesh,Baghpat,"Sardar Patel Inter College, Baghpat - UPPCB",09-07-2024 12:00:00,28.964949,77.278761,OZONE,6,28,12
India,Uttar_Pradesh,Bareilly,"Rajendra Nagar, Bareilly - UPPCB",09-07-2024 12:00:00,28.38910936,79.42963708,SO2,19,22,19
India,Uttar_Pradesh,Bareilly,"Rajendra Nagar, Bareilly - UPPCB",09-07-2024 12:00:00,28.38910936,79.42963708,CO,2,20,4
India,Uttar_Pradesh,Bulandshahr,"Yamunapuram, Bulandshahr - UPPCB",09-07-2024 12:00:00,28.406963,77.849831,NH3,7,11,10
India,Uttar_Pradesh,Bulandshahr,"Yamunapuram, Bulandshahr - UPPCB",09-07-2024 12:00:00,28.406963,77.849831,CO,20,32,27
India,Uttar_Pradesh,Firozabad,"Nagla Bhau, Firozabad - UPPCB",09-07-2024 12:00:00,27.168897,78.376960,NO2,17,19,17
India,Uttar_Pradesh,Firozabad,"Nagla Bhau, Firozabad - UPPCB",09-07-2024 12:00:00,27.168897,78.376960,SO2,17,19,18
India,Uttar_Pradesh,Firozabad,"Nagla Bhau, Firozabad - UPPCB",09-07-2024 12:00:00,27.168897,78.376960,CO,27,37,31
India,Uttar_Pradesh,Firozabad,"Vibhab Nagar, Firozabad - UPPCB",09-07-2024 12:00:00,27.1594,78.3953,OZONE,8,17,9
India,Uttar_Pradesh,Ghaziabad,"Indirapuram, Ghaziabad - UPPCB",09-07-2024 12:00:00,28.646233,77.358075,NO2,34,58,44
India,Uttar_Pradesh,Ghaziabad,"Loni, Ghaziabad - UPPCB",09-07-2024 12:00:00,28.757294,77.278792,CO,7,83,65
India,Uttar_Pradesh,Ghaziabad,"Sanjay Nagar, Ghaziabad - UPPCB",09-07-2024 12:00:00,28.685382,77.453839,PM2.5,3,143,53
India,Uttar_Pradesh,Ghaziabad,"Sanjay Nagar, Ghaziabad - UPPCB",09-07-2024 12:00:00,28.685382,77.453839,NH3,4,8,6
India,Uttar_Pradesh,Ghaziabad,"Sanjay Nagar, Ghaziabad - UPPCB",09-07-2024 12:00:00,28.685382,77.453839,CO,19,38,31
India,Uttar_Pradesh,Ghaziabad,"Vasundhara, Ghaziabad - UPPCB",09-07-2024 12:00:00,28.6603346,77.3572563,SO2,NA,NA,NA
India,Uttar_Pradesh,Gorakhpur,"Madan Mohan Malaviya University of Technology, Gorakhpur - UPPCB",09-07-2024 12:00:00,26.730136,83.433859,NO2,5,11,11
India,Uttar_Pradesh,Gorakhpur,"Madan Mohan Malaviya University of Technology, Gorakhpur - UPPCB",09-07-2024 12:00:00,26.730136,83.433859,SO2,21,23,22
India,Uttar_Pradesh,Gorakhpur,"Madan Mohan Malaviya University of Technology, Gorakhpur - UPPCB",09-07-2024 12:00:00,26.730136,83.433859,CO,3,30,6
India,Uttar_Pradesh,Greater Noida,"Knowledge Park - III, Greater Noida - UPPCB",09-07-2024 12:00:00,28.47272,77.482000,NO2,14,29,19
India,Uttar_Pradesh,Greater Noida,"Knowledge Park - III, Greater Noida - UPPCB",09-07-2024 12:00:00,28.47272,77.482000,NH3,3,6,5
India,Uttar_Pradesh,Greater Noida,"Knowledge Park - V, Greater Noida - UPPCB",09-07-2024 12:00:00,28.557054,77.453663,PM2.5,33,105,61
India,Uttar_Pradesh,Greater Noida,"Knowledge Park - V, Greater Noida - UPPCB",09-07-2024 12:00:00,28.557054,77.453663,OZONE,5,42,16
India,Uttar_Pradesh,Hapur,"Anand Vihar, Hapur - UPPCB",09-07-2024 12:00:00,28.725645,77.749675,PM2.5,11,59,36
India,Uttar_Pradesh,Hapur,"Anand Vihar, Hapur - UPPCB",09-07-2024 12:00:00,28.725645,77.749675,PM10,22,64,45
India,Uttar_Pradesh,Jhansi,"Shivaji Nagar, Jhansi - UPPCB",09-07-2024 12:00:00,25.4547,78.6039,NH3,5,6,6
India,Uttar_Pradesh,Jhansi,"Shivaji Nagar, Jhansi - UPPCB",09-07-2024 12:00:00,25.4547,78.6039,CO,5,54,8
India,Uttar_Pradesh,Kanpur,"FTI Kidwai Nagar, Kanpur - UPPCB",09-07-2024 12:00:00,26.428282,80.327067,SO2,NA,NA,NA
India,Uttar_Pradesh,Kanpur,"FTI Kidwai Nagar, Kanpur - UPPCB",09-07-2024 12:00:00,26.428282,80.327067,CO,NA,NA,NA
India,Uttar_Pradesh,Kanpur,"NSI Kalyanpur, Kanpur - UPPCB",09-07-2024 12:00:00,26.509954,80.249612,PM10,67,105,87
India,Uttar_Pradesh,Kanpur,"NSI Kalyanpur, Kanpur - UPPCB",09-07-2024 12:00:00,26.509954,80.249612,NH3,1,1,1
India,Uttar_Pradesh,Kanpur,"NSI Kalyanpur, Kanpur - UPPCB",09-07-2024 12:00:00,26.509954,80.249612,CO,31,48,38
India,Uttar_Pradesh,Kanpur,"NSI Kalyanpur, Kanpur - UPPCB",09-07-2024 12:00:00,26.509954,80.249612,OZONE,18,49,42
India,Uttar_Pradesh,Kanpur,"Nehru Nagar, Kanpur - UPPCB",09-07-2024 12:00:00,26.4703136,80.3229863,OZONE,10,29,24
India,Uttar_Pradesh,Khurja,"Kalindi Kunj, Khurja - UPPCB",09-07-2024 12:00:00,28.2348927,77.8683002,PM10,53,183,102
India,Uttar_Pradesh,Khurja,"Kalindi Kunj, Khurja - UPPCB",09-07-2024 12:00:00,28.2348927,77.8683002,OZONE,12,15,13
India,Uttar_Pradesh,Lucknow,"B R Ambedkar University, Lucknow - UPPCB",09-07-2024 12:00:00,26.766433,80.927299,PM2.5,67,221,118
India,Uttar_Pradesh,Lucknow,"B R Ambedkar University, Lucknow - UPPCB",09-07-2024 12:00:00,26.766433,80.927299,NO2,11,12,11
India,Uttar_Pradesh,Lucknow,"B R Ambedkar University, Lucknow - UPPCB",09-07-2024 12:00:00,26.766433,80.927299,NH3,2,3,3
India,Uttar_Pradesh,Lucknow,"B R Ambedkar University, Lucknow - UPPCB",09-07-2024 12:00:00,26.766433,80.927299,SO2,13,13,13
India,Uttar_Pradesh,Lucknow,"B R Ambedkar University, Lucknow - UPPCB",09-07-2024 12:00:00,26.766433,80.927299,CO,21,28,24
India,Uttar_Pradesh,Lucknow,"Gomti Nagar, Lucknow - UPPCB",09-07-2024 12:00:00,26.868120,81.005119,CO,38,42,39
India,Uttar_Pradesh,Lucknow,"Kukrail Picnic Spot-1, Lucknow - UPPCB",09-07-2024 12:00:00,26.90723,80.98579,NH3,3,4,4
India,Uttar_Pradesh,Lucknow,"Kukrail Picnic Spot-1, Lucknow - UPPCB",09-07-2024 12:00:00,26.90723,80.98579,SO2,34,37,35
India,Uttar_Pradesh,Lucknow,"Lalbagh, Lucknow - CPCB",09-07-2024 12:00:00,26.8458805,80.9365541,PM2.5,42,116,76
India,Uttar_Pradesh,Lucknow,"Lalbagh, Lucknow - CPCB",09-07-2024 12:00:00,26.8458805,80.9365541,CO,69,116,98
India,Uttar_Pradesh,Lucknow,"Lalbagh, Lucknow - CPCB",09-07-2024 12:00:00,26.8458805,80.9365541,OZONE,15,52,31
India,Uttar_Pradesh,Meerut,"Ganga Nagar, Meerut - UPPCB",09-07-2024 12:00:00,28.999264,77.7590354,NH3,NA,NA,NA
India,Uttar_Pradesh,Meerut,"Jai Bhim Nagar, Meerut - UPPCB",09-07-2024 12:00:00,28.9535882,77.7622941,CO,23,101,45
India,Uttar_Pradesh,Meerut,"Pallavpuram Phase 2, Meerut - UPPCB",09-07-2024 12:00:00,29.063510,77.709723,NO2,6,23,13
India,Uttar_Pradesh,Moradabad,"Eco Herbal Park, Moradabad - UPPCB",09-07-2024 12:00:00,28.840739,78.697531,NH3,3,5,4
India,Uttar_Pradesh,Moradabad,"Eco Herbal Park, Moradabad - UPPCB",09-07-2024 12:00:00,28.840739,78.697531,SO2,5,50,23
India,Uttar_Pradesh,Moradabad,"Eco Herbal Park, Moradabad - UPPCB",09-07-2024 12:00:00,28.840739,78.697531,CO,19,56,29
India,Uttar_Pradesh,Moradabad,"Eco Herbal Park, Moradabad - UPPCB",09-07-2024 12:00:00,28.840739,78.697531,OZONE,6,63,23
India,Uttar_Pradesh,Moradabad,"Jigar Colony, Moradabad - UPPCB",09-07-2024 12:00:00,28.856664,78.772638,SO2,15,17,16
India,Uttar_Pradesh,Moradabad,"Kashiram Nagar, Moradabad - UPPCB",09-07-2024 12:00:00,28.849399,78.742362,NO2,14,16,15
India,Uttar_Pradesh,Moradabad,"Transport Nagar, Moradabad - UPPCB",09-07-2024 12:00:00,28.802625,78.753728,SO2,24,28,26
India,Uttar_Pradesh,Muzaffarnagar,"New Mandi, Muzaffarnagar - UPPCB",09-07-2024 12:00:00,29.4723508,77.7194031,PM2.5,18,186,61
India,Uttar_Pradesh,Noida,"Sector - 125, Noida - UPPCB",09-07-2024 12:00:00,28.5447608,77.3231257,NH3,6,8,7
India,Uttar_Pradesh,Noida,"Sector - 125, Noida - UPPCB",09-07-2024 12:00:00,28.5447608,77.3231257,SO2,17,23,20
India,Uttar_Pradesh,Noida,"Sector - 125, Noida - UPPCB",09-07-2024 12:00:00,28.5447608,77.3231257,CO,21,40,35
India,Uttar_Pradesh,Noida,"Sector-1, Noida - UPPCB",09-07-2024 12:00:00,28.5898,77.3101,PM10,38,104,74
India,Uttar_Pradesh,Prayagraj,"Jhunsi, Prayagraj - UPPCB",09-07-2024 12:00:00,25.425602,81.917152,PM2.5,22,63,39
India,Uttar_Pradesh,Prayagraj,"Jhunsi, Prayagraj - UPPCB",09-07-2024 12:00:00,25.425602,81.917152,PM10,42,105,75
India,Uttar_Pradesh,Prayagraj,"Motilal Nehru NIT, Prayagraj - UPPCB",09-07-2024 12:00:00,25.494,81.863,PM2.5,23,35,29
India,Uttar_Pradesh,Prayagraj,"Motilal Nehru NIT, Prayagraj - UPPCB",09-07-2024 12:00:00,25.494,81.863,CO,18,31,28
India,Uttar_Pradesh,Prayagraj,"Nagar Nigam, Prayagraj - UPPCB",09-07-2024 12:00:00,25.44919916 ,81.82735986 ,NO2,5,5,5
India,Uttar_Pradesh,Prayagraj,"Nagar Nigam, Prayagraj - UPPCB",09-07-2024 12:00:00,25.44919916 ,81.82735986 ,NH3,4,4,4
India,Uttar_Pradesh,Varanasi,"Bhelupur, Varanasi - UPPCB",09-07-2024 12:00:00,25.301778,82.996789,CO,16,29,19
India,Uttar_Pradesh,Varanasi,"Maldahiya, Varanasi - UPPCB",09-07-2024 12:00:00,25.32393,82.99687,CO,8,90,16
India,Uttar_Pradesh,Vrindavan,"Omex Eternity, Vrindavan - UPPCB",09-07-2024 12:00:00,27.5714090,77.6557570,NH3,2,2,2
India,Uttar_Pradesh,Vrindavan,"Omex Eternity, Vrindavan - UPPCB",09-07-2024 12:00:00,27.5714090,77.6557570,SO2,43,48,44
India,Uttarakhand,Kashipur,"Govt. Girls Inter College, Kashipur - UKPCB",09-07-2024 12:00:00,29.2124114,78.9611753,SO2,2,6,5
India,Uttarakhand,Rishikesh,"Shivaji Nagar, Rishikesh - UKPCB",09-07-2024 12:00:00,30.075911,78.2859547,PM10,20,43,31
India,Uttarakhand,Rishikesh,"Shivaji Nagar, Rishikesh - UKPCB",09-07-2024 12:00:00,30.075911,78.2859547,NH3,2,4,3
India,Uttarakhand,Rishikesh,"Shivaji Nagar, Rishikesh - UKPCB",09-07-2024 12:00:00,30.075911,78.2859547,CO,13,50,21
India,West_Bengal,Asansol,"Asansol Court Area, Asansol - WBPCB",09-07-2024 12:00:00,23.685297,86.945968,PM10,11,50,33
India,West_Bengal,Asansol,"Asansol Court Area, Asansol - WBPCB",09-07-2024 12:00:00,23.685297,86.945968,SO2,12,15,13
India,West_Bengal,Barrackpore,"SVSPA Campus, Barrackpore - WBPCB",09-07-2024 12:00:00,22.7605581,88.3617589,PM2.5,9,48,23
India,West_Bengal,Barrackpore,"SVSPA Campus, Barrackpore - WBPCB",09-07-2024 12:00:00,22.7605581,88.3617589,SO2,3,6,4
India,West_Bengal,Haldia,"Priyambada Housing Estate, Haldia - WBPCB",09-07-2024 12:00:00,22.06047,88.109737,PM10,24,67,41
India,West_Bengal,Howrah,"Belur Math, Howrah - WBPCB",09-07-2024 12:00:00,22.629801,88.352017,PM2.5,3,23,11
India,West_Bengal,Howrah,"Belur Math, Howrah - WBPCB",09-07-2024 12:00:00,22.629801,88.352017,NH3,5,6,5
India,West_Bengal,Howrah,"Belur Math, Howrah - WBPCB",09-07-2024 12:00:00,22.629801,88.352017,OZONE,10,15,13
India,West_Bengal,Howrah,"Botanical Garden, Howrah - WBPCB",09-07-2024 12:00:00,22.554954,88.292568,NO2,6,22,17
India,West_Bengal,Howrah,"Botanical Garden, Howrah - WBPCB",09-07-2024 12:00:00,22.554954,88.292568,CO,18,23,19
India,West_Bengal,Howrah,"Ghusuri, Howrah - WBPCB",09-07-2024 12:00:00,22.611968,88.347422,CO,12,37,14
India,West_Bengal,Howrah,"Padmapukur, Howrah - WBPCB",09-07-2024 12:00:00,22.5687319,88.2797276,CO,8,59,24
India,West_Bengal,Howrah,"Padmapukur, Howrah - WBPCB",09-07-2024 12:00:00,22.5687319,88.2797276,OZONE,19,25,20
India,West_Bengal,Kolkata,"Ballygunge, Kolkata - WBPCB",09-07-2024 12:00:00,22.5367507,88.3638022,SO2,3,12,6
India,West_Bengal,Kolkata,"Bidhannagar, Kolkata - WBPCB",09-07-2024 12:00:00,22.58157048,88.41002457,PM2.5,18,40,29
India,West_Bengal,Kolkata,"Bidhannagar, Kolkata - WBPCB",09-07-2024 12:00:00,22.58157048,88.41002457,NO2,18,54,29
India,West_Bengal,Kolkata,"Jadavpur, Kolkata - WBPCB",09-07-2024 12:00:00,22.49929,88.36917,NH3,4,5,4
India,West_Bengal,Kolkata,"Rabindra Bharati University, Kolkata - WBPCB",09-07-2024 12:00:00,22.627847,88.380669,NH3,16,19,18
India,West_Bengal,Kolkata,"Victoria, Kolkata - WBPCB",09-07-2024 12:00:00,22.5448082,88.3403691,PM10,42,53,48
India,West_Bengal,Siliguri,"Ward-32 Bapupara, Siliguri - WBPCB",09-07-2024 12:00:00,26.6879226,88.4152495,SO2,7,9,8
India,West_Bengal,Siliguri,"Ward-32 Bapupara, Siliguri - WBPCB",09-07-2024 12:00:00,26.6879226,88.4152495,CO,6,36,13
India,Andhra_Pradesh,Anantapur,"Gulzarpet, Anantapur - APPCB",09-07-2024 12:00:00,14.675886,77.593027,NH3,4,4,4
India,Andhra_Pradesh,Anantapur,"Gulzarpet, Anantapur - APPCB",09-07-2024 12:00:00,14.675886,77.593027,CO,18,35,24
India,Andhra_Pradesh,Chittoor,"Gangineni Cheruvu, Chittoor - APPCB",09-07-2024 12:00:00,13.204880,79.097889,PM2.5,NA,NA,NA
India,Andhra_Pradesh,Chittoor,"Gangineni Cheruvu, Chittoor - APPCB",09-07-2024 12:00:00,13.204880,79.097889,SO2,NA,NA,NA
India,Andhra_Pradesh,Kadapa,"Yerramukkapalli, Kadapa - APPCB",09-07-2024 12:00:00,14.465052,78.824187,NH3,1,1,1
India,Andhra_Pradesh,Rajamahendravaram,"Anand Kala Kshetram, Rajamahendravaram - APPCB",09-07-2024 12:00:00,16.9872867,81.7363176,PM2.5,18,38,28
India,Andhra_Pradesh,Rajamahendravaram,"Anand Kala Kshetram, Rajamahendravaram - APPCB",09-07-2024 12:00:00,16.9872867,81.7363176,NO2,9,59,22
India,Andhra_Pradesh,Tirupati,"Tirumala, Tirupati - APPCB",09-07-2024 12:00:00,13.67,79.35,PM2.5,3,30,16
India,Andhra_Pradesh,Tirupati,"Tirumala, Tirupati - APPCB",09-07-2024 12:00:00,13.67,79.35,NH3,1,2,1
India,Andhra_Pradesh,Tirupati,"Vaikuntapuram, Tirupati - APPCB",09-07-2024 12:00:00,13.615387,79.409230,PM10,31,152,70
India,Andhra_Pradesh,Tirupati,"Vaikuntapuram, Tirupati - APPCB",09-07-2024 12:00:00,13.615387,79.409230,NO2,14,36,20
India,Andhra_Pradesh,Tirupati,"Vaikuntapuram, Tirupati - APPCB",09-07-2024 12:00:00,13.615387,79.409230,NH3,2,4,3
India,Andhra_Pradesh,Tirupati,"Vaikuntapuram, Tirupati - APPCB",09-07-2024 12:00:00,13.615387,79.409230,SO2,2,4,3
India,Andhra_Pradesh,Vijayawada,"HB Colony, Vijayawada - APPCB",09-07-2024 12:00:00,16.536107,80.594233,PM2.5,37,68,50
India,Andhra_Pradesh,Vijayawada,"Rajiv Gandhi Park, Vijayawada - APPCB",09-07-2024 12:00:00,16.509717,80.612222,CO,32,41,40
India,Andhra_Pradesh,Vijayawada,"Rajiv Nagar, Vijayawada - APPCB",09-07-2024 12:00:00,16.554731,80.649110,PM2.5,47,51,49
India,Andhra_Pradesh,Vijayawada,"Rajiv Nagar, Vijayawada - APPCB",09-07-2024 12:00:00,16.554731,80.649110,PM10,53,58,55
India,Andhra_Pradesh,Vijayawada,"Rajiv Nagar, Vijayawada - APPCB",09-07-2024 12:00:00,16.554731,80.649110,CO,38,38,38
India,Andhra_Pradesh,Visakhapatnam,"GVM Corporation, Visakhapatnam - APPCB",09-07-2024 12:00:00,17.72,83.3,PM10,71,181,103
India,Arunachal_Pradesh,Naharlagun,"Naharlagun, Naharlagun - APSPCB",09-07-2024 12:00:00,27.103358,93.679645,PM10,11,52,25
India,Arunachal_Pradesh,Naharlagun,"Naharlagun, Naharlagun - APSPCB",09-07-2024 12:00:00,27.103358,93.679645,CO,6,14,6
India,Assam,Byrnihat,"Central Academy for SFS, Byrnihat - PCBA",09-07-2024 12:00:00,26.071318,91.87488,NO2,NA,NA,NA
India,Assam,Byrnihat,"Central Academy for SFS, Byrnihat - PCBA",09-07-2024 12:00:00,26.071318,91.87488,NH3,NA,NA,NA
India,Assam,Guwahati,"IITG, Guwahati - PCBA",09-07-2024 12:00:00,26.2028636,91.70046436,PM2.5,NA,NA,NA
India,Assam,Guwahati,"IITG, Guwahati - PCBA",09-07-2024 12:00:00,26.2028636,91.70046436,NH3,NA,NA,NA
India,Assam,Guwahati,"IITG, Guwahati - PCBA",09-07-2024 12:00:00,26.2028636,91.70046436,SO2,NA,NA,NA
India,Assam,Guwahati,"LGBI Airport, Guwahati - PCBA",09-07-2024 12:00:00,26.10887,91.589544,PM10,10,115,34
India,Assam,Guwahati,"LGBI Airport, Guwahati - PCBA",09-07-2024 12:00:00,26.10887,91.589544,NO2,6,32,16
India,Assam,Guwahati,"Railway Colony, Guwahati - PCBA",09-07-2024 12:00:00,26.181742,91.78063,CO,18,28,23
India,Assam,Nalbari,"Bata Chowk, Nalbari - PCBA",09-07-2024 12:00:00,26.446912,91.439057,NH3,1,1,1
India,Assam,Nalbari,"Bata Chowk, Nalbari - PCBA",09-07-2024 12:00:00,26.446912,91.439057,SO2,4,7,5
India,Assam,Silchar,"Tarapur, Silchar - PCBA",09-07-2024 12:00:00,24.82827,92.79525,CO,18,26,20
India,Assam,Sivasagar,"Girls College, Sivasagar - PCBA",09-07-2024 12:00:00,26.987634,94.636574,PM2.5,23,45,30
India,Assam,Sivasagar,"Girls College, Sivasagar - PCBA",09-07-2024 12:00:00,26.987634,94.636574,CO,6,20,14
India,Bihar,Araria,"Kharahiya Basti, Araria - BSPCB",09-07-2024 12:00:00,26.146529,87.454184,SO2,4,16,11
India,Bihar,Aurangabad,"Gurdeo Nagar, Aurangabad - BSPCB",09-07-2024 12:00:00,24.75746,84.366208,PM2.5,3,375,108
India,Bihar,Aurangabad,"Gurdeo Nagar, Aurangabad - BSPCB",09-07-2024 12:00:00,24.75746,84.366208,CO,22,31,24
India,Bihar,Bettiah,"Kamalnath Nagar, Bettiah - BSPCB",09-07-2024 12:00:00,26.80365,84.51954,SO2,9,20,15
India,Bihar,Bettiah,"Kamalnath Nagar, Bettiah - BSPCB",09-07-2024 12:00:00,26.80365,84.51954,OZONE,1,11,6
India,Bihar,Bhagalpur,"DM Office_Kachari Chowk, Bhagalpur - BSPCB",09-07-2024 12:00:00,25.251013,86.989001,NO2,23,41,33
India,Bihar,Bhagalpur,"DM Office_Kachari Chowk, Bhagalpur - BSPCB",09-07-2024 12:00:00,25.251013,86.989001,NH3,4,6,5
India,Bihar,Bhagalpur,"Mayaganj, Bhagalpur - BSPCB",09-07-2024 12:00:00,25.265194,87.012947,SO2,30,51,34
India,Bihar,Bihar Sharif,"D M Colony, Bihar Sharif - BSPCB",09-07-2024 12:00:00,25.204762,85.514960,PM10,NA,NA,NA
India,Bihar,Buxar,"Charitra Van, Buxar - BSPCB (Formerly known as Central Jail)",09-07-2024 12:00:00,25.567520,83.966379,PM10,123,469,233
India,Bihar,Buxar,"Charitra Van, Buxar - BSPCB (Formerly known as Central Jail)",09-07-2024 12:00:00,25.567520,83.966379,SO2,3,8,4
India,Bihar,Gaya,"Kareemganj, Gaya - BSPCB",09-07-2024 12:00:00,24.792403,84.992416,PM10,NA,NA,NA
India,Bihar,Gaya,"SFTI Kusdihra, Gaya - BSPCB",09-07-2024 12:00:00,24.762518,84.982348,SO2,8,9,8
India,Bihar,Gaya,"SFTI Kusdihra, Gaya - BSPCB",09-07-2024 12:00:00,24.762518,84.982348,OZONE,25,52,33
India,Bihar,Hajipur,"Industrial Area, Hajipur - BSPCB",09-07-2024 12:00:00,25.697189,85.245900,OZONE,13,74,27
India,Bihar,Katihar,"Mirchaibari, Katihar - BSPCB",09-07-2024 12:00:00,25.560083,87.553265,PM10,16,129,51
India,Bihar,Katihar,"Mirchaibari, Katihar - BSPCB",09-07-2024 12:00:00,25.560083,87.553265,NH3,1,2,1
India,Bihar,Katihar,"Mirchaibari, Katihar - BSPCB",09-07-2024 12:00:00,25.560083,87.553265,SO2,7,16,13
India,Bihar,Katihar,"Mirchaibari, Katihar - BSPCB",09-07-2024 12:00:00,25.560083,87.553265,CO,20,45,37
India,Bihar,Kishanganj,"SDM Office_Khagra, Kishanganj - BSPCB",09-07-2024 12:00:00,26.0881305,87.93840336,PM10,NA,NA,NA
India,Bihar,Motihari,"Gandak Colony, Motihari - BSPCB",09-07-2024 12:00:00,26.63086,84.90051,PM2.5,NA,NA,NA
India,Bihar,Motihari,"Gandak Colony, Motihari - BSPCB",09-07-2024 12:00:00,26.63086,84.90051,NO2,4,11,8
India,Bihar,Muzaffarpur,"Buddha Colony, Muzaffarpur - BSPCB",09-07-2024 12:00:00,26.11442,85.39813,NO2,6,22,12
India,Bihar,Muzaffarpur,"Buddha Colony, Muzaffarpur - BSPCB",09-07-2024 12:00:00,26.11442,85.39813,OZONE,23,65,40
India,Bihar,Muzaffarpur,"MIT-Daudpur Kothi, Muzaffarpur - BSPCB",09-07-2024 12:00:00,26.1403345,85.3650192,PM2.5,NA,NA,NA
India,Bihar,Muzaffarpur,"MIT-Daudpur Kothi, Muzaffarpur - BSPCB",09-07-2024 12:00:00,26.1403345,85.3650192,PM10,NA,NA,NA
India,Bihar,Muzaffarpur,"MIT-Daudpur Kothi, Muzaffarpur - BSPCB",09-07-2024 12:00:00,26.1403345,85.3650192,NO2,NA,NA,NA
India,Bihar,Muzaffarpur,"MIT-Daudpur Kothi, Muzaffarpur - BSPCB",09-07-2024 12:00:00,26.1403345,85.3650192,CO,9,54,26
India,Bihar,Muzaffarpur,"Muzaffarpur Collectorate, Muzaffarpur - BSPCB",09-07-2024 12:00:00,26.1209,85.3647,NO2,33,34,33
India,Bihar,Patna,"DRM Office Danapur, Patna - BSPCB",09-07-2024 12:00:00,25.586562,85.043586,CO,17,50,23
India,Bihar,Patna,"DRM Office Danapur, Patna - BSPCB",09-07-2024 12:00:00,25.586562,85.043586,OZONE,4,28,8
India,Bihar,Patna,"Govt. High School Shikarpur, Patna - BSPCB",09-07-2024 12:00:00,25.592539,85.227158,SO2,9,13,11
India,Bihar,Patna,"Govt. High School Shikarpur, Patna - BSPCB",09-07-2024 12:00:00,25.592539,85.227158,CO,34,44,39
India,Bihar,Patna,"Govt. High School Shikarpur, Patna - BSPCB",09-07-2024 12:00:00,25.592539,85.227158,OZONE,1,59,13
India,Bihar,Patna,"IGSC Planetarium Complex, Patna - BSPCB",09-07-2024 12:00:00,25.610369,85.132568,CO,15,20,17
India,Bihar,Patna,"Muradpur, Patna - BSPCB",09-07-2024 12:00:00,25.619651,85.147382,PM10,106,197,134
India,Bihar,Patna,"Muradpur, Patna - BSPCB",09-07-2024 12:00:00,25.619651,85.147382,NO2,1,14,6
India,Bihar,Patna,"Rajbansi Nagar, Patna - BSPCB",09-07-2024 12:00:00,25.599486,85.113666,SO2,4,18,10
India,Bihar,Patna,"Samanpura, Patna - BSPCB",09-07-2024 12:00:00,25.596727,85.085624,PM10,72,118,99
India,Bihar,Patna,"Samanpura, Patna - BSPCB",09-07-2024 12:00:00,25.596727,85.085624,SO2,2,4,3
India,Bihar,Patna,"Samanpura, Patna - BSPCB",09-07-2024 12:00:00,25.596727,85.085624,OZONE,16,67,36
India,Bihar,Purnia,"Mariam Nagar, Purnia - BSPCB",09-07-2024 12:00:00,25.366336,87.117468,PM10,13,43,29
India,Bihar,Rajgir,"Dangi Tola, Rajgir - BSPCB",09-07-2024 12:00:00,25.03280,85.41948,PM10,NA,NA,NA
India,Bihar,Rajgir,"Dangi Tola, Rajgir - BSPCB",09-07-2024 12:00:00,25.03280,85.41948,OZONE,31,39,33
India,Bihar,Saharsa,"Police Line, Saharsa - BSPCB",09-07-2024 12:00:00,25.892357,86.590325,PM2.5,27,73,43
India,Bihar,Saharsa,"Police Line, Saharsa - BSPCB",09-07-2024 12:00:00,25.892357,86.590325,CO,54,56,55
India,Bihar,Samastipur,"DM Office_Kasipur, Samastipur - BSPCB",09-07-2024 12:00:00,25.859655,85.77944,NO2,NA,NA,NA
India,Bihar,Samastipur,"DM Office_Kasipur, Samastipur - BSPCB",09-07-2024 12:00:00,25.859655,85.77944,SO2,12,18,16
India,Bihar,Sasaram,"Dada Peer, Sasaram - BSPCB",09-07-2024 12:00:00,24.952822,84.002396,NH3,2,2,2
India,Bihar,Sasaram,"Dada Peer, Sasaram - BSPCB",09-07-2024 12:00:00,24.952822,84.002396,SO2,4,11,7
India,Bihar,Siwan,"Chitragupta Nagar, Siwan - BSPCB",09-07-2024 12:00:00,26.2271665,84.3570427,NO2,13,81,30
India,Bihar,Siwan,"Chitragupta Nagar, Siwan - BSPCB",09-07-2024 12:00:00,26.2271665,84.3570427,CO,57,107,82
India,Chandigarh,Chandigarh,"Sector 22, Chandigarh - CPCC",09-07-2024 12:00:00,30.735567,76.775714,SO2,3,14,7
India,Chandigarh,Chandigarh,"Sector 22, Chandigarh - CPCC",09-07-2024 12:00:00,30.735567,76.775714,OZONE,10,81,32
India,Chandigarh,Chandigarh,"Sector-25, Chandigarh - CPCC",09-07-2024 12:00:00,30.751462,76.762879,CO,15,62,19
India,Chandigarh,Chandigarh,"Sector-53, Chandigarh - CPCC",09-07-2024 12:00:00,30.719859,76.738637,SO2,6,30,11
India,Chandigarh,Chandigarh,"Sector-53, Chandigarh - CPCC",09-07-2024 12:00:00,30.719859,76.738637,OZONE,7,51,21
India,Chhattisgarh,Bhilai,"32Bungalows, Bhilai - CECB",09-07-2024 12:00:00,21.194815,81.314770,CO,9,26,13
India,Chhattisgarh,Bhilai,"Civic Center, Bhilai - Bhilai Steel Plant",09-07-2024 12:00:00,21.185571,81.343175,PM2.5,13,36,22
India,Chhattisgarh,Bhilai,"Civic Center, Bhilai - Bhilai Steel Plant",09-07-2024 12:00:00,21.185571,81.343175,PM10,9,50,25
India,Chhattisgarh,Bhilai,"Civic Center, Bhilai - Bhilai Steel Plant",09-07-2024 12:00:00,21.185571,81.343175,NO2,7,8,8
India,Chhattisgarh,Bhilai,"Civic Center, Bhilai - Bhilai Steel Plant",09-07-2024 12:00:00,21.185571,81.343175,OZONE,6,22,11
India,Chhattisgarh,Bhilai,"Hathkhoj, Bhilai - CECB",09-07-2024 12:00:00,21.224231,81.408350,SO2,2,7,4
India,Chhattisgarh,Bilaspur,"Mangala, Bilaspur - NTPC",09-07-2024 12:00:00,22.08815,82.13737,CO,33,48,39
India,Chhattisgarh,Chhal,"Nawapara SECL Colony, Chhal - CECB",09-07-2024 12:00:00,22.118125,83.140608,SO2,9,22,17
India,Chhattisgarh,Chhal,"Nawapara SECL Colony, Chhal - CECB",09-07-2024 12:00:00,22.118125,83.140608,CO,10,28,10
India,Chhattisgarh,Korba,"Urja Nagar, Korba - CECB",09-07-2024 12:00:00,22.348441,82.549611,PM2.5,14,82,37
India,Chhattisgarh,Korba,"Urja Nagar, Korba - CECB",09-07-2024 12:00:00,22.348441,82.549611,SO2,6,8,7
India,Chhattisgarh,Kunjemura,"OP Jindal School, Kunjemura - CECB",09-07-2024 12:00:00,22.126650,83.483212,PM2.5,18,54,28
India,Chhattisgarh,Kunjemura,"OP Jindal School, Kunjemura - CECB",09-07-2024 12:00:00,22.126650,83.483212,NO2,5,51,21
India,Chhattisgarh,Kunjemura,"OP Jindal School, Kunjemura - CECB",09-07-2024 12:00:00,22.126650,83.483212,NH3,2,3,2
India,Chhattisgarh,Milupara,"Govt. Higher Secondary School, Milupara - CECB",09-07-2024 12:00:00,22.1910172,83.5197009,SO2,5,40,15
India,Chhattisgarh,Milupara,"Govt. Higher Secondary School, Milupara - CECB",09-07-2024 12:00:00,22.1910172,83.5197009,OZONE,23,85,40
India,Chhattisgarh,Raipur,"AIIMS, Raipur - CECB",09-07-2024 12:00:00,21.258815,81.578979,PM10,10,55,31
India,Chhattisgarh,Raipur,"AIIMS, Raipur - CECB",09-07-2024 12:00:00,21.258815,81.578979,NH3,6,6,6
India,Chhattisgarh,Raipur,"Krishak Nagar, Raipur - CECB",09-07-2024 12:00:00,21.237755,81.705301,PM10,NA,NA,NA
India,Chhattisgarh,Raipur,"Krishak Nagar, Raipur - CECB",09-07-2024 12:00:00,21.237755,81.705301,OZONE,4,20,4
India,Chhattisgarh,Raipur,"Siltara Phase-II, Raipur - CECB",09-07-2024 12:00:00,21.371751,81.664929,OZONE,3,10,3
India,Chhattisgarh,Tumidih,"OP Jindal Industrial Park, Tumidih - CECB",09-07-2024 12:00:00,22.06631475,83.33820077,PM10,NA,NA,NA
India,Delhi,Delhi,"Alipur, Delhi - DPCC",09-07-2024 12:00:00,28.815329,77.153010,PM10,5,127,56
India,Delhi,Delhi,"Alipur, Delhi - DPCC",09-07-2024 12:00:00,28.815329,77.153010,NO2,17,46,26
India,Delhi,Delhi,"Alipur, Delhi - DPCC",09-07-2024 12:00:00,28.815329,77.153010,CO,32,46,41
India,Delhi,Delhi,"Bawana, Delhi - DPCC",09-07-2024 12:00:00,28.776200,77.051074,PM2.5,3,82,40
India,Delhi,Delhi,"Bawana, Delhi - DPCC",09-07-2024 12:00:00,28.776200,77.051074,NH3,5,12,8
India,Delhi,Delhi,"Burari Crossing, Delhi - IMD",09-07-2024 12:00:00,28.7256504,77.2011573,PM10,31,111,70
India,Delhi,Delhi,"Burari Crossing, Delhi - IMD",09-07-2024 12:00:00,28.7256504,77.2011573,NO2,16,17,16
India,Delhi,Delhi,"Burari Crossing, Delhi - IMD",09-07-2024 12:00:00,28.7256504,77.2011573,CO,46,56,53
India,Delhi,Delhi,"CRRI Mathura Road, Delhi - IMD",09-07-2024 12:00:00,28.5512005,77.2735737,PM10,36,118,75
India,Delhi,Delhi,"Chandni Chowk, Delhi - IITM",09-07-2024 12:00:00,28.656756,77.227234,OZONE,3,91,57
India,Delhi,Delhi,"IHBAS, Dilshad Garden, Delhi - CPCB",09-07-2024 12:00:00,28.6811736,77.3025234,SO2,3,27,14
India,Delhi,Delhi,"ITO, Delhi - CPCB",09-07-2024 12:00:00,28.628624,77.241060,PM10,15,80,47
India,Delhi,Delhi,"Jahangirpuri, Delhi - DPCC",09-07-2024 12:00:00,28.732820,77.170633,PM2.5,NA,NA,NA
India,Delhi,Delhi,"Jahangirpuri, Delhi - DPCC",09-07-2024 12:00:00,28.732820,77.170633,PM10,NA,NA,NA
India,Delhi,Delhi,"Jawaharlal Nehru Stadium, Delhi - DPCC",09-07-2024 12:00:00,28.580280,77.233829,OZONE,7,56,22
India,Delhi,Delhi,"Mandir Marg, Delhi - DPCC",09-07-2024 12:00:00,28.636429,77.201067,SO2,5,14,11
India,Delhi,Delhi,"Mandir Marg, Delhi - DPCC",09-07-2024 12:00:00,28.636429,77.201067,CO,32,57,46
India,Delhi,Delhi,"NSIT Dwarka, Delhi - CPCB",09-07-2024 12:00:00,28.60909,77.0325413,NO2,21,31,26
India,Delhi,Delhi,"Najafgarh, Delhi - DPCC",09-07-2024 12:00:00,28.570173,76.933762,NH3,6,10,7
India,Delhi,Delhi,"Najafgarh, Delhi - DPCC",09-07-2024 12:00:00,28.570173,76.933762,SO2,5,24,15
India,Delhi,Delhi,"Nehru Nagar, Delhi - DPCC",09-07-2024 12:00:00,28.567890,77.250515,NH3,3,5,4
India,Delhi,Delhi,"North Campus, DU, Delhi - IMD",09-07-2024 12:00:00,28.6573814,77.1585447,CO,30,52,38
India,Delhi,Delhi,"North Campus, DU, Delhi - IMD",09-07-2024 12:00:00,28.6573814,77.1585447,OZONE,9,27,13
India,Delhi,Delhi,"Okhla Phase-2, Delhi - DPCC",09-07-2024 12:00:00,28.530785,77.271255,SO2,11,24,16
India,Delhi,Delhi,"Patparganj, Delhi - DPCC",09-07-2024 12:00:00,28.623763,77.287209,NH3,4,7,5
India,Delhi,Delhi,"Patparganj, Delhi - DPCC",09-07-2024 12:00:00,28.623763,77.287209,SO2,10,22,16
India,Delhi,Delhi,"Punjabi Bagh, Delhi - DPCC",09-07-2024 12:00:00,28.674045,77.131023,NH3,2,5,4
India,Delhi,Delhi,"Pusa, Delhi - DPCC",09-07-2024 12:00:00,28.639652,77.146275,CO,3,101,36
India,Delhi,Delhi,"Pusa, Delhi - IMD",09-07-2024 12:00:00,28.636110,77.173332,NO2,9,16,12
India,Delhi,Delhi,"Rohini, Delhi - DPCC",09-07-2024 12:00:00,28.732528,77.119920,PM2.5,5,85,46
India,Delhi,Delhi,"Rohini, Delhi - DPCC",09-07-2024 12:00:00,28.732528,77.119920,OZONE,15,35,18
India,Delhi,Delhi,"Shadipur, Delhi - CPCB",09-07-2024 12:00:00,28.6514781,77.1473105,PM2.5,37,71,50
India,Delhi,Delhi,"Shadipur, Delhi - CPCB",09-07-2024 12:00:00,28.6514781,77.1473105,NO2,35,70,53
India,Delhi,Delhi,"Sirifort, Delhi - CPCB",09-07-2024 12:00:00,28.5504249,77.2159377,PM10,37,171,88
India,Delhi,Delhi,"Sirifort, Delhi - CPCB",09-07-2024 12:00:00,28.5504249,77.2159377,NH3,17,20,18
India,Delhi,Delhi,"Sirifort, Delhi - CPCB",09-07-2024 12:00:00,28.5504249,77.2159377,SO2,41,48,45
India,Delhi,Delhi,"Sonia Vihar, Delhi - DPCC",09-07-2024 12:00:00,28.710508,77.249485,PM2.5,5,240,91
India,Delhi,Delhi,"Vivek Vihar, Delhi - DPCC",09-07-2024 12:00:00,28.672342,77.315260,OZONE,NA,NA,NA
India,Delhi,Delhi,"Wazirpur, Delhi - DPCC",09-07-2024 12:00:00,28.699793,77.165453,PM2.5,15,143,66
India,Delhi,Delhi,"Wazirpur, Delhi - DPCC",09-07-2024 12:00:00,28.699793,77.165453,NH3,6,15,11
India,Gujarat,Ahmedabad,"Maninagar, Ahmedabad - GPCB",09-07-2024 12:00:00,23.002657,72.591912,PM2.5,41,138,69
India,Gujarat,Ahmedabad,"Raikhad, Ahmedabad - IITM",09-07-2024 12:00:00,23.020509,72.579261,PM2.5,78,241,132
India,Gujarat,Ahmedabad,"Raikhad, Ahmedabad - IITM",09-07-2024 12:00:00,23.020509,72.579261,NO2,23,30,26
India,Gujarat,Ahmedabad,"Rakhial, Ahmedabad - IITM",09-07-2024 12:00:00,23.016834,72.625775,PM2.5,49,188,92
India,Gujarat,Ahmedabad,"SVPI Airport Hansol, Ahmedabad - IITM",09-07-2024 12:00:00,23.076793,72.627874,PM2.5,46,79,61
India,Gujarat,Ahmedabad,"SVPI Airport Hansol, Ahmedabad - IITM",09-07-2024 12:00:00,23.076793,72.627874,PM10,87,125,106
India,Gujarat,Ahmedabad,"SVPI Airport Hansol, Ahmedabad - IITM",09-07-2024 12:00:00,23.076793,72.627874,NH3,15,18,17
India,Gujarat,Ahmedabad,"SVPI Airport Hansol, Ahmedabad - IITM",09-07-2024 12:00:00,23.076793,72.627874,OZONE,1,88,6
India,Gujarat,Ankleshwar,"GIDC, Ankleshwar - GPCB",09-07-2024 12:00:00,21.613267,73.010555,PM2.5,42,68,56
India,Gujarat,Ankleshwar,"GIDC, Ankleshwar - GPCB",09-07-2024 12:00:00,21.613267,73.010555,OZONE,22,30,24
India,Gujarat,Gandhinagar,"Sector-10, Gandhinagar - GPCB",09-07-2024 12:00:00,23.221714,72.654328,NH3,3,3,3
India,Gujarat,Gandhinagar,"Sector-10, Gandhinagar - GPCB",09-07-2024 12:00:00,23.221714,72.654328,SO2,6,6,6
India,Gujarat,Gandhinagar,"Sector-10, Gandhinagar - GPCB",09-07-2024 12:00:00,23.221714,72.654328,CO,26,40,33
India,Gujarat,Vapi,"Phase-1 GIDC, Vapi - GPCB",09-07-2024 12:00:00,20.362421,72.918013,NO2,13,14,14
India,Gujarat,Vatva,"Phase-4 GIDC, Vatva - GPCB",09-07-2024 12:00:00,22.969611,72.643500,NO2,2,14,5
India,Haryana,Ambala,"Patti Mehar, Ambala - HSPCB",09-07-2024 12:00:00,30.379589,76.778328,SO2,1,35,9
India,Haryana,Bahadurgarh,"Arya Nagar, Bahadurgarh - HSPCB",09-07-2024 12:00:00,28.6701,76.9254,PM10,36,80,59
India,Haryana,Bahadurgarh,"Arya Nagar, Bahadurgarh - HSPCB",09-07-2024 12:00:00,28.6701,76.9254,SO2,8,12,10
India,Haryana,Bhiwani,"H.B. Colony, Bhiwani - HSPCB",09-07-2024 12:00:00,28.806223,76.141105,NO2,5,12,8
India,Haryana,Bhiwani,"H.B. Colony, Bhiwani - HSPCB",09-07-2024 12:00:00,28.806223,76.141105,NH3,6,6,6
India,Haryana,Charkhi Dadri,"Mini Secretariat, Charkhi Dadri - HSPCB",09-07-2024 12:00:00,28.593883,76.270653,NH3,6,8,7
India,Haryana,Faridabad,"New Industrial Town, Faridabad - HSPCB",09-07-2024 12:00:00,28.39072,77.30059,NO2,9,27,12
India,Haryana,Faridabad,"New Industrial Town, Faridabad - HSPCB",09-07-2024 12:00:00,28.39072,77.30059,NH3,1,2,2
India,Haryana,Faridabad,"Sector 11, Faridabad - HSPCB",09-07-2024 12:00:00,28.376058,77.315741,OZONE,5,66,10
India,Haryana,Faridabad,"Sector 30, Faridabad - HSPCB",09-07-2024 12:00:00,28.4417,77.3217,PM2.5,22,93,73
India,Haryana,Faridabad,"Sector 30, Faridabad - HSPCB",09-07-2024 12:00:00,28.4417,77.3217,NO2,16,16,16
India,Haryana,Faridabad,"Sector 30, Faridabad - HSPCB",09-07-2024 12:00:00,28.4417,77.3217,NH3,3,3,3
India,Haryana,Faridabad,"Sector 30, Faridabad - HSPCB",09-07-2024 12:00:00,28.4417,77.3217,SO2,3,3,2
India,Haryana,Faridabad,"Sector 30, Faridabad - HSPCB",09-07-2024 12:00:00,28.4417,77.3217,OZONE,7,11,7
India,Haryana,Faridabad,"Sector- 16A, Faridabad - HSPCB",09-07-2024 12:00:00,28.4088421,77.3099081,PM2.5,35,491,301
India,Haryana,Faridabad,"Sector- 16A, Faridabad - HSPCB",09-07-2024 12:00:00,28.4088421,77.3099081,SO2,18,38,28
India,Haryana,Faridabad,"Sector- 16A, Faridabad - HSPCB",09-07-2024 12:00:00,28.4088421,77.3099081,OZONE,14,15,14
India,Haryana,Fatehabad,"Huda Sector, Fatehabad - HSPCB",09-07-2024 12:00:00,29.503664,75.467934,PM2.5,17,18,18
India,Haryana,Fatehabad,"Huda Sector, Fatehabad - HSPCB",09-07-2024 12:00:00,29.503664,75.467934,NO2,29,31,30
