country,state,city,station,last_update,latitude,longitude,pollutant_id,pollutant_min,pollutant_max,pollutant_avg
India,Andhra_Pradesh,Anantapur,"Gulzarpet, Anantapur - APPCB",28-02-2024 16:00:00,14.675886,77.593027,PM2.5,22,55,36
India,Andhra_Pradesh,Anantapur,"Gulzarpet, Anantapur - APPCB",28-02-2024 16:00:00,14.675886,77.593027,CO,25,50,35
India,Andhra_Pradesh,Chittoor,"Gangineni Cheruvu, Chittoor - APPCB",28-02-2024 16:00:00,13.204880,79.097889,PM10,21,65,43
India,Andhra_Pradesh,Kadapa,"Yerramukkapalli, Kadapa - APPCB",28-02-2024 16:00:00,14.465052,78.824187,OZONE,17,57,40
India,Andhra_Pradesh,Tirupati,"Tirumala, Tirupati - APPCB",28-02-2024 16:00:00,13.67,79.35,SO2,1,8,5
India,Andhra_Pradesh,Vijayawada,"HB Colony, Vijayawada - APPCB",28-02-2024 16:00:00,16.536107,80.594233,PM10,44,89,62
India,Andhra_Pradesh,Vijayawada,"Rajiv Gandhi Park, Vijayawada - APPCB",28-02-2024 16:00:00,16.509717,80.612222,NH3,2,6,5
India,Andhra_Pradesh,Vijayawada,"Rajiv Nagar, Vijayawada - APPCB",28-02-2024 16:00:00,16.554731,80.649110,PM2.5,22,461,98
India,Andhra_Pradesh,Visakhapatnam,"GVM Corporation, Visakhapatnam - APPCB",28-02-2024 16:00:00,17.72,83.3,PM2.5,45,85,66
India,Andhra_Pradesh,Visakhapatnam,"GVM Corporation, Visakhapatnam - APPCB",28-02-2024 16:00:00,17.72,83.3,NO2,4,56,22
India,Assam,Byrnihat,"Central Academy for SFS, Byrnihat - PCBA",28-02-2024 16:00:00,26.071318,91.87488,PM2.5,57,471,298
India,Assam,Guwahati,"IITG, Guwahati - PCBA",28-02-2024 16:00:00,26.2028636,91.70046436,CO,8,26,13
India,Assam,Guwahati,"Pan Bazaar, Guwahati - PCBA",28-02-2024 16:00:00,26.187500,91.744194,CO,18,120,39
India,Assam,Nagaon,"Christianpatty, Nagaon - PCBA",28-02-2024 16:00:00,26.349082,92.68449,NO2,14,104,36
India,Assam,Silchar,"Tarapur, Silchar - PCBA",28-02-2024 16:00:00,24.82827,92.79525,PM10,48,52,49
India,Assam,Silchar,"Tarapur, Silchar - PCBA",28-02-2024 16:00:00,24.82827,92.79525,OZONE,1,19,7
India,Assam,Sivasagar,"Girls College, Sivasagar - PCBA",28-02-2024 16:00:00,26.987634,94.636574,OZONE,1,13,8
India,Bihar,Araria,"Kharahiya Basti, Araria - BSPCB",28-02-2024 16:00:00,26.146529,87.454184,PM2.5,50,329,245
India,Bihar,Araria,"Kharahiya Basti, Araria - BSPCB",28-02-2024 16:00:00,26.146529,87.454184,NH3,7,9,8
India,Bihar,Arrah,"New DM Office, Arrah - BSPCB",28-02-2024 16:00:00,25.5626095,84.663264,NO2,3,23,13
India,Bihar,Bettiah,"Kamalnath Nagar, Bettiah - BSPCB",28-02-2024 16:00:00,26.80365,84.51954,PM10,84,280,140
India,Bihar,Bhagalpur,"DM Office_Kachari Chowk, Bhagalpur - BSPCB",28-02-2024 16:00:00,25.251013,86.989001,PM10,111,348,154
India,Bihar,Bhagalpur,"Mayaganj, Bhagalpur - BSPCB",28-02-2024 16:00:00,25.265194,87.012947,NO2,4,17,8
India,Bihar,Bhagalpur,"Mayaganj, Bhagalpur - BSPCB",28-02-2024 16:00:00,25.265194,87.012947,CO,8,10,9
India,Bihar,Bihar Sharif,"D M Colony, Bihar Sharif - BSPCB",28-02-2024 16:00:00,25.204762,85.514960,PM10,16,95,50
India,Bihar,Bihar Sharif,"D M Colony, Bihar Sharif - BSPCB",28-02-2024 16:00:00,25.204762,85.514960,NH3,2,2,2
India,Bihar,Buxar,"Charitra Van, Buxar - BSPCB (Formerly known as Central Jail)",28-02-2024 16:00:00,25.567520,83.966379,NH3,1,4,2
India,Bihar,Buxar,"Charitra Van, Buxar - BSPCB (Formerly known as Central Jail)",28-02-2024 16:00:00,25.567520,83.966379,CO,28,72,60
India,Bihar,Chhapra,"Darshan Nagar, Chhapra - BSPCB",28-02-2024 16:00:00,25.7808257,84.7446768,PM2.5,78,300,163
India,Bihar,Chhapra,"Darshan Nagar, Chhapra - BSPCB",28-02-2024 16:00:00,25.7808257,84.7446768,PM10,77,163,118
India,Bihar,Chhapra,"Darshan Nagar, Chhapra - BSPCB",28-02-2024 16:00:00,25.7808257,84.7446768,NO2,14,26,20
India,Bihar,Chhapra,"Darshan Nagar, Chhapra - BSPCB",28-02-2024 16:00:00,25.7808257,84.7446768,CO,22,46,28
India,Bihar,Gaya,"Kareemganj, Gaya - BSPCB",28-02-2024 16:00:00,24.792403,84.992416,PM10,30,85,58
India,Bihar,Gaya,"Kareemganj, Gaya - BSPCB",28-02-2024 16:00:00,24.792403,84.992416,NH3,1,4,3
India,Bihar,Hajipur,"Industrial Area, Hajipur - BSPCB",28-02-2024 16:00:00,25.697189,85.245900,PM2.5,35,115,65
India,Bihar,Hajipur,"Industrial Area, Hajipur - BSPCB",28-02-2024 16:00:00,25.697189,85.245900,SO2,1,5,3
India,Bihar,Katihar,"Mirchaibari, Katihar - BSPCB",28-02-2024 16:00:00,25.560083,87.553265,NO2,12,35,22
India,Bihar,Kishanganj,"SDM Office_Khagra, Kishanganj - BSPCB",28-02-2024 16:00:00,26.0881305,87.93840336,PM2.5,25,409,98
India,Bihar,Manguraha,"Forest Rest House, Manguraha - BSPCB",28-02-2024 16:00:00,27.308328,84.531742,PM2.5,47,283,87
India,Bihar,Manguraha,"Forest Rest House, Manguraha - BSPCB",28-02-2024 16:00:00,27.308328,84.531742,PM10,53,167,85
India,Bihar,Motihari,"Gandak Colony, Motihari - BSPCB",28-02-2024 16:00:00,26.63086,84.90051,PM2.5,47,190,88
India,Bihar,Motihari,"Gandak Colony, Motihari - BSPCB",28-02-2024 16:00:00,26.63086,84.90051,PM10,46,127,78
India,Bihar,Munger,"Town Hall, Munger - BSPCB",28-02-2024 16:00:00,25.376776,86.471523,PM2.5,93,328,184
India,Bihar,Munger,"Town Hall, Munger - BSPCB",28-02-2024 16:00:00,25.376776,86.471523,NO2,8,11,9
India,Bihar,Muzaffarpur,"Buddha Colony, Muzaffarpur - BSPCB",28-02-2024 16:00:00,26.11442,85.39813,NO2,16,67,29
India,Bihar,Patna,"DRM Office Danapur, Patna - BSPCB",28-02-2024 16:00:00,25.586562,85.043586,NH3,3,4,3
India,Bihar,Patna,"DRM Office Danapur, Patna - BSPCB",28-02-2024 16:00:00,25.586562,85.043586,CO,22,80,38
India,Bihar,Patna,"Govt. High School Shikarpur, Patna - BSPCB",28-02-2024 16:00:00,25.592539,85.227158,NO2,23,26,24
India,Bihar,Patna,"Govt. High School Shikarpur, Patna - BSPCB",28-02-2024 16:00:00,25.592539,85.227158,NH3,4,4,4
India,Bihar,Patna,"Govt. High School Shikarpur, Patna - BSPCB",28-02-2024 16:00:00,25.592539,85.227158,SO2,1,4,2
India,Bihar,Patna,"Govt. High School Shikarpur, Patna - BSPCB",28-02-2024 16:00:00,25.592539,85.227158,CO,26,50,35
India,Bihar,Patna,"IGSC Planetarium Complex, Patna - BSPCB",28-02-2024 16:00:00,25.610369,85.132568,SO2,5,7,6
India,Bihar,Patna,"Rajbansi Nagar, Patna - BSPCB",28-02-2024 16:00:00,25.599486,85.113666,NH3,2,3,3
India,Bihar,Patna,"Samanpura, Patna - BSPCB",28-02-2024 16:00:00,25.596727,85.085624,SO2,15,16,16
India,Bihar,Patna,"Samanpura, Patna - BSPCB",28-02-2024 16:00:00,25.596727,85.085624,OZONE,2,116,66
India,Bihar,Purnia,"Mariam Nagar, Purnia - BSPCB",28-02-2024 16:00:00,25.366336,87.117468,PM2.5,57,220,152
India,Bihar,Purnia,"Mariam Nagar, Purnia - BSPCB",28-02-2024 16:00:00,25.366336,87.117468,SO2,21,26,23
India,Bihar,Rajgir,"Dangi Tola, Rajgir - BSPCB",28-02-2024 16:00:00,25.03280,85.41948,CO,9,11,10
India,Bihar,Saharsa,"Police Line, Saharsa - BSPCB",28-02-2024 16:00:00,25.892357,86.590325,PM10,61,153,117
India,Bihar,Samastipur,"DM Office_Kasipur, Samastipur - BSPCB",28-02-2024 16:00:00,25.859655,85.77944,NO2,3,24,15
India,Bihar,Sasaram,"Dada Peer, Sasaram - BSPCB",28-02-2024 16:00:00,24.952822,84.002396,NH3,8,13,10
India,Bihar,Siwan,"Chitragupta Nagar, Siwan - BSPCB",28-02-2024 16:00:00,26.2271665,84.3570427,NO2,11,75,24
India,Chandigarh,Chandigarh,"Sector 22, Chandigarh - CPCC",28-02-2024 16:00:00,30.735567,76.775714,PM2.5,62,297,156
India,Chandigarh,Chandigarh,"Sector 22, Chandigarh - CPCC",28-02-2024 16:00:00,30.735567,76.775714,NO2,15,94,37
India,Chandigarh,Chandigarh,"Sector-25, Chandigarh - CPCC",28-02-2024 16:00:00,30.751462,76.762879,NO2,12,52,23
India,Chandigarh,Chandigarh,"Sector-25, Chandigarh - CPCC",28-02-2024 16:00:00,30.751462,76.762879,SO2,5,18,9
India,Chandigarh,Chandigarh,"Sector-53, Chandigarh - CPCC",28-02-2024 16:00:00,30.719859,76.738637,NO2,24,63,38
India,Chhattisgarh,Bhilai,"32Bungalows, Bhilai - CECB",28-02-2024 16:00:00,21.194815,81.314770,NO2,27,37,33
India,Chhattisgarh,Bhilai,"Civic Center, Bhilai - Bhilai Steel Plant",28-02-2024 16:00:00,21.185571,81.343175,PM2.5,NA,NA,NA
India,Chhattisgarh,Bhilai,"Civic Center, Bhilai - Bhilai Steel Plant",28-02-2024 16:00:00,21.185571,81.343175,CO,32,68,42
India,Chhattisgarh,Bhilai,"Civic Center, Bhilai - Bhilai Steel Plant",28-02-2024 16:00:00,21.185571,81.343175,OZONE,9,52,36
India,Chhattisgarh,Bhilai,"Hathkhoj, Bhilai - CECB",28-02-2024 16:00:00,21.224231,81.408350,SO2,10,25,14
India,Chhattisgarh,Bilaspur,"Mangala, Bilaspur - NTPC",28-02-2024 16:00:00,22.08815,82.13737,SO2,3,40,20
India,Chhattisgarh,Chhal,"Nawapara SECL Colony, Chhal - CECB",28-02-2024 16:00:00,22.118125,83.140608,PM2.5,26,65,39
India,Chhattisgarh,Korba,"Rampur, Korba - CECB",28-02-2024 16:00:00,22.368195,82.746431,OZONE,2,12,5
India,Chhattisgarh,Kunjemura,"OP Jindal School, Kunjemura - CECB",28-02-2024 16:00:00,22.126650,83.483212,PM2.5,4,45,20
India,Chhattisgarh,Kunjemura,"OP Jindal School, Kunjemura - CECB",28-02-2024 16:00:00,22.126650,83.483212,NO2,16,69,37
India,Chhattisgarh,Kunjemura,"OP Jindal School, Kunjemura - CECB",28-02-2024 16:00:00,22.126650,83.483212,CO,24,52,34
India,Chhattisgarh,Milupara,"Govt. Higher Secondary School, Milupara - CECB",28-02-2024 16:00:00,22.1910172,83.5197009,PM10,NA,NA,NA
India,Chhattisgarh,Milupara,"Govt. Higher Secondary School, Milupara - CECB",28-02-2024 16:00:00,22.1910172,83.5197009,OZONE,28,86,47
India,Chhattisgarh,Raipur,"Bhatagaon New ISBT, Raipur - CECB",28-02-2024 16:00:00,21.219665,81.630094,PM2.5,19,72,39
India,Chhattisgarh,Raipur,"Bhatagaon New ISBT, Raipur - CECB",28-02-2024 16:00:00,21.219665,81.630094,NH3,2,2,2
India,Chhattisgarh,Raipur,"Bhatagaon New ISBT, Raipur - CECB",28-02-2024 16:00:00,21.219665,81.630094,SO2,4,7,6
India,Chhattisgarh,Raipur,"Krishak Nagar, Raipur - CECB",28-02-2024 16:00:00,21.237755,81.705301,SO2,3,19,10
India,Chhattisgarh,Raipur,"Siltara Phase-II, Raipur - CECB",28-02-2024 16:00:00,21.371751,81.664929,CO,22,77,29
India,Chhattisgarh,Tumidih,"OP Jindal Industrial Park, Tumidih - CECB",28-02-2024 16:00:00,22.06631475,83.33820077,PM2.5,14,52,27
India,Chhattisgarh,Tumidih,"OP Jindal Industrial Park, Tumidih - CECB",28-02-2024 16:00:00,22.06631475,83.33820077,CO,20,47,28
India,Delhi,Delhi,"Alipur, Delhi - DPCC",28-02-2024 16:00:00,28.815329,77.153010,PM2.5,18,116,72
India,Delhi,Delhi,"Alipur, Delhi - DPCC",28-02-2024 16:00:00,28.815329,77.153010,PM10,50,139,99
India,Delhi,Delhi,"Alipur, Delhi - DPCC",28-02-2024 16:00:00,28.815329,77.153010,CO,28,50,39
India,Delhi,Delhi,"Alipur, Delhi - DPCC",28-02-2024 16:00:00,28.815329,77.153010,OZONE,15,124,86
India,Delhi,Delhi,"Anand Vihar, Delhi - DPCC",28-02-2024 16:00:00,28.647622,77.3158090,PM2.5,NA,NA,NA
India,Delhi,Delhi,"Anand Vihar, Delhi - DPCC",28-02-2024 16:00:00,28.647622,77.3158090,SO2,17,36,28
India,Delhi,Delhi,"Ashok Vihar, Delhi - DPCC",28-02-2024 16:00:00,28.695381,77.181665,NO2,14,67,37
India,Delhi,Delhi,"Aya Nagar, Delhi - IMD",28-02-2024 16:00:00,28.4706914,77.1099364,OZONE,10,45,32
India,Delhi,Delhi,"Bawana, Delhi - DPCC",28-02-2024 16:00:00,28.776200,77.051074,CO,16,48,24
India,Delhi,Delhi,"Burari Crossing, Delhi - IMD",28-02-2024 16:00:00,28.7256504,77.2011573,NO2,1,3,2
India,Delhi,Delhi,"DTU, Delhi - CPCB",28-02-2024 16:00:00,28.7500499,77.1112615,NO2,NA,NA,NA
India,Delhi,Delhi,"DTU, Delhi - CPCB",28-02-2024 16:00:00,28.7500499,77.1112615,CO,18,30,25
India,Delhi,Delhi,"Dr. Karni Singh Shooting Range, Delhi - DPCC",28-02-2024 16:00:00,28.498571,77.264840,NH3,6,9,7
India,Delhi,Delhi,"Dr. Karni Singh Shooting Range, Delhi - DPCC",28-02-2024 16:00:00,28.498571,77.264840,CO,23,98,39
India,Delhi,Delhi,"Dwarka-Sector 8, Delhi - DPCC ",28-02-2024 16:00:00,28.5710274,77.0719006,NH3,5,8,6
India,Delhi,Delhi,"IGI Airport (T3), Delhi - IMD",28-02-2024 16:00:00,28.5627763,77.1180053,OZONE,1,37,20
India,Delhi,Delhi,"IHBAS, Dilshad Garden, Delhi - CPCB",28-02-2024 16:00:00,28.6811736,77.3025234,NO2,22,45,30
India,Delhi,Delhi,"IHBAS, Dilshad Garden, Delhi - CPCB",28-02-2024 16:00:00,28.6811736,77.3025234,OZONE,10,32,28
India,Delhi,Delhi,"ITO, Delhi - CPCB",28-02-2024 16:00:00,28.628624,77.241060,NO2,24,84,50
India,Delhi,Delhi,"Jawaharlal Nehru Stadium, Delhi - DPCC",28-02-2024 16:00:00,28.580280,77.233829,CO,28,62,38
India,Delhi,Delhi,"Jawaharlal Nehru Stadium, Delhi - DPCC",28-02-2024 16:00:00,28.580280,77.233829,OZONE,2,126,88
India,Delhi,Delhi,"Lodhi Road, Delhi - IITM",28-02-2024 16:00:00,28.588333,77.221667,NH3,7,9,8
India,Delhi,Delhi,"Major Dhyan Chand National Stadium, Delhi - DPCC",28-02-2024 16:00:00,28.611281,77.237738,NO2,NA,NA,NA
India,Delhi,Delhi,"Major Dhyan Chand National Stadium, Delhi - DPCC",28-02-2024 16:00:00,28.611281,77.237738,SO2,NA,NA,NA
India,Delhi,Delhi,"Major Dhyan Chand National Stadium, Delhi - DPCC",28-02-2024 16:00:00,28.611281,77.237738,CO,NA,NA,NA
India,Delhi,Delhi,"Mandir Marg, Delhi - DPCC",28-02-2024 16:00:00,28.636429,77.201067,SO2,7,9,8
India,Delhi,Delhi,"Mandir Marg, Delhi - DPCC",28-02-2024 16:00:00,28.636429,77.201067,OZONE,9,43,23
India,Delhi,Delhi,"Mundka, Delhi - DPCC",28-02-2024 16:00:00,28.684678,77.076574,NO2,22,60,39
India,Delhi,Delhi,"NSIT Dwarka, Delhi - CPCB",28-02-2024 16:00:00,28.60909,77.0325413,NH3,11,15,13
India,Delhi,Delhi,"Najafgarh, Delhi - DPCC",28-02-2024 16:00:00,28.570173,76.933762,PM2.5,16,241,119
India,Delhi,Delhi,"Najafgarh, Delhi - DPCC",28-02-2024 16:00:00,28.570173,76.933762,SO2,8,14,12
India,Delhi,Delhi,"Narela, Delhi - DPCC",28-02-2024 16:00:00,28.822836,77.101981,PM2.5,37,253,141
India,Delhi,Delhi,"Nehru Nagar, Delhi - DPCC",28-02-2024 16:00:00,28.567890,77.250515,PM10,66,153,120
India,Delhi,Delhi,"Okhla Phase-2, Delhi - DPCC",28-02-2024 16:00:00,28.530785,77.271255,CO,21,99,39
India,Delhi,Delhi,"Patparganj, Delhi - DPCC",28-02-2024 16:00:00,28.623763,77.287209,PM2.5,28,132,82
India,Delhi,Delhi,"Patparganj, Delhi - DPCC",28-02-2024 16:00:00,28.623763,77.287209,CO,14,48,28
India,Delhi,Delhi,"Punjabi Bagh, Delhi - DPCC",28-02-2024 16:00:00,28.674045,77.131023,SO2,22,26,25
India,Delhi,Delhi,"Pusa, Delhi - DPCC",28-02-2024 16:00:00,28.639652,77.146275,PM10,87,235,161
India,Delhi,Delhi,"Pusa, Delhi - IMD",28-02-2024 16:00:00,28.636110,77.173332,PM10,NA,NA,NA
India,Delhi,Delhi,"R K Puram, Delhi - DPCC",28-02-2024 16:00:00,28.563262,77.186937,CO,20,63,34
India,Delhi,Delhi,"Rohini, Delhi - DPCC",28-02-2024 16:00:00,28.732528,77.119920,PM2.5,28,242,141
India,Delhi,Delhi,"Rohini, Delhi - DPCC",28-02-2024 16:00:00,28.732528,77.119920,NH3,10,13,11
India,Delhi,Delhi,"Sri Aurobindo Marg, Delhi - DPCC",28-02-2024 16:00:00,28.531346,77.190156,PM10,76,320,146
India,Delhi,Delhi,"Vivek Vihar, Delhi - DPCC",28-02-2024 16:00:00,28.672342,77.315260,PM10,54,165,127
India,Delhi,Delhi,"Wazirpur, Delhi - DPCC",28-02-2024 16:00:00,28.699793,77.165453,NH3,7,9,8
India,Gujarat,Ahmedabad,"Maninagar, Ahmedabad - GPCB",28-02-2024 16:00:00,23.002657,72.591912,OZONE,33,96,67
India,Gujarat,Ahmedabad,"Raikhad, Ahmedabad - IITM",28-02-2024 16:00:00,23.020509,72.579261,OZONE,35,131,72
India,Gujarat,Ahmedabad,"Rakhial, Ahmedabad - IITM",28-02-2024 16:00:00,23.016834,72.625775,SO2,6,25,9
India,Gujarat,Ahmedabad,"SAC ISRO Bopal, Ahmedabad - IITM",28-02-2024 16:00:00,23.041137,72.456691,OZONE,17,36,24
India,Gujarat,Ahmedabad,"SAC ISRO Satellite, Ahmedabad - IITM",28-02-2024 16:00:00,23.023389,72.515201,PM2.5,85,89,87
India,Gujarat,Ahmedabad,"SAC ISRO Satellite, Ahmedabad - IITM",28-02-2024 16:00:00,23.023389,72.515201,PM10,78,80,79
India,Gujarat,Ahmedabad,"SVPI Airport Hansol, Ahmedabad - IITM",28-02-2024 16:00:00,23.076793,72.627874,PM2.5,56,161,84
India,Gujarat,Ahmedabad,"SVPI Airport Hansol, Ahmedabad - IITM",28-02-2024 16:00:00,23.076793,72.627874,NH3,NA,NA,NA
India,Gujarat,Ankleshwar,"GIDC, Ankleshwar - GPCB",28-02-2024 16:00:00,21.613267,73.010555,CO,16,103,48
India,Gujarat,Gandhinagar,"IIPHG Lekawada, Gandhinagar - IITM",28-02-2024 16:00:00,23.243639,72.68994,NO2,32,33,33
India,Gujarat,Gandhinagar,"IIPHG Lekawada, Gandhinagar - IITM",28-02-2024 16:00:00,23.243639,72.68994,OZONE,23,38,33
India,Gujarat,Surat,"Science Center, Surat - SMC",28-02-2024 16:00:00,21.170046,72.795405,PM2.5,30,116,59
India,Gujarat,Vapi,"Phase-1 GIDC, Vapi - GPCB",28-02-2024 16:00:00,20.362421,72.918013,PM2.5,110,414,308
India,Gujarat,Vatva,"Phase-4 GIDC, Vatva - GPCB",28-02-2024 16:00:00,22.969611,72.643500,NH3,1,2,2
India,Haryana,Ambala,"Patti Mehar, Ambala - HSPCB",28-02-2024 16:00:00,30.379589,76.778328,PM2.5,NA,NA,NA
India,Haryana,Bahadurgarh,"Arya Nagar, Bahadurgarh - HSPCB",28-02-2024 16:00:00,28.6701,76.9254,SO2,11,13,12
India,Haryana,Bahadurgarh,"Arya Nagar, Bahadurgarh - HSPCB",28-02-2024 16:00:00,28.6701,76.9254,CO,38,61,48
India,Haryana,Ballabgarh,"Nathu Colony, Ballabgarh - HSPCB",28-02-2024 16:00:00,28.3419248,77.319699,CO,14,98,25
India,Haryana,Ballabgarh,"Nathu Colony, Ballabgarh - HSPCB",28-02-2024 16:00:00,28.3419248,77.319699,OZONE,2,21,16
India,Haryana,Bhiwani,"H.B. Colony, Bhiwani - HSPCB",28-02-2024 16:00:00,28.806223,76.141105,PM2.5,33,102,66
India,Haryana,Bhiwani,"H.B. Colony, Bhiwani - HSPCB",28-02-2024 16:00:00,28.806223,76.141105,CO,17,34,28
India,Haryana,Faridabad,"New Industrial Town, Faridabad - HSPCB",28-02-2024 16:00:00,28.39072,77.30059,PM2.5,61,341,180
India,Haryana,Faridabad,"New Industrial Town, Faridabad - HSPCB",28-02-2024 16:00:00,28.39072,77.30059,CO,14,35,19
India,Haryana,Faridabad,"Sector 11, Faridabad - HSPCB",28-02-2024 16:00:00,28.376058,77.315741,PM2.5,39,91,70
India,Haryana,Faridabad,"Sector 11, Faridabad - HSPCB",28-02-2024 16:00:00,28.376058,77.315741,PM10,67,229,138
India,Haryana,Faridabad,"Sector 11, Faridabad - HSPCB",28-02-2024 16:00:00,28.376058,77.315741,CO,16,32,19
India,Haryana,Faridabad,"Sector 30, Faridabad - HSPCB",28-02-2024 16:00:00,28.4417,77.3217,OZONE,9,50,33
India,Haryana,Fatehabad,"Huda Sector, Fatehabad - HSPCB",28-02-2024 16:00:00,29.503664,75.467934,NH3,10,11,10
India,Haryana,Fatehabad,"Huda Sector, Fatehabad - HSPCB",28-02-2024 16:00:00,29.503664,75.467934,SO2,3,20,7
India,Haryana,Fatehabad,"Huda Sector, Fatehabad - HSPCB",28-02-2024 16:00:00,29.503664,75.467934,CO,5,14,8
India,Haryana,Gurugram,"Sector-51, Gurugram - HSPCB",28-02-2024 16:00:00,28.4227,77.0667,PM2.5,37,244,150
India,Haryana,Gurugram,"Teri Gram, Gurugram - HSPCB",28-02-2024 16:00:00,28.4275,77.1465,NH3,17,20,19
India,Haryana,Gurugram,"Vikas Sadan, Gurugram - HSPCB",28-02-2024 16:00:00,28.4501238,77.0263051,OZONE,8,68,46
India,Haryana,Hisar,"Urban Estate-II, Hisar - HSPCB",28-02-2024 16:00:00,29.140560,75.744941,SO2,1,85,55
India,Haryana,Jind,"Police Lines, Jind - HSPCB",28-02-2024 16:00:00,29.307814,76.337619,PM2.5,43,83,62
India,Haryana,Jind,"Police Lines, Jind - HSPCB",28-02-2024 16:00:00,29.307814,76.337619,NH3,2,5,4
India,Haryana,Jind,"Police Lines, Jind - HSPCB",28-02-2024 16:00:00,29.307814,76.337619,OZONE,9,20,15
India,Haryana,Kaithal,"Rishi Nagar, Kaithal - HSPCB",28-02-2024 16:00:00,29.8006,76.4155,PM10,66,89,76
India,Haryana,Karnal,"Sector-12, Karnal - HSPCB",28-02-2024 16:00:00,29.695300,77.002700,PM2.5,7,35,17
India,Haryana,Kurukshetra,"Sector-7, Kurukshetra - HSPCB",28-02-2024 16:00:00,29.966942,76.875879,SO2,1,99,25
India,Haryana,Mandikhera,"General Hospital, Mandikhera - HSPCB",28-02-2024 16:00:00,27.9002,76.9938,PM2.5,12,39,23
India,Haryana,Mandikhera,"General Hospital, Mandikhera - HSPCB",28-02-2024 16:00:00,27.9002,76.9938,NO2,18,21,20
India,Haryana,Mandikhera,"General Hospital, Mandikhera - HSPCB",28-02-2024 16:00:00,27.9002,76.9938,NH3,18,21,20
India,Haryana,Manesar,"Sector-2 IMT, Manesar - HSPCB",28-02-2024 16:00:00,28.360699,76.936090,PM2.5,25,70,45
India,Haryana,Narnaul,"Shastri Nagar, Narnaul - HSPCB",28-02-2024 16:00:00,28.060249,76.113115,PM10,4,79,40
India,Haryana,Narnaul,"Shastri Nagar, Narnaul - HSPCB",28-02-2024 16:00:00,28.060249,76.113115,NH3,5,18,11
India,Haryana,Panipat,"Sector-18, Panipat - HSPCB",28-02-2024 16:00:00,29.497973,76.993331,PM10,89,91,90
India,Haryana,Panipat,"Sector-18, Panipat - HSPCB",28-02-2024 16:00:00,29.497973,76.993331,OZONE,30,30,30
India,Haryana,Rohtak,"MD University, Rohtak - HSPCB",28-02-2024 16:00:00,28.52123,76.37138,CO,30,68,36
India,Haryana,Sonipat,"Murthal, Sonipat - HSPCB",28-02-2024 16:00:00,29.027200,77.062100,CO,14,21,17
India,Haryana,Yamuna Nagar,"Gobind Pura, Yamuna Nagar - HSPCB",28-02-2024 16:00:00,30.1480566,77.2893471,PM10,91,127,107
India,Haryana,Yamuna Nagar,"Gobind Pura, Yamuna Nagar - HSPCB",28-02-2024 16:00:00,30.1480566,77.2893471,NH3,1,6,4
India,Haryana,Yamuna Nagar,"Gobind Pura, Yamuna Nagar - HSPCB",28-02-2024 16:00:00,30.1480566,77.2893471,OZONE,20,45,31
India,Himachal Pradesh,Baddi,"HIMUDA Complex Phase-1, Baddi - HPPCB",28-02-2024 16:00:00,30.943887,76.801991,PM10,91,420,161
India,Himachal Pradesh,Baddi,"HIMUDA Complex Phase-1, Baddi - HPPCB",28-02-2024 16:00:00,30.943887,76.801991,OZONE,12,119,77
India,Jharkhand,Dhanbad,"Kalakusuma, Dhanbad - DMC",28-02-2024 16:00:00,23.811548,86.481238,PM2.5,44,203,179
India,Jharkhand,Dhanbad,"Kalakusuma, Dhanbad - DMC",28-02-2024 16:00:00,23.811548,86.481238,CO,128,135,131
India,Jharkhand,Dhanbad,"Sardar Patel Nagar, Dhanbad - JSPCB",28-02-2024 16:00:00,23.80569,86.44268,PM10,49,185,108
India,Jharkhand,Pathardih,"Mohalbani Ghat, Pathardih - DMC",28-02-2024 16:00:00,23.669880,86.411725,OZONE,7,35,13
India,Karnataka,Belgaum,"Ramteerth Nagar, Belgaum - KSPCB",28-02-2024 16:00:00,15.888653,74.541751,PM2.5,12,75,44
India,Karnataka,Belgaum,"Ramteerth Nagar, Belgaum - KSPCB",28-02-2024 16:00:00,15.888653,74.541751,PM10,32,98,60
India,Karnataka,Belgaum,"Ramteerth Nagar, Belgaum - KSPCB",28-02-2024 16:00:00,15.888653,74.541751,NO2,26,29,28
India,Karnataka,Belgaum,"Ramteerth Nagar, Belgaum - KSPCB",28-02-2024 16:00:00,15.888653,74.541751,NH3,34,34,34
India,Karnataka,Bengaluru,"City Railway Station, Bengaluru - KSPCB",28-02-2024 16:00:00,12.9756843,77.5660749,CO,52,102,67
India,Karnataka,Bengaluru,"Hombegowda Nagar, Bengaluru - KSPCB",28-02-2024 16:00:00,12.938539,77.590100,PM2.5,23,51,37
India,Karnataka,Bengaluru,"Hombegowda Nagar, Bengaluru - KSPCB",28-02-2024 16:00:00,12.938539,77.590100,PM10,34,76,55
India,Karnataka,Bengaluru,"Hombegowda Nagar, Bengaluru - KSPCB",28-02-2024 16:00:00,12.938539,77.590100,CO,14,20,15
India,Karnataka,Bengaluru,"Jayanagar 5th Block, Bengaluru - KSPCB",28-02-2024 16:00:00,12.920984,77.584908,OZONE,29,30,29
India,Karnataka,Bengaluru,"Jigani, Bengaluru - KSPCB",28-02-2024 16:00:00,12.7816279,77.6299145,SO2,16,16,16
India,Karnataka,Bengaluru,"Jigani, Bengaluru - KSPCB",28-02-2024 16:00:00,12.7816279,77.6299145,CO,44,80,60
India,Karnataka,Bengaluru,"Kasturi Nagar, Bengaluru - KSPCB",28-02-2024 16:00:00,13.003872,77.664217,PM10,82,120,105
India,Karnataka,Bengaluru,"Peenya, Bengaluru - CPCB",28-02-2024 16:00:00,13.0270199,77.494094,NO2,17,28,22
India,Karnataka,Bengaluru,"RVCE-Mailasandra, Bengaluru - KSPCB",28-02-2024 16:00:00,12.921418,77.502466,PM10,77,128,102
India,Karnataka,Bengaluru,"Sanegurava Halli, Bengaluru - KSPCB",28-02-2024 16:00:00,12.990328,77.5431385,CO,2,22,16
India,Karnataka,Bengaluru,"Shivapura_Peenya, Bengaluru - KSPCB",28-02-2024 16:00:00,13.0246342,77.5080115,SO2,5,15,8
India,Karnataka,Bengaluru,"Silk Board, Bengaluru - KSPCB",28-02-2024 16:00:00,12.917348,77.622813,CO,30,46,37
India,Karnataka,Chamarajanagar,"Urban, Chamarajanagar - KSPCB",28-02-2024 16:00:00,11.55358,76.55521,NH3,1,2,2
India,Karnataka,Chamarajanagar,"Urban, Chamarajanagar - KSPCB",28-02-2024 16:00:00,11.55358,76.55521,OZONE,14,56,41
India,Karnataka,Chikkaballapur,"Chikkaballapur Rural, Chikkaballapur - KSPCB",28-02-2024 16:00:00,13.428828,77.731418,SO2,10,17,15
India,Karnataka,Chikkaballapur,"Chikkaballapur Rural, Chikkaballapur - KSPCB",28-02-2024 16:00:00,13.428828,77.731418,OZONE,23,25,24
India,Karnataka,Chikkamagaluru,"Kalyana Nagara, Chikkamagaluru - KSPCB",28-02-2024 16:00:00,13.328028,75.797056,CO,11,93,40
India,Karnataka,Davanagere,"Devaraj Urs Badavane, Davanagere - KSPCB",28-02-2024 16:00:00,14.475800,75.905200,NO2,10,13,12
India,Karnataka,Davanagere,"Devaraj Urs Badavane, Davanagere - KSPCB",28-02-2024 16:00:00,14.475800,75.905200,SO2,3,6,4
India,Karnataka,Davanagere,"Devaraj Urs Badavane, Davanagere - KSPCB",28-02-2024 16:00:00,14.475800,75.905200,OZONE,22,28,24
India,Karnataka,Dharwad,"Kalabhavan, Dharwad - KSPCB",28-02-2024 16:00:00,15.459706,75.008381,OZONE,2,38,18
India,Karnataka,Gadag,"Panchal Nagar, Gadag - KSPCB",28-02-2024 16:00:00,15.411456,75.638133,NH3,2,3,2
India,Karnataka,Hassan,"B.Katihalli, Hassan - KSPCB",28-02-2024 16:00:00,13.008556,76.125258,SO2,1,21,5
India,Karnataka,Haveri,"Ashwini Nagar, Haveri - KSPCB",28-02-2024 16:00:00,14.791800,75.389600,PM2.5,32,109,59
India,Karnataka,Hubballi,"Deshpande Nagar, Hubballi - KSPCB",28-02-2024 16:00:00,15.351773,75.140726,SO2,17,21,19
India,Karnataka,Hubballi,"Lingaraj Nagar, Hubballi - KSPCB",28-02-2024 16:00:00,15.3714823,75.1160168,PM2.5,31,55,41
India,Karnataka,Kalaburagi,"Lal Bahadur Shastri Nagar, Kalaburagi - KSPCB",28-02-2024 16:00:00,17.321993,76.822628,CO,38,50,39
India,Karnataka,Karwar,"KHB Colony, Karwar - KSPCB",28-02-2024 16:00:00,14.816666,74.141003,PM2.5,38,123,60
India,Karnataka,Koppal,"Diwator Nagar, Koppal - KSPCB",28-02-2024 16:00:00,15.347630,76.181767,NO2,2,29,16
India,Karnataka,Koppal,"Diwator Nagar, Koppal - KSPCB",28-02-2024 16:00:00,15.347630,76.181767,NH3,3,6,5
India,Karnataka,Madikeri,"Stuart Hill, Madikeri - KSPCB",28-02-2024 16:00:00,12.415911,75.735050,PM2.5,22,55,40
India,Karnataka,Mysuru,"Hebbal 1st Stage, Mysuru - KSPCB",28-02-2024 16:00:00,12.21041,76.37376,NH3,1,4,2
India,Karnataka,Raichur,"Haji Colony, Raichur - KSPCB",28-02-2024 16:00:00,16.208139,77.348417,SO2,63,76,68
India,Karnataka,Raichur,"Haji Colony, Raichur - KSPCB",28-02-2024 16:00:00,16.208139,77.348417,OZONE,3,53,13
India,Karnataka,Ramanagara,"Vijay Nagar, Ramanagara - KSPCB",28-02-2024 16:00:00,12.733409,77.298051,SO2,16,26,20
India,Karnataka,Ramanagara,"Vijay Nagar, Ramanagara - KSPCB",28-02-2024 16:00:00,12.733409,77.298051,OZONE,28,30,29
India,Karnataka,Shivamogga,"Vinoba Nagara, Shivamogga - KSPCB",28-02-2024 16:00:00,13.940000,75.555917,NO2,11,16,13
India,Karnataka,Udupi,"Brahmagiri, Udupi - KSPCB",28-02-2024 16:00:00,13.34194444,74.74694444,CO,44,50,47
India,Karnataka,Vijayapura,"Ibrahimpur, Vijayapura - KSPCB",28-02-2024 16:00:00,16.802639,75.722694,PM10,38,40,39
India,Karnataka,Vijayapura,"Ibrahimpur, Vijayapura - KSPCB",28-02-2024 16:00:00,16.802639,75.722694,CO,NA,NA,NA
India,Kerala,Eloor,"Udyogamandal, Eloor - Kerala PCB",28-02-2024 16:00:00,10.073232,76.302765,NH3,1,1,1
India,Kerala,Kannur,"Thavakkara, Kannur - Kerala PCB",28-02-2024 16:00:00,11.875000,75.373200,NH3,1,1,1
India,Kerala,Kannur,"Thavakkara, Kannur - Kerala PCB",28-02-2024 16:00:00,11.875000,75.373200,SO2,6,7,6
India,Kerala,Kochi,"Vyttila, Kochi - Kerala PCB",28-02-2024 16:00:00,9.969447,76.321186,PM2.5,19,123,59
India,Kerala,Kochi,"Vyttila, Kochi - Kerala PCB",28-02-2024 16:00:00,9.969447,76.321186,SO2,1,10,5
India,Kerala,Kollam,"Polayathode, Kollam - Kerala PCB",28-02-2024 16:00:00,8.8787,76.6073,CO,6,30,12
India,Kerala,Thiruvananthapuram,"Kariavattom, Thiruvananthapuram - Kerala PCB",28-02-2024 16:00:00,8.563700,76.886500,PM2.5,73,85,78
India,Kerala,Thiruvananthapuram,"Plammoodu, Thiruvananthapuram - Kerala PCB",28-02-2024 16:00:00,8.5149093,76.9435879,PM2.5,13,70,34
India,Kerala,Thrissur,"Corporation Ground, Thrissur - Kerala PCB",28-02-2024 16:00:00,10.532400,76.215900,NO2,NA,NA,NA
India,Kerala,Thrissur,"Corporation Ground, Thrissur - Kerala PCB",28-02-2024 16:00:00,10.532400,76.215900,SO2,NA,NA,NA
India,Madhya Pradesh,Bhopal,"Paryavaran Parisar, Bhopal - MPPCB",28-02-2024 16:00:00,23.210494,77.425409,SO2,NA,NA,NA
India,Madhya Pradesh,Bhopal,"T T Nagar, Bhopal - MPPCB",28-02-2024 16:00:00,23.233584,77.400574,SO2,NA,NA,NA
India,Madhya Pradesh,Gwalior,"City Center, Gwalior - MPPCB",28-02-2024 16:00:00,26.203442,78.193251,PM2.5,43,233,136
India,Madhya Pradesh,Gwalior,"City Center, Gwalior - MPPCB",28-02-2024 16:00:00,26.203442,78.193251,SO2,21,53,35
India,Madhya Pradesh,Gwalior,"City Center, Gwalior - MPPCB",28-02-2024 16:00:00,26.203442,78.193251,OZONE,9,103,64
India,Madhya Pradesh,Gwalior,"Maharaj Bada, Gwalior - MPPCB",28-02-2024 16:00:00,26.200388,78.147714,PM10,73,237,144
India,Madhya Pradesh,Gwalior,"Maharaj Bada, Gwalior - MPPCB",28-02-2024 16:00:00,26.200388,78.147714,NO2,16,78,39
India,Madhya Pradesh,Indore,"Chhoti Gwaltoli, Indore - MPPCB",28-02-2024 16:00:00,22.4310,75.5213,PM10,77,124,99
India,Madhya Pradesh,Jabalpur,"Govindh Bhavan Colony, Jabalpur - JMC",28-02-2024 16:00:00,23.163174,79.973061,NH3,3,14,11
India,Madhya Pradesh,Jabalpur,"Govindh Bhavan Colony, Jabalpur - JMC",28-02-2024 16:00:00,23.163174,79.973061,SO2,9,61,42
India,Madhya Pradesh,Jabalpur,"Govindh Bhavan Colony, Jabalpur - JMC",28-02-2024 16:00:00,23.163174,79.973061,OZONE,9,114,73
India,Madhya Pradesh,Jabalpur,"Gupteshwar, Jabalpur - JMC",28-02-2024 16:00:00,23.142888,79.916147,OZONE,3,123,69
India,Madhya Pradesh,Jabalpur,"Marhatal, Jabalpur - MPPCB",28-02-2024 16:00:00,23.168606,79.932247,SO2,4,9,7
India,Madhya Pradesh,Maihar,"Sahilara, Maihar - KJS Cements",28-02-2024 16:00:00,24.2613009,80.7231783,PM2.5,6,44,25
India,Madhya Pradesh,Mandideep,"Sector-D Industrial Area, Mandideep - MPPCB",28-02-2024 16:00:00,23.108440,77.511428,PM2.5,60,200,90
India,Madhya Pradesh,Mandideep,"Sector-D Industrial Area, Mandideep - MPPCB",28-02-2024 16:00:00,23.108440,77.511428,PM10,54,123,78
India,Madhya Pradesh,Mandideep,"Sector-D Industrial Area, Mandideep - MPPCB",28-02-2024 16:00:00,23.108440,77.511428,CO,21,84,31
India,Madhya Pradesh,Pithampur,"Sector-2 Industrial Area, Pithampur - MPPCB",28-02-2024 16:00:00,22.624758,75.675238,NO2,9,21,13
India,Madhya Pradesh,Pithampur,"Sector-2 Industrial Area, Pithampur - MPPCB",28-02-2024 16:00:00,22.624758,75.675238,SO2,11,13,12
India,Madhya Pradesh,Ratlam,"Shasthri Nagar, Ratlam - IPCA Lab",28-02-2024 16:00:00,23.331731,75.045981,PM2.5,NA,NA,NA
India,Madhya Pradesh,Sagar,"Civil Lines, Sagar - MPPCB",28-02-2024 16:00:00,23.838586,78.759431,PM2.5,64,238,98
India,Madhya Pradesh,Sagar,"Civil Lines, Sagar - MPPCB",28-02-2024 16:00:00,23.838586,78.759431,NH3,9,13,11
India,Madhya Pradesh,Sagar,"Civil Lines, Sagar - MPPCB",28-02-2024 16:00:00,23.838586,78.759431,SO2,3,6,4
India,Madhya Pradesh,Sagar,"Deen Dayal Nagar, Sagar - MPPCB",28-02-2024 16:00:00,23.8640158,78.80289321,PM2.5,12,36,24
India,Madhya Pradesh,Sagar,"Deen Dayal Nagar, Sagar - MPPCB",28-02-2024 16:00:00,23.8640158,78.80289321,SO2,6,18,9
India,Madhya Pradesh,Satna,"Bandhavgar Colony, Satna - Birla Cement",28-02-2024 16:00:00,24.58434363,80.8549414,PM2.5,NA,NA,NA
India,Madhya Pradesh,Satna,"Bandhavgar Colony, Satna - Birla Cement",28-02-2024 16:00:00,24.58434363,80.8549414,CO,10,20,11
India,Madhya Pradesh,Satna,"Bandhavgar Colony, Satna - Birla Cement",28-02-2024 16:00:00,24.58434363,80.8549414,OZONE,57,76,65
India,Madhya Pradesh,Singrauli,"Suryakiran Bhawan NCL, Singrauli - MPPCB",28-02-2024 16:00:00,24.108970,82.645580,NH3,3,5,4
India,Madhya Pradesh,Singrauli,"Suryakiran Bhawan NCL, Singrauli - MPPCB",28-02-2024 16:00:00,24.108970,82.645580,SO2,45,88,61
India,Maharashtra,Aurangabad,"MIDC Chilkalthana, Aurangabad - MPCB",28-02-2024 16:00:00,19.875620,75.387310,PM2.5,63,124,93
India,Maharashtra,Aurangabad,"MIDC Chilkalthana, Aurangabad - MPCB",28-02-2024 16:00:00,19.875620,75.387310,NH3,3,4,4
India,Maharashtra,Aurangabad,"MIDC Chilkalthana, Aurangabad - MPCB",28-02-2024 16:00:00,19.875620,75.387310,SO2,2,6,4
India,Maharashtra,Aurangabad,"Rachnakar Colony, Aurangabad - MPCB",28-02-2024 16:00:00,19.863756,75.321188,NO2,18,69,29
India,Maharashtra,Badlapur,"Katrap, Badlapur - MPCB",28-02-2024 16:00:00,19.16485,73.23409,SO2,21,78,40
India,Maharashtra,Belapur,"CBD Belapur, Belapur - MPCB",28-02-2024 16:00:00,19.0243902,73.0406721,PM2.5,66,170,100
India,Maharashtra,Belapur,"CBD Belapur, Belapur - MPCB",28-02-2024 16:00:00,19.0243902,73.0406721,NO2,38,86,59
India,Maharashtra,Belapur,"CBD Belapur, Belapur - MPCB",28-02-2024 16:00:00,19.0243902,73.0406721,SO2,1,11,4
India,Maharashtra,Boisar,"Khaira, Boisar - MPCB",28-02-2024 16:00:00,19.786089,72.757971,NH3,11,23,14
India,Maharashtra,Boisar,"Khaira, Boisar - MPCB",28-02-2024 16:00:00,19.786089,72.757971,CO,17,103,44
India,Maharashtra,Boisar,"Khaira, Boisar - MPCB",28-02-2024 16:00:00,19.786089,72.757971,OZONE,36,57,49
India,Maharashtra,Chandrapur,"Chauhan Colony, Chandrapur - MPCB",28-02-2024 16:00:00,19.962900,79.298714,PM10,42,127,79
India,Maharashtra,Chandrapur,"Chauhan Colony, Chandrapur - MPCB",28-02-2024 16:00:00,19.962900,79.298714,NO2,11,41,21
India,Maharashtra,Chandrapur,"Chauhan Colony, Chandrapur - MPCB",28-02-2024 16:00:00,19.962900,79.298714,NH3,1,2,1
India,Maharashtra,Chandrapur,"MIDC Khutala, Chandrapur - MPCB",28-02-2024 16:00:00,19.9775302,79.2337086,PM10,NA,NA,NA
India,Maharashtra,Chandrapur,"MIDC Khutala, Chandrapur - MPCB",28-02-2024 16:00:00,19.9775302,79.2337086,OZONE,1,1,1
India,Maharashtra,Dhule,"Deopur, Dhule - MPCB",28-02-2024 16:00:00,20.918946,74.776388,NO2,12,48,24
India,Maharashtra,Dhule,"Deopur, Dhule - MPCB",28-02-2024 16:00:00,20.918946,74.776388,OZONE,6,83,55
India,Maharashtra,Jalgaon,"Prabhat Colony, Jalgaon - MPCB",28-02-2024 16:00:00,21.001264,75.565602,SO2,3,12,6
India,Maharashtra,Jalgaon,"Prabhat Colony, Jalgaon - MPCB",28-02-2024 16:00:00,21.001264,75.565602,CO,3,28,9
India,Maharashtra,Jalgaon,"Prabhat Colony, Jalgaon - MPCB",28-02-2024 16:00:00,21.001264,75.565602,OZONE,24,92,63
India,Maharashtra,Kalyan,"Khadakpada, Kalyan - MPCB",28-02-2024 16:00:00,19.25292,73.142019,SO2,28,64,40
India,Maharashtra,Kalyan,"Khadakpada, Kalyan - MPCB",28-02-2024 16:00:00,19.25292,73.142019,CO,18,42,24
India,Maharashtra,Kolhapur,"Shivaji University, Kolhapur - MPCB",28-02-2024 16:00:00,16.6870449,74.2505872,PM2.5,118,165,135
India,Maharashtra,Kolhapur,"Shivaji University, Kolhapur - MPCB",28-02-2024 16:00:00,16.6870449,74.2505872,SO2,2,17,8
India,Maharashtra,Kolhapur,"Sinchan Bhavan, Kolhapur - MPCB",28-02-2024 16:00:00,16.7143745,74.2426398,NO2,19,60,38
India,Maharashtra,Kolhapur,"Sinchan Bhavan, Kolhapur - MPCB",28-02-2024 16:00:00,16.7143745,74.2426398,NH3,7,8,8
India,Maharashtra,Kolhapur,"Sinchan Bhavan, Kolhapur - MPCB",28-02-2024 16:00:00,16.7143745,74.2426398,CO,8,52,38
India,Maharashtra,Kolhapur,"Sinchan Bhavan, Kolhapur - MPCB",28-02-2024 16:00:00,16.7143745,74.2426398,OZONE,28,128,72
India,Maharashtra,Mahad,"Kamble Tarf Birwadi, Mahad - MPCB",28-02-2024 16:00:00,18.1023399,73.4783687,NH3,NA,NA,NA
India,Maharashtra,Mahad,"Kamble Tarf Birwadi, Mahad - MPCB",28-02-2024 16:00:00,18.1023399,73.4783687,SO2,NA,NA,NA
India,Maharashtra,Mahad,"Kamble Tarf Birwadi, Mahad - MPCB",28-02-2024 16:00:00,18.1023399,73.4783687,OZONE,NA,NA,NA
India,Maharashtra,Malegaon,"Mahesh Nagar, Malegaon - MPCB",28-02-2024 16:00:00,20.555712,74.529236,NO2,4,24,13
India,Maharashtra,Mira-Bhayandar,"Bhayandar West, Mira-Bhayandar - MPCB",28-02-2024 16:00:00,19.296481,72.840923,PM10,41,191,135
India,Maharashtra,Mira-Bhayandar,"Bhayandar West, Mira-Bhayandar - MPCB",28-02-2024 16:00:00,19.296481,72.840923,CO,19,51,32
India,Maharashtra,Mumbai,"Bandra Kurla Complex, Mumbai - MPCB",28-02-2024 16:00:00,19.065931,72.862131,CO,16,73,41
India,Maharashtra,Mumbai,"Bandra Kurla Complex, Mumbai - MPCB",28-02-2024 16:00:00,19.065931,72.862131,OZONE,2,124,57
India,Maharashtra,Mumbai,"Borivali East, Mumbai - MPCB",28-02-2024 16:00:00,19.2243333,72.8658113,PM2.5,27,93,60
India,Maharashtra,Mumbai,"Byculla, Mumbai - BMC",28-02-2024 16:00:00,18.9767,72.8380,PM10,51,129,81
India,Maharashtra,Mumbai,"Byculla, Mumbai - BMC",28-02-2024 16:00:00,18.9767,72.8380,SO2,1,24,4
India,Maharashtra,Mumbai,"Chakala-Andheri East, Mumbai - IITM",28-02-2024 16:00:00,19.11074,72.86084,PM2.5,64,152,89
India,Maharashtra,Mumbai,"Chakala-Andheri East, Mumbai - IITM",28-02-2024 16:00:00,19.11074,72.86084,SO2,2,34,16
India,Maharashtra,Mumbai,"Chakala-Andheri East, Mumbai - IITM",28-02-2024 16:00:00,19.11074,72.86084,CO,8,102,49
India,Maharashtra,Mumbai,"Chembur, Mumbai - MPCB",28-02-2024 16:00:00,19.0364585,72.8954371,SO2,3,36,10
India,Maharashtra,Mumbai,"Chhatrapati Shivaji Intl. Airport (T2), Mumbai - MPCB",28-02-2024 16:00:00,19.10078,72.87462,PM2.5,29,52,36
India,Maharashtra,Mumbai,"Chhatrapati Shivaji Intl. Airport (T2), Mumbai - MPCB",28-02-2024 16:00:00,19.10078,72.87462,PM10,82,134,104
India,Maharashtra,Mumbai,"Chhatrapati Shivaji Intl. Airport (T2), Mumbai - MPCB",28-02-2024 16:00:00,19.10078,72.87462,SO2,23,31,27
India,Maharashtra,Mumbai,"Colaba, Mumbai - MPCB",28-02-2024 16:00:00,18.910000,72.820000,PM10,59,127,78
India,Maharashtra,Mumbai,"Ghatkopar, Mumbai - BMC",28-02-2024 16:00:00,19.083694,72.920967,PM10,89,124,110
India,Maharashtra,Mumbai,"Ghatkopar, Mumbai - BMC",28-02-2024 16:00:00,19.083694,72.920967,NO2,13,60,42
India,Maharashtra,Mumbai,"Kandivali East, Mumbai - MPCB",28-02-2024 16:00:00,19.205800,72.868200,PM2.5,9,56,35
India,Maharashtra,Mumbai,"Kandivali East, Mumbai - MPCB",28-02-2024 16:00:00,19.205800,72.868200,NH3,6,10,7
India,Maharashtra,Mumbai,"Kandivali West, Mumbai - BMC",28-02-2024 16:00:00,19.215859,72.831718,NO2,10,100,31
India,Maharashtra,Mumbai,"Kandivali West, Mumbai - BMC",28-02-2024 16:00:00,19.215859,72.831718,NH3,1,3,2
India,Maharashtra,Mumbai,"Kandivali West, Mumbai - BMC",28-02-2024 16:00:00,19.215859,72.831718,CO,9,70,37
India,Maharashtra,Mumbai,"Kandivali West, Mumbai - BMC",28-02-2024 16:00:00,19.215859,72.831718,OZONE,2,66,35
India,Maharashtra,Mumbai,"Kherwadi_Bandra East, Mumbai - MPCB",28-02-2024 16:00:00,19.0632143,72.8456324,NH3,5,115,40
India,Maharashtra,Mumbai,"Kherwadi_Bandra East, Mumbai - MPCB",28-02-2024 16:00:00,19.0632143,72.8456324,CO,10,109,43
India,Maharashtra,Mumbai,"Khindipada-Bhandup West, Mumbai - IITM",28-02-2024 16:00:00,19.1653323,72.922099,NO2,NA,NA,NA
India,Maharashtra,Mumbai,"Khindipada-Bhandup West, Mumbai - IITM",28-02-2024 16:00:00,19.1653323,72.922099,NH3,8,16,10
India,Maharashtra,Mumbai,"Kurla, Mumbai - MPCB",28-02-2024 16:00:00,19.0863,72.8888,CO,32,45,39
India,Maharashtra,Mumbai,"Kurla, Mumbai - MPCB",28-02-2024 16:00:00,19.0863,72.8888,OZONE,30,44,35
India,Maharashtra,Mumbai,"Mazgaon, Mumbai - IITM",28-02-2024 16:00:00,18.96702,72.84214,PM2.5,59,219,125
India,Maharashtra,Mumbai,"Mulund West, Mumbai - MPCB",28-02-2024 16:00:00,19.1750,72.9419,PM10,34,120,71
India,Maharashtra,Mumbai,"Navy Nagar-Colaba, Mumbai - IITM",28-02-2024 16:00:00,18.897756,72.813320,PM2.5,57,118,80
India,Maharashtra,Mumbai,"Navy Nagar-Colaba, Mumbai - IITM",28-02-2024 16:00:00,18.897756,72.813320,OZONE,5,102,62
India,Maharashtra,Mumbai,"Powai, Mumbai - MPCB",28-02-2024 16:00:00,19.137500,72.915056,PM10,35,133,87
India,Maharashtra,Mumbai,"Powai, Mumbai - MPCB",28-02-2024 16:00:00,19.137500,72.915056,OZONE,24,186,89
India,Maharashtra,Mumbai,"Sewri, Mumbai - BMC",28-02-2024 16:00:00,19.000084,72.856730,NH3,1,12,8
India,Maharashtra,Mumbai,"Shivaji Nagar, Mumbai - BMC",28-02-2024 16:00:00,19.060498,72.923356,NH3,2,10,6
India,Maharashtra,Mumbai,"Siddharth Nagar-Worli, Mumbai - IITM",28-02-2024 16:00:00,19.000083,72.813993,CO,17,44,30
India,Maharashtra,Mumbai,"Vile Parle West, Mumbai - MPCB",28-02-2024 16:00:00,19.10861,72.83622,OZONE,4,5,4
India,Maharashtra,Mumbai,"Worli, Mumbai - MPCB",28-02-2024 16:00:00,18.9936162,72.8128113,NH3,1,1,1
India,Maharashtra,Mumbai,"Worli, Mumbai - MPCB",28-02-2024 16:00:00,18.9936162,72.8128113,SO2,9,14,10
India,Maharashtra,Nagpur,"Ambazari, Nagpur - MPCB",28-02-2024 16:00:00,21.121801,79.04952,PM2.5,25,85,59
India,Maharashtra,Nagpur,"Mahal, Nagpur - MPCB",28-02-2024 16:00:00,21.14472,79.107595,PM10,39,126,86
India,Maharashtra,Nagpur,"Mahal, Nagpur - MPCB",28-02-2024 16:00:00,21.14472,79.107595,SO2,31,62,42
India,Maharashtra,Nagpur,"Opp GPO Civil Lines, Nagpur - MPCB",28-02-2024 16:00:00,21.152875,79.0517531,OZONE,2,55,38
India,Maharashtra,Nagpur,"Ram Nagar, Nagpur - MPCB",28-02-2024 16:00:00,21.143383,79.048912,CO,10,34,22
India,Maharashtra,Nanded,"Sneh Nagar, Nanded - MPCB",28-02-2024 16:00:00,19.173852,77.296291,PM2.5,18,60,41
India,Maharashtra,Nashik,"Hirawadi, Nashik - MPCB",28-02-2024 16:00:00,20.021503,73.813844,PM2.5,50,90,65
India,Maharashtra,Nashik,"MIDC Ambad, Nashik - MPCB",28-02-2024 16:00:00,19.950220,73.731480,PM10,61,91,74
India,Maharashtra,Nashik,"MIDC Ambad, Nashik - MPCB",28-02-2024 16:00:00,19.950220,73.731480,CO,21,68,37
India,Maharashtra,Nashik,"Pandav Nagari, Nashik - MPCB",28-02-2024 16:00:00,19.9591346,73.7788008,CO,16,60,30
India,Maharashtra,Nashik,"Pandav Nagari, Nashik - MPCB",28-02-2024 16:00:00,19.9591346,73.7788008,OZONE,23,128,73
India,Maharashtra,Navi Mumbai,"Kopripada-Vashi, Navi Mumbai - MPCB",28-02-2024 16:00:00,19.090337,73.014232,PM10,68,497,193
India,Maharashtra,Navi Mumbai,"Kopripada-Vashi, Navi Mumbai - MPCB",28-02-2024 16:00:00,19.090337,73.014232,NO2,35,124,88
India,Maharashtra,Navi Mumbai,"Kopripada-Vashi, Navi Mumbai - MPCB",28-02-2024 16:00:00,19.090337,73.014232,NH3,5,54,22
India,Maharashtra,Navi Mumbai,"Mahape, Navi Mumbai - MPCB",28-02-2024 16:00:00,19.1135051,73.008978,OZONE,17,34,23
India,Maharashtra,Navi Mumbai,"Nerul, Navi Mumbai - MPCB",28-02-2024 16:00:00,19.008751,73.016620,PM2.5,66,238,132
India,Maharashtra,Navi Mumbai,"Sector-19A Nerul, Navi Mumbai - IITM",28-02-2024 16:00:00,19.044,73.0325,OZONE,1,238,85
India,Maharashtra,Navi Mumbai,"Sector-2E Kalamboli, Navi Mumbai - MPCB",28-02-2024 16:00:00,19.02579,73.10297,PM2.5,75,145,109
India,Maharashtra,Navi Mumbai,"Tondare-Taloja, Navi Mumbai - MPCB",28-02-2024 16:00:00,19.0630,73.1209,PM2.5,63,285,146
India,Maharashtra,Navi Mumbai,"Tondare-Taloja, Navi Mumbai - MPCB",28-02-2024 16:00:00,19.0630,73.1209,SO2,5,113,48
India,Maharashtra,Parbhani,"Masoom Colony, Parbhani - MPCB",28-02-2024 16:00:00,19.265594,76.761463,CO,18,73,33
India,Maharashtra,Pimpri-Chinchwad,"Park Street Wakad, Pimpri Chinchwad - MPCB",28-02-2024 16:00:00,18.59051,73.77946,PM2.5,107,242,171
India,Maharashtra,Pimpri-Chinchwad,"Park Street Wakad, Pimpri Chinchwad - MPCB",28-02-2024 16:00:00,18.59051,73.77946,NO2,53,128,90
India,Maharashtra,Pimpri-Chinchwad,"Park Street Wakad, Pimpri Chinchwad - MPCB",28-02-2024 16:00:00,18.59051,73.77946,NH3,6,15,10
India,Maharashtra,Pimpri-Chinchwad,"Park Street Wakad, Pimpri Chinchwad - MPCB",28-02-2024 16:00:00,18.59051,73.77946,SO2,5,21,10
India,Maharashtra,Pune,"Bhosari, Pune - IITM",28-02-2024 16:00:00,18.640051,73.848956,PM2.5,22,202,66
India,Maharashtra,Pune,"Bhosari, Pune - IITM",28-02-2024 16:00:00,18.640051,73.848956,OZONE,3,109,60
India,Maharashtra,Pune,"Karve Road, Pune - MPCB",28-02-2024 16:00:00,18.5011743,73.8165527,CO,12,102,74
India,Maharashtra,Pune,"Mhada Colony, Pune - IITM",28-02-2024 16:00:00,18.573040,73.927715,CO,23,115,82
India,Maharashtra,Pune,"Savitribai Phule Pune University, Pune - MPCB",28-02-2024 16:00:00,18.547056,73.826908,NO2,12,33,22
India,Maharashtra,Pune,"Savitribai Phule Pune University, Pune - MPCB",28-02-2024 16:00:00,18.547056,73.826908,SO2,10,21,14
India,Maharashtra,Pune,"Transport Nagar-Nigdi, Pune - IITM",28-02-2024 16:00:00,18.664282,73.763966,PM10,51,126,86
India,Maharashtra,Pune,"Transport Nagar-Nigdi, Pune - IITM",28-02-2024 16:00:00,18.664282,73.763966,CO,48,64,53
India,Maharashtra,Pune,"Transport Nagar-Nigdi, Pune - IITM",28-02-2024 16:00:00,18.664282,73.763966,OZONE,5,88,42
India,Maharashtra,Sangli,"Vijay Nagar, Sangli - MPCB",28-02-2024 16:00:00, 16.5038,74.3623,NO2,31,128,62
India,Maharashtra,Solapur,"Dnyaneshwar Nagar, Solapur - MPCB",28-02-2024 16:00:00,17.6336264,75.9132495,PM10,61,267,120
India,Maharashtra,Solapur,"Dnyaneshwar Nagar, Solapur - MPCB",28-02-2024 16:00:00,17.6336264,75.9132495,NH3,17,74,29
India,Maharashtra,Solapur,"Dnyaneshwar Nagar, Solapur - MPCB",28-02-2024 16:00:00,17.6336264,75.9132495,OZONE,1,88,57
India,Maharashtra,Thane,"Kasarvadavali, Thane - MPCB",28-02-2024 16:00:00,19.26777,72.97182,PM10,76,131,109
India,Maharashtra,Thane,"Pimpleshwar Mandir, Thane - MPCB",28-02-2024 16:00:00,19.192056,72.9585188,NH3,3,3,3
India,Maharashtra,Thane,"Pimpleshwar Mandir, Thane - MPCB",28-02-2024 16:00:00,19.192056,72.9585188,SO2,3,128,42
India,Maharashtra,Thane,"Pimpleshwar Mandir, Thane - MPCB",28-02-2024 16:00:00,19.192056,72.9585188,OZONE,2,49,25
India,Maharashtra,Thane,"Upvan Fort, Thane - MPCB",28-02-2024 16:00:00,19.222279,72.957979,PM10,73,152,100
India,Maharashtra,Ulhasnagar,"Sidhi Vinayak Nagar, Ulhasnagar - MPCB",28-02-2024 16:00:00,19.235581,73.159121,NH3,2,4,3
India,Maharashtra,Ulhasnagar,"Sidhi Vinayak Nagar, Ulhasnagar - MPCB",28-02-2024 16:00:00,19.235581,73.159121,OZONE,3,82,61
India,Manipur,Imphal,"DM College of Science, Imphal - Manipur PCB",28-02-2024 16:00:00,24.8207389,93.9423085,SO2,NA,NA,NA
India,Manipur,Imphal,"DM College of Science, Imphal - Manipur PCB",28-02-2024 16:00:00,24.8207389,93.9423085,CO,6,6,6
India,Manipur,Imphal,"Manipur University, Imphal - Manipur PCB",28-02-2024 16:00:00,24.7524239,93.9286218,PM2.5,33,128,65
India,Meghalaya,Shillong,"Lumpyngngad, Shillong - Meghalaya PCB",28-02-2024 16:00:00,25.5586,91.8985,NO2,6,7,6
India,Meghalaya,Shillong,"Lumpyngngad, Shillong - Meghalaya PCB",28-02-2024 16:00:00,25.5586,91.8985,CO,17,32,20
India,Mizoram,Aizawl,"Sikulpuikawn, Aizawl - Mizoram PCB",28-02-2024 16:00:00,23.7176342,92.7192841,PM10,33,71,48
India,Nagaland,Kohima,"PWD Juction, Kohima - NPCB",28-02-2024 16:00:00,25.6635413,94.0989878,CO,8,28,13
India,Odisha,Angul,"Hakimapada, Angul - OSPCB",28-02-2024 16:00:00,20.832874,85.104082,OZONE,35,151,101
India,Odisha,Barbil,"Forest Office, Barbil - OSPCB",28-02-2024 16:00:00,22.1166054,85.3945546,NO2,5,9,7
India,Odisha,Baripada,"Meher Colony, Baripada - OSPCB",28-02-2024 16:00:00,21.941841,86.728318,PM10,25,148,70
India,Odisha,Baripada,"Meher Colony, Baripada - OSPCB",28-02-2024 16:00:00,21.941841,86.728318,SO2,5,7,6
India,Odisha,Bhubaneswar,"Lingraj Mandir, Bhubaneswar - OSPCB",28-02-2024 16:00:00,20.240790,85.836784,NH3,4,6,6
India,Odisha,Bhubaneswar,"Lingraj Mandir, Bhubaneswar - OSPCB",28-02-2024 16:00:00,20.240790,85.836784,SO2,6,23,12
India,Odisha,Bhubaneswar,"Patia, Bhubaneswar - OSPCB",28-02-2024 16:00:00,20.34652,85.81630,PM2.5,65,233,134
India,Odisha,Bhubaneswar,"Patia, Bhubaneswar - OSPCB",28-02-2024 16:00:00,20.34652,85.81630,PM10,95,183,131
India,Odisha,Byasanagar,"Ferro Chrome Colony, Byasanagar - OSPCB",28-02-2024 16:00:00,20.94185,86.11510,PM10,27,165,106
India,Odisha,Keonjhar,"Jagamohanpur, Keonjhar - OSPCB",28-02-2024 16:00:00,21.643900,85.599355,PM10,NA,NA,NA
India,Odisha,Rairangpur,"Divisional Forest Office, Rairangpur - OSPCB",28-02-2024 16:00:00,22.265816,86.174829,PM10,44,126,72
India,Odisha,Rourkela,"Raghunathpali, Rourkela - OSPCB",28-02-2024 16:00:00,22.220833,84.809444,PM2.5,34,121,77
India,Odisha,Rourkela,"Raghunathpali, Rourkela - OSPCB",28-02-2024 16:00:00,22.220833,84.809444,PM10,21,409,99
India,Odisha,Rourkela,"Raghunathpali, Rourkela - OSPCB",28-02-2024 16:00:00,22.220833,84.809444,NO2,15,110,42
India,Odisha,Rourkela,"Sector-2, Rourkela - OSPCB",28-02-2024 16:00:00,22.24500000,84.88111111,PM10,68,130,104
India,Odisha,Suakati,"OMC Colony, Suakati - OSPCB",28-02-2024 16:00:00,21.606865,85.510538,PM2.5,48,162,86
India,Odisha,Talcher,"Talcher Coalfields,Talcher - OSPCB",28-02-2024 16:00:00,20.9360711,85.1707021,SO2,10,107,39
India,Odisha,Tensa,"Barsua Iron Ore Mines, Tensa - OSPCB",28-02-2024 16:00:00,21.869985,85.167016,NH3,8,15,10
India,Puducherry,Puducherry,"Jawahar Nagar, Puducherry - PPCC",28-02-2024 16:00:00,11.9309,79.8027,SO2,4,10,7
India,Punjab,Amritsar,"Golden Temple, Amritsar - PPCB",28-02-2024 16:00:00,31.620000,74.876512,PM2.5,55,205,108
India,Punjab,Amritsar,"Golden Temple, Amritsar - PPCB",28-02-2024 16:00:00,31.620000,74.876512,NH3,6,9,7
India,Punjab,Jalandhar,"Civil Line, Jalandhar - PPCB",28-02-2024 16:00:00,31.321907,75.578914,CO,32,74,54
India,Punjab,Khanna,"Kalal Majra, Khanna - PPCB",28-02-2024 16:00:00,30.736056 ,76.209694,PM2.5,45,96,65
India,Punjab,Khanna,"Kalal Majra, Khanna - PPCB",28-02-2024 16:00:00,30.736056 ,76.209694,NH3,17,18,17
India,Punjab,Ludhiana,"Punjab Agricultural University, Ludhiana - PPCB",28-02-2024 16:00:00,30.9028,75.8086,NH3,7,18,12
India,Punjab,Mandi Gobindgarh,"RIMT University, Mandi Gobindgarh - PPCB",28-02-2024 16:00:00,30.649961,76.331442,PM2.5,58,325,169
India,Punjab,Rupnagar,"Ratanpura, Rupnagar - Ambuja Cements",28-02-2024 16:00:00,31.0325454,76.5623046,SO2,7,11,10
India,Rajasthan,Ajmer,"Civil Lines,  Ajmer - RSPCB",28-02-2024 16:00:00,26.470859,74.646594,SO2,14,20,17
India,Rajasthan,Alwar,"Moti Doongri, Alwar - RSPCB",28-02-2024 16:00:00,27.554793,76.611536,PM2.5,27,57,36
India,Rajasthan,Alwar,"Moti Doongri, Alwar - RSPCB",28-02-2024 16:00:00,27.554793,76.611536,PM10,48,97,65
India,Rajasthan,Banswara,"Rati Talai, Banswara - RSPCB",28-02-2024 16:00:00,23.555190,74.440010,OZONE,4,137,88
India,Rajasthan,Baran,"Bamboliya, Baran - RSPCB",28-02-2024 16:00:00,25.106006,76.469948,NO2,12,71,26
India,Rajasthan,Bharatpur,"Krishna Nagar, Bharatpur - RSPCB",28-02-2024 16:00:00,27.215415,77.50873,PM2.5,3,42,19
India,Rajasthan,Bhilwara,"Pratap Nagar, Bhilwara - RSPCB",28-02-2024 16:00:00,25.339605,74.618883,NO2,18,68,30
India,Rajasthan,Bhiwadi,"RIICO Ind. Area III, Bhiwadi - RSPCB",28-02-2024 16:00:00,28.194909,76.862296,CO,2,123,98
India,Rajasthan,Bhiwadi,"RIICO Ind. Area III, Bhiwadi - RSPCB",28-02-2024 16:00:00,28.194909,76.862296,OZONE,3,30,9
India,Rajasthan,Bhiwadi,"Vasundhara Nagar_UIT, Bhiwadi - RSPCB",28-02-2024 16:00:00,28.207266,76.829265,NH3,7,14,11
India,Rajasthan,Bhiwadi,"Vasundhara Nagar_UIT, Bhiwadi - RSPCB",28-02-2024 16:00:00,28.207266,76.829265,CO,16,42,23
India,Rajasthan,Bikaner,"MM Ground, Bikaner - RSPCB",28-02-2024 16:00:00,28.018792,73.292658,NO2,37,76,57
India,Rajasthan,Bikaner,"MM Ground, Bikaner - RSPCB",28-02-2024 16:00:00,28.018792,73.292658,SO2,4,11,6
India,Rajasthan,Bikaner,"MM Ground, Bikaner - RSPCB",28-02-2024 16:00:00,28.018792,73.292658,CO,20,76,48
India,Rajasthan,Churu,"Subash Chowk, Churu - RSPCB",28-02-2024 16:00:00,28.296139,74.961696,NO2,2,68,19
India,Rajasthan,Churu,"Subash Chowk, Churu - RSPCB",28-02-2024 16:00:00,28.296139,74.961696,SO2,10,34,16
India,Rajasthan,Dausa,"Khatikan Mohalla, Dausa - RSPCB",28-02-2024 16:00:00,26.895552,76.334753,PM2.5,25,134,59
India,Rajasthan,Dausa,"Khatikan Mohalla, Dausa - RSPCB",28-02-2024 16:00:00,26.895552,76.334753,PM10,60,151,105
India,Rajasthan,Dausa,"Khatikan Mohalla, Dausa - RSPCB",28-02-2024 16:00:00,26.895552,76.334753,CO,56,120,104
India,Rajasthan,Dholpur,"Raja Ganj, Dholpur - RSPCB",28-02-2024 16:00:00,26.699557,77.898881,NH3,12,27,14
India,Rajasthan,Dholpur,"Raja Ganj, Dholpur - RSPCB",28-02-2024 16:00:00,26.699557,77.898881,SO2,3,8,5
India,Rajasthan,Dungarpur,"Bhoiwada, Dungarpur - RSPCB",28-02-2024 16:00:00,23.837789,73.714926,SO2,11,17,14
India,Rajasthan,Dungarpur,"Bhoiwada, Dungarpur - RSPCB",28-02-2024 16:00:00,23.837789,73.714926,OZONE,28,63,53
India,Rajasthan,Hanumangarh,"Housing Board, Hanumangarh - RSPCB",28-02-2024 16:00:00,29.610750,74.283608,NO2,13,55,32
India,Rajasthan,Jaipur,"Adarsh Nagar, Jaipur - RSPCB",28-02-2024 16:00:00,26.902909,75.836858,NH3,4,8,5
India,Rajasthan,Jaipur,"Mansarovar Sector-12, Jaipur - RSPCB",28-02-2024 16:00:00,26.843698,75.766894,NO2,20,35,29
India,Rajasthan,Jaipur,"Police Commissionerate, Jaipur - RSPCB",28-02-2024 16:00:00,26.9164092,75.7994901,PM2.5,35,106,61
India,Rajasthan,Jaipur,"RIICO Sitapura, Jaipur - RSPCB",28-02-2024 16:00:00,26.786682,75.827928,NH3,1,2,1
India,Rajasthan,Jaipur,"Sector-2 Murlipura, Jaipur - RSPCB",28-02-2024 16:00:00,26.960669,75.771817,PM2.5,9,55,29
India,Rajasthan,Jaipur,"Shastri Nagar, Jaipur - RSPCB",28-02-2024 16:00:00,26.9502929,75.730943,SO2,1,43,20
India,Rajasthan,Jaisalmer,"Sadar Bazar, Jaisalmer - RSPCB",28-02-2024 16:00:00,26.912329,70.909168,PM2.5,20,44,30
India,Rajasthan,Jalore,"Mudtra Sili, Jalore - RSPCB",28-02-2024 16:00:00,25.344694,72.626208,NO2,14,86,30
India,Rajasthan,Jodhpur,"Collectorate, Jodhpur - RSPCB",28-02-2024 16:00:00,26.268249,73.0193853,PM10,29,153,105
India,Rajasthan,Jodhpur,"Collectorate, Jodhpur - RSPCB",28-02-2024 16:00:00,26.268249,73.0193853,SO2,2,109,28
India,Rajasthan,Jodhpur,"Digari Kalan, Jodhpur - RSPCB",28-02-2024 16:00:00,26.295810,73.082283,NH3,6,9,7
India,Rajasthan,Jodhpur,"Mandor, Jodhpur - RSPCB",28-02-2024 16:00:00,26.358805,73.047444,PM10,52,95,77
India,Rajasthan,Jodhpur,"Mandor, Jodhpur - RSPCB",28-02-2024 16:00:00,26.358805,73.047444,SO2,4,10,7
India,Rajasthan,Jodhpur,"Samrat Ashok Udhyan, Jodhpur - RSPCB",28-02-2024 16:00:00,26.253384,72.976571,NH3,3,6,5
India,Rajasthan,Jodhpur,"Samrat Ashok Udhyan, Jodhpur - RSPCB",28-02-2024 16:00:00,26.253384,72.976571,OZONE,56,186,164
India,Rajasthan,Karauli,"Satyawati Vihar, Karauli - RSPCB",28-02-2024 16:00:00,26.506177,77.025989,NH3,2,10,4
India,Rajasthan,Kota,"Dhanmandi, Kota - RSPCB",28-02-2024 16:00:00,25.164090,75.858137,NH3,3,7,4
India,Rajasthan,Kota,"Dhanmandi, Kota - RSPCB",28-02-2024 16:00:00,25.164090,75.858137,OZONE,24,129,82
India,Rajasthan,Kota,"Nayapura, Kota - RSPCB",28-02-2024 16:00:00,25.196024,75.855668,CO,22,60,35
India,Rajasthan,Kota,"Shrinath Puram, Kota - RSPCB",28-02-2024 16:00:00,25.14389,75.821256,SO2,8,33,15
India,Rajasthan,Kota,"Shrinath Puram, Kota - RSPCB",28-02-2024 16:00:00,25.14389,75.821256,CO,3,64,45
India,Rajasthan,Nagaur,"Karni Colony, Nagaur - RSPCB",28-02-2024 16:00:00,27.213494,73.734444,SO2,3,7,5
India,Rajasthan,Pali,"Indira Colony Vistar, Pali - RSPCB",28-02-2024 16:00:00,25.771061, 73.340227,NO2,19,20,19
India,Rajasthan,Pratapgarh,"Pragati Nagar, Pratapgarh - RSPCB",28-02-2024 16:00:00,24.041198,74.780702,PM10,46,115,83
India,Rajasthan,Pratapgarh,"Pragati Nagar, Pratapgarh - RSPCB",28-02-2024 16:00:00,24.041198,74.780702,CO,16,32,27
India,Rajasthan,Rajsamand,"Dhoinda, Rajsamand - RSPCB",28-02-2024 16:00:00,25.036360,73.883502,NH3,10,11,10
India,Rajasthan,Rajsamand,"Dhoinda, Rajsamand - RSPCB",28-02-2024 16:00:00,25.036360,73.883502,SO2,3,17,8
India,Rajasthan,Rajsamand,"Dhoinda, Rajsamand - RSPCB",28-02-2024 16:00:00,25.036360,73.883502,CO,38,75,69
India,Rajasthan,Sirohi,"Vedhaynath Colony, Sirohi - RSPCB",28-02-2024 16:00:00,24.885261,72.857549,PM10,48,133,80
India,Rajasthan,Sirohi,"Vedhaynath Colony, Sirohi - RSPCB",28-02-2024 16:00:00,24.885261,72.857549,NH3,3,9,5
India,Rajasthan,Sri Ganganagar,"Old City, Sri Ganganagar - RSPCB",28-02-2024 16:00:00,29.931624,73.864511,PM10,NA,NA,NA
India,Rajasthan,Sri Ganganagar,"Old City, Sri Ganganagar - RSPCB",28-02-2024 16:00:00,29.931624,73.864511,CO,6,43,27
India,Rajasthan,Udaipur,"Ashok Nagar, Udaipur - RSPCB",28-02-2024 16:00:00,24.5886166,73.6321397,PM2.5,17,234,135
India,Rajasthan,Udaipur,"Ashok Nagar, Udaipur - RSPCB",28-02-2024 16:00:00,24.5886166,73.6321397,NH3,1,4,2
India,Sikkim,Gangtok,"Zero Point GICI, Gangtok - SSPCB",28-02-2024 16:00:00,27.338530,88.614099,CO,17,26,21
India,TamilNadu,Ariyalur,"Keelapalur, Ariyalur - TNPCB",28-02-2024 16:00:00,11.06825,79.07033,PM2.5,NA,NA,NA
India,TamilNadu,Ariyalur,"Keelapalur, Ariyalur - TNPCB",28-02-2024 16:00:00,11.06825,79.07033,PM10,33,66,45
India,TamilNadu,Ariyalur,"Keelapalur, Ariyalur - TNPCB",28-02-2024 16:00:00,11.06825,79.07033,NO2,9,21,14
India,TamilNadu,Ariyalur,"Keelapalur, Ariyalur - TNPCB",28-02-2024 16:00:00,11.06825,79.07033,CO,1,10,8
India,TamilNadu,Chengalpattu,"Crescent University, Chengalpattu - TNPCB",28-02-2024 16:00:00,12.8777316,80.0834807,PM2.5,20,121,61
India,TamilNadu,Chennai,"Alandur Bus Depot, Chennai - CPCB",28-02-2024 16:00:00,12.9099161,80.1076538,PM10,48,72,59
India,TamilNadu,Chennai,"Alandur Bus Depot, Chennai - CPCB",28-02-2024 16:00:00,12.9099161,80.1076538,NO2,11,49,21
India,TamilNadu,Chennai,"Alandur Bus Depot, Chennai - CPCB",28-02-2024 16:00:00,12.9099161,80.1076538,NH3,6,11,8
India,TamilNadu,Chennai,"Gandhi Nagar_Ennore, Chennai - TNPCB",28-02-2024 16:00:00,13.218341,80.32027,PM10,40,82,53
India,TamilNadu,Chennai,"Gandhi Nagar_Ennore, Chennai - TNPCB",28-02-2024 16:00:00,13.218341,80.32027,NO2,31,32,32
India,TamilNadu,Chennai,"Manali, Chennai - CPCB",28-02-2024 16:00:00,13.164544,80.26285,NO2,8,14,11
India,TamilNadu,Chennai,"Perungudi, Chennai - TNPCB",28-02-2024 16:00:00,12.9533,80.2357,PM10,43,106,71
India,TamilNadu,Chennai,"Perungudi, Chennai - TNPCB",28-02-2024 16:00:00,12.9533,80.2357,CO,2,66,24
India,TamilNadu,Chennai,"Royapuram, Chennai - TNPCB",28-02-2024 16:00:00,13.1036,80.2909,PM2.5,25,108,48
India,TamilNadu,Chennai,"Velachery Res. Area, Chennai - CPCB",28-02-2024 16:00:00,13.0052189,80.2398125,NO2,NA,NA,NA
India,TamilNadu,Chennai,"Velachery Res. Area, Chennai - CPCB",28-02-2024 16:00:00,13.0052189,80.2398125,CO,5,142,92
India,TamilNadu,Cuddalore,"Kudikadu, Cuddalore - TNPCB",28-02-2024 16:00:00,11.6829898,79.7532099,NH3,NA,NA,NA
India,TamilNadu,Gummidipoondi,"Anthoni Pillai Nagar, Gummidipoondi - TNPCB",28-02-2024 16:00:00,13.4127,80.1081,SO2,2,34,10
India,TamilNadu,Kanchipuram,"Kilambi, Kanchipuram - TNPCB",28-02-2024 16:00:00,12.864618,79.659968,NO2,NA,NA,NA
India,TamilNadu,Ooty,"Bombay Castel, Ooty - TNPCB",28-02-2024 16:00:00,11.4068288,76.7138973,PM10,NA,NA,NA
India,TamilNadu,Ooty,"Bombay Castel, Ooty - TNPCB",28-02-2024 16:00:00,11.4068288,76.7138973,NO2,2,36,9
India,TamilNadu,Palkalaiperur,"Bharathidasan University, Palkalaiperur - TNPCB",28-02-2024 16:00:00,10.681158,78.741746,PM10,2,71,43
India,TamilNadu,Palkalaiperur,"Bharathidasan University, Palkalaiperur - TNPCB",28-02-2024 16:00:00,10.681158,78.741746,CO,2,6,4
India,TamilNadu,Palkalaiperur,"Bharathidasan University, Palkalaiperur - TNPCB",28-02-2024 16:00:00,10.681158,78.741746,OZONE,1,1,1
India,TamilNadu,Ramanathapuram,"Chalai Bazaar, Ramanathapuram - TNPCB",28-02-2024 16:00:00,9.36399,78.831977,PM10,34,71,55
India,TamilNadu,Ramanathapuram,"Chalai Bazaar, Ramanathapuram - TNPCB",28-02-2024 16:00:00,9.36399,78.831977,OZONE,13,14,14
India,TamilNadu,Salem,"Sona College of Technology, Salem - TNPCB",28-02-2024 16:00:00,11.679111,78.125052,NH3,1,1,1
India,TamilNadu,Salem,"Sona College of Technology, Salem - TNPCB",28-02-2024 16:00:00,11.679111,78.125052,CO,39,47,44
India,TamilNadu,Thoothukudi,"Meelavittan, Thoothukudi - TNPCB",28-02-2024 16:00:00,8.816428 ,78.099039,NO2,12,20,15
India,TamilNadu,Tirupur,"Kumaran College, Tirupur - TNPCB",28-02-2024 16:00:00,11.0973603,77.3228673,PM10,71,408,190
India,TamilNadu,Tirupur,"Kumaran College, Tirupur - TNPCB",28-02-2024 16:00:00,11.0973603,77.3228673,OZONE,6,7,7
India,TamilNadu,Virudhunagar,"Collectorate Office, Virudhunagar - TNPCB",28-02-2024 16:00:00,9.559382,77.948828,NO2,8,27,21
India,Telangana,Hyderabad,"Bollaram Industrial Area, Hyderabad - TSPCB",28-02-2024 16:00:00,17.540891,78.358528,SO2,4,46,9
India,Telangana,Hyderabad,"ICRISAT Patancheru, Hyderabad - TSPCB",28-02-2024 16:00:00,17.518400,78.278777,PM2.5,16,62,36
India,Telangana,Hyderabad,"ICRISAT Patancheru, Hyderabad - TSPCB",28-02-2024 16:00:00,17.518400,78.278777,NO2,16,17,17
India,Telangana,Hyderabad,"ICRISAT Patancheru, Hyderabad - TSPCB",28-02-2024 16:00:00,17.518400,78.278777,NH3,2,2,2
India,Telangana,Hyderabad,"ICRISAT Patancheru, Hyderabad - TSPCB",28-02-2024 16:00:00,17.518400,78.278777,CO,20,55,36
India,Telangana,Hyderabad,"IITH Kandi, Hyderabad - TSPCB",28-02-2024 16:00:00,17.585705,78.126199,SO2,9,13,9
India,Telangana,Hyderabad,"IITH Kandi, Hyderabad - TSPCB",28-02-2024 16:00:00,17.585705,78.126199,CO,14,38,32
India,Telangana,Hyderabad,"Kokapet, Hyderabad - TSPCB",28-02-2024 16:00:00,17.393559,78.339194,NO2,5,11,6
India,Telangana,Hyderabad,"Kokapet, Hyderabad - TSPCB",28-02-2024 16:00:00,17.393559,78.339194,CO,14,26,20
India,Telangana,Hyderabad,"Kokapet, Hyderabad - TSPCB",28-02-2024 16:00:00,17.393559,78.339194,OZONE,1,7,4
India,Telangana,Hyderabad,"Kompally Municipal Office, Hyderabad - TSPCB",28-02-2024 16:00:00,17.544899,78.486949,NO2,10,13,12
India,Telangana,Hyderabad,"Kompally Municipal Office, Hyderabad - TSPCB",28-02-2024 16:00:00,17.544899,78.486949,SO2,3,29,11
India,Telangana,Hyderabad,"Kompally Municipal Office, Hyderabad - TSPCB",28-02-2024 16:00:00,17.544899,78.486949,CO,4,63,19
India,Telangana,Hyderabad,"Kompally Municipal Office, Hyderabad - TSPCB",28-02-2024 16:00:00,17.544899,78.486949,OZONE,3,59,40
India,Telangana,Hyderabad,"Nacharam_TSIIC IALA, Hyderabad - TSPCB",28-02-2024 16:00:00,17.429398,78.569354,PM10,66,80,73
India,Telangana,Hyderabad,"New Malakpet, Hyderabad - TSPCB",28-02-2024 16:00:00,17.37206,78.50864,NH3,2,2,2
India,Telangana,Hyderabad,"New Malakpet, Hyderabad - TSPCB",28-02-2024 16:00:00,17.37206,78.50864,CO,10,38,28
India,Telangana,Hyderabad,"Ramachandrapuram, Hyderabad - TSPCB",28-02-2024 16:00:00,17.528544,78.286195,PM2.5,33,41,36
India,Telangana,Hyderabad,"Ramachandrapuram, Hyderabad - TSPCB",28-02-2024 16:00:00,17.528544,78.286195,SO2,5,20,13
India,Telangana,Hyderabad,"Ramachandrapuram, Hyderabad - TSPCB",28-02-2024 16:00:00,17.528544,78.286195,CO,8,32,20
India,Telangana,Hyderabad,"Somajiguda, Hyderabad - TSPCB",28-02-2024 16:00:00,17.417094,78.457437,NH3,5,6,5
India,Telangana,Hyderabad,"Zoo Park, Hyderabad - TSPCB",28-02-2024 16:00:00,17.349694,78.451437,PM2.5,37,77,56
India,Telangana,Hyderabad,"Zoo Park, Hyderabad - TSPCB",28-02-2024 16:00:00,17.349694,78.451437,NH3,1,1,1
India,Tripura,Agartala,"Bardowali, Agartala - Tripura SPCB",28-02-2024 16:00:00,23.8175497,91.2726974,NH3,2,4,3
India,Uttar_Pradesh,Agra,"Manoharpur, Agra - UPPCB",28-02-2024 16:00:00,27.23711,78.01936,CO,4,10,8
India,Uttar_Pradesh,Agra,"Rohta, Agra - UPPCB",28-02-2024 16:00:00,27.106972,78.000111,OZONE,18,21,20
India,Uttar_Pradesh,Agra,"Sanjay Palace, Agra - UPPCB",28-02-2024 16:00:00,27.19865833,78.00598056,SO2,6,9,7
India,Uttar_Pradesh,Agra,"Sanjay Palace, Agra - UPPCB",28-02-2024 16:00:00,27.19865833,78.00598056,CO,23,98,32
India,Uttar_Pradesh,Agra,"Sector-3B Avas Vikas Colony, Agra - UPPCB",28-02-2024 16:00:00,27.19412,77.96237,NO2,8,53,25
India,Uttar_Pradesh,Agra,"Shahjahan Garden, Agra - UPPCB",28-02-2024 16:00:00,27.169338,78.03582,NH3,8,10,9
India,Uttar_Pradesh,Agra,"Shastripuram, Agra - UPPCB",28-02-2024 16:00:00,27.19862,77.92066,CO,9,22,12
India,Uttar_Pradesh,Baghpat,"Sardar Patel Inter College, Baghpat - UPPCB",28-02-2024 16:00:00,28.964949,77.278761,CO,12,64,27
India,Uttar_Pradesh,Bareilly,"Civil Lines, Bareilly - UPPCB",28-02-2024 16:00:00,28.359581,79.414455,NH3,NA,NA,NA
India,Uttar_Pradesh,Bareilly,"Civil Lines, Bareilly - UPPCB",28-02-2024 16:00:00,28.359581,79.414455,SO2,41,43,42
India,Uttar_Pradesh,Bareilly,"Rajendra Nagar, Bareilly - UPPCB",28-02-2024 16:00:00,28.38910936,79.42963708,SO2,41,55,43
India,Uttar_Pradesh,Firozabad,"Nagla Bhau, Firozabad - UPPCB",28-02-2024 16:00:00,27.168897,78.376960,PM2.5,NA,NA,NA
India,Uttar_Pradesh,Firozabad,"Vibhab Nagar, Firozabad - UPPCB",28-02-2024 16:00:00,27.1594,78.3953,SO2,12,43,16
India,Uttar_Pradesh,Ghaziabad,"Loni, Ghaziabad - UPPCB",28-02-2024 16:00:00,28.757294,77.278792,CO,6,66,42
India,Uttar_Pradesh,Ghaziabad,"Loni, Ghaziabad - UPPCB",28-02-2024 16:00:00,28.757294,77.278792,OZONE,3,46,27
India,Uttar_Pradesh,Ghaziabad,"Vasundhara, Ghaziabad - UPPCB",28-02-2024 16:00:00,28.6603346,77.3572563,PM2.5,NA,NA,NA
India,Uttar_Pradesh,Ghaziabad,"Vasundhara, Ghaziabad - UPPCB",28-02-2024 16:00:00,28.6603346,77.3572563,PM10,NA,NA,NA
India,Uttar_Pradesh,Ghaziabad,"Vasundhara, Ghaziabad - UPPCB",28-02-2024 16:00:00,28.6603346,77.3572563,SO2,NA,NA,NA
India,Uttar_Pradesh,Ghaziabad,"Vasundhara, Ghaziabad - UPPCB",28-02-2024 16:00:00,28.6603346,77.3572563,CO,18,46,36
India,Uttar_Pradesh,Gorakhpur,"Madan Mohan Malaviya University of Technology, Gorakhpur - UPPCB",28-02-2024 16:00:00,26.730136,83.433859,NH3,2,2,2
India,Uttar_Pradesh,Gorakhpur,"Madan Mohan Malaviya University of Technology, Gorakhpur - UPPCB",28-02-2024 16:00:00,26.730136,83.433859,CO,20,30,23
India,Uttar_Pradesh,Greater Noida,"Knowledge Park - V, Greater Noida - UPPCB",28-02-2024 16:00:00,28.557054,77.453663,PM10,86,199,134
India,Uttar_Pradesh,Greater Noida,"Knowledge Park - V, Greater Noida - UPPCB",28-02-2024 16:00:00,28.557054,77.453663,OZONE,10,128,80
India,Uttar_Pradesh,Hapur,"Anand Vihar, Hapur - UPPCB",28-02-2024 16:00:00,28.725645,77.749675,NH3,1,9,7
India,Uttar_Pradesh,Hapur,"Anand Vihar, Hapur - UPPCB",28-02-2024 16:00:00,28.725645,77.749675,SO2,13,55,27
India,Uttar_Pradesh,Jhansi,"Shivaji Nagar, Jhansi - UPPCB",28-02-2024 16:00:00,25.4547,78.6039,OZONE,1,28,11
India,Uttar_Pradesh,Kanpur,"FTI Kidwai Nagar, Kanpur - UPPCB",28-02-2024 16:00:00,26.428282,80.327067,PM2.5,38,115,65
India,Uttar_Pradesh,Kanpur,"FTI Kidwai Nagar, Kanpur - UPPCB",28-02-2024 16:00:00,26.428282,80.327067,CO,24,47,31
India,Uttar_Pradesh,Kanpur,"Nehru Nagar, Kanpur - UPPCB",28-02-2024 16:00:00,26.4703136,80.3229863,PM10,20,93,47
India,Uttar_Pradesh,Kanpur,"Nehru Nagar, Kanpur - UPPCB",28-02-2024 16:00:00,26.4703136,80.3229863,OZONE,34,108,68
India,Uttar_Pradesh,Khurja,"Kalindi Kunj, Khurja - UPPCB",28-02-2024 16:00:00,28.2348927,77.8683002,NH3,1,2,1
India,Uttar_Pradesh,Lucknow,"Gomti Nagar, Lucknow - UPPCB",28-02-2024 16:00:00,26.868120,81.005119,NO2,8,10,9
India,Uttar_Pradesh,Lucknow,"Kendriya Vidyalaya, Lucknow - CPCB",28-02-2024 16:00:00,26.906111,80.948222,CO,12,54,28
India,Uttar_Pradesh,Lucknow,"Kendriya Vidyalaya, Lucknow - CPCB",28-02-2024 16:00:00,26.906111,80.948222,OZONE,29,70,52
India,Uttar_Pradesh,Lucknow,"Kukrail Picnic Spot-1, Lucknow - UPPCB",28-02-2024 16:00:00,26.90723,80.98579,PM10,39,96,68
India,Uttar_Pradesh,Lucknow,"Lalbagh, Lucknow - CPCB",28-02-2024 16:00:00,26.8458805,80.9365541,SO2,1,13,5
India,Uttar_Pradesh,Lucknow,"Talkatora District Industries Center, Lucknow - CPCB",28-02-2024 16:00:00,26.83399722,80.8917361,NO2,30,86,60
India,Uttar_Pradesh,Lucknow,"Talkatora District Industries Center, Lucknow - CPCB",28-02-2024 16:00:00,26.83399722,80.8917361,SO2,1,19,6
India,Uttar_Pradesh,Meerut,"Ganga Nagar, Meerut - UPPCB",28-02-2024 16:00:00,28.999264,77.7590354,PM10,58,153,107
India,Uttar_Pradesh,Meerut,"Ganga Nagar, Meerut - UPPCB",28-02-2024 16:00:00,28.999264,77.7590354,NH3,5,8,7
India,Uttar_Pradesh,Meerut,"Pallavpuram Phase 2, Meerut - UPPCB",28-02-2024 16:00:00,29.063510,77.709723,PM10,48,142,107
India,Uttar_Pradesh,Moradabad,"Buddhi Vihar, Moradabad - UPPCB",28-02-2024 16:00:00,28.83526,78.74460,NH3,2,2,2
India,Uttar_Pradesh,Moradabad,"Buddhi Vihar, Moradabad - UPPCB",28-02-2024 16:00:00,28.83526,78.74460,CO,22,38,32
India,Uttar_Pradesh,Moradabad,"Employment Office, Moradabad - UPPCB",28-02-2024 16:00:00,28.88528,78.73880,PM2.5,28,99,69
India,Uttar_Pradesh,Moradabad,"Employment Office, Moradabad - UPPCB",28-02-2024 16:00:00,28.88528,78.73880,NO2,18,18,18
India,Uttar_Pradesh,Moradabad,"Jigar Colony, Moradabad - UPPCB",28-02-2024 16:00:00,28.856664,78.772638,CO,19,44,35
India,Uttar_Pradesh,Moradabad,"Kashiram Nagar, Moradabad - UPPCB",28-02-2024 16:00:00,28.849399,78.742362,SO2,31,77,37
India,Uttar_Pradesh,Moradabad,"Kashiram Nagar, Moradabad - UPPCB",28-02-2024 16:00:00,28.849399,78.742362,OZONE,15,47,22
India,Uttar_Pradesh,Moradabad,"Transport Nagar, Moradabad - UPPCB",28-02-2024 16:00:00,28.802625,78.753728,SO2,42,48,45
India,Uttar_Pradesh,Muzaffarnagar,"New Mandi, Muzaffarnagar - UPPCB",28-02-2024 16:00:00,29.4723508,77.7194031,PM2.5,59,331,229
India,Uttar_Pradesh,Noida,"Sector - 62, Noida - IMD",28-02-2024 16:00:00,28.6245479,77.3577104,OZONE,5,31,22
India,Uttar_Pradesh,Noida,"Sector-1, Noida - UPPCB",28-02-2024 16:00:00,28.5898,77.3101,PM2.5,13,202,113
India,Uttar_Pradesh,Noida,"Sector-1, Noida - UPPCB",28-02-2024 16:00:00,28.5898,77.3101,SO2,3,16,7
India,Uttar_Pradesh,Noida,"Sector-1, Noida - UPPCB",28-02-2024 16:00:00,28.5898,77.3101,CO,16,80,25
India,Uttar_Pradesh,Noida,"Sector-116, Noida - UPPCB",28-02-2024 16:00:00,28.569230,77.393848,NO2,23,97,48
India,Uttar_Pradesh,Prayagraj,"Jhunsi, Prayagraj - UPPCB",28-02-2024 16:00:00,25.425602,81.917152,SO2,30,33,31
India,Uttar_Pradesh,Prayagraj,"Motilal Nehru NIT, Prayagraj - UPPCB",28-02-2024 16:00:00,25.494,81.863,NH3,5,7,6
India,Uttar_Pradesh,Prayagraj,"Motilal Nehru NIT, Prayagraj - UPPCB",28-02-2024 16:00:00,25.494,81.863,CO,5,26,12
India,Uttar_Pradesh,Varanasi,"Ardhali Bazar, Varanasi - UPPCB",28-02-2024 16:00:00,25.3505986,82.9083074,SO2,12,18,15
India,Uttar_Pradesh,Varanasi,"Ardhali Bazar, Varanasi - UPPCB",28-02-2024 16:00:00,25.3505986,82.9083074,CO,4,15,9
India,Uttar_Pradesh,Varanasi,"Bhelupur, Varanasi - UPPCB",28-02-2024 16:00:00,25.301778,82.996789,NO2,8,8,8
India,Uttar_Pradesh,Varanasi,"Bhelupur, Varanasi - UPPCB",28-02-2024 16:00:00,25.301778,82.996789,SO2,23,24,23
India,Uttar_Pradesh,Varanasi,"IESD Banaras Hindu University, Varanasi - UPPCB",28-02-2024 16:00:00,25.262326,82.995408,CO,15,22,18
India,Uttar_Pradesh,Varanasi,"Maldahiya, Varanasi - UPPCB",28-02-2024 16:00:00,25.32393,82.99687,NO2,1,2,2
India,Uttar_Pradesh,Varanasi,"Maldahiya, Varanasi - UPPCB",28-02-2024 16:00:00,25.32393,82.99687,SO2,16,23,22
India,Uttar_Pradesh,Vrindavan,"Omex Eternity, Vrindavan - UPPCB",28-02-2024 16:00:00,27.5714090,77.6557570,PM2.5,11,62,27
India,Uttar_Pradesh,Vrindavan,"Omex Eternity, Vrindavan - UPPCB",28-02-2024 16:00:00,27.5714090,77.6557570,OZONE,29,32,31
India,Uttarakhand,Dehradun,"Doon University, Dehradun - UKPCB",28-02-2024 16:00:00,30.269444,78.044167,SO2,1,2,1
India,Uttarakhand,Kashipur,"Govt. Girls Inter College, Kashipur - UKPCB",28-02-2024 16:00:00,29.2124114,78.9611753,PM2.5,20,154,99
India,Uttarakhand,Kashipur,"Govt. Girls Inter College, Kashipur - UKPCB",28-02-2024 16:00:00,29.2124114,78.9611753,SO2,5,9,8
India,Uttarakhand,Rishikesh,"Shivaji Nagar, Rishikesh - UKPCB",28-02-2024 16:00:00,30.075911,78.2859547,SO2,4,6,5
India,West_Bengal,Asansol,"Asansol Court Area, Asansol - WBPCB",28-02-2024 16:00:00,23.685297,86.945968,OZONE,10,37,23
India,West_Bengal,Barrackpore,"SVSPA Campus, Barrackpore - WBPCB",28-02-2024 16:00:00,22.7605581,88.3617589,PM10,68,169,124
India,West_Bengal,Durgapur,"Sidhu Kanhu Indoor Stadium, Durgapur - WBPCB",28-02-2024 16:00:00,23.5404352,87.2892225,NO2,30,52,44
India,West_Bengal,Haldia,"Priyambada Housing Estate, Haldia - WBPCB",28-02-2024 16:00:00,22.06047,88.109737,NH3,3,5,4
India,West_Bengal,Howrah,"Belur Math, Howrah - WBPCB",28-02-2024 16:00:00,22.629801,88.352017,PM2.5,63,249,119
India,West_Bengal,Howrah,"Belur Math, Howrah - WBPCB",28-02-2024 16:00:00,22.629801,88.352017,SO2,7,14,11
India,West_Bengal,Howrah,"Belur Math, Howrah - WBPCB",28-02-2024 16:00:00,22.629801,88.352017,OZONE,5,80,43
India,West_Bengal,Howrah,"Padmapukur, Howrah - WBPCB",28-02-2024 16:00:00,22.5687319,88.2797276,CO,29,113,55
India,West_Bengal,Kolkata,"Ballygunge, Kolkata - WBPCB",28-02-2024 16:00:00,22.5367507,88.3638022,PM2.5,67,264,142
India,West_Bengal,Kolkata,"Ballygunge, Kolkata - WBPCB",28-02-2024 16:00:00,22.5367507,88.3638022,PM10,77,188,124
India,West_Bengal,Kolkata,"Ballygunge, Kolkata - WBPCB",28-02-2024 16:00:00,22.5367507,88.3638022,CO,26,105,30
India,West_Bengal,Kolkata,"Bidhannagar, Kolkata - WBPCB",28-02-2024 16:00:00,22.58157048,88.41002457,CO,18,50,28
India,West_Bengal,Kolkata,"Fort William, Kolkata - WBPCB",28-02-2024 16:00:00,22.556640,88.342674,PM2.5,57,207,117
India,West_Bengal,Kolkata,"Fort William, Kolkata - WBPCB",28-02-2024 16:00:00,22.556640,88.342674,NO2,21,145,66
India,West_Bengal,Kolkata,"Jadavpur, Kolkata - WBPCB",28-02-2024 16:00:00,22.49929,88.36917,SO2,5,29,10
India,West_Bengal,Kolkata,"Jadavpur, Kolkata - WBPCB",28-02-2024 16:00:00,22.49929,88.36917,OZONE,16,92,46
India,West_Bengal,Kolkata,"Rabindra Sarobar, Kolkata - WBPCB",28-02-2024 16:00:00,22.51106,88.35142,NO2,34,192,87
India,West_Bengal,Kolkata,"Victoria, Kolkata - WBPCB",28-02-2024 16:00:00,22.5448082,88.3403691,PM2.5,58,206,125
India,West_Bengal,Kolkata,"Victoria, Kolkata - WBPCB",28-02-2024 16:00:00,22.5448082,88.3403691,PM10,77,161,118
India,Andhra_Pradesh,Amaravati,"Secretariat, Amaravati - APPCB",28-02-2024 16:00:00,16.5150833,80.5181667,PM10,47,80,64
India,Andhra_Pradesh,Amaravati,"Secretariat, Amaravati - APPCB",28-02-2024 16:00:00,16.5150833,80.5181667,NH3,3,4,4
India,Andhra_Pradesh,Amaravati,"Secretariat, Amaravati - APPCB",28-02-2024 16:00:00,16.5150833,80.5181667,OZONE,3,55,40
India,Andhra_Pradesh,Anantapur,"Gulzarpet, Anantapur - APPCB",28-02-2024 16:00:00,14.675886,77.593027,NO2,15,34,21
India,Andhra_Pradesh,Anantapur,"Gulzarpet, Anantapur - APPCB",28-02-2024 16:00:00,14.675886,77.593027,NH3,2,3,3
India,Andhra_Pradesh,Chittoor,"Gangineni Cheruvu, Chittoor - APPCB",28-02-2024 16:00:00,13.204880,79.097889,PM2.5,18,60,40
India,Andhra_Pradesh,Chittoor,"Gangineni Cheruvu, Chittoor - APPCB",28-02-2024 16:00:00,13.204880,79.097889,NO2,1,22,10
India,Andhra_Pradesh,Chittoor,"Gangineni Cheruvu, Chittoor - APPCB",28-02-2024 16:00:00,13.204880,79.097889,OZONE,7,90,64
India,Andhra_Pradesh,Kadapa,"Yerramukkapalli, Kadapa - APPCB",28-02-2024 16:00:00,14.465052,78.824187,PM2.5,17,67,43
India,Andhra_Pradesh,Kadapa,"Yerramukkapalli, Kadapa - APPCB",28-02-2024 16:00:00,14.465052,78.824187,NO2,8,8,8
India,Andhra_Pradesh,Kadapa,"Yerramukkapalli, Kadapa - APPCB",28-02-2024 16:00:00,14.465052,78.824187,SO2,2,3,2
India,Andhra_Pradesh,Kadapa,"Yerramukkapalli, Kadapa - APPCB",28-02-2024 16:00:00,14.465052,78.824187,CO,8,20,12
India,Andhra_Pradesh,Rajamahendravaram,"Anand Kala Kshetram, Rajamahendravaram - APPCB",28-02-2024 16:00:00,16.9872867,81.7363176,NH3,3,6,4
India,Andhra_Pradesh,Tirupati,"Tirumala, Tirupati - APPCB",28-02-2024 16:00:00,13.67,79.35,OZONE,3,44,31
India,Andhra_Pradesh,Tirupati,"Vaikuntapuram, Tirupati - APPCB",28-02-2024 16:00:00,13.615387,79.409230,CO,11,14,13
India,Andhra_Pradesh,Vijayawada,"HB Colony, Vijayawada - APPCB",28-02-2024 16:00:00,16.536107,80.594233,NH3,4,5,4
India,Andhra_Pradesh,Vijayawada,"HB Colony, Vijayawada - APPCB",28-02-2024 16:00:00,16.536107,80.594233,CO,18,28,28
India,Andhra_Pradesh,Vijayawada,"Kanuru, Vijayawada - APPCB",28-02-2024 16:00:00,16.486692,80.699436,NH3,1,1,1
India,Andhra_Pradesh,Vijayawada,"Rajiv Nagar, Vijayawada - APPCB",28-02-2024 16:00:00,16.554731,80.649110,SO2,8,37,19
India,Andhra_Pradesh,Visakhapatnam,"GVM Corporation, Visakhapatnam - APPCB",28-02-2024 16:00:00,17.72,83.3,CO,14,74,26
India,Andhra_Pradesh,Visakhapatnam,"GVM Corporation, Visakhapatnam - APPCB",28-02-2024 16:00:00,17.72,83.3,OZONE,10,53,27
India,Assam,Guwahati,"IITG, Guwahati - PCBA",28-02-2024 16:00:00,26.2028636,91.70046436,NO2,1,17,8
India,Assam,Guwahati,"LGBI Airport, Guwahati - PCBA",28-02-2024 16:00:00,26.10887,91.589544,PM2.5,110,356,190
India,Assam,Guwahati,"LGBI Airport, Guwahati - PCBA",28-02-2024 16:00:00,26.10887,91.589544,PM10,91,428,165
India,Assam,Guwahati,"Pan Bazaar, Guwahati - PCBA",28-02-2024 16:00:00,26.187500,91.744194,PM10,80,431,201
India,Assam,Nagaon,"Christianpatty, Nagaon - PCBA",28-02-2024 16:00:00,26.349082,92.68449,SO2,5,48,22
India,Assam,Nalbari,"Bata Chowk, Nalbari - PCBA",28-02-2024 16:00:00,26.446912,91.439057,NO2,18,50,30
India,Assam,Silchar,"Tarapur, Silchar - PCBA",28-02-2024 16:00:00,24.82827,92.79525,NH3,1,1,1
India,Assam,Silchar,"Tarapur, Silchar - PCBA",28-02-2024 16:00:00,24.82827,92.79525,SO2,1,9,3
India,Assam,Sivasagar,"Girls College, Sivasagar - PCBA",28-02-2024 16:00:00,26.987634,94.636574,NH3,3,3,3
India,Bihar,Aurangabad,"Gurdeo Nagar, Aurangabad - BSPCB",28-02-2024 16:00:00,24.75746,84.366208,CO,66,76,70
India,Bihar,Bettiah,"Kamalnath Nagar, Bettiah - BSPCB",28-02-2024 16:00:00,26.80365,84.51954,NO2,21,39,33
India,Bihar,Bettiah,"Kamalnath Nagar, Bettiah - BSPCB",28-02-2024 16:00:00,26.80365,84.51954,OZONE,1,11,10
India,Bihar,Bhagalpur,"DM Office_Kachari Chowk, Bhagalpur - BSPCB",28-02-2024 16:00:00,25.251013,86.989001,NH3,7,12,9
India,Bihar,Bhagalpur,"DM Office_Kachari Chowk, Bhagalpur - BSPCB",28-02-2024 16:00:00,25.251013,86.989001,SO2,7,18,13
India,Bihar,Bhagalpur,"Mayaganj, Bhagalpur - BSPCB",28-02-2024 16:00:00,25.265194,87.012947,OZONE,17,96,75
India,Bihar,Buxar,"Charitra Van, Buxar - BSPCB (Formerly known as Central Jail)",28-02-2024 16:00:00,25.567520,83.966379,PM10,NA,NA,NA
India,Bihar,Gaya,"Collectorate, Gaya - BSPCB",28-02-2024 16:00:00,24.7955,84.9994,NO2,2,4,3
India,Bihar,Gaya,"Collectorate, Gaya - BSPCB",28-02-2024 16:00:00,24.7955,84.9994,CO,45,126,116
India,Bihar,Gaya,"Collectorate, Gaya - BSPCB",28-02-2024 16:00:00,24.7955,84.9994,OZONE,51,79,66
India,Bihar,Gaya,"Kareemganj, Gaya - BSPCB",28-02-2024 16:00:00,24.792403,84.992416,NO2,30,31,30
India,Bihar,Gaya,"Kareemganj, Gaya - BSPCB",28-02-2024 16:00:00,24.792403,84.992416,CO,5,107,41
India,Bihar,Katihar,"Mirchaibari, Katihar - BSPCB",28-02-2024 16:00:00,25.560083,87.553265,CO,13,13,13
India,Bihar,Katihar,"Mirchaibari, Katihar - BSPCB",28-02-2024 16:00:00,25.560083,87.553265,OZONE,17,22,18
India,Bihar,Kishanganj,"SDM Office_Khagra, Kishanganj - BSPCB",28-02-2024 16:00:00,26.0881305,87.93840336,OZONE,25,48,34
India,Bihar,Manguraha,"Forest Rest House, Manguraha - BSPCB",28-02-2024 16:00:00,27.308328,84.531742,CO,72,75,75
India,Bihar,Muzaffarpur,"Buddha Colony, Muzaffarpur - BSPCB",28-02-2024 16:00:00,26.11442,85.39813,CO,12,60,21
India,Bihar,Patna,"DRM Office Danapur, Patna - BSPCB",28-02-2024 16:00:00,25.586562,85.043586,PM2.5,83,199,121
India,Bihar,Patna,"DRM Office Danapur, Patna - BSPCB",28-02-2024 16:00:00,25.586562,85.043586,NO2,10,63,28
India,Bihar,Patna,"DRM Office Danapur, Patna - BSPCB",28-02-2024 16:00:00,25.586562,85.043586,SO2,6,9,7
India,Bihar,Patna,"DRM Office Danapur, Patna - BSPCB",28-02-2024 16:00:00,25.586562,85.043586,OZONE,1,50,35
India,Bihar,Patna,"IGSC Planetarium Complex, Patna - BSPCB",28-02-2024 16:00:00,25.610369,85.132568,PM2.5,34,109,74
India,Bihar,Patna,"Muradpur, Patna - BSPCB",28-02-2024 16:00:00,25.619651,85.147382,PM2.5,42,202,97
India,Bihar,Patna,"Muradpur, Patna - BSPCB",28-02-2024 16:00:00,25.619651,85.147382,SO2,5,14,8
India,Bihar,Purnia,"Mariam Nagar, Purnia - BSPCB",28-02-2024 16:00:00,25.366336,87.117468,PM10,87,139,124
India,Bihar,Purnia,"Mariam Nagar, Purnia - BSPCB",28-02-2024 16:00:00,25.366336,87.117468,NH3,NA,NA,NA
India,Bihar,Rajgir,"Dangi Tola, Rajgir - BSPCB",28-02-2024 16:00:00,25.03280,85.41948,PM2.5,27,100,71
India,Bihar,Rajgir,"Dangi Tola, Rajgir - BSPCB",28-02-2024 16:00:00,25.03280,85.41948,SO2,4,4,4
India,Bihar,Saharsa,"Police Line, Saharsa - BSPCB",28-02-2024 16:00:00,25.892357,86.590325,NO2,6,8,7
India,Bihar,Saharsa,"Police Line, Saharsa - BSPCB",28-02-2024 16:00:00,25.892357,86.590325,NH3,9,9,9
India,Bihar,Saharsa,"Police Line, Saharsa - BSPCB",28-02-2024 16:00:00,25.892357,86.590325,OZONE,19,70,54
India,Bihar,Samastipur,"DM Office_Kasipur, Samastipur - BSPCB",28-02-2024 16:00:00,25.859655,85.77944,NH3,1,3,2
India,Bihar,Samastipur,"DM Office_Kasipur, Samastipur - BSPCB",28-02-2024 16:00:00,25.859655,85.77944,OZONE,11,46,30
India,Bihar,Sasaram,"Dada Peer, Sasaram - BSPCB",28-02-2024 16:00:00,24.952822,84.002396,CO,88,106,106
India,Bihar,Sasaram,"Dada Peer, Sasaram - BSPCB",28-02-2024 16:00:00,24.952822,84.002396,OZONE,5,71,55
India,Bihar,Siwan,"Chitragupta Nagar, Siwan - BSPCB",28-02-2024 16:00:00,26.2271665,84.3570427,PM10,62,239,124
India,Bihar,Siwan,"Chitragupta Nagar, Siwan - BSPCB",28-02-2024 16:00:00,26.2271665,84.3570427,OZONE,8,84,55
India,Chandigarh,Chandigarh,"Sector 22, Chandigarh - CPCC",28-02-2024 16:00:00,30.735567,76.775714,SO2,7,27,13
India,Chandigarh,Chandigarh,"Sector-25, Chandigarh - CPCC",28-02-2024 16:00:00,30.751462,76.762879,PM10,112,164,132
India,Chandigarh,Chandigarh,"Sector-53, Chandigarh - CPCC",28-02-2024 16:00:00,30.719859,76.738637,PM2.5,68,314,158
India,Chandigarh,Chandigarh,"Sector-53, Chandigarh - CPCC",28-02-2024 16:00:00,30.719859,76.738637,CO,41,80,47
India,Chandigarh,Chandigarh,"Sector-53, Chandigarh - CPCC",28-02-2024 16:00:00,30.719859,76.738637,OZONE,19,79,55
India,Chhattisgarh,Bhilai,"32Bungalows, Bhilai - CECB",28-02-2024 16:00:00,21.194815,81.314770,PM10,29,80,45
India,Chhattisgarh,Bhilai,"32Bungalows, Bhilai - CECB",28-02-2024 16:00:00,21.194815,81.314770,NH3,6,7,6
India,Chhattisgarh,Bhilai,"32Bungalows, Bhilai - CECB",28-02-2024 16:00:00,21.194815,81.314770,SO2,4,6,5
India,Chhattisgarh,Bhilai,"32Bungalows, Bhilai - CECB",28-02-2024 16:00:00,21.194815,81.314770,CO,18,33,20
India,Chhattisgarh,Bhilai,"Hathkhoj, Bhilai - CECB",28-02-2024 16:00:00,21.224231,81.408350,CO,20,68,34
India,Chhattisgarh,Bilaspur,"Mangala, Bilaspur - NTPC",28-02-2024 16:00:00,22.08815,82.13737,PM10,15,84,36
India,Chhattisgarh,Bilaspur,"Mangala, Bilaspur - NTPC",28-02-2024 16:00:00,22.08815,82.13737,NO2,19,24,22
India,Chhattisgarh,Korba,"Rampur, Korba - CECB",28-02-2024 16:00:00,22.368195,82.746431,NO2,27,45,34
India,Chhattisgarh,Korba,"Rampur, Korba - CECB",28-02-2024 16:00:00,22.368195,82.746431,NH3,2,4,3
India,Chhattisgarh,Korba,"Rampur, Korba - CECB",28-02-2024 16:00:00,22.368195,82.746431,SO2,6,14,9
India,Chhattisgarh,Korba,"Urja Nagar, Korba - CECB",28-02-2024 16:00:00,22.348441,82.549611,SO2,2,6,4
India,Chhattisgarh,Korba,"Urja Nagar, Korba - CECB",28-02-2024 16:00:00,22.348441,82.549611,CO,22,47,42
India,Chhattisgarh,Kunjemura,"OP Jindal School, Kunjemura - CECB",28-02-2024 16:00:00,22.126650,83.483212,PM10,13,259,51
India,Chhattisgarh,Milupara,"Govt. Higher Secondary School, Milupara - CECB",28-02-2024 16:00:00,22.1910172,83.5197009,SO2,NA,NA,NA
India,Chhattisgarh,Milupara,"Govt. Higher Secondary School, Milupara - CECB",28-02-2024 16:00:00,22.1910172,83.5197009,CO,12,22,16
India,Chhattisgarh,Raipur,"Krishak Nagar, Raipur - CECB",28-02-2024 16:00:00,21.237755,81.705301,CO,21,40,35
India,Delhi,Delhi,"Anand Vihar, Delhi - DPCC",28-02-2024 16:00:00,28.647622,77.3158090,NO2,68,126,90
India,Delhi,Delhi,"Ashok Vihar, Delhi - DPCC",28-02-2024 16:00:00,28.695381,77.181665,NH3,10,13,11
India,Delhi,Delhi,"Burari Crossing, Delhi - IMD",28-02-2024 16:00:00,28.7256504,77.2011573,CO,30,46,40
India,Delhi,Delhi,"Burari Crossing, Delhi - IMD",28-02-2024 16:00:00,28.7256504,77.2011573,OZONE,4,33,16
India,Delhi,Delhi,"CRRI Mathura Road, Delhi - IMD",28-02-2024 16:00:00,28.5512005,77.2735737,CO,1,43,22
India,Delhi,Delhi,"Chandni Chowk, Delhi - IITM",28-02-2024 16:00:00,28.656756,77.227234,NH3,8,8,8
India,Delhi,Delhi,"Chandni Chowk, Delhi - IITM",28-02-2024 16:00:00,28.656756,77.227234,OZONE,24,29,27
India,Delhi,Delhi,"DTU, Delhi - CPCB",28-02-2024 16:00:00,28.7500499,77.1112615,OZONE,31,39,34
India,Delhi,Delhi,"Dr. Karni Singh Shooting Range, Delhi - DPCC",28-02-2024 16:00:00,28.498571,77.264840,OZONE,4,159,98
India,Delhi,Delhi,"IGI Airport (T3), Delhi - IMD",28-02-2024 16:00:00,28.5627763,77.1180053,CO,18,39,30
India,Delhi,Delhi,"IHBAS, Dilshad Garden, Delhi - CPCB",28-02-2024 16:00:00,28.6811736,77.3025234,PM2.5,65,142,96
India,Delhi,Delhi,"IHBAS, Dilshad Garden, Delhi - CPCB",28-02-2024 16:00:00,28.6811736,77.3025234,SO2,8,44,19
India,Delhi,Delhi,"IHBAS, Dilshad Garden, Delhi - CPCB",28-02-2024 16:00:00,28.6811736,77.3025234,CO,16,62,34
India,Delhi,Delhi,"ITO, Delhi - CPCB",28-02-2024 16:00:00,28.628624,77.241060,CO,39,70,54
India,Delhi,Delhi,"ITO, Delhi - CPCB",28-02-2024 16:00:00,28.628624,77.241060,OZONE,12,59,39
India,Delhi,Delhi,"Jawaharlal Nehru Stadium, Delhi - DPCC",28-02-2024 16:00:00,28.580280,77.233829,NO2,33,117,65
India,Delhi,Delhi,"Jawaharlal Nehru Stadium, Delhi - DPCC",28-02-2024 16:00:00,28.580280,77.233829,SO2,1,16,8
India,Delhi,Delhi,"Lodhi Road, Delhi - IITM",28-02-2024 16:00:00,28.588333,77.221667,NO2,77,110,86
India,Delhi,Delhi,"Lodhi Road, Delhi - IITM",28-02-2024 16:00:00,28.588333,77.221667,SO2,17,30,23
India,Delhi,Delhi,"Lodhi Road, Delhi - IMD",28-02-2024 16:00:00,28.5918245,77.2273074,NO2,1,11,5
India,Delhi,Delhi,"Major Dhyan Chand National Stadium, Delhi - DPCC",28-02-2024 16:00:00,28.611281,77.237738,PM2.5,NA,NA,NA
India,Delhi,Delhi,"Major Dhyan Chand National Stadium, Delhi - DPCC",28-02-2024 16:00:00,28.611281,77.237738,PM10,NA,NA,NA
India,Delhi,Delhi,"Mandir Marg, Delhi - DPCC",28-02-2024 16:00:00,28.636429,77.201067,CO,28,72,62
India,Delhi,Delhi,"Mundka, Delhi - DPCC",28-02-2024 16:00:00,28.684678,77.076574,NH3,6,9,8
India,Delhi,Delhi,"Mundka, Delhi - DPCC",28-02-2024 16:00:00,28.684678,77.076574,CO,26,64,37
India,Delhi,Delhi,"NSIT Dwarka, Delhi - CPCB",28-02-2024 16:00:00,28.60909,77.0325413,CO,23,68,39
India,Delhi,Delhi,"Najafgarh, Delhi - DPCC",28-02-2024 16:00:00,28.570173,76.933762,CO,4,50,29
India,Delhi,Delhi,"Nehru Nagar, Delhi - DPCC",28-02-2024 16:00:00,28.567890,77.250515,NO2,15,26,21
India,Delhi,Delhi,"Nehru Nagar, Delhi - DPCC",28-02-2024 16:00:00,28.567890,77.250515,OZONE,7,149,103
India,Delhi,Delhi,"New Moti Bagh, Delhi - MHUA",28-02-2024 16:00:00,28.57834,77.18400,PM2.5,35,296,155
India,Delhi,Delhi,"North Campus, DU, Delhi - IMD",28-02-2024 16:00:00,28.6573814,77.1585447,PM2.5,NA,NA,NA
India,Delhi,Delhi,"Okhla Phase-2, Delhi - DPCC",28-02-2024 16:00:00,28.530785,77.271255,PM10,72,162,127
India,Delhi,Delhi,"Okhla Phase-2, Delhi - DPCC",28-02-2024 16:00:00,28.530785,77.271255,NO2,46,129,92
India,Delhi,Delhi,"Okhla Phase-2, Delhi - DPCC",28-02-2024 16:00:00,28.530785,77.271255,NH3,8,12,10
India,Delhi,Delhi,"Okhla Phase-2, Delhi - DPCC",28-02-2024 16:00:00,28.530785,77.271255,SO2,9,13,11
India,Delhi,Delhi,"Patparganj, Delhi - DPCC",28-02-2024 16:00:00,28.623763,77.287209,NH3,7,14,11
India,Delhi,Delhi,"Punjabi Bagh, Delhi - DPCC",28-02-2024 16:00:00,28.674045,77.131023,PM2.5,46,239,148
India,Delhi,Delhi,"Punjabi Bagh, Delhi - DPCC",28-02-2024 16:00:00,28.674045,77.131023,CO,32,61,40
India,Delhi,Delhi,"Pusa, Delhi - DPCC",28-02-2024 16:00:00,28.639652,77.146275,CO,104,127,113
India,Delhi,Delhi,"Pusa, Delhi - DPCC",28-02-2024 16:00:00,28.639652,77.146275,OZONE,14,62,42
India,Delhi,Delhi,"R K Puram, Delhi - DPCC",28-02-2024 16:00:00,28.563262,77.186937,NH3,1,2,1
India,Delhi,Delhi,"R K Puram, Delhi - DPCC",28-02-2024 16:00:00,28.563262,77.186937,OZONE,11,118,79
India,Delhi,Delhi,"Rohini, Delhi - DPCC",28-02-2024 16:00:00,28.732528,77.119920,SO2,7,21,12
India,Delhi,Delhi,"Shadipur, Delhi - CPCB",28-02-2024 16:00:00,28.6514781,77.1473105,OZONE,5,34,24
India,Delhi,Delhi,"Sonia Vihar, Delhi - DPCC",28-02-2024 16:00:00,28.710508,77.249485,PM10,28,157,118
India,Delhi,Delhi,"Sonia Vihar, Delhi - DPCC",28-02-2024 16:00:00,28.710508,77.249485,NO2,20,65,46
India,Delhi,Delhi,"Sonia Vihar, Delhi - DPCC",28-02-2024 16:00:00,28.710508,77.249485,SO2,6,26,12
India,Delhi,Delhi,"Sonia Vihar, Delhi - DPCC",28-02-2024 16:00:00,28.710508,77.249485,CO,40,76,51
India,Delhi,Delhi,"Sonia Vihar, Delhi - DPCC",28-02-2024 16:00:00,28.710508,77.249485,OZONE,20,119,89
India,Delhi,Delhi,"Wazirpur, Delhi - DPCC",28-02-2024 16:00:00,28.699793,77.165453,PM2.5,38,270,155
India,Delhi,Delhi,"Wazirpur, Delhi - DPCC",28-02-2024 16:00:00,28.699793,77.165453,NO2,52,140,90
India,Delhi,Delhi,"Wazirpur, Delhi - DPCC",28-02-2024 16:00:00,28.699793,77.165453,CO,36,102,64
India,Delhi,Delhi,"Wazirpur, Delhi - DPCC",28-02-2024 16:00:00,28.699793,77.165453,OZONE,10,80,59
India,Gujarat,Ahmedabad,"Chandkheda, Ahmedabad - IITM",28-02-2024 16:00:00,23.107969,72.574648,NO2,47,82,68
India,Gujarat,Ahmedabad,"Chandkheda, Ahmedabad - IITM",28-02-2024 16:00:00,23.107969,72.574648,OZONE,31,71,55
India,Gujarat,Ahmedabad,"Maninagar, Ahmedabad - GPCB",28-02-2024 16:00:00,23.002657,72.591912,PM2.5,62,195,95
India,Gujarat,Ahmedabad,"Raikhad, Ahmedabad - IITM",28-02-2024 16:00:00,23.020509,72.579261,PM10,88,140,108
India,Gujarat,Ahmedabad,"SAC ISRO Bopal, Ahmedabad - IITM",28-02-2024 16:00:00,23.041137,72.456691,NO2,12,13,12
India,Gujarat,Ahmedabad,"SAC ISRO Bopal, Ahmedabad - IITM",28-02-2024 16:00:00,23.041137,72.456691,SO2,10,11,10
India,Gujarat,Ahmedabad,"SVPI Airport Hansol, Ahmedabad - IITM",28-02-2024 16:00:00,23.076793,72.627874,PM10,96,185,126
India,Gujarat,Ahmedabad,"Sardar Vallabhbhai Patel Stadium, Ahmedabad - IITM",28-02-2024 16:00:00,23.043070,72.562968,PM10,77,245,142
India,Gujarat,Ahmedabad,"Sardar Vallabhbhai Patel Stadium, Ahmedabad - IITM",28-02-2024 16:00:00,23.043070,72.562968,SO2,5,10,8
India,Gujarat,Ankleshwar,"GIDC, Ankleshwar - GPCB",28-02-2024 16:00:00,21.613267,73.010555,NO2,36,37,37
India,Gujarat,Gandhinagar,"IIPHG Lekawada, Gandhinagar - IITM",28-02-2024 16:00:00,23.243639,72.68994,PM2.5,58,120,79
India,Gujarat,Gandhinagar,"Sector-10, Gandhinagar - GPCB",28-02-2024 16:00:00,23.221714,72.654328,PM2.5,24,45,35
India,Gujarat,Gandhinagar,"Sector-10, Gandhinagar - GPCB",28-02-2024 16:00:00,23.221714,72.654328,NO2,4,10,9
India,Gujarat,Surat,"Science Center, Surat - SMC",28-02-2024 16:00:00,21.170046,72.795405,NO2,5,27,10
India,Gujarat,Vapi,"Phase-1 GIDC, Vapi - GPCB",28-02-2024 16:00:00,20.362421,72.918013,PM10,120,405,249
India,Gujarat,Vatva,"Phase-4 GIDC, Vatva - GPCB",28-02-2024 16:00:00,22.969611,72.643500,SO2,17,17,17
India,Haryana,Ambala,"Patti Mehar, Ambala - HSPCB",28-02-2024 16:00:00,30.379589,76.778328,PM10,NA,NA,NA
India,Haryana,Bahadurgarh,"Arya Nagar, Bahadurgarh - HSPCB",28-02-2024 16:00:00,28.6701,76.9254,NO2,32,42,36
India,Haryana,Bahadurgarh,"Arya Nagar, Bahadurgarh - HSPCB",28-02-2024 16:00:00,28.6701,76.9254,OZONE,37,51,43
India,Haryana,Ballabgarh,"Nathu Colony, Ballabgarh - HSPCB",28-02-2024 16:00:00,28.3419248,77.319699,SO2,1,128,22
India,Haryana,Bhiwani,"H.B. Colony, Bhiwani - HSPCB",28-02-2024 16:00:00,28.806223,76.141105,SO2,6,13,10
India,Haryana,Bhiwani,"H.B. Colony, Bhiwani - HSPCB",28-02-2024 16:00:00,28.806223,76.141105,OZONE,6,10,7
India,Haryana,Charkhi Dadri,"Mini Secretariat, Charkhi Dadri - HSPCB",28-02-2024 16:00:00,28.593883,76.270653,SO2,48,53,51
India,Haryana,Dharuhera,"Municipal Corporation Office, Dharuhera -  HSPCB",28-02-2024 16:00:00,28.206800,76.799700,NH3,9,26,18
India,Haryana,Dharuhera,"Municipal Corporation Office, Dharuhera -  HSPCB",28-02-2024 16:00:00,28.206800,76.799700,SO2,5,25,13
India,Haryana,Gurugram,"Sector-51, Gurugram - HSPCB",28-02-2024 16:00:00,28.4227,77.0667,PM10,79,150,122
India,Haryana,Gurugram,"Sector-51, Gurugram - HSPCB",28-02-2024 16:00:00,28.4227,77.0667,NH3,6,14,9
India,Haryana,Gurugram,"Sector-51, Gurugram - HSPCB",28-02-2024 16:00:00,28.4227,77.0667,CO,20,45,37
India,Haryana,Gurugram,"Sector-51, Gurugram - HSPCB",28-02-2024 16:00:00,28.4227,77.0667,OZONE,27,67,56
India,Haryana,Gurugram,"Vikas Sadan, Gurugram - HSPCB",28-02-2024 16:00:00,28.4501238,77.0263051,NO2,5,25,14
India,Haryana,Hisar,"Urban Estate-II, Hisar - HSPCB",28-02-2024 16:00:00,29.140560,75.744941,NO2,7,10,8
India,Haryana,Jind,"Police Lines, Jind - HSPCB",28-02-2024 16:00:00,29.307814,76.337619,CO,5,101,19
India,Haryana,Kaithal,"Rishi Nagar, Kaithal - HSPCB",28-02-2024 16:00:00,29.8006,76.4155,PM2.5,60,93,73
India,Haryana,Kaithal,"Rishi Nagar, Kaithal - HSPCB",28-02-2024 16:00:00,29.8006,76.4155,NO2,24,26,25
India,Haryana,Karnal,"Sector-12, Karnal - HSPCB",28-02-2024 16:00:00,29.695300,77.002700,NO2,7,12,10
India,Haryana,Kurukshetra,"Sector-7, Kurukshetra - HSPCB",28-02-2024 16:00:00,29.966942,76.875879,NO2,10,11,10
India,Haryana,Manesar,"Sector-2 IMT, Manesar - HSPCB",28-02-2024 16:00:00,28.360699,76.936090,SO2,19,72,42
India,Haryana,Manesar,"Sector-2 IMT, Manesar - HSPCB",28-02-2024 16:00:00,28.360699,76.936090,OZONE,8,53,38
India,Haryana,Narnaul,"Shastri Nagar, Narnaul - HSPCB",28-02-2024 16:00:00,28.060249,76.113115,OZONE,24,41,30
India,Haryana,Palwal,"Shyam Nagar, Palwal - HSPCB",28-02-2024 16:00:00,28.1485564,77.3320667,PM2.5,71,107,86
India,Haryana,Palwal,"Shyam Nagar, Palwal - HSPCB",28-02-2024 16:00:00,28.1485564,77.3320667,PM10,63,101,80
India,Haryana,Palwal,"Shyam Nagar, Palwal - HSPCB",28-02-2024 16:00:00,28.1485564,77.3320667,OZONE,8,40,26
India,Haryana,Panchkula,"Sector-6, Panchkula - HSPCB ",28-02-2024 16:00:00,30.7057778,76.8531805555555,CO,8,123,55
India,Haryana,Panipat,"Sector-18, Panipat - HSPCB",28-02-2024 16:00:00,29.497973,76.993331,PM2.5,81,85,83
India,Haryana,Sirsa,"F-Block, Sirsa - HSPCB",28-02-2024 16:00:00,29.536400,75.015800,NO2,10,12,10
India,Haryana,Sirsa,"F-Block, Sirsa - HSPCB",28-02-2024 16:00:00,29.536400,75.015800,CO,25,50,35
India,Haryana,Sonipat,"Murthal, Sonipat - HSPCB",28-02-2024 16:00:00,29.027200,77.062100,NO2,NA,NA,NA
India,Haryana,Sonipat,"Murthal, Sonipat - HSPCB",28-02-2024 16:00:00,29.027200,77.062100,SO2,NA,NA,NA
India,Haryana,Yamuna Nagar,"Gobind Pura, Yamuna Nagar - HSPCB",28-02-2024 16:00:00,30.1480566,77.2893471,CO,2,63,40
India,Jammu_and_Kashmir,Srinagar,"Rajbagh, Srinagar - JKSPCB",28-02-2024 16:00:00,34.066206,74.819820,PM10,NA,NA,NA
India,Jharkhand,Dhanbad,"Kalakusuma, Dhanbad - DMC",28-02-2024 16:00:00,23.811548,86.481238,SO2,17,117,112
India,Jharkhand,Dhanbad,"Sardar Patel Nagar, Dhanbad - JSPCB",28-02-2024 16:00:00,23.80569,86.44268,OZONE,8,36,14
India,Jharkhand,Pathardih,"Mohalbani Ghat, Pathardih - DMC",28-02-2024 16:00:00,23.669880,86.411725,PM10,58,191,116
India,Karnataka,Bagalkot,"Vidayagiri, Bagalkot - KSPCB",28-02-2024 16:00:00,16.172806,75.659694,PM10,42,42,42
India,Karnataka,Bagalkot,"Vidayagiri, Bagalkot - KSPCB",28-02-2024 16:00:00,16.172806,75.659694,OZONE,8,29,18
India,Karnataka,Belgaum,"Ramteerth Nagar, Belgaum - KSPCB",28-02-2024 16:00:00,15.888653,74.541751,CO,32,46,35
India,Karnataka,Bengaluru,"BTM Layout, Bengaluru - CPCB",28-02-2024 16:00:00,12.9135218,77.5950804,PM10,NA,NA,NA
India,Karnataka,Bengaluru,"BTM Layout, Bengaluru - CPCB",28-02-2024 16:00:00,12.9135218,77.5950804,NH3,NA,NA,NA
India,Karnataka,Bengaluru,"BTM Layout, Bengaluru - CPCB",28-02-2024 16:00:00,12.9135218,77.5950804,SO2,NA,NA,NA
India,Karnataka,Bengaluru,"Bapuji Nagar, Bengaluru - KSPCB",28-02-2024 16:00:00,12.951913,77.539784,SO2,4,6,5
India,Karnataka,Bengaluru,"Hebbal, Bengaluru - KSPCB",28-02-2024 16:00:00,13.029152,77.585901,PM10,29,114,78
India,Karnataka,Bengaluru,"Hebbal, Bengaluru - KSPCB",28-02-2024 16:00:00,13.029152,77.585901,SO2,21,40,29
India,Karnataka,Bengaluru,"Hebbal, Bengaluru - KSPCB",28-02-2024 16:00:00,13.029152,77.585901,OZONE,7,8,8
India,Karnataka,Bengaluru,"Jayanagar 5th Block, Bengaluru - KSPCB",28-02-2024 16:00:00,12.920984,77.584908,NH3,2,3,2
India,Karnataka,Bengaluru,"Jigani, Bengaluru - KSPCB",28-02-2024 16:00:00,12.7816279,77.6299145,NO2,31,32,32
India,Karnataka,Bengaluru,"Peenya, Bengaluru - CPCB",28-02-2024 16:00:00,13.0270199,77.494094,NH3,3,4,3
India,Karnataka,Bengaluru,"RVCE-Mailasandra, Bengaluru - KSPCB",28-02-2024 16:00:00,12.921418,77.502466,SO2,7,13,8
India,Karnataka,Bengaluru,"Sanegurava Halli, Bengaluru - KSPCB",28-02-2024 16:00:00,12.990328,77.5431385,NO2,18,21,20
India,Karnataka,Bengaluru,"Shivapura_Peenya, Bengaluru - KSPCB",28-02-2024 16:00:00,13.0246342,77.5080115,PM2.5,18,98,47
India,Karnataka,Bengaluru,"Silk Board, Bengaluru - KSPCB",28-02-2024 16:00:00,12.917348,77.622813,PM2.5,30,70,49
India,Karnataka,Bengaluru,"Silk Board, Bengaluru - KSPCB",28-02-2024 16:00:00,12.917348,77.622813,SO2,3,12,8
India,Karnataka,Chamarajanagar,"Urban, Chamarajanagar - KSPCB",28-02-2024 16:00:00,11.55358,76.55521,PM2.5,16,52,28
India,Karnataka,Chamarajanagar,"Urban, Chamarajanagar - KSPCB",28-02-2024 16:00:00,11.55358,76.55521,PM10,25,62,41
India,Karnataka,Chikkaballapur,"Chikkaballapur Rural, Chikkaballapur - KSPCB",28-02-2024 16:00:00,13.428828,77.731418,PM2.5,26,88,61
India,Karnataka,Chikkaballapur,"Chikkaballapur Rural, Chikkaballapur - KSPCB",28-02-2024 16:00:00,13.428828,77.731418,CO,18,38,28
India,Karnataka,Chikkamagaluru,"Kalyana Nagara, Chikkamagaluru - KSPCB",28-02-2024 16:00:00,13.328028,75.797056,PM2.5,28,86,44
India,Karnataka,Chikkamagaluru,"Kalyana Nagara, Chikkamagaluru - KSPCB",28-02-2024 16:00:00,13.328028,75.797056,SO2,1,6,4
India,Karnataka,Davanagere,"Devaraj Urs Badavane, Davanagere - KSPCB",28-02-2024 16:00:00,14.475800,75.905200,PM2.5,13,64,40
India,Karnataka,Davanagere,"Devaraj Urs Badavane, Davanagere - KSPCB",28-02-2024 16:00:00,14.475800,75.905200,PM10,29,114,62
India,Karnataka,Gadag,"Panchal Nagar, Gadag - KSPCB",28-02-2024 16:00:00,15.411456,75.638133,PM10,21,51,38
India,Karnataka,Gadag,"Panchal Nagar, Gadag - KSPCB",28-02-2024 16:00:00,15.411456,75.638133,SO2,NA,NA,NA
India,Karnataka,Hassan,"B.Katihalli, Hassan - KSPCB",28-02-2024 16:00:00,13.008556,76.125258,NO2,1,2,1
India,Karnataka,Hassan,"B.Katihalli, Hassan - KSPCB",28-02-2024 16:00:00,13.008556,76.125258,NH3,1,7,2
India,Karnataka,Hubballi,"Deshpande Nagar, Hubballi - KSPCB",28-02-2024 16:00:00,15.351773,75.140726,PM2.5,23,74,51
India,Karnataka,Hubballi,"Deshpande Nagar, Hubballi - KSPCB",28-02-2024 16:00:00,15.351773,75.140726,CO,64,86,68
India,Karnataka,Hubballi,"Lingaraj Nagar, Hubballi - KSPCB",28-02-2024 16:00:00,15.3714823,75.1160168,PM10,49,72,61
India,Karnataka,Hubballi,"Lingaraj Nagar, Hubballi - KSPCB",28-02-2024 16:00:00,15.3714823,75.1160168,NO2,16,16,16
India,Karnataka,Hubballi,"Lingaraj Nagar, Hubballi - KSPCB",28-02-2024 16:00:00,15.3714823,75.1160168,CO,22,81,38
India,Karnataka,Kalaburagi,"Lal Bahadur Shastri Nagar, Kalaburagi - KSPCB",28-02-2024 16:00:00,17.321993,76.822628,NO2,11,12,12
India,Karnataka,Kalaburagi,"Lal Bahadur Shastri Nagar, Kalaburagi - KSPCB",28-02-2024 16:00:00,17.321993,76.822628,OZONE,2,55,34
India,Karnataka,Kalaburagi,"Mahatma Basaveswar Colony, Kalaburgi - KSPCB",28-02-2024 16:00:00,17.336318,76.847397,PM2.5,18,66,40
India,Karnataka,Kalaburagi,"Mahatma Basaveswar Colony, Kalaburgi - KSPCB",28-02-2024 16:00:00,17.336318,76.847397,PM10,24,86,54
India,Karnataka,Kalaburagi,"Mahatma Basaveswar Colony, Kalaburgi - KSPCB",28-02-2024 16:00:00,17.336318,76.847397,NO2,16,24,19
India,Karnataka,Kalaburagi,"Mahatma Basaveswar Colony, Kalaburgi - KSPCB",28-02-2024 16:00:00,17.336318,76.847397,SO2,2,10,5
India,Karnataka,Karwar,"KHB Colony, Karwar - KSPCB",28-02-2024 16:00:00,14.816666,74.141003,CO,7,8,8
India,Karnataka,Kolar,"Tamaka Ind. Area, Kolar - KSPCB",28-02-2024 16:00:00,13.1276288,78.1570122,OZONE,8,12,11
India,Karnataka,Madikeri,"Stuart Hill, Madikeri - KSPCB",28-02-2024 16:00:00,12.415911,75.735050,NO2,7,12,8
India,Karnataka,Mangalore,"Kadri, Mangalore - KSPCB",28-02-2024 16:00:00,12.889250,74.853000,PM10,70,123,93
India,Karnataka,Raichur,"Haji Colony, Raichur - KSPCB",28-02-2024 16:00:00,16.208139,77.348417,NO2,11,36,22
India,Karnataka,Ramanagara,"Vijay Nagar, Ramanagara - KSPCB",28-02-2024 16:00:00,12.733409,77.298051,PM10,26,47,35
India,Karnataka,Ramanagara,"Vijay Nagar, Ramanagara - KSPCB",28-02-2024 16:00:00,12.733409,77.298051,NO2,2,10,4
India,Karnataka,Shivamogga,"Vinoba Nagara, Shivamogga - KSPCB",28-02-2024 16:00:00,13.940000,75.555917,PM10,59,80,68
India,Karnataka,Shivamogga,"Vinoba Nagara, Shivamogga - KSPCB",28-02-2024 16:00:00,13.940000,75.555917,NH3,2,3,3
India,Karnataka,Shivamogga,"Vinoba Nagara, Shivamogga - KSPCB",28-02-2024 16:00:00,13.940000,75.555917,CO,5,32,20
India,Karnataka,Udupi,"Brahmagiri, Udupi - KSPCB",28-02-2024 16:00:00,13.34194444,74.74694444,PM10,NA,NA,NA
India,Karnataka,Udupi,"Brahmagiri, Udupi - KSPCB",28-02-2024 16:00:00,13.34194444,74.74694444,SO2,NA,NA,NA
India,Kerala,Eloor,"Udyogamandal, Eloor - Kerala PCB",28-02-2024 16:00:00,10.073232,76.302765,PM10,34,54,44
India,Kerala,Eloor,"Udyogamandal, Eloor - Kerala PCB",28-02-2024 16:00:00,10.073232,76.302765,CO,13,114,64
India,Kerala,Kannur,"Thavakkara, Kannur - Kerala PCB",28-02-2024 16:00:00,11.875000,75.373200,CO,30,35,33
India,Kerala,Kannur,"Thavakkara, Kannur - Kerala PCB",28-02-2024 16:00:00,11.875000,75.373200,OZONE,31,36,34
India,Kerala,Kochi,"Vyttila, Kochi - Kerala PCB",28-02-2024 16:00:00,9.969447,76.321186,PM10,41,107,71
India,Kerala,Kochi,"Vyttila, Kochi - Kerala PCB",28-02-2024 16:00:00,9.969447,76.321186,CO,60,62,61
India,Kerala,Kollam,"Polayathode, Kollam - Kerala PCB",28-02-2024 16:00:00,8.8787,76.6073,SO2,1,6,3
India,Kerala,Kollam,"Polayathode, Kollam - Kerala PCB",28-02-2024 16:00:00,8.8787,76.6073,OZONE,32,39,36
India,Kerala,Thiruvananthapuram,"Kariavattom, Thiruvananthapuram - Kerala PCB",28-02-2024 16:00:00,8.563700,76.886500,PM10,78,90,83
India,Kerala,Thiruvananthapuram,"Plammoodu, Thiruvananthapuram - Kerala PCB",28-02-2024 16:00:00,8.5149093,76.9435879,NO2,9,10,10
India,Kerala,Thrissur,"Corporation Ground, Thrissur - Kerala PCB",28-02-2024 16:00:00,10.532400,76.215900,PM10,NA,NA,NA
India,Kerala,Thrissur,"Corporation Ground, Thrissur - Kerala PCB",28-02-2024 16:00:00,10.532400,76.215900,OZONE,30,30,30
India,Madhya Pradesh,Bhopal,"Paryavaran Parisar, Bhopal - MPPCB",28-02-2024 16:00:00,23.210494,77.425409,NO2,NA,NA,NA
India,Madhya Pradesh,Bhopal,"T T Nagar, Bhopal - MPPCB",28-02-2024 16:00:00,23.233584,77.400574,PM2.5,NA,NA,NA
India,Madhya Pradesh,Bhopal,"T T Nagar, Bhopal - MPPCB",28-02-2024 16:00:00,23.233584,77.400574,NO2,NA,NA,NA
India,Madhya Pradesh,Bhopal,"T T Nagar, Bhopal - MPPCB",28-02-2024 16:00:00,23.233584,77.400574,OZONE,11,125,113
