country,state,city,station,last_update,latitude,longitude,pollutant_id,pollutant_min,pollutant_max,pollutant_avg
India,Andhra_Pradesh,Amaravati,"Secretariat, Amaravati - APPCB",15-02-2024 10:00:00,16.5150833,80.5181667,CO,9,69,44
India,Andhra_Pradesh,Chittoor,"Gangineni Cheruvu, Chittoor - APPCB",15-02-2024 10:00:00,13.204880,79.097889,PM10,36,75,48
India,Andhra_Pradesh,Chittoor,"Gangineni Cheruvu, Chittoor - APPCB",15-02-2024 10:00:00,13.204880,79.097889,SO2,2,103,22
India,Andhra_Pradesh,Chittoor,"Gangineni Cheruvu, Chittoor - APPCB",15-02-2024 10:00:00,13.204880,79.097889,OZONE,7,101,21
India,Andhra_Pradesh,Kadapa,"Yerramukkapalli, Kadapa - APPCB",15-02-2024 10:00:00,14.465052,78.824187,NO2,NA,NA,NA
India,Andhra_Pradesh,Rajamahendravaram,"Anand Kala Kshetram, Rajamahendravaram - APPCB",15-02-2024 10:00:00,16.9872867,81.7363176,NH3,3,5,4
India,Andhra_Pradesh,Tirupati,"Tirumala, Tirupati - APPCB",15-02-2024 10:00:00,13.67,79.35,CO,38,58,48
India,Andhra_Pradesh,Tirupati,"Tirumala, Tirupati - APPCB",15-02-2024 10:00:00,13.67,79.35,OZONE,7,37,20
India,Andhra_Pradesh,Tirupati,"Vaikuntapuram, Tirupati - APPCB",15-02-2024 10:00:00,13.615387,79.409230,PM10,NA,NA,NA
India,Andhra_Pradesh,Vijayawada,"Kanuru, Vijayawada - APPCB",15-02-2024 10:00:00,16.486692,80.699436,PM10,NA,NA,NA
India,Andhra_Pradesh,Visakhapatnam,"GVM Corporation, Visakhapatnam - APPCB",15-02-2024 10:00:00,17.72,83.3,PM2.5,68,281,131
India,Andhra_Pradesh,Visakhapatnam,"GVM Corporation, Visakhapatnam - APPCB",15-02-2024 10:00:00,17.72,83.3,PM10,82,301,149
India,Andhra_Pradesh,Visakhapatnam,"GVM Corporation, Visakhapatnam - APPCB",15-02-2024 10:00:00,17.72,83.3,SO2,8,14,11
India,Assam,Byrnihat,"Central Academy for SFS, Byrnihat - PCBA",15-02-2024 10:00:00,26.071318,91.87488,NH3,1,8,6
India,Assam,Byrnihat,"Central Academy for SFS, Byrnihat - PCBA",15-02-2024 10:00:00,26.071318,91.87488,SO2,6,11,9
India,Assam,Guwahati,"IITG, Guwahati - PCBA",15-02-2024 10:00:00,26.2028636,91.70046436,NO2,2,19,10
India,Assam,Guwahati,"IITG, Guwahati - PCBA",15-02-2024 10:00:00,26.2028636,91.70046436,NH3,5,5,5
India,Assam,Guwahati,"LGBI Airport, Guwahati - PCBA",15-02-2024 10:00:00,26.10887,91.589544,PM2.5,68,302,145
India,Assam,Guwahati,"LGBI Airport, Guwahati - PCBA",15-02-2024 10:00:00,26.10887,91.589544,PM10,91,274,145
India,Assam,Guwahati,"LGBI Airport, Guwahati - PCBA",15-02-2024 10:00:00,26.10887,91.589544,NO2,9,91,29
India,Assam,Guwahati,"LGBI Airport, Guwahati - PCBA",15-02-2024 10:00:00,26.10887,91.589544,OZONE,2,98,28
India,Assam,Guwahati,"Pan Bazaar, Guwahati - PCBA",15-02-2024 10:00:00,26.187500,91.744194,NH3,4,6,5
India,Assam,Guwahati,"Railway Colony, Guwahati - PCBA",15-02-2024 10:00:00,26.181742,91.78063,PM2.5,88,367,262
India,Assam,Guwahati,"Railway Colony, Guwahati - PCBA",15-02-2024 10:00:00,26.181742,91.78063,NO2,3,4,3
India,Assam,Guwahati,"Railway Colony, Guwahati - PCBA",15-02-2024 10:00:00,26.181742,91.78063,SO2,20,37,23
India,Assam,Nagaon,"Christianpatty, Nagaon - PCBA",15-02-2024 10:00:00,26.349082,92.68449,PM2.5,190,468,322
India,Assam,Nagaon,"Christianpatty, Nagaon - PCBA",15-02-2024 10:00:00,26.349082,92.68449,SO2,4,75,23
India,Assam,Nalbari,"Bata Chowk, Nalbari - PCBA",15-02-2024 10:00:00,26.446912,91.439057,PM2.5,100,401,302
India,Assam,Nalbari,"Bata Chowk, Nalbari - PCBA",15-02-2024 10:00:00,26.446912,91.439057,PM10,105,416,211
India,Assam,Nalbari,"Bata Chowk, Nalbari - PCBA",15-02-2024 10:00:00,26.446912,91.439057,OZONE,2,98,16
India,Assam,Silchar,"Tarapur, Silchar - PCBA",15-02-2024 10:00:00,24.82827,92.79525,PM2.5,33,50,41
India,Assam,Silchar,"Tarapur, Silchar - PCBA",15-02-2024 10:00:00,24.82827,92.79525,NO2,33,48,38
India,Assam,Sivasagar,"Girls College, Sivasagar - PCBA",15-02-2024 10:00:00,26.987634,94.636574,PM10,29,90,59
India,Assam,Sivasagar,"Girls College, Sivasagar - PCBA",15-02-2024 10:00:00,26.987634,94.636574,NO2,21,40,27
India,Assam,Sivasagar,"Girls College, Sivasagar - PCBA",15-02-2024 10:00:00,26.987634,94.636574,OZONE,NA,NA,NA
India,Bihar,Araria,"Kharahiya Basti, Araria - BSPCB",15-02-2024 10:00:00,26.146529,87.454184,NH3,7,9,8
India,Bihar,Arrah,"New DM Office, Arrah - BSPCB",15-02-2024 10:00:00,25.5626095,84.663264,PM2.5,73,304,137
India,Bihar,Arrah,"New DM Office, Arrah - BSPCB",15-02-2024 10:00:00,25.5626095,84.663264,SO2,10,23,18
India,Bihar,Aurangabad,"Gurdeo Nagar, Aurangabad - BSPCB",15-02-2024 10:00:00,24.75746,84.366208,PM10,NA,NA,NA
India,Bihar,Aurangabad,"Gurdeo Nagar, Aurangabad - BSPCB",15-02-2024 10:00:00,24.75746,84.366208,NO2,NA,NA,NA
India,Bihar,Bettiah,"Kamalnath Nagar, Bettiah - BSPCB",15-02-2024 10:00:00,26.80365,84.51954,PM10,28,113,60
India,Bihar,Bettiah,"Kamalnath Nagar, Bettiah - BSPCB",15-02-2024 10:00:00,26.80365,84.51954,NO2,11,19,16
India,Bihar,Bettiah,"Kamalnath Nagar, Bettiah - BSPCB",15-02-2024 10:00:00,26.80365,84.51954,CO,76,79,77
India,Bihar,Bettiah,"Kamalnath Nagar, Bettiah - BSPCB",15-02-2024 10:00:00,26.80365,84.51954,OZONE,NA,NA,NA
India,Bihar,Bhagalpur,"Mayaganj, Bhagalpur - BSPCB",15-02-2024 10:00:00,25.265194,87.012947,NH3,7,9,8
India,Bihar,Bihar Sharif,"D M Colony, Bihar Sharif - BSPCB",15-02-2024 10:00:00,25.204762,85.514960,NO2,9,10,9
India,Bihar,Bihar Sharif,"D M Colony, Bihar Sharif - BSPCB",15-02-2024 10:00:00,25.204762,85.514960,NH3,2,2,2
India,Bihar,Buxar,"Charitra Van, Buxar - BSPCB (Formerly known as Central Jail)",15-02-2024 10:00:00,25.567520,83.966379,SO2,15,17,16
India,Bihar,Buxar,"Charitra Van, Buxar - BSPCB (Formerly known as Central Jail)",15-02-2024 10:00:00,25.567520,83.966379,OZONE,4,64,14
India,Bihar,Chhapra,"Darshan Nagar, Chhapra - BSPCB",15-02-2024 10:00:00,25.7808257,84.7446768,PM10,80,214,158
India,Bihar,Chhapra,"Darshan Nagar, Chhapra - BSPCB",15-02-2024 10:00:00,25.7808257,84.7446768,CO,22,36,26
India,Bihar,Gaya,"Collectorate, Gaya - BSPCB",15-02-2024 10:00:00,24.7955,84.9994,CO,NA,NA,NA
India,Bihar,Gaya,"Collectorate, Gaya - BSPCB",15-02-2024 10:00:00,24.7955,84.9994,OZONE,NA,NA,NA
India,Bihar,Gaya,"Kareemganj, Gaya - BSPCB",15-02-2024 10:00:00,24.792403,84.992416,PM10,NA,NA,NA
India,Bihar,Gaya,"SFTI Kusdihra, Gaya - BSPCB",15-02-2024 10:00:00,24.762518,84.982348,PM2.5,17,60,35
India,Bihar,Hajipur,"Industrial Area, Hajipur - BSPCB",15-02-2024 10:00:00,25.697189,85.245900,PM10,56,144,116
India,Bihar,Hajipur,"Industrial Area, Hajipur - BSPCB",15-02-2024 10:00:00,25.697189,85.245900,NH3,12,15,14
India,Bihar,Katihar,"Mirchaibari, Katihar - BSPCB",15-02-2024 10:00:00,25.560083,87.553265,CO,20,20,20
India,Bihar,Kishanganj,"SDM Office_Khagra, Kishanganj - BSPCB",15-02-2024 10:00:00,26.0881305,87.93840336,NO2,37,45,40
India,Bihar,Manguraha,"Forest Rest House, Manguraha - BSPCB",15-02-2024 10:00:00,27.308328,84.531742,OZONE,30,53,38
India,Bihar,Muzaffarpur,"Buddha Colony, Muzaffarpur - BSPCB",15-02-2024 10:00:00,26.11442,85.39813,PM10,182,356,248
India,Bihar,Muzaffarpur,"Buddha Colony, Muzaffarpur - BSPCB",15-02-2024 10:00:00,26.11442,85.39813,OZONE,41,77,58
India,Bihar,Muzaffarpur,"MIT-Daudpur Kothi, Muzaffarpur - BSPCB",15-02-2024 10:00:00,26.1403345,85.3650192,SO2,10,12,10
India,Bihar,Muzaffarpur,"MIT-Daudpur Kothi, Muzaffarpur - BSPCB",15-02-2024 10:00:00,26.1403345,85.3650192,CO,16,106,42
India,Bihar,Muzaffarpur,"Muzaffarpur Collectorate, Muzaffarpur - BSPCB",15-02-2024 10:00:00,26.1209,85.3647,CO,11,33,24
India,Bihar,Muzaffarpur,"Muzaffarpur Collectorate, Muzaffarpur - BSPCB",15-02-2024 10:00:00,26.1209,85.3647,OZONE,6,19,6
India,Bihar,Patna,"DRM Office Danapur, Patna - BSPCB",15-02-2024 10:00:00,25.586562,85.043586,OZONE,1,20,9
India,Bihar,Patna,"Govt. High School Shikarpur, Patna - BSPCB",15-02-2024 10:00:00,25.592539,85.227158,PM2.5,57,305,156
India,Bihar,Patna,"IGSC Planetarium Complex, Patna - BSPCB",15-02-2024 10:00:00,25.610369,85.132568,PM2.5,NA,NA,NA
India,Bihar,Patna,"IGSC Planetarium Complex, Patna - BSPCB",15-02-2024 10:00:00,25.610369,85.132568,NO2,12,12,12
India,Bihar,Patna,"IGSC Planetarium Complex, Patna - BSPCB",15-02-2024 10:00:00,25.610369,85.132568,SO2,7,8,7
India,Bihar,Patna,"Rajbansi Nagar, Patna - BSPCB",15-02-2024 10:00:00,25.599486,85.113666,SO2,11,19,16
India,Bihar,Patna,"Samanpura, Patna - BSPCB",15-02-2024 10:00:00,25.596727,85.085624,PM10,159,343,221
India,Bihar,Patna,"Samanpura, Patna - BSPCB",15-02-2024 10:00:00,25.596727,85.085624,SO2,15,16,16
India,Bihar,Patna,"Samanpura, Patna - BSPCB",15-02-2024 10:00:00,25.596727,85.085624,OZONE,4,36,27
India,Bihar,Rajgir,"Dangi Tola, Rajgir - BSPCB",15-02-2024 10:00:00,25.03280,85.41948,PM2.5,NA,NA,NA
India,Bihar,Rajgir,"Dangi Tola, Rajgir - BSPCB",15-02-2024 10:00:00,25.03280,85.41948,CO,8,12,10
India,Bihar,Saharsa,"Police Line, Saharsa - BSPCB",15-02-2024 10:00:00,25.892357,86.590325,NH3,9,9,9
India,Bihar,Saharsa,"Police Line, Saharsa - BSPCB",15-02-2024 10:00:00,25.892357,86.590325,OZONE,9,51,13
India,Bihar,Siwan,"Chitragupta Nagar, Siwan - BSPCB",15-02-2024 10:00:00,26.2271665,84.3570427,SO2,2,35,29
India,Bihar,Siwan,"Chitragupta Nagar, Siwan - BSPCB",15-02-2024 10:00:00,26.2271665,84.3570427,CO,26,183,85
India,Chandigarh,Chandigarh,"Sector 22, Chandigarh - CPCC",15-02-2024 10:00:00,30.735567,76.775714,PM2.5,87,306,208
India,Chandigarh,Chandigarh,"Sector-25, Chandigarh - CPCC",15-02-2024 10:00:00,30.751462,76.762879,NO2,11,47,24
India,Chandigarh,Chandigarh,"Sector-25, Chandigarh - CPCC",15-02-2024 10:00:00,30.751462,76.762879,NH3,23,64,35
India,Chandigarh,Chandigarh,"Sector-25, Chandigarh - CPCC",15-02-2024 10:00:00,30.751462,76.762879,OZONE,1,38,1
India,Chandigarh,Chandigarh,"Sector-53, Chandigarh - CPCC",15-02-2024 10:00:00,30.719859,76.738637,PM2.5,92,326,252
India,Chandigarh,Chandigarh,"Sector-53, Chandigarh - CPCC",15-02-2024 10:00:00,30.719859,76.738637,CO,37,100,73
India,Chandigarh,Chandigarh,"Sector-53, Chandigarh - CPCC",15-02-2024 10:00:00,30.719859,76.738637,OZONE,3,66,7
India,Chhattisgarh,Bhilai,"32Bungalows, Bhilai - CECB",15-02-2024 10:00:00,21.194815,81.314770,PM10,28,68,52
India,Chhattisgarh,Bhilai,"Hathkhoj, Bhilai - CECB",15-02-2024 10:00:00,21.224231,81.408350,PM10,52,148,107
India,Chhattisgarh,Bilaspur,"Mangala, Bilaspur - NTPC",15-02-2024 10:00:00,22.08815,82.13737,PM2.5,20,69,43
India,Chhattisgarh,Korba,"Urja Nagar, Korba - CECB",15-02-2024 10:00:00,22.348441,82.549611,NH3,6,8,7
India,Chhattisgarh,Kunjemura,"OP Jindal School, Kunjemura - CECB",15-02-2024 10:00:00,22.126650,83.483212,CO,28,48,44
India,Chhattisgarh,Raipur,"AIIMS, Raipur - CECB",15-02-2024 10:00:00,21.258815,81.578979,NO2,47,55,49
India,Chhattisgarh,Raipur,"Krishak Nagar, Raipur - CECB",15-02-2024 10:00:00,21.237755,81.705301,CO,32,61,51
India,Chhattisgarh,Raipur,"Siltara Phase-II, Raipur - CECB",15-02-2024 10:00:00,21.371751,81.664929,NH3,2,3,3
India,Chhattisgarh,Raipur,"Siltara Phase-II, Raipur - CECB",15-02-2024 10:00:00,21.371751,81.664929,SO2,7,15,10
India,Chhattisgarh,Tumidih,"OP Jindal Industrial Park, Tumidih - CECB",15-02-2024 10:00:00,22.06631475,83.33820077,NH3,2,3,3
India,Chhattisgarh,Tumidih,"OP Jindal Industrial Park, Tumidih - CECB",15-02-2024 10:00:00,22.06631475,83.33820077,CO,20,64,34
India,Delhi,Delhi,"Alipur, Delhi - DPCC",15-02-2024 10:00:00,28.815329,77.153010,OZONE,6,166,16
India,Delhi,Delhi,"Anand Vihar, Delhi - DPCC",15-02-2024 10:00:00,28.647622,77.3158090,PM2.5,227,409,327
India,Delhi,Delhi,"Anand Vihar, Delhi - DPCC",15-02-2024 10:00:00,28.647622,77.3158090,NH3,6,26,11
India,Delhi,Delhi,"Anand Vihar, Delhi - DPCC",15-02-2024 10:00:00,28.647622,77.3158090,SO2,1,26,10
India,Delhi,Delhi,"Aya Nagar, Delhi - IMD",15-02-2024 10:00:00,28.4706914,77.1099364,PM10,NA,NA,NA
India,Delhi,Delhi,"Aya Nagar, Delhi - IMD",15-02-2024 10:00:00,28.4706914,77.1099364,CO,74,90,88
India,Delhi,Delhi,"Aya Nagar, Delhi - IMD",15-02-2024 10:00:00,28.4706914,77.1099364,OZONE,8,19,8
India,Delhi,Delhi,"Bawana, Delhi - DPCC",15-02-2024 10:00:00,28.776200,77.051074,NO2,18,101,46
India,Delhi,Delhi,"Bawana, Delhi - DPCC",15-02-2024 10:00:00,28.776200,77.051074,SO2,4,19,7
India,Delhi,Delhi,"Burari Crossing, Delhi - IMD",15-02-2024 10:00:00,28.7256504,77.2011573,NO2,2,6,4
India,Delhi,Delhi,"CRRI Mathura Road, Delhi - IMD",15-02-2024 10:00:00,28.5512005,77.2735737,NO2,41,59,51
India,Delhi,Delhi,"DTU, Delhi - CPCB",15-02-2024 10:00:00,28.7500499,77.1112615,PM2.5,83,303,164
India,Delhi,Delhi,"DTU, Delhi - CPCB",15-02-2024 10:00:00,28.7500499,77.1112615,NH3,12,17,14
India,Delhi,Delhi,"Dr. Karni Singh Shooting Range, Delhi - DPCC",15-02-2024 10:00:00,28.498571,77.264840,PM2.5,207,388,323
India,Delhi,Delhi,"Dr. Karni Singh Shooting Range, Delhi - DPCC",15-02-2024 10:00:00,28.498571,77.264840,NO2,44,140,95
India,Delhi,Delhi,"Dr. Karni Singh Shooting Range, Delhi - DPCC",15-02-2024 10:00:00,28.498571,77.264840,NH3,8,12,10
India,Delhi,Delhi,"Dr. Karni Singh Shooting Range, Delhi - DPCC",15-02-2024 10:00:00,28.498571,77.264840,CO,38,107,68
India,Delhi,Delhi,"IHBAS, Dilshad Garden, Delhi - CPCB",15-02-2024 10:00:00,28.6811736,77.3025234,PM2.5,102,306,224
India,Delhi,Delhi,"ITO, Delhi - CPCB",15-02-2024 10:00:00,28.628624,77.241060,OZONE,16,198,19
India,Delhi,Delhi,"Jahangirpuri, Delhi - DPCC",15-02-2024 10:00:00,28.732820,77.170633,PM10,164,470,303
India,Delhi,Delhi,"Jahangirpuri, Delhi - DPCC",15-02-2024 10:00:00,28.732820,77.170633,NH3,2,44,6
India,Delhi,Delhi,"Lodhi Road, Delhi - IITM",15-02-2024 10:00:00,28.588333,77.221667,PM2.5,63,318,164
India,Delhi,Delhi,"Lodhi Road, Delhi - IITM",15-02-2024 10:00:00,28.588333,77.221667,CO,46,70,68
India,Delhi,Delhi,"Lodhi Road, Delhi - IMD",15-02-2024 10:00:00,28.5918245,77.2273074,PM10,124,212,153
India,Delhi,Delhi,"Lodhi Road, Delhi - IMD",15-02-2024 10:00:00,28.5918245,77.2273074,OZONE,13,89,15
India,Delhi,Delhi,"Major Dhyan Chand National Stadium, Delhi - DPCC",15-02-2024 10:00:00,28.611281,77.237738,PM10,NA,NA,NA
India,Delhi,Delhi,"Major Dhyan Chand National Stadium, Delhi - DPCC",15-02-2024 10:00:00,28.611281,77.237738,NH3,NA,NA,NA
India,Delhi,Delhi,"Mandir Marg, Delhi - DPCC",15-02-2024 10:00:00,28.636429,77.201067,PM10,133,267,168
India,Delhi,Delhi,"Mandir Marg, Delhi - DPCC",15-02-2024 10:00:00,28.636429,77.201067,SO2,6,10,9
India,Delhi,Delhi,"Mundka, Delhi - DPCC",15-02-2024 10:00:00,28.684678,77.076574,OZONE,NA,NA,NA
India,Delhi,Delhi,"Najafgarh, Delhi - DPCC",15-02-2024 10:00:00,28.570173,76.933762,SO2,8,15,11
India,Delhi,Delhi,"Narela, Delhi - DPCC",15-02-2024 10:00:00,28.822836,77.101981,NO2,19,77,46
India,Delhi,Delhi,"Narela, Delhi - DPCC",15-02-2024 10:00:00,28.822836,77.101981,SO2,4,29,12
India,Delhi,Delhi,"Narela, Delhi - DPCC",15-02-2024 10:00:00,28.822836,77.101981,OZONE,11,202,36
India,Delhi,Delhi,"New Moti Bagh, Delhi - MHUA",15-02-2024 10:00:00,28.57834,77.18400,CO,26,110,59
India,Delhi,Delhi,"North Campus, DU, Delhi - IMD",15-02-2024 10:00:00,28.6573814,77.1585447,PM2.5,NA,NA,NA
India,Delhi,Delhi,"Okhla Phase-2, Delhi - DPCC",15-02-2024 10:00:00,28.530785,77.271255,NO2,54,167,113
India,Delhi,Delhi,"Patparganj, Delhi - DPCC",15-02-2024 10:00:00,28.623763,77.287209,PM10,167,409,267
India,Delhi,Delhi,"Patparganj, Delhi - DPCC",15-02-2024 10:00:00,28.623763,77.287209,NH3,7,15,10
India,Delhi,Delhi,"Punjabi Bagh, Delhi - DPCC",15-02-2024 10:00:00,28.674045,77.131023,PM2.5,213,427,331
India,Delhi,Delhi,"Punjabi Bagh, Delhi - DPCC",15-02-2024 10:00:00,28.674045,77.131023,SO2,4,45,27
India,Delhi,Delhi,"Punjabi Bagh, Delhi - DPCC",15-02-2024 10:00:00,28.674045,77.131023,OZONE,5,47,9
India,Delhi,Delhi,"Pusa, Delhi - DPCC",15-02-2024 10:00:00,28.639652,77.146275,PM10,180,435,276
India,Delhi,Delhi,"Pusa, Delhi - IMD",15-02-2024 10:00:00,28.636110,77.173332,NO2,NA,NA,NA
India,Delhi,Delhi,"R K Puram, Delhi - DPCC",15-02-2024 10:00:00,28.563262,77.186937,PM2.5,218,399,333
India,Delhi,Delhi,"R K Puram, Delhi - DPCC",15-02-2024 10:00:00,28.563262,77.186937,NO2,30,120,66
India,Delhi,Delhi,"Shadipur, Delhi - CPCB",15-02-2024 10:00:00,28.6514781,77.1473105,PM10,179,347,235
India,Delhi,Delhi,"Sirifort, Delhi - CPCB",15-02-2024 10:00:00,28.5504249,77.2159377,CO,25,102,75
India,Delhi,Delhi,"Sonia Vihar, Delhi - DPCC",15-02-2024 10:00:00,28.710508,77.249485,PM10,146,464,281
India,Delhi,Delhi,"Sonia Vihar, Delhi - DPCC",15-02-2024 10:00:00,28.710508,77.249485,CO,35,134,66
India,Delhi,Delhi,"Vivek Vihar, Delhi - DPCC",15-02-2024 10:00:00,28.672342,77.315260,NO2,40,121,77
India,Delhi,Delhi,"Vivek Vihar, Delhi - DPCC",15-02-2024 10:00:00,28.672342,77.315260,CO,16,110,45
India,Delhi,Delhi,"Wazirpur, Delhi - DPCC",15-02-2024 10:00:00,28.699793,77.165453,PM2.5,282,400,341
India,Delhi,Delhi,"Wazirpur, Delhi - DPCC",15-02-2024 10:00:00,28.699793,77.165453,SO2,9,86,33
India,Gujarat,Ahmedabad,"Gyaspur, Ahmedabad - IITM",15-02-2024 10:00:00,22.977134,72.553024,NO2,21,22,22
India,Gujarat,Ahmedabad,"Gyaspur, Ahmedabad - IITM",15-02-2024 10:00:00,22.977134,72.553024,OZONE,20,20,20
India,Gujarat,Ahmedabad,"Maninagar, Ahmedabad - GPCB",15-02-2024 10:00:00,23.002657,72.591912,CO,15,50,26
India,Gujarat,Ahmedabad,"Maninagar, Ahmedabad - GPCB",15-02-2024 10:00:00,23.002657,72.591912,OZONE,6,57,40
India,Gujarat,Ahmedabad,"Rakhial, Ahmedabad - IITM",15-02-2024 10:00:00,23.016834,72.625775,NO2,67,80,73
India,Gujarat,Ahmedabad,"Rakhial, Ahmedabad - IITM",15-02-2024 10:00:00,23.016834,72.625775,OZONE,3,62,25
India,Gujarat,Ahmedabad,"SAC ISRO Bopal, Ahmedabad - IITM",15-02-2024 10:00:00,23.041137,72.456691,PM10,91,413,148
India,Gujarat,Ahmedabad,"SAC ISRO Bopal, Ahmedabad - IITM",15-02-2024 10:00:00,23.041137,72.456691,NO2,12,22,14
India,Gujarat,Ahmedabad,"SAC ISRO Satellite, Ahmedabad - IITM",15-02-2024 10:00:00,23.023389,72.515201,PM10,86,120,90
India,Gujarat,Ahmedabad,"SAC ISRO Satellite, Ahmedabad - IITM",15-02-2024 10:00:00,23.023389,72.515201,OZONE,9,16,11
India,Gujarat,Ahmedabad,"SVPI Airport Hansol, Ahmedabad - IITM",15-02-2024 10:00:00,23.076793,72.627874,SO2,3,6,4
India,Gujarat,Ankleshwar,"GIDC, Ankleshwar - GPCB",15-02-2024 10:00:00,21.613267,73.010555,PM2.5,75,250,114
India,Gujarat,Ankleshwar,"GIDC, Ankleshwar - GPCB",15-02-2024 10:00:00,21.613267,73.010555,NO2,34,36,34
India,Gujarat,Ankleshwar,"GIDC, Ankleshwar - GPCB",15-02-2024 10:00:00,21.613267,73.010555,CO,13,97,85
India,Gujarat,Ankleshwar,"GIDC, Ankleshwar - GPCB",15-02-2024 10:00:00,21.613267,73.010555,OZONE,21,40,24
India,Gujarat,Gandhinagar,"GIFT City, Gandhinagar - IITM",15-02-2024 10:00:00,23.163798,72.677768,NH3,6,8,6
India,Gujarat,Gandhinagar,"Sector-10, Gandhinagar - GPCB",15-02-2024 10:00:00,23.221714,72.654328,PM2.5,31,55,43
India,Gujarat,Gandhinagar,"Sector-10, Gandhinagar - GPCB",15-02-2024 10:00:00,23.221714,72.654328,OZONE,9,47,24
India,Gujarat,Surat,"Science Center, Surat - SMC",15-02-2024 10:00:00,21.170046,72.795405,PM2.5,8,80,39
India,Gujarat,Surat,"Science Center, Surat - SMC",15-02-2024 10:00:00,21.170046,72.795405,PM10,29,106,57
India,Gujarat,Surat,"Science Center, Surat - SMC",15-02-2024 10:00:00,21.170046,72.795405,NO2,24,32,28
India,Haryana,Ambala,"Patti Mehar, Ambala - HSPCB",15-02-2024 10:00:00,30.379589,76.778328,OZONE,4,22,8
India,Haryana,Ballabgarh,"Nathu Colony, Ballabgarh - HSPCB",15-02-2024 10:00:00,28.3419248,77.319699,PM2.5,71,368,240
India,Haryana,Ballabgarh,"Nathu Colony, Ballabgarh - HSPCB",15-02-2024 10:00:00,28.3419248,77.319699,NO2,11,13,12
India,Haryana,Ballabgarh,"Nathu Colony, Ballabgarh - HSPCB",15-02-2024 10:00:00,28.3419248,77.319699,NH3,1,2,2
India,Haryana,Ballabgarh,"Nathu Colony, Ballabgarh - HSPCB",15-02-2024 10:00:00,28.3419248,77.319699,CO,50,112,76
India,Haryana,Bhiwani,"H.B. Colony, Bhiwani - HSPCB",15-02-2024 10:00:00,28.806223,76.141105,PM10,106,155,121
India,Haryana,Dharuhera,"Municipal Corporation Office, Dharuhera -  HSPCB",15-02-2024 10:00:00,28.206800,76.799700,CO,30,74,62
India,Haryana,Faridabad,"Sector 11, Faridabad - HSPCB",15-02-2024 10:00:00,28.376058,77.315741,NO2,30,33,31
India,Haryana,Faridabad,"Sector 30, Faridabad - HSPCB",15-02-2024 10:00:00,28.4417,77.3217,PM2.5,132,163,145
India,Haryana,Faridabad,"Sector 30, Faridabad - HSPCB",15-02-2024 10:00:00,28.4417,77.3217,NO2,29,33,31
India,Haryana,Faridabad,"Sector 30, Faridabad - HSPCB",15-02-2024 10:00:00,28.4417,77.3217,OZONE,8,57,9
India,Haryana,Faridabad,"Sector- 16A, Faridabad - HSPCB",15-02-2024 10:00:00,28.4088421,77.3099081,CO,11,78,39
India,Haryana,Fatehabad,"Huda Sector, Fatehabad - HSPCB",15-02-2024 10:00:00,29.503664,75.467934,PM2.5,57,311,150
India,Haryana,Fatehabad,"Huda Sector, Fatehabad - HSPCB",15-02-2024 10:00:00,29.503664,75.467934,SO2,2,25,8
India,Haryana,Gurugram,"Sector-51, Gurugram - HSPCB",15-02-2024 10:00:00,28.4227,77.0667,PM10,111,318,209
India,Haryana,Gurugram,"Sector-51, Gurugram - HSPCB",15-02-2024 10:00:00,28.4227,77.0667,NO2,13,29,23
India,Haryana,Gurugram,"Teri Gram, Gurugram - HSPCB",15-02-2024 10:00:00,28.4275,77.1465,PM10,NA,NA,NA
India,Haryana,Gurugram,"Vikas Sadan, Gurugram - HSPCB",15-02-2024 10:00:00,28.4501238,77.0263051,CO,54,140,102
India,Haryana,Hisar,"Urban Estate-II, Hisar - HSPCB",15-02-2024 10:00:00,29.140560,75.744941,PM10,103,150,121
India,Haryana,Jind,"Police Lines, Jind - HSPCB",15-02-2024 10:00:00,29.307814,76.337619,PM2.5,88,228,135
India,Haryana,Karnal,"Sector-12, Karnal - HSPCB",15-02-2024 10:00:00,29.695300,77.002700,OZONE,30,34,32
India,Haryana,Kurukshetra,"Sector-7, Kurukshetra - HSPCB",15-02-2024 10:00:00,29.966942,76.875879,PM2.5,86,209,122
India,Haryana,Kurukshetra,"Sector-7, Kurukshetra - HSPCB",15-02-2024 10:00:00,29.966942,76.875879,PM10,103,152,117
India,Haryana,Kurukshetra,"Sector-7, Kurukshetra - HSPCB",15-02-2024 10:00:00,29.966942,76.875879,NO2,10,10,10
India,Haryana,Mandikhera,"General Hospital, Mandikhera - HSPCB",15-02-2024 10:00:00,27.9002,76.9938,PM10,86,161,113
India,Haryana,Mandikhera,"General Hospital, Mandikhera - HSPCB",15-02-2024 10:00:00,27.9002,76.9938,CO,32,101,36
India,Haryana,Mandikhera,"General Hospital, Mandikhera - HSPCB",15-02-2024 10:00:00,27.9002,76.9938,OZONE,17,32,26
India,Haryana,Manesar,"Sector-2 IMT, Manesar - HSPCB",15-02-2024 10:00:00,28.360699,76.936090,PM2.5,97,270,149
India,Haryana,Manesar,"Sector-2 IMT, Manesar - HSPCB",15-02-2024 10:00:00,28.360699,76.936090,PM10,98,158,116
India,Haryana,Rohtak,"MD University, Rohtak - HSPCB",15-02-2024 10:00:00,28.52123,76.37138,CO,16,60,32
India,Haryana,Rohtak,"MD University, Rohtak - HSPCB",15-02-2024 10:00:00,28.52123,76.37138,OZONE,43,55,49
India,Haryana,Sirsa,"F-Block, Sirsa - HSPCB",15-02-2024 10:00:00,29.536400,75.015800,PM10,51,114,92
India,Haryana,Sirsa,"F-Block, Sirsa - HSPCB",15-02-2024 10:00:00,29.536400,75.015800,NH3,11,13,13
India,Haryana,Sirsa,"F-Block, Sirsa - HSPCB",15-02-2024 10:00:00,29.536400,75.015800,SO2,2,50,35
India,Haryana,Sirsa,"F-Block, Sirsa - HSPCB",15-02-2024 10:00:00,29.536400,75.015800,CO,57,86,83
India,Haryana,Sonipat,"Murthal, Sonipat - HSPCB",15-02-2024 10:00:00,29.027200,77.062100,PM2.5,122,235,172
India,Haryana,Sonipat,"Murthal, Sonipat - HSPCB",15-02-2024 10:00:00,29.027200,77.062100,NO2,37,44,40
India,Haryana,Yamuna Nagar,"Gobind Pura, Yamuna Nagar - HSPCB",15-02-2024 10:00:00,30.1480566,77.2893471,NO2,NA,NA,NA
India,Himachal Pradesh,Baddi,"HIMUDA Complex Phase-1, Baddi - HPPCB",15-02-2024 10:00:00,30.943887,76.801991,PM10,88,416,184
India,Himachal Pradesh,Baddi,"HIMUDA Complex Phase-1, Baddi - HPPCB",15-02-2024 10:00:00,30.943887,76.801991,CO,8,78,48
India,Jharkhand,Pathardih,"Mohalbani Ghat, Pathardih - DMC",15-02-2024 10:00:00,23.669880,86.411725,NO2,29,303,136
India,Karnataka,Bengaluru,"Bapuji Nagar, Bengaluru - KSPCB",15-02-2024 10:00:00,12.951913,77.539784,PM2.5,63,163,104
India,Karnataka,Bengaluru,"Bapuji Nagar, Bengaluru - KSPCB",15-02-2024 10:00:00,12.951913,77.539784,SO2,5,8,6
India,Karnataka,Bengaluru,"Bapuji Nagar, Bengaluru - KSPCB",15-02-2024 10:00:00,12.951913,77.539784,CO,30,48,42
India,Karnataka,Bengaluru,"City Railway Station, Bengaluru - KSPCB",15-02-2024 10:00:00,12.9756843,77.5660749,SO2,13,13,13
India,Karnataka,Bengaluru,"Hebbal, Bengaluru - KSPCB",15-02-2024 10:00:00,13.029152,77.585901,SO2,NA,NA,NA
India,Karnataka,Bengaluru,"Hombegowda Nagar, Bengaluru - KSPCB",15-02-2024 10:00:00,12.938539,77.590100,SO2,3,6,5
India,Karnataka,Bengaluru,"Jayanagar 5th Block, Bengaluru - KSPCB",15-02-2024 10:00:00,12.920984,77.584908,NO2,10,13,11
India,Karnataka,Bengaluru,"Jayanagar 5th Block, Bengaluru - KSPCB",15-02-2024 10:00:00,12.920984,77.584908,NH3,2,3,3
India,Karnataka,Bengaluru,"Jayanagar 5th Block, Bengaluru - KSPCB",15-02-2024 10:00:00,12.920984,77.584908,OZONE,18,19,18
India,Karnataka,Bengaluru,"Jigani, Bengaluru - KSPCB",15-02-2024 10:00:00,12.7816279,77.6299145,CO,51,72,59
India,Karnataka,Bengaluru,"Peenya, Bengaluru - CPCB",15-02-2024 10:00:00,13.0270199,77.494094,CO,29,46,37
India,Karnataka,Bengaluru,"Shivapura_Peenya, Bengaluru - KSPCB",15-02-2024 10:00:00,13.0246342,77.5080115,SO2,4,24,9
India,Karnataka,Bengaluru,"Shivapura_Peenya, Bengaluru - KSPCB",15-02-2024 10:00:00,13.0246342,77.5080115,CO,25,80,34
India,Karnataka,Chamarajanagar,"Urban, Chamarajanagar - KSPCB",15-02-2024 10:00:00,11.55358,76.55521,NH3,2,3,2
India,Karnataka,Chamarajanagar,"Urban, Chamarajanagar - KSPCB",15-02-2024 10:00:00,11.55358,76.55521,CO,19,26,19
India,Karnataka,Chikkamagaluru,"Kalyana Nagara, Chikkamagaluru - KSPCB",15-02-2024 10:00:00,13.328028,75.797056,PM2.5,21,55,36
India,Karnataka,Chikkamagaluru,"Kalyana Nagara, Chikkamagaluru - KSPCB",15-02-2024 10:00:00,13.328028,75.797056,NH3,3,6,5
India,Karnataka,Chikkamagaluru,"Kalyana Nagara, Chikkamagaluru - KSPCB",15-02-2024 10:00:00,13.328028,75.797056,OZONE,19,72,20
India,Karnataka,Davanagere,"Devaraj Urs Badavane, Davanagere - KSPCB",15-02-2024 10:00:00,14.475800,75.905200,CO,14,16,15
India,Karnataka,Dharwad,"Kalabhavan, Dharwad - KSPCB",15-02-2024 10:00:00,15.459706,75.008381,OZONE,2,40,7
India,Karnataka,Gadag,"Panchal Nagar, Gadag - KSPCB",15-02-2024 10:00:00,15.411456,75.638133,SO2,NA,NA,NA
India,Karnataka,Hassan,"B.Katihalli, Hassan - KSPCB",15-02-2024 10:00:00,13.008556,76.125258,PM2.5,12,83,50
India,Karnataka,Hassan,"B.Katihalli, Hassan - KSPCB",15-02-2024 10:00:00,13.008556,76.125258,NH3,1,2,2
India,Karnataka,Hubballi,"Lingaraj Nagar, Hubballi - KSPCB",15-02-2024 10:00:00,15.3714823,75.1160168,NH3,2,2,2
India,Karnataka,Hubballi,"Lingaraj Nagar, Hubballi - KSPCB",15-02-2024 10:00:00,15.3714823,75.1160168,CO,26,76,67
India,Karnataka,Kalaburagi,"Lal Bahadur Shastri Nagar, Kalaburagi - KSPCB",15-02-2024 10:00:00,17.321993,76.822628,NH3,1,2,2
India,Karnataka,Kalaburagi,"Mahatma Basaveswar Colony, Kalaburgi - KSPCB",15-02-2024 10:00:00,17.336318,76.847397,PM2.5,18,69,37
India,Karnataka,Kalaburagi,"Mahatma Basaveswar Colony, Kalaburgi - KSPCB",15-02-2024 10:00:00,17.336318,76.847397,CO,32,79,37
India,Karnataka,Karwar,"KHB Colony, Karwar - KSPCB",15-02-2024 10:00:00,14.816666,74.141003,PM10,53,160,86
India,Karnataka,Kolar,"Tamaka Ind. Area, Kolar - KSPCB",15-02-2024 10:00:00,13.1276288,78.1570122,NO2,4,15,8
India,Karnataka,Kolar,"Tamaka Ind. Area, Kolar - KSPCB",15-02-2024 10:00:00,13.1276288,78.1570122,OZONE,8,12,12
India,Karnataka,Koppal,"Diwator Nagar, Koppal - KSPCB",15-02-2024 10:00:00,15.347630,76.181767,NO2,3,23,13
India,Karnataka,Madikeri,"Stuart Hill, Madikeri - KSPCB",15-02-2024 10:00:00,12.415911,75.735050,PM2.5,19,55,39
India,Karnataka,Madikeri,"Stuart Hill, Madikeri - KSPCB",15-02-2024 10:00:00,12.415911,75.735050,CO,8,40,19
India,Karnataka,Mangalore,"Kadri, Mangalore - KSPCB",15-02-2024 10:00:00,12.889250,74.853000,SO2,15,51,21
India,Karnataka,Mangalore,"Kadri, Mangalore - KSPCB",15-02-2024 10:00:00,12.889250,74.853000,OZONE,31,34,32
India,Karnataka,Mysuru,"Hebbal 1st Stage, Mysuru - KSPCB",15-02-2024 10:00:00,12.21041,76.37376,PM2.5,24,40,33
India,Karnataka,Mysuru,"Hebbal 1st Stage, Mysuru - KSPCB",15-02-2024 10:00:00,12.21041,76.37376,NH3,1,3,2
India,Karnataka,Raichur,"Haji Colony, Raichur - KSPCB",15-02-2024 10:00:00,16.208139,77.348417,SO2,62,73,66
India,Karnataka,Ramanagara,"Vijay Nagar, Ramanagara - KSPCB",15-02-2024 10:00:00,12.733409,77.298051,PM2.5,30,145,61
India,Karnataka,Ramanagara,"Vijay Nagar, Ramanagara - KSPCB",15-02-2024 10:00:00,12.733409,77.298051,NO2,2,10,4
India,Karnataka,Ramanagara,"Vijay Nagar, Ramanagara - KSPCB",15-02-2024 10:00:00,12.733409,77.298051,NH3,1,1,1
India,Karnataka,Ramanagara,"Vijay Nagar, Ramanagara - KSPCB",15-02-2024 10:00:00,12.733409,77.298051,CO,3,27,20
India,Karnataka,Ramanagara,"Vijay Nagar, Ramanagara - KSPCB",15-02-2024 10:00:00,12.733409,77.298051,OZONE,27,30,29
India,Karnataka,Shivamogga,"Vinoba Nagara, Shivamogga - KSPCB",15-02-2024 10:00:00,13.940000,75.555917,CO,8,36,16
India,Karnataka,Tumakuru,"Thimmalapura, Tumakuru - KSPCB",15-02-2024 10:00:00,13.377516,77.099072,PM2.5,15,26,19
India,Karnataka,Tumakuru,"Thimmalapura, Tumakuru - KSPCB",15-02-2024 10:00:00,13.377516,77.099072,NH3,NA,NA,NA
India,Karnataka,Tumakuru,"Thimmalapura, Tumakuru - KSPCB",15-02-2024 10:00:00,13.377516,77.099072,OZONE,24,46,33
India,Karnataka,Udupi,"Brahmagiri, Udupi - KSPCB",15-02-2024 10:00:00,13.34194444,74.74694444,CO,43,50,46
India,Karnataka,Vijayapura,"Ibrahimpur, Vijayapura - KSPCB",15-02-2024 10:00:00,16.802639,75.722694,PM2.5,26,31,30
India,Karnataka,Vijayapura,"Ibrahimpur, Vijayapura - KSPCB",15-02-2024 10:00:00,16.802639,75.722694,PM10,38,40,39
India,Karnataka,Vijayapura,"Ibrahimpur, Vijayapura - KSPCB",15-02-2024 10:00:00,16.802639,75.722694,NO2,17,19,19
India,Karnataka,Vijayapura,"Ibrahimpur, Vijayapura - KSPCB",15-02-2024 10:00:00,16.802639,75.722694,NH3,2,2,2
India,Karnataka,Yadgir,"Collector Office, Yadgir - KSPCB",15-02-2024 10:00:00,16.7602,77.1428,NH3,1,1,1
India,Karnataka,Yadgir,"Collector Office, Yadgir - KSPCB",15-02-2024 10:00:00,16.7602,77.1428,OZONE,18,19,18
India,Kerala,Eloor,"Udyogamandal, Eloor - Kerala PCB",15-02-2024 10:00:00,10.073232,76.302765,NO2,4,4,4
India,Kerala,Eloor,"Udyogamandal, Eloor - Kerala PCB",15-02-2024 10:00:00,10.073232,76.302765,SO2,1,6,2
India,Kerala,Kannur,"Thavakkara, Kannur - Kerala PCB",15-02-2024 10:00:00,11.875000,75.373200,PM10,58,69,62
India,Kerala,Kollam,"Polayathode, Kollam - Kerala PCB",15-02-2024 10:00:00,8.8787,76.6073,PM2.5,60,89,77
India,Kerala,Thiruvananthapuram,"Kariavattom, Thiruvananthapuram - Kerala PCB",15-02-2024 10:00:00,8.563700,76.886500,PM2.5,70,84,78
India,Kerala,Thiruvananthapuram,"Kariavattom, Thiruvananthapuram - Kerala PCB",15-02-2024 10:00:00,8.563700,76.886500,NO2,8,10,9
India,Kerala,Thiruvananthapuram,"Kariavattom, Thiruvananthapuram - Kerala PCB",15-02-2024 10:00:00,8.563700,76.886500,CO,14,58,29
India,Kerala,Thiruvananthapuram,"Plammoodu, Thiruvananthapuram - Kerala PCB",15-02-2024 10:00:00,8.5149093,76.9435879,NO2,10,12,11
India,Kerala,Thiruvananthapuram,"Plammoodu, Thiruvananthapuram - Kerala PCB",15-02-2024 10:00:00,8.5149093,76.9435879,CO,19,28,22
India,Kerala,Thrissur,"Corporation Ground, Thrissur - Kerala PCB",15-02-2024 10:00:00,10.532400,76.215900,PM2.5,46,54,51
India,Kerala,Thrissur,"Corporation Ground, Thrissur - Kerala PCB",15-02-2024 10:00:00,10.532400,76.215900,SO2,4,25,14
India,Madhya Pradesh,Bhopal,"Paryavaran Parisar, Bhopal - MPPCB",15-02-2024 10:00:00,23.210494,77.425409,CO,22,72,33
India,Madhya Pradesh,Bhopal,"T T Nagar, Bhopal - MPPCB",15-02-2024 10:00:00,23.233584,77.400574,NO2,36,64,47
India,Madhya Pradesh,Bhopal,"T T Nagar, Bhopal - MPPCB",15-02-2024 10:00:00,23.233584,77.400574,SO2,15,44,32
India,Madhya Pradesh,Dewas,"Bhopal Chauraha, Dewas - MPPCB",15-02-2024 10:00:00,22.9682591,76.064118,SO2,11,56,40
India,Madhya Pradesh,Gwalior,"City Center, Gwalior - MPPCB",15-02-2024 10:00:00,26.203442,78.193251,NO2,26,98,49
India,Madhya Pradesh,Gwalior,"City Center, Gwalior - MPPCB",15-02-2024 10:00:00,26.203442,78.193251,SO2,11,36,24
India,Madhya Pradesh,Gwalior,"Deen Dayal Nagar, Gwalior - MPPCB",15-02-2024 10:00:00,26.259242,78.216432,PM2.5,184,372,314
India,Madhya Pradesh,Gwalior,"Deen Dayal Nagar, Gwalior - MPPCB",15-02-2024 10:00:00,26.259242,78.216432,OZONE,57,210,80
India,Madhya Pradesh,Gwalior,"Phool Bagh, Gwalior - Mondelez Ind. Food",15-02-2024 10:00:00,26.210536,78.171,CO,33,42,35
India,Madhya Pradesh,Indore,"Chhoti Gwaltoli, Indore - MPPCB",15-02-2024 10:00:00,22.4310,75.5213,NH3,3,6,4
India,Madhya Pradesh,Indore,"Maguda Nagar, Indore - IMC",15-02-2024 10:00:00,22.7524,75.8872,CO,24,29,25
India,Madhya Pradesh,Indore,"Maguda Nagar, Indore - IMC",15-02-2024 10:00:00,22.7524,75.8872,OZONE,37,42,39
India,Madhya Pradesh,Indore,"Regional Park, Indore - IMC",15-02-2024 10:00:00,22.6780,75.8559,NO2,9,14,11
India,Madhya Pradesh,Indore,"Residency Area, Indore - IMC",15-02-2024 10:00:00,22.7084,75.8815,SO2,22,24,23
India,Madhya Pradesh,Jabalpur,"Govindh Bhavan Colony, Jabalpur - JMC",15-02-2024 10:00:00,23.163174,79.973061,PM10,69,117,97
India,Madhya Pradesh,Jabalpur,"Marhatal, Jabalpur - MPPCB",15-02-2024 10:00:00,23.168606,79.932247,NH3,6,8,7
India,Madhya Pradesh,Jabalpur,"Marhatal, Jabalpur - MPPCB",15-02-2024 10:00:00,23.168606,79.932247,SO2,19,34,22
India,Madhya Pradesh,Jabalpur,"Marhatal, Jabalpur - MPPCB",15-02-2024 10:00:00,23.168606,79.932247,CO,37,92,43
India,Madhya Pradesh,Jabalpur,"Suhagi, Jabalpur - JMC",15-02-2024 10:00:00,23.218135,79.957770,SO2,10,10,10
India,Madhya Pradesh,Jabalpur,"Suhagi, Jabalpur - JMC",15-02-2024 10:00:00,23.218135,79.957770,OZONE,9,48,23
India,Madhya Pradesh,Maihar,"Sahilara, Maihar - KJS Cements",15-02-2024 10:00:00,24.2613009,80.7231783,CO,26,31,28
India,Madhya Pradesh,Pithampur,"Sector-2 Industrial Area, Pithampur - MPPCB",15-02-2024 10:00:00,22.624758,75.675238,PM2.5,92,256,191
India,Madhya Pradesh,Pithampur,"Sector-2 Industrial Area, Pithampur - MPPCB",15-02-2024 10:00:00,22.624758,75.675238,PM10,120,181,148
India,Madhya Pradesh,Singrauli,"Suryakiran Bhawan NCL, Singrauli - MPPCB",15-02-2024 10:00:00,24.108970,82.645580,NO2,19,97,40
India,Madhya Pradesh,Singrauli,"Suryakiran Bhawan NCL, Singrauli - MPPCB",15-02-2024 10:00:00,24.108970,82.645580,SO2,39,138,65
India,Madhya Pradesh,Singrauli,"Suryakiran Bhawan NCL, Singrauli - MPPCB",15-02-2024 10:00:00,24.108970,82.645580,CO,60,126,90
India,Madhya Pradesh,Singrauli,"Suryakiran Bhawan NCL, Singrauli - MPPCB",15-02-2024 10:00:00,24.108970,82.645580,OZONE,11,39,15
India,Maharashtra,Ahmednagar,"Tarakpur, Ahmednagar - MPCB",15-02-2024 10:00:00,19.10122,74.73339,NH3,2,3,3
India,Maharashtra,Ahmednagar,"Tarakpur, Ahmednagar - MPCB",15-02-2024 10:00:00,19.10122,74.73339,CO,8,129,18
India,Maharashtra,Ahmednagar,"Tarakpur, Ahmednagar - MPCB",15-02-2024 10:00:00,19.10122,74.73339,OZONE,9,242,47
India,Maharashtra,Akola,"Ramdaspeth, Akola - MPCB",15-02-2024 10:00:00,20.719516,77.000253,OZONE,9,84,21
India,Maharashtra,Aurangabad,"More Chowk Waluj, Aurangabad - MPCB",15-02-2024 10:00:00,19.8389439,75.244448,NO2,32,37,34
India,Maharashtra,Aurangabad,"Rachnakar Colony, Aurangabad - MPCB",15-02-2024 10:00:00,19.863756,75.321188,PM2.5,53,221,146
India,Maharashtra,Aurangabad,"Rachnakar Colony, Aurangabad - MPCB",15-02-2024 10:00:00,19.863756,75.321188,PM10,75,213,132
India,Maharashtra,Badlapur,"Katrap, Badlapur - MPCB",15-02-2024 10:00:00,19.16485,73.23409,NO2,18,84,45
India,Maharashtra,Badlapur,"Katrap, Badlapur - MPCB",15-02-2024 10:00:00,19.16485,73.23409,OZONE,2,113,24
India,Maharashtra,Bhiwandi,"Gokul Nagar, Bhiwandi - MPCB",15-02-2024 10:00:00,19.309073,73.057223,CO,16,103,65
India,Maharashtra,Chandrapur,"Chauhan Colony, Chandrapur - MPCB",15-02-2024 10:00:00,19.962900,79.298714,PM2.5,45,155,77
India,Maharashtra,Chandrapur,"Chauhan Colony, Chandrapur - MPCB",15-02-2024 10:00:00,19.962900,79.298714,PM10,49,102,71
India,Maharashtra,Chandrapur,"Chauhan Colony, Chandrapur - MPCB",15-02-2024 10:00:00,19.962900,79.298714,NO2,17,50,24
India,Maharashtra,Chandrapur,"MIDC Khutala, Chandrapur - MPCB",15-02-2024 10:00:00,19.9775302,79.2337086,OZONE,NA,NA,NA
India,Maharashtra,Dhule,"Deopur, Dhule - MPCB",15-02-2024 10:00:00,20.918946,74.776388,NO2,10,79,23
India,Maharashtra,Dhule,"Deopur, Dhule - MPCB",15-02-2024 10:00:00,20.918946,74.776388,OZONE,4,76,22
India,Maharashtra,Jalgaon,"Prabhat Colony, Jalgaon - MPCB",15-02-2024 10:00:00,21.001264,75.565602,NH3,1,2,1
India,Maharashtra,Jalna,"Old MIDC, Jalna - MPCB",15-02-2024 10:00:00,19.854616,75.905894,CO,27,52,39
India,Maharashtra,Kolhapur,"Shivaji University, Kolhapur - MPCB",15-02-2024 10:00:00,16.6870449,74.2505872,NO2,9,126,46
India,Maharashtra,Kolhapur,"Sinchan Bhavan, Kolhapur - MPCB",15-02-2024 10:00:00,16.7143745,74.2426398,PM2.5,75,318,187
India,Maharashtra,Kolhapur,"Sinchan Bhavan, Kolhapur - MPCB",15-02-2024 10:00:00,16.7143745,74.2426398,NO2,24,86,48
India,Maharashtra,Kolhapur,"Sinchan Bhavan, Kolhapur - MPCB",15-02-2024 10:00:00,16.7143745,74.2426398,SO2,1,13,5
India,Maharashtra,Kolhapur,"Sinchan Bhavan, Kolhapur - MPCB",15-02-2024 10:00:00,16.7143745,74.2426398,CO,24,72,40
India,Maharashtra,Latur,"Sawe Wadi, Latur - MPCB",15-02-2024 10:00:00,18.39963,76.57452,PM10,56,194,85
India,Maharashtra,Mahad,"Kamble Tarf Birwadi, Mahad - MPCB",15-02-2024 10:00:00,18.1023399,73.4783687,PM10,101,182,144
India,Maharashtra,Malegaon,"Mahesh Nagar, Malegaon - MPCB",15-02-2024 10:00:00,20.555712,74.529236,PM2.5,53,104,82
India,Maharashtra,Malegaon,"Mahesh Nagar, Malegaon - MPCB",15-02-2024 10:00:00,20.555712,74.529236,NH3,2,7,3
India,Maharashtra,Mira-Bhayandar,"Bhayandar West, Mira-Bhayandar - MPCB",15-02-2024 10:00:00,19.296481,72.840923,PM10,65,206,115
India,Maharashtra,Mumbai,"Borivali East, Mumbai - IITM",15-02-2024 10:00:00,19.23241,72.86895,PM2.5,80,242,122
India,Maharashtra,Mumbai,"Byculla, Mumbai - BMC",15-02-2024 10:00:00,18.9767,72.8380,PM2.5,69,156,92
India,Maharashtra,Mumbai,"Byculla, Mumbai - BMC",15-02-2024 10:00:00,18.9767,72.8380,OZONE,1,135,14
India,Maharashtra,Mumbai,"Chembur, Mumbai - MPCB",15-02-2024 10:00:00,19.0364585,72.8954371,PM2.5,87,130,102
India,Maharashtra,Mumbai,"Chhatrapati Shivaji Intl. Airport (T2), Mumbai - MPCB",15-02-2024 10:00:00,19.10078,72.87462,PM10,77,120,100
India,Maharashtra,Mumbai,"Chhatrapati Shivaji Intl. Airport (T2), Mumbai - MPCB",15-02-2024 10:00:00,19.10078,72.87462,SO2,21,28,23
India,Maharashtra,Mumbai,"Colaba, Mumbai - MPCB",15-02-2024 10:00:00,18.910000,72.820000,NO2,18,35,24
India,Maharashtra,Mumbai,"Colaba, Mumbai - MPCB",15-02-2024 10:00:00,18.910000,72.820000,NH3,1,1,1
India,Maharashtra,Mumbai,"Colaba, Mumbai - MPCB",15-02-2024 10:00:00,18.910000,72.820000,CO,12,21,19
India,Maharashtra,Mumbai,"Kandivali East, Mumbai - MPCB",15-02-2024 10:00:00,19.205800,72.868200,NH3,5,11,7
India,Maharashtra,Mumbai,"Kandivali East, Mumbai - MPCB",15-02-2024 10:00:00,19.205800,72.868200,CO,76,109,95
India,Maharashtra,Mumbai,"Kandivali West, Mumbai - BMC",15-02-2024 10:00:00,19.215859,72.831718,CO,16,34,26
India,Maharashtra,Mumbai,"Kherwadi_Bandra East, Mumbai - MPCB",15-02-2024 10:00:00,19.0632143,72.8456324,NO2,20,132,72
India,Maharashtra,Mumbai,"Kherwadi_Bandra East, Mumbai - MPCB",15-02-2024 10:00:00,19.0632143,72.8456324,OZONE,1,50,1
India,Maharashtra,Mumbai,"Khindipada-Bhandup West, Mumbai - IITM",15-02-2024 10:00:00,19.1653323,72.922099,NO2,NA,NA,NA
India,Maharashtra,Mumbai,"Khindipada-Bhandup West, Mumbai - IITM",15-02-2024 10:00:00,19.1653323,72.922099,SO2,1,4,3
India,Maharashtra,Mumbai,"Kurla, Mumbai - MPCB",15-02-2024 10:00:00,19.0863,72.8888,OZONE,32,56,43
India,Maharashtra,Mumbai,"Malad West, Mumbai - IITM",15-02-2024 10:00:00,19.19709,72.82204,OZONE,15,94,32
India,Maharashtra,Mumbai,"Mazgaon, Mumbai - IITM",15-02-2024 10:00:00,18.96702,72.84214,NO2,73,207,139
India,Maharashtra,Mumbai,"Mindspace-Malad West, Mumbai - MPCB",15-02-2024 10:00:00,19.1878657,72.8304069,PM2.5,35,178,105
India,Maharashtra,Mumbai,"Mindspace-Malad West, Mumbai - MPCB",15-02-2024 10:00:00,19.1878657,72.8304069,NH3,3,4,3
India,Maharashtra,Mumbai,"Mindspace-Malad West, Mumbai - MPCB",15-02-2024 10:00:00,19.1878657,72.8304069,SO2,7,21,12
India,Maharashtra,Mumbai,"Mulund West, Mumbai - MPCB",15-02-2024 10:00:00,19.1750,72.9419,PM2.5,23,84,53
India,Maharashtra,Mumbai,"Mulund West, Mumbai - MPCB",15-02-2024 10:00:00,19.1750,72.9419,CO,30,30,30
India,Maharashtra,Mumbai,"Powai, Mumbai - MPCB",15-02-2024 10:00:00,19.137500,72.915056,PM10,60,163,105
India,Maharashtra,Mumbai,"Shivaji Nagar, Mumbai - BMC",15-02-2024 10:00:00,19.060498,72.923356,OZONE,3,95,28
India,Maharashtra,Mumbai,"Siddharth Nagar-Worli, Mumbai - IITM",15-02-2024 10:00:00,19.000083,72.813993,PM10,NA,NA,NA
India,Maharashtra,Mumbai,"Siddharth Nagar-Worli, Mumbai - IITM",15-02-2024 10:00:00,19.000083,72.813993,CO,35,57,44
India,Maharashtra,Mumbai,"Sion, Mumbai - MPCB",15-02-2024 10:00:00,19.047000,72.874600,PM10,98,157,111
India,Maharashtra,Mumbai,"Sion, Mumbai - MPCB",15-02-2024 10:00:00,19.047000,72.874600,NO2,22,80,51
India,Maharashtra,Mumbai,"Sion, Mumbai - MPCB",15-02-2024 10:00:00,19.047000,72.874600,NH3,1,2,1
India,Maharashtra,Mumbai,"Sion, Mumbai - MPCB",15-02-2024 10:00:00,19.047000,72.874600,CO,16,59,50
India,Maharashtra,Mumbai,"Vasai West, Mumbai - MPCB",15-02-2024 10:00:00,19.383200,72.820400,NO2,26,28,27
India,Maharashtra,Mumbai,"Vasai West, Mumbai - MPCB",15-02-2024 10:00:00,19.383200,72.820400,SO2,16,16,16
India,Maharashtra,Mumbai,"Vile Parle West, Mumbai - MPCB",15-02-2024 10:00:00,19.10861,72.83622,OZONE,5,5,5
India,Maharashtra,Mumbai,"Worli, Mumbai - MPCB",15-02-2024 10:00:00,18.9936162,72.8128113,OZONE,6,11,9
India,Maharashtra,Nagpur,"Ambazari, Nagpur - MPCB",15-02-2024 10:00:00,21.121801,79.04952,PM2.5,77,187,133
India,Maharashtra,Nagpur,"Ambazari, Nagpur - MPCB",15-02-2024 10:00:00,21.121801,79.04952,NO2,13,177,63
India,Maharashtra,Nagpur,"Ambazari, Nagpur - MPCB",15-02-2024 10:00:00,21.121801,79.04952,NH3,1,12,3
India,Maharashtra,Nagpur,"Opp GPO Civil Lines, Nagpur - MPCB",15-02-2024 10:00:00,21.152875,79.0517531,SO2,2,30,13
India,Maharashtra,Nagpur,"Opp GPO Civil Lines, Nagpur - MPCB",15-02-2024 10:00:00,21.152875,79.0517531,OZONE,2,22,16
India,Maharashtra,Nanded,"Sneh Nagar, Nanded - MPCB",15-02-2024 10:00:00,19.173852,77.296291,SO2,14,20,16
India,Maharashtra,Nashik,"Hirawadi, Nashik - MPCB",15-02-2024 10:00:00,20.021503,73.813844,PM2.5,36,215,83
India,Maharashtra,Nashik,"Hirawadi, Nashik - MPCB",15-02-2024 10:00:00,20.021503,73.813844,PM10,48,158,83
India,Maharashtra,Nashik,"Hirawadi, Nashik - MPCB",15-02-2024 10:00:00,20.021503,73.813844,SO2,1,42,7
India,Maharashtra,Navi Mumbai,"Kopripada-Vashi, Navi Mumbai - MPCB",15-02-2024 10:00:00,19.090337,73.014232,CO,11,89,23
India,Maharashtra,Navi Mumbai,"Mahape, Navi Mumbai - MPCB",15-02-2024 10:00:00,19.1135051,73.008978,PM10,77,198,124
India,Maharashtra,Navi Mumbai,"Sanpada, Navi Mumbai - MPCB",15-02-2024 10:00:00,19.0575752,73.0151367,PM2.5,NA,NA,NA
India,Maharashtra,Navi Mumbai,"Sanpada, Navi Mumbai - MPCB",15-02-2024 10:00:00,19.0575752,73.0151367,CO,9,58,14
India,Maharashtra,Navi Mumbai,"Sector-2E Kalamboli, Navi Mumbai - MPCB",15-02-2024 10:00:00,19.02579,73.10297,PM10,54,174,106
India,Maharashtra,Navi Mumbai,"Tondare-Taloja, Navi Mumbai - MPCB",15-02-2024 10:00:00,19.0630,73.1209,OZONE,22,140,59
India,Maharashtra,Parbhani,"Masoom Colony, Parbhani - MPCB",15-02-2024 10:00:00,19.265594,76.761463,NH3,2,3,3
India,Maharashtra,Parbhani,"Masoom Colony, Parbhani - MPCB",15-02-2024 10:00:00,19.265594,76.761463,CO,18,98,45
India,Maharashtra,Pimpri-Chinchwad,"Gavalinagar, Pimpri Chinchwad - MPCB",15-02-2024 10:00:00,18.63673,73.82487,PM2.5,95,324,170
India,Maharashtra,Pune,"Bhosari, Pune - IITM",15-02-2024 10:00:00,18.640051,73.848956,PM10,75,205,132
India,Maharashtra,Pune,"Bhosari, Pune - IITM",15-02-2024 10:00:00,18.640051,73.848956,CO,22,76,56
India,Maharashtra,Pune,"Bhosari, Pune - IITM",15-02-2024 10:00:00,18.640051,73.848956,OZONE,3,12,3
India,Maharashtra,Pune,"Karve Road, Pune - MPCB",15-02-2024 10:00:00,18.5011743,73.8165527,PM10,2,257,128
India,Maharashtra,Pune,"Karve Road, Pune - MPCB",15-02-2024 10:00:00,18.5011743,73.8165527,CO,2,113,39
India,Maharashtra,Pune,"Katraj Dairy, Pune - MPCB",15-02-2024 10:00:00,18.454450,73.854155,NO2,39,71,51
India,Maharashtra,Pune,"Mhada Colony, Pune - IITM",15-02-2024 10:00:00,18.573040,73.927715,PM2.5,62,283,127
India,Maharashtra,Pune,"Mhada Colony, Pune - IITM",15-02-2024 10:00:00,18.573040,73.927715,PM10,85,162,121
India,Maharashtra,Pune,"Mhada Colony, Pune - IITM",15-02-2024 10:00:00,18.573040,73.927715,OZONE,12,33,12
India,Maharashtra,Pune,"Revenue Colony-Shivajinagar, Pune - IITM",15-02-2024 10:00:00,18.530085,73.849598,SO2,83,121,104
India,Maharashtra,Pune,"Revenue Colony-Shivajinagar, Pune - IITM",15-02-2024 10:00:00,18.530085,73.849598,OZONE,2,54,8
India,Maharashtra,Pune,"Savitribai Phule Pune University, Pune - MPCB",15-02-2024 10:00:00,18.547056,73.826908,NO2,30,176,108
India,Maharashtra,Pune,"Savitribai Phule Pune University, Pune - MPCB",15-02-2024 10:00:00,18.547056,73.826908,CO,24,125,79
India,Maharashtra,Pune,"Transport Nagar-Nigdi, Pune - IITM",15-02-2024 10:00:00,18.664282,73.763966,PM2.5,29,189,82
India,Maharashtra,Sangli,"Vijay Nagar, Sangli - MPCB",15-02-2024 10:00:00, 16.5038,74.3623,SO2,1,25,10
India,Maharashtra,Solapur,"Dnyaneshwar Nagar, Solapur - MPCB",15-02-2024 10:00:00,17.6336264,75.9132495,SO2,2,15,6
India,Maharashtra,Solapur,"Ratandeep Housing Society, Solapur - MPCB",15-02-2024 10:00:00,17.65439,75.90649,PM2.5,58,168,96
India,Maharashtra,Solapur,"Ratandeep Housing Society, Solapur - MPCB",15-02-2024 10:00:00,17.65439,75.90649,SO2,5,23,12
India,Maharashtra,Solapur,"Solapur, Solapur - MPCB",15-02-2024 10:00:00,17.6599188,75.9063906,PM2.5,53,92,80
India,Maharashtra,Solapur,"Solapur, Solapur - MPCB",15-02-2024 10:00:00,17.6599188,75.9063906,SO2,34,44,40
India,Maharashtra,Thane,"Pimpleshwar Mandir, Thane - MPCB",15-02-2024 10:00:00,19.192056,72.9585188,PM10,115,174,142
India,Maharashtra,Thane,"Pimpleshwar Mandir, Thane - MPCB",15-02-2024 10:00:00,19.192056,72.9585188,CO,44,116,90
India,Maharashtra,Thane,"Upvan Fort, Thane - MPCB",15-02-2024 10:00:00,19.222279,72.957979,NO2,18,84,43
India,Maharashtra,Thane,"Upvan Fort, Thane - MPCB",15-02-2024 10:00:00,19.222279,72.957979,SO2,11,55,30
India,Maharashtra,Ulhasnagar,"Sidhi Vinayak Nagar, Ulhasnagar - MPCB",15-02-2024 10:00:00,19.235581,73.159121,NH3,NA,NA,NA
India,Maharashtra,Virar,"Bolinj, Virar - MPCB",15-02-2024 10:00:00,19.4458210,72.7988231,OZONE,41,138,54
India,Manipur,Imphal,"DM College of Science, Imphal - Manipur PCB",15-02-2024 10:00:00,24.8207389,93.9423085,SO2,80,85,83
India,Manipur,Imphal,"DM College of Science, Imphal - Manipur PCB",15-02-2024 10:00:00,24.8207389,93.9423085,CO,6,6,6
India,Manipur,Imphal,"Manipur University, Imphal - Manipur PCB",15-02-2024 10:00:00,24.7524239,93.9286218,NO2,8,42,18
India,Manipur,Imphal,"Manipur University, Imphal - Manipur PCB",15-02-2024 10:00:00,24.7524239,93.9286218,CO,12,74,31
India,Meghalaya,Shillong,"Lumpyngngad, Shillong - Meghalaya PCB",15-02-2024 10:00:00,25.5586,91.8985,PM2.5,58,310,152
India,Meghalaya,Shillong,"Lumpyngngad, Shillong - Meghalaya PCB",15-02-2024 10:00:00,25.5586,91.8985,NO2,6,6,6
India,Meghalaya,Shillong,"Lumpyngngad, Shillong - Meghalaya PCB",15-02-2024 10:00:00,25.5586,91.8985,NH3,1,1,1
India,Meghalaya,Shillong,"Lumpyngngad, Shillong - Meghalaya PCB",15-02-2024 10:00:00,25.5586,91.8985,SO2,43,47,45
India,Meghalaya,Shillong,"Lumpyngngad, Shillong - Meghalaya PCB",15-02-2024 10:00:00,25.5586,91.8985,OZONE,46,84,60
India,Odisha,Angul,"Hakimapada, Angul - OSPCB",15-02-2024 10:00:00,20.832874,85.104082,PM2.5,75,352,173
India,Odisha,Angul,"Hakimapada, Angul - OSPCB",15-02-2024 10:00:00,20.832874,85.104082,NH3,1,3,2
India,Odisha,Balasore,"Kalidaspur, Balasore - OSPCB",15-02-2024 10:00:00,21.51161,86.89088,NO2,7,37,16
India,Odisha,Balasore,"Kalidaspur, Balasore - OSPCB",15-02-2024 10:00:00,21.51161,86.89088,NH3,5,10,7
India,Odisha,Barbil,"Forest Office, Barbil - OSPCB",15-02-2024 10:00:00,22.1166054,85.3945546,PM2.5,35,333,120
India,Odisha,Bhubaneswar,"Lingraj Mandir, Bhubaneswar - OSPCB",15-02-2024 10:00:00,20.240790,85.836784,PM2.5,83,167,134
India,Odisha,Bhubaneswar,"Lingraj Mandir, Bhubaneswar - OSPCB",15-02-2024 10:00:00,20.240790,85.836784,CO,18,64,56
India,Odisha,Bileipada,"Tata Township, Bileipada - OSPCB",15-02-2024 10:00:00,22.06156703,85.47409613,PM2.5,NA,NA,NA
India,Odisha,Bileipada,"Tata Township, Bileipada - OSPCB",15-02-2024 10:00:00,22.06156703,85.47409613,SO2,NA,NA,NA
India,Odisha,Bileipada,"Tata Township, Bileipada - OSPCB",15-02-2024 10:00:00,22.06156703,85.47409613,OZONE,1,3,1
India,Odisha,Brajrajnagar,"GM Office, Brajrajnagar - OSPCB",15-02-2024 10:00:00,21.8004996,83.8396977,NO2,16,21,19
India,Odisha,Brajrajnagar,"GM Office, Brajrajnagar - OSPCB",15-02-2024 10:00:00,21.8004996,83.8396977,SO2,14,14,14
India,Odisha,Byasanagar,"Ferro Chrome Colony, Byasanagar - OSPCB",15-02-2024 10:00:00,20.94185,86.11510,PM2.5,87,307,181
India,Odisha,Byasanagar,"Ferro Chrome Colony, Byasanagar - OSPCB",15-02-2024 10:00:00,20.94185,86.11510,NO2,13,26,17
India,Odisha,Byasanagar,"Ferro Chrome Colony, Byasanagar - OSPCB",15-02-2024 10:00:00,20.94185,86.11510,OZONE,50,306,80
India,Odisha,Cuttack,"CDA Area, Cuttack - OSPCB",15-02-2024 10:00:00,20.48891     ,85.84768     ,CO,40,60,43
India,Odisha,Cuttack,"CDA Area, Cuttack - OSPCB",15-02-2024 10:00:00,20.48891     ,85.84768     ,OZONE,49,132,66
India,Odisha,Nayagarh,"Dabuna, Nayagarh - OSPCB",15-02-2024 10:00:00,21.847279,85.416905,NO2,24,37,31
India,Odisha,Rairangpur,"Divisional Forest Office, Rairangpur - OSPCB",15-02-2024 10:00:00,22.265816,86.174829,PM2.5,72,208,131
India,Odisha,Rourkela,"Fertilizer Township, Rourkela - OSPCB",15-02-2024 10:00:00,22.18972222,84.86277778,PM2.5,78,247,118
India,Odisha,Rourkela,"Fertilizer Township, Rourkela - OSPCB",15-02-2024 10:00:00,22.18972222,84.86277778,SO2,12,13,12
India,Odisha,Rourkela,"Raghunathpali, Rourkela - OSPCB",15-02-2024 10:00:00,22.220833,84.809444,PM2.5,95,237,165
India,Odisha,Rourkela,"Raghunathpali, Rourkela - OSPCB",15-02-2024 10:00:00,22.220833,84.809444,CO,24,66,41
India,Odisha,Rourkela,"Sector-2, Rourkela - OSPCB",15-02-2024 10:00:00,22.24500000,84.88111111,PM2.5,81,222,144
India,Odisha,Suakati,"OMC Colony, Suakati - OSPCB",15-02-2024 10:00:00,21.606865,85.510538,PM10,74,169,107
India,Puducherry,Puducherry,"Jawahar Nagar, Puducherry - PPCC",15-02-2024 10:00:00,11.9309,79.8027,PM10,36,85,53
India,Puducherry,Puducherry,"Jawahar Nagar, Puducherry - PPCC",15-02-2024 10:00:00,11.9309,79.8027,SO2,3,7,6
India,Puducherry,Puducherry,"Jawahar Nagar, Puducherry - PPCC",15-02-2024 10:00:00,11.9309,79.8027,CO,20,43,31
India,Punjab,Amritsar,"Golden Temple, Amritsar - PPCB",15-02-2024 10:00:00,31.620000,74.876512,NO2,12,19,14
India,Punjab,Amritsar,"Golden Temple, Amritsar - PPCB",15-02-2024 10:00:00,31.620000,74.876512,CO,18,60,29
India,Punjab,Amritsar,"Golden Temple, Amritsar - PPCB",15-02-2024 10:00:00,31.620000,74.876512,OZONE,25,34,29
India,Punjab,Bathinda,"Hardev Nagar, Bathinda - PPCB",15-02-2024 10:00:00,30.233011,74.907758,PM10,NA,NA,NA
India,Punjab,Bathinda,"Hardev Nagar, Bathinda - PPCB",15-02-2024 10:00:00,30.233011,74.907758,NO2,31,33,32
India,Punjab,Jalandhar,"Civil Line, Jalandhar - PPCB",15-02-2024 10:00:00,31.321907,75.578914,NH3,2,2,2
India,Punjab,Khanna,"Kalal Majra, Khanna - PPCB",15-02-2024 10:00:00,30.736056 ,76.209694,OZONE,4,104,12
India,Punjab,Ludhiana,"Punjab Agricultural University, Ludhiana - PPCB",15-02-2024 10:00:00,30.9028,75.8086,PM2.5,68,214,127
India,Punjab,Ludhiana,"Punjab Agricultural University, Ludhiana - PPCB",15-02-2024 10:00:00,30.9028,75.8086,NH3,4,6,5
India,Punjab,Mandi Gobindgarh,"RIMT University, Mandi Gobindgarh - PPCB",15-02-2024 10:00:00,30.649961,76.331442,PM10,144,424,302
India,Punjab,Mandi Gobindgarh,"RIMT University, Mandi Gobindgarh - PPCB",15-02-2024 10:00:00,30.649961,76.331442,OZONE,29,33,33
India,Punjab,Patiala,"Model Town, Patiala - PPCB",15-02-2024 10:00:00,30.349388,76.366642,PM2.5,66,302,125
India,Punjab,Patiala,"Model Town, Patiala - PPCB",15-02-2024 10:00:00,30.349388,76.366642,CO,16,50,35
India,Rajasthan,Ajmer,"Civil Lines,  Ajmer - RSPCB",15-02-2024 10:00:00,26.470859,74.646594,SO2,10,20,15
India,Rajasthan,Alwar,"Moti Doongri, Alwar - RSPCB",15-02-2024 10:00:00,27.554793,76.611536,CO,10,106,69
India,Rajasthan,Bhiwadi,"RIICO Ind. Area III, Bhiwadi - RSPCB",15-02-2024 10:00:00,28.194909,76.862296,SO2,1,28,9
India,Rajasthan,Bhiwadi,"RIICO Ind. Area III, Bhiwadi - RSPCB",15-02-2024 10:00:00,28.194909,76.862296,OZONE,18,32,26
India,Rajasthan,Hanumangarh,"Housing Board, Hanumangarh - RSPCB",15-02-2024 10:00:00,29.610750,74.283608,NO2,27,140,64
India,Rajasthan,Jaipur,"Police Commissionerate, Jaipur - RSPCB",15-02-2024 10:00:00,26.9164092,75.7994901,NH3,12,14,13
India,Rajasthan,Jaipur,"Shastri Nagar, Jaipur - RSPCB",15-02-2024 10:00:00,26.9502929,75.730943,OZONE,20,200,84
India,Rajasthan,Jodhpur,"Collectorate, Jodhpur - RSPCB",15-02-2024 10:00:00,26.268249,73.0193853,PM2.5,49,171,99
India,Rajasthan,Pali,"Indira Colony Vistar, Pali - RSPCB",15-02-2024 10:00:00,25.771061, 73.340227,NO2,18,71,41
India,Rajasthan,Rajsamand,"Dhoinda, Rajsamand - RSPCB",15-02-2024 10:00:00,25.036360,73.883502,OZONE,NA,NA,NA
India,Rajasthan,Udaipur,"Ashok Nagar, Udaipur - RSPCB",15-02-2024 10:00:00,24.5886166,73.6321397,OZONE,6,79,20
India,Sikkim,Gangtok,"Zero Point GICI, Gangtok - SSPCB",15-02-2024 10:00:00,27.338530,88.614099,NO2,1,8,4
India,Sikkim,Gangtok,"Zero Point GICI, Gangtok - SSPCB",15-02-2024 10:00:00,27.338530,88.614099,NH3,1,1,1
India,TamilNadu,Chennai,"Alandur Bus Depot, Chennai - CPCB",15-02-2024 10:00:00,12.9099161,80.1076538,SO2,1,7,4
India,TamilNadu,Chennai,"Arumbakkam, Chennai - TNPCB",15-02-2024 10:00:00,13.0664,80.2112 ,PM2.5,37,158,69
India,TamilNadu,Chennai,"Arumbakkam, Chennai - TNPCB",15-02-2024 10:00:00,13.0664,80.2112 ,PM10,NA,NA,NA
India,TamilNadu,Chennai,"Arumbakkam, Chennai - TNPCB",15-02-2024 10:00:00,13.0664,80.2112 ,NO2,12,42,23
India,TamilNadu,Chennai,"Gandhi Nagar_Ennore, Chennai - TNPCB",15-02-2024 10:00:00,13.218341,80.32027,PM2.5,29,63,49
India,TamilNadu,Chennai,"Gandhi Nagar_Ennore, Chennai - TNPCB",15-02-2024 10:00:00,13.218341,80.32027,NH3,NA,NA,NA
India,TamilNadu,Chennai,"Gandhi Nagar_Ennore, Chennai - TNPCB",15-02-2024 10:00:00,13.218341,80.32027,OZONE,2,3,2
India,TamilNadu,Chennai,"Manali, Chennai - CPCB",15-02-2024 10:00:00,13.164544,80.26285,PM2.5,11,204,57
India,TamilNadu,Chennai,"Manali, Chennai - CPCB",15-02-2024 10:00:00,13.164544,80.26285,OZONE,10,24,14
India,TamilNadu,Chennai,"Perungudi, Chennai - TNPCB",15-02-2024 10:00:00,12.9533,80.2357,SO2,2,6,3
India,TamilNadu,Chennai,"Perungudi, Chennai - TNPCB",15-02-2024 10:00:00,12.9533,80.2357,OZONE,3,9,6
India,TamilNadu,Chennai,"Royapuram, Chennai - TNPCB",15-02-2024 10:00:00,13.1036,80.2909,CO,22,57,33
India,TamilNadu,Chennai,"Royapuram, Chennai - TNPCB",15-02-2024 10:00:00,13.1036,80.2909,OZONE,9,11,9
India,TamilNadu,Chennai,"Velachery Res. Area, Chennai - CPCB",15-02-2024 10:00:00,13.0052189,80.2398125,PM2.5,37,87,61
India,TamilNadu,Coimbatore,"PSG College of Arts and Science, Coimbatore - TNPCB",15-02-2024 10:00:00,11.0328,77.0349,SO2,15,22,17
India,TamilNadu,Cuddalore,"Semmandalam, Cuddalore - TNPCB",15-02-2024 10:00:00,11.7637683,79.7499835,NH3,NA,NA,NA
India,TamilNadu,Ooty,"Bombay Castel, Ooty - TNPCB",15-02-2024 10:00:00,11.4068288,76.7138973,PM10,NA,NA,NA
India,TamilNadu,Palkalaiperur,"Bharathidasan University, Palkalaiperur - TNPCB",15-02-2024 10:00:00,10.681158,78.741746,PM10,30,53,41
India,TamilNadu,Palkalaiperur,"Bharathidasan University, Palkalaiperur - TNPCB",15-02-2024 10:00:00,10.681158,78.741746,CO,2,10,4
India,TamilNadu,Ramanathapuram,"Chalai Bazaar, Ramanathapuram - TNPCB",15-02-2024 10:00:00,9.36399,78.831977,OZONE,13,14,13
India,TamilNadu,Virudhunagar,"Collectorate Office, Virudhunagar - TNPCB",15-02-2024 10:00:00,9.559382,77.948828,PM2.5,33,61,45
India,TamilNadu,Virudhunagar,"Collectorate Office, Virudhunagar - TNPCB",15-02-2024 10:00:00,9.559382,77.948828,NO2,17,42,27
India,TamilNadu,Virudhunagar,"Collectorate Office, Virudhunagar - TNPCB",15-02-2024 10:00:00,9.559382,77.948828,CO,17,28,23
India,Telangana,Hyderabad,"Bollaram Industrial Area, Hyderabad - TSPCB",15-02-2024 10:00:00,17.540891,78.358528,PM2.5,25,59,42
India,Telangana,Hyderabad,"Central University, Hyderabad - TSPCB",15-02-2024 10:00:00,17.460103,78.334361,PM2.5,13,28,20
India,Telangana,Hyderabad,"ECIL Kapra, Hyderabad - TSPCB",15-02-2024 10:00:00,17.470431,78.566959,NH3,7,7,7
India,Telangana,Hyderabad,"ECIL Kapra, Hyderabad - TSPCB",15-02-2024 10:00:00,17.470431,78.566959,SO2,4,20,10
India,Telangana,Hyderabad,"ECIL Kapra, Hyderabad - TSPCB",15-02-2024 10:00:00,17.470431,78.566959,OZONE,6,67,18
India,Telangana,Hyderabad,"ICRISAT Patancheru, Hyderabad - TSPCB",15-02-2024 10:00:00,17.518400,78.278777,PM10,22,155,48
India,Telangana,Hyderabad,"ICRISAT Patancheru, Hyderabad - TSPCB",15-02-2024 10:00:00,17.518400,78.278777,OZONE,35,122,44
India,Telangana,Hyderabad,"IITH Kandi, Hyderabad - TSPCB",15-02-2024 10:00:00,17.585705,78.126199,OZONE,37,132,131
India,Telangana,Hyderabad,"Kokapet, Hyderabad - TSPCB",15-02-2024 10:00:00,17.393559,78.339194,SO2,6,6,6
India,Telangana,Hyderabad,"Kompally Municipal Office, Hyderabad - TSPCB",15-02-2024 10:00:00,17.544899,78.486949,PM10,40,90,64
India,Telangana,Hyderabad,"Kompally Municipal Office, Hyderabad - TSPCB",15-02-2024 10:00:00,17.544899,78.486949,NH3,6,6,6
India,Telangana,Hyderabad,"New Malakpet, Hyderabad - TSPCB",15-02-2024 10:00:00,17.37206,78.50864,NO2,16,28,21
India,Telangana,Hyderabad,"New Malakpet, Hyderabad - TSPCB",15-02-2024 10:00:00,17.37206,78.50864,SO2,8,17,13
India,Telangana,Hyderabad,"Ramachandrapuram, Hyderabad - TSPCB",15-02-2024 10:00:00,17.528544,78.286195,NH3,3,3,3
India,Telangana,Hyderabad,"Ramachandrapuram, Hyderabad - TSPCB",15-02-2024 10:00:00,17.528544,78.286195,CO,8,34,12
India,Telangana,Hyderabad,"Ramachandrapuram, Hyderabad - TSPCB",15-02-2024 10:00:00,17.528544,78.286195,OZONE,7,56,17
India,Telangana,Hyderabad,"Sanathnagar, Hyderabad - TSPCB",15-02-2024 10:00:00,17.4559458,78.4332152,SO2,2,8,6
India,Telangana,Hyderabad,"Sanathnagar, Hyderabad - TSPCB",15-02-2024 10:00:00,17.4559458,78.4332152,CO,34,44,37
India,Telangana,Hyderabad,"Zoo Park, Hyderabad - TSPCB",15-02-2024 10:00:00,17.349694,78.451437,NO2,27,38,32
India,Telangana,Hyderabad,"Zoo Park, Hyderabad - TSPCB",15-02-2024 10:00:00,17.349694,78.451437,SO2,1,7,4
India,Uttar_Pradesh,Agra,"Manoharpur, Agra - UPPCB",15-02-2024 10:00:00,27.23711,78.01936,PM2.5,45,85,64
India,Uttar_Pradesh,Agra,"Manoharpur, Agra - UPPCB",15-02-2024 10:00:00,27.23711,78.01936,SO2,17,24,19
India,Uttar_Pradesh,Agra,"Rohta, Agra - UPPCB",15-02-2024 10:00:00,27.106972,78.000111,NO2,NA,NA,NA
India,Uttar_Pradesh,Agra,"Sanjay Palace, Agra - UPPCB",15-02-2024 10:00:00,27.19865833,78.00598056,SO2,2,13,8
India,Uttar_Pradesh,Agra,"Sector-3B Avas Vikas Colony, Agra - UPPCB",15-02-2024 10:00:00,27.19412,77.96237,PM2.5,52,98,69
India,Uttar_Pradesh,Bareilly,"Civil Lines, Bareilly - UPPCB",15-02-2024 10:00:00,28.359581,79.414455,PM2.5,30,114,66
India,Uttar_Pradesh,Bareilly,"Civil Lines, Bareilly - UPPCB",15-02-2024 10:00:00,28.359581,79.414455,PM10,47,133,92
India,Uttar_Pradesh,Bareilly,"Civil Lines, Bareilly - UPPCB",15-02-2024 10:00:00,28.359581,79.414455,NH3,1,1,1
India,Uttar_Pradesh,Bareilly,"Rajendra Nagar, Bareilly - UPPCB",15-02-2024 10:00:00,28.38910936,79.42963708,NH3,1,1,1
India,Uttar_Pradesh,Bulandshahr,"Yamunapuram, Bulandshahr - UPPCB",15-02-2024 10:00:00,28.406963,77.849831,SO2,27,48,37
India,Uttar_Pradesh,Firozabad,"Nagla Bhau, Firozabad - UPPCB",15-02-2024 10:00:00,27.168897,78.376960,SO2,11,15,13
India,Uttar_Pradesh,Firozabad,"Vibhab Nagar, Firozabad - UPPCB",15-02-2024 10:00:00,27.1594,78.3953,SO2,13,63,19
India,Uttar_Pradesh,Firozabad,"Vibhab Nagar, Firozabad - UPPCB",15-02-2024 10:00:00,27.1594,78.3953,CO,26,38,30
India,Uttar_Pradesh,Ghaziabad,"Indirapuram, Ghaziabad - UPPCB",15-02-2024 10:00:00,28.646233,77.358075,NH3,17,27,20
India,Uttar_Pradesh,Ghaziabad,"Indirapuram, Ghaziabad - UPPCB",15-02-2024 10:00:00,28.646233,77.358075,SO2,8,18,13
India,Uttar_Pradesh,Ghaziabad,"Loni, Ghaziabad - UPPCB",15-02-2024 10:00:00,28.757294,77.278792,NO2,14,62,37
India,Uttar_Pradesh,Ghaziabad,"Sanjay Nagar, Ghaziabad - UPPCB",15-02-2024 10:00:00,28.685382,77.453839,PM2.5,168,344,261
India,Uttar_Pradesh,Ghaziabad,"Sanjay Nagar, Ghaziabad - UPPCB",15-02-2024 10:00:00,28.685382,77.453839,SO2,19,104,31
India,Uttar_Pradesh,Ghaziabad,"Sanjay Nagar, Ghaziabad - UPPCB",15-02-2024 10:00:00,28.685382,77.453839,OZONE,6,142,35
India,Uttar_Pradesh,Ghaziabad,"Vasundhara, Ghaziabad - UPPCB",15-02-2024 10:00:00,28.6603346,77.3572563,PM2.5,108,319,220
India,Uttar_Pradesh,Ghaziabad,"Vasundhara, Ghaziabad - UPPCB",15-02-2024 10:00:00,28.6603346,77.3572563,PM10,115,192,150
India,Uttar_Pradesh,Ghaziabad,"Vasundhara, Ghaziabad - UPPCB",15-02-2024 10:00:00,28.6603346,77.3572563,SO2,8,40,18
India,Uttar_Pradesh,Ghaziabad,"Vasundhara, Ghaziabad - UPPCB",15-02-2024 10:00:00,28.6603346,77.3572563,CO,1,102,54
India,Uttar_Pradesh,Gorakhpur,"Madan Mohan Malaviya University of Technology, Gorakhpur - UPPCB",15-02-2024 10:00:00,26.730136,83.433859,SO2,40,42,41
India,Uttar_Pradesh,Greater Noida,"Knowledge Park - III, Greater Noida - UPPCB",15-02-2024 10:00:00,28.47272,77.482000,PM10,196,462,289
India,Uttar_Pradesh,Jhansi,"Shivaji Nagar, Jhansi - UPPCB",15-02-2024 10:00:00,25.4547,78.6039,SO2,11,12,11
India,Uttar_Pradesh,Kanpur,"FTI Kidwai Nagar, Kanpur - UPPCB",15-02-2024 10:00:00,26.428282,80.327067,NO2,16,18,16
India,Uttar_Pradesh,Kanpur,"NSI Kalyanpur, Kanpur - UPPCB",15-02-2024 10:00:00,26.509954,80.249612,PM2.5,97,302,195
India,Uttar_Pradesh,Khurja,"Kalindi Kunj, Khurja - UPPCB",15-02-2024 10:00:00,28.2348927,77.8683002,PM2.5,NA,NA,NA
India,Uttar_Pradesh,Khurja,"Kalindi Kunj, Khurja - UPPCB",15-02-2024 10:00:00,28.2348927,77.8683002,OZONE,19,33,24
India,Uttar_Pradesh,Lucknow,"B R Ambedkar University, Lucknow - UPPCB",15-02-2024 10:00:00,26.766433,80.927299,PM10,87,180,131
India,Uttar_Pradesh,Lucknow,"B R Ambedkar University, Lucknow - UPPCB",15-02-2024 10:00:00,26.766433,80.927299,NO2,11,12,12
India,Uttar_Pradesh,Lucknow,"Gomti Nagar, Lucknow - UPPCB",15-02-2024 10:00:00,26.868120,81.005119,PM2.5,30,97,60
India,Uttar_Pradesh,Lucknow,"Gomti Nagar, Lucknow - UPPCB",15-02-2024 10:00:00,26.868120,81.005119,SO2,4,23,12
India,Uttar_Pradesh,Lucknow,"Kendriya Vidyalaya, Lucknow - CPCB",15-02-2024 10:00:00,26.906111,80.948222,PM10,110,170,138
India,Uttar_Pradesh,Lucknow,"Kendriya Vidyalaya, Lucknow - CPCB",15-02-2024 10:00:00,26.906111,80.948222,NO2,27,128,67
India,Uttar_Pradesh,Lucknow,"Kendriya Vidyalaya, Lucknow - CPCB",15-02-2024 10:00:00,26.906111,80.948222,NH3,3,20,14
India,Uttar_Pradesh,Lucknow,"Kendriya Vidyalaya, Lucknow - CPCB",15-02-2024 10:00:00,26.906111,80.948222,SO2,5,11,7
India,Uttar_Pradesh,Lucknow,"Kukrail Picnic Spot-1, Lucknow - UPPCB",15-02-2024 10:00:00,26.90723,80.98579,PM2.5,93,217,160
India,Uttar_Pradesh,Lucknow,"Lalbagh, Lucknow - CPCB",15-02-2024 10:00:00,26.8458805,80.9365541,PM2.5,145,320,254
India,Uttar_Pradesh,Lucknow,"Lalbagh, Lucknow - CPCB",15-02-2024 10:00:00,26.8458805,80.9365541,SO2,1,37,11
India,Uttar_Pradesh,Lucknow,"Talkatora District Industries Center, Lucknow - CPCB",15-02-2024 10:00:00,26.83399722,80.8917361,PM10,152,315,205
India,Uttar_Pradesh,Lucknow,"Talkatora District Industries Center, Lucknow - CPCB",15-02-2024 10:00:00,26.83399722,80.8917361,NH3,2,9,6
India,Uttar_Pradesh,Meerut,"Ganga Nagar, Meerut - UPPCB",15-02-2024 10:00:00,28.999264,77.7590354,PM10,110,206,145
India,Uttar_Pradesh,Meerut,"Ganga Nagar, Meerut - UPPCB",15-02-2024 10:00:00,28.999264,77.7590354,NO2,30,98,57
India,Uttar_Pradesh,Meerut,"Ganga Nagar, Meerut - UPPCB",15-02-2024 10:00:00,28.999264,77.7590354,CO,10,40,25
India,Uttar_Pradesh,Meerut,"Pallavpuram Phase 2, Meerut - UPPCB",15-02-2024 10:00:00,29.063510,77.709723,NO2,32,101,54
India,Uttar_Pradesh,Meerut,"Pallavpuram Phase 2, Meerut - UPPCB",15-02-2024 10:00:00,29.063510,77.709723,NH3,10,14,11
India,Uttar_Pradesh,Moradabad,"Buddhi Vihar, Moradabad - UPPCB",15-02-2024 10:00:00,28.83526,78.74460,PM2.5,34,133,81
India,Uttar_Pradesh,Moradabad,"Buddhi Vihar, Moradabad - UPPCB",15-02-2024 10:00:00,28.83526,78.74460,CO,30,54,43
India,Uttar_Pradesh,Moradabad,"Employment Office, Moradabad - UPPCB",15-02-2024 10:00:00,28.88528,78.73880,PM2.5,48,166,96
India,Uttar_Pradesh,Moradabad,"Employment Office, Moradabad - UPPCB",15-02-2024 10:00:00,28.88528,78.73880,PM10,59,193,131
India,Uttar_Pradesh,Moradabad,"Employment Office, Moradabad - UPPCB",15-02-2024 10:00:00,28.88528,78.73880,CO,24,52,49
India,Uttar_Pradesh,Moradabad,"Kashiram Nagar, Moradabad - UPPCB",15-02-2024 10:00:00,28.849399,78.742362,NO2,13,50,31
India,Uttar_Pradesh,Moradabad,"Kashiram Nagar, Moradabad - UPPCB",15-02-2024 10:00:00,28.849399,78.742362,OZONE,15,37,16
India,Uttar_Pradesh,Moradabad,"Transport Nagar, Moradabad - UPPCB",15-02-2024 10:00:00,28.802625,78.753728,PM2.5,46,200,110
India,Uttar_Pradesh,Moradabad,"Transport Nagar, Moradabad - UPPCB",15-02-2024 10:00:00,28.802625,78.753728,NO2,19,48,35
India,Uttar_Pradesh,Noida,"Sector - 125, Noida - UPPCB",15-02-2024 10:00:00,28.5447608,77.3231257,SO2,3,47,15
India,Uttar_Pradesh,Noida,"Sector-116, Noida - UPPCB",15-02-2024 10:00:00,28.569230,77.393848,SO2,12,25,16
India,Uttar_Pradesh,Prayagraj,"Motilal Nehru NIT, Prayagraj - UPPCB",15-02-2024 10:00:00,25.494,81.863,CO,19,57,29
India,Uttar_Pradesh,Prayagraj,"Nagar Nigam, Prayagraj - UPPCB",15-02-2024 10:00:00,25.44919916 ,81.82735986 ,NO2,11,12,11
India,Uttar_Pradesh,Prayagraj,"Nagar Nigam, Prayagraj - UPPCB",15-02-2024 10:00:00,25.44919916 ,81.82735986 ,CO,14,44,21
India,Uttar_Pradesh,Prayagraj,"Nagar Nigam, Prayagraj - UPPCB",15-02-2024 10:00:00,25.44919916 ,81.82735986 ,OZONE,10,11,11
India,Uttar_Pradesh,Varanasi,"Bhelupur, Varanasi - UPPCB",15-02-2024 10:00:00,25.301778,82.996789,PM2.5,11,23,16
India,Uttar_Pradesh,Vrindavan,"Omex Eternity, Vrindavan - UPPCB",15-02-2024 10:00:00,27.5714090,77.6557570,PM2.5,28,91,57
India,Uttar_Pradesh,Vrindavan,"Omex Eternity, Vrindavan - UPPCB",15-02-2024 10:00:00,27.5714090,77.6557570,NO2,2,3,3
India,Uttar_Pradesh,Vrindavan,"Omex Eternity, Vrindavan - UPPCB",15-02-2024 10:00:00,27.5714090,77.6557570,SO2,37,44,39
India,Uttarakhand,Dehradun,"Doon University, Dehradun - UKPCB",15-02-2024 10:00:00,30.269444,78.044167,PM10,56,146,93
India,Uttarakhand,Kashipur,"Govt. Girls Inter College, Kashipur - UKPCB",15-02-2024 10:00:00,29.2124114,78.9611753,NH3,9,13,11
India,Uttarakhand,Kashipur,"Govt. Girls Inter College, Kashipur - UKPCB",15-02-2024 10:00:00,29.2124114,78.9611753,OZONE,3,46,8
India,Uttarakhand,Rishikesh,"Shivaji Nagar, Rishikesh - UKPCB",15-02-2024 10:00:00,30.075911,78.2859547,PM2.5,46,85,62
India,West_Bengal,Asansol,"Asansol Court Area, Asansol - WBPCB",15-02-2024 10:00:00,23.685297,86.945968,PM2.5,95,318,178
India,West_Bengal,Barrackpore,"SVSPA Campus, Barrackpore - WBPCB",15-02-2024 10:00:00,22.7605581,88.3617589,PM2.5,43,320,194
India,West_Bengal,Barrackpore,"SVSPA Campus, Barrackpore - WBPCB",15-02-2024 10:00:00,22.7605581,88.3617589,NH3,2,4,3
India,West_Bengal,Durgapur,"Sidhu Kanhu Indoor Stadium, Durgapur - WBPCB",15-02-2024 10:00:00,23.5404352,87.2892225,CO,36,62,48
India,West_Bengal,Haldia,"Priyambada Housing Estate, Haldia - WBPCB",15-02-2024 10:00:00,22.06047,88.109737,OZONE,13,47,18
India,West_Bengal,Howrah,"Belur Math, Howrah - WBPCB",15-02-2024 10:00:00,22.629801,88.352017,PM10,89,182,139
India,West_Bengal,Howrah,"Belur Math, Howrah - WBPCB",15-02-2024 10:00:00,22.629801,88.352017,SO2,13,16,14
India,West_Bengal,Howrah,"Ghusuri, Howrah - WBPCB",15-02-2024 10:00:00,22.611968,88.347422,NH3,7,13,9
India,West_Bengal,Howrah,"Ghusuri, Howrah - WBPCB",15-02-2024 10:00:00,22.611968,88.347422,SO2,4,6,5
India,West_Bengal,Howrah,"Padmapukur, Howrah - WBPCB",15-02-2024 10:00:00,22.5687319,88.2797276,NH3,10,44,24
India,West_Bengal,Kolkata,"Ballygunge, Kolkata - WBPCB",15-02-2024 10:00:00,22.5367507,88.3638022,PM2.5,86,306,200
India,West_Bengal,Kolkata,"Ballygunge, Kolkata - WBPCB",15-02-2024 10:00:00,22.5367507,88.3638022,CO,16,97,83
India,West_Bengal,Kolkata,"Bidhannagar, Kolkata - WBPCB",15-02-2024 10:00:00,22.58157048,88.41002457,OZONE,6,14,7
India,West_Bengal,Kolkata,"Jadavpur, Kolkata - WBPCB",15-02-2024 10:00:00,22.49929,88.36917,NH3,4,9,6
India,West_Bengal,Kolkata,"Jadavpur, Kolkata - WBPCB",15-02-2024 10:00:00,22.49929,88.36917,SO2,5,10,7
India,West_Bengal,Kolkata,"Jadavpur, Kolkata - WBPCB",15-02-2024 10:00:00,22.49929,88.36917,OZONE,6,67,11
India,West_Bengal,Kolkata,"Rabindra Bharati University, Kolkata - WBPCB",15-02-2024 10:00:00,22.627847,88.380669,PM2.5,44,206,119
India,West_Bengal,Kolkata,"Rabindra Bharati University, Kolkata - WBPCB",15-02-2024 10:00:00,22.627847,88.380669,PM10,71,267,127
India,West_Bengal,Kolkata,"Rabindra Bharati University, Kolkata - WBPCB",15-02-2024 10:00:00,22.627847,88.380669,NO2,22,23,23
India,West_Bengal,Kolkata,"Rabindra Bharati University, Kolkata - WBPCB",15-02-2024 10:00:00,22.627847,88.380669,OZONE,1,54,6
India,West_Bengal,Kolkata,"Victoria, Kolkata - WBPCB",15-02-2024 10:00:00,22.5448082,88.3403691,NH3,3,20,9
India,West_Bengal,Kolkata,"Victoria, Kolkata - WBPCB",15-02-2024 10:00:00,22.5448082,88.3403691,OZONE,5,127,10
India,West_Bengal,Siliguri,"Ward-32 Bapupara, Siliguri - WBPCB",15-02-2024 10:00:00,26.6879226,88.4152495,NH3,4,26,16
India,Andhra_Pradesh,Amaravati,"Secretariat, Amaravati - APPCB",15-02-2024 10:00:00,16.5150833,80.5181667,PM2.5,30,82,59
India,Andhra_Pradesh,Amaravati,"Secretariat, Amaravati - APPCB",15-02-2024 10:00:00,16.5150833,80.5181667,PM10,46,115,72
India,Andhra_Pradesh,Amaravati,"Secretariat, Amaravati - APPCB",15-02-2024 10:00:00,16.5150833,80.5181667,OZONE,3,50,9
India,Andhra_Pradesh,Anantapur,"Gulzarpet, Anantapur - APPCB",15-02-2024 10:00:00,14.675886,77.593027,PM10,28,95,60
India,Andhra_Pradesh,Chittoor,"Gangineni Cheruvu, Chittoor - APPCB",15-02-2024 10:00:00,13.204880,79.097889,NO2,4,23,13
India,Andhra_Pradesh,Kadapa,"Yerramukkapalli, Kadapa - APPCB",15-02-2024 10:00:00,14.465052,78.824187,CO,14,57,15
India,Andhra_Pradesh,Rajamahendravaram,"Anand Kala Kshetram, Rajamahendravaram - APPCB",15-02-2024 10:00:00,16.9872867,81.7363176,PM10,64,139,93
India,Andhra_Pradesh,Rajamahendravaram,"Anand Kala Kshetram, Rajamahendravaram - APPCB",15-02-2024 10:00:00,16.9872867,81.7363176,SO2,11,12,12
India,Andhra_Pradesh,Tirupati,"Tirumala, Tirupati - APPCB",15-02-2024 10:00:00,13.67,79.35,PM10,37,89,57
India,Andhra_Pradesh,Tirupati,"Vaikuntapuram, Tirupati - APPCB",15-02-2024 10:00:00,13.615387,79.409230,NO2,NA,NA,NA
India,Andhra_Pradesh,Tirupati,"Vaikuntapuram, Tirupati - APPCB",15-02-2024 10:00:00,13.615387,79.409230,SO2,NA,NA,NA
India,Andhra_Pradesh,Vijayawada,"HB Colony, Vijayawada - APPCB",15-02-2024 10:00:00,16.536107,80.594233,SO2,4,6,5
India,Andhra_Pradesh,Vijayawada,"Rajiv Gandhi Park, Vijayawada - APPCB",15-02-2024 10:00:00,16.509717,80.612222,NO2,2,88,26
India,Andhra_Pradesh,Visakhapatnam,"GVM Corporation, Visakhapatnam - APPCB",15-02-2024 10:00:00,17.72,83.3,NH3,2,15,6
India,Assam,Byrnihat,"Central Academy for SFS, Byrnihat - PCBA",15-02-2024 10:00:00,26.071318,91.87488,CO,9,137,99
India,Assam,Guwahati,"IITG, Guwahati - PCBA",15-02-2024 10:00:00,26.2028636,91.70046436,PM10,97,240,156
India,Assam,Guwahati,"LGBI Airport, Guwahati - PCBA",15-02-2024 10:00:00,26.10887,91.589544,SO2,12,13,12
India,Assam,Guwahati,"Pan Bazaar, Guwahati - PCBA",15-02-2024 10:00:00,26.187500,91.744194,PM2.5,103,337,225
India,Assam,Guwahati,"Pan Bazaar, Guwahati - PCBA",15-02-2024 10:00:00,26.187500,91.744194,PM10,104,359,193
India,Assam,Guwahati,"Railway Colony, Guwahati - PCBA",15-02-2024 10:00:00,26.181742,91.78063,PM10,96,426,227
India,Assam,Guwahati,"Railway Colony, Guwahati - PCBA",15-02-2024 10:00:00,26.181742,91.78063,CO,32,112,67
India,Assam,Nagaon,"Christianpatty, Nagaon - PCBA",15-02-2024 10:00:00,26.349082,92.68449,NO2,15,29,21
India,Assam,Nagaon,"Christianpatty, Nagaon - PCBA",15-02-2024 10:00:00,26.349082,92.68449,CO,2,117,4
India,Assam,Nalbari,"Bata Chowk, Nalbari - PCBA",15-02-2024 10:00:00,26.446912,91.439057,NO2,17,48,30
India,Assam,Sivasagar,"Girls College, Sivasagar - PCBA",15-02-2024 10:00:00,26.987634,94.636574,PM2.5,21,41,30
India,Assam,Sivasagar,"Girls College, Sivasagar - PCBA",15-02-2024 10:00:00,26.987634,94.636574,CO,13,44,32
India,Bihar,Araria,"Kharahiya Basti, Araria - BSPCB",15-02-2024 10:00:00,26.146529,87.454184,NO2,6,10,7
India,Bihar,Araria,"Kharahiya Basti, Araria - BSPCB",15-02-2024 10:00:00,26.146529,87.454184,CO,22,30,30
India,Bihar,Araria,"Kharahiya Basti, Araria - BSPCB",15-02-2024 10:00:00,26.146529,87.454184,OZONE,1,10,10
India,Bihar,Bhagalpur,"DM Office_Kachari Chowk, Bhagalpur - BSPCB",15-02-2024 10:00:00,25.251013,86.989001,NH3,4,9,6
India,Bihar,Bhagalpur,"DM Office_Kachari Chowk, Bhagalpur - BSPCB",15-02-2024 10:00:00,25.251013,86.989001,CO,24,90,31
India,Bihar,Bihar Sharif,"D M Colony, Bihar Sharif - BSPCB",15-02-2024 10:00:00,25.204762,85.514960,CO,6,66,30
India,Bihar,Buxar,"Charitra Van, Buxar - BSPCB (Formerly known as Central Jail)",15-02-2024 10:00:00,25.567520,83.966379,PM10,52,166,115
India,Bihar,Buxar,"Charitra Van, Buxar - BSPCB (Formerly known as Central Jail)",15-02-2024 10:00:00,25.567520,83.966379,NO2,1,106,26
India,Bihar,Chhapra,"Darshan Nagar, Chhapra - BSPCB",15-02-2024 10:00:00,25.7808257,84.7446768,PM2.5,82,332,261
India,Bihar,Chhapra,"Darshan Nagar, Chhapra - BSPCB",15-02-2024 10:00:00,25.7808257,84.7446768,OZONE,1,5,3
India,Bihar,Gaya,"Collectorate, Gaya - BSPCB",15-02-2024 10:00:00,24.7955,84.9994,PM2.5,NA,NA,NA
India,Bihar,Gaya,"Collectorate, Gaya - BSPCB",15-02-2024 10:00:00,24.7955,84.9994,NO2,NA,NA,NA
India,Bihar,Gaya,"Kareemganj, Gaya - BSPCB",15-02-2024 10:00:00,24.792403,84.992416,PM2.5,NA,NA,NA
India,Bihar,Gaya,"SFTI Kusdihra, Gaya - BSPCB",15-02-2024 10:00:00,24.762518,84.982348,PM10,40,66,51
India,Bihar,Hajipur,"Industrial Area, Hajipur - BSPCB",15-02-2024 10:00:00,25.697189,85.245900,SO2,7,9,8
India,Bihar,Hajipur,"Industrial Area, Hajipur - BSPCB",15-02-2024 10:00:00,25.697189,85.245900,OZONE,2,10,5
India,Bihar,Katihar,"Mirchaibari, Katihar - BSPCB",15-02-2024 10:00:00,25.560083,87.553265,NO2,8,21,13
India,Bihar,Kishanganj,"SDM Office_Khagra, Kishanganj - BSPCB",15-02-2024 10:00:00,26.0881305,87.93840336,PM10,171,430,279
India,Bihar,Kishanganj,"SDM Office_Khagra, Kishanganj - BSPCB",15-02-2024 10:00:00,26.0881305,87.93840336,SO2,14,47,28
India,Bihar,Kishanganj,"SDM Office_Khagra, Kishanganj - BSPCB",15-02-2024 10:00:00,26.0881305,87.93840336,CO,4,17,6
India,Bihar,Manguraha,"Forest Rest House, Manguraha - BSPCB",15-02-2024 10:00:00,27.308328,84.531742,NH3,2,2,2
India,Bihar,Motihari,"Gandak Colony, Motihari - BSPCB",15-02-2024 10:00:00,26.63086,84.90051,NH3,6,11,8
India,Bihar,Motihari,"Gandak Colony, Motihari - BSPCB",15-02-2024 10:00:00,26.63086,84.90051,CO,55,82,66
India,Bihar,Motihari,"Gandak Colony, Motihari - BSPCB",15-02-2024 10:00:00,26.63086,84.90051,OZONE,5,66,38
India,Bihar,Munger,"Town Hall, Munger - BSPCB",15-02-2024 10:00:00,25.376776,86.471523,SO2,26,40,33
India,Bihar,Muzaffarpur,"MIT-Daudpur Kothi, Muzaffarpur - BSPCB",15-02-2024 10:00:00,26.1403345,85.3650192,PM10,87,200,132
India,Bihar,Muzaffarpur,"MIT-Daudpur Kothi, Muzaffarpur - BSPCB",15-02-2024 10:00:00,26.1403345,85.3650192,OZONE,5,22,6
India,Bihar,Patna,"DRM Office Danapur, Patna - BSPCB",15-02-2024 10:00:00,25.586562,85.043586,CO,46,133,56
India,Bihar,Patna,"Govt. High School Shikarpur, Patna - BSPCB",15-02-2024 10:00:00,25.592539,85.227158,NO2,25,37,29
India,Bihar,Patna,"Govt. High School Shikarpur, Patna - BSPCB",15-02-2024 10:00:00,25.592539,85.227158,SO2,2,6,5
India,Bihar,Patna,"Govt. High School Shikarpur, Patna - BSPCB",15-02-2024 10:00:00,25.592539,85.227158,OZONE,8,55,24
India,Bihar,Patna,"Muradpur, Patna - BSPCB",15-02-2024 10:00:00,25.619651,85.147382,PM2.5,67,243,137
India,Bihar,Patna,"Muradpur, Patna - BSPCB",15-02-2024 10:00:00,25.619651,85.147382,PM10,130,251,177
India,Bihar,Patna,"Muradpur, Patna - BSPCB",15-02-2024 10:00:00,25.619651,85.147382,NO2,10,17,13
India,Bihar,Patna,"Muradpur, Patna - BSPCB",15-02-2024 10:00:00,25.619651,85.147382,OZONE,18,58,42
India,Bihar,Patna,"Rajbansi Nagar, Patna - BSPCB",15-02-2024 10:00:00,25.599486,85.113666,PM2.5,80,227,153
India,Bihar,Patna,"Rajbansi Nagar, Patna - BSPCB",15-02-2024 10:00:00,25.599486,85.113666,CO,12,101,29
India,Bihar,Patna,"Rajbansi Nagar, Patna - BSPCB",15-02-2024 10:00:00,25.599486,85.113666,OZONE,1,27,6
India,Bihar,Patna,"Samanpura, Patna - BSPCB",15-02-2024 10:00:00,25.596727,85.085624,PM2.5,104,343,253
India,Bihar,Patna,"Samanpura, Patna - BSPCB",15-02-2024 10:00:00,25.596727,85.085624,NO2,26,63,34
India,Bihar,Patna,"Samanpura, Patna - BSPCB",15-02-2024 10:00:00,25.596727,85.085624,NH3,3,9,4
India,Bihar,Purnia,"Mariam Nagar, Purnia - BSPCB",15-02-2024 10:00:00,25.366336,87.117468,NO2,12,14,13
India,Bihar,Purnia,"Mariam Nagar, Purnia - BSPCB",15-02-2024 10:00:00,25.366336,87.117468,NH3,1,1,1
India,Bihar,Purnia,"Mariam Nagar, Purnia - BSPCB",15-02-2024 10:00:00,25.366336,87.117468,OZONE,9,26,10
India,Bihar,Rajgir,"Dangi Tola, Rajgir - BSPCB",15-02-2024 10:00:00,25.03280,85.41948,SO2,3,5,4
India,Bihar,Saharsa,"Police Line, Saharsa - BSPCB",15-02-2024 10:00:00,25.892357,86.590325,NO2,6,9,7
India,Bihar,Saharsa,"Police Line, Saharsa - BSPCB",15-02-2024 10:00:00,25.892357,86.590325,SO2,NA,NA,NA
India,Bihar,Samastipur,"DM Office_Kasipur, Samastipur - BSPCB",15-02-2024 10:00:00,25.859655,85.77944,PM2.5,NA,NA,NA
India,Bihar,Samastipur,"DM Office_Kasipur, Samastipur - BSPCB",15-02-2024 10:00:00,25.859655,85.77944,NH3,3,10,5
India,Bihar,Sasaram,"Dada Peer, Sasaram - BSPCB",15-02-2024 10:00:00,24.952822,84.002396,PM10,57,127,80
India,Bihar,Sasaram,"Dada Peer, Sasaram - BSPCB",15-02-2024 10:00:00,24.952822,84.002396,NO2,1,9,6
India,Bihar,Sasaram,"Dada Peer, Sasaram - BSPCB",15-02-2024 10:00:00,24.952822,84.002396,OZONE,3,5,4
India,Bihar,Siwan,"Chitragupta Nagar, Siwan - BSPCB",15-02-2024 10:00:00,26.2271665,84.3570427,NH3,1,6,3
India,Chandigarh,Chandigarh,"Sector-25, Chandigarh - CPCC",15-02-2024 10:00:00,30.751462,76.762879,PM10,126,160,138
India,Chhattisgarh,Bhilai,"32Bungalows, Bhilai - CECB",15-02-2024 10:00:00,21.194815,81.314770,NH3,6,6,6
India,Chhattisgarh,Bhilai,"32Bungalows, Bhilai - CECB",15-02-2024 10:00:00,21.194815,81.314770,SO2,3,7,5
India,Chhattisgarh,Bhilai,"Civic Center, Bhilai - Bhilai Steel Plant",15-02-2024 10:00:00,21.185571,81.343175,NH3,NA,NA,NA
India,Chhattisgarh,Bhilai,"Civic Center, Bhilai - Bhilai Steel Plant",15-02-2024 10:00:00,21.185571,81.343175,CO,23,44,35
India,Chhattisgarh,Chhal,"Nawapara SECL Colony, Chhal - CECB",15-02-2024 10:00:00,22.118125,83.140608,NO2,14,80,28
India,Chhattisgarh,Chhal,"Nawapara SECL Colony, Chhal - CECB",15-02-2024 10:00:00,22.118125,83.140608,SO2,9,22,15
India,Chhattisgarh,Korba,"Rampur, Korba - CECB",15-02-2024 10:00:00,22.368195,82.746431,PM10,24,66,40
India,Chhattisgarh,Korba,"Urja Nagar, Korba - CECB",15-02-2024 10:00:00,22.348441,82.549611,PM10,16,76,39
India,Chhattisgarh,Korba,"Urja Nagar, Korba - CECB",15-02-2024 10:00:00,22.348441,82.549611,CO,24,56,26
India,Chhattisgarh,Kunjemura,"OP Jindal School, Kunjemura - CECB",15-02-2024 10:00:00,22.126650,83.483212,PM2.5,26,74,53
India,Chhattisgarh,Kunjemura,"OP Jindal School, Kunjemura - CECB",15-02-2024 10:00:00,22.126650,83.483212,NO2,28,133,69
India,Chhattisgarh,Raipur,"Krishak Nagar, Raipur - CECB",15-02-2024 10:00:00,21.237755,81.705301,NH3,1,1,1
India,Chhattisgarh,Raipur,"Krishak Nagar, Raipur - CECB",15-02-2024 10:00:00,21.237755,81.705301,OZONE,3,6,3
India,Chhattisgarh,Raipur,"Siltara Phase-II, Raipur - CECB",15-02-2024 10:00:00,21.371751,81.664929,NO2,54,62,58
India,Chhattisgarh,Raipur,"Siltara Phase-II, Raipur - CECB",15-02-2024 10:00:00,21.371751,81.664929,OZONE,3,8,3
India,Chhattisgarh,Tumidih,"OP Jindal Industrial Park, Tumidih - CECB",15-02-2024 10:00:00,22.06631475,83.33820077,NO2,9,47,24
India,Delhi,Delhi,"Anand Vihar, Delhi - DPCC",15-02-2024 10:00:00,28.647622,77.3158090,PM10,174,479,325
India,Delhi,Delhi,"Ashok Vihar, Delhi - DPCC",15-02-2024 10:00:00,28.695381,77.181665,NH3,8,12,10
India,Delhi,Delhi,"Aya Nagar, Delhi - IMD",15-02-2024 10:00:00,28.4706914,77.1099364,NO2,NA,NA,NA
India,Delhi,Delhi,"Bawana, Delhi - DPCC",15-02-2024 10:00:00,28.776200,77.051074,PM2.5,257,435,327
India,Delhi,Delhi,"Burari Crossing, Delhi - IMD",15-02-2024 10:00:00,28.7256504,77.2011573,PM2.5,36,339,212
India,Delhi,Delhi,"Burari Crossing, Delhi - IMD",15-02-2024 10:00:00,28.7256504,77.2011573,PM10,99,414,228
India,Delhi,Delhi,"CRRI Mathura Road, Delhi - IMD",15-02-2024 10:00:00,28.5512005,77.2735737,PM2.5,144,330,277
India,Delhi,Delhi,"CRRI Mathura Road, Delhi - IMD",15-02-2024 10:00:00,28.5512005,77.2735737,OZONE,3,65,4
India,Delhi,Delhi,"DTU, Delhi - CPCB",15-02-2024 10:00:00,28.7500499,77.1112615,PM10,151,394,249
India,Delhi,Delhi,"DTU, Delhi - CPCB",15-02-2024 10:00:00,28.7500499,77.1112615,OZONE,26,51,26
India,Delhi,Delhi,"Dr. Karni Singh Shooting Range, Delhi - DPCC",15-02-2024 10:00:00,28.498571,77.264840,PM10,143,311,221
India,Delhi,Delhi,"Dr. Karni Singh Shooting Range, Delhi - DPCC",15-02-2024 10:00:00,28.498571,77.264840,OZONE,1,231,8
India,Delhi,Delhi,"Dwarka-Sector 8, Delhi - DPCC ",15-02-2024 10:00:00,28.5710274,77.0719006,CO,31,121,62
India,Delhi,Delhi,"Dwarka-Sector 8, Delhi - DPCC ",15-02-2024 10:00:00,28.5710274,77.0719006,OZONE,1,69,2
India,Delhi,Delhi,"IHBAS, Dilshad Garden, Delhi - CPCB",15-02-2024 10:00:00,28.6811736,77.3025234,PM10,123,198,156
India,Delhi,Delhi,"ITO, Delhi - CPCB",15-02-2024 10:00:00,28.628624,77.241060,PM2.5,NA,NA,NA
India,Delhi,Delhi,"ITO, Delhi - CPCB",15-02-2024 10:00:00,28.628624,77.241060,NH3,1,5,2
India,Delhi,Delhi,"ITO, Delhi - CPCB",15-02-2024 10:00:00,28.628624,77.241060,SO2,1,34,17
India,Delhi,Delhi,"ITO, Delhi - CPCB",15-02-2024 10:00:00,28.628624,77.241060,CO,16,118,59
India,Delhi,Delhi,"Jahangirpuri, Delhi - DPCC",15-02-2024 10:00:00,28.732820,77.170633,SO2,12,43,18
India,Delhi,Delhi,"Jahangirpuri, Delhi - DPCC",15-02-2024 10:00:00,28.732820,77.170633,CO,47,118,74
India,Delhi,Delhi,"Jahangirpuri, Delhi - DPCC",15-02-2024 10:00:00,28.732820,77.170633,OZONE,5,177,11
India,Delhi,Delhi,"Lodhi Road, Delhi - IITM",15-02-2024 10:00:00,28.588333,77.221667,PM10,96,464,146
India,Delhi,Delhi,"Lodhi Road, Delhi - IMD",15-02-2024 10:00:00,28.5918245,77.2273074,PM2.5,146,352,243
India,Delhi,Delhi,"Major Dhyan Chand National Stadium, Delhi - DPCC",15-02-2024 10:00:00,28.611281,77.237738,PM2.5,NA,NA,NA
India,Delhi,Delhi,"Major Dhyan Chand National Stadium, Delhi - DPCC",15-02-2024 10:00:00,28.611281,77.237738,NO2,NA,NA,NA
India,Delhi,Delhi,"Major Dhyan Chand National Stadium, Delhi - DPCC",15-02-2024 10:00:00,28.611281,77.237738,CO,NA,NA,NA
India,Delhi,Delhi,"Mandir Marg, Delhi - DPCC",15-02-2024 10:00:00,28.636429,77.201067,PM2.5,208,359,309
India,Delhi,Delhi,"Mandir Marg, Delhi - DPCC",15-02-2024 10:00:00,28.636429,77.201067,NO2,75,132,106
India,Delhi,Delhi,"Mundka, Delhi - DPCC",15-02-2024 10:00:00,28.684678,77.076574,PM10,138,436,260
India,Delhi,Delhi,"NSIT Dwarka, Delhi - CPCB",15-02-2024 10:00:00,28.60909,77.0325413,NO2,34,77,53
India,Delhi,Delhi,"NSIT Dwarka, Delhi - CPCB",15-02-2024 10:00:00,28.60909,77.0325413,OZONE,10,103,18
India,Delhi,Delhi,"Najafgarh, Delhi - DPCC",15-02-2024 10:00:00,28.570173,76.933762,NO2,12,53,30
India,Delhi,Delhi,"Najafgarh, Delhi - DPCC",15-02-2024 10:00:00,28.570173,76.933762,OZONE,6,166,14
India,Delhi,Delhi,"Okhla Phase-2, Delhi - DPCC",15-02-2024 10:00:00,28.530785,77.271255,CO,10,106,87
India,Delhi,Delhi,"Punjabi Bagh, Delhi - DPCC",15-02-2024 10:00:00,28.674045,77.131023,NH3,2,8,4
India,Delhi,Delhi,"Pusa, Delhi - IMD",15-02-2024 10:00:00,28.636110,77.173332,OZONE,12,13,12
India,Delhi,Delhi,"R K Puram, Delhi - DPCC",15-02-2024 10:00:00,28.563262,77.186937,PM10,157,352,217
India,Delhi,Delhi,"R K Puram, Delhi - DPCC",15-02-2024 10:00:00,28.563262,77.186937,SO2,2,19,10
India,Delhi,Delhi,"R K Puram, Delhi - DPCC",15-02-2024 10:00:00,28.563262,77.186937,OZONE,9,143,11
India,Delhi,Delhi,"Shadipur, Delhi - CPCB",15-02-2024 10:00:00,28.6514781,77.1473105,NH3,11,27,19
India,Delhi,Delhi,"Sirifort, Delhi - CPCB",15-02-2024 10:00:00,28.5504249,77.2159377,PM10,50,116,80
India,Delhi,Delhi,"Sonia Vihar, Delhi - DPCC",15-02-2024 10:00:00,28.710508,77.249485,NH3,6,11,8
India,Delhi,Delhi,"Sri Aurobindo Marg, Delhi - DPCC",15-02-2024 10:00:00,28.531346,77.190156,PM2.5,190,365,298
India,Delhi,Delhi,"Sri Aurobindo Marg, Delhi - DPCC",15-02-2024 10:00:00,28.531346,77.190156,NH3,7,9,8
India,Delhi,Delhi,"Wazirpur, Delhi - DPCC",15-02-2024 10:00:00,28.699793,77.165453,NO2,85,209,145
India,Gujarat,Ahmedabad,"Chandkheda, Ahmedabad - IITM",15-02-2024 10:00:00,23.107969,72.574648,PM2.5,16,58,33
India,Gujarat,Ahmedabad,"Chandkheda, Ahmedabad - IITM",15-02-2024 10:00:00,23.107969,72.574648,NO2,75,144,108
India,Gujarat,Ahmedabad,"Chandkheda, Ahmedabad - IITM",15-02-2024 10:00:00,23.107969,72.574648,OZONE,18,54,26
India,Gujarat,Ahmedabad,"Gyaspur, Ahmedabad - IITM",15-02-2024 10:00:00,22.977134,72.553024,PM10,52,105,79
India,Gujarat,Ahmedabad,"Maninagar, Ahmedabad - GPCB",15-02-2024 10:00:00,23.002657,72.591912,PM10,53,114,81
India,Gujarat,Ahmedabad,"Rakhial, Ahmedabad - IITM",15-02-2024 10:00:00,23.016834,72.625775,SO2,4,35,9
India,Gujarat,Ahmedabad,"SAC ISRO Bopal, Ahmedabad - IITM",15-02-2024 10:00:00,23.041137,72.456691,PM2.5,97,409,194
India,Gujarat,Ahmedabad,"SAC ISRO Bopal, Ahmedabad - IITM",15-02-2024 10:00:00,23.041137,72.456691,OZONE,12,48,23
India,Gujarat,Ahmedabad,"SVPI Airport Hansol, Ahmedabad - IITM",15-02-2024 10:00:00,23.076793,72.627874,PM2.5,60,130,87
India,Gujarat,Ahmedabad,"SVPI Airport Hansol, Ahmedabad - IITM",15-02-2024 10:00:00,23.076793,72.627874,PM10,101,164,130
India,Gujarat,Ahmedabad,"SVPI Airport Hansol, Ahmedabad - IITM",15-02-2024 10:00:00,23.076793,72.627874,OZONE,8,31,14
India,Gujarat,Ahmedabad,"Sardar Vallabhbhai Patel Stadium, Ahmedabad - IITM",15-02-2024 10:00:00,23.043070,72.562968,PM2.5,86,211,116
India,Gujarat,Ahmedabad,"Sardar Vallabhbhai Patel Stadium, Ahmedabad - IITM",15-02-2024 10:00:00,23.043070,72.562968,PM10,103,157,119
India,Gujarat,Ahmedabad,"Sardar Vallabhbhai Patel Stadium, Ahmedabad - IITM",15-02-2024 10:00:00,23.043070,72.562968,CO,12,46,21
India,Gujarat,Gandhinagar,"IIPHG Lekawada, Gandhinagar - IITM",15-02-2024 10:00:00,23.243639,72.68994,NO2,NA,NA,NA
India,Gujarat,Gandhinagar,"IIPHG Lekawada, Gandhinagar - IITM",15-02-2024 10:00:00,23.243639,72.68994,CO,8,28,13
India,Gujarat,Gandhinagar,"Sector-10, Gandhinagar - GPCB",15-02-2024 10:00:00,23.221714,72.654328,NH3,1,2,2
India,Gujarat,Gandhinagar,"Sector-10, Gandhinagar - GPCB",15-02-2024 10:00:00,23.221714,72.654328,CO,18,60,24
India,Gujarat,Vapi,"Phase-1 GIDC, Vapi - GPCB",15-02-2024 10:00:00,20.362421,72.918013,SO2,45,46,45
India,Haryana,Bhiwani,"H.B. Colony, Bhiwani - HSPCB",15-02-2024 10:00:00,28.806223,76.141105,NO2,5,11,9
India,Haryana,Charkhi Dadri,"Mini Secretariat, Charkhi Dadri - HSPCB",15-02-2024 10:00:00,28.593883,76.270653,PM10,87,190,139
India,Haryana,Charkhi Dadri,"Mini Secretariat, Charkhi Dadri - HSPCB",15-02-2024 10:00:00,28.593883,76.270653,NO2,10,17,12
India,Haryana,Charkhi Dadri,"Mini Secretariat, Charkhi Dadri - HSPCB",15-02-2024 10:00:00,28.593883,76.270653,OZONE,12,18,16
India,Haryana,Faridabad,"New Industrial Town, Faridabad - HSPCB",15-02-2024 10:00:00,28.39072,77.30059,PM2.5,228,329,295
India,Haryana,Faridabad,"New Industrial Town, Faridabad - HSPCB",15-02-2024 10:00:00,28.39072,77.30059,NH3,2,5,4
India,Haryana,Faridabad,"New Industrial Town, Faridabad - HSPCB",15-02-2024 10:00:00,28.39072,77.30059,CO,12,38,32
India,Haryana,Faridabad,"Sector 11, Faridabad - HSPCB",15-02-2024 10:00:00,28.376058,77.315741,PM10,72,150,113
India,Haryana,Faridabad,"Sector 11, Faridabad - HSPCB",15-02-2024 10:00:00,28.376058,77.315741,OZONE,3,12,3
India,Haryana,Fatehabad,"Huda Sector, Fatehabad - HSPCB",15-02-2024 10:00:00,29.503664,75.467934,CO,5,43,13
India,Haryana,Gurugram,"Sector-51, Gurugram - HSPCB",15-02-2024 10:00:00,28.4227,77.0667,PM2.5,103,335,296
India,Haryana,Gurugram,"Sector-51, Gurugram - HSPCB",15-02-2024 10:00:00,28.4227,77.0667,SO2,3,4,3
India,Haryana,Gurugram,"Sector-51, Gurugram - HSPCB",15-02-2024 10:00:00,28.4227,77.0667,OZONE,27,67,42
India,Haryana,Gurugram,"Teri Gram, Gurugram - HSPCB",15-02-2024 10:00:00,28.4275,77.1465,NO2,NA,NA,NA
India,Haryana,Gurugram,"Teri Gram, Gurugram - HSPCB",15-02-2024 10:00:00,28.4275,77.1465,CO,22,56,51
India,Haryana,Gurugram,"Vikas Sadan, Gurugram - HSPCB",15-02-2024 10:00:00,28.4501238,77.0263051,SO2,22,33,27
India,Haryana,Hisar,"Urban Estate-II, Hisar - HSPCB",15-02-2024 10:00:00,29.140560,75.744941,PM2.5,116,298,206
India,Haryana,Hisar,"Urban Estate-II, Hisar - HSPCB",15-02-2024 10:00:00,29.140560,75.744941,SO2,2,41,12
India,Haryana,Jind,"Police Lines, Jind - HSPCB",15-02-2024 10:00:00,29.307814,76.337619,NO2,5,14,11
India,Haryana,Jind,"Police Lines, Jind - HSPCB",15-02-2024 10:00:00,29.307814,76.337619,SO2,9,27,16
India,Haryana,Kaithal,"Rishi Nagar, Kaithal - HSPCB",15-02-2024 10:00:00,29.8006,76.4155,NO2,24,26,25
India,Haryana,Kaithal,"Rishi Nagar, Kaithal - HSPCB",15-02-2024 10:00:00,29.8006,76.4155,SO2,5,40,20
India,Haryana,Kaithal,"Rishi Nagar, Kaithal - HSPCB",15-02-2024 10:00:00,29.8006,76.4155,CO,6,35,23
India,Haryana,Karnal,"Sector-12, Karnal - HSPCB",15-02-2024 10:00:00,29.695300,77.002700,PM10,71,122,92
India,Haryana,Mandikhera,"General Hospital, Mandikhera - HSPCB",15-02-2024 10:00:00,27.9002,76.9938,PM2.5,36,144,61
India,Haryana,Manesar,"Sector-2 IMT, Manesar - HSPCB",15-02-2024 10:00:00,28.360699,76.936090,NO2,11,29,20
India,Haryana,Manesar,"Sector-2 IMT, Manesar - HSPCB",15-02-2024 10:00:00,28.360699,76.936090,NH3,6,17,10
India,Haryana,Manesar,"Sector-2 IMT, Manesar - HSPCB",15-02-2024 10:00:00,28.360699,76.936090,SO2,1,23,13
India,Haryana,Narnaul,"Shastri Nagar, Narnaul - HSPCB",15-02-2024 10:00:00,28.060249,76.113115,NO2,16,58,35
India,Haryana,Narnaul,"Shastri Nagar, Narnaul - HSPCB",15-02-2024 10:00:00,28.060249,76.113115,NH3,5,18,11
India,Haryana,Palwal,"Shyam Nagar, Palwal - HSPCB",15-02-2024 10:00:00,28.1485564,77.3320667,PM10,123,211,146
India,Haryana,Palwal,"Shyam Nagar, Palwal - HSPCB",15-02-2024 10:00:00,28.1485564,77.3320667,NH3,8,9,9
India,Haryana,Rohtak,"MD University, Rohtak - HSPCB",15-02-2024 10:00:00,28.52123,76.37138,PM2.5,18,301,130
India,Haryana,Sonipat,"Murthal, Sonipat - HSPCB",15-02-2024 10:00:00,29.027200,77.062100,PM10,97,126,113
India,Haryana,Yamuna Nagar,"Gobind Pura, Yamuna Nagar - HSPCB",15-02-2024 10:00:00,30.1480566,77.2893471,NH3,NA,NA,NA
India,Haryana,Yamuna Nagar,"Gobind Pura, Yamuna Nagar - HSPCB",15-02-2024 10:00:00,30.1480566,77.2893471,SO2,NA,NA,NA
India,Jharkhand,Dhanbad,"Kalakusuma, Dhanbad - DMC",15-02-2024 10:00:00,23.811548,86.481238,PM10,76,81,79
India,Jharkhand,Dhanbad,"Kalakusuma, Dhanbad - DMC",15-02-2024 10:00:00,23.811548,86.481238,SO2,35,36,35
India,Jharkhand,Dhanbad,"Sardar Patel Nagar, Dhanbad - JSPCB",15-02-2024 10:00:00,23.80569,86.44268,SO2,7,11,9
India,Jharkhand,Pathardih,"Mohalbani Ghat, Pathardih - DMC",15-02-2024 10:00:00,23.669880,86.411725,PM2.5,NA,NA,NA
India,Jharkhand,Pathardih,"Mohalbani Ghat, Pathardih - DMC",15-02-2024 10:00:00,23.669880,86.411725,PM10,NA,NA,NA
India,Jharkhand,Pathardih,"Mohalbani Ghat, Pathardih - DMC",15-02-2024 10:00:00,23.669880,86.411725,OZONE,10,22,16
India,Karnataka,Bagalkot,"Vidayagiri, Bagalkot - KSPCB",15-02-2024 10:00:00,16.172806,75.659694,NH3,1,2,1
India,Karnataka,Bagalkot,"Vidayagiri, Bagalkot - KSPCB",15-02-2024 10:00:00,16.172806,75.659694,OZONE,NA,NA,NA
India,Karnataka,Belgaum,"Ramteerth Nagar, Belgaum - KSPCB",15-02-2024 10:00:00,15.888653,74.541751,PM2.5,23,93,51
India,Karnataka,Bengaluru,"BTM Layout, Bengaluru - CPCB",15-02-2024 10:00:00,12.9135218,77.5950804,PM10,32,68,52
India,Karnataka,Bengaluru,"BTM Layout, Bengaluru - CPCB",15-02-2024 10:00:00,12.9135218,77.5950804,NO2,35,42,37
India,Karnataka,Bengaluru,"BTM Layout, Bengaluru - CPCB",15-02-2024 10:00:00,12.9135218,77.5950804,NH3,5,6,5
India,Karnataka,Bengaluru,"BTM Layout, Bengaluru - CPCB",15-02-2024 10:00:00,12.9135218,77.5950804,SO2,13,13,13
India,Karnataka,Bengaluru,"Bapuji Nagar, Bengaluru - KSPCB",15-02-2024 10:00:00,12.951913,77.539784,NH3,1,1,1
India,Karnataka,Bengaluru,"Bapuji Nagar, Bengaluru - KSPCB",15-02-2024 10:00:00,12.951913,77.539784,OZONE,10,11,11
India,Karnataka,Bengaluru,"Hebbal, Bengaluru - KSPCB",15-02-2024 10:00:00,13.029152,77.585901,PM2.5,NA,NA,NA
India,Karnataka,Bengaluru,"Hebbal, Bengaluru - KSPCB",15-02-2024 10:00:00,13.029152,77.585901,PM10,NA,NA,NA
India,Karnataka,Bengaluru,"Hebbal, Bengaluru - KSPCB",15-02-2024 10:00:00,13.029152,77.585901,NO2,NA,NA,NA
India,Karnataka,Bengaluru,"Hebbal, Bengaluru - KSPCB",15-02-2024 10:00:00,13.029152,77.585901,NH3,NA,NA,NA
India,Karnataka,Bengaluru,"Hebbal, Bengaluru - KSPCB",15-02-2024 10:00:00,13.029152,77.585901,CO,8,32,27
India,Karnataka,Bengaluru,"Hebbal, Bengaluru - KSPCB",15-02-2024 10:00:00,13.029152,77.585901,OZONE,8,11,10
India,Karnataka,Bengaluru,"Hombegowda Nagar, Bengaluru - KSPCB",15-02-2024 10:00:00,12.938539,77.590100,NO2,26,41,37
India,Karnataka,Bengaluru,"Jigani, Bengaluru - KSPCB",15-02-2024 10:00:00,12.7816279,77.6299145,OZONE,11,59,31
India,Karnataka,Bengaluru,"Kasturi Nagar, Bengaluru - KSPCB",15-02-2024 10:00:00,13.003872,77.664217,PM2.5,72,120,88
India,Karnataka,Bengaluru,"Peenya, Bengaluru - CPCB",15-02-2024 10:00:00,13.0270199,77.494094,PM2.5,3,101,61
India,Karnataka,Bengaluru,"Peenya, Bengaluru - CPCB",15-02-2024 10:00:00,13.0270199,77.494094,NH3,3,3,3
India,Karnataka,Bengaluru,"Shivapura_Peenya, Bengaluru - KSPCB",15-02-2024 10:00:00,13.0246342,77.5080115,PM10,44,101,74
India,Karnataka,Bengaluru,"Silk Board, Bengaluru - KSPCB",15-02-2024 10:00:00,12.917348,77.622813,NO2,22,26,24
India,Karnataka,Bengaluru,"Silk Board, Bengaluru - KSPCB",15-02-2024 10:00:00,12.917348,77.622813,CO,33,42,35
India,Karnataka,Bengaluru,"Silk Board, Bengaluru - KSPCB",15-02-2024 10:00:00,12.917348,77.622813,OZONE,29,32,31
India,Karnataka,Chamarajanagar,"Urban, Chamarajanagar - KSPCB",15-02-2024 10:00:00,11.55358,76.55521,PM2.5,20,52,31
India,Karnataka,Chikkaballapur,"Chikkaballapur Rural, Chikkaballapur - KSPCB",15-02-2024 10:00:00,13.428828,77.731418,PM2.5,32,121,57
India,Karnataka,Chikkaballapur,"Chikkaballapur Rural, Chikkaballapur - KSPCB",15-02-2024 10:00:00,13.428828,77.731418,NO2,2,12,4
India,Karnataka,Davanagere,"Devaraj Urs Badavane, Davanagere - KSPCB",15-02-2024 10:00:00,14.475800,75.905200,NH3,1,1,1
India,Karnataka,Dharwad,"Kalabhavan, Dharwad - KSPCB",15-02-2024 10:00:00,15.459706,75.008381,PM2.5,47,85,65
India,Karnataka,Dharwad,"Kalabhavan, Dharwad - KSPCB",15-02-2024 10:00:00,15.459706,75.008381,NO2,5,37,24
India,Karnataka,Dharwad,"Kalabhavan, Dharwad - KSPCB",15-02-2024 10:00:00,15.459706,75.008381,CO,24,148,74
India,Karnataka,Gadag,"Panchal Nagar, Gadag - KSPCB",15-02-2024 10:00:00,15.411456,75.638133,NH3,NA,NA,NA
India,Karnataka,Gadag,"Panchal Nagar, Gadag - KSPCB",15-02-2024 10:00:00,15.411456,75.638133,CO,NA,NA,NA
India,Karnataka,Hassan,"B.Katihalli, Hassan - KSPCB",15-02-2024 10:00:00,13.008556,76.125258,SO2,6,30,14
India,Karnataka,Haveri,"Ashwini Nagar, Haveri - KSPCB",15-02-2024 10:00:00,14.791800,75.389600,PM2.5,27,90,52
India,Karnataka,Haveri,"Ashwini Nagar, Haveri - KSPCB",15-02-2024 10:00:00,14.791800,75.389600,NO2,21,46,32
India,Karnataka,Kalaburagi,"Lal Bahadur Shastri Nagar, Kalaburagi - KSPCB",15-02-2024 10:00:00,17.321993,76.822628,NO2,12,12,12
India,Karnataka,Kalaburagi,"Lal Bahadur Shastri Nagar, Kalaburagi - KSPCB",15-02-2024 10:00:00,17.321993,76.822628,OZONE,4,76,18
India,Karnataka,Kalaburagi,"Mahatma Basaveswar Colony, Kalaburgi - KSPCB",15-02-2024 10:00:00,17.336318,76.847397,NO2,13,26,20
India,Karnataka,Karwar,"KHB Colony, Karwar - KSPCB",15-02-2024 10:00:00,14.816666,74.141003,NO2,5,10,7
India,Karnataka,Kolar,"Tamaka Ind. Area, Kolar - KSPCB",15-02-2024 10:00:00,13.1276288,78.1570122,CO,9,15,11
India,Karnataka,Koppal,"Diwator Nagar, Koppal - KSPCB",15-02-2024 10:00:00,15.347630,76.181767,PM2.5,17,56,32
India,Karnataka,Mangalore,"Kadri, Mangalore - KSPCB",15-02-2024 10:00:00,12.889250,74.853000,NH3,NA,NA,NA
India,Karnataka,Mysuru,"Hebbal 1st Stage, Mysuru - KSPCB",15-02-2024 10:00:00,12.21041,76.37376,SO2,1,6,3
India,Karnataka,Raichur,"Haji Colony, Raichur - KSPCB",15-02-2024 10:00:00,16.208139,77.348417,NH3,1,3,2
India,Karnataka,Shivamogga,"Vinoba Nagara, Shivamogga - KSPCB",15-02-2024 10:00:00,13.940000,75.555917,PM2.5,38,49,44
India,Karnataka,Udupi,"Brahmagiri, Udupi - KSPCB",15-02-2024 10:00:00,13.34194444,74.74694444,OZONE,23,24,23
India,Karnataka,Yadgir,"Collector Office, Yadgir - KSPCB",15-02-2024 10:00:00,16.7602,77.1428,PM10,30,119,67
India,Karnataka,Yadgir,"Collector Office, Yadgir - KSPCB",15-02-2024 10:00:00,16.7602,77.1428,SO2,2,25,12
India,Kerala,Eloor,"Udyogamandal, Eloor - Kerala PCB",15-02-2024 10:00:00,10.073232,76.302765,OZONE,10,16,11
India,Kerala,Kannur,"Thavakkara, Kannur - Kerala PCB",15-02-2024 10:00:00,11.875000,75.373200,NH3,1,1,1
India,Kerala,Kannur,"Thavakkara, Kannur - Kerala PCB",15-02-2024 10:00:00,11.875000,75.373200,SO2,4,6,5
India,Kerala,Kannur,"Thavakkara, Kannur - Kerala PCB",15-02-2024 10:00:00,11.875000,75.373200,CO,30,36,32
India,Kerala,Thiruvananthapuram,"Kariavattom, Thiruvananthapuram - Kerala PCB",15-02-2024 10:00:00,8.563700,76.886500,PM10,74,88,82
India,Kerala,Thiruvananthapuram,"Kariavattom, Thiruvananthapuram - Kerala PCB",15-02-2024 10:00:00,8.563700,76.886500,OZONE,26,31,28
India,Kerala,Thiruvananthapuram,"Plammoodu, Thiruvananthapuram - Kerala PCB",15-02-2024 10:00:00,8.5149093,76.9435879,PM10,14,50,30
India,Kerala,Thiruvananthapuram,"Plammoodu, Thiruvananthapuram - Kerala PCB",15-02-2024 10:00:00,8.5149093,76.9435879,SO2,6,17,10
India,Kerala,Thrissur,"Corporation Ground, Thrissur - Kerala PCB",15-02-2024 10:00:00,10.532400,76.215900,PM10,52,64,58
India,Kerala,Thrissur,"Corporation Ground, Thrissur - Kerala PCB",15-02-2024 10:00:00,10.532400,76.215900,NO2,9,11,10
India,Madhya Pradesh,Bhopal,"Idgah Hills, Bhopal - MPPCB",15-02-2024 10:00:00,23.264759,77.381568,CO,28,69,42
India,Madhya Pradesh,Bhopal,"Paryavaran Parisar, Bhopal - MPPCB",15-02-2024 10:00:00,23.210494,77.425409,PM10,109,174,139
India,Madhya Pradesh,Bhopal,"Paryavaran Parisar, Bhopal - MPPCB",15-02-2024 10:00:00,23.210494,77.425409,NH3,8,12,9
India,Madhya Pradesh,Bhopal,"T T Nagar, Bhopal - MPPCB",15-02-2024 10:00:00,23.233584,77.400574,PM10,119,179,139
India,Madhya Pradesh,Bhopal,"T T Nagar, Bhopal - MPPCB",15-02-2024 10:00:00,23.233584,77.400574,NH3,3,6,5
India,Madhya Pradesh,Dewas,"Bhopal Chauraha, Dewas - MPPCB",15-02-2024 10:00:00,22.9682591,76.064118,PM2.5,75,238,162
India,Madhya Pradesh,Dewas,"Bhopal Chauraha, Dewas - MPPCB",15-02-2024 10:00:00,22.9682591,76.064118,OZONE,16,44,28
India,Madhya Pradesh,Gwalior,"City Center, Gwalior - MPPCB",15-02-2024 10:00:00,26.203442,78.193251,PM10,135,226,183
India,Madhya Pradesh,Gwalior,"City Center, Gwalior - MPPCB",15-02-2024 10:00:00,26.203442,78.193251,OZONE,54,114,55
India,Madhya Pradesh,Gwalior,"Deen Dayal Nagar, Gwalior - MPPCB",15-02-2024 10:00:00,26.259242,78.216432,NO2,28,75,42
India,Madhya Pradesh,Gwalior,"Deen Dayal Nagar, Gwalior - MPPCB",15-02-2024 10:00:00,26.259242,78.216432,SO2,17,22,19
India,Madhya Pradesh,Gwalior,"Maharaj Bada, Gwalior - MPPCB",15-02-2024 10:00:00,26.200388,78.147714,OZONE,17,140,67
India,Madhya Pradesh,Gwalior,"Phool Bagh, Gwalior - Mondelez Ind. Food",15-02-2024 10:00:00,26.210536,78.171,SO2,11,13,12
India,Madhya Pradesh,Indore,"Chhoti Gwaltoli, Indore - MPPCB",15-02-2024 10:00:00,22.4310,75.5213,PM10,111,171,131
India,Madhya Pradesh,Indore,"Chhoti Gwaltoli, Indore - MPPCB",15-02-2024 10:00:00,22.4310,75.5213,SO2,12,39,21
India,Madhya Pradesh,Indore,"Maguda Nagar, Indore - IMC",15-02-2024 10:00:00,22.7524,75.8872,SO2,15,17,16
India,Madhya Pradesh,Indore,"Residency Area, Indore - IMC",15-02-2024 10:00:00,22.7084,75.8815,PM2.5,66,106,83
India,Madhya Pradesh,Indore,"Residency Area, Indore - IMC",15-02-2024 10:00:00,22.7084,75.8815,CO,13,16,13
India,Madhya Pradesh,Indore,"Residency Area, Indore - IMC",15-02-2024 10:00:00,22.7084,75.8815,OZONE,11,28,16
