country,state,city,station,last_update,latitude,longitude,pollutant_id,pollutant_min,pollutant_max,pollutant_avg
India,Andhra_Pradesh,Amaravati,"Secretariat, Amaravati - APPCB",19-01-2024 02:00:00,16.5150833,80.5181667,NH3,2,4,4
India,Andhra_Pradesh,Amaravati,"Secretariat, Amaravati - APPCB",19-01-2024 02:00:00,16.5150833,80.5181667,OZONE,1,48,14
India,Andhra_Pradesh,Anantapur,"Gulzarpet, Anantapur - APPCB",19-01-2024 02:00:00,14.675886,77.593027,PM10,49,80,65
India,Andhra_Pradesh,Anantapur,"Gulzarpet, Anantapur - APPCB",19-01-2024 02:00:00,14.675886,77.593027,NO2,16,40,25
India,Andhra_Pradesh,Chittoor,"Gangineni Cheruvu, Chittoor - APPCB",19-01-2024 02:00:00,13.204880,79.097889,OZONE,9,106,56
India,Andhra_Pradesh,Kadapa,"Yerramukkapalli, Kadapa - APPCB",19-01-2024 02:00:00,14.465052,78.824187,PM2.5,25,58,39
India,Andhra_Pradesh,Kadapa,"Yerramukkapalli, Kadapa - APPCB",19-01-2024 02:00:00,14.465052,78.824187,OZONE,18,50,33
India,Andhra_Pradesh,Rajamahendravaram,"Anand Kala Kshetram, Rajamahendravaram - APPCB",19-01-2024 02:00:00,16.9872867,81.7363176,SO2,15,23,19
India,Andhra_Pradesh,Rajamahendravaram,"Anand Kala Kshetram, Rajamahendravaram - APPCB",19-01-2024 02:00:00,16.9872867,81.7363176,OZONE,4,9,6
India,Andhra_Pradesh,Tirupati,"Vaikuntapuram, Tirupati - APPCB",19-01-2024 02:00:00,13.615387,79.409230,PM2.5,20,48,30
India,Andhra_Pradesh,Vijayawada,"HB Colony, Vijayawada - APPCB",19-01-2024 02:00:00,16.536107,80.594233,NH3,NA,NA,NA
India,Andhra_Pradesh,Vijayawada,"HB Colony, Vijayawada - APPCB",19-01-2024 02:00:00,16.536107,80.594233,SO2,NA,NA,NA
India,Andhra_Pradesh,Vijayawada,"Rajiv Gandhi Park, Vijayawada - APPCB",19-01-2024 02:00:00,16.509717,80.612222,NO2,NA,NA,NA
India,Andhra_Pradesh,Vijayawada,"Rajiv Gandhi Park, Vijayawada - APPCB",19-01-2024 02:00:00,16.509717,80.612222,NH3,NA,NA,NA
India,Andhra_Pradesh,Visakhapatnam,"GVM Corporation, Visakhapatnam - APPCB",19-01-2024 02:00:00,17.72,83.3,SO2,8,15,12
India,Andhra_Pradesh,Visakhapatnam,"GVM Corporation, Visakhapatnam - APPCB",19-01-2024 02:00:00,17.72,83.3,CO,18,88,60
India,Andhra_Pradesh,Visakhapatnam,"GVM Corporation, Visakhapatnam - APPCB",19-01-2024 02:00:00,17.72,83.3,OZONE,8,14,10
India,Arunachal_Pradesh,Naharlagun,"Naharlagun, Naharlagun - APSPCB",19-01-2024 02:00:00,27.103358,93.679645,PM10,35,104,59
India,Arunachal_Pradesh,Naharlagun,"Naharlagun, Naharlagun - APSPCB",19-01-2024 02:00:00,27.103358,93.679645,NO2,2,2,2
India,Arunachal_Pradesh,Naharlagun,"Naharlagun, Naharlagun - APSPCB",19-01-2024 02:00:00,27.103358,93.679645,CO,12,44,31
India,Arunachal_Pradesh,Naharlagun,"Naharlagun, Naharlagun - APSPCB",19-01-2024 02:00:00,27.103358,93.679645,OZONE,2,2,2
India,Assam,Byrnihat,"Central Academy for SFS, Byrnihat - PCBA",19-01-2024 02:00:00,26.071318,91.87488,CO,10,186,130
India,Assam,Guwahati,"LGBI Airport, Guwahati - PCBA",19-01-2024 02:00:00,26.10887,91.589544,NO2,14,96,35
India,Assam,Nagaon,"Christianpatty, Nagaon - PCBA",19-01-2024 02:00:00,26.349082,92.68449,NO2,13,32,22
India,Assam,Nagaon,"Christianpatty, Nagaon - PCBA",19-01-2024 02:00:00,26.349082,92.68449,OZONE,3,49,4
India,Assam,Nalbari,"Bata Chowk, Nalbari - PCBA",19-01-2024 02:00:00,26.446912,91.439057,PM2.5,67,383,169
India,Assam,Nalbari,"Bata Chowk, Nalbari - PCBA",19-01-2024 02:00:00,26.446912,91.439057,CO,4,163,120
India,Assam,Sivasagar,"Girls College, Sivasagar - PCBA",19-01-2024 02:00:00,26.987634,94.636574,PM2.5,22,59,38
India,Assam,Sivasagar,"Girls College, Sivasagar - PCBA",19-01-2024 02:00:00,26.987634,94.636574,PM10,35,84,48
India,Assam,Sivasagar,"Girls College, Sivasagar - PCBA",19-01-2024 02:00:00,26.987634,94.636574,OZONE,1,45,1
India,Bihar,Araria,"Kharahiya Basti, Araria - BSPCB",19-01-2024 02:00:00,26.146529,87.454184,NH3,6,7,7
India,Bihar,Araria,"Kharahiya Basti, Araria - BSPCB",19-01-2024 02:00:00,26.146529,87.454184,SO2,13,17,15
India,Bihar,Araria,"Kharahiya Basti, Araria - BSPCB",19-01-2024 02:00:00,26.146529,87.454184,CO,51,108,93
India,Bihar,Arrah,"New DM Office, Arrah - BSPCB",19-01-2024 02:00:00,25.5626095,84.663264,NO2,9,37,21
India,Bihar,Arrah,"New DM Office, Arrah - BSPCB",19-01-2024 02:00:00,25.5626095,84.663264,CO,4,16,8
India,Bihar,Aurangabad,"Gurdeo Nagar, Aurangabad - BSPCB",19-01-2024 02:00:00,24.75746,84.366208,PM10,78,177,111
India,Bihar,Aurangabad,"Gurdeo Nagar, Aurangabad - BSPCB",19-01-2024 02:00:00,24.75746,84.366208,CO,3,101,72
India,Bihar,Bettiah,"Kamalnath Nagar, Bettiah - BSPCB",19-01-2024 02:00:00,26.80365,84.51954,PM2.5,NA,NA,NA
India,Bihar,Bettiah,"Kamalnath Nagar, Bettiah - BSPCB",19-01-2024 02:00:00,26.80365,84.51954,CO,32,100,72
India,Bihar,Bhagalpur,"DM Office_Kachari Chowk, Bhagalpur - BSPCB",19-01-2024 02:00:00,25.251013,86.989001,SO2,18,40,31
India,Bihar,Bhagalpur,"Mayaganj, Bhagalpur - BSPCB",19-01-2024 02:00:00,25.265194,87.012947,SO2,10,14,12
India,Bihar,Bihar Sharif,"D M Colony, Bihar Sharif - BSPCB",19-01-2024 02:00:00,25.204762,85.514960,CO,3,70,24
India,Bihar,Chhapra,"Darshan Nagar, Chhapra - BSPCB",19-01-2024 02:00:00,25.7808257,84.7446768,PM2.5,NA,NA,NA
India,Bihar,Chhapra,"Darshan Nagar, Chhapra - BSPCB",19-01-2024 02:00:00,25.7808257,84.7446768,OZONE,1,2,1
India,Bihar,Gaya,"Collectorate, Gaya - BSPCB",19-01-2024 02:00:00,24.7955,84.9994,PM2.5,179,342,298
India,Bihar,Gaya,"Collectorate, Gaya - BSPCB",19-01-2024 02:00:00,24.7955,84.9994,OZONE,51,83,67
India,Bihar,Gaya,"Kareemganj, Gaya - BSPCB",19-01-2024 02:00:00,24.792403,84.992416,CO,4,101,47
India,Bihar,Gaya,"SFTI Kusdihra, Gaya - BSPCB",19-01-2024 02:00:00,24.762518,84.982348,PM2.5,118,304,240
India,Bihar,Hajipur,"Industrial Area, Hajipur - BSPCB",19-01-2024 02:00:00,25.697189,85.245900,OZONE,2,172,18
India,Bihar,Katihar,"Mirchaibari, Katihar - BSPCB",19-01-2024 02:00:00,25.560083,87.553265,CO,26,42,29
India,Bihar,Katihar,"Mirchaibari, Katihar - BSPCB",19-01-2024 02:00:00,25.560083,87.553265,OZONE,18,23,21
India,Bihar,Motihari,"Gandak Colony, Motihari - BSPCB",19-01-2024 02:00:00,26.63086,84.90051,NH3,8,15,11
India,Bihar,Motihari,"Gandak Colony, Motihari - BSPCB",19-01-2024 02:00:00,26.63086,84.90051,OZONE,22,53,42
India,Bihar,Munger,"Town Hall, Munger - BSPCB",19-01-2024 02:00:00,25.376776,86.471523,CO,52,70,59
India,Bihar,Muzaffarpur,"Buddha Colony, Muzaffarpur - BSPCB",19-01-2024 02:00:00,26.11442,85.39813,PM2.5,287,356,328
India,Bihar,Muzaffarpur,"Buddha Colony, Muzaffarpur - BSPCB",19-01-2024 02:00:00,26.11442,85.39813,SO2,7,12,10
India,Bihar,Muzaffarpur,"Buddha Colony, Muzaffarpur - BSPCB",19-01-2024 02:00:00,26.11442,85.39813,CO,61,107,96
India,Bihar,Muzaffarpur,"MIT-Daudpur Kothi, Muzaffarpur - BSPCB",19-01-2024 02:00:00,26.1403345,85.3650192,SO2,11,16,14
India,Bihar,Muzaffarpur,"MIT-Daudpur Kothi, Muzaffarpur - BSPCB",19-01-2024 02:00:00,26.1403345,85.3650192,CO,10,118,104
India,Bihar,Patna,"DRM Office Danapur, Patna - BSPCB",19-01-2024 02:00:00,25.586562,85.043586,PM10,178,441,301
India,Bihar,Patna,"DRM Office Danapur, Patna - BSPCB",19-01-2024 02:00:00,25.586562,85.043586,NH3,4,5,4
India,Bihar,Patna,"DRM Office Danapur, Patna - BSPCB",19-01-2024 02:00:00,25.586562,85.043586,CO,69,103,89
India,Bihar,Patna,"IGSC Planetarium Complex, Patna - BSPCB",19-01-2024 02:00:00,25.610369,85.132568,PM2.5,70,184,126
India,Bihar,Patna,"IGSC Planetarium Complex, Patna - BSPCB",19-01-2024 02:00:00,25.610369,85.132568,CO,111,116,115
India,Bihar,Patna,"IGSC Planetarium Complex, Patna - BSPCB",19-01-2024 02:00:00,25.610369,85.132568,OZONE,13,14,14
India,Bihar,Patna,"Muradpur, Patna - BSPCB",19-01-2024 02:00:00,25.619651,85.147382,OZONE,9,27,17
India,Bihar,Patna,"Samanpura, Patna - BSPCB",19-01-2024 02:00:00,25.596727,85.085624,NO2,14,15,14
India,Bihar,Patna,"Samanpura, Patna - BSPCB",19-01-2024 02:00:00,25.596727,85.085624,OZONE,15,267,39
India,Bihar,Purnia,"Mariam Nagar, Purnia - BSPCB",19-01-2024 02:00:00,25.366336,87.117468,PM2.5,52,335,165
India,Bihar,Purnia,"Mariam Nagar, Purnia - BSPCB",19-01-2024 02:00:00,25.366336,87.117468,PM10,86,211,148
India,Bihar,Purnia,"Mariam Nagar, Purnia - BSPCB",19-01-2024 02:00:00,25.366336,87.117468,CO,63,104,96
India,Bihar,Rajgir,"Dangi Tola, Rajgir - BSPCB",19-01-2024 02:00:00,25.03280,85.41948,NO2,5,9,7
India,Bihar,Saharsa,"Police Line, Saharsa - BSPCB",19-01-2024 02:00:00,25.892357,86.590325,NH3,9,9,9
India,Bihar,Samastipur,"DM Office_Kasipur, Samastipur - BSPCB",19-01-2024 02:00:00,25.859655,85.77944,PM2.5,113,335,264
India,Bihar,Samastipur,"DM Office_Kasipur, Samastipur - BSPCB",19-01-2024 02:00:00,25.859655,85.77944,PM10,117,197,156
India,Bihar,Samastipur,"DM Office_Kasipur, Samastipur - BSPCB",19-01-2024 02:00:00,25.859655,85.77944,NH3,3,6,5
India,Bihar,Samastipur,"DM Office_Kasipur, Samastipur - BSPCB",19-01-2024 02:00:00,25.859655,85.77944,CO,15,32,19
India,Bihar,Siwan,"Chitragupta Nagar, Siwan - BSPCB",19-01-2024 02:00:00,26.2271665,84.3570427,OZONE,6,25,17
India,Chandigarh,Chandigarh,"Sector 22, Chandigarh - CPCC",19-01-2024 02:00:00,30.735567,76.775714,NO2,9,70,29
India,Chandigarh,Chandigarh,"Sector 22, Chandigarh - CPCC",19-01-2024 02:00:00,30.735567,76.775714,CO,54,109,92
India,Chandigarh,Chandigarh,"Sector 22, Chandigarh - CPCC",19-01-2024 02:00:00,30.735567,76.775714,OZONE,1,107,11
India,Chandigarh,Chandigarh,"Sector-25, Chandigarh - CPCC",19-01-2024 02:00:00,30.751462,76.762879,NO2,6,46,24
India,Chandigarh,Chandigarh,"Sector-25, Chandigarh - CPCC",19-01-2024 02:00:00,30.751462,76.762879,NH3,3,25,17
India,Chandigarh,Chandigarh,"Sector-53, Chandigarh - CPCC",19-01-2024 02:00:00,30.719859,76.738637,PM2.5,290,478,388
India,Chandigarh,Chandigarh,"Sector-53, Chandigarh - CPCC",19-01-2024 02:00:00,30.719859,76.738637,NH3,6,14,9
India,Chandigarh,Chandigarh,"Sector-53, Chandigarh - CPCC",19-01-2024 02:00:00,30.719859,76.738637,OZONE,3,42,9
India,Chhattisgarh,Bhilai,"32Bungalows, Bhilai - CECB",19-01-2024 02:00:00,21.194815,81.314770,PM2.5,68,146,96
India,Chhattisgarh,Bhilai,"32Bungalows, Bhilai - CECB",19-01-2024 02:00:00,21.194815,81.314770,SO2,10,12,11
India,Chhattisgarh,Bhilai,"Hathkhoj, Bhilai - CECB",19-01-2024 02:00:00,21.224231,81.408350,SO2,9,29,15
India,Chhattisgarh,Bhilai,"Hathkhoj, Bhilai - CECB",19-01-2024 02:00:00,21.224231,81.408350,CO,26,56,45
India,Chhattisgarh,Chhal,"Nawapara SECL Colony, Chhal - CECB",19-01-2024 02:00:00,22.118125,83.140608,PM10,NA,NA,NA
India,Chhattisgarh,Chhal,"Nawapara SECL Colony, Chhal - CECB",19-01-2024 02:00:00,22.118125,83.140608,NO2,NA,NA,NA
India,Chhattisgarh,Chhal,"Nawapara SECL Colony, Chhal - CECB",19-01-2024 02:00:00,22.118125,83.140608,NH3,NA,NA,NA
India,Chhattisgarh,Chhal,"Nawapara SECL Colony, Chhal - CECB",19-01-2024 02:00:00,22.118125,83.140608,SO2,NA,NA,NA
India,Chhattisgarh,Korba,"Urja Nagar, Korba - CECB",19-01-2024 02:00:00,22.348441,82.549611,PM2.5,22,55,39
India,Chhattisgarh,Korba,"Urja Nagar, Korba - CECB",19-01-2024 02:00:00,22.348441,82.549611,PM10,41,162,80
India,Chhattisgarh,Kunjemura,"OP Jindal School, Kunjemura - CECB",19-01-2024 02:00:00,22.126650,83.483212,PM2.5,25,79,52
India,Chhattisgarh,Kunjemura,"OP Jindal School, Kunjemura - CECB",19-01-2024 02:00:00,22.126650,83.483212,OZONE,3,27,7
India,Chhattisgarh,Milupara,"Govt. Higher Secondary School, Milupara - CECB",19-01-2024 02:00:00,22.1910172,83.5197009,SO2,NA,NA,NA
India,Chhattisgarh,Raipur,"AIIMS, Raipur - CECB",19-01-2024 02:00:00,21.258815,81.578979,SO2,5,13,9
India,Chhattisgarh,Raipur,"Bhatagaon New ISBT, Raipur - CECB",19-01-2024 02:00:00,21.219665,81.630094,CO,41,78,55
India,Chhattisgarh,Raipur,"Bhatagaon New ISBT, Raipur - CECB",19-01-2024 02:00:00,21.219665,81.630094,OZONE,3,4,3
India,Chhattisgarh,Raipur,"Krishak Nagar, Raipur - CECB",19-01-2024 02:00:00,21.237755,81.705301,NH3,1,1,1
India,Chhattisgarh,Raipur,"Krishak Nagar, Raipur - CECB",19-01-2024 02:00:00,21.237755,81.705301,SO2,8,12,10
India,Chhattisgarh,Raipur,"Krishak Nagar, Raipur - CECB",19-01-2024 02:00:00,21.237755,81.705301,CO,50,56,52
India,Chhattisgarh,Raipur,"Siltara Phase-II, Raipur - CECB",19-01-2024 02:00:00,21.371751,81.664929,PM10,88,193,127
India,Chhattisgarh,Raipur,"Siltara Phase-II, Raipur - CECB",19-01-2024 02:00:00,21.371751,81.664929,OZONE,3,3,3
India,Chhattisgarh,Tumidih,"OP Jindal Industrial Park, Tumidih - CECB",19-01-2024 02:00:00,22.06631475,83.33820077,PM10,43,84,63
India,Delhi,Delhi,"Ashok Vihar, Delhi - DPCC",19-01-2024 02:00:00,28.695381,77.181665,PM2.5,149,422,313
India,Delhi,Delhi,"Ashok Vihar, Delhi - DPCC",19-01-2024 02:00:00,28.695381,77.181665,PM10,142,484,307
India,Delhi,Delhi,"Ashok Vihar, Delhi - DPCC",19-01-2024 02:00:00,28.695381,77.181665,SO2,12,32,19
India,Delhi,Delhi,"Bawana, Delhi - DPCC",19-01-2024 02:00:00,28.776200,77.051074,NH3,2,6,4
India,Delhi,Delhi,"Burari Crossing, Delhi - IMD",19-01-2024 02:00:00,28.7256504,77.2011573,PM2.5,92,430,288
India,Delhi,Delhi,"DTU, Delhi - CPCB",19-01-2024 02:00:00,28.7500499,77.1112615,NH3,17,38,24
India,Delhi,Delhi,"DTU, Delhi - CPCB",19-01-2024 02:00:00,28.7500499,77.1112615,CO,42,76,63
India,Delhi,Delhi,"Dr. Karni Singh Shooting Range, Delhi - DPCC",19-01-2024 02:00:00,28.498571,77.264840,NH3,7,14,9
India,Delhi,Delhi,"Dr. Karni Singh Shooting Range, Delhi - DPCC",19-01-2024 02:00:00,28.498571,77.264840,SO2,8,14,10
India,Delhi,Delhi,"IGI Airport (T3), Delhi - IMD",19-01-2024 02:00:00,28.5627763,77.1180053,PM2.5,96,369,258
India,Delhi,Delhi,"IGI Airport (T3), Delhi - IMD",19-01-2024 02:00:00,28.5627763,77.1180053,PM10,104,269,161
India,Delhi,Delhi,"IGI Airport (T3), Delhi - IMD",19-01-2024 02:00:00,28.5627763,77.1180053,NO2,13,55,27
India,Delhi,Delhi,"IGI Airport (T3), Delhi - IMD",19-01-2024 02:00:00,28.5627763,77.1180053,OZONE,7,88,11
India,Delhi,Delhi,"IHBAS, Dilshad Garden, Delhi - CPCB",19-01-2024 02:00:00,28.6811736,77.3025234,SO2,8,47,23
India,Delhi,Delhi,"IHBAS, Dilshad Garden, Delhi - CPCB",19-01-2024 02:00:00,28.6811736,77.3025234,OZONE,4,43,9
India,Delhi,Delhi,"ITO, Delhi - CPCB",19-01-2024 02:00:00,28.628624,77.241060,OZONE,28,41,29
India,Delhi,Delhi,"Jawaharlal Nehru Stadium, Delhi - DPCC",19-01-2024 02:00:00,28.580280,77.233829,NO2,62,146,92
India,Delhi,Delhi,"Jawaharlal Nehru Stadium, Delhi - DPCC",19-01-2024 02:00:00,28.580280,77.233829,OZONE,1,28,6
India,Delhi,Delhi,"Lodhi Road, Delhi - IITM",19-01-2024 02:00:00,28.588333,77.221667,PM10,102,210,136
India,Delhi,Delhi,"Lodhi Road, Delhi - IITM",19-01-2024 02:00:00,28.588333,77.221667,NO2,71,85,83
India,Delhi,Delhi,"Lodhi Road, Delhi - IITM",19-01-2024 02:00:00,28.588333,77.221667,NH3,9,12,10
India,Delhi,Delhi,"Lodhi Road, Delhi - IITM",19-01-2024 02:00:00,28.588333,77.221667,SO2,3,42,26
India,Delhi,Delhi,"Lodhi Road, Delhi - IMD",19-01-2024 02:00:00,28.5918245,77.2273074,PM10,123,333,215
India,Delhi,Delhi,"Major Dhyan Chand National Stadium, Delhi - DPCC",19-01-2024 02:00:00,28.611281,77.237738,CO,35,103,90
India,Delhi,Delhi,"Mandir Marg, Delhi - DPCC",19-01-2024 02:00:00,28.636429,77.201067,PM2.5,196,392,320
India,Delhi,Delhi,"Mandir Marg, Delhi - DPCC",19-01-2024 02:00:00,28.636429,77.201067,CO,38,104,93
India,Delhi,Delhi,"NSIT Dwarka, Delhi - CPCB",19-01-2024 02:00:00,28.60909,77.0325413,PM10,142,353,233
India,Delhi,Delhi,"NSIT Dwarka, Delhi - CPCB",19-01-2024 02:00:00,28.60909,77.0325413,SO2,3,19,14
India,Delhi,Delhi,"NSIT Dwarka, Delhi - CPCB",19-01-2024 02:00:00,28.60909,77.0325413,CO,38,102,79
India,Delhi,Delhi,"NSIT Dwarka, Delhi - CPCB",19-01-2024 02:00:00,28.60909,77.0325413,OZONE,8,61,21
India,Delhi,Delhi,"Najafgarh, Delhi - DPCC",19-01-2024 02:00:00,28.570173,76.933762,SO2,NA,NA,NA
India,Delhi,Delhi,"Narela, Delhi - DPCC",19-01-2024 02:00:00,28.822836,77.101981,NO2,46,100,62
India,Delhi,Delhi,"Nehru Nagar, Delhi - DPCC",19-01-2024 02:00:00,28.567890,77.250515,PM2.5,216,421,331
India,Delhi,Delhi,"Okhla Phase-2, Delhi - DPCC",19-01-2024 02:00:00,28.530785,77.271255,PM2.5,241,412,340
India,Delhi,Delhi,"Okhla Phase-2, Delhi - DPCC",19-01-2024 02:00:00,28.530785,77.271255,PM10,130,335,242
India,Delhi,Delhi,"Okhla Phase-2, Delhi - DPCC",19-01-2024 02:00:00,28.530785,77.271255,NH3,13,18,15
India,Delhi,Delhi,"Okhla Phase-2, Delhi - DPCC",19-01-2024 02:00:00,28.530785,77.271255,OZONE,9,53,12
India,Delhi,Delhi,"Patparganj, Delhi - DPCC",19-01-2024 02:00:00,28.623763,77.287209,PM2.5,199,406,323
India,Delhi,Delhi,"Patparganj, Delhi - DPCC",19-01-2024 02:00:00,28.623763,77.287209,CO,22,96,73
India,Delhi,Delhi,"Pusa, Delhi - DPCC",19-01-2024 02:00:00,28.639652,77.146275,NH3,15,32,22
India,Delhi,Delhi,"R K Puram, Delhi - DPCC",19-01-2024 02:00:00,28.563262,77.186937,PM10,115,332,205
India,Delhi,Delhi,"Rohini, Delhi - DPCC",19-01-2024 02:00:00,28.732528,77.119920,NO2,39,104,64
India,Delhi,Delhi,"Shadipur, Delhi - CPCB",19-01-2024 02:00:00,28.6514781,77.1473105,NH3,12,27,17
India,Delhi,Delhi,"Sirifort, Delhi - CPCB",19-01-2024 02:00:00,28.5504249,77.2159377,PM2.5,300,394,343
India,Delhi,Delhi,"Sirifort, Delhi - CPCB",19-01-2024 02:00:00,28.5504249,77.2159377,PM10,145,343,236
India,Delhi,Delhi,"Sirifort, Delhi - CPCB",19-01-2024 02:00:00,28.5504249,77.2159377,NH3,7,11,9
India,Delhi,Delhi,"Sonia Vihar, Delhi - DPCC",19-01-2024 02:00:00,28.710508,77.249485,NO2,42,123,67
India,Delhi,Delhi,"Sonia Vihar, Delhi - DPCC",19-01-2024 02:00:00,28.710508,77.249485,NH3,8,10,9
India,Delhi,Delhi,"Sonia Vihar, Delhi - DPCC",19-01-2024 02:00:00,28.710508,77.249485,OZONE,3,105,11
India,Delhi,Delhi,"Wazirpur, Delhi - DPCC",19-01-2024 02:00:00,28.699793,77.165453,NH3,4,7,5
India,Delhi,Delhi,"Wazirpur, Delhi - DPCC",19-01-2024 02:00:00,28.699793,77.165453,OZONE,2,59,5
India,Gujarat,Ahmedabad,"Chandkheda, Ahmedabad - IITM",19-01-2024 02:00:00,23.107969,72.574648,SO2,4,7,5
India,Gujarat,Ahmedabad,"Gyaspur, Ahmedabad - IITM",19-01-2024 02:00:00,22.977134,72.553024,OZONE,18,19,19
India,Gujarat,Ahmedabad,"Rakhial, Ahmedabad - IITM",19-01-2024 02:00:00,23.016834,72.625775,PM2.5,76,342,159
India,Gujarat,Ahmedabad,"Rakhial, Ahmedabad - IITM",19-01-2024 02:00:00,23.016834,72.625775,PM10,97,291,143
India,Gujarat,Ahmedabad,"Rakhial, Ahmedabad - IITM",19-01-2024 02:00:00,23.016834,72.625775,NH3,1,8,6
India,Gujarat,Ahmedabad,"Rakhial, Ahmedabad - IITM",19-01-2024 02:00:00,23.016834,72.625775,OZONE,1,46,9
India,Gujarat,Ahmedabad,"SAC ISRO Satellite, Ahmedabad - IITM",19-01-2024 02:00:00,23.023389,72.515201,NH3,2,4,3
India,Gujarat,Ahmedabad,"SAC ISRO Satellite, Ahmedabad - IITM",19-01-2024 02:00:00,23.023389,72.515201,OZONE,2,15,6
India,Gujarat,Ahmedabad,"SVPI Airport Hansol, Ahmedabad - IITM",19-01-2024 02:00:00,23.076793,72.627874,CO,26,111,70
India,Gujarat,Ahmedabad,"SVPI Airport Hansol, Ahmedabad - IITM",19-01-2024 02:00:00,23.076793,72.627874,OZONE,2,18,6
India,Gujarat,Ahmedabad,"Sardar Vallabhbhai Patel Stadium, Ahmedabad - IITM",19-01-2024 02:00:00,23.043070,72.562968,PM10,96,197,127
India,Gujarat,Ahmedabad,"Sardar Vallabhbhai Patel Stadium, Ahmedabad - IITM",19-01-2024 02:00:00,23.043070,72.562968,OZONE,1,14,5
India,Gujarat,Gandhinagar,"GIFT City, Gandhinagar - IITM",19-01-2024 02:00:00,23.163798,72.677768,PM2.5,41,140,78
India,Gujarat,Gandhinagar,"GIFT City, Gandhinagar - IITM",19-01-2024 02:00:00,23.163798,72.677768,SO2,5,8,6
India,Gujarat,Gandhinagar,"Sector-10, Gandhinagar - GPCB",19-01-2024 02:00:00,23.221714,72.654328,CO,19,20,20
India,Gujarat,Gandhinagar,"Sector-10, Gandhinagar - GPCB",19-01-2024 02:00:00,23.221714,72.654328,OZONE,1,45,6
India,Gujarat,Surat,"Science Center, Surat - SMC",19-01-2024 02:00:00,21.170046,72.795405,NO2,7,32,11
India,Gujarat,Vapi,"Phase-1 GIDC, Vapi - GPCB",19-01-2024 02:00:00,20.362421,72.918013,NH3,5,6,6
India,Haryana,Ambala,"Patti Mehar, Ambala - HSPCB",19-01-2024 02:00:00,30.379589,76.778328,SO2,1,12,5
India,Haryana,Ballabgarh,"Nathu Colony, Ballabgarh - HSPCB",19-01-2024 02:00:00,28.3419248,77.319699,OZONE,3,12,5
India,Haryana,Bhiwani,"H.B. Colony, Bhiwani - HSPCB",19-01-2024 02:00:00,28.806223,76.141105,CO,40,82,46
India,Haryana,Bhiwani,"H.B. Colony, Bhiwani - HSPCB",19-01-2024 02:00:00,28.806223,76.141105,OZONE,14,21,17
India,Haryana,Charkhi Dadri,"Mini Secretariat, Charkhi Dadri - HSPCB",19-01-2024 02:00:00,28.593883,76.270653,NO2,9,14,11
India,Haryana,Charkhi Dadri,"Mini Secretariat, Charkhi Dadri - HSPCB",19-01-2024 02:00:00,28.593883,76.270653,NH3,5,6,5
India,Haryana,Charkhi Dadri,"Mini Secretariat, Charkhi Dadri - HSPCB",19-01-2024 02:00:00,28.593883,76.270653,SO2,7,12,9
India,Haryana,Dharuhera,"Municipal Corporation Office, Dharuhera -  HSPCB",19-01-2024 02:00:00,28.206800,76.799700,PM2.5,45,338,162
India,Haryana,Faridabad,"New Industrial Town, Faridabad - HSPCB",19-01-2024 02:00:00,28.39072,77.30059,NO2,NA,NA,NA
India,Haryana,Faridabad,"Sector 11, Faridabad - HSPCB",19-01-2024 02:00:00,28.376058,77.315741,OZONE,3,6,4
India,Haryana,Faridabad,"Sector 30, Faridabad - HSPCB",19-01-2024 02:00:00,28.4417,77.3217,NO2,30,33,32
India,Haryana,Faridabad,"Sector 30, Faridabad - HSPCB",19-01-2024 02:00:00,28.4417,77.3217,OZONE,3,13,3
India,Haryana,Faridabad,"Sector- 16A, Faridabad - HSPCB",19-01-2024 02:00:00,28.4088421,77.3099081,CO,18,66,53
India,Haryana,Fatehabad,"Huda Sector, Fatehabad - HSPCB",19-01-2024 02:00:00,29.503664,75.467934,PM2.5,59,248,126
India,Haryana,Gurugram,"Sector-51, Gurugram - HSPCB",19-01-2024 02:00:00,28.4227,77.0667,PM10,93,187,138
India,Haryana,Gurugram,"Teri Gram, Gurugram - HSPCB",19-01-2024 02:00:00,28.4275,77.1465,PM2.5,54,324,181
India,Haryana,Gurugram,"Teri Gram, Gurugram - HSPCB",19-01-2024 02:00:00,28.4275,77.1465,NO2,13,39,26
India,Haryana,Hisar,"Urban Estate-II, Hisar - HSPCB",19-01-2024 02:00:00,29.140560,75.744941,PM10,65,195,101
India,Haryana,Hisar,"Urban Estate-II, Hisar - HSPCB",19-01-2024 02:00:00,29.140560,75.744941,NH3,2,4,3
India,Haryana,Hisar,"Urban Estate-II, Hisar - HSPCB",19-01-2024 02:00:00,29.140560,75.744941,SO2,1,58,23
India,Haryana,Jind,"Police Lines, Jind - HSPCB",19-01-2024 02:00:00,29.307814,76.337619,CO,22,26,24
India,Haryana,Karnal,"Sector-12, Karnal - HSPCB",19-01-2024 02:00:00,29.695300,77.002700,NO2,7,12,10
India,Haryana,Karnal,"Sector-12, Karnal - HSPCB",19-01-2024 02:00:00,29.695300,77.002700,NH3,10,13,11
India,Haryana,Mandikhera,"General Hospital, Mandikhera - HSPCB",19-01-2024 02:00:00,27.9002,76.9938,PM2.5,5,33,16
India,Haryana,Mandikhera,"General Hospital, Mandikhera - HSPCB",19-01-2024 02:00:00,27.9002,76.9938,PM10,70,109,90
India,Haryana,Mandikhera,"General Hospital, Mandikhera - HSPCB",19-01-2024 02:00:00,27.9002,76.9938,CO,40,103,49
India,Haryana,Mandikhera,"General Hospital, Mandikhera - HSPCB",19-01-2024 02:00:00,27.9002,76.9938,OZONE,21,34,27
India,Haryana,Narnaul,"Shastri Nagar, Narnaul - HSPCB",19-01-2024 02:00:00,28.060249,76.113115,NO2,17,49,33
India,Haryana,Panchkula,"Sector-6, Panchkula - HSPCB ",19-01-2024 02:00:00,30.7057778,76.8531805555555,PM2.5,24,331,200
India,Haryana,Rohtak,"MD University, Rohtak - HSPCB",19-01-2024 02:00:00,28.52123,76.37138,NO2,34,56,45
India,Haryana,Rohtak,"MD University, Rohtak - HSPCB",19-01-2024 02:00:00,28.52123,76.37138,CO,12,38,28
India,Haryana,Sirsa,"F-Block, Sirsa - HSPCB",19-01-2024 02:00:00,29.536400,75.015800,PM10,63,115,97
India,Haryana,Sirsa,"F-Block, Sirsa - HSPCB",19-01-2024 02:00:00,29.536400,75.015800,CO,62,78,66
India,Haryana,Yamuna Nagar,"Gobind Pura, Yamuna Nagar - HSPCB",19-01-2024 02:00:00,30.1480566,77.2893471,SO2,NA,NA,NA
India,Himachal Pradesh,Baddi,"HIMUDA Complex Phase-1, Baddi - HPPCB",19-01-2024 02:00:00,30.943887,76.801991,NO2,20,79,49
India,Himachal Pradesh,Baddi,"HIMUDA Complex Phase-1, Baddi - HPPCB",19-01-2024 02:00:00,30.943887,76.801991,NH3,7,13,9
India,Himachal Pradesh,Baddi,"HIMUDA Complex Phase-1, Baddi - HPPCB",19-01-2024 02:00:00,30.943887,76.801991,OZONE,9,83,27
India,Jharkhand,Dhanbad,"Kalakusuma, Dhanbad - DMC",19-01-2024 02:00:00,23.811548,86.481238,NO2,32,34,33
India,Jharkhand,Dhanbad,"Sardar Patel Nagar, Dhanbad - JSPCB",19-01-2024 02:00:00,23.80569,86.44268,NO2,NA,NA,NA
India,Karnataka,Bagalkot,"Vidayagiri, Bagalkot - KSPCB",19-01-2024 02:00:00,16.172806,75.659694,OZONE,6,49,24
India,Karnataka,Belgaum,"Ramteerth Nagar, Belgaum - KSPCB",19-01-2024 02:00:00,15.888653,74.541751,OZONE,19,20,19
India,Karnataka,Bengaluru,"Bapuji Nagar, Bengaluru - KSPCB",19-01-2024 02:00:00,12.951913,77.539784,SO2,5,8,6
India,Karnataka,Bengaluru,"City Railway Station, Bengaluru - KSPCB",19-01-2024 02:00:00,12.9756843,77.5660749,SO2,13,13,13
India,Karnataka,Bengaluru,"City Railway Station, Bengaluru - KSPCB",19-01-2024 02:00:00,12.9756843,77.5660749,CO,52,111,81
India,Karnataka,Bengaluru,"Hebbal, Bengaluru - KSPCB",19-01-2024 02:00:00,13.029152,77.585901,OZONE,7,41,8
India,Karnataka,Bengaluru,"Hombegowda Nagar, Bengaluru - KSPCB",19-01-2024 02:00:00,12.938539,77.590100,PM2.5,39,169,70
India,Karnataka,Bengaluru,"Hombegowda Nagar, Bengaluru - KSPCB",19-01-2024 02:00:00,12.938539,77.590100,NO2,35,46,40
India,Karnataka,Bengaluru,"Jigani, Bengaluru - KSPCB",19-01-2024 02:00:00,12.7816279,77.6299145,NH3,2,2,2
India,Karnataka,Bengaluru,"Jigani, Bengaluru - KSPCB",19-01-2024 02:00:00,12.7816279,77.6299145,CO,48,80,65
India,Karnataka,Bengaluru,"Jigani, Bengaluru - KSPCB",19-01-2024 02:00:00,12.7816279,77.6299145,OZONE,26,85,35
India,Karnataka,Bengaluru,"Kasturi Nagar, Bengaluru - KSPCB",19-01-2024 02:00:00,13.003872,77.664217,PM2.5,69,381,121
India,Karnataka,Bengaluru,"Kasturi Nagar, Bengaluru - KSPCB",19-01-2024 02:00:00,13.003872,77.664217,PM10,96,473,150
India,Karnataka,Bengaluru,"Kasturi Nagar, Bengaluru - KSPCB",19-01-2024 02:00:00,13.003872,77.664217,NH3,3,4,4
India,Karnataka,Bengaluru,"Peenya, Bengaluru - CPCB",19-01-2024 02:00:00,13.0270199,77.494094,PM2.5,32,91,36
India,Karnataka,Bengaluru,"Peenya, Bengaluru - CPCB",19-01-2024 02:00:00,13.0270199,77.494094,NH3,5,6,5
India,Karnataka,Bengaluru,"RVCE-Mailasandra, Bengaluru - KSPCB",19-01-2024 02:00:00,12.921418,77.502466,NH3,4,4,4
India,Karnataka,Bengaluru,"Silk Board, Bengaluru - KSPCB",19-01-2024 02:00:00,12.917348,77.622813,PM10,63,191,111
India,Karnataka,Bengaluru,"Silk Board, Bengaluru - KSPCB",19-01-2024 02:00:00,12.917348,77.622813,NO2,13,26,19
India,Karnataka,Bengaluru,"Silk Board, Bengaluru - KSPCB",19-01-2024 02:00:00,12.917348,77.622813,OZONE,28,30,30
India,Karnataka,Bidar,"Naubad, Bidar - KSPCB",19-01-2024 02:00:00,17.930306,77.482194,NH3,2,3,3
India,Karnataka,Chikkamagaluru,"Kalyana Nagara, Chikkamagaluru - KSPCB",19-01-2024 02:00:00,13.328028,75.797056,NH3,3,4,3
India,Karnataka,Chikkamagaluru,"Kalyana Nagara, Chikkamagaluru - KSPCB",19-01-2024 02:00:00,13.328028,75.797056,CO,11,106,35
India,Karnataka,Davanagere,"Devaraj Urs Badavane, Davanagere - KSPCB",19-01-2024 02:00:00,14.475800,75.905200,NO2,5,14,9
India,Karnataka,Dharwad,"Kalabhavan, Dharwad - KSPCB",19-01-2024 02:00:00,15.459706,75.008381,CO,29,117,83
India,Karnataka,Gadag,"Panchal Nagar, Gadag - KSPCB",19-01-2024 02:00:00,15.411456,75.638133,OZONE,17,57,31
India,Karnataka,Hassan,"B.Katihalli, Hassan - KSPCB",19-01-2024 02:00:00,13.008556,76.125258,NH3,NA,NA,NA
India,Karnataka,Hassan,"B.Katihalli, Hassan - KSPCB",19-01-2024 02:00:00,13.008556,76.125258,SO2,NA,NA,NA
India,Karnataka,Haveri,"Ashwini Nagar, Haveri - KSPCB",19-01-2024 02:00:00,14.791800,75.389600,NO2,NA,NA,NA
India,Karnataka,Hubballi,"Deshpande Nagar, Hubballi - KSPCB",19-01-2024 02:00:00,15.351773,75.140726,PM10,70,141,107
India,Karnataka,Hubballi,"Deshpande Nagar, Hubballi - KSPCB",19-01-2024 02:00:00,15.351773,75.140726,NO2,19,26,24
India,Karnataka,Hubballi,"Lingaraj Nagar, Hubballi - KSPCB",19-01-2024 02:00:00,15.3714823,75.1160168,NO2,16,16,16
India,Karnataka,Hubballi,"Lingaraj Nagar, Hubballi - KSPCB",19-01-2024 02:00:00,15.3714823,75.1160168,NH3,2,2,2
India,Karnataka,Hubballi,"Lingaraj Nagar, Hubballi - KSPCB",19-01-2024 02:00:00,15.3714823,75.1160168,OZONE,7,97,16
India,Karnataka,Kalaburagi,"Lal Bahadur Shastri Nagar, Kalaburagi - KSPCB",19-01-2024 02:00:00,17.321993,76.822628,OZONE,10,71,38
India,Karnataka,Karwar,"KHB Colony, Karwar - KSPCB",19-01-2024 02:00:00,14.816666,74.141003,SO2,18,18,18
India,Karnataka,Karwar,"KHB Colony, Karwar - KSPCB",19-01-2024 02:00:00,14.816666,74.141003,CO,1,152,14
India,Karnataka,Kolar,"Tamaka Ind. Area, Kolar - KSPCB",19-01-2024 02:00:00,13.1276288,78.1570122,NO2,2,22,6
India,Karnataka,Koppal,"Diwator Nagar, Koppal - KSPCB",19-01-2024 02:00:00,15.347630,76.181767,PM10,67,197,105
India,Karnataka,Koppal,"Diwator Nagar, Koppal - KSPCB",19-01-2024 02:00:00,15.347630,76.181767,CO,90,122,102
India,Karnataka,Madikeri,"Stuart Hill, Madikeri - KSPCB",19-01-2024 02:00:00,12.415911,75.735050,PM10,29,53,37
India,Karnataka,Madikeri,"Stuart Hill, Madikeri - KSPCB",19-01-2024 02:00:00,12.415911,75.735050,CO,6,36,22
India,Karnataka,Mangalore,"Kadri, Mangalore - KSPCB",19-01-2024 02:00:00,12.889250,74.853000,OZONE,30,32,31
India,Karnataka,Mysuru,"Hebbal 1st Stage, Mysuru - KSPCB",19-01-2024 02:00:00,12.21041,76.37376,SO2,1,7,3
India,Karnataka,Ramanagara,"Vijay Nagar, Ramanagara - KSPCB",19-01-2024 02:00:00,12.733409,77.298051,PM2.5,66,111,86
India,Karnataka,Ramanagara,"Vijay Nagar, Ramanagara - KSPCB",19-01-2024 02:00:00,12.733409,77.298051,PM10,50,102,65
India,Karnataka,Ramanagara,"Vijay Nagar, Ramanagara - KSPCB",19-01-2024 02:00:00,12.733409,77.298051,SO2,25,36,30
India,Karnataka,Shivamogga,"Vinoba Nagara, Shivamogga - KSPCB",19-01-2024 02:00:00,13.940000,75.555917,NH3,2,18,7
India,Karnataka,Tumakuru,"Thimmalapura, Tumakuru - KSPCB",19-01-2024 02:00:00,13.377516,77.099072,PM2.5,57,320,102
India,Karnataka,Tumakuru,"Thimmalapura, Tumakuru - KSPCB",19-01-2024 02:00:00,13.377516,77.099072,PM10,98,414,152
India,Karnataka,Tumakuru,"Thimmalapura, Tumakuru - KSPCB",19-01-2024 02:00:00,13.377516,77.099072,CO,NA,NA,NA
India,Karnataka,Udupi,"Brahmagiri, Udupi - KSPCB",19-01-2024 02:00:00,13.34194444,74.74694444,NO2,13,14,14
India,Karnataka,Udupi,"Brahmagiri, Udupi - KSPCB",19-01-2024 02:00:00,13.34194444,74.74694444,CO,40,46,41
India,Karnataka,Udupi,"Brahmagiri, Udupi - KSPCB",19-01-2024 02:00:00,13.34194444,74.74694444,OZONE,23,23,23
India,Karnataka,Vijayapura,"Ibrahimpur, Vijayapura - KSPCB",19-01-2024 02:00:00,16.802639,75.722694,NH3,2,2,2
India,Karnataka,Vijayapura,"Ibrahimpur, Vijayapura - KSPCB",19-01-2024 02:00:00,16.802639,75.722694,OZONE,13,15,15
India,Karnataka,Yadgir,"Collector Office, Yadgir - KSPCB",19-01-2024 02:00:00,16.7602,77.1428,PM2.5,55,83,66
India,Karnataka,Yadgir,"Collector Office, Yadgir - KSPCB",19-01-2024 02:00:00,16.7602,77.1428,NH3,1,1,1
India,Kerala,Eloor,"Udyogamandal, Eloor - Kerala PCB",19-01-2024 02:00:00,10.073232,76.302765,PM10,47,66,55
India,Kerala,Eloor,"Udyogamandal, Eloor - Kerala PCB",19-01-2024 02:00:00,10.073232,76.302765,OZONE,3,104,25
India,Kerala,Kochi,"Vyttila, Kochi - Kerala PCB",19-01-2024 02:00:00,9.969447,76.321186,PM2.5,48,48,48
India,Kerala,Kochi,"Vyttila, Kochi - Kerala PCB",19-01-2024 02:00:00,9.969447,76.321186,PM10,59,210,108
India,Kerala,Kochi,"Vyttila, Kochi - Kerala PCB",19-01-2024 02:00:00,9.969447,76.321186,NO2,2,8,4
India,Kerala,Kochi,"Vyttila, Kochi - Kerala PCB",19-01-2024 02:00:00,9.969447,76.321186,CO,44,57,45
India,Kerala,Kollam,"Polayathode, Kollam - Kerala PCB",19-01-2024 02:00:00,8.8787,76.6073,NH3,1,1,1
India,Kerala,Kollam,"Polayathode, Kollam - Kerala PCB",19-01-2024 02:00:00,8.8787,76.6073,SO2,1,28,6
India,Kerala,Thiruvananthapuram,"Plammoodu, Thiruvananthapuram - Kerala PCB",19-01-2024 02:00:00,8.5149093,76.9435879,PM2.5,32,80,50
India,Kerala,Thiruvananthapuram,"Plammoodu, Thiruvananthapuram - Kerala PCB",19-01-2024 02:00:00,8.5149093,76.9435879,CO,20,34,28
India,Kerala,Thrissur,"Corporation Ground, Thrissur - Kerala PCB",19-01-2024 02:00:00,10.532400,76.215900,CO,14,126,61
India,Madhya Pradesh,Bhopal,"Idgah Hills, Bhopal - MPPCB",19-01-2024 02:00:00,23.264759,77.381568,NH3,NA,NA,NA
India,Madhya Pradesh,Bhopal,"Idgah Hills, Bhopal - MPPCB",19-01-2024 02:00:00,23.264759,77.381568,CO,NA,NA,NA
India,Madhya Pradesh,Damoh,"Shrivastav Colony, Damoh - MPPCB",19-01-2024 02:00:00,23.81748678,79.446246,PM2.5,22,56,35
India,Madhya Pradesh,Damoh,"Shrivastav Colony, Damoh - MPPCB",19-01-2024 02:00:00,23.81748678,79.446246,CO,24,26,24
India,Madhya Pradesh,Dewas,"Bhopal Chauraha, Dewas - MPPCB",19-01-2024 02:00:00,22.9682591,76.064118,SO2,30,58,40
India,Madhya Pradesh,Gwalior,"City Center, Gwalior - MPPCB",19-01-2024 02:00:00,26.203442,78.193251,CO,39,103,74
India,Madhya Pradesh,Gwalior,"Deen Dayal Nagar, Gwalior - MPPCB",19-01-2024 02:00:00,26.259242,78.216432,NH3,5,9,7
India,Madhya Pradesh,Gwalior,"Maharaj Bada, Gwalior - MPPCB",19-01-2024 02:00:00,26.200388,78.147714,PM2.5,88,335,214
India,Madhya Pradesh,Gwalior,"Maharaj Bada, Gwalior - MPPCB",19-01-2024 02:00:00,26.200388,78.147714,PM10,118,358,203
India,Madhya Pradesh,Gwalior,"Maharaj Bada, Gwalior - MPPCB",19-01-2024 02:00:00,26.200388,78.147714,NH3,4,7,5
India,Madhya Pradesh,Gwalior,"Maharaj Bada, Gwalior - MPPCB",19-01-2024 02:00:00,26.200388,78.147714,SO2,8,15,10
India,Madhya Pradesh,Gwalior,"Maharaj Bada, Gwalior - MPPCB",19-01-2024 02:00:00,26.200388,78.147714,CO,28,119,91
India,Madhya Pradesh,Gwalior,"Phool Bagh, Gwalior - Mondelez Ind. Food",19-01-2024 02:00:00,26.210536,78.171,SO2,10,13,11
India,Madhya Pradesh,Indore,"Maguda Nagar, Indore - IMC",19-01-2024 02:00:00,22.7524,75.8872,NH3,1,1,1
India,Madhya Pradesh,Indore,"Maguda Nagar, Indore - IMC",19-01-2024 02:00:00,22.7524,75.8872,SO2,22,29,25
India,Madhya Pradesh,Indore,"Maguda Nagar, Indore - IMC",19-01-2024 02:00:00,22.7524,75.8872,OZONE,38,42,39
India,Madhya Pradesh,Indore,"Regional Park, Indore - IMC",19-01-2024 02:00:00,22.6780,75.8559,PM10,29,110,57
India,Madhya Pradesh,Indore,"Regional Park, Indore - IMC",19-01-2024 02:00:00,22.6780,75.8559,SO2,44,48,46
India,Madhya Pradesh,Indore,"Residency Area, Indore - IMC",19-01-2024 02:00:00,22.7084,75.8815,PM10,38,148,69
India,Madhya Pradesh,Indore,"Residency Area, Indore - IMC",19-01-2024 02:00:00,22.7084,75.8815,NO2,34,55,42
India,Madhya Pradesh,Jabalpur,"Gupteshwar, Jabalpur - JMC",19-01-2024 02:00:00,23.142888,79.916147,NH3,5,9,6
India,Madhya Pradesh,Jabalpur,"Marhatal, Jabalpur - MPPCB",19-01-2024 02:00:00,23.168606,79.932247,PM2.5,97,352,274
India,Madhya Pradesh,Jabalpur,"Marhatal, Jabalpur - MPPCB",19-01-2024 02:00:00,23.168606,79.932247,SO2,16,31,18
India,Madhya Pradesh,Jabalpur,"Marhatal, Jabalpur - MPPCB",19-01-2024 02:00:00,23.168606,79.932247,OZONE,18,71,37
India,Madhya Pradesh,Katni,"Gole Bazar, Katni - MPPCB",19-01-2024 02:00:00,23.50016,80.23284,NH3,6,8,8
India,Madhya Pradesh,Katni,"Gole Bazar, Katni - MPPCB",19-01-2024 02:00:00,23.50016,80.23284,CO,45,104,78
India,Madhya Pradesh,Maihar,"Sahilara, Maihar - KJS Cements",19-01-2024 02:00:00,24.2613009,80.7231783,CO,66,92,78
India,Madhya Pradesh,Mandideep,"Sector-D Industrial Area, Mandideep - MPPCB",19-01-2024 02:00:00,23.108440,77.511428,NO2,47,97,69
India,Madhya Pradesh,Pithampur,"Sector-2 Industrial Area, Pithampur - MPPCB",19-01-2024 02:00:00,22.624758,75.675238,NH3,2,3,2
India,Madhya Pradesh,Ratlam,"Shasthri Nagar, Ratlam - IPCA Lab",19-01-2024 02:00:00,23.331731,75.045981,NO2,1,93,23
India,Madhya Pradesh,Sagar,"Civil Lines, Sagar - MPPCB",19-01-2024 02:00:00,23.838586,78.759431,SO2,4,6,4
India,Madhya Pradesh,Sagar,"Civil Lines, Sagar - MPPCB",19-01-2024 02:00:00,23.838586,78.759431,OZONE,39,52,41
India,Madhya Pradesh,Sagar,"Deen Dayal Nagar, Sagar - MPPCB",19-01-2024 02:00:00,23.8640158,78.80289321,NO2,21,23,22
India,Maharashtra,Ahmednagar,"Tarakpur, Ahmednagar - MPCB",19-01-2024 02:00:00,19.10122,74.73339,PM2.5,36,138,79
India,Maharashtra,Ahmednagar,"Tarakpur, Ahmednagar - MPCB",19-01-2024 02:00:00,19.10122,74.73339,PM10,85,163,113
India,Maharashtra,Ahmednagar,"Tarakpur, Ahmednagar - MPCB",19-01-2024 02:00:00,19.10122,74.73339,NO2,23,132,59
India,Maharashtra,Amravati,"Shri Shivaji Science College, Amaravati - MPCB",19-01-2024 02:00:00,20.939198,77.765701,NO2,11,104,25
India,Maharashtra,Aurangabad,"MIDC Chilkalthana, Aurangabad - MPCB",19-01-2024 02:00:00,19.875620,75.387310,PM2.5,97,312,181
India,Maharashtra,Aurangabad,"MIDC Chilkalthana, Aurangabad - MPCB",19-01-2024 02:00:00,19.875620,75.387310,PM10,92,218,134
India,Maharashtra,Aurangabad,"MIDC Chilkalthana, Aurangabad - MPCB",19-01-2024 02:00:00,19.875620,75.387310,NO2,8,158,52
India,Maharashtra,Aurangabad,"MIDC Chilkalthana, Aurangabad - MPCB",19-01-2024 02:00:00,19.875620,75.387310,SO2,5,16,10
India,Maharashtra,Aurangabad,"MIDC Chilkalthana, Aurangabad - MPCB",19-01-2024 02:00:00,19.875620,75.387310,CO,26,94,65
India,Maharashtra,Badlapur,"Katrap, Badlapur - MPCB",19-01-2024 02:00:00,19.16485,73.23409,CO,23,82,48
India,Maharashtra,Belapur,"CBD Belapur, Belapur - MPCB",19-01-2024 02:00:00,19.0243902,73.0406721,PM10,91,152,116
India,Maharashtra,Belapur,"CBD Belapur, Belapur - MPCB",19-01-2024 02:00:00,19.0243902,73.0406721,NO2,23,77,45
India,Maharashtra,Belapur,"CBD Belapur, Belapur - MPCB",19-01-2024 02:00:00,19.0243902,73.0406721,CO,20,66,27
India,Maharashtra,Boisar,"Khaira, Boisar - MPCB",19-01-2024 02:00:00,19.786089,72.757971,PM10,106,157,126
India,Maharashtra,Boisar,"Khaira, Boisar - MPCB",19-01-2024 02:00:00,19.786089,72.757971,NO2,14,44,24
India,Maharashtra,Chandrapur,"MIDC Khutala, Chandrapur - MPCB",19-01-2024 02:00:00,19.9775302,79.2337086,OZONE,1,1,1
India,Maharashtra,Dhule,"Deopur, Dhule - MPCB",19-01-2024 02:00:00,20.918946,74.776388,OZONE,1,97,18
India,Maharashtra,Jalgaon,"Prabhat Colony, Jalgaon - MPCB",19-01-2024 02:00:00,21.001264,75.565602,PM2.5,67,118,90
India,Maharashtra,Jalgaon,"Prabhat Colony, Jalgaon - MPCB",19-01-2024 02:00:00,21.001264,75.565602,NO2,18,115,45
India,Maharashtra,Jalgaon,"Prabhat Colony, Jalgaon - MPCB",19-01-2024 02:00:00,21.001264,75.565602,NH3,4,11,7
India,Maharashtra,Jalna,"Old MIDC, Jalna - MPCB",19-01-2024 02:00:00,19.854616,75.905894,CO,32,52,47
India,Maharashtra,Kalyan,"Khadakpada, Kalyan - MPCB",19-01-2024 02:00:00,19.25292,73.142019,PM10,92,131,114
India,Maharashtra,Kalyan,"Khadakpada, Kalyan - MPCB",19-01-2024 02:00:00,19.25292,73.142019,NO2,18,50,31
India,Maharashtra,Kalyan,"Khadakpada, Kalyan - MPCB",19-01-2024 02:00:00,19.25292,73.142019,SO2,16,43,27
India,Maharashtra,Kolhapur,"Shivaji University, Kolhapur - MPCB",19-01-2024 02:00:00,16.6870449,74.2505872,PM2.5,77,138,89
India,Maharashtra,Kolhapur,"Shivaji University, Kolhapur - MPCB",19-01-2024 02:00:00,16.6870449,74.2505872,CO,81,106,99
India,Maharashtra,Kolhapur,"Sinchan Bhavan, Kolhapur - MPCB",19-01-2024 02:00:00,16.7143745,74.2426398,PM2.5,76,91,80
India,Maharashtra,Latur,"Sawe Wadi, Latur - MPCB",19-01-2024 02:00:00,18.39963,76.57452,PM10,54,152,101
India,Maharashtra,Latur,"Sawe Wadi, Latur - MPCB",19-01-2024 02:00:00,18.39963,76.57452,NH3,8,8,8
India,Maharashtra,Mahad,"Kamble Tarf Birwadi, Mahad - MPCB",19-01-2024 02:00:00,18.1023399,73.4783687,PM10,69,161,103
India,Maharashtra,Mahad,"Kamble Tarf Birwadi, Mahad - MPCB",19-01-2024 02:00:00,18.1023399,73.4783687,NH3,4,6,5
India,Maharashtra,Malegaon,"Mahesh Nagar, Malegaon - MPCB",19-01-2024 02:00:00,20.555712,74.529236,CO,18,76,40
India,Maharashtra,Mira-Bhayandar,"Bhayandar West, Mira-Bhayandar - MPCB",19-01-2024 02:00:00,19.296481,72.840923,PM2.5,51,163,91
India,Maharashtra,Mira-Bhayandar,"Bhayandar West, Mira-Bhayandar - MPCB",19-01-2024 02:00:00,19.296481,72.840923,NH3,4,9,6
India,Maharashtra,Mumbai,"Bandra Kurla Complex, Mumbai - MPCB",19-01-2024 02:00:00,19.065931,72.862131,NO2,12,59,34
India,Maharashtra,Mumbai,"Bandra Kurla Complex, Mumbai - MPCB",19-01-2024 02:00:00,19.065931,72.862131,CO,19,98,43
India,Maharashtra,Mumbai,"Borivali East, Mumbai - IITM",19-01-2024 02:00:00,19.23241,72.86895,OZONE,11,88,35
India,Maharashtra,Mumbai,"Borivali East, Mumbai - MPCB",19-01-2024 02:00:00,19.2243333,72.8658113,OZONE,7,9,9
India,Maharashtra,Mumbai,"Byculla, Mumbai - BMC",19-01-2024 02:00:00,18.9767,72.8380,NO2,21,88,53
India,Maharashtra,Mumbai,"Byculla, Mumbai - BMC",19-01-2024 02:00:00,18.9767,72.8380,NH3,2,9,5
India,Maharashtra,Mumbai,"Chhatrapati Shivaji Intl. Airport (T2), Mumbai - MPCB",19-01-2024 02:00:00,19.10078,72.87462,CO,40,91,55
India,Maharashtra,Mumbai,"Ghatkopar, Mumbai - BMC",19-01-2024 02:00:00,19.083694,72.920967,NH3,NA,NA,NA
India,Maharashtra,Mumbai,"Ghatkopar, Mumbai - BMC",19-01-2024 02:00:00,19.083694,72.920967,CO,11,38,21
India,Maharashtra,Mumbai,"Kandivali East, Mumbai - MPCB",19-01-2024 02:00:00,19.205800,72.868200,NH3,6,9,7
India,Maharashtra,Mumbai,"Kandivali East, Mumbai - MPCB",19-01-2024 02:00:00,19.205800,72.868200,SO2,84,104,96
India,Maharashtra,Mumbai,"Kherwadi_Bandra East, Mumbai - MPCB",19-01-2024 02:00:00,19.0632143,72.8456324,PM2.5,57,288,133
India,Maharashtra,Mumbai,"Khindipada-Bhandup West, Mumbai - IITM",19-01-2024 02:00:00,19.1653323,72.922099,PM10,82,147,109
India,Maharashtra,Mumbai,"Kurla, Mumbai - MPCB",19-01-2024 02:00:00,19.0863,72.8888,NO2,15,39,27
India,Maharashtra,Mumbai,"Kurla, Mumbai - MPCB",19-01-2024 02:00:00,19.0863,72.8888,OZONE,13,39,30
India,Maharashtra,Mumbai,"Mazgaon, Mumbai - IITM",19-01-2024 02:00:00,18.96702,72.84214,PM2.5,107,292,167
India,Maharashtra,Mumbai,"Mindspace-Malad West, Mumbai - MPCB",19-01-2024 02:00:00,19.1878657,72.8304069,PM2.5,44,109,78
India,Maharashtra,Mumbai,"Mindspace-Malad West, Mumbai - MPCB",19-01-2024 02:00:00,19.1878657,72.8304069,CO,19,75,50
India,Maharashtra,Mumbai,"Mulund West, Mumbai - MPCB",19-01-2024 02:00:00,19.1750,72.9419,PM2.5,34,112,54
India,Maharashtra,Mumbai,"Mulund West, Mumbai - MPCB",19-01-2024 02:00:00,19.1750,72.9419,NO2,22,26,23
India,Maharashtra,Mumbai,"Mulund West, Mumbai - MPCB",19-01-2024 02:00:00,19.1750,72.9419,NH3,9,10,9
India,Maharashtra,Mumbai,"Navy Nagar-Colaba, Mumbai - IITM",19-01-2024 02:00:00,18.897756,72.813320,NO2,34,67,47
India,Maharashtra,Mumbai,"Navy Nagar-Colaba, Mumbai - IITM",19-01-2024 02:00:00,18.897756,72.813320,NH3,16,22,19
India,Maharashtra,Mumbai,"Powai, Mumbai - MPCB",19-01-2024 02:00:00,19.137500,72.915056,PM2.5,44,97,58
India,Maharashtra,Mumbai,"Sion, Mumbai - MPCB",19-01-2024 02:00:00,19.047000,72.874600,PM2.5,48,184,80
India,Maharashtra,Mumbai,"Vasai West, Mumbai - MPCB",19-01-2024 02:00:00,19.383200,72.820400,PM10,42,172,92
India,Maharashtra,Mumbai,"Vasai West, Mumbai - MPCB",19-01-2024 02:00:00,19.383200,72.820400,OZONE,5,59,40
India,Maharashtra,Mumbai,"Vile Parle West, Mumbai - MPCB",19-01-2024 02:00:00,19.10861,72.83622,PM2.5,33,70,53
India,Maharashtra,Mumbai,"Vile Parle West, Mumbai - MPCB",19-01-2024 02:00:00,19.10861,72.83622,NO2,6,37,19
India,Maharashtra,Mumbai,"Vile Parle West, Mumbai - MPCB",19-01-2024 02:00:00,19.10861,72.83622,SO2,14,14,14
India,Maharashtra,Mumbai,"Worli, Mumbai - MPCB",19-01-2024 02:00:00,18.9936162,72.8128113,PM2.5,32,144,53
India,Maharashtra,Nagpur,"Ambazari, Nagpur - MPCB",19-01-2024 02:00:00,21.121801,79.04952,NH3,NA,NA,NA
India,Maharashtra,Nagpur,"Ambazari, Nagpur - MPCB",19-01-2024 02:00:00,21.121801,79.04952,CO,22,33,28
India,Maharashtra,Nagpur,"Opp GPO Civil Lines, Nagpur - MPCB",19-01-2024 02:00:00,21.152875,79.0517531,OZONE,3,92,51
India,Maharashtra,Nagpur,"Ram Nagar, Nagpur - MPCB",19-01-2024 02:00:00,21.143383,79.048912,PM2.5,71,116,95
India,Maharashtra,Nanded,"Sneh Nagar, Nanded - MPCB",19-01-2024 02:00:00,19.173852,77.296291,SO2,1,12,8
India,Maharashtra,Nashik,"Hirawadi, Nashik - MPCB",19-01-2024 02:00:00,20.021503,73.813844,OZONE,12,171,101
India,Maharashtra,Nashik,"MIDC Ambad, Nashik - MPCB",19-01-2024 02:00:00,19.950220,73.731480,PM2.5,76,146,111
India,Maharashtra,Nashik,"MIDC Ambad, Nashik - MPCB",19-01-2024 02:00:00,19.950220,73.731480,CO,26,76,39
India,Maharashtra,Navi Mumbai,"Nerul, Navi Mumbai - MPCB",19-01-2024 02:00:00,19.008751,73.016620,PM2.5,44,147,79
India,Maharashtra,Navi Mumbai,"Nerul, Navi Mumbai - MPCB",19-01-2024 02:00:00,19.008751,73.016620,NO2,21,35,27
India,Maharashtra,Navi Mumbai,"Nerul, Navi Mumbai - MPCB",19-01-2024 02:00:00,19.008751,73.016620,NH3,3,5,4
India,Maharashtra,Navi Mumbai,"Sanpada, Navi Mumbai - MPCB",19-01-2024 02:00:00,19.0575752,73.0151367,PM10,78,390,130
India,Maharashtra,Navi Mumbai,"Sanpada, Navi Mumbai - MPCB",19-01-2024 02:00:00,19.0575752,73.0151367,CO,21,54,39
India,Maharashtra,Navi Mumbai,"Sector-19A Nerul, Navi Mumbai - IITM",19-01-2024 02:00:00,19.044,73.0325,SO2,11,54,27
India,Maharashtra,Navi Mumbai,"Sector-2E Kalamboli, Navi Mumbai - MPCB",19-01-2024 02:00:00,19.02579,73.10297,SO2,2,34,15
India,Maharashtra,Navi Mumbai,"Tondare-Taloja, Navi Mumbai - MPCB",19-01-2024 02:00:00,19.0630,73.1209,PM10,103,163,126
India,Maharashtra,Parbhani,"Masoom Colony, Parbhani - MPCB",19-01-2024 02:00:00,19.265594,76.761463,NH3,3,4,4
India,Maharashtra,Pune,"Alandi, Pune - IITM",19-01-2024 02:00:00,18.675076,73.892743,OZONE,1,17,8
India,Maharashtra,Pune,"Bhosari, Pune - IITM",19-01-2024 02:00:00,18.640051,73.848956,CO,26,64,49
India,Maharashtra,Pune,"Karve Road, Pune - MPCB",19-01-2024 02:00:00,18.5011743,73.8165527,PM2.5,66,74,68
India,Maharashtra,Pune,"Katraj Dairy, Pune - MPCB",19-01-2024 02:00:00,18.454450,73.854155,NH3,2,6,3
India,Maharashtra,Pune,"Revenue Colony-Shivajinagar, Pune - IITM",19-01-2024 02:00:00,18.530085,73.849598,PM2.5,41,98,63
India,Maharashtra,Pune,"Savitribai Phule Pune University, Pune - MPCB",19-01-2024 02:00:00,18.547056,73.826908,CO,10,42,30
India,Maharashtra,Pune,"Transport Nagar-Nigdi, Pune - IITM",19-01-2024 02:00:00,18.664282,73.763966,CO,30,100,56
India,Maharashtra,Solapur,"Dnyaneshwar Nagar, Solapur - MPCB",19-01-2024 02:00:00,17.6336264,75.9132495,NO2,12,84,36
India,Maharashtra,Solapur,"Ratandeep Housing Society, Solapur - MPCB",19-01-2024 02:00:00,17.65439,75.90649,NO2,27,126,64
India,Maharashtra,Thane,"Kasarvadavali, Thane - MPCB",19-01-2024 02:00:00,19.26777,72.97182,PM10,127,215,155
India,Maharashtra,Thane,"Kasarvadavali, Thane - MPCB",19-01-2024 02:00:00,19.26777,72.97182,CO,6,52,22
India,Maharashtra,Thane,"Upvan Fort, Thane - MPCB",19-01-2024 02:00:00,19.222279,72.957979,PM2.5,72,289,125
India,Maharashtra,Thane,"Upvan Fort, Thane - MPCB",19-01-2024 02:00:00,19.222279,72.957979,SO2,20,52,28
India,Maharashtra,Ulhasnagar,"Sidhi Vinayak Nagar, Ulhasnagar - MPCB",19-01-2024 02:00:00,19.235581,73.159121,NH3,4,4,4
India,Maharashtra,Ulhasnagar,"Sidhi Vinayak Nagar, Ulhasnagar - MPCB",19-01-2024 02:00:00,19.235581,73.159121,SO2,20,118,47
India,Maharashtra,Virar,"Bolinj, Virar - MPCB",19-01-2024 02:00:00,19.4458210,72.7988231,PM2.5,61,117,83
India,Maharashtra,Virar,"Bolinj, Virar - MPCB",19-01-2024 02:00:00,19.4458210,72.7988231,NO2,11,67,32
India,Maharashtra,Virar,"Bolinj, Virar - MPCB",19-01-2024 02:00:00,19.4458210,72.7988231,NH3,4,7,5
India,Maharashtra,Virar,"Bolinj, Virar - MPCB",19-01-2024 02:00:00,19.4458210,72.7988231,OZONE,1,94,76
India,Manipur,Imphal,"DM College of Science, Imphal - Manipur PCB",19-01-2024 02:00:00,24.8207389,93.9423085,PM2.5,14,87,29
India,Manipur,Imphal,"Manipur University, Imphal - Manipur PCB",19-01-2024 02:00:00,24.7524239,93.9286218,NO2,7,34,12
India,Meghalaya,Shillong,"Lumpyngngad, Shillong - Meghalaya PCB",19-01-2024 02:00:00,25.5586,91.8985,PM10,15,101,56
India,Meghalaya,Shillong,"Lumpyngngad, Shillong - Meghalaya PCB",19-01-2024 02:00:00,25.5586,91.8985,NH3,1,1,1
India,Mizoram,Aizawl,"Sikulpuikawn, Aizawl - Mizoram PCB",19-01-2024 02:00:00,23.7176342,92.7192841,NO2,1,4,1
India,Nagaland,Kohima,"PWD Juction, Kohima - NPCB",19-01-2024 02:00:00,25.6635413,94.0989878,NH3,1,1,1
India,Odisha,Angul,"Hakimapada, Angul - OSPCB",19-01-2024 02:00:00,20.832874,85.104082,NO2,8,63,25
India,Odisha,Balasore,"Kalidaspur, Balasore - OSPCB",19-01-2024 02:00:00,21.51161,86.89088,NO2,13,34,23
India,Odisha,Balasore,"Kalidaspur, Balasore - OSPCB",19-01-2024 02:00:00,21.51161,86.89088,SO2,16,46,24
India,Odisha,Balasore,"Kalidaspur, Balasore - OSPCB",19-01-2024 02:00:00,21.51161,86.89088,OZONE,7,48,11
India,Odisha,Barbil,"Forest Office, Barbil - OSPCB",19-01-2024 02:00:00,22.1166054,85.3945546,PM10,40,223,100
India,Odisha,Barbil,"Forest Office, Barbil - OSPCB",19-01-2024 02:00:00,22.1166054,85.3945546,SO2,3,31,7
India,Odisha,Bhubaneswar,"Lingraj Mandir, Bhubaneswar - OSPCB",19-01-2024 02:00:00,20.240790,85.836784,PM2.5,NA,NA,NA
India,Odisha,Bhubaneswar,"Lingraj Mandir, Bhubaneswar - OSPCB",19-01-2024 02:00:00,20.240790,85.836784,CO,NA,NA,NA
India,Odisha,Bileipada,"Tata Township, Bileipada - OSPCB",19-01-2024 02:00:00,22.06156703,85.47409613,NO2,7,10,8
India,Odisha,Bileipada,"Tata Township, Bileipada - OSPCB",19-01-2024 02:00:00,22.06156703,85.47409613,SO2,2,35,6
India,Odisha,Brajrajnagar,"GM Office, Brajrajnagar - OSPCB",19-01-2024 02:00:00,21.8004996,83.8396977,PM2.5,41,141,71
India,Odisha,Brajrajnagar,"GM Office, Brajrajnagar - OSPCB",19-01-2024 02:00:00,21.8004996,83.8396977,SO2,11,12,11
India,Odisha,Brajrajnagar,"GM Office, Brajrajnagar - OSPCB",19-01-2024 02:00:00,21.8004996,83.8396977,CO,62,106,80
India,Odisha,Byasanagar,"Ferro Chrome Colony, Byasanagar - OSPCB",19-01-2024 02:00:00,20.94185,86.11510,NH3,2,4,3
India,Odisha,Byasanagar,"Ferro Chrome Colony, Byasanagar - OSPCB",19-01-2024 02:00:00,20.94185,86.11510,OZONE,33,87,46
India,Odisha,Cuttack,"CDA Area, Cuttack - OSPCB",19-01-2024 02:00:00,20.48891     ,85.84768     ,PM2.5,75,355,159
India,Odisha,Nayagarh,"Dabuna, Nayagarh - OSPCB",19-01-2024 02:00:00,21.847279,85.416905,NO2,30,32,31
India,Odisha,Nayagarh,"Dabuna, Nayagarh - OSPCB",19-01-2024 02:00:00,21.847279,85.416905,NH3,4,5,4
India,Odisha,Nayagarh,"Dabuna, Nayagarh - OSPCB",19-01-2024 02:00:00,21.847279,85.416905,CO,20,24,21
India,Odisha,Rairangpur,"Divisional Forest Office, Rairangpur - OSPCB",19-01-2024 02:00:00,22.265816,86.174829,NO2,7,8,7
India,Odisha,Rairangpur,"Divisional Forest Office, Rairangpur - OSPCB",19-01-2024 02:00:00,22.265816,86.174829,NH3,3,3,3
India,Odisha,Rourkela,"Sector-2, Rourkela - OSPCB",19-01-2024 02:00:00,22.24500000,84.88111111,NO2,33,34,33
India,Odisha,Suakati,"OMC Colony, Suakati - OSPCB",19-01-2024 02:00:00,21.606865,85.510538,SO2,1,5,2
India,Odisha,Suakati,"OMC Colony, Suakati - OSPCB",19-01-2024 02:00:00,21.606865,85.510538,CO,12,13,12
India,Odisha,Talcher,"Talcher Coalfields,Talcher - OSPCB",19-01-2024 02:00:00,20.9360711,85.1707021,PM10,59,220,97
India,Odisha,Talcher,"Talcher Coalfields,Talcher - OSPCB",19-01-2024 02:00:00,20.9360711,85.1707021,NO2,43,54,48
India,Odisha,Tensa,"Barsua Iron Ore Mines, Tensa - OSPCB",19-01-2024 02:00:00,21.869985,85.167016,CO,26,33,31
India,Odisha,Tensa,"Barsua Iron Ore Mines, Tensa - OSPCB",19-01-2024 02:00:00,21.869985,85.167016,OZONE,1,19,1
India,Puducherry,Puducherry,"Jawahar Nagar, Puducherry - PPCC",19-01-2024 02:00:00,11.9309,79.8027,PM2.5,13,55,27
India,Puducherry,Puducherry,"Jawahar Nagar, Puducherry - PPCC",19-01-2024 02:00:00,11.9309,79.8027,PM10,19,66,32
India,Punjab,Amritsar,"Golden Temple, Amritsar - PPCB",19-01-2024 02:00:00,31.620000,74.876512,CO,32,42,36
India,Punjab,Jalandhar,"Civil Line, Jalandhar - PPCB",19-01-2024 02:00:00,31.321907,75.578914,PM10,45,186,91
India,Punjab,Ludhiana,"Punjab Agricultural University, Ludhiana - PPCB",19-01-2024 02:00:00,30.9028,75.8086,PM2.5,50,356,144
India,Punjab,Ludhiana,"Punjab Agricultural University, Ludhiana - PPCB",19-01-2024 02:00:00,30.9028,75.8086,NH3,7,9,8
India,Punjab,Ludhiana,"Punjab Agricultural University, Ludhiana - PPCB",19-01-2024 02:00:00,30.9028,75.8086,OZONE,7,46,22
India,Punjab,Mandi Gobindgarh,"RIMT University, Mandi Gobindgarh - PPCB",19-01-2024 02:00:00,30.649961,76.331442,PM2.5,70,496,203
India,Punjab,Mandi Gobindgarh,"RIMT University, Mandi Gobindgarh - PPCB",19-01-2024 02:00:00,30.649961,76.331442,PM10,109,275,149
India,Punjab,Patiala,"Model Town, Patiala - PPCB",19-01-2024 02:00:00,30.349388,76.366642,NO2,28,33,31
India,Punjab,Patiala,"Model Town, Patiala - PPCB",19-01-2024 02:00:00,30.349388,76.366642,SO2,1,32,16
India,Punjab,Rupnagar,"Ratanpura, Rupnagar - Ambuja Cements",19-01-2024 02:00:00,31.0325454,76.5623046,PM10,80,301,153
India,Rajasthan,Ajmer,"Civil Lines,  Ajmer - RSPCB",19-01-2024 02:00:00,26.470859,74.646594,PM10,81,148,109
India,Rajasthan,Ajmer,"Civil Lines,  Ajmer - RSPCB",19-01-2024 02:00:00,26.470859,74.646594,CO,12,73,41
India,Rajasthan,Alwar,"Moti Doongri, Alwar - RSPCB",19-01-2024 02:00:00,27.554793,76.611536,CO,35,88,59
India,Rajasthan,Banswara,"Rati Talai, Banswara - RSPCB",19-01-2024 02:00:00,23.555190,74.440010,PM10,72,175,121
India,Rajasthan,Banswara,"Rati Talai, Banswara - RSPCB",19-01-2024 02:00:00,23.555190,74.440010,SO2,3,16,7
India,Rajasthan,Baran,"Bamboliya, Baran - RSPCB",19-01-2024 02:00:00,25.106006,76.469948,PM10,58,109,84
India,Rajasthan,Baran,"Bamboliya, Baran - RSPCB",19-01-2024 02:00:00,25.106006,76.469948,NO2,21,35,26
India,Rajasthan,Baran,"Bamboliya, Baran - RSPCB",19-01-2024 02:00:00,25.106006,76.469948,SO2,1,2,1
India,Rajasthan,Bharatpur,"Krishna Nagar, Bharatpur - RSPCB",19-01-2024 02:00:00,27.215415,77.50873,PM2.5,37,66,53
India,Rajasthan,Bharatpur,"Krishna Nagar, Bharatpur - RSPCB",19-01-2024 02:00:00,27.215415,77.50873,OZONE,13,27,20
India,Rajasthan,Bhilwara,"Pratap Nagar, Bhilwara - RSPCB",19-01-2024 02:00:00,25.339605,74.618883,NH3,4,6,5
India,Rajasthan,Bhilwara,"Pratap Nagar, Bhilwara - RSPCB",19-01-2024 02:00:00,25.339605,74.618883,OZONE,25,121,58
India,Rajasthan,Bundi,"New Colony, Bundi - RSPCB",19-01-2024 02:00:00,25.435774,75.644272,CO,30,102,56
India,Rajasthan,Chittorgarh,"Shastri Nagar, Chittorgarh - RSPCB",19-01-2024 02:00:00,24.892047,74.623527,NH3,NA,NA,NA
India,Rajasthan,Chittorgarh,"Shastri Nagar, Chittorgarh - RSPCB",19-01-2024 02:00:00,24.892047,74.623527,OZONE,12,70,49
India,Rajasthan,Churu,"Subash Chowk, Churu - RSPCB",19-01-2024 02:00:00,28.296139,74.961696,NH3,12,17,14
India,Rajasthan,Dausa,"Khatikan Mohalla, Dausa - RSPCB",19-01-2024 02:00:00,26.895552,76.334753,NO2,21,41,28
India,Rajasthan,Dholpur,"Raja Ganj, Dholpur - RSPCB",19-01-2024 02:00:00,26.699557,77.898881,OZONE,14,54,24
India,Rajasthan,Dungarpur,"Bhoiwada, Dungarpur - RSPCB",19-01-2024 02:00:00,23.837789,73.714926,PM10,88,185,127
India,Rajasthan,Dungarpur,"Bhoiwada, Dungarpur - RSPCB",19-01-2024 02:00:00,23.837789,73.714926,SO2,4,14,7
India,Rajasthan,Hanumangarh,"Housing Board, Hanumangarh - RSPCB",19-01-2024 02:00:00,29.610750,74.283608,CO,58,110,85
India,Rajasthan,Jaipur,"Adarsh Nagar, Jaipur - RSPCB",19-01-2024 02:00:00,26.902909,75.836858,PM2.5,85,316,183
India,Rajasthan,Jaipur,"Adarsh Nagar, Jaipur - RSPCB",19-01-2024 02:00:00,26.902909,75.836858,PM10,74,167,118
India,Rajasthan,Jaipur,"Adarsh Nagar, Jaipur - RSPCB",19-01-2024 02:00:00,26.902909,75.836858,CO,22,88,36
India,Rajasthan,Jaipur,"Mansarovar Sector-12, Jaipur - RSPCB",19-01-2024 02:00:00,26.843698,75.766894,NO2,19,104,52
India,Rajasthan,Jaipur,"Police Commissionerate, Jaipur - RSPCB",19-01-2024 02:00:00,26.9164092,75.7994901,NO2,28,103,57
India,Rajasthan,Jaipur,"RIICO Sitapura, Jaipur - RSPCB",19-01-2024 02:00:00,26.786682,75.827928,NH3,2,9,4
India,Rajasthan,Jaipur,"Sector-2 Murlipura, Jaipur - RSPCB",19-01-2024 02:00:00,26.960669,75.771817,OZONE,6,187,36
India,Rajasthan,Jaisalmer,"Sadar Bazar, Jaisalmer - RSPCB",19-01-2024 02:00:00,26.912329,70.909168,PM2.5,84,362,232
India,Rajasthan,Jaisalmer,"Sadar Bazar, Jaisalmer - RSPCB",19-01-2024 02:00:00,26.912329,70.909168,PM10,78,271,150
India,Rajasthan,Jaisalmer,"Sadar Bazar, Jaisalmer - RSPCB",19-01-2024 02:00:00,26.912329,70.909168,NH3,9,12,10
India,Rajasthan,Jalore,"Mudtra Sili, Jalore - RSPCB",19-01-2024 02:00:00,25.344694,72.626208,NO2,13,148,41
India,Rajasthan,Jalore,"Mudtra Sili, Jalore - RSPCB",19-01-2024 02:00:00,25.344694,72.626208,OZONE,7,127,57
India,Rajasthan,Jhunjhunu,"Indra Nagar, Jhunjhunu - RSPCB",19-01-2024 02:00:00,28.108988,75.386577,PM10,111,228,164
India,Rajasthan,Jodhpur,"Collectorate, Jodhpur - RSPCB",19-01-2024 02:00:00,26.268249,73.0193853,PM2.5,34,350,215
India,Rajasthan,Jodhpur,"Digari Kalan, Jodhpur - RSPCB",19-01-2024 02:00:00,26.295810,73.082283,CO,28,87,38
India,Rajasthan,Jodhpur,"Mandor, Jodhpur - RSPCB",19-01-2024 02:00:00,26.358805,73.047444,SO2,1,9,3
India,Rajasthan,Jodhpur,"Samrat Ashok Udhyan, Jodhpur - RSPCB",19-01-2024 02:00:00,26.253384,72.976571,PM2.5,67,332,206
India,Rajasthan,Karauli,"Satyawati Vihar, Karauli - RSPCB",19-01-2024 02:00:00,26.506177,77.025989,PM2.5,8,264,78
India,Rajasthan,Kota,"Dhanmandi, Kota - RSPCB",19-01-2024 02:00:00,25.164090,75.858137,PM10,84,421,153
India,Rajasthan,Kota,"Nayapura, Kota - RSPCB",19-01-2024 02:00:00,25.196024,75.855668,NO2,24,96,44
India,Rajasthan,Kota,"Nayapura, Kota - RSPCB",19-01-2024 02:00:00,25.196024,75.855668,SO2,4,130,12
India,Rajasthan,Kota,"Nayapura, Kota - RSPCB",19-01-2024 02:00:00,25.196024,75.855668,CO,2,118,64
India,Rajasthan,Kota,"Shrinath Puram, Kota - RSPCB",19-01-2024 02:00:00,25.14389,75.821256,PM2.5,NA,NA,NA
India,Rajasthan,Kota,"Shrinath Puram, Kota - RSPCB",19-01-2024 02:00:00,25.14389,75.821256,NH3,NA,NA,NA
India,Rajasthan,Nagaur,"Karni Colony, Nagaur - RSPCB",19-01-2024 02:00:00,27.213494,73.734444,CO,40,95,77
India,Rajasthan,Nagaur,"Karni Colony, Nagaur - RSPCB",19-01-2024 02:00:00,27.213494,73.734444,OZONE,35,67,43
India,Rajasthan,Pali,"Indira Colony Vistar, Pali - RSPCB",19-01-2024 02:00:00,25.771061, 73.340227,NH3,6,17,13
India,Rajasthan,Pali,"Indira Colony Vistar, Pali - RSPCB",19-01-2024 02:00:00,25.771061, 73.340227,CO,16,56,30
India,Rajasthan,Pali,"Indira Colony Vistar, Pali - RSPCB",19-01-2024 02:00:00,25.771061, 73.340227,OZONE,5,31,11
India,Rajasthan,Pratapgarh,"Pragati Nagar, Pratapgarh - RSPCB",19-01-2024 02:00:00,24.041198,74.780702,PM2.5,NA,NA,NA
India,Rajasthan,Pratapgarh,"Pragati Nagar, Pratapgarh - RSPCB",19-01-2024 02:00:00,24.041198,74.780702,SO2,NA,NA,NA
India,Rajasthan,Rajsamand,"Dhoinda, Rajsamand - RSPCB",19-01-2024 02:00:00,25.036360,73.883502,NO2,15,65,29
India,Rajasthan,Rajsamand,"Dhoinda, Rajsamand - RSPCB",19-01-2024 02:00:00,25.036360,73.883502,CO,32,74,56
India,Rajasthan,Sawai Madhopur,"Sahu Nagar, Sawai Madhopur - RSPCB",19-01-2024 02:00:00,26.031443,76.359327,CO,26,74,47
India,Rajasthan,Sikar,"Radhakishan Pura, Sikar - RSPCB",19-01-2024 02:00:00,27.608912,75.153302,OZONE,8,157,58
India,Rajasthan,Sirohi,"Vedhaynath Colony, Sirohi - RSPCB",19-01-2024 02:00:00,24.885261,72.857549,NO2,10,88,47
India,Rajasthan,Sirohi,"Vedhaynath Colony, Sirohi - RSPCB",19-01-2024 02:00:00,24.885261,72.857549,OZONE,1,123,30
India,Rajasthan,Tonk,"Shastri Nagar, Tonk - RSPCB",19-01-2024 02:00:00,26.159933,75.780517,PM2.5,62,194,102
India,Rajasthan,Tonk,"Shastri Nagar, Tonk - RSPCB",19-01-2024 02:00:00,26.159933,75.780517,OZONE,13,73,28
India,Rajasthan,Udaipur,"Ashok Nagar, Udaipur - RSPCB",19-01-2024 02:00:00,24.5886166,73.6321397,CO,7,124,105
India,Sikkim,Gangtok,"Zero Point GICI, Gangtok - SSPCB",19-01-2024 02:00:00,27.338530,88.614099,CO,13,27,23
India,TamilNadu,Ariyalur,"Keelapalur, Ariyalur - TNPCB",19-01-2024 02:00:00,11.06825,79.07033,PM10,NA,NA,NA
India,TamilNadu,Ariyalur,"Keelapalur, Ariyalur - TNPCB",19-01-2024 02:00:00,11.06825,79.07033,NO2,NA,NA,NA
India,TamilNadu,Chengalpattu,"Crescent University, Chengalpattu - TNPCB",19-01-2024 02:00:00,12.8777316,80.0834807,OZONE,6,7,6
India,TamilNadu,Chennai,"Gandhi Nagar_Ennore, Chennai - TNPCB",19-01-2024 02:00:00,13.218341,80.32027,PM2.5,NA,NA,NA
India,TamilNadu,Chennai,"Gandhi Nagar_Ennore, Chennai - TNPCB",19-01-2024 02:00:00,13.218341,80.32027,OZONE,NA,NA,NA
India,TamilNadu,Chennai,"Kodungaiyur, Chennai - TNPCB",19-01-2024 02:00:00,13.1278,80.2642,SO2,1,6,2
India,TamilNadu,Chennai,"Perungudi, Chennai - TNPCB",19-01-2024 02:00:00,12.9533,80.2357,PM10,44,127,76
India,TamilNadu,Chennai,"Perungudi, Chennai - TNPCB",19-01-2024 02:00:00,12.9533,80.2357,NO2,3,15,8
India,TamilNadu,Chennai,"Perungudi, Chennai - TNPCB",19-01-2024 02:00:00,12.9533,80.2357,CO,6,57,40
India,TamilNadu,Chennai,"Velachery Res. Area, Chennai - CPCB",19-01-2024 02:00:00,13.0052189,80.2398125,PM2.5,21,52,37
India,TamilNadu,Cuddalore,"Kudikadu, Cuddalore - TNPCB",19-01-2024 02:00:00,11.6829898,79.7532099,PM2.5,10,61,29
India,TamilNadu,Cuddalore,"Semmandalam, Cuddalore - TNPCB",19-01-2024 02:00:00,11.7637683,79.7499835,OZONE,1,2,2
India,TamilNadu,Gummidipoondi,"Anthoni Pillai Nagar, Gummidipoondi - TNPCB",19-01-2024 02:00:00,13.4127,80.1081,PM2.5,22,387,148
India,TamilNadu,Kanchipuram,"Kilambi, Kanchipuram - TNPCB",19-01-2024 02:00:00,12.864618,79.659968,PM2.5,NA,NA,NA
India,TamilNadu,Kanchipuram,"Kilambi, Kanchipuram - TNPCB",19-01-2024 02:00:00,12.864618,79.659968,SO2,NA,NA,NA
India,TamilNadu,Ooty,"Bombay Castel, Ooty - TNPCB",19-01-2024 02:00:00,11.4068288,76.7138973,PM10,26,132,77
India,TamilNadu,Palkalaiperur,"Bharathidasan University, Palkalaiperur - TNPCB",19-01-2024 02:00:00,10.681158,78.741746,SO2,25,28,27
India,TamilNadu,Salem,"Sona College of Technology, Salem - TNPCB",19-01-2024 02:00:00,11.679111,78.125052,NO2,NA,NA,NA
India,TamilNadu,Salem,"Sona College of Technology, Salem - TNPCB",19-01-2024 02:00:00,11.679111,78.125052,CO,37,40,38
India,TamilNadu,Tiruchirappalli,"St Joseph College, Tiruchirappalli - TNPCB",19-01-2024 02:00:00,10.830158,78.691849,SO2,NA,NA,NA
India,TamilNadu,Tirupur,"Kumaran College, Tirupur - TNPCB",19-01-2024 02:00:00,11.0973603,77.3228673,OZONE,7,7,7
India,TamilNadu,Vellore,"Vasanthapuram, Vellore - TNPCB",19-01-2024 02:00:00,12.909494,79.131861,PM2.5,31,65,52
India,TamilNadu,Virudhunagar,"Collectorate Office, Virudhunagar - TNPCB",19-01-2024 02:00:00,9.559382,77.948828,PM2.5,NA,NA,NA
India,Telangana,Hyderabad,"Bollaram Industrial Area, Hyderabad - TSPCB",19-01-2024 02:00:00,17.540891,78.358528,PM10,NA,NA,NA
India,Telangana,Hyderabad,"Bollaram Industrial Area, Hyderabad - TSPCB",19-01-2024 02:00:00,17.540891,78.358528,NO2,15,49,30
India,Telangana,Hyderabad,"Central University, Hyderabad - TSPCB",19-01-2024 02:00:00,17.460103,78.334361,PM10,42,78,57
India,Telangana,Hyderabad,"Central University, Hyderabad - TSPCB",19-01-2024 02:00:00,17.460103,78.334361,NH3,2,5,4
India,Telangana,Hyderabad,"ECIL Kapra, Hyderabad - TSPCB",19-01-2024 02:00:00,17.470431,78.566959,OZONE,5,44,20
India,Telangana,Hyderabad,"ICRISAT Patancheru, Hyderabad - TSPCB",19-01-2024 02:00:00,17.518400,78.278777,OZONE,32,92,51
India,Telangana,Hyderabad,"Kokapet, Hyderabad - TSPCB",19-01-2024 02:00:00,17.393559,78.339194,SO2,NA,NA,NA
India,Telangana,Hyderabad,"Kokapet, Hyderabad - TSPCB",19-01-2024 02:00:00,17.393559,78.339194,OZONE,NA,NA,NA
India,Telangana,Hyderabad,"Ramachandrapuram, Hyderabad - TSPCB",19-01-2024 02:00:00,17.528544,78.286195,CO,30,37,36
India,Tripura,Agartala,"Bardowali, Agartala - Tripura SPCB",19-01-2024 02:00:00,23.8175497,91.2726974,OZONE,NA,NA,NA
India,Uttar_Pradesh,Agra,"Manoharpur, Agra - UPPCB",19-01-2024 02:00:00,27.23711,78.01936,NH3,1,1,1
India,Uttar_Pradesh,Agra,"Manoharpur, Agra - UPPCB",19-01-2024 02:00:00,27.23711,78.01936,SO2,21,23,22
India,Uttar_Pradesh,Agra,"Manoharpur, Agra - UPPCB",19-01-2024 02:00:00,27.23711,78.01936,CO,15,19,17
India,Uttar_Pradesh,Agra,"Manoharpur, Agra - UPPCB",19-01-2024 02:00:00,27.23711,78.01936,OZONE,3,4,4
India,Uttar_Pradesh,Agra,"Rohta, Agra - UPPCB",19-01-2024 02:00:00,27.106972,78.000111,NH3,2,2,2
India,Uttar_Pradesh,Agra,"Sanjay Palace, Agra - UPPCB",19-01-2024 02:00:00,27.19865833,78.00598056,SO2,2,13,8
India,Uttar_Pradesh,Agra,"Sector-3B Avas Vikas Colony, Agra - UPPCB",19-01-2024 02:00:00,27.19412,77.96237,CO,6,21,15
India,Uttar_Pradesh,Agra,"Shahjahan Garden, Agra - UPPCB",19-01-2024 02:00:00,27.169338,78.03582,NO2,29,38,32
India,Uttar_Pradesh,Agra,"Shahjahan Garden, Agra - UPPCB",19-01-2024 02:00:00,27.169338,78.03582,NH3,3,4,3
India,Uttar_Pradesh,Baghpat,"Sardar Patel Inter College, Baghpat - UPPCB",19-01-2024 02:00:00,28.964949,77.278761,PM10,60,136,92
India,Uttar_Pradesh,Baghpat,"Sardar Patel Inter College, Baghpat - UPPCB",19-01-2024 02:00:00,28.964949,77.278761,SO2,1,16,9
India,Uttar_Pradesh,Bareilly,"Civil Lines, Bareilly - UPPCB",19-01-2024 02:00:00,28.359581,79.414455,NH3,NA,NA,NA
India,Uttar_Pradesh,Bareilly,"Civil Lines, Bareilly - UPPCB",19-01-2024 02:00:00,28.359581,79.414455,OZONE,1,44,3
India,Uttar_Pradesh,Bareilly,"Rajendra Nagar, Bareilly - UPPCB",19-01-2024 02:00:00,28.38910936,79.42963708,CO,49,70,61
India,Uttar_Pradesh,Bulandshahr,"Yamunapuram, Bulandshahr - UPPCB",19-01-2024 02:00:00,28.406963,77.849831,PM10,74,153,114
India,Uttar_Pradesh,Firozabad,"Nagla Bhau, Firozabad - UPPCB",19-01-2024 02:00:00,27.168897,78.376960,CO,10,18,13
India,Uttar_Pradesh,Firozabad,"Vibhab Nagar, Firozabad - UPPCB",19-01-2024 02:00:00,27.1594,78.3953,PM10,32,72,49
India,Uttar_Pradesh,Firozabad,"Vibhab Nagar, Firozabad - UPPCB",19-01-2024 02:00:00,27.1594,78.3953,NH3,2,2,2
India,Uttar_Pradesh,Ghaziabad,"Indirapuram, Ghaziabad - UPPCB",19-01-2024 02:00:00,28.646233,77.358075,NH3,11,19,13
India,Uttar_Pradesh,Ghaziabad,"Indirapuram, Ghaziabad - UPPCB",19-01-2024 02:00:00,28.646233,77.358075,CO,4,25,11
India,Uttar_Pradesh,Ghaziabad,"Indirapuram, Ghaziabad - UPPCB",19-01-2024 02:00:00,28.646233,77.358075,OZONE,6,10,7
India,Uttar_Pradesh,Ghaziabad,"Loni, Ghaziabad - UPPCB",19-01-2024 02:00:00,28.757294,77.278792,NH3,3,5,4
India,Uttar_Pradesh,Ghaziabad,"Sanjay Nagar, Ghaziabad - UPPCB",19-01-2024 02:00:00,28.685382,77.453839,PM2.5,185,372,291
India,Uttar_Pradesh,Gorakhpur,"Madan Mohan Malaviya University of Technology, Gorakhpur - UPPCB",19-01-2024 02:00:00,26.730136,83.433859,OZONE,4,21,12
India,Uttar_Pradesh,Greater Noida,"Knowledge Park - III, Greater Noida - UPPCB",19-01-2024 02:00:00,28.47272,77.482000,PM2.5,NA,NA,NA
India,Uttar_Pradesh,Greater Noida,"Knowledge Park - V, Greater Noida - UPPCB",19-01-2024 02:00:00,28.557054,77.453663,NO2,7,102,20
India,Uttar_Pradesh,Greater Noida,"Knowledge Park - V, Greater Noida - UPPCB",19-01-2024 02:00:00,28.557054,77.453663,OZONE,5,37,10
India,Uttar_Pradesh,Hapur,"Anand Vihar, Hapur - UPPCB",19-01-2024 02:00:00,28.725645,77.749675,SO2,16,78,49
India,Uttar_Pradesh,Hapur,"Anand Vihar, Hapur - UPPCB",19-01-2024 02:00:00,28.725645,77.749675,OZONE,10,33,15
India,Uttar_Pradesh,Jhansi,"Shivaji Nagar, Jhansi - UPPCB",19-01-2024 02:00:00,25.4547,78.6039,SO2,9,14,12
India,Uttar_Pradesh,Jhansi,"Shivaji Nagar, Jhansi - UPPCB",19-01-2024 02:00:00,25.4547,78.6039,CO,30,93,68
India,Uttar_Pradesh,Kanpur,"FTI Kidwai Nagar, Kanpur - UPPCB",19-01-2024 02:00:00,26.428282,80.327067,PM2.5,62,205,86
India,Uttar_Pradesh,Kanpur,"FTI Kidwai Nagar, Kanpur - UPPCB",19-01-2024 02:00:00,26.428282,80.327067,NH3,4,5,4
India,Uttar_Pradesh,Kanpur,"FTI Kidwai Nagar, Kanpur - UPPCB",19-01-2024 02:00:00,26.428282,80.327067,CO,44,82,65
India,Uttar_Pradesh,Kanpur,"FTI Kidwai Nagar, Kanpur - UPPCB",19-01-2024 02:00:00,26.428282,80.327067,OZONE,3,5,3
India,Uttar_Pradesh,Kanpur,"NSI Kalyanpur, Kanpur - UPPCB",19-01-2024 02:00:00,26.509954,80.249612,NH3,2,5,4
India,Uttar_Pradesh,Kanpur,"Nehru Nagar, Kanpur - UPPCB",19-01-2024 02:00:00,26.4703136,80.3229863,PM10,80,174,117
India,Uttar_Pradesh,Kanpur,"Nehru Nagar, Kanpur - UPPCB",19-01-2024 02:00:00,26.4703136,80.3229863,NO2,12,100,42
India,Uttar_Pradesh,Kanpur,"Nehru Nagar, Kanpur - UPPCB",19-01-2024 02:00:00,26.4703136,80.3229863,OZONE,15,103,24
India,Uttar_Pradesh,Khurja,"Kalindi Kunj, Khurja - UPPCB",19-01-2024 02:00:00,28.2348927,77.8683002,CO,22,30,29
India,Uttar_Pradesh,Lucknow,"Gomti Nagar, Lucknow - UPPCB",19-01-2024 02:00:00,26.868120,81.005119,PM2.5,23,118,47
India,Uttar_Pradesh,Lucknow,"Gomti Nagar, Lucknow - UPPCB",19-01-2024 02:00:00,26.868120,81.005119,PM10,42,130,70
India,Uttar_Pradesh,Lucknow,"Gomti Nagar, Lucknow - UPPCB",19-01-2024 02:00:00,26.868120,81.005119,OZONE,38,52,41
India,Uttar_Pradesh,Lucknow,"Kukrail Picnic Spot-1, Lucknow - UPPCB",19-01-2024 02:00:00,26.90723,80.98579,PM2.5,43,112,67
India,Uttar_Pradesh,Lucknow,"Kukrail Picnic Spot-1, Lucknow - UPPCB",19-01-2024 02:00:00,26.90723,80.98579,NH3,2,2,2
India,Uttar_Pradesh,Lucknow,"Kukrail Picnic Spot-1, Lucknow - UPPCB",19-01-2024 02:00:00,26.90723,80.98579,SO2,26,27,26
India,Uttar_Pradesh,Lucknow,"Lalbagh, Lucknow - CPCB",19-01-2024 02:00:00,26.8458805,80.9365541,NH3,11,13,12
India,Uttar_Pradesh,Meerut,"Jai Bhim Nagar, Meerut - UPPCB",19-01-2024 02:00:00,28.9535882,77.7622941,NO2,13,40,23
India,Uttar_Pradesh,Meerut,"Pallavpuram Phase 2, Meerut - UPPCB",19-01-2024 02:00:00,29.063510,77.709723,PM2.5,62,304,149
India,Uttar_Pradesh,Meerut,"Pallavpuram Phase 2, Meerut - UPPCB",19-01-2024 02:00:00,29.063510,77.709723,PM10,60,170,107
India,Uttar_Pradesh,Meerut,"Pallavpuram Phase 2, Meerut - UPPCB",19-01-2024 02:00:00,29.063510,77.709723,CO,38,101,84
India,Uttar_Pradesh,Meerut,"Pallavpuram Phase 2, Meerut - UPPCB",19-01-2024 02:00:00,29.063510,77.709723,OZONE,12,36,16
India,Uttar_Pradesh,Moradabad,"Eco Herbal Park, Moradabad - UPPCB",19-01-2024 02:00:00,28.840739,78.697531,PM2.5,50,169,94
India,Uttar_Pradesh,Moradabad,"Eco Herbal Park, Moradabad - UPPCB",19-01-2024 02:00:00,28.840739,78.697531,SO2,1,10,6
India,Uttar_Pradesh,Moradabad,"Employment Office, Moradabad - UPPCB",19-01-2024 02:00:00,28.88528,78.73880,PM2.5,44,91,68
India,Uttar_Pradesh,Moradabad,"Employment Office, Moradabad - UPPCB",19-01-2024 02:00:00,28.88528,78.73880,NH3,3,4,4
India,Uttar_Pradesh,Moradabad,"Employment Office, Moradabad - UPPCB",19-01-2024 02:00:00,28.88528,78.73880,OZONE,12,55,13
India,Uttar_Pradesh,Moradabad,"Jigar Colony, Moradabad - UPPCB",19-01-2024 02:00:00,28.856664,78.772638,PM10,55,139,89
India,Uttar_Pradesh,Moradabad,"Transport Nagar, Moradabad - UPPCB",19-01-2024 02:00:00,28.802625,78.753728,SO2,39,42,41
India,Uttar_Pradesh,Moradabad,"Transport Nagar, Moradabad - UPPCB",19-01-2024 02:00:00,28.802625,78.753728,OZONE,15,18,16
India,Uttar_Pradesh,Muzaffarnagar,"New Mandi, Muzaffarnagar - UPPCB",19-01-2024 02:00:00,29.4723508,77.7194031,NO2,35,73,52
India,Uttar_Pradesh,Muzaffarnagar,"New Mandi, Muzaffarnagar - UPPCB",19-01-2024 02:00:00,29.4723508,77.7194031,NH3,7,11,9
India,Uttar_Pradesh,Muzaffarnagar,"New Mandi, Muzaffarnagar - UPPCB",19-01-2024 02:00:00,29.4723508,77.7194031,OZONE,6,27,22
India,Uttar_Pradesh,Noida,"Sector - 125, Noida - UPPCB",19-01-2024 02:00:00,28.5447608,77.3231257,NO2,51,113,94
India,Uttar_Pradesh,Noida,"Sector - 125, Noida - UPPCB",19-01-2024 02:00:00,28.5447608,77.3231257,SO2,1,7,2
India,Uttar_Pradesh,Noida,"Sector-1, Noida - UPPCB",19-01-2024 02:00:00,28.5898,77.3101,NO2,30,83,58
India,Uttar_Pradesh,Noida,"Sector-1, Noida - UPPCB",19-01-2024 02:00:00,28.5898,77.3101,OZONE,1,7,2
India,Uttar_Pradesh,Noida,"Sector-116, Noida - UPPCB",19-01-2024 02:00:00,28.569230,77.393848,NO2,15,50,35
India,Uttar_Pradesh,Prayagraj,"Jhunsi, Prayagraj - UPPCB",19-01-2024 02:00:00,25.425602,81.917152,NH3,5,5,5
India,Uttar_Pradesh,Prayagraj,"Motilal Nehru NIT, Prayagraj - UPPCB",19-01-2024 02:00:00,25.494,81.863,CO,4,100,65
India,Uttar_Pradesh,Prayagraj,"Nagar Nigam, Prayagraj - UPPCB",19-01-2024 02:00:00,25.44919916 ,81.82735986 ,PM10,86,215,137
India,Uttar_Pradesh,Prayagraj,"Nagar Nigam, Prayagraj - UPPCB",19-01-2024 02:00:00,25.44919916 ,81.82735986 ,CO,6,82,59
India,Uttar_Pradesh,Varanasi,"Ardhali Bazar, Varanasi - UPPCB",19-01-2024 02:00:00,25.3505986,82.9083074,NO2,19,27,23
India,Uttar_Pradesh,Varanasi,"Ardhali Bazar, Varanasi - UPPCB",19-01-2024 02:00:00,25.3505986,82.9083074,OZONE,18,20,20
India,Uttar_Pradesh,Varanasi,"Bhelupur, Varanasi - UPPCB",19-01-2024 02:00:00,25.301778,82.996789,NH3,2,2,2
India,Uttar_Pradesh,Varanasi,"IESD Banaras Hindu University, Varanasi - UPPCB",19-01-2024 02:00:00,25.262326,82.995408,PM10,40,59,47
India,Uttar_Pradesh,Varanasi,"IESD Banaras Hindu University, Varanasi - UPPCB",19-01-2024 02:00:00,25.262326,82.995408,NO2,2,3,2
India,Uttar_Pradesh,Varanasi,"IESD Banaras Hindu University, Varanasi - UPPCB",19-01-2024 02:00:00,25.262326,82.995408,SO2,15,16,16
India,Uttar_Pradesh,Varanasi,"IESD Banaras Hindu University, Varanasi - UPPCB",19-01-2024 02:00:00,25.262326,82.995408,CO,26,34,32
India,Uttar_Pradesh,Varanasi,"IESD Banaras Hindu University, Varanasi - UPPCB",19-01-2024 02:00:00,25.262326,82.995408,OZONE,1,3,2
India,Uttar_Pradesh,Vrindavan,"Omex Eternity, Vrindavan - UPPCB",19-01-2024 02:00:00,27.5714090,77.6557570,PM2.5,13,49,35
India,Uttar_Pradesh,Vrindavan,"Omex Eternity, Vrindavan - UPPCB",19-01-2024 02:00:00,27.5714090,77.6557570,CO,21,38,31
India,Uttarakhand,Dehradun,"Doon University, Dehradun - UKPCB",19-01-2024 02:00:00,30.269444,78.044167,CO,47,105,101
India,Uttarakhand,Rishikesh,"Shivaji Nagar, Rishikesh - UKPCB",19-01-2024 02:00:00,30.075911,78.2859547,PM2.5,44,297,139
India,Uttarakhand,Rishikesh,"Shivaji Nagar, Rishikesh - UKPCB",19-01-2024 02:00:00,30.075911,78.2859547,NH3,2,4,3
India,West_Bengal,Asansol,"Asansol Court Area, Asansol - WBPCB",19-01-2024 02:00:00,23.685297,86.945968,PM2.5,132,308,245
India,West_Bengal,Asansol,"Asansol Court Area, Asansol - WBPCB",19-01-2024 02:00:00,23.685297,86.945968,NH3,6,12,8
India,West_Bengal,Barrackpore,"SVSPA Campus, Barrackpore - WBPCB",19-01-2024 02:00:00,22.7605581,88.3617589,SO2,7,8,8
India,West_Bengal,Barrackpore,"SVSPA Campus, Barrackpore - WBPCB",19-01-2024 02:00:00,22.7605581,88.3617589,OZONE,8,28,11
India,West_Bengal,Durgapur,"Sidhu Kanhu Indoor Stadium, Durgapur - WBPCB",19-01-2024 02:00:00,23.5404352,87.2892225,NO2,13,30,26
India,West_Bengal,Haldia,"Priyambada Housing Estate, Haldia - WBPCB",19-01-2024 02:00:00,22.06047,88.109737,PM2.5,67,203,124
India,West_Bengal,Haldia,"Priyambada Housing Estate, Haldia - WBPCB",19-01-2024 02:00:00,22.06047,88.109737,NO2,22,40,30
India,West_Bengal,Howrah,"Belur Math, Howrah - WBPCB",19-01-2024 02:00:00,22.629801,88.352017,PM2.5,152,189,168
India,West_Bengal,Howrah,"Ghusuri, Howrah - WBPCB",19-01-2024 02:00:00,22.611968,88.347422,NH3,7,13,9
India,West_Bengal,Howrah,"Ghusuri, Howrah - WBPCB",19-01-2024 02:00:00,22.611968,88.347422,CO,30,52,42
India,West_Bengal,Howrah,"Ghusuri, Howrah - WBPCB",19-01-2024 02:00:00,22.611968,88.347422,OZONE,9,14,10
India,West_Bengal,Howrah,"Padmapukur, Howrah - WBPCB",19-01-2024 02:00:00,22.5687319,88.2797276,NO2,36,61,48
India,West_Bengal,Howrah,"Padmapukur, Howrah - WBPCB",19-01-2024 02:00:00,22.5687319,88.2797276,OZONE,1,16,2
India,West_Bengal,Kolkata,"Ballygunge, Kolkata - WBPCB",19-01-2024 02:00:00,22.5367507,88.3638022,NH3,5,7,6
India,West_Bengal,Kolkata,"Bidhannagar, Kolkata - WBPCB",19-01-2024 02:00:00,22.58157048,88.41002457,SO2,6,14,10
India,West_Bengal,Kolkata,"Fort William, Kolkata - WBPCB",19-01-2024 02:00:00,22.556640,88.342674,NO2,42,111,65
India,West_Bengal,Kolkata,"Jadavpur, Kolkata - WBPCB",19-01-2024 02:00:00,22.49929,88.36917,PM10,130,156,147
India,West_Bengal,Kolkata,"Jadavpur, Kolkata - WBPCB",19-01-2024 02:00:00,22.49929,88.36917,NO2,4,7,5
India,West_Bengal,Kolkata,"Jadavpur, Kolkata - WBPCB",19-01-2024 02:00:00,22.49929,88.36917,NH3,4,6,5
India,West_Bengal,Kolkata,"Rabindra Sarobar, Kolkata - WBPCB",19-01-2024 02:00:00,22.51106,88.35142,NO2,44,143,75
India,West_Bengal,Siliguri,"Ward-32 Bapupara, Siliguri - WBPCB",19-01-2024 02:00:00,26.6879226,88.4152495,CO,24,109,74
India,Andhra_Pradesh,Amaravati,"Secretariat, Amaravati - APPCB",19-01-2024 02:00:00,16.5150833,80.5181667,PM2.5,20,86,48
India,Andhra_Pradesh,Amaravati,"Secretariat, Amaravati - APPCB",19-01-2024 02:00:00,16.5150833,80.5181667,PM10,37,104,60
India,Andhra_Pradesh,Amaravati,"Secretariat, Amaravati - APPCB",19-01-2024 02:00:00,16.5150833,80.5181667,CO,14,34,28
India,Andhra_Pradesh,Anantapur,"Gulzarpet, Anantapur - APPCB",19-01-2024 02:00:00,14.675886,77.593027,PM2.5,34,60,47
India,Andhra_Pradesh,Anantapur,"Gulzarpet, Anantapur - APPCB",19-01-2024 02:00:00,14.675886,77.593027,NH3,2,3,3
India,Andhra_Pradesh,Anantapur,"Gulzarpet, Anantapur - APPCB",19-01-2024 02:00:00,14.675886,77.593027,SO2,5,9,6
India,Andhra_Pradesh,Chittoor,"Gangineni Cheruvu, Chittoor - APPCB",19-01-2024 02:00:00,13.204880,79.097889,PM2.5,39,313,64
India,Andhra_Pradesh,Chittoor,"Gangineni Cheruvu, Chittoor - APPCB",19-01-2024 02:00:00,13.204880,79.097889,PM10,37,172,53
India,Andhra_Pradesh,Chittoor,"Gangineni Cheruvu, Chittoor - APPCB",19-01-2024 02:00:00,13.204880,79.097889,SO2,1,47,14
India,Andhra_Pradesh,Chittoor,"Gangineni Cheruvu, Chittoor - APPCB",19-01-2024 02:00:00,13.204880,79.097889,CO,8,27,14
India,Andhra_Pradesh,Rajamahendravaram,"Anand Kala Kshetram, Rajamahendravaram - APPCB",19-01-2024 02:00:00,16.9872867,81.7363176,PM2.5,35,129,74
India,Andhra_Pradesh,Tirupati,"Tirumala, Tirupati - APPCB",19-01-2024 02:00:00,13.67,79.35,SO2,4,7,6
India,Andhra_Pradesh,Visakhapatnam,"GVM Corporation, Visakhapatnam - APPCB",19-01-2024 02:00:00,17.72,83.3,NH3,2,5,4
India,Assam,Byrnihat,"Central Academy for SFS, Byrnihat - PCBA",19-01-2024 02:00:00,26.071318,91.87488,PM2.5,NA,NA,NA
India,Assam,Byrnihat,"Central Academy for SFS, Byrnihat - PCBA",19-01-2024 02:00:00,26.071318,91.87488,SO2,NA,NA,NA
India,Assam,Guwahati,"IITG, Guwahati - PCBA",19-01-2024 02:00:00,26.2028636,91.70046436,SO2,11,13,12
India,Assam,Guwahati,"IITG, Guwahati - PCBA",19-01-2024 02:00:00,26.2028636,91.70046436,OZONE,2,22,3
India,Assam,Guwahati,"LGBI Airport, Guwahati - PCBA",19-01-2024 02:00:00,26.10887,91.589544,PM10,79,398,175
India,Assam,Guwahati,"LGBI Airport, Guwahati - PCBA",19-01-2024 02:00:00,26.10887,91.589544,NH3,1,10,4
India,Assam,Guwahati,"LGBI Airport, Guwahati - PCBA",19-01-2024 02:00:00,26.10887,91.589544,SO2,8,14,12
India,Assam,Guwahati,"LGBI Airport, Guwahati - PCBA",19-01-2024 02:00:00,26.10887,91.589544,OZONE,1,106,7
India,Assam,Guwahati,"Pan Bazaar, Guwahati - PCBA",19-01-2024 02:00:00,26.187500,91.744194,PM10,109,439,211
India,Assam,Guwahati,"Pan Bazaar, Guwahati - PCBA",19-01-2024 02:00:00,26.187500,91.744194,NH3,3,5,4
India,Assam,Guwahati,"Railway Colony, Guwahati - PCBA",19-01-2024 02:00:00,26.181742,91.78063,NO2,3,3,3
India,Assam,Guwahati,"Railway Colony, Guwahati - PCBA",19-01-2024 02:00:00,26.181742,91.78063,OZONE,8,39,25
India,Assam,Nagaon,"Christianpatty, Nagaon - PCBA",19-01-2024 02:00:00,26.349082,92.68449,PM2.5,12,117,42
India,Assam,Nagaon,"Christianpatty, Nagaon - PCBA",19-01-2024 02:00:00,26.349082,92.68449,PM10,12,102,39
India,Assam,Nalbari,"Bata Chowk, Nalbari - PCBA",19-01-2024 02:00:00,26.446912,91.439057,NO2,40,78,62
India,Assam,Nalbari,"Bata Chowk, Nalbari - PCBA",19-01-2024 02:00:00,26.446912,91.439057,NH3,8,21,12
India,Assam,Nalbari,"Bata Chowk, Nalbari - PCBA",19-01-2024 02:00:00,26.446912,91.439057,OZONE,13,21,18
India,Assam,Silchar,"Tarapur, Silchar - PCBA",19-01-2024 02:00:00,24.82827,92.79525,PM2.5,39,50,43
India,Assam,Silchar,"Tarapur, Silchar - PCBA",19-01-2024 02:00:00,24.82827,92.79525,PM10,53,54,53
India,Assam,Silchar,"Tarapur, Silchar - PCBA",19-01-2024 02:00:00,24.82827,92.79525,NH3,1,1,1
India,Assam,Silchar,"Tarapur, Silchar - PCBA",19-01-2024 02:00:00,24.82827,92.79525,CO,32,46,43
India,Assam,Sivasagar,"Girls College, Sivasagar - PCBA",19-01-2024 02:00:00,26.987634,94.636574,NH3,3,3,3
India,Assam,Sivasagar,"Girls College, Sivasagar - PCBA",19-01-2024 02:00:00,26.987634,94.636574,SO2,4,7,6
India,Assam,Sivasagar,"Girls College, Sivasagar - PCBA",19-01-2024 02:00:00,26.987634,94.636574,CO,14,47,36
India,Bihar,Araria,"Kharahiya Basti, Araria - BSPCB",19-01-2024 02:00:00,26.146529,87.454184,OZONE,10,36,12
India,Bihar,Arrah,"New DM Office, Arrah - BSPCB",19-01-2024 02:00:00,25.5626095,84.663264,PM10,140,214,170
India,Bihar,Aurangabad,"Gurdeo Nagar, Aurangabad - BSPCB",19-01-2024 02:00:00,24.75746,84.366208,PM2.5,83,315,154
India,Bihar,Bettiah,"Kamalnath Nagar, Bettiah - BSPCB",19-01-2024 02:00:00,26.80365,84.51954,NH3,3,3,3
India,Bihar,Bettiah,"Kamalnath Nagar, Bettiah - BSPCB",19-01-2024 02:00:00,26.80365,84.51954,OZONE,23,51,46
India,Bihar,Bhagalpur,"DM Office_Kachari Chowk, Bhagalpur - BSPCB",19-01-2024 02:00:00,25.251013,86.989001,PM2.5,197,352,292
India,Bihar,Bhagalpur,"Mayaganj, Bhagalpur - BSPCB",19-01-2024 02:00:00,25.265194,87.012947,PM2.5,123,376,276
India,Bihar,Bhagalpur,"Mayaganj, Bhagalpur - BSPCB",19-01-2024 02:00:00,25.265194,87.012947,PM10,87,233,149
India,Bihar,Bhagalpur,"Mayaganj, Bhagalpur - BSPCB",19-01-2024 02:00:00,25.265194,87.012947,NO2,3,24,10
India,Bihar,Bhagalpur,"Mayaganj, Bhagalpur - BSPCB",19-01-2024 02:00:00,25.265194,87.012947,NH3,9,10,9
India,Bihar,Bihar Sharif,"D M Colony, Bihar Sharif - BSPCB",19-01-2024 02:00:00,25.204762,85.514960,PM10,107,205,151
India,Bihar,Bihar Sharif,"D M Colony, Bihar Sharif - BSPCB",19-01-2024 02:00:00,25.204762,85.514960,SO2,1,16,7
India,Bihar,Chhapra,"Darshan Nagar, Chhapra - BSPCB",19-01-2024 02:00:00,25.7808257,84.7446768,CO,26,39,30
India,Bihar,Gaya,"Collectorate, Gaya - BSPCB",19-01-2024 02:00:00,24.7955,84.9994,NO2,17,20,18
India,Bihar,Gaya,"Kareemganj, Gaya - BSPCB",19-01-2024 02:00:00,24.792403,84.992416,OZONE,2,30,19
India,Bihar,Gaya,"SFTI Kusdihra, Gaya - BSPCB",19-01-2024 02:00:00,24.762518,84.982348,NO2,20,36,27
India,Bihar,Gaya,"SFTI Kusdihra, Gaya - BSPCB",19-01-2024 02:00:00,24.762518,84.982348,CO,86,104,99
India,Bihar,Gaya,"SFTI Kusdihra, Gaya - BSPCB",19-01-2024 02:00:00,24.762518,84.982348,OZONE,11,27,14
India,Bihar,Katihar,"Mirchaibari, Katihar - BSPCB",19-01-2024 02:00:00,25.560083,87.553265,PM2.5,53,283,138
India,Bihar,Katihar,"Mirchaibari, Katihar - BSPCB",19-01-2024 02:00:00,25.560083,87.553265,PM10,61,211,129
India,Bihar,Katihar,"Mirchaibari, Katihar - BSPCB",19-01-2024 02:00:00,25.560083,87.553265,NH3,2,4,3
India,Bihar,Katihar,"Mirchaibari, Katihar - BSPCB",19-01-2024 02:00:00,25.560083,87.553265,SO2,16,21,19
India,Bihar,Kishanganj,"SDM Office_Khagra, Kishanganj - BSPCB",19-01-2024 02:00:00,26.0881305,87.93840336,PM2.5,10,150,43
India,Bihar,Kishanganj,"SDM Office_Khagra, Kishanganj - BSPCB",19-01-2024 02:00:00,26.0881305,87.93840336,SO2,6,17,13
India,Bihar,Kishanganj,"SDM Office_Khagra, Kishanganj - BSPCB",19-01-2024 02:00:00,26.0881305,87.93840336,OZONE,17,30,19
India,Bihar,Manguraha,"Forest Rest House, Manguraha - BSPCB",19-01-2024 02:00:00,27.308328,84.531742,PM2.5,53,223,117
India,Bihar,Manguraha,"Forest Rest House, Manguraha - BSPCB",19-01-2024 02:00:00,27.308328,84.531742,NO2,NA,NA,NA
India,Bihar,Manguraha,"Forest Rest House, Manguraha - BSPCB",19-01-2024 02:00:00,27.308328,84.531742,OZONE,2,56,39
India,Bihar,Munger,"Town Hall, Munger - BSPCB",19-01-2024 02:00:00,25.376776,86.471523,PM10,100,145,121
India,Bihar,Munger,"Town Hall, Munger - BSPCB",19-01-2024 02:00:00,25.376776,86.471523,SO2,13,41,30
India,Bihar,Muzaffarpur,"Buddha Colony, Muzaffarpur - BSPCB",19-01-2024 02:00:00,26.11442,85.39813,PM10,191,360,275
India,Bihar,Muzaffarpur,"Buddha Colony, Muzaffarpur - BSPCB",19-01-2024 02:00:00,26.11442,85.39813,NO2,24,36,29
India,Bihar,Muzaffarpur,"Buddha Colony, Muzaffarpur - BSPCB",19-01-2024 02:00:00,26.11442,85.39813,NH3,19,25,22
India,Bihar,Muzaffarpur,"MIT-Daudpur Kothi, Muzaffarpur - BSPCB",19-01-2024 02:00:00,26.1403345,85.3650192,PM2.5,230,351,302
India,Bihar,Muzaffarpur,"MIT-Daudpur Kothi, Muzaffarpur - BSPCB",19-01-2024 02:00:00,26.1403345,85.3650192,OZONE,3,7,6
India,Bihar,Muzaffarpur,"Muzaffarpur Collectorate, Muzaffarpur - BSPCB",19-01-2024 02:00:00,26.1209,85.3647,CO,20,92,53
India,Bihar,Patna,"Govt. High School Shikarpur, Patna - BSPCB",19-01-2024 02:00:00,25.592539,85.227158,SO2,1,7,4
India,Bihar,Patna,"Govt. High School Shikarpur, Patna - BSPCB",19-01-2024 02:00:00,25.592539,85.227158,OZONE,7,36,16
India,Bihar,Patna,"IGSC Planetarium Complex, Patna - BSPCB",19-01-2024 02:00:00,25.610369,85.132568,SO2,82,94,88
India,Bihar,Patna,"Muradpur, Patna - BSPCB",19-01-2024 02:00:00,25.619651,85.147382,NO2,2,21,8
India,Bihar,Patna,"Rajbansi Nagar, Patna - BSPCB",19-01-2024 02:00:00,25.599486,85.113666,CO,37,88,57
India,Bihar,Patna,"Samanpura, Patna - BSPCB",19-01-2024 02:00:00,25.596727,85.085624,SO2,4,7,5
India,Bihar,Rajgir,"Dangi Tola, Rajgir - BSPCB",19-01-2024 02:00:00,25.03280,85.41948,PM2.5,290,401,347
India,Bihar,Samastipur,"DM Office_Kasipur, Samastipur - BSPCB",19-01-2024 02:00:00,25.859655,85.77944,NO2,2,8,4
India,Bihar,Sasaram,"Dada Peer, Sasaram - BSPCB",19-01-2024 02:00:00,24.952822,84.002396,NO2,1,11,5
India,Bihar,Sasaram,"Dada Peer, Sasaram - BSPCB",19-01-2024 02:00:00,24.952822,84.002396,OZONE,4,5,4
India,Bihar,Siwan,"Chitragupta Nagar, Siwan - BSPCB",19-01-2024 02:00:00,26.2271665,84.3570427,PM2.5,78,217,123
India,Bihar,Siwan,"Chitragupta Nagar, Siwan - BSPCB",19-01-2024 02:00:00,26.2271665,84.3570427,CO,106,164,140
India,Chandigarh,Chandigarh,"Sector 22, Chandigarh - CPCC",19-01-2024 02:00:00,30.735567,76.775714,NH3,6,17,10
India,Chandigarh,Chandigarh,"Sector-25, Chandigarh - CPCC",19-01-2024 02:00:00,30.751462,76.762879,PM2.5,173,346,265
India,Chandigarh,Chandigarh,"Sector-25, Chandigarh - CPCC",19-01-2024 02:00:00,30.751462,76.762879,SO2,6,16,10
India,Chandigarh,Chandigarh,"Sector-53, Chandigarh - CPCC",19-01-2024 02:00:00,30.719859,76.738637,CO,52,120,105
India,Chhattisgarh,Bhilai,"Civic Center, Bhilai - Bhilai Steel Plant",19-01-2024 02:00:00,21.185571,81.343175,SO2,9,12,11
India,Chhattisgarh,Bhilai,"Hathkhoj, Bhilai - CECB",19-01-2024 02:00:00,21.224231,81.408350,NO2,45,73,57
India,Chhattisgarh,Korba,"Rampur, Korba - CECB",19-01-2024 02:00:00,22.368195,82.746431,SO2,7,23,12
India,Chhattisgarh,Korba,"Urja Nagar, Korba - CECB",19-01-2024 02:00:00,22.348441,82.549611,SO2,3,11,7
India,Chhattisgarh,Kunjemura,"OP Jindal School, Kunjemura - CECB",19-01-2024 02:00:00,22.126650,83.483212,NH3,1,4,2
India,Chhattisgarh,Kunjemura,"OP Jindal School, Kunjemura - CECB",19-01-2024 02:00:00,22.126650,83.483212,SO2,1,16,5
India,Chhattisgarh,Milupara,"Govt. Higher Secondary School, Milupara - CECB",19-01-2024 02:00:00,22.1910172,83.5197009,PM2.5,42,92,65
India,Chhattisgarh,Milupara,"Govt. Higher Secondary School, Milupara - CECB",19-01-2024 02:00:00,22.1910172,83.5197009,NO2,18,68,33
India,Chhattisgarh,Milupara,"Govt. Higher Secondary School, Milupara - CECB",19-01-2024 02:00:00,22.1910172,83.5197009,NH3,1,2,1
India,Chhattisgarh,Raipur,"AIIMS, Raipur - CECB",19-01-2024 02:00:00,21.258815,81.578979,PM10,77,123,90
India,Chhattisgarh,Raipur,"AIIMS, Raipur - CECB",19-01-2024 02:00:00,21.258815,81.578979,CO,32,57,51
India,Chhattisgarh,Raipur,"Bhatagaon New ISBT, Raipur - CECB",19-01-2024 02:00:00,21.219665,81.630094,PM10,71,108,91
India,Chhattisgarh,Raipur,"Bhatagaon New ISBT, Raipur - CECB",19-01-2024 02:00:00,21.219665,81.630094,NO2,69,86,78
India,Chhattisgarh,Raipur,"Siltara Phase-II, Raipur - CECB",19-01-2024 02:00:00,21.371751,81.664929,NH3,1,1,1
India,Chhattisgarh,Raipur,"Siltara Phase-II, Raipur - CECB",19-01-2024 02:00:00,21.371751,81.664929,CO,36,58,50
India,Chhattisgarh,Tumidih,"OP Jindal Industrial Park, Tumidih - CECB",19-01-2024 02:00:00,22.06631475,83.33820077,PM2.5,52,91,70
India,Chhattisgarh,Tumidih,"OP Jindal Industrial Park, Tumidih - CECB",19-01-2024 02:00:00,22.06631475,83.33820077,NO2,13,22,17
India,Chhattisgarh,Tumidih,"OP Jindal Industrial Park, Tumidih - CECB",19-01-2024 02:00:00,22.06631475,83.33820077,SO2,5,7,6
India,Delhi,Delhi,"Alipur, Delhi - DPCC",19-01-2024 02:00:00,28.815329,77.153010,NO2,1,45,30
India,Delhi,Delhi,"Alipur, Delhi - DPCC",19-01-2024 02:00:00,28.815329,77.153010,CO,47,80,70
India,Delhi,Delhi,"Alipur, Delhi - DPCC",19-01-2024 02:00:00,28.815329,77.153010,OZONE,4,76,10
India,Delhi,Delhi,"Anand Vihar, Delhi - DPCC",19-01-2024 02:00:00,28.647622,77.3158090,PM2.5,304,434,364
India,Delhi,Delhi,"Anand Vihar, Delhi - DPCC",19-01-2024 02:00:00,28.647622,77.3158090,CO,4,73,45
India,Delhi,Delhi,"Ashok Vihar, Delhi - DPCC",19-01-2024 02:00:00,28.695381,77.181665,NO2,49,142,88
India,Delhi,Delhi,"Ashok Vihar, Delhi - DPCC",19-01-2024 02:00:00,28.695381,77.181665,CO,28,107,94
India,Delhi,Delhi,"Ashok Vihar, Delhi - DPCC",19-01-2024 02:00:00,28.695381,77.181665,OZONE,4,13,5
India,Delhi,Delhi,"Bawana, Delhi - DPCC",19-01-2024 02:00:00,28.776200,77.051074,PM10,130,440,295
India,Delhi,Delhi,"CRRI Mathura Road, Delhi - IMD",19-01-2024 02:00:00,28.5512005,77.2735737,NO2,25,28,26
India,Delhi,Delhi,"CRRI Mathura Road, Delhi - IMD",19-01-2024 02:00:00,28.5512005,77.2735737,CO,58,90,83
India,Delhi,Delhi,"DTU, Delhi - CPCB",19-01-2024 02:00:00,28.7500499,77.1112615,NO2,17,107,51
India,Delhi,Delhi,"Dr. Karni Singh Shooting Range, Delhi - DPCC",19-01-2024 02:00:00,28.498571,77.264840,PM2.5,168,374,294
India,Delhi,Delhi,"Dr. Karni Singh Shooting Range, Delhi - DPCC",19-01-2024 02:00:00,28.498571,77.264840,OZONE,1,85,6
India,Delhi,Delhi,"Dwarka-Sector 8, Delhi - DPCC ",19-01-2024 02:00:00,28.5710274,77.0719006,NH3,4,9,5
India,Delhi,Delhi,"Dwarka-Sector 8, Delhi - DPCC ",19-01-2024 02:00:00,28.5710274,77.0719006,CO,44,105,92
India,Delhi,Delhi,"IHBAS, Dilshad Garden, Delhi - CPCB",19-01-2024 02:00:00,28.6811736,77.3025234,PM10,117,241,180
India,Delhi,Delhi,"Jahangirpuri, Delhi - DPCC",19-01-2024 02:00:00,28.732820,77.170633,CO,30,101,79
India,Delhi,Delhi,"Lodhi Road, Delhi - IITM",19-01-2024 02:00:00,28.588333,77.221667,OZONE,15,16,15
India,Delhi,Delhi,"Lodhi Road, Delhi - IMD",19-01-2024 02:00:00,28.5918245,77.2273074,NO2,5,6,6
India,Delhi,Delhi,"Major Dhyan Chand National Stadium, Delhi - DPCC",19-01-2024 02:00:00,28.611281,77.237738,PM2.5,206,426,319
India,Delhi,Delhi,"Mandir Marg, Delhi - DPCC",19-01-2024 02:00:00,28.636429,77.201067,NO2,65,123,105
India,Delhi,Delhi,"Mandir Marg, Delhi - DPCC",19-01-2024 02:00:00,28.636429,77.201067,SO2,9,34,15
India,Delhi,Delhi,"Mundka, Delhi - DPCC",19-01-2024 02:00:00,28.684678,77.076574,NO2,43,127,75
India,Delhi,Delhi,"Mundka, Delhi - DPCC",19-01-2024 02:00:00,28.684678,77.076574,NH3,7,14,9
India,Delhi,Delhi,"Najafgarh, Delhi - DPCC",19-01-2024 02:00:00,28.570173,76.933762,PM10,NA,NA,NA
India,Delhi,Delhi,"Najafgarh, Delhi - DPCC",19-01-2024 02:00:00,28.570173,76.933762,NH3,NA,NA,NA
India,Delhi,Delhi,"Najafgarh, Delhi - DPCC",19-01-2024 02:00:00,28.570173,76.933762,OZONE,NA,NA,NA
India,Delhi,Delhi,"Narela, Delhi - DPCC",19-01-2024 02:00:00,28.822836,77.101981,NH3,9,15,12
India,Delhi,Delhi,"Nehru Nagar, Delhi - DPCC",19-01-2024 02:00:00,28.567890,77.250515,CO,57,98,80
India,Delhi,Delhi,"New Moti Bagh, Delhi - MHUA",19-01-2024 02:00:00,28.57834,77.18400,NO2,1,9,4
India,Delhi,Delhi,"North Campus, DU, Delhi - IMD",19-01-2024 02:00:00,28.6573814,77.1585447,OZONE,25,55,28
India,Delhi,Delhi,"Patparganj, Delhi - DPCC",19-01-2024 02:00:00,28.623763,77.287209,NO2,34,73,50
India,Delhi,Delhi,"Patparganj, Delhi - DPCC",19-01-2024 02:00:00,28.623763,77.287209,SO2,8,14,11
India,Delhi,Delhi,"Punjabi Bagh, Delhi - DPCC",19-01-2024 02:00:00,28.674045,77.131023,PM2.5,122,497,372
India,Delhi,Delhi,"Punjabi Bagh, Delhi - DPCC",19-01-2024 02:00:00,28.674045,77.131023,PM10,108,455,281
India,Delhi,Delhi,"Punjabi Bagh, Delhi - DPCC",19-01-2024 02:00:00,28.674045,77.131023,NO2,75,126,96
India,Delhi,Delhi,"Pusa, Delhi - DPCC",19-01-2024 02:00:00,28.639652,77.146275,NO2,111,328,194
India,Delhi,Delhi,"Pusa, Delhi - DPCC",19-01-2024 02:00:00,28.639652,77.146275,SO2,6,15,11
India,Delhi,Delhi,"R K Puram, Delhi - DPCC",19-01-2024 02:00:00,28.563262,77.186937,PM2.5,213,388,330
India,Delhi,Delhi,"R K Puram, Delhi - DPCC",19-01-2024 02:00:00,28.563262,77.186937,CO,52,107,96
India,Delhi,Delhi,"R K Puram, Delhi - DPCC",19-01-2024 02:00:00,28.563262,77.186937,OZONE,8,86,10
India,Delhi,Delhi,"Rohini, Delhi - DPCC",19-01-2024 02:00:00,28.732528,77.119920,PM2.5,233,456,376
India,Delhi,Delhi,"Rohini, Delhi - DPCC",19-01-2024 02:00:00,28.732528,77.119920,SO2,8,18,12
India,Delhi,Delhi,"Shadipur, Delhi - CPCB",19-01-2024 02:00:00,28.6514781,77.1473105,SO2,8,23,15
India,Delhi,Delhi,"Sirifort, Delhi - CPCB",19-01-2024 02:00:00,28.5504249,77.2159377,NO2,103,162,146
India,Delhi,Delhi,"Sonia Vihar, Delhi - DPCC",19-01-2024 02:00:00,28.710508,77.249485,PM10,116,496,290
India,Delhi,Delhi,"Sonia Vihar, Delhi - DPCC",19-01-2024 02:00:00,28.710508,77.249485,CO,47,103,96
India,Delhi,Delhi,"Sri Aurobindo Marg, Delhi - DPCC",19-01-2024 02:00:00,28.531346,77.190156,PM2.5,178,425,306
India,Delhi,Delhi,"Sri Aurobindo Marg, Delhi - DPCC",19-01-2024 02:00:00,28.531346,77.190156,NO2,39,93,59
India,Delhi,Delhi,"Sri Aurobindo Marg, Delhi - DPCC",19-01-2024 02:00:00,28.531346,77.190156,NH3,8,12,10
India,Delhi,Delhi,"Vivek Vihar, Delhi - DPCC",19-01-2024 02:00:00,28.672342,77.315260,NO2,45,121,73
India,Delhi,Delhi,"Wazirpur, Delhi - DPCC",19-01-2024 02:00:00,28.699793,77.165453,PM2.5,257,483,384
India,Delhi,Delhi,"Wazirpur, Delhi - DPCC",19-01-2024 02:00:00,28.699793,77.165453,NO2,124,337,210
India,Gujarat,Ahmedabad,"Chandkheda, Ahmedabad - IITM",19-01-2024 02:00:00,23.107969,72.574648,PM2.5,58,288,117
India,Gujarat,Ahmedabad,"Chandkheda, Ahmedabad - IITM",19-01-2024 02:00:00,23.107969,72.574648,CO,32,112,77
India,Gujarat,Ahmedabad,"Raikhad, Ahmedabad - IITM",19-01-2024 02:00:00,23.020509,72.579261,OZONE,20,20,20
India,Gujarat,Ahmedabad,"Rakhial, Ahmedabad - IITM",19-01-2024 02:00:00,23.016834,72.625775,NO2,8,95,24
India,Gujarat,Ahmedabad,"SAC ISRO Bopal, Ahmedabad - IITM",19-01-2024 02:00:00,23.041137,72.456691,PM10,63,166,103
India,Gujarat,Ahmedabad,"SAC ISRO Bopal, Ahmedabad - IITM",19-01-2024 02:00:00,23.041137,72.456691,SO2,5,5,5
India,Gujarat,Ahmedabad,"SAC ISRO Satellite, Ahmedabad - IITM",19-01-2024 02:00:00,23.023389,72.515201,NO2,24,26,25
India,Gujarat,Ahmedabad,"SAC ISRO Satellite, Ahmedabad - IITM",19-01-2024 02:00:00,23.023389,72.515201,CO,40,42,40
India,Gujarat,Ahmedabad,"SVPI Airport Hansol, Ahmedabad - IITM",19-01-2024 02:00:00,23.076793,72.627874,PM2.5,59,346,133
India,Gujarat,Ahmedabad,"SVPI Airport Hansol, Ahmedabad - IITM",19-01-2024 02:00:00,23.076793,72.627874,NH3,3,3,3
India,Gujarat,Ahmedabad,"Sardar Vallabhbhai Patel Stadium, Ahmedabad - IITM",19-01-2024 02:00:00,23.043070,72.562968,NO2,11,13,13
India,Gujarat,Ahmedabad,"Sardar Vallabhbhai Patel Stadium, Ahmedabad - IITM",19-01-2024 02:00:00,23.043070,72.562968,NH3,3,3,3
India,Gujarat,Ankleshwar,"GIDC, Ankleshwar - GPCB",19-01-2024 02:00:00,21.613267,73.010555,OZONE,20,33,24
India,Gujarat,Gandhinagar,"GIFT City, Gandhinagar - IITM",19-01-2024 02:00:00,23.163798,72.677768,CO,2,25,15
India,Gujarat,Gandhinagar,"IIPHG Lekawada, Gandhinagar - IITM",19-01-2024 02:00:00,23.243639,72.68994,SO2,5,6,6
India,Gujarat,Gandhinagar,"Sector-10, Gandhinagar - GPCB",19-01-2024 02:00:00,23.221714,72.654328,PM2.5,25,69,50
India,Gujarat,Gandhinagar,"Sector-10, Gandhinagar - GPCB",19-01-2024 02:00:00,23.221714,72.654328,PM10,34,132,76
India,Gujarat,Gandhinagar,"Sector-10, Gandhinagar - GPCB",19-01-2024 02:00:00,23.221714,72.654328,SO2,8,20,11
India,Gujarat,Surat,"Science Center, Surat - SMC",19-01-2024 02:00:00,21.170046,72.795405,SO2,14,19,17
India,Gujarat,Vapi,"Phase-1 GIDC, Vapi - GPCB",19-01-2024 02:00:00,20.362421,72.918013,OZONE,1,5,1
India,Gujarat,Vatva,"Phase-4 GIDC, Vatva - GPCB",19-01-2024 02:00:00,22.969611,72.643500,PM2.5,37,301,103
India,Gujarat,Vatva,"Phase-4 GIDC, Vatva - GPCB",19-01-2024 02:00:00,22.969611,72.643500,NO2,22,234,71
India,Gujarat,Vatva,"Phase-4 GIDC, Vatva - GPCB",19-01-2024 02:00:00,22.969611,72.643500,SO2,3,7,5
India,Haryana,Ambala,"Patti Mehar, Ambala - HSPCB",19-01-2024 02:00:00,30.379589,76.778328,PM10,71,212,110
India,Haryana,Ambala,"Patti Mehar, Ambala - HSPCB",19-01-2024 02:00:00,30.379589,76.778328,OZONE,28,44,36
India,Haryana,Bahadurgarh,"Arya Nagar, Bahadurgarh - HSPCB",19-01-2024 02:00:00,28.6701,76.9254,PM2.5,78,314,238
India,Haryana,Bahadurgarh,"Arya Nagar, Bahadurgarh - HSPCB",19-01-2024 02:00:00,28.6701,76.9254,PM10,78,245,155
India,Haryana,Bahadurgarh,"Arya Nagar, Bahadurgarh - HSPCB",19-01-2024 02:00:00,28.6701,76.9254,SO2,8,13,10
India,Haryana,Bhiwani,"H.B. Colony, Bhiwani - HSPCB",19-01-2024 02:00:00,28.806223,76.141105,PM2.5,75,310,129
India,Haryana,Charkhi Dadri,"Mini Secretariat, Charkhi Dadri - HSPCB",19-01-2024 02:00:00,28.593883,76.270653,PM2.5,5,253,103
India,Haryana,Charkhi Dadri,"Mini Secretariat, Charkhi Dadri - HSPCB",19-01-2024 02:00:00,28.593883,76.270653,PM10,5,151,86
India,Haryana,Faridabad,"New Industrial Town, Faridabad - HSPCB",19-01-2024 02:00:00,28.39072,77.30059,PM10,NA,NA,NA
India,Haryana,Faridabad,"Sector 30, Faridabad - HSPCB",19-01-2024 02:00:00,28.4417,77.3217,NH3,14,14,14
India,Haryana,Faridabad,"Sector 30, Faridabad - HSPCB",19-01-2024 02:00:00,28.4417,77.3217,CO,80,118,106
India,Haryana,Faridabad,"Sector- 16A, Faridabad - HSPCB",19-01-2024 02:00:00,28.4088421,77.3099081,NO2,5,47,28
India,Haryana,Fatehabad,"Huda Sector, Fatehabad - HSPCB",19-01-2024 02:00:00,29.503664,75.467934,NO2,29,32,30
India,Haryana,Gurugram,"NISE Gwal Pahari, Gurugram - IMD",19-01-2024 02:00:00,28.422681,77.148944,PM10,62,173,115
India,Haryana,Gurugram,"Teri Gram, Gurugram - HSPCB",19-01-2024 02:00:00,28.4275,77.1465,PM10,90,229,146
India,Haryana,Gurugram,"Vikas Sadan, Gurugram - HSPCB",19-01-2024 02:00:00,28.4501238,77.0263051,SO2,19,39,29
India,Haryana,Kaithal,"Rishi Nagar, Kaithal - HSPCB",19-01-2024 02:00:00,29.8006,76.4155,CO,54,104,81
India,Haryana,Karnal,"Sector-12, Karnal - HSPCB",19-01-2024 02:00:00,29.695300,77.002700,PM10,82,284,139
India,Haryana,Kurukshetra,"Sector-7, Kurukshetra - HSPCB",19-01-2024 02:00:00,29.966942,76.875879,CO,24,70,36
India,Haryana,Mandikhera,"General Hospital, Mandikhera - HSPCB",19-01-2024 02:00:00,27.9002,76.9938,NH3,18,21,20
India,Haryana,Manesar,"Sector-2 IMT, Manesar - HSPCB",19-01-2024 02:00:00,28.360699,76.936090,NO2,14,28,22
India,Haryana,Manesar,"Sector-2 IMT, Manesar - HSPCB",19-01-2024 02:00:00,28.360699,76.936090,SO2,28,39,33
India,Haryana,Manesar,"Sector-2 IMT, Manesar - HSPCB",19-01-2024 02:00:00,28.360699,76.936090,CO,20,48,39
India,Haryana,Narnaul,"Shastri Nagar, Narnaul - HSPCB",19-01-2024 02:00:00,28.060249,76.113115,NH3,5,16,11
India,Haryana,Narnaul,"Shastri Nagar, Narnaul - HSPCB",19-01-2024 02:00:00,28.060249,76.113115,OZONE,14,81,51
India,Haryana,Panipat,"Sector-18, Panipat - HSPCB",19-01-2024 02:00:00,29.497973,76.993331,PM10,104,110,107
India,Haryana,Rohtak,"MD University, Rohtak - HSPCB",19-01-2024 02:00:00,28.52123,76.37138,OZONE,45,54,49
India,Haryana,Sirsa,"F-Block, Sirsa - HSPCB",19-01-2024 02:00:00,29.536400,75.015800,PM2.5,78,230,164
India,Haryana,Yamuna Nagar,"Gobind Pura, Yamuna Nagar - HSPCB",19-01-2024 02:00:00,30.1480566,77.2893471,PM2.5,NA,NA,NA
India,Haryana,Yamuna Nagar,"Gobind Pura, Yamuna Nagar - HSPCB",19-01-2024 02:00:00,30.1480566,77.2893471,PM10,NA,NA,NA
India,Himachal Pradesh,Baddi,"HIMUDA Complex Phase-1, Baddi - HPPCB",19-01-2024 02:00:00,30.943887,76.801991,CO,34,103,79
India,Jharkhand,Dhanbad,"Sardar Patel Nagar, Dhanbad - JSPCB",19-01-2024 02:00:00,23.80569,86.44268,OZONE,NA,NA,NA
India,Jharkhand,Pathardih,"Mohalbani Ghat, Pathardih - DMC",19-01-2024 02:00:00,23.669880,86.411725,PM2.5,NA,NA,NA
India,Karnataka,Bagalkot,"Vidayagiri, Bagalkot - KSPCB",19-01-2024 02:00:00,16.172806,75.659694,NH3,1,2,1
India,Karnataka,Belgaum,"Ramteerth Nagar, Belgaum - KSPCB",19-01-2024 02:00:00,15.888653,74.541751,PM2.5,21,82,49
India,Karnataka,Belgaum,"Ramteerth Nagar, Belgaum - KSPCB",19-01-2024 02:00:00,15.888653,74.541751,SO2,8,8,8
India,Karnataka,Bengaluru,"BTM Layout, Bengaluru - CPCB",19-01-2024 02:00:00,12.9135218,77.5950804,PM2.5,NA,NA,NA
India,Karnataka,Bengaluru,"BTM Layout, Bengaluru - CPCB",19-01-2024 02:00:00,12.9135218,77.5950804,PM10,NA,NA,NA
India,Karnataka,Bengaluru,"BTM Layout, Bengaluru - CPCB",19-01-2024 02:00:00,12.9135218,77.5950804,NH3,NA,NA,NA
India,Karnataka,Bengaluru,"BTM Layout, Bengaluru - CPCB",19-01-2024 02:00:00,12.9135218,77.5950804,OZONE,NA,NA,NA
India,Karnataka,Bengaluru,"Bapuji Nagar, Bengaluru - KSPCB",19-01-2024 02:00:00,12.951913,77.539784,PM2.5,68,200,116
India,Karnataka,Bengaluru,"Bapuji Nagar, Bengaluru - KSPCB",19-01-2024 02:00:00,12.951913,77.539784,NH3,1,1,1
India,Karnataka,Bengaluru,"Bapuji Nagar, Bengaluru - KSPCB",19-01-2024 02:00:00,12.951913,77.539784,CO,30,49,34
India,Karnataka,Bengaluru,"City Railway Station, Bengaluru - KSPCB",19-01-2024 02:00:00,12.9756843,77.5660749,PM10,44,66,56
India,Karnataka,Bengaluru,"Jigani, Bengaluru - KSPCB",19-01-2024 02:00:00,12.7816279,77.6299145,PM2.5,15,232,86
India,Karnataka,Bengaluru,"Jigani, Bengaluru - KSPCB",19-01-2024 02:00:00,12.7816279,77.6299145,PM10,49,139,99
India,Karnataka,Bengaluru,"Jigani, Bengaluru - KSPCB",19-01-2024 02:00:00,12.7816279,77.6299145,SO2,9,10,10
India,Karnataka,Bengaluru,"Kasturi Nagar, Bengaluru - KSPCB",19-01-2024 02:00:00,13.003872,77.664217,SO2,10,10,10
India,Karnataka,Bengaluru,"Kasturi Nagar, Bengaluru - KSPCB",19-01-2024 02:00:00,13.003872,77.664217,CO,24,26,25
India,Karnataka,Bengaluru,"Peenya, Bengaluru - CPCB",19-01-2024 02:00:00,13.0270199,77.494094,NO2,21,28,24
India,Karnataka,Bengaluru,"RVCE-Mailasandra, Bengaluru - KSPCB",19-01-2024 02:00:00,12.921418,77.502466,SO2,4,5,4
