country,state,city,station,last_update,latitude,longitude,pollutant_id,pollutant_min,pollutant_max,pollutant_avg
India,Andhra_Pradesh,Amaravati,"Secretariat, Amaravati - APPCB",08-02-2024 18:00:00,16.5150833,80.5181667,SO2,12,22,16
India,Andhra_Pradesh,Anantapur,"Gulzarpet, Anantapur - APPCB",08-02-2024 18:00:00,14.675886,77.593027,NH3,2,3,3
India,Andhra_Pradesh,Anantapur,"Gulzarpet, Anantapur - APPCB",08-02-2024 18:00:00,14.675886,77.593027,OZONE,1,71,61
India,Andhra_Pradesh,Kadapa,"Yerramukkapalli, Kadapa - APPCB",08-02-2024 18:00:00,14.465052,78.824187,SO2,1,2,2
India,Andhra_Pradesh,Kadapa,"Yerramukkapalli, Kadapa - APPCB",08-02-2024 18:00:00,14.465052,78.824187,OZONE,8,60,51
India,Andhra_Pradesh,Rajamahendravaram,"Anand Kala Kshetram, Rajamahendravaram - APPCB",08-02-2024 18:00:00,16.9872867,81.7363176,PM2.5,65,165,104
India,Andhra_Pradesh,Rajamahendravaram,"Anand Kala Kshetram, Rajamahendravaram - APPCB",08-02-2024 18:00:00,16.9872867,81.7363176,NO2,14,50,24
India,Andhra_Pradesh,Rajamahendravaram,"Anand Kala Kshetram, Rajamahendravaram - APPCB",08-02-2024 18:00:00,16.9872867,81.7363176,OZONE,5,7,6
India,Andhra_Pradesh,Tirupati,"Tirumala, Tirupati - APPCB",08-02-2024 18:00:00,13.67,79.35,PM2.5,12,95,47
India,Andhra_Pradesh,Tirupati,"Tirumala, Tirupati - APPCB",08-02-2024 18:00:00,13.67,79.35,PM10,32,89,53
India,Andhra_Pradesh,Tirupati,"Tirumala, Tirupati - APPCB",08-02-2024 18:00:00,13.67,79.35,CO,29,71,36
India,Andhra_Pradesh,Tirupati,"Vaikuntapuram, Tirupati - APPCB",08-02-2024 18:00:00,13.615387,79.409230,OZONE,1,53,44
India,Andhra_Pradesh,Vijayawada,"HB Colony, Vijayawada - APPCB",08-02-2024 18:00:00,16.536107,80.594233,PM2.5,39,73,56
India,Andhra_Pradesh,Vijayawada,"HB Colony, Vijayawada - APPCB",08-02-2024 18:00:00,16.536107,80.594233,NO2,10,23,16
India,Andhra_Pradesh,Vijayawada,"HB Colony, Vijayawada - APPCB",08-02-2024 18:00:00,16.536107,80.594233,NH3,4,5,4
India,Andhra_Pradesh,Vijayawada,"Kanuru, Vijayawada - APPCB",08-02-2024 18:00:00,16.486692,80.699436,PM10,NA,NA,NA
India,Andhra_Pradesh,Vijayawada,"Kanuru, Vijayawada - APPCB",08-02-2024 18:00:00,16.486692,80.699436,CO,39,46,42
India,Andhra_Pradesh,Vijayawada,"Rajiv Gandhi Park, Vijayawada - APPCB",08-02-2024 18:00:00,16.509717,80.612222,SO2,4,14,8
India,Arunachal_Pradesh,Naharlagun,"Naharlagun, Naharlagun - APSPCB",08-02-2024 18:00:00,27.103358,93.679645,PM10,22,106,54
India,Arunachal_Pradesh,Naharlagun,"Naharlagun, Naharlagun - APSPCB",08-02-2024 18:00:00,27.103358,93.679645,NO2,2,2,2
India,Assam,Guwahati,"IITG, Guwahati - PCBA",08-02-2024 18:00:00,26.2028636,91.70046436,SO2,12,16,13
India,Assam,Guwahati,"LGBI Airport, Guwahati - PCBA",08-02-2024 18:00:00,26.10887,91.589544,NO2,11,67,28
India,Assam,Guwahati,"LGBI Airport, Guwahati - PCBA",08-02-2024 18:00:00,26.10887,91.589544,SO2,12,13,13
India,Assam,Guwahati,"Pan Bazaar, Guwahati - PCBA",08-02-2024 18:00:00,26.187500,91.744194,PM2.5,108,295,203
India,Assam,Guwahati,"Pan Bazaar, Guwahati - PCBA",08-02-2024 18:00:00,26.187500,91.744194,PM10,111,197,148
India,Assam,Guwahati,"Railway Colony, Guwahati - PCBA",08-02-2024 18:00:00,26.181742,91.78063,PM10,96,290,140
India,Assam,Guwahati,"Railway Colony, Guwahati - PCBA",08-02-2024 18:00:00,26.181742,91.78063,NO2,3,4,3
India,Assam,Guwahati,"Railway Colony, Guwahati - PCBA",08-02-2024 18:00:00,26.181742,91.78063,OZONE,7,43,25
India,Assam,Nagaon,"Christianpatty, Nagaon - PCBA",08-02-2024 18:00:00,26.349082,92.68449,NH3,2,3,2
India,Assam,Nalbari,"Bata Chowk, Nalbari - PCBA",08-02-2024 18:00:00,26.446912,91.439057,PM10,80,131,105
India,Assam,Nalbari,"Bata Chowk, Nalbari - PCBA",08-02-2024 18:00:00,26.446912,91.439057,CO,2,105,16
India,Assam,Silchar,"Tarapur, Silchar - PCBA",08-02-2024 18:00:00,24.82827,92.79525,CO,28,41,34
India,Assam,Silchar,"Tarapur, Silchar - PCBA",08-02-2024 18:00:00,24.82827,92.79525,OZONE,1,10,6
India,Assam,Sivasagar,"Girls College, Sivasagar - PCBA",08-02-2024 18:00:00,26.987634,94.636574,PM10,22,90,48
India,Assam,Sivasagar,"Girls College, Sivasagar - PCBA",08-02-2024 18:00:00,26.987634,94.636574,NH3,3,3,3
India,Bihar,Araria,"Kharahiya Basti, Araria - BSPCB",08-02-2024 18:00:00,26.146529,87.454184,OZONE,1,9,8
India,Bihar,Arrah,"New DM Office, Arrah - BSPCB",08-02-2024 18:00:00,25.5626095,84.663264,NO2,10,29,18
India,Bihar,Aurangabad,"Gurdeo Nagar, Aurangabad - BSPCB",08-02-2024 18:00:00,24.75746,84.366208,PM10,29,96,67
India,Bihar,Bettiah,"Kamalnath Nagar, Bettiah - BSPCB",08-02-2024 18:00:00,26.80365,84.51954,PM2.5,27,92,46
India,Bihar,Bhagalpur,"DM Office_Kachari Chowk, Bhagalpur - BSPCB",08-02-2024 18:00:00,25.251013,86.989001,NO2,22,68,38
India,Bihar,Bhagalpur,"Mayaganj, Bhagalpur - BSPCB",08-02-2024 18:00:00,25.265194,87.012947,NH3,9,10,10
India,Bihar,Bihar Sharif,"D M Colony, Bihar Sharif - BSPCB",08-02-2024 18:00:00,25.204762,85.514960,NH3,2,2,2
India,Bihar,Bihar Sharif,"D M Colony, Bihar Sharif - BSPCB",08-02-2024 18:00:00,25.204762,85.514960,SO2,2,17,7
India,Bihar,Buxar,"Charitra Van, Buxar - BSPCB (Formerly known as Central Jail)",08-02-2024 18:00:00,25.567520,83.966379,PM10,187,329,240
India,Bihar,Buxar,"Charitra Van, Buxar - BSPCB (Formerly known as Central Jail)",08-02-2024 18:00:00,25.567520,83.966379,SO2,1,7,3
India,Bihar,Chhapra,"Darshan Nagar, Chhapra - BSPCB",08-02-2024 18:00:00,25.7808257,84.7446768,NH3,9,14,11
India,Bihar,Chhapra,"Darshan Nagar, Chhapra - BSPCB",08-02-2024 18:00:00,25.7808257,84.7446768,SO2,2,78,45
India,Bihar,Gaya,"Collectorate, Gaya - BSPCB",08-02-2024 18:00:00,24.7955,84.9994,NO2,14,17,16
India,Bihar,Gaya,"Collectorate, Gaya - BSPCB",08-02-2024 18:00:00,24.7955,84.9994,SO2,18,34,24
India,Bihar,Gaya,"Collectorate, Gaya - BSPCB",08-02-2024 18:00:00,24.7955,84.9994,OZONE,47,80,59
India,Bihar,Gaya,"Kareemganj, Gaya - BSPCB",08-02-2024 18:00:00,24.792403,84.992416,NO2,30,31,31
India,Bihar,Gaya,"Kareemganj, Gaya - BSPCB",08-02-2024 18:00:00,24.792403,84.992416,NH3,1,6,3
India,Bihar,Gaya,"SFTI Kusdihra, Gaya - BSPCB",08-02-2024 18:00:00,24.762518,84.982348,NH3,4,6,5
India,Bihar,Katihar,"Mirchaibari, Katihar - BSPCB",08-02-2024 18:00:00,25.560083,87.553265,PM10,60,212,122
India,Bihar,Katihar,"Mirchaibari, Katihar - BSPCB",08-02-2024 18:00:00,25.560083,87.553265,NH3,1,4,2
India,Bihar,Katihar,"Mirchaibari, Katihar - BSPCB",08-02-2024 18:00:00,25.560083,87.553265,CO,NA,NA,NA
India,Bihar,Kishanganj,"SDM Office_Khagra, Kishanganj - BSPCB",08-02-2024 18:00:00,26.0881305,87.93840336,PM2.5,22,302,59
India,Bihar,Manguraha,"Forest Rest House, Manguraha - BSPCB",08-02-2024 18:00:00,27.308328,84.531742,PM2.5,NA,NA,NA
India,Bihar,Manguraha,"Forest Rest House, Manguraha - BSPCB",08-02-2024 18:00:00,27.308328,84.531742,NO2,NA,NA,NA
India,Bihar,Manguraha,"Forest Rest House, Manguraha - BSPCB",08-02-2024 18:00:00,27.308328,84.531742,SO2,NA,NA,NA
India,Bihar,Motihari,"Gandak Colony, Motihari - BSPCB",08-02-2024 18:00:00,26.63086,84.90051,PM2.5,48,197,84
India,Bihar,Munger,"Town Hall, Munger - BSPCB",08-02-2024 18:00:00,25.376776,86.471523,PM2.5,33,90,59
India,Bihar,Munger,"Town Hall, Munger - BSPCB",08-02-2024 18:00:00,25.376776,86.471523,NO2,8,9,9
India,Bihar,Muzaffarpur,"Buddha Colony, Muzaffarpur - BSPCB",08-02-2024 18:00:00,26.11442,85.39813,PM10,106,191,146
India,Bihar,Muzaffarpur,"Buddha Colony, Muzaffarpur - BSPCB",08-02-2024 18:00:00,26.11442,85.39813,NH3,8,14,11
India,Bihar,Muzaffarpur,"MIT-Daudpur Kothi, Muzaffarpur - BSPCB",08-02-2024 18:00:00,26.1403345,85.3650192,PM2.5,85,311,166
India,Bihar,Muzaffarpur,"Muzaffarpur Collectorate, Muzaffarpur - BSPCB",08-02-2024 18:00:00,26.1209,85.3647,NO2,5,118,20
India,Bihar,Muzaffarpur,"Muzaffarpur Collectorate, Muzaffarpur - BSPCB",08-02-2024 18:00:00,26.1209,85.3647,CO,27,64,40
India,Bihar,Patna,"Govt. High School Shikarpur, Patna - BSPCB",08-02-2024 18:00:00,25.592539,85.227158,PM10,94,137,117
India,Bihar,Patna,"Rajbansi Nagar, Patna - BSPCB",08-02-2024 18:00:00,25.599486,85.113666,PM10,113,144,131
India,Bihar,Patna,"Rajbansi Nagar, Patna - BSPCB",08-02-2024 18:00:00,25.599486,85.113666,SO2,3,17,8
India,Bihar,Patna,"Rajbansi Nagar, Patna - BSPCB",08-02-2024 18:00:00,25.599486,85.113666,CO,60,92,79
India,Bihar,Purnia,"Mariam Nagar, Purnia - BSPCB",08-02-2024 18:00:00,25.366336,87.117468,PM2.5,62,316,172
India,Bihar,Purnia,"Mariam Nagar, Purnia - BSPCB",08-02-2024 18:00:00,25.366336,87.117468,PM10,103,273,148
India,Bihar,Purnia,"Mariam Nagar, Purnia - BSPCB",08-02-2024 18:00:00,25.366336,87.117468,OZONE,10,35,25
India,Bihar,Rajgir,"Dangi Tola, Rajgir - BSPCB",08-02-2024 18:00:00,25.03280,85.41948,PM10,59,117,86
India,Bihar,Saharsa,"Police Line, Saharsa - BSPCB",08-02-2024 18:00:00,25.892357,86.590325,CO,2,63,18
India,Bihar,Samastipur,"DM Office_Kasipur, Samastipur - BSPCB",08-02-2024 18:00:00,25.859655,85.77944,NH3,3,5,5
India,Bihar,Sasaram,"Dada Peer, Sasaram - BSPCB",08-02-2024 18:00:00,24.952822,84.002396,PM2.5,17,63,41
India,Bihar,Sasaram,"Dada Peer, Sasaram - BSPCB",08-02-2024 18:00:00,24.952822,84.002396,CO,34,54,43
India,Bihar,Siwan,"Chitragupta Nagar, Siwan - BSPCB",08-02-2024 18:00:00,26.2271665,84.3570427,PM10,25,100,47
India,Chandigarh,Chandigarh,"Sector 22, Chandigarh - CPCC",08-02-2024 18:00:00,30.735567,76.775714,PM2.5,80,273,168
India,Chandigarh,Chandigarh,"Sector 22, Chandigarh - CPCC",08-02-2024 18:00:00,30.735567,76.775714,PM10,88,143,111
India,Chandigarh,Chandigarh,"Sector-25, Chandigarh - CPCC",08-02-2024 18:00:00,30.751462,76.762879,PM2.5,114,200,151
India,Chandigarh,Chandigarh,"Sector-25, Chandigarh - CPCC",08-02-2024 18:00:00,30.751462,76.762879,NO2,11,24,15
India,Chandigarh,Chandigarh,"Sector-25, Chandigarh - CPCC",08-02-2024 18:00:00,30.751462,76.762879,SO2,6,14,9
India,Chandigarh,Chandigarh,"Sector-25, Chandigarh - CPCC",08-02-2024 18:00:00,30.751462,76.762879,OZONE,11,59,45
India,Chandigarh,Chandigarh,"Sector-53, Chandigarh - CPCC",08-02-2024 18:00:00,30.719859,76.738637,NO2,19,30,24
India,Chandigarh,Chandigarh,"Sector-53, Chandigarh - CPCC",08-02-2024 18:00:00,30.719859,76.738637,NH3,5,7,6
India,Chandigarh,Chandigarh,"Sector-53, Chandigarh - CPCC",08-02-2024 18:00:00,30.719859,76.738637,SO2,1,12,8
India,Chandigarh,Chandigarh,"Sector-53, Chandigarh - CPCC",08-02-2024 18:00:00,30.719859,76.738637,CO,48,71,55
India,Chhattisgarh,Bhilai,"32Bungalows, Bhilai - CECB",08-02-2024 18:00:00,21.194815,81.314770,NH3,6,6,6
India,Chhattisgarh,Bhilai,"32Bungalows, Bhilai - CECB",08-02-2024 18:00:00,21.194815,81.314770,SO2,3,5,4
India,Chhattisgarh,Bhilai,"Civic Center, Bhilai - Bhilai Steel Plant",08-02-2024 18:00:00,21.185571,81.343175,NO2,NA,NA,NA
India,Chhattisgarh,Bhilai,"Civic Center, Bhilai - Bhilai Steel Plant",08-02-2024 18:00:00,21.185571,81.343175,CO,35,76,38
India,Chhattisgarh,Bhilai,"Hathkhoj, Bhilai - CECB",08-02-2024 18:00:00,21.224231,81.408350,PM2.5,5,94,30
India,Chhattisgarh,Bilaspur,"Mangala, Bilaspur - NTPC",08-02-2024 18:00:00,22.08815,82.13737,PM10,24,123,54
India,Chhattisgarh,Bilaspur,"Mangala, Bilaspur - NTPC",08-02-2024 18:00:00,22.08815,82.13737,NO2,15,18,16
India,Chhattisgarh,Chhal,"Nawapara SECL Colony, Chhal - CECB",08-02-2024 18:00:00,22.118125,83.140608,NH3,2,2,2
India,Chhattisgarh,Chhal,"Nawapara SECL Colony, Chhal - CECB",08-02-2024 18:00:00,22.118125,83.140608,SO2,18,51,28
India,Chhattisgarh,Chhal,"Nawapara SECL Colony, Chhal - CECB",08-02-2024 18:00:00,22.118125,83.140608,OZONE,5,61,53
India,Chhattisgarh,Korba,"Rampur, Korba - CECB",08-02-2024 18:00:00,22.368195,82.746431,PM10,26,69,40
India,Chhattisgarh,Korba,"Urja Nagar, Korba - CECB",08-02-2024 18:00:00,22.348441,82.549611,PM10,19,56,35
India,Chhattisgarh,Korba,"Urja Nagar, Korba - CECB",08-02-2024 18:00:00,22.348441,82.549611,CO,18,28,19
India,Chhattisgarh,Raipur,"AIIMS, Raipur - CECB",08-02-2024 18:00:00,21.258815,81.578979,PM2.5,16,60,44
India,Chhattisgarh,Raipur,"AIIMS, Raipur - CECB",08-02-2024 18:00:00,21.258815,81.578979,NH3,4,4,4
India,Chhattisgarh,Raipur,"Bhatagaon New ISBT, Raipur - CECB",08-02-2024 18:00:00,21.219665,81.630094,PM10,27,115,64
India,Chhattisgarh,Raipur,"Krishak Nagar, Raipur - CECB",08-02-2024 18:00:00,21.237755,81.705301,PM10,28,99,56
India,Chhattisgarh,Raipur,"Siltara Phase-II, Raipur - CECB",08-02-2024 18:00:00,21.371751,81.664929,NO2,43,55,50
India,Chhattisgarh,Tumidih,"OP Jindal Industrial Park, Tumidih - CECB",08-02-2024 18:00:00,22.06631475,83.33820077,NO2,13,29,20
India,Delhi,Delhi,"Anand Vihar, Delhi - DPCC",08-02-2024 18:00:00,28.647622,77.3158090,PM2.5,62,292,162
India,Delhi,Delhi,"Anand Vihar, Delhi - DPCC",08-02-2024 18:00:00,28.647622,77.3158090,SO2,18,36,27
India,Delhi,Delhi,"Ashok Vihar, Delhi - DPCC",08-02-2024 18:00:00,28.695381,77.181665,PM2.5,42,278,162
India,Delhi,Delhi,"Ashok Vihar, Delhi - DPCC",08-02-2024 18:00:00,28.695381,77.181665,CO,56,74,58
India,Delhi,Delhi,"Bawana, Delhi - DPCC",08-02-2024 18:00:00,28.776200,77.051074,OZONE,8,76,59
India,Delhi,Delhi,"CRRI Mathura Road, Delhi - IMD",08-02-2024 18:00:00,28.5512005,77.2735737,PM10,66,149,107
India,Delhi,Delhi,"CRRI Mathura Road, Delhi - IMD",08-02-2024 18:00:00,28.5512005,77.2735737,OZONE,4,32,25
India,Delhi,Delhi,"Dr. Karni Singh Shooting Range, Delhi - DPCC",08-02-2024 18:00:00,28.498571,77.264840,NO2,33,109,53
India,Delhi,Delhi,"Dwarka-Sector 8, Delhi - DPCC ",08-02-2024 18:00:00,28.5710274,77.0719006,PM10,116,266,164
India,Delhi,Delhi,"Dwarka-Sector 8, Delhi - DPCC ",08-02-2024 18:00:00,28.5710274,77.0719006,CO,22,72,29
India,Delhi,Delhi,"IHBAS, Dilshad Garden, Delhi - CPCB",08-02-2024 18:00:00,28.6811736,77.3025234,SO2,NA,NA,NA
India,Delhi,Delhi,"ITO, Delhi - CPCB",08-02-2024 18:00:00,28.628624,77.241060,PM10,48,120,80
India,Delhi,Delhi,"ITO, Delhi - CPCB",08-02-2024 18:00:00,28.628624,77.241060,SO2,17,31,23
India,Delhi,Delhi,"Jahangirpuri, Delhi - DPCC",08-02-2024 18:00:00,28.732820,77.170633,OZONE,21,119,97
India,Delhi,Delhi,"Lodhi Road, Delhi - IMD",08-02-2024 18:00:00,28.5918245,77.2273074,PM10,84,134,112
India,Delhi,Delhi,"Lodhi Road, Delhi - IMD",08-02-2024 18:00:00,28.5918245,77.2273074,CO,40,52,42
India,Delhi,Delhi,"Major Dhyan Chand National Stadium, Delhi - DPCC",08-02-2024 18:00:00,28.611281,77.237738,PM10,87,157,118
India,Delhi,Delhi,"Major Dhyan Chand National Stadium, Delhi - DPCC",08-02-2024 18:00:00,28.611281,77.237738,NO2,32,104,52
India,Delhi,Delhi,"Mandir Marg, Delhi - DPCC",08-02-2024 18:00:00,28.636429,77.201067,NH3,16,19,18
India,Delhi,Delhi,"NSIT Dwarka, Delhi - CPCB",08-02-2024 18:00:00,28.60909,77.0325413,OZONE,29,80,63
India,Delhi,Delhi,"Najafgarh, Delhi - DPCC",08-02-2024 18:00:00,28.570173,76.933762,CO,52,88,85
India,Delhi,Delhi,"Narela, Delhi - DPCC",08-02-2024 18:00:00,28.822836,77.101981,PM2.5,47,321,161
India,Delhi,Delhi,"Nehru Nagar, Delhi - DPCC",08-02-2024 18:00:00,28.567890,77.250515,NO2,18,28,22
India,Delhi,Delhi,"Nehru Nagar, Delhi - DPCC",08-02-2024 18:00:00,28.567890,77.250515,SO2,1,16,10
India,Delhi,Delhi,"New Moti Bagh, Delhi - MHUA",08-02-2024 18:00:00,28.57834,77.18400,PM2.5,66,308,188
India,Delhi,Delhi,"New Moti Bagh, Delhi - MHUA",08-02-2024 18:00:00,28.57834,77.18400,CO,20,44,22
India,Delhi,Delhi,"North Campus, DU, Delhi - IMD",08-02-2024 18:00:00,28.6573814,77.1585447,CO,12,18,13
India,Delhi,Delhi,"Okhla Phase-2, Delhi - DPCC",08-02-2024 18:00:00,28.530785,77.271255,PM10,112,162,137
India,Delhi,Delhi,"Patparganj, Delhi - DPCC",08-02-2024 18:00:00,28.623763,77.287209,PM2.5,42,284,142
India,Delhi,Delhi,"Patparganj, Delhi - DPCC",08-02-2024 18:00:00,28.623763,77.287209,OZONE,7,96,80
India,Delhi,Delhi,"Punjabi Bagh, Delhi - DPCC",08-02-2024 18:00:00,28.674045,77.131023,OZONE,10,28,22
India,Delhi,Delhi,"Pusa, Delhi - DPCC",08-02-2024 18:00:00,28.639652,77.146275,NH3,17,26,21
India,Delhi,Delhi,"R K Puram, Delhi - DPCC",08-02-2024 18:00:00,28.563262,77.186937,PM10,112,236,150
India,Delhi,Delhi,"R K Puram, Delhi - DPCC",08-02-2024 18:00:00,28.563262,77.186937,SO2,17,28,22
India,Delhi,Delhi,"R K Puram, Delhi - DPCC",08-02-2024 18:00:00,28.563262,77.186937,CO,16,54,23
India,Delhi,Delhi,"R K Puram, Delhi - DPCC",08-02-2024 18:00:00,28.563262,77.186937,OZONE,15,121,98
India,Delhi,Delhi,"Rohini, Delhi - DPCC",08-02-2024 18:00:00,28.732528,77.119920,PM10,104,184,133
India,Delhi,Delhi,"Shadipur, Delhi - CPCB",08-02-2024 18:00:00,28.6514781,77.1473105,CO,22,72,32
India,Delhi,Delhi,"Sonia Vihar, Delhi - DPCC",08-02-2024 18:00:00,28.710508,77.249485,PM10,100,156,132
India,Delhi,Delhi,"Sri Aurobindo Marg, Delhi - DPCC",08-02-2024 18:00:00,28.531346,77.190156,SO2,10,15,12
India,Delhi,Delhi,"Sri Aurobindo Marg, Delhi - DPCC",08-02-2024 18:00:00,28.531346,77.190156,CO,11,37,15
India,Delhi,Delhi,"Sri Aurobindo Marg, Delhi - DPCC",08-02-2024 18:00:00,28.531346,77.190156,OZONE,3,42,34
India,Delhi,Delhi,"Vivek Vihar, Delhi - DPCC",08-02-2024 18:00:00,28.672342,77.315260,PM10,118,167,144
India,Delhi,Delhi,"Wazirpur, Delhi - DPCC",08-02-2024 18:00:00,28.699793,77.165453,CO,27,72,40
India,Gujarat,Ahmedabad,"Chandkheda, Ahmedabad - IITM",08-02-2024 18:00:00,23.107969,72.574648,PM2.5,55,227,86
India,Gujarat,Ahmedabad,"Chandkheda, Ahmedabad - IITM",08-02-2024 18:00:00,23.107969,72.574648,NO2,21,31,27
India,Gujarat,Ahmedabad,"Gyaspur, Ahmedabad - IITM",08-02-2024 18:00:00,22.977134,72.553024,NO2,NA,NA,NA
India,Gujarat,Ahmedabad,"Gyaspur, Ahmedabad - IITM",08-02-2024 18:00:00,22.977134,72.553024,OZONE,18,20,19
India,Gujarat,Ahmedabad,"Maninagar, Ahmedabad - GPCB",08-02-2024 18:00:00,23.002657,72.591912,OZONE,68,93,82
India,Gujarat,Ahmedabad,"Raikhad, Ahmedabad - IITM",08-02-2024 18:00:00,23.020509,72.579261,SO2,4,25,8
India,Gujarat,Ahmedabad,"Rakhial, Ahmedabad - IITM",08-02-2024 18:00:00,23.016834,72.625775,NH3,NA,NA,NA
India,Gujarat,Ahmedabad,"Rakhial, Ahmedabad - IITM",08-02-2024 18:00:00,23.016834,72.625775,OZONE,28,47,41
India,Gujarat,Ahmedabad,"SAC ISRO Satellite, Ahmedabad - IITM",08-02-2024 18:00:00,23.023389,72.515201,CO,18,49,43
India,Gujarat,Ahmedabad,"SAC ISRO Satellite, Ahmedabad - IITM",08-02-2024 18:00:00,23.023389,72.515201,OZONE,7,16,12
India,Gujarat,Ahmedabad,"Sardar Vallabhbhai Patel Stadium, Ahmedabad - IITM",08-02-2024 18:00:00,23.043070,72.562968,PM10,65,164,100
India,Gujarat,Ahmedabad,"Sardar Vallabhbhai Patel Stadium, Ahmedabad - IITM",08-02-2024 18:00:00,23.043070,72.562968,SO2,16,22,20
India,Gujarat,Ankleshwar,"GIDC, Ankleshwar - GPCB",08-02-2024 18:00:00,21.613267,73.010555,NO2,36,37,36
India,Gujarat,Gandhinagar,"GIFT City, Gandhinagar - IITM",08-02-2024 18:00:00,23.163798,72.677768,CO,11,24,22
India,Gujarat,Gandhinagar,"IIPHG Lekawada, Gandhinagar - IITM",08-02-2024 18:00:00,23.243639,72.68994,PM10,46,477,249
India,Gujarat,Gandhinagar,"IIPHG Lekawada, Gandhinagar - IITM",08-02-2024 18:00:00,23.243639,72.68994,CO,20,35,23
India,Gujarat,Gandhinagar,"Sector-10, Gandhinagar - GPCB",08-02-2024 18:00:00,23.221714,72.654328,PM2.5,17,31,24
India,Gujarat,Surat,"Science Center, Surat - SMC",08-02-2024 18:00:00,21.170046,72.795405,PM2.5,1,500,59
India,Gujarat,Vapi,"Phase-1 GIDC, Vapi - GPCB",08-02-2024 18:00:00,20.362421,72.918013,PM2.5,77,221,130
India,Gujarat,Vatva,"Phase-4 GIDC, Vatva - GPCB",08-02-2024 18:00:00,22.969611,72.643500,NO2,21,77,38
India,Haryana,Ambala,"Patti Mehar, Ambala - HSPCB",08-02-2024 18:00:00,30.379589,76.778328,PM2.5,42,99,70
India,Haryana,Ambala,"Patti Mehar, Ambala - HSPCB",08-02-2024 18:00:00,30.379589,76.778328,NO2,2,3,2
India,Haryana,Ambala,"Patti Mehar, Ambala - HSPCB",08-02-2024 18:00:00,30.379589,76.778328,NH3,6,9,9
India,Haryana,Ambala,"Patti Mehar, Ambala - HSPCB",08-02-2024 18:00:00,30.379589,76.778328,CO,29,60,46
India,Haryana,Ambala,"Patti Mehar, Ambala - HSPCB",08-02-2024 18:00:00,30.379589,76.778328,OZONE,26,44,36
India,Haryana,Ballabgarh,"Nathu Colony, Ballabgarh - HSPCB",08-02-2024 18:00:00,28.3419248,77.319699,PM10,133,196,165
India,Haryana,Ballabgarh,"Nathu Colony, Ballabgarh - HSPCB",08-02-2024 18:00:00,28.3419248,77.319699,NH3,1,3,2
India,Haryana,Ballabgarh,"Nathu Colony, Ballabgarh - HSPCB",08-02-2024 18:00:00,28.3419248,77.319699,OZONE,8,15,13
India,Haryana,Bhiwani,"H.B. Colony, Bhiwani - HSPCB",08-02-2024 18:00:00,28.806223,76.141105,NH3,6,6,6
India,Haryana,Bhiwani,"H.B. Colony, Bhiwani - HSPCB",08-02-2024 18:00:00,28.806223,76.141105,SO2,6,17,10
India,Haryana,Charkhi Dadri,"Mini Secretariat, Charkhi Dadri - HSPCB",08-02-2024 18:00:00,28.593883,76.270653,PM10,57,114,83
India,Haryana,Dharuhera,"Municipal Corporation Office, Dharuhera -  HSPCB",08-02-2024 18:00:00,28.206800,76.799700,OZONE,17,83,65
India,Haryana,Faridabad,"New Industrial Town, Faridabad - HSPCB",08-02-2024 18:00:00,28.39072,77.30059,SO2,15,24,19
India,Haryana,Faridabad,"Sector 30, Faridabad - HSPCB",08-02-2024 18:00:00,28.4417,77.3217,PM10,98,116,110
India,Haryana,Faridabad,"Sector 30, Faridabad - HSPCB",08-02-2024 18:00:00,28.4417,77.3217,CO,50,70,54
India,Haryana,Faridabad,"Sector- 16A, Faridabad - HSPCB",08-02-2024 18:00:00,28.4088421,77.3099081,OZONE,14,14,14
India,Haryana,Fatehabad,"Huda Sector, Fatehabad - HSPCB",08-02-2024 18:00:00,29.503664,75.467934,PM2.5,45,113,86
India,Haryana,Fatehabad,"Huda Sector, Fatehabad - HSPCB",08-02-2024 18:00:00,29.503664,75.467934,SO2,5,16,9
India,Haryana,Gurugram,"Teri Gram, Gurugram - HSPCB",08-02-2024 18:00:00,28.4275,77.1465,PM2.5,NA,NA,NA
India,Haryana,Gurugram,"Vikas Sadan, Gurugram - HSPCB",08-02-2024 18:00:00,28.4501238,77.0263051,OZONE,8,68,50
India,Haryana,Jind,"Police Lines, Jind - HSPCB",08-02-2024 18:00:00,29.307814,76.337619,NO2,8,15,12
India,Haryana,Jind,"Police Lines, Jind - HSPCB",08-02-2024 18:00:00,29.307814,76.337619,CO,1,126,36
India,Haryana,Karnal,"Sector-12, Karnal - HSPCB",08-02-2024 18:00:00,29.695300,77.002700,SO2,12,13,13
India,Haryana,Kurukshetra,"Sector-7, Kurukshetra - HSPCB",08-02-2024 18:00:00,29.966942,76.875879,CO,12,29,20
India,Haryana,Mandikhera,"General Hospital, Mandikhera - HSPCB",08-02-2024 18:00:00,27.9002,76.9938,PM10,41,73,60
India,Haryana,Manesar,"Sector-2 IMT, Manesar - HSPCB",08-02-2024 18:00:00,28.360699,76.936090,SO2,7,39,26
India,Haryana,Narnaul,"Shastri Nagar, Narnaul - HSPCB",08-02-2024 18:00:00,28.060249,76.113115,NH3,5,18,11
India,Haryana,Narnaul,"Shastri Nagar, Narnaul - HSPCB",08-02-2024 18:00:00,28.060249,76.113115,OZONE,15,86,53
India,Haryana,Palwal,"Shyam Nagar, Palwal - HSPCB",08-02-2024 18:00:00,28.1485564,77.3320667,NO2,5,5,5
India,Haryana,Palwal,"Shyam Nagar, Palwal - HSPCB",08-02-2024 18:00:00,28.1485564,77.3320667,SO2,8,24,15
India,Haryana,Rohtak,"MD University, Rohtak - HSPCB",08-02-2024 18:00:00,28.52123,76.37138,NO2,46,55,51
India,Haryana,Sirsa,"F-Block, Sirsa - HSPCB",08-02-2024 18:00:00,29.536400,75.015800,PM2.5,50,144,82
India,Haryana,Sirsa,"F-Block, Sirsa - HSPCB",08-02-2024 18:00:00,29.536400,75.015800,OZONE,30,85,69
India,Haryana,Sonipat,"Murthal, Sonipat - HSPCB",08-02-2024 18:00:00,29.027200,77.062100,PM10,51,103,82
India,Haryana,Yamuna Nagar,"Gobind Pura, Yamuna Nagar - HSPCB",08-02-2024 18:00:00,30.1480566,77.2893471,PM10,74,102,88
India,Himachal Pradesh,Baddi,"HIMUDA Complex Phase-1, Baddi - HPPCB",08-02-2024 18:00:00,30.943887,76.801991,SO2,25,123,62
India,Jharkhand,Pathardih,"Mohalbani Ghat, Pathardih - DMC",08-02-2024 18:00:00,23.669880,86.411725,PM2.5,28,115,57
India,Karnataka,Bagalkot,"Vidayagiri, Bagalkot - KSPCB",08-02-2024 18:00:00,16.172806,75.659694,NO2,10,11,10
India,Karnataka,Bagalkot,"Vidayagiri, Bagalkot - KSPCB",08-02-2024 18:00:00,16.172806,75.659694,OZONE,37,52,45
India,Karnataka,Belgaum,"Ramteerth Nagar, Belgaum - KSPCB",08-02-2024 18:00:00,15.888653,74.541751,PM2.5,41,137,74
India,Karnataka,Belgaum,"Ramteerth Nagar, Belgaum - KSPCB",08-02-2024 18:00:00,15.888653,74.541751,NO2,27,33,29
India,Karnataka,Belgaum,"Ramteerth Nagar, Belgaum - KSPCB",08-02-2024 18:00:00,15.888653,74.541751,CO,36,46,41
India,Karnataka,Bengaluru,"BTM Layout, Bengaluru - CPCB",08-02-2024 18:00:00,12.9135218,77.5950804,PM2.5,34,59,46
India,Karnataka,Bengaluru,"BTM Layout, Bengaluru - CPCB",08-02-2024 18:00:00,12.9135218,77.5950804,PM10,45,100,67
India,Karnataka,Bengaluru,"BTM Layout, Bengaluru - CPCB",08-02-2024 18:00:00,12.9135218,77.5950804,NO2,37,49,41
India,Karnataka,Bengaluru,"BTM Layout, Bengaluru - CPCB",08-02-2024 18:00:00,12.9135218,77.5950804,NH3,5,18,12
India,Karnataka,Bengaluru,"Bapuji Nagar, Bengaluru - KSPCB",08-02-2024 18:00:00,12.951913,77.539784,CO,28,48,35
India,Karnataka,Bengaluru,"City Railway Station, Bengaluru - KSPCB",08-02-2024 18:00:00,12.9756843,77.5660749,NO2,22,32,28
India,Karnataka,Bengaluru,"Hebbal, Bengaluru - KSPCB",08-02-2024 18:00:00,13.029152,77.585901,PM2.5,NA,NA,NA
India,Karnataka,Bengaluru,"Hebbal, Bengaluru - KSPCB",08-02-2024 18:00:00,13.029152,77.585901,PM10,NA,NA,NA
India,Karnataka,Bengaluru,"Hombegowda Nagar, Bengaluru - KSPCB",08-02-2024 18:00:00,12.938539,77.590100,PM2.5,28,112,63
India,Karnataka,Bengaluru,"Hombegowda Nagar, Bengaluru - KSPCB",08-02-2024 18:00:00,12.938539,77.590100,NO2,33,46,41
India,Karnataka,Bengaluru,"Jayanagar 5th Block, Bengaluru - KSPCB",08-02-2024 18:00:00,12.920984,77.584908,PM2.5,52,500,115
India,Karnataka,Bengaluru,"Jayanagar 5th Block, Bengaluru - KSPCB",08-02-2024 18:00:00,12.920984,77.584908,SO2,15,31,22
India,Karnataka,Bengaluru,"Jayanagar 5th Block, Bengaluru - KSPCB",08-02-2024 18:00:00,12.920984,77.584908,OZONE,18,19,18
India,Karnataka,Bengaluru,"Jigani, Bengaluru - KSPCB",08-02-2024 18:00:00,12.7816279,77.6299145,NH3,3,3,3
India,Karnataka,Bengaluru,"Jigani, Bengaluru - KSPCB",08-02-2024 18:00:00,12.7816279,77.6299145,SO2,15,15,15
India,Karnataka,Bengaluru,"Peenya, Bengaluru - CPCB",08-02-2024 18:00:00,13.0270199,77.494094,OZONE,18,103,62
India,Karnataka,Bengaluru,"Sanegurava Halli, Bengaluru - KSPCB",08-02-2024 18:00:00,12.990328,77.5431385,PM10,30,67,43
India,Karnataka,Bengaluru,"Shivapura_Peenya, Bengaluru - KSPCB",08-02-2024 18:00:00,13.0246342,77.5080115,SO2,2,35,12
India,Karnataka,Bengaluru,"Silk Board, Bengaluru - KSPCB",08-02-2024 18:00:00,12.917348,77.622813,NO2,NA,NA,NA
India,Karnataka,Bengaluru,"Silk Board, Bengaluru - KSPCB",08-02-2024 18:00:00,12.917348,77.622813,NH3,NA,NA,NA
India,Karnataka,Bidar,"Naubad, Bidar - KSPCB",08-02-2024 18:00:00,17.930306,77.482194,NO2,7,9,8
India,Karnataka,Bidar,"Naubad, Bidar - KSPCB",08-02-2024 18:00:00,17.930306,77.482194,SO2,16,23,18
India,Karnataka,Bidar,"Naubad, Bidar - KSPCB",08-02-2024 18:00:00,17.930306,77.482194,CO,56,86,59
India,Karnataka,Chamarajanagar,"Urban, Chamarajanagar - KSPCB",08-02-2024 18:00:00,11.55358,76.55521,OZONE,14,45,36
India,Karnataka,Davanagere,"Devaraj Urs Badavane, Davanagere - KSPCB",08-02-2024 18:00:00,14.475800,75.905200,OZONE,23,46,33
India,Karnataka,Gadag,"Panchal Nagar, Gadag - KSPCB",08-02-2024 18:00:00,15.411456,75.638133,NO2,8,31,15
India,Karnataka,Hassan,"B.Katihalli, Hassan - KSPCB",08-02-2024 18:00:00,13.008556,76.125258,PM2.5,37,167,68
India,Karnataka,Hassan,"B.Katihalli, Hassan - KSPCB",08-02-2024 18:00:00,13.008556,76.125258,NO2,1,14,9
India,Karnataka,Hassan,"B.Katihalli, Hassan - KSPCB",08-02-2024 18:00:00,13.008556,76.125258,SO2,NA,NA,NA
India,Karnataka,Haveri,"Ashwini Nagar, Haveri - KSPCB",08-02-2024 18:00:00,14.791800,75.389600,PM10,59,119,88
India,Karnataka,Hubballi,"Lingaraj Nagar, Hubballi - KSPCB",08-02-2024 18:00:00,15.3714823,75.1160168,PM2.5,NA,NA,NA
India,Karnataka,Hubballi,"Lingaraj Nagar, Hubballi - KSPCB",08-02-2024 18:00:00,15.3714823,75.1160168,OZONE,48,55,51
India,Karnataka,Kalaburagi,"Lal Bahadur Shastri Nagar, Kalaburagi - KSPCB",08-02-2024 18:00:00,17.321993,76.822628,NO2,11,12,11
India,Karnataka,Kolar,"Tamaka Ind. Area, Kolar - KSPCB",08-02-2024 18:00:00,13.1276288,78.1570122,NH3,6,15,9
India,Karnataka,Kolar,"Tamaka Ind. Area, Kolar - KSPCB",08-02-2024 18:00:00,13.1276288,78.1570122,CO,6,24,10
India,Karnataka,Koppal,"Diwator Nagar, Koppal - KSPCB",08-02-2024 18:00:00,15.347630,76.181767,PM10,41,107,65
India,Karnataka,Koppal,"Diwator Nagar, Koppal - KSPCB",08-02-2024 18:00:00,15.347630,76.181767,CO,102,120,104
India,Karnataka,Mysuru,"Hebbal 1st Stage, Mysuru - KSPCB",08-02-2024 18:00:00,12.21041,76.37376,NH3,1,3,2
India,Karnataka,Raichur,"Haji Colony, Raichur - KSPCB",08-02-2024 18:00:00,16.208139,77.348417,NH3,1,3,2
India,Karnataka,Ramanagara,"Vijay Nagar, Ramanagara - KSPCB",08-02-2024 18:00:00,12.733409,77.298051,SO2,17,38,27
India,Karnataka,Shivamogga,"Vinoba Nagara, Shivamogga - KSPCB",08-02-2024 18:00:00,13.940000,75.555917,SO2,7,15,12
India,Karnataka,Tumakuru,"Thimmalapura, Tumakuru - KSPCB",08-02-2024 18:00:00,13.377516,77.099072,NO2,26,66,44
India,Karnataka,Tumakuru,"Thimmalapura, Tumakuru - KSPCB",08-02-2024 18:00:00,13.377516,77.099072,OZONE,7,71,47
India,Karnataka,Udupi,"Brahmagiri, Udupi - KSPCB",08-02-2024 18:00:00,13.34194444,74.74694444,PM10,42,98,68
India,Karnataka,Udupi,"Brahmagiri, Udupi - KSPCB",08-02-2024 18:00:00,13.34194444,74.74694444,CO,42,54,52
India,Karnataka,Vijayapura,"Ibrahimpur, Vijayapura - KSPCB",08-02-2024 18:00:00,16.802639,75.722694,PM10,38,39,39
India,Karnataka,Vijayapura,"Ibrahimpur, Vijayapura - KSPCB",08-02-2024 18:00:00,16.802639,75.722694,NH3,2,2,2
India,Karnataka,Vijayapura,"Ibrahimpur, Vijayapura - KSPCB",08-02-2024 18:00:00,16.802639,75.722694,SO2,6,50,23
India,Karnataka,Vijayapura,"Ibrahimpur, Vijayapura - KSPCB",08-02-2024 18:00:00,16.802639,75.722694,CO,34,78,46
India,Karnataka,Yadgir,"Collector Office, Yadgir - KSPCB",08-02-2024 18:00:00,16.7602,77.1428,SO2,2,37,16
India,Kerala,Eloor,"Udyogamandal, Eloor - Kerala PCB",08-02-2024 18:00:00,10.073232,76.302765,SO2,1,7,2
India,Kerala,Eloor,"Udyogamandal, Eloor - Kerala PCB",08-02-2024 18:00:00,10.073232,76.302765,OZONE,10,17,15
India,Kerala,Kannur,"Thavakkara, Kannur - Kerala PCB",08-02-2024 18:00:00,11.875000,75.373200,SO2,4,6,5
India,Kerala,Kochi,"Vyttila, Kochi - Kerala PCB",08-02-2024 18:00:00,9.969447,76.321186,PM2.5,49,226,133
India,Kerala,Kochi,"Vyttila, Kochi - Kerala PCB",08-02-2024 18:00:00,9.969447,76.321186,PM10,68,140,114
India,Kerala,Kochi,"Vyttila, Kochi - Kerala PCB",08-02-2024 18:00:00,9.969447,76.321186,SO2,NA,NA,NA
India,Kerala,Kollam,"Polayathode, Kollam - Kerala PCB",08-02-2024 18:00:00,8.8787,76.6073,PM2.5,92,306,170
India,Kerala,Kollam,"Polayathode, Kollam - Kerala PCB",08-02-2024 18:00:00,8.8787,76.6073,CO,16,56,21
India,Kerala,Thiruvananthapuram,"Kariavattom, Thiruvananthapuram - Kerala PCB",08-02-2024 18:00:00,8.563700,76.886500,SO2,2,11,6
India,Kerala,Thiruvananthapuram,"Kariavattom, Thiruvananthapuram - Kerala PCB",08-02-2024 18:00:00,8.563700,76.886500,CO,14,64,27
India,Kerala,Thrissur,"Corporation Ground, Thrissur - Kerala PCB",08-02-2024 18:00:00,10.532400,76.215900,SO2,1,18,7
India,Madhya Pradesh,Bhopal,"Idgah Hills, Bhopal - MPPCB",08-02-2024 18:00:00,23.264759,77.381568,PM10,65,117,97
India,Madhya Pradesh,Bhopal,"Idgah Hills, Bhopal - MPPCB",08-02-2024 18:00:00,23.264759,77.381568,SO2,10,21,14
India,Madhya Pradesh,Bhopal,"Idgah Hills, Bhopal - MPPCB",08-02-2024 18:00:00,23.264759,77.381568,OZONE,36,94,90
India,Madhya Pradesh,Bhopal,"Paryavaran Parisar, Bhopal - MPPCB",08-02-2024 18:00:00,23.210494,77.425409,NO2,20,76,36
India,Madhya Pradesh,Bhopal,"Paryavaran Parisar, Bhopal - MPPCB",08-02-2024 18:00:00,23.210494,77.425409,NH3,7,10,8
India,Madhya Pradesh,Bhopal,"Paryavaran Parisar, Bhopal - MPPCB",08-02-2024 18:00:00,23.210494,77.425409,SO2,21,28,24
India,Madhya Pradesh,Bhopal,"T T Nagar, Bhopal - MPPCB",08-02-2024 18:00:00,23.233584,77.400574,PM2.5,30,90,67
India,Madhya Pradesh,Gwalior,"City Center, Gwalior - MPPCB",08-02-2024 18:00:00,26.203442,78.193251,CO,32,74,38
India,Madhya Pradesh,Gwalior,"City Center, Gwalior - MPPCB",08-02-2024 18:00:00,26.203442,78.193251,OZONE,39,112,85
India,Madhya Pradesh,Gwalior,"Deen Dayal Nagar, Gwalior - MPPCB",08-02-2024 18:00:00,26.259242,78.216432,PM10,67,139,96
India,Madhya Pradesh,Gwalior,"Deen Dayal Nagar, Gwalior - MPPCB",08-02-2024 18:00:00,26.259242,78.216432,NO2,14,46,23
India,Madhya Pradesh,Gwalior,"Maharaj Bada, Gwalior - MPPCB",08-02-2024 18:00:00,26.200388,78.147714,PM2.5,30,233,84
India,Madhya Pradesh,Gwalior,"Phool Bagh, Gwalior - Mondelez Ind. Food",08-02-2024 18:00:00,26.210536,78.171,NO2,4,5,4
India,Madhya Pradesh,Indore,"Chhoti Gwaltoli, Indore - MPPCB",08-02-2024 18:00:00,22.4310,75.5213,PM2.5,56,120,82
India,Madhya Pradesh,Indore,"Chhoti Gwaltoli, Indore - MPPCB",08-02-2024 18:00:00,22.4310,75.5213,OZONE,28,93,80
India,Madhya Pradesh,Indore,"Regional Park, Indore - IMC",08-02-2024 18:00:00,22.6780,75.8559,SO2,39,43,41
India,Madhya Pradesh,Indore,"Residency Area, Indore - IMC",08-02-2024 18:00:00,22.7084,75.8815,NH3,NA,NA,NA
India,Madhya Pradesh,Jabalpur,"Govindh Bhavan Colony, Jabalpur - JMC",08-02-2024 18:00:00,23.163174,79.973061,PM10,24,59,43
India,Madhya Pradesh,Jabalpur,"Govindh Bhavan Colony, Jabalpur - JMC",08-02-2024 18:00:00,23.163174,79.973061,CO,14,31,17
India,Madhya Pradesh,Jabalpur,"Gupteshwar, Jabalpur - JMC",08-02-2024 18:00:00,23.142888,79.916147,NH3,2,4,2
India,Madhya Pradesh,Jabalpur,"Marhatal, Jabalpur - MPPCB",08-02-2024 18:00:00,23.168606,79.932247,PM2.5,29,129,68
India,Madhya Pradesh,Jabalpur,"Marhatal, Jabalpur - MPPCB",08-02-2024 18:00:00,23.168606,79.932247,NO2,18,77,34
India,Madhya Pradesh,Jabalpur,"Marhatal, Jabalpur - MPPCB",08-02-2024 18:00:00,23.168606,79.932247,SO2,14,23,17
India,Madhya Pradesh,Jabalpur,"Suhagi, Jabalpur - JMC",08-02-2024 18:00:00,23.218135,79.957770,PM2.5,20,320,102
India,Madhya Pradesh,Jabalpur,"Suhagi, Jabalpur - JMC",08-02-2024 18:00:00,23.218135,79.957770,SO2,6,12,10
India,Madhya Pradesh,Jabalpur,"Suhagi, Jabalpur - JMC",08-02-2024 18:00:00,23.218135,79.957770,CO,10,106,42
India,Madhya Pradesh,Maihar,"Sahilara, Maihar - KJS Cements",08-02-2024 18:00:00,24.2613009,80.7231783,PM10,11,40,26
India,Madhya Pradesh,Maihar,"Sahilara, Maihar - KJS Cements",08-02-2024 18:00:00,24.2613009,80.7231783,SO2,13,14,13
India,Madhya Pradesh,Mandideep,"Sector-D Industrial Area, Mandideep - MPPCB",08-02-2024 18:00:00,23.108440,77.511428,PM2.5,51,177,108
India,Madhya Pradesh,Mandideep,"Sector-D Industrial Area, Mandideep - MPPCB",08-02-2024 18:00:00,23.108440,77.511428,OZONE,NA,NA,NA
India,Madhya Pradesh,Pithampur,"Sector-2 Industrial Area, Pithampur - MPPCB",08-02-2024 18:00:00,22.624758,75.675238,PM10,103,163,130
India,Madhya Pradesh,Pithampur,"Sector-2 Industrial Area, Pithampur - MPPCB",08-02-2024 18:00:00,22.624758,75.675238,CO,39,74,62
India,Madhya Pradesh,Ratlam,"Shasthri Nagar, Ratlam - IPCA Lab",08-02-2024 18:00:00,23.331731,75.045981,PM2.5,17,82,47
India,Madhya Pradesh,Sagar,"Civil Lines, Sagar - MPPCB",08-02-2024 18:00:00,23.838586,78.759431,NO2,12,19,15
India,Madhya Pradesh,Satna,"Bandhavgar Colony, Satna - Birla Cement",08-02-2024 18:00:00,24.58434363,80.8549414,NO2,7,24,12
India,Madhya Pradesh,Ujjain,"Mahakaleshwar Temple, Ujjain - MPPCB",08-02-2024 18:00:00,23.182719 ,75.768218 ,NO2,7,28,13
India,Madhya Pradesh,Ujjain,"Mahakaleshwar Temple, Ujjain - MPPCB",08-02-2024 18:00:00,23.182719 ,75.768218 ,OZONE,132,150,150
India,Maharashtra,Ahmednagar,"Tarakpur, Ahmednagar - MPCB",08-02-2024 18:00:00,19.10122,74.73339,PM2.5,45,90,68
India,Maharashtra,Ahmednagar,"Tarakpur, Ahmednagar - MPCB",08-02-2024 18:00:00,19.10122,74.73339,PM10,97,135,117
India,Maharashtra,Akola,"Ramdaspeth, Akola - MPCB",08-02-2024 18:00:00,20.719516,77.000253,NO2,11,47,24
India,Maharashtra,Amravati,"Shivneri Colony, Amravati - MPCB",08-02-2024 18:00:00,20.9402359,77.7895248,CO,16,64,18
India,Maharashtra,Amravati,"Shri Shivaji Science College, Amaravati - MPCB",08-02-2024 18:00:00,20.939198,77.765701,CO,41,100,44
India,Maharashtra,Aurangabad,"More Chowk Waluj, Aurangabad - MPCB",08-02-2024 18:00:00,19.8389439,75.244448,PM10,26,78,55
India,Maharashtra,Aurangabad,"More Chowk Waluj, Aurangabad - MPCB",08-02-2024 18:00:00,19.8389439,75.244448,CO,8,62,26
India,Maharashtra,Aurangabad,"More Chowk Waluj, Aurangabad - MPCB",08-02-2024 18:00:00,19.8389439,75.244448,OZONE,1,213,7
India,Maharashtra,Aurangabad,"Rachnakar Colony, Aurangabad - MPCB",08-02-2024 18:00:00,19.863756,75.321188,PM2.5,65,227,187
India,Maharashtra,Aurangabad,"Rachnakar Colony, Aurangabad - MPCB",08-02-2024 18:00:00,19.863756,75.321188,SO2,16,50,28
India,Maharashtra,Badlapur,"Katrap, Badlapur - MPCB",08-02-2024 18:00:00,19.16485,73.23409,SO2,11,26,16
India,Maharashtra,Badlapur,"Katrap, Badlapur - MPCB",08-02-2024 18:00:00,19.16485,73.23409,CO,16,66,30
India,Maharashtra,Badlapur,"Katrap, Badlapur - MPCB",08-02-2024 18:00:00,19.16485,73.23409,OZONE,1,78,40
India,Maharashtra,Belapur,"CBD Belapur, Belapur - MPCB",08-02-2024 18:00:00,19.0243902,73.0406721,NH3,13,26,17
India,Maharashtra,Bhiwandi,"Gokul Nagar, Bhiwandi - MPCB",08-02-2024 18:00:00,19.309073,73.057223,PM2.5,37,120,69
India,Maharashtra,Bhiwandi,"Gokul Nagar, Bhiwandi - MPCB",08-02-2024 18:00:00,19.309073,73.057223,NO2,19,74,41
India,Maharashtra,Boisar,"Khaira, Boisar - MPCB",08-02-2024 18:00:00,19.786089,72.757971,SO2,23,103,55
India,Maharashtra,Chandrapur,"Chauhan Colony, Chandrapur - MPCB",08-02-2024 18:00:00,19.962900,79.298714,SO2,7,86,21
India,Maharashtra,Dhule,"Deopur, Dhule - MPCB",08-02-2024 18:00:00,20.918946,74.776388,PM10,55,264,93
India,Maharashtra,Dhule,"Deopur, Dhule - MPCB",08-02-2024 18:00:00,20.918946,74.776388,NO2,6,73,17
India,Maharashtra,Jalna,"Old MIDC, Jalna - MPCB",08-02-2024 18:00:00,19.854616,75.905894,PM2.5,30,85,67
India,Maharashtra,Jalna,"Old MIDC, Jalna - MPCB",08-02-2024 18:00:00,19.854616,75.905894,NO2,4,26,17
India,Maharashtra,Jalna,"Old MIDC, Jalna - MPCB",08-02-2024 18:00:00,19.854616,75.905894,NH3,6,8,7
India,Maharashtra,Kalyan,"Khadakpada, Kalyan - MPCB",08-02-2024 18:00:00,19.25292,73.142019,NH3,1,1,1
India,Maharashtra,Kolhapur,"Shivaji University, Kolhapur - MPCB",08-02-2024 18:00:00,16.6870449,74.2505872,PM10,110,154,129
India,Maharashtra,Kolhapur,"Shivaji University, Kolhapur - MPCB",08-02-2024 18:00:00,16.6870449,74.2505872,OZONE,16,117,88
India,Maharashtra,Latur,"Sawe Wadi, Latur - MPCB",08-02-2024 18:00:00,18.39963,76.57452,NH3,8,8,8
India,Maharashtra,Latur,"Sawe Wadi, Latur - MPCB",08-02-2024 18:00:00,18.39963,76.57452,OZONE,36,76,63
India,Maharashtra,Mahad,"Kamble Tarf Birwadi, Mahad - MPCB",08-02-2024 18:00:00,18.1023399,73.4783687,SO2,1,38,13
India,Maharashtra,Malegaon,"Mahesh Nagar, Malegaon - MPCB",08-02-2024 18:00:00,20.555712,74.529236,SO2,3,15,7
India,Maharashtra,Malegaon,"Mahesh Nagar, Malegaon - MPCB",08-02-2024 18:00:00,20.555712,74.529236,OZONE,9,124,100
India,Maharashtra,Mumbai,"Borivali East, Mumbai - IITM",08-02-2024 18:00:00,19.23241,72.86895,NH3,17,41,30
India,Maharashtra,Mumbai,"Byculla, Mumbai - BMC",08-02-2024 18:00:00,18.9767,72.8380,PM2.5,61,91,76
India,Maharashtra,Mumbai,"Byculla, Mumbai - BMC",08-02-2024 18:00:00,18.9767,72.8380,PM10,81,114,97
India,Maharashtra,Mumbai,"Byculla, Mumbai - BMC",08-02-2024 18:00:00,18.9767,72.8380,OZONE,1,107,79
India,Maharashtra,Mumbai,"Chhatrapati Shivaji Intl. Airport (T2), Mumbai - MPCB",08-02-2024 18:00:00,19.10078,72.87462,PM10,88,114,98
India,Maharashtra,Mumbai,"Chhatrapati Shivaji Intl. Airport (T2), Mumbai - MPCB",08-02-2024 18:00:00,19.10078,72.87462,CO,52,78,63
India,Maharashtra,Mumbai,"Colaba, Mumbai - MPCB",08-02-2024 18:00:00,18.910000,72.820000,CO,12,17,13
India,Maharashtra,Mumbai,"Colaba, Mumbai - MPCB",08-02-2024 18:00:00,18.910000,72.820000,OZONE,9,11,10
India,Maharashtra,Mumbai,"Kandivali East, Mumbai - MPCB",08-02-2024 18:00:00,19.205800,72.868200,PM10,93,369,136
India,Maharashtra,Mumbai,"Khindipada-Bhandup West, Mumbai - IITM",08-02-2024 18:00:00,19.1653323,72.922099,PM2.5,3,190,101
India,Maharashtra,Mumbai,"Kurla, Mumbai - MPCB",08-02-2024 18:00:00,19.0863,72.8888,CO,16,30,22
India,Maharashtra,Mumbai,"Malad West, Mumbai - IITM",08-02-2024 18:00:00,19.19709,72.82204,PM10,72,158,120
India,Maharashtra,Mumbai,"Malad West, Mumbai - IITM",08-02-2024 18:00:00,19.19709,72.82204,SO2,2,6,4
India,Maharashtra,Mumbai,"Mazgaon, Mumbai - IITM",08-02-2024 18:00:00,18.96702,72.84214,PM2.5,91,237,147
India,Maharashtra,Mumbai,"Mazgaon, Mumbai - IITM",08-02-2024 18:00:00,18.96702,72.84214,PM10,116,420,185
India,Maharashtra,Mumbai,"Mindspace-Malad West, Mumbai - MPCB",08-02-2024 18:00:00,19.1878657,72.8304069,NO2,56,56,56
India,Maharashtra,Mumbai,"Mindspace-Malad West, Mumbai - MPCB",08-02-2024 18:00:00,19.1878657,72.8304069,NH3,3,3,3
India,Maharashtra,Mumbai,"Mindspace-Malad West, Mumbai - MPCB",08-02-2024 18:00:00,19.1878657,72.8304069,CO,32,32,32
India,Maharashtra,Mumbai,"Mindspace-Malad West, Mumbai - MPCB",08-02-2024 18:00:00,19.1878657,72.8304069,OZONE,52,52,52
India,Maharashtra,Mumbai,"Navy Nagar-Colaba, Mumbai - IITM",08-02-2024 18:00:00,18.897756,72.813320,SO2,3,116,22
India,Maharashtra,Mumbai,"Navy Nagar-Colaba, Mumbai - IITM",08-02-2024 18:00:00,18.897756,72.813320,OZONE,5,142,73
India,Maharashtra,Mumbai,"Shivaji Nagar, Mumbai - BMC",08-02-2024 18:00:00,19.060498,72.923356,SO2,NA,NA,NA
India,Maharashtra,Mumbai,"Siddharth Nagar-Worli, Mumbai - IITM",08-02-2024 18:00:00,19.000083,72.813993,PM10,133,178,154
India,Maharashtra,Mumbai,"Siddharth Nagar-Worli, Mumbai - IITM",08-02-2024 18:00:00,19.000083,72.813993,OZONE,6,167,92
India,Maharashtra,Mumbai,"Sion, Mumbai - MPCB",08-02-2024 18:00:00,19.047000,72.874600,NH3,1,1,1
India,Maharashtra,Mumbai,"Sion, Mumbai - MPCB",08-02-2024 18:00:00,19.047000,72.874600,OZONE,12,27,18
India,Maharashtra,Mumbai,"Vasai West, Mumbai - MPCB",08-02-2024 18:00:00,19.383200,72.820400,NO2,NA,NA,NA
India,Maharashtra,Mumbai,"Vasai West, Mumbai - MPCB",08-02-2024 18:00:00,19.383200,72.820400,NH3,NA,NA,NA
India,Maharashtra,Mumbai,"Vile Parle West, Mumbai - MPCB",08-02-2024 18:00:00,19.10861,72.83622,PM2.5,40,61,49
India,Maharashtra,Mumbai,"Vile Parle West, Mumbai - MPCB",08-02-2024 18:00:00,19.10861,72.83622,PM10,68,113,84
India,Maharashtra,Mumbai,"Worli, Mumbai - MPCB",08-02-2024 18:00:00,18.9936162,72.8128113,NO2,17,19,17
India,Maharashtra,Nagpur,"Ambazari, Nagpur - MPCB",08-02-2024 18:00:00,21.121801,79.04952,NH3,1,9,2
India,Maharashtra,Nagpur,"Ambazari, Nagpur - MPCB",08-02-2024 18:00:00,21.121801,79.04952,SO2,13,136,54
India,Maharashtra,Nagpur,"Opp GPO Civil Lines, Nagpur - MPCB",08-02-2024 18:00:00,21.152875,79.0517531,PM2.5,36,229,80
India,Maharashtra,Nagpur,"Opp GPO Civil Lines, Nagpur - MPCB",08-02-2024 18:00:00,21.152875,79.0517531,NH3,1,16,4
India,Maharashtra,Nagpur,"Opp GPO Civil Lines, Nagpur - MPCB",08-02-2024 18:00:00,21.152875,79.0517531,CO,6,125,22
India,Maharashtra,Nagpur,"Ram Nagar, Nagpur - MPCB",08-02-2024 18:00:00,21.143383,79.048912,PM10,71,176,118
India,Maharashtra,Nagpur,"Ram Nagar, Nagpur - MPCB",08-02-2024 18:00:00,21.143383,79.048912,SO2,1,118,30
India,Maharashtra,Nanded,"Sneh Nagar, Nanded - MPCB",08-02-2024 18:00:00,19.173852,77.296291,PM2.5,51,123,80
India,Maharashtra,Nanded,"Sneh Nagar, Nanded - MPCB",08-02-2024 18:00:00,19.173852,77.296291,NO2,17,46,23
India,Maharashtra,Nashik,"Gangapur Road, Nashik - MPCB",08-02-2024 18:00:00,20.0073285,73.7762427,PM2.5,50,284,96
India,Maharashtra,Nashik,"Hirawadi, Nashik - MPCB",08-02-2024 18:00:00,20.021503,73.813844,CO,13,39,22
India,Maharashtra,Nashik,"MIDC Ambad, Nashik - MPCB",08-02-2024 18:00:00,19.950220,73.731480,NO2,14,43,26
India,Maharashtra,Nashik,"MIDC Ambad, Nashik - MPCB",08-02-2024 18:00:00,19.950220,73.731480,NH3,2,3,3
India,Maharashtra,Nashik,"Pandav Nagari, Nashik - MPCB",08-02-2024 18:00:00,19.9591346,73.7788008,SO2,21,92,34
India,Maharashtra,Nashik,"Pandav Nagari, Nashik - MPCB",08-02-2024 18:00:00,19.9591346,73.7788008,CO,28,37,29
India,Maharashtra,Navi Mumbai,"Kopripada-Vashi, Navi Mumbai - MPCB",08-02-2024 18:00:00,19.090337,73.014232,NO2,29,102,54
India,Maharashtra,Navi Mumbai,"Kopripada-Vashi, Navi Mumbai - MPCB",08-02-2024 18:00:00,19.090337,73.014232,SO2,18,52,35
India,Maharashtra,Navi Mumbai,"Mahape, Navi Mumbai - MPCB",08-02-2024 18:00:00,19.1135051,73.008978,PM2.5,36,77,55
India,Maharashtra,Navi Mumbai,"Mahape, Navi Mumbai - MPCB",08-02-2024 18:00:00,19.1135051,73.008978,PM10,88,153,114
India,Maharashtra,Navi Mumbai,"Nerul, Navi Mumbai - MPCB",08-02-2024 18:00:00,19.008751,73.016620,NH3,3,4,3
India,Maharashtra,Navi Mumbai,"Sanpada, Navi Mumbai - MPCB",08-02-2024 18:00:00,19.0575752,73.0151367,PM2.5,NA,NA,NA
India,Maharashtra,Navi Mumbai,"Sanpada, Navi Mumbai - MPCB",08-02-2024 18:00:00,19.0575752,73.0151367,NO2,NA,NA,NA
India,Maharashtra,Navi Mumbai,"Sector-19A Nerul, Navi Mumbai - IITM",08-02-2024 18:00:00,19.044,73.0325,SO2,8,21,15
India,Maharashtra,Navi Mumbai,"Sector-19A Nerul, Navi Mumbai - IITM",08-02-2024 18:00:00,19.044,73.0325,CO,16,101,39
India,Maharashtra,Navi Mumbai,"Sector-2E Kalamboli, Navi Mumbai - MPCB",08-02-2024 18:00:00,19.02579,73.10297,NO2,23,73,52
India,Maharashtra,Parbhani,"Masoom Colony, Parbhani - MPCB",08-02-2024 18:00:00,19.265594,76.761463,PM10,50,169,89
India,Maharashtra,Parbhani,"Masoom Colony, Parbhani - MPCB",08-02-2024 18:00:00,19.265594,76.761463,NH3,1,3,3
India,Maharashtra,Pimpri-Chinchwad,"Gavalinagar, Pimpri Chinchwad - MPCB",08-02-2024 18:00:00,18.63673,73.82487,PM2.5,58,290,166
India,Maharashtra,Pimpri-Chinchwad,"Gavalinagar, Pimpri Chinchwad - MPCB",08-02-2024 18:00:00,18.63673,73.82487,PM10,50,189,126
India,Maharashtra,Pimpri-Chinchwad,"Gavalinagar, Pimpri Chinchwad - MPCB",08-02-2024 18:00:00,18.63673,73.82487,CO,18,102,24
India,Maharashtra,Pimpri-Chinchwad,"Thergaon, Pimpri Chinchwad - MPCB",08-02-2024 18:00:00,18.616318,73.765797,PM2.5,70,316,166
India,Maharashtra,Pimpri-Chinchwad,"Thergaon, Pimpri Chinchwad - MPCB",08-02-2024 18:00:00,18.616318,73.765797,NH3,3,19,8
India,Maharashtra,Pune,"Alandi, Pune - IITM",08-02-2024 18:00:00,18.675076,73.892743,PM10,71,161,108
India,Maharashtra,Pune,"Karve Road, Pune - MPCB",08-02-2024 18:00:00,18.5011743,73.8165527,NO2,2,2,2
India,Maharashtra,Pune,"Mhada Colony, Pune - IITM",08-02-2024 18:00:00,18.573040,73.927715,PM10,64,144,101
India,Maharashtra,Pune,"Mhada Colony, Pune - IITM",08-02-2024 18:00:00,18.573040,73.927715,NO2,2,22,12
India,Maharashtra,Pune,"Mhada Colony, Pune - IITM",08-02-2024 18:00:00,18.573040,73.927715,OZONE,11,36,32
India,Maharashtra,Pune,"Revenue Colony-Shivajinagar, Pune - IITM",08-02-2024 18:00:00,18.530085,73.849598,SO2,92,129,109
India,Maharashtra,Pune,"Revenue Colony-Shivajinagar, Pune - IITM",08-02-2024 18:00:00,18.530085,73.849598,CO,106,114,112
India,Maharashtra,Pune,"Savitribai Phule Pune University, Pune - MPCB",08-02-2024 18:00:00,18.547056,73.826908,PM10,67,203,134
India,Maharashtra,Pune,"Savitribai Phule Pune University, Pune - MPCB",08-02-2024 18:00:00,18.547056,73.826908,OZONE,1,252,208
India,Maharashtra,Pune,"Transport Nagar-Nigdi, Pune - IITM",08-02-2024 18:00:00,18.664282,73.763966,PM2.5,18,159,70
India,Maharashtra,Pune,"Transport Nagar-Nigdi, Pune - IITM",08-02-2024 18:00:00,18.664282,73.763966,CO,24,76,31
India,Maharashtra,Sangli,"Vijay Nagar, Sangli - MPCB",08-02-2024 18:00:00, 16.5038,74.3623,SO2,1,19,8
India,Maharashtra,Solapur,"Ratandeep Housing Society, Solapur - MPCB",08-02-2024 18:00:00,17.65439,75.90649,PM10,100,149,117
India,Maharashtra,Solapur,"Ratandeep Housing Society, Solapur - MPCB",08-02-2024 18:00:00,17.65439,75.90649,NO2,20,144,63
India,Maharashtra,Solapur,"Ratandeep Housing Society, Solapur - MPCB",08-02-2024 18:00:00,17.65439,75.90649,NH3,7,10,8
India,Maharashtra,Solapur,"Solapur, Solapur - MPCB",08-02-2024 18:00:00,17.6599188,75.9063906,NO2,54,55,55
India,Maharashtra,Thane,"Kasarvadavali, Thane - MPCB",08-02-2024 18:00:00,19.26777,72.97182,NO2,14,51,28
India,Maharashtra,Thane,"Kasarvadavali, Thane - MPCB",08-02-2024 18:00:00,19.26777,72.97182,NH3,1,7,4
India,Maharashtra,Thane,"Pimpleshwar Mandir, Thane - MPCB",08-02-2024 18:00:00,19.192056,72.9585188,NO2,7,14,11
India,Maharashtra,Thane,"Pimpleshwar Mandir, Thane - MPCB",08-02-2024 18:00:00,19.192056,72.9585188,SO2,11,111,57
India,Maharashtra,Thane,"Pimpleshwar Mandir, Thane - MPCB",08-02-2024 18:00:00,19.192056,72.9585188,CO,17,112,86
India,Maharashtra,Thane,"Pimpleshwar Mandir, Thane - MPCB",08-02-2024 18:00:00,19.192056,72.9585188,OZONE,9,61,40
India,Maharashtra,Thane,"Upvan Fort, Thane - MPCB",08-02-2024 18:00:00,19.222279,72.957979,NH3,11,16,13
India,Maharashtra,Thane,"Upvan Fort, Thane - MPCB",08-02-2024 18:00:00,19.222279,72.957979,CO,14,36,20
India,Maharashtra,Thane,"Upvan Fort, Thane - MPCB",08-02-2024 18:00:00,19.222279,72.957979,OZONE,45,157,120
India,Maharashtra,Ulhasnagar,"Sidhi Vinayak Nagar, Ulhasnagar - MPCB",08-02-2024 18:00:00,19.235581,73.159121,NO2,10,33,20
India,Manipur,Imphal,"Manipur University, Imphal - Manipur PCB",08-02-2024 18:00:00,24.7524239,93.9286218,SO2,64,69,66
India,Meghalaya,Shillong,"Lumpyngngad, Shillong - Meghalaya PCB",08-02-2024 18:00:00,25.5586,91.8985,NO2,6,6,6
India,Mizoram,Aizawl,"Sikulpuikawn, Aizawl - Mizoram PCB",08-02-2024 18:00:00,23.7176342,92.7192841,NO2,1,4,1
India,Mizoram,Aizawl,"Sikulpuikawn, Aizawl - Mizoram PCB",08-02-2024 18:00:00,23.7176342,92.7192841,NH3,NA,NA,NA
India,Mizoram,Aizawl,"Sikulpuikawn, Aizawl - Mizoram PCB",08-02-2024 18:00:00,23.7176342,92.7192841,OZONE,26,36,30
India,Nagaland,Kohima,"PWD Juction, Kohima - NPCB",08-02-2024 18:00:00,25.6635413,94.0989878,NO2,3,4,3
India,Odisha,Angul,"Hakimapada, Angul - OSPCB",08-02-2024 18:00:00,20.832874,85.104082,PM2.5,45,406,281
India,Odisha,Balasore,"Kalidaspur, Balasore - OSPCB",08-02-2024 18:00:00,21.51161,86.89088,PM2.5,53,314,185
India,Odisha,Balasore,"Kalidaspur, Balasore - OSPCB",08-02-2024 18:00:00,21.51161,86.89088,OZONE,19,90,77
India,Odisha,Barbil,"Forest Office, Barbil - OSPCB",08-02-2024 18:00:00,22.1166054,85.3945546,SO2,NA,NA,NA
India,Odisha,Barbil,"Forest Office, Barbil - OSPCB",08-02-2024 18:00:00,22.1166054,85.3945546,OZONE,8,99,75
India,Odisha,Baripada,"Meher Colony, Baripada - OSPCB",08-02-2024 18:00:00,21.941841,86.728318,PM2.5,67,314,226
India,Odisha,Bhubaneswar,"Lingraj Mandir, Bhubaneswar - OSPCB",08-02-2024 18:00:00,20.240790,85.836784,SO2,NA,NA,NA
India,Odisha,Bhubaneswar,"Lingraj Mandir, Bhubaneswar - OSPCB",08-02-2024 18:00:00,20.240790,85.836784,CO,22,62,49
India,Odisha,Bhubaneswar,"Patia, Bhubaneswar - OSPCB",08-02-2024 18:00:00,20.34652,85.81630,NH3,2,4,3
India,Odisha,Bileipada,"Tata Township, Bileipada - OSPCB",08-02-2024 18:00:00,22.06156703,85.47409613,PM10,104,252,170
India,Odisha,Bileipada,"Tata Township, Bileipada - OSPCB",08-02-2024 18:00:00,22.06156703,85.47409613,CO,6,29,12
India,Odisha,Byasanagar,"Ferro Chrome Colony, Byasanagar - OSPCB",08-02-2024 18:00:00,20.94185,86.11510,NO2,16,34,21
India,Odisha,Cuttack,"CDA Area, Cuttack - OSPCB",08-02-2024 18:00:00,20.48891     ,85.84768     ,PM2.5,123,263,215
India,Odisha,Cuttack,"CDA Area, Cuttack - OSPCB",08-02-2024 18:00:00,20.48891     ,85.84768     ,PM10,124,159,141
India,Odisha,Cuttack,"CDA Area, Cuttack - OSPCB",08-02-2024 18:00:00,20.48891     ,85.84768     ,NH3,2,3,3
India,Odisha,Cuttack,"CDA Area, Cuttack - OSPCB",08-02-2024 18:00:00,20.48891     ,85.84768     ,CO,37,48,41
India,Odisha,Rairangpur,"Divisional Forest Office, Rairangpur - OSPCB",08-02-2024 18:00:00,22.265816,86.174829,SO2,6,16,9
India,Odisha,Rourkela,"Raghunathpali, Rourkela - OSPCB",08-02-2024 18:00:00,22.220833,84.809444,PM10,78,150,107
India,Odisha,Rourkela,"Raghunathpali, Rourkela - OSPCB",08-02-2024 18:00:00,22.220833,84.809444,SO2,2,8,4
India,Odisha,Rourkela,"Raghunathpali, Rourkela - OSPCB",08-02-2024 18:00:00,22.220833,84.809444,CO,24,62,28
India,Odisha,Suakati,"OMC Colony, Suakati - OSPCB",08-02-2024 18:00:00,21.606865,85.510538,NH3,NA,NA,NA
India,Odisha,Suakati,"OMC Colony, Suakati - OSPCB",08-02-2024 18:00:00,21.606865,85.510538,SO2,7,29,16
India,Odisha,Talcher,"Talcher Coalfields,Talcher - OSPCB",08-02-2024 18:00:00,20.9360711,85.1707021,OZONE,1,14,5
India,Odisha,Tensa,"Barsua Iron Ore Mines, Tensa - OSPCB",08-02-2024 18:00:00,21.869985,85.167016,PM2.5,38,97,72
India,Odisha,Tensa,"Barsua Iron Ore Mines, Tensa - OSPCB",08-02-2024 18:00:00,21.869985,85.167016,NH3,6,9,8
India,Odisha,Tensa,"Barsua Iron Ore Mines, Tensa - OSPCB",08-02-2024 18:00:00,21.869985,85.167016,CO,NA,NA,NA
India,Puducherry,Puducherry,"Jawahar Nagar, Puducherry - PPCC",08-02-2024 18:00:00,11.9309,79.8027,NO2,4,34,17
India,Puducherry,Puducherry,"Jawahar Nagar, Puducherry - PPCC",08-02-2024 18:00:00,11.9309,79.8027,SO2,4,8,6
India,Puducherry,Puducherry,"Jawahar Nagar, Puducherry - PPCC",08-02-2024 18:00:00,11.9309,79.8027,CO,18,42,25
India,Punjab,Amritsar,"Golden Temple, Amritsar - PPCB",08-02-2024 18:00:00,31.620000,74.876512,SO2,10,30,21
India,Punjab,Bathinda,"Hardev Nagar, Bathinda - PPCB",08-02-2024 18:00:00,30.233011,74.907758,PM10,54,105,78
India,Punjab,Bathinda,"Hardev Nagar, Bathinda - PPCB",08-02-2024 18:00:00,30.233011,74.907758,CO,6,110,43
India,Punjab,Jalandhar,"Civil Line, Jalandhar - PPCB",08-02-2024 18:00:00,31.321907,75.578914,PM10,50,112,86
India,Punjab,Jalandhar,"Civil Line, Jalandhar - PPCB",08-02-2024 18:00:00,31.321907,75.578914,NO2,18,20,19
India,Punjab,Ludhiana,"Punjab Agricultural University, Ludhiana - PPCB",08-02-2024 18:00:00,30.9028,75.8086,PM2.5,36,200,94
India,Punjab,Ludhiana,"Punjab Agricultural University, Ludhiana - PPCB",08-02-2024 18:00:00,30.9028,75.8086,NO2,28,31,29
India,Punjab,Ludhiana,"Punjab Agricultural University, Ludhiana - PPCB",08-02-2024 18:00:00,30.9028,75.8086,CO,16,105,43
India,Punjab,Mandi Gobindgarh,"RIMT University, Mandi Gobindgarh - PPCB",08-02-2024 18:00:00,30.649961,76.331442,SO2,11,136,67
India,Punjab,Patiala,"Model Town, Patiala - PPCB",08-02-2024 18:00:00,30.349388,76.366642,NH3,5,6,6
India,Punjab,Patiala,"Model Town, Patiala - PPCB",08-02-2024 18:00:00,30.349388,76.366642,OZONE,24,99,71
India,Rajasthan,Ajmer,"Civil Lines,  Ajmer - RSPCB",08-02-2024 18:00:00,26.470859,74.646594,NH3,14,40,29
India,Rajasthan,Alwar,"Moti Doongri, Alwar - RSPCB",08-02-2024 18:00:00,27.554793,76.611536,PM2.5,30,60,49
India,Rajasthan,Alwar,"Moti Doongri, Alwar - RSPCB",08-02-2024 18:00:00,27.554793,76.611536,NH3,4,7,6
India,Rajasthan,Alwar,"Moti Doongri, Alwar - RSPCB",08-02-2024 18:00:00,27.554793,76.611536,CO,6,40,13
India,Rajasthan,Banswara,"Rati Talai, Banswara - RSPCB",08-02-2024 18:00:00,23.555190,74.440010,CO,16,102,22
India,Rajasthan,Baran,"Bamboliya, Baran - RSPCB",08-02-2024 18:00:00,25.106006,76.469948,NO2,17,41,22
India,Rajasthan,Baran,"Bamboliya, Baran - RSPCB",08-02-2024 18:00:00,25.106006,76.469948,OZONE,15,114,102
India,Rajasthan,Barmer,"Railway Colony, Barmer - RSPCB",08-02-2024 18:00:00,25.747299,71.393989,NO2,12,42,19
India,Rajasthan,Barmer,"Railway Colony, Barmer - RSPCB",08-02-2024 18:00:00,25.747299,71.393989,CO,14,40,29
India,Rajasthan,Bharatpur,"Krishna Nagar, Bharatpur - RSPCB",08-02-2024 18:00:00,27.215415,77.50873,NO2,20,68,40
India,Rajasthan,Bhilwara,"Pratap Nagar, Bhilwara - RSPCB",08-02-2024 18:00:00,25.339605,74.618883,OZONE,22,79,70
India,Rajasthan,Bhiwadi,"RIICO Ind. Area III, Bhiwadi - RSPCB",08-02-2024 18:00:00,28.194909,76.862296,PM2.5,26,292,151
India,Rajasthan,Bundi,"New Colony, Bundi - RSPCB",08-02-2024 18:00:00,25.435774,75.644272,PM10,45,129,92
India,Rajasthan,Bundi,"New Colony, Bundi - RSPCB",08-02-2024 18:00:00,25.435774,75.644272,OZONE,17,69,56
India,Rajasthan,Chittorgarh,"Shastri Nagar, Chittorgarh - RSPCB",08-02-2024 18:00:00,24.892047,74.623527,PM2.5,9,141,78
India,Rajasthan,Chittorgarh,"Shastri Nagar, Chittorgarh - RSPCB",08-02-2024 18:00:00,24.892047,74.623527,CO,15,82,26
India,Rajasthan,Chittorgarh,"Shastri Nagar, Chittorgarh - RSPCB",08-02-2024 18:00:00,24.892047,74.623527,OZONE,12,94,77
India,Rajasthan,Churu,"Subash Chowk, Churu - RSPCB",08-02-2024 18:00:00,28.296139,74.961696,OZONE,38,115,99
India,Rajasthan,Dholpur,"Raja Ganj, Dholpur - RSPCB",08-02-2024 18:00:00,26.699557,77.898881,NO2,1,19,10
India,Rajasthan,Dholpur,"Raja Ganj, Dholpur - RSPCB",08-02-2024 18:00:00,26.699557,77.898881,CO,12,35,18
India,Rajasthan,Hanumangarh,"Housing Board, Hanumangarh - RSPCB",08-02-2024 18:00:00,29.610750,74.283608,PM10,97,310,144
India,Rajasthan,Hanumangarh,"Housing Board, Hanumangarh - RSPCB",08-02-2024 18:00:00,29.610750,74.283608,SO2,5,10,7
India,Rajasthan,Jaipur,"Adarsh Nagar, Jaipur - RSPCB",08-02-2024 18:00:00,26.902909,75.836858,PM2.5,20,116,71
India,Rajasthan,Jaipur,"Adarsh Nagar, Jaipur - RSPCB",08-02-2024 18:00:00,26.902909,75.836858,OZONE,37,63,55
India,Rajasthan,Jaipur,"Mansarovar Sector-12, Jaipur - RSPCB",08-02-2024 18:00:00,26.843698,75.766894,PM2.5,25,203,80
India,Rajasthan,Jaipur,"Police Commissionerate, Jaipur - RSPCB",08-02-2024 18:00:00,26.9164092,75.7994901,PM10,49,155,123
India,Rajasthan,Jaipur,"Police Commissionerate, Jaipur - RSPCB",08-02-2024 18:00:00,26.9164092,75.7994901,NH3,9,12,11
India,Rajasthan,Jaipur,"Sector-2 Murlipura, Jaipur - RSPCB",08-02-2024 18:00:00,26.960669,75.771817,PM10,71,217,140
India,Rajasthan,Jaipur,"Sector-2 Murlipura, Jaipur - RSPCB",08-02-2024 18:00:00,26.960669,75.771817,SO2,9,91,26
India,Rajasthan,Jaipur,"Sector-2 Murlipura, Jaipur - RSPCB",08-02-2024 18:00:00,26.960669,75.771817,CO,12,47,19
India,Rajasthan,Jaipur,"Shastri Nagar, Jaipur - RSPCB",08-02-2024 18:00:00,26.9502929,75.730943,OZONE,67,143,127
India,Rajasthan,Jaisalmer,"Sadar Bazar, Jaisalmer - RSPCB",08-02-2024 18:00:00,26.912329,70.909168,NH3,6,13,8
India,Rajasthan,Jaisalmer,"Sadar Bazar, Jaisalmer - RSPCB",08-02-2024 18:00:00,26.912329,70.909168,SO2,4,8,6
India,Rajasthan,Jaisalmer,"Sadar Bazar, Jaisalmer - RSPCB",08-02-2024 18:00:00,26.912329,70.909168,CO,19,42,27
India,Rajasthan,Jaisalmer,"Sadar Bazar, Jaisalmer - RSPCB",08-02-2024 18:00:00,26.912329,70.909168,OZONE,19,99,92
India,Rajasthan,Jhalawar,"Rajlaxmi Nagar, Jhalawar - RSPCB",08-02-2024 18:00:00,24.588397,76.172782,CO,17,44,21
India,Rajasthan,Jhunjhunu,"Indra Nagar, Jhunjhunu - RSPCB",08-02-2024 18:00:00,28.108988,75.386577,NO2,21,111,38
India,Rajasthan,Jhunjhunu,"Indra Nagar, Jhunjhunu - RSPCB",08-02-2024 18:00:00,28.108988,75.386577,CO,12,80,18
India,Rajasthan,Jodhpur,"Digari Kalan, Jodhpur - RSPCB",08-02-2024 18:00:00,26.295810,73.082283,SO2,4,7,5
India,Rajasthan,Jodhpur,"Jhalamand, Jodhpur - RSPCB",08-02-2024 18:00:00,26.215415,73.070156,CO,4,38,14
India,Rajasthan,Jodhpur,"Mandor, Jodhpur - RSPCB",08-02-2024 18:00:00,26.358805,73.047444,PM10,44,107,86
India,Rajasthan,Jodhpur,"Mandor, Jodhpur - RSPCB",08-02-2024 18:00:00,26.358805,73.047444,SO2,2,9,4
India,Rajasthan,Kota,"Dhanmandi, Kota - RSPCB",08-02-2024 18:00:00,25.164090,75.858137,PM10,55,131,96
India,Rajasthan,Kota,"Dhanmandi, Kota - RSPCB",08-02-2024 18:00:00,25.164090,75.858137,OZONE,10,81,74
India,Rajasthan,Kota,"Nayapura, Kota - RSPCB",08-02-2024 18:00:00,25.196024,75.855668,PM2.5,32,156,80
India,Rajasthan,Kota,"Nayapura, Kota - RSPCB",08-02-2024 18:00:00,25.196024,75.855668,CO,10,35,18
India,Rajasthan,Kota,"Nayapura, Kota - RSPCB",08-02-2024 18:00:00,25.196024,75.855668,OZONE,3,119,98
India,Rajasthan,Pali,"Indira Colony Vistar, Pali - RSPCB",08-02-2024 18:00:00,25.771061, 73.340227,CO,22,88,46
India,Rajasthan,Pratapgarh,"Pragati Nagar, Pratapgarh - RSPCB",08-02-2024 18:00:00,24.041198,74.780702,PM10,46,123,79
India,Rajasthan,Rajsamand,"Dhoinda, Rajsamand - RSPCB",08-02-2024 18:00:00,25.036360,73.883502,NH3,3,5,4
India,Rajasthan,Sawai Madhopur,"Sahu Nagar, Sawai Madhopur - RSPCB",08-02-2024 18:00:00,26.031443,76.359327,NO2,9,61,23
India,Rajasthan,Sawai Madhopur,"Sahu Nagar, Sawai Madhopur - RSPCB",08-02-2024 18:00:00,26.031443,76.359327,NH3,1,35,14
India,Rajasthan,Sikar,"Radhakishan Pura, Sikar - RSPCB",08-02-2024 18:00:00,27.608912,75.153302,CO,19,74,25
India,Rajasthan,Sikar,"Radhakishan Pura, Sikar - RSPCB",08-02-2024 18:00:00,27.608912,75.153302,OZONE,5,110,100
India,Rajasthan,Sirohi,"Vedhaynath Colony, Sirohi - RSPCB",08-02-2024 18:00:00,24.885261,72.857549,PM10,32,102,61
India,Rajasthan,Sirohi,"Vedhaynath Colony, Sirohi - RSPCB",08-02-2024 18:00:00,24.885261,72.857549,SO2,3,15,10
India,Rajasthan,Sri Ganganagar,"Old City, Sri Ganganagar - RSPCB",08-02-2024 18:00:00,29.931624,73.864511,NO2,15,57,30
India,Rajasthan,Sri Ganganagar,"Old City, Sri Ganganagar - RSPCB",08-02-2024 18:00:00,29.931624,73.864511,OZONE,24,135,99
India,Rajasthan,Tonk,"Shastri Nagar, Tonk - RSPCB",08-02-2024 18:00:00,26.159933,75.780517,NH3,5,24,7
India,Rajasthan,Tonk,"Shastri Nagar, Tonk - RSPCB",08-02-2024 18:00:00,26.159933,75.780517,CO,18,66,21
India,Rajasthan,Udaipur,"Ashok Nagar, Udaipur - RSPCB",08-02-2024 18:00:00,24.5886166,73.6321397,PM10,41,500,92
India,Rajasthan,Udaipur,"Ashok Nagar, Udaipur - RSPCB",08-02-2024 18:00:00,24.5886166,73.6321397,NO2,21,78,42
India,Rajasthan,Udaipur,"Ashok Nagar, Udaipur - RSPCB",08-02-2024 18:00:00,24.5886166,73.6321397,CO,24,73,46
India,Sikkim,Gangtok,"Zero Point GICI, Gangtok - SSPCB",08-02-2024 18:00:00,27.338530,88.614099,PM10,20,55,41
India,TamilNadu,Ariyalur,"Keelapalur, Ariyalur - TNPCB",08-02-2024 18:00:00,11.06825,79.07033,SO2,22,24,23
India,TamilNadu,Chengalpattu,"Crescent University, Chengalpattu - TNPCB",08-02-2024 18:00:00,12.8777316,80.0834807,PM2.5,7,139,64
India,TamilNadu,Chengalpattu,"Crescent University, Chengalpattu - TNPCB",08-02-2024 18:00:00,12.8777316,80.0834807,PM10,6,98,52
India,TamilNadu,Chengalpattu,"Crescent University, Chengalpattu - TNPCB",08-02-2024 18:00:00,12.8777316,80.0834807,SO2,24,25,25
India,TamilNadu,Chennai,"Alandur Bus Depot, Chennai - CPCB",08-02-2024 18:00:00,12.9099161,80.1076538,PM10,105,226,145
India,TamilNadu,Chennai,"Gandhi Nagar_Ennore, Chennai - TNPCB",08-02-2024 18:00:00,13.218341,80.32027,NH3,1,6,4
India,TamilNadu,Chennai,"Kodungaiyur, Chennai - TNPCB",08-02-2024 18:00:00,13.1278,80.2642,OZONE,5,7,6
India,TamilNadu,Chennai,"Manali, Chennai - CPCB",08-02-2024 18:00:00,13.164544,80.26285,NH3,1,9,5
India,TamilNadu,Chennai,"Manali, Chennai - CPCB",08-02-2024 18:00:00,13.164544,80.26285,SO2,3,14,9
India,TamilNadu,Chennai,"Perungudi, Chennai - TNPCB",08-02-2024 18:00:00,12.9533,80.2357,PM2.5,26,213,86
India,TamilNadu,Chennai,"Perungudi, Chennai - TNPCB",08-02-2024 18:00:00,12.9533,80.2357,PM10,48,308,115
India,TamilNadu,Chennai,"Perungudi, Chennai - TNPCB",08-02-2024 18:00:00,12.9533,80.2357,NH3,2,3,2
India,TamilNadu,Chennai,"Velachery Res. Area, Chennai - CPCB",08-02-2024 18:00:00,13.0052189,80.2398125,NO2,16,68,34
India,TamilNadu,Chennai,"Velachery Res. Area, Chennai - CPCB",08-02-2024 18:00:00,13.0052189,80.2398125,NH3,7,12,9
India,TamilNadu,Chennai,"Velachery Res. Area, Chennai - CPCB",08-02-2024 18:00:00,13.0052189,80.2398125,CO,2,104,88
India,TamilNadu,Chennai,"Velachery Res. Area, Chennai - CPCB",08-02-2024 18:00:00,13.0052189,80.2398125,OZONE,9,34,24
India,TamilNadu,Coimbatore,"PSG College of Arts and Science, Coimbatore - TNPCB",08-02-2024 18:00:00,11.0328,77.0349,SO2,15,21,17
India,TamilNadu,Cuddalore,"Semmandalam, Cuddalore - TNPCB",08-02-2024 18:00:00,11.7637683,79.7499835,PM2.5,18,259,62
India,TamilNadu,Cuddalore,"Semmandalam, Cuddalore - TNPCB",08-02-2024 18:00:00,11.7637683,79.7499835,NO2,8,28,17
India,TamilNadu,Kanchipuram,"Kilambi, Kanchipuram - TNPCB",08-02-2024 18:00:00,12.864618,79.659968,NH3,NA,NA,NA
India,TamilNadu,Palkalaiperur,"Bharathidasan University, Palkalaiperur - TNPCB",08-02-2024 18:00:00,10.681158,78.741746,PM2.5,33,55,42
India,TamilNadu,Palkalaiperur,"Bharathidasan University, Palkalaiperur - TNPCB",08-02-2024 18:00:00,10.681158,78.741746,PM10,40,70,53
India,TamilNadu,Ramanathapuram,"Chalai Bazaar, Ramanathapuram - TNPCB",08-02-2024 18:00:00,9.36399,78.831977,PM2.5,22,56,38
India,TamilNadu,Ramanathapuram,"Chalai Bazaar, Ramanathapuram - TNPCB",08-02-2024 18:00:00,9.36399,78.831977,PM10,27,79,55
India,TamilNadu,Ramanathapuram,"Chalai Bazaar, Ramanathapuram - TNPCB",08-02-2024 18:00:00,9.36399,78.831977,SO2,2,11,7
India,TamilNadu,Salem,"Sona College of Technology, Salem - TNPCB",08-02-2024 18:00:00,11.679111,78.125052,OZONE,2,4,3
India,TamilNadu,Tirupur,"Kumaran College, Tirupur - TNPCB",08-02-2024 18:00:00,11.0973603,77.3228673,CO,33,62,48
India,TamilNadu,Tirupur,"Kumaran College, Tirupur - TNPCB",08-02-2024 18:00:00,11.0973603,77.3228673,OZONE,7,7,7
India,TamilNadu,Vellore,"Vasanthapuram, Vellore - TNPCB",08-02-2024 18:00:00,12.909494,79.131861,OZONE,1,2,1
India,TamilNadu,Virudhunagar,"Collectorate Office, Virudhunagar - TNPCB",08-02-2024 18:00:00,9.559382,77.948828,CO,22,26,23
India,Telangana,Hyderabad,"Bollaram Industrial Area, Hyderabad - TSPCB",08-02-2024 18:00:00,17.540891,78.358528,PM10,102,150,126
India,Telangana,Hyderabad,"Bollaram Industrial Area, Hyderabad - TSPCB",08-02-2024 18:00:00,17.540891,78.358528,SO2,14,22,18
India,Telangana,Hyderabad,"Central University, Hyderabad - TSPCB",08-02-2024 18:00:00,17.460103,78.334361,PM10,73,146,101
India,Telangana,Hyderabad,"ECIL Kapra, Hyderabad - TSPCB",08-02-2024 18:00:00,17.470431,78.566959,CO,14,36,17
India,Telangana,Hyderabad,"ICRISAT Patancheru, Hyderabad - TSPCB",08-02-2024 18:00:00,17.518400,78.278777,SO2,11,34,17
India,Telangana,Hyderabad,"IITH Kandi, Hyderabad - TSPCB",08-02-2024 18:00:00,17.585705,78.126199,PM10,NA,NA,NA
India,Telangana,Hyderabad,"IITH Kandi, Hyderabad - TSPCB",08-02-2024 18:00:00,17.585705,78.126199,OZONE,11,24,22
India,Telangana,Hyderabad,"Kokapet, Hyderabad - TSPCB",08-02-2024 18:00:00,17.393559,78.339194,NH3,1,2,1
India,Telangana,Hyderabad,"Kompally Municipal Office, Hyderabad - TSPCB",08-02-2024 18:00:00,17.544899,78.486949,NH3,NA,NA,NA
India,Telangana,Hyderabad,"Kompally Municipal Office, Hyderabad - TSPCB",08-02-2024 18:00:00,17.544899,78.486949,SO2,NA,NA,NA
India,Telangana,Hyderabad,"Kompally Municipal Office, Hyderabad - TSPCB",08-02-2024 18:00:00,17.544899,78.486949,OZONE,25,76,54
India,Telangana,Hyderabad,"Nacharam_TSIIC IALA, Hyderabad - TSPCB",08-02-2024 18:00:00,17.429398,78.569354,PM2.5,65,91,75
India,Telangana,Hyderabad,"Nacharam_TSIIC IALA, Hyderabad - TSPCB",08-02-2024 18:00:00,17.429398,78.569354,SO2,15,30,23
India,Telangana,Hyderabad,"Nacharam_TSIIC IALA, Hyderabad - TSPCB",08-02-2024 18:00:00,17.429398,78.569354,CO,14,20,15
India,Telangana,Hyderabad,"New Malakpet, Hyderabad - TSPCB",08-02-2024 18:00:00,17.37206,78.50864,SO2,19,28,22
India,Telangana,Hyderabad,"Ramachandrapuram, Hyderabad - TSPCB",08-02-2024 18:00:00,17.528544,78.286195,PM2.5,NA,NA,NA
India,Telangana,Hyderabad,"Somajiguda, Hyderabad - TSPCB",08-02-2024 18:00:00,17.417094,78.457437,SO2,9,15,11
India,Telangana,Hyderabad,"Somajiguda, Hyderabad - TSPCB",08-02-2024 18:00:00,17.417094,78.457437,OZONE,1,40,23
India,Tripura,Agartala,"Bardowali, Agartala - Tripura SPCB",08-02-2024 18:00:00,23.8175497,91.2726974,NH3,2,3,3
India,Tripura,Agartala,"Bardowali, Agartala - Tripura SPCB",08-02-2024 18:00:00,23.8175497,91.2726974,SO2,24,26,25
India,Uttar_Pradesh,Agra,"Manoharpur, Agra - UPPCB",08-02-2024 18:00:00,27.23711,78.01936,NO2,19,19,19
India,Uttar_Pradesh,Agra,"Manoharpur, Agra - UPPCB",08-02-2024 18:00:00,27.23711,78.01936,OZONE,11,38,31
India,Uttar_Pradesh,Agra,"Rohta, Agra - UPPCB",08-02-2024 18:00:00,27.106972,78.000111,SO2,2,5,3
India,Uttar_Pradesh,Agra,"Sanjay Palace, Agra - UPPCB",08-02-2024 18:00:00,27.19865833,78.00598056,PM10,50,82,65
India,Uttar_Pradesh,Agra,"Sector-3B Avas Vikas Colony, Agra - UPPCB",08-02-2024 18:00:00,27.19412,77.96237,NO2,10,22,15
India,Uttar_Pradesh,Agra,"Sector-3B Avas Vikas Colony, Agra - UPPCB",08-02-2024 18:00:00,27.19412,77.96237,NH3,2,5,3
India,Uttar_Pradesh,Agra,"Sector-3B Avas Vikas Colony, Agra - UPPCB",08-02-2024 18:00:00,27.19412,77.96237,SO2,12,17,13
India,Uttar_Pradesh,Agra,"Shahjahan Garden, Agra - UPPCB",08-02-2024 18:00:00,27.169338,78.03582,PM2.5,18,50,35
India,Uttar_Pradesh,Agra,"Shastripuram, Agra - UPPCB",08-02-2024 18:00:00,27.19862,77.92066,CO,8,10,10
India,Uttar_Pradesh,Baghpat,"Sardar Patel Inter College, Baghpat - UPPCB",08-02-2024 18:00:00,28.964949,77.278761,PM2.5,28,93,68
India,Uttar_Pradesh,Baghpat,"Sardar Patel Inter College, Baghpat - UPPCB",08-02-2024 18:00:00,28.964949,77.278761,PM10,57,123,84
India,Uttar_Pradesh,Bareilly,"Civil Lines, Bareilly - UPPCB",08-02-2024 18:00:00,28.359581,79.414455,PM2.5,20,48,34
India,Uttar_Pradesh,Bareilly,"Civil Lines, Bareilly - UPPCB",08-02-2024 18:00:00,28.359581,79.414455,CO,76,82,79
India,Uttar_Pradesh,Bulandshahr,"Yamunapuram, Bulandshahr - UPPCB",08-02-2024 18:00:00,28.406963,77.849831,PM2.5,42,143,94
India,Uttar_Pradesh,Bulandshahr,"Yamunapuram, Bulandshahr - UPPCB",08-02-2024 18:00:00,28.406963,77.849831,PM10,102,157,129
India,Uttar_Pradesh,Bulandshahr,"Yamunapuram, Bulandshahr - UPPCB",08-02-2024 18:00:00,28.406963,77.849831,NO2,13,41,23
India,Uttar_Pradesh,Firozabad,"Vibhab Nagar, Firozabad - UPPCB",08-02-2024 18:00:00,27.1594,78.3953,PM2.5,41,112,60
India,Uttar_Pradesh,Firozabad,"Vibhab Nagar, Firozabad - UPPCB",08-02-2024 18:00:00,27.1594,78.3953,SO2,12,19,14
India,Uttar_Pradesh,Ghaziabad,"Indirapuram, Ghaziabad - UPPCB",08-02-2024 18:00:00,28.646233,77.358075,SO2,12,19,16
India,Uttar_Pradesh,Ghaziabad,"Indirapuram, Ghaziabad - UPPCB",08-02-2024 18:00:00,28.646233,77.358075,CO,5,80,21
India,Uttar_Pradesh,Ghaziabad,"Indirapuram, Ghaziabad - UPPCB",08-02-2024 18:00:00,28.646233,77.358075,OZONE,15,48,37
India,Uttar_Pradesh,Ghaziabad,"Sanjay Nagar, Ghaziabad - UPPCB",08-02-2024 18:00:00,28.685382,77.453839,CO,27,55,37
India,Uttar_Pradesh,Ghaziabad,"Vasundhara, Ghaziabad - UPPCB",08-02-2024 18:00:00,28.6603346,77.3572563,NH3,5,11,8
India,Uttar_Pradesh,Ghaziabad,"Vasundhara, Ghaziabad - UPPCB",08-02-2024 18:00:00,28.6603346,77.3572563,OZONE,15,46,35
India,Uttar_Pradesh,Greater Noida,"Knowledge Park - III, Greater Noida - UPPCB",08-02-2024 18:00:00,28.47272,77.482000,NO2,30,84,53
India,Uttar_Pradesh,Greater Noida,"Knowledge Park - III, Greater Noida - UPPCB",08-02-2024 18:00:00,28.47272,77.482000,OZONE,20,85,74
India,Uttar_Pradesh,Greater Noida,"Knowledge Park - V, Greater Noida - UPPCB",08-02-2024 18:00:00,28.557054,77.453663,SO2,13,20,16
India,Uttar_Pradesh,Hapur,"Anand Vihar, Hapur - UPPCB",08-02-2024 18:00:00,28.725645,77.749675,NO2,21,41,30
India,Uttar_Pradesh,Kanpur,"FTI Kidwai Nagar, Kanpur - UPPCB",08-02-2024 18:00:00,26.428282,80.327067,NH3,3,4,3
India,Uttar_Pradesh,Kanpur,"FTI Kidwai Nagar, Kanpur - UPPCB",08-02-2024 18:00:00,26.428282,80.327067,SO2,22,22,22
India,Uttar_Pradesh,Kanpur,"NSI Kalyanpur, Kanpur - UPPCB",08-02-2024 18:00:00,26.509954,80.249612,NO2,8,10,10
India,Uttar_Pradesh,Kanpur,"NSI Kalyanpur, Kanpur - UPPCB",08-02-2024 18:00:00,26.509954,80.249612,OZONE,10,32,21
India,Uttar_Pradesh,Kanpur,"Nehru Nagar, Kanpur - UPPCB",08-02-2024 18:00:00,26.4703136,80.3229863,NO2,1,80,39
India,Uttar_Pradesh,Khurja,"Kalindi Kunj, Khurja - UPPCB",08-02-2024 18:00:00,28.2348927,77.8683002,PM10,2,47,28
India,Uttar_Pradesh,Lucknow,"B R Ambedkar University, Lucknow - UPPCB",08-02-2024 18:00:00,26.766433,80.927299,NH3,6,7,6
India,Uttar_Pradesh,Lucknow,"B R Ambedkar University, Lucknow - UPPCB",08-02-2024 18:00:00,26.766433,80.927299,SO2,25,27,26
India,Uttar_Pradesh,Lucknow,"B R Ambedkar University, Lucknow - UPPCB",08-02-2024 18:00:00,26.766433,80.927299,CO,22,29,23
India,Uttar_Pradesh,Lucknow,"Gomti Nagar, Lucknow - UPPCB",08-02-2024 18:00:00,26.868120,81.005119,PM10,40,68,53
India,Uttar_Pradesh,Lucknow,"Gomti Nagar, Lucknow - UPPCB",08-02-2024 18:00:00,26.868120,81.005119,SO2,4,18,10
India,Uttar_Pradesh,Lucknow,"Kendriya Vidyalaya, Lucknow - CPCB",08-02-2024 18:00:00,26.906111,80.948222,CO,22,44,36
India,Uttar_Pradesh,Lucknow,"Kukrail Picnic Spot-1, Lucknow - UPPCB",08-02-2024 18:00:00,26.90723,80.98579,NH3,2,2,2
India,Uttar_Pradesh,Lucknow,"Kukrail Picnic Spot-1, Lucknow - UPPCB",08-02-2024 18:00:00,26.90723,80.98579,CO,15,26,18
India,Uttar_Pradesh,Lucknow,"Kukrail Picnic Spot-1, Lucknow - UPPCB",08-02-2024 18:00:00,26.90723,80.98579,OZONE,22,73,55
India,Uttar_Pradesh,Lucknow,"Lalbagh, Lucknow - CPCB",08-02-2024 18:00:00,26.8458805,80.9365541,NO2,18,80,35
India,Uttar_Pradesh,Lucknow,"Lalbagh, Lucknow - CPCB",08-02-2024 18:00:00,26.8458805,80.9365541,NH3,10,13,11
India,Uttar_Pradesh,Meerut,"Ganga Nagar, Meerut - UPPCB",08-02-2024 18:00:00,28.999264,77.7590354,PM2.5,24,90,61
India,Uttar_Pradesh,Meerut,"Ganga Nagar, Meerut - UPPCB",08-02-2024 18:00:00,28.999264,77.7590354,NH3,5,12,9
India,Uttar_Pradesh,Meerut,"Jai Bhim Nagar, Meerut - UPPCB",08-02-2024 18:00:00,28.9535882,77.7622941,NO2,15,43,26
India,Uttar_Pradesh,Moradabad,"Buddhi Vihar, Moradabad - UPPCB",08-02-2024 18:00:00,28.83526,78.74460,PM2.5,19,50,37
India,Uttar_Pradesh,Moradabad,"Eco Herbal Park, Moradabad - UPPCB",08-02-2024 18:00:00,28.840739,78.697531,PM2.5,28,71,54
India,Uttar_Pradesh,Moradabad,"Eco Herbal Park, Moradabad - UPPCB",08-02-2024 18:00:00,28.840739,78.697531,NO2,20,69,28
India,Uttar_Pradesh,Moradabad,"Employment Office, Moradabad - UPPCB",08-02-2024 18:00:00,28.88528,78.73880,PM2.5,33,62,49
India,Uttar_Pradesh,Moradabad,"Jigar Colony, Moradabad - UPPCB",08-02-2024 18:00:00,28.856664,78.772638,NO2,21,24,24
India,Uttar_Pradesh,Moradabad,"Jigar Colony, Moradabad - UPPCB",08-02-2024 18:00:00,28.856664,78.772638,NH3,5,10,5
India,Uttar_Pradesh,Moradabad,"Kashiram Nagar, Moradabad - UPPCB",08-02-2024 18:00:00,28.849399,78.742362,PM2.5,22,52,41
India,Uttar_Pradesh,Moradabad,"Kashiram Nagar, Moradabad - UPPCB",08-02-2024 18:00:00,28.849399,78.742362,PM10,49,88,68
India,Uttar_Pradesh,Moradabad,"Kashiram Nagar, Moradabad - UPPCB",08-02-2024 18:00:00,28.849399,78.742362,OZONE,15,20,18
India,Uttar_Pradesh,Moradabad,"Transport Nagar, Moradabad - UPPCB",08-02-2024 18:00:00,28.802625,78.753728,PM2.5,25,63,46
India,Uttar_Pradesh,Moradabad,"Transport Nagar, Moradabad - UPPCB",08-02-2024 18:00:00,28.802625,78.753728,CO,28,42,39
India,Uttar_Pradesh,Noida,"Sector-1, Noida - UPPCB",08-02-2024 18:00:00,28.5898,77.3101,PM2.5,68,286,170
India,Uttar_Pradesh,Noida,"Sector-1, Noida - UPPCB",08-02-2024 18:00:00,28.5898,77.3101,NH3,6,9,8
India,Uttar_Pradesh,Noida,"Sector-1, Noida - UPPCB",08-02-2024 18:00:00,28.5898,77.3101,SO2,5,8,6
India,Uttar_Pradesh,Prayagraj,"Jhunsi, Prayagraj - UPPCB",08-02-2024 18:00:00,25.425602,81.917152,NH3,5,5,5
India,Uttar_Pradesh,Prayagraj,"Motilal Nehru NIT, Prayagraj - UPPCB",08-02-2024 18:00:00,25.494,81.863,NH3,NA,NA,NA
India,Uttar_Pradesh,Prayagraj,"Motilal Nehru NIT, Prayagraj - UPPCB",08-02-2024 18:00:00,25.494,81.863,SO2,NA,NA,NA
India,Uttar_Pradesh,Prayagraj,"Motilal Nehru NIT, Prayagraj - UPPCB",08-02-2024 18:00:00,25.494,81.863,CO,10,16,11
India,Uttar_Pradesh,Prayagraj,"Nagar Nigam, Prayagraj - UPPCB",08-02-2024 18:00:00,25.44919916 ,81.82735986 ,NH3,3,6,4
India,Uttar_Pradesh,Prayagraj,"Nagar Nigam, Prayagraj - UPPCB",08-02-2024 18:00:00,25.44919916 ,81.82735986 ,OZONE,10,11,10
India,Uttar_Pradesh,Varanasi,"Ardhali Bazar, Varanasi - UPPCB",08-02-2024 18:00:00,25.3505986,82.9083074,NO2,20,34,25
India,Uttar_Pradesh,Varanasi,"Ardhali Bazar, Varanasi - UPPCB",08-02-2024 18:00:00,25.3505986,82.9083074,OZONE,17,20,18
India,Uttar_Pradesh,Varanasi,"Bhelupur, Varanasi - UPPCB",08-02-2024 18:00:00,25.301778,82.996789,PM10,49,80,63
India,Uttar_Pradesh,Varanasi,"IESD Banaras Hindu University, Varanasi - UPPCB",08-02-2024 18:00:00,25.262326,82.995408,NO2,2,3,2
India,Uttar_Pradesh,Varanasi,"IESD Banaras Hindu University, Varanasi - UPPCB",08-02-2024 18:00:00,25.262326,82.995408,NH3,1,2,2
India,Uttar_Pradesh,Varanasi,"Maldahiya, Varanasi - UPPCB",08-02-2024 18:00:00,25.32393,82.99687,SO2,32,32,32
India,Uttar_Pradesh,Vrindavan,"Omex Eternity, Vrindavan - UPPCB",08-02-2024 18:00:00,27.5714090,77.6557570,NO2,2,3,3
India,Uttarakhand,Dehradun,"Doon University, Dehradun - UKPCB",08-02-2024 18:00:00,30.269444,78.044167,PM10,45,132,95
India,Uttarakhand,Kashipur,"Govt. Girls Inter College, Kashipur - UKPCB",08-02-2024 18:00:00,29.2124114,78.9611753,CO,25,45,38
India,Uttarakhand,Kashipur,"Govt. Girls Inter College, Kashipur - UKPCB",08-02-2024 18:00:00,29.2124114,78.9611753,OZONE,5,27,19
India,Uttarakhand,Rishikesh,"Shivaji Nagar, Rishikesh - UKPCB",08-02-2024 18:00:00,30.075911,78.2859547,CO,18,34,23
India,West_Bengal,Asansol,"Asansol Court Area, Asansol - WBPCB",08-02-2024 18:00:00,23.685297,86.945968,SO2,10,34,18
India,West_Bengal,Barrackpore,"SVSPA Campus, Barrackpore - WBPCB",08-02-2024 18:00:00,22.7605581,88.3617589,CO,20,72,23
India,West_Bengal,Durgapur,"Sidhu Kanhu Indoor Stadium, Durgapur - WBPCB",08-02-2024 18:00:00,23.5404352,87.2892225,NH3,NA,NA,NA
India,West_Bengal,Haldia,"Priyambada Housing Estate, Haldia - WBPCB",08-02-2024 18:00:00,22.06047,88.109737,CO,40,100,43
India,West_Bengal,Howrah,"Belur Math, Howrah - WBPCB",08-02-2024 18:00:00,22.629801,88.352017,PM10,87,191,117
India,West_Bengal,Howrah,"Belur Math, Howrah - WBPCB",08-02-2024 18:00:00,22.629801,88.352017,NO2,6,47,29
India,West_Bengal,Howrah,"Belur Math, Howrah - WBPCB",08-02-2024 18:00:00,22.629801,88.352017,SO2,7,18,12
India,West_Bengal,Howrah,"Ghusuri, Howrah - WBPCB",08-02-2024 18:00:00,22.611968,88.347422,CO,2,71,13
India,West_Bengal,Kolkata,"Ballygunge, Kolkata - WBPCB",08-02-2024 18:00:00,22.5367507,88.3638022,NO2,40,117,73
India,West_Bengal,Kolkata,"Bidhannagar, Kolkata - WBPCB",08-02-2024 18:00:00,22.58157048,88.41002457,SO2,3,27,13
India,West_Bengal,Kolkata,"Bidhannagar, Kolkata - WBPCB",08-02-2024 18:00:00,22.58157048,88.41002457,OZONE,6,94,32
India,West_Bengal,Kolkata,"Fort William, Kolkata - WBPCB",08-02-2024 18:00:00,22.556640,88.342674,PM2.5,63,198,103
India,West_Bengal,Kolkata,"Fort William, Kolkata - WBPCB",08-02-2024 18:00:00,22.556640,88.342674,PM10,92,160,116
India,West_Bengal,Kolkata,"Jadavpur, Kolkata - WBPCB",08-02-2024 18:00:00,22.49929,88.36917,PM2.5,80,195,118
India,West_Bengal,Kolkata,"Jadavpur, Kolkata - WBPCB",08-02-2024 18:00:00,22.49929,88.36917,CO,8,71,13
India,West_Bengal,Kolkata,"Rabindra Bharati University, Kolkata - WBPCB",08-02-2024 18:00:00,22.627847,88.380669,PM2.5,60,209,100
India,West_Bengal,Kolkata,"Rabindra Bharati University, Kolkata - WBPCB",08-02-2024 18:00:00,22.627847,88.380669,NH3,7,9,8
India,West_Bengal,Kolkata,"Rabindra Bharati University, Kolkata - WBPCB",08-02-2024 18:00:00,22.627847,88.380669,CO,28,92,31
India,West_Bengal,Kolkata,"Victoria, Kolkata - WBPCB",08-02-2024 18:00:00,22.5448082,88.3403691,CO,32,106,38
India,Andhra_Pradesh,Amaravati,"Secretariat, Amaravati - APPCB",08-02-2024 18:00:00,16.5150833,80.5181667,PM10,54,106,79
India,Andhra_Pradesh,Amaravati,"Secretariat, Amaravati - APPCB",08-02-2024 18:00:00,16.5150833,80.5181667,NO2,13,30,20
India,Andhra_Pradesh,Chittoor,"Gangineni Cheruvu, Chittoor - APPCB",08-02-2024 18:00:00,13.204880,79.097889,PM2.5,NA,NA,NA
India,Andhra_Pradesh,Chittoor,"Gangineni Cheruvu, Chittoor - APPCB",08-02-2024 18:00:00,13.204880,79.097889,NH3,NA,NA,NA
India,Andhra_Pradesh,Rajamahendravaram,"Anand Kala Kshetram, Rajamahendravaram - APPCB",08-02-2024 18:00:00,16.9872867,81.7363176,PM10,73,116,96
India,Andhra_Pradesh,Rajamahendravaram,"Anand Kala Kshetram, Rajamahendravaram - APPCB",08-02-2024 18:00:00,16.9872867,81.7363176,SO2,3,74,13
India,Andhra_Pradesh,Tirupati,"Tirumala, Tirupati - APPCB",08-02-2024 18:00:00,13.67,79.35,NO2,19,55,37
India,Andhra_Pradesh,Tirupati,"Vaikuntapuram, Tirupati - APPCB",08-02-2024 18:00:00,13.615387,79.409230,PM2.5,20,43,30
India,Andhra_Pradesh,Tirupati,"Vaikuntapuram, Tirupati - APPCB",08-02-2024 18:00:00,13.615387,79.409230,PM10,17,38,26
India,Andhra_Pradesh,Tirupati,"Vaikuntapuram, Tirupati - APPCB",08-02-2024 18:00:00,13.615387,79.409230,NO2,18,38,24
India,Andhra_Pradesh,Tirupati,"Vaikuntapuram, Tirupati - APPCB",08-02-2024 18:00:00,13.615387,79.409230,NH3,2,5,3
India,Andhra_Pradesh,Vijayawada,"Kanuru, Vijayawada - APPCB",08-02-2024 18:00:00,16.486692,80.699436,NO2,NA,NA,NA
India,Andhra_Pradesh,Vijayawada,"Rajiv Nagar, Vijayawada - APPCB",08-02-2024 18:00:00,16.554731,80.649110,OZONE,2,86,53
India,Andhra_Pradesh,Visakhapatnam,"GVM Corporation, Visakhapatnam - APPCB",08-02-2024 18:00:00,17.72,83.3,CO,2,102,21
India,Arunachal_Pradesh,Naharlagun,"Naharlagun, Naharlagun - APSPCB",08-02-2024 18:00:00,27.103358,93.679645,OZONE,2,2,2
India,Assam,Byrnihat,"Central Academy for SFS, Byrnihat - PCBA",08-02-2024 18:00:00,26.071318,91.87488,PM10,114,500,292
India,Assam,Byrnihat,"Central Academy for SFS, Byrnihat - PCBA",08-02-2024 18:00:00,26.071318,91.87488,OZONE,11,16,15
India,Assam,Guwahati,"IITG, Guwahati - PCBA",08-02-2024 18:00:00,26.2028636,91.70046436,NH3,5,6,5
India,Assam,Guwahati,"LGBI Airport, Guwahati - PCBA",08-02-2024 18:00:00,26.10887,91.589544,PM10,106,299,148
India,Assam,Guwahati,"LGBI Airport, Guwahati - PCBA",08-02-2024 18:00:00,26.10887,91.589544,OZONE,4,74,61
India,Assam,Guwahati,"Railway Colony, Guwahati - PCBA",08-02-2024 18:00:00,26.181742,91.78063,PM2.5,90,359,173
India,Assam,Nagaon,"Christianpatty, Nagaon - PCBA",08-02-2024 18:00:00,26.349082,92.68449,PM2.5,25,95,50
India,Assam,Nagaon,"Christianpatty, Nagaon - PCBA",08-02-2024 18:00:00,26.349082,92.68449,CO,2,50,10
India,Assam,Sivasagar,"Girls College, Sivasagar - PCBA",08-02-2024 18:00:00,26.987634,94.636574,NO2,15,30,21
India,Bihar,Araria,"Kharahiya Basti, Araria - BSPCB",08-02-2024 18:00:00,26.146529,87.454184,PM10,NA,NA,NA
India,Bihar,Arrah,"New DM Office, Arrah - BSPCB",08-02-2024 18:00:00,25.5626095,84.663264,NH3,4,5,5
India,Bihar,Arrah,"New DM Office, Arrah - BSPCB",08-02-2024 18:00:00,25.5626095,84.663264,OZONE,12,31,17
India,Bihar,Aurangabad,"Gurdeo Nagar, Aurangabad - BSPCB",08-02-2024 18:00:00,24.75746,84.366208,PM2.5,30,95,67
India,Bihar,Aurangabad,"Gurdeo Nagar, Aurangabad - BSPCB",08-02-2024 18:00:00,24.75746,84.366208,SO2,5,16,9
India,Bihar,Bettiah,"Kamalnath Nagar, Bettiah - BSPCB",08-02-2024 18:00:00,26.80365,84.51954,PM10,39,124,68
India,Bihar,Bettiah,"Kamalnath Nagar, Bettiah - BSPCB",08-02-2024 18:00:00,26.80365,84.51954,CO,76,79,77
India,Bihar,Bhagalpur,"DM Office_Kachari Chowk, Bhagalpur - BSPCB",08-02-2024 18:00:00,25.251013,86.989001,PM2.5,83,247,128
India,Bihar,Bhagalpur,"DM Office_Kachari Chowk, Bhagalpur - BSPCB",08-02-2024 18:00:00,25.251013,86.989001,OZONE,20,31,24
India,Bihar,Bhagalpur,"Mayaganj, Bhagalpur - BSPCB",08-02-2024 18:00:00,25.265194,87.012947,CO,7,10,9
India,Bihar,Buxar,"Charitra Van, Buxar - BSPCB (Formerly known as Central Jail)",08-02-2024 18:00:00,25.567520,83.966379,NO2,11,49,16
India,Bihar,Chhapra,"Darshan Nagar, Chhapra - BSPCB",08-02-2024 18:00:00,25.7808257,84.7446768,OZONE,6,27,19
India,Bihar,Gaya,"Collectorate, Gaya - BSPCB",08-02-2024 18:00:00,24.7955,84.9994,PM2.5,38,203,93
India,Bihar,Gaya,"Collectorate, Gaya - BSPCB",08-02-2024 18:00:00,24.7955,84.9994,CO,26,40,28
India,Bihar,Gaya,"Kareemganj, Gaya - BSPCB",08-02-2024 18:00:00,24.792403,84.992416,PM10,42,115,80
India,Bihar,Gaya,"SFTI Kusdihra, Gaya - BSPCB",08-02-2024 18:00:00,24.762518,84.982348,OZONE,9,55,47
India,Bihar,Hajipur,"Industrial Area, Hajipur - BSPCB",08-02-2024 18:00:00,25.697189,85.245900,NO2,39,86,52
India,Bihar,Katihar,"Mirchaibari, Katihar - BSPCB",08-02-2024 18:00:00,25.560083,87.553265,PM2.5,45,302,97
India,Bihar,Kishanganj,"SDM Office_Khagra, Kishanganj - BSPCB",08-02-2024 18:00:00,26.0881305,87.93840336,SO2,2,38,24
India,Bihar,Manguraha,"Forest Rest House, Manguraha - BSPCB",08-02-2024 18:00:00,27.308328,84.531742,CO,1,10,2
India,Bihar,Motihari,"Gandak Colony, Motihari - BSPCB",08-02-2024 18:00:00,26.63086,84.90051,PM10,46,129,76
India,Bihar,Motihari,"Gandak Colony, Motihari - BSPCB",08-02-2024 18:00:00,26.63086,84.90051,NH3,6,9,8
India,Bihar,Munger,"Town Hall, Munger - BSPCB",08-02-2024 18:00:00,25.376776,86.471523,OZONE,7,111,75
India,Bihar,Patna,"DRM Office Danapur, Patna - BSPCB",08-02-2024 18:00:00,25.586562,85.043586,OZONE,7,79,64
India,Bihar,Patna,"Govt. High School Shikarpur, Patna - BSPCB",08-02-2024 18:00:00,25.592539,85.227158,SO2,2,8,4
India,Bihar,Patna,"Samanpura, Patna - BSPCB",08-02-2024 18:00:00,25.596727,85.085624,SO2,15,18,16
India,Bihar,Patna,"Samanpura, Patna - BSPCB",08-02-2024 18:00:00,25.596727,85.085624,CO,42,117,53
India,Bihar,Patna,"Samanpura, Patna - BSPCB",08-02-2024 18:00:00,25.596727,85.085624,OZONE,14,49,40
India,Bihar,Purnia,"Mariam Nagar, Purnia - BSPCB",08-02-2024 18:00:00,25.366336,87.117468,SO2,17,22,20
India,Bihar,Rajgir,"Dangi Tola, Rajgir - BSPCB",08-02-2024 18:00:00,25.03280,85.41948,NH3,NA,NA,NA
India,Bihar,Rajgir,"Dangi Tola, Rajgir - BSPCB",08-02-2024 18:00:00,25.03280,85.41948,CO,9,11,10
India,Bihar,Saharsa,"Police Line, Saharsa - BSPCB",08-02-2024 18:00:00,25.892357,86.590325,PM2.5,55,314,159
India,Bihar,Saharsa,"Police Line, Saharsa - BSPCB",08-02-2024 18:00:00,25.892357,86.590325,NO2,5,8,7
India,Bihar,Saharsa,"Police Line, Saharsa - BSPCB",08-02-2024 18:00:00,25.892357,86.590325,SO2,3,70,26
India,Bihar,Samastipur,"DM Office_Kasipur, Samastipur - BSPCB",08-02-2024 18:00:00,25.859655,85.77944,PM2.5,48,157,81
India,Bihar,Samastipur,"DM Office_Kasipur, Samastipur - BSPCB",08-02-2024 18:00:00,25.859655,85.77944,CO,12,28,20
India,Bihar,Sasaram,"Dada Peer, Sasaram - BSPCB",08-02-2024 18:00:00,24.952822,84.002396,NO2,1,10,4
India,Bihar,Sasaram,"Dada Peer, Sasaram - BSPCB",08-02-2024 18:00:00,24.952822,84.002396,SO2,3,42,22
India,Chandigarh,Chandigarh,"Sector 22, Chandigarh - CPCC",08-02-2024 18:00:00,30.735567,76.775714,NO2,17,69,34
India,Chandigarh,Chandigarh,"Sector-25, Chandigarh - CPCC",08-02-2024 18:00:00,30.751462,76.762879,PM10,111,139,125
India,Chhattisgarh,Bhilai,"32Bungalows, Bhilai - CECB",08-02-2024 18:00:00,21.194815,81.314770,NO2,13,27,19
India,Chhattisgarh,Bhilai,"32Bungalows, Bhilai - CECB",08-02-2024 18:00:00,21.194815,81.314770,CO,14,48,15
India,Chhattisgarh,Bhilai,"Civic Center, Bhilai - Bhilai Steel Plant",08-02-2024 18:00:00,21.185571,81.343175,PM10,NA,NA,NA
India,Chhattisgarh,Bhilai,"Civic Center, Bhilai - Bhilai Steel Plant",08-02-2024 18:00:00,21.185571,81.343175,NH3,NA,NA,NA
India,Chhattisgarh,Bilaspur,"Mangala, Bilaspur - NTPC",08-02-2024 18:00:00,22.08815,82.13737,PM2.5,14,86,40
India,Chhattisgarh,Chhal,"Nawapara SECL Colony, Chhal - CECB",08-02-2024 18:00:00,22.118125,83.140608,PM10,23,201,59
India,Chhattisgarh,Chhal,"Nawapara SECL Colony, Chhal - CECB",08-02-2024 18:00:00,22.118125,83.140608,NO2,12,48,22
India,Chhattisgarh,Chhal,"Nawapara SECL Colony, Chhal - CECB",08-02-2024 18:00:00,22.118125,83.140608,CO,33,77,37
India,Chhattisgarh,Korba,"Rampur, Korba - CECB",08-02-2024 18:00:00,22.368195,82.746431,PM2.5,9,23,15
India,Chhattisgarh,Korba,"Rampur, Korba - CECB",08-02-2024 18:00:00,22.368195,82.746431,SO2,9,43,15
India,Chhattisgarh,Korba,"Urja Nagar, Korba - CECB",08-02-2024 18:00:00,22.348441,82.549611,NO2,68,86,76
India,Chhattisgarh,Korba,"Urja Nagar, Korba - CECB",08-02-2024 18:00:00,22.348441,82.549611,OZONE,47,48,48
India,Chhattisgarh,Milupara,"Govt. Higher Secondary School, Milupara - CECB",08-02-2024 18:00:00,22.1910172,83.5197009,NO2,11,72,36
India,Chhattisgarh,Raipur,"Siltara Phase-II, Raipur - CECB",08-02-2024 18:00:00,21.371751,81.664929,PM2.5,43,119,71
India,Chhattisgarh,Raipur,"Siltara Phase-II, Raipur - CECB",08-02-2024 18:00:00,21.371751,81.664929,PM10,31,155,87
India,Chhattisgarh,Raipur,"Siltara Phase-II, Raipur - CECB",08-02-2024 18:00:00,21.371751,81.664929,NH3,2,3,3
India,Chhattisgarh,Raipur,"Siltara Phase-II, Raipur - CECB",08-02-2024 18:00:00,21.371751,81.664929,SO2,NA,NA,NA
India,Chhattisgarh,Tumidih,"OP Jindal Industrial Park, Tumidih - CECB",08-02-2024 18:00:00,22.06631475,83.33820077,OZONE,9,46,43
India,Delhi,Delhi,"Alipur, Delhi - DPCC",08-02-2024 18:00:00,28.815329,77.153010,NO2,11,41,22
India,Delhi,Delhi,"Alipur, Delhi - DPCC",08-02-2024 18:00:00,28.815329,77.153010,NH3,11,16,13
India,Delhi,Delhi,"Anand Vihar, Delhi - DPCC",08-02-2024 18:00:00,28.647622,77.3158090,NO2,53,111,77
India,Delhi,Delhi,"Ashok Vihar, Delhi - DPCC",08-02-2024 18:00:00,28.695381,77.181665,SO2,17,32,24
India,Delhi,Delhi,"Bawana, Delhi - DPCC",08-02-2024 18:00:00,28.776200,77.051074,NO2,12,56,24
India,Delhi,Delhi,"Burari Crossing, Delhi - IMD",08-02-2024 18:00:00,28.7256504,77.2011573,PM10,116,181,139
India,Delhi,Delhi,"CRRI Mathura Road, Delhi - IMD",08-02-2024 18:00:00,28.5512005,77.2735737,NO2,27,44,36
India,Delhi,Delhi,"DTU, Delhi - CPCB",08-02-2024 18:00:00,28.7500499,77.1112615,PM2.5,NA,NA,NA
India,Delhi,Delhi,"DTU, Delhi - CPCB",08-02-2024 18:00:00,28.7500499,77.1112615,NO2,NA,NA,NA
India,Delhi,Delhi,"DTU, Delhi - CPCB",08-02-2024 18:00:00,28.7500499,77.1112615,NH3,NA,NA,NA
India,Delhi,Delhi,"DTU, Delhi - CPCB",08-02-2024 18:00:00,28.7500499,77.1112615,OZONE,30,65,38
India,Delhi,Delhi,"Dr. Karni Singh Shooting Range, Delhi - DPCC",08-02-2024 18:00:00,28.498571,77.264840,OZONE,19,129,103
India,Delhi,Delhi,"Dwarka-Sector 8, Delhi - DPCC ",08-02-2024 18:00:00,28.5710274,77.0719006,SO2,3,9,6
India,Delhi,Delhi,"IGI Airport (T3), Delhi - IMD",08-02-2024 18:00:00,28.5627763,77.1180053,PM2.5,NA,NA,NA
India,Delhi,Delhi,"IGI Airport (T3), Delhi - IMD",08-02-2024 18:00:00,28.5627763,77.1180053,OZONE,17,53,42
India,Delhi,Delhi,"IHBAS, Dilshad Garden, Delhi - CPCB",08-02-2024 18:00:00,28.6811736,77.3025234,NO2,NA,NA,NA
India,Delhi,Delhi,"ITO, Delhi - CPCB",08-02-2024 18:00:00,28.628624,77.241060,NH3,1,3,2
India,Delhi,Delhi,"Jahangirpuri, Delhi - DPCC",08-02-2024 18:00:00,28.732820,77.170633,PM2.5,70,325,211
India,Delhi,Delhi,"Jahangirpuri, Delhi - DPCC",08-02-2024 18:00:00,28.732820,77.170633,PM10,138,242,171
India,Delhi,Delhi,"Jahangirpuri, Delhi - DPCC",08-02-2024 18:00:00,28.732820,77.170633,CO,28,82,39
India,Delhi,Delhi,"Jawaharlal Nehru Stadium, Delhi - DPCC",08-02-2024 18:00:00,28.580280,77.233829,NO2,35,106,57
India,Delhi,Delhi,"Major Dhyan Chand National Stadium, Delhi - DPCC",08-02-2024 18:00:00,28.611281,77.237738,PM2.5,55,292,172
India,Delhi,Delhi,"Major Dhyan Chand National Stadium, Delhi - DPCC",08-02-2024 18:00:00,28.611281,77.237738,CO,32,75,36
India,Delhi,Delhi,"Major Dhyan Chand National Stadium, Delhi - DPCC",08-02-2024 18:00:00,28.611281,77.237738,OZONE,8,121,101
India,Delhi,Delhi,"Mandir Marg, Delhi - DPCC",08-02-2024 18:00:00,28.636429,77.201067,PM10,93,170,128
India,Delhi,Delhi,"Mandir Marg, Delhi - DPCC",08-02-2024 18:00:00,28.636429,77.201067,NO2,103,118,110
India,Delhi,Delhi,"Mandir Marg, Delhi - DPCC",08-02-2024 18:00:00,28.636429,77.201067,CO,42,64,50
India,Delhi,Delhi,"Mundka, Delhi - DPCC",08-02-2024 18:00:00,28.684678,77.076574,PM10,126,357,173
India,Delhi,Delhi,"Mundka, Delhi - DPCC",08-02-2024 18:00:00,28.684678,77.076574,CO,33,60,37
India,Delhi,Delhi,"NSIT Dwarka, Delhi - CPCB",08-02-2024 18:00:00,28.60909,77.0325413,PM2.5,50,238,145
India,Delhi,Delhi,"NSIT Dwarka, Delhi - CPCB",08-02-2024 18:00:00,28.60909,77.0325413,CO,28,79,38
India,Delhi,Delhi,"Najafgarh, Delhi - DPCC",08-02-2024 18:00:00,28.570173,76.933762,NO2,NA,NA,NA
India,Delhi,Delhi,"Najafgarh, Delhi - DPCC",08-02-2024 18:00:00,28.570173,76.933762,OZONE,19,135,111
India,Delhi,Delhi,"Nehru Nagar, Delhi - DPCC",08-02-2024 18:00:00,28.567890,77.250515,CO,15,102,55
India,Delhi,Delhi,"North Campus, DU, Delhi - IMD",08-02-2024 18:00:00,28.6573814,77.1585447,PM2.5,75,246,159
India,Delhi,Delhi,"Okhla Phase-2, Delhi - DPCC",08-02-2024 18:00:00,28.530785,77.271255,NH3,8,12,10
India,Delhi,Delhi,"Patparganj, Delhi - DPCC",08-02-2024 18:00:00,28.623763,77.287209,NH3,7,11,9
India,Delhi,Delhi,"Punjabi Bagh, Delhi - DPCC",08-02-2024 18:00:00,28.674045,77.131023,SO2,3,19,12
India,Delhi,Delhi,"Pusa, Delhi - DPCC",08-02-2024 18:00:00,28.639652,77.146275,PM10,133,300,179
India,Delhi,Delhi,"Pusa, Delhi - DPCC",08-02-2024 18:00:00,28.639652,77.146275,CO,8,104,50
India,Delhi,Delhi,"R K Puram, Delhi - DPCC",08-02-2024 18:00:00,28.563262,77.186937,PM2.5,38,308,186
India,Delhi,Delhi,"Rohini, Delhi - DPCC",08-02-2024 18:00:00,28.732528,77.119920,NO2,20,52,30
India,Delhi,Delhi,"Rohini, Delhi - DPCC",08-02-2024 18:00:00,28.732528,77.119920,NH3,7,9,7
India,Delhi,Delhi,"Sirifort, Delhi - CPCB",08-02-2024 18:00:00,28.5504249,77.2159377,PM10,36,59,47
India,Delhi,Delhi,"Sonia Vihar, Delhi - DPCC",08-02-2024 18:00:00,28.710508,77.249485,NH3,5,7,6
India,Delhi,Delhi,"Sri Aurobindo Marg, Delhi - DPCC",08-02-2024 18:00:00,28.531346,77.190156,NH3,6,8,7
India,Gujarat,Ahmedabad,"Gyaspur, Ahmedabad - IITM",08-02-2024 18:00:00,22.977134,72.553024,PM10,NA,NA,NA
India,Gujarat,Ahmedabad,"Gyaspur, Ahmedabad - IITM",08-02-2024 18:00:00,22.977134,72.553024,NH3,NA,NA,NA
India,Gujarat,Ahmedabad,"Gyaspur, Ahmedabad - IITM",08-02-2024 18:00:00,22.977134,72.553024,SO2,NA,NA,NA
India,Gujarat,Ahmedabad,"Gyaspur, Ahmedabad - IITM",08-02-2024 18:00:00,22.977134,72.553024,CO,30,41,40
India,Gujarat,Ahmedabad,"Maninagar, Ahmedabad - GPCB",08-02-2024 18:00:00,23.002657,72.591912,PM2.5,NA,NA,NA
India,Gujarat,Ahmedabad,"Maninagar, Ahmedabad - GPCB",08-02-2024 18:00:00,23.002657,72.591912,PM10,NA,NA,NA
India,Gujarat,Ahmedabad,"Maninagar, Ahmedabad - GPCB",08-02-2024 18:00:00,23.002657,72.591912,NO2,NA,NA,NA
India,Gujarat,Ahmedabad,"Raikhad, Ahmedabad - IITM",08-02-2024 18:00:00,23.020509,72.579261,NH3,2,3,2
India,Gujarat,Ahmedabad,"Raikhad, Ahmedabad - IITM",08-02-2024 18:00:00,23.020509,72.579261,CO,6,84,46
India,Gujarat,Ahmedabad,"Rakhial, Ahmedabad - IITM",08-02-2024 18:00:00,23.016834,72.625775,PM10,NA,NA,NA
India,Gujarat,Ahmedabad,"SAC ISRO Bopal, Ahmedabad - IITM",08-02-2024 18:00:00,23.041137,72.456691,PM2.5,43,339,92
India,Gujarat,Ahmedabad,"SAC ISRO Bopal, Ahmedabad - IITM",08-02-2024 18:00:00,23.041137,72.456691,CO,16,66,56
India,Gujarat,Ahmedabad,"SAC ISRO Satellite, Ahmedabad - IITM",08-02-2024 18:00:00,23.023389,72.515201,PM10,88,122,103
India,Gujarat,Ahmedabad,"SAC ISRO Satellite, Ahmedabad - IITM",08-02-2024 18:00:00,23.023389,72.515201,NO2,17,18,17
India,Gujarat,Ahmedabad,"SAC ISRO Satellite, Ahmedabad - IITM",08-02-2024 18:00:00,23.023389,72.515201,NH3,3,3,3
India,Gujarat,Ahmedabad,"SAC ISRO Satellite, Ahmedabad - IITM",08-02-2024 18:00:00,23.023389,72.515201,SO2,12,17,13
India,Gujarat,Ahmedabad,"Sardar Vallabhbhai Patel Stadium, Ahmedabad - IITM",08-02-2024 18:00:00,23.043070,72.562968,PM2.5,58,198,88
India,Gujarat,Ankleshwar,"GIDC, Ankleshwar - GPCB",08-02-2024 18:00:00,21.613267,73.010555,NH3,7,7,7
India,Gujarat,Gandhinagar,"IIPHG Lekawada, Gandhinagar - IITM",08-02-2024 18:00:00,23.243639,72.68994,NH3,4,5,4
India,Gujarat,Gandhinagar,"IIPHG Lekawada, Gandhinagar - IITM",08-02-2024 18:00:00,23.243639,72.68994,SO2,1,131,26
India,Gujarat,Gandhinagar,"Sector-10, Gandhinagar - GPCB",08-02-2024 18:00:00,23.221714,72.654328,NO2,2,9,5
India,Gujarat,Surat,"Science Center, Surat - SMC",08-02-2024 18:00:00,21.170046,72.795405,SO2,16,24,19
India,Gujarat,Vapi,"Phase-1 GIDC, Vapi - GPCB",08-02-2024 18:00:00,20.362421,72.918013,SO2,44,45,44
India,Gujarat,Vatva,"Phase-4 GIDC, Vatva - GPCB",08-02-2024 18:00:00,22.969611,72.643500,CO,38,50,45
India,Haryana,Bahadurgarh,"Arya Nagar, Bahadurgarh - HSPCB",08-02-2024 18:00:00,28.6701,76.9254,SO2,2,12,10
India,Haryana,Bahadurgarh,"Arya Nagar, Bahadurgarh - HSPCB",08-02-2024 18:00:00,28.6701,76.9254,OZONE,38,47,43
India,Haryana,Ballabgarh,"Nathu Colony, Ballabgarh - HSPCB",08-02-2024 18:00:00,28.3419248,77.319699,CO,10,64,27
India,Haryana,Dharuhera,"Municipal Corporation Office, Dharuhera -  HSPCB",08-02-2024 18:00:00,28.206800,76.799700,NO2,44,100,59
India,Haryana,Faridabad,"New Industrial Town, Faridabad - HSPCB",08-02-2024 18:00:00,28.39072,77.30059,NH3,2,3,3
India,Haryana,Faridabad,"Sector 11, Faridabad - HSPCB",08-02-2024 18:00:00,28.376058,77.315741,PM10,101,141,125
India,Haryana,Faridabad,"Sector 11, Faridabad - HSPCB",08-02-2024 18:00:00,28.376058,77.315741,NH3,6,6,6
India,Haryana,Faridabad,"Sector- 16A, Faridabad - HSPCB",08-02-2024 18:00:00,28.4088421,77.3099081,PM2.5,63,257,150
India,Haryana,Fatehabad,"Huda Sector, Fatehabad - HSPCB",08-02-2024 18:00:00,29.503664,75.467934,OZONE,20,26,22
India,Haryana,Gurugram,"Sector-51, Gurugram - HSPCB",08-02-2024 18:00:00,28.4227,77.0667,PM10,113,164,134
India,Haryana,Gurugram,"Sector-51, Gurugram - HSPCB",08-02-2024 18:00:00,28.4227,77.0667,NH3,7,14,9
India,Haryana,Gurugram,"Teri Gram, Gurugram - HSPCB",08-02-2024 18:00:00,28.4275,77.1465,NO2,NA,NA,NA
India,Haryana,Gurugram,"Teri Gram, Gurugram - HSPCB",08-02-2024 18:00:00,28.4275,77.1465,OZONE,10,10,10
India,Haryana,Hisar,"Urban Estate-II, Hisar - HSPCB",08-02-2024 18:00:00,29.140560,75.744941,CO,48,105,77
India,Haryana,Hisar,"Urban Estate-II, Hisar - HSPCB",08-02-2024 18:00:00,29.140560,75.744941,OZONE,74,133,116
India,Haryana,Jind,"Police Lines, Jind - HSPCB",08-02-2024 18:00:00,29.307814,76.337619,SO2,5,126,37
India,Haryana,Kaithal,"Rishi Nagar, Kaithal - HSPCB",08-02-2024 18:00:00,29.8006,76.4155,CO,6,22,11
India,Haryana,Karnal,"Sector-12, Karnal - HSPCB",08-02-2024 18:00:00,29.695300,77.002700,NH3,10,13,12
India,Haryana,Kurukshetra,"Sector-7, Kurukshetra - HSPCB",08-02-2024 18:00:00,29.966942,76.875879,NO2,10,10,10
India,Haryana,Mandikhera,"General Hospital, Mandikhera - HSPCB",08-02-2024 18:00:00,27.9002,76.9938,OZONE,21,34,30
India,Haryana,Manesar,"Sector-2 IMT, Manesar - HSPCB",08-02-2024 18:00:00,28.360699,76.936090,PM2.5,87,175,107
India,Haryana,Narnaul,"Shastri Nagar, Narnaul - HSPCB",08-02-2024 18:00:00,28.060249,76.113115,NO2,16,58,34
India,Haryana,Narnaul,"Shastri Nagar, Narnaul - HSPCB",08-02-2024 18:00:00,28.060249,76.113115,CO,1,22,4
India,Haryana,Palwal,"Shyam Nagar, Palwal - HSPCB",08-02-2024 18:00:00,28.1485564,77.3320667,PM2.5,54,77,63
India,Haryana,Palwal,"Shyam Nagar, Palwal - HSPCB",08-02-2024 18:00:00,28.1485564,77.3320667,PM10,83,120,101
India,Haryana,Palwal,"Shyam Nagar, Palwal - HSPCB",08-02-2024 18:00:00,28.1485564,77.3320667,NH3,2,3,3
India,Haryana,Palwal,"Shyam Nagar, Palwal - HSPCB",08-02-2024 18:00:00,28.1485564,77.3320667,OZONE,1,23,18
India,Haryana,Panchkula,"Sector-6, Panchkula - HSPCB ",08-02-2024 18:00:00,30.7057778,76.8531805555555,SO2,11,12,12
India,Haryana,Panipat,"Sector-18, Panipat - HSPCB",08-02-2024 18:00:00,29.497973,76.993331,PM10,86,96,90
India,Haryana,Panipat,"Sector-18, Panipat - HSPCB",08-02-2024 18:00:00,29.497973,76.993331,SO2,12,13,12
India,Haryana,Panipat,"Sector-18, Panipat - HSPCB",08-02-2024 18:00:00,29.497973,76.993331,OZONE,30,35,32
India,Haryana,Rohtak,"MD University, Rohtak - HSPCB",08-02-2024 18:00:00,28.52123,76.37138,PM2.5,20,196,83
India,Haryana,Rohtak,"MD University, Rohtak - HSPCB",08-02-2024 18:00:00,28.52123,76.37138,SO2,5,9,7
India,Haryana,Sirsa,"F-Block, Sirsa - HSPCB",08-02-2024 18:00:00,29.536400,75.015800,PM10,50,130,106
India,Haryana,Sirsa,"F-Block, Sirsa - HSPCB",08-02-2024 18:00:00,29.536400,75.015800,SO2,2,82,18
India,Haryana,Sonipat,"Murthal, Sonipat - HSPCB",08-02-2024 18:00:00,29.027200,77.062100,PM2.5,55,110,81
India,Haryana,Sonipat,"Murthal, Sonipat - HSPCB",08-02-2024 18:00:00,29.027200,77.062100,NO2,37,45,40
India,Haryana,Sonipat,"Murthal, Sonipat - HSPCB",08-02-2024 18:00:00,29.027200,77.062100,NH3,7,10,9
India,Haryana,Yamuna Nagar,"Gobind Pura, Yamuna Nagar - HSPCB",08-02-2024 18:00:00,30.1480566,77.2893471,PM2.5,71,143,94
India,Haryana,Yamuna Nagar,"Gobind Pura, Yamuna Nagar - HSPCB",08-02-2024 18:00:00,30.1480566,77.2893471,CO,34,48,41
India,Himachal Pradesh,Baddi,"HIMUDA Complex Phase-1, Baddi - HPPCB",08-02-2024 18:00:00,30.943887,76.801991,NO2,10,31,18
India,Jharkhand,Dhanbad,"Kalakusuma, Dhanbad - DMC",08-02-2024 18:00:00,23.811548,86.481238,SO2,35,36,35
India,Karnataka,Belgaum,"Ramteerth Nagar, Belgaum - KSPCB",08-02-2024 18:00:00,15.888653,74.541751,NH3,33,34,34
India,Karnataka,Belgaum,"Ramteerth Nagar, Belgaum - KSPCB",08-02-2024 18:00:00,15.888653,74.541751,SO2,8,9,8
India,Karnataka,Belgaum,"Ramteerth Nagar, Belgaum - KSPCB",08-02-2024 18:00:00,15.888653,74.541751,OZONE,19,20,19
India,Karnataka,Bengaluru,"Bapuji Nagar, Bengaluru - KSPCB",08-02-2024 18:00:00,12.951913,77.539784,OZONE,11,12,11
India,Karnataka,Bengaluru,"City Railway Station, Bengaluru - KSPCB",08-02-2024 18:00:00,12.9756843,77.5660749,PM10,60,77,68
India,Karnataka,Bengaluru,"City Railway Station, Bengaluru - KSPCB",08-02-2024 18:00:00,12.9756843,77.5660749,CO,51,102,64
India,Karnataka,Bengaluru,"Hebbal, Bengaluru - KSPCB",08-02-2024 18:00:00,13.029152,77.585901,NH3,NA,NA,NA
India,Karnataka,Bengaluru,"Hebbal, Bengaluru - KSPCB",08-02-2024 18:00:00,13.029152,77.585901,CO,7,36,25
India,Karnataka,Bengaluru,"Jigani, Bengaluru - KSPCB",08-02-2024 18:00:00,12.7816279,77.6299145,PM10,61,145,102
India,Karnataka,Bengaluru,"Jigani, Bengaluru - KSPCB",08-02-2024 18:00:00,12.7816279,77.6299145,NO2,29,30,29
India,Karnataka,Bengaluru,"Kasturi Nagar, Bengaluru - KSPCB",08-02-2024 18:00:00,13.003872,77.664217,PM10,97,228,151
India,Karnataka,Bengaluru,"Kasturi Nagar, Bengaluru - KSPCB",08-02-2024 18:00:00,13.003872,77.664217,NO2,16,17,17
India,Karnataka,Bengaluru,"Shivapura_Peenya, Bengaluru - KSPCB",08-02-2024 18:00:00,13.0246342,77.5080115,PM10,57,133,89
